step,time_s,x,y,z,roll,pitch,yaw,terrain,speed,target_idx,dist_to_target
10,0.32,-0.0501,1.4500,0.1830,-0.0000,-0.0352,-0.0000,rough,14.0,0,8.047
20,0.64,0.3899,1.4373,0.1798,0.0000,-0.0007,-0.1613,flat,18.0,0,7.749
30,0.96,0.9068,1.3292,0.1799,-0.0001,-0.0000,-0.3544,flat,18.0,0,7.342
40,1.28,1.4032,1.1217,0.1799,-0.0002,-0.0000,-0.4951,flat,18.0,0,6.882
50,1.60,1.8730,0.8450,0.1798,-0.0004,-0.0000,-0.6012,flat,18.0,0,6.391
60,1.92,2.3197,0.5184,0.1798,-0.0003,-0.0000,-0.6769,flat,18.0,0,5.877
70,2.24,2.7424,0.1584,0.1797,-0.0002,-0.0000,-0.7450,flat,18.0,0,5.354
80,2.56,3.1399,-0.2306,0.1797,-0.0002,-0.0000,-0.8100,flat,18.0,0,4.823
90,2.88,3.5140,-0.6453,0.1797,-0.0002,-0.0000,-0.8720,flat,18.0,0,4.286
100,3.20,3.8644,-1.0833,0.1797,-0.0002,-0.0000,-0.9321,flat,18.0,0,3.742
110,3.52,4.1896,-1.5421,0.1797,-0.0002,-0.0000,-0.9910,flat,18.0,0,3.194
120,3.84,4.4885,-2.0197,0.1797,-0.0002,-0.0000,-1.0502,flat,18.0,0,2.643
130,4.16,4.7597,-2.5143,0.1797,-0.0002,-0.0000,-1.1119,flat,18.0,0,2.090
140,4.48,5.0001,-3.0242,0.1797,-0.0002,-0.0000,-1.1798,flat,18.0,0,1.535
150,4.80,5.2041,-3.5477,0.1798,-0.0004,0.0000,-1.2631,flat,18.0,0,0.983
160,5.12,5.3046,-3.9832,0.1798,-0.0002,-0.0002,-1.4816,flat,18.0,1,12.266
170,5.44,5.2669,-4.3419,0.1799,0.0005,-0.0000,-2.0697,flat,18.0,1,12.590
180,5.76,5.0436,-4.6334,0.1799,0.0001,-0.0000,-2.4737,flat,18.0,1,12.793
190,6.08,4.6939,-4.8536,0.1799,0.0001,-0.0001,-2.8355,flat,18.0,1,12.898
200,6.40,4.2430,-4.9671,0.1799,-0.0000,-0.0000,3.1128,flat,18.0,1,12.887
210,6.72,3.7462,-4.9274,0.1799,-0.0000,-0.0000,2.8546,flat,18.0,1,12.733
220,7.04,3.2543,-4.7549,0.1799,-0.0001,-0.0000,2.6655,flat,18.0,1,12.467
230,7.36,2.7906,-4.4866,0.1799,-0.0002,-0.0000,2.5272,flat,18.0,1,12.127
240,7.68,2.3567,-4.1536,0.1798,-0.0004,-0.0000,2.4311,flat,18.0,1,11.740
250,8.00,1.9518,-3.7793,0.1798,-0.0003,-0.0000,2.3507,flat,18.0,1,11.328
260,8.32,1.5744,-3.3722,0.1797,-0.0003,-0.0000,2.2783,flat,18.0,1,10.896
270,8.64,1.2224,-2.9375,0.1797,-0.0002,-0.0000,2.2129,flat,18.0,1,10.449
280,8.96,0.8959,-2.4797,0.1797,-0.0002,-0.0000,2.1540,flat,18.0,1,9.990
290,9.28,0.5951,-2.0025,0.1797,-0.0002,-0.0000,2.1009,flat,18.0,1,9.522
300,9.60,0.3178,-1.5101,0.1797,-0.0002,-0.0000,2.0544,flat,18.0,1,9.047
310,9.92,0.0619,-1.0056,0.1797,-0.0001,-0.0000,2.0129,flat,18.0,1,8.569
320,10.24,-0.1742,-0.4903,0.1797,-0.0001,-0.0000,1.9742,flat,18.0,1,8.089
330,10.56,-0.3913,0.0342,0.1797,-0.0001,-0.0000,1.9377,flat,18.0,1,7.607
340,10.88,-0.5898,0.5666,0.1797,-0.0001,-0.0000,1.9029,flat,18.0,1,7.127
350,11.20,-0.7701,1.1057,0.1797,-0.0001,-0.0000,1.8687,flat,18.0,1,6.649
360,11.52,-0.9322,1.6507,0.1797,-0.0001,-0.0000,1.8343,flat,18.0,1,6.175
370,11.84,-1.0754,2.2006,0.1797,-0.0001,0.0000,1.7977,flat,18.0,1,5.707
380,12.16,-1.1703,2.7407,0.1799,-0.0000,-0.0000,1.6483,flat,18.0,1,5.248
390,12.48,-1.1958,3.2918,0.1799,-0.0001,-0.0000,1.4977,flat,18.0,1,4.764
400,12.80,-1.1420,3.8430,0.1799,-0.0004,-0.0000,1.3835,flat,18.0,1,4.256
410,13.12,-1.0388,4.3911,0.1798,-0.0003,-0.0000,1.3347,flat,18.0,1,3.736
420,13.44,-0.8994,4.9349,0.1797,-0.0002,-0.0000,1.2714,flat,18.0,1,3.211
430,13.76,-0.7260,5.4690,0.1797,-0.0002,-0.0000,1.2133,flat,18.0,1,2.685
440,14.08,-0.5217,5.9918,0.1797,-0.0002,-0.0000,1.1567,flat,18.0,1,2.163
450,14.40,-0.2876,6.4946,0.1798,-0.0001,-0.0000,1.0785,flat,18.0,1,1.655
460,14.72,-0.0147,6.9739,0.1798,-0.0003,0.0000,0.9937,flat,18.0,1,1.164
470,15.04,0.2915,7.4068,0.1814,-0.0003,0.0114,0.8769,flat,18.0,2,14.792
480,15.36,0.4584,7.5622,0.1800,-0.0004,-0.0012,0.2593,flat,18.0,2,15.014
490,15.68,0.7627,7.6364,0.1795,-0.0017,-0.0001,-0.1843,flat,18.0,2,15.247
500,16.00,1.1100,7.5402,0.1799,0.0001,-0.0000,-0.6272,flat,18.0,2,15.369
510,16.32,1.4011,7.2619,0.1799,0.0001,-0.0001,-0.9418,flat,18.0,2,15.319
520,16.64,1.6427,6.8597,0.1799,-0.0000,-0.0000,-1.2281,flat,18.0,2,15.152
530,16.96,1.7869,6.3731,0.1799,-0.0000,-0.0000,-1.4838,flat,18.0,2,14.870
540,17.28,1.8106,5.8428,0.1799,-0.0001,-0.0000,-1.6926,flat,18.0,2,14.488
550,17.60,1.7264,5.3063,0.1799,-0.0001,-0.0000,-1.8430,flat,18.0,2,14.036
560,17.92,1.5639,4.7813,0.1798,-0.0004,-0.0000,-1.9501,flat,18.0,2,13.545
570,18.24,1.3464,4.2714,0.1798,-0.0004,-0.0000,-2.0308,flat,18.0,2,13.029
580,18.56,1.0883,3.7764,0.1797,-0.0002,-0.0000,-2.0941,flat,18.0,2,12.499
590,18.88,0.7992,3.2954,0.1797,-0.0002,-0.0000,-2.1452,flat,18.0,2,11.957
600,19.20,0.4854,2.8278,0.1797,-0.0001,-0.0000,-2.1859,flat,18.0,2,11.409
610,19.52,0.1528,2.3714,0.1797,-0.0001,-0.0000,-2.2199,flat,18.0,2,10.855
620,19.84,-0.1954,1.9249,0.1797,-0.0001,-0.0000,-2.2494,flat,18.0,2,10.298
630,20.16,-0.5568,1.4875,0.1797,-0.0001,-0.0000,-2.2753,flat,18.0,2,9.738
640,20.48,-0.9295,1.0583,0.1797,-0.0001,-0.0000,-2.2986,flat,18.0,2,9.175
650,20.80,-1.3124,0.6369,0.1797,-0.0001,-0.0000,-2.3201,flat,18.0,2,8.610
660,21.12,-1.7043,0.2229,0.1797,-0.0001,-0.0000,-2.3395,flat,18.0,2,8.044
670,21.44,-2.1042,-0.1840,0.1797,-0.0001,-0.0000,-2.3570,flat,18.0,2,7.477
680,21.76,-2.5113,-0.5845,0.1797,-0.0001,-0.0000,-2.3731,flat,18.0,2,6.908
690,22.08,-2.9249,-0.9786,0.1797,-0.0001,-0.0000,-2.3884,flat,18.0,2,6.339
700,22.40,-3.3446,-1.3667,0.1797,-0.0001,-0.0000,-2.4028,flat,18.0,2,5.769
710,22.72,-3.7697,-1.7489,0.1797,-0.0000,-0.0000,-2.4164,flat,18.0,2,5.199
720,23.04,-4.1999,-2.1256,0.1797,-0.0000,-0.0000,-2.4294,flat,18.0,2,4.629
730,23.36,-4.6349,-2.4968,0.1797,-0.0000,-0.0000,-2.4420,flat,18.0,2,4.058
740,23.68,-5.0745,-2.8624,0.1797,-0.0000,0.0000,-2.4548,flat,18.0,2,3.487
750,24.00,-5.5187,-3.2222,0.1797,-0.0000,0.0000,-2.4681,flat,18.0,2,2.917
760,24.32,-5.9675,-3.5758,0.1797,-0.0001,0.0000,-2.4827,flat,18.0,2,2.346
770,24.64,-6.4212,-3.9219,0.1797,-0.0001,0.0000,-2.5000,flat,18.0,2,1.776
780,24.96,-6.8801,-4.2583,0.1797,-0.0001,0.0000,-2.5234,flat,18.0,2,1.208
790,25.28,-7.3412,-4.5735,0.1797,-0.0001,-0.0000,-2.5845,flat,18.0,3,1.123
800,25.60,-7.7761,-4.8157,0.1799,-0.0002,0.0009,-2.6765,flat,18.0,0,13.124
810,25.92,-8.0389,-5.0245,0.1798,0.0001,-0.0003,-2.1600,flat,18.0,0,13.393
820,26.24,-8.2256,-5.3764,0.1799,-0.0001,-0.0000,-1.6609,flat,18.0,0,13.597
830,26.56,-8.2383,-5.7658,0.1799,0.0001,-0.0001,-1.2446,flat,18.0,0,13.640
840,26.88,-8.0624,-6.1684,0.1799,0.0001,-0.0000,-0.9488,flat,18.0,0,13.508
850,27.20,-7.7411,-6.5357,0.1799,0.0001,-0.0000,-0.7299,flat,18.0,0,13.240
860,27.52,-7.3258,-6.8551,0.1799,0.0001,0.0000,-0.5420,flat,18.0,0,12.884
870,27.84,-6.8457,-7.1116,0.1799,0.0001,-0.0000,-0.3782,flat,18.0,0,12.463
880,28.16,-6.3244,-7.2980,0.1799,0.0002,-0.0000,-0.2438,flat,18.0,0,11.995
890,28.48,-5.7789,-7.4195,0.1798,0.0004,-0.0000,-0.1349,flat,18.0,0,11.495
900,28.80,-5.2205,-7.4845,0.1798,0.0004,-0.0000,-0.0463,flat,18.0,0,10.973
910,29.12,-4.6560,-7.5021,0.1798,0.0003,-0.0000,0.0254,flat,18.0,0,10.436
920,29.44,-4.0906,-7.4809,0.1797,0.0002,-0.0000,0.0801,flat,18.0,0,9.889
930,29.76,-3.5260,-7.4302,0.1797,0.0002,-0.0000,0.1234,flat,18.0,0,9.336
940,30.08,-2.9634,-7.3559,0.1797,0.0001,-0.0000,0.1579,flat,18.0,0,8.779
950,30.40,-2.4025,-7.2626,0.1797,0.0001,-0.0000,0.1872,flat,18.0,0,8.218
960,30.72,-1.8437,-7.1531,0.1797,0.0001,-0.0000,0.2124,flat,18.0,0,7.655
970,31.04,-1.2870,-7.0299,0.1797,0.0001,-0.0000,0.2343,flat,18.0,0,7.091
980,31.36,-0.7326,-6.8947,0.1797,0.0001,-0.0000,0.2536,flat,18.0,0,6.525
990,31.68,-0.1803,-6.7488,0.1797,0.0001,-0.0000,0.2710,flat,18.0,0,5.957
1000,32.00,0.3698,-6.5935,0.1797,0.0001,-0.0000,0.2867,flat,18.0,0,5.390
1010,32.32,0.9177,-6.4296,0.1797,0.0001,-0.0000,0.3012,flat,18.0,0,4.821
1020,32.64,1.4634,-6.2578,0.1797,0.0000,-0.0000,0.3148,flat,18.0,0,4.252
1030,32.96,2.0068,-6.0787,0.1797,0.0000,-0.0000,0.3279,flat,18.0,0,3.684
1040,33.28,2.5479,-5.8924,0.1797,0.0000,-0.0000,0.3408,flat,18.0,0,3.115
1050,33.60,3.0863,-5.6992,0.1797,0.0000,0.0000,0.3541,flat,18.0,0,2.547
1060,33.92,3.6217,-5.4987,0.1797,0.0001,0.0000,0.3687,flat,18.0,0,1.981
1070,34.24,4.1530,-5.2905,0.1797,0.0001,0.0000,0.3866,flat,18.0,0,1.419
1080,34.56,4.6772,-5.0728,0.1797,0.0001,0.0000,0.4142,flat,18.0,0,0.866
1090,34.88,5.0920,-4.8731,0.1798,-0.0003,0.0000,0.6544,flat,18.0,1,13.036
1100,35.20,5.3845,-4.5798,0.1799,-0.0000,-0.0000,0.9647,flat,18.0,1,12.854
1110,35.52,5.6204,-4.1685,0.1799,0.0000,-0.0000,1.2530,flat,18.0,1,12.552
1120,35.84,5.7533,-3.6765,0.1799,0.0001,-0.0000,1.5115,flat,18.0,1,12.147
1130,36.16,5.7614,-3.1460,0.1799,0.0001,-0.0000,1.7221,flat,18.0,1,11.664
1140,36.48,5.6606,-2.6134,0.1799,0.0001,-0.0000,1.8742,flat,18.0,1,11.137
1150,36.80,5.4814,-2.0954,0.1798,0.0004,-0.0000,1.9835,flat,18.0,1,10.591
1160,37.12,5.2465,-1.5947,0.1798,0.0004,-0.0000,2.0675,flat,18.0,1,10.038
1170,37.44,4.9701,-1.1115,0.1797,0.0003,-0.0000,2.1348,flat,18.0,1,9.484
1180,37.76,4.6613,-0.6448,0.1797,0.0002,-0.0000,2.1903,flat,18.0,1,8.931
1190,38.08,4.3265,-0.1937,0.1797,0.0002,-0.0000,2.2370,flat,18.0,1,8.384
1200,38.40,3.9707,0.2428,0.1797,0.0001,-0.0000,2.2757,flat,18.0,1,7.844
1210,38.72,3.5980,0.6670,0.1797,0.0001,-0.0000,2.3114,flat,18.0,1,7.313
1220,39.04,3.2100,1.0789,0.1797,0.0001,-0.0000,2.3444,flat,18.0,1,6.794
1230,39.36,2.8084,1.4788,0.1797,0.0001,-0.0000,2.3748,flat,18.0,1,6.291
1240,39.68,2.3947,1.8665,0.1797,0.0001,-0.0000,2.4042,flat,18.0,1,5.809
1250,40.00,1.9699,2.2421,0.1797,0.0001,-0.0000,2.4324,flat,18.0,1,5.353
1260,40.32,1.5351,2.6059,0.1797,0.0001,-0.0000,2.4601,flat,18.0,1,4.931
1270,40.64,1.0904,2.9575,0.1797,0.0001,0.0000,2.4888,flat,18.0,1,4.553
1280,40.96,0.6360,3.2957,0.1797,0.0001,0.0000,2.5202,flat,18.0,1,4.231
1290,41.28,0.2322,3.6042,0.1799,0.0002,0.0000,2.3563,flat,18.0,1,3.984
1300,41.60,-0.0819,3.9873,0.1799,0.0000,-0.0000,2.1105,flat,18.0,1,3.690
1310,41.92,-0.3203,4.4560,0.1799,-0.0000,-0.0000,1.8644,flat,18.0,1,3.335
1320,42.24,-0.4509,4.9774,0.1799,-0.0000,-0.0000,1.6351,flat,18.0,1,2.928
1330,42.56,-0.4639,5.5183,0.1799,-0.0001,-0.0000,1.4358,flat,18.0,1,2.483
1340,42.88,-0.3728,6.0513,0.1799,-0.0001,-0.0000,1.2755,flat,18.0,1,2.016
1350,43.20,-0.1974,6.5617,0.1799,-0.0001,-0.0000,1.1339,flat,18.0,1,1.542
1360,43.52,0.0500,7.0383,0.1799,-0.0002,-0.0000,0.9965,flat,18.0,1,1.077
1370,43.84,0.3318,7.4407,0.1805,-0.0003,0.0053,0.8620,flat,18.0,2,14.843
1380,44.16,0.4993,7.5642,0.1736,-0.0353,0.0008,0.2092,flat,18.0,2,15.039
1390,44.48,0.8251,7.6206,0.1799,0.0003,-0.0000,-0.2786,flat,18.0,2,15.269
1400,44.80,1.1599,7.4880,0.1799,0.0001,-0.0000,-0.6895,flat,18.0,2,15.356
1410,45.12,1.4409,7.1832,0.1799,0.0000,-0.0000,-1.0037,flat,18.0,2,15.281
1420,45.44,1.6636,6.7624,0.1799,-0.0001,-0.0000,-1.2895,flat,18.0,2,15.090
1430,45.76,1.7796,6.2645,0.1799,-0.0001,0.0000,-1.5392,flat,18.0,2,14.783
1440,46.08,1.7738,5.7317,0.1799,-0.0001,-0.0000,-1.7391,flat,18.0,2,14.381
1450,46.40,1.6643,5.1994,0.1799,-0.0002,-0.0000,-1.8829,flat,18.0,2,13.916
1460,46.72,1.4809,4.6811,0.1798,-0.0004,-0.0000,-1.9853,flat,18.0,2,13.415
1470,47.04,1.2453,4.1790,0.1798,-0.0003,-0.0000,-2.0633,flat,18.0,2,12.893
1480,47.36,0.9710,3.6926,0.1797,-0.0002,-0.0000,-2.1249,flat,18.0,2,12.356
1490,47.68,0.6670,3.2208,0.1797,-0.0002,-0.0000,-2.1750,flat,18.0,2,11.810
1500,48.00,0.3393,2.7628,0.1797,-0.0001,-0.0000,-2.2149,flat,18.0,2,11.257
1510,48.32,-0.0066,2.3163,0.1797,-0.0001,-0.0000,-2.2487,flat,18.0,2,10.700
1520,48.64,-0.3677,1.8802,0.1797,-0.0001,-0.0000,-2.2781,flat,18.0,2,10.140
1530,48.96,-0.7416,1.4533,0.1797,-0.0001,-0.0000,-2.3047,flat,18.0,2,9.576
1540,49.28,-1.1269,1.0353,0.1797,-0.0001,-0.0000,-2.3289,flat,18.0,2,9.011
1550,49.60,-1.5225,0.6257,0.1797,-0.0001,-0.0000,-2.3506,flat,18.0,2,8.443
1560,49.92,-1.9269,0.2241,0.1797,-0.0001,-0.0000,-2.3702,flat,18.0,2,7.875
1570,50.24,-2.3392,-0.1701,0.1797,-0.0001,-0.0000,-2.3884,flat,18.0,2,7.305
1580,50.56,-2.7588,-0.5570,0.1797,-0.0001,-0.0000,-2.4055,flat,18.0,2,6.735
1590,50.88,-3.1848,-0.9372,0.1797,-0.0001,-0.0000,-2.4213,flat,18.0,2,6.164
1600,51.20,-3.6166,-1.3110,0.1797,-0.0001,-0.0000,-2.4362,flat,18.0,2,5.593
1610,51.52,-4.0450,-1.6831,0.1797,-0.0000,-0.0000,-2.4267,flat,18.0,2,5.026
1620,51.84,-4.4797,-2.0592,0.1797,-0.0000,-0.0000,-2.4304,flat,18.0,2,4.451
1630,52.16,-4.9158,-2.4336,0.1797,-0.0000,-0.0000,-2.4341,flat,18.0,2,3.876
1640,52.48,-5.3532,-2.8064,0.1797,-0.0000,0.0000,-2.4380,flat,18.0,2,3.302
1650,52.80,-5.7921,-3.1774,0.1797,-0.0000,0.0000,-2.4420,flat,18.0,2,2.727
1660,53.12,-6.2324,-3.5464,0.1797,-0.0000,0.0000,-2.4466,flat,18.0,2,2.152
1670,53.44,-6.6742,-3.9131,0.1797,-0.0000,0.0000,-2.4521,flat,18.0,2,1.578
1680,53.76,-7.1178,-4.2762,0.1797,-0.0000,0.0000,-2.4604,flat,18.0,2,1.005
1690,54.08,-7.5558,-4.6144,0.1798,-0.0000,0.0000,-2.5423,flat,18.0,3,0.906
1700,54.40,-7.9242,-4.8741,0.1799,-0.0004,0.0000,-2.2915,flat,18.0,0,13.274
1710,54.72,-8.1426,-5.2055,0.1799,-0.0001,-0.0000,-1.7914,flat,18.0,0,13.505
1720,55.04,-8.2069,-5.5876,0.1799,0.0001,-0.0001,-1.3421,flat,18.0,0,13.594
1730,55.36,-8.0786,-5.9934,0.1799,0.0001,-0.0000,-1.0208,flat,18.0,0,13.504
1740,55.68,-7.7916,-6.3735,0.1799,0.0001,-0.0000,-0.7850,flat,18.0,0,13.266
1750,56.00,-7.3980,-6.7075,0.1799,0.0001,-0.0000,-0.5930,flat,18.0,0,12.929
1760,56.32,-6.9334,-6.9836,0.1799,0.0001,-0.0000,-0.4224,flat,18.0,0,12.523
1770,56.64,-6.4219,-7.1903,0.1799,0.0002,-0.0000,-0.2809,flat,18.0,0,12.066
1780,56.96,-5.8821,-7.3304,0.1799,0.0004,-0.0000,-0.1661,flat,18.0,0,11.573
1790,57.28,-5.3266,-7.4120,0.1798,0.0004,-0.0000,-0.0727,flat,18.0,0,11.056
1800,57.60,-4.7633,-7.4440,0.1798,0.0003,-0.0000,0.0034,flat,18.0,0,10.522
1810,57.92,-4.2167,-7.4312,0.1799,0.0001,0.0000,0.1669,flat,18.0,0,9.995
1820,58.24,-3.6980,-7.3200,0.1799,0.0001,-0.0000,0.3587,flat,18.0,0,9.466
1830,58.56,-3.2064,-7.1107,0.1799,0.0001,-0.0000,0.5116,flat,18.0,0,8.935
1840,58.88,-2.7496,-6.8259,0.1799,0.0002,-0.0000,0.6400,flat,18.0,0,8.416
1850,59.20,-2.3289,-6.4893,0.1798,0.0003,-0.0002,0.6790,flat,18.0,0,7.922
1860,59.52,-1.8861,-6.1569,0.1798,-0.0003,-0.0000,0.5893,flat,18.0,0,7.414
1870,59.84,-1.4128,-5.8594,0.1798,-0.0003,-0.0000,0.5083,flat,18.0,0,6.889
1880,60.16,-0.9155,-5.5969,0.1798,-0.0003,-0.0000,0.4360,flat,18.0,0,6.352
1890,60.48,-0.3995,-5.3680,0.1797,-0.0002,-0.0000,0.3714,flat,18.0,0,5.806
1900,60.80,0.1311,-5.1706,0.1797,-0.0002,-0.0000,0.3133,flat,18.0,0,5.254
1910,61.12,0.6731,-5.0034,0.1797,-0.0002,-0.0000,0.2605,flat,18.0,0,4.697
1920,61.44,1.2237,-4.8637,0.1797,-0.0002,-0.0000,0.2120,flat,18.0,0,4.135
1930,61.76,1.7809,-4.7499,0.1797,-0.0002,-0.0000,0.1666,flat,18.0,0,3.571
1940,62.08,2.3418,-4.6609,0.1797,-0.0001,-0.0000,0.1254,flat,18.0,0,3.006
1950,62.40,2.9055,-4.5947,0.1797,-0.0001,-0.0000,0.0842,flat,18.0,0,2.440
1960,62.72,3.4709,-4.5517,0.1797,-0.0002,0.0000,0.0395,flat,18.0,0,1.874
1970,63.04,4.0361,-4.5346,0.1797,-0.0002,0.0000,-0.0135,flat,18.0,0,1.309
1980,63.36,4.5977,-4.5487,0.1798,-0.0003,0.0000,-0.0939,flat,18.0,1,0.748
1990,63.68,5.0947,-4.5554,0.1799,-0.0005,0.0001,0.2146,flat,18.0,1,12.735
2000,64.00,5.4628,-4.4472,0.1799,-0.0001,-0.0000,0.6233,flat,18.0,1,12.756
2010,64.32,5.7493,-4.1727,0.1799,-0.0000,-0.0001,0.9511,flat,18.0,1,12.604
2020,64.64,5.9840,-3.7723,0.1799,0.0000,-0.0000,1.2519,flat,18.0,1,12.326
2030,64.96,6.1147,-3.2870,0.1799,0.0001,-0.0000,1.5230,flat,18.0,1,11.939
2040,65.28,6.1158,-2.7613,0.1799,0.0001,-0.0000,1.7422,flat,18.0,1,11.466
2050,65.60,6.0035,-2.2343,0.1799,0.0001,-0.0000,1.9023,flat,18.0,1,10.945
2060,65.92,5.8092,-1.7240,0.1799,0.0004,-0.0000,2.0168,flat,18.0,1,10.402
2070,66.24,5.5574,-1.2334,0.1798,0.0004,-0.0000,2.1044,flat,18.0,1,9.851
2080,66.56,5.2628,-0.7619,0.1797,0.0003,-0.0000,2.1731,flat,18.0,1,9.297
2090,66.88,4.9361,-0.3083,0.1797,0.0002,-0.0000,2.2298,flat,18.0,1,8.745
2100,67.20,4.5835,0.1281,0.1797,0.0002,-0.0000,2.2792,flat,18.0,1,8.197
2110,67.52,4.2093,0.5485,0.1797,0.0001,-0.0000,2.3215,flat,18.0,1,7.658
2120,67.84,3.8172,0.9544,0.1797,0.0001,-0.0000,2.3595,flat,18.0,1,7.128
2130,68.16,3.4098,1.3463,0.1797,0.0001,-0.0000,2.3944,flat,18.0,1,6.611
2140,68.48,2.9887,1.7242,0.1797,0.0001,-0.0000,2.4273,flat,18.0,1,6.112
2150,68.80,2.5559,2.0888,0.1797,0.0001,-0.0000,2.4579,flat,18.0,1,5.635
2160,69.12,2.1121,2.4408,0.1797,0.0001,-0.0000,2.4879,flat,18.0,1,5.186
2170,69.44,1.6577,2.7797,0.1797,0.0001,-0.0000,2.5180,flat,18.0,1,4.773
2180,69.76,1.1934,3.1050,0.1797,0.0001,-0.0000,2.5492,flat,18.0,1,4.408
2190,70.08,0.7193,3.4152,0.1797,0.0001,0.0000,2.5829,flat,18.0,1,4.106
2200,70.40,0.2959,3.6945,0.1799,0.0003,0.0000,2.4188,flat,18.0,1,3.883
2210,70.72,-0.0407,4.0316,0.1799,0.0001,-0.0000,2.2129,flat,18.0,1,3.636
2220,71.04,-0.3118,4.4656,0.1799,-0.0000,-0.0000,1.9523,flat,18.0,1,3.322
2230,71.36,-0.4812,4.9692,0.1799,-0.0001,-0.0000,1.7007,flat,18.0,1,2.950
2240,71.68,-0.5267,5.5047,0.1799,-0.0001,-0.0000,1.4741,flat,18.0,1,2.532
2250,72.00,-0.4547,6.0373,0.1799,-0.0001,-0.0000,1.2942,flat,18.0,1,2.083
2260,72.32,-0.2885,6.5476,0.1799,-0.0001,-0.0000,1.1401,flat,18.0,1,1.623
2270,72.64,-0.0440,7.0231,0.1799,-0.0001,-0.0000,0.9943,flat,18.0,1,1.169
2280,72.96,0.2631,7.4480,0.1815,-0.0002,0.0112,0.8573,flat,18.0,2,14.811
2290,73.28,0.4485,7.6065,0.1800,0.0009,-0.0014,0.3169,flat,18.0,2,15.046
2300,73.60,0.7835,7.6906,0.1796,0.0004,-0.0020,-0.2011,flat,18.0,2,15.303
2310,73.92,1.1289,7.5883,0.1799,-0.0000,-0.0000,-0.6369,flat,18.0,2,15.419
2320,74.24,1.4192,7.3049,0.1799,0.0000,-0.0001,-0.9511,flat,18.0,2,15.364
2330,74.56,1.6585,6.8991,0.1799,-0.0000,-0.0000,-1.2363,flat,18.0,2,15.193
2340,74.88,1.7991,6.4104,0.1799,-0.0001,-0.0000,-1.4892,flat,18.0,2,14.907
2350,75.20,1.8194,5.8792,0.1799,-0.0001,0.0000,-1.6955,flat,18.0,2,14.521
2360,75.52,1.7332,5.3427,0.1799,-0.0001,-0.0000,-1.8457,flat,18.0,2,14.067
2370,75.84,1.5693,4.8179,0.1798,-0.0004,-0.0000,-1.9515,flat,18.0,2,13.575
2380,76.16,1.3511,4.3080,0.1798,-0.0004,-0.0000,-2.0314,flat,18.0,2,13.059
2390,76.48,1.0927,3.8130,0.1797,-0.0002,-0.0000,-2.0942,flat,18.0,2,12.527
2400,76.80,0.8035,3.3319,0.1797,-0.0002,-0.0000,-2.1449,flat,18.0,2,11.985
2410,77.12,0.4900,2.8641,0.1797,-0.0001,-0.0000,-2.1851,flat,18.0,2,11.437
2420,77.44,0.1577,2.4073,0.1797,-0.0001,-0.0000,-2.2189,flat,18.0,2,10.883
2430,77.76,-0.1900,1.9604,0.1797,-0.0001,-0.0000,-2.2482,flat,18.0,2,10.326
2440,78.08,-0.5510,1.5224,0.1797,-0.0001,-0.0000,-2.2739,flat,18.0,2,9.765
2450,78.40,-0.9231,1.0927,0.1797,-0.0001,-0.0000,-2.2971,flat,18.0,2,9.202
2460,78.72,-1.3053,0.6706,0.1797,-0.0001,-0.0000,-2.3184,flat,18.0,2,8.638
2470,79.04,-1.6964,0.2559,0.1797,-0.0001,-0.0000,-2.3376,flat,18.0,2,8.071
2480,79.36,-2.0957,-0.1518,0.1797,-0.0001,-0.0000,-2.3550,flat,18.0,2,7.504
2490,79.68,-2.5020,-0.5531,0.1797,-0.0001,-0.0000,-2.3710,flat,18.0,2,6.935
2500,80.00,-2.9147,-0.9482,0.1797,-0.0001,-0.0000,-2.3861,flat,18.0,2,6.366
2510,80.32,-3.3335,-1.3373,0.1797,-0.0001,-0.0000,-2.4004,flat,18.0,2,5.796
2520,80.64,-3.7577,-1.7206,0.1797,-0.0000,-0.0000,-2.4139,flat,18.0,2,5.226
2530,80.96,-4.1870,-2.0984,0.1797,-0.0000,-0.0000,-2.4268,flat,18.0,2,4.655
2540,81.28,-4.6210,-2.4707,0.1797,-0.0000,-0.0000,-2.4394,flat,18.0,2,4.085
2550,81.60,-5.0597,-2.8376,0.1797,-0.0000,0.0000,-2.4520,flat,18.0,2,3.514
2560,81.92,-5.5029,-3.1987,0.1797,-0.0000,0.0000,-2.4651,flat,18.0,2,2.943
2570,82.24,-5.9506,-3.5537,0.1797,-0.0001,0.0000,-2.4794,flat,18.0,2,2.373
2580,82.56,-6.4032,-3.9014,0.1797,-0.0001,0.0000,-2.4963,flat,18.0,2,1.803
2590,82.88,-6.8609,-4.2397,0.1797,-0.0001,0.0000,-2.5191,flat,18.0,2,1.234
2600,83.20,-7.3210,-4.5575,0.1797,-0.0001,-0.0000,-2.5780,flat,18.0,3,1.147
2610,83.52,-7.7545,-4.8036,0.1799,-0.0002,0.0015,-2.6665,flat,18.0,0,13.102
2620,83.84,-8.0131,-5.0107,0.1798,0.0029,-0.0038,-2.1224,flat,18.0,0,13.367
2630,84.16,-8.1834,-5.3647,0.1799,-0.0001,-0.0000,-1.6294,flat,18.0,0,13.554
2640,84.48,-8.1842,-5.7567,0.1799,-0.0002,-0.0001,-1.2179,flat,18.0,0,13.585
2650,84.80,-7.9970,-6.1581,0.1799,-0.0001,-0.0001,-0.9311,flat,18.0,0,13.442
2660,85.12,-7.6683,-6.5228,0.1799,0.0000,-0.0000,-0.7176,flat,18.0,0,13.166
2670,85.44,-7.2483,-6.8393,0.1799,0.0000,-0.0000,-0.5312,flat,18.0,0,12.805
2680,85.76,-6.7652,-7.0918,0.1799,0.0001,-0.0000,-0.3701,flat,18.0,0,12.380
2690,86.08,-6.2422,-7.2746,0.1799,0.0002,-0.0000,-0.2377,flat,18.0,0,11.910
2700,86.40,-5.6958,-7.3930,0.1798,0.0004,-0.0000,-0.1304,flat,18.0,0,11.408
2710,86.72,-5.1369,-7.4558,0.1798,0.0004,-0.0000,-0.0430,flat,18.0,0,10.885
2720,87.04,-4.5722,-7.4716,0.1798,0.0003,-0.0000,0.0277,flat,18.0,0,10.347
2730,87.36,-4.0068,-7.4492,0.1797,0.0002,-0.0000,0.0814,flat,18.0,0,9.799
2740,87.68,-3.4422,-7.3977,0.1797,0.0002,-0.0000,0.1242,flat,18.0,0,9.246
2750,88.00,-2.8796,-7.3230,0.1797,0.0001,-0.0000,0.1585,flat,18.0,0,8.689
2760,88.32,-2.3187,-7.2294,0.1797,0.0001,-0.0000,0.1875,flat,18.0,0,8.128
2770,88.64,-1.7599,-7.1198,0.1797,0.0001,-0.0000,0.2125,flat,18.0,0,7.565
2780,88.96,-1.2032,-6.9965,0.1797,0.0001,-0.0000,0.2343,flat,18.0,0,7.000
2790,89.28,-0.6487,-6.8613,0.1797,0.0001,-0.0000,0.2536,flat,18.0,0,6.434
2800,89.60,-0.0964,-6.7155,0.1797,0.0001,-0.0000,0.2709,flat,18.0,0,5.867
2810,89.92,0.4537,-6.5602,0.1797,0.0001,-0.0000,0.2866,flat,18.0,0,5.299
2820,90.24,1.0016,-6.3964,0.1797,0.0001,-0.0000,0.3011,flat,18.0,0,4.731
2830,90.56,1.5473,-6.2246,0.1797,0.0000,-0.0000,0.3148,flat,18.0,0,4.162
2840,90.88,2.0907,-6.0455,0.1797,0.0000,-0.0000,0.3280,flat,18.0,0,3.594
2850,91.20,2.6317,-5.8592,0.1797,0.0000,0.0000,0.3411,flat,18.0,0,3.025
2860,91.52,3.1700,-5.6658,0.1797,0.0000,0.0000,0.3546,flat,18.0,0,2.458
2870,91.84,3.7051,-5.4651,0.1797,0.0001,0.0000,0.3697,flat,18.0,0,1.892
2880,92.16,4.2358,-5.2563,0.1797,0.0001,0.0000,0.3886,flat,18.0,0,1.331
2890,92.48,4.7584,-5.0376,0.1797,0.0001,0.0000,0.4198,flat,18.0,1,0.782
2900,92.80,5.1341,-4.8366,0.1799,-0.0002,0.0000,0.7161,flat,18.0,1,13.014
2910,93.12,5.4176,-4.5180,0.1799,-0.0000,-0.0000,1.0206,flat,18.0,1,12.807
2920,93.44,5.6374,-4.0882,0.1799,0.0000,-0.0000,1.3038,flat,18.0,1,12.484
2930,93.76,5.7477,-3.5857,0.1799,0.0001,-0.0000,1.5550,flat,18.0,1,12.061
2940,94.08,5.7338,-3.0521,0.1799,0.0001,-0.0000,1.7539,flat,18.0,1,11.567
2950,94.40,5.6166,-2.5216,0.1799,0.0002,-0.0000,1.8960,flat,18.0,1,11.035
2960,94.72,5.4262,-2.0064,0.1798,0.0004,-0.0000,1.9996,flat,18.0,1,10.487
2970,95.04,5.1833,-1.5087,0.1798,0.0004,-0.0000,2.0799,flat,18.0,1,9.934
2980,95.36,4.9009,-1.0283,0.1797,0.0002,-0.0000,2.1446,flat,18.0,1,9.379
2990,95.68,4.5874,-0.5641,0.1797,0.0002,-0.0000,2.1984,flat,18.0,1,8.827
3000,96.00,4.2489,-0.1154,0.1797,0.0002,-0.0000,2.2433,flat,18.0,1,8.281
3010,96.32,3.8903,0.3192,0.1797,0.0001,-0.0000,2.2812,flat,18.0,1,7.743
3020,96.64,3.5152,0.7416,0.1797,0.0001,-0.0000,2.3164,flat,18.0,1,7.214
3030,96.96,3.1251,1.1518,0.1797,0.0001,-0.0000,2.3488,flat,18.0,1,6.698
3040,97.28,2.7217,1.5500,0.1797,0.0001,-0.0000,2.3789,flat,18.0,1,6.198
3050,97.60,2.3064,1.9360,0.1797,0.0001,-0.0000,2.4081,flat,18.0,1,5.721
3060,97.92,1.8802,2.3101,0.1797,0.0001,0.0000,2.4362,flat,18.0,1,5.271
3070,98.24,1.4441,2.6722,0.1797,0.0001,-0.0000,2.4639,flat,18.0,1,4.856
3080,98.56,0.9981,3.0221,0.1797,0.0001,0.0000,2.4930,flat,18.0,1,4.488
3090,98.88,0.5423,3.3582,0.1797,0.0001,0.0000,2.5251,flat,18.0,1,4.179
3100,99.20,0.1634,3.6702,0.1798,-0.0017,0.0020,2.3065,flat,18.0,1,3.934
3110,99.52,-0.1385,4.0737,0.1799,0.0000,-0.0000,2.0569,flat,18.0,1,3.626
3120,99.84,-0.3557,4.5568,0.1799,-0.0000,-0.0000,1.8138,flat,18.0,1,3.257
3130,100.16,-0.4615,5.0853,0.1799,-0.0001,-0.0000,1.5895,flat,18.0,1,2.841
3140,100.48,-0.4507,5.6264,0.1799,-0.0001,-0.0000,1.4001,flat,18.0,1,2.389
3150,100.80,-0.3408,6.1558,0.1799,-0.0001,-0.0000,1.2456,flat,18.0,1,1.919
3160,101.12,-0.1500,6.6604,0.1799,-0.0002,-0.0000,1.1063,flat,18.0,1,1.445
3170,101.44,0.1112,7.1294,0.1799,-0.0002,-0.0000,0.9703,flat,18.0,1,0.984
3180,101.76,0.3676,7.4857,0.1785,-0.0002,-0.0080,0.7711,flat,18.0,2,14.900
3190,102.08,0.5591,7.5816,0.1776,-0.0131,0.0001,0.1258,flat,18.0,2,15.087
3200,102.40,0.9006,7.6114,0.1799,0.0004,0.0000,-0.3745,flat,18.0,2,15.305
3210,102.72,1.2229,7.4398,0.1799,0.0001,-0.0000,-0.7547,flat,18.0,2,15.354
3220,103.04,1.4997,7.1082,0.1799,0.0000,-0.0000,-1.0533,flat,18.0,2,15.257
3230,103.36,1.7091,6.6693,0.1799,-0.0000,-0.0000,-1.3293,flat,18.0,2,15.047
3240,103.68,1.8086,6.1613,0.1799,0.0000,-0.0000,-1.5717,flat,18.0,2,14.725
3250,104.00,1.7880,5.6252,0.1799,-0.0001,-0.0000,-1.7559,flat,18.0,2,14.312
3260,104.32,1.6706,5.0921,0.1799,-0.0002,-0.0000,-1.8879,flat,18.0,2,13.842
3270,104.64,1.4849,4.5728,0.1798,-0.0004,-0.0000,-1.9835,flat,18.0,2,13.341
3280,104.96,1.2504,4.0687,0.1798,-0.0003,-0.0000,-2.0569,flat,18.0,2,12.819
3290,105.28,0.9794,3.5793,0.1797,-0.0002,-0.0000,-2.1151,flat,18.0,2,12.283
3300,105.60,0.6801,3.1035,0.1797,-0.0002,-0.0000,-2.1624,flat,18.0,2,11.739
3310,105.92,0.3584,2.6407,0.1797,-0.0001,-0.0000,-2.1999,flat,18.0,2,11.189
3320,106.24,0.0193,2.1883,0.1797,-0.0001,-0.0000,-2.2321,flat,18.0,2,10.634
3330,106.56,-0.3344,1.7455,0.1797,-0.0001,-0.0000,-2.2602,flat,18.0,2,10.075
3340,106.88,-0.7005,1.3116,0.1797,-0.0001,-0.0000,-2.2850,flat,18.0,2,9.514
3350,107.20,-1.0775,0.8856,0.1797,-0.0001,-0.0000,-2.3076,flat,18.0,2,8.950
3360,107.52,-1.4641,0.4673,0.1797,-0.0001,-0.0000,-2.3283,flat,18.0,2,8.385
3370,107.84,-1.8595,0.0563,0.1797,-0.0001,-0.0000,-2.3470,flat,18.0,2,7.818
3380,108.16,-2.2625,-0.3478,0.1797,-0.0001,-0.0000,-2.3639,flat,18.0,2,7.250
3390,108.48,-2.6724,-0.7456,0.1797,-0.0001,-0.0000,-2.3797,flat,18.0,2,6.682
3400,108.80,-3.0887,-1.1371,0.1797,-0.0001,-0.0000,-2.3947,flat,18.0,2,6.112
3410,109.12,-3.5107,-1.5226,0.1797,-0.0001,-0.0000,-2.4088,flat,18.0,2,5.543
3420,109.44,-3.9381,-1.9023,0.1797,-0.0000,-0.0000,-2.4222,flat,18.0,2,4.972
3430,109.76,-4.3704,-2.2766,0.1797,-0.0000,-0.0000,-2.4350,flat,18.0,2,4.402
3440,110.08,-4.8075,-2.6453,0.1797,-0.0000,-0.0000,-2.4477,flat,18.0,2,3.831
3450,110.40,-5.2491,-3.0084,0.1797,-0.0000,0.0000,-2.4606,flat,18.0,2,3.260
3460,110.72,-5.6954,-3.3655,0.1797,-0.0000,0.0000,-2.4744,flat,18.0,2,2.690
3470,111.04,-6.1464,-3.7159,0.1797,-0.0001,0.0000,-2.4899,flat,18.0,2,2.119
3480,111.36,-6.6023,-4.0582,0.1797,-0.0001,0.0000,-2.5090,flat,18.0,2,1.550
3490,111.68,-7.0636,-4.3890,0.1797,-0.0001,0.0000,-2.5376,flat,18.0,2,0.983
3500,112.00,-7.5276,-4.6853,0.1798,-0.0000,0.0000,-2.6324,flat,18.0,3,0.915
3510,112.32,-7.8795,-4.8654,0.1799,0.0001,0.0001,-2.4636,flat,18.0,0,13.229
3520,112.64,-8.1283,-5.1564,0.1798,-0.0002,-0.0000,-1.9599,flat,18.0,0,13.488
3530,112.96,-8.2536,-5.5272,0.1799,0.0000,-0.0000,-1.4757,flat,18.0,0,13.636
3540,113.28,-8.1881,-5.9283,0.1799,0.0001,-0.0000,-1.1156,flat,18.0,0,13.606
3550,113.60,-7.9482,-6.3202,0.1799,0.0001,-0.0000,-0.8541,flat,18.0,0,13.414
3560,113.92,-7.5842,-6.6693,0.1799,0.0001,-0.0000,-0.6527,flat,18.0,0,13.106
3570,114.24,-7.1401,-6.9656,0.1799,0.0001,-0.0000,-0.4731,flat,18.0,0,12.722
3580,114.56,-6.6411,-7.1941,0.1799,0.0001,-0.0000,-0.3213,flat,18.0,0,12.280
3590,114.88,-6.1085,-7.3537,0.1799,0.0003,-0.0000,-0.1977,flat,18.0,0,11.798
3600,115.20,-5.5568,-7.4516,0.1798,0.0004,-0.0000,-0.0974,flat,18.0,0,11.289
3610,115.52,-5.0187,-7.4663,0.1799,0.0001,0.0000,0.1188,flat,18.0,0,10.774
3620,115.84,-4.4844,-7.3831,0.1799,0.0001,-0.0000,0.2812,flat,18.0,0,10.237
3630,116.16,-3.9673,-7.2151,0.1799,0.0003,-0.0000,0.4095,flat,18.0,0,9.694
3640,116.48,-3.4738,-6.9815,0.1798,0.0004,-0.0000,0.5183,flat,18.0,0,9.155
3650,116.80,-3.0055,-6.6937,0.1798,0.0004,-0.0000,0.6086,flat,18.0,0,8.628
3660,117.12,-2.5647,-6.3713,0.1798,0.0003,-0.0002,0.6314,flat,18.0,0,8.123
3670,117.44,-2.1051,-6.0573,0.1798,-0.0003,-0.0000,0.5454,flat,18.0,0,7.607
3680,117.76,-1.6184,-5.7785,0.1798,-0.0003,-0.0000,0.4691,flat,18.0,0,7.076
3690,118.08,-1.1106,-5.5338,0.1797,-0.0002,-0.0000,0.4015,flat,18.0,0,6.534
3700,118.40,-0.5864,-5.3214,0.1797,-0.0002,-0.0000,0.3414,flat,18.0,0,5.985
3710,118.72,-0.0495,-5.1394,0.1797,-0.0002,-0.0000,0.2876,flat,18.0,0,5.430
3720,119.04,0.4971,-4.9852,0.1797,-0.0002,-0.0000,0.2390,flat,18.0,0,4.870
3730,119.36,1.0504,-4.8567,0.1797,-0.0002,-0.0000,0.1960,flat,18.0,0,4.307
3740,119.68,1.6084,-4.7511,0.1797,-0.0001,-0.0000,0.1570,flat,18.0,0,3.743
3750,120.00,2.1703,-4.6668,0.1797,-0.0001,-0.0000,0.1193,flat,18.0,0,3.178
3760,120.32,2.7351,-4.6035,0.1797,-0.0001,-0.0000,0.0816,flat,18.0,0,2.611
3770,120.64,3.3014,-4.5615,0.1797,-0.0001,0.0000,0.0420,flat,18.0,0,2.044
3780,120.96,3.8678,-4.5424,0.1797,-0.0002,0.0000,-0.0038,flat,18.0,0,1.477
3790,121.28,4.4317,-4.5498,0.1797,-0.0002,0.0000,-0.0666,flat,18.0,0,0.913
3800,121.60,4.9580,-4.5691,0.1798,-0.0005,0.0001,0.1041,flat,18.0,1,12.705
3810,121.92,5.3709,-4.5070,0.1799,-0.0002,0.0001,0.4997,flat,18.0,1,12.781
3820,122.24,5.6726,-4.2829,0.1799,-0.0001,-0.0001,0.8541,flat,18.0,1,12.678
3830,122.56,5.9287,-3.9169,0.1799,-0.0000,-0.0000,1.1608,flat,18.0,1,12.437
3840,122.88,6.0964,-3.4534,0.1799,0.0000,-0.0000,1.4427,flat,18.0,1,12.082
3850,123.20,6.1383,-2.9356,0.1799,0.0000,-0.0000,1.6842,flat,18.0,1,11.633
3860,123.52,6.0575,-2.4060,0.1799,0.0001,-0.0000,1.8587,flat,18.0,1,11.123
3870,123.84,5.8854,-1.8898,0.1799,0.0003,-0.0000,1.9848,flat,18.0,1,10.585
3880,124.16,5.6495,-1.3931,0.1798,0.0004,-0.0000,2.0794,flat,18.0,1,10.035
3890,124.48,5.3670,-0.9159,0.1798,0.0003,-0.0000,2.1534,flat,18.0,1,9.481
3900,124.80,5.0493,-0.4567,0.1797,0.0002,-0.0000,2.2130,flat,18.0,1,8.928
3910,125.12,4.7043,-0.0151,0.1797,0.0002,-0.0000,2.2645,flat,18.0,1,8.379
3920,125.44,4.3364,0.4101,0.1797,0.0002,-0.0000,2.3086,flat,18.0,1,7.837
3930,125.76,3.9497,0.8206,0.1797,0.0001,-0.0000,2.3479,flat,18.0,1,7.303
3940,126.08,3.5469,1.2169,0.1797,0.0001,-0.0000,2.3835,flat,18.0,1,6.782
3950,126.40,3.1299,1.5992,0.1797,0.0001,-0.0000,2.4171,flat,18.0,1,6.276
3960,126.72,2.7008,1.9681,0.1797,0.0001,-0.0000,2.4482,flat,18.0,1,5.791
3970,127.04,2.2604,2.3242,0.1797,0.0001,-0.0000,2.4781,flat,18.0,1,5.332
3980,127.36,1.8094,2.6675,0.1797,0.0001,-0.0000,2.5080,flat,18.0,1,4.906
3990,127.68,1.3483,2.9974,0.1797,0.0001,-0.0000,2.5387,flat,18.0,1,4.524
4000,128.00,0.8775,3.3128,0.1797,0.0001,0.0000,2.5712,flat,18.0,1,4.199
4010,128.32,0.4236,3.5977,0.1798,0.0001,0.0001,2.4960,flat,18.0,1,3.957
4020,128.64,0.0744,3.9261,0.1799,-0.0001,-0.0000,2.2379,flat,18.0,1,3.706
4030,128.96,-0.2072,4.3542,0.1799,-0.0000,-0.0000,1.9837,flat,18.0,1,3.385
4040,129.28,-0.3922,4.8533,0.1799,-0.0000,-0.0000,1.7388,flat,18.0,1,3.008
4050,129.60,-0.4588,5.3879,0.1799,-0.0000,-0.0000,1.5147,flat,18.0,1,2.586
4060,129.92,-0.4087,5.9247,0.1799,-0.0001,-0.0000,1.3336,flat,18.0,1,2.133
4070,130.24,-0.2633,6.4431,0.1799,-0.0001,-0.0000,1.1799,flat,18.0,1,1.668
4080,130.56,-0.0388,6.9298,0.1799,-0.0001,0.0000,1.0353,flat,18.0,1,1.206
4090,130.88,0.2566,7.3754,0.1799,-0.0002,0.0000,0.8959,flat,18.0,2,0.774
4100,131.20,0.4214,7.5582,0.1799,-0.0007,-0.0016,0.3000,flat,18.0,2,14.990
4110,131.52,0.7120,7.6387,0.1793,-0.0031,-0.0000,-0.1218,flat,18.0,2,15.220
4120,131.84,1.0653,7.5660,0.1799,-0.0001,0.0000,-0.5836,flat,18.0,2,15.363
4130,132.16,1.3609,7.3050,0.1799,0.0000,-0.0000,-0.9088,flat,18.0,2,15.329
4140,132.48,1.6104,6.9142,0.1799,-0.0000,-0.0000,-1.1978,flat,18.0,2,15.174
4150,132.80,1.7670,6.4348,0.1799,-0.0001,-0.0000,-1.4562,flat,18.0,2,14.904
4160,133.12,1.8039,5.9072,0.1799,-0.0001,0.0000,-1.6703,flat,18.0,2,14.531
4170,133.44,1.7308,5.3700,0.1799,-0.0001,-0.0000,-1.8285,flat,18.0,2,14.086
4180,133.76,1.5758,4.8434,0.1798,-0.0004,-0.0000,-1.9393,flat,18.0,2,13.598
4190,134.08,1.3638,4.3316,0.1798,-0.0004,-0.0000,-2.0223,flat,18.0,2,13.084
4200,134.40,1.1099,3.8349,0.1797,-0.0002,-0.0000,-2.0872,flat,18.0,2,12.555
4210,134.72,0.8241,3.3522,0.1797,-0.0002,-0.0000,-2.1395,flat,18.0,2,12.014
4220,135.04,0.5131,2.8830,0.1797,-0.0001,-0.0000,-2.1811,flat,18.0,2,11.467
4230,135.36,0.1827,2.4252,0.1797,-0.0001,-0.0000,-2.2158,flat,18.0,2,10.914
4240,135.68,-0.1637,1.9774,0.1797,-0.0001,-0.0000,-2.2457,flat,18.0,2,10.357
4250,136.00,-0.5234,1.5388,0.1797,-0.0001,-0.0000,-2.2719,flat,18.0,2,9.797
4260,136.32,-0.8947,1.1086,0.1797,-0.0001,-0.0000,-2.2955,flat,18.0,2,9.234
4270,136.64,-1.2762,0.6860,0.1797,-0.0001,-0.0000,-2.3171,flat,18.0,2,8.670
4280,136.96,-1.6669,0.2710,0.1797,-0.0001,-0.0000,-2.3367,flat,18.0,2,8.104
4290,137.28,-2.0657,-0.1370,0.1797,-0.0001,-0.0000,-2.3544,flat,18.0,2,7.536
4300,137.60,-2.4718,-0.5385,0.1797,-0.0001,-0.0000,-2.3707,flat,18.0,2,6.968
4310,137.92,-2.8844,-0.9336,0.1797,-0.0001,-0.0000,-2.3860,flat,18.0,2,6.399
4320,138.24,-3.3031,-1.3226,0.1797,-0.0001,-0.0000,-2.4005,flat,18.0,2,5.829
4330,138.56,-3.7274,-1.7058,0.1797,-0.0000,-0.0000,-2.4142,flat,18.0,2,5.259
4340,138.88,-4.1567,-2.0834,0.1797,-0.0000,-0.0000,-2.4272,flat,18.0,2,4.689
4350,139.20,-4.5909,-2.4555,0.1797,-0.0000,-0.0000,-2.4399,flat,18.0,2,4.118
4360,139.52,-5.0297,-2.8221,0.1797,-0.0000,0.0000,-2.4526,flat,18.0,2,3.547
4370,139.84,-5.4732,-3.1829,0.1797,-0.0000,0.0000,-2.4659,flat,18.0,2,2.976
4380,140.16,-5.9212,-3.5375,0.1797,-0.0001,0.0000,-2.4803,flat,18.0,2,2.406
4390,140.48,-6.3741,-3.8849,0.1797,-0.0001,0.0000,-2.4971,flat,18.0,2,1.836
4400,140.80,-6.8321,-4.2229,0.1797,-0.0001,0.0000,-2.5196,flat,18.0,2,1.267
4410,141.12,-7.2924,-4.5427,0.1797,-0.0001,0.0002,-2.5747,flat,18.0,3,1.179
4420,141.44,-7.7421,-4.8011,0.1787,-0.0002,-0.0069,-2.6997,flat,18.0,0,13.090
4430,141.76,-8.0115,-4.9932,0.1797,0.0008,-0.0003,-2.2088,flat,18.0,0,13.365
4440,142.08,-8.2109,-5.3382,0.1799,-0.0002,-0.0000,-1.7071,flat,18.0,0,13.580
4450,142.40,-8.2433,-5.7250,0.1799,-0.0002,-0.0000,-1.2734,flat,18.0,0,13.641
4460,142.72,-8.0838,-6.1288,0.1799,-0.0001,-0.0001,-0.9713,flat,18.0,0,13.525
4470,143.04,-7.7742,-6.5004,0.1799,-0.0000,-0.0000,-0.7487,flat,18.0,0,13.268
4480,143.36,-7.3666,-6.8251,0.1799,0.0000,-0.0000,-0.5590,flat,18.0,0,12.919
4490,143.68,-6.8918,-7.0883,0.1799,0.0001,-0.0000,-0.3929,flat,18.0,0,12.503
4500,144.00,-6.3737,-7.2815,0.1799,0.0002,-0.0000,-0.2558,flat,18.0,0,12.039
4510,144.32,-5.8300,-7.4090,0.1798,0.0004,-0.0000,-0.1447,flat,18.0,0,11.542
4520,144.64,-5.2725,-7.4792,0.1798,0.0004,-0.0000,-0.0543,flat,18.0,0,11.022
4530,144.96,-4.7084,-7.5011,0.1798,0.0003,-0.0000,0.0191,flat,18.0,0,10.486
4540,145.28,-4.1429,-7.4833,0.1797,0.0002,-0.0000,0.0753,flat,18.0,0,9.940
4550,145.60,-3.5782,-7.4352,0.1797,0.0002,-0.0000,0.1196,flat,18.0,0,9.387
4560,145.92,-3.0154,-7.3630,0.1797,0.0001,-0.0000,0.1548,flat,18.0,0,8.830
4570,146.24,-2.4543,-7.2714,0.1797,0.0001,-0.0000,0.1845,flat,18.0,0,8.270
4580,146.56,-1.8953,-7.1635,0.1797,0.0001,-0.0000,0.2100,flat,18.0,0,7.707
4590,146.88,-1.3384,-7.0415,0.1797,0.0001,-0.0000,0.2322,flat,18.0,0,7.143
4600,147.20,-0.7837,-6.9074,0.1797,0.0001,-0.0000,0.2518,flat,18.0,0,6.577
4610,147.52,-0.2312,-6.7625,0.1797,0.0001,-0.0000,0.2694,flat,18.0,0,6.010
4620,147.84,0.3191,-6.6081,0.1797,0.0001,-0.0000,0.2852,flat,18.0,0,5.442
4630,148.16,0.8672,-6.4450,0.1797,0.0001,-0.0000,0.2998,flat,18.0,0,4.874
4640,148.48,1.4131,-6.2740,0.1797,0.0000,-0.0000,0.3135,flat,18.0,0,4.305
4650,148.80,1.9567,-6.0955,0.1797,0.0000,-0.0000,0.3266,flat,18.0,0,3.736
4660,149.12,2.4980,-5.9099,0.1797,0.0000,-0.0000,0.3396,flat,18.0,0,3.168
4670,149.44,3.0367,-5.7173,0.1797,0.0000,0.0000,0.3528,flat,18.0,0,2.600
4680,149.76,3.5724,-5.5176,0.1797,0.0001,0.0000,0.3673,flat,18.0,0,2.034
4690,150.08,4.1041,-5.3101,0.1797,0.0001,0.0000,0.3847,flat,18.0,0,1.471
4700,150.40,4.6293,-5.0934,0.1797,0.0001,0.0000,0.4107,flat,18.0,0,0.917
4710,150.72,5.0627,-4.8934,0.1798,-0.0003,0.0001,0.6236,flat,18.0,1,13.046
4720,151.04,5.3607,-4.6131,0.1799,-0.0000,-0.0000,0.9353,flat,18.0,1,12.877
4730,151.36,5.6043,-4.2118,0.1799,0.0000,-0.0000,1.2260,flat,18.0,1,12.587
4740,151.68,5.7488,-3.7259,0.1799,0.0000,-0.0000,1.4880,flat,18.0,1,12.191
4750,152.00,5.7691,-3.1975,0.1799,0.0001,-0.0000,1.7056,flat,18.0,1,11.714
4760,152.32,5.6773,-2.6640,0.1799,0.0001,-0.0000,1.8618,flat,18.0,1,11.190
4770,152.64,5.5045,-2.1444,0.1798,0.0004,-0.0000,1.9743,flat,18.0,1,10.645
4780,152.96,5.2743,-1.6421,0.1798,0.0004,-0.0000,2.0603,flat,18.0,1,10.093
4790,153.28,5.0013,-1.1573,0.1797,0.0003,-0.0000,2.1290,flat,18.0,1,9.538
4800,153.60,4.6953,-0.6891,0.1797,0.0002,-0.0000,2.1855,flat,18.0,1,8.985
4810,153.92,4.3627,-0.2364,0.1797,0.0002,-0.0000,2.2332,flat,18.0,1,8.437
4820,154.24,4.0086,0.2013,0.1797,0.0001,-0.0000,2.2724,flat,18.0,1,7.896
4830,154.56,3.6374,0.6265,0.1797,0.0001,-0.0000,2.3082,flat,18.0,1,7.365
4840,154.88,3.2507,1.0396,0.1797,0.0001,-0.0000,2.3416,flat,18.0,1,6.844
4850,155.20,2.8503,1.4404,0.1797,0.0001,-0.0000,2.3722,flat,18.0,1,6.340
4860,155.52,2.4376,1.8293,0.1797,0.0001,-0.0000,2.4016,flat,18.0,1,5.855
4870,155.84,2.0138,2.2060,0.1797,0.0001,-0.0000,2.4300,flat,18.0,1,5.396
4880,156.16,1.5798,2.5708,0.1797,0.0001,-0.0000,2.4576,flat,18.0,1,4.971
4890,156.48,1.1360,2.9235,0.1797,0.0001,-0.0000,2.4862,flat,18.0,1,4.588
4900,156.80,0.6824,3.2629,0.1797,0.0001,0.0000,2.5172,flat,18.0,1,4.260
4910,157.12,0.2673,3.5718,0.1799,0.0003,0.0000,2.3822,flat,18.0,1,4.009
4920,157.44,-0.0527,3.9448,0.1799,-0.0000,-0.0000,2.1362,flat,18.0,1,3.723
4930,157.76,-0.3005,4.4062,0.1799,-0.0001,-0.0000,1.8892,flat,18.0,1,3.372
4940,158.08,-0.4428,4.9239,0.1799,-0.0001,-0.0000,1.6578,flat,18.0,1,2.970
4950,158.40,-0.4675,5.4643,0.1799,-0.0001,0.0000,1.4540,flat,18.0,1,2.528
4960,158.72,-0.3859,5.9988,0.1799,-0.0001,0.0000,1.2905,flat,18.0,1,2.063
4970,159.04,-0.2183,6.5120,0.1799,-0.0001,-0.0000,1.1477,flat,18.0,1,1.589
4980,159.36,0.0222,6.9925,0.1799,-0.0002,-0.0000,1.0101,flat,18.0,1,1.123
4990,159.68,0.3114,7.4143,0.1797,-0.0001,-0.0004,0.8884,flat,18.0,2,14.810
5000,160.00,0.4762,7.5526,0.1801,0.0005,-0.0008,0.2437,flat,18.0,2,15.016
5010,160.32,0.7879,7.6220,0.1797,-0.0006,-0.0001,-0.2256,flat,18.0,2,15.249
5020,160.64,1.1294,7.5097,0.1799,-0.0000,0.0000,-0.6527,flat,18.0,2,15.355
5030,160.96,1.4178,7.2195,0.1799,0.0000,-0.0001,-0.9651,flat,18.0,2,15.295
5040,161.28,1.6532,6.8092,0.1799,-0.0000,-0.0000,-1.2496,flat,18.0,2,15.119
5050,161.60,1.7880,6.3177,0.1799,-0.0001,-0.0000,-1.5012,flat,18.0,2,14.829
5060,161.92,1.8022,5.7857,0.1799,-0.0001,-0.0000,-1.7051,flat,18.0,2,14.440
5070,162.24,1.7109,5.2497,0.1799,-0.0002,-0.0000,-1.8530,flat,18.0,2,13.985
5080,162.56,1.5432,4.7260,0.1798,-0.0004,-0.0000,-1.9576,flat,18.0,2,13.491
5090,162.88,1.3219,4.2173,0.1798,-0.0004,-0.0000,-2.0367,flat,18.0,2,12.974
5100,163.20,1.0608,3.7236,0.1797,-0.0002,-0.0000,-2.0989,flat,18.0,2,12.442
5110,163.52,0.7694,3.2438,0.1797,-0.0002,-0.0000,-2.1492,flat,18.0,2,11.900
5120,163.84,0.4538,2.7773,0.1797,-0.0001,-0.0000,-2.1892,flat,18.0,2,11.351
5130,164.16,0.1197,2.3218,0.1797,-0.0001,-0.0000,-2.2229,flat,18.0,2,10.797
5140,164.48,-0.2299,1.8762,0.1797,-0.0001,-0.0000,-2.2521,flat,18.0,2,10.240
5150,164.80,-0.5925,1.4397,0.1797,-0.0001,-0.0000,-2.2777,flat,18.0,2,9.679
5160,165.12,-0.9663,1.0114,0.1797,-0.0001,-0.0000,-2.3009,flat,18.0,2,9.117
5170,165.44,-1.3501,0.5907,0.1797,-0.0001,-0.0000,-2.3223,flat,18.0,2,8.552
5180,165.76,-1.7429,0.1776,0.1797,-0.0001,-0.0000,-2.3415,flat,18.0,2,7.985
5190,166.08,-2.1437,-0.2286,0.1797,-0.0001,-0.0000,-2.3589,flat,18.0,2,7.418
5200,166.40,-2.5515,-0.6283,0.1797,-0.0001,-0.0000,-2.3750,flat,18.0,2,6.849
5210,166.72,-2.9659,-1.0217,0.1797,-0.0001,-0.0000,-2.3902,flat,18.0,2,6.280
5220,167.04,-3.3862,-1.4090,0.1797,-0.0001,-0.0000,-2.4046,flat,18.0,2,5.711
5230,167.36,-3.8120,-1.7905,0.1797,-0.0000,-0.0000,-2.4182,flat,18.0,2,5.140
5240,167.68,-4.2428,-2.1664,0.1797,-0.0000,-0.0000,-2.4311,flat,18.0,2,4.570
5250,168.00,-4.6785,-2.5368,0.1797,-0.0000,-0.0000,-2.4438,flat,18.0,2,3.999
5260,168.32,-5.1187,-2.9016,0.1797,-0.0000,0.0000,-2.4566,flat,18.0,2,3.429
5270,168.64,-5.5635,-3.2606,0.1797,-0.0000,0.0000,-2.4701,flat,18.0,2,2.858
5280,168.96,-6.0131,-3.6132,0.1797,-0.0001,0.0000,-2.4849,flat,18.0,2,2.287
5290,169.28,-6.4675,-3.9582,0.1797,-0.0001,0.0000,-2.5027,flat,18.0,2,1.718
5300,169.60,-6.9271,-4.2930,0.1797,-0.0001,0.0000,-2.5273,flat,18.0,2,1.150
5310,169.92,-7.3892,-4.6034,0.1798,-0.0001,-0.0000,-2.5954,flat,18.0,3,1.069
5320,170.24,-7.8050,-4.8267,0.1799,-0.0002,0.0009,-2.6418,flat,18.0,0,13.153
5330,170.56,-8.0650,-5.0571,0.1799,-0.0004,-0.0003,-2.1085,flat,18.0,0,13.420
5340,170.88,-8.2382,-5.4147,0.1799,-0.0001,-0.0000,-1.6103,flat,18.0,0,13.612
5350,171.20,-8.2314,-5.8074,0.1799,-0.0002,-0.0001,-1.2062,flat,18.0,0,13.637
5360,171.52,-8.0386,-6.2077,0.1799,-0.0001,-0.0001,-0.9222,flat,18.0,0,13.489
5370,171.84,-7.7058,-6.5704,0.1799,0.0000,-0.0000,-0.7100,flat,18.0,0,13.211
5380,172.16,-7.2831,-6.8845,0.1799,0.0000,-0.0000,-0.5241,flat,18.0,0,12.847
5390,172.48,-6.7980,-7.1340,0.1799,0.0001,-0.0000,-0.3636,flat,18.0,0,12.421
5400,172.80,-6.2736,-7.3137,0.1799,0.0002,-0.0000,-0.2320,flat,18.0,0,11.949
5410,173.12,-5.7444,-7.4025,0.1799,0.0001,0.0000,-0.0123,flat,18.0,0,11.458
5420,173.44,-5.2005,-7.3889,0.1799,0.0001,0.0000,0.1636,flat,18.0,0,10.928
5430,173.76,-4.6641,-7.2838,0.1799,0.0002,-0.0000,0.2958,flat,18.0,0,10.383
5440,174.08,-4.1437,-7.1093,0.1798,0.0004,-0.0000,0.4033,flat,18.0,0,9.835
5450,174.40,-3.6436,-6.8794,0.1798,0.0004,-0.0000,0.4969,flat,18.0,0,9.293
5460,174.72,-3.1647,-6.6024,0.1798,0.0003,-0.0000,0.5759,flat,18.0,0,8.760
5470,175.04,-2.7090,-6.2949,0.1798,0.0002,-0.0001,0.5936,flat,18.0,0,8.247
5480,175.36,-2.2370,-5.9965,0.1798,-0.0002,-0.0000,0.5122,flat,18.0,0,7.724
5490,175.68,-1.7407,-5.7321,0.1798,-0.0003,-0.0000,0.4403,flat,18.0,0,7.188
5500,176.00,-1.2256,-5.5008,0.1797,-0.0002,-0.0000,0.3769,flat,18.0,0,6.643
5510,176.32,-0.6958,-5.3005,0.1797,-0.0002,-0.0000,0.3206,flat,18.0,0,6.091
5520,176.64,-0.1549,-5.1290,0.1797,-0.0002,-0.0000,0.2704,flat,18.0,0,5.533
5530,176.96,0.3943,-4.9837,0.1797,-0.0002,0.0000,0.2261,flat,18.0,0,4.972
5540,177.28,0.9489,-4.8615,0.1797,-0.0001,-0.0000,0.1873,flat,18.0,0,4.409
5550,177.60,1.5082,-4.7603,0.1797,-0.0001,-0.0000,0.1507,flat,18.0,0,3.844
5560,177.92,2.0711,-4.6792,0.1797,-0.0001,-0.0000,0.1155,flat,18.0,0,3.277
5570,178.24,2.6366,-4.6177,0.1797,-0.0001,-0.0000,0.0805,flat,18.0,0,2.710
5580,178.56,3.2036,-4.5760,0.1797,-0.0001,0.0000,0.0441,flat,18.0,0,2.142
5590,178.88,3.7708,-4.5552,0.1797,-0.0001,0.0000,0.0030,flat,18.0,0,1.574
5600,179.20,4.3359,-4.5584,0.1797,-0.0002,0.0000,-0.0505,flat,18.0,0,1.010
5610,179.52,4.8767,-4.5755,0.1798,-0.0005,0.0001,0.0626,flat,18.0,1,12.686
5620,179.84,5.3263,-4.5300,0.1798,-0.0002,0.0001,0.4126,flat,18.0,1,12.787
5630,180.16,5.6459,-4.3414,0.1799,-0.0001,-0.0001,0.7864,flat,18.0,1,12.722
5640,180.48,5.9128,-4.0013,0.1799,-0.0000,-0.0000,1.0965,flat,18.0,1,12.508
5650,180.80,6.1036,-3.5556,0.1799,0.0000,-0.0000,1.3856,flat,18.0,1,12.178
5660,181.12,6.1736,-3.0459,0.1799,-0.0000,-0.0000,1.6392,flat,18.0,1,11.747
5670,181.44,6.1162,-2.5161,0.1799,0.0001,-0.0000,1.8271,flat,18.0,1,11.247
5680,181.76,5.9603,-1.9964,0.1799,0.0002,-0.0000,1.9624,flat,18.0,1,10.714
5690,182.08,5.7355,-1.4958,0.1798,0.0004,-0.0000,2.0626,flat,18.0,1,10.166
5700,182.40,5.4611,-1.0150,0.1798,0.0003,-0.0000,2.1406,flat,18.0,1,9.613
5710,182.72,5.1494,-0.5526,0.1797,0.0002,-0.0000,2.2025,flat,18.0,1,9.059
5720,183.04,4.8092,-0.1077,0.1797,0.0002,-0.0000,2.2554,flat,18.0,1,8.508
5730,183.36,4.4452,0.3204,0.1797,0.0002,-0.0000,2.3012,flat,18.0,1,7.964
5740,183.68,4.0617,0.7333,0.1797,0.0001,-0.0000,2.3416,flat,18.0,1,7.428
5750,184.00,3.6614,1.1319,0.1797,0.0001,-0.0000,2.3779,flat,18.0,1,6.904
5760,184.32,3.2466,1.5164,0.1797,0.0001,-0.0000,2.4120,flat,18.0,1,6.394
5770,184.64,2.8193,1.8873,0.1797,0.0001,-0.0000,2.4436,flat,18.0,1,5.904
5780,184.96,2.3806,2.2453,0.1797,0.0001,-0.0000,2.4737,flat,18.0,1,5.438
5790,185.28,1.9312,2.5905,0.1797,0.0001,-0.0000,2.5036,flat,18.0,1,5.003
5800,185.60,1.4716,2.9224,0.1797,0.0001,-0.0000,2.5339,flat,18.0,1,4.610
5810,185.92,1.0078,3.2234,0.1797,0.0001,-0.0001,2.5723,flat,18.0,1,4.286
5820,186.24,0.5292,3.5198,0.1797,0.0001,0.0002,2.5840,flat,18.0,1,4.020
5830,186.56,0.1552,3.8105,0.1799,-0.0001,-0.0000,2.3220,flat,18.0,1,3.799
5840,186.88,-0.1498,4.2084,0.1799,-0.0000,-0.0000,2.0656,flat,18.0,1,3.502
5850,187.20,-0.3689,4.6877,0.1799,-0.0001,-0.0000,1.8146,flat,18.0,1,3.145
5860,187.52,-0.4737,5.2146,0.1799,-0.0001,-0.0000,1.5805,flat,18.0,1,2.738
5870,187.84,-0.4572,5.7535,0.1799,-0.0001,0.0000,1.3841,flat,18.0,1,2.294
5880,188.16,-0.3383,6.2786,0.1799,-0.0001,0.0000,1.2235,flat,18.0,1,1.832
5890,188.48,-0.1358,6.7759,0.1799,-0.0001,-0.0000,1.0778,flat,18.0,1,1.368
5900,188.80,0.1395,7.2344,0.1799,-0.0001,-0.0000,0.9370,flat,18.0,1,0.921
5910,189.12,0.3627,7.5256,0.1791,-0.0003,-0.0043,0.5978,flat,18.0,2,14.931
5920,189.44,0.5915,7.6087,0.1784,-0.0084,0.0001,0.0314,flat,18.0,2,15.127
5930,189.76,0.9446,7.5997,0.1799,0.0003,0.0000,-0.4690,flat,18.0,2,15.321
5940,190.08,1.2547,7.3887,0.1799,0.0001,-0.0001,-0.8189,flat,18.0,2,15.332
5950,190.40,1.5221,7.0314,0.1799,0.0000,-0.0000,-1.1134,flat,18.0,2,15.211
5960,190.72,1.7111,6.5744,0.1799,-0.0000,-0.0000,-1.3826,flat,18.0,2,14.975
5970,191.04,1.7853,6.0568,0.1799,-0.0000,-0.0001,-1.6144,flat,18.0,2,14.631
5980,191.36,1.7424,5.5195,0.1799,-0.0001,-0.0000,-1.7866,flat,18.0,2,14.203
5990,191.68,1.6091,4.9887,0.1799,-0.0003,-0.0000,-1.9091,flat,18.0,2,13.725
6000,192.00,1.4125,4.4723,0.1798,-0.0004,-0.0000,-1.9992,flat,18.0,2,13.218
6010,192.32,1.1701,3.9710,0.1798,-0.0003,-0.0000,-2.0688,flat,18.0,2,12.693
6020,192.64,0.8933,3.4841,0.1797,-0.0002,-0.0000,-2.1245,flat,18.0,2,12.155
6030,192.96,0.5894,3.0108,0.1797,-0.0002,-0.0000,-2.1693,flat,18.0,2,11.610
6040,193.28,0.2645,2.5497,0.1797,-0.0001,-0.0000,-2.2056,flat,18.0,2,11.058
6050,193.60,-0.0771,2.0989,0.1797,-0.0001,-0.0000,-2.2368,flat,18.0,2,10.502
6060,193.92,-0.4329,1.6575,0.1797,-0.0001,-0.0000,-2.2641,flat,18.0,2,9.943
6070,194.24,-0.8008,1.2247,0.1797,-0.0001,-0.0000,-2.2883,flat,18.0,2,9.381
6080,194.56,-1.1792,0.7998,0.1797,-0.0001,-0.0000,-2.3105,flat,18.0,2,8.817
6090,194.88,-1.5670,0.3824,0.1797,-0.0001,-0.0000,-2.3307,flat,18.0,2,8.252
6100,195.20,-1.9634,-0.0278,0.1797,-0.0001,-0.0000,-2.3490,flat,18.0,2,7.685
6110,195.52,-2.3673,-0.4313,0.1797,-0.0001,-0.0000,-2.3656,flat,18.0,2,7.117
6120,195.84,-2.7778,-0.8284,0.1797,-0.0001,-0.0000,-2.3812,flat,18.0,2,6.548
6130,196.16,-3.1947,-1.2194,0.1797,-0.0001,-0.0000,-2.3960,flat,18.0,2,5.978
6140,196.48,-3.6172,-1.6044,0.1797,-0.0000,-0.0000,-2.4100,flat,18.0,2,5.408
6150,196.80,-4.0450,-1.9837,0.1797,-0.0000,-0.0000,-2.4232,flat,18.0,2,4.838
6160,197.12,-4.4777,-2.3575,0.1797,-0.0000,-0.0000,-2.4360,flat,18.0,2,4.267
6170,197.44,-4.9151,-2.7258,0.1797,-0.0000,0.0000,-2.4487,flat,18.0,2,3.697
6180,197.76,-5.3571,-3.0884,0.1797,-0.0000,0.0000,-2.4618,flat,18.0,2,3.126
6190,198.08,-5.8037,-3.4449,0.1797,-0.0000,0.0000,-2.4758,flat,18.0,2,2.555
6200,198.40,-6.2552,-3.7945,0.1797,-0.0001,0.0000,-2.4919,flat,18.0,2,1.985
6210,198.72,-6.7117,-4.1354,0.1797,-0.0001,0.0000,-2.5125,flat,18.0,2,1.416
6220,199.04,-7.1734,-4.4632,0.1797,-0.0001,0.0000,-2.5457,flat,18.0,2,0.850
6230,199.36,-7.6384,-4.7467,0.1798,-0.0002,0.0000,-2.6748,flat,18.0,0,0.794
6240,199.68,-7.9393,-4.8924,0.1797,-0.0005,-0.0012,-2.3031,flat,18.0,0,13.289
6250,200.00,-8.1469,-5.1767,0.1799,-0.0000,-0.0000,-1.8268,flat,18.0,0,13.508
6260,200.32,-8.2258,-5.5563,0.1799,-0.0001,-0.0000,-1.3663,flat,18.0,0,13.610
6270,200.64,-8.1111,-5.9621,0.1799,-0.0001,-0.0001,-1.0385,flat,18.0,0,13.533
6280,200.96,-7.8342,-6.3453,0.1799,-0.0000,-0.0000,-0.7999,flat,18.0,0,13.305
6290,201.28,-7.4471,-6.6830,0.1799,0.0000,-0.0000,-0.6066,flat,18.0,0,12.973
6300,201.60,-6.9871,-6.9641,0.1799,0.0001,-0.0000,-0.4344,flat,18.0,0,12.572
6310,201.92,-6.4784,-7.1762,0.1799,0.0001,-0.0000,-0.2910,flat,18.0,0,12.118
6320,202.24,-5.9403,-7.3213,0.1799,0.0004,-0.0000,-0.1743,flat,18.0,0,11.627
6330,202.56,-5.3857,-7.4072,0.1798,0.0004,-0.0000,-0.0795,flat,18.0,0,11.112
6340,202.88,-4.8228,-7.4429,0.1798,0.0004,-0.0000,-0.0022,flat,18.0,0,10.579
6350,203.20,-4.2572,-7.4366,0.1797,0.0002,-0.0000,0.0583,flat,18.0,0,10.035
6360,203.52,-3.6921,-7.3980,0.1797,0.0002,-0.0000,0.1050,flat,18.0,0,9.484
6370,203.84,-3.1284,-7.3337,0.1797,0.0001,-0.0000,0.1422,flat,18.0,0,8.928
6380,204.16,-2.5665,-7.2491,0.1797,0.0001,-0.0000,0.1732,flat,18.0,0,8.369
6390,204.48,-2.0065,-7.1475,0.1797,0.0001,-0.0000,0.1997,flat,18.0,0,7.807
6400,204.80,-1.4486,-7.0312,0.1797,0.0001,-0.0000,0.2227,flat,18.0,0,7.242
6410,205.12,-0.8928,-6.9023,0.1797,0.0001,-0.0000,0.2430,flat,18.0,0,6.677
6420,205.44,-0.3392,-6.7623,0.1797,0.0001,-0.0000,0.2610,flat,18.0,0,6.110
6430,205.76,0.2123,-6.6125,0.1797,0.0001,-0.0000,0.2773,flat,18.0,0,5.542
6440,206.08,0.7616,-6.4537,0.1797,0.0001,-0.0000,0.2922,flat,18.0,0,4.974
6450,206.40,1.3088,-6.2869,0.1797,0.0000,-0.0000,0.3062,flat,18.0,0,4.406
6460,206.72,1.8537,-6.1124,0.1797,0.0000,-0.0000,0.3195,flat,18.0,0,3.837
6470,207.04,2.3963,-5.9307,0.1797,0.0000,-0.0000,0.3325,flat,18.0,0,3.268
6480,207.36,2.9364,-5.7419,0.1797,0.0000,0.0000,0.3457,flat,18.0,0,2.700
6490,207.68,3.4736,-5.5460,0.1797,0.0000,0.0000,0.3600,flat,18.0,0,2.134
6500,208.00,4.0070,-5.3424,0.1797,0.0001,0.0000,0.3767,flat,18.0,0,1.570
6510,208.32,4.5347,-5.1299,0.1797,0.0001,0.0000,0.4004,flat,18.0,0,1.014
6520,208.64,4.9886,-4.9319,0.1798,-0.0002,0.0001,0.5837,flat,18.0,1,13.060
6530,208.96,5.2950,-4.6682,0.1799,-0.0001,-0.0000,0.8962,flat,18.0,1,12.907
6540,209.28,5.5482,-4.2803,0.1799,0.0000,-0.0000,1.1890,flat,18.0,1,12.630
6550,209.60,5.7079,-3.8028,0.1799,0.0001,-0.0000,1.4545,flat,18.0,1,12.246
6560,209.92,5.7450,-3.2770,0.1799,0.0001,0.0000,1.6771,flat,18.0,1,11.777
6570,210.24,5.6676,-2.7424,0.1799,0.0001,-0.0000,1.8421,flat,18.0,1,11.257
6580,210.56,5.5050,-2.2202,0.1799,0.0003,-0.0000,1.9592,flat,18.0,1,10.714
6590,210.88,5.2825,-1.7150,0.1798,0.0004,-0.0000,2.0480,flat,18.0,1,10.163
6600,211.20,5.0156,-1.2274,0.1798,0.0003,-0.0000,2.1186,flat,18.0,1,9.608
6610,211.52,4.7145,-0.7564,0.1797,0.0002,-0.0000,2.1765,flat,18.0,1,9.055
6620,211.84,4.3861,-0.3010,0.1797,0.0002,-0.0000,2.2253,flat,18.0,1,8.506
6630,212.16,4.0355,0.1393,0.1797,0.0001,-0.0000,2.2653,flat,18.0,1,7.964
6640,212.48,3.6673,0.5669,0.1797,0.0001,-0.0000,2.3014,flat,18.0,1,7.431
6650,212.80,3.2836,0.9825,0.1797,0.0001,-0.0000,2.3351,flat,18.0,1,6.909
6660,213.12,2.8858,1.3859,0.1797,0.0001,-0.0000,2.3660,flat,18.0,1,6.402
6670,213.44,2.4756,1.7773,0.1797,0.0001,-0.0000,2.3954,flat,18.0,1,5.915
6680,213.76,2.0539,2.1565,0.1797,0.0001,-0.0000,2.4240,flat,18.0,1,5.452
6690,214.08,1.6221,2.5239,0.1797,0.0001,-0.0000,2.4517,flat,18.0,1,5.022
6700,214.40,1.1804,2.8792,0.1797,0.0001,-0.0000,2.4801,flat,18.0,1,4.633
6710,214.72,0.7289,3.2215,0.1797,0.0001,0.0000,2.5107,flat,18.0,1,4.298
6720,215.04,0.3047,3.5333,0.1798,0.0002,0.0000,2.4051,flat,18.0,1,4.040
6730,215.36,-0.0221,3.8978,0.1799,-0.0000,-0.0000,2.1564,flat,18.0,1,3.759
6740,215.68,-0.2777,4.3533,0.1799,-0.0000,-0.0000,1.9092,flat,18.0,1,3.412
6750,216.00,-0.4298,4.8679,0.1799,-0.0000,-0.0000,1.6773,flat,18.0,1,3.013
6760,216.32,-0.4650,5.4078,0.1799,-0.0000,-0.0000,1.4709,flat,18.0,1,2.573
6770,216.64,-0.3925,5.9439,0.1799,-0.0001,-0.0000,1.3057,flat,18.0,1,2.108
6780,216.96,-0.2329,6.4600,0.1799,-0.0001,-0.0000,1.1623,flat,18.0,1,1.634
6790,217.28,0.0002,6.9445,0.1799,-0.0002,-0.0000,1.0251,flat,18.0,1,1.165
6800,217.60,0.2938,7.3826,0.1814,-0.0002,0.0110,0.8980,flat,18.0,2,14.774
6810,217.92,0.4543,7.5422,0.1800,-0.0003,-0.0014,0.2769,flat,18.0,2,14.995
6820,218.24,0.7537,7.6208,0.1795,-0.0017,-0.0001,-0.1708,flat,18.0,2,15.229
6830,218.56,1.1023,7.5298,0.1799,0.0001,-0.0000,-0.6188,flat,18.0,2,15.356
6840,218.88,1.3943,7.2552,0.1799,0.0001,-0.0001,-0.9351,flat,18.0,2,15.309
6850,219.20,1.6375,6.8554,0.1799,-0.0000,-0.0000,-1.2221,flat,18.0,2,15.145
6860,219.52,1.7842,6.3703,0.1799,-0.0000,-0.0000,-1.4788,flat,18.0,2,14.867
6870,219.84,1.8106,5.8405,0.1799,-0.0001,-0.0000,-1.6887,flat,18.0,2,14.486
6880,220.16,1.7284,5.3040,0.1799,-0.0001,-0.0000,-1.8404,flat,18.0,2,14.036
6890,220.48,1.5672,4.7788,0.1798,-0.0004,-0.0000,-1.9484,flat,18.0,2,13.545
6900,220.80,1.3505,4.2686,0.1798,-0.0004,-0.0000,-2.0296,flat,18.0,2,13.030
6910,221.12,1.0930,3.7734,0.1797,-0.0002,-0.0000,-2.0933,flat,18.0,2,12.500
6920,221.44,0.8042,3.2923,0.1797,-0.0002,-0.0000,-2.1447,flat,18.0,2,11.959
6930,221.76,0.4907,2.8245,0.1797,-0.0001,-0.0000,-2.1856,flat,18.0,2,11.410
6940,222.08,0.1582,2.3681,0.1797,-0.0001,-0.0000,-2.2198,flat,18.0,2,10.857
6950,222.40,-0.1899,1.9216,0.1797,-0.0001,-0.0000,-2.2495,flat,18.0,2,10.300
6960,222.72,-0.5514,1.4843,0.1797,-0.0001,-0.0000,-2.2754,flat,18.0,2,9.740
6970,223.04,-0.9242,1.0552,0.1797,-0.0001,-0.0000,-2.2989,flat,18.0,2,9.177
6980,223.36,-1.3071,0.6339,0.1797,-0.0001,-0.0000,-2.3204,flat,18.0,2,8.612
6990,223.68,-1.6991,0.2200,0.1797,-0.0001,-0.0000,-2.3398,flat,18.0,2,8.046
7000,224.00,-2.0992,-0.1868,0.1797,-0.0001,-0.0000,-2.3574,flat,18.0,2,7.479
7010,224.32,-2.5065,-0.5870,0.1797,-0.0001,-0.0000,-2.3736,flat,18.0,2,6.910
7020,224.64,-2.9202,-0.9809,0.1797,-0.0001,-0.0000,-2.3889,flat,18.0,2,6.341
7030,224.96,-3.3401,-1.3688,0.1797,-0.0001,-0.0000,-2.4034,flat,18.0,2,5.772
7040,225.28,-3.7654,-1.7508,0.1797,-0.0000,-0.0000,-2.4170,flat,18.0,2,5.202
7050,225.60,-4.1958,-2.1272,0.1797,-0.0000,-0.0000,-2.4300,flat,18.0,2,4.631
7060,225.92,-4.6310,-2.4981,0.1797,-0.0000,-0.0000,-2.4427,flat,18.0,2,4.060
7070,226.24,-5.0708,-2.8634,0.1797,-0.0000,0.0000,-2.4555,flat,18.0,2,3.490
7080,226.56,-5.5153,-3.2229,0.1797,-0.0000,0.0000,-2.4688,flat,18.0,2,2.919
7090,226.88,-5.9644,-3.5761,0.1797,-0.0001,0.0000,-2.4835,flat,18.0,2,2.348
7100,227.20,-6.4183,-3.9219,0.1797,-0.0001,0.0000,-2.5008,flat,18.0,2,1.779
7110,227.52,-6.8775,-4.2579,0.1797,-0.0001,0.0000,-2.5243,flat,18.0,2,1.210
7120,227.84,-7.3390,-4.5728,0.1797,-0.0001,-0.0000,-2.5853,flat,18.0,3,1.126
7130,228.16,-7.7741,-4.8149,0.1799,-0.0002,0.0010,-2.6767,flat,18.0,0,13.122
7140,228.48,-8.0368,-5.0235,0.1798,0.0001,-0.0003,-2.1608,flat,18.0,0,13.391
7150,228.80,-8.2237,-5.3754,0.1799,-0.0001,-0.0000,-1.6618,flat,18.0,0,13.595
7160,229.12,-8.2367,-5.7647,0.1799,0.0001,-0.0001,-1.2452,flat,18.0,0,13.638
7170,229.44,-8.0611,-6.1673,0.1799,0.0001,-0.0000,-0.9493,flat,18.0,0,13.507
7180,229.76,-7.7400,-6.5347,0.1799,0.0001,-0.0000,-0.7302,flat,18.0,0,13.239
7190,230.08,-7.3249,-6.8542,0.1799,0.0001,0.0000,-0.5423,flat,18.0,0,12.883
7200,230.40,-6.8449,-7.1108,0.1799,0.0001,-0.0000,-0.3785,flat,18.0,0,12.462
7210,230.72,-6.3359,-7.2760,0.1799,0.0001,-0.0000,-0.1669,flat,18.0,0,12.001
7220,231.04,-5.7937,-7.3466,0.1799,0.0001,-0.0000,0.0152,flat,18.0,0,11.491
7230,231.36,-5.2437,-7.3218,0.1799,0.0002,-0.0000,0.1558,flat,18.0,0,10.953
7240,231.68,-4.7000,-7.2229,0.1798,0.0004,-0.0000,0.2638,flat,18.0,0,10.402
7250,232.00,-4.1681,-7.0665,0.1798,0.0004,-0.0000,0.3530,flat,18.0,0,9.848
7260,232.32,-3.6508,-6.8634,0.1798,0.0003,-0.0000,0.4305,flat,18.0,0,9.296
7270,232.64,-3.1503,-6.6205,0.1797,0.0003,-0.0000,0.5015,flat,18.0,0,8.751
7280,232.96,-2.6682,-6.3420,0.1797,0.0002,-0.0000,0.5686,flat,18.0,0,8.217
7290,233.28,-2.1995,-6.0485,0.1798,-0.0000,-0.0000,0.5271,flat,18.0,0,7.697
7300,233.60,-1.7075,-5.7773,0.1798,-0.0003,-0.0000,0.4540,flat,18.0,0,7.163
7310,233.92,-1.1957,-5.5395,0.1797,-0.0002,-0.0000,0.3893,flat,18.0,0,6.619
7320,234.24,-0.6687,-5.3329,0.1797,-0.0002,-0.0000,0.3318,flat,18.0,0,6.068
7330,234.56,-0.1298,-5.1557,0.1797,-0.0002,-0.0000,0.2805,flat,18.0,0,5.511
7340,234.88,0.4181,-5.0050,0.1797,-0.0002,-0.0000,0.2345,flat,18.0,0,4.950
7350,235.20,0.9714,-4.8784,0.1797,-0.0001,-0.0000,0.1949,flat,18.0,0,4.388
7360,235.52,1.5298,-4.7731,0.1797,-0.0001,-0.0000,0.1575,flat,18.0,0,3.823
7370,235.84,2.0920,-4.6884,0.1797,-0.0001,-0.0000,0.1215,flat,18.0,0,3.257
7380,236.16,2.6570,-4.6236,0.1797,-0.0001,-0.0000,0.0856,flat,18.0,0,2.690
7390,236.48,3.2236,-4.5792,0.1797,-0.0001,0.0000,0.0482,flat,18.0,0,2.122
7400,236.80,3.7904,-4.5562,0.1797,-0.0001,0.0000,0.0057,flat,18.0,0,1.555
7410,237.12,4.3552,-4.5579,0.1797,-0.0002,0.0000,-0.0504,flat,18.0,0,0.990
7420,237.44,4.8950,-4.5750,0.1798,-0.0005,0.0001,0.0641,flat,18.0,1,12.691
7430,237.76,5.3416,-4.5291,0.1798,-0.0002,0.0001,0.4188,flat,18.0,1,12.791
7440,238.08,5.6593,-4.3379,0.1799,-0.0001,-0.0001,0.7919,flat,18.0,1,12.724
7450,238.40,5.9252,-3.9956,0.1799,-0.0000,-0.0000,1.1020,flat,18.0,1,12.508
7460,238.72,6.1142,-3.5485,0.1799,0.0000,-0.0000,1.3906,flat,18.0,1,12.176
7470,239.04,6.1817,-3.0381,0.1799,-0.0000,-0.0000,1.6436,flat,18.0,1,11.744
7480,239.36,6.1221,-2.5083,0.1799,0.0001,-0.0000,1.8301,flat,18.0,1,11.243
7490,239.68,5.9647,-1.9890,0.1799,0.0002,-0.0000,1.9647,flat,18.0,1,10.709
7500,240.00,5.7389,-1.4888,0.1798,0.0004,-0.0000,2.0644,flat,18.0,1,10.161
7510,240.32,5.4636,-1.0084,0.1798,0.0003,-0.0000,2.1421,flat,18.0,1,9.608
7520,240.64,5.1512,-0.5463,0.1797,0.0002,-0.0000,2.2037,flat,18.0,1,9.054
7530,240.96,4.8104,-0.1018,0.1797,0.0002,-0.0000,2.2564,flat,18.0,1,8.504
7540,241.28,4.4460,0.3260,0.1797,0.0002,-0.0000,2.3022,flat,18.0,1,7.959
7550,241.60,4.0620,0.7385,0.1797,0.0001,-0.0000,2.3425,flat,18.0,1,7.424
7560,241.92,3.6614,1.1368,0.1797,0.0001,-0.0000,2.3787,flat,18.0,1,6.899
7570,242.24,3.2463,1.5209,0.1797,0.0001,-0.0000,2.4128,flat,18.0,1,6.390
7580,242.56,2.8186,1.8914,0.1797,0.0001,-0.0000,2.4444,flat,18.0,1,5.900
7590,242.88,2.3797,2.2491,0.1797,0.0001,-0.0000,2.4745,flat,18.0,1,5.434
7600,243.20,1.9300,2.5939,0.1797,0.0001,-0.0000,2.5044,flat,18.0,1,5.000
7610,243.52,1.4754,2.9036,0.1798,0.0001,-0.0000,2.5519,flat,18.0,1,4.629
7620,243.84,0.9997,3.2146,0.1797,0.0001,-0.0000,2.5788,flat,18.0,1,4.295
7630,244.16,0.5189,3.5090,0.1797,0.0001,0.0002,2.5880,flat,18.0,1,4.032
7640,244.48,0.1442,3.7976,0.1799,-0.0001,-0.0000,2.3253,flat,18.0,1,3.814
7650,244.80,-0.1612,4.1940,0.1799,-0.0000,-0.0000,2.0684,flat,18.0,1,3.519
7660,245.12,-0.3813,4.6724,0.1799,-0.0001,-0.0000,1.8168,flat,18.0,1,3.164
7670,245.44,-0.4871,5.1989,0.1799,-0.0001,-0.0000,1.5820,flat,18.0,1,2.758
7680,245.76,-0.4713,5.7378,0.1799,-0.0001,0.0000,1.3850,flat,18.0,1,2.315
7690,246.08,-0.3528,6.2630,0.1799,-0.0001,0.0000,1.2244,flat,18.0,1,1.854
7700,246.40,-0.1508,6.7607,0.1799,-0.0001,-0.0000,1.0792,flat,18.0,1,1.389
7710,246.72,0.1238,7.2199,0.1799,-0.0001,-0.0000,0.9391,flat,18.0,1,0.941
7720,247.04,0.3701,7.5390,0.1789,-0.0002,-0.0060,0.6719,flat,18.0,2,14.946
7730,247.36,0.5838,7.6230,0.1780,-0.0105,0.0001,0.0703,flat,18.0,2,15.135
7740,247.68,0.9317,7.6303,0.1798,-0.0002,0.0001,-0.4249,flat,18.0,2,15.338
7750,248.00,1.2475,7.4360,0.1799,0.0000,-0.0000,-0.7914,flat,18.0,2,15.366
7760,248.32,1.5191,7.0892,0.1799,0.0000,-0.0000,-1.0877,flat,18.0,2,15.254
7770,248.64,1.7171,6.6396,0.1799,-0.0000,-0.0000,-1.3595,flat,18.0,2,15.029
7780,248.96,1.8018,6.1263,0.1799,-0.0002,0.0000,-1.5932,flat,18.0,2,14.694
7790,249.28,1.7689,5.5888,0.1799,-0.0001,-0.0000,-1.7734,flat,18.0,2,14.272
7800,249.60,1.6423,5.0570,0.1799,-0.0003,-0.0000,-1.8998,flat,18.0,2,13.798
7810,249.92,1.4506,4.5392,0.1798,-0.0004,-0.0000,-1.9921,flat,18.0,2,13.293
7820,250.24,1.2118,4.0365,0.1798,-0.0003,-0.0000,-2.0632,flat,18.0,2,12.769
7830,250.56,0.9377,3.5484,0.1797,-0.0002,-0.0000,-2.1198,flat,18.0,2,12.232
7840,250.88,0.6361,3.0738,0.1797,-0.0002,-0.0000,-2.1656,flat,18.0,2,11.687
7850,251.20,0.3129,2.6117,0.1797,-0.0001,-0.0000,-2.2024,flat,18.0,2,11.136
7860,251.52,-0.0273,2.1599,0.1797,-0.0001,-0.0000,-2.2340,flat,18.0,2,10.580
7870,251.84,-0.3818,1.7176,0.1797,-0.0001,-0.0000,-2.2616,flat,18.0,2,10.021
7880,252.16,-0.7486,1.2840,0.1797,-0.0001,-0.0000,-2.2860,flat,18.0,2,9.459
7890,252.48,-1.1259,0.8583,0.1797,-0.0001,-0.0000,-2.3083,flat,18.0,2,8.896
7900,252.80,-1.5129,0.4401,0.1797,-0.0001,-0.0000,-2.3287,flat,18.0,2,8.330
7910,253.12,-1.9084,0.0291,0.1797,-0.0001,-0.0000,-2.3471,flat,18.0,2,7.763
7920,253.44,-2.3115,-0.3751,0.1797,-0.0001,-0.0000,-2.3638,flat,18.0,2,7.195
7930,253.76,-2.7213,-0.7729,0.1797,-0.0001,-0.0000,-2.3795,flat,18.0,2,6.626
7940,254.08,-3.1375,-1.1646,0.1797,-0.0001,-0.0000,-2.3942,flat,18.0,2,6.057
7950,254.40,-3.5594,-1.5504,0.1797,-0.0000,-0.0000,-2.4082,flat,18.0,2,5.487
7960,254.72,-3.9865,-1.9304,0.1797,-0.0000,-0.0000,-2.4215,flat,18.0,2,4.917
7970,255.04,-4.4186,-2.3050,0.1797,-0.0000,-0.0000,-2.4343,flat,18.0,2,4.346
7980,255.36,-4.8553,-2.6741,0.1797,-0.0000,-0.0000,-2.4469,flat,18.0,2,3.775
7990,255.68,-5.2967,-3.0375,0.1797,-0.0000,0.0000,-2.4598,flat,18.0,2,3.205
8000,256.00,-5.7427,-3.3950,0.1797,-0.0000,0.0000,-2.4736,flat,18.0,2,2.634
8010,256.32,-6.1933,-3.7457,0.1797,-0.0001,0.0000,-2.4893,flat,18.0,2,2.064
