step,time_s,x,y,z,roll,pitch,yaw,terrain,speed,target_idx,dist_to_target
10,0.32,0.0957,-0.0668,0.2006,0.0390,-0.0473,0.0026,rough,14.0,0,6.884
20,0.64,0.4864,-0.0855,0.2157,0.0438,-0.0524,-0.1027,rough,14.0,0,6.578
30,0.96,0.8859,-0.1427,0.2434,0.0670,-0.1067,-0.1819,rough,14.0,0,6.249
40,1.28,1.3062,-0.2443,0.2430,0.1008,0.0432,-0.2573,rough,14.0,0,5.882
50,1.60,1.7091,-0.3765,0.2268,0.1168,0.0631,-0.3435,rough,14.0,0,5.513
60,1.92,2.1040,-0.5492,0.1993,0.1213,0.0672,-0.4317,rough,14.0,0,5.126
70,2.24,2.4584,-0.7356,0.1920,0.1439,-0.0407,-0.4997,rough,14.0,0,4.760
80,2.56,2.8626,-0.9827,0.1542,0.1885,0.2378,-0.5402,rough,14.0,0,4.322
90,2.88,3.2145,-1.2186,0.0633,0.1392,0.2384,-0.6203,rough,14.0,0,3.929
100,3.20,3.5568,-1.4922,-0.0513,0.0991,0.2652,-0.6795,rough,14.0,0,3.517
110,3.52,3.8252,-1.7236,-0.0972,-0.0165,-0.0455,-0.7724,rough,14.0,0,3.183
120,3.84,4.1400,-2.0350,-0.1484,-0.1230,0.0965,-0.8723,rough,14.0,0,2.762
130,4.16,4.4338,-2.3910,-0.1907,-0.1099,0.2372,-0.9525,rough,14.0,0,2.316
140,4.48,4.6740,-2.7478,-0.2796,-0.0313,0.2023,-0.9803,rough,14.0,0,1.895
150,4.80,4.8517,-3.0845,-0.3117,0.1467,-0.0670,-1.0397,rough,14.0,0,1.518
160,5.12,5.0182,-3.4650,-0.2812,0.3169,-0.1197,-1.0971,rough,14.0,0,1.105
170,5.44,5.1785,-3.8210,-0.2232,0.2241,-0.0417,-1.2177,rough,14.0,1,12.070
180,5.76,5.1655,-4.0760,-0.2503,0.2338,0.0658,-1.5995,rough,14.0,1,12.305
190,6.08,5.1141,-4.3945,-0.3134,-0.0665,0.2104,-2.0340,rough,14.0,1,12.589
200,6.40,5.0147,-4.6129,-0.3531,-0.1315,0.0417,-2.3706,rough,14.0,1,12.764
210,6.72,4.8087,-4.8286,-0.3572,-0.1347,-0.0707,-2.5966,rough,14.0,1,12.907
220,7.04,4.4435,-4.9683,-0.4465,0.0844,0.2501,-2.8814,rough,14.0,1,12.940
230,7.36,4.0828,-5.0213,-0.5298,0.1394,0.3391,3.1408,rough,14.0,1,12.900
240,7.68,3.6977,-4.9905,-0.6553,0.1304,0.3130,3.0006,rough,14.0,1,12.784
250,8.00,3.3537,-4.9069,-0.7362,0.0287,0.1417,2.8169,rough,14.0,1,12.634
260,8.32,2.9447,-4.8075,-0.8281,-0.2475,0.2789,2.6586,rough,14.0,1,12.467
270,8.64,2.6723,-4.6401,-0.8129,-0.1891,-0.0114,2.6426,rough,14.0,1,12.262
280,8.96,2.4195,-4.4805,-0.8183,-0.1898,-0.0024,2.3730,rough,14.0,1,12.072
290,9.28,2.1490,-4.1846,-0.8345,-0.1218,0.1591,2.3529,rough,14.0,1,11.749
300,9.60,1.8745,-3.9162,-0.8489,-0.1019,-0.0004,2.3194,rough,14.0,1,11.458
310,9.92,1.6583,-3.6559,-0.7993,-0.0039,-0.3730,2.2825,rough,14.0,1,11.184
320,10.24,1.4536,-3.4208,-0.6724,0.0778,-0.5180,2.2357,rough,14.0,1,10.939
330,10.56,1.2407,-3.1472,-0.5176,0.0112,-0.5048,2.1620,rough,14.0,1,10.659
340,10.88,1.0403,-2.8653,-0.3690,0.0513,-0.4204,2.1276,rough,14.0,1,10.375
350,11.20,0.8171,-2.5400,-0.2722,-0.1050,-0.2753,2.0619,rough,14.0,1,10.052
360,11.52,0.6276,-2.1716,-0.1544,-0.1035,-0.2856,2.0154,rough,14.0,1,9.689
370,11.84,0.4534,-1.7921,-0.0305,-0.0827,-0.2930,1.9938,rough,14.0,1,9.319
380,12.16,0.2782,-1.3934,0.0784,-0.0762,-0.2217,1.9731,rough,14.0,1,8.934
390,12.48,0.1000,-0.9735,0.1464,-0.0929,-0.0993,1.9504,rough,14.0,1,8.533
400,12.80,-0.0549,-0.5452,0.1777,-0.0348,-0.0284,1.9262,rough,14.0,1,8.126
410,13.12,-0.2047,-0.1326,0.1847,-0.0480,-0.0423,1.8974,rough,14.0,1,7.740
420,13.44,-0.3414,0.2799,0.2065,-0.0474,-0.0732,1.8837,rough,14.0,1,7.357
430,13.76,-0.4606,0.6953,0.2433,-0.0001,-0.1229,1.8642,rough,14.0,1,6.973
440,14.08,-0.5794,1.1183,0.2899,0.0241,-0.1206,1.8483,rough,14.0,1,6.588
450,14.40,-0.7200,1.5485,0.3283,-0.0691,-0.0253,1.8411,rough,14.0,1,6.210
460,14.72,-0.8289,1.9742,0.3590,-0.0230,-0.0305,1.8243,rough,14.0,1,5.836
470,15.04,-0.9207,2.3866,0.3923,0.0370,-0.1322,1.8010,rough,14.0,1,5.478
480,15.36,-0.9946,2.8184,0.4446,0.1423,-0.1351,1.7773,rough,14.0,1,5.105
490,15.68,-1.0757,3.2567,0.4977,0.1654,-0.0979,1.7608,rough,14.0,1,4.741
500,16.00,-1.1368,3.7041,0.4819,0.2055,0.0745,1.6853,rough,14.0,1,4.374
510,16.32,-1.1423,4.1763,0.3475,0.3049,0.3518,1.6914,rough,14.0,1,3.973
520,16.64,-1.1368,4.6403,0.1188,0.4050,0.6085,1.6969,rough,14.0,1,3.589
530,16.96,-1.1298,5.0652,-0.1260,0.6291,0.5152,1.8303,rough,14.0,1,3.255
540,17.28,-1.1576,5.4581,-0.3194,0.6714,0.3390,1.7826,rough,14.0,1,2.991
550,17.60,-1.1601,5.8223,-0.4682,0.6144,0.3586,1.5536,rough,14.0,1,2.756
560,17.92,-1.1089,6.2051,-0.6408,0.5429,0.4207,1.3966,rough,14.0,1,2.496
570,18.24,-0.9958,6.5746,-0.8417,0.4692,0.5190,1.2651,rough,14.0,1,2.221
580,18.56,-0.8444,6.9300,-1.0644,0.4150,0.4535,1.2181,rough,14.0,1,1.951
590,18.88,-0.7141,7.3117,-1.2085,-0.0593,0.4694,1.0359,rough,14.0,1,1.744
600,19.20,-0.5621,7.5136,-1.2341,-0.0463,-0.2091,0.9280,rough,14.0,1,1.581
610,19.52,-0.3532,7.7454,-1.1319,-0.0001,-0.4303,0.8051,rough,14.0,1,1.392
620,19.84,-0.0821,7.9336,-1.0237,0.2475,-0.3537,0.7245,rough,14.0,1,1.180
630,20.16,0.2045,8.1080,-0.9098,0.3614,-0.3617,0.5132,rough,14.0,1,1.010
640,20.48,0.5133,8.2359,-0.7928,0.4324,-0.3190,0.2994,rough,14.0,1,0.885
650,20.80,0.8837,8.2210,-0.7767,0.6242,0.0468,0.0229,rough,14.0,2,15.798
660,21.12,1.1379,8.1267,-0.8202,0.5640,0.0809,-0.3789,rough,14.0,2,15.863
670,21.44,1.4429,7.9544,-0.9179,0.2682,0.3780,-0.6177,rough,14.0,2,15.899
680,21.76,1.6201,7.7443,-1.0032,0.1943,0.1754,-0.9141,rough,14.0,2,15.836
690,22.08,1.7413,7.4875,-1.0379,0.2334,-0.0864,-1.1453,rough,14.0,2,15.705
700,22.40,1.9219,7.1396,-1.0714,-0.0604,0.0366,-1.2587,rough,14.0,2,15.545
710,22.72,2.0653,6.7352,-1.1588,-0.2527,0.1882,-1.4459,rough,14.0,2,15.327
720,23.04,2.0680,6.3559,-1.2098,-0.0583,0.0756,-1.5864,rough,14.0,2,15.042
730,23.36,1.9477,5.9078,-1.2810,0.4080,0.3166,-1.6342,rough,14.0,2,14.628
740,23.68,1.8725,5.5441,-1.3299,0.4397,0.0588,-1.7917,rough,14.0,2,14.310
750,24.00,1.7849,5.2969,-1.2849,0.4969,-0.4155,-2.1049,rough,14.0,2,14.070
760,24.32,1.6404,5.0677,-1.1922,0.3508,-0.5254,-2.3987,rough,14.0,2,13.804
770,24.64,1.4592,4.9367,-1.0963,0.1488,-0.7107,-2.3749,rough,14.0,2,13.584
780,24.96,1.2395,4.8741,-0.9799,0.1084,-0.7033,-2.2734,rough,14.0,2,13.388
790,25.28,1.0305,4.7630,-0.8365,-0.0042,-0.6294,-2.1773,rough,14.0,2,13.164
800,25.60,0.8304,4.5909,-0.6784,0.0223,-0.6046,-2.2144,rough,14.0,2,12.902
810,25.92,0.5609,4.3108,-0.4943,0.1536,-0.4585,-2.2171,rough,14.0,2,12.514
820,26.24,0.3697,4.0666,-0.2959,0.1356,-0.7010,-2.2310,rough,14.0,2,12.205
830,26.56,0.1827,3.7657,-0.0520,-0.0791,-0.6543,-2.1913,rough,14.0,2,11.857
840,26.88,-0.0001,3.4936,0.1800,-0.1512,-0.5774,-2.1254,rough,14.0,2,11.533
850,27.20,-0.1577,3.2286,0.3130,-0.1494,-0.3146,-2.0686,rough,14.0,2,11.232
860,27.52,-0.3591,2.8773,0.4103,0.0195,-0.1880,-2.0563,rough,14.0,2,10.839
870,27.84,-0.5706,2.4763,0.3998,0.0709,0.0824,-2.0235,rough,14.0,2,10.405
880,28.16,-0.7552,2.0859,0.3694,0.0334,0.0911,-2.0667,rough,14.0,2,9.998
890,28.48,-0.9577,1.7054,0.3341,-0.0306,0.0702,-2.1054,rough,14.0,2,9.588
900,28.80,-1.1958,1.3225,0.2955,-0.0078,0.1393,-2.1362,rough,14.0,2,9.152
910,29.12,-1.4782,0.9535,0.1936,0.1421,0.2509,-2.1555,rough,14.0,2,8.695
920,29.44,-1.7181,0.6082,0.1040,0.1327,0.1690,-2.1962,rough,14.0,2,8.285
930,29.76,-1.9695,0.2647,0.0434,0.0957,0.1036,-2.2289,rough,14.0,2,7.869
940,30.08,-2.2453,-0.0665,0.0267,0.1546,0.0460,-2.2529,rough,14.0,2,7.444
950,30.40,-2.5306,-0.3940,0.0094,0.1999,0.0256,-2.2750,rough,14.0,2,7.014
960,30.72,-2.7992,-0.7067,0.0320,0.1457,-0.1425,-2.3220,rough,14.0,2,6.608
970,31.04,-3.0599,-0.9889,0.1367,0.1089,-0.3723,-2.3548,rough,14.0,2,6.227
980,31.36,-3.3167,-1.2234,0.3159,0.1463,-0.5746,-2.3659,rough,14.0,2,5.880
990,31.68,-3.6107,-1.4824,0.5272,0.2495,-0.5270,-2.3807,rough,14.0,2,5.489
1000,32.00,-3.8947,-1.7433,0.7424,0.2646,-0.5044,-2.3892,rough,14.0,2,5.104
1010,32.32,-4.1836,-2.0059,0.9421,0.2721,-0.4685,-2.4019,rough,14.0,2,4.715
1020,32.64,-4.5244,-2.2775,1.0881,0.3999,-0.2729,-2.3663,rough,14.0,2,4.279
1030,32.96,-4.8512,-2.5732,1.1711,0.4147,-0.0945,-2.3349,rough,14.0,2,3.839
1040,33.28,-5.1727,-2.8758,1.1720,0.4863,-0.0246,-2.3391,rough,14.0,2,3.400
1050,33.60,-5.4723,-3.1768,1.1871,0.4634,-0.0468,-2.3924,rough,14.0,2,2.981
1060,33.92,-5.8117,-3.5245,1.1413,0.3960,0.2506,-2.3338,rough,14.0,2,2.504
1070,34.24,-6.1641,-3.8102,0.9874,0.5709,0.3487,-2.2915,rough,14.0,2,2.053
1080,34.56,-6.3743,-4.0110,0.9749,0.4373,-0.1360,-2.5888,rough,14.0,2,1.768
1090,34.88,-6.6238,-4.1646,1.0157,0.2478,-0.4285,-2.7893,rough,14.0,2,1.475
1100,35.20,-6.9688,-4.2601,1.1194,0.2636,-0.4379,-2.8252,rough,14.0,2,1.133
1110,35.52,-7.3420,-4.4087,1.2064,0.0211,-0.1325,-2.9185,rough,14.0,3,1.180
1120,35.84,-7.7302,-4.4947,1.2345,-0.0058,-0.0562,-2.9805,rough,14.0,0,0.794
1130,36.16,-7.9052,-4.4669,1.2609,0.0537,-0.3175,-2.5505,rough,14.0,0,13.250
1140,36.48,-8.0448,-4.6585,1.3337,-0.2460,-0.4341,-2.1096,rough,14.0,0,13.390
1150,36.80,-8.0913,-4.8490,1.4117,-0.4372,-0.4127,-1.7744,rough,14.0,0,13.440
1160,37.12,-8.0917,-5.0351,1.4728,-0.4938,-0.3178,-1.6199,rough,14.0,0,13.446
1170,37.44,-8.0434,-5.2855,1.5013,-0.5556,-0.1478,-1.4348,rough,14.0,0,13.410
1180,37.76,-7.9287,-5.4988,1.5290,-0.6224,-0.3212,-1.0604,rough,14.0,0,13.309
1190,38.08,-7.7726,-5.7961,1.5846,-0.4320,-0.1738,-0.9266,rough,14.0,0,13.179
1200,38.40,-7.5285,-6.0453,1.6208,-0.4542,-0.0831,-0.7918,rough,14.0,0,12.963
1210,38.72,-7.2656,-6.2453,1.6524,-0.4101,-0.1089,-0.5682,rough,14.0,0,12.728
1220,39.04,-6.8560,-6.5070,1.5352,-0.1936,0.3902,-0.4820,rough,14.0,0,12.361
1230,39.36,-6.4861,-6.6880,1.3740,-0.0230,0.3237,-0.3914,rough,14.0,0,12.028
1240,39.68,-6.0924,-6.8226,1.2360,-0.0848,0.3739,-0.2869,rough,14.0,0,11.666
1250,40.00,-5.7237,-6.9257,1.1300,-0.0251,0.1975,-0.2083,rough,14.0,0,11.327
1260,40.32,-5.2970,-7.0720,1.0475,0.3420,0.3778,-0.1298,rough,14.0,0,10.943
1270,40.64,-4.9060,-7.2285,0.9150,0.6008,0.2268,0.0633,rough,14.0,0,10.602
1280,40.96,-4.5057,-7.3073,0.7893,0.5486,-0.0272,0.1082,rough,14.0,0,10.237
1290,41.28,-4.0285,-7.2467,0.7009,0.3739,0.3469,0.3012,rough,14.0,0,9.762
1300,41.60,-3.7082,-7.1983,0.6614,0.3971,-0.2988,0.1973,rough,14.0,0,9.441
1310,41.92,-3.3968,-7.1685,0.7678,0.4185,-0.4419,0.1694,rough,14.0,0,9.134
1320,42.24,-3.1972,-7.2027,0.8347,0.5791,-0.6563,-0.0031,rough,14.0,0,8.953
1330,42.56,-3.0153,-7.3174,0.8983,0.4329,-0.6814,0.1756,rough,14.0,0,8.816
1340,42.88,-2.7738,-7.4533,0.8975,0.3443,-0.7203,0.5704,rough,14.0,0,8.632
1350,43.20,-2.5018,-7.6267,0.8527,0.3663,-0.6779,0.6462,rough,14.0,0,8.439
1360,43.52,-2.2605,-7.8569,0.7412,0.3032,-0.7115,0.7059,rough,14.0,0,8.305
1370,43.84,-2.0802,-8.0878,0.6514,0.0332,-0.6989,0.8997,rough,14.0,0,8.237
1380,44.16,-1.9696,-8.2247,0.6214,-0.2781,-0.7021,1.2033,rough,14.0,0,8.199
1390,44.48,-1.9511,-8.2678,0.6135,-0.5099,-0.5979,1.5507,rough,14.0,0,8.202
1400,44.80,-1.9706,-8.2011,0.6463,-0.4772,-0.6581,1.5076,rough,14.0,0,8.189
1410,45.12,-2.0073,-8.0406,0.7267,-0.0870,-0.7210,1.0551,rough,14.0,0,8.151
1420,45.44,-1.9510,-7.8820,0.8508,-0.2435,-0.6422,1.2799,rough,14.0,0,8.033
1430,45.76,-1.8826,-7.7026,1.0034,0.0960,-0.6981,0.8440,rough,14.0,0,7.897
1440,46.08,-1.7097,-7.5468,1.1842,-0.0586,-0.6612,0.9270,rough,14.0,0,7.676
1450,46.40,-1.5570,-7.3133,1.3662,-0.2062,-0.5571,1.0522,rough,14.0,0,7.445
1460,46.72,-1.3734,-7.0366,1.5422,-0.1613,-0.4346,0.9222,rough,14.0,0,7.174
1470,47.04,-1.0520,-6.7241,1.5838,0.1077,0.0350,0.8543,rough,14.0,0,6.766
1480,47.36,-0.7448,-6.3786,1.5116,0.0095,0.3154,0.7965,rough,14.0,0,6.367
1490,47.68,-0.4418,-6.0511,1.3374,-0.1487,0.4618,0.7267,rough,14.0,0,5.986
1500,48.00,-0.1109,-5.7704,1.0497,-0.1349,0.6577,0.6393,rough,14.0,0,5.597
1510,48.32,0.2389,-5.4674,0.5979,-0.4916,0.8431,0.3176,rough,14.0,0,5.193
1520,48.64,0.7184,-5.1346,-0.0049,-0.1784,0.9200,0.5362,rough,14.0,0,4.667
1530,48.96,1.0954,-4.6391,-0.4339,-0.2438,0.4199,0.6504,rough,14.0,0,4.251
1540,49.28,1.5057,-4.3340,-0.6680,0.0405,0.6905,0.6810,rough,14.0,0,3.844
1550,49.60,1.7677,-4.1112,-0.8346,-0.0276,0.2817,0.6328,rough,14.0,0,3.600
1560,49.92,2.0094,-3.9731,-0.8603,-0.0723,-0.1986,0.5927,rough,14.0,0,3.380
1570,50.24,2.2977,-3.8521,-0.7763,0.0871,-0.4706,0.4789,rough,14.0,0,3.119
1580,50.56,2.5974,-3.6896,-0.6332,0.0458,-0.3946,0.3668,rough,14.0,0,2.870
1590,50.88,2.9859,-3.5685,-0.5777,0.1770,0.0943,0.3158,rough,14.0,0,2.544
1600,51.20,3.3625,-3.4576,-0.5676,0.1881,-0.1276,0.2376,rough,14.0,0,2.249
1610,51.52,3.7496,-3.4432,-0.5377,0.3466,-0.1165,0.0472,rough,14.0,0,1.925
1620,51.84,4.0948,-3.4955,-0.4827,0.3805,-0.2754,-0.1796,rough,14.0,0,1.616
1630,52.16,4.4884,-3.5758,-0.4076,0.2235,-0.2117,-0.3242,rough,14.0,0,1.275
1640,52.48,4.8252,-3.7119,-0.3397,0.1522,-0.2651,-0.4972,rough,14.0,0,0.961
1650,52.80,5.1112,-3.8825,-0.2447,0.2379,-0.1299,-0.4660,rough,14.0,1,12.105
1660,53.12,5.2230,-3.9125,-0.2150,0.0756,-0.3142,-0.2335,rough,14.0,1,12.171
1670,53.44,5.3771,-3.9850,-0.1938,0.1986,-0.3197,-0.0876,rough,14.0,1,12.293
1680,53.76,5.5543,-4.0168,-0.1444,0.1704,-0.3544,0.1064,rough,14.0,1,12.387
1690,54.08,5.8130,-4.0107,-0.0960,0.1738,-0.2631,0.4688,rough,14.0,1,12.478
1700,54.40,6.0620,-3.8827,-0.0694,0.3154,-0.2056,0.7637,rough,14.0,1,12.459
1710,54.72,6.2602,-3.5814,-0.0576,0.1078,0.0079,1.0549,rough,14.0,1,12.267
1720,55.04,6.4133,-3.2863,-0.0335,0.0319,-0.1335,1.2519,rough,14.0,1,12.069
1730,55.36,6.4762,-2.9973,0.0236,-0.1886,-0.3313,1.3945,rough,14.0,1,11.840
1740,55.68,6.4614,-2.6290,0.0762,-0.4671,-0.1883,1.5616,rough,14.0,1,11.507
1750,56.00,6.3906,-2.2057,0.0263,-0.6391,0.0757,1.6210,rough,14.0,1,11.102
1760,56.32,6.3352,-1.8015,-0.0271,-0.5615,0.1692,1.7467,rough,14.0,1,10.722
1770,56.64,6.2732,-1.3953,-0.1233,-0.2447,0.2052,1.8565,rough,14.0,1,10.340
1780,56.96,6.1501,-1.0147,-0.2035,-0.1021,0.1426,1.9758,rough,14.0,1,9.950
1790,57.28,5.9642,-0.6263,-0.2583,-0.0386,0.1456,2.0525,rough,14.0,1,9.521
1800,57.60,5.7680,-0.2321,-0.3492,0.0869,0.2742,2.1380,rough,14.0,1,9.082
1810,57.92,5.5364,0.1472,-0.4913,0.0938,0.3588,2.1283,rough,14.0,1,8.638
1820,58.24,5.3777,0.5363,-0.5818,0.3300,0.2659,2.1640,rough,14.0,1,8.224
1830,58.56,5.2172,0.8336,-0.6136,0.3932,-0.1663,2.0433,rough,14.0,1,7.887
1840,58.88,5.0258,1.2002,-0.5698,0.2949,-0.0920,2.0195,rough,14.0,1,7.474
1850,59.20,4.8416,1.6141,-0.5563,0.3118,0.1817,2.0655,rough,14.0,1,7.027
1860,59.52,4.6573,2.0040,-0.6416,0.2233,0.1050,2.1311,rough,14.0,1,6.599
1870,59.84,4.4282,2.3773,-0.7012,0.2147,0.0843,2.2193,rough,14.0,1,6.162
1880,60.16,4.2336,2.7076,-0.6809,0.3376,-0.0944,2.1929,rough,14.0,1,5.779
1890,60.48,4.0481,2.9997,-0.6271,0.3020,-0.2590,2.1558,rough,14.0,1,5.433
1900,60.80,3.8137,3.3869,-0.6567,0.2435,0.1074,2.2196,rough,14.0,1,4.981
1910,61.12,3.5344,3.7772,-0.7493,0.2492,0.2410,2.3182,rough,14.0,1,4.501
1920,61.44,3.2380,4.0957,-0.8547,0.2204,0.1713,2.3937,rough,14.0,1,4.072
1930,61.76,2.9515,4.3730,-0.8840,0.1841,0.0371,2.3586,rough,14.0,1,3.684
1940,62.08,2.6486,4.6868,-0.8978,0.0661,0.0814,2.2806,rough,14.0,1,3.260
1950,62.40,2.2777,5.0596,-1.0426,-0.1612,0.4915,2.0882,rough,14.0,1,2.755
1960,62.72,2.0068,5.4201,-1.2327,-0.5319,0.5177,1.9073,rough,14.0,1,2.311
1970,63.04,1.8024,5.7217,-1.3399,-0.3776,-0.0739,2.0771,rough,14.0,1,1.952
1980,63.36,1.6293,6.0177,-1.3480,-0.2884,-0.2563,2.1552,rough,14.0,1,1.612
1990,63.68,1.3461,6.3974,-1.3228,-0.4480,0.0625,2.0116,rough,14.0,1,1.160
2000,64.00,1.1440,6.7658,-1.3284,-0.4908,0.1557,1.9325,rough,14.0,2,14.769
2010,64.32,0.9921,6.9634,-1.3527,-0.4944,0.1808,2.2918,rough,14.0,2,14.834
2020,64.64,0.7967,7.0876,-1.3813,-0.4313,0.0117,2.6367,rough,14.0,2,14.818
2030,64.96,0.5400,7.1809,-1.3855,-0.3628,-0.1385,2.9233,rough,14.0,2,14.746
2040,65.28,0.2261,7.1712,-1.3572,-0.3485,-0.1544,-3.0659,rough,14.0,2,14.560
2050,65.60,-0.1380,7.0927,-1.3252,-0.2618,-0.1200,-2.8434,rough,14.0,2,14.294
2060,65.92,-0.4107,6.9636,-1.2425,-0.3561,-0.4479,-2.5885,rough,14.0,2,14.039
2070,66.24,-0.7099,6.8337,-1.1231,-0.0779,-0.6365,-2.4044,rough,14.0,2,13.771
2080,66.56,-0.8803,6.6167,-0.9486,-0.2465,-0.6536,-2.3222,rough,14.0,2,13.497
2090,66.88,-1.0557,6.3654,-0.7289,-0.3736,-0.6139,-2.1349,rough,14.0,2,13.191
2100,67.20,-1.1985,6.1078,-0.5413,-0.3454,-0.6090,-2.1197,rough,14.0,2,12.897
2110,67.52,-1.3698,5.8014,-0.3192,-0.3073,-0.5924,-2.0550,rough,14.0,2,12.546
2120,67.84,-1.5155,5.4952,-0.0839,-0.3167,-0.6726,-2.0243,rough,14.0,2,12.208
2130,68.16,-1.6202,5.1794,0.1373,-0.3760,-0.6545,-2.0435,rough,14.0,2,11.885
2140,68.48,-1.7415,4.8603,0.3880,-0.3960,-0.6644,-2.0118,rough,14.0,2,11.550
2150,68.80,-1.8590,4.5124,0.5452,-0.3827,-0.4590,-2.1344,rough,14.0,2,11.193
2160,69.12,-2.0162,4.1857,0.6237,-0.3686,-0.2379,-2.2334,rough,14.0,2,10.833
2170,69.44,-2.3235,3.8468,0.6695,-0.2935,0.0174,-2.3222,rough,14.0,2,10.382
2180,69.76,-2.6403,3.5061,0.6165,-0.2581,0.1402,-2.3276,rough,14.0,2,9.925
2190,70.08,-2.9137,3.1535,0.5674,-0.4138,0.1553,-2.3218,rough,14.0,2,9.481
2200,70.40,-3.2295,2.8128,0.4725,-0.3764,0.2925,-2.3529,rough,14.0,2,9.026
2210,70.72,-3.5719,2.4989,0.2406,-0.1700,0.5253,-2.3366,rough,14.0,2,8.581
2220,71.04,-3.7976,2.1931,0.0767,-0.3213,0.3487,-2.3123,rough,14.0,2,8.204
2230,71.36,-3.9966,1.9088,0.0214,-0.3852,-0.1141,-2.1237,rough,14.0,2,7.858
2240,71.68,-4.2208,1.5423,0.0801,-0.3725,-0.1707,-2.0993,rough,14.0,2,7.429
2250,72.00,-4.5140,1.1642,0.0959,-0.1101,0.0314,-2.1389,rough,14.0,2,6.955
2260,72.32,-4.7327,0.8017,0.1031,-0.1368,-0.0903,-2.1168,rough,14.0,2,6.532
2270,72.64,-4.8902,0.4949,0.2046,-0.2308,-0.4701,-2.0481,rough,14.0,2,6.187
2280,72.96,-4.9985,0.1889,0.3543,-0.3977,-0.5823,-1.8669,rough,14.0,2,5.868
2290,73.28,-5.0772,-0.1178,0.5267,-0.3587,-0.5204,-1.8093,rough,14.0,2,5.563
2300,73.60,-5.1538,-0.4670,0.7107,-0.3486,-0.5574,-1.7989,rough,14.0,2,5.224
2310,73.92,-5.2960,-0.8565,0.8149,-0.0135,-0.1432,-1.7567,rough,14.0,2,4.818
2320,74.24,-5.4138,-1.2523,0.8585,0.1409,-0.1051,-1.7796,rough,14.0,2,4.423
2330,74.56,-5.5315,-1.6602,0.8931,0.1542,-0.0648,-1.8606,rough,14.0,2,4.021
2340,74.88,-5.6311,-2.0169,0.9452,0.0671,-0.2388,-1.8618,rough,14.0,2,3.677
2350,75.20,-5.6995,-2.1010,0.9721,0.0446,-0.2640,-1.6811,rough,14.0,2,3.568
2360,75.52,-5.7183,-2.1046,0.9545,0.0071,-0.1317,-1.5886,rough,14.0,2,3.554
2370,75.84,-5.7213,-2.1116,0.9503,0.0130,-0.0810,-1.5744,rough,14.0,2,3.546
2380,76.16,-5.7222,-2.1121,0.9506,0.0112,-0.0820,-1.5715,rough,14.0,2,3.546
2390,76.48,-5.7221,-2.1124,0.9507,0.0103,-0.0819,-1.5682,rough,14.0,2,3.545
2400,76.80,-5.7205,-2.1125,0.9506,0.0096,-0.0811,-1.5640,rough,14.0,2,3.546
2410,77.12,-5.7171,-2.1127,0.9502,0.0092,-0.0794,-1.5583,rough,14.0,2,3.548
2420,77.44,-5.7112,-2.1121,0.9495,0.0094,-0.0762,-1.5502,rough,14.0,2,3.552
2430,77.76,-5.7016,-2.1129,0.9486,0.0102,-0.0702,-1.5383,rough,14.0,2,3.557
2440,78.08,-5.6876,-2.1112,0.9518,0.0133,-0.0937,-1.5277,rough,14.0,2,3.567
2450,78.40,-5.6800,-2.1125,0.9436,0.0001,-0.0724,-1.5531,rough,14.0,2,3.571
2460,78.72,-5.6764,-2.1128,0.9437,0.0045,-0.0727,-1.5592,rough,14.0,2,3.573
2470,79.04,-5.6757,-2.1107,0.9478,0.0056,-0.1035,-1.5686,rough,14.0,2,3.575
2480,79.36,-5.6765,-2.1130,0.9448,0.0137,-0.0728,-1.5716,rough,14.0,2,3.573
2490,79.68,-5.6760,-2.1135,0.9447,0.0180,-0.0670,-1.5707,rough,14.0,2,3.573
2500,80.00,-5.6776,-2.1123,0.9466,0.0235,-0.0738,-1.5738,rough,14.0,2,3.573
2510,80.32,-5.6762,-2.1132,0.9447,0.0184,-0.0670,-1.5702,rough,14.0,2,3.573
2520,80.64,-5.6778,-2.1134,0.9417,0.0249,-0.0411,-1.5726,rough,14.0,2,3.572
2530,80.96,-5.6766,-2.1133,0.9448,0.0200,-0.0651,-1.5698,rough,14.0,2,3.573
2540,81.28,-5.6749,-2.1126,0.9442,0.0128,-0.0715,-1.5708,rough,14.0,2,3.574
2550,81.60,-5.6770,-2.1132,0.9416,0.0230,-0.0439,-1.5732,rough,14.0,2,3.573
2560,81.92,-5.6756,-2.1129,0.9444,0.0186,-0.0650,-1.5692,rough,14.0,2,3.574
2570,82.24,-5.6768,-2.1136,0.9417,0.0233,-0.0435,-1.5735,rough,14.0,2,3.572
2580,82.56,-5.6778,-2.1124,0.9465,0.0251,-0.0714,-1.5736,rough,14.0,2,3.573
2590,82.88,-5.6760,-2.1132,0.9447,0.0185,-0.0667,-1.5700,rough,14.0,2,3.573
2600,83.20,-5.6744,-2.1125,0.9438,0.0077,-0.0755,-1.5699,rough,14.0,2,3.575
2610,83.52,-5.6764,-2.1132,0.9447,0.0199,-0.0652,-1.5707,rough,14.0,2,3.573
2620,83.84,-5.6777,-2.1123,0.9466,0.0238,-0.0735,-1.5737,rough,14.0,2,3.573
2630,84.16,-5.6762,-2.1132,0.9447,0.0184,-0.0669,-1.5701,rough,14.0,2,3.573
2640,84.48,-5.6778,-2.1134,0.9417,0.0249,-0.0411,-1.5726,rough,14.0,2,3.572
2650,84.80,-5.6765,-2.1133,0.9448,0.0200,-0.0650,-1.5697,rough,14.0,2,3.573
2660,85.12,-5.6779,-2.1135,0.9417,0.0255,-0.0403,-1.5722,rough,14.0,2,3.572
2670,85.44,-5.6764,-2.1134,0.9448,0.0200,-0.0649,-1.5692,rough,14.0,2,3.573
2680,85.76,-5.6757,-2.1112,0.9496,0.0161,-0.1032,-1.5747,rough,14.0,2,3.575
2690,86.08,-5.6771,-2.1121,0.9463,0.0231,-0.0731,-1.5737,rough,14.0,2,3.573
2700,86.40,-5.6753,-2.1129,0.9444,0.0161,-0.0690,-1.5715,rough,14.0,2,3.574
2710,86.72,-5.6739,-2.1121,0.9439,0.0067,-0.0783,-1.5701,rough,14.0,2,3.575
2720,87.04,-5.6762,-2.1109,0.9495,0.0200,-0.0984,-1.5740,rough,14.0,2,3.575
2730,87.36,-5.6736,-2.1122,0.9443,0.0045,-0.0830,-1.5689,rough,14.0,2,3.575
2740,87.68,-5.6762,-2.1107,0.9497,0.0188,-0.1013,-1.5742,rough,14.0,2,3.575
2750,88.00,-5.6739,-2.1122,0.9444,0.0045,-0.0836,-1.5694,rough,14.0,2,3.575
2760,88.32,-5.6767,-2.1127,0.9416,0.0211,-0.0464,-1.5731,rough,14.0,2,3.573
2770,88.64,-5.6758,-2.1114,0.9494,0.0179,-0.0997,-1.5744,rough,14.0,2,3.575
2780,88.96,-5.6767,-2.1135,0.9448,0.0224,-0.0617,-1.5692,rough,14.0,2,3.572
2790,89.28,-5.6765,-2.1116,0.9461,0.0207,-0.0764,-1.5753,rough,14.0,2,3.574
2800,89.60,-5.6749,-2.1129,0.9442,0.0136,-0.0707,-1.5720,rough,14.0,2,3.574
2810,89.92,-5.6768,-2.1128,0.9415,0.0217,-0.0453,-1.5735,rough,14.0,2,3.573
2820,90.24,-5.6759,-2.1114,0.9493,0.0180,-0.0993,-1.5746,rough,14.0,2,3.575
2830,90.56,-5.6768,-2.1135,0.9448,0.0224,-0.0616,-1.5693,rough,14.0,2,3.572
2840,90.88,-5.6758,-2.1113,0.9496,0.0165,-0.1024,-1.5747,rough,14.0,2,3.575
2850,91.20,-5.6770,-2.1135,0.9449,0.0223,-0.0624,-1.5698,rough,14.0,2,3.572
2860,91.52,-5.6764,-2.1115,0.9468,0.0183,-0.0834,-1.5749,rough,14.0,2,3.574
2870,91.84,-5.6751,-2.1125,0.9444,0.0162,-0.0686,-1.5694,rough,14.0,2,3.574
2880,92.16,-5.6765,-2.1134,0.9447,0.0214,-0.0629,-1.5698,rough,14.0,2,3.573
2890,92.48,-5.6758,-2.1104,0.9498,0.0179,-0.1035,-1.5741,rough,14.0,2,3.575
2900,92.80,-5.6737,-2.1126,0.9432,0.0054,-0.0752,-1.5713,rough,14.0,2,3.575
2910,93.12,-5.6764,-2.1116,0.9467,0.0190,-0.0821,-1.5753,rough,14.0,2,3.574
2920,93.44,-5.6751,-2.1126,0.9443,0.0164,-0.0681,-1.5695,rough,14.0,2,3.574
2930,93.76,-5.6766,-2.1134,0.9447,0.0214,-0.0627,-1.5699,rough,14.0,2,3.573
2940,94.08,-5.6750,-2.1126,0.9446,0.0144,-0.0720,-1.5697,rough,14.0,2,3.574
2950,94.40,-5.6768,-2.1134,0.9448,0.0213,-0.0638,-1.5704,rough,14.0,2,3.572
2960,94.72,-5.6756,-2.1105,0.9504,0.0149,-0.1106,-1.5737,rough,14.0,2,3.575
2970,95.04,-5.6746,-2.1122,0.9442,0.0135,-0.0715,-1.5697,rough,14.0,2,3.575
2980,95.36,-5.6762,-2.1133,0.9446,0.0201,-0.0643,-1.5704,rough,14.0,2,3.573
2990,95.68,-5.6755,-2.1110,0.9496,0.0154,-0.1045,-1.5747,rough,14.0,2,3.575
3000,96.00,-5.6770,-2.1137,0.9416,0.0237,-0.0421,-1.5737,rough,14.0,2,3.572
3010,96.32,-5.6753,-2.1131,0.9447,0.0159,-0.0700,-1.5699,rough,14.0,2,3.574
3020,96.64,-5.6771,-2.1135,0.9418,0.0230,-0.0446,-1.5739,rough,14.0,2,3.572
3030,96.96,-5.6756,-2.1130,0.9448,0.0159,-0.0705,-1.5705,rough,14.0,2,3.573
3040,97.28,-5.6764,-2.1133,0.9448,0.0198,-0.0652,-1.5697,rough,14.0,2,3.573
3050,97.60,-5.6744,-2.1125,0.9438,0.0079,-0.0753,-1.5697,rough,14.0,2,3.575
3060,97.92,-5.6764,-2.1132,0.9447,0.0200,-0.0652,-1.5706,rough,14.0,2,3.573
3070,98.24,-5.6777,-2.1134,0.9417,0.0247,-0.0415,-1.5728,rough,14.0,2,3.572
3080,98.56,-5.6762,-2.1131,0.9447,0.0184,-0.0670,-1.5711,rough,14.0,2,3.573
3090,98.88,-5.6748,-2.1128,0.9447,0.0117,-0.0755,-1.5702,rough,14.0,2,3.574
3100,99.20,-5.6764,-2.1107,0.9498,0.0191,-0.1009,-1.5738,rough,14.0,2,3.575
3110,99.52,-5.6750,-2.1127,0.9446,0.0122,-0.0749,-1.5710,rough,14.0,2,3.574
3120,99.84,-5.6768,-2.1113,0.9498,0.0204,-0.0989,-1.5737,rough,14.0,2,3.574
3130,100.16,-5.6751,-2.1127,0.9445,0.0133,-0.0727,-1.5719,rough,14.0,2,3.574
3140,100.48,-5.6766,-2.1135,0.9449,0.0208,-0.0644,-1.5692,rough,14.0,2,3.573
3150,100.80,-5.6758,-2.1113,0.9496,0.0162,-0.1030,-1.5747,rough,14.0,2,3.575
3160,101.12,-5.6750,-2.1128,0.9444,0.0132,-0.0724,-1.5719,rough,14.0,2,3.574
3170,101.44,-5.6767,-2.1135,0.9449,0.0207,-0.0644,-1.5690,rough,14.0,2,3.572
3180,101.76,-5.6765,-2.1115,0.9462,0.0203,-0.0772,-1.5750,rough,14.0,2,3.574
3190,102.08,-5.6749,-2.1128,0.9442,0.0135,-0.0710,-1.5719,rough,14.0,2,3.574
3200,102.40,-5.6768,-2.1128,0.9415,0.0217,-0.0453,-1.5735,rough,14.0,2,3.573
3210,102.72,-5.6759,-2.1114,0.9493,0.0180,-0.0993,-1.5746,rough,14.0,2,3.575
3220,103.04,-5.6768,-2.1135,0.9448,0.0224,-0.0616,-1.5693,rough,14.0,2,3.572
3230,103.36,-5.6758,-2.1113,0.9496,0.0165,-0.1024,-1.5747,rough,14.0,2,3.575
3240,103.68,-5.6770,-2.1135,0.9449,0.0223,-0.0624,-1.5698,rough,14.0,2,3.572
3250,104.00,-5.6751,-2.1127,0.9445,0.0132,-0.0727,-1.5711,rough,14.0,2,3.574
3260,104.32,-5.6770,-2.1114,0.9498,0.0214,-0.0975,-1.5738,rough,14.0,2,3.574
3270,104.64,-5.6752,-2.1128,0.9444,0.0135,-0.0723,-1.5719,rough,14.0,2,3.574
3280,104.96,-5.6767,-2.1135,0.9449,0.0208,-0.0644,-1.5691,rough,14.0,2,3.572
3290,105.28,-5.6752,-2.1127,0.9447,0.0148,-0.0715,-1.5693,rough,14.0,2,3.574
3300,105.60,-5.6768,-2.1134,0.9448,0.0213,-0.0636,-1.5700,rough,14.0,2,3.572
3310,105.92,-5.6761,-2.1118,0.9497,0.0167,-0.1021,-1.5748,rough,14.0,2,3.574
3320,106.24,-5.6742,-2.1122,0.9432,0.0074,-0.0731,-1.5706,rough,14.0,2,3.575
3330,106.56,-5.6758,-2.1113,0.9495,0.0171,-0.1009,-1.5741,rough,14.0,2,3.575
3340,106.88,-5.6767,-2.1135,0.9448,0.0223,-0.0620,-1.5693,rough,14.0,2,3.572
3350,107.20,-5.6765,-2.1116,0.9461,0.0206,-0.0765,-1.5753,rough,14.0,2,3.574
3360,107.52,-5.6749,-2.1129,0.9442,0.0136,-0.0707,-1.5720,rough,14.0,2,3.574
3370,107.84,-5.6765,-2.1112,0.9498,0.0197,-0.0998,-1.5743,rough,14.0,2,3.574
3380,108.16,-5.6750,-2.1127,0.9444,0.0131,-0.0730,-1.5722,rough,14.0,2,3.574
3390,108.48,-5.6764,-2.1134,0.9449,0.0198,-0.0657,-1.5694,rough,14.0,2,3.573
3400,108.80,-5.6758,-2.1104,0.9499,0.0176,-0.1042,-1.5738,rough,14.0,2,3.575
3410,109.12,-5.6737,-2.1126,0.9432,0.0053,-0.0755,-1.5712,rough,14.0,2,3.575
3420,109.44,-5.6764,-2.1116,0.9468,0.0190,-0.0822,-1.5753,rough,14.0,2,3.574
3430,109.76,-5.6751,-2.1125,0.9443,0.0164,-0.0681,-1.5695,rough,14.0,2,3.574
3440,110.08,-5.6765,-2.1134,0.9447,0.0214,-0.0628,-1.5699,rough,14.0,2,3.573
3450,110.40,-5.6759,-2.1104,0.9498,0.0179,-0.1034,-1.5742,rough,14.0,2,3.575
3460,110.72,-5.6738,-2.1126,0.9432,0.0054,-0.0751,-1.5713,rough,14.0,2,3.575
3470,111.04,-5.6762,-2.1118,0.9496,0.0176,-0.1007,-1.5749,rough,14.0,2,3.574
3480,111.36,-5.6739,-2.1124,0.9435,0.0050,-0.0774,-1.5715,rough,14.0,2,3.575
3490,111.68,-5.6761,-2.1132,0.9448,0.0181,-0.0678,-1.5700,rough,14.0,2,3.573
3500,112.00,-5.6755,-2.1110,0.9496,0.0150,-0.1052,-1.5744,rough,14.0,2,3.575
3510,112.32,-5.6770,-2.1137,0.9416,0.0237,-0.0424,-1.5736,rough,14.0,2,3.572
3520,112.64,-5.6757,-2.1106,0.9504,0.0158,-0.1093,-1.5741,rough,14.0,2,3.575
3530,112.96,-5.6746,-2.1123,0.9442,0.0137,-0.0709,-1.5699,rough,14.0,2,3.575
3540,113.28,-5.6762,-2.1133,0.9446,0.0201,-0.0641,-1.5705,rough,14.0,2,3.573
3550,113.60,-5.6742,-2.1124,0.9438,0.0074,-0.0760,-1.5701,rough,14.0,2,3.575
3560,113.92,-5.6764,-2.1132,0.9447,0.0199,-0.0654,-1.5709,rough,14.0,2,3.573
3570,114.24,-5.6741,-2.1124,0.9451,0.0053,-0.0873,-1.5742,rough,14.0,2,3.575
3580,114.56,-5.6757,-2.1132,0.9448,0.0173,-0.0684,-1.5693,rough,14.0,2,3.573
3590,114.88,-5.6771,-2.1136,0.9418,0.0232,-0.0441,-1.5736,rough,14.0,2,3.572
3600,115.20,-5.6755,-2.1130,0.9447,0.0159,-0.0704,-1.5700,rough,14.0,2,3.574
3610,115.52,-5.6770,-2.1127,0.9459,0.0214,-0.0718,-1.5751,rough,14.0,2,3.573
3620,115.84,-5.6756,-2.1130,0.9447,0.0153,-0.0713,-1.5707,rough,14.0,2,3.574
3630,116.16,-5.6773,-2.1122,0.9466,0.0225,-0.0753,-1.5741,rough,14.0,2,3.573
3640,116.48,-5.6757,-2.1129,0.9446,0.0161,-0.0696,-1.5715,rough,14.0,2,3.574
3650,116.80,-5.6736,-2.1121,0.9444,0.0033,-0.0851,-1.5688,rough,14.0,2,3.575
3660,117.12,-5.6760,-2.1114,0.9496,0.0169,-0.1020,-1.5743,rough,14.0,2,3.575
3670,117.44,-5.6737,-2.1121,0.9444,0.0037,-0.0845,-1.5696,rough,14.0,2,3.575
3680,117.76,-5.6764,-2.1111,0.9498,0.0189,-0.1010,-1.5741,rough,14.0,2,3.574
3690,118.08,-5.6694,-2.1097,0.9426,-0.0194,-0.1066,-1.5699,rough,14.0,2,3.580
3700,118.40,-5.6738,-2.1122,0.9444,0.0037,-0.0844,-1.5696,rough,14.0,2,3.575
3710,118.72,-5.6767,-2.1127,0.9416,0.0209,-0.0466,-1.5731,rough,14.0,2,3.573
3720,119.04,-5.6759,-2.1114,0.9494,0.0179,-0.0997,-1.5744,rough,14.0,2,3.575
3730,119.36,-5.6768,-2.1135,0.9448,0.0224,-0.0617,-1.5692,rough,14.0,2,3.572
3740,119.68,-5.6766,-2.1116,0.9461,0.0207,-0.0764,-1.5753,rough,14.0,2,3.574
3750,120.00,-5.6749,-2.1129,0.9442,0.0136,-0.0707,-1.5720,rough,14.0,2,3.574
3760,120.32,-5.6765,-2.1112,0.9498,0.0197,-0.0997,-1.5743,rough,14.0,2,3.574
3770,120.64,-5.6750,-2.1127,0.9444,0.0131,-0.0730,-1.5722,rough,14.0,2,3.574
3780,120.96,-5.6764,-2.1134,0.9449,0.0198,-0.0657,-1.5694,rough,14.0,2,3.573
3790,121.28,-5.6745,-2.1126,0.9446,0.0109,-0.0763,-1.5707,rough,14.0,2,3.574
3800,121.60,-5.6762,-2.1114,0.9496,0.0173,-0.1014,-1.5743,rough,14.0,2,3.574
3810,121.92,-5.6738,-2.1121,0.9444,0.0038,-0.0843,-1.5696,rough,14.0,2,3.575
3820,122.24,-5.6765,-2.1120,0.9497,0.0186,-0.0998,-1.5743,rough,14.0,2,3.574
3830,122.56,-5.6740,-2.1125,0.9435,0.0052,-0.0771,-1.5712,rough,14.0,2,3.575
3840,122.88,-5.6763,-2.1133,0.9449,0.0193,-0.0663,-1.5697,rough,14.0,2,3.573
3850,123.20,-5.6750,-2.1126,0.9447,0.0140,-0.0728,-1.5696,rough,14.0,2,3.574
3860,123.52,-5.6768,-2.1112,0.9495,0.0214,-0.0959,-1.5737,rough,14.0,2,3.574
3870,123.84,-5.6748,-2.1128,0.9443,0.0133,-0.0719,-1.5718,rough,14.0,2,3.574
3880,124.16,-5.6768,-2.1128,0.9415,0.0216,-0.0455,-1.5735,rough,14.0,2,3.573
3890,124.48,-5.6759,-2.1114,0.9494,0.0180,-0.0994,-1.5746,rough,14.0,2,3.575
3900,124.80,-5.6768,-2.1135,0.9448,0.0224,-0.0616,-1.5694,rough,14.0,2,3.572
3910,125.12,-5.6758,-2.1113,0.9496,0.0165,-0.1024,-1.5747,rough,14.0,2,3.575
3920,125.44,-5.6770,-2.1135,0.9449,0.0223,-0.0624,-1.5698,rough,14.0,2,3.572
3930,125.76,-5.6764,-2.1115,0.9468,0.0183,-0.0835,-1.5749,rough,14.0,2,3.574
3940,126.08,-5.6751,-2.1125,0.9444,0.0162,-0.0686,-1.5694,rough,14.0,2,3.574
3950,126.40,-5.6765,-2.1134,0.9447,0.0214,-0.0629,-1.5698,rough,14.0,2,3.573
3960,126.72,-5.6758,-2.1104,0.9498,0.0179,-0.1035,-1.5741,rough,14.0,2,3.575
3970,127.04,-5.6737,-2.1126,0.9432,0.0054,-0.0752,-1.5713,rough,14.0,2,3.575
3980,127.36,-5.6764,-2.1116,0.9467,0.0190,-0.0821,-1.5753,rough,14.0,2,3.574
3990,127.68,-5.6751,-2.1126,0.9443,0.0164,-0.0681,-1.5696,rough,14.0,2,3.574
4000,128.00,-5.6766,-2.1134,0.9447,0.0214,-0.0627,-1.5699,rough,14.0,2,3.573
4010,128.32,-5.6750,-2.1126,0.9446,0.0144,-0.0720,-1.5697,rough,14.0,2,3.574
4020,128.64,-5.6768,-2.1134,0.9448,0.0213,-0.0638,-1.5704,rough,14.0,2,3.572
4030,128.96,-5.6756,-2.1105,0.9504,0.0149,-0.1106,-1.5737,rough,14.0,2,3.575
4040,129.28,-5.6746,-2.1122,0.9442,0.0135,-0.0715,-1.5697,rough,14.0,2,3.575
4050,129.60,-5.6762,-2.1133,0.9446,0.0201,-0.0643,-1.5704,rough,14.0,2,3.573
4060,129.92,-5.6755,-2.1110,0.9496,0.0154,-0.1045,-1.5747,rough,14.0,2,3.575
4070,130.24,-5.6770,-2.1137,0.9416,0.0237,-0.0421,-1.5737,rough,14.0,2,3.572
4080,130.56,-5.6753,-2.1131,0.9447,0.0159,-0.0700,-1.5699,rough,14.0,2,3.574
4090,130.88,-5.6771,-2.1135,0.9418,0.0230,-0.0446,-1.5739,rough,14.0,2,3.572
4100,131.20,-5.6756,-2.1130,0.9448,0.0159,-0.0705,-1.5705,rough,14.0,2,3.573
4110,131.52,-5.6764,-2.1133,0.9448,0.0198,-0.0652,-1.5697,rough,14.0,2,3.573
4120,131.84,-5.6744,-2.1125,0.9438,0.0079,-0.0753,-1.5697,rough,14.0,2,3.575
4130,132.16,-5.6764,-2.1132,0.9447,0.0200,-0.0652,-1.5706,rough,14.0,2,3.573
4140,132.48,-5.6777,-2.1134,0.9417,0.0247,-0.0415,-1.5728,rough,14.0,2,3.572
4150,132.80,-5.6762,-2.1131,0.9447,0.0184,-0.0670,-1.5711,rough,14.0,2,3.573
4160,133.12,-5.6748,-2.1128,0.9447,0.0117,-0.0755,-1.5702,rough,14.0,2,3.574
4170,133.44,-5.6764,-2.1107,0.9498,0.0191,-0.1009,-1.5738,rough,14.0,2,3.575
4180,133.76,-5.6750,-2.1127,0.9446,0.0122,-0.0749,-1.5710,rough,14.0,2,3.574
4190,134.08,-5.6768,-2.1113,0.9498,0.0204,-0.0989,-1.5737,rough,14.0,2,3.574
4200,134.40,-5.6751,-2.1127,0.9445,0.0133,-0.0727,-1.5719,rough,14.0,2,3.574
4210,134.72,-5.6766,-2.1135,0.9449,0.0208,-0.0644,-1.5692,rough,14.0,2,3.573
4220,135.04,-5.6758,-2.1113,0.9496,0.0162,-0.1030,-1.5747,rough,14.0,2,3.575
4230,135.36,-5.6750,-2.1128,0.9444,0.0132,-0.0724,-1.5719,rough,14.0,2,3.574
4240,135.68,-5.6767,-2.1135,0.9449,0.0207,-0.0644,-1.5690,rough,14.0,2,3.572
4250,136.00,-5.6765,-2.1115,0.9462,0.0203,-0.0772,-1.5750,rough,14.0,2,3.574
4260,136.32,-5.6749,-2.1128,0.9442,0.0135,-0.0710,-1.5719,rough,14.0,2,3.574
4270,136.64,-5.6768,-2.1128,0.9415,0.0217,-0.0453,-1.5735,rough,14.0,2,3.573
4280,136.96,-5.6759,-2.1114,0.9493,0.0180,-0.0993,-1.5746,rough,14.0,2,3.575
4290,137.28,-5.6768,-2.1135,0.9448,0.0224,-0.0616,-1.5693,rough,14.0,2,3.572
4300,137.60,-5.6758,-2.1113,0.9496,0.0165,-0.1024,-1.5747,rough,14.0,2,3.575
4310,137.92,-5.6770,-2.1135,0.9449,0.0223,-0.0624,-1.5698,rough,14.0,2,3.572
4320,138.24,-5.6751,-2.1127,0.9445,0.0132,-0.0727,-1.5711,rough,14.0,2,3.574
4330,138.56,-5.6770,-2.1114,0.9498,0.0214,-0.0975,-1.5738,rough,14.0,2,3.574
4340,138.88,-5.6752,-2.1128,0.9444,0.0135,-0.0723,-1.5719,rough,14.0,2,3.574
4350,139.20,-5.6767,-2.1135,0.9449,0.0208,-0.0644,-1.5691,rough,14.0,2,3.572
4360,139.52,-5.6752,-2.1127,0.9447,0.0148,-0.0715,-1.5693,rough,14.0,2,3.574
4370,139.84,-5.6768,-2.1134,0.9448,0.0213,-0.0636,-1.5700,rough,14.0,2,3.572
4380,140.16,-5.6761,-2.1118,0.9497,0.0167,-0.1021,-1.5748,rough,14.0,2,3.574
4390,140.48,-5.6742,-2.1122,0.9432,0.0074,-0.0731,-1.5706,rough,14.0,2,3.575
4400,140.80,-5.6758,-2.1113,0.9495,0.0171,-0.1009,-1.5741,rough,14.0,2,3.575
4410,141.12,-5.6767,-2.1135,0.9448,0.0223,-0.0620,-1.5693,rough,14.0,2,3.572
4420,141.44,-5.6765,-2.1116,0.9461,0.0206,-0.0765,-1.5753,rough,14.0,2,3.574
4430,141.76,-5.6749,-2.1129,0.9442,0.0136,-0.0707,-1.5720,rough,14.0,2,3.574
4440,142.08,-5.6765,-2.1112,0.9498,0.0197,-0.0998,-1.5743,rough,14.0,2,3.574
4450,142.40,-5.6750,-2.1127,0.9444,0.0131,-0.0730,-1.5722,rough,14.0,2,3.574
4460,142.72,-5.6764,-2.1134,0.9449,0.0198,-0.0657,-1.5694,rough,14.0,2,3.573
4470,143.04,-5.6758,-2.1104,0.9499,0.0176,-0.1042,-1.5738,rough,14.0,2,3.575
4480,143.36,-5.6737,-2.1126,0.9432,0.0053,-0.0755,-1.5712,rough,14.0,2,3.575
4490,143.68,-5.6764,-2.1116,0.9468,0.0190,-0.0822,-1.5753,rough,14.0,2,3.574
4500,144.00,-5.6751,-2.1125,0.9443,0.0164,-0.0681,-1.5695,rough,14.0,2,3.574
4510,144.32,-5.6765,-2.1134,0.9447,0.0214,-0.0628,-1.5699,rough,14.0,2,3.573
4520,144.64,-5.6759,-2.1104,0.9498,0.0179,-0.1034,-1.5742,rough,14.0,2,3.575
4530,144.96,-5.6738,-2.1126,0.9432,0.0054,-0.0751,-1.5713,rough,14.0,2,3.575
4540,145.28,-5.6762,-2.1118,0.9496,0.0176,-0.1007,-1.5749,rough,14.0,2,3.574
4550,145.60,-5.6739,-2.1124,0.9435,0.0050,-0.0774,-1.5715,rough,14.0,2,3.575
4560,145.92,-5.6761,-2.1132,0.9448,0.0181,-0.0678,-1.5700,rough,14.0,2,3.573
4570,146.24,-5.6755,-2.1110,0.9496,0.0150,-0.1052,-1.5744,rough,14.0,2,3.575
4580,146.56,-5.6770,-2.1137,0.9416,0.0237,-0.0424,-1.5736,rough,14.0,2,3.572
4590,146.88,-5.6757,-2.1106,0.9504,0.0158,-0.1093,-1.5741,rough,14.0,2,3.575
4600,147.20,-5.6746,-2.1123,0.9442,0.0137,-0.0709,-1.5699,rough,14.0,2,3.575
4610,147.52,-5.6762,-2.1133,0.9446,0.0201,-0.0641,-1.5705,rough,14.0,2,3.573
4620,147.84,-5.6742,-2.1124,0.9438,0.0074,-0.0760,-1.5701,rough,14.0,2,3.575
4630,148.16,-5.6764,-2.1132,0.9447,0.0199,-0.0654,-1.5709,rough,14.0,2,3.573
4640,148.48,-5.6741,-2.1124,0.9451,0.0053,-0.0873,-1.5742,rough,14.0,2,3.575
4650,148.80,-5.6757,-2.1132,0.9448,0.0173,-0.0684,-1.5693,rough,14.0,2,3.573
4660,149.12,-5.6771,-2.1136,0.9418,0.0232,-0.0441,-1.5736,rough,14.0,2,3.572
4670,149.44,-5.6755,-2.1130,0.9447,0.0159,-0.0704,-1.5700,rough,14.0,2,3.574
4680,149.76,-5.6770,-2.1127,0.9459,0.0214,-0.0718,-1.5751,rough,14.0,2,3.573
4690,150.08,-5.6756,-2.1130,0.9447,0.0153,-0.0713,-1.5707,rough,14.0,2,3.574
4700,150.40,-5.6773,-2.1122,0.9466,0.0225,-0.0753,-1.5741,rough,14.0,2,3.573
4710,150.72,-5.6757,-2.1129,0.9446,0.0161,-0.0696,-1.5715,rough,14.0,2,3.574
4720,151.04,-5.6736,-2.1121,0.9444,0.0033,-0.0851,-1.5688,rough,14.0,2,3.575
4730,151.36,-5.6760,-2.1114,0.9496,0.0169,-0.1020,-1.5743,rough,14.0,2,3.575
4740,151.68,-5.6737,-2.1121,0.9444,0.0037,-0.0845,-1.5696,rough,14.0,2,3.575
4750,152.00,-5.6764,-2.1111,0.9498,0.0189,-0.1010,-1.5741,rough,14.0,2,3.574
4760,152.32,-5.6694,-2.1097,0.9426,-0.0194,-0.1066,-1.5699,rough,14.0,2,3.580
4770,152.64,-5.6738,-2.1122,0.9444,0.0037,-0.0844,-1.5696,rough,14.0,2,3.575
4780,152.96,-5.6767,-2.1127,0.9416,0.0209,-0.0466,-1.5731,rough,14.0,2,3.573
4790,153.28,-5.6759,-2.1114,0.9494,0.0179,-0.0997,-1.5744,rough,14.0,2,3.575
4800,153.60,-5.6768,-2.1135,0.9448,0.0224,-0.0617,-1.5692,rough,14.0,2,3.572
4810,153.92,-5.6766,-2.1116,0.9461,0.0207,-0.0764,-1.5753,rough,14.0,2,3.574
4820,154.24,-5.6749,-2.1129,0.9442,0.0136,-0.0707,-1.5720,rough,14.0,2,3.574
4830,154.56,-5.6765,-2.1112,0.9498,0.0197,-0.0997,-1.5743,rough,14.0,2,3.574
4840,154.88,-5.6750,-2.1127,0.9444,0.0131,-0.0730,-1.5722,rough,14.0,2,3.574
4850,155.20,-5.6764,-2.1134,0.9449,0.0198,-0.0657,-1.5694,rough,14.0,2,3.573
4860,155.52,-5.6745,-2.1126,0.9446,0.0109,-0.0763,-1.5707,rough,14.0,2,3.574
4870,155.84,-5.6762,-2.1114,0.9496,0.0173,-0.1014,-1.5743,rough,14.0,2,3.574
4880,156.16,-5.6738,-2.1121,0.9444,0.0038,-0.0843,-1.5696,rough,14.0,2,3.575
4890,156.48,-5.6765,-2.1120,0.9497,0.0186,-0.0998,-1.5743,rough,14.0,2,3.574
4900,156.80,-5.6740,-2.1125,0.9435,0.0052,-0.0771,-1.5712,rough,14.0,2,3.575
4910,157.12,-5.6763,-2.1133,0.9449,0.0193,-0.0663,-1.5697,rough,14.0,2,3.573
4920,157.44,-5.6750,-2.1126,0.9447,0.0140,-0.0728,-1.5696,rough,14.0,2,3.574
4930,157.76,-5.6768,-2.1112,0.9495,0.0214,-0.0959,-1.5737,rough,14.0,2,3.574
4940,158.08,-5.6748,-2.1128,0.9443,0.0133,-0.0719,-1.5718,rough,14.0,2,3.574
4950,158.40,-5.6768,-2.1128,0.9415,0.0216,-0.0455,-1.5735,rough,14.0,2,3.573
4960,158.72,-5.6759,-2.1114,0.9494,0.0180,-0.0994,-1.5746,rough,14.0,2,3.575
4970,159.04,-5.6768,-2.1135,0.9448,0.0224,-0.0616,-1.5694,rough,14.0,2,3.572
4980,159.36,-5.6758,-2.1113,0.9496,0.0165,-0.1024,-1.5747,rough,14.0,2,3.575
4990,159.68,-5.6770,-2.1135,0.9449,0.0223,-0.0624,-1.5698,rough,14.0,2,3.572
5000,160.00,-5.6764,-2.1115,0.9468,0.0183,-0.0835,-1.5749,rough,14.0,2,3.574
5010,160.32,-5.6751,-2.1125,0.9444,0.0162,-0.0686,-1.5694,rough,14.0,2,3.574
5020,160.64,-5.6765,-2.1134,0.9447,0.0214,-0.0629,-1.5698,rough,14.0,2,3.573
5030,160.96,-5.6758,-2.1104,0.9498,0.0179,-0.1035,-1.5741,rough,14.0,2,3.575
5040,161.28,-5.6737,-2.1126,0.9432,0.0054,-0.0752,-1.5713,rough,14.0,2,3.575
5050,161.60,-5.6764,-2.1116,0.9467,0.0190,-0.0821,-1.5753,rough,14.0,2,3.574
5060,161.92,-5.6751,-2.1126,0.9443,0.0164,-0.0681,-1.5696,rough,14.0,2,3.574
5070,162.24,-5.6766,-2.1134,0.9447,0.0214,-0.0627,-1.5699,rough,14.0,2,3.573
5080,162.56,-5.6750,-2.1126,0.9446,0.0144,-0.0720,-1.5697,rough,14.0,2,3.574
5090,162.88,-5.6768,-2.1134,0.9448,0.0213,-0.0638,-1.5704,rough,14.0,2,3.572
5100,163.20,-5.6756,-2.1105,0.9504,0.0149,-0.1106,-1.5737,rough,14.0,2,3.575
5110,163.52,-5.6746,-2.1122,0.9442,0.0135,-0.0715,-1.5697,rough,14.0,2,3.575
5120,163.84,-5.6762,-2.1133,0.9446,0.0201,-0.0643,-1.5704,rough,14.0,2,3.573
5130,164.16,-5.6755,-2.1110,0.9496,0.0154,-0.1045,-1.5747,rough,14.0,2,3.575
5140,164.48,-5.6770,-2.1137,0.9416,0.0237,-0.0421,-1.5737,rough,14.0,2,3.572
5150,164.80,-5.6753,-2.1131,0.9447,0.0159,-0.0700,-1.5699,rough,14.0,2,3.574
5160,165.12,-5.6771,-2.1135,0.9418,0.0230,-0.0446,-1.5739,rough,14.0,2,3.572
5170,165.44,-5.6756,-2.1130,0.9448,0.0159,-0.0705,-1.5705,rough,14.0,2,3.573
5180,165.76,-5.6764,-2.1133,0.9448,0.0198,-0.0652,-1.5697,rough,14.0,2,3.573
5190,166.08,-5.6744,-2.1125,0.9438,0.0079,-0.0753,-1.5697,rough,14.0,2,3.575
5200,166.40,-5.6764,-2.1132,0.9447,0.0200,-0.0652,-1.5706,rough,14.0,2,3.573
5210,166.72,-5.6777,-2.1134,0.9417,0.0247,-0.0415,-1.5728,rough,14.0,2,3.572
5220,167.04,-5.6762,-2.1131,0.9447,0.0184,-0.0670,-1.5711,rough,14.0,2,3.573
5230,167.36,-5.6748,-2.1128,0.9447,0.0117,-0.0755,-1.5702,rough,14.0,2,3.574
5240,167.68,-5.6764,-2.1107,0.9498,0.0191,-0.1009,-1.5738,rough,14.0,2,3.575
5250,168.00,-5.6750,-2.1127,0.9446,0.0122,-0.0749,-1.5710,rough,14.0,2,3.574
5260,168.32,-5.6768,-2.1113,0.9498,0.0204,-0.0989,-1.5737,rough,14.0,2,3.574
5270,168.64,-5.6751,-2.1127,0.9445,0.0133,-0.0727,-1.5719,rough,14.0,2,3.574
5280,168.96,-5.6766,-2.1135,0.9449,0.0208,-0.0644,-1.5692,rough,14.0,2,3.573
5290,169.28,-5.6758,-2.1113,0.9496,0.0162,-0.1030,-1.5747,rough,14.0,2,3.575
5300,169.60,-5.6750,-2.1128,0.9444,0.0132,-0.0724,-1.5719,rough,14.0,2,3.574
5310,169.92,-5.6767,-2.1135,0.9449,0.0207,-0.0644,-1.5690,rough,14.0,2,3.572
5320,170.24,-5.6765,-2.1115,0.9462,0.0203,-0.0772,-1.5750,rough,14.0,2,3.574
5330,170.56,-5.6749,-2.1128,0.9442,0.0135,-0.0710,-1.5719,rough,14.0,2,3.574
5340,170.88,-5.6768,-2.1128,0.9415,0.0217,-0.0453,-1.5735,rough,14.0,2,3.573
5350,171.20,-5.6759,-2.1114,0.9493,0.0180,-0.0993,-1.5746,rough,14.0,2,3.575
5360,171.52,-5.6768,-2.1135,0.9448,0.0224,-0.0616,-1.5693,rough,14.0,2,3.572
5370,171.84,-5.6758,-2.1113,0.9496,0.0165,-0.1024,-1.5747,rough,14.0,2,3.575
5380,172.16,-5.6770,-2.1135,0.9449,0.0223,-0.0624,-1.5698,rough,14.0,2,3.572
5390,172.48,-5.6751,-2.1127,0.9445,0.0132,-0.0727,-1.5711,rough,14.0,2,3.574
5400,172.80,-5.6770,-2.1114,0.9498,0.0214,-0.0975,-1.5738,rough,14.0,2,3.574
5410,173.12,-5.6752,-2.1128,0.9444,0.0135,-0.0723,-1.5719,rough,14.0,2,3.574
5420,173.44,-5.6767,-2.1135,0.9449,0.0208,-0.0644,-1.5691,rough,14.0,2,3.572
5430,173.76,-5.6752,-2.1127,0.9447,0.0148,-0.0715,-1.5693,rough,14.0,2,3.574
5440,174.08,-5.6768,-2.1134,0.9448,0.0213,-0.0636,-1.5700,rough,14.0,2,3.572
5450,174.40,-5.6761,-2.1118,0.9497,0.0167,-0.1021,-1.5748,rough,14.0,2,3.574
5460,174.72,-5.6742,-2.1122,0.9432,0.0074,-0.0731,-1.5706,rough,14.0,2,3.575
5470,175.04,-5.6758,-2.1113,0.9495,0.0171,-0.1009,-1.5741,rough,14.0,2,3.575
5480,175.36,-5.6767,-2.1135,0.9448,0.0223,-0.0620,-1.5693,rough,14.0,2,3.572
5490,175.68,-5.6765,-2.1116,0.9461,0.0206,-0.0765,-1.5753,rough,14.0,2,3.574
5500,176.00,-5.6749,-2.1129,0.9442,0.0136,-0.0707,-1.5720,rough,14.0,2,3.574
5510,176.32,-5.6765,-2.1112,0.9498,0.0197,-0.0998,-1.5743,rough,14.0,2,3.574
5520,176.64,-5.6750,-2.1127,0.9444,0.0131,-0.0730,-1.5722,rough,14.0,2,3.574
5530,176.96,-5.6764,-2.1134,0.9449,0.0198,-0.0657,-1.5694,rough,14.0,2,3.573
5540,177.28,-5.6758,-2.1104,0.9499,0.0176,-0.1042,-1.5738,rough,14.0,2,3.575
5550,177.60,-5.6737,-2.1126,0.9432,0.0053,-0.0755,-1.5712,rough,14.0,2,3.575
5560,177.92,-5.6764,-2.1116,0.9468,0.0190,-0.0822,-1.5753,rough,14.0,2,3.574
5570,178.24,-5.6751,-2.1125,0.9443,0.0164,-0.0681,-1.5695,rough,14.0,2,3.574
5580,178.56,-5.6765,-2.1134,0.9447,0.0214,-0.0628,-1.5699,rough,14.0,2,3.573
5590,178.88,-5.6759,-2.1104,0.9498,0.0179,-0.1034,-1.5742,rough,14.0,2,3.575
5600,179.20,-5.6738,-2.1126,0.9432,0.0054,-0.0751,-1.5713,rough,14.0,2,3.575
5610,179.52,-5.6762,-2.1118,0.9496,0.0176,-0.1007,-1.5749,rough,14.0,2,3.574
5620,179.84,-5.6739,-2.1124,0.9435,0.0050,-0.0774,-1.5715,rough,14.0,2,3.575
5630,180.16,-5.6761,-2.1132,0.9448,0.0181,-0.0678,-1.5700,rough,14.0,2,3.573
5640,180.48,-5.6755,-2.1110,0.9496,0.0150,-0.1052,-1.5744,rough,14.0,2,3.575
5650,180.80,-5.6770,-2.1137,0.9416,0.0237,-0.0424,-1.5736,rough,14.0,2,3.572
5660,181.12,-5.6757,-2.1106,0.9504,0.0158,-0.1093,-1.5741,rough,14.0,2,3.575
5670,181.44,-5.6746,-2.1123,0.9442,0.0137,-0.0709,-1.5699,rough,14.0,2,3.575
5680,181.76,-5.6762,-2.1133,0.9446,0.0201,-0.0641,-1.5705,rough,14.0,2,3.573
5690,182.08,-5.6742,-2.1124,0.9438,0.0074,-0.0760,-1.5701,rough,14.0,2,3.575
5700,182.40,-5.6764,-2.1132,0.9447,0.0199,-0.0654,-1.5709,rough,14.0,2,3.573
5710,182.72,-5.6741,-2.1124,0.9451,0.0053,-0.0873,-1.5742,rough,14.0,2,3.575
5720,183.04,-5.6757,-2.1132,0.9448,0.0173,-0.0684,-1.5693,rough,14.0,2,3.573
5730,183.36,-5.6771,-2.1136,0.9418,0.0232,-0.0441,-1.5736,rough,14.0,2,3.572
5740,183.68,-5.6755,-2.1130,0.9447,0.0159,-0.0704,-1.5700,rough,14.0,2,3.574
5750,184.00,-5.6770,-2.1127,0.9459,0.0214,-0.0718,-1.5751,rough,14.0,2,3.573
5760,184.32,-5.6756,-2.1130,0.9447,0.0153,-0.0713,-1.5707,rough,14.0,2,3.574
5770,184.64,-5.6773,-2.1122,0.9466,0.0225,-0.0753,-1.5741,rough,14.0,2,3.573
5780,184.96,-5.6757,-2.1129,0.9446,0.0161,-0.0696,-1.5715,rough,14.0,2,3.574
5790,185.28,-5.6736,-2.1121,0.9444,0.0033,-0.0851,-1.5688,rough,14.0,2,3.575
5800,185.60,-5.6760,-2.1114,0.9496,0.0169,-0.1020,-1.5743,rough,14.0,2,3.575
5810,185.92,-5.6737,-2.1121,0.9444,0.0037,-0.0845,-1.5696,rough,14.0,2,3.575
5820,186.24,-5.6764,-2.1111,0.9498,0.0189,-0.1010,-1.5741,rough,14.0,2,3.574
5830,186.56,-5.6694,-2.1097,0.9426,-0.0194,-0.1066,-1.5699,rough,14.0,2,3.580
5840,186.88,-5.6738,-2.1122,0.9444,0.0037,-0.0844,-1.5696,rough,14.0,2,3.575
5850,187.20,-5.6767,-2.1127,0.9416,0.0209,-0.0466,-1.5731,rough,14.0,2,3.573
5860,187.52,-5.6759,-2.1114,0.9494,0.0179,-0.0997,-1.5744,rough,14.0,2,3.575
5870,187.84,-5.6768,-2.1135,0.9448,0.0224,-0.0617,-1.5692,rough,14.0,2,3.572
5880,188.16,-5.6766,-2.1116,0.9461,0.0207,-0.0764,-1.5753,rough,14.0,2,3.574
5890,188.48,-5.6749,-2.1129,0.9442,0.0136,-0.0707,-1.5720,rough,14.0,2,3.574
5900,188.80,-5.6765,-2.1112,0.9498,0.0197,-0.0997,-1.5743,rough,14.0,2,3.574
5910,189.12,-5.6750,-2.1127,0.9444,0.0131,-0.0730,-1.5722,rough,14.0,2,3.574
5920,189.44,-5.6764,-2.1134,0.9449,0.0198,-0.0657,-1.5694,rough,14.0,2,3.573
5930,189.76,-5.6745,-2.1126,0.9446,0.0109,-0.0763,-1.5707,rough,14.0,2,3.574
5940,190.08,-5.6762,-2.1114,0.9496,0.0173,-0.1014,-1.5743,rough,14.0,2,3.574
5950,190.40,-5.6738,-2.1121,0.9444,0.0038,-0.0843,-1.5696,rough,14.0,2,3.575
5960,190.72,-5.6765,-2.1120,0.9497,0.0186,-0.0998,-1.5743,rough,14.0,2,3.574
5970,191.04,-5.6740,-2.1125,0.9435,0.0052,-0.0771,-1.5712,rough,14.0,2,3.575
5980,191.36,-5.6763,-2.1133,0.9449,0.0193,-0.0663,-1.5697,rough,14.0,2,3.573
5990,191.68,-5.6750,-2.1126,0.9447,0.0140,-0.0728,-1.5696,rough,14.0,2,3.574
6000,192.00,-5.6768,-2.1112,0.9495,0.0214,-0.0959,-1.5737,rough,14.0,2,3.574
6010,192.32,-5.6748,-2.1128,0.9443,0.0133,-0.0719,-1.5718,rough,14.0,2,3.574
6020,192.64,-5.6768,-2.1128,0.9415,0.0216,-0.0455,-1.5735,rough,14.0,2,3.573
6030,192.96,-5.6759,-2.1114,0.9494,0.0180,-0.0994,-1.5746,rough,14.0,2,3.575
6040,193.28,-5.6768,-2.1135,0.9448,0.0224,-0.0616,-1.5694,rough,14.0,2,3.572
6050,193.60,-5.6758,-2.1113,0.9496,0.0165,-0.1024,-1.5747,rough,14.0,2,3.575
6060,193.92,-5.6770,-2.1135,0.9449,0.0223,-0.0624,-1.5698,rough,14.0,2,3.572
6070,194.24,-5.6764,-2.1115,0.9468,0.0183,-0.0835,-1.5749,rough,14.0,2,3.574
6080,194.56,-5.6751,-2.1125,0.9444,0.0162,-0.0686,-1.5694,rough,14.0,2,3.574
6090,194.88,-5.6765,-2.1134,0.9447,0.0214,-0.0629,-1.5698,rough,14.0,2,3.573
6100,195.20,-5.6758,-2.1104,0.9498,0.0179,-0.1035,-1.5741,rough,14.0,2,3.575
6110,195.52,-5.6737,-2.1126,0.9432,0.0054,-0.0752,-1.5713,rough,14.0,2,3.575
6120,195.84,-5.6764,-2.1116,0.9467,0.0190,-0.0821,-1.5753,rough,14.0,2,3.574
6130,196.16,-5.6751,-2.1126,0.9443,0.0164,-0.0681,-1.5696,rough,14.0,2,3.574
6140,196.48,-5.6766,-2.1134,0.9447,0.0214,-0.0627,-1.5699,rough,14.0,2,3.573
6150,196.80,-5.6750,-2.1126,0.9446,0.0144,-0.0720,-1.5697,rough,14.0,2,3.574
6160,197.12,-5.6768,-2.1134,0.9448,0.0213,-0.0638,-1.5704,rough,14.0,2,3.572
6170,197.44,-5.6756,-2.1105,0.9504,0.0149,-0.1106,-1.5737,rough,14.0,2,3.575
6180,197.76,-5.6746,-2.1122,0.9442,0.0135,-0.0715,-1.5697,rough,14.0,2,3.575
6190,198.08,-5.6762,-2.1133,0.9446,0.0201,-0.0643,-1.5704,rough,14.0,2,3.573
6200,198.40,-5.6755,-2.1110,0.9496,0.0154,-0.1045,-1.5747,rough,14.0,2,3.575
6210,198.72,-5.6770,-2.1137,0.9416,0.0237,-0.0421,-1.5737,rough,14.0,2,3.572
6220,199.04,-5.6753,-2.1131,0.9447,0.0159,-0.0700,-1.5699,rough,14.0,2,3.574
6230,199.36,-5.6771,-2.1135,0.9418,0.0230,-0.0446,-1.5739,rough,14.0,2,3.572
6240,199.68,-5.6756,-2.1130,0.9448,0.0159,-0.0705,-1.5705,rough,14.0,2,3.573
6250,200.00,-5.6764,-2.1133,0.9448,0.0198,-0.0652,-1.5697,rough,14.0,2,3.573
6260,200.32,-5.6744,-2.1125,0.9438,0.0079,-0.0753,-1.5697,rough,14.0,2,3.575
6270,200.64,-5.6764,-2.1132,0.9447,0.0200,-0.0652,-1.5706,rough,14.0,2,3.573
6280,200.96,-5.6777,-2.1134,0.9417,0.0247,-0.0415,-1.5728,rough,14.0,2,3.572
6290,201.28,-5.6762,-2.1131,0.9447,0.0184,-0.0670,-1.5711,rough,14.0,2,3.573
6300,201.60,-5.6748,-2.1128,0.9447,0.0117,-0.0755,-1.5702,rough,14.0,2,3.574
6310,201.92,-5.6764,-2.1107,0.9498,0.0191,-0.1009,-1.5738,rough,14.0,2,3.575
6320,202.24,-5.6750,-2.1127,0.9446,0.0122,-0.0749,-1.5710,rough,14.0,2,3.574
6330,202.56,-5.6768,-2.1113,0.9498,0.0204,-0.0989,-1.5737,rough,14.0,2,3.574
6340,202.88,-5.6751,-2.1127,0.9445,0.0133,-0.0727,-1.5719,rough,14.0,2,3.574
6350,203.20,-5.6766,-2.1135,0.9449,0.0208,-0.0644,-1.5692,rough,14.0,2,3.573
6360,203.52,-5.6758,-2.1113,0.9496,0.0162,-0.1030,-1.5747,rough,14.0,2,3.575
6370,203.84,-5.6750,-2.1128,0.9444,0.0132,-0.0724,-1.5719,rough,14.0,2,3.574
6380,204.16,-5.6767,-2.1135,0.9449,0.0207,-0.0644,-1.5690,rough,14.0,2,3.572
6390,204.48,-5.6765,-2.1115,0.9462,0.0203,-0.0772,-1.5750,rough,14.0,2,3.574
6400,204.80,-5.6749,-2.1128,0.9442,0.0135,-0.0710,-1.5719,rough,14.0,2,3.574
6410,205.12,-5.6768,-2.1128,0.9415,0.0217,-0.0453,-1.5735,rough,14.0,2,3.573
6420,205.44,-5.6759,-2.1114,0.9493,0.0180,-0.0993,-1.5746,rough,14.0,2,3.575
6430,205.76,-5.6768,-2.1135,0.9448,0.0224,-0.0616,-1.5693,rough,14.0,2,3.572
6440,206.08,-5.6758,-2.1113,0.9496,0.0165,-0.1024,-1.5747,rough,14.0,2,3.575
6450,206.40,-5.6770,-2.1135,0.9449,0.0223,-0.0624,-1.5698,rough,14.0,2,3.572
6460,206.72,-5.6751,-2.1127,0.9445,0.0132,-0.0727,-1.5711,rough,14.0,2,3.574
6470,207.04,-5.6770,-2.1114,0.9498,0.0214,-0.0975,-1.5738,rough,14.0,2,3.574
6480,207.36,-5.6752,-2.1128,0.9444,0.0135,-0.0723,-1.5719,rough,14.0,2,3.574
6490,207.68,-5.6767,-2.1135,0.9449,0.0208,-0.0644,-1.5691,rough,14.0,2,3.572
6500,208.00,-5.6752,-2.1127,0.9447,0.0148,-0.0715,-1.5693,rough,14.0,2,3.574
6510,208.32,-5.6768,-2.1134,0.9448,0.0213,-0.0636,-1.5700,rough,14.0,2,3.572
6520,208.64,-5.6761,-2.1118,0.9497,0.0167,-0.1021,-1.5748,rough,14.0,2,3.574
6530,208.96,-5.6742,-2.1122,0.9432,0.0074,-0.0731,-1.5706,rough,14.0,2,3.575
6540,209.28,-5.6758,-2.1113,0.9495,0.0171,-0.1009,-1.5741,rough,14.0,2,3.575
6550,209.60,-5.6767,-2.1135,0.9448,0.0223,-0.0620,-1.5693,rough,14.0,2,3.572
6560,209.92,-5.6765,-2.1116,0.9461,0.0206,-0.0765,-1.5753,rough,14.0,2,3.574
6570,210.24,-5.6749,-2.1129,0.9442,0.0136,-0.0707,-1.5720,rough,14.0,2,3.574
6580,210.56,-5.6765,-2.1112,0.9498,0.0197,-0.0998,-1.5743,rough,14.0,2,3.574
6590,210.88,-5.6750,-2.1127,0.9444,0.0131,-0.0730,-1.5722,rough,14.0,2,3.574
6600,211.20,-5.6764,-2.1134,0.9449,0.0198,-0.0657,-1.5694,rough,14.0,2,3.573
6610,211.52,-5.6758,-2.1104,0.9499,0.0176,-0.1042,-1.5738,rough,14.0,2,3.575
6620,211.84,-5.6737,-2.1126,0.9432,0.0053,-0.0755,-1.5712,rough,14.0,2,3.575
6630,212.16,-5.6764,-2.1116,0.9468,0.0190,-0.0822,-1.5753,rough,14.0,2,3.574
6640,212.48,-5.6751,-2.1125,0.9443,0.0164,-0.0681,-1.5695,rough,14.0,2,3.574
6650,212.80,-5.6765,-2.1134,0.9447,0.0214,-0.0628,-1.5699,rough,14.0,2,3.573
6660,213.12,-5.6759,-2.1104,0.9498,0.0179,-0.1034,-1.5742,rough,14.0,2,3.575
6670,213.44,-5.6738,-2.1126,0.9432,0.0054,-0.0751,-1.5713,rough,14.0,2,3.575
6680,213.76,-5.6762,-2.1118,0.9496,0.0176,-0.1007,-1.5749,rough,14.0,2,3.574
6690,214.08,-5.6739,-2.1124,0.9435,0.0050,-0.0774,-1.5715,rough,14.0,2,3.575
6700,214.40,-5.6761,-2.1132,0.9448,0.0181,-0.0678,-1.5700,rough,14.0,2,3.573
6710,214.72,-5.6755,-2.1110,0.9496,0.0150,-0.1052,-1.5744,rough,14.0,2,3.575
6720,215.04,-5.6770,-2.1137,0.9416,0.0237,-0.0424,-1.5736,rough,14.0,2,3.572
6730,215.36,-5.6757,-2.1106,0.9504,0.0158,-0.1093,-1.5741,rough,14.0,2,3.575
6740,215.68,-5.6746,-2.1123,0.9442,0.0137,-0.0709,-1.5699,rough,14.0,2,3.575
6750,216.00,-5.6762,-2.1133,0.9446,0.0201,-0.0641,-1.5705,rough,14.0,2,3.573
6760,216.32,-5.6742,-2.1124,0.9438,0.0074,-0.0760,-1.5701,rough,14.0,2,3.575
6770,216.64,-5.6764,-2.1132,0.9447,0.0199,-0.0654,-1.5709,rough,14.0,2,3.573
6780,216.96,-5.6741,-2.1124,0.9451,0.0053,-0.0873,-1.5742,rough,14.0,2,3.575
6790,217.28,-5.6757,-2.1132,0.9448,0.0173,-0.0684,-1.5693,rough,14.0,2,3.573
6800,217.60,-5.6771,-2.1136,0.9418,0.0232,-0.0441,-1.5736,rough,14.0,2,3.572
6810,217.92,-5.6755,-2.1130,0.9447,0.0159,-0.0704,-1.5700,rough,14.0,2,3.574
6820,218.24,-5.6770,-2.1127,0.9459,0.0214,-0.0718,-1.5751,rough,14.0,2,3.573
6830,218.56,-5.6756,-2.1130,0.9447,0.0153,-0.0713,-1.5707,rough,14.0,2,3.574
6840,218.88,-5.6773,-2.1122,0.9466,0.0225,-0.0753,-1.5741,rough,14.0,2,3.573
6850,219.20,-5.6757,-2.1129,0.9446,0.0161,-0.0696,-1.5715,rough,14.0,2,3.574
6860,219.52,-5.6736,-2.1121,0.9444,0.0033,-0.0851,-1.5688,rough,14.0,2,3.575
6870,219.84,-5.6760,-2.1114,0.9496,0.0169,-0.1020,-1.5743,rough,14.0,2,3.575
6880,220.16,-5.6737,-2.1121,0.9444,0.0037,-0.0845,-1.5696,rough,14.0,2,3.575
6890,220.48,-5.6764,-2.1111,0.9498,0.0189,-0.1010,-1.5741,rough,14.0,2,3.574
6900,220.80,-5.6694,-2.1097,0.9426,-0.0194,-0.1066,-1.5699,rough,14.0,2,3.580
6910,221.12,-5.6738,-2.1122,0.9444,0.0037,-0.0844,-1.5696,rough,14.0,2,3.575
6920,221.44,-5.6767,-2.1127,0.9416,0.0209,-0.0466,-1.5731,rough,14.0,2,3.573
6930,221.76,-5.6759,-2.1114,0.9494,0.0179,-0.0997,-1.5744,rough,14.0,2,3.575
6940,222.08,-5.6768,-2.1135,0.9448,0.0224,-0.0617,-1.5692,rough,14.0,2,3.572
6950,222.40,-5.6766,-2.1116,0.9461,0.0207,-0.0764,-1.5753,rough,14.0,2,3.574
6960,222.72,-5.6749,-2.1129,0.9442,0.0136,-0.0707,-1.5720,rough,14.0,2,3.574
6970,223.04,-5.6765,-2.1112,0.9498,0.0197,-0.0997,-1.5743,rough,14.0,2,3.574
6980,223.36,-5.6750,-2.1127,0.9444,0.0131,-0.0730,-1.5722,rough,14.0,2,3.574
6990,223.68,-5.6764,-2.1134,0.9449,0.0198,-0.0657,-1.5694,rough,14.0,2,3.573
7000,224.00,-5.6745,-2.1126,0.9446,0.0109,-0.0763,-1.5707,rough,14.0,2,3.574
7010,224.32,-5.6762,-2.1114,0.9496,0.0173,-0.1014,-1.5743,rough,14.0,2,3.574
7020,224.64,-5.6738,-2.1121,0.9444,0.0038,-0.0843,-1.5696,rough,14.0,2,3.575
7030,224.96,-5.6765,-2.1120,0.9497,0.0186,-0.0998,-1.5743,rough,14.0,2,3.574
7040,225.28,-5.6740,-2.1125,0.9435,0.0052,-0.0771,-1.5712,rough,14.0,2,3.575
7050,225.60,-5.6763,-2.1133,0.9449,0.0193,-0.0663,-1.5697,rough,14.0,2,3.573
7060,225.92,-5.6750,-2.1126,0.9447,0.0140,-0.0728,-1.5696,rough,14.0,2,3.574
7070,226.24,-5.6768,-2.1112,0.9495,0.0214,-0.0959,-1.5737,rough,14.0,2,3.574
7080,226.56,-5.6748,-2.1128,0.9443,0.0133,-0.0719,-1.5718,rough,14.0,2,3.574
7090,226.88,-5.6768,-2.1128,0.9415,0.0216,-0.0455,-1.5735,rough,14.0,2,3.573
7100,227.20,-5.6759,-2.1114,0.9494,0.0180,-0.0994,-1.5746,rough,14.0,2,3.575
7110,227.52,-5.6768,-2.1135,0.9448,0.0224,-0.0616,-1.5694,rough,14.0,2,3.572
7120,227.84,-5.6758,-2.1113,0.9496,0.0165,-0.1024,-1.5747,rough,14.0,2,3.575
7130,228.16,-5.6770,-2.1135,0.9449,0.0223,-0.0624,-1.5698,rough,14.0,2,3.572
7140,228.48,-5.6764,-2.1115,0.9468,0.0183,-0.0835,-1.5749,rough,14.0,2,3.574
7150,228.80,-5.6751,-2.1125,0.9444,0.0162,-0.0686,-1.5694,rough,14.0,2,3.574
7160,229.12,-5.6765,-2.1134,0.9447,0.0214,-0.0629,-1.5698,rough,14.0,2,3.573
7170,229.44,-5.6758,-2.1104,0.9498,0.0179,-0.1035,-1.5741,rough,14.0,2,3.575
7180,229.76,-5.6737,-2.1126,0.9432,0.0054,-0.0752,-1.5713,rough,14.0,2,3.575
7190,230.08,-5.6764,-2.1116,0.9467,0.0190,-0.0821,-1.5753,rough,14.0,2,3.574
7200,230.40,-5.6751,-2.1126,0.9443,0.0164,-0.0681,-1.5696,rough,14.0,2,3.574
7210,230.72,-5.6766,-2.1134,0.9447,0.0214,-0.0627,-1.5699,rough,14.0,2,3.573
7220,231.04,-5.6750,-2.1126,0.9446,0.0144,-0.0720,-1.5697,rough,14.0,2,3.574
7230,231.36,-5.6768,-2.1134,0.9448,0.0213,-0.0638,-1.5704,rough,14.0,2,3.572
7240,231.68,-5.6756,-2.1105,0.9504,0.0149,-0.1106,-1.5737,rough,14.0,2,3.575
7250,232.00,-5.6746,-2.1122,0.9442,0.0135,-0.0715,-1.5697,rough,14.0,2,3.575
7260,232.32,-5.6762,-2.1133,0.9446,0.0201,-0.0643,-1.5704,rough,14.0,2,3.573
7270,232.64,-5.6755,-2.1110,0.9496,0.0154,-0.1045,-1.5747,rough,14.0,2,3.575
7280,232.96,-5.6770,-2.1137,0.9416,0.0237,-0.0421,-1.5737,rough,14.0,2,3.572
7290,233.28,-5.6753,-2.1131,0.9447,0.0159,-0.0700,-1.5699,rough,14.0,2,3.574
7300,233.60,-5.6771,-2.1135,0.9418,0.0230,-0.0446,-1.5739,rough,14.0,2,3.572
7310,233.92,-5.6756,-2.1130,0.9448,0.0159,-0.0705,-1.5705,rough,14.0,2,3.573
7320,234.24,-5.6764,-2.1133,0.9448,0.0198,-0.0652,-1.5697,rough,14.0,2,3.573
7330,234.56,-5.6744,-2.1125,0.9438,0.0079,-0.0753,-1.5697,rough,14.0,2,3.575
7340,234.88,-5.6764,-2.1132,0.9447,0.0200,-0.0652,-1.5706,rough,14.0,2,3.573
7350,235.20,-5.6777,-2.1134,0.9417,0.0247,-0.0415,-1.5728,rough,14.0,2,3.572
7360,235.52,-5.6762,-2.1131,0.9447,0.0184,-0.0670,-1.5711,rough,14.0,2,3.573
7370,235.84,-5.6748,-2.1128,0.9447,0.0117,-0.0755,-1.5702,rough,14.0,2,3.574
7380,236.16,-5.6764,-2.1107,0.9498,0.0191,-0.1009,-1.5738,rough,14.0,2,3.575
7390,236.48,-5.6750,-2.1127,0.9446,0.0122,-0.0749,-1.5710,rough,14.0,2,3.574
7400,236.80,-5.6768,-2.1113,0.9498,0.0204,-0.0989,-1.5737,rough,14.0,2,3.574
7410,237.12,-5.6751,-2.1127,0.9445,0.0133,-0.0727,-1.5719,rough,14.0,2,3.574
7420,237.44,-5.6766,-2.1135,0.9449,0.0208,-0.0644,-1.5692,rough,14.0,2,3.573
7430,237.76,-5.6758,-2.1113,0.9496,0.0162,-0.1030,-1.5747,rough,14.0,2,3.575
7440,238.08,-5.6750,-2.1128,0.9444,0.0132,-0.0724,-1.5719,rough,14.0,2,3.574
7450,238.40,-5.6767,-2.1135,0.9449,0.0207,-0.0644,-1.5690,rough,14.0,2,3.572
7460,238.72,-5.6765,-2.1115,0.9462,0.0203,-0.0772,-1.5750,rough,14.0,2,3.574
7470,239.04,-5.6749,-2.1128,0.9442,0.0135,-0.0710,-1.5719,rough,14.0,2,3.574
7480,239.36,-5.6768,-2.1128,0.9415,0.0217,-0.0453,-1.5735,rough,14.0,2,3.573
7490,239.68,-5.6759,-2.1114,0.9493,0.0180,-0.0993,-1.5746,rough,14.0,2,3.575
7500,240.00,-5.6768,-2.1135,0.9448,0.0224,-0.0616,-1.5693,rough,14.0,2,3.572
7510,240.32,-5.6758,-2.1113,0.9496,0.0165,-0.1024,-1.5747,rough,14.0,2,3.575
7520,240.64,-5.6770,-2.1135,0.9449,0.0223,-0.0624,-1.5698,rough,14.0,2,3.572
7530,240.96,-5.6751,-2.1127,0.9445,0.0132,-0.0727,-1.5711,rough,14.0,2,3.574
7540,241.28,-5.6770,-2.1114,0.9498,0.0214,-0.0975,-1.5738,rough,14.0,2,3.574
7550,241.60,-5.6752,-2.1128,0.9444,0.0135,-0.0723,-1.5719,rough,14.0,2,3.574
7560,241.92,-5.6767,-2.1135,0.9449,0.0208,-0.0644,-1.5691,rough,14.0,2,3.572
7570,242.24,-5.6752,-2.1127,0.9447,0.0148,-0.0715,-1.5693,rough,14.0,2,3.574
7580,242.56,-5.6768,-2.1134,0.9448,0.0213,-0.0636,-1.5700,rough,14.0,2,3.572
7590,242.88,-5.6761,-2.1118,0.9497,0.0167,-0.1021,-1.5748,rough,14.0,2,3.574
7600,243.20,-5.6742,-2.1122,0.9432,0.0074,-0.0731,-1.5706,rough,14.0,2,3.575
7610,243.52,-5.6758,-2.1113,0.9495,0.0171,-0.1009,-1.5741,rough,14.0,2,3.575
7620,243.84,-5.6767,-2.1135,0.9448,0.0223,-0.0620,-1.5693,rough,14.0,2,3.572
7630,244.16,-5.6765,-2.1116,0.9461,0.0206,-0.0765,-1.5753,rough,14.0,2,3.574
7640,244.48,-5.6749,-2.1129,0.9442,0.0136,-0.0707,-1.5720,rough,14.0,2,3.574
7650,244.80,-5.6765,-2.1112,0.9498,0.0197,-0.0998,-1.5743,rough,14.0,2,3.574
7660,245.12,-5.6750,-2.1127,0.9444,0.0131,-0.0730,-1.5722,rough,14.0,2,3.574
7670,245.44,-5.6764,-2.1134,0.9449,0.0198,-0.0657,-1.5694,rough,14.0,2,3.573
7680,245.76,-5.6758,-2.1104,0.9499,0.0176,-0.1042,-1.5738,rough,14.0,2,3.575
7690,246.08,-5.6737,-2.1126,0.9432,0.0053,-0.0755,-1.5712,rough,14.0,2,3.575
7700,246.40,-5.6764,-2.1116,0.9468,0.0190,-0.0822,-1.5753,rough,14.0,2,3.574
7710,246.72,-5.6751,-2.1125,0.9443,0.0164,-0.0681,-1.5695,rough,14.0,2,3.574
7720,247.04,-5.6765,-2.1134,0.9447,0.0214,-0.0628,-1.5699,rough,14.0,2,3.573
7730,247.36,-5.6759,-2.1104,0.9498,0.0179,-0.1034,-1.5742,rough,14.0,2,3.575
7740,247.68,-5.6738,-2.1126,0.9432,0.0054,-0.0751,-1.5713,rough,14.0,2,3.575
7750,248.00,-5.6762,-2.1118,0.9496,0.0176,-0.1007,-1.5749,rough,14.0,2,3.574
7760,248.32,-5.6739,-2.1124,0.9435,0.0050,-0.0774,-1.5715,rough,14.0,2,3.575
7770,248.64,-5.6761,-2.1132,0.9448,0.0181,-0.0678,-1.5700,rough,14.0,2,3.573
7780,248.96,-5.6755,-2.1110,0.9496,0.0150,-0.1052,-1.5744,rough,14.0,2,3.575
7790,249.28,-5.6770,-2.1137,0.9416,0.0237,-0.0424,-1.5736,rough,14.0,2,3.572
7800,249.60,-5.6757,-2.1106,0.9504,0.0158,-0.1093,-1.5741,rough,14.0,2,3.575
7810,249.92,-5.6746,-2.1123,0.9442,0.0137,-0.0709,-1.5699,rough,14.0,2,3.575
7820,250.24,-5.6762,-2.1133,0.9446,0.0201,-0.0641,-1.5705,rough,14.0,2,3.573
7830,250.56,-5.6742,-2.1124,0.9438,0.0074,-0.0760,-1.5701,rough,14.0,2,3.575
7840,250.88,-5.6764,-2.1132,0.9447,0.0199,-0.0654,-1.5709,rough,14.0,2,3.573
7850,251.20,-5.6741,-2.1124,0.9451,0.0053,-0.0873,-1.5742,rough,14.0,2,3.575
