step,time_s,x,y,z,roll,pitch,yaw,terrain,speed,target_idx,dist_to_target
10,0.32,-0.0496,1.4500,0.1839,-0.0000,-0.0297,-0.0000,rough,14.0,0,8.046
20,0.64,0.3471,1.4435,0.1799,-0.0001,0.0002,-0.1646,rough,14.0,0,7.781
30,0.96,0.7533,1.3675,0.1799,-0.0000,-0.0001,-0.3031,rough,14.0,0,7.466
40,1.28,1.1523,1.2314,0.1799,-0.0001,0.0000,-0.4055,rough,14.0,0,7.117
50,1.60,1.5424,1.0553,0.1799,-0.0002,-0.0000,-0.4790,rough,14.0,0,6.749
60,1.92,1.9217,0.8501,0.1799,-0.0002,-0.0000,-0.5384,rough,14.0,0,6.369
70,2.24,2.2876,0.6224,0.1799,-0.0002,-0.0000,-0.5970,rough,14.0,0,5.983
80,2.56,2.6387,0.3731,0.1799,-0.0002,-0.0000,-0.6551,rough,14.0,0,5.592
90,2.88,2.9743,0.1031,0.1799,-0.0002,-0.0000,-0.7125,rough,14.0,0,5.196
100,3.20,3.2934,-0.1863,0.1799,-0.0002,-0.0000,-0.7688,rough,14.0,0,4.795
110,3.52,3.5957,-0.4940,0.1799,-0.0002,-0.0000,-0.8233,rough,14.0,0,4.390
120,3.84,3.8819,-0.8187,0.1799,-0.0001,-0.0000,-0.8736,rough,14.0,0,3.980
130,4.16,4.1529,-1.1577,0.1799,-0.0001,-0.0000,-0.9240,rough,14.0,0,3.568
140,4.48,4.4084,-1.5101,0.1799,-0.0002,-0.0000,-0.9781,rough,14.0,0,3.153
150,4.80,4.6456,-1.8760,0.1799,-0.0002,-0.0000,-1.0340,rough,14.0,0,2.735
160,5.12,4.8627,-2.2548,0.1799,-0.0002,-0.0000,-1.0918,rough,14.0,0,2.316
170,5.44,5.0582,-2.6452,0.1799,-0.0002,-0.0000,-1.1534,rough,14.0,0,1.897
180,5.76,5.2294,-3.0464,0.1799,-0.0002,-0.0000,-1.2216,rough,14.0,0,1.479
190,6.08,5.3638,-3.4539,0.1868,0.0259,-0.0115,-1.2951,rough,14.0,0,1.067
200,6.40,5.4248,-3.8534,0.2002,0.1892,0.0200,-1.3599,rough,14.0,1,12.188
210,6.72,5.3927,-4.1167,0.2097,0.1327,-0.0241,-1.7898,rough,14.0,1,12.422
220,7.04,5.2536,-4.3801,0.2095,0.1248,0.0028,-2.1577,rough,14.0,1,12.621
230,7.36,5.0210,-4.6025,0.1977,0.0744,0.0205,-2.4303,rough,14.0,1,12.756
240,7.68,4.7601,-4.7695,0.1903,0.0571,0.0028,-2.6379,rough,14.0,1,12.837
250,8.00,4.4513,-4.9086,0.1822,0.0019,0.0144,-2.7937,rough,14.0,1,12.884
260,8.32,4.1064,-5.0034,0.1785,-0.0076,0.0000,-2.9548,rough,14.0,1,12.889
270,8.64,3.7430,-5.0609,0.1798,-0.0003,-0.0000,3.0766,rough,14.0,1,12.862
280,8.96,3.3623,-5.0276,0.1798,0.0001,0.0003,2.8718,rough,14.0,1,12.755
290,9.28,2.9821,-4.9106,0.1798,-0.0001,-0.0000,2.7150,rough,14.0,1,12.575
300,9.60,2.6143,-4.7279,0.1799,-0.0001,-0.0000,2.5894,rough,14.0,1,12.341
310,9.92,2.2666,-4.4950,0.1818,0.0000,-0.0133,2.5039,rough,14.0,1,12.070
320,10.24,1.9344,-4.2302,0.1764,0.0181,-0.0032,2.4332,rough,14.0,1,11.776
330,10.56,1.6170,-3.9461,0.1797,-0.0009,0.0005,2.3650,rough,14.0,1,11.471
340,10.88,1.3197,-3.6363,0.1799,-0.0003,0.0000,2.3043,rough,14.0,1,11.150
350,11.20,1.0391,-3.3077,0.1799,-0.0002,0.0000,2.2517,rough,14.0,1,10.817
360,11.52,0.7733,-2.9641,0.1799,-0.0001,-0.0000,2.2014,rough,14.0,1,10.477
370,11.84,0.5224,-2.6070,0.1799,-0.0002,-0.0000,2.1504,rough,14.0,1,10.129
380,12.16,0.2881,-2.2370,0.1799,-0.0001,-0.0000,2.1029,rough,14.0,1,9.774
390,12.48,0.0701,-1.8556,0.1799,-0.0001,-0.0000,2.0587,rough,14.0,1,9.413
400,12.80,-0.1312,-1.4645,0.1799,-0.0001,-0.0000,2.0175,rough,14.0,1,9.048
410,13.12,-0.3135,-1.0653,0.1799,0.0000,-0.0001,1.9762,rough,14.0,1,8.678
420,13.44,-0.4843,-0.6675,0.1795,-0.0163,-0.0215,1.9480,rough,14.0,1,8.314
430,13.76,-0.6294,-0.2523,0.1987,0.0251,-0.0106,1.9098,rough,14.0,1,7.935
440,14.08,-0.7783,0.1672,0.1924,-0.0041,0.0209,1.8908,rough,14.0,1,7.559
450,14.40,-0.9134,0.5801,0.1819,-0.0040,0.0095,1.8626,rough,14.0,1,7.194
460,14.72,-1.0351,1.0003,0.1782,0.0002,-0.0105,1.8273,rough,14.0,1,6.826
470,15.04,-1.1399,1.4301,0.1798,0.0024,0.0002,1.7935,rough,14.0,1,6.452
480,15.36,-1.2268,1.8612,0.1811,0.0066,-0.0008,1.7619,rough,14.0,1,6.079
490,15.68,-1.3071,2.2916,0.1762,-0.0115,-0.0233,1.7423,rough,14.0,1,5.713
500,16.00,-1.3759,2.7302,0.1818,-0.0081,-0.0022,1.7071,rough,14.0,1,5.346
510,16.32,-1.4310,3.1712,0.1777,0.0081,0.0201,1.6703,rough,14.0,1,4.983
520,16.64,-1.4639,3.5911,0.1793,-0.0013,-0.0052,1.5610,rough,14.0,1,4.639
530,16.96,-1.4545,4.0158,0.1811,0.0018,-0.0095,1.4475,rough,14.0,1,4.281
540,17.28,-1.3879,4.4388,0.1870,0.0298,-0.0093,1.3732,rough,14.0,1,3.902
550,17.60,-1.2873,4.8279,0.2080,0.1028,-0.0573,1.3389,rough,14.0,1,3.537
560,17.92,-1.1816,5.1923,0.2518,0.1393,-0.1650,1.2891,rough,14.0,1,3.196
570,18.24,-1.0670,5.5239,0.3476,0.1555,-0.3602,1.2255,rough,14.0,1,2.880
580,18.56,-0.9374,5.8675,0.4903,0.1375,-0.4226,1.1679,rough,14.0,1,2.554
590,18.88,-0.7844,6.1837,0.6441,0.1482,-0.4369,1.1517,rough,14.0,1,2.238
600,19.20,-0.6376,6.5173,0.8183,0.1765,-0.4416,1.0522,rough,14.0,1,1.931
610,19.52,-0.4482,6.8374,0.9900,0.1986,-0.4294,0.9593,rough,14.0,1,1.614
620,19.84,-0.2350,7.1419,1.1631,0.2170,-0.4404,0.8546,rough,14.0,1,1.307
630,20.16,0.0112,7.4113,1.3305,0.2257,-0.4482,0.7620,rough,14.0,1,1.012
640,20.48,0.2614,7.6414,1.5094,0.2464,-0.4556,0.6145,rough,14.0,2,14.972
650,20.80,0.4641,7.6418,1.5559,0.4816,-0.2566,-0.0001,rough,14.0,2,15.084
660,21.12,0.7455,7.5151,1.5479,0.5856,0.0144,-0.3790,rough,14.0,2,15.137
670,21.44,0.9988,7.3147,1.4705,0.5805,0.2586,-0.6585,rough,14.0,2,15.121
680,21.76,1.2014,7.0726,1.3395,0.5421,0.4247,-0.8515,rough,14.0,2,15.047
690,22.08,1.3602,6.7912,1.1606,0.5157,0.4822,-0.9693,rough,14.0,2,14.922
700,22.40,1.5062,6.4827,0.9632,0.4681,0.5010,-1.0853,rough,14.0,2,14.774
710,22.72,1.6412,6.1443,0.7830,0.3553,0.4402,-1.2096,rough,14.0,2,14.602
720,23.04,1.7555,5.7732,0.5970,0.2734,0.4966,-1.2827,rough,14.0,2,14.399
730,23.36,1.8423,5.3965,0.4157,0.1532,0.5086,-1.3875,rough,14.0,2,14.181
740,23.68,1.9007,5.0119,0.2596,0.0488,0.3228,-1.4995,rough,14.0,2,13.945
750,24.00,1.9187,4.6487,0.1815,0.0030,0.0140,-1.5609,rough,14.0,2,13.702
760,24.32,1.9164,4.2515,0.1797,-0.0001,-0.0007,-1.6990,rough,14.0,2,13.426
770,24.64,1.8550,3.8400,0.1799,-0.0002,0.0000,-1.8373,rough,14.0,2,13.103
780,24.96,1.7343,3.4327,0.1799,-0.0001,0.0000,-1.9305,rough,14.0,2,12.743
790,25.28,1.5769,3.0327,0.1799,-0.0002,-0.0000,-2.0000,rough,14.0,2,12.364
800,25.60,1.3908,2.6425,0.1799,-0.0002,-0.0000,-2.0570,rough,14.0,2,11.972
810,25.92,1.1824,2.2602,0.1799,-0.0001,-0.0000,-2.1016,rough,14.0,2,11.570
820,26.24,0.9568,1.8868,0.1799,-0.0001,-0.0000,-2.1422,rough,14.0,2,11.162
830,26.56,0.7159,1.5226,0.1799,-0.0001,-0.0000,-2.1808,rough,14.0,2,10.750
840,26.88,0.4608,1.1678,0.1799,-0.0001,-0.0000,-2.2175,rough,14.0,2,10.334
850,27.20,0.1925,0.8221,0.1799,-0.0001,-0.0000,-2.2522,rough,14.0,2,9.915
860,27.52,-0.0888,0.4871,0.1783,0.0110,-0.0014,-2.2829,rough,14.0,2,9.492
870,27.84,-0.3754,0.1597,0.1853,-0.0041,-0.0148,-2.3135,rough,14.0,2,9.071
880,28.16,-0.6763,-0.1588,0.1974,-0.0037,-0.0147,-2.3459,rough,14.0,2,8.644
890,28.48,-0.9941,-0.4775,0.1916,-0.0056,0.0484,-2.3720,rough,14.0,2,8.204
900,28.80,-1.3075,-0.7762,0.1817,-0.0055,0.0040,-2.3962,rough,14.0,2,7.779
910,29.12,-1.6323,-1.0716,0.1833,-0.0042,-0.0165,-2.4184,rough,14.0,2,7.347
920,29.44,-1.9594,-1.3546,0.1971,0.0010,-0.0636,-2.4390,rough,14.0,2,6.921
930,29.76,-2.3078,-1.6373,0.2207,0.0238,-0.0209,-2.4608,rough,14.0,2,6.477
940,30.08,-2.6554,-1.9225,0.2216,-0.0139,0.0364,-2.4800,rough,14.0,2,6.033
950,30.40,-3.0136,-2.1892,0.2023,0.0105,0.0639,-2.5012,rough,14.0,2,5.590
960,30.72,-3.3616,-2.4421,0.1864,0.0169,-0.0011,-2.5192,rough,14.0,2,5.163
970,31.04,-3.7182,-2.6946,0.1899,0.0170,-0.0238,-2.5354,rough,14.0,2,4.729
980,31.36,-4.0806,-2.9355,0.2072,0.0359,-0.0603,-2.5534,rough,14.0,2,4.296
990,31.68,-4.4638,-3.1777,0.2175,0.0759,-0.0024,-2.5673,rough,14.0,2,3.845
1000,32.00,-4.8449,-3.4288,0.2062,0.0285,0.0634,-2.5809,rough,14.0,2,3.392
1010,32.32,-5.2179,-3.6603,0.1898,0.0206,0.0414,-2.6016,rough,14.0,2,2.956
1020,32.64,-5.5925,-3.8834,0.1801,0.0045,-0.0028,-2.6156,rough,14.0,2,2.522
1030,32.96,-5.9733,-4.1010,0.1823,0.0049,-0.0095,-2.6349,rough,14.0,2,2.086
1040,33.28,-6.3595,-4.3030,0.1847,0.0075,-0.0197,-2.6604,rough,14.0,2,1.652
1050,33.60,-6.7575,-4.4963,0.1883,0.0464,0.0033,-2.6844,rough,14.0,2,1.211
1060,33.92,-7.1528,-4.6872,0.1843,0.0113,0.0156,-2.7190,rough,14.0,3,0.775
1070,34.24,-7.5538,-4.8482,0.1795,-0.0038,0.0025,-2.7791,rough,14.0,3,0.867
1080,34.56,-7.8078,-4.9216,0.1768,0.0002,0.0168,-2.4631,rough,14.0,0,13.159
1090,34.88,-8.0111,-5.1371,0.1797,-0.0001,-0.0000,-2.0909,rough,14.0,0,13.370
1100,35.20,-8.1505,-5.4082,0.1797,-0.0000,-0.0000,-1.7244,rough,14.0,0,13.524
1110,35.52,-8.1954,-5.7027,0.1815,-0.0062,-0.0055,-1.3836,rough,14.0,0,13.592
1120,35.84,-8.1215,-5.9907,0.1919,-0.0162,-0.0599,-1.2199,rough,14.0,0,13.546
1130,36.16,-7.9827,-6.2965,0.2116,-0.0307,-0.0529,-0.9825,rough,14.0,0,13.445
1140,36.48,-7.7534,-6.5959,0.2199,-0.0419,-0.0007,-0.8109,rough,14.0,0,13.262
1150,36.80,-7.4587,-6.8731,0.2061,-0.0123,0.0937,-0.6691,rough,14.0,0,13.018
1160,37.12,-7.1335,-7.0975,0.1903,-0.0084,0.0402,-0.5346,rough,14.0,0,12.742
1170,37.44,-6.7713,-7.2954,0.1817,-0.0106,-0.0014,-0.4248,rough,14.0,0,12.430
1180,37.76,-6.3841,-7.4577,0.1891,-0.0270,-0.0269,-0.3163,rough,14.0,0,12.091
1190,38.08,-5.9734,-7.5718,0.1857,-0.0283,-0.0236,-0.2384,rough,14.0,0,11.722
1200,38.40,-5.5438,-7.6558,0.1903,-0.0297,0.0303,-0.1844,rough,14.0,0,11.331
1210,38.72,-5.1308,-7.7082,0.1882,0.0054,-0.0283,-0.0918,rough,14.0,0,10.950
1220,39.04,-4.7182,-7.7354,0.1878,0.0380,0.0010,0.0801,rough,14.0,0,10.564
1230,39.36,-4.3093,-7.6970,0.1878,0.0455,-0.0049,0.2300,rough,14.0,0,10.163
1240,39.68,-3.8923,-7.5917,0.1890,0.0533,0.0136,0.3093,rough,14.0,0,9.734
1250,40.00,-3.5080,-7.4470,0.1881,0.0163,0.0253,0.3984,rough,14.0,0,9.324
1260,40.32,-3.1273,-7.2746,0.1808,0.0017,0.0051,0.4651,rough,14.0,0,8.908
1270,40.64,-2.7611,-7.0756,0.1799,0.0001,-0.0000,0.5660,rough,14.0,0,8.499
1280,40.96,-2.4125,-6.8394,0.1799,0.0001,-0.0000,0.6567,rough,14.0,0,8.096
1290,41.28,-2.0930,-6.5775,0.1798,-0.0001,-0.0000,0.6850,rough,14.0,0,7.717
1300,41.60,-1.7625,-6.3136,0.1840,-0.0127,-0.0079,0.6300,rough,14.0,0,7.330
1310,41.92,-1.4223,-6.0655,0.1855,-0.0180,0.0004,0.5841,rough,14.0,0,6.941
1320,42.24,-1.0574,-5.8277,0.1836,-0.0189,0.0024,0.5291,rough,14.0,0,6.534
1330,42.56,-0.6774,-5.6115,0.1811,-0.0071,0.0018,0.4766,rough,14.0,0,6.120
1340,42.88,-0.2849,-5.4180,0.1792,0.0040,-0.0005,0.4242,rough,14.0,0,5.701
1350,43.20,0.1180,-5.2426,0.1759,0.0092,0.0125,0.3828,rough,14.0,0,5.276
1360,43.52,0.5018,-5.0824,0.1938,-0.0238,-0.0463,0.3606,rough,14.0,0,4.875
1370,43.84,0.9163,-4.9295,0.2079,-0.0352,-0.0098,0.3180,rough,14.0,0,4.447
1380,44.16,1.3338,-4.7944,0.2086,-0.0418,0.0131,0.2777,rough,14.0,0,4.020
1390,44.48,1.7629,-4.6837,0.1911,-0.0131,0.0385,0.2321,rough,14.0,0,3.586
1400,44.80,2.1900,-4.5937,0.1780,-0.0008,0.0210,0.1920,rough,14.0,0,3.156
1410,45.12,2.6204,-4.5180,0.1797,0.0001,-0.0003,0.1635,rough,14.0,0,2.724
1420,45.44,3.0547,-4.4506,0.1798,-0.0001,-0.0000,0.1104,rough,14.0,0,2.291
1430,45.76,3.4915,-4.4052,0.1799,-0.0002,-0.0000,0.0533,rough,14.0,0,1.857
1440,46.08,3.9290,-4.3848,0.1799,-0.0002,0.0000,-0.0115,rough,14.0,0,1.422
1450,46.40,4.3638,-4.3932,0.1799,-0.0001,0.0000,-0.0894,rough,14.0,0,0.989
1460,46.72,4.7619,-4.4204,0.1810,-0.0019,-0.0059,-0.0053,rough,14.0,1,12.504
1470,47.04,5.0533,-4.4054,0.1927,-0.0109,-0.0659,0.3010,rough,14.0,1,12.580
1480,47.36,5.2628,-4.2840,0.2081,-0.0999,-0.0394,0.4786,rough,14.0,1,12.534
1490,47.68,5.4352,-4.1332,0.2190,-0.1160,-0.0857,0.6885,rough,14.0,1,12.452
1500,48.00,5.6096,-3.9181,0.2331,-0.1548,-0.0736,0.9055,rough,14.0,1,12.316
1510,48.32,5.7423,-3.6252,0.2413,-0.2454,-0.0067,1.1091,rough,14.0,1,12.095
1520,48.64,5.8530,-3.2963,0.2323,-0.2513,0.0123,1.2806,rough,14.0,1,11.838
1530,48.96,5.9486,-2.9655,0.2228,-0.2198,0.0198,1.3670,rough,14.0,1,11.577
1540,49.28,6.0151,-2.5969,0.2062,-0.1337,0.0072,1.4668,rough,14.0,1,11.274
1550,49.60,6.0296,-2.2097,0.1788,-0.0123,-0.0244,1.6320,rough,14.0,1,10.935
1560,49.92,5.9857,-1.7839,0.1795,0.0011,-0.0012,1.7274,rough,14.0,1,10.538
1570,50.24,5.9154,-1.3588,0.1799,0.0001,0.0000,1.8087,rough,14.0,1,10.131
1580,50.56,5.8105,-0.9513,0.1798,0.0001,0.0000,1.9191,rough,14.0,1,9.724
1590,50.88,5.6557,-0.5576,0.1799,0.0001,0.0001,2.0124,rough,14.0,1,9.305
1600,51.20,5.4653,-0.1692,0.1799,0.0001,0.0000,2.0684,rough,14.0,1,8.873
1610,51.52,5.2634,0.2157,0.1799,0.0000,-0.0000,2.0658,rough,14.0,1,8.439
1620,51.84,5.0509,0.6042,0.1799,0.0000,-0.0000,2.0820,rough,14.0,1,7.997
1630,52.16,4.8321,0.9895,0.1799,0.0000,-0.0000,2.0973,rough,14.0,1,7.553
1640,52.48,4.6074,1.3717,0.1799,0.0000,-0.0000,2.1117,rough,14.0,1,7.110
1650,52.80,4.3771,1.7508,0.1799,0.0000,-0.0000,2.1254,rough,14.0,1,6.667
1660,53.12,4.1416,2.1268,0.1799,0.0000,-0.0000,2.1387,rough,14.0,1,6.223
1670,53.44,3.9010,2.4997,0.1799,0.0000,-0.0000,2.1517,rough,14.0,1,5.780
1680,53.76,3.6556,2.8695,0.1799,0.0000,-0.0000,2.1645,rough,14.0,1,5.337
1690,54.08,3.4055,3.2361,0.1799,0.0000,0.0000,2.1774,rough,14.0,1,4.895
1700,54.40,3.1506,3.5992,0.1799,0.0000,0.0000,2.1906,rough,14.0,1,4.454
1710,54.72,2.8910,3.9587,0.1799,0.0000,0.0000,2.2046,rough,14.0,1,4.014
1720,55.04,2.6266,4.3137,0.1791,0.0041,0.0030,2.2207,rough,14.0,1,3.578
1730,55.36,2.3661,4.6293,0.2005,-0.0741,-0.0468,2.1688,rough,14.0,1,3.180
1740,55.68,2.1358,4.9270,0.2461,-0.1625,-0.2687,2.1696,rough,14.0,1,2.814
1750,56.00,1.9031,5.2240,0.3509,-0.2359,-0.3838,2.1712,rough,14.0,1,2.451
1760,56.32,1.6577,5.5360,0.4497,-0.3096,-0.2883,2.1399,rough,14.0,1,2.075
1770,56.64,1.4497,5.8454,0.5766,-0.3382,-0.4210,2.1418,rough,14.0,1,1.719
1780,56.96,1.2342,6.1720,0.7160,-0.3688,-0.3985,2.0717,rough,14.0,1,1.355
1790,57.28,1.0575,6.4714,0.8706,-0.3811,-0.4743,2.0615,rough,14.0,1,1.039
1800,57.60,0.9004,6.7493,1.0482,-0.3984,-0.4999,2.0419,rough,14.0,2,14.608
1810,57.92,0.7507,6.8893,1.1308,-0.5109,-0.4182,2.3409,rough,14.0,2,14.631
1820,58.24,0.5146,7.0065,1.1746,-0.5771,-0.1843,2.7055,rough,14.0,2,14.588
1830,58.56,0.2036,7.0531,1.1624,-0.5607,0.0443,3.0105,rough,14.0,2,14.450
1840,58.88,-0.1494,7.0250,1.1102,-0.4625,0.1715,-3.0136,rough,14.0,2,14.231
1850,59.20,-0.5141,6.9108,1.0191,-0.3842,0.2475,-2.7948,rough,14.0,2,13.939
1860,59.52,-0.8557,6.7212,0.8977,-0.3204,0.3062,-2.5972,rough,14.0,2,13.599
1870,59.84,-1.1692,6.4743,0.7510,-0.2559,0.3676,-2.4286,rough,14.0,2,13.226
1880,60.16,-1.4270,6.1869,0.6027,-0.1855,0.3663,-2.3133,rough,14.0,2,12.848
1890,60.48,-1.6918,5.8810,0.4677,-0.1726,0.2666,-2.2748,rough,14.0,2,12.450
1900,60.80,-1.9539,5.5620,0.3825,-0.1605,0.1444,-2.2412,rough,14.0,2,12.043
1910,61.12,-2.2184,5.2204,0.3349,-0.1259,0.0797,-2.2135,rough,14.0,2,11.616
1920,61.44,-2.4900,4.8675,0.2941,-0.0782,0.0931,-2.1996,rough,14.0,2,11.175
1930,61.76,-2.7507,4.5066,0.2465,-0.0597,0.0960,-2.1897,rough,14.0,2,10.734
1940,62.08,-3.0066,4.1492,0.2089,-0.0322,0.0747,-2.1766,rough,14.0,2,10.297
1950,62.40,-3.2523,3.7934,0.1855,-0.0192,0.0129,-2.1624,rough,14.0,2,9.868
1960,62.72,-3.4888,3.4313,0.1946,-0.0398,-0.0571,-2.1486,rough,14.0,2,9.437
1970,63.04,-3.7290,3.0502,0.2065,-0.0604,-0.0280,-2.1418,rough,14.0,2,8.988
1980,63.36,-3.9726,2.6639,0.1995,-0.0702,0.0377,-2.1340,rough,14.0,2,8.533
1990,63.68,-4.2137,2.2904,0.1901,-0.0325,0.0330,-2.1258,rough,14.0,2,8.090
2000,64.00,-4.4478,1.9210,0.1782,0.0006,-0.0105,-2.1173,rough,14.0,2,7.655
2010,64.32,-4.6777,1.5380,0.1805,-0.0043,-0.0022,-2.1072,rough,14.0,2,7.210
2020,64.64,-4.9015,1.1532,0.1816,-0.0109,0.0007,-2.0978,rough,14.0,2,6.765
2030,64.96,-5.1255,0.7678,0.1801,-0.0018,-0.0000,-2.0928,rough,14.0,2,6.321
2040,65.28,-5.3471,0.3824,0.1813,-0.0050,0.0103,-2.0864,rough,14.0,2,5.877
2050,65.60,-5.5662,-0.0030,0.1794,-0.0009,-0.0019,-2.0781,rough,14.0,2,5.435
2060,65.92,-5.7817,-0.3934,0.1798,-0.0001,-0.0002,-2.0693,rough,14.0,2,4.990
2070,66.24,-5.9938,-0.7791,0.1862,0.0152,-0.0238,-2.0620,rough,14.0,2,4.551
2080,66.56,-6.2019,-1.1657,0.2023,0.0251,-0.0486,-2.0551,rough,14.0,2,4.113
2090,66.88,-6.4117,-1.5539,0.2178,0.0575,-0.0589,-2.0491,rough,14.0,2,3.673
2100,67.20,-6.6174,-1.9685,0.2090,0.0315,0.0380,-2.0313,rough,14.0,2,3.211
2110,67.52,-6.8113,-2.3644,0.1967,0.0268,0.0140,-2.0216,rough,14.0,2,2.770
2120,67.84,-6.9922,-2.7698,0.1829,-0.0310,0.0074,-2.0112,rough,14.0,2,2.327
2130,68.16,-7.1778,-3.1649,0.1936,-0.0210,-0.0349,-1.9990,rough,14.0,2,1.890
2140,68.48,-7.3553,-3.5761,0.2045,-0.0474,-0.0125,-1.9867,rough,14.0,2,1.443
2150,68.80,-7.5316,-3.9925,0.1990,-0.0597,0.0408,-1.9758,rough,14.0,2,0.991
2160,69.12,-7.7029,-4.3860,0.1851,-0.0110,0.0246,-2.0342,rough,14.0,3,0.876
2170,69.44,-7.8517,-4.7168,0.1797,0.0003,0.0004,-1.8743,rough,14.0,0,13.198
2180,69.76,-7.9393,-5.0132,0.1797,0.0001,0.0000,-1.5398,rough,14.0,0,13.293
2190,70.08,-7.9242,-5.3226,0.1798,-0.0003,-0.0001,-1.2479,rough,14.0,0,13.293
2200,70.40,-7.7937,-5.6461,0.1815,-0.0020,-0.0084,-1.0465,rough,14.0,0,13.186
2210,70.72,-7.5926,-5.9559,0.1930,-0.0284,-0.0503,-0.8889,rough,14.0,0,13.017
2220,71.04,-7.3413,-6.2355,0.1961,-0.0378,-0.0038,-0.7342,rough,14.0,0,12.801
2230,71.36,-7.0451,-6.4827,0.1850,-0.0169,0.0247,-0.5961,rough,14.0,0,12.544
2240,71.68,-6.7064,-6.6897,0.1820,-0.0016,0.0138,-0.4870,rough,14.0,0,12.245
2250,72.00,-6.3335,-6.8655,0.1798,-0.0000,-0.0005,-0.3795,rough,14.0,0,11.911
2260,72.32,-5.9372,-7.0111,0.1799,-0.0001,-0.0003,-0.2384,rough,14.0,0,11.554
2270,72.64,-5.5213,-7.1042,0.1799,0.0001,-0.0000,-0.1090,rough,14.0,0,11.169
2280,72.96,-5.1093,-7.1447,0.1950,0.0044,-0.0654,0.0050,rough,14.0,0,10.778
2290,73.28,-4.6770,-7.1437,0.2113,0.0421,-0.0385,0.0940,rough,14.0,0,10.359
2300,73.60,-4.2433,-7.0986,0.2184,0.0555,0.0042,0.1636,rough,14.0,0,9.929
2310,73.92,-3.8124,-7.0201,0.2088,0.0523,0.0382,0.2237,rough,14.0,0,9.492
2320,74.24,-3.3944,-6.9132,0.1871,0.0284,0.0754,0.2535,rough,14.0,0,9.061
2330,74.56,-2.9887,-6.8001,0.1796,0.0018,-0.0014,0.2771,rough,14.0,0,8.640
2340,74.88,-2.5692,-6.6776,0.1798,0.0002,-0.0001,0.3226,rough,14.0,0,8.203
2350,75.20,-2.1612,-6.5361,0.1800,0.0007,-0.0004,0.3864,rough,14.0,0,7.772
2360,75.52,-1.7733,-6.3690,0.1836,0.0014,-0.0225,0.4437,rough,14.0,0,7.354
2370,75.84,-1.3933,-6.1817,0.1894,-0.0393,-0.0070,0.4317,rough,14.0,0,6.940
2380,76.16,-1.0013,-5.9993,0.1880,-0.0540,-0.0181,0.4115,rough,14.0,0,6.516
2390,76.48,-0.5916,-5.8259,0.1889,-0.0463,0.0009,0.3803,rough,14.0,0,6.078
2400,76.80,-0.1777,-5.6690,0.1825,-0.0134,0.0017,0.3519,rough,14.0,0,5.641
2410,77.12,0.2320,-5.5226,0.1845,-0.0045,-0.0265,0.3303,rough,14.0,0,5.210
2420,77.44,0.6434,-5.3852,0.1987,0.0031,-0.0520,0.3086,rough,14.0,0,4.780
2430,77.76,1.0633,-5.2538,0.2152,-0.0041,-0.0423,0.2923,rough,14.0,0,4.344
2440,78.08,1.5003,-5.1257,0.2098,-0.0090,0.0428,0.2648,rough,14.0,0,3.892
2450,78.40,1.9288,-5.0149,0.1925,-0.0072,0.0347,0.2490,rough,14.0,0,3.452
2460,78.72,2.3518,-4.9143,0.1810,0.0020,0.0064,0.2259,rough,14.0,0,3.019
2470,79.04,2.7810,-4.8167,0.1799,-0.0001,0.0000,0.2000,rough,14.0,0,2.581
2480,79.36,3.2151,-4.7312,0.1799,-0.0001,0.0000,0.1651,rough,14.0,0,2.140
2490,79.68,3.6512,-4.6610,0.1799,-0.0001,0.0000,0.1266,rough,14.0,0,1.699
2500,80.00,4.0884,-4.6077,0.1799,-0.0001,0.0000,0.0799,rough,14.0,0,1.259
2510,80.32,4.5249,-4.5751,0.1799,-0.0002,0.0000,0.0134,rough,14.0,0,0.822
2520,80.64,4.9112,-4.5575,0.1900,-0.0061,-0.0622,0.1331,rough,14.0,1,12.680
2530,80.96,5.2314,-4.4822,0.2135,-0.0946,-0.0639,0.2815,rough,14.0,1,12.710
2540,81.28,5.4653,-4.3727,0.2329,-0.1520,-0.0904,0.4797,rough,14.0,1,12.687
2550,81.60,5.6693,-4.2149,0.2606,-0.1776,-0.1258,0.7404,rough,14.0,1,12.613
2560,81.92,5.8246,-3.9843,0.2878,-0.2229,-0.1346,0.9725,rough,14.0,1,12.458
2570,82.24,5.9490,-3.6645,0.2875,-0.3570,0.0004,1.1517,rough,14.0,1,12.214
2580,82.56,6.0297,-3.3133,0.2727,-0.3488,0.0788,1.3540,rough,14.0,1,11.927
2590,82.88,6.0825,-2.9339,0.2514,-0.2805,0.0297,1.4998,rough,14.0,1,11.607
2600,83.20,6.1015,-2.5175,0.2076,-0.0186,0.1666,1.6618,rough,14.0,1,11.242
2610,83.52,6.0494,-2.1416,0.1800,-0.0011,0.0001,1.7999,rough,14.0,1,10.884
2620,83.84,5.9451,-1.7247,0.1799,0.0001,0.0000,1.8784,rough,14.0,1,10.466
2630,84.16,5.8087,-1.3198,0.1799,0.0000,0.0000,1.9608,rough,14.0,1,10.045
2640,84.48,5.6387,-0.9230,0.1799,0.0002,-0.0000,2.0222,rough,14.0,1,9.615
2650,84.80,5.4442,-0.5350,0.1799,0.0001,-0.0000,2.0725,rough,14.0,1,9.182
2660,85.12,5.2302,-0.1574,0.1799,0.0001,-0.0000,2.1213,rough,14.0,1,8.748
2670,85.44,4.9975,0.2091,0.1799,0.0001,-0.0000,2.1689,rough,14.0,1,8.314
2680,85.76,4.7472,0.5637,0.1799,0.0001,-0.0000,2.2158,rough,14.0,1,7.883
2690,86.08,4.4802,0.9061,0.1799,0.0001,-0.0000,2.2617,rough,14.0,1,7.456
2700,86.40,4.1974,1.2358,0.1799,0.0001,-0.0000,2.3063,rough,14.0,1,7.033
2710,86.72,3.8994,1.5528,0.1799,0.0001,-0.0000,2.3489,rough,14.0,1,6.617
2720,87.04,3.5878,1.8575,0.1799,0.0001,-0.0000,2.3887,rough,14.0,1,6.209
2730,87.36,3.2640,2.1499,0.1799,0.0001,-0.0000,2.4273,rough,14.0,1,5.811
2740,87.68,2.9286,2.4305,0.1799,0.0001,-0.0000,2.4651,rough,14.0,1,5.426
2750,88.00,2.5826,2.6993,0.1799,0.0001,-0.0000,2.5022,rough,14.0,1,5.058
2760,88.32,2.2266,2.9559,0.1799,0.0001,-0.0000,2.5391,rough,14.0,1,4.711
2770,88.64,1.8612,3.1997,0.1799,0.0001,-0.0000,2.5761,rough,14.0,1,4.392
2780,88.96,1.4869,3.4302,0.1799,0.0001,-0.0000,2.6140,rough,14.0,1,4.106
2790,89.28,1.1041,3.6467,0.1799,0.0001,-0.0000,2.6536,rough,14.0,1,3.864
2800,89.60,0.7134,3.8479,0.1799,0.0001,-0.0000,2.6963,rough,14.0,1,3.675
2810,89.92,0.4077,4.0162,0.1798,0.0001,-0.0000,2.4794,rough,14.0,1,3.547
2820,90.24,0.1392,4.2644,0.1799,0.0003,0.0000,2.2858,rough,14.0,1,3.362
2830,90.56,-0.0936,4.5716,0.1799,0.0000,-0.0000,2.0949,rough,14.0,1,3.142
2840,90.88,-0.2722,4.8720,0.1952,-0.0294,-0.0682,1.9789,rough,14.0,1,2.937
2850,91.20,-0.4133,5.1864,0.2349,-0.0870,-0.1379,1.8588,rough,14.0,1,2.729
2860,91.52,-0.4970,5.4486,0.2964,-0.0859,-0.3691,1.7781,rough,14.0,1,2.559
2870,91.84,-0.5593,5.7392,0.4337,-0.0603,-0.4419,1.7268,rough,14.0,1,2.372
2880,92.16,-0.6086,6.0257,0.5713,-0.0649,-0.4716,1.6821,rough,14.0,1,2.202
2890,92.48,-0.6410,6.3054,0.7144,-0.0543,-0.4789,1.6439,rough,14.0,1,2.051
2900,92.80,-0.6692,6.5742,0.8433,-0.0785,-0.4556,1.6218,rough,14.0,1,1.930
2910,93.12,-0.6840,6.8287,0.9676,-0.0774,-0.4542,1.5995,rough,14.0,1,1.834
2920,93.44,-0.6962,7.0710,1.0748,-0.1008,-0.4267,1.5854,rough,14.0,1,1.770
2930,93.76,-0.7026,7.2893,1.1712,-0.1088,-0.4210,1.5816,rough,14.0,1,1.735
2940,94.08,-0.7093,7.4937,1.2551,-0.1174,-0.4007,1.5713,rough,14.0,1,1.728
2950,94.40,-0.7120,7.6795,1.3304,-0.1204,-0.3790,1.5641,rough,14.0,1,1.739
2960,94.72,-0.7125,7.8497,1.4000,-0.1297,-0.3691,1.5643,rough,14.0,1,1.764
2970,95.04,-0.7137,8.0101,1.4572,-0.1325,-0.3572,1.5549,rough,14.0,1,1.803
2980,95.36,-0.7126,8.1630,1.5133,-0.1470,-0.3432,1.5634,rough,14.0,1,1.851
2990,95.68,-0.7158,8.3176,1.5550,-0.1832,-0.3025,1.5694,rough,14.0,1,1.914
3000,96.00,-0.7101,8.4885,1.6074,-0.1141,-0.2886,1.4787,rough,14.0,1,1.987
3010,96.32,-0.7077,8.7083,1.6761,-0.0631,-0.3185,1.2461,rough,14.0,1,2.102
3020,96.64,-0.6101,8.9341,1.7550,0.0006,-0.3334,0.9740,rough,14.0,1,2.164
3030,96.96,-0.4197,9.1029,1.8388,0.0795,-0.3183,0.7345,rough,14.0,1,2.146
3040,97.28,-0.1529,9.2451,1.9177,0.1689,-0.2300,0.4739,rough,14.0,1,2.094
3050,97.60,0.0919,9.3726,1.9851,0.1787,-0.2219,0.3070,rough,14.0,1,2.081
3060,97.92,0.3521,9.4645,2.0374,0.1706,-0.1621,0.1822,rough,14.0,1,2.065
3070,98.24,0.6106,9.5068,2.0764,0.1699,-0.1402,0.0711,rough,14.0,1,2.038
3080,98.56,0.8918,9.4793,2.1145,0.1921,-0.1544,-0.1362,rough,14.0,1,1.974
3090,98.88,1.2200,9.3553,2.1515,0.1978,-0.1238,-0.4088,rough,14.0,1,1.856
3100,99.20,1.5176,9.1518,2.1921,0.2357,-0.0858,-0.6729,rough,14.0,1,1.716
3110,99.52,1.7480,8.8985,2.2046,0.2591,-0.0141,-0.8677,rough,14.0,1,1.568
3120,99.84,1.9521,8.5555,2.1812,0.2327,0.0874,-1.0812,rough,14.0,1,1.402
3130,100.16,2.0919,8.1806,2.0981,0.1721,0.3210,-1.3448,rough,14.0,1,1.265
3140,100.48,2.1413,7.8172,1.9841,0.1039,0.3870,-1.6650,rough,14.0,1,1.164
3150,100.80,2.0904,7.3711,1.7427,0.0659,0.5493,-1.8019,rough,14.0,1,1.080
3160,101.12,1.9913,6.9338,1.4372,0.1586,0.6697,-1.7450,rough,14.0,1,1.130
3170,101.44,1.9285,6.4906,1.0943,0.1945,0.6531,-1.6803,rough,14.0,1,1.366
3180,101.76,1.9025,6.0753,0.8048,0.1822,0.6100,-1.6557,rough,14.0,1,1.685
3190,102.08,1.9022,5.7052,0.5782,0.1698,0.5118,-1.5772,rough,14.0,1,2.009
3200,102.40,1.9203,5.4093,0.4257,0.0792,0.5289,-1.5603,rough,14.0,1,2.286
3210,102.72,1.9289,5.1521,0.3103,0.0479,0.3547,-1.5662,rough,14.0,1,2.527
3220,103.04,1.9355,4.8612,0.2181,-0.0053,0.3031,-1.5839,rough,14.0,1,2.803
3230,103.36,1.9372,4.6265,0.1808,-0.0007,0.0070,-1.6932,rough,14.0,1,3.026
3240,103.68,1.9151,4.3739,0.1798,-0.0001,-0.0001,-2.0858,rough,14.0,1,3.261
3250,104.00,1.7445,4.1526,0.1798,0.0005,-0.0000,-2.4726,rough,14.0,1,3.435
3260,104.32,1.4911,3.9844,0.1798,0.0006,-0.0000,-2.8352,rough,14.0,1,3.557
3270,104.64,1.2036,3.8945,0.1798,0.0006,-0.0000,3.0832,rough,14.0,1,3.620
3280,104.96,0.8938,3.9162,0.1798,-0.0000,-0.0001,2.7770,rough,14.0,1,3.596
3290,105.28,0.5850,4.0594,0.1798,-0.0001,-0.0003,2.5453,rough,14.0,1,3.478
3300,105.60,0.3000,4.2875,0.1798,-0.0000,0.0003,2.3521,rough,14.0,1,3.301
3310,105.92,0.0534,4.5770,0.1799,-0.0000,-0.0000,2.1619,rough,14.0,1,3.088
3320,106.24,-0.1481,4.8588,0.1973,-0.0534,-0.0502,2.0387,rough,14.0,1,2.896
3330,106.56,-0.3087,5.1573,0.2278,-0.0739,-0.1333,1.9126,rough,14.0,1,2.701
3340,106.88,-0.4101,5.4206,0.2900,-0.0743,-0.3766,1.8379,rough,14.0,1,2.531
3350,107.20,-0.4975,5.7117,0.4195,-0.0739,-0.4268,1.7650,rough,14.0,1,2.352
3360,107.52,-0.5569,5.9962,0.5593,-0.0667,-0.4795,1.7084,rough,14.0,1,2.185
3370,107.84,-0.6003,6.2762,0.6998,-0.0645,-0.4759,1.6614,rough,14.0,1,2.036
3380,108.16,-0.6287,6.5437,0.8305,-0.0703,-0.4645,1.6334,rough,14.0,1,1.910
3390,108.48,-0.6485,6.8024,0.9573,-0.0781,-0.4536,1.6059,rough,14.0,1,1.811
3400,108.80,-0.6643,7.0456,1.0652,-0.1010,-0.4251,1.5906,rough,14.0,1,1.746
3410,109.12,-0.6719,7.2699,1.1662,-0.1114,-0.4194,1.5816,rough,14.0,1,1.708
3420,109.44,-0.6737,7.4747,1.2491,-0.1146,-0.4058,1.5853,rough,14.0,1,1.693
3430,109.76,-0.6819,7.6633,1.3306,-0.1381,-0.3867,1.5761,rough,14.0,1,1.708
3440,110.08,-0.6831,7.8364,1.3988,-0.1386,-0.3700,1.5698,rough,14.0,1,1.733
3450,110.40,-0.6833,7.9953,1.4588,-0.1417,-0.3620,1.5683,rough,14.0,1,1.770
3460,110.72,-0.6842,8.1513,1.5134,-0.1536,-0.3462,1.5687,rough,14.0,1,1.820
3470,111.04,-0.6853,8.3128,1.5647,-0.1495,-0.3091,1.5437,rough,14.0,1,1.884
3480,111.36,-0.6853,8.4742,1.6134,-0.1539,-0.2850,1.5086,rough,14.0,1,1.958
3490,111.68,-0.6848,8.6680,1.6680,-0.0982,-0.3072,1.3424,rough,14.0,1,2.060
3500,112.00,-0.6186,8.9031,1.7446,-0.0118,-0.3304,1.0198,rough,14.0,1,2.150
3510,112.32,-0.4433,9.0748,1.8263,0.0624,-0.3220,0.7880,rough,14.0,1,2.142
3520,112.64,-0.2014,9.2331,1.9064,0.1568,-0.2548,0.5314,rough,14.0,1,2.112
3530,112.96,0.0345,9.3741,1.9753,0.1736,-0.2101,0.3559,rough,14.0,1,2.108
3540,113.28,0.2901,9.4748,2.0314,0.1707,-0.1737,0.2127,rough,14.0,1,2.096
3550,113.60,0.5455,9.5315,2.0740,0.1733,-0.1453,0.1053,rough,14.0,1,2.076
3560,113.92,0.8254,9.5188,2.1109,0.1882,-0.1475,-0.0955,rough,14.0,1,2.018
3570,114.24,1.1509,9.4132,2.1514,0.2194,-0.1270,-0.3509,rough,14.0,1,1.908
3580,114.56,1.4339,9.2581,2.1883,0.2382,-0.1184,-0.5609,rough,14.0,1,1.797
3590,114.88,1.6893,9.0245,2.2155,0.2734,-0.0650,-0.7668,rough,14.0,1,1.656
3600,115.20,1.9004,8.7257,2.2074,0.2495,0.0378,-0.9946,rough,14.0,1,1.502
3610,115.52,2.0670,8.3406,2.1459,0.2370,0.2339,-1.1894,rough,14.0,1,1.337
3620,115.84,2.1489,7.9902,2.0513,0.1554,0.2971,-1.4886,rough,14.0,1,1.228
3630,116.16,2.1396,7.5376,1.8687,0.2133,0.6213,-1.5477,rough,14.0,1,1.121
3640,116.48,2.1069,7.0817,1.5736,0.2235,0.6582,-1.6104,rough,14.0,1,1.169
3650,116.80,2.0838,6.6275,1.2467,0.2840,0.6325,-1.5274,rough,14.0,1,1.383
3660,117.12,2.0963,6.2037,0.9483,0.2752,0.6090,-1.5143,rough,14.0,1,1.693
3670,117.44,2.1197,5.8250,0.6971,0.1930,0.6459,-1.5342,rough,14.0,1,2.013
3680,117.76,2.1364,5.5054,0.5128,0.1061,0.5491,-1.5501,rough,14.0,1,2.295
3690,118.08,2.1454,5.2383,0.3688,0.0637,0.4928,-1.5571,rough,14.0,1,2.536
3700,118.40,2.1474,4.9748,0.2563,0.0029,0.3585,-1.5979,rough,14.0,1,2.775
3710,118.72,2.1425,4.7499,0.2065,-0.0168,0.1661,-1.7594,rough,14.0,1,2.980
3720,119.04,2.0734,4.5082,0.1799,-0.0044,0.0093,-2.0231,rough,14.0,1,3.181
3730,119.36,1.9094,4.2574,0.1797,0.0002,0.0000,-2.3763,rough,14.0,1,3.372
3740,119.68,1.6717,4.0754,0.1797,-0.0000,-0.0000,-2.7281,rough,14.0,1,3.496
3750,120.00,1.3908,3.9598,0.1797,-0.0000,-0.0000,-3.0900,rough,14.0,1,3.569
3760,120.32,1.0842,3.9461,0.1797,-0.0002,-0.0000,2.8668,rough,14.0,1,3.564
3770,120.64,0.7676,4.0561,0.1799,-0.0000,0.0003,2.6161,rough,14.0,1,3.463
3780,120.96,0.4705,4.2612,0.1799,0.0001,-0.0000,2.4179,rough,14.0,1,3.295
3790,121.28,0.2105,4.5315,0.1798,-0.0000,-0.0002,2.2296,rough,14.0,1,3.086
3800,121.60,-0.0085,4.8106,0.1958,-0.0539,-0.0392,2.0858,rough,14.0,1,2.888
3810,121.92,-0.1842,5.1033,0.2165,-0.0860,-0.0907,1.9729,rough,14.0,1,2.690
3820,122.24,-0.3138,5.3724,0.2823,-0.1043,-0.3275,1.8961,rough,14.0,1,2.519
3830,122.56,-0.4164,5.6473,0.3901,-0.1059,-0.4123,1.8403,rough,14.0,1,2.351
3840,122.88,-0.4969,5.9285,0.5251,-0.0881,-0.4750,1.7657,rough,14.0,1,2.190
3850,123.20,-0.5570,6.2057,0.6643,-0.0852,-0.4678,1.7144,rough,14.0,1,2.045
3860,123.52,-0.6002,6.4783,0.7946,-0.0885,-0.4383,1.6722,rough,14.0,1,1.920
3870,123.84,-0.6306,6.7363,0.9260,-0.0888,-0.4474,1.6269,rough,14.0,1,1.822
3880,124.16,-0.6468,6.9821,1.0392,-0.0901,-0.4302,1.6016,rough,14.0,1,1.747
3890,124.48,-0.6593,7.2137,1.1425,-0.1120,-0.4178,1.5857,rough,14.0,1,1.704
3900,124.80,-0.6628,7.4216,1.2351,-0.1099,-0.4246,1.5782,rough,14.0,1,1.684
3910,125.12,-0.6677,7.6189,1.3151,-0.1320,-0.3976,1.5725,rough,14.0,1,1.690
3920,125.44,-0.6692,7.7978,1.3854,-0.1398,-0.3739,1.5674,rough,14.0,1,1.712
3930,125.76,-0.6688,7.9618,1.4416,-0.1300,-0.3593,1.5551,rough,14.0,1,1.747
3940,126.08,-0.6694,8.1146,1.5021,-0.1516,-0.3514,1.5623,rough,14.0,1,1.793
3950,126.40,-0.6704,8.2732,1.5540,-0.1568,-0.3134,1.5486,rough,14.0,1,1.854
3960,126.72,-0.6680,8.4272,1.6020,-0.1611,-0.2846,1.5411,rough,14.0,1,1.920
3970,127.04,-0.6673,8.5993,1.6506,-0.1313,-0.2940,1.4426,rough,14.0,1,2.007
3980,127.36,-0.6477,8.8479,1.7231,-0.0411,-0.3273,1.1111,rough,14.0,1,2.137
3990,127.68,-0.5003,9.0334,1.8040,0.0362,-0.3269,0.8708,rough,14.0,1,2.151
4000,128.00,-0.2773,9.1897,1.8871,0.1164,-0.2874,0.6114,rough,14.0,1,2.122
4010,128.32,-0.0353,9.3328,1.9587,0.1749,-0.2366,0.4070,rough,14.0,1,2.106
4020,128.64,0.2167,9.4515,2.0174,0.1704,-0.1903,0.2544,rough,14.0,1,2.101
4030,128.96,0.4749,9.5242,2.0620,0.1584,-0.1516,0.1457,rough,14.0,1,2.087
4040,129.28,0.7547,9.5233,2.1007,0.1804,-0.1443,-0.0506,rough,14.0,1,2.031
4050,129.60,1.0886,9.4183,2.1393,0.2127,-0.1169,-0.3498,rough,14.0,1,1.910
4060,129.92,1.3767,9.2644,2.1797,0.2312,-0.1405,-0.5492,rough,14.0,1,1.791
4070,130.24,1.6453,9.0185,2.2084,0.2626,-0.0348,-0.7708,rough,14.0,1,1.634
4080,130.56,1.8582,8.7287,2.2011,0.2506,0.0418,-0.9916,rough,14.0,1,1.480
4090,130.88,2.0234,8.3542,2.1465,0.2254,0.2201,-1.2053,rough,14.0,1,1.312
4100,131.20,2.1168,8.0050,2.0531,0.1447,0.3108,-1.5632,rough,14.0,1,1.204
4110,131.52,2.0889,7.5690,1.8680,0.1452,0.5814,-1.6814,rough,14.0,1,1.072
4120,131.84,2.0337,7.1621,1.6061,0.1183,0.6391,-1.7650,rough,14.0,1,1.073
4130,132.16,1.9608,6.7610,1.2995,0.0959,0.6618,-1.8350,rough,14.0,1,1.203
4140,132.48,1.8829,6.3889,1.0080,0.1188,0.6645,-1.7853,rough,14.0,1,1.415
4150,132.80,1.8213,6.0363,0.7632,0.0314,0.6303,-1.8670,rough,14.0,1,1.678
4160,133.12,1.7209,5.6968,0.5386,-0.0223,0.4901,-1.9246,rough,14.0,1,1.944
4170,133.44,1.5984,5.4064,0.3933,-0.2140,0.3983,-2.2576,rough,14.0,1,2.182
4180,133.76,1.3882,5.1718,0.3017,-0.1975,0.2595,-2.5949,rough,14.0,1,2.367
4190,134.08,1.1324,5.0067,0.2350,-0.2379,0.0728,-2.9685,rough,14.0,1,2.506
4200,134.40,0.8799,4.8841,0.2118,-0.1671,0.0035,2.9308,rough,14.0,1,2.629
4210,134.72,0.5834,4.9339,0.2143,-0.1519,-0.0414,2.6466,rough,14.0,1,2.612
4220,135.04,0.3153,5.0992,0.2306,-0.1456,-0.0812,2.4235,rough,14.0,1,2.511
4230,135.36,0.0661,5.2943,0.2762,-0.1950,-0.1570,2.2435,rough,14.0,1,2.412
4240,135.68,-0.1276,5.5233,0.3327,-0.1995,-0.3591,2.0804,rough,14.0,1,2.294
4250,136.00,-0.2718,5.7928,0.4594,-0.1390,-0.4448,1.9393,rough,14.0,1,2.148
4260,136.32,-0.3785,6.0527,0.5885,-0.1276,-0.4691,1.8509,rough,14.0,1,2.019
4270,136.64,-0.4605,6.3145,0.7223,-0.1167,-0.4691,1.7779,rough,14.0,1,1.902
4280,136.96,-0.5178,6.5773,0.8542,-0.0910,-0.4562,1.6989,rough,14.0,1,1.797
4290,137.28,-0.5552,6.8322,0.9788,-0.0905,-0.4551,1.6457,rough,14.0,1,1.714
4300,137.60,-0.5798,7.0709,1.0863,-0.1002,-0.4399,1.6121,rough,14.0,1,1.658
4310,137.92,-0.5940,7.2977,1.1874,-0.1183,-0.4174,1.5901,rough,14.0,1,1.627
4320,138.24,-0.5997,7.5019,1.2730,-0.1236,-0.3995,1.5814,rough,14.0,1,1.619
4330,138.56,-0.6071,7.6898,1.3494,-0.1407,-0.3809,1.5653,rough,14.0,1,1.636
4340,138.88,-0.6076,7.8604,1.4179,-0.1491,-0.3689,1.5654,rough,14.0,1,1.664
4350,139.20,-0.6117,8.0251,1.4764,-0.1514,-0.3548,1.5372,rough,14.0,1,1.710
4360,139.52,-0.6098,8.2032,1.5388,-0.1391,-0.3365,1.4771,rough,14.0,1,1.770
4370,139.84,-0.5972,8.3715,1.5975,-0.1229,-0.3259,1.4252,rough,14.0,1,1.831
4380,140.16,-0.5805,8.5918,1.6639,-0.0724,-0.3231,1.2097,rough,14.0,1,1.931
4390,140.48,-0.4857,8.8351,1.7505,0.0276,-0.3296,0.8865,rough,14.0,1,2.005
4400,140.80,-0.2677,9.0092,1.8408,0.1079,-0.3081,0.6254,rough,14.0,1,1.976
4410,141.12,-0.0096,9.1532,1.9212,0.1521,-0.2588,0.4221,rough,14.0,1,1.939
4420,141.44,0.2527,9.2667,1.9809,0.1616,-0.1803,0.2702,rough,14.0,1,1.917
4430,141.76,0.5244,9.3182,2.0345,0.1778,-0.1867,0.1062,rough,14.0,1,1.875
4440,142.08,0.7805,9.3387,2.0755,0.1712,-0.1763,0.0017,rough,14.0,1,1.844
4450,142.40,1.0881,9.2754,2.1203,0.1855,-0.1560,-0.2643,rough,14.0,1,1.767
4460,142.72,1.4026,9.1139,2.1634,0.1990,-0.1390,-0.5329,rough,14.0,1,1.649
4470,143.04,1.6538,8.9001,2.1902,0.2669,-0.0615,-0.7228,rough,14.0,1,1.528
4480,143.36,1.8728,8.6378,2.1831,0.2499,0.0406,-0.9585,rough,14.0,1,1.415
4490,143.68,2.0495,8.2953,2.1334,0.2091,0.2564,-1.2063,rough,14.0,1,1.296
4500,144.00,2.1324,7.9581,2.0410,0.1423,0.3020,-1.5757,rough,14.0,1,1.200
4510,144.32,2.0913,7.5331,1.8512,0.1066,0.6098,-1.7666,rough,14.0,1,1.073
4520,144.64,1.9986,7.1244,1.5684,0.0461,0.6532,-1.8839,rough,14.0,1,1.053
4530,144.96,1.8869,6.7482,1.2677,-0.0049,0.6706,-1.9886,rough,14.0,1,1.155
4540,145.28,1.7913,6.3681,0.9677,0.1056,0.6757,-1.7604,rough,14.0,1,1.378
4550,145.60,1.7351,5.9833,0.7091,0.1110,0.5886,-1.7180,rough,14.0,1,1.686
4560,145.92,1.7349,5.6628,0.5315,0.1094,0.4704,-1.5989,rough,14.0,1,1.981
4570,146.24,1.7449,5.3642,0.3896,0.0551,0.5120,-1.5686,rough,14.0,1,2.265
4580,146.56,1.7511,5.1055,0.2837,0.0225,0.2968,-1.5708,rough,14.0,1,2.513
4590,146.88,1.7516,4.8225,0.2114,-0.0018,0.2263,-1.6253,rough,14.0,1,2.785
4600,147.20,1.7504,4.6102,0.1833,-0.0009,0.0217,-1.8845,rough,14.0,1,2.991
4610,147.52,1.6528,4.3580,0.1797,-0.0007,-0.0007,-2.2994,rough,14.0,1,3.215
4620,147.84,1.4303,4.1749,0.1798,-0.0003,0.0003,-2.6625,rough,14.0,1,3.360
4630,148.16,1.1616,4.0535,0.1797,-0.0002,-0.0000,-3.0029,rough,14.0,1,3.459
4640,148.48,0.8679,4.0119,0.1797,-0.0001,-0.0000,2.9229,rough,14.0,1,3.501
4650,148.80,0.5622,4.0950,0.1798,-0.0000,-0.0002,2.6456,rough,14.0,1,3.445
4660,149.12,0.2690,4.2868,0.1799,-0.0000,0.0003,2.4312,rough,14.0,1,3.309
4670,149.44,0.0121,4.5479,0.1799,0.0003,-0.0000,2.2345,rough,14.0,1,3.128
4680,149.76,-0.2074,4.8193,0.1915,-0.0547,-0.0089,2.0883,rough,14.0,1,2.957
4690,150.08,-0.3743,5.1233,0.2141,-0.0448,-0.0956,1.9270,rough,14.0,1,2.763
4700,150.40,-0.4857,5.3832,0.2854,-0.0721,-0.3698,1.8593,rough,14.0,1,2.605
4710,150.72,-0.5777,5.6623,0.3963,-0.0804,-0.4145,1.7985,rough,14.0,1,2.442
4720,151.04,-0.6460,5.9384,0.5254,-0.0755,-0.4726,1.7381,rough,14.0,1,2.289
4730,151.36,-0.6966,6.2167,0.6675,-0.0690,-0.4688,1.6810,rough,14.0,1,2.148
4740,151.68,-0.7331,6.4885,0.7974,-0.0901,-0.4612,1.6451,rough,14.0,1,2.028
4750,152.00,-0.7540,6.7472,0.9225,-0.0852,-0.4536,1.6134,rough,14.0,1,1.930
4760,152.32,-0.7690,6.9928,1.0322,-0.1016,-0.4257,1.5929,rough,14.0,1,1.861
4770,152.64,-0.7804,7.2073,1.1254,-0.1144,-0.4133,1.5953,rough,14.0,1,1.825
4780,152.96,-0.7851,7.4128,1.2153,-0.1016,-0.4072,1.5840,rough,14.0,1,1.807
4790,153.28,-0.7909,7.6072,1.2919,-0.1035,-0.3913,1.5611,rough,14.0,1,1.812
4800,153.60,-0.7902,7.7848,1.3647,-0.1149,-0.3760,1.5618,rough,14.0,1,1.830
4810,153.92,-0.7898,7.9490,1.4267,-0.1108,-0.3555,1.5514,rough,14.0,1,1.861
4820,154.24,-0.7883,8.1047,1.4823,-0.1275,-0.3417,1.5605,rough,14.0,1,1.902
4830,154.56,-0.7876,8.2584,1.5320,-0.1328,-0.3159,1.5625,rough,14.0,1,1.955
4840,154.88,-0.7903,8.4203,1.5804,-0.1380,-0.2875,1.5348,rough,14.0,1,2.025
4850,155.20,-0.7942,8.6132,1.6354,-0.0956,-0.3035,1.3866,rough,14.0,1,2.122
4860,155.52,-0.7536,8.8653,1.7075,-0.0179,-0.3244,1.0443,rough,14.0,1,2.231
4870,155.84,-0.6006,9.0970,1.8035,0.0768,-0.3224,0.7616,rough,14.0,1,2.268
4880,156.16,-0.4037,9.2852,1.8850,0.1096,-0.2808,0.5492,rough,14.0,1,2.275
4890,156.48,-0.1469,9.4246,1.9604,0.1601,-0.1930,0.3602,rough,14.0,1,2.242
4900,156.80,0.1169,9.5245,2.0176,0.1701,-0.1596,0.2154,rough,14.0,1,2.207
4910,157.12,0.4083,9.5590,2.0632,0.1874,-0.1331,0.0550,rough,14.0,1,2.138
4920,157.44,0.7242,9.5211,2.0945,0.1948,-0.1080,-0.1724,rough,14.0,1,2.033
4930,157.76,1.0641,9.3765,2.1235,0.2353,-0.0927,-0.4388,rough,14.0,1,1.867
4940,158.08,1.3698,9.1702,2.1607,0.2218,-0.0873,-0.6716,rough,14.0,1,1.697
4950,158.40,1.6096,8.9083,2.1830,0.2509,-0.0317,-0.8596,rough,14.0,1,1.518
4960,158.72,1.8172,8.5912,2.1671,0.2149,0.0747,-1.0766,rough,14.0,1,1.344
4970,159.04,1.9588,8.2123,2.0991,0.1913,0.3019,-1.3198,rough,14.0,1,1.174
4980,159.36,2.0220,7.8565,1.9856,0.0968,0.3808,-1.7010,rough,14.0,1,1.061
4990,159.68,1.9367,7.4078,1.7447,0.1041,0.5979,-1.7699,rough,14.0,1,0.923
5000,160.00,1.8454,6.9802,1.4267,0.0495,0.6755,-1.8611,rough,14.0,1,0.982
5010,160.32,1.7447,6.5939,1.1184,-0.0041,0.6734,-1.9413,rough,14.0,1,1.169
5020,160.64,1.6607,6.2262,0.8359,0.0453,0.6201,-1.8647,rough,14.0,1,1.435
5030,160.96,1.5475,5.8935,0.6146,-0.0552,0.5437,-1.9659,rough,14.0,1,1.701
5040,161.28,1.4178,5.5685,0.4366,-0.1454,0.3571,-2.2231,rough,14.0,1,1.982
5050,161.60,1.2379,5.3306,0.3337,-0.2464,0.1792,-2.5944,rough,14.0,1,2.190
5060,161.92,1.1376,5.1884,0.2918,-0.2683,-0.0192,3.0965,rough,14.0,1,2.324
5070,162.24,1.0552,5.1247,0.2628,-0.2458,-0.1336,2.6005,rough,14.0,1,2.385
5080,162.56,1.0379,5.0989,0.2576,-0.2072,-0.1196,2.5205,rough,14.0,1,2.411
5090,162.88,1.0313,5.0911,0.2565,-0.2055,-0.1232,2.5264,rough,14.0,1,2.419
5100,163.20,1.0237,5.0809,0.2525,-0.2005,-0.1210,2.4943,rough,14.0,1,2.429
5110,163.52,0.9950,5.0494,0.2421,-0.1793,-0.1320,2.3593,rough,14.0,1,2.460
5120,163.84,0.8823,4.9712,0.2249,-0.1153,-0.1829,2.0802,rough,14.0,1,2.542
5130,164.16,0.8024,4.9459,0.2179,-0.0495,-0.2089,1.7933,rough,14.0,1,2.573
5140,164.48,0.7423,4.9374,0.2144,-0.0290,-0.2092,1.6942,rough,14.0,1,2.587
5150,164.80,0.7191,4.9370,0.2137,-0.0195,-0.2171,1.6315,rough,14.0,1,2.590
5160,165.12,0.7036,4.9358,0.2131,-0.0134,-0.2178,1.6040,rough,14.0,1,2.593
5170,165.44,0.6964,4.9362,0.2131,-0.0089,-0.2180,1.5847,rough,14.0,1,2.594
5180,165.76,0.6934,4.9365,0.2131,-0.0070,-0.2180,1.5764,rough,14.0,1,2.594
5190,166.08,0.6923,4.9366,0.2131,-0.0062,-0.2179,1.5731,rough,14.0,1,2.594
5200,166.40,0.6920,4.9368,0.2131,-0.0058,-0.2180,1.5710,rough,14.0,1,2.594
5210,166.72,0.6923,4.9369,0.2132,-0.0056,-0.2181,1.5700,rough,14.0,1,2.594
5220,167.04,0.6929,4.9370,0.2132,-0.0055,-0.2182,1.5695,rough,14.0,1,2.593
5230,167.36,0.6936,4.9373,0.2133,-0.0054,-0.2183,1.5690,rough,14.0,1,2.593
5240,167.68,0.6945,4.9375,0.2133,-0.0054,-0.2184,1.5687,rough,14.0,1,2.593
5250,168.00,0.6954,4.9378,0.2134,-0.0054,-0.2185,1.5684,rough,14.0,1,2.592
5260,168.32,0.6966,4.9380,0.2135,-0.0054,-0.2187,1.5682,rough,14.0,1,2.592
5270,168.64,0.6977,4.9383,0.2136,-0.0055,-0.2188,1.5682,rough,14.0,1,2.591
5280,168.96,0.6989,4.9385,0.2137,-0.0056,-0.2190,1.5681,rough,14.0,1,2.591
5290,169.28,0.7001,4.9387,0.2138,-0.0056,-0.2191,1.5682,rough,14.0,1,2.591
5300,169.60,0.7011,4.9387,0.2119,-0.0056,-0.2072,1.5687,rough,14.0,1,2.591
5310,169.92,0.7017,4.9388,0.2137,-0.0059,-0.2186,1.5694,rough,14.0,1,2.590
5320,170.24,0.7024,4.9388,0.2138,-0.0060,-0.2194,1.5694,rough,14.0,1,2.590
5330,170.56,0.7031,4.9388,0.2138,-0.0060,-0.2195,1.5694,rough,14.0,1,2.590
5340,170.88,0.7037,4.9388,0.2139,-0.0060,-0.2196,1.5694,rough,14.0,1,2.590
5350,171.20,0.7043,4.9387,0.2140,-0.0060,-0.2208,1.5694,rough,14.0,1,2.590
5360,171.52,0.7045,4.9387,0.2137,-0.0062,-0.2188,1.5703,rough,14.0,1,2.590
5370,171.84,0.7048,4.9387,0.2139,-0.0062,-0.2197,1.5703,rough,14.0,1,2.590
5380,172.16,0.7051,4.9387,0.2139,-0.0062,-0.2198,1.5702,rough,14.0,1,2.590
5390,172.48,0.7054,4.9387,0.2139,-0.0062,-0.2199,1.5702,rough,14.0,1,2.590
5400,172.80,0.7057,4.9387,0.2139,-0.0062,-0.2198,1.5702,rough,14.0,1,2.590
5410,173.12,0.7057,4.9387,0.2136,-0.0064,-0.2181,1.5709,rough,14.0,1,2.590
5420,173.44,0.7057,4.9387,0.2139,-0.0064,-0.2197,1.5709,rough,14.0,1,2.590
5430,173.76,0.7058,4.9387,0.2139,-0.0064,-0.2199,1.5708,rough,14.0,1,2.590
5440,174.08,0.7058,4.9387,0.2139,-0.0064,-0.2199,1.5708,rough,14.0,1,2.590
5450,174.40,0.7059,4.9387,0.2139,-0.0064,-0.2198,1.5707,rough,14.0,1,2.590
5460,174.72,0.7057,4.9387,0.2137,-0.0065,-0.2184,1.5713,rough,14.0,1,2.590
5470,175.04,0.7055,4.9387,0.2139,-0.0065,-0.2197,1.5713,rough,14.0,1,2.590
5480,175.36,0.7054,4.9387,0.2139,-0.0064,-0.2198,1.5712,rough,14.0,1,2.590
5490,175.68,0.7053,4.9387,0.2139,-0.0064,-0.2198,1.5711,rough,14.0,1,2.590
5500,176.00,0.7053,4.9387,0.2139,-0.0064,-0.2198,1.5710,rough,14.0,1,2.590
5510,176.32,0.7050,4.9387,0.2136,-0.0065,-0.2179,1.5716,rough,14.0,1,2.590
5520,176.64,0.7047,4.9387,0.2138,-0.0065,-0.2195,1.5716,rough,14.0,1,2.590
5530,176.96,0.7045,4.9387,0.2139,-0.0065,-0.2196,1.5714,rough,14.0,1,2.590
5540,177.28,0.7043,4.9387,0.2139,-0.0064,-0.2196,1.5713,rough,14.0,1,2.590
5550,177.60,0.7041,4.9387,0.2139,-0.0064,-0.2196,1.5712,rough,14.0,1,2.590
5560,177.92,0.7038,4.9387,0.2135,-0.0065,-0.2172,1.5717,rough,14.0,1,2.590
5570,178.24,0.7035,4.9387,0.2138,-0.0065,-0.2192,1.5717,rough,14.0,1,2.590
5580,178.56,0.7032,4.9387,0.2138,-0.0065,-0.2194,1.5716,rough,14.0,1,2.590
5590,178.88,0.7029,4.9387,0.2138,-0.0064,-0.2194,1.5715,rough,14.0,1,2.590
5600,179.20,0.7027,4.9387,0.2138,-0.0064,-0.2194,1.5713,rough,14.0,1,2.590
5610,179.52,0.7024,4.9387,0.2134,-0.0065,-0.2164,1.5718,rough,14.0,1,2.591
5620,179.84,0.7020,4.9387,0.2138,-0.0065,-0.2189,1.5718,rough,14.0,1,2.591
5630,180.16,0.7017,4.9387,0.2138,-0.0065,-0.2192,1.5717,rough,14.0,1,2.591
5640,180.48,0.7014,4.9387,0.2138,-0.0064,-0.2192,1.5715,rough,14.0,1,2.591
5650,180.80,0.7012,4.9387,0.2138,-0.0064,-0.2192,1.5713,rough,14.0,1,2.591
5660,181.12,0.7009,4.9385,0.2131,-0.0064,-0.2153,1.5717,rough,14.0,1,2.591
5670,181.44,0.7006,4.9385,0.2137,-0.0064,-0.2186,1.5717,rough,14.0,1,2.591
5680,181.76,0.7003,4.9385,0.2137,-0.0063,-0.2190,1.5715,rough,14.0,1,2.591
5690,182.08,0.7001,4.9385,0.2137,-0.0063,-0.2190,1.5713,rough,14.0,1,2.591
5700,182.40,0.7000,4.9385,0.2137,-0.0062,-0.2190,1.5711,rough,14.0,1,2.591
5710,182.72,0.6999,4.9383,0.2129,-0.0062,-0.2138,1.5714,rough,14.0,1,2.591
5720,183.04,0.6996,4.9383,0.2136,-0.0063,-0.2184,1.5714,rough,14.0,1,2.591
5730,183.36,0.6995,4.9383,0.2136,-0.0062,-0.2189,1.5712,rough,14.0,1,2.591
5740,183.68,0.6994,4.9383,0.2136,-0.0062,-0.2189,1.5709,rough,14.0,1,2.591
5750,184.00,0.6995,4.9383,0.2136,-0.0061,-0.2190,1.5707,rough,14.0,1,2.591
5760,184.32,0.6995,4.9383,0.2126,-0.0061,-0.2120,1.5711,rough,14.0,1,2.591
5770,184.64,0.6994,4.9383,0.2135,-0.0062,-0.2182,1.5712,rough,14.0,1,2.591
5780,184.96,0.6993,4.9383,0.2136,-0.0062,-0.2188,1.5710,rough,14.0,1,2.591
5790,185.28,0.6994,4.9383,0.2136,-0.0061,-0.2189,1.5707,rough,14.0,1,2.591
5800,185.60,0.6995,4.9383,0.2136,-0.0061,-0.2190,1.5705,rough,14.0,1,2.591
5810,185.92,0.6994,4.9383,0.2133,-0.0062,-0.2170,1.5711,rough,14.0,1,2.591
5820,186.24,0.6993,4.9383,0.2136,-0.0062,-0.2187,1.5710,rough,14.0,1,2.591
5830,186.56,0.6994,4.9383,0.2136,-0.0061,-0.2189,1.5708,rough,14.0,1,2.591
5840,186.88,0.6995,4.9383,0.2136,-0.0061,-0.2190,1.5706,rough,14.0,1,2.591
5850,187.20,0.6997,4.9384,0.2137,-0.0061,-0.2190,1.5704,rough,14.0,1,2.591
5860,187.52,0.6999,4.9385,0.2138,-0.0061,-0.2198,1.5703,rough,14.0,1,2.591
5870,187.84,0.6998,4.9385,0.2135,-0.0062,-0.2179,1.5709,rough,14.0,1,2.591
5880,188.16,0.6999,4.9385,0.2137,-0.0062,-0.2189,1.5708,rough,14.0,1,2.591
5890,188.48,0.7000,4.9385,0.2137,-0.0061,-0.2190,1.5706,rough,14.0,1,2.591
5900,188.80,0.7001,4.9385,0.2137,-0.0061,-0.2190,1.5705,rough,14.0,1,2.591
5910,189.12,0.7003,4.9386,0.2137,-0.0061,-0.2190,1.5704,rough,14.0,1,2.591
5920,189.44,0.7003,4.9385,0.2135,-0.0062,-0.2177,1.5710,rough,14.0,1,2.591
5930,189.76,0.7002,4.9385,0.2137,-0.0062,-0.2189,1.5709,rough,14.0,1,2.591
5940,190.08,0.7003,4.9385,0.2137,-0.0062,-0.2190,1.5708,rough,14.0,1,2.591
5950,190.40,0.7004,4.9386,0.2137,-0.0062,-0.2191,1.5706,rough,14.0,1,2.591
5960,190.72,0.7005,4.9386,0.2137,-0.0062,-0.2190,1.5705,rough,14.0,1,2.591
5970,191.04,0.7004,4.9386,0.2135,-0.0063,-0.2175,1.5711,rough,14.0,1,2.591
5980,191.36,0.7004,4.9385,0.2137,-0.0062,-0.2189,1.5710,rough,14.0,1,2.591
5990,191.68,0.7004,4.9386,0.2137,-0.0062,-0.2190,1.5709,rough,14.0,1,2.591
6000,192.00,0.7004,4.9386,0.2137,-0.0062,-0.2191,1.5707,rough,14.0,1,2.591
6010,192.32,0.7003,4.9385,0.2134,-0.0063,-0.2170,1.5713,rough,14.0,1,2.591
6020,192.64,0.7002,4.9385,0.2137,-0.0063,-0.2189,1.5712,rough,14.0,1,2.591
6030,192.96,0.7001,4.9385,0.2137,-0.0062,-0.2190,1.5710,rough,14.0,1,2.591
6040,193.28,0.7001,4.9385,0.2137,-0.0062,-0.2190,1.5708,rough,14.0,1,2.591
6050,193.60,0.7002,4.9385,0.2137,-0.0062,-0.2190,1.5706,rough,14.0,1,2.591
6060,193.92,0.7004,4.9386,0.2137,-0.0061,-0.2191,1.5705,rough,14.0,1,2.591
6070,194.24,0.7003,4.9385,0.2133,-0.0062,-0.2165,1.5711,rough,14.0,1,2.591
6080,194.56,0.7002,4.9385,0.2137,-0.0062,-0.2188,1.5710,rough,14.0,1,2.591
6090,194.88,0.7002,4.9385,0.2137,-0.0062,-0.2190,1.5709,rough,14.0,1,2.591
6100,195.20,0.7003,4.9386,0.2137,-0.0062,-0.2191,1.5707,rough,14.0,1,2.591
6110,195.52,0.7004,4.9386,0.2137,-0.0062,-0.2191,1.5706,rough,14.0,1,2.591
6120,195.84,0.7004,4.9385,0.2132,-0.0062,-0.2159,1.5711,rough,14.0,1,2.591
6130,196.16,0.7003,4.9385,0.2137,-0.0062,-0.2187,1.5711,rough,14.0,1,2.591
6140,196.48,0.7002,4.9385,0.2137,-0.0062,-0.2190,1.5709,rough,14.0,1,2.591
6150,196.80,0.7003,4.9385,0.2137,-0.0062,-0.2190,1.5708,rough,14.0,1,2.591
6160,197.12,0.7004,4.9386,0.2137,-0.0062,-0.2191,1.5706,rough,14.0,1,2.591
6170,197.44,0.7004,4.9385,0.2131,-0.0062,-0.2151,1.5711,rough,14.0,1,2.591
6180,197.76,0.7002,4.9385,0.2136,-0.0063,-0.2186,1.5711,rough,14.0,1,2.591
6190,198.08,0.7002,4.9385,0.2137,-0.0062,-0.2190,1.5710,rough,14.0,1,2.591
6200,198.40,0.7002,4.9385,0.2137,-0.0062,-0.2190,1.5708,rough,14.0,1,2.591
6210,198.72,0.7000,4.9384,0.2134,-0.0063,-0.2169,1.5713,rough,14.0,1,2.591
6220,199.04,0.6999,4.9384,0.2137,-0.0063,-0.2191,1.5712,rough,14.0,1,2.591
6230,199.36,0.6998,4.9384,0.2137,-0.0062,-0.2190,1.5710,rough,14.0,1,2.591
6240,199.68,0.6998,4.9385,0.2137,-0.0062,-0.2190,1.5708,rough,14.0,1,2.591
6250,200.00,0.6999,4.9385,0.2137,-0.0061,-0.2190,1.5706,rough,14.0,1,2.591
6260,200.32,0.7001,4.9385,0.2137,-0.0061,-0.2190,1.5705,rough,14.0,1,2.591
6270,200.64,0.7002,4.9385,0.2127,-0.0062,-0.2128,1.5709,rough,14.0,1,2.591
6280,200.96,0.7001,4.9385,0.2136,-0.0062,-0.2183,1.5710,rough,14.0,1,2.591
6290,201.28,0.7001,4.9385,0.2137,-0.0062,-0.2190,1.5709,rough,14.0,1,2.591
6300,201.60,0.7002,4.9385,0.2137,-0.0062,-0.2190,1.5707,rough,14.0,1,2.591
6310,201.92,0.7003,4.9386,0.2137,-0.0061,-0.2191,1.5706,rough,14.0,1,2.591
6320,202.24,0.7005,4.9386,0.2117,-0.0060,-0.2061,1.5706,rough,14.0,1,2.591
6330,202.56,0.7003,4.9385,0.2136,-0.0062,-0.2182,1.5711,rough,14.0,1,2.591
6340,202.88,0.7002,4.9385,0.2137,-0.0062,-0.2190,1.5710,rough,14.0,1,2.591
6350,203.20,0.7003,4.9385,0.2137,-0.0062,-0.2190,1.5708,rough,14.0,1,2.591
6360,203.52,0.7004,4.9386,0.2137,-0.0062,-0.2191,1.5706,rough,14.0,1,2.591
6370,203.84,0.7005,4.9386,0.2139,-0.0062,-0.2199,1.5706,rough,14.0,1,2.591
6380,204.16,0.7003,4.9385,0.2136,-0.0063,-0.2180,1.5712,rough,14.0,1,2.591
6390,204.48,0.7003,4.9385,0.2137,-0.0062,-0.2189,1.5710,rough,14.0,1,2.591
6400,204.80,0.7003,4.9385,0.2137,-0.0062,-0.2190,1.5709,rough,14.0,1,2.591
6410,205.12,0.7001,4.9384,0.2134,-0.0063,-0.2169,1.5714,rough,14.0,1,2.591
6420,205.44,0.6999,4.9384,0.2136,-0.0063,-0.2187,1.5713,rough,14.0,1,2.591
6430,205.76,0.6995,4.9383,0.2134,-0.0063,-0.2175,1.5717,rough,14.0,1,2.591
6440,206.08,0.6992,4.9383,0.2136,-0.0063,-0.2187,1.5715,rough,14.0,1,2.591
6450,206.40,0.6990,4.9383,0.2136,-0.0062,-0.2188,1.5712,rough,14.0,1,2.591
6460,206.72,0.6990,4.9383,0.2136,-0.0062,-0.2189,1.5710,rough,14.0,1,2.591
6470,207.04,0.6990,4.9383,0.2136,-0.0061,-0.2188,1.5708,rough,14.0,1,2.591
6480,207.36,0.6988,4.9382,0.2133,-0.0062,-0.2170,1.5713,rough,14.0,1,2.591
6490,207.68,0.6987,4.9382,0.2136,-0.0062,-0.2186,1.5711,rough,14.0,1,2.591
6500,208.00,0.6987,4.9382,0.2136,-0.0061,-0.2188,1.5708,rough,14.0,1,2.591
6510,208.32,0.6988,4.9383,0.2136,-0.0061,-0.2189,1.5706,rough,14.0,1,2.591
6520,208.64,0.6990,4.9383,0.2136,-0.0060,-0.2189,1.5704,rough,14.0,1,2.591
6530,208.96,0.6990,4.9383,0.2133,-0.0061,-0.2166,1.5710,rough,14.0,1,2.591
6540,209.28,0.6990,4.9383,0.2136,-0.0061,-0.2186,1.5709,rough,14.0,1,2.591
6550,209.60,0.6991,4.9383,0.2136,-0.0061,-0.2189,1.5706,rough,14.0,1,2.591
6560,209.92,0.6993,4.9383,0.2136,-0.0060,-0.2189,1.5704,rough,14.0,1,2.591
6570,210.24,0.6995,4.9383,0.2137,-0.0060,-0.2190,1.5702,rough,14.0,1,2.591
6580,210.56,0.6996,4.9383,0.2132,-0.0061,-0.2163,1.5709,rough,14.0,1,2.591
6590,210.88,0.6996,4.9383,0.2136,-0.0061,-0.2187,1.5708,rough,14.0,1,2.591
6600,211.20,0.6997,4.9384,0.2137,-0.0061,-0.2190,1.5706,rough,14.0,1,2.591
6610,211.52,0.6996,4.9383,0.2133,-0.0062,-0.2168,1.5712,rough,14.0,1,2.591
6620,211.84,0.6995,4.9383,0.2136,-0.0062,-0.2187,1.5710,rough,14.0,1,2.591
6630,212.16,0.6993,4.9383,0.2131,-0.0062,-0.2153,1.5715,rough,14.0,1,2.591
6640,212.48,0.6991,4.9383,0.2136,-0.0062,-0.2185,1.5714,rough,14.0,1,2.591
6650,212.80,0.6989,4.9383,0.2136,-0.0062,-0.2188,1.5711,rough,14.0,1,2.591
6660,213.12,0.6989,4.9383,0.2136,-0.0061,-0.2189,1.5709,rough,14.0,1,2.591
6670,213.44,0.6990,4.9383,0.2136,-0.0061,-0.2189,1.5706,rough,14.0,1,2.591
6680,213.76,0.6990,4.9383,0.2129,-0.0061,-0.2144,1.5711,rough,14.0,1,2.591
6690,214.08,0.6989,4.9383,0.2135,-0.0062,-0.2184,1.5710,rough,14.0,1,2.591
6700,214.40,0.6989,4.9383,0.2136,-0.0061,-0.2188,1.5708,rough,14.0,1,2.591
6710,214.72,0.6990,4.9383,0.2136,-0.0061,-0.2189,1.5706,rough,14.0,1,2.591
6720,215.04,0.6992,4.9383,0.2136,-0.0060,-0.2189,1.5704,rough,14.0,1,2.591
6730,215.36,0.6993,4.9383,0.2128,-0.0061,-0.2134,1.5709,rough,14.0,1,2.591
6740,215.68,0.6993,4.9383,0.2135,-0.0061,-0.2183,1.5709,rough,14.0,1,2.591
6750,216.00,0.6993,4.9383,0.2136,-0.0061,-0.2189,1.5707,rough,14.0,1,2.591
6760,216.32,0.6995,4.9383,0.2136,-0.0061,-0.2190,1.5705,rough,14.0,1,2.591
6770,216.64,0.6997,4.9384,0.2137,-0.0061,-0.2190,1.5703,rough,14.0,1,2.591
6780,216.96,0.6999,4.9385,0.2127,-0.0061,-0.2126,1.5708,rough,14.0,1,2.591
6790,217.28,0.6998,4.9385,0.2136,-0.0062,-0.2183,1.5709,rough,14.0,1,2.591
6800,217.60,0.6999,4.9385,0.2137,-0.0062,-0.2189,1.5707,rough,14.0,1,2.591
6810,217.92,0.6997,4.9383,0.2133,-0.0062,-0.2168,1.5713,rough,14.0,1,2.591
6820,218.24,0.6996,4.9383,0.2136,-0.0062,-0.2187,1.5712,rough,14.0,1,2.591
6830,218.56,0.6996,4.9384,0.2115,-0.0060,-0.2046,1.5710,rough,14.0,1,2.591
6840,218.88,0.6992,4.9383,0.2135,-0.0063,-0.2179,1.5715,rough,14.0,1,2.591
6850,219.20,0.6990,4.9383,0.2136,-0.0062,-0.2188,1.5712,rough,14.0,1,2.591
6860,219.52,0.6989,4.9383,0.2136,-0.0062,-0.2189,1.5710,rough,14.0,1,2.591
6870,219.84,0.6990,4.9383,0.2136,-0.0061,-0.2189,1.5707,rough,14.0,1,2.591
6880,220.16,0.6991,4.9383,0.2137,-0.0061,-0.2194,1.5705,rough,14.0,1,2.591
6890,220.48,0.6989,4.9383,0.2134,-0.0062,-0.2177,1.5711,rough,14.0,1,2.591
6900,220.80,0.6989,4.9383,0.2136,-0.0061,-0.2187,1.5709,rough,14.0,1,2.591
6910,221.12,0.6990,4.9383,0.2136,-0.0061,-0.2189,1.5707,rough,14.0,1,2.591
6920,221.44,0.6991,4.9383,0.2136,-0.0061,-0.2189,1.5705,rough,14.0,1,2.591
6930,221.76,0.6993,4.9383,0.2136,-0.0061,-0.2189,1.5703,rough,14.0,1,2.591
6940,222.08,0.6993,4.9383,0.2134,-0.0061,-0.2175,1.5710,rough,14.0,1,2.591
6950,222.40,0.6993,4.9383,0.2136,-0.0061,-0.2188,1.5708,rough,14.0,1,2.591
6960,222.72,0.6994,4.9383,0.2136,-0.0061,-0.2189,1.5706,rough,14.0,1,2.591
6970,223.04,0.6996,4.9383,0.2137,-0.0061,-0.2190,1.5704,rough,14.0,1,2.591
6980,223.36,0.6998,4.9385,0.2137,-0.0061,-0.2189,1.5703,rough,14.0,1,2.591
6990,223.68,0.6998,4.9384,0.2134,-0.0062,-0.2173,1.5709,rough,14.0,1,2.591
7000,224.00,0.6998,4.9385,0.2137,-0.0062,-0.2188,1.5708,rough,14.0,1,2.591
7010,224.32,0.6997,4.9383,0.2133,-0.0062,-0.2168,1.5714,rough,14.0,1,2.591
7020,224.64,0.6995,4.9383,0.2136,-0.0062,-0.2187,1.5712,rough,14.0,1,2.591
7030,224.96,0.6994,4.9383,0.2136,-0.0062,-0.2189,1.5710,rough,14.0,1,2.591
7040,225.28,0.6992,4.9383,0.2133,-0.0062,-0.2166,1.5715,rough,14.0,1,2.591
7050,225.60,0.6990,4.9383,0.2136,-0.0062,-0.2186,1.5713,rough,14.0,1,2.591
7060,225.92,0.6989,4.9383,0.2136,-0.0062,-0.2188,1.5710,rough,14.0,1,2.591
7070,226.24,0.6989,4.9383,0.2136,-0.0061,-0.2189,1.5708,rough,14.0,1,2.591
7080,226.56,0.6990,4.9383,0.2136,-0.0061,-0.2189,1.5706,rough,14.0,1,2.591
7090,226.88,0.6990,4.9383,0.2132,-0.0061,-0.2160,1.5711,rough,14.0,1,2.591
7100,227.20,0.6989,4.9383,0.2136,-0.0061,-0.2186,1.5710,rough,14.0,1,2.591
7110,227.52,0.6989,4.9383,0.2136,-0.0061,-0.2188,1.5708,rough,14.0,1,2.591
7120,227.84,0.6991,4.9383,0.2136,-0.0061,-0.2189,1.5705,rough,14.0,1,2.591
7130,228.16,0.6993,4.9383,0.2136,-0.0060,-0.2189,1.5703,rough,14.0,1,2.591
7140,228.48,0.6993,4.9383,0.2131,-0.0061,-0.2154,1.5709,rough,14.0,1,2.591
7150,228.80,0.6993,4.9383,0.2136,-0.0061,-0.2185,1.5709,rough,14.0,1,2.591
7160,229.12,0.6994,4.9383,0.2136,-0.0061,-0.2189,1.5707,rough,14.0,1,2.591
7170,229.44,0.6996,4.9383,0.2136,-0.0061,-0.2190,1.5705,rough,14.0,1,2.591
7180,229.76,0.6998,4.9385,0.2137,-0.0061,-0.2190,1.5703,rough,14.0,1,2.591
7190,230.08,0.6999,4.9384,0.2131,-0.0061,-0.2149,1.5709,rough,14.0,1,2.591
7200,230.40,0.6999,4.9385,0.2136,-0.0062,-0.2186,1.5709,rough,14.0,1,2.591
7210,230.72,0.6997,4.9383,0.2133,-0.0062,-0.2167,1.5714,rough,14.0,1,2.591
7220,231.04,0.6995,4.9383,0.2136,-0.0062,-0.2187,1.5713,rough,14.0,1,2.591
7230,231.36,0.6994,4.9383,0.2136,-0.0062,-0.2189,1.5710,rough,14.0,1,2.591
7240,231.68,0.6993,4.9383,0.2128,-0.0062,-0.2133,1.5714,rough,14.0,1,2.591
7250,232.00,0.6990,4.9383,0.2135,-0.0062,-0.2183,1.5714,rough,14.0,1,2.591
7260,232.32,0.6989,4.9383,0.2136,-0.0062,-0.2188,1.5711,rough,14.0,1,2.591
7270,232.64,0.6989,4.9383,0.2136,-0.0061,-0.2189,1.5709,rough,14.0,1,2.591
7280,232.96,0.6990,4.9383,0.2136,-0.0061,-0.2189,1.5706,rough,14.0,1,2.591
7290,233.28,0.6991,4.9383,0.2126,-0.0061,-0.2119,1.5710,rough,14.0,1,2.591
7300,233.60,0.6990,4.9383,0.2135,-0.0062,-0.2181,1.5711,rough,14.0,1,2.591
7310,233.92,0.6989,4.9383,0.2136,-0.0061,-0.2188,1.5708,rough,14.0,1,2.591
7320,234.24,0.6990,4.9383,0.2136,-0.0061,-0.2189,1.5706,rough,14.0,1,2.591
7330,234.56,0.6992,4.9383,0.2136,-0.0060,-0.2189,1.5704,rough,14.0,1,2.591
7340,234.88,0.6995,4.9384,0.2115,-0.0058,-0.2048,1.5704,rough,14.0,1,2.591
7350,235.20,0.6994,4.9383,0.2135,-0.0061,-0.2180,1.5709,rough,14.0,1,2.591
7360,235.52,0.6994,4.9383,0.2136,-0.0061,-0.2188,1.5707,rough,14.0,1,2.591
7370,235.84,0.6995,4.9383,0.2136,-0.0061,-0.2190,1.5705,rough,14.0,1,2.591
7380,236.16,0.6997,4.9385,0.2137,-0.0061,-0.2190,1.5704,rough,14.0,1,2.591
7390,236.48,0.7000,4.9385,0.2138,-0.0061,-0.2198,1.5703,rough,14.0,1,2.591
7400,236.80,0.6999,4.9385,0.2135,-0.0062,-0.2179,1.5709,rough,14.0,1,2.591
7410,237.12,0.6999,4.9385,0.2137,-0.0062,-0.2190,1.5708,rough,14.0,1,2.591
7420,237.44,0.7000,4.9385,0.2137,-0.0061,-0.2190,1.5706,rough,14.0,1,2.591
7430,237.76,0.7002,4.9386,0.2137,-0.0061,-0.2191,1.5705,rough,14.0,1,2.591
7440,238.08,0.7004,4.9386,0.2137,-0.0061,-0.2190,1.5704,rough,14.0,1,2.591
7450,238.40,0.7003,4.9385,0.2135,-0.0062,-0.2178,1.5710,rough,14.0,1,2.591
7460,238.72,0.7003,4.9385,0.2137,-0.0062,-0.2189,1.5709,rough,14.0,1,2.591
7470,239.04,0.7003,4.9386,0.2137,-0.0062,-0.2190,1.5708,rough,14.0,1,2.591
7480,239.36,0.7004,4.9386,0.2137,-0.0062,-0.2191,1.5706,rough,14.0,1,2.591
7490,239.68,0.7006,4.9386,0.2137,-0.0062,-0.2190,1.5706,rough,14.0,1,2.591
7500,240.00,0.7005,4.9386,0.2135,-0.0063,-0.2175,1.5711,rough,14.0,1,2.591
7510,240.32,0.7004,4.9385,0.2137,-0.0062,-0.2189,1.5710,rough,14.0,1,2.591
7520,240.64,0.7004,4.9386,0.2137,-0.0062,-0.2190,1.5709,rough,14.0,1,2.591
7530,240.96,0.7005,4.9386,0.2137,-0.0062,-0.2191,1.5707,rough,14.0,1,2.591
7540,241.28,0.7006,4.9386,0.2137,-0.0062,-0.2191,1.5706,rough,14.0,1,2.591
7550,241.60,0.7005,4.9385,0.2134,-0.0063,-0.2171,1.5712,rough,14.0,1,2.591
7560,241.92,0.7004,4.9385,0.2137,-0.0063,-0.2188,1.5711,rough,14.0,1,2.591
7570,242.24,0.7003,4.9385,0.2137,-0.0062,-0.2190,1.5709,rough,14.0,1,2.591
7580,242.56,0.7003,4.9386,0.2137,-0.0062,-0.2191,1.5708,rough,14.0,1,2.591
7590,242.88,0.7004,4.9386,0.2137,-0.0062,-0.2191,1.5706,rough,14.0,1,2.591
7600,243.20,0.7004,4.9385,0.2133,-0.0062,-0.2165,1.5712,rough,14.0,1,2.591
7610,243.52,0.7002,4.9385,0.2137,-0.0063,-0.2189,1.5711,rough,14.0,1,2.591
7620,243.84,0.7002,4.9385,0.2137,-0.0062,-0.2190,1.5710,rough,14.0,1,2.591
7630,244.16,0.7002,4.9385,0.2137,-0.0062,-0.2190,1.5708,rough,14.0,1,2.591
7640,244.48,0.7003,4.9386,0.2137,-0.0062,-0.2191,1.5706,rough,14.0,1,2.591
7650,244.80,0.7003,4.9385,0.2132,-0.0062,-0.2159,1.5712,rough,14.0,1,2.591
7660,245.12,0.7001,4.9385,0.2136,-0.0062,-0.2187,1.5711,rough,14.0,1,2.591
7670,245.44,0.7001,4.9385,0.2137,-0.0062,-0.2190,1.5710,rough,14.0,1,2.591
7680,245.76,0.7001,4.9385,0.2137,-0.0062,-0.2190,1.5708,rough,14.0,1,2.591
7690,246.08,0.7002,4.9386,0.2137,-0.0062,-0.2191,1.5706,rough,14.0,1,2.591
7700,246.40,0.7002,4.9385,0.2131,-0.0062,-0.2150,1.5711,rough,14.0,1,2.591
7710,246.72,0.7001,4.9385,0.2136,-0.0062,-0.2186,1.5711,rough,14.0,1,2.591
7720,247.04,0.7001,4.9385,0.2137,-0.0062,-0.2190,1.5710,rough,14.0,1,2.591
7730,247.36,0.7001,4.9385,0.2137,-0.0062,-0.2190,1.5708,rough,14.0,1,2.591
7740,247.68,0.7002,4.9385,0.2137,-0.0061,-0.2190,1.5706,rough,14.0,1,2.591
7750,248.00,0.7002,4.9385,0.2129,-0.0062,-0.2141,1.5711,rough,14.0,1,2.591
7760,248.32,0.7001,4.9385,0.2136,-0.0062,-0.2185,1.5711,rough,14.0,1,2.591
7770,248.64,0.7000,4.9385,0.2137,-0.0062,-0.2190,1.5710,rough,14.0,1,2.591
7780,248.96,0.7001,4.9385,0.2137,-0.0062,-0.2190,1.5708,rough,14.0,1,2.591
7790,249.28,0.7002,4.9385,0.2137,-0.0061,-0.2190,1.5706,rough,14.0,1,2.591
7800,249.60,0.7002,4.9385,0.2127,-0.0062,-0.2128,1.5710,rough,14.0,1,2.591
7810,249.92,0.7001,4.9385,0.2136,-0.0062,-0.2185,1.5711,rough,14.0,1,2.591
7820,250.24,0.7001,4.9385,0.2137,-0.0062,-0.2190,1.5710,rough,14.0,1,2.591
7830,250.56,0.7001,4.9385,0.2137,-0.0062,-0.2190,1.5708,rough,14.0,1,2.591
7840,250.88,0.7002,4.9385,0.2137,-0.0062,-0.2190,1.5706,rough,14.0,1,2.591
7850,251.20,0.7003,4.9386,0.2117,-0.0060,-0.2060,1.5706,rough,14.0,1,2.591
7860,251.52,0.7001,4.9385,0.2136,-0.0062,-0.2182,1.5711,rough,14.0,1,2.591
7870,251.84,0.7001,4.9385,0.2137,-0.0062,-0.2189,1.5710,rough,14.0,1,2.591
7880,252.16,0.7001,4.9385,0.2137,-0.0062,-0.2190,1.5708,rough,14.0,1,2.591
7890,252.48,0.7002,4.9385,0.2137,-0.0062,-0.2190,1.5706,rough,14.0,1,2.591
7900,252.80,0.7003,4.9385,0.2138,-0.0061,-0.2199,1.5705,rough,14.0,1,2.591
7910,253.12,0.7002,4.9385,0.2135,-0.0062,-0.2180,1.5711,rough,14.0,1,2.591
7920,253.44,0.7001,4.9385,0.2137,-0.0062,-0.2189,1.5710,rough,14.0,1,2.591
7930,253.76,0.7001,4.9385,0.2137,-0.0062,-0.2190,1.5708,rough,14.0,1,2.591
7940,254.08,0.7002,4.9385,0.2137,-0.0062,-0.2190,1.5707,rough,14.0,1,2.591
7950,254.40,0.7003,4.9386,0.2137,-0.0062,-0.2190,1.5705,rough,14.0,1,2.591
7960,254.72,0.7002,4.9385,0.2135,-0.0062,-0.2177,1.5712,rough,14.0,1,2.591
7970,255.04,0.7001,4.9385,0.2137,-0.0062,-0.2189,1.5710,rough,14.0,1,2.591
7980,255.36,0.7001,4.9385,0.2137,-0.0062,-0.2190,1.5709,rough,14.0,1,2.591
7990,255.68,0.7002,4.9385,0.2137,-0.0062,-0.2190,1.5707,rough,14.0,1,2.591
8000,256.00,0.7003,4.9386,0.2137,-0.0062,-0.2190,1.5706,rough,14.0,1,2.591
