step,time_s,x,y,z,roll,pitch,yaw,terrain,speed,target_idx,dist_to_target
10,0.32,-0.0089,-0.0618,0.1916,-0.0015,-0.0149,-0.0002,slope,18.0,0,5.403
20,0.64,0.2426,-0.0671,0.2053,0.0224,-0.0474,-0.0188,slope,18.0,0,5.205
30,0.96,0.5535,-0.0785,0.2173,0.0489,-0.0459,-0.0818,slope,18.0,0,4.962
40,1.28,0.9687,-0.1598,0.2361,0.1351,-0.0563,-0.3204,slope,18.0,0,4.605
50,1.60,1.4289,-0.3831,0.2295,0.1115,0.0789,-0.5500,slope,18.0,0,4.125
60,1.92,1.8580,-0.6975,0.1823,0.0902,0.0918,-0.6802,slope,18.0,0,3.604
70,2.24,2.2649,-1.0879,0.1346,0.1974,0.1849,-0.7395,slope,18.0,0,3.042
80,2.56,2.6697,-1.4943,0.0005,0.1738,0.2933,-0.7713,rough,14.0,0,2.471
90,2.88,2.9642,-1.9074,-0.1941,0.3549,0.2765,-0.7515,rough,14.0,0,1.965
100,3.20,3.2021,-2.2364,-0.2933,0.3823,0.0875,-0.8078,slope,18.0,0,1.560
110,3.52,3.4149,-2.5466,-0.3335,0.4720,-0.0227,-0.8245,slope,18.0,0,1.188
120,3.84,3.6461,-2.8132,-0.3223,0.4778,-0.0503,-0.8717,slope,18.0,1,7.049
130,4.16,3.9206,-3.2036,-0.4193,0.3657,0.3367,-1.0950,rough,14.0,1,6.927
140,4.48,4.0050,-3.5074,-0.5160,0.3676,0.2974,-1.3805,rough,14.0,1,6.762
150,4.80,3.9535,-3.8331,-0.6099,0.3291,0.2891,-1.6919,rough,14.0,1,6.496
160,5.12,3.8656,-4.1412,-0.6701,0.2601,0.1200,-1.9726,rough,14.0,1,6.220
170,5.44,3.6984,-4.4262,-0.7050,0.1694,0.0649,-2.2300,rough,14.0,1,5.905
180,5.76,3.4446,-4.7005,-0.7380,0.0962,0.0424,-2.3760,rough,14.0,1,5.533
190,6.08,3.1260,-4.9423,-0.7881,0.1766,0.1738,-2.5057,rough,14.0,1,5.135
200,6.40,2.8520,-5.1294,-0.8102,0.1971,-0.1158,-2.6280,rough,14.0,1,4.806
210,6.72,2.5979,-5.2701,-0.7363,0.1535,-0.5528,-2.8137,rough,14.0,1,4.523
220,7.04,2.3221,-5.3380,-0.5842,0.4145,-0.7659,-2.8726,rough,14.0,1,4.277
230,7.36,2.1207,-5.3940,-0.4321,0.3919,-0.7112,-3.0265,rough,14.0,1,4.096
240,7.68,1.9068,-5.4422,-0.2506,0.2893,-0.7184,-2.9438,rough,14.0,1,3.915
250,8.00,1.6954,-5.4716,-0.1431,0.4156,-0.4117,-3.0237,rough,14.0,1,3.755
260,8.32,1.4345,-5.4817,-0.0431,0.2545,-0.5779,-2.5735,rough,14.0,1,3.585
270,8.64,1.2784,-5.6059,0.0886,-0.0317,-0.6337,-2.1417,rough,14.0,1,3.392
280,8.96,1.1600,-5.8135,0.2816,-0.1798,-0.7783,-1.9757,rough,14.0,1,3.155
290,9.28,1.1082,-5.9856,0.4611,-0.1795,-0.8778,-2.0171,rough,14.0,1,2.986
300,9.60,1.0955,-6.0307,0.4993,0.0656,-0.8470,-2.4348,rough,14.0,1,2.943
310,9.92,1.0847,-5.9879,0.4704,0.0540,-0.8499,-2.3512,rough,14.0,1,2.970
320,10.24,1.1011,-5.9060,0.3876,0.1032,-0.8510,-2.3489,rough,14.0,1,3.046
330,10.56,1.1503,-5.8764,0.3315,0.0067,-0.8400,-2.2487,rough,14.0,1,3.099
340,10.88,1.1386,-5.9019,0.3567,0.0635,-0.8538,-2.3289,rough,14.0,1,3.071
350,11.20,1.1229,-5.9074,0.3720,0.0896,-0.8493,-2.3535,rough,14.0,1,3.057
360,11.52,1.1358,-5.9002,0.3562,0.0945,-0.8422,-2.3754,rough,14.0,1,3.071
370,11.84,1.1433,-5.9044,0.3548,0.0743,-0.8496,-2.3526,rough,14.0,1,3.072
380,12.16,1.1421,-5.9011,0.3529,0.0776,-0.8475,-2.3561,rough,14.0,1,3.074
390,12.48,1.1341,-5.9015,0.3595,0.0776,-0.8512,-2.3444,rough,14.0,1,3.069
400,12.80,1.1234,-5.9002,0.3662,0.0848,-0.8518,-2.3401,rough,14.0,1,3.064
410,13.12,1.1115,-5.8974,0.3723,0.1029,-0.8460,-2.3556,rough,14.0,1,3.059
420,13.44,1.1023,-5.8964,0.3787,0.1030,-0.8483,-2.3432,rough,14.0,1,3.054
430,13.76,1.1068,-5.8948,0.3744,0.0750,-0.8490,-2.3058,rough,14.0,1,3.058
440,14.08,1.1094,-5.8973,0.3743,0.1073,-0.8526,-2.3544,rough,14.0,1,3.057
450,14.40,1.1170,-5.9014,0.3718,0.0930,-0.8500,-2.3476,rough,14.0,1,3.059
460,14.72,1.1122,-5.8920,0.3669,0.0535,-0.8380,-2.2821,rough,14.0,1,3.063
470,15.04,1.1257,-5.8970,0.3625,0.0665,-0.8500,-2.3175,rough,14.0,1,3.067
480,15.36,1.1357,-5.8982,0.3556,0.0361,-0.8535,-2.2767,rough,14.0,1,3.073
490,15.68,1.1446,-5.8930,0.3430,0.1070,-0.8312,-2.4185,rough,14.0,1,3.082
500,16.00,1.1412,-5.8809,0.3394,0.0055,-0.8385,-2.2481,rough,14.0,1,3.090
510,16.32,1.1428,-5.9023,0.3537,0.0627,-0.8510,-2.3331,rough,14.0,1,3.074
520,16.64,1.1334,-5.9061,0.3639,0.0767,-0.8513,-2.3469,rough,14.0,1,3.065
530,16.96,1.1380,-5.8959,0.3526,0.0560,-0.8481,-2.3180,rough,14.0,1,3.076
540,17.28,1.1414,-5.9033,0.3557,0.0859,-0.8512,-2.3673,rough,14.0,1,3.072
550,17.60,1.1430,-5.9033,0.3546,0.0646,-0.8527,-2.3358,rough,14.0,1,3.073
560,17.92,1.1376,-5.8970,0.3536,0.0630,-0.8473,-2.3284,rough,14.0,1,3.075
570,18.24,1.1373,-5.8996,0.3561,0.0629,-0.8520,-2.3261,rough,14.0,1,3.072
580,18.56,1.1346,-5.9013,0.3588,0.0795,-0.8495,-2.3489,rough,14.0,1,3.069
590,18.88,1.1324,-5.8975,0.3578,0.0702,-0.8485,-2.3321,rough,14.0,1,3.071
600,19.20,1.1292,-5.9014,0.3612,0.0674,-0.8423,-2.3238,rough,14.0,1,3.066
610,19.52,1.1420,-5.9033,0.3547,0.0780,-0.8490,-2.3561,rough,14.0,1,3.072
620,19.84,1.1469,-5.9043,0.3521,0.0806,-0.8495,-2.3673,rough,14.0,2,4.845
630,20.16,1.1431,-5.9028,0.3544,0.0439,-0.8547,-2.3035,rough,14.0,2,4.841
640,20.48,1.1411,-5.9096,0.3606,0.0587,-0.8501,-2.3326,rough,14.0,2,4.842
650,20.80,1.1470,-5.9023,0.3516,0.0653,-0.8562,-2.3406,rough,14.0,2,4.844
660,21.12,1.1428,-5.9111,0.3604,0.0713,-0.8523,-2.3496,rough,14.0,2,4.844
670,21.44,1.1455,-5.9094,0.3577,0.0646,-0.8517,-2.3458,rough,14.0,2,4.846
680,21.76,1.1463,-5.8907,0.3419,0.0463,-0.8434,-2.3114,rough,14.0,2,4.839
690,22.08,1.1458,-5.9153,0.3624,0.0624,-0.8515,-2.3494,rough,14.0,2,4.849
700,22.40,1.1467,-5.9368,0.3804,0.0381,-0.8515,-2.3394,rough,14.0,2,4.858
710,22.72,1.1471,-5.9138,0.3603,0.0740,-0.8506,-2.3680,rough,14.0,2,4.849
720,23.04,1.1462,-5.9022,0.3502,0.0860,-0.8476,-2.3713,rough,14.0,2,4.844
730,23.36,1.1438,-5.9157,0.3640,0.0697,-0.8487,-2.3596,rough,14.0,2,4.847
740,23.68,1.1497,-5.9039,0.3494,0.0765,-0.8483,-2.3638,rough,14.0,2,4.848
750,24.00,1.1447,-5.9022,0.3527,0.0509,-0.8543,-2.3167,rough,14.0,2,4.842
760,24.32,1.1355,-5.9041,0.3603,0.0639,-0.8535,-2.3315,rough,14.0,2,4.835
770,24.64,1.1461,-5.9094,0.3574,0.0615,-0.8521,-2.3428,rough,14.0,2,4.847
780,24.96,1.1481,-5.9052,0.3512,0.0725,-0.8470,-2.3568,rough,14.0,2,4.847
790,25.28,1.1477,-5.9073,0.3539,0.0680,-0.8488,-2.3505,rough,14.0,2,4.847
800,25.60,1.1452,-5.9092,0.3574,0.0750,-0.8491,-2.3618,rough,14.0,2,4.846
810,25.92,1.1483,-5.9003,0.3499,0.0364,-0.8596,-2.2975,rough,14.0,2,4.845
820,26.24,1.1504,-5.9073,0.3518,0.0346,-0.8504,-2.2892,rough,14.0,2,4.850
830,26.56,1.1406,-5.9045,0.3562,0.0713,-0.8503,-2.3494,rough,14.0,2,4.840
840,26.88,1.1453,-5.8971,0.3481,0.0524,-0.8484,-2.3222,rough,14.0,2,4.841
850,27.20,1.1441,-5.9055,0.3548,0.0773,-0.8510,-2.3570,rough,14.0,2,4.843
860,27.52,1.1458,-5.9086,0.3570,0.0766,-0.8548,-2.3690,rough,14.0,2,4.846
870,27.84,1.1426,-5.9020,0.3531,0.0808,-0.8494,-2.3590,rough,14.0,2,4.840
880,28.16,1.1422,-5.9114,0.3614,0.0692,-0.8490,-2.3525,rough,14.0,2,4.844
890,28.48,1.1466,-5.8996,0.3481,0.0410,-0.8460,-2.3043,rough,14.0,2,4.843
900,28.80,1.1398,-5.9148,0.3668,0.0644,-0.8523,-2.3452,rough,14.0,2,4.843
910,29.12,1.1465,-5.9056,0.3534,0.0740,-0.8496,-2.3574,rough,14.0,2,4.845
920,29.44,1.1372,-5.8938,0.3518,0.0099,-0.8552,-2.2538,rough,14.0,2,4.832
930,29.76,1.1462,-5.9065,0.3539,0.0753,-0.8517,-2.3566,rough,14.0,2,4.846
940,30.08,1.1462,-5.9096,0.3567,0.0701,-0.8478,-2.3561,rough,14.0,2,4.847
950,30.40,1.1404,-5.9047,0.3577,0.0651,-0.8531,-2.3358,rough,14.0,2,4.839
960,30.72,1.1470,-5.9033,0.3511,0.0761,-0.8496,-2.3582,rough,14.0,2,4.845
970,31.04,1.1461,-5.9081,0.3559,0.0725,-0.8519,-2.3547,rough,14.0,2,4.846
980,31.36,1.1440,-5.9023,0.3533,0.0505,-0.8547,-2.3139,rough,14.0,3,12.126
990,31.68,1.1608,-5.8989,0.3404,0.0911,-0.8349,-2.3781,rough,14.0,3,12.126
1000,32.00,1.2052,-5.8615,0.2898,0.1719,-0.7620,-2.4813,rough,14.0,3,12.097
1010,32.32,1.1774,-5.8771,0.3162,0.1262,-0.8019,-2.4233,rough,14.0,3,12.107
1020,32.64,1.1926,-5.8635,0.2981,0.1352,-0.7775,-2.4308,rough,14.0,3,12.097
1030,32.96,1.2070,-5.8461,0.2755,0.1527,-0.7383,-2.4527,rough,14.0,3,12.082
1040,33.28,1.1809,-5.8713,0.3099,0.1138,-0.7946,-2.4026,rough,14.0,3,12.102
1050,33.60,1.2210,-5.8292,0.2586,0.1362,-0.7328,-2.4208,rough,14.0,3,12.068
1060,33.92,1.2217,-5.8248,0.2542,0.1372,-0.7241,-2.4227,rough,14.0,3,12.064
1070,34.24,1.1884,-5.8584,0.2968,0.1061,-0.7804,-2.3884,rough,14.0,3,12.091
1080,34.56,1.2289,-5.8181,0.2462,0.1359,-0.7180,-2.4175,rough,14.0,3,12.059
1090,34.88,1.2300,-5.8129,0.2410,0.1348,-0.7091,-2.4160,rough,14.0,3,12.054
1100,35.20,1.1967,-5.8467,0.2838,0.1047,-0.7647,-2.3834,rough,14.0,3,12.081
1110,35.52,1.2405,-5.7996,0.2264,0.1292,-0.6953,-2.4034,rough,14.0,3,12.043
1120,35.84,1.2594,-5.7743,0.1957,0.1455,-0.6496,-2.4213,rough,14.0,3,12.021
1130,36.16,1.2211,-5.8085,0.2428,0.0938,-0.7163,-2.3580,rough,14.0,3,12.048
1140,36.48,1.2515,-5.7752,0.2021,0.1151,-0.6663,-2.3794,rough,14.0,3,12.021
1150,36.80,1.2790,-5.7489,0.1720,0.1899,-0.6395,-2.4859,rough,14.0,3,12.000
1160,37.12,1.2265,-5.7784,0.2247,0.1561,-0.7205,-2.4633,rough,14.0,3,12.019
1170,37.44,1.1763,-5.8361,0.2912,0.0757,-0.7983,-2.3561,rough,14.0,3,12.067
1180,37.76,1.2075,-5.8270,0.2642,0.0798,-0.7457,-2.3420,rough,14.0,3,12.064
1190,38.08,1.2706,-5.7947,0.2063,0.2487,-0.6505,-2.5757,rough,14.0,3,12.043
1200,38.40,1.2426,-5.7797,0.2124,0.1377,-0.6861,-2.4195,rough,14.0,3,12.023
1210,38.72,1.2219,-5.8036,0.2388,0.0817,-0.7145,-2.3420,rough,14.0,3,12.043
1220,39.04,1.2670,-5.7767,0.1945,0.1724,-0.6487,-2.4587,rough,14.0,3,12.025
1230,39.36,1.2470,-5.7911,0.2165,0.1518,-0.6802,-2.4361,rough,14.0,3,12.035
1240,39.68,1.1988,-5.8428,0.2799,0.1035,-0.7600,-2.3806,rough,14.0,3,12.078
1250,40.00,1.2246,-5.8142,0.2452,0.1204,-0.7167,-2.3973,rough,14.0,3,12.054
1260,40.32,1.2717,-5.7650,0.1843,0.1741,-0.6407,-2.4609,rough,14.0,3,12.014
1270,40.64,1.2349,-5.7910,0.2228,0.0936,-0.6934,-2.3523,rough,14.0,3,12.033
1280,40.96,1.2229,-5.8053,0.2397,0.0915,-0.7140,-2.3548,rough,14.0,3,12.045
1290,41.28,1.2842,-5.7420,0.1650,0.1402,-0.6420,-2.4043,rough,14.0,3,11.994
1300,41.60,1.2727,-5.7386,0.1758,0.3187,-0.6493,-2.7114,rough,14.0,3,11.989
1310,41.92,1.1782,-5.7467,0.2496,0.4299,-0.7778,-2.9773,rough,14.0,3,11.979
1320,42.24,1.0740,-5.6647,0.2419,0.4536,-0.6144,-2.9662,rough,14.0,3,11.880
1330,42.56,0.9274,-5.5451,0.1914,0.5869,-0.3820,3.0902,rough,14.0,3,11.738
1340,42.88,0.8001,-5.3550,0.0916,0.7856,-0.2728,2.8898,rough,14.0,3,11.530
1350,43.20,0.6479,-5.1437,0.0190,0.8585,-0.2026,2.4400,rough,14.0,3,11.299
1360,43.52,0.4756,-4.8433,-0.0565,0.7361,0.0704,2.1615,rough,14.0,3,10.978
1370,43.84,0.3708,-4.5094,-0.1265,0.7047,0.1307,1.8826,rough,14.0,3,10.633
1380,44.16,0.3251,-4.1695,-0.1946,0.6085,0.0980,1.6313,rough,14.0,3,10.290
1390,44.48,0.3329,-3.7710,-0.2531,0.4163,0.1720,1.4919,rough,14.0,3,9.896
1400,44.80,0.3797,-3.3645,-0.3227,0.1988,0.1108,1.3891,rough,14.0,3,9.500
1410,45.12,0.4707,-2.9759,-0.3287,0.1661,-0.1255,1.3474,rough,14.0,3,9.129
1420,45.44,0.5449,-2.5593,-0.2659,0.0861,-0.2037,1.3618,slope,18.0,3,8.730
1430,45.76,0.6332,-2.0821,-0.1318,0.0714,-0.3125,1.4810,slope,18.0,3,8.277
1440,46.08,0.6703,-1.6108,0.0112,0.0476,-0.2608,1.5211,slope,18.0,3,7.823
1450,46.40,0.6881,-1.1203,0.1234,0.0272,-0.1408,1.5969,slope,18.0,3,7.348
1460,46.72,0.6436,-0.6024,0.1927,-0.0167,-0.0813,1.7339,slope,18.0,3,6.833
1470,47.04,0.5278,-0.0684,0.2185,-0.0787,-0.0378,1.7963,rough,14.0,3,6.287
1480,47.36,0.4132,0.3843,0.2334,-0.1018,-0.0485,1.8151,rough,14.0,3,5.820
1490,47.68,0.3166,0.7770,0.2553,-0.0832,-0.0817,1.8172,rough,14.0,3,5.416
1500,48.00,0.2026,1.2293,0.3058,-0.0780,-0.1051,1.8409,slope,18.0,3,4.949
1510,48.32,0.0756,1.6540,0.3837,-0.0981,-0.1618,1.8559,rough,14.0,3,4.507
1520,48.64,-0.0347,1.9987,0.4206,-0.1515,-0.1021,1.8256,rough,14.0,3,4.146
1530,48.96,-0.1121,2.3391,0.4454,-0.1398,-0.0265,1.7561,rough,14.0,3,3.797
1540,49.28,-0.1524,2.7071,0.4238,0.0328,0.0178,1.7237,rough,14.0,3,3.429
1550,49.60,-0.1815,3.1160,0.3487,0.2532,0.1650,1.7697,rough,14.0,3,3.026
1560,49.92,-0.2415,3.4897,0.2728,0.3228,0.3081,1.8258,rough,14.0,3,2.650
1570,50.24,-0.2146,3.9093,0.0835,0.5422,0.2324,1.9114,slope,18.0,3,2.257
1580,50.56,-0.2894,4.3669,-0.0950,0.7080,0.1908,2.1292,slope,18.0,3,1.802
1590,50.88,-0.4669,4.8404,-0.3103,0.6909,0.2386,2.1984,rough,14.0,3,1.297
1600,51.20,-0.6520,5.2890,-0.5295,0.6925,0.2348,2.2448,rough,14.0,0,9.974
1610,51.52,-0.7631,5.6259,-0.6750,0.6668,-0.1606,2.4769,slope,18.0,0,10.323
1620,51.84,-0.8055,5.7939,-0.7037,0.3652,-0.6709,-3.1121,rough,14.0,0,10.490
1630,52.16,-0.8738,5.7834,-0.6571,-0.3214,-0.6557,-2.1318,rough,14.0,0,10.514
1640,52.48,-0.9638,5.5754,-0.4984,-0.4623,-0.5956,-1.8341,rough,14.0,0,10.378
1650,52.80,-1.0519,5.2827,-0.2993,-0.4386,-0.6044,-1.7465,rough,14.0,0,10.171
1660,53.12,-1.1168,4.9875,-0.0935,-0.3999,-0.6184,-1.6849,rough,14.0,0,9.955
1670,53.44,-1.1713,4.6720,0.1126,-0.3237,-0.5931,-1.6881,rough,14.0,0,9.720
1680,53.76,-1.2214,4.3477,0.2921,-0.2579,-0.4456,-1.6605,rough,14.0,0,9.481
1690,54.08,-1.2620,3.9860,0.4422,-0.2096,-0.4006,-1.6376,rough,14.0,0,9.212
1700,54.40,-1.2965,3.5340,0.5315,-0.1848,-0.0705,-1.6236,rough,14.0,0,8.875
1710,54.72,-1.3037,3.0677,0.5263,-0.1736,0.1380,-1.6025,slope,18.0,0,8.520
1720,55.04,-1.2429,2.6331,0.4592,-0.0698,0.2411,-1.2854,slope,18.0,0,8.154
1730,55.36,-1.0903,2.2099,0.3788,-0.0306,0.1415,-1.0934,slope,18.0,0,7.739
1740,55.68,-0.8948,1.8493,0.3496,0.0808,0.0369,-0.8420,slope,18.0,0,7.344
1750,56.00,-0.5908,1.5305,0.3268,0.0817,0.0274,-0.7296,rough,14.0,0,6.904
1760,56.32,-0.2393,1.2140,0.2937,0.1009,0.0958,-0.7227,slope,18.0,0,6.432
1770,56.64,0.1659,0.8472,0.2537,0.1042,0.0585,-0.7375,slope,18.0,0,5.886
1780,56.96,0.5290,0.5040,0.2489,0.1232,-0.0189,-0.7585,rough,14.0,0,5.387
1790,57.28,0.8434,0.2029,0.2615,0.1220,-0.0175,-0.7590,rough,14.0,0,4.953
1800,57.60,1.1657,-0.1073,0.2650,0.1232,0.0359,-0.7648,rough,14.0,0,4.506
1810,57.92,1.5171,-0.4395,0.2222,0.0757,0.1151,-0.7715,slope,18.0,0,4.023
1820,58.24,1.9150,-0.8351,0.1638,0.0768,0.0964,-0.7928,slope,18.0,0,3.463
1830,58.56,2.3056,-1.2660,0.0820,0.1159,0.1956,-0.8154,slope,18.0,0,2.881
1840,58.88,2.7104,-1.7166,-0.0844,0.1953,0.4575,-0.7844,rough,14.0,0,2.276
1850,59.20,2.9656,-2.0938,-0.2628,0.3413,0.2953,-0.7632,rough,14.0,0,1.826
1860,59.52,3.2259,-2.3917,-0.3257,0.4296,0.1468,-0.7804,slope,18.0,0,1.431
1870,59.84,3.4393,-2.6510,-0.3560,0.4568,-0.0351,-0.8156,slope,18.0,0,1.097
1880,60.16,3.6956,-2.9470,-0.3601,0.4392,0.0788,-0.8225,slope,18.0,1,6.975
1890,60.48,3.9557,-3.3044,-0.4564,0.3377,0.2270,-1.0558,rough,14.0,1,6.876
1900,60.80,4.1005,-3.6536,-0.5370,0.3527,0.1588,-1.1889,rough,14.0,1,6.726
1910,61.12,4.1924,-4.0187,-0.5597,0.3614,-0.0275,-1.3529,rough,14.0,1,6.545
1920,61.44,4.2265,-4.4056,-0.5473,0.3736,-0.1185,-1.5263,rough,14.0,1,6.322
1930,61.76,4.2066,-4.8111,-0.5052,0.3800,-0.1281,-1.6524,rough,14.0,1,6.061
1940,62.08,4.1832,-5.2561,-0.4941,0.1575,0.0509,-1.7168,rough,14.0,1,5.793
1950,62.40,4.1097,-5.6304,-0.4939,0.0352,-0.1442,-1.8279,rough,14.0,1,5.537
1960,62.72,4.0270,-6.0028,-0.4661,-0.1097,-0.2579,-1.8316,rough,14.0,1,5.290
1970,63.04,3.9720,-6.3573,-0.3854,-0.3120,-0.4515,-1.8429,rough,14.0,1,5.091
1980,63.36,3.8779,-6.6833,-0.2246,-0.2680,-0.5092,-1.8700,rough,14.0,1,4.884
1990,63.68,3.7830,-6.9707,-0.0402,-0.2107,-0.6018,-1.8645,rough,14.0,1,4.703
2000,64.00,3.6948,-7.1478,0.1076,-0.1121,-0.6539,-2.0346,slope,18.0,1,4.568
2010,64.32,3.5340,-7.3416,0.3032,0.0700,-0.7202,-2.2900,slope,18.0,1,4.365
2020,64.64,3.3770,-7.5274,0.5167,0.1281,-0.8067,-2.4430,slope,18.0,1,4.171
2030,64.96,3.1748,-7.7041,0.7619,0.1494,-0.8317,-2.6947,slope,18.0,1,3.940
2040,65.28,3.0027,-7.7388,0.9266,0.1832,-0.8090,-2.7258,rough,14.0,1,3.765
2050,65.60,2.9200,-7.7083,0.9753,0.2012,-0.8079,-2.7487,rough,14.0,1,3.689
2060,65.92,2.9163,-7.6088,0.9108,0.2163,-0.7984,-2.7734,rough,14.0,1,3.704
2070,66.24,3.0003,-7.4506,0.7373,0.2038,-0.7908,-2.7584,rough,14.0,1,3.820
2080,66.56,3.1305,-7.2708,0.5161,-0.1434,-0.7962,-2.3020,rough,14.0,1,3.992
2090,66.88,3.2972,-7.1133,0.3008,-0.5129,-0.5782,-1.6177,slope,18.0,1,4.196
2100,67.20,3.3664,-6.9790,0.1758,-0.5650,-0.4530,-1.3667,slope,18.0,1,4.304
2110,67.52,3.4073,-6.9501,0.1368,-0.4941,-0.5091,-1.4509,slope,18.0,1,4.352
2120,67.84,3.4375,-7.0363,0.1689,-0.4833,-0.4831,-1.5119,slope,18.0,1,4.353
2130,68.16,3.4585,-7.2148,0.2652,-0.4773,-0.5155,-1.4872,rough,14.0,1,4.323
2140,68.48,3.4847,-7.4096,0.3673,-0.4130,-0.5705,-1.5455,rough,14.0,1,4.301
2150,68.80,3.4967,-7.5817,0.4690,-0.3207,-0.6101,-1.6652,rough,14.0,1,4.279
2160,69.12,3.4931,-7.7941,0.6147,-0.1427,-0.7063,-1.8950,rough,14.0,1,4.242
2170,69.44,3.4550,-7.9600,0.7631,-0.1879,-0.7846,-1.8422,rough,14.0,1,4.185
2180,69.76,3.4436,-8.1145,0.8873,-0.3988,-0.6795,-1.5836,rough,14.0,1,4.162
2190,70.08,3.4723,-8.2728,0.9866,-0.5026,-0.6292,-1.4625,rough,14.0,1,4.185
2200,70.40,3.5418,-8.3937,1.0369,-0.5368,-0.6432,-1.4127,rough,14.0,1,4.254
2210,70.72,3.6485,-8.4273,1.0053,-0.4810,-0.6846,-1.4768,rough,14.0,1,4.361
2220,71.04,3.8043,-8.4412,0.9063,-0.3194,-0.7811,-1.8262,rough,14.0,1,4.517
2230,71.36,3.8575,-8.5037,0.9131,-0.1376,-0.7908,-2.1485,rough,14.0,1,4.572
2240,71.68,3.8104,-8.6237,1.0028,-0.1430,-0.7981,-2.3146,rough,14.0,1,4.530
2250,72.00,3.7480,-8.7328,1.1057,-0.1697,-0.8624,-2.4271,rough,14.0,1,4.476
2260,72.32,3.7611,-8.7452,1.0991,-0.0450,-0.8756,-2.5798,rough,14.0,1,4.490
2270,72.64,3.8280,-8.6937,1.0095,0.1190,-0.8206,-2.7645,rough,14.0,1,4.553
2280,72.96,3.9004,-8.6670,0.9487,0.4115,-0.6398,2.9527,rough,14.0,1,4.623
2290,73.28,3.8106,-8.5924,0.9760,0.5959,-0.5688,2.6895,rough,14.0,1,4.529
2300,73.60,3.6437,-8.4597,1.0338,0.6556,-0.4690,2.6912,rough,14.0,1,4.357
2310,73.92,3.4220,-8.2003,0.9635,0.7051,-0.2947,2.8872,slope,18.0,1,4.137
2320,74.24,3.2474,-7.9918,0.9170,0.6875,-0.5967,2.9531,slope,18.0,1,3.976
2330,74.56,3.0992,-7.7577,0.8615,0.7550,-0.4333,2.6503,rough,14.0,1,3.857
2340,74.88,3.0412,-7.4434,0.6992,0.7247,-0.4069,2.6515,rough,14.0,1,3.862
2350,75.20,3.0643,-7.1479,0.4946,0.6195,-0.4960,2.8980,rough,14.0,1,3.964
2360,75.52,3.0544,-6.8506,0.2893,0.5940,-0.5240,3.0085,rough,14.0,1,4.055
2370,75.84,2.9036,-6.5471,0.1348,0.6776,-0.3765,2.9059,rough,14.0,1,4.041
2380,76.16,2.7342,-6.1925,-0.1087,0.7050,-0.2663,-3.1190,rough,14.0,1,4.067
2390,76.48,2.7428,-5.8169,-0.3521,1.2412,-0.3531,2.5628,rough,14.0,1,4.286
2400,76.80,2.6779,-5.2786,-0.7088,1.2929,0.3313,2.1103,rough,14.0,1,4.576
2410,77.12,2.8067,-4.8395,-0.7469,1.3821,0.4198,1.6066,rough,14.0,1,4.973
2420,77.44,3.0429,-4.7263,-0.6953,1.4100,0.6012,1.6771,rough,14.0,1,5.220
2430,77.76,3.2249,-4.8719,-0.7175,1.2620,0.0874,1.6743,rough,14.0,1,5.255
2440,78.08,3.2656,-4.9216,-0.7412,1.4001,-0.1379,0.8316,rough,14.0,1,5.253
2450,78.40,3.0508,-4.9657,-0.7930,1.5582,-0.2282,0.3349,rough,14.0,1,5.063
2460,78.72,2.9662,-4.9086,-0.8095,1.6090,-0.2268,-0.1345,rough,14.0,1,5.039
2470,79.04,2.8465,-4.8586,-0.8527,2.2830,-0.0271,-1.0245,rough,14.0,1,4.987
2480,79.36,2.6150,-4.6240,-0.9626,-2.8609,-0.0994,-1.1120,rough,14.0,1,4.998
2490,79.68,2.4504,-4.3915,-0.9913,-2.8696,-0.0888,-0.9582,rough,14.0,1,5.069
2500,80.00,2.2785,-4.1821,-0.9959,-2.9486,0.0036,-0.9488,rough,14.0,1,5.132
2510,80.32,2.0884,-3.9488,-1.0020,-2.9625,-0.0147,-0.8630,rough,14.0,1,5.219
2520,80.64,1.8937,-3.7478,-1.0083,-2.9035,0.0267,-0.7192,rough,14.0,1,5.291
2530,80.96,1.6633,-3.6513,-0.9668,-2.8872,0.3446,-0.3850,rough,14.0,1,5.268
2540,81.28,1.4139,-3.5523,-0.8720,-2.9518,0.4560,-0.3482,rough,14.0,1,5.250
2550,81.60,1.1633,-3.4577,-0.7617,-3.0532,0.5524,-0.3303,rough,14.0,1,5.242
2560,81.92,0.8968,-3.3806,-0.6377,-3.0935,0.4035,-0.2287,rough,14.0,1,5.226
2570,82.24,0.5995,-3.3124,-0.5383,-3.1250,0.2716,-0.2142,rough,14.0,1,5.209
2580,82.56,0.2962,-3.2404,-0.4592,3.1168,0.2005,-0.1925,rough,14.0,1,5.211
2590,82.88,-0.0234,-3.1698,-0.4012,3.0415,0.1902,-0.1854,rough,14.0,1,5.229
2600,83.20,-0.3371,-3.1066,-0.3144,3.0181,0.3743,-0.1896,rough,14.0,1,5.260
2610,83.52,-0.6530,-3.0449,-0.1873,2.9972,0.4020,-0.1652,rough,14.0,1,5.309
2620,83.84,-1.0037,-2.9853,-0.0481,2.9805,0.3591,-0.1538,rough,14.0,1,5.376
2630,84.16,-1.3519,-2.9309,0.1112,2.9750,0.4871,-0.1308,rough,14.0,1,5.460
2640,84.48,-1.6651,-2.8625,0.1911,2.6557,0.1753,-0.0526,rough,14.0,1,5.573
2650,84.80,-1.9726,-2.8272,0.3054,2.6952,0.6166,-0.0598,rough,14.0,1,5.668
2660,85.12,-2.2145,-2.8105,0.4105,2.7084,0.5787,0.2747,rough,14.0,1,5.743
2670,85.44,-2.2700,-2.8082,0.4315,-3.0766,0.7795,1.0012,rough,14.0,1,5.760
2680,85.76,-2.3013,-2.7802,0.4319,-2.9219,0.7640,1.1954,rough,14.0,1,5.795
2690,86.08,-2.3401,-2.7732,0.4457,-3.1410,0.7737,0.8610,rough,14.0,1,5.813
2700,86.40,-2.3610,-2.7346,0.4268,3.0231,0.7498,0.6686,rough,14.0,1,5.856
2710,86.72,-2.3567,-2.7216,0.4187,-3.1204,0.7483,0.8867,rough,14.0,1,5.867
2720,87.04,-2.2939,-2.7592,0.4108,-2.8255,0.6286,1.4139,rough,14.0,1,5.814
2730,87.36,-2.2912,-2.7858,0.4317,-2.8102,0.6978,1.4003,rough,14.0,1,5.787
2740,87.68,-2.2778,-2.7136,0.3708,-3.1330,0.7395,0.9354,rough,14.0,1,5.853
2750,88.00,-2.2293,-2.6668,0.3099,2.8501,0.6380,0.3692,rough,14.0,1,5.885
2760,88.32,-2.2136,-2.6502,0.2922,2.8942,0.6479,0.4954,rough,14.0,1,5.897
2770,88.64,-2.0693,-2.6684,0.2449,-2.9437,0.5721,1.4308,rough,14.0,1,5.845
2780,88.96,-1.9769,-2.6032,0.1876,-2.5903,0.1418,1.8949,rough,14.0,1,5.888
2790,89.28,-1.9799,-2.5596,0.1669,-2.7290,0.2831,1.9035,rough,14.0,1,5.931
2800,89.60,-1.9446,-2.4618,0.1024,-2.8688,0.3201,1.4912,rough,14.0,1,6.019
2810,89.92,-1.9419,-2.4157,0.0914,-3.0146,0.5587,1.5354,rough,14.0,1,6.064
