step,time_s,x,y,z,roll,pitch,yaw,terrain,speed,target_idx,dist_to_target
10,0.32,0.9450,-0.8122,0.1596,0.1924,0.0193,-0.2536,slope,18.0,0,5.754
20,0.64,1.1916,-0.8717,0.1601,0.1503,0.0453,-0.2745,rough,14.0,0,5.528
30,0.96,1.5068,-0.9925,0.1443,0.1418,0.0559,-0.4685,slope,18.0,0,5.213
40,1.28,1.9171,-1.2324,0.1052,0.0866,0.1232,-0.6620,slope,18.0,0,4.750
50,1.60,2.3276,-1.6090,0.0065,0.1791,0.2654,-0.7420,slope,18.0,0,4.193
60,1.92,2.7134,-2.0102,-0.1801,0.2468,0.5784,-0.6454,rough,14.0,0,3.637
70,2.24,2.9499,-2.2684,-0.3278,0.2677,0.1855,-0.7022,slope,18.0,0,3.287
80,2.56,3.2705,-2.6564,-0.3874,0.4136,0.1174,-0.7929,slope,18.0,0,2.789
90,2.88,3.5848,-3.0511,-0.4134,0.4366,-0.0378,-0.9041,slope,18.0,0,2.293
100,3.20,3.9168,-3.4854,-0.5213,0.4890,0.2021,-0.6874,rough,14.0,0,1.764
110,3.52,4.1202,-3.7400,-0.5434,0.4084,-0.0923,-0.8613,slope,18.0,0,1.452
120,3.84,4.3560,-3.9951,-0.4961,0.2849,-0.2143,-0.8361,rough,14.0,0,1.120
130,4.16,4.5196,-4.1779,-0.4350,0.2443,-0.3217,-0.7467,rough,14.0,1,12.201
140,4.48,4.6187,-4.2833,-0.3982,0.0922,-0.3464,-0.3770,rough,14.0,1,12.330
150,4.80,4.5075,-4.3018,-0.4373,-0.0199,-0.3716,-0.0830,rough,14.0,1,12.316
160,5.12,4.3543,-4.3160,-0.4954,-0.0522,-0.3782,-0.0090,rough,14.0,1,12.287
170,5.44,4.3723,-4.3356,-0.4824,0.0007,-0.3848,-0.1013,rough,14.0,1,12.311
180,5.76,4.5066,-4.3602,-0.4340,-0.0345,-0.3788,-0.0820,rough,14.0,1,12.372
190,6.08,4.4903,-4.3715,-0.4387,-0.0618,-0.3761,-0.0003,rough,14.0,1,12.378
200,6.40,4.3556,-4.3718,-0.4906,-0.0745,-0.3696,0.0572,rough,14.0,1,12.341
210,6.72,4.3954,-4.3577,-0.4747,-0.0961,-0.3623,0.1319,rough,14.0,1,12.339
220,7.04,4.5374,-4.3270,-0.4220,-0.1024,-0.3735,0.1134,rough,14.0,1,12.349
230,7.36,4.6171,-4.2644,-0.3937,-0.1898,-0.3443,0.3872,rough,14.0,1,12.312
240,7.68,4.7609,-4.1524,-0.3492,-0.2401,-0.2767,0.6683,slope,18.0,1,12.248
250,8.00,5.0449,-3.9592,-0.2799,-0.1323,-0.2104,0.9671,rough,14.0,1,12.155
260,8.32,5.1630,-3.6274,-0.2266,-0.2720,-0.1344,1.2829,slope,18.0,1,11.883
270,8.64,5.2045,-3.1455,-0.2310,-0.3285,0.0913,1.4717,rough,14.0,1,11.448
280,8.96,5.1953,-2.7730,-0.2551,-0.2127,0.0796,1.6654,rough,14.0,1,11.099
290,9.28,5.1391,-2.3961,-0.2735,-0.0324,0.0336,1.8078,rough,14.0,1,10.729
300,9.60,5.0337,-2.0322,-0.2604,-0.0573,-0.0764,1.8898,slope,18.0,1,10.352
310,9.92,4.8610,-1.5403,-0.2224,-0.0416,-0.0261,1.9153,slope,18.0,1,9.832
320,10.24,4.6790,-1.0666,-0.2447,-0.1503,0.1042,1.8644,rough,14.0,1,9.325
330,10.56,4.5662,-0.6736,-0.2810,-0.1529,0.0902,1.8457,rough,14.0,1,8.919
340,10.88,4.4929,-0.3503,-0.2634,-0.0496,-0.2116,1.8373,rough,14.0,1,8.594
350,11.20,4.4481,0.0225,-0.2235,0.2199,-0.2578,1.7458,rough,14.0,1,8.235
360,11.52,4.4296,0.4408,-0.1971,0.4166,0.0114,1.7255,rough,14.0,1,7.849
370,11.84,4.4137,0.7939,-0.2126,0.4261,0.0887,1.6319,rough,14.0,1,7.525
380,12.16,4.4163,1.1560,-0.2941,0.4168,0.2630,1.6107,rough,14.0,1,7.205
390,12.48,4.4415,1.4758,-0.3994,0.4404,0.2717,1.5469,rough,14.0,1,6.937
400,12.80,4.4375,1.8292,-0.5475,0.2118,0.3509,1.5418,rough,14.0,1,6.630
410,13.12,4.4468,2.1457,-0.6525,0.1921,0.2898,1.6015,rough,14.0,1,6.366
420,13.44,4.4448,2.4507,-0.7226,0.0857,0.0467,1.7726,rough,14.0,1,6.110
430,13.76,4.4031,2.8009,-0.7291,0.1962,0.0543,1.9583,rough,14.0,1,5.799
440,14.08,4.2934,3.0879,-0.7128,0.1642,-0.1754,2.0838,rough,14.0,1,5.502
450,14.40,4.0983,3.4189,-0.6778,0.1601,-0.1089,2.2022,slope,18.0,1,5.120
460,14.72,3.7803,3.8414,-0.7644,0.1626,0.2906,2.2592,slope,18.0,1,4.592
470,15.04,3.4611,4.2584,-0.9040,0.1571,0.2073,2.1887,slope,18.0,1,4.066
480,15.36,3.2124,4.6729,-0.9535,0.2282,0.0631,2.1107,rough,14.0,1,3.586
490,15.68,3.0145,5.0262,-0.9654,0.2553,0.0091,2.1471,rough,14.0,1,3.186
500,16.00,2.7290,5.4061,-1.0312,0.1321,0.2283,2.2149,rough,14.0,1,2.711
510,16.32,2.4619,5.7388,-1.1660,0.0431,0.1859,2.1139,rough,14.0,1,2.285
520,16.64,2.2183,6.0846,-1.2362,-0.1565,0.1774,2.0836,rough,14.0,1,1.863
530,16.96,2.0690,6.3257,-1.2193,-0.1272,-0.2880,2.1606,rough,14.0,1,1.583
540,17.28,1.8970,6.5994,-1.1691,-0.0772,-0.2116,2.1728,rough,14.0,1,1.265
550,17.60,1.7379,6.8151,-1.1123,-0.1319,-0.2228,2.1598,rough,14.0,2,1.000
560,17.92,1.4813,7.1235,-1.1304,-0.4202,0.0370,2.0937,rough,14.0,2,15.258
570,18.24,1.2648,7.4581,-1.1137,-0.3414,-0.1034,2.1503,rough,14.0,2,15.394
580,18.56,1.0269,7.7281,-1.0591,-0.5262,-0.3611,2.2786,rough,14.0,2,15.473
590,18.88,0.8039,7.9378,-0.9672,-0.4592,-0.4302,2.4048,rough,14.0,2,15.519
600,19.20,0.5480,8.1455,-0.8454,-0.4649,-0.3052,2.4009,rough,14.0,2,15.551
610,19.52,0.2575,8.3650,-0.7662,-0.5013,-0.1895,2.4586,slope,18.0,2,15.582
620,19.84,-0.0091,8.5753,-0.7402,-0.4121,-0.1048,2.5064,rough,14.0,2,15.625
630,20.16,-0.2422,8.6861,-0.7390,-0.5058,0.0563,2.5810,rough,14.0,2,15.605
640,20.48,-0.4405,8.7567,-0.7535,-0.5253,0.0623,2.7315,rough,14.0,2,15.571
650,20.80,-0.4640,8.7689,-0.7503,-0.4307,0.1448,3.0045,rough,14.0,2,15.570
660,21.12,-0.4733,8.7539,-0.7538,-0.4136,0.1582,3.0928,rough,14.0,2,15.553
670,21.44,-0.4729,8.7461,-0.7561,-0.4114,0.1562,3.0994,rough,14.0,2,15.546
680,21.76,-0.4741,8.7383,-0.7620,-0.4111,0.1696,3.0949,rough,14.0,2,15.539
690,22.08,-0.4759,8.7309,-0.7699,-0.4118,0.1942,3.0851,rough,14.0,2,15.531
700,22.40,-0.4718,8.7206,-0.7658,-0.4064,0.1529,3.1042,rough,14.0,2,15.524
710,22.72,-0.4735,8.7123,-0.7728,-0.4069,0.1699,3.0963,rough,14.0,2,15.516
720,23.04,-0.4753,8.7046,-0.7808,-0.4076,0.1945,3.0861,rough,14.0,2,15.509
730,23.36,-0.4713,8.6941,-0.7771,-0.4024,0.1545,3.1042,rough,14.0,2,15.501
740,23.68,-0.4732,8.6857,-0.7843,-0.4030,0.1722,3.0961,rough,14.0,2,15.493
750,24.00,-0.4752,8.6710,-0.7929,-0.4052,0.1764,3.0825,rough,14.0,2,15.479
760,24.32,-0.4877,8.6323,-0.8092,-0.4302,0.0985,3.0151,rough,14.0,2,15.439
770,24.64,-0.4976,8.6073,-0.8258,-0.4411,0.0413,2.9390,rough,14.0,2,15.413
780,24.96,-0.4982,8.6084,-0.8252,-0.4414,0.0446,2.9440,rough,14.0,2,15.413
790,25.28,-0.4984,8.6085,-0.8252,-0.4416,0.0449,2.9445,rough,14.0,2,15.413
800,25.60,-0.4984,8.6085,-0.8252,-0.4416,0.0451,2.9445,rough,14.0,2,15.413
810,25.92,-0.4985,8.6085,-0.8252,-0.4416,0.0453,2.9445,rough,14.0,2,15.413
820,26.24,-0.4985,8.6085,-0.8253,-0.4416,0.0454,2.9445,rough,14.0,2,15.413
830,26.56,-0.4985,8.6085,-0.8253,-0.4415,0.0456,2.9445,rough,14.0,2,15.413
840,26.88,-0.4985,8.6084,-0.8254,-0.4415,0.0458,2.9445,rough,14.0,2,15.413
850,27.20,-0.4985,8.6084,-0.8254,-0.4415,0.0460,2.9444,rough,14.0,2,15.413
860,27.52,-0.4985,8.6084,-0.8254,-0.4415,0.0462,2.9444,rough,14.0,2,15.413
870,27.84,-0.4985,8.6084,-0.8255,-0.4415,0.0464,2.9444,rough,14.0,2,15.413
880,28.16,-0.4986,8.6084,-0.8255,-0.4415,0.0465,2.9443,rough,14.0,2,15.413
890,28.48,-0.4986,8.6084,-0.8255,-0.4415,0.0467,2.9443,rough,14.0,2,15.413
900,28.80,-0.4986,8.6084,-0.8256,-0.4414,0.0469,2.9443,rough,14.0,2,15.413
910,29.12,-0.4986,8.6084,-0.8256,-0.4414,0.0471,2.9443,rough,14.0,2,15.413
920,29.44,-0.4986,8.6083,-0.8257,-0.4414,0.0473,2.9442,rough,14.0,2,15.413
930,29.76,-0.4986,8.6083,-0.8257,-0.4414,0.0475,2.9442,rough,14.0,2,15.413
940,30.08,-0.4986,8.6083,-0.8257,-0.4414,0.0477,2.9442,rough,14.0,2,15.413
950,30.40,-0.4986,8.6083,-0.8258,-0.4414,0.0479,2.9441,rough,14.0,2,15.413
960,30.72,-0.4987,8.6083,-0.8258,-0.4414,0.0480,2.9441,rough,14.0,2,15.413
970,31.04,-0.4987,8.6083,-0.8258,-0.4413,0.0482,2.9441,rough,14.0,2,15.413
980,31.36,-0.4987,8.6083,-0.8259,-0.4413,0.0484,2.9441,rough,14.0,3,15.650
990,31.68,-0.4987,8.6083,-0.8259,-0.4413,0.0486,2.9440,rough,14.0,3,15.650
1000,32.00,-0.4987,8.6083,-0.8259,-0.4413,0.0488,2.9440,rough,14.0,3,15.650
1010,32.32,-0.4987,8.6083,-0.8260,-0.4413,0.0490,2.9440,rough,14.0,3,15.650
1020,32.64,-0.4987,8.6083,-0.8260,-0.4413,0.0492,2.9439,rough,14.0,3,15.650
1030,32.96,-0.4987,8.6083,-0.8260,-0.4412,0.0494,2.9439,rough,14.0,3,15.650
1040,33.28,-0.4987,8.6082,-0.8261,-0.4412,0.0496,2.9439,rough,14.0,3,15.650
1050,33.60,-0.4987,8.6082,-0.8261,-0.4412,0.0498,2.9438,rough,14.0,3,15.650
1060,33.92,-0.4988,8.6082,-0.8261,-0.4412,0.0500,2.9438,rough,14.0,3,15.650
1070,34.24,-0.4988,8.6082,-0.8262,-0.4412,0.0502,2.9438,rough,14.0,3,15.650
1080,34.56,-0.4988,8.6082,-0.8262,-0.4412,0.0504,2.9437,rough,14.0,3,15.650
1090,34.88,-0.4988,8.6082,-0.8262,-0.4412,0.0506,2.9437,rough,14.0,3,15.650
1100,35.20,-0.4988,8.6082,-0.8263,-0.4411,0.0508,2.9437,rough,14.0,3,15.650
1110,35.52,-0.4988,8.6082,-0.8263,-0.4411,0.0510,2.9436,rough,14.0,3,15.650
1120,35.84,-0.4988,8.6082,-0.8263,-0.4411,0.0512,2.9436,rough,14.0,3,15.650
1130,36.16,-0.4988,8.6082,-0.8264,-0.4411,0.0514,2.9436,rough,14.0,3,15.650
1140,36.48,-0.4988,8.6082,-0.8264,-0.4411,0.0516,2.9436,rough,14.0,3,15.650
1150,36.80,-0.4988,8.6082,-0.8264,-0.4411,0.0518,2.9435,rough,14.0,3,15.650
1160,37.12,-0.4989,8.6082,-0.8265,-0.4410,0.0520,2.9435,rough,14.0,3,15.650
1170,37.44,-0.4989,8.6082,-0.8265,-0.4410,0.0522,2.9435,rough,14.0,3,15.650
1180,37.76,-0.4989,8.6082,-0.8265,-0.4410,0.0524,2.9434,rough,14.0,3,15.650
1190,38.08,-0.4989,8.6082,-0.8266,-0.4410,0.0526,2.9434,rough,14.0,3,15.650
1200,38.40,-0.4989,8.6082,-0.8266,-0.4410,0.0528,2.9434,rough,14.0,3,15.650
1210,38.72,-0.4989,8.6082,-0.8267,-0.4410,0.0530,2.9433,rough,14.0,3,15.650
1220,39.04,-0.4989,8.6082,-0.8267,-0.4410,0.0532,2.9433,rough,14.0,3,15.650
1230,39.36,-0.4989,8.6082,-0.8267,-0.4409,0.0534,2.9432,rough,14.0,3,15.650
1240,39.68,-0.4989,8.6082,-0.8268,-0.4409,0.0536,2.9432,rough,14.0,3,15.650
1250,40.00,-0.4989,8.6082,-0.8268,-0.4409,0.0538,2.9432,rough,14.0,3,15.650
1260,40.32,-0.4989,8.6082,-0.8268,-0.4409,0.0540,2.9431,rough,14.0,3,15.650
1270,40.64,-0.4990,8.6082,-0.8269,-0.4409,0.0542,2.9431,rough,14.0,3,15.650
1280,40.96,-0.4990,8.6082,-0.8269,-0.4409,0.0544,2.9431,rough,14.0,3,15.650
1290,41.28,-0.4990,8.6082,-0.8269,-0.4409,0.0547,2.9430,rough,14.0,3,15.650
1300,41.60,-0.4990,8.6082,-0.8270,-0.4408,0.0549,2.9430,rough,14.0,3,15.650
1310,41.92,-0.4990,8.6082,-0.8270,-0.4408,0.0551,2.9430,rough,14.0,3,15.650
1320,42.24,-0.4990,8.6082,-0.8270,-0.4408,0.0553,2.9429,rough,14.0,3,15.650
1330,42.56,-0.4990,8.6082,-0.8271,-0.4408,0.0555,2.9429,rough,14.0,3,15.650
1340,42.88,-0.4990,8.6082,-0.8271,-0.4408,0.0557,2.9429,rough,14.0,3,15.650
1350,43.20,-0.4990,8.6082,-0.8271,-0.4408,0.0559,2.9428,rough,14.0,0,14.370
1360,43.52,-0.4990,8.6082,-0.8272,-0.4407,0.0561,2.9428,rough,14.0,0,14.370
1370,43.84,-0.4990,8.6082,-0.8272,-0.4407,0.0563,2.9428,rough,14.0,0,14.370
1380,44.16,-0.4990,8.6082,-0.8272,-0.4407,0.0566,2.9427,rough,14.0,0,14.370
1390,44.48,-0.4991,8.6082,-0.8273,-0.4407,0.0568,2.9427,rough,14.0,0,14.370
1400,44.80,-0.4991,8.6082,-0.8273,-0.4407,0.0570,2.9426,rough,14.0,0,14.370
1410,45.12,-0.4991,8.6082,-0.8273,-0.4407,0.0572,2.9426,rough,14.0,0,14.370
1420,45.44,-0.4991,8.6082,-0.8274,-0.4407,0.0574,2.9426,rough,14.0,0,14.370
1430,45.76,-0.4991,8.6082,-0.8274,-0.4406,0.0576,2.9425,rough,14.0,0,14.370
1440,46.08,-0.4991,8.6082,-0.8274,-0.4406,0.0578,2.9425,rough,14.0,0,14.370
1450,46.40,-0.4991,8.6082,-0.8275,-0.4406,0.0581,2.9425,rough,14.0,0,14.370
1460,46.72,-0.4991,8.6082,-0.8275,-0.4406,0.0583,2.9424,rough,14.0,0,14.370
1470,47.04,-0.4991,8.6082,-0.8275,-0.4406,0.0585,2.9424,rough,14.0,0,14.370
1480,47.36,-0.4991,8.6082,-0.8276,-0.4406,0.0587,2.9423,rough,14.0,0,14.370
1490,47.68,-0.4991,8.6082,-0.8276,-0.4406,0.0589,2.9423,rough,14.0,0,14.370
1500,48.00,-0.4991,8.6082,-0.8276,-0.4405,0.0592,2.9423,rough,14.0,0,14.370
1510,48.32,-0.4991,8.6082,-0.8277,-0.4405,0.0594,2.9422,rough,14.0,0,14.370
1520,48.64,-0.4992,8.6082,-0.8277,-0.4405,0.0596,2.9422,rough,14.0,0,14.370
1530,48.96,-0.4992,8.6082,-0.8277,-0.4405,0.0598,2.9421,rough,14.0,0,14.370
1540,49.28,-0.4992,8.6082,-0.8278,-0.4405,0.0600,2.9421,rough,14.0,0,14.370
1550,49.60,-0.4992,8.6082,-0.8278,-0.4405,0.0602,2.9421,rough,14.0,0,14.370
1560,49.92,-0.4992,8.6082,-0.8278,-0.4404,0.0605,2.9420,rough,14.0,0,14.370
1570,50.24,-0.4992,8.6082,-0.8279,-0.4404,0.0607,2.9420,rough,14.0,0,14.370
1580,50.56,-0.4992,8.6082,-0.8279,-0.4404,0.0609,2.9420,rough,14.0,0,14.370
1590,50.88,-0.4992,8.6082,-0.8279,-0.4404,0.0611,2.9419,rough,14.0,0,14.370
1600,51.20,-0.4992,8.6082,-0.8280,-0.4404,0.0614,2.9419,rough,14.0,0,14.370
1610,51.52,-0.4992,8.6082,-0.8280,-0.4404,0.0616,2.9418,rough,14.0,0,14.370
1620,51.84,-0.4992,8.6082,-0.8280,-0.4404,0.0618,2.9418,rough,14.0,0,14.370
1630,52.16,-0.4992,8.6082,-0.8281,-0.4403,0.0620,2.9418,rough,14.0,0,14.370
1640,52.48,-0.4992,8.6082,-0.8281,-0.4403,0.0623,2.9417,rough,14.0,0,14.371
1650,52.80,-0.4993,8.6082,-0.8281,-0.4403,0.0625,2.9417,rough,14.0,0,14.371
1660,53.12,-0.4993,8.6082,-0.8282,-0.4403,0.0627,2.9416,rough,14.0,0,14.371
1670,53.44,-0.4993,8.6082,-0.8282,-0.4403,0.0629,2.9416,rough,14.0,0,14.371
1680,53.76,-0.4993,8.6082,-0.8282,-0.4403,0.0632,2.9416,rough,14.0,0,14.371
1690,54.08,-0.4993,8.6082,-0.8283,-0.4403,0.0634,2.9415,rough,14.0,0,14.371
1700,54.40,-0.4993,8.6082,-0.8283,-0.4402,0.0636,2.9415,rough,14.0,0,14.371
1710,54.72,-0.4993,8.6082,-0.8283,-0.4402,0.0638,2.9414,rough,14.0,1,14.371
1720,55.04,-0.4993,8.6082,-0.8284,-0.4402,0.0641,2.9414,rough,14.0,1,1.874
1730,55.36,-0.4993,8.6082,-0.8284,-0.4402,0.0643,2.9413,rough,14.0,1,1.874
1740,55.68,-0.4993,8.6082,-0.8284,-0.4402,0.0645,2.9413,rough,14.0,1,1.874
1750,56.00,-0.4993,8.6082,-0.8285,-0.4402,0.0647,2.9413,rough,14.0,1,1.874
1760,56.32,-0.4993,8.6082,-0.8285,-0.4402,0.0650,2.9412,rough,14.0,1,1.874
1770,56.64,-0.4993,8.6082,-0.8285,-0.4401,0.0652,2.9412,rough,14.0,1,1.874
1780,56.96,-0.4993,8.6083,-0.8286,-0.4401,0.0654,2.9411,rough,14.0,1,1.874
1790,57.28,-0.4994,8.6083,-0.8286,-0.4401,0.0657,2.9411,rough,14.0,1,1.874
1800,57.60,-0.4994,8.6083,-0.8286,-0.4401,0.0659,2.9411,rough,14.0,1,1.874
1810,57.92,-0.4994,8.6083,-0.8287,-0.4401,0.0661,2.9410,rough,14.0,1,1.874
1820,58.24,-0.4994,8.6083,-0.8287,-0.4401,0.0663,2.9410,rough,14.0,1,1.874
1830,58.56,-0.4994,8.6083,-0.8287,-0.4401,0.0666,2.9409,rough,14.0,1,1.874
1840,58.88,-0.4994,8.6083,-0.8288,-0.4400,0.0668,2.9409,rough,14.0,1,1.874
1850,59.20,-0.4994,8.6083,-0.8288,-0.4400,0.0670,2.9408,rough,14.0,1,1.874
1860,59.52,-0.4994,8.6083,-0.8288,-0.4400,0.0673,2.9408,rough,14.0,1,1.874
1870,59.84,-0.4994,8.6083,-0.8289,-0.4400,0.0675,2.9408,rough,14.0,1,1.874
1880,60.16,-0.4994,8.6083,-0.8289,-0.4400,0.0677,2.9407,rough,14.0,1,1.874
1890,60.48,-0.4994,8.6083,-0.8289,-0.4400,0.0680,2.9407,rough,14.0,1,1.874
1900,60.80,-0.4994,8.6083,-0.8290,-0.4400,0.0682,2.9406,rough,14.0,1,1.874
1910,61.12,-0.4994,8.6083,-0.8290,-0.4399,0.0684,2.9406,rough,14.0,1,1.874
1920,61.44,-0.4995,8.6083,-0.8291,-0.4399,0.0687,2.9405,rough,14.0,1,1.874
1930,61.76,-0.4995,8.6083,-0.8291,-0.4399,0.0689,2.9405,rough,14.0,1,1.874
1940,62.08,-0.4995,8.6083,-0.8291,-0.4399,0.0691,2.9404,rough,14.0,1,1.874
1950,62.40,-0.4995,8.6083,-0.8292,-0.4399,0.0694,2.9404,rough,14.0,1,1.874
1960,62.72,-0.4995,8.6083,-0.8292,-0.4399,0.0696,2.9404,rough,14.0,1,1.874
1970,63.04,-0.4995,8.6083,-0.8292,-0.4399,0.0699,2.9403,rough,14.0,1,1.874
1980,63.36,-0.4995,8.6083,-0.8293,-0.4398,0.0701,2.9403,rough,14.0,1,1.874
1990,63.68,-0.4995,8.6083,-0.8293,-0.4398,0.0703,2.9402,rough,14.0,1,1.874
2000,64.00,-0.4995,8.6084,-0.8293,-0.4398,0.0706,2.9402,rough,14.0,1,1.874
2010,64.32,-0.4995,8.6084,-0.8294,-0.4398,0.0708,2.9401,rough,14.0,1,1.874
2020,64.64,-0.4995,8.6084,-0.8294,-0.4398,0.0710,2.9401,rough,14.0,1,1.874
2030,64.96,-0.4995,8.6084,-0.8294,-0.4398,0.0713,2.9400,rough,14.0,1,1.874
2040,65.28,-0.4995,8.6084,-0.8295,-0.4398,0.0715,2.9400,rough,14.0,1,1.874
2050,65.60,-0.4996,8.6084,-0.8295,-0.4397,0.0718,2.9400,rough,14.0,1,1.874
2060,65.92,-0.4996,8.6084,-0.8295,-0.4397,0.0720,2.9399,rough,14.0,1,1.874
2070,66.24,-0.4996,8.6084,-0.8296,-0.4397,0.0722,2.9399,rough,14.0,1,1.874
2080,66.56,-0.4996,8.6084,-0.8296,-0.4397,0.0725,2.9398,rough,14.0,2,15.413
2090,66.88,-0.4996,8.6084,-0.8297,-0.4397,0.0727,2.9398,rough,14.0,2,15.413
2100,67.20,-0.4996,8.6084,-0.8297,-0.4397,0.0730,2.9397,rough,14.0,2,15.413
2110,67.52,-0.4996,8.6084,-0.8297,-0.4397,0.0732,2.9397,rough,14.0,2,15.413
2120,67.84,-0.4996,8.6084,-0.8298,-0.4397,0.0734,2.9396,rough,14.0,2,15.413
2130,68.16,-0.4996,8.6084,-0.8298,-0.4396,0.0737,2.9396,rough,14.0,2,15.413
2140,68.48,-0.4996,8.6084,-0.8298,-0.4396,0.0739,2.9395,rough,14.0,2,15.413
2150,68.80,-0.4996,8.6084,-0.8299,-0.4396,0.0742,2.9395,rough,14.0,2,15.413
2160,69.12,-0.4996,8.6084,-0.8299,-0.4396,0.0744,2.9394,rough,14.0,2,15.413
2170,69.44,-0.4996,8.6084,-0.8299,-0.4396,0.0747,2.9394,rough,14.0,2,15.413
2180,69.76,-0.4997,8.6084,-0.8300,-0.4396,0.0749,2.9394,rough,14.0,2,15.413
2190,70.08,-0.4997,8.6085,-0.8300,-0.4396,0.0751,2.9393,rough,14.0,2,15.413
2200,70.40,-0.4997,8.6085,-0.8301,-0.4395,0.0754,2.9393,rough,14.0,2,15.413
2210,70.72,-0.4997,8.6085,-0.8301,-0.4395,0.0756,2.9392,rough,14.0,2,15.413
2220,71.04,-0.4997,8.6085,-0.8301,-0.4395,0.0759,2.9392,rough,14.0,2,15.413
2230,71.36,-0.4997,8.6085,-0.8302,-0.4395,0.0761,2.9391,rough,14.0,2,15.413
2240,71.68,-0.4997,8.6085,-0.8302,-0.4395,0.0764,2.9391,rough,14.0,2,15.413
2250,72.00,-0.4997,8.6085,-0.8302,-0.4395,0.0766,2.9390,rough,14.0,2,15.413
2260,72.32,-0.4997,8.6085,-0.8303,-0.4395,0.0769,2.9390,rough,14.0,2,15.413
2270,72.64,-0.4997,8.6085,-0.8303,-0.4395,0.0771,2.9389,rough,14.0,2,15.413
2280,72.96,-0.4997,8.6085,-0.8303,-0.4394,0.0773,2.9389,rough,14.0,2,15.413
2290,73.28,-0.4997,8.6085,-0.8304,-0.4394,0.0776,2.9388,rough,14.0,2,15.413
2300,73.60,-0.4997,8.6085,-0.8304,-0.4394,0.0778,2.9388,rough,14.0,2,15.413
2310,73.92,-0.4998,8.6085,-0.8305,-0.4394,0.0781,2.9387,rough,14.0,2,15.413
2320,74.24,-0.4998,8.6085,-0.8305,-0.4394,0.0783,2.9387,rough,14.0,2,15.413
2330,74.56,-0.4998,8.6085,-0.8305,-0.4394,0.0786,2.9386,rough,14.0,2,15.413
2340,74.88,-0.4998,8.6085,-0.8306,-0.4394,0.0788,2.9386,rough,14.0,2,15.413
2350,75.20,-0.4998,8.6085,-0.8306,-0.4393,0.0791,2.9385,rough,14.0,2,15.413
2360,75.52,-0.4998,8.6085,-0.8306,-0.4393,0.0793,2.9385,rough,14.0,2,15.413
2370,75.84,-0.5000,8.6085,-0.8307,-0.4395,0.0791,2.9381,rough,14.0,2,15.412
2380,76.16,-0.5004,8.6084,-0.8310,-0.4400,0.0782,2.9371,rough,14.0,2,15.412
2390,76.48,-0.5007,8.6084,-0.8311,-0.4403,0.0777,2.9367,rough,14.0,2,15.412
2400,76.80,-0.5007,8.6084,-0.8311,-0.4402,0.0780,2.9367,rough,14.0,2,15.412
2410,77.12,-0.5010,8.6083,-0.8312,-0.4406,0.0775,2.9363,rough,14.0,2,15.412
2420,77.44,-0.5007,8.6084,-0.8311,-0.4402,0.0784,2.9367,rough,14.0,2,15.412
2430,77.76,-0.5013,8.6083,-0.8314,-0.4409,0.0771,2.9356,rough,14.0,2,15.412
2440,78.08,-0.5012,8.6083,-0.8314,-0.4407,0.0774,2.9357,rough,14.0,2,15.412
2450,78.40,-0.5016,8.6083,-0.8315,-0.4411,0.0767,2.9351,rough,14.0,3,15.648
2460,78.72,-0.5012,8.6083,-0.8314,-0.4407,0.0778,2.9357,rough,14.0,3,15.649
2470,79.04,-0.5012,8.6083,-0.8314,-0.4407,0.0777,2.9355,rough,14.0,3,15.649
2480,79.36,-0.5018,8.6083,-0.8316,-0.4413,0.0767,2.9347,rough,14.0,3,15.648
2490,79.68,-0.5017,8.6082,-0.8316,-0.4412,0.0769,2.9347,rough,14.0,3,15.648
2500,80.00,-0.5018,8.6082,-0.8317,-0.4413,0.0767,2.9344,rough,14.0,3,15.648
2510,80.32,-0.5018,8.6082,-0.8317,-0.4413,0.0767,2.9344,rough,14.0,3,15.648
2520,80.64,-0.5018,8.6082,-0.8317,-0.4413,0.0768,2.9343,rough,14.0,3,15.648
2530,80.96,-0.5018,8.6083,-0.8317,-0.4413,0.0769,2.9343,rough,14.0,3,15.648
2540,81.28,-0.5024,8.6082,-0.8319,-0.4420,0.0756,2.9334,rough,14.0,3,15.648
2550,81.60,-0.5021,8.6082,-0.8318,-0.4417,0.0763,2.9338,rough,14.0,3,15.648
2560,81.92,-0.5025,8.6082,-0.8319,-0.4420,0.0756,2.9332,rough,14.0,3,15.648
2570,82.24,-0.5021,8.6082,-0.8318,-0.4416,0.0765,2.9337,rough,14.0,3,15.648
2580,82.56,-0.5023,8.6082,-0.8319,-0.4418,0.0761,2.9333,rough,14.0,3,15.648
2590,82.88,-0.5023,8.6082,-0.8319,-0.4418,0.0761,2.9333,rough,14.0,3,15.648
2600,83.20,-0.5023,8.6082,-0.8319,-0.4418,0.0762,2.9333,rough,14.0,3,15.648
2610,83.52,-0.5023,8.6083,-0.8319,-0.4418,0.0762,2.9333,rough,14.0,3,15.648
2620,83.84,-0.5022,8.6083,-0.8319,-0.4417,0.0765,2.9334,rough,14.0,3,15.648
2630,84.16,-0.5027,8.6083,-0.8320,-0.4423,0.0755,2.9328,rough,14.0,3,15.648
2640,84.48,-0.5025,8.6083,-0.8320,-0.4421,0.0760,2.9331,rough,14.0,3,15.648
2650,84.80,-0.5023,8.6083,-0.8319,-0.4419,0.0763,2.9332,rough,14.0,3,15.648
2660,85.12,-0.5026,8.6083,-0.8320,-0.4422,0.0758,2.9329,rough,14.0,3,15.648
2670,85.44,-0.5029,8.6082,-0.8321,-0.4425,0.0749,2.9320,rough,14.0,3,15.648
2680,85.76,-0.5025,8.6083,-0.8320,-0.4420,0.0761,2.9329,rough,14.0,3,15.648
2690,86.08,-0.5026,8.6083,-0.8320,-0.4422,0.0757,2.9326,rough,14.0,3,15.648
2700,86.40,-0.5029,8.6081,-0.8322,-0.4425,0.0747,2.9315,rough,14.0,3,15.648
2710,86.72,-0.5025,8.6084,-0.8320,-0.4420,0.0762,2.9329,rough,14.0,3,15.648
2720,87.04,-0.5026,8.6083,-0.8320,-0.4422,0.0758,2.9324,rough,14.0,3,15.648
2730,87.36,-0.5027,8.6082,-0.8321,-0.4423,0.0753,2.9319,rough,14.0,3,15.648
2740,87.68,-0.5026,8.6082,-0.8321,-0.4422,0.0752,2.9317,rough,14.0,3,15.648
2750,88.00,-0.5027,8.6084,-0.8320,-0.4423,0.0759,2.9327,rough,14.0,3,15.648
2760,88.32,-0.5027,8.6084,-0.8320,-0.4423,0.0757,2.9325,rough,14.0,3,15.648
2770,88.64,-0.5029,8.6082,-0.8322,-0.4425,0.0749,2.9315,rough,14.0,3,15.648
2780,88.96,-0.5029,8.6082,-0.8322,-0.4425,0.0748,2.9314,rough,14.0,3,15.648
2790,89.28,-0.5029,8.6082,-0.8322,-0.4425,0.0748,2.9313,rough,14.0,3,15.648
2800,89.60,-0.5028,8.6084,-0.8320,-0.4425,0.0756,2.9324,rough,14.0,3,15.648
2810,89.92,-0.5027,8.6084,-0.8320,-0.4424,0.0758,2.9324,rough,14.0,0,14.372
