step,time_s,x,y,z,roll,pitch,yaw,terrain,speed,target_idx,dist_to_target
10,0.32,0.9573,-0.7750,0.1723,0.0000,-0.0145,0.0000,flat,18.0,0,5.769
20,0.64,1.2161,-0.7761,0.1792,-0.0000,0.0017,-0.0234,flat,18.0,0,5.574
30,0.96,1.5924,-0.7967,0.1799,0.0001,-0.0001,-0.3284,flat,18.0,0,5.286
40,1.28,2.0001,-0.9830,0.1799,-0.0001,-0.0000,-0.6502,flat,18.0,0,4.868
50,1.60,2.3649,-1.3153,0.1799,-0.0001,-0.0000,-0.8406,flat,18.0,0,4.376
60,1.92,2.6964,-1.7291,0.1799,-0.0003,-0.0001,-0.9637,flat,18.0,0,3.848
70,2.24,3.0033,-2.1958,0.1798,-0.0002,-0.0000,-1.0143,flat,18.0,0,3.299
80,2.56,3.3052,-2.6779,0.1797,0.0000,0.0000,-0.9995,flat,18.0,0,2.749
90,2.88,3.6129,-3.1394,0.1797,0.0002,0.0000,-0.9511,flat,18.0,0,2.215
100,3.20,3.9353,-3.5707,0.1797,0.0002,0.0001,-0.8906,flat,18.0,0,1.700
110,3.52,4.2443,-3.9364,0.1797,0.0002,0.0001,-0.8362,flat,18.0,0,1.246
120,3.84,4.5262,-4.2322,0.1797,0.0001,0.0002,-0.7641,flat,18.0,1,12.255
130,4.16,4.7741,-4.4399,0.1798,-0.0002,0.0001,-0.4282,flat,18.0,1,12.526
140,4.48,4.9727,-4.5643,0.1798,-0.0002,-0.0000,0.3359,flat,18.0,1,12.705
150,4.80,5.1797,-4.4428,0.1798,-0.0003,-0.0001,0.9399,rough,14.0,1,12.656
160,5.12,5.3558,-4.1511,0.1794,0.0025,-0.0001,1.3000,flat,18.0,1,12.441
170,5.44,5.4467,-3.7105,0.1799,0.0000,-0.0000,1.6894,flat,18.0,1,12.062
180,5.76,5.3586,-3.2226,0.1799,0.0000,-0.0000,1.9388,flat,18.0,1,11.577
190,6.08,5.1472,-2.7350,0.1799,0.0003,-0.0001,2.0595,flat,18.0,1,11.045
200,6.40,4.8748,-2.2438,0.1798,0.0001,-0.0000,2.0956,flat,18.0,1,10.488
210,6.72,4.5904,-1.7497,0.1797,-0.0000,0.0000,2.0806,flat,18.0,1,9.924
220,7.04,4.3233,-1.2569,0.1797,-0.0001,0.0000,2.0379,flat,18.0,1,9.369
230,7.36,4.0802,-0.7533,0.1797,-0.0002,-0.0000,1.9807,flat,18.0,1,8.812
240,7.68,3.8648,-0.2347,0.1797,-0.0002,-0.0000,1.9281,flat,18.0,1,8.251
250,8.00,3.6733,0.2966,0.1797,-0.0001,-0.0000,1.8928,flat,18.0,1,7.686
260,8.32,3.4967,0.8380,0.1797,-0.0001,-0.0000,1.8722,flat,18.0,1,7.117
270,8.64,3.3281,1.3862,0.1797,-0.0000,-0.0000,1.8646,flat,18.0,1,6.545
280,8.96,3.1615,1.9368,0.1797,0.0000,0.0000,1.8659,flat,18.0,1,5.971
290,9.28,2.9939,2.4853,0.1797,0.0000,0.0000,1.8722,flat,18.0,1,5.399
300,9.60,2.8226,3.0321,0.1797,0.0000,0.0000,1.8800,flat,18.0,1,4.827
310,9.92,2.6470,3.5778,0.1797,0.0000,-0.0000,1.8871,flat,18.0,1,4.256
320,10.24,2.4676,4.1230,0.1797,0.0000,-0.0000,1.8922,flat,18.0,1,3.684
330,10.56,2.2854,4.6682,0.1797,0.0000,-0.0000,1.8952,flat,18.0,1,3.111
340,10.88,2.1017,5.2136,0.1797,0.0000,-0.0000,1.8963,flat,18.0,1,2.539
350,11.20,1.9175,5.7593,0.1797,0.0000,0.0000,1.8963,flat,18.0,1,1.968
360,11.52,1.7462,6.2672,0.1797,-0.0000,0.0001,1.8957,flat,18.0,1,1.440
370,11.84,1.5979,6.7078,0.1797,-0.0000,0.0001,1.8948,flat,18.0,2,0.989
380,12.16,1.4741,7.0709,0.1797,0.0001,0.0001,1.9734,flat,18.0,2,15.212
390,12.48,1.3452,7.3413,0.1798,-0.0001,0.0002,2.3224,flat,18.0,2,15.348
400,12.80,1.1689,7.4702,0.1798,-0.0004,-0.0001,3.0319,flat,18.0,2,15.347
410,13.12,0.8514,7.4825,0.1799,-0.0003,-0.0001,-2.5971,flat,18.0,2,15.171
420,13.44,0.5029,7.2005,0.1789,0.0054,-0.0000,-2.3115,flat,18.0,2,14.741
430,13.76,0.1930,6.8007,0.1799,0.0003,-0.0000,-2.1182,flat,18.0,2,14.235
440,14.08,-0.0652,6.3289,0.1799,0.0003,-0.0001,-1.9889,flat,18.0,2,13.701
450,14.40,-0.2840,5.8094,0.1798,0.0002,-0.0000,-1.9454,flat,18.0,2,13.150
460,14.72,-0.4941,5.2828,0.1797,-0.0001,0.0000,-1.9688,flat,18.0,2,12.599
470,15.04,-0.7162,4.7761,0.1797,-0.0002,0.0000,-2.0297,flat,18.0,2,12.059
480,15.36,-0.9701,4.2889,0.1797,-0.0002,-0.0000,-2.0991,flat,18.0,2,11.517
490,15.68,-1.2586,3.8182,0.1797,-0.0002,-0.0000,-2.1595,flat,18.0,2,10.968
500,16.00,-1.5766,3.3601,0.1797,-0.0002,-0.0000,-2.2028,flat,18.0,2,10.411
510,16.32,-1.9155,2.9094,0.1797,-0.0001,-0.0000,-2.2295,flat,18.0,2,9.847
520,16.64,-2.2673,2.4614,0.1797,-0.0001,-0.0000,-2.2432,flat,18.0,2,9.277
530,16.96,-2.6261,2.0129,0.1797,-0.0000,-0.0000,-2.2469,flat,18.0,2,8.703
540,17.28,-2.9852,1.5644,0.1797,0.0000,0.0000,-2.2438,flat,18.0,2,8.129
550,17.60,-3.3410,1.1154,0.1797,0.0000,0.0000,-2.2369,flat,18.0,2,7.556
560,17.92,-3.6931,0.6641,0.1797,0.0000,0.0000,-2.2288,flat,18.0,2,6.984
570,18.24,-4.0417,0.2098,0.1797,0.0000,-0.0000,-2.2212,flat,18.0,2,6.411
580,18.56,-4.3877,-0.2474,0.1797,0.0000,-0.0000,-2.2153,flat,18.0,2,5.837
590,18.88,-4.7318,-0.7072,0.1797,0.0000,-0.0000,-2.2115,flat,18.0,2,5.263
600,19.20,-5.0752,-1.1686,0.1797,0.0000,-0.0000,-2.2096,flat,18.0,2,4.688
610,19.52,-5.4183,-1.6310,0.1797,0.0000,-0.0000,-2.2092,flat,18.0,2,4.112
620,19.84,-5.7615,-2.0932,0.1797,-0.0000,0.0000,-2.2098,flat,18.0,2,3.537
630,20.16,-6.1050,-2.5550,0.1797,-0.0000,0.0000,-2.2109,flat,18.0,2,2.961
640,20.48,-6.4489,-3.0163,0.1797,-0.0000,-0.0000,-2.2122,flat,18.0,2,2.386
650,20.80,-6.7916,-3.4747,0.1797,-0.0000,0.0001,-2.2133,flat,18.0,2,1.813
660,21.12,-7.1001,-3.8865,0.1797,-0.0000,0.0001,-2.2141,flat,18.0,2,1.299
670,21.44,-7.4009,-4.2875,0.1797,-0.0000,0.0001,-2.2151,flat,18.0,3,1.183
680,21.76,-7.7266,-4.6958,0.1798,-0.0002,-0.0000,-2.2570,flat,18.0,0,13.072
690,22.08,-8.0314,-5.0811,0.1797,0.0001,0.0001,-2.2069,rough,14.0,0,13.388
700,22.40,-8.2404,-5.3815,0.1797,0.0002,0.0001,-2.1250,flat,18.0,0,13.612
710,22.72,-8.4185,-5.7036,0.1797,0.0002,-0.0000,-2.0175,flat,18.0,0,13.814
720,23.04,-8.5666,-6.0312,0.1798,0.0002,0.0001,-1.8593,flat,18.0,0,13.993
730,23.36,-8.6586,-6.3487,0.1798,0.0002,0.0001,-1.6645,flat,18.0,0,14.122
740,23.68,-8.6881,-6.6582,0.1798,0.0002,0.0000,-1.4524,flat,18.0,0,14.195
750,24.00,-8.6506,-6.9609,0.1798,0.0003,-0.0000,-1.2785,flat,18.0,0,14.206
760,24.32,-8.5537,-7.2634,0.1797,0.0002,-0.0000,-1.1412,flat,18.0,0,14.166
770,24.64,-8.4016,-7.5740,0.1797,0.0002,-0.0001,-1.0349,flat,18.0,0,14.081
780,24.96,-8.1949,-7.9017,0.1797,0.0002,-0.0001,-0.9562,flat,18.0,0,13.955
790,25.28,-7.9409,-8.2458,0.1797,0.0001,0.0000,-0.9038,flat,18.0,0,13.798
800,25.60,-7.7019,-8.5346,0.1797,0.0001,0.0001,-0.8352,flat,18.0,0,13.650
810,25.92,-7.4820,-8.7598,0.1797,0.0001,0.0001,-0.7464,flat,18.0,0,13.509
820,26.24,-7.2775,-8.9326,0.1797,0.0001,0.0001,-0.6464,flat,18.0,0,13.371
830,26.56,-7.0860,-9.0667,0.1797,0.0001,0.0000,-0.5347,flat,18.0,0,13.236
840,26.88,-6.9052,-9.1694,0.1797,0.0001,0.0000,-0.4123,flat,18.0,0,13.102
850,27.20,-6.7335,-9.2459,0.1797,0.0001,0.0000,-0.2827,flat,18.0,0,12.970
860,27.52,-6.5698,-9.2994,0.1797,0.0001,0.0000,-0.1492,flat,18.0,0,12.837
870,27.84,-6.4128,-9.3319,0.1797,0.0001,0.0000,-0.0146,flat,18.0,0,12.704
880,28.16,-6.2607,-9.3430,0.1797,0.0001,0.0000,0.1091,flat,18.0,0,12.568
890,28.48,-6.1106,-9.3328,0.1797,0.0001,-0.0000,0.2112,flat,18.0,0,12.425
900,28.80,-5.9592,-9.3041,0.1797,0.0001,-0.0000,0.2965,flat,18.0,0,12.274
910,29.12,-5.8035,-9.2581,0.1797,0.0000,-0.0000,0.3686,flat,18.0,0,12.113
920,29.44,-5.6403,-9.1951,0.1797,0.0000,-0.0000,0.4299,flat,18.0,0,11.938
930,29.76,-5.4666,-9.1141,0.1797,0.0000,-0.0000,0.4821,flat,18.0,0,11.747
940,30.08,-5.2791,-9.0136,0.1797,0.0000,-0.0000,0.5267,flat,18.0,0,11.535
950,30.40,-5.0744,-8.8915,0.1797,0.0000,-0.0000,0.5647,flat,18.0,0,11.299
960,30.72,-4.8485,-8.7447,0.1797,0.0000,-0.0001,0.5968,flat,18.0,0,11.034
970,31.04,-4.5970,-8.5698,0.1797,0.0000,-0.0001,0.6235,flat,18.0,0,10.735
980,31.36,-4.3148,-8.3628,0.1797,0.0000,-0.0001,0.6450,flat,18.0,0,10.396
990,31.68,-3.9958,-8.1190,0.1797,0.0000,-0.0001,0.6613,flat,18.0,0,10.010
1000,32.00,-3.6326,-7.8333,0.1797,0.0000,-0.0001,0.6719,flat,18.0,0,9.569
1010,32.32,-3.2165,-7.5006,0.1797,0.0000,-0.0001,0.6760,flat,18.0,0,9.065
1020,32.64,-2.8025,-7.1805,0.1798,-0.0000,0.0001,0.5680,flat,18.0,0,8.570
1030,32.96,-2.3594,-6.9416,0.1799,-0.0001,-0.0000,0.3238,flat,18.0,0,8.076
1040,33.28,-1.8473,-6.7953,0.1799,-0.0001,-0.0000,0.1504,flat,18.0,0,7.543
1050,33.60,-1.2909,-6.7236,0.1798,-0.0002,-0.0000,0.0874,flat,18.0,0,6.992
1060,33.92,-0.7247,-6.6733,0.1797,0.0000,0.0000,0.1103,flat,18.0,0,6.440
1070,34.24,-0.1715,-6.6057,0.1797,0.0002,0.0000,0.1763,flat,18.0,0,5.897
1080,34.56,0.3729,-6.5000,0.1797,0.0003,-0.0000,0.2479,flat,18.0,0,5.351
1090,34.88,0.9111,-6.3553,0.1797,0.0002,-0.0000,0.3061,flat,18.0,0,4.798
1100,35.20,1.4453,-6.1796,0.1797,0.0001,-0.0000,0.3437,flat,18.0,0,4.238
1110,35.52,1.9786,-5.9846,0.1797,0.0001,-0.0000,0.3642,flat,18.0,0,3.671
1120,35.84,2.5131,-5.7788,0.1797,0.0000,-0.0000,0.3722,flat,18.0,0,3.099
1130,36.16,3.0490,-5.5694,0.1797,0.0000,0.0000,0.3716,flat,18.0,0,2.524
1140,36.48,3.5842,-5.3617,0.1797,-0.0000,0.0000,0.3661,flat,18.0,0,1.951
1150,36.80,4.0810,-5.1723,0.1797,-0.0000,0.0001,0.3596,flat,18.0,0,1.422
1160,37.12,4.5273,-5.0041,0.1797,0.0000,-0.0001,0.3782,flat,18.0,1,0.950
1170,37.44,4.9789,-4.8143,0.1798,-0.0001,0.0002,0.5248,flat,18.0,1,12.945
1180,37.76,5.3272,-4.5587,0.1799,-0.0001,0.0000,0.8350,flat,18.0,1,12.814
1190,38.08,5.5850,-4.1944,0.1799,-0.0001,-0.0000,1.2125,flat,18.0,1,12.563
1200,38.40,5.7173,-3.7487,0.1799,0.0000,-0.0000,1.6498,flat,18.0,1,12.200
1210,38.72,5.6474,-3.2860,0.1799,0.0001,-0.0000,1.9823,flat,18.0,1,11.746
1220,39.04,5.4189,-2.8485,0.1799,0.0001,-0.0000,2.1899,flat,18.0,1,11.254
1230,39.36,5.0915,-2.4380,0.1799,0.0003,-0.0001,2.3110,flat,18.0,1,10.749
1240,39.68,4.7058,-2.0381,0.1798,0.0002,-0.0001,2.3584,flat,18.0,1,10.235
1250,40.00,4.3068,-1.6370,0.1797,-0.0001,0.0000,2.3364,flat,18.0,1,9.720
1260,40.32,3.9416,-1.2337,0.1798,-0.0003,0.0000,2.2574,flat,18.0,1,9.219
1270,40.64,3.6211,-0.8068,0.1798,-0.0003,0.0000,2.1366,flat,18.0,1,8.714
1280,40.96,3.3537,-0.3434,0.1799,-0.0002,-0.0000,1.9995,flat,18.0,1,8.193
1290,41.28,3.1446,0.1585,0.1799,-0.0003,-0.0000,1.8777,flat,18.0,1,7.653
1300,41.60,2.9888,0.6916,0.1798,-0.0004,-0.0000,1.7947,flat,18.0,1,7.097
1310,41.92,2.8697,1.2454,0.1797,-0.0001,-0.0000,1.7588,flat,18.0,1,6.532
1320,42.24,2.7636,1.8096,0.1797,-0.0000,0.0000,1.7565,flat,18.0,1,5.961
1330,42.56,2.6568,2.3701,0.1797,0.0000,0.0000,1.7720,flat,18.0,1,5.394
1340,42.88,2.5404,2.9262,0.1797,0.0001,0.0000,1.7938,flat,18.0,1,4.830
1350,43.20,2.4118,3.4800,0.1797,0.0001,-0.0000,1.8144,flat,18.0,1,4.264
1360,43.52,2.2718,4.0328,0.1797,0.0001,-0.0000,1.8300,flat,18.0,1,3.696
1370,43.84,2.1234,4.5857,0.1797,0.0000,-0.0000,1.8395,flat,18.0,1,3.126
1380,44.16,1.9701,5.1393,0.1797,0.0000,-0.0000,1.8436,flat,18.0,1,2.554
1390,44.48,1.8148,5.6937,0.1797,0.0000,-0.0000,1.8439,flat,18.0,1,1.983
1400,44.80,1.6700,6.2114,0.1797,-0.0000,0.0001,1.8423,flat,18.0,1,1.453
1410,45.12,1.5453,6.6606,0.1797,-0.0000,0.0001,1.8400,flat,18.0,2,0.999
1420,45.44,1.4407,7.0319,0.1797,0.0001,0.0001,1.9132,flat,18.0,2,15.161
1430,45.76,1.3282,7.3269,0.1798,-0.0001,0.0002,2.2235,flat,18.0,2,15.326
1440,46.08,1.1801,7.4601,0.1798,-0.0004,-0.0001,2.9828,flat,18.0,2,15.345
1450,46.40,0.9187,7.4922,0.1799,-0.0003,-0.0002,-2.5257,flat,18.0,2,15.218
1460,46.72,0.6278,7.2041,0.1799,0.0001,-0.0001,-2.1527,flat,18.0,2,14.815
1470,47.04,0.3762,6.7584,0.1799,0.0000,-0.0000,-1.9435,flat,18.0,2,14.306
1480,47.36,0.2002,6.2475,0.1799,0.0003,-0.0000,-1.8046,flat,18.0,2,13.788
1490,47.68,0.0772,5.6939,0.1798,0.0001,-0.0000,-1.7757,flat,18.0,2,13.269
1500,48.00,-0.0409,5.1504,0.1798,-0.0002,0.0000,-1.8372,flat,18.0,2,12.766
1510,48.32,-0.1945,4.6338,0.1798,-0.0004,0.0000,-1.9470,flat,18.0,2,12.266
1520,48.64,-0.4064,4.1456,0.1799,-0.0004,-0.0000,-2.0661,flat,18.0,2,11.754
1530,48.96,-0.6776,3.6827,0.1798,-0.0004,-0.0000,-2.1663,flat,18.0,2,11.225
1540,49.28,-0.9970,3.2395,0.1798,-0.0003,-0.0000,-2.2377,flat,18.0,2,10.680
1550,49.60,-1.3503,2.8101,0.1797,-0.0002,-0.0000,-2.2841,flat,18.0,2,10.124
1560,49.92,-1.7255,2.3870,0.1797,-0.0001,-0.0000,-2.3080,flat,18.0,2,9.558
1570,50.24,-2.1124,1.9645,0.1797,-0.0000,-0.0000,-2.3150,flat,18.0,2,8.986
1580,50.56,-2.5006,1.5418,0.1797,0.0000,0.0000,-2.3103,flat,18.0,2,8.413
1590,50.88,-2.8834,1.1180,0.1797,0.0000,0.0000,-2.2992,flat,18.0,2,7.842
1600,51.20,-3.2603,0.6902,0.1797,0.0000,0.0000,-2.2860,flat,18.0,2,7.272
1610,51.52,-3.6319,0.2575,0.1797,0.0000,-0.0000,-2.2738,flat,18.0,2,6.702
1620,51.84,-3.9993,-0.1802,0.1797,0.0000,-0.0000,-2.2640,flat,18.0,2,6.130
1630,52.16,-4.3640,-0.6221,0.1797,0.0000,-0.0000,-2.2574,flat,18.0,2,5.557
1640,52.48,-4.7273,-1.0670,0.1797,0.0000,-0.0000,-2.2539,flat,18.0,2,4.983
1650,52.80,-5.0903,-1.5137,0.1797,0.0000,-0.0000,-2.2529,flat,18.0,2,4.408
1660,53.12,-5.4534,-1.9604,0.1797,-0.0000,0.0000,-2.2537,flat,18.0,2,3.832
1670,53.44,-5.8167,-2.4064,0.1797,-0.0000,0.0000,-2.2554,flat,18.0,2,3.257
1680,53.76,-6.1808,-2.8515,0.1797,-0.0000,0.0000,-2.2575,flat,18.0,2,2.682
1690,54.08,-6.5458,-3.2959,0.1797,-0.0000,-0.0000,-2.2594,flat,18.0,2,2.107
1700,54.40,-6.8968,-3.7219,0.1797,-0.0000,0.0001,-2.2606,flat,18.0,2,1.555
1710,54.72,-7.2093,-4.0987,0.1797,-0.0000,-0.0001,-2.2805,flat,18.0,2,1.065
1720,55.04,-7.5589,-4.4837,0.1798,-0.0002,-0.0002,-2.3540,flat,18.0,0,0.951
1730,55.36,-7.9128,-4.8437,0.1797,0.0000,0.0002,-2.3327,rough,14.0,0,13.261
1740,55.68,-8.2070,-5.1655,0.1797,0.0001,0.0001,-2.2684,flat,18.0,0,13.567
1750,56.00,-8.4249,-5.4451,0.1797,0.0002,0.0001,-2.1532,transition,15.0,0,13.801
1760,56.32,-8.5950,-5.7406,0.1797,0.0002,0.0000,-2.0151,flat,18.0,0,13.993
1770,56.64,-8.7281,-6.0344,0.1798,0.0002,0.0000,-1.8297,flat,18.0,0,14.154
1780,56.96,-8.8055,-6.3198,0.1798,0.0001,0.0000,-1.6053,flat,18.0,0,14.264
1790,57.28,-8.8180,-6.5968,0.1798,0.0002,0.0000,-1.3815,flat,18.0,0,14.314
1800,57.60,-8.7654,-6.8670,0.1797,0.0002,-0.0000,-1.2067,flat,18.0,0,14.304
1810,57.92,-8.6556,-7.1378,0.1797,0.0002,-0.0000,-1.0699,flat,18.0,0,14.243
1820,58.24,-8.4916,-7.4171,0.1797,0.0002,-0.0001,-0.9644,flat,18.0,0,14.136
1830,58.56,-8.2723,-7.7134,0.1797,0.0002,-0.0001,-0.8868,flat,18.0,0,13.986
1840,58.88,-7.9952,-8.0366,0.1797,0.0001,-0.0001,-0.8370,flat,18.0,0,13.796
1850,59.20,-7.7074,-8.3429,0.1797,0.0001,0.0001,-0.7847,flat,18.0,0,13.600
1860,59.52,-7.4472,-8.5866,0.1797,0.0001,0.0001,-0.7125,flat,18.0,0,13.423
1870,59.84,-7.2090,-8.7780,0.1797,0.0001,0.0001,-0.6265,flat,18.0,0,13.256
1880,60.16,-6.9874,-8.9280,0.1797,0.0001,0.0001,-0.5258,flat,18.0,0,13.096
1890,60.48,-6.7790,-9.0435,0.1797,0.0001,0.0000,-0.4135,flat,18.0,0,12.940
1900,60.80,-6.5815,-9.1297,0.1797,0.0001,0.0000,-0.2928,flat,18.0,0,12.786
1910,61.12,-6.3931,-9.1903,0.1797,0.0001,0.0000,-0.1668,flat,18.0,0,12.633
1920,61.44,-6.2119,-9.2276,0.1797,0.0001,0.0000,-0.0385,flat,18.0,0,12.479
1930,61.76,-6.0360,-9.2420,0.1797,0.0001,0.0000,0.0840,flat,18.0,0,12.321
1940,62.08,-5.8624,-9.2328,0.1797,0.0001,-0.0000,0.1866,flat,18.0,0,12.158
1950,62.40,-5.6877,-9.2030,0.1797,0.0001,-0.0000,0.2728,flat,18.0,0,11.985
1960,62.72,-5.5083,-9.1541,0.1797,0.0001,-0.0000,0.3459,flat,18.0,0,11.801
1970,63.04,-5.3209,-9.0861,0.1797,0.0001,-0.0000,0.4082,flat,18.0,0,11.602
1980,63.36,-5.1220,-8.9984,0.1797,0.0001,-0.0000,0.4613,flat,18.0,0,11.384
1990,63.68,-4.9080,-8.8893,0.1797,0.0001,-0.0000,0.5066,flat,18.0,0,11.145
2000,64.00,-4.6752,-8.7566,0.1797,0.0001,-0.0001,0.5450,flat,18.0,0,10.879
2010,64.32,-4.4190,-8.5974,0.1797,0.0001,-0.0001,0.5771,flat,18.0,0,10.581
2020,64.64,-4.1347,-8.4080,0.1797,0.0001,-0.0001,0.6033,flat,18.0,0,10.246
2030,64.96,-3.8164,-8.1846,0.1797,0.0000,-0.0001,0.6236,flat,18.0,0,9.867
2040,65.28,-3.4573,-7.9227,0.1797,0.0000,-0.0001,0.6379,flat,18.0,0,9.437
2050,65.60,-3.0493,-7.6179,0.1797,0.0000,-0.0001,0.6452,flat,18.0,0,8.947
2060,65.92,-2.6126,-7.2925,0.1798,-0.0001,0.0001,0.5919,flat,18.0,0,8.426
2070,66.24,-2.1611,-7.0227,0.1799,-0.0001,-0.0000,0.4283,flat,18.0,0,7.912
2080,66.56,-1.6601,-6.8162,0.1799,-0.0003,-0.0000,0.2992,flat,18.0,0,7.371
2090,66.88,-1.1235,-6.6633,0.1798,-0.0003,-0.0000,0.2264,flat,18.0,0,6.814
2100,67.20,-0.5662,-6.5395,0.1797,-0.0001,-0.0000,0.2092,flat,18.0,0,6.246
2110,67.52,-0.0080,-6.4196,0.1797,0.0000,0.0000,0.2236,flat,18.0,0,5.680
2120,67.84,0.5427,-6.2907,0.1797,0.0001,0.0000,0.2522,flat,18.0,0,5.118
2130,68.16,1.0883,-6.1455,0.1797,0.0001,-0.0000,0.2826,flat,18.0,0,4.556
2140,68.48,1.6311,-5.9836,0.1797,0.0001,-0.0000,0.3077,flat,18.0,0,3.991
2150,68.80,2.1728,-5.8083,0.1797,0.0001,-0.0000,0.3247,flat,18.0,0,3.423
2160,69.12,2.7148,-5.6239,0.1797,0.0000,-0.0000,0.3338,flat,18.0,0,2.852
2170,69.44,3.2577,-5.4349,0.1797,0.0000,-0.0000,0.3365,flat,18.0,0,2.279
2180,69.76,3.7927,-5.2479,0.1797,-0.0000,0.0001,0.3350,flat,18.0,0,1.714
2190,70.08,4.2658,-5.0836,0.1797,-0.0000,0.0001,0.3321,flat,18.0,0,1.217
2200,70.40,4.7335,-4.9155,0.1797,0.0002,0.0000,0.3996,flat,18.0,1,12.969
2210,70.72,5.1609,-4.7088,0.1799,-0.0001,0.0000,0.6113,flat,18.0,1,12.902
2220,71.04,5.4792,-4.4270,0.1799,-0.0001,-0.0000,0.9367,flat,18.0,1,12.743
2230,71.36,5.7022,-4.0432,0.1799,-0.0001,-0.0000,1.3732,flat,18.0,1,12.466
2240,71.68,5.7568,-3.5899,0.1799,0.0000,-0.0000,1.8186,flat,18.0,1,12.069
2250,72.00,5.6058,-3.1333,0.1799,0.0001,-0.0000,2.0784,flat,18.0,1,11.589
2260,72.32,5.3277,-2.6912,0.1799,0.0003,-0.0001,2.2118,flat,18.0,1,11.074
2270,72.64,4.9833,-2.2510,0.1798,0.0002,-0.0001,2.2521,flat,18.0,1,10.535
2280,72.96,4.6310,-1.8101,0.1797,-0.0001,0.0000,2.2259,flat,18.0,1,9.995
2290,73.28,4.3069,-1.3658,0.1798,-0.0003,0.0000,2.1527,flat,18.0,1,9.465
2300,73.60,4.0211,-0.9007,0.1798,-0.0004,-0.0000,2.0555,flat,18.0,1,8.930
2310,73.92,3.7792,-0.4079,0.1798,-0.0004,-0.0000,1.9594,flat,18.0,1,8.385
2320,74.24,3.5795,0.1114,0.1798,-0.0003,-0.0000,1.8842,flat,18.0,1,7.829
2330,74.56,3.4130,0.6505,0.1797,-0.0002,-0.0000,1.8413,flat,18.0,1,7.265
2340,74.88,3.2634,1.2020,0.1797,-0.0001,-0.0000,1.8267,flat,18.0,1,6.695
2350,75.20,3.1179,1.7578,0.1797,0.0000,0.0000,1.8297,flat,18.0,1,6.123
2360,75.52,2.9701,2.3098,0.1797,0.0000,0.0000,1.8421,flat,18.0,1,5.554
2370,75.84,2.8151,2.8586,0.1797,0.0001,0.0000,1.8571,flat,18.0,1,4.986
2380,76.16,2.6518,3.4057,0.1797,0.0000,-0.0000,1.8704,flat,18.0,1,4.417
2390,76.48,2.4813,3.9520,0.1797,0.0000,-0.0000,1.8800,flat,18.0,1,3.847
2400,76.80,2.3056,4.4983,0.1797,0.0000,-0.0000,1.8856,flat,18.0,1,3.275
2410,77.12,2.1271,5.0450,0.1797,0.0000,-0.0000,1.8877,flat,18.0,1,2.702
2420,77.44,1.9476,5.5922,0.1797,0.0000,0.0000,1.8875,flat,18.0,1,2.131
2430,77.76,1.7750,6.1195,0.1797,-0.0000,0.0001,1.8861,flat,18.0,1,1.583
2440,78.08,1.6252,6.5796,0.1797,-0.0000,0.0001,1.8845,flat,18.0,1,1.110
2450,78.40,1.4993,6.9654,0.1797,0.0000,0.0001,1.9205,flat,18.0,2,15.145
2460,78.72,1.3784,7.2806,0.1798,-0.0001,0.0002,2.1587,flat,18.0,2,15.320
2470,79.04,1.2279,7.4371,0.1798,-0.0003,-0.0001,2.7979,flat,18.0,2,15.355
2480,79.36,0.9582,7.5216,0.1798,-0.0003,-0.0002,-2.7977,flat,18.0,2,15.265
2490,79.68,0.5958,7.3268,0.1799,0.0003,-0.0001,-2.3872,flat,18.0,2,14.897
2500,80.00,0.2698,6.9595,0.1799,0.0000,-0.0000,-2.1788,flat,18.0,2,14.410
2510,80.32,-0.0048,6.5114,0.1799,0.0001,-0.0000,-2.0182,flat,18.0,2,13.885
2520,80.64,-0.2299,6.0047,0.1798,0.0003,-0.0001,-1.9396,flat,18.0,2,13.340
2530,80.96,-0.4342,5.4722,0.1797,0.0000,0.0000,-1.9433,flat,18.0,2,12.788
2540,81.28,-0.6427,4.9565,0.1797,-0.0002,0.0000,-1.9956,flat,18.0,2,12.248
2550,81.60,-0.8792,4.4610,0.1797,-0.0003,0.0000,-2.0676,flat,18.0,2,11.709
2560,81.92,-1.1521,3.9841,0.1797,-0.0002,-0.0000,-2.1353,flat,18.0,2,11.164
2570,82.24,-1.4582,3.5216,0.1797,-0.0002,-0.0000,-2.1881,flat,18.0,2,10.611
2580,82.56,-1.7899,3.0691,0.1797,-0.0001,-0.0000,-2.2214,flat,18.0,2,10.050
2590,82.88,-2.1377,2.6209,0.1797,-0.0001,-0.0000,-2.2404,flat,18.0,2,9.482
2600,83.20,-2.4950,2.1733,0.1797,-0.0000,-0.0000,-2.2477,flat,18.0,2,8.910
2610,83.52,-2.8553,1.7250,0.1797,0.0000,0.0000,-2.2466,flat,18.0,2,8.335
2620,83.84,-3.2128,1.2769,0.1797,0.0000,0.0000,-2.2407,flat,18.0,2,7.762
2630,84.16,-3.5665,0.8270,0.1797,0.0000,0.0000,-2.2325,flat,18.0,2,7.190
2640,84.48,-3.9165,0.3741,0.1797,0.0000,-0.0000,-2.2242,flat,18.0,2,6.617
2650,84.80,-4.2634,-0.0819,0.1797,0.0000,-0.0000,-2.2174,flat,18.0,2,6.044
2660,85.12,-4.6081,-0.5408,0.1797,0.0000,-0.0000,-2.2126,flat,18.0,2,5.471
2670,85.44,-4.9516,-1.0016,0.1797,0.0000,-0.0000,-2.2099,flat,18.0,2,4.896
2680,85.76,-5.2947,-1.4638,0.1797,0.0000,-0.0000,-2.2090,flat,18.0,2,4.320
2690,86.08,-5.6377,-1.9263,0.1797,-0.0000,0.0000,-2.2093,flat,18.0,2,3.744
2700,86.40,-5.9810,-2.3883,0.1797,-0.0000,0.0000,-2.2103,flat,18.0,2,3.169
2710,86.72,-6.3247,-2.8497,0.1797,-0.0000,0.0000,-2.2116,flat,18.0,2,2.594
2720,87.04,-6.6690,-3.3108,0.1797,-0.0000,-0.0000,-2.2129,flat,18.0,2,2.018
2730,87.36,-6.9937,-3.7447,0.1797,-0.0000,0.0001,-2.2137,flat,18.0,2,1.476
2740,87.68,-7.2875,-4.1337,0.1797,-0.0001,-0.0001,-2.2403,flat,18.0,3,0.989
2750,88.00,-7.6034,-4.5061,0.1798,-0.0002,-0.0002,-2.3361,flat,18.0,0,12.948
2760,88.32,-7.9535,-4.8755,0.1798,0.0001,0.0001,-2.3074,flat,18.0,0,13.303
2770,88.64,-8.2283,-5.1967,0.1797,0.0002,0.0002,-2.2288,transition,15.0,0,13.590
2780,88.96,-8.4221,-5.4751,0.1797,0.0002,0.0001,-2.1199,transition,15.0,0,13.800
2790,89.28,-8.5773,-5.7664,0.1797,0.0002,-0.0000,-1.9816,flat,18.0,0,13.978
2800,89.60,-8.7030,-6.0686,0.1798,0.0002,0.0000,-1.7998,flat,18.0,0,14.133
2810,89.92,-8.7730,-6.3616,0.1798,0.0001,0.0000,-1.5777,flat,18.0,0,14.237
