step,time_s,x,y,z,roll,pitch,yaw,terrain,speed,target_idx,dist_to_target
10,0.32,0.9676,-0.7750,0.1723,-0.0000,-0.0182,0.0000,flat,18.0,0,5.761
20,0.64,1.2609,-0.7808,0.1791,-0.0000,0.0025,-0.0714,flat,18.0,0,5.537
30,0.96,1.6663,-0.8359,0.1799,0.0001,-0.0000,-0.4336,flat,18.0,0,5.206
40,1.28,2.0644,-1.0709,0.1799,0.0000,-0.0001,-0.7082,flat,18.0,0,4.760
50,1.60,2.4218,-1.4288,0.1799,-0.0001,-0.0000,-0.8729,flat,18.0,0,4.255
60,1.92,2.7496,-1.8575,0.1798,-0.0003,-0.0001,-0.9739,flat,18.0,0,3.718
70,2.24,3.0595,-2.3305,0.1797,-0.0001,-0.0000,-1.0023,flat,18.0,0,3.165
80,2.56,3.3674,-2.8038,0.1797,0.0001,0.0000,-0.9758,flat,18.0,0,2.618
90,2.88,3.6860,-3.2563,0.1797,0.0002,0.0000,-0.9243,flat,18.0,0,2.085
100,3.20,4.0133,-3.6697,0.1797,0.0002,0.0001,-0.8657,flat,18.0,0,1.580
110,3.52,4.3210,-4.0163,0.1797,0.0001,0.0001,-0.8130,flat,18.0,0,1.141
120,3.84,4.5914,-4.2848,0.1797,0.0002,0.0002,-0.6918,flat,18.0,1,12.324
130,4.16,4.8189,-4.4566,0.1798,-0.0002,0.0001,-0.1093,flat,18.0,1,12.555
140,4.48,4.9974,-4.5032,0.1798,-0.0003,-0.0002,0.7229,flat,18.0,1,12.655
150,4.80,5.2032,-4.2495,0.1798,0.0005,0.0008,1.1374,rough,14.0,1,12.482
160,5.12,5.3523,-3.8452,0.1799,-0.0001,-0.0001,1.4494,flat,18.0,1,12.154
170,5.44,5.3765,-3.3654,0.1799,0.0001,-0.0000,1.8056,flat,18.0,1,11.716
180,5.76,5.2317,-2.8767,0.1799,0.0001,-0.0000,1.9971,flat,18.0,1,11.208
190,6.08,4.9910,-2.3883,0.1798,0.0003,-0.0001,2.0806,flat,18.0,1,10.665
200,6.40,4.7088,-1.8936,0.1797,0.0001,-0.0000,2.0927,flat,18.0,1,10.101
210,6.72,4.4304,-1.4011,0.1797,-0.0001,0.0000,2.0650,flat,18.0,1,9.542
220,7.04,4.1727,-0.9049,0.1797,-0.0002,0.0000,2.0154,flat,18.0,1,8.986
230,7.36,3.9407,-0.3952,0.1797,-0.0002,-0.0000,1.9584,flat,18.0,1,8.428
240,7.68,3.7357,0.1289,0.1797,-0.0002,-0.0000,1.9124,flat,18.0,1,7.865
250,8.00,3.5509,0.6645,0.1797,-0.0001,-0.0000,1.8832,flat,18.0,1,7.299
260,8.32,3.3781,1.2089,0.1797,-0.0001,-0.0000,1.8681,flat,18.0,1,6.728
270,8.64,3.2107,1.7588,0.1797,-0.0000,-0.0000,1.8646,flat,18.0,1,6.154
280,8.96,3.0440,2.3087,0.1797,0.0000,0.0000,1.8682,flat,18.0,1,5.581
290,9.28,2.8750,2.8565,0.1797,0.0000,0.0000,1.8754,flat,18.0,1,5.010
300,9.60,2.7020,3.4028,0.1797,0.0000,-0.0000,1.8830,flat,18.0,1,4.439
310,9.92,2.5248,3.9482,0.1797,0.0000,-0.0000,1.8893,flat,18.0,1,3.867
320,10.24,2.3441,4.4934,0.1797,0.0000,-0.0000,1.8936,flat,18.0,1,3.295
330,10.56,2.1612,5.0387,0.1797,0.0000,-0.0000,1.8958,flat,18.0,1,2.722
340,10.88,1.9772,5.5842,0.1797,0.0000,-0.0000,1.8964,flat,18.0,1,2.151
350,11.20,1.7991,6.1121,0.1797,-0.0000,0.0001,1.8961,flat,18.0,1,1.601
360,11.52,1.6437,6.5732,0.1797,-0.0000,0.0001,1.8954,flat,18.0,1,1.126
370,11.84,1.5159,6.9562,0.1797,0.0000,0.0001,1.9395,flat,18.0,2,15.148
380,12.16,1.3979,7.2405,0.1798,-0.0001,0.0002,2.2698,flat,18.0,2,15.300
390,12.48,1.2413,7.3580,0.1798,-0.0005,-0.0001,3.0066,flat,18.0,2,15.299
400,12.80,0.9206,7.3784,0.1799,-0.0002,-0.0002,-2.6764,flat,18.0,2,15.127
410,13.12,0.5500,7.1378,0.1788,0.0058,-0.0000,-2.4052,flat,18.0,2,14.716
420,13.44,0.1876,6.7624,0.1797,0.0009,-0.0000,-2.2745,flat,18.0,2,14.201
430,13.76,-0.1458,6.3360,0.1798,0.0004,-0.0000,-2.1788,flat,18.0,2,13.661
440,14.08,-0.4516,5.8719,0.1797,0.0002,-0.0000,-2.1181,flat,18.0,2,13.105
450,14.40,-0.7415,5.3843,0.1797,0.0001,-0.0000,-2.0954,flat,18.0,2,12.539
460,14.72,-1.0287,4.8876,0.1797,-0.0000,0.0000,-2.0980,flat,18.0,2,11.967
470,15.04,-1.3175,4.3981,0.1797,-0.0001,0.0000,-2.1156,flat,18.0,2,11.401
480,15.36,-1.6149,3.9168,0.1797,-0.0001,0.0000,-2.1389,flat,18.0,2,10.836
490,15.68,-1.9237,3.4425,0.1797,-0.0001,-0.0000,-2.1614,flat,18.0,2,10.271
500,16.00,-2.2436,2.9733,0.1797,-0.0001,-0.0000,-2.1795,flat,18.0,2,9.703
510,16.32,-2.5723,2.5071,0.1797,-0.0000,-0.0000,-2.1918,flat,18.0,2,9.132
520,16.64,-2.9072,2.0422,0.1797,-0.0000,-0.0000,-2.1985,flat,18.0,2,8.559
530,16.96,-3.2455,1.5773,0.1797,-0.0000,-0.0000,-2.2006,flat,18.0,2,7.984
540,17.28,-3.5844,1.1121,0.1797,0.0000,0.0000,-2.1997,flat,18.0,2,7.409
550,17.60,-3.9220,0.6469,0.1797,0.0000,0.0000,-2.1970,flat,18.0,2,6.834
560,17.92,-4.2581,0.1809,0.1797,0.0000,0.0000,-2.1936,flat,18.0,2,6.260
570,18.24,-4.5925,-0.2863,0.1797,0.0000,-0.0000,-2.1904,flat,18.0,2,5.685
580,18.56,-4.9258,-0.7547,0.1797,0.0000,-0.0000,-2.1878,flat,18.0,2,5.110
590,18.88,-5.2583,-1.2241,0.1797,0.0000,-0.0000,-2.1861,flat,18.0,2,4.535
600,19.20,-5.5903,-1.6943,0.1797,0.0000,-0.0000,-2.1852,flat,18.0,2,3.959
610,19.52,-5.9222,-2.1649,0.1797,0.0000,-0.0000,-2.1850,flat,18.0,2,3.384
620,19.84,-6.2541,-2.6356,0.1797,-0.0000,0.0000,-2.1852,flat,18.0,2,2.808
630,20.16,-6.5861,-3.1060,0.1797,-0.0000,0.0000,-2.1856,flat,18.0,2,2.232
640,20.48,-6.9114,-3.5664,0.1797,-0.0000,0.0001,-2.1861,flat,18.0,2,1.668
650,20.80,-7.1973,-3.9706,0.1797,-0.0000,0.0001,-2.1866,flat,18.0,2,1.173
660,21.12,-7.4970,-4.3927,0.1797,-0.0000,-0.0000,-2.2158,flat,18.0,3,1.048
670,21.44,-7.8255,-4.8140,0.1798,0.0000,0.0001,-2.2255,flat,18.0,0,13.173
680,21.76,-8.0950,-5.1794,0.1797,0.0001,0.0003,-2.1652,rough,14.0,0,13.456
690,22.08,-8.2815,-5.4798,0.1797,0.0002,-0.0001,-2.0725,flat,18.0,0,13.660
700,22.40,-8.4578,-5.8235,0.1797,0.0002,0.0001,-1.9392,flat,18.0,0,13.864
710,22.72,-8.5797,-6.1544,0.1798,0.0002,0.0001,-1.7672,flat,18.0,0,14.020
720,23.04,-8.6433,-6.4767,0.1798,0.0002,0.0000,-1.5649,flat,18.0,0,14.124
730,23.36,-8.6405,-6.7912,0.1798,0.0002,-0.0000,-1.3731,flat,18.0,0,14.168
740,23.68,-8.5745,-7.1019,0.1798,0.0003,-0.0000,-1.2206,flat,18.0,0,14.157
750,24.00,-8.4516,-7.4166,0.1797,0.0002,-0.0000,-1.1007,flat,18.0,0,14.097
760,24.32,-8.2744,-7.7441,0.1797,0.0002,-0.0001,-1.0097,flat,18.0,0,13.995
770,24.64,-8.0424,-8.0937,0.1797,0.0002,-0.0001,-0.9470,flat,18.0,0,13.856
780,24.96,-7.7990,-8.4191,0.1797,0.0001,0.0001,-0.8908,flat,18.0,0,13.710
790,25.28,-7.5784,-8.6757,0.1797,0.0001,0.0001,-0.8084,flat,18.0,0,13.575
800,25.60,-7.3725,-8.8730,0.1797,0.0001,0.0001,-0.7106,flat,18.0,0,13.441
810,25.92,-7.1807,-9.0243,0.1797,0.0001,0.0001,-0.6038,flat,18.0,0,13.311
820,26.24,-6.9999,-9.1413,0.1797,0.0001,0.0000,-0.4847,flat,18.0,0,13.181
830,26.56,-6.8286,-9.2300,0.1797,0.0001,0.0000,-0.3567,flat,18.0,0,13.053
840,26.88,-6.6657,-9.2947,0.1797,0.0001,0.0000,-0.2231,flat,18.0,0,12.925
850,27.20,-6.5101,-9.3379,0.1797,0.0001,0.0000,-0.0871,flat,18.0,0,12.796
860,27.52,-6.3604,-9.3609,0.1797,0.0001,0.0000,0.0469,flat,18.0,0,12.666
870,27.84,-6.2145,-9.3620,0.1797,0.0001,0.0000,0.1608,flat,18.0,0,12.532
880,28.16,-6.0692,-9.3437,0.1797,0.0001,-0.0000,0.2552,flat,18.0,0,12.391
890,28.48,-5.9213,-9.3080,0.1797,0.0000,-0.0000,0.3344,flat,18.0,0,12.241
900,28.80,-5.7677,-9.2556,0.1797,0.0000,-0.0000,0.4015,flat,18.0,0,12.079
910,29.12,-5.6056,-9.1862,0.1797,0.0000,-0.0000,0.4586,flat,18.0,0,11.903
920,29.44,-5.4318,-9.0987,0.1797,0.0000,-0.0000,0.5073,flat,18.0,0,11.709
930,29.76,-5.2431,-8.9911,0.1797,0.0000,-0.0000,0.5489,flat,18.0,0,11.493
940,30.08,-5.0360,-8.8611,0.1797,0.0000,-0.0000,0.5842,flat,18.0,0,11.252
950,30.40,-4.8064,-8.7055,0.1797,0.0000,-0.0001,0.6140,flat,18.0,0,10.980
960,30.72,-4.5497,-8.5205,0.1797,0.0000,-0.0001,0.6386,flat,18.0,0,10.672
970,31.04,-4.2604,-8.3018,0.1797,0.0000,-0.0001,0.6581,flat,18.0,0,10.323
980,31.36,-3.9322,-8.0444,0.1797,0.0000,-0.0001,0.6725,flat,18.0,0,9.924
990,31.68,-3.5574,-7.7432,0.1797,0.0000,-0.0001,0.6812,flat,18.0,0,9.467
1000,32.00,-3.1335,-7.3985,0.1797,0.0000,0.0000,0.6797,flat,18.0,0,8.953
1010,32.32,-2.7283,-7.1081,0.1799,0.0001,-0.0000,0.4718,flat,18.0,0,8.478
1020,32.64,-2.2568,-6.9031,0.1799,-0.0000,-0.0000,0.2473,flat,18.0,0,7.966
1030,32.96,-1.7253,-6.7897,0.1799,-0.0003,-0.0001,0.1124,flat,18.0,0,7.425
1040,33.28,-1.1593,-6.7329,0.1798,-0.0001,-0.0000,0.0881,flat,18.0,0,6.870
1050,33.60,-0.5988,-6.6804,0.1797,0.0001,0.0000,0.1311,flat,18.0,0,6.324
1060,33.92,-0.0491,-6.6002,0.1798,0.0003,0.0000,0.2032,flat,18.0,0,5.781
1070,34.24,0.4927,-6.4796,0.1797,0.0003,-0.0000,0.2713,flat,18.0,0,5.233
1080,34.56,1.0292,-6.3224,0.1797,0.0002,-0.0000,0.3229,flat,18.0,0,4.677
1090,34.88,1.5625,-6.1382,0.1797,0.0001,-0.0000,0.3530,flat,18.0,0,4.114
1100,35.20,2.0961,-5.9382,0.1797,0.0001,-0.0000,0.3685,flat,18.0,0,3.545
1110,35.52,2.6313,-5.7303,0.1797,0.0000,-0.0000,0.3728,flat,18.0,0,2.971
1120,35.84,3.1669,-5.5211,0.1797,-0.0000,0.0000,0.3700,flat,18.0,0,2.397
1130,36.16,3.6999,-5.3155,0.1797,-0.0000,0.0000,0.3637,flat,18.0,0,1.827
1140,36.48,4.1813,-5.1332,0.1797,-0.0000,0.0001,0.3570,flat,18.0,0,1.315
1150,36.80,4.6411,-4.9572,0.1797,0.0001,-0.0000,0.3974,flat,18.0,1,12.983
1160,37.12,5.0712,-4.7538,0.1799,-0.0001,0.0000,0.6017,flat,18.0,1,12.916
1170,37.44,5.4134,-4.4592,0.1799,-0.0000,-0.0000,0.8787,flat,18.0,1,12.750
1180,37.76,5.6771,-4.0687,0.1799,-0.0000,-0.0000,1.1932,flat,18.0,1,12.480
1190,38.08,5.8265,-3.6095,0.1799,0.0000,-0.0000,1.5581,flat,18.0,1,12.114
1200,38.40,5.8016,-3.1308,0.1799,0.0001,-0.0000,1.8890,flat,18.0,1,11.666
1210,38.72,5.6187,-2.6760,0.1799,0.0001,-0.0000,2.1167,flat,18.0,1,11.176
1220,39.04,5.3272,-2.2577,0.1799,0.0001,-0.0000,2.2766,flat,18.0,1,10.675
1230,39.36,4.9634,-1.8705,0.1798,0.0003,-0.0000,2.3795,flat,18.0,1,10.176
1240,39.68,4.5532,-1.5027,0.1798,0.0002,-0.0000,2.4394,flat,18.0,1,9.681
1250,40.00,4.1175,-1.1374,0.1797,0.0000,0.0000,2.4373,flat,18.0,1,9.186
1260,40.32,3.7074,-0.7728,0.1797,-0.0002,0.0000,2.3753,flat,18.0,1,8.708
1270,40.64,3.3439,-0.3893,0.1798,-0.0003,0.0000,2.2608,flat,18.0,1,8.234
1280,40.96,3.0337,0.0313,0.1799,-0.0001,-0.0000,2.1054,flat,18.0,1,7.745
1290,41.28,2.7866,0.4987,0.1799,-0.0001,-0.0000,1.9413,flat,18.0,1,7.231
1300,41.60,2.6087,1.0101,0.1799,-0.0002,-0.0000,1.8052,flat,18.0,1,6.691
1310,41.92,2.4915,1.5540,0.1798,-0.0003,-0.0000,1.7233,flat,18.0,1,6.135
1320,42.24,2.4103,2.1174,0.1797,-0.0001,-0.0000,1.6984,flat,18.0,1,5.569
1330,42.56,2.3371,2.6855,0.1797,0.0000,0.0000,1.7075,flat,18.0,1,5.001
1340,42.88,2.2571,3.2475,0.1797,0.0001,0.0000,1.7324,flat,18.0,1,4.439
1350,43.20,2.1624,3.8059,0.1797,0.0001,-0.0000,1.7601,flat,18.0,1,3.876
1360,43.52,2.0522,4.3629,0.1797,0.0001,-0.0000,1.7833,flat,18.0,1,3.312
1370,43.84,1.9294,4.9198,0.1797,0.0001,-0.0000,1.7992,flat,18.0,1,2.745
1380,44.16,1.7982,5.4775,0.1797,0.0000,-0.0000,1.8076,flat,18.0,1,2.177
1390,44.48,1.6664,6.0206,0.1797,0.0000,0.0001,1.8102,flat,18.0,1,1.624
1400,44.80,1.5505,6.4961,0.1797,-0.0000,0.0001,1.8091,flat,18.0,1,1.145
1410,45.12,1.4534,6.8960,0.1797,0.0000,0.0001,1.8399,flat,18.0,2,15.062
1420,45.44,1.3621,7.2247,0.1798,-0.0001,0.0002,2.0797,flat,18.0,2,15.266
1430,45.76,1.2536,7.3700,0.1798,-0.0003,-0.0000,2.8599,flat,18.0,2,15.316
1440,46.08,1.0499,7.4165,0.1799,-0.0003,-0.0002,-2.5399,flat,18.0,2,15.233
1450,46.40,0.7838,7.1585,0.1777,0.0129,-0.0003,-2.1227,rough,14.0,2,14.868
1460,46.72,0.5308,6.7173,0.1796,0.0013,-0.0001,-2.1194,flat,18.0,2,14.362
1470,47.04,0.2329,6.2606,0.1797,-0.0001,-0.0000,-2.1960,flat,18.0,2,13.818
1480,47.36,-0.1025,5.8143,0.1797,-0.0001,-0.0000,-2.2371,flat,18.0,2,13.260
1490,47.68,-0.4580,5.3701,0.1797,-0.0001,-0.0000,-2.2526,flat,18.0,2,12.691
1500,48.00,-0.8203,4.9244,0.1797,-0.0000,0.0000,-2.2514,flat,18.0,2,12.118
1510,48.32,-1.1774,4.4791,0.1797,0.0000,0.0000,-2.2400,flat,18.0,2,11.548
1520,48.64,-1.5273,4.0305,0.1797,0.0001,0.0000,-2.2239,flat,18.0,2,10.979
1530,48.96,-1.8697,3.5762,0.1797,0.0001,-0.0000,-2.2075,flat,18.0,2,10.411
1540,49.28,-2.2058,3.1157,0.1797,0.0000,-0.0000,-2.1937,flat,18.0,2,9.841
1550,49.60,-2.5374,2.6497,0.1797,0.0000,-0.0000,-2.1839,flat,18.0,2,9.269
1560,49.92,-2.8663,2.1797,0.1797,0.0000,-0.0000,-2.1785,flat,18.0,2,8.695
1570,50.24,-3.1942,1.7071,0.1797,0.0000,-0.0000,-2.1766,flat,18.0,2,8.120
1580,50.56,-3.5220,1.2339,0.1797,-0.0000,0.0000,-2.1773,flat,18.0,2,7.544
1590,50.88,-3.8502,0.7617,0.1797,-0.0000,0.0000,-2.1793,flat,18.0,2,6.969
1600,51.20,-4.1793,0.2904,0.1797,-0.0000,0.0000,-2.1819,flat,18.0,2,6.395
1610,51.52,-4.5097,-0.1800,0.1797,-0.0000,-0.0000,-2.1844,flat,18.0,2,5.820
1620,51.84,-4.8413,-0.6499,0.1797,-0.0000,-0.0000,-2.1864,flat,18.0,2,5.245
1630,52.16,-5.1739,-1.1194,0.1797,-0.0000,-0.0000,-2.1878,flat,18.0,2,4.669
1640,52.48,-5.5071,-1.5888,0.1797,-0.0000,-0.0000,-2.1885,flat,18.0,2,4.094
1650,52.80,-5.8407,-2.0583,0.1797,-0.0000,-0.0000,-2.1887,flat,18.0,2,3.518
1660,53.12,-6.1744,-2.5277,0.1797,0.0000,0.0000,-2.1886,flat,18.0,2,2.942
1670,53.44,-6.5079,-2.9972,0.1797,0.0000,0.0000,-2.1882,flat,18.0,2,2.366
1680,53.76,-6.8388,-3.4635,0.1797,0.0000,0.0001,-2.1879,flat,18.0,2,1.794
1690,54.08,-7.1351,-3.8812,0.1797,0.0000,0.0001,-2.1875,flat,18.0,2,1.282
1700,54.40,-7.4247,-4.2753,0.1798,-0.0002,0.0002,-2.2475,flat,18.0,3,1.169
1710,54.72,-7.7734,-4.6767,0.1798,-0.0001,0.0000,-2.2923,flat,18.0,0,13.119
1720,55.04,-8.0815,-5.0415,0.1797,0.0001,0.0002,-2.2362,flat,18.0,0,13.436
1730,55.36,-8.3237,-5.3703,0.1797,0.0002,0.0003,-2.1366,transition,15.0,0,13.695
1740,55.68,-8.4905,-5.6643,0.1797,0.0002,-0.0000,-2.0057,flat,18.0,0,13.882
1750,56.00,-8.6293,-5.9802,0.1798,0.0002,0.0001,-1.8395,flat,18.0,0,14.050
1760,56.32,-8.7129,-6.2861,0.1798,0.0002,0.0000,-1.6332,flat,18.0,0,14.168
1770,56.64,-8.7327,-6.5839,0.1798,0.0002,0.0000,-1.4180,flat,18.0,0,14.228
1780,56.96,-8.6864,-6.8753,0.1798,0.0003,-0.0000,-1.2460,flat,18.0,0,14.227
1790,57.28,-8.5818,-7.1671,0.1797,0.0002,-0.0000,-1.1107,flat,18.0,0,14.176
1800,57.60,-8.4225,-7.4677,0.1797,0.0002,-0.0001,-1.0063,flat,18.0,0,14.079
1810,57.92,-8.2084,-7.7860,0.1797,0.0002,-0.0001,-0.9294,flat,18.0,0,13.941
1820,58.24,-7.9402,-8.1286,0.1797,0.0001,-0.0000,-0.8808,flat,18.0,0,13.766
1830,58.56,-7.6789,-8.4305,0.1797,0.0001,0.0001,-0.8204,flat,18.0,0,13.598
1840,58.88,-7.4405,-8.6691,0.1797,0.0001,0.0001,-0.7401,flat,18.0,0,13.441
1850,59.20,-7.2206,-8.8538,0.1797,0.0001,0.0001,-0.6469,flat,18.0,0,13.292
1860,59.52,-7.0155,-8.9979,0.1797,0.0001,0.0001,-0.5407,flat,18.0,0,13.146
1870,59.84,-6.8222,-9.1086,0.1797,0.0001,0.0000,-0.4231,flat,18.0,0,13.003
1880,60.16,-6.6388,-9.1913,0.1797,0.0001,0.0000,-0.2974,flat,18.0,0,12.862
1890,60.48,-6.4641,-9.2495,0.1797,0.0001,0.0000,-0.1669,flat,18.0,0,12.721
1900,60.80,-6.2963,-9.2857,0.1797,0.0001,0.0000,-0.0346,flat,18.0,0,12.579
1910,61.12,-6.1337,-9.2998,0.1797,0.0001,0.0000,0.0905,flat,18.0,0,12.434
1920,61.44,-5.9736,-9.2914,0.1797,0.0001,-0.0000,0.1945,flat,18.0,0,12.283
1930,61.76,-5.8125,-9.2633,0.1797,0.0001,-0.0000,0.2816,flat,18.0,0,12.123
1940,62.08,-5.6470,-9.2170,0.1797,0.0001,-0.0000,0.3552,flat,18.0,0,11.953
1950,62.40,-5.4741,-9.1527,0.1797,0.0000,-0.0000,0.4178,flat,18.0,0,11.769
1960,62.72,-5.2904,-9.0698,0.1797,0.0000,-0.0000,0.4712,flat,18.0,0,11.567
1970,63.04,-5.0926,-8.9665,0.1797,0.0000,-0.0000,0.5167,flat,18.0,0,11.345
1980,63.36,-4.8770,-8.8407,0.1797,0.0000,-0.0000,0.5554,flat,18.0,0,11.097
1990,63.68,-4.6396,-8.6896,0.1797,0.0000,-0.0001,0.5880,flat,18.0,0,10.820
2000,64.00,-4.3757,-8.5096,0.1797,0.0000,-0.0001,0.6149,flat,18.0,0,10.507
2010,64.32,-4.0800,-8.2966,0.1797,0.0000,-0.0001,0.6363,flat,18.0,0,10.153
2020,64.64,-3.7461,-8.0460,0.1797,0.0000,-0.0001,0.6522,flat,18.0,0,9.750
2030,64.96,-3.3663,-7.7531,0.1797,0.0000,-0.0001,0.6619,flat,18.0,0,9.291
2040,65.28,-2.9384,-7.4184,0.1797,0.0000,0.0000,0.6605,flat,18.0,0,8.775
2050,65.60,-2.5305,-7.1376,0.1799,0.0001,-0.0000,0.4405,flat,18.0,0,8.299
2060,65.92,-2.0567,-6.9499,0.1799,-0.0000,-0.0000,0.1943,flat,18.0,0,7.790
2070,66.24,-1.5220,-6.8665,0.1799,-0.0003,-0.0001,0.0471,flat,18.0,0,7.256
2080,66.56,-0.9538,-6.8459,0.1798,-0.0001,-0.0000,0.0322,flat,18.0,0,6.714
2090,66.88,-0.3964,-6.8236,0.1798,0.0002,0.0000,0.0995,flat,18.0,0,6.186
2100,67.20,0.1487,-6.7590,0.1798,0.0004,0.0000,0.1974,flat,18.0,0,5.658
2110,67.52,0.6837,-6.6404,0.1798,0.0004,-0.0000,0.2879,flat,18.0,0,5.121
2120,67.84,1.2110,-6.4736,0.1798,0.0003,-0.0000,0.3561,flat,18.0,0,4.572
2130,68.16,1.7337,-6.2709,0.1797,0.0002,-0.0000,0.3980,flat,18.0,0,4.013
2140,68.48,2.2552,-6.0469,0.1797,0.0001,-0.0000,0.4184,flat,18.0,0,3.446
2150,68.80,2.7786,-5.8123,0.1797,0.0000,-0.0000,0.4243,flat,18.0,0,2.873
2160,69.12,3.3025,-5.5760,0.1797,-0.0000,0.0000,0.4210,flat,18.0,0,2.299
2170,69.44,3.8195,-5.3460,0.1797,-0.0000,0.0001,0.4131,flat,18.0,0,1.734
2180,69.76,4.2793,-5.1458,0.1797,-0.0000,0.0001,0.4041,flat,18.0,0,1.235
2190,70.08,4.7276,-4.9483,0.1797,0.0001,0.0000,0.4588,flat,18.0,1,12.998
2200,70.40,5.1158,-4.7229,0.1799,-0.0002,0.0000,0.7232,flat,18.0,1,12.901
2210,70.72,5.3959,-4.3967,0.1799,-0.0001,-0.0000,1.0946,flat,18.0,1,12.686
2220,71.04,5.5691,-3.9832,0.1799,-0.0000,-0.0001,1.5321,flat,18.0,1,12.361
2230,71.36,5.5577,-3.4714,0.1786,0.0074,0.0000,1.7687,flat,18.0,1,11.882
2240,71.68,5.4334,-2.9531,0.1797,0.0010,-0.0000,1.9042,flat,18.0,1,11.356
2250,72.00,5.2413,-2.4374,0.1798,0.0004,-0.0000,1.9774,flat,18.0,1,10.806
2260,72.32,5.0119,-1.9213,0.1797,0.0001,-0.0000,2.0058,flat,18.0,1,10.242
2270,72.64,4.7690,-1.4013,0.1797,0.0000,-0.0000,2.0071,flat,18.0,1,9.668
2280,72.96,4.5295,-0.8828,0.1797,-0.0000,0.0000,1.9931,flat,18.0,1,9.097
2290,73.28,4.2996,-0.3625,0.1797,-0.0001,0.0000,1.9723,flat,18.0,1,8.529
2300,73.60,4.0806,0.1627,0.1797,-0.0001,-0.0000,1.9515,flat,18.0,1,7.960
2310,73.92,3.8715,0.6935,0.1797,-0.0001,-0.0000,1.9349,flat,18.0,1,7.389
2320,74.24,3.6697,1.2291,0.1797,-0.0000,-0.0000,1.9240,flat,18.0,1,6.817
2330,74.56,3.4720,1.7683,0.1797,-0.0000,-0.0000,1.9189,flat,18.0,1,6.244
2340,74.88,3.2760,2.3096,0.1797,-0.0000,-0.0000,1.9180,flat,18.0,1,5.669
2350,75.20,3.0800,2.8504,0.1797,0.0000,0.0000,1.9197,flat,18.0,1,5.095
2360,75.52,2.8830,3.3904,0.1797,0.0000,0.0000,1.9227,flat,18.0,1,4.522
2370,75.84,2.6843,3.9297,0.1797,0.0000,-0.0000,1.9259,flat,18.0,1,3.949
2380,76.16,2.4840,4.4687,0.1797,0.0000,-0.0000,1.9284,flat,18.0,1,3.376
2390,76.48,2.2822,5.0074,0.1797,0.0000,-0.0000,1.9301,flat,18.0,1,2.803
2400,76.80,2.0796,5.5463,0.1797,0.0000,-0.0000,1.9310,flat,18.0,1,2.232
2410,77.12,1.8807,6.0742,0.1797,0.0000,0.0001,1.9312,flat,18.0,1,1.675
2420,77.44,1.7056,6.5390,0.1797,-0.0000,0.0001,1.9311,flat,18.0,1,1.189
2430,77.76,1.5587,6.9312,0.1797,0.0000,0.0001,1.9538,flat,18.0,2,15.155
2440,78.08,1.4308,7.2299,0.1798,-0.0001,0.0002,2.2264,flat,18.0,2,15.311
2450,78.40,1.2734,7.3620,0.1798,-0.0004,-0.0001,2.9125,flat,18.0,2,15.322
2460,78.72,0.9588,7.4152,0.1799,-0.0002,-0.0002,-2.7905,flat,18.0,2,15.179
2470,79.04,0.5658,7.2201,0.1786,0.0073,0.0001,-2.4724,flat,18.0,2,14.792
2480,79.36,0.2310,6.8871,0.1799,0.0001,-0.0000,-2.2232,flat,18.0,2,14.328
2490,79.68,-0.0430,6.4654,0.1799,0.0000,-0.0000,-1.9995,flat,18.0,2,13.825
2500,80.00,-0.2388,5.9740,0.1799,0.0001,-0.0000,-1.8227,flat,18.0,2,13.310
2510,80.32,-0.3629,5.4315,0.1798,0.0003,-0.0001,-1.7426,flat,18.0,2,12.797
2520,80.64,-0.4604,4.8742,0.1797,-0.0001,0.0000,-1.7711,flat,18.0,2,12.291
2530,80.96,-0.5780,4.3424,0.1798,-0.0003,0.0000,-1.8717,flat,18.0,2,11.799
2540,81.28,-0.7510,3.8390,0.1799,-0.0003,0.0000,-1.9975,flat,18.0,2,11.298
2550,81.60,-0.9884,3.3630,0.1798,-0.0004,-0.0000,-2.1133,flat,18.0,2,10.780
2560,81.92,-1.2826,2.9104,0.1798,-0.0004,-0.0000,-2.2028,flat,18.0,2,10.244
2570,82.24,-1.6191,2.4748,0.1797,-0.0002,-0.0000,-2.2638,flat,18.0,2,9.694
2580,82.56,-1.9846,2.0499,0.1797,-0.0001,-0.0000,-2.2990,flat,18.0,2,9.134
2590,82.88,-2.3669,1.6283,0.1797,-0.0001,-0.0000,-2.3147,flat,18.0,2,8.565
2600,83.20,-2.7566,1.2059,0.1797,-0.0000,0.0000,-2.3153,flat,18.0,2,7.991
2610,83.52,-3.1428,0.7837,0.1797,0.0000,0.0000,-2.3066,flat,18.0,2,7.419
2620,83.84,-3.5231,0.3588,0.1797,0.0000,0.0000,-2.2937,flat,18.0,2,6.849
2630,84.16,-3.8975,-0.0710,0.1797,0.0000,-0.0000,-2.2803,flat,18.0,2,6.280
2640,84.48,-4.2669,-0.5060,0.1797,0.0000,-0.0000,-2.2689,flat,18.0,2,5.709
2650,84.80,-4.6328,-0.9458,0.1797,0.0000,-0.0000,-2.2604,flat,18.0,2,5.137
2660,85.12,-4.9966,-1.3893,0.1797,0.0000,-0.0000,-2.2552,flat,18.0,2,4.563
2670,85.44,-5.3596,-1.8352,0.1797,0.0000,-0.0000,-2.2529,flat,18.0,2,3.988
2680,85.76,-5.7225,-2.2822,0.1797,0.0000,0.0000,-2.2529,flat,18.0,2,3.412
2690,86.08,-6.0855,-2.7286,0.1797,-0.0000,0.0000,-2.2543,flat,18.0,2,2.837
2700,86.40,-6.4491,-3.1742,0.1797,-0.0000,0.0000,-2.2563,flat,18.0,2,2.262
2710,86.72,-6.8073,-3.6115,0.1797,-0.0000,0.0001,-2.2581,flat,18.0,2,1.697
2720,87.04,-7.1238,-3.9964,0.1797,-0.0000,0.0001,-2.2600,flat,18.0,2,1.198
2730,87.36,-7.4409,-4.3584,0.1797,-0.0002,0.0001,-2.3416,flat,18.0,3,1.113
2740,87.68,-7.8139,-4.7161,0.1798,-0.0001,0.0001,-2.3793,rough,14.0,0,13.160
2750,88.00,-8.0848,-4.9845,0.1797,0.0001,0.0001,-2.3263,flat,18.0,0,13.438
2760,88.32,-8.3178,-5.2510,0.1797,0.0002,0.0001,-2.2327,transition,15.0,0,13.682
2770,88.64,-8.4889,-5.4915,0.1797,0.0002,0.0001,-2.0997,flat,18.0,0,13.868
2780,88.96,-8.6409,-5.7864,0.1797,0.0002,-0.0000,-1.9526,flat,18.0,0,14.043
2790,89.28,-8.7548,-6.0785,0.1798,0.0002,0.0000,-1.7532,flat,18.0,0,14.185
2800,89.60,-8.8106,-6.3629,0.1798,0.0001,0.0000,-1.5208,flat,18.0,0,14.275
2810,89.92,-8.7988,-6.6386,0.1798,0.0002,-0.0000,-1.3168,flat,18.0,0,14.301
