step,time_s,x,y,z,roll,pitch,yaw,terrain,speed,target_idx,dist_to_target
10,0.32,-1.3222,0.8846,0.1837,0.0003,-0.0338,0.0049,rough,14.0,0,6.119
20,0.64,-1.1002,0.8861,0.1798,-0.0008,-0.0002,0.4025,flat,18.0,0,6.306
30,0.96,-0.8398,1.0453,0.1798,-0.0003,-0.0001,0.8571,flat,18.0,0,6.451
40,1.28,-0.6448,1.3273,0.1798,-0.0002,-0.0001,1.2528,flat,18.0,0,6.492
50,1.60,-0.5396,1.7154,0.1799,0.0000,-0.0001,1.6294,flat,18.0,0,6.428
60,1.92,-0.5906,2.1636,0.1799,0.0001,-0.0000,1.9229,flat,18.0,0,6.220
70,2.24,-0.7887,2.6101,0.1799,0.0001,-0.0000,2.1441,flat,18.0,0,5.898
80,2.56,-1.0987,3.0242,0.1799,0.0001,-0.0000,2.3165,flat,18.0,0,5.498
90,2.88,-1.4857,3.3946,0.1799,0.0002,-0.0000,2.4538,flat,18.0,0,5.049
100,3.20,-1.9241,3.7210,0.1799,0.0003,-0.0000,2.5785,flat,18.0,0,4.571
110,3.52,-2.4027,3.9989,0.1799,0.0004,-0.0000,2.6921,flat,18.0,0,4.073
120,3.84,-2.9117,4.2265,0.1798,0.0004,-0.0000,2.7965,flat,18.0,0,3.560
130,4.16,-3.4430,4.4035,0.1798,0.0004,-0.0000,2.8942,flat,18.0,0,3.036
140,4.48,-3.9896,4.5298,0.1798,0.0004,-0.0000,2.9883,flat,18.0,0,2.505
150,4.80,-4.5458,4.6053,0.1798,0.0004,-0.0000,3.0832,flat,18.0,0,1.970
160,5.12,-5.1053,4.6275,0.1798,0.0004,0.0000,-3.0979,flat,18.0,0,1.434
170,5.44,-5.6584,4.5923,0.1799,0.0003,0.0000,-2.9799,flat,18.0,0,0.907
180,5.76,-6.0484,4.5521,0.1797,0.0002,-0.0003,-2.6011,flat,18.0,1,6.869
190,6.08,-6.2539,4.3858,0.1799,-0.0000,0.0001,-2.0485,flat,18.0,1,7.088
200,6.40,-6.3791,4.1244,0.1798,-0.0003,-0.0001,-1.6152,flat,18.0,1,7.243
210,6.72,-6.3835,3.7978,0.1799,-0.0003,-0.0001,-1.1825,flat,18.0,1,7.297
220,7.04,-6.2028,3.4508,0.1799,-0.0001,-0.0001,-0.8762,flat,18.0,1,7.190
230,7.36,-5.8766,3.1329,0.1799,-0.0000,-0.0000,-0.6383,flat,18.0,1,6.955
240,7.68,-5.4542,2.8651,0.1799,0.0000,-0.0000,-0.4169,flat,18.0,1,6.636
250,8.00,-4.9619,2.6756,0.1799,0.0000,-0.0000,-0.2151,flat,18.0,1,6.244
260,8.32,-4.4270,2.5789,0.1799,0.0001,-0.0000,-0.0391,flat,18.0,1,5.796
270,8.64,-3.8751,2.5739,0.1799,0.0002,-0.0000,0.1031,flat,18.0,1,5.306
280,8.96,-3.3247,2.6436,0.1798,0.0004,-0.0000,0.2082,flat,18.0,1,4.792
290,9.28,-2.7820,2.7695,0.1798,0.0004,-0.0000,0.2917,flat,18.0,1,4.264
300,9.60,-2.2498,2.9396,0.1798,0.0003,-0.0000,0.3616,flat,18.0,1,3.727
310,9.92,-1.7296,3.1466,0.1797,0.0002,-0.0000,0.4232,flat,18.0,1,3.186
320,10.24,-1.2226,3.3853,0.1797,0.0002,-0.0000,0.4801,flat,18.0,1,2.640
330,10.56,-0.7303,3.6527,0.1797,0.0002,-0.0000,0.5360,flat,18.0,1,2.095
340,10.88,-0.2555,3.9476,0.1797,0.0002,0.0000,0.5943,flat,18.0,1,1.550
350,11.20,0.1993,4.2696,0.1797,0.0002,0.0000,0.6573,flat,18.0,1,1.011
360,11.52,0.5888,4.5764,0.1798,0.0002,0.0001,0.5672,flat,18.0,2,9.389
370,11.84,0.9960,4.7948,0.1799,-0.0001,-0.0000,0.2961,flat,18.0,2,9.176
380,12.16,1.4828,4.9179,0.1799,0.0000,-0.0000,0.0543,flat,18.0,2,8.861
390,12.48,2.0096,4.9263,0.1799,-0.0001,-0.0000,-0.1430,flat,18.0,2,8.459
400,12.80,2.5424,4.8315,0.1799,-0.0001,-0.0000,-0.2908,flat,18.0,2,7.996
410,13.12,3.0633,4.6590,0.1798,-0.0004,-0.0000,-0.3991,flat,18.0,2,7.499
420,13.44,3.5678,4.4312,0.1798,-0.0004,-0.0000,-0.4819,flat,18.0,2,6.980
430,13.76,4.0556,4.1621,0.1797,-0.0003,-0.0000,-0.5483,flat,18.0,2,6.449
440,14.08,4.5274,3.8608,0.1797,-0.0002,-0.0000,-0.6035,flat,18.0,2,5.909
450,14.40,4.9841,3.5335,0.1797,-0.0002,-0.0000,-0.6506,flat,18.0,2,5.362
460,14.72,5.4259,3.1847,0.1797,-0.0001,-0.0000,-0.6902,flat,18.0,2,4.812
470,15.04,5.8548,2.8184,0.1797,-0.0001,-0.0000,-0.7269,flat,18.0,2,4.259
480,15.36,6.2710,2.4364,0.1797,-0.0001,-0.0000,-0.7626,flat,18.0,2,3.703
490,15.68,6.6736,2.0394,0.1797,-0.0001,-0.0000,-0.7971,flat,18.0,2,3.147
500,16.00,7.0619,1.6287,0.1797,-0.0001,0.0000,-0.8326,flat,18.0,2,2.590
510,16.32,7.4342,1.2050,0.1797,-0.0001,0.0000,-0.8702,flat,18.0,2,2.035
520,16.64,7.7885,0.7687,0.1797,-0.0001,0.0000,-0.9136,flat,18.0,2,1.483
530,16.96,8.1205,0.3180,0.1797,-0.0002,0.0000,-0.9759,flat,18.0,2,0.936
540,17.28,8.3662,-0.0914,0.1798,0.0002,-0.0000,-1.2066,flat,18.0,3,6.331
550,17.60,8.5041,-0.5273,0.1799,0.0000,-0.0000,-1.5181,flat,18.0,3,6.141
560,17.92,8.5027,-1.0022,0.1798,0.0008,-0.0010,-1.7373,flat,18.0,3,5.846
570,18.24,8.3926,-1.5013,0.1799,-0.0000,-0.0000,-1.9440,flat,18.0,3,5.470
580,18.56,8.1755,-1.9845,0.1799,-0.0001,-0.0000,-2.1057,flat,18.0,3,5.033
590,18.88,7.8792,-2.4365,0.1799,-0.0003,-0.0000,-2.2260,flat,18.0,3,4.558
600,19.20,7.5291,-2.8585,0.1798,-0.0004,-0.0000,-2.3166,flat,18.0,3,4.061
610,19.52,7.1407,-3.2471,0.1798,-0.0004,-0.0000,-2.4045,flat,18.0,3,3.555
620,19.84,6.7181,-3.6040,0.1798,-0.0004,-0.0000,-2.4915,flat,18.0,3,3.041
630,20.16,6.2650,-3.9261,0.1798,-0.0004,-0.0000,-2.5798,flat,18.0,3,2.520
640,20.48,5.7848,-4.2090,0.1798,-0.0004,-0.0000,-2.6730,flat,18.0,3,1.996
650,20.80,5.2810,-4.4467,0.1798,-0.0004,-0.0000,-2.7787,flat,18.0,3,1.474
660,21.12,4.7584,-4.6285,0.1799,-0.0002,0.0000,-2.9165,flat,18.0,3,0.961
670,21.44,4.2417,-4.7231,0.1799,0.0000,0.0000,-3.1221,flat,18.0,0,13.937
680,21.76,3.7149,-4.7127,0.1799,-0.0001,-0.0000,2.9744,flat,18.0,0,13.529
690,22.08,3.2112,-4.6146,0.1798,-0.0001,-0.0002,2.8724,flat,18.0,0,13.088
700,22.40,2.6865,-4.4532,0.1798,-0.0004,-0.0000,2.7621,flat,18.0,0,12.593
710,22.72,2.1767,-4.2355,0.1798,-0.0004,-0.0000,2.6811,flat,18.0,0,12.075
720,23.04,1.6817,-3.9772,0.1797,-0.0002,-0.0000,2.6186,flat,18.0,0,11.541
730,23.36,1.2002,-3.6882,0.1797,-0.0002,-0.0000,2.5686,flat,18.0,0,10.997
740,23.68,0.7317,-3.3753,0.1797,-0.0001,-0.0000,2.5295,flat,18.0,0,10.447
750,24.00,0.2738,-3.0440,0.1797,-0.0001,-0.0000,2.4966,flat,18.0,0,9.891
760,24.32,-0.1746,-2.6977,0.1797,-0.0001,-0.0000,2.4682,flat,18.0,0,9.333
770,24.64,-0.6144,-2.3386,0.1797,-0.0001,-0.0000,2.4433,flat,18.0,0,8.771
780,24.96,-1.0462,-1.9685,0.1797,-0.0001,-0.0000,2.4211,flat,18.0,0,8.208
790,25.28,-1.4707,-1.5888,0.1797,-0.0001,-0.0000,2.4006,flat,18.0,0,7.643
800,25.60,-1.8882,-1.2004,0.1797,-0.0001,-0.0000,2.3819,flat,18.0,0,7.076
810,25.92,-2.2990,-0.8041,0.1797,-0.0001,-0.0000,2.3649,flat,18.0,0,6.508
820,26.24,-2.7034,-0.4008,0.1797,-0.0001,-0.0000,2.3492,flat,18.0,0,5.940
830,26.56,-3.1019,0.0088,0.1797,-0.0001,-0.0000,2.3344,flat,18.0,0,5.371
840,26.88,-3.4945,0.4244,0.1797,-0.0001,-0.0000,2.3202,flat,18.0,0,4.801
850,27.20,-3.8812,0.8455,0.1797,-0.0000,-0.0000,2.3065,flat,18.0,0,4.231
860,27.52,-4.2623,1.2717,0.1797,-0.0000,0.0000,2.2931,flat,18.0,0,3.661
870,27.84,-4.6375,1.7029,0.1797,-0.0000,0.0000,2.2797,flat,18.0,0,3.091
880,28.16,-5.0068,2.1390,0.1797,-0.0000,0.0000,2.2658,flat,18.0,0,2.521
890,28.48,-5.3694,2.5800,0.1797,-0.0001,0.0000,2.2503,flat,18.0,0,1.952
900,28.80,-5.7240,3.0262,0.1797,-0.0001,0.0000,2.2314,flat,18.0,0,1.384
910,29.12,-6.0675,3.4779,0.1797,-0.0001,0.0000,2.2037,flat,18.0,0,0.819
920,29.44,-6.2880,3.8252,0.1798,0.0003,0.0001,1.8671,flat,18.0,1,7.199
930,29.76,-6.3773,4.1648,0.1799,0.0001,-0.0001,1.4342,flat,18.0,1,7.236
940,30.08,-6.2980,4.5651,0.1799,0.0001,-0.0000,1.1095,flat,18.0,1,7.117
950,30.40,-6.0599,4.9593,0.1799,0.0000,-0.0000,0.8712,flat,18.0,1,6.861
960,30.72,-5.7061,5.3147,0.1799,-0.0000,-0.0000,0.6831,flat,18.0,1,6.510
970,31.04,-5.2748,5.6222,0.1799,-0.0000,-0.0000,0.5105,flat,18.0,1,6.098
980,31.36,-4.7860,5.8671,0.1799,-0.0001,-0.0000,0.3553,flat,18.0,1,5.641
990,31.68,-4.2603,6.0427,0.1799,-0.0002,-0.0000,0.2228,flat,18.0,1,5.150
1000,32.00,-3.7130,6.1526,0.1799,-0.0004,-0.0000,0.1100,flat,18.0,1,4.638
1010,32.32,-3.1543,6.2031,0.1798,-0.0004,-0.0000,0.0127,flat,18.0,1,4.110
1020,32.64,-2.5919,6.2006,0.1798,-0.0004,-0.0000,-0.0701,flat,18.0,1,3.571
1030,32.96,-2.0310,6.1530,0.1798,-0.0003,-0.0000,-0.1402,flat,18.0,1,3.026
1040,33.28,-1.4746,6.0669,0.1797,-0.0002,-0.0000,-0.2033,flat,18.0,1,2.478
1050,33.60,-0.9254,5.9460,0.1797,-0.0002,-0.0000,-0.2644,flat,18.0,1,1.929
1060,33.92,-0.3866,5.7918,0.1797,-0.0002,0.0000,-0.3295,flat,18.0,1,1.382
1070,34.24,0.1354,5.6022,0.1798,-0.0003,0.0000,-0.4097,flat,18.0,1,0.843
1080,34.56,0.6462,5.3741,0.1797,-0.0002,-0.0000,-0.4482,flat,18.0,2,9.802
1090,34.88,1.1002,5.1514,0.1797,-0.0001,0.0002,-0.4776,rough,14.0,2,9.306
1100,35.20,1.5744,4.8993,0.1797,-0.0001,-0.0001,-0.5052,flat,18.0,2,8.778
1110,35.52,2.0673,4.6197,0.1797,-0.0001,-0.0000,-0.5342,flat,18.0,2,8.218
1120,35.84,2.5531,4.3259,0.1797,-0.0001,-0.0000,-0.5595,flat,18.0,2,7.656
1130,36.16,3.0324,4.0198,0.1797,-0.0001,-0.0000,-0.5819,flat,18.0,2,7.092
1140,36.48,3.5055,3.7029,0.1797,-0.0001,-0.0000,-0.6020,flat,18.0,2,6.527
1150,36.80,3.9728,3.3765,0.1797,-0.0001,-0.0000,-0.6203,flat,18.0,2,5.960
1160,37.12,4.4345,3.0416,0.1797,-0.0001,-0.0000,-0.6372,flat,18.0,2,5.392
1170,37.44,4.8909,2.6989,0.1797,-0.0001,-0.0000,-0.6530,flat,18.0,2,4.824
1180,37.76,5.3422,2.3489,0.1797,-0.0001,-0.0000,-0.6681,flat,18.0,2,4.255
1190,38.08,5.7882,1.9922,0.1797,-0.0001,-0.0000,-0.6827,flat,18.0,2,3.686
1200,38.40,6.2289,1.6289,0.1797,-0.0001,0.0000,-0.6974,flat,18.0,2,3.117
1210,38.72,6.6640,1.2592,0.1797,-0.0001,0.0000,-0.7126,flat,18.0,2,2.548
1220,39.04,7.0929,0.8830,0.1797,-0.0001,0.0000,-0.7296,flat,18.0,2,1.979
1230,39.36,7.5143,0.4997,0.1797,-0.0001,0.0000,-0.7502,flat,18.0,2,1.412
1240,39.68,7.9245,0.1081,0.1797,-0.0001,0.0000,-0.7792,flat,18.0,2,0.848
1250,40.00,8.2052,-0.2080,0.1798,0.0003,-0.0000,-1.0535,flat,18.0,3,6.134
1260,40.32,8.3886,-0.5951,0.1799,-0.0000,-0.0000,-1.3818,flat,18.0,3,6.009
1270,40.64,8.4529,-1.0643,0.1799,-0.0002,-0.0000,-1.6774,flat,18.0,3,5.769
1280,40.96,8.3751,-1.5620,0.1799,-0.0001,-0.0000,-1.9046,flat,18.0,3,5.422
1290,41.28,8.1785,-2.0475,0.1799,-0.0001,-0.0000,-2.0817,flat,18.0,3,5.004
1300,41.60,7.8936,-2.5023,0.1799,-0.0002,-0.0000,-2.2154,flat,18.0,3,4.541
1310,41.92,7.5479,-2.9252,0.1798,-0.0004,-0.0000,-2.3133,flat,18.0,3,4.052
1320,42.24,7.1610,-3.3131,0.1798,-0.0004,-0.0000,-2.4064,flat,18.0,3,3.552
1330,42.56,6.7380,-3.6677,0.1798,-0.0004,-0.0000,-2.4984,flat,18.0,3,3.042
1340,42.88,6.2830,-3.9856,0.1798,-0.0004,-0.0000,-2.5915,flat,18.0,3,2.525
1350,43.20,5.7998,-4.2622,0.1798,-0.0004,-0.0000,-2.6894,flat,18.0,3,2.004
1360,43.52,5.2925,-4.4910,0.1798,-0.0004,-0.0000,-2.7998,flat,18.0,3,1.485
1370,43.84,4.7667,-4.6615,0.1799,-0.0001,0.0000,-2.9426,flat,18.0,3,0.975
1380,44.16,4.2458,-4.7423,0.1799,0.0000,0.0000,3.1366,flat,18.0,0,13.952
1390,44.48,3.7169,-4.7203,0.1799,-0.0001,-0.0000,2.9561,flat,18.0,0,13.535
1400,44.80,3.2347,-4.6215,0.1798,-0.0001,-0.0002,2.8777,flat,18.0,0,13.110
1410,45.12,2.7095,-4.4630,0.1798,-0.0004,-0.0000,2.7662,flat,18.0,0,12.617
1420,45.44,2.1991,-4.2473,0.1798,-0.0004,-0.0000,2.6842,flat,18.0,0,12.099
1430,45.76,1.7034,-3.9905,0.1797,-0.0002,-0.0000,2.6210,flat,18.0,0,11.566
1440,46.08,1.2213,-3.7027,0.1797,-0.0002,-0.0000,2.5706,flat,18.0,0,11.022
1450,46.40,0.7523,-3.3906,0.1797,-0.0001,-0.0000,2.5310,flat,18.0,0,10.472
1460,46.72,0.2940,-3.0601,0.1797,-0.0001,-0.0000,2.4979,flat,18.0,0,9.917
1470,47.04,-0.1548,-2.7144,0.1797,-0.0001,-0.0000,2.4693,flat,18.0,0,9.358
1480,47.36,-0.5949,-2.3557,0.1797,-0.0001,-0.0000,2.4443,flat,18.0,0,8.797
1490,47.68,-1.0270,-1.9861,0.1797,-0.0001,-0.0000,2.4219,flat,18.0,0,8.234
1500,48.00,-1.4518,-1.6068,0.1797,-0.0001,-0.0000,2.4014,flat,18.0,0,7.669
1510,48.32,-1.8696,-1.2187,0.1797,-0.0001,-0.0000,2.3826,flat,18.0,0,7.102
1520,48.64,-2.2806,-0.8227,0.1797,-0.0001,-0.0000,2.3655,flat,18.0,0,6.534
1530,48.96,-2.6854,-0.4196,0.1797,-0.0001,-0.0000,2.3498,flat,18.0,0,5.966
1540,49.28,-3.0841,-0.0103,0.1797,-0.0001,-0.0000,2.3350,flat,18.0,0,5.397
1550,49.60,-3.4768,0.4050,0.1797,-0.0001,-0.0000,2.3208,flat,18.0,0,4.827
1560,49.92,-3.8638,0.8259,0.1797,-0.0000,-0.0000,2.3070,flat,18.0,0,4.257
1570,50.24,-4.2451,1.2520,0.1797,-0.0000,0.0000,2.2936,flat,18.0,0,3.687
1580,50.56,-4.6206,1.6830,0.1797,-0.0000,0.0000,2.2803,flat,18.0,0,3.117
1590,50.88,-4.9901,2.1188,0.1797,-0.0000,0.0000,2.2664,flat,18.0,0,2.547
1600,51.20,-5.3530,2.5596,0.1797,-0.0001,0.0000,2.2510,flat,18.0,0,1.978
1610,51.52,-5.7081,3.0056,0.1797,-0.0001,0.0000,2.2323,flat,18.0,0,1.410
1620,51.84,-6.0521,3.4571,0.1797,-0.0001,0.0000,2.2053,flat,18.0,0,0.845
1630,52.16,-6.2732,3.8040,0.1798,0.0003,0.0001,1.8693,flat,18.0,1,7.188
1640,52.48,-6.3633,4.1437,0.1799,0.0001,-0.0001,1.4367,flat,18.0,1,7.224
1650,52.80,-6.2850,4.5444,0.1799,0.0001,-0.0000,1.1119,flat,18.0,1,7.105
1660,53.12,-6.0479,4.9394,0.1799,0.0000,-0.0000,0.8734,flat,18.0,1,6.849
1670,53.44,-5.6948,5.2955,0.1799,-0.0000,-0.0000,0.6855,flat,18.0,1,6.498
1680,53.76,-5.2642,5.6040,0.1799,-0.0000,-0.0000,0.5131,flat,18.0,1,6.086
1690,54.08,-4.7761,5.8501,0.1799,-0.0001,-0.0000,0.3581,flat,18.0,1,5.628
1700,54.40,-4.2509,6.0271,0.1799,-0.0002,-0.0000,0.2257,flat,18.0,1,5.138
1710,54.72,-3.7039,6.1386,0.1799,-0.0004,-0.0000,0.1130,flat,18.0,1,4.626
1720,55.04,-3.1454,6.1907,0.1798,-0.0004,-0.0000,0.0155,flat,18.0,1,4.098
1730,55.36,-2.5830,6.1897,0.1798,-0.0004,-0.0000,-0.0676,flat,18.0,1,3.559
1740,55.68,-2.0219,6.1435,0.1798,-0.0003,-0.0000,-0.1380,flat,18.0,1,3.015
1750,56.00,-1.4654,6.0587,0.1797,-0.0002,-0.0000,-0.2013,flat,18.0,1,2.466
1760,56.32,-0.9160,5.9389,0.1797,-0.0002,-0.0000,-0.2627,flat,18.0,1,1.917
1770,56.64,-0.3770,5.7855,0.1797,-0.0002,0.0000,-0.3283,flat,18.0,1,1.371
1780,56.96,0.1451,5.5966,0.1798,-0.0004,0.0000,-0.4093,flat,18.0,1,0.832
1790,57.28,0.6559,5.3687,0.1797,-0.0002,-0.0000,-0.4479,flat,18.0,2,9.791
1800,57.60,1.1209,5.1403,0.1797,-0.0001,0.0002,-0.4783,flat,18.0,2,9.283
1810,57.92,1.6169,4.8760,0.1797,-0.0001,-0.0000,-0.5077,flat,18.0,2,8.730
1820,58.24,2.1092,4.5952,0.1797,-0.0001,-0.0000,-0.5363,flat,18.0,2,8.170
1830,58.56,2.5945,4.3003,0.1797,-0.0001,-0.0000,-0.5614,flat,18.0,2,7.608
1840,58.88,3.0732,3.9933,0.1797,-0.0001,-0.0000,-0.5836,flat,18.0,2,7.044
1850,59.20,3.5458,3.6756,0.1797,-0.0001,-0.0000,-0.6036,flat,18.0,2,6.478
1860,59.52,4.0126,3.3485,0.1797,-0.0001,-0.0000,-0.6218,flat,18.0,2,5.912
1870,59.84,4.4739,3.0129,0.1797,-0.0001,-0.0000,-0.6386,flat,18.0,2,5.344
1880,60.16,4.9299,2.6695,0.1797,-0.0001,-0.0000,-0.6543,flat,18.0,2,4.776
1890,60.48,5.3807,2.3190,0.1797,-0.0001,-0.0000,-0.6694,flat,18.0,2,4.207
1900,60.80,5.8263,1.9617,0.1797,-0.0001,-0.0000,-0.6840,flat,18.0,2,3.637
1910,61.12,6.2665,1.5978,0.1797,-0.0001,0.0000,-0.6987,flat,18.0,2,3.068
1920,61.44,6.7011,1.2276,0.1797,-0.0001,0.0000,-0.7141,flat,18.0,2,2.499
1930,61.76,7.1294,0.8508,0.1797,-0.0001,0.0000,-0.7312,flat,18.0,2,1.931
1940,62.08,7.5499,0.4668,0.1797,-0.0001,0.0000,-0.7524,flat,18.0,2,1.364
1950,62.40,7.9589,0.0744,0.1797,-0.0001,0.0000,-0.7825,flat,18.0,2,0.801
1960,62.72,8.2382,-0.2422,0.1798,0.0003,-0.0000,-1.0582,flat,18.0,3,6.134
1970,63.04,8.4198,-0.6296,0.1799,-0.0000,-0.0000,-1.3877,flat,18.0,3,6.011
1980,63.36,8.4812,-1.0986,0.1799,-0.0001,-0.0000,-1.6840,flat,18.0,3,5.771
1990,63.68,8.4001,-1.5952,0.1799,-0.0001,-0.0000,-1.9110,flat,18.0,3,5.426
2000,64.00,8.2003,-2.0792,0.1799,-0.0001,-0.0000,-2.0880,flat,18.0,3,5.008
2010,64.32,7.9123,-2.5320,0.1799,-0.0002,-0.0000,-2.2215,flat,18.0,3,4.545
2020,64.64,7.5640,-2.9526,0.1798,-0.0004,-0.0000,-2.3198,flat,18.0,3,4.057
2030,64.96,7.1745,-3.3378,0.1798,-0.0004,-0.0000,-2.4135,flat,18.0,3,3.557
2040,65.28,6.7489,-3.6895,0.1798,-0.0004,-0.0000,-2.5061,flat,18.0,3,3.047
2050,65.60,6.2913,-4.0041,0.1798,-0.0004,-0.0000,-2.5996,flat,18.0,3,2.530
2060,65.92,5.8059,-4.2770,0.1798,-0.0004,-0.0000,-2.6977,flat,18.0,3,2.009
2070,66.24,5.2966,-4.5018,0.1798,-0.0004,-0.0000,-2.8082,flat,18.0,3,1.489
2080,66.56,4.7693,-4.6681,0.1799,-0.0001,0.0000,-2.9508,flat,18.0,3,0.979
2090,66.88,4.2471,-4.7447,0.1799,-0.0000,0.0000,3.1299,flat,18.0,0,13.955
2100,67.20,3.7175,-4.7195,0.1799,-0.0001,-0.0000,2.9519,rough,14.0,0,13.535
2110,67.52,3.2145,-4.6146,0.1799,-0.0001,-0.0001,2.8572,flat,18.0,0,13.090
2120,67.84,2.6913,-4.4455,0.1798,-0.0004,-0.0000,2.7520,flat,18.0,0,12.591
2130,68.16,2.1829,-4.2227,0.1798,-0.0003,-0.0000,2.6741,flat,18.0,0,12.070
2140,68.48,1.6891,-3.9609,0.1797,-0.0002,-0.0000,2.6137,flat,18.0,0,11.534
2150,68.80,1.2086,-3.6695,0.1797,-0.0002,-0.0000,2.5653,flat,18.0,0,10.989
2160,69.12,0.7408,-3.3551,0.1797,-0.0001,-0.0000,2.5275,flat,18.0,0,10.438
2170,69.44,0.2833,-3.0229,0.1797,-0.0001,-0.0000,2.4954,flat,18.0,0,9.882
2180,69.76,-0.1650,-2.6760,0.1797,-0.0001,-0.0000,2.4676,flat,18.0,0,9.323
2190,70.08,-0.6047,-2.3166,0.1797,-0.0001,-0.0000,2.4432,flat,18.0,0,8.762
2200,70.40,-1.0367,-1.9465,0.1797,-0.0001,-0.0000,2.4214,flat,18.0,0,8.198
2210,70.72,-1.4615,-1.5670,0.1797,-0.0001,-0.0000,2.4014,flat,18.0,0,7.632
2220,71.04,-1.8795,-1.1788,0.1797,-0.0001,-0.0000,2.3830,flat,18.0,0,7.065
2230,71.36,-2.2908,-0.7830,0.1797,-0.0001,-0.0000,2.3663,flat,18.0,0,6.497
2240,71.68,-2.6959,-0.3803,0.1797,-0.0001,-0.0000,2.3509,flat,18.0,0,5.929
2250,72.00,-3.0952,0.0287,0.1797,-0.0001,-0.0000,2.3364,flat,18.0,0,5.359
2260,72.32,-3.4887,0.4435,0.1797,-0.0000,-0.0000,2.3224,flat,18.0,0,4.790
2270,72.64,-3.8764,0.8637,0.1797,-0.0000,-0.0000,2.3089,flat,18.0,0,4.219
2280,72.96,-4.2586,1.2891,0.1797,-0.0000,0.0000,2.2957,flat,18.0,0,3.649
2290,73.28,-4.6351,1.7194,0.1797,-0.0000,0.0000,2.2825,flat,18.0,0,3.079
2300,73.60,-5.0056,2.1544,0.1797,-0.0000,0.0000,2.2687,flat,18.0,0,2.509
2310,73.92,-5.3696,2.5943,0.1797,-0.0001,0.0000,2.2535,flat,18.0,0,1.940
2320,74.24,-5.7257,3.0394,0.1797,-0.0001,0.0000,2.2348,flat,18.0,0,1.372
2330,74.56,-6.0706,3.4900,0.1797,-0.0001,0.0000,2.2072,flat,18.0,0,0.807
2340,74.88,-6.2923,3.8363,0.1798,0.0003,0.0001,1.8697,flat,18.0,1,7.201
2350,75.20,-6.3823,4.1754,0.1799,0.0001,-0.0001,1.4361,flat,18.0,1,7.239
2360,75.52,-6.3040,4.5749,0.1799,0.0001,-0.0000,1.1105,flat,18.0,1,7.122
2370,75.84,-6.0663,4.9690,0.1799,0.0000,-0.0000,0.8714,flat,18.0,1,6.867
2380,76.16,-5.7127,5.3241,0.1799,-0.0000,-0.0000,0.6830,flat,18.0,1,6.517
2390,76.48,-5.2815,5.6314,0.1799,-0.0000,-0.0000,0.5101,flat,18.0,1,6.106
2400,76.80,-4.7926,5.8760,0.1799,-0.0001,-0.0000,0.3546,flat,18.0,1,5.648
2410,77.12,-4.2669,6.0512,0.1799,-0.0002,-0.0000,0.2218,flat,18.0,1,5.158
2420,77.44,-3.7194,6.1606,0.1799,-0.0004,-0.0000,0.1089,flat,18.0,1,4.646
2430,77.76,-3.1607,6.2105,0.1798,-0.0004,-0.0000,0.0114,flat,18.0,1,4.118
2440,78.08,-2.5983,6.2072,0.1798,-0.0004,-0.0000,-0.0713,flat,18.0,1,3.579
2450,78.40,-2.0375,6.1590,0.1798,-0.0003,-0.0000,-0.1413,flat,18.0,1,3.035
2460,78.72,-1.4812,6.0723,0.1797,-0.0002,-0.0000,-0.2043,flat,18.0,1,2.486
2470,79.04,-0.9321,5.9509,0.1797,-0.0002,-0.0000,-0.2652,flat,18.0,1,1.937
2480,79.36,-0.3934,5.7961,0.1797,-0.0002,0.0000,-0.3301,flat,18.0,1,1.390
2490,79.68,0.1287,5.6063,0.1798,-0.0003,0.0000,-0.4099,flat,18.0,1,0.851
2500,80.00,0.6394,5.3780,0.1797,-0.0002,-0.0000,-0.4483,flat,18.0,2,9.810
2510,80.32,1.1044,5.1494,0.1797,-0.0001,0.0002,-0.4786,rough,14.0,2,9.302
2520,80.64,1.5784,4.8968,0.1797,-0.0001,-0.0001,-0.5061,flat,18.0,2,8.773
2530,80.96,2.0711,4.6168,0.1797,-0.0001,-0.0000,-0.5349,flat,18.0,2,8.214
2540,81.28,2.5568,4.3226,0.1797,-0.0001,-0.0000,-0.5601,flat,18.0,2,7.652
2550,81.60,3.0359,4.0162,0.1797,-0.0001,-0.0000,-0.5824,flat,18.0,2,7.087
2560,81.92,3.5089,3.6992,0.1797,-0.0001,-0.0000,-0.6024,flat,18.0,2,6.522
2570,82.24,3.9761,3.3726,0.1797,-0.0001,-0.0000,-0.6206,flat,18.0,2,5.955
2580,82.56,4.4378,3.0376,0.1797,-0.0001,-0.0000,-0.6374,flat,18.0,2,5.387
2590,82.88,4.8942,2.6947,0.1797,-0.0001,-0.0000,-0.6532,flat,18.0,2,4.819
2600,83.20,5.3454,2.3447,0.1797,-0.0001,-0.0000,-0.6682,flat,18.0,2,4.250
2610,83.52,5.7914,1.9879,0.1797,-0.0001,-0.0000,-0.6828,flat,18.0,2,3.681
2620,83.84,6.2321,1.6246,0.1797,-0.0001,0.0000,-0.6974,flat,18.0,2,3.112
2630,84.16,6.6673,1.2550,0.1797,-0.0001,0.0000,-0.7126,flat,18.0,2,2.542
2640,84.48,7.0962,0.8788,0.1797,-0.0001,0.0000,-0.7295,flat,18.0,2,1.974
2650,84.80,7.5176,0.4955,0.1797,-0.0001,0.0000,-0.7501,flat,18.0,2,1.407
2660,85.12,7.9279,0.1040,0.1797,-0.0001,0.0000,-0.7791,flat,18.0,2,0.843
2670,85.44,8.2085,-0.2120,0.1798,0.0003,-0.0000,-1.0536,flat,18.0,3,6.134
2680,85.76,8.3918,-0.5991,0.1799,-0.0000,-0.0000,-1.3820,flat,18.0,3,6.009
2690,86.08,8.4559,-1.0681,0.1799,-0.0001,-0.0000,-1.6778,flat,18.0,3,5.769
2700,86.40,8.3779,-1.5657,0.1799,-0.0001,-0.0000,-1.9051,flat,18.0,3,5.423
2710,86.72,8.1811,-2.0510,0.1799,-0.0001,-0.0000,-2.0823,flat,18.0,3,5.005
2720,87.04,7.8959,-2.5056,0.1799,-0.0002,-0.0000,-2.2160,flat,18.0,3,4.542
2730,87.36,7.5500,-2.9283,0.1798,-0.0004,-0.0000,-2.3139,flat,18.0,3,4.053
2740,87.68,7.1629,-3.3159,0.1798,-0.0004,-0.0000,-2.4071,flat,18.0,3,3.553
2750,88.00,6.7396,-3.6701,0.1798,-0.0004,-0.0000,-2.4992,flat,18.0,3,3.043
2760,88.32,6.2842,-3.9877,0.1798,-0.0004,-0.0000,-2.5924,flat,18.0,3,2.526
2770,88.64,5.8008,-4.2639,0.1798,-0.0004,-0.0000,-2.6903,flat,18.0,3,2.005
2780,88.96,5.2933,-4.4923,0.1798,-0.0004,-0.0000,-2.8007,flat,18.0,3,1.485
2790,89.28,4.7673,-4.6623,0.1799,-0.0001,0.0000,-2.9436,flat,18.0,3,0.976
2800,89.60,4.2463,-4.7427,0.1799,0.0000,0.0000,3.1359,flat,18.0,0,13.953
2810,89.92,3.7172,-4.7203,0.1799,-0.0001,-0.0000,2.9557,flat,18.0,0,13.536
2820,90.24,3.2351,-4.6212,0.1798,-0.0001,-0.0002,2.8773,flat,18.0,0,13.110
2830,90.56,2.7099,-4.4625,0.1798,-0.0004,-0.0000,2.7660,flat,18.0,0,12.617
2840,90.88,2.1995,-4.2468,0.1798,-0.0004,-0.0000,2.6840,flat,18.0,0,12.099
2850,91.20,1.7038,-3.9899,0.1797,-0.0002,-0.0000,2.6209,flat,18.0,0,11.565
2860,91.52,1.2218,-3.7020,0.1797,-0.0002,-0.0000,2.5705,flat,18.0,0,11.022
2870,91.84,0.7528,-3.3899,0.1797,-0.0001,-0.0000,2.5310,flat,18.0,0,10.472
2880,92.16,0.2945,-3.0594,0.1797,-0.0001,-0.0000,2.4979,flat,18.0,0,9.917
2890,92.48,-0.1543,-2.7137,0.1797,-0.0001,-0.0000,2.4693,flat,18.0,0,9.358
2900,92.80,-0.5944,-2.3550,0.1797,-0.0001,-0.0000,2.4443,flat,18.0,0,8.797
2910,93.12,-1.0265,-1.9854,0.1797,-0.0001,-0.0000,2.4220,flat,18.0,0,8.234
2920,93.44,-1.4514,-1.6061,0.1797,-0.0001,-0.0000,2.4015,flat,18.0,0,7.668
2930,93.76,-1.8692,-1.2181,0.1797,-0.0001,-0.0000,2.3827,flat,18.0,0,7.102
2940,94.08,-2.2803,-0.8221,0.1797,-0.0001,-0.0000,2.3656,flat,18.0,0,6.534
2950,94.40,-2.6850,-0.4191,0.1797,-0.0001,-0.0000,2.3499,flat,18.0,0,5.966
2960,94.72,-3.0838,-0.0097,0.1797,-0.0001,-0.0000,2.3351,flat,18.0,0,5.396
2970,95.04,-3.4766,0.4055,0.1797,-0.0001,-0.0000,2.3209,flat,18.0,0,4.827
2980,95.36,-3.8636,0.8264,0.1797,-0.0000,-0.0000,2.3071,flat,18.0,0,4.257
2990,95.68,-4.2449,1.2524,0.1797,-0.0000,0.0000,2.2937,flat,18.0,0,3.687
3000,96.00,-4.6205,1.6834,0.1797,-0.0000,0.0000,2.2804,flat,18.0,0,3.117
3010,96.32,-4.9900,2.1192,0.1797,-0.0000,0.0000,2.2665,flat,18.0,0,2.547
3020,96.64,-5.3530,2.5599,0.1797,-0.0001,0.0000,2.2511,flat,18.0,0,1.978
3030,96.96,-5.7081,3.0059,0.1797,-0.0001,0.0000,2.2325,flat,18.0,0,1.410
3040,97.28,-6.0522,3.4574,0.1797,-0.0001,0.0000,2.2054,flat,18.0,0,0.845
3050,97.60,-6.2733,3.8042,0.1798,0.0003,0.0001,1.8694,flat,18.0,1,7.188
3060,97.92,-6.3633,4.1439,0.1799,0.0001,-0.0001,1.4367,flat,18.0,1,7.224
3070,98.24,-6.2851,4.5445,0.1799,0.0001,-0.0000,1.1118,flat,18.0,1,7.105
3080,98.56,-6.0480,4.9395,0.1799,0.0000,-0.0000,0.8734,flat,18.0,1,6.849
3090,98.88,-5.6949,5.2957,0.1799,-0.0000,-0.0000,0.6855,flat,18.0,1,6.498
3100,99.20,-5.2643,5.6042,0.1799,-0.0000,-0.0000,0.5131,flat,18.0,1,6.087
3110,99.52,-4.7762,5.8502,0.1799,-0.0001,-0.0000,0.3581,flat,18.0,1,5.629
3120,99.84,-4.2510,6.0273,0.1799,-0.0002,-0.0000,0.2257,flat,18.0,1,5.138
3130,100.16,-3.7040,6.1388,0.1799,-0.0004,-0.0000,0.1129,flat,18.0,1,4.626
3140,100.48,-3.1455,6.1908,0.1798,-0.0004,-0.0000,0.0155,flat,18.0,1,4.098
3150,100.80,-2.5831,6.1898,0.1798,-0.0004,-0.0000,-0.0676,flat,18.0,1,3.559
3160,101.12,-2.0220,6.1436,0.1798,-0.0003,-0.0000,-0.1380,flat,18.0,1,3.015
3170,101.44,-1.4655,6.0588,0.1797,-0.0002,-0.0000,-0.2014,flat,18.0,1,2.467
3180,101.76,-0.9161,5.9390,0.1797,-0.0002,-0.0000,-0.2627,flat,18.0,1,1.918
3190,102.08,-0.3771,5.7856,0.1797,-0.0002,0.0000,-0.3283,flat,18.0,1,1.371
3200,102.40,0.1450,5.5966,0.1798,-0.0004,0.0000,-0.4093,flat,18.0,1,0.832
3210,102.72,0.6558,5.3688,0.1797,-0.0002,-0.0000,-0.4479,flat,18.0,2,9.791
3220,103.04,1.1208,5.1403,0.1797,-0.0001,0.0002,-0.4783,flat,18.0,2,9.283
3230,103.36,1.6167,4.8760,0.1797,-0.0001,-0.0000,-0.5077,flat,18.0,2,8.730
3240,103.68,2.1091,4.5952,0.1797,-0.0001,-0.0000,-0.5363,flat,18.0,2,8.171
3250,104.00,2.5944,4.3003,0.1797,-0.0001,-0.0000,-0.5614,flat,18.0,2,7.608
3260,104.32,3.0731,3.9933,0.1797,-0.0001,-0.0000,-0.5836,flat,18.0,2,7.044
3270,104.64,3.5457,3.6756,0.1797,-0.0001,-0.0000,-0.6036,flat,18.0,2,6.479
3280,104.96,4.0125,3.3485,0.1797,-0.0001,-0.0000,-0.6218,flat,18.0,2,5.912
3290,105.28,4.4738,3.0129,0.1797,-0.0001,-0.0000,-0.6386,flat,18.0,2,5.344
3300,105.60,4.9298,2.6695,0.1797,-0.0001,-0.0000,-0.6543,flat,18.0,2,4.776
3310,105.92,5.3806,2.3190,0.1797,-0.0001,-0.0000,-0.6694,flat,18.0,2,4.207
3320,106.24,5.8262,1.9617,0.1797,-0.0001,-0.0000,-0.6840,flat,18.0,2,3.638
3330,106.56,6.2664,1.5979,0.1797,-0.0001,0.0000,-0.6987,flat,18.0,2,3.068
3340,106.88,6.7010,1.2276,0.1797,-0.0001,0.0000,-0.7140,flat,18.0,2,2.499
3350,107.20,7.1293,0.8508,0.1797,-0.0001,0.0000,-0.7312,flat,18.0,2,1.931
3360,107.52,7.5499,0.4668,0.1797,-0.0001,0.0000,-0.7523,flat,18.0,2,1.364
3370,107.84,7.9589,0.0745,0.1797,-0.0001,0.0000,-0.7825,flat,18.0,2,0.801
3380,108.16,8.2381,-0.2422,0.1798,0.0003,-0.0000,-1.0582,flat,18.0,3,6.134
3390,108.48,8.4197,-0.6296,0.1799,-0.0000,-0.0000,-1.3877,flat,18.0,3,6.011
3400,108.80,8.4812,-1.0985,0.1799,-0.0001,-0.0000,-1.6840,flat,18.0,3,5.771
3410,109.12,8.4000,-1.5952,0.1799,-0.0001,-0.0000,-1.9110,flat,18.0,3,5.426
3420,109.44,8.2002,-2.0792,0.1799,-0.0001,-0.0000,-2.0880,flat,18.0,3,5.008
3430,109.76,7.9123,-2.5319,0.1799,-0.0002,-0.0000,-2.2215,flat,18.0,3,4.545
3440,110.08,7.5640,-2.9526,0.1798,-0.0004,-0.0000,-2.3197,flat,18.0,3,4.057
3450,110.40,7.1745,-3.3378,0.1798,-0.0004,-0.0000,-2.4135,flat,18.0,3,3.557
3460,110.72,6.7489,-3.6895,0.1798,-0.0004,-0.0000,-2.5061,flat,18.0,3,3.047
3470,111.04,6.2913,-4.0041,0.1798,-0.0004,-0.0000,-2.5996,flat,18.0,3,2.530
3480,111.36,5.8059,-4.2769,0.1798,-0.0004,-0.0000,-2.6977,flat,18.0,3,2.009
3490,111.68,5.2966,-4.5018,0.1798,-0.0004,-0.0000,-2.8082,flat,18.0,3,1.489
3500,112.00,4.7693,-4.6680,0.1799,-0.0001,0.0000,-2.9508,flat,18.0,3,0.979
3510,112.32,4.2471,-4.7447,0.1799,-0.0000,0.0000,3.1299,flat,18.0,0,13.955
3520,112.64,3.7175,-4.7195,0.1799,-0.0001,-0.0000,2.9519,rough,14.0,0,13.535
3530,112.96,3.2145,-4.6146,0.1799,-0.0001,-0.0001,2.8572,flat,18.0,0,13.090
3540,113.28,2.6913,-4.4455,0.1798,-0.0004,-0.0000,2.7520,flat,18.0,0,12.591
3550,113.60,2.1829,-4.2227,0.1798,-0.0003,-0.0000,2.6741,flat,18.0,0,12.070
3560,113.92,1.6891,-3.9609,0.1797,-0.0002,-0.0000,2.6137,flat,18.0,0,11.534
3570,114.24,1.2086,-3.6695,0.1797,-0.0002,-0.0000,2.5653,flat,18.0,0,10.989
3580,114.56,0.7408,-3.3551,0.1797,-0.0001,-0.0000,2.5275,flat,18.0,0,10.438
3590,114.88,0.2833,-3.0229,0.1797,-0.0001,-0.0000,2.4954,flat,18.0,0,9.883
3600,115.20,-0.1650,-2.6761,0.1797,-0.0001,-0.0000,2.4676,flat,18.0,0,9.323
3610,115.52,-0.6047,-2.3167,0.1797,-0.0001,-0.0000,2.4432,flat,18.0,0,8.762
3620,115.84,-1.0367,-1.9466,0.1797,-0.0001,-0.0000,2.4214,flat,18.0,0,8.198
3630,116.16,-1.4615,-1.5670,0.1797,-0.0001,-0.0000,2.4014,flat,18.0,0,7.632
3640,116.48,-1.8795,-1.1789,0.1797,-0.0001,-0.0000,2.3830,flat,18.0,0,7.065
3650,116.80,-2.2908,-0.7831,0.1797,-0.0001,-0.0000,2.3663,flat,18.0,0,6.497
3660,117.12,-2.6960,-0.3803,0.1797,-0.0001,-0.0000,2.3509,flat,18.0,0,5.929
3670,117.44,-3.0952,0.0286,0.1797,-0.0001,-0.0000,2.3364,flat,18.0,0,5.359
3680,117.76,-3.4887,0.4434,0.1797,-0.0000,-0.0000,2.3224,flat,18.0,0,4.790
3690,118.08,-3.8765,0.8636,0.1797,-0.0000,-0.0000,2.3089,flat,18.0,0,4.219
3700,118.40,-4.2586,1.2890,0.1797,-0.0000,0.0000,2.2957,flat,18.0,0,3.649
3710,118.72,-4.6351,1.7193,0.1797,-0.0000,0.0000,2.2825,flat,18.0,0,3.079
3720,119.04,-5.0056,2.1543,0.1797,-0.0000,0.0000,2.2687,flat,18.0,0,2.509
3730,119.36,-5.3696,2.5943,0.1797,-0.0001,0.0000,2.2535,flat,18.0,0,1.940
3740,119.68,-5.7257,3.0394,0.1797,-0.0001,0.0000,2.2348,flat,18.0,0,1.372
3750,120.00,-6.0706,3.4900,0.1797,-0.0001,0.0000,2.2072,flat,18.0,0,0.807
3760,120.32,-6.2922,3.8363,0.1798,0.0003,0.0001,1.8697,flat,18.0,1,7.201
3770,120.64,-6.3823,4.1753,0.1799,0.0001,-0.0001,1.4361,flat,18.0,1,7.239
3780,120.96,-6.3040,4.5749,0.1799,0.0001,-0.0000,1.1105,flat,18.0,1,7.122
3790,121.28,-6.0663,4.9689,0.1799,0.0000,-0.0000,0.8713,flat,18.0,1,6.867
3800,121.60,-5.7127,5.3241,0.1799,-0.0000,-0.0000,0.6830,flat,18.0,1,6.517
3810,121.92,-5.2814,5.6314,0.1799,-0.0000,-0.0000,0.5101,flat,18.0,1,6.106
3820,122.24,-4.7926,5.8760,0.1799,-0.0001,-0.0000,0.3546,flat,18.0,1,5.648
3830,122.56,-4.2668,6.0512,0.1799,-0.0002,-0.0000,0.2218,flat,18.0,1,5.158
3840,122.88,-3.7194,6.1606,0.1799,-0.0004,-0.0000,0.1089,flat,18.0,1,4.646
3850,123.20,-3.1607,6.2104,0.1798,-0.0004,-0.0000,0.0115,flat,18.0,1,4.118
3860,123.52,-2.5983,6.2072,0.1798,-0.0004,-0.0000,-0.0713,flat,18.0,1,3.579
3870,123.84,-2.0375,6.1590,0.1798,-0.0003,-0.0000,-0.1413,flat,18.0,1,3.034
3880,124.16,-1.4812,6.0723,0.1797,-0.0002,-0.0000,-0.2043,flat,18.0,1,2.486
3890,124.48,-0.9320,5.9509,0.1797,-0.0002,-0.0000,-0.2652,flat,18.0,1,1.937
3900,124.80,-0.3934,5.7961,0.1797,-0.0002,0.0000,-0.3301,flat,18.0,1,1.390
3910,125.12,0.1287,5.6062,0.1798,-0.0003,0.0000,-0.4099,flat,18.0,1,0.851
3920,125.44,0.6395,5.3780,0.1797,-0.0002,-0.0000,-0.4483,flat,18.0,2,9.810
3930,125.76,1.1045,5.1494,0.1797,-0.0001,0.0002,-0.4786,rough,14.0,2,9.302
3940,126.08,1.5784,4.8969,0.1797,-0.0001,-0.0001,-0.5061,flat,18.0,2,8.773
3950,126.40,2.0712,4.6168,0.1797,-0.0001,-0.0000,-0.5349,flat,18.0,2,8.214
3960,126.72,2.5568,4.3226,0.1797,-0.0001,-0.0000,-0.5601,flat,18.0,2,7.651
3970,127.04,3.0360,4.0162,0.1797,-0.0001,-0.0000,-0.5824,flat,18.0,2,7.087
3980,127.36,3.5090,3.6992,0.1797,-0.0001,-0.0000,-0.6024,flat,18.0,2,6.522
3990,127.68,3.9762,3.3726,0.1797,-0.0001,-0.0000,-0.6206,flat,18.0,2,5.955
4000,128.00,4.4379,3.0376,0.1797,-0.0001,-0.0000,-0.6374,flat,18.0,2,5.387
4010,128.32,4.8942,2.6948,0.1797,-0.0001,-0.0000,-0.6532,flat,18.0,2,4.819
4020,128.64,5.3454,2.3447,0.1797,-0.0001,-0.0000,-0.6682,flat,18.0,2,4.250
4030,128.96,5.7915,1.9879,0.1797,-0.0001,-0.0000,-0.6828,flat,18.0,2,3.681
4040,129.28,6.2322,1.6247,0.1797,-0.0001,0.0000,-0.6974,flat,18.0,2,3.111
4050,129.60,6.6673,1.2550,0.1797,-0.0001,0.0000,-0.7126,flat,18.0,2,2.542
4060,129.92,7.0962,0.8788,0.1797,-0.0001,0.0000,-0.7295,flat,18.0,2,1.974
4070,130.24,7.5176,0.4955,0.1797,-0.0001,0.0000,-0.7502,flat,18.0,2,1.407
4080,130.56,7.9279,0.1040,0.1797,-0.0001,0.0000,-0.7791,flat,18.0,2,0.843
4090,130.88,8.2085,-0.2120,0.1798,0.0003,-0.0000,-1.0536,flat,18.0,3,6.134
4100,131.20,8.3918,-0.5991,0.1799,-0.0000,-0.0000,-1.3820,flat,18.0,3,6.009
4110,131.52,8.4559,-1.0681,0.1799,-0.0001,-0.0000,-1.6778,flat,18.0,3,5.769
4120,131.84,8.3779,-1.5657,0.1799,-0.0001,-0.0000,-1.9051,flat,18.0,3,5.423
4130,132.16,8.1811,-2.0511,0.1799,-0.0001,-0.0000,-2.0823,flat,18.0,3,5.005
4140,132.48,7.8959,-2.5056,0.1799,-0.0002,-0.0000,-2.2160,flat,18.0,3,4.542
4150,132.80,7.5500,-2.9283,0.1798,-0.0004,-0.0000,-2.3139,flat,18.0,3,4.053
4160,133.12,7.1628,-3.3159,0.1798,-0.0004,-0.0000,-2.4071,flat,18.0,3,3.553
4170,133.44,6.7395,-3.6702,0.1798,-0.0004,-0.0000,-2.4992,flat,18.0,3,3.043
4180,133.76,6.2842,-3.9877,0.1798,-0.0004,-0.0000,-2.5924,flat,18.0,3,2.526
4190,134.08,5.8007,-4.2639,0.1798,-0.0004,-0.0000,-2.6903,flat,18.0,3,2.005
4200,134.40,5.2932,-4.4923,0.1798,-0.0004,-0.0000,-2.8007,flat,18.0,3,1.485
4210,134.72,4.7672,-4.6623,0.1799,-0.0001,0.0000,-2.9436,flat,18.0,3,0.976
4220,135.04,4.2462,-4.7427,0.1799,0.0000,0.0000,3.1358,flat,18.0,0,13.953
4230,135.36,3.7172,-4.7203,0.1799,-0.0001,-0.0000,2.9557,flat,18.0,0,13.536
4240,135.68,3.2351,-4.6212,0.1798,-0.0001,-0.0002,2.8773,flat,18.0,0,13.110
4250,136.00,2.7099,-4.4625,0.1798,-0.0004,-0.0000,2.7659,flat,18.0,0,12.616
4260,136.32,2.1995,-4.2467,0.1798,-0.0004,-0.0000,2.6840,flat,18.0,0,12.099
4270,136.64,1.7038,-3.9898,0.1797,-0.0002,-0.0000,2.6209,flat,18.0,0,11.565
4280,136.96,1.2218,-3.7019,0.1797,-0.0002,-0.0000,2.5705,flat,18.0,0,11.022
4290,137.28,0.7528,-3.3899,0.1797,-0.0001,-0.0000,2.5310,flat,18.0,0,10.472
4300,137.60,0.2945,-3.0593,0.1797,-0.0001,-0.0000,2.4979,flat,18.0,0,9.917
4310,137.92,-0.1543,-2.7136,0.1797,-0.0001,-0.0000,2.4693,flat,18.0,0,9.358
4320,138.24,-0.5944,-2.3550,0.1797,-0.0001,-0.0000,2.4443,flat,18.0,0,8.797
4330,138.56,-1.0266,-1.9853,0.1797,-0.0001,-0.0000,2.4220,flat,18.0,0,8.234
4340,138.88,-1.4514,-1.6060,0.1797,-0.0001,-0.0000,2.4015,flat,18.0,0,7.668
4350,139.20,-1.8692,-1.2180,0.1797,-0.0001,-0.0000,2.3827,flat,18.0,0,7.102
4360,139.52,-2.2803,-0.8220,0.1797,-0.0001,-0.0000,2.3656,flat,18.0,0,6.534
4370,139.84,-2.6850,-0.4190,0.1797,-0.0001,-0.0000,2.3499,flat,18.0,0,5.965
4380,140.16,-3.0838,-0.0097,0.1797,-0.0001,-0.0000,2.3351,flat,18.0,0,5.396
4390,140.48,-3.4766,0.4056,0.1797,-0.0001,-0.0000,2.3209,flat,18.0,0,4.827
4400,140.80,-3.8636,0.8265,0.1797,-0.0000,-0.0000,2.3071,flat,18.0,0,4.257
4410,141.12,-4.2449,1.2525,0.1797,-0.0000,0.0000,2.2937,flat,18.0,0,3.687
4420,141.44,-4.6205,1.6835,0.1797,-0.0000,0.0000,2.2804,flat,18.0,0,3.117
4430,141.76,-4.9901,2.1193,0.1797,-0.0000,0.0000,2.2665,flat,18.0,0,2.547
4440,142.08,-5.3530,2.5600,0.1797,-0.0001,0.0000,2.2511,flat,18.0,0,1.977
4450,142.40,-5.7081,3.0059,0.1797,-0.0001,0.0000,2.2325,flat,18.0,0,1.409
4460,142.72,-6.0522,3.4575,0.1797,-0.0001,0.0000,2.2055,flat,18.0,0,0.845
4470,143.04,-6.2734,3.8043,0.1798,0.0003,0.0001,1.8694,flat,18.0,1,7.188
4480,143.36,-6.3634,4.1440,0.1799,0.0001,-0.0001,1.4367,flat,18.0,1,7.225
4490,143.68,-6.2852,4.5446,0.1799,0.0001,-0.0000,1.1119,flat,18.0,1,7.105
4500,144.00,-6.0480,4.9396,0.1799,0.0000,-0.0000,0.8734,flat,18.0,1,6.849
4510,144.32,-5.6950,5.2957,0.1799,-0.0000,-0.0000,0.6855,flat,18.0,1,6.498
4520,144.64,-5.2644,5.6042,0.1799,-0.0000,-0.0000,0.5131,flat,18.0,1,6.087
4530,144.96,-4.7763,5.8503,0.1799,-0.0001,-0.0000,0.3581,flat,18.0,1,5.629
4540,145.28,-4.2511,6.0274,0.1799,-0.0002,-0.0000,0.2257,flat,18.0,1,5.138
4550,145.60,-3.7041,6.1388,0.1799,-0.0004,-0.0000,0.1129,flat,18.0,1,4.626
4560,145.92,-3.1456,6.1909,0.1798,-0.0004,-0.0000,0.0155,flat,18.0,1,4.098
4570,146.24,-2.5831,6.1899,0.1798,-0.0004,-0.0000,-0.0677,flat,18.0,1,3.559
4580,146.56,-2.0221,6.1437,0.1798,-0.0003,-0.0000,-0.1380,flat,18.0,1,3.015
4590,146.88,-1.4656,6.0588,0.1797,-0.0002,-0.0000,-0.2014,flat,18.0,1,2.467
4600,147.20,-0.9161,5.9390,0.1797,-0.0002,-0.0000,-0.2627,flat,18.0,1,1.918
4610,147.52,-0.3772,5.7856,0.1797,-0.0002,0.0000,-0.3283,flat,18.0,1,1.371
4620,147.84,0.1449,5.5967,0.1798,-0.0004,0.0000,-0.4093,flat,18.0,1,0.832
4630,148.16,0.6557,5.3688,0.1797,-0.0002,-0.0000,-0.4479,flat,18.0,2,9.791
4640,148.48,1.1207,5.1404,0.1797,-0.0001,0.0002,-0.4783,flat,18.0,2,9.284
4650,148.80,1.6167,4.8761,0.1797,-0.0001,-0.0000,-0.5077,flat,18.0,2,8.730
4660,149.12,2.1090,4.5953,0.1797,-0.0001,-0.0000,-0.5363,flat,18.0,2,8.171
4670,149.44,2.5943,4.3004,0.1797,-0.0001,-0.0000,-0.5614,flat,18.0,2,7.608
4680,149.76,3.0730,3.9934,0.1797,-0.0001,-0.0000,-0.5836,flat,18.0,2,7.044
4690,150.08,3.5456,3.6757,0.1797,-0.0001,-0.0000,-0.6036,flat,18.0,2,6.479
4700,150.40,4.0125,3.3486,0.1797,-0.0001,-0.0000,-0.6218,flat,18.0,2,5.912
4710,150.72,4.4738,3.0130,0.1797,-0.0001,-0.0000,-0.6386,flat,18.0,2,5.344
4720,151.04,4.9297,2.6696,0.1797,-0.0001,-0.0000,-0.6543,flat,18.0,2,4.776
4730,151.36,5.3805,2.3191,0.1797,-0.0001,-0.0000,-0.6694,flat,18.0,2,4.207
4740,151.68,5.8261,1.9618,0.1797,-0.0001,-0.0000,-0.6840,flat,18.0,2,3.638
4750,152.00,6.2664,1.5979,0.1797,-0.0001,0.0000,-0.6987,flat,18.0,2,3.068
4760,152.32,6.7010,1.2277,0.1797,-0.0001,0.0000,-0.7140,flat,18.0,2,2.499
4770,152.64,7.1293,0.8509,0.1797,-0.0001,0.0000,-0.7312,flat,18.0,2,1.931
4780,152.96,7.5498,0.4669,0.1797,-0.0001,0.0000,-0.7523,flat,18.0,2,1.364
4790,153.28,7.9588,0.0746,0.1797,-0.0001,0.0000,-0.7825,flat,18.0,2,0.801
4800,153.60,8.2381,-0.2421,0.1798,0.0003,-0.0000,-1.0582,flat,18.0,3,6.134
4810,153.92,8.4196,-0.6295,0.1799,-0.0000,-0.0000,-1.3877,flat,18.0,3,6.011
4820,154.24,8.4811,-1.0984,0.1799,-0.0001,-0.0000,-1.6840,flat,18.0,3,5.771
4830,154.56,8.4000,-1.5951,0.1799,-0.0001,-0.0000,-1.9110,flat,18.0,3,5.426
4840,154.88,8.2002,-2.0791,0.1799,-0.0001,-0.0000,-2.0880,flat,18.0,3,5.008
4850,155.20,7.9122,-2.5319,0.1799,-0.0002,-0.0000,-2.2215,flat,18.0,3,4.545
4860,155.52,7.5639,-2.9525,0.1798,-0.0004,-0.0000,-2.3197,flat,18.0,3,4.057
4870,155.84,7.1744,-3.3377,0.1798,-0.0004,-0.0000,-2.4135,flat,18.0,3,3.557
4880,156.16,6.7488,-3.6894,0.1798,-0.0004,-0.0000,-2.5061,flat,18.0,3,3.047
4890,156.48,6.2913,-4.0040,0.1798,-0.0004,-0.0000,-2.5995,flat,18.0,3,2.530
4900,156.80,5.8058,-4.2769,0.1798,-0.0004,-0.0000,-2.6977,flat,18.0,3,2.009
4910,157.12,5.2966,-4.5017,0.1798,-0.0004,-0.0000,-2.8082,flat,18.0,3,1.489
4920,157.44,4.7693,-4.6680,0.1799,-0.0001,0.0000,-2.9508,flat,18.0,3,0.979
4930,157.76,4.2471,-4.7447,0.1799,-0.0000,0.0000,3.1299,flat,18.0,0,13.955
4940,158.08,3.7175,-4.7195,0.1799,-0.0001,-0.0000,2.9519,rough,14.0,0,13.535
4950,158.40,3.2145,-4.6146,0.1799,-0.0001,-0.0001,2.8572,flat,18.0,0,13.090
4960,158.72,2.6913,-4.4455,0.1798,-0.0004,-0.0000,2.7520,flat,18.0,0,12.591
4970,159.04,2.1829,-4.2227,0.1798,-0.0003,-0.0000,2.6741,flat,18.0,0,12.070
4980,159.36,1.6890,-3.9609,0.1797,-0.0002,-0.0000,2.6137,flat,18.0,0,11.534
4990,159.68,1.2085,-3.6695,0.1797,-0.0002,-0.0000,2.5653,flat,18.0,0,10.989
5000,160.00,0.7408,-3.3551,0.1797,-0.0001,-0.0000,2.5275,flat,18.0,0,10.438
5010,160.32,0.2832,-3.0229,0.1797,-0.0001,-0.0000,2.4954,flat,18.0,0,9.882
5020,160.64,-0.1650,-2.6760,0.1797,-0.0001,-0.0000,2.4676,flat,18.0,0,9.323
5030,160.96,-0.6048,-2.3166,0.1797,-0.0001,-0.0000,2.4432,flat,18.0,0,8.762
5040,161.28,-1.0367,-1.9465,0.1797,-0.0001,-0.0000,2.4214,flat,18.0,0,8.198
5050,161.60,-1.4615,-1.5670,0.1797,-0.0001,-0.0000,2.4014,flat,18.0,0,7.632
5060,161.92,-1.8795,-1.1789,0.1797,-0.0001,-0.0000,2.3830,flat,18.0,0,7.065
5070,162.24,-2.2908,-0.7830,0.1797,-0.0001,-0.0000,2.3663,flat,18.0,0,6.497
5080,162.56,-2.6960,-0.3803,0.1797,-0.0001,-0.0000,2.3509,flat,18.0,0,5.929
5090,162.88,-3.0952,0.0287,0.1797,-0.0001,-0.0000,2.3364,flat,18.0,0,5.359
5100,163.20,-3.4887,0.4434,0.1797,-0.0000,-0.0000,2.3224,flat,18.0,0,4.790
5110,163.52,-3.8765,0.8637,0.1797,-0.0000,-0.0000,2.3089,flat,18.0,0,4.219
5120,163.84,-4.2586,1.2891,0.1797,-0.0000,0.0000,2.2957,flat,18.0,0,3.649
5130,164.16,-4.6351,1.7194,0.1797,-0.0000,0.0000,2.2825,flat,18.0,0,3.079
5140,164.48,-5.0056,2.1544,0.1797,-0.0000,0.0000,2.2687,flat,18.0,0,2.509
5150,164.80,-5.3696,2.5943,0.1797,-0.0001,0.0000,2.2535,flat,18.0,0,1.940
5160,165.12,-5.7257,3.0394,0.1797,-0.0001,0.0000,2.2348,flat,18.0,0,1.372
5170,165.44,-6.0706,3.4900,0.1797,-0.0001,0.0000,2.2072,flat,18.0,0,0.807
5180,165.76,-6.2923,3.8363,0.1798,0.0003,0.0001,1.8697,flat,18.0,1,7.201
5190,166.08,-6.3823,4.1754,0.1799,0.0001,-0.0001,1.4361,flat,18.0,1,7.239
5200,166.40,-6.3040,4.5749,0.1799,0.0001,-0.0000,1.1105,flat,18.0,1,7.122
5210,166.72,-6.0663,4.9690,0.1799,0.0000,-0.0000,0.8714,flat,18.0,1,6.867
5220,167.04,-5.7127,5.3241,0.1799,-0.0000,-0.0000,0.6830,flat,18.0,1,6.517
5230,167.36,-5.2815,5.6314,0.1799,-0.0000,-0.0000,0.5101,flat,18.0,1,6.106
5240,167.68,-4.7927,5.8760,0.1799,-0.0001,-0.0000,0.3546,flat,18.0,1,5.648
5250,168.00,-4.2669,6.0513,0.1799,-0.0002,-0.0000,0.2218,flat,18.0,1,5.158
5260,168.32,-3.7194,6.1606,0.1799,-0.0004,-0.0000,0.1089,flat,18.0,1,4.646
5270,168.64,-3.1608,6.2105,0.1798,-0.0004,-0.0000,0.0115,flat,18.0,1,4.118
5280,168.96,-2.5983,6.2072,0.1798,-0.0004,-0.0000,-0.0713,flat,18.0,1,3.579
5290,169.28,-2.0375,6.1590,0.1798,-0.0003,-0.0000,-0.1413,flat,18.0,1,3.035
5300,169.60,-1.4812,6.0723,0.1797,-0.0002,-0.0000,-0.2043,flat,18.0,1,2.486
5310,169.92,-0.9321,5.9509,0.1797,-0.0002,-0.0000,-0.2652,flat,18.0,1,1.937
5320,170.24,-0.3934,5.7962,0.1797,-0.0002,0.0000,-0.3301,flat,18.0,1,1.390
5330,170.56,0.1286,5.6063,0.1798,-0.0003,0.0000,-0.4099,flat,18.0,1,0.851
5340,170.88,0.6394,5.3781,0.1797,-0.0002,-0.0000,-0.4483,flat,18.0,2,9.810
5350,171.20,1.1044,5.1494,0.1797,-0.0001,0.0002,-0.4786,rough,14.0,2,9.302
5360,171.52,1.5784,4.8969,0.1797,-0.0001,-0.0001,-0.5061,flat,18.0,2,8.773
5370,171.84,2.0711,4.6168,0.1797,-0.0001,-0.0000,-0.5349,flat,18.0,2,8.214
5380,172.16,2.5568,4.3227,0.1797,-0.0001,-0.0000,-0.5601,flat,18.0,2,7.652
5390,172.48,3.0359,4.0163,0.1797,-0.0001,-0.0000,-0.5824,flat,18.0,2,7.087
5400,172.80,3.5089,3.6992,0.1797,-0.0001,-0.0000,-0.6024,flat,18.0,2,6.522
5410,173.12,3.9761,3.3727,0.1797,-0.0001,-0.0000,-0.6206,flat,18.0,2,5.955
5420,173.44,4.4378,3.0376,0.1797,-0.0001,-0.0000,-0.6374,flat,18.0,2,5.387
5430,173.76,4.8942,2.6948,0.1797,-0.0001,-0.0000,-0.6532,flat,18.0,2,4.819
5440,174.08,5.3454,2.3448,0.1797,-0.0001,-0.0000,-0.6682,flat,18.0,2,4.250
5450,174.40,5.7914,1.9880,0.1797,-0.0001,-0.0000,-0.6828,flat,18.0,2,3.681
5460,174.72,6.2321,1.6247,0.1797,-0.0001,0.0000,-0.6974,flat,18.0,2,3.112
5470,175.04,6.6673,1.2550,0.1797,-0.0001,0.0000,-0.7126,flat,18.0,2,2.542
5480,175.36,7.0962,0.8788,0.1797,-0.0001,0.0000,-0.7295,flat,18.0,2,1.974
5490,175.68,7.5175,0.4955,0.1797,-0.0001,0.0000,-0.7501,flat,18.0,2,1.407
5500,176.00,7.9278,0.1040,0.1797,-0.0001,0.0000,-0.7791,flat,18.0,2,0.843
5510,176.32,8.2084,-0.2120,0.1798,0.0003,-0.0000,-1.0536,flat,18.0,3,6.134
5520,176.64,8.3918,-0.5990,0.1799,-0.0000,-0.0000,-1.3820,flat,18.0,3,6.009
5530,176.96,8.4559,-1.0680,0.1799,-0.0001,-0.0000,-1.6778,flat,18.0,3,5.769
5540,177.28,8.3779,-1.5656,0.1799,-0.0001,-0.0000,-1.9051,flat,18.0,3,5.423
5550,177.60,8.1811,-2.0510,0.1799,-0.0001,-0.0000,-2.0823,flat,18.0,3,5.005
5560,177.92,7.8959,-2.5056,0.1799,-0.0002,-0.0000,-2.2160,flat,18.0,3,4.542
5570,178.24,7.5500,-2.9283,0.1798,-0.0004,-0.0000,-2.3139,flat,18.0,3,4.053
5580,178.56,7.1628,-3.3159,0.1798,-0.0004,-0.0000,-2.4071,flat,18.0,3,3.553
5590,178.88,6.7395,-3.6701,0.1798,-0.0004,-0.0000,-2.4992,flat,18.0,3,3.043
5600,179.20,6.2842,-3.9877,0.1798,-0.0004,-0.0000,-2.5924,flat,18.0,3,2.526
5610,179.52,5.8008,-4.2639,0.1798,-0.0004,-0.0000,-2.6903,flat,18.0,3,2.005
5620,179.84,5.2933,-4.4923,0.1798,-0.0004,-0.0000,-2.8007,flat,18.0,3,1.485
5630,180.16,4.7673,-4.6623,0.1799,-0.0001,0.0000,-2.9436,flat,18.0,3,0.976
5640,180.48,4.2462,-4.7426,0.1799,0.0000,0.0000,3.1359,flat,18.0,0,13.953
5650,180.80,3.7172,-4.7203,0.1799,-0.0001,-0.0000,2.9557,flat,18.0,0,13.536
5660,181.12,3.2351,-4.6212,0.1798,-0.0001,-0.0002,2.8773,flat,18.0,0,13.110
5670,181.44,2.7099,-4.4625,0.1798,-0.0004,-0.0000,2.7660,flat,18.0,0,12.617
5680,181.76,2.1995,-4.2468,0.1798,-0.0004,-0.0000,2.6840,flat,18.0,0,12.099
5690,182.08,1.7038,-3.9899,0.1797,-0.0002,-0.0000,2.6209,flat,18.0,0,11.565
5700,182.40,1.2218,-3.7020,0.1797,-0.0002,-0.0000,2.5705,flat,18.0,0,11.022
5710,182.72,0.7528,-3.3899,0.1797,-0.0001,-0.0000,2.5310,flat,18.0,0,10.472
5720,183.04,0.2945,-3.0594,0.1797,-0.0001,-0.0000,2.4979,flat,18.0,0,9.917
5730,183.36,-0.1543,-2.7137,0.1797,-0.0001,-0.0000,2.4693,flat,18.0,0,9.358
5740,183.68,-0.5944,-2.3550,0.1797,-0.0001,-0.0000,2.4443,flat,18.0,0,8.797
5750,184.00,-1.0266,-1.9854,0.1797,-0.0001,-0.0000,2.4220,flat,18.0,0,8.234
5760,184.32,-1.4514,-1.6061,0.1797,-0.0001,-0.0000,2.4015,flat,18.0,0,7.668
5770,184.64,-1.8692,-1.2180,0.1797,-0.0001,-0.0000,2.3827,flat,18.0,0,7.102
5780,184.96,-2.2803,-0.8221,0.1797,-0.0001,-0.0000,2.3656,flat,18.0,0,6.534
5790,185.28,-2.6850,-0.4191,0.1797,-0.0001,-0.0000,2.3499,flat,18.0,0,5.966
5800,185.60,-3.0838,-0.0097,0.1797,-0.0001,-0.0000,2.3351,flat,18.0,0,5.396
5810,185.92,-3.4766,0.4056,0.1797,-0.0001,-0.0000,2.3209,flat,18.0,0,4.827
5820,186.24,-3.8636,0.8264,0.1797,-0.0000,-0.0000,2.3071,flat,18.0,0,4.257
5830,186.56,-4.2449,1.2524,0.1797,-0.0000,0.0000,2.2937,flat,18.0,0,3.687
5840,186.88,-4.6205,1.6834,0.1797,-0.0000,0.0000,2.2804,flat,18.0,0,3.117
5850,187.20,-4.9900,2.1192,0.1797,-0.0000,0.0000,2.2665,flat,18.0,0,2.547
5860,187.52,-5.3530,2.5600,0.1797,-0.0001,0.0000,2.2511,flat,18.0,0,1.978
5870,187.84,-5.7081,3.0059,0.1797,-0.0001,0.0000,2.2325,flat,18.0,0,1.410
5880,188.16,-6.0522,3.4574,0.1797,-0.0001,0.0000,2.2055,flat,18.0,0,0.845
5890,188.48,-6.2733,3.8042,0.1798,0.0003,0.0001,1.8694,flat,18.0,1,7.188
5900,188.80,-6.3634,4.1439,0.1799,0.0001,-0.0001,1.4367,flat,18.0,1,7.224
5910,189.12,-6.2852,4.5446,0.1799,0.0001,-0.0000,1.1119,flat,18.0,1,7.105
5920,189.44,-6.0480,4.9396,0.1799,0.0000,-0.0000,0.8734,flat,18.0,1,6.849
5930,189.76,-5.6950,5.2957,0.1799,-0.0000,-0.0000,0.6855,flat,18.0,1,6.498
5940,190.08,-5.2644,5.6042,0.1799,-0.0000,-0.0000,0.5131,flat,18.0,1,6.087
5950,190.40,-4.7762,5.8502,0.1799,-0.0001,-0.0000,0.3581,flat,18.0,1,5.629
5960,190.72,-4.2510,6.0273,0.1799,-0.0002,-0.0000,0.2257,flat,18.0,1,5.138
5970,191.04,-3.7040,6.1388,0.1799,-0.0004,-0.0000,0.1129,flat,18.0,1,4.626
5980,191.36,-3.1455,6.1909,0.1798,-0.0004,-0.0000,0.0155,flat,18.0,1,4.098
5990,191.68,-2.5831,6.1899,0.1798,-0.0004,-0.0000,-0.0676,flat,18.0,1,3.559
6000,192.00,-2.0221,6.1437,0.1798,-0.0003,-0.0000,-0.1380,flat,18.0,1,3.015
6010,192.32,-1.4655,6.0588,0.1797,-0.0002,-0.0000,-0.2014,flat,18.0,1,2.467
6020,192.64,-0.9161,5.9390,0.1797,-0.0002,-0.0000,-0.2627,flat,18.0,1,1.918
6030,192.96,-0.3772,5.7856,0.1797,-0.0002,0.0000,-0.3283,flat,18.0,1,1.371
6040,193.28,0.1449,5.5967,0.1798,-0.0004,0.0000,-0.4093,flat,18.0,1,0.832
6050,193.60,0.6557,5.3688,0.1797,-0.0002,-0.0000,-0.4479,flat,18.0,2,9.791
6060,193.92,1.1208,5.1403,0.1797,-0.0001,0.0002,-0.4783,flat,18.0,2,9.283
6070,194.24,1.6167,4.8761,0.1797,-0.0001,-0.0000,-0.5077,flat,18.0,2,8.730
6080,194.56,2.1090,4.5952,0.1797,-0.0001,-0.0000,-0.5363,flat,18.0,2,8.171
6090,194.88,2.5943,4.3003,0.1797,-0.0001,-0.0000,-0.5614,flat,18.0,2,7.608
6100,195.20,3.0731,3.9933,0.1797,-0.0001,-0.0000,-0.5836,flat,18.0,2,7.044
6110,195.52,3.5457,3.6756,0.1797,-0.0001,-0.0000,-0.6036,flat,18.0,2,6.479
6120,195.84,4.0125,3.3485,0.1797,-0.0001,-0.0000,-0.6218,flat,18.0,2,5.912
6130,196.16,4.4738,3.0129,0.1797,-0.0001,-0.0000,-0.6386,flat,18.0,2,5.344
6140,196.48,4.9298,2.6696,0.1797,-0.0001,-0.0000,-0.6543,flat,18.0,2,4.776
6150,196.80,5.3805,2.3190,0.1797,-0.0001,-0.0000,-0.6694,flat,18.0,2,4.207
6160,197.12,5.8261,1.9617,0.1797,-0.0001,-0.0000,-0.6840,flat,18.0,2,3.638
6170,197.44,6.2664,1.5979,0.1797,-0.0001,0.0000,-0.6987,flat,18.0,2,3.068
6180,197.76,6.7010,1.2277,0.1797,-0.0001,0.0000,-0.7140,flat,18.0,2,2.499
6190,198.08,7.1293,0.8509,0.1797,-0.0001,0.0000,-0.7312,flat,18.0,2,1.931
6200,198.40,7.5498,0.4668,0.1797,-0.0001,0.0000,-0.7523,flat,18.0,2,1.364
6210,198.72,7.9588,0.0745,0.1797,-0.0001,0.0000,-0.7825,flat,18.0,2,0.801
6220,199.04,8.2381,-0.2421,0.1798,0.0003,-0.0000,-1.0581,flat,18.0,3,6.134
6230,199.36,8.4197,-0.6295,0.1799,-0.0000,-0.0000,-1.3877,flat,18.0,3,6.011
6240,199.68,8.4812,-1.0985,0.1799,-0.0001,-0.0000,-1.6840,flat,18.0,3,5.771
6250,200.00,8.4000,-1.5951,0.1799,-0.0001,-0.0000,-1.9110,flat,18.0,3,5.426
6260,200.32,8.2002,-2.0791,0.1799,-0.0001,-0.0000,-2.0880,flat,18.0,3,5.008
6270,200.64,7.9123,-2.5319,0.1799,-0.0002,-0.0000,-2.2215,flat,18.0,3,4.545
6280,200.96,7.5640,-2.9525,0.1798,-0.0004,-0.0000,-2.3197,flat,18.0,3,4.057
6290,201.28,7.1745,-3.3377,0.1798,-0.0004,-0.0000,-2.4135,flat,18.0,3,3.557
6300,201.60,6.7489,-3.6894,0.1798,-0.0004,-0.0000,-2.5061,flat,18.0,3,3.047
6310,201.92,6.2913,-4.0040,0.1798,-0.0004,-0.0000,-2.5996,flat,18.0,3,2.530
6320,202.24,5.8059,-4.2769,0.1798,-0.0004,-0.0000,-2.6977,flat,18.0,3,2.009
6330,202.56,5.2967,-4.5018,0.1798,-0.0004,-0.0000,-2.8082,flat,18.0,3,1.489
6340,202.88,4.7693,-4.6680,0.1799,-0.0001,0.0000,-2.9508,flat,18.0,3,0.979
6350,203.20,4.2471,-4.7447,0.1799,-0.0000,0.0000,3.1299,flat,18.0,0,13.955
6360,203.52,3.7175,-4.7195,0.1799,-0.0001,-0.0000,2.9519,rough,14.0,0,13.535
6370,203.84,3.2145,-4.6146,0.1799,-0.0001,-0.0001,2.8572,flat,18.0,0,13.090
6380,204.16,2.6913,-4.4455,0.1798,-0.0004,-0.0000,2.7520,flat,18.0,0,12.591
6390,204.48,2.1830,-4.2227,0.1798,-0.0003,-0.0000,2.6741,flat,18.0,0,12.070
6400,204.80,1.6891,-3.9609,0.1797,-0.0002,-0.0000,2.6137,flat,18.0,0,11.534
6410,205.12,1.2086,-3.6695,0.1797,-0.0002,-0.0000,2.5653,flat,18.0,0,10.989
6420,205.44,0.7408,-3.3551,0.1797,-0.0001,-0.0000,2.5275,flat,18.0,0,10.438
6430,205.76,0.2833,-3.0230,0.1797,-0.0001,-0.0000,2.4954,flat,18.0,0,9.883
6440,206.08,-0.1650,-2.6761,0.1797,-0.0001,-0.0000,2.4676,flat,18.0,0,9.323
6450,206.40,-0.6047,-2.3167,0.1797,-0.0001,-0.0000,2.4432,flat,18.0,0,8.762
6460,206.72,-1.0367,-1.9466,0.1797,-0.0001,-0.0000,2.4214,flat,18.0,0,8.198
6470,207.04,-1.4615,-1.5670,0.1797,-0.0001,-0.0000,2.4014,flat,18.0,0,7.632
6480,207.36,-1.8794,-1.1789,0.1797,-0.0001,-0.0000,2.3830,flat,18.0,0,7.065
6490,207.68,-2.2908,-0.7831,0.1797,-0.0001,-0.0000,2.3663,flat,18.0,0,6.497
6500,208.00,-2.6959,-0.3803,0.1797,-0.0001,-0.0000,2.3509,flat,18.0,0,5.929
6510,208.32,-3.0952,0.0286,0.1797,-0.0001,-0.0000,2.3364,flat,18.0,0,5.359
6520,208.64,-3.4887,0.4434,0.1797,-0.0000,-0.0000,2.3224,flat,18.0,0,4.790
6530,208.96,-3.8764,0.8636,0.1797,-0.0000,-0.0000,2.3089,flat,18.0,0,4.219
6540,209.28,-4.2586,1.2890,0.1797,-0.0000,0.0000,2.2957,flat,18.0,0,3.649
6550,209.60,-4.6351,1.7193,0.1797,-0.0000,0.0000,2.2825,flat,18.0,0,3.079
6560,209.92,-5.0056,2.1543,0.1797,-0.0000,0.0000,2.2687,flat,18.0,0,2.509
6570,210.24,-5.3696,2.5943,0.1797,-0.0001,0.0000,2.2535,flat,18.0,0,1.940
6580,210.56,-5.7256,3.0394,0.1797,-0.0001,0.0000,2.2348,flat,18.0,0,1.372
6590,210.88,-6.0706,3.4900,0.1797,-0.0001,0.0000,2.2072,flat,18.0,0,0.807
6600,211.20,-6.2922,3.8363,0.1798,0.0003,0.0001,1.8697,flat,18.0,1,7.201
6610,211.52,-6.3823,4.1753,0.1799,0.0001,-0.0001,1.4361,flat,18.0,1,7.239
6620,211.84,-6.3039,4.5749,0.1799,0.0001,-0.0000,1.1105,flat,18.0,1,7.122
6630,212.16,-6.0663,4.9689,0.1799,0.0000,-0.0000,0.8713,flat,18.0,1,6.867
6640,212.48,-5.7126,5.3240,0.1799,-0.0000,-0.0000,0.6830,flat,18.0,1,6.517
6650,212.80,-5.2814,5.6314,0.1799,-0.0000,-0.0000,0.5101,flat,18.0,1,6.106
6660,213.12,-4.7926,5.8760,0.1799,-0.0001,-0.0000,0.3546,flat,18.0,1,5.648
6670,213.44,-4.2668,6.0512,0.1799,-0.0002,-0.0000,0.2218,flat,18.0,1,5.158
6680,213.76,-3.7194,6.1606,0.1799,-0.0004,-0.0000,0.1089,flat,18.0,1,4.646
6690,214.08,-3.1607,6.2104,0.1798,-0.0004,-0.0000,0.0115,flat,18.0,1,4.118
6700,214.40,-2.5983,6.2072,0.1798,-0.0004,-0.0000,-0.0713,flat,18.0,1,3.579
6710,214.72,-2.0374,6.1590,0.1798,-0.0003,-0.0000,-0.1413,flat,18.0,1,3.034
6720,215.04,-1.4811,6.0723,0.1797,-0.0002,-0.0000,-0.2043,flat,18.0,1,2.486
6730,215.36,-0.9320,5.9509,0.1797,-0.0002,-0.0000,-0.2652,flat,18.0,1,1.937
6740,215.68,-0.3934,5.7961,0.1797,-0.0002,0.0000,-0.3301,flat,18.0,1,1.390
6750,216.00,0.1287,5.6062,0.1798,-0.0003,0.0000,-0.4099,flat,18.0,1,0.851
6760,216.32,0.6395,5.3780,0.1797,-0.0002,-0.0000,-0.4483,flat,18.0,2,9.810
6770,216.64,1.1045,5.1494,0.1797,-0.0001,0.0002,-0.4786,rough,14.0,2,9.302
6780,216.96,1.5784,4.8968,0.1797,-0.0001,-0.0001,-0.5061,flat,18.0,2,8.773
6790,217.28,2.0712,4.6168,0.1797,-0.0001,-0.0000,-0.5349,flat,18.0,2,8.214
6800,217.60,2.5569,4.3226,0.1797,-0.0001,-0.0000,-0.5601,flat,18.0,2,7.651
6810,217.92,3.0360,4.0162,0.1797,-0.0001,-0.0000,-0.5824,flat,18.0,2,7.087
6820,218.24,3.5090,3.6991,0.1797,-0.0001,-0.0000,-0.6024,flat,18.0,2,6.522
6830,218.56,3.9762,3.3726,0.1797,-0.0001,-0.0000,-0.6206,flat,18.0,2,5.955
6840,218.88,4.4379,3.0375,0.1797,-0.0001,-0.0000,-0.6374,flat,18.0,2,5.387
6850,219.20,4.8942,2.6947,0.1797,-0.0001,-0.0000,-0.6532,flat,18.0,2,4.819
6860,219.52,5.3454,2.3447,0.1797,-0.0001,-0.0000,-0.6682,flat,18.0,2,4.250
6870,219.84,5.7915,1.9879,0.1797,-0.0001,-0.0000,-0.6828,flat,18.0,2,3.681
6880,220.16,6.2322,1.6246,0.1797,-0.0001,0.0000,-0.6974,flat,18.0,2,3.111
6890,220.48,6.6673,1.2550,0.1797,-0.0001,0.0000,-0.7126,flat,18.0,2,2.542
6900,220.80,7.0963,0.8788,0.1797,-0.0001,0.0000,-0.7295,flat,18.0,2,1.974
6910,221.12,7.5176,0.4955,0.1797,-0.0001,0.0000,-0.7502,flat,18.0,2,1.407
6920,221.44,7.9279,0.1040,0.1797,-0.0001,0.0000,-0.7791,flat,18.0,2,0.843
6930,221.76,8.2085,-0.2120,0.1798,0.0003,-0.0000,-1.0536,flat,18.0,3,6.134
6940,222.08,8.3918,-0.5991,0.1799,-0.0000,-0.0000,-1.3820,flat,18.0,3,6.009
6950,222.40,8.4559,-1.0681,0.1799,-0.0001,-0.0000,-1.6778,flat,18.0,3,5.769
6960,222.72,8.3779,-1.5657,0.1799,-0.0001,-0.0000,-1.9051,flat,18.0,3,5.423
6970,223.04,8.1811,-2.0511,0.1799,-0.0001,-0.0000,-2.0823,flat,18.0,3,5.005
6980,223.36,7.8959,-2.5056,0.1799,-0.0002,-0.0000,-2.2160,flat,18.0,3,4.542
6990,223.68,7.5500,-2.9283,0.1798,-0.0004,-0.0000,-2.3139,flat,18.0,3,4.053
7000,224.00,7.1628,-3.3159,0.1798,-0.0004,-0.0000,-2.4071,flat,18.0,3,3.553
7010,224.32,6.7395,-3.6702,0.1798,-0.0004,-0.0000,-2.4992,flat,18.0,3,3.043
7020,224.64,6.2842,-3.9877,0.1798,-0.0004,-0.0000,-2.5924,flat,18.0,3,2.526
7030,224.96,5.8008,-4.2639,0.1798,-0.0004,-0.0000,-2.6903,flat,18.0,3,2.005
7040,225.28,5.2933,-4.4923,0.1798,-0.0004,-0.0000,-2.8007,flat,18.0,3,1.485
7050,225.60,4.7672,-4.6623,0.1799,-0.0001,0.0000,-2.9436,flat,18.0,3,0.976
7060,225.92,4.2462,-4.7427,0.1799,0.0000,0.0000,3.1358,flat,18.0,0,13.953
7070,226.24,3.7172,-4.7203,0.1799,-0.0001,-0.0000,2.9556,flat,18.0,0,13.536
7080,226.56,3.2351,-4.6212,0.1798,-0.0001,-0.0002,2.8773,flat,18.0,0,13.110
7090,226.88,2.7099,-4.4625,0.1798,-0.0004,-0.0000,2.7660,flat,18.0,0,12.617
7100,227.20,2.1995,-4.2467,0.1798,-0.0004,-0.0000,2.6840,flat,18.0,0,12.099
7110,227.52,1.7038,-3.9898,0.1797,-0.0002,-0.0000,2.6209,flat,18.0,0,11.565
7120,227.84,1.2218,-3.7020,0.1797,-0.0002,-0.0000,2.5705,flat,18.0,0,11.022
7130,228.16,0.7528,-3.3899,0.1797,-0.0001,-0.0000,2.5310,flat,18.0,0,10.472
7140,228.48,0.2945,-3.0594,0.1797,-0.0001,-0.0000,2.4979,flat,18.0,0,9.917
7150,228.80,-0.1543,-2.7136,0.1797,-0.0001,-0.0000,2.4693,flat,18.0,0,9.358
7160,229.12,-0.5944,-2.3550,0.1797,-0.0001,-0.0000,2.4443,flat,18.0,0,8.797
7170,229.44,-1.0266,-1.9854,0.1797,-0.0001,-0.0000,2.4220,flat,18.0,0,8.234
7180,229.76,-1.4514,-1.6061,0.1797,-0.0001,-0.0000,2.4015,flat,18.0,0,7.668
7190,230.08,-1.8692,-1.2180,0.1797,-0.0001,-0.0000,2.3827,flat,18.0,0,7.102
7200,230.40,-2.2803,-0.8221,0.1797,-0.0001,-0.0000,2.3656,flat,18.0,0,6.534
7210,230.72,-2.6850,-0.4191,0.1797,-0.0001,-0.0000,2.3499,flat,18.0,0,5.966
7220,231.04,-3.0838,-0.0097,0.1797,-0.0001,-0.0000,2.3351,flat,18.0,0,5.396
7230,231.36,-3.4766,0.4056,0.1797,-0.0001,-0.0000,2.3209,flat,18.0,0,4.827
7240,231.68,-3.8636,0.8264,0.1797,-0.0000,-0.0000,2.3071,flat,18.0,0,4.257
7250,232.00,-4.2449,1.2524,0.1797,-0.0000,0.0000,2.2937,flat,18.0,0,3.687
7260,232.32,-4.6205,1.6834,0.1797,-0.0000,0.0000,2.2804,flat,18.0,0,3.117
7270,232.64,-4.9901,2.1192,0.1797,-0.0000,0.0000,2.2665,flat,18.0,0,2.547
7280,232.96,-5.3530,2.5600,0.1797,-0.0001,0.0000,2.2511,flat,18.0,0,1.978
7290,233.28,-5.7081,3.0059,0.1797,-0.0001,0.0000,2.2325,flat,18.0,0,1.410
7300,233.60,-6.0522,3.4574,0.1797,-0.0001,0.0000,2.2054,flat,18.0,0,0.845
7310,233.92,-6.2733,3.8042,0.1798,0.0003,0.0001,1.8694,flat,18.0,1,7.188
7320,234.24,-6.3634,4.1439,0.1799,0.0001,-0.0001,1.4367,flat,18.0,1,7.224
7330,234.56,-6.2852,4.5446,0.1799,0.0001,-0.0000,1.1118,flat,18.0,1,7.105
7340,234.88,-6.0480,4.9396,0.1799,0.0000,-0.0000,0.8734,flat,18.0,1,6.849
7350,235.20,-5.6950,5.2957,0.1799,-0.0000,-0.0000,0.6855,flat,18.0,1,6.498
7360,235.52,-5.2644,5.6042,0.1799,-0.0000,-0.0000,0.5131,flat,18.0,1,6.087
7370,235.84,-4.7762,5.8502,0.1799,-0.0001,-0.0000,0.3581,flat,18.0,1,5.629
7380,236.16,-4.2510,6.0273,0.1799,-0.0002,-0.0000,0.2257,flat,18.0,1,5.138
7390,236.48,-3.7040,6.1388,0.1799,-0.0004,-0.0000,0.1129,flat,18.0,1,4.626
7400,236.80,-3.1455,6.1908,0.1798,-0.0004,-0.0000,0.0155,flat,18.0,1,4.098
7410,237.12,-2.5831,6.1899,0.1798,-0.0004,-0.0000,-0.0676,flat,18.0,1,3.559
7420,237.44,-2.0221,6.1437,0.1798,-0.0003,-0.0000,-0.1380,flat,18.0,1,3.015
7430,237.76,-1.4655,6.0588,0.1797,-0.0002,-0.0000,-0.2014,flat,18.0,1,2.467
7440,238.08,-0.9161,5.9390,0.1797,-0.0002,-0.0000,-0.2627,flat,18.0,1,1.918
7450,238.40,-0.3772,5.7856,0.1797,-0.0002,0.0000,-0.3283,flat,18.0,1,1.371
7460,238.72,0.1449,5.5967,0.1798,-0.0004,0.0000,-0.4093,flat,18.0,1,0.832
7470,239.04,0.6557,5.3688,0.1797,-0.0002,-0.0000,-0.4479,flat,18.0,2,9.791
7480,239.36,1.1208,5.1403,0.1797,-0.0001,0.0002,-0.4783,flat,18.0,2,9.283
7490,239.68,1.6167,4.8761,0.1797,-0.0001,-0.0000,-0.5077,flat,18.0,2,8.730
7500,240.00,2.1090,4.5952,0.1797,-0.0001,-0.0000,-0.5363,flat,18.0,2,8.171
7510,240.32,2.5943,4.3003,0.1797,-0.0001,-0.0000,-0.5614,flat,18.0,2,7.608
7520,240.64,3.0731,3.9933,0.1797,-0.0001,-0.0000,-0.5836,flat,18.0,2,7.044
7530,240.96,3.5457,3.6756,0.1797,-0.0001,-0.0000,-0.6036,flat,18.0,2,6.479
7540,241.28,4.0125,3.3485,0.1797,-0.0001,-0.0000,-0.6218,flat,18.0,2,5.912
7550,241.60,4.4738,3.0129,0.1797,-0.0001,-0.0000,-0.6386,flat,18.0,2,5.344
7560,241.92,4.9298,2.6696,0.1797,-0.0001,-0.0000,-0.6543,flat,18.0,2,4.776
7570,242.24,5.3806,2.3190,0.1797,-0.0001,-0.0000,-0.6694,flat,18.0,2,4.207
7580,242.56,5.8261,1.9617,0.1797,-0.0001,-0.0000,-0.6840,flat,18.0,2,3.638
7590,242.88,6.2664,1.5979,0.1797,-0.0001,0.0000,-0.6987,flat,18.0,2,3.068
7600,243.20,6.7010,1.2277,0.1797,-0.0001,0.0000,-0.7140,flat,18.0,2,2.499
7610,243.52,7.1293,0.8509,0.1797,-0.0001,0.0000,-0.7312,flat,18.0,2,1.931
7620,243.84,7.5498,0.4669,0.1797,-0.0001,0.0000,-0.7523,flat,18.0,2,1.364
7630,244.16,7.9588,0.0745,0.1797,-0.0001,0.0000,-0.7825,flat,18.0,2,0.801
7640,244.48,8.2381,-0.2421,0.1798,0.0003,-0.0000,-1.0582,flat,18.0,3,6.134
7650,244.80,8.4197,-0.6295,0.1799,-0.0000,-0.0000,-1.3877,flat,18.0,3,6.011
7660,245.12,8.4811,-1.0985,0.1799,-0.0001,-0.0000,-1.6840,flat,18.0,3,5.771
7670,245.44,8.4000,-1.5952,0.1799,-0.0001,-0.0000,-1.9110,flat,18.0,3,5.426
7680,245.76,8.2002,-2.0791,0.1799,-0.0001,-0.0000,-2.0880,flat,18.0,3,5.008
7690,246.08,7.9123,-2.5319,0.1799,-0.0002,-0.0000,-2.2215,flat,18.0,3,4.545
7700,246.40,7.5640,-2.9525,0.1798,-0.0004,-0.0000,-2.3197,flat,18.0,3,4.057
7710,246.72,7.1745,-3.3378,0.1798,-0.0004,-0.0000,-2.4135,flat,18.0,3,3.557
7720,247.04,6.7488,-3.6894,0.1798,-0.0004,-0.0000,-2.5061,flat,18.0,3,3.047
7730,247.36,6.2913,-4.0041,0.1798,-0.0004,-0.0000,-2.5996,flat,18.0,3,2.530
7740,247.68,5.8058,-4.2769,0.1798,-0.0004,-0.0000,-2.6977,flat,18.0,3,2.009
7750,248.00,5.2966,-4.5018,0.1798,-0.0004,-0.0000,-2.8082,flat,18.0,3,1.489
7760,248.32,4.7693,-4.6680,0.1799,-0.0001,0.0000,-2.9508,flat,18.0,3,0.979
7770,248.64,4.2471,-4.7447,0.1799,-0.0000,0.0000,3.1299,flat,18.0,0,13.955
7780,248.96,3.7175,-4.7195,0.1799,-0.0001,-0.0000,2.9519,rough,14.0,0,13.535
7790,249.28,3.2145,-4.6146,0.1799,-0.0001,-0.0001,2.8572,flat,18.0,0,13.090
7800,249.60,2.6913,-4.4455,0.1798,-0.0004,-0.0000,2.7520,flat,18.0,0,12.591
7810,249.92,2.1829,-4.2227,0.1798,-0.0003,-0.0000,2.6741,flat,18.0,0,12.070
7820,250.24,1.6890,-3.9609,0.1797,-0.0002,-0.0000,2.6137,flat,18.0,0,11.534
7830,250.56,1.2085,-3.6695,0.1797,-0.0002,-0.0000,2.5653,flat,18.0,0,10.989
7840,250.88,0.7408,-3.3551,0.1797,-0.0001,-0.0000,2.5275,flat,18.0,0,10.438
7850,251.20,0.2832,-3.0229,0.1797,-0.0001,-0.0000,2.4954,flat,18.0,0,9.882
7860,251.52,-0.1650,-2.6760,0.1797,-0.0001,-0.0000,2.4676,flat,18.0,0,9.323
7870,251.84,-0.6048,-2.3166,0.1797,-0.0001,-0.0000,2.4432,flat,18.0,0,8.762
7880,252.16,-1.0367,-1.9465,0.1797,-0.0001,-0.0000,2.4214,flat,18.0,0,8.198
7890,252.48,-1.4615,-1.5670,0.1797,-0.0001,-0.0000,2.4014,flat,18.0,0,7.632
7900,252.80,-1.8795,-1.1789,0.1797,-0.0001,-0.0000,2.3830,flat,18.0,0,7.065
7910,253.12,-2.2908,-0.7830,0.1797,-0.0001,-0.0000,2.3663,flat,18.0,0,6.497
7920,253.44,-2.6960,-0.3803,0.1797,-0.0001,-0.0000,2.3509,flat,18.0,0,5.929
7930,253.76,-3.0952,0.0287,0.1797,-0.0001,-0.0000,2.3364,flat,18.0,0,5.359
7940,254.08,-3.4887,0.4434,0.1797,-0.0000,-0.0000,2.3224,flat,18.0,0,4.790
7950,254.40,-3.8765,0.8637,0.1797,-0.0000,-0.0000,2.3089,flat,18.0,0,4.219
7960,254.72,-4.2586,1.2891,0.1797,-0.0000,0.0000,2.2957,flat,18.0,0,3.649
7970,255.04,-4.6351,1.7193,0.1797,-0.0000,0.0000,2.2825,flat,18.0,0,3.079
7980,255.36,-5.0056,2.1544,0.1797,-0.0000,0.0000,2.2687,flat,18.0,0,2.509
7990,255.68,-5.3696,2.5943,0.1797,-0.0001,0.0000,2.2535,flat,18.0,0,1.940
8000,256.00,-5.7257,3.0394,0.1797,-0.0001,0.0000,2.2348,flat,18.0,0,1.372
8010,256.32,-6.0706,3.4900,0.1797,-0.0001,0.0000,2.2072,flat,18.0,0,0.807
8020,256.64,-6.2923,3.8363,0.1798,0.0003,0.0001,1.8697,flat,18.0,1,7.201
8030,256.96,-6.3823,4.1754,0.1799,0.0001,-0.0001,1.4361,flat,18.0,1,7.239
