step,time_s,x,y,z,roll,pitch,yaw,terrain,speed,target_idx,dist_to_target
10,0.32,2.1821,0.5010,0.1852,0.0000,-0.0435,0.0000,rough,14.0,0,6.243
20,0.64,2.6613,0.5063,0.1797,0.0001,-0.0005,0.0363,flat,18.0,0,5.778
30,0.96,3.2242,0.5349,0.1797,0.0003,-0.0001,0.1040,flat,18.0,0,5.229
40,1.28,3.7852,0.6002,0.1797,0.0002,-0.0000,0.1596,flat,18.0,0,4.674
50,1.60,4.3430,0.6961,0.1797,0.0002,-0.0000,0.2073,flat,18.0,0,4.114
60,1.92,4.8958,0.8181,0.1797,0.0001,-0.0000,0.2475,flat,18.0,0,3.552
70,2.24,5.4432,0.9618,0.1797,0.0001,-0.0000,0.2837,flat,18.0,0,2.989
80,2.56,5.9850,1.1252,0.1797,0.0001,-0.0000,0.3189,flat,18.0,0,2.425
90,2.88,6.5202,1.3078,0.1797,0.0001,0.0000,0.3552,flat,18.0,0,1.861
100,3.20,7.0465,1.5098,0.1797,0.0001,0.0000,0.3960,flat,18.0,0,1.298
110,3.52,7.5578,1.7302,0.1797,0.0001,0.0003,0.4681,flat,18.0,1,5.037
120,3.84,7.8663,1.9177,0.1798,-0.0003,-0.0000,0.7889,flat,18.0,1,5.086
130,4.16,8.0854,2.1947,0.1799,-0.0001,-0.0000,1.0895,rough,14.0,1,5.033
140,4.48,8.2323,2.5125,0.1799,-0.0001,-0.0002,1.3170,flat,18.0,1,4.924
150,4.80,8.3268,2.9590,0.1799,0.0001,-0.0000,1.6059,flat,18.0,1,4.719
160,5.12,8.2842,3.4547,0.1799,0.0001,-0.0000,1.8584,flat,18.0,1,4.407
170,5.44,8.1111,3.9422,0.1799,0.0001,-0.0000,2.0575,flat,18.0,1,4.019
180,5.76,7.8378,4.3967,0.1799,0.0001,-0.0000,2.2126,flat,18.0,1,3.582
190,6.08,7.4936,4.8128,0.1799,0.0003,-0.0000,2.3305,flat,18.0,1,3.117
200,6.40,7.1009,5.1861,0.1799,0.0003,-0.0000,2.4476,flat,18.0,1,2.641
210,6.72,6.6654,5.5152,0.1799,0.0003,-0.0000,2.5740,flat,18.0,1,2.157
220,7.04,6.1915,5.7894,0.1799,0.0001,-0.0000,2.7191,flat,18.0,1,1.671
230,7.36,5.6870,5.9922,0.1799,0.0000,0.0000,2.9059,flat,18.0,1,1.192
240,7.68,5.1721,6.0904,0.1799,0.0003,0.0001,-3.1110,flat,18.0,2,12.949
250,8.00,4.6132,6.0659,0.1798,0.0002,-0.0001,-3.0550,flat,18.0,2,12.410
260,8.32,4.0501,6.0108,0.1798,0.0002,-0.0000,-3.0065,flat,18.0,2,11.858
270,8.64,3.4888,5.9293,0.1797,0.0001,-0.0000,-2.9683,flat,18.0,2,11.301
280,8.96,2.9299,5.8272,0.1797,0.0001,-0.0000,-2.9378,flat,18.0,2,10.741
290,9.28,2.3732,5.7084,0.1797,0.0001,-0.0000,-2.9123,flat,18.0,2,10.177
300,9.60,1.8187,5.5757,0.1797,0.0001,-0.0000,-2.8907,flat,18.0,2,9.611
310,9.92,1.2664,5.4313,0.1797,0.0001,-0.0000,-2.8722,flat,18.0,2,9.044
320,10.24,0.7162,5.2768,0.1797,0.0001,-0.0000,-2.8562,flat,18.0,2,8.475
330,10.56,0.1679,5.1136,0.1797,0.0001,-0.0000,-2.8421,flat,18.0,2,7.905
340,10.88,-0.3784,4.9428,0.1797,0.0000,-0.0000,-2.8297,flat,18.0,2,7.335
350,11.20,-0.9230,4.7653,0.1797,0.0000,-0.0000,-2.8186,flat,18.0,2,6.764
360,11.52,-1.4659,4.5818,0.1797,0.0000,-0.0000,-2.8085,flat,18.0,2,6.192
370,11.84,-2.0072,4.3929,0.1797,0.0000,-0.0000,-2.7994,flat,18.0,2,5.620
380,12.16,-2.5470,4.1991,0.1797,0.0000,-0.0000,-2.7909,flat,18.0,2,5.048
390,12.48,-3.0853,4.0008,0.1797,0.0000,-0.0000,-2.7830,flat,18.0,2,4.475
400,12.80,-3.6221,3.7982,0.1797,0.0000,-0.0000,-2.7754,flat,18.0,2,3.903
410,13.12,-4.1573,3.5915,0.1797,0.0000,-0.0000,-2.7680,flat,18.0,2,3.330
420,13.44,-4.6911,3.3809,0.1797,0.0000,0.0000,-2.7606,flat,18.0,2,2.758
430,13.76,-5.2230,3.1664,0.1797,0.0000,0.0000,-2.7527,flat,18.0,2,2.186
440,14.08,-5.7530,2.9476,0.1797,0.0000,0.0000,-2.7439,flat,18.0,2,1.615
450,14.40,-6.2801,2.7242,0.1797,0.0000,0.0000,-2.7324,flat,18.0,2,1.047
460,14.72,-6.7499,2.5205,0.1798,-0.0001,0.0002,-2.6135,flat,18.0,3,10.719
470,15.04,-7.0925,2.2753,0.1799,-0.0000,-0.0000,-2.3573,flat,18.0,3,10.568
480,15.36,-7.3925,1.9140,0.1799,0.0000,-0.0000,-2.1302,flat,18.0,3,10.309
490,15.68,-7.6357,1.4657,0.1799,0.0000,-0.0000,-1.9227,flat,18.0,3,9.963
500,16.00,-7.7985,0.9565,0.1799,0.0000,-0.0000,-1.7406,flat,18.0,3,9.546
510,16.32,-7.8740,0.4125,0.1799,0.0001,-0.0000,-1.5874,flat,18.0,3,9.073
520,16.64,-7.8690,-0.1439,0.1799,0.0004,-0.0000,-1.4704,flat,18.0,3,8.564
530,16.96,-7.8026,-0.6992,0.1798,0.0004,-0.0000,-1.3855,flat,18.0,3,8.035
540,17.28,-7.6906,-1.2496,0.1797,0.0003,-0.0000,-1.3200,flat,18.0,3,7.494
550,17.60,-7.5437,-1.7937,0.1797,0.0002,-0.0000,-1.2675,flat,18.0,3,6.944
560,17.92,-7.3687,-2.3309,0.1797,0.0002,-0.0000,-1.2250,flat,18.0,3,6.389
570,18.24,-7.1714,-2.8609,0.1797,0.0001,-0.0000,-1.1899,flat,18.0,3,5.831
580,18.56,-6.9557,-3.3848,0.1797,0.0001,-0.0000,-1.1589,flat,18.0,3,5.270
590,18.88,-6.7239,-3.9026,0.1797,0.0001,-0.0000,-1.1308,flat,18.0,3,4.708
600,19.20,-6.4776,-4.4143,0.1797,0.0001,-0.0000,-1.1048,flat,18.0,3,4.144
610,19.52,-6.2180,-4.9197,0.1797,0.0001,-0.0000,-1.0802,flat,18.0,3,3.579
620,19.84,-5.9459,-5.4186,0.1797,0.0001,-0.0000,-1.0559,flat,18.0,3,3.013
630,20.16,-5.6618,-5.9104,0.1797,0.0001,0.0000,-1.0311,flat,18.0,3,2.447
640,20.48,-5.3655,-6.3941,0.1797,0.0001,0.0000,-1.0040,flat,18.0,3,1.882
650,20.80,-5.0563,-6.8671,0.1797,0.0001,0.0000,-0.9710,flat,18.0,3,1.318
660,21.12,-4.7319,-7.3243,0.1797,0.0002,0.0000,-0.9223,flat,18.0,0,0.759
670,21.44,-4.4656,-7.6122,0.1799,-0.0003,-0.0000,-0.6392,flat,18.0,0,15.947
680,21.76,-4.0987,-7.8380,0.1799,0.0000,-0.0000,-0.3523,flat,18.0,0,15.797
690,22.08,-3.6375,-7.9803,0.1799,0.0000,-0.0000,-0.0963,flat,18.0,0,15.531
700,22.40,-3.1230,-8.0085,0.1799,0.0001,-0.0000,0.1165,flat,18.0,0,15.160
710,22.72,-2.5929,-7.9284,0.1799,0.0001,-0.0000,0.2717,flat,18.0,0,14.713
720,23.04,-2.0696,-7.7657,0.1798,0.0004,-0.0000,0.3844,flat,18.0,0,14.220
730,23.36,-1.5615,-7.5454,0.1798,0.0004,-0.0000,0.4667,flat,18.0,0,13.701
740,23.68,-1.0683,-7.2839,0.1797,0.0002,-0.0000,0.5298,flat,18.0,0,13.166
750,24.00,-0.5889,-6.9916,0.1797,0.0002,-0.0000,0.5798,flat,18.0,0,12.621
760,24.32,-0.1226,-6.6754,0.1797,0.0001,-0.0000,0.6186,flat,18.0,0,12.070
770,24.64,0.3333,-6.3411,0.1797,0.0001,-0.0000,0.6511,flat,18.0,0,11.514
780,24.96,0.7798,-5.9920,0.1797,0.0001,-0.0000,0.6789,flat,18.0,0,10.954
790,25.28,1.2178,-5.6304,0.1797,0.0001,-0.0000,0.7030,flat,18.0,0,10.391
800,25.60,1.6483,-5.2583,0.1797,0.0001,-0.0000,0.7245,flat,18.0,0,9.826
810,25.92,2.0717,-4.8768,0.1797,0.0001,-0.0000,0.7440,flat,18.0,0,9.259
820,26.24,2.4885,-4.4871,0.1797,0.0001,-0.0000,0.7615,flat,18.0,0,8.691
830,26.56,2.8991,-4.0901,0.1797,0.0001,-0.0000,0.7771,flat,18.0,0,8.122
840,26.88,3.3040,-3.6865,0.1797,0.0001,-0.0000,0.7913,flat,18.0,0,7.552
850,27.20,3.7036,-3.2773,0.1797,0.0000,-0.0000,0.8044,flat,18.0,0,6.981
860,27.52,4.0981,-2.8628,0.1797,0.0000,-0.0000,0.8166,flat,18.0,0,6.410
870,27.84,4.4878,-2.4434,0.1797,0.0000,-0.0000,0.8280,flat,18.0,0,5.838
880,28.16,4.8730,-2.0197,0.1797,0.0000,-0.0000,0.8388,flat,18.0,0,5.266
890,28.48,5.2538,-1.5918,0.1797,0.0000,-0.0000,0.8489,flat,18.0,0,4.693
900,28.80,5.6303,-1.1602,0.1797,0.0000,-0.0000,0.8587,flat,18.0,0,4.121
910,29.12,6.0027,-0.7249,0.1797,0.0000,-0.0000,0.8683,flat,18.0,0,3.548
920,29.44,6.3709,-0.2862,0.1797,0.0000,0.0000,0.8780,flat,18.0,0,2.976
930,29.76,6.7345,0.1562,0.1797,0.0000,0.0000,0.8883,flat,18.0,0,2.403
940,30.08,7.0933,0.6020,0.1797,0.0000,0.0000,0.8996,flat,18.0,0,1.831
950,30.40,7.4463,1.0517,0.1797,0.0000,0.0000,0.9133,flat,18.0,0,1.259
960,30.72,7.7885,1.5022,0.1797,0.0001,0.0002,0.9490,flat,18.0,1,5.358
970,31.04,8.0133,1.8877,0.1799,-0.0001,-0.0000,1.2435,flat,18.0,1,5.206
980,31.36,8.1313,2.2784,0.1799,0.0001,-0.0000,1.4789,rough,14.0,1,5.008
990,31.68,8.1561,2.7093,0.1799,0.0001,-0.0001,1.6709,flat,18.0,1,4.738
1000,32.00,8.0812,3.2198,0.1799,0.0001,-0.0000,1.8883,flat,18.0,1,4.367
1010,32.32,7.8923,3.7154,0.1799,0.0001,-0.0000,2.0561,flat,18.0,1,3.937
1020,32.64,7.6200,4.1794,0.1799,0.0002,-0.0000,2.1870,flat,18.0,1,3.474
1030,32.96,7.2870,4.6118,0.1798,0.0004,-0.0000,2.2869,flat,18.0,1,2.991
1040,33.28,6.9115,5.0067,0.1798,0.0004,-0.0000,2.3886,flat,18.0,1,2.503
1050,33.60,6.4966,5.3617,0.1798,0.0004,-0.0000,2.5011,flat,18.0,1,2.013
1060,33.92,6.0443,5.6685,0.1799,0.0002,0.0000,2.6365,flat,18.0,1,1.526
1070,34.24,5.5595,5.9089,0.1799,0.0000,0.0000,2.8255,flat,18.0,1,1.051
1080,34.56,5.0535,6.0370,0.1800,0.0003,-0.0002,3.0281,flat,18.0,2,12.820
1090,34.88,4.4973,6.0866,0.1799,0.0003,-0.0000,3.1325,flat,18.0,2,12.306
1100,35.20,3.9344,6.0819,0.1798,0.0004,-0.0000,-3.0706,flat,18.0,2,11.772
1110,35.52,3.3717,6.0345,0.1797,0.0002,-0.0000,-3.0112,flat,18.0,2,11.227
1120,35.84,2.8108,5.9550,0.1797,0.0002,-0.0000,-2.9649,flat,18.0,2,10.673
1130,36.16,2.2534,5.8506,0.1797,0.0001,-0.0000,-2.9300,flat,18.0,2,10.116
1140,36.48,1.6988,5.7272,0.1797,0.0001,-0.0000,-2.9010,flat,18.0,2,9.555
1150,36.80,1.1468,5.5879,0.1797,0.0001,-0.0000,-2.8764,flat,18.0,2,8.991
1160,37.12,0.5975,5.4354,0.1797,0.0001,-0.0000,-2.8553,flat,18.0,2,8.425
1170,37.44,0.0507,5.2714,0.1797,0.0001,-0.0000,-2.8370,flat,18.0,2,7.858
1180,37.76,-0.4936,5.0976,0.1797,0.0001,-0.0000,-2.8210,flat,18.0,2,7.289
1190,38.08,-1.0355,4.9152,0.1797,0.0001,-0.0000,-2.8067,flat,18.0,2,6.720
1200,38.40,-1.5753,4.7250,0.1797,0.0000,-0.0000,-2.7939,flat,18.0,2,6.150
1210,38.72,-2.1129,4.5281,0.1797,0.0000,-0.0000,-2.7822,flat,18.0,2,5.579
1220,39.04,-2.6484,4.3249,0.1797,0.0000,-0.0000,-2.7714,flat,18.0,2,5.008
1230,39.36,-3.1819,4.1159,0.1797,0.0000,-0.0000,-2.7614,flat,18.0,2,4.436
1240,39.68,-3.7134,3.9016,0.1797,0.0000,-0.0000,-2.7518,flat,18.0,2,3.865
1250,40.00,-4.2430,3.6823,0.1797,0.0000,-0.0000,-2.7424,flat,18.0,2,3.294
1260,40.32,-4.7704,3.4580,0.1797,0.0000,0.0000,-2.7329,flat,18.0,2,2.722
1270,40.64,-5.2954,3.2287,0.1797,0.0000,0.0000,-2.7230,flat,18.0,2,2.152
1280,40.96,-5.8177,2.9941,0.1797,0.0000,0.0000,-2.7116,flat,18.0,2,1.582
1290,41.28,-6.3360,2.7537,0.1797,0.0001,0.0000,-2.6969,flat,18.0,2,1.017
1300,41.60,-6.7835,2.5356,0.1798,-0.0002,0.0001,-2.5520,flat,18.0,3,10.742
1310,41.92,-7.1155,2.2602,0.1799,0.0000,-0.0000,-2.3031,flat,18.0,3,10.560
1320,42.24,-7.4062,1.8758,0.1799,0.0000,-0.0000,-2.0811,flat,18.0,3,10.277
1330,42.56,-7.6331,1.4106,0.1799,0.0000,-0.0000,-1.8806,flat,18.0,3,9.911
1340,42.88,-7.7773,0.8909,0.1799,0.0001,-0.0000,-1.7062,flat,18.0,3,9.477
1350,43.20,-7.8354,0.3420,0.1799,0.0001,-0.0000,-1.5613,flat,18.0,3,8.993
1360,43.52,-7.8171,-0.2151,0.1798,0.0004,-0.0000,-1.4540,flat,18.0,3,8.478
1370,43.84,-7.7421,-0.7701,0.1798,0.0004,-0.0000,-1.3748,flat,18.0,3,7.945
1380,44.16,-7.6246,-1.3200,0.1797,0.0002,-0.0000,-1.3132,flat,18.0,3,7.401
1390,44.48,-7.4741,-1.8638,0.1797,0.0002,-0.0000,-1.2633,flat,18.0,3,6.849
1400,44.80,-7.2970,-2.4005,0.1797,0.0001,-0.0000,-1.2234,flat,18.0,3,6.294
1410,45.12,-7.0989,-2.9306,0.1797,0.0001,-0.0000,-1.1896,flat,18.0,3,5.735
1420,45.44,-6.8831,-3.4548,0.1797,0.0001,-0.0000,-1.1596,flat,18.0,3,5.173
1430,45.76,-6.6516,-3.9730,0.1797,0.0001,-0.0000,-1.1323,flat,18.0,3,4.610
1440,46.08,-6.4061,-4.4852,0.1797,0.0001,-0.0000,-1.1069,flat,18.0,3,4.045
1450,46.40,-6.1476,-4.9914,0.1797,0.0001,-0.0000,-1.0827,flat,18.0,3,3.480
1460,46.72,-5.8768,-5.4911,0.1797,0.0001,-0.0000,-1.0588,flat,18.0,3,2.914
1470,47.04,-5.5941,-5.9838,0.1797,0.0001,0.0000,-1.0340,flat,18.0,3,2.348
1480,47.36,-5.2993,-6.4682,0.1797,0.0001,0.0000,-1.0066,flat,18.0,3,1.783
1490,47.68,-4.9913,-6.9416,0.1797,0.0001,0.0000,-0.9722,flat,18.0,3,1.220
1500,48.00,-4.6776,-7.3866,0.1797,0.0001,0.0004,-0.8910,flat,18.0,0,15.983
1510,48.32,-4.4087,-7.6474,0.1799,-0.0002,-0.0000,-0.5906,flat,18.0,0,15.924
1520,48.64,-4.0239,-7.8631,0.1799,0.0000,-0.0000,-0.3079,flat,18.0,0,15.754
1530,48.96,-3.5510,-7.9879,0.1799,0.0000,-0.0000,-0.0578,flat,18.0,0,15.470
1540,49.28,-3.0318,-7.9969,0.1799,0.0001,-0.0000,0.1456,flat,18.0,0,15.084
1550,49.60,-2.5017,-7.9013,0.1799,0.0002,-0.0000,0.2930,flat,18.0,0,14.627
1560,49.92,-1.9807,-7.7276,0.1798,0.0004,-0.0000,0.3997,flat,18.0,0,14.129
1570,50.24,-1.4751,-7.4995,0.1798,0.0003,-0.0000,0.4782,flat,18.0,0,13.607
1580,50.56,-0.9843,-7.2323,0.1797,0.0002,-0.0000,0.5388,flat,18.0,0,13.071
1590,50.88,-0.5071,-6.9356,0.1797,0.0002,-0.0000,0.5869,flat,18.0,0,12.524
1600,51.20,-0.0426,-6.6161,0.1797,0.0001,-0.0000,0.6243,flat,18.0,0,11.972
1610,51.52,0.4116,-6.2793,0.1797,0.0001,-0.0000,0.6559,flat,18.0,0,11.415
1620,51.84,0.8567,-5.9280,0.1797,0.0001,-0.0000,0.6831,flat,18.0,0,10.854
1630,52.16,1.2934,-5.5646,0.1797,0.0001,-0.0000,0.7067,flat,18.0,0,10.291
1640,52.48,1.7227,-5.1908,0.1797,0.0001,-0.0000,0.7278,flat,18.0,0,9.726
1650,52.80,2.1451,-4.8080,0.1797,0.0001,-0.0000,0.7469,flat,18.0,0,9.159
1660,53.12,2.5608,-4.4170,0.1797,0.0001,-0.0000,0.7641,flat,18.0,0,8.591
1670,53.44,2.9705,-4.0189,0.1797,0.0001,-0.0000,0.7795,flat,18.0,0,8.021
1680,53.76,3.3745,-3.6144,0.1797,0.0000,-0.0000,0.7935,flat,18.0,0,7.451
1690,54.08,3.7732,-3.2042,0.1797,0.0000,-0.0000,0.8064,flat,18.0,0,6.880
1700,54.40,4.1669,-2.7889,0.1797,0.0000,-0.0000,0.8185,flat,18.0,0,6.309
1710,54.72,4.5559,-2.3688,0.1797,0.0000,-0.0000,0.8298,flat,18.0,0,5.737
1720,55.04,4.9403,-1.9443,0.1797,0.0000,-0.0000,0.8405,flat,18.0,0,5.165
1730,55.36,5.3203,-1.5159,0.1797,0.0000,-0.0000,0.8506,flat,18.0,0,4.592
1740,55.68,5.6962,-1.0836,0.1797,0.0000,-0.0000,0.8603,flat,18.0,0,4.020
1750,56.00,6.0679,-0.6478,0.1797,0.0000,-0.0000,0.8699,flat,18.0,0,3.447
1760,56.32,6.4353,-0.2084,0.1797,0.0000,0.0000,0.8797,flat,18.0,0,2.875
1770,56.64,6.7982,0.2345,0.1797,0.0000,0.0000,0.8901,flat,18.0,0,2.302
1780,56.96,7.1561,0.6810,0.1797,0.0000,0.0000,0.9017,flat,18.0,0,1.730
1790,57.28,7.5078,1.1314,0.1797,0.0000,0.0000,0.9161,flat,18.0,0,1.158
1800,57.60,7.8310,1.5667,0.1797,0.0001,0.0004,0.9983,flat,18.0,1,5.333
1810,57.92,8.0413,1.9639,0.1799,-0.0000,-0.0001,1.3026,flat,18.0,1,5.169
1820,58.24,8.1366,2.3442,0.1799,0.0001,-0.0000,1.5202,rough,14.0,1,4.966
1830,58.56,8.1462,2.8211,0.1799,0.0000,-0.0000,1.7283,flat,18.0,1,4.660
1840,58.88,8.0413,3.3310,0.1799,0.0000,-0.0000,1.9322,flat,18.0,1,4.270
1850,59.20,7.8301,3.8201,0.1799,0.0001,-0.0000,2.0891,flat,18.0,1,3.830
1860,59.52,7.5419,4.2767,0.1799,0.0003,-0.0000,2.2116,flat,18.0,1,3.361
1870,59.84,7.1985,4.7018,0.1798,0.0004,-0.0000,2.3087,flat,18.0,1,2.875
1880,60.16,6.8141,5.0880,0.1798,0.0004,-0.0000,2.4117,flat,18.0,1,2.387
1890,60.48,6.3909,5.4338,0.1798,0.0004,-0.0000,2.5277,flat,18.0,1,1.897
1900,60.80,5.9310,5.7281,0.1799,0.0001,0.0000,2.6714,flat,18.0,1,1.411
1910,61.12,5.4410,5.9502,0.1799,0.0000,0.0000,2.8831,flat,18.0,1,0.942
1920,61.44,4.9242,6.0501,0.1799,0.0000,0.0000,3.0589,flat,18.0,2,12.700
1930,61.76,4.3652,6.0846,0.1798,0.0004,-0.0000,-3.1263,flat,18.0,2,12.180
1940,62.08,3.8020,6.0670,0.1798,0.0003,-0.0000,-3.0530,flat,18.0,2,11.643
1950,62.40,3.2397,6.0101,0.1797,0.0002,-0.0000,-2.9981,flat,18.0,2,11.094
1960,62.72,2.6795,5.9235,0.1797,0.0002,-0.0000,-2.9554,flat,18.0,2,10.540
1970,63.04,2.1229,5.8139,0.1797,0.0001,-0.0000,-2.9224,flat,18.0,2,9.981
1980,63.36,1.5688,5.6863,0.1797,0.0001,-0.0000,-2.8947,flat,18.0,2,9.419
1990,63.68,1.0174,5.5437,0.1797,0.0001,-0.0000,-2.8713,flat,18.0,2,8.854
2000,64.00,0.4686,5.3884,0.1797,0.0001,-0.0000,-2.8511,flat,18.0,2,8.288
2010,64.32,-0.0776,5.2222,0.1797,0.0001,-0.0000,-2.8335,flat,18.0,2,7.720
2020,64.64,-0.6215,5.0465,0.1797,0.0001,-0.0000,-2.8180,flat,18.0,2,7.151
2030,64.96,-1.1630,4.8625,0.1797,0.0000,-0.0000,-2.8042,flat,18.0,2,6.582
2040,65.28,-1.7024,4.6711,0.1797,0.0000,-0.0000,-2.7918,flat,18.0,2,6.011
2050,65.60,-2.2397,4.4730,0.1797,0.0000,-0.0000,-2.7804,flat,18.0,2,5.441
2060,65.92,-2.7750,4.2688,0.1797,0.0000,-0.0000,-2.7699,flat,18.0,2,4.869
2070,66.24,-3.3082,4.0591,0.1797,0.0000,-0.0000,-2.7601,flat,18.0,2,4.298
2080,66.56,-3.8395,3.8442,0.1797,0.0000,-0.0000,-2.7506,flat,18.0,2,3.726
2090,66.88,-4.3688,3.6242,0.1797,0.0000,-0.0000,-2.7413,flat,18.0,2,3.155
2100,67.20,-4.8960,3.3993,0.1797,0.0000,0.0000,-2.7318,flat,18.0,2,2.584
2110,67.52,-5.4207,3.1694,0.1797,0.0000,0.0000,-2.7217,flat,18.0,2,2.014
2120,67.84,-5.9425,2.9342,0.1797,0.0000,0.0000,-2.7099,flat,18.0,2,1.445
2130,68.16,-6.4600,2.6929,0.1797,0.0001,0.0000,-2.6937,flat,18.0,2,0.880
2140,68.48,-6.8753,2.4783,0.1799,-0.0003,0.0000,-2.5017,flat,18.0,3,10.708
2150,68.80,-7.1842,2.1965,0.1799,0.0001,-0.0002,-2.2675,flat,18.0,3,10.518
2160,69.12,-7.4662,1.7980,0.1799,0.0000,-0.0000,-2.0476,flat,18.0,3,10.221
2170,69.44,-7.6805,1.3224,0.1799,0.0001,-0.0000,-1.8510,flat,18.0,3,9.844
2180,69.76,-7.8102,0.7966,0.1799,0.0001,0.0000,-1.6815,flat,18.0,3,9.402
2190,70.08,-7.8548,0.2453,0.1799,0.0002,-0.0000,-1.5404,flat,18.0,3,8.913
2200,70.40,-7.8256,-0.3117,0.1798,0.0004,-0.0000,-1.4384,flat,18.0,3,8.394
2210,70.72,-7.7421,-0.8658,0.1798,0.0003,-0.0000,-1.3624,flat,18.0,3,7.859
2220,71.04,-7.6179,-1.4145,0.1797,0.0002,-0.0000,-1.3028,flat,18.0,3,7.314
2230,71.36,-7.4618,-1.9570,0.1797,0.0002,-0.0000,-1.2543,flat,18.0,3,6.762
2240,71.68,-7.2800,-2.4921,0.1797,0.0001,-0.0000,-1.2157,flat,18.0,3,6.205
2250,72.00,-7.0779,-3.0208,0.1797,0.0001,-0.0000,-1.1825,flat,18.0,3,5.646
2260,72.32,-6.8583,-3.5435,0.1797,0.0001,-0.0000,-1.1529,flat,18.0,3,5.084
2270,72.64,-6.6234,-4.0603,0.1797,0.0001,-0.0000,-1.1259,flat,18.0,3,4.521
2280,72.96,-6.3746,-4.5710,0.1797,0.0001,-0.0000,-1.1007,flat,18.0,3,3.956
2290,73.28,-6.1130,-5.0755,0.1797,0.0001,-0.0000,-1.0766,flat,18.0,3,3.391
2300,73.60,-5.8391,-5.5735,0.1797,0.0001,0.0000,-1.0526,flat,18.0,3,2.825
2310,73.92,-5.5534,-6.0643,0.1797,0.0001,0.0000,-1.0275,flat,18.0,3,2.259
2320,74.24,-5.2553,-6.5464,0.1797,0.0001,0.0000,-0.9993,flat,18.0,3,1.694
2330,74.56,-4.9439,-7.0168,0.1797,0.0001,0.0000,-0.9630,flat,18.0,3,1.131
2340,74.88,-4.6474,-7.4294,0.1798,0.0000,0.0005,-0.8319,flat,18.0,0,15.984
2350,75.20,-4.3562,-7.6782,0.1799,-0.0001,-0.0001,-0.5327,flat,18.0,0,15.901
2360,75.52,-3.9506,-7.8797,0.1799,0.0000,-0.0000,-0.2559,flat,18.0,0,15.708
2370,75.84,-3.4651,-7.9828,0.1799,0.0000,-0.0000,-0.0134,flat,18.0,0,15.401
2380,76.16,-2.9412,-7.9695,0.1799,0.0001,-0.0000,0.1776,flat,18.0,0,14.998
2390,76.48,-2.4115,-7.8567,0.1799,0.0002,-0.0000,0.3161,flat,18.0,0,14.531
2400,76.80,-1.8933,-7.6712,0.1798,0.0004,-0.0000,0.4160,flat,18.0,0,14.027
2410,77.12,-1.3904,-7.4349,0.1798,0.0003,-0.0000,0.4903,flat,18.0,0,13.501
2420,77.44,-0.9021,-7.1618,0.1797,0.0002,-0.0000,0.5480,flat,18.0,0,12.963
2430,77.76,-0.4272,-6.8606,0.1797,0.0002,-0.0000,0.5937,flat,18.0,0,12.415
2440,78.08,0.0355,-6.5379,0.1797,0.0001,-0.0000,0.6298,flat,18.0,0,11.861
2450,78.40,0.4883,-6.1985,0.1797,0.0001,-0.0000,0.6604,flat,18.0,0,11.303
2460,78.72,0.9322,-5.8452,0.1797,0.0001,-0.0000,0.6867,flat,18.0,0,10.742
2470,79.04,1.3678,-5.4802,0.1797,0.0001,-0.0000,0.7097,flat,18.0,0,10.179
2480,79.36,1.7962,-5.1052,0.1797,0.0001,-0.0000,0.7303,flat,18.0,0,9.613
2490,79.68,2.2178,-4.7212,0.1797,0.0001,-0.0000,0.7491,flat,18.0,0,9.046
2500,80.00,2.6328,-4.3294,0.1797,0.0001,-0.0000,0.7659,flat,18.0,0,8.477
2510,80.32,3.0419,-3.9305,0.1797,0.0001,-0.0000,0.7810,flat,18.0,0,7.908
2520,80.64,3.4454,-3.5254,0.1797,0.0000,-0.0000,0.7947,flat,18.0,0,7.337
2530,80.96,3.8438,-3.1147,0.1797,0.0000,-0.0000,0.8074,flat,18.0,0,6.766
2540,81.28,4.2371,-2.6990,0.1797,0.0000,-0.0000,0.8193,flat,18.0,0,6.195
2550,81.60,4.6258,-2.2786,0.1797,0.0000,-0.0000,0.8305,flat,18.0,0,5.623
2560,81.92,5.0100,-1.8539,0.1797,0.0000,-0.0000,0.8410,flat,18.0,0,5.051
2570,82.24,5.3898,-1.4252,0.1797,0.0000,-0.0000,0.8510,flat,18.0,0,4.478
2580,82.56,5.7655,-0.9928,0.1797,0.0000,-0.0000,0.8607,flat,18.0,0,3.906
2590,82.88,6.1371,-0.5568,0.1797,0.0000,0.0000,0.8703,flat,18.0,0,3.333
2600,83.20,6.5043,-0.1173,0.1797,0.0000,0.0000,0.8802,flat,18.0,0,2.760
2610,83.52,6.8669,0.3257,0.1797,0.0000,0.0000,0.8907,flat,18.0,0,2.188
2620,83.84,7.2244,0.7724,0.1797,0.0000,0.0000,0.9027,flat,18.0,0,1.616
2630,84.16,7.5754,1.2230,0.1797,0.0001,0.0000,0.9179,flat,18.0,0,1.045
2640,84.48,7.8763,1.6392,0.1798,-0.0002,0.0002,1.0584,flat,18.0,1,5.305
2650,84.80,8.0680,2.0456,0.1799,0.0001,0.0005,1.3464,rough,14.0,1,5.127
2660,85.12,8.1434,2.4270,0.1799,0.0001,-0.0004,1.5469,flat,18.0,1,4.915
2670,85.44,8.1353,2.9230,0.1799,-0.0000,-0.0000,1.7726,flat,18.0,1,4.588
2680,85.76,8.0070,3.4306,0.1799,0.0000,-0.0000,1.9665,flat,18.0,1,4.186
2690,86.08,7.7787,3.9136,0.1799,0.0001,-0.0000,2.1158,flat,18.0,1,3.739
2700,86.40,7.4777,4.3641,0.1799,0.0003,-0.0000,2.2312,flat,18.0,1,3.265
2710,86.72,7.1258,4.7819,0.1798,0.0004,-0.0000,2.3285,flat,18.0,1,2.779
2720,87.04,6.7336,5.1603,0.1798,0.0004,-0.0000,2.4335,flat,18.0,1,2.290
2730,87.36,6.3029,5.4970,0.1799,0.0003,-0.0000,2.5534,flat,18.0,1,1.800
2740,87.68,5.8361,5.7790,0.1799,0.0001,0.0000,2.7059,flat,18.0,1,1.316
2750,88.00,5.3422,5.9829,0.1799,0.0000,0.0000,2.9430,flat,18.0,1,0.854
2760,88.32,4.8147,6.0617,0.1798,0.0001,0.0000,3.0795,flat,18.0,2,12.600
2770,88.64,4.2539,6.0852,0.1798,0.0004,-0.0000,-3.1101,flat,18.0,2,12.075
2780,88.96,3.6906,6.0590,0.1798,0.0003,-0.0000,-3.0410,flat,18.0,2,11.535
2790,89.28,3.1286,5.9956,0.1797,0.0002,-0.0000,-2.9888,flat,18.0,2,10.985
2800,89.60,2.5692,5.9039,0.1797,0.0001,-0.0000,-2.9484,flat,18.0,2,10.429
2810,89.92,2.0130,5.7905,0.1797,0.0001,-0.0000,-2.9165,flat,18.0,2,9.870
2820,90.24,1.4595,5.6598,0.1797,0.0001,-0.0000,-2.8898,flat,18.0,2,9.307
2830,90.56,0.9086,5.5145,0.1797,0.0001,-0.0000,-2.8671,flat,18.0,2,8.743
2840,90.88,0.3603,5.3569,0.1797,0.0001,-0.0000,-2.8474,flat,18.0,2,8.176
2850,91.20,-0.1854,5.1887,0.1797,0.0001,-0.0000,-2.8303,flat,18.0,2,7.608
2860,91.52,-0.7288,5.0113,0.1797,0.0001,-0.0000,-2.8151,flat,18.0,2,7.039
2870,91.84,-1.2699,4.8257,0.1797,0.0000,-0.0000,-2.8016,flat,18.0,2,6.469
2880,92.16,-1.8089,4.6329,0.1797,0.0000,-0.0000,-2.7894,flat,18.0,2,5.899
2890,92.48,-2.3457,4.4335,0.1797,0.0000,-0.0000,-2.7782,flat,18.0,2,5.328
2900,92.80,-2.8806,4.2282,0.1797,0.0000,-0.0000,-2.7679,flat,18.0,2,4.757
2910,93.12,-3.4135,4.0174,0.1797,0.0000,-0.0000,-2.7581,flat,18.0,2,4.185
2920,93.44,-3.9444,3.8014,0.1797,0.0000,-0.0000,-2.7487,flat,18.0,2,3.614
2930,93.76,-4.4732,3.5804,0.1797,0.0000,-0.0000,-2.7394,flat,18.0,2,3.042
2940,94.08,-4.9999,3.3545,0.1797,0.0000,0.0000,-2.7298,flat,18.0,2,2.471
2950,94.40,-5.5241,3.1236,0.1797,0.0000,0.0000,-2.7195,flat,18.0,2,1.901
2960,94.72,-6.0452,2.8872,0.1797,0.0000,0.0000,-2.7071,flat,18.0,2,1.333
2970,95.04,-6.5614,2.6445,0.1797,0.0001,0.0000,-2.6893,flat,18.0,3,0.770
2980,95.36,-6.9420,2.4296,0.1799,-0.0002,0.0000,-2.4483,flat,18.0,3,10.678
2990,95.68,-7.2431,2.1248,0.1799,0.0000,-0.0001,-2.2220,flat,18.0,3,10.466
3000,96.00,-7.5141,1.7088,0.1799,0.0001,-0.0000,-2.0063,flat,18.0,3,10.152
3010,96.32,-7.7122,1.2211,0.1799,0.0001,0.0000,-1.8150,flat,18.0,3,9.761
3020,96.64,-7.8247,0.6884,0.1799,0.0001,-0.0000,-1.6509,flat,18.0,3,9.308
3030,96.96,-7.8531,0.1346,0.1799,0.0002,-0.0000,-1.5173,flat,18.0,3,8.811
3040,97.28,-7.8117,-0.4222,0.1798,0.0004,-0.0000,-1.4217,flat,18.0,3,8.288
3050,97.60,-7.7193,-0.9754,0.1798,0.0003,-0.0000,-1.3495,flat,18.0,3,7.751
3060,97.92,-7.5882,-1.5229,0.1797,0.0002,-0.0000,-1.2924,flat,18.0,3,7.204
3070,98.24,-7.4266,-2.0641,0.1797,0.0002,-0.0000,-1.2458,flat,18.0,3,6.651
3080,98.56,-7.2403,-2.5977,0.1797,0.0001,-0.0000,-1.2089,flat,18.0,3,6.094
3090,98.88,-7.0346,-3.1253,0.1797,0.0001,-0.0000,-1.1765,flat,18.0,3,5.534
3100,99.20,-6.8120,-3.6469,0.1797,0.0001,-0.0000,-1.1475,flat,18.0,3,4.972
3110,99.52,-6.5742,-4.1624,0.1797,0.0001,-0.0000,-1.1209,flat,18.0,3,4.408
3120,99.84,-6.3229,-4.6720,0.1797,0.0001,-0.0000,-1.0960,flat,18.0,3,3.843
3130,100.16,-6.0588,-5.1753,0.1797,0.0001,-0.0000,-1.0719,flat,18.0,3,3.278
3140,100.48,-5.7827,-5.6719,0.1797,0.0001,0.0000,-1.0478,flat,18.0,3,2.712
3150,100.80,-5.4946,-6.1612,0.1797,0.0001,0.0000,-1.0223,flat,18.0,3,2.146
3160,101.12,-5.1941,-6.6414,0.1797,0.0001,0.0000,-0.9931,flat,18.0,3,1.581
3170,101.44,-4.8798,-7.1087,0.1797,0.0001,0.0000,-0.9539,flat,18.0,3,1.019
3180,101.76,-4.5993,-7.4803,0.1798,-0.0001,0.0002,-0.7707,flat,18.0,0,15.975
3190,102.08,-4.2835,-7.7242,0.1799,-0.0000,-0.0001,-0.4752,flat,18.0,0,15.871
3200,102.40,-3.8587,-7.9092,0.1799,0.0000,-0.0000,-0.2046,flat,18.0,0,15.656
3210,102.72,-3.3623,-7.9893,0.1799,0.0000,-0.0000,0.0300,flat,18.0,0,15.328
3220,103.04,-2.8352,-7.9542,0.1799,0.0001,-0.0000,0.2088,flat,18.0,0,14.909
3230,103.36,-2.3069,-7.8247,0.1799,0.0003,-0.0000,0.3388,flat,18.0,0,14.433
3240,103.68,-1.7917,-7.6276,0.1798,0.0004,-0.0000,0.4325,flat,18.0,0,13.923
3250,104.00,-1.2918,-7.3831,0.1798,0.0003,-0.0000,0.5029,flat,18.0,0,13.395
3260,104.32,-0.8062,-7.1038,0.1797,0.0002,-0.0000,0.5580,flat,18.0,0,12.854
3270,104.64,-0.3340,-6.7978,0.1797,0.0002,-0.0000,0.6014,flat,18.0,0,12.305
3280,104.96,0.1267,-6.4715,0.1797,0.0001,-0.0000,0.6362,flat,18.0,0,11.750
3290,105.28,0.5776,-6.1292,0.1797,0.0001,-0.0000,0.6659,flat,18.0,0,11.192
3300,105.60,1.0198,-5.7734,0.1797,0.0001,-0.0000,0.6915,flat,18.0,0,10.630
3310,105.92,1.4539,-5.4062,0.1797,0.0001,-0.0000,0.7140,flat,18.0,0,10.066
3320,106.24,1.8809,-5.0294,0.1797,0.0001,-0.0000,0.7342,flat,18.0,0,9.500
3330,106.56,2.3012,-4.6438,0.1797,0.0001,-0.0000,0.7526,flat,18.0,0,8.933
3340,106.88,2.7150,-4.2504,0.1797,0.0001,-0.0000,0.7690,flat,18.0,0,8.364
3350,107.20,3.1229,-3.8502,0.1797,0.0001,-0.0000,0.7838,flat,18.0,0,7.794
3360,107.52,3.5254,-3.4440,0.1797,0.0000,-0.0000,0.7973,flat,18.0,0,7.223
3370,107.84,3.9227,-3.0323,0.1797,0.0000,-0.0000,0.8098,flat,18.0,0,6.652
3380,108.16,4.3151,-2.6156,0.1797,0.0000,-0.0000,0.8216,flat,18.0,0,6.081
3390,108.48,4.7028,-2.1943,0.1797,0.0000,-0.0000,0.8327,flat,18.0,0,5.509
3400,108.80,5.0861,-1.7688,0.1797,0.0000,-0.0000,0.8431,flat,18.0,0,4.937
3410,109.12,5.4652,-1.3393,0.1797,0.0000,-0.0000,0.8530,flat,18.0,0,4.364
3420,109.44,5.8400,-0.9062,0.1797,0.0000,-0.0000,0.8626,flat,18.0,0,3.791
3430,109.76,6.2107,-0.4695,0.1797,0.0000,0.0000,0.8723,flat,18.0,0,3.219
3440,110.08,6.5771,-0.0293,0.1797,0.0000,0.0000,0.8822,flat,18.0,0,2.646
3450,110.40,6.9387,0.4145,0.1797,0.0000,0.0000,0.8930,flat,18.0,0,2.074
3460,110.72,7.2950,0.8619,0.1797,0.0000,0.0000,0.9054,flat,18.0,0,1.502
3470,111.04,7.6445,1.3134,0.1797,0.0001,0.0000,0.9217,flat,18.0,0,0.931
3480,111.36,7.9221,1.7141,0.1798,-0.0003,-0.0000,1.1195,flat,18.0,1,5.277
3490,111.68,8.0892,2.1184,0.1799,0.0001,0.0001,1.3897,rough,14.0,1,5.090
3500,112.00,8.1489,2.5054,0.1799,0.0001,-0.0004,1.5882,flat,18.0,1,4.866
3510,112.32,8.1206,3.0048,0.1800,-0.0001,-0.0000,1.8057,flat,18.0,1,4.526
3520,112.64,7.9750,3.5100,0.1799,0.0000,-0.0000,1.9918,flat,18.0,1,4.116
3530,112.96,7.7341,3.9880,0.1799,0.0001,-0.0000,2.1358,flat,18.0,1,3.664
3540,113.28,7.4238,4.4337,0.1798,0.0003,-0.0000,2.2459,flat,18.0,1,3.187
3550,113.60,7.0655,4.8456,0.1798,0.0004,-0.0000,2.3444,flat,18.0,1,2.700
3560,113.92,6.6672,5.2177,0.1798,0.0004,-0.0000,2.4512,flat,18.0,1,2.211
3570,114.24,6.2306,5.5467,0.1799,0.0003,-0.0000,2.5748,flat,18.0,1,1.722
3580,114.56,5.7586,5.8182,0.1799,0.0001,0.0000,2.7357,flat,18.0,1,1.240
3590,114.88,5.2625,6.0062,0.1799,0.0000,0.0000,2.9993,flat,18.0,2,0.786
3600,115.20,4.7245,6.0738,0.1799,0.0002,0.0000,3.0892,flat,18.0,2,12.518
3610,115.52,4.1632,6.0922,0.1798,0.0004,-0.0000,-3.1024,flat,18.0,2,11.992
3620,115.84,3.6000,6.0618,0.1798,0.0003,-0.0000,-3.0348,flat,18.0,2,11.451
3630,116.16,3.0383,5.9951,0.1797,0.0002,-0.0000,-2.9835,flat,18.0,2,10.900
3640,116.48,2.4793,5.9005,0.1797,0.0001,-0.0000,-2.9439,flat,18.0,2,10.344
3650,116.80,1.9236,5.7846,0.1797,0.0001,-0.0000,-2.9125,flat,18.0,2,9.785
3660,117.12,1.3705,5.6517,0.1797,0.0001,-0.0000,-2.8861,flat,18.0,2,9.222
3670,117.44,0.8201,5.5043,0.1797,0.0001,-0.0000,-2.8635,flat,18.0,2,8.657
3680,117.76,0.2724,5.3448,0.1797,0.0001,-0.0000,-2.8441,flat,18.0,2,8.090
3690,118.08,-0.2728,5.1748,0.1797,0.0001,-0.0000,-2.8270,flat,18.0,2,7.522
3700,118.40,-0.8156,4.9956,0.1797,0.0001,-0.0000,-2.8120,flat,18.0,2,6.953
3710,118.72,-1.3562,4.8083,0.1797,0.0000,-0.0000,-2.7985,flat,18.0,2,6.383
3720,119.04,-1.8945,4.6138,0.1797,0.0000,-0.0000,-2.7864,flat,18.0,2,5.813
3730,119.36,-2.4308,4.4128,0.1797,0.0000,-0.0000,-2.7752,flat,18.0,2,5.242
3740,119.68,-2.9650,4.2059,0.1797,0.0000,-0.0000,-2.7648,flat,18.0,2,4.671
3750,120.00,-3.4972,3.9935,0.1797,0.0000,-0.0000,-2.7550,flat,18.0,2,4.099
3760,120.32,-4.0274,3.7758,0.1797,0.0000,-0.0000,-2.7455,flat,18.0,2,3.528
3770,120.64,-4.5555,3.5532,0.1797,0.0000,0.0000,-2.7361,flat,18.0,2,2.957
3780,120.96,-5.0814,3.3256,0.1797,0.0000,0.0000,-2.7264,flat,18.0,2,2.386
3790,121.28,-5.6047,3.0928,0.1797,0.0000,0.0000,-2.7157,flat,18.0,2,1.816
3800,121.60,-6.1246,2.8545,0.1797,0.0000,0.0000,-2.7027,flat,18.0,2,1.248
3810,121.92,-6.6284,2.6191,0.1797,0.0000,0.0003,-2.6485,flat,18.0,3,10.788
3820,122.24,-6.9835,2.3887,0.1799,-0.0000,-0.0000,-2.3966,flat,18.0,3,10.649
3830,122.56,-7.2776,2.0621,0.1799,0.0000,-0.0000,-2.1774,flat,18.0,3,10.416
3840,122.88,-7.5363,1.6296,0.1799,0.0000,-0.0000,-1.9667,flat,18.0,3,10.085
3850,123.20,-7.7187,1.1307,0.1799,0.0001,-0.0000,-1.7803,flat,18.0,3,9.679
3860,123.52,-7.8147,0.5921,0.1799,0.0001,-0.0000,-1.6226,flat,18.0,3,9.215
3870,123.84,-7.8285,0.0365,0.1799,0.0003,-0.0000,-1.4980,flat,18.0,3,8.711
3880,124.16,-7.7770,-0.5200,0.1798,0.0004,-0.0000,-1.4081,flat,18.0,3,8.185
3890,124.48,-7.6773,-1.0725,0.1798,0.0003,-0.0000,-1.3395,flat,18.0,3,7.645
3900,124.80,-7.5409,-1.6192,0.1797,0.0002,-0.0000,-1.2849,flat,18.0,3,7.097
3910,125.12,-7.3753,-2.1593,0.1797,0.0002,-0.0000,-1.2406,flat,18.0,3,6.542
3920,125.44,-7.1863,-2.6922,0.1797,0.0001,-0.0000,-1.2047,flat,18.0,3,5.985
3930,125.76,-6.9785,-3.2192,0.1797,0.0001,-0.0000,-1.1732,flat,18.0,3,5.424
3940,126.08,-6.7541,-3.7402,0.1797,0.0001,-0.0000,-1.1448,flat,18.0,3,4.862
3950,126.40,-6.5150,-4.2553,0.1797,0.0001,-0.0000,-1.1187,flat,18.0,3,4.298
3960,126.72,-6.2625,-4.7644,0.1797,0.0001,-0.0000,-1.0941,flat,18.0,3,3.733
3970,127.04,-5.9975,-5.2672,0.1797,0.0001,-0.0000,-1.0701,flat,18.0,3,3.167
3980,127.36,-5.7204,-5.7634,0.1797,0.0001,0.0000,-1.0459,flat,18.0,3,2.601
3990,127.68,-5.4314,-6.2519,0.1797,0.0001,0.0000,-1.0200,flat,18.0,3,2.035
4000,128.00,-5.1298,-6.7310,0.1797,0.0001,0.0000,-0.9896,flat,18.0,3,1.471
4010,128.32,-4.8140,-7.1960,0.1797,0.0001,0.0000,-0.9472,flat,18.0,3,0.910
4020,128.64,-4.5465,-7.5272,0.1798,-0.0003,0.0000,-0.7139,flat,18.0,0,15.961
4030,128.96,-4.2083,-7.7650,0.1799,0.0000,-0.0001,-0.4219,flat,18.0,0,15.837
4040,129.28,-3.7668,-7.9327,0.1799,0.0000,-0.0000,-0.1575,flat,18.0,0,15.600
4050,129.60,-3.2616,-7.9907,0.1799,0.0000,-0.0000,0.0685,flat,18.0,0,15.253
4060,129.92,-2.7326,-7.9358,0.1799,0.0001,-0.0000,0.2366,flat,18.0,0,14.821
4070,130.24,-2.2061,-7.7916,0.1799,0.0003,-0.0000,0.3588,flat,18.0,0,14.337
4080,130.56,-1.6939,-7.5843,0.1798,0.0004,-0.0000,0.4473,flat,18.0,0,13.823
4090,130.88,-1.1967,-7.3324,0.1797,0.0003,-0.0000,0.5144,flat,18.0,0,13.292
4100,131.20,-0.7137,-7.0475,0.1797,0.0002,-0.0000,0.5672,flat,18.0,0,12.749
4110,131.52,-0.2439,-6.7372,0.1797,0.0001,-0.0000,0.6085,flat,18.0,0,12.199
4120,131.84,0.2148,-6.4077,0.1797,0.0001,-0.0000,0.6423,flat,18.0,0,11.643
4130,132.16,0.6640,-6.0626,0.1797,0.0001,-0.0000,0.6711,flat,18.0,0,11.084
4140,132.48,1.1045,-5.7044,0.1797,0.0001,-0.0000,0.6961,flat,18.0,0,10.522
4150,132.80,1.5372,-5.3353,0.1797,0.0001,-0.0000,0.7180,flat,18.0,0,9.958
4160,133.12,1.9629,-4.9567,0.1797,0.0001,-0.0000,0.7380,flat,18.0,0,9.391
4170,133.44,2.3818,-4.5695,0.1797,0.0001,-0.0000,0.7560,flat,18.0,0,8.823
4180,133.76,2.7945,-4.1747,0.1797,0.0001,-0.0000,0.7721,flat,18.0,0,8.254
4190,134.08,3.2013,-3.7733,0.1797,0.0001,-0.0000,0.7866,flat,18.0,0,7.685
4200,134.40,3.6027,-3.3659,0.1797,0.0000,-0.0000,0.7998,flat,18.0,0,7.114
4210,134.72,3.9990,-2.9532,0.1797,0.0000,-0.0000,0.8122,flat,18.0,0,6.543
4220,135.04,4.3905,-2.5356,0.1797,0.0000,-0.0000,0.8239,flat,18.0,0,5.971
4230,135.36,4.7773,-2.1134,0.1797,0.0000,-0.0000,0.8348,flat,18.0,0,5.399
4240,135.68,5.1597,-1.6871,0.1797,0.0000,-0.0000,0.8451,flat,18.0,0,4.827
4250,136.00,5.5379,-1.2569,0.1797,0.0000,-0.0000,0.8549,flat,18.0,0,4.254
4260,136.32,5.9119,-0.8230,0.1797,0.0000,-0.0000,0.8646,flat,18.0,0,3.682
4270,136.64,6.2818,-0.3856,0.1797,0.0000,0.0000,0.8743,flat,18.0,0,3.109
4280,136.96,6.6472,0.0553,0.1797,0.0000,0.0000,0.8843,flat,18.0,0,2.536
4290,137.28,7.0078,0.4998,0.1797,0.0000,0.0000,0.8953,flat,18.0,0,1.964
4300,137.60,7.3629,0.9481,0.1797,0.0000,0.0000,0.9083,flat,18.0,0,1.392
4310,137.92,7.7107,1.4004,0.1797,0.0001,0.0000,0.9259,flat,18.0,0,0.822
4320,138.24,7.9625,1.7898,0.1799,-0.0002,-0.0000,1.1802,flat,18.0,1,5.245
4330,138.56,8.1055,2.1885,0.1799,0.0001,0.0000,1.4331,rough,14.0,1,5.052
4340,138.88,8.1494,2.6134,0.1799,0.0001,-0.0001,1.6290,flat,18.0,1,4.795
4350,139.20,8.0960,3.1239,0.1799,0.0001,-0.0000,1.8556,flat,18.0,1,4.435
4360,139.52,7.9240,3.6241,0.1799,0.0001,-0.0000,2.0300,flat,18.0,1,4.012
4370,139.84,7.6645,4.0942,0.1799,0.0002,-0.0000,2.1657,flat,18.0,1,3.552
4380,140.16,7.3408,4.5327,0.1798,0.0004,-0.0000,2.2686,flat,18.0,1,3.071
4390,140.48,6.9729,4.9353,0.1798,0.0004,0.0000,2.3685,flat,18.0,1,2.583
4400,140.80,6.5654,5.2983,0.1798,0.0004,-0.0000,2.4780,flat,18.0,1,2.094
4410,141.12,6.1202,5.6155,0.1799,0.0002,-0.0000,2.6076,flat,18.0,1,1.605
4420,141.44,5.6410,5.8705,0.1799,0.0000,0.0000,2.7832,flat,18.0,1,1.127
4430,141.76,5.1428,6.0240,0.1800,0.0003,-0.0001,3.0173,flat,18.0,2,12.901
4440,142.08,4.5917,6.0781,0.1799,0.0003,-0.0000,3.1189,flat,18.0,2,12.393
4450,142.40,4.0292,6.0807,0.1798,0.0004,-0.0000,-3.0808,flat,18.0,2,11.861
4460,142.72,3.4662,6.0388,0.1797,0.0002,-0.0000,-3.0191,flat,18.0,2,11.317
4470,143.04,2.9049,5.9636,0.1797,0.0002,-0.0000,-2.9714,flat,18.0,2,10.765
4480,143.36,2.3470,5.8626,0.1797,0.0001,-0.0000,-2.9351,flat,18.0,2,10.207
4490,143.68,1.7919,5.7420,0.1797,0.0001,-0.0000,-2.9054,flat,18.0,2,9.647
4500,144.00,1.2394,5.6052,0.1797,0.0001,-0.0000,-2.8804,flat,18.0,2,9.083
4510,144.32,0.6896,5.4548,0.1797,0.0001,-0.0000,-2.8589,flat,18.0,2,8.517
4520,144.64,0.1423,5.2928,0.1797,0.0001,-0.0000,-2.8403,flat,18.0,2,7.950
4530,144.96,-0.4024,5.1207,0.1797,0.0001,-0.0000,-2.8239,flat,18.0,2,7.382
4540,145.28,-0.9449,4.9399,0.1797,0.0001,-0.0000,-2.8095,flat,18.0,2,6.813
4550,145.60,-1.4851,4.7513,0.1797,0.0000,-0.0000,-2.7965,flat,18.0,2,6.242
4560,145.92,-2.0232,4.5557,0.1797,0.0000,-0.0000,-2.7847,flat,18.0,2,5.672
4570,146.24,-2.5592,4.3538,0.1797,0.0000,-0.0000,-2.7738,flat,18.0,2,5.101
4580,146.56,-3.0932,4.1462,0.1797,0.0000,-0.0000,-2.7637,flat,18.0,2,4.529
4590,146.88,-3.6252,3.9332,0.1797,0.0000,-0.0000,-2.7541,flat,18.0,2,3.958
4600,147.20,-4.1553,3.7151,0.1797,0.0000,-0.0000,-2.7448,flat,18.0,2,3.386
4610,147.52,-4.6832,3.4920,0.1797,0.0000,0.0000,-2.7354,flat,18.0,2,2.815
4620,147.84,-5.2089,3.2640,0.1797,0.0000,0.0000,-2.7256,flat,18.0,2,2.244
4630,148.16,-5.7319,3.0308,0.1797,0.0000,0.0000,-2.7146,flat,18.0,2,1.675
4640,148.48,-6.2513,2.7919,0.1797,0.0000,0.0000,-2.7008,flat,18.0,2,1.108
4650,148.80,-6.7285,2.5676,0.1798,0.0000,0.0003,-2.6009,flat,18.0,3,10.760
4660,149.12,-7.0708,2.3155,0.1799,0.0000,-0.0000,-2.3490,rough,14.0,3,10.601
4670,149.44,-7.3575,1.9693,0.1799,0.0000,-0.0000,-2.1330,flat,18.0,3,10.351
4680,149.76,-7.6020,1.5214,0.1799,0.0001,-0.0000,-1.9264,flat,18.0,3,10.004
4690,150.08,-7.7664,1.0125,0.1799,0.0001,0.0000,-1.7460,flat,18.0,3,9.586
4700,150.40,-7.8445,0.4686,0.1799,0.0001,-0.0000,-1.5926,flat,18.0,3,9.113
4710,150.72,-7.8424,-0.0879,0.1799,0.0004,-0.0000,-1.4755,flat,18.0,3,8.604
4720,151.04,-7.7788,-0.6436,0.1798,0.0004,-0.0000,-1.3906,flat,18.0,3,8.075
4730,151.36,-7.6697,-1.1947,0.1797,0.0003,-0.0000,-1.3253,flat,18.0,3,7.533
4740,151.68,-7.5257,-1.7397,0.1797,0.0002,-0.0000,-1.2728,flat,18.0,3,6.983
4750,152.00,-7.3535,-2.2779,0.1797,0.0002,-0.0000,-1.2305,flat,18.0,3,6.428
4760,152.32,-7.1592,-2.8091,0.1797,0.0001,-0.0000,-1.1956,flat,18.0,3,5.870
4770,152.64,-6.9465,-3.3343,0.1797,0.0001,-0.0000,-1.1647,flat,18.0,3,5.309
4780,152.96,-6.7177,-3.8535,0.1797,0.0001,-0.0000,-1.1367,flat,18.0,3,4.746
4790,153.28,-6.4744,-4.3667,0.1797,0.0001,-0.0000,-1.1110,flat,18.0,3,4.182
4800,153.60,-6.2180,-4.8738,0.1797,0.0001,-0.0000,-1.0865,flat,18.0,3,3.617
4810,153.92,-5.9491,-5.3746,0.1797,0.0001,-0.0000,-1.0625,flat,18.0,3,3.051
4820,154.24,-5.6683,-5.8685,0.1797,0.0001,0.0000,-1.0381,flat,18.0,3,2.485
4830,154.56,-5.3754,-6.3544,0.1797,0.0001,0.0000,-1.0115,flat,18.0,3,1.920
4840,154.88,-5.0697,-6.8302,0.1797,0.0001,0.0000,-0.9794,flat,18.0,3,1.356
4850,155.20,-4.7492,-7.2908,0.1797,0.0002,0.0000,-0.9328,flat,18.0,0,0.796
4860,155.52,-4.4874,-7.5806,0.1799,-0.0003,-0.0000,-0.6508,flat,18.0,0,15.946
4870,155.84,-4.1247,-7.8088,0.1799,0.0000,-0.0000,-0.3633,flat,18.0,0,15.799
4880,156.16,-3.6663,-7.9554,0.1799,0.0000,-0.0000,-0.1062,flat,18.0,0,15.537
4890,156.48,-3.1531,-7.9885,0.1799,0.0001,-0.0000,0.1089,flat,18.0,0,15.169
4900,156.80,-2.6229,-7.9125,0.1799,0.0001,-0.0000,0.2657,flat,18.0,0,14.724
4910,157.12,-2.0989,-7.7529,0.1799,0.0004,-0.0000,0.3798,flat,18.0,0,14.232
4920,157.44,-1.5899,-7.5350,0.1798,0.0004,-0.0000,0.4629,flat,18.0,0,13.714
4930,157.76,-1.0959,-7.2753,0.1797,0.0002,-0.0000,0.5265,flat,18.0,0,13.180
4940,158.08,-0.6156,-6.9846,0.1797,0.0002,-0.0000,0.5769,flat,18.0,0,12.635
4950,158.40,-0.1484,-6.6698,0.1797,0.0001,-0.0000,0.6160,flat,18.0,0,12.084
4960,158.72,0.3083,-6.3367,0.1797,0.0001,-0.0000,0.6487,flat,18.0,0,11.528
4970,159.04,0.7556,-5.9887,0.1797,0.0001,-0.0000,0.6766,flat,18.0,0,10.968
4980,159.36,1.1944,-5.6281,0.1797,0.0001,-0.0000,0.7008,flat,18.0,0,10.405
4990,159.68,1.6256,-5.2569,0.1797,0.0001,-0.0000,0.7223,flat,18.0,0,9.840
5000,160.00,2.0498,-4.8764,0.1797,0.0001,-0.0000,0.7418,flat,18.0,0,9.273
5010,160.32,2.4674,-4.4876,0.1797,0.0001,-0.0000,0.7594,flat,18.0,0,8.705
5020,160.64,2.8788,-4.0914,0.1797,0.0001,-0.0000,0.7752,flat,18.0,0,8.136
5030,160.96,3.2845,-3.6887,0.1797,0.0001,-0.0000,0.7894,flat,18.0,0,7.566
5040,161.28,3.6849,-3.2802,0.1797,0.0000,-0.0000,0.8024,flat,18.0,0,6.995
5050,161.60,4.0802,-2.8664,0.1797,0.0000,-0.0000,0.8146,flat,18.0,0,6.424
5060,161.92,4.4707,-2.4478,0.1797,0.0000,-0.0000,0.8261,flat,18.0,0,5.852
5070,162.24,4.8566,-2.0248,0.1797,0.0000,-0.0000,0.8369,flat,18.0,0,5.280
5080,162.56,5.2382,-1.5977,0.1797,0.0000,-0.0000,0.8471,flat,18.0,0,4.708
5090,162.88,5.6156,-1.1667,0.1797,0.0000,-0.0000,0.8569,flat,18.0,0,4.135
5100,163.20,5.9888,-0.7321,0.1797,0.0000,-0.0000,0.8665,flat,18.0,0,3.563
5110,163.52,6.3577,-0.2940,0.1797,0.0000,0.0000,0.8762,flat,18.0,0,2.990
5120,163.84,6.7222,0.1476,0.1797,0.0000,0.0000,0.8864,flat,18.0,0,2.417
5130,164.16,7.0818,0.5928,0.1797,0.0000,0.0000,0.8977,flat,18.0,0,1.845
5140,164.48,7.4357,1.0418,0.1797,0.0000,0.0000,0.9113,flat,18.0,0,1.273
5150,164.80,7.7789,1.4917,0.1797,0.0001,0.0002,0.9467,flat,18.0,1,5.360
5160,165.12,8.0045,1.8766,0.1799,-0.0001,-0.0000,1.2410,flat,18.0,1,5.208
5170,165.44,8.1235,2.2671,0.1799,0.0001,-0.0000,1.4765,rough,14.0,1,5.010
5180,165.76,8.1493,2.6980,0.1799,0.0001,-0.0001,1.6680,flat,18.0,1,4.740
5190,166.08,8.0758,3.2088,0.1799,0.0001,-0.0000,1.8856,flat,18.0,1,4.369
5200,166.40,7.8883,3.7050,0.1799,0.0001,-0.0000,2.0536,flat,18.0,1,3.939
5210,166.72,7.6173,4.1697,0.1799,0.0002,-0.0000,2.1846,flat,18.0,1,3.476
5220,167.04,7.2853,4.6030,0.1798,0.0004,-0.0000,2.2844,flat,18.0,1,2.992
5230,167.36,6.9108,4.9989,0.1798,0.0004,-0.0000,2.3857,flat,18.0,1,2.505
5240,167.68,6.4970,5.3551,0.1798,0.0004,-0.0000,2.4978,flat,18.0,1,2.015
5250,168.00,6.0457,5.6633,0.1799,0.0002,0.0000,2.6328,flat,18.0,1,1.527
5260,168.32,5.5617,5.9054,0.1799,0.0000,0.0000,2.8211,flat,18.0,1,1.053
5270,168.64,5.0564,6.0358,0.1800,0.0003,-0.0002,3.0232,flat,18.0,2,12.822
5280,168.96,4.5006,6.0879,0.1799,0.0003,-0.0000,3.1290,flat,18.0,2,12.310
5290,169.28,3.9379,6.0851,0.1798,0.0004,-0.0000,-3.0730,flat,18.0,2,11.777
5300,169.60,3.3751,6.0389,0.1797,0.0002,-0.0000,-3.0128,flat,18.0,2,11.232
5310,169.92,2.8141,5.9603,0.1797,0.0002,-0.0000,-2.9660,flat,18.0,2,10.678
5320,170.24,2.2567,5.8565,0.1797,0.0001,-0.0000,-2.9307,flat,18.0,2,10.121
5330,170.56,1.7020,5.7334,0.1797,0.0001,-0.0000,-2.9014,flat,18.0,2,9.560
5340,170.88,1.1501,5.5944,0.1797,0.0001,-0.0000,-2.8767,flat,18.0,2,8.996
5350,171.20,0.6007,5.4420,0.1797,0.0001,-0.0000,-2.8554,flat,18.0,2,8.431
5360,171.52,0.0540,5.2781,0.1797,0.0001,-0.0000,-2.8370,flat,18.0,2,7.863
5370,171.84,-0.4902,5.1043,0.1797,0.0001,-0.0000,-2.8208,flat,18.0,2,7.295
5380,172.16,-1.0321,4.9217,0.1797,0.0001,-0.0000,-2.8064,flat,18.0,2,6.725
5390,172.48,-1.5718,4.7315,0.1797,0.0000,-0.0000,-2.7935,flat,18.0,2,6.155
5400,172.80,-2.1093,4.5343,0.1797,0.0000,-0.0000,-2.7818,flat,18.0,2,5.585
5410,173.12,-2.6447,4.3309,0.1797,0.0000,-0.0000,-2.7710,flat,18.0,2,5.014
5420,173.44,-3.1781,4.1217,0.1797,0.0000,-0.0000,-2.7608,flat,18.0,2,4.442
5430,173.76,-3.7095,3.9071,0.1797,0.0000,-0.0000,-2.7512,flat,18.0,2,3.871
5440,174.08,-4.2389,3.6875,0.1797,0.0000,-0.0000,-2.7418,flat,18.0,2,3.300
5450,174.40,-4.7661,3.4628,0.1797,0.0000,0.0000,-2.7323,flat,18.0,2,2.728
5460,174.72,-5.2910,3.2332,0.1797,0.0000,0.0000,-2.7222,flat,18.0,2,2.158
5470,175.04,-5.8131,2.9982,0.1797,0.0000,0.0000,-2.7109,flat,18.0,2,1.589
5480,175.36,-6.3313,2.7574,0.1797,0.0001,0.0000,-2.6961,flat,18.0,2,1.023
5490,175.68,-6.7786,2.5389,0.1798,-0.0002,0.0001,-2.5513,flat,18.0,3,10.744
5500,176.00,-7.1066,2.2680,0.1799,0.0000,0.0004,-2.3014,rough,14.0,3,10.565
5510,176.32,-7.3888,1.8988,0.1799,-0.0000,-0.0000,-2.0906,flat,18.0,3,10.293
5520,176.64,-7.6193,1.4365,0.1799,0.0000,-0.0000,-1.8890,flat,18.0,3,9.930
5530,176.96,-7.7675,0.9186,0.1799,0.0001,-0.0000,-1.7133,flat,18.0,3,9.499
5540,177.28,-7.8294,0.3706,0.1799,0.0001,-0.0000,-1.5678,flat,18.0,3,9.017
5550,177.60,-7.8146,-0.1864,0.1798,0.0004,-0.0000,-1.4588,flat,18.0,3,8.503
5560,177.92,-7.7421,-0.7416,0.1798,0.0004,-0.0000,-1.3786,flat,18.0,3,7.970
5570,178.24,-7.6266,-1.2919,0.1797,0.0002,-0.0000,-1.3163,flat,18.0,3,7.427
5580,178.56,-7.4778,-1.8361,0.1797,0.0002,-0.0000,-1.2660,flat,18.0,3,6.876
5590,178.88,-7.3021,-2.3732,0.1797,0.0001,-0.0000,-1.2257,flat,18.0,3,6.320
5600,179.20,-7.1053,-2.9037,0.1797,0.0001,-0.0000,-1.1917,flat,18.0,3,5.761
5610,179.52,-6.8905,-3.4283,0.1797,0.0001,-0.0000,-1.1615,flat,18.0,3,5.200
5620,179.84,-6.6601,-3.9470,0.1797,0.0001,-0.0000,-1.1341,flat,18.0,3,4.637
5630,180.16,-6.4155,-4.4597,0.1797,0.0001,-0.0000,-1.1087,flat,18.0,3,4.072
5640,180.48,-6.1579,-4.9663,0.1797,0.0001,-0.0000,-1.0845,flat,18.0,3,3.507
5650,180.80,-5.8881,-5.4665,0.1797,0.0001,-0.0000,-1.0606,flat,18.0,3,2.941
5660,181.12,-5.6063,-5.9598,0.1797,0.0001,0.0000,-1.0359,flat,18.0,3,2.375
5670,181.44,-5.3123,-6.4448,0.1797,0.0001,0.0000,-1.0087,flat,18.0,3,1.809
5680,181.76,-5.0054,-6.9191,0.1797,0.0001,0.0000,-0.9748,flat,18.0,3,1.246
5690,182.08,-4.6928,-7.3653,0.1797,0.0001,0.0004,-0.8953,flat,18.0,0,15.983
5700,182.40,-4.4255,-7.6267,0.1799,-0.0002,-0.0000,-0.5950,flat,18.0,0,15.924
5710,182.72,-4.0421,-7.8436,0.1799,0.0000,-0.0000,-0.3121,flat,18.0,0,15.756
5720,183.04,-3.5700,-7.9702,0.1799,0.0000,-0.0000,-0.0618,flat,18.0,0,15.473
5730,183.36,-3.0510,-7.9812,0.1799,0.0001,-0.0000,0.1422,flat,18.0,0,15.088
5740,183.68,-2.5207,-7.8873,0.1799,0.0002,-0.0000,0.2902,flat,18.0,0,14.632
5750,184.00,-1.9994,-7.7151,0.1798,0.0004,-0.0000,0.3974,flat,18.0,0,14.134
5760,184.32,-1.4932,-7.4882,0.1798,0.0003,-0.0000,0.4762,flat,18.0,0,13.612
5770,184.64,-1.0019,-7.2220,0.1797,0.0002,-0.0000,0.5369,flat,18.0,0,13.076
5780,184.96,-0.5242,-6.9262,0.1797,0.0002,-0.0000,0.5852,flat,18.0,0,12.529
5790,185.28,-0.0592,-6.6075,0.1797,0.0001,-0.0000,0.6227,flat,18.0,0,11.977
5800,185.60,0.3956,-6.2714,0.1797,0.0001,-0.0000,0.6543,flat,18.0,0,11.420
5810,185.92,0.8412,-5.9208,0.1797,0.0001,-0.0000,0.6815,flat,18.0,0,10.860
5820,186.24,1.2785,-5.5580,0.1797,0.0001,-0.0000,0.7051,flat,18.0,0,10.296
5830,186.56,1.7083,-5.1850,0.1797,0.0001,-0.0000,0.7262,flat,18.0,0,9.731
5840,186.88,2.1312,-4.8028,0.1797,0.0001,-0.0000,0.7454,flat,18.0,0,9.164
5850,187.20,2.5476,-4.4125,0.1797,0.0001,-0.0000,0.7626,flat,18.0,0,8.596
5860,187.52,2.9578,-4.0149,0.1797,0.0001,-0.0000,0.7780,flat,18.0,0,8.027
5870,187.84,3.3625,-3.6111,0.1797,0.0000,-0.0000,0.7920,flat,18.0,0,7.456
5880,188.16,3.7618,-3.2015,0.1797,0.0000,-0.0000,0.8049,flat,18.0,0,6.886
5890,188.48,4.1562,-2.7868,0.1797,0.0000,-0.0000,0.8170,flat,18.0,0,6.314
5900,188.80,4.5457,-2.3673,0.1797,0.0000,-0.0000,0.8283,flat,18.0,0,5.742
5910,189.12,4.9308,-1.9434,0.1797,0.0000,-0.0000,0.8390,flat,18.0,0,5.170
5920,189.44,5.3115,-1.5155,0.1797,0.0000,-0.0000,0.8491,flat,18.0,0,4.598
5930,189.76,5.6880,-1.0838,0.1797,0.0000,-0.0000,0.8588,flat,18.0,0,4.025
5940,190.08,6.0604,-0.6485,0.1797,0.0000,-0.0000,0.8684,flat,18.0,0,3.453
5950,190.40,6.4284,-0.2097,0.1797,0.0000,0.0000,0.8782,flat,18.0,0,2.880
5960,190.72,6.7920,0.2327,0.1797,0.0000,0.0000,0.8886,flat,18.0,0,2.307
5970,191.04,7.1506,0.6786,0.1797,0.0000,0.0000,0.9002,flat,18.0,0,1.735
5980,191.36,7.5030,1.1285,0.1797,0.0000,0.0000,0.9145,flat,18.0,0,1.164
5990,191.68,7.8269,1.5632,0.1797,0.0001,0.0004,0.9966,flat,18.0,1,5.333
6000,192.00,8.0378,1.9600,0.1799,-0.0000,-0.0001,1.3008,flat,18.0,1,5.169
6010,192.32,8.1336,2.3400,0.1799,0.0001,-0.0000,1.5188,rough,14.0,1,4.967
6020,192.64,8.1439,2.8168,0.1799,0.0000,-0.0000,1.7269,flat,18.0,1,4.660
6030,192.96,8.0397,3.3268,0.1799,0.0000,-0.0000,1.9310,flat,18.0,1,4.272
6040,193.28,7.8291,3.8162,0.1799,0.0001,-0.0000,2.0880,flat,18.0,1,3.831
6050,193.60,7.5415,4.2731,0.1799,0.0003,-0.0000,2.2106,flat,18.0,1,3.362
6060,193.92,7.1985,4.6985,0.1798,0.0004,-0.0000,2.3077,flat,18.0,1,2.876
6070,194.24,6.8145,5.0852,0.1798,0.0004,-0.0000,2.4106,flat,18.0,1,2.388
6080,194.56,6.3917,5.4314,0.1798,0.0004,-0.0000,2.5265,flat,18.0,1,1.898
6090,194.88,5.9321,5.7262,0.1799,0.0001,0.0000,2.6699,flat,18.0,1,1.412
6100,195.20,5.4424,5.9490,0.1799,0.0000,0.0000,2.8812,flat,18.0,1,0.943
6110,195.52,4.9258,6.0499,0.1799,0.0000,0.0000,3.0570,flat,18.0,2,12.702
6120,195.84,4.3670,6.0854,0.1798,0.0004,-0.0000,-3.1277,flat,18.0,2,12.182
6130,196.16,3.8039,6.0686,0.1798,0.0003,-0.0000,-3.0540,flat,18.0,2,11.645
6140,196.48,3.2415,6.0122,0.1797,0.0002,-0.0000,-2.9987,flat,18.0,2,11.097
6150,196.80,2.6813,5.9259,0.1797,0.0002,-0.0000,-2.9557,flat,18.0,2,10.542
6160,197.12,2.1246,5.8165,0.1797,0.0001,-0.0000,-2.9226,flat,18.0,2,9.983
6170,197.44,1.5705,5.6890,0.1797,0.0001,-0.0000,-2.8949,flat,18.0,2,9.421
6180,197.76,1.0191,5.5465,0.1797,0.0001,-0.0000,-2.8714,flat,18.0,2,8.857
6190,198.08,0.4704,5.3913,0.1797,0.0001,-0.0000,-2.8511,flat,18.0,2,8.291
6200,198.40,-0.0759,5.2251,0.1797,0.0001,-0.0000,-2.8335,flat,18.0,2,7.723
6210,198.72,-0.6197,5.0493,0.1797,0.0001,-0.0000,-2.8179,flat,18.0,2,7.154
6220,199.04,-1.1612,4.8653,0.1797,0.0000,-0.0000,-2.8041,flat,18.0,2,6.585
6230,199.36,-1.7006,4.6738,0.1797,0.0000,-0.0000,-2.7916,flat,18.0,2,6.014
6240,199.68,-2.2378,4.4756,0.1797,0.0000,-0.0000,-2.7803,flat,18.0,2,5.443
6250,200.00,-2.7730,4.2714,0.1797,0.0000,-0.0000,-2.7697,flat,18.0,2,4.872
6260,200.32,-3.3063,4.0616,0.1797,0.0000,-0.0000,-2.7598,flat,18.0,2,4.301
6270,200.64,-3.8375,3.8465,0.1797,0.0000,-0.0000,-2.7504,flat,18.0,2,3.729
6280,200.96,-4.3667,3.6264,0.1797,0.0000,-0.0000,-2.7410,flat,18.0,2,3.158
6290,201.28,-4.8938,3.4014,0.1797,0.0000,0.0000,-2.7316,flat,18.0,2,2.587
6300,201.60,-5.4185,3.1713,0.1797,0.0000,0.0000,-2.7214,flat,18.0,2,2.016
6310,201.92,-5.9402,2.9360,0.1797,0.0000,0.0000,-2.7096,flat,18.0,2,1.448
6320,202.24,-6.4576,2.6945,0.1797,0.0001,0.0000,-2.6934,flat,18.0,2,0.883
6330,202.56,-6.8730,2.4798,0.1799,-0.0003,0.0000,-2.5014,flat,18.0,3,10.709
6340,202.88,-7.1818,2.1978,0.1799,0.0001,-0.0002,-2.2673,flat,18.0,3,10.518
6350,203.20,-7.4638,1.7992,0.1799,0.0000,-0.0000,-2.0475,flat,18.0,3,10.222
6360,203.52,-7.6781,1.3236,0.1799,0.0001,-0.0000,-1.8510,flat,18.0,3,9.845
6370,203.84,-7.8079,0.7978,0.1799,0.0001,0.0000,-1.6816,flat,18.0,3,9.402
6380,204.16,-7.8525,0.2464,0.1799,0.0002,-0.0000,-1.5405,flat,18.0,3,8.913
6390,204.48,-7.8233,-0.3106,0.1798,0.0004,-0.0000,-1.4386,flat,18.0,3,8.394
6400,204.80,-7.7400,-0.8647,0.1798,0.0003,-0.0000,-1.3626,flat,18.0,3,7.859
6410,205.12,-7.6159,-1.4135,0.1797,0.0002,-0.0000,-1.3030,flat,18.0,3,7.314
6420,205.44,-7.4599,-1.9560,0.1797,0.0002,-0.0000,-1.2546,flat,18.0,3,6.762
6430,205.76,-7.2782,-2.4911,0.1797,0.0001,-0.0000,-1.2159,flat,18.0,3,6.205
6440,206.08,-7.0762,-3.0199,0.1797,0.0001,-0.0000,-1.1828,flat,18.0,3,5.646
6450,206.40,-6.8569,-3.5427,0.1797,0.0001,-0.0000,-1.1532,flat,18.0,3,5.084
6460,206.72,-6.6221,-4.0595,0.1797,0.0001,-0.0000,-1.1262,flat,18.0,3,4.521
6470,207.04,-6.3734,-4.5703,0.1797,0.0001,-0.0000,-1.1010,flat,18.0,3,3.956
6480,207.36,-6.1119,-5.0749,0.1797,0.0001,-0.0000,-1.0769,flat,18.0,3,3.391
6490,207.68,-5.8383,-5.5730,0.1797,0.0001,0.0000,-1.0529,flat,18.0,3,2.825
6500,208.00,-5.5527,-6.0639,0.1797,0.0001,0.0000,-1.0278,flat,18.0,3,2.259
6510,208.32,-5.2548,-6.5461,0.1797,0.0001,0.0000,-0.9996,flat,18.0,3,1.694
6520,208.64,-4.9436,-7.0166,0.1797,0.0001,0.0000,-0.9633,flat,18.0,3,1.131
6530,208.96,-4.6471,-7.4293,0.1798,0.0000,0.0005,-0.8323,flat,18.0,0,15.984
6540,209.28,-4.3561,-7.6781,0.1799,-0.0001,-0.0001,-0.5331,flat,18.0,0,15.901
6550,209.60,-3.9507,-7.8798,0.1799,0.0000,-0.0000,-0.2562,flat,18.0,0,15.708
6560,209.92,-3.4652,-7.9829,0.1799,0.0000,-0.0000,-0.0136,flat,18.0,0,15.401
6570,210.24,-2.9413,-7.9698,0.1799,0.0001,-0.0000,0.1774,flat,18.0,0,14.999
6580,210.56,-2.4117,-7.8571,0.1799,0.0002,-0.0000,0.3160,flat,18.0,0,14.531
6590,210.88,-1.8935,-7.6716,0.1798,0.0004,-0.0000,0.4159,flat,18.0,0,14.027
6600,211.20,-1.3905,-7.4354,0.1798,0.0003,-0.0000,0.4903,flat,18.0,0,13.502
6610,211.52,-0.9022,-7.1623,0.1797,0.0002,-0.0000,0.5480,flat,18.0,0,12.963
6620,211.84,-0.4273,-6.8611,0.1797,0.0002,-0.0000,0.5936,flat,18.0,0,12.415
6630,212.16,0.0354,-6.5385,0.1797,0.0001,-0.0000,0.6297,flat,18.0,0,11.862
6640,212.48,0.4882,-6.1991,0.1797,0.0001,-0.0000,0.6604,flat,18.0,0,11.304
6650,212.80,0.9321,-5.8458,0.1797,0.0001,-0.0000,0.6867,flat,18.0,0,10.743
6660,213.12,1.3677,-5.4808,0.1797,0.0001,-0.0000,0.7097,flat,18.0,0,10.179
6670,213.44,1.7961,-5.1058,0.1797,0.0001,-0.0000,0.7303,flat,18.0,0,9.614
6680,213.76,2.2177,-4.7218,0.1797,0.0001,-0.0000,0.7491,flat,18.0,0,9.046
6690,214.08,2.6327,-4.3299,0.1797,0.0001,-0.0000,0.7659,flat,18.0,0,8.478
6700,214.40,3.0418,-3.9310,0.1797,0.0001,-0.0000,0.7810,flat,18.0,0,7.908
6710,214.72,3.4453,-3.5259,0.1797,0.0000,-0.0000,0.7947,flat,18.0,0,7.338
6720,215.04,3.8436,-3.1153,0.1797,0.0000,-0.0000,0.8074,flat,18.0,0,6.767
6730,215.36,4.2370,-2.6996,0.1797,0.0000,-0.0000,0.8193,flat,18.0,0,6.195
6740,215.68,4.6256,-2.2791,0.1797,0.0000,-0.0000,0.8305,flat,18.0,0,5.623
6750,216.00,5.0098,-1.8544,0.1797,0.0000,-0.0000,0.8410,flat,18.0,0,5.051
6760,216.32,5.3897,-1.4257,0.1797,0.0000,-0.0000,0.8510,flat,18.0,0,4.479
6770,216.64,5.7654,-0.9933,0.1797,0.0000,-0.0000,0.8607,flat,18.0,0,3.906
6780,216.96,6.1369,-0.5573,0.1797,0.0000,0.0000,0.8703,flat,18.0,0,3.334
6790,217.28,6.5041,-0.1178,0.1797,0.0000,0.0000,0.8802,flat,18.0,0,2.761
6800,217.60,6.8667,0.3253,0.1797,0.0000,0.0000,0.8907,flat,18.0,0,2.188
6810,217.92,7.2242,0.7720,0.1797,0.0000,0.0000,0.9027,flat,18.0,0,1.616
6820,218.24,7.5752,1.2226,0.1797,0.0001,0.0000,0.9180,flat,18.0,0,1.045
6830,218.56,7.8760,1.6387,0.1798,-0.0002,0.0002,1.0584,flat,18.0,1,5.305
6840,218.88,8.0677,2.0452,0.1799,0.0001,0.0005,1.3464,rough,14.0,1,5.128
6850,219.20,8.1452,2.4210,0.1799,0.0001,-0.0000,1.5614,rough,14.0,1,4.920
6860,219.52,8.1354,2.9022,0.1799,-0.0000,-0.0000,1.7620,flat,18.0,1,4.601
6870,219.84,8.0127,3.4104,0.1799,0.0000,-0.0000,1.9583,flat,18.0,1,4.202
6880,220.16,7.7884,3.8949,0.1799,0.0001,-0.0000,2.1096,flat,18.0,1,3.757
6890,220.48,7.4904,4.3467,0.1799,0.0003,-0.0000,2.2269,flat,18.0,1,3.284
6900,220.80,7.1404,4.7663,0.1798,0.0004,-0.0000,2.3241,flat,18.0,1,2.798
6910,221.12,6.7499,5.1463,0.1798,0.0004,-0.0000,2.4288,flat,18.0,1,2.309
6920,221.44,6.3208,5.4849,0.1799,0.0003,-0.0000,2.5480,flat,18.0,1,1.819
6930,221.76,5.8555,5.7695,0.1799,0.0001,0.0000,2.6988,flat,18.0,1,1.335
6940,222.08,5.3622,5.9771,0.1799,0.0000,0.0000,2.9304,flat,18.0,1,0.872
6950,222.40,4.8359,6.0631,0.1798,0.0001,0.0000,3.0678,flat,18.0,2,12.620
6960,222.72,4.2758,6.0929,0.1798,0.0004,-0.0000,-3.1186,flat,18.0,2,12.098
6970,223.04,3.7126,6.0712,0.1798,0.0003,-0.0000,-3.0469,flat,18.0,2,11.560
6980,223.36,3.1505,6.0109,0.1797,0.0002,-0.0000,-2.9929,flat,18.0,2,11.011
6990,223.68,2.5908,5.9214,0.1797,0.0002,-0.0000,-2.9510,flat,18.0,2,10.456
7000,224.00,2.0345,5.8094,0.1797,0.0001,-0.0000,-2.9183,flat,18.0,2,9.897
7010,224.32,1.4809,5.6796,0.1797,0.0001,-0.0000,-2.8910,flat,18.0,2,9.335
7020,224.64,0.9300,5.5349,0.1797,0.0001,-0.0000,-2.8678,flat,18.0,2,8.770
7030,224.96,0.3818,5.3777,0.1797,0.0001,-0.0000,-2.8477,flat,18.0,2,8.204
7040,225.28,-0.1640,5.2097,0.1797,0.0001,-0.0000,-2.8303,flat,18.0,2,7.636
7050,225.60,-0.7072,5.0322,0.1797,0.0001,-0.0000,-2.8149,flat,18.0,2,7.067
7060,225.92,-1.2482,4.8465,0.1797,0.0000,-0.0000,-2.8011,flat,18.0,2,6.498
7070,226.24,-1.7870,4.6534,0.1797,0.0000,-0.0000,-2.7887,flat,18.0,2,5.927
7080,226.56,-2.3237,4.4537,0.1797,0.0000,-0.0000,-2.7774,flat,18.0,2,5.356
7090,226.88,-2.8583,4.2479,0.1797,0.0000,-0.0000,-2.7668,flat,18.0,2,4.785
7100,227.20,-3.3909,4.0365,0.1797,0.0000,-0.0000,-2.7569,flat,18.0,2,4.214
7110,227.52,-3.9215,3.8199,0.1797,0.0000,-0.0000,-2.7474,flat,18.0,2,3.642
7120,227.84,-4.4500,3.5982,0.1797,0.0000,-0.0000,-2.7380,flat,18.0,2,3.071
7130,228.16,-4.9763,3.3716,0.1797,0.0000,0.0000,-2.7284,flat,18.0,2,2.500
7140,228.48,-5.5002,3.1399,0.1797,0.0000,0.0000,-2.7179,flat,18.0,2,1.930
7150,228.80,-6.0209,2.9027,0.1797,0.0000,0.0000,-2.7056,flat,18.0,2,1.362
7160,229.12,-6.5368,2.6591,0.1797,0.0001,0.0000,-2.6881,flat,18.0,3,0.799
7170,229.44,-6.9176,2.4435,0.1799,-0.0002,0.0000,-2.4475,flat,18.0,3,10.685
7180,229.76,-7.2187,2.1384,0.1799,0.0000,-0.0001,-2.2218,flat,18.0,3,10.472
7190,230.08,-7.4900,1.7223,0.1799,0.0000,-0.0000,-2.0070,flat,18.0,3,10.157
7200,230.40,-7.6889,1.2345,0.1799,0.0000,-0.0000,-1.8154,flat,18.0,3,9.765
7210,230.72,-7.8023,0.7018,0.1799,0.0001,-0.0000,-1.6516,flat,18.0,3,9.311
7220,231.04,-7.8316,0.1480,0.1799,0.0002,-0.0000,-1.5196,flat,18.0,3,8.814
7230,231.36,-7.7915,-0.4089,0.1798,0.0004,-0.0000,-1.4240,flat,18.0,3,8.292
7240,231.68,-7.7004,-0.9624,0.1798,0.0003,-0.0000,-1.3519,flat,18.0,3,7.754
7250,232.00,-7.5707,-1.5103,0.1797,0.0002,-0.0000,-1.2950,flat,18.0,3,7.207
7260,232.32,-7.4104,-2.0519,0.1797,0.0002,-0.0000,-1.2484,flat,18.0,3,6.654
7270,232.64,-7.2256,-2.5861,0.1797,0.0001,-0.0000,-1.2115,flat,18.0,3,6.097
7280,232.96,-7.0214,-3.1143,0.1797,0.0001,-0.0000,-1.1792,flat,18.0,3,5.537
7290,233.28,-6.8001,-3.6365,0.1797,0.0001,-0.0000,-1.1503,flat,18.0,3,4.975
7300,233.60,-6.5639,-4.1528,0.1797,0.0001,-0.0000,-1.1238,flat,18.0,3,4.411
7310,233.92,-6.3139,-4.6631,0.1797,0.0001,-0.0000,-1.0989,flat,18.0,3,3.846
7320,234.24,-6.0514,-5.1672,0.1797,0.0001,-0.0000,-1.0749,flat,18.0,3,3.280
7330,234.56,-5.7767,-5.6647,0.1797,0.0001,0.0000,-1.0509,flat,18.0,3,2.714
7340,234.88,-5.4901,-6.1549,0.1797,0.0001,0.0000,-1.0255,flat,18.0,3,2.148
7350,235.20,-5.1912,-6.6361,0.1797,0.0001,0.0000,-0.9963,flat,18.0,3,1.584
7360,235.52,-4.8784,-7.1045,0.1797,0.0001,0.0000,-0.9573,flat,18.0,3,1.022
7370,235.84,-4.5995,-7.4770,0.1798,-0.0001,0.0002,-0.7743,flat,18.0,0,15.973
7380,236.16,-4.2852,-7.7212,0.1799,-0.0000,-0.0001,-0.4787,flat,18.0,0,15.871
7390,236.48,-3.8615,-7.9072,0.1799,0.0000,-0.0000,-0.2076,flat,18.0,0,15.656
7400,236.80,-3.3657,-7.9887,0.1799,0.0000,-0.0000,0.0275,flat,18.0,0,15.330
7410,237.12,-2.8388,-7.9548,0.1799,0.0001,-0.0000,0.2070,flat,18.0,0,14.912
7420,237.44,-2.3104,-7.8263,0.1799,0.0003,-0.0000,0.3375,flat,18.0,0,14.436
7430,237.76,-1.7951,-7.6299,0.1798,0.0004,-0.0000,0.4316,flat,18.0,0,13.927
7440,238.08,-1.2950,-7.3858,0.1798,0.0003,-0.0000,0.5023,flat,18.0,0,13.399
7450,238.40,-0.8092,-7.1068,0.1797,0.0002,-0.0000,0.5575,flat,18.0,0,12.858
7460,238.72,-0.3369,-6.8011,0.1797,0.0002,-0.0000,0.6010,flat,18.0,0,12.309
7470,239.04,0.1239,-6.4750,0.1797,0.0001,-0.0000,0.6360,flat,18.0,0,11.755
7480,239.36,0.5749,-6.1327,0.1797,0.0001,-0.0000,0.6657,flat,18.0,0,11.196
7490,239.68,1.0171,-5.7770,0.1797,0.0001,-0.0000,0.6914,flat,18.0,0,10.635
7500,240.00,1.4513,-5.4100,0.1797,0.0001,-0.0000,0.7138,flat,18.0,0,10.071
7510,240.32,1.8783,-5.0331,0.1797,0.0001,-0.0000,0.7341,flat,18.0,0,9.505
7520,240.64,2.2986,-4.6476,0.1797,0.0001,-0.0000,0.7525,flat,18.0,0,8.937
7530,240.96,2.7124,-4.2543,0.1797,0.0001,-0.0000,0.7690,flat,18.0,0,8.368
7540,241.28,3.1203,-3.8541,0.1797,0.0001,-0.0000,0.7838,flat,18.0,0,7.799
7550,241.60,3.5228,-3.4479,0.1797,0.0000,-0.0000,0.7973,flat,18.0,0,7.228
7560,241.92,3.9202,-3.0362,0.1797,0.0000,-0.0000,0.8098,flat,18.0,0,6.657
7570,242.24,4.3126,-2.6195,0.1797,0.0000,-0.0000,0.8216,flat,18.0,0,6.085
7580,242.56,4.7003,-2.1982,0.1797,0.0000,-0.0000,0.8327,flat,18.0,0,5.513
7590,242.88,5.0836,-1.7727,0.1797,0.0000,-0.0000,0.8431,flat,18.0,0,4.941
7600,243.20,5.4626,-1.3432,0.1797,0.0000,-0.0000,0.8530,flat,18.0,0,4.369
7610,243.52,5.8375,-0.9101,0.1797,0.0000,-0.0000,0.8626,flat,18.0,0,3.796
7620,243.84,6.2081,-0.4734,0.1797,0.0000,0.0000,0.8723,flat,18.0,0,3.223
7630,244.16,6.5744,-0.0331,0.1797,0.0000,0.0000,0.8823,flat,18.0,0,2.651
7640,244.48,6.9361,0.4107,0.1797,0.0000,0.0000,0.8930,flat,18.0,0,2.078
7650,244.80,7.2924,0.8581,0.1797,0.0000,0.0000,0.9054,flat,18.0,0,1.506
7660,245.12,7.6418,1.3096,0.1797,0.0001,0.0000,0.9217,flat,18.0,0,0.936
7670,245.44,7.9195,1.7104,0.1798,-0.0003,-0.0000,1.1194,flat,18.0,1,5.278
7680,245.76,8.0867,2.1147,0.1799,0.0001,0.0001,1.3894,rough,14.0,1,5.091
7690,246.08,8.1452,2.5154,0.1799,-0.0000,-0.0003,1.5793,flat,18.0,1,4.857
7700,246.40,8.1170,3.0217,0.1799,0.0000,-0.0000,1.8150,flat,18.0,1,4.513
7710,246.72,7.9664,3.5262,0.1799,0.0000,-0.0000,1.9988,flat,18.0,1,4.100
7720,247.04,7.7221,4.0029,0.1799,0.0002,-0.0000,2.1409,flat,18.0,1,3.646
7730,247.36,7.4094,4.4475,0.1798,0.0003,-0.0000,2.2494,flat,18.0,1,3.168
7740,247.68,7.0496,4.8581,0.1798,0.0004,-0.0000,2.3479,flat,18.0,1,2.681
7750,248.00,6.6499,5.2289,0.1798,0.0004,-0.0000,2.4549,flat,18.0,1,2.192
7760,248.32,6.2121,5.5564,0.1799,0.0003,-0.0000,2.5792,flat,18.0,1,1.702
7770,248.64,5.7391,5.8256,0.1799,0.0001,0.0000,2.7420,flat,18.0,1,1.221
7780,248.96,5.2429,6.0102,0.1799,0.0000,0.0000,3.0127,flat,18.0,2,0.768
7790,249.28,4.7037,6.0710,0.1798,0.0002,-0.0000,3.0991,flat,18.0,2,12.497
7800,249.60,4.1418,6.0842,0.1798,0.0004,-0.0000,-3.0955,flat,18.0,2,11.969
7810,249.92,3.5786,6.0501,0.1798,0.0003,-0.0000,-3.0299,flat,18.0,2,11.427
7820,250.24,3.0170,5.9809,0.1797,0.0002,-0.0000,-2.9801,flat,18.0,2,10.876
7830,250.56,2.4583,5.8845,0.1797,0.0001,-0.0000,-2.9417,flat,18.0,2,10.319
7840,250.88,1.9026,5.7675,0.1797,0.0001,-0.0000,-2.9110,flat,18.0,2,9.759
7850,251.20,1.3496,5.6337,0.1797,0.0001,-0.0000,-2.8851,flat,18.0,2,9.196
7860,251.52,0.7993,5.4858,0.1797,0.0001,-0.0000,-2.8629,flat,18.0,2,8.631
7870,251.84,0.2516,5.3260,0.1797,0.0001,-0.0000,-2.8438,flat,18.0,2,8.064
7880,252.16,-0.2937,5.1558,0.1797,0.0001,-0.0000,-2.8270,flat,18.0,2,7.496
7890,252.48,-0.8366,4.9767,0.1797,0.0001,-0.0000,-2.8122,flat,18.0,2,6.926
7900,252.80,-1.3773,4.7895,0.1797,0.0000,-0.0000,-2.7990,flat,18.0,2,6.356
7910,253.12,-1.9158,4.5953,0.1797,0.0000,-0.0000,-2.7870,flat,18.0,2,5.786
7920,253.44,-2.4522,4.3946,0.1797,0.0000,-0.0000,-2.7760,flat,18.0,2,5.215
7930,253.76,-2.9866,4.1881,0.1797,0.0000,-0.0000,-2.7657,flat,18.0,2,4.644
7940,254.08,-3.5190,3.9762,0.1797,0.0000,-0.0000,-2.7560,flat,18.0,2,4.072
7950,254.40,-4.0495,3.7591,0.1797,0.0000,-0.0000,-2.7466,flat,18.0,2,3.501
7960,254.72,-4.5779,3.5370,0.1797,0.0000,0.0000,-2.7373,flat,18.0,2,2.929
7970,255.04,-5.1040,3.3100,0.1797,0.0000,0.0000,-2.7276,flat,18.0,2,2.358
7980,255.36,-5.6276,3.0779,0.1797,0.0000,0.0000,-2.7170,flat,18.0,2,1.789
7990,255.68,-6.1478,2.8402,0.1797,0.0000,0.0000,-2.7039,flat,18.0,2,1.221
8000,256.00,-6.6518,2.6054,0.1797,0.0000,0.0003,-2.6495,flat,18.0,3,10.779
8010,256.32,-7.0066,2.3757,0.1799,-0.0000,-0.0000,-2.3970,flat,18.0,3,10.642
8020,256.64,-7.3008,2.0492,0.1799,0.0000,-0.0000,-2.1770,flat,18.0,3,10.410
8030,256.96,-7.5591,1.6167,0.1799,0.0001,-0.0000,-1.9658,flat,18.0,3,10.080
8040,257.28,-7.7405,1.1178,0.1799,0.0001,0.0000,-1.7799,flat,18.0,3,9.675
8050,257.60,-7.8357,0.5791,0.1799,0.0001,-0.0000,-1.6212,flat,18.0,3,9.211
8060,257.92,-7.8485,0.0236,0.1799,0.0003,-0.0000,-1.4957,flat,18.0,3,8.708
8070,258.24,-7.7956,-0.5328,0.1798,0.0004,-0.0000,-1.4058,flat,18.0,3,8.182
8080,258.56,-7.6947,-1.0850,0.1798,0.0003,-0.0000,-1.3371,flat,18.0,3,7.642
8090,258.88,-7.5570,-1.6313,0.1797,0.0002,-0.0000,-1.2825,flat,18.0,3,7.094
