step,time_s,x,y,z,roll,pitch,yaw,terrain,speed,target_idx,dist_to_target
10,0.32,0.1047,-0.0580,0.1846,-0.0000,-0.0337,-0.0000,rough,14.0,0,5.317
20,0.64,0.5435,-0.0717,0.1794,-0.0001,0.0022,-0.1121,flat,18.0,0,4.974
30,0.96,1.0741,-0.1528,0.1799,-0.0001,0.0000,-0.2856,flat,18.0,0,4.536
40,1.28,1.5893,-0.3237,0.1799,-0.0002,-0.0000,-0.4169,flat,18.0,0,4.062
50,1.60,2.0819,-0.5611,0.1798,-0.0004,-0.0000,-0.5221,flat,18.0,0,3.568
60,1.92,2.5513,-0.8507,0.1798,-0.0004,-0.0000,-0.6058,flat,18.0,0,3.060
70,2.24,2.9983,-1.1785,0.1798,-0.0003,-0.0000,-0.6782,flat,18.0,0,2.548
80,2.56,3.4160,-1.5383,0.1798,-0.0003,0.0000,-0.7592,flat,18.0,0,2.040
90,2.88,3.7971,-1.9309,0.1798,-0.0004,0.0000,-0.8563,flat,18.0,0,1.539
100,3.20,4.1332,-2.3575,0.1799,-0.0002,0.0000,-0.9912,flat,18.0,0,1.054
110,3.52,4.3848,-2.7932,0.1799,0.0000,0.0000,-1.2465,flat,18.0,1,7.542
120,3.84,4.5103,-3.2499,0.1799,-0.0001,0.0000,-1.5299,flat,18.0,1,7.302
130,4.16,4.5054,-3.7389,0.1799,-0.0000,-0.0001,-1.7339,flat,18.0,1,6.965
140,4.48,4.3993,-4.2475,0.1799,-0.0001,-0.0000,-1.9183,flat,18.0,1,6.556
150,4.80,4.1952,-4.7447,0.1799,-0.0002,-0.0000,-2.0611,flat,18.0,1,6.091
160,5.12,3.9209,-5.2158,0.1798,-0.0004,-0.0000,-2.1676,flat,18.0,1,5.595
170,5.44,3.5963,-5.6638,0.1798,-0.0003,-0.0000,-2.2437,flat,18.0,1,5.079
180,5.76,3.2380,-6.0880,0.1797,-0.0002,-0.0000,-2.3120,flat,18.0,1,4.553
190,6.08,2.8507,-6.4867,0.1797,-0.0002,-0.0000,-2.3778,flat,18.0,1,4.022
200,6.40,2.4372,-6.8612,0.1797,-0.0002,-0.0000,-2.4420,flat,18.0,1,3.485
210,6.72,1.9998,-7.2107,0.1797,-0.0002,-0.0000,-2.5062,flat,18.0,1,2.942
220,7.04,1.5405,-7.5329,0.1797,-0.0002,-0.0000,-2.5723,flat,18.0,1,2.397
230,7.36,1.0608,-7.8245,0.1797,-0.0003,-0.0000,-2.6440,flat,18.0,1,1.850
240,7.68,0.5624,-8.0802,0.1798,-0.0004,0.0000,-2.7289,flat,18.0,1,1.303
250,8.00,0.0480,-8.2899,0.1799,-0.0003,0.0000,-2.8494,flat,18.0,2,0.762
260,8.32,-0.4029,-8.3961,0.1799,-0.0000,-0.0000,3.1316,flat,18.0,2,5.307
270,8.64,-0.8760,-8.3661,0.1799,-0.0001,0.0000,2.8529,flat,18.0,2,5.040
280,8.96,-1.3486,-8.1955,0.1799,-0.0001,-0.0000,2.6388,flat,18.0,2,4.676
290,9.28,-1.7914,-7.9154,0.1799,-0.0001,-0.0000,2.4707,flat,18.0,2,4.248
300,9.60,-2.1932,-7.5584,0.1799,-0.0003,-0.0000,2.3449,flat,18.0,2,3.781
310,9.92,-2.5535,-7.1511,0.1799,-0.0003,-0.0000,2.2283,flat,18.0,2,3.295
320,10.24,-2.8714,-6.7020,0.1798,-0.0004,-0.0000,2.1145,flat,18.0,2,2.795
330,10.56,-3.1413,-6.2182,0.1798,-0.0004,-0.0000,2.0011,flat,18.0,2,2.285
340,10.88,-3.3578,-5.7064,0.1799,-0.0003,-0.0000,1.8835,flat,18.0,2,1.771
350,11.20,-3.5140,-5.1739,0.1799,-0.0002,-0.0000,1.7525,flat,18.0,2,1.259
360,11.52,-3.5984,-4.6306,0.1799,-0.0001,0.0000,1.5856,flat,18.0,3,0.763
370,11.84,-3.5995,-4.0717,0.1798,-0.0002,-0.0000,1.5322,flat,18.0,3,10.452
380,12.16,-3.5712,-3.5065,0.1797,-0.0002,-0.0000,1.4800,flat,18.0,3,9.898
390,12.48,-3.5146,-2.9422,0.1797,-0.0001,-0.0000,1.4395,flat,18.0,3,9.340
400,12.80,-3.4360,-2.3797,0.1797,-0.0001,-0.0000,1.4070,flat,18.0,3,8.777
410,13.12,-3.3396,-1.8189,0.1797,-0.0001,-0.0000,1.3797,flat,18.0,3,8.212
420,13.44,-3.2282,-1.2600,0.1797,-0.0001,-0.0000,1.3565,flat,18.0,3,7.645
430,13.76,-3.1040,-0.7031,0.1797,-0.0001,-0.0000,1.3364,flat,18.0,3,7.077
440,14.08,-2.9688,-0.1481,0.1797,-0.0001,-0.0000,1.3188,flat,18.0,3,6.507
450,14.40,-2.8239,0.4049,0.1797,-0.0001,-0.0000,1.3032,flat,18.0,3,5.937
460,14.72,-2.6706,0.9561,0.1797,-0.0001,-0.0000,1.2891,flat,18.0,3,5.365
470,15.04,-2.5096,1.5053,0.1797,-0.0000,-0.0000,1.2763,flat,18.0,3,4.793
480,15.36,-2.3416,2.0527,0.1797,-0.0000,-0.0000,1.2644,flat,18.0,3,4.221
490,15.68,-2.1671,2.5983,0.1797,-0.0000,-0.0000,1.2532,flat,18.0,3,3.649
500,16.00,-1.9866,3.1419,0.1797,-0.0000,-0.0000,1.2423,flat,18.0,3,3.076
510,16.32,-1.8001,3.6836,0.1797,-0.0000,0.0000,1.2315,flat,18.0,3,2.503
520,16.64,-1.6078,4.2230,0.1797,-0.0000,0.0000,1.2202,flat,18.0,3,1.930
530,16.96,-1.4094,4.7597,0.1797,-0.0000,0.0000,1.2074,flat,18.0,3,1.358
540,17.28,-1.2040,5.2926,0.1797,-0.0001,0.0000,1.1911,flat,18.0,0,0.787
550,17.60,-1.0366,5.6502,0.1798,0.0003,0.0001,0.8381,flat,18.0,0,10.479
560,17.92,-0.7831,5.8635,0.1798,0.0002,-0.0000,0.4513,flat,18.0,0,10.541
570,18.24,-0.4246,6.0100,0.1799,0.0000,-0.0001,0.0844,flat,18.0,0,10.506
580,18.56,0.0201,6.0244,0.1799,-0.0001,-0.0000,-0.2241,flat,18.0,0,10.330
590,18.88,0.4873,5.8907,0.1799,-0.0001,-0.0000,-0.4488,flat,18.0,0,10.024
600,19.20,0.9385,5.6403,0.1799,-0.0001,-0.0000,-0.6195,flat,18.0,0,9.629
610,19.52,1.3588,5.3051,0.1799,-0.0003,-0.0000,-0.7442,flat,18.0,0,9.174
620,19.84,1.7435,4.9174,0.1798,-0.0004,-0.0000,-0.8430,flat,18.0,0,8.689
630,20.16,2.0966,4.4910,0.1798,-0.0004,-0.0000,-0.9297,flat,18.0,0,8.182
640,20.48,2.4179,4.0337,0.1798,-0.0003,-0.0000,-1.0056,flat,18.0,0,7.659
650,20.80,2.7082,3.5520,0.1797,-0.0002,-0.0000,-1.0720,flat,18.0,0,7.124
660,21.12,2.9693,3.0511,0.1797,-0.0002,-0.0000,-1.1303,flat,18.0,0,6.580
670,21.44,3.2022,2.5349,0.1797,-0.0002,-0.0000,-1.1817,flat,18.0,0,6.030
680,21.76,3.4102,2.0074,0.1797,-0.0002,-0.0000,-1.2260,flat,18.0,0,5.476
690,22.08,3.5961,1.4713,0.1797,-0.0001,-0.0000,-1.2651,flat,18.0,0,4.919
700,22.40,3.7618,0.9279,0.1797,-0.0001,-0.0000,-1.3015,flat,18.0,0,4.360
710,22.72,3.9084,0.3785,0.1797,-0.0001,-0.0000,-1.3358,flat,18.0,0,3.799
720,23.04,4.0365,-0.1759,0.1797,-0.0001,-0.0000,-1.3690,flat,18.0,0,3.237
730,23.36,4.1463,-0.7343,0.1797,-0.0001,-0.0000,-1.4023,flat,18.0,0,2.674
740,23.68,4.2375,-1.2956,0.1797,-0.0001,0.0000,-1.4375,flat,18.0,0,2.111
750,24.00,4.3086,-1.8588,0.1797,-0.0001,0.0000,-1.4782,flat,18.0,0,1.549
760,24.32,4.3557,-2.4223,0.1797,-0.0002,0.0000,-1.5369,flat,18.0,0,0.992
770,24.64,4.3665,-2.9726,0.1799,-0.0001,0.0001,-1.6742,flat,18.0,1,7.399
780,24.96,4.2912,-3.4963,0.1799,-0.0001,0.0000,-1.8557,flat,18.0,1,6.973
790,25.28,4.1276,-3.9866,0.1798,-0.0001,-0.0003,-1.9685,flat,18.0,1,6.518
800,25.60,3.8994,-4.4831,0.1798,-0.0004,-0.0001,-2.0764,flat,18.0,1,6.020
810,25.92,3.6179,-4.9580,0.1798,-0.0004,-0.0000,-2.1593,flat,18.0,1,5.502
820,26.24,3.2975,-5.4140,0.1797,-0.0002,-0.0000,-2.2219,flat,18.0,1,4.971
830,26.56,2.9488,-5.8500,0.1797,-0.0002,-0.0000,-2.2804,flat,18.0,1,4.435
840,26.88,2.5744,-6.2647,0.1797,-0.0002,-0.0000,-2.3371,flat,18.0,1,3.894
850,27.20,2.1766,-6.6584,0.1797,-0.0002,-0.0000,-2.3904,flat,18.0,1,3.349
860,27.52,1.7579,-7.0302,0.1797,-0.0002,-0.0000,-2.4442,flat,18.0,1,2.802
870,27.84,1.3194,-7.3795,0.1797,-0.0002,-0.0000,-2.5011,flat,18.0,1,2.253
880,28.16,0.8618,-7.7042,0.1797,-0.0002,-0.0000,-2.5648,flat,18.0,1,1.702
890,28.48,0.3854,-7.9978,0.1798,-0.0003,0.0000,-2.6446,flat,18.0,1,1.153
900,28.80,-0.0894,-8.2325,0.1798,-0.0001,0.0004,-2.8042,flat,18.0,2,5.351
910,29.12,-0.5076,-8.3516,0.1799,0.0000,-0.0000,3.1362,flat,18.0,2,5.213
920,29.44,-0.9777,-8.3246,0.1799,0.0001,-0.0000,2.8498,rough,14.0,2,4.955
930,29.76,-1.3955,-8.1872,0.1798,-0.0001,-0.0001,2.7108,flat,18.0,2,4.650
940,30.08,-1.8458,-7.9447,0.1799,-0.0001,-0.0000,2.5181,flat,18.0,2,4.257
950,30.40,-2.2560,-7.6082,0.1799,-0.0001,-0.0000,2.3703,flat,18.0,2,3.811
960,30.72,-2.6213,-7.2111,0.1799,-0.0002,-0.0000,2.2428,flat,18.0,2,3.340
970,31.04,-2.9421,-6.7675,0.1799,-0.0003,-0.0000,2.1187,flat,18.0,2,2.851
980,31.36,-3.2117,-6.2856,0.1799,-0.0003,-0.0000,1.9961,flat,18.0,2,2.349
990,31.68,-3.4242,-5.7735,0.1799,-0.0003,-0.0000,1.8707,flat,18.0,2,1.842
1000,32.00,-3.5728,-5.2397,0.1799,-0.0002,-0.0000,1.7337,flat,18.0,2,1.335
1010,32.32,-3.6467,-4.6950,0.1799,-0.0001,0.0000,1.5657,flat,18.0,2,0.842
1020,32.64,-3.6312,-4.1368,0.1798,-0.0002,-0.0000,1.5057,flat,18.0,3,10.523
1030,32.96,-3.5887,-3.5718,0.1797,-0.0002,-0.0000,1.4613,flat,18.0,3,9.966
1040,33.28,-3.5222,-3.0081,0.1797,-0.0001,-0.0000,1.4263,flat,18.0,3,9.405
1050,33.60,-3.4364,-2.4459,0.1797,-0.0001,-0.0000,1.3971,flat,18.0,3,8.841
1060,33.92,-3.3347,-1.8854,0.1797,-0.0001,-0.0000,1.3726,flat,18.0,3,8.275
1070,34.24,-3.2194,-1.3267,0.1797,-0.0001,-0.0000,1.3515,flat,18.0,3,7.707
1080,34.56,-3.0926,-0.7699,0.1797,-0.0001,-0.0000,1.3333,flat,18.0,3,7.137
1090,34.88,-2.9558,-0.2149,0.1797,-0.0001,-0.0000,1.3172,flat,18.0,3,6.567
1100,35.20,-2.8102,0.3383,0.1797,-0.0001,-0.0000,1.3030,flat,18.0,3,5.996
1110,35.52,-2.6568,0.8898,0.1797,-0.0000,-0.0000,1.2901,flat,18.0,3,5.424
1120,35.84,-2.4964,1.4396,0.1797,-0.0000,-0.0000,1.2784,flat,18.0,3,4.851
1130,36.16,-2.3296,1.9877,0.1797,-0.0000,-0.0000,1.2675,flat,18.0,3,4.279
1140,36.48,-2.1569,2.5341,0.1797,-0.0000,-0.0000,1.2572,flat,18.0,3,3.706
1150,36.80,-1.9786,3.0787,0.1797,-0.0000,-0.0000,1.2473,flat,18.0,3,3.133
1160,37.12,-1.7949,3.6216,0.1797,-0.0000,0.0000,1.2374,flat,18.0,3,2.560
1170,37.44,-1.6058,4.1625,0.1797,-0.0000,0.0000,1.2271,flat,18.0,3,1.987
1180,37.76,-1.4112,4.7010,0.1797,-0.0000,0.0000,1.2156,flat,18.0,3,1.414
1190,38.08,-1.2103,5.2362,0.1797,-0.0000,0.0000,1.2011,flat,18.0,3,0.843
1200,38.40,-1.0451,5.6234,0.1798,0.0003,0.0001,0.8871,flat,18.0,0,10.460
1210,38.72,-0.8024,5.8456,0.1798,0.0002,-0.0000,0.4980,flat,18.0,0,10.534
1220,39.04,-0.4587,6.0028,0.1799,0.0001,-0.0001,0.1274,flat,18.0,0,10.515
1230,39.36,-0.0212,6.0361,0.1799,-0.0000,-0.0000,-0.1933,flat,18.0,0,10.357
1240,39.68,0.4455,5.9189,0.1799,-0.0000,-0.0000,-0.4275,flat,18.0,0,10.066
1250,40.00,0.8993,5.6803,0.1799,-0.0001,-0.0000,-0.6023,flat,18.0,0,9.680
1260,40.32,1.3233,5.3532,0.1799,-0.0002,-0.0000,-0.7324,flat,18.0,0,9.231
1270,40.64,1.7119,4.9703,0.1798,-0.0004,-0.0000,-0.8329,flat,18.0,0,8.748
1280,40.96,2.0682,4.5477,0.1798,-0.0004,-0.0000,-0.9212,flat,18.0,0,8.244
1290,41.28,2.3927,4.0934,0.1798,-0.0003,-0.0000,-0.9984,flat,18.0,0,7.723
1300,41.60,2.6861,3.6139,0.1797,-0.0002,-0.0000,-1.0660,flat,18.0,0,7.189
1310,41.92,2.9498,3.1146,0.1797,-0.0002,-0.0000,-1.1252,flat,18.0,0,6.647
1320,42.24,3.1852,2.5997,0.1797,-0.0002,-0.0000,-1.1775,flat,18.0,0,6.097
1330,42.56,3.3951,2.0729,0.1797,-0.0002,-0.0000,-1.2227,flat,18.0,0,5.543
1340,42.88,3.5826,1.5376,0.1797,-0.0001,-0.0000,-1.2623,flat,18.0,0,4.987
1350,43.20,3.7498,0.9947,0.1797,-0.0001,-0.0000,-1.2990,flat,18.0,0,4.428
1360,43.52,3.8977,0.4456,0.1797,-0.0001,-0.0000,-1.3335,flat,18.0,0,3.867
1370,43.84,4.0270,-0.1084,0.1797,-0.0001,-0.0000,-1.3668,flat,18.0,0,3.305
1380,44.16,4.1382,-0.6666,0.1797,-0.0001,-0.0000,-1.4000,flat,18.0,0,2.742
1390,44.48,4.2307,-1.2278,0.1797,-0.0001,0.0000,-1.4348,flat,18.0,0,2.179
1400,44.80,4.3034,-1.7909,0.1797,-0.0001,0.0000,-1.4744,flat,18.0,0,1.617
1410,45.12,4.3528,-2.3546,0.1797,-0.0002,0.0000,-1.5293,flat,18.0,0,1.059
1420,45.44,4.3686,-2.9084,0.1798,-0.0001,0.0001,-1.6531,flat,18.0,1,7.447
1430,45.76,4.3050,-3.4333,0.1799,-0.0001,-0.0000,-1.8385,flat,18.0,1,7.027
1440,46.08,4.1537,-3.9166,0.1798,-0.0001,-0.0003,-1.9512,flat,18.0,1,6.585
1450,46.40,3.9351,-4.4134,0.1799,-0.0003,-0.0001,-2.0604,flat,18.0,1,6.092
1460,46.72,3.6615,-4.8916,0.1798,-0.0004,-0.0000,-2.1475,flat,18.0,1,5.577
1470,47.04,3.3464,-5.3506,0.1797,-0.0002,-0.0000,-2.2123,flat,18.0,1,5.048
1480,47.36,3.0020,-5.7899,0.1797,-0.0002,-0.0000,-2.2713,flat,18.0,1,4.513
1490,47.68,2.6316,-6.2079,0.1797,-0.0002,-0.0000,-2.3287,flat,18.0,1,3.972
1500,48.00,2.2371,-6.6047,0.1797,-0.0002,-0.0000,-2.3825,flat,18.0,1,3.428
1510,48.32,1.8215,-6.9796,0.1797,-0.0002,-0.0000,-2.4363,flat,18.0,1,2.882
1520,48.64,1.3858,-7.3323,0.1797,-0.0002,-0.0000,-2.4928,flat,18.0,1,2.333
1530,48.96,0.9308,-7.6606,0.1797,-0.0002,-0.0000,-2.5554,flat,18.0,1,1.783
1540,49.28,0.4570,-7.9591,0.1798,-0.0003,0.0000,-2.6321,flat,18.0,1,1.233
1550,49.60,-0.0250,-8.2078,0.1798,-0.0002,0.0004,-2.7709,flat,18.0,2,5.370
1560,49.92,-0.4384,-8.3379,0.1799,0.0000,-0.0000,-3.1045,flat,18.0,2,5.239
1570,50.24,-0.9055,-8.3299,0.1799,-0.0001,-0.0000,2.8846,flat,18.0,2,4.994
1580,50.56,-1.3487,-8.1919,0.1798,-0.0001,-0.0001,2.7091,flat,18.0,2,4.673
1590,50.88,-1.8002,-7.9481,0.1799,-0.0001,-0.0000,2.5191,flat,18.0,2,4.276
1600,51.20,-2.2118,-7.6119,0.1799,-0.0002,-0.0000,2.3737,flat,18.0,2,3.827
1610,51.52,-2.5792,-7.2161,0.1799,-0.0003,-0.0000,2.2487,flat,18.0,2,3.353
1620,51.84,-2.9029,-6.7744,0.1799,-0.0003,-0.0000,2.1269,flat,18.0,2,2.862
1630,52.16,-3.1766,-6.2946,0.1799,-0.0003,-0.0000,2.0065,flat,18.0,2,2.360
1640,52.48,-3.3945,-5.7846,0.1799,-0.0003,-0.0000,1.8831,flat,18.0,2,1.851
1650,52.80,-3.5498,-5.2524,0.1799,-0.0002,-0.0000,1.7483,flat,18.0,2,1.342
1660,53.12,-3.6318,-4.7085,0.1799,-0.0001,0.0000,1.5829,flat,18.0,2,0.847
1670,53.44,-3.6250,-4.1507,0.1798,-0.0002,-0.0000,1.5188,flat,18.0,3,10.535
1680,53.76,-3.5894,-3.5854,0.1797,-0.0002,-0.0000,1.4706,flat,18.0,3,9.979
1690,54.08,-3.5279,-3.0217,0.1797,-0.0001,-0.0000,1.4334,flat,18.0,3,9.420
1700,54.40,-3.4460,-2.4593,0.1797,-0.0001,-0.0000,1.4026,flat,18.0,3,8.857
1710,54.72,-3.3472,-1.8985,0.1797,-0.0001,-0.0000,1.3767,flat,18.0,3,8.291
1720,55.04,-3.2342,-1.3397,0.1797,-0.0001,-0.0000,1.3545,flat,18.0,3,7.723
1730,55.36,-3.1090,-0.7827,0.1797,-0.0001,-0.0000,1.3354,flat,18.0,3,7.154
1740,55.68,-2.9733,-0.2276,0.1797,-0.0001,-0.0000,1.3186,flat,18.0,3,6.584
1750,56.00,-2.8284,0.3256,0.1797,-0.0001,-0.0000,1.3037,flat,18.0,3,6.013
1760,56.32,-2.6754,0.8770,0.1797,-0.0000,-0.0000,1.2903,flat,18.0,3,5.442
1770,56.64,-2.5150,1.4267,0.1797,-0.0000,-0.0000,1.2780,flat,18.0,3,4.870
1780,56.96,-2.3480,1.9745,0.1797,-0.0000,-0.0000,1.2667,flat,18.0,3,4.297
1790,57.28,-2.1749,2.5207,0.1797,-0.0000,-0.0000,1.2561,flat,18.0,3,3.724
1800,57.60,-1.9959,3.0650,0.1797,-0.0000,-0.0000,1.2458,flat,18.0,3,3.151
1810,57.92,-1.8113,3.6075,0.1797,-0.0000,0.0000,1.2355,flat,18.0,3,2.578
1820,58.24,-1.6212,4.1479,0.1797,-0.0000,0.0000,1.2249,flat,18.0,3,2.006
1830,58.56,-1.4253,4.6859,0.1797,-0.0000,0.0000,1.2130,flat,18.0,3,1.433
1840,58.88,-1.2231,5.2204,0.1797,-0.0001,0.0000,1.1981,flat,18.0,3,0.862
1850,59.20,-1.0546,5.6318,0.1798,0.0003,0.0001,0.9206,flat,18.0,0,10.472
1860,59.52,-0.8194,5.8610,0.1798,0.0002,-0.0000,0.5301,flat,18.0,0,10.556
1870,59.84,-0.4859,6.0249,0.1799,0.0001,-0.0001,0.1570,flat,18.0,0,10.547
1880,60.16,-0.0541,6.0706,0.1799,-0.0001,-0.0000,-0.1700,flat,18.0,0,10.402
1890,60.48,0.4120,5.9647,0.1799,-0.0001,-0.0000,-0.4091,flat,18.0,0,10.121
1900,60.80,0.8676,5.7349,0.1799,-0.0001,-0.0000,-0.5898,flat,18.0,0,9.742
1910,61.12,1.2940,5.4137,0.1799,-0.0002,-0.0000,-0.7242,flat,18.0,0,9.297
1920,61.44,1.6851,5.0342,0.1798,-0.0004,-0.0000,-0.8261,flat,18.0,0,8.817
1930,61.76,2.0436,4.6142,0.1798,-0.0004,-0.0000,-0.9155,flat,18.0,0,8.315
1940,62.08,2.3703,4.1618,0.1798,-0.0003,-0.0000,-0.9937,flat,18.0,0,7.795
1950,62.40,2.6656,3.6838,0.1797,-0.0003,-0.0000,-1.0620,flat,18.0,0,7.262
1960,62.72,2.9311,3.1857,0.1797,-0.0002,-0.0000,-1.1219,flat,18.0,0,6.720
1970,63.04,3.1681,2.6716,0.1797,-0.0002,-0.0000,-1.1747,flat,18.0,0,6.171
1980,63.36,3.3794,2.1453,0.1797,-0.0002,-0.0000,-1.2205,flat,18.0,0,5.617
1990,63.68,3.5680,1.6105,0.1797,-0.0001,-0.0000,-1.2603,flat,18.0,0,5.061
2000,64.00,3.7363,1.0679,0.1797,-0.0001,-0.0000,-1.2970,flat,18.0,0,4.502
2010,64.32,3.8852,0.5192,0.1797,-0.0001,-0.0000,-1.3315,flat,18.0,0,3.941
2020,64.64,4.0156,-0.0347,0.1797,-0.0001,-0.0000,-1.3647,flat,18.0,0,3.379
2030,64.96,4.1279,-0.5926,0.1797,-0.0001,-0.0000,-1.3977,flat,18.0,0,2.816
2040,65.28,4.2218,-1.1537,0.1797,-0.0001,0.0000,-1.4319,flat,18.0,0,2.253
2050,65.60,4.2962,-1.7169,0.1797,-0.0001,0.0000,-1.4704,flat,18.0,0,1.691
2060,65.92,4.3481,-2.2808,0.1797,-0.0002,0.0000,-1.5216,flat,18.0,0,1.131
2070,66.24,4.3691,-2.8376,0.1798,-0.0001,0.0000,-1.6315,flat,18.0,1,7.499
2080,66.56,4.3180,-3.3644,0.1799,-0.0001,-0.0000,-1.8186,flat,18.0,1,7.084
2090,66.88,4.1665,-3.8822,0.1799,-0.0002,-0.0000,-1.9632,flat,18.0,1,6.617
2100,67.20,3.9411,-4.3804,0.1798,-0.0004,-0.0000,-2.0703,flat,18.0,1,6.118
2110,67.52,3.6627,-4.8572,0.1798,-0.0004,-0.0000,-2.1529,flat,18.0,1,5.600
2120,67.84,3.3452,-5.3154,0.1797,-0.0002,-0.0000,-2.2151,flat,18.0,1,5.068
2130,68.16,2.9995,-5.7544,0.1797,-0.0002,-0.0000,-2.2723,flat,18.0,1,4.531
2140,68.48,2.6286,-6.1727,0.1797,-0.0002,-0.0000,-2.3278,flat,18.0,1,3.989
2150,68.80,2.2344,-6.5706,0.1797,-0.0002,-0.0000,-2.3799,flat,18.0,1,3.444
2160,69.12,1.8199,-6.9471,0.1797,-0.0002,0.0000,-2.4315,flat,18.0,1,2.896
2170,69.44,1.3875,-7.3019,0.1797,-0.0002,-0.0000,-2.4840,flat,18.0,1,2.348
2180,69.76,0.9354,-7.6342,0.1797,-0.0002,-0.0000,-2.5452,flat,18.0,1,1.797
2190,70.08,0.4645,-7.9375,0.1798,-0.0003,0.0000,-2.6202,flat,18.0,1,1.248
2200,70.40,-0.0215,-8.1978,0.1798,-0.0003,0.0003,-2.7457,flat,18.0,2,5.365
2210,70.72,-0.4319,-8.3377,0.1799,0.0001,-0.0000,-3.0745,flat,18.0,2,5.242
2220,71.04,-0.8940,-8.3442,0.1799,0.0000,-0.0000,2.9016,flat,18.0,2,5.012
2230,71.36,-1.3666,-8.2004,0.1799,-0.0000,-0.0000,2.6724,flat,18.0,2,4.673
2240,71.68,-1.8136,-7.9381,0.1799,-0.0001,-0.0000,2.4935,flat,18.0,2,4.262
2250,72.00,-2.2194,-7.5909,0.1799,-0.0002,-0.0000,2.3570,flat,18.0,2,3.805
2260,72.32,-2.5822,-7.1884,0.1799,-0.0003,-0.0000,2.2354,flat,18.0,2,3.326
2270,72.64,-2.9016,-6.7420,0.1799,-0.0003,-0.0000,2.1169,flat,18.0,2,2.830
2280,72.96,-3.1716,-6.2591,0.1799,-0.0003,-0.0000,1.9994,flat,18.0,2,2.325
2290,73.28,-3.3865,-5.7473,0.1799,-0.0003,-0.0000,1.8784,flat,18.0,2,1.813
2300,73.60,-3.5397,-5.2143,0.1799,-0.0002,-0.0000,1.7451,flat,18.0,2,1.303
2310,73.92,-3.6201,-4.6702,0.1799,-0.0001,0.0000,1.5789,flat,18.0,2,0.808
2320,74.24,-3.6109,-4.1124,0.1798,-0.0002,-0.0000,1.5155,flat,18.0,3,10.494
2330,74.56,-3.5750,-3.5734,0.1797,-0.0001,-0.0001,1.4843,flat,18.0,3,9.964
2340,74.88,-3.5202,-3.0090,0.1797,-0.0001,-0.0000,1.4425,flat,18.0,3,9.405
2350,75.20,-3.4433,-2.4464,0.1797,-0.0001,-0.0000,1.4096,flat,18.0,3,8.843
2360,75.52,-3.3483,-1.8854,0.1797,-0.0001,-0.0000,1.3821,flat,18.0,3,8.279
2370,75.84,-3.2381,-1.3263,0.1797,-0.0001,-0.0000,1.3586,flat,18.0,3,7.712
2380,76.16,-3.1151,-0.7691,0.1797,-0.0001,-0.0000,1.3384,flat,18.0,3,7.143
2390,76.48,-2.9811,-0.2138,0.1797,-0.0001,-0.0000,1.3207,flat,18.0,3,6.574
2400,76.80,-2.8373,0.3394,0.1797,-0.0001,-0.0000,1.3050,flat,18.0,3,6.003
2410,77.12,-2.6849,0.8908,0.1797,-0.0001,-0.0000,1.2909,flat,18.0,3,5.432
2420,77.44,-2.5249,1.4404,0.1797,-0.0000,-0.0000,1.2780,flat,18.0,3,4.860
2430,77.76,-2.3578,1.9881,0.1797,-0.0000,-0.0000,1.2662,flat,18.0,3,4.287
2440,78.08,-2.1843,2.5340,0.1797,-0.0000,-0.0000,1.2550,flat,18.0,3,3.715
2450,78.40,-2.0047,3.0780,0.1797,-0.0000,-0.0000,1.2442,flat,18.0,3,3.142
2460,78.72,-1.8193,3.6200,0.1797,-0.0000,0.0000,1.2334,flat,18.0,3,2.569
2470,79.04,-1.6280,4.1598,0.1797,-0.0000,0.0000,1.2223,flat,18.0,3,1.997
2480,79.36,-1.4307,4.6971,0.1797,-0.0000,0.0000,1.2098,flat,18.0,3,1.424
2490,79.68,-1.2267,5.2307,0.1797,-0.0001,0.0000,1.1942,flat,18.0,3,0.853
2500,80.00,-1.0590,5.6159,0.1798,0.0003,0.0001,0.8793,flat,18.0,0,10.461
2510,80.32,-0.8147,5.8365,0.1798,0.0002,-0.0000,0.4909,flat,18.0,0,10.532
2520,80.64,-0.4684,5.9924,0.1799,0.0000,-0.0001,0.1213,flat,18.0,0,10.510
2530,80.96,-0.0294,6.0232,0.1799,0.0000,-0.0000,-0.1980,flat,18.0,0,10.349
2540,81.28,0.4379,5.9036,0.1799,-0.0000,-0.0000,-0.4302,flat,18.0,0,10.055
2550,81.60,0.8917,5.6637,0.1799,-0.0001,-0.0000,-0.6038,flat,18.0,0,9.667
2560,81.92,1.3155,5.3358,0.1799,-0.0002,-0.0000,-0.7330,flat,18.0,0,9.217
2570,82.24,1.7040,4.9526,0.1798,-0.0004,-0.0000,-0.8331,flat,18.0,0,8.734
2580,82.56,2.0604,4.5300,0.1798,-0.0004,-0.0000,-0.9210,flat,18.0,0,8.229
2590,82.88,2.3851,4.0757,0.1798,-0.0003,-0.0000,-0.9979,flat,18.0,0,7.707
2600,83.20,2.6788,3.5964,0.1797,-0.0002,-0.0000,-1.0652,flat,18.0,0,7.174
2610,83.52,2.9430,3.0973,0.1797,-0.0002,-0.0000,-1.1242,flat,18.0,0,6.631
2620,83.84,3.1788,2.5826,0.1797,-0.0002,-0.0000,-1.1763,flat,18.0,0,6.081
2630,84.16,3.3894,2.0561,0.1797,-0.0002,-0.0000,-1.2214,flat,18.0,0,5.528
2640,84.48,3.5776,1.5210,0.1797,-0.0001,-0.0000,-1.2609,flat,18.0,0,4.971
2650,84.80,3.7456,0.9784,0.1797,-0.0001,-0.0000,-1.2975,flat,18.0,0,4.412
2660,85.12,3.8942,0.4295,0.1797,-0.0001,-0.0000,-1.3320,flat,18.0,0,3.851
2670,85.44,4.0244,-0.1243,0.1797,-0.0001,-0.0000,-1.3654,flat,18.0,0,3.289
2680,85.76,4.1362,-0.6823,0.1797,-0.0001,-0.0000,-1.3987,flat,18.0,0,2.726
2690,86.08,4.2295,-1.2434,0.1797,-0.0001,0.0000,-1.4336,flat,18.0,0,2.163
2700,86.40,4.3027,-1.8064,0.1797,-0.0001,0.0000,-1.4736,flat,18.0,0,1.602
2710,86.72,4.3526,-2.3699,0.1797,-0.0002,0.0000,-1.5296,flat,18.0,0,1.043
2720,87.04,4.3682,-2.9231,0.1798,-0.0001,0.0001,-1.6556,flat,18.0,1,7.436
2730,87.36,4.3031,-3.4478,0.1799,-0.0001,-0.0000,-1.8410,flat,18.0,1,7.015
2740,87.68,4.1462,-3.9398,0.1798,-0.0000,-0.0003,-1.9571,flat,18.0,1,6.563
2750,88.00,3.9236,-4.4379,0.1798,-0.0004,-0.0001,-2.0674,flat,18.0,1,6.068
2760,88.32,3.6465,-4.9146,0.1798,-0.0004,-0.0000,-2.1526,flat,18.0,1,5.551
2770,88.64,3.3291,-5.3724,0.1797,-0.0002,-0.0000,-2.2163,flat,18.0,1,5.021
2780,88.96,2.9829,-5.8103,0.1797,-0.0002,-0.0000,-2.2750,flat,18.0,1,4.485
2790,89.28,2.6109,-6.2270,0.1797,-0.0002,-0.0000,-2.3320,flat,18.0,1,3.945
2800,89.60,2.2151,-6.6227,0.1797,-0.0002,-0.0000,-2.3855,flat,18.0,1,3.400
2810,89.92,1.7983,-6.9965,0.1797,-0.0002,-0.0000,-2.4392,flat,18.0,1,2.853
2820,90.24,1.3615,-7.3480,0.1797,-0.0002,-0.0000,-2.4956,flat,18.0,1,2.304
2830,90.56,0.9057,-7.6751,0.1797,-0.0002,-0.0000,-2.5585,flat,18.0,1,1.754
2840,90.88,0.4310,-7.9720,0.1798,-0.0003,0.0000,-2.6361,flat,18.0,1,1.205
2850,91.20,-0.0516,-8.2185,0.1798,-0.0002,0.0004,-2.7776,flat,18.0,2,5.363
2860,91.52,-0.4659,-8.3464,0.1799,0.0000,-0.0000,-3.1130,flat,18.0,2,5.231
2870,91.84,-0.9329,-8.3344,0.1799,-0.0001,0.0000,2.8769,rough,14.0,2,4.985
2880,92.16,-1.3438,-8.2124,0.1798,-0.0000,-0.0002,2.7467,flat,18.0,2,4.694
2890,92.48,-1.7985,-7.9883,0.1799,-0.0001,-0.0000,2.5456,flat,18.0,2,4.314
2900,92.80,-2.2148,-7.6644,0.1799,-0.0001,-0.0000,2.3885,flat,18.0,2,3.877
2910,93.12,-2.5859,-7.2745,0.1799,-0.0002,-0.0000,2.2593,flat,18.0,2,3.409
2920,93.44,-2.9127,-6.8366,0.1799,-0.0003,-0.0000,2.1339,flat,18.0,2,2.923
2930,93.76,-3.1887,-6.3591,0.1799,-0.0003,-0.0000,2.0105,flat,18.0,2,2.424
2940,94.08,-3.4081,-5.8501,0.1799,-0.0003,-0.0000,1.8851,flat,18.0,2,1.917
2950,94.40,-3.5643,-5.3183,0.1799,-0.0002,-0.0000,1.7500,flat,18.0,2,1.410
2960,94.72,-3.6473,-4.7740,0.1799,-0.0001,0.0000,1.5881,flat,18.0,2,0.913
2970,95.04,-3.6383,-4.2200,0.1798,-0.0001,-0.0001,1.5050,flat,18.0,3,10.605
2980,95.36,-3.5955,-3.6549,0.1797,-0.0002,-0.0000,1.4610,flat,18.0,3,10.048
2990,95.68,-3.5288,-3.0912,0.1797,-0.0001,-0.0000,1.4264,flat,18.0,3,9.487
3000,96.00,-3.4432,-2.5288,0.1797,-0.0001,-0.0000,1.3977,flat,18.0,3,8.923
3010,96.32,-3.3417,-1.9682,0.1797,-0.0001,-0.0000,1.3734,flat,18.0,3,8.356
3020,96.64,-3.2270,-1.4093,0.1797,-0.0001,-0.0000,1.3527,flat,18.0,3,7.788
3030,96.96,-3.1008,-0.8522,0.1797,-0.0001,-0.0000,1.3347,flat,18.0,3,7.218
3040,97.28,-2.9648,-0.2970,0.1797,-0.0001,-0.0000,1.3188,flat,18.0,3,6.648
3050,97.60,-2.8202,0.2566,0.1797,-0.0001,-0.0000,1.3048,flat,18.0,3,6.076
3060,97.92,-2.6678,0.8084,0.1797,-0.0000,-0.0000,1.2921,flat,18.0,3,5.505
3070,98.24,-2.5085,1.3585,0.1797,-0.0000,-0.0000,1.2806,flat,18.0,3,4.932
3080,98.56,-2.3430,1.9071,0.1797,-0.0000,-0.0000,1.2700,flat,18.0,3,4.359
3090,98.88,-2.1716,2.4540,0.1797,-0.0000,-0.0000,1.2599,flat,18.0,3,3.786
3100,99.20,-1.9948,2.9992,0.1797,-0.0000,-0.0000,1.2502,flat,18.0,3,3.213
3110,99.52,-1.8127,3.5427,0.1797,-0.0000,0.0000,1.2406,flat,18.0,3,2.640
3120,99.84,-1.6254,4.0844,0.1797,-0.0000,0.0000,1.2307,flat,18.0,3,2.067
3130,100.16,-1.4327,4.6237,0.1797,-0.0000,0.0000,1.2197,flat,18.0,3,1.494
3140,100.48,-1.2341,5.1601,0.1797,-0.0000,0.0000,1.2062,flat,18.0,3,0.923
3150,100.80,-1.0658,5.5973,0.1798,0.0003,0.0002,0.9671,flat,18.0,0,10.448
3160,101.12,-0.8414,5.8373,0.1798,0.0003,-0.0000,0.5759,flat,18.0,0,10.546
3170,101.44,-0.5216,6.0102,0.1799,0.0001,-0.0001,0.1997,flat,18.0,0,10.550
3180,101.76,-0.0984,6.0734,0.1799,-0.0000,-0.0000,-0.1373,flat,18.0,0,10.423
3190,102.08,0.3665,5.9846,0.1799,0.0000,-0.0000,-0.3870,flat,18.0,0,10.157
3200,102.40,0.8243,5.7672,0.1799,-0.0001,-0.0000,-0.5720,flat,18.0,0,9.787
3210,102.72,1.2542,5.4549,0.1799,-0.0002,-0.0000,-0.7121,flat,18.0,0,9.349
3220,103.04,1.6494,5.0804,0.1798,-0.0003,-0.0000,-0.8155,flat,18.0,0,8.872
3230,103.36,2.0113,4.6645,0.1798,-0.0004,-0.0000,-0.9064,flat,18.0,0,8.372
3240,103.68,2.3413,4.2154,0.1798,-0.0003,-0.0000,-0.9859,flat,18.0,0,7.853
3250,104.00,2.6399,3.7398,0.1797,-0.0003,-0.0000,-1.0553,flat,18.0,0,7.322
3260,104.32,2.9084,3.2435,0.1797,-0.0002,-0.0000,-1.1162,flat,18.0,0,6.781
3270,104.64,3.1481,2.7309,0.1797,-0.0002,-0.0000,-1.1698,flat,18.0,0,6.233
3280,104.96,3.3619,2.2056,0.1797,-0.0002,0.0000,-1.2166,flat,18.0,0,5.680
3290,105.28,3.5524,1.6715,0.1797,-0.0001,-0.0000,-1.2568,flat,18.0,0,5.124
3300,105.60,3.7224,1.1296,0.1797,-0.0001,-0.0000,-1.2939,flat,18.0,0,4.565
3310,105.92,3.8730,0.5814,0.1797,-0.0001,-0.0000,-1.3287,flat,18.0,0,4.004
3320,106.24,4.0050,0.0279,0.1797,-0.0001,-0.0000,-1.3620,flat,18.0,0,3.442
3330,106.56,4.1188,-0.5297,0.1797,-0.0001,-0.0000,-1.3949,flat,18.0,0,2.879
3340,106.88,4.2142,-1.0906,0.1797,-0.0001,0.0000,-1.4289,flat,18.0,0,2.316
3350,107.20,4.2904,-1.6537,0.1797,-0.0001,0.0000,-1.4667,flat,18.0,0,1.754
3360,107.52,4.3445,-2.2176,0.1797,-0.0002,0.0000,-1.5157,flat,18.0,0,1.194
3370,107.84,4.3696,-2.7770,0.1798,-0.0002,0.0000,-1.6115,flat,18.0,1,7.544
3380,108.16,4.3307,-3.3068,0.1799,-0.0001,0.0000,-1.7957,flat,18.0,1,7.134
3390,108.48,4.1908,-3.8264,0.1799,-0.0001,-0.0000,-1.9475,flat,18.0,1,6.673
3400,108.80,3.9733,-4.3272,0.1798,-0.0004,-0.0000,-2.0586,flat,18.0,1,6.177
3410,109.12,3.7005,-4.8064,0.1798,-0.0004,-0.0000,-2.1444,flat,18.0,1,5.661
3420,109.44,3.3869,-5.2667,0.1797,-0.0002,-0.0000,-2.2084,flat,18.0,1,5.131
3430,109.76,3.0442,-5.7079,0.1797,-0.0002,-0.0000,-2.2660,flat,18.0,1,4.594
3440,110.08,2.6761,-6.1285,0.1797,-0.0002,-0.0000,-2.3219,flat,18.0,1,4.053
3450,110.40,2.2843,-6.5285,0.1797,-0.0002,-0.0000,-2.3745,flat,18.0,1,3.508
3460,110.72,1.8718,-6.9073,0.1797,-0.0002,0.0000,-2.4263,flat,18.0,1,2.961
3470,111.04,1.4412,-7.2641,0.1797,-0.0002,-0.0000,-2.4783,flat,18.0,1,2.413
3480,111.36,0.9911,-7.5989,0.1797,-0.0002,-0.0000,-2.5387,flat,18.0,1,1.862
3490,111.68,0.5221,-7.9056,0.1797,-0.0003,0.0000,-2.6116,flat,18.0,1,1.313
3500,112.00,0.0349,-8.1734,0.1798,-0.0004,0.0000,-2.7167,flat,18.0,2,0.768
3510,112.32,-0.3791,-8.3257,0.1799,0.0001,-0.0000,-3.0377,flat,18.0,2,5.261
3520,112.64,-0.8369,-8.3485,0.1799,-0.0001,-0.0000,2.9327,flat,18.0,2,5.043
3530,112.96,-1.2895,-8.2270,0.1799,-0.0001,-0.0001,2.7343,flat,18.0,2,4.730
3540,113.28,-1.7447,-7.9963,0.1799,-0.0001,-0.0000,2.5395,flat,18.0,2,4.340
3550,113.60,-2.1615,-7.6692,0.1799,-0.0001,-0.0000,2.3890,flat,18.0,2,3.896
3560,113.92,-2.5340,-7.2793,0.1799,-0.0003,-0.0000,2.2635,flat,18.0,2,3.425
3570,114.24,-2.8633,-6.8427,0.1799,-0.0003,-0.0000,2.1416,flat,18.0,2,2.935
3580,114.56,-3.1435,-6.3671,0.1799,-0.0003,-0.0000,2.0215,flat,18.0,2,2.434
3590,114.88,-3.3687,-5.8603,0.1799,-0.0003,-0.0000,1.8992,flat,18.0,2,1.925
3600,115.20,-3.5325,-5.3304,0.1799,-0.0002,-0.0000,1.7673,flat,18.0,2,1.416
3610,115.52,-3.6252,-4.7871,0.1799,-0.0001,0.0000,1.6088,flat,18.0,2,0.917
3620,115.84,-3.6250,-4.2330,0.1798,-0.0002,-0.0001,1.5196,flat,18.0,3,10.614
3630,116.16,-3.5900,-3.6678,0.1797,-0.0002,-0.0000,1.4718,flat,18.0,3,10.059
3640,116.48,-3.5292,-3.1039,0.1797,-0.0001,-0.0000,1.4348,flat,18.0,3,9.499
3650,116.80,-3.4481,-2.5413,0.1797,-0.0001,-0.0000,1.4042,flat,18.0,3,8.936
3660,117.12,-3.3502,-1.9803,0.1797,-0.0001,-0.0000,1.3785,flat,18.0,3,8.370
3670,117.44,-3.2382,-1.4212,0.1797,-0.0001,-0.0000,1.3565,flat,18.0,3,7.802
3680,117.76,-3.1141,-0.8639,0.1797,-0.0001,-0.0000,1.3375,flat,18.0,3,7.233
3690,118.08,-2.9796,-0.3085,0.1797,-0.0001,-0.0000,1.3209,flat,18.0,3,6.663
3700,118.40,-2.8360,0.2451,0.1797,-0.0001,-0.0000,1.3061,flat,18.0,3,6.092
3710,118.72,-2.6843,0.7969,0.1797,-0.0000,-0.0000,1.2928,flat,18.0,3,5.521
3720,119.04,-2.5254,1.3470,0.1797,-0.0000,-0.0000,1.2808,flat,18.0,3,4.948
3730,119.36,-2.3599,1.8954,0.1797,-0.0000,-0.0000,1.2696,flat,18.0,3,4.376
3740,119.68,-2.1883,2.4421,0.1797,-0.0000,-0.0000,1.2591,flat,18.0,3,3.803
3750,120.00,-2.0111,2.9871,0.1797,-0.0000,-0.0000,1.2490,flat,18.0,3,3.230
3760,120.32,-1.8283,3.5303,0.1797,-0.0000,-0.0000,1.2390,flat,18.0,3,2.657
3770,120.64,-1.6401,4.0715,0.1797,-0.0000,0.0000,1.2287,flat,18.0,3,2.084
3780,120.96,-1.4463,4.6103,0.1797,-0.0000,0.0000,1.2173,flat,18.0,3,1.511
3790,121.28,-1.2463,5.1461,0.1797,-0.0000,0.0000,1.2034,flat,18.0,3,0.940
3800,121.60,-1.0770,5.5825,0.1798,0.0003,0.0002,0.9640,flat,18.0,0,10.441
3810,121.92,-0.8519,5.8218,0.1798,0.0003,-0.0000,0.5732,flat,18.0,0,10.537
3820,122.24,-0.5310,5.9943,0.1799,0.0001,-0.0001,0.1975,flat,18.0,0,10.540
3830,122.56,-0.1069,6.0567,0.1799,-0.0000,-0.0000,-0.1387,flat,18.0,0,10.412
3840,122.88,0.3583,5.9672,0.1799,0.0000,-0.0000,-0.3879,flat,18.0,0,10.144
3850,123.20,0.8163,5.7493,0.1799,-0.0001,-0.0000,-0.5722,flat,18.0,0,9.773
3860,123.52,1.2464,5.4369,0.1799,-0.0002,-0.0000,-0.7118,flat,18.0,0,9.335
3870,123.84,1.6418,5.0625,0.1798,-0.0004,-0.0000,-0.8149,flat,18.0,0,8.857
3880,124.16,2.0039,4.6468,0.1798,-0.0004,-0.0000,-0.9056,flat,18.0,0,8.357
3890,124.48,2.3344,4.1979,0.1798,-0.0003,-0.0000,-0.9849,flat,18.0,0,7.838
3900,124.80,2.6334,3.7227,0.1797,-0.0003,-0.0000,-1.0542,flat,18.0,0,7.307
3910,125.12,2.9024,3.2267,0.1797,-0.0002,-0.0000,-1.1150,flat,18.0,0,6.766
3920,125.44,3.1428,2.7143,0.1797,-0.0002,-0.0000,-1.1685,flat,18.0,0,6.217
3930,125.76,3.3571,2.1893,0.1797,-0.0002,0.0000,-1.2153,flat,18.0,0,5.664
3940,126.08,3.5484,1.6555,0.1797,-0.0001,-0.0000,-1.2555,flat,18.0,0,5.108
3950,126.40,3.7191,1.1138,0.1797,-0.0001,-0.0000,-1.2926,flat,18.0,0,4.550
3960,126.72,3.8704,0.5658,0.1797,-0.0001,-0.0000,-1.3274,flat,18.0,0,3.989
3970,127.04,4.0031,0.0125,0.1797,-0.0001,-0.0000,-1.3608,flat,18.0,0,3.427
3980,127.36,4.1175,-0.5450,0.1797,-0.0001,-0.0000,-1.3938,flat,18.0,0,2.864
3990,127.68,4.2135,-1.1057,0.1797,-0.0001,0.0000,-1.4280,flat,18.0,0,2.301
4000,128.00,4.2902,-1.6687,0.1797,-0.0001,0.0000,-1.4660,flat,18.0,0,1.739
4010,128.32,4.3446,-2.2325,0.1797,-0.0002,0.0000,-1.5158,flat,18.0,0,1.179
4020,128.64,4.3695,-2.7910,0.1798,-0.0001,0.0000,-1.6165,flat,18.0,1,7.534
4030,128.96,4.3273,-3.3195,0.1799,-0.0001,-0.0000,-1.8028,flat,18.0,1,7.123
4040,129.28,4.1838,-3.8387,0.1799,-0.0001,-0.0000,-1.9520,flat,18.0,1,6.659
4050,129.60,3.9640,-4.3387,0.1798,-0.0004,-0.0000,-2.0619,flat,18.0,1,6.163
4060,129.92,3.6897,-4.8173,0.1798,-0.0004,-0.0000,-2.1466,flat,18.0,1,5.646
4070,130.24,3.3750,-5.2771,0.1797,-0.0002,-0.0000,-2.2101,flat,18.0,1,5.115
4080,130.56,3.0316,-5.7178,0.1797,-0.0002,-0.0000,-2.2674,flat,18.0,1,4.578
4090,130.88,2.6629,-6.1379,0.1797,-0.0002,-0.0000,-2.3232,flat,18.0,1,4.037
4100,131.20,2.2706,-6.5375,0.1797,-0.0002,-0.0000,-2.3756,flat,18.0,1,3.492
4110,131.52,1.8576,-6.9158,0.1797,-0.0002,0.0000,-2.4273,flat,18.0,1,2.944
4120,131.84,1.4267,-7.2723,0.1797,-0.0002,-0.0000,-2.4792,flat,18.0,1,2.396
4130,132.16,0.9763,-7.6067,0.1797,-0.0002,-0.0000,-2.5398,flat,18.0,1,1.846
4140,132.48,0.5070,-7.9128,0.1797,-0.0003,0.0000,-2.6131,flat,18.0,1,1.296
4150,132.80,0.0196,-8.1796,0.1798,-0.0004,0.0000,-2.7198,flat,18.0,2,0.752
4160,133.12,-0.3947,-8.3310,0.1799,0.0001,-0.0000,-3.0422,flat,18.0,2,5.257
4170,133.44,-0.8527,-8.3520,0.1799,-0.0001,-0.0000,2.9277,flat,18.0,2,5.039
4180,133.76,-1.2540,-8.2535,0.1798,-0.0002,-0.0003,2.7792,flat,18.0,2,4.769
4190,134.08,-1.7109,-8.0466,0.1799,-0.0001,-0.0000,2.5750,flat,18.0,2,4.399
4200,134.40,-2.1347,-7.7366,0.1799,-0.0001,-0.0000,2.4120,flat,18.0,2,3.969
4210,134.72,-2.5139,-7.3561,0.1799,-0.0002,-0.0000,2.2823,flat,18.0,2,3.504
4220,135.04,-2.8493,-6.9262,0.1799,-0.0003,-0.0000,2.1569,flat,18.0,2,3.020
4230,135.36,-3.1354,-6.4553,0.1799,-0.0003,-0.0000,2.0341,flat,18.0,2,2.522
4240,135.68,-3.3662,-5.9517,0.1799,-0.0003,-0.0000,1.9102,flat,18.0,2,2.016
4250,136.00,-3.5355,-5.4236,0.1799,-0.0002,-0.0000,1.7786,flat,18.0,2,1.508
4260,136.32,-3.6344,-4.8805,0.1799,-0.0001,0.0000,1.6247,flat,18.0,2,1.007
4270,136.64,-3.6410,-4.3303,0.1798,-0.0002,-0.0001,1.5153,flat,18.0,3,10.712
4280,136.96,-3.6038,-3.7651,0.1798,-0.0002,-0.0000,1.4692,flat,18.0,3,10.156
4290,137.28,-3.5416,-3.2012,0.1797,-0.0001,-0.0000,1.4331,flat,18.0,3,9.596
4300,137.60,-3.4597,-2.6385,0.1797,-0.0001,-0.0000,1.4033,flat,18.0,3,9.032
4310,137.92,-3.3613,-2.0775,0.1797,-0.0001,-0.0000,1.3782,flat,18.0,3,8.466
4320,138.24,-3.2492,-1.5182,0.1797,-0.0001,-0.0000,1.3568,flat,18.0,3,7.898
4330,138.56,-3.1253,-0.9608,0.1797,-0.0001,-0.0000,1.3383,flat,18.0,3,7.329
4340,138.88,-2.9913,-0.4051,0.1797,-0.0001,-0.0000,1.3220,flat,18.0,3,6.759
4350,139.20,-2.8483,0.1487,0.1797,-0.0001,-0.0000,1.3076,flat,18.0,3,6.188
4360,139.52,-2.6975,0.7009,0.1797,-0.0000,-0.0000,1.2947,flat,18.0,3,5.616
4370,139.84,-2.5397,1.2514,0.1797,-0.0000,-0.0000,1.2830,flat,18.0,3,5.044
4380,140.16,-2.3754,1.8003,0.1797,-0.0000,-0.0000,1.2721,flat,18.0,3,4.471
4390,140.48,-2.2052,2.3475,0.1797,-0.0000,-0.0000,1.2620,flat,18.0,3,3.898
4400,140.80,-2.0295,2.8931,0.1797,-0.0000,-0.0000,1.2522,flat,18.0,3,3.325
4410,141.12,-1.8485,3.4370,0.1797,-0.0000,-0.0000,1.2426,flat,18.0,3,2.752
4420,141.44,-1.6623,3.9790,0.1797,-0.0000,0.0000,1.2327,flat,18.0,3,2.179
4430,141.76,-1.4707,4.5189,0.1797,-0.0000,0.0000,1.2220,flat,18.0,3,1.606
4440,142.08,-1.2733,5.0560,0.1797,-0.0000,0.0000,1.2092,flat,18.0,3,1.034
4450,142.40,-1.0979,5.5364,0.1798,0.0001,0.0003,1.0437,flat,18.0,0,10.412
4460,142.72,-0.8926,5.7980,0.1798,0.0003,-0.0000,0.6533,flat,18.0,0,10.536
4470,143.04,-0.5942,5.9844,0.1799,0.0001,-0.0001,0.2728,flat,18.0,0,10.560
4480,143.36,-0.1874,6.0757,0.1799,-0.0000,-0.0001,-0.0771,flat,18.0,0,10.463
4490,143.68,0.2740,6.0163,0.1799,0.0000,-0.0000,-0.3432,flat,18.0,0,10.221
4500,144.00,0.7356,5.8217,0.1799,-0.0001,-0.0000,-0.5391,flat,18.0,0,9.869
4510,144.32,1.1718,5.5260,0.1799,-0.0001,-0.0000,-0.6885,flat,18.0,0,9.443
4520,144.64,1.5742,5.1613,0.1798,-0.0003,-0.0000,-0.7961,flat,18.0,0,8.971
4530,144.96,1.9423,4.7529,0.1798,-0.0004,-0.0000,-0.8893,flat,18.0,0,8.475
4540,145.28,2.2787,4.3097,0.1798,-0.0004,-0.0000,-0.9710,flat,18.0,0,7.960
4550,145.60,2.5833,3.8389,0.1797,-0.0003,-0.0000,-1.0424,flat,18.0,0,7.431
4560,145.92,2.8576,3.3463,0.1797,-0.0002,-0.0000,-1.1048,flat,18.0,0,6.892
4570,146.24,3.1028,2.8366,0.1797,-0.0002,-0.0000,-1.1598,flat,18.0,0,6.345
4580,146.56,3.3216,2.3134,0.1797,-0.0002,-0.0000,-1.2082,flat,18.0,0,5.792
4590,146.88,3.5163,1.7810,0.1797,-0.0001,-0.0000,-1.2492,flat,18.0,0,5.237
4600,147.20,3.6903,1.2406,0.1797,-0.0001,-0.0000,-1.2868,flat,18.0,0,4.679
4610,147.52,3.8446,0.6934,0.1797,-0.0001,-0.0000,-1.3220,flat,18.0,0,4.118
4620,147.84,3.9802,0.1409,0.1797,-0.0001,-0.0000,-1.3555,flat,18.0,0,3.557
4630,148.16,4.0975,-0.4160,0.1797,-0.0001,-0.0000,-1.3884,flat,18.0,0,2.994
4640,148.48,4.1966,-0.9763,0.1797,-0.0001,-0.0000,-1.4220,flat,18.0,0,2.431
4650,148.80,4.2767,-1.5390,0.1797,-0.0001,0.0000,-1.4586,flat,18.0,0,1.868
4660,149.12,4.3357,-2.1030,0.1797,-0.0002,0.0000,-1.5043,flat,18.0,0,1.307
4670,149.44,4.3675,-2.6654,0.1798,-0.0003,0.0000,-1.5812,flat,18.0,1,0.753
4680,149.76,4.3470,-3.2002,0.1799,-0.0001,-0.0000,-1.7597,flat,18.0,1,7.221
4690,150.08,4.2263,-3.7220,0.1799,-0.0001,-0.0000,-1.9206,flat,18.0,1,6.770
4700,150.40,4.0223,-4.2271,0.1799,-0.0003,-0.0000,-2.0385,flat,18.0,1,6.280
4710,150.72,3.7595,-4.7105,0.1798,-0.0004,-0.0000,-2.1290,flat,18.0,1,5.767
4720,151.04,3.4530,-5.1745,0.1797,-0.0003,-0.0000,-2.1966,flat,18.0,1,5.239
4730,151.36,3.1157,-5.6198,0.1797,-0.0002,-0.0000,-2.2544,flat,18.0,1,4.703
4740,151.68,2.7526,-6.0446,0.1797,-0.0002,-0.0000,-2.3107,flat,18.0,1,4.163
4750,152.00,2.3654,-6.4487,0.1797,-0.0002,-0.0000,-2.3640,flat,18.0,1,3.619
4760,152.32,1.9569,-6.8320,0.1797,-0.0002,-0.0000,-2.4158,flat,18.0,1,3.072
4770,152.64,1.5299,-7.1933,0.1797,-0.0002,0.0000,-2.4673,flat,18.0,1,2.524
4780,152.96,1.0839,-7.5328,0.1797,-0.0002,-0.0000,-2.5257,flat,18.0,1,1.974
4790,153.28,0.6187,-7.8460,0.1797,-0.0002,0.0000,-2.5951,flat,18.0,1,1.424
4800,153.60,0.1351,-8.1230,0.1798,-0.0004,0.0000,-2.6904,flat,18.0,1,0.878
4810,153.92,-0.2935,-8.3023,0.1798,0.0002,-0.0000,-2.9671,flat,18.0,2,5.290
4820,154.24,-0.7408,-8.3563,0.1799,-0.0001,-0.0000,2.9884,flat,18.0,2,5.097
4830,154.56,-1.1945,-8.2589,0.1799,-0.0001,-0.0002,2.7801,flat,18.0,2,4.799
4840,154.88,-1.6548,-8.0514,0.1799,-0.0001,-0.0000,2.5752,flat,18.0,2,4.424
4850,155.20,-2.0802,-7.7412,0.1799,-0.0001,-0.0000,2.4151,flat,18.0,2,3.989
4860,155.52,-2.4616,-7.3618,0.1799,-0.0002,-0.0000,2.2886,flat,18.0,2,3.521
4870,155.84,-2.8002,-6.9340,0.1799,-0.0003,-0.0000,2.1661,flat,18.0,2,3.035
4880,156.16,-3.0908,-6.4657,0.1799,-0.0003,-0.0000,2.0459,flat,18.0,2,2.536
4890,156.48,-3.3277,-5.9647,0.1799,-0.0003,-0.0000,1.9245,flat,18.0,2,2.028
4900,156.80,-3.5046,-5.4388,0.1799,-0.0002,-0.0000,1.7954,flat,18.0,2,1.518
4910,157.12,-3.6128,-4.8971,0.1799,-0.0001,0.0000,1.6445,flat,18.0,2,1.016
4920,157.44,-3.6287,-4.3468,0.1798,-0.0002,-0.0001,1.5306,flat,18.0,3,10.725
4930,157.76,-3.5995,-3.7816,0.1798,-0.0002,-0.0000,1.4803,flat,18.0,3,10.171
4940,158.08,-3.5434,-3.2175,0.1797,-0.0001,-0.0000,1.4418,flat,18.0,3,9.612
4950,158.40,-3.4662,-2.6546,0.1797,-0.0001,-0.0000,1.4100,flat,18.0,3,9.050
4960,158.72,-3.3715,-2.0933,0.1797,-0.0001,-0.0000,1.3834,flat,18.0,3,8.484
4970,159.04,-3.2622,-1.5338,0.1797,-0.0001,-0.0000,1.3607,flat,18.0,3,7.917
4980,159.36,-3.1404,-0.9762,0.1797,-0.0001,-0.0000,1.3412,flat,18.0,3,7.348
4990,159.68,-3.0079,-0.4204,0.1797,-0.0001,-0.0000,1.3241,flat,18.0,3,6.778
5000,160.00,-2.8660,0.1336,0.1797,-0.0001,-0.0000,1.3089,flat,18.0,3,6.208
5010,160.32,-2.7159,0.6858,0.1797,-0.0000,-0.0000,1.2954,flat,18.0,3,5.636
5020,160.64,-2.5584,1.2362,0.1797,-0.0000,-0.0000,1.2831,flat,18.0,3,5.064
5030,160.96,-2.3942,1.7850,0.1797,-0.0000,-0.0000,1.2718,flat,18.0,3,4.491
5040,161.28,-2.2238,2.3320,0.1797,-0.0000,-0.0000,1.2612,flat,18.0,3,3.919
5050,161.60,-2.0476,2.8773,0.1797,-0.0000,-0.0000,1.2510,flat,18.0,3,3.346
5060,161.92,-1.8659,3.4208,0.1797,-0.0000,-0.0000,1.2410,flat,18.0,3,2.773
5070,162.24,-1.6788,3.9624,0.1797,-0.0000,0.0000,1.2308,flat,18.0,3,2.200
5080,162.56,-1.4861,4.5018,0.1797,-0.0000,0.0000,1.2197,flat,18.0,3,1.627
5090,162.88,-1.2874,5.0382,0.1797,-0.0000,0.0000,1.2065,flat,18.0,3,1.055
5100,163.20,-1.1107,5.5180,0.1798,0.0001,0.0003,1.0406,flat,18.0,0,10.403
5110,163.52,-0.9047,5.7788,0.1798,0.0003,-0.0000,0.6505,flat,18.0,0,10.525
5120,163.84,-0.6053,5.9649,0.1799,0.0001,-0.0001,0.2707,flat,18.0,0,10.547
5130,164.16,-0.1977,6.0555,0.1799,-0.0000,-0.0001,-0.0785,flat,18.0,0,10.449
5140,164.48,0.2643,5.9955,0.1799,0.0000,-0.0000,-0.3441,flat,18.0,0,10.206
5150,164.80,0.7261,5.8004,0.1799,-0.0001,-0.0000,-0.5392,flat,18.0,0,9.853
5160,165.12,1.1626,5.5046,0.1799,-0.0001,-0.0000,-0.6881,flat,18.0,0,9.426
5170,165.44,1.5652,5.1400,0.1798,-0.0003,-0.0000,-0.7954,flat,18.0,0,8.954
5180,165.76,1.9336,4.7319,0.1798,-0.0004,-0.0000,-0.8883,flat,18.0,0,8.457
5190,166.08,2.2705,4.2891,0.1798,-0.0004,-0.0000,-0.9698,flat,18.0,0,7.942
5200,166.40,2.5757,3.8186,0.1797,-0.0003,-0.0000,-1.0410,flat,18.0,0,7.413
5210,166.72,2.8506,3.3264,0.1797,-0.0002,-0.0000,-1.1034,flat,18.0,0,6.874
5220,167.04,3.0966,2.8170,0.1797,-0.0002,-0.0000,-1.1583,flat,18.0,0,6.327
5230,167.36,3.3161,2.2942,0.1797,-0.0002,-0.0000,-1.2067,flat,18.0,0,5.774
5240,167.68,3.5117,1.7621,0.1797,-0.0001,-0.0000,-1.2476,flat,18.0,0,5.219
5250,168.00,3.6865,1.2219,0.1797,-0.0001,-0.0000,-1.2853,flat,18.0,0,4.661
5260,168.32,3.8416,0.6751,0.1797,-0.0001,-0.0000,-1.3205,flat,18.0,0,4.100
5270,168.64,3.9779,0.1228,0.1797,-0.0001,-0.0000,-1.3541,flat,18.0,0,3.539
5280,168.96,4.0960,-0.4339,0.1797,-0.0001,-0.0000,-1.3871,flat,18.0,0,2.976
5290,169.28,4.1958,-0.9941,0.1797,-0.0001,-0.0000,-1.4209,flat,18.0,0,2.413
5300,169.60,4.2765,-1.5567,0.1797,-0.0001,0.0000,-1.4579,flat,18.0,0,1.850
5310,169.92,4.3358,-2.1206,0.1797,-0.0002,0.0000,-1.5042,flat,18.0,0,1.290
5320,170.24,4.3682,-2.6821,0.1798,-0.0002,0.0001,-1.5873,flat,18.0,1,7.614
5330,170.56,4.3442,-3.2154,0.1799,-0.0001,-0.0000,-1.7678,flat,18.0,1,7.208
5340,170.88,4.2194,-3.7368,0.1799,-0.0001,-0.0000,-1.9261,flat,18.0,1,6.755
5350,171.20,4.0127,-4.2411,0.1799,-0.0003,-0.0000,-2.0423,flat,18.0,1,6.263
5360,171.52,3.7480,-4.7238,0.1798,-0.0004,-0.0000,-2.1318,flat,18.0,1,5.750
5370,171.84,3.4402,-5.1872,0.1797,-0.0003,-0.0000,-2.1985,flat,18.0,1,5.221
5380,172.16,3.1020,-5.6319,0.1797,-0.0002,-0.0000,-2.2562,flat,18.0,1,4.685
5390,172.48,2.7382,-6.0561,0.1797,-0.0002,-0.0000,-2.3122,flat,18.0,1,4.145
5400,172.80,2.3503,-6.4597,0.1797,-0.0002,-0.0000,-2.3654,flat,18.0,1,3.600
5410,173.12,1.9413,-6.8424,0.1797,-0.0002,-0.0000,-2.4171,flat,18.0,1,3.053
5420,173.44,1.5139,-7.2032,0.1797,-0.0002,0.0000,-2.4685,flat,18.0,1,2.505
5430,173.76,1.0674,-7.5422,0.1797,-0.0002,-0.0000,-2.5271,flat,18.0,1,1.955
5440,174.08,0.6018,-7.8548,0.1797,-0.0003,0.0000,-2.5969,flat,18.0,1,1.405
5450,174.40,0.1178,-8.1306,0.1798,-0.0004,0.0000,-2.6936,flat,18.0,1,0.859
5460,174.72,-0.3110,-8.3088,0.1799,0.0002,-0.0000,-2.9723,flat,18.0,2,5.285
5470,175.04,-0.7587,-8.3608,0.1799,-0.0001,-0.0000,2.9828,flat,18.0,2,5.092
5480,175.36,-1.1862,-8.2744,0.1798,-0.0001,0.0001,2.8142,rough,14.0,2,4.817
5490,175.68,-1.6343,-8.0928,0.1799,0.0000,-0.0000,2.6167,flat,18.0,2,4.470
5500,176.00,-2.0667,-7.8032,0.1799,-0.0000,-0.0000,2.4427,flat,18.0,2,4.052
5510,176.32,-2.4546,-7.4349,0.1799,-0.0002,-0.0000,2.3077,flat,18.0,2,3.594
5520,176.64,-2.7986,-7.0143,0.1799,-0.0002,-0.0000,2.1806,flat,18.0,2,3.115
5530,176.96,-3.0943,-6.5506,0.1799,-0.0003,-0.0000,2.0564,flat,18.0,2,2.620
5540,177.28,-3.3355,-6.0524,0.1799,-0.0003,-0.0000,1.9322,flat,18.0,2,2.116
5550,177.60,-3.5160,-5.5281,0.1799,-0.0002,-0.0000,1.8021,flat,18.0,2,1.608
5560,177.92,-3.6278,-4.9867,0.1799,-0.0001,0.0000,1.6535,flat,18.0,2,1.105
5570,178.24,-3.6507,-4.4405,0.1799,-0.0002,-0.0001,1.5214,flat,18.0,3,10.821
5580,178.56,-3.6161,-3.8753,0.1798,-0.0002,-0.0000,1.4746,flat,18.0,3,10.266
5590,178.88,-3.5569,-3.3111,0.1797,-0.0001,-0.0000,1.4376,flat,18.0,3,9.706
5600,179.20,-3.4774,-2.7482,0.1797,-0.0001,-0.0000,1.4071,flat,18.0,3,9.143
5610,179.52,-3.3812,-2.1869,0.1797,-0.0001,-0.0000,1.3816,flat,18.0,3,8.577
5620,179.84,-3.2709,-1.6274,0.1797,-0.0001,-0.0000,1.3598,flat,18.0,3,8.009
5630,180.16,-3.1487,-1.0696,0.1797,-0.0001,-0.0000,1.3410,flat,18.0,3,7.440
5640,180.48,-3.0161,-0.5137,0.1797,-0.0001,-0.0000,1.3245,flat,18.0,3,6.870
5650,180.80,-2.8745,0.0405,0.1797,-0.0001,-0.0000,1.3099,flat,18.0,3,6.299
5660,181.12,-2.7250,0.5930,0.1797,-0.0000,-0.0000,1.2969,flat,18.0,3,5.727
5670,181.44,-2.5683,1.1439,0.1797,-0.0000,-0.0000,1.2851,flat,18.0,3,5.155
5680,181.76,-2.4052,1.6931,0.1797,-0.0000,-0.0000,1.2742,flat,18.0,3,4.582
5690,182.08,-2.2362,2.2407,0.1797,-0.0000,-0.0000,1.2640,flat,18.0,3,4.009
5700,182.40,-2.0616,2.7866,0.1797,-0.0000,-0.0000,1.2543,flat,18.0,3,3.436
5710,182.72,-1.8818,3.3309,0.1797,-0.0000,-0.0000,1.2448,flat,18.0,3,2.863
5720,183.04,-1.6967,3.8734,0.1797,-0.0000,0.0000,1.2351,flat,18.0,3,2.290
5730,183.36,-1.5064,4.4139,0.1797,-0.0000,0.0000,1.2248,flat,18.0,3,1.717
5740,183.68,-1.3105,4.9517,0.1797,-0.0000,0.0000,1.2126,flat,18.0,3,1.145
5750,184.00,-1.1244,5.4646,0.1797,0.0000,0.0004,1.1183,flat,18.0,0,10.364
5760,184.32,-0.9394,5.7573,0.1798,0.0003,0.0000,0.7316,flat,18.0,0,10.524
5770,184.64,-0.6610,5.9554,0.1798,0.0002,-0.0001,0.3477,flat,18.0,0,10.565
5780,184.96,-0.2736,6.0724,0.1799,-0.0000,-0.0001,-0.0120,flat,18.0,0,10.496
5790,185.28,0.1822,6.0437,0.1799,-0.0000,-0.0000,-0.2962,flat,18.0,0,10.282
5800,185.60,0.6466,5.8735,0.1799,-0.0000,-0.0000,-0.5042,flat,18.0,0,9.950
5810,185.92,1.0889,5.5955,0.1799,-0.0001,-0.0000,-0.6619,flat,18.0,0,9.536
5820,186.24,1.4984,5.2419,0.1798,-0.0003,-0.0000,-0.7759,flat,18.0,0,9.071
5830,186.56,1.8728,4.8414,0.1798,-0.0004,-0.0000,-0.8717,flat,18.0,0,8.579
5840,186.88,2.2155,4.4045,0.1798,-0.0004,-0.0000,-0.9557,flat,18.0,0,8.068
5850,187.20,2.5263,3.9386,0.1798,-0.0003,-0.0000,-1.0291,flat,18.0,0,7.541
5860,187.52,2.8064,3.4499,0.1797,-0.0002,-0.0000,-1.0932,flat,18.0,0,7.004
5870,187.84,3.0572,2.9433,0.1797,-0.0002,-0.0000,-1.1496,flat,18.0,0,6.458
5880,188.16,3.2809,2.4224,0.1797,-0.0002,-0.0000,-1.1994,flat,18.0,0,5.906
5890,188.48,3.4800,1.8916,0.1797,-0.0001,-0.0000,-1.2416,flat,18.0,0,5.352
5900,188.80,3.6579,1.3526,0.1797,-0.0001,-0.0000,-1.2798,flat,18.0,0,4.794
5910,189.12,3.8159,0.8066,0.1797,-0.0001,-0.0000,-1.3154,flat,18.0,0,4.234
5920,189.44,3.9550,0.2551,0.1797,-0.0001,-0.0000,-1.3491,flat,18.0,0,3.672
5930,189.76,4.0758,-0.3011,0.1797,-0.0001,-0.0000,-1.3820,flat,18.0,0,3.110
5940,190.08,4.1785,-0.8608,0.1797,-0.0001,-0.0000,-1.4153,flat,18.0,0,2.546
5950,190.40,4.2624,-1.4232,0.1797,-0.0001,0.0000,-1.4510,flat,18.0,0,1.984
5960,190.72,4.3258,-1.9870,0.1797,-0.0001,0.0000,-1.4939,flat,18.0,0,1.422
5970,191.04,4.3639,-2.5503,0.1797,-0.0002,0.0000,-1.5603,flat,18.0,0,0.866
5980,191.36,4.3589,-3.0925,0.1799,-0.0001,0.0000,-1.7214,flat,18.0,1,7.307
5990,191.68,4.2586,-3.6157,0.1799,-0.0001,-0.0000,-1.8918,flat,18.0,1,6.867
6000,192.00,4.0692,-4.1250,0.1799,-0.0003,-0.0000,-2.0171,flat,18.0,1,6.382
6010,192.32,3.8170,-4.6128,0.1798,-0.0004,-0.0000,-2.1124,flat,18.0,1,5.874
6020,192.64,3.5183,-5.0805,0.1798,-0.0003,-0.0000,-2.1842,flat,18.0,1,5.348
6030,192.96,3.1866,-5.5298,0.1797,-0.0002,-0.0000,-2.2427,flat,18.0,1,4.813
6040,193.28,2.8286,-5.9589,0.1797,-0.0002,-0.0000,-2.2992,flat,18.0,1,4.274
6050,193.60,2.4462,-6.3672,0.1797,-0.0002,-0.0000,-2.3534,flat,18.0,1,3.731
6060,193.92,2.0419,-6.7549,0.1797,-0.0002,-0.0000,-2.4051,flat,18.0,1,3.184
6070,194.24,1.6185,-7.1207,0.1797,-0.0002,0.0000,-2.4565,flat,18.0,1,2.636
6080,194.56,1.1766,-7.4648,0.1797,-0.0002,-0.0000,-2.5129,flat,18.0,1,2.087
6090,194.88,0.7153,-7.7842,0.1797,-0.0002,0.0000,-2.5794,flat,18.0,1,1.536
6100,195.20,0.2354,-8.0697,0.1798,-0.0004,0.0000,-2.6670,flat,18.0,1,0.989
6110,195.52,-0.2107,-8.2731,0.1798,0.0002,0.0001,-2.8951,flat,18.0,2,5.313
6120,195.84,-0.6447,-8.3574,0.1799,-0.0001,-0.0000,3.0481,flat,18.0,2,5.147
6130,196.16,-1.1191,-8.2871,0.1799,-0.0001,-0.0000,2.7856,flat,18.0,2,4.858
6140,196.48,-1.5825,-8.0820,0.1799,-0.0001,-0.0000,2.5819,flat,18.0,2,4.479
6150,196.80,-2.0106,-7.7747,0.1799,-0.0001,-0.0000,2.4226,flat,18.0,2,4.042
6160,197.12,-2.3957,-7.3982,0.1799,-0.0003,-0.0000,2.2986,flat,18.0,2,3.573
6170,197.44,-2.7387,-6.9739,0.1799,-0.0003,-0.0000,2.1788,flat,18.0,2,3.085
6180,197.76,-3.0353,-6.5092,0.1799,-0.0003,-0.0000,2.0613,flat,18.0,2,2.584
6190,198.08,-3.2800,-6.0117,0.1799,-0.0003,-0.0000,1.9430,flat,18.0,2,2.075
6200,198.40,-3.4667,-5.4888,0.1799,-0.0003,-0.0000,1.8176,flat,18.0,2,1.563
6210,198.72,-3.5871,-4.9490,0.1799,-0.0001,0.0000,1.6720,flat,18.0,2,1.057
6220,199.04,-3.6183,-4.4009,0.1799,-0.0003,-0.0001,1.5467,flat,18.0,3,10.775
6230,199.36,-3.5973,-3.8359,0.1798,-0.0002,-0.0000,1.4928,rough,14.0,3,10.223
6240,199.68,-3.5536,-3.2978,0.1797,-0.0001,-0.0000,1.4646,flat,18.0,3,9.692
6250,200.00,-3.4886,-2.7341,0.1797,-0.0001,-0.0000,1.4272,flat,18.0,3,9.132
6260,200.32,-3.4032,-2.1722,0.1797,-0.0001,-0.0000,1.3967,flat,18.0,3,8.569
6270,200.64,-3.3011,-1.6120,0.1797,-0.0001,-0.0000,1.3709,flat,18.0,3,8.003
6280,200.96,-3.1849,-1.0539,0.1797,-0.0001,-0.0000,1.3489,flat,18.0,3,7.436
6290,201.28,-3.0565,-0.4976,0.1797,-0.0001,-0.0000,1.3297,flat,18.0,3,6.867
6300,201.60,-2.9176,0.0566,0.1797,-0.0001,-0.0000,1.3128,flat,18.0,3,6.297
6310,201.92,-2.7695,0.6089,0.1797,-0.0001,-0.0000,1.2978,flat,18.0,3,5.726
6320,202.24,-2.6132,1.1594,0.1797,-0.0000,-0.0000,1.2842,flat,18.0,3,5.154
6330,202.56,-2.4495,1.7079,0.1797,-0.0000,-0.0000,1.2717,flat,18.0,3,4.582
6340,202.88,-2.2790,2.2546,0.1797,-0.0000,-0.0000,1.2601,flat,18.0,3,4.010
6350,203.20,-2.1022,2.7994,0.1797,-0.0000,-0.0000,1.2490,flat,18.0,3,3.437
6360,203.52,-1.9194,3.3423,0.1797,-0.0000,-0.0000,1.2382,flat,18.0,3,2.864
6370,203.84,-1.7307,3.8831,0.1797,-0.0000,0.0000,1.2272,flat,18.0,3,2.292
6380,204.16,-1.5361,4.4216,0.1797,-0.0000,0.0000,1.2155,flat,18.0,3,1.719
6390,204.48,-1.3351,4.9570,0.1797,-0.0000,0.0000,1.2017,flat,18.0,3,1.147
6400,204.80,-1.1433,5.4671,0.1798,0.0000,0.0004,1.1054,flat,18.0,0,10.376
6410,205.12,-0.9548,5.7558,0.1798,0.0003,0.0000,0.7181,flat,18.0,0,10.530
6420,205.44,-0.6729,5.9521,0.1798,0.0002,-0.0001,0.3354,flat,18.0,0,10.567
6430,205.76,-0.2817,6.0654,0.1799,-0.0000,-0.0001,-0.0227,flat,18.0,0,10.493
6440,206.08,0.1758,6.0318,0.1799,0.0000,-0.0001,-0.3041,flat,18.0,0,10.274
6450,206.40,0.6403,5.8579,0.1799,-0.0000,-0.0000,-0.5086,flat,18.0,0,9.937
6460,206.72,1.0822,5.5776,0.1799,-0.0001,-0.0000,-0.6648,flat,18.0,0,9.521
6470,207.04,1.4913,5.2227,0.1798,-0.0003,-0.0000,-0.7776,flat,18.0,0,9.055
6480,207.36,1.8653,4.8216,0.1798,-0.0004,-0.0000,-0.8727,flat,18.0,0,8.562
6490,207.68,2.2078,4.3843,0.1798,-0.0004,-0.0000,-0.9561,flat,18.0,0,8.050
6500,208.00,2.5186,3.9183,0.1798,-0.0003,-0.0000,-1.0290,flat,18.0,0,7.523
6510,208.32,2.7988,3.4296,0.1797,-0.0002,-0.0000,-1.0928,flat,18.0,0,6.985
6520,208.64,3.0499,2.9230,0.1797,-0.0002,-0.0000,-1.1488,flat,18.0,0,6.439
6530,208.96,3.2740,2.4023,0.1797,-0.0002,-0.0000,-1.1984,flat,18.0,0,5.888
6540,209.28,3.4737,1.8718,0.1797,-0.0001,-0.0000,-1.2403,flat,18.0,0,5.333
6550,209.60,3.6523,1.3330,0.1797,-0.0001,-0.0000,-1.2784,flat,18.0,0,4.775
6560,209.92,3.8110,0.7873,0.1797,-0.0001,-0.0000,-1.3139,flat,18.0,0,4.215
6570,210.24,3.9510,0.2359,0.1797,-0.0001,-0.0000,-1.3476,flat,18.0,0,3.653
6580,210.56,4.0727,-0.3200,0.1797,-0.0001,-0.0000,-1.3805,flat,18.0,0,3.091
6590,210.88,4.1761,-0.8796,0.1797,-0.0001,-0.0000,-1.4139,flat,18.0,0,2.528
6600,211.20,4.2608,-1.4418,0.1797,-0.0001,0.0000,-1.4498,flat,18.0,0,1.965
6610,211.52,4.3249,-2.0055,0.1797,-0.0001,0.0000,-1.4931,flat,18.0,0,1.404
6620,211.84,4.3633,-2.5686,0.1797,-0.0002,0.0000,-1.5611,flat,18.0,0,0.848
6630,212.16,4.3566,-3.1085,0.1799,-0.0001,-0.0000,-1.7292,flat,18.0,1,7.294
6640,212.48,4.2523,-3.6315,0.1799,-0.0001,-0.0000,-1.8973,flat,18.0,1,6.851
6650,212.80,4.0601,-4.1400,0.1799,-0.0003,-0.0000,-2.0210,flat,18.0,1,6.366
6660,213.12,3.8059,-4.6271,0.1798,-0.0004,-0.0000,-2.1153,flat,18.0,1,5.856
6670,213.44,3.5059,-5.0942,0.1798,-0.0003,-0.0000,-2.1862,flat,18.0,1,5.330
6680,213.76,3.1733,-5.5429,0.1797,-0.0002,-0.0000,-2.2445,flat,18.0,1,4.795
6690,214.08,2.8145,-5.9714,0.1797,-0.0002,-0.0000,-2.3009,flat,18.0,1,4.255
6700,214.40,2.4314,-6.3792,0.1797,-0.0002,-0.0000,-2.3548,flat,18.0,1,3.712
6710,214.72,2.0265,-6.7663,0.1797,-0.0002,-0.0000,-2.4065,flat,18.0,1,3.165
6720,215.04,1.6026,-7.1315,0.1797,-0.0002,0.0000,-2.4579,flat,18.0,1,2.617
6730,215.36,1.1602,-7.4750,0.1797,-0.0002,-0.0000,-2.5145,flat,18.0,1,2.068
6740,215.68,0.6984,-7.7937,0.1797,-0.0002,0.0000,-2.5813,flat,18.0,1,1.517
6750,216.00,0.2181,-8.0781,0.1798,-0.0004,0.0000,-2.6700,flat,18.0,1,0.970
6760,216.32,-0.2283,-8.2804,0.1798,0.0002,0.0001,-2.9006,flat,18.0,2,5.309
6770,216.64,-0.6629,-8.3625,0.1799,-0.0001,-0.0000,3.0424,flat,18.0,2,5.142
6780,216.96,-1.1210,-8.2920,0.1799,0.0001,0.0002,2.8096,flat,18.0,2,4.861
6790,217.28,-1.5793,-8.1017,0.1799,0.0000,-0.0000,2.6079,flat,18.0,2,4.499
6800,217.60,-2.0119,-7.8075,0.1799,-0.0000,-0.0000,2.4397,flat,18.0,2,4.073
6810,217.92,-2.4009,-7.4380,0.1799,-0.0002,-0.0000,2.3102,flat,18.0,2,3.610
6820,218.24,-2.7470,-7.0180,0.1799,-0.0003,-0.0000,2.1868,flat,18.0,2,3.127
6830,218.56,-3.0462,-6.5561,0.1799,-0.0003,-0.0000,2.0662,flat,18.0,2,2.629
6840,218.88,-3.2926,-6.0600,0.1799,-0.0003,-0.0000,1.9453,flat,18.0,2,2.123
6850,219.20,-3.4801,-5.5378,0.1799,-0.0003,-0.0000,1.8183,flat,18.0,2,1.613
6860,219.52,-3.6009,-4.9980,0.1799,-0.0001,0.0000,1.6731,flat,18.0,2,1.108
6870,219.84,-3.6336,-4.4517,0.1799,-0.0003,-0.0002,1.5376,flat,18.0,3,10.828
6880,220.16,-3.6070,-3.8864,0.1798,-0.0002,-0.0000,1.4866,flat,18.0,3,10.274
6890,220.48,-3.5542,-3.3220,0.1797,-0.0001,-0.0000,1.4468,flat,18.0,3,9.716
6900,220.80,-3.4797,-2.7589,0.1797,-0.0001,-0.0000,1.4143,flat,18.0,3,9.154
6910,221.12,-3.3874,-2.1974,0.1797,-0.0001,-0.0000,1.3871,flat,18.0,3,8.589
6920,221.44,-3.2801,-1.6375,0.1797,-0.0001,-0.0000,1.3641,flat,18.0,3,8.022
6930,221.76,-3.1602,-1.0796,0.1797,-0.0001,-0.0000,1.3442,flat,18.0,3,7.453
6940,222.08,-3.0293,-0.5234,0.1797,-0.0001,-0.0000,1.3268,flat,18.0,3,6.883
6950,222.40,-2.8890,0.0309,0.1797,-0.0001,-0.0000,1.3115,flat,18.0,3,6.312
6960,222.72,-2.7403,0.5834,0.1797,-0.0000,-0.0000,1.2979,flat,18.0,3,5.741
6970,223.04,-2.5841,1.1342,0.1797,-0.0000,-0.0000,1.2855,flat,18.0,3,5.169
6980,223.36,-2.4212,1.6834,0.1797,-0.0000,-0.0000,1.2741,flat,18.0,3,4.596
6990,223.68,-2.2521,2.2308,0.1797,-0.0000,-0.0000,1.2634,flat,18.0,3,4.024
7000,224.00,-2.0772,2.7765,0.1797,-0.0000,-0.0000,1.2533,flat,18.0,3,3.451
7010,224.32,-1.8967,3.3205,0.1797,-0.0000,-0.0000,1.2434,flat,18.0,3,2.878
7020,224.64,-1.7109,3.8626,0.1797,-0.0000,0.0000,1.2333,flat,18.0,3,2.304
7030,224.96,-1.5196,4.4026,0.1797,-0.0000,0.0000,1.2226,flat,18.0,3,1.732
7040,225.28,-1.3225,4.9398,0.1797,-0.0000,0.0000,1.2100,flat,18.0,3,1.160
7050,225.60,-1.1350,5.4521,0.1798,0.0000,0.0004,1.1153,flat,18.0,0,10.359
7060,225.92,-0.9492,5.7438,0.1798,0.0003,0.0000,0.7286,flat,18.0,0,10.517
7070,226.24,-0.6700,5.9416,0.1798,0.0002,-0.0001,0.3453,flat,18.0,0,10.557
7080,226.56,-0.2815,6.0579,0.1799,-0.0000,-0.0001,-0.0139,flat,18.0,0,10.487
7090,226.88,0.1748,6.0284,0.1799,0.0000,-0.0000,-0.2975,flat,18.0,0,10.271
7100,227.20,0.6393,5.8575,0.1799,-0.0000,-0.0000,-0.5047,flat,18.0,0,9.937
7110,227.52,1.0817,5.5793,0.1799,-0.0001,-0.0000,-0.6619,flat,18.0,0,9.523
7120,227.84,1.4914,5.2256,0.1798,-0.0003,-0.0000,-0.7756,flat,18.0,0,9.057
7130,228.16,1.8660,4.8252,0.1798,-0.0004,-0.0000,-0.8712,flat,18.0,0,8.566
7140,228.48,2.2090,4.3885,0.1798,-0.0004,-0.0000,-0.9549,flat,18.0,0,8.054
7150,228.80,2.5202,3.9229,0.1798,-0.0003,-0.0000,-1.0281,flat,18.0,0,7.527
7160,229.12,2.8007,3.4345,0.1797,-0.0002,-0.0000,-1.0922,flat,18.0,0,6.990
7170,229.44,3.0521,2.9280,0.1797,-0.0002,-0.0000,-1.1485,flat,18.0,0,6.444
7180,229.76,3.2763,2.4074,0.1797,-0.0002,-0.0000,-1.1982,flat,18.0,0,5.892
7190,230.08,3.4761,1.8769,0.1797,-0.0001,-0.0000,-1.2404,flat,18.0,0,5.338
7200,230.40,3.6545,1.3381,0.1797,-0.0001,-0.0000,-1.2786,flat,18.0,0,4.780
7210,230.72,3.8132,0.7923,0.1797,-0.0001,-0.0000,-1.3142,flat,18.0,0,4.220
7220,231.04,3.9529,0.2409,0.1797,-0.0001,-0.0000,-1.3480,flat,18.0,0,3.658
7230,231.36,4.0744,-0.3150,0.1797,-0.0001,-0.0000,-1.3810,flat,18.0,0,3.096
7240,231.68,4.1776,-0.8746,0.1797,-0.0001,-0.0000,-1.4144,flat,18.0,0,2.533
7250,232.00,4.2620,-1.4369,0.1797,-0.0001,0.0000,-1.4503,flat,18.0,0,1.970
7260,232.32,4.3257,-2.0006,0.1797,-0.0001,0.0000,-1.4936,flat,18.0,0,1.409
7270,232.64,4.3639,-2.5638,0.1797,-0.0002,0.0000,-1.5613,flat,18.0,0,0.853
7280,232.96,4.3572,-3.1038,0.1799,-0.0001,-0.0000,-1.7289,flat,18.0,1,7.297
7290,233.28,4.2530,-3.6269,0.1799,-0.0001,-0.0000,-1.8970,flat,18.0,1,6.855
7300,233.60,4.0609,-4.1355,0.1799,-0.0003,-0.0000,-2.0207,flat,18.0,1,6.369
7310,233.92,3.8070,-4.6227,0.1798,-0.0004,-0.0000,-2.1149,flat,18.0,1,5.860
7320,234.24,3.5071,-5.0900,0.1798,-0.0003,-0.0000,-2.1858,flat,18.0,1,5.334
7330,234.56,3.1747,-5.5388,0.1797,-0.0002,-0.0000,-2.2441,flat,18.0,1,4.798
7340,234.88,2.8161,-5.9674,0.1797,-0.0002,-0.0000,-2.3004,flat,18.0,1,4.259
7350,235.20,2.4332,-6.3754,0.1797,-0.0002,-0.0000,-2.3544,flat,18.0,1,3.715
7360,235.52,2.0284,-6.7627,0.1797,-0.0002,-0.0000,-2.4060,flat,18.0,1,3.168
7370,235.84,1.6047,-7.1282,0.1797,-0.0002,0.0000,-2.4573,flat,18.0,1,2.620
7380,236.16,1.1625,-7.4720,0.1797,-0.0002,-0.0000,-2.5137,flat,18.0,1,2.071
7390,236.48,0.7010,-7.7910,0.1797,-0.0002,0.0000,-2.5804,flat,18.0,1,1.521
7400,236.80,0.2209,-8.0759,0.1798,-0.0004,0.0000,-2.6688,flat,18.0,1,0.973
7410,237.12,-0.2252,-8.2786,0.1798,0.0002,0.0001,-2.8990,flat,18.0,2,5.309
7420,237.44,-0.6596,-8.3613,0.1799,-0.0001,-0.0000,3.0438,flat,18.0,2,5.143
7430,237.76,-1.1331,-8.2892,0.1799,-0.0001,-0.0000,2.7814,flat,18.0,2,4.853
7440,238.08,-1.5958,-8.0820,0.1799,-0.0001,-0.0000,2.5783,flat,18.0,2,4.474
7450,238.40,-2.0230,-7.7729,0.1799,-0.0001,-0.0000,2.4195,flat,18.0,2,4.037
7460,238.72,-2.4069,-7.3953,0.1799,-0.0003,-0.0000,2.2954,flat,18.0,2,3.567
7470,239.04,-2.7487,-6.9698,0.1799,-0.0003,-0.0000,2.1755,flat,18.0,2,3.079
7480,239.36,-3.0439,-6.5041,0.1799,-0.0003,-0.0000,2.0579,flat,18.0,2,2.578
7490,239.68,-3.2870,-6.0057,0.1799,-0.0003,-0.0000,1.9394,flat,18.0,2,2.069
7500,240.00,-3.4719,-5.4822,0.1799,-0.0003,-0.0000,1.8138,flat,18.0,2,1.557
7510,240.32,-3.5903,-4.9419,0.1799,-0.0001,0.0000,1.6679,flat,18.0,2,1.051
7520,240.64,-3.6190,-4.3938,0.1799,-0.0003,-0.0001,1.5423,flat,18.0,3,10.768
7530,240.96,-3.5958,-3.8287,0.1798,-0.0002,-0.0000,1.4896,rough,14.0,3,10.216
7540,241.28,-3.5502,-3.2904,0.1797,-0.0001,-0.0000,1.4618,flat,18.0,3,9.684
7550,241.60,-3.4837,-2.7268,0.1797,-0.0001,-0.0000,1.4251,flat,18.0,3,9.124
7560,241.92,-3.3972,-2.1649,0.1797,-0.0001,-0.0000,1.3951,flat,18.0,3,8.560
7570,242.24,-3.2943,-1.6048,0.1797,-0.0001,-0.0000,1.3698,flat,18.0,3,7.994
7580,242.56,-3.1774,-1.0467,0.1797,-0.0001,-0.0000,1.3481,flat,18.0,3,7.427
7590,242.88,-3.0486,-0.4905,0.1797,-0.0001,-0.0000,1.3292,flat,18.0,3,6.858
7600,243.20,-2.9095,0.0638,0.1797,-0.0001,-0.0000,1.3126,flat,18.0,3,6.287
7610,243.52,-2.7613,0.6161,0.1797,-0.0001,-0.0000,1.2977,flat,18.0,3,5.716
7620,243.84,-2.6050,1.1666,0.1797,-0.0000,-0.0000,1.2843,flat,18.0,3,5.145
7630,244.16,-2.4414,1.7152,0.1797,-0.0000,-0.0000,1.2720,flat,18.0,3,4.573
7640,244.48,-2.2711,2.2620,0.1797,-0.0000,-0.0000,1.2605,flat,18.0,3,4.000
7650,244.80,-2.0945,2.8070,0.1797,-0.0000,-0.0000,1.2496,flat,18.0,3,3.428
7660,245.12,-1.9120,3.3500,0.1797,-0.0000,-0.0000,1.2389,flat,18.0,3,2.855
7670,245.44,-1.7237,3.8910,0.1797,-0.0000,0.0000,1.2280,flat,18.0,3,2.282
7680,245.76,-1.5295,4.4296,0.1797,-0.0000,0.0000,1.2164,flat,18.0,3,1.709
7690,246.08,-1.3290,4.9653,0.1797,-0.0000,0.0000,1.2027,flat,18.0,3,1.138
7700,246.40,-1.1447,5.4615,0.1798,0.0000,0.0004,1.0727,flat,18.0,0,10.372
7710,246.72,-0.9471,5.7346,0.1798,0.0003,0.0000,0.6835,flat,18.0,0,10.508
7720,247.04,-0.6562,5.9260,0.1799,0.0001,-0.0001,0.3029,flat,18.0,0,10.536
7730,247.36,-0.2559,6.0283,0.1799,-0.0000,-0.0001,-0.0500,flat,18.0,0,10.449
7740,247.68,0.2043,5.9814,0.1799,-0.0001,-0.0000,-0.3206,flat,18.0,0,10.216
7750,248.00,0.6682,5.7974,0.1799,-0.0001,-0.0000,-0.5218,flat,18.0,0,9.871
7760,248.32,1.1081,5.5099,0.1799,-0.0001,-0.0000,-0.6753,flat,18.0,0,9.449
7770,248.64,1.5146,5.1506,0.1798,-0.0003,-0.0000,-0.7848,flat,18.0,0,8.979
7780,248.96,1.8865,4.7467,0.1798,-0.0004,-0.0000,-0.8785,flat,18.0,0,8.485
7790,249.28,2.2271,4.3073,0.1798,-0.0004,-0.0000,-0.9608,flat,18.0,0,7.971
7800,249.60,2.5361,3.8397,0.1798,-0.0003,-0.0000,-1.0327,flat,18.0,0,7.443
7810,249.92,2.8148,3.3499,0.1797,-0.0002,-0.0000,-1.0957,flat,18.0,0,6.904
7820,250.24,3.0645,2.8425,0.1797,-0.0002,-0.0000,-1.1511,flat,18.0,0,6.358
7830,250.56,3.2875,2.3213,0.1797,-0.0002,-0.0000,-1.2002,flat,18.0,0,5.806
7840,250.88,3.4863,1.7905,0.1797,-0.0001,-0.0000,-1.2416,flat,18.0,0,5.251
7850,251.20,3.6642,1.2514,0.1797,-0.0001,-0.0000,-1.2796,flat,18.0,0,4.693
7860,251.52,3.8224,0.7055,0.1797,-0.0001,-0.0000,-1.3151,flat,18.0,0,4.133
7870,251.84,3.9617,0.1540,0.1797,-0.0001,-0.0000,-1.3489,flat,18.0,0,3.571
7880,252.16,4.0826,-0.4021,0.1797,-0.0001,-0.0000,-1.3820,flat,18.0,0,3.008
7890,252.48,4.1853,-0.9617,0.1797,-0.0001,-0.0000,-1.4158,flat,18.0,0,2.445
7900,252.80,4.2688,-1.5239,0.1797,-0.0001,0.0000,-1.4527,flat,18.0,0,1.883
7910,253.12,4.3310,-2.0875,0.1797,-0.0002,0.0000,-1.4985,flat,18.0,0,1.323
7920,253.44,4.3661,-2.6499,0.1798,-0.0003,0.0000,-1.5746,flat,18.0,1,0.768
7930,253.76,4.3494,-3.1849,0.1799,-0.0001,-0.0000,-1.7535,flat,18.0,1,7.234
7940,254.08,4.2320,-3.7070,0.1799,-0.0001,-0.0000,-1.9160,flat,18.0,1,6.784
7950,254.40,4.0428,-4.1906,0.1798,-0.0002,-0.0001,-2.0157,flat,18.0,1,6.319
7960,254.72,3.7913,-4.6782,0.1798,-0.0004,-0.0000,-2.1130,flat,18.0,1,5.812
7970,255.04,3.4922,-5.1452,0.1798,-0.0003,-0.0000,-2.1862,flat,18.0,1,5.288
7980,255.36,3.1597,-5.5933,0.1797,-0.0002,-0.0000,-2.2458,flat,18.0,1,4.754
7990,255.68,2.8004,-6.0208,0.1797,-0.0002,-0.0000,-2.3037,flat,18.0,1,4.216
8000,256.00,2.4161,-6.4269,0.1797,-0.0002,-0.0000,-2.3589,flat,18.0,1,3.673
