step,time_s,x,y,z,roll,pitch,yaw,terrain,speed,target_idx,dist_to_target
10,0.32,-0.1313,1.4505,0.1832,0.0003,-0.0218,0.0043,rough,14.0,0,4.147
20,0.64,0.1334,1.4514,0.1796,-0.0007,0.0013,0.3650,flat,18.0,0,4.221
30,0.96,0.4477,1.6104,0.1799,-0.0001,-0.0001,0.7188,flat,18.0,0,4.182
40,1.28,0.7324,1.9273,0.1799,-0.0000,-0.0000,1.0073,flat,18.0,0,4.019
50,1.60,0.9553,2.3489,0.1799,0.0000,-0.0000,1.2922,flat,18.0,0,3.775
60,1.92,1.0689,2.8417,0.1799,0.0001,-0.0000,1.5649,flat,18.0,0,3.453
70,2.24,1.0476,3.3633,0.1799,0.0001,-0.0000,1.7962,flat,18.0,0,3.061
80,2.56,0.9060,3.8743,0.1799,0.0001,-0.0000,1.9790,flat,18.0,0,2.622
90,2.88,0.6719,4.3540,0.1799,0.0001,-0.0000,2.1293,flat,18.0,0,2.158
100,3.20,0.3650,4.7958,0.1799,0.0003,-0.0000,2.2565,flat,18.0,0,1.682
110,3.52,0.0044,5.1891,0.1799,0.0001,0.0000,2.3951,flat,18.0,0,1.215
120,3.84,-0.4048,5.5178,0.1799,0.0000,0.0000,2.5974,flat,18.0,1,1.951
130,4.16,-0.8113,5.8133,0.1778,-0.0125,0.0003,2.3906,flat,18.0,1,1.570
140,4.48,-1.1514,6.1978,0.1798,-0.0005,0.0000,2.1609,flat,18.0,1,1.180
150,4.80,-1.4033,6.6455,0.1799,0.0000,0.0000,1.8470,flat,18.0,1,0.820
160,5.12,-1.4948,7.0130,0.1798,0.0002,0.0000,1.3377,flat,18.0,2,8.212
170,5.44,-1.4025,7.3082,0.1799,0.0001,-0.0001,0.9323,flat,18.0,2,8.270
180,5.76,-1.1366,7.5835,0.1799,0.0000,-0.0001,0.6335,rough,14.0,2,8.179
190,6.08,-0.8353,7.7774,0.1799,-0.0001,-0.0004,0.4261,flat,18.0,2,8.031
200,6.40,-0.3959,7.9510,0.1799,-0.0000,-0.0000,0.1849,flat,18.0,2,7.773
210,6.72,0.1126,8.0225,0.1799,-0.0001,0.0000,-0.0438,flat,18.0,2,7.417
220,7.04,0.6445,7.9788,0.1799,-0.0001,-0.0000,-0.2230,flat,18.0,2,6.986
230,7.36,1.1709,7.8407,0.1799,-0.0002,-0.0000,-0.3563,flat,18.0,2,6.508
240,7.68,1.6805,7.6344,0.1798,-0.0004,-0.0000,-0.4553,flat,18.0,2,6.003
250,8.00,2.1716,7.3783,0.1798,-0.0003,-0.0000,-0.5340,flat,18.0,2,5.482
260,8.32,2.6442,7.0837,0.1797,-0.0002,-0.0000,-0.5994,flat,18.0,2,4.949
270,8.64,3.0990,6.7583,0.1797,-0.0002,-0.0000,-0.6558,flat,18.0,2,4.410
280,8.96,3.5364,6.4073,0.1797,-0.0002,-0.0000,-0.7058,flat,18.0,2,3.866
290,9.28,3.9567,6.0344,0.1797,-0.0002,-0.0000,-0.7519,flat,18.0,2,3.318
300,9.60,4.3595,5.6422,0.1797,-0.0002,-0.0000,-0.7968,flat,18.0,2,2.769
310,9.92,4.7433,5.2322,0.1797,-0.0002,0.0000,-0.8437,flat,18.0,2,2.221
320,10.24,5.1055,4.8058,0.1797,-0.0002,0.0000,-0.8953,flat,18.0,2,1.675
330,10.56,5.4439,4.3607,0.1797,-0.0002,0.0000,-0.9644,flat,18.0,2,1.134
340,10.88,5.7437,3.8974,0.1798,-0.0003,-0.0001,-1.0107,flat,18.0,3,3.016
350,11.20,6.0443,3.4374,0.1798,0.0001,0.0004,-0.9605,rough,14.0,3,2.484
360,11.52,6.3053,3.0765,0.1798,0.0001,-0.0004,-0.9228,flat,18.0,3,2.053
370,11.84,6.6523,2.6415,0.1797,0.0002,-0.0000,-0.8593,flat,18.0,3,1.517
380,12.16,7.0257,2.2363,0.1798,0.0003,0.0000,-0.7775,flat,18.0,3,0.991
390,12.48,7.3313,1.9728,0.1794,-0.0000,-0.0024,-0.9697,flat,18.0,0,9.199
400,12.80,7.4750,1.7310,0.1786,-0.0080,-0.0001,-1.4555,flat,18.0,0,9.425
410,13.12,7.5015,1.4153,0.1799,0.0003,0.0001,-1.9692,flat,18.0,0,9.578
420,13.44,7.3397,1.1210,0.1799,0.0001,-0.0001,-2.3138,flat,18.0,0,9.562
430,13.76,7.0225,0.8460,0.1799,0.0000,-0.0001,-2.5866,flat,18.0,0,9.412
440,14.08,6.6003,0.6241,0.1799,-0.0000,-0.0000,-2.8410,flat,18.0,0,9.162
450,14.40,6.1049,0.4956,0.1799,-0.0000,-0.0000,-3.0676,flat,18.0,0,8.817
460,14.72,5.5716,0.4762,0.1799,-0.0001,-0.0000,3.0284,flat,18.0,0,8.393
470,15.04,5.0313,0.5544,0.1799,-0.0002,-0.0000,2.8902,flat,18.0,0,7.916
480,15.36,4.5007,0.7053,0.1798,-0.0004,-0.0000,2.7892,flat,18.0,0,7.409
490,15.68,3.9836,0.9085,0.1798,-0.0003,-0.0000,2.7114,flat,18.0,0,6.885
500,16.00,3.4804,1.1514,0.1797,-0.0002,-0.0000,2.6487,flat,18.0,0,6.348
510,16.32,2.9908,1.4255,0.1797,-0.0002,-0.0000,2.5964,flat,18.0,0,5.804
520,16.64,2.5146,1.7252,0.1797,-0.0002,-0.0000,2.5525,flat,18.0,0,5.255
530,16.96,2.0509,2.0456,0.1797,-0.0001,-0.0000,2.5148,flat,18.0,0,4.702
540,17.28,1.5987,2.3835,0.1797,-0.0001,-0.0000,2.4801,flat,18.0,0,4.147
550,17.60,1.1579,2.7371,0.1797,-0.0001,-0.0000,2.4474,flat,18.0,0,3.591
560,17.92,0.7285,3.1051,0.1797,-0.0001,-0.0000,2.4152,flat,18.0,0,3.033
570,18.24,0.3113,3.4870,0.1797,-0.0001,0.0000,2.3814,flat,18.0,0,2.475
580,18.56,-0.0918,3.8828,0.1797,-0.0001,0.0000,2.3453,flat,18.0,0,1.918
590,18.88,-0.4776,4.2925,0.1797,-0.0001,0.0000,2.3022,flat,18.0,0,1.365
600,19.20,-0.8402,4.7171,0.1797,-0.0002,0.0000,2.2400,flat,18.0,0,0.819
610,19.52,-1.1459,5.1575,0.1799,-0.0000,-0.0000,2.0740,flat,18.0,1,2.216
620,19.84,-1.3618,5.5919,0.1798,-0.0002,0.0001,1.9164,rough,14.0,1,1.811
630,20.16,-1.4969,6.0011,0.1798,-0.0003,-0.0004,1.7804,flat,18.0,1,1.450
640,20.48,-1.5853,6.5207,0.1799,-0.0000,-0.0000,1.5398,flat,18.0,1,1.021
650,20.80,-1.5490,7.0027,0.1799,0.0002,0.0001,1.2582,flat,18.0,2,8.256
660,21.12,-1.4160,7.3558,0.1798,0.0002,0.0000,0.9834,flat,18.0,2,8.304
670,21.44,-1.1979,7.6151,0.1799,0.0001,0.0001,0.7072,rough,14.0,2,8.248
680,21.76,-0.9130,7.8248,0.1799,0.0001,-0.0002,0.4931,flat,18.0,2,8.122
690,22.08,-0.4859,8.0205,0.1799,-0.0000,-0.0000,0.2301,flat,18.0,2,7.887
700,22.40,0.0132,8.1136,0.1799,0.0000,-0.0000,-0.0114,flat,18.0,2,7.552
710,22.72,0.5425,8.0880,0.1799,-0.0001,-0.0000,-0.1991,flat,18.0,2,7.135
720,23.04,1.0700,7.9629,0.1799,-0.0002,-0.0000,-0.3401,flat,18.0,2,6.666
730,23.36,1.5815,7.7647,0.1798,-0.0004,-0.0000,-0.4449,flat,18.0,2,6.166
740,23.68,2.0742,7.5137,0.1798,-0.0004,-0.0000,-0.5272,flat,18.0,2,5.647
750,24.00,2.5482,7.2224,0.1797,-0.0003,-0.0000,-0.5946,flat,18.0,2,5.117
760,24.32,3.0042,6.8992,0.1797,-0.0002,-0.0000,-0.6518,flat,18.0,2,4.579
770,24.64,3.4428,6.5499,0.1797,-0.0002,-0.0000,-0.7024,flat,18.0,2,4.036
780,24.96,3.8643,6.1786,0.1797,-0.0002,-0.0000,-0.7490,flat,18.0,2,3.489
790,25.28,4.2681,5.7875,0.1797,-0.0002,-0.0000,-0.7943,flat,18.0,2,2.941
800,25.60,4.6531,5.3784,0.1797,-0.0002,0.0000,-0.8408,flat,18.0,2,2.393
810,25.92,5.0171,4.9529,0.1797,-0.0002,0.0000,-0.8905,flat,18.0,2,1.846
820,26.24,5.3584,4.5095,0.1797,-0.0002,0.0000,-0.9536,flat,18.0,2,1.303
830,26.56,5.6670,4.0473,0.1798,-0.0003,0.0000,-1.0476,flat,18.0,3,3.175
840,26.88,5.9571,3.5734,0.1798,0.0002,-0.0000,-0.9846,flat,18.0,3,2.639
850,27.20,6.2181,3.1926,0.1797,0.0001,0.0001,-0.9432,rough,14.0,3,2.193
860,27.52,6.5305,2.7804,0.1797,0.0002,-0.0001,-0.8882,flat,18.0,3,1.695
870,27.84,6.8919,2.3617,0.1798,0.0003,0.0000,-0.8130,flat,18.0,3,1.167
880,28.16,7.2630,2.0022,0.1797,0.0003,0.0001,-0.7204,flat,18.0,0,9.124
890,28.48,7.4218,1.8177,0.1743,-0.0344,-0.0000,-1.2156,flat,18.0,0,9.342
900,28.80,7.5188,1.5329,0.1798,-0.0001,0.0000,-1.7354,flat,18.0,0,9.545
910,29.12,7.4523,1.2301,0.1799,0.0001,-0.0001,-2.1512,flat,18.0,0,9.614
920,29.44,7.2071,0.9427,0.1799,0.0001,-0.0001,-2.4486,flat,18.0,0,9.527
930,29.76,6.8356,0.6878,0.1799,-0.0000,-0.0000,-2.7144,flat,18.0,0,9.330
940,30.08,6.3735,0.5084,0.1799,-0.0000,-0.0000,-2.9565,flat,18.0,0,9.033
950,30.40,5.8558,0.4335,0.1799,-0.0000,-0.0000,3.1154,flat,18.0,0,8.648
960,30.72,5.3165,0.4659,0.1799,-0.0001,-0.0000,2.9529,flat,18.0,0,8.196
970,31.04,4.7802,0.5841,0.1799,-0.0003,-0.0000,2.8346,flat,18.0,0,7.702
980,31.36,4.2565,0.7639,0.1798,-0.0004,-0.0000,2.7464,flat,18.0,0,7.185
990,31.68,3.7468,0.9891,0.1798,-0.0003,-0.0000,2.6768,flat,18.0,0,6.654
1000,32.00,3.2510,1.2493,0.1797,-0.0002,-0.0000,2.6197,flat,18.0,0,6.114
1010,32.32,2.7685,1.5376,0.1797,-0.0002,-0.0000,2.5714,flat,18.0,0,5.567
1020,32.64,2.2995,1.8492,0.1797,-0.0001,-0.0000,2.5314,flat,18.0,0,5.016
1030,32.96,1.8422,2.1794,0.1797,-0.0001,-0.0000,2.4954,flat,18.0,0,4.462
1040,33.28,1.3962,2.5262,0.1797,-0.0001,-0.0000,2.4619,flat,18.0,0,3.906
1050,33.60,0.9617,2.8879,0.1797,-0.0001,-0.0000,2.4298,flat,18.0,0,3.349
1060,33.92,0.5388,3.2635,0.1797,-0.0001,-0.0000,2.3970,flat,18.0,0,2.791
1070,34.24,0.1288,3.6530,0.1797,-0.0001,0.0000,2.3626,flat,18.0,0,2.233
1080,34.56,-0.2660,4.0562,0.1797,-0.0001,0.0000,2.3244,flat,18.0,0,1.677
1090,34.88,-0.6409,4.4734,0.1797,-0.0002,0.0000,2.2759,flat,18.0,0,1.126
1100,35.20,-0.9810,4.9026,0.1798,-0.0001,-0.0000,2.1721,flat,18.0,1,2.468
1110,35.52,-1.2606,5.3638,0.1799,-0.0001,-0.0000,1.9951,rough,14.0,1,2.021
1120,35.84,-1.4260,5.7573,0.1798,-0.0003,0.0000,1.8576,rough,14.0,1,1.663
1130,36.16,-1.5443,6.2109,0.1798,-0.0001,-0.0002,1.6980,flat,18.0,1,1.272
1140,36.48,-1.5876,6.7359,0.1799,-0.0001,0.0000,1.4197,flat,18.0,1,0.851
1150,36.80,-1.5047,7.1604,0.1798,0.0001,0.0001,1.1495,flat,18.0,2,8.289
1160,37.12,-1.3333,7.4750,0.1798,0.0002,-0.0000,0.8478,flat,18.0,2,8.292
1170,37.44,-1.0924,7.7002,0.1798,-0.0001,-0.0001,0.6160,rough,14.0,2,8.204
1180,37.76,-0.7652,7.9029,0.1799,0.0000,-0.0001,0.4003,flat,18.0,2,8.044
1190,38.08,-0.3067,8.0667,0.1799,-0.0000,-0.0000,0.1405,flat,18.0,2,7.772
1200,38.40,0.2078,8.1169,0.1799,-0.0000,-0.0000,-0.0844,flat,18.0,2,7.405
1210,38.72,0.7388,8.0530,0.1799,-0.0001,-0.0000,-0.2544,flat,18.0,2,6.967
1220,39.04,1.2614,7.8988,0.1799,-0.0003,-0.0000,-0.3812,flat,18.0,2,6.485
1230,39.36,1.7661,7.6797,0.1798,-0.0004,-0.0000,-0.4767,flat,18.0,2,5.977
1240,39.68,2.2519,7.4129,0.1798,-0.0003,-0.0000,-0.5532,flat,18.0,2,5.454
1250,40.00,2.7193,7.1091,0.1797,-0.0002,-0.0000,-0.6164,flat,18.0,2,4.921
1260,40.32,3.1689,6.7759,0.1797,-0.0002,-0.0000,-0.6710,flat,18.0,2,4.381
1270,40.64,3.6013,6.4181,0.1797,-0.0002,-0.0000,-0.7195,flat,18.0,2,3.836
1280,40.96,4.0163,6.0394,0.1797,-0.0002,-0.0000,-0.7659,flat,18.0,2,3.289
1290,41.28,4.4134,5.6415,0.1797,-0.0002,-0.0000,-0.8112,flat,18.0,2,2.741
1300,41.60,4.7907,5.2260,0.1797,-0.0002,0.0000,-0.8589,flat,18.0,2,2.193
1310,41.92,5.1464,4.7942,0.1797,-0.0002,-0.0000,-0.9121,flat,18.0,2,1.648
1320,42.24,5.4774,4.3436,0.1797,-0.0003,0.0000,-0.9836,flat,18.0,2,1.107
1330,42.56,5.7701,3.8750,0.1798,-0.0002,-0.0001,-1.0144,flat,18.0,3,2.981
1340,42.88,6.0618,3.4238,0.1798,0.0001,0.0004,-0.9660,rough,14.0,3,2.462
1350,43.20,6.3208,3.0623,0.1798,0.0001,-0.0004,-0.9268,flat,18.0,3,2.032
1360,43.52,6.6660,2.6264,0.1797,0.0002,-0.0000,-0.8619,flat,18.0,3,1.497
1370,43.84,7.0382,2.2212,0.1798,0.0003,0.0000,-0.7776,flat,18.0,3,0.973
1380,44.16,7.3353,1.9464,0.1790,0.0001,-0.0048,-0.9164,flat,18.0,0,9.212
1390,44.48,7.4828,1.7227,0.1786,-0.0076,-0.0001,-1.3830,flat,18.0,0,9.435
1400,44.80,7.5342,1.4107,0.1799,0.0003,0.0000,-1.9063,flat,18.0,0,9.610
1410,45.12,7.4000,1.1150,0.1799,0.0001,-0.0001,-2.2695,flat,18.0,0,9.618
1420,45.44,7.1022,0.8361,0.1799,0.0000,-0.0001,-2.5476,flat,18.0,0,9.487
1430,45.76,6.6940,0.6036,0.1799,-0.0000,-0.0000,-2.8059,flat,18.0,0,9.252
1440,46.08,6.2074,0.4604,0.1799,-0.0000,-0.0000,-3.0372,flat,18.0,0,8.921
1450,46.40,5.6778,0.4257,0.1799,-0.0001,-0.0000,3.0506,flat,18.0,0,8.509
1460,46.72,5.1374,0.4920,0.1799,-0.0002,-0.0000,2.9059,flat,18.0,0,8.038
1470,47.04,4.6053,0.6348,0.1798,-0.0004,-0.0000,2.8004,flat,18.0,0,7.535
1480,47.36,4.0865,0.8323,0.1798,-0.0004,-0.0000,2.7198,flat,18.0,0,7.012
1490,47.68,3.5817,1.0709,0.1797,-0.0002,-0.0000,2.6554,flat,18.0,0,6.478
1500,48.00,3.0907,1.3417,0.1797,-0.0002,-0.0000,2.6019,flat,18.0,0,5.934
1510,48.32,2.6130,1.6388,0.1797,-0.0002,-0.0000,2.5569,flat,18.0,0,5.386
1520,48.64,2.1481,1.9571,0.1797,-0.0001,-0.0000,2.5187,flat,18.0,0,4.833
1530,48.96,1.6946,2.2932,0.1797,-0.0001,-0.0000,2.4838,flat,18.0,0,4.279
1540,49.28,1.2525,2.6452,0.1797,-0.0001,-0.0000,2.4510,flat,18.0,0,3.722
1550,49.60,0.8218,3.0117,0.1797,-0.0001,-0.0000,2.4191,flat,18.0,0,3.164
1560,49.92,0.4029,3.3919,0.1797,-0.0001,-0.0000,2.3859,flat,18.0,0,2.606
1570,50.24,-0.0025,3.7859,0.1797,-0.0001,0.0000,2.3509,flat,18.0,0,2.049
1580,50.56,-0.3915,4.1936,0.1797,-0.0001,0.0000,2.3103,flat,18.0,0,1.494
1590,50.88,-0.7588,4.6157,0.1797,-0.0002,0.0000,2.2552,flat,18.0,0,0.946
1600,51.20,-1.0788,5.0505,0.1799,0.0000,-0.0000,2.1109,flat,18.0,1,2.320
1610,51.52,-1.3191,5.4983,0.1799,-0.0001,0.0002,1.9468,rough,14.0,1,1.896
1620,51.84,-1.4658,5.8970,0.1798,-0.0003,0.0000,1.8060,flat,18.0,1,1.539
1630,52.16,-1.5721,6.4115,0.1799,-0.0000,-0.0000,1.5949,flat,18.0,1,1.106
1640,52.48,-1.5621,6.9177,0.1799,-0.0001,0.0003,1.3069,flat,18.0,2,8.230
1650,52.80,-1.4454,7.2905,0.1798,0.0002,0.0001,1.0456,flat,18.0,2,8.298
1660,53.12,-1.2526,7.5602,0.1799,0.0001,0.0001,0.7725,rough,14.0,2,8.266
1670,53.44,-1.0045,7.7661,0.1798,-0.0000,-0.0001,0.5613,rough,14.0,2,8.165
1680,53.76,-0.6234,7.9748,0.1799,0.0000,-0.0001,0.3182,flat,18.0,2,7.970
1690,54.08,-0.1437,8.1063,0.1799,0.0000,-0.0000,0.0658,flat,18.0,2,7.669
1700,54.40,0.3796,8.1196,0.1799,-0.0001,-0.0000,-0.1421,flat,18.0,2,7.278
1710,54.72,0.9097,8.0249,0.1799,-0.0001,-0.0000,-0.2984,flat,18.0,2,6.824
1720,55.04,1.4269,7.8480,0.1799,-0.0003,-0.0000,-0.4142,flat,18.0,2,6.333
1730,55.36,1.9255,7.6123,0.1798,-0.0004,-0.0000,-0.5032,flat,18.0,2,5.820
1740,55.68,2.4051,7.3325,0.1798,-0.0003,-0.0000,-0.5753,flat,18.0,2,5.294
1750,56.00,2.8665,7.0183,0.1797,-0.0002,-0.0000,-0.6353,flat,18.0,2,4.758
1760,56.32,3.3104,6.6765,0.1797,-0.0002,-0.0000,-0.6876,flat,18.0,2,4.216
1770,56.64,3.7370,6.3115,0.1797,-0.0002,-0.0000,-0.7352,flat,18.0,2,3.671
1780,56.96,4.1459,5.9261,0.1797,-0.0002,-0.0000,-0.7814,flat,18.0,2,3.124
1790,57.28,4.5365,5.5221,0.1797,-0.0002,0.0000,-0.8274,flat,18.0,2,2.575
1800,57.60,4.9064,5.1010,0.1797,-0.0002,0.0000,-0.8762,flat,18.0,2,2.028
1810,57.92,5.2543,4.6629,0.1797,-0.0002,-0.0000,-0.9341,flat,18.0,2,1.484
1820,58.24,5.5741,4.2057,0.1798,-0.0003,0.0000,-1.0148,flat,18.0,2,0.946
1830,58.56,5.8612,3.7323,0.1798,-0.0000,-0.0000,-1.0011,flat,18.0,3,2.817
1840,58.88,6.1372,3.3158,0.1798,0.0001,0.0002,-0.9571,rough,14.0,3,2.334
1850,59.20,6.4211,2.9281,0.1797,0.0001,-0.0002,-0.9091,flat,18.0,3,1.870
1860,59.52,6.7736,2.4989,0.1797,0.0002,-0.0000,-0.8412,flat,18.0,3,1.338
1870,59.84,7.1535,2.1062,0.1798,0.0003,0.0000,-0.7439,flat,18.0,3,0.822
1880,60.16,7.3832,1.8852,0.1796,0.0006,-0.0019,-1.0634,flat,18.0,0,9.280
1890,60.48,7.5137,1.6318,0.1794,-0.0027,-0.0000,-1.5489,flat,18.0,0,9.500
1900,60.80,7.5103,1.3183,0.1798,0.0001,0.0000,-2.0258,flat,18.0,0,9.628
1910,61.12,7.3218,1.0261,0.1799,0.0001,-0.0001,-2.3571,flat,18.0,0,9.589
1920,61.44,6.9868,0.7569,0.1799,0.0000,-0.0000,-2.6280,flat,18.0,0,9.425
1930,61.76,6.5512,0.5478,0.1799,-0.0000,-0.0000,-2.8791,flat,18.0,0,9.161
1940,62.08,6.0480,0.4367,0.1799,-0.0001,-0.0000,-3.1004,flat,18.0,0,8.803
1950,62.40,5.5122,0.4348,0.1799,-0.0001,-0.0000,3.0034,flat,18.0,0,8.370
1960,62.72,4.9731,0.5269,0.1799,-0.0002,-0.0000,2.8702,flat,18.0,0,7.888
1970,63.04,4.4448,0.6882,0.1798,-0.0004,-0.0000,2.7737,flat,18.0,0,7.378
1980,63.36,3.9303,0.8994,0.1798,-0.0003,-0.0000,2.6987,flat,18.0,0,6.851
1990,63.68,3.4298,1.1487,0.1797,-0.0002,-0.0000,2.6379,flat,18.0,0,6.313
2000,64.00,2.9429,1.4281,0.1797,-0.0002,-0.0000,2.5871,flat,18.0,0,5.768
2010,64.32,2.4693,1.7323,0.1797,-0.0002,-0.0000,2.5446,flat,18.0,0,5.218
2020,64.64,2.0080,2.0564,0.1797,-0.0001,-0.0000,2.5075,flat,18.0,0,4.665
2030,64.96,1.5581,2.3976,0.1797,-0.0001,-0.0000,2.4734,flat,18.0,0,4.110
2040,65.28,1.1195,2.7543,0.1797,-0.0001,-0.0000,2.4411,flat,18.0,0,3.553
2050,65.60,0.6924,3.1251,0.1797,-0.0001,-0.0000,2.4089,flat,18.0,0,2.995
2060,65.92,0.2775,3.5096,0.1797,-0.0001,0.0000,2.3752,flat,18.0,0,2.437
2070,66.24,-0.1231,3.9079,0.1797,-0.0001,0.0000,2.3391,flat,18.0,0,1.880
2080,66.56,-0.5061,4.3200,0.1797,-0.0001,0.0000,2.2954,flat,18.0,0,1.326
2090,66.88,-0.8655,4.7468,0.1797,-0.0002,0.0000,2.2312,flat,18.0,1,2.628
2100,67.20,-1.1642,5.1907,0.1799,-0.0001,0.0000,2.0575,flat,18.0,1,2.184
2110,67.52,-1.3694,5.6178,0.1798,-0.0003,0.0001,1.9054,rough,14.0,1,1.787
2120,67.84,-1.5033,6.0455,0.1798,-0.0003,-0.0004,1.7669,flat,18.0,1,1.410
2130,68.16,-1.5839,6.5718,0.1799,-0.0001,0.0000,1.5096,flat,18.0,1,0.978
2140,68.48,-1.5346,7.0415,0.1799,0.0003,0.0001,1.2336,flat,18.0,2,8.261
2150,68.80,-1.3933,7.3850,0.1798,0.0002,0.0000,0.9520,flat,18.0,2,8.299
2160,69.12,-1.1766,7.6291,0.1798,0.0001,-0.0000,0.6960,rough,14.0,2,8.237
2170,69.44,-0.8999,7.8302,0.1799,0.0000,-0.0004,0.4871,flat,18.0,2,8.114
2180,69.76,-0.4806,8.0227,0.1799,0.0000,-0.0000,0.2371,flat,18.0,2,7.884
2190,70.08,0.0169,8.1189,0.1799,0.0000,-0.0000,-0.0057,flat,18.0,2,7.553
2200,70.40,0.5455,8.0962,0.1799,-0.0001,-0.0000,-0.1955,flat,18.0,2,7.139
2210,70.72,1.0731,7.9730,0.1799,-0.0002,-0.0000,-0.3381,flat,18.0,2,6.671
2220,71.04,1.5847,7.7758,0.1798,-0.0004,-0.0000,-0.4439,flat,18.0,2,6.172
2230,71.36,2.0774,7.5252,0.1798,-0.0004,-0.0000,-0.5269,flat,18.0,2,5.654
2240,71.68,2.5514,7.2340,0.1797,-0.0003,-0.0000,-0.5947,flat,18.0,2,5.124
2250,72.00,3.0073,6.9108,0.1797,-0.0002,-0.0000,-0.6520,flat,18.0,2,4.586
2260,72.32,3.4459,6.5614,0.1797,-0.0002,-0.0000,-0.7025,flat,18.0,2,4.043
2270,72.64,3.8672,6.1900,0.1797,-0.0002,-0.0000,-0.7495,flat,18.0,2,3.497
2280,72.96,4.2706,5.7987,0.1797,-0.0002,-0.0000,-0.7952,flat,18.0,2,2.949
2290,73.28,4.6551,5.3893,0.1797,-0.0002,0.0000,-0.8421,flat,18.0,2,2.401
2300,73.60,5.0184,4.9633,0.1797,-0.0002,0.0000,-0.8921,flat,18.0,2,1.855
2310,73.92,5.3590,4.5192,0.1797,-0.0002,0.0000,-0.9558,flat,18.0,2,1.312
2320,74.24,5.6667,4.0564,0.1798,-0.0003,0.0000,-1.0497,flat,18.0,3,3.182
2330,74.56,5.9557,3.5818,0.1798,0.0002,-0.0000,-0.9868,flat,18.0,3,2.646
2340,74.88,6.2158,3.2004,0.1797,0.0001,0.0001,-0.9454,rough,14.0,3,2.200
2350,75.20,6.5273,2.7875,0.1797,0.0002,-0.0001,-0.8905,flat,18.0,3,1.702
2360,75.52,6.8877,2.3679,0.1798,0.0003,-0.0000,-0.8155,flat,18.0,3,1.174
2370,75.84,7.2579,2.0073,0.1797,0.0003,0.0002,-0.7235,flat,18.0,0,9.118
2380,76.16,7.4160,1.8218,0.1743,-0.0344,-0.0000,-1.2178,flat,18.0,0,9.335
2390,76.48,7.5123,1.5368,0.1798,-0.0001,0.0000,-1.7374,flat,18.0,0,9.537
2400,76.80,7.4450,1.2340,0.1799,0.0001,-0.0001,-2.1525,flat,18.0,0,9.605
2410,77.12,7.1991,0.9467,0.1799,0.0001,-0.0001,-2.4496,flat,18.0,0,9.518
2420,77.44,6.8273,0.6919,0.1799,-0.0000,-0.0000,-2.7153,flat,18.0,0,9.320
2430,77.76,6.3649,0.5129,0.1799,-0.0000,-0.0000,-2.9574,flat,18.0,0,9.023
2440,78.08,5.8470,0.4384,0.1799,-0.0000,-0.0000,3.1147,flat,18.0,0,8.638
2450,78.40,5.3076,0.4712,0.1799,-0.0001,-0.0000,2.9524,flat,18.0,0,8.185
2460,78.72,4.7714,0.5897,0.1799,-0.0003,-0.0000,2.8342,flat,18.0,0,7.692
2470,79.04,4.2478,0.7698,0.1798,-0.0004,-0.0000,2.7460,flat,18.0,0,7.175
2480,79.36,3.7382,0.9951,0.1798,-0.0003,-0.0000,2.6764,flat,18.0,0,6.644
2490,79.68,3.2424,1.2555,0.1797,-0.0002,-0.0000,2.6194,flat,18.0,0,6.104
2500,80.00,2.7601,1.5440,0.1797,-0.0002,-0.0000,2.5711,flat,18.0,0,5.557
2510,80.32,2.2911,1.8556,0.1797,-0.0001,-0.0000,2.5311,flat,18.0,0,5.006
2520,80.64,1.8339,2.1860,0.1797,-0.0001,-0.0000,2.4951,flat,18.0,0,4.452
2530,80.96,1.3881,2.5329,0.1797,-0.0001,-0.0000,2.4616,flat,18.0,0,3.896
2540,81.28,0.9537,2.8948,0.1797,-0.0001,-0.0000,2.4294,flat,18.0,0,3.338
2550,81.60,0.5309,3.2706,0.1797,-0.0001,-0.0000,2.3965,flat,18.0,0,2.781
2560,81.92,0.1212,3.6602,0.1797,-0.0001,0.0000,2.3620,flat,18.0,0,2.223
2570,82.24,-0.2734,4.0636,0.1797,-0.0001,0.0000,2.3237,flat,18.0,0,1.667
2580,82.56,-0.6479,4.4811,0.1797,-0.0002,0.0000,2.2748,flat,18.0,0,1.116
2590,82.88,-0.9854,4.9101,0.1798,-0.0000,-0.0000,2.1637,flat,18.0,1,2.460
2600,83.20,-1.2620,5.3739,0.1799,-0.0001,-0.0000,1.9872,rough,14.0,1,2.011
2610,83.52,-1.4248,5.7690,0.1798,-0.0003,0.0000,1.8515,rough,14.0,1,1.652
2620,83.84,-1.5438,6.2350,0.1799,-0.0001,-0.0000,1.6843,flat,18.0,1,1.250
2630,84.16,-1.5799,6.7600,0.1799,-0.0001,0.0000,1.4063,flat,18.0,1,0.828
2640,84.48,-1.4939,7.1778,0.1798,0.0001,0.0001,1.1478,flat,18.0,2,8.288
2650,84.80,-1.3221,7.4917,0.1798,0.0002,-0.0000,0.8458,rough,14.0,2,8.291
2660,85.12,-1.0971,7.7059,0.1798,-0.0000,-0.0001,0.6340,rough,14.0,2,8.211
2670,85.44,-0.7670,7.9167,0.1799,0.0000,-0.0001,0.4076,flat,18.0,2,8.053
2680,85.76,-0.3104,8.0830,0.1799,-0.0001,-0.0000,0.1468,flat,18.0,2,7.785
2690,86.08,0.2029,8.1354,0.1799,-0.0001,0.0000,-0.0775,flat,18.0,2,7.421
2700,86.40,0.7338,8.0740,0.1799,-0.0001,-0.0000,-0.2515,flat,18.0,2,6.985
2710,86.72,1.2564,7.9211,0.1799,-0.0003,-0.0000,-0.3801,flat,18.0,2,6.504
2720,87.04,1.7611,7.7025,0.1798,-0.0004,-0.0000,-0.4765,flat,18.0,2,5.998
2730,87.36,2.2468,7.4358,0.1798,-0.0003,-0.0000,-0.5535,flat,18.0,2,5.475
2740,87.68,2.7141,7.1319,0.1797,-0.0002,-0.0000,-0.6169,flat,18.0,2,4.942
2750,88.00,3.1635,6.7985,0.1797,-0.0002,-0.0000,-0.6714,flat,18.0,2,4.402
2760,88.32,3.5958,6.4405,0.1797,-0.0002,-0.0000,-0.7200,flat,18.0,2,3.858
2770,88.64,4.0105,6.0616,0.1797,-0.0002,-0.0000,-0.7667,flat,18.0,2,3.311
2780,88.96,4.4071,5.6634,0.1797,-0.0002,-0.0000,-0.8122,flat,18.0,2,2.763
2790,89.28,4.7840,5.2476,0.1797,-0.0002,0.0000,-0.8601,flat,18.0,2,2.215
2800,89.60,5.1392,4.8154,0.1797,-0.0002,-0.0000,-0.9132,flat,18.0,2,1.670
2810,89.92,5.4698,4.3643,0.1797,-0.0003,0.0000,-0.9842,flat,18.0,2,1.129
2820,90.24,5.7602,3.8951,0.1798,-0.0003,-0.0001,-1.0315,flat,18.0,3,3.002
2830,90.56,6.0510,3.4298,0.1798,0.0001,0.0004,-0.9786,rough,14.0,3,2.474
2840,90.88,6.2991,3.0737,0.1797,0.0001,0.0001,-0.9358,rough,14.0,3,2.056
2850,91.20,6.6301,2.6465,0.1797,0.0002,-0.0001,-0.8725,flat,18.0,3,1.538
2860,91.52,6.9977,2.2378,0.1798,0.0003,0.0000,-0.7864,flat,18.0,3,1.017
2870,91.84,7.3192,1.9408,0.1786,0.0001,-0.0070,-0.8388,flat,18.0,0,9.200
2880,92.16,7.4487,1.7379,0.1782,-0.0100,0.0001,-1.3604,flat,18.0,0,9.398
2890,92.48,7.5073,1.4330,0.1798,0.0002,0.0001,-1.8756,flat,18.0,0,9.576
2900,92.80,7.3846,1.1363,0.1799,0.0000,-0.0001,-2.2498,flat,18.0,0,9.595
2910,93.12,7.0950,0.8560,0.1799,0.0000,-0.0001,-2.5317,flat,18.0,0,9.471
2920,93.44,6.6926,0.6196,0.1799,-0.0000,-0.0000,-2.7917,flat,18.0,0,9.243
2930,93.76,6.2096,0.4706,0.1799,-0.0001,-0.0000,-3.0249,flat,18.0,0,8.918
2940,94.08,5.6821,0.4301,0.1799,-0.0001,0.0000,3.0613,flat,18.0,0,8.509
2950,94.40,5.1417,0.4915,0.1799,-0.0001,-0.0000,2.9117,flat,18.0,0,8.042
2960,94.72,4.6091,0.6313,0.1798,-0.0004,-0.0000,2.8044,flat,18.0,0,7.540
2970,95.04,4.0898,0.8267,0.1798,-0.0004,-0.0000,2.7226,flat,18.0,0,7.018
2980,95.36,3.5846,1.0640,0.1797,-0.0002,-0.0000,2.6573,flat,18.0,0,6.484
2990,95.68,3.0932,1.3338,0.1797,-0.0002,-0.0000,2.6032,flat,18.0,0,5.942
3000,96.00,2.6152,1.6302,0.1797,-0.0002,-0.0000,2.5575,flat,18.0,0,5.393
3010,96.32,2.1502,1.9483,0.1797,-0.0001,-0.0000,2.5190,flat,18.0,0,4.841
3020,96.64,1.6967,2.2843,0.1797,-0.0001,-0.0000,2.4839,flat,18.0,0,4.287
3030,96.96,1.2547,2.6362,0.1797,-0.0001,-0.0000,2.4509,flat,18.0,0,3.730
3040,97.28,0.8241,3.0027,0.1797,-0.0001,-0.0000,2.4187,flat,18.0,0,3.173
3050,97.60,0.4054,3.3831,0.1797,-0.0001,-0.0000,2.3854,flat,18.0,0,2.615
3060,97.92,0.0003,3.7773,0.1797,-0.0001,0.0000,2.3502,flat,18.0,0,2.057
3070,98.24,-0.3885,4.1852,0.1797,-0.0001,0.0000,2.3095,flat,18.0,0,1.503
3080,98.56,-0.7555,4.6076,0.1797,-0.0002,0.0000,2.2546,flat,18.0,0,0.954
3090,98.88,-1.0753,5.0427,0.1799,0.0000,-0.0000,2.1109,flat,18.0,1,2.328
3100,99.20,-1.3157,5.4906,0.1799,-0.0001,0.0002,1.9475,rough,14.0,1,1.903
3110,99.52,-1.4628,5.8893,0.1798,-0.0003,0.0000,1.8076,rough,14.0,1,1.546
3120,99.84,-1.5681,6.3923,0.1799,-0.0000,-0.0000,1.6065,flat,18.0,1,1.121
3130,100.16,-1.5636,6.9007,0.1799,-0.0001,0.0003,1.3219,flat,18.0,2,8.224
3140,100.48,-1.4520,7.2804,0.1798,0.0002,0.0001,1.0647,flat,18.0,2,8.299
3150,100.80,-1.2613,7.5592,0.1799,0.0002,0.0001,0.7830,rough,14.0,2,8.273
3160,101.12,-1.0168,7.7657,0.1798,-0.0000,-0.0001,0.5715,flat,18.0,2,8.175
3170,101.44,-0.6282,7.9813,0.1799,-0.0000,-0.0000,0.3181,flat,18.0,2,7.978
3180,101.76,-0.1485,8.1124,0.1799,-0.0001,-0.0000,0.0674,flat,18.0,2,7.677
3190,102.08,0.3746,8.1253,0.1799,-0.0001,0.0000,-0.1404,flat,18.0,2,7.285
3200,102.40,0.9049,8.0307,0.1799,-0.0001,-0.0000,-0.2989,flat,18.0,2,6.831
3210,102.72,1.4220,7.8535,0.1799,-0.0003,-0.0000,-0.4145,flat,18.0,2,6.340
3220,103.04,1.9206,7.6176,0.1798,-0.0004,-0.0000,-0.5034,flat,18.0,2,5.827
3230,103.36,2.4001,7.3377,0.1798,-0.0003,-0.0000,-0.5754,flat,18.0,2,5.301
3240,103.68,2.8615,7.0235,0.1797,-0.0002,-0.0000,-0.6354,flat,18.0,2,4.765
3250,104.00,3.3053,6.6816,0.1797,-0.0002,-0.0000,-0.6877,flat,18.0,2,4.223
3260,104.32,3.7320,6.3165,0.1797,-0.0002,-0.0000,-0.7352,flat,18.0,2,3.678
3270,104.64,4.1409,5.9312,0.1797,-0.0002,-0.0000,-0.7813,flat,18.0,2,3.130
3280,104.96,4.5315,5.5272,0.1797,-0.0002,0.0000,-0.8272,flat,18.0,2,2.582
3290,105.28,4.9016,5.1061,0.1797,-0.0002,0.0000,-0.8758,flat,18.0,2,2.035
3300,105.60,5.2497,4.6681,0.1797,-0.0002,-0.0000,-0.9333,flat,18.0,2,1.491
3310,105.92,5.5700,4.2111,0.1798,-0.0003,0.0000,-1.0135,flat,18.0,2,0.953
3320,106.24,5.8578,3.7381,0.1798,-0.0000,-0.0000,-0.9997,flat,18.0,3,2.824
3330,106.56,6.1344,3.3218,0.1798,0.0001,0.0002,-0.9561,rough,14.0,3,2.340
3340,106.88,6.4113,2.9441,0.1797,0.0001,-0.0003,-0.9107,flat,18.0,3,1.888
3350,107.20,6.7633,2.5141,0.1797,0.0002,-0.0000,-0.8437,flat,18.0,3,1.355
3360,107.52,7.1423,2.1196,0.1798,0.0003,0.0000,-0.7485,flat,18.0,3,0.838
3370,107.84,7.3706,1.8962,0.1796,0.0006,-0.0016,-1.0672,flat,18.0,0,9.264
3380,108.16,7.4995,1.6445,0.1794,-0.0027,-0.0000,-1.5481,flat,18.0,0,9.482
3390,108.48,7.4962,1.3315,0.1798,0.0001,0.0000,-2.0254,flat,18.0,0,9.609
3400,108.80,7.3078,1.0392,0.1799,0.0001,-0.0001,-2.3567,flat,18.0,0,9.571
3410,109.12,6.9729,0.7698,0.1799,0.0000,-0.0000,-2.6276,flat,18.0,0,9.407
3420,109.44,6.5374,0.5606,0.1799,-0.0000,-0.0000,-2.8787,flat,18.0,0,9.142
3430,109.76,6.0343,0.4493,0.1799,-0.0001,-0.0000,-3.1000,flat,18.0,0,8.785
3440,110.08,5.4985,0.4472,0.1799,-0.0001,-0.0000,3.0037,flat,18.0,0,8.352
3450,110.40,4.9593,0.5391,0.1799,-0.0002,-0.0000,2.8704,flat,18.0,0,7.869
3460,110.72,4.4310,0.7003,0.1798,-0.0004,-0.0000,2.7738,flat,18.0,0,7.359
3470,111.04,3.9165,0.9115,0.1798,-0.0003,-0.0000,2.6988,flat,18.0,0,6.833
3480,111.36,3.4160,1.1607,0.1797,-0.0002,-0.0000,2.6380,flat,18.0,0,6.295
3490,111.68,2.9290,1.4401,0.1797,-0.0002,-0.0000,2.5871,flat,18.0,0,5.750
3500,112.00,2.4555,1.7443,0.1797,-0.0002,-0.0000,2.5445,flat,18.0,0,5.200
3510,112.32,1.9943,2.0684,0.1797,-0.0001,-0.0000,2.5074,flat,18.0,0,4.647
3520,112.64,1.5444,2.4097,0.1797,-0.0001,-0.0000,2.4732,flat,18.0,0,4.092
3530,112.96,1.1060,2.7665,0.1797,-0.0001,-0.0000,2.4407,flat,18.0,0,3.535
3540,113.28,0.6790,3.1374,0.1797,-0.0001,-0.0000,2.4084,flat,18.0,0,2.977
3550,113.60,0.2644,3.5220,0.1797,-0.0001,0.0000,2.3745,flat,18.0,0,2.419
3560,113.92,-0.1359,3.9206,0.1797,-0.0001,0.0000,2.3382,flat,18.0,0,1.862
3570,114.24,-0.5183,4.3330,0.1797,-0.0002,0.0000,2.2940,flat,18.0,0,1.309
3580,114.56,-0.8768,4.7603,0.1797,-0.0002,0.0000,2.2283,flat,18.0,1,2.614
3590,114.88,-1.1741,5.2050,0.1799,-0.0001,0.0000,2.0538,flat,18.0,1,2.170
3600,115.20,-1.3778,5.6328,0.1798,-0.0003,0.0001,1.9008,rough,14.0,1,1.774
3610,115.52,-1.5075,6.0517,0.1798,-0.0003,-0.0004,1.7660,flat,18.0,1,1.406
3620,115.84,-1.5866,6.5753,0.1799,-0.0000,-0.0000,1.5102,flat,18.0,1,0.976
3630,116.16,-1.5375,7.0444,0.1799,0.0003,0.0001,1.2323,flat,18.0,2,8.265
3640,116.48,-1.3957,7.3874,0.1798,0.0002,0.0000,0.9504,flat,18.0,2,8.302
3650,116.80,-1.1713,7.6372,0.1799,0.0001,0.0000,0.6846,rough,14.0,2,8.237
3660,117.12,-0.8910,7.8367,0.1799,0.0000,-0.0004,0.4766,flat,18.0,2,8.110
3670,117.44,-0.4684,8.0260,0.1799,-0.0000,-0.0000,0.2278,flat,18.0,2,7.876
3680,117.76,0.0309,8.1180,0.1799,0.0000,-0.0000,-0.0140,flat,18.0,2,7.541
3690,118.08,0.5601,8.0911,0.1799,-0.0001,-0.0000,-0.2013,flat,18.0,2,7.124
3700,118.40,1.0873,7.9648,0.1799,-0.0002,-0.0000,-0.3422,flat,18.0,2,6.655
3710,118.72,1.5983,7.7656,0.1798,-0.0004,-0.0000,-0.4468,flat,18.0,2,6.155
3720,119.04,2.0905,7.5136,0.1798,-0.0004,-0.0000,-0.5291,flat,18.0,2,5.636
3730,119.36,2.5639,7.2213,0.1797,-0.0003,-0.0000,-0.5964,flat,18.0,2,5.106
3740,119.68,3.0194,6.8973,0.1797,-0.0002,-0.0000,-0.6534,flat,18.0,2,4.568
3750,120.00,3.4575,6.5473,0.1797,-0.0002,-0.0000,-0.7038,flat,18.0,2,4.025
3760,120.32,3.8784,6.1753,0.1797,-0.0002,-0.0000,-0.7507,flat,18.0,2,3.479
3770,120.64,4.2814,5.7835,0.1797,-0.0002,-0.0000,-0.7962,flat,18.0,2,2.931
3780,120.96,4.6655,5.3737,0.1797,-0.0002,0.0000,-0.8431,flat,18.0,2,2.382
3790,121.28,5.0283,4.9474,0.1797,-0.0002,0.0000,-0.8932,flat,18.0,2,1.837
3800,121.60,5.3685,4.5030,0.1797,-0.0002,0.0000,-0.9573,flat,18.0,2,1.293
3810,121.92,5.6752,4.0397,0.1798,-0.0003,0.0000,-1.0528,flat,18.0,3,3.164
3820,122.24,5.9628,3.5645,0.1798,0.0002,-0.0000,-0.9891,flat,18.0,3,2.629
3830,122.56,6.2219,3.1829,0.1797,0.0001,0.0001,-0.9467,rough,14.0,3,2.184
3840,122.88,6.5406,2.7604,0.1797,0.0002,-0.0001,-0.8885,flat,18.0,3,1.676
3850,123.20,6.9018,2.3426,0.1798,0.0003,0.0000,-0.8106,flat,18.0,3,1.150
3860,123.52,7.2576,1.9983,0.1806,0.0002,0.0061,-0.7536,flat,18.0,0,9.121
3870,123.84,7.4198,1.8029,0.1772,-0.0168,-0.0004,-1.2419,flat,18.0,0,9.346
3880,124.16,7.5126,1.5068,0.1798,0.0001,0.0001,-1.7672,flat,18.0,0,9.550
3890,124.48,7.4331,1.2055,0.1799,0.0000,-0.0001,-2.1733,flat,18.0,0,9.607
3900,124.80,7.1771,0.9196,0.1799,0.0000,-0.0001,-2.4683,flat,18.0,0,9.512
3910,125.12,6.7981,0.6687,0.1799,-0.0000,-0.0000,-2.7330,flat,18.0,0,9.307
3920,125.44,6.3308,0.4964,0.1799,-0.0001,-0.0000,-2.9731,flat,18.0,0,9.004
3930,125.76,5.8106,0.4300,0.1799,-0.0001,0.0000,3.1035,flat,18.0,0,8.613
3940,126.08,5.2705,0.4693,0.1799,-0.0001,-0.0000,2.9428,flat,18.0,0,8.157
3950,126.40,4.7351,0.5928,0.1799,-0.0004,-0.0000,2.8270,flat,18.0,0,7.662
3960,126.72,4.2125,0.7766,0.1798,-0.0004,-0.0000,2.7403,flat,18.0,0,7.144
3970,127.04,3.7039,1.0049,0.1797,-0.0003,-0.0000,2.6717,flat,18.0,0,6.612
3980,127.36,3.2093,1.2676,0.1797,-0.0002,-0.0000,2.6153,flat,18.0,0,6.071
3990,127.68,2.7280,1.5581,0.1797,-0.0002,-0.0000,2.5675,flat,18.0,0,5.524
4000,128.00,2.2602,1.8714,0.1797,-0.0001,-0.0000,2.5279,flat,18.0,0,4.973
4010,128.32,1.8039,2.2033,0.1797,-0.0001,-0.0000,2.4921,flat,18.0,0,4.419
4020,128.64,1.3591,2.5516,0.1797,-0.0001,-0.0000,2.4587,flat,18.0,0,3.863
4030,128.96,0.9258,2.9147,0.1797,-0.0001,-0.0000,2.4266,flat,18.0,0,3.305
4040,129.28,0.5041,3.2917,0.1797,-0.0001,-0.0000,2.3935,flat,18.0,0,2.747
4050,129.60,0.0955,3.6826,0.1797,-0.0001,0.0000,2.3590,flat,18.0,0,2.190
4060,129.92,-0.2976,4.0872,0.1797,-0.0001,0.0000,2.3202,flat,18.0,0,1.634
4070,130.24,-0.6704,4.5059,0.1797,-0.0002,0.0000,2.2702,flat,18.0,0,1.084
4080,130.56,-1.0053,4.9365,0.1798,-0.0000,-0.0000,2.1570,flat,18.0,1,2.434
4090,130.88,-1.2788,5.4020,0.1799,-0.0001,-0.0000,1.9788,rough,14.0,1,1.985
4100,131.20,-1.4384,5.7982,0.1798,-0.0003,0.0000,1.8415,rough,14.0,1,1.627
4110,131.52,-1.5555,6.2761,0.1799,-0.0000,-0.0000,1.6632,flat,18.0,1,1.218
4120,131.84,-1.5801,6.7997,0.1799,-0.0000,0.0000,1.3810,flat,18.0,2,8.195
4130,132.16,-1.4871,7.2044,0.1798,0.0001,0.0001,1.1275,flat,18.0,2,8.294
4140,132.48,-1.3073,7.5124,0.1798,0.0002,-0.0001,0.8222,flat,18.0,2,8.288
4150,132.80,-1.0656,7.7301,0.1798,-0.0001,-0.0001,0.6001,rough,14.0,2,8.197
4160,133.12,-0.7056,7.9439,0.1799,0.0000,-0.0001,0.3603,flat,18.0,2,8.019
4170,133.44,-0.2361,8.0923,0.1799,-0.0001,-0.0000,0.1050,flat,18.0,2,7.732
4180,133.76,0.2829,8.1241,0.1799,-0.0001,0.0000,-0.1106,flat,18.0,2,7.353
4190,134.08,0.8140,8.0453,0.1799,-0.0001,-0.0000,-0.2763,flat,18.0,2,6.907
4200,134.40,1.3341,7.8796,0.1799,-0.0003,-0.0000,-0.3975,flat,18.0,2,6.420
4210,134.72,1.8359,7.6524,0.1798,-0.0004,-0.0000,-0.4896,flat,18.0,2,5.910
4220,135.04,2.3187,7.3792,0.1798,-0.0003,-0.0000,-0.5639,flat,18.0,2,5.385
4230,135.36,2.7833,7.0704,0.1797,-0.0002,-0.0000,-0.6255,flat,18.0,2,4.851
4240,135.68,3.2302,6.7331,0.1797,-0.0002,-0.0000,-0.6789,flat,18.0,2,4.310
4250,136.00,3.6599,6.3718,0.1797,-0.0002,-0.0000,-0.7269,flat,18.0,2,3.765
4260,136.32,4.0720,5.9899,0.1797,-0.0002,-0.0000,-0.7730,flat,18.0,2,3.217
4270,136.64,4.4662,5.5892,0.1797,-0.0002,0.0000,-0.8184,flat,18.0,2,2.669
4280,136.96,4.8403,5.1712,0.1797,-0.0002,0.0000,-0.8664,flat,18.0,2,2.121
4290,137.28,5.1926,4.7367,0.1797,-0.0002,-0.0000,-0.9212,flat,18.0,2,1.576
4300,137.60,5.5192,4.2832,0.1798,-0.0003,0.0000,-0.9962,flat,18.0,2,1.036
4310,137.92,5.8076,3.8120,0.1798,-0.0002,-0.0001,-1.0130,flat,18.0,3,2.911
4320,138.24,6.0928,3.3717,0.1798,0.0001,0.0003,-0.9656,rough,14.0,3,2.404
4330,138.56,6.3660,2.9917,0.1797,0.0001,-0.0003,-0.9193,flat,18.0,3,1.953
4340,138.88,6.7142,2.5585,0.1797,0.0002,-0.0000,-0.8525,flat,18.0,3,1.420
4350,139.20,7.0898,2.1595,0.1798,0.0003,0.0000,-0.7608,flat,18.0,3,0.901
4360,139.52,7.3593,1.9142,0.1792,-0.0002,-0.0036,-1.0016,flat,18.0,0,9.247
4370,139.84,7.4887,1.6830,0.1789,-0.0058,0.0001,-1.4562,flat,18.0,0,9.457
4380,140.16,7.5160,1.3713,0.1798,0.0001,0.0000,-1.9581,flat,18.0,0,9.610
4390,140.48,7.3580,1.0773,0.1799,0.0001,-0.0001,-2.3085,flat,18.0,0,9.598
4400,140.80,7.0432,0.8024,0.1799,0.0000,-0.0001,-2.5832,flat,18.0,0,9.452
4410,141.12,6.6227,0.5798,0.1799,-0.0000,-0.0000,-2.8386,flat,18.0,0,9.204
4420,141.44,6.1283,0.4506,0.1799,-0.0001,-0.0000,-3.0656,flat,18.0,0,8.862
4430,141.76,5.5960,0.4309,0.1799,-0.0001,0.0000,3.0297,flat,18.0,0,8.440
4440,142.08,5.0559,0.5091,0.1799,-0.0002,-0.0000,2.8891,flat,18.0,0,7.964
4450,142.40,4.5256,0.6606,0.1798,-0.0004,-0.0000,2.7878,flat,18.0,0,7.457
4460,142.72,4.0088,0.8645,0.1798,-0.0003,-0.0000,2.7098,flat,18.0,0,6.933
4470,143.04,3.5060,1.1082,0.1797,-0.0002,-0.0000,2.6471,flat,18.0,0,6.397
4480,143.36,3.0169,1.3831,0.1797,-0.0002,-0.0000,2.5948,flat,18.0,0,5.853
4490,143.68,2.5412,1.6836,0.1797,-0.0002,-0.0000,2.5509,flat,18.0,0,5.303
4500,144.00,2.0781,2.0048,0.1797,-0.0001,-0.0000,2.5132,flat,18.0,0,4.751
4510,144.32,1.6264,2.3434,0.1797,-0.0001,-0.0000,2.4786,flat,18.0,0,4.196
4520,144.64,1.1861,2.6978,0.1797,-0.0001,-0.0000,2.4460,flat,18.0,0,3.639
4530,144.96,0.7572,3.0664,0.1797,-0.0001,-0.0000,2.4139,flat,18.0,0,3.081
4540,145.28,0.3403,3.4488,0.1797,-0.0001,-0.0000,2.3804,flat,18.0,0,2.523
4550,145.60,-0.0627,3.8450,0.1797,-0.0001,0.0000,2.3449,flat,18.0,0,1.966
4560,145.92,-0.4487,4.2549,0.1797,-0.0001,0.0000,2.3028,flat,18.0,0,1.412
4570,146.24,-0.8121,4.6794,0.1797,-0.0002,0.0000,2.2436,flat,18.0,0,0.865
4580,146.56,-1.1231,5.1183,0.1799,-0.0000,-0.0000,2.0878,flat,18.0,1,2.254
4590,146.88,-1.3490,5.5607,0.1798,-0.0002,0.0002,1.9262,rough,14.0,1,1.839
4600,147.20,-1.4880,5.9688,0.1798,-0.0003,-0.0004,1.7915,flat,18.0,1,1.477
4610,147.52,-1.5826,6.4884,0.1799,-0.0000,-0.0000,1.5546,flat,18.0,1,1.046
4620,147.84,-1.5530,6.9755,0.1799,0.0002,0.0001,1.2809,flat,18.0,2,8.248
4630,148.16,-1.4276,7.3378,0.1798,0.0002,0.0000,1.0122,flat,18.0,2,8.306
4640,148.48,-1.2150,7.6067,0.1799,0.0001,0.0001,0.7262,rough,14.0,2,8.258
4650,148.80,-0.9479,7.8116,0.1798,0.0000,-0.0004,0.5157,flat,18.0,2,8.143
4660,149.12,-0.5368,8.0128,0.1799,-0.0000,-0.0000,0.2621,flat,18.0,2,7.923
4670,149.44,-0.0444,8.1203,0.1799,0.0000,-0.0000,0.0160,flat,18.0,2,7.601
4680,149.76,0.4830,8.1086,0.1799,-0.0001,-0.0000,-0.1793,flat,18.0,2,7.193
4690,150.08,1.0116,7.9941,0.1799,-0.0001,-0.0000,-0.3258,flat,18.0,2,6.729
4700,150.40,1.5251,7.8031,0.1798,-0.0004,-0.0000,-0.4344,flat,18.0,2,6.232
4710,150.72,2.0198,7.5573,0.1798,-0.0004,-0.0000,-0.5191,flat,18.0,2,5.716
4720,151.04,2.4957,7.2698,0.1797,-0.0003,-0.0000,-0.5882,flat,18.0,2,5.187
4730,151.36,2.9535,6.9496,0.1797,-0.0002,-0.0000,-0.6463,flat,18.0,2,4.650
4740,151.68,3.3939,6.6028,0.1797,-0.0002,-0.0000,-0.6975,flat,18.0,2,4.107
4750,152.00,3.8171,6.2335,0.1797,-0.0002,-0.0000,-0.7445,flat,18.0,2,3.561
4760,152.32,4.2225,5.8443,0.1797,-0.0002,-0.0000,-0.7901,flat,18.0,2,3.013
4770,152.64,4.6094,5.4369,0.1797,-0.0002,0.0000,-0.8364,flat,18.0,2,2.465
4780,152.96,4.9753,5.0128,0.1797,-0.0002,0.0000,-0.8857,flat,18.0,2,1.919
4790,153.28,5.3190,4.5711,0.1797,-0.0002,-0.0000,-0.9468,flat,18.0,2,1.375
4800,153.60,5.6317,4.1105,0.1798,-0.0003,0.0000,-1.0348,flat,18.0,2,0.840
4810,153.92,5.9205,3.6365,0.1798,0.0001,-0.0000,-0.9894,flat,18.0,3,2.708
4820,154.24,6.1869,3.2440,0.1797,0.0001,0.0001,-0.9477,rough,14.0,3,2.250
4830,154.56,6.4898,2.8396,0.1797,0.0002,-0.0002,-0.8960,flat,18.0,3,1.763
4840,154.88,6.8480,2.4167,0.1797,0.0003,-0.0000,-0.8243,flat,18.0,3,1.232
4850,155.20,7.2268,2.0402,0.1815,0.0003,0.0118,-0.7257,flat,18.0,0,9.076
4860,155.52,7.4146,1.8415,0.1798,0.0009,-0.0002,-1.1461,flat,18.0,0,9.326
4870,155.84,7.5303,1.5670,0.1797,-0.0008,-0.0000,-1.6619,flat,18.0,0,9.541
4880,156.16,7.4890,1.2601,0.1798,0.0001,-0.0001,-2.1006,flat,18.0,0,9.634
4890,156.48,7.2658,0.9703,0.1799,0.0001,-0.0001,-2.4118,flat,18.0,0,9.566
4900,156.80,6.9088,0.7089,0.1799,0.0000,-0.0000,-2.6798,flat,18.0,0,9.382
4910,157.12,6.4569,0.5171,0.1799,-0.0000,-0.0000,-2.9256,flat,18.0,0,9.098
4920,157.44,5.9446,0.4276,0.1799,-0.0001,-0.0000,-3.1400,flat,18.0,0,8.724
4930,157.76,5.4061,0.4462,0.1799,-0.0001,-0.0000,2.9732,flat,18.0,0,8.279
4940,158.08,4.8685,0.5540,0.1799,-0.0003,-0.0000,2.8489,flat,18.0,0,7.789
4950,158.40,4.3429,0.7264,0.1798,-0.0004,-0.0000,2.7574,flat,18.0,0,7.275
4960,158.72,3.8311,0.9459,0.1798,-0.0003,-0.0000,2.6857,flat,18.0,0,6.746
4970,159.04,3.3334,1.2017,0.1797,-0.0002,-0.0000,2.6273,flat,18.0,0,6.207
4980,159.36,2.8490,1.4863,0.1797,-0.0002,-0.0000,2.5780,flat,18.0,0,5.660
4990,159.68,2.3780,1.7948,0.1797,-0.0001,-0.0000,2.5371,flat,18.0,0,5.110
5000,160.00,1.9190,2.1224,0.1797,-0.0001,-0.0000,2.5007,flat,18.0,0,4.556
5010,160.32,1.4713,2.4668,0.1797,-0.0001,-0.0000,2.4670,flat,18.0,0,4.000
5020,160.64,1.0349,2.8263,0.1797,-0.0001,-0.0000,2.4349,flat,18.0,0,3.443
5030,160.96,0.6101,3.1997,0.1797,-0.0001,-0.0000,2.4024,flat,18.0,0,2.885
5040,161.28,0.1978,3.5869,0.1797,-0.0001,0.0000,2.3684,flat,18.0,0,2.327
5050,161.60,-0.1998,3.9878,0.1797,-0.0001,0.0000,2.3314,flat,18.0,0,1.771
5060,161.92,-0.5787,4.4027,0.1797,-0.0002,0.0000,2.2855,flat,18.0,0,1.218
5070,162.24,-0.9268,4.8292,0.1798,-0.0002,0.0000,2.1947,flat,18.0,1,2.542
5080,162.56,-1.2156,5.2839,0.1799,-0.0001,0.0000,2.0222,flat,18.0,1,2.095
5090,162.88,-1.3989,5.6955,0.1798,-0.0003,0.0001,1.8782,rough,14.0,1,1.717
5100,163.20,-1.5271,6.1480,0.1798,-0.0001,-0.0002,1.7222,flat,18.0,1,1.323
5110,163.52,-1.5841,6.6747,0.1799,-0.0001,0.0000,1.4534,flat,18.0,1,0.896
5120,163.84,-1.5131,7.1169,0.1799,0.0002,0.0001,1.1840,flat,18.0,2,8.276
5130,164.16,-1.3546,7.4424,0.1798,0.0002,0.0000,0.8886,flat,18.0,2,8.294
5140,164.48,-1.1289,7.6702,0.1798,-0.0000,-0.0001,0.6557,rough,14.0,2,8.218
5150,164.80,-0.8285,7.8714,0.1799,0.0001,-0.0002,0.4462,flat,18.0,2,8.078
5160,165.12,-0.3881,8.0515,0.1799,-0.0000,-0.0000,0.1877,flat,18.0,2,7.827
5170,165.44,0.1187,8.1245,0.1799,-0.0000,-0.0001,-0.0465,flat,18.0,2,7.478
5180,165.76,0.6489,8.0805,0.1799,-0.0001,-0.0000,-0.2265,flat,18.0,2,7.052
5190,166.08,1.1740,7.9409,0.1799,-0.0002,-0.0000,-0.3610,flat,18.0,2,6.576
5200,166.40,1.6820,7.7320,0.1798,-0.0004,-0.0000,-0.4615,flat,18.0,2,6.073
5210,166.72,2.1710,7.4727,0.1798,-0.0004,-0.0000,-0.5412,flat,18.0,2,5.553
5220,167.04,2.6414,7.1746,0.1797,-0.0002,-0.0000,-0.6065,flat,18.0,2,5.021
5230,167.36,3.0939,6.8459,0.1797,-0.0002,-0.0000,-0.6623,flat,18.0,2,4.482
5240,167.68,3.5292,6.4920,0.1797,-0.0002,-0.0000,-0.7118,flat,18.0,2,3.938
5250,168.00,3.9470,6.1166,0.1797,-0.0002,-0.0000,-0.7586,flat,18.0,2,3.392
5260,168.32,4.3469,5.7216,0.1797,-0.0002,-0.0000,-0.8042,flat,18.0,2,2.844
5270,168.64,4.7273,5.3088,0.1797,-0.0002,0.0000,-0.8516,flat,18.0,2,2.296
5280,168.96,5.0863,4.8796,0.1797,-0.0002,0.0000,-0.9031,flat,18.0,2,1.750
5290,169.28,5.4217,4.4317,0.1797,-0.0002,0.0000,-0.9708,flat,18.0,2,1.208
5300,169.60,5.7185,3.9660,0.1798,-0.0003,-0.0001,-1.0308,flat,18.0,3,3.082
5310,169.92,6.0156,3.4926,0.1798,0.0001,-0.0000,-0.9748,rough,14.0,3,2.542
5320,170.24,6.2654,3.1338,0.1797,0.0001,0.0001,-0.9367,rough,14.0,3,2.119
5330,170.56,6.5961,2.7047,0.1797,0.0002,-0.0001,-0.8776,flat,18.0,3,1.598
5340,170.88,6.9619,2.2920,0.1798,0.0003,0.0000,-0.7975,flat,18.0,3,1.073
5350,171.20,7.3045,1.9708,0.1768,0.0007,-0.0189,-0.7810,flat,18.0,0,9.175
5360,171.52,7.4578,1.7689,0.1778,-0.0129,-0.0002,-1.2840,flat,18.0,0,9.394
5370,171.84,7.5393,1.4662,0.1799,0.0003,0.0001,-1.8165,flat,18.0,0,9.591
5380,172.16,7.4418,1.1671,0.1799,0.0001,-0.0001,-2.2069,flat,18.0,0,9.632
5390,172.48,7.1716,0.8833,0.1799,0.0000,-0.0001,-2.4941,flat,18.0,0,9.524
5400,172.80,6.7829,0.6378,0.1799,-0.0000,-0.0000,-2.7567,flat,18.0,0,9.310
5410,173.12,6.3091,0.4746,0.1799,-0.0000,-0.0000,-2.9940,flat,18.0,0,8.998
5420,173.44,5.7854,0.4181,0.1799,-0.0001,-0.0000,3.0845,flat,18.0,0,8.600
5430,173.76,5.2451,0.4664,0.1799,-0.0001,-0.0000,2.9308,flat,18.0,0,8.139
5440,174.08,4.7106,0.5962,0.1798,-0.0004,-0.0000,2.8186,flat,18.0,0,7.640
5450,174.40,4.1892,0.7844,0.1798,-0.0004,-0.0000,2.7340,flat,18.0,0,7.121
5460,174.72,3.6817,1.0158,0.1797,-0.0003,-0.0000,2.6668,flat,18.0,0,6.588
5470,175.04,3.1881,1.2810,0.1797,-0.0002,-0.0000,2.6114,flat,18.0,0,6.047
5480,175.36,2.7077,1.5734,0.1797,-0.0002,-0.0000,2.5645,flat,18.0,0,5.499
5490,175.68,2.2407,1.8881,0.1797,-0.0001,-0.0000,2.5256,flat,18.0,0,4.947
5500,176.00,1.7851,2.2211,0.1797,-0.0001,-0.0000,2.4901,flat,18.0,0,4.393
5510,176.32,1.3409,2.5702,0.1797,-0.0001,-0.0000,2.4570,flat,18.0,0,3.837
5520,176.64,0.9080,2.9341,0.1797,-0.0001,-0.0000,2.4251,flat,18.0,0,3.279
5530,176.96,0.4868,3.3117,0.1797,-0.0001,-0.0000,2.3922,flat,18.0,0,2.721
5540,177.28,0.0787,3.7031,0.1797,-0.0001,0.0000,2.3577,flat,18.0,0,2.163
5550,177.60,-0.3138,4.1082,0.1797,-0.0001,0.0000,2.3188,flat,18.0,0,1.608
5560,177.92,-0.6858,4.5274,0.1797,-0.0002,0.0000,2.2683,flat,18.0,0,1.058
5570,178.24,-1.0177,4.9581,0.1799,0.0000,-0.0000,2.1458,flat,18.0,1,2.412
5580,178.56,-1.2824,5.4184,0.1799,-0.0001,0.0006,1.9734,rough,14.0,1,1.969
5590,178.88,-1.4393,5.8133,0.1798,-0.0003,0.0000,1.8362,rough,14.0,1,1.612
5600,179.20,-1.5567,6.3033,0.1799,-0.0000,-0.0000,1.6490,flat,18.0,1,1.194
5610,179.52,-1.5738,6.8261,0.1799,-0.0000,0.0000,1.3659,flat,18.0,2,8.201
5620,179.84,-1.4750,7.2227,0.1798,0.0001,0.0001,1.1049,flat,18.0,2,8.292
5630,180.16,-1.2948,7.5164,0.1798,0.0001,0.0002,0.8179,rough,14.0,2,8.280
5640,180.48,-1.0615,7.7259,0.1798,-0.0000,-0.0001,0.6062,rough,14.0,2,8.191
5650,180.80,-0.7231,7.9309,0.1799,0.0000,-0.0001,0.3833,flat,18.0,2,8.026
5660,181.12,-0.2599,8.0881,0.1799,-0.0001,-0.0000,0.1251,flat,18.0,2,7.748
5670,181.44,0.2565,8.1299,0.1799,-0.0001,0.0000,-0.0951,flat,18.0,2,7.377
5680,181.76,0.7874,8.0592,0.1799,-0.0001,-0.0000,-0.2650,flat,18.0,2,6.936
5690,182.08,1.3086,7.8993,0.1799,-0.0003,-0.0000,-0.3899,flat,18.0,2,6.452
5700,182.40,1.8116,7.6759,0.1798,-0.0004,-0.0000,-0.4842,flat,18.0,2,5.944
5710,182.72,2.2955,7.4054,0.1798,-0.0003,-0.0000,-0.5598,flat,18.0,2,5.420
5720,183.04,2.7611,7.0985,0.1797,-0.0002,-0.0000,-0.6222,flat,18.0,2,4.886
5730,183.36,3.2089,6.7626,0.1797,-0.0002,-0.0000,-0.6761,flat,18.0,2,4.346
5740,183.68,3.6395,6.4026,0.1797,-0.0002,-0.0000,-0.7244,flat,18.0,2,3.801
5750,184.00,4.0525,6.0218,0.1797,-0.0002,-0.0000,-0.7711,flat,18.0,2,3.255
5760,184.32,4.4473,5.6218,0.1797,-0.0002,0.0000,-0.8168,flat,18.0,2,2.706
5770,184.64,4.8221,5.2044,0.1797,-0.0002,0.0000,-0.8650,flat,18.0,2,2.159
5780,184.96,5.1749,4.7704,0.1797,-0.0002,-0.0000,-0.9196,flat,18.0,2,1.614
5790,185.28,5.5025,4.3174,0.1797,-0.0003,0.0000,-0.9932,flat,18.0,2,1.074
5800,185.60,5.7897,3.8462,0.1798,-0.0002,-0.0001,-1.0259,flat,18.0,3,2.947
5810,185.92,6.0761,3.3923,0.1798,0.0001,0.0004,-0.9753,rough,14.0,3,2.430
5820,186.24,6.3314,3.0296,0.1798,0.0001,-0.0004,-0.9328,flat,18.0,3,2.003
5830,186.56,6.6741,2.5932,0.1797,0.0002,-0.0000,-0.8637,flat,18.0,3,1.472
5840,186.88,7.0451,2.1897,0.1798,0.0003,0.0000,-0.7729,flat,18.0,3,0.954
5850,187.20,7.3429,1.9188,0.1789,0.0001,-0.0054,-0.9111,flat,18.0,0,9.230
5860,187.52,7.4706,1.7037,0.1786,-0.0077,0.0001,-1.4071,flat,18.0,0,9.432
5870,187.84,7.5147,1.3944,0.1799,0.0004,0.0000,-1.9223,flat,18.0,0,9.599
5880,188.16,7.3737,1.0994,0.1799,0.0001,-0.0001,-2.2811,flat,18.0,0,9.602
5890,188.48,7.0711,0.8218,0.1799,0.0000,-0.0001,-2.5580,flat,18.0,0,9.466
5900,188.80,6.6594,0.5923,0.1799,-0.0000,-0.0000,-2.8158,flat,18.0,0,9.229
5910,189.12,6.1706,0.4533,0.1799,-0.0000,-0.0000,-3.0461,flat,18.0,0,8.895
5920,189.44,5.6404,0.4232,0.1799,-0.0001,-0.0000,3.0426,flat,18.0,0,8.480
5930,189.76,5.1002,0.4938,0.1799,-0.0002,-0.0000,2.8998,flat,18.0,0,8.008
5940,190.08,4.5688,0.6397,0.1798,-0.0004,-0.0000,2.7955,flat,18.0,0,7.504
5950,190.40,4.0509,0.8397,0.1798,-0.0004,-0.0000,2.7157,flat,18.0,0,6.981
5960,190.72,3.5470,1.0805,0.1797,-0.0002,-0.0000,2.6517,flat,18.0,0,6.446
5970,191.04,3.0569,1.3531,0.1797,-0.0002,-0.0000,2.5985,flat,18.0,0,5.902
5980,191.36,2.5802,1.6518,0.1797,-0.0002,-0.0000,2.5538,flat,18.0,0,5.353
5990,191.68,2.1162,1.9716,0.1797,-0.0001,-0.0000,2.5157,flat,18.0,0,4.801
6000,192.00,1.6638,2.3091,0.1797,-0.0001,-0.0000,2.4809,flat,18.0,0,4.246
6010,192.32,1.2227,2.6624,0.1797,-0.0001,-0.0000,2.4481,flat,18.0,0,3.690
6020,192.64,0.7931,3.0301,0.1797,-0.0001,-0.0000,2.4160,flat,18.0,0,3.132
6030,192.96,0.3754,3.4116,0.1797,-0.0001,-0.0000,2.3826,flat,18.0,0,2.574
6040,193.28,-0.0285,3.8069,0.1797,-0.0001,0.0000,2.3473,flat,18.0,0,2.017
6050,193.60,-0.4159,4.2160,0.1797,-0.0001,0.0000,2.3060,flat,18.0,0,1.462
6060,193.92,-0.7811,4.6395,0.1797,-0.0002,0.0000,2.2494,flat,18.0,0,0.915
6070,194.24,-1.0980,5.0763,0.1799,0.0000,0.0000,2.1034,flat,18.0,1,2.295
6080,194.56,-1.3349,5.5258,0.1799,-0.0001,0.0002,1.9378,rough,14.0,1,1.871
6090,194.88,-1.4781,5.9256,0.1798,-0.0003,0.0000,1.7951,flat,18.0,1,1.515
6100,195.20,-1.5786,6.4402,0.1799,-0.0000,-0.0000,1.5806,flat,18.0,1,1.085
6110,195.52,-1.5609,6.9383,0.1799,0.0002,0.0001,1.2998,flat,18.0,2,8.238
6120,195.84,-1.4422,7.3085,0.1798,0.0002,0.0001,1.0378,flat,18.0,2,8.304
6130,196.16,-1.2464,7.5765,0.1799,0.0001,0.0001,0.7638,rough,14.0,2,8.269
6140,196.48,-0.9956,7.7815,0.1798,-0.0000,-0.0001,0.5525,flat,18.0,2,8.166
6150,196.80,-0.6017,7.9921,0.1799,-0.0000,-0.0000,0.3023,flat,18.0,2,7.963
6160,197.12,-0.1183,8.1165,0.1799,-0.0001,-0.0000,0.0538,flat,18.0,2,7.656
6170,197.44,0.4063,8.1226,0.1799,-0.0001,0.0000,-0.1508,flat,18.0,2,7.260
6180,197.76,0.9362,8.0223,0.1799,-0.0001,-0.0000,-0.3067,flat,18.0,2,6.803
6190,198.08,1.4523,7.8412,0.1799,-0.0004,-0.0000,-0.4203,flat,18.0,2,6.310
6200,198.40,1.9497,7.6024,0.1798,-0.0004,-0.0000,-0.5081,flat,18.0,2,5.797
6210,198.72,2.4281,7.3203,0.1798,-0.0003,-0.0000,-0.5792,flat,18.0,2,5.269
6220,199.04,2.8885,7.0043,0.1797,-0.0002,-0.0000,-0.6387,flat,18.0,2,4.733
6230,199.36,3.3313,6.6609,0.1797,-0.0002,-0.0000,-0.6906,flat,18.0,2,4.191
6240,199.68,3.7569,6.2946,0.1797,-0.0002,-0.0000,-0.7380,flat,18.0,2,3.646
6250,200.00,4.1648,5.9080,0.1797,-0.0002,-0.0000,-0.7840,flat,18.0,2,3.098
6260,200.32,4.5542,5.5030,0.1797,-0.0002,0.0000,-0.8301,flat,18.0,2,2.550
6270,200.64,4.9230,5.0810,0.1797,-0.0002,0.0000,-0.8789,flat,18.0,2,2.003
6280,200.96,5.2698,4.6418,0.1797,-0.0002,-0.0000,-0.9374,flat,18.0,2,1.459
6290,201.28,5.5878,4.1837,0.1798,-0.0003,0.0000,-1.0197,flat,18.0,2,0.922
6300,201.60,5.8722,3.7091,0.1798,-0.0000,-0.0000,-1.0061,flat,18.0,3,2.793
6310,201.92,6.1460,3.2916,0.1798,0.0001,0.0002,-0.9607,rough,14.0,3,2.312
6320,202.24,6.4357,2.8938,0.1797,0.0002,-0.0002,-0.9085,flat,18.0,3,1.838
6330,202.56,6.7885,2.4660,0.1797,0.0003,-0.0000,-0.8376,flat,18.0,3,1.308
6340,202.88,7.1694,2.0767,0.1798,0.0003,0.0000,-0.7341,flat,18.0,0,9.010
6350,203.20,7.3743,1.8698,0.1797,0.0006,-0.0007,-1.1085,flat,18.0,0,9.278
6360,203.52,7.4976,1.6048,0.1795,-0.0016,-0.0001,-1.6146,flat,18.0,0,9.496
6370,203.84,7.4736,1.2948,0.1799,0.0002,-0.0000,-2.0700,flat,18.0,0,9.605
6380,204.16,7.2659,1.0039,0.1799,0.0001,-0.0001,-2.3868,flat,18.0,0,9.550
6390,204.48,6.9190,0.7387,0.1799,0.0000,-0.0000,-2.6562,flat,18.0,0,9.376
6400,204.80,6.4746,0.5388,0.1799,-0.0000,-0.0000,-2.9047,flat,18.0,0,9.101
6410,205.12,5.9663,0.4393,0.1799,-0.0000,-0.0000,-3.1238,flat,18.0,0,8.735
6420,205.44,5.4291,0.4489,0.1799,-0.0001,-0.0000,2.9850,flat,18.0,0,8.295
6430,205.76,4.8908,0.5502,0.1799,-0.0003,-0.0000,2.8577,flat,18.0,0,7.809
6440,206.08,4.3642,0.7180,0.1798,-0.0004,-0.0000,2.7639,flat,18.0,0,7.297
6450,206.40,3.8514,0.9343,0.1798,-0.0003,-0.0000,2.6906,flat,18.0,0,6.769
6460,206.72,3.3527,1.1876,0.1797,-0.0002,-0.0000,2.6310,flat,18.0,0,6.230
6470,207.04,2.8675,1.4704,0.1797,-0.0002,-0.0000,2.5809,flat,18.0,0,5.685
6480,207.36,2.3958,1.7775,0.1797,-0.0001,-0.0000,2.5391,flat,18.0,0,5.135
6490,207.68,1.9362,2.1042,0.1797,-0.0001,-0.0000,2.5023,flat,18.0,0,4.581
6500,208.00,1.4880,2.4478,0.1797,-0.0001,-0.0000,2.4683,flat,18.0,0,4.026
6510,208.32,1.0513,2.8067,0.1797,-0.0001,-0.0000,2.4360,flat,18.0,0,3.469
6520,208.64,0.6261,3.1796,0.1797,-0.0001,-0.0000,2.4034,flat,18.0,0,2.911
6530,208.96,0.2135,3.5664,0.1797,-0.0001,0.0000,2.3693,flat,18.0,0,2.353
6540,209.28,-0.1844,3.9670,0.1797,-0.0001,0.0000,2.3323,flat,18.0,0,1.796
6550,209.60,-0.5638,4.3816,0.1797,-0.0002,0.0000,2.2867,flat,18.0,0,1.244
6560,209.92,-0.9156,4.8085,0.1797,-0.0002,0.0002,2.2031,flat,18.0,1,2.564
6570,210.24,-1.2065,5.2605,0.1799,-0.0001,-0.0000,2.0324,flat,18.0,1,2.118
6580,210.56,-1.3977,5.6813,0.1798,-0.0003,0.0001,1.8832,rough,14.0,1,1.730
6590,210.88,-1.5244,6.1217,0.1798,-0.0002,-0.0003,1.7353,flat,18.0,1,1.347
6600,211.20,-1.5881,6.6484,0.1799,-0.0001,0.0000,1.4677,flat,18.0,1,0.919
6610,211.52,-1.5230,7.0968,0.1799,0.0002,0.0001,1.2048,flat,18.0,2,8.276
6620,211.84,-1.3716,7.4296,0.1798,0.0002,0.0000,0.9151,flat,18.0,2,8.302
6630,212.16,-1.1482,7.6646,0.1798,0.0000,-0.0000,0.6702,rough,14.0,2,8.232
6640,212.48,-0.8523,7.8682,0.1799,0.0001,-0.0002,0.4593,flat,18.0,2,8.096
6650,212.80,-0.4158,8.0527,0.1799,-0.0000,-0.0000,0.1993,flat,18.0,2,7.850
6660,213.12,0.0890,8.1312,0.1799,-0.0000,-0.0001,-0.0370,flat,18.0,2,7.505
6670,213.44,0.6188,8.0922,0.1799,-0.0001,-0.0000,-0.2194,flat,18.0,2,7.082
6680,213.76,1.1445,7.9563,0.1799,-0.0002,-0.0000,-0.3558,flat,18.0,2,6.608
6690,214.08,1.6534,7.7501,0.1798,-0.0004,-0.0000,-0.4575,flat,18.0,2,6.106
6700,214.40,2.1432,7.4928,0.1798,-0.0004,-0.0000,-0.5379,flat,18.0,2,5.586
6710,214.72,2.6144,7.1963,0.1797,-0.0002,-0.0000,-0.6038,flat,18.0,2,5.055
6720,215.04,3.0678,6.8688,0.1797,-0.0002,-0.0000,-0.6600,flat,18.0,2,4.516
6730,215.36,3.5038,6.5159,0.1797,-0.0002,-0.0000,-0.7097,flat,18.0,2,3.973
6740,215.68,3.9224,6.1414,0.1797,-0.0002,-0.0000,-0.7565,flat,18.0,2,3.426
6750,216.00,4.3232,5.7473,0.1797,-0.0002,-0.0000,-0.8020,flat,18.0,2,2.878
6760,216.32,4.7047,5.3353,0.1797,-0.0002,0.0000,-0.8492,flat,18.0,2,2.330
6770,216.64,5.0648,4.9070,0.1797,-0.0002,0.0000,-0.9000,flat,18.0,2,1.784
6780,216.96,5.4017,4.4602,0.1797,-0.0002,0.0000,-0.9662,flat,18.0,2,1.242
6790,217.28,5.6997,3.9966,0.1798,-0.0005,0.0002,-1.0358,flat,18.0,3,3.117
6800,217.60,5.9929,3.5198,0.1798,0.0002,-0.0000,-0.9845,flat,18.0,3,2.577
6810,217.92,6.2464,3.1493,0.1797,0.0001,0.0001,-0.9434,rough,14.0,3,2.144
6820,218.24,6.5741,2.7185,0.1797,0.0002,-0.0001,-0.8828,flat,18.0,3,1.624
6830,218.56,6.9377,2.3040,0.1798,0.0003,0.0000,-0.8021,flat,18.0,3,1.100
6840,218.88,7.2787,1.9812,0.1769,0.0007,-0.0188,-0.7859,flat,18.0,0,9.147
6850,219.20,7.4306,1.7781,0.1778,-0.0129,-0.0002,-1.2879,flat,18.0,0,9.366
6860,219.52,7.5111,1.4754,0.1799,0.0003,0.0001,-1.8197,flat,18.0,0,9.562
6870,219.84,7.4123,1.1764,0.1799,0.0001,-0.0001,-2.2092,flat,18.0,0,9.602
6880,220.16,7.1411,0.8928,0.1799,0.0000,-0.0001,-2.4961,flat,18.0,0,9.493
6890,220.48,6.7518,0.6478,0.1799,-0.0000,-0.0000,-2.7587,flat,18.0,0,9.278
6900,220.80,6.2774,0.4855,0.1799,-0.0000,-0.0000,-2.9960,flat,18.0,0,8.966
6910,221.12,5.7536,0.4300,0.1799,-0.0001,-0.0000,3.0825,flat,18.0,0,8.567
6920,221.44,5.2133,0.4793,0.1799,-0.0001,-0.0000,2.9291,flat,18.0,0,8.106
6930,221.76,4.6791,0.6100,0.1798,-0.0004,-0.0000,2.8171,flat,18.0,0,7.607
6940,222.08,4.1579,0.7989,0.1798,-0.0004,-0.0000,2.7325,flat,18.0,0,7.088
6950,222.40,3.6508,1.0311,0.1797,-0.0003,-0.0000,2.6654,flat,18.0,0,6.555
6960,222.72,3.1576,1.2970,0.1797,-0.0002,-0.0000,2.6100,flat,18.0,0,6.014
6970,223.04,2.6777,1.5901,0.1797,-0.0002,-0.0000,2.5631,flat,18.0,0,5.466
6980,223.36,2.2111,1.9055,0.1797,-0.0001,-0.0000,2.5240,flat,18.0,0,4.914
6990,223.68,1.7561,2.2391,0.1797,-0.0001,-0.0000,2.4885,flat,18.0,0,4.360
7000,224.00,1.3125,2.5890,0.1797,-0.0001,-0.0000,2.4553,flat,18.0,0,3.804
7010,224.32,0.8804,2.9536,0.1797,-0.0001,-0.0000,2.4231,flat,18.0,0,3.246
7020,224.64,0.4600,3.3321,0.1797,-0.0001,-0.0000,2.3899,flat,18.0,0,2.688
7030,224.96,0.0530,3.7245,0.1797,-0.0001,0.0000,2.3551,flat,18.0,0,2.131
7040,225.28,-0.3383,4.1305,0.1797,-0.0001,0.0000,2.3155,flat,18.0,0,1.576
7050,225.60,-0.7085,4.5508,0.1797,-0.0002,0.0000,2.2635,flat,18.0,0,1.026
7060,225.92,-1.0376,4.9832,0.1799,0.0000,-0.0000,2.1389,flat,18.0,1,2.387
7070,226.24,-1.2992,5.4453,0.1799,-0.0001,0.0006,1.9649,rough,14.0,1,1.945
7080,226.56,-1.4527,5.8413,0.1798,-0.0003,0.0000,1.8259,rough,14.0,1,1.589
7090,226.88,-1.5649,6.3316,0.1799,-0.0000,-0.0000,1.6360,flat,18.0,1,1.173
7100,227.20,-1.5761,6.8514,0.1799,0.0000,0.0002,1.3413,flat,18.0,2,8.214
7110,227.52,-1.4729,7.2407,0.1798,0.0001,0.0001,1.0972,flat,18.0,2,8.299
7120,227.84,-1.2845,7.5379,0.1798,0.0001,0.0002,0.7975,rough,14.0,2,8.282
7130,228.16,-1.0446,7.7457,0.1798,-0.0001,-0.0001,0.5862,rough,14.0,2,8.188
7140,228.48,-0.6808,7.9561,0.1799,-0.0000,-0.0001,0.3486,flat,18.0,2,8.006
7150,228.80,-0.2084,8.0997,0.1799,-0.0001,-0.0000,0.0945,flat,18.0,2,7.715
7160,229.12,0.3120,8.1263,0.1799,-0.0001,0.0000,-0.1190,flat,18.0,2,7.333
7170,229.44,0.8428,8.0430,0.1799,-0.0001,-0.0000,-0.2828,flat,18.0,2,6.885
7180,229.76,1.3620,7.8740,0.1799,-0.0003,-0.0000,-0.4025,flat,18.0,2,6.397
7190,230.08,1.8628,7.6442,0.1798,-0.0004,-0.0000,-0.4938,flat,18.0,2,5.886
7200,230.40,2.3446,7.3690,0.1798,-0.0003,-0.0000,-0.5675,flat,18.0,2,5.361
7210,230.72,2.8082,7.0585,0.1797,-0.0002,-0.0000,-0.6286,flat,18.0,2,4.826
7220,231.04,3.2541,6.7197,0.1797,-0.0002,-0.0000,-0.6817,flat,18.0,2,4.285
7230,231.36,3.6829,6.3573,0.1797,-0.0002,-0.0000,-0.7295,flat,18.0,2,3.739
7240,231.68,4.0940,5.9743,0.1797,-0.0002,-0.0000,-0.7757,flat,18.0,2,3.192
7250,232.00,4.4870,5.5725,0.1797,-0.0002,0.0000,-0.8214,flat,18.0,2,2.644
7260,232.32,4.8597,5.1534,0.1797,-0.0002,0.0000,-0.8697,flat,18.0,2,2.096
7270,232.64,5.2106,4.7177,0.1797,-0.0002,-0.0000,-0.9254,flat,18.0,2,1.552
7280,232.96,5.5351,4.2630,0.1798,-0.0003,0.0000,-1.0019,flat,18.0,2,1.012
7290,233.28,5.8202,3.7904,0.1798,-0.0002,-0.0001,-1.0193,flat,18.0,3,2.887
7300,233.60,6.1026,3.3487,0.1798,0.0001,0.0003,-0.9706,rough,14.0,3,2.382
7310,233.92,6.3664,2.9781,0.1798,0.0001,-0.0003,-0.9240,flat,18.0,3,1.944
7320,234.24,6.7128,2.5444,0.1797,0.0002,-0.0000,-0.8546,flat,18.0,3,1.414
7330,234.56,7.0873,2.1461,0.1798,0.0003,0.0000,-0.7590,flat,18.0,3,0.898
7340,234.88,7.3378,1.9083,0.1794,0.0004,-0.0032,-1.0218,flat,18.0,0,9.229
7350,235.20,7.4745,1.6640,0.1792,-0.0041,-0.0001,-1.4950,flat,18.0,0,9.451
7360,235.52,7.4893,1.3487,0.1799,0.0003,0.0000,-1.9933,flat,18.0,0,9.596
7370,235.84,7.3172,1.0560,0.1799,0.0001,-0.0001,-2.3318,flat,18.0,0,9.572
7380,236.16,6.9931,0.7838,0.1799,0.0000,-0.0000,-2.6041,flat,18.0,0,9.417
7390,236.48,6.5656,0.5675,0.1799,-0.0000,-0.0000,-2.8578,flat,18.0,0,9.162
7400,236.80,6.0671,0.4467,0.1799,-0.0000,-0.0000,-3.0831,flat,18.0,0,8.813
7410,237.12,5.5330,0.4354,0.1799,-0.0001,-0.0000,3.0148,flat,18.0,0,8.386
7420,237.44,4.9935,0.5209,0.1799,-0.0002,-0.0000,2.8793,flat,18.0,0,7.908
7430,237.76,4.4643,0.6775,0.1798,-0.0004,-0.0000,2.7801,flat,18.0,0,7.399
7440,238.08,3.9489,0.8854,0.1798,-0.0003,-0.0000,2.7034,flat,18.0,0,6.874
7450,238.40,3.4476,1.1324,0.1797,-0.0002,-0.0000,2.6415,flat,18.0,0,6.337
7460,238.72,2.9599,1.4101,0.1797,-0.0002,-0.0000,2.5897,flat,18.0,0,5.793
7470,239.04,2.4857,1.7130,0.1797,-0.0002,-0.0000,2.5464,flat,18.0,0,5.244
7480,239.36,2.0240,2.0363,0.1797,-0.0001,-0.0000,2.5089,flat,18.0,0,4.691
7490,239.68,1.5737,2.3769,0.1797,-0.0001,-0.0000,2.4744,flat,18.0,0,4.136
7500,240.00,1.1349,2.7331,0.1797,-0.0001,-0.0000,2.4418,flat,18.0,0,3.579
7510,240.32,0.7077,3.1036,0.1797,-0.0001,-0.0000,2.4094,flat,18.0,0,3.021
7520,240.64,0.2926,3.4879,0.1797,-0.0001,0.0000,2.3756,flat,18.0,0,2.463
7530,240.96,-0.1082,3.8860,0.1797,-0.0001,0.0000,2.3395,flat,18.0,0,1.906
7540,241.28,-0.4914,4.2980,0.1797,-0.0001,0.0000,2.2961,flat,18.0,0,1.353
7550,241.60,-0.8513,4.7247,0.1797,-0.0002,0.0000,2.2331,flat,18.0,0,0.808
7560,241.92,-1.1542,5.1673,0.1799,-0.0000,-0.0000,2.0674,flat,18.0,1,2.207
7570,242.24,-1.3676,5.6033,0.1798,-0.0002,0.0001,1.9102,rough,14.0,1,1.801
7580,242.56,-1.5014,6.0212,0.1798,-0.0003,-0.0004,1.7762,flat,18.0,1,1.432
7590,242.88,-1.5861,6.5449,0.1799,-0.0001,-0.0000,1.5241,flat,18.0,1,1.001
7600,243.20,-1.5431,7.0195,0.1799,0.0003,0.0000,1.2537,flat,18.0,2,8.258
7610,243.52,-1.4085,7.3708,0.1798,0.0002,0.0000,0.9778,flat,18.0,2,8.305
7620,243.84,-1.2019,7.6181,0.1798,0.0001,0.0000,0.7221,rough,14.0,2,8.253
7630,244.16,-0.9282,7.8255,0.1798,0.0000,-0.0003,0.5105,flat,18.0,2,8.135
7640,244.48,-0.5107,8.0256,0.1799,-0.0000,-0.0000,0.2504,flat,18.0,2,7.909
7650,244.80,-0.0162,8.1271,0.1799,-0.0001,-0.0000,0.0089,flat,18.0,2,7.583
7660,245.12,0.5120,8.1103,0.1799,-0.0001,0.0000,-0.1853,flat,18.0,2,7.173
7670,245.44,1.0402,7.9919,0.1799,-0.0001,-0.0000,-0.3321,flat,18.0,2,6.707
7680,245.76,1.5527,7.7977,0.1798,-0.0004,-0.0000,-0.4394,flat,18.0,2,6.210
7690,246.08,2.0463,7.5494,0.1798,-0.0004,-0.0000,-0.5233,flat,18.0,2,5.693
7700,246.40,2.5211,7.2599,0.1797,-0.0003,-0.0000,-0.5918,flat,18.0,2,5.163
7710,246.72,2.9779,6.9380,0.1797,-0.0002,-0.0000,-0.6495,flat,18.0,2,4.626
7720,247.04,3.4173,6.5898,0.1797,-0.0002,-0.0000,-0.7003,flat,18.0,2,4.083
7730,247.36,3.8394,6.2194,0.1797,-0.0002,-0.0000,-0.7473,flat,18.0,2,3.537
7740,247.68,4.2438,5.8290,0.1797,-0.0002,-0.0000,-0.7930,flat,18.0,2,2.989
7750,248.00,4.6293,5.4204,0.1797,-0.0002,0.0000,-0.8396,flat,18.0,2,2.441
7760,248.32,4.9938,4.9953,0.1797,-0.0002,0.0000,-0.8892,flat,18.0,2,1.895
7770,248.64,5.3358,4.5523,0.1797,-0.0002,0.0000,-0.9513,flat,18.0,2,1.351
7780,248.96,5.6462,4.0905,0.1798,-0.0003,0.0000,-1.0416,flat,18.0,2,0.817
7790,249.28,5.9316,3.6148,0.1798,0.0001,-0.0000,-0.9955,flat,18.0,3,2.686
7800,249.60,6.1955,3.2212,0.1797,0.0001,0.0001,-0.9520,rough,14.0,3,2.229
7810,249.92,6.5041,2.8066,0.1797,0.0002,-0.0001,-0.8960,flat,18.0,3,1.732
7820,250.24,6.8621,2.3851,0.1798,0.0003,-0.0000,-0.8207,flat,18.0,3,1.205
7830,250.56,7.2305,2.0223,0.1798,0.0003,0.0005,-0.7299,flat,18.0,0,9.087
7840,250.88,7.4043,1.8293,0.1744,-0.0340,-0.0006,-1.1916,flat,18.0,0,9.321
7850,251.20,7.5079,1.5400,0.1798,0.0000,-0.0000,-1.7225,flat,18.0,0,9.532
7860,251.52,7.4462,1.2365,0.1799,0.0001,-0.0001,-2.1420,flat,18.0,0,9.606
7870,251.84,7.2053,0.9487,0.1799,0.0001,-0.0001,-2.4416,flat,18.0,0,9.523
7880,252.16,6.8367,0.6925,0.1799,-0.0000,-0.0000,-2.7079,flat,18.0,0,9.328
7890,252.48,6.3766,0.5108,0.1799,-0.0000,-0.0000,-2.9509,flat,18.0,0,9.034
7900,252.80,5.8599,0.4331,0.1799,-0.0000,-0.0000,3.1195,flat,18.0,0,8.652
7910,253.12,5.3206,0.4631,0.1799,-0.0001,-0.0000,2.9563,flat,18.0,0,8.200
7920,253.44,4.7841,0.5796,0.1799,-0.0003,-0.0000,2.8368,flat,18.0,0,7.708
7930,253.76,4.2602,0.7583,0.1798,-0.0004,-0.0000,2.7478,flat,18.0,0,7.192
7940,254.08,3.7503,0.9827,0.1798,-0.0003,-0.0000,2.6778,flat,18.0,0,6.661
7950,254.40,3.2543,1.2425,0.1797,-0.0002,-0.0000,2.6203,flat,18.0,0,6.121
7960,254.72,2.7717,1.5305,0.1797,-0.0002,-0.0000,2.5718,flat,18.0,0,5.575
7970,255.04,2.3026,1.8418,0.1797,-0.0001,-0.0000,2.5315,flat,18.0,0,5.024
7980,255.36,1.8453,2.1720,0.1797,-0.0001,-0.0000,2.4954,flat,18.0,0,4.470
7990,255.68,1.3994,2.5188,0.1797,-0.0001,-0.0000,2.4618,flat,18.0,0,3.914
8000,256.00,0.9650,2.8806,0.1797,-0.0001,-0.0000,2.4296,flat,18.0,0,3.357
8010,256.32,0.5422,3.2563,0.1797,-0.0001,-0.0000,2.3967,flat,18.0,0,2.799
8020,256.64,0.1323,3.6459,0.1797,-0.0001,0.0000,2.3623,flat,18.0,0,2.241
8030,256.96,-0.2623,4.0492,0.1797,-0.0001,0.0000,2.3241,flat,18.0,0,1.685
8040,257.28,-0.6372,4.4665,0.1797,-0.0002,0.0000,2.2757,flat,18.0,0,1.134
8050,257.60,-0.9773,4.8958,0.1798,-0.0001,-0.0000,2.1723,flat,18.0,1,2.475
8060,257.92,-1.2571,5.3570,0.1799,-0.0001,-0.0000,1.9960,flat,18.0,1,2.027
8070,258.24,-1.4266,5.7618,0.1798,-0.0003,0.0001,1.8547,rough,14.0,1,1.659
8080,258.56,-1.5470,6.2273,0.1799,-0.0001,-0.0000,1.6869,flat,18.0,1,1.259
8090,258.88,-1.5844,6.7523,0.1799,-0.0001,0.0000,1.4088,flat,18.0,1,0.837
8100,259.20,-1.4994,7.1713,0.1798,0.0001,0.0001,1.1516,flat,18.0,2,8.289
8110,259.52,-1.3290,7.4863,0.1798,0.0002,-0.0000,0.8499,rough,14.0,2,8.294
8120,259.84,-1.1054,7.7008,0.1798,-0.0000,-0.0001,0.6383,rough,14.0,2,8.215
