step,time_s,x,y,z,roll,pitch,yaw,terrain,speed,target_idx,dist_to_target
10,0.32,0.0036,-0.0580,0.1723,-0.0000,-0.0182,0.0000,flat,18.0,0,5.396
20,0.64,0.3004,-0.0629,0.1791,-0.0000,0.0025,-0.0591,flat,18.0,0,5.163
30,0.96,0.7132,-0.1112,0.1799,0.0001,-0.0000,-0.3981,flat,18.0,0,4.823
40,1.28,1.1290,-0.3317,0.1799,-0.0000,-0.0000,-0.6589,flat,18.0,0,4.370
50,1.60,1.5124,-0.6734,0.1799,-0.0002,-0.0001,-0.8039,flat,18.0,0,3.857
60,1.92,1.8770,-1.0808,0.1798,-0.0003,-0.0001,-0.8749,flat,18.0,0,3.312
70,2.24,2.2389,-1.5204,0.1797,-0.0000,-0.0000,-0.8802,flat,18.0,0,2.746
80,2.56,2.6007,-1.9455,0.1797,0.0001,0.0000,-0.8408,flat,18.0,0,2.192
90,2.88,2.9689,-2.3357,0.1797,0.0002,0.0001,-0.7815,flat,18.0,0,1.658
100,3.20,3.3106,-2.6581,0.1797,0.0002,0.0001,-0.7201,flat,18.0,0,1.189
110,3.52,3.6535,-2.9490,0.1798,0.0001,0.0000,-0.7563,flat,18.0,1,6.947
120,3.84,3.9310,-3.2874,0.1799,0.0001,-0.0000,-1.1207,flat,18.0,1,6.872
130,4.16,4.0978,-3.7121,0.1799,0.0000,-0.0000,-1.5788,flat,18.0,1,6.684
140,4.48,4.0593,-4.1576,0.1799,-0.0001,-0.0000,-1.9882,flat,18.0,1,6.353
150,4.80,3.8329,-4.5629,0.1799,-0.0000,-0.0000,-2.2603,flat,18.0,1,5.918
160,5.12,3.4873,-4.9143,0.1799,-0.0000,-0.0000,-2.4545,flat,18.0,1,5.428
170,5.44,3.0664,-5.2170,0.1799,-0.0001,-0.0000,-2.6215,flat,18.0,1,4.910
180,5.76,2.5849,-5.4676,0.1799,-0.0003,-0.0001,-2.7368,flat,18.0,1,4.381
190,6.08,2.0606,-5.6826,0.1798,-0.0001,-0.0000,-2.7659,flat,18.0,1,3.849
200,6.40,1.5436,-5.8933,0.1797,0.0001,0.0000,-2.7205,flat,18.0,1,3.337
210,6.72,1.0519,-6.1247,0.1797,0.0002,0.0000,-2.6475,flat,18.0,1,2.842
220,7.04,0.5955,-6.3892,0.1798,0.0003,0.0000,-2.5413,flat,18.0,1,2.359
230,7.36,0.1853,-6.7010,0.1799,0.0003,0.0000,-2.4089,flat,18.0,1,1.880
240,7.68,-0.1586,-7.0415,0.1798,0.0003,0.0001,-2.3049,flat,18.0,1,1.424
250,8.00,-0.4290,-7.3682,0.1798,0.0003,0.0001,-2.1818,flat,18.0,1,1.025
260,8.32,-0.6806,-7.7542,0.1798,0.0001,-0.0002,-2.1424,flat,18.0,2,4.619
270,8.64,-0.9442,-8.1528,0.1797,-0.0001,0.0001,-2.1901,rough,14.0,2,4.820
280,8.96,-1.1532,-8.4303,0.1797,-0.0001,-0.0001,-2.2738,flat,18.0,2,4.972
290,9.28,-1.3842,-8.6774,0.1797,-0.0002,0.0001,-2.3958,flat,18.0,2,5.106
300,9.60,-1.6088,-8.8606,0.1797,-0.0002,0.0001,-2.5514,flat,18.0,2,5.200
310,9.92,-1.8292,-8.9952,0.1797,-0.0002,0.0000,-2.7397,flat,18.0,2,5.262
320,10.24,-2.0452,-9.0872,0.1797,-0.0002,0.0000,-2.9572,flat,18.0,2,5.296
330,10.56,-2.2546,-9.1367,0.1797,-0.0002,0.0000,3.0840,flat,18.0,2,5.300
340,10.88,-2.4551,-9.1343,0.1797,-0.0002,-0.0000,2.8788,flat,18.0,2,5.262
350,11.20,-2.6506,-9.0845,0.1797,-0.0002,-0.0000,2.7193,flat,18.0,2,5.186
360,11.52,-2.8456,-8.9918,0.1797,-0.0001,-0.0000,2.6023,flat,18.0,2,5.073
370,11.84,-3.0498,-8.8602,0.1797,-0.0001,-0.0001,2.5077,flat,18.0,2,4.929
380,12.16,-3.2687,-8.6871,0.1797,-0.0001,-0.0001,2.4317,flat,18.0,2,4.750
390,12.48,-3.5088,-8.4682,0.1797,-0.0001,-0.0001,2.3691,flat,18.0,2,4.537
400,12.80,-3.7753,-8.1958,0.1797,-0.0001,-0.0001,2.3217,flat,18.0,2,4.287
410,13.12,-4.0763,-7.8622,0.1797,-0.0001,-0.0001,2.2905,flat,18.0,2,4.005
420,13.44,-4.4248,-7.4590,0.1797,-0.0000,-0.0002,2.2800,flat,18.0,2,3.703
430,13.76,-4.7378,-7.0693,0.1799,0.0001,0.0000,2.1140,flat,18.0,2,3.454
440,14.08,-4.9530,-6.6393,0.1799,-0.0000,-0.0000,1.7815,flat,18.0,2,3.178
450,14.40,-5.0256,-6.1580,0.1799,-0.0000,-0.0000,1.4283,flat,18.0,2,2.824
460,14.72,-4.9279,-5.6725,0.1799,-0.0000,-0.0000,1.1820,flat,18.0,2,2.392
470,15.04,-4.7082,-5.2048,0.1799,-0.0002,-0.0000,1.0272,flat,18.0,2,1.909
480,15.36,-4.4388,-4.7820,0.1798,-0.0002,0.0001,0.9591,flat,18.0,2,1.433
490,15.68,-4.1809,-4.4336,0.1797,-0.0002,0.0001,0.8820,flat,18.0,2,1.028
500,16.00,-3.9071,-4.0896,0.1799,-0.0001,-0.0001,0.9842,flat,18.0,3,10.551
510,16.32,-3.6555,-3.6474,0.1799,0.0001,-0.0000,1.2044,flat,18.0,3,10.057
520,16.64,-3.4861,-3.1405,0.1799,0.0001,-0.0000,1.3671,flat,18.0,3,9.523
530,16.96,-3.3856,-2.5909,0.1798,0.0003,-0.0000,1.4391,flat,18.0,3,8.966
540,17.28,-3.3118,-2.0241,0.1797,0.0000,0.0000,1.4343,flat,18.0,3,8.401
550,17.60,-3.2315,-1.4676,0.1797,-0.0001,0.0000,1.3912,flat,18.0,3,7.845
560,17.92,-3.1250,-0.9187,0.1797,-0.0002,-0.0000,1.3349,flat,18.0,3,7.289
570,18.24,-2.9875,-0.3751,0.1797,-0.0002,-0.0000,1.2867,flat,18.0,3,6.729
580,18.56,-2.8243,0.1649,0.1797,-0.0001,-0.0000,1.2554,flat,18.0,3,6.165
590,18.88,-2.6446,0.7044,0.1797,-0.0001,-0.0000,1.2366,flat,18.0,3,5.596
600,19.20,-2.4551,1.2449,0.1797,-0.0000,-0.0000,1.2284,flat,18.0,3,5.024
610,19.52,-2.2615,1.7868,0.1797,-0.0000,-0.0000,1.2278,flat,18.0,3,4.449
620,19.84,-2.0688,2.3282,0.1797,0.0000,0.0000,1.2317,flat,18.0,3,3.875
630,20.16,-1.8788,2.8699,0.1797,0.0000,0.0000,1.2376,flat,18.0,3,3.302
640,20.48,-1.6919,3.4127,0.1797,0.0000,-0.0000,1.2433,flat,18.0,3,2.728
650,20.80,-1.5078,3.9570,0.1797,0.0000,-0.0000,1.2478,flat,18.0,3,2.155
660,21.12,-1.3317,4.4849,0.1797,0.0000,0.0001,1.2506,flat,18.0,3,1.600
670,21.44,-1.1789,4.9461,0.1797,0.0000,0.0001,1.2515,flat,18.0,3,1.117
680,21.76,-1.0534,5.3292,0.1797,-0.0000,0.0001,1.2070,flat,18.0,0,10.211
690,22.08,-0.9369,5.6147,0.1798,0.0001,0.0002,0.8774,flat,18.0,0,10.398
700,22.40,-0.7817,5.7315,0.1798,0.0004,-0.0001,0.1399,flat,18.0,0,10.424
710,22.72,-0.4626,5.7535,0.1799,0.0002,-0.0002,-0.4599,flat,18.0,0,10.294
720,23.04,-0.0605,5.5108,0.1798,-0.0005,-0.0003,-0.7193,flat,18.0,0,9.898
730,23.36,0.2596,5.1648,0.1799,-0.0000,-0.0000,-0.9728,flat,18.0,0,9.448
740,23.68,0.5090,4.7316,0.1799,-0.0000,-0.0000,-1.2212,flat,18.0,0,8.950
750,24.00,0.6639,4.2302,0.1799,-0.0001,-0.0000,-1.4223,flat,18.0,0,8.430
760,24.32,0.7294,3.6804,0.1798,-0.0003,-0.0001,-1.5181,flat,18.0,0,7.906
770,24.64,0.7587,3.1146,0.1797,0.0000,0.0000,-1.4916,flat,18.0,0,7.390
780,24.96,0.8107,2.5697,0.1798,0.0004,0.0000,-1.3861,flat,18.0,0,6.888
790,25.28,0.9231,2.0461,0.1799,0.0003,0.0000,-1.2561,flat,18.0,0,6.379
800,25.60,1.1044,1.5431,0.1799,0.0004,-0.0000,-1.1380,flat,18.0,0,5.856
810,25.92,1.3459,1.0580,0.1798,0.0004,-0.0000,-1.0480,flat,18.0,0,5.318
820,26.24,1.6324,0.5857,0.1797,0.0002,-0.0000,-0.9884,flat,18.0,0,4.765
830,26.56,1.9484,0.1204,0.1797,0.0001,-0.0000,-0.9576,flat,18.0,0,4.203
840,26.88,2.2797,-0.3443,0.1797,0.0000,-0.0000,-0.9460,flat,18.0,0,3.633
850,27.20,2.6159,-0.8105,0.1797,-0.0000,0.0000,-0.9476,flat,18.0,0,3.059
860,27.52,2.9482,-1.2761,0.1797,-0.0000,0.0000,-0.9569,flat,18.0,0,2.489
870,27.84,3.2743,-1.7440,0.1797,-0.0000,0.0000,-0.9697,flat,18.0,0,1.920
880,28.16,3.5699,-2.1785,0.1797,-0.0000,0.0001,-0.9799,flat,18.0,0,1.396
890,28.48,3.8292,-2.5730,0.1797,-0.0001,-0.0001,-1.0248,flat,18.0,1,7.351
900,28.80,4.0436,-2.9831,0.1799,0.0001,-0.0000,-1.3844,flat,18.0,1,7.173
910,29.12,4.0884,-3.4104,0.1799,0.0000,-0.0000,-1.9062,flat,18.0,1,6.890
920,29.44,3.8995,-3.8172,0.1799,0.0000,-0.0000,-2.2248,flat,18.0,1,6.468
930,29.76,3.5662,-4.1801,0.1799,-0.0000,-0.0000,-2.4166,flat,18.0,1,5.976
940,30.08,3.1510,-4.5086,0.1799,-0.0003,-0.0001,-2.5427,flat,18.0,1,5.450
950,30.40,2.6815,-4.8118,0.1798,-0.0002,-0.0001,-2.5929,flat,18.0,1,4.905
960,30.72,2.1989,-5.1100,0.1797,0.0000,0.0000,-2.5732,flat,18.0,1,4.358
970,31.04,1.7386,-5.4153,0.1797,0.0002,0.0000,-2.5207,flat,18.0,1,3.826
980,31.36,1.3050,-5.7434,0.1797,0.0002,0.0000,-2.4483,flat,18.0,1,3.298
990,31.68,0.9014,-6.1029,0.1798,0.0003,-0.0000,-2.3677,flat,18.0,1,2.769
1000,32.00,0.5248,-6.4968,0.1797,0.0003,-0.0000,-2.2943,flat,18.0,1,2.231
1010,32.32,0.1740,-6.9143,0.1797,0.0002,0.0000,-2.2438,flat,18.0,1,1.690
1020,32.64,-0.1259,-7.2988,0.1797,0.0001,0.0001,-2.2176,flat,18.0,1,1.206
1030,32.96,-0.3953,-7.6699,0.1797,0.0001,-0.0002,-2.1789,flat,18.0,2,4.718
1040,33.28,-0.6834,-8.0730,0.1797,-0.0001,0.0001,-2.2195,flat,18.0,2,4.884
1050,33.60,-0.9404,-8.3932,0.1797,-0.0002,0.0002,-2.3018,rough,14.0,2,5.033
1060,33.92,-1.1566,-8.6134,0.1797,-0.0002,-0.0000,-2.4066,flat,18.0,2,5.136
1070,34.24,-1.3933,-8.8030,0.1797,-0.0002,0.0001,-2.5536,flat,18.0,2,5.219
1080,34.56,-1.6244,-8.9435,0.1797,-0.0002,0.0000,-2.7328,flat,18.0,2,5.273
1090,34.88,-1.8502,-9.0399,0.1797,-0.0002,0.0000,-2.9406,flat,18.0,2,5.300
1100,35.20,-2.0695,-9.0933,0.1797,-0.0002,0.0000,3.1094,flat,18.0,2,5.297
1110,35.52,-2.2802,-9.0950,0.1797,-0.0002,-0.0000,2.9045,flat,18.0,2,5.254
1120,35.84,-2.4858,-9.0483,0.1797,-0.0002,-0.0000,2.7445,flat,18.0,2,5.173
1130,36.16,-2.6912,-8.9579,0.1797,-0.0001,-0.0000,2.6242,flat,18.0,2,5.055
1140,36.48,-2.9048,-8.8274,0.1797,-0.0001,-0.0001,2.5298,flat,18.0,2,4.905
1150,36.80,-3.1335,-8.6554,0.1797,-0.0001,-0.0001,2.4539,flat,18.0,2,4.721
1160,37.12,-3.3836,-8.4375,0.1797,-0.0001,-0.0001,2.3932,flat,18.0,2,4.502
1170,37.44,-3.6617,-8.1672,0.1797,-0.0001,-0.0001,2.3467,flat,18.0,2,4.247
1180,37.76,-3.9758,-7.8368,0.1797,-0.0001,-0.0001,2.3169,flat,18.0,2,3.961
1190,38.08,-4.3363,-7.4417,0.1797,-0.0000,-0.0000,2.3071,flat,18.0,2,3.660
1200,38.40,-4.6442,-7.0704,0.1799,0.0001,0.0000,2.0970,flat,18.0,2,3.417
1210,38.72,-4.8437,-6.6483,0.1799,-0.0000,-0.0000,1.7061,flat,18.0,2,3.129
1220,39.04,-4.8744,-6.1753,0.1799,-0.0000,-0.0000,1.3267,flat,18.0,2,2.747
1230,39.36,-4.7258,-5.7050,0.1799,-0.0000,-0.0000,1.0950,flat,18.0,2,2.283
1240,39.68,-4.4649,-5.2537,0.1799,-0.0003,0.0000,0.9727,flat,18.0,2,1.771
1250,40.00,-4.1795,-4.8504,0.1798,-0.0001,0.0001,0.9356,flat,18.0,2,1.281
1260,40.32,-3.9072,-4.4902,0.1797,-0.0001,-0.0001,0.9108,flat,18.0,3,10.936
1270,40.64,-3.5987,-4.0635,0.1799,0.0002,-0.0001,1.0219,flat,18.0,3,10.443
1280,40.96,-3.3459,-3.6087,0.1799,0.0002,0.0003,1.1571,rough,14.0,3,9.940
1290,41.28,-3.1461,-3.1212,0.1798,0.0002,-0.0001,1.2063,flat,18.0,3,9.419
1300,41.60,-2.9533,-2.5931,0.1797,0.0002,-0.0000,1.2579,flat,18.0,3,8.861
1310,41.92,-2.7864,-2.0543,0.1797,0.0002,-0.0000,1.3007,flat,18.0,3,8.299
1320,42.24,-2.6396,-1.5064,0.1797,0.0001,-0.0000,1.3293,flat,18.0,3,7.732
1330,42.56,-2.5057,-0.9511,0.1797,0.0001,-0.0000,1.3448,flat,18.0,3,7.161
1340,42.88,-2.3780,-0.3909,0.1797,0.0000,-0.0000,1.3494,flat,18.0,3,6.586
1350,43.20,-2.2515,0.1701,0.1797,-0.0000,0.0000,1.3471,flat,18.0,3,6.011
1360,43.52,-2.1235,0.7294,0.1797,-0.0000,0.0000,1.3411,flat,18.0,3,5.438
1370,43.84,-1.9919,1.2877,0.1797,-0.0000,-0.0000,1.3345,flat,18.0,3,4.864
1380,44.16,-1.8567,1.8455,0.1797,-0.0000,-0.0000,1.3289,flat,18.0,3,4.290
1390,44.48,-1.7184,2.4033,0.1797,-0.0000,-0.0000,1.3252,flat,18.0,3,3.716
1400,44.80,-1.5782,2.9612,0.1797,-0.0000,-0.0000,1.3232,flat,18.0,3,3.141
1410,45.12,-1.4369,3.5194,0.1797,-0.0000,-0.0000,1.3227,flat,18.0,3,2.566
1420,45.44,-1.2956,4.0776,0.1797,0.0000,0.0000,1.3230,flat,18.0,3,1.992
1430,45.76,-1.1635,4.6001,0.1797,0.0000,0.0001,1.3236,flat,18.0,3,1.455
1440,46.08,-1.0494,5.0524,0.1797,0.0000,0.0001,1.3243,flat,18.0,0,0.992
1450,46.40,-0.9559,5.4232,0.1797,-0.0001,0.0001,1.2381,flat,18.0,0,10.242
1460,46.72,-0.8578,5.6889,0.1798,0.0001,0.0002,0.8250,flat,18.0,0,10.424
1470,47.04,-0.7217,5.7912,0.1798,0.0004,-0.0001,-0.1382,flat,18.0,0,10.448
1480,47.36,-0.4742,5.7309,0.1798,0.0003,-0.0002,-0.8290,flat,18.0,0,10.279
1490,47.68,-0.2188,5.3689,0.1790,-0.0050,-0.0002,-1.1098,flat,18.0,0,9.841
1500,48.00,-0.0149,4.8882,0.1799,-0.0002,-0.0000,-1.3126,flat,18.0,0,9.320
1510,48.32,0.1091,4.3504,0.1798,-0.0003,-0.0001,-1.4126,flat,18.0,0,8.786
1520,48.64,0.1973,3.7892,0.1797,0.0000,0.0000,-1.3988,flat,18.0,0,8.251
1530,48.96,0.2991,3.2483,0.1798,0.0003,0.0000,-1.3137,flat,18.0,0,7.731
1540,49.28,0.4492,2.7290,0.1798,0.0004,0.0000,-1.2065,flat,18.0,0,7.209
1550,49.60,0.6557,2.2294,0.1798,0.0004,-0.0000,-1.1086,flat,18.0,0,6.676
1560,49.92,0.9119,1.7458,0.1798,0.0003,-0.0000,-1.0339,flat,18.0,0,6.131
1570,50.24,1.2056,1.2732,0.1797,0.0002,-0.0000,-0.9857,flat,18.0,0,5.574
1580,50.56,1.5230,0.8058,0.1797,0.0001,-0.0000,-0.9611,flat,18.0,0,5.010
1590,50.88,1.8528,0.3384,0.1797,0.0000,-0.0000,-0.9524,flat,18.0,0,4.438
1600,51.20,2.1859,-0.1301,0.1797,-0.0000,0.0000,-0.9545,flat,18.0,0,3.864
1610,51.52,2.5151,-0.5982,0.1797,-0.0000,0.0000,-0.9632,flat,18.0,0,3.293
1620,51.84,2.8392,-1.0688,0.1797,-0.0000,0.0000,-0.9744,flat,18.0,0,2.722
1630,52.16,3.1582,-1.5431,0.1797,-0.0000,-0.0000,-0.9852,flat,18.0,0,2.152
1640,52.48,3.4631,-2.0061,0.1797,-0.0000,0.0001,-0.9924,flat,18.0,0,1.599
1650,52.80,3.7265,-2.4117,0.1797,-0.0000,0.0001,-0.9988,flat,18.0,0,1.117
1660,53.12,3.9664,-2.8248,0.1798,0.0001,0.0001,-1.1947,flat,18.0,1,7.242
1670,53.44,4.0983,-3.2427,0.1799,0.0001,-0.0000,-1.7281,flat,18.0,1,7.018
1680,53.76,3.9911,-3.6636,0.1799,-0.0000,-0.0000,-2.1194,flat,18.0,1,6.641
1690,54.08,3.7044,-4.0436,0.1799,-0.0000,-0.0000,-2.3519,flat,18.0,1,6.171
1700,54.40,3.3168,-4.3846,0.1799,-0.0001,-0.0000,-2.5008,flat,18.0,1,5.655
1710,54.72,2.8655,-4.6962,0.1798,-0.0003,-0.0001,-2.5826,flat,18.0,1,5.116
1720,55.04,2.3810,-4.9953,0.1797,-0.0000,0.0000,-2.5858,flat,18.0,1,4.565
1730,55.36,1.9124,-5.2961,0.1797,0.0001,0.0000,-2.5431,flat,18.0,1,4.029
1740,55.68,1.4680,-5.6145,0.1797,0.0002,0.0000,-2.4770,flat,18.0,1,3.500
1750,56.00,1.0528,-5.9616,0.1798,0.0003,0.0000,-2.3983,flat,18.0,1,2.972
1760,56.32,0.6668,-6.3425,0.1798,0.0003,-0.0000,-2.3206,flat,18.0,1,2.438
1770,56.64,0.3035,-6.7557,0.1797,0.0002,0.0000,-2.2579,flat,18.0,1,1.893
1780,56.96,-0.0179,-7.1578,0.1797,0.0001,0.0001,-2.2299,flat,18.0,1,1.382
1790,57.28,-0.2900,-7.5205,0.1797,0.0001,-0.0000,-2.1844,flat,18.0,2,4.668
1800,57.60,-0.5836,-7.9410,0.1797,-0.0000,0.0001,-2.1961,flat,18.0,2,4.828
1810,57.92,-0.8484,-8.2921,0.1797,-0.0001,0.0001,-2.2645,flat,18.0,2,4.988
1820,58.24,-1.0611,-8.5300,0.1797,-0.0001,0.0002,-2.3662,rough,14.0,2,5.101
1830,58.56,-1.2928,-8.7313,0.1797,-0.0002,0.0000,-2.4995,flat,18.0,2,5.190
1840,58.88,-1.5278,-8.8893,0.1797,-0.0002,0.0000,-2.6663,flat,18.0,2,5.253
1850,59.20,-1.7575,-9.0016,0.1797,-0.0002,0.0000,-2.8630,flat,18.0,2,5.289
1860,59.52,-1.9812,-9.0710,0.1797,-0.0002,0.0000,-3.0863,flat,18.0,2,5.296
1870,59.84,-2.1970,-9.0923,0.1797,-0.0002,0.0000,2.9741,flat,18.0,2,5.268
1880,60.16,-2.4056,-9.0621,0.1797,-0.0002,-0.0000,2.8002,flat,18.0,2,5.199
1890,60.48,-2.6125,-8.9870,0.1797,-0.0002,-0.0000,2.6653,flat,18.0,2,5.094
1900,60.80,-2.8241,-8.8703,0.1797,-0.0001,-0.0000,2.5639,flat,18.0,2,4.954
1910,61.12,-3.0488,-8.7131,0.1797,-0.0001,-0.0001,2.4819,flat,18.0,2,4.782
1920,61.44,-3.2925,-8.5115,0.1797,-0.0001,-0.0001,2.4168,flat,18.0,2,4.574
1930,61.76,-3.5624,-8.2604,0.1797,-0.0001,-0.0001,2.3648,flat,18.0,2,4.332
1940,62.08,-3.8652,-7.9517,0.1797,-0.0001,-0.0001,2.3295,flat,18.0,2,4.057
1950,62.40,-4.2121,-7.5784,0.1797,-0.0001,-0.0001,2.3126,flat,18.0,2,3.758
1960,62.72,-4.5517,-7.1955,0.1798,0.0000,0.0002,2.2048,flat,18.0,2,3.497
1970,63.04,-4.7864,-6.7990,0.1799,0.0000,-0.0000,1.8281,flat,18.0,2,3.234
1980,63.36,-4.8752,-6.3348,0.1799,-0.0000,-0.0000,1.4222,flat,18.0,2,2.879
1990,63.68,-4.7731,-5.8605,0.1799,-0.0001,-0.0000,1.1520,flat,18.0,2,2.434
2000,64.00,-4.5383,-5.4014,0.1799,-0.0002,-0.0000,0.9966,flat,18.0,2,1.930
2010,64.32,-4.2513,-4.9802,0.1798,-0.0002,0.0001,0.9444,flat,18.0,2,1.425
2020,64.64,-3.9815,-4.6147,0.1797,-0.0001,0.0001,0.9236,flat,18.0,3,0.975
2030,64.96,-3.6782,-4.2057,0.1798,0.0001,-0.0001,0.9903,flat,18.0,3,10.601
2040,65.28,-3.4087,-3.7537,0.1799,0.0002,0.0002,1.1283,rough,14.0,3,10.096
2050,65.60,-3.2101,-3.2996,0.1798,0.0002,-0.0001,1.1842,flat,18.0,3,9.608
2060,65.92,-3.0069,-2.7774,0.1797,0.0002,-0.0000,1.2407,flat,18.0,3,9.053
2070,66.24,-2.8323,-2.2426,0.1797,0.0002,-0.0000,1.2924,flat,18.0,3,8.493
2080,66.56,-2.6822,-1.6971,0.1797,0.0001,-0.0000,1.3263,flat,18.0,3,7.928
2090,66.88,-2.5474,-1.1432,0.1797,0.0001,-0.0000,1.3454,flat,18.0,3,7.357
2100,67.20,-2.4205,-0.5834,0.1797,0.0000,-0.0000,1.3519,flat,18.0,3,6.784
2110,67.52,-2.2956,-0.0219,0.1797,-0.0000,0.0000,1.3501,flat,18.0,3,6.208
2120,67.84,-2.1692,0.5377,0.1797,-0.0000,0.0000,1.3438,flat,18.0,3,5.635
2130,68.16,-2.0391,1.0961,0.1797,-0.0000,-0.0000,1.3364,flat,18.0,3,5.061
2140,68.48,-1.9048,1.6538,0.1797,-0.0000,-0.0000,1.3300,flat,18.0,3,4.488
2150,68.80,-1.7671,2.2114,0.1797,-0.0000,-0.0000,1.3255,flat,18.0,3,3.914
2160,69.12,-1.6270,2.7692,0.1797,-0.0000,-0.0000,1.3231,flat,18.0,3,3.339
2170,69.44,-1.4857,3.3272,0.1797,-0.0000,-0.0000,1.3224,flat,18.0,3,2.764
2180,69.76,-1.3441,3.8855,0.1797,0.0000,0.0000,1.3226,flat,18.0,3,2.189
2190,70.08,-1.2066,4.4286,0.1797,0.0000,0.0001,1.3233,flat,18.0,3,1.631
2200,70.40,-1.0866,4.9039,0.1797,0.0000,0.0001,1.3240,flat,18.0,3,1.144
2210,70.72,-0.9861,5.3028,0.1797,-0.0000,0.0001,1.2929,flat,18.0,0,10.154
2220,71.04,-0.8921,5.6283,0.1798,0.0001,0.0002,1.0469,flat,18.0,0,10.388
2230,71.36,-0.7807,5.7705,0.1798,0.0003,0.0000,0.2554,flat,18.0,0,10.458
2240,71.68,-0.5796,5.8130,0.1799,0.0003,-0.0002,-0.6353,flat,18.0,0,10.401
2250,72.00,-0.3221,5.5481,0.1777,-0.0128,-0.0003,-1.0407,flat,18.0,0,10.047
2260,72.32,-0.0995,5.0943,0.1798,-0.0007,-0.0000,-1.2567,flat,18.0,0,9.542
2270,72.64,0.0472,4.5723,0.1799,-0.0003,-0.0001,-1.3941,flat,18.0,0,9.011
2280,72.96,0.1405,4.0117,0.1798,-0.0001,-0.0000,-1.4123,flat,18.0,0,8.473
2290,73.28,0.2331,3.4639,0.1798,0.0002,0.0000,-1.3454,flat,18.0,0,7.951
2300,73.60,0.3658,2.9379,0.1798,0.0004,0.0000,-1.2409,flat,18.0,0,7.431
2310,73.92,0.5545,2.4323,0.1798,0.0004,-0.0000,-1.1378,flat,18.0,0,6.902
2320,74.24,0.7961,1.9441,0.1798,0.0004,-0.0000,-1.0550,flat,18.0,0,6.360
2330,74.56,1.0792,1.4685,0.1797,0.0002,-0.0000,-0.9980,flat,18.0,0,5.807
2340,74.88,1.3905,1.0001,0.1797,0.0001,-0.0000,-0.9670,flat,18.0,0,5.245
2350,75.20,1.7173,0.5331,0.1797,0.0001,-0.0000,-0.9537,flat,18.0,0,4.675
2360,75.52,2.0505,0.0646,0.1797,0.0000,0.0000,-0.9530,flat,18.0,0,4.101
2370,75.84,2.3812,-0.4033,0.1797,-0.0000,0.0000,-0.9599,flat,18.0,0,3.529
2380,76.16,2.7070,-0.8728,0.1797,-0.0000,0.0000,-0.9707,flat,18.0,0,2.959
2390,76.48,3.0275,-1.3459,0.1797,-0.0000,-0.0000,-0.9819,flat,18.0,0,2.388
2400,76.80,3.3419,-1.8207,0.1797,-0.0000,0.0000,-0.9908,flat,18.0,0,1.820
2410,77.12,3.6225,-2.2510,0.1797,-0.0000,0.0001,-0.9965,flat,18.0,0,1.308
2420,77.44,3.8758,-2.6550,0.1798,-0.0001,0.0000,-1.0700,flat,18.0,1,7.315
2430,77.76,4.0667,-3.0665,0.1799,0.0001,-0.0000,-1.4999,flat,18.0,1,7.126
2440,78.08,4.0592,-3.4949,0.1799,0.0000,-0.0000,-1.9862,flat,18.0,1,6.809
2450,78.40,3.8333,-3.8930,0.1799,0.0000,-0.0000,-2.2721,flat,18.0,1,6.368
2460,78.72,3.4796,-4.2483,0.1799,-0.0001,-0.0000,-2.4466,flat,18.0,1,5.867
2470,79.04,3.0514,-4.5712,0.1798,-0.0003,-0.0001,-2.5580,flat,18.0,1,5.335
2480,79.36,2.5746,-4.8732,0.1798,-0.0001,-0.0000,-2.5909,flat,18.0,1,4.787
2490,79.68,2.0973,-5.1726,0.1797,0.0001,0.0000,-2.5615,flat,18.0,1,4.244
2500,80.00,1.6428,-5.4828,0.1797,0.0002,0.0000,-2.5041,flat,18.0,1,3.713
2510,80.32,1.2159,-5.8182,0.1797,0.0003,0.0000,-2.4297,flat,18.0,1,3.185
2520,80.64,0.8189,-6.1857,0.1798,0.0003,-0.0000,-2.3499,flat,18.0,1,2.654
2530,80.96,0.4470,-6.5871,0.1797,0.0003,-0.0000,-2.2804,flat,18.0,1,2.112
2540,81.28,0.1048,-7.0029,0.1797,0.0001,0.0001,-2.2405,flat,18.0,1,1.578
2550,81.60,-0.1840,-7.3762,0.1797,0.0001,0.0001,-2.2126,flat,18.0,1,1.110
2560,81.92,-0.4679,-7.7774,0.1797,0.0001,-0.0001,-2.1818,flat,18.0,2,4.760
2570,82.24,-0.7452,-8.1615,0.1797,-0.0001,0.0001,-2.2324,flat,18.0,2,4.927
2580,82.56,-0.9848,-8.4507,0.1797,-0.0002,0.0003,-2.3204,rough,14.0,2,5.064
2590,82.88,-1.1918,-8.6489,0.1797,-0.0002,-0.0001,-2.4418,flat,18.0,2,5.154
2600,83.20,-1.4300,-8.8275,0.1797,-0.0002,0.0000,-2.5951,flat,18.0,2,5.229
2610,83.52,-1.6625,-8.9581,0.1797,-0.0002,0.0000,-2.7796,flat,18.0,2,5.275
2620,83.84,-1.8895,-9.0451,0.1797,-0.0002,0.0000,-2.9919,flat,18.0,2,5.294
2630,84.16,-2.1094,-9.0876,0.1797,-0.0002,0.0000,3.0590,flat,18.0,2,5.282
2640,84.48,-2.3209,-9.0774,0.1797,-0.0002,-0.0000,2.8668,flat,18.0,2,5.229
2650,84.80,-2.5288,-9.0202,0.1797,-0.0002,-0.0000,2.7158,flat,18.0,2,5.138
2660,85.12,-2.7378,-8.9198,0.1797,-0.0001,-0.0000,2.6034,flat,18.0,2,5.012
2670,85.44,-2.9571,-8.7793,0.1797,-0.0001,-0.0001,2.5139,flat,18.0,2,4.853
2680,85.76,-3.1930,-8.5961,0.1797,-0.0001,-0.0001,2.4424,flat,18.0,2,4.660
2690,86.08,-3.4523,-8.3658,0.1797,-0.0001,-0.0001,2.3851,flat,18.0,2,4.432
2700,86.40,-3.7415,-8.0812,0.1797,-0.0001,-0.0001,2.3431,flat,18.0,2,4.170
2710,86.72,-4.0698,-7.7349,0.1797,-0.0001,-0.0001,2.3183,flat,18.0,2,3.879
2720,87.04,-4.4316,-7.3409,0.1797,-0.0000,0.0001,2.2933,flat,18.0,2,3.593
2730,87.36,-4.7094,-6.9681,0.1799,0.0001,-0.0000,1.9871,flat,18.0,2,3.351
2740,87.68,-4.8680,-6.5250,0.1799,-0.0000,-0.0000,1.5813,flat,18.0,2,3.036
2750,88.00,-4.8398,-6.0488,0.1799,-0.0001,-0.0000,1.2454,flat,18.0,2,2.625
2760,88.32,-4.6512,-5.5832,0.1799,-0.0001,-0.0000,1.0478,flat,18.0,2,2.142
2770,88.64,-4.3733,-5.1419,0.1798,-0.0002,0.0001,0.9572,flat,18.0,2,1.626
2780,88.96,-4.0924,-4.7536,0.1797,-0.0001,0.0001,0.9313,flat,18.0,2,1.151
2790,89.28,-3.8079,-4.3783,0.1797,-0.0000,-0.0001,0.9368,flat,18.0,3,10.802
2800,89.60,-3.5122,-3.9360,0.1799,0.0002,-0.0000,1.0698,flat,18.0,3,10.298
2810,89.92,-3.2847,-3.4757,0.1798,0.0003,-0.0000,1.1940,flat,18.0,3,9.797
