step,time_s,x,y,z,roll,pitch,yaw,terrain,speed,target_idx,dist_to_target
10,0.32,1.0670,-0.7750,0.1830,-0.0000,-0.0362,-0.0000,rough,14.0,0,5.686
20,0.64,1.5067,-0.7881,0.1797,-0.0000,-0.0009,-0.1486,flat,18.0,0,5.354
30,0.96,2.0246,-0.8879,0.1799,-0.0001,-0.0000,-0.3355,flat,18.0,0,4.921
40,1.28,2.5253,-1.0855,0.1799,-0.0002,-0.0000,-0.4773,flat,18.0,0,4.444
50,1.60,2.9992,-1.3534,0.1798,-0.0004,-0.0000,-0.5870,flat,18.0,0,3.941
60,1.92,3.4487,-1.6735,0.1798,-0.0003,-0.0000,-0.6679,flat,18.0,0,3.420
70,2.24,3.8717,-2.0293,0.1798,-0.0003,-0.0000,-0.7446,flat,18.0,0,2.894
80,2.56,4.2640,-2.4173,0.1798,-0.0003,-0.0000,-0.8242,flat,18.0,0,2.364
90,2.88,4.6250,-2.8361,0.1798,-0.0004,-0.0000,-0.9103,flat,18.0,0,1.832
100,3.20,4.9489,-3.2845,0.1798,-0.0004,-0.0000,-1.0099,flat,18.0,0,1.298
110,3.52,5.2244,-3.7610,0.1799,-0.0002,0.0000,-1.1409,flat,18.0,1,0.769
120,3.84,5.3087,-3.9967,0.1798,0.0008,-0.0014,-0.5828,flat,18.0,1,12.280
130,4.16,5.5227,-4.1329,0.1780,-0.0037,-0.0049,-0.1613,flat,18.0,1,12.484
140,4.48,5.8400,-4.1789,0.1798,-0.0004,-0.0001,0.3278,flat,18.0,1,12.644
150,4.80,6.1480,-4.0421,0.1799,-0.0000,-0.0001,0.6784,flat,18.0,1,12.639
160,5.12,6.4418,-3.7431,0.1799,0.0000,-0.0000,0.9412,flat,18.0,1,12.491
170,5.44,6.6930,-3.3361,0.1799,0.0000,-0.0000,1.1792,flat,18.0,1,12.241
180,5.76,6.8654,-2.8513,0.1799,0.0001,-0.0000,1.3896,flat,18.0,1,11.897
190,6.08,6.9425,-2.3203,0.1799,0.0001,0.0000,1.5674,flat,18.0,1,11.477
200,6.40,6.9277,-1.7705,0.1799,0.0002,-0.0000,1.7065,flat,18.0,1,11.002
210,6.72,6.8403,-1.2219,0.1798,0.0004,-0.0000,1.8044,flat,18.0,1,10.494
220,7.04,6.7011,-0.6805,0.1798,0.0003,-0.0000,1.8774,flat,18.0,1,9.968
230,7.36,6.5234,-0.1475,0.1797,0.0002,-0.0000,1.9343,flat,18.0,1,9.431
240,7.68,6.3159,0.3769,0.1797,0.0002,-0.0000,1.9797,flat,18.0,1,8.885
250,8.00,6.0852,0.8926,0.1797,0.0001,-0.0000,2.0155,flat,18.0,1,8.334
260,8.32,5.8362,1.4012,0.1797,0.0001,-0.0000,2.0462,flat,18.0,1,7.780
270,8.64,5.5716,1.9033,0.1797,0.0001,-0.0000,2.0729,flat,18.0,1,7.222
280,8.96,5.2937,2.3992,0.1797,0.0001,-0.0000,2.0965,flat,18.0,1,6.663
290,9.28,5.0042,2.8891,0.1797,0.0001,-0.0000,2.1177,flat,18.0,1,6.102
300,9.60,4.7042,3.3735,0.1797,0.0001,-0.0000,2.1370,flat,18.0,1,5.540
310,9.92,4.3950,3.8526,0.1797,0.0001,-0.0000,2.1548,flat,18.0,1,4.977
320,10.24,4.0772,4.3264,0.1797,0.0001,-0.0000,2.1715,flat,18.0,1,4.415
330,10.56,3.7515,4.7951,0.1797,0.0001,-0.0000,2.1876,flat,18.0,1,3.852
340,10.88,3.4183,5.2585,0.1797,0.0001,-0.0000,2.2033,flat,18.0,1,3.290
350,11.20,3.0778,5.7165,0.1797,0.0001,0.0000,2.2193,flat,18.0,1,2.730
360,11.52,2.7300,6.1686,0.1797,0.0001,0.0000,2.2364,flat,18.0,1,2.174
370,11.84,2.3745,6.6136,0.1797,0.0001,0.0000,2.2559,flat,18.0,1,1.625
380,12.16,2.0107,7.0492,0.1797,0.0001,0.0000,2.2813,flat,18.0,1,1.094
390,12.48,1.6703,7.4349,0.1798,-0.0000,0.0005,2.4082,flat,18.0,2,15.620
400,12.80,1.3801,7.6438,0.1799,-0.0002,-0.0001,2.7584,flat,18.0,2,15.612
410,13.12,0.9739,7.7807,0.1799,0.0000,-0.0000,3.0801,flat,18.0,2,15.486
420,13.44,0.4972,7.7869,0.1799,0.0000,-0.0000,-2.9391,flat,18.0,2,15.223
430,13.76,0.0031,7.6623,0.1799,0.0001,-0.0000,-2.7479,flat,18.0,2,14.851
440,14.08,-0.4792,7.4368,0.1799,0.0002,-0.0000,-2.6053,flat,18.0,2,14.406
450,14.40,-0.9368,7.1399,0.1798,0.0004,-0.0000,-2.5019,flat,18.0,2,13.918
460,14.72,-1.3718,6.7961,0.1798,0.0003,-0.0000,-2.4308,flat,18.0,2,13.404
470,15.04,-1.7838,6.4213,0.1797,0.0002,-0.0000,-2.3685,flat,18.0,2,12.878
480,15.36,-2.1746,6.0204,0.1797,0.0002,-0.0000,-2.3157,flat,18.0,2,12.340
490,15.68,-2.5464,5.5992,0.1797,0.0002,-0.0000,-2.2706,flat,18.0,2,11.796
500,16.00,-2.9017,5.1618,0.1797,0.0001,-0.0000,-2.2321,flat,18.0,2,11.245
510,16.32,-3.2423,4.7104,0.1797,0.0001,-0.0000,-2.1980,flat,18.0,2,10.690
520,16.64,-3.5693,4.2470,0.1797,0.0001,-0.0000,-2.1678,flat,18.0,2,10.131
530,16.96,-3.8836,3.7735,0.1797,0.0001,-0.0000,-2.1408,flat,18.0,2,9.569
540,17.28,-4.1863,3.2912,0.1797,0.0001,-0.0000,-2.1166,flat,18.0,2,9.004
550,17.60,-4.4783,2.8014,0.1797,0.0001,-0.0000,-2.0949,flat,18.0,2,8.438
560,17.92,-4.7605,2.3051,0.1797,0.0001,-0.0000,-2.0753,flat,18.0,2,7.870
570,18.24,-5.0335,1.8031,0.1797,0.0001,-0.0000,-2.0575,flat,18.0,2,7.301
580,18.56,-5.2981,1.2961,0.1797,0.0001,-0.0000,-2.0412,flat,18.0,2,6.731
590,18.88,-5.5548,0.7846,0.1797,0.0001,-0.0000,-2.0262,flat,18.0,2,6.160
600,19.20,-5.8043,0.2692,0.1797,0.0000,-0.0000,-2.0122,flat,18.0,2,5.589
610,19.52,-6.0467,-0.2498,0.1797,0.0000,-0.0000,-1.9991,flat,18.0,2,5.017
620,19.84,-6.2826,-0.7720,0.1797,0.0000,-0.0000,-1.9865,flat,18.0,2,4.445
630,20.16,-6.5121,-1.2972,0.1797,0.0000,-0.0000,-1.9743,flat,18.0,2,3.872
640,20.48,-6.7351,-1.8251,0.1797,0.0000,-0.0000,-1.9622,flat,18.0,2,3.300
650,20.80,-6.9518,-2.3557,0.1797,0.0000,0.0000,-1.9497,flat,18.0,2,2.727
660,21.12,-7.1616,-2.8888,0.1797,0.0000,0.0000,-1.9360,flat,18.0,2,2.154
670,21.44,-7.3636,-3.4242,0.1797,0.0001,0.0000,-1.9197,flat,18.0,2,1.582
680,21.76,-7.5557,-3.9617,0.1797,0.0001,0.0000,-1.8961,flat,18.0,2,1.011
690,22.08,-7.7272,-4.4754,0.1799,0.0003,0.0000,-1.9968,flat,18.0,3,0.806
700,22.40,-7.8439,-4.8055,0.1798,-0.0002,0.0001,-1.7649,flat,18.0,0,13.192
710,22.72,-7.8952,-5.1165,0.1798,-0.0000,0.0003,-1.3576,rough,14.0,0,13.253
720,23.04,-7.8092,-5.4389,0.1799,0.0001,-0.0003,-1.1018,flat,18.0,0,13.186
730,23.36,-7.5770,-5.8106,0.1799,0.0000,-0.0001,-0.8520,flat,18.0,0,12.986
740,23.68,-7.2242,-6.1500,0.1799,0.0000,-0.0000,-0.6591,flat,18.0,0,12.674
750,24.00,-6.7912,-6.4443,0.1799,0.0001,-0.0000,-0.4863,flat,18.0,0,12.287
760,24.32,-6.2990,-6.6777,0.1799,0.0001,-0.0000,-0.3355,flat,18.0,0,11.842
770,24.64,-5.7688,-6.8443,0.1799,0.0003,-0.0000,-0.2114,flat,18.0,0,11.354
780,24.96,-5.2183,-6.9498,0.1798,0.0004,-0.0000,-0.1130,flat,18.0,0,10.839
790,25.28,-4.6571,-7.0039,0.1798,0.0004,-0.0000,-0.0343,flat,18.0,0,10.306
800,25.60,-4.0912,-7.0157,0.1797,0.0002,-0.0000,0.0282,flat,18.0,0,9.760
810,25.92,-3.5252,-6.9941,0.1797,0.0002,-0.0000,0.0748,flat,18.0,0,9.208
820,26.24,-2.9596,-6.9470,0.1797,0.0001,-0.0000,0.1119,flat,18.0,0,8.652
830,26.56,-2.3950,-6.8796,0.1797,0.0001,-0.0000,0.1426,flat,18.0,0,8.091
840,26.88,-1.8318,-6.7953,0.1797,0.0001,-0.0000,0.1686,flat,18.0,0,7.528
850,27.20,-1.2702,-6.6965,0.1797,0.0001,-0.0000,0.1911,flat,18.0,0,6.964
860,27.52,-0.7102,-6.5854,0.1797,0.0001,-0.0000,0.2107,flat,18.0,0,6.397
870,27.84,-0.1520,-6.4635,0.1797,0.0001,-0.0000,0.2282,flat,18.0,0,5.830
880,28.16,0.4044,-6.3319,0.1797,0.0001,-0.0000,0.2439,flat,18.0,0,5.262
890,28.48,0.9590,-6.1917,0.1797,0.0001,-0.0000,0.2584,flat,18.0,0,4.693
900,28.80,1.5117,-6.0435,0.1797,0.0000,-0.0000,0.2719,flat,18.0,0,4.125
910,29.12,2.0625,-5.8880,0.1797,0.0000,-0.0000,0.2848,flat,18.0,0,3.556
920,29.44,2.6113,-5.7253,0.1797,0.0000,-0.0000,0.2976,flat,18.0,0,2.987
930,29.76,3.1577,-5.5556,0.1797,0.0000,0.0000,0.3109,flat,18.0,0,2.420
940,30.08,3.7014,-5.3786,0.1797,0.0001,0.0000,0.3256,flat,18.0,0,1.854
950,30.40,4.2412,-5.1935,0.1797,0.0001,0.0000,0.3441,flat,18.0,0,1.293
960,30.72,4.7708,-5.0017,0.1797,0.0000,0.0002,0.3916,flat,18.0,1,13.062
970,31.04,5.1401,-4.8239,0.1799,-0.0002,0.0000,0.6393,flat,18.0,1,13.004
980,31.36,5.4534,-4.5316,0.1799,0.0000,-0.0000,0.8909,flat,18.0,1,12.832
990,31.68,5.7275,-4.1319,0.1799,0.0000,-0.0000,1.1139,flat,18.0,1,12.558
1000,32.00,5.9321,-3.6545,0.1799,0.0001,-0.0000,1.3117,flat,18.0,1,12.198
1010,32.32,6.0513,-3.1272,0.1799,0.0001,-0.0000,1.4808,flat,18.0,1,11.767
1020,32.64,6.0850,-2.5751,0.1799,0.0002,-0.0000,1.6182,flat,18.0,1,11.286
1030,32.96,6.0466,-2.0184,0.1798,0.0004,-0.0000,1.7161,flat,18.0,1,10.773
1040,33.28,5.9563,-1.4648,0.1798,0.0003,-0.0000,1.7882,flat,18.0,1,10.243
1050,33.60,5.8273,-0.9164,0.1797,0.0002,-0.0000,1.8440,flat,18.0,1,9.702
1060,33.92,5.6685,-0.3740,0.1797,0.0002,-0.0000,1.8879,flat,18.0,1,9.153
1070,34.24,5.4867,0.1619,0.1797,0.0001,-0.0000,1.9223,flat,18.0,1,8.600
1080,34.56,5.2867,0.6926,0.1797,0.0001,-0.0000,1.9517,flat,18.0,1,8.043
1090,34.88,5.0712,1.2185,0.1797,0.0001,-0.0000,1.9771,flat,18.0,1,7.483
1100,35.20,4.8425,1.7397,0.1797,0.0001,-0.0000,1.9994,flat,18.0,1,6.922
1110,35.52,4.6023,2.2564,0.1797,0.0001,-0.0000,2.0191,flat,18.0,1,6.359
1120,35.84,4.3519,2.7689,0.1797,0.0001,-0.0000,2.0370,flat,18.0,1,5.795
1130,36.16,4.0924,3.2774,0.1797,0.0001,-0.0000,2.0533,flat,18.0,1,5.231
1140,36.48,3.8247,3.7819,0.1797,0.0001,-0.0000,2.0685,flat,18.0,1,4.666
1150,36.80,3.5493,4.2826,0.1797,0.0001,-0.0000,2.0828,flat,18.0,1,4.101
1160,37.12,3.2667,4.7794,0.1797,0.0000,-0.0000,2.0966,flat,18.0,1,3.537
1170,37.44,2.9773,5.2723,0.1797,0.0000,0.0000,2.1104,flat,18.0,1,2.974
1180,37.76,2.6812,5.7610,0.1797,0.0001,0.0000,2.1246,flat,18.0,1,2.413
1190,38.08,2.3780,6.2448,0.1797,0.0001,0.0000,2.1402,flat,18.0,1,1.857
1200,38.40,2.0675,6.7226,0.1797,0.0001,0.0000,2.1590,flat,18.0,1,1.311
1210,38.72,1.7483,7.1911,0.1797,0.0001,0.0000,2.1865,flat,18.0,2,0.796
1220,39.04,1.5084,7.4816,0.1798,-0.0003,0.0000,2.5116,flat,18.0,2,15.559
1230,39.36,1.1842,7.6753,0.1799,-0.0001,-0.0001,2.8555,flat,18.0,2,15.521
1240,39.68,0.7523,7.7782,0.1799,0.0000,-0.0000,-3.1162,flat,18.0,2,15.358
1250,40.00,0.2666,7.7433,0.1799,0.0000,-0.0000,-2.8751,flat,18.0,2,15.060
1260,40.32,-0.2254,7.5853,0.1799,0.0001,-0.0000,-2.7002,flat,18.0,2,14.665
1270,40.64,-0.7005,7.3351,0.1799,0.0002,-0.0000,-2.5688,flat,18.0,2,14.206
1280,40.96,-1.1503,7.0209,0.1798,0.0004,-0.0000,-2.4770,flat,18.0,2,13.709
1290,41.28,-1.5776,6.6661,0.1797,0.0002,-0.0000,-2.4093,flat,18.0,2,13.191
1300,41.60,-1.9817,6.2820,0.1797,0.0002,-0.0000,-2.3490,flat,18.0,2,12.662
1310,41.92,-2.3653,5.8734,0.1797,0.0002,-0.0000,-2.2980,flat,18.0,2,12.122
1320,42.24,-2.7303,5.4460,0.1797,0.0002,-0.0000,-2.2550,flat,18.0,2,11.576
1330,42.56,-3.0794,5.0029,0.1797,0.0001,-0.0000,-2.2175,flat,18.0,2,11.024
1340,42.88,-3.4140,4.5463,0.1797,0.0001,-0.0000,-2.1843,flat,18.0,2,10.468
1350,43.20,-3.7351,4.0784,0.1797,0.0001,-0.0000,-2.1548,flat,18.0,2,9.908
1360,43.52,-4.0436,3.6007,0.1797,0.0001,-0.0000,-2.1285,flat,18.0,2,9.345
1370,43.84,-4.3407,3.1147,0.1797,0.0001,-0.0000,-2.1049,flat,18.0,2,8.780
1380,44.16,-4.6272,2.6214,0.1797,0.0001,-0.0000,-2.0837,flat,18.0,2,8.213
1390,44.48,-4.9039,2.1219,0.1797,0.0001,-0.0000,-2.0645,flat,18.0,2,7.645
1400,44.80,-5.1717,1.6169,0.1797,0.0001,-0.0000,-2.0470,flat,18.0,2,7.076
1410,45.12,-5.4311,1.1071,0.1797,0.0001,-0.0000,-2.0310,flat,18.0,2,6.506
1420,45.44,-5.6827,0.5930,0.1797,0.0001,-0.0000,-2.0162,flat,18.0,2,5.935
1430,45.76,-5.9270,0.0750,0.1797,0.0000,-0.0000,-2.0023,flat,18.0,2,5.363
1440,46.08,-6.1644,-0.4463,0.1797,0.0000,-0.0000,-1.9893,flat,18.0,2,4.791
1450,46.40,-6.3952,-0.9708,0.1797,0.0000,-0.0000,-1.9767,flat,18.0,2,4.219
1460,46.72,-6.6195,-1.4982,0.1797,0.0000,-0.0000,-1.9644,flat,18.0,2,3.646
1470,47.04,-6.8373,-2.0284,0.1797,0.0000,-0.0000,-1.9520,flat,18.0,2,3.073
1480,47.36,-7.0484,-2.5610,0.1797,0.0000,0.0000,-1.9390,flat,18.0,2,2.501
1490,47.68,-7.2524,-3.0962,0.1797,0.0001,0.0000,-1.9244,flat,18.0,2,1.928
1500,48.00,-7.4478,-3.6336,0.1797,0.0001,0.0000,-1.9059,flat,18.0,2,1.356
1510,48.32,-7.6315,-4.1724,0.1797,0.0001,0.0000,-1.8752,flat,18.0,3,0.787
1520,48.64,-7.7924,-4.6425,0.1799,-0.0005,0.0004,-1.9234,rough,14.0,0,13.138
1530,48.96,-7.8755,-4.9150,0.1798,-0.0003,-0.0001,-1.5938,flat,18.0,0,13.226
1540,49.28,-7.8763,-5.2144,0.1799,-0.0001,-0.0002,-1.2590,flat,18.0,0,13.239
1550,49.60,-7.7451,-5.5580,0.1798,0.0001,-0.0002,-1.0258,flat,18.0,0,13.131
1560,49.92,-7.4751,-5.9230,0.1799,0.0000,-0.0001,-0.7956,flat,18.0,0,12.896
1570,50.24,-7.0976,-6.2513,0.1799,0.0000,-0.0000,-0.6092,flat,18.0,0,12.562
1580,50.56,-6.6462,-6.5297,0.1799,0.0001,-0.0000,-0.4419,flat,18.0,0,12.158
1590,50.88,-6.1413,-6.7445,0.1799,0.0001,-0.0000,-0.2975,flat,18.0,0,11.699
1600,51.20,-5.6041,-6.8929,0.1799,0.0004,-0.0000,-0.1809,flat,18.0,0,11.203
1610,51.52,-5.0498,-6.9827,0.1798,0.0004,-0.0000,-0.0883,flat,18.0,0,10.682
1620,51.84,-4.4868,-7.0235,0.1798,0.0003,-0.0000,-0.0141,flat,18.0,0,10.145
1630,52.16,-3.9207,-7.0243,0.1797,0.0002,-0.0000,0.0433,flat,18.0,0,9.598
1640,52.48,-3.3546,-6.9943,0.1797,0.0002,-0.0000,0.0873,flat,18.0,0,9.044
1650,52.80,-2.7895,-6.9404,0.1797,0.0001,-0.0000,0.1223,flat,18.0,0,8.487
1660,53.12,-2.2254,-6.8672,0.1797,0.0001,-0.0000,0.1516,flat,18.0,0,7.925
1670,53.44,-1.6627,-6.7778,0.1797,0.0001,-0.0000,0.1766,flat,18.0,0,7.362
1680,53.76,-1.1017,-6.6747,0.1797,0.0001,-0.0000,0.1983,flat,18.0,0,6.797
1690,54.08,-0.5424,-6.5596,0.1797,0.0001,-0.0000,0.2173,flat,18.0,0,6.230
1700,54.40,0.0151,-6.4340,0.1797,0.0001,-0.0000,0.2343,flat,18.0,0,5.663
1710,54.72,0.5707,-6.2991,0.1797,0.0001,-0.0000,0.2496,flat,18.0,0,5.095
1720,55.04,1.1246,-6.1557,0.1797,0.0001,-0.0000,0.2638,flat,18.0,0,4.526
1730,55.36,1.6765,-6.0045,0.1797,0.0000,-0.0000,0.2772,flat,18.0,0,3.957
1740,55.68,2.2265,-5.8460,0.1797,0.0000,-0.0000,0.2901,flat,18.0,0,3.388
1750,56.00,2.7744,-5.6804,0.1797,0.0000,0.0000,0.3030,flat,18.0,0,2.820
1760,56.32,3.3198,-5.5078,0.1797,0.0000,0.0000,0.3166,flat,18.0,0,2.253
1770,56.64,3.8621,-5.3276,0.1797,0.0001,0.0000,0.3322,flat,18.0,0,1.688
1780,56.96,4.3999,-5.1390,0.1797,0.0001,0.0000,0.3529,flat,18.0,0,1.129
1790,57.28,4.9020,-4.9543,0.1798,0.0001,0.0004,0.4416,flat,18.0,1,13.055
1800,57.60,5.2530,-4.7552,0.1799,-0.0001,-0.0000,0.7026,flat,18.0,1,12.975
1810,57.92,5.5588,-4.4347,0.1799,0.0000,-0.0000,0.9442,flat,18.0,1,12.778
1820,58.24,5.8189,-4.0151,0.1799,0.0000,-0.0000,1.1627,flat,18.0,1,12.485
1830,58.56,6.0040,-3.5239,0.1799,0.0001,-0.0000,1.3546,flat,18.0,1,12.108
1840,58.88,6.1021,-2.9890,0.1799,0.0001,-0.0000,1.5168,flat,18.0,1,11.665
1850,59.20,6.1164,-2.4346,0.1799,0.0003,-0.0000,1.6460,flat,18.0,1,11.175
1860,59.52,6.0634,-1.8785,0.1798,0.0004,-0.0000,1.7369,flat,18.0,1,10.658
1870,59.84,5.9619,-1.3263,0.1798,0.0003,-0.0000,1.8048,flat,18.0,1,10.125
1880,60.16,5.8240,-0.7796,0.1797,0.0002,-0.0000,1.8578,flat,18.0,1,9.581
1890,60.48,5.6578,-0.2393,0.1797,0.0001,-0.0000,1.8992,flat,18.0,1,9.032
1900,60.80,5.4700,0.2948,0.1797,0.0001,-0.0000,1.9324,flat,18.0,1,8.478
1910,61.12,5.2646,0.8238,0.1797,0.0001,-0.0000,1.9608,flat,18.0,1,7.920
1920,61.44,5.0443,1.3479,0.1797,0.0001,-0.0000,1.9855,flat,18.0,1,7.360
1930,61.76,4.8113,1.8673,0.1797,0.0001,-0.0000,2.0072,flat,18.0,1,6.799
1940,62.08,4.5670,2.3822,0.1797,0.0001,-0.0000,2.0266,flat,18.0,1,6.236
1950,62.40,4.3128,2.8930,0.1797,0.0001,-0.0000,2.0441,flat,18.0,1,5.671
1960,62.72,4.0497,3.3996,0.1797,0.0001,-0.0000,2.0601,flat,18.0,1,5.107
1970,63.04,3.7785,3.9024,0.1797,0.0001,-0.0000,2.0751,flat,18.0,1,4.542
1980,63.36,3.4998,4.4013,0.1797,0.0001,-0.0000,2.0893,flat,18.0,1,3.977
1990,63.68,3.2141,4.8962,0.1797,0.0000,-0.0000,2.1031,flat,18.0,1,3.413
2000,64.00,2.9214,5.3872,0.1797,0.0000,0.0000,2.1170,flat,18.0,1,2.851
2010,64.32,2.6220,5.8737,0.1797,0.0001,0.0000,2.1315,flat,18.0,1,2.291
2020,64.64,2.3156,6.3552,0.1797,0.0001,0.0000,2.1476,flat,18.0,1,1.736
2030,64.96,2.0015,6.8302,0.1797,0.0001,0.0000,2.1676,flat,18.0,1,1.195
2040,65.28,1.6888,7.2846,0.1797,0.0001,0.0004,2.2314,flat,18.0,2,15.513
2050,65.60,1.4480,7.5342,0.1798,-0.0003,-0.0000,2.5867,flat,18.0,2,15.564
2060,65.92,1.1141,7.7094,0.1799,0.0000,0.0001,2.9111,flat,18.0,2,15.508
2070,66.24,0.7325,7.7804,0.1798,0.0001,-0.0001,3.1012,flat,18.0,2,15.349
2080,66.56,0.2556,7.7760,0.1799,0.0001,-0.0001,-2.9207,flat,18.0,2,15.082
2090,66.88,-0.2366,7.6423,0.1799,0.0001,-0.0000,-2.7327,flat,18.0,2,14.707
2100,67.20,-0.7155,7.4089,0.1799,0.0002,-0.0000,-2.5912,flat,18.0,2,14.262
2110,67.52,-1.1691,7.1054,0.1798,0.0004,-0.0000,-2.4893,flat,18.0,2,13.773
2120,67.84,-1.5998,6.7559,0.1798,0.0003,-0.0000,-2.4188,flat,18.0,2,13.260
2130,68.16,-2.0069,6.3760,0.1797,0.0002,-0.0000,-2.3562,flat,18.0,2,12.733
2140,68.48,-2.3925,5.9703,0.1797,0.0002,-0.0000,-2.3028,flat,18.0,2,12.196
2150,68.80,-2.7586,5.5447,0.1797,0.0002,-0.0000,-2.2577,flat,18.0,2,11.652
2160,69.12,-3.1083,5.1027,0.1797,0.0001,-0.0000,-2.2186,flat,18.0,2,11.102
2170,69.44,-3.4428,4.6466,0.1797,0.0001,-0.0000,-2.1840,flat,18.0,2,10.546
2180,69.76,-3.7633,4.1787,0.1797,0.0001,-0.0000,-2.1533,flat,18.0,2,9.987
2190,70.08,-4.0708,3.7007,0.1797,0.0001,-0.0000,-2.1260,flat,18.0,2,9.425
2200,70.40,-4.3664,3.2140,0.1797,0.0001,-0.0000,-2.1015,flat,18.0,2,8.861
2210,70.72,-4.6510,2.7198,0.1797,0.0001,-0.0000,-2.0796,flat,18.0,2,8.295
2220,71.04,-4.9255,2.2192,0.1797,0.0001,-0.0000,-2.0597,flat,18.0,2,7.727
2230,71.36,-5.1907,1.7130,0.1797,0.0001,-0.0000,-2.0417,flat,18.0,2,7.158
2240,71.68,-5.4473,1.2019,0.1797,0.0001,-0.0000,-2.0252,flat,18.0,2,6.588
2250,72.00,-5.6959,0.6864,0.1797,0.0001,-0.0000,-2.0100,flat,18.0,2,6.017
2260,72.32,-5.9369,0.1670,0.1797,0.0001,-0.0000,-1.9958,flat,18.0,2,5.445
2270,72.64,-6.1709,-0.3559,0.1797,0.0000,-0.0000,-1.9825,flat,18.0,2,4.873
2280,72.96,-6.3981,-0.8819,0.1797,0.0000,-0.0000,-1.9697,flat,18.0,2,4.301
2290,73.28,-6.6186,-1.4109,0.1797,0.0000,-0.0000,-1.9572,flat,18.0,2,3.728
2300,73.60,-6.8326,-1.9425,0.1797,0.0000,-0.0000,-1.9447,flat,18.0,2,3.156
2310,73.92,-7.0399,-2.4767,0.1797,0.0000,0.0000,-1.9317,flat,18.0,2,2.583
2320,74.24,-7.2400,-3.0134,0.1797,0.0001,0.0000,-1.9172,flat,18.0,2,2.010
2330,74.56,-7.4318,-3.5523,0.1797,0.0001,0.0000,-1.8994,flat,18.0,2,1.438
2340,74.88,-7.6124,-4.0928,0.1797,0.0001,0.0000,-1.8716,flat,18.0,2,0.869
2350,75.20,-7.7692,-4.5882,0.1800,-0.0005,0.0004,-1.9247,flat,18.0,0,13.114
2360,75.52,-7.8510,-4.8814,0.1798,-0.0003,-0.0000,-1.6400,flat,18.0,0,13.201
2370,75.84,-7.8675,-5.1788,0.1799,-0.0001,-0.0003,-1.2951,flat,18.0,0,13.229
2380,76.16,-7.7471,-5.5263,0.1799,0.0000,-0.0001,-1.0456,flat,18.0,0,13.130
2390,76.48,-7.4869,-5.8934,0.1799,0.0000,-0.0001,-0.8103,flat,18.0,0,12.905
2400,76.80,-7.1158,-6.2247,0.1799,0.0000,-0.0000,-0.6224,flat,18.0,0,12.576
2410,77.12,-6.6692,-6.5075,0.1799,0.0001,-0.0000,-0.4535,flat,18.0,0,12.177
2420,77.44,-6.1675,-6.7273,0.1799,0.0001,-0.0000,-0.3074,flat,18.0,0,11.722
2430,77.76,-5.6321,-6.8804,0.1799,0.0003,-0.0000,-0.1887,flat,18.0,0,11.228
2440,78.08,-5.0787,-6.9742,0.1798,0.0004,-0.0000,-0.0945,flat,18.0,0,10.708
2450,78.40,-4.5162,-7.0185,0.1798,0.0003,-0.0000,-0.0191,flat,18.0,0,10.172
2460,78.72,-3.9501,-7.0219,0.1797,0.0002,-0.0000,0.0397,flat,18.0,0,9.626
2470,79.04,-3.3840,-6.9940,0.1797,0.0002,-0.0000,0.0844,flat,18.0,0,9.072
2480,79.36,-2.8188,-6.9417,0.1797,0.0001,-0.0000,0.1199,flat,18.0,0,8.515
2490,79.68,-2.2546,-6.8698,0.1797,0.0001,-0.0000,0.1496,flat,18.0,0,7.954
2500,80.00,-1.6918,-6.7815,0.1797,0.0001,-0.0000,0.1749,flat,18.0,0,7.391
2510,80.32,-1.1307,-6.6793,0.1797,0.0001,-0.0000,0.1968,flat,18.0,0,6.826
2520,80.64,-0.5713,-6.5650,0.1797,0.0001,-0.0000,0.2160,flat,18.0,0,6.259
2530,80.96,-0.0137,-6.4401,0.1797,0.0001,-0.0000,0.2331,flat,18.0,0,5.692
2540,81.28,0.5421,-6.3059,0.1797,0.0001,-0.0000,0.2486,flat,18.0,0,5.124
2550,81.60,1.0961,-6.1631,0.1797,0.0001,-0.0000,0.2629,flat,18.0,0,4.555
2560,81.92,1.6482,-6.0124,0.1797,0.0000,-0.0000,0.2763,flat,18.0,0,3.986
2570,82.24,2.1983,-5.8544,0.1797,0.0000,-0.0000,0.2893,flat,18.0,0,3.418
2580,82.56,2.7463,-5.6892,0.1797,0.0000,0.0000,0.3022,flat,18.0,0,2.849
2590,82.88,3.2918,-5.5170,0.1797,0.0000,0.0000,0.3158,flat,18.0,0,2.282
2600,83.20,3.8344,-5.3373,0.1797,0.0001,0.0000,0.3312,flat,18.0,0,1.717
2610,83.52,4.3724,-5.1492,0.1797,0.0001,0.0000,0.3516,flat,18.0,0,1.158
2620,83.84,4.8753,-4.9651,0.1798,0.0001,0.0004,0.4389,flat,18.0,1,13.057
2630,84.16,5.2272,-4.7671,0.1799,-0.0001,-0.0000,0.6996,flat,18.0,1,12.978
2640,84.48,5.5335,-4.4477,0.1799,0.0000,-0.0000,0.9413,flat,18.0,1,12.781
2650,84.80,5.7946,-4.0290,0.1799,0.0000,-0.0000,1.1597,flat,18.0,1,12.488
2660,85.12,5.9811,-3.5384,0.1799,0.0001,-0.0000,1.3515,flat,18.0,1,12.111
2670,85.44,6.0808,-3.0038,0.1799,0.0001,-0.0000,1.5138,flat,18.0,1,11.669
2680,85.76,6.0968,-2.4494,0.1799,0.0003,-0.0000,1.6433,flat,18.0,1,11.179
2690,86.08,6.0452,-1.8932,0.1798,0.0004,-0.0000,1.7345,flat,18.0,1,10.662
2700,86.40,5.9449,-1.3407,0.1798,0.0003,-0.0000,1.8026,flat,18.0,1,10.129
2710,86.72,5.8083,-0.7937,0.1797,0.0002,-0.0000,1.8556,flat,18.0,1,9.586
2720,87.04,5.6433,-0.2530,0.1797,0.0002,-0.0000,1.8970,flat,18.0,1,9.036
2730,87.36,5.4566,0.2815,0.1797,0.0001,-0.0000,1.9303,flat,18.0,1,8.482
2740,87.68,5.2524,0.8109,0.1797,0.0001,-0.0000,1.9588,flat,18.0,1,7.925
2750,88.00,5.0332,1.3354,0.1797,0.0001,-0.0000,1.9834,flat,18.0,1,7.365
2760,88.32,4.8012,1.8553,0.1797,0.0001,-0.0000,2.0051,flat,18.0,1,6.803
2770,88.64,4.5580,2.3708,0.1797,0.0001,-0.0000,2.0245,flat,18.0,1,6.240
2780,88.96,4.3048,2.8821,0.1797,0.0001,-0.0000,2.0420,flat,18.0,1,5.676
2790,89.28,4.0428,3.3893,0.1797,0.0001,-0.0000,2.0580,flat,18.0,1,5.111
2800,89.60,3.7727,3.8926,0.1797,0.0001,-0.0000,2.0730,flat,18.0,1,4.546
2810,89.92,3.4950,4.3921,0.1797,0.0001,-0.0000,2.0872,flat,18.0,1,3.981
2820,90.24,3.2103,4.8877,0.1797,0.0000,-0.0000,2.1010,flat,18.0,1,3.417
2830,90.56,2.9187,5.3792,0.1797,0.0000,0.0000,2.1148,flat,18.0,1,2.855
2840,90.88,2.6204,5.8665,0.1797,0.0001,0.0000,2.1293,flat,18.0,1,2.295
2850,91.20,2.3150,6.3487,0.1797,0.0001,0.0000,2.1453,flat,18.0,1,1.740
2860,91.52,2.0020,6.8244,0.1797,0.0001,0.0000,2.1653,flat,18.0,1,1.198
2870,91.84,1.6903,7.2797,0.1797,0.0001,0.0004,2.2288,flat,18.0,2,15.510
2880,92.16,1.4503,7.5297,0.1798,-0.0003,-0.0000,2.5842,flat,18.0,2,15.562
2890,92.48,1.1085,7.7083,0.1799,0.0000,0.0004,2.9149,flat,18.0,2,15.504
2900,92.80,0.7029,7.7886,0.1799,-0.0000,-0.0001,-3.1230,flat,18.0,2,15.339
2910,93.12,0.2178,7.7572,0.1799,0.0000,-0.0000,-2.8806,flat,18.0,2,15.046
2920,93.44,-0.2738,7.6022,0.1799,0.0001,-0.0000,-2.7036,flat,18.0,2,14.654
2930,93.76,-0.7490,7.3537,0.1799,0.0002,-0.0000,-2.5703,flat,18.0,2,14.197
2940,94.08,-1.1986,7.0403,0.1798,0.0004,-0.0000,-2.4768,flat,18.0,2,13.702
2950,94.40,-1.6256,6.6853,0.1797,0.0003,-0.0000,-2.4086,flat,18.0,2,13.185
2960,94.72,-2.0293,6.3010,0.1797,0.0002,-0.0000,-2.3478,flat,18.0,2,12.656
2970,95.04,-2.4121,5.8920,0.1797,0.0002,-0.0000,-2.2962,flat,18.0,2,12.117
2980,95.36,-2.7762,5.4640,0.1797,0.0002,-0.0000,-2.2527,flat,18.0,2,11.572
2990,95.68,-3.1242,5.0201,0.1797,0.0001,-0.0000,-2.2148,flat,18.0,2,11.020
3000,96.00,-3.4575,4.5627,0.1797,0.0001,-0.0000,-2.1812,flat,18.0,2,10.464
3010,96.32,-3.7770,4.0938,0.1797,0.0001,-0.0000,-2.1514,flat,18.0,2,9.904
3020,96.64,-4.0839,3.6151,0.1797,0.0001,-0.0000,-2.1248,flat,18.0,2,9.342
3030,96.96,-4.3791,3.1279,0.1797,0.0001,-0.0000,-2.1010,flat,18.0,2,8.777
3040,97.28,-4.6637,2.6336,0.1797,0.0001,-0.0000,-2.0796,flat,18.0,2,8.210
3050,97.60,-4.9383,2.1329,0.1797,0.0001,-0.0000,-2.0602,flat,18.0,2,7.642
3060,97.92,-5.2039,1.6268,0.1797,0.0001,-0.0000,-2.0426,flat,18.0,2,7.073
3070,98.24,-5.4610,1.1159,0.1797,0.0001,-0.0000,-2.0265,flat,18.0,2,6.503
3080,98.56,-5.7103,0.6006,0.1797,0.0001,-0.0000,-2.0115,flat,18.0,2,5.932
3090,98.88,-5.9522,0.0816,0.1797,0.0000,-0.0000,-1.9976,flat,18.0,2,5.360
3100,99.20,-6.1871,-0.4409,0.1797,0.0000,-0.0000,-1.9844,flat,18.0,2,4.788
3110,99.52,-6.4154,-0.9665,0.1797,0.0000,-0.0000,-1.9718,flat,18.0,2,4.216
3120,99.84,-6.6371,-1.4950,0.1797,0.0000,-0.0000,-1.9594,flat,18.0,2,3.643
3130,100.16,-6.8522,-2.0262,0.1797,0.0000,-0.0000,-1.9470,flat,18.0,2,3.070
3140,100.48,-7.0607,-2.5599,0.1797,0.0000,0.0000,-1.9339,flat,18.0,2,2.498
3150,100.80,-7.2619,-3.0961,0.1797,0.0001,0.0000,-1.9192,flat,18.0,2,1.925
3160,101.12,-7.4546,-3.6345,0.1797,0.0001,0.0000,-1.9006,flat,18.0,2,1.353
3170,101.44,-7.6354,-4.1742,0.1797,0.0001,0.0000,-1.8696,flat,18.0,3,0.784
3180,101.76,-7.7920,-4.6408,0.1799,-0.0005,0.0006,-1.9267,rough,14.0,0,13.137
3190,102.08,-7.8756,-4.9180,0.1798,-0.0003,-0.0001,-1.6080,flat,18.0,0,13.226
3200,102.40,-7.8767,-5.2390,0.1799,-0.0001,-0.0000,-1.2544,rough,14.0,0,13.241
3210,102.72,-7.7510,-5.5693,0.1799,0.0000,-0.0001,-1.0157,flat,18.0,0,13.138
3220,103.04,-7.4756,-5.9331,0.1799,0.0001,-0.0000,-0.7878,flat,18.0,0,12.898
3230,103.36,-7.0946,-6.2598,0.1799,0.0000,-0.0000,-0.6021,flat,18.0,0,12.560
3240,103.68,-6.6406,-6.5359,0.1799,0.0001,-0.0000,-0.4359,flat,18.0,0,12.154
3250,104.00,-6.1340,-6.7481,0.1799,0.0001,-0.0000,-0.2925,flat,18.0,0,11.693
3260,104.32,-5.5959,-6.8940,0.1799,0.0004,-0.0000,-0.1771,flat,18.0,0,11.195
3270,104.64,-5.0411,-6.9818,0.1798,0.0004,-0.0000,-0.0854,flat,18.0,0,10.674
3280,104.96,-4.4779,-7.0212,0.1798,0.0003,-0.0000,-0.0119,flat,18.0,0,10.136
3290,105.28,-3.9118,-7.0208,0.1797,0.0002,-0.0000,0.0448,flat,18.0,0,9.588
3300,105.60,-3.3457,-6.9900,0.1797,0.0002,-0.0000,0.0883,flat,18.0,0,9.034
3310,105.92,-2.7805,-6.9356,0.1797,0.0001,-0.0000,0.1230,flat,18.0,0,8.477
3320,106.24,-2.2164,-6.8620,0.1797,0.0001,-0.0000,0.1521,flat,18.0,0,7.915
3330,106.56,-1.6537,-6.7724,0.1797,0.0001,-0.0000,0.1770,flat,18.0,0,7.352
3340,106.88,-1.0927,-6.6690,0.1797,0.0001,-0.0000,0.1984,flat,18.0,0,6.787
3350,107.20,-0.5334,-6.5538,0.1797,0.0001,-0.0000,0.2173,flat,18.0,0,6.220
3360,107.52,0.0241,-6.4282,0.1797,0.0001,-0.0000,0.2342,flat,18.0,0,5.652
3370,107.84,0.5798,-6.2934,0.1797,0.0001,-0.0000,0.2495,flat,18.0,0,5.084
3380,108.16,1.1337,-6.1501,0.1797,0.0001,-0.0000,0.2636,flat,18.0,0,4.515
3390,108.48,1.6857,-5.9990,0.1797,0.0000,-0.0000,0.2769,flat,18.0,0,3.946
3400,108.80,2.2357,-5.8407,0.1797,0.0000,-0.0000,0.2898,flat,18.0,0,3.378
3410,109.12,2.7836,-5.6753,0.1797,0.0000,0.0000,0.3026,flat,18.0,0,2.809
3420,109.44,3.3291,-5.5028,0.1797,0.0000,0.0000,0.3162,flat,18.0,0,2.242
3430,109.76,3.8716,-5.3229,0.1797,0.0001,0.0000,0.3318,flat,18.0,0,1.678
3440,110.08,4.4094,-5.1345,0.1797,0.0001,0.0000,0.3526,flat,18.0,0,1.119
3450,110.40,4.8970,-4.9553,0.1798,0.0000,0.0004,0.4601,flat,18.0,1,13.054
3460,110.72,5.2441,-4.7475,0.1799,-0.0000,-0.0000,0.7237,flat,18.0,1,12.965
3470,111.04,5.5476,-4.4176,0.1799,0.0000,-0.0000,0.9616,flat,18.0,1,12.758
3480,111.36,5.8032,-3.9912,0.1799,0.0000,-0.0000,1.1776,flat,18.0,1,12.456
3490,111.68,5.9824,-3.4956,0.1799,0.0001,-0.0000,1.3669,flat,18.0,1,12.073
3500,112.00,6.0747,-2.9582,0.1799,0.0001,-0.0000,1.5271,flat,18.0,1,11.625
3510,112.32,6.0839,-2.4031,0.1799,0.0003,-0.0000,1.6521,flat,18.0,1,11.132
3520,112.64,6.0276,-1.8469,0.1798,0.0004,-0.0000,1.7407,flat,18.0,1,10.613
3530,112.96,5.9241,-1.2948,0.1797,0.0003,-0.0000,1.8071,flat,18.0,1,10.079
3540,113.28,5.7851,-0.7482,0.1797,0.0002,-0.0000,1.8590,flat,18.0,1,9.535
3550,113.60,5.6183,-0.2080,0.1797,0.0001,-0.0000,1.8994,flat,18.0,1,8.984
3560,113.92,5.4304,0.3262,0.1797,0.0001,-0.0000,1.9322,flat,18.0,1,8.430
3570,114.24,5.2251,0.8554,0.1797,0.0001,-0.0000,1.9602,flat,18.0,1,7.872
3580,114.56,5.0052,1.3797,0.1797,0.0001,-0.0000,1.9846,flat,18.0,1,7.312
3590,114.88,4.7726,1.8994,0.1797,0.0001,-0.0000,2.0060,flat,18.0,1,6.750
3600,115.20,4.5290,2.4147,0.1797,0.0001,-0.0000,2.0252,flat,18.0,1,6.187
3610,115.52,4.2755,2.9259,0.1797,0.0001,-0.0000,2.0425,flat,18.0,1,5.623
3620,115.84,4.0132,3.4330,0.1797,0.0001,-0.0000,2.0584,flat,18.0,1,5.058
3630,116.16,3.7429,3.9363,0.1797,0.0001,-0.0000,2.0733,flat,18.0,1,4.493
3640,116.48,3.4651,4.4357,0.1797,0.0001,-0.0000,2.0874,flat,18.0,1,3.929
3650,116.80,3.1802,4.9312,0.1797,0.0000,-0.0000,2.1012,flat,18.0,1,3.365
3660,117.12,2.8886,5.4227,0.1797,0.0000,0.0000,2.1151,flat,18.0,1,2.802
3670,117.44,2.5901,5.9098,0.1797,0.0001,0.0000,2.1296,flat,18.0,1,2.242
3680,117.76,2.2846,6.3919,0.1797,0.0001,0.0000,2.1459,flat,18.0,1,1.689
3690,118.08,1.9714,6.8673,0.1797,0.0001,0.0000,2.1664,flat,18.0,1,1.149
3700,118.40,1.6687,7.3106,0.1798,0.0000,0.0004,2.2570,flat,18.0,2,15.521
3710,118.72,1.4231,7.5469,0.1798,-0.0003,-0.0001,2.6177,flat,18.0,2,15.559
3720,119.04,1.0619,7.7213,0.1799,-0.0000,-0.0001,2.9537,flat,18.0,2,15.488
3730,119.36,0.6076,7.7843,0.1799,0.0001,-0.0000,-3.0355,flat,18.0,2,15.282
3740,119.68,0.1163,7.7090,0.1799,0.0001,-0.0000,-2.8188,flat,18.0,2,14.951
3750,120.00,-0.3723,7.5202,0.1799,0.0001,-0.0000,-2.6566,flat,18.0,2,14.533
3760,120.32,-0.8398,7.2480,0.1799,0.0003,-0.0000,-2.5367,flat,18.0,2,14.060
3770,120.64,-1.2828,6.9192,0.1798,0.0003,-0.0000,-2.4557,flat,18.0,2,13.555
3780,120.96,-1.7028,6.5551,0.1797,0.0002,-0.0000,-2.3897,flat,18.0,2,13.034
3790,121.28,-2.1004,6.1628,0.1797,0.0002,-0.0000,-2.3327,flat,18.0,2,12.501
3800,121.60,-2.4780,5.7479,0.1797,0.0002,-0.0000,-2.2840,flat,18.0,2,11.959
3810,121.92,-2.8380,5.3155,0.1797,0.0001,-0.0000,-2.2431,flat,18.0,2,11.411
3820,122.24,-3.1826,4.8681,0.1797,0.0001,-0.0000,-2.2069,flat,18.0,2,10.858
3830,122.56,-3.5129,4.4079,0.1797,0.0001,-0.0000,-2.1749,flat,18.0,2,10.300
3840,122.88,-3.8300,3.9368,0.1797,0.0001,-0.0000,-2.1464,flat,18.0,2,9.740
3850,123.20,-4.1349,3.4564,0.1797,0.0001,-0.0000,-2.1210,flat,18.0,2,9.176
3860,123.52,-4.4286,2.9680,0.1797,0.0001,-0.0000,-2.0981,flat,18.0,2,8.611
3870,123.84,-4.7120,2.4727,0.1797,0.0001,-0.0000,-2.0776,flat,18.0,2,8.043
3880,124.16,-4.9859,1.9714,0.1797,0.0001,-0.0000,-2.0589,flat,18.0,2,7.475
3890,124.48,-5.2510,1.4649,0.1797,0.0001,-0.0000,-2.0419,flat,18.0,2,6.905
3900,124.80,-5.5079,0.9537,0.1797,0.0001,-0.0000,-2.0263,flat,18.0,2,6.335
3910,125.12,-5.7572,0.4383,0.1797,0.0001,-0.0000,-2.0118,flat,18.0,2,5.764
3920,125.44,-5.9994,-0.0807,0.1797,0.0000,-0.0000,-1.9982,flat,18.0,2,5.192
3930,125.76,-6.2347,-0.6031,0.1797,0.0000,-0.0000,-1.9853,flat,18.0,2,4.620
3940,126.08,-6.4634,-1.1285,0.1797,0.0000,-0.0000,-1.9729,flat,18.0,2,4.047
3950,126.40,-6.6857,-1.6568,0.1797,0.0000,-0.0000,-1.9606,flat,18.0,2,3.475
3960,126.72,-6.9015,-2.1877,0.1797,0.0000,0.0000,-1.9481,flat,18.0,2,2.902
3970,127.04,-7.1105,-2.7211,0.1797,0.0000,0.0000,-1.9347,flat,18.0,2,2.329
3980,127.36,-7.3120,-3.2570,0.1797,0.0001,0.0000,-1.9193,flat,18.0,2,1.757
3990,127.68,-7.5044,-3.7951,0.1797,0.0001,0.0000,-1.8987,flat,18.0,2,1.185
4000,128.00,-7.6762,-4.3240,0.1797,0.0001,0.0001,-1.9289,flat,18.0,3,0.934
4010,128.32,-7.8188,-4.7302,0.1798,-0.0002,0.0003,-1.8447,flat,18.0,0,13.165
4020,128.64,-7.8917,-5.0077,0.1798,-0.0002,-0.0002,-1.4662,rough,14.0,0,13.245
4030,128.96,-7.8482,-5.3214,0.1798,0.0001,0.0002,-1.1785,rough,14.0,0,13.217
4040,129.28,-7.6781,-5.6704,0.1799,-0.0000,-0.0001,-0.9498,flat,18.0,0,13.073
4050,129.60,-7.3707,-6.0254,0.1799,0.0001,-0.0000,-0.7381,flat,18.0,0,12.804
4060,129.92,-6.9689,-6.3408,0.1799,0.0001,-0.0000,-0.5569,flat,18.0,0,12.447
4070,130.24,-6.4994,-6.6011,0.1799,0.0001,-0.0000,-0.3962,flat,18.0,0,12.025
4080,130.56,-5.9825,-6.7957,0.1799,0.0002,-0.0000,-0.2596,flat,18.0,0,11.554
4090,130.88,-5.4390,-6.9255,0.1798,0.0004,-0.0000,-0.1509,flat,18.0,0,11.049
4100,131.20,-4.8814,-6.9996,0.1798,0.0004,-0.0000,-0.0643,flat,18.0,0,10.522
4110,131.52,-4.3169,-7.0276,0.1798,0.0003,-0.0000,0.0052,flat,18.0,0,9.982
4120,131.84,-3.7508,-7.0181,0.1797,0.0002,-0.0000,0.0576,flat,18.0,0,9.432
4130,132.16,-3.1849,-6.9803,0.1797,0.0001,-0.0000,0.0985,flat,18.0,0,8.877
4140,132.48,-2.6200,-6.9202,0.1797,0.0001,-0.0000,0.1317,flat,18.0,0,8.318
4150,132.80,-2.0563,-6.8419,0.1797,0.0001,-0.0000,0.1596,flat,18.0,0,7.757
4160,133.12,-1.4941,-6.7481,0.1797,0.0001,-0.0000,0.1835,flat,18.0,0,7.192
4170,133.44,-0.9336,-6.6412,0.1797,0.0001,-0.0000,0.2042,flat,18.0,0,6.627
4180,133.76,-0.3749,-6.5228,0.1797,0.0001,-0.0000,0.2226,flat,18.0,0,6.060
4190,134.08,0.1821,-6.3943,0.1797,0.0001,-0.0000,0.2390,flat,18.0,0,5.492
4200,134.40,0.7372,-6.2568,0.1797,0.0001,-0.0000,0.2540,flat,18.0,0,4.924
4210,134.72,1.2905,-6.1110,0.1797,0.0000,-0.0000,0.2679,flat,18.0,0,4.355
4220,135.04,1.8419,-5.9576,0.1797,0.0000,-0.0000,0.2811,flat,18.0,0,3.786
4230,135.36,2.3912,-5.7970,0.1797,0.0000,-0.0000,0.2939,flat,18.0,0,3.218
4240,135.68,2.9384,-5.6293,0.1797,0.0000,0.0000,0.3070,flat,18.0,0,2.650
4250,136.00,3.4830,-5.4544,0.1797,0.0000,0.0000,0.3210,flat,18.0,0,2.083
4260,136.32,4.0242,-5.2719,0.1797,0.0001,0.0000,0.3376,flat,18.0,0,1.519
4270,136.64,4.5599,-5.0804,0.1797,0.0001,0.0000,0.3615,flat,18.0,0,0.964
4280,136.96,5.0135,-4.9048,0.1798,-0.0002,0.0001,0.5146,flat,18.0,1,13.041
4290,137.28,5.3482,-4.6718,0.1799,-0.0000,-0.0000,0.7797,flat,18.0,1,12.928
4300,137.60,5.6433,-4.3179,0.1799,0.0000,-0.0000,1.0122,flat,18.0,1,12.700
4310,137.92,5.8833,-3.8739,0.1799,0.0000,-0.0000,1.2233,flat,18.0,1,12.379
4320,138.24,6.0429,-3.3667,0.1799,0.0001,-0.0000,1.4068,flat,18.0,1,11.981
4330,138.56,6.1151,-2.8236,0.1799,0.0001,-0.0000,1.5606,flat,18.0,1,11.522
4340,138.88,6.1067,-2.2675,0.1799,0.0004,-0.0000,1.6763,flat,18.0,1,11.022
4350,139.20,6.0375,-1.7122,0.1798,0.0004,-0.0000,1.7592,flat,18.0,1,10.499
4360,139.52,5.9240,-1.1616,0.1797,0.0002,-0.0000,1.8220,flat,18.0,1,9.963
4370,139.84,5.7770,-0.6167,0.1797,0.0002,-0.0000,1.8715,flat,18.0,1,9.417
4380,140.16,5.6036,-0.0785,0.1797,0.0001,-0.0000,1.9097,flat,18.0,1,8.866
4390,140.48,5.4102,0.4541,0.1797,0.0001,-0.0000,1.9414,flat,18.0,1,8.311
4400,140.80,5.2001,0.9816,0.1797,0.0001,-0.0000,1.9686,flat,18.0,1,7.752
4410,141.12,4.9758,1.5042,0.1797,0.0001,-0.0000,1.9923,flat,18.0,1,7.192
4420,141.44,4.7392,2.0223,0.1797,0.0001,-0.0000,2.0132,flat,18.0,1,6.630
4430,141.76,4.4918,2.5359,0.1797,0.0001,-0.0000,2.0320,flat,18.0,1,6.066
4440,142.08,4.2348,3.0454,0.1797,0.0001,-0.0000,2.0490,flat,18.0,1,5.502
4450,142.40,3.9692,3.5509,0.1797,0.0001,-0.0000,2.0647,flat,18.0,1,4.937
4460,142.72,3.6957,4.0525,0.1797,0.0001,-0.0000,2.0794,flat,18.0,1,4.373
4470,143.04,3.4149,4.5502,0.1797,0.0000,-0.0000,2.0935,flat,18.0,1,3.808
4480,143.36,3.1270,5.0440,0.1797,0.0000,-0.0000,2.1073,flat,18.0,1,3.244
4490,143.68,2.8324,5.5336,0.1797,0.0000,0.0000,2.1212,flat,18.0,1,2.682
4500,144.00,2.5309,6.0188,0.1797,0.0001,0.0000,2.1361,flat,18.0,1,2.124
4510,144.32,2.2222,6.4985,0.1797,0.0001,0.0000,2.1530,flat,18.0,1,1.572
4520,144.64,1.9056,6.9710,0.1797,0.0001,0.0000,2.1752,flat,18.0,1,1.038
4530,144.96,1.6232,7.3790,0.1798,-0.0000,0.0004,2.3368,flat,18.0,2,15.547
4540,145.28,1.3558,7.5952,0.1798,-0.0002,-0.0001,2.6910,flat,18.0,2,15.558
4550,145.60,1.0052,7.7389,0.1798,0.0028,0.0033,2.9609,rough,14.0,2,15.470
4560,145.92,0.5943,7.7936,0.1799,-0.0000,-0.0001,-3.0951,flat,18.0,2,15.282
4570,146.24,0.1079,7.7478,0.1799,0.0001,-0.0000,-2.8608,flat,18.0,2,14.979
4580,146.56,-0.3824,7.5813,0.1799,0.0001,-0.0000,-2.6867,flat,18.0,2,14.580
4590,146.88,-0.8544,7.3240,0.1799,0.0003,-0.0000,-2.5566,flat,18.0,2,14.119
4600,147.20,-1.3008,7.0041,0.1798,0.0004,-0.0000,-2.4670,flat,18.0,2,13.621
4610,147.52,-1.7244,6.6449,0.1797,0.0002,-0.0000,-2.3995,flat,18.0,2,13.103
4620,147.84,-2.1248,6.2567,0.1797,0.0002,-0.0000,-2.3394,flat,18.0,2,12.573
4630,148.16,-2.5042,5.8445,0.1797,0.0002,-0.0000,-2.2884,flat,18.0,2,12.033
4640,148.48,-2.8652,5.4137,0.1797,0.0002,-0.0000,-2.2454,flat,18.0,2,11.487
4650,148.80,-3.2102,4.9672,0.1797,0.0001,-0.0000,-2.2078,flat,18.0,2,10.936
4660,149.12,-3.5404,4.5074,0.1797,0.0001,-0.0000,-2.1744,flat,18.0,2,10.379
4670,149.44,-3.8569,4.0363,0.1797,0.0001,-0.0000,-2.1448,flat,18.0,2,9.819
4680,149.76,-4.1608,3.5555,0.1797,0.0001,-0.0000,-2.1183,flat,18.0,2,9.256
4690,150.08,-4.4530,3.0664,0.1797,0.0001,-0.0000,-2.0947,flat,18.0,2,8.691
4700,150.40,-4.7344,2.5702,0.1797,0.0001,-0.0000,-2.0734,flat,18.0,2,8.124
4710,150.72,-5.0061,2.0679,0.1797,0.0001,-0.0000,-2.0541,flat,18.0,2,7.556
4720,151.04,-5.2686,1.5601,0.1797,0.0001,-0.0000,-2.0366,flat,18.0,2,6.987
4730,151.36,-5.5227,1.0476,0.1797,0.0001,-0.0000,-2.0205,flat,18.0,2,6.416
4740,151.68,-5.7690,0.5309,0.1797,0.0001,-0.0000,-2.0056,flat,18.0,2,5.845
4750,152.00,-6.0079,0.0105,0.1797,0.0000,-0.0000,-1.9917,flat,18.0,2,5.274
4760,152.32,-6.2398,-0.5134,0.1797,0.0000,-0.0000,-1.9786,flat,18.0,2,4.702
4770,152.64,-6.4650,-1.0403,0.1797,0.0000,-0.0000,-1.9659,flat,18.0,2,4.129
4780,152.96,-6.6835,-1.5701,0.1797,0.0000,-0.0000,-1.9535,flat,18.0,2,3.557
4790,153.28,-6.8956,-2.1026,0.1797,0.0000,-0.0000,-1.9409,flat,18.0,2,2.984
4800,153.60,-7.1008,-2.6375,0.1797,0.0000,0.0000,-1.9275,flat,18.0,2,2.411
4810,153.92,-7.2985,-3.1749,0.1797,0.0001,0.0000,-1.9124,flat,18.0,2,1.839
4820,154.24,-7.4874,-3.7144,0.1797,0.0001,0.0000,-1.8927,flat,18.0,2,1.267
4830,154.56,-7.6600,-4.2522,0.1797,0.0002,0.0002,-1.8789,flat,18.0,3,0.991
4840,154.88,-7.7967,-4.6868,0.1798,-0.0002,0.0005,-1.8574,rough,14.0,0,13.142
4850,155.20,-7.8716,-4.9730,0.1798,-0.0002,-0.0001,-1.5096,flat,18.0,0,13.224
4860,155.52,-7.8440,-5.2885,0.1799,0.0000,-0.0001,-1.1959,rough,14.0,0,13.211
4870,155.84,-7.6835,-5.6391,0.1799,-0.0000,-0.0001,-0.9680,flat,18.0,0,13.076
4880,156.16,-7.3848,-5.9967,0.1799,0.0001,-0.0000,-0.7522,flat,18.0,0,12.815
4890,156.48,-6.9888,-6.3155,0.1799,0.0001,-0.0000,-0.5697,flat,18.0,0,12.463
4900,156.80,-6.5236,-6.5804,0.1799,0.0001,-0.0000,-0.4074,flat,18.0,0,12.046
4910,157.12,-6.0095,-6.7800,0.1799,0.0002,-0.0000,-0.2688,flat,18.0,0,11.577
4920,157.44,-5.4675,-6.9143,0.1798,0.0004,-0.0000,-0.1582,flat,18.0,0,11.074
4930,157.76,-4.9106,-6.9923,0.1798,0.0004,-0.0000,-0.0701,flat,18.0,0,10.549
4940,158.08,-4.3465,-7.0234,0.1798,0.0003,-0.0000,0.0005,flat,18.0,0,10.009
4950,158.40,-3.7803,-7.0164,0.1797,0.0002,-0.0000,0.0541,flat,18.0,0,9.460
4960,158.72,-3.2143,-6.9805,0.1797,0.0002,-0.0000,0.0958,flat,18.0,0,8.906
4970,159.04,-2.6494,-6.9219,0.1797,0.0001,-0.0000,0.1294,flat,18.0,0,8.347
4980,159.36,-2.0856,-6.8448,0.1797,0.0001,-0.0000,0.1576,flat,18.0,0,7.785
4990,159.68,-1.5233,-6.7521,0.1797,0.0001,-0.0000,0.1818,flat,18.0,0,7.221
5000,160.00,-0.9627,-6.6461,0.1797,0.0001,-0.0000,0.2028,flat,18.0,0,6.656
5010,160.32,-0.4038,-6.5285,0.1797,0.0001,-0.0000,0.2213,flat,18.0,0,6.089
5020,160.64,0.1533,-6.4007,0.1797,0.0001,-0.0000,0.2379,flat,18.0,0,5.521
5030,160.96,0.7085,-6.2638,0.1797,0.0001,-0.0000,0.2530,flat,18.0,0,4.953
5040,161.28,1.2619,-6.1186,0.1797,0.0000,-0.0000,0.2670,flat,18.0,0,4.384
5050,161.60,1.8134,-5.9657,0.1797,0.0000,-0.0000,0.2802,flat,18.0,0,3.816
5060,161.92,2.3629,-5.8055,0.1797,0.0000,-0.0000,0.2931,flat,18.0,0,3.247
5070,162.24,2.9102,-5.6382,0.1797,0.0000,0.0000,0.3062,flat,18.0,0,2.679
5080,162.56,3.4549,-5.4638,0.1797,0.0000,0.0000,0.3201,flat,18.0,0,2.112
5090,162.88,3.9964,-5.2817,0.1797,0.0001,0.0000,0.3366,flat,18.0,0,1.548
5100,163.20,4.5325,-5.0908,0.1797,0.0001,0.0000,0.3599,flat,18.0,0,0.992
5110,163.52,4.9869,-4.9160,0.1798,-0.0002,0.0001,0.5118,flat,18.0,1,13.044
5120,163.84,5.3225,-4.6841,0.1799,-0.0000,-0.0000,0.7769,flat,18.0,1,12.931
5130,164.16,5.6182,-4.3313,0.1799,0.0000,-0.0000,1.0093,flat,18.0,1,12.703
5140,164.48,5.8594,-3.8880,0.1799,0.0000,-0.0000,1.2203,flat,18.0,1,12.383
5150,164.80,6.0204,-3.3814,0.1799,0.0001,-0.0000,1.4037,flat,18.0,1,11.985
5160,165.12,6.0942,-2.8385,0.1799,0.0001,-0.0000,1.5577,flat,18.0,1,11.526
5170,165.44,6.0874,-2.2823,0.1799,0.0004,-0.0000,1.6738,flat,18.0,1,11.026
5180,165.76,6.0196,-1.7269,0.1798,0.0004,-0.0000,1.7569,flat,18.0,1,10.504
5190,166.08,5.9074,-1.1760,0.1797,0.0002,-0.0000,1.8198,flat,18.0,1,9.967
5200,166.40,5.7616,-0.6307,0.1797,0.0002,-0.0000,1.8693,flat,18.0,1,9.421
5210,166.72,5.5894,-0.0921,0.1797,0.0001,-0.0000,1.9076,flat,18.0,1,8.870
5220,167.04,5.3971,0.4408,0.1797,0.0001,-0.0000,1.9393,flat,18.0,1,8.315
5230,167.36,5.1881,0.9688,0.1797,0.0001,-0.0000,1.9665,flat,18.0,1,7.757
5240,167.68,4.9649,1.4919,0.1797,0.0001,-0.0000,1.9902,flat,18.0,1,7.196
5250,168.00,4.7294,2.0104,0.1797,0.0001,-0.0000,2.0112,flat,18.0,1,6.634
5260,168.32,4.4831,2.5246,0.1797,0.0001,-0.0000,2.0299,flat,18.0,1,6.071
5270,168.64,4.2272,3.0347,0.1797,0.0001,-0.0000,2.0469,flat,18.0,1,5.506
5280,168.96,3.9626,3.5407,0.1797,0.0001,-0.0000,2.0626,flat,18.0,1,4.942
5290,169.28,3.6902,4.0429,0.1797,0.0001,-0.0000,2.0773,flat,18.0,1,4.377
5300,169.60,3.4104,4.5412,0.1797,0.0000,-0.0000,2.0914,flat,18.0,1,3.812
5310,169.92,3.1236,5.0356,0.1797,0.0000,-0.0000,2.1051,flat,18.0,1,3.248
5320,170.24,2.8300,5.5259,0.1797,0.0000,0.0000,2.1191,flat,18.0,1,2.686
5330,170.56,2.5295,6.0117,0.1797,0.0001,0.0000,2.1339,flat,18.0,1,2.128
5340,170.88,2.2220,6.4922,0.1797,0.0001,0.0000,2.1507,flat,18.0,1,1.576
5350,171.20,1.9065,6.9654,0.1797,0.0001,0.0000,2.1728,flat,18.0,1,1.041
5360,171.52,1.6250,7.3742,0.1798,-0.0000,0.0004,2.3343,flat,18.0,2,15.544
5370,171.84,1.3584,7.5908,0.1798,-0.0002,-0.0001,2.6885,flat,18.0,2,15.556
5380,172.16,1.0015,7.7364,0.1799,-0.0000,-0.0001,2.9701,flat,18.0,2,15.465
5390,172.48,0.5608,7.7934,0.1799,0.0001,-0.0000,-3.0437,flat,18.0,2,15.264
5400,172.80,0.0698,7.7220,0.1799,0.0001,-0.0000,-2.8243,flat,18.0,2,14.937
5410,173.12,-0.4186,7.5361,0.1799,0.0001,-0.0000,-2.6599,flat,18.0,2,14.522
5420,173.44,-0.8863,7.2655,0.1799,0.0003,-0.0000,-2.5380,flat,18.0,2,14.052
5430,173.76,-1.3291,6.9372,0.1798,0.0003,-0.0000,-2.4556,flat,18.0,2,13.548
5440,174.08,-1.7490,6.5731,0.1797,0.0002,-0.0000,-2.3892,flat,18.0,2,13.028
5450,174.40,-2.1462,6.1807,0.1797,0.0002,-0.0000,-2.3316,flat,18.0,2,12.496
5460,174.72,-2.5230,5.7654,0.1797,0.0002,-0.0000,-2.2823,flat,18.0,2,11.954
5470,175.04,-2.8821,5.3324,0.1797,0.0001,-0.0000,-2.2409,flat,18.0,2,11.407
5480,175.36,-3.2256,4.8842,0.1797,0.0001,-0.0000,-2.2043,flat,18.0,2,10.854
5490,175.68,-3.5546,4.4232,0.1797,0.0001,-0.0000,-2.1719,flat,18.0,2,10.297
5500,176.00,-3.8702,3.9511,0.1797,0.0001,-0.0000,-2.1431,flat,18.0,2,9.736
5510,176.32,-4.1735,3.4698,0.1797,0.0001,-0.0000,-2.1174,flat,18.0,2,9.173
5520,176.64,-4.4654,2.9804,0.1797,0.0001,-0.0000,-2.0944,flat,18.0,2,8.607
5530,176.96,-4.7469,2.4840,0.1797,0.0001,-0.0000,-2.0736,flat,18.0,2,8.040
5540,177.28,-5.0188,1.9817,0.1797,0.0001,-0.0000,-2.0548,flat,18.0,2,7.472
5550,177.60,-5.2818,1.4740,0.1797,0.0001,-0.0000,-2.0376,flat,18.0,2,6.902
5560,177.92,-5.5365,0.9617,0.1797,0.0001,-0.0000,-2.0219,flat,18.0,2,6.331
5570,178.24,-5.7835,0.4453,0.1797,0.0001,-0.0000,-2.0073,flat,18.0,2,5.760
5580,178.56,-6.0233,-0.0748,0.1797,0.0000,-0.0000,-1.9936,flat,18.0,2,5.189
5590,178.88,-6.2562,-0.5982,0.1797,0.0000,-0.0000,-1.9806,flat,18.0,2,4.617
5600,179.20,-6.4825,-1.1247,0.1797,0.0000,-0.0000,-1.9681,flat,18.0,2,4.044
5610,179.52,-6.7022,-1.6540,0.1797,0.0000,-0.0000,-1.9557,flat,18.0,2,3.471
5620,179.84,-6.9154,-2.1860,0.1797,0.0000,0.0000,-1.9431,flat,18.0,2,2.899
5630,180.16,-7.1218,-2.7205,0.1797,0.0000,0.0000,-1.9297,flat,18.0,2,2.326
5640,180.48,-7.3206,-3.2573,0.1797,0.0001,0.0000,-1.9142,flat,18.0,2,1.753
5650,180.80,-7.5103,-3.7964,0.1797,0.0001,0.0000,-1.8935,flat,18.0,2,1.182
5660,181.12,-7.6792,-4.3262,0.1797,0.0001,0.0001,-1.9236,flat,18.0,3,0.930
5670,181.44,-7.8176,-4.7262,0.1798,-0.0001,0.0003,-1.8556,rough,14.0,0,13.164
5680,181.76,-7.8936,-5.0146,0.1798,-0.0002,-0.0001,-1.4744,flat,18.0,0,13.247
5690,182.08,-7.8520,-5.3318,0.1799,-0.0000,0.0000,-1.1946,rough,14.0,0,13.222
5700,182.40,-7.6825,-5.6815,0.1799,-0.0001,-0.0000,-0.9389,flat,18.0,0,13.079
5710,182.72,-7.3701,-6.0351,0.1799,0.0000,-0.0000,-0.7302,flat,18.0,0,12.805
5720,183.04,-6.9652,-6.3488,0.1799,0.0000,-0.0000,-0.5499,flat,18.0,0,12.445
5730,183.36,-6.4932,-6.6066,0.1799,0.0001,-0.0000,-0.3902,flat,18.0,0,12.020
5740,183.68,-5.9750,-6.7985,0.1799,0.0002,-0.0000,-0.2550,flat,18.0,0,11.547
5750,184.00,-5.4307,-6.9260,0.1798,0.0004,-0.0000,-0.1474,flat,18.0,0,11.041
5760,184.32,-4.8728,-6.9983,0.1798,0.0004,-0.0000,-0.0616,flat,18.0,0,10.514
5770,184.64,-4.3081,-7.0248,0.1798,0.0003,-0.0000,0.0071,flat,18.0,0,9.972
5780,184.96,-3.7419,-7.0144,0.1797,0.0002,-0.0000,0.0589,flat,18.0,0,9.423
5790,185.28,-3.1760,-6.9759,0.1797,0.0001,-0.0000,0.0994,flat,18.0,0,8.867
5800,185.60,-2.6111,-6.9153,0.1797,0.0001,-0.0000,0.1323,flat,18.0,0,8.308
5810,185.92,-2.0474,-6.8366,0.1797,0.0001,-0.0000,0.1600,flat,18.0,0,7.746
5820,186.24,-1.4852,-6.7426,0.1797,0.0001,-0.0000,0.1837,flat,18.0,0,7.182
5830,186.56,-0.9247,-6.6356,0.1797,0.0001,-0.0000,0.2044,flat,18.0,0,6.617
5840,186.88,-0.3660,-6.5171,0.1797,0.0001,-0.0000,0.2226,flat,18.0,0,6.050
5850,187.20,0.1910,-6.3886,0.1797,0.0001,-0.0000,0.2389,flat,18.0,0,5.482
5860,187.52,0.7462,-6.2512,0.1797,0.0001,-0.0000,0.2538,flat,18.0,0,4.913
5870,187.84,1.2995,-6.1055,0.1797,0.0000,-0.0000,0.2677,flat,18.0,0,4.345
5880,188.16,1.8509,-5.9522,0.1797,0.0000,-0.0000,0.2808,flat,18.0,0,3.776
5890,188.48,2.4004,-5.7917,0.1797,0.0000,-0.0000,0.2936,flat,18.0,0,3.207
5900,188.80,2.9476,-5.6242,0.1797,0.0000,0.0000,0.3066,flat,18.0,0,2.639
5910,189.12,3.4922,-5.4496,0.1797,0.0000,0.0000,0.3206,flat,18.0,0,2.072
5920,189.44,4.0335,-5.2673,0.1797,0.0001,0.0000,0.3372,flat,18.0,0,1.509
5930,189.76,4.5693,-5.0760,0.1797,0.0001,0.0000,0.3613,flat,18.0,0,0.954
5940,190.08,5.0078,-4.9033,0.1798,-0.0003,0.0001,0.5338,flat,18.0,1,13.038
5950,190.40,5.3385,-4.6607,0.1799,-0.0000,-0.0000,0.7982,flat,18.0,1,12.914
5960,190.72,5.6310,-4.2986,0.1799,0.0000,-0.0000,1.0289,flat,18.0,1,12.677
5970,191.04,5.8658,-3.8485,0.1799,0.0000,-0.0000,1.2374,flat,18.0,1,12.349
5980,191.36,6.0193,-3.3376,0.1799,0.0001,-0.0000,1.4179,flat,18.0,1,11.944
5990,191.68,6.0857,-2.7925,0.1799,0.0001,-0.0000,1.5689,flat,18.0,1,11.481
6000,192.00,6.0730,-2.2360,0.1798,0.0004,-0.0000,1.6817,flat,18.0,1,10.978
6010,192.32,6.0010,-1.6808,0.1798,0.0004,-0.0000,1.7625,flat,18.0,1,10.454
6020,192.64,5.8858,-1.1302,0.1797,0.0002,-0.0000,1.8240,flat,18.0,1,9.917
6030,192.96,5.7377,-0.5854,0.1797,0.0002,-0.0000,1.8725,flat,18.0,1,9.370
6040,193.28,5.5640,-0.0472,0.1797,0.0001,-0.0000,1.9098,flat,18.0,1,8.819
6050,193.60,5.3705,0.4855,0.1797,0.0001,-0.0000,1.9410,flat,18.0,1,8.263
6060,193.92,5.1607,1.0132,0.1797,0.0001,-0.0000,1.9679,flat,18.0,1,7.705
6070,194.24,4.9368,1.5361,0.1797,0.0001,-0.0000,1.9913,flat,18.0,1,7.144
6080,194.56,4.7007,2.0544,0.1797,0.0001,-0.0000,2.0120,flat,18.0,1,6.582
6090,194.88,4.4540,2.5685,0.1797,0.0001,-0.0000,2.0305,flat,18.0,1,6.018
6100,195.20,4.1978,3.0784,0.1797,0.0001,-0.0000,2.0474,flat,18.0,1,5.454
6110,195.52,3.9330,3.5844,0.1797,0.0001,-0.0000,2.0630,flat,18.0,1,4.889
6120,195.84,3.6604,4.0865,0.1797,0.0001,-0.0000,2.0776,flat,18.0,1,4.324
6130,196.16,3.3804,4.5847,0.1797,0.0000,-0.0000,2.0916,flat,18.0,1,3.759
6140,196.48,3.0935,5.0791,0.1797,0.0000,-0.0000,2.1054,flat,18.0,1,3.196
6150,196.80,2.7998,5.5693,0.1797,0.0000,0.0000,2.1193,flat,18.0,1,2.634
6160,197.12,2.4993,6.0550,0.1797,0.0001,0.0000,2.1342,flat,18.0,1,2.076
6170,197.44,2.1915,6.5353,0.1797,0.0001,0.0000,2.1514,flat,18.0,1,1.525
6180,197.76,1.8757,7.0080,0.1797,0.0001,0.0000,2.1742,flat,18.0,1,0.993
6190,198.08,1.6043,7.3959,0.1798,-0.0001,0.0003,2.3691,flat,18.0,2,15.549
6200,198.40,1.3274,7.6067,0.1798,-0.0001,-0.0001,2.7214,flat,18.0,2,15.550
6210,198.72,0.9329,7.7546,0.1799,0.0000,-0.0001,3.0479,flat,18.0,2,15.441
6220,199.04,0.4617,7.7756,0.1799,0.0000,-0.0000,-2.9619,flat,18.0,2,15.194
6230,199.36,-0.0318,7.6630,0.1799,0.0001,-0.0000,-2.7637,flat,18.0,2,14.833
6240,199.68,-0.5153,7.4459,0.1799,0.0001,-0.0000,-2.6162,flat,18.0,2,14.395
6250,200.00,-0.9748,7.1542,0.1798,0.0004,-0.0000,-2.5083,flat,18.0,2,13.912
6260,200.32,-1.4111,6.8131,0.1798,0.0003,-0.0000,-2.4349,flat,18.0,2,13.400
6270,200.64,-1.8242,6.4401,0.1797,0.0002,-0.0000,-2.3714,flat,18.0,2,12.875
6280,200.96,-2.2158,6.0405,0.1797,0.0002,-0.0000,-2.3174,flat,18.0,2,12.339
6290,201.28,-2.5877,5.6199,0.1797,0.0002,-0.0000,-2.2711,flat,18.0,2,11.795
6300,201.60,-2.9429,5.1827,0.1797,0.0001,-0.0000,-2.2318,flat,18.0,2,11.246
6310,201.92,-3.2831,4.7312,0.1797,0.0001,-0.0000,-2.1969,flat,18.0,2,10.691
6320,202.24,-3.6094,4.2676,0.1797,0.0001,-0.0000,-2.1660,flat,18.0,2,10.133
6330,202.56,-3.9227,3.7935,0.1797,0.0001,-0.0000,-2.1385,flat,18.0,2,9.571
6340,202.88,-4.2242,3.3106,0.1797,0.0001,-0.0000,-2.1139,flat,18.0,2,9.007
6350,203.20,-4.5147,2.8201,0.1797,0.0001,-0.0000,-2.0918,flat,18.0,2,8.441
6360,203.52,-4.7952,2.3229,0.1797,0.0001,-0.0000,-2.0718,flat,18.0,2,7.873
6370,203.84,-5.0664,1.8200,0.1797,0.0001,-0.0000,-2.0537,flat,18.0,2,7.304
6380,204.16,-5.3289,1.3120,0.1797,0.0001,-0.0000,-2.0371,flat,18.0,2,6.734
6390,204.48,-5.5835,0.7995,0.1797,0.0001,-0.0000,-2.0218,flat,18.0,2,6.163
6400,204.80,-5.8307,0.2830,0.1797,0.0001,-0.0000,-2.0076,flat,18.0,2,5.592
6410,205.12,-6.0707,-0.2371,0.1797,0.0000,-0.0000,-1.9943,flat,18.0,2,5.020
6420,205.44,-6.3040,-0.7604,0.1797,0.0000,-0.0000,-1.9815,flat,18.0,2,4.448
6430,205.76,-6.5308,-1.2867,0.1797,0.0000,-0.0000,-1.9692,flat,18.0,2,3.875
6440,206.08,-6.7512,-1.8158,0.1797,0.0000,-0.0000,-1.9569,flat,18.0,2,3.303
6450,206.40,-6.9650,-2.3475,0.1797,0.0000,0.0000,-1.9442,flat,18.0,2,2.730
6460,206.72,-7.1718,-2.8817,0.1797,0.0000,0.0000,-1.9304,flat,18.0,2,2.157
6470,207.04,-7.3709,-3.4182,0.1797,0.0001,0.0000,-1.9139,flat,18.0,2,1.585
6480,207.36,-7.5599,-3.9568,0.1797,0.0001,0.0000,-1.8902,flat,18.0,2,1.014
6490,207.68,-7.7281,-4.4716,0.1799,0.0003,0.0000,-1.9912,flat,18.0,3,0.808
6500,208.00,-7.8445,-4.8114,0.1798,-0.0003,0.0001,-1.7381,rough,14.0,0,13.192
6510,208.32,-7.8931,-5.0902,0.1798,-0.0002,0.0000,-1.3780,rough,14.0,0,13.250
6520,208.64,-7.8128,-5.4165,0.1799,-0.0000,0.0001,-1.1253,rough,14.0,0,13.188
6530,208.96,-7.5986,-5.7807,0.1799,-0.0001,-0.0000,-0.8795,flat,18.0,0,13.005
6540,209.28,-7.2584,-6.1248,0.1799,0.0000,-0.0000,-0.6818,flat,18.0,0,12.705
6550,209.60,-6.8342,-6.4255,0.1799,0.0001,-0.0000,-0.5062,flat,18.0,0,12.327
6560,209.92,-6.3483,-6.6667,0.1799,0.0001,-0.0000,-0.3523,flat,18.0,0,11.888
6570,210.24,-5.8216,-6.8412,0.1799,0.0003,-0.0000,-0.2243,flat,18.0,0,11.405
6580,210.56,-5.2728,-6.9532,0.1798,0.0004,-0.0000,-0.1228,flat,18.0,0,10.893
6590,210.88,-4.7126,-7.0125,0.1798,0.0004,-0.0000,-0.0418,flat,18.0,0,10.361
6600,211.20,-4.1469,-7.0283,0.1797,0.0003,-0.0000,0.0229,flat,18.0,0,9.817
6610,211.52,-3.5810,-7.0095,0.1797,0.0002,-0.0000,0.0709,flat,18.0,0,9.266
6620,211.84,-3.0153,-6.9645,0.1797,0.0001,-0.0000,0.1091,flat,18.0,0,8.710
6630,212.16,-2.4507,-6.8986,0.1797,0.0001,-0.0000,0.1405,flat,18.0,0,8.150
6640,212.48,-1.8875,-6.8153,0.1797,0.0001,-0.0000,0.1671,flat,18.0,0,7.588
6650,212.80,-1.3258,-6.7174,0.1797,0.0001,-0.0000,0.1900,flat,18.0,0,7.023
6660,213.12,-0.7658,-6.6069,0.1797,0.0001,-0.0000,0.2100,flat,18.0,0,6.457
6670,213.44,-0.2076,-6.4854,0.1797,0.0001,-0.0000,0.2277,flat,18.0,0,5.890
6680,213.76,0.3488,-6.3541,0.1797,0.0001,-0.0000,0.2437,flat,18.0,0,5.322
6690,214.08,0.9034,-6.2140,0.1797,0.0001,-0.0000,0.2583,flat,18.0,0,4.753
6700,214.40,1.4561,-6.0659,0.1797,0.0000,-0.0000,0.2719,flat,18.0,0,4.184
6710,214.72,2.0069,-5.9102,0.1797,0.0000,-0.0000,0.2849,flat,18.0,0,3.616
6720,215.04,2.5556,-5.7475,0.1797,0.0000,-0.0000,0.2978,flat,18.0,0,3.047
6730,215.36,3.1020,-5.5776,0.1797,0.0000,0.0000,0.3110,flat,18.0,0,2.479
6740,215.68,3.6457,-5.4006,0.1797,0.0001,0.0000,0.3256,flat,18.0,0,1.913
6750,216.00,4.1856,-5.2155,0.1797,0.0001,0.0000,0.3436,flat,18.0,0,1.352
6760,216.32,4.7186,-5.0209,0.1797,0.0001,0.0000,0.3725,flat,18.0,0,0.802
6770,216.64,5.1207,-4.8466,0.1799,-0.0003,0.0000,0.5917,flat,18.0,1,13.019
6780,216.96,5.4402,-4.5765,0.1799,0.0000,-0.0000,0.8510,flat,18.0,1,12.870
6790,217.28,5.7226,-4.1931,0.1799,0.0000,-0.0000,1.0782,flat,18.0,1,12.613
6800,217.60,5.9402,-3.7271,0.1799,0.0001,-0.0000,1.2813,flat,18.0,1,12.267
6810,217.92,6.0735,-3.2065,0.1799,0.0001,-0.0000,1.4554,flat,18.0,1,11.849
6820,218.24,6.1202,-2.6572,0.1799,0.0001,-0.0000,1.5998,flat,18.0,1,11.375
6830,218.56,6.0914,-2.1006,0.1798,0.0004,-0.0000,1.7039,flat,18.0,1,10.867
6840,218.88,6.0075,-1.5465,0.1798,0.0003,-0.0000,1.7798,flat,18.0,1,10.339
6850,219.20,5.8830,-0.9975,0.1797,0.0002,-0.0000,1.8381,flat,18.0,1,9.800
6860,219.52,5.7274,-0.4544,0.1797,0.0002,-0.0000,1.8842,flat,18.0,1,9.252
6870,219.84,5.5475,0.0818,0.1797,0.0001,-0.0000,1.9198,flat,18.0,1,8.700
6880,220.16,5.3488,0.6129,0.1797,0.0001,-0.0000,1.9500,flat,18.0,1,8.143
6890,220.48,5.1342,1.1389,0.1797,0.0001,-0.0000,1.9760,flat,18.0,1,7.585
6900,220.80,4.9060,1.6601,0.1797,0.0001,-0.0000,1.9988,flat,18.0,1,7.023
6910,221.12,4.6660,2.1768,0.1797,0.0001,-0.0000,2.0191,flat,18.0,1,6.461
6920,221.44,4.4157,2.6892,0.1797,0.0001,-0.0000,2.0373,flat,18.0,1,5.897
6930,221.76,4.1560,3.1975,0.1797,0.0001,-0.0000,2.0538,flat,18.0,1,5.333
6940,222.08,3.8880,3.7018,0.1797,0.0001,-0.0000,2.0692,flat,18.0,1,4.768
6950,222.40,3.6122,4.2022,0.1797,0.0001,-0.0000,2.0837,flat,18.0,1,4.203
6960,222.72,3.3292,4.6987,0.1797,0.0000,-0.0000,2.0976,flat,18.0,1,3.639
6970,223.04,3.0393,5.1913,0.1797,0.0000,-0.0000,2.1114,flat,18.0,1,3.075
6980,223.36,2.7427,5.6797,0.1797,0.0000,0.0000,2.1256,flat,18.0,1,2.514
6990,223.68,2.4391,6.1633,0.1797,0.0001,0.0000,2.1408,flat,18.0,1,1.957
7000,224.00,2.1282,6.6412,0.1797,0.0001,0.0000,2.1589,flat,18.0,1,1.409
7010,224.32,1.8089,7.1106,0.1797,0.0001,0.0000,2.1841,flat,18.0,1,0.885
7020,224.64,1.5531,7.4493,0.1798,-0.0002,0.0001,2.4450,flat,18.0,2,15.560
7030,224.96,1.2521,7.6515,0.1799,-0.0001,-0.0001,2.7932,flat,18.0,2,15.542
7040,225.28,0.8957,7.7582,0.1798,0.0006,0.0006,3.0066,flat,18.0,2,15.423
7050,225.60,0.4510,7.7945,0.1799,-0.0001,-0.0000,-3.0145,flat,18.0,2,15.204
7060,225.92,-0.0403,7.7093,0.1799,0.0000,-0.0000,-2.8013,flat,18.0,2,14.867
7070,226.24,-0.5265,7.5123,0.1799,0.0001,-0.0000,-2.6431,flat,18.0,2,14.447
7080,226.56,-0.9907,7.2336,0.1799,0.0003,-0.0000,-2.5253,flat,18.0,2,13.973
7090,226.88,-1.4304,6.8996,0.1798,0.0003,-0.0000,-2.4458,flat,18.0,2,13.467
7100,227.20,-1.8468,6.5313,0.1797,0.0002,-0.0000,-2.3802,flat,18.0,2,12.945
7110,227.52,-2.2407,6.1353,0.1797,0.0002,-0.0000,-2.3233,flat,18.0,2,12.412
7120,227.84,-2.6143,5.7170,0.1797,0.0002,-0.0000,-2.2747,flat,18.0,2,11.870
7130,228.16,-2.9703,5.2813,0.1797,0.0001,-0.0000,-2.2336,flat,18.0,2,11.322
7140,228.48,-3.3108,4.8305,0.1797,0.0001,-0.0000,-2.1973,flat,18.0,2,10.769
7150,228.80,-3.6367,4.3671,0.1797,0.0001,-0.0000,-2.1651,flat,18.0,2,10.211
7160,229.12,-3.9493,3.8929,0.1797,0.0001,-0.0000,-2.1365,flat,18.0,2,9.650
7170,229.44,-4.2496,3.4095,0.1797,0.0001,-0.0000,-2.1110,flat,18.0,2,9.087
7180,229.76,-4.5385,2.9182,0.1797,0.0001,-0.0000,-2.0881,flat,18.0,2,8.521
7190,230.08,-4.8169,2.4201,0.1797,0.0001,-0.0000,-2.0674,flat,18.0,2,7.954
7200,230.40,-5.0857,1.9161,0.1797,0.0001,-0.0000,-2.0487,flat,18.0,2,7.385
7210,230.72,-5.3457,1.4068,0.1797,0.0001,-0.0000,-2.0316,flat,18.0,2,6.816
7220,231.04,-5.5974,0.8930,0.1797,0.0001,-0.0000,-2.0159,flat,18.0,2,6.245
7230,231.36,-5.8414,0.3751,0.1797,0.0001,-0.0000,-2.0014,flat,18.0,2,5.674
7240,231.68,-6.0782,-0.1464,0.1797,0.0000,-0.0000,-1.9877,flat,18.0,2,5.102
7250,232.00,-6.3080,-0.6712,0.1797,0.0000,-0.0000,-1.9747,flat,18.0,2,4.530
7260,232.32,-6.5312,-1.1990,0.1797,0.0000,-0.0000,-1.9622,flat,18.0,2,3.957
7270,232.64,-6.7478,-1.7296,0.1797,0.0000,-0.0000,-1.9497,flat,18.0,2,3.385
7280,232.96,-6.9578,-2.2628,0.1797,0.0000,0.0000,-1.9370,flat,18.0,2,2.812
7290,233.28,-7.1609,-2.7985,0.1797,0.0000,0.0000,-1.9233,flat,18.0,2,2.239
7300,233.60,-7.3562,-3.3366,0.1797,0.0001,0.0000,-1.9072,flat,18.0,2,1.667
7310,233.92,-7.5418,-3.8766,0.1797,0.0001,0.0000,-1.8849,flat,18.0,2,1.096
7320,234.24,-7.7050,-4.4030,0.1798,0.0001,0.0001,-1.9380,flat,18.0,3,0.864
7330,234.56,-7.8202,-4.7725,0.1798,-0.0002,0.0002,-1.7739,rough,14.0,0,13.167
7340,234.88,-7.8768,-5.0621,0.1798,-0.0002,0.0001,-1.4134,rough,14.0,0,13.233
7350,235.20,-7.8107,-5.3846,0.1799,-0.0001,0.0001,-1.1465,rough,14.0,0,13.184
7360,235.52,-7.6071,-5.7500,0.1799,-0.0001,-0.0000,-0.8961,flat,18.0,0,13.010
7370,235.84,-7.2744,-6.0968,0.1799,0.0000,-0.0000,-0.6955,flat,18.0,0,12.717
7380,236.16,-6.8556,-6.4014,0.1799,0.0000,-0.0000,-0.5185,flat,18.0,0,12.344
7390,236.48,-6.3735,-6.6474,0.1799,0.0001,-0.0000,-0.3629,flat,18.0,0,11.910
7400,236.80,-5.8491,-6.8268,0.1799,0.0002,-0.0000,-0.2329,flat,18.0,0,11.429
7410,237.12,-5.3016,-6.9432,0.1798,0.0004,-0.0000,-0.1297,flat,18.0,0,10.918
7420,237.44,-4.7419,-7.0061,0.1798,0.0004,-0.0000,-0.0473,flat,18.0,0,10.388
7430,237.76,-4.1765,-7.0249,0.1797,0.0003,-0.0000,0.0186,flat,18.0,0,9.845
7440,238.08,-3.6105,-7.0084,0.1797,0.0002,-0.0000,0.0676,flat,18.0,0,9.294
7450,238.40,-3.0448,-6.9651,0.1797,0.0001,-0.0000,0.1065,flat,18.0,0,8.738
7460,238.72,-2.4801,-6.9006,0.1797,0.0001,-0.0000,0.1384,flat,18.0,0,8.179
7470,239.04,-1.9167,-6.8186,0.1797,0.0001,-0.0000,0.1653,flat,18.0,0,7.616
7480,239.36,-1.3549,-6.7217,0.1797,0.0001,-0.0000,0.1884,flat,18.0,0,7.052
7490,239.68,-0.7948,-6.6120,0.1797,0.0001,-0.0000,0.2086,flat,18.0,0,6.486
7500,240.00,-0.2365,-6.4913,0.1797,0.0001,-0.0000,0.2265,flat,18.0,0,5.919
7510,240.32,0.3200,-6.3606,0.1797,0.0001,-0.0000,0.2426,flat,18.0,0,5.351
7520,240.64,0.8747,-6.2211,0.1797,0.0001,-0.0000,0.2573,flat,18.0,0,4.783
7530,240.96,1.4276,-6.0735,0.1797,0.0000,-0.0000,0.2710,flat,18.0,0,4.214
7540,241.28,1.9785,-5.9184,0.1797,0.0000,-0.0000,0.2841,flat,18.0,0,3.645
7550,241.60,2.5273,-5.7561,0.1797,0.0000,-0.0000,0.2970,flat,18.0,0,3.076
7560,241.92,3.0739,-5.5867,0.1797,0.0000,0.0000,0.3102,flat,18.0,0,2.509
7570,242.24,3.6178,-5.4101,0.1797,0.0001,0.0000,0.3247,flat,18.0,0,1.943
7580,242.56,4.1579,-5.2255,0.1797,0.0001,0.0000,0.3425,flat,18.0,0,1.380
7590,242.88,4.6914,-5.0314,0.1797,0.0001,0.0000,0.3705,flat,18.0,0,0.829
7600,243.20,5.0944,-4.8580,0.1799,-0.0003,0.0000,0.5886,flat,18.0,1,13.022
7610,243.52,5.4146,-4.5892,0.1799,-0.0000,-0.0000,0.8482,flat,18.0,1,12.873
7620,243.84,5.6978,-4.2067,0.1799,0.0000,-0.0000,1.0752,flat,18.0,1,12.616
7630,244.16,5.9167,-3.7414,0.1799,0.0001,-0.0000,1.2782,flat,18.0,1,12.271
7640,244.48,6.0514,-3.2213,0.1799,0.0001,-0.0000,1.4524,flat,18.0,1,11.853
7650,244.80,6.0999,-2.6721,0.1799,0.0001,-0.0000,1.5970,flat,18.0,1,11.379
7660,245.12,6.0725,-2.1154,0.1798,0.0004,-0.0000,1.7014,flat,18.0,1,10.871
7670,245.44,5.9900,-1.5611,0.1798,0.0003,-0.0000,1.7775,flat,18.0,1,10.344
7680,245.76,5.8668,-1.0118,0.1797,0.0002,-0.0000,1.8359,flat,18.0,1,9.804
7690,246.08,5.7124,-0.4684,0.1797,0.0002,-0.0000,1.8821,flat,18.0,1,9.256
7700,246.40,5.5336,0.0683,0.1797,0.0001,-0.0000,1.9177,flat,18.0,1,8.704
7710,246.72,5.3360,0.5997,0.1797,0.0001,-0.0000,1.9479,flat,18.0,1,8.148
7720,247.04,5.1225,1.1262,0.1797,0.0001,-0.0000,1.9740,flat,18.0,1,7.589
7730,247.36,4.8954,1.6479,0.1797,0.0001,-0.0000,1.9968,flat,18.0,1,7.028
7740,247.68,4.6566,2.1651,0.1797,0.0001,-0.0000,2.0170,flat,18.0,1,6.465
7750,248.00,4.4073,2.6780,0.1797,0.0001,-0.0000,2.0352,flat,18.0,1,5.901
7760,248.32,4.1487,3.1869,0.1797,0.0001,-0.0000,2.0518,flat,18.0,1,5.337
7770,248.64,3.8817,3.6918,0.1797,0.0001,-0.0000,2.0671,flat,18.0,1,4.772
7780,248.96,3.6070,4.1928,0.1797,0.0001,-0.0000,2.0816,flat,18.0,1,4.207
7790,249.28,3.3251,4.6899,0.1797,0.0000,-0.0000,2.0955,flat,18.0,1,3.643
7800,249.60,3.0362,5.1831,0.1797,0.0000,-0.0000,2.1093,flat,18.0,1,3.080
7810,249.92,2.7406,5.6721,0.1797,0.0000,0.0000,2.1234,flat,18.0,1,2.518
7820,250.24,2.4381,6.1564,0.1797,0.0001,0.0000,2.1386,flat,18.0,1,1.961
7830,250.56,2.1282,6.6350,0.1797,0.0001,0.0000,2.1566,flat,18.0,1,1.413
7840,250.88,1.8100,7.1053,0.1797,0.0001,0.0000,2.1816,flat,18.0,1,0.889
7850,251.20,1.5551,7.4447,0.1798,-0.0002,0.0001,2.4425,flat,18.0,2,15.558
7860,251.52,1.2549,7.6472,0.1799,-0.0001,-0.0001,2.7907,flat,18.0,2,15.540
7870,251.84,0.8827,7.7617,0.1799,0.0001,-0.0001,3.0416,flat,18.0,2,15.418
7880,252.16,0.4148,7.7862,0.1799,0.0001,-0.0001,-2.9680,flat,18.0,2,15.177
7890,252.48,-0.0782,7.6771,0.1799,0.0001,-0.0000,-2.7683,flat,18.0,2,14.820
7900,252.80,-0.5618,7.4625,0.1799,0.0001,-0.0000,-2.6189,flat,18.0,2,14.386
7910,253.12,-1.0214,7.1721,0.1798,0.0004,-0.0000,-2.5090,flat,18.0,2,13.904
7920,253.44,-1.4576,6.8312,0.1798,0.0003,-0.0000,-2.4347,flat,18.0,2,13.394
7930,253.76,-1.8704,6.4581,0.1797,0.0002,-0.0000,-2.3707,flat,18.0,2,12.869
7940,254.08,-2.2614,6.0582,0.1797,0.0002,-0.0000,-2.3160,flat,18.0,2,12.334
7950,254.40,-2.6325,5.6372,0.1797,0.0002,-0.0000,-2.2693,flat,18.0,2,11.791
7960,254.72,-2.9868,5.1994,0.1797,0.0001,-0.0000,-2.2294,flat,18.0,2,11.242
7970,255.04,-3.3258,4.7471,0.1797,0.0001,-0.0000,-2.1942,flat,18.0,2,10.687
7980,255.36,-3.6507,4.2826,0.1797,0.0001,-0.0000,-2.1629,flat,18.0,2,10.129
7990,255.68,-3.9625,3.8076,0.1797,0.0001,-0.0000,-2.1351,flat,18.0,2,9.567
8000,256.00,-4.2623,3.3237,0.1797,0.0001,-0.0000,-2.1102,flat,18.0,2,9.003
8010,256.32,-4.5510,2.8321,0.1797,0.0001,-0.0000,-2.0879,flat,18.0,2,8.437
8020,256.64,-4.8295,2.3339,0.1797,0.0001,-0.0000,-2.0678,flat,18.0,2,7.870
8030,256.96,-5.0986,1.8299,0.1797,0.0001,-0.0000,-2.0495,flat,18.0,2,7.301
8040,257.28,-5.3591,1.3208,0.1797,0.0001,-0.0000,-2.0328,flat,18.0,2,6.731
8050,257.60,-5.6114,0.8072,0.1797,0.0001,-0.0000,-2.0174,flat,18.0,2,6.160
8060,257.92,-5.8562,0.2896,0.1797,0.0001,-0.0000,-2.0031,flat,18.0,2,5.589
