step,time_s,x,y,z,roll,pitch,yaw,terrain,speed,target_idx,dist_to_target
10,0.32,0.9498,-0.8102,0.1572,0.1890,-0.0015,-0.2713,slope,18.0,0,5.752
20,0.64,1.2199,-0.8904,0.1589,0.1582,0.0467,-0.3063,rough,14.0,0,5.495
30,0.96,1.5643,-1.0294,0.1402,0.1405,0.0496,-0.5484,slope,18.0,0,5.146
40,1.28,2.0101,-1.3444,0.0849,0.0828,0.1871,-0.6717,slope,18.0,0,4.605
50,1.60,2.4285,-1.7220,-0.0451,0.1580,0.3331,-0.7399,slope,18.0,0,4.042
60,1.92,2.7721,-2.1710,-0.2615,0.2596,0.5296,-0.7852,rough,14.0,0,3.484
70,2.24,2.9898,-2.4621,-0.3820,0.2786,0.0943,-0.8828,slope,18.0,0,3.128
80,2.56,3.2782,-2.9035,-0.4501,0.3290,0.0804,-0.8752,slope,18.0,0,2.624
90,2.88,3.6090,-3.3313,-0.4878,0.3541,0.1212,-0.7304,rough,14.0,0,2.104
100,3.20,3.9042,-3.6955,-0.5772,0.3579,0.1158,-0.6149,rough,14.0,0,1.660
110,3.52,4.1449,-3.9295,-0.5625,0.3227,-0.2461,-0.6907,slope,18.0,0,1.337
120,3.84,4.4515,-4.1615,-0.4596,0.2058,-0.2891,-0.6873,rough,14.0,1,12.166
130,4.16,4.6299,-4.3079,-0.3922,0.1376,-0.3198,-0.4713,rough,14.0,1,12.357
140,4.48,4.6054,-4.3536,-0.3960,0.0331,-0.3229,-0.1468,rough,14.0,1,12.394
150,4.80,4.4306,-4.3512,-0.4634,-0.0458,-0.3658,-0.0108,rough,14.0,1,12.342
160,5.12,4.4564,-4.3551,-0.4528,-0.0488,-0.3691,-0.0119,rough,14.0,1,12.353
170,5.44,4.6496,-4.3612,-0.3855,-0.0298,-0.3648,0.0123,rough,14.0,1,12.414
180,5.76,4.6837,-4.3692,-0.3681,-0.0624,-0.3215,0.1232,rough,14.0,1,12.431
190,6.08,4.6516,-4.3551,-0.3812,-0.2128,-0.3369,0.4485,rough,14.0,1,12.409
200,6.40,4.7242,-4.2971,-0.3584,-0.2515,-0.2731,0.7270,rough,14.0,1,12.375
210,6.72,4.9482,-4.1507,-0.3128,-0.1112,-0.1811,1.0073,rough,14.0,1,12.305
220,7.04,5.0394,-3.8791,-0.2707,-0.2029,-0.1492,1.3178,slope,18.0,1,12.078
230,7.36,5.0467,-3.4804,-0.2700,-0.2845,0.0035,1.5449,rough,14.0,1,11.705
240,7.68,4.9895,-3.1042,-0.2853,-0.2610,0.0311,1.7637,rough,14.0,1,11.332
250,8.00,4.9186,-2.7603,-0.2896,-0.1376,-0.1209,1.9570,rough,14.0,1,10.986
260,8.32,4.7972,-2.3710,-0.2544,0.0691,-0.1759,2.0399,slope,18.0,1,10.579
270,8.64,4.5759,-1.8978,-0.2027,0.1494,0.0037,2.0533,rough,14.0,1,10.058
280,8.96,4.3843,-1.5033,-0.2311,0.1040,0.1100,1.9967,rough,14.0,1,9.621
290,9.28,4.2590,-1.1065,-0.2489,0.2670,0.0895,1.9270,rough,14.0,1,9.205
300,9.60,4.1683,-0.7363,-0.2532,0.3269,-0.1541,1.8337,rough,14.0,1,8.827
310,9.92,4.0727,-0.3495,-0.1938,0.2377,-0.1926,1.7790,rough,14.0,1,8.432
320,10.24,3.9890,0.0427,-0.1286,0.1354,-0.1782,1.7364,slope,18.0,1,8.036
330,10.56,3.9036,0.5556,-0.0913,0.1114,-0.0346,1.7355,rough,14.0,1,7.529
340,10.88,3.8335,1.0023,-0.1120,0.1715,0.2113,1.8451,rough,14.0,1,7.090
350,11.20,3.7281,1.3637,-0.1692,0.1680,0.1219,1.9722,rough,14.0,1,6.717
360,11.52,3.5879,1.8214,-0.2165,0.3866,0.0390,2.0343,rough,14.0,1,6.242
370,11.84,3.4378,2.2485,-0.2398,0.4322,-0.0742,2.0723,rough,14.0,1,5.791
380,12.16,3.2182,2.6496,-0.2638,0.3779,0.1208,2.0729,rough,14.0,1,5.335
390,12.48,2.9683,3.0578,-0.4077,0.2897,0.3613,2.1070,rough,14.0,1,4.860
400,12.80,2.8166,3.4005,-0.5569,0.2937,0.3778,1.9753,rough,14.0,1,4.485
410,13.12,2.6982,3.7720,-0.7100,0.2743,0.3837,1.8750,rough,14.0,1,4.098
420,13.44,2.5917,4.1381,-0.7955,0.1630,0.2074,1.7976,rough,14.0,1,3.720
430,13.76,2.4324,4.5451,-0.9044,-0.1552,0.2561,1.8136,rough,14.0,1,3.284
440,14.08,2.3193,4.9839,-1.0260,-0.1732,0.3140,1.8489,rough,14.0,1,2.841
450,14.40,2.1300,5.4116,-1.1835,-0.4154,0.4446,1.8083,rough,14.0,1,2.374
460,14.72,1.9643,5.7768,-1.2925,-0.4312,0.1070,1.9292,rough,14.0,1,1.974
470,15.04,1.8493,6.0726,-1.2907,-0.3072,-0.2959,2.0500,rough,14.0,1,1.660
480,15.36,1.6511,6.3751,-1.2244,-0.3975,-0.1089,2.0229,rough,14.0,1,1.299
490,15.68,1.4814,6.6772,-1.2215,-0.4634,-0.0716,1.9587,rough,14.0,2,14.909
500,16.00,1.2999,7.0166,-1.2203,-0.3939,-0.0620,2.0754,rough,14.0,2,15.063
510,16.32,1.0567,7.3506,-1.2193,-0.4991,-0.0369,2.1286,rough,14.0,2,15.184
520,16.64,0.8450,7.5915,-1.1598,-0.5140,-0.4701,2.3437,rough,14.0,2,15.257
530,16.96,0.5942,7.8501,-1.0284,-0.4126,-0.4106,2.3895,rough,14.0,2,15.329
540,17.28,0.3124,8.0546,-0.9167,-0.4679,-0.2908,2.4301,rough,14.0,2,15.347
550,17.60,0.0465,8.2745,-0.8550,-0.4016,-0.1399,2.4583,rough,14.0,2,15.395
560,17.92,-0.2126,8.4390,-0.8309,-0.4619,-0.0173,2.4954,rough,14.0,2,15.405
570,18.24,-0.4431,8.5545,-0.8485,-0.5501,0.0770,2.5749,rough,14.0,2,15.393
580,18.56,-0.5152,8.5323,-0.8732,-0.4957,-0.0127,2.7185,rough,14.0,2,15.338
590,18.88,-0.5166,8.5275,-0.8777,-0.5036,0.0171,2.7183,rough,14.0,2,15.333
600,19.20,-0.5136,8.5554,-0.8596,-0.4681,0.0494,2.8560,rough,14.0,2,15.359
610,19.52,-0.5086,8.5608,-0.8558,-0.4556,0.0715,2.8882,rough,14.0,2,15.366
620,19.84,-0.5098,8.5611,-0.8562,-0.4563,0.0698,2.8876,rough,14.0,2,15.366
630,20.16,-0.5104,8.5612,-0.8563,-0.4565,0.0691,2.8875,rough,14.0,2,15.366
640,20.48,-0.5109,8.5611,-0.8565,-0.4570,0.0681,2.8864,rough,14.0,2,15.366
650,20.80,-0.5110,8.5611,-0.8566,-0.4572,0.0678,2.8859,rough,14.0,2,15.366
660,21.12,-0.5110,8.5611,-0.8566,-0.4572,0.0679,2.8859,rough,14.0,2,15.366
670,21.44,-0.5110,8.5610,-0.8567,-0.4574,0.0676,2.8851,rough,14.0,2,15.365
680,21.76,-0.5108,8.5611,-0.8566,-0.4572,0.0682,2.8855,rough,14.0,2,15.366
690,22.08,-0.5111,8.5611,-0.8567,-0.4575,0.0676,2.8850,rough,14.0,2,15.366
700,22.40,-0.5115,8.5611,-0.8569,-0.4579,0.0668,2.8842,rough,14.0,2,15.365
710,22.72,-0.5110,8.5612,-0.8567,-0.4574,0.0680,2.8850,rough,14.0,2,15.366
720,23.04,-0.5112,8.5611,-0.8568,-0.4577,0.0675,2.8844,rough,14.0,2,15.365
730,23.36,-0.5112,8.5612,-0.8568,-0.4576,0.0676,2.8844,rough,14.0,2,15.366
740,23.68,-0.5111,8.5612,-0.8567,-0.4576,0.0679,2.8845,rough,14.0,2,15.366
750,24.00,-0.5116,8.5612,-0.8569,-0.4581,0.0668,2.8835,rough,14.0,2,15.365
760,24.32,-0.5114,8.5612,-0.8568,-0.4580,0.0672,2.8836,rough,14.0,2,15.365
770,24.64,-0.5117,8.5612,-0.8570,-0.4584,0.0664,2.8829,rough,14.0,2,15.365
780,24.96,-0.5120,8.5611,-0.8571,-0.4588,0.0657,2.8820,rough,14.0,2,15.365
790,25.28,-0.5123,8.5611,-0.8572,-0.4590,0.0652,2.8814,rough,14.0,2,15.365
800,25.60,-0.5123,8.5611,-0.8572,-0.4590,0.0652,2.8814,rough,14.0,2,15.365
810,25.92,-0.5122,8.5611,-0.8572,-0.4591,0.0652,2.8812,rough,14.0,2,15.365
820,26.24,-0.5120,8.5613,-0.8570,-0.4587,0.0660,2.8821,rough,14.0,2,15.365
830,26.56,-0.5118,8.5613,-0.8570,-0.4586,0.0663,2.8821,rough,14.0,2,15.365
840,26.88,-0.5123,8.5612,-0.8572,-0.4592,0.0650,2.8808,rough,14.0,2,15.365
850,27.20,-0.5122,8.5613,-0.8571,-0.4591,0.0653,2.8809,rough,14.0,2,15.365
860,27.52,-0.5123,8.5614,-0.8571,-0.4592,0.0651,2.8809,rough,14.0,2,15.365
870,27.84,-0.5126,8.5614,-0.8572,-0.4595,0.0646,2.8804,rough,14.0,2,15.365
880,28.16,-0.5126,8.5614,-0.8572,-0.4595,0.0645,2.8803,rough,14.0,2,15.365
890,28.48,-0.5126,8.5615,-0.8572,-0.4595,0.0645,2.8803,rough,14.0,2,15.365
900,28.80,-0.5126,8.5615,-0.8572,-0.4595,0.0645,2.8802,rough,14.0,2,15.365
910,29.12,-0.5124,8.5616,-0.8571,-0.4593,0.0649,2.8806,rough,14.0,2,15.365
920,29.44,-0.5124,8.5616,-0.8571,-0.4593,0.0650,2.8805,rough,14.0,3,15.603
930,29.76,-0.5129,8.5616,-0.8572,-0.4599,0.0638,2.8795,rough,14.0,3,15.602
940,30.08,-0.5126,8.5616,-0.8571,-0.4596,0.0643,2.8798,rough,14.0,3,15.603
950,30.40,-0.5129,8.5617,-0.8572,-0.4599,0.0638,2.8795,rough,14.0,3,15.602
960,30.72,-0.5126,8.5618,-0.8571,-0.4596,0.0643,2.8798,rough,14.0,3,15.603
970,31.04,-0.5129,8.5618,-0.8571,-0.4599,0.0638,2.8795,rough,14.0,3,15.603
980,31.36,-0.5126,8.5619,-0.8570,-0.4596,0.0644,2.8799,rough,14.0,3,15.603
990,31.68,-0.5128,8.5619,-0.8571,-0.4598,0.0638,2.8795,rough,14.0,3,15.603
1000,32.00,-0.5130,8.5619,-0.8571,-0.4600,0.0634,2.8792,rough,14.0,3,15.603
1010,32.32,-0.5132,8.5620,-0.8572,-0.4603,0.0629,2.8787,rough,14.0,3,15.602
1020,32.64,-0.5134,8.5620,-0.8572,-0.4605,0.0624,2.8782,rough,14.0,3,15.602
1030,32.96,-0.5134,8.5620,-0.8572,-0.4605,0.0624,2.8782,rough,14.0,3,15.602
1040,33.28,-0.5134,8.5621,-0.8572,-0.4605,0.0624,2.8783,rough,14.0,3,15.603
1050,33.60,-0.5134,8.5622,-0.8571,-0.4604,0.0624,2.8784,rough,14.0,3,15.603
1060,33.92,-0.5134,8.5622,-0.8571,-0.4604,0.0624,2.8785,rough,14.0,3,15.603
1070,34.24,-0.5132,8.5623,-0.8570,-0.4603,0.0627,2.8789,rough,14.0,3,15.603
1080,34.56,-0.5130,8.5625,-0.8569,-0.4600,0.0632,2.8794,rough,14.0,3,15.603
1090,34.88,-0.5129,8.5625,-0.8568,-0.4599,0.0634,2.8795,rough,14.0,3,15.603
1100,35.20,-0.5134,8.5625,-0.8570,-0.4604,0.0623,2.8787,rough,14.0,3,15.603
1110,35.52,-0.5130,8.5627,-0.8568,-0.4600,0.0632,2.8796,rough,14.0,3,15.603
1120,35.84,-0.5136,8.5626,-0.8570,-0.4607,0.0617,2.8781,rough,14.0,3,15.603
1130,36.16,-0.5131,8.5628,-0.8567,-0.4600,0.0630,2.8796,rough,14.0,3,15.603
1140,36.48,-0.5135,8.5628,-0.8569,-0.4605,0.0619,2.8786,rough,14.0,3,15.603
1150,36.80,-0.5129,8.5630,-0.8566,-0.4598,0.0633,2.8800,rough,14.0,3,15.603
1160,37.12,-0.5133,8.5629,-0.8568,-0.4603,0.0623,2.8791,rough,14.0,3,15.603
1170,37.44,-0.5136,8.5629,-0.8568,-0.4605,0.0616,2.8785,rough,14.0,3,15.603
1180,37.76,-0.5130,8.5631,-0.8565,-0.4598,0.0631,2.8799,rough,14.0,3,15.604
1190,38.08,-0.5130,8.5632,-0.8565,-0.4598,0.0631,2.8802,rough,14.0,3,15.604
1200,38.40,-0.5131,8.5633,-0.8565,-0.4599,0.0629,2.8801,rough,14.0,3,15.604
1210,38.72,-0.5131,8.5634,-0.8564,-0.4599,0.0628,2.8802,rough,14.0,3,15.604
1220,39.04,-0.5130,8.5635,-0.8564,-0.4597,0.0629,2.8803,rough,14.0,3,15.604
1230,39.36,-0.5137,8.5634,-0.8566,-0.4605,0.0612,2.8789,rough,14.0,3,15.603
1240,39.68,-0.5138,8.5635,-0.8566,-0.4605,0.0610,2.8790,rough,14.0,3,15.604
1250,40.00,-0.5138,8.5636,-0.8566,-0.4605,0.0610,2.8791,rough,14.0,3,15.604
1260,40.32,-0.5138,8.5637,-0.8565,-0.4605,0.0610,2.8792,rough,14.0,3,15.604
1270,40.64,-0.5138,8.5638,-0.8564,-0.4605,0.0610,2.8793,rough,14.0,3,15.604
1280,40.96,-0.5138,8.5639,-0.8564,-0.4604,0.0609,2.8794,rough,14.0,3,15.604
1290,41.28,-0.5138,8.5640,-0.8563,-0.4604,0.0609,2.8795,rough,14.0,0,14.336
1300,41.60,-0.5137,8.5641,-0.8563,-0.4604,0.0609,2.8797,rough,14.0,0,14.336
1310,41.92,-0.5137,8.5642,-0.8562,-0.4603,0.0609,2.8798,rough,14.0,0,14.336
1320,42.24,-0.5137,8.5642,-0.8562,-0.4603,0.0609,2.8799,rough,14.0,0,14.336
1330,42.56,-0.5137,8.5643,-0.8561,-0.4603,0.0608,2.8800,rough,14.0,0,14.336
1340,42.88,-0.5137,8.5644,-0.8561,-0.4602,0.0608,2.8801,rough,14.0,0,14.336
1350,43.20,-0.5136,8.5645,-0.8560,-0.4602,0.0608,2.8802,rough,14.0,0,14.336
1360,43.52,-0.5136,8.5646,-0.8560,-0.4602,0.0608,2.8804,rough,14.0,0,14.337
1370,43.84,-0.5136,8.5647,-0.8559,-0.4601,0.0608,2.8805,rough,14.0,0,14.337
1380,44.16,-0.5136,8.5648,-0.8558,-0.4601,0.0608,2.8806,rough,14.0,0,14.337
1390,44.48,-0.5135,8.5649,-0.8558,-0.4601,0.0608,2.8807,rough,14.0,0,14.337
1400,44.80,-0.5135,8.5650,-0.8557,-0.4600,0.0607,2.8809,rough,14.0,0,14.337
1410,45.12,-0.5135,8.5650,-0.8557,-0.4600,0.0607,2.8810,rough,14.0,0,14.337
1420,45.44,-0.5135,8.5651,-0.8556,-0.4600,0.0607,2.8811,rough,14.0,0,14.337
1430,45.76,-0.5135,8.5652,-0.8556,-0.4599,0.0607,2.8813,rough,14.0,0,14.337
1440,46.08,-0.5134,8.5653,-0.8555,-0.4599,0.0607,2.8814,rough,14.0,0,14.337
1450,46.40,-0.5134,8.5654,-0.8555,-0.4599,0.0607,2.8815,rough,14.0,0,14.337
1460,46.72,-0.5134,8.5655,-0.8554,-0.4598,0.0607,2.8817,rough,14.0,0,14.337
1470,47.04,-0.5134,8.5656,-0.8553,-0.4598,0.0607,2.8818,rough,14.0,0,14.337
1480,47.36,-0.5133,8.5657,-0.8553,-0.4597,0.0607,2.8819,rough,14.0,0,14.337
1490,47.68,-0.5133,8.5658,-0.8552,-0.4597,0.0606,2.8821,rough,14.0,0,14.337
1500,48.00,-0.5133,8.5659,-0.8552,-0.4597,0.0606,2.8822,rough,14.0,0,14.338
1510,48.32,-0.5133,8.5660,-0.8551,-0.4596,0.0606,2.8824,rough,14.0,0,14.338
1520,48.64,-0.5132,8.5660,-0.8551,-0.4596,0.0606,2.8825,rough,14.0,0,14.338
1530,48.96,-0.5127,8.5662,-0.8548,-0.4591,0.0618,2.8836,rough,14.0,0,14.338
1540,49.28,-0.5117,8.5664,-0.8544,-0.4580,0.0640,2.8856,rough,14.0,0,14.337
1550,49.60,-0.5113,8.5666,-0.8542,-0.4576,0.0650,2.8866,rough,14.0,0,14.337
1560,49.92,-0.5106,8.5669,-0.8539,-0.4568,0.0667,2.8884,rough,14.0,0,14.337
1570,50.24,-0.5074,8.5690,-0.8520,-0.4510,0.0775,2.9018,rough,14.0,0,14.338
1580,50.56,-0.5062,8.5701,-0.8512,-0.4482,0.0826,2.9085,rough,14.0,0,14.339
1590,50.88,-0.5061,8.5704,-0.8511,-0.4477,0.0837,2.9098,rough,14.0,0,14.339
1600,51.20,-0.5061,8.5705,-0.8511,-0.4475,0.0842,2.9102,rough,14.0,0,14.339
1610,51.52,-0.5070,8.5702,-0.8514,-0.4490,0.0810,2.9073,rough,14.0,0,14.339
1620,51.84,-0.5067,8.5700,-0.8515,-0.4490,0.0812,2.9065,rough,14.0,0,14.339
1630,52.16,-0.5083,8.5689,-0.8523,-0.4521,0.0751,2.8995,rough,14.0,0,14.338
1640,52.48,-0.5063,8.5704,-0.8512,-0.4483,0.0823,2.9082,rough,14.0,0,14.339
1650,52.80,-0.5072,8.5697,-0.8516,-0.4502,0.0785,2.9039,rough,14.0,1,1.858
1660,53.12,-0.5091,8.5686,-0.8526,-0.4536,0.0717,2.8960,rough,14.0,1,1.859
1670,53.44,-0.5109,8.5682,-0.8533,-0.4558,0.0667,2.8917,rough,14.0,1,1.860
1680,53.76,-0.5089,8.5694,-0.8521,-0.4529,0.0724,2.8987,rough,14.0,1,1.859
1690,54.08,-0.5111,8.5680,-0.8534,-0.4565,0.0652,2.8895,rough,14.0,1,1.860
1700,54.40,-0.5121,8.5680,-0.8536,-0.4575,0.0627,2.8878,rough,14.0,1,1.861
1710,54.72,-0.5119,8.5679,-0.8536,-0.4576,0.0626,2.8871,rough,14.0,1,1.861
1720,55.04,-0.5124,8.5680,-0.8538,-0.4582,0.0614,2.8862,rough,14.0,1,1.861
1730,55.36,-0.5121,8.5681,-0.8536,-0.4578,0.0624,2.8871,rough,14.0,1,1.861
1740,55.68,-0.5126,8.5681,-0.8538,-0.4584,0.0611,2.8859,rough,14.0,1,1.862
1750,56.00,-0.5120,8.5683,-0.8535,-0.4577,0.0626,2.8873,rough,14.0,1,1.861
1760,56.32,-0.5124,8.5683,-0.8536,-0.4581,0.0615,2.8864,rough,14.0,1,1.862
1770,56.64,-0.5128,8.5683,-0.8538,-0.4585,0.0607,2.8857,rough,14.0,1,1.862
1780,56.96,-0.5120,8.5686,-0.8534,-0.4576,0.0627,2.8875,rough,14.0,1,1.861
1790,57.28,-0.5122,8.5687,-0.8534,-0.4578,0.0624,2.8874,rough,14.0,1,1.861
1800,57.60,-0.5122,8.5688,-0.8534,-0.4577,0.0624,2.8875,rough,14.0,1,1.862
1810,57.92,-0.5129,8.5687,-0.8536,-0.4584,0.0606,2.8860,rough,14.0,1,1.862
1820,58.24,-0.5130,8.5689,-0.8536,-0.4584,0.0606,2.8862,rough,14.0,1,1.862
1830,58.56,-0.5130,8.5690,-0.8535,-0.4583,0.0607,2.8864,rough,14.0,1,1.862
1840,58.88,-0.5130,8.5691,-0.8535,-0.4583,0.0607,2.8865,rough,14.0,1,1.862
1850,59.20,-0.5130,8.5692,-0.8534,-0.4583,0.0608,2.8866,rough,14.0,1,1.862
1860,59.52,-0.5130,8.5693,-0.8534,-0.4582,0.0608,2.8867,rough,14.0,1,1.863
1870,59.84,-0.5129,8.5694,-0.8533,-0.4582,0.0608,2.8868,rough,14.0,1,1.863
1880,60.16,-0.5129,8.5695,-0.8533,-0.4582,0.0609,2.8869,rough,14.0,1,1.863
1890,60.48,-0.5129,8.5697,-0.8532,-0.4581,0.0609,2.8870,rough,14.0,1,1.863
1900,60.80,-0.5129,8.5698,-0.8532,-0.4581,0.0609,2.8871,rough,14.0,1,1.863
1910,61.12,-0.5129,8.5699,-0.8531,-0.4581,0.0610,2.8872,rough,14.0,1,1.863
1920,61.44,-0.5128,8.5700,-0.8531,-0.4580,0.0610,2.8873,rough,14.0,1,1.863
1930,61.76,-0.5128,8.5701,-0.8530,-0.4580,0.0610,2.8874,rough,14.0,1,1.863
1940,62.08,-0.5128,8.5702,-0.8529,-0.4580,0.0611,2.8876,rough,14.0,1,1.863
1950,62.40,-0.5128,8.5703,-0.8529,-0.4579,0.0611,2.8877,rough,14.0,1,1.863
1960,62.72,-0.5128,8.5704,-0.8528,-0.4579,0.0612,2.8878,rough,14.0,1,1.863
1970,63.04,-0.5127,8.5705,-0.8528,-0.4578,0.0612,2.8879,rough,14.0,1,1.863
1980,63.36,-0.5127,8.5706,-0.8527,-0.4578,0.0612,2.8881,rough,14.0,1,1.863
1990,63.68,-0.5127,8.5707,-0.8527,-0.4578,0.0613,2.8882,rough,14.0,1,1.863
2000,64.00,-0.5127,8.5709,-0.8526,-0.4577,0.0613,2.8884,rough,14.0,1,1.863
2010,64.32,-0.5126,8.5710,-0.8525,-0.4577,0.0614,2.8885,rough,14.0,1,1.863
2020,64.64,-0.5126,8.5711,-0.8525,-0.4576,0.0614,2.8886,rough,14.0,2,15.374
2030,64.96,-0.5126,8.5712,-0.8524,-0.4576,0.0615,2.8888,rough,14.0,2,15.374
2040,65.28,-0.5126,8.5713,-0.8524,-0.4575,0.0615,2.8889,rough,14.0,2,15.374
2050,65.60,-0.5125,8.5714,-0.8523,-0.4575,0.0615,2.8891,rough,14.0,2,15.374
2060,65.92,-0.5125,8.5715,-0.8522,-0.4574,0.0616,2.8892,rough,14.0,2,15.374
2070,66.24,-0.5125,8.5716,-0.8522,-0.4574,0.0616,2.8894,rough,14.0,2,15.374
2080,66.56,-0.5125,8.5718,-0.8521,-0.4573,0.0617,2.8895,rough,14.0,2,15.374
2090,66.88,-0.5124,8.5719,-0.8521,-0.4573,0.0617,2.8897,rough,14.0,2,15.374
2100,67.20,-0.5124,8.5720,-0.8520,-0.4572,0.0618,2.8898,rough,14.0,2,15.374
2110,67.52,-0.5124,8.5721,-0.8519,-0.4572,0.0618,2.8900,rough,14.0,2,15.375
2120,67.84,-0.5124,8.5722,-0.8519,-0.4571,0.0619,2.8902,rough,14.0,2,15.375
2130,68.16,-0.5123,8.5723,-0.8518,-0.4571,0.0619,2.8903,rough,14.0,2,15.375
2140,68.48,-0.5123,8.5724,-0.8518,-0.4570,0.0620,2.8905,rough,14.0,2,15.375
2150,68.80,-0.5123,8.5726,-0.8517,-0.4570,0.0620,2.8906,rough,14.0,2,15.375
2160,69.12,-0.5123,8.5727,-0.8516,-0.4569,0.0621,2.8908,rough,14.0,2,15.375
2170,69.44,-0.5122,8.5728,-0.8516,-0.4569,0.0621,2.8910,rough,14.0,2,15.375
2180,69.76,-0.5122,8.5729,-0.8515,-0.4568,0.0622,2.8911,rough,14.0,2,15.375
2190,70.08,-0.5122,8.5730,-0.8514,-0.4568,0.0622,2.8913,rough,14.0,2,15.375
2200,70.40,-0.5121,8.5731,-0.8514,-0.4567,0.0623,2.8915,rough,14.0,2,15.376
2210,70.72,-0.5121,8.5732,-0.8513,-0.4567,0.0623,2.8916,rough,14.0,2,15.376
2220,71.04,-0.5121,8.5734,-0.8513,-0.4566,0.0624,2.8918,rough,14.0,2,15.376
2230,71.36,-0.5121,8.5735,-0.8512,-0.4565,0.0624,2.8920,rough,14.0,2,15.376
2240,71.68,-0.5120,8.5736,-0.8511,-0.4565,0.0625,2.8921,rough,14.0,2,15.376
2250,72.00,-0.5120,8.5737,-0.8511,-0.4564,0.0625,2.8923,rough,14.0,2,15.376
2260,72.32,-0.5120,8.5738,-0.8510,-0.4564,0.0626,2.8925,rough,14.0,2,15.376
2270,72.64,-0.5120,8.5739,-0.8509,-0.4563,0.0626,2.8926,rough,14.0,2,15.376
2280,72.96,-0.5119,8.5741,-0.8509,-0.4563,0.0627,2.8928,rough,14.0,2,15.376
2290,73.28,-0.5119,8.5742,-0.8508,-0.4562,0.0627,2.8930,rough,14.0,2,15.377
2300,73.60,-0.5119,8.5743,-0.8508,-0.4562,0.0628,2.8931,rough,14.0,2,15.377
2310,73.92,-0.5119,8.5744,-0.8507,-0.4561,0.0628,2.8933,rough,14.0,2,15.377
2320,74.24,-0.5118,8.5745,-0.8506,-0.4560,0.0629,2.8935,rough,14.0,2,15.377
2330,74.56,-0.5118,8.5746,-0.8506,-0.4560,0.0629,2.8937,rough,14.0,2,15.377
2340,74.88,-0.5118,8.5748,-0.8505,-0.4559,0.0630,2.8938,rough,14.0,2,15.377
2350,75.20,-0.5117,8.5749,-0.8504,-0.4559,0.0630,2.8940,rough,14.0,2,15.377
2360,75.52,-0.5117,8.5750,-0.8504,-0.4558,0.0631,2.8942,rough,14.0,2,15.377
2370,75.84,-0.5117,8.5751,-0.8503,-0.4558,0.0631,2.8944,rough,14.0,2,15.378
2380,76.16,-0.5117,8.5752,-0.8502,-0.4557,0.0632,2.8945,rough,14.0,2,15.378
2390,76.48,-0.5116,8.5754,-0.8502,-0.4556,0.0632,2.8947,rough,14.0,3,15.615
2400,76.80,-0.5116,8.5755,-0.8501,-0.4556,0.0633,2.8949,rough,14.0,3,15.615
2410,77.12,-0.5116,8.5756,-0.8500,-0.4555,0.0633,2.8951,rough,14.0,3,15.615
2420,77.44,-0.5115,8.5757,-0.8500,-0.4555,0.0634,2.8952,rough,14.0,3,15.615
2430,77.76,-0.5115,8.5758,-0.8499,-0.4554,0.0635,2.8954,rough,14.0,3,15.615
2440,78.08,-0.5115,8.5759,-0.8499,-0.4553,0.0635,2.8956,rough,14.0,3,15.615
2450,78.40,-0.5115,8.5761,-0.8498,-0.4553,0.0636,2.8958,rough,14.0,3,15.616
2460,78.72,-0.5114,8.5762,-0.8497,-0.4552,0.0636,2.8959,rough,14.0,3,15.616
2470,79.04,-0.5114,8.5763,-0.8497,-0.4552,0.0637,2.8961,rough,14.0,3,15.616
2480,79.36,-0.5114,8.5764,-0.8496,-0.4551,0.0637,2.8963,rough,14.0,3,15.616
2490,79.68,-0.5114,8.5765,-0.8495,-0.4550,0.0638,2.8965,rough,14.0,3,15.616
2500,80.00,-0.5113,8.5767,-0.8495,-0.4550,0.0638,2.8967,rough,14.0,3,15.616
2510,80.32,-0.5113,8.5768,-0.8494,-0.4549,0.0639,2.8968,rough,14.0,3,15.616
2520,80.64,-0.5113,8.5769,-0.8493,-0.4549,0.0639,2.8970,rough,14.0,3,15.616
2530,80.96,-0.5112,8.5770,-0.8493,-0.4548,0.0640,2.8972,rough,14.0,3,15.616
2540,81.28,-0.5112,8.5771,-0.8492,-0.4548,0.0640,2.8974,rough,14.0,3,15.617
2550,81.60,-0.5112,8.5773,-0.8491,-0.4547,0.0641,2.8975,rough,14.0,3,15.617
2560,81.92,-0.5112,8.5774,-0.8491,-0.4546,0.0641,2.8977,rough,14.0,3,15.617
2570,82.24,-0.5111,8.5775,-0.8490,-0.4546,0.0642,2.8979,rough,14.0,3,15.617
2580,82.56,-0.5111,8.5776,-0.8489,-0.4545,0.0642,2.8981,rough,14.0,3,15.617
2590,82.88,-0.5111,8.5777,-0.8489,-0.4545,0.0643,2.8983,rough,14.0,3,15.617
2600,83.20,-0.5111,8.5779,-0.8488,-0.4544,0.0643,2.8984,rough,14.0,3,15.617
2610,83.52,-0.5110,8.5780,-0.8488,-0.4543,0.0644,2.8986,rough,14.0,3,15.617
2620,83.84,-0.5110,8.5781,-0.8487,-0.4543,0.0644,2.8988,rough,14.0,3,15.618
2630,84.16,-0.5110,8.5782,-0.8486,-0.4542,0.0645,2.8990,rough,14.0,3,15.618
2640,84.48,-0.5109,8.5783,-0.8486,-0.4542,0.0645,2.8991,rough,14.0,3,15.618
2650,84.80,-0.5109,8.5785,-0.8485,-0.4541,0.0646,2.8993,rough,14.0,3,15.618
2660,85.12,-0.5109,8.5786,-0.8484,-0.4540,0.0646,2.8995,rough,14.0,3,15.618
2670,85.44,-0.5109,8.5787,-0.8484,-0.4540,0.0647,2.8997,rough,14.0,3,15.618
2680,85.76,-0.5108,8.5788,-0.8483,-0.4539,0.0647,2.8999,rough,14.0,3,15.618
2690,86.08,-0.5108,8.5789,-0.8482,-0.4539,0.0648,2.9000,rough,14.0,3,15.618
2700,86.40,-0.5108,8.5791,-0.8482,-0.4538,0.0648,2.9002,rough,14.0,3,15.618
2710,86.72,-0.5107,8.5792,-0.8481,-0.4537,0.0649,2.9004,rough,14.0,3,15.619
2720,87.04,-0.5107,8.5793,-0.8480,-0.4537,0.0649,2.9006,rough,14.0,3,15.619
2730,87.36,-0.5107,8.5794,-0.8480,-0.4536,0.0650,2.9007,rough,14.0,3,15.619
2740,87.68,-0.5107,8.5796,-0.8479,-0.4536,0.0650,2.9009,rough,14.0,3,15.619
2750,88.00,-0.5106,8.5797,-0.8478,-0.4535,0.0651,2.9011,rough,14.0,0,14.349
2760,88.32,-0.5106,8.5798,-0.8478,-0.4534,0.0652,2.9013,rough,14.0,0,14.349
2770,88.64,-0.5106,8.5799,-0.8477,-0.4534,0.0652,2.9015,rough,14.0,0,14.349
2780,88.96,-0.5106,8.5800,-0.8476,-0.4533,0.0653,2.9016,rough,14.0,0,14.349
2790,89.28,-0.5105,8.5802,-0.8476,-0.4533,0.0653,2.9018,rough,14.0,0,14.349
2800,89.60,-0.5105,8.5803,-0.8475,-0.4532,0.0654,2.9020,rough,14.0,0,14.350
2810,89.92,-0.5105,8.5804,-0.8474,-0.4532,0.0654,2.9022,rough,14.0,0,14.350
