step,time_s,x,y,z,roll,pitch,yaw,terrain,speed,target_idx,dist_to_target
10,0.32,-0.1318,1.4507,0.1840,0.0002,-0.0129,0.0053,rough,14.0,0,4.147
20,0.64,0.0919,1.4451,0.1794,-0.0003,0.0014,0.2987,rough,14.0,0,4.214
30,0.96,0.3430,1.5354,0.1798,0.0000,-0.0002,0.5559,rough,14.0,0,4.212
40,1.28,0.5749,1.7130,0.1798,0.0000,-0.0003,0.7918,rough,14.0,0,4.140
50,1.60,0.7833,1.9628,0.1799,-0.0002,0.0001,1.0074,rough,14.0,0,4.013
60,1.92,0.9455,2.2703,0.1799,-0.0001,0.0001,1.1896,rough,14.0,0,3.835
70,2.24,1.0672,2.6189,0.1799,0.0001,-0.0000,1.3926,rough,14.0,0,3.624
80,2.56,1.1274,2.9995,0.1799,0.0000,-0.0000,1.6112,rough,14.0,0,3.375
90,2.88,1.1031,3.3944,0.1798,0.0001,-0.0000,1.7960,rough,14.0,0,3.080
100,3.20,0.9998,3.7927,0.1799,-0.0000,0.0001,1.9343,rough,14.0,0,2.746
110,3.52,0.8417,4.1746,0.1802,-0.0004,-0.0021,2.0523,rough,14.0,0,2.397
120,3.84,0.6417,4.5408,0.1804,-0.0003,0.0041,2.1607,rough,14.0,0,2.041
130,4.16,0.4172,4.8328,0.2046,-0.0199,-0.1519,2.2752,rough,14.0,0,1.717
140,4.48,0.1175,5.1100,0.2276,-0.1600,-0.0557,2.3972,rough,14.0,0,1.344
150,4.80,-0.1800,5.3204,0.2720,-0.2245,-0.1623,2.5572,rough,14.0,0,1.010
160,5.12,-0.5221,5.4696,0.3131,-0.3445,-0.1969,2.6422,rough,14.0,1,1.964
170,5.44,-0.8419,5.6596,0.3969,-0.3108,-0.2433,2.5265,rough,14.0,1,1.720
180,5.76,-1.1499,5.8692,0.4850,-0.3138,-0.2678,2.3818,rough,14.0,1,1.506
190,6.08,-1.4207,6.1320,0.5814,-0.2902,-0.2592,2.1934,rough,14.0,1,1.301
200,6.40,-1.6188,6.3979,0.6726,-0.2778,-0.3349,2.0682,rough,14.0,1,1.142
210,6.72,-1.7750,6.6673,0.7748,-0.2255,-0.3681,1.9072,rough,14.0,1,1.032
220,7.04,-1.8755,6.9014,0.8733,-0.1671,-0.4349,1.7482,rough,14.0,1,0.976
230,7.36,-1.9279,7.1070,0.9679,-0.0968,-0.4638,1.5879,rough,14.0,1,0.946
240,7.68,-1.9315,7.2406,1.0319,-0.0901,-0.4395,1.5908,rough,14.0,1,0.921
250,8.00,-1.9371,7.3448,1.0807,-0.0888,-0.4227,1.5928,rough,14.0,1,0.918
260,8.32,-1.9409,7.4447,1.1239,-0.0895,-0.4204,1.5816,rough,14.0,1,0.925
270,8.64,-1.9417,7.5369,1.1662,-0.0819,-0.4144,1.5744,rough,14.0,1,0.937
280,8.96,-1.9421,7.6233,1.2042,-0.0807,-0.4137,1.5719,rough,14.0,1,0.957
290,9.28,-1.9423,7.7094,1.2371,-0.0780,-0.3850,1.5656,rough,14.0,1,0.983
300,9.60,-1.9415,7.7947,1.2675,-0.0784,-0.3418,1.5634,rough,14.0,1,1.015
310,9.92,-1.9409,7.8767,1.2963,-0.0779,-0.3002,1.5605,rough,14.0,1,1.052
320,10.24,-1.9424,7.9568,1.3111,-0.0366,-0.2763,1.5226,rough,14.0,1,1.094
330,10.56,-1.9480,8.0405,1.3435,-0.0638,-0.2709,1.4915,rough,14.0,1,1.145
340,10.88,-1.9498,8.1324,1.3660,-0.0541,-0.2844,1.4235,rough,14.0,1,1.203
350,11.20,-1.9518,8.2706,1.4003,-0.0196,-0.2738,1.2117,rough,14.0,1,1.296
360,11.52,-1.8989,8.4811,1.4455,0.0143,-0.2265,0.8210,rough,14.0,1,1.417
370,11.84,-1.7825,8.6345,1.4859,0.0588,-0.2177,0.5148,rough,14.0,1,1.477
380,12.16,-1.5752,8.6830,1.5296,0.1168,-0.2152,0.1775,rough,14.0,1,1.426
390,12.48,-1.3092,8.6270,1.5559,0.2182,-0.1271,-0.1716,rough,14.0,1,1.290
400,12.80,-1.0652,8.5170,1.5635,0.2887,-0.0259,-0.3623,rough,14.0,1,1.148
410,13.12,-0.8552,8.3789,1.5594,0.3432,0.0597,-0.5316,rough,14.0,1,1.022
420,13.44,-0.6782,8.1948,1.5310,0.3705,0.1455,-0.7469,rough,14.0,1,0.893
430,13.76,-0.5152,7.9500,1.4646,0.3307,0.1956,-0.9600,rough,14.0,2,7.868
440,14.08,-0.3033,7.5874,1.3635,0.3798,0.2889,-1.0088,rough,14.0,2,7.485
450,14.40,-0.0998,7.2148,1.2146,0.3408,0.3545,-1.0617,rough,14.0,2,7.107
460,14.72,0.0943,6.8378,1.0299,0.2842,0.4454,-1.0935,rough,14.0,2,6.740
470,15.04,0.2555,6.4725,0.8252,0.2436,0.4954,-1.1425,rough,14.0,2,6.415
480,15.36,0.4105,6.1061,0.6160,0.1982,0.4537,-1.1393,rough,14.0,2,6.103
490,15.68,0.5794,5.7651,0.4531,0.2108,0.3775,-1.0526,rough,14.0,2,5.801
500,16.00,0.6621,5.6779,0.4177,0.1710,0.3453,-1.2641,rough,14.0,2,5.689
510,16.32,0.7034,5.6793,0.4229,0.0919,0.3816,-1.4816,rough,14.0,2,5.652
520,16.64,0.7139,5.6809,0.4246,0.0737,0.3881,-1.5375,rough,14.0,2,5.643
530,16.96,0.7188,5.6808,0.4250,0.0647,0.3893,-1.5640,rough,14.0,2,5.639
540,17.28,0.7204,5.6802,0.4247,0.0585,0.3868,-1.5735,rough,14.0,2,5.637
550,17.60,0.7207,5.6800,0.4246,0.0563,0.3853,-1.5755,rough,14.0,2,5.637
560,17.92,0.7207,5.6800,0.4246,0.0556,0.3845,-1.5759,rough,14.0,2,5.637
570,18.24,0.7207,5.6801,0.4246,0.0550,0.3840,-1.5760,rough,14.0,2,5.637
580,18.56,0.7204,5.6805,0.4248,0.0537,0.3822,-1.5757,rough,14.0,2,5.637
590,18.88,0.7204,5.6804,0.4247,0.0526,0.3809,-1.5760,rough,14.0,2,5.637
600,19.20,0.7204,5.6804,0.4247,0.0520,0.3802,-1.5760,rough,14.0,2,5.637
610,19.52,0.7201,5.6810,0.4249,0.0514,0.3792,-1.5753,rough,14.0,2,5.638
620,19.84,0.7201,5.6807,0.4247,0.0499,0.3776,-1.5759,rough,14.0,2,5.637
630,20.16,0.7198,5.6811,0.4249,0.0492,0.3764,-1.5753,rough,14.0,2,5.638
640,20.48,0.7199,5.6809,0.4248,0.0480,0.3750,-1.5758,rough,14.0,2,5.638
650,20.80,0.7198,5.6809,0.4248,0.0474,0.3743,-1.5758,rough,14.0,2,5.638
660,21.12,0.7197,5.6809,0.4248,0.0469,0.3736,-1.5758,rough,14.0,2,5.638
670,21.44,0.7196,5.6809,0.4248,0.0465,0.3730,-1.5758,rough,14.0,2,5.638
680,21.76,0.7194,5.6814,0.4250,0.0463,0.3724,-1.5747,rough,14.0,2,5.638
690,22.08,0.7195,5.6811,0.4249,0.0449,0.3708,-1.5756,rough,14.0,2,5.638
700,22.40,0.7195,5.6811,0.4249,0.0443,0.3700,-1.5757,rough,14.0,2,5.638
710,22.72,0.7194,5.6812,0.4249,0.0441,0.3698,-1.5756,rough,14.0,2,5.638
720,23.04,0.7193,5.6813,0.4250,0.0441,0.3696,-1.5755,rough,14.0,2,5.638
730,23.36,0.7190,5.6819,0.4253,0.0447,0.3698,-1.5740,rough,14.0,2,5.639
740,23.68,0.7191,5.6817,0.4252,0.0439,0.3692,-1.5751,rough,14.0,2,5.639
750,24.00,0.7191,5.6818,0.4253,0.0437,0.3690,-1.5754,rough,14.0,2,5.639
760,24.32,0.7190,5.6818,0.4253,0.0436,0.3689,-1.5755,rough,14.0,2,5.639
770,24.64,0.7190,5.6819,0.4254,0.0435,0.3688,-1.5755,rough,14.0,2,5.639
780,24.96,0.7186,5.6825,0.4256,0.0446,0.3692,-1.5733,rough,14.0,2,5.640
790,25.28,0.7188,5.6822,0.4255,0.0436,0.3686,-1.5749,rough,14.0,2,5.639
800,25.60,0.7188,5.6822,0.4256,0.0433,0.3684,-1.5753,rough,14.0,2,5.639
810,25.92,0.7185,5.6825,0.4257,0.0441,0.3686,-1.5736,rough,14.0,2,5.640
820,26.24,0.7186,5.6823,0.4257,0.0433,0.3683,-1.5750,rough,14.0,2,5.639
830,26.56,0.7181,5.6830,0.4258,0.0449,0.3691,-1.5724,rough,14.0,2,5.640
840,26.88,0.7185,5.6825,0.4257,0.0434,0.3682,-1.5747,rough,14.0,2,5.640
850,27.20,0.7185,5.6825,0.4258,0.0431,0.3680,-1.5753,rough,14.0,2,5.640
860,27.52,0.7185,5.6825,0.4258,0.0430,0.3680,-1.5754,rough,14.0,2,5.640
870,27.84,0.7184,5.6825,0.4258,0.0429,0.3679,-1.5754,rough,14.0,2,5.640
880,28.16,0.7178,5.6833,0.4260,0.0448,0.3689,-1.5719,rough,14.0,2,5.641
890,28.48,0.7181,5.6827,0.4259,0.0432,0.3679,-1.5746,rough,14.0,2,5.640
900,28.80,0.7182,5.6826,0.4259,0.0429,0.3678,-1.5752,rough,14.0,2,5.640
910,29.12,0.7181,5.6827,0.4259,0.0428,0.3677,-1.5754,rough,14.0,2,5.640
920,29.44,0.7181,5.6827,0.4259,0.0427,0.3677,-1.5754,rough,14.0,2,5.640
930,29.76,0.7173,5.6836,0.4262,0.0453,0.3693,-1.5711,rough,14.0,2,5.641
940,30.08,0.7178,5.6828,0.4260,0.0432,0.3678,-1.5744,rough,14.0,2,5.640
950,30.40,0.7179,5.6828,0.4260,0.0428,0.3676,-1.5752,rough,14.0,2,5.640
960,30.72,0.7178,5.6828,0.4260,0.0426,0.3676,-1.5754,rough,14.0,2,5.640
970,31.04,0.7177,5.6828,0.4260,0.0426,0.3675,-1.5754,rough,14.0,2,5.640
980,31.36,0.7168,5.6839,0.4263,0.0456,0.3694,-1.5702,rough,14.0,2,5.642
990,31.68,0.7174,5.6830,0.4260,0.0431,0.3677,-1.5742,rough,14.0,2,5.641
1000,32.00,0.7175,5.6829,0.4260,0.0427,0.3675,-1.5751,rough,14.0,2,5.641
1010,32.32,0.7171,5.6832,0.4261,0.0437,0.3679,-1.5732,rough,14.0,2,5.641
1020,32.64,0.7174,5.6830,0.4260,0.0427,0.3675,-1.5749,rough,14.0,2,5.641
1030,32.96,0.7163,5.6841,0.4264,0.0462,0.3697,-1.5690,rough,14.0,2,5.642
1040,33.28,0.7171,5.6831,0.4261,0.0432,0.3676,-1.5739,rough,14.0,2,5.641
1050,33.60,0.7172,5.6830,0.4261,0.0426,0.3674,-1.5750,rough,14.0,2,5.641
1060,33.92,0.7172,5.6830,0.4261,0.0424,0.3673,-1.5753,rough,14.0,2,5.641
1070,34.24,0.7171,5.6830,0.4261,0.0424,0.3673,-1.5754,rough,14.0,2,5.641
1080,34.56,0.7171,5.6830,0.4261,0.0424,0.3673,-1.5754,rough,14.0,2,5.641
1090,34.88,0.7167,5.6832,0.4261,0.0432,0.3676,-1.5737,rough,14.0,2,5.641
1100,35.20,0.7169,5.6831,0.4261,0.0425,0.3673,-1.5750,rough,14.0,2,5.641
1110,35.52,0.7169,5.6830,0.4261,0.0424,0.3672,-1.5753,rough,14.0,2,5.641
1120,35.84,0.7168,5.6831,0.4261,0.0423,0.3672,-1.5754,rough,14.0,2,5.641
1130,36.16,0.7168,5.6831,0.4261,0.0423,0.3673,-1.5754,rough,14.0,2,5.641
1140,36.48,0.7164,5.6833,0.4261,0.0432,0.3676,-1.5734,rough,14.0,2,5.642
1150,36.80,0.7166,5.6831,0.4261,0.0425,0.3672,-1.5749,rough,14.0,2,5.642
1160,37.12,0.7166,5.6831,0.4261,0.0423,0.3672,-1.5753,rough,14.0,2,5.642
1170,37.44,0.7165,5.6831,0.4261,0.0422,0.3672,-1.5754,rough,14.0,2,5.642
1180,37.76,0.7164,5.6831,0.4261,0.0422,0.3672,-1.5754,rough,14.0,2,5.642
1190,38.08,0.7160,5.6834,0.4262,0.0434,0.3677,-1.5731,rough,14.0,2,5.642
1200,38.40,0.7162,5.6832,0.4261,0.0424,0.3672,-1.5749,rough,14.0,2,5.642
1210,38.72,0.7159,5.6834,0.4262,0.0435,0.3677,-1.5729,rough,14.0,2,5.642
1220,39.04,0.7161,5.6832,0.4261,0.0424,0.3672,-1.5748,rough,14.0,2,5.642
1230,39.36,0.7161,5.6832,0.4261,0.0422,0.3671,-1.5752,rough,14.0,2,5.642
1240,39.68,0.7156,5.6835,0.4262,0.0436,0.3678,-1.5727,rough,14.0,2,5.643
1250,40.00,0.7159,5.6832,0.4261,0.0424,0.3672,-1.5747,rough,14.0,2,5.642
1260,40.32,0.7159,5.6832,0.4261,0.0422,0.3671,-1.5752,rough,14.0,2,5.642
1270,40.64,0.7159,5.6832,0.4261,0.0421,0.3671,-1.5753,rough,14.0,2,5.642
1280,40.96,0.7158,5.6832,0.4261,0.0421,0.3671,-1.5754,rough,14.0,2,5.642
1290,41.28,0.7152,5.6837,0.4262,0.0438,0.3680,-1.5723,rough,14.0,2,5.643
1300,41.60,0.7156,5.6832,0.4261,0.0424,0.3672,-1.5747,rough,14.0,2,5.643
1310,41.92,0.7156,5.6832,0.4261,0.0421,0.3671,-1.5752,rough,14.0,2,5.643
1320,42.24,0.7156,5.6832,0.4261,0.0421,0.3671,-1.5753,rough,14.0,2,5.643
1330,42.56,0.7155,5.6832,0.4261,0.0420,0.3671,-1.5754,rough,14.0,2,5.643
1340,42.88,0.7148,5.6838,0.4263,0.0440,0.3682,-1.5718,rough,14.0,2,5.643
1350,43.20,0.7152,5.6833,0.4261,0.0424,0.3672,-1.5745,rough,14.0,2,5.643
1360,43.52,0.7153,5.6832,0.4261,0.0421,0.3671,-1.5752,rough,14.0,2,5.643
1370,43.84,0.7152,5.6832,0.4261,0.0420,0.3671,-1.5753,rough,14.0,2,5.643
1380,44.16,0.7152,5.6832,0.4261,0.0420,0.3671,-1.5754,rough,14.0,2,5.643
1390,44.48,0.7144,5.6840,0.4263,0.0444,0.3684,-1.5712,rough,14.0,2,5.644
1400,44.80,0.7149,5.6833,0.4261,0.0424,0.3672,-1.5744,rough,14.0,2,5.643
1410,45.12,0.7146,5.6836,0.4262,0.0434,0.3676,-1.5727,rough,14.0,2,5.644
1420,45.44,0.7148,5.6833,0.4261,0.0423,0.3671,-1.5747,rough,14.0,2,5.643
1430,45.76,0.7149,5.6832,0.4261,0.0420,0.3671,-1.5752,rough,14.0,2,5.643
1440,46.08,0.7140,5.6841,0.4264,0.0448,0.3688,-1.5704,rough,14.0,2,5.644
1450,46.40,0.7146,5.6833,0.4261,0.0425,0.3672,-1.5742,rough,14.0,2,5.644
1460,46.72,0.7147,5.6833,0.4261,0.0421,0.3671,-1.5751,rough,14.0,2,5.643
1470,47.04,0.7146,5.6832,0.4261,0.0420,0.3671,-1.5753,rough,14.0,2,5.643
1480,47.36,0.7146,5.6832,0.4261,0.0419,0.3671,-1.5753,rough,14.0,2,5.643
1490,47.68,0.7135,5.6843,0.4264,0.0452,0.3691,-1.5696,rough,14.0,2,5.645
1500,48.00,0.7142,5.6834,0.4261,0.0425,0.3673,-1.5740,rough,14.0,2,5.644
1510,48.32,0.7143,5.6833,0.4261,0.0420,0.3671,-1.5750,rough,14.0,2,5.644
1520,48.64,0.7143,5.6833,0.4261,0.0419,0.3671,-1.5753,rough,14.0,2,5.644
1530,48.96,0.7142,5.6833,0.4261,0.0419,0.3671,-1.5753,rough,14.0,2,5.644
1540,49.28,0.7131,5.6843,0.4264,0.0455,0.3692,-1.5688,rough,14.0,2,5.645
1550,49.60,0.7139,5.6834,0.4261,0.0426,0.3673,-1.5738,rough,14.0,2,5.644
1560,49.92,0.7140,5.6833,0.4261,0.0420,0.3671,-1.5750,rough,14.0,2,5.644
1570,50.24,0.7140,5.6833,0.4261,0.0419,0.3671,-1.5752,rough,14.0,2,5.644
1580,50.56,0.7139,5.6833,0.4261,0.0418,0.3671,-1.5753,rough,14.0,2,5.644
1590,50.88,0.7138,5.6833,0.4261,0.0418,0.3671,-1.5753,rough,14.0,2,5.644
1600,51.20,0.7135,5.6835,0.4261,0.0427,0.3674,-1.5735,rough,14.0,2,5.645
1610,51.52,0.7133,5.6836,0.4262,0.0434,0.3677,-1.5723,rough,14.0,2,5.645
1620,51.84,0.7136,5.6833,0.4261,0.0421,0.3671,-1.5746,rough,14.0,2,5.644
1630,52.16,0.7136,5.6833,0.4261,0.0419,0.3671,-1.5752,rough,14.0,2,5.644
1640,52.48,0.7136,5.6833,0.4261,0.0418,0.3671,-1.5753,rough,14.0,2,5.644
1650,52.80,0.7132,5.6835,0.4261,0.0429,0.3675,-1.5732,rough,14.0,2,5.645
1660,53.12,0.7134,5.6833,0.4261,0.0420,0.3671,-1.5748,rough,14.0,2,5.645
1670,53.44,0.7134,5.6833,0.4261,0.0418,0.3671,-1.5752,rough,14.0,2,5.645
1680,53.76,0.7133,5.6833,0.4261,0.0418,0.3671,-1.5753,rough,14.0,2,5.645
1690,54.08,0.7133,5.6833,0.4261,0.0417,0.3671,-1.5753,rough,14.0,2,5.645
1700,54.40,0.7128,5.6836,0.4261,0.0430,0.3676,-1.5729,rough,14.0,2,5.645
1710,54.72,0.7131,5.6833,0.4261,0.0420,0.3671,-1.5747,rough,14.0,2,5.645
1720,55.04,0.7131,5.6833,0.4261,0.0418,0.3671,-1.5752,rough,14.0,2,5.645
1730,55.36,0.7130,5.6833,0.4261,0.0417,0.3671,-1.5753,rough,14.0,2,5.645
1740,55.68,0.7130,5.6833,0.4261,0.0417,0.3671,-1.5753,rough,14.0,2,5.645
1750,56.00,0.7124,5.6837,0.4261,0.0432,0.3677,-1.5725,rough,14.0,2,5.646
1760,56.32,0.7127,5.6833,0.4261,0.0420,0.3671,-1.5747,rough,14.0,2,5.645
1770,56.64,0.7128,5.6833,0.4260,0.0418,0.3671,-1.5751,rough,14.0,2,5.645
1780,56.96,0.7127,5.6833,0.4260,0.0417,0.3671,-1.5753,rough,14.0,2,5.645
1790,57.28,0.7126,5.6833,0.4260,0.0417,0.3671,-1.5753,rough,14.0,2,5.645
1800,57.60,0.7120,5.6838,0.4262,0.0434,0.3679,-1.5721,rough,14.0,2,5.646
1810,57.92,0.7120,5.6837,0.4261,0.0437,0.3678,-1.5718,rough,14.0,2,5.646
1820,58.24,0.7124,5.6834,0.4260,0.0421,0.3672,-1.5745,rough,14.0,2,5.645
1830,58.56,0.7124,5.6833,0.4260,0.0418,0.3671,-1.5751,rough,14.0,2,5.645
1840,58.88,0.7124,5.6833,0.4260,0.0417,0.3671,-1.5753,rough,14.0,2,5.645
1850,59.20,0.7117,5.6839,0.4262,0.0437,0.3681,-1.5716,rough,14.0,2,5.646
1860,59.52,0.7122,5.6834,0.4260,0.0421,0.3672,-1.5744,rough,14.0,2,5.646
1870,59.84,0.7122,5.6833,0.4260,0.0417,0.3671,-1.5751,rough,14.0,2,5.646
1880,60.16,0.7122,5.6833,0.4260,0.0416,0.3671,-1.5753,rough,14.0,2,5.646
1890,60.48,0.7121,5.6833,0.4260,0.0416,0.3671,-1.5753,rough,14.0,2,5.646
1900,60.80,0.7113,5.6840,0.4262,0.0440,0.3684,-1.5710,rough,14.0,2,5.647
1910,61.12,0.7118,5.6834,0.4260,0.0421,0.3672,-1.5743,rough,14.0,2,5.646
1920,61.44,0.7119,5.6833,0.4260,0.0417,0.3671,-1.5750,rough,14.0,2,5.646
1930,61.76,0.7118,5.6833,0.4260,0.0416,0.3671,-1.5752,rough,14.0,2,5.646
1940,62.08,0.7118,5.6833,0.4260,0.0416,0.3671,-1.5753,rough,14.0,2,5.646
1950,62.40,0.7109,5.6842,0.4262,0.0445,0.3688,-1.5703,rough,14.0,2,5.647
1960,62.72,0.7115,5.6834,0.4260,0.0421,0.3673,-1.5741,rough,14.0,2,5.646
1970,63.04,0.7116,5.6833,0.4260,0.0417,0.3671,-1.5750,rough,14.0,2,5.646
1980,63.36,0.7115,5.6833,0.4260,0.0416,0.3671,-1.5752,rough,14.0,2,5.646
1990,63.68,0.7115,5.6833,0.4260,0.0415,0.3671,-1.5753,rough,14.0,2,5.646
2000,64.00,0.7104,5.6844,0.4263,0.0449,0.3691,-1.5694,rough,14.0,2,5.648
2010,64.32,0.7107,5.6839,0.4261,0.0444,0.3679,-1.5706,rough,14.0,2,5.647
2020,64.64,0.7113,5.6834,0.4260,0.0421,0.3672,-1.5742,rough,14.0,2,5.646
2030,64.96,0.7114,5.6833,0.4260,0.0417,0.3671,-1.5750,rough,14.0,2,5.646
2040,65.28,0.7114,5.6833,0.4260,0.0416,0.3671,-1.5752,rough,14.0,2,5.646
2050,65.60,0.7101,5.6844,0.4263,0.0453,0.3692,-1.5685,rough,14.0,2,5.648
2060,65.92,0.7110,5.6835,0.4260,0.0423,0.3674,-1.5737,rough,14.0,2,5.647
2070,66.24,0.7111,5.6834,0.4260,0.0417,0.3671,-1.5749,rough,14.0,2,5.647
2080,66.56,0.7111,5.6833,0.4260,0.0415,0.3671,-1.5752,rough,14.0,2,5.647
2090,66.88,0.7111,5.6833,0.4260,0.0415,0.3671,-1.5753,rough,14.0,2,5.647
2100,67.20,0.7110,5.6834,0.4260,0.0415,0.3671,-1.5753,rough,14.0,2,5.647
2110,67.52,0.7106,5.6835,0.4260,0.0424,0.3674,-1.5734,rough,14.0,2,5.647
2120,67.84,0.7108,5.6834,0.4260,0.0417,0.3671,-1.5748,rough,14.0,2,5.647
2130,68.16,0.7108,5.6833,0.4260,0.0415,0.3671,-1.5752,rough,14.0,2,5.647
2140,68.48,0.7107,5.6833,0.4260,0.0415,0.3671,-1.5753,rough,14.0,2,5.647
2150,68.80,0.7107,5.6834,0.4260,0.0415,0.3671,-1.5753,rough,14.0,2,5.647
2160,69.12,0.7103,5.6836,0.4260,0.0425,0.3675,-1.5731,rough,14.0,2,5.648
2170,69.44,0.7105,5.6834,0.4260,0.0417,0.3672,-1.5748,rough,14.0,2,5.647
2180,69.76,0.7105,5.6834,0.4260,0.0415,0.3671,-1.5751,rough,14.0,2,5.647
2190,70.08,0.7104,5.6834,0.4259,0.0414,0.3671,-1.5752,rough,14.0,2,5.647
2200,70.40,0.7104,5.6834,0.4259,0.0414,0.3671,-1.5753,rough,14.0,2,5.647
2210,70.72,0.7099,5.6836,0.4260,0.0427,0.3676,-1.5728,rough,14.0,2,5.648
2220,71.04,0.7102,5.6834,0.4259,0.0417,0.3672,-1.5747,rough,14.0,2,5.648
2230,71.36,0.7102,5.6834,0.4259,0.0415,0.3671,-1.5751,rough,14.0,2,5.648
2240,71.68,0.7101,5.6834,0.4259,0.0414,0.3671,-1.5752,rough,14.0,2,5.648
2250,72.00,0.7101,5.6834,0.4259,0.0414,0.3671,-1.5753,rough,14.0,2,5.648
2260,72.32,0.7095,5.6837,0.4260,0.0429,0.3678,-1.5724,rough,14.0,2,5.648
2270,72.64,0.7099,5.6834,0.4259,0.0417,0.3672,-1.5746,rough,14.0,2,5.648
2280,72.96,0.7099,5.6834,0.4259,0.0414,0.3671,-1.5751,rough,14.0,2,5.648
2290,73.28,0.7098,5.6834,0.4259,0.0414,0.3671,-1.5752,rough,14.0,2,5.648
2300,73.60,0.7098,5.6834,0.4259,0.0413,0.3671,-1.5753,rough,14.0,2,5.648
2310,73.92,0.7092,5.6838,0.4260,0.0432,0.3680,-1.5719,rough,14.0,2,5.649
2320,74.24,0.7095,5.6834,0.4259,0.0417,0.3672,-1.5745,rough,14.0,2,5.648
2330,74.56,0.7096,5.6834,0.4259,0.0414,0.3671,-1.5751,rough,14.0,2,5.648
2340,74.88,0.7095,5.6834,0.4259,0.0413,0.3671,-1.5752,rough,14.0,2,5.648
2350,75.20,0.7095,5.6834,0.4259,0.0413,0.3671,-1.5753,rough,14.0,2,5.648
2360,75.52,0.7088,5.6839,0.4260,0.0434,0.3682,-1.5714,rough,14.0,2,5.649
2370,75.84,0.7092,5.6834,0.4259,0.0417,0.3672,-1.5743,rough,14.0,2,5.648
2380,76.16,0.7093,5.6834,0.4259,0.0414,0.3671,-1.5750,rough,14.0,2,5.648
2390,76.48,0.7092,5.6834,0.4259,0.0413,0.3671,-1.5752,rough,14.0,2,5.648
2400,76.80,0.7092,5.6834,0.4259,0.0413,0.3671,-1.5752,rough,14.0,2,5.648
2410,77.12,0.7079,5.6845,0.4261,0.0459,0.3688,-1.5671,rough,14.0,2,5.650
2420,77.44,0.7090,5.6835,0.4259,0.0423,0.3674,-1.5733,rough,14.0,2,5.649
2430,77.76,0.7091,5.6834,0.4259,0.0415,0.3672,-1.5748,rough,14.0,2,5.648
2440,78.08,0.7091,5.6834,0.4259,0.0413,0.3671,-1.5751,rough,14.0,2,5.648
2450,78.40,0.7091,5.6834,0.4259,0.0413,0.3671,-1.5752,rough,14.0,2,5.649
2460,78.72,0.7082,5.6842,0.4261,0.0442,0.3688,-1.5701,rough,14.0,2,5.650
2470,79.04,0.7088,5.6835,0.4259,0.0418,0.3673,-1.5740,rough,14.0,2,5.649
2480,79.36,0.7089,5.6834,0.4259,0.0414,0.3672,-1.5749,rough,14.0,2,5.649
2490,79.68,0.7089,5.6834,0.4259,0.0413,0.3671,-1.5752,rough,14.0,2,5.649
2500,80.00,0.7088,5.6834,0.4259,0.0412,0.3671,-1.5752,rough,14.0,2,5.649
2510,80.32,0.7077,5.6844,0.4261,0.0447,0.3691,-1.5692,rough,14.0,2,5.650
2520,80.64,0.7085,5.6835,0.4259,0.0419,0.3674,-1.5738,rough,14.0,2,5.649
2530,80.96,0.7086,5.6834,0.4259,0.0414,0.3672,-1.5749,rough,14.0,2,5.649
2540,81.28,0.7086,5.6834,0.4259,0.0412,0.3671,-1.5752,rough,14.0,2,5.649
2550,81.60,0.7085,5.6834,0.4259,0.0412,0.3671,-1.5752,rough,14.0,2,5.649
2560,81.92,0.7073,5.6844,0.4261,0.0450,0.3693,-1.5683,rough,14.0,2,5.651
2570,82.24,0.7081,5.6835,0.4259,0.0420,0.3674,-1.5736,rough,14.0,2,5.649
2580,82.56,0.7083,5.6834,0.4259,0.0414,0.3672,-1.5748,rough,14.0,2,5.649
2590,82.88,0.7083,5.6834,0.4259,0.0412,0.3672,-1.5751,rough,14.0,2,5.649
2600,83.20,0.7082,5.6834,0.4259,0.0412,0.3671,-1.5752,rough,14.0,2,5.649
2610,83.52,0.7077,5.6837,0.4259,0.0426,0.3677,-1.5724,rough,14.0,2,5.650
2620,83.84,0.7077,5.6837,0.4259,0.0427,0.3676,-1.5725,rough,14.0,2,5.650
2630,84.16,0.7080,5.6834,0.4259,0.0415,0.3672,-1.5746,rough,14.0,2,5.649
2640,84.48,0.7081,5.6834,0.4258,0.0412,0.3672,-1.5751,rough,14.0,2,5.649
2650,84.80,0.7080,5.6834,0.4258,0.0412,0.3672,-1.5752,rough,14.0,2,5.649
2660,85.12,0.7079,5.6834,0.4259,0.0411,0.3672,-1.5752,rough,14.0,2,5.650
2670,85.44,0.7075,5.6836,0.4259,0.0423,0.3676,-1.5730,rough,14.0,2,5.650
2680,85.76,0.7078,5.6834,0.4258,0.0414,0.3672,-1.5747,rough,14.0,2,5.650
2690,86.08,0.7078,5.6834,0.4258,0.0412,0.3672,-1.5751,rough,14.0,2,5.650
2700,86.40,0.7077,5.6834,0.4258,0.0411,0.3672,-1.5752,rough,14.0,2,5.650
2710,86.72,0.7077,5.6834,0.4258,0.0411,0.3672,-1.5752,rough,14.0,2,5.650
2720,87.04,0.7072,5.6837,0.4259,0.0424,0.3677,-1.5727,rough,14.0,2,5.650
2730,87.36,0.7075,5.6834,0.4258,0.0414,0.3672,-1.5746,rough,14.0,2,5.650
2740,87.68,0.7075,5.6834,0.4258,0.0412,0.3672,-1.5751,rough,14.0,2,5.650
2750,88.00,0.7074,5.6834,0.4258,0.0411,0.3672,-1.5752,rough,14.0,2,5.650
2760,88.32,0.7074,5.6834,0.4258,0.0411,0.3672,-1.5752,rough,14.0,2,5.650
2770,88.64,0.7068,5.6838,0.4259,0.0427,0.3678,-1.5723,rough,14.0,2,5.651
2780,88.96,0.7072,5.6835,0.4258,0.0414,0.3672,-1.5745,rough,14.0,2,5.650
2790,89.28,0.7072,5.6834,0.4258,0.0411,0.3672,-1.5750,rough,14.0,2,5.650
2800,89.60,0.7071,5.6834,0.4258,0.0411,0.3672,-1.5752,rough,14.0,2,5.650
2810,89.92,0.7067,5.6837,0.4259,0.0424,0.3677,-1.5726,rough,14.0,2,5.651
2820,90.24,0.7064,5.6839,0.4259,0.0435,0.3682,-1.5709,rough,14.0,2,5.651
2830,90.56,0.7069,5.6835,0.4258,0.0415,0.3673,-1.5742,rough,14.0,2,5.651
2840,90.88,0.7070,5.6834,0.4258,0.0411,0.3672,-1.5750,rough,14.0,2,5.650
2850,91.20,0.7069,5.6834,0.4258,0.0411,0.3672,-1.5751,rough,14.0,2,5.650
2860,91.52,0.7069,5.6834,0.4258,0.0410,0.3672,-1.5752,rough,14.0,2,5.651
2870,91.84,0.7062,5.6840,0.4259,0.0432,0.3682,-1.5713,rough,14.0,2,5.651
2880,92.16,0.7066,5.6835,0.4258,0.0414,0.3673,-1.5743,rough,14.0,2,5.651
2890,92.48,0.7067,5.6834,0.4258,0.0411,0.3672,-1.5750,rough,14.0,2,5.651
2900,92.80,0.7066,5.6834,0.4258,0.0410,0.3672,-1.5751,rough,14.0,2,5.651
2910,93.12,0.7066,5.6834,0.4258,0.0410,0.3672,-1.5752,rough,14.0,2,5.651
2920,93.44,0.7058,5.6841,0.4260,0.0436,0.3685,-1.5706,rough,14.0,2,5.652
2930,93.76,0.7063,5.6835,0.4258,0.0415,0.3673,-1.5741,rough,14.0,2,5.651
2940,94.08,0.7064,5.6834,0.4258,0.0411,0.3672,-1.5749,rough,14.0,2,5.651
2950,94.40,0.7064,5.6834,0.4258,0.0410,0.3672,-1.5751,rough,14.0,2,5.651
2960,94.72,0.7063,5.6834,0.4258,0.0410,0.3672,-1.5752,rough,14.0,2,5.651
2970,95.04,0.7053,5.6843,0.4260,0.0440,0.3688,-1.5699,rough,14.0,2,5.652
2980,95.36,0.7060,5.6835,0.4258,0.0415,0.3674,-1.5739,rough,14.0,2,5.651
2990,95.68,0.7061,5.6835,0.4258,0.0411,0.3672,-1.5749,rough,14.0,2,5.651
3000,96.00,0.7061,5.6834,0.4258,0.0410,0.3672,-1.5751,rough,14.0,2,5.651
3010,96.32,0.7056,5.6837,0.4258,0.0423,0.3677,-1.5726,rough,14.0,2,5.652
3020,96.64,0.7048,5.6845,0.4260,0.0448,0.3693,-1.5682,rough,14.0,2,5.653
3030,96.96,0.7057,5.6836,0.4258,0.0417,0.3674,-1.5735,rough,14.0,2,5.652
3040,97.28,0.7059,5.6835,0.4258,0.0411,0.3672,-1.5748,rough,14.0,2,5.651
3050,97.60,0.7059,5.6835,0.4258,0.0409,0.3672,-1.5751,rough,14.0,2,5.651
3060,97.92,0.7058,5.6835,0.4258,0.0409,0.3672,-1.5752,rough,14.0,2,5.652
3070,98.24,0.7045,5.6845,0.4260,0.0447,0.3693,-1.5681,rough,14.0,2,5.653
3080,98.56,0.7054,5.6836,0.4258,0.0417,0.3675,-1.5735,rough,14.0,2,5.652
3090,98.88,0.7056,5.6835,0.4258,0.0411,0.3672,-1.5748,rough,14.0,2,5.652
3100,99.20,0.7056,5.6835,0.4258,0.0409,0.3672,-1.5751,rough,14.0,2,5.652
3110,99.52,0.7055,5.6835,0.4257,0.0409,0.3672,-1.5752,rough,14.0,2,5.652
3120,99.84,0.7055,5.6835,0.4258,0.0409,0.3672,-1.5752,rough,14.0,2,5.652
3130,100.16,0.7051,5.6836,0.4258,0.0418,0.3675,-1.5732,rough,14.0,2,5.652
3140,100.48,0.7053,5.6835,0.4257,0.0411,0.3672,-1.5747,rough,14.0,2,5.652
3150,100.80,0.7053,5.6835,0.4257,0.0409,0.3672,-1.5751,rough,14.0,2,5.652
3160,101.12,0.7052,5.6835,0.4257,0.0408,0.3672,-1.5752,rough,14.0,2,5.652
3170,101.44,0.7052,5.6835,0.4257,0.0408,0.3672,-1.5752,rough,14.0,2,5.652
3180,101.76,0.7048,5.6837,0.4258,0.0420,0.3676,-1.5729,rough,14.0,2,5.653
3190,102.08,0.7050,5.6835,0.4257,0.0411,0.3673,-1.5746,rough,14.0,2,5.652
3200,102.40,0.7050,5.6835,0.4257,0.0409,0.3672,-1.5750,rough,14.0,2,5.652
3210,102.72,0.7046,5.6838,0.4258,0.0422,0.3677,-1.5725,rough,14.0,2,5.653
3220,103.04,0.7048,5.6835,0.4257,0.0411,0.3673,-1.5745,rough,14.0,2,5.652
3230,103.36,0.7045,5.6838,0.4258,0.0423,0.3678,-1.5723,rough,14.0,2,5.653
3240,103.68,0.7048,5.6835,0.4257,0.0411,0.3673,-1.5745,rough,14.0,2,5.652
3250,104.00,0.7048,5.6835,0.4257,0.0409,0.3672,-1.5750,rough,14.0,2,5.652
3260,104.32,0.7048,5.6835,0.4257,0.0408,0.3672,-1.5751,rough,14.0,2,5.652
3270,104.64,0.7047,5.6835,0.4257,0.0408,0.3672,-1.5752,rough,14.0,2,5.653
3280,104.96,0.7041,5.6838,0.4258,0.0424,0.3679,-1.5721,rough,14.0,2,5.653
3290,105.28,0.7045,5.6835,0.4257,0.0411,0.3673,-1.5744,rough,14.0,2,5.653
3300,105.60,0.7045,5.6835,0.4257,0.0408,0.3672,-1.5750,rough,14.0,2,5.653
3310,105.92,0.7045,5.6835,0.4257,0.0408,0.3672,-1.5751,rough,14.0,2,5.653
3320,106.24,0.7044,5.6835,0.4257,0.0407,0.3672,-1.5752,rough,14.0,2,5.653
3330,106.56,0.7038,5.6839,0.4258,0.0426,0.3681,-1.5717,rough,14.0,2,5.654
3340,106.88,0.7042,5.6835,0.4257,0.0411,0.3673,-1.5743,rough,14.0,2,5.653
3350,107.20,0.7042,5.6835,0.4257,0.0408,0.3672,-1.5749,rough,14.0,2,5.653
3360,107.52,0.7042,5.6835,0.4257,0.0407,0.3672,-1.5751,rough,14.0,2,5.653
3370,107.84,0.7041,5.6835,0.4257,0.0407,0.3672,-1.5752,rough,14.0,2,5.653
3380,108.16,0.7034,5.6840,0.4258,0.0430,0.3683,-1.5711,rough,14.0,2,5.654
3390,108.48,0.7039,5.6835,0.4257,0.0411,0.3673,-1.5742,rough,14.0,2,5.653
3400,108.80,0.7040,5.6835,0.4257,0.0408,0.3672,-1.5749,rough,14.0,2,5.653
3410,109.12,0.7035,5.6838,0.4257,0.0421,0.3678,-1.5724,rough,14.0,2,5.654
3420,109.44,0.7038,5.6835,0.4257,0.0410,0.3673,-1.5745,rough,14.0,2,5.653
3430,109.76,0.7031,5.6842,0.4258,0.0435,0.3686,-1.5702,rough,14.0,2,5.654
3440,110.08,0.7037,5.6836,0.4257,0.0412,0.3674,-1.5740,rough,14.0,2,5.654
3450,110.40,0.7038,5.6835,0.4257,0.0408,0.3673,-1.5749,rough,14.0,2,5.653
3460,110.72,0.7037,5.6835,0.4257,0.0407,0.3672,-1.5751,rough,14.0,2,5.653
3470,111.04,0.7037,5.6835,0.4257,0.0407,0.3672,-1.5751,rough,14.0,2,5.653
3480,111.36,0.7027,5.6843,0.4259,0.0437,0.3689,-1.5697,rough,14.0,2,5.655
3490,111.68,0.7034,5.6836,0.4257,0.0413,0.3674,-1.5738,rough,14.0,2,5.654
3500,112.00,0.7035,5.6835,0.4257,0.0408,0.3673,-1.5748,rough,14.0,2,5.654
3510,112.32,0.7035,5.6835,0.4257,0.0407,0.3672,-1.5751,rough,14.0,2,5.654
3520,112.64,0.7034,5.6835,0.4257,0.0406,0.3672,-1.5751,rough,14.0,2,5.654
3530,112.96,0.7023,5.6845,0.4259,0.0442,0.3692,-1.5688,rough,14.0,2,5.655
3540,113.28,0.7031,5.6836,0.4257,0.0413,0.3675,-1.5736,rough,14.0,2,5.654
3550,113.60,0.7032,5.6835,0.4257,0.0408,0.3673,-1.5748,rough,14.0,2,5.654
3560,113.92,0.7032,5.6835,0.4257,0.0406,0.3672,-1.5750,rough,14.0,2,5.654
3570,114.24,0.7031,5.6835,0.4257,0.0406,0.3672,-1.5751,rough,14.0,2,5.654
3580,114.56,0.7019,5.6845,0.4259,0.0445,0.3694,-1.5679,rough,14.0,2,5.656
3590,114.88,0.7028,5.6836,0.4257,0.0414,0.3675,-1.5734,rough,14.0,2,5.654
3600,115.20,0.7029,5.6835,0.4256,0.0408,0.3673,-1.5747,rough,14.0,2,5.654
3610,115.52,0.7025,5.6838,0.4257,0.0421,0.3678,-1.5723,rough,14.0,2,5.655
3620,115.84,0.7028,5.6835,0.4256,0.0409,0.3673,-1.5745,rough,14.0,2,5.654
3630,116.16,0.7028,5.6835,0.4256,0.0406,0.3673,-1.5749,rough,14.0,2,5.654
3640,116.48,0.7025,5.6837,0.4257,0.0416,0.3676,-1.5731,rough,14.0,2,5.655
3650,116.80,0.7027,5.6835,0.4256,0.0408,0.3673,-1.5746,rough,14.0,2,5.654
3660,117.12,0.7027,5.6835,0.4256,0.0406,0.3673,-1.5750,rough,14.0,2,5.654
3670,117.44,0.7027,5.6835,0.4256,0.0405,0.3673,-1.5751,rough,14.0,2,5.654
3680,117.76,0.7026,5.6835,0.4256,0.0405,0.3673,-1.5751,rough,14.0,2,5.654
3690,118.08,0.7022,5.6837,0.4257,0.0417,0.3677,-1.5728,rough,14.0,2,5.655
3700,118.40,0.7024,5.6835,0.4256,0.0408,0.3673,-1.5746,rough,14.0,2,5.655
3710,118.72,0.7025,5.6835,0.4256,0.0406,0.3673,-1.5750,rough,14.0,2,5.655
3720,119.04,0.7024,5.6835,0.4256,0.0405,0.3673,-1.5751,rough,14.0,2,5.655
3730,119.36,0.7024,5.6835,0.4256,0.0405,0.3673,-1.5751,rough,14.0,2,5.655
3740,119.68,0.7019,5.6838,0.4257,0.0419,0.3678,-1.5724,rough,14.0,2,5.655
3750,120.00,0.7022,5.6836,0.4256,0.0408,0.3673,-1.5745,rough,14.0,2,5.655
3760,120.32,0.7022,5.6835,0.4256,0.0406,0.3673,-1.5750,rough,14.0,2,5.655
3770,120.64,0.7021,5.6835,0.4256,0.0405,0.3673,-1.5751,rough,14.0,2,5.655
3780,120.96,0.7021,5.6835,0.4256,0.0405,0.3673,-1.5751,rough,14.0,2,5.655
3790,121.28,0.7015,5.6839,0.4257,0.0421,0.3679,-1.5720,rough,14.0,2,5.656
3800,121.60,0.7019,5.6836,0.4256,0.0408,0.3673,-1.5744,rough,14.0,2,5.655
3810,121.92,0.7015,5.6838,0.4257,0.0420,0.3678,-1.5722,rough,14.0,2,5.656
3820,122.24,0.7018,5.6836,0.4256,0.0408,0.3673,-1.5744,rough,14.0,2,5.655
3830,122.56,0.7019,5.6835,0.4256,0.0405,0.3673,-1.5749,rough,14.0,2,5.655
3840,122.88,0.7013,5.6840,0.4257,0.0425,0.3681,-1.5715,rough,14.0,2,5.656
3850,123.20,0.7017,5.6836,0.4256,0.0409,0.3674,-1.5742,rough,14.0,2,5.655
3860,123.52,0.7017,5.6835,0.4256,0.0405,0.3673,-1.5749,rough,14.0,2,5.655
3870,123.84,0.7017,5.6835,0.4256,0.0404,0.3673,-1.5751,rough,14.0,2,5.655
3880,124.16,0.7016,5.6835,0.4256,0.0404,0.3673,-1.5751,rough,14.0,2,5.655
3890,124.48,0.7009,5.6841,0.4257,0.0427,0.3683,-1.5710,rough,14.0,2,5.656
3900,124.80,0.7014,5.6836,0.4256,0.0409,0.3674,-1.5741,rough,14.0,2,5.656
3910,125.12,0.7015,5.6835,0.4256,0.0405,0.3673,-1.5749,rough,14.0,2,5.655
3920,125.44,0.7014,5.6835,0.4256,0.0404,0.3673,-1.5750,rough,14.0,2,5.656
3930,125.76,0.7014,5.6835,0.4256,0.0404,0.3673,-1.5751,rough,14.0,2,5.656
3940,126.08,0.7005,5.6842,0.4257,0.0431,0.3686,-1.5703,rough,14.0,2,5.657
3950,126.40,0.7011,5.6836,0.4256,0.0409,0.3674,-1.5740,rough,14.0,2,5.656
3960,126.72,0.7012,5.6836,0.4256,0.0405,0.3673,-1.5748,rough,14.0,2,5.656
3970,127.04,0.7012,5.6835,0.4256,0.0404,0.3673,-1.5750,rough,14.0,2,5.656
3980,127.36,0.7011,5.6835,0.4256,0.0404,0.3673,-1.5751,rough,14.0,2,5.656
3990,127.68,0.7001,5.6844,0.4258,0.0435,0.3689,-1.5696,rough,14.0,2,5.657
4000,128.00,0.7008,5.6836,0.4256,0.0410,0.3675,-1.5738,rough,14.0,2,5.656
4010,128.32,0.7005,5.6838,0.4256,0.0421,0.3679,-1.5719,rough,14.0,2,5.656
4020,128.64,0.7009,5.6836,0.4256,0.0407,0.3674,-1.5743,rough,14.0,2,5.656
4030,128.96,0.7009,5.6836,0.4256,0.0404,0.3673,-1.5749,rough,14.0,2,5.656
4040,129.28,0.6998,5.6845,0.4258,0.0440,0.3693,-1.5686,rough,14.0,2,5.657
4050,129.60,0.7006,5.6837,0.4256,0.0411,0.3675,-1.5735,rough,14.0,2,5.656
4060,129.92,0.7008,5.6836,0.4256,0.0405,0.3673,-1.5747,rough,14.0,2,5.656
4070,130.24,0.7007,5.6836,0.4256,0.0404,0.3673,-1.5750,rough,14.0,2,5.656
4080,130.56,0.7007,5.6836,0.4255,0.0403,0.3673,-1.5751,rough,14.0,2,5.656
4090,130.88,0.6994,5.6845,0.4258,0.0443,0.3694,-1.5678,rough,14.0,2,5.658
4100,131.20,0.7003,5.6837,0.4256,0.0412,0.3676,-1.5733,rough,14.0,2,5.657
4110,131.52,0.7005,5.6836,0.4255,0.0405,0.3673,-1.5747,rough,14.0,2,5.656
4120,131.84,0.7005,5.6836,0.4255,0.0403,0.3673,-1.5750,rough,14.0,2,5.656
4130,132.16,0.7004,5.6836,0.4255,0.0403,0.3673,-1.5751,rough,14.0,2,5.656
4140,132.48,0.7004,5.6836,0.4255,0.0403,0.3673,-1.5751,rough,14.0,2,5.656
4150,132.80,0.7000,5.6837,0.4256,0.0413,0.3676,-1.5730,rough,14.0,2,5.657
4160,133.12,0.7002,5.6836,0.4255,0.0405,0.3673,-1.5746,rough,14.0,2,5.657
4170,133.44,0.7002,5.6836,0.4255,0.0403,0.3673,-1.5750,rough,14.0,2,5.657
4180,133.76,0.7002,5.6836,0.4255,0.0403,0.3673,-1.5751,rough,14.0,2,5.657
4190,134.08,0.7001,5.6836,0.4255,0.0403,0.3673,-1.5751,rough,14.0,2,5.657
4200,134.40,0.6997,5.6838,0.4256,0.0415,0.3677,-1.5727,rough,14.0,2,5.657
4210,134.72,0.6995,5.6839,0.4256,0.0423,0.3680,-1.5715,rough,14.0,2,5.657
4220,135.04,0.7000,5.6836,0.4255,0.0406,0.3674,-1.5743,rough,14.0,2,5.657
4230,135.36,0.7000,5.6836,0.4255,0.0403,0.3673,-1.5749,rough,14.0,2,5.657
4240,135.68,0.7000,5.6836,0.4255,0.0403,0.3673,-1.5750,rough,14.0,2,5.657
4250,136.00,0.6995,5.6838,0.4256,0.0417,0.3679,-1.5723,rough,14.0,2,5.657
4260,136.32,0.6998,5.6836,0.4255,0.0405,0.3674,-1.5744,rough,14.0,2,5.657
4270,136.64,0.6998,5.6836,0.4255,0.0403,0.3673,-1.5749,rough,14.0,2,5.657
4280,136.96,0.6998,5.6836,0.4255,0.0402,0.3673,-1.5750,rough,14.0,2,5.657
4290,137.28,0.6997,5.6836,0.4255,0.0402,0.3673,-1.5751,rough,14.0,2,5.657
4300,137.60,0.6992,5.6839,0.4256,0.0419,0.3680,-1.5719,rough,14.0,2,5.658
4310,137.92,0.6995,5.6836,0.4255,0.0406,0.3674,-1.5743,rough,14.0,2,5.657
4320,138.24,0.6996,5.6836,0.4255,0.0403,0.3673,-1.5749,rough,14.0,2,5.657
4330,138.56,0.6995,5.6836,0.4255,0.0402,0.3673,-1.5750,rough,14.0,2,5.657
4340,138.88,0.6995,5.6836,0.4255,0.0402,0.3673,-1.5751,rough,14.0,2,5.657
4350,139.20,0.6988,5.6840,0.4256,0.0422,0.3682,-1.5714,rough,14.0,2,5.658
4360,139.52,0.6993,5.6836,0.4255,0.0406,0.3674,-1.5742,rough,14.0,2,5.658
4370,139.84,0.6993,5.6836,0.4255,0.0403,0.3673,-1.5748,rough,14.0,2,5.657
4380,140.16,0.6993,5.6836,0.4255,0.0402,0.3673,-1.5750,rough,14.0,2,5.657
4390,140.48,0.6992,5.6836,0.4255,0.0401,0.3673,-1.5751,rough,14.0,2,5.658
4400,140.80,0.6985,5.6841,0.4256,0.0425,0.3684,-1.5709,rough,14.0,2,5.658
4410,141.12,0.6986,5.6840,0.4255,0.0428,0.3682,-1.5707,rough,14.0,2,5.658
4420,141.44,0.6991,5.6836,0.4255,0.0407,0.3674,-1.5741,rough,14.0,2,5.658
4430,141.76,0.6992,5.6836,0.4255,0.0403,0.3674,-1.5748,rough,14.0,2,5.658
4440,142.08,0.6992,5.6836,0.4255,0.0402,0.3673,-1.5750,rough,14.0,2,5.658
4450,142.40,0.6983,5.6842,0.4256,0.0430,0.3687,-1.5702,rough,14.0,2,5.659
4460,142.72,0.6989,5.6836,0.4255,0.0407,0.3675,-1.5739,rough,14.0,2,5.658
4470,143.04,0.6990,5.6836,0.4255,0.0403,0.3674,-1.5748,rough,14.0,2,5.658
4480,143.36,0.6990,5.6836,0.4255,0.0402,0.3673,-1.5750,rough,14.0,2,5.658
4490,143.68,0.6989,5.6836,0.4255,0.0401,0.3673,-1.5751,rough,14.0,2,5.658
4500,144.00,0.6979,5.6844,0.4257,0.0433,0.3690,-1.5694,rough,14.0,2,5.659
4510,144.32,0.6986,5.6837,0.4255,0.0408,0.3675,-1.5737,rough,14.0,2,5.658
4520,144.64,0.6987,5.6836,0.4255,0.0403,0.3674,-1.5747,rough,14.0,2,5.658
4530,144.96,0.6987,5.6836,0.4255,0.0401,0.3673,-1.5750,rough,14.0,2,5.658
4540,145.28,0.6987,5.6836,0.4255,0.0401,0.3673,-1.5750,rough,14.0,2,5.658
4550,145.60,0.6975,5.6845,0.4257,0.0438,0.3693,-1.5685,rough,14.0,2,5.659
4560,145.92,0.6983,5.6837,0.4255,0.0408,0.3676,-1.5735,rough,14.0,2,5.658
4570,146.24,0.6985,5.6836,0.4255,0.0403,0.3674,-1.5747,rough,14.0,2,5.658
4580,146.56,0.6985,5.6836,0.4255,0.0401,0.3673,-1.5750,rough,14.0,2,5.658
4590,146.88,0.6984,5.6836,0.4255,0.0401,0.3673,-1.5750,rough,14.0,2,5.658
4600,147.20,0.6971,5.6845,0.4257,0.0441,0.3695,-1.5676,rough,14.0,2,5.660
4610,147.52,0.6977,5.6841,0.4255,0.0438,0.3684,-1.5691,rough,14.0,2,5.659
4620,147.84,0.6985,5.6836,0.4254,0.0408,0.3675,-1.5738,rough,14.0,2,5.658
4630,148.16,0.6986,5.6836,0.4254,0.0403,0.3674,-1.5747,rough,14.0,2,5.658
4640,148.48,0.6986,5.6836,0.4254,0.0401,0.3674,-1.5750,rough,14.0,2,5.658
4650,148.80,0.6985,5.6836,0.4254,0.0401,0.3674,-1.5750,rough,14.0,2,5.658
4660,149.12,0.6982,5.6837,0.4255,0.0412,0.3677,-1.5730,rough,14.0,2,5.659
4670,149.44,0.6984,5.6836,0.4254,0.0403,0.3674,-1.5745,rough,14.0,2,5.658
4680,149.76,0.6984,5.6836,0.4254,0.0401,0.3674,-1.5749,rough,14.0,2,5.658
4690,150.08,0.6984,5.6836,0.4254,0.0401,0.3674,-1.5750,rough,14.0,2,5.658
4700,150.40,0.6983,5.6836,0.4254,0.0401,0.3674,-1.5751,rough,14.0,2,5.658
4710,150.72,0.6979,5.6838,0.4255,0.0413,0.3678,-1.5726,rough,14.0,2,5.659
4720,151.04,0.6982,5.6836,0.4254,0.0403,0.3674,-1.5745,rough,14.0,2,5.659
4730,151.36,0.6982,5.6836,0.4254,0.0401,0.3674,-1.5749,rough,14.0,2,5.658
4740,151.68,0.6981,5.6836,0.4254,0.0400,0.3674,-1.5750,rough,14.0,2,5.659
4750,152.00,0.6981,5.6836,0.4254,0.0400,0.3674,-1.5750,rough,14.0,2,5.659
4760,152.32,0.6976,5.6839,0.4255,0.0415,0.3679,-1.5723,rough,14.0,2,5.659
4770,152.64,0.6979,5.6836,0.4254,0.0403,0.3674,-1.5744,rough,14.0,2,5.659
4780,152.96,0.6979,5.6836,0.4254,0.0401,0.3674,-1.5749,rough,14.0,2,5.659
4790,153.28,0.6979,5.6836,0.4254,0.0400,0.3674,-1.5750,rough,14.0,2,5.659
4800,153.60,0.6978,5.6836,0.4254,0.0400,0.3674,-1.5750,rough,14.0,2,5.659
4810,153.92,0.6973,5.6839,0.4255,0.0417,0.3680,-1.5718,rough,14.0,2,5.659
4820,154.24,0.6976,5.6836,0.4254,0.0403,0.3674,-1.5743,rough,14.0,2,5.659
4830,154.56,0.6977,5.6836,0.4254,0.0401,0.3674,-1.5748,rough,14.0,2,5.659
4840,154.88,0.6976,5.6836,0.4254,0.0400,0.3674,-1.5750,rough,14.0,2,5.659
4850,155.20,0.6976,5.6836,0.4254,0.0400,0.3674,-1.5750,rough,14.0,2,5.659
4860,155.52,0.6969,5.6840,0.4255,0.0420,0.3682,-1.5713,rough,14.0,2,5.660
4870,155.84,0.6974,5.6837,0.4254,0.0404,0.3675,-1.5741,rough,14.0,2,5.659
4880,156.16,0.6974,5.6836,0.4254,0.0401,0.3674,-1.5748,rough,14.0,2,5.659
4890,156.48,0.6974,5.6836,0.4254,0.0400,0.3674,-1.5750,rough,14.0,2,5.659
4900,156.80,0.6973,5.6836,0.4254,0.0399,0.3674,-1.5750,rough,14.0,2,5.659
4910,157.12,0.6966,5.6841,0.4255,0.0424,0.3684,-1.5708,rough,14.0,2,5.660
4920,157.44,0.6971,5.6837,0.4254,0.0404,0.3675,-1.5740,rough,14.0,2,5.659
4930,157.76,0.6972,5.6836,0.4254,0.0400,0.3674,-1.5748,rough,14.0,2,5.659
4940,158.08,0.6972,5.6836,0.4254,0.0399,0.3674,-1.5750,rough,14.0,2,5.659
4950,158.40,0.6971,5.6836,0.4254,0.0399,0.3674,-1.5750,rough,14.0,2,5.659
4960,158.72,0.6962,5.6843,0.4255,0.0428,0.3687,-1.5701,rough,14.0,2,5.661
4970,159.04,0.6969,5.6837,0.4254,0.0405,0.3675,-1.5738,rough,14.0,2,5.660
4980,159.36,0.6970,5.6836,0.4254,0.0400,0.3674,-1.5747,rough,14.0,2,5.660
4990,159.68,0.6969,5.6836,0.4254,0.0399,0.3674,-1.5750,rough,14.0,2,5.660
5000,160.00,0.6969,5.6836,0.4254,0.0399,0.3674,-1.5750,rough,14.0,2,5.660
5010,160.32,0.6954,5.6847,0.4256,0.0455,0.3696,-1.5653,rough,14.0,2,5.662
5020,160.64,0.6967,5.6838,0.4254,0.0413,0.3678,-1.5727,rough,14.0,2,5.660
5030,160.96,0.6970,5.6836,0.4254,0.0402,0.3674,-1.5745,rough,14.0,2,5.660
5040,161.28,0.6970,5.6836,0.4254,0.0400,0.3674,-1.5749,rough,14.0,2,5.660
5050,161.60,0.6969,5.6836,0.4254,0.0399,0.3674,-1.5750,rough,14.0,2,5.660
5060,161.92,0.6957,5.6845,0.4256,0.0436,0.3694,-1.5684,rough,14.0,2,5.661
5070,162.24,0.6966,5.6837,0.4254,0.0407,0.3676,-1.5734,rough,14.0,2,5.660
5080,162.56,0.6967,5.6836,0.4254,0.0401,0.3674,-1.5746,rough,14.0,2,5.660
5090,162.88,0.6967,5.6836,0.4254,0.0399,0.3674,-1.5749,rough,14.0,2,5.660
5100,163.20,0.6967,5.6836,0.4254,0.0399,0.3674,-1.5750,rough,14.0,2,5.660
5110,163.52,0.6953,5.6846,0.4256,0.0439,0.3695,-1.5675,rough,14.0,2,5.661
5120,163.84,0.6963,5.6838,0.4254,0.0408,0.3677,-1.5732,rough,14.0,2,5.660
5130,164.16,0.6965,5.6836,0.4254,0.0401,0.3674,-1.5746,rough,14.0,2,5.660
5140,164.48,0.6965,5.6836,0.4254,0.0399,0.3674,-1.5749,rough,14.0,2,5.660
5150,164.80,0.6965,5.6836,0.4254,0.0398,0.3674,-1.5750,rough,14.0,2,5.660
5160,165.12,0.6964,5.6836,0.4254,0.0398,0.3674,-1.5750,rough,14.0,2,5.660
5170,165.44,0.6960,5.6838,0.4254,0.0409,0.3677,-1.5729,rough,14.0,2,5.661
5180,165.76,0.6963,5.6837,0.4254,0.0401,0.3674,-1.5745,rough,14.0,2,5.660
5190,166.08,0.6963,5.6836,0.4254,0.0399,0.3674,-1.5749,rough,14.0,2,5.660
5200,166.40,0.6962,5.6836,0.4254,0.0398,0.3674,-1.5750,rough,14.0,2,5.660
5210,166.72,0.6957,5.6839,0.4254,0.0415,0.3680,-1.5718,rough,14.0,2,5.661
5220,167.04,0.6957,5.6839,0.4254,0.0418,0.3680,-1.5715,rough,14.0,2,5.661
5230,167.36,0.6961,5.6837,0.4254,0.0402,0.3675,-1.5742,rough,14.0,2,5.660
5240,167.68,0.6962,5.6836,0.4254,0.0399,0.3674,-1.5748,rough,14.0,2,5.660
5250,168.00,0.6961,5.6836,0.4254,0.0398,0.3674,-1.5750,rough,14.0,2,5.660
5260,168.32,0.6961,5.6836,0.4254,0.0398,0.3674,-1.5750,rough,14.0,2,5.660
5270,168.64,0.6956,5.6839,0.4254,0.0413,0.3680,-1.5722,rough,14.0,2,5.661
5280,168.96,0.6959,5.6837,0.4253,0.0401,0.3675,-1.5743,rough,14.0,2,5.661
5290,169.28,0.6959,5.6836,0.4253,0.0399,0.3674,-1.5748,rough,14.0,2,5.661
5300,169.60,0.6959,5.6836,0.4253,0.0398,0.3674,-1.5750,rough,14.0,2,5.661
5310,169.92,0.6958,5.6836,0.4253,0.0398,0.3674,-1.5750,rough,14.0,2,5.661
5320,170.24,0.6953,5.6840,0.4254,0.0416,0.3681,-1.5717,rough,14.0,2,5.661
5330,170.56,0.6957,5.6837,0.4253,0.0401,0.3675,-1.5742,rough,14.0,2,5.661
5340,170.88,0.6957,5.6837,0.4253,0.0398,0.3674,-1.5748,rough,14.0,2,5.661
5350,171.20,0.6957,5.6837,0.4253,0.0398,0.3674,-1.5750,rough,14.0,2,5.661
5360,171.52,0.6956,5.6837,0.4253,0.0397,0.3674,-1.5750,rough,14.0,2,5.661
5370,171.84,0.6950,5.6841,0.4254,0.0419,0.3683,-1.5712,rough,14.0,2,5.662
5380,172.16,0.6954,5.6837,0.4253,0.0402,0.3675,-1.5741,rough,14.0,2,5.661
5390,172.48,0.6955,5.6837,0.4253,0.0398,0.3674,-1.5748,rough,14.0,2,5.661
5400,172.80,0.6954,5.6837,0.4253,0.0397,0.3674,-1.5749,rough,14.0,2,5.661
5410,173.12,0.6950,5.6839,0.4254,0.0413,0.3680,-1.5721,rough,14.0,2,5.662
5420,173.44,0.6946,5.6842,0.4254,0.0429,0.3687,-1.5697,rough,14.0,2,5.662
5430,173.76,0.6952,5.6837,0.4253,0.0403,0.3676,-1.5738,rough,14.0,2,5.661
5440,174.08,0.6953,5.6837,0.4253,0.0399,0.3674,-1.5747,rough,14.0,2,5.661
5450,174.40,0.6953,5.6837,0.4253,0.0397,0.3674,-1.5749,rough,14.0,2,5.661
5460,174.72,0.6953,5.6837,0.4253,0.0397,0.3674,-1.5750,rough,14.0,2,5.661
5470,175.04,0.6944,5.6843,0.4255,0.0426,0.3688,-1.5700,rough,14.0,2,5.662
5480,175.36,0.6950,5.6837,0.4253,0.0403,0.3676,-1.5738,rough,14.0,2,5.661
5490,175.68,0.6951,5.6837,0.4253,0.0398,0.3674,-1.5747,rough,14.0,2,5.661
5500,176.00,0.6951,5.6837,0.4253,0.0397,0.3674,-1.5749,rough,14.0,2,5.661
5510,176.32,0.6950,5.6837,0.4253,0.0397,0.3674,-1.5750,rough,14.0,2,5.661
5520,176.64,0.6940,5.6844,0.4255,0.0430,0.3691,-1.5692,rough,14.0,2,5.663
5530,176.96,0.6948,5.6837,0.4253,0.0403,0.3676,-1.5736,rough,14.0,2,5.662
5540,177.28,0.6949,5.6837,0.4253,0.0398,0.3674,-1.5746,rough,14.0,2,5.662
5550,177.60,0.6949,5.6837,0.4253,0.0397,0.3674,-1.5749,rough,14.0,2,5.662
5560,177.92,0.6948,5.6837,0.4253,0.0397,0.3674,-1.5750,rough,14.0,2,5.662
5570,178.24,0.6936,5.6846,0.4255,0.0434,0.3694,-1.5683,rough,14.0,2,5.663
5580,178.56,0.6945,5.6838,0.4253,0.0404,0.3676,-1.5734,rough,14.0,2,5.662
5590,178.88,0.6946,5.6837,0.4253,0.0398,0.3674,-1.5746,rough,14.0,2,5.662
5600,179.20,0.6946,5.6837,0.4253,0.0397,0.3674,-1.5749,rough,14.0,2,5.662
5610,179.52,0.6942,5.6839,0.4253,0.0412,0.3680,-1.5721,rough,14.0,2,5.662
5620,179.84,0.6932,5.6846,0.4255,0.0441,0.3696,-1.5665,rough,14.0,2,5.663
5630,180.16,0.6943,5.6838,0.4253,0.0407,0.3677,-1.5729,rough,14.0,2,5.662
5640,180.48,0.6945,5.6837,0.4253,0.0399,0.3675,-1.5745,rough,14.0,2,5.662
5650,180.80,0.6945,5.6837,0.4253,0.0397,0.3674,-1.5749,rough,14.0,2,5.662
5660,181.12,0.6945,5.6837,0.4253,0.0396,0.3674,-1.5750,rough,14.0,2,5.662
5670,181.44,0.6944,5.6837,0.4253,0.0396,0.3675,-1.5750,rough,14.0,2,5.662
5680,181.76,0.6940,5.6838,0.4253,0.0407,0.3678,-1.5728,rough,14.0,2,5.662
5690,182.08,0.6943,5.6837,0.4253,0.0398,0.3675,-1.5744,rough,14.0,2,5.662
5700,182.40,0.6943,5.6837,0.4253,0.0396,0.3674,-1.5748,rough,14.0,2,5.662
5710,182.72,0.6942,5.6837,0.4253,0.0396,0.3674,-1.5749,rough,14.0,2,5.662
5720,183.04,0.6942,5.6837,0.4253,0.0396,0.3675,-1.5750,rough,14.0,2,5.662
5730,183.36,0.6938,5.6839,0.4253,0.0409,0.3679,-1.5725,rough,14.0,2,5.663
5740,183.68,0.6940,5.6837,0.4253,0.0399,0.3675,-1.5744,rough,14.0,2,5.662
5750,184.00,0.6941,5.6837,0.4253,0.0396,0.3674,-1.5748,rough,14.0,2,5.662
5760,184.32,0.6940,5.6837,0.4253,0.0396,0.3674,-1.5749,rough,14.0,2,5.662
5770,184.64,0.6940,5.6837,0.4253,0.0395,0.3674,-1.5750,rough,14.0,2,5.662
5780,184.96,0.6935,5.6839,0.4253,0.0411,0.3680,-1.5721,rough,14.0,2,5.663
5790,185.28,0.6938,5.6837,0.4253,0.0399,0.3675,-1.5743,rough,14.0,2,5.663
5800,185.60,0.6938,5.6837,0.4253,0.0396,0.3674,-1.5748,rough,14.0,2,5.662
5810,185.92,0.6934,5.6839,0.4253,0.0411,0.3680,-1.5720,rough,14.0,2,5.663
5820,186.24,0.6937,5.6837,0.4253,0.0399,0.3675,-1.5743,rough,14.0,2,5.663
5830,186.56,0.6932,5.6840,0.4253,0.0416,0.3682,-1.5714,rough,14.0,2,5.663
5840,186.88,0.6937,5.6837,0.4253,0.0399,0.3675,-1.5741,rough,14.0,2,5.663
5850,187.20,0.6937,5.6837,0.4253,0.0396,0.3675,-1.5747,rough,14.0,2,5.663
5860,187.52,0.6937,5.6837,0.4253,0.0395,0.3674,-1.5749,rough,14.0,2,5.663
5870,187.84,0.6936,5.6837,0.4253,0.0395,0.3674,-1.5750,rough,14.0,2,5.663
5880,188.16,0.6930,5.6841,0.4253,0.0417,0.3683,-1.5711,rough,14.0,2,5.663
5890,188.48,0.6934,5.6837,0.4253,0.0399,0.3675,-1.5740,rough,14.0,2,5.663
5900,188.80,0.6935,5.6837,0.4252,0.0396,0.3675,-1.5747,rough,14.0,2,5.663
5910,189.12,0.6935,5.6837,0.4252,0.0395,0.3674,-1.5749,rough,14.0,2,5.663
5920,189.44,0.6934,5.6837,0.4252,0.0395,0.3674,-1.5750,rough,14.0,2,5.663
5930,189.76,0.6926,5.6842,0.4253,0.0420,0.3685,-1.5705,rough,14.0,2,5.664
5940,190.08,0.6932,5.6838,0.4252,0.0400,0.3676,-1.5739,rough,14.0,2,5.663
5950,190.40,0.6933,5.6837,0.4252,0.0396,0.3675,-1.5747,rough,14.0,2,5.663
5960,190.72,0.6932,5.6837,0.4252,0.0395,0.3674,-1.5749,rough,14.0,2,5.663
5970,191.04,0.6932,5.6837,0.4252,0.0395,0.3674,-1.5749,rough,14.0,2,5.663
5980,191.36,0.6923,5.6843,0.4254,0.0424,0.3688,-1.5698,rough,14.0,2,5.664
5990,191.68,0.6929,5.6838,0.4252,0.0400,0.3676,-1.5737,rough,14.0,2,5.663
6000,192.00,0.6930,5.6837,0.4252,0.0396,0.3675,-1.5746,rough,14.0,2,5.663
6010,192.32,0.6926,5.6840,0.4253,0.0411,0.3680,-1.5719,rough,14.0,2,5.664
6020,192.64,0.6929,5.6837,0.4252,0.0398,0.3675,-1.5742,rough,14.0,2,5.663
6030,192.96,0.6920,5.6845,0.4254,0.0430,0.3691,-1.5688,rough,14.0,2,5.664
6040,193.28,0.6928,5.6838,0.4252,0.0402,0.3677,-1.5735,rough,14.0,2,5.663
6050,193.60,0.6929,5.6837,0.4252,0.0396,0.3675,-1.5746,rough,14.0,2,5.663
6060,193.92,0.6929,5.6837,0.4252,0.0395,0.3675,-1.5749,rough,14.0,2,5.663
6070,194.24,0.6929,5.6837,0.4252,0.0394,0.3675,-1.5749,rough,14.0,2,5.663
6080,194.56,0.6917,5.6846,0.4254,0.0433,0.3694,-1.5681,rough,14.0,2,5.665
6090,194.88,0.6925,5.6838,0.4252,0.0402,0.3677,-1.5733,rough,14.0,2,5.664
6100,195.20,0.6927,5.6837,0.4252,0.0396,0.3675,-1.5745,rough,14.0,2,5.664
6110,195.52,0.6927,5.6837,0.4252,0.0395,0.3675,-1.5748,rough,14.0,2,5.664
6120,195.84,0.6926,5.6837,0.4252,0.0394,0.3675,-1.5749,rough,14.0,2,5.664
6130,196.16,0.6913,5.6846,0.4254,0.0436,0.3696,-1.5672,rough,14.0,2,5.665
6140,196.48,0.6923,5.6838,0.4252,0.0404,0.3677,-1.5730,rough,14.0,2,5.664
6150,196.80,0.6925,5.6837,0.4252,0.0396,0.3675,-1.5745,rough,14.0,2,5.664
6160,197.12,0.6925,5.6837,0.4252,0.0394,0.3675,-1.5748,rough,14.0,2,5.664
6170,197.44,0.6924,5.6837,0.4252,0.0394,0.3675,-1.5749,rough,14.0,2,5.664
6180,197.76,0.6924,5.6837,0.4252,0.0394,0.3675,-1.5749,rough,14.0,2,5.664
6190,198.08,0.6920,5.6839,0.4252,0.0405,0.3678,-1.5727,rough,14.0,2,5.664
6200,198.40,0.6922,5.6837,0.4252,0.0396,0.3675,-1.5744,rough,14.0,2,5.664
6210,198.72,0.6918,5.6840,0.4252,0.0411,0.3680,-1.5718,rough,14.0,2,5.664
6220,199.04,0.6922,5.6837,0.4252,0.0397,0.3675,-1.5742,rough,14.0,2,5.664
6230,199.36,0.6922,5.6837,0.4252,0.0395,0.3675,-1.5747,rough,14.0,2,5.664
6240,199.68,0.6918,5.6839,0.4252,0.0408,0.3679,-1.5723,rough,14.0,2,5.664
6250,200.00,0.6921,5.6837,0.4252,0.0396,0.3675,-1.5743,rough,14.0,2,5.664
6260,200.32,0.6921,5.6837,0.4252,0.0394,0.3675,-1.5748,rough,14.0,2,5.664
6270,200.64,0.6921,5.6837,0.4252,0.0394,0.3675,-1.5749,rough,14.0,2,5.664
6280,200.96,0.6921,5.6837,0.4252,0.0393,0.3675,-1.5749,rough,14.0,2,5.664
6290,201.28,0.6915,5.6840,0.4252,0.0409,0.3680,-1.5720,rough,14.0,2,5.665
6300,201.60,0.6919,5.6838,0.4252,0.0397,0.3675,-1.5742,rough,14.0,2,5.664
6310,201.92,0.6919,5.6837,0.4252,0.0394,0.3675,-1.5748,rough,14.0,2,5.664
6320,202.24,0.6919,5.6837,0.4252,0.0393,0.3675,-1.5749,rough,14.0,2,5.664
6330,202.56,0.6918,5.6837,0.4252,0.0393,0.3675,-1.5749,rough,14.0,2,5.664
6340,202.88,0.6913,5.6841,0.4252,0.0412,0.3682,-1.5715,rough,14.0,2,5.665
6350,203.20,0.6917,5.6838,0.4252,0.0397,0.3676,-1.5741,rough,14.0,2,5.664
6360,203.52,0.6917,5.6837,0.4252,0.0394,0.3675,-1.5747,rough,14.0,2,5.664
6370,203.84,0.6917,5.6837,0.4252,0.0393,0.3675,-1.5749,rough,14.0,2,5.664
6380,204.16,0.6916,5.6837,0.4252,0.0393,0.3675,-1.5749,rough,14.0,2,5.664
6390,204.48,0.6910,5.6841,0.4252,0.0415,0.3684,-1.5710,rough,14.0,2,5.665
6400,204.80,0.6914,5.6838,0.4252,0.0397,0.3676,-1.5740,rough,14.0,2,5.665
6410,205.12,0.6911,5.6840,0.4252,0.0411,0.3681,-1.5716,rough,14.0,2,5.665
6420,205.44,0.6914,5.6838,0.4252,0.0397,0.3676,-1.5742,rough,14.0,2,5.665
6430,205.76,0.6915,5.6837,0.4252,0.0394,0.3675,-1.5747,rough,14.0,2,5.665
6440,206.08,0.6907,5.6842,0.4253,0.0419,0.3686,-1.5703,rough,14.0,2,5.666
6450,206.40,0.6913,5.6838,0.4252,0.0398,0.3676,-1.5738,rough,14.0,2,5.665
6460,206.72,0.6914,5.6837,0.4252,0.0394,0.3675,-1.5746,rough,14.0,2,5.665
6470,207.04,0.6914,5.6837,0.4252,0.0393,0.3675,-1.5749,rough,14.0,2,5.665
6480,207.36,0.6913,5.6837,0.4252,0.0393,0.3675,-1.5749,rough,14.0,2,5.665
6490,207.68,0.6904,5.6844,0.4253,0.0423,0.3689,-1.5697,rough,14.0,2,5.666
6500,208.00,0.6911,5.6838,0.4252,0.0399,0.3676,-1.5737,rough,14.0,2,5.665
6510,208.32,0.6912,5.6837,0.4252,0.0394,0.3675,-1.5746,rough,14.0,2,5.665
6520,208.64,0.6912,5.6837,0.4252,0.0393,0.3675,-1.5748,rough,14.0,2,5.665
6530,208.96,0.6911,5.6837,0.4252,0.0392,0.3675,-1.5749,rough,14.0,2,5.665
6540,209.28,0.6901,5.6845,0.4253,0.0427,0.3692,-1.5689,rough,14.0,2,5.666
6550,209.60,0.6908,5.6838,0.4252,0.0399,0.3677,-1.5735,rough,14.0,2,5.665
6560,209.92,0.6910,5.6838,0.4251,0.0394,0.3675,-1.5746,rough,14.0,2,5.665
6570,210.24,0.6910,5.6838,0.4251,0.0392,0.3675,-1.5748,rough,14.0,2,5.665
6580,210.56,0.6909,5.6838,0.4251,0.0392,0.3675,-1.5749,rough,14.0,2,5.665
6590,210.88,0.6897,5.6846,0.4253,0.0431,0.3695,-1.5680,rough,14.0,2,5.667
6600,211.20,0.6906,5.6838,0.4251,0.0400,0.3677,-1.5732,rough,14.0,2,5.665
6610,211.52,0.6903,5.6840,0.4252,0.0413,0.3682,-1.5714,rough,14.0,2,5.666
6620,211.84,0.6907,5.6838,0.4251,0.0396,0.3676,-1.5741,rough,14.0,2,5.665
6630,212.16,0.6908,5.6838,0.4251,0.0393,0.3675,-1.5747,rough,14.0,2,5.665
6640,212.48,0.6894,5.6846,0.4253,0.0434,0.3696,-1.5670,rough,14.0,2,5.667
6650,212.80,0.6904,5.6839,0.4251,0.0402,0.3678,-1.5730,rough,14.0,2,5.666
6660,213.12,0.6907,5.6838,0.4251,0.0394,0.3675,-1.5744,rough,14.0,2,5.665
6670,213.44,0.6907,5.6838,0.4251,0.0392,0.3675,-1.5748,rough,14.0,2,5.665
6680,213.76,0.6906,5.6838,0.4251,0.0392,0.3675,-1.5749,rough,14.0,2,5.665
6690,214.08,0.6906,5.6838,0.4251,0.0392,0.3675,-1.5749,rough,14.0,2,5.665
6700,214.40,0.6902,5.6839,0.4251,0.0403,0.3679,-1.5727,rough,14.0,2,5.666
6710,214.72,0.6904,5.6838,0.4251,0.0394,0.3675,-1.5744,rough,14.0,2,5.666
6720,215.04,0.6905,5.6838,0.4251,0.0392,0.3675,-1.5748,rough,14.0,2,5.666
6730,215.36,0.6904,5.6838,0.4251,0.0392,0.3675,-1.5749,rough,14.0,2,5.666
6740,215.68,0.6904,5.6838,0.4251,0.0391,0.3675,-1.5749,rough,14.0,2,5.666
6750,216.00,0.6899,5.6840,0.4251,0.0405,0.3680,-1.5723,rough,14.0,2,5.666
6760,216.32,0.6902,5.6838,0.4251,0.0394,0.3676,-1.5743,rough,14.0,2,5.666
6770,216.64,0.6903,5.6838,0.4251,0.0392,0.3675,-1.5747,rough,14.0,2,5.666
6780,216.96,0.6902,5.6838,0.4251,0.0391,0.3675,-1.5749,rough,14.0,2,5.666
6790,217.28,0.6902,5.6838,0.4251,0.0391,0.3675,-1.5749,rough,14.0,2,5.666
6800,217.60,0.6897,5.6840,0.4251,0.0408,0.3681,-1.5719,rough,14.0,2,5.666
6810,217.92,0.6896,5.6841,0.4251,0.0416,0.3682,-1.5708,rough,14.0,2,5.667
6820,218.24,0.6901,5.6838,0.4251,0.0396,0.3676,-1.5740,rough,14.0,2,5.666
6830,218.56,0.6902,5.6838,0.4251,0.0392,0.3675,-1.5747,rough,14.0,2,5.666
6840,218.88,0.6901,5.6838,0.4251,0.0391,0.3675,-1.5748,rough,14.0,2,5.666
6850,219.20,0.6895,5.6841,0.4251,0.0411,0.3682,-1.5714,rough,14.0,2,5.667
6860,219.52,0.6900,5.6838,0.4251,0.0395,0.3676,-1.5741,rough,14.0,2,5.666
6870,219.84,0.6900,5.6838,0.4251,0.0392,0.3675,-1.5747,rough,14.0,2,5.666
6880,220.16,0.6900,5.6838,0.4251,0.0391,0.3675,-1.5749,rough,14.0,2,5.666
6890,220.48,0.6899,5.6838,0.4251,0.0391,0.3675,-1.5749,rough,14.0,2,5.666
6900,220.80,0.6893,5.6842,0.4252,0.0414,0.3684,-1.5709,rough,14.0,2,5.667
6910,221.12,0.6897,5.6838,0.4251,0.0395,0.3676,-1.5740,rough,14.0,2,5.666
6920,221.44,0.6898,5.6838,0.4251,0.0392,0.3675,-1.5747,rough,14.0,2,5.666
6930,221.76,0.6898,5.6838,0.4251,0.0391,0.3675,-1.5748,rough,14.0,2,5.666
6940,222.08,0.6897,5.6838,0.4251,0.0391,0.3675,-1.5749,rough,14.0,2,5.666
6950,222.40,0.6890,5.6843,0.4252,0.0417,0.3686,-1.5703,rough,14.0,2,5.667
6960,222.72,0.6895,5.6838,0.4251,0.0396,0.3676,-1.5738,rough,14.0,2,5.666
6970,223.04,0.6896,5.6838,0.4251,0.0392,0.3675,-1.5746,rough,14.0,2,5.666
6980,223.36,0.6896,5.6838,0.4251,0.0391,0.3675,-1.5748,rough,14.0,2,5.666
6990,223.68,0.6895,5.6838,0.4251,0.0391,0.3675,-1.5749,rough,14.0,2,5.666
7000,224.00,0.6886,5.6844,0.4252,0.0421,0.3689,-1.5696,rough,14.0,2,5.667
7010,224.32,0.6889,5.6842,0.4251,0.0424,0.3685,-1.5697,rough,14.0,2,5.667
7020,224.64,0.6896,5.6838,0.4251,0.0397,0.3677,-1.5738,rough,14.0,2,5.666
7030,224.96,0.6897,5.6838,0.4251,0.0392,0.3676,-1.5746,rough,14.0,2,5.666
7040,225.28,0.6896,5.6838,0.4251,0.0391,0.3676,-1.5748,rough,14.0,2,5.666
7050,225.60,0.6886,5.6845,0.4252,0.0426,0.3692,-1.5688,rough,14.0,2,5.668
7060,225.92,0.6894,5.6838,0.4251,0.0398,0.3677,-1.5734,rough,14.0,2,5.667
7070,226.24,0.6895,5.6838,0.4251,0.0392,0.3676,-1.5745,rough,14.0,2,5.666
7080,226.56,0.6895,5.6838,0.4251,0.0391,0.3675,-1.5748,rough,14.0,2,5.666
7090,226.88,0.6895,5.6838,0.4251,0.0391,0.3675,-1.5749,rough,14.0,2,5.666
7100,227.20,0.6882,5.6846,0.4253,0.0430,0.3695,-1.5679,rough,14.0,2,5.668
7110,227.52,0.6891,5.6839,0.4251,0.0399,0.3678,-1.5732,rough,14.0,2,5.667
7120,227.84,0.6893,5.6838,0.4251,0.0392,0.3676,-1.5745,rough,14.0,2,5.667
7130,228.16,0.6893,5.6838,0.4251,0.0391,0.3675,-1.5748,rough,14.0,2,5.667
7140,228.48,0.6893,5.6838,0.4251,0.0390,0.3675,-1.5749,rough,14.0,2,5.667
7150,228.80,0.6879,5.6846,0.4253,0.0433,0.3696,-1.5669,rough,14.0,2,5.668
7160,229.12,0.6889,5.6839,0.4251,0.0400,0.3678,-1.5729,rough,14.0,2,5.667
7170,229.44,0.6891,5.6838,0.4251,0.0392,0.3676,-1.5744,rough,14.0,2,5.667
7180,229.76,0.6891,5.6838,0.4251,0.0391,0.3675,-1.5748,rough,14.0,2,5.667
7190,230.08,0.6891,5.6838,0.4251,0.0390,0.3675,-1.5749,rough,14.0,2,5.667
7200,230.40,0.6890,5.6838,0.4251,0.0390,0.3676,-1.5749,rough,14.0,2,5.667
7210,230.72,0.6885,5.6840,0.4251,0.0407,0.3681,-1.5719,rough,14.0,2,5.667
7220,231.04,0.6889,5.6838,0.4251,0.0393,0.3676,-1.5742,rough,14.0,2,5.667
7230,231.36,0.6889,5.6838,0.4251,0.0391,0.3676,-1.5747,rough,14.0,2,5.667
7240,231.68,0.6889,5.6838,0.4251,0.0390,0.3675,-1.5748,rough,14.0,2,5.667
7250,232.00,0.6888,5.6838,0.4251,0.0390,0.3676,-1.5749,rough,14.0,2,5.667
7260,232.32,0.6884,5.6840,0.4251,0.0404,0.3680,-1.5722,rough,14.0,2,5.668
7270,232.64,0.6887,5.6838,0.4250,0.0393,0.3676,-1.5742,rough,14.0,2,5.667
7280,232.96,0.6887,5.6838,0.4250,0.0390,0.3675,-1.5747,rough,14.0,2,5.667
7290,233.28,0.6887,5.6838,0.4251,0.0390,0.3675,-1.5748,rough,14.0,2,5.667
7300,233.60,0.6886,5.6838,0.4250,0.0389,0.3675,-1.5749,rough,14.0,2,5.667
7310,233.92,0.6881,5.6840,0.4251,0.0406,0.3681,-1.5718,rough,14.0,2,5.668
7320,234.24,0.6885,5.6838,0.4250,0.0393,0.3676,-1.5742,rough,14.0,2,5.667
7330,234.56,0.6885,5.6838,0.4250,0.0390,0.3676,-1.5747,rough,14.0,2,5.667
7340,234.88,0.6885,5.6838,0.4250,0.0389,0.3675,-1.5748,rough,14.0,2,5.667
7350,235.20,0.6884,5.6838,0.4250,0.0389,0.3675,-1.5749,rough,14.0,2,5.667
7360,235.52,0.6879,5.6841,0.4251,0.0409,0.3683,-1.5714,rough,14.0,2,5.668
7370,235.84,0.6883,5.6838,0.4250,0.0393,0.3676,-1.5740,rough,14.0,2,5.668
7380,236.16,0.6883,5.6838,0.4250,0.0390,0.3676,-1.5747,rough,14.0,2,5.668
7390,236.48,0.6883,5.6838,0.4250,0.0389,0.3675,-1.5748,rough,14.0,2,5.668
7400,236.80,0.6883,5.6838,0.4250,0.0389,0.3675,-1.5749,rough,14.0,2,5.668
7410,237.12,0.6876,5.6842,0.4251,0.0412,0.3684,-1.5708,rough,14.0,2,5.668
7420,237.44,0.6881,5.6838,0.4250,0.0394,0.3676,-1.5739,rough,14.0,2,5.668
7430,237.76,0.6881,5.6838,0.4250,0.0390,0.3676,-1.5746,rough,14.0,2,5.668
7440,238.08,0.6881,5.6838,0.4250,0.0389,0.3676,-1.5748,rough,14.0,2,5.668
7450,238.40,0.6881,5.6838,0.4250,0.0389,0.3675,-1.5749,rough,14.0,2,5.668
7460,238.72,0.6873,5.6843,0.4251,0.0416,0.3687,-1.5702,rough,14.0,2,5.669
7470,239.04,0.6878,5.6839,0.4250,0.0394,0.3677,-1.5738,rough,14.0,2,5.668
7480,239.36,0.6879,5.6838,0.4250,0.0390,0.3676,-1.5746,rough,14.0,2,5.668
7490,239.68,0.6879,5.6838,0.4250,0.0389,0.3676,-1.5748,rough,14.0,2,5.668
7500,240.00,0.6879,5.6838,0.4250,0.0389,0.3676,-1.5748,rough,14.0,2,5.668
7510,240.32,0.6870,5.6844,0.4251,0.0420,0.3689,-1.5695,rough,14.0,2,5.669
7520,240.64,0.6876,5.6839,0.4250,0.0395,0.3677,-1.5736,rough,14.0,2,5.668
7530,240.96,0.6877,5.6838,0.4250,0.0390,0.3676,-1.5745,rough,14.0,2,5.668
7540,241.28,0.6877,5.6838,0.4250,0.0389,0.3676,-1.5748,rough,14.0,2,5.668
7550,241.60,0.6877,5.6839,0.4250,0.0389,0.3676,-1.5748,rough,14.0,2,5.668
7560,241.92,0.6866,5.6846,0.4252,0.0424,0.3693,-1.5687,rough,14.0,2,5.669
7570,242.24,0.6874,5.6839,0.4250,0.0396,0.3678,-1.5734,rough,14.0,2,5.668
7580,242.56,0.6876,5.6839,0.4250,0.0390,0.3676,-1.5745,rough,14.0,2,5.668
7590,242.88,0.6876,5.6839,0.4250,0.0389,0.3676,-1.5747,rough,14.0,2,5.668
7600,243.20,0.6875,5.6839,0.4250,0.0389,0.3677,-1.5748,rough,14.0,2,5.668
7610,243.52,0.6857,5.6849,0.4252,0.0450,0.3701,-1.5637,rough,14.0,2,5.670
7620,243.84,0.6873,5.6840,0.4250,0.0407,0.3681,-1.5720,rough,14.0,2,5.669
7630,244.16,0.6877,5.6838,0.4250,0.0392,0.3676,-1.5742,rough,14.0,2,5.668
7640,244.48,0.6877,5.6838,0.4250,0.0389,0.3676,-1.5747,rough,14.0,2,5.668
7650,244.80,0.6877,5.6838,0.4250,0.0389,0.3677,-1.5748,rough,14.0,2,5.668
7660,245.12,0.6862,5.6847,0.4252,0.0432,0.3698,-1.5668,rough,14.0,2,5.670
7670,245.44,0.6873,5.6839,0.4250,0.0399,0.3679,-1.5729,rough,14.0,2,5.668
7680,245.76,0.6875,5.6839,0.4250,0.0391,0.3677,-1.5744,rough,14.0,2,5.668
7690,246.08,0.6875,5.6839,0.4250,0.0389,0.3677,-1.5747,rough,14.0,2,5.668
7700,246.40,0.6875,5.6839,0.4250,0.0389,0.3677,-1.5748,rough,14.0,2,5.668
7710,246.72,0.6874,5.6839,0.4250,0.0389,0.3677,-1.5748,rough,14.0,2,5.668
7720,247.04,0.6871,5.6840,0.4250,0.0400,0.3680,-1.5725,rough,14.0,2,5.669
7730,247.36,0.6873,5.6839,0.4250,0.0391,0.3677,-1.5743,rough,14.0,2,5.668
7740,247.68,0.6874,5.6839,0.4250,0.0389,0.3677,-1.5747,rough,14.0,2,5.668
7750,248.00,0.6873,5.6839,0.4250,0.0389,0.3677,-1.5748,rough,14.0,2,5.668
7760,248.32,0.6873,5.6839,0.4250,0.0389,0.3677,-1.5748,rough,14.0,2,5.669
7770,248.64,0.6868,5.6840,0.4250,0.0403,0.3680,-1.5722,rough,14.0,2,5.669
7780,248.96,0.6871,5.6839,0.4250,0.0391,0.3677,-1.5742,rough,14.0,2,5.669
7790,249.28,0.6872,5.6839,0.4250,0.0389,0.3677,-1.5747,rough,14.0,2,5.669
7800,249.60,0.6871,5.6839,0.4250,0.0389,0.3677,-1.5748,rough,14.0,2,5.669
7810,249.92,0.6866,5.6841,0.4250,0.0405,0.3682,-1.5717,rough,14.0,2,5.669
7820,250.24,0.6866,5.6842,0.4250,0.0414,0.3683,-1.5706,rough,14.0,2,5.669
7830,250.56,0.6871,5.6839,0.4250,0.0393,0.3677,-1.5739,rough,14.0,2,5.669
7840,250.88,0.6872,5.6839,0.4250,0.0390,0.3677,-1.5746,rough,14.0,2,5.669
7850,251.20,0.6872,5.6839,0.4250,0.0389,0.3677,-1.5748,rough,14.0,2,5.669
7860,251.52,0.6871,5.6839,0.4250,0.0388,0.3677,-1.5748,rough,14.0,2,5.669
7870,251.84,0.6865,5.6842,0.4250,0.0408,0.3683,-1.5713,rough,14.0,2,5.669
7880,252.16,0.6870,5.6839,0.4250,0.0392,0.3678,-1.5740,rough,14.0,2,5.669
7890,252.48,0.6870,5.6840,0.4250,0.0389,0.3678,-1.5746,rough,14.0,2,5.669
7900,252.80,0.6870,5.6840,0.4250,0.0389,0.3678,-1.5748,rough,14.0,2,5.669
7910,253.12,0.6870,5.6840,0.4250,0.0388,0.3678,-1.5748,rough,14.0,2,5.669
7920,253.44,0.6863,5.6843,0.4251,0.0412,0.3685,-1.5707,rough,14.0,2,5.670
7930,253.76,0.6868,5.6840,0.4250,0.0393,0.3678,-1.5738,rough,14.0,2,5.669
7940,254.08,0.6869,5.6840,0.4250,0.0389,0.3678,-1.5746,rough,14.0,2,5.669
7950,254.40,0.6868,5.6841,0.4250,0.0389,0.3679,-1.5747,rough,14.0,2,5.669
7960,254.72,0.6868,5.6840,0.4250,0.0388,0.3678,-1.5748,rough,14.0,2,5.669
7970,255.04,0.6860,5.6844,0.4251,0.0416,0.3688,-1.5701,rough,14.0,2,5.670
7980,255.36,0.6866,5.6840,0.4250,0.0393,0.3678,-1.5737,rough,14.0,2,5.669
7990,255.68,0.6867,5.6841,0.4250,0.0390,0.3679,-1.5745,rough,14.0,2,5.669
8000,256.00,0.6867,5.6840,0.4250,0.0388,0.3678,-1.5747,rough,14.0,2,5.669
8010,256.32,0.6862,5.6841,0.4250,0.0405,0.3682,-1.5717,rough,14.0,2,5.670
8020,256.64,0.6857,5.6845,0.4251,0.0424,0.3689,-1.5684,rough,14.0,2,5.670
8030,256.96,0.6865,5.6840,0.4250,0.0396,0.3679,-1.5733,rough,14.0,2,5.669
8040,257.28,0.6867,5.6841,0.4250,0.0390,0.3679,-1.5744,rough,14.0,2,5.669
8050,257.60,0.6867,5.6840,0.4250,0.0389,0.3678,-1.5747,rough,14.0,2,5.669
8060,257.92,0.6866,5.6841,0.4251,0.0389,0.3680,-1.5748,rough,14.0,2,5.669
8070,258.24,0.6856,5.6847,0.4252,0.0425,0.3695,-1.5685,rough,14.0,2,5.670
8080,258.56,0.6864,5.6841,0.4250,0.0395,0.3679,-1.5733,rough,14.0,2,5.669
8090,258.88,0.6865,5.6841,0.4250,0.0390,0.3679,-1.5744,rough,14.0,2,5.669
8100,259.20,0.6865,5.6841,0.4251,0.0389,0.3679,-1.5747,rough,14.0,2,5.669
8110,259.52,0.6865,5.6841,0.4250,0.0388,0.3679,-1.5748,rough,14.0,2,5.669
8120,259.84,0.6852,5.6849,0.4252,0.0429,0.3698,-1.5676,rough,14.0,2,5.671
8130,260.16,0.6862,5.6841,0.4250,0.0397,0.3680,-1.5730,rough,14.0,2,5.670
8140,260.48,0.6864,5.6841,0.4250,0.0390,0.3679,-1.5744,rough,14.0,2,5.669
8150,260.80,0.6864,5.6842,0.4251,0.0389,0.3680,-1.5747,rough,14.0,2,5.669
