step,time_s,x,y,z,roll,pitch,yaw,terrain,speed,target_idx,dist_to_target
10,0.32,2.0145,0.4859,0.7090,0.0993,-0.3080,-0.1020,rough,14.0,0,6.409
20,0.64,2.1907,0.4482,0.7653,0.1030,-0.4251,-0.1627,rough,14.0,0,6.248
30,0.96,2.5188,0.3810,0.9244,0.1199,-0.4504,-0.2127,rough,14.0,0,5.949
40,1.28,2.8313,0.2979,1.0775,0.1346,-0.4497,-0.2708,rough,14.0,0,5.674
50,1.60,3.1434,0.2044,1.2318,0.1289,-0.4495,-0.2812,rough,14.0,0,5.409
60,1.92,3.4628,0.1049,1.3845,0.1098,-0.4388,-0.2540,rough,14.0,0,5.146
70,2.24,3.7822,0.0112,1.5332,0.0956,-0.4126,-0.2334,rough,14.0,0,4.890
80,2.56,4.1043,-0.0685,1.6748,0.0739,-0.4073,-0.1907,rough,14.0,0,4.634
90,2.88,4.4301,-0.1339,1.8088,0.0401,-0.3761,-0.1599,rough,14.0,0,4.378
100,3.20,4.7574,-0.1923,1.9383,0.0427,-0.3622,-0.1281,rough,14.0,0,4.128
110,3.52,5.0790,-0.2415,2.0560,0.0316,-0.3481,-0.0944,rough,14.0,0,3.890
120,3.84,5.3999,-0.2716,2.1714,0.0204,-0.3303,-0.0657,rough,14.0,0,3.653
130,4.16,5.7096,-0.2931,2.2767,0.0160,-0.3268,-0.0462,rough,14.0,0,3.433
140,4.48,6.0103,-0.3064,2.3776,0.0085,-0.3194,-0.0292,rough,14.0,0,3.228
150,4.80,6.2976,-0.3149,2.4721,0.0053,-0.3163,-0.0178,rough,14.0,0,3.044
160,5.12,6.5700,-0.3198,2.5608,0.0033,-0.3138,-0.0105,rough,14.0,0,2.883
170,5.44,6.8260,-0.3225,2.6437,0.0019,-0.3131,-0.0056,rough,14.0,0,2.745
180,5.76,7.0648,-0.3239,2.7209,0.0011,-0.3125,-0.0029,rough,14.0,0,2.632
190,6.08,7.2859,-0.3246,2.7924,0.0006,-0.3132,-0.0011,rough,14.0,0,2.542
200,6.40,7.4896,-0.3248,2.8583,0.0002,-0.3135,-0.0001,rough,14.0,0,2.474
210,6.72,7.6793,-0.3248,2.9159,0.0001,-0.2890,0.0002,rough,14.0,0,2.423
220,7.04,8.0188,-0.3168,2.8459,-0.0151,0.7503,0.0359,rough,14.0,0,2.361
230,7.36,8.4752,-0.3421,2.3839,2.1446,1.4249,2.0953,rough,14.0,0,2.389
240,7.68,8.7683,-0.6159,2.2833,2.1453,0.0038,-3.0700,rough,14.0,0,2.704
250,8.00,8.9665,-0.7298,2.2921,1.8726,0.3965,2.8411,rough,14.0,0,2.860
260,8.32,9.0940,-0.7878,2.3105,1.9918,0.3191,2.9106,rough,14.0,0,2.950
270,8.64,9.2904,-0.8324,2.3413,2.5461,0.6019,-3.0337,rough,14.0,0,3.055
280,8.96,9.3633,-0.8855,2.2942,-3.0719,0.6648,-2.3774,rough,14.0,0,3.131
290,9.28,9.2430,-0.8750,2.2262,-2.7147,0.3181,-1.6296,rough,14.0,0,3.079
300,9.60,9.1377,-1.0354,2.1234,-2.8018,0.2750,-1.7722,rough,14.0,0,3.200
310,9.92,9.0855,-1.2684,2.0621,-2.8429,0.1614,-1.7589,rough,14.0,0,3.411
320,10.24,9.0669,-1.4749,2.0532,-2.8713,-0.0408,-1.7130,rough,14.0,0,3.607
330,10.56,9.0840,-1.4789,2.0527,-2.8245,-0.0695,-1.8376,rough,14.0,0,3.615
340,10.88,9.0831,-1.4704,2.0499,-2.8129,-0.0777,-1.8053,rough,14.0,0,3.606
350,11.20,9.0753,-1.3705,2.0477,-2.8912,0.0552,-1.7731,rough,14.0,0,3.507
360,11.52,9.0603,-1.3081,2.0501,-2.8710,0.0989,-1.7759,rough,14.0,0,3.443
370,11.84,9.0692,-1.2682,2.0587,-2.8331,0.1360,-1.7494,rough,14.0,0,3.407
380,12.16,9.0704,-1.3613,2.0487,-2.9053,0.0529,-1.7911,rough,14.0,0,3.497
390,12.48,9.0783,-1.3969,2.0460,-2.8834,0.0175,-1.7667,rough,14.0,0,3.534
400,12.80,9.0757,-1.3629,2.0496,-2.9061,0.0688,-1.8141,rough,14.0,0,3.500
410,13.12,9.0768,-1.3713,2.0478,-2.8896,0.0600,-1.8051,rough,14.0,0,3.509
420,13.44,9.0775,-1.3778,2.0453,-2.8947,0.0438,-1.7810,rough,14.0,0,3.515
430,13.76,9.0738,-1.4099,2.0456,-2.8676,-0.0101,-1.7530,rough,14.0,0,3.545
440,14.08,9.0795,-1.3476,2.0488,-2.8719,0.0658,-1.7665,rough,14.0,0,3.486
450,14.40,9.0731,-1.3838,2.0478,-2.9058,0.0292,-1.8070,rough,14.0,0,3.520
460,14.72,9.0736,-1.3796,2.0457,-2.8983,0.0343,-1.7668,rough,14.0,0,3.516
470,15.04,9.0777,-1.3837,2.0478,-2.9033,0.0457,-1.8006,rough,14.0,0,3.521
480,15.36,9.0766,-1.3857,2.0455,-2.8971,0.0366,-1.7761,rough,14.0,0,3.522
490,15.68,9.0813,-1.3961,2.0471,-2.8843,0.0365,-1.7947,rough,14.0,0,3.534
500,16.00,9.0770,-1.3763,2.0471,-2.8968,0.0498,-1.7778,rough,14.0,0,3.513
510,16.32,9.0719,-1.3916,2.0445,-2.8921,0.0288,-1.7710,rough,14.0,0,3.527
520,16.64,9.0776,-1.3806,2.0473,-2.9045,0.0477,-1.8020,rough,14.0,0,3.518
530,16.96,9.0747,-1.3791,2.0465,-2.8948,0.0314,-1.7706,rough,14.0,0,3.516
540,17.28,9.0784,-1.4154,2.0478,-2.8636,-0.0202,-1.7809,rough,14.0,0,3.552
550,17.60,9.0754,-1.3481,2.0485,-2.8772,0.0600,-1.7690,rough,14.0,0,3.486
560,17.92,9.0625,-1.3629,2.0467,-2.9084,0.0346,-1.7934,rough,14.0,0,3.497
570,18.24,9.0845,-1.3895,2.0471,-2.8803,0.0338,-1.8021,rough,14.0,0,3.528
580,18.56,9.0785,-1.3601,2.0481,-2.8931,0.0554,-1.8213,rough,14.0,0,3.498
590,18.88,9.0843,-1.3953,2.0488,-2.8875,0.0404,-1.8130,rough,14.0,0,3.534
600,19.20,9.0743,-1.3679,2.0475,-2.9041,0.0543,-1.8061,rough,14.0,0,3.505
610,19.52,9.0759,-1.3847,2.0458,-2.8969,0.0370,-1.7849,rough,14.0,0,3.521
620,19.84,9.0712,-1.3930,2.0450,-2.8807,0.0013,-1.7067,rough,14.0,0,3.528
630,20.16,9.0883,-1.3817,2.0479,-2.8929,0.0511,-1.7770,rough,14.0,0,3.521
640,20.48,9.0719,-1.3836,2.0465,-2.9018,0.0282,-1.7875,rough,14.0,0,3.519
650,20.80,9.0719,-1.3847,2.0471,-2.8854,0.0064,-1.7880,rough,14.0,0,3.520
660,21.12,9.0769,-1.3959,2.0448,-2.8868,0.0343,-1.7759,rough,14.0,0,3.532
670,21.44,9.0741,-1.3831,2.0441,-2.8943,0.0378,-1.7700,rough,14.0,0,3.519
680,21.76,9.0685,-1.3990,2.0409,-2.8847,0.0432,-1.7900,rough,14.0,0,3.533
690,22.08,9.0790,-1.3681,2.0510,-2.9009,0.0626,-1.8092,rough,14.0,0,3.506
700,22.40,9.0714,-1.3133,2.0552,-2.8653,0.1043,-1.7824,rough,14.0,0,3.451
710,22.72,9.0473,-1.3868,2.0496,-2.9181,-0.0346,-1.7644,rough,14.0,0,3.517
720,23.04,9.0901,-1.3643,2.0510,-2.8943,0.0685,-1.7729,rough,14.0,0,3.505
730,23.36,9.0815,-1.3741,2.0463,-2.8909,0.0476,-1.7853,rough,14.0,0,3.512
740,23.68,9.0762,-1.3866,2.0459,-2.8979,0.0370,-1.7878,rough,14.0,0,3.523
750,24.00,9.0806,-1.3888,2.0466,-2.8922,0.0356,-1.7740,rough,14.0,0,3.526
760,24.32,9.0750,-1.3680,2.0471,-2.9060,0.0628,-1.7647,rough,14.0,0,3.505
770,24.64,9.0772,-1.3764,2.0468,-2.9024,0.0403,-1.8058,rough,14.0,0,3.514
780,24.96,9.0801,-1.3747,2.0464,-2.9043,0.0560,-1.7813,rough,14.0,0,3.513
790,25.28,9.0794,-1.3763,2.0493,-2.8993,0.0569,-1.8130,rough,14.0,0,3.514
800,25.60,9.0847,-1.3329,2.0488,-2.8641,0.0968,-1.7343,rough,14.0,0,3.473
810,25.92,9.0747,-1.3817,2.0435,-2.8838,0.0367,-1.7492,rough,14.0,0,3.518
820,26.24,9.0794,-1.3838,2.0466,-2.8973,0.0463,-1.7927,rough,14.0,0,3.521
830,26.56,9.0888,-1.3722,2.0498,-2.8970,0.0940,-1.8290,rough,14.0,0,3.512
840,26.88,9.0861,-1.3898,2.0486,-2.8946,0.0432,-1.7905,rough,14.0,0,3.529
850,27.20,9.0747,-1.3852,2.0457,-2.8992,0.0305,-1.7751,rough,14.0,0,3.522
860,27.52,9.0755,-1.3752,2.0434,-2.9157,0.0461,-1.7593,rough,14.0,0,3.512
870,27.84,9.0718,-1.3759,2.0471,-2.8996,0.0307,-1.8000,rough,14.0,0,3.512
880,28.16,9.0719,-1.4011,2.0391,-2.8701,0.0069,-1.7435,rough,14.0,0,3.536
890,28.48,9.0732,-1.3820,2.0462,-2.8882,0.0248,-1.7477,rough,14.0,0,3.518
900,28.80,9.0870,-1.3651,2.0501,-2.8841,0.0721,-1.7631,rough,14.0,0,3.505
910,29.12,9.0836,-1.4159,2.0442,-2.9062,0.0183,-1.8000,rough,14.0,0,3.553
920,29.44,9.0764,-1.4031,2.0445,-2.8894,0.0264,-1.7990,rough,14.0,0,3.539
930,29.76,9.0791,-1.3482,2.0487,-2.8837,0.0734,-1.7763,rough,14.0,0,3.487
940,30.08,9.0815,-1.3736,2.0449,-2.8983,0.0550,-1.7918,rough,14.0,0,3.512
950,30.40,9.0798,-1.3792,2.0425,-2.9193,0.0427,-1.7772,rough,14.0,0,3.517
960,30.72,9.0830,-1.3860,2.0479,-2.8956,0.0567,-1.8082,rough,14.0,0,3.524
970,31.04,9.0799,-1.3874,2.0452,-2.8877,0.0440,-1.7656,rough,14.0,0,3.525
980,31.36,9.0785,-1.3673,2.0495,-2.9024,0.0584,-1.7985,rough,14.0,0,3.505
990,31.68,9.0676,-1.4260,2.0427,-2.8414,-0.0552,-1.7054,rough,14.0,0,3.559
1000,32.00,9.0710,-1.3373,2.0501,-2.8818,0.0783,-1.7728,rough,14.0,0,3.474
1010,32.32,9.0665,-1.3305,2.0522,-2.8966,0.0702,-1.8124,rough,14.0,0,3.466
1020,32.64,9.0716,-1.3986,2.0416,-2.8770,-0.0138,-1.7008,rough,14.0,0,3.534
1030,32.96,9.0798,-1.3713,2.0490,-2.8903,0.0658,-1.7857,rough,14.0,0,3.509
1040,33.28,9.0731,-1.3812,2.0471,-2.9082,0.0359,-1.8017,rough,14.0,0,3.517
1050,33.60,9.0761,-1.3811,2.0463,-2.9143,0.0241,-1.7860,rough,14.0,0,3.518
1060,33.92,9.0868,-1.4182,2.0504,-2.8790,0.0290,-1.8396,rough,14.0,0,3.556
1070,34.24,9.0827,-1.3857,2.0467,-2.9021,0.0562,-1.8012,rough,14.0,0,3.524
1080,34.56,9.0808,-1.3955,2.0470,-2.8874,0.0266,-1.7847,rough,14.0,0,3.533
1090,34.88,9.0813,-1.3540,2.0460,-2.8811,0.0499,-1.7775,rough,14.0,0,3.493
1100,35.20,9.0814,-1.3874,2.0463,-2.8919,0.0443,-1.7927,rough,14.0,0,3.525
1110,35.52,9.0806,-1.3859,2.0481,-2.8981,0.0531,-1.8148,rough,14.0,0,3.524
1120,35.84,9.0854,-1.3765,2.0488,-2.8942,0.0579,-1.7760,rough,14.0,0,3.516
1130,36.16,9.0800,-1.3966,2.0447,-2.9190,0.0188,-1.8136,rough,14.0,0,3.534
1140,36.48,9.0747,-1.4204,2.0453,-2.8745,-0.0313,-1.7467,rough,14.0,0,3.556
1150,36.80,9.0738,-1.3469,2.0477,-2.8798,0.0609,-1.7698,rough,14.0,0,3.484
1160,37.12,9.0641,-1.3281,2.0518,-2.8947,0.0641,-1.7954,rough,14.0,0,3.463
1170,37.44,9.0696,-1.3623,2.0473,-2.8982,0.0467,-1.7638,rough,14.0,0,3.498
1180,37.76,9.0812,-1.3925,2.0468,-2.8730,0.0204,-1.7967,rough,14.0,0,3.530
1190,38.08,9.0774,-1.3487,2.0495,-2.8700,0.0695,-1.7565,rough,14.0,0,3.487
1200,38.40,9.0816,-1.3535,2.0497,-2.8714,0.0745,-1.7859,rough,14.0,0,3.492
1210,38.72,9.0709,-1.3158,2.0511,-2.8530,0.0852,-1.7175,rough,14.0,0,3.453
1220,39.04,9.0640,-1.2155,2.0597,-2.8089,0.1811,-1.7046,rough,14.0,0,3.354
1230,39.36,9.0615,-1.1351,2.0699,-2.7937,0.2674,-1.6712,rough,14.0,0,3.276
1240,39.68,9.0794,-1.1622,2.0670,-2.7923,0.2564,-1.7300,rough,14.0,0,3.307
1250,40.00,9.0569,-1.2459,2.0584,-2.8527,0.1448,-1.7936,rough,14.0,0,3.382
1260,40.32,9.0839,-1.3633,2.0480,-2.8971,0.0680,-1.8000,rough,14.0,0,3.502
1270,40.64,9.0724,-1.4300,2.0473,-2.8492,-0.0451,-1.7292,rough,14.0,0,3.564
1280,40.96,9.0836,-1.3139,2.0574,-2.8475,0.1326,-1.7887,rough,14.0,0,3.454
1290,41.28,9.0662,-1.3808,2.0466,-2.9109,0.0206,-1.7848,rough,14.0,0,3.515
1300,41.60,9.0810,-1.4050,2.0482,-2.8754,0.0169,-1.7872,rough,14.0,0,3.542
1310,41.92,9.0773,-1.3498,2.0474,-2.8750,0.0577,-1.7883,rough,14.0,0,3.488
1320,42.24,9.0783,-1.3205,2.0546,-2.8437,0.1141,-1.7474,rough,14.0,0,3.460
1330,42.56,9.0674,-1.4051,2.0380,-2.9000,-0.0080,-1.7461,rough,14.0,0,3.539
1340,42.88,9.0795,-1.4232,2.0472,-2.8446,-0.0256,-1.7899,rough,14.0,0,3.560
1350,43.20,9.0833,-1.3239,2.0553,-2.8525,0.1176,-1.7767,rough,14.0,0,3.464
1360,43.52,9.0613,-1.4161,2.0494,-2.9004,-0.0288,-1.7749,rough,14.0,0,3.548
1370,43.84,9.0856,-1.4130,2.0507,-2.8733,0.0215,-1.8060,rough,14.0,0,3.551
1380,44.16,9.0735,-1.3864,2.0437,-2.8938,0.0280,-1.7529,rough,14.0,0,3.522
1390,44.48,9.0650,-1.3746,2.0419,-2.9381,0.0231,-1.7986,rough,14.0,0,3.509
1400,44.80,9.0790,-1.3501,2.0486,-2.8796,0.0611,-1.7923,rough,14.0,0,3.488
1410,45.12,9.0761,-1.3146,2.0558,-2.8506,0.1184,-1.7727,rough,14.0,0,3.453
1420,45.44,9.0683,-1.3821,2.0448,-2.8773,-0.0069,-1.7467,rough,14.0,0,3.517
1430,45.76,9.0723,-1.4319,2.0467,-2.9138,0.0164,-1.7307,rough,14.0,0,3.566
1440,46.08,9.0799,-1.3963,2.0435,-2.8588,-0.0118,-1.7565,rough,14.0,0,3.533
1450,46.40,9.0700,-1.3526,2.0493,-2.8983,0.0523,-1.7869,rough,14.0,0,3.489
1460,46.72,9.0765,-1.3837,2.0491,-2.9004,0.0397,-1.8073,rough,14.0,0,3.520
1470,47.04,9.0793,-1.3760,2.0476,-2.9011,0.0439,-1.7767,rough,14.0,0,3.514
1480,47.36,9.0766,-1.3781,2.0442,-2.9034,0.0564,-1.7945,rough,14.0,0,3.515
1490,47.68,9.0807,-1.3832,2.0426,-2.8946,0.0477,-1.7555,rough,14.0,0,3.521
1500,48.00,9.0803,-1.3730,2.0492,-2.8910,0.0744,-1.8057,rough,14.0,0,3.511
1510,48.32,9.0708,-1.3765,2.0472,-2.8893,0.0226,-1.7609,rough,14.0,0,3.512
1520,48.64,9.0644,-1.3912,2.0415,-2.9339,-0.0193,-1.7868,rough,14.0,0,3.525
1530,48.96,9.0728,-1.3955,2.0444,-2.8746,-0.0021,-1.7273,rough,14.0,0,3.531
1540,49.28,9.0754,-1.3599,2.0449,-2.8786,0.0386,-1.7658,rough,14.0,0,3.497
1550,49.60,9.0802,-1.3673,2.0460,-2.8841,0.0529,-1.8060,rough,14.0,0,3.505
1560,49.92,9.0803,-1.3865,2.0463,-2.8990,0.0362,-1.7794,rough,14.0,0,3.524
1570,50.24,9.0687,-1.3837,2.0474,-2.8923,0.0124,-1.7641,rough,14.0,0,3.519
1580,50.56,9.0725,-1.3804,2.0473,-2.9127,0.0363,-1.8146,rough,14.0,0,3.516
1590,50.88,9.0778,-1.3739,2.0473,-2.8962,0.0528,-1.7729,rough,14.0,0,3.511
1600,51.20,9.0753,-1.3754,2.0460,-2.9001,0.0451,-1.7899,rough,14.0,0,3.512
1610,51.52,9.0673,-1.3934,2.0468,-2.8739,-0.0163,-1.7460,rough,14.0,0,3.528
1620,51.84,9.0811,-1.3795,2.0467,-2.8870,0.0549,-1.7676,rough,14.0,0,3.517
1630,52.16,9.0827,-1.3781,2.0459,-2.9078,0.0642,-1.7928,rough,14.0,0,3.516
1640,52.48,9.0729,-1.3244,2.0545,-2.8833,0.0918,-1.8081,rough,14.0,0,3.462
1650,52.80,9.0737,-1.3389,2.0519,-2.8732,0.0817,-1.7643,rough,14.0,0,3.476
1660,53.12,9.0653,-1.3882,2.0444,-2.8645,-0.0168,-1.7716,rough,14.0,0,3.522
1670,53.44,9.0813,-1.3724,2.0479,-2.8950,0.0547,-1.7690,rough,14.0,0,3.511
1680,53.76,9.0774,-1.4258,2.0452,-2.8743,-0.0109,-1.7373,rough,14.0,0,3.562
1690,54.08,9.0770,-1.4034,2.0461,-2.8656,-0.0087,-1.7699,rough,14.0,0,3.540
1700,54.40,9.0761,-1.2860,2.0592,-2.8555,0.1314,-1.7895,rough,14.0,0,3.426
1710,54.72,9.0590,-1.3691,2.0486,-2.9113,0.0328,-1.7628,rough,14.0,0,3.502
1720,55.04,9.0858,-1.3695,2.0504,-2.9043,0.0676,-1.8257,rough,14.0,0,3.509
1730,55.36,9.0858,-1.3814,2.0488,-2.8861,0.0685,-1.8010,rough,14.0,0,3.520
1740,55.68,9.0783,-1.3893,2.0457,-2.8916,0.0327,-1.7761,rough,14.0,0,3.526
1750,56.00,9.0787,-1.3892,2.0464,-2.8926,0.0342,-1.7793,rough,14.0,0,3.526
1760,56.32,9.0766,-1.3797,2.0462,-2.8948,0.0474,-1.7860,rough,14.0,0,3.517
1770,56.64,9.0721,-1.3828,2.0469,-2.9067,0.0300,-1.7775,rough,14.0,0,3.519
1780,56.96,9.0792,-1.3821,2.0418,-2.9270,0.0626,-1.8074,rough,14.0,0,3.520
1790,57.28,9.0668,-1.3782,2.0461,-2.9080,0.0172,-1.7846,rough,14.0,0,3.513
1800,57.60,9.0819,-1.3867,2.0474,-2.8975,0.0568,-1.8121,rough,14.0,0,3.525
1810,57.92,9.0725,-1.3836,2.0485,-2.9077,0.0295,-1.8087,rough,14.0,0,3.519
1820,58.24,9.0765,-1.3832,2.0472,-2.9016,0.0515,-1.8168,rough,14.0,0,3.520
1830,58.56,9.0708,-1.3928,2.0409,-2.8661,0.0173,-1.7762,rough,14.0,0,3.528
1840,58.88,9.0804,-1.3568,2.0442,-2.8651,0.0452,-1.7590,rough,14.0,0,3.495
1850,59.20,9.0815,-1.3561,2.0498,-2.8920,0.0726,-1.7980,rough,14.0,0,3.495
1860,59.52,9.0795,-1.4011,2.0478,-2.8756,0.0174,-1.7857,rough,14.0,0,3.538
1870,59.84,9.0753,-1.3662,2.0434,-2.8883,0.0278,-1.7953,rough,14.0,0,3.503
1880,60.16,9.0705,-1.4044,2.0468,-2.8873,0.0011,-1.7507,rough,14.0,0,3.539
1890,60.48,9.0697,-1.3706,2.0488,-2.8895,0.0302,-1.7823,rough,14.0,0,3.506
1900,60.80,9.0828,-1.3738,2.0480,-2.8864,0.0561,-1.7791,rough,14.0,0,3.512
1910,61.12,9.0793,-1.3917,2.0464,-2.8865,0.0350,-1.7923,rough,14.0,0,3.529
1920,61.44,9.0801,-1.3540,2.0490,-2.8809,0.0662,-1.8087,rough,14.0,0,3.493
1930,61.76,9.0748,-1.4030,2.0444,-2.9038,0.0316,-1.7512,rough,14.0,0,3.539
1940,62.08,9.0797,-1.3752,2.0477,-2.8956,0.0670,-1.8035,rough,14.0,0,3.513
1950,62.40,9.0830,-1.3966,2.0466,-2.8644,0.0123,-1.8091,rough,14.0,0,3.535
1960,62.72,9.0807,-1.3812,2.0446,-2.8984,0.0522,-1.7686,rough,14.0,0,3.519
1970,63.04,9.0769,-1.3985,2.0464,-2.8814,0.0125,-1.7612,rough,14.0,0,3.535
1980,63.36,9.0783,-1.3893,2.0481,-2.8958,0.0360,-1.7952,rough,14.0,0,3.526
1990,63.68,9.0753,-1.4100,2.0442,-2.8854,-0.0043,-1.7409,rough,14.0,0,3.546
2000,64.00,9.0794,-1.3517,2.0531,-2.8900,0.0864,-1.8033,rough,14.0,0,3.490
2010,64.32,9.0753,-1.3196,2.0553,-2.8675,0.1026,-1.7831,rough,14.0,0,3.458
2020,64.64,9.0749,-1.4197,2.0461,-2.8616,-0.0184,-1.7241,rough,14.0,0,3.555
2030,64.96,9.0810,-1.3797,2.0466,-2.8939,0.0403,-1.7692,rough,14.0,0,3.518
2040,65.28,9.0772,-1.3776,2.0465,-2.9054,0.0407,-1.8123,rough,14.0,0,3.515
2050,65.60,9.0622,-1.3958,2.0467,-2.8932,-0.0218,-1.7478,rough,14.0,0,3.529
2060,65.92,9.0770,-1.3812,2.0447,-2.8898,0.0292,-1.7427,rough,14.0,0,3.518
2070,66.24,9.0772,-1.3778,2.0455,-2.8923,0.0386,-1.7787,rough,14.0,0,3.515
2080,66.56,9.0818,-1.3879,2.0466,-2.8946,0.0476,-1.7934,rough,14.0,0,3.526
2090,66.88,9.0725,-1.4003,2.0467,-2.8874,0.0074,-1.7502,rough,14.0,0,3.536
2100,67.20,9.0826,-1.3695,2.0482,-2.8901,0.0628,-1.7583,rough,14.0,0,3.508
2110,67.52,9.0800,-1.3863,2.0446,-2.8878,0.0344,-1.7746,rough,14.0,0,3.524
2120,67.84,9.0834,-1.3954,2.0472,-2.8902,0.0470,-1.8097,rough,14.0,0,3.533
2130,68.16,9.0847,-1.3561,2.0530,-2.8821,0.0915,-1.7891,rough,14.0,0,3.496
2140,68.48,9.0771,-1.3582,2.0453,-2.8857,0.0327,-1.7714,rough,14.0,0,3.496
2150,68.80,9.0835,-1.3940,2.0477,-2.8874,0.0390,-1.7995,rough,14.0,0,3.532
2160,69.12,9.0772,-1.3777,2.0479,-2.9005,0.0508,-1.7964,rough,14.0,0,3.515
2170,69.44,9.0812,-1.4232,2.0492,-2.8637,-0.0020,-1.8034,rough,14.0,0,3.560
2180,69.76,9.0820,-1.3710,2.0480,-2.8760,0.0667,-1.7576,rough,14.0,0,3.509
2190,70.08,9.0783,-1.3912,2.0457,-2.8925,0.0404,-1.7882,rough,14.0,0,3.528
2200,70.40,9.0736,-1.4149,2.0471,-2.8580,-0.0377,-1.7615,rough,14.0,0,3.550
2210,70.72,9.0783,-1.3705,2.0501,-2.8950,0.0669,-1.8065,rough,14.0,0,3.508
2220,71.04,9.0778,-1.3941,2.0446,-2.8855,0.0184,-1.7569,rough,14.0,0,3.531
2230,71.36,9.0842,-1.3794,2.0458,-2.8942,0.0492,-1.8130,rough,14.0,0,3.518
2240,71.68,9.0796,-1.3846,2.0457,-2.8988,0.0366,-1.7667,rough,14.0,0,3.522
2250,72.00,9.0804,-1.3903,2.0463,-2.8905,0.0576,-1.8154,rough,14.0,0,3.528
2260,72.32,9.0826,-1.3703,2.0454,-2.9020,0.0836,-1.7859,rough,14.0,0,3.509
2270,72.64,9.0754,-1.3984,2.0454,-2.8786,0.0084,-1.7495,rough,14.0,0,3.534
2280,72.96,9.0877,-1.3723,2.0505,-2.8889,0.0694,-1.7953,rough,14.0,0,3.512
2290,73.28,9.0795,-1.3905,2.0458,-2.8810,0.0242,-1.7906,rough,14.0,0,3.528
2300,73.60,9.0785,-1.3588,2.0467,-2.8773,0.0548,-1.7633,rough,14.0,0,3.497
2310,73.92,9.0776,-1.3622,2.0450,-2.8792,0.0633,-1.7808,rough,14.0,0,3.500
2320,74.24,9.0783,-1.3940,2.0465,-2.8843,0.0166,-1.7599,rough,14.0,0,3.531
2330,74.56,9.0773,-1.3925,2.0436,-2.8854,0.0396,-1.7663,rough,14.0,0,3.529
2340,74.88,9.0771,-1.3909,2.0434,-2.8803,0.0251,-1.7562,rough,14.0,0,3.528
2350,75.20,9.0696,-1.3946,2.0467,-2.8915,0.0012,-1.7527,rough,14.0,0,3.529
2360,75.52,9.0797,-1.3554,2.0510,-2.8758,0.0917,-1.7749,rough,14.0,0,3.494
2370,75.84,9.0729,-1.3623,2.0497,-2.9036,0.0543,-1.7956,rough,14.0,0,3.499
2380,76.16,9.0740,-1.3926,2.0409,-2.9073,0.0078,-1.7370,rough,14.0,0,3.529
2390,76.48,9.0809,-1.3793,2.0428,-2.8753,0.0461,-1.8173,rough,14.0,0,3.517
2400,76.80,9.0734,-1.3911,2.0427,-2.8786,0.0162,-1.7488,rough,14.0,0,3.527
2410,77.12,9.0710,-1.3855,2.0464,-2.8880,0.0135,-1.7518,rough,14.0,0,3.521
2420,77.44,9.0740,-1.3863,2.0464,-2.8977,0.0269,-1.7814,rough,14.0,0,3.522
2430,77.76,9.0735,-1.3768,2.0464,-2.9118,0.0501,-1.8027,rough,14.0,0,3.513
2440,78.08,9.0727,-1.3512,2.0500,-2.8979,0.0540,-1.7851,rough,14.0,0,3.488
2450,78.40,9.0805,-1.3893,2.0445,-2.8987,0.0362,-1.7698,rough,14.0,0,3.527
2460,78.72,9.0773,-1.3672,2.0481,-2.9089,0.0650,-1.8047,rough,14.0,0,3.505
2470,79.04,9.0864,-1.3867,2.0475,-2.8982,0.0722,-1.8233,rough,14.0,0,3.526
2480,79.36,9.0750,-1.3935,2.0448,-2.8793,0.0144,-1.7646,rough,14.0,0,3.530
2490,79.68,9.0710,-1.4210,2.0458,-2.8634,-0.0051,-1.7956,rough,14.0,0,3.555
2500,80.00,9.0856,-1.3676,2.0439,-2.8782,0.0311,-1.7966,rough,14.0,0,3.507
2510,80.32,9.0718,-1.2138,2.0606,-2.8247,0.1784,-1.7234,rough,14.0,0,3.355
2520,80.64,9.0609,-1.1166,2.0703,-2.7555,0.2531,-1.7045,rough,14.0,0,3.258
2530,80.96,9.0447,-1.1591,2.0668,-2.7825,0.1882,-1.7345,rough,14.0,0,3.295
2540,81.28,9.0637,-1.1763,2.0585,-2.7851,0.2378,-1.7284,rough,14.0,0,3.316
2550,81.60,9.0711,-1.1643,2.0652,-2.7970,0.2502,-1.7208,rough,14.0,0,3.306
2560,81.92,9.0580,-1.1940,2.0653,-2.8268,0.1891,-1.7891,rough,14.0,0,3.332
2570,82.24,9.0703,-1.1936,2.0643,-2.8289,0.2080,-1.7602,rough,14.0,0,3.335
2580,82.56,9.0627,-1.2223,2.0598,-2.8270,0.1684,-1.7692,rough,14.0,0,3.361
2590,82.88,9.0749,-1.3363,2.0522,-2.8869,0.0793,-1.7730,rough,14.0,0,3.474
2600,83.20,9.0764,-1.4089,2.0469,-2.8599,-0.0181,-1.7561,rough,14.0,0,3.545
2610,83.52,9.0791,-1.3756,2.0474,-2.8974,0.0445,-1.7647,rough,14.0,0,3.513
2620,83.84,9.0765,-1.3780,2.0444,-2.9035,0.0421,-1.7419,rough,14.0,0,3.515
2630,84.16,9.0774,-1.3623,2.0463,-2.8631,0.0447,-1.7344,rough,14.0,0,3.500
2640,84.48,9.0790,-1.3815,2.0459,-2.8962,0.0374,-1.7819,rough,14.0,0,3.519
2650,84.80,9.0751,-1.3849,2.0461,-2.8856,0.0234,-1.7416,rough,14.0,0,3.521
2660,85.12,9.0852,-1.3506,2.0492,-2.8787,0.0706,-1.7833,rough,14.0,0,3.490
2670,85.44,9.0633,-1.3929,2.0395,-2.8742,0.0328,-1.7845,rough,14.0,0,3.526
2680,85.76,9.0824,-1.4163,2.0480,-2.8865,0.0182,-1.7992,rough,14.0,0,3.554
2690,86.08,9.0749,-1.3901,2.0437,-2.8882,0.0357,-1.7665,rough,14.0,0,3.526
2700,86.40,9.0753,-1.3907,2.0447,-2.8893,0.0263,-1.7916,rough,14.0,0,3.527
2710,86.72,9.0731,-1.4091,2.0425,-2.8706,-0.0196,-1.7058,rough,14.0,0,3.544
2720,87.04,9.0773,-1.3749,2.0450,-2.8945,0.0477,-1.7721,rough,14.0,0,3.512
2730,87.36,9.0761,-1.4204,2.0469,-2.8587,-0.0114,-1.7705,rough,14.0,0,3.556
2740,87.68,9.0812,-1.3836,2.0466,-2.8931,0.0475,-1.7785,rough,14.0,0,3.521
2750,88.00,9.0764,-1.3905,2.0443,-2.9039,0.0231,-1.7822,rough,14.0,0,3.527
2760,88.32,9.0827,-1.3836,2.0478,-2.8971,0.0612,-1.8077,rough,14.0,0,3.522
2770,88.64,9.0751,-1.3879,2.0450,-2.9095,0.0232,-1.7823,rough,14.0,0,3.524
2780,88.96,9.0760,-1.3711,2.0485,-2.8929,0.0643,-1.8036,rough,14.0,0,3.508
2790,89.28,9.0836,-1.3833,2.0465,-2.9032,0.0656,-1.8008,rough,14.0,0,3.522
2800,89.60,9.0856,-1.3723,2.0491,-2.8820,0.0671,-1.7668,rough,14.0,0,3.512
2810,89.92,9.0813,-1.3975,2.0468,-2.8784,0.0290,-1.7950,rough,14.0,0,3.535
2820,90.24,9.0849,-1.3690,2.0507,-2.8816,0.0804,-1.7908,rough,14.0,0,3.508
2830,90.56,9.0750,-1.4205,2.0454,-2.8595,-0.0129,-1.7634,rough,14.0,0,3.556
2840,90.88,9.0819,-1.3964,2.0458,-2.8817,0.0312,-1.7931,rough,14.0,0,3.534
2850,91.20,9.0758,-1.3837,2.0464,-2.8976,0.0555,-1.8126,rough,14.0,0,3.520
2860,91.52,9.0831,-1.3787,2.0463,-2.9109,0.0633,-1.7945,rough,14.0,0,3.517
2870,91.84,9.0778,-1.2812,2.0600,-2.8172,0.1587,-1.7552,rough,14.0,0,3.421
2880,92.16,9.0687,-1.2734,2.0553,-2.8479,0.1311,-1.7390,rough,14.0,0,3.412
2890,92.48,9.0569,-1.3467,2.0483,-2.9182,0.0260,-1.8015,rough,14.0,0,3.480
2900,92.80,9.0882,-1.4095,2.0452,-2.8964,0.0190,-1.7920,rough,14.0,0,3.548
2910,93.12,9.0804,-1.3876,2.0472,-2.8952,0.0577,-1.8166,rough,14.0,0,3.525
2920,93.44,9.0740,-1.3915,2.0436,-2.8748,0.0044,-1.7598,rough,14.0,0,3.527
2930,93.76,9.0839,-1.3624,2.0504,-2.8732,0.0891,-1.7890,rough,14.0,0,3.502
2940,94.08,9.0718,-1.4106,2.0441,-2.8594,-0.0154,-1.7383,rough,14.0,0,3.545
2950,94.40,9.0744,-1.3647,2.0399,-2.8504,0.0524,-1.7991,rough,14.0,0,3.502
2960,94.72,9.0828,-1.3915,2.0446,-2.9051,0.0205,-1.7575,rough,14.0,0,3.530
2970,95.04,9.0783,-1.3759,2.0469,-2.8956,0.0484,-1.7665,rough,14.0,0,3.513
2980,95.36,9.0813,-1.3889,2.0469,-2.9035,0.0513,-1.7926,rough,14.0,0,3.527
2990,95.68,9.0701,-1.3188,2.0533,-2.8775,0.0815,-1.7784,rough,14.0,0,3.456
3000,96.00,9.0699,-1.3389,2.0508,-2.8900,0.0764,-1.7860,rough,14.0,0,3.475
3010,96.32,9.0846,-1.3999,2.0483,-2.8864,0.0469,-1.8143,rough,14.0,0,3.538
3020,96.64,9.0752,-1.3462,2.0496,-2.8809,0.0724,-1.7899,rough,14.0,0,3.484
3030,96.96,9.0767,-1.3911,2.0472,-2.9028,0.0438,-1.7895,rough,14.0,0,3.528
3040,97.28,9.0841,-1.3846,2.0441,-2.9155,0.0434,-1.7791,rough,14.0,0,3.523
3050,97.60,9.0810,-1.3745,2.0455,-2.9090,0.0659,-1.7901,rough,14.0,0,3.513
3060,97.92,9.0813,-1.3403,2.0514,-2.8667,0.0890,-1.7929,rough,14.0,0,3.479
3070,98.24,9.0687,-1.3711,2.0458,-2.8862,0.0472,-1.7581,rough,14.0,0,3.506
3080,98.56,9.0773,-1.3824,2.0468,-2.9026,0.0406,-1.7897,rough,14.0,0,3.519
3090,98.88,9.0818,-1.3845,2.0459,-2.9016,0.0543,-1.7908,rough,14.0,0,3.523
3100,99.20,9.0825,-1.3209,2.0561,-2.8418,0.1290,-1.7785,rough,14.0,0,3.461
3110,99.52,9.0765,-1.3503,2.0518,-2.8724,0.0874,-1.7765,rough,14.0,0,3.488
3120,99.84,9.0735,-1.3983,2.0432,-2.8794,0.0268,-1.7832,rough,14.0,0,3.534
3130,100.16,9.0719,-1.3835,2.0411,-2.8802,0.0273,-1.7706,rough,14.0,0,3.519
3140,100.48,9.0827,-1.3865,2.0470,-2.8953,0.0438,-1.7846,rough,14.0,0,3.525
3150,100.80,9.0751,-1.3750,2.0463,-2.8909,0.0655,-1.7878,rough,14.0,0,3.512
3160,101.12,9.0874,-1.3620,2.0530,-2.8966,0.0722,-1.7985,rough,14.0,0,3.502
3170,101.44,9.0853,-1.3815,2.0461,-2.9085,0.0563,-1.8001,rough,14.0,0,3.520
3180,101.76,9.0774,-1.3812,2.0471,-2.9020,0.0452,-1.8059,rough,14.0,0,3.518
3190,102.08,9.0748,-1.3785,2.0448,-2.9020,0.0431,-1.7699,rough,14.0,0,3.515
3200,102.40,9.0749,-1.4319,2.0458,-2.8403,-0.0343,-1.7514,rough,14.0,0,3.567
3210,102.72,9.0787,-1.4029,2.0444,-2.8890,0.0037,-1.7804,rough,14.0,0,3.540
3220,103.04,9.0781,-1.3411,2.0528,-2.8791,0.0930,-1.8029,rough,14.0,0,3.479
3230,103.36,9.0762,-1.3682,2.0472,-2.8870,0.0431,-1.7889,rough,14.0,0,3.505
3240,103.68,9.0803,-1.3800,2.0474,-2.8930,0.0517,-1.7874,rough,14.0,0,3.518
3250,104.00,9.0791,-1.3912,2.0450,-2.8998,0.0378,-1.7677,rough,14.0,0,3.528
3260,104.32,9.0764,-1.3922,2.0479,-2.8959,0.0367,-1.7977,rough,14.0,0,3.529
3270,104.64,9.0818,-1.3710,2.0474,-2.8997,0.0648,-1.7800,rough,14.0,0,3.509
3280,104.96,9.0790,-1.3776,2.0416,-2.9284,0.0695,-1.8161,rough,14.0,0,3.515
3290,105.28,9.0819,-1.3864,2.0447,-2.8904,0.0444,-1.7766,rough,14.0,0,3.524
3300,105.60,9.0766,-1.3824,2.0456,-2.9008,0.0463,-1.7925,rough,14.0,0,3.519
3310,105.92,9.0741,-1.3775,2.0461,-2.9097,0.0309,-1.7873,rough,14.0,0,3.514
3320,106.24,9.0834,-1.3788,2.0448,-2.9065,0.0523,-1.7920,rough,14.0,0,3.517
3330,106.56,9.0756,-1.3876,2.0457,-2.8771,0.0081,-1.7811,rough,14.0,0,3.524
3340,106.88,9.0701,-1.3995,2.0462,-2.8602,-0.0276,-1.7449,rough,14.0,0,3.534
3350,107.20,9.0767,-1.3884,2.0456,-2.8961,0.0296,-1.7717,rough,14.0,0,3.525
3360,107.52,9.0741,-1.3877,2.0448,-2.9051,0.0305,-1.7838,rough,14.0,0,3.524
3370,107.84,9.0766,-1.3789,2.0482,-2.9075,0.0488,-1.8123,rough,14.0,0,3.516
3380,108.16,9.0827,-1.3891,2.0461,-2.8931,0.0351,-1.7962,rough,14.0,0,3.527
3390,108.48,9.0676,-1.4204,2.0454,-2.8640,-0.0389,-1.7093,rough,14.0,0,3.554
3400,108.80,9.0868,-1.3258,2.0553,-2.8704,0.0991,-1.7777,rough,14.0,0,3.467
3410,109.12,9.0808,-1.3459,2.0525,-2.8568,0.0996,-1.7527,rough,14.0,0,3.485
3420,109.44,9.0732,-1.3718,2.0473,-2.8774,0.0221,-1.7709,rough,14.0,0,3.508
3430,109.76,9.0799,-1.3902,2.0465,-2.8916,0.0389,-1.7822,rough,14.0,0,3.528
3440,110.08,9.0827,-1.3984,2.0465,-2.8842,0.0303,-1.7834,rough,14.0,0,3.536
3450,110.40,9.0813,-1.3903,2.0463,-2.8931,0.0438,-1.7873,rough,14.0,0,3.528
3460,110.72,9.0811,-1.3758,2.0473,-2.8994,0.0497,-1.7734,rough,14.0,0,3.514
3470,111.04,9.0759,-1.3812,2.0467,-2.9067,0.0396,-1.7913,rough,14.0,0,3.518
3480,111.36,9.0784,-1.3731,2.0472,-2.8827,0.0592,-1.7612,rough,14.0,0,3.511
3490,111.68,9.0771,-1.4111,2.0465,-2.8716,-0.0039,-1.7607,rough,14.0,0,3.547
3500,112.00,9.0847,-1.3695,2.0516,-2.8890,0.0817,-1.8130,rough,14.0,0,3.509
3510,112.32,9.0755,-1.3892,2.0448,-2.8870,0.0160,-1.7539,rough,14.0,0,3.526
3520,112.64,9.0727,-1.3762,2.0478,-2.9107,0.0412,-1.8062,rough,14.0,0,3.512
3530,112.96,9.0856,-1.3787,2.0485,-2.8969,0.0670,-1.7987,rough,14.0,0,3.518
3540,113.28,9.0795,-1.3855,2.0468,-2.8994,0.0450,-1.7934,rough,14.0,0,3.523
3550,113.60,9.0732,-1.3816,2.0449,-2.8971,0.0377,-1.7704,rough,14.0,0,3.518
3560,113.92,9.0805,-1.3817,2.0465,-2.8956,0.0425,-1.7751,rough,14.0,0,3.519
3570,114.24,9.0861,-1.3759,2.0463,-2.8981,0.0445,-1.7827,rough,14.0,0,3.515
3580,114.56,9.0713,-1.3747,2.0494,-2.8875,0.0334,-1.7718,rough,14.0,0,3.510
3590,114.88,9.0805,-1.3953,2.0468,-2.8934,0.0396,-1.7756,rough,14.0,0,3.533
3600,115.20,9.0680,-1.2994,2.0550,-2.8704,0.0988,-1.7934,rough,14.0,0,3.437
3610,115.52,9.0677,-1.2836,2.0568,-2.8418,0.1196,-1.7525,rough,14.0,0,3.421
3620,115.84,9.0714,-1.3556,2.0476,-2.8812,0.0498,-1.7360,rough,14.0,0,3.492
3630,116.16,9.0805,-1.3839,2.0444,-2.8872,0.0314,-1.8056,rough,14.0,0,3.522
3640,116.48,9.0796,-1.3802,2.0488,-2.9047,0.0532,-1.8173,rough,14.0,0,3.518
3650,116.80,9.0792,-1.3899,2.0444,-2.8987,0.0438,-1.7864,rough,14.0,0,3.527
3660,117.12,9.0820,-1.3796,2.0470,-2.8880,0.0544,-1.7898,rough,14.0,0,3.518
3670,117.44,9.0786,-1.3797,2.0460,-2.9041,0.0494,-1.7834,rough,14.0,0,3.517
3680,117.76,9.0824,-1.3994,2.0476,-2.8850,0.0295,-1.7787,rough,14.0,0,3.537
3690,118.08,9.0740,-1.3535,2.0491,-2.9018,0.0522,-1.7972,rough,14.0,0,3.490
3700,118.40,9.0794,-1.3597,2.0469,-2.8728,0.0538,-1.7609,rough,14.0,0,3.498
3710,118.72,9.0709,-1.3542,2.0491,-2.9024,0.0476,-1.7984,rough,14.0,0,3.490
3720,119.04,9.0735,-1.3857,2.0440,-2.8648,0.0058,-1.7360,rough,14.0,0,3.522
3730,119.36,9.0759,-1.4063,2.0447,-2.8697,0.0022,-1.7563,rough,14.0,0,3.542
3740,119.68,9.0753,-1.3836,2.0463,-2.9065,0.0402,-1.7981,rough,14.0,0,3.520
3750,120.00,9.0756,-1.3645,2.0488,-2.8958,0.0596,-1.7806,rough,14.0,0,3.502
3760,120.32,9.0708,-1.3805,2.0488,-2.9043,0.0261,-1.7986,rough,14.0,0,3.516
3770,120.64,9.0855,-1.3873,2.0465,-2.9016,0.0397,-1.7783,rough,14.0,0,3.526
3780,120.96,9.0747,-1.3783,2.0474,-2.9082,0.0385,-1.7957,rough,14.0,0,3.515
3790,121.28,9.0776,-1.3921,2.0444,-2.8840,0.0245,-1.7334,rough,14.0,0,3.529
3800,121.60,9.0792,-1.3931,2.0457,-2.8942,0.0565,-1.8217,rough,14.0,0,3.530
3810,121.92,9.0785,-1.3710,2.0483,-2.9084,0.0563,-1.8031,rough,14.0,0,3.509
3820,122.24,9.0686,-1.4213,2.0464,-2.8598,-0.0377,-1.7161,rough,14.0,0,3.555
3830,122.56,9.0767,-1.3098,2.0553,-2.8511,0.1195,-1.7805,rough,14.0,0,3.449
3840,122.88,9.0668,-1.3677,2.0471,-2.9017,0.0339,-1.7731,rough,14.0,0,3.503
3850,123.20,9.0898,-1.4086,2.0423,-2.9256,0.0349,-1.8163,rough,14.0,0,3.548
3860,123.52,9.0858,-1.3018,2.0601,-2.8472,0.1406,-1.7805,rough,14.0,0,3.443
3870,123.84,9.0808,-1.2611,2.0643,-2.8052,0.1848,-1.7580,rough,14.0,0,3.403
3880,124.16,9.0776,-1.2580,2.0638,-2.8101,0.1778,-1.7583,rough,14.0,0,3.399
3890,124.48,9.0659,-1.3471,2.0505,-2.9019,0.0598,-1.8059,rough,14.0,0,3.482
3900,124.80,9.0820,-1.4263,2.0488,-2.9032,0.0587,-1.7983,rough,14.0,0,3.563
3910,125.12,9.0758,-1.3145,2.0519,-2.8520,0.0867,-1.7442,rough,14.0,0,3.453
3920,125.44,9.0715,-1.1818,2.0648,-2.7970,0.2310,-1.7318,rough,14.0,0,3.324
3930,125.76,9.0609,-1.1432,2.0670,-2.7769,0.2413,-1.7145,rough,14.0,0,3.283
3940,126.08,9.0756,-1.1836,2.0644,-2.7930,0.2415,-1.7591,rough,14.0,0,3.326
3950,126.40,9.0518,-1.2682,2.0578,-2.8714,0.0915,-1.7752,rough,14.0,0,3.402
3960,126.72,9.0765,-1.2767,2.0576,-2.8258,0.1481,-1.7307,rough,14.0,0,3.417
3970,127.04,9.0664,-1.3589,2.0488,-2.9136,0.0558,-1.7752,rough,14.0,0,3.494
3980,127.36,9.0834,-1.4424,2.0498,-2.8576,-0.0212,-1.8101,rough,14.0,0,3.579
3990,127.68,9.0816,-1.4247,2.0516,-2.8540,-0.0083,-1.7892,rough,14.0,0,3.562
4000,128.00,9.0790,-1.3692,2.0487,-2.8916,0.0536,-1.7609,rough,14.0,0,3.507
4010,128.32,9.0766,-1.3937,2.0442,-2.8833,0.0535,-1.8066,rough,14.0,0,3.530
4020,128.64,9.0804,-1.3822,2.0460,-2.9005,0.0363,-1.7572,rough,14.0,0,3.520
4030,128.96,9.0748,-1.3423,2.0511,-2.8791,0.0756,-1.7958,rough,14.0,0,3.480
4040,129.28,9.0762,-1.3803,2.0458,-2.9076,0.0442,-1.7993,rough,14.0,0,3.517
4050,129.60,9.0773,-1.4024,2.0437,-2.8929,0.0131,-1.7380,rough,14.0,0,3.539
4060,129.92,9.0648,-1.3862,2.0445,-2.9030,0.0236,-1.7727,rough,14.0,0,3.520
4070,130.24,9.0771,-1.3821,2.0455,-2.9090,0.0285,-1.7818,rough,14.0,0,3.519
4080,130.56,9.0783,-1.4229,2.0494,-2.8604,-0.0124,-1.7802,rough,14.0,0,3.559
4090,130.88,9.0751,-1.3794,2.0479,-2.9087,0.0441,-1.8085,rough,14.0,0,3.516
4100,131.20,9.0816,-1.3781,2.0473,-2.8975,0.0557,-1.7920,rough,14.0,0,3.516
4110,131.52,9.0824,-1.3833,2.0450,-2.8989,0.0489,-1.7991,rough,14.0,0,3.521
4120,131.84,9.0820,-1.3753,2.0480,-2.8964,0.0613,-1.7978,rough,14.0,0,3.514
4130,132.16,9.0817,-1.3903,2.0470,-2.9044,0.0469,-1.8155,rough,14.0,0,3.528
4140,132.48,9.0726,-1.3746,2.0479,-2.9131,0.0429,-1.8058,rough,14.0,0,3.511
4150,132.80,9.0772,-1.3829,2.0466,-2.9088,0.0438,-1.8006,rough,14.0,0,3.520
4160,133.12,9.0804,-1.3768,2.0480,-2.8969,0.0486,-1.7781,rough,14.0,0,3.515
4170,133.44,9.0789,-1.3878,2.0459,-2.8961,0.0397,-1.7723,rough,14.0,0,3.525
4180,133.76,9.0718,-1.3840,2.0458,-2.9181,0.0251,-1.8038,rough,14.0,0,3.520
4190,134.08,9.0918,-1.3710,2.0474,-2.8867,0.0463,-1.8195,rough,14.0,0,3.512
4200,134.40,9.0831,-1.3413,2.0528,-2.8545,0.0999,-1.7541,rough,14.0,0,3.481
4210,134.72,9.0725,-1.3978,2.0465,-2.8949,0.0079,-1.7694,rough,14.0,0,3.533
4220,135.04,9.0718,-1.3625,2.0462,-2.9082,0.0368,-1.8015,rough,14.0,0,3.499
4230,135.36,9.0691,-1.3347,2.0502,-2.8730,0.0647,-1.7533,rough,14.0,0,3.471
4240,135.68,9.0619,-1.3778,2.0446,-2.9107,0.0262,-1.7896,rough,14.0,0,3.511
4250,136.00,9.0809,-1.4087,2.0484,-2.8715,0.0099,-1.7920,rough,14.0,0,3.546
4260,136.32,9.0861,-1.3279,2.0552,-2.8798,0.0858,-1.7677,rough,14.0,0,3.469
4270,136.64,9.0719,-1.3774,2.0404,-2.8705,0.0370,-1.8112,rough,14.0,0,3.513
4280,136.96,9.0709,-1.4143,2.0453,-2.8525,-0.0422,-1.7203,rough,14.0,0,3.549
4290,137.28,9.0677,-1.3299,2.0506,-2.8822,0.0698,-1.7692,rough,14.0,0,3.466
4300,137.60,9.0564,-1.3600,2.0498,-2.9126,0.0179,-1.7929,rough,14.0,0,3.493
4310,137.92,9.0913,-1.3841,2.0487,-2.8990,0.0435,-1.7735,rough,14.0,0,3.524
4320,138.24,9.0732,-1.3822,2.0463,-2.8880,0.0308,-1.7502,rough,14.0,0,3.518
4330,138.56,9.0788,-1.3720,2.0458,-2.8820,0.0507,-1.7826,rough,14.0,0,3.510
4340,138.88,9.0817,-1.3917,2.0471,-2.8846,0.0290,-1.7876,rough,14.0,0,3.529
4350,139.20,9.0764,-1.3815,2.0463,-2.9019,0.0407,-1.7839,rough,14.0,0,3.518
4360,139.52,9.0728,-1.3938,2.0477,-2.9183,0.0280,-1.8118,rough,14.0,0,3.529
4370,139.84,9.0767,-1.3819,2.0472,-2.9161,0.0352,-1.8034,rough,14.0,0,3.519
4380,140.16,9.0827,-1.3645,2.0484,-2.8849,0.0670,-1.7584,rough,14.0,0,3.503
4390,140.48,9.0782,-1.3373,2.0501,-2.8664,0.0789,-1.7696,rough,14.0,0,3.476
4400,140.80,9.0796,-1.3678,2.0465,-2.8778,0.0417,-1.8078,rough,14.0,0,3.506
4410,141.12,9.0754,-1.4096,2.0452,-2.8730,-0.0005,-1.7571,rough,14.0,0,3.545
4420,141.44,9.0774,-1.3462,2.0485,-2.8729,0.0679,-1.7659,rough,14.0,0,3.484
4430,141.76,9.0798,-1.3892,2.0454,-2.9007,0.0373,-1.7625,rough,14.0,0,3.527
4440,142.08,9.0843,-1.3999,2.0487,-2.8882,0.0402,-1.8169,rough,14.0,0,3.538
4450,142.40,9.0654,-1.3740,2.0464,-2.8983,0.0166,-1.7816,rough,14.0,0,3.508
4460,142.72,9.0724,-1.3916,2.0434,-2.8748,0.0110,-1.7493,rough,14.0,0,3.527
4470,143.04,9.0687,-1.3797,2.0448,-2.9069,0.0170,-1.7579,rough,14.0,0,3.515
4480,143.36,9.0607,-1.4146,2.0460,-2.8736,-0.0311,-1.7299,rough,14.0,0,3.547
4490,143.68,9.0780,-1.3350,2.0493,-2.8701,0.0800,-1.7680,rough,14.0,0,3.474
4500,144.00,9.0669,-1.3137,2.0537,-2.8555,0.1094,-1.7836,rough,14.0,0,3.450
4510,144.32,9.0776,-1.4244,2.0481,-2.8452,-0.0296,-1.7583,rough,14.0,0,3.560
4520,144.64,9.0849,-1.3646,2.0476,-2.8777,0.0583,-1.7883,rough,14.0,0,3.504
4530,144.96,9.0858,-1.3769,2.0487,-2.8949,0.0503,-1.7719,rough,14.0,0,3.516
4540,145.28,9.0774,-1.3802,2.0461,-2.9070,0.0308,-1.7817,rough,14.0,0,3.517
4550,145.60,9.0803,-1.3853,2.0460,-2.8976,0.0568,-1.8098,rough,14.0,0,3.523
4560,145.92,9.0755,-1.4031,2.0455,-2.8740,-0.0072,-1.7548,rough,14.0,0,3.539
4570,146.24,9.0745,-1.3356,2.0509,-2.8734,0.0747,-1.7607,rough,14.0,0,3.473
4580,146.56,9.0711,-1.4011,2.0438,-2.8747,-0.0158,-1.7151,rough,14.0,0,3.536
4590,146.88,9.0788,-1.3545,2.0447,-2.8677,0.0646,-1.7712,rough,14.0,0,3.493
4600,147.20,9.0688,-1.4067,2.0484,-2.8752,-0.0082,-1.8069,rough,14.0,0,3.541
4610,147.52,9.0809,-1.4295,2.0500,-2.8683,0.0121,-1.8101,rough,14.0,0,3.566
4620,147.84,9.0861,-1.3423,2.0487,-2.8683,0.0716,-1.7435,rough,14.0,0,3.483
4630,148.16,9.0630,-1.3841,2.0447,-2.9002,-0.0156,-1.7677,rough,14.0,0,3.518
4640,148.48,9.0791,-1.3913,2.0464,-2.8914,0.0326,-1.7818,rough,14.0,0,3.528
4650,148.80,9.0689,-1.4125,2.0456,-2.9026,-0.0016,-1.7732,rough,14.0,0,3.547
4660,149.12,9.0793,-1.3771,2.0485,-2.9148,0.0694,-1.8012,rough,14.0,0,3.515
4670,149.44,9.0801,-1.3808,2.0467,-2.8941,0.0439,-1.7686,rough,14.0,0,3.519
4680,149.76,9.0860,-1.3860,2.0478,-2.8973,0.0637,-1.8208,rough,14.0,0,3.525
4690,150.08,9.0799,-1.3742,2.0488,-2.8881,0.0658,-1.7916,rough,14.0,0,3.512
4700,150.40,9.0732,-1.3963,2.0415,-2.8929,-0.0060,-1.7377,rough,14.0,0,3.532
4710,150.72,9.0733,-1.3847,2.0463,-2.8942,0.0220,-1.7564,rough,14.0,0,3.521
4720,151.04,9.0747,-1.3966,2.0461,-2.8984,0.0164,-1.7772,rough,14.0,0,3.533
4730,151.36,9.0789,-1.3833,2.0453,-2.9057,0.0478,-1.7845,rough,14.0,0,3.521
4740,151.68,9.0773,-1.3877,2.0458,-2.8921,0.0339,-1.7718,rough,14.0,0,3.525
4750,152.00,9.0815,-1.3862,2.0446,-2.8893,0.0429,-1.7701,rough,14.0,0,3.524
4760,152.32,9.0711,-1.3832,2.0462,-2.9038,0.0323,-1.7978,rough,14.0,0,3.519
4770,152.64,9.0823,-1.3564,2.0489,-2.8812,0.0658,-1.8046,rough,14.0,0,3.495
4780,152.96,9.0804,-1.4026,2.0475,-2.8755,0.0196,-1.7927,rough,14.0,0,3.540
4790,153.28,9.0813,-1.3699,2.0486,-2.8947,0.0573,-1.7813,rough,14.0,0,3.508
4800,153.60,9.0709,-1.3970,2.0438,-2.8730,-0.0112,-1.7332,rough,14.0,0,3.532
4810,153.92,9.0795,-1.3666,2.0506,-2.8903,0.0759,-1.8051,rough,14.0,0,3.505
4820,154.24,9.0756,-1.3884,2.0460,-2.8928,0.0275,-1.7733,rough,14.0,0,3.525
4830,154.56,9.0611,-1.4287,2.0450,-2.8393,-0.0788,-1.7056,rough,14.0,0,3.561
4840,154.88,9.0690,-1.3536,2.0463,-2.9051,0.0358,-1.7871,rough,14.0,0,3.489
4850,155.20,9.0553,-1.3408,2.0470,-2.8933,0.0459,-1.7847,rough,14.0,0,3.474
4860,155.52,9.0745,-1.3965,2.0454,-2.8811,0.0072,-1.7500,rough,14.0,0,3.532
4870,155.84,9.0698,-1.3797,2.0483,-2.9097,0.0293,-1.8076,rough,14.0,0,3.515
4880,156.16,9.0779,-1.3667,2.0470,-2.8835,0.0494,-1.7658,rough,14.0,0,3.504
4890,156.48,9.0554,-1.4046,2.0428,-2.9147,0.0004,-1.7495,rough,14.0,0,3.536
4900,156.80,9.0782,-1.3722,2.0480,-2.8975,0.0455,-1.7634,rough,14.0,0,3.510
4910,157.12,9.0836,-1.3831,2.0469,-2.8994,0.0586,-1.8064,rough,14.0,0,3.522
4920,157.44,9.0772,-1.3948,2.0455,-2.8921,0.0401,-1.8016,rough,14.0,0,3.531
4930,157.76,9.0705,-1.3954,2.0422,-2.8819,0.0500,-1.7937,rough,14.0,0,3.530
4940,158.08,9.0836,-1.4113,2.0463,-2.9107,0.0369,-1.8146,rough,14.0,0,3.549
4950,158.40,9.0823,-1.2849,2.0560,-2.8489,0.1627,-1.7999,rough,14.0,0,3.426
4960,158.72,9.0700,-1.2805,2.0593,-2.8550,0.1300,-1.7933,rough,14.0,0,3.419
4970,159.04,9.0504,-1.4512,2.0563,-2.8642,-0.0896,-1.7724,rough,14.0,0,3.580
4980,159.36,9.0861,-1.4440,2.0502,-2.8461,-0.0033,-1.8335,rough,14.0,0,3.581
4990,159.68,9.0788,-1.3965,2.0457,-2.8927,0.0270,-1.7875,rough,14.0,0,3.533
5000,160.00,9.0752,-1.3963,2.0461,-2.8885,0.0166,-1.7762,rough,14.0,0,3.532
5010,160.32,9.0758,-1.3899,2.0453,-2.8983,0.0277,-1.7559,rough,14.0,0,3.526
5020,160.64,9.0869,-1.3690,2.0496,-2.8961,0.0677,-1.7910,rough,14.0,0,3.509
5030,160.96,9.0836,-1.3955,2.0480,-2.8799,0.0248,-1.7838,rough,14.0,0,3.534
5040,161.28,9.0664,-1.3770,2.0445,-2.8601,-0.0056,-1.7723,rough,14.0,0,3.512
5050,161.60,9.0749,-1.3826,2.0461,-2.9013,0.0324,-1.7785,rough,14.0,0,3.519
5060,161.92,9.0718,-1.3800,2.0470,-2.9124,0.0380,-1.8123,rough,14.0,0,3.516
5070,162.24,9.0833,-1.3851,2.0479,-2.8942,0.0309,-1.7728,rough,14.0,0,3.523
5080,162.56,9.0820,-1.3921,2.0472,-2.8950,0.0486,-1.8091,rough,14.0,0,3.530
5090,162.88,9.0767,-1.3655,2.0466,-2.8900,0.0456,-1.7970,rough,14.0,0,3.503
5100,163.20,9.0790,-1.4017,2.0464,-2.8677,0.0059,-1.7785,rough,14.0,0,3.538
5110,163.52,9.0698,-1.3973,2.0424,-2.9234,0.0045,-1.7957,rough,14.0,0,3.532
5120,163.84,9.0806,-1.3924,2.0452,-2.9095,0.0641,-1.8271,rough,14.0,0,3.530
5130,164.16,9.0771,-1.3782,2.0469,-2.8962,0.0444,-1.7731,rough,14.0,0,3.515
5140,164.48,9.0795,-1.3794,2.0441,-2.9042,0.0603,-1.7818,rough,14.0,0,3.517
5150,164.80,9.0780,-1.3821,2.0439,-2.8888,0.0256,-1.7612,rough,14.0,0,3.519
5160,165.12,9.0656,-1.4153,2.0464,-2.8731,-0.0253,-1.7810,rough,14.0,0,3.549
5170,165.44,9.0889,-1.3832,2.0494,-2.8963,0.0570,-1.7981,rough,14.0,0,3.523
5180,165.76,9.0767,-1.3827,2.0472,-2.9083,0.0432,-1.8092,rough,14.0,0,3.520
5190,166.08,9.0766,-1.3778,2.0470,-2.8955,0.0394,-1.7772,rough,14.0,0,3.515
5200,166.40,9.0852,-1.3833,2.0474,-2.8948,0.0536,-1.8098,rough,14.0,0,3.522
5210,166.72,9.0791,-1.3905,2.0453,-2.8873,0.0328,-1.7743,rough,14.0,0,3.528
5220,167.04,9.0778,-1.3950,2.0465,-2.8871,0.0248,-1.7782,rough,14.0,0,3.532
5230,167.36,9.0776,-1.3938,2.0446,-2.8874,0.0284,-1.7792,rough,14.0,0,3.531
5240,167.68,9.0696,-1.3567,2.0486,-2.9009,0.0510,-1.8002,rough,14.0,0,3.493
5250,168.00,9.0886,-1.3873,2.0476,-2.8943,0.0534,-1.7856,rough,14.0,0,3.527
5260,168.32,9.0728,-1.3919,2.0444,-2.8840,0.0086,-1.7201,rough,14.0,0,3.528
5270,168.64,9.0763,-1.3738,2.0480,-2.9026,0.0506,-1.8047,rough,14.0,0,3.511
5280,168.96,9.0847,-1.3903,2.0482,-2.8952,0.0550,-1.8166,rough,14.0,0,3.529
5290,169.28,9.0785,-1.2416,2.0646,-2.7870,0.1935,-1.7252,rough,14.0,0,3.383
5300,169.60,9.0632,-1.1797,2.0608,-2.7834,0.2222,-1.6857,rough,14.0,0,3.319
5310,169.92,9.0808,-1.1644,2.0676,-2.8025,0.2571,-1.7679,rough,14.0,0,3.309
5320,170.24,9.0683,-1.1501,2.0640,-2.7874,0.2717,-1.6998,rough,14.0,0,3.292
5330,170.56,9.0727,-1.1873,2.0633,-2.7906,0.2384,-1.7395,rough,14.0,0,3.329
5340,170.88,9.0588,-1.1331,2.0666,-2.7887,0.2778,-1.6843,rough,14.0,0,3.273
5350,171.20,9.0636,-1.1562,2.0641,-2.7951,0.2575,-1.7235,rough,14.0,0,3.297
5360,171.52,9.0556,-1.2445,2.0575,-2.8426,0.1257,-1.7391,rough,14.0,0,3.380
5370,171.84,9.0579,-1.2206,2.0568,-2.8239,0.1843,-1.7525,rough,14.0,0,3.358
5380,172.16,9.0696,-1.1544,2.0647,-2.7947,0.2652,-1.7341,rough,14.0,0,3.297
5390,172.48,9.0659,-1.1436,2.0666,-2.7865,0.2638,-1.7240,rough,14.0,0,3.285
5400,172.80,9.0719,-1.2253,2.0628,-2.8142,0.1922,-1.7697,rough,14.0,0,3.366
5410,173.12,9.0788,-1.2376,2.0592,-2.8263,0.2031,-1.7393,rough,14.0,0,3.379
5420,173.44,9.0678,-1.3192,2.0520,-2.8738,0.0879,-1.7652,rough,14.0,0,3.456
5430,173.76,9.0838,-1.4004,2.0480,-2.9024,0.0517,-1.8137,rough,14.0,0,3.538
5440,174.08,9.0798,-1.3151,2.0547,-2.8578,0.1238,-1.7962,rough,14.0,0,3.455
5450,174.40,9.0561,-1.3433,2.0477,-2.9048,0.0432,-1.8029,rough,14.0,0,3.476
5460,174.72,9.0754,-1.4449,2.0495,-2.8250,-0.0506,-1.7544,rough,14.0,0,3.580
5470,175.04,9.1017,-1.3525,2.0568,-2.8963,0.0885,-1.7835,rough,14.0,0,3.496
5480,175.36,9.0995,-1.3809,2.0499,-2.9161,0.0608,-1.7959,rough,14.0,0,3.523
5490,175.68,9.0774,-1.3904,2.0450,-2.9157,0.0223,-1.7993,rough,14.0,0,3.527
5500,176.00,9.0710,-1.3829,2.0451,-2.9004,0.0159,-1.7525,rough,14.0,0,3.518
5510,176.32,9.0793,-1.3740,2.0445,-2.8887,0.0572,-1.7354,rough,14.0,0,3.512
5520,176.64,9.0831,-1.3813,2.0456,-2.8985,0.0567,-1.7907,rough,14.0,0,3.520
5530,176.96,9.0782,-1.3803,2.0425,-2.9097,0.0425,-1.7635,rough,14.0,0,3.518
5540,177.28,9.0844,-1.3810,2.0462,-2.8924,0.0354,-1.7812,rough,14.0,0,3.520
5550,177.60,9.0787,-1.3929,2.0460,-2.8874,0.0265,-1.7684,rough,14.0,0,3.530
5560,177.92,9.0724,-1.3864,2.0447,-2.9255,0.0212,-1.8118,rough,14.0,0,3.522
5570,178.24,9.0740,-1.3780,2.0464,-2.9017,0.0373,-1.7752,rough,14.0,0,3.514
5580,178.56,9.0812,-1.3843,2.0455,-2.8964,0.0445,-1.7760,rough,14.0,0,3.522
5590,178.88,9.0779,-1.3795,2.0447,-2.9028,0.0533,-1.7862,rough,14.0,0,3.517
5600,179.20,9.0520,-1.4158,2.0452,-2.8849,-0.0590,-1.7277,rough,14.0,0,3.546
5610,179.52,9.0877,-1.3595,2.0512,-2.9049,0.0711,-1.8581,rough,14.0,0,3.500
5620,179.84,9.0652,-1.4096,2.0489,-2.8710,-0.0205,-1.7930,rough,14.0,0,3.543
5630,180.16,9.0805,-1.4014,2.0458,-2.8958,0.0155,-1.7668,rough,14.0,0,3.539
5640,180.48,9.0760,-1.3814,2.0455,-2.8873,0.0481,-1.7688,rough,14.0,0,3.518
5650,180.80,9.0705,-1.3992,2.0431,-2.8681,-0.0117,-1.7300,rough,14.0,0,3.534
5660,181.12,9.0759,-1.3687,2.0434,-2.8882,0.0485,-1.7757,rough,14.0,0,3.506
5670,181.44,9.0827,-1.3891,2.0469,-2.8940,0.0449,-1.7939,rough,14.0,0,3.527
5680,181.76,9.0684,-1.4075,2.0468,-2.8799,-0.0032,-1.7655,rough,14.0,0,3.542
5690,182.08,9.0773,-1.3857,2.0445,-2.8862,0.0468,-1.7650,rough,14.0,0,3.523
5700,182.40,9.0739,-1.4030,2.0393,-2.8611,0.0078,-1.7497,rough,14.0,0,3.539
5710,182.72,9.0760,-1.3795,2.0478,-2.9111,0.0461,-1.8169,rough,14.0,0,3.516
5720,183.04,9.0771,-1.3780,2.0449,-2.8972,0.0478,-1.7718,rough,14.0,0,3.515
5730,183.36,9.0825,-1.3816,2.0468,-2.9033,0.0604,-1.8021,rough,14.0,0,3.520
5740,183.68,9.0731,-1.3914,2.0433,-2.8838,0.0212,-1.7485,rough,14.0,0,3.527
5750,184.00,9.0679,-1.3856,2.0474,-2.8792,-0.0090,-1.7765,rough,14.0,0,3.520
5760,184.32,9.0803,-1.3850,2.0460,-2.9013,0.0480,-1.7884,rough,14.0,0,3.523
5770,184.64,9.0786,-1.3917,2.0450,-2.8913,0.0262,-1.7798,rough,14.0,0,3.529
5780,184.96,9.0809,-1.3842,2.0448,-2.8915,0.0415,-1.7706,rough,14.0,0,3.522
5790,185.28,9.0827,-1.3630,2.0505,-2.8791,0.0827,-1.7851,rough,14.0,0,3.502
5800,185.60,9.0833,-1.3990,2.0439,-2.8822,0.0460,-1.7797,rough,14.0,0,3.537
5810,185.92,9.0847,-1.3973,2.0452,-2.8914,0.0415,-1.8053,rough,14.0,0,3.536
5820,186.24,9.0778,-1.3915,2.0449,-2.9120,0.0240,-1.7898,rough,14.0,0,3.528
5830,186.56,9.0834,-1.3783,2.0491,-2.8894,0.0627,-1.7892,rough,14.0,0,3.517
5840,186.88,9.0771,-1.4215,2.0484,-2.8579,-0.0149,-1.7772,rough,14.0,0,3.557
5850,187.20,9.0782,-1.3937,2.0438,-2.8914,0.0125,-1.7717,rough,14.0,0,3.531
5860,187.52,9.0789,-1.3838,2.0458,-2.8962,0.0537,-1.7916,rough,14.0,0,3.521
5870,187.84,9.0726,-1.3967,2.0440,-2.8834,0.0223,-1.7569,rough,14.0,0,3.532
5880,188.16,9.0775,-1.3814,2.0461,-2.9005,0.0372,-1.7752,rough,14.0,0,3.518
5890,188.48,9.0644,-1.4142,2.0431,-2.8515,-0.0601,-1.6833,rough,14.0,0,3.547
5900,188.80,9.0674,-1.3103,2.0532,-2.8740,0.0823,-1.7724,rough,14.0,0,3.447
5910,189.12,9.0582,-1.2901,2.0539,-2.8723,0.0873,-1.7741,rough,14.0,0,3.425
5920,189.44,9.0528,-1.2772,2.0561,-2.8824,0.0879,-1.7783,rough,14.0,0,3.411
5930,189.76,9.0672,-1.3119,2.0535,-2.8714,0.0927,-1.7835,rough,14.0,0,3.449
5940,190.08,9.0810,-1.4050,2.0465,-2.8773,0.0207,-1.7690,rough,14.0,0,3.542
5950,190.40,9.0776,-1.3628,2.0499,-2.8965,0.0682,-1.7866,rough,14.0,0,3.500
5960,190.72,9.0736,-1.3574,2.0497,-2.8880,0.0641,-1.7807,rough,14.0,0,3.494
5970,191.04,9.0787,-1.3825,2.0462,-2.8937,0.0443,-1.7843,rough,14.0,0,3.520
5980,191.36,9.0724,-1.3729,2.0473,-2.9047,0.0456,-1.7871,rough,14.0,0,3.509
5990,191.68,9.0821,-1.3548,2.0467,-2.8850,0.0766,-1.7886,rough,14.0,0,3.494
6000,192.00,9.0716,-1.3420,2.0503,-2.8772,0.0709,-1.7659,rough,14.0,0,3.479
6010,192.32,9.0617,-1.4250,2.0454,-2.8506,-0.0759,-1.7169,rough,14.0,0,3.557
6020,192.64,9.0823,-1.3390,2.0526,-2.8855,0.0770,-1.7876,rough,14.0,0,3.479
6030,192.96,9.0721,-1.3409,2.0506,-2.8745,0.0725,-1.7555,rough,14.0,0,3.478
6040,193.28,9.0820,-1.3923,2.0459,-2.8877,0.0372,-1.7801,rough,14.0,0,3.530
6050,193.60,9.0889,-1.3716,2.0506,-2.8821,0.0719,-1.7730,rough,14.0,0,3.512
6060,193.92,9.0755,-1.4051,2.0461,-2.8658,-0.0003,-1.7717,rough,14.0,0,3.541
6070,194.24,9.0842,-1.3786,2.0474,-2.8991,0.0507,-1.7723,rough,14.0,0,3.517
6080,194.56,9.0758,-1.3997,2.0459,-2.8825,0.0270,-1.7940,rough,14.0,0,3.536
6090,194.88,9.0725,-1.3616,2.0454,-2.9067,0.0247,-1.8188,rough,14.0,0,3.498
6100,195.20,9.0706,-1.3401,2.0508,-2.8873,0.0665,-1.7779,rough,14.0,0,3.477
6110,195.52,9.0755,-1.3887,2.0434,-2.8872,0.0323,-1.7649,rough,14.0,0,3.525
6120,195.84,9.0627,-1.4192,2.0456,-2.8743,-0.0319,-1.7293,rough,14.0,0,3.552
6130,196.16,9.0836,-1.3677,2.0420,-2.8901,0.0865,-1.7628,rough,14.0,0,3.507
6140,196.48,9.0855,-1.3831,2.0479,-2.8980,0.0513,-1.7873,rough,14.0,0,3.522
6150,196.80,9.0756,-1.3862,2.0445,-2.8967,0.0335,-1.7635,rough,14.0,0,3.523
6160,197.12,9.0776,-1.3428,2.0516,-2.8720,0.0842,-1.7670,rough,14.0,0,3.481
6170,197.44,9.0790,-1.3838,2.0458,-2.8969,0.0452,-1.7808,rough,14.0,0,3.521
6180,197.76,9.0881,-1.3757,2.0480,-2.8956,0.0513,-1.7820,rough,14.0,0,3.516
6190,198.08,9.0831,-1.4037,2.0480,-2.8791,0.0438,-1.8139,rough,14.0,0,3.541
6200,198.40,9.0733,-1.3686,2.0454,-2.8911,0.0457,-1.7894,rough,14.0,0,3.505
6210,198.72,9.0773,-1.3983,2.0436,-2.8732,0.0055,-1.7185,rough,14.0,0,3.535
6220,199.04,9.0792,-1.3873,2.0468,-2.9133,0.0344,-1.8046,rough,14.0,0,3.525
6230,199.36,9.0857,-1.3886,2.0471,-2.8944,0.0632,-1.8123,rough,14.0,0,3.527
6240,199.68,9.0622,-1.4165,2.0439,-2.8711,-0.0448,-1.6870,rough,14.0,0,3.549
6250,200.00,9.0751,-1.3701,2.0454,-2.8565,0.0234,-1.7525,rough,14.0,0,3.507
6260,200.32,9.0695,-1.3935,2.0463,-2.8920,-0.0016,-1.7588,rough,14.0,0,3.528
6270,200.64,9.0830,-1.3703,2.0497,-2.8674,0.0853,-1.7786,rough,14.0,0,3.509
6280,200.96,9.0743,-1.3941,2.0410,-2.8727,0.0224,-1.7543,rough,14.0,0,3.530
6290,201.28,9.0715,-1.3790,2.0480,-2.9063,0.0317,-1.7976,rough,14.0,0,3.515
6300,201.60,9.0774,-1.4239,2.0476,-2.8605,-0.0315,-1.7549,rough,14.0,0,3.560
6310,201.92,9.0875,-1.3334,2.0525,-2.8575,0.0913,-1.7551,rough,14.0,0,3.474
6320,202.24,9.0773,-1.3503,2.0515,-2.8848,0.0726,-1.7723,rough,14.0,0,3.488
6330,202.56,9.0755,-1.3770,2.0445,-2.8904,0.0400,-1.7419,rough,14.0,0,3.514
6340,202.88,9.0784,-1.3435,2.0510,-2.8876,0.0683,-1.7780,rough,14.0,0,3.482
6350,203.20,9.0884,-1.3962,2.0436,-2.9361,0.0587,-1.8575,rough,14.0,0,3.535
6360,203.52,9.0771,-1.3747,2.0465,-2.9047,0.0532,-1.7849,rough,14.0,0,3.512
6370,203.84,9.0666,-1.4235,2.0450,-2.8443,-0.0546,-1.7317,rough,14.0,0,3.557
6380,204.16,9.0890,-1.3355,2.0534,-2.8596,0.0962,-1.7665,rough,14.0,0,3.477
6390,204.48,9.0823,-1.3327,2.0554,-2.8626,0.1087,-1.7740,rough,14.0,0,3.472
6400,204.80,9.0768,-1.4152,2.0477,-2.8750,-0.0022,-1.7625,rough,14.0,0,3.551
6410,205.12,9.0772,-1.3638,2.0499,-2.9022,0.0647,-1.7991,rough,14.0,0,3.501
6420,205.44,9.0534,-1.4131,2.0432,-2.9074,-0.0208,-1.7166,rough,14.0,0,3.544
6430,205.76,9.0837,-1.3599,2.0488,-2.8994,0.1025,-1.8069,rough,14.0,0,3.499
6440,206.08,9.0771,-1.3311,2.0542,-2.8729,0.0980,-1.7871,rough,14.0,0,3.470
6450,206.40,9.0807,-1.3563,2.0508,-2.8874,0.0716,-1.8091,rough,14.0,0,3.495
6460,206.72,9.0844,-1.3792,2.0483,-2.8993,0.0490,-1.7943,rough,14.0,0,3.518
6470,207.04,9.0853,-1.3734,2.0465,-2.9021,0.0799,-1.7948,rough,14.0,0,3.513
6480,207.36,9.0784,-1.3922,2.0462,-2.8814,0.0169,-1.7818,rough,14.0,0,3.529
6490,207.68,9.0722,-1.3934,2.0487,-2.9049,0.0189,-1.7870,rough,14.0,0,3.529
6500,208.00,9.0760,-1.3755,2.0455,-2.9187,0.0498,-1.7935,rough,14.0,0,3.512
6510,208.32,9.0787,-1.3754,2.0475,-2.9021,0.0430,-1.7829,rough,14.0,0,3.513
6520,208.64,9.0793,-1.3942,2.0459,-2.8832,0.0467,-1.8207,rough,14.0,0,3.531
6530,208.96,9.0753,-1.3787,2.0479,-2.9134,0.0472,-1.8174,rough,14.0,0,3.515
6540,209.28,9.0745,-1.3776,2.0464,-2.9036,0.0415,-1.7895,rough,14.0,0,3.514
6550,209.60,9.0721,-1.3974,2.0381,-2.8453,0.0000,-1.7477,rough,14.0,0,3.533
6560,209.92,9.0826,-1.3547,2.0528,-2.8865,0.0863,-1.7912,rough,14.0,0,3.494
6570,210.24,9.0782,-1.3668,2.0472,-2.8873,0.0501,-1.7944,rough,14.0,0,3.504
6580,210.56,9.0819,-1.3870,2.0471,-2.8971,0.0536,-1.8062,rough,14.0,0,3.525
6590,210.88,9.0816,-1.3920,2.0469,-2.8897,0.0428,-1.7900,rough,14.0,0,3.530
6600,211.20,9.0776,-1.3784,2.0472,-2.9016,0.0482,-1.7926,rough,14.0,0,3.516
6610,211.52,9.0819,-1.4059,2.0475,-2.8722,0.0381,-1.8213,rough,14.0,0,3.543
6620,211.84,9.0780,-1.3726,2.0450,-2.9210,0.0620,-1.8025,rough,14.0,0,3.510
6630,212.16,9.0795,-1.3572,2.0484,-2.8786,0.0634,-1.7936,rough,14.0,0,3.495
6640,212.48,9.0810,-1.3754,2.0478,-2.8988,0.0567,-1.7866,rough,14.0,0,3.513
6650,212.80,9.0808,-1.3949,2.0469,-2.8758,0.0210,-1.7917,rough,14.0,0,3.532
6660,213.12,9.0740,-1.3923,2.0460,-2.8889,0.0154,-1.7640,rough,14.0,0,3.528
6670,213.44,9.0730,-1.3838,2.0446,-2.8972,0.0402,-1.7870,rough,14.0,0,3.520
6680,213.76,9.0704,-1.3972,2.0405,-2.8799,0.0289,-1.7414,rough,14.0,0,3.532
6690,214.08,9.0826,-1.3655,2.0499,-2.8731,0.0813,-1.7658,rough,14.0,0,3.504
6700,214.40,9.0850,-1.3851,2.0449,-2.8924,0.0557,-1.7781,rough,14.0,0,3.524
6710,214.72,9.0721,-1.3964,2.0443,-2.8794,-0.0006,-1.7224,rough,14.0,0,3.532
6720,215.04,9.0743,-1.3725,2.0485,-2.9120,0.0469,-1.8053,rough,14.0,0,3.509
6730,215.36,9.0883,-1.3809,2.0496,-2.8951,0.0687,-1.8044,rough,14.0,0,3.521
6740,215.68,9.0792,-1.3936,2.0456,-2.8820,0.0265,-1.7729,rough,14.0,0,3.531
6750,216.00,9.0759,-1.3873,2.0404,-2.8880,0.0534,-1.7649,rough,14.0,0,3.524
6760,216.32,9.0751,-1.3736,2.0489,-2.9086,0.0505,-1.8179,rough,14.0,0,3.510
6770,216.64,9.0802,-1.3731,2.0482,-2.8939,0.0590,-1.7920,rough,14.0,0,3.511
6780,216.96,9.0836,-1.3924,2.0472,-2.8894,0.0385,-1.7874,rough,14.0,0,3.531
6790,217.28,9.0832,-1.3721,2.0452,-2.8927,0.0628,-1.7763,rough,14.0,0,3.511
6800,217.60,9.0828,-1.3868,2.0447,-2.8935,0.0490,-1.7649,rough,14.0,0,3.525
6810,217.92,9.0728,-1.3837,2.0459,-2.9040,0.0327,-1.7869,rough,14.0,0,3.520
6820,218.24,9.0775,-1.3652,2.0480,-2.8967,0.0512,-1.7993,rough,14.0,0,3.503
6830,218.56,9.0704,-1.4354,2.0473,-2.8392,-0.0613,-1.7280,rough,14.0,0,3.569
6840,218.88,9.0818,-1.2900,2.0575,-2.8525,0.1285,-1.7703,rough,14.0,0,3.431
6850,219.20,9.0694,-1.1375,2.0643,-2.8142,0.2705,-1.7425,rough,14.0,0,3.280
6860,219.52,9.0618,-1.1415,2.0654,-2.8090,0.2884,-1.7187,rough,14.0,0,3.282
6870,219.84,9.0678,-1.1611,2.0640,-2.7817,0.2440,-1.7117,rough,14.0,0,3.303
6880,220.16,9.0692,-1.1438,2.0664,-2.8003,0.2825,-1.7332,rough,14.0,0,3.286
6890,220.48,9.0745,-1.1497,2.0670,-2.7902,0.2716,-1.7022,rough,14.0,0,3.293
6900,220.80,9.0668,-1.1953,2.0616,-2.8195,0.2221,-1.7600,rough,14.0,0,3.335
6910,221.12,9.0668,-1.2685,2.0570,-2.8446,0.1260,-1.7593,rough,14.0,0,3.406
6920,221.44,9.0761,-1.3243,2.0477,-2.8416,0.0622,-1.7428,rough,14.0,0,3.463
6930,221.76,9.0672,-1.4138,2.0482,-2.8630,-0.0314,-1.7753,rough,14.0,0,3.547
6940,222.08,9.0829,-1.4474,2.0523,-2.8844,0.0133,-1.8009,rough,14.0,0,3.584
6950,222.40,9.0881,-1.3665,2.0511,-2.8883,0.0626,-1.7580,rough,14.0,0,3.507
6960,222.72,9.0755,-1.3218,2.0551,-2.8707,0.1058,-1.7959,rough,14.0,0,3.460
6970,223.04,9.0698,-1.3384,2.0513,-2.8974,0.0579,-1.7762,rough,14.0,0,3.475
6980,223.36,9.0798,-1.3988,2.0454,-2.8990,0.0302,-1.7814,rough,14.0,0,3.536
6990,223.68,9.0743,-1.3781,2.0479,-2.9113,0.0430,-1.8094,rough,14.0,0,3.515
7000,224.00,9.0852,-1.3855,2.0473,-2.8972,0.0405,-1.7780,rough,14.0,0,3.524
7010,224.32,9.0815,-1.3827,2.0463,-2.9020,0.0560,-1.7927,rough,14.0,0,3.521
7020,224.64,9.0747,-1.4165,2.0470,-2.8649,-0.0237,-1.7549,rough,14.0,0,3.552
7030,224.96,9.0832,-1.3812,2.0443,-2.8973,0.0589,-1.7610,rough,14.0,0,3.520
7040,225.28,9.0748,-1.3820,2.0447,-2.8973,0.0282,-1.7601,rough,14.0,0,3.518
7050,225.60,9.0695,-1.3939,2.0419,-2.8757,0.0053,-1.7539,rough,14.0,0,3.529
7060,225.92,9.0858,-1.3816,2.0480,-2.8932,0.0517,-1.7765,rough,14.0,0,3.521
7070,226.24,9.0766,-1.3713,2.0476,-2.8912,0.0555,-1.7716,rough,14.0,0,3.508
7080,226.56,9.0750,-1.3760,2.0477,-2.9087,0.0428,-1.8156,rough,14.0,0,3.513
7090,226.88,9.0868,-1.3987,2.0447,-2.8787,0.0029,-1.8033,rough,14.0,0,3.538
7100,227.20,9.0705,-1.3683,2.0447,-2.8930,0.0312,-1.7694,rough,14.0,0,3.504
7110,227.52,9.0760,-1.3717,2.0477,-2.8977,0.0495,-1.8062,rough,14.0,0,3.509
7120,227.84,9.0849,-1.3886,2.0470,-2.8875,0.0427,-1.8151,rough,14.0,0,3.527
7130,228.16,9.0810,-1.3903,2.0438,-2.8874,0.0333,-1.7519,rough,14.0,0,3.528
7140,228.48,9.0627,-1.4202,2.0458,-2.8767,-0.0305,-1.7363,rough,14.0,0,3.553
7150,228.80,9.0846,-1.3415,2.0495,-2.8767,0.0638,-1.7679,rough,14.0,0,3.481
7160,229.12,9.0671,-1.3541,2.0487,-2.8970,0.0529,-1.7852,rough,14.0,0,3.489
7170,229.44,9.0847,-1.3758,2.0455,-2.9078,0.0641,-1.8137,rough,14.0,0,3.515
7180,229.76,9.0809,-1.3044,2.0572,-2.8407,0.1246,-1.7502,rough,14.0,0,3.445
7190,230.08,9.0718,-1.3032,2.0563,-2.8672,0.1020,-1.7721,rough,14.0,0,3.441
7200,230.40,9.0693,-1.4304,2.0479,-2.8329,-0.0710,-1.7357,rough,14.0,0,3.564
7210,230.72,9.0822,-1.3142,2.0541,-2.8709,0.1113,-1.7478,rough,14.0,0,3.454
7220,231.04,9.0714,-1.2230,2.0632,-2.8107,0.2062,-1.7652,rough,14.0,0,3.363
7230,231.36,9.0697,-1.1957,2.0601,-2.8116,0.2097,-1.7665,rough,14.0,0,3.336
7240,231.68,9.0639,-1.2453,2.0589,-2.8329,0.1368,-1.7353,rough,14.0,0,3.383
7250,232.00,9.0757,-1.2329,2.0595,-2.8300,0.1918,-1.7364,rough,14.0,0,3.374
7260,232.32,9.0586,-1.2842,2.0558,-2.8730,0.0946,-1.7766,rough,14.0,0,3.420
7270,232.64,9.0686,-1.3677,2.0475,-2.9127,0.0439,-1.8034,rough,14.0,0,3.503
7280,232.96,9.0843,-1.3758,2.0462,-2.9086,0.0638,-1.7898,rough,14.0,0,3.515
7290,233.28,9.0707,-1.4223,2.0429,-2.8618,-0.0301,-1.6952,rough,14.0,0,3.557
7300,233.60,9.0836,-1.3821,2.0479,-2.8740,0.0623,-1.7809,rough,14.0,0,3.521
7310,233.92,9.0853,-1.3768,2.0489,-2.8914,0.0633,-1.7873,rough,14.0,0,3.516
7320,234.24,9.0779,-1.4075,2.0475,-2.8713,0.0087,-1.7790,rough,14.0,0,3.544
7330,234.56,9.0716,-1.4026,2.0411,-2.8816,0.0395,-1.7964,rough,14.0,0,3.538
7340,234.88,9.0845,-1.3597,2.0508,-2.9004,0.0782,-1.8048,rough,14.0,0,3.499
7350,235.20,9.0729,-1.3094,2.0540,-2.8808,0.0745,-1.7546,rough,14.0,0,3.448
7360,235.52,9.0788,-1.4197,2.0400,-2.8478,0.0082,-1.7057,rough,14.0,0,3.556
7370,235.84,9.0824,-1.4225,2.0499,-2.8612,0.0015,-1.8018,rough,14.0,0,3.560
7380,236.16,9.0776,-1.3399,2.0493,-2.8704,0.0736,-1.7555,rough,14.0,0,3.478
7390,236.48,9.0757,-1.3230,2.0549,-2.8720,0.0965,-1.7781,rough,14.0,0,3.461
7400,236.80,9.0734,-1.3394,2.0531,-2.8622,0.1071,-1.7918,rough,14.0,0,3.477
7410,237.12,9.0838,-1.4105,2.0458,-2.8930,0.0169,-1.8131,rough,14.0,0,3.548
7420,237.44,9.0793,-1.3890,2.0450,-2.8949,0.0380,-1.7653,rough,14.0,0,3.526
7430,237.76,9.0754,-1.3845,2.0445,-2.8941,0.0392,-1.7830,rough,14.0,0,3.521
7440,238.08,9.0733,-1.3684,2.0483,-2.9139,0.0477,-1.7963,rough,14.0,0,3.505
7450,238.40,9.0729,-1.3290,2.0535,-2.8767,0.0911,-1.7986,rough,14.0,0,3.467
7460,238.72,9.0865,-1.3892,2.0499,-2.8950,0.0531,-1.8319,rough,14.0,0,3.528
7470,239.04,9.0795,-1.3803,2.0421,-2.9263,0.0617,-1.7986,rough,14.0,0,3.518
7480,239.36,9.0818,-1.3901,2.0430,-2.8757,0.0189,-1.7549,rough,14.0,0,3.528
7490,239.68,9.0737,-1.3892,2.0431,-2.8800,0.0166,-1.7597,rough,14.0,0,3.525
7500,240.00,9.0672,-1.3861,2.0475,-2.8969,0.0049,-1.7742,rough,14.0,0,3.521
7510,240.32,9.0739,-1.3861,2.0449,-2.8966,0.0392,-1.7875,rough,14.0,0,3.522
7520,240.64,9.0701,-1.3827,2.0459,-2.8949,0.0547,-1.8114,rough,14.0,0,3.518
7530,240.96,9.0740,-1.3957,2.0438,-2.8802,0.0049,-1.7400,rough,14.0,0,3.531
7540,241.28,9.0690,-1.3569,2.0477,-2.9100,0.0319,-1.7809,rough,14.0,0,3.493
7550,241.60,9.0807,-1.3785,2.0450,-2.8906,0.0546,-1.8281,rough,14.0,0,3.516
7560,241.92,9.0790,-1.3841,2.0472,-2.9070,0.0485,-1.8161,rough,14.0,0,3.521
7570,242.24,9.0780,-1.3777,2.0480,-2.8971,0.0524,-1.7938,rough,14.0,0,3.515
7580,242.56,9.0797,-1.3795,2.0458,-2.8965,0.0418,-1.7880,rough,14.0,0,3.517
7590,242.88,9.0765,-1.3897,2.0453,-2.8923,0.0385,-1.7824,rough,14.0,0,3.526
7600,243.20,9.0757,-1.3731,2.0449,-2.9119,0.0219,-1.8217,rough,14.0,0,3.510
7610,243.52,9.0764,-1.3985,2.0419,-2.8809,0.0471,-1.7807,rough,14.0,0,3.535
7620,243.84,9.0818,-1.3774,2.0466,-2.8998,0.0645,-1.8033,rough,14.0,0,3.516
7630,244.16,9.0750,-1.3819,2.0477,-2.9061,0.0395,-1.8046,rough,14.0,0,3.518
7640,244.48,9.0777,-1.3809,2.0475,-2.9038,0.0465,-1.8042,rough,14.0,0,3.518
7650,244.80,9.0838,-1.3895,2.0466,-2.8946,0.0532,-1.7948,rough,14.0,0,3.528
7660,245.12,9.0860,-1.3958,2.0472,-2.8937,0.0315,-1.7688,rough,14.0,0,3.535
7670,245.44,9.0660,-1.3685,2.0385,-2.8665,0.0308,-1.8177,rough,14.0,0,3.503
7680,245.76,9.0794,-1.3811,2.0458,-2.8948,0.0430,-1.7772,rough,14.0,0,3.519
7690,246.08,9.0746,-1.3845,2.0439,-2.8997,0.0418,-1.7664,rough,14.0,0,3.521
7700,246.40,9.0754,-1.3978,2.0480,-2.8965,0.0325,-1.7991,rough,14.0,0,3.534
7710,246.72,9.0852,-1.3726,2.0479,-2.8889,0.0677,-1.7912,rough,14.0,0,3.512
7720,247.04,9.0817,-1.3955,2.0471,-2.8796,0.0170,-1.7726,rough,14.0,0,3.533
7730,247.36,9.0775,-1.3798,2.0449,-2.8897,0.0413,-1.7446,rough,14.0,0,3.517
7740,247.68,9.0736,-1.3794,2.0456,-2.9100,0.0402,-1.7996,rough,14.0,0,3.516
7750,248.00,9.0798,-1.3645,2.0466,-2.8849,0.0549,-1.7794,rough,14.0,0,3.503
7760,248.32,9.0807,-1.3842,2.0460,-2.8986,0.0463,-1.7832,rough,14.0,0,3.522
7770,248.64,9.0678,-1.4206,2.0430,-2.8595,-0.0294,-1.7192,rough,14.0,0,3.554
7780,248.96,9.0798,-1.3205,2.0543,-2.8500,0.1139,-1.7582,rough,14.0,0,3.460
7790,249.28,9.0693,-1.2449,2.0555,-2.8470,0.1670,-1.7422,rough,14.0,0,3.384
7800,249.60,9.0666,-1.2059,2.0621,-2.8249,0.2096,-1.7737,rough,14.0,0,3.346
7810,249.92,9.0652,-1.1473,2.0665,-2.8049,0.2708,-1.7508,rough,14.0,0,3.288
7820,250.24,9.0613,-1.1393,2.0662,-2.7654,0.2479,-1.7287,rough,14.0,0,3.280
7830,250.56,9.0698,-1.1964,2.0619,-2.8169,0.2275,-1.7596,rough,14.0,0,3.337
7840,250.88,9.0658,-1.3058,2.0541,-2.8713,0.0928,-1.7829,rough,14.0,0,3.442
7850,251.20,9.0759,-1.4186,2.0486,-2.8607,-0.0121,-1.7753,rough,14.0,0,3.554
7860,251.52,9.0740,-1.3753,2.0453,-2.8910,0.0348,-1.7346,rough,14.0,0,3.512
7870,251.84,9.0807,-1.3249,2.0556,-2.8583,0.1144,-1.7863,rough,14.0,0,3.464
7880,252.16,9.0731,-1.3554,2.0505,-2.8959,0.0621,-1.7856,rough,14.0,0,3.492
7890,252.48,9.0878,-1.4017,2.0376,-2.8940,0.0848,-1.8023,rough,14.0,0,3.541
7900,252.80,9.0780,-1.3763,2.0477,-2.9046,0.0426,-1.7830,rough,14.0,0,3.514
7910,253.12,9.0773,-1.3848,2.0458,-2.8938,0.0531,-1.7944,rough,14.0,0,3.522
7920,253.44,9.0747,-1.3853,2.0470,-2.9017,0.0355,-1.7999,rough,14.0,0,3.522
7930,253.76,9.0790,-1.3655,2.0464,-2.8807,0.0477,-1.7797,rough,14.0,0,3.503
