step,time_s,x,y,z,roll,pitch,yaw,terrain,speed,target_idx,dist_to_target
10,0.32,1.8932,0.4978,0.6434,0.0349,-0.4055,-0.0104,slope,18.0,0,6.524
20,0.64,1.9625,0.5034,0.6703,0.0337,-0.4136,0.0338,slope,18.0,0,6.455
30,0.96,2.3253,0.5236,0.8349,0.0196,-0.4538,0.0475,slope,18.0,0,6.098
40,1.28,2.7045,0.5525,1.0196,-0.0037,-0.4576,0.0780,slope,18.0,0,5.724
50,1.60,3.0789,0.5956,1.2051,-0.0293,-0.4629,0.1202,slope,18.0,0,5.352
60,1.92,3.4591,0.6572,1.3856,-0.0662,-0.4374,0.1774,slope,18.0,0,4.969
70,2.24,3.8565,0.7450,1.5692,-0.0815,-0.3979,0.2154,slope,18.0,0,4.563
80,2.56,4.2661,0.8550,1.7433,-0.1032,-0.3832,0.2661,slope,18.0,0,4.139
90,2.88,4.6970,0.9888,1.9137,-0.1170,-0.3587,0.3187,slope,18.0,0,3.688
100,3.20,5.1582,1.1613,2.0829,-0.1290,-0.3220,0.3822,slope,18.0,0,3.197
110,3.52,5.6472,1.3665,2.2538,-0.1307,-0.3074,0.4163,slope,18.0,0,2.671
120,3.84,6.1464,1.5871,2.4247,-0.1287,-0.3047,0.4106,slope,18.0,0,2.134
130,4.16,6.6274,1.7919,2.5886,-0.1117,-0.3074,0.3751,slope,18.0,0,1.624
140,4.48,7.0616,1.9570,2.7374,-0.0679,-0.3230,0.2508,rough,14.0,0,1.175
150,4.80,7.3843,2.0311,2.8473,-0.0346,-0.3276,0.1763,rough,14.0,1,4.692
160,5.12,7.6878,2.1060,2.9824,-0.1000,-0.4428,0.1798,rough,14.0,1,4.826
170,5.44,7.8869,2.1455,3.1242,0.0292,-0.8214,0.0686,rough,14.0,1,4.930
180,5.76,7.9886,2.1362,3.2326,0.0925,-0.7999,-0.0685,rough,14.0,1,5.007
190,6.08,7.9914,2.0779,3.2279,0.1976,-0.7805,-0.2300,rough,14.0,1,5.051
200,6.40,7.8954,2.0196,3.1268,0.2019,-0.7908,-0.2598,rough,14.0,1,5.029
210,6.72,7.7863,1.9769,3.0407,0.1229,-0.7289,-0.2908,rough,14.0,1,4.989
220,7.04,7.8420,1.8858,3.0784,0.2270,-0.7779,-0.3461,rough,14.0,1,5.094
230,7.36,8.0296,1.7924,3.1846,0.3077,-0.5866,-0.2224,rough,14.0,1,5.288
240,7.68,8.2935,1.7342,3.3288,0.3232,-0.4449,-0.1797,rough,14.0,1,5.509
250,8.00,8.4896,1.6616,3.4134,0.4881,-0.5750,-0.2833,rough,14.0,1,5.697
260,8.32,8.6547,1.5960,3.5133,0.5352,-0.5667,-0.3142,rough,14.0,1,5.859
270,8.64,8.8531,1.5001,3.5703,0.5519,-0.2350,-0.2803,rough,14.0,1,6.067
280,8.96,8.9710,1.4394,3.5597,0.4022,-0.3503,-0.2021,rough,14.0,1,6.194
290,9.28,9.1144,1.3030,3.5619,0.4608,-0.0363,-0.4586,rough,14.0,1,6.392
300,9.60,9.2215,1.1789,3.5288,0.4030,0.0652,-0.6531,rough,14.0,1,6.556
310,9.92,9.2910,1.0419,3.5081,0.5152,0.1039,-0.8619,rough,14.0,1,6.701
320,10.24,9.3608,0.9286,3.4499,0.3616,0.1592,-1.0634,rough,14.0,1,6.830
330,10.56,9.4393,0.8102,3.3856,0.1648,0.2852,-1.1657,rough,14.0,1,6.970
340,10.88,9.4619,0.6717,3.3201,0.1296,0.3812,-1.2646,rough,14.0,1,7.084
350,11.20,9.4706,0.5336,3.2645,0.1622,0.4657,-1.3252,rough,14.0,1,7.190
360,11.52,9.4588,0.3960,3.1949,0.2987,0.4328,-1.2895,rough,14.0,1,7.282
370,11.84,9.4600,0.2421,3.1109,0.3869,0.3930,-1.2015,rough,14.0,1,7.397
380,12.16,9.4738,0.0711,3.0242,0.5284,0.3357,-1.0174,rough,14.0,1,7.534
390,12.48,9.4790,-0.0660,2.9545,0.6173,0.2606,-0.9232,rough,14.0,1,7.641
400,12.80,9.4770,-0.1446,2.9194,0.6089,0.3308,-1.0917,rough,14.0,1,7.700
410,13.12,9.4382,-0.2607,2.8331,0.8902,0.6426,-1.1080,rough,14.0,1,7.764
420,13.44,9.3809,-0.4396,2.7010,0.5886,0.4107,-1.3420,rough,14.0,1,7.868
430,13.76,9.3774,-0.5858,2.6309,0.6309,0.3865,-1.3425,rough,14.0,1,7.982
440,14.08,9.3657,-0.7036,2.5724,0.6305,0.4546,-1.4434,rough,14.0,1,8.068
450,14.40,9.3420,-0.7948,2.5161,0.5160,0.4958,-1.6650,rough,14.0,1,8.127
460,14.72,9.2995,-0.8849,2.4503,0.3675,0.5145,-1.8999,rough,14.0,1,8.175
470,15.04,9.2400,-0.9939,2.3838,0.2254,0.5515,-2.0375,rough,14.0,1,8.230
480,15.36,9.1735,-1.1066,2.3123,0.1145,0.5597,-2.1238,rough,14.0,1,8.285
490,15.68,9.0755,-1.1788,2.2524,0.2303,0.4142,-2.2009,rough,14.0,1,8.290
500,16.00,8.9923,-1.2886,2.2197,0.2157,0.2867,-2.3137,rough,14.0,1,8.337
510,16.32,8.9313,-1.3564,2.2256,0.1627,-0.0951,-2.4393,rough,14.0,1,8.362
520,16.64,8.8340,-1.4163,2.2345,0.2592,-0.4882,-2.5851,rough,14.0,1,8.363
530,16.96,8.7295,-1.5460,2.2643,-0.0792,-0.5513,-2.5505,rough,14.0,1,8.421
540,17.28,8.6296,-1.6262,2.3589,-0.1093,-0.7220,-2.5639,rough,14.0,1,8.442
550,17.60,8.4626,-1.6985,2.4932,0.0597,-0.7755,-2.6093,rough,14.0,1,8.426
560,17.92,8.3623,-1.7708,2.6094,0.1982,-0.7933,-2.8111,rough,14.0,1,8.443
570,18.24,8.2487,-1.8087,2.7098,0.3361,-0.7496,-3.1208,rough,14.0,1,8.426
580,18.56,8.1017,-1.7795,2.7991,0.4124,-0.7178,2.6787,rough,14.0,1,8.336
590,18.88,8.0490,-1.6829,2.8529,0.5309,-0.8359,2.5766,rough,14.0,1,8.226
600,19.20,8.1135,-1.5758,2.7768,0.6610,-0.7965,2.4562,rough,14.0,1,8.158
610,19.52,8.2921,-1.4027,2.5343,0.7754,-0.6512,2.3086,rough,14.0,1,8.084
620,19.84,8.4504,-1.2097,2.3586,0.6783,-0.3034,2.2413,rough,14.0,1,7.991
630,20.16,8.4230,-1.0675,2.3684,0.5934,-0.4680,2.1349,rough,14.0,1,7.854
640,20.48,8.3457,-0.8707,2.3968,0.8986,-0.5280,1.9389,rough,14.0,1,7.645
650,20.80,8.3688,-0.6584,2.3545,0.9487,-0.3518,1.7374,rough,14.0,1,7.473
660,21.12,8.4203,-0.4772,2.3584,1.0319,-0.2431,1.3740,rough,14.0,1,7.346
670,21.44,8.4674,-0.3823,2.4054,1.2166,-0.4877,0.8088,rough,14.0,1,7.291
680,21.76,8.5822,-0.3780,2.4225,1.6825,-0.4484,0.1433,rough,14.0,1,7.350
690,22.08,8.6334,-0.5521,2.3187,2.4871,-0.0485,-0.1134,rough,14.0,1,7.524
700,22.40,8.5506,-0.6423,2.2107,-2.7719,0.4906,0.1148,rough,14.0,1,7.555
710,22.72,8.3670,-0.6816,2.1632,-2.9150,0.3623,0.3049,rough,14.0,1,7.492
720,23.04,8.2691,-0.7404,2.2600,-2.8761,0.9669,0.5129,rough,14.0,1,7.493
730,23.36,8.2156,-0.7805,2.2944,-2.8064,0.9147,0.3990,rough,14.0,1,7.502
740,23.68,8.2153,-0.8437,2.2943,-2.7771,0.8957,0.4638,rough,14.0,1,7.557
750,24.00,8.2172,-0.9236,2.2956,-2.7497,0.8872,0.5360,rough,14.0,1,7.627
760,24.32,8.2119,-1.0158,2.3097,-2.7356,0.8867,0.5946,rough,14.0,1,7.705
770,24.64,8.2073,-1.1136,2.3239,-2.7176,0.8710,0.6419,rough,14.0,1,7.789
780,24.96,8.2104,-1.2090,2.3349,-2.7798,0.8609,0.6032,rough,14.0,1,7.875
790,25.28,8.2053,-1.3006,2.3696,-2.8526,0.8810,0.5524,rough,14.0,1,7.954
800,25.60,8.1993,-1.3838,2.4013,-3.0537,0.9118,0.3516,rough,14.0,1,8.025
810,25.92,8.2001,-1.4386,2.4151,-2.9604,0.8865,0.4890,rough,14.0,1,8.074
820,26.24,8.1961,-1.5301,2.4448,3.0928,0.9148,0.2701,rough,14.0,1,8.154
830,26.56,8.2119,-1.5742,2.4397,2.8368,0.9215,0.0000,rough,14.0,1,8.200
840,26.88,8.2314,-1.5737,2.4137,2.6119,0.7926,-0.3714,rough,14.0,1,8.208
850,27.20,8.2547,-1.4935,2.3712,2.5385,0.7474,-0.5152,rough,14.0,1,8.148
860,27.52,8.2619,-1.3579,2.3149,2.4790,0.5031,-0.7800,rough,14.0,1,8.031
870,27.84,8.2049,-1.2094,2.3406,2.3587,0.5770,-1.0123,rough,14.0,1,7.873
880,28.16,8.2024,-1.0236,2.3177,2.2948,0.4759,-1.1099,rough,14.0,1,7.708
890,28.48,8.2175,-0.8169,2.2888,2.2138,0.3511,-1.3309,rough,14.0,1,7.534
900,28.80,8.2517,-0.5753,2.2485,2.1618,0.1761,-1.5354,rough,14.0,1,7.342
910,29.12,8.2918,-0.4026,2.2877,2.1210,0.2792,-1.8091,rough,14.0,1,7.215
920,29.44,8.3624,-0.2542,2.3536,1.9569,0.4934,-2.3001,rough,14.0,1,7.126
930,29.76,8.4468,-0.1134,2.3832,2.2388,0.5492,-2.5819,rough,14.0,1,7.055
940,30.08,8.5569,0.0246,2.3830,2.7800,0.5519,-2.4953,rough,14.0,1,7.003
950,30.40,8.6525,0.0584,2.3988,3.0241,0.6673,-2.6288,rough,14.0,1,7.032
960,30.72,8.8158,0.0473,2.4657,2.7409,0.5056,-2.9748,rough,14.0,1,7.138
970,31.04,8.9751,0.0126,2.5348,2.5760,0.4972,3.0794,rough,14.0,1,7.262
980,31.36,9.1091,-0.0096,2.5929,2.6262,0.5315,3.1249,rough,14.0,1,7.362
990,31.68,9.2261,-0.0335,2.6464,2.6606,0.5588,-3.0961,rough,14.0,1,7.454
1000,32.00,9.3393,-0.0612,2.6908,2.6521,0.5175,-3.1069,rough,14.0,1,7.548
1010,32.32,9.4050,-0.0564,2.7316,2.6564,0.5118,-3.0964,rough,14.0,1,7.586
1020,32.64,9.4578,-0.0509,2.7660,2.6355,0.4891,-3.1359,rough,14.0,1,7.616
1030,32.96,9.5347,-0.0530,2.8042,2.6355,0.5223,-3.1309,rough,14.0,1,7.668
1040,33.28,9.5684,-0.0610,2.8185,2.6149,0.5027,3.0919,rough,14.0,1,7.696
1050,33.60,9.6099,-0.0652,2.8368,2.6759,0.5274,-3.1001,rough,14.0,1,7.726
1060,33.92,9.6416,-0.0711,2.8478,2.6808,0.5191,-3.1314,rough,14.0,1,7.752
1070,34.24,9.6812,-0.0730,2.8637,2.6885,0.5099,3.1184,rough,14.0,1,7.779
1080,34.56,9.7107,-0.0732,2.8589,2.7251,0.4350,-3.1172,rough,14.0,1,7.799
1090,34.88,9.7070,-0.0760,2.8494,2.6738,0.3529,3.0438,rough,14.0,1,7.799
1100,35.20,9.6922,-0.0982,2.8321,2.7243,0.4078,-3.1145,rough,14.0,2,7.805
1110,35.52,9.6945,-0.0941,2.8353,2.7170,0.3969,-3.1362,rough,14.0,2,17.016
1120,35.84,9.6953,-0.0926,2.8365,2.7137,0.3932,3.1387,rough,14.0,2,17.016
1130,36.16,9.6912,-0.0998,2.8309,2.7301,0.4101,-3.1050,rough,14.0,2,17.013
1140,36.48,9.6957,-0.0919,2.8370,2.7121,0.3914,3.1345,rough,14.0,2,17.017
1150,36.80,9.6937,-0.0952,2.8345,2.7193,0.3993,-3.1307,rough,14.0,2,17.015
1160,37.12,9.6922,-0.0977,2.8325,2.7251,0.4053,-3.1167,rough,14.0,2,17.014
1170,37.44,9.6954,-0.0922,2.8368,2.7126,0.3921,3.1359,rough,14.0,2,17.016
1180,37.76,9.6945,-0.0936,2.8357,2.7157,0.3956,-3.1394,rough,14.0,2,17.016
1190,38.08,9.6923,-0.0974,2.8327,2.7243,0.4046,-3.1187,rough,14.0,2,17.014
1200,38.40,9.6927,-0.0966,2.8334,2.7224,0.4027,-3.1232,rough,14.0,2,17.014
1210,38.72,9.6949,-0.0929,2.8362,2.7139,0.3938,3.1395,rough,14.0,2,17.016
1220,39.04,9.6930,-0.0961,2.8338,2.7211,0.4015,-3.1263,rough,14.0,2,17.014
1230,39.36,9.6916,-0.0986,2.8319,2.7267,0.4073,-3.1128,rough,14.0,2,17.013
1240,39.68,9.6948,-0.0929,2.8362,2.7139,0.3939,3.1393,rough,14.0,2,17.016
1250,40.00,9.6942,-0.0938,2.8355,2.7158,0.3961,-3.1389,rough,14.0,2,17.015
1260,40.32,9.6907,-0.0999,2.8308,2.7297,0.4104,-3.1054,rough,14.0,2,17.013
1270,40.64,9.6950,-0.0924,2.8366,2.7125,0.3927,3.1363,rough,14.0,2,17.016
1280,40.96,9.6927,-0.0961,2.8336,2.7210,0.4018,-3.1262,rough,14.0,2,17.014
1290,41.28,9.6918,-0.0978,2.8324,2.7247,0.4056,-3.1173,rough,14.0,2,17.013
1300,41.60,9.6950,-0.0922,2.8367,2.7121,0.3924,3.1353,rough,14.0,2,17.016
1310,41.92,9.6936,-0.0945,2.8349,2.7172,0.3980,-3.1352,rough,14.0,2,17.015
1320,42.24,9.6916,-0.0979,2.8323,2.7249,0.4060,-3.1167,rough,14.0,2,17.013
1330,42.56,9.6939,-0.0939,2.8354,2.7158,0.3965,-3.1387,rough,14.0,2,17.015
1340,42.88,9.6942,-0.0933,2.8358,2.7143,0.3951,3.1411,rough,14.0,2,17.015
1350,43.20,9.6921,-0.0970,2.8329,2.7226,0.4039,-3.1219,rough,14.0,2,17.014
1360,43.52,9.6912,-0.0986,2.8318,2.7261,0.4074,-3.1136,rough,14.0,2,17.013
1370,43.84,9.6944,-0.0929,2.8361,2.7133,0.3941,3.1385,rough,14.0,2,17.015
1380,44.16,9.6931,-0.0951,2.8344,2.7182,0.3995,-3.1324,rough,14.0,2,17.014
1390,44.48,9.6912,-0.0985,2.8318,2.7258,0.4073,-3.1142,rough,14.0,2,17.013
1400,44.80,9.6935,-0.0944,2.8349,2.7165,0.3978,-3.1366,rough,14.0,2,17.015
1410,45.12,9.6943,-0.0929,2.8361,2.7130,0.3941,3.1382,rough,14.0,2,17.015
1420,45.44,9.6902,-0.1001,2.8306,2.7293,0.4110,-3.1058,rough,14.0,2,17.012
1430,45.76,9.6947,-0.0921,2.8367,2.7112,0.3922,3.1336,rough,14.0,2,17.016
1440,46.08,9.6927,-0.0953,2.8342,2.7184,0.4001,-3.1317,rough,14.0,2,17.014
1450,46.40,9.6913,-0.0979,2.8322,2.7241,0.4060,-3.1179,rough,14.0,2,17.013
1460,46.72,9.6945,-0.0923,2.8365,2.7116,0.3928,3.1347,rough,14.0,2,17.015
1470,47.04,9.6936,-0.0937,2.8354,2.7146,0.3963,-3.1407,rough,14.0,3,15.969
1480,47.36,9.6914,-0.0975,2.8325,2.7231,0.4052,-3.1201,rough,14.0,3,15.965
1490,47.68,9.6918,-0.0967,2.8331,2.7213,0.4033,-3.1246,rough,14.0,3,15.966
1500,48.00,9.6940,-0.0929,2.8360,2.7128,0.3944,3.1379,rough,14.0,3,15.970
1510,48.32,9.6921,-0.0961,2.8335,2.7198,0.4020,-3.1279,rough,14.0,3,15.967
1520,48.64,9.6907,-0.0986,2.8316,2.7254,0.4078,-3.1145,rough,14.0,3,15.964
1530,48.96,9.6939,-0.0929,2.8360,2.7127,0.3944,3.1376,rough,14.0,3,15.970
1540,49.28,9.6931,-0.0943,2.8349,2.7156,0.3977,-3.1382,rough,14.0,3,15.968
1550,49.60,9.6910,-0.0980,2.8321,2.7240,0.4065,-3.1178,rough,14.0,3,15.965
1560,49.92,9.6914,-0.0971,2.8327,2.7220,0.4044,-3.1227,rough,14.0,3,15.965
1570,50.24,9.6936,-0.0933,2.8357,2.7134,0.3954,3.1396,rough,14.0,3,15.969
1580,50.56,9.6917,-0.0965,2.8332,2.7204,0.4029,-3.1264,rough,14.0,3,15.966
1590,50.88,9.6903,-0.0989,2.8314,2.7259,0.4086,-3.1132,rough,14.0,3,15.964
1600,51.20,9.6936,-0.0932,2.8357,2.7130,0.3952,3.1387,rough,14.0,3,15.969
1610,51.52,9.6928,-0.0945,2.8347,2.7158,0.3983,-3.1373,rough,14.0,3,15.968
1620,51.84,9.6906,-0.0983,2.8318,2.7242,0.4071,-3.1170,rough,14.0,3,15.964
1630,52.16,9.6911,-0.0973,2.8326,2.7221,0.4050,-3.1221,rough,14.0,3,15.965
1640,52.48,9.6933,-0.0935,2.8355,2.7135,0.3959,3.1401,rough,14.0,3,15.969
1650,52.80,9.6915,-0.0967,2.8331,2.7204,0.4034,-3.1260,rough,14.0,3,15.966
1660,53.12,9.6901,-0.0991,2.8312,2.7259,0.4090,-3.1129,rough,14.0,3,15.963
1670,53.44,9.6933,-0.0934,2.8356,2.7130,0.3956,3.1389,rough,14.0,3,15.969
1680,53.76,9.6925,-0.0947,2.8346,2.7158,0.3987,-3.1371,rough,14.0,3,15.968
1690,54.08,9.6904,-0.0984,2.8317,2.7242,0.4074,-3.1169,rough,14.0,3,15.964
1700,54.40,9.6909,-0.0974,2.8325,2.7220,0.4053,-3.1221,rough,14.0,3,15.965
1710,54.72,9.6931,-0.0936,2.8354,2.7133,0.3962,3.1401,rough,14.0,3,15.969
1720,55.04,9.6912,-0.0967,2.8330,2.7203,0.4037,-3.1261,rough,14.0,3,15.965
1730,55.36,9.6899,-0.0992,2.8311,2.7257,0.4093,-3.1130,rough,14.0,3,15.963
1740,55.68,9.6931,-0.0934,2.8355,2.7128,0.3958,3.1388,rough,14.0,3,15.969
1750,56.00,9.6923,-0.0947,2.8345,2.7156,0.3989,-3.1373,rough,14.0,3,15.967
1760,56.32,9.6902,-0.0984,2.8317,2.7240,0.4076,-3.1172,rough,14.0,3,15.964
1770,56.64,9.6907,-0.0975,2.8324,2.7218,0.4055,-3.1223,rough,14.0,3,15.965
1780,56.96,9.6929,-0.0937,2.8353,2.7131,0.3964,3.1398,rough,14.0,3,15.968
1790,57.28,9.6910,-0.0968,2.8329,2.7201,0.4038,-3.1264,rough,14.0,3,15.965
1800,57.60,9.6897,-0.0992,2.8311,2.7255,0.4094,-3.1133,rough,14.0,3,15.963
1810,57.92,9.6929,-0.0935,2.8355,2.7126,0.3959,3.1385,rough,14.0,3,15.969
1820,58.24,9.6921,-0.0948,2.8344,2.7153,0.3991,-3.1377,rough,14.0,3,15.967
1830,58.56,9.6900,-0.0985,2.8316,2.7237,0.4078,-3.1175,rough,14.0,3,15.964
1840,58.88,9.6905,-0.0975,2.8323,2.7216,0.4056,-3.1226,rough,14.0,0,2.582
1850,59.20,9.6927,-0.0937,2.8353,2.7129,0.3965,3.1395,rough,14.0,0,2.580
1860,59.52,9.6909,-0.0968,2.8329,2.7198,0.4040,-3.1267,rough,14.0,0,2.582
1870,59.84,9.6895,-0.0992,2.8310,2.7252,0.4095,-3.1137,rough,14.0,0,2.583
1880,60.16,9.6928,-0.0935,2.8354,2.7123,0.3961,3.1381,rough,14.0,0,2.580
1890,60.48,9.6919,-0.0948,2.8344,2.7151,0.3992,-3.1381,rough,14.0,0,2.581
1900,60.80,9.6898,-0.0985,2.8316,2.7234,0.4079,-3.1180,rough,14.0,0,2.583
1910,61.12,9.6903,-0.0975,2.8323,2.7213,0.4057,-3.1230,rough,14.0,0,2.582
1920,61.44,9.6925,-0.0937,2.8352,2.7126,0.3966,3.1390,rough,14.0,0,2.580
1930,61.76,9.6907,-0.0968,2.8328,2.7195,0.4041,-3.1272,rough,14.0,0,2.582
1940,62.08,9.6893,-0.0992,2.8310,2.7249,0.4096,-3.1142,rough,14.0,0,2.583
1950,62.40,9.6926,-0.0935,2.8354,2.7120,0.3962,3.1377,rough,14.0,0,2.580
1960,62.72,9.6918,-0.0948,2.8344,2.7148,0.3993,-3.1385,rough,14.0,0,2.581
1970,63.04,9.6897,-0.0985,2.8315,2.7231,0.4080,-3.1184,rough,14.0,0,2.582
1980,63.36,9.6901,-0.0976,2.8322,2.7210,0.4058,-3.1235,rough,14.0,0,2.582
1990,63.68,9.6923,-0.0937,2.8352,2.7123,0.3968,3.1386,rough,14.0,0,2.580
2000,64.00,9.6905,-0.0968,2.8328,2.7192,0.4042,-3.1276,rough,14.0,0,2.582
2010,64.32,9.6891,-0.0992,2.8309,2.7246,0.4097,-3.1146,rough,14.0,0,2.583
2020,64.64,9.6924,-0.0935,2.8353,2.7117,0.3963,3.1372,rough,14.0,0,2.580
2030,64.96,9.6916,-0.0948,2.8343,2.7145,0.3994,-3.1389,rough,14.0,0,2.581
2040,65.28,9.6895,-0.0985,2.8315,2.7228,0.4081,-3.1189,rough,14.0,0,2.582
2050,65.60,9.6899,-0.0976,2.8322,2.7207,0.4059,-3.1239,rough,14.0,0,2.582
2060,65.92,9.6922,-0.0937,2.8351,2.7120,0.3968,3.1382,rough,14.0,0,2.580
2070,66.24,9.6903,-0.0969,2.8327,2.7189,0.4043,-3.1281,rough,14.0,0,2.582
2080,66.56,9.6890,-0.0992,2.8309,2.7243,0.4098,-3.1151,rough,14.0,0,2.583
2090,66.88,9.6922,-0.0935,2.8353,2.7114,0.3964,3.1368,rough,14.0,0,2.580
2100,67.20,9.6914,-0.0948,2.8343,2.7142,0.3995,-3.1394,rough,14.0,0,2.580
2110,67.52,9.6893,-0.0985,2.8314,2.7225,0.4082,-3.1193,rough,14.0,0,2.582
2120,67.84,9.6898,-0.0976,2.8322,2.7204,0.4060,-3.1243,rough,14.0,0,2.582
2130,68.16,9.6920,-0.0938,2.8351,2.7117,0.3969,3.1377,rough,14.0,0,2.580
2140,68.48,9.6901,-0.0969,2.8327,2.7186,0.4043,-3.1285,rough,14.0,0,2.581
2150,68.80,9.6888,-0.0993,2.8309,2.7240,0.4099,-3.1156,rough,14.0,0,2.583
2160,69.12,9.6920,-0.0936,2.8353,2.7111,0.3965,3.1363,rough,14.0,0,2.580
2170,69.44,9.6912,-0.0948,2.8342,2.7139,0.3996,-3.1398,rough,14.0,0,2.580
2180,69.76,9.6891,-0.0985,2.8314,2.7222,0.4083,-3.1198,rough,14.0,0,2.582
2190,70.08,9.6896,-0.0976,2.8321,2.7201,0.4061,-3.1248,rough,14.0,0,2.582
2200,70.40,9.6918,-0.0938,2.8351,2.7114,0.3970,3.1373,rough,14.0,1,7.802
2210,70.72,9.6900,-0.0969,2.8327,2.7183,0.4044,-3.1290,rough,14.0,1,7.803
2220,71.04,9.6896,-0.1014,2.8339,2.7278,0.4349,-3.1093,rough,14.0,1,7.806
2230,71.36,9.6953,-0.1015,2.8324,2.7143,0.3999,3.1359,rough,14.0,1,7.810
2240,71.68,9.6906,-0.1086,2.8280,2.7306,0.4238,-3.1077,rough,14.0,1,7.812
2250,72.00,9.6955,-0.0998,2.8349,2.7103,0.4042,3.1272,rough,14.0,1,7.809
2260,72.32,9.6919,-0.1059,2.8301,2.7242,0.4189,-3.1220,rough,14.0,1,7.811
2270,72.64,9.6928,-0.1042,2.8314,2.7200,0.4150,-3.1316,rough,14.0,1,7.810
2280,72.96,9.6934,-0.1029,2.8324,2.7171,0.4119,-3.1387,rough,14.0,1,7.810
2290,73.28,9.6905,-0.1081,2.8284,2.7288,0.4241,-3.1105,rough,14.0,1,7.812
2300,73.60,9.6947,-0.1004,2.8343,2.7116,0.4061,3.1309,rough,14.0,1,7.809
2310,73.92,9.6903,-0.1082,2.8283,2.7296,0.4242,-3.1094,rough,14.0,1,7.812
2320,74.24,9.6945,-0.1008,2.8340,2.7122,0.4070,3.1326,rough,14.0,1,7.809
2330,74.56,9.6931,-0.1030,2.8323,2.7170,0.4124,-3.1384,rough,14.0,1,7.810
2340,74.88,9.6914,-0.1059,2.8300,2.7239,0.4191,-3.1222,rough,14.0,1,7.811
2350,75.20,9.6923,-0.1042,2.8313,2.7197,0.4153,-3.1319,rough,14.0,1,7.810
2360,75.52,9.6929,-0.1032,2.8321,2.7174,0.4128,-3.1375,rough,14.0,1,7.809
2370,75.84,9.6910,-0.1065,2.8295,2.7248,0.4207,-3.1194,rough,14.0,1,7.811
2380,76.16,9.6898,-0.1086,2.8279,2.7298,0.4256,-3.1077,rough,14.0,1,7.812
2390,76.48,9.6941,-0.1009,2.8338,2.7122,0.4075,3.1331,rough,14.0,1,7.809
2400,76.80,9.6897,-0.1087,2.8278,2.7302,0.4254,-3.1074,rough,14.0,1,7.811
2410,77.12,9.6948,-0.0996,2.8348,2.7091,0.4043,3.1256,rough,14.0,1,7.808
2420,77.44,9.6912,-0.1057,2.8301,2.7230,0.4187,-3.1239,rough,14.0,1,7.810
2430,77.76,9.6920,-0.1040,2.8314,2.7188,0.4150,-3.1333,rough,14.0,1,7.810
2440,78.08,9.6927,-0.1028,2.8322,2.7162,0.4121,-3.1399,rough,14.0,1,7.809
2450,78.40,9.6908,-0.1061,2.8297,2.7236,0.4200,-3.1217,rough,14.0,1,7.810
2460,78.72,9.6895,-0.1083,2.8280,2.7286,0.4250,-3.1099,rough,14.0,1,7.811
2470,79.04,9.6938,-0.1006,2.8339,2.7112,0.4070,3.1312,rough,14.0,1,7.808
2480,79.36,9.6894,-0.1084,2.8279,2.7291,0.4250,-3.1094,rough,14.0,1,7.811
2490,79.68,9.6936,-0.1009,2.8337,2.7117,0.4077,3.1325,rough,14.0,1,7.808
2500,80.00,9.6923,-0.1031,2.8320,2.7164,0.4130,-3.1388,rough,14.0,1,7.809
2510,80.32,9.6906,-0.1060,2.8297,2.7232,0.4197,-3.1227,rough,14.0,1,7.810
2520,80.64,9.6915,-0.1042,2.8311,2.7190,0.4157,-3.1324,rough,14.0,1,7.809
2530,80.96,9.6920,-0.1032,2.8318,2.7166,0.4132,-3.1382,rough,14.0,1,7.809
2540,81.28,9.6902,-0.1064,2.8293,2.7239,0.4210,-3.1203,rough,14.0,1,7.810
2550,81.60,9.6890,-0.1086,2.8277,2.7289,0.4259,-3.1087,rough,14.0,1,7.811
2560,81.92,9.6933,-0.1009,2.8336,2.7113,0.4078,3.1321,rough,14.0,1,7.808
2570,82.24,9.6968,-0.1100,2.8433,2.7374,0.5173,-3.0836,rough,14.0,2,17.020
2580,82.56,9.7145,-0.1265,2.8314,2.6766,0.4031,3.0271,rough,14.0,2,17.040
2590,82.88,9.6940,-0.1510,2.8109,2.7414,0.4572,-3.1122,rough,14.0,2,17.023
2600,83.20,9.6970,-0.1523,2.8118,2.7278,0.4449,3.1328,rough,14.0,2,17.026
2610,83.52,9.6909,-0.1589,2.8063,2.7304,0.4559,-3.1382,rough,14.0,2,17.021
2620,83.84,9.6849,-0.1740,2.7964,2.7360,0.4715,-3.1229,rough,14.0,2,17.017
2630,84.16,9.6811,-0.1754,2.7966,2.7367,0.4887,-3.1164,rough,14.0,2,17.013
2640,84.48,9.6969,-0.1817,2.7920,2.7426,0.4453,3.1143,rough,14.0,2,17.030
2650,84.80,9.6933,-0.2004,2.7845,2.7651,0.4869,-3.0853,rough,14.0,2,17.029
2660,85.12,9.7166,-0.2164,2.7907,2.7714,0.5100,-3.1098,rough,14.0,2,17.054
2670,85.44,9.7347,-0.2267,2.8040,2.7527,0.5487,3.1057,rough,14.0,2,17.074
2680,85.76,9.7609,-0.2360,2.8082,2.8213,0.5683,-3.0323,rough,14.0,2,17.101
2690,86.08,9.7429,-0.2283,2.8036,2.7877,0.5583,-3.1356,rough,14.0,2,17.082
2700,86.40,9.7664,-0.2253,2.8155,2.7900,0.5398,-3.1166,rough,14.0,2,17.105
2710,86.72,9.7812,-0.2205,2.8236,2.7878,0.5215,-3.1254,rough,14.0,2,17.119
2720,87.04,9.7960,-0.2162,2.8314,2.7871,0.5041,-3.1317,rough,14.0,2,17.133
2730,87.36,9.7959,-0.2116,2.8330,2.7900,0.5018,-3.1302,rough,14.0,2,17.132
2740,87.68,9.8112,-0.2106,2.8389,2.8102,0.4982,-3.0843,rough,14.0,2,17.147
2750,88.00,9.8124,-0.2049,2.8421,2.7964,0.4849,-3.1224,rough,14.0,2,17.148
2760,88.32,9.8084,-0.1998,2.8426,2.7913,0.4815,-3.1397,rough,14.0,2,17.143
2770,88.64,9.8278,-0.1995,2.8498,2.8137,0.4759,-3.0881,rough,14.0,2,17.162
2780,88.96,9.8271,-0.1952,2.8514,2.8098,0.4709,-3.1019,rough,14.0,2,17.161
2790,89.28,9.8226,-0.1890,2.8525,2.7948,0.4616,3.1401,rough,14.0,2,17.155
2800,89.60,9.8420,-0.1888,2.8598,2.8161,0.4557,-3.0937,rough,14.0,2,17.175
2810,89.92,9.8370,-0.1847,2.8595,2.8106,0.4538,-3.1110,rough,14.0,2,17.169
