step,time_s,x,y,z,roll,pitch,yaw,terrain,speed,target_idx,dist_to_target
10,0.32,0.8117,-0.7260,0.3261,-0.0674,-0.2680,-0.2195,slope,18.0,0,5.911
20,0.64,1.0275,-0.8019,0.3758,0.0151,-0.2490,-0.3498,slope,18.0,0,5.698
30,0.96,1.3839,-0.9756,0.4932,0.0625,-0.3310,-0.4997,slope,18.0,0,5.315
40,1.28,1.7330,-1.2237,0.6456,0.1342,-0.3679,-0.6694,slope,18.0,0,4.890
50,1.60,2.0669,-1.5468,0.8107,0.2099,-0.3548,-0.7920,slope,18.0,0,4.426
60,1.92,2.3954,-1.9260,0.9867,0.2505,-0.3339,-0.8644,slope,18.0,0,3.928
70,2.24,2.7372,-2.3468,1.1572,0.2639,-0.2940,-0.8787,slope,18.0,0,3.395
80,2.56,3.0889,-2.7701,1.3156,0.2685,-0.2690,-0.8560,slope,18.0,0,2.855
90,2.88,3.4455,-3.1789,1.4557,0.2643,-0.2532,-0.8176,slope,18.0,0,2.325
100,3.20,3.8194,-3.5706,1.5912,0.2615,-0.2499,-0.7765,slope,18.0,0,1.797
110,3.52,4.1700,-3.9111,1.7135,0.2511,-0.2485,-0.7483,slope,18.0,0,1.323
120,3.84,4.4795,-4.1983,1.8211,0.2459,-0.2554,-0.7182,slope,18.0,1,12.209
130,4.16,4.6916,-4.3851,1.8953,0.1646,-0.3201,-0.4277,slope,18.0,1,12.449
140,4.48,4.8715,-4.4802,1.9600,-0.0839,-0.3470,0.2995,slope,18.0,1,12.594
150,4.80,5.1467,-4.3100,2.0647,-0.1717,-0.3131,0.5581,slope,18.0,1,12.520
160,5.12,5.5329,-4.0256,2.2093,-0.2040,-0.2852,0.6517,slope,18.0,1,12.387
170,5.44,5.9026,-3.7033,2.3414,-0.2356,-0.2576,0.7481,slope,18.0,1,12.230
180,5.76,6.2591,-3.3436,2.4694,-0.2573,-0.2232,0.8530,slope,18.0,1,12.052
190,6.08,6.5771,-2.9455,2.5768,-0.2786,-0.1920,0.9564,slope,18.0,1,11.841
200,6.40,6.8477,-2.5178,2.6630,-0.2843,-0.1549,1.0595,rough,14.0,1,11.599
210,6.72,7.0253,-2.1458,2.7191,-0.2978,-0.1250,1.1514,rough,14.0,1,11.371
220,7.04,7.1752,-1.7581,2.7643,-0.3030,-0.1038,1.2176,rough,14.0,1,11.126
230,7.36,7.3027,-1.3582,2.8021,-0.3049,-0.0876,1.2761,rough,14.0,1,10.869
240,7.68,7.3973,-0.9571,2.8299,-0.3083,-0.0602,1.3659,rough,14.0,1,10.601
250,8.00,7.4288,-0.5584,2.8387,-0.3129,-0.0111,1.5311,rough,14.0,1,10.305
260,8.32,7.3765,-0.1644,2.8219,-0.3097,0.0513,1.7363,rough,14.0,1,9.966
270,8.64,7.2709,0.2479,2.7893,-0.3056,0.0761,1.8217,rough,14.0,1,9.582
280,8.96,7.1397,0.7018,2.7485,-0.3009,0.0841,1.8493,slope,18.0,1,9.155
290,9.28,6.9728,1.2402,2.6974,-0.3085,0.0793,1.8783,slope,18.0,1,8.646
300,9.60,6.7960,1.7609,2.6449,-0.3090,0.1043,1.9093,slope,18.0,1,8.150
310,9.92,6.6161,2.2436,2.5880,-0.3127,0.1162,1.9400,slope,18.0,1,7.685
320,10.24,6.4124,2.7282,2.5203,-0.3059,0.1400,1.9945,slope,18.0,1,7.208
330,10.56,6.1704,3.1998,2.4344,-0.2981,0.1818,2.0904,slope,18.0,1,6.717
340,10.88,5.8835,3.6645,2.3324,-0.2925,0.2004,2.1446,slope,18.0,1,6.201
350,11.20,5.5725,4.0009,2.2239,-0.3768,0.1063,1.9821,slope,18.0,1,5.749
360,11.52,5.3245,4.2306,2.1198,-0.3630,-0.0152,1.4925,rough,14.0,1,5.412
370,11.84,5.2831,4.6243,2.0994,-0.3670,0.0382,1.6260,rough,14.0,1,5.149
380,12.16,5.2130,5.0594,2.0668,-0.3628,0.0813,1.7487,slope,18.0,1,4.857
390,12.48,5.0771,5.5949,2.0072,-0.3601,0.1195,1.8429,slope,18.0,1,4.487
400,12.80,4.9023,6.1168,1.9311,-0.3532,0.1460,1.9138,slope,18.0,1,4.126
410,13.12,4.6873,6.6176,1.8400,-0.3435,0.1743,2.0005,slope,18.0,1,3.775
420,13.44,4.4411,7.0995,1.7370,-0.3302,0.1941,2.0817,slope,18.0,1,3.447
430,13.76,4.1604,7.5523,1.6238,-0.3112,0.2270,2.1818,slope,18.0,1,3.142
440,14.08,3.8597,7.9626,1.5051,-0.3056,0.2280,2.2139,slope,18.0,1,2.877
450,14.40,3.5919,8.2987,1.4026,-0.2928,0.2416,2.2728,slope,18.0,1,2.691
460,14.72,3.3521,8.5706,1.3124,-0.2731,0.2582,2.3571,slope,18.0,1,2.563
470,15.04,3.1226,8.7774,1.2274,-0.2459,0.2815,2.4653,slope,18.0,1,2.456
480,15.36,2.9136,8.9441,1.1508,-0.2113,0.3124,2.6033,slope,18.0,1,2.376
490,15.68,2.7190,9.0654,1.0792,-0.1624,0.3307,2.7526,slope,18.0,1,2.304
500,16.00,2.5165,9.1327,1.0040,-0.1328,0.3419,2.8472,slope,18.0,1,2.208
510,16.32,2.3296,9.1730,0.9343,-0.0871,0.3538,2.9814,slope,18.0,1,2.118
520,16.64,2.1252,9.1978,0.8581,-0.0799,0.3527,3.0059,slope,18.0,1,2.018
530,16.96,1.9192,9.2169,0.7815,-0.0805,0.3516,3.0061,slope,18.0,1,1.930
540,17.28,1.7210,9.2375,0.7083,-0.0733,0.3509,3.0295,slope,18.0,1,1.865
550,17.60,1.5256,9.2543,0.6363,-0.0665,0.3504,3.0509,slope,18.0,1,1.817
560,17.92,1.3316,9.2678,0.5651,-0.0611,0.3508,3.0683,slope,18.0,1,1.786
570,18.24,1.1393,9.2786,0.4949,-0.0566,0.3485,3.0823,slope,18.0,1,1.773
580,18.56,0.9475,9.2874,0.4252,-0.0531,0.3479,3.0932,slope,18.0,1,1.779
590,18.88,0.7565,9.2946,0.3561,-0.0502,0.3470,3.1019,slope,18.0,1,1.804
600,19.20,0.5663,9.3006,0.2875,-0.0479,0.3442,3.1088,slope,18.0,1,1.847
610,19.52,0.3758,9.3057,0.2191,-0.0460,0.3446,3.1139,slope,18.0,1,1.908
620,19.84,0.2023,9.3051,0.1699,-0.0366,0.2618,-3.1397,slope,18.0,1,1.972
630,20.16,0.0284,9.3037,0.1248,-0.0328,0.1554,-3.1204,slope,18.0,1,2.049
640,20.48,-0.1412,9.2690,0.1009,-0.0233,0.1682,-2.9710,slope,18.0,1,2.107
650,20.80,-0.3219,9.2368,0.0862,-0.0364,0.0765,-2.9315,slope,18.0,1,2.186
660,21.12,-0.5010,9.1986,0.0735,-0.0266,-0.0088,-2.8464,flat,18.0,1,2.272
670,21.44,-0.6816,9.1319,0.0759,-0.0351,-0.0037,-2.7642,flat,18.0,1,2.350
680,21.76,-0.8547,9.0622,0.0770,-0.0355,-0.0041,-2.6943,rough,14.0,1,2.433
690,22.08,-1.0098,8.9749,0.0777,-0.0337,-0.0013,-2.5909,flat,18.0,1,2.502
700,22.40,-1.1852,8.8570,0.0784,-0.0401,-0.0109,-2.5067,flat,18.0,1,2.583
710,22.72,-1.3916,8.6999,0.0794,-0.0326,-0.0059,-2.4382,flat,18.0,1,2.688
720,23.04,-1.6310,8.4875,0.0820,-0.0319,-0.0097,-2.3855,flat,18.0,1,2.824
730,23.36,-1.8975,8.2294,0.0865,-0.0310,-0.0142,-2.3449,flat,18.0,1,3.004
740,23.68,-2.1988,7.9119,0.0939,-0.0303,-0.0203,-2.3167,flat,18.0,1,3.243
750,24.00,-2.5478,7.5306,0.1057,-0.0292,-0.0256,-2.3052,flat,18.0,1,3.567
760,24.32,-2.8548,7.1896,0.1183,-0.0285,-0.0284,-2.2865,flat,18.0,1,3.887
770,24.64,-3.0342,6.9338,0.1263,-0.0345,-0.0199,-1.9880,flat,18.0,1,4.094
780,24.96,-3.0905,6.6687,0.1302,-0.0379,-0.0125,-1.7134,rough,14.0,1,4.195
790,25.28,-3.1133,6.3677,0.1334,-0.0371,-0.0099,-1.6231,rough,14.0,1,4.287
800,25.60,-3.1061,6.1029,0.1357,-0.0364,-0.0035,-1.3829,rough,14.0,1,4.358
810,25.92,-3.0665,5.9840,0.1354,-0.0302,0.0202,-0.6409,flat,18.0,1,4.361
820,26.24,-2.8294,5.9270,0.1287,0.0023,0.0343,0.5027,flat,18.0,1,4.161
830,26.56,-2.5788,6.1103,0.1169,0.0185,0.0333,0.8511,flat,18.0,1,3.860
840,26.88,-2.2759,6.4325,0.1028,0.0116,0.0338,0.7291,flat,18.0,1,3.466
850,27.20,-1.8818,6.7331,0.0860,0.0057,0.0335,0.5390,flat,18.0,1,3.003
860,27.52,-1.4186,6.9869,0.0693,0.0020,0.0308,0.3642,flat,18.0,1,2.493
870,27.84,-0.9325,7.1599,0.0549,0.0013,0.0257,0.2894,transition,15.0,1,1.982
880,28.16,-0.4400,7.3086,0.0443,0.0016,0.0191,0.2855,slope,18.0,1,1.473
890,28.48,-0.0304,7.4378,0.0808,-0.0424,-0.1599,0.2849,slope,18.0,1,1.052
900,28.80,0.2969,7.5356,0.1613,-0.0264,-0.3555,0.2572,slope,18.0,2,14.903
910,29.12,0.7547,7.6585,0.3166,-0.0672,-0.3432,0.2156,slope,18.0,2,15.260
920,29.44,1.2380,7.7608,0.4954,-0.0631,-0.3492,0.1991,slope,18.0,2,15.622
930,29.76,1.7005,7.8495,0.6683,-0.0541,-0.3551,0.1759,slope,18.0,2,15.968
940,30.08,2.1443,7.9250,0.8365,-0.0443,-0.3606,0.1505,slope,18.0,2,16.298
950,30.40,2.5692,7.9884,0.9996,-0.0391,-0.3652,0.1381,slope,18.0,2,16.612
960,30.72,2.9790,8.0448,1.1588,-0.0349,-0.3703,0.1254,slope,18.0,2,16.916
970,31.04,3.3757,8.0943,1.3146,-0.0311,-0.3752,0.1122,slope,18.0,2,17.212
980,31.36,3.7612,8.1375,1.4675,-0.0277,-0.3773,0.0992,slope,18.0,2,17.499
990,31.68,4.1367,8.1746,1.6175,-0.0243,-0.3796,0.0866,slope,18.0,2,17.778
1000,32.00,4.5034,8.2063,1.7647,-0.0210,-0.3825,0.0747,slope,18.0,2,18.051
1010,32.32,4.8629,8.2330,1.9097,-0.0182,-0.3838,0.0637,slope,18.0,2,18.319
1020,32.64,5.2159,8.2555,2.0527,-0.0159,-0.3852,0.0538,slope,18.0,2,18.583
1030,32.96,5.5634,8.2743,2.1938,-0.0144,-0.3867,0.0451,slope,18.0,2,18.843
1040,33.28,5.9064,8.2898,2.3335,-0.0130,-0.3868,0.0376,slope,18.0,2,19.100
1050,33.60,6.2452,8.3027,2.4718,-0.0124,-0.3886,0.0313,slope,18.0,2,19.355
1060,33.92,6.5806,8.3135,2.6091,-0.0127,-0.3898,0.0261,slope,18.0,2,19.609
1070,34.24,6.9060,8.3222,2.7429,-0.0126,-0.3915,0.0216,rough,14.0,2,19.856
1080,34.56,7.1575,8.3280,2.8470,-0.0130,-0.3937,0.0183,rough,14.0,2,20.048
1090,34.88,7.4061,8.3328,2.9507,-0.0132,-0.3985,0.0156,rough,14.0,2,20.238
1100,35.20,7.6538,8.3371,3.0549,-0.0145,-0.4001,0.0136,rough,14.0,2,20.429
1110,35.52,7.8732,8.3410,3.1638,-0.0171,-0.5033,0.0180,rough,14.0,2,20.599
1120,35.84,8.1854,8.2724,3.2587,0.2886,-0.1931,-0.0221,rough,14.0,2,20.795
1130,36.16,8.3196,8.2202,3.2848,0.3380,-0.6328,-0.1258,rough,14.0,2,20.866
1140,36.48,8.4518,8.1493,3.3511,0.4656,-0.6869,-0.2790,rough,14.0,2,20.925
1150,36.80,8.4776,8.0504,3.3380,0.5025,-0.6689,-0.3455,rough,14.0,2,20.884
1160,37.12,8.4722,7.9050,3.2513,0.5660,-0.5891,-0.3765,rough,14.0,2,20.789
1170,37.44,8.5631,7.7775,3.2495,0.6424,-0.3531,-0.4797,rough,14.0,2,20.783
1180,37.76,8.7111,7.6355,3.2943,0.6812,-0.2125,-0.5464,rough,14.0,2,20.814
1190,38.08,8.8612,7.4628,3.2743,0.7977,-0.1593,-0.5920,rough,14.0,2,20.831
1200,38.40,8.9812,7.3109,3.2513,0.8038,-0.1756,-0.7080,rough,14.0,2,20.838
1210,38.72,9.0907,7.1348,3.2050,0.7885,-0.0782,-0.7232,rough,14.0,2,20.825
1220,39.04,9.1816,6.9364,3.1379,0.8271,-0.0105,-0.6703,rough,14.0,2,20.785
1230,39.36,9.2187,6.7390,3.0230,0.8068,-0.1215,-0.5802,rough,14.0,2,20.704
1240,39.68,9.2372,6.6132,2.9687,0.8442,0.0162,-0.6372,rough,14.0,2,20.649
1250,40.00,9.2923,6.5024,2.9357,0.8804,0.1130,-0.7931,rough,14.0,2,20.633
1260,40.32,9.3190,6.3691,2.8695,0.8783,0.2983,-0.9615,rough,14.0,2,20.582
1270,40.64,9.3400,6.2532,2.8159,0.8466,0.3414,-1.1231,rough,14.0,2,20.536
1280,40.96,9.3562,6.1379,2.7590,0.8114,0.3282,-1.2506,rough,14.0,2,20.487
1290,41.28,9.3754,6.0230,2.6975,0.7435,0.2963,-1.3419,rough,14.0,2,20.442
1300,41.60,9.3931,5.8951,2.6549,0.6933,0.4025,-1.4032,rough,14.0,2,20.389
1310,41.92,9.3926,5.8204,2.6337,0.6803,0.3573,-1.4660,rough,14.0,2,20.349
1320,42.24,9.4004,5.7559,2.6140,0.6355,0.2903,-1.5284,rough,14.0,2,20.321
1330,42.56,9.4118,5.6814,2.5958,0.6003,0.2420,-1.6543,rough,14.0,2,20.292
1340,42.88,9.3995,5.6141,2.5805,0.6263,0.1747,-1.7394,rough,14.0,2,20.247
1350,43.20,9.3864,5.5426,2.5652,0.6319,0.1243,-1.7732,rough,14.0,2,20.198
1360,43.52,9.3814,5.4559,2.5515,0.5855,0.1195,-1.7816,rough,14.0,2,20.149
1370,43.84,9.3895,5.3861,2.5542,0.5029,0.0192,-1.9512,rough,14.0,2,20.120
1380,44.16,9.3819,5.3193,2.5507,0.4209,-0.1408,-2.0876,rough,14.0,2,20.080
1390,44.48,9.3565,5.2454,2.5533,0.3619,-0.2770,-2.1727,rough,14.0,2,20.020
1400,44.80,9.3171,5.1665,2.5639,0.3431,-0.4014,-2.2508,rough,14.0,2,19.946
1410,45.12,9.2737,5.0499,2.5829,0.1558,-0.3987,-2.2482,rough,14.0,2,19.850
1420,45.44,9.2258,4.9268,2.5945,-0.0596,-0.3827,-2.2349,rough,14.0,2,19.747
1430,45.76,9.2095,4.8548,2.6226,-0.2321,-0.6001,-2.1820,rough,14.0,2,19.697
1440,46.08,9.1334,4.7698,2.6798,-0.1650,-0.5935,-2.1633,rough,14.0,2,19.589
1450,46.40,9.0571,4.6862,2.7548,-0.0730,-0.6737,-2.1798,rough,14.0,2,19.481
1460,46.72,8.9917,4.5807,2.8477,-0.0660,-0.7192,-2.2155,rough,14.0,2,19.373
1470,47.04,8.9128,4.4555,2.9585,-0.1181,-0.7248,-2.2387,rough,14.0,2,19.242
1480,47.36,8.8253,4.3397,3.0774,-0.1552,-0.7246,-2.2333,rough,14.0,2,19.110
1490,47.68,8.7220,4.2005,3.2084,-0.1816,-0.6682,-2.2460,rough,14.0,2,18.952
1500,48.00,8.6074,4.0615,3.3454,-0.1402,-0.6164,-2.2879,rough,14.0,2,18.785
1510,48.32,8.4408,3.8821,3.4939,-0.0914,-0.4485,-2.3398,rough,14.0,2,18.553
1520,48.64,8.1546,3.6707,3.4273,0.5593,0.0797,-2.1337,rough,14.0,2,18.201
1530,48.96,7.7385,3.2857,3.0969,1.0025,0.1113,-1.4556,rough,14.0,2,17.653
1540,49.28,7.3763,2.9485,2.8676,2.4962,-0.0288,-1.3605,rough,14.0,2,17.176
1550,49.60,6.9844,2.8708,2.6617,-2.4926,-0.3274,-1.4051,slope,18.0,2,16.792
1560,49.92,6.7656,3.0183,2.4774,-2.8096,0.0620,-1.7349,slope,18.0,2,16.668
1570,50.24,6.8107,3.2985,2.4959,-2.8465,0.1929,-2.0811,slope,18.0,2,16.843
1580,50.56,6.9048,3.4935,2.5342,-2.9088,0.2633,-2.3665,rough,14.0,2,17.021
1590,50.88,7.0466,3.6214,2.5881,-2.9830,0.3172,-2.6284,rough,14.0,2,17.207
1600,51.20,7.2063,3.7037,2.6484,-3.1274,0.3525,-3.0571,rough,14.0,2,17.387
1610,51.52,7.2105,3.7469,2.6491,2.9209,0.2695,2.5046,rough,14.0,2,17.412
1620,51.84,7.2279,3.7287,2.6566,2.8321,0.1755,2.1200,rough,14.0,2,17.418
1630,52.16,7.2224,3.6953,2.6539,2.8918,0.2514,2.3961,rough,14.0,2,17.397
1640,52.48,7.2190,3.6658,2.6522,2.9339,0.2858,2.5503,rough,14.0,2,17.379
1650,52.80,7.2212,3.6352,2.6524,2.9054,0.2623,2.4447,rough,14.0,2,17.366
1660,53.12,7.1583,3.6276,2.6293,2.9834,0.3145,2.7116,rough,14.0,2,17.307
1670,53.44,7.1176,3.6269,2.6143,2.9778,0.3122,2.6929,rough,14.0,2,17.272
1680,53.76,7.0665,3.6256,2.5955,2.9248,0.2798,2.5134,rough,14.0,2,17.227
1690,54.08,7.0154,3.6266,2.5769,2.9769,0.3134,2.6890,rough,14.0,2,17.183
1700,54.40,6.9526,3.6247,2.5540,2.9080,0.2660,2.4450,rough,14.0,2,17.127
1710,54.72,6.9117,3.6246,2.5390,2.9374,0.2881,2.5491,slope,18.0,2,17.092
1720,55.04,6.8238,3.6223,2.5068,3.0272,0.3335,2.8287,rough,14.0,2,17.015
1730,55.36,6.7787,3.6217,2.4904,3.0095,0.3264,2.7713,rough,14.0,2,16.975
1740,55.68,6.7298,3.6234,2.4710,2.9655,0.3087,2.6510,rough,14.0,2,16.934
1750,56.00,6.6881,3.6229,2.4570,3.0034,0.3237,2.7510,rough,14.0,2,16.898
1760,56.32,6.6375,3.6226,2.4383,2.9543,0.2979,2.5914,slope,18.0,2,16.854
1770,56.64,6.5948,3.6229,2.4229,2.9978,0.3220,2.7312,slope,18.0,2,16.817
1780,56.96,6.5318,3.6211,2.3996,2.9081,0.2662,2.4249,slope,18.0,2,16.762
1790,57.28,6.5307,3.6203,2.3993,2.8411,0.1875,2.1270,slope,18.0,2,16.761
1800,57.60,6.5013,3.6143,2.3885,2.9198,0.2758,2.4673,slope,18.0,2,16.732
1810,57.92,6.4612,3.6143,2.3739,2.9333,0.2858,2.5137,slope,18.0,2,16.698
1820,58.24,6.3931,3.6127,2.3490,2.8470,0.1949,2.1524,slope,18.0,2,16.638
1830,58.56,6.3400,3.6125,2.3296,2.9095,0.2653,2.4179,slope,18.0,2,16.593
1840,58.88,6.3033,3.6113,2.3162,2.9233,0.2765,2.4623,slope,18.0,2,16.561
1850,59.20,6.2418,3.6092,2.2934,2.8180,0.1428,1.9751,slope,18.0,2,16.507
1860,59.52,6.2303,3.5977,2.2891,2.8277,0.1606,2.0325,slope,18.0,2,16.491
1870,59.84,6.1738,3.5964,2.2683,2.9031,0.2593,2.3854,slope,18.0,2,16.442
1880,60.16,6.1656,3.5967,2.2653,2.8328,0.1709,2.0607,slope,18.0,2,16.435
1890,60.48,6.1606,3.5988,2.2637,2.8133,0.1297,1.9313,slope,18.0,2,16.432
1900,60.80,6.1315,3.5966,2.2527,2.8912,0.2485,2.3371,slope,18.0,3,16.844
1910,61.12,6.0669,3.5934,2.2293,2.9727,0.3101,2.6269,slope,18.0,3,16.787
1920,61.44,6.0194,3.5904,2.2118,2.8907,0.2495,2.3321,slope,18.0,3,16.745
1930,61.76,6.0177,3.5878,2.2112,2.8870,0.2456,2.3164,slope,18.0,3,16.742
1940,62.08,5.9661,3.5867,2.1925,2.9608,0.3049,2.5857,slope,18.0,3,16.697
1950,62.40,5.8998,3.5829,2.1683,2.8759,0.2345,2.2657,slope,18.0,3,16.638
1960,62.72,5.8656,3.5799,2.1558,2.8697,0.2267,2.2382,slope,18.0,3,16.607
1970,63.04,5.8070,3.5778,2.1342,2.9458,0.2943,2.5248,slope,18.0,3,16.555
1980,63.36,5.7470,3.5763,2.1122,2.8534,0.2057,2.1581,slope,18.0,3,16.503
1990,63.68,5.7150,3.5717,2.1003,2.8122,0.1277,1.9084,slope,18.0,3,16.473
2000,64.00,5.6632,3.5744,2.0811,2.8980,0.2565,2.3473,slope,18.0,3,16.430
2010,64.32,5.6347,3.5718,2.0707,2.8953,0.2538,2.3352,slope,18.0,3,16.404
2020,64.64,5.6325,3.5733,2.0699,2.8123,0.1306,1.9114,slope,18.0,3,16.403
2030,64.96,5.6259,3.5760,2.0676,2.8147,0.1361,1.9282,slope,18.0,3,16.399
2040,65.28,5.5858,3.5799,2.0525,2.9138,0.2710,2.4060,slope,18.0,3,16.367
2050,65.60,5.5278,3.5784,2.0315,2.9820,0.3170,2.6383,slope,18.0,3,16.316
2060,65.92,5.4604,3.5752,2.0066,2.8801,0.2408,2.2704,slope,18.0,3,16.257
2070,66.24,5.4529,3.5724,2.0039,2.8592,0.2153,2.1764,slope,18.0,3,16.249
2080,66.56,5.3928,3.5705,1.9819,2.9550,0.3026,2.5474,slope,18.0,3,16.197
2090,66.88,5.3420,3.5702,1.9632,2.8970,0.2583,2.3368,slope,18.0,3,16.154
2100,67.20,5.2988,3.5705,1.9473,2.8563,0.2122,2.1616,slope,18.0,3,16.117
2110,67.52,5.2472,3.5694,1.9282,2.9231,0.2804,2.4308,slope,18.0,3,16.072
2120,67.84,5.2064,3.5703,1.9130,2.8404,0.1896,2.0810,slope,18.0,3,16.038
2130,68.16,5.1902,3.5733,1.9070,2.8275,0.1673,2.0086,slope,18.0,3,16.026
2140,68.48,5.1233,3.5726,1.8821,2.9355,0.2901,2.4732,slope,18.0,3,15.969
2150,68.80,5.0807,3.5702,1.8665,2.9702,0.3121,2.5886,slope,18.0,3,15.932
2160,69.12,5.0328,3.5689,1.8487,2.8725,0.2349,2.2310,slope,18.0,3,15.890
2170,69.44,5.0192,3.5680,1.8437,2.9239,0.2831,2.4313,slope,18.0,3,15.878
2180,69.76,4.9693,3.5676,1.8254,2.9767,0.3175,2.6093,slope,18.0,3,15.836
2190,70.08,4.9158,3.5673,1.8054,2.8661,0.2294,2.2029,slope,18.0,3,15.790
2200,70.40,4.9098,3.5693,1.8032,2.8618,0.2239,2.1831,slope,18.0,3,15.786
2210,70.72,4.8658,3.5687,1.7868,2.9537,0.3053,2.5330,slope,18.0,3,15.749
2220,71.04,4.8546,3.5699,1.7827,2.8753,0.2409,2.2433,slope,18.0,3,15.740
2230,71.36,4.8397,3.5698,1.7772,2.8526,0.2127,2.1422,slope,18.0,3,15.728
2240,71.68,4.8285,3.5702,1.7730,2.9393,0.2963,2.4835,slope,18.0,3,15.718
2250,72.00,4.8172,3.5717,1.7687,2.8621,0.2252,2.1859,slope,18.0,3,15.710
2260,72.32,4.8000,3.5722,1.7623,2.8376,0.1907,2.0680,slope,18.0,0,8.111
2270,72.64,4.7655,3.5759,1.7493,2.7913,0.0732,1.7209,slope,18.0,0,8.117
2280,72.96,4.6685,3.5629,1.7132,2.8146,-0.1476,1.1133,slope,18.0,0,8.112
2290,73.28,4.6107,3.5466,1.6921,2.7854,-0.0363,1.4243,slope,18.0,0,8.100
2300,73.60,4.5671,3.5369,1.6760,2.7896,-0.0674,1.3395,rough,14.0,0,8.095
2310,73.92,4.5119,3.5316,1.6554,2.8285,-0.1776,1.0219,slope,18.0,0,8.095
2320,74.24,4.4594,3.5197,1.6360,2.7873,-0.0586,1.3641,slope,18.0,0,8.089
2330,74.56,4.4118,3.5173,1.6180,2.8411,-0.2007,0.9497,slope,18.0,0,8.092
2340,74.88,4.4022,3.5168,1.6146,2.8699,-0.2389,0.8163,slope,18.0,0,8.092
2350,75.20,4.3722,3.5142,1.6032,2.7967,-0.1058,1.2355,slope,18.0,0,8.093
2360,75.52,4.3559,3.5147,1.5972,2.8285,-0.1817,1.0117,slope,18.0,0,8.096
2370,75.84,4.3519,3.5138,1.5958,2.9433,-0.3037,0.5384,slope,18.0,0,8.095
2380,76.16,4.3495,3.5248,1.5946,2.8610,-0.2298,0.8512,slope,18.0,0,8.107
2390,76.48,4.2905,3.5226,1.5721,2.7810,-0.0115,1.4888,slope,18.0,0,8.112
2400,76.80,4.2434,3.5189,1.5548,2.7816,0.0331,1.6069,rough,14.0,0,8.114
2410,77.12,4.1521,3.5132,1.5204,2.8238,-0.1769,1.0282,slope,18.0,0,8.122
2420,77.44,4.1346,3.5175,1.5138,2.7883,-0.0827,1.2988,slope,18.0,0,8.128
2430,77.76,4.0789,3.5101,1.4929,2.7823,0.0501,1.6523,rough,14.0,0,8.130
2440,78.08,3.9908,3.5030,1.4594,2.8238,-0.1778,1.0286,slope,18.0,0,8.137
2450,78.40,3.9601,3.5065,1.4479,2.8730,-0.2472,0.7947,slope,18.0,0,8.145
2460,78.72,3.9493,3.5089,1.4437,2.8013,-0.1292,1.1722,slope,18.0,0,8.150
2470,79.04,3.9416,3.5167,1.4408,2.8080,-0.1460,1.1236,slope,18.0,0,8.159
2480,79.36,3.9323,3.5258,1.4369,2.8977,-0.2720,0.6971,slope,18.0,0,8.169
2490,79.68,3.9308,3.5289,1.4364,2.8399,-0.2061,0.9400,slope,18.0,0,8.172
2500,80.00,3.9064,3.5355,1.4270,2.7876,-0.0845,1.2979,slope,18.0,0,8.183
2510,80.32,3.9040,3.5407,1.4260,2.7890,-0.0901,1.2825,slope,18.0,0,8.189
2520,80.64,3.8608,3.5234,1.4096,2.7831,0.0649,1.6921,rough,14.0,0,8.180
2530,80.96,3.7740,3.5087,1.3770,2.9706,0.3269,2.5999,slope,18.0,0,8.181
2540,81.28,3.7845,3.5096,1.3813,2.9141,0.2902,2.4130,slope,18.0,0,8.180
2550,81.60,3.7717,3.5122,1.3757,2.7795,0.0514,1.6544,slope,18.0,0,8.185
2560,81.92,3.6541,3.4964,1.3314,2.8308,-0.1981,0.9761,slope,18.0,0,8.193
2570,82.24,3.6469,3.5006,1.3288,2.7913,-0.1146,1.2226,slope,18.0,0,8.199
2580,82.56,3.5874,3.5172,1.3056,2.7825,0.0765,1.7282,slope,18.0,0,8.227
2590,82.88,3.5471,3.5113,1.2905,2.7812,0.0694,1.7109,slope,18.0,0,8.230
2600,83.20,3.5018,3.5082,1.2732,2.7750,0.0107,1.5578,rough,14.0,0,8.237
2610,83.52,3.4594,3.5041,1.2570,2.7822,0.0733,1.7229,slope,18.0,0,8.243
2620,83.84,3.3733,3.4999,1.2208,2.8122,-0.1319,1.1808,slope,18.0,0,8.259
2630,84.16,3.3590,3.4857,1.2184,2.7851,-0.0851,1.3088,slope,18.0,1,4.655
2640,84.48,3.3027,3.3005,1.1967,2.7753,-0.0592,1.4318,slope,18.0,1,4.789
2650,84.80,3.2315,2.9519,1.1702,2.7727,-0.0808,1.3514,slope,18.0,1,5.067
2660,85.12,3.1135,2.5814,1.1192,2.7808,-0.1652,1.2397,slope,18.0,1,5.355
2670,85.44,2.9491,2.2246,1.0382,2.7978,-0.2237,1.1297,slope,18.0,1,5.627
2680,85.76,2.7814,1.8905,0.9510,2.8024,-0.2381,1.1083,slope,18.0,1,5.889
2690,86.08,2.5991,1.5452,0.8492,2.8031,-0.2705,1.0899,slope,18.0,1,6.170
2700,86.40,2.4035,1.1880,0.7346,2.8105,-0.2803,1.0635,slope,18.0,1,6.472
2710,86.72,2.1970,0.8403,0.6174,2.8237,-0.2805,1.0272,slope,18.0,1,6.773
2720,87.04,1.9830,0.4939,0.5040,2.8274,-0.2667,0.9953,slope,18.0,1,7.082
2730,87.36,1.7490,0.1614,0.4026,2.8497,-0.2253,0.9437,slope,18.0,1,7.385
2740,87.68,1.4994,-0.1605,0.3115,2.8746,-0.1899,0.8953,slope,18.0,1,7.685
2750,88.00,1.2296,-0.4708,0.2443,2.9026,-0.1277,0.8426,slope,18.0,1,7.983
2760,88.32,0.9469,-0.7720,0.1889,2.9431,-0.1049,0.7967,slope,18.0,1,8.282
2770,88.64,0.6455,-1.0593,0.1535,2.9611,-0.0716,0.7514,slope,18.0,1,8.577
2780,88.96,0.3373,-1.3359,0.1204,3.0269,-0.0736,0.7172,slope,18.0,1,8.872
2790,89.28,0.0171,-1.5993,0.0961,3.0585,-0.0434,0.6781,slope,18.0,1,9.164
2800,89.60,-0.2688,-1.7911,0.0859,3.1120,-0.0418,0.5349,rough,14.0,1,9.390
2810,89.92,-0.5236,-1.8909,0.0734,-3.1234,0.0087,0.3758,rough,14.0,1,9.526
