step,time_s,x,y,z,roll,pitch,yaw,terrain,speed,target_idx,dist_to_target
10,0.32,-0.1721,1.3866,0.3184,0.1534,-0.1031,0.0017,slope,18.0,0,4.199
20,0.64,-0.0091,1.3763,0.3246,0.1596,-0.0925,0.0512,rough,14.0,0,4.251
30,0.96,0.2347,1.3720,0.3374,0.1600,-0.1155,0.4227,rough,14.0,0,4.328
40,1.28,0.4302,1.4909,0.3653,0.1292,-0.1215,0.6591,rough,14.0,0,4.286
50,1.60,0.6254,1.6934,0.3855,0.0944,-0.0396,0.9164,rough,14.0,0,4.179
60,1.92,0.8471,2.0044,0.3668,0.2289,0.2259,1.1507,rough,14.0,0,4.008
70,2.24,0.9706,2.3166,0.2932,0.2954,0.1609,1.4936,rough,14.0,0,3.811
80,2.56,1.0277,2.5967,0.2246,0.3522,0.1212,1.9478,rough,14.0,0,3.617
90,2.88,1.0503,2.5939,0.2237,0.3683,0.0563,1.9695,rough,14.0,0,3.634
100,3.20,1.0559,2.5984,0.2175,0.3679,0.0713,1.9928,rough,14.0,0,3.633
110,3.52,1.0554,2.5977,0.2188,0.3674,0.0669,1.9873,rough,14.0,0,3.634
120,3.84,1.0563,2.5986,0.2165,0.3678,0.0766,1.9935,rough,14.0,0,3.633
130,4.16,1.0582,2.6006,0.2149,0.3681,0.0784,1.9992,rough,14.0,0,3.633
140,4.48,1.0539,2.5965,0.2225,0.3667,0.0526,1.9753,rough,14.0,0,3.634
150,4.80,1.0573,2.5996,0.2161,0.3678,0.0753,1.9960,rough,14.0,0,3.633
160,5.12,1.0554,2.5979,0.2187,0.3673,0.0684,1.9861,rough,14.0,0,3.633
170,5.44,1.0570,2.6002,0.2150,0.3680,0.0818,1.9978,rough,14.0,0,3.633
180,5.76,1.0553,2.5968,0.2222,0.3669,0.0493,1.9789,rough,14.0,0,3.634
190,6.08,1.0555,2.5974,0.2210,0.3670,0.0545,1.9824,rough,14.0,0,3.634
200,6.40,1.0555,2.5976,0.2202,0.3671,0.0595,1.9831,rough,14.0,0,3.634
210,6.72,1.0566,2.5985,0.2172,0.3676,0.0726,1.9922,rough,14.0,0,3.634
220,7.04,1.0567,2.5990,0.2169,0.3676,0.0729,1.9929,rough,14.0,0,3.633
230,7.36,1.0550,2.5966,0.2227,0.3668,0.0474,1.9782,rough,14.0,0,3.634
240,7.68,1.0536,2.5971,0.2206,0.3669,0.0637,1.9788,rough,14.0,0,3.633
250,8.00,1.0569,2.5998,0.2155,0.3679,0.0793,1.9962,rough,14.0,0,3.633
260,8.32,1.0566,2.5997,0.2159,0.3679,0.0778,1.9959,rough,14.0,0,3.633
270,8.64,1.0567,2.5986,0.2192,0.3674,0.0602,1.9884,rough,14.0,0,3.634
280,8.96,1.0562,2.5978,0.2202,0.3671,0.0572,1.9849,rough,14.0,0,3.634
290,9.28,1.0561,2.5992,0.2153,0.3679,0.0841,1.9941,rough,14.0,0,3.633
300,9.60,1.0576,2.6000,0.2153,0.3680,0.0781,1.9981,rough,14.0,0,3.633
310,9.92,1.0537,2.5959,0.2241,0.3665,0.0444,1.9714,rough,14.0,0,3.634
320,10.24,1.0552,2.5980,0.2180,0.3675,0.0725,1.9873,rough,14.0,0,3.633
330,10.56,1.0563,2.5990,0.2170,0.3675,0.0740,1.9914,rough,14.0,0,3.633
340,10.88,1.0576,2.5996,0.2148,0.3680,0.0818,1.9990,rough,14.0,0,3.633
350,11.20,1.0574,2.5999,0.2155,0.3679,0.0775,1.9980,rough,14.0,0,3.633
360,11.52,1.0538,2.5964,0.2226,0.3667,0.0520,1.9745,rough,14.0,0,3.634
370,11.84,1.0567,2.5992,0.2164,0.3678,0.0748,1.9954,rough,14.0,0,3.633
380,12.16,1.0556,2.5967,0.2229,0.3668,0.0446,1.9782,rough,14.0,0,3.635
390,12.48,1.0552,2.5973,0.2209,0.3670,0.0559,1.9825,rough,14.0,0,3.634
400,12.80,1.0555,2.5986,0.2169,0.3676,0.0775,1.9889,rough,14.0,0,3.633
410,13.12,1.0573,2.6000,0.2155,0.3680,0.0777,1.9980,rough,14.0,0,3.633
420,13.44,1.0541,2.5965,0.2222,0.3668,0.0533,1.9766,rough,14.0,0,3.634
430,13.76,1.0561,2.5983,0.2196,0.3673,0.0593,1.9880,rough,14.0,1,5.204
440,14.08,1.0551,2.5974,0.2195,0.3672,0.0650,1.9838,rough,14.0,1,5.204
450,14.40,1.0556,2.5975,0.2205,0.3671,0.0568,1.9844,rough,14.0,1,5.204
460,14.72,1.0557,2.5988,0.2159,0.3679,0.0821,1.9929,rough,14.0,1,5.203
470,15.04,1.0558,2.5989,0.2175,0.3676,0.0719,1.9908,rough,14.0,1,5.203
480,15.36,1.0561,2.5982,0.2175,0.3676,0.0719,1.9918,rough,14.0,1,5.204
490,15.68,1.0564,2.5991,0.2167,0.3676,0.0750,1.9927,rough,14.0,1,5.203
500,16.00,1.0555,2.5966,0.2230,0.3668,0.0447,1.9778,rough,14.0,1,5.205
510,16.32,1.0554,2.5974,0.2210,0.3670,0.0549,1.9823,rough,14.0,1,5.204
520,16.64,1.0558,2.5973,0.2206,0.3671,0.0566,1.9833,rough,14.0,1,5.204
530,16.96,1.0568,2.5987,0.2191,0.3674,0.0600,1.9897,rough,14.0,1,5.203
540,17.28,1.0553,2.5977,0.2189,0.3673,0.0675,1.9855,rough,14.0,1,5.204
550,17.60,1.0577,2.5998,0.2138,0.3683,0.0871,2.0007,rough,14.0,1,5.203
560,17.92,1.0564,2.5991,0.2159,0.3678,0.0791,1.9948,rough,14.0,1,5.203
570,18.24,1.0559,2.5976,0.2201,0.3672,0.0589,1.9848,rough,14.0,1,5.204
580,18.56,1.0556,2.5989,0.2178,0.3675,0.0711,1.9897,rough,14.0,1,5.203
590,18.88,1.0567,2.5987,0.2191,0.3674,0.0603,1.9889,rough,14.0,1,5.203
600,19.20,1.0546,2.5979,0.2193,0.3671,0.0680,1.9821,rough,14.0,1,5.203
610,19.52,1.0563,2.5988,0.2160,0.3679,0.0798,1.9943,rough,14.0,1,5.203
620,19.84,1.0557,2.5974,0.2204,0.3671,0.0576,1.9840,rough,14.0,1,5.204
630,20.16,1.0566,2.5983,0.2177,0.3676,0.0697,1.9907,rough,14.0,1,5.204
640,20.48,1.0559,2.5987,0.2177,0.3675,0.0711,1.9900,rough,14.0,1,5.203
650,20.80,1.0574,2.5995,0.2144,0.3682,0.0849,1.9994,rough,14.0,1,5.203
660,21.12,1.0567,2.5987,0.2189,0.3673,0.0619,1.9883,rough,14.0,1,5.203
670,21.44,1.0564,2.5984,0.2194,0.3673,0.0600,1.9875,rough,14.0,1,5.204
680,21.76,1.0544,2.5976,0.2190,0.3672,0.0694,1.9844,rough,14.0,1,5.203
690,22.08,1.0573,2.5995,0.2142,0.3682,0.0859,1.9997,rough,14.0,1,5.203
700,22.40,1.0545,2.5962,0.2239,0.3666,0.0426,1.9744,rough,14.0,1,5.205
710,22.72,1.0548,2.5970,0.2206,0.3670,0.0601,1.9812,rough,14.0,1,5.204
720,23.04,1.0558,2.5989,0.2177,0.3675,0.0712,1.9895,rough,14.0,1,5.203
730,23.36,1.0562,2.5981,0.2179,0.3675,0.0696,1.9901,rough,14.0,1,5.204
740,23.68,1.0558,2.5985,0.2179,0.3674,0.0703,1.9895,rough,14.0,1,5.203
750,24.00,1.0559,2.5977,0.2206,0.3671,0.0553,1.9841,rough,14.0,1,5.204
760,24.32,1.0560,2.5976,0.2199,0.3672,0.0597,1.9852,rough,14.0,1,5.204
770,24.64,1.0559,2.5990,0.2173,0.3676,0.0728,1.9911,rough,14.0,1,5.203
780,24.96,1.0564,2.5987,0.2175,0.3675,0.0705,1.9917,rough,14.0,1,5.203
790,25.28,1.0572,2.5993,0.2148,0.3681,0.0830,1.9985,rough,14.0,1,5.203
800,25.60,1.0575,2.5997,0.2161,0.3678,0.0740,1.9961,rough,14.0,2,4.820
810,25.92,1.0585,2.6003,0.2142,0.3681,0.0823,2.0000,rough,14.0,2,4.819
820,26.24,1.0514,2.5851,0.2215,0.3582,0.1045,1.9227,rough,14.0,2,4.828
830,26.56,1.0524,2.5955,0.2193,0.3672,0.0763,1.9804,rough,14.0,2,4.826
840,26.88,1.0418,2.5778,0.2267,0.3609,0.1039,1.9015,rough,14.0,2,4.839
850,27.20,1.0560,2.5968,0.2180,0.3698,0.0697,1.9824,rough,14.0,2,4.822
860,27.52,1.0437,2.5793,0.2259,0.3614,0.1008,1.9051,rough,14.0,2,4.837
870,27.84,1.0487,2.5877,0.2219,0.3640,0.0931,1.9417,rough,14.0,2,4.830
880,28.16,1.0462,2.5855,0.2234,0.3641,0.0929,1.9338,rough,14.0,2,4.833
890,28.48,1.0484,2.5894,0.2212,0.3659,0.0904,1.9528,rough,14.0,2,4.830
900,28.80,1.0484,2.5919,0.2208,0.3668,0.0835,1.9694,rough,14.0,2,4.830
910,29.12,1.0437,2.5851,0.2244,0.3641,0.0957,1.9251,rough,14.0,2,4.836
920,29.44,1.0449,2.5874,0.2226,0.3656,0.0951,1.9444,rough,14.0,2,4.834
930,29.76,1.0450,2.5926,0.2218,0.3665,0.0860,1.9626,rough,14.0,2,4.833
940,30.08,1.0424,2.5883,0.2241,0.3653,0.0905,1.9421,rough,14.0,2,4.837
950,30.40,1.0396,2.5817,0.2266,0.3629,0.1004,1.9109,rough,14.0,2,4.840
960,30.72,1.0463,2.5878,0.2227,0.3649,0.0938,1.9359,rough,14.0,2,4.833
970,31.04,1.0433,2.5834,0.2251,0.3636,0.0975,1.9180,rough,14.0,2,4.836
980,31.36,1.0432,2.5835,0.2249,0.3637,0.0975,1.9207,rough,14.0,2,4.836
990,31.68,1.0415,2.5822,0.2260,0.3625,0.1007,1.9075,rough,14.0,2,4.838
1000,32.00,1.0425,2.5863,0.2244,0.3640,0.0965,1.9263,rough,14.0,2,4.837
1010,32.32,1.0467,2.5930,0.2206,0.3663,0.0891,1.9643,rough,14.0,2,4.832
1020,32.64,1.0433,2.5883,0.2237,0.3654,0.0900,1.9448,rough,14.0,2,4.836
1030,32.96,1.0402,2.5820,0.2263,0.3629,0.1004,1.9108,rough,14.0,2,4.840
1040,33.28,1.0446,2.5875,0.2234,0.3646,0.0947,1.9330,rough,14.0,2,4.834
1050,33.60,1.0427,2.5826,0.2254,0.3633,0.0976,1.9175,rough,14.0,2,4.837
1060,33.92,1.0454,2.5842,0.2239,0.3625,0.0987,1.9253,rough,14.0,2,4.834
1070,34.24,1.0511,2.5951,0.2193,0.3674,0.0784,1.9805,rough,14.0,2,4.827
1080,34.56,1.0414,2.5751,0.2316,0.3706,0.0753,1.8670,rough,14.0,2,4.839
1090,34.88,1.0592,2.5974,0.2166,0.3741,0.0630,1.9960,rough,14.0,2,4.819
1100,35.20,1.0460,2.5813,0.2246,0.3621,0.0988,1.9133,rough,14.0,2,4.834
1110,35.52,1.0507,2.5884,0.2212,0.3636,0.0920,1.9439,rough,14.0,2,4.828
1120,35.84,1.0483,2.5897,0.2209,0.3664,0.0891,1.9610,rough,14.0,2,4.830
1130,36.16,1.0449,2.5798,0.2253,0.3600,0.1034,1.9048,rough,14.0,2,4.835
1140,36.48,1.0496,2.5926,0.2205,0.3668,0.0798,1.9732,rough,14.0,2,4.829
1150,36.80,1.0462,2.5828,0.2242,0.3615,0.0989,1.9185,rough,14.0,2,4.834
1160,37.12,1.0482,2.5853,0.2226,0.3626,0.0976,1.9295,rough,14.0,2,4.831
1170,37.44,1.0563,2.5976,0.2159,0.3681,0.0822,1.9923,rough,14.0,3,6.909
1180,37.76,1.0549,2.5962,0.2228,0.3668,0.0480,1.9761,rough,14.0,3,6.911
1190,38.08,1.0555,2.5972,0.2208,0.3671,0.0566,1.9823,rough,14.0,3,6.910
1200,38.40,1.0572,2.5989,0.2191,0.3674,0.0588,1.9884,rough,14.0,3,6.908
1210,38.72,1.0566,2.5979,0.2209,0.3670,0.0521,1.9824,rough,14.0,3,6.909
1220,39.04,1.0581,2.6005,0.2149,0.3681,0.0787,1.9991,rough,14.0,3,6.908
1230,39.36,1.0550,2.5966,0.2225,0.3668,0.0488,1.9772,rough,14.0,3,6.910
1240,39.68,1.0553,2.5974,0.2208,0.3670,0.0569,1.9816,rough,14.0,3,6.910
1250,40.00,1.0569,2.5987,0.2195,0.3673,0.0576,1.9872,rough,14.0,3,6.909
1260,40.32,1.0575,2.5999,0.2145,0.3681,0.0834,1.9998,rough,14.0,3,6.908
1270,40.64,1.0580,2.6004,0.2149,0.3680,0.0789,1.9986,rough,14.0,3,6.908
1280,40.96,1.0573,2.5989,0.2192,0.3673,0.0589,1.9878,rough,14.0,3,6.908
1290,41.28,1.0563,2.5976,0.2213,0.3670,0.0509,1.9816,rough,14.0,3,6.909
1300,41.60,1.0573,2.5997,0.2162,0.3678,0.0738,1.9958,rough,14.0,3,6.908
1310,41.92,1.0568,2.5990,0.2170,0.3676,0.0716,1.9933,rough,14.0,3,6.909
1320,42.24,1.0567,2.5988,0.2165,0.3678,0.0759,1.9932,rough,14.0,3,6.909
1330,42.56,1.0562,2.5987,0.2171,0.3676,0.0731,1.9928,rough,14.0,3,6.909
1340,42.88,1.0564,2.5982,0.2198,0.3672,0.0580,1.9861,rough,14.0,3,6.909
1350,43.20,1.0555,2.5980,0.2200,0.3673,0.0592,1.9860,rough,14.0,3,6.910
1360,43.52,1.0557,2.5975,0.2212,0.3670,0.0530,1.9823,rough,14.0,3,6.910
1370,43.84,1.0549,2.5973,0.2207,0.3670,0.0581,1.9823,rough,14.0,3,6.911
1380,44.16,1.0555,2.5980,0.2182,0.3675,0.0701,1.9886,rough,14.0,3,6.910
1390,44.48,1.0574,2.6006,0.2141,0.3682,0.0849,2.0001,rough,14.0,3,6.909
1400,44.80,1.0564,2.5994,0.2165,0.3678,0.0755,1.9940,rough,14.0,3,6.909
1410,45.12,1.0571,2.5992,0.2166,0.3677,0.0733,1.9950,rough,14.0,3,6.909
1420,45.44,1.0575,2.5997,0.2151,0.3679,0.0806,1.9980,rough,14.0,3,6.908
1430,45.76,1.0565,2.5989,0.2176,0.3676,0.0695,1.9920,rough,14.0,3,6.909
1440,46.08,1.0546,2.5974,0.2201,0.3671,0.0625,1.9829,rough,14.0,3,6.911
1450,46.40,1.0559,2.5988,0.2172,0.3676,0.0729,1.9927,rough,14.0,3,6.910
1460,46.72,1.0564,2.5995,0.2155,0.3679,0.0801,1.9985,rough,14.0,3,6.909
1470,47.04,1.0562,2.5990,0.2169,0.3677,0.0740,1.9940,rough,14.0,3,6.910
1480,47.36,1.0565,2.5987,0.2175,0.3676,0.0704,1.9919,rough,14.0,3,6.909
1490,47.68,1.0567,2.5991,0.2152,0.3681,0.0825,1.9978,rough,14.0,3,6.909
1500,48.00,1.0570,2.5996,0.2166,0.3677,0.0731,1.9943,rough,14.0,3,6.909
1510,48.32,1.0568,2.5989,0.2173,0.3675,0.0706,1.9925,rough,14.0,3,6.909
1520,48.64,1.0565,2.5987,0.2167,0.3677,0.0754,1.9928,rough,14.0,3,6.909
1530,48.96,1.0566,2.5989,0.2169,0.3676,0.0733,1.9932,rough,14.0,0,3.633
1540,49.28,1.0556,2.5968,0.2225,0.3668,0.0464,1.9788,rough,14.0,0,3.635
1550,49.60,1.0558,2.5975,0.2208,0.3671,0.0548,1.9831,rough,14.0,0,3.634
1560,49.92,1.0580,2.6004,0.2149,0.3681,0.0787,1.9992,rough,14.0,0,3.633
1570,50.24,1.0547,2.5971,0.2211,0.3669,0.0578,1.9796,rough,14.0,0,3.634
1580,50.56,1.0563,2.5982,0.2177,0.3676,0.0707,1.9909,rough,14.0,0,3.634
1590,50.88,1.0562,2.5989,0.2171,0.3676,0.0736,1.9917,rough,14.0,0,3.633
1600,51.20,1.0579,2.5999,0.2143,0.3681,0.0835,2.0002,rough,14.0,0,3.633
1610,51.52,1.0578,2.6001,0.2153,0.3680,0.0774,1.9983,rough,14.0,0,3.633
1620,51.84,1.0541,2.5964,0.2223,0.3667,0.0530,1.9763,rough,14.0,0,3.634
1630,52.16,1.0564,2.5985,0.2194,0.3674,0.0596,1.9879,rough,14.0,0,3.634
1640,52.48,1.0544,2.5976,0.2192,0.3672,0.0683,1.9835,rough,14.0,0,3.633
1650,52.80,1.0574,2.5996,0.2142,0.3682,0.0859,1.9996,rough,14.0,0,3.633
1660,53.12,1.0567,2.5994,0.2154,0.3679,0.0816,1.9960,rough,14.0,0,3.633
1670,53.44,1.0568,2.5993,0.2169,0.3677,0.0722,1.9940,rough,14.0,0,3.633
1680,53.76,1.0565,2.5983,0.2178,0.3676,0.0694,1.9908,rough,14.0,0,3.634
1690,54.08,1.0569,2.5992,0.2164,0.3677,0.0749,1.9945,rough,14.0,0,3.633
1700,54.40,1.0577,2.5997,0.2149,0.3680,0.0811,1.9987,rough,14.0,0,3.633
1710,54.72,1.0564,2.5993,0.2166,0.3678,0.0744,1.9948,rough,14.0,0,3.633
1720,55.04,1.0570,2.5985,0.2196,0.3673,0.0572,1.9878,rough,14.0,0,3.634
1730,55.36,1.0562,2.5983,0.2198,0.3673,0.0584,1.9869,rough,14.0,0,3.634
1740,55.68,1.0542,2.5977,0.2195,0.3671,0.0677,1.9814,rough,14.0,0,3.633
1750,56.00,1.0561,2.5986,0.2165,0.3678,0.0777,1.9929,rough,14.0,0,3.633
1760,56.32,1.0577,2.6002,0.2152,0.3681,0.0780,1.9988,rough,14.0,0,3.633
1770,56.64,1.0573,2.5994,0.2163,0.3678,0.0739,1.9960,rough,14.0,0,3.633
1780,56.96,1.0580,2.6000,0.2146,0.3680,0.0817,1.9995,rough,14.0,0,3.633
1790,57.28,1.0544,2.5961,0.2234,0.3667,0.0458,1.9752,rough,14.0,0,3.634
1800,57.60,1.0573,2.6000,0.2153,0.3680,0.0787,1.9981,rough,14.0,0,3.633
1810,57.92,1.0544,2.5968,0.2214,0.3669,0.0568,1.9787,rough,14.0,0,3.634
1820,58.24,1.0553,2.5975,0.2194,0.3673,0.0647,1.9852,rough,14.0,0,3.634
1830,58.56,1.0560,2.5977,0.2206,0.3671,0.0552,1.9841,rough,14.0,0,3.634
1840,58.88,1.0561,2.5976,0.2203,0.3671,0.0575,1.9841,rough,14.0,0,3.634
1850,59.20,1.0567,2.5985,0.2173,0.3676,0.0715,1.9918,rough,14.0,0,3.634
1860,59.52,1.0566,2.5993,0.2164,0.3677,0.0760,1.9933,rough,14.0,0,3.633
1870,59.84,1.0554,2.5966,0.2227,0.3668,0.0462,1.9783,rough,14.0,0,3.634
1880,60.16,1.0556,2.5975,0.2207,0.3671,0.0557,1.9839,rough,14.0,0,3.634
1890,60.48,1.0579,2.6003,0.2150,0.3681,0.0788,1.9993,rough,14.0,0,3.633
1900,60.80,1.0538,2.5965,0.2224,0.3667,0.0530,1.9754,rough,14.0,1,5.204
1910,61.12,1.0570,2.5994,0.2164,0.3678,0.0745,1.9953,rough,14.0,1,5.203
1920,61.44,1.0582,2.6001,0.2142,0.3681,0.0831,2.0003,rough,14.0,1,5.203
1930,61.76,1.0545,2.5963,0.2230,0.3667,0.0474,1.9765,rough,14.0,1,5.205
1940,62.08,1.0556,2.5975,0.2198,0.3672,0.0613,1.9848,rough,14.0,1,5.204
1950,62.40,1.0559,2.5992,0.2169,0.3677,0.0747,1.9921,rough,14.0,1,5.203
1960,62.72,1.0567,2.5982,0.2200,0.3672,0.0561,1.9865,rough,14.0,1,5.204
1970,63.04,1.0563,2.5985,0.2194,0.3673,0.0603,1.9872,rough,14.0,1,5.203
1980,63.36,1.0549,2.5974,0.2192,0.3673,0.0670,1.9848,rough,14.0,1,5.204
1990,63.68,1.0573,2.5991,0.2153,0.3680,0.0809,1.9968,rough,14.0,1,5.203
2000,64.00,1.0569,2.5996,0.2163,0.3678,0.0749,1.9954,rough,14.0,1,5.203
2010,64.32,1.0572,2.5986,0.2192,0.3673,0.0588,1.9888,rough,14.0,1,5.204
2020,64.64,1.0567,2.5986,0.2191,0.3674,0.0604,1.9882,rough,14.0,1,5.203
2030,64.96,1.0550,2.5976,0.2189,0.3673,0.0681,1.9857,rough,14.0,1,5.204
2040,65.28,1.0576,2.5995,0.2145,0.3681,0.0838,1.9987,rough,14.0,1,5.203
2050,65.60,1.0567,2.5994,0.2153,0.3679,0.0818,1.9962,rough,14.0,1,5.203
2060,65.92,1.0554,2.5971,0.2217,0.3669,0.0512,1.9807,rough,14.0,1,5.204
2070,66.24,1.0541,2.5975,0.2200,0.3670,0.0658,1.9797,rough,14.0,1,5.203
2080,66.56,1.0573,2.5998,0.2144,0.3682,0.0840,2.0003,rough,14.0,1,5.203
2090,66.88,1.0548,2.5966,0.2224,0.3668,0.0501,1.9776,rough,14.0,1,5.205
2100,67.20,1.0552,2.5984,0.2170,0.3676,0.0780,1.9886,rough,14.0,1,5.203
2110,67.52,1.0554,2.5974,0.2200,0.3672,0.0605,1.9848,rough,14.0,1,5.204
2120,67.84,1.0560,2.5992,0.2170,0.3676,0.0741,1.9919,rough,14.0,1,5.203
2130,68.16,1.0560,2.5975,0.2210,0.3671,0.0528,1.9845,rough,14.0,1,5.204
2140,68.48,1.0567,2.5993,0.2163,0.3678,0.0757,1.9946,rough,14.0,1,5.203
2150,68.80,1.0554,2.5981,0.2180,0.3675,0.0719,1.9881,rough,14.0,1,5.203
2160,69.12,1.0563,2.5988,0.2170,0.3676,0.0736,1.9929,rough,14.0,1,5.203
2170,69.44,1.0578,2.5997,0.2148,0.3680,0.0813,1.9989,rough,14.0,1,5.203
2180,69.76,1.0575,2.6000,0.2153,0.3680,0.0782,1.9983,rough,14.0,1,5.203
2190,70.08,1.0545,2.5969,0.2213,0.3669,0.0569,1.9788,rough,14.0,1,5.204
2200,70.40,1.0554,2.5978,0.2190,0.3673,0.0665,1.9863,rough,14.0,1,5.204
2210,70.72,1.0565,2.5989,0.2159,0.3679,0.0793,1.9946,rough,14.0,1,5.203
2220,71.04,1.0558,2.5974,0.2204,0.3671,0.0572,1.9839,rough,14.0,1,5.204
2230,71.36,1.0563,2.5982,0.2177,0.3676,0.0700,1.9912,rough,14.0,1,5.204
2240,71.68,1.0560,2.5988,0.2175,0.3675,0.0718,1.9906,rough,14.0,1,5.203
2250,72.00,1.0578,2.5999,0.2135,0.3684,0.0885,2.0017,rough,14.0,1,5.203
2260,72.32,1.0569,2.5997,0.2149,0.3680,0.0834,1.9976,rough,14.0,2,4.821
2270,72.64,1.0555,2.5974,0.2205,0.3671,0.0581,1.9826,rough,14.0,2,4.822
2280,72.96,1.0570,2.5982,0.2168,0.3659,0.0775,1.9886,rough,14.0,2,4.821
2290,73.28,1.0483,2.5881,0.2211,0.3616,0.0881,1.9484,rough,14.0,2,4.831
2300,73.60,1.0438,2.5822,0.2250,0.3628,0.0969,1.9189,rough,14.0,2,4.836
2310,73.92,1.0425,2.5802,0.2260,0.3623,0.1007,1.9076,rough,14.0,2,4.838
2320,74.24,1.0435,2.5859,0.2239,0.3639,0.0983,1.9262,rough,14.0,2,4.836
2330,74.56,1.0446,2.5878,0.2233,0.3653,0.0913,1.9416,rough,14.0,2,4.834
2340,74.88,1.0447,2.5858,0.2235,0.3647,0.0955,1.9334,rough,14.0,2,4.835
2350,75.20,1.0445,2.5912,0.2224,0.3659,0.0890,1.9527,rough,14.0,2,4.834
2360,75.52,1.0455,2.5912,0.2212,0.3658,0.0921,1.9592,rough,14.0,2,4.833
2370,75.84,1.0434,2.5865,0.2242,0.3649,0.0922,1.9359,rough,14.0,2,4.836
2380,76.16,1.0434,2.5795,0.2260,0.3631,0.0989,1.9034,rough,14.0,2,4.837
2390,76.48,1.0513,2.5960,0.2182,0.3672,0.0845,1.9812,rough,14.0,2,4.827
2400,76.80,1.0420,2.5769,0.2271,0.3587,0.1066,1.8931,rough,14.0,2,4.839
2410,77.12,1.0535,2.5952,0.2186,0.3673,0.0778,1.9817,rough,14.0,2,4.825
2420,77.44,1.0407,2.5769,0.2274,0.3622,0.1013,1.9009,rough,14.0,2,4.840
2430,77.76,1.0447,2.5959,0.2210,0.3670,0.0848,1.9714,rough,14.0,2,4.833
2440,78.08,1.0412,2.5830,0.2260,0.3638,0.0961,1.9181,rough,14.0,2,4.838
2450,78.40,1.0427,2.5898,0.2232,0.3647,0.0948,1.9389,rough,14.0,2,4.836
2460,78.72,1.0467,2.5910,0.2218,0.3664,0.0847,1.9618,rough,14.0,2,4.832
2470,79.04,1.0458,2.5807,0.2248,0.3627,0.0991,1.9071,rough,14.0,2,4.834
2480,79.36,1.0506,2.5947,0.2196,0.3669,0.0779,1.9813,rough,14.0,2,4.827
2490,79.68,1.0413,2.5769,0.2274,0.3637,0.1002,1.8936,rough,14.0,2,4.839
2500,80.00,1.0519,2.5954,0.2187,0.3679,0.0803,1.9823,rough,14.0,2,4.826
2510,80.32,1.0399,2.5772,0.2279,0.3621,0.1006,1.8980,rough,14.0,2,4.841
2520,80.64,1.0459,2.5948,0.2209,0.3668,0.0860,1.9673,rough,14.0,2,4.832
2530,80.96,1.0425,2.5832,0.2253,0.3632,0.0986,1.9159,rough,14.0,2,4.837
2540,81.28,1.0425,2.5834,0.2253,0.3637,0.0971,1.9184,rough,14.0,2,4.837
2550,81.60,1.0427,2.5801,0.2260,0.3622,0.1009,1.9081,rough,14.0,2,4.837
2560,81.92,1.0477,2.5939,0.2205,0.3667,0.0852,1.9682,rough,14.0,2,4.830
2570,82.24,1.0440,2.5844,0.2246,0.3645,0.0931,1.9280,rough,14.0,2,4.835
2580,82.56,1.0446,2.5874,0.2234,0.3654,0.0913,1.9411,rough,14.0,2,4.835
2590,82.88,1.0466,2.5925,0.2208,0.3664,0.0887,1.9651,rough,14.0,2,4.832
2600,83.20,1.0440,2.5877,0.2235,0.3653,0.0902,1.9456,rough,14.0,2,4.835
2610,83.52,1.0397,2.5817,0.2266,0.3630,0.0995,1.9127,rough,14.0,2,4.840
2620,83.84,1.0469,2.5878,0.2224,0.3650,0.0948,1.9368,rough,14.0,2,4.832
2630,84.16,1.0519,2.5948,0.2196,0.3665,0.0769,1.9774,rough,14.0,3,6.913
2640,84.48,1.0565,2.5986,0.2156,0.3679,0.0820,1.9950,rough,14.0,3,6.909
2650,84.80,1.0560,2.5988,0.2158,0.3679,0.0808,1.9955,rough,14.0,3,6.910
2660,85.12,1.0573,2.5995,0.2166,0.3677,0.0724,1.9946,rough,14.0,3,6.908
2670,85.44,1.0561,2.5994,0.2167,0.3677,0.0753,1.9927,rough,14.0,3,6.910
2680,85.76,1.0568,2.5981,0.2204,0.3671,0.0537,1.9847,rough,14.0,3,6.909
2690,86.08,1.0542,2.5961,0.2235,0.3666,0.0462,1.9739,rough,14.0,3,6.911
2700,86.40,1.0570,2.5997,0.2161,0.3679,0.0757,1.9958,rough,14.0,3,6.909
2710,86.72,1.0540,2.5960,0.2234,0.3667,0.0468,1.9748,rough,14.0,3,6.911
2720,87.04,1.0545,2.5969,0.2216,0.3669,0.0546,1.9792,rough,14.0,3,6.911
2730,87.36,1.0542,2.5974,0.2198,0.3672,0.0652,1.9832,rough,14.0,3,6.911
2740,87.68,1.0561,2.5977,0.2209,0.3671,0.0534,1.9831,rough,14.0,3,6.910
2750,88.00,1.0555,2.5975,0.2208,0.3670,0.0564,1.9818,rough,14.0,3,6.910
2760,88.32,1.0576,2.5997,0.2160,0.3678,0.0746,1.9962,rough,14.0,3,6.908
2770,88.64,1.0579,2.6000,0.2146,0.3680,0.0820,1.9991,rough,14.0,3,6.908
2780,88.96,1.0572,2.5997,0.2163,0.3678,0.0737,1.9955,rough,14.0,3,6.909
2790,89.28,1.0560,2.5987,0.2177,0.3675,0.0703,1.9907,rough,14.0,3,6.910
2800,89.60,1.0562,2.5985,0.2168,0.3678,0.0758,1.9929,rough,14.0,3,6.909
2810,89.92,1.0564,2.5989,0.2167,0.3677,0.0746,1.9937,rough,14.0,3,6.909
