step,time_s,x,y,z,roll,pitch,yaw,terrain,speed,target_idx,dist_to_target
10,0.32,0.9574,-0.7750,0.1733,-0.0000,-0.0140,0.0000,flat,18.0,0,5.769
20,0.64,1.2173,-0.7761,0.1793,0.0000,0.0029,-0.0300,flat,18.0,0,5.573
30,0.96,1.5916,-0.8027,0.1797,-0.0002,-0.0001,-0.3460,flat,18.0,0,5.283
40,1.28,1.9955,-0.9961,0.1799,-0.0004,0.0003,-0.6608,flat,18.0,0,4.862
50,1.60,2.3587,-1.3316,0.1799,-0.0003,0.0000,-0.8479,flat,18.0,0,4.369
60,1.92,2.6885,-1.7475,0.1799,-0.0001,-0.0000,-0.9638,flat,18.0,0,3.840
70,2.24,2.9976,-2.2152,0.1799,-0.0001,0.0000,-1.0098,flat,18.0,0,3.290
80,2.56,3.3020,-2.6959,0.1799,0.0000,0.0000,-0.9943,flat,18.0,0,2.739
90,2.88,3.6107,-3.1566,0.1799,0.0002,0.0000,-0.9504,flat,18.0,0,2.206
100,3.20,3.9170,-3.5660,0.1799,0.0001,0.0000,-0.8888,flat,18.0,0,1.717
110,3.52,4.2006,-3.9005,0.1799,0.0001,0.0001,-0.8384,flat,18.0,0,1.301
120,3.84,4.4464,-4.1626,0.1799,0.0001,0.0001,-0.7816,flat,18.0,1,12.165
130,4.16,4.6508,-4.3359,0.1801,0.0021,-0.0002,-0.5268,transition,15.0,1,12.390
140,4.48,4.8056,-4.3972,0.1814,-0.0003,-0.0125,-0.1944,slope,18.0,1,12.495
150,4.80,4.9563,-4.4200,0.1875,-0.0022,-0.0505,0.2976,slope,18.0,1,12.563
160,5.12,5.1871,-4.2630,0.1989,-0.0378,-0.0756,0.5851,slope,18.0,1,12.489
170,5.44,5.4287,-3.9876,0.2098,-0.1138,-0.0572,0.9042,slope,18.0,1,12.314
180,5.76,5.6087,-3.6074,0.2128,-0.1370,0.0238,1.2235,slope,18.0,1,12.027
190,6.08,5.7301,-3.1581,0.2041,-0.1123,0.0176,1.3683,slope,18.0,1,11.662
200,6.40,5.7704,-2.6790,0.1892,-0.0508,0.0394,1.6337,slope,18.0,1,11.242
210,6.72,5.7129,-2.2432,0.1752,-0.0253,0.0008,1.8843,flat,18.0,1,10.824
220,7.04,5.5348,-1.7265,0.1796,-0.0013,0.0001,1.9483,flat,18.0,1,10.281
230,7.36,5.3219,-1.2042,0.1798,-0.0000,0.0000,1.9812,flat,18.0,1,9.719
240,7.68,5.0915,-0.6848,0.1799,0.0001,-0.0000,2.0015,flat,18.0,1,9.151
250,8.00,4.8506,-0.1659,0.1799,0.0000,-0.0000,2.0111,flat,18.0,1,8.579
260,8.32,4.6049,0.3539,0.1799,0.0000,-0.0000,2.0133,flat,18.0,1,8.004
270,8.64,4.3589,0.8738,0.1799,-0.0000,0.0000,2.0111,flat,18.0,1,7.429
280,8.96,4.1149,1.3937,0.1799,-0.0000,0.0000,2.0063,flat,18.0,1,6.855
290,9.28,3.8737,1.9146,0.1799,-0.0000,-0.0000,2.0010,flat,18.0,1,6.281
300,9.60,3.6349,2.4371,0.1799,-0.0000,-0.0000,1.9965,flat,18.0,1,5.708
310,9.92,3.3982,2.9609,0.1799,-0.0000,-0.0000,1.9932,flat,18.0,1,5.134
320,10.24,3.1627,3.4858,0.1799,-0.0000,-0.0000,1.9914,transition,15.0,1,4.559
330,10.56,2.9683,3.9199,0.1799,0.0000,0.0001,2.0083,rough,14.0,1,4.085
340,10.88,2.8006,4.2749,0.1773,0.0223,-0.0066,2.0810,rough,14.0,1,3.693
350,11.20,2.6019,4.5733,0.1886,-0.0281,-0.0207,2.1759,rough,14.0,1,3.336
360,11.52,2.4373,4.7544,0.2317,-0.1351,-0.1877,2.2304,rough,14.0,1,3.099
370,11.84,2.2553,4.9398,0.2507,-0.2396,-0.1998,2.2705,rough,14.0,1,2.852
380,12.16,2.0614,5.1284,0.3144,-0.2949,-0.2598,2.3476,rough,14.0,1,2.600
390,12.48,1.8894,5.2907,0.3733,-0.3204,-0.3031,2.3726,rough,14.0,1,2.384
400,12.80,1.6574,5.4925,0.4342,-0.3534,-0.2963,2.2325,rough,14.0,1,2.116
410,13.12,1.4597,5.7062,0.5109,-0.3563,-0.2763,2.0838,rough,14.0,1,1.857
420,13.44,1.3056,5.9482,0.5983,-0.3369,-0.3816,2.0257,slope,18.0,1,1.588
430,13.76,1.1204,6.2515,0.7479,-0.3655,-0.4118,2.1092,slope,18.0,1,1.262
440,14.08,0.9575,6.4772,0.8679,-0.4144,-0.4472,2.1956,slope,18.0,1,1.034
450,14.40,0.7583,6.7092,1.0011,-0.4463,-0.4333,2.2663,slope,18.0,2,14.490
460,14.72,0.4453,6.9649,1.1420,-0.4954,-0.3577,2.4245,slope,18.0,2,14.514
470,15.04,0.0205,7.2641,1.2562,-0.4588,-0.1687,2.4925,slope,18.0,2,14.524
480,15.36,-0.4252,7.5754,1.3322,-0.4201,-0.1422,2.5472,slope,18.0,2,14.553
490,15.68,-0.8601,7.8630,1.3884,-0.3881,-0.1314,2.5887,slope,18.0,2,14.586
500,16.00,-1.2609,8.1170,1.4307,-0.3203,-0.0946,2.6172,slope,18.0,2,14.623
510,16.32,-1.6322,8.3261,1.4483,-0.2667,-0.0354,2.6714,slope,18.0,2,14.647
520,16.64,-1.9923,8.4993,1.4348,-0.1924,0.0563,2.7252,slope,18.0,2,14.655
530,16.96,-2.3266,8.6268,1.3945,-0.1655,0.1550,2.8087,slope,18.0,2,14.641
540,17.28,-2.6242,8.6954,1.3438,-0.1378,0.1712,2.9768,slope,18.0,2,14.594
550,17.60,-2.9404,8.7104,1.2832,-0.1538,0.2433,3.1041,slope,18.0,2,14.497
560,17.92,-3.2532,8.7008,1.2114,-0.1645,0.2177,-3.1163,slope,18.0,2,14.384
570,18.24,-3.5860,8.6776,1.1382,-0.2265,0.2573,-3.1070,slope,18.0,2,14.258
580,18.56,-3.8999,8.6562,1.0602,-0.2340,0.2103,-3.0569,slope,18.0,2,14.146
590,18.88,-4.2236,8.6010,0.9770,-0.2168,0.2754,-2.9614,slope,18.0,2,14.005
600,19.20,-4.5422,8.5214,0.9059,-0.1957,0.2371,-2.8653,slope,18.0,2,13.848
610,19.52,-4.8643,8.4029,0.8290,-0.1655,0.1933,-2.7635,slope,18.0,2,13.658
620,19.84,-5.2152,8.2473,0.7581,-0.1215,0.2048,-2.6926,slope,18.0,2,13.432
630,20.16,-5.5818,8.0419,0.6744,-0.1041,0.1933,-2.6241,slope,18.0,2,13.161
640,20.48,-5.9900,7.7946,0.5657,-0.1131,0.2588,-2.5948,slope,18.0,2,12.851
650,20.80,-6.4375,7.5135,0.4119,-0.1113,0.3118,-2.5816,slope,18.0,2,12.513
660,21.12,-6.8457,7.2349,0.2654,-0.0639,0.2447,-2.4803,slope,18.0,2,12.194
670,21.44,-7.1694,6.9430,0.2029,-0.0229,0.0519,-2.1852,slope,18.0,2,11.879
680,21.76,-7.3992,6.5383,0.2064,-0.0333,-0.0350,-1.9332,flat,18.0,2,11.463
690,22.08,-7.5593,6.0330,0.2058,-0.0332,0.0508,-1.7639,flat,18.0,2,10.952
700,22.40,-7.6670,5.4943,0.1865,-0.0108,0.0371,-1.7607,flat,18.0,2,10.411
710,22.72,-7.7682,4.9820,0.1780,0.0110,0.0009,-1.7539,flat,18.0,2,9.897
720,23.04,-7.8540,4.4838,0.1796,0.0011,0.0001,-1.7276,flat,18.0,2,9.398
730,23.36,-7.9296,4.0091,0.1902,0.0078,-0.0344,-1.7136,flat,18.0,2,8.924
740,23.68,-7.9949,3.5556,0.2148,0.0159,-0.0696,-1.7018,slope,18.0,2,8.471
750,24.00,-8.0526,3.0894,0.2248,-0.0029,0.0231,-1.6556,flat,18.0,2,8.005
760,24.32,-8.0875,2.6369,0.2105,0.0136,0.0717,-1.5983,flat,18.0,2,7.554
770,24.64,-8.0919,2.2030,0.1828,0.0040,0.0272,-1.5492,slope,18.0,2,7.120
780,24.96,-8.0761,1.7670,0.1792,0.0025,-0.0016,-1.4906,flat,18.0,2,6.684
790,25.28,-8.0363,1.3211,0.1798,0.0004,-0.0002,-1.4351,flat,18.0,2,6.237
800,25.60,-7.9702,0.8689,0.1821,-0.0011,-0.0140,-1.3902,flat,18.0,2,5.784
810,25.92,-7.8840,0.4201,0.2067,-0.0073,-0.0824,-1.3808,slope,18.0,2,5.335
820,26.24,-7.7828,-0.0730,0.2258,-0.0250,-0.0392,-1.3697,flat,18.0,2,4.843
830,26.56,-7.6711,-0.6024,0.2083,-0.0192,0.0665,-1.3548,slope,18.0,2,4.318
840,26.88,-7.5562,-1.1314,0.1848,0.0019,0.0321,-1.3420,flat,18.0,2,3.798
850,27.20,-7.4311,-1.6631,0.1828,0.0155,-0.0006,-1.3832,flat,18.0,2,3.284
860,27.52,-7.3692,-2.1718,0.1822,0.0175,0.0120,-1.6226,flat,18.0,2,2.792
870,27.84,-7.4120,-2.7043,0.1898,-0.0051,-0.0113,-1.7346,flat,18.0,2,2.262
880,28.16,-7.4958,-3.2222,0.2118,-0.0428,-0.0394,-1.7628,flat,18.0,2,1.738
890,28.48,-7.5996,-3.7744,0.2104,-0.0441,0.0336,-1.7562,flat,18.0,2,1.177
900,28.80,-7.7071,-4.3112,0.1881,-0.0051,0.0516,-1.7534,slope,18.0,0,13.053
910,29.12,-7.7989,-4.8122,0.1789,0.0052,-0.0001,-1.7290,flat,18.0,0,13.147
920,29.44,-7.8728,-5.3080,0.1798,0.0007,0.0000,-1.6716,flat,18.0,0,13.241
930,29.76,-7.9171,-5.7880,0.1842,0.0020,-0.0272,-1.6005,flat,18.0,0,13.322
940,30.08,-7.9260,-6.2594,0.2074,0.0090,-0.0534,-1.5347,slope,18.0,0,13.384
950,30.40,-7.8985,-6.7385,0.2245,0.0147,-0.0269,-1.4932,flat,18.0,0,13.428
960,30.72,-7.8479,-7.2426,0.2105,-0.0064,0.0553,-1.4535,slope,18.0,0,13.471
970,31.04,-7.7799,-7.7384,0.1846,-0.0073,0.0424,-1.4169,flat,18.0,0,13.513
980,31.36,-7.7006,-8.1991,0.1785,0.0002,-0.0076,-1.3708,flat,18.0,0,13.554
990,31.68,-7.6208,-8.5869,0.1797,0.0001,-0.0007,-1.3342,flat,18.0,0,13.588
1000,32.00,-7.5459,-8.8965,0.1826,-0.0030,-0.0157,-1.2772,flat,18.0,0,13.613
1010,32.32,-7.4736,-9.1350,0.1861,-0.0044,-0.0131,-1.1662,flat,18.0,0,13.624
1020,32.64,-7.3993,-9.2907,0.1911,-0.0170,-0.0410,-1.0227,flat,18.0,0,13.608
1030,32.96,-7.3073,-9.4377,0.1925,-0.0302,-0.0012,-0.8874,flat,18.0,0,13.574
1040,33.28,-7.2259,-9.5400,0.1929,-0.0368,-0.0050,-0.7360,flat,18.0,0,13.536
1050,33.60,-7.1262,-9.5996,0.1900,-0.0358,0.0100,-0.5985,flat,18.0,0,13.466
1060,33.92,-7.0189,-9.6475,0.1892,-0.0259,0.0309,-0.4899,flat,18.0,0,13.385
1070,34.24,-6.9184,-9.6839,0.1870,-0.0079,0.0400,-0.4009,flat,18.0,0,13.306
1080,34.56,-6.8242,-9.7079,0.1845,-0.0058,0.0251,-0.3266,flat,18.0,0,13.228
1090,34.88,-6.7332,-9.7260,0.1820,-0.0047,0.0096,-0.2634,flat,18.0,0,13.152
1100,35.20,-6.6495,-9.7408,0.1799,-0.0002,0.0007,-0.1986,flat,18.0,0,13.081
1110,35.52,-6.5917,-9.7549,0.1799,0.0000,0.0000,-0.0288,flat,18.0,0,13.034
1120,35.84,-6.5342,-9.7688,0.1799,0.0000,0.0000,0.1231,flat,18.0,0,12.987
1130,36.16,-6.4776,-9.7741,0.1799,0.0000,-0.0000,0.2423,flat,18.0,0,12.937
1140,36.48,-6.4224,-9.7688,0.1799,0.0000,-0.0000,0.3389,flat,18.0,0,12.885
1150,36.80,-6.3689,-9.7553,0.1799,0.0000,-0.0000,0.4190,flat,18.0,0,12.830
1160,37.12,-6.3163,-9.7350,0.1799,0.0000,-0.0000,0.4864,flat,18.0,0,12.774
1170,37.44,-6.2608,-9.7072,0.1799,0.0000,-0.0000,0.5433,flat,18.0,0,12.712
1180,37.76,-6.2009,-9.6712,0.1799,0.0000,-0.0000,0.5917,flat,18.0,0,12.643
1190,38.08,-6.1353,-9.6264,0.1799,0.0000,-0.0000,0.6333,flat,18.0,0,12.564
1200,38.40,-6.0627,-9.5780,0.1811,0.0057,-0.0026,0.6693,flat,18.0,0,12.478
1210,38.72,-5.9845,-9.5204,0.1831,0.0066,-0.0146,0.7004,flat,18.0,0,12.383
1220,39.04,-5.8980,-9.4508,0.1854,0.0059,-0.0317,0.7275,flat,18.0,0,12.276
1230,39.36,-5.7998,-9.3669,0.1883,0.0095,-0.0463,0.7510,flat,18.0,0,12.153
1240,39.68,-5.6819,-9.2630,0.1890,0.0272,-0.0270,0.7720,flat,18.0,0,12.003
1250,40.00,-5.5483,-9.1350,0.1837,0.0235,0.0046,0.7893,flat,18.0,0,11.830
1260,40.32,-5.3957,-8.9854,0.1901,0.0413,-0.0005,0.8058,flat,18.0,0,11.632
1270,40.64,-5.2222,-8.8006,0.1879,0.0283,0.0016,0.8212,flat,18.0,0,11.401
1280,40.96,-5.0215,-8.5781,0.1804,0.0037,0.0009,0.8347,flat,18.0,0,11.132
1290,41.28,-4.7854,-8.3154,0.1815,0.0089,0.0012,0.8437,flat,18.0,0,10.818
1300,41.60,-4.5104,-8.0022,0.1822,0.0024,-0.0128,0.8503,flat,18.0,0,10.452
1310,41.92,-4.1791,-7.6327,0.1886,0.0340,-0.0147,0.8532,flat,18.0,0,10.019
1320,42.24,-3.8186,-7.2211,0.2039,0.0484,-0.0015,0.8122,flat,18.0,0,9.553
1330,42.56,-3.4639,-6.8980,0.1955,0.0452,0.0519,0.6172,slope,18.0,0,9.124
1340,42.88,-3.0743,-6.6506,0.1799,0.0018,-0.0013,0.4598,flat,18.0,0,8.684
1350,43.20,-2.5994,-6.4347,0.1812,0.0019,-0.0064,0.3305,flat,18.0,0,8.172
1360,43.52,-2.0815,-6.2740,0.1824,0.0063,0.0088,0.2349,flat,18.0,0,7.630
1370,43.84,-1.5612,-6.1518,0.1876,-0.0097,-0.0181,0.2086,flat,18.0,0,7.096
1380,44.16,-1.0346,-6.0314,0.1927,-0.0567,0.0085,0.1905,flat,18.0,0,6.556
1390,44.48,-0.4923,-5.9274,0.1910,-0.0423,0.0227,0.2250,flat,18.0,0,6.004
1400,44.80,0.0587,-5.7970,0.1860,-0.0291,0.0041,0.2456,flat,18.0,0,5.438
1410,45.12,0.6105,-5.6680,0.1922,0.0282,-0.0384,0.2504,flat,18.0,0,4.871
1420,45.44,1.1661,-5.5372,0.2076,0.0647,-0.0375,0.2379,slope,18.0,0,4.300
1430,45.76,1.7227,-5.4150,0.1991,0.0330,0.0434,0.1993,flat,18.0,0,3.731
1440,46.08,2.2717,-5.2973,0.1828,0.0146,0.0175,0.2097,flat,18.0,0,3.170
1450,46.40,2.8295,-5.1751,0.1797,0.0009,-0.0004,0.2109,flat,18.0,0,2.599
1460,46.72,3.3829,-5.0576,0.1798,0.0001,-0.0000,0.1991,flat,18.0,0,2.034
1470,47.04,3.8798,-4.9589,0.1799,-0.0000,0.0001,0.1829,flat,18.0,0,1.529
1480,47.36,4.2897,-4.8840,0.1799,-0.0000,0.0001,0.1667,flat,18.0,0,1.116
1490,47.68,4.6963,-4.8023,0.1871,-0.0176,-0.0263,0.2337,flat,18.0,1,12.850
1500,48.00,5.0870,-4.6718,0.1974,-0.1038,-0.0775,0.4116,slope,18.0,1,12.843
1510,48.32,5.4366,-4.4626,0.2314,-0.1485,-0.0922,0.6785,slope,18.0,1,12.762
1520,48.64,5.7056,-4.1548,0.2690,-0.1892,-0.1163,1.0227,slope,18.0,1,12.571
1530,48.96,5.8154,-3.7286,0.2669,-0.2746,0.0583,1.3539,slope,18.0,1,12.219
1540,49.28,5.8224,-3.2961,0.2345,-0.1960,0.0927,1.6499,rough,14.0,1,11.825
1550,49.60,5.7576,-2.8785,0.1914,-0.0753,-0.0208,1.8249,slope,18.0,1,11.418
1560,49.92,5.5994,-2.3608,0.1778,0.0121,0.0021,1.9346,flat,18.0,1,10.882
1570,50.24,5.3930,-1.8367,0.1797,0.0011,-0.0000,1.9587,flat,18.0,1,10.319
1580,50.56,5.1745,-1.3125,0.1798,0.0002,-0.0000,1.9785,flat,18.0,1,9.752
1590,50.88,4.9456,-0.7888,0.1799,0.0001,-0.0000,1.9894,flat,18.0,1,9.181
1600,51.20,4.7112,-0.2643,0.1799,0.0000,-0.0000,1.9930,flat,18.0,1,8.606
1610,51.52,4.4755,0.2607,0.1799,-0.0000,0.0000,1.9920,flat,18.0,1,8.031
1620,51.84,4.2411,0.7854,0.1799,-0.0000,0.0000,1.9882,flat,18.0,1,7.457
1630,52.16,4.0091,1.3108,0.1799,-0.0000,0.0000,1.9835,flat,18.0,1,6.883
1640,52.48,3.7808,1.8340,0.1799,-0.0000,0.0000,1.9632,flat,18.0,1,6.312
1650,52.80,3.5756,2.3534,0.1799,-0.0002,0.0000,1.9122,flat,18.0,1,5.755
1660,53.12,3.3969,2.8715,0.1799,-0.0001,0.0000,1.8795,flat,18.0,1,5.212
1670,53.44,3.2374,3.3820,0.1799,-0.0001,0.0000,1.8626,transition,15.0,1,4.686
1680,53.76,3.1084,3.8111,0.1799,-0.0000,0.0000,1.8724,rough,14.0,1,4.248
1690,54.08,2.9762,4.2211,0.1804,0.0049,-0.0098,1.9129,rough,14.0,1,3.827
1700,54.40,2.8181,4.6023,0.1988,-0.0696,-0.0425,1.9323,rough,14.0,1,3.419
1710,54.72,2.6767,4.8775,0.2629,-0.1565,-0.4024,1.9755,rough,14.0,1,3.111
1720,55.04,2.5315,5.1525,0.3658,-0.2060,-0.4313,1.9763,rough,14.0,1,2.801
1730,55.36,2.3857,5.4197,0.4983,-0.3263,-0.5349,1.9694,rough,14.0,1,2.497
1740,55.68,2.2482,5.6854,0.6490,-0.3717,-0.4818,1.9477,slope,18.0,1,2.200
1750,56.00,2.0940,6.0054,0.8147,-0.4086,-0.4924,1.9382,slope,18.0,1,1.849
1760,56.32,1.9515,6.3382,0.9910,-0.4431,-0.5189,1.9105,slope,18.0,1,1.497
1770,56.64,1.8307,6.6152,1.1571,-0.4566,-0.5452,1.9233,slope,18.0,1,1.208
1780,56.96,1.7357,6.8327,1.2884,-0.4421,-0.5403,1.9454,slope,18.0,2,0.986
1790,57.28,1.6365,7.0682,1.4324,-0.3501,-0.5967,1.8462,rough,14.0,2,15.311
1800,57.60,1.5762,7.2491,1.5484,-0.3003,-0.5707,1.7584,rough,14.0,2,15.416
1810,57.92,1.5347,7.2680,1.5528,-0.2765,-0.5787,1.7213,rough,14.0,2,15.405
1820,58.24,1.5134,7.1100,1.4364,-0.2429,-0.6424,1.6561,rough,14.0,2,15.267
1830,58.56,1.5117,6.8963,1.2733,-0.2111,-0.6554,1.5895,slope,18.0,2,15.098
1840,58.88,1.5122,6.7063,1.1315,-0.2019,-0.6284,1.5759,slope,18.0,2,14.951
1850,59.20,1.5126,6.5821,1.0427,-0.1998,-0.6228,1.5851,slope,18.0,2,14.855
1860,59.52,1.5101,6.5383,1.0113,-0.2034,-0.6228,1.5964,slope,18.0,2,14.819
1870,59.84,1.5038,6.5782,1.0378,-0.2092,-0.6204,1.6012,slope,18.0,2,14.846
1880,60.16,1.4928,6.6884,1.1138,-0.2228,-0.6197,1.6118,slope,18.0,2,14.924
1890,60.48,1.4849,6.7710,1.1734,-0.2236,-0.6364,1.6044,slope,18.0,2,14.984
1900,60.80,1.4843,6.7092,1.1273,-0.2070,-0.6290,1.5821,slope,18.0,2,14.935
1910,61.12,1.4834,6.6142,1.0570,-0.2092,-0.6129,1.5947,slope,18.0,2,14.861
1920,61.44,1.4785,6.5792,1.0321,-0.2215,-0.6150,1.6195,slope,18.0,2,14.831
1930,61.76,1.4665,6.6269,1.0624,-0.2293,-0.6093,1.6267,slope,18.0,2,14.860
1940,62.08,1.4536,6.7278,1.1341,-0.2342,-0.6269,1.6242,slope,18.0,2,14.931
1950,62.40,1.4507,6.7033,1.1151,-0.2149,-0.6278,1.5931,slope,18.0,2,14.910
1960,62.72,1.4513,6.6061,1.0429,-0.2016,-0.6170,1.5905,slope,18.0,2,14.834
1970,63.04,1.4492,6.5155,0.9801,-0.2224,-0.6156,1.6257,slope,18.0,2,14.763
1980,63.36,1.4368,6.4816,0.9534,-0.2606,-0.6022,1.6959,slope,18.0,2,14.729
1990,63.68,1.4034,6.5278,0.9751,-0.2771,-0.5769,1.7212,slope,18.0,2,14.743
2000,64.00,1.3609,6.6495,1.0556,-0.2737,-0.5832,1.7237,slope,18.0,2,14.812
2010,64.32,1.3233,6.8159,1.1713,-0.2644,-0.6327,1.7164,slope,18.0,2,14.919
2020,64.64,1.3086,6.8643,1.2049,-0.2245,-0.6500,1.6532,slope,18.0,2,14.948
2030,64.96,1.3066,6.7809,1.1431,-0.1907,-0.6395,1.5991,slope,18.0,2,14.881
2040,65.28,1.3069,6.6890,1.0764,-0.1798,-0.6156,1.5925,slope,18.0,2,14.809
2050,65.60,1.3041,6.6012,1.0123,-0.2095,-0.5979,1.6454,slope,18.0,2,14.738
2060,65.92,1.2914,6.5441,0.9691,-0.2593,-0.5788,1.7397,slope,18.0,2,14.686
2070,66.24,1.2600,6.5832,0.9905,-0.2684,-0.5667,1.7651,slope,18.0,2,14.697
2080,66.56,1.2055,6.7129,1.0733,-0.2657,-0.5799,1.7816,slope,18.0,3,15.075
2090,66.88,1.1520,6.8881,1.1844,-0.2833,-0.6114,1.7741,slope,18.0,3,15.176
2100,67.20,1.1256,6.9418,1.2243,-0.3281,-0.5842,1.8921,slope,18.0,3,15.201
2110,67.52,1.0800,6.8880,1.1751,-0.3902,-0.5496,2.0157,slope,18.0,3,15.131
2120,67.84,0.9833,6.8808,1.1531,-0.4969,-0.4353,2.2809,slope,18.0,3,15.065
2130,68.16,0.8020,6.9627,1.1914,-0.5254,-0.4363,2.3226,slope,18.0,3,15.017
2140,68.48,0.5765,7.0843,1.2341,-0.4432,-0.3908,2.2444,slope,18.0,3,14.976
2150,68.80,0.3139,7.2825,1.3144,-0.4627,-0.3667,2.2360,slope,18.0,3,14.981
2160,69.12,-0.0087,7.6525,1.4482,-0.4008,-0.2492,2.1914,slope,18.0,3,15.101
2170,69.44,-0.3012,8.0540,1.5523,-0.3859,-0.2005,2.2083,slope,18.0,3,15.278
2180,69.76,-0.5637,8.3914,1.6075,-0.3365,-0.1116,2.2617,slope,18.0,3,15.430
2190,70.08,-0.8130,8.6447,1.6352,-0.3349,-0.0804,2.3783,slope,18.0,3,15.525
2200,70.40,-1.0464,8.8263,1.6501,-0.3173,0.0081,2.4963,slope,18.0,3,15.572
2210,70.72,-1.2787,8.9560,1.6377,-0.3148,0.0391,2.6202,slope,18.0,3,15.578
2220,71.04,-1.5150,9.0629,1.6080,-0.2732,0.1061,2.7326,slope,18.0,3,15.567
2230,71.36,-1.7496,9.1501,1.5751,-0.2069,0.1695,2.8022,slope,18.0,3,15.543
2240,71.68,-1.9632,9.2070,1.5328,-0.1906,0.1706,2.8772,slope,18.0,3,15.504
2250,72.00,-2.1739,9.2512,1.4925,-0.1536,0.2000,2.9443,slope,18.0,3,15.458
2260,72.32,-2.3549,9.2534,1.4557,-0.1192,0.2000,3.1053,slope,18.0,3,15.388
2270,72.64,-2.5279,9.2082,1.4149,-0.0692,0.2021,-2.9549,slope,18.0,3,15.279
2280,72.96,-2.7071,9.1354,1.3741,-0.0334,0.2074,-2.7912,slope,18.0,3,15.143
2290,73.28,-2.9173,9.0558,1.3294,-0.0417,0.2152,-2.7239,slope,18.0,3,14.991
2300,73.60,-3.1392,8.9555,1.2771,-0.0274,0.2239,-2.6443,slope,18.0,3,14.817
2310,73.92,-3.3712,8.8200,1.2091,-0.0493,0.2690,-2.5707,slope,18.0,3,14.609
2320,74.24,-3.6177,8.6528,1.1210,-0.0563,0.3064,-2.4994,slope,18.0,3,14.368
2330,74.56,-3.8731,8.4509,1.0187,-0.0284,0.3168,-2.4355,slope,18.0,3,14.093
2340,74.88,-4.1447,8.2029,0.9051,0.0096,0.2975,-2.3842,slope,18.0,3,13.772
2350,75.20,-4.4442,7.9077,0.7920,0.0034,0.2293,-2.3502,slope,18.0,3,13.400
2360,75.52,-4.7998,7.5455,0.6835,0.0389,0.2118,-2.3351,slope,18.0,3,12.951
2370,75.84,-5.1618,7.1575,0.5593,0.0468,0.2628,-2.2505,slope,18.0,3,12.479
2380,76.16,-5.4315,6.7381,0.4176,0.1214,0.2922,-2.0484,slope,18.0,3,12.005
2390,76.48,-5.6280,6.2783,0.2867,0.1947,0.2435,-1.9212,slope,18.0,3,11.511
2400,76.80,-5.7612,5.8301,0.2147,0.1398,0.0786,-1.7152,slope,18.0,3,11.044
2410,77.12,-5.8015,5.3486,0.2241,0.0849,-0.0527,-1.4963,slope,18.0,3,10.567
2420,77.44,-5.7182,4.8228,0.2171,-0.0458,0.0136,-1.4260,flat,18.0,3,10.080
2430,77.76,-5.6644,4.3206,0.2003,-0.0537,0.0417,-1.6853,slope,18.0,3,9.613
2440,78.08,-5.7568,3.8059,0.1857,-0.0177,0.0212,-1.8216,flat,18.0,3,9.093
2450,78.40,-5.9049,3.2709,0.1793,-0.0003,-0.0038,-1.8609,flat,18.0,3,8.539
2460,78.72,-6.0723,2.7301,0.1808,0.0005,-0.0068,-1.8859,flat,18.0,3,7.972
2470,79.04,-6.2497,2.1993,0.1962,0.0110,-0.0757,-1.8932,flat,18.0,3,7.413
2480,79.36,-6.4409,1.6530,0.2190,0.0630,0.0029,-1.8818,slope,18.0,3,6.835
2490,79.68,-6.6096,1.1061,0.2067,0.0395,0.0457,-1.8602,slope,18.0,3,6.262
2500,80.00,-6.7578,0.5635,0.1851,-0.0025,0.0042,-1.8483,flat,18.0,3,5.700
2510,80.32,-6.9110,0.0181,0.1877,-0.0219,-0.0273,-1.8565,flat,18.0,3,5.134
2520,80.64,-7.0731,-0.5366,0.1841,-0.0223,-0.0111,-1.8619,flat,18.0,3,4.556
2530,80.96,-7.2450,-1.0910,0.1864,0.0076,0.0201,-1.8610,flat,18.0,3,3.975
2540,81.28,-7.4067,-1.6340,0.1801,0.0127,-0.0097,-1.8531,flat,18.0,3,3.409
2550,81.60,-7.5626,-2.1845,0.1817,0.0038,-0.0076,-1.8444,flat,18.0,3,2.837
2560,81.92,-7.7089,-2.7059,0.1939,0.0078,-0.0352,-1.8296,flat,18.0,3,2.296
2570,82.24,-7.8359,-3.1985,0.2239,-0.0016,-0.0598,-1.8029,slope,18.0,3,1.788
2580,82.56,-7.9405,-3.6853,0.2236,0.0034,0.0045,-1.7569,flat,18.0,3,1.296
2590,82.88,-8.0140,-4.1601,0.1933,-0.0081,0.0884,-1.6736,slope,18.0,0,13.364
2600,83.20,-8.0476,-4.5981,0.1783,0.0093,0.0039,-1.5878,flat,18.0,0,13.392
2610,83.52,-8.0468,-5.0485,0.1797,0.0009,0.0001,-1.4955,flat,18.0,0,13.402
2620,83.84,-8.0068,-5.5009,0.1799,0.0001,-0.0001,-1.4118,flat,18.0,0,13.387
2630,84.16,-7.9269,-5.9469,0.1884,-0.0060,-0.0675,-1.3602,flat,18.0,0,13.348
2640,84.48,-7.8112,-6.4224,0.2175,-0.0204,-0.0327,-1.3319,slope,18.0,0,13.293
2650,84.80,-7.6755,-6.9314,0.2191,-0.0608,0.0338,-1.3202,flat,18.0,0,13.242
2660,85.12,-7.5448,-7.4663,0.1937,-0.0067,0.0488,-1.3083,flat,18.0,0,13.222
2670,85.44,-7.4087,-7.9652,0.1792,0.0065,-0.0100,-1.2782,flat,18.0,0,13.210
2680,85.76,-7.2899,-8.3731,0.1861,0.0340,-0.0012,-1.2037,flat,18.0,0,13.209
2690,86.08,-7.1666,-8.6880,0.1850,0.0432,-0.0154,-1.0988,flat,18.0,0,13.187
2700,86.40,-7.0323,-8.9513,0.1837,0.0546,0.0026,-1.0094,flat,18.0,0,13.146
2710,86.72,-6.9052,-9.1355,0.1917,0.0375,0.0257,-0.8724,flat,18.0,0,13.090
2720,87.04,-6.7903,-9.2705,0.1862,0.0240,0.0122,-0.7333,flat,18.0,0,13.032
2730,87.36,-6.6661,-9.3822,0.1868,0.0230,0.0184,-0.5933,flat,18.0,0,12.958
2740,87.68,-6.5519,-9.4734,0.1851,0.0198,0.0113,-0.4429,flat,18.0,0,12.886
2750,88.00,-6.4453,-9.5378,0.1822,0.0100,0.0048,-0.2862,flat,18.0,0,12.813
2760,88.32,-6.3447,-9.5822,0.1799,0.0002,0.0012,-0.1205,flat,18.0,0,12.738
2770,88.64,-6.2519,-9.6095,0.1799,0.0000,0.0000,0.0413,flat,18.0,0,12.664
2780,88.96,-6.1637,-9.6186,0.1799,0.0000,0.0000,0.1725,flat,18.0,0,12.587
2790,89.28,-6.0778,-9.6123,0.1799,0.0000,-0.0000,0.2785,flat,18.0,0,12.506
2800,89.60,-5.9915,-9.5958,0.1802,0.0020,-0.0009,0.3658,flat,18.0,0,12.421
2810,89.92,-5.9034,-9.5711,0.1811,0.0067,-0.0016,0.4390,flat,18.0,0,12.330
