step,time_s,x,y,z,roll,pitch,yaw,terrain,speed,target_idx,dist_to_target
10,0.32,1.0679,-0.7750,0.1840,-0.0000,-0.0344,-0.0000,rough,14.0,0,5.685
20,0.64,1.4748,-0.7815,0.1795,0.0001,0.0030,-0.1336,rough,14.0,0,5.381
30,0.96,1.8880,-0.8452,0.1799,-0.0000,-0.0000,-0.2660,rough,14.0,0,5.045
40,1.28,2.2916,-0.9639,0.1799,0.0002,-0.0000,-0.3735,rough,14.0,0,4.687
50,1.60,2.6833,-1.1267,0.1799,-0.0001,-0.0000,-0.4613,rough,14.0,0,4.313
60,1.92,3.0629,-1.3253,0.1799,-0.0002,-0.0000,-0.5311,rough,14.0,0,3.926
70,2.24,3.4328,-1.5505,0.1799,-0.0001,-0.0000,-0.5826,rough,14.0,0,3.532
80,2.56,3.7892,-1.7947,0.1799,-0.0002,0.0000,-0.6365,rough,14.0,0,3.138
90,2.88,4.1299,-2.0580,0.1799,-0.0002,0.0000,-0.6944,rough,14.0,0,2.746
100,3.20,4.4522,-2.3408,0.1799,-0.0002,0.0000,-0.7576,rough,14.0,0,2.355
110,3.52,4.7529,-2.6436,0.1799,-0.0002,0.0000,-0.8271,rough,14.0,0,1.968
120,3.84,5.0310,-2.9664,0.1799,-0.0000,0.0000,-0.9076,rough,14.0,0,1.585
130,4.16,5.2791,-3.3062,0.1799,-0.0040,-0.0058,-1.0070,rough,14.0,0,1.216
140,4.48,5.4634,-3.6517,0.2020,0.0377,-0.1015,-1.1256,rough,14.0,0,0.877
150,4.80,5.5456,-3.9413,0.2218,0.1230,-0.1024,-1.0021,rough,14.0,1,12.313
160,5.12,5.5944,-3.9885,0.2278,0.0547,-0.1862,-0.4645,rough,14.0,1,12.375
170,5.44,5.7717,-4.0705,0.2755,-0.0222,-0.2601,-0.2209,rough,14.0,1,12.518
180,5.76,5.9338,-4.1177,0.3194,-0.0383,-0.3144,-0.0898,rough,14.0,1,12.624
190,6.08,6.0967,-4.1430,0.3589,-0.0122,-0.2705,-0.0366,rough,14.0,1,12.711
200,6.40,6.2495,-4.1562,0.4002,0.0145,-0.2596,-0.0118,rough,14.0,1,12.785
210,6.72,6.3929,-4.1625,0.4345,0.0405,-0.2958,-0.0016,rough,14.0,1,12.850
220,7.04,6.5312,-4.1606,0.4752,0.0323,-0.2870,-0.0090,rough,14.0,1,12.907
230,7.36,6.6755,-4.1651,0.5140,0.0546,-0.2655,-0.0136,rough,14.0,1,12.973
240,7.68,6.8247,-4.1657,0.5530,0.0538,-0.2529,0.0109,rough,14.0,1,13.039
250,8.00,6.9793,-4.1555,0.5946,0.0443,-0.2582,0.0517,rough,14.0,1,13.100
260,8.32,7.1471,-4.1292,0.6388,0.0177,-0.2582,0.1265,rough,14.0,1,13.154
270,8.64,7.3340,-4.0793,0.6844,-0.0180,-0.2307,0.2520,rough,14.0,1,13.198
280,8.96,7.5280,-3.9892,0.7268,-0.0793,-0.2112,0.4283,rough,14.0,1,13.214
290,9.28,7.7313,-3.8425,0.7688,-0.1180,-0.1380,0.6123,rough,14.0,1,13.188
300,9.60,7.9369,-3.6380,0.7957,-0.1617,-0.0926,0.7972,rough,14.0,1,13.120
310,9.92,8.1452,-3.3851,0.8238,-0.1754,-0.0779,0.9753,rough,14.0,1,13.019
320,10.24,8.3057,-3.0841,0.8503,-0.1858,-0.0861,1.1609,rough,14.0,1,12.858
330,10.56,8.3981,-2.7242,0.8663,-0.2331,-0.0647,1.3406,rough,14.0,1,12.617
340,10.88,8.4362,-2.3210,0.8748,-0.2439,0.0006,1.4975,rough,14.0,1,12.315
350,11.20,8.4165,-1.8950,0.8475,-0.2580,0.0822,1.6337,rough,14.0,1,11.966
360,11.52,8.3625,-1.4525,0.7770,-0.2652,0.1879,1.6911,rough,14.0,1,11.587
370,11.84,8.2949,-1.0165,0.6820,-0.2793,0.2507,1.7211,rough,14.0,1,11.209
380,12.16,8.2235,-0.6019,0.5880,-0.2748,0.1863,1.7638,rough,14.0,1,10.849
390,12.48,8.1194,-0.1933,0.5164,-0.2895,0.1503,1.8406,rough,14.0,1,10.476
400,12.80,7.9789,0.2107,0.4603,-0.3612,0.1494,1.8863,rough,14.0,1,10.086
410,13.12,7.8198,0.6053,0.4086,-0.4009,0.1173,1.9392,rough,14.0,1,9.692
420,13.44,7.6405,0.9877,0.3583,-0.4435,0.1073,1.9906,rough,14.0,1,9.294
430,13.76,7.4427,1.3594,0.2900,-0.4502,0.0821,2.0701,rough,14.0,1,8.894
440,14.08,7.2378,1.6947,0.2733,-0.3542,-0.0024,2.1893,rough,14.0,1,8.514
450,14.40,6.9596,2.0494,0.2669,-0.3681,0.1249,2.1887,rough,14.0,1,8.069
460,14.72,6.7191,2.3392,0.2678,-0.3372,-0.1620,2.3005,rough,14.0,1,7.696
470,15.04,6.3646,2.6695,0.2902,-0.4443,0.2596,2.2325,rough,14.0,1,7.212
480,15.36,6.1329,2.8693,0.2951,-0.4984,-0.2940,2.4298,rough,14.0,1,6.906
490,15.68,5.7948,3.1482,0.2518,-0.3317,0.1472,2.3026,rough,14.0,1,6.468
500,16.00,5.5641,3.4058,0.2659,-0.2736,-0.3060,2.3139,rough,14.0,1,6.124
510,16.32,5.2598,3.6767,0.2571,-0.3438,-0.0460,2.2185,rough,14.0,1,5.716
520,16.64,5.0160,3.8808,0.3098,-0.4429,-0.3385,2.3149,rough,14.0,1,5.399
530,16.96,4.7097,4.1350,0.3674,-0.5720,-0.1498,2.2114,rough,14.0,1,5.001
540,17.28,4.4225,4.3792,0.3852,-0.6454,-0.1632,2.3539,rough,14.0,1,4.624
550,17.60,4.1215,4.5312,0.3857,-0.5285,-0.2225,2.3514,rough,14.0,1,4.301
560,17.92,3.7797,4.7452,0.3926,-0.6281,-0.1297,2.2252,rough,14.0,1,3.907
570,18.24,3.5156,5.0237,0.4610,-0.6421,-0.2829,2.3497,rough,14.0,1,3.523
580,18.56,3.2144,5.2818,0.5742,-0.6160,-0.3272,2.3727,rough,14.0,1,3.128
590,18.88,2.9087,5.5357,0.6929,-0.6158,-0.3354,2.3927,rough,14.0,1,2.733
600,19.20,2.5892,5.7780,0.7974,-0.6223,-0.2691,2.3658,rough,14.0,1,2.338
610,19.52,2.2793,6.0432,0.9025,-0.6496,-0.3080,2.3887,rough,14.0,1,1.934
620,19.84,1.9616,6.3235,0.9888,-0.6197,-0.2426,2.3693,rough,14.0,1,1.515
630,20.16,1.6614,6.6022,1.0987,-0.6071,-0.3043,2.3799,rough,14.0,1,1.112
640,20.48,1.3727,6.8690,1.2207,-0.5978,-0.2997,2.4294,rough,14.0,2,14.991
650,20.80,1.1152,6.9723,1.2474,-0.6644,-0.1424,2.7705,rough,14.0,2,14.915
660,21.12,0.7899,7.0136,1.2193,-0.6391,0.0806,3.0293,rough,14.0,2,14.754
670,21.44,0.4217,6.9926,1.1595,-0.5780,0.1397,-3.0466,rough,14.0,2,14.523
680,21.76,0.0365,6.9066,1.0667,-0.4963,0.2033,-2.8828,rough,14.0,2,14.235
690,22.08,-0.3502,6.7752,0.9637,-0.4059,0.2257,-2.7585,rough,14.0,2,13.913
700,22.40,-0.7262,6.5933,0.8504,-0.3675,0.2788,-2.6694,rough,14.0,2,13.558
710,22.72,-1.0880,6.3804,0.7177,-0.3155,0.3171,-2.5948,rough,14.0,2,13.187
720,23.04,-1.4253,6.1518,0.5869,-0.2746,0.2958,-2.5211,rough,14.0,2,12.818
730,23.36,-1.7492,5.9051,0.4744,-0.2226,0.2309,-2.4547,rough,14.0,2,12.443
740,23.68,-2.0588,5.6323,0.4032,-0.1727,0.1149,-2.3904,rough,14.0,2,12.053
750,24.00,-2.3686,5.3353,0.3510,-0.1339,0.0859,-2.3490,rough,14.0,2,11.644
760,24.32,-2.6738,5.0204,0.3182,-0.0940,0.0838,-2.3174,rough,14.0,2,11.223
770,24.64,-2.9763,4.6894,0.2664,-0.0429,0.1237,-2.2885,rough,14.0,2,10.790
780,24.96,-3.2624,4.3608,0.2190,-0.0067,0.1130,-2.2583,rough,14.0,2,10.367
790,25.28,-3.5254,4.0283,0.1902,-0.0079,0.0235,-2.2304,rough,14.0,2,9.953
800,25.60,-3.7840,3.6922,0.1983,0.0014,-0.0557,-2.2084,rough,14.0,2,9.538
810,25.92,-4.0391,3.3378,0.2239,-0.0007,-0.0635,-2.1873,rough,14.0,2,9.108
820,26.24,-4.2963,2.9614,0.2241,-0.0040,0.0184,-2.1644,rough,14.0,2,8.659
830,26.56,-4.5446,2.5825,0.2034,-0.0253,0.0698,-2.1449,rough,14.0,2,8.211
840,26.88,-4.7797,2.2175,0.1843,-0.0109,0.0210,-2.1270,rough,14.0,2,7.782
850,27.20,-5.0083,1.8435,0.1830,-0.0142,-0.0097,-2.1113,rough,14.0,2,7.348
860,27.52,-5.2289,1.4626,0.1917,-0.0276,-0.0236,-2.0956,rough,14.0,2,6.912
870,27.84,-5.4450,1.0683,0.1935,-0.0481,0.0188,-2.0814,rough,14.0,2,6.465
880,28.16,-5.6638,0.6788,0.1874,-0.0219,0.0200,-2.0732,rough,14.0,2,6.022
890,28.48,-5.8775,0.2916,0.1814,-0.0027,0.0082,-2.0617,rough,14.0,2,5.583
900,28.80,-6.0848,-0.0996,0.1798,0.0004,-0.0002,-2.0497,rough,14.0,2,5.144
910,29.12,-6.2875,-0.4948,0.1798,0.0001,-0.0000,-2.0343,rough,14.0,2,4.703
920,29.44,-6.4834,-0.8800,0.1884,0.0119,-0.0430,-2.0263,rough,14.0,2,4.274
930,29.76,-6.6837,-1.2803,0.1961,0.0403,-0.0110,-2.0156,rough,14.0,2,3.830
940,30.08,-6.8749,-1.6817,0.1984,0.0417,0.0059,-2.0007,rough,14.0,2,3.390
950,30.40,-7.0590,-2.0891,0.1899,0.0277,0.0156,-1.9814,rough,14.0,2,2.946
960,30.72,-7.2325,-2.4916,0.1882,0.0227,-0.0083,-1.9685,rough,14.0,2,2.512
970,31.04,-7.3913,-2.8942,0.1961,-0.0084,-0.0587,-1.9477,rough,14.0,2,2.082
980,31.36,-7.5418,-3.3174,0.2165,-0.0561,-0.0142,-1.9249,rough,14.0,2,1.635
990,31.68,-7.6899,-3.7402,0.2164,-0.0735,0.0267,-1.9062,rough,14.0,2,1.192
1000,32.00,-7.8335,-4.1634,0.1954,-0.0178,0.0855,-1.9039,rough,14.0,3,0.933
1010,32.32,-7.9331,-4.5049,0.1797,0.0074,-0.0029,-1.7352,rough,14.0,0,13.278
1020,32.64,-7.9738,-4.8080,0.1796,-0.0007,0.0000,-1.3961,rough,14.0,0,13.322
1030,32.96,-7.9036,-5.1297,0.1799,-0.0002,-0.0001,-1.1509,rough,14.0,0,13.262
1040,33.28,-7.7389,-5.4498,0.1799,0.0001,-0.0002,-0.9634,rough,14.0,0,13.117
1050,33.60,-7.5074,-5.7542,0.1864,-0.0016,-0.0428,-0.8216,rough,14.0,0,12.911
1060,33.92,-7.2150,-6.0355,0.1899,-0.0246,-0.0207,-0.6841,rough,14.0,0,12.651
1070,34.24,-6.8850,-6.2810,0.1846,-0.0075,0.0108,-0.5701,rough,14.0,0,12.356
1080,34.56,-6.5348,-6.4897,0.1752,0.0157,0.0036,-0.4802,rough,14.0,0,12.042
1090,34.88,-6.1465,-6.6690,0.1796,0.0008,0.0004,-0.4006,rough,14.0,0,11.690
1100,35.20,-5.7458,-6.8268,0.1799,0.0002,-0.0000,-0.3041,rough,14.0,0,11.328
1110,35.52,-5.3406,-6.9451,0.1831,-0.0025,-0.0265,-0.2390,rough,14.0,0,10.957
1120,35.84,-4.9512,-7.0419,0.2027,0.0097,-0.0490,-0.2123,rough,14.0,0,10.600
1130,36.16,-4.5447,-7.1321,0.2111,0.0327,-0.0085,-0.1828,rough,14.0,0,10.228
1140,36.48,-4.1159,-7.2049,0.2118,0.0537,0.0224,-0.1036,rough,14.0,0,9.834
1150,36.80,-3.6795,-7.2420,0.1971,0.0440,0.0394,-0.0320,rough,14.0,0,9.426
1160,37.12,-3.2492,-7.2403,0.1793,-0.0073,0.0015,0.0223,rough,14.0,0,9.014
1170,37.44,-2.8130,-7.2245,0.1807,-0.0043,-0.0032,0.0701,rough,14.0,0,8.594
1180,37.76,-2.3745,-7.1818,0.1807,-0.0048,0.0017,0.1101,rough,14.0,0,8.165
1190,38.08,-1.9368,-7.1238,0.1799,0.0002,-0.0002,0.1383,rough,14.0,0,7.733
1200,38.40,-1.5098,-7.0564,0.1918,-0.0021,-0.0463,0.1692,rough,14.0,0,7.309
1210,38.72,-1.0796,-6.9823,0.2111,0.0115,-0.0593,0.1967,rough,14.0,0,6.880
1220,39.04,-0.6345,-6.8893,0.2260,0.0167,0.0129,0.2196,rough,14.0,0,6.431
1230,39.36,-0.1943,-6.7894,0.2160,0.0181,0.0565,0.2374,rough,14.0,0,5.986
1240,39.68,0.2352,-6.6797,0.1915,0.0060,0.0676,0.2542,rough,14.0,0,5.547
1250,40.00,0.6517,-6.5677,0.1802,0.0045,0.0048,0.2716,rough,14.0,0,5.120
1260,40.32,1.0752,-6.4475,0.1805,0.0044,-0.0009,0.2878,rough,14.0,0,4.684
1270,40.64,1.4996,-6.3199,0.1809,0.0056,0.0007,0.3023,rough,14.0,0,4.245
1280,40.96,1.9204,-6.1862,0.1801,0.0008,-0.0011,0.3125,rough,14.0,0,3.808
1290,41.28,2.3392,-6.0451,0.1843,-0.0190,-0.0051,0.3226,rough,14.0,0,3.370
1300,41.60,2.7536,-5.8994,0.1865,-0.0324,0.0048,0.3391,rough,14.0,0,2.935
1310,41.92,3.1706,-5.7459,0.1840,-0.0148,0.0094,0.3622,rough,14.0,0,2.496
1320,42.24,3.5804,-5.5840,0.1797,-0.0021,-0.0021,0.3866,rough,14.0,0,2.060
1330,42.56,3.9866,-5.4135,0.1794,0.0024,0.0001,0.4122,rough,14.0,0,1.625
1340,42.88,4.3746,-5.2370,0.1878,-0.0033,-0.0504,0.4356,rough,14.0,0,1.206
1350,43.20,4.7591,-5.0352,0.1971,-0.0699,-0.0249,0.4641,rough,14.0,1,13.091
1360,43.52,5.0460,-4.8547,0.2053,-0.1060,-0.0284,0.7038,rough,14.0,1,13.004
1370,43.84,5.2748,-4.5973,0.2190,-0.1381,-0.0366,0.8858,rough,14.0,1,12.833
1380,44.16,5.4611,-4.2838,0.2267,-0.1738,-0.0236,1.0440,rough,14.0,1,12.603
1390,44.48,5.6275,-3.9355,0.2382,-0.1810,-0.0358,1.1687,rough,14.0,1,12.338
1400,44.80,5.7431,-3.5421,0.2291,-0.2264,0.0214,1.2915,rough,14.0,1,12.019
1410,45.12,5.8429,-3.1485,0.2232,-0.2106,0.0216,1.3501,rough,14.0,1,11.699
1420,45.44,5.9425,-2.7337,0.2033,-0.1171,0.0075,1.3871,rough,14.0,1,11.365
1430,45.76,6.0167,-2.3088,0.1861,0.0055,0.0487,1.4780,rough,14.0,1,11.017
1440,46.08,6.0376,-1.8927,0.1789,-0.0062,-0.0007,1.5818,rough,14.0,1,10.658
1450,46.40,6.0286,-1.4612,0.1798,-0.0002,0.0002,1.6761,rough,14.0,1,10.275
1460,46.72,5.9785,-1.0306,0.1799,0.0002,0.0000,1.7499,rough,14.0,1,9.876
1470,47.04,5.8969,-0.6032,0.1799,0.0002,-0.0000,1.8093,rough,14.0,1,9.467
1480,47.36,5.7900,-0.1798,0.1799,0.0002,-0.0000,1.8585,rough,14.0,1,9.050
1490,47.68,5.6623,0.2391,0.1799,0.0001,-0.0000,1.9002,rough,14.0,1,8.627
1500,48.00,5.5172,0.6533,0.1799,0.0001,-0.0000,1.9361,rough,14.0,1,8.200
1510,48.32,5.3570,1.0627,0.1799,0.0001,-0.0000,1.9665,rough,14.0,1,7.771
1520,48.64,5.1844,1.4675,0.1799,0.0001,-0.0000,1.9927,rough,14.0,1,7.339
1530,48.96,5.0012,1.8682,0.1799,0.0001,-0.0000,2.0164,rough,14.0,1,6.906
1540,49.28,4.8084,2.2650,0.1799,0.0001,-0.0000,2.0383,rough,14.0,1,6.471
1550,49.60,4.6069,2.6580,0.1799,0.0001,-0.0000,2.0585,rough,14.0,1,6.034
1560,49.92,4.3973,3.0471,0.1799,0.0001,-0.0000,2.0774,rough,14.0,1,5.597
1570,50.24,4.1804,3.4325,0.1799,0.0000,-0.0000,2.0952,rough,14.0,1,5.159
1580,50.56,3.9615,3.8027,0.1895,-0.0039,-0.0612,2.1091,rough,14.0,1,4.733
1590,50.88,3.7108,4.1488,0.1999,-0.0938,-0.0186,2.1165,rough,14.0,1,4.306
1600,51.20,3.4904,4.4659,0.2443,-0.1714,-0.2370,2.1392,rough,14.0,1,3.921
1610,51.52,3.2139,4.7596,0.2724,-0.3183,-0.1631,2.2081,rough,14.0,1,3.519
1620,51.84,2.9478,5.0437,0.3626,-0.4623,-0.2841,2.2825,rough,14.0,1,3.131
1630,52.16,2.6673,5.3096,0.4800,-0.4721,-0.3370,2.3242,rough,14.0,1,2.749
1640,52.48,2.3727,5.5746,0.5964,-0.5345,-0.3157,2.3287,rough,14.0,1,2.362
1650,52.80,2.0802,5.8227,0.6933,-0.5325,-0.2891,2.3580,rough,14.0,1,1.993
1660,53.12,1.7744,6.0998,0.7883,-0.5950,-0.3127,2.3446,rough,14.0,1,1.600
1670,53.44,1.4906,6.3718,0.8913,-0.5579,-0.3298,2.3187,rough,14.0,1,1.232
1680,53.76,1.2230,6.6460,1.0281,-0.5297,-0.3978,2.2964,rough,14.0,1,0.888
1690,54.08,1.0125,6.8373,1.1293,-0.5505,-0.3681,2.4357,rough,14.0,2,14.746
1700,54.40,0.7648,6.9535,1.1817,-0.6467,-0.2033,2.7155,rough,14.0,2,14.691
1710,54.72,0.4528,7.0143,1.1778,-0.6214,-0.0109,2.9767,rough,14.0,2,14.559
1720,55.04,0.0978,7.0206,1.1360,-0.5363,0.0771,-3.0867,rough,14.0,2,14.364
1730,55.36,-0.2952,6.9485,1.0557,-0.4264,0.1911,-2.9223,rough,14.0,2,14.088
1740,55.68,-0.6822,6.8161,0.9599,-0.3940,0.2250,-2.7827,rough,14.0,2,13.770
1750,56.00,-1.0637,6.6444,0.8406,-0.3285,0.2871,-2.6799,rough,14.0,2,13.426
1760,56.32,-1.4220,6.4322,0.7031,-0.3180,0.3389,-2.6039,rough,14.0,2,13.063
1770,56.64,-1.7648,6.2074,0.5813,-0.2291,0.3061,-2.5238,rough,14.0,2,12.699
1780,56.96,-2.0821,5.9554,0.4799,-0.1950,0.2069,-2.4444,rough,14.0,2,12.326
1790,57.28,-2.3966,5.6782,0.4156,-0.1397,0.1306,-2.3879,rough,14.0,2,11.934
1800,57.60,-2.7035,5.3761,0.3667,-0.1193,0.0965,-2.3487,rough,14.0,2,11.525
1810,57.92,-3.0156,5.0558,0.3127,-0.0541,0.1400,-2.3159,rough,14.0,2,11.100
1820,58.24,-3.3113,4.7307,0.2551,-0.0065,0.1575,-2.2825,rough,14.0,2,10.678
1830,58.56,-3.5895,4.4052,0.2063,0.0366,0.1062,-2.2520,rough,14.0,2,10.266
1840,58.88,-3.8478,4.0777,0.1917,0.0307,-0.0179,-2.2284,rough,14.0,2,9.861
1850,59.20,-4.1050,3.7344,0.2039,0.0094,-0.0695,-2.2022,rough,14.0,2,9.442
1860,59.52,-4.3689,3.3798,0.2215,0.0494,-0.0378,-2.1747,rough,14.0,2,9.012
1870,59.84,-4.6188,2.9989,0.2191,0.0220,0.0334,-2.1441,rough,14.0,2,8.564
1880,60.16,-4.8535,2.6232,0.1984,0.0029,0.0290,-2.1199,rough,14.0,2,8.128
1890,60.48,-5.0787,2.2436,0.1858,-0.0128,0.0153,-2.1029,rough,14.0,2,7.692
1900,60.80,-5.2921,1.8674,0.1930,-0.0199,-0.0358,-2.0835,rough,14.0,2,7.264
1910,61.12,-5.4971,1.4755,0.2037,-0.0595,-0.0308,-2.0651,rough,14.0,2,6.825
1920,61.44,-5.7004,1.0737,0.2054,-0.0914,0.0121,-2.0526,rough,14.0,2,6.377
1930,61.76,-5.9189,0.6794,0.1913,-0.0127,0.0391,-2.0452,rough,14.0,2,5.932
1940,62.08,-6.1184,0.2905,0.1811,-0.0004,0.0079,-2.0346,rough,14.0,2,5.499
1950,62.40,-6.3144,-0.1047,0.1798,0.0004,-0.0002,-2.0203,rough,14.0,2,5.063
1960,62.72,-6.5051,-0.5054,0.1798,0.0001,-0.0000,-2.0028,rough,14.0,2,4.623
1970,63.04,-6.6894,-0.9007,0.1850,0.0090,-0.0258,-1.9934,rough,14.0,2,4.191
1980,63.36,-6.8750,-1.3037,0.1910,0.0389,-0.0092,-1.9785,rough,14.0,2,3.752
1990,63.68,-7.0506,-1.7113,0.1912,0.0457,-0.0001,-1.9651,rough,14.0,2,3.312
2000,64.00,-7.2172,-2.1256,0.1859,0.0224,0.0124,-1.9435,rough,14.0,2,2.870
2010,64.32,-7.3722,-2.5336,0.1885,0.0155,-0.0230,-1.9227,rough,14.0,2,2.437
2020,64.64,-7.5170,-2.9420,0.1988,-0.0006,-0.0717,-1.9012,rough,14.0,2,2.008
2030,64.96,-7.6466,-3.3718,0.2212,-0.0411,-0.0209,-1.8765,rough,14.0,2,1.562
2040,65.28,-7.7759,-3.8029,0.2154,-0.0503,0.0439,-1.8570,rough,14.0,2,1.118
2050,65.60,-7.8979,-4.2296,0.1922,-0.0030,0.0830,-1.8615,rough,14.0,3,0.841
2060,65.92,-7.9665,-4.5564,0.1765,0.0212,-0.0018,-1.6759,rough,14.0,0,13.311
2070,66.24,-7.9872,-4.8601,0.1798,-0.0000,-0.0002,-1.3293,rough,14.0,0,13.336
2080,66.56,-7.8944,-5.1813,0.1798,0.0001,-0.0000,-1.0957,rough,14.0,0,13.256
2090,66.88,-7.7070,-5.4994,0.1799,-0.0000,0.0000,-0.9251,rough,14.0,0,13.088
2100,67.20,-7.4628,-5.7840,0.1866,-0.0016,-0.0443,-0.7821,rough,14.0,0,12.870
2110,67.52,-7.1625,-6.0483,0.1860,-0.0228,0.0044,-0.6525,rough,14.0,0,12.600
2120,67.84,-6.8302,-6.2859,0.1838,-0.0005,0.0173,-0.5465,rough,14.0,0,12.302
2130,68.16,-6.4675,-6.4846,0.1808,0.0038,0.0032,-0.4483,rough,14.0,0,11.974
2140,68.48,-6.0782,-6.6601,0.1788,-0.0067,0.0002,-0.3539,rough,14.0,0,11.622
2150,68.80,-5.6708,-6.8037,0.1798,0.0000,-0.0006,-0.2568,rough,14.0,0,11.250
2160,69.12,-5.2660,-6.9044,0.1865,0.0000,-0.0460,-0.1982,rough,14.0,0,10.875
2170,69.44,-4.8674,-6.9871,0.2100,0.0189,-0.0576,-0.1756,rough,14.0,0,10.506
2180,69.76,-4.4489,-7.0629,0.2183,0.0329,-0.0076,-0.1387,rough,14.0,0,10.118
2190,70.08,-4.0126,-7.1180,0.2148,0.0433,0.0364,-0.0709,rough,14.0,0,9.711
2200,70.40,-3.5728,-7.1322,0.1949,0.0095,0.0623,-0.0124,rough,14.0,0,9.292
2210,70.72,-3.1471,-7.1318,0.1799,0.0004,0.0021,0.0322,rough,14.0,0,8.884
2220,71.04,-2.7087,-7.1114,0.1798,0.0003,-0.0002,0.0786,rough,14.0,0,8.460
2230,71.36,-2.2699,-7.0743,0.1798,0.0001,-0.0000,0.1173,rough,14.0,0,8.031
2240,71.68,-1.8350,-7.0201,0.1824,-0.0008,-0.0166,0.1459,rough,14.0,0,7.602
2250,72.00,-1.4041,-6.9551,0.1958,0.0033,-0.0366,0.1708,rough,14.0,0,7.175
2260,72.32,-0.9769,-6.8776,0.2166,0.0027,-0.0516,0.1910,rough,14.0,0,6.747
2270,72.64,-0.5305,-6.7827,0.2280,-0.0096,0.0211,0.2147,rough,14.0,0,6.296
2280,72.96,-0.0875,-6.6864,0.2119,0.0043,0.0744,0.2355,rough,14.0,0,5.848
2290,73.28,0.3331,-6.5814,0.1862,0.0004,0.0294,0.2544,rough,14.0,0,5.419
2300,73.60,0.7578,-6.4688,0.1810,0.0032,0.0037,0.2708,rough,14.0,0,4.984
2310,73.92,1.1832,-6.3501,0.1812,0.0076,-0.0016,0.2895,rough,14.0,0,4.546
2320,74.24,1.6089,-6.2221,0.1801,0.0015,0.0005,0.2999,rough,14.0,0,4.105
2330,74.56,2.0281,-6.0894,0.1812,-0.0019,-0.0029,0.3086,rough,14.0,0,3.669
2340,74.88,2.4482,-5.9498,0.1847,-0.0222,-0.0039,0.3182,rough,14.0,0,3.230
2350,75.20,2.8645,-5.8062,0.1856,-0.0309,0.0010,0.3373,rough,14.0,0,2.794
2360,75.52,3.2818,-5.6547,0.1813,-0.0074,0.0016,0.3599,rough,14.0,0,2.354
2370,75.84,3.6950,-5.4936,0.1789,0.0000,0.0064,0.3834,rough,14.0,0,1.915
2380,76.16,4.1007,-5.3264,0.1798,0.0001,0.0007,0.4106,rough,14.0,0,1.482
2390,76.48,4.4871,-5.1478,0.1899,-0.0219,-0.0393,0.4294,rough,14.0,0,1.063
2400,76.80,4.8565,-4.9670,0.1968,-0.0568,-0.0398,0.5265,rough,14.0,1,13.054
2410,77.12,5.1363,-4.7634,0.2112,-0.1313,-0.0376,0.7090,rough,14.0,1,12.945
2420,77.44,5.3756,-4.5082,0.2285,-0.1535,-0.0540,0.8902,rough,14.0,1,12.783
2430,77.76,5.5761,-4.1895,0.2398,-0.1914,-0.0482,1.0421,rough,14.0,1,12.556
2440,78.08,5.7253,-3.8365,0.2557,-0.2149,-0.0348,1.1906,rough,14.0,1,12.284
2450,78.40,5.8384,-3.4393,0.2417,-0.2741,0.0269,1.3078,rough,14.0,1,11.963
2460,78.72,5.9341,-3.0532,0.2279,-0.2394,0.0195,1.3732,rough,14.0,1,11.651
2470,79.04,6.0155,-2.6420,0.2073,-0.1380,0.0082,1.4411,rough,14.0,1,11.315
2480,79.36,6.0677,-2.2213,0.1831,-0.0103,0.0069,1.5313,rough,14.0,1,10.963
2490,79.68,6.0720,-1.7951,0.1797,0.0008,-0.0001,1.6314,rough,14.0,1,10.588
2500,80.00,6.0407,-1.3635,0.1799,0.0002,-0.0000,1.7140,rough,14.0,1,10.196
2510,80.32,5.9744,-0.9341,0.1799,0.0002,-0.0000,1.7795,rough,14.0,1,9.791
2520,80.64,5.8802,-0.5083,0.1799,0.0002,-0.0000,1.8331,rough,14.0,1,9.377
2530,80.96,5.7632,-0.0869,0.1799,0.0001,-0.0000,1.8780,rough,14.0,1,8.956
2540,81.28,5.6274,0.3301,0.1799,0.0001,-0.0000,1.9163,rough,14.0,1,8.532
2550,81.60,5.4755,0.7425,0.1799,0.0001,-0.0000,1.9495,rough,14.0,1,8.103
2560,81.92,5.3099,1.1499,0.1799,0.0001,-0.0000,1.9769,rough,14.0,1,7.672
2570,82.24,5.1331,1.5533,0.1799,0.0001,-0.0000,2.0016,rough,14.0,1,7.239
2580,82.56,4.9463,1.9528,0.1799,0.0001,-0.0000,2.0241,rough,14.0,1,6.805
2590,82.88,4.7504,2.3484,0.1799,0.0001,-0.0000,2.0449,rough,14.0,1,6.369
2600,83.20,4.5462,2.7403,0.1799,0.0001,-0.0000,2.0642,rough,14.0,1,5.932
2610,83.52,4.3344,3.1285,0.1799,0.0000,-0.0000,2.0823,rough,14.0,1,5.494
2620,83.84,4.1155,3.5131,0.1799,0.0000,-0.0000,2.0994,rough,14.0,1,5.056
2630,84.16,3.8913,3.8852,0.1858,-0.0087,-0.0314,2.1134,rough,14.0,1,4.625
2640,84.48,3.6574,4.2383,0.2086,-0.0701,-0.1296,2.1327,rough,14.0,1,4.203
2650,84.80,3.3874,4.5988,0.2475,-0.1923,0.0029,2.1478,rough,14.0,1,3.753
2660,85.12,3.1391,4.8284,0.2839,-0.3350,-0.3522,2.2967,rough,14.0,1,3.418
2670,85.44,2.8459,5.1102,0.3840,-0.4618,-0.3101,2.2636,rough,14.0,1,3.016
2680,85.76,2.5787,5.3980,0.5174,-0.5257,-0.4098,2.3276,rough,14.0,1,2.625
2690,86.08,2.2790,5.6940,0.6459,-0.5491,-0.3053,2.2921,rough,14.0,1,2.210
2700,86.40,1.9947,5.9925,0.7738,-0.5404,-0.3091,2.2842,rough,14.0,1,1.804
2710,86.72,1.7123,6.2821,0.8859,-0.5460,-0.3086,2.2990,rough,14.0,1,1.410
2720,87.04,1.4320,6.5589,1.0068,-0.5516,-0.3489,2.3086,rough,14.0,1,1.037
2730,87.36,1.1724,6.8005,1.1281,-0.5477,-0.3657,2.3379,rough,14.0,2,14.814
2740,87.68,0.9531,6.9274,1.1805,-0.6179,-0.2318,2.5958,rough,14.0,2,14.782
2750,88.00,0.6701,6.9997,1.1951,-0.6362,-0.0612,2.9097,rough,14.0,2,14.673
2760,88.32,0.3093,7.0245,1.1567,-0.5783,0.1190,3.1124,rough,14.0,2,14.486
2770,88.64,-0.0599,6.9769,1.0973,-0.4959,0.1439,-2.9696,rough,14.0,2,14.240
2780,88.96,-0.4574,6.8747,1.0063,-0.4046,0.2201,-2.8370,rough,14.0,2,13.939
2790,89.28,-0.8378,6.7126,0.8953,-0.3564,0.2643,-2.7142,rough,14.0,2,13.601
2800,89.60,-1.2024,6.5124,0.7673,-0.3220,0.3121,-2.6208,rough,14.0,2,13.242
2810,89.92,-1.5564,6.2920,0.6385,-0.2422,0.3384,-2.5548,rough,14.0,2,12.874
2820,90.24,-1.8806,6.0540,0.5201,-0.2263,0.2529,-2.4826,rough,14.0,2,12.509
2830,90.56,-2.2074,5.7919,0.4397,-0.1408,0.1796,-2.4178,rough,14.0,2,12.123
2840,90.88,-2.5104,5.5037,0.3836,-0.1258,0.0911,-2.3644,rough,14.0,2,11.727
2850,91.20,-2.8144,5.1935,0.3376,-0.0812,0.0649,-2.3230,rough,14.0,2,11.313
2860,91.52,-3.1208,4.8633,0.2834,-0.0349,0.1424,-2.2951,rough,14.0,2,10.881
2870,91.84,-3.4019,4.5374,0.2255,-0.0141,0.1106,-2.2632,rough,14.0,2,10.465
2880,92.16,-3.6779,4.2113,0.1962,0.0344,0.0496,-2.2333,rough,14.0,2,10.053
2890,92.48,-3.9344,3.8712,0.1945,0.0166,-0.0287,-2.2036,rough,14.0,2,9.637
2900,92.80,-4.1893,3.5248,0.2158,0.0261,-0.0591,-2.1837,rough,14.0,2,9.217
2910,93.12,-4.4439,3.1536,0.2251,0.0216,-0.0004,-2.1578,rough,14.0,2,8.775
2920,93.44,-4.6893,2.7770,0.2118,0.0167,0.0367,-2.1327,rough,14.0,2,8.332
2930,93.76,-4.9187,2.3969,0.1887,-0.0125,0.0415,-2.1130,rough,14.0,2,7.894
2940,94.08,-5.1373,2.0240,0.1835,-0.0188,-0.0174,-2.0982,rough,14.0,2,7.466
2950,94.40,-5.3505,1.6432,0.1967,-0.0282,-0.0457,-2.0791,rough,14.0,2,7.034
2960,94.72,-5.5588,1.2500,0.1998,-0.0393,-0.0226,-2.0624,rough,14.0,2,6.592
2970,95.04,-5.7659,0.8458,0.1980,-0.0613,0.0186,-2.0553,rough,14.0,2,6.141
2980,95.36,-5.9778,0.4574,0.1831,-0.0105,0.0109,-2.0421,rough,14.0,2,5.703
2990,95.68,-6.1778,0.0618,0.1799,-0.0001,0.0012,-2.0312,rough,14.0,2,5.264
3000,96.00,-6.3730,-0.3363,0.1798,-0.0001,-0.0001,-2.0155,rough,14.0,2,4.824
3010,96.32,-6.5619,-0.7314,0.1773,0.0076,-0.0258,-2.0024,rough,14.0,2,4.390
3020,96.64,-6.7506,-1.1308,0.1910,0.0331,-0.0155,-1.9924,rough,14.0,2,3.953
3030,96.96,-6.9319,-1.5344,0.1952,0.0411,-0.0041,-1.9811,rough,14.0,2,3.514
3040,97.28,-7.1084,-1.9427,0.1898,0.0351,0.0106,-1.9655,rough,14.0,2,3.074
3050,97.60,-7.2712,-2.3500,0.1860,0.0212,-0.0120,-1.9447,rough,14.0,2,2.639
3060,97.92,-7.4239,-2.7634,0.1898,-0.0169,-0.0261,-1.9236,rough,14.0,2,2.202
3070,98.24,-7.5647,-3.1726,0.2148,-0.0325,-0.0695,-1.8977,rough,14.0,2,1.773
3080,98.56,-7.7003,-3.6034,0.2211,-0.0500,-0.0031,-1.8790,rough,14.0,2,1.325
3090,98.88,-7.8337,-4.0377,0.2000,-0.0353,0.0705,-1.8462,rough,14.0,2,0.879
3100,99.20,-7.9369,-4.4154,0.1821,-0.0080,0.0082,-1.7949,rough,14.0,0,13.282
3110,99.52,-7.9870,-4.7141,0.1795,0.0013,-0.0001,-1.4604,rough,14.0,0,13.333
3120,99.84,-7.9421,-5.0344,0.1798,0.0002,0.0000,-1.1948,rough,14.0,0,13.297
3130,100.16,-7.7981,-5.3511,0.1798,0.0001,-0.0000,-0.9814,rough,14.0,0,13.169
3140,100.48,-7.5666,-5.6525,0.1825,-0.0103,-0.0053,-0.8288,rough,14.0,0,12.961
3150,100.80,-7.2834,-5.9195,0.1881,-0.0223,-0.0056,-0.6975,rough,14.0,0,12.705
3160,101.12,-6.9556,-6.1637,0.1900,-0.0081,0.0281,-0.5882,rough,14.0,0,12.410
3170,101.44,-6.6038,-6.3791,0.1822,0.0042,0.0105,-0.4932,rough,14.0,0,12.092
3180,101.76,-6.2259,-6.5679,0.1797,0.0001,0.0002,-0.3917,rough,14.0,0,11.750
3190,102.08,-5.8224,-6.7232,0.1799,0.0001,-0.0000,-0.3115,rough,14.0,0,11.382
3200,102.40,-5.4123,-6.8485,0.1823,0.0069,-0.0078,-0.2250,rough,14.0,0,11.006
3210,102.72,-5.0237,-6.9367,0.1995,0.0176,-0.0823,-0.1961,rough,14.0,0,10.646
3220,103.04,-4.6114,-7.0213,0.2191,0.0473,-0.0345,-0.1671,rough,14.0,0,10.265
3230,103.36,-4.1843,-7.0960,0.2198,0.0601,0.0374,-0.1180,rough,14.0,0,9.871
3240,103.68,-3.7532,-7.1388,0.2042,0.0387,0.0348,-0.0549,rough,14.0,0,9.467
3250,104.00,-3.3185,-7.1535,0.1821,0.0163,0.0310,-0.0001,rough,14.0,0,9.054
3260,104.32,-2.8861,-7.1445,0.1798,-0.0005,-0.0001,0.0507,rough,14.0,0,8.639
3270,104.64,-2.4472,-7.1197,0.1798,0.0001,-0.0000,0.0951,rough,14.0,0,8.214
3280,104.96,-2.0089,-7.0755,0.1799,0.0001,-0.0000,0.1329,rough,14.0,0,7.785
3290,105.28,-1.5801,-7.0146,0.1883,-0.0070,-0.0433,0.1570,rough,14.0,0,7.360
3300,105.60,-1.1509,-6.9432,0.2088,0.0076,-0.0589,0.1735,rough,14.0,0,6.933
3310,105.92,-0.7116,-6.8628,0.2247,0.0124,-0.0125,0.2017,rough,14.0,0,6.493
3320,106.24,-0.2702,-6.7681,0.2149,-0.0099,0.0394,0.2159,rough,14.0,0,6.048
3330,106.56,0.1693,-6.6727,0.1906,0.0181,0.0818,0.2357,rough,14.0,0,5.605
3340,106.88,0.5867,-6.5677,0.1815,-0.0006,0.0120,0.2489,rough,14.0,0,5.180
3350,107.20,1.0124,-6.4580,0.1805,0.0037,-0.0007,0.2724,rough,14.0,0,4.746
3360,107.52,1.4379,-6.3370,0.1808,0.0051,0.0005,0.2894,rough,14.0,0,4.308
3370,107.84,1.8629,-6.2083,0.1809,0.0006,-0.0045,0.3008,rough,14.0,0,3.869
3380,108.16,2.2844,-6.0729,0.1838,-0.0153,-0.0065,0.3115,rough,14.0,0,3.432
3390,108.48,2.6980,-5.9336,0.1845,-0.0265,-0.0056,0.3284,rough,14.0,0,3.000
3400,108.80,3.1172,-5.7824,0.1859,-0.0221,0.0122,0.3530,rough,14.0,0,2.560
3410,109.12,3.5298,-5.6249,0.1813,-0.0011,0.0094,0.3795,rough,14.0,0,2.125
3420,109.44,3.9344,-5.4576,0.1799,-0.0001,-0.0001,0.4074,rough,14.0,0,1.693
3430,109.76,4.3290,-5.2767,0.1831,-0.0265,-0.0212,0.4342,rough,14.0,0,1.266
3440,110.08,4.7214,-5.0823,0.1902,-0.0573,0.0020,0.4627,rough,14.0,0,0.839
3450,110.40,5.0097,-4.9062,0.2054,-0.1033,-0.0330,0.6754,rough,14.0,1,13.042
3460,110.72,5.2466,-4.6644,0.2208,-0.1204,-0.0588,0.8603,rough,14.0,1,12.887
3470,111.04,5.4358,-4.3545,0.2270,-0.1679,-0.0367,1.0322,rough,14.0,1,12.660
3480,111.36,5.6051,-4.0081,0.2365,-0.1806,-0.0346,1.1580,rough,14.0,1,12.397
3490,111.68,5.7219,-3.6173,0.2326,-0.2314,0.0244,1.2825,rough,14.0,1,12.080
3500,112.00,5.8192,-3.2265,0.2246,-0.2192,0.0127,1.3617,rough,14.0,1,11.761
3510,112.32,5.9127,-2.8181,0.2028,-0.1156,0.0069,1.4132,rough,14.0,1,11.429
3520,112.64,5.9777,-2.3983,0.1898,-0.0433,0.0097,1.4686,rough,14.0,1,11.080
3530,112.96,6.0117,-1.9785,0.1790,0.0008,-0.0036,1.5721,rough,14.0,1,10.722
3540,113.28,6.0051,-1.5463,0.1799,0.0002,-0.0003,1.6686,rough,14.0,1,10.338
3550,113.60,5.9581,-1.1152,0.1799,0.0002,-0.0000,1.7429,rough,14.0,1,9.939
3560,113.92,5.8795,-0.6872,0.1799,0.0002,-0.0000,1.8027,rough,14.0,1,9.530
3570,114.24,5.7755,-0.2631,0.1799,0.0002,-0.0000,1.8521,rough,14.0,1,9.113
3580,114.56,5.6505,0.1567,0.1799,0.0001,-0.0000,1.8939,rough,14.0,1,8.690
3590,114.88,5.5079,0.5719,0.1799,0.0001,-0.0000,1.9299,rough,14.0,1,8.264
3600,115.20,5.3503,0.9823,0.1799,0.0001,-0.0000,1.9605,rough,14.0,1,7.834
3610,115.52,5.1802,1.3881,0.1799,0.0001,-0.0000,1.9867,rough,14.0,1,7.402
3620,115.84,4.9995,1.7900,0.1799,0.0001,-0.0000,2.0104,rough,14.0,1,6.969
3630,116.16,4.8091,2.1880,0.1799,0.0001,-0.0000,2.0322,rough,14.0,1,6.534
3640,116.48,4.6099,2.5822,0.1799,0.0001,-0.0000,2.0523,rough,14.0,1,6.097
3650,116.80,4.4028,2.9727,0.1799,0.0001,-0.0000,2.0711,rough,14.0,1,5.660
3660,117.12,4.1883,3.3596,0.1799,0.0000,-0.0000,2.0889,rough,14.0,1,5.222
3670,117.44,3.9700,3.7350,0.1866,-0.0037,-0.0419,2.1036,rough,14.0,1,4.792
3680,117.76,3.7325,4.1189,0.1849,-0.0214,0.0132,2.1176,rough,14.0,1,4.343
3690,118.08,3.5110,4.4268,0.2452,-0.1443,-0.2929,2.1557,rough,14.0,1,3.964
3700,118.40,3.2054,4.7553,0.2737,-0.4145,-0.0813,2.1703,rough,14.0,1,3.517
3710,118.72,2.9687,5.0083,0.3405,-0.4319,-0.2961,2.2828,rough,14.0,1,3.172
3720,119.04,2.6879,5.2942,0.4732,-0.4663,-0.3410,2.3099,rough,14.0,1,2.774
3730,119.36,2.3933,5.5848,0.6028,-0.5188,-0.3170,2.3115,rough,14.0,1,2.365
3740,119.68,2.0956,5.8500,0.7113,-0.5485,-0.3063,2.3213,rough,14.0,1,1.978
3750,120.00,1.7999,6.1303,0.8190,-0.5857,-0.3132,2.3280,rough,14.0,1,1.585
3760,120.32,1.5164,6.3976,0.9129,-0.5629,-0.3376,2.3393,rough,14.0,1,1.218
3770,120.64,1.2395,6.6693,1.0469,-0.5602,-0.4034,2.3334,rough,14.0,1,0.869
3780,120.96,1.0250,6.8362,1.1320,-0.5843,-0.2995,2.5384,rough,14.0,2,14.752
3790,121.28,0.7625,6.9333,1.1604,-0.6359,-0.1486,2.7951,rough,14.0,2,14.673
3800,121.60,0.4301,6.9797,1.1515,-0.6277,0.0273,3.0266,rough,14.0,2,14.518
3810,121.92,0.0667,6.9683,1.1049,-0.5382,0.1020,-3.0453,rough,14.0,2,14.303
3820,122.24,-0.3309,6.8877,1.0224,-0.4306,0.1900,-2.8915,rough,14.0,2,14.018
3830,122.56,-0.7166,6.7486,0.9203,-0.3659,0.2322,-2.7576,rough,14.0,2,13.695
3840,122.88,-1.0920,6.5649,0.8027,-0.3369,0.2985,-2.6618,rough,14.0,2,13.343
3850,123.20,-1.4489,6.3557,0.6745,-0.2799,0.3216,-2.5891,rough,14.0,2,12.983
3860,123.52,-1.7849,6.1270,0.5481,-0.2224,0.2869,-2.5138,rough,14.0,2,12.619
3870,123.84,-2.1101,5.8748,0.4602,-0.1703,0.1899,-2.4416,rough,14.0,2,12.242
3880,124.16,-2.4226,5.5967,0.3985,-0.1295,0.1102,-2.3872,rough,14.0,2,11.850
3890,124.48,-2.7340,5.2926,0.3566,-0.0970,0.1018,-2.3450,rough,14.0,2,11.437
3900,124.80,-3.0414,4.9702,0.3012,-0.0504,0.1400,-2.3125,rough,14.0,2,11.012
3910,125.12,-3.3334,4.6465,0.2402,-0.0012,0.1297,-2.2765,rough,14.0,2,10.593
3920,125.44,-3.6145,4.3184,0.2027,0.0453,0.0916,-2.2467,rough,14.0,2,10.176
3930,125.76,-3.8721,3.9879,0.1938,0.0329,-0.0288,-2.2234,rough,14.0,2,9.769
3940,126.08,-4.1285,3.6413,0.2087,0.0206,-0.0611,-2.1987,rough,14.0,2,9.348
3950,126.40,-4.3872,3.2818,0.2283,0.0397,-0.0316,-2.1723,rough,14.0,2,8.915
3960,126.72,-4.6349,2.9032,0.2166,0.0197,0.0365,-2.1453,rough,14.0,2,8.470
3970,127.04,-4.8690,2.5214,0.1963,-0.0264,0.0603,-2.1240,rough,14.0,2,8.028
3980,127.36,-5.0929,2.1541,0.1846,-0.0173,-0.0066,-2.1042,rough,14.0,2,7.603
3990,127.68,-5.3085,1.7779,0.1945,-0.0223,-0.0442,-2.0868,rough,14.0,2,7.174
4000,128.00,-5.5154,1.3868,0.2047,-0.0585,-0.0367,-2.0682,rough,14.0,2,6.735
4010,128.32,-5.7297,0.9819,0.2028,-0.0602,0.0488,-2.0594,rough,14.0,2,6.281
4020,128.64,-5.9373,0.5959,0.1873,-0.0233,0.0059,-2.0475,rough,14.0,2,5.847
4030,128.96,-6.1418,0.2019,0.1806,-0.0057,0.0071,-2.0372,rough,14.0,2,5.408
4040,129.28,-6.3395,-0.1924,0.1790,0.0049,0.0005,-2.0234,rough,14.0,2,4.971
4050,129.60,-6.5305,-0.5912,0.1803,0.0030,-0.0010,-2.0079,rough,14.0,2,4.533
4060,129.92,-6.7180,-0.9842,0.1877,0.0245,-0.0223,-1.9975,rough,14.0,2,4.102
4070,130.24,-6.9047,-1.3879,0.1917,0.0413,0.0007,-1.9805,rough,14.0,2,3.663
4080,130.56,-7.0817,-1.7913,0.1906,0.0448,0.0066,-1.9667,rough,14.0,2,3.227
4090,130.88,-7.2458,-2.2027,0.1850,0.0225,0.0065,-1.9436,rough,14.0,2,2.788
4100,131.20,-7.4008,-2.6142,0.1877,0.0124,-0.0090,-1.9215,rough,14.0,2,2.352
4110,131.52,-7.5404,-3.0209,0.2055,-0.0145,-0.0766,-1.8965,rough,14.0,2,1.926
4120,131.84,-7.6670,-3.4568,0.2181,-0.0757,-0.0002,-1.8749,rough,14.0,2,1.475
4130,132.16,-7.8032,-3.8870,0.2116,-0.0479,0.0647,-1.8474,rough,14.0,2,1.031
4140,132.48,-7.9244,-4.3009,0.1867,0.0022,0.0551,-1.8722,rough,14.0,0,13.271
4150,132.80,-7.9822,-4.6240,0.1792,-0.0006,-0.0036,-1.6821,rough,14.0,0,13.327
4160,133.12,-8.0172,-4.9457,0.1797,0.0001,-0.0000,-1.4103,rough,14.0,0,13.369
4170,133.44,-7.9549,-5.2639,0.1798,-0.0000,0.0002,-1.1498,rough,14.0,0,13.320
4180,133.76,-7.7947,-5.5777,0.1798,-0.0002,0.0003,-0.9474,rough,14.0,0,13.182
4190,134.08,-7.5583,-5.8743,0.1911,-0.0192,-0.0507,-0.8107,rough,14.0,0,12.974
4200,134.40,-7.2652,-6.1494,0.1887,-0.0354,0.0107,-0.6781,rough,14.0,0,12.715
4210,134.72,-6.9366,-6.3889,0.1852,-0.0088,0.0401,-0.5593,rough,14.0,0,12.423
4220,135.04,-6.6043,-6.5898,0.1793,-0.0016,-0.0027,-0.4781,rough,14.0,0,12.127
4230,135.36,-6.2303,-6.7724,0.1793,0.0025,0.0000,-0.3727,rough,14.0,0,11.792
4240,135.68,-5.8259,-6.9204,0.1799,0.0002,-0.0000,-0.2687,rough,14.0,0,11.425
4250,136.00,-5.4077,-7.0272,0.1774,-0.0107,0.0005,-0.1895,rough,14.0,0,11.041
4260,136.32,-5.0054,-7.1085,0.1939,0.0314,-0.0241,-0.1597,rough,14.0,0,10.669
4270,136.64,-4.5789,-7.1765,0.2139,0.0559,-0.0225,-0.0901,rough,14.0,0,10.273
4280,136.96,-4.1363,-7.2111,0.2124,0.0503,0.0250,-0.0249,rough,14.0,0,9.855
4290,137.28,-3.6943,-7.2098,0.1967,0.0219,0.0482,0.0285,rough,14.0,0,9.431
4300,137.60,-3.2628,-7.1918,0.1817,0.0039,0.0078,0.0719,rough,14.0,0,9.013
4310,137.92,-2.8248,-7.1543,0.1798,-0.0008,0.0002,0.1023,rough,14.0,0,8.584
4320,138.24,-2.3866,-7.1073,0.1798,0.0000,-0.0000,0.1358,rough,14.0,0,8.153
4330,138.56,-1.9494,-7.0455,0.1799,0.0001,-0.0000,0.1646,rough,14.0,0,7.719
4340,138.88,-1.5245,-6.9706,0.1916,-0.0068,-0.0434,0.1824,rough,14.0,0,7.293
4350,139.20,-1.0966,-6.8860,0.2122,-0.0074,-0.0575,0.1955,rough,14.0,0,6.862
4360,139.52,-0.6548,-6.7947,0.2257,-0.0022,0.0021,0.2131,rough,14.0,0,6.416
4370,139.84,-0.2163,-6.6970,0.2181,-0.0080,0.0475,0.2287,rough,14.0,0,5.972
4380,140.16,0.2162,-6.5932,0.1916,0.0006,0.0559,0.2490,rough,14.0,0,5.532
4390,140.48,0.6355,-6.4853,0.1808,-0.0002,0.0084,0.2595,rough,14.0,0,5.103
4400,140.80,1.0616,-6.3718,0.1810,0.0065,-0.0019,0.2780,rough,14.0,0,4.666
4410,141.12,1.4872,-6.2486,0.1815,0.0086,0.0009,0.2907,rough,14.0,0,4.227
4420,141.44,1.9111,-6.1183,0.1809,-0.0021,-0.0002,0.2995,rough,14.0,0,3.787
4430,141.76,2.3328,-5.9844,0.1827,-0.0123,-0.0023,0.3092,rough,14.0,0,3.349
4440,142.08,2.7481,-5.8458,0.1849,-0.0246,-0.0027,0.3196,rough,14.0,0,2.915
4450,142.40,3.1687,-5.7027,0.1832,-0.0086,0.0137,0.3413,rough,14.0,0,2.476
4460,142.72,3.5831,-5.5537,0.1750,0.0272,0.0044,0.3655,rough,14.0,0,2.042
4470,143.04,3.9901,-5.3873,0.1795,0.0017,0.0001,0.3955,rough,14.0,0,1.608
4480,143.36,4.3806,-5.2175,0.1879,-0.0038,-0.0506,0.4195,rough,14.0,0,1.190
4490,143.68,4.7663,-5.0215,0.1976,-0.0729,-0.0241,0.4484,rough,14.0,1,13.080
4500,144.00,5.0528,-4.8448,0.2054,-0.1061,-0.0322,0.6960,rough,14.0,1,12.997
4510,144.32,5.2845,-4.5981,0.2198,-0.1309,-0.0720,0.8792,rough,14.0,1,12.837
4520,144.64,5.4888,-4.2808,0.2303,-0.1829,-0.0342,1.0302,rough,14.0,1,12.609
4530,144.96,5.6544,-3.9345,0.2423,-0.2009,-0.0405,1.1692,rough,14.0,1,12.347
4540,145.28,5.7711,-3.5410,0.2354,-0.2410,0.0190,1.2911,rough,14.0,1,12.029
4550,145.60,5.8655,-3.1506,0.2274,-0.2347,0.0202,1.3614,rough,14.0,1,11.710
4560,145.92,5.9596,-2.7455,0.2032,-0.1208,0.0027,1.4171,rough,14.0,1,11.383
4570,146.24,6.0221,-2.3213,0.1872,-0.0212,0.0204,1.4931,rough,14.0,1,11.031
4580,146.56,6.0463,-1.9009,0.1792,0.0011,-0.0025,1.5929,rough,14.0,1,10.669
4590,146.88,6.0309,-1.4688,0.1799,0.0002,-0.0001,1.6850,rough,14.0,1,10.283
4600,147.20,5.9769,-1.0383,0.1799,0.0002,-0.0000,1.7565,rough,14.0,1,9.882
4610,147.52,5.8925,-0.6112,0.1799,0.0002,-0.0000,1.8143,rough,14.0,1,9.471
4620,147.84,5.7835,-0.1881,0.1799,0.0001,-0.0000,1.8622,rough,14.0,1,9.053
4630,148.16,5.6543,0.2305,0.1799,0.0001,-0.0000,1.9029,rough,14.0,1,8.630
4640,148.48,5.5080,0.6446,0.1799,0.0001,-0.0000,1.9381,rough,14.0,1,8.203
4650,148.80,5.3470,1.0537,0.1799,0.0001,-0.0000,1.9676,rough,14.0,1,7.773
4660,149.12,5.1740,1.4584,0.1799,0.0001,-0.0000,1.9933,rough,14.0,1,7.341
4670,149.44,4.9905,1.8591,0.1799,0.0001,-0.0000,2.0167,rough,14.0,1,6.907
4680,149.76,4.7976,2.2560,0.1799,0.0001,-0.0000,2.0382,rough,14.0,1,6.472
4690,150.08,4.5961,2.6491,0.1799,0.0001,-0.0000,2.0581,rough,14.0,1,6.035
4700,150.40,4.3867,3.0384,0.1799,0.0001,-0.0000,2.0767,rough,14.0,1,5.598
4710,150.72,4.1700,3.4241,0.1799,0.0000,-0.0000,2.0943,rough,14.0,1,5.160
4720,151.04,3.9466,3.7966,0.1893,-0.0208,-0.0375,2.1082,rough,14.0,1,4.729
4730,151.36,3.7100,4.1394,0.1925,-0.0513,-0.0694,2.1468,rough,14.0,1,4.313
4740,151.68,3.4749,4.4495,0.2467,-0.1600,-0.2808,2.1756,rough,14.0,1,3.924
4750,152.00,3.1681,4.7680,0.2679,-0.3786,-0.0698,2.1653,rough,14.0,1,3.484
4760,152.32,2.9407,5.0125,0.3338,-0.4190,-0.2888,2.2315,rough,14.0,1,3.151
4770,152.64,2.6889,5.2805,0.4666,-0.4371,-0.3807,2.3057,rough,14.0,1,2.785
4780,152.96,2.3969,5.5760,0.6003,-0.5075,-0.3365,2.3023,rough,14.0,1,2.375
4790,153.28,2.1124,5.8479,0.7171,-0.5492,-0.3500,2.3013,rough,14.0,1,1.989
4800,153.60,1.8230,6.1322,0.8130,-0.5903,-0.3016,2.2796,rough,14.0,1,1.595
4810,153.92,1.5594,6.4317,0.9478,-0.5662,-0.3710,2.2987,rough,14.0,1,1.206
4820,154.24,1.2918,6.7228,1.0930,-0.5455,-0.4014,2.2884,rough,14.0,1,0.833
4830,154.56,1.0564,6.8885,1.1718,-0.6090,-0.2605,2.5751,rough,14.0,2,14.813
4840,154.88,0.7815,6.9713,1.1913,-0.6432,-0.0875,2.8495,rough,14.0,2,14.715
4850,155.20,0.4372,7.0042,1.1708,-0.6211,0.0671,3.0825,rough,14.0,2,14.542
4860,155.52,0.0676,6.9786,1.1101,-0.5289,0.1262,-3.0128,rough,14.0,2,14.312
4870,155.84,-0.3261,6.8871,1.0212,-0.4242,0.2065,-2.8641,rough,14.0,2,14.020
4880,156.16,-0.7096,6.7397,0.9165,-0.3589,0.2435,-2.7393,rough,14.0,2,13.691
4890,156.48,-1.0829,6.5494,0.7961,-0.3376,0.3025,-2.6510,rough,14.0,2,13.335
4900,156.80,-1.4382,6.3353,0.6692,-0.2636,0.3273,-2.5708,rough,14.0,2,12.971
4910,157.12,-1.7655,6.0999,0.5442,-0.2350,0.2692,-2.4991,rough,14.0,2,12.605
4920,157.44,-2.0954,5.8404,0.4541,-0.1558,0.1985,-2.4283,rough,14.0,2,12.218
4930,157.76,-2.4034,5.5599,0.3903,-0.1160,0.1105,-2.3749,rough,14.0,2,11.826
4940,158.08,-2.7061,5.2495,0.3500,-0.1091,0.0886,-2.3344,rough,14.0,2,11.411
4950,158.40,-3.0154,4.9261,0.2961,-0.0413,0.1333,-2.3045,rough,14.0,2,10.984
4960,158.72,-3.3020,4.6003,0.2396,-0.0147,0.1133,-2.2724,rough,14.0,2,10.565
4970,159.04,-3.5902,4.2696,0.2012,0.0502,0.1027,-2.2443,rough,14.0,2,10.142
4980,159.36,-3.8425,3.9379,0.1946,0.0198,-0.0121,-2.2170,rough,14.0,2,9.735
4990,159.68,-4.0974,3.5945,0.2103,0.0226,-0.0661,-2.1926,rough,14.0,2,9.318
5000,160.00,-4.3553,3.2269,0.2267,0.0334,-0.0038,-2.1659,rough,14.0,2,8.877
5010,160.32,-4.6002,2.8497,0.2165,0.0143,0.0354,-2.1430,rough,14.0,2,8.434
5020,160.64,-4.8360,2.4667,0.1936,-0.0306,0.0665,-2.1223,rough,14.0,2,7.990
5030,160.96,-5.0616,2.1009,0.1819,-0.0009,-0.0069,-2.1062,rough,14.0,2,7.566
5040,161.28,-5.2755,1.7186,0.1933,-0.0325,-0.0252,-2.0882,rough,14.0,2,7.131
5050,161.60,-5.4838,1.3305,0.2034,-0.0594,-0.0298,-2.0706,rough,14.0,2,6.694
5060,161.92,-5.6950,0.9295,0.2001,-0.0664,0.0279,-2.0612,rough,14.0,2,6.244
5070,162.24,-5.9084,0.5427,0.1849,-0.0137,0.0091,-2.0527,rough,14.0,2,5.807
5080,162.56,-6.1123,0.1517,0.1798,-0.0039,0.0048,-2.0392,rough,14.0,2,5.370
5090,162.88,-6.3094,-0.2443,0.1798,-0.0001,0.0002,-2.0221,rough,14.0,2,4.932
5100,163.20,-6.5018,-0.6429,0.1818,0.0075,-0.0036,-2.0070,rough,14.0,2,4.493
5110,163.52,-6.6904,-1.0370,0.1904,0.0333,-0.0197,-1.9975,rough,14.0,2,4.060
5120,163.84,-6.8757,-1.4407,0.1942,0.0419,0.0021,-1.9829,rough,14.0,2,3.620
5130,164.16,-7.0538,-1.8492,0.1929,0.0448,0.0138,-1.9660,rough,14.0,2,3.178
5140,164.48,-7.2192,-2.2583,0.1857,0.0254,0.0001,-1.9471,rough,14.0,2,2.741
5150,164.80,-7.3752,-2.6702,0.1900,0.0061,-0.0148,-1.9273,rough,14.0,2,2.303
5160,165.12,-7.5175,-3.0789,0.2091,-0.0222,-0.0697,-1.9060,rough,14.0,2,1.874
5170,165.44,-7.6513,-3.5090,0.2199,-0.0654,-0.0126,-1.8857,rough,14.0,2,1.426
5180,165.76,-7.7884,-3.9450,0.2091,-0.0516,0.0849,-1.8599,rough,14.0,2,0.975
5190,166.08,-7.9094,-4.3506,0.1872,-0.0003,0.0503,-1.8584,rough,14.0,0,13.255
5200,166.40,-7.9746,-4.6948,0.1799,0.0001,-0.0003,-1.6968,rough,14.0,0,13.320
5210,166.72,-8.0143,-5.0067,0.1798,0.0000,-0.0003,-1.4068,rough,14.0,0,13.368
5220,167.04,-7.9506,-5.3243,0.1798,0.0000,-0.0002,-1.1482,rough,14.0,0,13.320
5230,167.36,-7.7869,-5.6451,0.1814,-0.0035,-0.0058,-0.9673,rough,14.0,0,13.180
5240,167.68,-7.5499,-5.9507,0.1904,-0.0399,-0.0166,-0.8256,rough,14.0,0,12.974
5250,168.00,-7.2741,-6.2295,0.1904,-0.0187,0.0118,-0.6921,rough,14.0,0,12.734
5260,168.32,-6.9479,-6.4716,0.1814,0.0026,0.0181,-0.5717,rough,14.0,0,12.446
5270,168.64,-6.5965,-6.6758,0.1802,0.0011,0.0009,-0.4809,rough,14.0,0,12.134
5280,168.96,-6.2150,-6.8601,0.1795,-0.0016,-0.0012,-0.3640,rough,14.0,0,11.794
5290,169.28,-5.8094,-7.0058,0.1799,0.0000,-0.0001,-0.2633,rough,14.0,0,11.428
5300,169.60,-5.3938,-7.1125,0.1837,0.0089,-0.0146,-0.1824,rough,14.0,0,11.047
5310,169.92,-4.9934,-7.1921,0.1944,0.0417,-0.0361,-0.1522,rough,14.0,0,10.678
5320,170.24,-4.5627,-7.2553,0.2071,0.0388,-0.0177,-0.0805,rough,14.0,0,10.278
5330,170.56,-4.1215,-7.2887,0.2084,0.0559,0.0240,-0.0181,rough,14.0,0,9.863
5340,170.88,-3.6813,-7.2863,0.1960,0.0402,0.0342,0.0337,rough,14.0,0,9.440
5350,171.20,-3.2480,-7.2601,0.1820,0.0017,0.0085,0.0751,rough,14.0,0,9.019
5360,171.52,-2.8122,-7.2209,0.1791,0.0052,-0.0025,0.1133,rough,14.0,0,8.592
5370,171.84,-2.3744,-7.1584,0.1803,-0.0034,0.0010,0.1450,rough,14.0,0,8.157
5380,172.16,-1.9386,-7.0897,0.1798,0.0000,-0.0001,0.1695,rough,14.0,0,7.723
5390,172.48,-1.5136,-7.0111,0.1919,-0.0065,-0.0471,0.1920,rough,14.0,0,7.297
5400,172.80,-1.0825,-6.9244,0.2108,0.0063,-0.0518,0.2081,rough,14.0,0,6.862
5410,173.12,-0.6410,-6.8265,0.2264,0.0061,0.0004,0.2288,rough,14.0,0,6.415
5420,173.44,-0.2012,-6.7210,0.2164,0.0025,0.0505,0.2452,rough,14.0,0,5.967
5430,173.76,0.2279,-6.6089,0.1922,0.0029,0.0516,0.2652,rough,14.0,0,5.527
5440,174.08,0.6489,-6.4913,0.1807,-0.0015,0.0039,0.2787,rough,14.0,0,5.093
5450,174.40,1.0741,-6.3701,0.1811,0.0065,-0.0017,0.2955,rough,14.0,0,4.654
5460,174.72,1.4988,-6.2394,0.1801,0.0011,0.0009,0.3063,rough,14.0,0,4.213
5470,175.04,1.9209,-6.1040,0.1808,-0.0018,-0.0011,0.3141,rough,14.0,0,3.772
5480,175.36,2.3452,-5.9662,0.1759,0.0097,0.0136,0.3249,rough,14.0,0,3.330
5490,175.68,2.7569,-5.8173,0.1836,-0.0234,0.0041,0.3348,rough,14.0,0,2.895
5500,176.00,3.1758,-5.6668,0.1815,-0.0023,0.0093,0.3551,rough,14.0,0,2.453
5510,176.32,3.5880,-5.5102,0.1785,0.0081,-0.0000,0.3738,rough,14.0,0,2.016
5520,176.64,3.9968,-5.3445,0.1797,0.0009,0.0000,0.3986,rough,14.0,0,1.580
5530,176.96,4.3886,-5.1735,0.1876,-0.0034,-0.0490,0.4189,rough,14.0,0,1.158
5540,177.28,4.7765,-4.9812,0.1976,-0.0916,-0.0003,0.4718,rough,14.0,1,13.044
5550,177.60,5.0707,-4.8094,0.2059,-0.1043,-0.0320,0.6434,rough,14.0,1,12.968
5560,177.92,5.3176,-4.5789,0.2249,-0.1363,-0.0677,0.8250,rough,14.0,1,12.830
5570,178.24,5.5288,-4.2821,0.2361,-0.1910,-0.0530,0.9883,rough,14.0,1,12.625
5580,178.56,5.6996,-3.9383,0.2547,-0.2266,-0.0263,1.1312,rough,14.0,1,12.368
5590,178.88,5.8198,-3.5475,0.2490,-0.3132,0.0626,1.2493,rough,14.0,1,12.055
5600,179.20,5.9170,-3.1644,0.2366,-0.2805,0.0240,1.3601,rough,14.0,1,11.744
5610,179.52,6.0087,-2.7601,0.2123,-0.1445,0.0464,1.4273,rough,14.0,1,11.418
5620,179.84,6.0839,-2.3272,0.1926,-0.0200,0.0620,1.4599,rough,14.0,1,11.064
5630,180.16,6.1195,-1.9136,0.1789,0.0055,-0.0002,1.5552,rough,14.0,1,10.715
5640,180.48,6.1185,-1.4832,0.1798,0.0005,0.0000,1.6617,rough,14.0,1,10.338
5650,180.80,6.0741,-1.0529,0.1799,0.0002,-0.0000,1.7414,rough,14.0,1,9.944
5660,181.12,5.9961,-0.6254,0.1799,0.0002,-0.0000,1.8043,rough,14.0,1,9.537
5670,181.44,5.8913,-0.2021,0.1799,0.0002,-0.0000,1.8561,rough,14.0,1,9.122
5680,181.76,5.7646,0.2166,0.1799,0.0001,-0.0000,1.8997,rough,14.0,1,8.701
5690,182.08,5.6196,0.6306,0.1799,0.0001,-0.0000,1.9371,rough,14.0,1,8.276
5700,182.40,5.4591,1.0396,0.1799,0.0001,-0.0000,1.9694,rough,14.0,1,7.847
5710,182.72,5.2853,1.4436,0.1799,0.0001,-0.0000,1.9965,rough,14.0,1,7.416
5720,183.04,5.1006,1.8433,0.1799,0.0001,-0.0000,2.0210,rough,14.0,1,6.984
5730,183.36,4.9060,2.2390,0.1799,0.0001,-0.0000,2.0435,rough,14.0,1,6.549
5740,183.68,4.7024,2.6307,0.1799,0.0001,-0.0000,2.0642,rough,14.0,1,6.113
5750,184.00,4.4906,3.0184,0.1799,0.0001,-0.0000,2.0836,rough,14.0,1,5.677
5760,184.32,4.2712,3.4023,0.1799,0.0001,-0.0000,2.1019,rough,14.0,1,5.239
5770,184.64,4.0490,3.7726,0.1882,-0.0039,-0.0521,2.1167,rough,14.0,1,4.811
5780,184.96,3.8012,4.1110,0.2094,-0.1078,-0.0784,2.1147,rough,14.0,1,4.392
5790,185.28,3.5587,4.4276,0.2432,-0.2692,-0.1073,2.1025,rough,14.0,1,3.994
5800,185.60,3.3303,4.7199,0.2750,-0.3420,-0.2309,2.1660,rough,14.0,1,3.623
5810,185.92,3.0779,4.9903,0.3481,-0.4686,-0.3447,2.2645,rough,14.0,1,3.254
5820,186.24,2.7948,5.2426,0.4513,-0.5412,-0.3081,2.2810,rough,14.0,1,2.880
5830,186.56,2.5182,5.4853,0.5600,-0.5319,-0.3262,2.3338,rough,14.0,1,2.519
5840,186.88,2.2144,5.7314,0.6604,-0.5505,-0.2618,2.3108,rough,14.0,1,2.143
5850,187.20,1.9261,6.0287,0.7777,-0.5434,-0.2743,2.3091,rough,14.0,1,1.737
5860,187.52,1.6354,6.3132,0.8889,-0.5502,-0.2916,2.3219,rough,14.0,1,1.346
5870,187.84,1.3569,6.5947,1.0202,-0.5686,-0.3777,2.3354,rough,14.0,1,0.976
5880,188.16,1.1156,6.8228,1.1309,-0.5764,-0.3515,2.4532,rough,14.0,2,14.797
5890,188.48,0.8729,6.9341,1.1788,-0.6550,-0.1942,2.7138,rough,14.0,2,14.739
5900,188.80,0.5687,6.9883,1.1740,-0.6211,-0.0289,2.9997,rough,14.0,2,14.605
5910,189.12,0.2027,6.9839,1.1238,-0.5329,0.1350,-3.0902,rough,14.0,2,14.392
5920,189.44,-0.1765,6.9145,1.0519,-0.4702,0.1709,-2.9185,rough,14.0,2,14.124
5930,189.76,-0.5703,6.7847,0.9539,-0.3990,0.2353,-2.7904,rough,14.0,2,13.803
5940,190.08,-0.9481,6.6082,0.8355,-0.3501,0.2896,-2.6799,rough,14.0,2,13.454
5950,190.40,-1.3048,6.4001,0.7078,-0.3022,0.3127,-2.5914,rough,14.0,2,13.093
5960,190.72,-1.6471,6.1726,0.5816,-0.2236,0.3099,-2.5180,rough,14.0,2,12.726
5970,191.04,-1.9683,5.9213,0.4796,-0.2153,0.2206,-2.4536,rough,14.0,2,12.350
5980,191.36,-2.2835,5.6470,0.4074,-0.1382,0.1207,-2.3925,rough,14.0,2,11.959
5990,191.68,-2.5920,5.3472,0.3615,-0.1143,0.0947,-2.3498,rough,14.0,2,11.550
6000,192.00,-2.8990,5.0277,0.3121,-0.0706,0.1149,-2.3124,rough,14.0,2,11.126
6010,192.32,-3.1973,4.7017,0.2588,-0.0186,0.1402,-2.2839,rough,14.0,2,10.702
6020,192.64,-3.4800,4.3751,0.2136,0.0240,0.1087,-2.2532,rough,14.0,2,10.285
6030,192.96,-3.7405,4.0485,0.1940,0.0305,-0.0049,-2.2264,rough,14.0,2,9.879
6040,193.28,-3.9944,3.7072,0.1997,0.0259,-0.0637,-2.2034,rough,14.0,2,9.463
6050,193.60,-4.2481,3.3421,0.2235,-0.0020,-0.0308,-2.1752,rough,14.0,2,9.026
6060,193.92,-4.5053,2.9688,0.2195,0.0201,0.0430,-2.1534,rough,14.0,2,8.581
6070,194.24,-4.7424,2.5918,0.2012,-0.0134,0.0606,-2.1296,rough,14.0,2,8.141
6080,194.56,-4.9685,2.2227,0.1847,-0.0149,0.0093,-2.1102,rough,14.0,2,7.713
6090,194.88,-5.1882,1.8461,0.1891,-0.0191,-0.0225,-2.0934,rough,14.0,2,7.282
6100,195.20,-5.3979,1.4577,0.1995,-0.0522,-0.0231,-2.0760,rough,14.0,2,6.844
6110,195.52,-5.6067,1.0594,0.2009,-0.0701,0.0190,-2.0621,rough,14.0,2,6.397
6120,195.84,-5.8240,0.6661,0.1902,-0.0159,0.0362,-2.0545,rough,14.0,2,5.952
6130,196.16,-6.0269,0.2767,0.1809,-0.0068,0.0121,-2.0424,rough,14.0,2,5.517
6140,196.48,-6.2265,-0.1167,0.1798,-0.0004,0.0002,-2.0291,rough,14.0,2,5.079
6150,196.80,-6.4211,-0.5158,0.1798,0.0000,0.0000,-2.0129,rough,14.0,2,4.639
6160,197.12,-6.6112,-0.9072,0.1867,0.0177,-0.0238,-2.0053,rough,14.0,2,4.208
6170,197.44,-6.8007,-1.3074,0.1939,0.0386,-0.0060,-1.9946,rough,14.0,2,3.769
6180,197.76,-6.9815,-1.7114,0.1929,0.0399,0.0001,-1.9824,rough,14.0,2,3.330
6190,198.08,-7.1547,-2.1224,0.1871,0.0260,0.0178,-1.9641,rough,14.0,2,2.888
6200,198.40,-7.3194,-2.5256,0.1888,0.0232,-0.0249,-1.9438,rough,14.0,2,2.457
6210,198.72,-7.4703,-2.9326,0.1989,-0.0052,-0.0680,-1.9223,rough,14.0,2,2.027
6220,199.04,-7.6097,-3.3618,0.2198,-0.0552,-0.0112,-1.8980,rough,14.0,2,1.578
6230,199.36,-7.7518,-3.7858,0.2128,-0.0419,0.0402,-1.8784,rough,14.0,2,1.138
6240,199.68,-7.8793,-4.2085,0.1934,-0.0126,0.0822,-1.8832,rough,14.0,3,0.869
6250,200.00,-7.9538,-4.5327,0.1797,-0.0015,0.0030,-1.6759,rough,14.0,0,13.299
6260,200.32,-7.9764,-4.8321,0.1799,-0.0000,0.0003,-1.3321,rough,14.0,0,13.325
6270,200.64,-7.8821,-5.1545,0.1799,-0.0002,-0.0000,-1.1041,rough,14.0,0,13.242
6280,200.96,-7.6985,-5.4737,0.1799,0.0001,-0.0002,-0.9309,rough,14.0,0,13.078
6290,201.28,-7.4564,-5.7704,0.1872,0.0004,-0.0508,-0.7888,rough,14.0,0,12.862
6300,201.60,-7.1555,-6.0426,0.1856,-0.0213,0.0029,-0.6457,rough,14.0,0,12.593
6310,201.92,-6.8154,-6.2789,0.1813,-0.0153,0.0197,-0.5442,rough,14.0,0,12.287
6320,202.24,-6.4568,-6.4802,0.1809,0.0076,-0.0007,-0.4429,rough,14.0,0,11.963
6330,202.56,-6.0673,-6.6537,0.1788,-0.0070,0.0002,-0.3464,rough,14.0,0,11.610
6340,202.88,-5.6585,-6.7942,0.1798,-0.0006,0.0000,-0.2507,rough,14.0,0,11.236
6350,203.20,-5.2546,-6.8918,0.1867,-0.0023,-0.0501,-0.1960,rough,14.0,0,10.861
6360,203.52,-4.8567,-6.9744,0.2103,0.0203,-0.0633,-0.1766,rough,14.0,0,10.492
6370,203.84,-4.4440,-7.0532,0.2224,0.0505,-0.0136,-0.1561,rough,14.0,0,10.111
6380,204.16,-4.0079,-7.1119,0.2137,0.0401,0.0317,-0.0849,rough,14.0,0,9.705
6390,204.48,-3.5669,-7.1369,0.1916,-0.0120,0.0661,-0.0255,rough,14.0,0,9.288
6400,204.80,-3.1424,-7.1434,0.1787,0.0002,0.0040,0.0258,rough,14.0,0,8.883
6410,205.12,-2.7038,-7.1286,0.1798,0.0001,0.0006,0.0745,rough,14.0,0,8.461
6420,205.44,-2.2653,-7.0934,0.1798,0.0001,0.0001,0.1143,rough,14.0,0,8.033
6430,205.76,-1.8304,-7.0404,0.1825,-0.0008,-0.0168,0.1437,rough,14.0,0,7.605
6440,206.08,-1.4007,-6.9738,0.1954,0.0015,-0.0456,0.1695,rough,14.0,0,7.178
6450,206.40,-0.9709,-6.8952,0.2176,0.0010,-0.0507,0.1862,rough,14.0,0,6.747
6460,206.72,-0.5301,-6.8031,0.2226,-0.0133,0.0070,0.2049,rough,14.0,0,6.303
6470,207.04,-0.0870,-6.7111,0.2116,0.0038,0.0669,0.2266,rough,14.0,0,5.857
6480,207.36,0.3369,-6.6087,0.1876,-0.0003,0.0378,0.2444,rough,14.0,0,5.426
6490,207.68,0.7617,-6.4982,0.1808,0.0034,0.0051,0.2639,rough,14.0,0,4.992
6500,208.00,1.1872,-6.3823,0.1810,0.0062,-0.0016,0.2849,rough,14.0,0,4.555
6510,208.32,1.6126,-6.2558,0.1801,0.0009,-0.0006,0.2972,rough,14.0,0,4.116
6520,208.64,2.0313,-6.1242,0.1813,-0.0023,-0.0035,0.3067,rough,14.0,0,3.681
6530,208.96,2.4497,-5.9848,0.1857,-0.0263,-0.0055,0.3171,rough,14.0,0,3.244
6540,209.28,2.8656,-5.8409,0.1867,-0.0366,0.0006,0.3380,rough,14.0,0,2.809
6550,209.60,3.2826,-5.6887,0.1825,-0.0131,0.0022,0.3620,rough,14.0,0,2.370
6560,209.92,3.6939,-5.5277,0.1798,-0.0000,-0.0001,0.3864,rough,14.0,0,1.934
6570,210.24,4.0993,-5.3589,0.1798,0.0001,-0.0000,0.4161,rough,14.0,0,1.501
6580,210.56,4.4825,-5.1788,0.1909,-0.0214,-0.0469,0.4366,rough,14.0,0,1.085
6590,210.88,4.8441,-4.9980,0.1967,-0.0992,-0.0439,0.5620,rough,14.0,1,13.080
6600,211.20,5.1160,-4.7901,0.2098,-0.1222,-0.0386,0.7453,rough,14.0,1,12.964
6610,211.52,5.3492,-4.5207,0.2259,-0.1547,-0.0422,0.9190,rough,14.0,1,12.786
6620,211.84,5.5434,-4.1905,0.2337,-0.1881,-0.0561,1.0502,rough,14.0,1,12.545
6630,212.16,5.6975,-3.8305,0.2494,-0.2123,-0.0189,1.1879,rough,14.0,1,12.268
6640,212.48,5.8099,-3.4394,0.2344,-0.2458,0.0153,1.3160,rough,14.0,1,11.952
6650,212.80,5.9076,-3.0519,0.2230,-0.2147,0.0190,1.3711,rough,14.0,1,11.638
6660,213.12,5.9960,-2.6346,0.2061,-0.1309,0.0099,1.4131,rough,14.0,1,11.300
6670,213.44,6.0616,-2.2138,0.1818,-0.0068,0.0030,1.4949,rough,14.0,1,10.953
6680,213.76,6.0810,-1.7884,0.1794,0.0016,-0.0009,1.6033,rough,14.0,1,10.587
6690,214.08,6.0612,-1.3568,0.1799,0.0003,0.0000,1.6942,rough,14.0,1,10.200
6700,214.40,6.0033,-0.9270,0.1799,0.0002,-0.0000,1.7652,rough,14.0,1,9.799
6710,214.72,5.9151,-0.5006,0.1799,0.0002,-0.0000,1.8226,rough,14.0,1,9.388
6720,215.04,5.8026,-0.0785,0.1799,0.0001,-0.0000,1.8704,rough,14.0,1,8.970
6730,215.36,5.6699,0.3389,0.1799,0.0001,-0.0000,1.9109,rough,14.0,1,8.547
6740,215.68,5.5203,0.7517,0.1799,0.0001,-0.0000,1.9460,rough,14.0,1,8.120
6750,216.00,5.3561,1.1595,0.1799,0.0001,-0.0000,1.9755,rough,14.0,1,7.690
6760,216.32,5.1798,1.5628,0.1799,0.0001,-0.0000,2.0013,rough,14.0,1,7.258
6770,216.64,4.9931,1.9620,0.1799,0.0001,-0.0000,2.0247,rough,14.0,1,6.824
6780,216.96,4.7970,2.3572,0.1799,0.0001,-0.0000,2.0463,rough,14.0,1,6.389
6790,217.28,4.5923,2.7486,0.1799,0.0001,-0.0000,2.0663,rough,14.0,1,5.953
6800,217.60,4.3797,3.1361,0.1799,0.0001,-0.0000,2.0851,rough,14.0,1,5.516
6810,217.92,4.1597,3.5198,0.1799,0.0000,-0.0000,2.1028,rough,14.0,1,5.078
6820,218.24,3.9352,3.8882,0.1905,-0.0152,-0.0525,2.1172,rough,14.0,1,4.650
6830,218.56,3.7013,4.2220,0.2051,-0.0457,-0.1454,2.1426,rough,14.0,1,4.243
6840,218.88,3.4454,4.5508,0.2483,-0.2250,-0.0671,2.1125,rough,14.0,1,3.827
6850,219.20,3.2008,4.8321,0.2919,-0.4194,-0.2052,2.2464,rough,14.0,1,3.454
6860,219.52,2.9391,5.0898,0.3909,-0.4549,-0.2974,2.3067,rough,14.0,1,3.089
6870,219.84,2.6499,5.3689,0.5159,-0.5688,-0.3848,2.3639,rough,14.0,1,2.691
6880,220.16,2.3485,5.6028,0.6115,-0.5302,-0.3352,2.3358,rough,14.0,1,2.325
6890,220.48,2.0564,5.8682,0.7128,-0.5382,-0.3210,2.3196,rough,14.0,1,1.942
6900,220.80,1.7622,6.1786,0.8257,-0.5738,-0.2930,2.2968,rough,14.0,1,1.525
6910,221.12,1.4898,6.4673,0.9531,-0.5627,-0.3662,2.3081,rough,14.0,1,1.144
6920,221.44,1.2249,6.7534,1.1036,-0.5208,-0.4146,2.2677,rough,14.0,2,14.809
6930,221.76,0.9957,6.9009,1.1693,-0.6105,-0.2533,2.5802,rough,14.0,2,14.786
6940,222.08,0.7175,6.9762,1.1871,-0.6383,-0.0786,2.8882,rough,14.0,2,14.682
6950,222.40,0.3619,7.0032,1.1563,-0.5914,0.0914,3.1027,rough,14.0,2,14.498
6960,222.72,-0.0054,6.9554,1.0906,-0.5179,0.1411,-2.9800,rough,14.0,2,14.252
6970,223.04,-0.4056,6.8529,0.9959,-0.4230,0.2059,-2.8422,rough,14.0,2,13.948
6980,223.36,-0.7899,6.6932,0.8920,-0.3691,0.2640,-2.7275,rough,14.0,2,13.609
6990,223.68,-1.1563,6.4983,0.7653,-0.3286,0.3078,-2.6304,rough,14.0,2,13.253
7000,224.00,-1.5096,6.2798,0.6397,-0.2404,0.3323,-2.5544,rough,14.0,2,12.887
7010,224.32,-1.8364,6.0415,0.5188,-0.2416,0.2517,-2.5008,rough,14.0,2,12.519
7020,224.64,-2.1646,5.7881,0.4412,-0.1596,0.1644,-2.4309,rough,14.0,2,12.140
7030,224.96,-2.4778,5.5067,0.3829,-0.1245,0.0974,-2.3751,rough,14.0,2,11.745
7040,225.28,-2.7869,5.2016,0.3388,-0.0772,0.0718,-2.3367,rough,14.0,2,11.332
7050,225.60,-3.0930,4.8797,0.2856,-0.0440,0.1252,-2.3040,rough,14.0,2,10.908
7060,225.92,-3.3796,4.5514,0.2266,-0.0106,0.1106,-2.2715,rough,14.0,2,10.487
7070,226.24,-3.6593,4.2245,0.1968,0.0445,0.0544,-2.2420,rough,14.0,2,10.072
7080,226.56,-3.9138,3.8856,0.1948,0.0156,-0.0205,-2.2150,rough,14.0,2,9.658
7090,226.88,-4.1718,3.5431,0.2150,0.0292,-0.0563,-2.1926,rough,14.0,2,9.240
7100,227.20,-4.4271,3.1735,0.2248,0.0193,-0.0065,-2.1653,rough,14.0,2,8.800
7110,227.52,-4.6761,2.7981,0.2127,0.0180,0.0379,-2.1399,rough,14.0,2,8.357
7120,227.84,-4.9075,2.4178,0.1897,-0.0197,0.0532,-2.1186,rough,14.0,2,7.917
7130,228.16,-5.1289,2.0499,0.1841,-0.0055,-0.0229,-2.1012,rough,14.0,2,7.493
7140,228.48,-5.3408,1.6670,0.1964,-0.0298,-0.0408,-2.0821,rough,14.0,2,7.059
7150,228.80,-5.5464,1.2756,0.2063,-0.0629,-0.0371,-2.0640,rough,14.0,2,6.620
7160,229.12,-5.7638,0.8702,0.1991,-0.0482,0.0422,-2.0588,rough,14.0,2,6.164
7170,229.44,-5.9729,0.4829,0.1837,-0.0095,0.0122,-2.0481,rough,14.0,2,5.729
7180,229.76,-6.1746,0.0919,0.1802,-0.0014,0.0016,-2.0366,rough,14.0,2,5.293
7190,230.08,-6.3717,-0.3048,0.1799,0.0001,-0.0001,-2.0194,rough,14.0,2,4.855
7200,230.40,-6.5630,-0.7046,0.1801,0.0032,0.0046,-2.0067,rough,14.0,2,4.415
7210,230.72,-6.7490,-1.0967,0.1904,0.0238,-0.0281,-1.9949,rough,14.0,2,3.986
7220,231.04,-6.9338,-1.5022,0.1944,0.0401,0.0012,-1.9828,rough,14.0,2,3.545
7230,231.36,-7.1059,-1.9115,0.1838,0.0258,0.0024,-1.9613,rough,14.0,2,3.105
7240,231.68,-7.2712,-2.3211,0.1856,0.0210,-0.0087,-1.9404,rough,14.0,2,2.667
7250,232.00,-7.4215,-2.7357,0.1840,-0.0260,-0.0235,-1.9190,rough,14.0,2,2.229
7260,232.32,-7.5635,-3.1440,0.2131,-0.0254,-0.0719,-1.8932,rough,14.0,2,1.801
7270,232.64,-7.6951,-3.5759,0.2211,-0.0547,-0.0025,-1.8738,rough,14.0,2,1.353
7280,232.96,-7.8292,-4.0093,0.2050,-0.0450,0.0813,-1.8458,rough,14.0,2,0.907
7290,233.28,-7.9331,-4.3947,0.1849,-0.0132,0.0171,-1.8091,rough,14.0,0,13.278
7300,233.60,-7.9826,-4.6968,0.1771,0.0165,0.0005,-1.5057,rough,14.0,0,13.328
7310,233.92,-7.9508,-5.0125,0.1797,0.0004,0.0001,-1.2102,rough,14.0,0,13.305
7320,234.24,-7.8111,-5.3317,0.1799,-0.0001,0.0001,-1.0000,rough,14.0,0,13.181
7330,234.56,-7.5909,-5.6361,0.1753,0.0202,0.0090,-0.8382,rough,14.0,0,12.984
7340,234.88,-7.3094,-5.9045,0.1879,-0.0200,-0.0115,-0.7048,rough,14.0,0,12.730
7350,235.20,-7.0053,-6.1526,0.1889,-0.0074,0.0283,-0.5974,rough,14.0,0,12.457
7360,235.52,-6.6696,-6.3680,0.1821,0.0001,0.0047,-0.5042,rough,14.0,0,12.155
7370,235.84,-6.2949,-6.5600,0.1799,0.0004,0.0001,-0.3991,rough,14.0,0,11.817
7380,236.16,-5.8938,-6.7170,0.1799,0.0001,-0.0000,-0.3217,rough,14.0,0,11.451
7390,236.48,-5.4813,-6.8465,0.1799,0.0001,-0.0000,-0.2276,rough,14.0,0,11.073
7400,236.80,-5.0930,-6.9373,0.1971,0.0126,-0.0706,-0.2015,rough,14.0,0,10.714
7410,237.12,-4.6829,-7.0276,0.2160,0.0500,-0.0321,-0.1661,rough,14.0,0,10.336
7420,237.44,-4.2588,-7.1001,0.2195,0.0612,0.0178,-0.1218,rough,14.0,0,9.944
7430,237.76,-3.8225,-7.1447,0.2038,0.0528,0.0367,-0.0545,rough,14.0,0,9.535
7440,238.08,-3.3868,-7.1493,0.1855,0.0063,0.0319,0.0030,rough,14.0,0,9.119
7450,238.40,-2.9545,-7.1432,0.1799,-0.0000,-0.0001,0.0540,rough,14.0,0,8.704
7460,238.72,-2.5152,-7.1168,0.1799,0.0001,-0.0000,0.0976,rough,14.0,0,8.278
7470,239.04,-2.0770,-7.0716,0.1799,0.0001,-0.0000,0.1340,rough,14.0,0,7.848
7480,239.36,-1.6503,-7.0112,0.1854,0.0033,-0.0415,0.1566,rough,14.0,0,7.425
7490,239.68,-1.2183,-6.9365,0.2039,0.0071,-0.0564,0.1807,rough,14.0,0,6.994
7500,240.00,-0.7831,-6.8550,0.2219,0.0143,-0.0285,0.1996,rough,14.0,0,6.557
7510,240.32,-0.3402,-6.7618,0.2211,0.0117,0.0347,0.2156,rough,14.0,0,6.111
7520,240.64,0.0979,-6.6626,0.1981,0.0130,0.0775,0.2396,rough,14.0,0,5.667
7530,240.96,0.5145,-6.5551,0.1822,-0.0004,0.0128,0.2564,rough,14.0,0,5.241
7540,241.28,0.9396,-6.4424,0.1806,0.0031,-0.0016,0.2770,rough,14.0,0,4.806
7550,241.60,1.3646,-6.3182,0.1781,-0.0101,0.0020,0.2930,rough,14.0,0,4.367
7560,241.92,1.7886,-6.1902,0.1806,-0.0016,-0.0012,0.3032,rough,14.0,0,3.929
7570,242.24,2.2094,-6.0558,0.1811,-0.0047,-0.0009,0.3127,rough,14.0,0,3.491
7580,242.56,2.6265,-5.9143,0.1813,-0.0182,0.0129,0.3251,rough,14.0,0,3.055
7590,242.88,3.0413,-5.7665,0.1851,-0.0268,0.0018,0.3483,rough,14.0,0,2.619
7600,243.20,3.4565,-5.6119,0.1808,-0.0032,0.0037,0.3719,rough,14.0,0,2.181
7610,243.52,3.8649,-5.4485,0.1792,0.0000,-0.0042,0.3983,rough,14.0,0,1.747
7620,243.84,4.2622,-5.2761,0.1846,-0.0028,-0.0303,0.4231,rough,14.0,0,1.320
7630,244.16,4.6493,-5.0840,0.1921,-0.0480,-0.0194,0.4483,rough,14.0,0,0.895
7640,244.48,4.9621,-4.9138,0.2005,-0.0804,-0.0267,0.6397,rough,14.0,1,13.034
7650,244.80,5.2055,-4.6818,0.2167,-0.1180,-0.0563,0.8303,rough,14.0,1,12.890
7660,245.12,5.3987,-4.3825,0.2247,-0.1662,-0.0292,0.9906,rough,14.0,1,12.673
7670,245.44,5.5714,-4.0448,0.2320,-0.1760,-0.0381,1.1273,rough,14.0,1,12.419
7680,245.76,5.7066,-3.6559,0.2363,-0.2330,0.0474,1.2500,rough,14.0,1,12.110
7690,246.08,5.8079,-3.2671,0.2246,-0.2163,0.0170,1.3444,rough,14.0,1,11.793
7700,246.40,5.9021,-2.8611,0.2052,-0.1296,0.0076,1.4006,rough,14.0,1,11.463
7710,246.72,5.9713,-2.4424,0.1925,-0.0631,0.0024,1.4521,rough,14.0,1,11.116
7720,247.04,6.0115,-2.0234,0.1789,0.0002,-0.0043,1.5571,rough,14.0,1,10.761
7730,247.36,6.0112,-1.5913,0.1798,0.0001,-0.0003,1.6576,rough,14.0,1,10.380
7740,247.68,5.9689,-1.1600,0.1799,0.0002,-0.0000,1.7343,rough,14.0,1,9.983
7750,248.00,5.8940,-0.7316,0.1799,0.0002,-0.0000,1.7958,rough,14.0,1,9.575
7760,248.32,5.7928,-0.3070,0.1799,0.0002,-0.0000,1.8466,rough,14.0,1,9.159
7770,248.64,5.6702,0.1133,0.1799,0.0001,-0.0000,1.8893,rough,14.0,1,8.737
7780,248.96,5.5296,0.5290,0.1799,0.0001,-0.0000,1.9260,rough,14.0,1,8.311
7790,249.28,5.3736,0.9400,0.1799,0.0001,-0.0000,1.9574,rough,14.0,1,7.882
7800,249.60,5.2048,1.3462,0.1799,0.0001,-0.0000,1.9840,rough,14.0,1,7.451
7810,249.92,5.0251,1.7485,0.1799,0.0001,-0.0000,2.0081,rough,14.0,1,7.017
7820,250.24,4.8356,2.1468,0.1799,0.0001,-0.0000,2.0301,rough,14.0,1,6.582
7830,250.56,4.6373,2.5414,0.1799,0.0001,-0.0000,2.0505,rough,14.0,1,6.146
7840,250.88,4.4309,2.9322,0.1799,0.0001,-0.0000,2.0695,rough,14.0,1,5.709
7850,251.20,4.2170,3.3193,0.1799,0.0000,-0.0000,2.0875,rough,14.0,1,5.271
7860,251.52,3.9984,3.6969,0.1851,-0.0033,-0.0318,2.1028,rough,14.0,1,4.839
7870,251.84,3.7598,4.0798,0.1894,-0.0379,0.0254,2.1161,rough,14.0,1,4.391
7880,252.16,3.5529,4.3912,0.2371,-0.0821,-0.3212,2.1508,rough,14.0,1,4.018
7890,252.48,3.2207,4.7297,0.2643,-0.4372,-0.0045,2.1458,rough,14.0,1,3.546
7900,252.80,3.0162,4.9776,0.3309,-0.4444,-0.3358,2.2625,rough,14.0,1,3.225
7910,253.12,2.7478,5.2704,0.4617,-0.4786,-0.3781,2.2985,rough,14.0,1,2.829
7920,253.44,2.4624,5.5561,0.6012,-0.5131,-0.3409,2.3046,rough,14.0,1,2.429
7930,253.76,2.1693,5.8464,0.7257,-0.5324,-0.3175,2.2805,rough,14.0,1,2.022
