step,time_s,x,y,z,roll,pitch,yaw,terrain,speed,target_idx,dist_to_target
10,0.32,0.9450,-0.8122,0.1596,0.1924,0.0193,-0.2536,slope,18.0,0,5.754
20,0.64,1.2137,-0.8757,0.1611,0.1576,0.0361,-0.2424,slope,18.0,0,5.509
30,0.96,1.5906,-0.9951,0.1443,0.1525,0.0410,-0.4369,slope,18.0,0,5.150
40,1.28,2.0172,-1.2539,0.1004,0.0913,0.1669,-0.6481,slope,18.0,0,4.663
50,1.60,2.4013,-1.6047,-0.0058,0.1119,0.2487,-0.8065,slope,18.0,0,4.143
60,1.92,2.7242,-2.0244,-0.2092,0.1678,0.4729,-0.8542,rough,14.0,0,3.619
70,2.24,2.9502,-2.3404,-0.3597,0.2112,0.2134,-0.8809,rough,14.0,0,3.238
80,2.56,3.2122,-2.7026,-0.4154,0.2986,0.0884,-0.8550,slope,18.0,0,2.802
90,2.88,3.5201,-3.0960,-0.4539,0.3920,0.0321,-0.7913,slope,18.0,0,2.315
100,3.20,3.8730,-3.5191,-0.5318,0.4011,0.2503,-0.7098,rough,14.0,0,1.780
110,3.52,4.0724,-3.7442,-0.5601,0.4096,-0.1433,-0.8051,slope,18.0,0,1.490
120,3.84,4.3411,-4.0014,-0.5027,0.2825,-0.2397,-0.8032,rough,14.0,0,1.130
130,4.16,4.5143,-4.1851,-0.4362,0.2427,-0.3311,-0.7314,rough,14.0,1,12.206
140,4.48,4.6588,-4.2941,-0.3818,0.0834,-0.3201,-0.2970,rough,14.0,1,12.352
150,4.80,4.5407,-4.3025,-0.4252,-0.0410,-0.3755,-0.0553,rough,14.0,1,12.326
160,5.12,4.3870,-4.3143,-0.4776,-0.0243,-0.3821,-0.0210,rough,14.0,1,12.294
170,5.44,4.3995,-4.3314,-0.4742,0.0089,-0.3727,-0.1238,rough,14.0,1,12.314
180,5.76,4.4644,-4.3567,-0.4508,-0.0311,-0.3680,-0.0656,rough,14.0,1,12.357
190,6.08,4.5112,-4.3646,-0.4306,-0.0646,-0.3804,0.0020,rough,14.0,1,12.377
200,6.40,4.6980,-4.3705,-0.3654,-0.0265,-0.3332,0.0025,rough,14.0,1,12.437
210,6.72,4.7929,-4.3552,-0.3359,-0.0920,-0.2942,0.2766,rough,14.0,1,12.451
220,7.04,4.9594,-4.2541,-0.3135,-0.0791,-0.1842,0.8836,rough,14.0,1,12.406
230,7.36,5.1022,-4.0482,-0.2651,-0.0538,-0.2529,1.1839,rough,14.0,1,12.258
240,7.68,5.0836,-3.6483,-0.2544,-0.3214,0.0059,1.5405,rough,14.0,1,11.875
250,8.00,5.0263,-3.2366,-0.2727,-0.2669,0.1115,1.7383,rough,14.0,1,11.469
260,8.32,4.9440,-2.8701,-0.2853,-0.0736,0.0279,1.9202,rough,14.0,1,11.097
270,8.64,4.8254,-2.5286,-0.2742,-0.0129,-0.2014,2.0188,rough,14.0,1,10.736
280,8.96,4.6443,-2.0597,-0.2230,0.2039,-0.1171,2.0200,rough,14.0,1,10.233
290,9.28,4.4236,-1.6330,-0.2119,0.0790,0.0528,2.0005,rough,14.0,1,9.756
300,9.60,4.2889,-1.2177,-0.2411,0.2431,0.1351,1.9549,rough,14.0,1,9.320
310,9.92,4.1650,-0.8403,-0.2621,0.2826,-0.0535,1.8626,rough,14.0,1,8.923
320,10.24,4.0896,-0.4582,-0.2091,0.3067,-0.1837,1.7760,rough,14.0,1,8.539
330,10.56,3.9841,-0.0623,-0.1402,0.1769,-0.2268,1.7954,slope,18.0,1,8.132
340,10.88,3.8848,0.4464,-0.0902,0.1242,-0.0383,1.7488,slope,18.0,1,7.623
350,11.20,3.8099,0.9378,-0.1063,0.1496,0.1936,1.7395,rough,14.0,1,7.140
360,11.52,3.7564,1.3126,-0.1668,0.2005,0.1644,1.8609,rough,14.0,1,6.775
370,11.84,3.6492,1.7185,-0.2059,0.2868,0.0165,1.9807,slope,18.0,1,6.361
380,12.16,3.4885,2.2322,-0.2516,0.4806,-0.0466,2.0287,rough,14.0,1,5.827
390,12.48,3.3202,2.6595,-0.2934,0.4221,0.0683,2.0460,rough,14.0,1,5.369
400,12.80,3.0575,3.0783,-0.4291,0.2795,0.3820,2.1415,rough,14.0,1,4.878
410,13.12,2.8781,3.4190,-0.5744,0.2654,0.3685,2.0240,rough,14.0,1,4.494
420,13.44,2.7450,3.7829,-0.7156,0.2390,0.3560,1.9105,rough,14.0,1,4.107
430,13.76,2.6366,4.1441,-0.8030,0.1994,0.1492,1.8343,rough,14.0,1,3.734
440,14.08,2.4531,4.5528,-0.9059,-0.1589,0.2576,1.8486,rough,14.0,1,3.286
450,14.40,2.3302,4.9884,-1.0261,-0.1720,0.3130,1.8520,rough,14.0,1,2.842
460,14.72,2.1716,5.4189,-1.1713,-0.3455,0.3679,1.8310,rough,14.0,1,2.388
470,15.04,2.0057,5.7617,-1.2781,-0.4341,0.1113,1.9357,rough,14.0,1,2.007
480,15.36,1.8997,6.0486,-1.2804,-0.3156,-0.2306,2.0651,rough,14.0,1,1.706
490,15.68,1.7300,6.3309,-1.2350,-0.2990,-0.0897,2.0268,rough,14.0,1,1.377
500,16.00,1.5662,6.5800,-1.2099,-0.4735,-0.0804,1.9868,rough,14.0,1,1.079
510,16.32,1.4380,6.8805,-1.1886,-0.4586,-0.0665,1.9551,rough,14.0,2,15.040
520,16.64,1.2782,7.2652,-1.1766,-0.3390,-0.0604,2.0221,rough,14.0,2,15.247
530,16.96,1.0636,7.5680,-1.1234,-0.4504,-0.2348,2.1092,rough,14.0,2,15.364
540,17.28,0.8720,7.8104,-1.0394,-0.3979,-0.4720,2.1430,rough,14.0,2,15.452
550,17.60,0.7069,8.0581,-0.8897,-0.3516,-0.5073,2.2183,rough,14.0,2,15.565
560,17.92,0.5071,8.2852,-0.7600,-0.4252,-0.3778,2.2477,slope,18.0,2,15.646
570,18.24,0.2531,8.5457,-0.6820,-0.4946,-0.1850,2.2495,slope,18.0,2,15.734
580,18.56,0.0321,8.7704,-0.6478,-0.4220,-0.1377,2.3789,rough,14.0,2,15.815
590,18.88,-0.1343,8.8832,-0.6308,-0.4465,-0.0894,2.5117,rough,14.0,2,15.830
600,19.20,-0.2970,8.9576,-0.6304,-0.4580,-0.0261,2.6636,rough,14.0,2,15.816
610,19.52,-0.4192,8.9750,-0.6268,-0.4988,-0.0499,2.8450,rough,14.0,2,15.773
620,19.84,-0.4642,8.9398,-0.6294,-0.4310,-0.0488,-3.0332,rough,14.0,2,15.721
630,20.16,-0.4952,8.8886,-0.6219,-0.3850,-0.2800,-2.7209,rough,14.0,2,15.661
640,20.48,-0.5768,8.8026,-0.6547,-0.3942,-0.3904,-2.3588,rough,14.0,2,15.547
650,20.80,-0.5705,8.7335,-0.6982,-0.5128,-0.6083,-2.3784,rough,14.0,2,15.489
660,21.12,-0.5707,8.6612,-0.7580,-1.1423,-0.9664,-2.0822,rough,14.0,2,15.425
670,21.44,-0.4271,8.6652,-0.8916,-2.4213,-0.5707,-0.4773,rough,14.0,2,15.497
680,21.76,-0.4670,8.6652,-0.9922,-2.6637,-0.1109,-0.2031,rough,14.0,2,15.478
690,22.08,-0.4815,8.6553,-0.9885,-2.6539,-0.0968,-0.2602,rough,14.0,2,15.462
700,22.40,-0.4827,8.6545,-0.9881,-2.6532,-0.0976,-0.2657,rough,14.0,2,15.461
710,22.72,-0.4829,8.6545,-0.9880,-2.6534,-0.0975,-0.2660,rough,14.0,2,15.461
720,23.04,-0.4829,8.6546,-0.9880,-2.6536,-0.0974,-0.2658,rough,14.0,2,15.461
730,23.36,-0.4829,8.6547,-0.9879,-2.6539,-0.0971,-0.2656,rough,14.0,2,15.461
740,23.68,-0.4829,8.6548,-0.9879,-2.6541,-0.0969,-0.2654,rough,14.0,2,15.461
750,24.00,-0.4829,8.6548,-0.9879,-2.6544,-0.0967,-0.2651,rough,14.0,2,15.461
760,24.32,-0.4829,8.6549,-0.9878,-2.6546,-0.0965,-0.2649,rough,14.0,2,15.461
770,24.64,-0.4829,8.6550,-0.9878,-2.6548,-0.0963,-0.2647,rough,14.0,2,15.461
780,24.96,-0.4830,8.6551,-0.9877,-2.6551,-0.0960,-0.2645,rough,14.0,2,15.462
790,25.28,-0.4830,8.6552,-0.9877,-2.6553,-0.0958,-0.2642,rough,14.0,2,15.462
800,25.60,-0.4830,8.6553,-0.9877,-2.6556,-0.0956,-0.2640,rough,14.0,2,15.462
810,25.92,-0.4830,8.6554,-0.9876,-2.6558,-0.0954,-0.2637,rough,14.0,2,15.462
820,26.24,-0.4830,8.6555,-0.9876,-2.6561,-0.0952,-0.2635,rough,14.0,2,15.462
830,26.56,-0.4830,8.6556,-0.9875,-2.6563,-0.0950,-0.2633,rough,14.0,2,15.462
840,26.88,-0.4830,8.6557,-0.9875,-2.6566,-0.0948,-0.2630,rough,14.0,2,15.462
850,27.20,-0.4830,8.6558,-0.9874,-2.6568,-0.0946,-0.2628,rough,14.0,2,15.462
860,27.52,-0.4830,8.6559,-0.9874,-2.6570,-0.0944,-0.2626,rough,14.0,2,15.462
870,27.84,-0.4830,8.6560,-0.9873,-2.6573,-0.0941,-0.2623,rough,14.0,2,15.462
880,28.16,-0.4830,8.6561,-0.9873,-2.6575,-0.0939,-0.2621,rough,14.0,2,15.462
890,28.48,-0.4831,8.6562,-0.9873,-2.6578,-0.0937,-0.2619,rough,14.0,2,15.462
900,28.80,-0.4831,8.6563,-0.9872,-2.6580,-0.0935,-0.2616,rough,14.0,2,15.462
910,29.12,-0.4831,8.6564,-0.9872,-2.6583,-0.0933,-0.2614,rough,14.0,2,15.463
920,29.44,-0.4831,8.6565,-0.9871,-2.6585,-0.0931,-0.2611,rough,14.0,3,15.699
930,29.76,-0.4831,8.6566,-0.9871,-2.6588,-0.0929,-0.2609,rough,14.0,3,15.699
940,30.08,-0.4831,8.6567,-0.9870,-2.6590,-0.0927,-0.2607,rough,14.0,3,15.699
950,30.40,-0.4831,8.6568,-0.9870,-2.6592,-0.0924,-0.2604,rough,14.0,3,15.699
960,30.72,-0.4831,8.6569,-0.9870,-2.6595,-0.0922,-0.2602,rough,14.0,3,15.700
970,31.04,-0.4831,8.6570,-0.9869,-2.6597,-0.0920,-0.2600,rough,14.0,3,15.700
980,31.36,-0.4831,8.6571,-0.9869,-2.6600,-0.0918,-0.2597,rough,14.0,3,15.700
990,31.68,-0.4831,8.6571,-0.9868,-2.6602,-0.0916,-0.2595,rough,14.0,3,15.700
1000,32.00,-0.4832,8.6572,-0.9868,-2.6605,-0.0914,-0.2593,rough,14.0,3,15.700
1010,32.32,-0.4832,8.6573,-0.9867,-2.6607,-0.0911,-0.2590,rough,14.0,3,15.700
1020,32.64,-0.4832,8.6574,-0.9867,-2.6610,-0.0909,-0.2588,rough,14.0,3,15.700
1030,32.96,-0.4832,8.6575,-0.9866,-2.6612,-0.0907,-0.2586,rough,14.0,3,15.700
1040,33.28,-0.4832,8.6576,-0.9866,-2.6615,-0.0905,-0.2583,rough,14.0,3,15.700
1050,33.60,-0.4832,8.6577,-0.9866,-2.6617,-0.0903,-0.2581,rough,14.0,3,15.700
1060,33.92,-0.4832,8.6578,-0.9865,-2.6620,-0.0901,-0.2579,rough,14.0,3,15.700
1070,34.24,-0.4832,8.6579,-0.9865,-2.6622,-0.0899,-0.2576,rough,14.0,3,15.700
1080,34.56,-0.4832,8.6580,-0.9864,-2.6625,-0.0897,-0.2573,rough,14.0,3,15.701
1090,34.88,-0.4832,8.6581,-0.9864,-2.6627,-0.0895,-0.2570,rough,14.0,3,15.701
1100,35.20,-0.4832,8.6582,-0.9863,-2.6630,-0.0893,-0.2568,rough,14.0,3,15.701
1110,35.52,-0.4832,8.6583,-0.9863,-2.6632,-0.0891,-0.2565,rough,14.0,3,15.701
1120,35.84,-0.4832,8.6584,-0.9862,-2.6635,-0.0889,-0.2562,rough,14.0,3,15.701
1130,36.16,-0.4832,8.6585,-0.9862,-2.6637,-0.0887,-0.2559,rough,14.0,3,15.701
1140,36.48,-0.4832,8.6586,-0.9861,-2.6641,-0.0884,-0.2556,rough,14.0,3,15.701
1150,36.80,-0.4833,8.6587,-0.9861,-2.6647,-0.0878,-0.2552,rough,14.0,3,15.701
1160,37.12,-0.4834,8.6589,-0.9860,-2.6656,-0.0868,-0.2546,rough,14.0,3,15.701
1170,37.44,-0.4835,8.6591,-0.9860,-2.6667,-0.0856,-0.2538,rough,14.0,3,15.701
1180,37.76,-0.4836,8.6593,-0.9859,-2.6680,-0.0840,-0.2530,rough,14.0,3,15.701
1190,38.08,-0.4837,8.6595,-0.9858,-2.6695,-0.0823,-0.2521,rough,14.0,3,15.702
1200,38.40,-0.4838,8.6598,-0.9857,-2.6710,-0.0810,-0.2507,rough,14.0,3,15.702
1210,38.72,-0.4839,8.6601,-0.9855,-2.6723,-0.0801,-0.2493,rough,14.0,3,15.702
1220,39.04,-0.4839,8.6603,-0.9854,-2.6733,-0.0794,-0.2483,rough,14.0,3,15.702
1230,39.36,-0.4839,8.6605,-0.9853,-2.6741,-0.0789,-0.2474,rough,14.0,3,15.702
1240,39.68,-0.4840,8.6607,-0.9852,-2.6748,-0.0784,-0.2467,rough,14.0,3,15.702
1250,40.00,-0.4840,8.6608,-0.9851,-2.6753,-0.0781,-0.2461,rough,14.0,3,15.703
1260,40.32,-0.4840,8.6610,-0.9850,-2.6758,-0.0778,-0.2455,rough,14.0,3,15.703
1270,40.64,-0.4840,8.6611,-0.9849,-2.6762,-0.0775,-0.2451,rough,14.0,3,15.703
1280,40.96,-0.4840,8.6613,-0.9849,-2.6765,-0.0773,-0.2447,rough,14.0,3,15.703
1290,41.28,-0.4840,8.6614,-0.9848,-2.6768,-0.0771,-0.2443,rough,14.0,0,14.413
1300,41.60,-0.4840,8.6615,-0.9848,-2.6771,-0.0770,-0.2440,rough,14.0,0,14.413
1310,41.92,-0.4840,8.6616,-0.9847,-2.6773,-0.0768,-0.2437,rough,14.0,0,14.413
1320,42.24,-0.4840,8.6617,-0.9846,-2.6776,-0.0767,-0.2434,rough,14.0,0,14.413
1330,42.56,-0.4840,8.6618,-0.9846,-2.6778,-0.0765,-0.2431,rough,14.0,0,14.413
1340,42.88,-0.4840,8.6619,-0.9845,-2.6781,-0.0764,-0.2428,rough,14.0,0,14.413
1350,43.20,-0.4840,8.6620,-0.9845,-2.6783,-0.0762,-0.2425,rough,14.0,0,14.414
1360,43.52,-0.4840,8.6621,-0.9844,-2.6786,-0.0761,-0.2422,rough,14.0,0,14.414
1370,43.84,-0.4840,8.6623,-0.9843,-2.6789,-0.0759,-0.2418,rough,14.0,0,14.414
1380,44.16,-0.4840,8.6624,-0.9843,-2.6792,-0.0756,-0.2414,rough,14.0,0,14.414
1390,44.48,-0.4840,8.6625,-0.9842,-2.6796,-0.0754,-0.2410,rough,14.0,0,14.414
1400,44.80,-0.4840,8.6626,-0.9841,-2.6800,-0.0751,-0.2406,rough,14.0,0,14.414
1410,45.12,-0.4841,8.6628,-0.9841,-2.6804,-0.0749,-0.2402,rough,14.0,0,14.414
1420,45.44,-0.4841,8.6629,-0.9840,-2.6808,-0.0746,-0.2397,rough,14.0,0,14.414
1430,45.76,-0.4841,8.6630,-0.9839,-2.6812,-0.0744,-0.2393,rough,14.0,0,14.414
1440,46.08,-0.4841,8.6632,-0.9839,-2.6816,-0.0741,-0.2389,rough,14.0,0,14.415
1450,46.40,-0.4841,8.6633,-0.9838,-2.6819,-0.0738,-0.2384,rough,14.0,0,14.415
1460,46.72,-0.4841,8.6634,-0.9837,-2.6823,-0.0736,-0.2380,rough,14.0,0,14.415
1470,47.04,-0.4841,8.6635,-0.9837,-2.6827,-0.0733,-0.2376,rough,14.0,0,14.415
1480,47.36,-0.4841,8.6637,-0.9836,-2.6831,-0.0731,-0.2372,rough,14.0,0,14.415
1490,47.68,-0.4841,8.6638,-0.9835,-2.6835,-0.0728,-0.2367,rough,14.0,0,14.415
1500,48.00,-0.4841,8.6639,-0.9834,-2.6839,-0.0725,-0.2363,rough,14.0,0,14.415
1510,48.32,-0.4841,8.6641,-0.9834,-2.6843,-0.0723,-0.2359,rough,14.0,0,14.415
1520,48.64,-0.4841,8.6642,-0.9833,-2.6847,-0.0720,-0.2354,rough,14.0,0,14.416
1530,48.96,-0.4842,8.6643,-0.9832,-2.6850,-0.0718,-0.2350,rough,14.0,0,14.416
1540,49.28,-0.4842,8.6644,-0.9832,-2.6854,-0.0715,-0.2346,rough,14.0,0,14.416
1550,49.60,-0.4842,8.6646,-0.9831,-2.6858,-0.0713,-0.2342,rough,14.0,0,14.416
1560,49.92,-0.4842,8.6647,-0.9830,-2.6862,-0.0710,-0.2338,rough,14.0,0,14.416
1570,50.24,-0.4842,8.6648,-0.9830,-2.6866,-0.0707,-0.2333,rough,14.0,0,14.416
1580,50.56,-0.4842,8.6649,-0.9829,-2.6869,-0.0705,-0.2329,rough,14.0,0,14.416
1590,50.88,-0.4842,8.6651,-0.9828,-2.6873,-0.0702,-0.2325,rough,14.0,0,14.416
1600,51.20,-0.4842,8.6652,-0.9828,-2.6877,-0.0700,-0.2321,rough,14.0,0,14.417
1610,51.52,-0.4842,8.6653,-0.9827,-2.6881,-0.0697,-0.2317,rough,14.0,0,14.417
1620,51.84,-0.4842,8.6654,-0.9826,-2.6885,-0.0695,-0.2313,rough,14.0,0,14.417
1630,52.16,-0.4842,8.6656,-0.9826,-2.6888,-0.0692,-0.2309,rough,14.0,0,14.417
1640,52.48,-0.4842,8.6657,-0.9825,-2.6892,-0.0689,-0.2306,rough,14.0,0,14.417
1650,52.80,-0.4843,8.6658,-0.9825,-2.6895,-0.0687,-0.2302,rough,14.0,1,1.896
1660,53.12,-0.4843,8.6659,-0.9824,-2.6898,-0.0684,-0.2299,rough,14.0,1,1.896
1670,53.44,-0.4843,8.6660,-0.9823,-2.6902,-0.0682,-0.2296,rough,14.0,1,1.896
1680,53.76,-0.4843,8.6661,-0.9823,-2.6905,-0.0679,-0.2293,rough,14.0,1,1.896
1690,54.08,-0.4843,8.6662,-0.9822,-2.6908,-0.0677,-0.2289,rough,14.0,1,1.896
1700,54.40,-0.4843,8.6663,-0.9822,-2.6912,-0.0674,-0.2286,rough,14.0,1,1.897
1710,54.72,-0.4843,8.6664,-0.9821,-2.6915,-0.0673,-0.2282,rough,14.0,1,1.897
1720,55.04,-0.4842,8.6666,-0.9820,-2.6917,-0.0674,-0.2277,rough,14.0,1,1.897
1730,55.36,-0.4842,8.6667,-0.9819,-2.6919,-0.0675,-0.2273,rough,14.0,1,1.897
1740,55.68,-0.4841,8.6668,-0.9818,-2.6921,-0.0676,-0.2268,rough,14.0,1,1.897
1750,56.00,-0.4841,8.6670,-0.9817,-2.6922,-0.0676,-0.2264,rough,14.0,1,1.897
1760,56.32,-0.4840,8.6671,-0.9816,-2.6924,-0.0677,-0.2260,rough,14.0,1,1.897
1770,56.64,-0.4840,8.6672,-0.9815,-2.6926,-0.0678,-0.2256,rough,14.0,1,1.897
1780,56.96,-0.4839,8.6673,-0.9814,-2.6928,-0.0678,-0.2252,rough,14.0,1,1.897
1790,57.28,-0.4839,8.6675,-0.9814,-2.6929,-0.0679,-0.2248,rough,14.0,1,1.897
1800,57.60,-0.4838,8.6676,-0.9813,-2.6931,-0.0680,-0.2245,rough,14.0,1,1.897
1810,57.92,-0.4838,8.6677,-0.9812,-2.6932,-0.0681,-0.2241,rough,14.0,1,1.897
1820,58.24,-0.4837,8.6678,-0.9811,-2.6934,-0.0681,-0.2237,rough,14.0,1,1.897
1830,58.56,-0.4837,8.6679,-0.9810,-2.6935,-0.0682,-0.2234,rough,14.0,1,1.897
1840,58.88,-0.4837,8.6681,-0.9809,-2.6937,-0.0683,-0.2230,rough,14.0,1,1.897
1850,59.20,-0.4836,8.6682,-0.9809,-2.6938,-0.0684,-0.2227,rough,14.0,1,1.897
1860,59.52,-0.4836,8.6683,-0.9808,-2.6939,-0.0685,-0.2224,rough,14.0,1,1.897
1870,59.84,-0.4835,8.6684,-0.9807,-2.6941,-0.0685,-0.2221,rough,14.0,1,1.897
1880,60.16,-0.4835,8.6685,-0.9806,-2.6942,-0.0686,-0.2218,rough,14.0,1,1.897
1890,60.48,-0.4835,8.6686,-0.9805,-2.6943,-0.0687,-0.2215,rough,14.0,1,1.897
1900,60.80,-0.4834,8.6688,-0.9805,-2.6944,-0.0687,-0.2212,rough,14.0,1,1.897
1910,61.12,-0.4834,8.6689,-0.9804,-2.6945,-0.0688,-0.2209,rough,14.0,1,1.897
1920,61.44,-0.4833,8.6690,-0.9803,-2.6946,-0.0689,-0.2206,rough,14.0,1,1.897
1930,61.76,-0.4833,8.6691,-0.9802,-2.6947,-0.0690,-0.2203,rough,14.0,1,1.897
1940,62.08,-0.4833,8.6692,-0.9802,-2.6949,-0.0690,-0.2200,rough,14.0,1,1.898
1950,62.40,-0.4832,8.6693,-0.9801,-2.6950,-0.0691,-0.2198,rough,14.0,1,1.898
1960,62.72,-0.4832,8.6694,-0.9800,-2.6951,-0.0692,-0.2195,rough,14.0,1,1.898
1970,63.04,-0.4832,8.6695,-0.9800,-2.6952,-0.0692,-0.2193,rough,14.0,1,1.898
1980,63.36,-0.4831,8.6696,-0.9799,-2.6953,-0.0693,-0.2190,rough,14.0,1,1.898
1990,63.68,-0.4831,8.6697,-0.9798,-2.6954,-0.0693,-0.2188,rough,14.0,1,1.898
2000,64.00,-0.4831,8.6698,-0.9798,-2.6955,-0.0694,-0.2185,rough,14.0,1,1.898
2010,64.32,-0.4830,8.6699,-0.9797,-2.6955,-0.0695,-0.2183,rough,14.0,1,1.898
2020,64.64,-0.4830,8.6700,-0.9796,-2.6956,-0.0695,-0.2181,rough,14.0,2,15.475
2030,64.96,-0.4830,8.6701,-0.9796,-2.6957,-0.0696,-0.2178,rough,14.0,2,15.475
2040,65.28,-0.4830,8.6702,-0.9795,-2.6958,-0.0696,-0.2176,rough,14.0,2,15.475
2050,65.60,-0.4829,8.6703,-0.9795,-2.6959,-0.0697,-0.2175,rough,14.0,2,15.475
2060,65.92,-0.4829,8.6704,-0.9794,-2.6959,-0.0697,-0.2174,rough,14.0,2,15.475
2070,66.24,-0.4828,8.6704,-0.9794,-2.6959,-0.0697,-0.2173,rough,14.0,2,15.475
2080,66.56,-0.4828,8.6705,-0.9793,-2.6960,-0.0697,-0.2173,rough,14.0,2,15.475
2090,66.88,-0.4828,8.6706,-0.9793,-2.6960,-0.0697,-0.2172,rough,14.0,2,15.475
2100,67.20,-0.4827,8.6706,-0.9792,-2.6960,-0.0697,-0.2172,rough,14.0,2,15.475
2110,67.52,-0.4827,8.6707,-0.9792,-2.6961,-0.0697,-0.2171,rough,14.0,2,15.475
2120,67.84,-0.4827,8.6708,-0.9791,-2.6961,-0.0697,-0.2171,rough,14.0,2,15.475
2130,68.16,-0.4826,8.6708,-0.9791,-2.6961,-0.0697,-0.2171,rough,14.0,2,15.475
2140,68.48,-0.4826,8.6709,-0.9791,-2.6961,-0.0697,-0.2170,rough,14.0,2,15.475
2150,68.80,-0.4826,8.6709,-0.9790,-2.6961,-0.0697,-0.2170,rough,14.0,2,15.476
2160,69.12,-0.4826,8.6710,-0.9790,-2.6961,-0.0697,-0.2170,rough,14.0,2,15.476
2170,69.44,-0.4825,8.6710,-0.9789,-2.6962,-0.0698,-0.2169,rough,14.0,2,15.476
2180,69.76,-0.4825,8.6711,-0.9789,-2.6962,-0.0698,-0.2169,rough,14.0,2,15.476
2190,70.08,-0.4825,8.6711,-0.9789,-2.6962,-0.0698,-0.2169,rough,14.0,2,15.476
2200,70.40,-0.4825,8.6712,-0.9788,-2.6962,-0.0698,-0.2169,rough,14.0,2,15.476
2210,70.72,-0.4825,8.6712,-0.9788,-2.6962,-0.0698,-0.2169,rough,14.0,2,15.476
2220,71.04,-0.4824,8.6713,-0.9788,-2.6962,-0.0698,-0.2169,rough,14.0,2,15.476
2230,71.36,-0.4824,8.6713,-0.9788,-2.6962,-0.0698,-0.2169,rough,14.0,2,15.476
2240,71.68,-0.4824,8.6714,-0.9787,-2.6962,-0.0698,-0.2169,rough,14.0,2,15.476
2250,72.00,-0.4824,8.6714,-0.9787,-2.6962,-0.0698,-0.2169,rough,14.0,2,15.476
2260,72.32,-0.4824,8.6714,-0.9787,-2.6962,-0.0698,-0.2168,rough,14.0,2,15.476
2270,72.64,-0.4824,8.6715,-0.9787,-2.6962,-0.0698,-0.2168,rough,14.0,2,15.476
2280,72.96,-0.4823,8.6715,-0.9786,-2.6962,-0.0698,-0.2168,rough,14.0,2,15.476
2290,73.28,-0.4823,8.6716,-0.9786,-2.6962,-0.0698,-0.2168,rough,14.0,2,15.476
2300,73.60,-0.4823,8.6716,-0.9786,-2.6962,-0.0698,-0.2168,rough,14.0,2,15.476
2310,73.92,-0.4823,8.6716,-0.9786,-2.6962,-0.0698,-0.2168,rough,14.0,2,15.476
2320,74.24,-0.4823,8.6717,-0.9785,-2.6962,-0.0698,-0.2168,rough,14.0,2,15.476
2330,74.56,-0.4823,8.6717,-0.9785,-2.6962,-0.0698,-0.2168,rough,14.0,2,15.476
2340,74.88,-0.4822,8.6718,-0.9785,-2.6962,-0.0698,-0.2168,rough,14.0,2,15.476
2350,75.20,-0.4822,8.6718,-0.9785,-2.6962,-0.0698,-0.2168,rough,14.0,2,15.476
2360,75.52,-0.4822,8.6718,-0.9785,-2.6962,-0.0698,-0.2168,rough,14.0,2,15.477
2370,75.84,-0.4822,8.6719,-0.9784,-2.6962,-0.0698,-0.2168,rough,14.0,2,15.477
2380,76.16,-0.4822,8.6719,-0.9784,-2.6962,-0.0698,-0.2168,rough,14.0,2,15.477
2390,76.48,-0.4818,8.6719,-0.9783,-2.6965,-0.0706,-0.2163,rough,14.0,3,15.713
2400,76.80,-0.4821,8.6719,-0.9784,-2.6963,-0.0699,-0.2168,rough,14.0,3,15.713
2410,77.12,-0.4819,8.6720,-0.9783,-2.6964,-0.0704,-0.2165,rough,14.0,3,15.713
2420,77.44,-0.4814,8.6720,-0.9782,-2.6967,-0.0712,-0.2160,rough,14.0,3,15.713
2430,77.76,-0.4821,8.6720,-0.9783,-2.6963,-0.0700,-0.2167,rough,14.0,3,15.713
2440,78.08,-0.4819,8.6720,-0.9783,-2.6964,-0.0702,-0.2165,rough,14.0,3,15.713
2450,78.40,-0.4818,8.6721,-0.9782,-2.6965,-0.0705,-0.2164,rough,14.0,3,15.713
2460,78.72,-0.4816,8.6721,-0.9782,-2.6966,-0.0708,-0.2162,rough,14.0,3,15.713
2470,79.04,-0.4814,8.6721,-0.9781,-2.6967,-0.0710,-0.2162,rough,14.0,3,15.714
2480,79.36,-0.4813,8.6721,-0.9781,-2.6968,-0.0713,-0.2160,rough,14.0,3,15.714
2490,79.68,-0.4813,8.6721,-0.9781,-2.6968,-0.0712,-0.2161,rough,14.0,3,15.714
2500,80.00,-0.4813,8.6721,-0.9780,-2.6968,-0.0713,-0.2159,rough,14.0,3,15.714
2510,80.32,-0.4814,8.6721,-0.9781,-2.6967,-0.0710,-0.2161,rough,14.0,3,15.714
2520,80.64,-0.4815,8.6722,-0.9781,-2.6966,-0.0709,-0.2161,rough,14.0,3,15.714
2530,80.96,-0.4816,8.6722,-0.9781,-2.6965,-0.0706,-0.2164,rough,14.0,3,15.714
2540,81.28,-0.4817,8.6722,-0.9781,-2.6965,-0.0705,-0.2164,rough,14.0,3,15.714
2550,81.60,-0.4818,8.6722,-0.9781,-2.6964,-0.0702,-0.2166,rough,14.0,3,15.713
2560,81.92,-0.4812,8.6722,-0.9780,-2.6968,-0.0713,-0.2160,rough,14.0,3,15.714
2570,82.24,-0.4814,8.6722,-0.9780,-2.6966,-0.0709,-0.2161,rough,14.0,3,15.714
2580,82.56,-0.4817,8.6722,-0.9781,-2.6965,-0.0704,-0.2164,rough,14.0,3,15.714
2590,82.88,-0.4811,8.6722,-0.9780,-2.6969,-0.0713,-0.2160,rough,14.0,3,15.714
2600,83.20,-0.4813,8.6722,-0.9780,-2.6967,-0.0711,-0.2160,rough,14.0,3,15.714
2610,83.52,-0.4816,8.6722,-0.9781,-2.6965,-0.0704,-0.2164,rough,14.0,3,15.714
2620,83.84,-0.4811,8.6722,-0.9779,-2.6969,-0.0713,-0.2160,rough,14.0,3,15.714
2630,84.16,-0.4815,8.6723,-0.9780,-2.6966,-0.0706,-0.2162,rough,14.0,3,15.714
2640,84.48,-0.4810,8.6722,-0.9779,-2.6969,-0.0714,-0.2159,rough,14.0,3,15.714
2650,84.80,-0.4814,8.6723,-0.9780,-2.6967,-0.0708,-0.2162,rough,14.0,3,15.714
2660,85.12,-0.4810,8.6722,-0.9779,-2.6970,-0.0714,-0.2160,rough,14.0,3,15.714
2670,85.44,-0.4814,8.6723,-0.9779,-2.6967,-0.0709,-0.2161,rough,14.0,3,15.714
2680,85.76,-0.4810,8.6723,-0.9779,-2.6969,-0.0714,-0.2159,rough,14.0,3,15.714
2690,86.08,-0.4815,8.6723,-0.9780,-2.6966,-0.0706,-0.2163,rough,14.0,3,15.714
2700,86.40,-0.4811,8.6723,-0.9779,-2.6968,-0.0712,-0.2159,rough,14.0,3,15.714
2710,86.72,-0.4809,8.6723,-0.9778,-2.6970,-0.0715,-0.2158,rough,14.0,3,15.714
2720,87.04,-0.4814,8.6723,-0.9779,-2.6966,-0.0706,-0.2162,rough,14.0,3,15.714
2730,87.36,-0.4811,8.6723,-0.9779,-2.6968,-0.0712,-0.2159,rough,14.0,3,15.714
2740,87.68,-0.4809,8.6723,-0.9778,-2.6970,-0.0714,-0.2159,rough,14.0,3,15.714
2750,88.00,-0.4814,8.6723,-0.9779,-2.6966,-0.0706,-0.2162,rough,14.0,0,14.422
2760,88.32,-0.4811,8.6723,-0.9779,-2.6968,-0.0711,-0.2160,rough,14.0,0,14.422
2770,88.64,-0.4809,8.6723,-0.9778,-2.6970,-0.0715,-0.2158,rough,14.0,0,14.422
2780,88.96,-0.4814,8.6723,-0.9779,-2.6966,-0.0705,-0.2163,rough,14.0,0,14.422
2790,89.28,-0.4812,8.6724,-0.9779,-2.6967,-0.0709,-0.2160,rough,14.0,0,14.422
2800,89.60,-0.4809,8.6724,-0.9778,-2.6969,-0.0714,-0.2157,rough,14.0,0,14.422
2810,89.92,-0.4809,8.6723,-0.9778,-2.6970,-0.0714,-0.2159,rough,14.0,0,14.422
