step,time_s,x,y,z,roll,pitch,yaw,terrain,speed,target_idx,dist_to_target
10,0.32,-0.0060,-0.0582,0.1767,0.0019,-0.0137,0.0009,flat,18.0,0,5.403
20,0.64,0.2599,-0.0577,0.1810,-0.0003,0.0086,-0.0280,flat,18.0,0,5.197
30,0.96,0.6297,-0.0785,0.1797,-0.0001,0.0002,-0.2958,flat,18.0,0,4.906
40,1.28,1.0598,-0.2544,0.1799,-0.0019,-0.0020,-0.5703,flat,18.0,0,4.474
50,1.60,1.4618,-0.5515,0.1798,-0.0033,-0.0042,-0.7474,flat,18.0,0,3.980
60,1.92,1.8336,-0.9322,0.1799,0.0000,-0.0001,-0.8516,flat,18.0,0,3.448
70,2.24,2.1911,-1.3617,0.1799,-0.0001,-0.0000,-0.8939,flat,18.0,0,2.891
80,2.56,2.5483,-1.8026,0.1799,0.0001,0.0000,-0.8763,flat,18.0,0,2.327
90,2.88,2.8940,-2.2026,0.1799,0.0002,0.0001,-0.8271,flat,18.0,0,1.802
100,3.20,3.2067,-2.5273,0.1799,0.0002,0.0001,-0.7731,flat,18.0,0,1.353
110,3.52,3.4794,-2.7797,0.1799,0.0001,-0.0000,-0.7124,flat,18.0,1,0.981
120,3.84,3.7571,-3.0541,0.1798,0.0008,-0.0001,-0.9421,flat,18.0,1,6.932
130,4.16,3.9785,-3.4330,0.1798,0.0012,-0.0000,-1.3651,flat,18.0,1,6.798
140,4.48,4.0384,-3.8741,0.1800,0.0004,0.0001,-1.8272,flat,18.0,1,6.529
150,4.80,3.8882,-4.2948,0.1799,-0.0001,-0.0001,-2.1564,flat,18.0,1,6.134
160,5.12,3.5874,-4.6664,0.1799,-0.0002,0.0000,-2.3770,flat,18.0,1,5.664
170,5.44,3.1974,-4.9888,0.1799,-0.0001,-0.0000,-2.5528,flat,18.0,1,5.158
180,5.76,2.7410,-5.2611,0.1799,-0.0001,-0.0001,-2.6817,flat,18.0,1,4.635
190,6.08,2.2408,-5.4988,0.1824,-0.0120,-0.0028,-2.7269,flat,18.0,1,4.107
200,6.40,1.7241,-5.7329,0.1867,-0.0367,0.0064,-2.7136,flat,18.0,1,3.578
210,6.72,1.2384,-5.9790,0.1879,-0.0273,0.0078,-2.6288,flat,18.0,1,3.072
220,7.04,0.7890,-6.2559,0.1812,-0.0076,0.0014,-2.5127,flat,18.0,1,2.579
230,7.36,0.3954,-6.5641,0.1861,-0.0107,-0.0314,-2.3905,flat,18.0,1,2.104
240,7.68,0.0633,-6.9222,0.2002,-0.0541,-0.0290,-2.2779,slope,18.0,1,1.627
250,8.00,-0.2181,-7.2801,0.2042,-0.0652,0.0230,-2.1664,slope,18.0,1,1.181
260,8.32,-0.4491,-7.6417,0.1899,-0.0261,0.0380,-2.0690,flat,18.0,2,4.663
270,8.64,-0.6834,-8.0696,0.1799,-0.0039,-0.0032,-2.0851,flat,18.0,2,4.881
280,8.96,-0.8955,-8.4271,0.1798,0.0001,0.0001,-2.1605,flat,18.0,2,5.084
290,9.28,-1.0942,-8.7024,0.1787,0.0049,0.0000,-2.2794,flat,18.0,2,5.243
300,9.60,-1.2802,-8.9027,0.1842,-0.0123,-0.0085,-2.4265,flat,18.0,2,5.354
310,9.92,-1.4597,-9.0490,0.1866,-0.0207,-0.0002,-2.5607,flat,18.0,2,5.427
320,10.24,-1.6331,-9.1539,0.1865,-0.0241,0.0044,-2.6811,flat,18.0,2,5.471
330,10.56,-1.8124,-9.2287,0.1858,-0.0257,0.0055,-2.7952,flat,18.0,2,5.492
340,10.88,-1.9674,-9.2812,0.1866,-0.0345,-0.0016,-2.8861,flat,18.0,2,5.503
350,11.20,-2.1051,-9.3157,0.1821,-0.0116,-0.0014,-2.9599,flat,18.0,2,5.506
360,11.52,-2.2537,-9.3562,0.1877,-0.0407,-0.0010,3.1054,flat,18.0,2,5.516
370,11.84,-2.4001,-9.3679,0.1886,-0.0448,-0.0018,2.8936,flat,18.0,2,5.502
380,12.16,-2.5409,-9.3467,0.1895,-0.0493,-0.0018,2.7266,flat,18.0,2,5.460
390,12.48,-2.6798,-9.2980,0.1908,-0.0555,-0.0021,2.5916,slope,18.0,2,5.394
400,12.80,-2.8148,-9.2230,0.1929,-0.0458,-0.0290,2.4826,slope,18.0,2,5.306
410,13.12,-2.9606,-9.1116,0.1932,-0.0446,-0.0198,2.3920,flat,18.0,2,5.184
420,13.44,-3.1248,-8.9542,0.1965,-0.0445,0.0201,2.3196,flat,18.0,2,5.020
430,13.76,-3.2961,-8.7581,0.1920,-0.0434,0.0099,2.2445,flat,18.0,2,4.821
440,14.08,-3.4879,-8.5073,0.1860,-0.0221,0.0083,2.1877,flat,18.0,2,4.575
450,14.40,-3.7000,-8.1955,0.1805,-0.0035,0.0011,2.1410,flat,18.0,2,4.279
460,14.72,-3.9383,-7.8154,0.1844,-0.0115,-0.0173,2.1165,flat,18.0,2,3.934
470,15.04,-4.2144,-7.3539,0.1985,0.0037,-0.0253,2.1128,flat,18.0,2,3.542
480,15.36,-4.4600,-6.9367,0.2250,-0.0268,-0.0025,1.9737,flat,18.0,2,3.223
490,15.68,-4.6255,-6.4939,0.2144,-0.0272,0.0262,1.5905,flat,18.0,2,2.889
500,16.00,-4.6042,-6.0157,0.1916,-0.0307,0.0479,1.2151,flat,18.0,2,2.464
510,16.32,-4.4069,-5.5404,0.1798,0.0009,0.0008,1.1201,flat,18.0,2,1.959
520,16.64,-4.1897,-5.1234,0.1799,-0.0001,0.0001,1.0456,flat,18.0,2,1.494
530,16.96,-3.9781,-4.7769,0.1756,0.0274,-0.0002,1.0235,flat,18.0,2,1.091
540,17.28,-3.7720,-4.4390,0.1826,0.0026,-0.0184,1.0095,flat,18.0,3,10.851
550,17.60,-3.5095,-4.0257,0.1901,0.0527,-0.0034,1.1042,flat,18.0,3,10.385
560,17.92,-3.2923,-3.5450,0.1855,0.0314,0.0030,1.2425,flat,18.0,3,9.866
570,18.24,-3.1388,-3.0330,0.1821,0.0140,0.0011,1.4377,flat,18.0,3,9.332
580,18.56,-3.0881,-2.5475,0.1878,-0.0228,-0.0707,1.6250,flat,18.0,3,8.848
590,18.88,-3.1224,-2.0439,0.1992,-0.0572,-0.0318,1.5249,slope,18.0,3,8.369
600,19.20,-3.0829,-1.5014,0.1944,-0.0511,0.0118,1.4642,slope,18.0,3,7.836
610,19.52,-3.0205,-0.9709,0.1866,-0.0243,0.0231,1.4695,flat,18.0,3,7.309
620,19.84,-2.9675,-0.4434,0.1799,0.0001,0.0001,1.4799,flat,18.0,3,6.788
630,20.16,-2.9061,0.0879,0.1798,-0.0000,0.0002,1.3513,flat,18.0,3,6.263
640,20.48,-2.7761,0.6224,0.1810,0.0117,-0.0047,1.2918,flat,18.0,3,5.715
650,20.80,-2.6186,1.1301,0.2083,0.0143,-0.0502,1.2593,slope,18.0,3,5.184
660,21.12,-2.4447,1.6838,0.2168,-0.0075,0.0311,1.2635,flat,18.0,3,4.604
670,21.44,-2.2731,2.2337,0.1890,-0.0153,0.0580,1.2582,slope,18.0,3,4.028
680,21.76,-2.0958,2.7609,0.1790,0.0048,-0.0002,1.2388,flat,18.0,3,3.472
690,22.08,-1.9095,3.2959,0.1799,0.0001,-0.0008,1.2156,flat,18.0,3,2.905
700,22.40,-1.7189,3.8008,0.1786,0.0028,-0.0049,1.2060,transition,15.0,3,2.366
710,22.72,-1.5503,4.2368,0.1852,0.0114,-0.0246,1.2034,slope,18.0,3,1.899
720,23.04,-1.3597,4.6829,0.2000,0.1109,0.0056,1.2143,slope,18.0,3,1.416
730,23.36,-1.2243,5.0327,0.2242,0.1180,-0.1159,1.1976,slope,18.0,3,1.042
740,23.68,-1.1077,5.2760,0.2717,0.1684,-0.2129,1.1168,slope,18.0,0,10.194
750,24.00,-1.0315,5.3479,0.2912,0.2102,-0.2404,0.8988,slope,18.0,0,10.216
760,24.32,-0.9575,5.3226,0.2856,0.2678,-0.1465,0.4800,rough,14.0,0,10.156
770,24.64,-0.7557,5.3424,0.2805,0.3480,-0.0157,0.2582,rough,14.0,0,10.072
780,24.96,-0.5260,5.3807,0.2881,0.3803,-0.0124,0.2065,rough,14.0,0,9.994
790,25.28,-0.3003,5.4109,0.2928,0.3853,-0.0274,0.1430,rough,14.0,0,9.915
800,25.60,-0.0151,5.4253,0.2993,0.3779,-0.0448,0.0273,slope,18.0,0,9.801
810,25.92,0.3109,5.3421,0.2924,0.3418,-0.0468,-0.2536,rough,14.0,0,9.588
820,26.24,0.3518,5.3127,0.2863,0.2830,-0.0474,-0.0466,rough,14.0,0,9.545
830,26.56,0.3513,5.3046,0.2845,0.2773,-0.0498,-0.0408,rough,14.0,0,9.537
840,26.88,0.3502,5.2988,0.2827,0.2722,-0.0506,-0.0310,rough,14.0,0,9.533
850,27.20,0.3504,5.2956,0.2820,0.2697,-0.0520,-0.0267,rough,14.0,0,9.530
860,27.52,0.3499,5.2934,0.2814,0.2670,-0.0544,-0.0162,rough,14.0,0,9.528
870,27.84,0.3501,5.2926,0.2810,0.2665,-0.0530,-0.0169,rough,14.0,0,9.527
880,28.16,0.3500,5.2919,0.2807,0.2658,-0.0533,-0.0144,rough,14.0,0,9.526
890,28.48,0.3501,5.2913,0.2807,0.2654,-0.0538,-0.0150,rough,14.0,0,9.526
900,28.80,0.3502,5.2910,0.2806,0.2651,-0.0538,-0.0140,rough,14.0,0,9.526
910,29.12,0.3502,5.2908,0.2806,0.2651,-0.0540,-0.0152,rough,14.0,0,9.525
920,29.44,0.3502,5.2907,0.2805,0.2649,-0.0536,-0.0147,rough,14.0,0,9.525
930,29.76,0.3502,5.2907,0.2804,0.2648,-0.0536,-0.0141,rough,14.0,0,9.525
940,30.08,0.3499,5.2905,0.2806,0.2643,-0.0566,-0.0090,rough,14.0,0,9.525
950,30.40,0.3500,5.2908,0.2804,0.2648,-0.0530,-0.0131,rough,14.0,0,9.525
960,30.72,0.3502,5.2906,0.2805,0.2649,-0.0539,-0.0141,rough,14.0,0,9.525
970,31.04,0.3498,5.2905,0.2804,0.2641,-0.0552,-0.0080,rough,14.0,0,9.525
980,31.36,0.3499,5.2907,0.2803,0.2649,-0.0530,-0.0131,rough,14.0,0,9.525
990,31.68,0.3501,5.2907,0.2805,0.2649,-0.0541,-0.0137,rough,14.0,0,9.525
1000,32.00,0.3502,5.2907,0.2804,0.2648,-0.0537,-0.0134,rough,14.0,0,9.525
1010,32.32,0.3501,5.2906,0.2804,0.2646,-0.0538,-0.0127,rough,14.0,0,9.525
1020,32.64,0.3500,5.2906,0.2803,0.2647,-0.0527,-0.0131,rough,14.0,0,9.525
1030,32.96,0.3501,5.2906,0.2804,0.2645,-0.0537,-0.0123,rough,14.0,0,9.525
1040,33.28,0.3499,5.2907,0.2804,0.2647,-0.0542,-0.0110,rough,14.0,0,9.525
1050,33.60,0.3502,5.2908,0.2804,0.2650,-0.0530,-0.0154,rough,14.0,0,9.525
1060,33.92,0.3497,5.2906,0.2800,0.2644,-0.0521,-0.0089,rough,14.0,0,9.525
1070,34.24,0.3502,5.2907,0.2805,0.2650,-0.0538,-0.0152,rough,14.0,0,9.525
1080,34.56,0.3499,5.2905,0.2803,0.2643,-0.0541,-0.0103,rough,14.0,0,9.525
1090,34.88,0.3502,5.2907,0.2804,0.2649,-0.0528,-0.0151,rough,14.0,0,9.525
1100,35.20,0.3502,5.2908,0.2804,0.2649,-0.0531,-0.0144,rough,14.0,0,9.525
1110,35.52,0.3502,5.2908,0.2805,0.2648,-0.0540,-0.0132,rough,14.0,0,9.525
1120,35.84,0.3500,5.2907,0.2804,0.2646,-0.0542,-0.0119,rough,14.0,0,9.525
1130,36.16,0.3499,5.2906,0.2802,0.2647,-0.0524,-0.0127,rough,14.0,0,9.525
1140,36.48,0.3498,5.2907,0.2801,0.2646,-0.0521,-0.0105,rough,14.0,0,9.525
1150,36.80,0.3500,5.2906,0.2805,0.2646,-0.0551,-0.0111,rough,14.0,0,9.525
1160,37.12,0.3503,5.2909,0.2804,0.2650,-0.0528,-0.0147,rough,14.0,0,9.525
1170,37.44,0.3500,5.2909,0.2803,0.2649,-0.0527,-0.0128,rough,14.0,1,13.685
1180,37.76,0.3500,5.2908,0.2805,0.2646,-0.0545,-0.0113,rough,14.0,1,13.685
1190,38.08,0.3499,5.2906,0.2802,0.2647,-0.0523,-0.0126,rough,14.0,1,13.685
1200,38.40,0.3499,5.2906,0.2803,0.2647,-0.0530,-0.0122,rough,14.0,1,13.685
1210,38.72,0.3499,5.2906,0.2802,0.2647,-0.0522,-0.0129,rough,14.0,1,13.685
1220,39.04,0.3502,5.2905,0.2804,0.2648,-0.0535,-0.0149,rough,14.0,1,13.685
1230,39.36,0.3502,5.2906,0.2804,0.2649,-0.0530,-0.0155,rough,14.0,1,13.685
1240,39.68,0.3500,5.2904,0.2803,0.2643,-0.0538,-0.0109,rough,14.0,1,13.685
1250,40.00,0.3499,5.2905,0.2803,0.2645,-0.0536,-0.0109,rough,14.0,1,13.685
1260,40.32,0.3502,5.2907,0.2804,0.2649,-0.0530,-0.0157,rough,14.0,1,13.685
1270,40.64,0.3499,5.2905,0.2801,0.2646,-0.0523,-0.0122,rough,14.0,1,13.685
1280,40.96,0.3500,5.2905,0.2803,0.2645,-0.0535,-0.0126,rough,14.0,1,13.685
1290,41.28,0.3501,5.2905,0.2804,0.2644,-0.0546,-0.0112,rough,14.0,1,13.685
1300,41.60,0.3500,5.2905,0.2803,0.2645,-0.0536,-0.0122,rough,14.0,1,13.685
1310,41.92,0.3500,5.2905,0.2803,0.2647,-0.0529,-0.0128,rough,14.0,1,13.685
1320,42.24,0.3498,5.2906,0.2799,0.2644,-0.0508,-0.0105,rough,14.0,1,13.685
1330,42.56,0.3498,5.2906,0.2799,0.2645,-0.0508,-0.0109,rough,14.0,1,13.685
1340,42.88,0.3500,5.2906,0.2806,0.2645,-0.0562,-0.0102,rough,14.0,1,13.685
1350,43.20,0.3502,5.2909,0.2805,0.2650,-0.0531,-0.0146,rough,14.0,1,13.685
1360,43.52,0.3502,5.2907,0.2804,0.2649,-0.0531,-0.0149,rough,14.0,1,13.685
1370,43.84,0.3497,5.2905,0.2799,0.2644,-0.0512,-0.0099,rough,14.0,1,13.685
1380,44.16,0.3500,5.2904,0.2804,0.2645,-0.0539,-0.0127,rough,14.0,1,13.685
1390,44.48,0.3501,5.2905,0.2804,0.2646,-0.0537,-0.0130,rough,14.0,1,13.685
1400,44.80,0.3501,5.2905,0.2804,0.2646,-0.0536,-0.0134,rough,14.0,1,13.685
1410,45.12,0.3501,5.2906,0.2804,0.2647,-0.0532,-0.0137,rough,14.0,1,13.685
1420,45.44,0.3502,5.2906,0.2804,0.2647,-0.0534,-0.0139,rough,14.0,1,13.685
1430,45.76,0.3501,5.2906,0.2804,0.2648,-0.0531,-0.0140,rough,14.0,1,13.685
1440,46.08,0.3498,5.2904,0.2803,0.2640,-0.0551,-0.0079,rough,14.0,1,13.685
1450,46.40,0.3500,5.2908,0.2805,0.2649,-0.0539,-0.0129,rough,14.0,1,13.685
1460,46.72,0.3501,5.2908,0.2805,0.2647,-0.0545,-0.0120,rough,14.0,1,13.685
1470,47.04,0.3500,5.2907,0.2804,0.2646,-0.0540,-0.0121,rough,14.0,1,13.685
1480,47.36,0.3500,5.2906,0.2804,0.2645,-0.0538,-0.0124,rough,14.0,1,13.685
1490,47.68,0.3501,5.2908,0.2804,0.2648,-0.0534,-0.0128,rough,14.0,1,13.685
1500,48.00,0.3501,5.2906,0.2803,0.2647,-0.0527,-0.0134,rough,14.0,1,13.685
1510,48.32,0.3501,5.2906,0.2804,0.2646,-0.0536,-0.0131,rough,14.0,1,13.685
1520,48.64,0.3499,5.2906,0.2802,0.2645,-0.0525,-0.0116,rough,14.0,1,13.685
1530,48.96,0.3500,5.2904,0.2803,0.2643,-0.0536,-0.0112,rough,14.0,2,9.916
1540,49.28,0.3493,5.2906,0.2804,0.2645,-0.0530,-0.0145,rough,14.0,2,9.916
1550,49.60,0.2925,5.2609,0.2713,0.2499,-0.0173,-0.1349,rough,14.0,2,9.868
1560,49.92,0.3143,5.2290,0.2629,0.2220,-0.0430,-0.0242,rough,14.0,2,9.846
1570,50.24,0.2878,5.2118,0.2579,0.2146,-0.0221,-0.1002,rough,14.0,2,9.820
1580,50.56,0.2754,5.1514,0.2418,0.1778,-0.0119,-0.1430,slope,18.0,2,9.760
1590,50.88,0.2898,5.1192,0.2328,0.1538,-0.0239,-0.0872,slope,18.0,2,9.735
1600,51.20,0.2939,5.0766,0.2262,0.1441,0.0115,-0.3404,slope,18.0,2,9.697
1610,51.52,0.4647,4.9155,0.2106,0.1372,0.0476,-0.7549,slope,18.0,2,9.612
1620,51.84,0.7400,4.6406,0.1887,0.0168,0.0365,-1.0414,slope,18.0,2,9.473
1630,52.16,0.9460,4.2431,0.1795,-0.0028,0.0047,-1.1562,flat,18.0,2,9.208
1640,52.48,1.1209,3.8127,0.1799,-0.0004,-0.0001,-1.2478,flat,18.0,2,8.913
1650,52.80,1.2572,3.3643,0.1797,-0.0003,0.0001,-1.4856,flat,18.0,2,8.597
1660,53.12,1.2630,2.9093,0.1797,-0.0001,0.0000,-1.8921,flat,18.0,2,8.217
1670,53.44,1.0773,2.4755,0.1797,-0.0012,0.0018,-2.1533,flat,18.0,2,7.753
1680,53.76,0.7728,2.0792,0.1799,-0.0000,-0.0000,-2.3260,flat,18.0,2,7.255
1690,54.08,0.3934,1.7190,0.1799,-0.0001,-0.0000,-2.4484,flat,18.0,2,6.745
1700,54.40,-0.0416,1.3815,0.1799,-0.0001,0.0000,-2.5168,flat,18.0,2,6.227
1710,54.72,-0.5036,1.0503,0.1799,0.0000,0.0000,-2.5104,flat,18.0,2,5.709
1720,55.04,-0.9377,0.7200,0.1803,0.0027,0.0002,-2.4474,flat,18.0,2,5.213
1730,55.36,-1.3353,0.3655,0.1809,0.0067,0.0004,-2.3442,flat,18.0,2,4.722
1740,55.68,-1.6894,-0.0266,0.1805,0.0045,0.0006,-2.2213,flat,18.0,2,4.222
1750,56.00,-1.9934,-0.4608,0.1791,-0.0038,-0.0007,-2.0908,flat,18.0,2,3.707
1760,56.32,-2.2418,-0.9157,0.1886,0.0183,-0.0374,-2.0206,flat,18.0,2,3.195
1770,56.64,-2.4627,-1.3977,0.2095,0.0177,-0.0329,-1.9561,flat,18.0,2,2.668
1780,56.96,-2.6606,-1.9282,0.2192,0.0201,0.0440,-1.8892,flat,18.0,2,2.103
1790,57.28,-2.8174,-2.4218,0.2009,-0.0011,0.0378,-1.8847,flat,18.0,2,1.585
1800,57.60,-2.9493,-2.8299,0.1838,-0.0041,0.0288,-1.8848,flat,18.0,2,1.156
1810,57.92,-3.0786,-3.2055,0.1808,-0.0057,-0.0009,-1.9518,flat,18.0,3,9.486
1820,58.24,-3.1738,-3.4682,0.1837,-0.0221,-0.0014,-2.3013,flat,18.0,3,9.764
1830,58.56,-3.2432,-3.5774,0.1848,-0.0239,-0.0071,-2.7523,flat,18.0,3,9.886
1840,58.88,-3.3185,-3.6306,0.1861,-0.0060,-0.0363,-3.0455,flat,18.0,3,9.955
1850,59.20,-3.5365,-3.6531,0.1964,-0.0054,-0.0678,-3.1305,slope,18.0,3,10.031
1860,59.52,-3.8223,-3.6551,0.2101,0.0102,-0.0539,2.7010,slope,18.0,3,10.110
1870,59.84,-4.1615,-3.4727,0.2213,0.0250,-0.0128,2.4815,flat,18.0,3,10.038
1880,60.16,-4.5163,-3.1813,0.2166,0.0161,0.0690,2.3695,flat,18.0,3,9.885
1890,60.48,-4.8253,-2.8558,0.1940,-0.0027,0.0542,2.2443,slope,18.0,3,9.701
1900,60.80,-5.0598,-2.6188,0.1791,-0.0187,0.0390,1.8286,flat,18.0,3,9.582
1910,61.12,-5.1371,-2.5597,0.2050,-0.0181,-0.1644,1.6756,slope,18.0,3,9.562
1920,61.44,-5.1727,-2.5231,0.1866,-0.0086,-0.0263,1.5697,slope,18.0,3,9.545
1930,61.76,-5.1782,-2.5167,0.1876,-0.0082,-0.0328,1.5507,flat,18.0,3,9.541
1940,62.08,-5.1762,-2.5150,0.1846,-0.0082,-0.0125,1.5569,flat,18.0,3,9.539
1950,62.40,-5.1758,-2.5169,0.1844,-0.0084,-0.0114,1.5671,flat,18.0,3,9.541
1960,62.72,-5.1769,-2.5158,0.1819,-0.0082,0.0053,1.5727,flat,18.0,3,9.540
1970,63.04,-5.1792,-2.5153,0.1850,-0.0080,-0.0159,1.5739,flat,18.0,3,9.541
1980,63.36,-5.1822,-2.5129,0.1848,-0.0076,-0.0150,1.5736,flat,18.0,3,9.540
1990,63.68,-5.1852,-2.5115,0.1833,-0.0074,-0.0047,1.5742,flat,18.0,3,9.540
2000,64.00,-5.1878,-2.5101,0.1859,-0.0071,-0.0223,1.5739,flat,18.0,3,9.540
2010,64.32,-5.1906,-2.5079,0.1860,-0.0067,-0.0234,1.5749,flat,18.0,3,9.539
2020,64.64,-5.1939,-2.5055,0.1845,-0.0063,-0.0137,1.5761,flat,18.0,3,9.538
2030,64.96,-5.1971,-2.5042,0.1837,-0.0061,-0.0082,1.5762,flat,18.0,3,9.539
2040,65.28,-5.2001,-2.5017,0.1857,-0.0058,-0.0219,1.5752,flat,18.0,3,9.538
2050,65.60,-5.2040,-2.5001,0.1855,-0.0054,-0.0208,1.5691,flat,18.0,3,9.538
2060,65.92,-5.2065,-2.4983,0.1854,-0.0051,-0.0201,1.5640,flat,18.0,3,9.538
2070,66.24,-5.2081,-2.4973,0.1857,-0.0049,-0.0225,1.5618,flat,18.0,3,9.537
2080,66.56,-5.2095,-2.4965,0.1859,-0.0048,-0.0240,1.5601,flat,18.0,3,9.537
2090,66.88,-5.2109,-2.4957,0.1863,-0.0046,-0.0265,1.5575,flat,18.0,3,9.537
2100,67.20,-5.2115,-2.4965,0.1885,-0.0045,-0.0414,1.5594,flat,18.0,3,9.538
2110,67.52,-5.2115,-2.4955,0.1840,-0.0045,-0.0114,1.5649,flat,18.0,3,9.537
2120,67.84,-5.2124,-2.4938,0.1850,-0.0041,-0.0184,1.5656,flat,18.0,3,9.536
2130,68.16,-5.2131,-2.4945,0.1878,-0.0042,-0.0373,1.5679,flat,18.0,3,9.537
2140,68.48,-5.2150,-2.4936,0.1875,-0.0041,-0.0352,1.5662,flat,18.0,3,9.537
2150,68.80,-5.2174,-2.4914,0.1874,-0.0039,-0.0348,1.5586,flat,18.0,3,9.536
2160,69.12,-5.2188,-2.4904,0.1878,-0.0037,-0.0375,1.5553,flat,18.0,3,9.536
2170,69.44,-5.2194,-2.4910,0.1895,-0.0036,-0.0493,1.5565,flat,18.0,3,9.537
2180,69.76,-5.2192,-2.4918,0.1885,-0.0036,-0.0426,1.5612,flat,18.0,3,9.537
2190,70.08,-5.2199,-2.4887,0.1816,-0.0036,0.0046,1.5623,flat,18.0,3,9.535
2200,70.40,-5.2212,-2.4879,0.1823,-0.0035,-0.0005,1.5591,flat,18.0,0,9.500
2210,70.72,-5.2210,-2.4876,0.1844,-0.0031,-0.0150,1.5595,flat,18.0,0,9.500
2220,71.04,-5.2217,-2.4880,0.1867,-0.0032,-0.0303,1.5587,flat,18.0,0,9.501
2230,71.36,-5.2229,-2.4870,0.1871,-0.0031,-0.0331,1.5559,flat,18.0,0,9.502
2240,71.68,-5.2226,-2.4888,0.1881,-0.0032,-0.0398,1.5617,flat,18.0,0,9.502
2250,72.00,-5.2228,-2.4888,0.1862,-0.0032,-0.0268,1.5655,flat,18.0,0,9.502
2260,72.32,-5.2245,-2.4872,0.1865,-0.0031,-0.0294,1.5602,flat,18.0,0,9.504
2270,72.64,-5.2251,-2.4881,0.1889,-0.0030,-0.0457,1.5607,flat,18.0,0,9.504
2280,72.96,-5.2251,-2.4872,0.1850,-0.0031,-0.0189,1.5650,flat,18.0,0,9.504
2290,73.28,-5.2265,-2.4839,0.1841,-0.0026,-0.0133,1.5585,flat,18.0,0,9.506
2300,73.60,-5.2264,-2.4854,0.1869,-0.0027,-0.0321,1.5614,flat,18.0,0,9.506
2310,73.92,-5.2279,-2.4839,0.1872,-0.0026,-0.0342,1.5566,flat,18.0,0,9.507
2320,74.24,-5.2275,-2.4856,0.1882,-0.0027,-0.0407,1.5620,flat,18.0,0,9.507
2330,74.56,-5.2277,-2.4856,0.1863,-0.0027,-0.0277,1.5655,flat,18.0,0,9.507
2340,74.88,-5.2294,-2.4841,0.1867,-0.0026,-0.0308,1.5600,flat,18.0,0,9.509
2350,75.20,-5.2292,-2.4831,0.1820,-0.0026,0.0006,1.5650,flat,18.0,0,9.509
2360,75.52,-5.2301,-2.4840,0.1853,-0.0025,-0.0214,1.5633,flat,18.0,0,9.510
2370,75.84,-5.2310,-2.4811,0.1845,-0.0021,-0.0161,1.5589,flat,18.0,0,9.511
2380,76.16,-5.2315,-2.4817,0.1870,-0.0022,-0.0330,1.5581,flat,18.0,0,9.511
2390,76.48,-5.2321,-2.4816,0.1881,-0.0021,-0.0405,1.5575,flat,18.0,0,9.512
2400,76.80,-5.2319,-2.4834,0.1897,-0.0022,-0.0515,1.5618,flat,18.0,0,9.511
2410,77.12,-5.2328,-2.4820,0.1866,-0.0022,-0.0302,1.5613,flat,18.0,0,9.512
2420,77.44,-5.2334,-2.4827,0.1890,-0.0021,-0.0468,1.5607,flat,18.0,0,9.513
2430,77.76,-5.2333,-2.4820,0.1853,-0.0022,-0.0214,1.5647,flat,18.0,0,9.513
2440,78.08,-5.2346,-2.4787,0.1844,-0.0017,-0.0157,1.5579,flat,18.0,0,9.515
2450,78.40,-5.2344,-2.4803,0.1872,-0.0018,-0.0347,1.5607,flat,18.0,0,9.514
2460,78.72,-5.2344,-2.4814,0.1880,-0.0019,-0.0399,1.5637,flat,18.0,0,9.514
2470,79.04,-5.2360,-2.4798,0.1883,-0.0018,-0.0423,1.5577,flat,18.0,0,9.516
2480,79.36,-5.2356,-2.4805,0.1868,-0.0019,-0.0323,1.5629,flat,18.0,0,9.515
2490,79.68,-5.2357,-2.4790,0.1817,-0.0019,0.0025,1.5662,flat,18.0,0,9.516
2500,80.00,-5.2368,-2.4796,0.1851,-0.0018,-0.0207,1.5631,flat,18.0,0,9.517
2510,80.32,-5.2378,-2.4767,0.1844,-0.0014,-0.0162,1.5573,flat,18.0,0,9.518
2520,80.64,-5.2374,-2.4783,0.1873,-0.0015,-0.0354,1.5601,flat,18.0,0,9.517
2530,80.96,-5.2373,-2.4796,0.1881,-0.0016,-0.0408,1.5634,flat,18.0,0,9.517
2540,81.28,-5.2384,-2.4790,0.1896,-0.0015,-0.0515,1.5598,flat,18.0,0,9.518
2550,81.60,-5.2389,-2.4781,0.1867,-0.0015,-0.0316,1.5603,flat,18.0,0,9.519
2560,81.92,-5.2394,-2.4789,0.1892,-0.0015,-0.0485,1.5600,flat,18.0,0,9.519
2570,82.24,-5.2394,-2.4776,0.1842,-0.0015,-0.0146,1.5632,flat,18.0,1,7.418
2580,82.56,-5.2444,-2.4802,0.1856,0.0002,-0.0228,1.3787,flat,18.0,1,7.419
2590,82.88,-5.1992,-2.4655,0.1833,0.0068,-0.0026,0.8368,flat,18.0,1,7.403
2600,83.20,-5.1807,-2.4692,0.1836,0.0043,-0.0055,0.8355,flat,18.0,1,7.389
2610,83.52,-5.1585,-2.4601,0.1970,0.0027,-0.0937,0.9991,slope,18.0,1,7.383
2620,83.84,-5.1143,-2.4818,0.1872,-0.0023,-0.0230,1.0050,flat,18.0,1,7.339
2630,84.16,-5.0315,-2.5047,0.1841,-0.0133,-0.0025,1.2116,flat,18.0,1,7.271
2640,84.48,-4.9488,-2.5321,0.1849,-0.0216,-0.0063,1.2614,flat,18.0,1,7.200
2650,84.80,-4.8961,-2.5518,0.1859,-0.0228,-0.0040,1.3010,flat,18.0,1,7.153
2660,85.12,-4.8854,-2.5686,0.1860,-0.0237,-0.0013,1.2536,flat,18.0,1,7.133
2670,85.44,-4.8759,-2.6195,0.1869,-0.0317,0.0031,1.0567,flat,18.0,1,7.086
2680,85.76,-4.8832,-2.5582,0.1823,-0.0224,0.0226,1.2774,flat,18.0,1,7.140
2690,86.08,-4.8772,-2.5717,0.1858,-0.0232,0.0022,1.2485,flat,18.0,1,7.126
2700,86.40,-4.8714,-2.6037,0.1866,-0.0286,0.0028,1.1312,flat,18.0,1,7.096
2710,86.72,-4.8770,-2.5634,0.1855,-0.0224,0.0032,1.2701,flat,18.0,1,7.132
2720,87.04,-4.8716,-2.5987,0.1865,-0.0275,0.0033,1.1504,flat,18.0,1,7.101
2730,87.36,-4.8757,-2.5686,0.1851,-0.0231,0.0061,1.2519,flat,18.0,1,7.127
2740,87.68,-4.8706,-2.6041,0.1865,-0.0284,0.0040,1.1302,flat,18.0,1,7.096
2750,88.00,-4.8760,-2.5628,0.1850,-0.0226,0.0056,1.2741,flat,18.0,1,7.132
2760,88.32,-4.8710,-2.5960,0.1864,-0.0271,0.0032,1.1641,flat,18.0,1,7.102
2770,88.64,-4.8745,-2.5678,0.1845,-0.0230,0.0101,1.2559,flat,18.0,1,7.127
2780,88.96,-4.8699,-2.6014,0.1864,-0.0281,0.0039,1.1436,flat,18.0,1,7.097
2790,89.28,-4.8746,-2.5657,0.1844,-0.0228,0.0104,1.2643,flat,18.0,1,7.129
2800,89.60,-4.8711,-2.5883,0.1862,-0.0258,0.0029,1.1949,flat,18.0,1,7.109
2810,89.92,-4.8720,-2.5748,0.1862,-0.0243,-0.0005,1.2372,flat,18.0,1,7.120
