step,time_s,x,y,z,roll,pitch,yaw,terrain,speed,target_idx,dist_to_target
10,0.32,0.9574,-0.7750,0.1733,-0.0000,-0.0140,0.0000,flat,18.0,0,5.769
20,0.64,1.2173,-0.7761,0.1793,0.0000,0.0029,-0.0300,flat,18.0,0,5.573
30,0.96,1.5916,-0.8027,0.1797,-0.0002,-0.0001,-0.3460,flat,18.0,0,5.283
40,1.28,1.9955,-0.9961,0.1799,-0.0004,0.0003,-0.6608,flat,18.0,0,4.862
50,1.60,2.3587,-1.3316,0.1799,-0.0003,0.0000,-0.8479,flat,18.0,0,4.369
60,1.92,2.6885,-1.7475,0.1799,-0.0001,-0.0000,-0.9638,flat,18.0,0,3.840
70,2.24,2.9976,-2.2152,0.1799,-0.0001,0.0000,-1.0098,flat,18.0,0,3.290
80,2.56,3.3020,-2.6959,0.1799,0.0000,0.0000,-0.9943,flat,18.0,0,2.739
90,2.88,3.6107,-3.1566,0.1799,0.0002,0.0000,-0.9504,flat,18.0,0,2.206
100,3.20,3.9170,-3.5660,0.1799,0.0001,0.0000,-0.8888,flat,18.0,0,1.717
110,3.52,4.2006,-3.9005,0.1799,0.0001,0.0001,-0.8384,flat,18.0,0,1.301
120,3.84,4.4464,-4.1626,0.1799,0.0001,0.0001,-0.7816,flat,18.0,1,12.165
130,4.16,4.6508,-4.3359,0.1801,0.0021,-0.0002,-0.5268,transition,15.0,1,12.390
140,4.48,4.8056,-4.3972,0.1814,-0.0003,-0.0125,-0.1944,slope,18.0,1,12.495
150,4.80,4.9563,-4.4200,0.1875,-0.0022,-0.0505,0.2976,slope,18.0,1,12.563
160,5.12,5.1871,-4.2630,0.1989,-0.0378,-0.0756,0.5851,slope,18.0,1,12.489
170,5.44,5.4287,-3.9876,0.2098,-0.1138,-0.0572,0.9042,slope,18.0,1,12.314
180,5.76,5.6087,-3.6074,0.2128,-0.1370,0.0238,1.2235,slope,18.0,1,12.027
190,6.08,5.7301,-3.1581,0.2041,-0.1123,0.0176,1.3683,slope,18.0,1,11.662
200,6.40,5.7704,-2.6790,0.1892,-0.0508,0.0394,1.6337,slope,18.0,1,11.242
210,6.72,5.7129,-2.2432,0.1752,-0.0253,0.0008,1.8843,flat,18.0,1,10.824
220,7.04,5.5348,-1.7265,0.1796,-0.0013,0.0001,1.9483,flat,18.0,1,10.281
230,7.36,5.3219,-1.2042,0.1798,-0.0000,0.0000,1.9812,flat,18.0,1,9.719
240,7.68,5.0915,-0.6848,0.1799,0.0001,-0.0000,2.0015,flat,18.0,1,9.151
250,8.00,4.8506,-0.1659,0.1799,0.0000,-0.0000,2.0111,flat,18.0,1,8.579
260,8.32,4.6049,0.3539,0.1799,0.0000,-0.0000,2.0133,flat,18.0,1,8.004
270,8.64,4.3589,0.8738,0.1799,-0.0000,0.0000,2.0111,flat,18.0,1,7.429
280,8.96,4.1149,1.3937,0.1799,-0.0000,0.0000,2.0063,flat,18.0,1,6.855
290,9.28,3.8737,1.9146,0.1799,-0.0000,-0.0000,2.0010,flat,18.0,1,6.281
300,9.60,3.6349,2.4371,0.1799,-0.0000,-0.0000,1.9965,flat,18.0,1,5.708
310,9.92,3.3982,2.9609,0.1799,-0.0000,-0.0000,1.9932,flat,18.0,1,5.134
320,10.24,3.1627,3.4858,0.1799,-0.0000,-0.0000,1.9914,transition,15.0,1,4.559
330,10.56,2.9683,3.9199,0.1799,0.0000,0.0001,2.0083,rough,14.0,1,4.085
340,10.88,2.8006,4.2749,0.1773,0.0223,-0.0066,2.0810,rough,14.0,1,3.693
350,11.20,2.6019,4.5733,0.1886,-0.0281,-0.0207,2.1759,rough,14.0,1,3.336
360,11.52,2.4373,4.7544,0.2317,-0.1351,-0.1877,2.2304,rough,14.0,1,3.099
370,11.84,2.2553,4.9398,0.2507,-0.2396,-0.1998,2.2705,rough,14.0,1,2.852
380,12.16,2.0614,5.1284,0.3144,-0.2949,-0.2598,2.3476,rough,14.0,1,2.600
390,12.48,1.8894,5.2907,0.3733,-0.3204,-0.3031,2.3726,rough,14.0,1,2.384
400,12.80,1.6574,5.4925,0.4342,-0.3534,-0.2963,2.2325,rough,14.0,1,2.116
410,13.12,1.4597,5.7062,0.5109,-0.3563,-0.2763,2.0838,rough,14.0,1,1.857
420,13.44,1.3056,5.9482,0.5983,-0.3369,-0.3816,2.0257,slope,18.0,1,1.588
430,13.76,1.1204,6.2515,0.7479,-0.3655,-0.4118,2.1092,slope,18.0,1,1.262
440,14.08,0.9575,6.4772,0.8679,-0.4144,-0.4472,2.1956,slope,18.0,1,1.034
450,14.40,0.7568,6.7120,1.0031,-0.4435,-0.4369,2.2613,slope,18.0,2,14.492
460,14.72,0.4367,6.9819,1.1441,-0.5192,-0.3283,2.4161,slope,18.0,2,14.523
470,15.04,0.0385,7.2903,1.2766,-0.4819,-0.1732,2.5109,slope,18.0,2,14.556
480,15.36,-0.4124,7.6066,1.3466,-0.4399,-0.1446,2.5354,slope,18.0,2,14.586
490,15.68,-0.8364,7.9099,1.4082,-0.3796,-0.1258,2.5497,slope,18.0,2,14.638
500,16.00,-1.2206,8.1591,1.4463,-0.3154,-0.0803,2.6018,slope,18.0,2,14.678
510,16.32,-1.5846,8.3700,1.4642,-0.2519,-0.0242,2.6574,slope,18.0,2,14.707
520,16.64,-1.9359,8.5455,1.4500,-0.1915,0.0634,2.7050,slope,18.0,2,14.720
530,16.96,-2.2576,8.6778,1.4105,-0.1631,0.1423,2.7909,slope,18.0,2,14.715
540,17.28,-2.5509,8.7628,1.3642,-0.1455,0.1576,2.9106,slope,18.0,2,14.684
550,17.60,-2.8493,8.8112,1.3128,-0.1609,0.2190,3.0233,slope,18.0,2,14.623
560,17.92,-3.1213,8.8163,1.2565,-0.1332,0.1997,-3.1093,slope,18.0,2,14.537
570,18.24,-3.4310,8.7869,1.1920,-0.2000,0.2576,-3.0855,slope,18.0,2,14.410
580,18.56,-3.7276,8.7603,1.1227,-0.2105,0.2216,-3.0383,slope,18.0,2,14.295
590,18.88,-4.0383,8.7173,1.0516,-0.2328,0.2513,-2.9990,slope,18.0,2,14.166
600,19.20,-4.3426,8.6623,0.9763,-0.2148,0.2348,-2.9274,slope,18.0,2,14.034
610,19.52,-4.6412,8.5601,0.8989,-0.1689,0.2489,-2.7918,slope,18.0,2,13.862
620,19.84,-4.9456,8.4255,0.8232,-0.1536,0.1904,-2.7020,slope,18.0,2,13.662
630,20.16,-5.2829,8.2472,0.7491,-0.1062,0.2028,-2.6267,slope,18.0,2,13.418
640,20.48,-5.6414,8.0223,0.6629,-0.0898,0.1966,-2.5675,slope,18.0,2,13.131
650,20.80,-6.0395,7.7445,0.5469,-0.1039,0.2706,-2.5373,slope,18.0,2,12.794
660,21.12,-6.4728,7.4364,0.3818,-0.1009,0.3195,-2.5300,slope,18.0,2,12.432
670,21.44,-6.8421,7.1361,0.2641,-0.0588,0.2184,-2.3616,slope,18.0,2,12.096
680,21.76,-7.1548,6.8008,0.2055,-0.0312,0.0536,-2.1337,slope,18.0,2,11.738
690,22.08,-7.3707,6.4011,0.2080,-0.0387,-0.0323,-1.9342,flat,18.0,2,11.328
700,22.40,-7.5182,5.9053,0.1923,-0.0563,0.0367,-1.8064,flat,18.0,2,10.826
710,22.72,-7.6315,5.3713,0.1821,0.0013,0.0190,-1.7650,flat,18.0,2,10.289
720,23.04,-7.7333,4.8490,0.1797,0.0010,-0.0002,-1.7553,flat,18.0,2,9.765
730,23.36,-7.8251,4.3463,0.1822,0.0036,-0.0116,-1.7354,flat,18.0,2,9.261
740,23.68,-7.9042,3.8668,0.1960,0.0101,-0.0336,-1.7217,flat,18.0,2,8.781
750,24.00,-7.9748,3.4065,0.2211,0.0227,-0.0473,-1.7093,slope,18.0,2,8.321
760,24.32,-8.0322,2.9374,0.2246,0.0077,0.0234,-1.6553,flat,18.0,2,7.853
770,24.64,-8.0607,2.4795,0.1969,-0.0027,0.0767,-1.6022,slope,18.0,2,7.396
780,24.96,-8.0701,2.0474,0.1794,0.0006,-0.0030,-1.5506,flat,18.0,2,6.964
790,25.28,-8.0564,1.5999,0.1798,0.0002,-0.0003,-1.4931,flat,18.0,2,6.516
800,25.60,-8.0177,1.1496,0.1799,0.0002,-0.0000,-1.4383,flat,18.0,2,6.065
810,25.92,-7.9525,0.7013,0.1850,-0.0060,-0.0503,-1.3970,flat,18.0,2,5.616
820,26.24,-7.8675,0.2334,0.2163,-0.0055,-0.0475,-1.3849,slope,18.0,2,5.148
830,26.56,-7.7651,-0.2736,0.2183,-0.0166,0.0453,-1.3703,flat,18.0,2,4.643
840,26.88,-7.6570,-0.7900,0.1977,-0.0175,0.0565,-1.3535,slope,18.0,2,4.131
850,27.20,-7.5414,-1.3185,0.1803,0.0018,0.0013,-1.3435,flat,18.0,2,3.613
860,27.52,-7.4233,-1.8401,0.1811,0.0088,0.0025,-1.3432,flat,18.0,2,3.110
870,27.84,-7.3193,-2.3027,0.1799,0.0333,0.0048,-1.3393,flat,18.0,2,2.674
880,28.16,-7.2074,-2.7671,0.1900,-0.0241,-0.0016,-1.3787,flat,18.0,2,2.254
890,28.48,-7.1132,-3.2239,0.1884,-0.0669,0.0052,-1.3902,flat,18.0,2,1.862
900,28.80,-7.0353,-3.6584,0.1890,-0.0433,0.0081,-1.4205,flat,18.0,2,1.522
910,29.12,-6.9835,-4.0055,0.1798,-0.0087,-0.0096,-1.7201,flat,18.0,2,1.287
920,29.44,-7.0583,-4.3401,0.1826,-0.0001,-0.0157,-1.9364,flat,18.0,2,1.014
930,29.76,-7.2192,-4.6716,0.1818,0.0103,0.0180,-2.1081,flat,18.0,3,1.220
940,30.08,-7.4058,-4.9286,0.1829,0.0140,0.0039,-2.4088,flat,18.0,3,1.014
950,30.40,-7.7595,-5.2254,0.1761,0.0001,0.0235,-2.5216,flat,18.0,0,13.123
960,30.72,-8.1413,-5.5083,0.1796,0.0002,0.0016,-2.4654,flat,18.0,0,13.522
970,31.04,-8.4430,-5.7609,0.1842,0.0232,-0.0011,-2.3607,flat,18.0,0,13.843
980,31.36,-8.6675,-5.9823,0.1856,0.0280,-0.0040,-2.2349,flat,18.0,0,14.088
990,31.68,-8.8344,-6.1957,0.1849,0.0234,-0.0012,-2.0978,flat,18.0,0,14.278
1000,32.00,-8.9651,-6.4280,0.1804,-0.0009,0.0013,-1.8997,flat,18.0,0,14.436
1010,32.32,-9.0485,-6.6503,0.1829,0.0111,-0.0002,-1.6701,flat,18.0,0,14.550
1020,32.64,-9.0807,-6.8670,0.1825,0.0100,-0.0029,-1.4088,flat,18.0,0,14.615
1030,32.96,-9.0565,-7.0770,0.1840,0.0166,-0.0024,-1.2013,flat,18.0,0,14.626
1040,33.28,-8.9801,-7.2760,0.1847,-0.0007,-0.0171,-1.0568,flat,18.0,0,14.587
1050,33.60,-8.8587,-7.4822,0.1883,0.0131,-0.0061,-0.9488,flat,18.0,0,14.509
1060,33.92,-8.6926,-7.7014,0.1844,0.0237,0.0122,-0.8457,flat,18.0,0,14.393
1070,34.24,-8.4702,-7.9314,0.1818,0.0122,-0.0004,-0.7702,flat,18.0,0,14.230
1080,34.56,-8.1866,-8.1934,0.1799,0.0001,-0.0000,-0.7103,flat,18.0,0,14.021
1090,34.88,-7.8835,-8.4424,0.1799,0.0001,0.0000,-0.6527,flat,18.0,0,13.797
1100,35.20,-7.6068,-8.6435,0.1801,-0.0012,-0.0003,-0.5752,flat,18.0,0,13.592
1110,35.52,-7.3619,-8.8026,0.1839,0.0166,-0.0082,-0.5017,flat,18.0,0,13.409
1120,35.84,-7.1247,-8.9230,0.1878,0.0144,-0.0214,-0.4397,flat,18.0,0,13.224
1130,36.16,-6.9191,-9.0245,0.1933,0.0287,0.0082,-0.3795,flat,18.0,0,13.065
1140,36.48,-6.7322,-9.1006,0.1951,0.0430,-0.0185,-0.3293,flat,18.0,0,12.916
1150,36.80,-6.5597,-9.1658,0.1938,0.0687,0.0035,-0.2852,slope,18.0,0,12.779
1160,37.12,-6.3681,-9.2155,0.1941,0.0602,0.0162,-0.1958,slope,18.0,0,12.619
1170,37.44,-6.1955,-9.2555,0.1913,0.0593,-0.0001,-0.0669,slope,18.0,0,12.474
1180,37.76,-6.0251,-9.2744,0.1903,0.0532,0.0000,0.0617,slope,18.0,0,12.324
1190,38.08,-5.8584,-9.2706,0.1892,0.0473,-0.0003,0.1749,flat,18.0,0,12.169
1200,38.40,-5.6909,-9.2444,0.1893,0.0479,0.0014,0.2667,flat,18.0,0,12.004
1210,38.72,-5.5119,-9.1928,0.1870,0.0348,0.0000,0.3003,flat,18.0,0,11.819
1220,39.04,-5.3175,-9.1317,0.1854,0.0233,-0.0047,0.3281,flat,18.0,0,11.617
1230,39.36,-5.1166,-9.0577,0.1846,0.0014,0.0059,0.3564,flat,18.0,0,11.403
1240,39.68,-4.9178,-8.9757,0.1838,-0.0019,0.0038,0.3842,flat,18.0,0,11.188
1250,40.00,-4.7002,-8.8798,0.1818,-0.0075,0.0054,0.4137,flat,18.0,0,10.950
1260,40.32,-4.4572,-8.7719,0.1808,-0.0052,0.0013,0.4624,flat,18.0,0,10.684
1270,40.64,-4.1948,-8.6422,0.1800,-0.0010,0.0010,0.5036,flat,18.0,0,10.392
1280,40.96,-3.9121,-8.4810,0.1806,-0.0012,-0.0042,0.5324,flat,18.0,0,10.069
1290,41.28,-3.6000,-8.2905,0.1830,-0.0076,-0.0121,0.5517,flat,18.0,0,9.707
1300,41.60,-3.2562,-8.0716,0.1907,-0.0140,-0.0417,0.5673,flat,18.0,0,9.305
1310,41.92,-2.8622,-7.8072,0.1949,-0.0531,-0.0058,0.5763,flat,18.0,0,8.841
1320,42.24,-2.4110,-7.5136,0.1895,-0.0418,0.0152,0.5810,flat,18.0,0,8.313
1330,42.56,-1.9531,-7.2070,0.1826,-0.0114,0.0050,0.6055,flat,18.0,0,7.777
1340,42.88,-1.5323,-6.9035,0.1905,-0.0303,-0.0332,0.6181,flat,18.0,0,7.278
1350,43.20,-1.0886,-6.5824,0.2096,-0.0495,-0.0268,0.5987,flat,18.0,0,6.756
1360,43.52,-0.6259,-6.2766,0.2082,-0.0400,0.0312,0.5339,slope,18.0,0,6.223
1370,43.84,-0.1696,-6.0300,0.1936,-0.0499,0.0305,0.4123,flat,18.0,0,5.717
1380,44.16,0.3204,-5.8495,0.1838,0.0027,-0.0015,0.2631,flat,18.0,0,5.197
1390,44.48,0.8538,-5.7347,0.1945,0.0440,-0.0230,0.1793,flat,18.0,0,4.652
1400,44.80,1.4215,-5.6430,0.1976,0.0577,0.0180,0.1671,slope,18.0,0,4.081
1410,45.12,1.9831,-5.5391,0.1885,0.0351,0.0269,0.1818,flat,18.0,0,3.513
1420,45.44,2.5459,-5.4280,0.1766,0.0001,0.0216,0.1867,flat,18.0,0,2.942
1430,45.76,3.1011,-5.3188,0.1797,0.0001,0.0013,0.2073,flat,18.0,0,2.381
1440,46.08,3.6368,-5.2026,0.1798,0.0001,0.0002,0.2264,flat,18.0,0,1.839
1450,46.40,4.0989,-5.0936,0.1799,0.0000,0.0001,0.2375,flat,18.0,0,1.371
1460,46.72,4.4876,-4.9944,0.1859,0.0009,-0.0410,0.2620,flat,18.0,1,0.979
1470,47.04,4.8871,-4.8442,0.1994,-0.0835,-0.0223,0.4021,slope,18.0,1,12.945
1480,47.36,5.2416,-4.6412,0.2166,-0.1349,-0.0603,0.6754,slope,18.0,1,12.864
1490,47.68,5.5046,-4.3310,0.2337,-0.1852,-0.0302,1.0281,slope,18.0,1,12.662
1500,48.00,5.6519,-3.9400,0.2405,-0.1919,0.0007,1.3598,slope,18.0,1,12.352
1510,48.32,5.6315,-3.4806,0.2135,-0.0898,0.0963,1.7326,slope,18.0,1,11.919
1520,48.64,5.5097,-3.0399,0.1811,-0.0129,0.0214,1.9829,transition,15.0,1,11.466
1530,48.96,5.3139,-2.5717,0.1798,-0.0002,-0.0005,1.9701,flat,18.0,1,10.958
1540,49.28,5.0882,-2.0511,0.1799,0.0001,-0.0000,1.9931,flat,18.0,1,10.391
1550,49.60,4.8519,-1.5276,0.1799,0.0000,-0.0000,1.9944,flat,18.0,1,9.817
1560,49.92,4.6182,-1.0052,0.1799,-0.0000,0.0000,1.9837,flat,18.0,1,9.245
1570,50.24,4.3917,-0.4815,0.1799,-0.0001,0.0000,1.9677,flat,18.0,1,8.674
1580,50.56,4.1738,0.0459,0.1799,-0.0001,-0.0000,1.9517,flat,18.0,1,8.103
1590,50.88,3.9634,0.5775,0.1799,-0.0000,-0.0000,1.9389,flat,18.0,1,7.532
1600,51.20,3.7587,1.1129,0.1799,-0.0000,-0.0000,1.9306,flat,18.0,1,6.959
1610,51.52,3.5571,1.6511,0.1799,-0.0000,-0.0000,1.9266,flat,18.0,1,6.385
1620,51.84,3.3568,2.1908,0.1799,-0.0000,-0.0000,1.9260,flat,18.0,1,5.810
1630,52.16,3.1565,2.7303,0.1799,0.0000,0.0000,1.9272,flat,18.0,1,5.236
1640,52.48,2.9555,3.2691,0.1799,0.0000,0.0000,1.9294,flat,18.0,1,4.662
1650,52.80,2.7623,3.7694,0.1799,0.0001,0.0002,1.9614,transition,15.0,1,4.127
1660,53.12,2.5937,4.1714,0.1799,0.0001,0.0001,2.0164,rough,14.0,1,3.691
1670,53.44,2.4164,4.5215,0.1799,0.0001,-0.0000,2.1106,rough,14.0,1,3.299
1680,53.76,2.2569,4.7421,0.2178,-0.0595,-0.1873,2.1771,rough,14.0,1,3.032
1690,54.08,2.0697,4.9384,0.2489,-0.2210,-0.2090,2.2256,rough,14.0,1,2.778
1700,54.40,1.8941,5.1322,0.3074,-0.2509,-0.2900,2.2314,rough,14.0,1,2.534
1710,54.72,1.7060,5.3600,0.3839,-0.2428,-0.3315,2.1064,rough,14.0,1,2.257
1720,55.04,1.5289,5.5999,0.4704,-0.2523,-0.3166,2.0056,rough,14.0,1,1.977
1730,55.36,1.4074,5.8360,0.5631,-0.2766,-0.4694,1.9570,slope,18.0,1,1.718
1740,55.68,1.2559,6.1547,0.7092,-0.3122,-0.4411,1.9454,slope,18.0,1,1.376
1750,56.00,1.1164,6.4140,0.8498,-0.4050,-0.5106,2.0819,slope,18.0,1,1.100
1760,56.32,0.9715,6.6453,0.9837,-0.3910,-0.4989,2.0911,slope,18.0,2,14.568
1770,56.64,0.8924,6.7535,1.0503,-0.3305,-0.5583,1.9520,slope,18.0,2,14.606
1780,56.96,0.8749,6.7184,1.0246,-0.2062,-0.5943,1.7449,slope,18.0,2,14.568
1790,57.28,0.8718,6.6340,0.9648,-0.1266,-0.5927,1.6279,slope,18.0,2,14.499
1800,57.60,0.8708,6.5436,0.9050,-0.1005,-0.5935,1.5897,slope,18.0,2,14.426
1810,57.92,0.8720,6.4503,0.8446,-0.0850,-0.6073,1.5791,slope,18.0,2,14.353
1820,58.24,0.8734,6.3533,0.7795,-0.0736,-0.6074,1.5762,slope,18.0,2,14.277
1830,58.56,0.8728,6.2956,0.7447,-0.0807,-0.5700,1.5769,slope,18.0,2,14.231
1840,58.88,0.8706,6.3584,0.7767,-0.1092,-0.6048,1.5913,slope,18.0,2,14.279
1850,59.20,0.8729,6.3838,0.7997,-0.0823,-0.6084,1.5836,slope,18.0,2,14.301
1860,59.52,0.8722,6.3958,0.8081,-0.0792,-0.6085,1.5784,slope,18.0,2,14.310
1870,59.84,0.8724,6.3682,0.7896,-0.0746,-0.6083,1.5752,slope,18.0,2,14.288
1880,60.16,0.8720,6.3056,0.7500,-0.0827,-0.5749,1.5774,slope,18.0,2,14.238
1890,60.48,0.8732,6.3643,0.7870,-0.0758,-0.6101,1.5804,slope,18.0,2,14.285
1900,60.80,0.8712,6.4251,0.8278,-0.0822,-0.6086,1.5793,slope,18.0,2,14.332
1910,61.12,0.8701,6.4049,0.8141,-0.0892,-0.6068,1.5949,slope,18.0,2,14.316
1920,61.44,0.8663,6.3114,0.7544,-0.1178,-0.5806,1.6598,slope,18.0,2,14.240
1930,61.76,0.8349,6.3749,0.7881,-0.1951,-0.5598,1.8002,slope,18.0,2,14.270
1940,62.08,0.7645,6.5363,0.8895,-0.1922,-0.5454,1.7873,slope,18.0,2,14.356
1950,62.40,0.6907,6.7066,0.9979,-0.2631,-0.5314,1.9506,slope,18.0,2,14.448
1960,62.72,0.5145,6.9659,1.1540,-0.3659,-0.5112,2.1235,slope,18.0,2,14.555
1970,63.04,0.2372,7.3262,1.3307,-0.3909,-0.3715,2.1325,slope,18.0,2,14.695
1980,63.36,-0.0665,7.7424,1.4770,-0.3903,-0.2295,2.1795,slope,18.0,2,14.882
1990,63.68,-0.3461,8.1263,1.5695,-0.3818,-0.1872,2.2118,slope,18.0,2,15.068
2000,64.00,-0.6015,8.4488,1.6194,-0.3297,-0.1092,2.2767,slope,18.0,2,15.224
2010,64.32,-0.8467,8.6902,1.6458,-0.3148,-0.0756,2.3987,slope,18.0,2,15.322
2020,64.64,-1.0741,8.8632,1.6467,-0.3088,0.0021,2.5248,slope,18.0,2,15.373
2030,64.96,-1.3059,8.9905,1.6403,-0.3099,0.0438,2.6396,slope,18.0,2,15.387
2040,65.28,-1.5376,9.0938,1.6128,-0.2670,0.1146,2.7431,slope,18.0,2,15.383
2050,65.60,-1.7663,9.1784,1.5761,-0.1949,0.1793,2.8110,slope,18.0,2,15.367
2060,65.92,-1.9774,9.2325,1.5340,-0.1796,0.1871,2.8819,slope,18.0,2,15.334
2070,66.24,-2.1785,9.2671,1.4940,-0.1494,0.2053,2.9698,slope,18.0,2,15.290
2080,66.56,-2.3599,9.2653,1.4562,-0.1183,0.2017,3.1203,slope,18.0,2,15.221
2090,66.88,-2.5274,9.2211,1.4132,-0.0698,0.1811,-2.9457,slope,18.0,2,15.120
2100,67.20,-2.7137,9.1509,1.3749,-0.0388,0.2045,-2.7993,slope,18.0,2,14.989
2110,67.52,-2.9243,9.0750,1.3311,-0.0450,0.2112,-2.7342,slope,18.0,2,14.846
2120,67.84,-3.1387,8.9765,1.2791,-0.0489,0.2373,-2.6606,slope,18.0,2,14.682
2130,68.16,-3.3666,8.8520,1.2147,-0.0506,0.2613,-2.5859,slope,18.0,2,14.492
2140,68.48,-3.6110,8.6917,1.1333,-0.0530,0.3056,-2.5106,slope,18.0,2,14.264
2150,68.80,-3.8624,8.4986,1.0322,-0.0369,0.3175,-2.4450,slope,18.0,2,14.006
2160,69.12,-4.1323,8.2598,0.9198,0.0062,0.3129,-2.3950,slope,18.0,2,13.701
2170,69.44,-4.4232,7.9727,0.8082,-0.0141,0.2556,-2.3569,slope,18.0,2,13.346
2180,69.76,-4.7669,7.6313,0.7003,0.0285,0.2155,-2.3385,slope,18.0,2,12.930
2190,70.08,-5.1531,7.2225,0.5710,0.0211,0.2610,-2.3154,slope,18.0,2,12.443
2200,70.40,-5.5257,6.8130,0.4101,0.0510,0.3081,-2.2865,slope,18.0,2,11.964
2210,70.72,-5.8262,6.4445,0.2734,0.0550,0.2612,-2.0872,slope,18.0,2,11.546
2220,71.04,-6.0174,6.0506,0.2016,0.0673,0.0430,-1.8059,slope,18.0,2,11.124
2230,71.36,-6.0950,5.5771,0.1935,0.0064,-0.0581,-1.6177,slope,18.0,2,10.645
2240,71.68,-6.1284,5.0486,0.2234,-0.0002,-0.0471,-1.7402,flat,18.0,2,10.118
2250,72.00,-6.2359,4.4792,0.2187,-0.0109,0.0535,-1.7818,slope,18.0,2,9.539
2260,72.32,-6.3473,3.9207,0.1882,-0.0057,0.0697,-1.7555,slope,18.0,2,8.970
2270,72.64,-6.4442,3.3773,0.1796,0.0011,-0.0003,-1.7229,flat,18.0,2,8.417
2280,72.96,-6.5241,2.8162,0.1804,0.0023,-0.0012,-1.6859,flat,18.0,2,7.851
2290,73.28,-6.5900,2.2522,0.1889,0.0143,-0.0350,-1.6807,flat,18.0,2,7.284
2300,73.60,-6.6676,1.6845,0.2081,0.0583,-0.0020,-1.7015,slope,18.0,2,6.712
2310,73.92,-6.7613,1.1251,0.2021,0.0636,0.0260,-1.7463,flat,18.0,2,6.145
2320,74.24,-6.8384,0.5794,0.1823,-0.0083,-0.0078,-1.6877,flat,18.0,2,5.594
2330,74.56,-6.8922,0.0315,0.1867,-0.0277,-0.0108,-1.6345,flat,18.0,2,5.046
2340,74.88,-6.9208,-0.5104,0.1854,-0.0127,0.0209,-1.5982,flat,18.0,2,4.510
2350,75.20,-6.9303,-1.0037,0.1852,0.0026,-0.0048,-1.5040,flat,18.0,2,4.028
2360,75.52,-6.9006,-1.4476,0.1928,0.0380,-0.0204,-1.4269,flat,18.0,2,3.606
2370,75.84,-6.8433,-1.8549,0.2026,0.0487,-0.0090,-1.4288,flat,18.0,2,3.235
2380,76.16,-6.7875,-2.2685,0.1999,0.0473,0.0162,-1.4315,flat,18.0,2,2.868
2390,76.48,-6.7165,-2.7230,0.1851,0.0069,0.0683,-1.4511,flat,18.0,2,2.488
2400,76.80,-6.6700,-3.1751,0.1807,-0.0033,-0.0008,-1.5214,flat,18.0,2,2.127
2410,77.12,-6.6483,-3.6319,0.1800,-0.0027,0.0007,-1.6626,flat,18.0,2,1.788
2420,77.44,-6.7072,-4.0427,0.1801,-0.0004,-0.0031,-1.8887,flat,18.0,2,1.473
2430,77.76,-6.8246,-4.3918,0.1856,0.0084,-0.0275,-2.0053,flat,18.0,2,1.190
2440,78.08,-7.0151,-4.7233,0.1880,0.0243,0.0062,-2.2195,flat,18.0,3,1.414
2450,78.40,-7.2355,-4.9606,0.1857,0.0125,0.0266,-2.4521,flat,18.0,3,1.186
2460,78.72,-7.4944,-5.1549,0.1811,0.0055,0.0017,-2.6322,flat,18.0,0,12.855
2470,79.04,-7.9226,-5.3702,0.1787,-0.0004,0.0082,-2.7128,flat,18.0,0,13.294
2480,79.36,-8.3352,-5.5426,0.1797,-0.0001,0.0010,-2.7660,flat,18.0,0,13.718
2490,79.68,-8.6728,-5.6700,0.1799,0.0004,-0.0002,-2.9081,flat,18.0,0,14.065
2500,80.00,-8.9508,-5.7417,0.1830,-0.0070,-0.0095,3.1373,flat,18.0,0,14.348
2510,80.32,-9.1656,-5.7597,0.1895,-0.0274,-0.0249,2.8788,flat,18.0,0,14.563
2520,80.64,-9.3234,-5.7355,0.1968,-0.0169,-0.0594,2.6558,flat,18.0,0,14.718
2530,80.96,-9.4457,-5.6934,0.1985,-0.0330,-0.0434,2.4680,flat,18.0,0,14.837
2540,81.28,-9.5307,-5.6473,0.2024,-0.0253,-0.0565,2.3053,flat,18.0,0,14.918
2550,81.60,-9.5839,-5.5909,0.2043,-0.0061,-0.0693,2.1453,slope,18.0,0,14.967
2560,81.92,-9.6021,-5.5138,0.2134,-0.0089,-0.0815,1.9634,slope,18.0,0,14.980
2570,82.24,-9.6018,-5.4282,0.2201,0.0044,-0.0857,1.7865,slope,18.0,0,14.974
2580,82.56,-9.6191,-5.3293,0.2212,0.0261,-0.0377,1.6070,flat,18.0,0,14.986
2590,82.88,-9.6105,-5.2357,0.2231,0.0425,-0.0059,1.4480,flat,18.0,0,14.972
2600,83.20,-9.5796,-5.1446,0.2235,0.0273,0.0118,1.3273,flat,18.0,0,14.937
2610,83.52,-9.5464,-5.0503,0.2223,0.0275,0.0198,1.2439,flat,18.0,0,14.901
2620,83.84,-9.5049,-4.9410,0.2190,0.0242,0.0290,1.1737,flat,18.0,0,14.856
2630,84.16,-9.4423,-4.8326,0.2148,0.0224,0.0382,1.0929,flat,18.0,0,14.790
2640,84.48,-9.3646,-4.7138,0.2088,0.0168,0.0420,1.0231,flat,18.0,0,14.711
2650,84.80,-9.2732,-4.5794,0.1993,-0.0131,0.0542,0.9653,slope,18.0,0,14.618
2660,85.12,-9.1672,-4.4359,0.1862,-0.0370,0.0420,0.9205,flat,18.0,0,14.512
2670,85.44,-9.0374,-4.2864,0.1859,-0.0017,0.0253,0.8897,flat,18.0,0,14.384
2680,85.76,-8.8991,-4.1171,0.1870,-0.0074,-0.0376,0.8629,flat,18.0,0,14.250
2690,86.08,-8.7296,-3.9142,0.1955,-0.0253,-0.0517,0.8357,flat,18.0,0,14.087
2700,86.40,-8.5224,-3.6840,0.2092,-0.0418,-0.0563,0.8116,slope,18.0,0,13.892
2710,86.72,-8.2649,-3.4241,0.2233,-0.0181,-0.0318,0.7904,slope,18.0,0,13.654
2720,87.04,-7.9558,-3.1073,0.2168,-0.0493,0.0391,0.7753,flat,18.0,0,13.375
2730,87.36,-7.5902,-2.7582,0.1971,-0.0294,0.0311,0.7676,flat,18.0,0,13.054
2740,87.68,-7.2090,-2.4034,0.1865,-0.0137,-0.0166,0.7283,flat,18.0,0,12.731
2750,88.00,-6.8675,-2.1128,0.1984,-0.0126,-0.0432,0.6237,flat,18.0,0,12.447
2760,88.32,-6.5116,-1.8598,0.2169,-0.0291,-0.0537,0.5617,slope,18.0,0,12.151
2770,88.64,-6.1068,-1.6261,0.2260,-0.0365,0.0283,0.4767,flat,18.0,0,11.812
2780,88.96,-5.6918,-1.4479,0.2094,-0.0380,0.0596,0.1648,flat,18.0,0,11.456
2790,89.28,-5.4988,-1.3063,0.1942,-0.0218,0.0149,-0.5420,slope,18.0,0,11.310
2800,89.60,-5.4994,-1.2953,0.2373,-0.0450,-0.2790,-0.5504,slope,18.0,0,11.314
2810,89.92,-5.4729,-1.3027,0.2869,-0.1983,-1.2780,-0.2976,slope,18.0,0,11.286
