step,time_s,x,y,z,roll,pitch,yaw,terrain,speed,target_idx,dist_to_target
10,0.32,0.9653,-0.7647,0.3572,-0.1806,-0.1442,0.3078,rough,14.0,0,5.769
20,0.64,1.2229,-0.6833,0.4213,-0.1303,-0.2695,0.2778,rough,14.0,0,5.631
30,0.96,1.5289,-0.5904,0.5095,-0.1153,-0.3134,0.1724,rough,14.0,0,5.478
40,1.28,1.8247,-0.5396,0.6178,-0.0874,-0.3973,0.0999,rough,14.0,0,5.314
50,1.60,2.1096,-0.5070,0.7392,-0.0786,-0.4067,0.0724,rough,14.0,0,5.155
60,1.92,2.3729,-0.4817,0.8614,-0.0855,-0.4527,0.0881,rough,14.0,0,5.014
70,2.24,2.6185,-0.4490,0.9801,-0.1029,-0.4500,0.1407,rough,14.0,0,4.900
80,2.56,2.8175,-0.3947,1.0767,-0.1477,-0.4495,0.2563,rough,14.0,0,4.838
90,2.88,3.0035,-0.3232,1.1680,-0.1672,-0.4429,0.3149,rough,14.0,0,4.806
100,3.20,3.1989,-0.2450,1.2624,-0.1531,-0.4395,0.3037,rough,14.0,0,4.784
110,3.52,3.4121,-0.1531,1.3628,-0.1116,-0.4323,0.2354,rough,14.0,0,4.776
120,3.84,3.6226,-0.0717,1.4618,-0.0880,-0.4369,0.1898,rough,14.0,0,4.770
130,4.16,3.8179,-0.0023,1.5501,-0.0862,-0.4127,0.1919,rough,14.0,0,4.769
140,4.48,3.9949,0.0557,1.6275,-0.0908,-0.4051,0.2142,rough,14.0,0,4.771
150,4.80,4.1706,0.1037,1.7016,-0.0834,-0.3897,0.1990,rough,14.0,0,4.771
160,5.12,4.3470,0.1610,1.7764,-0.0779,-0.3767,0.1890,rough,14.0,0,4.787
170,5.44,4.5395,0.2033,1.8525,-0.0387,-0.3769,0.1027,rough,14.0,0,4.792
180,5.76,4.7321,0.2287,1.9266,-0.0236,-0.3610,0.0578,rough,14.0,0,4.788
190,6.08,4.9217,0.2444,1.9945,-0.0417,-0.3499,0.0353,rough,14.0,0,4.783
200,6.40,5.1011,0.2467,2.0642,-0.0087,-0.3504,0.0141,rough,14.0,0,4.773
210,6.72,5.2700,0.2511,2.1245,-0.0105,-0.3403,0.0248,rough,14.0,0,4.772
220,7.04,5.4268,0.2611,2.1799,-0.0216,-0.3352,0.0516,rough,14.0,0,4.782
230,7.36,5.5858,0.2779,2.2345,-0.0200,-0.3310,0.0577,rough,14.0,0,4.804
240,7.68,5.7469,0.2952,2.2893,-0.0194,-0.3267,0.0576,rough,14.0,0,4.832
250,8.00,5.8870,0.3149,2.3367,-0.0363,-0.3209,0.1116,rough,14.0,0,4.866
260,8.32,6.0313,0.3378,2.3846,-0.0407,-0.3183,0.1312,rough,14.0,0,4.906
270,8.64,6.2022,0.3637,2.4411,-0.0181,-0.3185,0.0627,rough,14.0,0,4.959
280,8.96,6.3575,0.3826,2.4923,-0.0156,-0.3170,0.0552,rough,14.0,0,5.006
290,9.28,6.4928,0.4007,2.5366,-0.0293,-0.3152,0.1025,rough,14.0,0,5.053
300,9.60,6.6332,0.4204,2.5824,-0.0319,-0.3140,0.1142,rough,14.0,0,5.106
310,9.92,6.7968,0.4423,2.6359,-0.0109,-0.3148,0.0492,rough,14.0,0,5.171
320,10.24,6.9402,0.4584,2.6827,-0.0148,-0.3152,0.0625,rough,14.0,0,5.228
330,10.56,7.0638,0.4794,2.7230,-0.0335,-0.3135,0.1261,rough,14.0,0,5.287
340,10.88,7.2048,0.5027,2.7690,-0.0263,-0.3140,0.1049,rough,14.0,0,5.356
350,11.20,7.3630,0.5224,2.8207,-0.0057,-0.3156,0.0418,rough,14.0,0,5.432
360,11.52,7.5041,0.5337,2.8669,-0.0063,-0.3162,0.0440,rough,14.0,0,5.496
370,11.84,7.6246,0.5508,2.9064,-0.0237,-0.3155,0.1023,rough,14.0,0,5.560
380,12.16,7.8132,0.5715,2.9215,-0.0027,-0.0380,0.0309,rough,14.0,0,5.659
390,12.48,8.2023,0.5058,2.8057,0.0707,0.6462,-0.3376,rough,14.0,0,5.782
400,12.80,8.3458,0.2312,2.6916,0.8981,0.8312,-0.2703,rough,14.0,0,5.620
410,13.12,8.4371,-0.0314,2.5590,0.8512,0.7138,-0.6526,rough,14.0,0,5.451
420,13.44,8.5149,-0.2818,2.3850,0.4650,0.1954,-1.4039,rough,14.0,0,5.293
430,13.76,8.5468,-0.6563,2.2671,0.1934,0.2003,-1.5487,rough,14.0,0,5.018
440,14.08,8.6545,-1.0457,2.2475,-0.3030,0.1485,-1.6352,rough,14.0,0,4.799
450,14.40,8.7090,-1.3272,2.2220,-0.3930,-0.2303,-1.6521,rough,14.0,0,4.638
460,14.72,8.7222,-1.6753,2.3095,-0.4599,-0.3782,-1.6972,rough,14.0,0,4.416
470,15.04,8.7640,-1.9624,2.4127,-0.5615,-0.5504,-1.6031,rough,14.0,0,4.270
480,15.36,8.7923,-2.2628,2.5643,-0.6413,-0.6001,-1.5497,rough,14.0,0,4.121
490,15.68,8.8020,-2.5351,2.7518,-0.5806,-0.6318,-1.5380,rough,14.0,0,3.987
500,16.00,8.8335,-2.7732,2.9232,-0.6489,-0.7052,-1.4318,rough,14.0,0,3.902
510,16.32,8.8711,-2.9955,3.0774,-0.5552,-0.6390,-1.4157,rough,14.0,0,3.842
520,16.64,8.9173,-3.2052,3.2205,-0.5069,-0.6345,-1.4367,rough,14.0,0,3.807
530,16.96,9.0133,-3.3477,3.2814,-0.5635,-0.6030,-1.2986,rough,14.0,0,3.851
540,17.28,9.1292,-3.4554,3.3121,-0.4606,-0.6715,-1.4293,rough,14.0,0,3.931
550,17.60,9.2261,-3.4994,3.2933,-0.5055,-0.6406,-1.3895,rough,14.0,0,4.013
560,17.92,9.2710,-3.4961,3.2662,-0.4286,-0.6776,-1.4801,rough,14.0,0,4.058
570,18.24,9.2900,-3.4786,3.2513,-0.3992,-0.6924,-1.5072,rough,14.0,0,4.081
580,18.56,9.3003,-3.4526,3.2280,-0.3730,-0.7016,-1.5256,rough,14.0,0,4.097
590,18.88,9.3064,-3.4193,3.1995,-0.3553,-0.7092,-1.5364,rough,14.0,0,4.112
600,19.20,9.3234,-3.3848,3.1609,-0.3540,-0.6778,-1.5106,rough,14.0,0,4.138
610,19.52,9.3438,-3.3578,3.1328,-0.3403,-0.6754,-1.4995,rough,14.0,0,4.165
620,19.84,9.3682,-3.3450,3.1174,-0.3148,-0.6859,-1.5018,rough,14.0,0,4.192
630,20.16,9.3810,-3.3483,3.1186,-0.2881,-0.6996,-1.5227,rough,14.0,0,4.203
640,20.48,9.3885,-3.3452,3.1144,-0.2694,-0.7050,-1.5380,rough,14.0,0,4.211
650,20.80,9.3929,-3.3359,3.1056,-0.2572,-0.7089,-1.5473,rough,14.0,0,4.218
660,21.12,9.3956,-3.3213,3.0930,-0.2498,-0.7112,-1.5529,rough,14.0,0,4.225
670,21.44,9.3977,-3.3122,3.0851,-0.2468,-0.7098,-1.5573,rough,14.0,0,4.229
680,21.76,9.3987,-3.3126,3.0851,-0.2441,-0.7104,-1.5593,rough,14.0,0,4.230
690,22.08,9.3990,-3.3225,3.0932,-0.2411,-0.7134,-1.5598,rough,14.0,0,4.228
700,22.40,9.3996,-3.3343,3.1027,-0.2407,-0.7125,-1.5610,rough,14.0,0,4.225
710,22.72,9.4000,-3.3411,3.1081,-0.2405,-0.7117,-1.5618,rough,14.0,0,4.223
720,23.04,9.4002,-3.3429,3.1095,-0.2402,-0.7116,-1.5621,rough,14.0,0,4.223
730,23.36,9.4003,-3.3396,3.1068,-0.2398,-0.7120,-1.5622,rough,14.0,0,4.224
740,23.68,9.4002,-3.3314,3.1001,-0.2390,-0.7131,-1.5619,rough,14.0,0,4.226
750,24.00,9.4004,-3.3206,3.0912,-0.2389,-0.7131,-1.5620,rough,14.0,0,4.229
760,24.32,9.4005,-3.3183,3.0893,-0.2390,-0.7126,-1.5621,rough,14.0,0,4.230
770,24.64,9.4005,-3.3249,3.0947,-0.2384,-0.7137,-1.5618,rough,14.0,0,4.228
780,24.96,9.4006,-3.3299,3.0987,-0.2384,-0.7133,-1.5620,rough,14.0,0,4.227
790,25.28,9.4007,-3.3299,3.0987,-0.2383,-0.7133,-1.5620,rough,14.0,0,4.227
800,25.60,9.4006,-3.3250,3.0948,-0.2379,-0.7140,-1.5619,rough,14.0,0,4.228
810,25.92,9.4007,-3.3231,3.0932,-0.2380,-0.7138,-1.5619,rough,14.0,0,4.229
820,26.24,9.4008,-3.3244,3.0942,-0.2379,-0.7138,-1.5618,rough,14.0,0,4.229
830,26.56,9.4009,-3.3244,3.0942,-0.2378,-0.7138,-1.5618,rough,14.0,0,4.229
840,26.88,9.4010,-3.3243,3.0941,-0.2377,-0.7138,-1.5618,rough,14.0,0,4.229
850,27.20,9.4010,-3.3243,3.0940,-0.2376,-0.7138,-1.5619,rough,14.0,0,4.229
860,27.52,9.4011,-3.3243,3.0940,-0.2375,-0.7138,-1.5619,rough,14.0,0,4.229
870,27.84,9.4012,-3.3243,3.0940,-0.2375,-0.7138,-1.5619,rough,14.0,0,4.229
880,28.16,9.4013,-3.3243,3.0939,-0.2374,-0.7137,-1.5619,rough,14.0,0,4.229
890,28.48,9.4014,-3.3243,3.0939,-0.2373,-0.7137,-1.5619,rough,14.0,0,4.229
900,28.80,9.4015,-3.3242,3.0939,-0.2372,-0.7137,-1.5619,rough,14.0,0,4.229
910,29.12,9.4015,-3.3242,3.0938,-0.2371,-0.7137,-1.5619,rough,14.0,0,4.230
920,29.44,9.4016,-3.3242,3.0938,-0.2371,-0.7137,-1.5619,rough,14.0,0,4.230
930,29.76,9.4017,-3.3242,3.0938,-0.2370,-0.7137,-1.5619,rough,14.0,0,4.230
940,30.08,9.4018,-3.3242,3.0937,-0.2369,-0.7137,-1.5619,rough,14.0,0,4.230
950,30.40,9.4019,-3.3242,3.0937,-0.2368,-0.7137,-1.5619,rough,14.0,0,4.230
960,30.72,9.4019,-3.3242,3.0937,-0.2367,-0.7136,-1.5619,rough,14.0,0,4.230
970,31.04,9.4020,-3.3242,3.0936,-0.2366,-0.7136,-1.5619,rough,14.0,0,4.230
980,31.36,9.4021,-3.3242,3.0936,-0.2366,-0.7136,-1.5619,rough,14.0,0,4.230
990,31.68,9.4022,-3.3242,3.0936,-0.2365,-0.7136,-1.5619,rough,14.0,0,4.230
1000,32.00,9.4023,-3.3242,3.0935,-0.2364,-0.7136,-1.5620,rough,14.0,0,4.230
1010,32.32,9.4023,-3.3241,3.0935,-0.2363,-0.7136,-1.5620,rough,14.0,0,4.230
1020,32.64,9.4024,-3.3241,3.0935,-0.2362,-0.7136,-1.5620,rough,14.0,0,4.230
1030,32.96,9.4025,-3.3241,3.0934,-0.2362,-0.7136,-1.5620,rough,14.0,0,4.230
1040,33.28,9.4026,-3.3241,3.0934,-0.2361,-0.7136,-1.5620,rough,14.0,0,4.231
1050,33.60,9.4027,-3.3241,3.0934,-0.2360,-0.7135,-1.5620,rough,14.0,0,4.231
1060,33.92,9.4028,-3.3241,3.0933,-0.2359,-0.7135,-1.5620,rough,14.0,0,4.231
1070,34.24,9.4028,-3.3241,3.0933,-0.2358,-0.7135,-1.5620,rough,14.0,0,4.231
1080,34.56,9.4029,-3.3241,3.0933,-0.2358,-0.7135,-1.5620,rough,14.0,0,4.231
1090,34.88,9.4030,-3.3241,3.0932,-0.2357,-0.7135,-1.5620,rough,14.0,0,4.231
1100,35.20,9.4031,-3.3241,3.0932,-0.2356,-0.7135,-1.5620,rough,14.0,0,4.231
1110,35.52,9.4032,-3.3240,3.0932,-0.2355,-0.7135,-1.5620,rough,14.0,0,4.231
1120,35.84,9.4032,-3.3240,3.0931,-0.2354,-0.7135,-1.5620,rough,14.0,0,4.231
1130,36.16,9.4033,-3.3240,3.0931,-0.2353,-0.7135,-1.5620,rough,14.0,0,4.231
1140,36.48,9.4034,-3.3240,3.0931,-0.2353,-0.7134,-1.5620,rough,14.0,0,4.231
1150,36.80,9.4035,-3.3240,3.0930,-0.2352,-0.7134,-1.5620,rough,14.0,0,4.231
1160,37.12,9.4036,-3.3240,3.0930,-0.2351,-0.7134,-1.5621,rough,14.0,0,4.232
1170,37.44,9.4036,-3.3240,3.0930,-0.2350,-0.7134,-1.5621,rough,14.0,0,4.232
1180,37.76,9.4037,-3.3240,3.0929,-0.2349,-0.7134,-1.5621,rough,14.0,0,4.232
1190,38.08,9.4038,-3.3240,3.0929,-0.2349,-0.7134,-1.5621,rough,14.0,0,4.232
1200,38.40,9.4039,-3.3240,3.0929,-0.2348,-0.7134,-1.5621,rough,14.0,0,4.232
1210,38.72,9.4040,-3.3239,3.0928,-0.2347,-0.7134,-1.5621,rough,14.0,0,4.232
1220,39.04,9.4041,-3.3239,3.0928,-0.2346,-0.7133,-1.5621,rough,14.0,0,4.232
1230,39.36,9.4041,-3.3239,3.0928,-0.2345,-0.7133,-1.5621,rough,14.0,0,4.232
1240,39.68,9.4042,-3.3239,3.0927,-0.2345,-0.7133,-1.5621,rough,14.0,0,4.232
1250,40.00,9.4043,-3.3239,3.0927,-0.2344,-0.7133,-1.5621,rough,14.0,0,4.232
1260,40.32,9.4044,-3.3239,3.0927,-0.2343,-0.7133,-1.5621,rough,14.0,0,4.232
1270,40.64,9.4045,-3.3239,3.0926,-0.2342,-0.7133,-1.5621,rough,14.0,0,4.232
1280,40.96,9.4045,-3.3239,3.0926,-0.2341,-0.7133,-1.5621,rough,14.0,0,4.232
1290,41.28,9.4046,-3.3239,3.0926,-0.2340,-0.7133,-1.5621,rough,14.0,0,4.233
1300,41.60,9.4047,-3.3239,3.0925,-0.2340,-0.7133,-1.5621,rough,14.0,0,4.233
1310,41.92,9.4048,-3.3239,3.0925,-0.2339,-0.7132,-1.5622,rough,14.0,0,4.233
1320,42.24,9.4049,-3.3238,3.0925,-0.2338,-0.7132,-1.5622,rough,14.0,0,4.233
1330,42.56,9.4049,-3.3238,3.0924,-0.2337,-0.7132,-1.5622,rough,14.0,0,4.233
1340,42.88,9.4050,-3.3238,3.0924,-0.2336,-0.7132,-1.5622,rough,14.0,0,4.233
1350,43.20,9.4051,-3.3238,3.0924,-0.2336,-0.7132,-1.5622,rough,14.0,0,4.233
1360,43.52,9.4052,-3.3238,3.0923,-0.2335,-0.7132,-1.5622,rough,14.0,0,4.233
1370,43.84,9.4053,-3.3238,3.0923,-0.2334,-0.7132,-1.5622,rough,14.0,0,4.233
1380,44.16,9.4054,-3.3238,3.0923,-0.2333,-0.7132,-1.5622,rough,14.0,0,4.233
1390,44.48,9.4054,-3.3238,3.0922,-0.2332,-0.7131,-1.5622,rough,14.0,0,4.233
1400,44.80,9.4055,-3.3238,3.0922,-0.2331,-0.7131,-1.5622,rough,14.0,0,4.233
1410,45.12,9.4056,-3.3238,3.0922,-0.2331,-0.7131,-1.5622,rough,14.0,0,4.234
1420,45.44,9.4057,-3.3237,3.0921,-0.2330,-0.7131,-1.5622,rough,14.0,0,4.234
1430,45.76,9.4058,-3.3237,3.0921,-0.2329,-0.7131,-1.5622,rough,14.0,0,4.234
1440,46.08,9.4058,-3.3237,3.0921,-0.2328,-0.7131,-1.5622,rough,14.0,0,4.234
1450,46.40,9.4059,-3.3237,3.0920,-0.2327,-0.7131,-1.5622,rough,14.0,0,4.234
1460,46.72,9.4060,-3.3237,3.0920,-0.2327,-0.7131,-1.5623,rough,14.0,0,4.234
1470,47.04,9.4061,-3.3237,3.0920,-0.2326,-0.7131,-1.5623,rough,14.0,0,4.234
1480,47.36,9.4062,-3.3237,3.0919,-0.2325,-0.7130,-1.5623,rough,14.0,0,4.234
1490,47.68,9.4063,-3.3237,3.0919,-0.2324,-0.7130,-1.5623,rough,14.0,0,4.234
1500,48.00,9.4063,-3.3237,3.0919,-0.2323,-0.7130,-1.5623,rough,14.0,0,4.234
1510,48.32,9.4064,-3.3237,3.0918,-0.2323,-0.7130,-1.5623,rough,14.0,0,4.234
1520,48.64,9.4065,-3.3236,3.0918,-0.2322,-0.7130,-1.5623,rough,14.0,0,4.234
1530,48.96,9.4066,-3.3236,3.0918,-0.2321,-0.7130,-1.5623,rough,14.0,0,4.235
1540,49.28,9.4067,-3.3236,3.0917,-0.2320,-0.7130,-1.5623,rough,14.0,0,4.235
1550,49.60,9.4067,-3.3236,3.0917,-0.2319,-0.7130,-1.5623,rough,14.0,0,4.235
1560,49.92,9.4068,-3.3236,3.0917,-0.2318,-0.7130,-1.5623,rough,14.0,0,4.235
1570,50.24,9.4069,-3.3236,3.0916,-0.2318,-0.7129,-1.5623,rough,14.0,0,4.235
1580,50.56,9.4070,-3.3236,3.0916,-0.2317,-0.7129,-1.5623,rough,14.0,0,4.235
1590,50.88,9.4071,-3.3236,3.0916,-0.2316,-0.7129,-1.5623,rough,14.0,0,4.235
1600,51.20,9.4072,-3.3236,3.0915,-0.2315,-0.7129,-1.5623,rough,14.0,0,4.235
1610,51.52,9.4072,-3.3236,3.0915,-0.2314,-0.7129,-1.5623,rough,14.0,0,4.235
1620,51.84,9.4073,-3.3236,3.0915,-0.2314,-0.7129,-1.5624,rough,14.0,0,4.235
1630,52.16,9.4074,-3.3235,3.0914,-0.2313,-0.7129,-1.5624,rough,14.0,0,4.235
1640,52.48,9.4075,-3.3235,3.0914,-0.2312,-0.7129,-1.5624,rough,14.0,0,4.235
1650,52.80,9.4076,-3.3235,3.0914,-0.2311,-0.7128,-1.5624,rough,14.0,0,4.235
1660,53.12,9.4076,-3.3235,3.0913,-0.2310,-0.7128,-1.5624,rough,14.0,0,4.236
1670,53.44,9.4077,-3.3235,3.0913,-0.2309,-0.7128,-1.5624,rough,14.0,0,4.236
1680,53.76,9.4078,-3.3235,3.0913,-0.2309,-0.7128,-1.5624,rough,14.0,0,4.236
1690,54.08,9.4079,-3.3235,3.0912,-0.2308,-0.7128,-1.5624,rough,14.0,0,4.236
1700,54.40,9.4080,-3.3235,3.0912,-0.2307,-0.7128,-1.5624,rough,14.0,0,4.236
1710,54.72,9.4081,-3.3235,3.0912,-0.2306,-0.7128,-1.5624,rough,14.0,0,4.236
1720,55.04,9.4081,-3.3235,3.0911,-0.2305,-0.7128,-1.5624,rough,14.0,0,4.236
1730,55.36,9.4082,-3.3234,3.0911,-0.2305,-0.7128,-1.5624,rough,14.0,0,4.236
1740,55.68,9.4083,-3.3234,3.0911,-0.2304,-0.7127,-1.5624,rough,14.0,0,4.236
1750,56.00,9.4084,-3.3234,3.0910,-0.2303,-0.7127,-1.5624,rough,14.0,0,4.236
1760,56.32,9.4085,-3.3234,3.0910,-0.2302,-0.7127,-1.5624,rough,14.0,0,4.236
1770,56.64,9.4085,-3.3234,3.0910,-0.2301,-0.7127,-1.5625,rough,14.0,0,4.236
1780,56.96,9.4086,-3.3234,3.0909,-0.2300,-0.7127,-1.5625,rough,14.0,0,4.237
1790,57.28,9.4087,-3.3234,3.0909,-0.2300,-0.7127,-1.5625,rough,14.0,0,4.237
1800,57.60,9.4088,-3.3234,3.0908,-0.2299,-0.7127,-1.5625,rough,14.0,0,4.237
1810,57.92,9.4089,-3.3234,3.0908,-0.2298,-0.7127,-1.5625,rough,14.0,0,4.237
1820,58.24,9.4090,-3.3234,3.0908,-0.2297,-0.7126,-1.5625,rough,14.0,0,4.237
1830,58.56,9.4090,-3.3233,3.0907,-0.2296,-0.7126,-1.5625,rough,14.0,0,4.237
1840,58.88,9.4091,-3.3233,3.0907,-0.2295,-0.7126,-1.5625,rough,14.0,0,4.237
1850,59.20,9.4092,-3.3233,3.0907,-0.2295,-0.7126,-1.5625,rough,14.0,0,4.237
1860,59.52,9.4093,-3.3233,3.0906,-0.2294,-0.7126,-1.5625,rough,14.0,0,4.237
1870,59.84,9.4094,-3.3233,3.0906,-0.2293,-0.7126,-1.5625,rough,14.0,0,4.237
1880,60.16,9.4095,-3.3233,3.0906,-0.2292,-0.7126,-1.5625,rough,14.0,0,4.237
1890,60.48,9.4095,-3.3233,3.0905,-0.2291,-0.7126,-1.5625,rough,14.0,0,4.237
1900,60.80,9.4096,-3.3233,3.0905,-0.2291,-0.7126,-1.5625,rough,14.0,0,4.238
1910,61.12,9.4097,-3.3233,3.0905,-0.2290,-0.7125,-1.5625,rough,14.0,0,4.238
1920,61.44,9.4098,-3.3233,3.0904,-0.2289,-0.7125,-1.5625,rough,14.0,0,4.238
1930,61.76,9.4099,-3.3233,3.0904,-0.2288,-0.7125,-1.5626,rough,14.0,0,4.238
1940,62.08,9.4099,-3.3232,3.0904,-0.2287,-0.7125,-1.5626,rough,14.0,0,4.238
1950,62.40,9.4100,-3.3232,3.0903,-0.2286,-0.7125,-1.5626,rough,14.0,0,4.238
1960,62.72,9.4101,-3.3232,3.0903,-0.2286,-0.7125,-1.5626,rough,14.0,0,4.238
1970,63.04,9.4102,-3.3232,3.0903,-0.2285,-0.7125,-1.5626,rough,14.0,0,4.238
1980,63.36,9.4103,-3.3232,3.0902,-0.2284,-0.7125,-1.5626,rough,14.0,0,4.238
1990,63.68,9.4104,-3.3232,3.0902,-0.2283,-0.7124,-1.5626,rough,14.0,0,4.238
2000,64.00,9.4104,-3.3232,3.0902,-0.2282,-0.7124,-1.5626,rough,14.0,0,4.238
2010,64.32,9.4105,-3.3232,3.0901,-0.2282,-0.7124,-1.5626,rough,14.0,0,4.238
2020,64.64,9.4106,-3.3232,3.0901,-0.2281,-0.7124,-1.5626,rough,14.0,0,4.239
2030,64.96,9.4107,-3.3232,3.0901,-0.2280,-0.7124,-1.5626,rough,14.0,0,4.239
2040,65.28,9.4108,-3.3231,3.0900,-0.2279,-0.7124,-1.5626,rough,14.0,0,4.239
2050,65.60,9.4109,-3.3231,3.0900,-0.2278,-0.7124,-1.5626,rough,14.0,0,4.239
2060,65.92,9.4109,-3.3231,3.0900,-0.2277,-0.7124,-1.5626,rough,14.0,0,4.239
2070,66.24,9.4110,-3.3231,3.0899,-0.2277,-0.7124,-1.5626,rough,14.0,0,4.239
2080,66.56,9.4111,-3.3231,3.0899,-0.2276,-0.7123,-1.5627,rough,14.0,0,4.239
2090,66.88,9.4112,-3.3231,3.0899,-0.2275,-0.7123,-1.5627,rough,14.0,0,4.239
2100,67.20,9.4113,-3.3231,3.0898,-0.2274,-0.7123,-1.5627,rough,14.0,0,4.239
2110,67.52,9.4113,-3.3231,3.0898,-0.2273,-0.7123,-1.5627,rough,14.0,0,4.239
2120,67.84,9.4114,-3.3231,3.0898,-0.2272,-0.7123,-1.5627,rough,14.0,0,4.239
2130,68.16,9.4115,-3.3231,3.0897,-0.2272,-0.7123,-1.5627,rough,14.0,0,4.239
2140,68.48,9.4116,-3.3230,3.0897,-0.2271,-0.7123,-1.5627,rough,14.0,0,4.239
2150,68.80,9.4117,-3.3230,3.0897,-0.2270,-0.7123,-1.5627,rough,14.0,0,4.240
2160,69.12,9.4118,-3.3230,3.0896,-0.2269,-0.7122,-1.5627,rough,14.0,0,4.240
2170,69.44,9.4118,-3.3230,3.0896,-0.2268,-0.7122,-1.5627,rough,14.0,0,4.240
2180,69.76,9.4119,-3.3230,3.0896,-0.2268,-0.7122,-1.5627,rough,14.0,0,4.240
2190,70.08,9.4120,-3.3230,3.0895,-0.2267,-0.7122,-1.5627,rough,14.0,0,4.240
2200,70.40,9.4121,-3.3230,3.0895,-0.2266,-0.7122,-1.5627,rough,14.0,0,4.240
2210,70.72,9.4122,-3.3230,3.0894,-0.2265,-0.7122,-1.5627,rough,14.0,0,4.240
2220,71.04,9.4123,-3.3230,3.0894,-0.2264,-0.7122,-1.5627,rough,14.0,0,4.240
2230,71.36,9.4123,-3.3230,3.0894,-0.2263,-0.7122,-1.5627,rough,14.0,0,4.240
2240,71.68,9.4124,-3.3229,3.0893,-0.2263,-0.7121,-1.5628,rough,14.0,0,4.240
2250,72.00,9.4125,-3.3229,3.0893,-0.2262,-0.7121,-1.5628,rough,14.0,0,4.240
2260,72.32,9.4126,-3.3229,3.0893,-0.2261,-0.7121,-1.5628,rough,14.0,0,4.240
2270,72.64,9.4127,-3.3229,3.0892,-0.2260,-0.7121,-1.5628,rough,14.0,0,4.241
2280,72.96,9.4128,-3.3229,3.0892,-0.2259,-0.7121,-1.5628,rough,14.0,0,4.241
2290,73.28,9.4128,-3.3229,3.0892,-0.2258,-0.7121,-1.5628,rough,14.0,0,4.241
2300,73.60,9.4129,-3.3229,3.0891,-0.2258,-0.7121,-1.5628,rough,14.0,0,4.241
2310,73.92,9.4130,-3.3229,3.0891,-0.2257,-0.7121,-1.5628,rough,14.0,0,4.241
2320,74.24,9.4131,-3.3229,3.0891,-0.2256,-0.7121,-1.5628,rough,14.0,0,4.241
2330,74.56,9.4132,-3.3229,3.0890,-0.2255,-0.7120,-1.5628,rough,14.0,0,4.241
2340,74.88,9.4132,-3.3229,3.0890,-0.2254,-0.7120,-1.5628,rough,14.0,0,4.241
2350,75.20,9.4133,-3.3228,3.0890,-0.2254,-0.7120,-1.5628,rough,14.0,0,4.241
2360,75.52,9.4134,-3.3228,3.0889,-0.2253,-0.7120,-1.5628,rough,14.0,0,4.241
2370,75.84,9.4135,-3.3228,3.0889,-0.2252,-0.7120,-1.5628,rough,14.0,0,4.241
2380,76.16,9.4136,-3.3228,3.0889,-0.2251,-0.7120,-1.5628,rough,14.0,0,4.241
2390,76.48,9.4137,-3.3228,3.0888,-0.2250,-0.7120,-1.5629,rough,14.0,0,4.242
2400,76.80,9.4137,-3.3228,3.0888,-0.2249,-0.7120,-1.5629,rough,14.0,0,4.242
2410,77.12,9.4138,-3.3228,3.0888,-0.2249,-0.7119,-1.5629,rough,14.0,0,4.242
2420,77.44,9.4139,-3.3228,3.0887,-0.2248,-0.7119,-1.5629,rough,14.0,0,4.242
2430,77.76,9.4140,-3.3228,3.0887,-0.2247,-0.7119,-1.5629,rough,14.0,0,4.242
2440,78.08,9.4141,-3.3228,3.0887,-0.2246,-0.7119,-1.5629,rough,14.0,0,4.242
2450,78.40,9.4142,-3.3227,3.0886,-0.2245,-0.7119,-1.5629,rough,14.0,0,4.242
2460,78.72,9.4142,-3.3227,3.0886,-0.2244,-0.7119,-1.5629,rough,14.0,0,4.242
2470,79.04,9.4143,-3.3227,3.0886,-0.2244,-0.7119,-1.5629,rough,14.0,0,4.242
2480,79.36,9.4144,-3.3227,3.0885,-0.2243,-0.7119,-1.5629,rough,14.0,0,4.242
2490,79.68,9.4145,-3.3227,3.0885,-0.2242,-0.7119,-1.5629,rough,14.0,0,4.242
2500,80.00,9.4146,-3.3227,3.0885,-0.2241,-0.7118,-1.5629,rough,14.0,0,4.242
2510,80.32,9.4147,-3.3227,3.0884,-0.2240,-0.7118,-1.5629,rough,14.0,0,4.243
2520,80.64,9.4147,-3.3227,3.0884,-0.2239,-0.7118,-1.5629,rough,14.0,0,4.243
2530,80.96,9.4148,-3.3227,3.0884,-0.2239,-0.7118,-1.5629,rough,14.0,0,4.243
2540,81.28,9.4149,-3.3227,3.0883,-0.2238,-0.7118,-1.5629,rough,14.0,0,4.243
2550,81.60,9.4150,-3.3226,3.0883,-0.2237,-0.7118,-1.5630,rough,14.0,0,4.243
2560,81.92,9.4151,-3.3226,3.0882,-0.2236,-0.7118,-1.5630,rough,14.0,0,4.243
2570,82.24,9.4152,-3.3226,3.0882,-0.2235,-0.7118,-1.5630,rough,14.0,0,4.243
2580,82.56,9.4152,-3.3226,3.0882,-0.2234,-0.7117,-1.5630,rough,14.0,0,4.243
2590,82.88,9.4153,-3.3226,3.0881,-0.2234,-0.7117,-1.5630,rough,14.0,0,4.243
2600,83.20,9.4154,-3.3226,3.0881,-0.2233,-0.7117,-1.5630,rough,14.0,0,4.243
2610,83.52,9.4155,-3.3226,3.0881,-0.2232,-0.7117,-1.5630,rough,14.0,0,4.243
2620,83.84,9.4156,-3.3226,3.0880,-0.2231,-0.7117,-1.5630,rough,14.0,0,4.243
2630,84.16,9.4157,-3.3226,3.0880,-0.2230,-0.7117,-1.5630,rough,14.0,0,4.244
2640,84.48,9.4157,-3.3226,3.0880,-0.2230,-0.7117,-1.5630,rough,14.0,0,4.244
2650,84.80,9.4158,-3.3225,3.0879,-0.2229,-0.7117,-1.5630,rough,14.0,0,4.244
2660,85.12,9.4159,-3.3225,3.0879,-0.2228,-0.7116,-1.5630,rough,14.0,0,4.244
2670,85.44,9.4160,-3.3225,3.0879,-0.2227,-0.7116,-1.5630,rough,14.0,0,4.244
2680,85.76,9.4161,-3.3225,3.0878,-0.2226,-0.7116,-1.5630,rough,14.0,0,4.244
2690,86.08,9.4162,-3.3225,3.0878,-0.2225,-0.7116,-1.5630,rough,14.0,0,4.244
2700,86.40,9.4162,-3.3225,3.0878,-0.2225,-0.7116,-1.5630,rough,14.0,0,4.244
2710,86.72,9.4163,-3.3225,3.0877,-0.2224,-0.7116,-1.5631,rough,14.0,0,4.244
2720,87.04,9.4164,-3.3225,3.0877,-0.2223,-0.7116,-1.5631,rough,14.0,0,4.244
2730,87.36,9.4165,-3.3225,3.0877,-0.2222,-0.7116,-1.5631,rough,14.0,0,4.244
2740,87.68,9.4166,-3.3225,3.0876,-0.2221,-0.7116,-1.5631,rough,14.0,0,4.244
2750,88.00,9.4167,-3.3225,3.0876,-0.2220,-0.7115,-1.5631,rough,14.0,0,4.245
2760,88.32,9.4167,-3.3224,3.0876,-0.2220,-0.7115,-1.5631,rough,14.0,0,4.245
2770,88.64,9.4168,-3.3224,3.0875,-0.2219,-0.7115,-1.5631,rough,14.0,0,4.245
2780,88.96,9.4169,-3.3224,3.0875,-0.2218,-0.7115,-1.5631,rough,14.0,0,4.245
2790,89.28,9.4170,-3.3224,3.0875,-0.2217,-0.7115,-1.5631,rough,14.0,0,4.245
2800,89.60,9.4171,-3.3224,3.0874,-0.2216,-0.7115,-1.5631,rough,14.0,0,4.245
2810,89.92,9.4172,-3.3224,3.0874,-0.2215,-0.7115,-1.5631,rough,14.0,0,4.245
2820,90.24,9.4172,-3.3224,3.0873,-0.2215,-0.7115,-1.5631,rough,14.0,0,4.245
2830,90.56,9.4173,-3.3224,3.0873,-0.2214,-0.7114,-1.5631,rough,14.0,0,4.245
2840,90.88,9.4174,-3.3224,3.0873,-0.2213,-0.7114,-1.5631,rough,14.0,0,4.245
2850,91.20,9.4175,-3.3224,3.0872,-0.2212,-0.7114,-1.5631,rough,14.0,0,4.245
2860,91.52,9.4176,-3.3223,3.0872,-0.2211,-0.7114,-1.5631,rough,14.0,0,4.245
2870,91.84,9.4177,-3.3223,3.0872,-0.2210,-0.7114,-1.5632,rough,14.0,0,4.245
2880,92.16,9.4177,-3.3223,3.0871,-0.2210,-0.7114,-1.5632,rough,14.0,0,4.246
2890,92.48,9.4178,-3.3223,3.0871,-0.2209,-0.7114,-1.5632,rough,14.0,0,4.246
2900,92.80,9.4179,-3.3223,3.0871,-0.2208,-0.7114,-1.5632,rough,14.0,0,4.246
2910,93.12,9.4180,-3.3223,3.0870,-0.2207,-0.7113,-1.5632,rough,14.0,0,4.246
2920,93.44,9.4181,-3.3223,3.0870,-0.2206,-0.7113,-1.5632,rough,14.0,0,4.246
2930,93.76,9.4182,-3.3223,3.0870,-0.2205,-0.7113,-1.5632,rough,14.0,0,4.246
2940,94.08,9.4182,-3.3223,3.0869,-0.2205,-0.7113,-1.5632,rough,14.0,0,4.246
2950,94.40,9.4183,-3.3223,3.0869,-0.2204,-0.7113,-1.5632,rough,14.0,0,4.246
2960,94.72,9.4184,-3.3222,3.0869,-0.2203,-0.7113,-1.5632,rough,14.0,0,4.246
2970,95.04,9.4185,-3.3222,3.0868,-0.2202,-0.7113,-1.5632,rough,14.0,0,4.246
2980,95.36,9.4186,-3.3222,3.0868,-0.2201,-0.7113,-1.5632,rough,14.0,0,4.246
2990,95.68,9.4187,-3.3222,3.0868,-0.2200,-0.7113,-1.5632,rough,14.0,0,4.246
3000,96.00,9.4187,-3.3222,3.0867,-0.2200,-0.7112,-1.5632,rough,14.0,0,4.247
3010,96.32,9.4188,-3.3222,3.0867,-0.2199,-0.7112,-1.5632,rough,14.0,0,4.247
3020,96.64,9.4189,-3.3222,3.0867,-0.2198,-0.7112,-1.5632,rough,14.0,0,4.247
3030,96.96,9.4190,-3.3222,3.0866,-0.2197,-0.7112,-1.5633,rough,14.0,0,4.247
3040,97.28,9.4191,-3.3222,3.0866,-0.2196,-0.7112,-1.5633,rough,14.0,0,4.247
3050,97.60,9.4192,-3.3222,3.0865,-0.2195,-0.7112,-1.5633,rough,14.0,0,4.247
3060,97.92,9.4192,-3.3221,3.0865,-0.2195,-0.7112,-1.5633,rough,14.0,0,4.247
3070,98.24,9.4193,-3.3221,3.0865,-0.2194,-0.7112,-1.5633,rough,14.0,0,4.247
3080,98.56,9.4194,-3.3221,3.0864,-0.2193,-0.7111,-1.5633,rough,14.0,0,4.247
3090,98.88,9.4195,-3.3221,3.0864,-0.2192,-0.7111,-1.5633,rough,14.0,0,4.247
3100,99.20,9.4196,-3.3221,3.0864,-0.2191,-0.7111,-1.5633,rough,14.0,0,4.247
3110,99.52,9.4197,-3.3221,3.0863,-0.2190,-0.7111,-1.5633,rough,14.0,0,4.247
3120,99.84,9.4197,-3.3221,3.0863,-0.2190,-0.7111,-1.5633,rough,14.0,0,4.248
3130,100.16,9.4198,-3.3221,3.0863,-0.2189,-0.7111,-1.5633,rough,14.0,0,4.248
3140,100.48,9.4199,-3.3221,3.0862,-0.2188,-0.7111,-1.5633,rough,14.0,0,4.248
3150,100.80,9.4200,-3.3221,3.0862,-0.2187,-0.7111,-1.5633,rough,14.0,0,4.248
3160,101.12,9.4201,-3.3220,3.0862,-0.2186,-0.7110,-1.5633,rough,14.0,0,4.248
3170,101.44,9.4202,-3.3220,3.0861,-0.2185,-0.7110,-1.5633,rough,14.0,0,4.248
3180,101.76,9.4202,-3.3220,3.0861,-0.2185,-0.7110,-1.5633,rough,14.0,0,4.248
3190,102.08,9.4203,-3.3220,3.0861,-0.2184,-0.7110,-1.5634,rough,14.0,0,4.248
3200,102.40,9.4204,-3.3220,3.0860,-0.2183,-0.7110,-1.5634,rough,14.0,0,4.248
3210,102.72,9.4205,-3.3220,3.0860,-0.2182,-0.7110,-1.5634,rough,14.0,0,4.248
3220,103.04,9.4206,-3.3220,3.0860,-0.2181,-0.7110,-1.5634,rough,14.0,0,4.248
3230,103.36,9.4207,-3.3220,3.0859,-0.2180,-0.7110,-1.5634,rough,14.0,0,4.248
3240,103.68,9.4207,-3.3220,3.0859,-0.2180,-0.7109,-1.5634,rough,14.0,0,4.249
3250,104.00,9.4208,-3.3220,3.0859,-0.2179,-0.7109,-1.5634,rough,14.0,0,4.249
3260,104.32,9.4209,-3.3220,3.0858,-0.2178,-0.7109,-1.5634,rough,14.0,0,4.249
3270,104.64,9.4210,-3.3219,3.0858,-0.2177,-0.7109,-1.5634,rough,14.0,0,4.249
3280,104.96,9.4211,-3.3219,3.0857,-0.2176,-0.7109,-1.5634,rough,14.0,0,4.249
3290,105.28,9.4212,-3.3219,3.0857,-0.2175,-0.7109,-1.5634,rough,14.0,0,4.249
3300,105.60,9.4213,-3.3219,3.0857,-0.2175,-0.7109,-1.5634,rough,14.0,0,4.249
3310,105.92,9.4213,-3.3219,3.0856,-0.2174,-0.7109,-1.5634,rough,14.0,0,4.249
3320,106.24,9.4214,-3.3219,3.0856,-0.2173,-0.7109,-1.5634,rough,14.0,0,4.249
3330,106.56,9.4215,-3.3219,3.0856,-0.2172,-0.7108,-1.5634,rough,14.0,0,4.249
3340,106.88,9.4216,-3.3219,3.0855,-0.2171,-0.7108,-1.5634,rough,14.0,0,4.249
3350,107.20,9.4217,-3.3219,3.0855,-0.2170,-0.7108,-1.5635,rough,14.0,0,4.249
3360,107.52,9.4218,-3.3219,3.0855,-0.2170,-0.7108,-1.5635,rough,14.0,0,4.250
3370,107.84,9.4218,-3.3218,3.0854,-0.2169,-0.7108,-1.5635,rough,14.0,0,4.250
3380,108.16,9.4219,-3.3218,3.0854,-0.2168,-0.7108,-1.5635,rough,14.0,0,4.250
3390,108.48,9.4220,-3.3218,3.0854,-0.2167,-0.7108,-1.5635,rough,14.0,0,4.250
3400,108.80,9.4221,-3.3218,3.0853,-0.2166,-0.7108,-1.5635,rough,14.0,0,4.250
3410,109.12,9.4222,-3.3218,3.0853,-0.2165,-0.7107,-1.5635,rough,14.0,0,4.250
3420,109.44,9.4223,-3.3218,3.0853,-0.2165,-0.7107,-1.5635,rough,14.0,0,4.250
3430,109.76,9.4223,-3.3218,3.0852,-0.2164,-0.7107,-1.5635,rough,14.0,0,4.250
3440,110.08,9.4224,-3.3218,3.0852,-0.2163,-0.7107,-1.5635,rough,14.0,0,4.250
3450,110.40,9.4225,-3.3218,3.0852,-0.2162,-0.7107,-1.5635,rough,14.0,0,4.250
3460,110.72,9.4226,-3.3218,3.0851,-0.2161,-0.7107,-1.5635,rough,14.0,0,4.250
3470,111.04,9.4227,-3.3217,3.0851,-0.2160,-0.7107,-1.5635,rough,14.0,0,4.250
3480,111.36,9.4228,-3.3217,3.0850,-0.2159,-0.7107,-1.5635,rough,14.0,0,4.251
3490,111.68,9.4228,-3.3217,3.0850,-0.2159,-0.7106,-1.5635,rough,14.0,0,4.251
3500,112.00,9.4229,-3.3217,3.0850,-0.2158,-0.7106,-1.5635,rough,14.0,0,4.251
3510,112.32,9.4230,-3.3217,3.0849,-0.2157,-0.7106,-1.5636,rough,14.0,0,4.251
3520,112.64,9.4231,-3.3217,3.0849,-0.2156,-0.7106,-1.5636,rough,14.0,0,4.251
3530,112.96,9.4232,-3.3217,3.0849,-0.2155,-0.7106,-1.5636,rough,14.0,0,4.251
3540,113.28,9.4233,-3.3217,3.0848,-0.2154,-0.7106,-1.5636,rough,14.0,0,4.251
3550,113.60,9.4234,-3.3217,3.0848,-0.2154,-0.7106,-1.5636,rough,14.0,0,4.251
3560,113.92,9.4234,-3.3217,3.0848,-0.2153,-0.7106,-1.5636,rough,14.0,0,4.251
3570,114.24,9.4235,-3.3216,3.0847,-0.2152,-0.7105,-1.5636,rough,14.0,0,4.251
3580,114.56,9.4236,-3.3216,3.0847,-0.2151,-0.7105,-1.5636,rough,14.0,0,4.251
3590,114.88,9.4237,-3.3216,3.0847,-0.2150,-0.7105,-1.5636,rough,14.0,0,4.251
3600,115.20,9.4238,-3.3216,3.0846,-0.2149,-0.7105,-1.5636,rough,14.0,0,4.252
3610,115.52,9.4239,-3.3216,3.0846,-0.2149,-0.7105,-1.5636,rough,14.0,0,4.252
3620,115.84,9.4239,-3.3216,3.0846,-0.2148,-0.7105,-1.5636,rough,14.0,0,4.252
3630,116.16,9.4240,-3.3216,3.0845,-0.2147,-0.7105,-1.5636,rough,14.0,0,4.252
3640,116.48,9.4241,-3.3216,3.0845,-0.2146,-0.7105,-1.5636,rough,14.0,0,4.252
3650,116.80,9.4242,-3.3216,3.0845,-0.2145,-0.7104,-1.5636,rough,14.0,0,4.252
3660,117.12,9.4243,-3.3216,3.0844,-0.2144,-0.7104,-1.5636,rough,14.0,0,4.252
3670,117.44,9.4244,-3.3215,3.0844,-0.2144,-0.7104,-1.5637,rough,14.0,0,4.252
3680,117.76,9.4245,-3.3215,3.0843,-0.2143,-0.7104,-1.5637,rough,14.0,0,4.252
3690,118.08,9.4245,-3.3215,3.0843,-0.2142,-0.7104,-1.5637,rough,14.0,0,4.252
3700,118.40,9.4246,-3.3215,3.0843,-0.2141,-0.7104,-1.5637,rough,14.0,0,4.252
3710,118.72,9.4247,-3.3215,3.0842,-0.2140,-0.7104,-1.5637,rough,14.0,0,4.252
3720,119.04,9.4248,-3.3215,3.0842,-0.2139,-0.7104,-1.5637,rough,14.0,0,4.253
3730,119.36,9.4249,-3.3215,3.0842,-0.2139,-0.7103,-1.5637,rough,14.0,0,4.253
3740,119.68,9.4250,-3.3215,3.0841,-0.2138,-0.7103,-1.5637,rough,14.0,0,4.253
3750,120.00,9.4250,-3.3215,3.0841,-0.2137,-0.7103,-1.5637,rough,14.0,0,4.253
3760,120.32,9.4251,-3.3215,3.0841,-0.2136,-0.7103,-1.5637,rough,14.0,0,4.253
3770,120.64,9.4252,-3.3214,3.0840,-0.2135,-0.7103,-1.5637,rough,14.0,0,4.253
3780,120.96,9.4253,-3.3214,3.0840,-0.2134,-0.7103,-1.5637,rough,14.0,0,4.253
3790,121.28,9.4254,-3.3214,3.0840,-0.2133,-0.7103,-1.5637,rough,14.0,0,4.253
3800,121.60,9.4255,-3.3214,3.0839,-0.2133,-0.7103,-1.5637,rough,14.0,0,4.253
3810,121.92,9.4256,-3.3214,3.0839,-0.2132,-0.7103,-1.5637,rough,14.0,0,4.253
3820,122.24,9.4256,-3.3214,3.0839,-0.2131,-0.7102,-1.5637,rough,14.0,0,4.253
3830,122.56,9.4257,-3.3214,3.0838,-0.2130,-0.7102,-1.5637,rough,14.0,0,4.254
3840,122.88,9.4258,-3.3214,3.0838,-0.2129,-0.7102,-1.5638,rough,14.0,0,4.254
3850,123.20,9.4259,-3.3214,3.0837,-0.2128,-0.7102,-1.5638,rough,14.0,0,4.254
3860,123.52,9.4260,-3.3214,3.0837,-0.2128,-0.7102,-1.5638,rough,14.0,0,4.254
3870,123.84,9.4261,-3.3213,3.0837,-0.2127,-0.7102,-1.5638,rough,14.0,0,4.254
3880,124.16,9.4261,-3.3213,3.0836,-0.2126,-0.7102,-1.5638,rough,14.0,0,4.254
3890,124.48,9.4262,-3.3213,3.0836,-0.2125,-0.7102,-1.5638,rough,14.0,0,4.254
3900,124.80,9.4263,-3.3213,3.0836,-0.2124,-0.7101,-1.5638,rough,14.0,0,4.254
3910,125.12,9.4264,-3.3213,3.0835,-0.2123,-0.7101,-1.5638,rough,14.0,0,4.254
3920,125.44,9.4265,-3.3213,3.0835,-0.2123,-0.7101,-1.5638,rough,14.0,0,4.254
3930,125.76,9.4266,-3.3213,3.0835,-0.2122,-0.7101,-1.5638,rough,14.0,0,4.254
3940,126.08,9.4267,-3.3213,3.0834,-0.2121,-0.7101,-1.5638,rough,14.0,0,4.254
3950,126.40,9.4267,-3.3213,3.0834,-0.2120,-0.7101,-1.5638,rough,14.0,0,4.255
3960,126.72,9.4268,-3.3213,3.0834,-0.2119,-0.7101,-1.5638,rough,14.0,0,4.255
3970,127.04,9.4269,-3.3212,3.0833,-0.2118,-0.7101,-1.5638,rough,14.0,0,4.255
3980,127.36,9.4270,-3.3212,3.0833,-0.2117,-0.7100,-1.5638,rough,14.0,0,4.255
3990,127.68,9.4271,-3.3212,3.0832,-0.2117,-0.7100,-1.5638,rough,14.0,0,4.255
4000,128.00,9.4272,-3.3212,3.0832,-0.2116,-0.7100,-1.5639,rough,14.0,0,4.255
4010,128.32,9.4272,-3.3212,3.0832,-0.2115,-0.7100,-1.5639,rough,14.0,0,4.255
4020,128.64,9.4273,-3.3212,3.0831,-0.2114,-0.7100,-1.5639,rough,14.0,0,4.255
4030,128.96,9.4274,-3.3212,3.0831,-0.2113,-0.7100,-1.5639,rough,14.0,0,4.255
4040,129.28,9.4275,-3.3212,3.0831,-0.2112,-0.7100,-1.5639,rough,14.0,0,4.255
4050,129.60,9.4276,-3.3212,3.0830,-0.2112,-0.7100,-1.5639,rough,14.0,0,4.255
4060,129.92,9.4277,-3.3212,3.0830,-0.2111,-0.7099,-1.5639,rough,14.0,0,4.255
4070,130.24,9.4278,-3.3212,3.0830,-0.2110,-0.7099,-1.5639,rough,14.0,0,4.256
4080,130.56,9.4278,-3.3211,3.0829,-0.2109,-0.7099,-1.5639,rough,14.0,0,4.256
4090,130.88,9.4279,-3.3211,3.0829,-0.2108,-0.7099,-1.5639,rough,14.0,0,4.256
4100,131.20,9.4280,-3.3211,3.0829,-0.2107,-0.7099,-1.5639,rough,14.0,0,4.256
4110,131.52,9.4281,-3.3211,3.0828,-0.2106,-0.7099,-1.5639,rough,14.0,0,4.256
4120,131.84,9.4282,-3.3211,3.0828,-0.2106,-0.7099,-1.5639,rough,14.0,0,4.256
4130,132.16,9.4283,-3.3211,3.0828,-0.2105,-0.7099,-1.5639,rough,14.0,0,4.256
4140,132.48,9.4283,-3.3211,3.0827,-0.2104,-0.7098,-1.5639,rough,14.0,0,4.256
4150,132.80,9.4284,-3.3211,3.0827,-0.2103,-0.7098,-1.5639,rough,14.0,0,4.256
4160,133.12,9.4285,-3.3211,3.0826,-0.2102,-0.7098,-1.5640,rough,14.0,0,4.256
4170,133.44,9.4286,-3.3211,3.0826,-0.2101,-0.7098,-1.5640,rough,14.0,0,4.256
4180,133.76,9.4287,-3.3210,3.0826,-0.2101,-0.7098,-1.5640,rough,14.0,0,4.256
4190,134.08,9.4288,-3.3210,3.0825,-0.2100,-0.7098,-1.5640,rough,14.0,0,4.257
4200,134.40,9.4289,-3.3210,3.0825,-0.2099,-0.7098,-1.5640,rough,14.0,0,4.257
4210,134.72,9.4289,-3.3210,3.0825,-0.2098,-0.7098,-1.5640,rough,14.0,0,4.257
4220,135.04,9.4290,-3.3210,3.0824,-0.2097,-0.7097,-1.5640,rough,14.0,0,4.257
4230,135.36,9.4291,-3.3210,3.0824,-0.2096,-0.7097,-1.5640,rough,14.0,0,4.257
4240,135.68,9.4292,-3.3210,3.0824,-0.2096,-0.7097,-1.5640,rough,14.0,0,4.257
4250,136.00,9.4293,-3.3210,3.0823,-0.2095,-0.7097,-1.5640,rough,14.0,0,4.257
4260,136.32,9.4294,-3.3210,3.0823,-0.2094,-0.7097,-1.5640,rough,14.0,0,4.257
4270,136.64,9.4295,-3.3210,3.0823,-0.2093,-0.7097,-1.5640,rough,14.0,0,4.257
4280,136.96,9.4295,-3.3209,3.0822,-0.2092,-0.7097,-1.5640,rough,14.0,0,4.257
4290,137.28,9.4296,-3.3209,3.0822,-0.2091,-0.7097,-1.5640,rough,14.0,0,4.257
4300,137.60,9.4297,-3.3209,3.0821,-0.2090,-0.7096,-1.5640,rough,14.0,0,4.257
4310,137.92,9.4298,-3.3209,3.0821,-0.2090,-0.7096,-1.5640,rough,14.0,0,4.258
4320,138.24,9.4299,-3.3209,3.0821,-0.2089,-0.7096,-1.5640,rough,14.0,0,4.258
4330,138.56,9.4300,-3.3209,3.0820,-0.2088,-0.7096,-1.5641,rough,14.0,0,4.258
4340,138.88,9.4301,-3.3209,3.0820,-0.2087,-0.7096,-1.5641,rough,14.0,0,4.258
4350,139.20,9.4301,-3.3209,3.0820,-0.2086,-0.7096,-1.5641,rough,14.0,0,4.258
4360,139.52,9.4302,-3.3209,3.0819,-0.2085,-0.7096,-1.5641,rough,14.0,0,4.258
4370,139.84,9.4303,-3.3209,3.0819,-0.2085,-0.7096,-1.5641,rough,14.0,0,4.258
4380,140.16,9.4304,-3.3208,3.0819,-0.2084,-0.7095,-1.5641,rough,14.0,0,4.258
4390,140.48,9.4305,-3.3208,3.0818,-0.2083,-0.7095,-1.5641,rough,14.0,0,4.258
4400,140.80,9.4306,-3.3208,3.0818,-0.2082,-0.7095,-1.5641,rough,14.0,0,4.258
4410,141.12,9.4306,-3.3208,3.0818,-0.2081,-0.7095,-1.5641,rough,14.0,0,4.258
4420,141.44,9.4307,-3.3208,3.0817,-0.2080,-0.7095,-1.5641,rough,14.0,0,4.258
4430,141.76,9.4308,-3.3208,3.0817,-0.2079,-0.7095,-1.5641,rough,14.0,0,4.259
4440,142.08,9.4309,-3.3208,3.0816,-0.2079,-0.7095,-1.5641,rough,14.0,0,4.259
4450,142.40,9.4310,-3.3208,3.0816,-0.2078,-0.7095,-1.5641,rough,14.0,0,4.259
4460,142.72,9.4311,-3.3208,3.0816,-0.2077,-0.7094,-1.5641,rough,14.0,0,4.259
4470,143.04,9.4312,-3.3208,3.0815,-0.2076,-0.7094,-1.5641,rough,14.0,0,4.259
4480,143.36,9.4312,-3.3207,3.0815,-0.2075,-0.7094,-1.5641,rough,14.0,0,4.259
4490,143.68,9.4313,-3.3207,3.0815,-0.2074,-0.7094,-1.5642,rough,14.0,0,4.259
4500,144.00,9.4314,-3.3207,3.0814,-0.2073,-0.7094,-1.5642,rough,14.0,0,4.259
4510,144.32,9.4315,-3.3207,3.0814,-0.2073,-0.7094,-1.5642,rough,14.0,0,4.259
4520,144.64,9.4316,-3.3207,3.0814,-0.2072,-0.7094,-1.5642,rough,14.0,0,4.259
4530,144.96,9.4317,-3.3207,3.0813,-0.2071,-0.7094,-1.5642,rough,14.0,0,4.259
4540,145.28,9.4318,-3.3207,3.0813,-0.2070,-0.7093,-1.5642,rough,14.0,0,4.259
4550,145.60,9.4318,-3.3207,3.0813,-0.2069,-0.7093,-1.5642,rough,14.0,0,4.260
4560,145.92,9.4319,-3.3207,3.0812,-0.2068,-0.7093,-1.5642,rough,14.0,0,4.260
4570,146.24,9.4320,-3.3207,3.0812,-0.2068,-0.7093,-1.5642,rough,14.0,0,4.260
4580,146.56,9.4321,-3.3206,3.0811,-0.2067,-0.7093,-1.5642,rough,14.0,0,4.260
4590,146.88,9.4322,-3.3206,3.0811,-0.2066,-0.7093,-1.5642,rough,14.0,0,4.260
4600,147.20,9.4323,-3.3206,3.0811,-0.2065,-0.7093,-1.5642,rough,14.0,0,4.260
4610,147.52,9.4324,-3.3206,3.0810,-0.2064,-0.7093,-1.5642,rough,14.0,0,4.260
4620,147.84,9.4324,-3.3206,3.0810,-0.2063,-0.7092,-1.5642,rough,14.0,0,4.260
4630,148.16,9.4325,-3.3206,3.0810,-0.2062,-0.7092,-1.5642,rough,14.0,0,4.260
4640,148.48,9.4326,-3.3206,3.0809,-0.2062,-0.7092,-1.5642,rough,14.0,0,4.260
4650,148.80,9.4327,-3.3206,3.0809,-0.2061,-0.7092,-1.5642,rough,14.0,0,4.260
4660,149.12,9.4328,-3.3206,3.0809,-0.2060,-0.7092,-1.5643,rough,14.0,0,4.261
4670,149.44,9.4329,-3.3206,3.0808,-0.2059,-0.7092,-1.5643,rough,14.0,0,4.261
4680,149.76,9.4330,-3.3205,3.0808,-0.2058,-0.7092,-1.5643,rough,14.0,0,4.261
4690,150.08,9.4330,-3.3205,3.0808,-0.2057,-0.7092,-1.5643,rough,14.0,0,4.261
4700,150.40,9.4331,-3.3205,3.0807,-0.2056,-0.7091,-1.5643,rough,14.0,0,4.261
4710,150.72,9.4332,-3.3205,3.0807,-0.2056,-0.7091,-1.5643,rough,14.0,0,4.261
4720,151.04,9.4333,-3.3205,3.0806,-0.2055,-0.7091,-1.5643,rough,14.0,0,4.261
4730,151.36,9.4334,-3.3205,3.0806,-0.2054,-0.7091,-1.5643,rough,14.0,0,4.261
4740,151.68,9.4335,-3.3205,3.0806,-0.2053,-0.7091,-1.5643,rough,14.0,0,4.261
4750,152.00,9.4336,-3.3205,3.0805,-0.2052,-0.7091,-1.5643,rough,14.0,0,4.261
4760,152.32,9.4336,-3.3205,3.0805,-0.2051,-0.7091,-1.5643,rough,14.0,0,4.261
4770,152.64,9.4337,-3.3205,3.0805,-0.2051,-0.7091,-1.5643,rough,14.0,0,4.261
4780,152.96,9.4338,-3.3204,3.0804,-0.2050,-0.7090,-1.5643,rough,14.0,0,4.262
4790,153.28,9.4339,-3.3204,3.0804,-0.2049,-0.7090,-1.5643,rough,14.0,0,4.262
4800,153.60,9.4340,-3.3204,3.0804,-0.2048,-0.7090,-1.5643,rough,14.0,0,4.262
4810,153.92,9.4341,-3.3204,3.0803,-0.2047,-0.7090,-1.5643,rough,14.0,0,4.262
4820,154.24,9.4342,-3.3204,3.0803,-0.2046,-0.7090,-1.5643,rough,14.0,0,4.262
4830,154.56,9.4342,-3.3204,3.0803,-0.2045,-0.7090,-1.5644,rough,14.0,0,4.262
4840,154.88,9.4343,-3.3204,3.0802,-0.2045,-0.7090,-1.5644,rough,14.0,0,4.262
4850,155.20,9.4344,-3.3204,3.0802,-0.2044,-0.7090,-1.5644,rough,14.0,0,4.262
4860,155.52,9.4345,-3.3204,3.0801,-0.2043,-0.7089,-1.5644,rough,14.0,0,4.262
4870,155.84,9.4346,-3.3204,3.0801,-0.2042,-0.7089,-1.5644,rough,14.0,0,4.262
4880,156.16,9.4347,-3.3203,3.0801,-0.2041,-0.7089,-1.5644,rough,14.0,0,4.262
4890,156.48,9.4348,-3.3203,3.0800,-0.2040,-0.7089,-1.5644,rough,14.0,0,4.262
4900,156.80,9.4348,-3.3203,3.0800,-0.2039,-0.7089,-1.5644,rough,14.0,0,4.263
4910,157.12,9.4349,-3.3203,3.0800,-0.2039,-0.7089,-1.5644,rough,14.0,0,4.263
4920,157.44,9.4350,-3.3203,3.0799,-0.2038,-0.7089,-1.5644,rough,14.0,0,4.263
4930,157.76,9.4351,-3.3203,3.0799,-0.2037,-0.7089,-1.5644,rough,14.0,0,4.263
4940,158.08,9.4352,-3.3203,3.0799,-0.2036,-0.7088,-1.5644,rough,14.0,0,4.263
4950,158.40,9.4353,-3.3203,3.0798,-0.2035,-0.7088,-1.5644,rough,14.0,0,4.263
4960,158.72,9.4354,-3.3203,3.0798,-0.2034,-0.7088,-1.5644,rough,14.0,0,4.263
4970,159.04,9.4354,-3.3203,3.0797,-0.2033,-0.7088,-1.5644,rough,14.0,0,4.263
4980,159.36,9.4355,-3.3202,3.0797,-0.2033,-0.7088,-1.5644,rough,14.0,0,4.263
4990,159.68,9.4356,-3.3202,3.0797,-0.2032,-0.7088,-1.5644,rough,14.0,0,4.263
5000,160.00,9.4357,-3.3202,3.0796,-0.2031,-0.7088,-1.5645,rough,14.0,0,4.263
5010,160.32,9.4358,-3.3202,3.0796,-0.2030,-0.7088,-1.5645,rough,14.0,0,4.263
5020,160.64,9.4359,-3.3202,3.0796,-0.2029,-0.7087,-1.5645,rough,14.0,0,4.264
5030,160.96,9.4360,-3.3202,3.0795,-0.2028,-0.7087,-1.5645,rough,14.0,0,4.264
5040,161.28,9.4360,-3.3202,3.0795,-0.2028,-0.7087,-1.5645,rough,14.0,0,4.264
5050,161.60,9.4361,-3.3202,3.0795,-0.2027,-0.7087,-1.5645,rough,14.0,0,4.264
5060,161.92,9.4362,-3.3202,3.0794,-0.2026,-0.7087,-1.5645,rough,14.0,0,4.264
5070,162.24,9.4363,-3.3202,3.0794,-0.2025,-0.7087,-1.5645,rough,14.0,0,4.264
5080,162.56,9.4364,-3.3201,3.0794,-0.2024,-0.7087,-1.5645,rough,14.0,0,4.264
5090,162.88,9.4365,-3.3201,3.0793,-0.2023,-0.7086,-1.5645,rough,14.0,0,4.264
5100,163.20,9.4366,-3.3201,3.0793,-0.2022,-0.7086,-1.5645,rough,14.0,0,4.264
5110,163.52,9.4367,-3.3201,3.0792,-0.2022,-0.7086,-1.5645,rough,14.0,0,4.264
5120,163.84,9.4367,-3.3201,3.0792,-0.2021,-0.7086,-1.5645,rough,14.0,0,4.264
5130,164.16,9.4368,-3.3201,3.0792,-0.2020,-0.7086,-1.5645,rough,14.0,0,4.265
5140,164.48,9.4369,-3.3201,3.0791,-0.2019,-0.7086,-1.5645,rough,14.0,0,4.265
5150,164.80,9.4370,-3.3201,3.0791,-0.2018,-0.7086,-1.5645,rough,14.0,0,4.265
5160,165.12,9.4371,-3.3201,3.0791,-0.2017,-0.7086,-1.5645,rough,14.0,0,4.265
5170,165.44,9.4372,-3.3201,3.0790,-0.2016,-0.7085,-1.5646,rough,14.0,0,4.265
5180,165.76,9.4373,-3.3200,3.0790,-0.2016,-0.7085,-1.5646,rough,14.0,0,4.265
5190,166.08,9.4373,-3.3200,3.0790,-0.2015,-0.7085,-1.5646,rough,14.0,0,4.265
5200,166.40,9.4374,-3.3200,3.0789,-0.2014,-0.7085,-1.5646,rough,14.0,0,4.265
5210,166.72,9.4375,-3.3200,3.0789,-0.2013,-0.7085,-1.5646,rough,14.0,0,4.265
5220,167.04,9.4376,-3.3200,3.0788,-0.2012,-0.7085,-1.5646,rough,14.0,0,4.265
5230,167.36,9.4377,-3.3200,3.0788,-0.2011,-0.7085,-1.5646,rough,14.0,0,4.265
5240,167.68,9.4378,-3.3200,3.0788,-0.2010,-0.7085,-1.5646,rough,14.0,0,4.265
5250,168.00,9.4379,-3.3200,3.0787,-0.2010,-0.7084,-1.5646,rough,14.0,0,4.266
5260,168.32,9.4379,-3.3200,3.0787,-0.2009,-0.7084,-1.5646,rough,14.0,0,4.266
5270,168.64,9.4380,-3.3200,3.0787,-0.2008,-0.7084,-1.5646,rough,14.0,0,4.266
5280,168.96,9.4381,-3.3199,3.0786,-0.2007,-0.7084,-1.5646,rough,14.0,0,4.266
5290,169.28,9.4382,-3.3199,3.0786,-0.2006,-0.7084,-1.5646,rough,14.0,0,4.266
5300,169.60,9.4383,-3.3199,3.0786,-0.2005,-0.7084,-1.5646,rough,14.0,0,4.266
5310,169.92,9.4384,-3.3199,3.0785,-0.2004,-0.7084,-1.5646,rough,14.0,0,4.266
5320,170.24,9.4385,-3.3199,3.0785,-0.2004,-0.7084,-1.5646,rough,14.0,0,4.266
5330,170.56,9.4386,-3.3199,3.0784,-0.2003,-0.7083,-1.5646,rough,14.0,0,4.266
5340,170.88,9.4386,-3.3199,3.0784,-0.2002,-0.7083,-1.5647,rough,14.0,0,4.266
5350,171.20,9.4387,-3.3199,3.0784,-0.2001,-0.7083,-1.5647,rough,14.0,0,4.266
5360,171.52,9.4388,-3.3199,3.0783,-0.2000,-0.7083,-1.5647,rough,14.0,0,4.266
5370,171.84,9.4389,-3.3199,3.0783,-0.1999,-0.7083,-1.5647,rough,14.0,0,4.267
5380,172.16,9.4390,-3.3198,3.0783,-0.1998,-0.7083,-1.5647,rough,14.0,0,4.267
5390,172.48,9.4391,-3.3198,3.0782,-0.1998,-0.7083,-1.5647,rough,14.0,0,4.267
5400,172.80,9.4392,-3.3198,3.0782,-0.1997,-0.7083,-1.5647,rough,14.0,0,4.267
5410,173.12,9.4392,-3.3198,3.0782,-0.1996,-0.7082,-1.5647,rough,14.0,0,4.267
5420,173.44,9.4393,-3.3198,3.0781,-0.1995,-0.7082,-1.5647,rough,14.0,0,4.267
5430,173.76,9.4394,-3.3198,3.0781,-0.1994,-0.7082,-1.5647,rough,14.0,0,4.267
5440,174.08,9.4395,-3.3198,3.0780,-0.1993,-0.7082,-1.5647,rough,14.0,0,4.267
5450,174.40,9.4396,-3.3198,3.0780,-0.1992,-0.7082,-1.5647,rough,14.0,0,4.267
5460,174.72,9.4397,-3.3198,3.0780,-0.1992,-0.7082,-1.5647,rough,14.0,0,4.267
5470,175.04,9.4398,-3.3198,3.0779,-0.1991,-0.7082,-1.5647,rough,14.0,0,4.267
5480,175.36,9.4398,-3.3197,3.0779,-0.1990,-0.7082,-1.5647,rough,14.0,0,4.268
5490,175.68,9.4399,-3.3197,3.0779,-0.1989,-0.7081,-1.5647,rough,14.0,0,4.268
5500,176.00,9.4400,-3.3197,3.0778,-0.1988,-0.7081,-1.5647,rough,14.0,0,4.268
5510,176.32,9.4401,-3.3197,3.0778,-0.1987,-0.7081,-1.5648,rough,14.0,0,4.268
5520,176.64,9.4402,-3.3197,3.0778,-0.1986,-0.7081,-1.5648,rough,14.0,0,4.268
5530,176.96,9.4403,-3.3197,3.0777,-0.1986,-0.7081,-1.5648,rough,14.0,0,4.268
5540,177.28,9.4404,-3.3197,3.0777,-0.1985,-0.7081,-1.5648,rough,14.0,0,4.268
5550,177.60,9.4405,-3.3197,3.0776,-0.1984,-0.7081,-1.5648,rough,14.0,0,4.268
5560,177.92,9.4405,-3.3197,3.0776,-0.1983,-0.7081,-1.5648,rough,14.0,0,4.268
5570,178.24,9.4406,-3.3197,3.0776,-0.1982,-0.7080,-1.5648,rough,14.0,0,4.268
5580,178.56,9.4407,-3.3196,3.0775,-0.1981,-0.7080,-1.5648,rough,14.0,0,4.268
5590,178.88,9.4408,-3.3196,3.0775,-0.1980,-0.7080,-1.5648,rough,14.0,0,4.268
5600,179.20,9.4409,-3.3196,3.0775,-0.1980,-0.7080,-1.5648,rough,14.0,0,4.269
5610,179.52,9.4410,-3.3196,3.0774,-0.1979,-0.7080,-1.5648,rough,14.0,0,4.269
5620,179.84,9.4411,-3.3196,3.0774,-0.1978,-0.7080,-1.5648,rough,14.0,0,4.269
5630,180.16,9.4411,-3.3196,3.0774,-0.1977,-0.7080,-1.5648,rough,14.0,0,4.269
5640,180.48,9.4412,-3.3196,3.0773,-0.1976,-0.7079,-1.5648,rough,14.0,0,4.269
5650,180.80,9.4413,-3.3196,3.0773,-0.1975,-0.7079,-1.5648,rough,14.0,0,4.269
5660,181.12,9.4414,-3.3196,3.0772,-0.1974,-0.7079,-1.5648,rough,14.0,0,4.269
5670,181.44,9.4415,-3.3196,3.0772,-0.1973,-0.7079,-1.5648,rough,14.0,0,4.269
5680,181.76,9.4416,-3.3195,3.0772,-0.1973,-0.7079,-1.5649,rough,14.0,0,4.269
5690,182.08,9.4417,-3.3195,3.0771,-0.1972,-0.7079,-1.5649,rough,14.0,0,4.269
5700,182.40,9.4418,-3.3195,3.0771,-0.1971,-0.7079,-1.5649,rough,14.0,0,4.269
5710,182.72,9.4418,-3.3195,3.0771,-0.1970,-0.7079,-1.5649,rough,14.0,0,4.270
5720,183.04,9.4419,-3.3195,3.0770,-0.1969,-0.7078,-1.5649,rough,14.0,0,4.270
5730,183.36,9.4420,-3.3195,3.0770,-0.1968,-0.7078,-1.5649,rough,14.0,0,4.270
5740,183.68,9.4421,-3.3195,3.0770,-0.1967,-0.7078,-1.5649,rough,14.0,0,4.270
5750,184.00,9.4422,-3.3195,3.0769,-0.1967,-0.7078,-1.5649,rough,14.0,0,4.270
5760,184.32,9.4423,-3.3195,3.0769,-0.1966,-0.7078,-1.5649,rough,14.0,0,4.270
5770,184.64,9.4424,-3.3195,3.0768,-0.1965,-0.7078,-1.5649,rough,14.0,0,4.270
5780,184.96,9.4425,-3.3194,3.0768,-0.1964,-0.7078,-1.5649,rough,14.0,0,4.270
5790,185.28,9.4425,-3.3194,3.0768,-0.1963,-0.7078,-1.5649,rough,14.0,0,4.270
5800,185.60,9.4426,-3.3194,3.0767,-0.1962,-0.7077,-1.5649,rough,14.0,0,4.270
5810,185.92,9.4427,-3.3194,3.0767,-0.1961,-0.7077,-1.5649,rough,14.0,0,4.270
5820,186.24,9.4428,-3.3194,3.0767,-0.1961,-0.7077,-1.5649,rough,14.0,0,4.270
5830,186.56,9.4429,-3.3194,3.0766,-0.1960,-0.7077,-1.5649,rough,14.0,0,4.271
5840,186.88,9.4430,-3.3194,3.0766,-0.1959,-0.7077,-1.5649,rough,14.0,0,4.271
5850,187.20,9.4431,-3.3194,3.0765,-0.1958,-0.7077,-1.5649,rough,14.0,0,4.271
5860,187.52,9.4431,-3.3194,3.0765,-0.1957,-0.7077,-1.5650,rough,14.0,0,4.271
5870,187.84,9.4432,-3.3194,3.0765,-0.1956,-0.7077,-1.5650,rough,14.0,0,4.271
5880,188.16,9.4433,-3.3193,3.0764,-0.1955,-0.7076,-1.5650,rough,14.0,0,4.271
5890,188.48,9.4434,-3.3193,3.0764,-0.1955,-0.7076,-1.5650,rough,14.0,0,4.271
5900,188.80,9.4435,-3.3193,3.0764,-0.1954,-0.7076,-1.5650,rough,14.0,0,4.271
5910,189.12,9.4436,-3.3193,3.0763,-0.1953,-0.7076,-1.5650,rough,14.0,0,4.271
5920,189.44,9.4437,-3.3193,3.0763,-0.1952,-0.7076,-1.5650,rough,14.0,0,4.271
5930,189.76,9.4438,-3.3193,3.0763,-0.1951,-0.7076,-1.5650,rough,14.0,0,4.271
5940,190.08,9.4438,-3.3193,3.0762,-0.1950,-0.7076,-1.5650,rough,14.0,0,4.271
5950,190.40,9.4439,-3.3193,3.0762,-0.1949,-0.7075,-1.5650,rough,14.0,0,4.272
5960,190.72,9.4440,-3.3193,3.0761,-0.1948,-0.7075,-1.5650,rough,14.0,0,4.272
5970,191.04,9.4441,-3.3193,3.0761,-0.1948,-0.7075,-1.5650,rough,14.0,0,4.272
5980,191.36,9.4442,-3.3192,3.0761,-0.1947,-0.7075,-1.5650,rough,14.0,0,4.272
5990,191.68,9.4443,-3.3192,3.0760,-0.1946,-0.7075,-1.5650,rough,14.0,0,4.272
6000,192.00,9.4444,-3.3192,3.0760,-0.1945,-0.7075,-1.5650,rough,14.0,0,4.272
6010,192.32,9.4445,-3.3192,3.0760,-0.1944,-0.7075,-1.5650,rough,14.0,0,4.272
6020,192.64,9.4445,-3.3192,3.0759,-0.1943,-0.7075,-1.5650,rough,14.0,0,4.272
6030,192.96,9.4446,-3.3192,3.0759,-0.1942,-0.7074,-1.5651,rough,14.0,0,4.272
6040,193.28,9.4447,-3.3192,3.0759,-0.1942,-0.7074,-1.5651,rough,14.0,0,4.272
6050,193.60,9.4448,-3.3192,3.0758,-0.1941,-0.7074,-1.5651,rough,14.0,0,4.272
6060,193.92,9.4449,-3.3192,3.0758,-0.1940,-0.7074,-1.5651,rough,14.0,0,4.273
6070,194.24,9.4450,-3.3192,3.0757,-0.1939,-0.7074,-1.5651,rough,14.0,0,4.273
6080,194.56,9.4451,-3.3191,3.0757,-0.1938,-0.7074,-1.5651,rough,14.0,0,4.273
6090,194.88,9.4452,-3.3191,3.0757,-0.1937,-0.7074,-1.5651,rough,14.0,0,4.273
6100,195.20,9.4452,-3.3191,3.0756,-0.1936,-0.7074,-1.5651,rough,14.0,0,4.273
6110,195.52,9.4453,-3.3191,3.0756,-0.1936,-0.7073,-1.5651,rough,14.0,0,4.273
6120,195.84,9.4454,-3.3191,3.0756,-0.1935,-0.7073,-1.5651,rough,14.0,0,4.273
6130,196.16,9.4455,-3.3191,3.0755,-0.1934,-0.7073,-1.5651,rough,14.0,0,4.273
6140,196.48,9.4456,-3.3191,3.0755,-0.1933,-0.7073,-1.5651,rough,14.0,0,4.273
6150,196.80,9.4457,-3.3191,3.0754,-0.1932,-0.7073,-1.5651,rough,14.0,0,4.273
6160,197.12,9.4458,-3.3191,3.0754,-0.1931,-0.7073,-1.5651,rough,14.0,0,4.273
6170,197.44,9.4459,-3.3191,3.0754,-0.1930,-0.7073,-1.5651,rough,14.0,0,4.273
6180,197.76,9.4459,-3.3190,3.0753,-0.1929,-0.7072,-1.5651,rough,14.0,0,4.274
6190,198.08,9.4460,-3.3190,3.0753,-0.1929,-0.7072,-1.5651,rough,14.0,0,4.274
6200,198.40,9.4461,-3.3190,3.0753,-0.1928,-0.7072,-1.5651,rough,14.0,0,4.274
6210,198.72,9.4462,-3.3190,3.0752,-0.1927,-0.7072,-1.5652,rough,14.0,0,4.274
6220,199.04,9.4463,-3.3190,3.0752,-0.1926,-0.7072,-1.5652,rough,14.0,0,4.274
6230,199.36,9.4464,-3.3190,3.0752,-0.1925,-0.7072,-1.5652,rough,14.0,0,4.274
6240,199.68,9.4465,-3.3190,3.0751,-0.1924,-0.7072,-1.5652,rough,14.0,0,4.274
6250,200.00,9.4466,-3.3190,3.0751,-0.1923,-0.7072,-1.5652,rough,14.0,0,4.274
6260,200.32,9.4466,-3.3190,3.0750,-0.1923,-0.7071,-1.5652,rough,14.0,0,4.274
6270,200.64,9.4467,-3.3190,3.0750,-0.1922,-0.7071,-1.5652,rough,14.0,0,4.274
6280,200.96,9.4468,-3.3189,3.0750,-0.1921,-0.7071,-1.5652,rough,14.0,0,4.274
6290,201.28,9.4469,-3.3189,3.0749,-0.1920,-0.7071,-1.5652,rough,14.0,0,4.275
6300,201.60,9.4470,-3.3189,3.0749,-0.1919,-0.7071,-1.5652,rough,14.0,0,4.275
6310,201.92,9.4471,-3.3189,3.0749,-0.1918,-0.7071,-1.5652,rough,14.0,0,4.275
6320,202.24,9.4472,-3.3189,3.0748,-0.1917,-0.7071,-1.5652,rough,14.0,0,4.275
6330,202.56,9.4473,-3.3189,3.0748,-0.1916,-0.7071,-1.5652,rough,14.0,0,4.275
6340,202.88,9.4473,-3.3189,3.0747,-0.1916,-0.7070,-1.5652,rough,14.0,0,4.275
6350,203.20,9.4474,-3.3189,3.0747,-0.1915,-0.7070,-1.5652,rough,14.0,0,4.275
6360,203.52,9.4475,-3.3189,3.0747,-0.1914,-0.7070,-1.5652,rough,14.0,0,4.275
6370,203.84,9.4476,-3.3189,3.0746,-0.1913,-0.7070,-1.5652,rough,14.0,0,4.275
6380,204.16,9.4477,-3.3188,3.0746,-0.1912,-0.7070,-1.5653,rough,14.0,0,4.275
6390,204.48,9.4478,-3.3188,3.0746,-0.1911,-0.7070,-1.5653,rough,14.0,0,4.275
6400,204.80,9.4479,-3.3188,3.0745,-0.1910,-0.7070,-1.5653,rough,14.0,0,4.275
6410,205.12,9.4480,-3.3188,3.0745,-0.1910,-0.7070,-1.5653,rough,14.0,0,4.276
6420,205.44,9.4480,-3.3188,3.0745,-0.1909,-0.7069,-1.5653,rough,14.0,0,4.276
6430,205.76,9.4481,-3.3188,3.0744,-0.1908,-0.7069,-1.5653,rough,14.0,0,4.276
6440,206.08,9.4482,-3.3188,3.0744,-0.1907,-0.7069,-1.5653,rough,14.0,0,4.276
6450,206.40,9.4483,-3.3188,3.0743,-0.1906,-0.7069,-1.5653,rough,14.0,0,4.276
6460,206.72,9.4484,-3.3188,3.0743,-0.1905,-0.7069,-1.5653,rough,14.0,0,4.276
6470,207.04,9.4485,-3.3188,3.0743,-0.1904,-0.7069,-1.5653,rough,14.0,0,4.276
6480,207.36,9.4486,-3.3187,3.0742,-0.1903,-0.7069,-1.5653,rough,14.0,0,4.276
6490,207.68,9.4487,-3.3187,3.0742,-0.1903,-0.7068,-1.5653,rough,14.0,0,4.276
6500,208.00,9.4487,-3.3187,3.0742,-0.1902,-0.7068,-1.5653,rough,14.0,0,4.276
6510,208.32,9.4488,-3.3187,3.0741,-0.1901,-0.7068,-1.5653,rough,14.0,0,4.276
6520,208.64,9.4489,-3.3187,3.0741,-0.1900,-0.7068,-1.5653,rough,14.0,0,4.277
6530,208.96,9.4490,-3.3187,3.0740,-0.1899,-0.7068,-1.5653,rough,14.0,0,4.277
6540,209.28,9.4491,-3.3187,3.0740,-0.1898,-0.7068,-1.5653,rough,14.0,0,4.277
6550,209.60,9.4492,-3.3187,3.0740,-0.1897,-0.7068,-1.5653,rough,14.0,0,4.277
6560,209.92,9.4493,-3.3187,3.0739,-0.1897,-0.7068,-1.5654,rough,14.0,0,4.277
6570,210.24,9.4494,-3.3187,3.0739,-0.1896,-0.7067,-1.5654,rough,14.0,0,4.277
6580,210.56,9.4494,-3.3186,3.0739,-0.1895,-0.7067,-1.5654,rough,14.0,0,4.277
6590,210.88,9.4495,-3.3186,3.0738,-0.1894,-0.7067,-1.5654,rough,14.0,0,4.277
6600,211.20,9.4496,-3.3186,3.0738,-0.1893,-0.7067,-1.5654,rough,14.0,0,4.277
6610,211.52,9.4497,-3.3186,3.0737,-0.1892,-0.7067,-1.5654,rough,14.0,0,4.277
6620,211.84,9.4498,-3.3186,3.0737,-0.1891,-0.7067,-1.5654,rough,14.0,0,4.277
6630,212.16,9.4499,-3.3186,3.0737,-0.1890,-0.7067,-1.5654,rough,14.0,0,4.277
6640,212.48,9.4500,-3.3186,3.0736,-0.1890,-0.7066,-1.5654,rough,14.0,0,4.278
6650,212.80,9.4501,-3.3186,3.0736,-0.1889,-0.7066,-1.5654,rough,14.0,0,4.278
6660,213.12,9.4502,-3.3186,3.0736,-0.1888,-0.7066,-1.5654,rough,14.0,0,4.278
6670,213.44,9.4502,-3.3185,3.0735,-0.1887,-0.7066,-1.5654,rough,14.0,0,4.278
6680,213.76,9.4503,-3.3185,3.0735,-0.1886,-0.7066,-1.5654,rough,14.0,0,4.278
6690,214.08,9.4504,-3.3185,3.0734,-0.1885,-0.7066,-1.5654,rough,14.0,0,4.278
6700,214.40,9.4505,-3.3185,3.0734,-0.1884,-0.7066,-1.5654,rough,14.0,0,4.278
6710,214.72,9.4506,-3.3185,3.0734,-0.1883,-0.7066,-1.5654,rough,14.0,0,4.278
6720,215.04,9.4507,-3.3185,3.0733,-0.1883,-0.7065,-1.5654,rough,14.0,0,4.278
6730,215.36,9.4508,-3.3185,3.0733,-0.1882,-0.7065,-1.5654,rough,14.0,0,4.278
6740,215.68,9.4509,-3.3185,3.0733,-0.1881,-0.7065,-1.5655,rough,14.0,0,4.278
6750,216.00,9.4509,-3.3185,3.0732,-0.1880,-0.7065,-1.5655,rough,14.0,0,4.279
6760,216.32,9.4510,-3.3185,3.0732,-0.1879,-0.7065,-1.5655,rough,14.0,0,4.279
6770,216.64,9.4511,-3.3184,3.0732,-0.1878,-0.7065,-1.5655,rough,14.0,0,4.279
6780,216.96,9.4512,-3.3184,3.0731,-0.1877,-0.7065,-1.5655,rough,14.0,0,4.279
6790,217.28,9.4513,-3.3184,3.0731,-0.1876,-0.7065,-1.5655,rough,14.0,0,4.279
6800,217.60,9.4514,-3.3184,3.0730,-0.1876,-0.7064,-1.5655,rough,14.0,0,4.279
6810,217.92,9.4515,-3.3184,3.0730,-0.1875,-0.7064,-1.5655,rough,14.0,0,4.279
6820,218.24,9.4516,-3.3184,3.0730,-0.1874,-0.7064,-1.5655,rough,14.0,0,4.279
6830,218.56,9.4517,-3.3184,3.0729,-0.1873,-0.7064,-1.5655,rough,14.0,0,4.279
6840,218.88,9.4517,-3.3184,3.0729,-0.1872,-0.7064,-1.5655,rough,14.0,0,4.279
6850,219.20,9.4518,-3.3184,3.0729,-0.1871,-0.7064,-1.5655,rough,14.0,0,4.279
6860,219.52,9.4519,-3.3184,3.0728,-0.1870,-0.7064,-1.5655,rough,14.0,0,4.279
6870,219.84,9.4520,-3.3183,3.0728,-0.1869,-0.7063,-1.5655,rough,14.0,0,4.280
6880,220.16,9.4521,-3.3183,3.0727,-0.1869,-0.7063,-1.5655,rough,14.0,0,4.280
6890,220.48,9.4522,-3.3183,3.0727,-0.1868,-0.7063,-1.5655,rough,14.0,0,4.280
6900,220.80,9.4523,-3.3183,3.0727,-0.1867,-0.7063,-1.5655,rough,14.0,0,4.280
6910,221.12,9.4524,-3.3183,3.0726,-0.1866,-0.7063,-1.5655,rough,14.0,0,4.280
6920,221.44,9.4524,-3.3183,3.0726,-0.1865,-0.7063,-1.5656,rough,14.0,0,4.280
6930,221.76,9.4525,-3.3183,3.0726,-0.1864,-0.7063,-1.5656,rough,14.0,0,4.280
6940,222.08,9.4526,-3.3183,3.0725,-0.1863,-0.7063,-1.5656,rough,14.0,0,4.280
6950,222.40,9.4527,-3.3183,3.0725,-0.1863,-0.7062,-1.5656,rough,14.0,0,4.280
6960,222.72,9.4528,-3.3183,3.0724,-0.1862,-0.7062,-1.5656,rough,14.0,0,4.280
6970,223.04,9.4529,-3.3182,3.0724,-0.1861,-0.7062,-1.5656,rough,14.0,0,4.280
6980,223.36,9.4530,-3.3182,3.0724,-0.1860,-0.7062,-1.5656,rough,14.0,0,4.281
6990,223.68,9.4531,-3.3182,3.0723,-0.1859,-0.7062,-1.5656,rough,14.0,0,4.281
7000,224.00,9.4532,-3.3182,3.0723,-0.1858,-0.7062,-1.5656,rough,14.0,0,4.281
7010,224.32,9.4532,-3.3182,3.0723,-0.1857,-0.7062,-1.5656,rough,14.0,0,4.281
7020,224.64,9.4533,-3.3182,3.0722,-0.1856,-0.7061,-1.5656,rough,14.0,0,4.281
7030,224.96,9.4534,-3.3182,3.0722,-0.1856,-0.7061,-1.5656,rough,14.0,0,4.281
7040,225.28,9.4535,-3.3182,3.0721,-0.1855,-0.7061,-1.5656,rough,14.0,0,4.281
7050,225.60,9.4536,-3.3182,3.0721,-0.1854,-0.7061,-1.5656,rough,14.0,0,4.281
7060,225.92,9.4537,-3.3182,3.0721,-0.1853,-0.7061,-1.5656,rough,14.0,0,4.281
7070,226.24,9.4538,-3.3181,3.0720,-0.1852,-0.7061,-1.5656,rough,14.0,0,4.281
7080,226.56,9.4539,-3.3181,3.0720,-0.1851,-0.7061,-1.5656,rough,14.0,0,4.281
7090,226.88,9.4540,-3.3181,3.0720,-0.1850,-0.7061,-1.5656,rough,14.0,0,4.282
7100,227.20,9.4540,-3.3181,3.0719,-0.1849,-0.7060,-1.5657,rough,14.0,0,4.282
7110,227.52,9.4541,-3.3181,3.0719,-0.1849,-0.7060,-1.5657,rough,14.0,0,4.282
7120,227.84,9.4542,-3.3181,3.0718,-0.1848,-0.7060,-1.5657,rough,14.0,0,4.282
7130,228.16,9.4543,-3.3181,3.0718,-0.1847,-0.7060,-1.5657,rough,14.0,0,4.282
7140,228.48,9.4544,-3.3181,3.0718,-0.1846,-0.7060,-1.5657,rough,14.0,0,4.282
7150,228.80,9.4545,-3.3181,3.0717,-0.1845,-0.7060,-1.5657,rough,14.0,0,4.282
7160,229.12,9.4546,-3.3181,3.0717,-0.1844,-0.7060,-1.5657,rough,14.0,0,4.282
7170,229.44,9.4547,-3.3180,3.0717,-0.1843,-0.7059,-1.5657,rough,14.0,0,4.282
7180,229.76,9.4547,-3.3180,3.0716,-0.1842,-0.7059,-1.5657,rough,14.0,0,4.282
7190,230.08,9.4548,-3.3180,3.0716,-0.1842,-0.7059,-1.5657,rough,14.0,0,4.282
7200,230.40,9.4549,-3.3180,3.0715,-0.1841,-0.7059,-1.5657,rough,14.0,0,4.282
7210,230.72,9.4550,-3.3180,3.0715,-0.1840,-0.7059,-1.5657,rough,14.0,0,4.283
7220,231.04,9.4551,-3.3180,3.0715,-0.1839,-0.7059,-1.5657,rough,14.0,0,4.283
7230,231.36,9.4552,-3.3180,3.0714,-0.1838,-0.7059,-1.5657,rough,14.0,0,4.283
7240,231.68,9.4553,-3.3180,3.0714,-0.1837,-0.7059,-1.5657,rough,14.0,0,4.283
7250,232.00,9.4554,-3.3180,3.0714,-0.1836,-0.7058,-1.5657,rough,14.0,0,4.283
7260,232.32,9.4555,-3.3180,3.0713,-0.1835,-0.7058,-1.5657,rough,14.0,0,4.283
7270,232.64,9.4555,-3.3179,3.0713,-0.1835,-0.7058,-1.5657,rough,14.0,0,4.283
7280,232.96,9.4556,-3.3179,3.0712,-0.1834,-0.7058,-1.5657,rough,14.0,0,4.283
7290,233.28,9.4557,-3.3179,3.0712,-0.1833,-0.7058,-1.5658,rough,14.0,0,4.283
7300,233.60,9.4558,-3.3179,3.0712,-0.1832,-0.7058,-1.5658,rough,14.0,0,4.283
7310,233.92,9.4559,-3.3179,3.0711,-0.1831,-0.7058,-1.5658,rough,14.0,0,4.283
7320,234.24,9.4560,-3.3179,3.0711,-0.1830,-0.7057,-1.5658,rough,14.0,0,4.284
7330,234.56,9.4561,-3.3179,3.0711,-0.1829,-0.7057,-1.5658,rough,14.0,0,4.284
7340,234.88,9.4562,-3.3179,3.0710,-0.1828,-0.7057,-1.5658,rough,14.0,0,4.284
7350,235.20,9.4563,-3.3179,3.0710,-0.1827,-0.7057,-1.5658,rough,14.0,0,4.284
7360,235.52,9.4563,-3.3179,3.0709,-0.1827,-0.7057,-1.5658,rough,14.0,0,4.284
7370,235.84,9.4564,-3.3178,3.0709,-0.1826,-0.7057,-1.5658,rough,14.0,0,4.284
7380,236.16,9.4565,-3.3178,3.0709,-0.1825,-0.7057,-1.5658,rough,14.0,0,4.284
7390,236.48,9.4566,-3.3178,3.0708,-0.1824,-0.7057,-1.5658,rough,14.0,0,4.284
7400,236.80,9.4567,-3.3178,3.0708,-0.1823,-0.7056,-1.5658,rough,14.0,0,4.284
7410,237.12,9.4568,-3.3178,3.0708,-0.1822,-0.7056,-1.5658,rough,14.0,0,4.284
7420,237.44,9.4569,-3.3178,3.0707,-0.1821,-0.7056,-1.5658,rough,14.0,0,4.284
7430,237.76,9.4570,-3.3178,3.0707,-0.1820,-0.7056,-1.5658,rough,14.0,0,4.285
7440,238.08,9.4571,-3.3178,3.0706,-0.1820,-0.7056,-1.5658,rough,14.0,0,4.285
7450,238.40,9.4571,-3.3178,3.0706,-0.1819,-0.7056,-1.5658,rough,14.0,0,4.285
7460,238.72,9.4572,-3.3177,3.0706,-0.1818,-0.7056,-1.5658,rough,14.0,0,4.285
7470,239.04,9.4573,-3.3177,3.0705,-0.1817,-0.7055,-1.5659,rough,14.0,0,4.285
7480,239.36,9.4574,-3.3177,3.0705,-0.1816,-0.7055,-1.5659,rough,14.0,0,4.285
7490,239.68,9.4575,-3.3177,3.0705,-0.1815,-0.7055,-1.5659,rough,14.0,0,4.285
7500,240.00,9.4576,-3.3177,3.0704,-0.1814,-0.7055,-1.5659,rough,14.0,0,4.285
7510,240.32,9.4577,-3.3177,3.0704,-0.1813,-0.7055,-1.5659,rough,14.0,0,4.285
7520,240.64,9.4578,-3.3177,3.0703,-0.1813,-0.7055,-1.5659,rough,14.0,0,4.285
7530,240.96,9.4579,-3.3177,3.0703,-0.1812,-0.7055,-1.5659,rough,14.0,0,4.285
7540,241.28,9.4579,-3.3177,3.0703,-0.1811,-0.7055,-1.5659,rough,14.0,0,4.285
7550,241.60,9.4580,-3.3177,3.0702,-0.1810,-0.7054,-1.5659,rough,14.0,0,4.286
7560,241.92,9.4581,-3.3176,3.0702,-0.1809,-0.7054,-1.5659,rough,14.0,0,4.286
7570,242.24,9.4582,-3.3176,3.0702,-0.1808,-0.7054,-1.5659,rough,14.0,0,4.286
7580,242.56,9.4583,-3.3176,3.0701,-0.1807,-0.7054,-1.5659,rough,14.0,0,4.286
7590,242.88,9.4584,-3.3176,3.0701,-0.1806,-0.7054,-1.5659,rough,14.0,0,4.286
7600,243.20,9.4585,-3.3176,3.0700,-0.1806,-0.7054,-1.5659,rough,14.0,0,4.286
7610,243.52,9.4586,-3.3176,3.0700,-0.1805,-0.7054,-1.5659,rough,14.0,0,4.286
7620,243.84,9.4587,-3.3176,3.0700,-0.1804,-0.7053,-1.5659,rough,14.0,0,4.286
7630,244.16,9.4587,-3.3176,3.0699,-0.1803,-0.7053,-1.5659,rough,14.0,0,4.286
7640,244.48,9.4588,-3.3176,3.0699,-0.1802,-0.7053,-1.5659,rough,14.0,0,4.286
7650,244.80,9.4589,-3.3176,3.0698,-0.1801,-0.7053,-1.5659,rough,14.0,0,4.286
7660,245.12,9.4590,-3.3175,3.0698,-0.1800,-0.7053,-1.5660,rough,14.0,0,4.287
7670,245.44,9.4591,-3.3175,3.0698,-0.1799,-0.7053,-1.5660,rough,14.0,0,4.287
7680,245.76,9.4592,-3.3175,3.0697,-0.1798,-0.7053,-1.5660,rough,14.0,0,4.287
7690,246.08,9.4593,-3.3175,3.0697,-0.1798,-0.7053,-1.5660,rough,14.0,0,4.287
7700,246.40,9.4594,-3.3175,3.0697,-0.1797,-0.7052,-1.5660,rough,14.0,0,4.287
7710,246.72,9.4595,-3.3175,3.0696,-0.1796,-0.7052,-1.5660,rough,14.0,0,4.287
7720,247.04,9.4596,-3.3175,3.0696,-0.1795,-0.7052,-1.5660,rough,14.0,0,4.287
7730,247.36,9.4596,-3.3175,3.0695,-0.1794,-0.7052,-1.5660,rough,14.0,0,4.287
7740,247.68,9.4597,-3.3175,3.0695,-0.1793,-0.7052,-1.5660,rough,14.0,0,4.287
7750,248.00,9.4598,-3.3175,3.0695,-0.1792,-0.7052,-1.5660,rough,14.0,0,4.287
7760,248.32,9.4599,-3.3174,3.0694,-0.1791,-0.7052,-1.5660,rough,14.0,0,4.287
7770,248.64,9.4600,-3.3174,3.0694,-0.1791,-0.7051,-1.5660,rough,14.0,0,4.288
7780,248.96,9.4601,-3.3174,3.0694,-0.1790,-0.7051,-1.5660,rough,14.0,0,4.288
7790,249.28,9.4602,-3.3174,3.0693,-0.1789,-0.7051,-1.5660,rough,14.0,0,4.288
7800,249.60,9.4603,-3.3174,3.0693,-0.1788,-0.7051,-1.5660,rough,14.0,0,4.288
7810,249.92,9.4604,-3.3174,3.0692,-0.1787,-0.7051,-1.5660,rough,14.0,0,4.288
7820,250.24,9.4604,-3.3174,3.0692,-0.1786,-0.7051,-1.5660,rough,14.0,0,4.288
7830,250.56,9.4605,-3.3174,3.0692,-0.1785,-0.7051,-1.5660,rough,14.0,0,4.288
7840,250.88,9.4606,-3.3174,3.0691,-0.1784,-0.7051,-1.5660,rough,14.0,0,4.288
7850,251.20,9.4607,-3.3174,3.0691,-0.1783,-0.7050,-1.5661,rough,14.0,0,4.288
