step,time_s,x,y,z,roll,pitch,yaw,terrain,speed,target_idx,dist_to_target
10,0.32,-0.0107,-0.0578,0.2045,0.0000,-0.0141,-0.0000,slope,18.0,0,5.407
20,0.64,0.2386,-0.0581,0.2244,-0.0003,-0.0788,-0.0170,slope,18.0,0,5.213
30,0.96,0.5588,-0.0730,0.2560,0.0154,-0.1166,-0.1406,slope,18.0,0,4.962
40,1.28,0.9117,-0.1660,0.3170,0.0629,-0.2027,-0.3490,slope,18.0,0,4.641
50,1.60,1.2707,-0.3517,0.4156,0.1064,-0.2728,-0.5697,slope,18.0,0,4.256
60,1.92,1.5930,-0.6331,0.5382,0.1849,-0.3101,-0.7566,slope,18.0,0,3.830
70,2.24,1.8950,-0.9927,0.6826,0.2431,-0.3143,-0.8916,slope,18.0,0,3.362
80,2.56,2.1975,-1.4067,0.8532,0.2720,-0.3264,-0.9520,slope,18.0,0,2.855
90,2.88,2.5104,-1.8424,1.0274,0.2664,-0.3286,-0.9167,slope,18.0,0,2.328
100,3.20,2.8139,-2.2350,1.1812,0.2547,-0.3089,-0.8384,slope,18.0,0,1.841
110,3.52,3.1087,-2.5570,1.3174,0.2402,-0.2955,-0.7701,slope,18.0,0,1.410
120,3.84,3.3608,-2.8007,1.4216,0.2295,-0.2966,-0.7035,slope,18.0,0,1.063
130,4.16,3.6187,-3.0459,1.5214,0.2682,-0.2429,-0.8396,slope,18.0,1,6.850
140,4.48,3.7846,-3.3882,1.5816,0.3416,-0.1063,-1.2410,slope,18.0,1,6.698
150,4.80,3.7754,-3.8029,1.5707,0.3494,0.0686,-1.7026,slope,18.0,1,6.391
160,5.12,3.5890,-4.2409,1.4905,0.2973,0.1949,-2.0517,slope,18.0,1,5.950
170,5.44,3.3001,-4.6288,1.3711,0.2453,0.2632,-2.2841,slope,18.0,1,5.474
180,5.76,2.9266,-4.9675,1.2162,0.2169,0.3009,-2.4297,slope,18.0,1,4.970
190,6.08,2.5209,-5.2787,1.0550,0.1605,0.3265,-2.5524,slope,18.0,1,4.461
200,6.40,2.0686,-5.5552,0.8747,0.1435,0.3294,-2.6030,slope,18.0,1,3.945
210,6.72,1.6038,-5.8299,0.6903,0.1430,0.3275,-2.6015,slope,18.0,1,3.425
220,7.04,1.1530,-6.1115,0.5123,0.1572,0.3179,-2.5530,slope,18.0,1,2.916
230,7.36,0.7445,-6.4134,0.3513,0.1977,0.2911,-2.4264,slope,18.0,1,2.426
240,7.68,0.3684,-6.7607,0.2069,0.2034,0.2526,-2.3259,rough,14.0,1,1.924
250,8.00,0.1002,-7.0673,0.1299,0.1392,0.1806,-2.2132,slope,18.0,1,1.521
260,8.32,-0.1398,-7.4218,0.0775,0.0991,0.0900,-2.0884,slope,18.0,1,1.093
270,8.64,-0.3432,-7.8182,0.0578,0.0478,0.0213,-2.0168,slope,18.0,2,4.868
280,8.96,-0.5306,-8.2051,0.0454,-0.0182,-0.0086,-2.0730,transition,15.0,2,5.077
290,9.28,-0.7198,-8.5165,0.0448,0.0163,-0.0219,-2.1602,flat,18.0,2,5.247
300,9.60,-0.9055,-8.7803,0.0566,-0.0097,-0.0242,-2.2954,flat,18.0,2,5.394
310,9.92,-1.0908,-8.9919,0.0638,-0.0042,-0.0283,-2.4518,flat,18.0,2,5.509
320,10.24,-1.2796,-9.1228,0.0705,0.0004,-0.0302,-2.6002,flat,18.0,2,5.558
330,10.56,-1.4596,-9.2152,0.0768,0.0051,-0.0326,-2.7600,flat,18.0,2,5.584
340,10.88,-1.6260,-9.2857,0.0828,0.0118,-0.0310,-2.9694,flat,18.0,2,5.599
350,11.20,-1.7906,-9.3106,0.0880,0.0134,-0.0308,-3.0360,flat,18.0,2,5.576
360,11.52,-1.9418,-9.3158,0.0926,0.0186,-0.0299,3.0648,flat,18.0,2,5.543
370,11.84,-2.0988,-9.3028,0.0974,0.0223,-0.0260,2.8664,flat,18.0,2,5.494
380,12.16,-2.2521,-9.2657,0.1018,0.0262,-0.0243,2.7127,flat,18.0,2,5.427
390,12.48,-2.4072,-9.1915,0.1060,0.0279,-0.0238,2.5977,flat,18.0,2,5.326
400,12.80,-2.5706,-9.0859,0.1108,0.0303,-0.0232,2.4901,flat,18.0,2,5.198
410,13.12,-2.7441,-8.9462,0.1160,0.0314,-0.0230,2.4005,flat,18.0,2,5.038
420,13.44,-2.9308,-8.7644,0.1222,0.0323,-0.0243,2.3291,flat,18.0,2,4.840
430,13.76,-3.1355,-8.5341,0.1298,0.0333,-0.0251,2.2705,flat,18.0,2,4.599
440,14.08,-3.3651,-8.2484,0.1392,0.0340,-0.0265,2.2275,flat,18.0,2,4.312
450,14.40,-3.6265,-7.8983,0.1509,0.0343,-0.0275,2.1980,flat,18.0,2,3.976
460,14.72,-3.9322,-7.4709,0.1648,0.0339,-0.0262,2.1878,flat,18.0,2,3.593
470,15.04,-4.2252,-7.0214,0.1777,0.0334,-0.0210,2.0950,flat,18.0,2,3.226
480,15.36,-4.4646,-6.5531,0.1864,0.0316,-0.0120,1.9981,flat,18.0,2,2.871
490,15.68,-4.6548,-6.0685,0.1903,0.0275,-0.0038,1.8952,flat,18.0,2,2.536
500,16.00,-4.7890,-5.5659,0.1912,0.0233,0.0022,1.7923,flat,18.0,2,2.220
510,16.32,-4.8857,-5.0726,0.1875,0.0186,0.0143,1.6566,flat,18.0,2,1.966
520,16.64,-4.9088,-4.6316,0.1831,-0.0007,0.0089,1.3357,flat,18.0,2,1.770
530,16.96,-4.8047,-4.2471,0.1797,-0.0061,0.0076,1.0772,flat,18.0,2,1.555
540,17.28,-4.6352,-3.9427,0.1783,-0.0102,0.0001,0.8658,flat,18.0,2,1.354
550,17.60,-4.3957,-3.6832,0.1792,-0.0079,-0.0060,0.7273,flat,18.0,2,1.143
560,17.92,-4.1639,-3.5001,0.1821,-0.0056,-0.0115,0.5618,flat,18.0,3,10.065
570,18.24,-3.8854,-3.3408,0.1867,-0.0040,-0.0170,0.5886,flat,18.0,3,9.828
580,18.56,-3.5659,-3.0798,0.1945,-0.0078,-0.0219,0.8744,flat,18.0,3,9.486
590,18.88,-3.2981,-2.6872,0.2046,-0.0132,-0.0238,1.1521,flat,18.0,3,9.036
600,19.20,-3.1097,-2.2055,0.2147,-0.0218,-0.0143,1.3788,flat,18.0,3,8.522
610,19.52,-3.0232,-1.6666,0.2210,-0.0247,-0.0068,1.5031,flat,18.0,3,7.979
620,19.84,-2.9898,-1.0961,0.2231,-0.0243,0.0040,1.5139,flat,18.0,3,7.420
630,20.16,-2.9546,-0.5379,0.2250,-0.0246,-0.0029,1.4565,flat,18.0,3,6.875
640,20.48,-2.8858,0.0089,0.2252,-0.0196,0.0005,1.4350,flat,18.0,3,6.332
650,20.80,-2.8065,0.5466,0.2246,-0.0164,0.0016,1.4037,flat,18.0,3,5.797
660,21.12,-2.7095,1.0876,0.2232,-0.0166,0.0006,1.3473,flat,18.0,3,5.254
670,21.44,-2.5814,1.6147,0.2205,-0.0153,0.0059,1.2518,flat,18.0,3,4.714
680,21.76,-2.3931,2.1338,0.2150,-0.0195,0.0087,1.1810,flat,18.0,3,4.162
690,22.08,-2.1704,2.6549,0.2063,-0.0155,0.0181,1.1476,flat,18.0,3,3.596
700,22.40,-1.9330,3.1569,0.1884,-0.0316,0.0247,1.0993,flat,18.0,3,3.044
710,22.72,-1.6777,3.6412,0.1764,-0.0179,0.0342,1.0713,flat,18.0,3,2.505
720,23.04,-1.4317,4.0591,0.1588,-0.0215,0.0379,0.9940,flat,18.0,3,2.037
730,23.36,-1.1964,4.4627,0.1392,-0.0122,0.0451,1.0834,flat,18.0,3,1.596
740,23.68,-1.0186,4.8378,0.1205,-0.0083,0.0441,1.1245,flat,18.0,3,1.204
750,24.00,-0.8527,5.1761,0.1041,-0.0104,0.0427,1.0286,transition,15.0,0,9.977
760,24.32,-0.6985,5.4305,0.0915,-0.0224,0.0359,0.6851,slope,18.0,0,10.121
770,24.64,-0.5327,5.5207,0.0855,-0.0380,0.0163,0.0844,slope,18.0,0,10.120
780,24.96,-0.3792,5.5729,0.0917,-0.0386,-0.0787,-0.5378,slope,18.0,0,10.095
790,25.28,-0.2771,5.4234,0.1075,-0.0044,-0.1323,-0.9443,slope,18.0,0,9.916
800,25.60,-0.1830,5.0550,0.1283,0.0989,-0.0814,-1.3572,slope,18.0,0,9.545
810,25.92,-0.1211,4.7265,0.1482,0.1862,-0.0485,-1.8346,slope,18.0,0,9.226
820,26.24,-0.1240,4.7399,0.1493,0.1760,-0.0528,-1.7923,slope,18.0,0,9.239
830,26.56,-0.1715,4.7622,0.1427,0.1364,-0.0466,-1.6485,slope,18.0,0,9.281
840,26.88,-0.1906,4.7665,0.1410,0.1222,-0.0497,-1.6028,slope,18.0,0,9.294
850,27.20,-0.1984,4.7679,0.1401,0.1162,-0.0502,-1.5845,slope,18.0,0,9.299
860,27.52,-0.2019,4.7684,0.1398,0.1140,-0.0506,-1.5774,slope,18.0,0,9.301
870,27.84,-0.2038,4.7686,0.1396,0.1130,-0.0507,-1.5752,slope,18.0,0,9.302
880,28.16,-0.2052,4.7686,0.1395,0.1124,-0.0506,-1.5756,slope,18.0,0,9.303
890,28.48,-0.2067,4.7686,0.1394,0.1117,-0.0506,-1.5757,slope,18.0,0,9.304
900,28.80,-0.2083,4.7686,0.1393,0.1109,-0.0507,-1.5751,slope,18.0,0,9.304
910,29.12,-0.2099,4.7686,0.1391,0.1102,-0.0506,-1.5757,slope,18.0,0,9.305
920,29.44,-0.2116,4.7686,0.1390,0.1094,-0.0506,-1.5757,slope,18.0,0,9.306
930,29.76,-0.2134,4.7685,0.1389,0.1086,-0.0505,-1.5763,slope,18.0,0,9.307
940,30.08,-0.2152,4.7685,0.1387,0.1077,-0.0505,-1.5761,slope,18.0,0,9.308
950,30.40,-0.2171,4.7685,0.1386,0.1069,-0.0505,-1.5767,slope,18.0,0,9.309
960,30.72,-0.2191,4.7685,0.1384,0.1059,-0.0505,-1.5763,slope,18.0,0,9.309
970,31.04,-0.2211,4.7685,0.1383,0.1050,-0.0505,-1.5766,slope,18.0,0,9.310
980,31.36,-0.2232,4.7685,0.1381,0.1040,-0.0504,-1.5768,slope,18.0,0,9.311
990,31.68,-0.2254,4.7685,0.1379,0.1030,-0.0504,-1.5770,slope,18.0,0,9.312
1000,32.00,-0.2277,4.7685,0.1377,0.1019,-0.0504,-1.5772,slope,18.0,0,9.314
1010,32.32,-0.2300,4.7684,0.1375,0.1008,-0.0504,-1.5773,slope,18.0,0,9.315
1020,32.64,-0.2325,4.7684,0.1373,0.0997,-0.0503,-1.5782,slope,18.0,0,9.316
1030,32.96,-0.2350,4.7684,0.1371,0.0985,-0.0503,-1.5780,slope,18.0,0,9.317
1040,33.28,-0.2376,4.7684,0.1369,0.0973,-0.0503,-1.5780,slope,18.0,0,9.318
1050,33.60,-0.2403,4.7684,0.1367,0.0961,-0.0502,-1.5790,slope,18.0,0,9.320
1060,33.92,-0.2430,4.7684,0.1365,0.0948,-0.0502,-1.5786,slope,18.0,0,9.321
1070,34.24,-0.2459,4.7684,0.1363,0.0935,-0.0501,-1.5795,slope,18.0,0,9.322
1080,34.56,-0.2489,4.7684,0.1360,0.0920,-0.0501,-1.5790,slope,18.0,0,9.324
1090,34.88,-0.2520,4.7684,0.1358,0.0906,-0.0501,-1.5794,slope,18.0,0,9.325
1100,35.20,-0.2552,4.7684,0.1355,0.0892,-0.0500,-1.5804,slope,18.0,0,9.327
1110,35.52,-0.2585,4.7684,0.1352,0.0876,-0.0499,-1.5807,slope,18.0,0,9.328
1120,35.84,-0.2619,4.7684,0.1350,0.0861,-0.0499,-1.5810,slope,18.0,0,9.330
1130,36.16,-0.2653,4.7691,0.1347,0.0843,-0.0500,-1.5794,slope,18.0,0,9.332
1140,36.48,-0.2684,4.7698,0.1344,0.0828,-0.0500,-1.5794,slope,18.0,0,9.334
1150,36.80,-0.2716,4.7703,0.1341,0.0813,-0.0500,-1.5792,slope,18.0,0,9.336
1160,37.12,-0.2746,4.7709,0.1338,0.0799,-0.0500,-1.5789,slope,18.0,0,9.338
1170,37.44,-0.2780,4.7717,0.1335,0.0783,-0.0499,-1.5798,slope,18.0,1,13.132
1180,37.76,-0.2818,4.7724,0.1332,0.0765,-0.0499,-1.5796,slope,18.0,1,13.133
1190,38.08,-0.2855,4.7730,0.1328,0.0748,-0.0499,-1.5794,slope,18.0,1,13.133
1200,38.40,-0.2890,4.7737,0.1325,0.0731,-0.0499,-1.5791,slope,18.0,1,13.134
1210,38.72,-0.2923,4.7742,0.1322,0.0714,-0.0501,-1.5781,slope,18.0,1,13.134
1220,39.04,-0.2955,4.7748,0.1319,0.0700,-0.0500,-1.5778,slope,18.0,1,13.135
1230,39.36,-0.2983,4.7752,0.1317,0.0686,-0.0501,-1.5771,slope,18.0,1,13.135
1240,39.68,-0.3010,4.7757,0.1314,0.0673,-0.0501,-1.5769,slope,18.0,1,13.135
1250,40.00,-0.3035,4.7762,0.1312,0.0661,-0.0502,-1.5763,slope,18.0,1,13.136
1260,40.32,-0.3057,4.7766,0.1310,0.0651,-0.0502,-1.5761,slope,18.0,1,13.136
1270,40.64,-0.3078,4.7770,0.1308,0.0641,-0.0501,-1.5763,slope,18.0,1,13.136
1280,40.96,-0.3099,4.7774,0.1306,0.0630,-0.0502,-1.5763,slope,18.0,1,13.137
1290,41.28,-0.3121,4.7779,0.1304,0.0620,-0.0502,-1.5764,slope,18.0,1,13.137
1300,41.60,-0.3139,4.7780,0.1302,0.0610,-0.0504,-1.5751,slope,18.0,1,13.137
1310,41.92,-0.3151,4.7780,0.1302,0.0603,-0.0506,-1.5736,slope,18.0,1,13.137
1320,42.24,-0.3158,4.7780,0.1301,0.0598,-0.0508,-1.5724,slope,18.0,1,13.137
1330,42.56,-0.3162,4.7780,0.1301,0.0595,-0.0510,-1.5717,slope,18.0,1,13.137
1340,42.88,-0.3164,4.7779,0.1301,0.0594,-0.0510,-1.5712,slope,18.0,1,13.137
1350,43.20,-0.3165,4.7779,0.1301,0.0593,-0.0511,-1.5707,slope,18.0,1,13.137
1360,43.52,-0.3163,4.7778,0.1301,0.0593,-0.0512,-1.5700,slope,18.0,1,13.137
1370,43.84,-0.3157,4.7775,0.1302,0.0595,-0.0514,-1.5690,slope,18.0,1,13.137
1380,44.16,-0.3145,4.7771,0.1303,0.0599,-0.0517,-1.5673,slope,18.0,1,13.136
1390,44.48,-0.3125,4.7764,0.1306,0.0606,-0.0521,-1.5647,slope,18.0,1,13.136
1400,44.80,-0.3090,4.7752,0.1309,0.0619,-0.0525,-1.5608,slope,18.0,1,13.135
1410,45.12,-0.3035,4.7733,0.1315,0.0641,-0.0530,-1.5549,slope,18.0,1,13.133
1420,45.44,-0.2948,4.7706,0.1324,0.0675,-0.0540,-1.5458,slope,18.0,1,13.130
1430,45.76,-0.2812,4.7690,0.1338,0.0724,-0.0562,-1.5315,slope,18.0,1,13.129
1440,46.08,-0.2594,4.7704,0.1357,0.0799,-0.0602,-1.5072,slope,18.0,1,13.131
1450,46.40,-0.2306,4.7731,0.1381,0.0923,-0.0618,-1.4987,slope,18.0,1,13.135
1460,46.72,-0.2132,4.7722,0.1393,0.1029,-0.0584,-1.5276,slope,18.0,1,13.135
1470,47.04,-0.2017,4.7715,0.1401,0.1101,-0.0563,-1.5426,slope,18.0,1,13.135
1480,47.36,-0.1960,4.7703,0.1404,0.1146,-0.0537,-1.5583,slope,18.0,1,13.134
1490,47.68,-0.1930,4.7699,0.1406,0.1168,-0.0528,-1.5633,slope,18.0,1,13.133
1500,48.00,-0.1908,4.7697,0.1407,0.1181,-0.0523,-1.5662,slope,18.0,1,13.133
1510,48.32,-0.1899,4.7694,0.1408,0.1189,-0.0518,-1.5692,slope,18.0,1,13.133
1520,48.64,-0.1894,4.7693,0.1408,0.1193,-0.0516,-1.5703,slope,18.0,1,13.133
1530,48.96,-0.1893,4.7692,0.1408,0.1194,-0.0514,-1.5714,slope,18.0,2,9.239
1540,49.28,-0.1899,4.7690,0.1407,0.1193,-0.0511,-1.5732,slope,18.0,2,9.239
1550,49.60,-0.1914,4.7688,0.1406,0.1188,-0.0507,-1.5757,slope,18.0,2,9.238
1560,49.92,-0.1934,4.7686,0.1404,0.1179,-0.0507,-1.5757,slope,18.0,2,9.237
1570,50.24,-0.1955,4.7686,0.1403,0.1169,-0.0508,-1.5756,slope,18.0,2,9.236
1580,50.56,-0.1976,4.7685,0.1401,0.1159,-0.0507,-1.5758,slope,18.0,2,9.236
1590,50.88,-0.1999,4.7685,0.1399,0.1149,-0.0506,-1.5764,slope,18.0,2,9.235
1600,51.20,-0.2022,4.7685,0.1397,0.1138,-0.0506,-1.5765,slope,18.0,2,9.234
1610,51.52,-0.2047,4.7685,0.1396,0.1127,-0.0506,-1.5769,slope,18.0,2,9.233
1620,51.84,-0.2073,4.7685,0.1393,0.1115,-0.0505,-1.5773,slope,18.0,2,9.232
1630,52.16,-0.2100,4.7684,0.1391,0.1102,-0.0505,-1.5776,slope,18.0,2,9.231
1640,52.48,-0.2129,4.7684,0.1389,0.1089,-0.0505,-1.5778,slope,18.0,2,9.230
1650,52.80,-0.2159,4.7684,0.1387,0.1074,-0.0505,-1.5779,slope,18.0,2,9.229
1660,53.12,-0.2191,4.7684,0.1384,0.1060,-0.0504,-1.5785,slope,18.0,2,9.228
1670,53.44,-0.2224,4.7684,0.1382,0.1044,-0.0504,-1.5784,slope,18.0,2,9.227
1680,53.76,-0.2259,4.7684,0.1379,0.1028,-0.0503,-1.5788,slope,18.0,2,9.226
1690,54.08,-0.2295,4.7683,0.1376,0.1011,-0.0503,-1.5792,slope,18.0,2,9.225
1700,54.40,-0.2333,4.7683,0.1373,0.0994,-0.0502,-1.5795,slope,18.0,2,9.224
1710,54.72,-0.2371,4.7683,0.1370,0.0976,-0.0502,-1.5797,slope,18.0,2,9.222
1720,55.04,-0.2412,4.7683,0.1367,0.0957,-0.0501,-1.5807,slope,18.0,2,9.221
1730,55.36,-0.2454,4.7683,0.1363,0.0938,-0.0500,-1.5808,slope,18.0,2,9.220
1740,55.68,-0.2498,4.7683,0.1360,0.0917,-0.0501,-1.5807,slope,18.0,2,9.218
1750,56.00,-0.2543,4.7684,0.1356,0.0896,-0.0499,-1.5815,slope,18.0,2,9.217
1760,56.32,-0.2590,4.7684,0.1352,0.0874,-0.0500,-1.5813,slope,18.0,2,9.215
1770,56.64,-0.2637,4.7691,0.1348,0.0852,-0.0498,-1.5818,slope,18.0,2,9.214
1780,56.96,-0.2682,4.7699,0.1344,0.0830,-0.0499,-1.5810,slope,18.0,2,9.214
1790,57.28,-0.2725,4.7707,0.1340,0.0809,-0.0500,-1.5803,slope,18.0,2,9.213
1800,57.60,-0.2766,4.7714,0.1336,0.0790,-0.0499,-1.5802,slope,18.0,2,9.212
1810,57.92,-0.2806,4.7721,0.1333,0.0770,-0.0500,-1.5793,slope,18.0,2,9.212
1820,58.24,-0.2843,4.7728,0.1329,0.0753,-0.0500,-1.5791,slope,18.0,2,9.211
1830,58.56,-0.2879,4.7734,0.1326,0.0736,-0.0500,-1.5788,slope,18.0,2,9.210
1840,58.88,-0.2913,4.7741,0.1323,0.0719,-0.0500,-1.5785,slope,18.0,2,9.210
1850,59.20,-0.2945,4.7747,0.1320,0.0705,-0.0500,-1.5783,slope,18.0,2,9.209
1860,59.52,-0.2975,4.7751,0.1317,0.0690,-0.0501,-1.5775,slope,18.0,2,9.209
1870,59.84,-0.3003,4.7756,0.1315,0.0676,-0.0501,-1.5768,slope,18.0,2,9.208
1880,60.16,-0.3028,4.7761,0.1312,0.0665,-0.0501,-1.5767,slope,18.0,2,9.208
1890,60.48,-0.3052,4.7765,0.1310,0.0653,-0.0502,-1.5761,slope,18.0,2,9.208
1900,60.80,-0.3070,4.7768,0.1309,0.0645,-0.0501,-1.5760,slope,18.0,3,1.422
1910,61.12,-0.3078,4.7769,0.1308,0.0641,-0.0501,-1.5760,slope,18.0,3,1.421
1920,61.44,-0.3184,4.8094,0.1292,0.0635,-0.0420,-1.6696,slope,18.0,3,1.387
1930,61.76,-0.3494,4.9137,0.1249,0.0979,-0.0423,-2.2255,slope,18.0,3,1.281
1940,62.08,-0.4161,4.8869,0.1153,0.0616,-0.0202,-2.8921,slope,18.0,3,1.275
1950,62.40,-0.5556,4.8740,0.1141,0.0464,-0.0109,-3.1187,flat,18.0,3,1.234
1960,62.72,-0.7961,4.9265,0.1140,0.0466,0.0049,2.7781,flat,18.0,3,1.126
1970,63.04,-1.0663,5.0544,0.1119,0.0411,0.0147,2.4763,flat,18.0,0,0.992
1980,63.36,-1.2800,5.2357,0.1080,0.0400,0.0081,2.5540,flat,18.0,0,10.252
1990,63.68,-1.5007,5.4028,0.1060,0.0353,-0.0199,3.0840,flat,18.0,0,10.512
2000,64.00,-1.8491,5.3803,0.1120,0.0146,-0.0224,-2.5906,flat,18.0,0,10.687
2010,64.32,-2.2602,5.0814,0.1314,0.0088,-0.0328,-2.4258,flat,18.0,0,10.688
2020,64.64,-2.6515,4.7207,0.1467,0.0073,-0.0302,-2.3391,flat,18.0,0,10.652
2030,64.96,-3.0078,4.3322,0.1629,0.0057,-0.0261,-2.2487,flat,18.0,0,10.599
2040,65.28,-3.3295,3.9032,0.1737,0.0040,-0.0169,-2.1652,flat,18.0,0,10.519
2050,65.60,-3.6129,3.4403,0.1762,-0.0213,-0.0137,-2.0893,flat,18.0,0,10.414
2060,65.92,-3.8718,2.9679,0.1839,0.0141,-0.0009,-2.0181,flat,18.0,0,10.312
2070,66.24,-4.0922,2.4784,0.1799,0.0198,-0.0196,-1.9524,flat,18.0,0,10.196
2080,66.56,-4.2849,1.9592,0.1799,0.0271,0.0080,-1.8961,flat,18.0,0,10.068
2090,66.88,-4.4540,1.4259,0.1748,0.0335,0.0124,-1.8643,flat,18.0,0,9.942
2100,67.20,-4.6001,0.8912,0.1680,0.0353,0.0126,-1.8154,flat,18.0,0,9.825
2110,67.52,-4.7201,0.3511,0.1622,0.0416,0.0103,-1.7496,flat,18.0,0,9.711
2120,67.84,-4.8116,-0.1985,0.1575,0.0428,0.0058,-1.7032,flat,18.0,0,9.598
2130,68.16,-4.8744,-0.7425,0.1552,0.0431,-0.0009,-1.5894,flat,18.0,0,9.491
2140,68.48,-4.8713,-1.2318,0.1565,0.0404,-0.0148,-1.3396,flat,18.0,0,9.362
2150,68.80,-4.7411,-1.6788,0.1632,0.0328,-0.0210,-1.0974,flat,18.0,0,9.140
2160,69.12,-4.5007,-2.0580,0.1731,0.0247,-0.0232,-0.8339,flat,18.0,0,8.839
2170,69.44,-4.1657,-2.3497,0.1843,0.0163,-0.0241,-0.5604,flat,18.0,0,8.466
2180,69.76,-3.7563,-2.5644,0.1947,0.0201,-0.0192,-0.3594,flat,18.0,0,8.035
2190,70.08,-3.2883,-2.7083,0.2049,0.0187,-0.0173,-0.2484,flat,18.0,0,7.555
2200,70.40,-2.7982,-2.8059,0.2130,0.0183,-0.0183,-0.0442,flat,18.0,0,7.058
2210,70.72,-2.2875,-2.8113,0.2194,0.0177,-0.0021,0.0362,flat,18.0,0,6.549
2220,71.04,-1.7786,-2.7911,0.2276,0.0189,-0.0100,0.0535,flat,18.0,0,6.045
2230,71.36,-1.2638,-2.7625,0.2326,0.0170,-0.0079,0.0585,flat,18.0,0,5.536
2240,71.68,-0.7418,-2.7313,0.2362,0.0138,-0.0060,0.0557,slope,18.0,0,5.022
2250,72.00,-0.2356,-2.7035,0.2505,0.0121,-0.0823,-0.0126,slope,18.0,0,4.525
2260,72.32,0.2712,-2.7191,0.3243,0.0062,-0.2273,-0.1013,slope,18.0,0,4.023
2270,72.64,0.7720,-2.7736,0.4662,0.0038,-0.3013,-0.1144,slope,18.0,0,3.520
2280,72.96,1.2777,-2.8314,0.6315,-0.0068,-0.3359,-0.1177,slope,18.0,0,3.012
2290,73.28,1.7851,-2.8963,0.8150,0.0008,-0.3627,-0.1286,slope,18.0,0,2.502
2300,73.60,2.2895,-2.9669,1.0079,0.0158,-0.3725,-0.1367,slope,18.0,0,1.994
2310,73.92,2.7499,-3.0345,1.1878,0.0313,-0.3712,-0.1410,slope,18.0,0,1.531
2320,74.24,3.1387,-3.0935,1.3365,0.0553,-0.3607,-0.1503,slope,18.0,0,1.140
2330,74.56,3.4587,-3.1412,1.4596,0.0608,-0.3507,-0.1797,slope,18.0,1,6.675
2340,74.88,3.6278,-3.2047,1.5247,0.1274,-0.3370,-0.3527,slope,18.0,1,6.733
2350,75.20,3.6890,-3.3152,1.5468,0.2548,-0.2556,-0.7775,slope,18.0,1,6.689
2360,75.52,3.8371,-3.5743,1.5955,0.3183,-0.1259,-1.1785,slope,18.0,1,6.598
2370,75.84,3.8613,-3.9840,1.5984,0.3514,0.0478,-1.6289,slope,18.0,1,6.325
2380,76.16,3.6881,-4.4119,1.5224,0.3044,0.1897,-2.0260,slope,18.0,1,5.907
2390,76.48,3.4399,-4.8247,1.4125,0.2566,0.2290,-2.2414,slope,18.0,1,5.449
2400,76.80,3.0982,-5.1961,1.2748,0.2040,0.3004,-2.4286,slope,18.0,1,4.948
2410,77.12,2.6828,-5.4926,1.1045,0.1835,0.3220,-2.5390,slope,18.0,1,4.439
2420,77.44,2.2428,-5.7685,0.9303,0.1373,0.3360,-2.6295,slope,18.0,1,3.926
2430,77.76,1.7718,-6.0219,0.7441,0.1286,0.3356,-2.6525,slope,18.0,1,3.406
2440,78.08,1.3042,-6.2776,0.5609,0.1394,0.3275,-2.6213,slope,18.0,1,2.894
2450,78.40,0.9051,-6.5215,0.4054,0.1541,0.3169,-2.5786,slope,18.0,1,2.443
2460,78.72,0.5011,-6.7864,0.2506,0.1812,0.2996,-2.4991,slope,18.0,1,1.981
2470,79.04,0.1706,-7.0652,0.1475,0.1290,0.2235,-2.4215,slope,18.0,1,1.561
2480,79.36,-0.0902,-7.3037,0.0798,0.1042,0.1322,-2.3697,slope,18.0,1,1.220
2490,79.68,-0.3016,-7.5159,0.0657,0.0688,0.0126,-2.2985,slope,18.0,2,4.657
2500,80.00,-0.5589,-7.8632,0.0466,-0.0259,-0.0115,-2.2047,flat,18.0,2,4.777
2510,80.32,-0.8354,-8.2214,0.0518,-0.0179,-0.0146,-2.2665,flat,18.0,2,4.933
2520,80.64,-1.0896,-8.5192,0.0589,-0.0137,-0.0222,-2.3623,flat,18.0,2,5.079
2530,80.96,-1.3286,-8.7339,0.0668,-0.0099,-0.0278,-2.4833,flat,18.0,2,5.179
2540,81.28,-1.5581,-8.9077,0.0753,-0.0042,-0.0317,-2.6480,flat,18.0,2,5.261
2550,81.60,-1.7824,-9.0249,0.0834,0.0030,-0.0334,-2.8319,flat,18.0,2,5.304
2560,81.92,-2.0229,-9.0844,0.0918,0.0047,-0.0346,-2.9039,flat,18.0,2,5.299
2570,82.24,-2.2501,-9.1274,0.0999,0.0058,-0.0355,-2.9619,flat,18.0,2,5.292
2580,82.56,-2.4711,-9.1584,0.1079,0.0062,-0.0373,-3.0080,flat,18.0,2,5.284
2590,82.88,-2.6732,-9.1805,0.1155,0.0066,-0.0372,-3.0460,flat,18.0,2,5.279
2600,83.20,-2.8545,-9.1928,0.1223,0.0119,-0.0366,3.0666,flat,18.0,2,5.273
2610,83.52,-3.0406,-9.1887,0.1294,0.0176,-0.0338,2.8592,flat,18.0,2,5.257
2620,83.84,-3.2222,-9.1412,0.1360,0.0232,-0.0328,2.6927,flat,18.0,2,5.204
2630,84.16,-3.4044,-9.0519,0.1429,0.0263,-0.0311,2.5613,flat,18.0,2,5.116
2640,84.48,-3.5931,-8.9198,0.1501,0.0288,-0.0313,2.4600,flat,18.0,2,4.992
2650,84.80,-3.7940,-8.7449,0.1583,0.0311,-0.0301,2.3774,flat,18.0,2,4.835
2660,85.12,-4.0124,-8.5216,0.1676,0.0327,-0.0295,2.3126,flat,18.0,2,4.642
2670,85.44,-4.2539,-8.2431,0.1783,0.0342,-0.0286,2.2617,flat,18.0,2,4.414
2680,85.76,-4.5270,-7.8994,0.1904,0.0353,-0.0271,2.2282,flat,18.0,2,4.154
2690,86.08,-4.8452,-7.4799,0.2032,0.0351,-0.0208,2.2152,flat,18.0,2,3.873
2700,86.40,-5.1484,-7.0440,0.2139,0.0367,-0.0140,2.1260,flat,18.0,2,3.625
2710,86.72,-5.4083,-6.5896,0.2189,0.0353,-0.0027,1.9812,flat,18.0,2,3.400
2720,87.04,-5.5919,-6.1002,0.2173,0.0312,0.0110,1.8646,flat,18.0,2,3.165
2730,87.36,-5.6953,-5.6147,0.2108,0.0218,0.0162,1.7319,flat,18.0,2,2.940
2740,87.68,-5.7443,-5.1130,0.1943,0.0352,0.0108,1.6309,flat,18.0,2,2.730
2750,88.00,-5.7525,-4.6277,0.1889,-0.0025,0.0275,1.3505,flat,18.0,2,2.566
2760,88.32,-5.6333,-4.2098,0.1759,-0.0137,0.0041,0.9763,flat,18.0,2,2.368
2770,88.64,-5.3369,-3.8489,0.1719,-0.0181,0.0059,0.7405,flat,18.0,2,2.058
2780,88.96,-4.9799,-3.5558,0.1709,-0.0187,-0.0027,0.5469,flat,18.0,2,1.741
2790,89.28,-4.6179,-3.3578,0.1753,-0.0148,-0.0173,0.3815,flat,18.0,2,1.457
2800,89.60,-4.2823,-3.2262,0.1809,-0.0045,-0.0206,0.1269,flat,18.0,2,1.228
2810,89.92,-3.9729,-3.1853,0.1861,0.0092,-0.0151,-0.1653,flat,18.0,2,1.022
