step,time_s,x,y,z,roll,pitch,yaw,terrain,speed,target_idx,dist_to_target
10,0.32,0.8085,-0.7273,0.3250,-0.0607,-0.2618,-0.2152,slope,18.0,0,5.913
20,0.64,0.9975,-0.7851,0.3655,-0.0014,-0.2394,-0.2971,slope,18.0,0,5.732
30,0.96,1.3279,-0.9096,0.4696,0.0223,-0.3286,-0.3898,slope,18.0,0,5.401
40,1.28,1.6616,-1.1056,0.6061,0.0993,-0.3771,-0.5737,slope,18.0,0,5.023
50,1.60,1.9944,-1.3847,0.7628,0.1879,-0.3525,-0.7332,slope,18.0,0,4.589
60,1.92,2.3078,-1.7313,0.9303,0.2491,-0.3372,-0.8599,slope,18.0,0,4.123
70,2.24,2.6344,-2.1367,1.1039,0.2674,-0.3081,-0.9065,slope,18.0,0,3.609
80,2.56,2.9685,-2.5743,1.2606,0.2763,-0.2688,-0.8952,slope,18.0,0,3.071
90,2.88,3.3118,-2.9981,1.4034,0.2695,-0.2515,-0.8586,slope,18.0,0,2.540
100,3.20,3.6622,-3.3963,1.5338,0.2677,-0.2567,-0.8126,slope,18.0,0,2.023
110,3.52,4.0016,-3.7466,1.6544,0.2567,-0.2382,-0.7687,slope,18.0,0,1.550
120,3.84,4.2921,-4.0285,1.7561,0.2539,-0.2488,-0.7466,slope,18.0,0,1.162
130,4.16,4.5298,-4.2577,1.8373,0.2251,-0.2701,-0.6505,slope,18.0,1,12.280
140,4.48,4.7243,-4.4237,1.9065,0.0531,-0.3539,-0.0907,slope,18.0,1,12.496
150,4.80,4.8079,-4.4684,1.9365,-0.2084,-0.2902,0.6889,slope,18.0,1,12.563
160,5.12,4.9347,-4.2680,1.9868,-0.3309,-0.1218,1.2855,slope,18.0,1,12.412
170,5.44,4.8990,-3.8517,1.9802,-0.3466,0.0436,1.7309,slope,18.0,1,12.006
180,5.76,4.7612,-3.3360,1.9384,-0.3344,0.0900,1.8574,slope,18.0,1,11.473
190,6.08,4.5686,-2.8344,1.8739,-0.3148,0.1332,1.9785,slope,18.0,1,10.936
200,6.40,4.3339,-2.3537,1.7899,-0.3113,0.1649,2.0670,slope,18.0,1,10.406
210,6.72,4.0640,-1.8909,1.6855,-0.3039,0.2309,2.1623,slope,18.0,1,9.882
220,7.04,3.7550,-1.4714,1.5513,-0.2778,0.2925,2.2906,slope,18.0,1,9.389
230,7.36,3.4035,-1.1134,1.3792,-0.2231,0.3892,2.4716,slope,18.0,1,8.947
240,7.68,2.9966,-0.8800,1.1821,-0.1713,0.4270,2.6619,slope,18.0,1,8.620
250,8.00,2.5854,-0.7081,0.9773,-0.0213,0.4501,2.9742,slope,18.0,1,8.366
260,8.32,2.1110,-0.6527,0.7509,0.0218,0.4210,3.0463,slope,18.0,1,8.235
270,8.64,1.6301,-0.6259,0.5499,0.0518,0.3570,3.0989,slope,18.0,1,8.159
280,8.96,1.2073,-0.6128,0.4100,0.0504,0.2820,3.0985,slope,18.0,1,8.125
290,9.28,0.8568,-0.6010,0.3227,0.0641,0.2207,-3.0898,slope,18.0,1,8.112
300,9.60,0.5193,-0.6152,0.2671,0.0697,0.1117,-3.0010,slope,18.0,1,8.140
310,9.92,0.0947,-0.6838,0.2277,0.0523,0.0304,-2.9727,slope,18.0,1,8.246
320,10.24,-0.4124,-0.7501,0.2122,0.0262,-0.0126,-3.1107,flat,18.0,1,8.383
330,10.56,-0.9457,-0.7510,0.2205,0.0168,-0.0129,3.0199,flat,18.0,1,8.491
340,10.88,-1.4741,-0.6780,0.2219,-0.0094,-0.0267,2.8878,flat,18.0,1,8.559
350,11.20,-1.9935,-0.5186,0.2315,0.0111,-0.0014,2.7807,flat,18.0,1,8.575
360,11.52,-2.4893,-0.3183,0.2302,-0.0050,-0.0009,2.6766,flat,18.0,1,8.578
370,11.84,-2.9749,-0.0608,0.2227,-0.0027,0.0214,2.6065,flat,18.0,1,8.559
380,12.16,-3.4308,0.2204,0.2093,-0.0186,0.0165,2.5107,flat,18.0,1,8.540
390,12.48,-3.8662,0.5499,0.1960,-0.0242,0.0301,2.4263,flat,18.0,1,8.503
400,12.80,-4.2697,0.9157,0.1806,-0.0268,0.0268,2.3437,flat,18.0,1,8.453
410,13.12,-4.6387,1.3158,0.1679,-0.0277,0.0199,2.2605,flat,18.0,1,8.389
420,13.44,-4.9724,1.7443,0.1601,-0.0305,0.0076,2.1765,flat,18.0,1,8.315
430,13.76,-5.2694,2.1990,0.1567,-0.0265,0.0048,2.0881,flat,18.0,1,8.231
440,14.08,-5.5172,2.6743,0.1594,-0.0134,-0.0166,2.0011,flat,18.0,1,8.130
450,14.40,-5.7294,3.1748,0.1699,-0.0127,-0.0208,1.9143,flat,18.0,1,8.021
460,14.72,-5.8999,3.6917,0.1836,-0.0064,-0.0324,1.7944,flat,18.0,1,7.902
470,15.04,-6.0052,4.2270,0.1987,0.0059,-0.0369,1.6880,flat,18.0,1,7.753
480,15.36,-6.0554,4.7714,0.2145,0.0161,-0.0256,1.5778,flat,18.0,1,7.586
490,15.68,-6.0402,5.3141,0.2272,0.0294,-0.0211,1.4550,flat,18.0,1,7.393
500,16.00,-5.9607,5.8589,0.2350,0.0323,0.0004,1.3688,flat,18.0,1,7.172
510,16.32,-5.8362,6.3944,0.2399,0.0379,-0.0003,1.3192,flat,18.0,1,6.945
520,16.64,-5.6849,6.9217,0.2381,0.0416,0.0064,1.2423,flat,18.0,1,6.729
530,16.96,-5.5076,7.3955,0.2331,0.0371,0.0196,1.0963,flat,18.0,1,6.527
540,17.28,-5.2494,7.7784,0.2198,0.0293,0.0432,0.8502,flat,18.0,1,6.274
550,17.60,-4.9315,8.1267,0.2073,0.0286,0.0328,0.8062,flat,18.0,1,5.982
560,17.92,-4.6454,8.4093,0.1947,0.0265,0.0323,0.7408,flat,18.0,1,5.735
570,18.24,-4.3812,8.6338,0.1837,0.0239,0.0319,0.6593,flat,18.0,1,5.516
580,18.56,-4.1356,8.8142,0.1744,0.0214,0.0308,0.5585,flat,18.0,1,5.317
590,18.88,-3.9089,8.9590,0.1661,0.0195,0.0333,0.4319,flat,18.0,1,5.136
600,19.20,-3.6928,9.0592,0.1586,0.0164,0.0319,0.2835,flat,18.0,1,4.960
610,19.52,-3.4863,9.1264,0.1520,0.0113,0.0320,0.1167,flat,18.0,1,4.786
620,19.84,-3.2889,9.1579,0.1456,0.0084,0.0332,-0.0358,flat,18.0,1,4.612
630,20.16,-3.0838,9.1510,0.1387,0.0081,0.0328,-0.1205,flat,18.0,1,4.419
640,20.48,-2.8644,9.1244,0.1313,0.0109,0.0359,-0.1429,flat,18.0,1,4.205
650,20.80,-2.6400,9.0929,0.1236,0.0110,0.0318,-0.1679,flat,18.0,1,3.987
660,21.12,-2.4095,9.0539,0.1156,0.0132,0.0349,-0.1958,flat,18.0,1,3.760
670,21.44,-2.1724,9.0075,0.1078,0.0131,0.0304,-0.2263,flat,18.0,1,3.525
680,21.76,-1.9393,8.9484,0.0997,0.0123,0.0339,-0.3063,flat,18.0,1,3.289
690,22.08,-1.6931,8.8672,0.0912,0.0107,0.0324,-0.3580,flat,18.0,1,3.033
700,22.40,-1.4431,8.7649,0.0823,0.0088,0.0331,-0.4340,flat,18.0,1,2.763
710,22.72,-1.1759,8.6379,0.0730,0.0077,0.0306,-0.4753,transition,15.0,1,2.468
720,23.04,-0.9315,8.5091,0.0647,0.0068,0.0295,-0.5197,slope,18.0,1,2.191
730,23.36,-0.6283,8.3309,0.0552,0.0046,0.0254,-0.5644,slope,18.0,1,1.840
740,23.68,-0.3098,8.1245,0.0630,0.0019,-0.0954,-0.5944,slope,18.0,1,1.464
750,24.00,0.0375,7.8494,0.0919,0.1498,-0.1483,-0.6232,slope,18.0,1,1.038
760,24.32,0.4199,7.5526,0.1993,0.2064,-0.2950,-0.6603,slope,18.0,2,14.985
770,24.64,0.8067,7.2377,0.3372,0.2272,-0.2666,-0.7317,slope,18.0,2,14.946
780,24.96,1.0867,6.9163,0.4430,0.2861,-0.2108,-0.9913,slope,18.0,2,14.853
790,25.28,1.2333,6.5084,0.5039,0.3389,-0.1038,-1.3425,slope,18.0,2,14.622
800,25.60,1.2079,6.0478,0.5068,0.3523,0.0240,-1.7184,slope,18.0,2,14.248
810,25.92,1.0311,5.5806,0.4581,0.3305,0.1162,-2.0017,slope,18.0,2,13.777
820,26.24,0.8005,5.1873,0.3885,0.3033,0.1638,-2.2093,slope,18.0,2,13.328
830,26.56,0.4542,4.8371,0.2806,0.2430,0.2325,-2.4220,slope,18.0,2,12.837
840,26.88,0.1398,4.5865,0.2092,0.2063,0.1116,-2.5911,slope,18.0,2,12.442
850,27.20,0.1558,4.5329,0.2148,0.1310,0.1476,-2.8597,slope,18.0,2,12.412
860,27.52,0.1625,4.4907,0.2204,0.0641,0.1776,-3.0878,slope,18.0,2,12.384
870,27.84,0.1625,4.4833,0.2207,0.0511,0.1798,-3.1269,slope,18.0,2,12.378
880,28.16,0.1624,4.4825,0.2207,0.0497,0.1802,-3.1312,slope,18.0,2,12.378
890,28.48,0.1624,4.4823,0.2207,0.0495,0.1804,-3.1320,slope,18.0,2,12.378
900,28.80,0.1624,4.4823,0.2206,0.0494,0.1807,-3.1322,slope,18.0,2,12.378
910,29.12,0.1624,4.4823,0.2206,0.0494,0.1809,-3.1322,slope,18.0,2,12.378
920,29.44,0.1624,4.4823,0.2206,0.0494,0.1811,-3.1322,slope,18.0,2,12.378
930,29.76,0.1624,4.4823,0.2205,0.0494,0.1814,-3.1322,slope,18.0,2,12.378
940,30.08,0.1623,4.4823,0.2205,0.0494,0.1816,-3.1322,slope,18.0,2,12.378
950,30.40,0.1623,4.4823,0.2204,0.0494,0.1818,-3.1322,slope,18.0,2,12.378
960,30.72,0.1623,4.4823,0.2204,0.0495,0.1820,-3.1321,slope,18.0,2,12.378
970,31.04,0.1623,4.4823,0.2204,0.0495,0.1822,-3.1321,slope,18.0,2,12.378
980,31.36,0.1623,4.4824,0.2203,0.0495,0.1824,-3.1321,slope,18.0,2,12.378
990,31.68,0.1623,4.4824,0.2203,0.0495,0.1827,-3.1321,slope,18.0,2,12.378
1000,32.00,0.1622,4.4824,0.2203,0.0495,0.1829,-3.1321,slope,18.0,2,12.378
1010,32.32,0.1622,4.4824,0.2202,0.0495,0.1831,-3.1321,slope,18.0,2,12.378
1020,32.64,0.1622,4.4824,0.2202,0.0495,0.1833,-3.1321,slope,18.0,2,12.378
1030,32.96,0.1622,4.4824,0.2201,0.0495,0.1835,-3.1321,slope,18.0,2,12.378
1040,33.28,0.1622,4.4824,0.2201,0.0495,0.1837,-3.1321,slope,18.0,2,12.378
1050,33.60,0.1622,4.4824,0.2201,0.0495,0.1840,-3.1320,slope,18.0,2,12.378
1060,33.92,0.1621,4.4824,0.2200,0.0495,0.1842,-3.1320,slope,18.0,2,12.378
1070,34.24,0.1621,4.4824,0.2200,0.0495,0.1844,-3.1320,slope,18.0,2,12.378
1080,34.56,0.1621,4.4824,0.2200,0.0495,0.1846,-3.1320,slope,18.0,2,12.378
1090,34.88,0.1621,4.4824,0.2199,0.0495,0.1848,-3.1320,slope,18.0,2,12.378
1100,35.20,0.1621,4.4824,0.2199,0.0495,0.1850,-3.1320,slope,18.0,2,12.378
1110,35.52,0.1621,4.4824,0.2198,0.0495,0.1853,-3.1320,slope,18.0,2,12.378
1120,35.84,0.1620,4.4824,0.2198,0.0495,0.1855,-3.1320,slope,18.0,2,12.378
1130,36.16,0.1620,4.4824,0.2198,0.0495,0.1857,-3.1320,slope,18.0,2,12.378
1140,36.48,0.1620,4.4824,0.2197,0.0495,0.1859,-3.1320,slope,18.0,2,12.378
1150,36.80,0.1620,4.4824,0.2197,0.0495,0.1861,-3.1319,slope,18.0,2,12.378
1160,37.12,0.1620,4.4825,0.2197,0.0495,0.1863,-3.1319,slope,18.0,2,12.378
1170,37.44,0.1620,4.4825,0.2196,0.0495,0.1866,-3.1319,slope,18.0,3,12.707
1180,37.76,0.1620,4.4825,0.2196,0.0495,0.1868,-3.1319,slope,18.0,3,12.707
1190,38.08,0.1620,4.4825,0.2196,0.0495,0.1870,-3.1319,slope,18.0,3,12.707
1200,38.40,0.1620,4.4825,0.2195,0.0495,0.1872,-3.1319,slope,18.0,3,12.707
1210,38.72,0.1620,4.4825,0.2195,0.0495,0.1874,-3.1319,slope,18.0,3,12.707
1220,39.04,0.1620,4.4825,0.2195,0.0495,0.1877,-3.1319,slope,18.0,3,12.707
1230,39.36,0.1620,4.4825,0.2194,0.0495,0.1879,-3.1319,slope,18.0,3,12.707
1240,39.68,0.1620,4.4825,0.2194,0.0495,0.1881,-3.1318,slope,18.0,3,12.707
1250,40.00,0.1620,4.4825,0.2194,0.0495,0.1883,-3.1318,slope,18.0,3,12.707
1260,40.32,0.1620,4.4825,0.2193,0.0495,0.1885,-3.1318,slope,18.0,3,12.707
1270,40.64,0.1620,4.4825,0.2193,0.0495,0.1888,-3.1318,slope,18.0,3,12.707
1280,40.96,0.1620,4.4825,0.2193,0.0495,0.1890,-3.1318,slope,18.0,3,12.707
1290,41.28,0.1620,4.4825,0.2192,0.0495,0.1892,-3.1318,slope,18.0,3,12.707
1300,41.60,0.1620,4.4825,0.2192,0.0495,0.1894,-3.1318,slope,18.0,3,12.707
1310,41.92,0.1620,4.4825,0.2192,0.0495,0.1896,-3.1318,slope,18.0,3,12.707
1320,42.24,0.1620,4.4826,0.2191,0.0495,0.1898,-3.1318,slope,18.0,3,12.707
1330,42.56,0.1620,4.4826,0.2191,0.0495,0.1901,-3.1317,slope,18.0,3,12.707
1340,42.88,0.1620,4.4826,0.2191,0.0495,0.1903,-3.1317,slope,18.0,3,12.707
1350,43.20,0.1620,4.4826,0.2190,0.0495,0.1905,-3.1317,slope,18.0,3,12.707
1360,43.52,0.1620,4.4826,0.2190,0.0495,0.1907,-3.1317,slope,18.0,3,12.707
1370,43.84,0.1620,4.4826,0.2190,0.0495,0.1909,-3.1317,slope,18.0,3,12.707
1380,44.16,0.1619,4.4826,0.2189,0.0495,0.1911,-3.1317,slope,18.0,3,12.707
1390,44.48,0.1619,4.4826,0.2189,0.0495,0.1913,-3.1317,slope,18.0,3,12.707
1400,44.80,0.1619,4.4826,0.2189,0.0495,0.1916,-3.1317,slope,18.0,3,12.707
1410,45.12,0.1619,4.4826,0.2189,0.0495,0.1918,-3.1317,slope,18.0,3,12.707
1420,45.44,0.1619,4.4826,0.2188,0.0495,0.1920,-3.1316,slope,18.0,3,12.707
1430,45.76,0.1619,4.4826,0.2188,0.0495,0.1922,-3.1316,slope,18.0,3,12.707
1440,46.08,0.1619,4.4826,0.2188,0.0496,0.1924,-3.1316,slope,18.0,3,12.707
1450,46.40,0.1619,4.4826,0.2187,0.0496,0.1926,-3.1316,slope,18.0,3,12.707
1460,46.72,0.1619,4.4826,0.2187,0.0496,0.1928,-3.1316,slope,18.0,3,12.707
1470,47.04,0.1619,4.4826,0.2187,0.0496,0.1931,-3.1316,slope,18.0,3,12.707
1480,47.36,0.1619,4.4826,0.2186,0.0496,0.1933,-3.1316,slope,18.0,3,12.707
1490,47.68,0.1619,4.4827,0.2186,0.0496,0.1935,-3.1316,slope,18.0,3,12.707
1500,48.00,0.1619,4.4827,0.2186,0.0496,0.1937,-3.1316,slope,18.0,3,12.707
1510,48.32,0.1619,4.4827,0.2185,0.0496,0.1939,-3.1315,slope,18.0,3,12.707
1520,48.64,0.1619,4.4827,0.2185,0.0496,0.1941,-3.1315,slope,18.0,3,12.707
1530,48.96,0.1619,4.4827,0.2185,0.0496,0.1943,-3.1315,slope,18.0,0,10.388
1540,49.28,0.1619,4.4827,0.2184,0.0496,0.1945,-3.1315,slope,18.0,0,10.388
1550,49.60,0.1619,4.4827,0.2184,0.0496,0.1948,-3.1315,slope,18.0,0,10.388
1560,49.92,0.1619,4.4827,0.2184,0.0496,0.1950,-3.1315,slope,18.0,0,10.388
1570,50.24,0.1619,4.4827,0.2183,0.0496,0.1952,-3.1315,slope,18.0,0,10.388
1580,50.56,0.1619,4.4827,0.2183,0.0496,0.1954,-3.1315,slope,18.0,0,10.388
1590,50.88,0.1619,4.4827,0.2183,0.0496,0.1956,-3.1315,slope,18.0,0,10.388
1600,51.20,0.1619,4.4827,0.2182,0.0496,0.1958,-3.1315,slope,18.0,0,10.388
1610,51.52,0.1619,4.4827,0.2182,0.0496,0.1960,-3.1314,slope,18.0,0,10.388
1620,51.84,0.1619,4.4827,0.2182,0.0496,0.1962,-3.1314,slope,18.0,0,10.388
1630,52.16,0.1619,4.4827,0.2182,0.0496,0.1964,-3.1314,slope,18.0,0,10.388
1640,52.48,0.1619,4.4827,0.2181,0.0496,0.1966,-3.1314,slope,18.0,0,10.388
1650,52.80,0.1619,4.4827,0.2181,0.0496,0.1969,-3.1314,slope,18.0,0,10.388
1660,53.12,0.1619,4.4828,0.2181,0.0496,0.1971,-3.1314,slope,18.0,0,10.388
1670,53.44,0.1619,4.4828,0.2180,0.0496,0.1973,-3.1314,slope,18.0,0,10.388
1680,53.76,0.1619,4.4828,0.2180,0.0496,0.1975,-3.1314,slope,18.0,0,10.388
1690,54.08,0.1619,4.4828,0.2180,0.0496,0.1977,-3.1314,slope,18.0,0,10.388
1700,54.40,0.1619,4.4828,0.2179,0.0496,0.1979,-3.1313,slope,18.0,0,10.388
1710,54.72,0.1619,4.4828,0.2179,0.0496,0.1981,-3.1313,slope,18.0,0,10.388
1720,55.04,0.1619,4.4828,0.2179,0.0496,0.1983,-3.1313,slope,18.0,0,10.388
1730,55.36,0.1619,4.4828,0.2178,0.0496,0.1985,-3.1313,slope,18.0,0,10.388
1740,55.68,0.1619,4.4828,0.2178,0.0496,0.1987,-3.1313,slope,18.0,0,10.388
1750,56.00,0.1619,4.4828,0.2178,0.0496,0.1989,-3.1313,slope,18.0,0,10.388
1760,56.32,0.1619,4.4828,0.2177,0.0496,0.1991,-3.1313,slope,18.0,0,10.388
1770,56.64,0.1619,4.4828,0.2177,0.0496,0.1994,-3.1313,slope,18.0,0,10.388
1780,56.96,0.1619,4.4828,0.2177,0.0496,0.1996,-3.1313,slope,18.0,0,10.388
1790,57.28,0.1619,4.4828,0.2177,0.0496,0.1998,-3.1313,slope,18.0,0,10.388
1800,57.60,0.1619,4.4828,0.2176,0.0496,0.2000,-3.1312,slope,18.0,0,10.388
1810,57.92,0.1619,4.4828,0.2176,0.0496,0.2002,-3.1312,slope,18.0,0,10.388
1820,58.24,0.1619,4.4828,0.2176,0.0496,0.2004,-3.1312,slope,18.0,0,10.388
1830,58.56,0.1619,4.4828,0.2175,0.0496,0.2006,-3.1312,slope,18.0,0,10.388
1840,58.88,0.1619,4.4829,0.2175,0.0496,0.2008,-3.1312,slope,18.0,0,10.388
1850,59.20,0.1619,4.4829,0.2175,0.0496,0.2010,-3.1312,slope,18.0,0,10.388
1860,59.52,0.1619,4.4829,0.2174,0.0496,0.2012,-3.1312,slope,18.0,0,10.388
1870,59.84,0.1619,4.4829,0.2174,0.0496,0.2014,-3.1312,slope,18.0,0,10.388
1880,60.16,0.1619,4.4829,0.2174,0.0496,0.2016,-3.1312,slope,18.0,0,10.388
1890,60.48,0.1619,4.4829,0.2174,0.0496,0.2018,-3.1311,slope,18.0,0,10.388
1900,60.80,0.1620,4.4829,0.2174,0.0496,0.2021,-3.1311,slope,18.0,1,3.146
1910,61.12,0.1645,4.4829,0.2179,0.0498,0.2047,-3.1309,slope,18.0,1,3.145
1920,61.44,0.1717,4.4918,0.2167,0.1037,0.2094,-2.9754,slope,18.0,1,3.135
1930,61.76,0.1816,4.5289,0.2232,0.2304,0.1109,-2.5311,slope,18.0,1,3.096
1940,62.08,0.1226,4.6474,0.2038,0.2383,0.0538,-2.1612,slope,18.0,1,2.999
1950,62.40,0.0033,4.7901,0.1617,0.1713,-0.0338,-1.6544,slope,18.0,1,2.903
1960,62.72,-0.0673,4.8728,0.1478,0.0792,-0.1533,-0.7953,slope,18.0,1,2.852
1970,63.04,-0.1136,4.8122,0.1423,-0.0257,-0.1745,-0.1655,slope,18.0,1,2.926
1980,63.36,-0.0515,4.7904,0.1531,-0.0454,-0.1720,-0.0174,slope,18.0,1,2.922
1990,63.68,0.1731,4.7860,0.2015,-0.0498,-0.2333,0.0042,slope,18.0,1,2.852
2000,64.00,0.5696,4.7881,0.3253,-0.0419,-0.3410,0.0004,slope,18.0,1,2.759
2010,64.32,1.0295,4.7893,0.4895,-0.0411,-0.3421,0.0053,slope,18.0,1,2.721
2020,64.64,1.4814,4.7914,0.6533,-0.0376,-0.3499,0.0046,slope,18.0,1,2.757
2030,64.96,1.8816,4.7916,0.8002,-0.0343,-0.3570,0.0021,slope,18.0,1,2.852
2040,65.28,2.2857,4.7916,0.9510,-0.0362,-0.3589,0.0119,slope,18.0,1,2.999
2050,65.60,2.3802,4.7526,0.9919,-0.3030,-0.2269,0.9199,slope,18.0,1,3.075
2060,65.92,2.3431,4.7881,0.9880,-0.2561,-0.3599,0.7085,slope,18.0,1,3.027
2070,66.24,2.2767,4.8984,0.9450,-0.1696,-0.3320,0.4436,slope,18.0,1,2.899
2080,66.56,2.2680,4.9917,0.9376,-0.1071,-0.3539,0.1989,slope,18.0,1,2.811
2090,66.88,2.2679,5.0356,0.9359,-0.0626,-0.3572,0.0794,slope,18.0,1,2.772
2100,67.20,2.2689,5.0515,0.9357,-0.0470,-0.3595,0.0359,slope,18.0,1,2.758
2110,67.52,2.2692,5.0573,0.9356,-0.0419,-0.3601,0.0214,slope,18.0,1,2.753
2120,67.84,2.2693,5.0593,0.9356,-0.0403,-0.3602,0.0169,slope,18.0,1,2.751
2130,68.16,2.2695,5.0604,0.9356,-0.0397,-0.3603,0.0153,slope,18.0,1,2.750
2140,68.48,2.2696,5.0608,0.9356,-0.0394,-0.3603,0.0144,slope,18.0,1,2.750
2150,68.80,2.2696,5.0609,0.9357,-0.0391,-0.3603,0.0138,slope,18.0,1,2.750
2160,69.12,2.2601,5.0607,0.9320,-0.0389,-0.3594,0.0141,slope,18.0,1,2.746
2170,69.44,2.1039,5.0590,0.8735,-0.0412,-0.3563,0.0189,slope,18.0,1,2.680
2180,69.76,1.8918,5.0564,0.7946,-0.0408,-0.3566,0.0152,slope,18.0,1,2.604
2190,70.08,1.8683,5.0562,0.7858,-0.0406,-0.3568,0.0145,slope,18.0,1,2.596
2200,70.40,2.0357,5.0586,0.8481,-0.0399,-0.3566,0.0143,slope,18.0,1,2.654
2210,70.72,2.1992,5.0610,0.9091,-0.0398,-0.3580,0.0157,slope,18.0,1,2.718
2220,71.04,2.1724,5.0616,0.8991,-0.0428,-0.3573,0.0241,slope,18.0,1,2.706
2230,71.36,1.9916,5.0611,0.8316,-0.0450,-0.3559,0.0284,slope,18.0,1,2.635
2240,71.68,1.9418,5.0617,0.8130,-0.0412,-0.3567,0.0165,slope,18.0,1,2.616
2250,72.00,2.0630,5.0637,0.8580,-0.0399,-0.3561,0.0150,slope,18.0,1,2.660
2260,72.32,2.0738,5.0644,0.8620,-0.0413,-0.3557,0.0188,slope,18.0,1,2.663
2270,72.64,1.9492,5.0637,0.8157,-0.0415,-0.3564,0.0179,slope,18.0,1,2.617
2280,72.96,1.9548,5.0643,0.8178,-0.0405,-0.3567,0.0148,slope,18.0,1,2.618
2290,73.28,2.0801,5.0662,0.8643,-0.0398,-0.3560,0.0147,slope,18.0,1,2.664
2300,73.60,2.0524,5.0662,0.8540,-0.0411,-0.3558,0.0181,slope,18.0,1,2.653
2310,73.92,1.9391,5.0653,0.8118,-0.0409,-0.3566,0.0158,slope,18.0,1,2.612
2320,74.24,1.9756,5.0660,0.8255,-0.0403,-0.3567,0.0144,slope,18.0,1,2.624
2330,74.56,2.0895,5.0677,0.8678,-0.0399,-0.3562,0.0149,slope,18.0,1,2.667
2340,74.88,2.0236,5.0672,0.8432,-0.0416,-0.3559,0.0193,slope,18.0,1,2.641
2350,75.20,1.9368,5.0666,0.8110,-0.0407,-0.3567,0.0153,slope,18.0,1,2.610
2360,75.52,2.0042,5.0677,0.8360,-0.0401,-0.3567,0.0142,slope,18.0,1,2.633
2370,75.84,2.0912,5.0690,0.8684,-0.0399,-0.3562,0.0151,slope,18.0,1,2.666
2380,76.16,1.9906,5.0681,0.8309,-0.0415,-0.3561,0.0185,slope,18.0,1,2.628
2390,76.48,1.9423,5.0678,0.8130,-0.0407,-0.3567,0.0153,slope,18.0,2,14.014
2400,76.80,2.0019,5.0686,0.8351,-0.0400,-0.3562,0.0145,slope,18.0,2,14.057
2410,77.12,1.8908,5.0674,0.7937,-0.0395,-0.3563,0.0120,slope,18.0,2,13.978
2420,77.44,1.6250,5.0639,0.6956,-0.0357,-0.3527,-0.0026,slope,18.0,2,13.791
2430,77.76,1.4045,5.0598,0.6149,-0.0136,-0.3543,-0.0712,slope,18.0,2,13.636
2440,78.08,1.3684,5.0332,0.6028,0.0550,-0.3506,-0.2702,slope,18.0,2,13.592
2450,78.40,1.5122,4.9222,0.6597,0.1563,-0.3176,-0.5720,slope,18.0,2,13.610
2460,78.72,1.6883,4.6836,0.7331,0.2640,-0.2376,-0.9563,slope,18.0,2,13.563
2470,79.04,1.7634,4.3090,0.7731,0.3449,-0.0798,-1.4315,slope,18.0,2,13.354
2480,79.36,1.6645,3.8762,0.7477,0.3269,0.1033,-1.8916,slope,18.0,2,12.986
2490,79.68,1.4283,3.4832,0.6638,0.2731,0.2074,-2.1988,slope,18.0,2,12.547
2500,80.00,1.1033,3.1564,0.5520,0.1964,0.2569,-2.4058,slope,18.0,2,12.087
2510,80.32,0.7151,2.8728,0.4246,0.1329,0.2739,-2.5751,slope,18.0,2,11.609
2520,80.64,0.2658,2.6153,0.2968,0.0524,0.2022,-2.6629,slope,18.0,2,11.103
2530,80.96,-0.2165,2.3854,0.2344,0.0341,0.0828,-2.7157,slope,18.0,2,10.594
2540,81.28,-0.7047,2.1553,0.2213,0.0083,0.0012,-2.6808,flat,18.0,2,10.083
2550,81.60,-1.1335,1.9006,0.2219,0.0069,0.0087,-2.4874,flat,18.0,2,9.600
2560,81.92,-1.5244,1.5635,0.2260,-0.0002,-0.0029,-2.3523,flat,18.0,2,9.085
2570,82.24,-1.8876,1.1644,0.2279,0.0005,-0.0028,-2.2677,flat,18.0,2,8.546
2580,82.56,-2.2397,0.7275,0.2294,0.0037,-0.0004,-2.2311,flat,18.0,2,7.988
2590,82.88,-2.5928,0.2763,0.2269,0.0167,0.0032,-2.2339,flat,18.0,2,7.419
2600,83.20,-2.9471,-0.1702,0.2230,0.0150,0.0223,-2.2609,flat,18.0,2,6.854
2610,83.52,-3.3116,-0.5928,0.2166,0.0180,0.0167,-2.2986,flat,18.0,2,6.299
2620,83.84,-3.6927,-1.0057,0.2031,0.0245,0.0260,-2.3362,flat,18.0,2,5.739
2630,84.16,-4.0883,-1.4084,0.1879,0.0263,0.0283,-2.3700,flat,18.0,2,5.175
2640,84.48,-4.4975,-1.7979,0.1727,0.0254,0.0245,-2.3955,flat,18.0,2,4.610
2650,84.80,-4.9190,-2.1814,0.1592,0.0310,0.0189,-2.4092,flat,18.0,2,4.040
2660,85.12,-5.3456,-2.5629,0.1511,0.0265,0.0135,-2.4166,flat,18.0,2,3.468
2670,85.44,-5.7753,-2.9418,0.1476,0.0313,-0.0003,-2.4168,flat,18.0,2,2.895
2680,85.76,-6.2037,-3.3225,0.1492,0.0294,-0.0057,-2.4133,flat,18.0,2,2.322
2690,86.08,-6.6104,-3.6851,0.1575,0.0346,-0.0166,-2.4072,flat,18.0,2,1.777
2700,86.40,-6.9542,-3.9972,0.1676,0.0341,-0.0260,-2.4012,flat,18.0,2,1.313
2710,86.72,-7.2801,-4.2965,0.1803,0.0349,-0.0309,-2.3938,flat,18.0,3,1.284
2720,87.04,-7.6332,-4.6112,0.1960,0.0361,-0.0345,-2.4347,flat,18.0,0,12.978
2730,87.36,-8.0133,-4.9441,0.2146,0.0343,-0.0388,-2.3933,flat,18.0,0,13.365
2740,87.68,-8.3194,-5.2452,0.2319,0.0304,-0.0429,-2.3018,flat,18.0,0,13.683
2750,88.00,-8.5571,-5.5289,0.2478,0.0229,-0.0450,-2.1679,flat,18.0,0,13.938
2760,88.32,-8.7359,-5.8032,0.2623,0.0144,-0.0467,-1.9949,flat,18.0,0,14.139
2770,88.64,-8.8463,-6.0635,0.2748,0.0072,-0.0424,-1.8348,flat,18.0,0,14.275
2780,88.96,-8.9079,-6.3185,0.2858,-0.0038,-0.0409,-1.6076,flat,18.0,0,14.366
2790,89.28,-8.9197,-6.5636,0.2953,-0.0125,-0.0343,-1.3858,flat,18.0,0,14.410
2800,89.60,-8.8673,-6.8192,0.3034,-0.0162,-0.0271,-1.2633,flat,18.0,0,14.397
2810,89.92,-8.7783,-7.0720,0.3101,-0.0180,-0.0204,-1.1414,flat,18.0,0,14.352
