step,time_s,x,y,z,roll,pitch,yaw,terrain,speed,target_idx,dist_to_target
10,0.32,-0.1597,1.4500,0.1723,0.0000,-0.0145,0.0000,flat,18.0,0,4.140
20,0.64,0.1086,1.4506,0.1792,0.0000,0.0017,0.0153,flat,18.0,0,4.214
30,0.96,0.4584,1.4681,0.1798,-0.0003,-0.0002,0.3722,flat,18.0,0,4.317
40,1.28,0.8392,1.6695,0.1799,0.0001,-0.0000,0.7230,flat,18.0,0,4.297
50,1.60,1.1509,2.0139,0.1799,-0.0000,-0.0000,0.9967,flat,18.0,0,4.162
60,1.92,1.3819,2.4413,0.1799,0.0000,-0.0000,1.3018,flat,18.0,0,3.961
70,2.24,1.4882,2.9137,0.1799,0.0000,0.0000,1.6709,flat,18.0,0,3.690
80,2.56,1.4083,3.3578,0.1799,0.0001,-0.0000,2.0401,flat,18.0,0,3.336
90,2.88,1.1559,3.7638,0.1799,0.0000,-0.0000,2.2758,flat,18.0,0,2.888
100,3.20,0.7982,4.1276,0.1799,0.0001,-0.0000,2.4297,flat,18.0,0,2.386
110,3.52,0.3895,4.4485,0.1798,0.0004,0.0000,2.5324,flat,18.0,0,1.868
120,3.84,0.0017,4.7081,0.1797,0.0002,0.0001,2.5879,flat,18.0,0,1.402
130,4.16,-0.3238,4.9013,0.1797,0.0001,0.0001,2.6462,flat,18.0,0,1.024
140,4.48,-0.6707,5.0933,0.1798,0.0001,-0.0002,2.5295,flat,18.0,1,2.303
150,4.80,-1.0111,5.3915,0.1799,-0.0001,0.0000,2.2825,flat,18.0,1,1.979
160,5.12,-1.2832,5.7525,0.1799,-0.0001,0.0000,2.0976,flat,18.0,1,1.639
170,5.44,-1.4694,6.1045,0.1799,-0.0000,0.0000,1.8867,flat,18.0,1,1.343
180,5.76,-1.5769,6.4463,0.1798,0.0000,-0.0002,1.5999,flat,18.0,1,1.079
190,6.08,-1.5686,6.8666,0.1799,0.0001,-0.0000,1.1409,flat,18.0,2,8.214
200,6.40,-1.3473,7.2118,0.1799,0.0000,-0.0000,0.7551,flat,18.0,2,8.175
210,6.72,-0.9848,7.4804,0.1799,0.0001,-0.0000,0.4043,flat,18.0,2,7.996
220,7.04,-0.5415,7.6294,0.1780,-0.0113,0.0001,0.1833,rough,14.0,2,7.704
230,7.36,-0.0638,7.7142,0.1796,-0.0012,-0.0001,0.1710,flat,18.0,2,7.365
240,7.68,0.4473,7.7997,0.1797,-0.0002,0.0000,0.1411,flat,18.0,2,7.018
250,8.00,0.9431,7.8669,0.1797,-0.0001,0.0000,0.1006,flat,18.0,2,6.691
260,8.32,1.4279,7.9122,0.1797,-0.0001,0.0000,0.0509,flat,18.0,2,6.378
270,8.64,1.9063,7.9327,0.1797,-0.0002,0.0000,-0.0061,flat,18.0,2,6.074
280,8.96,2.3828,7.9256,0.1797,-0.0002,-0.0000,-0.0642,flat,18.0,2,5.772
290,9.28,2.8626,7.8904,0.1797,-0.0002,-0.0000,-0.1196,flat,18.0,2,5.470
300,9.60,3.3500,7.8273,0.1797,-0.0001,-0.0000,-0.1651,flat,18.0,2,5.166
310,9.92,3.8509,7.7397,0.1797,-0.0001,-0.0000,-0.1998,flat,18.0,2,4.865
320,10.24,4.3707,7.6311,0.1797,-0.0001,-0.0000,-0.2226,flat,18.0,2,4.575
330,10.56,4.9147,7.5060,0.1797,-0.0000,-0.0000,-0.2317,flat,18.0,2,4.310
340,10.88,5.4374,7.3803,0.1798,-0.0001,0.0000,-0.2893,flat,18.0,2,4.105
350,11.20,5.9095,7.2255,0.1799,0.0001,0.0001,-0.4500,flat,18.0,2,3.933
360,11.52,6.3163,6.9939,0.1799,0.0000,0.0000,-0.6831,flat,18.0,2,3.732
370,11.84,6.6385,6.6653,0.1799,0.0000,-0.0000,-0.9555,flat,18.0,2,3.468
380,12.16,6.8837,6.2477,0.1799,-0.0000,-0.0000,-1.2531,flat,18.0,2,3.137
390,12.48,7.0118,5.7663,0.1799,-0.0000,-0.0000,-1.5646,flat,18.0,2,2.742
400,12.80,6.9882,5.2584,0.1799,-0.0001,-0.0000,-1.8068,flat,18.0,2,2.282
410,13.12,6.8534,4.7726,0.1799,-0.0003,0.0001,-1.9403,flat,18.0,2,1.800
420,13.44,6.6853,4.3535,0.1798,-0.0001,0.0001,-1.9928,flat,18.0,2,1.364
430,13.76,6.5326,4.0226,0.1797,-0.0001,0.0001,-2.0542,flat,18.0,2,1.014
440,14.08,6.3632,3.7105,0.1797,-0.0000,-0.0001,-2.0305,flat,18.0,3,2.457
450,14.40,6.1955,3.3038,0.1799,-0.0001,-0.0000,-1.6703,flat,18.0,3,2.282
460,14.72,6.1807,2.8668,0.1799,0.0000,-0.0000,-1.2546,flat,18.0,3,2.036
470,15.04,6.3456,2.4585,0.1799,0.0001,0.0000,-1.0255,flat,18.0,3,1.703
480,15.36,6.5701,2.1214,0.1798,0.0002,0.0002,-0.8865,flat,18.0,3,1.386
490,15.68,6.7975,1.8785,0.1798,0.0002,0.0001,-0.7094,flat,18.0,3,1.125
500,16.00,7.1169,1.6643,0.1799,0.0001,0.0001,-0.5402,flat,18.0,0,9.125
510,16.32,7.4096,1.4708,0.1798,0.0001,0.0002,-0.7180,flat,18.0,0,9.472
520,16.64,7.5873,1.2558,0.1798,0.0004,-0.0001,-1.1700,flat,18.0,0,9.724
530,16.96,7.7155,0.8874,0.1799,0.0000,-0.0001,-1.5456,flat,18.0,0,10.003
540,17.28,7.6989,0.3819,0.1786,-0.0045,-0.0003,-1.6685,flat,18.0,0,10.229
550,17.60,7.6434,-0.1509,0.1796,-0.0005,-0.0001,-1.6865,flat,18.0,0,10.457
560,17.92,7.5783,-0.6964,0.1797,-0.0001,-0.0000,-1.6983,flat,18.0,0,10.707
570,18.24,7.5054,-1.2570,0.1797,-0.0000,-0.0000,-1.7031,flat,18.0,0,10.981
580,18.56,7.4415,-1.7366,0.1797,-0.0000,0.0003,-1.7042,flat,18.0,0,11.232
590,18.88,7.3887,-2.1101,0.1798,-0.0001,0.0001,-1.8212,flat,18.0,0,11.435
600,19.20,7.3073,-2.4229,0.1798,0.0001,0.0002,-2.1268,flat,18.0,0,11.585
610,19.52,7.1886,-2.5528,0.1798,0.0004,-0.0001,-2.9170,flat,18.0,0,11.588
620,19.84,6.9601,-2.5947,0.1798,0.0003,-0.0002,2.5414,flat,18.0,0,11.453
630,20.16,6.6913,-2.3295,0.1778,-0.0126,-0.0003,2.0829,flat,18.0,0,11.076
640,20.48,6.4769,-1.8548,0.1798,-0.0010,-0.0001,1.8803,flat,18.0,0,10.591
650,20.80,6.3114,-1.3126,0.1797,-0.0002,-0.0000,1.8502,flat,18.0,0,10.100
660,21.12,6.1528,-0.7700,0.1797,0.0001,0.0000,1.8794,flat,18.0,0,9.623
670,21.44,5.9772,-0.2505,0.1798,0.0003,0.0000,1.9570,flat,18.0,0,9.158
680,21.76,5.7621,0.2454,0.1798,0.0003,0.0000,2.0402,flat,18.0,0,8.684
690,22.08,5.5090,0.7113,0.1798,0.0003,0.0000,2.1401,flat,18.0,0,8.205
700,22.40,5.2101,1.1354,0.1799,0.0003,0.0000,2.2667,flat,18.0,0,7.717
710,22.72,4.8560,1.5114,0.1799,0.0002,-0.0000,2.4029,flat,18.0,0,7.214
720,23.04,4.4464,1.8475,0.1799,0.0003,-0.0000,2.5258,flat,18.0,0,6.687
730,23.36,3.9899,2.1470,0.1798,0.0004,-0.0000,2.6187,flat,18.0,0,6.142
740,23.68,3.4995,2.4161,0.1797,0.0002,-0.0000,2.6719,flat,18.0,0,5.583
750,24.00,2.9888,2.6703,0.1797,0.0001,-0.0000,2.6875,flat,18.0,0,5.017
760,24.32,2.4751,2.9224,0.1797,-0.0000,0.0000,2.6783,flat,18.0,0,4.451
770,24.64,1.9707,3.1789,0.1797,-0.0001,0.0000,2.6547,flat,18.0,0,3.891
780,24.96,1.4754,3.4476,0.1797,-0.0001,0.0000,2.6255,flat,18.0,0,3.333
790,25.28,0.9883,3.7309,0.1797,-0.0001,-0.0000,2.5970,flat,18.0,0,2.775
800,25.60,0.5087,4.0277,0.1797,-0.0001,0.0000,2.5729,flat,18.0,0,2.216
810,25.92,0.0633,4.3174,0.1797,-0.0000,0.0001,2.5586,flat,18.0,0,1.690
820,26.24,-0.3087,4.5663,0.1797,-0.0000,0.0001,2.5460,flat,18.0,0,1.250
830,26.56,-0.6306,4.7898,0.1797,-0.0001,-0.0001,2.4966,flat,18.0,1,2.609
840,26.88,-0.9785,5.1039,0.1799,0.0000,-0.0000,2.2788,flat,18.0,1,2.266
850,27.20,-1.2592,5.4917,0.1799,0.0000,0.0000,2.0642,flat,18.0,1,1.894
860,27.52,-1.4449,5.8690,0.1798,-0.0001,0.0003,1.8822,rough,14.0,1,1.560
870,27.84,-1.5483,6.2145,0.1798,-0.0002,0.0000,1.7013,flat,18.0,1,1.271
880,28.16,-1.5909,6.5947,0.1799,0.0001,-0.0000,1.3836,flat,18.0,2,8.119
890,28.48,-1.4770,6.9818,0.1799,0.0001,-0.0000,0.9288,flat,18.0,2,8.183
900,28.80,-1.1733,7.2855,0.1799,0.0000,-0.0000,0.5807,flat,18.0,2,8.059
910,29.12,-0.7649,7.5029,0.1799,0.0000,-0.0000,0.1922,rough,14.0,2,7.821
920,29.44,-0.2820,7.5748,0.1787,0.0041,0.0037,0.0348,flat,18.0,2,7.460
930,29.76,0.2735,7.5928,0.1796,0.0004,0.0004,0.0219,flat,18.0,2,7.023
940,30.08,0.8267,7.6038,0.1797,0.0000,0.0000,0.0099,flat,18.0,2,6.602
950,30.40,1.3783,7.6079,0.1797,-0.0000,0.0000,-0.0036,flat,18.0,2,6.197
960,30.72,1.9296,7.6044,0.1797,-0.0000,-0.0000,-0.0176,flat,18.0,2,5.811
970,31.04,2.4824,7.5932,0.1797,-0.0000,-0.0000,-0.0310,flat,18.0,2,5.447
980,31.36,3.0384,7.5746,0.1797,-0.0000,-0.0000,-0.0426,flat,18.0,2,5.109
990,31.68,3.5990,7.5495,0.1797,-0.0000,-0.0000,-0.0515,flat,18.0,2,4.804
1000,32.00,4.1658,7.5195,0.1797,-0.0000,-0.0000,-0.0566,flat,18.0,2,4.541
1010,32.32,4.7248,7.4877,0.1797,-0.0000,0.0001,-0.0673,flat,18.0,2,4.336
1020,32.64,5.2372,7.4451,0.1799,0.0000,0.0001,-0.2155,flat,18.0,2,4.193
1030,32.96,5.6927,7.3200,0.1799,0.0000,-0.0000,-0.4975,flat,18.0,2,4.029
1040,33.28,6.0765,7.0651,0.1799,-0.0000,0.0000,-0.7583,flat,18.0,2,3.780
1050,33.60,6.3686,6.7144,0.1799,0.0000,-0.0000,-1.0665,flat,18.0,2,3.463
1060,33.92,6.5690,6.2742,0.1799,-0.0000,-0.0000,-1.3984,flat,18.0,2,3.071
1070,34.24,6.6251,5.7768,0.1799,-0.0000,-0.0000,-1.6990,flat,18.0,2,2.608
1080,34.56,6.5372,5.2628,0.1799,-0.0002,0.0000,-1.8630,flat,18.0,2,2.093
1090,34.88,6.3821,4.7821,0.1798,-0.0002,0.0001,-1.9101,flat,18.0,2,1.588
1100,35.20,6.2355,4.3814,0.1797,-0.0001,0.0001,-1.9278,flat,18.0,2,1.162
1110,35.52,6.1087,4.0455,0.1797,0.0000,-0.0000,-1.8813,flat,18.0,3,2.878
1120,35.84,6.0006,3.6249,0.1799,-0.0000,-0.0000,-1.5125,flat,18.0,3,2.642
1130,36.16,6.0530,3.1928,0.1799,0.0001,0.0001,-1.1726,rough,14.0,3,2.324
1140,36.48,6.2153,2.8526,0.1799,0.0001,-0.0002,-0.9828,flat,18.0,3,1.999
1150,36.80,6.4902,2.4820,0.1798,0.0002,0.0001,-0.8658,flat,18.0,3,1.580
1160,37.12,6.7566,2.1949,0.1797,0.0002,0.0001,-0.7591,flat,18.0,3,1.226
1170,37.44,7.0458,1.9617,0.1798,0.0001,-0.0002,-0.6072,flat,18.0,0,8.940
1180,37.76,7.3427,1.7449,0.1798,0.0000,0.0001,-0.7260,flat,18.0,0,9.298
1190,38.08,7.5296,1.5362,0.1798,0.0002,-0.0000,-1.2068,flat,18.0,0,9.553
1200,38.40,7.6279,1.2198,0.1799,0.0003,-0.0002,-1.8672,flat,18.0,0,9.776
1210,38.72,7.4419,0.8061,0.1798,-0.0030,-0.0032,-2.2104,flat,18.0,0,9.799
1220,39.04,7.1167,0.4247,0.1799,-0.0000,-0.0000,-2.3838,flat,18.0,0,9.706
1230,39.36,6.7282,0.1096,0.1799,-0.0000,-0.0000,-2.5858,flat,18.0,0,9.549
1240,39.68,6.3144,-0.1143,0.1799,0.0001,-0.0000,-2.9452,flat,18.0,0,9.341
1250,40.00,5.8622,-0.1699,0.1799,-0.0000,-0.0000,2.8890,flat,18.0,0,9.017
1260,40.32,5.4188,-0.0182,0.1799,-0.0000,-0.0000,2.6003,flat,18.0,0,8.578
1270,40.64,5.0096,0.2702,0.1799,-0.0001,-0.0000,2.4199,flat,18.0,0,8.079
1280,40.96,4.6305,0.6404,0.1798,-0.0003,-0.0001,2.3130,flat,18.0,0,7.551
1290,41.28,4.2690,1.0586,0.1798,-0.0002,-0.0000,2.2565,flat,18.0,0,7.006
1300,41.60,3.9105,1.5023,0.1797,-0.0000,-0.0000,2.2514,flat,18.0,0,6.449
1310,41.92,3.5522,1.9339,0.1797,0.0001,0.0000,2.2843,flat,18.0,0,5.903
1320,42.24,3.1818,2.3417,0.1797,0.0002,0.0000,2.3423,flat,18.0,0,5.363
1330,42.56,2.7888,2.7223,0.1797,0.0002,-0.0000,2.4102,flat,18.0,0,4.823
1340,42.88,2.3697,3.0768,0.1797,0.0002,-0.0000,2.4806,flat,18.0,0,4.277
1350,43.20,1.9240,3.4060,0.1797,0.0002,-0.0000,2.5435,flat,18.0,0,3.723
1360,43.52,1.4558,3.7116,0.1797,0.0002,-0.0000,2.5897,flat,18.0,0,3.164
1370,43.84,0.9711,4.0021,0.1797,0.0001,-0.0000,2.6182,flat,18.0,0,2.600
1380,44.16,0.4807,4.2812,0.1797,0.0001,0.0000,2.6319,flat,18.0,0,2.038
1390,44.48,0.0340,4.5309,0.1797,0.0000,0.0001,2.6317,flat,18.0,0,1.530
1400,44.80,-0.3338,4.7367,0.1797,0.0000,0.0001,2.6315,flat,18.0,0,1.115
1410,45.12,-0.6785,4.9386,0.1798,0.0000,-0.0001,2.4976,flat,18.0,1,2.455
1420,45.44,-1.0168,5.2554,0.1799,-0.0001,-0.0000,2.2508,flat,18.0,1,2.115
1430,45.76,-1.2847,5.6406,0.1799,-0.0001,0.0000,2.0537,flat,18.0,1,1.750
1440,46.08,-1.4472,5.9790,0.1798,-0.0002,-0.0000,1.8768,flat,18.0,1,1.455
1450,46.40,-1.5512,6.3297,0.1798,-0.0000,-0.0000,1.6590,flat,18.0,1,1.168
1460,46.72,-1.5720,6.7469,0.1799,0.0000,0.0000,1.2604,flat,18.0,2,8.165
1470,47.04,-1.4024,7.1132,0.1799,0.0000,-0.0000,0.8380,flat,18.0,2,8.177
1480,47.36,-1.0666,7.4000,0.1799,0.0001,-0.0000,0.4958,flat,18.0,2,8.024
1490,47.68,-0.6422,7.5788,0.1800,-0.0001,-0.0000,0.2247,flat,18.0,2,7.760
1500,48.00,-0.1219,7.6887,0.1798,-0.0001,-0.0000,0.1979,flat,18.0,2,7.396
1510,48.32,0.3909,7.7891,0.1797,-0.0001,0.0000,0.1704,flat,18.0,2,7.054
1520,48.64,0.8855,7.8709,0.1797,-0.0001,0.0000,0.1306,flat,18.0,2,6.736
1530,48.96,1.3667,7.9305,0.1797,-0.0001,0.0000,0.0796,flat,18.0,2,6.434
1540,49.28,1.8393,7.9641,0.1797,-0.0002,0.0000,0.0186,flat,18.0,2,6.141
1550,49.60,2.3074,7.9687,0.1797,-0.0002,0.0000,-0.0449,flat,18.0,2,5.852
1560,49.92,2.7769,7.9432,0.1797,-0.0002,-0.0000,-0.1069,flat,18.0,2,5.561
1570,50.24,3.2528,7.8874,0.1797,-0.0002,-0.0000,-0.1634,flat,18.0,2,5.266
1580,50.56,3.7396,7.8025,0.1797,-0.0001,-0.0000,-0.2058,flat,18.0,2,4.969
1590,50.88,4.2443,7.6931,0.1797,-0.0001,-0.0000,-0.2356,flat,18.0,2,4.675
1600,51.20,4.7728,7.5634,0.1797,-0.0001,-0.0000,-0.2515,flat,18.0,2,4.398
1610,51.52,5.3089,7.4247,0.1797,-0.0000,0.0001,-0.2725,flat,18.0,2,4.163
1620,51.84,5.7935,7.2788,0.1798,0.0000,0.0001,-0.4106,flat,18.0,2,3.985
1630,52.16,6.2151,7.0650,0.1799,0.0000,0.0000,-0.6322,flat,18.0,2,3.791
1640,52.48,6.5526,6.7562,0.1799,0.0000,-0.0000,-0.9003,flat,18.0,2,3.538
1650,52.80,6.8149,6.3547,0.1799,-0.0000,-0.0000,-1.1948,flat,18.0,2,3.216
1660,53.12,6.9686,5.8830,0.1799,-0.0000,-0.0000,-1.5058,flat,18.0,2,2.830
1670,53.44,6.9734,5.3768,0.1799,-0.0001,-0.0000,-1.7702,flat,18.0,2,2.378
1680,53.76,6.8539,4.8816,0.1799,-0.0002,0.0000,-1.9205,flat,18.0,2,1.891
1690,54.08,6.6868,4.4458,0.1798,-0.0002,0.0001,-1.9779,flat,18.0,2,1.437
1700,54.40,6.5325,4.0974,0.1797,-0.0001,0.0001,-2.0326,flat,18.0,2,1.069
1710,54.72,6.3812,3.8015,0.1797,-0.0000,-0.0001,-2.0150,flat,18.0,3,2.517
1720,55.04,6.2276,3.4135,0.1799,-0.0001,-0.0001,-1.6945,flat,18.0,3,2.332
1730,55.36,6.2041,2.9641,0.1799,0.0000,-0.0000,-1.2797,flat,18.0,3,2.068
1740,55.68,6.3594,2.5455,0.1799,0.0001,0.0000,-1.0528,flat,18.0,3,1.726
1750,56.00,6.5770,2.1951,0.1798,0.0002,0.0001,-0.9224,flat,18.0,3,1.398
1760,56.32,6.7967,1.9385,0.1798,0.0002,0.0001,-0.7555,flat,18.0,3,1.131
1770,56.64,7.1075,1.7042,0.1799,0.0001,0.0001,-0.5936,flat,18.0,0,9.100
1780,56.96,7.3864,1.4961,0.1798,0.0001,0.0002,-0.7761,flat,18.0,0,9.440
1790,57.28,7.5564,1.2833,0.1798,0.0003,-0.0001,-1.3274,flat,18.0,0,9.684
1800,57.60,7.6146,0.9373,0.1799,0.0002,-0.0001,-1.9708,flat,18.0,0,9.890
1810,57.92,7.3866,0.5322,0.1799,-0.0002,-0.0001,-2.2649,flat,18.0,0,9.884
1820,58.24,7.0429,0.1856,0.1799,-0.0000,-0.0000,-2.4697,flat,18.0,0,9.770
1830,58.56,6.6313,-0.0938,0.1799,-0.0000,-0.0000,-2.7062,flat,18.0,0,9.586
1840,58.88,6.1676,-0.2786,0.1799,-0.0000,0.0001,-2.9941,flat,18.0,0,9.324
1850,59.20,5.7026,-0.3154,0.1799,0.0000,-0.0000,2.8833,flat,18.0,0,8.986
1860,59.52,5.2490,-0.1606,0.1799,-0.0000,-0.0000,2.6205,flat,18.0,0,8.541
1870,59.84,4.8246,0.1203,0.1799,-0.0001,-0.0000,2.4571,flat,18.0,0,8.037
1880,60.16,4.4254,0.4772,0.1798,-0.0003,-0.0001,2.3626,flat,18.0,0,7.501
1890,60.48,4.0403,0.8772,0.1797,-0.0002,-0.0000,2.3148,flat,18.0,0,6.948
1900,60.80,3.6568,1.3003,0.1797,-0.0000,-0.0000,2.3049,flat,18.0,0,6.381
1910,61.12,3.2737,1.7195,0.1797,0.0001,0.0000,2.3236,flat,18.0,0,5.817
1920,61.44,2.8842,2.1230,0.1797,0.0001,0.0000,2.3587,flat,18.0,0,5.260
1930,61.76,2.4814,2.5087,0.1797,0.0001,0.0000,2.4011,flat,18.0,0,4.704
1940,62.08,2.0625,2.8764,0.1797,0.0001,-0.0000,2.4430,flat,18.0,0,4.147
1950,62.40,1.6280,3.2292,0.1797,0.0001,-0.0000,2.4791,flat,18.0,0,3.588
1960,62.72,1.1791,3.5701,0.1797,0.0001,-0.0000,2.5077,flat,18.0,0,3.024
1970,63.04,0.7186,3.9023,0.1797,0.0001,-0.0000,2.5270,flat,18.0,0,2.457
1980,63.36,0.2619,4.2213,0.1797,0.0000,0.0001,2.5365,flat,18.0,0,1.902
1990,63.68,-0.1405,4.4990,0.1797,0.0000,0.0001,2.5391,flat,18.0,0,1.417
2000,64.00,-0.4696,4.7248,0.1797,0.0000,0.0001,2.5356,flat,18.0,0,1.024
2010,64.32,-0.8228,4.9942,0.1799,0.0000,-0.0000,2.3786,flat,18.0,1,2.384
2020,64.64,-1.1357,5.3524,0.1799,-0.0000,0.0000,2.1557,flat,18.0,1,2.021
2030,64.96,-1.3681,5.7460,0.1799,-0.0001,0.0002,1.9696,rough,14.0,1,1.661
2040,65.28,-1.4965,6.0813,0.1798,-0.0002,-0.0001,1.8001,flat,18.0,1,1.374
2050,65.60,-1.5774,6.4325,0.1798,-0.0000,-0.0001,1.5410,flat,18.0,1,1.091
2060,65.92,-1.5460,6.8432,0.1799,0.0001,-0.0000,1.1034,flat,18.0,2,8.183
2070,66.24,-1.3093,7.1800,0.1799,0.0000,-0.0000,0.7249,flat,18.0,2,8.126
2080,66.56,-0.9386,7.4398,0.1799,0.0001,-0.0000,0.3638,flat,18.0,2,7.935
2090,66.88,-0.5214,7.5613,0.1800,-0.0001,-0.0002,0.0981,flat,18.0,2,7.650
2100,67.20,0.0074,7.6072,0.1798,-0.0000,-0.0000,0.0732,flat,18.0,2,7.244
2110,67.52,0.5533,7.6459,0.1797,-0.0000,0.0000,0.0582,flat,18.0,2,6.838
2120,67.84,1.0918,7.6755,0.1797,-0.0001,0.0000,0.0383,flat,18.0,2,6.452
2130,68.16,1.6250,7.6937,0.1797,-0.0001,0.0000,0.0143,flat,18.0,2,6.084
2140,68.48,2.1556,7.6989,0.1797,-0.0001,0.0000,-0.0123,flat,18.0,2,5.735
2150,68.80,2.6863,7.6898,0.1797,-0.0001,-0.0000,-0.0389,flat,18.0,2,5.403
2160,69.12,3.2201,7.6664,0.1797,-0.0001,-0.0000,-0.0634,flat,18.0,2,5.091
2170,69.44,3.7598,7.6298,0.1797,-0.0001,-0.0000,-0.0839,flat,18.0,2,4.804
2180,69.76,4.3084,7.5817,0.1797,-0.0001,-0.0000,-0.0988,flat,18.0,2,4.549
2190,70.08,4.8683,7.5249,0.1797,-0.0000,-0.0000,-0.1066,flat,18.0,2,4.338
2200,70.40,5.4223,7.4654,0.1797,-0.0000,0.0001,-0.1282,flat,18.0,2,4.191
2210,70.72,5.9313,7.3928,0.1798,-0.0001,0.0001,-0.2446,flat,18.0,2,4.100
2220,71.04,6.3988,7.2580,0.1799,0.0000,0.0000,-0.4521,flat,18.0,2,4.005
2230,71.36,6.7859,7.0225,0.1799,0.0000,-0.0000,-0.7404,flat,18.0,2,3.850
2240,71.68,7.1010,6.6683,0.1799,0.0000,-0.0000,-0.9933,flat,18.0,2,3.607
2250,72.00,7.3389,6.2357,0.1799,-0.0000,-0.0000,-1.2690,flat,18.0,2,3.308
2260,72.32,7.4641,5.7528,0.1799,-0.0000,0.0000,-1.5819,flat,18.0,2,2.954
2270,72.64,7.4284,5.2729,0.1799,-0.0001,-0.0000,-1.9004,flat,18.0,2,2.546
2280,72.96,7.2407,4.8138,0.1799,-0.0001,0.0000,-2.0986,flat,18.0,2,2.076
2290,73.28,6.9811,4.4051,0.1798,-0.0002,0.0001,-2.1878,flat,18.0,2,1.602
2300,73.60,6.7358,4.0723,0.1797,-0.0001,0.0001,-2.2433,flat,18.0,2,1.197
2310,73.92,6.5160,3.8078,0.1797,-0.0001,-0.0000,-2.2632,flat,18.0,3,2.442
2320,74.24,6.2827,3.4735,0.1799,-0.0002,-0.0001,-1.9974,flat,18.0,3,2.334
2330,74.56,6.1243,3.0526,0.1799,-0.0000,0.0001,-1.5580,flat,18.0,3,2.184
2340,74.88,6.1598,2.6269,0.1799,0.0000,-0.0000,-1.1628,flat,18.0,3,1.941
2350,75.20,6.3554,2.2410,0.1799,0.0001,0.0000,-0.9634,flat,18.0,3,1.623
2360,75.52,6.5904,1.9398,0.1798,0.0002,0.0002,-0.8019,flat,18.0,3,1.336
2370,75.84,6.8364,1.7250,0.1798,0.0000,-0.0001,-0.5834,flat,18.0,3,1.087
2380,76.16,7.1797,1.5375,0.1799,0.0001,0.0001,-0.4794,flat,18.0,0,9.235
2390,76.48,7.4753,1.3675,0.1798,0.0001,0.0001,-0.6926,flat,18.0,0,9.575
2400,76.80,7.6771,1.1256,0.1799,0.0004,-0.0001,-1.1054,flat,18.0,0,9.862
2410,77.12,7.8457,0.7120,0.1800,-0.0001,-0.0000,-1.3521,flat,18.0,0,10.199
2420,77.44,7.9479,0.2359,0.1798,-0.0001,0.0000,-1.3979,flat,18.0,0,10.518
2430,77.76,8.0240,-0.2248,0.1797,-0.0002,0.0000,-1.4599,flat,18.0,0,10.819
2440,78.08,8.0698,-0.6741,0.1797,-0.0002,0.0000,-1.5296,flat,18.0,0,11.100
2450,78.40,8.0841,-1.1168,0.1797,-0.0002,0.0000,-1.6027,flat,18.0,0,11.362
2460,78.72,8.0658,-1.5592,0.1797,-0.0002,-0.0000,-1.6749,flat,18.0,0,11.610
2470,79.04,8.0145,-2.0068,0.1797,-0.0002,-0.0000,-1.7422,flat,18.0,0,11.846
2480,79.36,7.9302,-2.4643,0.1797,-0.0002,-0.0000,-1.7984,flat,18.0,0,12.076
2490,79.68,7.8157,-2.9377,0.1797,-0.0001,-0.0000,-1.8381,flat,18.0,0,12.308
2500,80.00,7.6755,-3.4348,0.1797,-0.0001,-0.0001,-1.8643,flat,18.0,0,12.553
2510,80.32,7.5137,-3.9622,0.1797,-0.0000,-0.0001,-1.8751,flat,18.0,0,12.822
2520,80.64,7.3692,-4.4220,0.1797,-0.0000,0.0002,-1.8773,flat,18.0,0,13.069
2530,80.96,7.2535,-4.7751,0.1798,-0.0001,0.0001,-1.9984,flat,18.0,0,13.264
2540,81.28,7.1250,-5.0122,0.1798,0.0001,0.0002,-2.4328,flat,18.0,0,13.367
2550,81.60,6.9337,-5.1306,0.1798,0.0004,-0.0001,3.1205,flat,18.0,0,13.343
2560,81.92,6.5973,-5.0841,0.1799,0.0002,-0.0001,2.5087,flat,18.0,0,13.104
2570,82.24,6.2432,-4.7510,0.1798,-0.0003,-0.0001,2.2769,flat,18.0,0,12.626
2580,82.56,5.8918,-4.3200,0.1797,-0.0002,-0.0000,2.2321,flat,18.0,0,12.071
2590,82.88,5.5528,-3.8711,0.1797,-0.0001,-0.0000,2.2009,flat,18.0,0,11.508
2600,83.20,5.2219,-3.4091,0.1797,-0.0001,-0.0000,2.1827,flat,18.0,0,10.940
2610,83.52,4.8944,-2.9387,0.1797,-0.0000,-0.0000,2.1759,flat,18.0,0,10.367
2620,83.84,4.5672,-2.4659,0.1797,0.0000,0.0000,2.1776,flat,18.0,0,9.792
2630,84.16,4.2393,-1.9962,0.1797,0.0000,0.0000,2.1847,flat,18.0,0,9.219
2640,84.48,3.9082,-1.5302,0.1797,0.0000,0.0000,2.1943,flat,18.0,0,8.648
2650,84.80,3.5725,-1.0677,0.1797,0.0000,-0.0000,2.2043,flat,18.0,0,8.076
2660,85.12,3.2321,-0.6080,0.1797,0.0000,-0.0000,2.2131,flat,18.0,0,7.504
2670,85.44,2.8875,-0.1505,0.1797,0.0000,-0.0000,2.2201,flat,18.0,0,6.932
2680,85.76,2.5395,0.3058,0.1797,0.0000,-0.0000,2.2249,flat,18.0,0,6.358
2690,86.08,2.1891,0.7614,0.1797,0.0000,-0.0000,2.2277,flat,18.0,0,5.784
2700,86.40,1.8374,1.2169,0.1797,0.0000,-0.0000,2.2287,flat,18.0,0,5.209
2710,86.72,1.4853,1.6726,0.1797,-0.0000,0.0000,2.2286,flat,18.0,0,4.633
2720,87.04,1.1336,2.1282,0.1797,-0.0000,0.0000,2.2276,flat,18.0,0,4.058
2730,87.36,0.7826,2.5841,0.1797,-0.0000,0.0000,2.2262,flat,18.0,0,3.484
2740,87.68,0.4322,3.0404,0.1797,-0.0000,-0.0000,2.2247,flat,18.0,0,2.909
2750,88.00,0.0826,3.4972,0.1797,-0.0000,0.0000,2.2233,flat,18.0,0,2.336
2760,88.32,-0.2509,3.9341,0.1797,-0.0000,0.0001,2.2224,flat,18.0,0,1.789
2770,88.64,-0.5356,4.3076,0.1797,-0.0000,0.0001,2.2216,flat,18.0,0,1.322
2780,88.96,-0.7825,4.6378,0.1797,-0.0001,-0.0001,2.1886,flat,18.0,1,2.742
2790,89.28,-1.0476,5.0666,0.1799,-0.0000,-0.0000,2.0088,flat,18.0,1,2.304
2800,89.60,-1.2420,5.5374,0.1799,-0.0002,0.0000,1.8470,flat,18.0,1,1.846
2810,89.92,-1.3467,5.9505,0.1798,-0.0002,0.0003,1.7626,rough,14.0,1,1.457
