step,time_s,x,y,z,roll,pitch,yaw,terrain,speed,target_idx,dist_to_target
10,0.32,-1.2823,0.8526,0.2186,0.1943,-0.0081,-0.4051,rough,14.0,0,8.532
20,0.64,-0.9264,0.7254,0.2389,0.1088,-0.0445,-0.3597,rough,14.0,0,8.176
30,0.96,-0.5004,0.5603,0.2318,0.0463,0.0906,-0.4074,rough,14.0,0,7.745
40,1.28,-0.1173,0.3767,0.2118,0.0552,0.0219,-0.4581,rough,14.0,0,7.336
50,1.60,0.2574,0.1836,0.2149,0.0452,-0.0411,-0.4946,rough,14.0,0,6.929
60,1.92,0.6322,-0.0360,0.2309,0.0744,-0.0245,-0.5271,rough,14.0,0,6.505
70,2.24,1.0041,-0.2737,0.2322,0.1413,0.0085,-0.5535,rough,14.0,0,6.073
80,2.56,1.3870,-0.5120,0.2101,0.1106,0.0803,-0.5785,rough,14.0,0,5.633
90,2.88,1.7496,-0.7534,0.1770,0.1003,0.0785,-0.6076,rough,14.0,0,5.207
100,3.20,2.1058,-1.0205,0.1333,0.1303,0.1163,-0.6350,rough,14.0,0,4.769
110,3.52,2.4549,-1.3031,0.0727,0.1848,0.1907,-0.6623,rough,14.0,0,4.325
120,3.84,2.8162,-1.6318,-0.0529,0.3633,0.5005,-0.6087,rough,14.0,0,3.839
130,4.16,3.0927,-1.8977,-0.1858,0.3458,0.2098,-0.7193,rough,14.0,0,3.457
140,4.48,3.3719,-2.1737,-0.2427,0.3757,0.0228,-0.7996,rough,14.0,0,3.066
150,4.80,3.6334,-2.5035,-0.2380,0.4347,-0.0248,-0.8229,rough,14.0,0,2.645
160,5.12,3.9501,-2.8567,-0.2895,0.3399,0.2157,-0.8159,rough,14.0,0,2.171
170,5.44,4.1874,-3.2225,-0.3845,0.3541,0.1141,-0.8910,rough,14.0,0,1.739
180,5.76,4.4561,-3.5547,-0.4199,0.2435,0.0162,-0.9310,rough,14.0,0,1.312
190,6.08,4.6676,-3.8909,-0.3865,0.2766,-0.1914,-0.9818,rough,14.0,0,0.925
200,6.40,4.8024,-4.1587,-0.3343,0.2059,-0.0196,-1.2792,rough,14.0,1,12.267
210,6.72,4.7279,-4.3493,-0.3704,0.2600,0.0434,-1.7939,rough,14.0,1,12.426
220,7.04,4.6190,-4.6388,-0.3925,0.2524,0.1188,-2.0405,rough,14.0,1,12.671
230,7.36,4.4541,-4.8754,-0.4385,0.2034,0.2026,-2.3322,rough,14.0,1,12.853
240,7.68,4.2008,-5.0516,-0.5078,0.1488,0.2128,-2.6029,rough,14.0,1,12.958
250,8.00,3.8991,-5.1191,-0.5729,0.2638,0.3132,-2.8750,rough,14.0,1,12.953
260,8.32,3.5922,-5.1325,-0.6612,0.1885,0.2154,-3.1389,rough,14.0,1,12.902
270,8.64,3.2276,-5.0802,-0.7530,0.0827,0.2582,2.9420,rough,14.0,1,12.782
280,8.96,2.8912,-4.9838,-0.8351,0.0446,0.1482,2.8136,rough,14.0,1,12.633
290,9.28,2.5869,-4.8423,-0.8485,0.1508,-0.0817,2.7697,rough,14.0,1,12.451
300,9.60,2.2723,-4.6866,-0.7915,0.2895,0.0446,2.7379,rough,14.0,1,12.261
310,9.92,2.0401,-4.5185,-0.7943,0.2728,-0.1724,2.4821,rough,14.0,1,12.072
320,10.24,1.7715,-4.2687,-0.8152,0.4052,-0.0128,2.4307,rough,14.0,1,11.803
330,10.56,1.5409,-3.9935,-0.8062,0.4823,-0.1558,2.2295,rough,14.0,1,11.515
340,10.88,1.3231,-3.7208,-0.6992,0.3181,-0.3449,2.1411,rough,14.0,1,11.235
350,11.20,1.1355,-3.4087,-0.5636,0.3216,-0.4095,2.0717,rough,14.0,1,10.919
360,11.52,0.9762,-3.0909,-0.4282,0.2282,-0.3422,1.9443,rough,14.0,1,10.601
370,11.84,0.8002,-2.7355,-0.3011,0.0729,-0.3837,1.9303,rough,14.0,1,10.248
380,12.16,0.6316,-2.3446,-0.2065,-0.0552,-0.2696,1.9130,rough,14.0,1,9.862
390,12.48,0.4924,-1.9558,-0.0846,-0.0592,-0.3230,1.9121,rough,14.0,1,9.480
400,12.80,0.3519,-1.5443,0.0413,-0.0449,-0.2589,1.9013,rough,14.0,1,9.079
410,13.12,0.2054,-1.1141,0.1312,-0.0560,-0.1254,1.8787,rough,14.0,1,8.662
420,13.44,0.0683,-0.6797,0.1760,-0.0627,-0.0441,1.8671,rough,14.0,1,8.244
430,13.76,-0.0569,-0.2516,0.1899,-0.0344,-0.0374,1.8586,rough,14.0,1,7.836
440,14.08,-0.1791,0.1745,0.2047,-0.0218,-0.0477,1.8515,rough,14.0,1,7.432
450,14.40,-0.2966,0.5943,0.2286,-0.0170,-0.0816,1.8457,rough,14.0,1,7.039
460,14.72,-0.4085,1.0172,0.2663,0.0026,-0.1090,1.8340,rough,14.0,1,6.648
470,15.04,-0.5174,1.4339,0.3261,0.0141,-0.1584,1.8268,rough,14.0,1,6.267
480,15.36,-0.6517,1.8588,0.3606,-0.0805,-0.0933,1.8365,rough,14.0,1,5.893
490,15.68,-0.7696,2.2844,0.3838,-0.0835,-0.0873,1.8291,rough,14.0,1,5.523
500,16.00,-0.8529,2.7118,0.4196,0.0448,-0.1199,1.8104,rough,14.0,1,5.150
510,16.32,-0.9329,3.1372,0.4674,0.1405,-0.1588,1.7850,rough,14.0,1,4.788
520,16.64,-1.0118,3.5925,0.4705,0.2209,0.0641,1.7038,rough,14.0,1,4.412
530,16.96,-1.0225,4.0768,0.3593,0.2823,0.4370,1.6498,rough,14.0,1,3.994
540,17.28,-1.0256,4.5179,0.1485,0.3363,0.5841,1.6566,rough,14.0,1,3.624
550,17.60,-1.0271,4.9598,-0.1228,0.5165,0.5291,1.7697,rough,14.0,1,3.269
560,17.92,-1.0566,5.3595,-0.3398,0.6366,0.3847,1.7666,rough,14.0,1,2.988
570,18.24,-1.0584,5.7301,-0.5087,0.6147,0.3953,1.5840,rough,14.0,1,2.735
580,18.56,-0.9950,6.1075,-0.6862,0.6138,0.4387,1.4159,rough,14.0,1,2.454
590,18.88,-0.8792,6.4727,-0.8980,0.5240,0.5071,1.2545,rough,14.0,1,2.163
600,19.20,-0.7362,6.8218,-1.1007,0.3349,0.5118,1.1215,rough,14.0,1,1.885
610,19.52,-0.5595,7.1170,-1.2148,0.0799,0.2362,0.9229,rough,14.0,1,1.626
620,19.84,-0.3444,7.3315,-1.2297,0.1188,-0.1789,0.8366,rough,14.0,1,1.375
630,20.16,-0.0348,7.5528,-1.1942,0.3241,-0.2103,0.6888,rough,14.0,1,1.054
640,20.48,0.2833,7.7329,-1.1132,0.4346,-0.2376,0.5467,rough,14.0,2,15.061
650,20.80,0.4905,7.7132,-1.1119,0.5231,-0.0728,0.0742,rough,14.0,2,15.158
660,21.12,0.7819,7.6177,-1.1590,0.5684,0.1400,-0.2987,rough,14.0,2,15.242
670,21.44,0.9786,7.4588,-1.1990,0.5245,-0.0318,-0.7112,rough,14.0,2,15.226
680,21.76,1.1818,7.2031,-1.2067,0.4985,-0.0419,-0.9409,rough,14.0,2,15.140
690,22.08,1.3384,6.9081,-1.2262,0.4147,0.0104,-1.1396,rough,14.0,2,15.000
700,22.40,1.4294,6.5388,-1.2829,0.4457,0.1132,-1.2671,rough,14.0,2,14.768
710,22.72,1.4777,6.1713,-1.3400,0.3894,0.0904,-1.4996,rough,14.0,2,14.516
720,23.04,1.5276,5.7585,-1.3904,0.0655,0.0859,-1.5960,rough,14.0,2,14.237
730,23.36,1.5288,5.4410,-1.3596,-0.0572,-0.2051,-1.6668,rough,14.0,2,14.001
740,23.68,1.5027,5.1851,-1.2618,-0.0693,-0.5985,-1.6331,rough,14.0,2,13.795
750,24.00,1.5027,4.9255,-1.1165,-0.2066,-0.5869,-1.6238,rough,14.0,2,13.606
760,24.32,1.5064,4.6603,-0.9226,-0.2714,-0.7002,-1.5709,rough,14.0,2,13.418
770,24.64,1.5071,4.4180,-0.7292,-0.2799,-0.6610,-1.5782,rough,14.0,2,13.247
780,24.96,1.5077,4.1594,-0.5335,-0.2928,-0.6708,-1.5819,rough,14.0,2,13.066
790,25.28,1.4928,3.8531,-0.3288,-0.2373,-0.5222,-1.6108,rough,14.0,2,12.845
800,25.60,1.5644,3.6390,-0.2187,-0.1814,-0.5755,-1.7663,rough,14.0,2,12.752
810,25.92,1.5871,3.5885,-0.2094,-0.2052,-0.5100,-1.6750,rough,14.0,2,12.736
820,26.24,1.6029,3.5400,-0.1908,-0.2788,-0.4728,-1.4930,rough,14.0,2,12.715
830,26.56,1.6480,3.4541,-0.1736,-0.2812,-0.4105,-1.4177,rough,14.0,2,12.692
840,26.88,1.7340,3.2924,-0.1369,-0.3413,-0.2384,-1.3166,rough,14.0,2,12.651
850,27.20,1.8224,3.0519,-0.0828,-0.3217,-0.3515,-1.5259,rough,14.0,2,12.565
860,27.52,1.8409,2.8161,-0.0128,-0.2940,-0.3288,-1.6049,rough,14.0,2,12.431
870,27.84,1.8079,2.6126,0.0533,-0.2015,-0.2859,-1.6740,rough,14.0,2,12.279
880,28.16,1.7730,2.4330,0.1104,-0.1691,-0.3464,-1.7219,rough,14.0,2,12.142
890,28.48,1.6891,2.2226,0.1701,-0.0425,-0.2467,-1.8675,rough,14.0,2,11.949
900,28.80,1.5783,1.9759,0.2314,-0.0085,-0.2244,-1.9465,rough,14.0,2,11.713
910,29.12,1.4171,1.5900,0.3033,-0.0108,-0.1336,-2.0237,rough,14.0,2,11.358
920,29.44,1.2118,1.2090,0.3445,0.0337,-0.0266,-2.0866,rough,14.0,2,10.973
930,29.76,0.9753,0.8252,0.3245,0.0477,0.1062,-2.1447,rough,14.0,2,10.565
940,30.08,0.7300,0.4641,0.2693,0.0245,0.1306,-2.1979,rough,14.0,2,10.164
950,30.40,0.4716,0.1285,0.2247,0.0301,0.0771,-2.2472,rough,14.0,2,9.768
960,30.72,0.1952,-0.2057,0.2002,-0.0029,0.0530,-2.2957,rough,14.0,2,9.360
970,31.04,-0.1012,-0.5273,0.1782,-0.0116,0.0600,-2.3354,rough,14.0,2,8.943
980,31.36,-0.4264,-0.8520,0.1208,0.0126,0.1737,-2.3674,rough,14.0,2,8.501
990,31.68,-0.7390,-1.1566,0.0534,-0.0467,0.1665,-2.4008,rough,14.0,2,8.082
1000,32.00,-1.0361,-1.4205,0.0315,-0.0223,-0.0563,-2.4246,rough,14.0,2,7.697
1010,32.32,-1.3733,-1.6880,0.0569,0.0512,-0.0971,-2.4617,rough,14.0,2,7.275
1020,32.64,-1.7081,-1.9436,0.1044,0.0754,-0.1586,-2.4927,rough,14.0,2,6.863
1030,32.96,-2.0375,-2.1567,0.2023,0.1806,-0.3055,-2.5256,rough,14.0,2,6.474
1040,33.28,-2.2774,-2.3152,0.3411,0.2883,-0.6221,-2.6740,rough,14.0,2,6.189
1050,33.60,-2.5171,-2.4252,0.5389,0.3059,-0.7333,-2.8509,rough,14.0,2,5.925
1060,33.92,-2.8380,-2.4801,0.7479,0.4136,-0.5725,-2.8668,rough,14.0,2,5.612
1070,34.24,-3.1485,-2.5810,0.9586,0.2702,-0.5060,-2.8501,rough,14.0,2,5.288
1080,34.56,-3.5454,-2.7008,1.1356,0.2515,-0.3577,-2.8255,rough,14.0,2,4.880
1090,34.88,-3.9270,-2.8318,1.2912,0.2227,-0.3939,-2.8146,rough,14.0,2,4.481
1100,35.20,-4.3368,-2.9597,1.4363,0.2567,-0.2719,-2.7770,rough,14.0,2,4.059
1110,35.52,-4.7971,-3.1003,1.3832,0.4475,0.1308,-2.7380,rough,14.0,2,3.589
1120,35.84,-5.2194,-3.2771,1.2984,0.4463,0.1757,-2.7083,rough,14.0,2,3.136
1130,36.16,-5.6183,-3.4908,1.2116,0.3191,0.2289,-2.6729,rough,14.0,2,2.685
1140,36.48,-6.0469,-3.7065,1.0474,0.4063,0.4830,-2.5818,rough,14.0,2,2.207
1150,36.80,-6.3999,-3.8986,0.9248,0.2428,0.1684,-2.6659,rough,14.0,2,1.807
1160,37.12,-6.6856,-4.0249,0.9514,0.2725,-0.2815,-2.8138,rough,14.0,2,1.501
1170,37.44,-6.9888,-4.1307,1.0885,0.2458,-0.5263,-2.8513,rough,14.0,2,1.197
1180,37.76,-7.3752,-4.3328,1.2144,-0.0049,-0.0793,-2.7768,rough,14.0,3,0.779
1190,38.08,-7.7567,-4.4833,1.2508,0.0249,-0.1349,-2.7721,rough,14.0,0,0.777
1200,38.40,-7.9298,-4.5311,1.2912,-0.0497,-0.4301,-2.3390,rough,14.0,0,13.275
1210,38.72,-8.0204,-4.6980,1.3359,-0.2792,-0.4264,-2.0700,rough,14.0,0,13.366
1220,39.04,-8.0634,-4.8911,1.4072,-0.4477,-0.3682,-1.7411,rough,14.0,0,13.413
1230,39.36,-8.0140,-5.1693,1.4568,-0.5584,-0.1706,-1.4125,rough,14.0,0,13.374
1240,39.68,-7.8944,-5.4105,1.4895,-0.6140,-0.2570,-1.0390,rough,14.0,0,13.269
1250,40.00,-7.7263,-5.7006,1.5298,-0.4256,-0.1472,-0.8798,rough,14.0,0,13.124
1260,40.32,-7.4724,-5.9379,1.5762,-0.4374,-0.1415,-0.7383,rough,14.0,0,12.895
1270,40.64,-7.1914,-6.1586,1.6221,-0.3459,-0.1821,-0.5413,rough,14.0,0,12.643
1280,40.96,-6.7579,-6.4588,1.5066,-0.0301,0.5089,-0.5260,rough,14.0,0,12.257
1290,41.28,-6.4051,-6.6168,1.3554,-0.0290,0.3178,-0.3864,rough,14.0,0,11.935
1300,41.60,-6.0111,-6.7529,1.2071,-0.0839,0.3686,-0.2975,rough,14.0,0,11.573
1310,41.92,-5.6468,-6.8689,1.1190,0.0100,0.1458,-0.2263,rough,14.0,0,11.240
1320,42.24,-5.2065,-7.0491,1.0430,0.3795,0.3006,-0.1738,rough,14.0,0,10.850
1330,42.56,-4.8051,-7.1481,0.9348,0.5163,0.1882,-0.0333,rough,14.0,0,10.484
1340,42.88,-4.3792,-7.1683,0.8374,0.4919,0.0823,0.0371,rough,14.0,0,10.078
1350,43.20,-3.9113,-7.1069,0.7020,0.3869,0.2696,0.1377,rough,14.0,0,9.611
1360,43.52,-3.6309,-7.1103,0.7278,0.4002,-0.2783,-0.0734,rough,14.0,0,9.342
1370,43.84,-3.2885,-7.2242,0.7874,0.6236,-0.5202,-0.0782,rough,14.0,0,9.047
1380,44.16,-3.0373,-7.3425,0.8595,0.6158,-0.5078,-0.1506,rough,14.0,0,8.844
1390,44.48,-2.7302,-7.4828,0.8982,0.7297,-0.1642,-0.1881,rough,14.0,0,8.601
1400,44.80,-2.3334,-7.6308,0.8979,0.7300,-0.2040,-0.0722,rough,14.0,0,8.284
1410,45.12,-2.0293,-7.8063,0.8889,0.6589,-0.5354,0.0104,rough,14.0,0,8.073
1420,45.44,-1.8256,-7.9387,0.8933,0.6429,-0.5026,-0.2660,rough,14.0,0,7.943
1430,45.76,-1.6974,-8.1253,0.8750,0.6756,-0.4775,-0.4355,rough,14.0,0,7.911
1440,46.08,-1.6431,-8.3583,0.7839,0.4306,-0.6915,-0.0240,rough,14.0,0,7.972
1450,46.40,-1.6278,-8.5648,0.6736,0.0840,-0.7893,0.4996,rough,14.0,0,8.061
1460,46.72,-1.5901,-8.7661,0.5697,-0.2943,-0.7279,1.3890,rough,14.0,0,8.131
1470,47.04,-1.5915,-8.9252,0.4552,-0.3935,-0.6121,1.5261,rough,14.0,0,8.217
1480,47.36,-1.5843,-8.9961,0.4173,-0.4020,-0.5776,1.6587,rough,14.0,0,8.249
1490,47.68,-1.6290,-8.9407,0.4311,-0.4872,-0.5303,1.7051,rough,14.0,0,8.257
1500,48.00,-1.6747,-8.7777,0.5206,-0.5231,-0.6314,1.7667,rough,14.0,0,8.210
1510,48.32,-1.7472,-8.5326,0.6007,-0.6480,-0.4440,1.6560,rough,14.0,0,8.148
1520,48.64,-1.8272,-8.2582,0.7035,-0.6283,-0.5352,1.6342,rough,14.0,0,8.087
1530,48.96,-1.8835,-7.9997,0.8232,-0.4116,-0.6248,1.4019,rough,14.0,0,8.022
1540,49.28,-1.8714,-7.7643,0.9715,-0.1144,-0.6750,1.0382,rough,14.0,0,7.912
1550,49.60,-1.7163,-7.5716,1.1684,-0.0298,-0.6746,0.8663,rough,14.0,0,7.692
1560,49.92,-1.5128,-7.2999,1.4019,-0.1268,-0.6243,0.8654,rough,14.0,0,7.399
1570,50.24,-1.2537,-7.0360,1.5636,-0.0584,-0.4361,0.7668,rough,14.0,0,7.062
1580,50.56,-0.9659,-6.7367,1.5640,-0.0074,0.0699,0.9328,rough,14.0,0,6.688
1590,50.88,-0.6591,-6.4031,1.4896,-0.0589,0.3083,0.8237,rough,14.0,0,6.292
1600,51.20,-0.3471,-6.0868,1.3050,-0.1669,0.4602,0.7401,rough,14.0,0,5.903
1610,51.52,0.0026,-5.7651,1.0063,-0.3259,0.8406,0.5251,rough,14.0,0,5.485
1620,51.84,0.4368,-5.3387,0.4030,-0.7429,1.1820,0.0065,rough,14.0,0,4.976
1630,52.16,0.9974,-4.7958,-0.3046,-0.4718,0.5465,0.2386,rough,14.0,0,4.356
1640,52.48,1.5086,-4.2872,-0.7157,0.0491,0.5831,0.7034,rough,14.0,0,3.843
1650,52.80,1.8490,-3.9502,-0.8453,-0.1289,0.0328,0.7326,rough,14.0,0,3.542
1660,53.12,2.0507,-3.7655,-0.8010,-0.1332,-0.4733,0.6867,rough,14.0,0,3.379
1670,53.44,2.3238,-3.6092,-0.6992,0.1137,-0.4059,0.5570,rough,14.0,0,3.155
1680,53.76,2.5959,-3.4384,-0.5719,0.1483,-0.3883,0.4212,rough,14.0,0,2.954
1690,54.08,2.9846,-3.2733,-0.5285,0.1349,0.0222,0.2179,rough,14.0,0,2.669
1700,54.40,3.3218,-3.2265,-0.5159,0.1838,-0.2235,0.0520,rough,14.0,0,2.401
1710,54.72,3.6875,-3.2508,-0.4729,0.3781,-0.1046,0.0346,rough,14.0,0,2.088
1720,55.04,4.0547,-3.3052,-0.4372,0.3786,-0.1867,-0.1774,rough,14.0,0,1.772
1730,55.36,4.4599,-3.4063,-0.4008,0.2140,-0.0481,-0.3224,rough,14.0,0,1.423
1740,55.68,4.7796,-3.5207,-0.3431,0.1609,-0.2865,-0.5339,rough,14.0,0,1.148
1750,56.00,5.0906,-3.7305,-0.2499,0.1995,-0.2449,-0.6968,rough,14.0,0,0.830
1760,56.32,5.2690,-3.8885,-0.1987,0.1859,-0.1975,-0.2668,rough,14.0,1,12.165
1770,56.64,5.4402,-3.9610,-0.1731,0.2026,-0.3286,-0.0302,rough,14.0,1,12.293
1780,56.96,5.6551,-3.9911,-0.1147,0.1910,-0.3283,0.2452,rough,14.0,1,12.400
1790,57.28,5.9567,-3.9105,-0.0840,0.2432,-0.0702,0.6305,rough,14.0,1,12.442
1800,57.60,6.1632,-3.7223,-0.0537,0.2090,-0.0925,0.8753,rough,14.0,1,12.354
1810,57.92,6.3702,-3.4216,-0.0601,0.0950,-0.0136,1.1136,rough,14.0,1,12.171
1820,58.24,6.4982,-3.1676,-0.0140,0.0360,-0.4247,1.3006,rough,14.0,1,12.001
1830,58.56,6.5266,-2.8598,0.0505,-0.2622,-0.2894,1.3740,rough,14.0,1,11.742
1840,58.88,6.4870,-2.4871,0.1063,-0.5459,-0.1366,1.5509,rough,14.0,1,11.395
1850,59.20,6.4314,-2.0592,0.0458,-0.5848,0.1243,1.6237,rough,14.0,1,10.994
1860,59.52,6.3590,-1.6628,-0.0310,-0.5624,0.1749,1.7749,rough,14.0,1,10.614
1870,59.84,6.2775,-1.2322,-0.1362,-0.1582,0.3175,1.8799,rough,14.0,1,10.202
1880,60.16,6.1545,-0.8693,-0.2105,-0.0526,0.1453,1.9698,rough,14.0,1,9.828
1890,60.48,5.9794,-0.4793,-0.2817,-0.0321,0.1863,2.0341,rough,14.0,1,9.404
1900,60.80,5.7869,-0.0849,-0.3828,0.0660,0.3254,2.1211,rough,14.0,1,8.967
1910,61.12,5.5553,0.2764,-0.5272,0.0401,0.3708,2.1607,rough,14.0,1,8.538
1920,61.44,5.4057,0.6361,-0.6071,0.2625,0.2472,2.2295,rough,14.0,1,8.154
1930,61.76,5.2390,0.9179,-0.6227,0.3474,-0.1854,2.1889,rough,14.0,1,7.827
1940,62.08,4.9898,1.2462,-0.5687,0.2863,-0.1537,2.2852,rough,14.0,1,7.416
1950,62.40,4.7525,1.5998,-0.5544,0.4750,0.0400,2.3410,rough,14.0,1,6.991
1960,62.72,4.5241,1.8978,-0.5758,0.4697,-0.0597,2.4028,rough,14.0,1,6.617
1970,63.04,4.2935,2.2111,-0.6190,0.4767,0.0280,2.4162,rough,14.0,1,6.229
1980,63.36,4.0951,2.4683,-0.5897,0.4986,-0.3083,2.3032,rough,14.0,1,5.906
1990,63.68,3.8586,2.7744,-0.5531,0.4410,-0.1685,2.3979,rough,14.0,1,5.522
2000,64.00,3.5650,3.0648,-0.5150,0.4407,-0.0578,2.4629,rough,14.0,1,5.123
2010,64.32,3.2060,3.3659,-0.5718,0.3580,0.2150,2.5369,rough,14.0,1,4.686
2020,64.64,2.8666,3.6385,-0.6665,0.4295,0.2284,2.5245,rough,14.0,1,4.290
2030,64.96,2.5624,3.8905,-0.7078,0.3625,0.0484,2.4015,rough,14.0,1,3.935
2040,65.28,2.2779,4.2315,-0.7756,0.4934,0.2343,2.3848,rough,14.0,1,3.512
2050,65.60,2.0014,4.5622,-0.9077,0.3548,0.2540,2.3165,rough,14.0,1,3.107
2060,65.92,1.7028,5.0108,-1.1648,0.6942,0.5348,2.6507,rough,14.0,1,2.591
2070,66.24,1.4938,5.3702,-1.2892,0.5331,0.0441,2.2345,rough,14.0,1,2.192
2080,66.56,1.2661,5.6919,-1.3574,0.3240,0.1931,1.9872,rough,14.0,1,1.835
2090,66.88,1.1581,5.9945,-1.3928,0.4257,-0.2352,1.8235,rough,14.0,1,1.522
2100,67.20,0.9955,6.3449,-1.3973,-0.0582,-0.0507,1.7455,rough,14.0,1,1.165
2110,67.52,0.8610,6.7415,-1.4462,-0.3808,-0.0434,1.6605,rough,14.0,2,0.784
2120,67.84,0.8239,6.9292,-1.4230,-0.4447,-0.2334,1.9549,rough,14.0,2,14.706
2130,68.16,0.7033,7.1406,-1.3777,-0.4191,-0.2635,2.3058,rough,14.0,2,14.807
2140,68.48,0.5254,7.3157,-1.3277,-0.3600,-0.2927,2.5860,rough,14.0,2,14.848
2150,68.80,0.2686,7.3920,-1.2874,-0.4142,-0.1985,2.8578,rough,14.0,2,14.767
2160,69.12,-0.0093,7.4172,-1.2370,-0.4580,-0.1728,3.0832,rough,14.0,2,14.637
2170,69.44,-0.2912,7.4472,-1.2175,-0.3695,-0.0361,3.1139,rough,14.0,2,14.513
2180,69.76,-0.5252,7.4672,-1.2162,-0.3349,0.0135,3.1147,rough,14.0,2,14.409
2190,70.08,-0.7325,7.5336,-1.2237,-0.0855,-0.1023,-3.0664,rough,14.0,2,14.361
2200,70.40,-1.0322,7.5889,-1.2099,0.2734,-0.1149,-2.8751,rough,14.0,2,14.263
2210,70.72,-1.2715,7.5502,-1.1277,0.3056,-0.5968,-2.8825,rough,14.0,2,14.115
2220,71.04,-1.5173,7.4570,-0.9647,0.1539,-0.6282,-2.7978,rough,14.0,2,13.918
2230,71.36,-1.8126,7.3334,-0.7981,0.1356,-0.4092,-2.7907,rough,14.0,2,13.675
2240,71.68,-2.1146,7.2296,-0.6616,0.1853,-0.5272,-2.7475,rough,14.0,2,13.449
2250,72.00,-2.3107,7.0861,-0.5031,-0.0534,-0.7967,-2.6355,rough,14.0,2,13.236
2260,72.32,-2.4201,7.0536,-0.4072,0.0171,-0.8481,-2.7835,rough,14.0,2,13.160
2270,72.64,-2.5129,7.0598,-0.3463,0.1355,-0.8075,-2.8647,rough,14.0,2,13.128
2280,72.96,-2.6509,7.0950,-0.2539,0.2927,-0.8573,-2.8951,rough,14.0,2,13.104
2290,73.28,-2.7423,7.1531,-0.2108,0.5423,-0.7756,3.0946,rough,14.0,2,13.121
2300,73.60,-2.7916,7.2835,-0.2579,0.6263,-0.7245,2.9111,rough,14.0,2,13.222
2310,73.92,-2.7620,7.4789,-0.4051,0.5008,-0.7321,3.0688,rough,14.0,2,13.414
2320,74.24,-2.8274,7.6957,-0.4847,0.5621,-0.5358,3.1081,rough,14.0,2,13.590
2330,74.56,-2.8880,7.8226,-0.5250,0.5775,-0.6468,-3.1218,rough,14.0,2,13.686
2340,74.88,-2.9899,7.9035,-0.5323,0.5582,-0.5328,3.1374,rough,14.0,2,13.724
2350,75.20,-3.2120,7.9680,-0.4885,0.7022,-0.2434,-3.1415,rough,14.0,2,13.707
2360,75.52,-3.4164,8.0927,-0.5280,0.6367,-0.6189,-3.0577,rough,14.0,2,13.756
2370,75.84,-3.5286,8.3259,-0.6651,0.4864,-0.6438,-2.8988,rough,14.0,2,13.941
2380,76.16,-3.6431,8.5588,-0.7674,0.0163,-0.7428,-2.3071,rough,14.0,2,14.128
2390,76.48,-3.6740,8.7444,-0.8743,-0.3700,-0.5965,-1.6238,rough,14.0,2,14.296
2400,76.80,-3.6794,8.8305,-0.9199,-0.3697,-0.5692,-1.5946,rough,14.0,2,14.377
2410,77.12,-3.6930,8.7816,-0.8822,-0.3546,-0.5962,-1.5835,rough,14.0,2,14.326
2420,77.44,-3.6983,8.6065,-0.7757,-0.3759,-0.5378,-1.6010,rough,14.0,2,14.157
2430,77.76,-3.6691,8.3425,-0.6054,-0.5426,-0.6754,-1.3895,rough,14.0,2,13.914
2440,78.08,-3.5810,8.0825,-0.4312,-0.4992,-0.6630,-1.4000,rough,14.0,2,13.694
2450,78.40,-3.4379,7.8973,-0.3333,-0.5290,-0.7625,-1.3933,rough,14.0,2,13.565
2460,78.72,-3.2979,7.8344,-0.3453,-0.1747,-0.8398,-1.8109,rough,14.0,2,13.552
2470,79.04,-3.2282,7.9285,-0.4734,0.1471,-0.8229,-2.2377,rough,14.0,2,13.664
2480,79.36,-3.2046,8.1283,-0.6437,0.4873,-0.6709,-2.6571,rough,14.0,2,13.860
2490,79.68,-3.3432,8.3438,-0.7659,0.6618,-0.5175,-3.0465,rough,14.0,2,14.018
2500,80.00,-3.4821,8.5217,-0.8263,0.4587,-0.5120,-3.0952,rough,14.0,2,14.142
2510,80.32,-3.6802,8.6588,-0.8179,0.3464,-0.5954,-2.8633,rough,14.0,2,14.212
2520,80.64,-3.9610,8.7464,-0.7382,0.2707,-0.6465,-2.6398,rough,14.0,2,14.216
2530,80.96,-4.2251,8.7342,-0.6046,0.2277,-0.6731,-2.4752,rough,14.0,2,14.133
2540,81.28,-4.4653,8.7046,-0.5002,0.2862,-0.6811,-2.4134,rough,14.0,2,14.044
2550,81.60,-4.6917,8.7199,-0.4202,0.3413,-0.8302,-2.2515,rough,14.0,2,14.005
2560,81.92,-4.7388,8.7449,-0.4282,-0.0807,-0.8205,-1.7065,rough,14.0,2,14.019
2570,82.24,-4.6275,8.8378,-0.5617,-0.2855,-0.7375,-1.3660,rough,14.0,2,14.135
2580,82.56,-4.5163,8.9880,-0.7072,-0.3089,-0.7040,-1.2021,rough,14.0,2,14.307
2590,82.88,-4.3527,9.1398,-0.8618,-0.3488,-0.5222,-1.1398,rough,14.0,2,14.493
2600,83.20,-4.2048,9.2389,-0.9557,-0.3481,-0.5326,-1.1903,rough,14.0,2,14.626
2610,83.52,-4.0710,9.2473,-0.9884,-0.3435,-0.5237,-1.2341,rough,14.0,2,14.669
2620,83.84,-3.9489,9.1546,-0.9732,-0.3651,-0.4717,-1.2894,rough,14.0,2,14.612
2630,84.16,-3.8237,8.8638,-0.8594,-0.4884,-0.4367,-1.3054,rough,14.0,2,14.367
2640,84.48,-3.7127,8.5089,-0.7039,-0.5257,-0.4571,-1.3228,rough,14.0,2,14.060
2650,84.80,-3.5883,8.2129,-0.5419,-0.5953,-0.5821,-1.2437,rough,14.0,2,13.815
2660,85.12,-3.4228,7.9624,-0.4046,-0.5857,-0.6558,-1.2724,rough,14.0,2,13.631
2670,85.44,-3.2438,7.8146,-0.3590,-0.6434,-0.6397,-1.1234,rough,14.0,2,13.552
2680,85.76,-2.9826,7.7942,-0.4549,-0.5805,-0.6497,-1.1243,rough,14.0,2,13.625
2690,86.08,-2.7485,7.8128,-0.5974,-0.4769,-0.4083,-1.0874,rough,14.0,2,13.728
2700,86.40,-2.5361,7.6402,-0.5731,-0.4336,-0.2247,-1.1292,rough,14.0,2,13.650
2710,86.72,-2.3098,7.3775,-0.6143,-0.6898,-0.0190,-1.2166,rough,14.0,2,13.501
2720,87.04,-2.1702,7.0416,-0.5635,-0.6087,-0.2539,-1.3332,rough,14.0,2,13.256
2730,87.36,-2.0866,6.7238,-0.4485,-0.5015,-0.4488,-1.2738,rough,14.0,2,13.007
2740,87.68,-1.9874,6.4682,-0.3384,-0.4345,-0.5138,-1.2426,rough,14.0,2,12.824
2750,88.00,-1.8415,6.1897,-0.2076,-0.6091,-0.5564,-1.1906,rough,14.0,2,12.647
2760,88.32,-1.6507,5.9262,-0.1846,-0.6683,-0.2380,-1.2548,rough,14.0,2,12.510
2770,88.64,-1.4890,5.6088,-0.1481,-0.6680,-0.2333,-1.2913,rough,14.0,2,12.319
2780,88.96,-1.3684,5.2389,-0.0768,-0.6798,-0.3198,-1.3406,rough,14.0,2,12.070
2790,89.28,-1.2764,4.8900,0.0485,-0.6307,-0.4316,-1.3180,rough,14.0,2,11.829
2800,89.60,-1.2084,4.5506,0.1953,-0.4327,-0.5478,-1.3967,rough,14.0,2,11.588
2810,89.92,-1.1691,4.1687,0.3603,-0.3027,-0.3437,-1.5261,rough,14.0,2,11.302
2820,90.24,-1.1770,3.7779,0.4719,-0.1880,-0.1784,-1.6194,rough,14.0,2,10.985
2830,90.56,-1.2028,3.3618,0.5186,-0.1780,-0.0668,-1.7020,rough,14.0,2,10.643
2840,90.88,-1.2759,2.9174,0.5025,-0.1978,0.0595,-1.8112,rough,14.0,2,10.254
2850,91.20,-1.3914,2.4897,0.4539,-0.1686,0.1028,-1.8656,rough,14.0,2,9.854
2860,91.52,-1.5609,2.0591,0.3793,-0.0413,0.2539,-1.9195,rough,14.0,2,9.420
2870,91.84,-1.7336,1.6502,0.2642,0.0443,0.3140,-1.9574,rough,14.0,2,9.003
2880,92.16,-1.9129,1.2692,0.1485,0.1087,0.2824,-1.9948,rough,14.0,2,8.603
2890,92.48,-2.0863,0.8983,0.0554,0.1034,0.1734,-2.0343,rough,14.0,2,8.217
2900,92.80,-2.2894,0.5295,-0.0021,0.1588,0.0873,-2.0773,rough,14.0,2,7.813
2910,93.12,-2.5146,0.1677,-0.0322,0.1992,0.0615,-2.1116,rough,14.0,2,7.401
2920,93.44,-2.7396,-0.1807,-0.0394,0.2014,-0.0490,-2.1646,rough,14.0,2,6.998
2930,93.76,-2.9668,-0.5200,-0.0016,0.1288,-0.1945,-2.2190,rough,14.0,2,6.602
2940,94.08,-3.2079,-0.8053,0.1015,0.1650,-0.3937,-2.2552,rough,14.0,2,6.233
2950,94.40,-3.4533,-1.0814,0.2702,0.1605,-0.4656,-2.2994,rough,14.0,2,5.866
2960,94.72,-3.7114,-1.3481,0.4701,0.2124,-0.5351,-2.3220,rough,14.0,2,5.497
2970,95.04,-3.9780,-1.6176,0.6827,0.2387,-0.5057,-2.3288,rough,14.0,2,5.119
2980,95.36,-4.2422,-1.8881,0.8874,0.2192,-0.4843,-2.3330,rough,14.0,2,4.743
2990,95.68,-4.5523,-2.1789,1.0393,0.3512,-0.3252,-2.3113,rough,14.0,2,4.319
3000,96.00,-4.8435,-2.4554,1.1203,0.3618,-0.2210,-2.3416,rough,14.0,2,3.918
3010,96.32,-5.0242,-2.7009,1.1580,0.4431,-0.0018,-2.4875,rough,14.0,2,3.624
3020,96.64,-5.1979,-2.9083,1.1737,0.4710,0.1202,-2.5831,rough,14.0,2,3.361
3030,96.96,-5.2337,-2.9775,1.1882,0.4194,0.2427,-2.8297,rough,14.0,2,3.291
3040,97.28,-5.2533,-3.0059,1.1920,0.3910,0.2905,-2.9456,rough,14.0,2,3.258
3050,97.60,-5.2608,-3.0147,1.1926,0.3831,0.3018,-2.9870,rough,14.0,2,3.247
3060,97.92,-5.2646,-3.0187,1.1928,0.3781,0.3081,-3.0056,rough,14.0,2,3.242
3070,98.24,-5.2657,-3.0198,1.1928,0.3768,0.3098,-3.0118,rough,14.0,2,3.240
3080,98.56,-5.2660,-3.0200,1.1927,0.3774,0.3090,-3.0141,rough,14.0,2,3.240
3090,98.88,-5.2659,-3.0198,1.1927,0.3794,0.3059,-3.0158,rough,14.0,2,3.240
3100,99.20,-5.2657,-3.0195,1.1926,0.3817,0.3025,-3.0173,rough,14.0,2,3.240
3110,99.52,-5.2655,-3.0192,1.1926,0.3838,0.2996,-3.0187,rough,14.0,2,3.241
3120,99.84,-5.2655,-3.0192,1.1926,0.3846,0.2992,-3.0192,rough,14.0,2,3.241
3130,100.16,-5.2655,-3.0193,1.1926,0.3847,0.2994,-3.0193,rough,14.0,2,3.241
3140,100.48,-5.2655,-3.0193,1.1926,0.3848,0.2995,-3.0194,rough,14.0,2,3.241
3150,100.80,-5.2655,-3.0193,1.1926,0.3848,0.2995,-3.0194,rough,14.0,2,3.241
3160,101.12,-5.2655,-3.0193,1.1926,0.3848,0.2995,-3.0194,rough,14.0,2,3.241
3170,101.44,-5.2655,-3.0193,1.1926,0.3848,0.2995,-3.0194,rough,14.0,2,3.241
3180,101.76,-5.2655,-3.0194,1.1926,0.3848,0.2995,-3.0194,rough,14.0,2,3.241
3190,102.08,-5.2655,-3.0194,1.1926,0.3848,0.2995,-3.0194,rough,14.0,2,3.241
3200,102.40,-5.2655,-3.0194,1.1926,0.3848,0.2995,-3.0194,rough,14.0,2,3.241
3210,102.72,-5.2655,-3.0194,1.1926,0.3848,0.2995,-3.0194,rough,14.0,2,3.241
3220,103.04,-5.2655,-3.0194,1.1926,0.3848,0.2995,-3.0194,rough,14.0,2,3.241
3230,103.36,-5.2655,-3.0194,1.1926,0.3848,0.2995,-3.0194,rough,14.0,2,3.241
3240,103.68,-5.2655,-3.0194,1.1926,0.3848,0.2995,-3.0194,rough,14.0,2,3.241
3250,104.00,-5.2655,-3.0194,1.1926,0.3848,0.2995,-3.0194,rough,14.0,2,3.241
3260,104.32,-5.2655,-3.0194,1.1926,0.3848,0.2995,-3.0194,rough,14.0,2,3.241
3270,104.64,-5.2655,-3.0194,1.1927,0.3848,0.2995,-3.0194,rough,14.0,2,3.241
3280,104.96,-5.2655,-3.0195,1.1927,0.3848,0.2995,-3.0194,rough,14.0,2,3.241
3290,105.28,-5.2655,-3.0195,1.1927,0.3848,0.2995,-3.0194,rough,14.0,2,3.241
3300,105.60,-5.2655,-3.0195,1.1927,0.3848,0.2995,-3.0194,rough,14.0,2,3.241
3310,105.92,-5.2655,-3.0195,1.1927,0.3848,0.2995,-3.0194,rough,14.0,2,3.241
3320,106.24,-5.2655,-3.0195,1.1927,0.3848,0.2995,-3.0194,rough,14.0,2,3.241
3330,106.56,-5.2655,-3.0195,1.1927,0.3848,0.2995,-3.0194,rough,14.0,2,3.241
3340,106.88,-5.2655,-3.0195,1.1927,0.3848,0.2995,-3.0195,rough,14.0,2,3.241
3350,107.20,-5.2655,-3.0195,1.1927,0.3848,0.2995,-3.0195,rough,14.0,2,3.241
3360,107.52,-5.2655,-3.0195,1.1927,0.3848,0.2995,-3.0195,rough,14.0,2,3.241
3370,107.84,-5.2655,-3.0195,1.1927,0.3848,0.2995,-3.0195,rough,14.0,2,3.241
3380,108.16,-5.2655,-3.0196,1.1927,0.3848,0.2995,-3.0195,rough,14.0,2,3.241
3390,108.48,-5.2655,-3.0196,1.1927,0.3848,0.2995,-3.0195,rough,14.0,2,3.240
3400,108.80,-5.2655,-3.0196,1.1927,0.3848,0.2995,-3.0195,rough,14.0,2,3.240
3410,109.12,-5.2655,-3.0196,1.1927,0.3848,0.2995,-3.0195,rough,14.0,2,3.240
3420,109.44,-5.2654,-3.0196,1.1927,0.3848,0.2995,-3.0195,rough,14.0,2,3.240
3430,109.76,-5.2654,-3.0196,1.1927,0.3848,0.2995,-3.0195,rough,14.0,2,3.240
3440,110.08,-5.2654,-3.0196,1.1927,0.3848,0.2995,-3.0195,rough,14.0,2,3.240
3450,110.40,-5.2654,-3.0196,1.1927,0.3848,0.2995,-3.0195,rough,14.0,2,3.240
3460,110.72,-5.2654,-3.0196,1.1927,0.3848,0.2995,-3.0195,rough,14.0,2,3.240
3470,111.04,-5.2654,-3.0196,1.1927,0.3848,0.2995,-3.0195,rough,14.0,2,3.240
3480,111.36,-5.2654,-3.0196,1.1927,0.3848,0.2995,-3.0195,rough,14.0,2,3.240
3490,111.68,-5.2654,-3.0197,1.1928,0.3848,0.2995,-3.0195,rough,14.0,2,3.240
3500,112.00,-5.2654,-3.0197,1.1928,0.3848,0.2995,-3.0195,rough,14.0,2,3.240
3510,112.32,-5.2654,-3.0197,1.1928,0.3848,0.2995,-3.0195,rough,14.0,2,3.240
3520,112.64,-5.2654,-3.0197,1.1928,0.3848,0.2995,-3.0195,rough,14.0,2,3.240
3530,112.96,-5.2654,-3.0197,1.1928,0.3848,0.2995,-3.0195,rough,14.0,2,3.240
3540,113.28,-5.2654,-3.0197,1.1928,0.3848,0.2995,-3.0195,rough,14.0,2,3.240
3550,113.60,-5.2654,-3.0197,1.1928,0.3848,0.2995,-3.0195,rough,14.0,2,3.240
3560,113.92,-5.2654,-3.0197,1.1928,0.3849,0.2995,-3.0195,rough,14.0,2,3.240
3570,114.24,-5.2654,-3.0197,1.1928,0.3849,0.2995,-3.0195,rough,14.0,2,3.240
3580,114.56,-5.2654,-3.0197,1.1928,0.3849,0.2995,-3.0195,rough,14.0,2,3.240
3590,114.88,-5.2654,-3.0197,1.1928,0.3849,0.2995,-3.0195,rough,14.0,2,3.240
3600,115.20,-5.2654,-3.0197,1.1928,0.3849,0.2995,-3.0195,rough,14.0,2,3.240
3610,115.52,-5.2654,-3.0198,1.1928,0.3849,0.2995,-3.0195,rough,14.0,2,3.240
3620,115.84,-5.2654,-3.0198,1.1928,0.3849,0.2995,-3.0195,rough,14.0,2,3.240
3630,116.16,-5.2654,-3.0198,1.1928,0.3849,0.2995,-3.0195,rough,14.0,2,3.240
3640,116.48,-5.2654,-3.0198,1.1928,0.3849,0.2995,-3.0195,rough,14.0,2,3.240
3650,116.80,-5.2654,-3.0198,1.1928,0.3849,0.2995,-3.0195,rough,14.0,2,3.240
3660,117.12,-5.2654,-3.0198,1.1928,0.3849,0.2995,-3.0195,rough,14.0,2,3.240
3670,117.44,-5.2654,-3.0198,1.1928,0.3849,0.2995,-3.0195,rough,14.0,2,3.240
3680,117.76,-5.2654,-3.0198,1.1928,0.3849,0.2995,-3.0195,rough,14.0,2,3.240
3690,118.08,-5.2654,-3.0198,1.1928,0.3849,0.2995,-3.0195,rough,14.0,2,3.240
3700,118.40,-5.2654,-3.0198,1.1928,0.3849,0.2995,-3.0195,rough,14.0,2,3.240
3710,118.72,-5.2654,-3.0198,1.1928,0.3849,0.2995,-3.0195,rough,14.0,2,3.240
3720,119.04,-5.2654,-3.0198,1.1928,0.3849,0.2995,-3.0195,rough,14.0,2,3.240
3730,119.36,-5.2654,-3.0198,1.1928,0.3849,0.2995,-3.0195,rough,14.0,2,3.240
3740,119.68,-5.2654,-3.0199,1.1928,0.3849,0.2995,-3.0195,rough,14.0,2,3.240
3750,120.00,-5.2654,-3.0199,1.1928,0.3849,0.2995,-3.0195,rough,14.0,2,3.240
3760,120.32,-5.2654,-3.0199,1.1928,0.3849,0.2995,-3.0195,rough,14.0,2,3.240
3770,120.64,-5.2654,-3.0199,1.1928,0.3849,0.2995,-3.0195,rough,14.0,2,3.240
3780,120.96,-5.2654,-3.0199,1.1928,0.3849,0.2995,-3.0195,rough,14.0,2,3.240
3790,121.28,-5.2654,-3.0199,1.1929,0.3849,0.2995,-3.0195,rough,14.0,2,3.240
3800,121.60,-5.2654,-3.0199,1.1929,0.3849,0.2995,-3.0195,rough,14.0,2,3.240
3810,121.92,-5.2654,-3.0199,1.1929,0.3849,0.2995,-3.0195,rough,14.0,2,3.240
3820,122.24,-5.2654,-3.0199,1.1929,0.3849,0.2995,-3.0195,rough,14.0,2,3.240
3830,122.56,-5.2654,-3.0199,1.1929,0.3849,0.2995,-3.0195,rough,14.0,2,3.240
3840,122.88,-5.2654,-3.0199,1.1929,0.3849,0.2995,-3.0195,rough,14.0,2,3.240
3850,123.20,-5.2654,-3.0199,1.1929,0.3849,0.2995,-3.0195,rough,14.0,2,3.240
3860,123.52,-5.2654,-3.0199,1.1929,0.3849,0.2995,-3.0195,rough,14.0,2,3.240
3870,123.84,-5.2654,-3.0199,1.1929,0.3849,0.2995,-3.0195,rough,14.0,2,3.240
3880,124.16,-5.2654,-3.0199,1.1929,0.3849,0.2995,-3.0195,rough,14.0,2,3.240
3890,124.48,-5.2654,-3.0200,1.1929,0.3849,0.2995,-3.0195,rough,14.0,2,3.240
3900,124.80,-5.2654,-3.0200,1.1929,0.3849,0.2995,-3.0195,rough,14.0,2,3.240
3910,125.12,-5.2654,-3.0200,1.1929,0.3849,0.2995,-3.0195,rough,14.0,2,3.240
3920,125.44,-5.2654,-3.0200,1.1929,0.3849,0.2995,-3.0195,rough,14.0,2,3.240
3930,125.76,-5.2654,-3.0200,1.1929,0.3849,0.2995,-3.0195,rough,14.0,2,3.240
3940,126.08,-5.2654,-3.0200,1.1929,0.3849,0.2995,-3.0195,rough,14.0,2,3.240
3950,126.40,-5.2654,-3.0200,1.1929,0.3849,0.2995,-3.0195,rough,14.0,2,3.240
3960,126.72,-5.2654,-3.0200,1.1929,0.3849,0.2995,-3.0195,rough,14.0,2,3.240
3970,127.04,-5.2654,-3.0200,1.1929,0.3849,0.2995,-3.0195,rough,14.0,2,3.240
3980,127.36,-5.2654,-3.0200,1.1929,0.3849,0.2995,-3.0195,rough,14.0,2,3.240
3990,127.68,-5.2654,-3.0200,1.1929,0.3849,0.2995,-3.0195,rough,14.0,2,3.240
4000,128.00,-5.2654,-3.0200,1.1929,0.3849,0.2995,-3.0195,rough,14.0,2,3.240
4010,128.32,-5.2654,-3.0200,1.1929,0.3849,0.2995,-3.0195,rough,14.0,2,3.240
4020,128.64,-5.2654,-3.0200,1.1929,0.3849,0.2995,-3.0195,rough,14.0,2,3.240
4030,128.96,-5.2654,-3.0200,1.1929,0.3849,0.2995,-3.0195,rough,14.0,2,3.240
4040,129.28,-5.2654,-3.0201,1.1929,0.3849,0.2995,-3.0195,rough,14.0,2,3.240
4050,129.60,-5.2654,-3.0201,1.1929,0.3849,0.2995,-3.0195,rough,14.0,2,3.240
4060,129.92,-5.2654,-3.0201,1.1929,0.3849,0.2995,-3.0195,rough,14.0,2,3.240
4070,130.24,-5.2655,-3.0201,1.1929,0.3849,0.2995,-3.0195,rough,14.0,2,3.240
4080,130.56,-5.2655,-3.0201,1.1929,0.3849,0.2995,-3.0195,rough,14.0,2,3.240
4090,130.88,-5.2655,-3.0201,1.1929,0.3849,0.2994,-3.0195,rough,14.0,2,3.240
4100,131.20,-5.2655,-3.0201,1.1929,0.3849,0.2994,-3.0195,rough,14.0,2,3.240
4110,131.52,-5.2655,-3.0201,1.1929,0.3849,0.2994,-3.0195,rough,14.0,2,3.240
4120,131.84,-5.2655,-3.0201,1.1929,0.3849,0.2994,-3.0195,rough,14.0,2,3.240
4130,132.16,-5.2655,-3.0201,1.1929,0.3849,0.2994,-3.0195,rough,14.0,2,3.240
4140,132.48,-5.2655,-3.0201,1.1929,0.3849,0.2994,-3.0195,rough,14.0,2,3.240
4150,132.80,-5.2655,-3.0201,1.1929,0.3849,0.2994,-3.0195,rough,14.0,2,3.240
4160,133.12,-5.2655,-3.0201,1.1929,0.3849,0.2994,-3.0195,rough,14.0,2,3.240
4170,133.44,-5.2655,-3.0201,1.1929,0.3849,0.2994,-3.0195,rough,14.0,2,3.240
4180,133.76,-5.2655,-3.0201,1.1929,0.3849,0.2994,-3.0195,rough,14.0,2,3.240
4190,134.08,-5.2655,-3.0201,1.1929,0.3849,0.2994,-3.0195,rough,14.0,2,3.240
4200,134.40,-5.2655,-3.0202,1.1929,0.3849,0.2994,-3.0195,rough,14.0,2,3.240
4210,134.72,-5.2655,-3.0202,1.1929,0.3849,0.2994,-3.0195,rough,14.0,2,3.240
4220,135.04,-5.2655,-3.0202,1.1929,0.3849,0.2994,-3.0195,rough,14.0,2,3.240
4230,135.36,-5.2655,-3.0202,1.1929,0.3849,0.2994,-3.0195,rough,14.0,2,3.240
4240,135.68,-5.2655,-3.0202,1.1929,0.3849,0.2994,-3.0195,rough,14.0,2,3.240
4250,136.00,-5.2655,-3.0202,1.1929,0.3849,0.2994,-3.0195,rough,14.0,2,3.240
4260,136.32,-5.2655,-3.0202,1.1929,0.3849,0.2994,-3.0195,rough,14.0,2,3.240
4270,136.64,-5.2655,-3.0202,1.1930,0.3849,0.2994,-3.0195,rough,14.0,2,3.240
4280,136.96,-5.2655,-3.0202,1.1930,0.3849,0.2994,-3.0195,rough,14.0,2,3.240
4290,137.28,-5.2655,-3.0202,1.1930,0.3849,0.2994,-3.0195,rough,14.0,2,3.240
4300,137.60,-5.2655,-3.0202,1.1930,0.3849,0.2994,-3.0195,rough,14.0,2,3.240
4310,137.92,-5.2655,-3.0202,1.1930,0.3849,0.2994,-3.0195,rough,14.0,2,3.240
4320,138.24,-5.2655,-3.0202,1.1930,0.3849,0.2994,-3.0195,rough,14.0,2,3.240
4330,138.56,-5.2655,-3.0202,1.1930,0.3849,0.2994,-3.0195,rough,14.0,2,3.240
4340,138.88,-5.2655,-3.0202,1.1930,0.3849,0.2994,-3.0195,rough,14.0,2,3.240
4350,139.20,-5.2655,-3.0202,1.1930,0.3849,0.2994,-3.0195,rough,14.0,2,3.240
4360,139.52,-5.2655,-3.0202,1.1930,0.3849,0.2994,-3.0195,rough,14.0,2,3.240
4370,139.84,-5.2655,-3.0202,1.1930,0.3849,0.2994,-3.0195,rough,14.0,2,3.240
4380,140.16,-5.2655,-3.0203,1.1930,0.3849,0.2994,-3.0195,rough,14.0,2,3.240
4390,140.48,-5.2655,-3.0203,1.1930,0.3849,0.2994,-3.0195,rough,14.0,2,3.240
4400,140.80,-5.2655,-3.0203,1.1930,0.3849,0.2994,-3.0195,rough,14.0,2,3.240
4410,141.12,-5.2655,-3.0203,1.1930,0.3849,0.2994,-3.0195,rough,14.0,2,3.240
4420,141.44,-5.2655,-3.0203,1.1930,0.3849,0.2994,-3.0195,rough,14.0,2,3.240
4430,141.76,-5.2655,-3.0203,1.1930,0.3849,0.2994,-3.0195,rough,14.0,2,3.240
4440,142.08,-5.2655,-3.0203,1.1930,0.3849,0.2994,-3.0195,rough,14.0,2,3.240
4450,142.40,-5.2655,-3.0203,1.1930,0.3849,0.2994,-3.0195,rough,14.0,2,3.240
4460,142.72,-5.2655,-3.0203,1.1930,0.3849,0.2994,-3.0195,rough,14.0,2,3.240
4470,143.04,-5.2655,-3.0203,1.1930,0.3849,0.2994,-3.0195,rough,14.0,2,3.240
4480,143.36,-5.2655,-3.0203,1.1930,0.3849,0.2994,-3.0195,rough,14.0,2,3.240
4490,143.68,-5.2655,-3.0203,1.1930,0.3849,0.2994,-3.0195,rough,14.0,2,3.240
4500,144.00,-5.2655,-3.0203,1.1930,0.3849,0.2994,-3.0195,rough,14.0,2,3.240
4510,144.32,-5.2655,-3.0203,1.1930,0.3849,0.2994,-3.0195,rough,14.0,2,3.240
4520,144.64,-5.2655,-3.0203,1.1930,0.3849,0.2994,-3.0195,rough,14.0,2,3.240
4530,144.96,-5.2655,-3.0203,1.1930,0.3849,0.2994,-3.0195,rough,14.0,2,3.240
4540,145.28,-5.2655,-3.0203,1.1930,0.3849,0.2994,-3.0195,rough,14.0,2,3.240
4550,145.60,-5.2656,-3.0203,1.1930,0.3849,0.2994,-3.0195,rough,14.0,2,3.240
4560,145.92,-5.2656,-3.0203,1.1930,0.3849,0.2994,-3.0195,rough,14.0,2,3.240
4570,146.24,-5.2656,-3.0204,1.1930,0.3849,0.2994,-3.0195,rough,14.0,2,3.240
4580,146.56,-5.2656,-3.0204,1.1930,0.3849,0.2994,-3.0195,rough,14.0,2,3.240
4590,146.88,-5.2656,-3.0204,1.1930,0.3849,0.2994,-3.0195,rough,14.0,2,3.240
4600,147.20,-5.2656,-3.0204,1.1930,0.3849,0.2994,-3.0195,rough,14.0,2,3.240
4610,147.52,-5.2656,-3.0204,1.1930,0.3849,0.2994,-3.0195,rough,14.0,2,3.240
4620,147.84,-5.2656,-3.0204,1.1930,0.3849,0.2994,-3.0195,rough,14.0,2,3.240
4630,148.16,-5.2656,-3.0204,1.1930,0.3849,0.2994,-3.0195,rough,14.0,2,3.240
4640,148.48,-5.2656,-3.0204,1.1930,0.3849,0.2994,-3.0195,rough,14.0,2,3.240
4650,148.80,-5.2656,-3.0204,1.1930,0.3849,0.2994,-3.0195,rough,14.0,2,3.240
4660,149.12,-5.2656,-3.0204,1.1930,0.3849,0.2994,-3.0195,rough,14.0,2,3.240
4670,149.44,-5.2656,-3.0204,1.1930,0.3849,0.2994,-3.0195,rough,14.0,2,3.240
4680,149.76,-5.2656,-3.0204,1.1930,0.3849,0.2994,-3.0195,rough,14.0,2,3.240
4690,150.08,-5.2656,-3.0204,1.1930,0.3849,0.2994,-3.0195,rough,14.0,2,3.240
4700,150.40,-5.2656,-3.0204,1.1930,0.3849,0.2994,-3.0195,rough,14.0,2,3.240
4710,150.72,-5.2656,-3.0204,1.1930,0.3849,0.2994,-3.0195,rough,14.0,2,3.240
4720,151.04,-5.2656,-3.0204,1.1930,0.3849,0.2994,-3.0195,rough,14.0,2,3.240
4730,151.36,-5.2656,-3.0204,1.1930,0.3849,0.2994,-3.0195,rough,14.0,2,3.240
4740,151.68,-5.2656,-3.0204,1.1930,0.3849,0.2994,-3.0195,rough,14.0,2,3.240
4750,152.00,-5.2656,-3.0204,1.1930,0.3849,0.2994,-3.0195,rough,14.0,2,3.240
4760,152.32,-5.2656,-3.0205,1.1930,0.3849,0.2994,-3.0195,rough,14.0,2,3.240
4770,152.64,-5.2656,-3.0205,1.1930,0.3849,0.2994,-3.0195,rough,14.0,2,3.240
4780,152.96,-5.2656,-3.0205,1.1930,0.3849,0.2994,-3.0195,rough,14.0,2,3.240
4790,153.28,-5.2656,-3.0205,1.1930,0.3849,0.2994,-3.0195,rough,14.0,2,3.240
4800,153.60,-5.2656,-3.0205,1.1930,0.3849,0.2994,-3.0195,rough,14.0,2,3.240
4810,153.92,-5.2656,-3.0205,1.1930,0.3849,0.2994,-3.0195,rough,14.0,2,3.240
4820,154.24,-5.2656,-3.0205,1.1930,0.3849,0.2994,-3.0195,rough,14.0,2,3.240
4830,154.56,-5.2656,-3.0205,1.1930,0.3849,0.2994,-3.0195,rough,14.0,2,3.240
4840,154.88,-5.2656,-3.0205,1.1930,0.3849,0.2994,-3.0195,rough,14.0,2,3.240
4850,155.20,-5.2656,-3.0205,1.1930,0.3849,0.2994,-3.0195,rough,14.0,2,3.240
4860,155.52,-5.2656,-3.0205,1.1930,0.3849,0.2994,-3.0195,rough,14.0,2,3.240
4870,155.84,-5.2656,-3.0205,1.1930,0.3849,0.2994,-3.0195,rough,14.0,2,3.240
4880,156.16,-5.2656,-3.0205,1.1930,0.3849,0.2994,-3.0195,rough,14.0,2,3.240
4890,156.48,-5.2656,-3.0205,1.1930,0.3849,0.2994,-3.0195,rough,14.0,2,3.240
4900,156.80,-5.2657,-3.0205,1.1930,0.3849,0.2994,-3.0195,rough,14.0,2,3.240
4910,157.12,-5.2657,-3.0205,1.1930,0.3849,0.2994,-3.0195,rough,14.0,2,3.240
4920,157.44,-5.2657,-3.0205,1.1930,0.3849,0.2994,-3.0195,rough,14.0,2,3.240
4930,157.76,-5.2657,-3.0205,1.1930,0.3849,0.2994,-3.0195,rough,14.0,2,3.240
4940,158.08,-5.2657,-3.0205,1.1930,0.3849,0.2994,-3.0195,rough,14.0,2,3.240
4950,158.40,-5.2657,-3.0205,1.1930,0.3849,0.2994,-3.0195,rough,14.0,2,3.240
4960,158.72,-5.2657,-3.0206,1.1930,0.3849,0.2994,-3.0195,rough,14.0,2,3.240
4970,159.04,-5.2657,-3.0206,1.1930,0.3849,0.2994,-3.0195,rough,14.0,2,3.240
4980,159.36,-5.2657,-3.0206,1.1930,0.3849,0.2994,-3.0195,rough,14.0,2,3.240
4990,159.68,-5.2657,-3.0206,1.1930,0.3849,0.2994,-3.0195,rough,14.0,2,3.240
5000,160.00,-5.2657,-3.0206,1.1930,0.3849,0.2994,-3.0195,rough,14.0,2,3.240
5010,160.32,-5.2657,-3.0206,1.1930,0.3849,0.2994,-3.0195,rough,14.0,2,3.240
5020,160.64,-5.2657,-3.0206,1.1930,0.3849,0.2994,-3.0195,rough,14.0,2,3.240
5030,160.96,-5.2657,-3.0206,1.1930,0.3849,0.2994,-3.0195,rough,14.0,2,3.240
5040,161.28,-5.2657,-3.0206,1.1930,0.3849,0.2994,-3.0195,rough,14.0,2,3.240
5050,161.60,-5.2657,-3.0206,1.1930,0.3849,0.2994,-3.0195,rough,14.0,2,3.240
5060,161.92,-5.2657,-3.0206,1.1930,0.3849,0.2994,-3.0195,rough,14.0,2,3.240
5070,162.24,-5.2657,-3.0206,1.1930,0.3849,0.2994,-3.0195,rough,14.0,2,3.240
5080,162.56,-5.2657,-3.0206,1.1930,0.3849,0.2994,-3.0195,rough,14.0,2,3.240
5090,162.88,-5.2657,-3.0206,1.1930,0.3849,0.2994,-3.0195,rough,14.0,2,3.240
5100,163.20,-5.2657,-3.0206,1.1930,0.3849,0.2994,-3.0195,rough,14.0,2,3.240
5110,163.52,-5.2657,-3.0206,1.1930,0.3849,0.2994,-3.0195,rough,14.0,2,3.240
5120,163.84,-5.2657,-3.0206,1.1930,0.3849,0.2994,-3.0195,rough,14.0,2,3.240
5130,164.16,-5.2657,-3.0206,1.1930,0.3849,0.2994,-3.0195,rough,14.0,2,3.240
5140,164.48,-5.2657,-3.0206,1.1930,0.3849,0.2994,-3.0195,rough,14.0,2,3.240
5150,164.80,-5.2657,-3.0206,1.1930,0.3849,0.2994,-3.0195,rough,14.0,2,3.240
5160,165.12,-5.2657,-3.0206,1.1930,0.3849,0.2994,-3.0195,rough,14.0,2,3.240
5170,165.44,-5.2657,-3.0207,1.1930,0.3849,0.2994,-3.0195,rough,14.0,2,3.240
5180,165.76,-5.2657,-3.0207,1.1930,0.3849,0.2994,-3.0195,rough,14.0,2,3.240
5190,166.08,-5.2657,-3.0207,1.1930,0.3849,0.2994,-3.0195,rough,14.0,2,3.240
5200,166.40,-5.2657,-3.0207,1.1931,0.3849,0.2994,-3.0195,rough,14.0,2,3.240
5210,166.72,-5.2657,-3.0207,1.1931,0.3849,0.2994,-3.0195,rough,14.0,2,3.240
5220,167.04,-5.2658,-3.0207,1.1931,0.3849,0.2994,-3.0195,rough,14.0,2,3.240
5230,167.36,-5.2658,-3.0207,1.1931,0.3849,0.2994,-3.0195,rough,14.0,2,3.240
5240,167.68,-5.2658,-3.0207,1.1931,0.3849,0.2994,-3.0195,rough,14.0,2,3.240
5250,168.00,-5.2658,-3.0207,1.1931,0.3849,0.2994,-3.0195,rough,14.0,2,3.240
5260,168.32,-5.2658,-3.0207,1.1931,0.3849,0.2994,-3.0195,rough,14.0,2,3.240
5270,168.64,-5.2658,-3.0207,1.1931,0.3849,0.2994,-3.0195,rough,14.0,2,3.240
5280,168.96,-5.2658,-3.0207,1.1931,0.3849,0.2993,-3.0195,rough,14.0,2,3.240
5290,169.28,-5.2658,-3.0207,1.1931,0.3849,0.2993,-3.0195,rough,14.0,2,3.240
5300,169.60,-5.2658,-3.0207,1.1931,0.3849,0.2993,-3.0195,rough,14.0,2,3.240
5310,169.92,-5.2658,-3.0207,1.1931,0.3849,0.2993,-3.0195,rough,14.0,2,3.240
5320,170.24,-5.2658,-3.0207,1.1931,0.3849,0.2993,-3.0195,rough,14.0,2,3.240
5330,170.56,-5.2658,-3.0207,1.1931,0.3849,0.2993,-3.0195,rough,14.0,2,3.240
5340,170.88,-5.2658,-3.0207,1.1931,0.3849,0.2993,-3.0195,rough,14.0,2,3.240
5350,171.20,-5.2658,-3.0207,1.1931,0.3849,0.2993,-3.0195,rough,14.0,2,3.240
5360,171.52,-5.2658,-3.0207,1.1931,0.3849,0.2993,-3.0195,rough,14.0,2,3.240
5370,171.84,-5.2658,-3.0207,1.1931,0.3849,0.2993,-3.0195,rough,14.0,2,3.240
5380,172.16,-5.2658,-3.0208,1.1931,0.3849,0.2993,-3.0195,rough,14.0,2,3.240
5390,172.48,-5.2658,-3.0208,1.1931,0.3849,0.2993,-3.0195,rough,14.0,2,3.240
5400,172.80,-5.2658,-3.0208,1.1931,0.3849,0.2993,-3.0195,rough,14.0,2,3.240
5410,173.12,-5.2658,-3.0208,1.1931,0.3849,0.2993,-3.0195,rough,14.0,2,3.240
5420,173.44,-5.2658,-3.0208,1.1931,0.3849,0.2993,-3.0195,rough,14.0,2,3.239
5430,173.76,-5.2658,-3.0208,1.1931,0.3849,0.2993,-3.0195,rough,14.0,2,3.239
5440,174.08,-5.2658,-3.0208,1.1931,0.3849,0.2993,-3.0195,rough,14.0,2,3.239
5450,174.40,-5.2658,-3.0208,1.1931,0.3849,0.2993,-3.0195,rough,14.0,2,3.239
5460,174.72,-5.2658,-3.0208,1.1931,0.3849,0.2993,-3.0195,rough,14.0,2,3.239
5470,175.04,-5.2658,-3.0208,1.1931,0.3849,0.2993,-3.0195,rough,14.0,2,3.239
5480,175.36,-5.2658,-3.0208,1.1931,0.3849,0.2993,-3.0195,rough,14.0,2,3.239
5490,175.68,-5.2658,-3.0208,1.1931,0.3849,0.2993,-3.0195,rough,14.0,2,3.239
5500,176.00,-5.2658,-3.0208,1.1931,0.3849,0.2993,-3.0195,rough,14.0,2,3.239
5510,176.32,-5.2658,-3.0208,1.1931,0.3849,0.2993,-3.0195,rough,14.0,2,3.239
5520,176.64,-5.2659,-3.0208,1.1931,0.3849,0.2993,-3.0195,rough,14.0,2,3.239
5530,176.96,-5.2659,-3.0208,1.1931,0.3849,0.2993,-3.0195,rough,14.0,2,3.239
5540,177.28,-5.2659,-3.0208,1.1931,0.3849,0.2993,-3.0195,rough,14.0,2,3.239
5550,177.60,-5.2659,-3.0208,1.1931,0.3849,0.2993,-3.0195,rough,14.0,2,3.239
5560,177.92,-5.2659,-3.0208,1.1931,0.3849,0.2993,-3.0195,rough,14.0,2,3.239
5570,178.24,-5.2659,-3.0208,1.1931,0.3849,0.2993,-3.0196,rough,14.0,2,3.239
5580,178.56,-5.2659,-3.0208,1.1931,0.3849,0.2993,-3.0196,rough,14.0,2,3.239
5590,178.88,-5.2659,-3.0209,1.1931,0.3849,0.2993,-3.0196,rough,14.0,2,3.239
5600,179.20,-5.2659,-3.0209,1.1931,0.3849,0.2993,-3.0196,rough,14.0,2,3.239
5610,179.52,-5.2659,-3.0209,1.1931,0.3849,0.2993,-3.0196,rough,14.0,2,3.239
5620,179.84,-5.2659,-3.0209,1.1931,0.3849,0.2993,-3.0196,rough,14.0,2,3.239
5630,180.16,-5.2659,-3.0209,1.1931,0.3849,0.2993,-3.0196,rough,14.0,2,3.239
5640,180.48,-5.2659,-3.0209,1.1931,0.3849,0.2993,-3.0196,rough,14.0,2,3.239
5650,180.80,-5.2659,-3.0209,1.1931,0.3849,0.2993,-3.0196,rough,14.0,2,3.239
5660,181.12,-5.2659,-3.0209,1.1931,0.3849,0.2993,-3.0196,rough,14.0,2,3.239
5670,181.44,-5.2659,-3.0209,1.1931,0.3849,0.2993,-3.0196,rough,14.0,2,3.239
5680,181.76,-5.2659,-3.0209,1.1931,0.3849,0.2993,-3.0196,rough,14.0,2,3.239
5690,182.08,-5.2659,-3.0209,1.1931,0.3849,0.2993,-3.0196,rough,14.0,2,3.239
5700,182.40,-5.2659,-3.0209,1.1931,0.3849,0.2993,-3.0196,rough,14.0,2,3.239
5710,182.72,-5.2659,-3.0209,1.1931,0.3849,0.2993,-3.0196,rough,14.0,2,3.239
5720,183.04,-5.2659,-3.0209,1.1931,0.3849,0.2993,-3.0196,rough,14.0,2,3.239
5730,183.36,-5.2659,-3.0209,1.1931,0.3849,0.2993,-3.0196,rough,14.0,2,3.239
5740,183.68,-5.2659,-3.0209,1.1931,0.3849,0.2993,-3.0196,rough,14.0,2,3.239
5750,184.00,-5.2659,-3.0209,1.1931,0.3849,0.2993,-3.0196,rough,14.0,2,3.239
5760,184.32,-5.2659,-3.0209,1.1931,0.3849,0.2993,-3.0196,rough,14.0,2,3.239
5770,184.64,-5.2659,-3.0209,1.1931,0.3849,0.2993,-3.0196,rough,14.0,2,3.239
5780,184.96,-5.2659,-3.0209,1.1931,0.3849,0.2993,-3.0196,rough,14.0,2,3.239
5790,185.28,-5.2659,-3.0209,1.1931,0.3849,0.2993,-3.0196,rough,14.0,2,3.239
5800,185.60,-5.2659,-3.0209,1.1931,0.3849,0.2993,-3.0196,rough,14.0,2,3.239
5810,185.92,-5.2660,-3.0210,1.1931,0.3849,0.2993,-3.0196,rough,14.0,2,3.239
5820,186.24,-5.2660,-3.0210,1.1931,0.3849,0.2993,-3.0196,rough,14.0,2,3.239
5830,186.56,-5.2660,-3.0210,1.1931,0.3849,0.2993,-3.0196,rough,14.0,2,3.239
5840,186.88,-5.2660,-3.0210,1.1931,0.3849,0.2993,-3.0196,rough,14.0,2,3.239
5850,187.20,-5.2660,-3.0210,1.1931,0.3849,0.2993,-3.0196,rough,14.0,2,3.239
5860,187.52,-5.2660,-3.0210,1.1931,0.3849,0.2993,-3.0196,rough,14.0,2,3.239
5870,187.84,-5.2660,-3.0210,1.1931,0.3849,0.2993,-3.0196,rough,14.0,2,3.239
5880,188.16,-5.2660,-3.0210,1.1931,0.3849,0.2993,-3.0196,rough,14.0,2,3.239
5890,188.48,-5.2660,-3.0210,1.1931,0.3849,0.2993,-3.0196,rough,14.0,2,3.239
5900,188.80,-5.2660,-3.0210,1.1931,0.3849,0.2993,-3.0196,rough,14.0,2,3.239
5910,189.12,-5.2660,-3.0210,1.1931,0.3849,0.2993,-3.0196,rough,14.0,2,3.239
5920,189.44,-5.2660,-3.0210,1.1931,0.3849,0.2993,-3.0196,rough,14.0,2,3.239
5930,189.76,-5.2660,-3.0210,1.1931,0.3849,0.2993,-3.0196,rough,14.0,2,3.239
5940,190.08,-5.2660,-3.0210,1.1931,0.3849,0.2993,-3.0196,rough,14.0,2,3.239
5950,190.40,-5.2660,-3.0210,1.1931,0.3849,0.2993,-3.0196,rough,14.0,2,3.239
5960,190.72,-5.2660,-3.0210,1.1931,0.3849,0.2993,-3.0196,rough,14.0,2,3.239
5970,191.04,-5.2660,-3.0210,1.1931,0.3849,0.2993,-3.0196,rough,14.0,2,3.239
5980,191.36,-5.2660,-3.0210,1.1931,0.3849,0.2993,-3.0196,rough,14.0,2,3.239
5990,191.68,-5.2660,-3.0210,1.1931,0.3849,0.2993,-3.0196,rough,14.0,2,3.239
6000,192.00,-5.2660,-3.0210,1.1931,0.3849,0.2993,-3.0196,rough,14.0,2,3.239
6010,192.32,-5.2660,-3.0210,1.1931,0.3849,0.2993,-3.0196,rough,14.0,2,3.239
6020,192.64,-5.2660,-3.0210,1.1931,0.3849,0.2993,-3.0196,rough,14.0,2,3.239
6030,192.96,-5.2660,-3.0211,1.1931,0.3849,0.2993,-3.0196,rough,14.0,2,3.239
6040,193.28,-5.2660,-3.0211,1.1931,0.3849,0.2993,-3.0196,rough,14.0,2,3.239
6050,193.60,-5.2660,-3.0211,1.1931,0.3849,0.2993,-3.0196,rough,14.0,2,3.239
6060,193.92,-5.2660,-3.0211,1.1931,0.3849,0.2993,-3.0196,rough,14.0,2,3.239
6070,194.24,-5.2660,-3.0211,1.1931,0.3849,0.2993,-3.0196,rough,14.0,2,3.239
6080,194.56,-5.2660,-3.0211,1.1931,0.3849,0.2993,-3.0196,rough,14.0,2,3.239
6090,194.88,-5.2660,-3.0211,1.1931,0.3849,0.2993,-3.0196,rough,14.0,2,3.239
6100,195.20,-5.2661,-3.0211,1.1931,0.3849,0.2993,-3.0196,rough,14.0,2,3.239
6110,195.52,-5.2661,-3.0211,1.1931,0.3849,0.2993,-3.0196,rough,14.0,2,3.239
6120,195.84,-5.2661,-3.0211,1.1931,0.3849,0.2993,-3.0196,rough,14.0,2,3.239
6130,196.16,-5.2661,-3.0211,1.1931,0.3849,0.2993,-3.0196,rough,14.0,2,3.239
6140,196.48,-5.2661,-3.0211,1.1931,0.3849,0.2993,-3.0196,rough,14.0,2,3.239
6150,196.80,-5.2661,-3.0211,1.1931,0.3849,0.2993,-3.0196,rough,14.0,2,3.239
6160,197.12,-5.2661,-3.0211,1.1931,0.3849,0.2993,-3.0196,rough,14.0,2,3.239
6170,197.44,-5.2661,-3.0211,1.1931,0.3849,0.2993,-3.0196,rough,14.0,2,3.239
6180,197.76,-5.2661,-3.0211,1.1931,0.3849,0.2993,-3.0196,rough,14.0,2,3.239
6190,198.08,-5.2661,-3.0211,1.1931,0.3849,0.2993,-3.0196,rough,14.0,2,3.239
6200,198.40,-5.2661,-3.0211,1.1931,0.3849,0.2993,-3.0196,rough,14.0,2,3.239
6210,198.72,-5.2661,-3.0211,1.1931,0.3849,0.2993,-3.0196,rough,14.0,2,3.239
6220,199.04,-5.2661,-3.0211,1.1931,0.3849,0.2993,-3.0196,rough,14.0,2,3.239
6230,199.36,-5.2661,-3.0211,1.1931,0.3849,0.2993,-3.0196,rough,14.0,2,3.239
6240,199.68,-5.2661,-3.0211,1.1931,0.3849,0.2993,-3.0196,rough,14.0,2,3.239
6250,200.00,-5.2661,-3.0212,1.1931,0.3849,0.2993,-3.0196,rough,14.0,2,3.239
6260,200.32,-5.2661,-3.0212,1.1931,0.3849,0.2993,-3.0196,rough,14.0,2,3.239
6270,200.64,-5.2661,-3.0212,1.1931,0.3849,0.2993,-3.0196,rough,14.0,2,3.239
6280,200.96,-5.2661,-3.0212,1.1931,0.3849,0.2993,-3.0196,rough,14.0,2,3.239
6290,201.28,-5.2661,-3.0212,1.1931,0.3849,0.2993,-3.0196,rough,14.0,2,3.239
6300,201.60,-5.2661,-3.0212,1.1931,0.3849,0.2993,-3.0196,rough,14.0,2,3.239
6310,201.92,-5.2661,-3.0212,1.1931,0.3849,0.2993,-3.0196,rough,14.0,2,3.239
6320,202.24,-5.2661,-3.0212,1.1931,0.3849,0.2993,-3.0196,rough,14.0,2,3.239
6330,202.56,-5.2661,-3.0212,1.1931,0.3849,0.2993,-3.0196,rough,14.0,2,3.239
6340,202.88,-5.2661,-3.0212,1.1931,0.3849,0.2993,-3.0196,rough,14.0,2,3.239
6350,203.20,-5.2661,-3.0212,1.1931,0.3849,0.2993,-3.0196,rough,14.0,2,3.239
6360,203.52,-5.2661,-3.0212,1.1931,0.3849,0.2993,-3.0196,rough,14.0,2,3.239
6370,203.84,-5.2661,-3.0212,1.1931,0.3849,0.2993,-3.0196,rough,14.0,2,3.239
6380,204.16,-5.2662,-3.0212,1.1931,0.3849,0.2993,-3.0196,rough,14.0,2,3.239
6390,204.48,-5.2662,-3.0212,1.1931,0.3849,0.2993,-3.0196,rough,14.0,2,3.239
6400,204.80,-5.2662,-3.0212,1.1931,0.3849,0.2993,-3.0196,rough,14.0,2,3.239
6410,205.12,-5.2662,-3.0212,1.1931,0.3849,0.2993,-3.0196,rough,14.0,2,3.239
6420,205.44,-5.2662,-3.0212,1.1931,0.3849,0.2992,-3.0196,rough,14.0,2,3.239
6430,205.76,-5.2662,-3.0212,1.1931,0.3849,0.2992,-3.0196,rough,14.0,2,3.239
6440,206.08,-5.2662,-3.0212,1.1931,0.3849,0.2992,-3.0196,rough,14.0,2,3.239
6450,206.40,-5.2662,-3.0212,1.1931,0.3849,0.2992,-3.0196,rough,14.0,2,3.239
6460,206.72,-5.2662,-3.0212,1.1931,0.3849,0.2992,-3.0196,rough,14.0,2,3.239
6470,207.04,-5.2662,-3.0212,1.1931,0.3849,0.2992,-3.0196,rough,14.0,2,3.239
6480,207.36,-5.2662,-3.0213,1.1931,0.3849,0.2992,-3.0196,rough,14.0,2,3.239
6490,207.68,-5.2662,-3.0213,1.1931,0.3849,0.2992,-3.0196,rough,14.0,2,3.239
6500,208.00,-5.2662,-3.0213,1.1931,0.3849,0.2992,-3.0196,rough,14.0,2,3.239
6510,208.32,-5.2662,-3.0213,1.1931,0.3849,0.2992,-3.0196,rough,14.0,2,3.239
6520,208.64,-5.2662,-3.0213,1.1931,0.3849,0.2992,-3.0196,rough,14.0,2,3.239
6530,208.96,-5.2662,-3.0213,1.1931,0.3849,0.2992,-3.0196,rough,14.0,2,3.239
6540,209.28,-5.2662,-3.0213,1.1931,0.3849,0.2992,-3.0196,rough,14.0,2,3.239
6550,209.60,-5.2662,-3.0213,1.1931,0.3849,0.2992,-3.0196,rough,14.0,2,3.239
6560,209.92,-5.2662,-3.0213,1.1931,0.3849,0.2992,-3.0196,rough,14.0,2,3.239
6570,210.24,-5.2662,-3.0213,1.1931,0.3849,0.2992,-3.0196,rough,14.0,2,3.239
6580,210.56,-5.2662,-3.0213,1.1931,0.3849,0.2992,-3.0196,rough,14.0,2,3.239
6590,210.88,-5.2662,-3.0213,1.1931,0.3849,0.2992,-3.0196,rough,14.0,2,3.239
6600,211.20,-5.2662,-3.0213,1.1931,0.3849,0.2992,-3.0196,rough,14.0,2,3.239
6610,211.52,-5.2662,-3.0213,1.1931,0.3849,0.2992,-3.0196,rough,14.0,2,3.239
6620,211.84,-5.2662,-3.0213,1.1931,0.3849,0.2992,-3.0196,rough,14.0,2,3.239
6630,212.16,-5.2662,-3.0213,1.1931,0.3849,0.2992,-3.0196,rough,14.0,2,3.239
6640,212.48,-5.2662,-3.0213,1.1931,0.3849,0.2992,-3.0196,rough,14.0,2,3.239
6650,212.80,-5.2662,-3.0213,1.1931,0.3849,0.2992,-3.0196,rough,14.0,2,3.239
6660,213.12,-5.2663,-3.0213,1.1931,0.3849,0.2992,-3.0196,rough,14.0,2,3.239
6670,213.44,-5.2663,-3.0213,1.1931,0.3849,0.2992,-3.0196,rough,14.0,2,3.239
6680,213.76,-5.2663,-3.0213,1.1931,0.3849,0.2992,-3.0196,rough,14.0,2,3.239
6690,214.08,-5.2663,-3.0213,1.1931,0.3849,0.2992,-3.0196,rough,14.0,2,3.239
6700,214.40,-5.2663,-3.0214,1.1931,0.3849,0.2992,-3.0196,rough,14.0,2,3.239
6710,214.72,-5.2663,-3.0214,1.1931,0.3849,0.2992,-3.0196,rough,14.0,2,3.239
6720,215.04,-5.2663,-3.0214,1.1931,0.3849,0.2992,-3.0196,rough,14.0,2,3.239
6730,215.36,-5.2663,-3.0214,1.1931,0.3849,0.2992,-3.0196,rough,14.0,2,3.239
6740,215.68,-5.2663,-3.0214,1.1931,0.3849,0.2992,-3.0196,rough,14.0,2,3.239
6750,216.00,-5.2663,-3.0214,1.1931,0.3849,0.2992,-3.0196,rough,14.0,2,3.239
6760,216.32,-5.2663,-3.0214,1.1931,0.3849,0.2992,-3.0196,rough,14.0,2,3.239
6770,216.64,-5.2663,-3.0214,1.1931,0.3849,0.2992,-3.0196,rough,14.0,2,3.239
6780,216.96,-5.2663,-3.0214,1.1931,0.3849,0.2992,-3.0196,rough,14.0,2,3.239
6790,217.28,-5.2663,-3.0214,1.1931,0.3849,0.2992,-3.0196,rough,14.0,2,3.239
6800,217.60,-5.2663,-3.0214,1.1931,0.3849,0.2992,-3.0196,rough,14.0,2,3.239
6810,217.92,-5.2663,-3.0214,1.1931,0.3849,0.2992,-3.0196,rough,14.0,2,3.239
6820,218.24,-5.2663,-3.0214,1.1931,0.3849,0.2992,-3.0196,rough,14.0,2,3.239
6830,218.56,-5.2663,-3.0214,1.1931,0.3849,0.2992,-3.0196,rough,14.0,2,3.239
6840,218.88,-5.2663,-3.0214,1.1931,0.3849,0.2992,-3.0196,rough,14.0,2,3.239
6850,219.20,-5.2663,-3.0214,1.1931,0.3849,0.2992,-3.0196,rough,14.0,2,3.239
6860,219.52,-5.2663,-3.0214,1.1931,0.3849,0.2992,-3.0196,rough,14.0,2,3.239
6870,219.84,-5.2663,-3.0214,1.1931,0.3849,0.2992,-3.0196,rough,14.0,2,3.239
6880,220.16,-5.2663,-3.0214,1.1931,0.3849,0.2992,-3.0196,rough,14.0,2,3.239
6890,220.48,-5.2663,-3.0214,1.1931,0.3849,0.2992,-3.0196,rough,14.0,2,3.239
6900,220.80,-5.2663,-3.0214,1.1931,0.3849,0.2992,-3.0196,rough,14.0,2,3.239
6910,221.12,-5.2663,-3.0214,1.1932,0.3849,0.2992,-3.0196,rough,14.0,2,3.239
6920,221.44,-5.2663,-3.0215,1.1932,0.3849,0.2992,-3.0196,rough,14.0,2,3.239
6930,221.76,-5.2663,-3.0215,1.1932,0.3849,0.2992,-3.0196,rough,14.0,2,3.239
6940,222.08,-5.2664,-3.0215,1.1932,0.3849,0.2992,-3.0196,rough,14.0,2,3.239
6950,222.40,-5.2664,-3.0215,1.1932,0.3849,0.2992,-3.0196,rough,14.0,2,3.239
6960,222.72,-5.2664,-3.0215,1.1932,0.3849,0.2992,-3.0196,rough,14.0,2,3.239
6970,223.04,-5.2664,-3.0215,1.1932,0.3849,0.2992,-3.0196,rough,14.0,2,3.239
6980,223.36,-5.2664,-3.0215,1.1932,0.3849,0.2992,-3.0196,rough,14.0,2,3.239
6990,223.68,-5.2664,-3.0215,1.1932,0.3849,0.2992,-3.0196,rough,14.0,2,3.239
7000,224.00,-5.2664,-3.0215,1.1932,0.3849,0.2992,-3.0196,rough,14.0,2,3.239
7010,224.32,-5.2664,-3.0215,1.1932,0.3849,0.2992,-3.0196,rough,14.0,2,3.239
7020,224.64,-5.2664,-3.0215,1.1932,0.3849,0.2992,-3.0196,rough,14.0,2,3.239
7030,224.96,-5.2664,-3.0215,1.1932,0.3849,0.2992,-3.0196,rough,14.0,2,3.239
7040,225.28,-5.2664,-3.0215,1.1932,0.3849,0.2992,-3.0196,rough,14.0,2,3.239
7050,225.60,-5.2664,-3.0215,1.1932,0.3849,0.2992,-3.0196,rough,14.0,2,3.239
7060,225.92,-5.2664,-3.0215,1.1932,0.3849,0.2992,-3.0196,rough,14.0,2,3.239
7070,226.24,-5.2664,-3.0215,1.1932,0.3849,0.2992,-3.0196,rough,14.0,2,3.239
7080,226.56,-5.2664,-3.0215,1.1932,0.3849,0.2992,-3.0196,rough,14.0,2,3.239
7090,226.88,-5.2664,-3.0215,1.1932,0.3849,0.2992,-3.0196,rough,14.0,2,3.239
7100,227.20,-5.2664,-3.0215,1.1932,0.3849,0.2992,-3.0196,rough,14.0,2,3.239
7110,227.52,-5.2664,-3.0215,1.1932,0.3849,0.2992,-3.0196,rough,14.0,2,3.239
7120,227.84,-5.2664,-3.0215,1.1932,0.3849,0.2992,-3.0196,rough,14.0,2,3.239
7130,228.16,-5.2664,-3.0215,1.1932,0.3849,0.2992,-3.0196,rough,14.0,2,3.239
7140,228.48,-5.2664,-3.0215,1.1932,0.3849,0.2992,-3.0196,rough,14.0,2,3.239
7150,228.80,-5.2664,-3.0216,1.1932,0.3849,0.2992,-3.0196,rough,14.0,2,3.239
7160,229.12,-5.2664,-3.0216,1.1932,0.3849,0.2992,-3.0196,rough,14.0,2,3.239
7170,229.44,-5.2664,-3.0216,1.1932,0.3849,0.2992,-3.0196,rough,14.0,2,3.239
7180,229.76,-5.2664,-3.0216,1.1932,0.3849,0.2992,-3.0196,rough,14.0,2,3.239
7190,230.08,-5.2664,-3.0216,1.1932,0.3849,0.2992,-3.0196,rough,14.0,2,3.239
7200,230.40,-5.2664,-3.0216,1.1932,0.3849,0.2992,-3.0196,rough,14.0,2,3.239
7210,230.72,-5.2665,-3.0216,1.1932,0.3849,0.2992,-3.0196,rough,14.0,2,3.239
7220,231.04,-5.2665,-3.0216,1.1932,0.3849,0.2992,-3.0196,rough,14.0,2,3.239
7230,231.36,-5.2665,-3.0216,1.1932,0.3849,0.2992,-3.0196,rough,14.0,2,3.239
7240,231.68,-5.2665,-3.0216,1.1932,0.3849,0.2992,-3.0196,rough,14.0,2,3.238
7250,232.00,-5.2665,-3.0216,1.1932,0.3849,0.2992,-3.0196,rough,14.0,2,3.238
7260,232.32,-5.2665,-3.0216,1.1932,0.3849,0.2992,-3.0196,rough,14.0,2,3.238
7270,232.64,-5.2665,-3.0216,1.1932,0.3849,0.2992,-3.0196,rough,14.0,2,3.238
7280,232.96,-5.2665,-3.0216,1.1932,0.3849,0.2992,-3.0196,rough,14.0,2,3.238
7290,233.28,-5.2665,-3.0216,1.1932,0.3849,0.2992,-3.0196,rough,14.0,2,3.238
7300,233.60,-5.2665,-3.0216,1.1932,0.3849,0.2992,-3.0196,rough,14.0,2,3.238
7310,233.92,-5.2665,-3.0216,1.1932,0.3849,0.2992,-3.0196,rough,14.0,2,3.238
7320,234.24,-5.2665,-3.0216,1.1932,0.3849,0.2992,-3.0196,rough,14.0,2,3.238
7330,234.56,-5.2665,-3.0216,1.1932,0.3849,0.2992,-3.0196,rough,14.0,2,3.238
7340,234.88,-5.2665,-3.0216,1.1932,0.3849,0.2992,-3.0196,rough,14.0,2,3.238
7350,235.20,-5.2665,-3.0216,1.1932,0.3849,0.2992,-3.0196,rough,14.0,2,3.238
7360,235.52,-5.2665,-3.0216,1.1932,0.3849,0.2992,-3.0196,rough,14.0,2,3.238
7370,235.84,-5.2665,-3.0217,1.1932,0.3849,0.2992,-3.0196,rough,14.0,2,3.238
7380,236.16,-5.2665,-3.0217,1.1932,0.3849,0.2992,-3.0196,rough,14.0,2,3.238
7390,236.48,-5.2665,-3.0217,1.1932,0.3849,0.2992,-3.0196,rough,14.0,2,3.238
7400,236.80,-5.2665,-3.0217,1.1932,0.3849,0.2992,-3.0196,rough,14.0,2,3.238
7410,237.12,-5.2665,-3.0217,1.1932,0.3849,0.2992,-3.0196,rough,14.0,2,3.238
7420,237.44,-5.2665,-3.0217,1.1932,0.3849,0.2992,-3.0196,rough,14.0,2,3.238
7430,237.76,-5.2665,-3.0217,1.1932,0.3849,0.2992,-3.0196,rough,14.0,2,3.238
7440,238.08,-5.2665,-3.0217,1.1932,0.3849,0.2992,-3.0196,rough,14.0,2,3.238
7450,238.40,-5.2665,-3.0217,1.1932,0.3849,0.2992,-3.0196,rough,14.0,2,3.238
7460,238.72,-5.2665,-3.0217,1.1932,0.3849,0.2992,-3.0196,rough,14.0,2,3.238
7470,239.04,-5.2665,-3.0217,1.1932,0.3849,0.2992,-3.0196,rough,14.0,2,3.238
7480,239.36,-5.2665,-3.0217,1.1932,0.3849,0.2992,-3.0196,rough,14.0,2,3.238
7490,239.68,-5.2666,-3.0217,1.1932,0.3849,0.2992,-3.0196,rough,14.0,2,3.238
7500,240.00,-5.2666,-3.0217,1.1932,0.3849,0.2992,-3.0196,rough,14.0,2,3.238
7510,240.32,-5.2666,-3.0217,1.1932,0.3849,0.2992,-3.0196,rough,14.0,2,3.238
7520,240.64,-5.2666,-3.0217,1.1932,0.3849,0.2992,-3.0196,rough,14.0,2,3.238
7530,240.96,-5.2666,-3.0217,1.1932,0.3849,0.2992,-3.0196,rough,14.0,2,3.238
7540,241.28,-5.2666,-3.0217,1.1932,0.3849,0.2992,-3.0196,rough,14.0,2,3.238
7550,241.60,-5.2666,-3.0217,1.1932,0.3849,0.2991,-3.0196,rough,14.0,2,3.238
7560,241.92,-5.2666,-3.0217,1.1932,0.3849,0.2991,-3.0196,rough,14.0,2,3.238
7570,242.24,-5.2666,-3.0217,1.1932,0.3849,0.2991,-3.0196,rough,14.0,2,3.238
7580,242.56,-5.2666,-3.0217,1.1932,0.3849,0.2991,-3.0196,rough,14.0,2,3.238
7590,242.88,-5.2666,-3.0217,1.1932,0.3849,0.2991,-3.0196,rough,14.0,2,3.238
7600,243.20,-5.2666,-3.0218,1.1932,0.3849,0.2991,-3.0196,rough,14.0,2,3.238
7610,243.52,-5.2666,-3.0218,1.1932,0.3849,0.2991,-3.0196,rough,14.0,2,3.238
7620,243.84,-5.2666,-3.0218,1.1932,0.3849,0.2991,-3.0196,rough,14.0,2,3.238
7630,244.16,-5.2666,-3.0218,1.1932,0.3849,0.2991,-3.0196,rough,14.0,2,3.238
7640,244.48,-5.2666,-3.0218,1.1932,0.3849,0.2991,-3.0196,rough,14.0,2,3.238
7650,244.80,-5.2666,-3.0218,1.1932,0.3849,0.2991,-3.0196,rough,14.0,2,3.238
7660,245.12,-5.2666,-3.0218,1.1932,0.3849,0.2991,-3.0196,rough,14.0,2,3.238
7670,245.44,-5.2666,-3.0218,1.1932,0.3849,0.2991,-3.0196,rough,14.0,2,3.238
7680,245.76,-5.2666,-3.0218,1.1932,0.3849,0.2991,-3.0196,rough,14.0,2,3.238
7690,246.08,-5.2666,-3.0218,1.1932,0.3849,0.2991,-3.0196,rough,14.0,2,3.238
7700,246.40,-5.2666,-3.0218,1.1932,0.3849,0.2991,-3.0196,rough,14.0,2,3.238
7710,246.72,-5.2666,-3.0218,1.1932,0.3849,0.2991,-3.0196,rough,14.0,2,3.238
7720,247.04,-5.2666,-3.0218,1.1932,0.3849,0.2991,-3.0196,rough,14.0,2,3.238
7730,247.36,-5.2666,-3.0218,1.1932,0.3849,0.2991,-3.0196,rough,14.0,2,3.238
7740,247.68,-5.2666,-3.0218,1.1932,0.3849,0.2991,-3.0196,rough,14.0,2,3.238
7750,248.00,-5.2666,-3.0218,1.1932,0.3849,0.2991,-3.0196,rough,14.0,2,3.238
7760,248.32,-5.2666,-3.0218,1.1932,0.3849,0.2991,-3.0196,rough,14.0,2,3.238
7770,248.64,-5.2667,-3.0218,1.1932,0.3849,0.2991,-3.0196,rough,14.0,2,3.238
7780,248.96,-5.2667,-3.0218,1.1932,0.3849,0.2991,-3.0196,rough,14.0,2,3.238
7790,249.28,-5.2667,-3.0218,1.1932,0.3849,0.2991,-3.0196,rough,14.0,2,3.238
7800,249.60,-5.2667,-3.0218,1.1932,0.3849,0.2991,-3.0196,rough,14.0,2,3.238
7810,249.92,-5.2667,-3.0218,1.1932,0.3849,0.2991,-3.0196,rough,14.0,2,3.238
7820,250.24,-5.2667,-3.0219,1.1932,0.3849,0.2991,-3.0196,rough,14.0,2,3.238
7830,250.56,-5.2667,-3.0219,1.1932,0.3849,0.2991,-3.0196,rough,14.0,2,3.238
7840,250.88,-5.2667,-3.0219,1.1932,0.3849,0.2991,-3.0196,rough,14.0,2,3.238
7850,251.20,-5.2667,-3.0219,1.1932,0.3849,0.2991,-3.0196,rough,14.0,2,3.238
7860,251.52,-5.2667,-3.0219,1.1932,0.3849,0.2991,-3.0196,rough,14.0,2,3.238
7870,251.84,-5.2667,-3.0219,1.1932,0.3849,0.2991,-3.0196,rough,14.0,2,3.238
7880,252.16,-5.2667,-3.0219,1.1932,0.3849,0.2991,-3.0196,rough,14.0,2,3.238
7890,252.48,-5.2667,-3.0219,1.1932,0.3849,0.2991,-3.0196,rough,14.0,2,3.238
7900,252.80,-5.2667,-3.0219,1.1932,0.3849,0.2991,-3.0196,rough,14.0,2,3.238
7910,253.12,-5.2667,-3.0219,1.1932,0.3849,0.2991,-3.0196,rough,14.0,2,3.238
