step,time_s,x,y,z,roll,pitch,yaw,terrain,speed,target_idx,dist_to_target
10,0.32,-0.0438,1.3928,0.3196,0.2063,-0.0911,-0.0136,rough,14.0,0,8.000
20,0.64,0.3537,1.3633,0.3397,0.1609,0.0125,-0.1320,rough,14.0,0,7.715
30,0.96,0.7475,1.2708,0.3435,0.1088,-0.0182,-0.2790,rough,14.0,0,7.394
40,1.28,1.1487,1.1415,0.3420,0.0226,-0.0356,-0.3820,rough,14.0,0,7.047
50,1.60,1.5457,0.9845,0.3460,-0.0189,0.0055,-0.4853,rough,14.0,0,6.688
60,1.92,1.9261,0.7673,0.3271,-0.0104,0.0717,-0.5527,rough,14.0,0,6.297
70,2.24,2.3049,0.5316,0.2835,-0.0395,0.1707,-0.6180,rough,14.0,0,5.896
80,2.56,2.6491,0.3186,0.2208,-0.2118,0.0484,-0.6641,rough,14.0,0,5.539
90,2.88,3.0190,0.0589,0.1737,-0.3037,0.1553,-0.7415,rough,14.0,0,5.136
100,3.20,3.3536,-0.2272,0.1122,-0.3511,0.1650,-0.8139,rough,14.0,0,4.732
110,3.52,3.7205,-0.5295,-0.0684,-0.4158,0.2945,-0.8976,rough,14.0,0,4.309
120,3.84,3.9673,-0.8643,-0.1856,-0.3075,0.2554,-0.9248,rough,14.0,0,3.907
130,4.16,4.2018,-1.1745,-0.2381,-0.2687,0.0738,-0.9073,rough,14.0,0,3.536
140,4.48,4.4143,-1.4705,-0.2248,-0.1700,-0.1953,-0.8855,rough,14.0,0,3.189
150,4.80,4.6895,-1.8480,-0.2259,-0.0904,0.0416,-0.9531,rough,14.0,0,2.752
160,5.12,4.9324,-2.2196,-0.2599,-0.0123,0.0879,-1.0243,rough,14.0,0,2.337
170,5.44,5.1167,-2.5733,-0.2789,0.0782,-0.0790,-1.0960,rough,14.0,0,1.960
180,5.76,5.2562,-2.9509,-0.2301,0.2208,-0.1669,-1.1775,rough,14.0,0,1.572
190,6.08,5.3711,-3.3398,-0.1533,0.2780,-0.1799,-1.2528,rough,14.0,0,1.181
200,6.40,5.4799,-3.7836,-0.1343,0.3821,0.0394,-1.2802,rough,14.0,1,12.143
210,6.72,5.4693,-4.0655,-0.1916,0.3369,0.2391,-1.5421,rough,14.0,1,12.401
220,7.04,5.4046,-4.3420,-0.2684,0.0306,0.3468,-2.0001,rough,14.0,1,12.637
230,7.36,5.3015,-4.5898,-0.3276,-0.2881,0.3232,-2.4181,rough,14.0,1,12.835
240,7.68,5.1226,-4.7173,-0.3609,-0.2603,-0.0460,-2.6471,rough,14.0,1,12.897
250,8.00,4.8576,-4.8222,-0.3540,-0.1874,-0.0735,-2.9259,rough,14.0,1,12.916
260,8.32,4.4716,-4.8247,-0.4350,-0.0284,0.2744,3.0596,rough,14.0,1,12.809
270,8.64,4.0766,-4.7557,-0.5652,0.0421,0.3725,2.9379,rough,14.0,1,12.641
280,8.96,3.7142,-4.6589,-0.6975,0.0546,0.3284,2.7961,rough,14.0,1,12.464
290,9.28,3.4065,-4.5656,-0.7367,-0.0628,0.0241,2.6389,rough,14.0,1,12.309
300,9.60,3.0721,-4.4077,-0.7580,-0.2273,-0.0274,2.5143,rough,14.0,1,12.093
310,9.92,2.7723,-4.2120,-0.7095,-0.2376,-0.1582,2.4121,rough,14.0,1,11.852
320,10.24,2.4087,-3.9267,-0.7653,-0.4612,0.1283,2.2091,rough,14.0,1,11.521
330,10.56,2.1912,-3.6486,-0.7425,-0.3263,-0.1519,2.2576,rough,14.0,1,11.220
340,10.88,1.9206,-3.3651,-0.7168,-0.3939,-0.2071,2.2157,rough,14.0,1,10.912
350,11.20,1.7397,-3.1523,-0.5948,-0.3425,-0.5897,2.3432,rough,14.0,1,10.686
360,11.52,1.4980,-2.9475,-0.4790,-0.2148,-0.4111,2.2893,rough,14.0,1,10.468
370,11.84,1.2699,-2.6785,-0.3342,-0.2005,-0.3781,2.1881,rough,14.0,1,10.191
380,12.16,1.0520,-2.3878,-0.2252,-0.1228,-0.2249,2.1341,rough,14.0,1,9.898
390,12.48,0.8420,-2.0664,-0.1317,-0.1276,-0.2880,2.0673,rough,14.0,1,9.578
400,12.80,0.6579,-1.6982,-0.0141,-0.0735,-0.2811,1.9785,rough,14.0,1,9.215
410,13.12,0.5153,-1.3034,0.0958,-0.0358,-0.2414,1.8964,rough,14.0,1,8.828
420,13.44,0.3832,-0.8865,0.1630,-0.0219,-0.1151,1.8536,rough,14.0,1,8.420
430,13.76,0.2572,-0.4702,0.1940,-0.0533,-0.0254,1.8180,rough,14.0,1,8.016
440,14.08,0.1623,-0.0438,0.2033,-0.0385,-0.0112,1.7711,rough,14.0,1,7.602
450,14.40,0.0834,0.3798,0.2150,-0.0175,-0.0497,1.7205,rough,14.0,1,7.191
460,14.72,0.0256,0.7986,0.2446,-0.0101,-0.1125,1.6812,rough,14.0,1,6.784
470,15.04,-0.0304,1.2139,0.2963,-0.0479,-0.1523,1.6614,rough,14.0,1,6.383
480,15.36,-0.0815,1.6303,0.3615,-0.1158,-0.1508,1.6567,rough,14.0,1,5.982
490,15.68,-0.1172,2.0605,0.4204,-0.1226,-0.1356,1.6270,rough,14.0,1,5.566
500,16.00,-0.1315,2.5154,0.4389,-0.0610,-0.0428,1.5686,rough,14.0,1,5.125
510,16.32,-0.0794,3.0247,0.3892,0.2102,0.3464,1.5781,rough,14.0,1,4.618
520,16.64,-0.0376,3.4850,0.2076,0.5440,0.4542,1.7388,rough,14.0,1,4.161
530,16.96,-0.0143,3.9613,-0.0501,0.6653,0.1562,2.0600,rough,14.0,1,3.696
540,17.28,-0.0639,4.3832,-0.2367,0.6681,0.1326,1.9968,rough,14.0,1,3.309
550,17.60,-0.1983,4.8219,-0.4304,0.5463,0.3754,1.9704,rough,14.0,1,2.951
560,17.92,-0.3239,5.2622,-0.6712,0.6108,0.4971,2.0256,rough,14.0,1,2.618
570,18.24,-0.4322,5.6706,-0.8845,0.6449,0.3165,1.9952,rough,14.0,1,2.343
580,18.56,-0.5029,6.0126,-1.0058,0.5784,0.2792,1.7600,rough,14.0,1,2.135
590,18.88,-0.4981,6.3713,-1.1306,0.4931,0.2823,1.5010,rough,14.0,1,1.897
600,19.20,-0.3934,6.7441,-1.2628,0.3563,0.2947,1.2556,rough,14.0,1,1.606
610,19.52,-0.2289,7.0095,-1.2968,0.4122,-0.0804,0.9965,rough,14.0,1,1.344
620,19.84,0.0042,7.3083,-1.2735,0.3598,-0.1286,0.8461,rough,14.0,1,1.034
630,20.16,0.2705,7.5129,-1.2169,0.4310,-0.2250,0.6092,rough,14.0,2,14.869
640,20.48,0.5198,7.5303,-1.2302,0.5125,-0.0190,0.1043,rough,14.0,2,15.022
650,20.80,0.7694,7.4429,-1.2608,0.4821,0.0137,-0.3399,rough,14.0,2,15.092
660,21.12,0.9703,7.2972,-1.2777,0.4700,-0.1292,-0.7200,rough,14.0,2,15.090
670,21.44,1.1665,7.0387,-1.2622,0.4954,-0.0660,-0.9231,rough,14.0,2,14.999
680,21.76,1.3377,6.7280,-1.2705,0.4759,0.0334,-1.1119,rough,14.0,2,14.858
690,22.08,1.4548,6.3789,-1.3048,0.4497,0.0860,-1.2823,rough,14.0,2,14.661
700,22.40,1.5121,6.0008,-1.3612,0.3603,0.1234,-1.4745,rough,14.0,2,14.409
710,22.72,1.5790,5.6275,-1.3809,0.0562,-0.1204,-1.5485,rough,14.0,2,14.173
720,23.04,1.6084,5.2855,-1.3260,-0.1842,-0.3867,-1.6033,rough,14.0,2,13.941
730,23.36,1.6084,5.0186,-1.2089,-0.2349,-0.4833,-1.5714,rough,14.0,2,13.746
740,23.68,1.6223,4.7674,-1.0480,-0.2254,-0.6855,-1.6035,rough,14.0,2,13.576
750,24.00,1.6225,4.5129,-0.8445,-0.2764,-0.6863,-1.5867,rough,14.0,2,13.396
760,24.32,1.6194,4.2619,-0.6474,-0.2846,-0.6624,-1.5905,rough,14.0,2,13.218
770,24.64,1.6040,3.9915,-0.4529,-0.2427,-0.6060,-1.6085,rough,14.0,2,13.020
780,24.96,1.5990,3.7247,-0.2820,-0.2450,-0.4840,-1.6325,rough,14.0,2,12.836
790,25.28,1.6291,3.5175,-0.1652,-0.1936,-0.6759,-1.6497,rough,14.0,2,12.720
800,25.60,1.6820,3.4061,-0.1514,-0.2817,-0.4283,-1.4225,rough,14.0,2,12.686
810,25.92,1.7831,3.1782,-0.1140,-0.3390,-0.2003,-1.4160,rough,14.0,2,12.615
820,26.24,1.8424,2.8644,-0.0276,-0.3587,-0.3474,-1.4666,rough,14.0,2,12.462
830,26.56,1.8630,2.5348,0.0705,-0.2596,-0.3650,-1.5479,rough,14.0,2,12.276
840,26.88,1.8417,2.2019,0.1561,-0.1281,-0.2309,-1.5689,rough,14.0,2,12.059
850,27.20,1.8334,1.8824,0.2313,-0.0870,-0.2503,-1.6058,rough,14.0,2,11.867
860,27.52,1.8028,1.5131,0.2948,-0.0194,-0.1602,-1.7297,rough,14.0,2,11.634
870,27.84,1.7270,1.0999,0.3332,-0.0404,-0.0176,-1.8823,rough,14.0,2,11.346
880,28.16,1.5864,0.6983,0.3415,-0.0199,0.0475,-1.9817,rough,14.0,2,11.017
890,28.48,1.4081,0.3109,0.3109,-0.0423,0.0842,-2.0842,rough,14.0,2,10.669
900,28.80,1.1845,-0.0709,0.2598,-0.0403,0.1282,-2.1526,rough,14.0,2,10.290
910,29.12,0.9353,-0.4245,0.2137,-0.0041,0.1187,-2.2115,rough,14.0,2,9.906
920,29.44,0.6829,-0.7698,0.1782,-0.1059,0.1219,-2.2838,rough,14.0,2,9.526
930,29.76,0.4041,-1.0863,0.1345,-0.1048,0.0909,-2.3368,rough,14.0,2,9.139
940,30.08,0.0974,-1.4063,0.0754,-0.1559,0.1724,-2.4025,rough,14.0,2,8.728
950,30.40,-0.2176,-1.6949,0.0030,-0.1923,0.1753,-2.4510,rough,14.0,2,8.324
960,30.72,-0.5207,-1.9481,-0.0231,-0.1473,-0.0287,-2.4535,rough,14.0,2,7.948
970,31.04,-0.8246,-2.1935,0.0170,-0.1193,-0.2534,-2.4668,rough,14.0,2,7.575
980,31.36,-1.1458,-2.4471,0.1286,-0.1019,-0.3042,-2.4880,rough,14.0,2,7.185
990,31.68,-1.4708,-2.6592,0.2492,0.0069,-0.4126,-2.5173,rough,14.0,2,6.808
1000,32.00,-1.7818,-2.8178,0.3888,0.1839,-0.6318,-2.5687,rough,14.0,2,6.462
1010,32.32,-2.0185,-2.9580,0.6073,0.2210,-0.7861,-2.6079,rough,14.0,2,6.193
1020,32.64,-2.3013,-3.0739,0.8711,0.3447,-0.7355,-2.6406,rough,14.0,2,5.888
1030,32.96,-2.5129,-3.1330,1.0420,0.2902,-0.7453,-2.5536,rough,14.0,2,5.669
1040,33.28,-2.7103,-3.2009,1.1664,0.2500,-0.6081,-2.6015,rough,14.0,2,5.460
1050,33.60,-2.9975,-3.2464,1.2462,0.5069,-0.3197,-2.8109,rough,14.0,2,5.173
1060,33.92,-3.3583,-3.3396,1.3136,0.3009,-0.3347,-2.8560,rough,14.0,2,4.802
1070,34.24,-3.7522,-3.4658,1.4466,0.2414,-0.3434,-2.8577,rough,14.0,2,4.388
1080,34.56,-4.1561,-3.5969,1.5846,0.1860,-0.2985,-2.8494,rough,14.0,2,3.964
1090,34.88,-4.6552,-3.7695,1.5598,0.0776,0.2780,-2.8051,rough,14.0,2,3.435
1100,35.20,-5.0595,-3.9053,1.4632,0.1019,0.1873,-2.8048,rough,14.0,2,3.009
1110,35.52,-5.5074,-4.0384,1.3270,0.1846,0.3793,-2.7981,rough,14.0,2,2.543
1120,35.84,-5.9096,-4.1483,1.1712,0.2947,0.3817,-2.7913,rough,14.0,2,2.127
1130,36.16,-6.2965,-4.2602,1.0541,0.3263,0.2971,-2.8279,rough,14.0,2,1.727
1140,36.48,-6.5609,-4.3032,1.0313,0.3036,-0.2038,-3.0542,rough,14.0,2,1.467
1150,36.80,-6.9275,-4.3018,1.1264,0.3353,-0.3767,-3.0167,rough,14.0,2,1.144
1160,37.12,-7.3197,-4.4121,1.2018,0.0099,-0.1710,-2.9649,rough,14.0,3,1.199
1170,37.44,-7.7374,-4.4941,1.2411,-0.0292,-0.0131,-2.9421,rough,14.0,0,13.082
1180,37.76,-7.8969,-4.4722,1.2592,0.0704,-0.3325,-2.5064,rough,14.0,0,13.242
1190,38.08,-8.0490,-4.6605,1.3412,-0.2307,-0.4434,-2.0712,rough,14.0,0,13.394
1200,38.40,-8.0831,-4.8643,1.4138,-0.4473,-0.3801,-1.7449,rough,14.0,0,13.432
1210,38.72,-8.0717,-5.0604,1.4725,-0.4890,-0.3174,-1.5230,rough,14.0,0,13.427
1220,39.04,-7.9744,-5.3368,1.4914,-0.5871,-0.1121,-1.2538,rough,14.0,0,13.344
1230,39.36,-7.8500,-5.5763,1.5102,-0.4767,-0.2333,-0.9082,rough,14.0,0,13.237
1240,39.68,-7.6090,-5.8445,1.5665,-0.4625,-0.0979,-0.7973,rough,14.0,0,13.021
1250,40.00,-7.3551,-6.0513,1.6131,-0.4645,-0.2440,-0.5857,rough,14.0,0,12.792
1260,40.32,-6.9941,-6.2977,1.5795,-0.2099,0.2157,-0.4741,rough,14.0,0,12.466
1270,40.64,-6.5869,-6.5092,1.4367,-0.0132,0.4248,-0.4114,rough,14.0,0,12.096
1280,40.96,-6.1879,-6.6422,1.2806,-0.0501,0.4049,-0.3033,rough,14.0,0,11.726
1290,41.28,-5.8287,-6.7636,1.1635,0.0154,0.2329,-0.2148,rough,14.0,0,11.396
1300,41.60,-5.4161,-6.8701,1.0956,0.1566,0.1975,-0.1700,rough,14.0,0,11.014
1310,41.92,-5.0328,-6.9966,1.0429,0.3205,-0.0440,-0.1411,rough,14.0,0,10.669
1320,42.24,-4.5703,-7.0870,0.9502,0.5456,0.1582,-0.0311,rough,14.0,0,10.242
1330,42.56,-4.1088,-7.1037,0.7796,0.3910,0.3536,0.0370,rough,14.0,0,9.800
1340,42.88,-3.8034,-7.1591,0.7051,0.3697,-0.0432,-0.1231,rough,14.0,0,9.521
1350,43.20,-3.4549,-7.2776,0.6899,0.5222,-0.1371,-0.1887,rough,14.0,0,9.221
1360,43.52,-3.1556,-7.4110,0.7556,0.6546,-0.4179,-0.2464,rough,14.0,0,8.978
1370,43.84,-2.8413,-7.5639,0.7902,0.6991,-0.1974,-0.2001,rough,14.0,0,8.733
1380,44.16,-2.4481,-7.7504,0.7642,0.7336,-0.2887,-0.1194,rough,14.0,0,8.436
1390,44.48,-2.0786,-7.9568,0.7404,0.6538,-0.4158,-0.0781,rough,14.0,0,8.180
1400,44.80,-1.8064,-8.0731,0.8313,0.5694,-0.6472,-0.1281,rough,14.0,0,7.985
1410,45.12,-1.5675,-8.1678,0.9577,0.5129,-0.6440,-0.1428,rough,14.0,0,7.815
1420,45.44,-1.4014,-8.3005,1.0223,0.4329,-0.7041,-0.0124,rough,14.0,0,7.733
1430,45.76,-1.3022,-8.4837,0.9746,0.5948,-0.6288,-0.1789,rough,14.0,0,7.739
1440,46.08,-1.2406,-8.7326,0.8408,0.6318,-0.6955,-0.0885,rough,14.0,0,7.817
1450,46.40,-1.2096,-9.0749,0.5789,0.6801,-0.6174,-0.2059,rough,14.0,0,7.981
1460,46.72,-1.2283,-9.4839,0.2466,0.5569,-0.6156,-0.0475,rough,14.0,0,8.237
1470,47.04,-1.1899,-9.8454,0.0481,0.5999,-0.4012,-0.3385,rough,14.0,0,8.429
1480,47.36,-1.0404,-10.0045,0.0604,0.5767,-0.2621,-0.4930,rough,14.0,0,8.417
1490,47.68,-0.9012,-10.1708,0.0925,0.5959,-0.3387,-0.4591,rough,14.0,0,8.422
1500,48.00,-0.7361,-10.3169,0.1755,0.6446,-0.7322,-0.4482,rough,14.0,0,8.401
1510,48.32,-0.6321,-10.4433,0.1896,0.6307,-0.5679,-0.4493,rough,14.0,0,8.414
1520,48.64,-0.5604,-10.6043,0.1689,0.5502,-0.3660,-0.3929,rough,14.0,0,8.478
1530,48.96,-0.4653,-10.7343,0.1092,0.7357,-0.2248,-0.5167,rough,14.0,0,8.507
1540,49.28,-0.3799,-10.8994,0.0651,0.8373,-0.0482,-0.3900,rough,14.0,0,8.571
1550,49.60,-0.1815,-11.0591,0.0410,0.6725,-0.3258,-0.4698,rough,14.0,0,8.561
1560,49.92,0.0911,-11.2505,0.0712,0.6948,-0.4228,-0.1557,rough,14.0,0,8.538
1570,50.24,0.2586,-11.4102,0.0976,0.5839,-0.7893,0.0728,rough,14.0,0,8.564
1580,50.56,0.2441,-11.4901,0.0214,0.5070,-0.7675,0.0359,rough,14.0,0,8.637
1590,50.88,0.2980,-11.6186,-0.0424,0.6921,-0.4827,-0.4858,rough,14.0,0,8.709
1600,51.20,0.3969,-11.8055,-0.0576,0.5612,-0.6302,-0.3141,rough,14.0,0,8.806
1610,51.52,0.4763,-11.9907,-0.1015,0.5699,-0.3950,-0.2864,rough,14.0,0,8.917
1620,51.84,0.5474,-12.1069,-0.1122,0.4805,-0.3210,-0.4098,rough,14.0,0,8.976
1630,52.16,0.7613,-12.2643,-0.1233,0.6363,-0.1980,-0.2738,rough,14.0,0,8.999
1640,52.48,1.1178,-12.4448,-0.1693,0.7409,-0.1582,0.0352,rough,14.0,0,8.981
1650,52.80,1.4653,-12.5702,-0.2036,0.6617,-0.3158,0.2347,rough,14.0,0,8.936
1660,53.12,1.7019,-12.7141,-0.2321,0.6256,-0.7930,0.2931,rough,14.0,0,8.967
1670,53.44,1.8332,-12.8916,-0.3557,0.7028,-0.5759,-0.0455,rough,14.0,0,9.078
1680,53.76,1.9660,-13.0084,-0.3358,0.4791,-0.5841,0.0259,rough,14.0,0,9.136
1690,54.08,2.1277,-13.0424,-0.2755,0.5779,-0.4306,-0.0923,rough,14.0,0,9.109
1700,54.40,2.2791,-13.1337,-0.2563,0.6539,-0.7355,-0.0793,rough,14.0,0,9.143
1710,54.72,2.3438,-13.3092,-0.3679,0.6053,-0.7423,0.0163,rough,14.0,0,9.287
1720,55.04,2.3852,-13.5265,-0.5216,-0.0760,-0.8999,0.9053,rough,14.0,0,9.480
1730,55.36,2.4581,-13.6476,-0.6068,-0.0623,-0.7988,1.0743,rough,14.0,0,9.573
1740,55.68,2.5765,-13.8163,-0.6796,0.0675,-0.9029,1.3408,rough,14.0,0,9.699
1750,56.00,2.5524,-13.9968,-0.8524,-0.1044,-0.8069,1.6765,rough,14.0,0,9.879
1760,56.32,2.5203,-13.9864,-0.8420,-0.1193,-0.7199,1.7026,rough,14.0,0,9.878
1770,56.64,2.4716,-13.8569,-0.7412,-0.2754,-0.7917,1.8494,rough,14.0,0,9.769
1780,56.96,2.3661,-13.8041,-0.7397,-0.3729,-0.6516,1.8842,rough,14.0,0,9.750
1790,57.28,2.2683,-13.6497,-0.6577,-0.3214,-0.4304,1.7687,rough,14.0,0,9.634
1800,57.60,2.1809,-13.4097,-0.5279,-0.4433,-0.6767,1.9336,rough,14.0,0,9.436
1810,57.92,2.0408,-13.1321,-0.3975,-0.4611,-0.5149,1.9041,rough,14.0,0,9.224
1820,58.24,1.8696,-12.8494,-0.2844,-0.7122,-0.5303,1.9351,rough,14.0,0,9.025
1830,58.56,1.7338,-12.5967,-0.1221,-0.6876,-0.6249,1.9643,rough,14.0,0,8.847
1840,58.88,1.5937,-12.4371,-0.0413,-0.6411,-0.6464,2.2025,rough,14.0,0,8.760
1850,59.20,1.4053,-12.3747,-0.0366,-0.5435,-0.6883,2.1648,rough,14.0,0,8.787
1860,59.52,1.1749,-12.3758,-0.0930,-0.5783,-0.5682,2.2206,rough,14.0,0,8.894
1870,59.84,0.9891,-12.3781,-0.1368,-0.5093,-0.6090,2.1779,rough,14.0,0,8.984
1880,60.16,0.8177,-12.3533,-0.1661,-0.4652,-0.5493,2.0483,rough,14.0,0,9.047
1890,60.48,0.6641,-12.2734,-0.1680,-0.4717,-0.4424,1.9370,rough,14.0,0,9.056
1900,60.80,0.5446,-12.1055,-0.1081,-0.4361,-0.4445,1.8803,rough,14.0,0,8.976
1910,61.12,0.3584,-11.7671,-0.0608,-0.7999,-0.3048,1.7958,rough,14.0,0,8.796
1920,61.44,0.2104,-11.4951,0.0020,-0.8281,-0.4636,1.9315,rough,14.0,0,8.661
1930,61.76,0.0749,-11.3234,0.0198,-0.7685,-0.4312,2.1665,rough,14.0,0,8.605
1940,62.08,-0.1676,-11.2026,-0.0417,-0.6944,-0.3204,1.8435,rough,14.0,0,8.662
1950,62.40,-0.2137,-11.0981,-0.0114,-0.5807,-0.4314,1.7348,rough,14.0,0,8.612
1960,62.72,-0.2924,-10.8871,0.1129,-0.6700,-0.6003,1.9334,rough,14.0,0,8.504
1970,63.04,-0.4273,-10.6580,0.2084,-0.5829,-0.3442,1.8516,rough,14.0,0,8.425
1980,63.36,-0.6307,-10.4715,0.1718,-0.6768,-0.3427,1.8752,rough,14.0,0,8.433
1990,63.68,-0.8834,-10.1685,0.1190,-0.6545,-0.3951,1.5584,rough,14.0,0,8.408
2000,64.00,-0.9913,-9.8845,0.1515,-0.4407,-0.6980,1.3835,rough,14.0,0,8.302
2010,64.32,-0.9954,-9.7298,0.2367,-0.4736,-0.5991,1.6368,rough,14.0,0,8.206
2020,64.64,-1.0599,-9.5674,0.2929,-0.5418,-0.5256,1.6711,rough,14.0,0,8.154
2030,64.96,-1.1475,-9.3472,0.3917,-0.7218,-0.5814,1.8429,rough,14.0,0,8.090
2040,65.28,-1.2724,-9.1665,0.4754,-0.6195,-0.6486,1.7813,rough,14.0,0,8.085
2050,65.60,-1.3893,-9.0349,0.5096,-0.5764,-0.4595,1.8840,rough,14.0,0,8.107
2060,65.92,-1.5234,-8.9171,0.5049,-0.5869,-0.4387,1.9442,rough,14.0,0,8.155
2070,66.24,-1.6306,-8.7089,0.6016,-0.5617,-0.5344,1.8958,rough,14.0,0,8.136
2080,66.56,-1.7541,-8.4442,0.6513,-0.7306,-0.4853,1.7080,rough,14.0,0,8.111
2090,66.88,-1.8273,-8.1734,0.7555,-0.5959,-0.5562,1.6036,rough,14.0,0,8.049
2100,67.20,-1.8426,-7.8988,0.9132,-0.3402,-0.6338,1.2982,rough,14.0,0,7.942
2110,67.52,-1.7630,-7.6432,1.1041,-0.1076,-0.6583,0.9633,rough,14.0,0,7.763
2120,67.84,-1.5881,-7.3932,1.3340,-0.0811,-0.6767,0.9050,rough,14.0,0,7.504
2130,68.16,-1.3688,-7.1258,1.5153,-0.1810,-0.5043,0.8060,rough,14.0,0,7.201
2140,68.48,-1.0309,-6.8306,1.5702,0.0178,-0.0748,0.8459,rough,14.0,0,6.781
2150,68.80,-0.7302,-6.4911,1.5208,-0.1217,0.2140,0.7291,rough,14.0,0,6.387
2160,69.12,-0.3957,-6.1444,1.3514,-0.2376,0.4582,0.7157,rough,14.0,0,5.966
2170,69.44,-0.0285,-5.7784,1.0274,-0.2192,0.7738,0.5445,rough,14.0,0,5.518
2180,69.76,0.4552,-5.3322,0.4318,-2.3546,1.2869,-1.5792,rough,14.0,0,4.956
2190,70.08,1.0163,-4.8034,-0.4967,-2.9729,-0.4590,-2.7045,rough,14.0,0,4.338
2200,70.40,1.7341,-4.1372,-0.9994,-2.7998,-0.4543,3.1223,rough,14.0,0,3.631
2210,70.72,1.9563,-4.0600,-1.0399,-3.1309,0.0785,-2.7389,rough,14.0,0,3.420
2220,71.04,2.3343,-3.8976,-0.9496,3.0688,0.4227,-2.7075,rough,14.0,0,3.074
2230,71.36,2.6864,-3.7388,-0.7872,-3.1352,0.4066,-2.7152,rough,14.0,0,2.771
2240,71.68,3.0473,-3.5717,-0.7470,2.9607,-0.0997,-2.7199,rough,14.0,0,2.486
2250,72.00,3.4437,-3.4164,-0.7253,2.9520,0.1740,-2.7960,rough,14.0,0,2.198
2260,72.32,3.8290,-3.3238,-0.6574,2.8514,0.2234,-2.9467,rough,14.0,0,1.931
2270,72.64,4.1716,-3.2997,-0.5789,2.8245,0.2813,-3.1373,rough,14.0,0,1.693
2280,72.96,4.4999,-3.3968,-0.5596,2.9510,0.0669,2.7614,rough,14.0,0,1.406
2290,73.28,4.7312,-3.5582,-0.5336,2.8984,0.1600,2.1823,rough,14.0,0,1.141
2300,73.60,4.7608,-3.8015,-0.5247,2.8218,-0.0423,1.4242,rough,14.0,0,0.926
2310,73.92,4.7102,-4.0047,-0.5393,2.9302,-0.2719,0.6427,rough,14.0,0,0.818
2320,74.24,4.6078,-4.1450,-0.5733,2.9238,-0.2891,0.5872,rough,14.0,0,0.827
2330,74.56,4.4010,-4.1675,-0.6522,2.9923,-0.3352,0.4174,rough,14.0,0,1.007
2340,74.88,4.1642,-4.1643,-0.7431,3.0416,-0.3592,0.2988,rough,14.0,0,1.233
2350,75.20,3.9137,-4.1791,-0.8240,3.1370,-0.3180,0.2630,rough,14.0,0,1.471
2360,75.52,3.6715,-4.1896,-0.8647,-3.0299,-0.0995,0.2188,rough,14.0,0,1.706
2370,75.84,3.4526,-4.1968,-0.8797,-3.0292,0.0441,0.1382,rough,14.0,0,1.920
2380,76.16,3.2666,-4.2140,-0.8750,-2.9675,-0.0626,0.1719,rough,14.0,0,2.101
2390,76.48,3.1170,-4.2203,-0.8650,-2.9039,-0.1439,0.1710,rough,14.0,0,2.248
2400,76.80,3.0424,-4.2334,-0.8750,-2.8698,-0.0870,0.1043,rough,14.0,0,2.320
2410,77.12,2.9563,-4.2365,-0.8804,-2.8772,-0.0808,0.1293,rough,14.0,0,2.405
2420,77.44,2.8367,-4.2797,-0.9034,-2.9209,-0.0700,0.1281,rough,14.0,0,2.520
2430,77.76,2.7408,-4.3338,-0.9154,-2.8778,-0.0237,0.0551,rough,14.0,0,2.611
2440,78.08,2.6767,-4.3837,-0.9280,-2.8560,-0.0174,0.0461,rough,14.0,0,2.672
2450,78.40,2.6290,-4.4277,-0.9720,3.1310,-0.1827,-0.0140,rough,14.0,0,2.717
2460,78.72,2.5349,-4.4507,-0.9786,-2.9426,-0.0960,0.0106,rough,14.0,0,2.811
2470,79.04,2.3264,-4.4483,-0.9922,3.1071,-0.0646,0.0419,rough,14.0,0,3.019
2480,79.36,2.2142,-4.4588,-0.9859,3.1087,0.2125,0.0878,rough,14.0,0,3.131
2490,79.68,2.2265,-4.4747,-0.9888,3.1107,0.2016,0.0817,rough,14.0,0,3.119
2500,80.00,2.3468,-4.5021,-1.0052,-3.1206,-0.0156,0.1059,rough,14.0,0,2.998
2510,80.32,2.4520,-4.5147,-1.0076,-3.0831,-0.2101,0.0013,rough,14.0,0,2.893
2520,80.64,2.4505,-4.5145,-1.0079,3.1210,-0.2925,0.0234,rough,14.0,0,2.894
2530,80.96,2.4545,-4.5158,-1.0071,3.0872,-0.3336,0.0190,rough,14.0,0,2.890
2540,81.28,2.4546,-4.5156,-1.0070,3.0872,-0.3340,0.0184,rough,14.0,0,2.890
2550,81.60,2.4547,-4.5155,-1.0070,3.0873,-0.3341,0.0179,rough,14.0,0,2.890
2560,81.92,2.4540,-4.5157,-1.0071,3.0941,-0.3258,0.0162,rough,14.0,0,2.891
2570,82.24,2.4558,-4.5156,-1.0065,3.0934,-0.3307,0.0078,rough,14.0,0,2.889
2580,82.56,2.4555,-4.5147,-1.0078,3.0891,-0.3359,0.0242,rough,14.0,0,2.889
2590,82.88,2.4554,-4.5112,-1.0076,3.0950,-0.3305,0.0146,rough,14.0,0,2.889
2600,83.20,2.4039,-4.5118,-1.0029,3.0932,-0.1987,0.0030,rough,14.0,0,2.941
2610,83.52,2.3952,-4.5061,-1.0114,-3.1010,-0.1099,0.0804,rough,14.0,0,2.949
2620,83.84,2.4014,-4.5263,-1.0183,-3.1029,-0.1307,0.1869,rough,14.0,0,2.943
2630,84.16,2.4129,-4.5263,-1.0163,-3.1035,-0.1577,0.1555,rough,14.0,0,2.932
2640,84.48,2.4249,-4.5069,-1.0212,-3.0991,-0.1993,0.1088,rough,14.0,0,2.920
2650,84.80,2.4412,-4.5093,-1.0110,3.1351,-0.2625,0.0549,rough,14.0,0,2.904
2660,85.12,2.3970,-4.5224,-1.0173,-3.1010,-0.1180,0.1789,rough,14.0,0,2.948
2670,85.44,2.3219,-4.5448,-1.0114,3.1361,0.0266,0.2043,rough,14.0,0,3.023
2680,85.76,2.2958,-4.5451,-1.0082,3.0860,0.0491,0.1937,rough,14.0,0,3.049
2690,86.08,2.3590,-4.5242,-1.0136,-3.1276,-0.0426,0.1737,rough,14.0,0,2.986
2700,86.40,2.4380,-4.5289,-1.0106,3.1335,-0.2543,0.0778,rough,14.0,0,2.907
2710,86.72,2.4546,-4.5307,-1.0062,3.0919,-0.3297,0.0154,rough,14.0,0,2.890
2720,87.04,2.4565,-4.5307,-1.0055,3.0942,-0.3314,0.0040,rough,14.0,0,2.888
2730,87.36,2.4521,-4.5295,-1.0060,3.0907,-0.3242,0.0155,rough,14.0,0,2.893
2740,87.68,2.3984,-4.5300,-1.0020,3.0941,-0.1843,0.0081,rough,14.0,0,2.946
2750,88.00,2.3358,-4.5303,-0.9966,3.0933,-0.0313,-0.0024,rough,14.0,0,3.009
2760,88.32,2.3204,-4.5302,-0.9978,3.1010,0.0107,0.0271,rough,14.0,0,3.024
2770,88.64,2.3596,-4.5336,-1.0095,-3.1237,-0.0412,0.1326,rough,14.0,0,2.985
2780,88.96,2.3898,-4.5506,-1.0130,-3.1084,-0.1040,0.1538,rough,14.0,0,2.955
2790,89.28,2.4315,-4.5239,-1.0120,3.1397,-0.2349,0.0919,rough,14.0,0,2.913
2800,89.60,2.4543,-4.5211,-1.0069,3.0888,-0.3321,0.0199,rough,14.0,0,2.890
2810,89.92,2.4540,-4.5214,-1.0068,3.0946,-0.3255,0.0156,rough,14.0,0,2.891
2820,90.24,2.4567,-4.5212,-1.0059,3.0935,-0.3327,0.0033,rough,14.0,0,2.888
2830,90.56,2.4536,-4.5201,-1.0069,3.0883,-0.3306,0.0203,rough,14.0,0,2.891
2840,90.88,2.4544,-4.5195,-1.0069,3.0877,-0.3329,0.0194,rough,14.0,0,2.890
2850,91.20,2.4546,-4.5192,-1.0068,3.0872,-0.3338,0.0188,rough,14.0,0,2.890
2860,91.52,2.4546,-4.5191,-1.0068,3.0872,-0.3340,0.0183,rough,14.0,0,2.890
2870,91.84,2.4547,-4.5191,-1.0068,3.0873,-0.3341,0.0178,rough,14.0,0,2.890
2880,92.16,2.4540,-4.5192,-1.0069,3.0940,-0.3260,0.0160,rough,14.0,0,2.891
2890,92.48,2.4562,-4.5191,-1.0062,3.0933,-0.3316,0.0060,rough,14.0,0,2.889
2900,92.80,2.4533,-4.5182,-1.0076,3.0982,-0.3217,0.0236,rough,14.0,0,2.891
2910,93.12,2.4491,-4.5165,-1.0059,3.0959,-0.3128,-0.0001,rough,14.0,0,2.896
2920,93.44,2.4232,-4.5163,-1.0051,3.0949,-0.2465,0.0164,rough,14.0,0,2.922
2930,93.76,2.3506,-4.5167,-1.0004,3.1009,-0.0620,0.0226,rough,14.0,0,2.994
2940,94.08,2.3002,-4.5187,-1.0011,3.1294,0.0807,0.0833,rough,14.0,0,3.044
2950,94.40,2.2942,-4.5361,-1.0104,3.0828,0.0482,0.2169,rough,14.0,0,3.050
2960,94.72,2.3374,-4.5407,-1.0132,3.1378,-0.0095,0.2091,rough,14.0,0,3.007
2970,95.04,2.4040,-4.5364,-1.0214,-3.0641,-0.1373,0.1515,rough,14.0,0,2.941
2980,95.36,2.4525,-4.5253,-1.0073,3.0947,-0.3253,0.0249,rough,14.0,0,2.892
2990,95.68,2.4571,-4.5269,-1.0049,3.0917,-0.3348,-0.0048,rough,14.0,0,2.888
3000,96.00,2.4067,-4.5254,-1.0032,3.0953,-0.2044,0.0130,rough,14.0,0,2.938
3010,96.32,2.3203,-4.5255,-0.9969,3.0953,0.0073,0.0129,rough,14.0,0,3.024
3020,96.64,2.2895,-4.5265,-0.9974,3.1087,0.0909,0.0519,rough,14.0,0,3.055
3030,96.96,2.3383,-4.5351,-1.0107,3.1305,-0.0154,0.1717,rough,14.0,0,3.006
3040,97.28,2.4193,-4.5450,-1.0192,-3.0781,-0.1544,0.1900,rough,14.0,0,2.926
3050,97.60,2.4257,-4.5377,-1.0130,-3.1322,-0.2118,0.1162,rough,14.0,0,2.919
3060,97.92,2.4389,-4.5160,-1.0109,3.1260,-0.2637,0.0698,rough,14.0,0,2.906
3070,98.24,2.4506,-4.5128,-1.0082,3.0970,-0.3159,0.0322,rough,14.0,0,2.894
3080,98.56,2.4546,-4.5145,-1.0071,3.0873,-0.3338,0.0187,rough,14.0,0,2.890
3090,98.88,2.4546,-4.5144,-1.0070,3.0872,-0.3340,0.0181,rough,14.0,0,2.890
3100,99.20,2.4544,-4.5144,-1.0071,3.0897,-0.3311,0.0173,rough,14.0,0,2.890
3110,99.52,2.4544,-4.5146,-1.0070,3.0939,-0.3272,0.0138,rough,14.0,0,2.890
3120,99.84,2.4555,-4.5137,-1.0065,3.0902,-0.3332,0.0072,rough,14.0,0,2.889
3130,100.16,2.4522,-4.5107,-1.0087,3.0963,-0.3326,0.0058,rough,14.0,0,2.892
3140,100.48,2.4504,-4.5070,-1.0083,3.1131,-0.3045,0.0269,rough,14.0,0,2.894
3150,100.80,2.4255,-4.5100,-1.0086,3.1172,-0.2287,0.0382,rough,14.0,0,2.919
3160,101.12,2.4087,-4.5150,-1.0182,-3.0824,-0.1299,0.1714,rough,14.0,0,2.936
3170,101.44,2.3877,-4.5377,-1.0176,-3.0991,-0.0944,0.2004,rough,14.0,0,2.957
3180,101.76,2.4304,-4.5144,-1.0130,-3.1385,-0.2284,0.0983,rough,14.0,0,2.914
3190,102.08,2.4552,-4.5185,-1.0062,3.1102,-0.3134,0.0037,rough,14.0,0,2.890
3200,102.40,2.4533,-4.5180,-1.0075,3.0909,-0.3317,0.0144,rough,14.0,0,2.891
3210,102.72,2.4194,-4.5188,-1.0036,3.0954,-0.2354,0.0029,rough,14.0,0,2.925
3220,103.04,2.3849,-4.5189,-1.0040,3.1076,-0.1414,0.0368,rough,14.0,0,2.960
3230,103.36,2.3379,-4.5260,-1.0075,-3.1374,0.0005,0.1275,rough,14.0,0,3.007
3240,103.68,2.3054,-4.5287,-1.0044,3.0539,-0.0020,0.1430,rough,14.0,0,3.039
3250,104.00,2.3736,-4.5215,-1.0151,-3.1268,-0.0783,0.1763,rough,14.0,0,2.971
3260,104.32,2.4355,-4.5348,-1.0124,3.1234,-0.2617,0.1003,rough,14.0,0,2.909
3270,104.64,2.4600,-4.5429,-1.0060,3.0973,-0.3383,0.0114,rough,14.0,0,2.885
3280,104.96,2.4391,-4.5430,-1.0043,3.0906,-0.2911,0.0121,rough,14.0,0,2.906
3290,105.28,2.4135,-4.5437,-1.0018,3.0909,-0.2249,0.0028,rough,14.0,0,2.931
3300,105.60,2.4381,-4.5444,-1.0045,3.1043,-0.2756,0.0135,rough,14.0,0,2.907
3310,105.92,2.4554,-4.5434,-1.0045,3.0964,-0.3289,-0.0063,rough,14.0,0,2.889
3320,106.24,2.4404,-4.5429,-1.0043,3.0946,-0.2902,0.0094,rough,14.0,0,2.904
3330,106.56,2.4155,-4.5438,-1.0012,3.0920,-0.2283,-0.0057,rough,14.0,0,2.929
3340,106.88,2.4053,-4.5442,-1.0021,3.0957,-0.2005,0.0126,rough,14.0,0,2.940
3350,107.20,2.3614,-4.5445,-0.9995,3.0973,-0.0913,0.0186,rough,14.0,0,2.983
3360,107.52,2.3285,-4.5458,-1.0004,3.1194,0.0051,0.0623,rough,14.0,0,3.016
3370,107.84,2.3294,-4.5621,-1.0083,-3.1353,0.0203,0.1662,rough,14.0,0,3.016
3380,108.16,2.3482,-4.5688,-1.0127,-3.0955,0.0058,0.2024,rough,14.0,0,2.997
3390,108.48,2.3049,-4.5691,-1.0060,3.1286,0.0639,0.1727,rough,14.0,0,3.040
3400,108.80,2.3477,-4.5354,-1.0106,3.1345,-0.0346,0.1642,rough,14.0,0,2.997
3410,109.12,2.4298,-4.5314,-1.0125,-3.1385,-0.2274,0.1043,rough,14.0,0,2.915
3420,109.44,2.4539,-4.5497,-1.0072,3.0921,-0.3166,0.0212,rough,14.0,0,2.891
3430,109.76,2.4543,-4.5491,-1.0056,3.0887,-0.3307,0.0198,rough,14.0,0,2.891
3440,110.08,2.4546,-4.5487,-1.0053,3.0875,-0.3334,0.0187,rough,14.0,0,2.890
3450,110.40,2.4546,-4.5485,-1.0053,3.0873,-0.3340,0.0182,rough,14.0,0,2.890
3460,110.72,2.4545,-4.5486,-1.0053,3.0883,-0.3328,0.0175,rough,14.0,0,2.890
3470,111.04,2.4542,-4.5487,-1.0053,3.0946,-0.3260,0.0145,rough,14.0,0,2.891
3480,111.36,2.4581,-4.5485,-1.0040,3.0959,-0.3331,-0.0043,rough,14.0,0,2.887
3490,111.68,2.4490,-4.5468,-1.0034,3.0934,-0.3121,-0.0047,rough,14.0,0,2.896
3500,112.00,2.4406,-4.5473,-1.0031,3.0903,-0.2941,-0.0001,rough,14.0,0,2.904
3510,112.32,2.4559,-4.5480,-1.0045,3.0902,-0.3338,0.0053,rough,14.0,0,2.889
3520,112.64,2.4538,-4.5485,-1.0040,3.0935,-0.3246,0.0005,rough,14.0,0,2.891
3530,112.96,2.4430,-4.5492,-1.0034,3.0901,-0.3005,0.0019,rough,14.0,0,2.902
3540,113.28,2.4552,-4.5499,-1.0045,3.0908,-0.3317,0.0059,rough,14.0,0,2.890
3550,113.60,2.4523,-4.5506,-1.0039,3.0897,-0.3249,0.0034,rough,14.0,0,2.893
3560,113.92,2.4391,-4.5512,-1.0031,3.0921,-0.2888,0.0021,rough,14.0,0,2.906
3570,114.24,2.4473,-4.5520,-1.0036,3.0899,-0.3119,0.0037,rough,14.0,0,2.898
3580,114.56,2.4536,-4.5510,-1.0037,3.0902,-0.3274,-0.0001,rough,14.0,0,2.891
3590,114.88,2.4465,-4.5515,-1.0029,3.0901,-0.3089,-0.0049,rough,14.0,0,2.898
3600,115.20,2.4551,-4.5522,-1.0034,3.0909,-0.3302,-0.0044,rough,14.0,0,2.890
3610,115.52,2.4373,-4.5524,-1.0035,3.0954,-0.2813,0.0084,rough,14.0,0,2.908
3620,115.84,2.4200,-4.5534,-1.0007,3.0932,-0.2379,-0.0100,rough,14.0,0,2.925
3630,116.16,2.4350,-4.5541,-1.0022,3.0898,-0.2798,-0.0025,rough,14.0,0,2.910
3640,116.48,2.4604,-4.5548,-1.0029,3.0981,-0.3352,-0.0147,rough,14.0,0,2.884
3650,116.80,2.4497,-4.5547,-1.0039,3.0913,-0.3172,0.0066,rough,14.0,0,2.895
3660,117.12,2.4564,-4.5555,-1.0043,3.0920,-0.3338,0.0061,rough,14.0,0,2.889
3670,117.44,2.4587,-4.5564,-1.0042,3.0963,-0.3351,0.0028,rough,14.0,0,2.886
3680,117.76,2.4519,-4.5572,-1.0033,3.0892,-0.3242,-0.0003,rough,14.0,0,2.893
3690,118.08,2.4482,-4.5585,-1.0022,3.0941,-0.3086,-0.0114,rough,14.0,0,2.897
3700,118.40,2.4481,-4.5595,-1.0016,3.0942,-0.3079,-0.0182,rough,14.0,0,2.897
3710,118.72,2.4591,-4.5589,-1.0036,3.0981,-0.3336,-0.0044,rough,14.0,0,2.886
3720,119.04,2.4598,-4.5591,-1.0029,3.0970,-0.3358,-0.0126,rough,14.0,0,2.885
3730,119.36,2.4505,-4.5586,-1.0029,3.0907,-0.3188,-0.0034,rough,14.0,0,2.894
3740,119.68,2.4483,-4.5593,-1.0026,3.0921,-0.3115,-0.0061,rough,14.0,0,2.897
3750,120.00,2.4616,-4.5599,-1.0045,3.0971,-0.3424,0.0061,rough,14.0,0,2.883
3760,120.32,2.4471,-4.5608,-1.0029,3.0916,-0.3096,-0.0000,rough,14.0,0,2.898
3770,120.64,2.4566,-4.5623,-1.0028,3.0966,-0.3280,-0.0091,rough,14.0,0,2.888
3780,120.96,2.4420,-4.5636,-1.0009,3.0952,-0.2909,-0.0196,rough,14.0,0,2.903
3790,121.28,2.4588,-4.5644,-1.0032,3.0923,-0.3386,-0.0039,rough,14.0,0,2.886
3800,121.60,2.4459,-4.5659,-1.0010,3.0960,-0.2999,-0.0197,rough,14.0,0,2.899
3810,121.92,2.4603,-4.5666,-1.0031,3.0926,-0.3423,-0.0044,rough,14.0,0,2.885
3820,122.24,2.4514,-4.5671,-1.0028,3.0964,-0.3156,-0.0024,rough,14.0,0,2.894
3830,122.56,2.4601,-4.5679,-1.0021,3.0998,-0.3334,-0.0186,rough,14.0,0,2.885
3840,122.88,2.4535,-4.5683,-1.0022,3.0935,-0.3232,-0.0091,rough,14.0,0,2.892
3850,123.20,2.4620,-4.5683,-1.0029,3.1005,-0.3383,-0.0101,rough,14.0,0,2.883
3860,123.52,2.4540,-4.5691,-1.0027,3.0936,-0.3251,-0.0042,rough,14.0,0,2.891
3870,123.84,2.4489,-4.5687,-1.0014,3.0947,-0.3097,-0.0151,rough,14.0,0,2.896
3880,124.16,2.4549,-4.5694,-1.0027,3.0934,-0.3277,-0.0040,rough,14.0,0,2.890
3890,124.48,2.4592,-4.5684,-1.0027,3.0995,-0.3318,-0.0106,rough,14.0,0,2.886
3900,124.80,2.4399,-4.5680,-1.0010,3.0920,-0.2893,-0.0136,rough,14.0,0,2.905
3910,125.12,2.4471,-4.5688,-1.0025,3.0938,-0.3075,-0.0003,rough,14.0,0,2.898
3920,125.44,2.4576,-4.5692,-1.0031,3.1183,-0.3103,-0.0081,rough,14.0,0,2.888
3930,125.76,2.4295,-4.5693,-1.0018,3.0908,-0.2566,-0.0122,rough,14.0,0,2.916
3940,126.08,2.4444,-4.5698,-1.0023,3.0924,-0.3010,-0.0013,rough,14.0,0,2.901
3950,126.40,2.4536,-4.5718,-1.0010,3.0997,-0.3157,-0.0233,rough,14.0,0,2.892
3960,126.72,2.4524,-4.5730,-1.0014,3.0957,-0.3175,-0.0160,rough,14.0,0,2.893
3970,127.04,2.4579,-4.5741,-1.0023,3.0944,-0.3341,-0.0080,rough,14.0,0,2.887
3980,127.36,2.4582,-4.5733,-1.0019,3.1003,-0.3282,-0.0165,rough,14.0,0,2.887
3990,127.68,2.4517,-4.5741,-1.0020,3.0924,-0.3200,-0.0063,rough,14.0,0,2.894
4000,128.00,2.4456,-4.5759,-1.0001,3.0973,-0.2976,-0.0253,rough,14.0,0,2.900
4010,128.32,2.4618,-4.5772,-1.0017,3.1045,-0.3335,-0.0192,rough,14.0,0,2.883
4020,128.64,2.4561,-4.5762,-1.0014,3.0965,-0.3266,-0.0164,rough,14.0,0,2.889
4030,128.96,2.4615,-4.5761,-1.0030,3.1000,-0.3385,-0.0031,rough,14.0,0,2.884
4040,129.28,2.4600,-4.5777,-1.0015,3.0970,-0.3359,-0.0180,rough,14.0,0,2.885
4050,129.60,2.4527,-4.5774,-1.0015,3.0940,-0.3206,-0.0118,rough,14.0,0,2.893
4060,129.92,2.4615,-4.5777,-1.0030,3.1157,-0.3235,-0.0059,rough,14.0,0,2.884
4070,130.24,2.4655,-4.5777,-1.0028,3.1027,-0.3461,-0.0081,rough,14.0,0,2.880
4080,130.56,2.4576,-4.5786,-1.0022,3.0958,-0.3320,-0.0077,rough,14.0,0,2.888
4090,130.88,2.4571,-4.5790,-1.0020,3.0987,-0.3275,-0.0099,rough,14.0,0,2.888
4100,131.20,2.4499,-4.5803,-1.0017,3.0967,-0.3111,-0.0061,rough,14.0,0,2.895
4110,131.52,2.4633,-4.5802,-1.0027,3.1072,-0.3363,-0.0068,rough,14.0,0,2.882
4120,131.84,2.4613,-4.5811,-1.0013,3.1009,-0.3351,-0.0202,rough,14.0,0,2.884
4130,132.16,2.4582,-4.5790,-1.0017,3.1012,-0.3275,-0.0151,rough,14.0,0,2.887
4140,132.48,2.4607,-4.5795,-1.0017,3.1040,-0.3307,-0.0177,rough,14.0,0,2.885
4150,132.80,2.4571,-4.5807,-1.0014,3.0957,-0.3300,-0.0148,rough,14.0,0,2.888
4160,133.12,2.4530,-4.5820,-1.0014,3.0952,-0.3203,-0.0108,rough,14.0,0,2.892
4170,133.44,2.4629,-4.5826,-1.0020,3.1173,-0.3242,-0.0163,rough,14.0,0,2.882
4180,133.76,2.4532,-4.5821,-1.0007,3.0968,-0.3183,-0.0202,rough,14.0,0,2.892
4190,134.08,2.4514,-4.5834,-1.0007,3.0956,-0.3151,-0.0164,rough,14.0,0,2.894
4200,134.40,2.4564,-4.5849,-1.0011,3.0951,-0.3288,-0.0159,rough,14.0,0,2.889
4210,134.72,2.4579,-4.5850,-1.0015,3.1085,-0.3237,-0.0276,rough,14.0,0,2.887
4220,135.04,2.4565,-4.5841,-1.0011,3.0988,-0.3255,-0.0184,rough,14.0,0,2.889
4230,135.36,2.4608,-4.5851,-1.0012,3.1036,-0.3313,-0.0201,rough,14.0,0,2.885
4240,135.68,2.4608,-4.5866,-1.0013,3.1009,-0.3345,-0.0163,rough,14.0,0,2.885
4250,136.00,2.4604,-4.5853,-1.0006,3.1029,-0.3301,-0.0279,rough,14.0,0,2.885
4260,136.32,2.4566,-4.5845,-1.0011,3.0985,-0.3256,-0.0174,rough,14.0,0,2.889
4270,136.64,2.4575,-4.5862,-1.0007,3.0968,-0.3291,-0.0201,rough,14.0,0,2.888
4280,136.96,2.4619,-4.5871,-1.0009,3.1007,-0.3368,-0.0230,rough,14.0,0,2.884
4290,137.28,2.4617,-4.5852,-1.0008,3.1072,-0.3296,-0.0269,rough,14.0,0,2.884
4300,137.60,2.4580,-4.5839,-1.0014,3.1005,-0.3275,-0.0161,rough,14.0,0,2.887
4310,137.92,2.4594,-4.5839,-1.0016,3.1121,-0.3203,-0.0159,rough,14.0,0,2.886
4320,138.24,2.4592,-4.5858,-1.0001,3.0974,-0.3322,-0.0292,rough,14.0,0,2.886
4330,138.56,2.4606,-4.5868,-1.0020,3.0963,-0.3394,-0.0066,rough,14.0,0,2.885
4340,138.88,2.4533,-4.5889,-0.9996,3.0974,-0.3171,-0.0286,rough,14.0,0,2.892
4350,139.20,2.4576,-4.5887,-1.0000,3.1012,-0.3247,-0.0292,rough,14.0,0,2.888
4360,139.52,2.4596,-4.5899,-1.0014,3.1023,-0.3302,-0.0128,rough,14.0,0,2.886
4370,139.84,2.4562,-4.5915,-1.0008,3.0984,-0.3249,-0.0153,rough,14.0,0,2.889
4380,140.16,2.4556,-4.5935,-1.0004,3.0977,-0.3238,-0.0192,rough,14.0,0,2.890
4390,140.48,2.4551,-4.5953,-0.9999,3.0973,-0.3226,-0.0226,rough,14.0,0,2.891
4400,140.80,2.4607,-4.5951,-1.0012,3.1028,-0.3324,-0.0141,rough,14.0,0,2.885
4410,141.12,2.4632,-4.5957,-0.9998,3.1082,-0.3318,-0.0336,rough,14.0,0,2.882
4420,141.44,2.4612,-4.5937,-1.0004,3.1070,-0.3285,-0.0262,rough,14.0,0,2.884
4430,141.76,2.4650,-4.5941,-1.0019,3.1119,-0.3361,-0.0107,rough,14.0,0,2.881
4440,142.08,2.4528,-4.5943,-1.0011,3.0997,-0.3148,-0.0102,rough,14.0,0,2.893
4450,142.40,2.4506,-4.5959,-1.0005,3.0983,-0.3108,-0.0119,rough,14.0,0,2.895
4460,142.72,2.4640,-4.5984,-1.0065,3.1271,-0.3552,-0.0290,rough,14.0,0,2.882
4470,143.04,2.4616,-4.5960,-1.0018,3.1050,-0.3352,-0.0126,rough,14.0,0,2.884
4480,143.36,2.4606,-4.5975,-1.0003,3.0974,-0.3371,-0.0218,rough,14.0,0,2.885
4490,143.68,2.4620,-4.5991,-1.0005,3.1028,-0.3351,-0.0216,rough,14.0,0,2.884
4500,144.00,2.4592,-4.5981,-0.9994,3.1050,-0.3246,-0.0337,rough,14.0,0,2.887
4510,144.32,2.4638,-4.5998,-1.0004,3.1023,-0.3402,-0.0220,rough,14.0,0,2.882
4520,144.64,2.4586,-4.6023,-0.9989,3.1038,-0.3238,-0.0362,rough,14.0,0,2.887
4530,144.96,2.4564,-4.6040,-0.9996,3.1010,-0.3221,-0.0244,rough,14.0,0,2.889
4540,145.28,2.4615,-4.6042,-0.9991,3.1071,-0.3283,-0.0359,rough,14.0,0,2.884
4550,145.60,2.4647,-4.6022,-1.0000,3.1094,-0.3349,-0.0292,rough,14.0,0,2.881
4560,145.92,2.4645,-4.6001,-0.9997,3.1112,-0.3320,-0.0348,rough,14.0,0,2.881
4570,146.24,2.4625,-4.5981,-1.0009,3.1068,-0.3329,-0.0183,rough,14.0,0,2.883
4580,146.56,2.4616,-4.5991,-1.0004,3.1008,-0.3359,-0.0205,rough,14.0,0,2.884
4590,146.88,2.4585,-4.5993,-1.0004,3.1007,-0.3284,-0.0185,rough,14.0,0,2.887
4600,147.20,2.4644,-4.5996,-1.0012,3.1048,-0.3402,-0.0141,rough,14.0,0,2.881
4610,147.52,2.4627,-4.6015,-0.9998,3.1048,-0.3345,-0.0289,rough,14.0,0,2.883
4620,147.84,2.4633,-4.6000,-1.0006,3.1077,-0.3337,-0.0217,rough,14.0,0,2.882
4630,148.16,2.4631,-4.5976,-0.9998,3.1118,-0.3279,-0.0345,rough,14.0,0,2.883
4640,148.48,2.4606,-4.5965,-1.0006,3.1020,-0.3324,-0.0199,rough,14.0,0,2.885
4650,148.80,2.4590,-4.5972,-0.9999,3.1139,-0.3161,-0.0287,rough,14.0,0,2.887
4660,149.12,2.4621,-4.5968,-1.0001,3.1011,-0.3366,-0.0270,rough,14.0,0,2.884
4670,149.44,2.4614,-4.5936,-1.0007,3.1052,-0.3307,-0.0230,rough,14.0,0,2.884
4680,149.76,2.4611,-4.5955,-0.9999,3.0980,-0.3371,-0.0276,rough,14.0,0,2.885
4690,150.08,2.4625,-4.5943,-1.0004,3.1021,-0.3370,-0.0248,rough,14.0,0,2.883
4700,150.40,2.4629,-4.5922,-1.0012,3.1072,-0.3335,-0.0190,rough,14.0,0,2.883
4710,150.72,2.4618,-4.5907,-1.0007,3.1048,-0.3323,-0.0245,rough,14.0,0,2.884
4720,151.04,2.4588,-4.5899,-1.0008,3.1027,-0.3271,-0.0203,rough,14.0,0,2.887
4730,151.36,2.4545,-4.5915,-1.0001,3.0968,-0.3215,-0.0223,rough,14.0,0,2.891
4740,151.68,2.4501,-4.5933,-0.9994,3.0979,-0.3085,-0.0271,rough,14.0,0,2.896
4750,152.00,2.4620,-4.5923,-1.0012,3.1046,-0.3336,-0.0169,rough,14.0,0,2.884
4760,152.32,2.4631,-4.5929,-0.9999,3.1042,-0.3356,-0.0339,rough,14.0,0,2.883
4770,152.64,2.4612,-4.5914,-1.0006,3.1072,-0.3282,-0.0261,rough,14.0,0,2.884
4780,152.96,2.4559,-4.5917,-1.0010,3.0978,-0.3248,-0.0129,rough,14.0,0,2.890
4790,153.28,2.4535,-4.5933,-1.0005,3.0974,-0.3189,-0.0157,rough,14.0,0,2.892
4800,153.60,2.4624,-4.5940,-1.0013,3.1180,-0.3222,-0.0179,rough,14.0,0,2.883
4810,153.92,2.4607,-4.5921,-1.0017,3.1015,-0.3340,-0.0099,rough,14.0,0,2.885
4820,154.24,2.4617,-4.5938,-1.0011,3.0969,-0.3407,-0.0147,rough,14.0,0,2.884
4830,154.56,2.4628,-4.5955,-1.0005,3.1007,-0.3390,-0.0234,rough,14.0,0,2.883
4840,154.88,2.4626,-4.5934,-1.0012,3.1059,-0.3342,-0.0173,rough,14.0,0,2.883
4850,155.20,2.4599,-4.5933,-1.0012,3.1020,-0.3310,-0.0142,rough,14.0,0,2.886
4860,155.52,2.4619,-4.5921,-1.0017,3.1041,-0.3347,-0.0116,rough,14.0,0,2.884
4870,155.84,2.4599,-4.5936,-1.0006,3.0968,-0.3359,-0.0191,rough,14.0,0,2.886
4880,156.16,2.4603,-4.5956,-1.0002,3.0996,-0.3334,-0.0245,rough,14.0,0,2.885
4890,156.48,2.4607,-4.5975,-0.9997,3.0994,-0.3345,-0.0292,rough,14.0,0,2.885
4900,156.80,2.4601,-4.5989,-1.0008,3.0988,-0.3348,-0.0146,rough,14.0,0,2.886
4910,157.12,2.4619,-4.5983,-1.0002,3.1062,-0.3311,-0.0261,rough,14.0,0,2.884
4920,157.44,2.4609,-4.5991,-0.9997,3.1056,-0.3286,-0.0310,rough,14.0,0,2.885
4930,157.76,2.4625,-4.5963,-1.0012,3.1047,-0.3351,-0.0158,rough,14.0,0,2.883
4940,158.08,2.4611,-4.5944,-1.0008,3.1029,-0.3327,-0.0199,rough,14.0,0,2.885
4950,158.40,2.4576,-4.5944,-1.0008,3.0989,-0.3279,-0.0154,rough,14.0,0,2.888
4960,158.72,2.4573,-4.5941,-1.0002,3.1004,-0.3251,-0.0227,rough,14.0,0,2.888
4970,159.04,2.4611,-4.5948,-1.0009,3.1019,-0.3341,-0.0172,rough,14.0,0,2.885
4980,159.36,2.4614,-4.5965,-1.0002,3.1016,-0.3345,-0.0256,rough,14.0,0,2.884
4990,159.68,2.4609,-4.5986,-0.9994,3.1012,-0.3329,-0.0332,rough,14.0,0,2.885
5000,160.00,2.4626,-4.6003,-1.0005,3.0996,-0.3398,-0.0191,rough,14.0,0,2.883
5010,160.32,2.4602,-4.6026,-0.9994,3.1019,-0.3304,-0.0298,rough,14.0,0,2.886
5020,160.64,2.4557,-4.6045,-0.9998,3.1021,-0.3195,-0.0204,rough,14.0,0,2.890
5030,160.96,2.4622,-4.6046,-0.9998,3.1052,-0.3328,-0.0267,rough,14.0,0,2.884
5040,161.28,2.4645,-4.6034,-1.0011,3.1063,-0.3389,-0.0148,rough,14.0,0,2.881
5050,161.60,2.4630,-4.6035,-1.0006,3.1025,-0.3384,-0.0174,rough,14.0,0,2.883
5060,161.92,2.4600,-4.6035,-1.0006,3.1028,-0.3304,-0.0159,rough,14.0,0,2.886
5070,162.24,2.4616,-4.6010,-0.9998,3.1049,-0.3313,-0.0289,rough,14.0,0,2.884
5080,162.56,2.4574,-4.6025,-1.0001,3.1001,-0.3260,-0.0197,rough,14.0,0,2.888
5090,162.88,2.4550,-4.6048,-0.9989,3.1003,-0.3185,-0.0299,rough,14.0,0,2.891
5100,163.20,2.4597,-4.6072,-1.0014,3.1217,-0.3196,-0.0242,rough,14.0,0,2.886
5110,163.52,2.4620,-4.6045,-0.9995,3.1092,-0.3284,-0.0349,rough,14.0,0,2.884
5120,163.84,2.4617,-4.6022,-0.9993,3.1079,-0.3282,-0.0353,rough,14.0,0,2.884
5130,164.16,2.4607,-4.6009,-0.9996,3.1051,-0.3286,-0.0312,rough,14.0,0,2.885
5140,164.48,2.4628,-4.6005,-1.0010,3.1051,-0.3356,-0.0153,rough,14.0,0,2.883
5150,164.80,2.4601,-4.6005,-1.0010,3.1000,-0.3338,-0.0122,rough,14.0,0,2.886
5160,165.12,2.4615,-4.6026,-0.9999,3.0983,-0.3377,-0.0235,rough,14.0,0,2.884
5170,165.44,2.4550,-4.6044,-1.0002,3.1002,-0.3200,-0.0151,rough,14.0,0,2.891
5180,165.76,2.4628,-4.6053,-1.0005,3.1220,-0.3188,-0.0225,rough,14.0,0,2.883
5190,166.08,2.4632,-4.6033,-0.9997,3.1078,-0.3324,-0.0308,rough,14.0,0,2.883
5200,166.40,2.4613,-4.6014,-1.0003,3.1036,-0.3325,-0.0216,rough,14.0,0,2.885
5210,166.72,2.4615,-4.6009,-1.0004,3.1001,-0.3366,-0.0198,rough,14.0,0,2.884
5220,167.04,2.4644,-4.5988,-1.0013,3.1068,-0.3383,-0.0147,rough,14.0,0,2.881
5230,167.36,2.4623,-4.5976,-1.0010,3.1046,-0.3345,-0.0162,rough,14.0,0,2.883
5240,167.68,2.4632,-4.5982,-1.0007,3.1076,-0.3336,-0.0209,rough,14.0,0,2.883
5250,168.00,2.4625,-4.5968,-1.0001,3.1090,-0.3295,-0.0298,rough,14.0,0,2.883
5260,168.32,2.4611,-4.5945,-1.0008,3.1077,-0.3278,-0.0211,rough,14.0,0,2.885
5270,168.64,2.4595,-4.5923,-1.0004,3.1028,-0.3282,-0.0242,rough,14.0,0,2.886
5280,168.96,2.4615,-4.5941,-1.0000,3.1009,-0.3349,-0.0288,rough,14.0,0,2.884
5290,169.28,2.4595,-4.5954,-1.0011,3.0983,-0.3338,-0.0126,rough,14.0,0,2.886
5300,169.60,2.4618,-4.5945,-1.0005,3.1058,-0.3314,-0.0252,rough,14.0,0,2.884
5310,169.92,2.4589,-4.5944,-1.0007,3.1002,-0.3298,-0.0181,rough,14.0,0,2.887
5320,170.24,2.4608,-4.5963,-1.0003,3.1021,-0.3322,-0.0238,rough,14.0,0,2.885
5330,170.56,2.4573,-4.5984,-0.9994,3.1016,-0.3232,-0.0299,rough,14.0,0,2.888
5340,170.88,2.4583,-4.5999,-1.0007,3.1008,-0.3282,-0.0136,rough,14.0,0,2.887
5350,171.20,2.4594,-4.6023,-1.0000,3.1015,-0.3296,-0.0227,rough,14.0,0,2.886
5360,171.52,2.4607,-4.6049,-0.9989,3.1022,-0.3311,-0.0350,rough,14.0,0,2.885
5370,171.84,2.4622,-4.6070,-0.9997,3.1010,-0.3369,-0.0250,rough,14.0,0,2.884
5380,172.16,2.4585,-4.6091,-1.0000,3.1031,-0.3258,-0.0182,rough,14.0,0,2.888
5390,172.48,2.4599,-4.6117,-0.9990,3.1017,-0.3299,-0.0290,rough,14.0,0,2.886
5400,172.80,2.4642,-4.6064,-1.0018,3.1143,-0.3360,-0.0233,rough,14.0,0,2.882
5410,173.12,2.4636,-4.6046,-1.0004,3.1112,-0.3315,-0.0250,rough,14.0,0,2.882
5420,173.44,2.4639,-4.6026,-1.0002,3.1085,-0.3341,-0.0264,rough,14.0,0,2.882
5430,173.76,2.4633,-4.6012,-1.0003,3.1093,-0.3317,-0.0247,rough,14.0,0,2.883
5440,174.08,2.4620,-4.5992,-1.0003,3.1078,-0.3299,-0.0248,rough,14.0,0,2.884
5450,174.40,2.4613,-4.5973,-1.0005,3.1041,-0.3320,-0.0216,rough,14.0,0,2.884
5460,174.72,2.4618,-4.5968,-1.0006,3.0994,-0.3380,-0.0202,rough,14.0,0,2.884
5470,175.04,2.4578,-4.5968,-0.9999,3.1021,-0.3246,-0.0255,rough,14.0,0,2.888
5480,175.36,2.4616,-4.5972,-1.0010,3.1046,-0.3323,-0.0151,rough,14.0,0,2.884
5490,175.68,2.4599,-4.5991,-1.0000,3.0981,-0.3340,-0.0236,rough,14.0,0,2.886
5500,176.00,2.4580,-4.5990,-0.9995,3.0965,-0.3303,-0.0273,rough,14.0,0,2.888
5510,176.32,2.4607,-4.6006,-1.0005,3.0993,-0.3353,-0.0180,rough,14.0,0,2.885
5520,176.64,2.4613,-4.5996,-0.9997,3.1073,-0.3279,-0.0316,rough,14.0,0,2.884
5530,176.96,2.4639,-4.5968,-1.0008,3.1073,-0.3356,-0.0222,rough,14.0,0,2.882
5540,177.28,2.4583,-4.5971,-0.9998,3.1017,-0.3259,-0.0278,rough,14.0,0,2.887
5550,177.60,2.4616,-4.5983,-1.0008,3.1027,-0.3347,-0.0173,rough,14.0,0,2.884
5560,177.92,2.4633,-4.5994,-0.9996,3.1053,-0.3351,-0.0333,rough,14.0,0,2.882
5570,178.24,2.4607,-4.5986,-1.0008,3.1030,-0.3319,-0.0165,rough,14.0,0,2.885
5580,178.56,2.4638,-4.5963,-1.0013,3.1083,-0.3352,-0.0160,rough,14.0,0,2.882
5590,178.88,2.4607,-4.5948,-0.9999,3.1053,-0.3284,-0.0309,rough,14.0,0,2.885
5600,179.20,2.4623,-4.5920,-1.0014,3.1054,-0.3339,-0.0158,rough,14.0,0,2.883
5610,179.52,2.4603,-4.5935,-1.0003,3.0988,-0.3344,-0.0239,rough,14.0,0,2.885
5620,179.84,2.4544,-4.5932,-0.9994,3.0998,-0.3175,-0.0304,rough,14.0,0,2.891
5630,180.16,2.4586,-4.5930,-1.0012,3.1025,-0.3274,-0.0136,rough,14.0,0,2.887
5640,180.48,2.4556,-4.5947,-1.0005,3.0986,-0.3230,-0.0166,rough,14.0,0,2.890
5650,180.80,2.4613,-4.5959,-1.0009,3.1024,-0.3341,-0.0168,rough,14.0,0,2.884
5660,181.12,2.4581,-4.5978,-1.0000,3.0973,-0.3304,-0.0225,rough,14.0,0,2.888
5670,181.44,2.4622,-4.5995,-1.0011,3.0992,-0.3400,-0.0120,rough,14.0,0,2.884
5680,181.76,2.4609,-4.6017,-1.0002,3.0978,-0.3373,-0.0210,rough,14.0,0,2.885
5690,182.08,2.4621,-4.6012,-0.9991,3.1007,-0.3360,-0.0355,rough,14.0,0,2.884
5700,182.40,2.4607,-4.5988,-0.9996,3.1077,-0.3259,-0.0325,rough,14.0,0,2.885
5710,182.72,2.4628,-4.5989,-1.0000,3.1027,-0.3367,-0.0279,rough,14.0,0,2.883
5720,183.04,2.4628,-4.5954,-1.0009,3.1084,-0.3317,-0.0208,rough,14.0,0,2.883
5730,183.36,2.4614,-4.5930,-1.0005,3.1081,-0.3278,-0.0265,rough,14.0,0,2.884
5740,183.68,2.4614,-4.5945,-1.0006,3.1037,-0.3326,-0.0215,rough,14.0,0,2.884
5750,184.00,2.4596,-4.5924,-1.0004,3.1042,-0.3272,-0.0243,rough,14.0,0,2.886
5760,184.32,2.4620,-4.5943,-1.0001,3.1024,-0.3350,-0.0282,rough,14.0,0,2.884
5770,184.64,2.4592,-4.5955,-1.0013,3.0977,-0.3338,-0.0099,rough,14.0,0,2.886
5780,184.96,2.4601,-4.5952,-1.0012,3.1028,-0.3308,-0.0138,rough,14.0,0,2.886
5790,185.28,2.4640,-4.5973,-1.0007,3.1023,-0.3409,-0.0198,rough,14.0,0,2.882
5800,185.60,2.4581,-4.5994,-0.9994,3.1026,-0.3242,-0.0302,rough,14.0,0,2.888
5810,185.92,2.4590,-4.6008,-1.0006,3.1012,-0.3293,-0.0149,rough,14.0,0,2.887
5820,186.24,2.4565,-4.6029,-0.9997,3.1005,-0.3229,-0.0230,rough,14.0,0,2.889
5830,186.56,2.4613,-4.6031,-0.9995,3.1058,-0.3295,-0.0310,rough,14.0,0,2.885
5840,186.88,2.4631,-4.6003,-1.0009,3.1047,-0.3366,-0.0164,rough,14.0,0,2.883
5850,187.20,2.4624,-4.5985,-1.0003,3.1062,-0.3324,-0.0257,rough,14.0,0,2.883
5860,187.52,2.4616,-4.5965,-1.0004,3.1061,-0.3306,-0.0249,rough,14.0,0,2.884
5870,187.84,2.4608,-4.5972,-0.9998,3.1026,-0.3314,-0.0292,rough,14.0,0,2.885
5880,188.16,2.4571,-4.5976,-1.0002,3.0992,-0.3260,-0.0209,rough,14.0,0,2.889
5890,188.48,2.4554,-4.5997,-0.9992,3.0995,-0.3200,-0.0302,rough,14.0,0,2.890
5900,188.80,2.4634,-4.5993,-1.0007,3.1108,-0.3314,-0.0208,rough,14.0,0,2.882
5910,189.12,2.4598,-4.5993,-1.0006,3.1007,-0.3318,-0.0177,rough,14.0,0,2.886
5920,189.44,2.4623,-4.5988,-0.9999,3.1084,-0.3297,-0.0304,rough,14.0,0,2.883
5930,189.76,2.4643,-4.5958,-1.0014,3.1082,-0.3365,-0.0163,rough,14.0,0,2.881
5940,190.08,2.4644,-4.5938,-1.0005,3.1096,-0.3340,-0.0291,rough,14.0,0,2.881
5950,190.40,2.4614,-4.5916,-1.0013,3.1042,-0.3328,-0.0156,rough,14.0,0,2.884
5960,190.72,2.4579,-4.5931,-1.0002,3.0969,-0.3303,-0.0229,rough,14.0,0,2.888
5970,191.04,2.4531,-4.5950,-0.9992,3.0990,-0.3150,-0.0304,rough,14.0,0,2.893
5980,191.36,2.4614,-4.5929,-1.0003,3.1057,-0.3303,-0.0277,rough,14.0,0,2.884
5990,191.68,2.4598,-4.5932,-1.0010,3.0978,-0.3349,-0.0158,rough,14.0,0,2.886
6000,192.00,2.4624,-4.5926,-1.0003,3.1069,-0.3315,-0.0291,rough,14.0,0,2.883
6010,192.32,2.4594,-4.5924,-1.0004,3.1016,-0.3293,-0.0234,rough,14.0,0,2.886
6020,192.64,2.4586,-4.5942,-0.9996,3.0984,-0.3298,-0.0312,rough,14.0,0,2.887
6030,192.96,2.4619,-4.5954,-1.0012,3.0957,-0.3427,-0.0124,rough,14.0,0,2.884
6040,193.28,2.4580,-4.5963,-1.0007,3.1007,-0.3273,-0.0164,rough,14.0,0,2.888
6050,193.60,2.4615,-4.5960,-1.0006,3.1012,-0.3354,-0.0207,rough,14.0,0,2.884
6060,193.92,2.4576,-4.5960,-1.0001,3.1020,-0.3242,-0.0244,rough,14.0,0,2.888
6070,194.24,2.4602,-4.5981,-0.9995,3.1065,-0.3255,-0.0333,rough,14.0,0,2.886
6080,194.56,2.4584,-4.5996,-1.0001,3.0993,-0.3294,-0.0213,rough,14.0,0,2.887
6090,194.88,2.4595,-4.6019,-0.9992,3.1006,-0.3297,-0.0315,rough,14.0,0,2.886
6100,195.20,2.4616,-4.6034,-1.0006,3.0981,-0.3394,-0.0154,rough,14.0,0,2.884
6110,195.52,2.4639,-4.6058,-0.9999,3.1108,-0.3321,-0.0276,rough,14.0,0,2.882
6120,195.84,2.4608,-4.6055,-0.9996,3.1020,-0.3326,-0.0261,rough,14.0,0,2.885
6130,196.16,2.4607,-4.6079,-0.9985,3.1012,-0.3318,-0.0376,rough,14.0,0,2.885
6140,196.48,2.4627,-4.6092,-0.9992,3.1046,-0.3344,-0.0315,rough,14.0,0,2.883
6150,196.80,2.4641,-4.6089,-0.9987,3.1119,-0.3296,-0.0421,rough,14.0,0,2.882
6160,197.12,2.4617,-4.6070,-0.9998,3.1063,-0.3306,-0.0257,rough,14.0,0,2.884
6170,197.44,2.4649,-4.6076,-1.0002,3.1067,-0.3385,-0.0227,rough,14.0,0,2.881
6180,197.76,2.4598,-4.6090,-0.9999,3.1037,-0.3285,-0.0211,rough,14.0,0,2.886
6190,198.08,2.4608,-4.6077,-0.9990,3.1059,-0.3279,-0.0338,rough,14.0,0,2.885
6200,198.40,2.4631,-4.6086,-0.9991,3.1036,-0.3364,-0.0329,rough,14.0,0,2.883
6210,198.72,2.4584,-4.6078,-0.9996,3.0998,-0.3287,-0.0220,rough,14.0,0,2.888
6220,199.04,2.4626,-4.6081,-0.9991,3.1020,-0.3365,-0.0328,rough,14.0,0,2.883
6230,199.36,2.4601,-4.6072,-0.9999,3.0984,-0.3345,-0.0204,rough,14.0,0,2.886
6240,199.68,2.4612,-4.6083,-0.9993,3.1002,-0.3352,-0.0276,rough,14.0,0,2.885
6250,200.00,2.4652,-4.6100,-1.0004,3.1004,-0.3462,-0.0174,rough,14.0,0,2.881
6260,200.32,2.4669,-4.6132,-1.0039,3.1401,-0.3384,-0.0330,rough,14.0,0,2.879
6270,200.64,2.4241,-4.6122,-0.9981,-3.0188,-0.0739,-0.0022,rough,14.0,0,2.922
6280,200.96,2.3479,-4.6122,-0.9905,-3.0208,0.0971,-0.0140,rough,14.0,0,2.998
6290,201.28,2.3403,-4.6086,-0.9896,3.0684,-0.0657,-0.0340,rough,14.0,0,3.006
6300,201.60,2.4280,-4.6089,-0.9976,3.0951,-0.2555,-0.0200,rough,14.0,0,2.918
6310,201.92,2.4563,-4.6074,-1.0015,-3.0809,-0.2225,-0.0223,rough,14.0,0,2.890
6320,202.24,2.4439,-4.6103,-1.0003,-3.0480,-0.1694,-0.0287,rough,14.0,0,2.902
6330,202.56,2.4376,-4.6065,-1.0029,-3.0738,-0.1804,0.0133,rough,14.0,0,2.908
6340,202.88,2.3918,-4.6067,-0.9971,3.1229,-0.1391,0.0049,rough,14.0,0,2.954
6350,203.20,2.3277,-4.6059,-0.9909,3.0901,-0.0144,-0.0167,rough,14.0,0,3.018
6360,203.52,2.3519,-4.6070,-0.9918,3.0930,-0.0694,-0.0266,rough,14.0,0,2.994
6370,203.84,2.4424,-4.6088,-0.9988,3.0961,-0.2912,-0.0170,rough,14.0,0,2.904
6380,204.16,2.4966,-4.6082,-1.0017,-3.0377,-0.2165,-0.0308,rough,14.0,0,2.849
6390,204.48,2.3563,-4.6173,-0.9913,-3.0423,0.0690,-0.0325,rough,14.0,0,2.990
6400,204.80,2.2269,-4.6011,-0.9806,2.9806,0.1242,-0.0214,rough,14.0,0,3.119
6410,205.12,2.1801,-4.5955,-0.9842,3.1166,0.3743,-0.0024,rough,14.0,0,3.165
6420,205.44,2.2739,-4.5954,-0.9932,3.0708,0.0964,0.0563,rough,14.0,0,3.072
6430,205.76,2.4408,-4.5893,-1.0054,-3.0230,-0.1221,0.0831,rough,14.0,0,2.905
6440,206.08,2.4007,-4.5847,-1.0090,3.1404,-0.1547,0.1313,rough,14.0,0,2.945
6450,206.40,2.3608,-4.5733,-1.0119,-3.0594,0.0078,0.1821,rough,14.0,0,2.984
6460,206.72,2.2470,-4.5795,-1.0008,3.0832,0.1663,0.1730,rough,14.0,0,3.098
6470,207.04,2.2259,-4.5403,-1.0025,3.0220,0.1657,0.1871,rough,14.0,0,3.119
6480,207.36,2.3801,-4.4972,-1.0069,-3.0959,-0.0704,0.0979,rough,14.0,0,2.965
6490,207.68,2.4425,-4.5023,-1.0118,-3.1105,-0.2324,-0.0050,rough,14.0,0,2.902
6500,208.00,2.3943,-4.5072,-1.0121,-3.0904,-0.0973,0.1224,rough,14.0,0,2.950
6510,208.32,2.3608,-4.5275,-1.0119,-3.1143,-0.0367,0.1544,rough,14.0,0,2.984
6520,208.64,2.3373,-4.5427,-1.0095,3.1315,-0.0123,0.1658,rough,14.0,0,3.007
6530,208.96,2.3739,-4.5228,-1.0161,-3.1106,-0.0766,0.1716,rough,14.0,0,2.971
6540,209.28,2.4013,-4.5183,-1.0208,-3.0866,-0.1207,0.2118,rough,14.0,0,2.943
6550,209.60,2.4012,-4.5301,-1.0170,-3.1080,-0.1508,0.1383,rough,14.0,0,2.944
6560,209.92,2.4046,-4.5245,-1.0192,-3.1019,-0.1406,0.1909,rough,14.0,0,2.940
6570,210.24,2.4062,-4.5188,-1.0183,-3.0874,-0.1287,0.1784,rough,14.0,0,2.939
6580,210.56,2.4091,-4.5198,-1.0174,-3.1053,-0.1508,0.1677,rough,14.0,0,2.936
6590,210.88,2.3726,-4.5342,-1.0134,-3.1364,-0.0864,0.1701,rough,14.0,0,2.972
6600,211.20,2.3810,-4.5135,-1.0155,-3.1039,-0.0915,0.1480,rough,14.0,0,2.964
6610,211.52,2.3680,-4.5434,-1.0136,-3.1210,-0.0638,0.1777,rough,14.0,0,2.977
6620,211.84,2.3466,-4.5681,-1.0106,-3.1187,-0.0085,0.1808,rough,14.0,0,2.998
6630,212.16,2.3515,-4.5657,-1.0125,-3.0953,-0.0180,0.1550,rough,14.0,0,2.994
6640,212.48,2.4262,-4.5441,-1.0111,-3.1360,-0.2136,0.1034,rough,14.0,0,2.919
6650,212.80,2.4546,-4.5315,-1.0061,3.0953,-0.3286,0.0105,rough,14.0,0,2.890
6660,213.12,2.4553,-4.5310,-1.0047,3.0939,-0.3279,-0.0050,rough,14.0,0,2.889
6670,213.44,2.4180,-4.5308,-1.0034,3.0937,-0.2339,0.0095,rough,14.0,0,2.927
6680,213.76,2.3598,-4.5311,-0.9982,3.0913,-0.0917,-0.0031,rough,14.0,0,2.985
6690,214.08,2.3386,-4.5315,-1.0000,3.1069,-0.0289,0.0383,rough,14.0,0,3.006
6700,214.40,2.3493,-4.5396,-1.0107,-3.1208,-0.0156,0.1617,rough,14.0,0,2.995
6710,214.72,2.3512,-4.5602,-1.0124,-3.1146,-0.0169,0.1916,rough,14.0,0,2.994
6720,215.04,2.3150,-4.5761,-1.0054,-3.0975,0.0857,0.1505,rough,14.0,0,3.030
6730,215.36,2.2366,-4.5769,-0.9979,3.0540,0.1687,0.1454,rough,14.0,0,3.109
6740,215.68,2.3132,-4.5302,-1.0100,3.1068,0.0247,0.1893,rough,14.0,0,3.032
6750,216.00,2.4298,-4.5154,-1.0112,3.1072,-0.2666,0.0733,rough,14.0,0,2.915
6760,216.32,2.4501,-4.5140,-1.0085,3.0984,-0.3149,0.0354,rough,14.0,0,2.895
6770,216.64,2.4544,-4.5158,-1.0071,3.0880,-0.3326,0.0198,rough,14.0,0,2.890
6780,216.96,2.4546,-4.5154,-1.0070,3.0873,-0.3337,0.0189,rough,14.0,0,2.890
6790,217.28,2.4546,-4.5152,-1.0070,3.0872,-0.3340,0.0185,rough,14.0,0,2.890
6800,217.60,2.4546,-4.5151,-1.0070,3.0872,-0.3340,0.0180,rough,14.0,0,2.890
6810,217.92,2.4539,-4.5153,-1.0072,3.0942,-0.3255,0.0167,rough,14.0,0,2.891
6820,218.24,2.4550,-4.5153,-1.0068,3.0934,-0.3290,0.0111,rough,14.0,0,2.890
6830,218.56,2.4486,-4.5147,-1.0056,3.0922,-0.3128,0.0023,rough,14.0,0,2.896
6840,218.88,2.4510,-4.5135,-1.0070,3.1113,-0.3067,-0.0001,rough,14.0,0,2.894
6850,219.20,2.4130,-4.5130,-1.0051,3.1043,-0.2131,0.0207,rough,14.0,0,2.932
6860,219.52,2.3283,-4.5142,-1.0011,3.1160,0.0034,0.0512,rough,14.0,0,3.016
6870,219.84,2.2744,-4.5273,-1.0019,3.0402,0.0758,0.1078,rough,14.0,0,3.070
6880,220.16,2.3408,-4.5306,-1.0099,-3.1326,-0.0029,0.1546,rough,14.0,0,3.004
6890,220.48,2.4370,-4.5500,-1.0109,3.1360,-0.2530,0.0927,rough,14.0,0,2.908
6900,220.80,2.4484,-4.5673,-1.0035,3.1169,-0.2857,-0.0112,rough,14.0,0,2.897
6910,221.12,2.4324,-4.5682,-1.0004,3.0929,-0.2692,-0.0157,rough,14.0,0,2.913
6920,221.44,2.4618,-4.5691,-1.0035,3.0924,-0.3470,0.0009,rough,14.0,0,2.883
6930,221.76,2.4506,-4.5704,-1.0025,3.0918,-0.3181,-0.0022,rough,14.0,0,2.895
6940,222.08,2.4507,-4.5718,-1.0012,3.0953,-0.3134,-0.0169,rough,14.0,0,2.894
6950,222.40,2.4564,-4.5728,-1.0023,3.0928,-0.3317,-0.0074,rough,14.0,0,2.889
6960,222.72,2.4544,-4.5732,-1.0010,3.1005,-0.3175,-0.0240,rough,14.0,0,2.891
6970,223.04,2.4512,-4.5742,-1.0014,3.0950,-0.3152,-0.0142,rough,14.0,0,2.894
6980,223.36,2.4565,-4.5753,-1.0023,3.0926,-0.3324,-0.0059,rough,14.0,0,2.889
6990,223.68,2.4543,-4.5764,-1.0022,3.0982,-0.3210,-0.0069,rough,14.0,0,2.891
7000,224.00,2.4472,-4.5783,-1.0000,3.0976,-0.3013,-0.0257,rough,14.0,0,2.898
7010,224.32,2.4613,-4.5793,-1.0012,3.0972,-0.3385,-0.0223,rough,14.0,0,2.884
7020,224.64,2.4620,-4.5785,-1.0011,3.1010,-0.3367,-0.0257,rough,14.0,0,2.883
7030,224.96,2.4542,-4.5785,-1.0012,3.0983,-0.3197,-0.0179,rough,14.0,0,2.891
7040,225.28,2.4574,-4.5780,-1.0020,3.1007,-0.3262,-0.0105,rough,14.0,0,2.888
7050,225.60,2.4555,-4.5793,-1.0022,3.0950,-0.3274,-0.0050,rough,14.0,0,2.890
7060,225.92,2.4616,-4.5772,-1.0033,3.1030,-0.3358,-0.0003,rough,14.0,0,2.884
7070,226.24,2.4527,-4.5787,-1.0013,3.0929,-0.3214,-0.0133,rough,14.0,0,2.893
7080,226.56,2.4581,-4.5791,-1.0019,3.0995,-0.3288,-0.0124,rough,14.0,0,2.887
7090,226.88,2.4606,-4.5807,-1.0020,3.0949,-0.3402,-0.0099,rough,14.0,0,2.885
7100,227.20,2.4591,-4.5818,-1.0019,3.0968,-0.3345,-0.0101,rough,14.0,0,2.886
7110,227.52,2.4520,-4.5831,-1.0014,3.0988,-0.3142,-0.0099,rough,14.0,0,2.893
7120,227.84,2.4623,-4.5831,-1.0020,3.1080,-0.3318,-0.0133,rough,14.0,0,2.883
7130,228.16,2.4533,-4.5823,-1.0006,3.0967,-0.3184,-0.0214,rough,14.0,0,2.892
7140,228.48,2.4623,-4.5831,-1.0009,3.1014,-0.3368,-0.0263,rough,14.0,0,2.883
7150,228.80,2.4547,-4.5834,-1.0007,3.0990,-0.3199,-0.0209,rough,14.0,0,2.891
7160,229.12,2.4551,-4.5848,-1.0008,3.0968,-0.3232,-0.0187,rough,14.0,0,2.890
7170,229.44,2.4617,-4.5862,-1.0015,3.1059,-0.3323,-0.0161,rough,14.0,0,2.884
7180,229.76,2.4630,-4.5839,-1.0013,3.1046,-0.3361,-0.0221,rough,14.0,0,2.882
7190,230.08,2.4614,-4.5818,-1.0019,3.1066,-0.3302,-0.0161,rough,14.0,0,2.884
7200,230.40,2.4532,-4.5820,-1.0006,3.0970,-0.3178,-0.0212,rough,14.0,0,2.892
7210,230.72,2.4523,-4.5834,-1.0005,3.0966,-0.3157,-0.0210,rough,14.0,0,2.893
7220,231.04,2.4623,-4.5850,-1.0012,3.1055,-0.3338,-0.0208,rough,14.0,0,2.883
7230,231.36,2.4574,-4.5840,-1.0005,3.0978,-0.3281,-0.0242,rough,14.0,0,2.888
7240,231.68,2.4538,-4.5852,-1.0003,3.0962,-0.3202,-0.0233,rough,14.0,0,2.892
7250,232.00,2.4619,-4.5843,-1.0015,3.1044,-0.3338,-0.0187,rough,14.0,0,2.883
7260,232.32,2.4587,-4.5829,-1.0021,3.0998,-0.3308,-0.0081,rough,14.0,0,2.887
7270,232.64,2.4568,-4.5851,-1.0000,3.0976,-0.3261,-0.0291,rough,14.0,0,2.889
7280,232.96,2.4576,-4.5861,-1.0019,3.0956,-0.3321,-0.0063,rough,14.0,0,2.888
7290,233.28,2.4592,-4.5870,-1.0016,3.0995,-0.3320,-0.0114,rough,14.0,0,2.886
7300,233.60,2.4554,-4.5884,-1.0013,3.0973,-0.3245,-0.0106,rough,14.0,0,2.890
7310,233.92,2.4643,-4.5890,-1.0011,3.1034,-0.3404,-0.0213,rough,14.0,0,2.881
7320,234.24,2.4620,-4.5869,-1.0007,3.1082,-0.3292,-0.0277,rough,14.0,0,2.883
7330,234.56,2.4591,-4.5855,-1.0010,3.1020,-0.3282,-0.0211,rough,14.0,0,2.886
7340,234.88,2.4578,-4.5870,-1.0006,3.0956,-0.3315,-0.0210,rough,14.0,0,2.888
7350,235.20,2.4535,-4.5886,-1.0002,3.0972,-0.3184,-0.0224,rough,14.0,0,2.892
7360,235.52,2.4596,-4.5884,-1.0009,3.1052,-0.3262,-0.0217,rough,14.0,0,2.886
7370,235.84,2.4534,-4.5897,-1.0001,3.0961,-0.3194,-0.0229,rough,14.0,0,2.892
7380,236.16,2.4561,-4.5909,-0.9996,3.1020,-0.3195,-0.0316,rough,14.0,0,2.889
7390,236.48,2.4526,-4.5923,-1.0006,3.0988,-0.3151,-0.0144,rough,14.0,0,2.893
7400,236.80,2.4620,-4.5930,-1.0017,3.1195,-0.3202,-0.0134,rough,14.0,0,2.884
7410,237.12,2.4582,-4.5922,-1.0004,3.0942,-0.3338,-0.0201,rough,14.0,0,2.887
7420,237.44,2.4592,-4.5943,-0.9997,3.1000,-0.3298,-0.0299,rough,14.0,0,2.886
7430,237.76,2.4584,-4.5962,-0.9992,3.0992,-0.3281,-0.0338,rough,14.0,0,2.887
7440,238.08,2.4590,-4.5979,-1.0002,3.0993,-0.3304,-0.0216,rough,14.0,0,2.887
7450,238.40,2.4621,-4.5996,-1.0004,3.1015,-0.3365,-0.0212,rough,14.0,0,2.884
7460,238.72,2.4599,-4.5986,-1.0003,3.1016,-0.3308,-0.0222,rough,14.0,0,2.886
7470,239.04,2.4635,-4.5998,-1.0011,3.1049,-0.3373,-0.0144,rough,14.0,0,2.882
7480,239.36,2.4586,-4.6004,-0.9991,3.1034,-0.3242,-0.0347,rough,14.0,0,2.887
7490,239.68,2.4616,-4.5998,-0.9995,3.1067,-0.3292,-0.0342,rough,14.0,0,2.884
7500,240.00,2.4631,-4.5974,-1.0009,3.1056,-0.3357,-0.0191,rough,14.0,0,2.883
7510,240.32,2.4624,-4.5955,-1.0011,3.1061,-0.3334,-0.0178,rough,14.0,0,2.883
7520,240.64,2.4638,-4.5964,-0.9996,3.1080,-0.3335,-0.0366,rough,14.0,0,2.882
7530,240.96,2.4617,-4.5957,-1.0007,3.1048,-0.3324,-0.0212,rough,14.0,0,2.884
7540,241.28,2.4599,-4.5935,-1.0003,3.1033,-0.3288,-0.0260,rough,14.0,0,2.886
7550,241.60,2.4651,-4.5949,-1.0016,3.1018,-0.3455,-0.0116,rough,14.0,0,2.881
7560,241.92,2.4626,-4.5967,-1.0009,3.0983,-0.3416,-0.0164,rough,14.0,0,2.883
7570,242.24,2.4583,-4.5990,-0.9997,3.1006,-0.3269,-0.0262,rough,14.0,0,2.888
7580,242.56,2.4550,-4.6006,-1.0006,3.0991,-0.3212,-0.0122,rough,14.0,0,2.891
7590,242.88,2.4549,-4.6026,-0.9999,3.0986,-0.3211,-0.0184,rough,14.0,0,2.891
7600,243.20,2.4618,-4.6032,-1.0001,3.1036,-0.3336,-0.0232,rough,14.0,0,2.884
7610,243.52,2.4613,-4.6017,-0.9992,3.1055,-0.3295,-0.0349,rough,14.0,0,2.885
7620,243.84,2.4622,-4.6006,-1.0010,3.1056,-0.3334,-0.0156,rough,14.0,0,2.884
7630,244.16,2.4607,-4.6025,-0.9997,3.0982,-0.3358,-0.0255,rough,14.0,0,2.885
7640,244.48,2.4606,-4.6047,-0.9989,3.1009,-0.3320,-0.0353,rough,14.0,0,2.885
7650,244.80,2.4616,-4.6068,-0.9995,3.1011,-0.3349,-0.0271,rough,14.0,0,2.884
7660,245.12,2.4602,-4.6085,-1.0001,3.1028,-0.3306,-0.0186,rough,14.0,0,2.886
7670,245.44,2.4618,-4.6110,-0.9989,3.1030,-0.3334,-0.0327,rough,14.0,0,2.884
7680,245.76,2.4696,-4.6126,-0.9997,3.1243,-0.3331,-0.0326,rough,14.0,0,2.877
7690,246.08,2.4860,-4.6168,-1.0017,-2.9931,-0.1466,-0.0179,rough,14.0,0,2.860
7700,246.40,2.3291,-4.6096,-0.9927,-3.1275,0.0456,-0.0179,rough,14.0,0,3.017
7710,246.72,2.2320,-4.6015,-0.9830,3.0362,0.1717,-0.0303,rough,14.0,0,3.114
7720,247.04,2.2646,-4.6003,-0.9867,3.0897,0.1378,-0.0124,rough,14.0,0,3.081
7730,247.36,2.4281,-4.6012,-0.9987,3.0904,-0.2609,-0.0080,rough,14.0,0,2.918
7740,247.68,2.4506,-4.6132,-1.0041,-2.9536,-0.0432,0.0005,rough,14.0,0,2.896
7750,248.00,2.3568,-4.6083,-0.9931,-3.1044,0.0027,-0.0185,rough,14.0,0,2.989
7760,248.32,2.4167,-4.6102,-0.9974,3.1041,-0.2227,-0.0273,rough,14.0,0,2.929
7770,248.64,2.4843,-4.6153,-1.0047,-3.0232,-0.1913,-0.0389,rough,14.0,0,2.862
7780,248.96,2.4263,-4.6176,-0.9998,-3.0042,-0.0482,-0.0200,rough,14.0,0,2.920
7790,249.28,2.3942,-4.6118,-0.9952,3.1009,-0.1664,-0.0267,rough,14.0,0,2.952
7800,249.60,2.4183,-4.6121,-0.9962,3.1073,-0.2176,-0.0280,rough,14.0,0,2.928
7810,249.92,2.3949,-4.6130,-0.9950,3.1005,-0.1672,-0.0234,rough,14.0,0,2.951
7820,250.24,2.3125,-4.6110,-0.9890,3.0894,0.0189,-0.0309,rough,14.0,0,3.034
7830,250.56,2.2846,-4.6077,-0.9876,3.0909,0.0908,-0.0173,rough,14.0,0,3.061
7840,250.88,2.3614,-4.6074,-0.9940,3.0901,-0.0966,-0.0080,rough,14.0,0,2.985
7850,251.20,2.4949,-4.6109,-1.0046,-3.1319,-0.2923,-0.0258,rough,14.0,0,2.851
