step,time_s,x,y,z,roll,pitch,yaw,terrain,speed,target_idx,dist_to_target
10,0.32,0.8085,-0.7273,0.3250,-0.0607,-0.2618,-0.2152,slope,18.0,0,5.913
20,0.64,0.9975,-0.7851,0.3655,-0.0014,-0.2394,-0.2971,slope,18.0,0,5.732
30,0.96,1.3542,-0.9108,0.4775,0.0202,-0.3276,-0.3597,slope,18.0,0,5.381
40,1.28,1.7176,-1.0908,0.6250,0.0742,-0.3909,-0.5149,slope,18.0,0,4.992
50,1.60,2.0737,-1.3447,0.7932,0.1688,-0.3696,-0.6768,slope,18.0,0,4.559
60,1.92,2.4006,-1.6709,0.9656,0.2434,-0.3468,-0.8207,slope,18.0,0,4.097
70,2.24,2.7280,-2.0474,1.1376,0.2582,-0.3214,-0.8791,slope,18.0,0,3.600
80,2.56,3.0607,-2.4743,1.2950,0.2797,-0.2708,-0.9055,slope,18.0,0,3.066
90,2.88,3.4056,-2.9139,1.4399,0.2856,-0.2441,-0.8970,slope,18.0,0,2.518
100,3.20,3.7499,-3.3353,1.5675,0.2779,-0.2298,-0.8656,slope,18.0,0,1.987
110,3.52,4.0657,-3.7017,1.6801,0.2735,-0.2265,-0.8373,slope,18.0,0,1.519
120,3.84,4.3313,-3.9952,1.7704,0.2668,-0.2371,-0.8089,slope,18.0,0,1.141
130,4.16,4.5450,-4.2312,1.8443,0.2413,-0.2608,-0.6976,slope,18.0,1,12.259
140,4.48,4.7091,-4.3785,1.9018,0.0890,-0.3483,-0.1938,slope,18.0,1,12.448
150,4.80,4.8743,-4.3991,1.9626,-0.1097,-0.3421,0.3934,slope,18.0,1,12.517
160,5.12,5.1359,-4.1873,2.0620,-0.2072,-0.2867,0.6769,slope,18.0,1,12.401
170,5.44,5.4819,-3.8547,2.1912,-0.2376,-0.2525,0.8069,slope,18.0,1,12.209
180,5.76,5.8038,-3.4661,2.3072,-0.2622,-0.2176,0.9154,slope,18.0,1,11.974
190,6.08,6.0757,-3.0354,2.4023,-0.2931,-0.1655,1.0378,slope,18.0,1,11.695
200,6.40,6.3140,-2.5716,2.4837,-0.2978,-0.1399,1.1332,slope,18.0,1,11.387
210,6.72,6.5172,-2.0843,2.5495,-0.3030,-0.1134,1.2084,slope,18.0,1,11.058
220,7.04,6.6797,-1.5755,2.6000,-0.3075,-0.0853,1.2935,slope,18.0,1,10.705
230,7.36,6.7978,-1.0491,2.6358,-0.3089,-0.0580,1.3788,slope,18.0,1,10.327
240,7.68,6.8448,-0.5527,2.6499,-0.3125,-0.0174,1.5138,rough,14.0,1,9.947
250,8.00,6.8466,-0.1216,2.6505,-0.3131,0.0003,1.5780,rough,14.0,1,9.602
260,8.32,6.8226,0.3101,2.6439,-0.3147,0.0180,1.6368,rough,14.0,1,9.248
270,8.64,6.7736,0.7402,2.6300,-0.3162,0.0357,1.6932,rough,14.0,1,8.885
280,8.96,6.7029,1.1709,2.6095,-0.3188,0.0521,1.7396,rough,14.0,1,8.514
290,9.28,6.5927,1.6264,2.5753,-0.3154,0.0829,1.8259,slope,18.0,1,8.104
300,9.60,6.4408,2.1251,2.5236,-0.3164,0.0779,1.8881,slope,18.0,1,7.642
310,9.92,6.2657,2.6187,2.4688,-0.3160,0.1202,1.9291,slope,18.0,1,7.173
320,10.24,6.0535,3.0994,2.3898,-0.3068,0.1331,2.0278,slope,18.0,1,6.693
330,10.56,5.7918,3.5855,2.2992,-0.3048,0.1797,2.0738,slope,18.0,1,6.179
340,10.88,5.5103,4.0486,2.2031,-0.3366,0.1589,2.0932,slope,18.0,1,5.670
350,11.20,5.2037,4.4615,2.0707,-0.3005,0.2162,2.1283,slope,18.0,1,5.177
360,11.52,4.9063,4.9264,1.9497,-0.2976,0.2232,2.1565,slope,18.0,1,4.668
370,11.84,4.5937,5.3832,1.8185,-0.3005,0.2402,2.1769,slope,18.0,1,4.160
380,12.16,4.2762,5.8327,1.6867,-0.2915,0.2444,2.2036,slope,18.0,1,3.664
390,12.48,3.9454,6.2678,1.5481,-0.2853,0.2515,2.2371,slope,18.0,1,3.179
400,12.80,3.6058,6.6803,1.4067,-0.2691,0.2596,2.3013,slope,18.0,1,2.717
410,13.12,3.2426,7.0636,1.2610,-0.2455,0.2863,2.3914,slope,18.0,1,2.268
420,13.44,2.8672,7.3822,1.1122,-0.2181,0.3053,2.5076,slope,18.0,1,1.853
430,13.76,2.4729,7.6352,0.9601,-0.1828,0.3207,2.6180,slope,18.0,1,1.459
440,14.08,2.0437,7.8777,0.7980,-0.1773,0.3199,2.6472,slope,18.0,1,1.089
450,14.40,1.6455,8.0839,0.6487,-0.1646,0.3106,2.6914,slope,18.0,2,16.123
460,14.72,1.2749,8.2547,0.5151,-0.1472,0.3226,2.7505,slope,18.0,2,16.047
470,15.04,0.9267,8.3907,0.3904,-0.1278,0.3288,2.8212,slope,18.0,2,15.964
480,15.36,0.5985,8.4959,0.2735,-0.0950,0.3340,2.9270,slope,18.0,2,15.873
490,15.68,0.2678,8.5629,0.1647,-0.0771,0.2944,2.9525,slope,18.0,2,15.756
500,16.00,-0.0389,8.6141,0.0936,-0.0482,0.1655,3.0048,slope,18.0,2,15.644
510,16.32,-0.3301,8.6520,0.0639,-0.0225,0.0392,-3.1356,slope,18.0,2,15.533
520,16.64,-0.6315,8.6399,0.0599,-0.0189,-0.0142,-3.0173,flat,18.0,2,15.377
530,16.96,-0.9526,8.5961,0.0666,-0.0254,-0.0170,-2.9258,flat,18.0,2,15.189
540,17.28,-1.2733,8.5222,0.0729,-0.0266,-0.0192,-2.8219,flat,18.0,2,14.979
550,17.60,-1.6030,8.4096,0.0802,-0.0247,-0.0184,-2.7390,flat,18.0,2,14.735
560,17.92,-1.9479,8.2582,0.0885,-0.0251,-0.0245,-2.6720,flat,18.0,2,14.453
570,18.24,-2.3161,8.0648,0.0992,-0.0240,-0.0284,-2.6307,flat,18.0,2,14.127
580,18.56,-2.7205,7.8330,0.1131,-0.0239,-0.0317,-2.5983,flat,18.0,2,13.757
590,18.88,-3.1682,7.5586,0.1308,-0.0229,-0.0354,-2.5844,flat,18.0,2,13.338
600,19.20,-3.6066,7.2711,0.1497,-0.0259,-0.0351,-2.4881,flat,18.0,2,12.918
610,19.52,-3.9442,6.9490,0.1647,-0.0331,-0.0276,-2.2382,flat,18.0,2,12.504
620,19.84,-4.2107,6.5501,0.1755,-0.0327,-0.0245,-2.0471,flat,18.0,2,12.042
630,20.16,-4.4134,6.0879,0.1846,-0.0350,-0.0123,-1.9459,flat,18.0,2,11.540
640,20.48,-4.5903,5.5993,0.1898,-0.0308,-0.0047,-1.8867,flat,18.0,2,11.021
650,20.80,-4.7519,5.0653,0.1911,-0.0270,0.0034,-1.8461,flat,18.0,2,10.463
660,21.12,-4.8979,4.5313,0.1898,-0.0193,0.0033,-1.8201,flat,18.0,2,9.910
670,21.44,-5.0362,3.9821,0.1856,-0.0098,0.0105,-1.8093,flat,18.0,2,9.344
680,21.76,-5.1702,3.4253,0.1779,-0.0028,0.0152,-1.8026,flat,18.0,2,8.773
690,22.08,-5.3052,2.8656,0.1633,0.0096,0.0257,-1.8077,flat,18.0,2,8.199
700,22.40,-5.4415,2.3107,0.1556,0.0163,0.0207,-1.8148,flat,18.0,2,7.630
710,22.72,-5.5819,1.7597,0.1430,0.0231,0.0240,-1.8251,flat,18.0,2,7.063
720,23.04,-5.7273,1.2104,0.1300,0.0271,0.0229,-1.8384,flat,18.0,2,6.497
730,23.36,-5.8802,0.6638,0.1177,0.0319,0.0202,-1.8536,flat,18.0,2,5.931
740,23.68,-6.0439,0.1217,0.1069,0.0347,0.0161,-1.8739,flat,18.0,2,5.365
750,24.00,-6.2072,-0.3764,0.0994,0.0358,0.0113,-1.8971,rough,14.0,2,4.841
760,24.32,-6.3554,-0.7894,0.0952,0.0357,0.0066,-1.9184,rough,14.0,2,4.403
770,24.64,-6.5101,-1.2050,0.0936,0.0354,0.0011,-1.9289,rough,14.0,2,3.959
780,24.96,-6.6673,-1.6244,0.0949,0.0345,-0.0060,-1.9301,flat,18.0,2,3.511
790,25.28,-6.8387,-2.0828,0.1009,0.0349,-0.0180,-1.9269,flat,18.0,2,3.022
800,25.60,-7.0348,-2.6199,0.1121,0.0295,-0.0221,-1.9165,flat,18.0,2,2.450
810,25.92,-7.2204,-3.1417,0.1287,0.0250,-0.0384,-1.9100,flat,18.0,2,1.896
820,26.24,-7.3807,-3.6000,0.1479,0.0210,-0.0400,-1.9014,flat,18.0,2,1.411
830,26.56,-7.5134,-3.9907,0.1655,0.0205,-0.0465,-1.9246,flat,18.0,3,0.999
840,26.88,-7.7023,-4.4794,0.1899,0.0183,-0.0486,-1.9470,flat,18.0,0,13.047
850,27.20,-7.8865,-4.9567,0.2147,0.0123,-0.0520,-1.8997,flat,18.0,0,13.238
860,27.52,-8.0358,-5.4083,0.2381,0.0047,-0.0487,-1.8258,flat,18.0,0,13.410
870,27.84,-8.1426,-5.8409,0.2592,-0.0035,-0.0453,-1.7238,flat,18.0,0,13.552
880,28.16,-8.1999,-6.2659,0.2733,-0.0101,-0.0126,-1.6080,flat,18.0,0,13.657
890,28.48,-8.2050,-6.6788,0.2921,-0.0164,-0.0311,-1.4887,flat,18.0,0,13.721
900,28.80,-8.1635,-7.0937,0.3030,-0.0197,-0.0217,-1.3855,flat,18.0,0,13.751
910,29.12,-8.0747,-7.5190,0.3093,-0.0207,-0.0074,-1.3249,flat,18.0,0,13.750
920,29.44,-7.9592,-7.9584,0.3114,-0.0204,0.0007,-1.2669,flat,18.0,0,13.741
930,29.76,-7.8244,-8.3699,0.3079,-0.0189,0.0017,-1.2089,flat,18.0,0,13.720
940,30.08,-7.6925,-8.7024,0.3043,-0.0171,0.0176,-1.1354,flat,18.0,0,13.692
950,30.40,-7.5565,-8.9432,0.2984,-0.0101,0.0274,-0.9867,flat,18.0,0,13.638
960,30.72,-7.4189,-9.1313,0.2920,-0.0076,0.0293,-0.8542,flat,18.0,0,13.571
970,31.04,-7.2909,-9.2802,0.2860,-0.0028,0.0318,-0.7159,flat,18.0,0,13.502
980,31.36,-7.1580,-9.3754,0.2808,0.0033,0.0346,-0.5897,flat,18.0,0,13.412
990,31.68,-7.0151,-9.4450,0.2755,0.0065,0.0329,-0.4834,flat,18.0,0,13.305
1000,32.00,-6.9022,-9.5087,0.2711,0.0115,0.0316,-0.3124,flat,18.0,0,13.224
1010,32.32,-6.8010,-9.5560,0.2673,0.0177,0.0310,-0.1411,flat,18.0,0,13.148
1020,32.64,-6.7022,-9.5855,0.2640,0.0215,0.0292,0.0109,flat,18.0,0,13.068
1030,32.96,-6.6080,-9.5986,0.2611,0.0252,0.0256,0.1540,flat,18.0,0,12.987
1040,33.28,-6.4988,-9.5843,0.2582,0.0253,0.0246,0.1953,flat,18.0,0,12.881
1050,33.60,-6.3970,-9.5693,0.2552,0.0269,0.0246,0.2708,flat,18.0,0,12.781
1060,33.92,-6.3029,-9.5486,0.2525,0.0282,0.0242,0.3633,flat,18.0,0,12.687
1070,34.24,-6.2026,-9.5129,0.2499,0.0292,0.0238,0.4268,flat,18.0,0,12.580
1080,34.56,-6.0857,-9.4623,0.2470,0.0292,0.0239,0.4622,flat,18.0,0,12.453
1090,34.88,-5.9609,-9.4022,0.2435,0.0291,0.0232,0.4970,flat,18.0,0,12.315
1100,35.20,-5.8267,-9.3304,0.2395,0.0280,0.0249,0.5309,flat,18.0,0,12.163
1110,35.52,-5.6844,-9.2454,0.2352,0.0276,0.0265,0.5628,flat,18.0,0,11.999
1120,35.84,-5.5266,-9.1447,0.2302,0.0279,0.0278,0.5928,flat,18.0,0,11.814
1130,36.16,-5.3551,-9.0262,0.2241,0.0288,0.0291,0.6271,flat,18.0,0,11.610
1140,36.48,-5.1603,-8.8833,0.2169,0.0289,0.0312,0.6529,flat,18.0,0,11.375
1150,36.80,-4.9405,-8.7143,0.2081,0.0285,0.0319,0.6751,flat,18.0,0,11.107
1160,37.12,-4.6954,-8.5162,0.1977,0.0291,0.0330,0.6964,flat,18.0,0,10.806
1170,37.44,-4.4167,-8.2795,0.1855,0.0295,0.0336,0.7118,flat,18.0,0,10.460
1180,37.76,-4.0971,-8.0006,0.1714,0.0297,0.0329,0.7233,flat,18.0,0,10.063
1190,38.08,-3.7285,-7.6732,0.1556,0.0304,0.0306,0.7297,flat,18.0,0,9.605
1200,38.40,-3.3339,-7.3201,0.1405,0.0317,0.0264,0.7308,flat,18.0,0,9.119
1210,38.72,-3.0525,-7.0598,0.1316,0.0333,0.0187,0.8133,flat,18.0,0,8.773
1220,39.04,-2.8839,-6.8248,0.1285,0.0365,0.0054,1.0441,rough,14.0,0,8.545
1230,39.36,-2.7349,-6.5825,0.1273,0.0340,0.0069,0.9165,rough,14.0,0,8.339
1240,39.68,-2.4980,-6.3497,0.1247,0.0322,0.0054,0.7036,flat,18.0,0,8.053
1250,40.00,-2.1594,-6.1318,0.1206,0.0347,0.0097,0.4538,flat,18.0,0,7.675
1260,40.32,-1.7613,-5.9793,0.1162,0.0277,0.0187,-0.0503,flat,18.0,0,7.254
1270,40.64,-1.3629,-6.0290,0.1023,0.0472,0.0271,-0.5238,flat,18.0,0,6.875
1280,40.96,-1.0413,-6.2762,0.0921,0.0036,0.0405,-0.8311,transition,15.0,0,6.623
1290,41.28,-0.7940,-6.5470,0.0793,0.0115,0.0352,-0.7490,slope,18.0,0,6.465
1300,41.60,-0.4688,-6.8374,0.0653,0.0150,0.0282,-0.6659,rough,14.0,0,6.258
1310,41.92,-0.1898,-7.0682,0.0826,0.1130,-0.0333,-0.6146,rough,14.0,0,6.093
1320,42.24,0.0747,-7.2645,0.1137,0.1377,-0.1584,-0.6079,slope,18.0,0,5.942
1330,42.56,0.3783,-7.4927,0.1920,0.2065,-0.2491,-0.5953,slope,18.0,0,5.788
1340,42.88,0.7387,-7.7342,0.3147,0.1958,-0.2972,-0.5671,slope,18.0,0,5.616
1350,43.20,1.1426,-7.9880,0.4600,0.1775,-0.3047,-0.5238,slope,18.0,0,5.448
1360,43.52,1.5045,-8.1950,0.5931,0.1548,-0.3226,-0.4576,slope,18.0,0,5.315
1370,43.84,1.8411,-8.3569,0.7199,0.1291,-0.3393,-0.3801,slope,18.0,0,5.196
1380,44.16,2.1655,-8.4832,0.8432,0.0849,-0.3530,-0.2568,slope,18.0,0,5.080
1390,44.48,2.4560,-8.5588,0.9546,0.0674,-0.3611,-0.2092,slope,18.0,0,4.965
1400,44.80,2.7289,-8.6170,1.0603,0.0546,-0.3662,-0.1720,slope,18.0,0,4.861
1410,45.12,2.9900,-8.6628,1.1623,0.0436,-0.3702,-0.1394,slope,18.0,0,4.765
1420,45.44,3.2413,-8.6985,1.2611,0.0335,-0.3739,-0.1111,slope,18.0,0,4.678
1430,45.76,3.4848,-8.7262,1.3574,0.0249,-0.3768,-0.0872,slope,18.0,0,4.599
1440,46.08,3.7218,-8.7474,1.4517,0.0180,-0.3790,-0.0673,slope,18.0,0,4.528
1450,46.40,3.9536,-8.7635,1.5444,0.0125,-0.3822,-0.0512,slope,18.0,0,4.465
1460,46.72,4.1814,-8.7756,1.6362,0.0083,-0.3835,-0.0382,slope,18.0,0,4.411
1470,47.04,4.2406,-8.7910,1.6590,-0.0201,-0.3766,0.0368,slope,18.0,0,4.411
1480,47.36,4.2394,-8.7828,1.6597,-0.0185,-0.3846,0.0328,slope,18.0,0,4.403
1490,47.68,4.2374,-8.7758,1.6589,-0.0170,-0.3849,0.0290,slope,18.0,0,4.397
1500,48.00,4.2354,-8.7696,1.6580,-0.0159,-0.3849,0.0265,slope,18.0,0,4.392
1510,48.32,4.2335,-8.7640,1.6572,-0.0151,-0.3849,0.0247,slope,18.0,0,4.387
1520,48.64,4.2317,-8.7588,1.6564,-0.0144,-0.3849,0.0233,slope,18.0,0,4.382
1530,48.96,4.2300,-8.7538,1.6557,-0.0139,-0.3848,0.0222,slope,18.0,0,4.378
1540,49.28,4.2284,-8.7491,1.6550,-0.0135,-0.3848,0.0215,slope,18.0,0,4.374
1550,49.60,4.2269,-8.7445,1.6544,-0.0132,-0.3848,0.0209,slope,18.0,0,4.370
1560,49.92,4.2255,-8.7401,1.6538,-0.0130,-0.3847,0.0205,slope,18.0,0,4.366
1570,50.24,4.2242,-8.7357,1.6532,-0.0129,-0.3847,0.0205,slope,18.0,0,4.362
1580,50.56,4.2228,-8.7312,1.6526,-0.0128,-0.3847,0.0207,slope,18.0,0,4.358
1590,50.88,4.2215,-8.7268,1.6520,-0.0128,-0.3847,0.0208,slope,18.0,0,4.354
1600,51.20,4.2201,-8.7223,1.6514,-0.0128,-0.3847,0.0209,slope,18.0,0,4.350
1610,51.52,4.2188,-8.7177,1.6509,-0.0127,-0.3847,0.0211,slope,18.0,0,4.346
1620,51.84,4.2173,-8.7131,1.6502,-0.0127,-0.3846,0.0212,slope,18.0,0,4.342
1630,52.16,4.2159,-8.7084,1.6496,-0.0127,-0.3846,0.0214,slope,18.0,0,4.337
1640,52.48,4.2144,-8.7036,1.6490,-0.0127,-0.3846,0.0216,slope,18.0,0,4.333
1650,52.80,4.2130,-8.6988,1.6484,-0.0127,-0.3846,0.0218,slope,18.0,0,4.329
1660,53.12,4.2115,-8.6939,1.6477,-0.0128,-0.3845,0.0221,slope,18.0,0,4.325
1670,53.44,4.2101,-8.6889,1.6471,-0.0128,-0.3845,0.0223,slope,18.0,0,4.320
1680,53.76,4.2086,-8.6838,1.6464,-0.0128,-0.3844,0.0225,slope,18.0,0,4.316
1690,54.08,4.2071,-8.6787,1.6458,-0.0128,-0.3844,0.0226,slope,18.0,0,4.311
1700,54.40,4.2056,-8.6735,1.6452,-0.0129,-0.3844,0.0231,slope,18.0,0,4.306
1710,54.72,4.2041,-8.6681,1.6445,-0.0132,-0.3844,0.0239,slope,18.0,0,4.302
1720,55.04,4.2025,-8.6621,1.6439,-0.0139,-0.3843,0.0260,slope,18.0,0,4.296
1730,55.36,4.2011,-8.6546,1.6432,-0.0163,-0.3843,0.0324,slope,18.0,0,4.289
1740,55.68,4.1992,-8.6446,1.6424,-0.0197,-0.3842,0.0414,slope,18.0,0,4.280
1750,56.00,4.1968,-8.6316,1.6414,-0.0239,-0.3839,0.0524,slope,18.0,0,4.268
1760,56.32,4.1937,-8.6149,1.6401,-0.0290,-0.3836,0.0657,slope,18.0,0,4.253
1770,56.64,4.1899,-8.5939,1.6384,-0.0348,-0.3831,0.0811,slope,18.0,0,4.234
1780,56.96,4.1852,-8.5675,1.6364,-0.0416,-0.3825,0.0989,slope,18.0,1,16.386
1790,57.28,4.1794,-8.5347,1.6339,-0.0489,-0.3817,0.1187,slope,18.0,1,16.353
1800,57.60,4.1723,-8.4946,1.6309,-0.0557,-0.3807,0.1382,slope,18.0,1,16.312
1810,57.92,4.1644,-8.4468,1.6276,-0.0630,-0.3794,0.1593,slope,18.0,1,16.264
1820,58.24,4.1577,-8.3902,1.6248,-0.0703,-0.3779,0.1815,slope,18.0,1,16.207
1830,58.56,4.1735,-8.3336,1.6312,-0.0629,-0.3797,0.1640,slope,18.0,1,16.154
1840,58.88,4.1641,-8.2791,1.6273,-0.0532,-0.3809,0.1402,slope,18.0,1,16.099
1850,59.20,4.1559,-8.2309,1.6238,-0.0453,-0.3816,0.1217,slope,18.0,1,16.050
1860,59.52,4.1475,-8.1875,1.6203,-0.0394,-0.3820,0.1079,slope,18.0,1,16.006
1870,59.84,4.1393,-8.1478,1.6170,-0.0350,-0.3823,0.0974,slope,18.0,1,15.965
1880,60.16,4.1322,-8.1109,1.6142,-0.0306,-0.3825,0.0858,slope,18.0,1,15.928
1890,60.48,4.1264,-8.0778,1.6119,-0.0265,-0.3826,0.0750,slope,18.0,1,15.894
1900,60.80,4.1213,-8.0483,1.6099,-0.0231,-0.3827,0.0662,slope,18.0,1,15.864
1910,61.12,4.1197,-8.0206,1.6093,-0.0214,-0.3828,0.0623,slope,18.0,1,15.837
1920,61.44,4.1276,-7.9940,1.6126,-0.0205,-0.3832,0.0603,slope,18.0,1,15.812
1930,61.76,4.2769,-7.9392,1.6735,-0.0548,-0.3833,0.1534,slope,18.0,1,15.789
1940,62.08,4.5701,-7.8271,1.7907,-0.0934,-0.3630,0.2667,slope,18.0,1,15.743
1950,62.40,5.0158,-7.6980,1.9790,-0.1041,-0.3839,0.2803,slope,18.0,1,15.724
1960,62.72,5.4937,-7.5562,2.1845,-0.1135,-0.3982,0.2880,slope,18.0,1,15.717
1970,63.04,5.9626,-7.4139,2.3959,-0.1212,-0.4238,0.2836,slope,18.0,1,15.721
1980,63.36,6.3960,-7.2807,2.6054,-0.1459,-0.4570,0.2995,slope,18.0,1,15.738
1990,63.68,6.7926,-7.1361,2.8121,-0.1909,-0.4864,0.3567,rough,14.0,1,15.743
2000,64.00,7.1109,-6.9990,2.9873,-0.2436,-0.4851,0.4052,rough,14.0,1,15.736
2010,64.32,7.4199,-6.8458,3.1681,-0.3004,-0.5096,0.4594,rough,14.0,1,15.718
2020,64.64,7.7313,-6.6636,3.3459,-0.3708,-0.4786,0.4901,rough,14.0,1,15.683
2030,64.96,8.0406,-6.5611,3.4852,-0.0974,-0.5141,0.5020,rough,14.0,1,15.726
2040,65.28,8.2382,-6.5017,3.5963,0.1629,-0.8547,0.4730,rough,14.0,1,15.762
2050,65.60,8.3042,-6.4555,3.6665,0.4165,-0.8580,0.0430,rough,14.0,1,15.751
2060,65.92,8.3862,-6.5257,3.6963,0.6391,-0.6999,-0.3686,rough,14.0,1,15.852
2070,66.24,8.3601,-6.6662,3.5898,0.7179,-0.6768,-0.4565,rough,14.0,1,15.964
2080,66.56,8.4143,-6.8452,3.5366,0.8240,-0.4885,-0.6827,rough,14.0,1,16.148
2090,66.88,8.4024,-7.0372,3.4024,0.7727,-0.5798,-0.5879,rough,14.0,1,16.314
2100,67.20,8.3925,-7.2143,3.2816,0.7371,-0.6372,-0.5079,rough,14.0,1,16.467
2110,67.52,8.4135,-7.3596,3.2193,0.8432,-0.5230,-0.6876,rough,14.0,1,16.607
2120,67.84,8.4396,-7.5355,3.1422,0.9060,-0.0308,-1.1196,rough,14.0,1,16.776
2130,68.16,8.3978,-7.7805,2.9628,0.7955,0.4232,-1.5189,rough,14.0,1,16.978
2140,68.48,8.4213,-8.0156,2.8674,0.6603,0.4235,-1.6201,rough,14.0,1,17.200
2150,68.80,8.4249,-8.2742,2.7823,0.5963,0.4355,-1.4966,rough,14.0,1,17.435
2160,69.12,8.4482,-8.4887,2.7268,0.5384,0.1647,-1.6100,rough,14.0,1,17.639
2170,69.44,8.4360,-8.6741,2.7043,0.5702,0.0442,-1.6069,rough,14.0,1,17.803
2180,69.76,8.4394,-8.7885,2.7358,0.4705,-0.2681,-1.7489,rough,14.0,1,17.908
2190,70.08,8.4620,-8.9085,2.7437,0.3358,-0.5412,-1.8823,rough,14.0,1,18.027
2200,70.40,8.4525,-9.0092,2.7785,0.4833,-0.7436,-2.1487,rough,14.0,1,18.115
2210,70.72,8.4622,-9.1400,2.8120,0.1939,-0.7650,-2.1939,rough,14.0,1,18.238
2220,71.04,8.4490,-9.2495,2.8327,-0.0357,-0.7820,-2.2351,rough,14.0,1,18.333
2230,71.36,8.4147,-9.3302,2.8801,-0.0442,-0.8301,-2.3602,rough,14.0,1,18.393
2240,71.68,8.3739,-9.4002,2.9276,-0.0330,-0.8561,-2.5011,rough,14.0,1,18.440
2250,72.00,8.3158,-9.4383,2.9650,-0.0485,-0.9022,-2.7207,rough,14.0,1,18.452
2260,72.32,8.2701,-9.4701,3.0090,-0.0178,-0.9159,-2.8554,rough,14.0,1,18.463
2270,72.64,8.2513,-9.4917,3.0344,0.0930,-0.9169,-3.0122,rough,14.0,1,18.476
2280,72.96,8.2609,-9.4987,3.0272,0.2760,-0.8972,3.0518,rough,14.0,1,18.486
2290,73.28,8.3265,-9.4740,2.9513,0.6380,-0.8160,2.6454,rough,14.0,1,18.489
2300,73.60,8.3330,-9.4140,2.9132,0.7609,-0.6676,2.3286,rough,14.0,1,18.437
2310,73.92,8.3179,-9.3490,2.8936,0.7300,-0.6051,2.2538,rough,14.0,1,18.371
2320,74.24,8.3287,-9.2743,2.8565,0.7364,-0.5624,2.1779,rough,14.0,1,18.307
2330,74.56,8.3170,-9.1736,2.8647,0.8409,-0.4697,2.0670,rough,14.0,1,18.210
2340,74.88,8.3399,-9.0326,2.8249,0.9607,-0.2474,1.8412,rough,14.0,1,18.090
2350,75.20,8.3672,-8.9019,2.7766,1.0162,-0.1070,1.7076,rough,14.0,1,17.982
2360,75.52,8.3943,-8.7382,2.7182,1.0289,-0.0095,1.5715,rough,14.0,1,17.844
2370,75.84,8.4163,-8.6936,2.7275,1.0372,-0.1070,1.4162,rough,14.0,1,17.812
2380,76.16,8.4459,-8.7760,2.7443,1.0935,-0.2661,1.1499,rough,14.0,1,17.899
2390,76.48,8.4913,-8.7960,2.7411,1.4733,-0.5111,0.4672,rough,14.0,1,17.936
2400,76.80,8.4415,-8.8644,2.6979,1.9479,-0.2669,-0.5871,rough,14.0,1,17.978
2410,77.12,8.3533,-8.8270,2.6653,2.1059,-0.1835,-0.9750,rough,14.0,1,17.908
2420,77.44,8.2975,-8.7782,2.6436,2.1439,-0.1012,-1.4007,rough,14.0,1,17.840
2430,77.76,8.2781,-8.6755,2.6364,2.1123,0.0909,-1.6678,rough,14.0,1,17.739
2440,78.08,8.2809,-8.6669,2.6363,2.0796,0.1151,-1.7078,rough,14.0,1,17.732
2450,78.40,8.2770,-8.6757,2.6425,2.1111,0.0828,-1.6935,rough,14.0,2,16.603
2460,78.72,8.3224,-8.6790,2.6657,2.0579,0.2512,-1.9677,rough,14.0,2,16.648
2470,79.04,8.3251,-8.6747,2.6691,2.0895,0.2382,-1.9615,rough,14.0,2,16.650
2480,79.36,8.3576,-8.6287,2.6914,2.0533,0.3878,-2.1306,rough,14.0,2,16.671
2490,79.68,8.3846,-8.5049,2.7085,2.0756,0.4090,-2.2487,rough,14.0,2,16.670
2500,80.00,8.4543,-8.3850,2.7577,2.0029,0.5627,-2.7160,rough,14.0,2,16.713
2510,80.32,8.5243,-8.2359,2.7801,2.4226,0.6474,-2.8185,rough,14.0,2,16.751
2520,80.64,8.6103,-8.1329,2.7435,-3.0211,0.7461,-2.5059,rough,14.0,2,16.815
2530,80.96,8.6318,-8.0488,2.8032,-2.8970,0.7247,-2.2790,rough,14.0,2,16.821
2540,81.28,8.6867,-7.9668,2.8944,-2.7713,0.7264,-2.0793,rough,14.0,2,16.860
2550,81.60,8.6797,-7.8724,2.9380,-2.5490,0.6096,-1.7315,rough,14.0,2,16.836
2560,81.92,8.5652,-7.7572,2.8916,-2.3626,0.4386,-1.4754,rough,14.0,2,16.703
2570,82.24,8.4868,-7.7431,2.8400,-2.4264,0.5102,-1.4870,rough,14.0,2,16.624
2580,82.56,8.4735,-7.9084,2.8179,-2.2659,0.5949,-1.2484,rough,14.0,2,16.639
2590,82.88,8.5063,-8.0324,2.7132,-2.4680,0.3306,-1.4892,rough,14.0,2,16.694
2600,83.20,8.5106,-8.0292,2.7158,-2.4669,0.3044,-1.4822,rough,14.0,2,16.698
2610,83.52,8.5109,-8.0190,2.7167,-2.4630,0.2927,-1.4996,rough,14.0,2,16.696
2620,83.84,8.5066,-8.0221,2.7230,-2.4551,0.3341,-1.4595,rough,14.0,2,16.693
2630,84.16,8.5102,-8.0222,2.7207,-2.4616,0.3125,-1.4739,rough,14.0,2,16.696
2640,84.48,8.5056,-8.0188,2.7235,-2.4546,0.3477,-1.4792,rough,14.0,2,16.691
2650,84.80,8.5054,-8.0143,2.7223,-2.4577,0.3429,-1.4910,rough,14.0,2,16.690
2660,85.12,8.5054,-8.0227,2.7189,-2.4601,0.3401,-1.4845,rough,14.0,2,16.692
2670,85.44,8.5051,-8.0227,2.7192,-2.4586,0.3425,-1.4847,rough,14.0,2,16.691
2680,85.76,8.5051,-8.0226,2.7193,-2.4584,0.3425,-1.4847,rough,14.0,2,16.691
2690,86.08,8.5051,-8.0225,2.7193,-2.4583,0.3425,-1.4847,rough,14.0,2,16.691
2700,86.40,8.5051,-8.0225,2.7194,-2.4583,0.3425,-1.4848,rough,14.0,2,16.691
2710,86.72,8.5051,-8.0224,2.7194,-2.4582,0.3425,-1.4848,rough,14.0,2,16.691
2720,87.04,8.5051,-8.0223,2.7194,-2.4582,0.3424,-1.4849,rough,14.0,2,16.691
2730,87.36,8.5051,-8.0223,2.7194,-2.4582,0.3424,-1.4849,rough,14.0,2,16.691
2740,87.68,8.5051,-8.0222,2.7194,-2.4581,0.3424,-1.4850,rough,14.0,2,16.691
2750,88.00,8.5051,-8.0221,2.7195,-2.4581,0.3423,-1.4850,rough,14.0,2,16.691
2760,88.32,8.5051,-8.0221,2.7195,-2.4581,0.3423,-1.4851,rough,14.0,2,16.691
2770,88.64,8.5051,-8.0220,2.7195,-2.4580,0.3423,-1.4851,rough,14.0,2,16.691
2780,88.96,8.5051,-8.0219,2.7195,-2.4580,0.3422,-1.4852,rough,14.0,2,16.691
2790,89.28,8.5052,-8.0219,2.7196,-2.4580,0.3422,-1.4852,rough,14.0,2,16.691
2800,89.60,8.5052,-8.0218,2.7196,-2.4579,0.3422,-1.4853,rough,14.0,2,16.691
2810,89.92,8.5052,-8.0217,2.7196,-2.4579,0.3421,-1.4853,rough,14.0,2,16.691
