step,time_s,x,y,z,roll,pitch,yaw,terrain,speed,target_idx,dist_to_target
10,0.32,2.0693,0.5010,0.1723,0.0000,-0.0145,0.0000,flat,18.0,0,6.352
20,0.64,2.3454,0.5010,0.1792,0.0000,0.0015,-0.0000,flat,18.0,0,6.084
30,0.96,2.7822,0.5042,0.1798,-0.0001,-0.0001,0.1266,flat,18.0,0,5.662
40,1.28,3.2843,0.5954,0.1799,0.0002,-0.0001,0.3361,flat,18.0,0,5.154
50,1.60,3.7922,0.7907,0.1798,0.0003,-0.0001,0.4262,flat,18.0,0,4.612
60,1.92,4.3086,1.0307,0.1797,0.0001,-0.0000,0.4399,flat,18.0,0,4.051
70,2.24,4.8226,1.2686,0.1797,-0.0001,0.0000,0.4119,flat,18.0,0,3.496
80,2.56,5.3390,1.4860,0.1797,-0.0002,0.0000,0.3614,flat,18.0,0,2.946
90,2.88,5.8669,1.6765,0.1797,-0.0002,-0.0000,0.3051,flat,18.0,0,2.393
100,3.20,6.3887,1.8338,0.1797,-0.0002,0.0001,0.2603,flat,18.0,0,1.856
110,3.52,6.8503,1.9536,0.1797,-0.0001,0.0001,0.2395,flat,18.0,0,1.386
120,3.84,7.2291,2.0453,0.1797,-0.0000,0.0001,0.2258,flat,18.0,0,1.004
130,4.16,7.5909,2.1378,0.1798,-0.0001,-0.0002,0.4519,flat,18.0,1,4.739
140,4.48,8.0078,2.3774,0.1798,0.0001,0.0002,0.5916,flat,18.0,1,4.850
150,4.80,8.3559,2.6244,0.1798,0.0002,0.0001,0.6694,flat,18.0,1,4.946
160,5.12,8.6237,2.8561,0.1797,0.0002,0.0001,0.7892,flat,18.0,1,5.020
170,5.44,8.8225,3.0822,0.1797,0.0002,0.0001,0.9463,flat,18.0,1,5.061
180,5.76,8.9667,3.3054,0.1797,0.0002,0.0000,1.1405,flat,18.0,1,5.073
190,6.08,9.0660,3.5253,0.1797,0.0002,0.0000,1.3685,flat,18.0,1,5.060
200,6.40,9.1202,3.7392,0.1797,0.0002,0.0000,1.6261,flat,18.0,1,5.019
210,6.72,9.1182,3.9435,0.1797,0.0002,-0.0000,1.8458,flat,18.0,1,4.939
220,7.04,9.0644,4.1419,0.1797,0.0002,-0.0000,2.0154,flat,18.0,1,4.819
230,7.36,8.9641,4.3400,0.1797,0.0001,-0.0000,2.1444,flat,18.0,1,4.661
240,7.68,8.8199,4.5454,0.1797,0.0001,-0.0001,2.2420,flat,18.0,1,4.464
250,8.00,8.6307,4.7661,0.1797,0.0001,-0.0001,2.3208,flat,18.0,1,4.226
260,8.32,8.3910,5.0079,0.1797,0.0001,-0.0001,2.3843,flat,18.0,1,3.940
270,8.64,8.0928,5.2761,0.1797,0.0001,-0.0001,2.4312,flat,18.0,1,3.603
280,8.96,7.7277,5.5813,0.1797,0.0001,-0.0001,2.4573,flat,18.0,1,3.211
290,9.28,7.3059,5.9225,0.1797,0.0000,0.0001,2.4793,flat,18.0,1,2.791
300,9.60,6.8933,6.2028,0.1799,-0.0000,-0.0000,2.7019,flat,18.0,1,2.416
310,9.92,6.4293,6.3904,0.1799,0.0000,0.0000,2.9433,flat,18.0,1,2.014
320,10.24,5.9789,6.4661,0.1799,0.0000,0.0000,-3.0813,flat,18.0,1,1.625
330,10.56,5.5952,6.4348,0.1799,0.0001,0.0001,-2.8591,flat,18.0,1,1.275
340,10.88,5.2396,6.3164,0.1799,-0.0000,-0.0001,-2.6244,flat,18.0,2,13.083
350,11.20,4.8160,6.0620,0.1799,-0.0000,-0.0001,-2.6254,flat,18.0,2,12.601
360,11.52,4.3458,5.8200,0.1799,-0.0003,-0.0001,-2.7544,flat,18.0,2,12.080
370,11.84,3.8195,5.6168,0.1798,-0.0001,-0.0000,-2.7978,flat,18.0,2,11.517
380,12.16,3.2841,5.4300,0.1797,-0.0001,-0.0000,-2.8255,flat,18.0,2,10.950
390,12.48,2.7417,5.2564,0.1797,-0.0001,-0.0000,-2.8460,flat,18.0,2,10.380
400,12.80,2.1937,5.0918,0.1797,-0.0000,-0.0000,-2.8578,flat,18.0,2,9.808
410,13.12,1.6417,4.9319,0.1797,-0.0000,-0.0000,-2.8621,flat,18.0,2,9.234
420,13.44,1.0885,4.7731,0.1797,0.0000,0.0000,-2.8614,flat,18.0,2,8.658
430,13.76,0.5365,4.6137,0.1797,0.0000,0.0000,-2.8577,flat,18.0,2,8.084
440,14.08,-0.0146,4.4521,0.1797,0.0000,0.0000,-2.8532,flat,18.0,2,7.510
450,14.40,-0.5652,4.2881,0.1797,0.0000,-0.0000,-2.8492,flat,18.0,2,6.935
460,14.72,-1.1155,4.1219,0.1797,0.0000,-0.0000,-2.8463,flat,18.0,2,6.361
470,15.04,-1.6658,3.9541,0.1797,0.0000,-0.0000,-2.8446,flat,18.0,2,5.785
480,15.36,-2.2163,3.7855,0.1797,0.0000,-0.0000,-2.8440,flat,18.0,2,5.210
490,15.68,-2.7670,3.6166,0.1797,0.0000,0.0000,-2.8440,flat,18.0,2,4.634
500,16.00,-3.3175,3.4478,0.1797,-0.0000,0.0000,-2.8444,flat,18.0,2,4.058
510,16.32,-3.8681,3.2794,0.1797,-0.0000,0.0000,-2.8450,flat,18.0,2,3.482
520,16.64,-4.4188,3.1112,0.1797,-0.0000,-0.0000,-2.8455,flat,18.0,2,2.907
530,16.96,-4.9694,2.9434,0.1797,-0.0000,0.0000,-2.8460,flat,18.0,2,2.332
540,17.28,-5.4950,2.7834,0.1797,-0.0000,0.0001,-2.8463,flat,18.0,2,1.783
550,17.60,-5.9434,2.6470,0.1797,-0.0000,0.0001,-2.8464,flat,18.0,2,1.315
560,17.92,-6.3069,2.5365,0.1797,-0.0000,0.0001,-2.8390,flat,18.0,3,10.640
570,18.24,-6.6567,2.4003,0.1799,-0.0002,-0.0000,-2.4819,flat,18.0,3,10.581
580,18.56,-6.9477,2.0931,0.1799,-0.0000,-0.0000,-2.1028,flat,18.0,3,10.354
590,18.88,-7.1290,1.7275,0.1799,-0.0001,-0.0001,-1.6882,flat,18.0,3,10.053
600,19.20,-7.1400,1.2374,0.1762,0.0175,0.0057,-1.3686,flat,18.0,3,9.588
610,19.52,-7.0195,0.7089,0.1795,0.0016,-0.0000,-1.2985,flat,18.0,3,9.047
620,19.84,-6.8607,0.1745,0.1797,0.0004,-0.0000,-1.2422,flat,18.0,3,8.490
630,20.16,-6.6732,-0.3606,0.1797,0.0001,-0.0000,-1.2188,flat,18.0,3,7.923
640,20.48,-6.4740,-0.8990,0.1797,0.0000,-0.0000,-1.2149,flat,18.0,3,7.350
650,20.80,-6.2751,-1.4368,0.1797,-0.0000,0.0000,-1.2226,flat,18.0,3,6.777
660,21.12,-6.0819,-1.9750,0.1797,-0.0000,0.0000,-1.2358,flat,18.0,3,6.206
670,21.44,-5.8961,-2.5155,0.1797,-0.0000,-0.0000,-1.2494,flat,18.0,3,5.634
680,21.76,-5.7171,-3.0592,0.1797,-0.0000,-0.0000,-1.2604,flat,18.0,3,5.062
690,22.08,-5.5431,-3.6059,0.1797,-0.0000,-0.0000,-1.2677,flat,18.0,3,4.488
700,22.40,-5.3723,-4.1547,0.1797,-0.0000,-0.0000,-1.2713,flat,18.0,3,3.914
710,22.72,-5.2027,-4.7049,0.1797,-0.0000,-0.0000,-1.2720,flat,18.0,3,3.338
720,23.04,-5.0331,-5.2550,0.1797,0.0000,0.0000,-1.2711,flat,18.0,3,2.762
730,23.36,-4.8634,-5.8028,0.1797,0.0000,0.0000,-1.2693,flat,18.0,3,2.189
740,23.68,-4.7048,-6.3111,0.1797,0.0000,0.0001,-1.2677,flat,18.0,3,1.656
750,24.00,-4.5716,-6.7355,0.1797,0.0000,0.0001,-1.2664,flat,18.0,3,1.212
760,24.32,-4.4544,-7.1256,0.1797,-0.0001,0.0001,-1.2937,flat,18.0,0,15.649
770,24.64,-4.3461,-7.4789,0.1798,0.0000,0.0001,-1.1593,flat,18.0,0,15.772
780,24.96,-4.1596,-7.8035,0.1799,-0.0003,-0.0001,-0.8036,flat,18.0,0,15.823
790,25.28,-3.8242,-8.1137,0.1798,0.0004,-0.0004,-0.7066,flat,18.0,0,15.760
800,25.60,-3.5065,-8.3707,0.1797,0.0002,0.0000,-0.6396,flat,18.0,0,15.687
810,25.92,-3.2129,-8.5747,0.1797,0.0002,0.0001,-0.5457,flat,18.0,0,15.607
820,26.24,-2.9365,-8.7318,0.1797,0.0002,0.0001,-0.4293,flat,18.0,0,15.514
830,26.56,-2.6728,-8.8472,0.1797,0.0002,0.0000,-0.2940,flat,18.0,0,15.406
840,26.88,-2.4190,-8.9243,0.1797,0.0002,0.0000,-0.1435,flat,18.0,0,15.283
850,27.20,-2.1752,-8.9636,0.1797,0.0002,0.0000,0.0070,flat,18.0,0,15.143
860,27.52,-1.9365,-8.9666,0.1797,0.0002,-0.0000,0.1469,flat,18.0,0,14.982
870,27.84,-1.6989,-8.9333,0.1797,0.0001,-0.0000,0.2656,flat,18.0,0,14.797
880,28.16,-1.4589,-8.8667,0.1797,0.0001,-0.0000,0.3581,flat,18.0,0,14.587
890,28.48,-1.2093,-8.7697,0.1797,0.0001,-0.0000,0.4360,flat,18.0,0,14.349
900,28.80,-0.9450,-8.6412,0.1797,0.0001,-0.0000,0.5011,flat,18.0,0,14.079
910,29.12,-0.6605,-8.4788,0.1797,0.0001,-0.0001,0.5545,flat,18.0,0,13.771
920,29.44,-0.3497,-8.2792,0.1797,0.0001,-0.0001,0.5968,flat,18.0,0,13.418
930,29.76,-0.0055,-8.0384,0.1797,0.0001,-0.0001,0.6280,flat,18.0,0,13.013
940,30.08,0.3806,-7.7525,0.1797,0.0001,-0.0001,0.6470,flat,18.0,0,12.548
950,30.40,0.8134,-7.4232,0.1797,0.0000,0.0000,0.6550,flat,18.0,0,12.021
960,30.72,1.1907,-7.1009,0.1799,-0.0000,0.0000,0.8173,flat,18.0,0,11.535
970,31.04,1.5024,-6.7086,0.1799,0.0000,-0.0000,1.0170,flat,18.0,0,11.034
980,31.36,1.7608,-6.2404,0.1799,0.0002,-0.0000,1.1557,flat,18.0,0,10.506
990,31.68,1.9770,-5.7206,0.1798,0.0002,-0.0000,1.2020,flat,18.0,0,9.964
1000,32.00,2.1839,-5.1956,0.1797,-0.0001,0.0000,1.1711,flat,18.0,0,9.427
1010,32.32,2.4071,-4.6931,0.1797,-0.0002,0.0000,1.1024,flat,18.0,0,8.900
1020,32.64,2.6645,-4.2113,0.1797,-0.0002,0.0000,1.0314,flat,18.0,0,8.368
1030,32.96,2.9556,-3.7498,0.1797,-0.0002,-0.0000,0.9629,flat,18.0,0,7.830
1040,33.28,3.2793,-3.3093,0.1797,-0.0002,-0.0000,0.8963,flat,18.0,0,7.287
1050,33.60,3.6346,-2.8859,0.1797,-0.0002,-0.0000,0.8421,flat,18.0,0,6.735
1060,33.92,4.0156,-2.4725,0.1797,-0.0001,-0.0000,0.8100,flat,18.0,0,6.173
1070,34.24,4.4120,-2.0616,0.1797,-0.0000,-0.0000,0.7983,flat,18.0,0,5.602
1080,34.56,4.8127,-1.6501,0.1797,0.0000,0.0000,0.8012,flat,18.0,0,5.028
1090,34.88,5.2082,-1.2381,0.1797,0.0000,0.0000,0.8125,flat,18.0,0,4.457
1100,35.20,5.5970,-0.8219,0.1797,0.0001,0.0000,0.8273,flat,18.0,0,3.887
1110,35.52,5.9797,-0.3998,0.1797,0.0001,-0.0000,0.8418,flat,18.0,0,3.317
1120,35.84,6.3575,0.0280,0.1797,0.0000,-0.0000,0.8533,flat,18.0,0,2.747
1130,36.16,6.7308,0.4592,0.1797,0.0000,0.0000,0.8614,flat,18.0,0,2.177
1140,36.48,7.0747,0.8617,0.1797,0.0000,0.0001,0.8660,flat,18.0,0,1.649
1150,36.80,7.3618,1.1997,0.1797,0.0000,0.0001,0.8672,flat,18.0,0,1.207
1160,37.12,7.6113,1.4940,0.1797,0.0000,-0.0001,0.8677,flat,18.0,1,5.258
1170,37.44,7.9302,1.8742,0.1797,0.0001,0.0000,0.8903,flat,18.0,1,5.161
1180,37.76,8.1972,2.2218,0.1797,0.0001,0.0001,0.9560,rough,14.0,1,5.094
1190,38.08,8.3803,2.4993,0.1797,0.0002,-0.0000,1.0498,flat,18.0,1,5.045
1200,38.40,8.5468,2.8194,0.1797,0.0002,0.0000,1.1735,flat,18.0,1,4.979
1210,38.72,8.6708,3.1272,0.1797,0.0002,0.0000,1.3379,flat,18.0,1,4.908
1220,39.04,8.7424,3.4262,0.1798,0.0002,0.0000,1.5290,flat,18.0,1,4.818
1230,39.36,8.7562,3.7174,0.1798,0.0002,0.0000,1.7225,flat,18.0,1,4.697
1240,39.68,8.7117,4.0037,0.1797,0.0002,-0.0000,1.8783,flat,18.0,1,4.540
1250,40.00,8.6154,4.2918,0.1797,0.0002,-0.0000,2.0030,flat,18.0,1,4.346
1260,40.32,8.4699,4.5893,0.1797,0.0002,-0.0001,2.1014,flat,18.0,1,4.116
1270,40.64,8.2743,4.9040,0.1797,0.0002,-0.0001,2.1745,flat,18.0,1,3.847
1280,40.96,8.0276,5.2455,0.1797,0.0001,-0.0001,2.2234,flat,18.0,1,3.543
1290,41.28,7.7280,5.6260,0.1797,0.0001,-0.0001,2.2517,flat,18.0,1,3.210
1300,41.60,7.3840,6.0466,0.1797,0.0000,0.0001,2.2630,flat,18.0,1,2.879
1310,41.92,7.0622,6.3905,0.1799,-0.0001,0.0000,2.4704,flat,18.0,1,2.622
1320,42.24,6.6769,6.6335,0.1799,-0.0000,-0.0000,2.8458,flat,18.0,1,2.331
1330,42.56,6.2248,6.7404,0.1799,0.0000,-0.0000,-3.0551,flat,18.0,1,1.972
1340,42.88,5.7875,6.6834,0.1799,0.0001,0.0000,-2.8247,flat,18.0,1,1.575
1350,43.20,5.4222,6.5523,0.1798,0.0002,0.0001,-2.7038,flat,18.0,1,1.208
1360,43.52,5.0861,6.3744,0.1799,-0.0001,-0.0001,-2.5004,flat,18.0,2,12.956
1370,43.84,4.6967,6.0768,0.1799,-0.0000,-0.0001,-2.5323,flat,18.0,2,12.492
1380,44.16,4.2669,5.8071,0.1799,-0.0002,-0.0001,-2.6844,flat,18.0,2,12.000
1390,44.48,3.7643,5.5829,0.1798,-0.0002,-0.0001,-2.7651,flat,18.0,2,11.454
1400,44.80,3.2391,5.3848,0.1797,-0.0002,-0.0000,-2.8197,flat,18.0,2,10.893
1410,45.12,2.7010,5.2118,0.1797,-0.0001,-0.0000,-2.8544,flat,18.0,2,10.328
1420,45.44,2.1531,5.0535,0.1797,-0.0001,-0.0000,-2.8725,flat,18.0,2,9.758
1430,45.76,1.5990,4.9020,0.1797,-0.0000,-0.0000,-2.8772,flat,18.0,2,9.184
1440,46.08,1.0444,4.7515,0.1797,0.0000,0.0000,-2.8735,flat,18.0,2,8.610
1450,46.40,0.4922,4.5987,0.1797,0.0000,0.0000,-2.8656,flat,18.0,2,8.037
1460,46.72,-0.0585,4.4413,0.1797,0.0000,-0.0000,-2.8571,flat,18.0,2,7.465
1470,47.04,-0.6084,4.2793,0.1797,0.0000,-0.0000,-2.8499,flat,18.0,2,6.891
1480,47.36,-1.1581,4.1133,0.1797,0.0000,-0.0000,-2.8451,flat,18.0,2,6.317
1490,47.68,-1.7079,3.9448,0.1797,0.0000,-0.0000,-2.8426,flat,18.0,2,5.742
1500,48.00,-2.2580,3.7751,0.1797,0.0000,-0.0000,-2.8420,flat,18.0,2,5.167
1510,48.32,-2.8082,3.6052,0.1797,-0.0000,0.0000,-2.8423,flat,18.0,2,4.591
1520,48.64,-3.3583,3.4356,0.1797,-0.0000,0.0000,-2.8433,flat,18.0,2,4.015
1530,48.96,-3.9085,3.2667,0.1797,-0.0000,-0.0000,-2.8444,flat,18.0,2,3.440
1540,49.28,-4.4590,3.0983,0.1797,-0.0000,-0.0000,-2.8455,flat,18.0,2,2.865
1550,49.60,-5.0093,2.9306,0.1797,-0.0000,0.0000,-2.8462,flat,18.0,2,2.290
1560,49.92,-5.5306,2.7720,0.1797,-0.0000,0.0001,-2.8466,flat,18.0,2,1.746
1570,50.24,-5.9726,2.6377,0.1797,-0.0000,0.0001,-2.8467,flat,18.0,2,1.285
1580,50.56,-6.3319,2.5286,0.1797,0.0000,0.0001,-2.8244,flat,18.0,3,10.637
1590,50.88,-6.6820,2.3787,0.1799,-0.0002,-0.0000,-2.4391,flat,18.0,3,10.566
1600,51.20,-6.9648,2.0575,0.1799,-0.0001,-0.0000,-2.0618,flat,18.0,3,10.324
1610,51.52,-7.1403,1.6528,0.1799,0.0001,-0.0001,-1.7481,flat,18.0,3,9.984
1620,51.84,-7.2043,1.1513,0.1799,0.0000,-0.0000,-1.4685,flat,18.0,3,9.525
1630,52.16,-7.1288,0.6354,0.1799,0.0001,-0.0000,-1.2856,flat,18.0,3,9.012
1640,52.48,-6.9610,0.1180,0.1798,0.0003,-0.0000,-1.1912,flat,18.0,3,8.468
1650,52.80,-6.7451,-0.4021,0.1797,0.0001,-0.0000,-1.1572,flat,18.0,3,7.906
1660,53.12,-6.5139,-0.9269,0.1797,0.0000,0.0000,-1.1594,flat,18.0,3,7.335
1670,53.44,-6.2894,-1.4494,0.1797,-0.0001,0.0000,-1.1811,flat,18.0,3,6.769
1680,53.76,-6.0788,-1.9750,0.1797,-0.0001,0.0000,-1.2106,flat,18.0,3,6.205
1690,54.08,-5.8835,-2.5070,0.1797,-0.0001,-0.0000,-1.2390,flat,18.0,3,5.639
1700,54.40,-5.7017,-3.0462,0.1797,-0.0001,-0.0000,-1.2610,flat,18.0,3,5.070
1710,54.72,-5.5298,-3.5914,0.1797,-0.0001,-0.0000,-1.2746,flat,18.0,3,4.498
1720,55.04,-5.3634,-4.1409,0.1797,-0.0000,-0.0000,-1.2803,flat,18.0,3,3.924
1730,55.36,-5.1987,-4.6924,0.1797,-0.0000,0.0000,-1.2805,flat,18.0,3,3.349
1740,55.68,-5.0338,-5.2430,0.1797,0.0000,0.0000,-1.2774,flat,18.0,3,2.774
1750,56.00,-4.8673,-5.7911,0.1797,0.0000,0.0000,-1.2730,flat,18.0,3,2.201
1760,56.32,-4.7096,-6.3007,0.1797,0.0000,0.0001,-1.2695,flat,18.0,3,1.668
1770,56.64,-4.5763,-6.7270,0.1797,0.0000,0.0001,-1.2669,flat,18.0,3,1.221
1780,56.96,-4.4586,-7.1183,0.1797,-0.0001,0.0001,-1.2940,flat,18.0,0,15.648
1790,57.28,-4.3501,-7.4721,0.1798,0.0001,0.0001,-1.1612,flat,18.0,0,15.771
1800,57.60,-4.1641,-7.7980,0.1799,-0.0003,-0.0001,-0.8064,flat,18.0,0,15.823
1810,57.92,-3.8333,-8.1061,0.1798,0.0001,0.0002,-0.6942,flat,18.0,0,15.762
1820,58.24,-3.5107,-8.3608,0.1797,0.0001,0.0001,-0.6270,flat,18.0,0,15.684
1830,58.56,-3.2127,-8.5629,0.1797,0.0002,0.0001,-0.5339,flat,18.0,0,15.599
1840,58.88,-2.9321,-8.7184,0.1797,0.0002,0.0001,-0.4186,flat,18.0,0,15.501
1850,59.20,-2.6644,-8.8324,0.1797,0.0002,0.0000,-0.2845,flat,18.0,0,15.390
1860,59.52,-2.4066,-8.9081,0.1797,0.0002,0.0000,-0.1357,flat,18.0,0,15.263
1870,59.84,-2.1589,-8.9457,0.1797,0.0002,0.0000,0.0125,flat,18.0,0,15.118
1880,60.16,-1.9160,-8.9470,0.1797,0.0002,-0.0000,0.1502,flat,18.0,0,14.953
1890,60.48,-1.6738,-8.9120,0.1797,0.0001,-0.0000,0.2678,flat,18.0,0,14.764
1900,60.80,-1.4290,-8.8433,0.1797,0.0001,-0.0000,0.3588,flat,18.0,0,14.549
1910,61.12,-1.1743,-8.7440,0.1797,0.0001,-0.0000,0.4355,flat,18.0,0,14.307
1920,61.44,-0.9043,-8.6130,0.1797,0.0001,-0.0001,0.4995,flat,18.0,0,14.031
1930,61.76,-0.6135,-8.4477,0.1797,0.0001,-0.0001,0.5519,flat,18.0,0,13.717
1940,62.08,-0.2958,-8.2450,0.1797,0.0001,-0.0001,0.5931,flat,18.0,0,13.357
1950,62.40,0.0561,-8.0010,0.1797,0.0001,-0.0001,0.6230,flat,18.0,0,12.945
1960,62.72,0.4511,-7.7120,0.1797,0.0001,-0.0001,0.6406,flat,18.0,0,12.472
1970,63.04,0.8885,-7.3840,0.1797,0.0000,0.0000,0.6519,flat,18.0,0,11.944
1980,63.36,1.2603,-7.0627,0.1799,-0.0000,-0.0000,0.8290,flat,18.0,0,11.462
1990,63.68,1.5684,-6.6663,0.1799,0.0000,-0.0000,1.0297,flat,18.0,0,10.960
2000,64.00,1.8214,-6.1945,0.1799,0.0002,-0.0000,1.1682,flat,18.0,0,10.432
2010,64.32,2.0316,-5.6715,0.1798,0.0002,-0.0000,1.2126,flat,18.0,0,9.892
2020,64.64,2.2330,-5.1453,0.1797,-0.0001,0.0000,1.1792,flat,18.0,0,9.357
2030,64.96,2.4520,-4.6417,0.1797,-0.0002,0.0000,1.1087,flat,18.0,0,8.831
2040,65.28,2.7062,-4.1590,0.1797,-0.0002,0.0000,1.0364,flat,18.0,0,8.301
2050,65.60,2.9946,-3.6968,0.1797,-0.0002,-0.0000,0.9663,flat,18.0,0,7.765
2060,65.92,3.3164,-3.2559,0.1797,-0.0002,-0.0000,0.8982,flat,18.0,0,7.222
2070,66.24,3.6706,-2.8331,0.1797,-0.0002,-0.0000,0.8416,flat,18.0,0,6.672
2080,66.56,4.0517,-2.4208,0.1797,-0.0001,-0.0000,0.8076,flat,18.0,0,6.110
2090,66.88,4.4490,-2.0113,0.1797,-0.0000,-0.0000,0.7952,flat,18.0,0,5.540
2100,67.20,4.8510,-1.6010,0.1797,0.0000,0.0000,0.7981,flat,18.0,0,4.966
2110,67.52,5.2475,-1.1904,0.1797,0.0000,0.0000,0.8099,flat,18.0,0,4.395
2120,67.84,5.6370,-0.7753,0.1797,0.0001,0.0000,0.8255,flat,18.0,0,3.826
2130,68.16,6.0201,-0.3540,0.1797,0.0001,-0.0000,0.8407,flat,18.0,0,3.256
2140,68.48,6.3980,0.0734,0.1797,0.0000,-0.0000,0.8530,flat,18.0,0,2.686
2150,68.80,6.7702,0.5032,0.1797,0.0000,0.0000,0.8614,flat,18.0,0,2.118
2160,69.12,7.1088,0.8996,0.1797,0.0000,0.0001,0.8664,flat,18.0,0,1.598
2170,69.44,7.3895,1.2303,0.1797,0.0000,0.0001,0.8676,flat,18.0,0,1.166
2180,69.76,7.6425,1.5290,0.1797,0.0000,-0.0002,0.8683,flat,18.0,1,5.248
2190,70.08,7.9616,1.9116,0.1797,0.0001,0.0000,0.8964,flat,18.0,1,5.154
2200,70.40,8.2208,2.2538,0.1797,0.0001,0.0001,0.9647,rough,14.0,1,5.089
2210,70.72,8.3981,2.5307,0.1797,0.0002,-0.0001,1.0609,flat,18.0,1,5.038
2220,71.04,8.5618,2.8508,0.1797,0.0002,0.0000,1.1893,flat,18.0,1,4.972
2230,71.36,8.6805,3.1577,0.1797,0.0002,0.0000,1.3566,flat,18.0,1,4.900
2240,71.68,8.7465,3.4559,0.1798,0.0002,0.0000,1.5502,flat,18.0,1,4.807
2250,72.00,8.7539,3.7464,0.1798,0.0002,0.0000,1.7402,flat,18.0,1,4.683
2260,72.32,8.7038,4.0326,0.1797,0.0002,-0.0000,1.8925,flat,18.0,1,4.521
2270,72.64,8.6024,4.3214,0.1797,0.0002,-0.0000,2.0143,flat,18.0,1,4.324
2280,72.96,8.4518,4.6204,0.1797,0.0002,-0.0001,2.1101,flat,18.0,1,4.090
2290,73.28,8.2509,4.9373,0.1797,0.0002,-0.0001,2.1804,flat,18.0,1,3.817
2300,73.60,7.9988,5.2824,0.1797,0.0001,-0.0001,2.2272,flat,18.0,1,3.509
2310,73.92,7.6936,5.6677,0.1797,0.0001,-0.0001,2.2533,flat,18.0,1,3.174
2320,74.24,7.3497,6.0873,0.1797,0.0000,0.0001,2.2695,flat,18.0,1,2.849
2330,74.56,7.0269,6.4202,0.1799,-0.0001,-0.0000,2.5054,flat,18.0,1,2.595
2340,74.88,6.6322,6.6534,0.1799,-0.0000,-0.0000,2.8838,flat,18.0,1,2.298
2350,75.20,6.1781,6.7432,0.1799,0.0000,0.0000,-3.0245,flat,18.0,1,1.933
2360,75.52,5.7466,6.6751,0.1799,0.0001,0.0001,-2.8075,flat,18.0,1,1.537
2370,75.84,5.3892,6.5409,0.1798,0.0002,0.0001,-2.6934,flat,18.0,1,1.176
2380,76.16,5.0482,6.3499,0.1799,-0.0001,-0.0000,-2.4840,flat,18.0,2,12.912
2390,76.48,4.6534,6.0481,0.1799,0.0000,-0.0001,-2.5460,flat,18.0,2,12.442
2400,76.80,4.2204,5.7852,0.1799,-0.0002,-0.0002,-2.6967,flat,18.0,2,11.950
2410,77.12,3.7128,5.5625,0.1798,-0.0002,-0.0000,-2.7697,flat,18.0,2,11.398
2420,77.44,3.1863,5.3666,0.1797,-0.0002,-0.0000,-2.8236,flat,18.0,2,10.838
2430,77.76,2.6472,5.1953,0.1797,-0.0001,-0.0000,-2.8567,flat,18.0,2,10.272
2440,78.08,2.0986,5.0380,0.1797,-0.0001,-0.0000,-2.8736,flat,18.0,2,9.701
2450,78.40,1.5441,4.8868,0.1797,-0.0000,-0.0000,-2.8773,flat,18.0,2,9.127
2460,78.72,0.9898,4.7363,0.1797,0.0000,0.0000,-2.8731,flat,18.0,2,8.553
2470,79.04,0.4377,4.5832,0.1797,0.0000,0.0000,-2.8649,flat,18.0,2,7.980
2480,79.36,-0.1129,4.4255,0.1797,0.0000,-0.0000,-2.8564,flat,18.0,2,7.408
2490,79.68,-0.6628,4.2630,0.1797,0.0000,-0.0000,-2.8494,flat,18.0,2,6.835
2500,80.00,-1.2124,4.0968,0.1797,0.0000,-0.0000,-2.8448,flat,18.0,2,6.261
2510,80.32,-1.7622,3.9282,0.1797,0.0000,-0.0000,-2.8425,flat,18.0,2,5.686
2520,80.64,-2.3124,3.7583,0.1797,0.0000,-0.0000,-2.8419,flat,18.0,2,5.110
2530,80.96,-2.8626,3.5884,0.1797,-0.0000,0.0000,-2.8424,flat,18.0,2,4.534
2540,81.28,-3.4127,3.4189,0.1797,-0.0000,0.0000,-2.8434,flat,18.0,2,3.959
2550,81.60,-3.9629,3.2500,0.1797,-0.0000,-0.0000,-2.8445,flat,18.0,2,3.383
2560,81.92,-4.5134,3.0817,0.1797,-0.0000,-0.0000,-2.8455,flat,18.0,2,2.808
2570,82.24,-5.0631,2.9142,0.1797,-0.0000,0.0000,-2.8462,flat,18.0,2,2.234
2580,82.56,-5.5783,2.7576,0.1797,-0.0000,0.0001,-2.8466,flat,18.0,2,1.696
2590,82.88,-6.0114,2.6259,0.1797,-0.0000,0.0001,-2.8467,flat,18.0,2,1.244
2600,83.20,-6.3657,2.5185,0.1797,0.0000,0.0001,-2.8026,flat,18.0,3,10.634
2610,83.52,-6.7135,2.3530,0.1799,-0.0002,-0.0000,-2.3990,flat,18.0,3,10.548
2620,83.84,-6.9885,2.0191,0.1799,-0.0001,-0.0000,-2.0218,flat,18.0,3,10.294
2630,84.16,-7.1522,1.6045,0.1799,0.0001,-0.0001,-1.7218,flat,18.0,3,9.942
2640,84.48,-7.2020,1.0999,0.1799,0.0000,-0.0000,-1.4454,flat,18.0,3,9.476
2650,84.80,-7.1150,0.5836,0.1799,0.0001,-0.0000,-1.2729,flat,18.0,3,8.959
2660,85.12,-6.9408,0.0660,0.1798,0.0003,-0.0000,-1.1855,flat,18.0,3,8.412
2670,85.44,-6.7221,-0.4547,0.1797,0.0001,-0.0000,-1.1562,flat,18.0,3,7.849
2680,85.76,-6.4909,-0.9794,0.1797,-0.0000,0.0000,-1.1610,flat,18.0,3,7.278
2690,86.08,-6.2676,-1.5019,0.1797,-0.0001,0.0000,-1.1839,flat,18.0,3,6.713
2700,86.40,-6.0585,-2.0281,0.1797,-0.0001,0.0000,-1.2136,flat,18.0,3,6.148
2710,86.72,-5.8647,-2.5608,0.1797,-0.0001,-0.0000,-1.2415,flat,18.0,3,5.582
2720,87.04,-5.6841,-3.1006,0.1797,-0.0001,-0.0000,-1.2627,flat,18.0,3,5.013
2730,87.36,-5.5130,-3.6464,0.1797,-0.0000,-0.0000,-1.2754,flat,18.0,3,4.441
2740,87.68,-5.3469,-4.1962,0.1797,-0.0000,-0.0000,-1.2805,flat,18.0,3,3.867
2750,88.00,-5.1822,-4.7478,0.1797,-0.0000,0.0000,-1.2803,flat,18.0,3,3.291
2760,88.32,-5.0171,-5.2982,0.1797,0.0000,0.0000,-1.2770,flat,18.0,3,2.716
2770,88.64,-4.8507,-5.8451,0.1797,0.0000,0.0000,-1.2726,flat,18.0,3,2.145
2780,88.96,-4.6950,-6.3476,0.1797,0.0000,0.0001,-1.2693,flat,18.0,3,1.619
2790,89.28,-4.5644,-6.7649,0.1797,0.0000,0.0001,-1.2667,flat,18.0,3,1.181
2800,89.60,-4.4476,-7.1556,0.1797,-0.0001,0.0001,-1.2873,flat,18.0,0,15.661
2810,89.92,-4.3387,-7.5042,0.1798,0.0000,0.0001,-1.1369,flat,18.0,0,15.781
