step,time_s,x,y,z,roll,pitch,yaw,terrain,speed,target_idx,dist_to_target
10,0.32,1.8901,0.4978,0.6427,0.0359,-0.4005,-0.0121,slope,18.0,0,6.527
20,0.64,1.9348,0.4959,0.6572,0.0484,-0.4141,-0.0148,slope,18.0,0,6.484
30,0.96,2.2747,0.4915,0.8101,0.0452,-0.4441,-0.0167,slope,18.0,0,6.155
40,1.28,2.6203,0.4866,0.9762,0.0394,-0.4563,-0.0181,slope,18.0,0,5.823
50,1.60,2.9448,0.4802,1.1360,0.0355,-0.4632,-0.0250,slope,18.0,0,5.512
60,1.92,3.2559,0.4707,1.2868,0.0312,-0.4460,-0.0352,slope,18.0,0,5.217
70,2.24,3.5528,0.4531,1.4289,0.0404,-0.4447,-0.0660,slope,18.0,0,4.941
80,2.56,3.8416,0.4216,1.5606,0.0529,-0.4123,-0.1089,slope,18.0,0,4.679
90,2.88,4.1438,0.3818,1.6878,0.0264,-0.3883,-0.0683,slope,18.0,0,4.411
100,3.20,4.4494,0.3547,1.8137,0.0182,-0.3902,-0.0696,slope,18.0,0,4.140
110,3.52,4.7754,0.3324,1.9432,0.0099,-0.3631,-0.0349,slope,18.0,0,3.854
120,3.84,5.1071,0.3217,2.0655,0.0014,-0.3572,-0.0099,slope,18.0,0,3.565
130,4.16,5.4437,0.3189,2.1853,-0.0008,-0.3302,-0.0021,slope,18.0,0,3.275
140,4.48,5.7837,0.3181,2.3017,-0.0005,-0.3260,-0.0005,slope,18.0,0,2.991
150,4.80,6.1296,0.3178,2.4171,0.0006,-0.3203,0.0002,slope,18.0,0,2.715
160,5.12,6.4798,0.3181,2.5323,-0.0008,-0.3191,0.0005,slope,18.0,0,2.454
170,5.44,6.8152,0.3169,2.6415,0.0010,-0.3150,0.0079,rough,14.0,0,2.227
180,5.76,7.0243,0.3193,2.7094,-0.0057,-0.3141,0.0337,rough,14.0,0,2.098
190,6.08,7.2123,0.3332,2.7705,-0.0157,-0.3133,0.0695,rough,14.0,0,1.984
200,6.40,7.3876,0.3490,2.8277,-0.0148,-0.3153,0.0684,rough,14.0,0,1.886
210,6.72,7.5705,0.3631,2.8872,-0.0082,-0.3153,0.0505,rough,14.0,0,1.798
220,7.04,7.9330,0.3819,2.9122,-0.0036,0.2217,0.0371,rough,14.0,0,1.680
230,7.36,8.3036,0.2422,2.7314,0.8909,0.7155,0.0921,rough,14.0,0,1.794
240,7.68,8.4077,-0.1158,2.5315,1.9725,0.7630,0.1906,rough,14.0,0,2.157
250,8.00,8.3262,-0.4785,2.3187,-2.3729,0.2599,0.6822,rough,14.0,0,2.515
260,8.32,8.3373,-0.7494,2.2952,-1.7650,-0.0417,1.4211,rough,14.0,0,2.786
270,8.64,8.3340,-0.9359,2.2441,-2.0810,0.1503,1.9777,rough,14.0,0,2.972
280,8.96,8.3635,-1.1743,2.2116,-2.4996,-0.1395,1.8037,rough,14.0,0,3.211
290,9.28,8.4501,-1.3653,2.2067,-2.4422,0.1145,2.0760,rough,14.0,0,3.407
300,9.60,8.5818,-1.4875,2.1365,-2.5829,-0.0544,2.2048,rough,14.0,0,3.539
310,9.92,8.7007,-1.6104,2.1381,-2.6339,-0.0690,2.3329,rough,14.0,0,3.675
320,10.24,8.7844,-1.6970,2.1205,-2.7382,-0.0965,2.3571,rough,14.0,0,3.772
330,10.56,8.9058,-1.7931,2.1273,-2.6224,0.1718,2.5402,rough,14.0,0,3.886
340,10.88,9.0237,-1.8689,2.1204,-2.8058,0.0545,2.6206,rough,14.0,0,3.982
350,11.20,9.1413,-1.8999,2.1191,-2.8823,0.0786,2.8137,rough,14.0,0,4.038
360,11.52,9.2132,-1.9289,2.1582,-2.7938,0.2189,2.9519,rough,14.0,0,4.083
370,11.84,9.2774,-1.9460,2.1791,-2.7668,0.3151,3.0678,rough,14.0,0,4.115
380,12.16,9.3300,-1.9572,2.1934,-2.7750,0.3670,-3.1130,rough,14.0,0,4.139
390,12.48,9.3707,-1.9618,2.2014,-2.8129,0.3958,-3.0471,rough,14.0,0,4.155
400,12.80,9.4493,-1.9211,2.2073,-2.8738,0.4755,-2.8397,rough,14.0,0,4.138
410,13.12,9.4641,-1.9092,2.2107,-2.8674,0.5209,-2.8248,rough,14.0,0,4.131
420,13.44,9.4624,-1.8955,2.2079,-2.8622,0.5239,-2.7971,rough,14.0,0,4.118
430,13.76,9.4651,-1.8831,2.2077,-2.8690,0.5347,-2.7942,rough,14.0,0,4.106
440,14.08,9.4689,-1.8727,2.2089,-2.8739,0.5508,-2.8007,rough,14.0,0,4.098
450,14.40,9.4778,-1.8718,2.2147,-2.8849,0.5851,-2.8532,rough,14.0,0,4.100
460,14.72,9.4867,-1.8578,2.2199,-2.9052,0.6204,-2.9054,rough,14.0,0,4.089
470,15.04,9.5207,-1.8537,2.2426,-2.9134,0.6588,-2.9486,rough,14.0,0,4.096
480,15.36,9.5115,-1.8540,2.2363,-2.9172,0.6590,-2.9588,rough,14.0,0,4.093
490,15.68,9.5049,-1.8545,2.2314,-2.9190,0.6600,-2.9636,rough,14.0,0,4.091
500,16.00,9.4998,-1.8550,2.2276,-2.9195,0.6609,-2.9660,rough,14.0,0,4.090
510,16.32,9.4974,-1.8530,2.2259,-2.9190,0.6562,-2.9582,rough,14.0,0,4.088
520,16.64,9.4954,-1.8497,2.2245,-2.9207,0.6500,-2.9500,rough,14.0,0,4.084
530,16.96,9.4936,-1.8452,2.2231,-2.9236,0.6444,-2.9430,rough,14.0,0,4.079
540,17.28,9.4918,-1.8396,2.2217,-2.9277,0.6394,-2.9370,rough,14.0,0,4.073
550,17.60,9.4901,-1.8331,2.2204,-2.9327,0.6349,-2.9321,rough,14.0,0,4.067
560,17.92,9.4885,-1.8259,2.2191,-2.9385,0.6310,-2.9281,rough,14.0,0,4.059
570,18.24,9.4871,-1.8180,2.2178,-2.9450,0.6275,-2.9249,rough,14.0,0,4.051
580,18.56,9.4857,-1.8095,2.2166,-2.9521,0.6244,-2.9224,rough,14.0,0,4.043
590,18.88,9.4844,-1.8007,2.2154,-2.9596,0.6217,-2.9205,rough,14.0,0,4.034
600,19.20,9.4832,-1.7916,2.2142,-2.9674,0.6194,-2.9192,rough,14.0,0,4.025
610,19.52,9.4821,-1.7822,2.2131,-2.9755,0.6174,-2.9184,rough,14.0,0,4.016
620,19.84,9.4827,-1.7705,2.2091,-2.9771,0.6072,-2.9200,rough,14.0,0,4.005
630,20.16,9.4808,-1.7611,2.2103,-2.9938,0.6121,-2.9221,rough,14.0,0,3.995
640,20.48,9.4797,-1.7519,2.2091,-3.0025,0.6089,-2.9214,rough,14.0,0,3.986
650,20.80,9.4788,-1.7426,2.2077,-3.0109,0.6054,-2.9217,rough,14.0,0,3.977
660,21.12,9.4780,-1.7333,2.2064,-3.0193,0.6021,-2.9223,rough,14.0,0,3.968
670,21.44,9.4773,-1.7240,2.2051,-3.0276,0.5990,-2.9232,rough,14.0,0,3.959
680,21.76,9.4774,-1.7155,2.2045,-3.0359,0.5993,-2.9281,rough,14.0,1,8.960
690,22.08,9.4768,-1.7071,2.2033,-3.0434,0.5966,-2.9289,rough,14.0,1,8.952
700,22.40,9.4775,-1.6992,2.2033,-3.0483,0.5972,-2.9294,rough,14.0,1,8.946
710,22.72,9.4765,-1.6928,2.2021,-3.0540,0.5940,-2.9288,rough,14.0,1,8.940
720,23.04,9.5203,-1.6797,2.2352,-2.9831,0.6937,-2.9141,rough,14.0,1,8.954
730,23.36,9.5237,-1.6596,2.2372,-2.9374,0.6729,-2.8124,rough,14.0,1,8.939
740,23.68,9.5151,-1.6200,2.2271,-2.9954,0.6442,-2.8320,rough,14.0,1,8.901
750,24.00,9.5208,-1.6037,2.2295,-3.0492,0.6861,-2.9354,rough,14.0,1,8.891
760,24.32,9.5166,-1.5794,2.2244,-3.0728,0.6721,-2.9339,rough,14.0,1,8.868
770,24.64,9.5230,-1.5524,2.2282,-3.0534,0.6720,-2.8802,rough,14.0,1,8.850
780,24.96,9.5241,-1.5353,2.2307,-3.0729,0.6864,-2.9305,rough,14.0,1,8.836
790,25.28,9.5219,-1.5249,2.2308,-3.0755,0.6830,-2.9373,rough,14.0,1,8.827
800,25.60,9.5239,-1.5141,2.2316,-3.0853,0.6832,-2.9402,rough,14.0,1,8.819
810,25.92,9.5119,-1.4979,2.2253,3.1277,0.6858,-3.0680,rough,14.0,1,8.799
820,26.24,9.4979,-1.4902,2.2144,3.0828,0.6823,-3.1357,rough,14.0,1,8.784
830,26.56,9.4940,-1.4864,2.2116,3.0603,0.6780,3.1151,rough,14.0,1,8.779
840,26.88,9.4926,-1.4843,2.2105,3.0498,0.6771,3.0983,rough,14.0,1,8.776
850,27.20,9.4922,-1.4833,2.2103,3.0450,0.6775,3.0894,rough,14.0,1,8.775
860,27.52,9.4924,-1.4827,2.2105,3.0430,0.6785,3.0844,rough,14.0,1,8.775
870,27.84,9.4927,-1.4824,2.2108,3.0425,0.6797,3.0817,rough,14.0,1,8.775
880,28.16,9.4932,-1.4823,2.2112,3.0417,0.6799,3.0801,rough,14.0,1,8.775
890,28.48,9.4937,-1.4822,2.2116,3.0411,0.6798,3.0792,rough,14.0,1,8.775
900,28.80,9.4941,-1.4822,2.2120,3.0408,0.6798,3.0788,rough,14.0,1,8.776
910,29.12,9.4946,-1.4822,2.2123,3.0407,0.6798,3.0785,rough,14.0,1,8.776
920,29.44,9.4949,-1.4822,2.2126,3.0406,0.6798,3.0784,rough,14.0,1,8.776
930,29.76,9.4952,-1.4822,2.2129,3.0406,0.6798,3.0783,rough,14.0,1,8.776
940,30.08,9.4955,-1.4822,2.2131,3.0405,0.6798,3.0783,rough,14.0,1,8.776
950,30.40,9.4957,-1.4822,2.2133,3.0405,0.6798,3.0782,rough,14.0,1,8.777
960,30.72,9.4959,-1.4823,2.2134,3.0405,0.6798,3.0782,rough,14.0,1,8.777
970,31.04,9.4961,-1.4823,2.2135,3.0405,0.6798,3.0782,rough,14.0,1,8.777
980,31.36,9.4962,-1.4823,2.2136,3.0405,0.6798,3.0782,rough,14.0,1,8.777
990,31.68,9.4963,-1.4823,2.2137,3.0405,0.6798,3.0782,rough,14.0,1,8.777
1000,32.00,9.4964,-1.4823,2.2138,3.0405,0.6798,3.0782,rough,14.0,1,8.777
1010,32.32,9.4965,-1.4823,2.2139,3.0405,0.6798,3.0782,rough,14.0,1,8.777
1020,32.64,9.4966,-1.4823,2.2139,3.0405,0.6798,3.0782,rough,14.0,1,8.777
1030,32.96,9.4966,-1.4823,2.2140,3.0405,0.6798,3.0782,rough,14.0,1,8.777
1040,33.28,9.4967,-1.4823,2.2140,3.0405,0.6798,3.0782,rough,14.0,2,17.062
1050,33.60,9.4967,-1.4824,2.2140,3.0405,0.6798,3.0782,rough,14.0,2,17.062
1060,33.92,9.4967,-1.4824,2.2141,3.0405,0.6798,3.0782,rough,14.0,2,17.062
1070,34.24,9.4968,-1.4824,2.2141,3.0405,0.6798,3.0782,rough,14.0,2,17.062
1080,34.56,9.4968,-1.4824,2.2141,3.0405,0.6798,3.0782,rough,14.0,2,17.062
1090,34.88,9.4968,-1.4824,2.2141,3.0405,0.6798,3.0782,rough,14.0,2,17.062
1100,35.20,9.4968,-1.4824,2.2141,3.0405,0.6798,3.0782,rough,14.0,2,17.062
1110,35.52,9.4968,-1.4824,2.2142,3.0405,0.6798,3.0782,rough,14.0,2,17.062
1120,35.84,9.4969,-1.4824,2.2142,3.0405,0.6798,3.0782,rough,14.0,2,17.062
1130,36.16,9.4969,-1.4824,2.2142,3.0405,0.6798,3.0782,rough,14.0,2,17.062
1140,36.48,9.4969,-1.4824,2.2142,3.0405,0.6798,3.0782,rough,14.0,2,17.062
1150,36.80,9.4969,-1.4824,2.2142,3.0405,0.6798,3.0782,rough,14.0,2,17.062
1160,37.12,9.4969,-1.4824,2.2142,3.0405,0.6798,3.0782,rough,14.0,2,17.062
1170,37.44,9.4969,-1.4824,2.2142,3.0405,0.6798,3.0782,rough,14.0,2,17.062
1180,37.76,9.4969,-1.4824,2.2142,3.0405,0.6798,3.0782,rough,14.0,2,17.062
1190,38.08,9.4969,-1.4824,2.2142,3.0405,0.6798,3.0782,rough,14.0,2,17.062
1200,38.40,9.4969,-1.4824,2.2142,3.0405,0.6798,3.0782,rough,14.0,2,17.062
1210,38.72,9.4969,-1.4824,2.2142,3.0405,0.6798,3.0782,rough,14.0,2,17.062
1220,39.04,9.4969,-1.4824,2.2142,3.0405,0.6798,3.0782,rough,14.0,2,17.062
1230,39.36,9.4969,-1.4824,2.2142,3.0405,0.6798,3.0782,rough,14.0,2,17.062
1240,39.68,9.4969,-1.4824,2.2142,3.0405,0.6798,3.0782,rough,14.0,2,17.062
1250,40.00,9.4969,-1.4825,2.2142,3.0405,0.6798,3.0782,rough,14.0,2,17.062
1260,40.32,9.4969,-1.4825,2.2142,3.0405,0.6798,3.0782,rough,14.0,2,17.062
1270,40.64,9.4969,-1.4825,2.2142,3.0405,0.6798,3.0782,rough,14.0,2,17.062
1280,40.96,9.4969,-1.4825,2.2142,3.0405,0.6798,3.0782,rough,14.0,2,17.062
1290,41.28,9.4969,-1.4825,2.2142,3.0405,0.6798,3.0782,rough,14.0,2,17.062
1300,41.60,9.4969,-1.4825,2.2142,3.0405,0.6798,3.0782,rough,14.0,2,17.062
1310,41.92,9.4969,-1.4825,2.2142,3.0405,0.6798,3.0782,rough,14.0,2,17.062
1320,42.24,9.4969,-1.4825,2.2142,3.0405,0.6798,3.0782,rough,14.0,2,17.062
1330,42.56,9.4969,-1.4825,2.2142,3.0405,0.6798,3.0782,rough,14.0,2,17.062
1340,42.88,9.4969,-1.4825,2.2142,3.0405,0.6798,3.0782,rough,14.0,2,17.062
1350,43.20,9.4969,-1.4825,2.2142,3.0405,0.6798,3.0782,rough,14.0,2,17.062
1360,43.52,9.4969,-1.4825,2.2142,3.0405,0.6798,3.0782,rough,14.0,2,17.062
1370,43.84,9.4969,-1.4825,2.2142,3.0405,0.6798,3.0782,rough,14.0,2,17.062
1380,44.16,9.4969,-1.4825,2.2142,3.0405,0.6798,3.0782,rough,14.0,2,17.062
1390,44.48,9.4969,-1.4825,2.2142,3.0405,0.6798,3.0782,rough,14.0,2,17.062
1400,44.80,9.4969,-1.4825,2.2142,3.0405,0.6798,3.0782,rough,14.0,2,17.062
1410,45.12,9.4969,-1.4825,2.2142,3.0405,0.6798,3.0782,rough,14.0,3,15.160
1420,45.44,9.4969,-1.4825,2.2142,3.0405,0.6798,3.0782,rough,14.0,3,15.160
1430,45.76,9.4969,-1.4825,2.2142,3.0405,0.6798,3.0782,rough,14.0,3,15.160
1440,46.08,9.4969,-1.4825,2.2142,3.0405,0.6798,3.0782,rough,14.0,3,15.160
1450,46.40,9.4969,-1.4825,2.2142,3.0405,0.6798,3.0782,rough,14.0,3,15.160
1460,46.72,9.4969,-1.4825,2.2142,3.0405,0.6798,3.0782,rough,14.0,3,15.160
1470,47.04,9.4969,-1.4826,2.2142,3.0405,0.6798,3.0782,rough,14.0,3,15.160
1480,47.36,9.4969,-1.4826,2.2142,3.0405,0.6798,3.0782,rough,14.0,3,15.160
1490,47.68,9.4969,-1.4826,2.2142,3.0405,0.6798,3.0782,rough,14.0,3,15.160
1500,48.00,9.4969,-1.4826,2.2142,3.0405,0.6798,3.0782,rough,14.0,3,15.160
1510,48.32,9.4969,-1.4826,2.2142,3.0405,0.6798,3.0782,rough,14.0,3,15.160
1520,48.64,9.4969,-1.4826,2.2142,3.0405,0.6798,3.0782,rough,14.0,3,15.160
1530,48.96,9.4969,-1.4826,2.2142,3.0405,0.6798,3.0782,rough,14.0,3,15.160
1540,49.28,9.4969,-1.4826,2.2142,3.0405,0.6798,3.0782,rough,14.0,3,15.160
1550,49.60,9.4969,-1.4826,2.2142,3.0405,0.6798,3.0782,rough,14.0,3,15.160
1560,49.92,9.4969,-1.4826,2.2142,3.0405,0.6798,3.0782,rough,14.0,3,15.160
1570,50.24,9.4969,-1.4826,2.2142,3.0405,0.6798,3.0782,rough,14.0,3,15.160
1580,50.56,9.4969,-1.4826,2.2142,3.0405,0.6798,3.0782,rough,14.0,3,15.160
1590,50.88,9.4969,-1.4826,2.2142,3.0405,0.6798,3.0782,rough,14.0,3,15.160
1600,51.20,9.4969,-1.4826,2.2142,3.0405,0.6798,3.0782,rough,14.0,3,15.160
1610,51.52,9.4969,-1.4826,2.2142,3.0405,0.6798,3.0782,rough,14.0,3,15.160
1620,51.84,9.4969,-1.4826,2.2142,3.0405,0.6798,3.0782,rough,14.0,3,15.160
1630,52.16,9.4969,-1.4826,2.2142,3.0405,0.6798,3.0782,rough,14.0,3,15.160
1640,52.48,9.4969,-1.4826,2.2142,3.0405,0.6798,3.0782,rough,14.0,3,15.160
1650,52.80,9.4969,-1.4826,2.2142,3.0405,0.6798,3.0782,rough,14.0,3,15.160
1660,53.12,9.4969,-1.4826,2.2142,3.0405,0.6798,3.0782,rough,14.0,3,15.160
1670,53.44,9.4969,-1.4826,2.2142,3.0405,0.6798,3.0782,rough,14.0,3,15.160
1680,53.76,9.4969,-1.4826,2.2142,3.0405,0.6798,3.0782,rough,14.0,3,15.160
1690,54.08,9.4969,-1.4827,2.2142,3.0405,0.6798,3.0782,rough,14.0,3,15.160
1700,54.40,9.4969,-1.4827,2.2142,3.0405,0.6798,3.0782,rough,14.0,3,15.160
1710,54.72,9.4969,-1.4827,2.2142,3.0405,0.6798,3.0782,rough,14.0,3,15.160
1720,55.04,9.4969,-1.4827,2.2142,3.0405,0.6798,3.0782,rough,14.0,3,15.160
1730,55.36,9.4969,-1.4827,2.2142,3.0405,0.6798,3.0782,rough,14.0,3,15.160
1740,55.68,9.4969,-1.4827,2.2142,3.0405,0.6798,3.0782,rough,14.0,3,15.160
1750,56.00,9.4969,-1.4827,2.2142,3.0405,0.6798,3.0782,rough,14.0,3,15.160
1760,56.32,9.4969,-1.4827,2.2142,3.0405,0.6798,3.0782,rough,14.0,3,15.160
1770,56.64,9.4969,-1.4827,2.2142,3.0405,0.6798,3.0782,rough,14.0,3,15.160
1780,56.96,9.4969,-1.4827,2.2142,3.0405,0.6798,3.0782,rough,14.0,0,3.737
1790,57.28,9.4969,-1.4827,2.2142,3.0405,0.6798,3.0782,rough,14.0,0,3.737
1800,57.60,9.4969,-1.4827,2.2142,3.0405,0.6798,3.0782,rough,14.0,0,3.737
1810,57.92,9.4969,-1.4827,2.2142,3.0405,0.6798,3.0782,rough,14.0,0,3.737
1820,58.24,9.4969,-1.4827,2.2142,3.0405,0.6798,3.0782,rough,14.0,0,3.737
1830,58.56,9.4969,-1.4827,2.2142,3.0405,0.6798,3.0782,rough,14.0,0,3.737
1840,58.88,9.4969,-1.4827,2.2142,3.0405,0.6798,3.0782,rough,14.0,0,3.737
1850,59.20,9.4969,-1.4827,2.2142,3.0405,0.6798,3.0782,rough,14.0,0,3.737
1860,59.52,9.4969,-1.4827,2.2142,3.0405,0.6798,3.0782,rough,14.0,0,3.737
1870,59.84,9.4969,-1.4827,2.2142,3.0405,0.6798,3.0782,rough,14.0,0,3.737
1880,60.16,9.4969,-1.4827,2.2142,3.0405,0.6798,3.0782,rough,14.0,0,3.737
1890,60.48,9.4969,-1.4827,2.2142,3.0405,0.6798,3.0782,rough,14.0,0,3.737
1900,60.80,9.4969,-1.4827,2.2142,3.0405,0.6798,3.0782,rough,14.0,0,3.737
1910,61.12,9.4969,-1.4828,2.2142,3.0405,0.6798,3.0782,rough,14.0,0,3.737
1920,61.44,9.4969,-1.4828,2.2142,3.0405,0.6798,3.0782,rough,14.0,0,3.737
1930,61.76,9.4969,-1.4828,2.2142,3.0405,0.6798,3.0782,rough,14.0,0,3.737
1940,62.08,9.4969,-1.4828,2.2142,3.0405,0.6798,3.0782,rough,14.0,0,3.737
1950,62.40,9.4969,-1.4828,2.2142,3.0405,0.6798,3.0782,rough,14.0,0,3.737
1960,62.72,9.4969,-1.4828,2.2142,3.0405,0.6798,3.0782,rough,14.0,0,3.737
1970,63.04,9.4969,-1.4828,2.2142,3.0405,0.6798,3.0782,rough,14.0,0,3.737
1980,63.36,9.4969,-1.4828,2.2142,3.0405,0.6798,3.0782,rough,14.0,0,3.737
1990,63.68,9.4969,-1.4828,2.2142,3.0405,0.6798,3.0782,rough,14.0,0,3.737
2000,64.00,9.4969,-1.4828,2.2142,3.0405,0.6798,3.0782,rough,14.0,0,3.737
2010,64.32,9.4969,-1.4828,2.2142,3.0405,0.6798,3.0782,rough,14.0,0,3.737
2020,64.64,9.4969,-1.4828,2.2142,3.0405,0.6798,3.0782,rough,14.0,0,3.737
2030,64.96,9.4969,-1.4828,2.2142,3.0405,0.6798,3.0782,rough,14.0,0,3.737
2040,65.28,9.4969,-1.4828,2.2142,3.0405,0.6798,3.0782,rough,14.0,0,3.737
2050,65.60,9.4969,-1.4828,2.2142,3.0405,0.6798,3.0782,rough,14.0,0,3.737
2060,65.92,9.4969,-1.4828,2.2142,3.0405,0.6798,3.0782,rough,14.0,0,3.737
2070,66.24,9.4969,-1.4828,2.2142,3.0405,0.6798,3.0782,rough,14.0,0,3.737
2080,66.56,9.4969,-1.4828,2.2142,3.0405,0.6798,3.0782,rough,14.0,0,3.737
2090,66.88,9.4969,-1.4828,2.2142,3.0405,0.6798,3.0782,rough,14.0,0,3.737
2100,67.20,9.4969,-1.4828,2.2142,3.0405,0.6798,3.0782,rough,14.0,0,3.737
2110,67.52,9.4969,-1.4828,2.2142,3.0405,0.6798,3.0782,rough,14.0,0,3.737
2120,67.84,9.4969,-1.4828,2.2142,3.0405,0.6798,3.0782,rough,14.0,0,3.737
2130,68.16,9.4969,-1.4828,2.2142,3.0405,0.6798,3.0782,rough,14.0,0,3.737
2140,68.48,9.4969,-1.4829,2.2142,3.0405,0.6798,3.0782,rough,14.0,1,8.778
2150,68.80,9.4969,-1.4829,2.2142,3.0405,0.6798,3.0782,rough,14.0,1,8.778
2160,69.12,9.4969,-1.4829,2.2142,3.0405,0.6798,3.0782,rough,14.0,1,8.778
2170,69.44,9.4969,-1.4829,2.2142,3.0405,0.6798,3.0782,rough,14.0,1,8.778
2180,69.76,9.4969,-1.4829,2.2142,3.0405,0.6798,3.0782,rough,14.0,1,8.778
2190,70.08,9.4969,-1.4829,2.2142,3.0405,0.6798,3.0782,rough,14.0,1,8.778
2200,70.40,9.4969,-1.4829,2.2142,3.0405,0.6798,3.0782,rough,14.0,1,8.778
2210,70.72,9.4969,-1.4829,2.2142,3.0405,0.6798,3.0782,rough,14.0,1,8.778
2220,71.04,9.4969,-1.4829,2.2142,3.0405,0.6798,3.0782,rough,14.0,1,8.778
2230,71.36,9.4969,-1.4829,2.2142,3.0405,0.6798,3.0782,rough,14.0,1,8.778
2240,71.68,9.4969,-1.4829,2.2142,3.0405,0.6798,3.0782,rough,14.0,1,8.778
2250,72.00,9.4969,-1.4829,2.2142,3.0405,0.6798,3.0782,rough,14.0,1,8.778
2260,72.32,9.4969,-1.4829,2.2142,3.0405,0.6798,3.0782,rough,14.0,1,8.778
2270,72.64,9.4969,-1.4829,2.2142,3.0405,0.6798,3.0782,rough,14.0,1,8.778
2280,72.96,9.4969,-1.4829,2.2142,3.0405,0.6798,3.0782,rough,14.0,1,8.778
2290,73.28,9.4969,-1.4829,2.2142,3.0405,0.6798,3.0782,rough,14.0,1,8.778
2300,73.60,9.4969,-1.4829,2.2142,3.0405,0.6798,3.0782,rough,14.0,1,8.778
2310,73.92,9.4969,-1.4829,2.2142,3.0405,0.6798,3.0782,rough,14.0,1,8.778
2320,74.24,9.4969,-1.4829,2.2142,3.0405,0.6798,3.0782,rough,14.0,1,8.778
2330,74.56,9.4969,-1.4829,2.2142,3.0405,0.6798,3.0782,rough,14.0,1,8.778
2340,74.88,9.4969,-1.4829,2.2142,3.0405,0.6798,3.0782,rough,14.0,1,8.778
2350,75.20,9.4969,-1.4829,2.2142,3.0405,0.6798,3.0782,rough,14.0,1,8.778
2360,75.52,9.4969,-1.4830,2.2142,3.0405,0.6798,3.0782,rough,14.0,1,8.778
2370,75.84,9.4969,-1.4830,2.2142,3.0405,0.6798,3.0782,rough,14.0,1,8.778
2380,76.16,9.4969,-1.4830,2.2142,3.0405,0.6798,3.0782,rough,14.0,1,8.778
2390,76.48,9.4969,-1.4830,2.2142,3.0405,0.6798,3.0782,rough,14.0,1,8.778
2400,76.80,9.4969,-1.4830,2.2142,3.0405,0.6798,3.0782,rough,14.0,1,8.778
2410,77.12,9.4969,-1.4830,2.2142,3.0405,0.6798,3.0782,rough,14.0,1,8.778
2420,77.44,9.4969,-1.4830,2.2142,3.0405,0.6798,3.0782,rough,14.0,1,8.778
2430,77.76,9.4969,-1.4830,2.2142,3.0405,0.6798,3.0782,rough,14.0,1,8.778
2440,78.08,9.4969,-1.4830,2.2142,3.0405,0.6798,3.0782,rough,14.0,1,8.778
2450,78.40,9.4969,-1.4830,2.2142,3.0405,0.6798,3.0782,rough,14.0,1,8.778
2460,78.72,9.4969,-1.4830,2.2142,3.0405,0.6798,3.0782,rough,14.0,1,8.778
2470,79.04,9.4969,-1.4830,2.2142,3.0405,0.6798,3.0782,rough,14.0,1,8.778
2480,79.36,9.4969,-1.4830,2.2142,3.0405,0.6798,3.0782,rough,14.0,1,8.778
2490,79.68,9.4969,-1.4830,2.2142,3.0405,0.6798,3.0782,rough,14.0,1,8.778
2500,80.00,9.4969,-1.4830,2.2142,3.0405,0.6798,3.0782,rough,14.0,1,8.778
2510,80.32,9.4969,-1.4830,2.2142,3.0405,0.6798,3.0782,rough,14.0,2,17.063
2520,80.64,9.4969,-1.4830,2.2142,3.0405,0.6798,3.0782,rough,14.0,2,17.063
2530,80.96,9.4969,-1.4830,2.2142,3.0405,0.6798,3.0782,rough,14.0,2,17.063
2540,81.28,9.4969,-1.4830,2.2142,3.0405,0.6798,3.0782,rough,14.0,2,17.063
2550,81.60,9.4969,-1.4830,2.2142,3.0405,0.6798,3.0782,rough,14.0,2,17.063
2560,81.92,9.4969,-1.4830,2.2142,3.0405,0.6798,3.0782,rough,14.0,2,17.063
2570,82.24,9.4969,-1.4830,2.2142,3.0405,0.6798,3.0782,rough,14.0,2,17.063
2580,82.56,9.4969,-1.4831,2.2142,3.0405,0.6798,3.0782,rough,14.0,2,17.063
2590,82.88,9.4969,-1.4831,2.2142,3.0405,0.6798,3.0782,rough,14.0,2,17.063
2600,83.20,9.4969,-1.4831,2.2142,3.0405,0.6798,3.0782,rough,14.0,2,17.063
2610,83.52,9.4969,-1.4831,2.2142,3.0405,0.6798,3.0782,rough,14.0,2,17.063
2620,83.84,9.4969,-1.4831,2.2142,3.0405,0.6798,3.0782,rough,14.0,2,17.063
2630,84.16,9.4969,-1.4831,2.2142,3.0405,0.6798,3.0782,rough,14.0,2,17.063
2640,84.48,9.4969,-1.4831,2.2142,3.0405,0.6798,3.0782,rough,14.0,2,17.063
2650,84.80,9.4969,-1.4831,2.2142,3.0405,0.6798,3.0782,rough,14.0,2,17.063
2660,85.12,9.4969,-1.4831,2.2142,3.0405,0.6798,3.0782,rough,14.0,2,17.063
2670,85.44,9.4969,-1.4831,2.2142,3.0405,0.6798,3.0782,rough,14.0,2,17.063
2680,85.76,9.4969,-1.4831,2.2142,3.0405,0.6798,3.0782,rough,14.0,2,17.063
2690,86.08,9.4969,-1.4831,2.2142,3.0405,0.6798,3.0782,rough,14.0,2,17.063
2700,86.40,9.4969,-1.4831,2.2142,3.0405,0.6798,3.0782,rough,14.0,2,17.063
2710,86.72,9.4969,-1.4831,2.2142,3.0405,0.6798,3.0782,rough,14.0,2,17.063
2720,87.04,9.4969,-1.4831,2.2142,3.0405,0.6798,3.0782,rough,14.0,2,17.063
2730,87.36,9.4969,-1.4831,2.2142,3.0405,0.6798,3.0782,rough,14.0,2,17.063
2740,87.68,9.4969,-1.4831,2.2142,3.0405,0.6798,3.0782,rough,14.0,2,17.063
2750,88.00,9.4969,-1.4831,2.2142,3.0405,0.6798,3.0782,rough,14.0,2,17.063
2760,88.32,9.4969,-1.4831,2.2142,3.0405,0.6798,3.0782,rough,14.0,2,17.063
2770,88.64,9.4969,-1.4831,2.2142,3.0405,0.6798,3.0782,rough,14.0,2,17.063
2780,88.96,9.4969,-1.4831,2.2142,3.0405,0.6798,3.0782,rough,14.0,2,17.063
2790,89.28,9.4969,-1.4831,2.2142,3.0405,0.6798,3.0782,rough,14.0,2,17.063
2800,89.60,9.4969,-1.4831,2.2142,3.0405,0.6798,3.0782,rough,14.0,2,17.063
2810,89.92,9.4969,-1.4832,2.2142,3.0405,0.6798,3.0782,rough,14.0,2,17.063
