step,time_s,x,y,z,roll,pitch,yaw,terrain,speed,target_idx,dist_to_target
10,0.32,-0.0107,-0.0578,0.2045,0.0000,-0.0141,-0.0000,slope,18.0,0,5.407
20,0.64,0.2394,-0.0577,0.2244,-0.0003,-0.0790,-0.0158,slope,18.0,0,5.213
30,0.96,0.5606,-0.0712,0.2562,0.0159,-0.1168,-0.1422,slope,18.0,0,4.962
40,1.28,0.9161,-0.1632,0.3202,0.0691,-0.2164,-0.3656,slope,18.0,0,4.640
50,1.60,1.2666,-0.3501,0.4136,0.0914,-0.2877,-0.5658,slope,18.0,0,4.260
60,1.92,1.5909,-0.6342,0.5368,0.1820,-0.3060,-0.7504,slope,18.0,0,3.831
70,2.24,1.8921,-0.9828,0.6818,0.2427,-0.3307,-0.8933,slope,18.0,0,3.371
80,2.56,2.1936,-1.3964,0.8519,0.2650,-0.3306,-0.9544,slope,18.0,0,2.865
90,2.88,2.4958,-1.8349,1.0205,0.2730,-0.3154,-0.9389,slope,18.0,0,2.344
100,3.20,2.7896,-2.2311,1.1719,0.2570,-0.2975,-0.8575,slope,18.0,0,1.863
110,3.52,3.0812,-2.5542,1.3052,0.2426,-0.2966,-0.7750,slope,18.0,0,1.434
120,3.84,3.3344,-2.8020,1.4119,0.2310,-0.2918,-0.7058,slope,18.0,0,1.084
130,4.16,3.5827,-3.0305,1.5082,0.2525,-0.2643,-0.7886,slope,18.0,1,6.839
140,4.48,3.7958,-3.3495,1.5862,0.3287,-0.1400,-1.1453,slope,18.0,1,6.735
150,4.80,3.8433,-3.7547,1.5963,0.3516,0.0167,-1.5620,rough,14.0,1,6.473
160,5.12,3.7015,-4.1696,1.5300,0.2892,0.1687,-1.9787,slope,18.0,1,6.081
170,5.44,3.4263,-4.5862,1.4199,0.2661,0.2441,-2.2058,slope,18.0,1,5.596
180,5.76,3.0836,-4.9697,1.2780,0.2255,0.2819,-2.3502,slope,18.0,1,5.085
190,6.08,2.6884,-5.3174,1.1165,0.1976,0.3041,-2.4410,slope,18.0,1,4.558
200,6.40,2.2678,-5.6479,0.9450,0.1822,0.3124,-2.4864,slope,18.0,1,4.024
210,6.72,1.8339,-5.9751,0.7692,0.1778,0.3131,-2.4996,slope,18.0,1,3.484
220,7.04,1.4004,-6.3029,0.5954,0.1840,0.3078,-2.4844,slope,18.0,1,2.944
230,7.36,0.9840,-6.6412,0.4299,0.2035,0.2894,-2.4213,slope,18.0,1,2.410
240,7.68,0.6012,-7.0014,0.2798,0.2239,0.2681,-2.3547,slope,18.0,1,1.884
250,8.00,0.2888,-7.3330,0.1705,0.2128,0.2058,-2.2920,rough,14.0,1,1.429
260,8.32,0.0553,-7.6159,0.1073,0.1674,0.1141,-2.2011,slope,18.0,1,1.064
270,8.64,-0.2112,-8.0123,0.0649,0.0780,0.0579,-2.2068,slope,18.0,2,5.102
280,8.96,-0.4659,-8.3459,0.0474,-0.0096,0.0070,-2.2812,slope,18.0,2,5.231
290,9.28,-0.7084,-8.6021,0.0505,-0.0096,-0.0197,-2.3912,flat,18.0,2,5.327
300,9.60,-0.9407,-8.8041,0.0579,-0.0055,-0.0271,-2.5286,flat,18.0,2,5.400
310,9.92,-1.1661,-8.9637,0.0652,0.0022,-0.0281,-2.7036,flat,18.0,2,5.453
320,10.24,-1.3972,-9.0533,0.0726,0.0061,-0.0309,-2.8283,flat,18.0,2,5.452
330,10.56,-1.6290,-9.1115,0.0799,0.0074,-0.0313,-2.9015,flat,18.0,2,5.432
340,10.88,-1.8554,-9.1537,0.0874,0.0084,-0.0334,-2.9597,flat,18.0,2,5.408
350,11.20,-2.0702,-9.1842,0.0946,0.0089,-0.0341,-3.0062,flat,18.0,2,5.385
360,11.52,-2.2588,-9.2054,0.1012,0.0102,-0.0343,-3.0683,flat,18.0,2,5.367
370,11.84,-2.4374,-9.2145,0.1073,0.0162,-0.0335,3.0014,flat,18.0,2,5.344
380,12.16,-2.6152,-9.1973,0.1136,0.0212,-0.0306,2.8207,flat,18.0,2,5.302
390,12.48,-2.7905,-9.1398,0.1194,0.0251,-0.0293,2.6789,flat,18.0,2,5.226
400,12.80,-2.9716,-9.0470,0.1256,0.0277,-0.0285,2.5558,flat,18.0,2,5.119
410,13.12,-3.1599,-8.9152,0.1322,0.0296,-0.0282,2.4567,flat,18.0,2,4.980
420,13.44,-3.3612,-8.7397,0.1398,0.0312,-0.0284,2.3780,flat,18.0,2,4.803
430,13.76,-3.5810,-8.5160,0.1487,0.0328,-0.0287,2.3165,flat,18.0,2,4.589
440,14.08,-3.8255,-8.2378,0.1593,0.0336,-0.0287,2.2692,flat,18.0,2,4.335
450,14.40,-4.1024,-7.8966,0.1717,0.0342,-0.0282,2.2379,flat,18.0,2,4.044
460,14.72,-4.4240,-7.4812,0.1857,0.0347,-0.0256,2.2261,flat,18.0,2,3.724
470,15.04,-4.7333,-7.0420,0.1978,0.0354,-0.0179,2.1299,flat,18.0,2,3.428
480,15.36,-4.9878,-6.5913,0.2036,0.0314,-0.0076,1.9983,flat,18.0,2,3.156
490,15.68,-5.1792,-6.0944,0.2036,0.0444,0.0056,1.9020,flat,18.0,2,2.874
500,16.00,-5.3019,-5.6155,0.2012,0.0215,-0.0001,1.7272,flat,18.0,2,2.627
510,16.32,-5.3275,-5.1850,0.1965,0.0068,0.0207,1.2453,flat,18.0,2,2.397
520,16.64,-5.1674,-4.7900,0.1880,-0.0034,0.0167,0.9209,flat,18.0,2,2.070
530,16.96,-4.8693,-4.4556,0.1815,-0.0063,0.0133,0.7360,flat,18.0,2,1.671
540,17.28,-4.5521,-4.1845,0.1797,-0.0058,-0.0030,0.6116,flat,18.0,2,1.295
550,17.60,-4.2581,-3.9941,0.1806,-0.0023,-0.0051,0.5273,flat,18.0,3,0.979
560,17.92,-3.9462,-3.8165,0.1827,-0.0011,-0.0071,0.6342,flat,18.0,3,10.300
570,18.24,-3.6144,-3.5176,0.1886,-0.0005,-0.0177,0.9158,flat,18.0,3,9.921
580,18.56,-3.3633,-3.1267,0.1966,-0.0032,-0.0209,1.1822,flat,18.0,3,9.478
590,18.88,-3.1933,-2.6377,0.2077,-0.0200,-0.0164,1.4209,flat,18.0,3,8.962
600,19.20,-3.1301,-2.0947,0.2152,-0.0237,-0.0104,1.5445,flat,18.0,3,8.420
610,19.52,-3.1200,-1.5288,0.2153,-0.0253,-0.0312,1.5438,flat,18.0,3,7.872
620,19.84,-3.0994,-0.9639,0.2214,-0.0240,-0.0049,1.4856,flat,18.0,3,7.325
630,20.16,-3.0398,-0.4126,0.2231,-0.0229,-0.0028,1.4127,flat,18.0,3,6.781
640,20.48,-2.9399,0.1299,0.2241,-0.0222,-0.0026,1.3425,flat,18.0,3,6.234
650,20.80,-2.8087,0.6738,0.2240,-0.0176,-0.0003,1.3125,flat,18.0,3,5.677
660,21.12,-2.6603,1.2129,0.2229,-0.0149,0.0030,1.2745,flat,18.0,3,5.119
670,21.44,-2.4888,1.7363,0.2202,-0.0175,0.0075,1.1983,flat,18.0,3,4.568
680,21.76,-2.2753,2.2619,0.2128,-0.0166,0.0223,1.1683,flat,18.0,3,4.002
690,22.08,-2.0509,2.7814,0.2035,-0.0193,0.0171,1.1404,flat,18.0,3,3.438
700,22.40,-1.8132,3.2823,0.1891,-0.0148,0.0302,1.1086,flat,18.0,3,2.888
710,22.72,-1.5741,3.7593,0.1702,-0.0296,0.0386,1.0589,flat,18.0,3,2.363
720,23.04,-1.3326,4.1553,0.1530,-0.0148,0.0388,1.0311,flat,18.0,3,1.922
730,23.36,-1.1202,4.5650,0.1340,-0.0095,0.0463,1.1267,flat,18.0,3,1.484
740,23.68,-0.9492,4.9371,0.1154,-0.0085,0.0440,1.1116,transition,15.0,3,1.104
750,24.00,-0.7869,5.2505,0.1001,-0.0121,0.0416,0.9914,slope,18.0,0,10.008
760,24.32,-0.4955,5.6085,0.0819,-0.0183,0.0370,0.7683,slope,18.0,0,10.181
770,24.64,-0.2128,5.9074,0.0930,-0.1190,-0.0166,0.5930,rough,14.0,0,10.321
780,24.96,0.0474,6.0936,0.1152,-0.1108,-0.1276,0.4489,slope,18.0,0,10.382
790,25.28,0.2672,6.2167,0.1716,-0.1019,-0.2660,0.2404,slope,18.0,0,10.409
800,25.60,0.5058,6.2826,0.2448,-0.0566,-0.3408,0.0941,slope,18.0,0,10.382
810,25.92,0.7615,6.3070,0.3366,-0.0412,-0.3469,0.0468,slope,18.0,0,10.316
820,26.24,1.0352,6.3195,0.4358,-0.0335,-0.3490,0.0257,slope,18.0,0,10.239
830,26.56,1.3097,6.3293,0.5364,-0.0211,-0.3550,-0.0087,slope,18.0,0,10.166
840,26.88,1.5003,6.3339,0.6069,0.0550,-0.3519,-0.2252,slope,18.0,0,10.117
850,27.20,1.7587,6.2649,0.7047,0.0810,-0.3508,-0.3026,slope,18.0,0,9.983
860,27.52,2.0646,6.1432,0.8228,0.1781,-0.3163,-0.5989,slope,18.0,0,9.793
870,27.84,2.2656,5.8685,0.9066,0.3009,-0.2077,-1.0640,slope,18.0,0,9.482
880,28.16,2.3731,5.5535,0.9570,0.3585,-0.0581,-1.5048,slope,18.0,0,9.151
890,28.48,2.2302,5.2069,0.9160,0.3534,0.0603,-1.8401,rough,14.0,0,8.844
900,28.80,2.0972,4.7397,0.8776,0.3539,0.0540,-1.7494,rough,14.0,0,8.422
910,29.12,2.0227,4.3103,0.8682,0.3547,0.0231,-1.7064,rough,14.0,0,8.028
920,29.44,1.9673,3.9161,0.8563,0.3538,0.0205,-1.7024,rough,14.0,0,7.666
930,29.76,1.9191,3.5318,0.8423,0.3534,0.0335,-1.6621,rough,14.0,0,7.315
940,30.08,1.8781,3.1586,0.8231,0.3580,0.0199,-1.5365,rough,14.0,0,6.975
950,30.40,1.8953,2.7834,0.8161,0.3534,-0.0436,-1.3159,rough,14.0,0,6.617
960,30.72,1.9999,2.3966,0.8363,0.3603,-0.0934,-1.1729,slope,18.0,0,6.219
970,31.04,2.1983,1.9137,0.8790,0.3881,-0.0945,-1.1507,slope,18.0,0,5.697
980,31.36,2.4011,1.3999,0.9234,0.4193,-0.0941,-1.1940,slope,18.0,0,5.144
990,31.68,2.5947,0.8743,0.9785,0.4311,-0.1132,-1.2247,slope,18.0,0,4.584
1000,32.00,2.7799,0.3419,1.0508,0.4411,-0.1456,-1.2367,slope,18.0,0,4.021
1010,32.32,2.9608,-0.1851,1.1429,0.4362,-0.1850,-1.2364,slope,18.0,0,3.464
1020,32.64,3.1443,-0.7073,1.2492,0.4211,-0.2091,-1.2313,slope,18.0,0,2.911
1030,32.96,3.3325,-1.2274,1.3583,0.3957,-0.2102,-1.2109,slope,18.0,0,2.358
1040,33.28,3.5262,-1.7286,1.4629,0.3587,-0.1900,-1.1834,slope,18.0,0,1.821
1050,33.60,3.7055,-2.1612,1.5472,0.3450,-0.1709,-1.1743,slope,18.0,0,1.353
1060,33.92,3.8581,-2.5273,1.6114,0.3242,-0.1695,-1.1421,slope,18.0,1,7.404
1070,34.24,3.9840,-2.8927,1.6600,0.3539,-0.0609,-1.3956,slope,18.0,1,7.202
1080,34.56,3.9191,-3.2757,1.6323,0.3393,0.0977,-1.8080,slope,18.0,1,6.872
1090,34.88,3.7272,-3.6980,1.5529,0.2891,0.1899,-2.0648,slope,18.0,1,6.432
1100,35.20,3.4261,-4.1117,1.4340,0.2607,0.2462,-2.2428,slope,18.0,1,5.926
1110,35.52,3.0692,-4.4990,1.2863,0.2335,0.2754,-2.3300,slope,18.0,1,5.399
1120,35.84,2.6856,-4.8714,1.1334,0.2101,0.2933,-2.3956,slope,18.0,1,4.865
1130,36.16,2.2798,-5.2314,0.9674,0.2002,0.2996,-2.4232,slope,18.0,1,4.324
1140,36.48,1.8664,-5.5918,0.7981,0.1983,0.2995,-2.4218,slope,18.0,1,3.778
1150,36.80,1.4602,-5.9539,0.6319,0.2042,0.2934,-2.4021,slope,18.0,1,3.236
1160,37.12,1.0942,-6.2964,0.4833,0.2195,0.2800,-2.3527,slope,18.0,1,2.737
1170,37.44,0.7550,-6.6561,0.3461,0.2315,0.2636,-2.3100,slope,18.0,1,2.243
1180,37.76,0.4442,-7.0074,0.2232,0.2410,0.2515,-2.2863,slope,18.0,1,1.774
1190,38.08,0.2163,-7.2883,0.1547,0.1514,0.2296,-2.2898,slope,18.0,1,1.413
1200,38.40,0.0022,-7.5307,0.0944,0.1223,0.1345,-2.3162,slope,18.0,1,1.089
1210,38.72,-0.2884,-7.8484,0.0624,0.0810,0.0022,-2.3498,rough,14.0,2,4.925
1220,39.04,-0.5697,-8.1473,0.0455,-0.0171,-0.0170,-2.3971,flat,18.0,2,5.008
1230,39.36,-0.8726,-8.4112,0.0532,-0.0117,-0.0213,-2.4844,flat,18.0,2,5.081
1240,39.68,-1.1603,-8.6193,0.0614,-0.0079,-0.0250,-2.5922,flat,18.0,2,5.140
1250,40.00,-1.4307,-8.7694,0.0701,-0.0043,-0.0309,-2.7063,flat,18.0,2,5.174
1260,40.32,-1.6881,-8.8875,0.0790,0.0020,-0.0322,-2.8764,flat,18.0,2,5.200
1270,40.64,-1.9559,-8.9469,0.0881,0.0048,-0.0338,-2.9618,flat,18.0,2,5.182
1280,40.96,-2.1940,-8.9908,0.0964,0.0110,-0.0341,3.1291,flat,18.0,2,5.169
1290,41.28,-2.4270,-8.9948,0.1048,0.0164,-0.0329,2.9337,flat,18.0,2,5.129
1300,41.60,-2.6560,-8.9502,0.1127,0.0208,-0.0323,2.7754,flat,18.0,2,5.052
1310,41.92,-2.8859,-8.8610,0.1210,0.0238,-0.0319,2.6490,flat,18.0,2,4.940
1320,42.24,-3.1233,-8.7274,0.1299,0.0260,-0.0319,2.5491,flat,18.0,2,4.793
1330,42.56,-3.3777,-8.5466,0.1400,0.0278,-0.0323,2.4785,flat,18.0,2,4.611
1340,42.88,-3.6532,-8.3207,0.1517,0.0290,-0.0327,2.4175,flat,18.0,2,4.399
1350,43.20,-3.9581,-8.0394,0.1652,0.0302,-0.0324,2.3774,flat,18.0,2,4.158
1360,43.52,-4.3039,-7.6993,0.1807,0.0306,-0.0310,2.3541,flat,18.0,2,3.899
1370,43.84,-4.6884,-7.3058,0.1966,0.0318,-0.0273,2.3289,flat,18.0,2,3.651
1380,44.16,-5.0226,-6.9107,0.2070,0.0411,-0.0166,2.1961,rough,14.0,2,3.446
1390,44.48,-5.2395,-6.5565,0.2130,0.0349,-0.0056,2.0362,flat,18.0,2,3.271
1400,44.80,-5.3786,-6.1862,0.2110,0.0357,0.0012,1.7386,flat,18.0,2,3.075
1410,45.12,-5.4303,-5.7372,0.2068,0.0157,0.0178,1.3127,flat,18.0,2,2.803
1420,45.44,-5.2774,-5.3043,0.1963,0.0043,0.0172,0.9993,flat,18.0,2,2.420
1430,45.76,-4.9849,-4.9274,0.1878,-0.0018,0.0180,0.7917,flat,18.0,2,1.971
1440,46.08,-4.6456,-4.6127,0.1818,-0.0013,0.0061,0.6722,flat,18.0,2,1.523
1450,46.40,-4.3240,-4.3636,0.1800,-0.0001,0.0012,0.6326,flat,18.0,2,1.127
1460,46.72,-4.0337,-4.1580,0.1809,0.0018,-0.0056,0.6746,flat,18.0,3,10.652
1470,47.04,-3.7221,-3.8494,0.1846,-0.0011,-0.0118,0.9346,flat,18.0,3,10.269
1480,47.36,-3.4732,-3.4517,0.1909,-0.0033,-0.0172,1.1799,flat,18.0,3,9.820
1490,47.68,-3.2956,-2.9591,0.2016,-0.0122,-0.0209,1.3882,flat,18.0,3,9.298
1500,48.00,-3.2139,-2.4139,0.2099,-0.0229,-0.0129,1.4963,flat,18.0,3,8.750
1510,48.32,-3.1754,-1.8440,0.2159,-0.0253,-0.0093,1.4955,flat,18.0,3,8.191
1520,48.64,-3.1278,-1.2804,0.2200,-0.0247,-0.0064,1.4611,flat,18.0,3,7.636
1530,48.96,-3.0606,-0.7292,0.2226,-0.0243,-0.0031,1.3980,flat,18.0,3,7.089
1540,49.28,-2.9569,-0.1849,0.2245,-0.0223,-0.0026,1.3408,flat,18.0,3,6.539
1550,49.60,-2.8246,0.3612,0.2251,-0.0178,-0.0008,1.3119,flat,18.0,3,5.978
1560,49.92,-2.6772,0.9013,0.2249,-0.0133,0.0010,1.2686,flat,18.0,3,5.419
1570,50.24,-2.5024,1.4281,0.2232,-0.0144,0.0051,1.2102,flat,18.0,3,4.864
1580,50.56,-2.2966,1.9570,0.2191,-0.0158,0.0101,1.1832,flat,18.0,3,4.297
1590,50.88,-2.0779,2.4896,0.2098,-0.0122,0.0192,1.1825,flat,18.0,3,3.723
1600,51.20,-1.8618,3.0011,0.1990,-0.0168,0.0287,1.1425,flat,18.0,3,3.171
1610,51.52,-1.6303,3.4971,0.1820,-0.0152,0.0350,1.1209,flat,18.0,3,2.631
1620,51.84,-1.3960,3.9545,0.1623,-0.0172,0.0447,1.1012,flat,18.0,3,2.132
1630,52.16,-1.1906,4.4055,0.1413,-0.0091,0.0427,1.1743,flat,18.0,3,1.652
1640,52.48,-1.0220,4.8216,0.1213,-0.0070,0.0448,1.1593,flat,18.0,3,1.221
1650,52.80,-0.8582,5.1874,0.1037,-0.0091,0.0426,1.0633,transition,15.0,0,9.990
1660,53.12,-0.6196,5.5638,0.0852,-0.0142,0.0381,0.8598,slope,18.0,0,10.200
1670,53.44,-0.3071,5.9179,0.0859,-0.1090,0.0297,0.6811,rough,14.0,0,10.372
1680,53.76,-0.0413,6.1306,0.0988,-0.1137,-0.1342,0.5624,slope,18.0,0,10.452
1690,54.08,0.2179,6.2940,0.1572,-0.1191,-0.2255,0.2909,slope,18.0,0,10.499
1700,54.40,0.4625,6.3672,0.2271,-0.0724,-0.3381,0.1520,slope,18.0,0,10.476
1710,54.72,0.7170,6.4061,0.3180,-0.0470,-0.3451,0.0711,slope,18.0,0,10.424
1720,55.04,0.9876,6.4251,0.4158,-0.0352,-0.3489,0.0378,slope,18.0,0,10.354
1730,55.36,1.2379,6.4403,0.5072,-0.0090,-0.3538,-0.0365,slope,18.0,0,10.293
1740,55.68,1.3968,6.4273,0.5662,0.0724,-0.3504,-0.2695,slope,18.0,0,10.235
1750,56.00,1.6678,6.3481,0.6676,0.1163,-0.3469,-0.4310,slope,18.0,0,10.087
1760,56.32,1.9445,6.1702,0.7768,0.1948,-0.3063,-0.6533,slope,18.0,0,9.847
1770,56.64,2.1852,5.8867,0.8757,0.2929,-0.2182,-1.0292,slope,18.0,0,9.517
1780,56.96,2.2913,5.5744,0.9255,0.3609,-0.0289,-1.5849,slope,18.0,0,9.189
1790,57.28,2.1268,5.2094,0.8753,0.3252,0.1403,-2.0523,slope,18.0,0,8.870
1800,57.60,1.9070,4.8066,0.8094,0.3428,0.1028,-1.9482,slope,18.0,0,8.537
1810,57.92,1.7343,4.3605,0.7610,0.3426,0.0783,-1.8823,slope,18.0,0,8.160
1820,58.24,1.5987,3.9311,0.7226,0.3400,0.0729,-1.8382,slope,18.0,0,7.797
1830,58.56,1.4815,3.4802,0.6812,0.3483,0.0539,-1.7347,slope,18.0,0,7.417
1840,58.88,1.4192,3.0471,0.6541,0.3246,0.0466,-1.6312,rough,14.0,0,7.041
1850,59.20,1.4013,2.6674,0.6357,0.3367,-0.0032,-1.3948,rough,14.0,0,6.702
1860,59.52,1.4804,2.2847,0.6347,0.3144,-0.0577,-1.1819,slope,18.0,0,6.323
1870,59.84,1.6716,1.8233,0.6682,0.3618,-0.0643,-1.1158,slope,18.0,0,5.824
1880,60.16,1.9002,1.3128,0.7048,0.3913,-0.0752,-1.1482,slope,18.0,0,5.265
1890,60.48,2.1254,0.7976,0.7534,0.3857,-0.1184,-1.1623,slope,18.0,0,4.703
1900,60.80,2.3361,0.2870,0.8322,0.4123,-0.1696,-1.1619,slope,18.0,0,4.153
1910,61.12,2.5470,-0.2106,0.9380,0.4098,-0.2301,-1.1575,slope,18.0,0,3.614
1920,61.44,2.7648,-0.7054,1.0620,0.3892,-0.2608,-1.1265,slope,18.0,0,3.075
1930,61.76,3.0061,-1.1933,1.2076,0.3649,-0.2657,-1.0932,slope,18.0,0,2.531
1940,62.08,3.2613,-1.6721,1.3428,0.3485,-0.2452,-1.0713,slope,18.0,0,1.989
1950,62.40,3.5017,-2.1009,1.4640,0.3272,-0.2242,-1.0564,slope,18.0,0,1.497
1960,62.72,3.7010,-2.4530,1.5499,0.3194,-0.2063,-1.0427,slope,18.0,0,1.093
1970,63.04,3.9054,-2.8101,1.6308,0.3286,-0.1530,-1.1458,slope,18.0,1,7.214
1980,63.36,3.9840,-3.1732,1.6562,0.3447,-0.0180,-1.5066,slope,18.0,1,6.992
1990,63.68,3.8717,-3.5488,1.6096,0.3266,0.1279,-1.9114,slope,18.0,1,6.640
2000,64.00,3.6286,-3.9745,1.5079,0.2787,0.1947,-2.1639,slope,18.0,1,6.165
2010,64.32,3.2994,-4.3778,1.3790,0.2384,0.2659,-2.3076,slope,18.0,1,5.647
2020,64.64,2.9301,-4.7414,1.2285,0.2073,0.2901,-2.4113,slope,18.0,1,5.129
2030,64.96,2.5184,-5.0894,1.0611,0.1998,0.3053,-2.4526,slope,18.0,1,4.592
2040,65.28,2.0945,-5.4343,0.8896,0.1881,0.3070,-2.4616,slope,18.0,1,4.049
2050,65.60,1.6741,-5.7778,0.7186,0.1918,0.3026,-2.4440,slope,18.0,1,3.511
2060,65.92,1.2731,-6.1250,0.5558,0.1999,0.2961,-2.4068,slope,18.0,1,2.984
2070,66.24,0.9216,-6.4597,0.4139,0.2231,0.2751,-2.3425,slope,18.0,1,2.501
2080,66.56,0.5882,-6.8146,0.2809,0.2367,0.2601,-2.3001,slope,18.0,1,2.014
2090,66.88,0.3157,-7.1353,0.1836,0.2005,0.2249,-2.2847,rough,14.0,1,1.593
2100,67.20,0.1021,-7.3991,0.1224,0.1165,0.2067,-2.2944,slope,18.0,1,1.254
2110,67.52,-0.1134,-7.6400,0.0759,0.1026,0.1019,-2.3199,slope,18.0,2,4.873
2120,67.84,-0.4079,-7.9890,0.0533,-0.0452,0.0862,-2.3407,rough,14.0,2,4.967
2130,68.16,-0.6759,-8.2475,0.0485,-0.0140,-0.0159,-2.4020,flat,18.0,2,5.037
2140,68.48,-0.9656,-8.5045,0.0559,-0.0101,-0.0228,-2.5047,flat,18.0,2,5.121
2150,68.80,-1.2426,-8.6909,0.0641,-0.0067,-0.0273,-2.6092,flat,18.0,2,5.172
2160,69.12,-1.5010,-8.8353,0.0728,-0.0018,-0.0315,-2.7583,flat,18.0,2,5.212
2170,69.44,-1.7547,-8.9330,0.0816,0.0041,-0.0327,-2.9221,flat,18.0,2,5.224
2180,69.76,-2.0144,-8.9806,0.0903,0.0069,-0.0336,-3.0136,flat,18.0,2,5.200
2190,70.08,-2.2452,-9.0137,0.0984,0.0133,-0.0340,3.0688,flat,18.0,2,5.181
2200,70.40,-2.4729,-9.0035,0.1065,0.0183,-0.0325,2.8831,flat,18.0,2,5.130
2210,70.72,-2.6977,-8.9470,0.1143,0.0218,-0.0315,2.7337,flat,18.0,2,5.044
2220,71.04,-2.9249,-8.8467,0.1224,0.0248,-0.0316,2.6143,flat,18.0,2,4.922
2230,71.36,-3.1612,-8.7016,0.1314,0.0268,-0.0315,2.5204,flat,18.0,2,4.766
2240,71.68,-3.4163,-8.5095,0.1416,0.0285,-0.0321,2.4545,flat,18.0,2,4.574
2250,72.00,-3.6940,-8.2704,0.1535,0.0296,-0.0324,2.3988,flat,18.0,2,4.353
2260,72.32,-4.0040,-7.9749,0.1673,0.0306,-0.0321,2.3618,flat,18.0,2,4.102
2270,72.64,-4.3565,-7.6191,0.1830,0.0306,-0.0306,2.3430,flat,18.0,2,3.836
2280,72.96,-4.7257,-7.2230,0.1979,0.0326,-0.0243,2.2736,flat,18.0,2,3.589
2290,73.28,-5.0382,-6.8173,0.2071,0.0372,-0.0157,2.1337,rough,14.0,2,3.374
2300,73.60,-5.2307,-6.4582,0.2117,0.0333,-0.0026,1.9674,flat,18.0,2,3.187
2310,73.92,-5.3564,-6.0754,0.2109,0.0294,0.0085,1.7792,flat,18.0,2,2.980
2320,74.24,-5.4343,-5.6358,0.2041,0.0161,0.0207,1.4917,flat,18.0,2,2.743
2330,74.56,-5.3658,-5.1998,0.1964,0.0030,0.0175,1.0740,flat,18.0,2,2.437
2340,74.88,-5.1225,-4.8095,0.1860,-0.0053,0.0027,0.8148,flat,18.0,2,2.038
2350,75.20,-4.7847,-4.4798,0.1821,-0.0065,0.0087,0.6826,flat,18.0,2,1.599
2360,75.52,-4.4597,-4.2287,0.1804,-0.0034,0.0008,0.6047,flat,18.0,2,1.214
2370,75.84,-4.1675,-4.0416,0.1807,-0.0006,-0.0055,0.5560,flat,18.0,3,10.581
2380,76.16,-3.8417,-3.8262,0.1836,-0.0002,-0.0110,0.7722,flat,18.0,3,10.280
2390,76.48,-3.5399,-3.4635,0.1898,-0.0044,-0.0122,1.0333,flat,18.0,3,9.849
2400,76.80,-3.3133,-3.0212,0.2005,-0.0120,-0.0197,1.2414,flat,18.0,3,9.363
2410,77.12,-3.1642,-2.5142,0.2100,-0.0200,-0.0168,1.4288,flat,18.0,3,8.835
2420,77.44,-3.0991,-1.9595,0.2171,-0.0243,-0.0106,1.5039,flat,18.0,3,8.282
2430,77.76,-3.0598,-1.3905,0.2194,-0.0134,-0.0085,1.4872,flat,18.0,3,7.723
2440,78.08,-3.0092,-0.8337,0.2238,-0.0245,-0.0044,1.4250,flat,18.0,3,7.174
2450,78.40,-2.9179,-0.2804,0.2255,-0.0208,-0.0008,1.3817,flat,18.0,3,6.618
2460,78.72,-2.8087,0.2640,0.2256,-0.0163,-0.0001,1.3575,flat,18.0,3,6.066
2470,79.04,-2.6862,0.8112,0.2252,-0.0132,0.0016,1.3269,flat,18.0,3,5.508
2480,79.36,-2.5435,1.3396,0.2235,-0.0142,0.0051,1.2534,flat,18.0,3,4.961
2490,79.68,-2.3607,1.8658,0.2198,-0.0157,0.0101,1.1962,flat,18.0,3,4.404
2500,80.00,-2.1478,2.3950,0.2119,-0.0145,0.0232,1.1807,flat,18.0,3,3.835
2510,80.32,-1.9313,2.9136,0.2010,-0.0174,0.0254,1.1418,flat,18.0,3,3.275
2520,80.64,-1.6973,3.4102,0.1850,-0.0149,0.0329,1.1144,flat,18.0,3,2.732
2530,80.96,-1.4650,3.8712,0.1661,-0.0222,0.0344,1.0424,flat,18.0,3,2.228
2540,81.28,-1.2313,4.3086,0.1464,-0.0122,0.0446,1.1153,flat,18.0,3,1.753
2550,81.60,-1.0507,4.7156,0.1263,-0.0083,0.0457,1.1483,flat,18.0,3,1.328
2560,81.92,-0.8845,5.0780,0.1085,-0.0086,0.0437,1.0910,transition,15.0,0,9.909
2570,82.24,-0.6787,5.4175,0.0917,-0.0145,0.0399,0.8823,slope,18.0,0,10.100
2580,82.56,-0.3522,5.7640,0.0875,-0.0919,0.0327,0.6610,rough,14.0,0,10.254
2590,82.88,-0.0790,5.9741,0.1006,-0.1095,-0.1154,0.5244,slope,18.0,0,10.325
2600,83.20,0.2619,6.1705,0.1735,-0.1027,-0.3075,0.4353,slope,18.0,0,10.368
2610,83.52,0.6587,6.3583,0.2966,-0.1456,-0.3225,0.3383,slope,18.0,0,10.399
2620,83.84,1.0965,6.4947,0.4458,-0.0911,-0.3461,0.1299,slope,18.0,0,10.387
2630,84.16,1.5189,6.5328,0.6084,-0.0143,-0.3561,-0.0173,slope,18.0,0,10.304
2640,84.48,1.9063,6.5219,0.7539,-0.0066,-0.3619,-0.0338,slope,18.0,0,10.198
2650,84.80,2.3332,6.5050,0.9162,0.0105,-0.3663,-0.0794,slope,18.0,0,10.092
2660,85.12,2.6229,6.4727,1.0278,0.0777,-0.3593,-0.2664,slope,18.0,0,10.010
2670,85.44,2.8491,6.3696,1.1174,0.1414,-0.3439,-0.4541,slope,18.0,0,9.874
2680,85.76,3.1513,6.1839,1.2361,0.2176,-0.2951,-0.7364,slope,18.0,0,9.651
2690,86.08,3.3873,5.8548,1.3381,0.3044,-0.2224,-1.0217,slope,18.0,0,9.300
2700,86.40,3.5297,5.4557,1.4035,0.3537,-0.1120,-1.3470,slope,18.0,0,8.890
2710,86.72,3.5042,4.9958,1.4070,0.3669,0.0211,-1.7042,rough,14.0,0,8.434
2720,87.04,3.4346,4.5872,1.3929,0.3658,0.0180,-1.6978,rough,14.0,0,8.034
2730,87.36,3.3885,4.2083,1.3861,0.3646,0.0021,-1.6446,rough,14.0,0,7.662
2740,87.68,3.3618,3.8295,1.3829,0.3644,0.0057,-1.6050,rough,14.0,0,7.288
2750,88.00,3.3470,3.4549,1.3859,0.3673,-0.0122,-1.5748,rough,14.0,0,6.919
2760,88.32,3.3471,3.0724,1.3856,0.3777,-0.0848,-1.3710,slope,18.0,0,6.539
2770,88.64,3.4509,2.6094,1.4275,0.3682,-0.0881,-1.3023,slope,18.0,0,6.067
2780,88.96,3.5477,2.0798,1.4570,0.4118,-0.0539,-1.3991,slope,18.0,0,5.529
2790,89.28,3.6049,1.5685,1.4735,0.4147,-0.0165,-1.4595,rough,14.0,0,5.015
2800,89.60,3.6500,1.1444,1.4827,0.4159,-0.0486,-1.4013,rough,14.0,0,4.588
2810,89.92,3.7244,0.6865,1.5088,0.4150,-0.0798,-1.3725,slope,18.0,0,4.125
