step,time_s,x,y,z,roll,pitch,yaw,terrain,speed,target_idx,dist_to_target
10,0.32,2.1271,0.5014,0.3169,0.0698,-0.0554,0.1329,rough,14.0,0,5.964
20,0.64,2.5601,0.5809,0.2427,-0.0107,0.2813,0.1251,rough,14.0,0,5.812
30,0.96,2.9823,0.6359,0.1059,-0.1128,0.3987,0.0467,rough,14.0,0,5.672
40,1.28,3.3253,0.6602,-0.0109,-0.1908,0.2070,-0.1353,rough,14.0,0,5.560
50,1.60,3.6687,0.6033,-0.0503,-0.1889,0.0432,-0.2720,rough,14.0,0,5.391
60,1.92,4.0506,0.4469,-0.1198,0.0001,0.0338,-0.4176,rough,14.0,0,5.133
70,2.24,4.4456,0.2295,-0.2011,-0.0573,0.3669,-0.5938,rough,14.0,0,4.834
80,2.56,4.7753,0.0410,-0.2998,-0.2456,0.1671,-0.7935,rough,14.0,0,4.597
90,2.88,5.0452,-0.1883,-0.3317,-0.3594,-0.1000,-0.8162,rough,14.0,0,4.342
100,3.20,5.2847,-0.4831,-0.2930,-0.1616,-0.2712,-0.8875,rough,14.0,0,4.038
110,3.52,5.5427,-0.8279,-0.2262,-0.1293,-0.0072,-1.0246,rough,14.0,0,3.698
120,3.84,5.7373,-1.1949,-0.2132,-0.0315,-0.0147,-1.1216,rough,14.0,0,3.349
130,4.16,5.8624,-1.5835,-0.2064,0.1688,-0.0136,-1.2054,rough,14.0,0,2.982
140,4.48,5.9547,-1.9628,-0.1840,0.2892,-0.1459,-1.3456,rough,14.0,0,2.629
150,4.80,6.0075,-2.3446,-0.1197,0.3247,-0.2477,-1.4874,rough,14.0,0,2.275
160,5.12,6.0425,-2.7554,-0.0626,0.1359,-0.1603,-1.5329,rough,14.0,0,1.898
170,5.44,6.0806,-3.1841,-0.0297,-0.0452,-0.0848,-1.6300,rough,14.0,0,1.525
180,5.76,6.0608,-3.6254,-0.0391,-0.1379,0.0094,-1.7566,rough,14.0,0,1.146
190,6.08,5.9218,-4.0715,-0.0921,-0.0504,0.3473,-1.9333,rough,14.0,1,12.576
200,6.40,5.7594,-4.4179,-0.2274,-0.1195,0.4810,-2.2249,rough,14.0,1,12.835
210,6.72,5.5734,-4.6719,-0.3548,-0.2131,0.2940,-2.5094,rough,14.0,1,13.005
220,7.04,5.3537,-4.8442,-0.4020,-0.1956,0.0786,-2.7931,rough,14.0,1,13.092
230,7.36,5.1117,-4.9334,-0.3988,-0.1654,-0.1697,-3.0102,rough,14.0,1,13.099
240,7.68,4.7311,-4.9550,-0.3868,-0.1036,0.1254,3.0013,rough,14.0,1,13.006
250,8.00,4.3315,-4.8608,-0.4706,-0.0468,0.3095,2.7908,rough,14.0,1,12.806
260,8.32,3.9446,-4.6970,-0.6152,-0.0719,0.4518,2.6359,rough,14.0,1,12.552
270,8.64,3.6346,-4.5226,-0.7256,-0.0489,0.1605,2.5208,rough,14.0,1,12.313
280,8.96,3.3538,-4.3274,-0.7232,-0.0395,-0.1430,2.4585,rough,14.0,1,12.065
290,9.28,3.0498,-4.0990,-0.6912,-0.1206,-0.1639,2.3951,rough,14.0,1,11.785
300,9.60,2.7697,-3.8389,-0.6120,-0.1516,-0.1737,2.3283,rough,14.0,1,11.483
310,9.92,2.4561,-3.5574,-0.6378,-0.3295,-0.0340,2.2597,rough,14.0,1,11.160
320,10.24,2.1840,-3.3428,-0.6408,-0.4435,-0.1130,2.2786,rough,14.0,1,10.915
330,10.56,1.9509,-3.1135,-0.5740,-0.4692,-0.4553,2.2836,rough,14.0,1,10.664
340,10.88,1.7317,-2.8469,-0.4332,-0.3229,-0.3914,2.2637,rough,14.0,1,10.381
350,11.20,1.5015,-2.5859,-0.3020,-0.2855,-0.3807,2.1952,rough,14.0,1,10.107
360,11.52,1.2747,-2.2538,-0.1719,-0.2359,-0.2770,2.0999,rough,14.0,1,9.767
370,11.84,1.0772,-1.8854,-0.0636,-0.1694,-0.2539,2.0333,rough,14.0,1,9.395
380,12.16,0.9052,-1.5021,0.0371,-0.1059,-0.2597,1.9573,rough,14.0,1,9.013
390,12.48,0.7647,-1.0956,0.1240,-0.0485,-0.1856,1.8918,rough,14.0,1,8.609
400,12.80,0.6382,-0.6718,0.1847,-0.0249,-0.1009,1.8374,rough,14.0,1,8.190
410,13.12,0.5181,-0.2517,0.2058,-0.0808,-0.0455,1.8061,rough,14.0,1,7.778
420,13.44,0.4175,0.1664,0.2223,-0.0885,-0.0161,1.7838,rough,14.0,1,7.368
430,13.76,0.3269,0.5797,0.2402,-0.0946,-0.0515,1.7580,rough,14.0,1,6.965
440,14.08,0.2535,0.9951,0.2781,-0.0814,-0.1280,1.7235,rough,14.0,1,6.560
450,14.40,0.1939,1.4087,0.3401,-0.0718,-0.2165,1.6853,rough,14.0,1,6.157
460,14.72,0.1453,1.8302,0.4097,-0.0786,-0.1318,1.6674,rough,14.0,1,5.746
470,15.04,0.1104,2.2852,0.4470,-0.0754,0.0171,1.6225,rough,14.0,1,5.303
480,15.36,0.1310,2.7463,0.4094,0.0412,0.1639,1.5884,rough,14.0,1,4.846
490,15.68,0.1937,3.2328,0.2401,0.4334,0.4334,1.7411,rough,14.0,1,4.356
500,16.00,0.1968,3.6325,0.0155,0.2530,0.5134,1.4030,rough,14.0,1,3.963
510,16.32,0.3080,4.0417,-0.2596,0.2473,0.5848,1.3953,rough,14.0,1,3.540
520,16.64,0.3770,4.4520,-0.5045,0.2384,0.4683,1.4232,rough,14.0,1,3.124
530,16.96,0.4348,4.8598,-0.7047,0.1896,0.5004,1.4344,rough,14.0,1,2.714
540,17.28,0.4914,5.2605,-0.9077,0.1668,0.4684,1.4236,rough,14.0,1,2.310
550,17.60,0.5459,5.6742,-1.1200,0.1585,0.5133,1.4503,rough,14.0,1,1.896
560,17.92,0.5964,6.0636,-1.3167,0.1091,0.4468,1.4120,rough,14.0,1,1.507
570,18.24,0.6456,6.4152,-1.4307,0.0537,0.0841,1.3571,rough,14.0,1,1.157
580,18.56,0.6923,6.8028,-1.4528,-0.0928,-0.0982,1.3306,rough,14.0,2,14.527
590,18.88,0.6833,7.0002,-1.4344,-0.1348,-0.2904,1.6391,rough,14.0,2,14.681
600,19.20,0.5849,7.2353,-1.3710,-0.1702,-0.3266,1.9993,rough,14.0,2,14.816
610,19.52,0.4643,7.3744,-1.3011,-0.2153,-0.4398,2.2587,rough,14.0,2,14.862
620,19.84,0.2624,7.4966,-1.2207,-0.4252,-0.4344,2.5747,rough,14.0,2,14.851
630,20.16,0.0196,7.6109,-1.1572,-0.4052,-0.2142,2.7796,rough,14.0,2,14.816
640,20.48,-0.3002,7.6883,-1.1309,-0.3449,-0.0000,2.9773,rough,14.0,2,14.714
650,20.80,-0.6997,7.7476,-1.2049,-0.0217,0.3020,3.1189,rough,14.0,2,14.563
660,21.12,-1.0594,7.7733,-1.2371,0.1197,-0.0743,3.0599,rough,14.0,2,14.412
670,21.44,-1.2925,7.7961,-1.1797,0.2374,-0.4614,-3.1353,rough,14.0,2,14.323
680,21.76,-1.4497,7.8163,-1.1159,0.2899,-0.5623,3.0052,rough,14.0,2,14.269
690,22.08,-1.6679,7.8410,-0.9964,0.1875,-0.4489,3.0455,rough,14.0,2,14.194
700,22.40,-1.9090,7.8724,-0.8972,0.1536,-0.4580,-3.1387,rough,14.0,2,14.118
710,22.72,-2.1740,7.8546,-0.7681,0.1026,-0.4608,-3.0832,rough,14.0,2,13.992
720,23.04,-2.4156,7.8497,-0.6813,0.1856,-0.3551,-3.1261,rough,14.0,2,13.890
730,23.36,-2.7421,7.9456,-0.6460,0.4713,-0.2989,-2.9054,rough,14.0,2,13.854
740,23.68,-2.9150,8.0037,-0.6270,0.2355,-0.7391,-2.7767,rough,14.0,2,13.844
750,24.00,-3.1674,7.9960,-0.5476,0.4510,-0.6305,-2.8021,rough,14.0,2,13.748
760,24.32,-3.3738,8.0202,-0.4876,0.3930,-0.7335,-2.6717,rough,14.0,2,13.702
770,24.64,-3.4885,8.1116,-0.5081,0.3569,-0.7431,-2.6455,rough,14.0,2,13.751
780,24.96,-3.5362,8.2847,-0.6270,0.2388,-0.7679,-2.5135,rough,14.0,2,13.900
790,25.28,-3.5553,8.4496,-0.7398,-0.2748,-0.7484,-1.8407,rough,14.0,2,14.051
800,25.60,-3.4303,8.4841,-0.8312,-0.5871,-0.4094,-1.1978,rough,14.0,2,14.123
810,25.92,-3.2724,8.4323,-0.8406,-0.5653,-0.4858,-1.0115,rough,14.0,2,14.124
820,26.24,-3.0832,8.3107,-0.8094,-0.4747,-0.4343,-0.8433,rough,14.0,2,14.073
830,26.56,-2.8682,8.1374,-0.7316,-0.4784,-0.3369,-0.9343,rough,14.0,2,13.986
840,26.88,-2.6638,7.8997,-0.6622,-0.3099,-0.1963,-1.0996,rough,14.0,2,13.840
850,27.20,-2.4789,7.5917,-0.5899,-0.3515,-0.1155,-1.2131,rough,14.0,2,13.628
860,27.52,-2.2460,7.2787,-0.6080,-0.6497,-0.2297,-1.3682,rough,14.0,2,13.438
870,27.84,-2.1500,6.9545,-0.5356,-0.4692,-0.4287,-1.4686,rough,14.0,2,13.186
880,28.16,-2.1067,6.6140,-0.3732,-0.4225,-0.4556,-1.4193,rough,14.0,2,12.900
890,28.48,-2.0214,6.3314,-0.2394,-0.5085,-0.5660,-1.2700,rough,14.0,2,12.687
900,28.80,-1.8703,6.0929,-0.1411,-0.5946,-0.5077,-1.2745,rough,14.0,2,12.548
910,29.12,-1.6592,5.8196,-0.1284,-0.6592,-0.3477,-1.3716,rough,14.0,2,12.413
920,29.44,-1.5200,5.4740,-0.0680,-0.6209,-0.3118,-1.4453,rough,14.0,2,12.188
930,29.76,-1.4328,5.0948,0.0411,-0.6313,-0.4501,-1.4819,rough,14.0,2,11.914
940,30.08,-1.3938,4.7328,0.1919,-0.5626,-0.5012,-1.4992,rough,14.0,2,11.633
950,30.40,-1.4047,4.3493,0.3589,-0.3495,-0.4139,-1.5962,rough,14.0,2,11.311
960,30.72,-1.4439,3.9461,0.5003,-0.2127,-0.3085,-1.7314,rough,14.0,2,10.960
970,31.04,-1.5381,3.5091,0.5792,-0.1638,-0.1220,-1.8367,rough,14.0,2,10.552
980,31.36,-1.6833,3.0504,0.5831,-0.0998,0.1530,-1.9046,rough,14.0,2,10.100
990,31.68,-1.8470,2.6320,0.5115,-0.0288,0.2169,-1.9344,rough,14.0,2,9.670
1000,32.00,-2.0107,2.2128,0.3902,-0.0370,0.3251,-1.9690,rough,14.0,2,9.242
1010,32.32,-2.1809,1.8249,0.2572,-0.0315,0.3153,-1.9995,rough,14.0,2,8.835
1020,32.64,-2.3609,1.4459,0.1266,-0.0631,0.3068,-2.0353,rough,14.0,2,8.430
1030,32.96,-2.5583,1.0802,0.0228,-0.0085,0.2232,-2.0549,rough,14.0,2,8.025
1040,33.28,-2.7643,0.7102,-0.0507,0.0278,0.1550,-2.0780,rough,14.0,2,7.613
1050,33.60,-2.9725,0.3508,-0.0906,0.0256,0.0214,-2.1082,rough,14.0,2,7.207
1060,33.92,-3.1799,0.0088,-0.0659,0.0259,-0.1618,-2.1353,rough,14.0,2,6.816
1070,34.24,-3.3838,-0.3502,0.0008,-0.0756,-0.2531,-2.1458,rough,14.0,2,6.417
1080,34.56,-3.5900,-0.6711,0.1350,-0.0857,-0.4411,-2.1427,rough,14.0,2,6.044
1090,34.88,-3.8225,-0.9854,0.3092,0.0238,-0.4810,-2.1639,rough,14.0,2,5.658
1100,35.20,-4.0360,-1.2902,0.5191,0.0508,-0.5477,-2.1796,rough,14.0,2,5.294
1110,35.52,-4.2648,-1.5927,0.7348,0.1000,-0.5237,-2.1967,rough,14.0,2,4.920
1120,35.84,-4.5069,-1.9083,0.9376,0.1139,-0.4051,-2.2062,rough,14.0,2,4.529
1130,36.16,-4.7829,-2.2464,1.0718,0.2054,-0.2363,-2.2302,rough,14.0,2,4.099
1140,36.48,-5.0136,-2.5307,1.1124,0.4262,-0.1192,-2.3775,rough,14.0,2,3.739
1150,36.80,-5.1041,-2.5970,1.0971,0.4266,0.1447,-2.7132,rough,14.0,2,3.627
1160,37.12,-5.0992,-2.6327,1.1138,0.4138,0.2088,-2.9159,rough,14.0,2,3.608
1170,37.44,-5.1012,-2.6492,1.1185,0.3889,0.2486,-3.0016,rough,14.0,2,3.596
1180,37.76,-5.1017,-2.6540,1.1194,0.3811,0.2625,-3.0263,rough,14.0,2,3.593
1190,38.08,-5.1052,-2.6552,1.1191,0.3795,0.2611,-3.0324,rough,14.0,2,3.589
1200,38.40,-5.1055,-2.6556,1.1192,0.3791,0.2616,-3.0340,rough,14.0,2,3.589
1210,38.72,-5.1056,-2.6558,1.1192,0.3789,0.2618,-3.0344,rough,14.0,2,3.589
1220,39.04,-5.1056,-2.6559,1.1192,0.3789,0.2619,-3.0345,rough,14.0,2,3.588
1230,39.36,-5.1057,-2.6560,1.1192,0.3788,0.2620,-3.0345,rough,14.0,2,3.588
1240,39.68,-5.1057,-2.6560,1.1192,0.3788,0.2621,-3.0345,rough,14.0,2,3.588
1250,40.00,-5.1058,-2.6561,1.1193,0.3788,0.2621,-3.0345,rough,14.0,2,3.588
1260,40.32,-5.1058,-2.6562,1.1193,0.3788,0.2622,-3.0345,rough,14.0,2,3.588
1270,40.64,-5.1058,-2.6563,1.1193,0.3788,0.2622,-3.0345,rough,14.0,2,3.588
1280,40.96,-5.1059,-2.6564,1.1193,0.3788,0.2623,-3.0344,rough,14.0,2,3.588
1290,41.28,-5.1059,-2.6564,1.1193,0.3788,0.2623,-3.0344,rough,14.0,2,3.588
1300,41.60,-5.1059,-2.6565,1.1193,0.3788,0.2624,-3.0344,rough,14.0,2,3.588
1310,41.92,-5.1059,-2.6566,1.1193,0.3788,0.2624,-3.0344,rough,14.0,2,3.588
1320,42.24,-5.1059,-2.6567,1.1193,0.3788,0.2624,-3.0344,rough,14.0,2,3.588
1330,42.56,-5.1060,-2.6568,1.1194,0.3788,0.2625,-3.0344,rough,14.0,2,3.588
1340,42.88,-5.1060,-2.6568,1.1194,0.3788,0.2625,-3.0343,rough,14.0,2,3.588
1350,43.20,-5.1060,-2.6569,1.1194,0.3788,0.2625,-3.0343,rough,14.0,2,3.588
1360,43.52,-5.1060,-2.6570,1.1194,0.3788,0.2626,-3.0343,rough,14.0,2,3.587
1370,43.84,-5.1060,-2.6571,1.1194,0.3788,0.2626,-3.0343,rough,14.0,2,3.587
1380,44.16,-5.1060,-2.6571,1.1195,0.3788,0.2627,-3.0343,rough,14.0,2,3.587
1390,44.48,-5.1060,-2.6572,1.1195,0.3788,0.2627,-3.0343,rough,14.0,2,3.587
1400,44.80,-5.1060,-2.6573,1.1195,0.3788,0.2627,-3.0343,rough,14.0,2,3.587
1410,45.12,-5.1060,-2.6574,1.1195,0.3788,0.2627,-3.0342,rough,14.0,2,3.587
1420,45.44,-5.1061,-2.6574,1.1195,0.3788,0.2628,-3.0342,rough,14.0,2,3.587
1430,45.76,-5.1061,-2.6575,1.1196,0.3788,0.2628,-3.0342,rough,14.0,2,3.587
1440,46.08,-5.1061,-2.6576,1.1196,0.3788,0.2628,-3.0342,rough,14.0,2,3.587
1450,46.40,-5.1061,-2.6577,1.1196,0.3788,0.2629,-3.0342,rough,14.0,2,3.587
1460,46.72,-5.1061,-2.6577,1.1196,0.3788,0.2629,-3.0342,rough,14.0,2,3.587
1470,47.04,-5.1061,-2.6578,1.1196,0.3788,0.2629,-3.0342,rough,14.0,2,3.587
1480,47.36,-5.1061,-2.6579,1.1197,0.3788,0.2630,-3.0342,rough,14.0,2,3.587
1490,47.68,-5.1061,-2.6580,1.1197,0.3788,0.2630,-3.0342,rough,14.0,2,3.587
1500,48.00,-5.1061,-2.6580,1.1197,0.3788,0.2630,-3.0341,rough,14.0,2,3.587
1510,48.32,-5.1061,-2.6581,1.1197,0.3788,0.2630,-3.0341,rough,14.0,2,3.587
1520,48.64,-5.1061,-2.6582,1.1198,0.3788,0.2631,-3.0341,rough,14.0,2,3.587
1530,48.96,-5.1061,-2.6583,1.1198,0.3788,0.2631,-3.0341,rough,14.0,2,3.587
1540,49.28,-5.1061,-2.6583,1.1198,0.3788,0.2631,-3.0341,rough,14.0,2,3.587
1550,49.60,-5.1061,-2.6584,1.1198,0.3788,0.2632,-3.0341,rough,14.0,2,3.587
1560,49.92,-5.1061,-2.6585,1.1198,0.3788,0.2632,-3.0341,rough,14.0,2,3.586
1570,50.24,-5.1061,-2.6586,1.1199,0.3788,0.2632,-3.0341,rough,14.0,2,3.586
1580,50.56,-5.1061,-2.6586,1.1199,0.3788,0.2632,-3.0341,rough,14.0,2,3.586
1590,50.88,-5.1061,-2.6587,1.1199,0.3788,0.2633,-3.0340,rough,14.0,2,3.586
1600,51.20,-5.1061,-2.6588,1.1199,0.3788,0.2633,-3.0340,rough,14.0,2,3.586
1610,51.52,-5.1061,-2.6589,1.1200,0.3788,0.2633,-3.0340,rough,14.0,2,3.586
1620,51.84,-5.1061,-2.6589,1.1200,0.3788,0.2633,-3.0340,rough,14.0,2,3.586
1630,52.16,-5.1061,-2.6590,1.1200,0.3788,0.2634,-3.0340,rough,14.0,2,3.586
1640,52.48,-5.1061,-2.6591,1.1200,0.3788,0.2634,-3.0340,rough,14.0,2,3.586
1650,52.80,-5.1061,-2.6592,1.1200,0.3788,0.2634,-3.0340,rough,14.0,2,3.586
1660,53.12,-5.1061,-2.6592,1.1201,0.3788,0.2634,-3.0340,rough,14.0,2,3.586
1670,53.44,-5.1061,-2.6593,1.1201,0.3788,0.2635,-3.0340,rough,14.0,2,3.586
1680,53.76,-5.1061,-2.6594,1.1201,0.3788,0.2635,-3.0339,rough,14.0,2,3.586
1690,54.08,-5.1061,-2.6594,1.1201,0.3788,0.2635,-3.0339,rough,14.0,2,3.586
1700,54.40,-5.1061,-2.6595,1.1202,0.3788,0.2636,-3.0339,rough,14.0,2,3.586
1710,54.72,-5.1061,-2.6596,1.1202,0.3788,0.2636,-3.0339,rough,14.0,2,3.586
1720,55.04,-5.1061,-2.6597,1.1202,0.3788,0.2636,-3.0339,rough,14.0,2,3.586
1730,55.36,-5.1061,-2.6597,1.1202,0.3788,0.2636,-3.0339,rough,14.0,2,3.586
1740,55.68,-5.1061,-2.6598,1.1203,0.3788,0.2637,-3.0339,rough,14.0,2,3.586
1750,56.00,-5.1061,-2.6599,1.1203,0.3788,0.2637,-3.0339,rough,14.0,2,3.586
1760,56.32,-5.1061,-2.6599,1.1203,0.3788,0.2637,-3.0339,rough,14.0,2,3.586
1770,56.64,-5.1061,-2.6600,1.1203,0.3789,0.2637,-3.0338,rough,14.0,2,3.585
1780,56.96,-5.1061,-2.6601,1.1203,0.3789,0.2638,-3.0338,rough,14.0,2,3.585
1790,57.28,-5.1061,-2.6602,1.1204,0.3789,0.2638,-3.0338,rough,14.0,2,3.585
1800,57.60,-5.1061,-2.6602,1.1204,0.3789,0.2638,-3.0338,rough,14.0,2,3.585
1810,57.92,-5.1062,-2.6603,1.1204,0.3789,0.2638,-3.0338,rough,14.0,2,3.585
1820,58.24,-5.1062,-2.6604,1.1204,0.3789,0.2639,-3.0338,rough,14.0,2,3.585
1830,58.56,-5.1062,-2.6605,1.1205,0.3789,0.2639,-3.0338,rough,14.0,2,3.585
1840,58.88,-5.1062,-2.6605,1.1205,0.3789,0.2639,-3.0338,rough,14.0,2,3.585
1850,59.20,-5.1062,-2.6606,1.1205,0.3789,0.2639,-3.0338,rough,14.0,2,3.585
1860,59.52,-5.1062,-2.6607,1.1205,0.3789,0.2640,-3.0338,rough,14.0,2,3.585
1870,59.84,-5.1062,-2.6607,1.1205,0.3789,0.2640,-3.0337,rough,14.0,2,3.585
1880,60.16,-5.1062,-2.6608,1.1206,0.3789,0.2640,-3.0337,rough,14.0,2,3.585
1890,60.48,-5.1062,-2.6609,1.1206,0.3789,0.2640,-3.0337,rough,14.0,2,3.585
1900,60.80,-5.1062,-2.6610,1.1206,0.3789,0.2641,-3.0337,rough,14.0,2,3.585
1910,61.12,-5.1062,-2.6610,1.1206,0.3789,0.2641,-3.0337,rough,14.0,2,3.585
1920,61.44,-5.1062,-2.6611,1.1207,0.3789,0.2641,-3.0337,rough,14.0,2,3.585
1930,61.76,-5.1062,-2.6612,1.1207,0.3789,0.2642,-3.0337,rough,14.0,2,3.585
1940,62.08,-5.1062,-2.6612,1.1207,0.3789,0.2642,-3.0337,rough,14.0,2,3.585
1950,62.40,-5.1062,-2.6613,1.1207,0.3789,0.2642,-3.0337,rough,14.0,2,3.585
1960,62.72,-5.1062,-2.6614,1.1207,0.3789,0.2642,-3.0337,rough,14.0,2,3.585
1970,63.04,-5.1062,-2.6614,1.1208,0.3789,0.2643,-3.0336,rough,14.0,2,3.585
1980,63.36,-5.1062,-2.6615,1.1208,0.3789,0.2643,-3.0336,rough,14.0,2,3.585
1990,63.68,-5.1062,-2.6616,1.1208,0.3789,0.2643,-3.0336,rough,14.0,2,3.584
2000,64.00,-5.1062,-2.6617,1.1208,0.3789,0.2643,-3.0336,rough,14.0,2,3.584
2010,64.32,-5.1062,-2.6617,1.1209,0.3789,0.2644,-3.0336,rough,14.0,2,3.584
2020,64.64,-5.1062,-2.6618,1.1209,0.3789,0.2644,-3.0336,rough,14.0,2,3.584
2030,64.96,-5.1062,-2.6619,1.1209,0.3789,0.2644,-3.0336,rough,14.0,2,3.584
2040,65.28,-5.1062,-2.6619,1.1209,0.3789,0.2644,-3.0336,rough,14.0,2,3.584
2050,65.60,-5.1062,-2.6620,1.1209,0.3789,0.2645,-3.0336,rough,14.0,2,3.584
2060,65.92,-5.1062,-2.6621,1.1210,0.3789,0.2645,-3.0336,rough,14.0,2,3.584
2070,66.24,-5.1062,-2.6621,1.1210,0.3789,0.2645,-3.0335,rough,14.0,2,3.584
2080,66.56,-5.1062,-2.6622,1.1210,0.3789,0.2645,-3.0335,rough,14.0,2,3.584
2090,66.88,-5.1062,-2.6623,1.1210,0.3789,0.2646,-3.0335,rough,14.0,2,3.584
2100,67.20,-5.1062,-2.6624,1.1210,0.3789,0.2646,-3.0335,rough,14.0,2,3.584
2110,67.52,-5.1062,-2.6624,1.1211,0.3789,0.2646,-3.0335,rough,14.0,2,3.584
2120,67.84,-5.1062,-2.6625,1.1211,0.3789,0.2646,-3.0335,rough,14.0,2,3.584
2130,68.16,-5.1062,-2.6626,1.1211,0.3790,0.2647,-3.0335,rough,14.0,2,3.584
2140,68.48,-5.1062,-2.6626,1.1211,0.3790,0.2647,-3.0335,rough,14.0,2,3.584
2150,68.80,-5.1062,-2.6627,1.1212,0.3790,0.2647,-3.0335,rough,14.0,2,3.584
2160,69.12,-5.1062,-2.6628,1.1212,0.3790,0.2647,-3.0335,rough,14.0,2,3.584
2170,69.44,-5.1062,-2.6628,1.1212,0.3790,0.2648,-3.0334,rough,14.0,2,3.584
2180,69.76,-5.1062,-2.6629,1.1212,0.3790,0.2648,-3.0334,rough,14.0,2,3.584
2190,70.08,-5.1062,-2.6630,1.1212,0.3790,0.2648,-3.0334,rough,14.0,2,3.584
2200,70.40,-5.1062,-2.6630,1.1213,0.3790,0.2648,-3.0334,rough,14.0,2,3.584
2210,70.72,-5.1062,-2.6631,1.1213,0.3790,0.2649,-3.0334,rough,14.0,2,3.583
2220,71.04,-5.1062,-2.6632,1.1213,0.3790,0.2649,-3.0334,rough,14.0,2,3.583
2230,71.36,-5.1062,-2.6632,1.1213,0.3790,0.2649,-3.0334,rough,14.0,2,3.583
2240,71.68,-5.1062,-2.6633,1.1213,0.3790,0.2649,-3.0334,rough,14.0,2,3.583
2250,72.00,-5.1062,-2.6634,1.1214,0.3790,0.2650,-3.0334,rough,14.0,2,3.583
2260,72.32,-5.1062,-2.6635,1.1214,0.3790,0.2650,-3.0334,rough,14.0,2,3.583
2270,72.64,-5.1062,-2.6635,1.1214,0.3790,0.2650,-3.0333,rough,14.0,2,3.583
2280,72.96,-5.1062,-2.6636,1.1214,0.3790,0.2650,-3.0333,rough,14.0,2,3.583
2290,73.28,-5.1062,-2.6637,1.1215,0.3790,0.2651,-3.0333,rough,14.0,2,3.583
2300,73.60,-5.1062,-2.6637,1.1215,0.3790,0.2651,-3.0333,rough,14.0,2,3.583
2310,73.92,-5.1062,-2.6638,1.1215,0.3790,0.2651,-3.0333,rough,14.0,2,3.583
2320,74.24,-5.1062,-2.6639,1.1215,0.3790,0.2651,-3.0333,rough,14.0,2,3.583
2330,74.56,-5.1062,-2.6639,1.1215,0.3790,0.2652,-3.0333,rough,14.0,2,3.583
2340,74.88,-5.1062,-2.6640,1.1216,0.3790,0.2652,-3.0333,rough,14.0,2,3.583
2350,75.20,-5.1062,-2.6641,1.1216,0.3790,0.2652,-3.0333,rough,14.0,2,3.583
2360,75.52,-5.1062,-2.6641,1.1216,0.3790,0.2652,-3.0333,rough,14.0,2,3.583
2370,75.84,-5.1062,-2.6642,1.1216,0.3790,0.2652,-3.0332,rough,14.0,2,3.583
2380,76.16,-5.1062,-2.6643,1.1216,0.3790,0.2653,-3.0332,rough,14.0,2,3.583
2390,76.48,-5.1062,-2.6643,1.1217,0.3790,0.2653,-3.0332,rough,14.0,2,3.583
2400,76.80,-5.1062,-2.6644,1.1217,0.3790,0.2653,-3.0332,rough,14.0,2,3.583
2410,77.12,-5.1062,-2.6645,1.1217,0.3790,0.2653,-3.0332,rough,14.0,2,3.583
2420,77.44,-5.1062,-2.6645,1.1217,0.3790,0.2654,-3.0332,rough,14.0,2,3.583
2430,77.76,-5.1062,-2.6646,1.1217,0.3790,0.2654,-3.0332,rough,14.0,2,3.583
2440,78.08,-5.1062,-2.6647,1.1218,0.3790,0.2654,-3.0332,rough,14.0,2,3.582
2450,78.40,-5.1062,-2.6647,1.1218,0.3790,0.2654,-3.0332,rough,14.0,2,3.582
2460,78.72,-5.1062,-2.6648,1.1218,0.3790,0.2655,-3.0332,rough,14.0,2,3.582
2470,79.04,-5.1062,-2.6649,1.1218,0.3790,0.2655,-3.0331,rough,14.0,2,3.582
2480,79.36,-5.1062,-2.6649,1.1218,0.3790,0.2655,-3.0331,rough,14.0,2,3.582
2490,79.68,-5.1062,-2.6650,1.1219,0.3790,0.2655,-3.0331,rough,14.0,2,3.582
2500,80.00,-5.1062,-2.6651,1.1219,0.3791,0.2656,-3.0331,rough,14.0,2,3.582
2510,80.32,-5.1062,-2.6651,1.1219,0.3791,0.2656,-3.0331,rough,14.0,2,3.582
2520,80.64,-5.1062,-2.6652,1.1219,0.3791,0.2656,-3.0331,rough,14.0,2,3.582
2530,80.96,-5.1062,-2.6653,1.1220,0.3791,0.2656,-3.0331,rough,14.0,2,3.582
2540,81.28,-5.1062,-2.6653,1.1220,0.3791,0.2657,-3.0331,rough,14.0,2,3.582
2550,81.60,-5.1062,-2.6654,1.1220,0.3791,0.2657,-3.0331,rough,14.0,2,3.582
2560,81.92,-5.1062,-2.6655,1.1220,0.3791,0.2657,-3.0331,rough,14.0,2,3.582
2570,82.24,-5.1062,-2.6655,1.1220,0.3791,0.2657,-3.0331,rough,14.0,2,3.582
2580,82.56,-5.1062,-2.6656,1.1221,0.3791,0.2658,-3.0330,rough,14.0,2,3.582
2590,82.88,-5.1062,-2.6657,1.1221,0.3791,0.2658,-3.0330,rough,14.0,2,3.582
2600,83.20,-5.1063,-2.6657,1.1221,0.3791,0.2658,-3.0330,rough,14.0,2,3.582
2610,83.52,-5.1063,-2.6658,1.1221,0.3791,0.2658,-3.0330,rough,14.0,2,3.582
2620,83.84,-5.1063,-2.6658,1.1221,0.3791,0.2658,-3.0330,rough,14.0,2,3.582
2630,84.16,-5.1063,-2.6659,1.1222,0.3791,0.2659,-3.0330,rough,14.0,2,3.582
2640,84.48,-5.1063,-2.6660,1.1222,0.3791,0.2659,-3.0330,rough,14.0,2,3.582
2650,84.80,-5.1063,-2.6660,1.1222,0.3791,0.2659,-3.0330,rough,14.0,2,3.582
2660,85.12,-5.1063,-2.6661,1.1222,0.3791,0.2659,-3.0330,rough,14.0,2,3.582
2670,85.44,-5.1063,-2.6662,1.1222,0.3791,0.2660,-3.0330,rough,14.0,2,3.582
2680,85.76,-5.1063,-2.6662,1.1223,0.3791,0.2660,-3.0329,rough,14.0,2,3.581
2690,86.08,-5.1063,-2.6663,1.1223,0.3791,0.2660,-3.0329,rough,14.0,2,3.581
2700,86.40,-5.1063,-2.6664,1.1223,0.3791,0.2660,-3.0329,rough,14.0,2,3.581
2710,86.72,-5.1063,-2.6664,1.1223,0.3791,0.2661,-3.0329,rough,14.0,2,3.581
2720,87.04,-5.1063,-2.6665,1.1223,0.3791,0.2661,-3.0329,rough,14.0,2,3.581
2730,87.36,-5.1063,-2.6666,1.1224,0.3791,0.2661,-3.0329,rough,14.0,2,3.581
2740,87.68,-5.1063,-2.6666,1.1224,0.3791,0.2661,-3.0329,rough,14.0,2,3.581
2750,88.00,-5.1063,-2.6667,1.1224,0.3791,0.2661,-3.0329,rough,14.0,2,3.581
2760,88.32,-5.1063,-2.6668,1.1224,0.3791,0.2662,-3.0329,rough,14.0,2,3.581
2770,88.64,-5.1063,-2.6668,1.1224,0.3791,0.2662,-3.0329,rough,14.0,2,3.581
2780,88.96,-5.1063,-2.6669,1.1225,0.3791,0.2662,-3.0328,rough,14.0,2,3.581
2790,89.28,-5.1063,-2.6669,1.1225,0.3791,0.2662,-3.0328,rough,14.0,2,3.581
2800,89.60,-5.1063,-2.6670,1.1225,0.3791,0.2663,-3.0328,rough,14.0,2,3.581
2810,89.92,-5.1063,-2.6671,1.1225,0.3791,0.2663,-3.0328,rough,14.0,2,3.581
2820,90.24,-5.1063,-2.6671,1.1225,0.3791,0.2663,-3.0328,rough,14.0,2,3.581
2830,90.56,-5.1063,-2.6672,1.1226,0.3791,0.2663,-3.0328,rough,14.0,2,3.581
2840,90.88,-5.1063,-2.6673,1.1226,0.3791,0.2664,-3.0328,rough,14.0,2,3.581
2850,91.20,-5.1063,-2.6673,1.1226,0.3791,0.2664,-3.0328,rough,14.0,2,3.581
2860,91.52,-5.1063,-2.6674,1.1226,0.3791,0.2664,-3.0328,rough,14.0,2,3.581
2870,91.84,-5.1063,-2.6675,1.1226,0.3792,0.2664,-3.0328,rough,14.0,2,3.581
2880,92.16,-5.1063,-2.6675,1.1227,0.3792,0.2664,-3.0328,rough,14.0,2,3.581
2890,92.48,-5.1063,-2.6676,1.1227,0.3792,0.2665,-3.0327,rough,14.0,2,3.581
2900,92.80,-5.1063,-2.6676,1.1227,0.3792,0.2665,-3.0327,rough,14.0,2,3.581
2910,93.12,-5.1063,-2.6677,1.1227,0.3792,0.2665,-3.0327,rough,14.0,2,3.581
2920,93.44,-5.1063,-2.6678,1.1227,0.3792,0.2665,-3.0327,rough,14.0,2,3.580
2930,93.76,-5.1063,-2.6678,1.1228,0.3792,0.2666,-3.0327,rough,14.0,2,3.580
2940,94.08,-5.1063,-2.6679,1.1228,0.3792,0.2666,-3.0327,rough,14.0,2,3.580
2950,94.40,-5.1063,-2.6680,1.1228,0.3792,0.2666,-3.0327,rough,14.0,2,3.580
2960,94.72,-5.1063,-2.6680,1.1228,0.3792,0.2666,-3.0327,rough,14.0,2,3.580
2970,95.04,-5.1063,-2.6681,1.1228,0.3792,0.2666,-3.0327,rough,14.0,2,3.580
2980,95.36,-5.1063,-2.6681,1.1229,0.3792,0.2667,-3.0327,rough,14.0,2,3.580
2990,95.68,-5.1063,-2.6682,1.1229,0.3792,0.2667,-3.0326,rough,14.0,2,3.580
3000,96.00,-5.1063,-2.6683,1.1229,0.3792,0.2667,-3.0326,rough,14.0,2,3.580
3010,96.32,-5.1063,-2.6683,1.1229,0.3792,0.2667,-3.0326,rough,14.0,2,3.580
3020,96.64,-5.1063,-2.6684,1.1229,0.3792,0.2668,-3.0326,rough,14.0,2,3.580
3030,96.96,-5.1063,-2.6685,1.1229,0.3792,0.2668,-3.0326,rough,14.0,2,3.580
3040,97.28,-5.1063,-2.6685,1.1230,0.3792,0.2668,-3.0326,rough,14.0,2,3.580
3050,97.60,-5.1063,-2.6686,1.1230,0.3792,0.2668,-3.0326,rough,14.0,2,3.580
3060,97.92,-5.1063,-2.6686,1.1230,0.3792,0.2669,-3.0326,rough,14.0,2,3.580
3070,98.24,-5.1063,-2.6687,1.1230,0.3792,0.2669,-3.0326,rough,14.0,2,3.580
3080,98.56,-5.1063,-2.6688,1.1230,0.3792,0.2669,-3.0326,rough,14.0,2,3.580
3090,98.88,-5.1063,-2.6688,1.1231,0.3792,0.2669,-3.0326,rough,14.0,2,3.580
3100,99.20,-5.1063,-2.6689,1.1231,0.3792,0.2669,-3.0325,rough,14.0,2,3.580
3110,99.52,-5.1063,-2.6689,1.1231,0.3792,0.2670,-3.0325,rough,14.0,2,3.580
3120,99.84,-5.1063,-2.6690,1.1231,0.3792,0.2670,-3.0325,rough,14.0,2,3.580
3130,100.16,-5.1063,-2.6691,1.1231,0.3792,0.2670,-3.0325,rough,14.0,2,3.580
3140,100.48,-5.1063,-2.6691,1.1232,0.3792,0.2670,-3.0325,rough,14.0,2,3.580
3150,100.80,-5.1063,-2.6692,1.1232,0.3792,0.2670,-3.0325,rough,14.0,2,3.580
3160,101.12,-5.1063,-2.6693,1.1232,0.3792,0.2671,-3.0325,rough,14.0,2,3.580
3170,101.44,-5.1063,-2.6693,1.1232,0.3792,0.2671,-3.0325,rough,14.0,2,3.580
3180,101.76,-5.1063,-2.6694,1.1232,0.3792,0.2671,-3.0325,rough,14.0,2,3.579
3190,102.08,-5.1063,-2.6694,1.1233,0.3792,0.2671,-3.0325,rough,14.0,2,3.579
3200,102.40,-5.1063,-2.6695,1.1233,0.3792,0.2672,-3.0325,rough,14.0,2,3.579
3210,102.72,-5.1063,-2.6696,1.1233,0.3792,0.2672,-3.0324,rough,14.0,2,3.579
3220,103.04,-5.1063,-2.6696,1.1233,0.3792,0.2672,-3.0324,rough,14.0,2,3.579
3230,103.36,-5.1063,-2.6697,1.1233,0.3792,0.2672,-3.0324,rough,14.0,2,3.579
3240,103.68,-5.1063,-2.6697,1.1234,0.3792,0.2672,-3.0324,rough,14.0,2,3.579
3250,104.00,-5.1063,-2.6698,1.1234,0.3792,0.2673,-3.0324,rough,14.0,2,3.579
3260,104.32,-5.1063,-2.6699,1.1234,0.3793,0.2673,-3.0324,rough,14.0,2,3.579
3270,104.64,-5.1063,-2.6699,1.1234,0.3793,0.2673,-3.0324,rough,14.0,2,3.579
3280,104.96,-5.1063,-2.6700,1.1234,0.3793,0.2673,-3.0324,rough,14.0,2,3.579
3290,105.28,-5.1063,-2.6700,1.1234,0.3793,0.2674,-3.0324,rough,14.0,2,3.579
3300,105.60,-5.1063,-2.6701,1.1235,0.3793,0.2674,-3.0324,rough,14.0,2,3.579
3310,105.92,-5.1063,-2.6702,1.1235,0.3793,0.2674,-3.0324,rough,14.0,2,3.579
3320,106.24,-5.1063,-2.6702,1.1235,0.3793,0.2674,-3.0323,rough,14.0,2,3.579
3330,106.56,-5.1063,-2.6703,1.1235,0.3793,0.2674,-3.0323,rough,14.0,2,3.579
3340,106.88,-5.1063,-2.6703,1.1235,0.3793,0.2675,-3.0323,rough,14.0,2,3.579
3350,107.20,-5.1063,-2.6704,1.1236,0.3793,0.2675,-3.0323,rough,14.0,2,3.579
3360,107.52,-5.1063,-2.6705,1.1236,0.3793,0.2675,-3.0323,rough,14.0,2,3.579
3370,107.84,-5.1063,-2.6705,1.1236,0.3793,0.2675,-3.0323,rough,14.0,2,3.579
3380,108.16,-5.1063,-2.6706,1.1236,0.3793,0.2675,-3.0323,rough,14.0,2,3.579
3390,108.48,-5.1063,-2.6706,1.1236,0.3793,0.2676,-3.0323,rough,14.0,2,3.579
3400,108.80,-5.1063,-2.6707,1.1236,0.3793,0.2676,-3.0323,rough,14.0,2,3.579
3410,109.12,-5.1063,-2.6708,1.1237,0.3793,0.2676,-3.0323,rough,14.0,2,3.579
3420,109.44,-5.1063,-2.6708,1.1237,0.3793,0.2676,-3.0323,rough,14.0,2,3.579
3430,109.76,-5.1063,-2.6709,1.1237,0.3793,0.2677,-3.0323,rough,14.0,2,3.579
3440,110.08,-5.1063,-2.6709,1.1237,0.3793,0.2677,-3.0322,rough,14.0,2,3.578
3450,110.40,-5.1063,-2.6710,1.1237,0.3793,0.2677,-3.0322,rough,14.0,2,3.578
3460,110.72,-5.1063,-2.6710,1.1238,0.3793,0.2677,-3.0322,rough,14.0,2,3.578
3470,111.04,-5.1063,-2.6711,1.1238,0.3793,0.2677,-3.0322,rough,14.0,2,3.578
3480,111.36,-5.1063,-2.6712,1.1238,0.3793,0.2678,-3.0322,rough,14.0,2,3.578
3490,111.68,-5.1063,-2.6712,1.1238,0.3793,0.2678,-3.0322,rough,14.0,2,3.578
3500,112.00,-5.1063,-2.6713,1.1238,0.3793,0.2678,-3.0322,rough,14.0,2,3.578
3510,112.32,-5.1063,-2.6713,1.1239,0.3793,0.2678,-3.0322,rough,14.0,2,3.578
3520,112.64,-5.1063,-2.6714,1.1239,0.3793,0.2678,-3.0322,rough,14.0,2,3.578
3530,112.96,-5.1063,-2.6715,1.1239,0.3793,0.2679,-3.0322,rough,14.0,2,3.578
3540,113.28,-5.1064,-2.6715,1.1239,0.3793,0.2679,-3.0322,rough,14.0,2,3.578
3550,113.60,-5.1064,-2.6716,1.1239,0.3793,0.2679,-3.0321,rough,14.0,2,3.578
3560,113.92,-5.1064,-2.6716,1.1239,0.3793,0.2679,-3.0321,rough,14.0,2,3.578
3570,114.24,-5.1064,-2.6717,1.1240,0.3793,0.2679,-3.0321,rough,14.0,2,3.578
3580,114.56,-5.1064,-2.6717,1.1240,0.3793,0.2680,-3.0321,rough,14.0,2,3.578
3590,114.88,-5.1064,-2.6718,1.1240,0.3793,0.2680,-3.0321,rough,14.0,2,3.578
3600,115.20,-5.1064,-2.6719,1.1240,0.3793,0.2680,-3.0321,rough,14.0,2,3.578
3610,115.52,-5.1064,-2.6719,1.1240,0.3793,0.2680,-3.0321,rough,14.0,2,3.578
3620,115.84,-5.1064,-2.6720,1.1241,0.3793,0.2681,-3.0321,rough,14.0,2,3.578
3630,116.16,-5.1064,-2.6720,1.1241,0.3793,0.2681,-3.0321,rough,14.0,2,3.578
3640,116.48,-5.1064,-2.6721,1.1241,0.3793,0.2681,-3.0321,rough,14.0,2,3.578
3650,116.80,-5.1064,-2.6721,1.1241,0.3793,0.2681,-3.0321,rough,14.0,2,3.578
3660,117.12,-5.1064,-2.6722,1.1241,0.3793,0.2681,-3.0321,rough,14.0,2,3.578
3670,117.44,-5.1064,-2.6723,1.1241,0.3794,0.2682,-3.0320,rough,14.0,2,3.578
3680,117.76,-5.1064,-2.6723,1.1242,0.3794,0.2682,-3.0320,rough,14.0,2,3.578
3690,118.08,-5.1064,-2.6724,1.1242,0.3794,0.2682,-3.0320,rough,14.0,2,3.578
3700,118.40,-5.1064,-2.6724,1.1242,0.3794,0.2682,-3.0320,rough,14.0,2,3.578
3710,118.72,-5.1064,-2.6725,1.1242,0.3794,0.2682,-3.0320,rough,14.0,2,3.577
3720,119.04,-5.1064,-2.6725,1.1242,0.3794,0.2683,-3.0320,rough,14.0,2,3.577
3730,119.36,-5.1064,-2.6726,1.1242,0.3794,0.2683,-3.0320,rough,14.0,2,3.577
3740,119.68,-5.1064,-2.6727,1.1243,0.3794,0.2683,-3.0320,rough,14.0,2,3.577
3750,120.00,-5.1064,-2.6727,1.1243,0.3794,0.2683,-3.0320,rough,14.0,2,3.577
3760,120.32,-5.1064,-2.6728,1.1243,0.3794,0.2683,-3.0320,rough,14.0,2,3.577
3770,120.64,-5.1064,-2.6728,1.1243,0.3794,0.2684,-3.0320,rough,14.0,2,3.577
3780,120.96,-5.1064,-2.6729,1.1243,0.3794,0.2684,-3.0319,rough,14.0,2,3.577
3790,121.28,-5.1064,-2.6729,1.1244,0.3794,0.2684,-3.0319,rough,14.0,2,3.577
3800,121.60,-5.1064,-2.6730,1.1244,0.3794,0.2684,-3.0319,rough,14.0,2,3.577
3810,121.92,-5.1064,-2.6731,1.1244,0.3794,0.2684,-3.0319,rough,14.0,2,3.577
3820,122.24,-5.1064,-2.6731,1.1244,0.3794,0.2685,-3.0319,rough,14.0,2,3.577
3830,122.56,-5.1064,-2.6732,1.1244,0.3794,0.2685,-3.0319,rough,14.0,2,3.577
3840,122.88,-5.1064,-2.6732,1.1244,0.3794,0.2685,-3.0319,rough,14.0,2,3.577
3850,123.20,-5.1064,-2.6733,1.1245,0.3794,0.2685,-3.0319,rough,14.0,2,3.577
3860,123.52,-5.1064,-2.6733,1.1245,0.3794,0.2685,-3.0319,rough,14.0,2,3.577
3870,123.84,-5.1064,-2.6734,1.1245,0.3794,0.2686,-3.0319,rough,14.0,2,3.577
3880,124.16,-5.1064,-2.6734,1.1245,0.3794,0.2686,-3.0319,rough,14.0,2,3.577
3890,124.48,-5.1064,-2.6735,1.1245,0.3794,0.2686,-3.0319,rough,14.0,2,3.577
3900,124.80,-5.1064,-2.6736,1.1245,0.3794,0.2686,-3.0318,rough,14.0,2,3.577
3910,125.12,-5.1064,-2.6736,1.1246,0.3794,0.2686,-3.0318,rough,14.0,2,3.577
3920,125.44,-5.1064,-2.6737,1.1246,0.3794,0.2687,-3.0318,rough,14.0,2,3.577
3930,125.76,-5.1064,-2.6737,1.1246,0.3794,0.2687,-3.0318,rough,14.0,2,3.577
3940,126.08,-5.1064,-2.6738,1.1246,0.3794,0.2687,-3.0318,rough,14.0,2,3.577
3950,126.40,-5.1064,-2.6738,1.1246,0.3794,0.2687,-3.0318,rough,14.0,2,3.577
3960,126.72,-5.1064,-2.6739,1.1246,0.3794,0.2687,-3.0318,rough,14.0,2,3.577
3970,127.04,-5.1064,-2.6739,1.1247,0.3794,0.2688,-3.0318,rough,14.0,2,3.577
3980,127.36,-5.1064,-2.6740,1.1247,0.3794,0.2688,-3.0318,rough,14.0,2,3.577
3990,127.68,-5.1064,-2.6741,1.1247,0.3794,0.2688,-3.0318,rough,14.0,2,3.576
4000,128.00,-5.1064,-2.6741,1.1247,0.3794,0.2688,-3.0318,rough,14.0,2,3.576
4010,128.32,-5.1064,-2.6742,1.1247,0.3794,0.2688,-3.0318,rough,14.0,2,3.576
4020,128.64,-5.1064,-2.6742,1.1248,0.3794,0.2689,-3.0317,rough,14.0,2,3.576
4030,128.96,-5.1064,-2.6743,1.1248,0.3794,0.2689,-3.0317,rough,14.0,2,3.576
4040,129.28,-5.1064,-2.6743,1.1248,0.3794,0.2689,-3.0317,rough,14.0,2,3.576
4050,129.60,-5.1064,-2.6744,1.1248,0.3794,0.2689,-3.0317,rough,14.0,2,3.576
4060,129.92,-5.1064,-2.6744,1.1248,0.3794,0.2689,-3.0317,rough,14.0,2,3.576
4070,130.24,-5.1064,-2.6745,1.1248,0.3794,0.2690,-3.0317,rough,14.0,2,3.576
4080,130.56,-5.1064,-2.6746,1.1249,0.3794,0.2690,-3.0317,rough,14.0,2,3.576
4090,130.88,-5.1064,-2.6746,1.1249,0.3794,0.2690,-3.0317,rough,14.0,2,3.576
4100,131.20,-5.1064,-2.6747,1.1249,0.3795,0.2690,-3.0317,rough,14.0,2,3.576
4110,131.52,-5.1064,-2.6747,1.1249,0.3795,0.2690,-3.0317,rough,14.0,2,3.576
4120,131.84,-5.1064,-2.6748,1.1249,0.3795,0.2691,-3.0317,rough,14.0,2,3.576
4130,132.16,-5.1064,-2.6748,1.1249,0.3795,0.2691,-3.0317,rough,14.0,2,3.576
4140,132.48,-5.1064,-2.6749,1.1250,0.3795,0.2691,-3.0317,rough,14.0,2,3.576
4150,132.80,-5.1064,-2.6749,1.1250,0.3795,0.2691,-3.0316,rough,14.0,2,3.576
4160,133.12,-5.1064,-2.6750,1.1250,0.3795,0.2691,-3.0316,rough,14.0,2,3.576
4170,133.44,-5.1064,-2.6750,1.1250,0.3795,0.2692,-3.0316,rough,14.0,2,3.576
4180,133.76,-5.1064,-2.6751,1.1250,0.3795,0.2692,-3.0316,rough,14.0,2,3.576
4190,134.08,-5.1064,-2.6751,1.1250,0.3795,0.2692,-3.0316,rough,14.0,2,3.576
4200,134.40,-5.1064,-2.6752,1.1251,0.3795,0.2692,-3.0316,rough,14.0,2,3.576
4210,134.72,-5.1064,-2.6753,1.1251,0.3795,0.2692,-3.0316,rough,14.0,2,3.576
4220,135.04,-5.1064,-2.6753,1.1251,0.3795,0.2693,-3.0316,rough,14.0,2,3.576
4230,135.36,-5.1064,-2.6754,1.1251,0.3795,0.2693,-3.0316,rough,14.0,2,3.576
4240,135.68,-5.1064,-2.6754,1.1251,0.3795,0.2693,-3.0316,rough,14.0,2,3.576
4250,136.00,-5.1064,-2.6755,1.1251,0.3795,0.2693,-3.0316,rough,14.0,2,3.576
4260,136.32,-5.1064,-2.6755,1.1252,0.3795,0.2693,-3.0316,rough,14.0,2,3.576
4270,136.64,-5.1064,-2.6756,1.1252,0.3795,0.2693,-3.0315,rough,14.0,2,3.575
4280,136.96,-5.1064,-2.6756,1.1252,0.3795,0.2694,-3.0315,rough,14.0,2,3.575
4290,137.28,-5.1064,-2.6757,1.1252,0.3795,0.2694,-3.0315,rough,14.0,2,3.575
4300,137.60,-5.1064,-2.6757,1.1252,0.3795,0.2694,-3.0315,rough,14.0,2,3.575
4310,137.92,-5.1064,-2.6758,1.1252,0.3795,0.2694,-3.0315,rough,14.0,2,3.575
4320,138.24,-5.1064,-2.6758,1.1253,0.3795,0.2694,-3.0315,rough,14.0,2,3.575
4330,138.56,-5.1064,-2.6759,1.1253,0.3795,0.2695,-3.0315,rough,14.0,2,3.575
4340,138.88,-5.1064,-2.6759,1.1253,0.3795,0.2695,-3.0315,rough,14.0,2,3.575
4350,139.20,-5.1064,-2.6760,1.1253,0.3795,0.2695,-3.0315,rough,14.0,2,3.575
4360,139.52,-5.1064,-2.6760,1.1253,0.3795,0.2695,-3.0315,rough,14.0,2,3.575
4370,139.84,-5.1064,-2.6761,1.1253,0.3795,0.2695,-3.0315,rough,14.0,2,3.575
4380,140.16,-5.1064,-2.6762,1.1254,0.3795,0.2696,-3.0315,rough,14.0,2,3.575
4390,140.48,-5.1064,-2.6762,1.1254,0.3795,0.2696,-3.0315,rough,14.0,2,3.575
4400,140.80,-5.1064,-2.6763,1.1254,0.3795,0.2696,-3.0314,rough,14.0,2,3.575
4410,141.12,-5.1064,-2.6763,1.1254,0.3795,0.2696,-3.0314,rough,14.0,2,3.575
4420,141.44,-5.1064,-2.6764,1.1254,0.3795,0.2696,-3.0314,rough,14.0,2,3.575
4430,141.76,-5.1064,-2.6764,1.1254,0.3795,0.2697,-3.0314,rough,14.0,2,3.575
4440,142.08,-5.1064,-2.6765,1.1255,0.3795,0.2697,-3.0314,rough,14.0,2,3.575
4450,142.40,-5.1064,-2.6765,1.1255,0.3795,0.2697,-3.0314,rough,14.0,2,3.575
4460,142.72,-5.1064,-2.6766,1.1255,0.3795,0.2697,-3.0314,rough,14.0,2,3.575
4470,143.04,-5.1064,-2.6766,1.1255,0.3795,0.2697,-3.0314,rough,14.0,2,3.575
4480,143.36,-5.1064,-2.6767,1.1255,0.3795,0.2697,-3.0314,rough,14.0,2,3.575
4490,143.68,-5.1064,-2.6767,1.1255,0.3795,0.2698,-3.0314,rough,14.0,2,3.575
4500,144.00,-5.1064,-2.6768,1.1255,0.3795,0.2698,-3.0314,rough,14.0,2,3.575
4510,144.32,-5.1064,-2.6768,1.1256,0.3795,0.2698,-3.0314,rough,14.0,2,3.575
4520,144.64,-5.1064,-2.6769,1.1256,0.3795,0.2698,-3.0313,rough,14.0,2,3.575
4530,144.96,-5.1064,-2.6769,1.1256,0.3795,0.2698,-3.0313,rough,14.0,2,3.575
4540,145.28,-5.1064,-2.6770,1.1256,0.3795,0.2699,-3.0313,rough,14.0,2,3.575
4550,145.60,-5.1064,-2.6770,1.1256,0.3795,0.2699,-3.0313,rough,14.0,2,3.575
4560,145.92,-5.1064,-2.6771,1.1256,0.3796,0.2699,-3.0313,rough,14.0,2,3.575
4570,146.24,-5.1064,-2.6771,1.1257,0.3796,0.2699,-3.0313,rough,14.0,2,3.574
4580,146.56,-5.1064,-2.6772,1.1257,0.3796,0.2699,-3.0313,rough,14.0,2,3.574
4590,146.88,-5.1064,-2.6772,1.1257,0.3796,0.2700,-3.0313,rough,14.0,2,3.574
4600,147.20,-5.1064,-2.6773,1.1257,0.3796,0.2700,-3.0313,rough,14.0,2,3.574
4610,147.52,-5.1064,-2.6773,1.1257,0.3796,0.2700,-3.0313,rough,14.0,2,3.574
4620,147.84,-5.1064,-2.6774,1.1257,0.3796,0.2700,-3.0313,rough,14.0,2,3.574
4630,148.16,-5.1064,-2.6774,1.1258,0.3796,0.2700,-3.0313,rough,14.0,2,3.574
4640,148.48,-5.1065,-2.6775,1.1258,0.3796,0.2700,-3.0313,rough,14.0,2,3.574
4650,148.80,-5.1065,-2.6775,1.1258,0.3796,0.2701,-3.0312,rough,14.0,2,3.574
4660,149.12,-5.1065,-2.6776,1.1258,0.3796,0.2701,-3.0312,rough,14.0,2,3.574
4670,149.44,-5.1065,-2.6776,1.1258,0.3796,0.2701,-3.0312,rough,14.0,2,3.574
4680,149.76,-5.1065,-2.6777,1.1258,0.3796,0.2701,-3.0312,rough,14.0,2,3.574
4690,150.08,-5.1065,-2.6777,1.1259,0.3796,0.2701,-3.0312,rough,14.0,2,3.574
4700,150.40,-5.1065,-2.6778,1.1259,0.3796,0.2702,-3.0312,rough,14.0,2,3.574
4710,150.72,-5.1065,-2.6778,1.1259,0.3796,0.2702,-3.0312,rough,14.0,2,3.574
4720,151.04,-5.1065,-2.6779,1.1259,0.3796,0.2702,-3.0312,rough,14.0,2,3.574
4730,151.36,-5.1065,-2.6779,1.1259,0.3796,0.2702,-3.0312,rough,14.0,2,3.574
4740,151.68,-5.1065,-2.6780,1.1259,0.3796,0.2702,-3.0312,rough,14.0,2,3.574
4750,152.00,-5.1065,-2.6780,1.1259,0.3796,0.2702,-3.0312,rough,14.0,2,3.574
4760,152.32,-5.1065,-2.6781,1.1260,0.3796,0.2703,-3.0312,rough,14.0,2,3.574
4770,152.64,-5.1065,-2.6781,1.1260,0.3796,0.2703,-3.0312,rough,14.0,2,3.574
4780,152.96,-5.1065,-2.6782,1.1260,0.3796,0.2703,-3.0312,rough,14.0,2,3.574
4790,153.28,-5.1065,-2.6782,1.1260,0.3796,0.2703,-3.0311,rough,14.0,2,3.574
4800,153.60,-5.1065,-2.6783,1.1260,0.3796,0.2703,-3.0311,rough,14.0,2,3.574
4810,153.92,-5.1065,-2.6783,1.1260,0.3796,0.2704,-3.0311,rough,14.0,2,3.574
4820,154.24,-5.1065,-2.6784,1.1261,0.3796,0.2704,-3.0311,rough,14.0,2,3.574
4830,154.56,-5.1065,-2.6784,1.1261,0.3796,0.2704,-3.0311,rough,14.0,2,3.574
4840,154.88,-5.1065,-2.6785,1.1261,0.3796,0.2704,-3.0311,rough,14.0,2,3.574
4850,155.20,-5.1065,-2.6785,1.1261,0.3796,0.2704,-3.0311,rough,14.0,2,3.574
4860,155.52,-5.1065,-2.6786,1.1261,0.3796,0.2704,-3.0311,rough,14.0,2,3.574
4870,155.84,-5.1065,-2.6786,1.1261,0.3796,0.2705,-3.0311,rough,14.0,2,3.574
4880,156.16,-5.1065,-2.6787,1.1261,0.3796,0.2705,-3.0311,rough,14.0,2,3.574
4890,156.48,-5.1065,-2.6787,1.1262,0.3796,0.2705,-3.0311,rough,14.0,2,3.573
4900,156.80,-5.1065,-2.6788,1.1262,0.3796,0.2705,-3.0311,rough,14.0,2,3.573
4910,157.12,-5.1065,-2.6788,1.1262,0.3796,0.2705,-3.0311,rough,14.0,2,3.573
4920,157.44,-5.1065,-2.6789,1.1262,0.3796,0.2705,-3.0310,rough,14.0,2,3.573
4930,157.76,-5.1065,-2.6789,1.1262,0.3796,0.2706,-3.0310,rough,14.0,2,3.573
4940,158.08,-5.1065,-2.6790,1.1262,0.3796,0.2706,-3.0310,rough,14.0,2,3.573
4950,158.40,-5.1065,-2.6790,1.1263,0.3796,0.2706,-3.0310,rough,14.0,2,3.573
4960,158.72,-5.1065,-2.6791,1.1263,0.3796,0.2706,-3.0310,rough,14.0,2,3.573
4970,159.04,-5.1065,-2.6791,1.1263,0.3796,0.2706,-3.0310,rough,14.0,2,3.573
4980,159.36,-5.1065,-2.6792,1.1263,0.3796,0.2707,-3.0310,rough,14.0,2,3.573
4990,159.68,-5.1065,-2.6792,1.1263,0.3796,0.2707,-3.0310,rough,14.0,2,3.573
5000,160.00,-5.1065,-2.6793,1.1263,0.3796,0.2707,-3.0310,rough,14.0,2,3.573
5010,160.32,-5.1065,-2.6793,1.1263,0.3796,0.2707,-3.0310,rough,14.0,2,3.573
5020,160.64,-5.1065,-2.6794,1.1264,0.3796,0.2707,-3.0310,rough,14.0,2,3.573
5030,160.96,-5.1065,-2.6794,1.1264,0.3797,0.2707,-3.0310,rough,14.0,2,3.573
5040,161.28,-5.1065,-2.6795,1.1264,0.3797,0.2708,-3.0310,rough,14.0,2,3.573
5050,161.60,-5.1065,-2.6795,1.1264,0.3797,0.2708,-3.0310,rough,14.0,2,3.573
5060,161.92,-5.1065,-2.6796,1.1264,0.3797,0.2708,-3.0309,rough,14.0,2,3.573
5070,162.24,-5.1065,-2.6796,1.1264,0.3797,0.2708,-3.0309,rough,14.0,2,3.573
5080,162.56,-5.1065,-2.6797,1.1265,0.3797,0.2708,-3.0309,rough,14.0,2,3.573
5090,162.88,-5.1065,-2.6797,1.1265,0.3797,0.2708,-3.0309,rough,14.0,2,3.573
5100,163.20,-5.1065,-2.6798,1.1265,0.3797,0.2709,-3.0309,rough,14.0,2,3.573
5110,163.52,-5.1065,-2.6798,1.1265,0.3797,0.2709,-3.0309,rough,14.0,2,3.573
5120,163.84,-5.1065,-2.6799,1.1265,0.3797,0.2709,-3.0309,rough,14.0,2,3.573
5130,164.16,-5.1065,-2.6799,1.1265,0.3797,0.2709,-3.0309,rough,14.0,2,3.573
5140,164.48,-5.1065,-2.6800,1.1265,0.3797,0.2709,-3.0309,rough,14.0,2,3.573
5150,164.80,-5.1065,-2.6800,1.1266,0.3797,0.2709,-3.0309,rough,14.0,2,3.573
5160,165.12,-5.1065,-2.6800,1.1266,0.3797,0.2710,-3.0309,rough,14.0,2,3.573
5170,165.44,-5.1065,-2.6801,1.1266,0.3797,0.2710,-3.0309,rough,14.0,2,3.573
5180,165.76,-5.1065,-2.6801,1.1266,0.3797,0.2710,-3.0309,rough,14.0,2,3.573
5190,166.08,-5.1065,-2.6802,1.1266,0.3797,0.2710,-3.0309,rough,14.0,2,3.573
5200,166.40,-5.1065,-2.6802,1.1266,0.3797,0.2710,-3.0308,rough,14.0,2,3.573
5210,166.72,-5.1065,-2.6803,1.1266,0.3797,0.2711,-3.0308,rough,14.0,2,3.572
5220,167.04,-5.1065,-2.6803,1.1267,0.3797,0.2711,-3.0308,rough,14.0,2,3.572
5230,167.36,-5.1065,-2.6804,1.1267,0.3797,0.2711,-3.0308,rough,14.0,2,3.572
5240,167.68,-5.1065,-2.6804,1.1267,0.3797,0.2711,-3.0308,rough,14.0,2,3.572
5250,168.00,-5.1065,-2.6805,1.1267,0.3797,0.2711,-3.0308,rough,14.0,2,3.572
5260,168.32,-5.1065,-2.6805,1.1267,0.3797,0.2711,-3.0308,rough,14.0,2,3.572
5270,168.64,-5.1065,-2.6806,1.1267,0.3797,0.2711,-3.0307,rough,14.0,2,3.572
5280,168.96,-5.1065,-2.6806,1.1267,0.3797,0.2712,-3.0307,rough,14.0,2,3.572
5290,169.28,-5.1065,-2.6807,1.1268,0.3797,0.2712,-3.0307,rough,14.0,2,3.572
5300,169.60,-5.1065,-2.6807,1.1268,0.3797,0.2712,-3.0307,rough,14.0,2,3.572
5310,169.92,-5.1065,-2.6807,1.1268,0.3797,0.2712,-3.0307,rough,14.0,2,3.572
5320,170.24,-5.1065,-2.6808,1.1268,0.3797,0.2712,-3.0307,rough,14.0,2,3.572
5330,170.56,-5.1065,-2.6808,1.1268,0.3797,0.2712,-3.0307,rough,14.0,2,3.572
5340,170.88,-5.1065,-2.6809,1.1268,0.3797,0.2713,-3.0307,rough,14.0,2,3.572
5350,171.20,-5.1065,-2.6809,1.1269,0.3797,0.2713,-3.0307,rough,14.0,2,3.572
5360,171.52,-5.1065,-2.6810,1.1269,0.3797,0.2713,-3.0307,rough,14.0,2,3.572
5370,171.84,-5.1065,-2.6810,1.1269,0.3797,0.2713,-3.0307,rough,14.0,2,3.572
5380,172.16,-5.1065,-2.6811,1.1269,0.3797,0.2713,-3.0307,rough,14.0,2,3.572
5390,172.48,-5.1065,-2.6811,1.1269,0.3797,0.2713,-3.0307,rough,14.0,2,3.572
5400,172.80,-5.1065,-2.6812,1.1269,0.3798,0.2714,-3.0307,rough,14.0,2,3.572
5410,173.12,-5.1065,-2.6812,1.1269,0.3798,0.2714,-3.0306,rough,14.0,2,3.572
5420,173.44,-5.1065,-2.6813,1.1270,0.3798,0.2714,-3.0306,rough,14.0,2,3.572
5430,173.76,-5.1065,-2.6813,1.1270,0.3798,0.2714,-3.0306,rough,14.0,2,3.572
5440,174.08,-5.1065,-2.6813,1.1270,0.3798,0.2714,-3.0306,rough,14.0,2,3.572
5450,174.40,-5.1065,-2.6814,1.1270,0.3798,0.2714,-3.0306,rough,14.0,2,3.572
5460,174.72,-5.1065,-2.6814,1.1270,0.3798,0.2715,-3.0306,rough,14.0,2,3.572
5470,175.04,-5.1065,-2.6815,1.1270,0.3798,0.2715,-3.0306,rough,14.0,2,3.572
5480,175.36,-5.1065,-2.6815,1.1270,0.3798,0.2715,-3.0306,rough,14.0,2,3.572
5490,175.68,-5.1065,-2.6816,1.1271,0.3798,0.2715,-3.0306,rough,14.0,2,3.572
5500,176.00,-5.1065,-2.6816,1.1271,0.3798,0.2715,-3.0306,rough,14.0,2,3.572
5510,176.32,-5.1065,-2.6817,1.1271,0.3798,0.2715,-3.0306,rough,14.0,2,3.572
5520,176.64,-5.1065,-2.6817,1.1271,0.3798,0.2716,-3.0306,rough,14.0,2,3.572
5530,176.96,-5.1065,-2.6818,1.1271,0.3798,0.2716,-3.0306,rough,14.0,2,3.572
5540,177.28,-5.1065,-2.6818,1.1271,0.3798,0.2716,-3.0306,rough,14.0,2,3.572
5550,177.60,-5.1065,-2.6818,1.1271,0.3798,0.2716,-3.0306,rough,14.0,2,3.572
5560,177.92,-5.1065,-2.6819,1.1272,0.3798,0.2716,-3.0306,rough,14.0,2,3.571
5570,178.24,-5.1065,-2.6819,1.1272,0.3798,0.2716,-3.0305,rough,14.0,2,3.571
5580,178.56,-5.1065,-2.6820,1.1272,0.3798,0.2717,-3.0305,rough,14.0,2,3.571
5590,178.88,-5.1065,-2.6820,1.1272,0.3798,0.2717,-3.0305,rough,14.0,2,3.571
5600,179.20,-5.1065,-2.6821,1.1272,0.3798,0.2717,-3.0305,rough,14.0,2,3.571
5610,179.52,-5.1065,-2.6821,1.1272,0.3798,0.2717,-3.0305,rough,14.0,2,3.571
5620,179.84,-5.1065,-2.6822,1.1272,0.3798,0.2717,-3.0305,rough,14.0,2,3.571
5630,180.16,-5.1065,-2.6822,1.1273,0.3798,0.2717,-3.0305,rough,14.0,2,3.571
5640,180.48,-5.1065,-2.6823,1.1273,0.3798,0.2718,-3.0305,rough,14.0,2,3.571
5650,180.80,-5.1065,-2.6823,1.1273,0.3798,0.2718,-3.0305,rough,14.0,2,3.571
5660,181.12,-5.1065,-2.6823,1.1273,0.3798,0.2718,-3.0305,rough,14.0,2,3.571
5670,181.44,-5.1065,-2.6824,1.1273,0.3798,0.2718,-3.0305,rough,14.0,2,3.571
5680,181.76,-5.1065,-2.6824,1.1273,0.3798,0.2718,-3.0305,rough,14.0,2,3.571
5690,182.08,-5.1065,-2.6825,1.1273,0.3798,0.2718,-3.0305,rough,14.0,2,3.571
5700,182.40,-5.1065,-2.6825,1.1274,0.3798,0.2719,-3.0305,rough,14.0,2,3.571
5710,182.72,-5.1065,-2.6826,1.1274,0.3798,0.2719,-3.0305,rough,14.0,2,3.571
5720,183.04,-5.1065,-2.6826,1.1274,0.3798,0.2719,-3.0304,rough,14.0,2,3.571
5730,183.36,-5.1065,-2.6827,1.1274,0.3798,0.2719,-3.0304,rough,14.0,2,3.571
5740,183.68,-5.1065,-2.6827,1.1274,0.3798,0.2719,-3.0304,rough,14.0,2,3.571
5750,184.00,-5.1065,-2.6827,1.1274,0.3798,0.2719,-3.0304,rough,14.0,2,3.571
5760,184.32,-5.1065,-2.6828,1.1274,0.3799,0.2720,-3.0304,rough,14.0,2,3.571
5770,184.64,-5.1065,-2.6828,1.1275,0.3799,0.2720,-3.0304,rough,14.0,2,3.571
5780,184.96,-5.1065,-2.6829,1.1275,0.3799,0.2720,-3.0304,rough,14.0,2,3.571
5790,185.28,-5.1065,-2.6829,1.1275,0.3799,0.2720,-3.0304,rough,14.0,2,3.571
5800,185.60,-5.1065,-2.6830,1.1275,0.3799,0.2720,-3.0304,rough,14.0,2,3.571
5810,185.92,-5.1065,-2.6830,1.1275,0.3799,0.2720,-3.0304,rough,14.0,2,3.571
5820,186.24,-5.1065,-2.6831,1.1275,0.3799,0.2721,-3.0304,rough,14.0,2,3.571
5830,186.56,-5.1065,-2.6831,1.1275,0.3799,0.2721,-3.0304,rough,14.0,2,3.571
5840,186.88,-5.1065,-2.6831,1.1276,0.3799,0.2721,-3.0304,rough,14.0,2,3.571
5850,187.20,-5.1065,-2.6832,1.1276,0.3799,0.2721,-3.0304,rough,14.0,2,3.571
5860,187.52,-5.1065,-2.6832,1.1276,0.3799,0.2721,-3.0304,rough,14.0,2,3.571
5870,187.84,-5.1065,-2.6833,1.1276,0.3799,0.2721,-3.0304,rough,14.0,2,3.571
5880,188.16,-5.1065,-2.6833,1.1276,0.3799,0.2722,-3.0303,rough,14.0,2,3.571
5890,188.48,-5.1065,-2.6834,1.1276,0.3799,0.2722,-3.0303,rough,14.0,2,3.571
5900,188.80,-5.1065,-2.6834,1.1276,0.3799,0.2722,-3.0303,rough,14.0,2,3.571
5910,189.12,-5.1065,-2.6834,1.1277,0.3799,0.2722,-3.0303,rough,14.0,2,3.570
5920,189.44,-5.1065,-2.6835,1.1277,0.3799,0.2722,-3.0303,rough,14.0,2,3.570
5930,189.76,-5.1065,-2.6835,1.1277,0.3799,0.2722,-3.0303,rough,14.0,2,3.570
5940,190.08,-5.1065,-2.6836,1.1277,0.3799,0.2722,-3.0303,rough,14.0,2,3.570
5950,190.40,-5.1065,-2.6836,1.1277,0.3799,0.2723,-3.0303,rough,14.0,2,3.570
5960,190.72,-5.1065,-2.6837,1.1277,0.3799,0.2723,-3.0303,rough,14.0,2,3.570
5970,191.04,-5.1065,-2.6837,1.1277,0.3799,0.2723,-3.0303,rough,14.0,2,3.570
5980,191.36,-5.1065,-2.6837,1.1277,0.3799,0.2723,-3.0303,rough,14.0,2,3.570
5990,191.68,-5.1065,-2.6838,1.1278,0.3799,0.2723,-3.0303,rough,14.0,2,3.570
6000,192.00,-5.1065,-2.6838,1.1278,0.3799,0.2723,-3.0303,rough,14.0,2,3.570
6010,192.32,-5.1065,-2.6839,1.1278,0.3799,0.2724,-3.0303,rough,14.0,2,3.570
6020,192.64,-5.1065,-2.6839,1.1278,0.3799,0.2724,-3.0303,rough,14.0,2,3.570
6030,192.96,-5.1065,-2.6840,1.1278,0.3799,0.2724,-3.0303,rough,14.0,2,3.570
6040,193.28,-5.1065,-2.6840,1.1278,0.3799,0.2724,-3.0302,rough,14.0,2,3.570
6050,193.60,-5.1065,-2.6840,1.1278,0.3799,0.2724,-3.0302,rough,14.0,2,3.570
6060,193.92,-5.1065,-2.6841,1.1279,0.3799,0.2724,-3.0302,rough,14.0,2,3.570
6070,194.24,-5.1065,-2.6841,1.1279,0.3799,0.2725,-3.0302,rough,14.0,2,3.570
6080,194.56,-5.1065,-2.6842,1.1279,0.3799,0.2725,-3.0302,rough,14.0,2,3.570
6090,194.88,-5.1065,-2.6842,1.1279,0.3799,0.2725,-3.0302,rough,14.0,2,3.570
6100,195.20,-5.1065,-2.6843,1.1279,0.3799,0.2725,-3.0302,rough,14.0,2,3.570
6110,195.52,-5.1065,-2.6843,1.1279,0.3799,0.2725,-3.0302,rough,14.0,2,3.570
6120,195.84,-5.1065,-2.6843,1.1279,0.3799,0.2725,-3.0302,rough,14.0,2,3.570
6130,196.16,-5.1065,-2.6844,1.1280,0.3799,0.2725,-3.0302,rough,14.0,2,3.570
6140,196.48,-5.1065,-2.6844,1.1280,0.3800,0.2726,-3.0302,rough,14.0,2,3.570
6150,196.80,-5.1065,-2.6845,1.1280,0.3800,0.2726,-3.0302,rough,14.0,2,3.570
6160,197.12,-5.1065,-2.6845,1.1280,0.3800,0.2726,-3.0302,rough,14.0,2,3.570
6170,197.44,-5.1065,-2.6846,1.1280,0.3800,0.2726,-3.0302,rough,14.0,2,3.570
6180,197.76,-5.1065,-2.6846,1.1280,0.3800,0.2726,-3.0302,rough,14.0,2,3.570
6190,198.08,-5.1065,-2.6846,1.1280,0.3800,0.2726,-3.0302,rough,14.0,2,3.570
6200,198.40,-5.1065,-2.6847,1.1280,0.3800,0.2727,-3.0301,rough,14.0,2,3.570
6210,198.72,-5.1065,-2.6847,1.1281,0.3800,0.2727,-3.0301,rough,14.0,2,3.570
6220,199.04,-5.1065,-2.6848,1.1281,0.3800,0.2727,-3.0301,rough,14.0,2,3.570
6230,199.36,-5.1065,-2.6848,1.1281,0.3800,0.2727,-3.0301,rough,14.0,2,3.570
6240,199.68,-5.1065,-2.6848,1.1281,0.3800,0.2727,-3.0301,rough,14.0,2,3.570
6250,200.00,-5.1065,-2.6849,1.1281,0.3800,0.2727,-3.0301,rough,14.0,2,3.570
6260,200.32,-5.1065,-2.6849,1.1281,0.3800,0.2727,-3.0301,rough,14.0,2,3.570
6270,200.64,-5.1065,-2.6850,1.1281,0.3800,0.2728,-3.0301,rough,14.0,2,3.570
6280,200.96,-5.1065,-2.6850,1.1282,0.3800,0.2728,-3.0301,rough,14.0,2,3.569
6290,201.28,-5.1065,-2.6851,1.1282,0.3800,0.2728,-3.0301,rough,14.0,2,3.569
6300,201.60,-5.1065,-2.6851,1.1282,0.3800,0.2728,-3.0301,rough,14.0,2,3.569
6310,201.92,-5.1065,-2.6851,1.1282,0.3800,0.2728,-3.0301,rough,14.0,2,3.569
6320,202.24,-5.1066,-2.6852,1.1282,0.3800,0.2728,-3.0301,rough,14.0,2,3.569
6330,202.56,-5.1066,-2.6852,1.1282,0.3800,0.2729,-3.0301,rough,14.0,2,3.569
6340,202.88,-5.1066,-2.6853,1.1282,0.3800,0.2729,-3.0301,rough,14.0,2,3.569
6350,203.20,-5.1066,-2.6853,1.1282,0.3800,0.2729,-3.0301,rough,14.0,2,3.569
6360,203.52,-5.1066,-2.6853,1.1283,0.3800,0.2729,-3.0301,rough,14.0,2,3.569
6370,203.84,-5.1066,-2.6854,1.1283,0.3800,0.2729,-3.0300,rough,14.0,2,3.569
6380,204.16,-5.1066,-2.6854,1.1283,0.3800,0.2729,-3.0300,rough,14.0,2,3.569
6390,204.48,-5.1066,-2.6855,1.1283,0.3800,0.2729,-3.0300,rough,14.0,2,3.569
6400,204.80,-5.1066,-2.6855,1.1283,0.3800,0.2730,-3.0300,rough,14.0,2,3.569
6410,205.12,-5.1066,-2.6856,1.1283,0.3800,0.2730,-3.0300,rough,14.0,2,3.569
6420,205.44,-5.1066,-2.6856,1.1283,0.3800,0.2730,-3.0300,rough,14.0,2,3.569
6430,205.76,-5.1066,-2.6856,1.1283,0.3800,0.2730,-3.0300,rough,14.0,2,3.569
6440,206.08,-5.1066,-2.6857,1.1284,0.3800,0.2730,-3.0300,rough,14.0,2,3.569
6450,206.40,-5.1066,-2.6857,1.1284,0.3800,0.2730,-3.0300,rough,14.0,2,3.569
6460,206.72,-5.1066,-2.6858,1.1284,0.3800,0.2731,-3.0300,rough,14.0,2,3.569
6470,207.04,-5.1066,-2.6858,1.1284,0.3800,0.2731,-3.0300,rough,14.0,2,3.569
6480,207.36,-5.1066,-2.6858,1.1284,0.3800,0.2731,-3.0300,rough,14.0,2,3.569
6490,207.68,-5.1066,-2.6859,1.1284,0.3800,0.2731,-3.0300,rough,14.0,2,3.569
6500,208.00,-5.1066,-2.6859,1.1284,0.3800,0.2731,-3.0300,rough,14.0,2,3.569
6510,208.32,-5.1066,-2.6860,1.1285,0.3800,0.2731,-3.0300,rough,14.0,2,3.569
6520,208.64,-5.1066,-2.6860,1.1285,0.3800,0.2731,-3.0300,rough,14.0,2,3.569
6530,208.96,-5.1066,-2.6860,1.1285,0.3801,0.2732,-3.0300,rough,14.0,2,3.569
6540,209.28,-5.1066,-2.6861,1.1285,0.3801,0.2732,-3.0299,rough,14.0,2,3.569
6550,209.60,-5.1066,-2.6861,1.1285,0.3801,0.2732,-3.0299,rough,14.0,2,3.569
6560,209.92,-5.1066,-2.6862,1.1285,0.3801,0.2732,-3.0299,rough,14.0,2,3.569
6570,210.24,-5.1066,-2.6862,1.1285,0.3801,0.2732,-3.0299,rough,14.0,2,3.569
6580,210.56,-5.1066,-2.6862,1.1285,0.3801,0.2732,-3.0299,rough,14.0,2,3.569
6590,210.88,-5.1066,-2.6863,1.1286,0.3801,0.2732,-3.0299,rough,14.0,2,3.569
6600,211.20,-5.1066,-2.6863,1.1286,0.3801,0.2733,-3.0299,rough,14.0,2,3.569
6610,211.52,-5.1066,-2.6864,1.1286,0.3801,0.2733,-3.0299,rough,14.0,2,3.569
6620,211.84,-5.1066,-2.6864,1.1286,0.3801,0.2733,-3.0299,rough,14.0,2,3.569
6630,212.16,-5.1066,-2.6864,1.1286,0.3801,0.2733,-3.0299,rough,14.0,2,3.569
6640,212.48,-5.1066,-2.6865,1.1286,0.3801,0.2733,-3.0299,rough,14.0,2,3.569
6650,212.80,-5.1066,-2.6865,1.1286,0.3801,0.2733,-3.0299,rough,14.0,2,3.569
6660,213.12,-5.1066,-2.6866,1.1286,0.3801,0.2733,-3.0299,rough,14.0,2,3.569
6670,213.44,-5.1066,-2.6866,1.1287,0.3801,0.2734,-3.0299,rough,14.0,2,3.568
6680,213.76,-5.1066,-2.6866,1.1287,0.3801,0.2734,-3.0299,rough,14.0,2,3.568
6690,214.08,-5.1066,-2.6867,1.1287,0.3801,0.2734,-3.0299,rough,14.0,2,3.568
6700,214.40,-5.1066,-2.6867,1.1287,0.3801,0.2734,-3.0299,rough,14.0,2,3.568
6710,214.72,-5.1066,-2.6868,1.1287,0.3801,0.2734,-3.0299,rough,14.0,2,3.568
6720,215.04,-5.1066,-2.6868,1.1287,0.3801,0.2734,-3.0298,rough,14.0,2,3.568
6730,215.36,-5.1066,-2.6868,1.1287,0.3801,0.2735,-3.0298,rough,14.0,2,3.568
6740,215.68,-5.1066,-2.6869,1.1287,0.3801,0.2735,-3.0298,rough,14.0,2,3.568
6750,216.00,-5.1066,-2.6869,1.1288,0.3801,0.2735,-3.0298,rough,14.0,2,3.568
6760,216.32,-5.1066,-2.6870,1.1288,0.3801,0.2735,-3.0298,rough,14.0,2,3.568
6770,216.64,-5.1066,-2.6870,1.1288,0.3801,0.2735,-3.0298,rough,14.0,2,3.568
6780,216.96,-5.1066,-2.6870,1.1288,0.3801,0.2735,-3.0298,rough,14.0,2,3.568
6790,217.28,-5.1066,-2.6871,1.1288,0.3801,0.2735,-3.0298,rough,14.0,2,3.568
6800,217.60,-5.1066,-2.6871,1.1288,0.3801,0.2736,-3.0298,rough,14.0,2,3.568
6810,217.92,-5.1066,-2.6872,1.1288,0.3801,0.2736,-3.0298,rough,14.0,2,3.568
6820,218.24,-5.1066,-2.6872,1.1288,0.3801,0.2736,-3.0298,rough,14.0,2,3.568
6830,218.56,-5.1066,-2.6872,1.1289,0.3801,0.2736,-3.0298,rough,14.0,2,3.568
6840,218.88,-5.1066,-2.6873,1.1289,0.3801,0.2736,-3.0298,rough,14.0,2,3.568
6850,219.20,-5.1066,-2.6873,1.1289,0.3801,0.2736,-3.0298,rough,14.0,2,3.568
6860,219.52,-5.1066,-2.6873,1.1289,0.3801,0.2736,-3.0298,rough,14.0,2,3.568
6870,219.84,-5.1066,-2.6874,1.1289,0.3801,0.2737,-3.0298,rough,14.0,2,3.568
6880,220.16,-5.1066,-2.6874,1.1289,0.3801,0.2737,-3.0298,rough,14.0,2,3.568
6890,220.48,-5.1066,-2.6875,1.1289,0.3801,0.2737,-3.0297,rough,14.0,2,3.568
6900,220.80,-5.1066,-2.6875,1.1289,0.3801,0.2737,-3.0297,rough,14.0,2,3.568
6910,221.12,-5.1066,-2.6875,1.1290,0.3801,0.2737,-3.0297,rough,14.0,2,3.568
6920,221.44,-5.1066,-2.6876,1.1290,0.3801,0.2737,-3.0297,rough,14.0,2,3.568
6930,221.76,-5.1066,-2.6876,1.1290,0.3801,0.2737,-3.0297,rough,14.0,2,3.568
6940,222.08,-5.1066,-2.6877,1.1290,0.3802,0.2738,-3.0297,rough,14.0,2,3.568
6950,222.40,-5.1066,-2.6877,1.1290,0.3802,0.2738,-3.0297,rough,14.0,2,3.568
6960,222.72,-5.1066,-2.6877,1.1290,0.3802,0.2738,-3.0297,rough,14.0,2,3.568
6970,223.04,-5.1066,-2.6878,1.1290,0.3802,0.2738,-3.0297,rough,14.0,2,3.568
6980,223.36,-5.1066,-2.6878,1.1290,0.3802,0.2738,-3.0297,rough,14.0,2,3.568
6990,223.68,-5.1066,-2.6878,1.1291,0.3802,0.2738,-3.0297,rough,14.0,2,3.568
7000,224.00,-5.1066,-2.6879,1.1291,0.3802,0.2738,-3.0297,rough,14.0,2,3.568
7010,224.32,-5.1066,-2.6879,1.1291,0.3802,0.2739,-3.0297,rough,14.0,2,3.568
7020,224.64,-5.1066,-2.6880,1.1291,0.3802,0.2739,-3.0297,rough,14.0,2,3.568
7030,224.96,-5.1066,-2.6880,1.1291,0.3802,0.2739,-3.0297,rough,14.0,2,3.568
7040,225.28,-5.1066,-2.6880,1.1291,0.3802,0.2739,-3.0297,rough,14.0,2,3.568
7050,225.60,-5.1066,-2.6881,1.1291,0.3802,0.2739,-3.0297,rough,14.0,2,3.568
7060,225.92,-5.1066,-2.6881,1.1291,0.3802,0.2739,-3.0297,rough,14.0,2,3.568
7070,226.24,-5.1066,-2.6882,1.1291,0.3802,0.2739,-3.0297,rough,14.0,2,3.568
7080,226.56,-5.1066,-2.6882,1.1292,0.3802,0.2739,-3.0296,rough,14.0,2,3.567
7090,226.88,-5.1066,-2.6882,1.1292,0.3802,0.2740,-3.0296,rough,14.0,2,3.567
7100,227.20,-5.1066,-2.6883,1.1292,0.3802,0.2740,-3.0296,rough,14.0,2,3.567
7110,227.52,-5.1066,-2.6883,1.1292,0.3802,0.2740,-3.0296,rough,14.0,2,3.567
7120,227.84,-5.1066,-2.6883,1.1292,0.3802,0.2740,-3.0296,rough,14.0,2,3.567
7130,228.16,-5.1066,-2.6884,1.1292,0.3802,0.2740,-3.0296,rough,14.0,2,3.567
7140,228.48,-5.1066,-2.6884,1.1292,0.3802,0.2740,-3.0296,rough,14.0,2,3.567
7150,228.80,-5.1066,-2.6885,1.1292,0.3802,0.2740,-3.0296,rough,14.0,2,3.567
7160,229.12,-5.1066,-2.6885,1.1293,0.3802,0.2741,-3.0296,rough,14.0,2,3.567
7170,229.44,-5.1066,-2.6885,1.1293,0.3802,0.2741,-3.0296,rough,14.0,2,3.567
7180,229.76,-5.1066,-2.6886,1.1293,0.3802,0.2741,-3.0296,rough,14.0,2,3.567
7190,230.08,-5.1066,-2.6886,1.1293,0.3802,0.2741,-3.0296,rough,14.0,2,3.567
7200,230.40,-5.1066,-2.6886,1.1293,0.3802,0.2741,-3.0296,rough,14.0,2,3.567
7210,230.72,-5.1066,-2.6887,1.1293,0.3802,0.2741,-3.0296,rough,14.0,2,3.567
7220,231.04,-5.1066,-2.6887,1.1293,0.3802,0.2741,-3.0296,rough,14.0,2,3.567
7230,231.36,-5.1066,-2.6888,1.1293,0.3802,0.2742,-3.0296,rough,14.0,2,3.567
7240,231.68,-5.1066,-2.6888,1.1294,0.3802,0.2742,-3.0296,rough,14.0,2,3.567
7250,232.00,-5.1066,-2.6888,1.1294,0.3802,0.2742,-3.0296,rough,14.0,2,3.567
7260,232.32,-5.1066,-2.6889,1.1294,0.3802,0.2742,-3.0295,rough,14.0,2,3.567
7270,232.64,-5.1066,-2.6889,1.1294,0.3802,0.2742,-3.0295,rough,14.0,2,3.567
7280,232.96,-5.1066,-2.6889,1.1294,0.3802,0.2742,-3.0295,rough,14.0,2,3.567
7290,233.28,-5.1066,-2.6890,1.1294,0.3802,0.2742,-3.0295,rough,14.0,2,3.567
7300,233.60,-5.1066,-2.6890,1.1294,0.3802,0.2743,-3.0295,rough,14.0,2,3.567
7310,233.92,-5.1066,-2.6890,1.1294,0.3802,0.2743,-3.0295,rough,14.0,2,3.567
7320,234.24,-5.1066,-2.6891,1.1294,0.3802,0.2743,-3.0295,rough,14.0,2,3.567
7330,234.56,-5.1066,-2.6891,1.1295,0.3802,0.2743,-3.0295,rough,14.0,2,3.567
7340,234.88,-5.1066,-2.6892,1.1295,0.3802,0.2743,-3.0295,rough,14.0,2,3.567
7350,235.20,-5.1066,-2.6892,1.1295,0.3802,0.2743,-3.0295,rough,14.0,2,3.567
7360,235.52,-5.1066,-2.6892,1.1295,0.3802,0.2743,-3.0295,rough,14.0,2,3.567
7370,235.84,-5.1066,-2.6893,1.1295,0.3802,0.2743,-3.0295,rough,14.0,2,3.567
7380,236.16,-5.1066,-2.6893,1.1295,0.3803,0.2744,-3.0295,rough,14.0,2,3.567
7390,236.48,-5.1066,-2.6893,1.1295,0.3803,0.2744,-3.0295,rough,14.0,2,3.567
7400,236.80,-5.1066,-2.6894,1.1295,0.3803,0.2744,-3.0295,rough,14.0,2,3.567
7410,237.12,-5.1066,-2.6894,1.1295,0.3803,0.2744,-3.0295,rough,14.0,2,3.567
7420,237.44,-5.1066,-2.6895,1.1296,0.3803,0.2744,-3.0295,rough,14.0,2,3.567
7430,237.76,-5.1066,-2.6895,1.1296,0.3803,0.2744,-3.0295,rough,14.0,2,3.567
7440,238.08,-5.1066,-2.6895,1.1296,0.3803,0.2744,-3.0295,rough,14.0,2,3.567
7450,238.40,-5.1066,-2.6896,1.1296,0.3803,0.2745,-3.0294,rough,14.0,2,3.567
7460,238.72,-5.1066,-2.6896,1.1296,0.3803,0.2745,-3.0294,rough,14.0,2,3.567
7470,239.04,-5.1066,-2.6896,1.1296,0.3803,0.2745,-3.0294,rough,14.0,2,3.567
7480,239.36,-5.1066,-2.6897,1.1296,0.3803,0.2745,-3.0294,rough,14.0,2,3.567
7490,239.68,-5.1066,-2.6897,1.1296,0.3803,0.2745,-3.0294,rough,14.0,2,3.567
7500,240.00,-5.1066,-2.6897,1.1297,0.3803,0.2745,-3.0294,rough,14.0,2,3.566
7510,240.32,-5.1066,-2.6898,1.1297,0.3803,0.2745,-3.0294,rough,14.0,2,3.566
7520,240.64,-5.1066,-2.6898,1.1297,0.3803,0.2745,-3.0294,rough,14.0,2,3.566
7530,240.96,-5.1066,-2.6898,1.1297,0.3803,0.2746,-3.0294,rough,14.0,2,3.566
7540,241.28,-5.1066,-2.6899,1.1297,0.3803,0.2746,-3.0294,rough,14.0,2,3.566
7550,241.60,-5.1066,-2.6899,1.1297,0.3803,0.2746,-3.0294,rough,14.0,2,3.566
7560,241.92,-5.1066,-2.6900,1.1297,0.3803,0.2746,-3.0294,rough,14.0,2,3.566
7570,242.24,-5.1066,-2.6900,1.1297,0.3803,0.2746,-3.0294,rough,14.0,2,3.566
7580,242.56,-5.1066,-2.6900,1.1297,0.3803,0.2746,-3.0294,rough,14.0,2,3.566
7590,242.88,-5.1066,-2.6901,1.1298,0.3803,0.2746,-3.0294,rough,14.0,2,3.566
7600,243.20,-5.1066,-2.6901,1.1298,0.3803,0.2747,-3.0294,rough,14.0,2,3.566
7610,243.52,-5.1066,-2.6901,1.1298,0.3803,0.2747,-3.0294,rough,14.0,2,3.566
7620,243.84,-5.1066,-2.6902,1.1298,0.3803,0.2747,-3.0294,rough,14.0,2,3.566
7630,244.16,-5.1066,-2.6902,1.1298,0.3803,0.2747,-3.0294,rough,14.0,2,3.566
7640,244.48,-5.1066,-2.6902,1.1298,0.3803,0.2747,-3.0293,rough,14.0,2,3.566
7650,244.80,-5.1066,-2.6903,1.1298,0.3803,0.2747,-3.0293,rough,14.0,2,3.566
7660,245.12,-5.1066,-2.6903,1.1298,0.3803,0.2747,-3.0293,rough,14.0,2,3.566
7670,245.44,-5.1066,-2.6903,1.1298,0.3803,0.2747,-3.0293,rough,14.0,2,3.566
7680,245.76,-5.1066,-2.6904,1.1299,0.3803,0.2748,-3.0293,rough,14.0,2,3.566
7690,246.08,-5.1066,-2.6904,1.1299,0.3803,0.2748,-3.0293,rough,14.0,2,3.566
7700,246.40,-5.1066,-2.6905,1.1299,0.3803,0.2748,-3.0293,rough,14.0,2,3.566
7710,246.72,-5.1066,-2.6905,1.1299,0.3803,0.2748,-3.0293,rough,14.0,2,3.566
7720,247.04,-5.1066,-2.6905,1.1299,0.3803,0.2748,-3.0293,rough,14.0,2,3.566
7730,247.36,-5.1066,-2.6906,1.1299,0.3803,0.2748,-3.0293,rough,14.0,2,3.566
7740,247.68,-5.1066,-2.6906,1.1299,0.3803,0.2748,-3.0293,rough,14.0,2,3.566
7750,248.00,-5.1066,-2.6906,1.1299,0.3803,0.2748,-3.0293,rough,14.0,2,3.566
7760,248.32,-5.1066,-2.6907,1.1299,0.3803,0.2749,-3.0293,rough,14.0,2,3.566
7770,248.64,-5.1066,-2.6907,1.1300,0.3803,0.2749,-3.0293,rough,14.0,2,3.566
7780,248.96,-5.1066,-2.6907,1.1300,0.3803,0.2749,-3.0293,rough,14.0,2,3.566
7790,249.28,-5.1066,-2.6908,1.1300,0.3803,0.2749,-3.0293,rough,14.0,2,3.566
7800,249.60,-5.1066,-2.6908,1.1300,0.3803,0.2749,-3.0293,rough,14.0,2,3.566
7810,249.92,-5.1066,-2.6908,1.1300,0.3803,0.2749,-3.0293,rough,14.0,2,3.566
7820,250.24,-5.1066,-2.6909,1.1300,0.3803,0.2749,-3.0293,rough,14.0,2,3.566
7830,250.56,-5.1066,-2.6909,1.1300,0.3804,0.2749,-3.0293,rough,14.0,2,3.566
7840,250.88,-5.1066,-2.6909,1.1300,0.3804,0.2750,-3.0292,rough,14.0,2,3.566
7850,251.20,-5.1066,-2.6910,1.1300,0.3804,0.2750,-3.0292,rough,14.0,2,3.566
7860,251.52,-5.1066,-2.6910,1.1301,0.3804,0.2750,-3.0292,rough,14.0,2,3.566
7870,251.84,-5.1066,-2.6910,1.1301,0.3804,0.2750,-3.0292,rough,14.0,2,3.566
7880,252.16,-5.1066,-2.6911,1.1301,0.3804,0.2750,-3.0292,rough,14.0,2,3.566
7890,252.48,-5.1066,-2.6911,1.1301,0.3804,0.2750,-3.0292,rough,14.0,2,3.566
7900,252.80,-5.1066,-2.6911,1.1301,0.3804,0.2750,-3.0292,rough,14.0,2,3.566
7910,253.12,-5.1066,-2.6912,1.1301,0.3804,0.2751,-3.0292,rough,14.0,2,3.566
7920,253.44,-5.1066,-2.6912,1.1301,0.3804,0.2751,-3.0292,rough,14.0,2,3.566
7930,253.76,-5.1066,-2.6913,1.1301,0.3804,0.2751,-3.0292,rough,14.0,2,3.566
