step,time_s,x,y,z,roll,pitch,yaw,terrain,speed,target_idx,dist_to_target
10,0.32,-0.0060,-0.0582,0.1767,0.0019,-0.0137,0.0009,flat,18.0,0,5.403
20,0.64,0.2599,-0.0577,0.1810,-0.0003,0.0086,-0.0280,flat,18.0,0,5.197
30,0.96,0.6297,-0.0785,0.1797,-0.0001,0.0002,-0.2958,flat,18.0,0,4.906
40,1.28,1.0598,-0.2544,0.1799,-0.0019,-0.0020,-0.5703,flat,18.0,0,4.474
50,1.60,1.4618,-0.5515,0.1798,-0.0033,-0.0042,-0.7474,flat,18.0,0,3.980
60,1.92,1.8336,-0.9322,0.1799,0.0000,-0.0001,-0.8516,flat,18.0,0,3.448
70,2.24,2.1911,-1.3617,0.1799,-0.0001,-0.0000,-0.8939,flat,18.0,0,2.891
80,2.56,2.5483,-1.8026,0.1799,0.0001,0.0000,-0.8763,flat,18.0,0,2.327
90,2.88,2.8940,-2.2026,0.1799,0.0002,0.0001,-0.8271,flat,18.0,0,1.802
100,3.20,3.2067,-2.5273,0.1799,0.0002,0.0001,-0.7731,flat,18.0,0,1.353
110,3.52,3.4794,-2.7797,0.1799,0.0001,-0.0000,-0.7124,flat,18.0,1,0.981
120,3.84,3.7571,-3.0541,0.1798,0.0008,-0.0001,-0.9421,flat,18.0,1,6.932
130,4.16,3.9785,-3.4330,0.1798,0.0012,-0.0000,-1.3651,flat,18.0,1,6.798
140,4.48,4.0384,-3.8741,0.1800,0.0004,0.0001,-1.8272,flat,18.0,1,6.529
150,4.80,3.8882,-4.2948,0.1799,-0.0001,-0.0001,-2.1564,flat,18.0,1,6.134
160,5.12,3.5874,-4.6664,0.1799,-0.0002,0.0000,-2.3770,flat,18.0,1,5.664
170,5.44,3.1974,-4.9888,0.1799,-0.0001,-0.0000,-2.5528,flat,18.0,1,5.158
180,5.76,2.7410,-5.2611,0.1799,-0.0001,-0.0001,-2.6817,flat,18.0,1,4.635
190,6.08,2.2408,-5.4988,0.1824,-0.0120,-0.0028,-2.7269,flat,18.0,1,4.107
200,6.40,1.7241,-5.7329,0.1867,-0.0367,0.0064,-2.7136,flat,18.0,1,3.578
210,6.72,1.2384,-5.9790,0.1879,-0.0273,0.0078,-2.6288,flat,18.0,1,3.072
220,7.04,0.7890,-6.2559,0.1812,-0.0076,0.0014,-2.5127,flat,18.0,1,2.579
230,7.36,0.3954,-6.5641,0.1861,-0.0107,-0.0314,-2.3905,flat,18.0,1,2.104
240,7.68,0.0633,-6.9222,0.2002,-0.0541,-0.0290,-2.2779,slope,18.0,1,1.627
250,8.00,-0.2181,-7.2801,0.2042,-0.0652,0.0230,-2.1664,slope,18.0,1,1.181
260,8.32,-0.4491,-7.6417,0.1899,-0.0261,0.0380,-2.0690,flat,18.0,2,4.663
270,8.64,-0.6834,-8.0696,0.1799,-0.0039,-0.0032,-2.0851,flat,18.0,2,4.881
280,8.96,-0.8955,-8.4271,0.1798,0.0001,0.0001,-2.1605,flat,18.0,2,5.084
290,9.28,-1.0942,-8.7024,0.1787,0.0049,0.0000,-2.2794,flat,18.0,2,5.243
300,9.60,-1.2802,-8.9027,0.1842,-0.0123,-0.0085,-2.4265,flat,18.0,2,5.354
310,9.92,-1.4597,-9.0490,0.1866,-0.0207,-0.0002,-2.5607,flat,18.0,2,5.427
320,10.24,-1.6331,-9.1539,0.1865,-0.0241,0.0044,-2.6811,flat,18.0,2,5.471
330,10.56,-1.8124,-9.2287,0.1858,-0.0257,0.0055,-2.7952,flat,18.0,2,5.492
340,10.88,-1.9674,-9.2812,0.1866,-0.0345,-0.0016,-2.8861,flat,18.0,2,5.503
350,11.20,-2.1051,-9.3157,0.1821,-0.0116,-0.0014,-2.9599,flat,18.0,2,5.506
360,11.52,-2.2537,-9.3562,0.1877,-0.0407,-0.0010,3.1054,flat,18.0,2,5.516
370,11.84,-2.4001,-9.3679,0.1886,-0.0448,-0.0018,2.8936,flat,18.0,2,5.502
380,12.16,-2.5409,-9.3467,0.1895,-0.0493,-0.0018,2.7266,flat,18.0,2,5.460
390,12.48,-2.6798,-9.2980,0.1908,-0.0555,-0.0021,2.5916,slope,18.0,2,5.394
400,12.80,-2.8148,-9.2230,0.1929,-0.0458,-0.0290,2.4826,slope,18.0,2,5.306
410,13.12,-2.9606,-9.1116,0.1932,-0.0446,-0.0198,2.3920,flat,18.0,2,5.184
420,13.44,-3.1248,-8.9542,0.1965,-0.0445,0.0201,2.3196,flat,18.0,2,5.020
430,13.76,-3.2961,-8.7581,0.1920,-0.0434,0.0099,2.2445,flat,18.0,2,4.821
440,14.08,-3.4879,-8.5073,0.1860,-0.0221,0.0083,2.1877,flat,18.0,2,4.575
450,14.40,-3.7000,-8.1955,0.1805,-0.0035,0.0011,2.1410,flat,18.0,2,4.279
460,14.72,-3.9383,-7.8154,0.1844,-0.0115,-0.0173,2.1165,flat,18.0,2,3.934
470,15.04,-4.2144,-7.3539,0.1985,0.0037,-0.0253,2.1128,flat,18.0,2,3.542
480,15.36,-4.4600,-6.9367,0.2250,-0.0268,-0.0025,1.9737,flat,18.0,2,3.223
490,15.68,-4.6255,-6.4939,0.2144,-0.0272,0.0262,1.5905,flat,18.0,2,2.889
500,16.00,-4.6042,-6.0157,0.1916,-0.0307,0.0479,1.2151,flat,18.0,2,2.464
510,16.32,-4.4069,-5.5404,0.1798,0.0009,0.0008,1.1201,flat,18.0,2,1.959
520,16.64,-4.1897,-5.1234,0.1799,-0.0001,0.0001,1.0456,flat,18.0,2,1.494
530,16.96,-3.9781,-4.7769,0.1756,0.0274,-0.0002,1.0235,flat,18.0,2,1.091
540,17.28,-3.7720,-4.4390,0.1826,0.0026,-0.0184,1.0095,flat,18.0,3,10.851
550,17.60,-3.5095,-4.0257,0.1901,0.0527,-0.0034,1.1042,flat,18.0,3,10.385
560,17.92,-3.2923,-3.5450,0.1855,0.0314,0.0030,1.2425,flat,18.0,3,9.866
570,18.24,-3.1388,-3.0330,0.1821,0.0140,0.0011,1.4377,flat,18.0,3,9.332
580,18.56,-3.0881,-2.5475,0.1878,-0.0228,-0.0707,1.6250,flat,18.0,3,8.848
590,18.88,-3.1224,-2.0439,0.1992,-0.0572,-0.0318,1.5249,slope,18.0,3,8.369
600,19.20,-3.0829,-1.5014,0.1944,-0.0511,0.0118,1.4642,slope,18.0,3,7.836
610,19.52,-3.0205,-0.9709,0.1866,-0.0243,0.0231,1.4695,flat,18.0,3,7.309
620,19.84,-2.9675,-0.4434,0.1799,0.0001,0.0001,1.4799,flat,18.0,3,6.788
630,20.16,-2.9061,0.0879,0.1798,-0.0000,0.0002,1.3513,flat,18.0,3,6.263
640,20.48,-2.7761,0.6224,0.1810,0.0117,-0.0047,1.2918,flat,18.0,3,5.715
650,20.80,-2.6186,1.1301,0.2083,0.0143,-0.0502,1.2593,slope,18.0,3,5.184
660,21.12,-2.4447,1.6838,0.2168,-0.0075,0.0311,1.2635,flat,18.0,3,4.604
670,21.44,-2.2731,2.2337,0.1890,-0.0153,0.0580,1.2582,slope,18.0,3,4.028
680,21.76,-2.0958,2.7609,0.1790,0.0048,-0.0002,1.2388,flat,18.0,3,3.472
690,22.08,-1.9095,3.2959,0.1799,0.0001,-0.0008,1.2156,flat,18.0,3,2.905
700,22.40,-1.7189,3.8008,0.1786,0.0028,-0.0049,1.2060,transition,15.0,3,2.366
710,22.72,-1.5503,4.2368,0.1852,0.0114,-0.0246,1.2034,slope,18.0,3,1.899
720,23.04,-1.3597,4.6829,0.2000,0.1109,0.0056,1.2143,slope,18.0,3,1.416
730,23.36,-1.2243,5.0327,0.2242,0.1180,-0.1159,1.1976,slope,18.0,3,1.042
740,23.68,-1.1077,5.2760,0.2717,0.1684,-0.2129,1.1168,slope,18.0,0,10.194
750,24.00,-1.0315,5.3479,0.2912,0.2102,-0.2404,0.8988,slope,18.0,0,10.216
760,24.32,-0.9575,5.3226,0.2856,0.2678,-0.1465,0.4800,rough,14.0,0,10.156
770,24.64,-0.7470,5.3379,0.2787,0.3424,-0.0099,0.2137,rough,14.0,0,10.064
780,24.96,-0.4453,5.3612,0.2808,0.3526,0.0011,0.0876,rough,14.0,0,9.938
790,25.28,-0.2159,5.3578,0.2807,0.3351,-0.0189,-0.0376,rough,14.0,0,9.830
800,25.60,0.0746,5.2543,0.2615,0.2369,0.0497,-0.4076,rough,14.0,0,9.608
810,25.92,0.3881,5.0403,0.2171,0.1361,0.0607,-0.7170,slope,18.0,0,9.281
820,26.24,0.7166,4.7206,0.1958,0.0119,0.0917,-0.9541,slope,18.0,0,8.856
830,26.56,0.9634,4.3274,0.1795,0.0004,-0.0025,-1.0367,flat,18.0,0,8.397
840,26.88,1.2267,3.8794,0.1798,-0.0003,-0.0005,-1.0466,flat,18.0,0,7.882
850,27.20,1.4776,3.4220,0.1798,0.0000,0.0002,-1.1403,flat,18.0,0,7.364
860,27.52,1.6883,2.9174,0.1799,0.0000,-0.0001,-1.2444,flat,18.0,0,6.817
870,27.84,1.8621,2.3791,0.1799,-0.0002,-0.0000,-1.2835,flat,18.0,0,6.253
880,28.16,2.0245,1.8305,0.1799,0.0000,0.0000,-1.2750,flat,18.0,0,5.684
890,28.48,2.1929,1.2921,0.1799,0.0001,0.0000,-1.2398,flat,18.0,0,5.123
900,28.80,2.3811,0.7629,0.1799,0.0002,-0.0000,-1.1982,flat,18.0,0,4.563
910,29.12,2.5916,0.2405,0.1799,0.0002,-0.0000,-1.1622,flat,18.0,0,4.000
920,29.44,2.8210,-0.2775,0.1799,0.0001,-0.0000,-1.1370,flat,18.0,0,3.433
930,29.76,3.0634,-0.7936,0.1799,0.0001,-0.0000,-1.1230,flat,18.0,0,2.863
940,30.08,3.3129,-1.3095,0.1799,0.0000,0.0000,-1.1170,flat,18.0,0,2.291
950,30.40,3.5519,-1.7988,0.1799,0.0000,0.0001,-1.1168,flat,18.0,0,1.747
960,30.72,3.7539,-2.2137,0.1799,-0.0000,0.0001,-1.1190,flat,18.0,0,1.286
970,31.04,3.9283,-2.5890,0.1799,0.0001,0.0000,-1.1863,flat,18.0,1,7.400
980,31.36,4.0695,-3.0071,0.1798,0.0013,0.0000,-1.6314,flat,18.0,1,7.172
990,31.68,4.0076,-3.4347,0.1799,0.0000,-0.0000,-2.0482,flat,18.0,1,6.816
1000,32.00,3.7528,-3.8276,0.1799,0.0002,0.0001,-2.2972,flat,18.0,1,6.357
1010,32.32,3.3882,-4.1842,0.1798,-0.0000,0.0002,-2.4495,flat,18.0,1,5.847
1020,32.64,2.9555,-4.5140,0.1799,0.0000,-0.0000,-2.5346,flat,18.0,1,5.309
1030,32.96,2.4846,-4.8337,0.1799,-0.0000,-0.0000,-2.5486,flat,18.0,1,4.754
1040,33.28,2.0261,-5.1516,0.1890,-0.0208,-0.0312,-2.5165,flat,18.0,1,4.213
1050,33.60,1.5914,-5.4920,0.1999,-0.0574,0.0045,-2.4607,flat,18.0,1,3.673
1060,33.92,1.1900,-5.8499,0.1819,-0.0500,0.0506,-2.3556,slope,18.0,1,3.144
1070,34.24,0.8090,-6.2401,0.1806,-0.0054,0.0110,-2.2991,flat,18.0,1,2.604
1080,34.56,0.4499,-6.6575,0.1849,-0.0162,-0.0088,-2.2632,flat,18.0,1,2.055
1090,34.88,0.1328,-7.0620,0.1939,-0.0533,0.0013,-2.2130,flat,18.0,1,1.543
1100,35.20,-0.1231,-7.4315,0.1934,-0.0435,0.0250,-2.1229,flat,18.0,1,1.094
1110,35.52,-0.3643,-7.8323,0.1846,-0.0116,0.0180,-2.0827,flat,18.0,2,4.866
1120,35.84,-0.5973,-8.2308,0.1784,0.0093,0.0002,-2.1290,flat,18.0,2,5.063
1130,36.16,-0.8060,-8.5509,0.1797,0.0009,0.0001,-2.2178,flat,18.0,2,5.236
1140,36.48,-1.0035,-8.8058,0.1807,0.0015,-0.0045,-2.3400,flat,18.0,2,5.375
1150,36.80,-1.1933,-8.9899,0.1807,0.0114,-0.0068,-2.4846,flat,18.0,2,5.467
1160,37.12,-1.3807,-9.1162,0.1845,-0.0044,-0.0019,-2.6176,flat,18.0,2,5.517
1170,37.44,-1.5536,-9.2072,0.1866,-0.0186,0.0074,-2.7303,flat,18.0,2,5.546
1180,37.76,-1.6958,-9.2720,0.1847,-0.0174,0.0093,-2.8300,flat,18.0,2,5.565
1190,38.08,-1.8434,-9.3165,0.1839,-0.0177,0.0032,-2.9314,flat,18.0,2,5.568
1200,38.40,-1.9945,-9.3641,0.1848,-0.0256,-0.0017,3.1027,flat,18.0,2,5.577
1210,38.72,-2.1388,-9.3780,0.1873,-0.0383,-0.0019,2.8940,flat,18.0,2,5.559
1220,39.04,-2.2774,-9.3592,0.1895,-0.0492,-0.0019,2.7288,flat,18.0,2,5.514
1230,39.36,-2.4141,-9.3129,0.1914,-0.0586,-0.0024,2.5951,slope,18.0,2,5.445
1240,39.68,-2.5473,-9.2406,0.1935,-0.0528,-0.0241,2.4857,slope,18.0,2,5.354
1250,40.00,-2.6860,-9.1411,0.1963,-0.0511,-0.0448,2.3960,flat,18.0,2,5.238
1260,40.32,-2.8408,-8.9922,0.2029,-0.0522,-0.0253,2.3166,slope,18.0,2,5.074
1270,40.64,-3.0121,-8.8133,0.2023,-0.0695,0.0132,2.2528,slope,18.0,2,4.884
1280,40.96,-3.1868,-8.5783,0.1992,-0.0648,0.0135,2.1941,slope,18.0,2,4.642
1290,41.28,-3.3813,-8.2790,0.1857,-0.0126,0.0108,2.1456,slope,18.0,2,4.343
1300,41.60,-3.6053,-7.9115,0.1812,-0.0057,0.0035,2.1129,flat,18.0,2,3.988
1310,41.92,-3.8699,-7.4643,0.1902,-0.0038,-0.0235,2.1019,flat,18.0,2,3.576
1320,42.24,-4.1129,-7.0372,0.2181,-0.0030,-0.0718,1.9779,slope,18.0,2,3.210
1330,42.56,-4.2704,-6.5694,0.2250,0.0015,0.0469,1.7661,flat,18.0,2,2.812
1340,42.88,-4.3466,-6.0785,0.1946,0.0044,0.0604,1.6908,slope,18.0,2,2.392
1350,43.20,-4.3693,-5.6184,0.1787,0.0048,0.0018,1.3532,flat,18.0,2,2.003
1360,43.52,-4.2484,-5.1739,0.1783,-0.0001,0.0087,1.2034,flat,18.0,2,1.570
1370,43.84,-4.0972,-4.7961,0.1797,-0.0001,0.0010,1.1488,flat,18.0,2,1.185
1380,44.16,-3.9497,-4.4780,0.1814,0.0002,-0.0101,1.0907,flat,18.0,3,10.936
1390,44.48,-3.7547,-4.1133,0.1925,0.0205,-0.0614,1.1679,slope,18.0,3,10.532
1400,44.80,-3.5458,-3.6143,0.1961,0.0609,0.0188,1.2730,slope,18.0,3,9.996
1410,45.12,-3.4068,-3.1058,0.1904,0.0542,0.0017,1.4394,slope,18.0,3,9.469
1420,45.44,-3.3311,-2.5776,0.1853,-0.0008,-0.0212,1.3603,flat,18.0,3,8.939
1430,45.76,-3.2134,-2.0477,0.1967,-0.0468,-0.0337,1.2929,flat,18.0,3,8.397
1440,46.08,-3.0687,-1.5123,0.1945,-0.0593,0.0070,1.3091,slope,18.0,3,7.842
1450,46.40,-2.9245,-0.9740,0.1883,-0.0188,0.0346,1.3313,flat,18.0,3,7.285
1460,46.72,-2.7897,-0.4602,0.1764,0.0228,0.0009,1.3066,flat,18.0,3,6.754
1470,47.04,-2.6379,0.0618,0.1795,-0.0012,0.0001,1.2199,flat,18.0,3,6.210
1480,47.36,-2.4383,0.5901,0.1847,0.0127,-0.0129,1.2045,flat,18.0,3,5.648
1490,47.68,-2.2294,1.1096,0.1995,0.0395,-0.0530,1.2012,slope,18.0,3,5.092
1500,48.00,-2.0209,1.6478,0.2050,0.0589,0.0291,1.2350,slope,18.0,3,4.520
1510,48.32,-1.8456,2.1869,0.1864,0.0114,0.0297,1.2672,flat,18.0,3,3.955
1520,48.64,-1.6784,2.7305,0.1797,-0.0002,-0.0005,1.2727,flat,18.0,3,3.388
1530,48.96,-1.5113,3.2809,0.1759,0.0090,0.0207,1.2864,flat,18.0,3,2.815
1540,49.28,-1.3563,3.8241,0.1804,-0.0017,0.0041,1.2932,transition,15.0,3,2.252
1550,49.60,-1.2273,4.2784,0.1794,-0.0005,-0.0055,1.2951,slope,18.0,3,1.783
1560,49.92,-1.0996,4.7168,0.1862,0.0231,-0.0312,1.3148,slope,18.0,3,1.331
1570,50.24,-0.9978,5.0598,0.2182,0.0702,-0.1123,1.3978,slope,18.0,0,0.982
1580,50.56,-0.9503,5.3248,0.2752,0.0651,-0.3260,1.3728,slope,18.0,0,10.155
1590,50.88,-0.8645,5.4857,0.3289,0.2384,-0.3504,1.0566,slope,18.0,0,10.251
1600,51.20,-0.7156,5.6090,0.3763,0.3484,-0.2297,0.5593,slope,18.0,0,10.285
1610,51.52,-0.4395,5.6658,0.3927,0.4306,-0.1257,0.2217,slope,18.0,0,10.206
1620,51.84,-0.0320,5.6698,0.4023,0.4273,0.0195,-0.0766,slope,18.0,0,10.029
1630,52.16,0.3748,5.5070,0.3389,0.3297,0.1580,-0.4846,rough,14.0,0,9.713
1640,52.48,0.3581,5.4036,0.3109,0.3690,-0.0297,-0.2345,rough,14.0,0,9.625
1650,52.80,0.3520,5.3650,0.3005,0.3301,-0.0515,-0.1189,rough,14.0,0,9.592
1660,53.12,0.3515,5.3483,0.2957,0.3089,-0.0465,-0.0635,rough,14.0,0,9.577
1670,53.44,0.3516,5.3392,0.2933,0.3003,-0.0499,-0.0430,rough,14.0,0,9.569
1680,53.76,0.3516,5.3336,0.2918,0.2956,-0.0514,-0.0344,rough,14.0,0,9.564
1690,54.08,0.3515,5.3297,0.2907,0.2925,-0.0516,-0.0294,rough,14.0,0,9.560
1700,54.40,0.3515,5.3267,0.2899,0.2902,-0.0522,-0.0273,rough,14.0,0,9.558
1710,54.72,0.3516,5.3240,0.2892,0.2884,-0.0525,-0.0265,rough,14.0,0,9.555
1720,55.04,0.3510,5.3211,0.2886,0.2866,-0.0527,-0.0270,rough,14.0,0,9.553
1730,55.36,0.3507,5.3181,0.2876,0.2845,-0.0515,-0.0272,rough,14.0,0,9.550
1740,55.68,0.3512,5.3147,0.2869,0.2826,-0.0522,-0.0283,rough,14.0,0,9.547
1750,56.00,0.3504,5.3117,0.2858,0.2804,-0.0503,-0.0267,rough,14.0,0,9.544
1760,56.32,0.3510,5.3084,0.2852,0.2784,-0.0518,-0.0277,rough,14.0,0,9.541
1770,56.64,0.3513,5.3050,0.2845,0.2764,-0.0525,-0.0285,rough,14.0,0,9.538
1780,56.96,0.3505,5.3021,0.2836,0.2742,-0.0515,-0.0270,rough,14.0,0,9.536
1790,57.28,0.3507,5.2990,0.2829,0.2721,-0.0522,-0.0266,rough,14.0,0,9.533
1800,57.60,0.3500,5.2959,0.2821,0.2694,-0.0534,-0.0222,rough,14.0,0,9.530
1810,57.92,0.3501,5.2942,0.2815,0.2680,-0.0531,-0.0190,rough,14.0,0,9.528
1820,58.24,0.3502,5.2928,0.2811,0.2670,-0.0529,-0.0197,rough,14.0,0,9.527
1830,58.56,0.3500,5.2920,0.2807,0.2660,-0.0522,-0.0160,rough,14.0,0,9.526
1840,58.88,0.3500,5.2915,0.2807,0.2652,-0.0545,-0.0126,rough,14.0,0,9.526
1850,59.20,0.3503,5.2913,0.2807,0.2656,-0.0535,-0.0167,rough,14.0,0,9.526
1860,59.52,0.3501,5.2911,0.2804,0.2651,-0.0525,-0.0144,rough,14.0,0,9.526
1870,59.84,0.3501,5.2909,0.2805,0.2648,-0.0542,-0.0123,rough,14.0,0,9.525
1880,60.16,0.3497,5.2908,0.2799,0.2645,-0.0513,-0.0093,rough,14.0,0,9.526
1890,60.48,0.3500,5.2906,0.2804,0.2644,-0.0542,-0.0112,rough,14.0,0,9.525
1900,60.80,0.3499,5.2906,0.2805,0.2643,-0.0557,-0.0091,rough,14.0,0,9.525
1910,61.12,0.3501,5.2908,0.2803,0.2648,-0.0526,-0.0133,rough,14.0,0,9.525
1920,61.44,0.3501,5.2907,0.2804,0.2646,-0.0537,-0.0123,rough,14.0,0,9.525
1930,61.76,0.3500,5.2906,0.2804,0.2645,-0.0540,-0.0115,rough,14.0,0,9.525
1940,62.08,0.3497,5.2906,0.2798,0.2643,-0.0507,-0.0092,rough,14.0,0,9.525
1950,62.40,0.3503,5.2907,0.2805,0.2650,-0.0536,-0.0152,rough,14.0,0,9.525
1960,62.72,0.3502,5.2909,0.2804,0.2650,-0.0529,-0.0142,rough,14.0,1,13.685
1970,63.04,0.3499,5.2908,0.2802,0.2647,-0.0525,-0.0120,rough,14.0,1,13.685
1980,63.36,0.3499,5.2907,0.2805,0.2644,-0.0554,-0.0099,rough,14.0,1,13.685
1990,63.68,0.3499,5.2906,0.2806,0.2643,-0.0562,-0.0092,rough,14.0,1,13.685
2000,64.00,0.3499,5.2905,0.2805,0.2643,-0.0552,-0.0099,rough,14.0,1,13.685
2010,64.32,0.3503,5.2908,0.2806,0.2651,-0.0539,-0.0151,rough,14.0,1,13.685
2020,64.64,0.3499,5.2906,0.2802,0.2646,-0.0532,-0.0111,rough,14.0,1,13.685
2030,64.96,0.3499,5.2905,0.2804,0.2643,-0.0543,-0.0104,rough,14.0,1,13.685
2040,65.28,0.3498,5.2905,0.2799,0.2645,-0.0507,-0.0112,rough,14.0,1,13.685
2050,65.60,0.3501,5.2905,0.2804,0.2646,-0.0537,-0.0135,rough,14.0,1,13.685
2060,65.92,0.3497,5.2904,0.2804,0.2640,-0.0555,-0.0076,rough,14.0,1,13.685
2070,66.24,0.3500,5.2907,0.2803,0.2647,-0.0531,-0.0123,rough,14.0,1,13.685
2080,66.56,0.3497,5.2907,0.2799,0.2644,-0.0512,-0.0096,rough,14.0,1,13.685
2090,66.88,0.3502,5.2908,0.2804,0.2650,-0.0527,-0.0151,rough,14.0,1,13.685
2100,67.20,0.3501,5.2908,0.2803,0.2648,-0.0527,-0.0133,rough,14.0,1,13.685
2110,67.52,0.3500,5.2908,0.2804,0.2648,-0.0535,-0.0124,rough,14.0,1,13.685
2120,67.84,0.3500,5.2907,0.2803,0.2647,-0.0529,-0.0126,rough,14.0,1,13.685
2130,68.16,0.3499,5.2906,0.2802,0.2647,-0.0529,-0.0124,rough,14.0,1,13.685
2140,68.48,0.3500,5.2906,0.2804,0.2645,-0.0537,-0.0120,rough,14.0,1,13.685
2150,68.80,0.3499,5.2906,0.2802,0.2645,-0.0526,-0.0106,rough,14.0,1,13.685
2160,69.12,0.3500,5.2905,0.2804,0.2646,-0.0539,-0.0128,rough,14.0,1,13.685
2170,69.44,0.3499,5.2906,0.2802,0.2645,-0.0525,-0.0114,rough,14.0,1,13.685
2180,69.76,0.3499,5.2906,0.2805,0.2643,-0.0554,-0.0097,rough,14.0,1,13.685
2190,70.08,0.3499,5.2906,0.2806,0.2642,-0.0560,-0.0092,rough,14.0,1,13.685
2200,70.40,0.3501,5.2908,0.2804,0.2649,-0.0531,-0.0137,rough,14.0,1,13.685
2210,70.72,0.3501,5.2907,0.2805,0.2646,-0.0541,-0.0125,rough,14.0,1,13.685
2220,71.04,0.3501,5.2907,0.2804,0.2647,-0.0538,-0.0128,rough,14.0,1,13.685
2230,71.36,0.3502,5.2907,0.2804,0.2647,-0.0537,-0.0130,rough,14.0,1,13.685
2240,71.68,0.3501,5.2906,0.2804,0.2647,-0.0537,-0.0132,rough,14.0,1,13.685
2250,72.00,0.3501,5.2906,0.2804,0.2646,-0.0542,-0.0123,rough,14.0,1,13.685
2260,72.32,0.3501,5.2906,0.2804,0.2646,-0.0538,-0.0128,rough,14.0,1,13.685
2270,72.64,0.3500,5.2905,0.2802,0.2647,-0.0524,-0.0138,rough,14.0,1,13.685
2280,72.96,0.3499,5.2904,0.2804,0.2642,-0.0548,-0.0102,rough,14.0,1,13.685
2290,73.28,0.3502,5.2907,0.2805,0.2650,-0.0533,-0.0155,rough,14.0,1,13.685
2300,73.60,0.3499,5.2905,0.2805,0.2642,-0.0554,-0.0097,rough,14.0,1,13.685
2310,73.92,0.3500,5.2904,0.2803,0.2643,-0.0541,-0.0112,rough,14.0,1,13.685
2320,74.24,0.3502,5.2907,0.2805,0.2650,-0.0531,-0.0161,rough,14.0,2,13.685
2330,74.56,0.3505,5.2905,0.2804,0.2647,-0.0536,-0.0146,rough,14.0,2,9.917
2340,74.88,0.3069,5.2744,0.2751,0.2573,-0.0264,-0.1015,rough,14.0,2,9.886
2350,75.20,0.3003,5.2371,0.2650,0.2313,-0.0291,-0.0832,rough,14.0,2,9.848
2360,75.52,0.3069,5.2239,0.2611,0.2183,-0.0387,-0.0337,rough,14.0,2,9.839
2370,75.84,0.2687,5.1668,0.2460,0.1896,-0.0037,-0.1800,slope,18.0,2,9.772
2380,76.16,0.3018,5.1325,0.2354,0.1490,-0.0456,-0.0265,slope,18.0,2,9.752
2390,76.48,0.2780,5.1071,0.2286,0.1543,0.0060,-0.1608,slope,18.0,2,9.719
2400,76.80,0.3212,5.0283,0.2208,0.1290,0.0227,-0.5422,slope,18.0,2,9.662
2410,77.12,0.5409,4.7924,0.2012,0.0923,0.0441,-0.9852,slope,18.0,2,9.530
2420,77.44,0.7557,4.4482,0.1778,-0.0146,0.0056,-1.1892,flat,18.0,2,9.306
2430,77.76,0.9169,4.0138,0.1796,-0.0013,0.0002,-1.2428,flat,18.0,2,8.991
2440,78.08,1.0576,3.5593,0.1799,-0.0000,-0.0000,-1.3309,flat,18.0,2,8.661
2450,78.40,1.1418,3.1113,0.1798,0.0013,-0.0000,-1.7551,flat,18.0,2,8.321
2460,78.72,1.0256,2.6689,0.1798,-0.0001,-0.0003,-2.0754,flat,18.0,2,7.886
2470,79.04,0.7544,2.2552,0.1799,-0.0000,0.0000,-2.2631,flat,18.0,2,7.391
2480,79.36,0.4003,1.8809,0.1799,-0.0001,-0.0000,-2.3995,flat,18.0,2,6.885
2490,79.68,-0.0159,1.5287,0.1799,-0.0001,-0.0001,-2.4739,flat,18.0,2,6.367
2500,80.00,-0.4647,1.1805,0.1799,-0.0000,-0.0000,-2.4770,flat,18.0,2,5.841
2510,80.32,-0.8925,0.8344,0.1792,-0.0041,0.0004,-2.4230,flat,18.0,2,5.336
2520,80.64,-1.2798,0.4696,0.1805,0.0040,-0.0004,-2.3243,flat,18.0,2,4.840
2530,80.96,-1.6227,0.0691,0.1806,0.0045,-0.0011,-2.2156,flat,18.0,2,4.336
2540,81.28,-1.9230,-0.3675,0.1805,0.0043,0.0003,-2.1004,flat,18.0,2,3.819
2550,81.60,-2.1804,-0.8238,0.1866,0.0220,-0.0186,-2.0211,flat,18.0,2,3.302
2560,81.92,-2.4018,-1.2995,0.2063,0.0227,-0.0470,-1.9575,flat,18.0,2,2.780
2570,82.24,-2.6024,-1.8189,0.2246,0.0209,-0.0019,-1.9064,flat,18.0,2,2.224
2580,82.56,-2.7693,-2.3339,0.1997,-0.0261,0.0388,-1.8946,flat,18.0,2,1.683
2590,82.88,-2.9163,-2.7592,0.1861,-0.0032,0.0420,-1.8947,flat,18.0,2,1.233
2600,83.20,-3.0501,-3.1564,0.1797,0.0004,-0.0001,-1.8940,flat,18.0,3,9.432
2610,83.52,-3.1547,-3.4870,0.1816,-0.0075,0.0025,-1.6378,flat,18.0,3,9.778
2620,83.84,-3.2108,-3.7109,0.1847,-0.0021,0.0312,-1.0532,flat,18.0,3,10.008
2630,84.16,-3.1955,-3.8235,0.1797,-0.0011,-0.0016,-0.5219,flat,18.0,3,10.115
2640,84.48,-2.9448,-3.9431,0.1798,-0.0002,-0.0008,-0.1345,flat,18.0,3,10.179
2650,84.80,-2.5007,-3.9641,0.1775,0.0118,0.0004,0.2867,flat,18.0,3,10.123
2660,85.12,-2.0542,-3.7969,0.1799,-0.0006,0.0001,0.5528,flat,18.0,3,9.898
2670,85.44,-1.6617,-3.5136,0.1839,-0.0282,-0.0315,0.7587,flat,18.0,3,9.580
2680,85.76,-1.3282,-3.1546,0.1880,-0.0390,-0.0019,1.0064,flat,18.0,3,9.203
2690,86.08,-1.1042,-2.7362,0.1838,-0.0076,0.0188,1.1856,flat,18.0,3,8.778
2700,86.40,-0.9501,-2.2602,0.1803,-0.0007,0.0025,1.3019,flat,18.0,3,8.301
2710,86.72,-0.8417,-1.7777,0.1797,0.0002,0.0001,1.5558,flat,18.0,3,7.819
2720,87.04,-0.8620,-1.2730,0.1799,0.0010,0.0004,1.8082,flat,18.0,3,7.314
2730,87.36,-1.0027,-0.7590,0.1841,-0.0002,-0.0277,1.8836,flat,18.0,3,6.800
2740,87.68,-1.1945,-0.2441,0.1871,-0.0439,0.0024,1.9326,flat,18.0,3,6.289
2750,88.00,-1.3910,0.2910,0.1810,-0.0032,0.0051,1.9209,flat,18.0,3,5.766
2760,88.32,-1.5688,0.8119,0.1798,0.0011,-0.0008,1.8446,flat,18.0,3,5.264
2770,88.64,-1.6904,1.3269,0.1867,0.0249,-0.0219,1.6986,flat,18.0,3,4.770
2780,88.96,-1.7369,1.8635,0.1918,0.0270,0.0141,1.5442,flat,18.0,3,4.249
2790,89.28,-1.7094,2.3950,0.1777,-0.0069,-0.0034,1.4225,flat,18.0,3,3.722
2800,89.60,-1.6210,2.9322,0.1808,-0.0057,-0.0031,1.3566,flat,18.0,3,3.178
2810,89.92,-1.4949,3.4693,0.1812,-0.0062,0.0023,1.3081,flat,18.0,3,2.627
