step,time_s,x,y,z,roll,pitch,yaw,terrain,speed,target_idx,dist_to_target
10,0.32,0.1089,-0.0577,0.1875,-0.0002,-0.0253,0.0009,rough,14.0,0,6.880
20,0.64,0.5153,-0.0737,0.1799,0.0003,-0.0001,-0.1360,rough,14.0,0,6.565
30,0.96,0.9303,-0.1374,0.1799,-0.0000,0.0003,-0.2619,rough,14.0,0,6.221
40,1.28,1.3380,-0.2541,0.1799,-0.0001,0.0000,-0.3584,rough,14.0,0,5.853
50,1.60,1.7391,-0.4121,0.1799,-0.0001,0.0000,-0.4232,rough,14.0,0,5.466
60,1.92,2.1318,-0.5958,0.1799,-0.0002,-0.0000,-0.4765,rough,14.0,0,5.072
70,2.24,2.5143,-0.8001,0.1799,-0.0001,-0.0000,-0.5272,rough,14.0,0,4.675
80,2.56,2.8852,-1.0238,0.1799,-0.0001,-0.0000,-0.5786,rough,14.0,0,4.275
90,2.88,3.2428,-1.2667,0.1799,-0.0002,-0.0000,-0.6317,rough,14.0,0,3.874
100,3.20,3.5858,-1.5285,0.1799,-0.0002,-0.0000,-0.6866,rough,14.0,0,3.471
110,3.52,3.9125,-1.8091,0.1799,-0.0002,0.0000,-0.7435,rough,14.0,0,3.066
120,3.84,4.2211,-2.1084,0.1799,-0.0002,-0.0000,-0.8029,rough,14.0,0,2.661
130,4.16,4.5107,-2.4261,0.1799,-0.0002,-0.0000,-0.8624,rough,14.0,0,2.254
140,4.48,4.7801,-2.7611,0.1799,-0.0002,-0.0000,-0.9226,rough,14.0,0,1.848
150,4.80,5.0287,-3.1112,0.1799,-0.0002,0.0000,-0.9931,rough,14.0,0,1.444
160,5.12,5.2546,-3.4720,0.1819,0.0011,-0.0131,-1.0877,rough,14.0,0,1.052
170,5.44,5.4031,-3.8126,0.2025,0.0997,-0.0185,-1.2611,rough,14.0,1,12.142
180,5.76,5.4097,-4.0206,0.2083,0.1268,-0.0384,-1.6756,rough,14.0,1,12.338
190,6.08,5.3024,-4.2804,0.2101,0.1289,-0.0080,-2.0691,rough,14.0,1,12.544
200,6.40,5.0912,-4.5182,0.1995,0.0762,0.0238,-2.3630,rough,14.0,1,12.699
210,6.72,4.8224,-4.7006,0.1918,0.0454,0.0207,-2.5866,rough,14.0,1,12.789
220,7.04,4.5056,-4.8424,0.1818,0.0133,-0.0042,-2.7565,rough,14.0,1,12.835
230,7.36,4.1818,-4.9578,0.1793,0.0020,0.0012,-2.9757,rough,14.0,1,12.863
240,7.68,3.8172,-5.0114,0.1798,0.0000,0.0002,3.0574,rough,14.0,1,12.830
250,8.00,3.4340,-4.9705,0.1799,-0.0001,0.0002,2.8613,rough,14.0,1,12.712
260,8.32,3.0475,-4.8466,0.1799,0.0000,-0.0000,2.7271,rough,14.0,1,12.522
270,8.64,2.6730,-4.6683,0.1799,-0.0001,-0.0000,2.6111,rough,14.0,1,12.290
280,8.96,2.3113,-4.4459,0.1820,0.0009,-0.0141,2.5341,rough,14.0,1,12.025
290,9.28,1.9703,-4.1936,0.1787,-0.0088,0.0054,2.4506,rough,14.0,1,11.742
300,9.60,1.6530,-3.9112,0.1797,-0.0011,0.0000,2.3805,rough,14.0,1,11.439
310,9.92,1.3514,-3.6064,0.1799,-0.0003,-0.0000,2.3178,rough,14.0,1,11.121
320,10.24,1.0670,-3.2818,0.1799,-0.0002,-0.0000,2.2635,rough,14.0,1,10.792
330,10.56,0.7980,-2.9414,0.1799,-0.0001,-0.0000,2.2133,rough,14.0,1,10.454
340,10.88,0.5434,-2.5876,0.1799,-0.0002,-0.0000,2.1618,rough,14.0,1,10.109
350,11.20,0.3053,-2.2204,0.1799,-0.0001,-0.0000,2.1132,rough,14.0,1,9.756
360,11.52,0.0838,-1.8415,0.1799,-0.0001,-0.0000,2.0680,rough,14.0,1,9.398
370,11.84,-0.1211,-1.4524,0.1799,-0.0001,-0.0000,2.0258,rough,14.0,1,9.034
380,12.16,-0.3101,-1.0547,0.1799,0.0000,-0.0001,1.9865,rough,14.0,1,8.667
390,12.48,-0.4815,-0.6570,0.1840,0.0054,-0.0315,1.9569,rough,14.0,1,8.303
400,12.80,-0.6355,-0.2433,0.1980,0.0202,-0.0134,1.9216,rough,14.0,1,7.928
410,13.12,-0.7887,0.1778,0.1928,-0.0091,0.0306,1.9006,rough,14.0,1,7.552
420,13.44,-0.9268,0.5923,0.1830,-0.0006,0.0207,1.8657,rough,14.0,1,7.186
430,13.76,-1.0490,1.0119,0.1797,0.0000,-0.0011,1.8327,rough,14.0,1,6.819
440,14.08,-1.1557,1.4384,0.1796,0.0002,0.0010,1.7982,rough,14.0,1,6.449
450,14.40,-1.2501,1.8684,0.1807,0.0074,-0.0048,1.7678,rough,14.0,1,6.081
460,14.72,-1.3320,2.3038,0.1818,0.0076,-0.0003,1.7475,rough,14.0,1,5.712
470,15.04,-1.4058,2.7369,0.1787,0.0074,-0.0024,1.7151,rough,14.0,1,5.353
480,15.36,-1.4700,3.1652,0.1768,-0.0241,-0.0204,1.6859,rough,14.0,1,5.007
490,15.68,-1.5091,3.5916,0.1811,-0.0081,0.0009,1.5657,rough,14.0,1,4.663
500,16.00,-1.4984,4.0129,0.1816,0.0024,-0.0086,1.4343,rough,14.0,1,4.309
510,16.32,-1.4253,4.4359,0.1889,0.0383,-0.0106,1.3741,rough,14.0,1,3.927
520,16.64,-1.3258,4.8204,0.2095,0.1062,-0.0627,1.3381,rough,14.0,1,3.568
530,16.96,-1.2199,5.1910,0.2491,0.1351,-0.1523,1.2708,rough,14.0,1,3.223
540,17.28,-1.0976,5.5229,0.3500,0.1588,-0.3562,1.2034,rough,14.0,1,2.903
550,17.60,-0.9529,5.8617,0.4844,0.1722,-0.4155,1.1258,rough,14.0,1,2.570
560,17.92,-0.7845,6.1954,0.6496,0.1939,-0.4208,1.0416,rough,14.0,1,2.231
570,18.24,-0.5856,6.5178,0.8208,0.2190,-0.4228,0.9654,rough,14.0,1,1.886
580,18.56,-0.3672,6.8254,0.9912,0.2350,-0.4315,0.8913,rough,14.0,1,1.546
590,18.88,-0.1355,7.1190,1.1637,0.2265,-0.4374,0.8218,rough,14.0,1,1.219
600,19.20,0.1201,7.3711,1.3352,0.2550,-0.4746,0.7379,rough,14.0,1,0.909
610,19.52,0.3255,7.5254,1.4595,0.3676,-0.4121,0.4228,rough,14.0,2,14.910
620,19.84,0.5648,7.5198,1.5086,0.5068,-0.2310,0.0056,rough,14.0,2,15.039
630,20.16,0.8513,7.3867,1.4870,0.6080,0.0517,-0.3625,rough,14.0,2,15.093
640,20.48,1.1041,7.1911,1.4090,0.6186,0.2661,-0.6221,rough,14.0,2,15.084
650,20.80,1.3109,6.9560,1.2749,0.5872,0.4113,-0.7902,rough,14.0,2,15.021
660,21.12,1.4719,6.7094,1.1252,0.5037,0.4345,-0.9958,rough,14.0,2,14.928
670,21.44,1.6334,6.3826,0.9329,0.4773,0.4864,-1.0862,rough,14.0,2,14.778
680,21.76,1.7534,6.0551,0.7541,0.3923,0.4554,-1.2332,rough,14.0,2,14.608
690,22.08,1.8503,5.6768,0.5551,0.2796,0.4424,-1.3221,rough,14.0,2,14.392
700,22.40,1.9424,5.2772,0.3734,0.1175,0.5004,-1.3776,rough,14.0,2,14.164
710,22.72,1.9981,4.9050,0.2267,0.0405,0.3494,-1.4514,rough,14.0,2,13.938
720,23.04,2.0314,4.5763,0.1790,-0.0001,-0.0036,-1.5422,rough,14.0,2,13.733
730,23.36,2.0158,4.2334,0.1798,-0.0001,0.0001,-1.8425,rough,14.0,2,13.487
740,23.68,1.9060,3.8953,0.1798,-0.0001,-0.0000,-2.0813,rough,14.0,2,13.178
750,24.00,1.7016,3.5806,0.1799,0.0002,0.0001,-2.2737,rough,14.0,2,12.816
760,24.32,1.4269,3.3014,0.1799,-0.0000,-0.0002,-2.4473,rough,14.0,2,12.425
770,24.64,1.1008,3.0668,0.1799,-0.0000,0.0003,-2.6116,rough,14.0,2,12.025
780,24.96,0.7374,2.8800,0.1798,-0.0000,-0.0002,-2.7882,rough,14.0,2,11.630
790,25.28,0.3441,2.7547,0.1799,-0.0001,-0.0001,-2.8500,rough,14.0,2,11.255
800,25.60,-0.0652,2.6240,0.1799,0.0001,0.0001,-2.7769,rough,14.0,2,10.868
810,25.92,-0.4543,2.4629,0.1817,-0.0051,-0.0070,-2.7412,rough,14.0,2,10.477
820,26.24,-0.8421,2.2867,0.1833,-0.0172,0.0014,-2.6994,rough,14.0,2,10.079
830,26.56,-1.2337,2.0915,0.1788,-0.0029,0.0107,-2.6511,rough,14.0,2,9.667
840,26.88,-1.6109,1.8840,0.1846,-0.0013,-0.0138,-2.6065,rough,14.0,2,9.257
850,27.20,-1.9726,1.6571,0.2018,-0.0307,-0.0625,-2.5771,rough,14.0,2,8.846
860,27.52,-2.3430,1.4090,0.2155,-0.0485,0.0093,-2.5386,rough,14.0,2,8.414
870,27.84,-2.7061,1.1567,0.2103,-0.0340,0.0352,-2.5166,rough,14.0,2,7.986
880,28.16,-3.0660,0.8979,0.1911,-0.0055,0.0606,-2.4875,rough,14.0,2,7.556
890,28.48,-3.4011,0.6390,0.1807,0.0128,-0.0230,-2.4596,rough,14.0,2,7.143
900,28.80,-3.7344,0.3616,0.1980,0.0082,-0.0513,-2.4343,rough,14.0,2,6.719
910,29.12,-4.0629,0.0697,0.2192,0.0031,-0.0406,-2.4086,rough,14.0,2,6.286
920,29.44,-4.3974,-0.2373,0.2276,0.0011,0.0342,-2.3848,rough,14.0,2,5.840
930,29.76,-4.7174,-0.5479,0.2076,-0.0140,0.0594,-2.3622,rough,14.0,2,5.400
940,30.08,-5.0246,-0.8555,0.1903,-0.0017,0.0173,-2.3407,rough,14.0,2,4.971
950,30.40,-5.3290,-1.1546,0.1889,0.0027,-0.0295,-2.3442,rough,14.0,2,4.552
960,30.72,-5.6249,-1.4689,0.2054,-0.0141,-0.0602,-2.3044,rough,14.0,2,4.126
970,31.04,-5.9198,-1.8019,0.2272,-0.0054,-0.0315,-2.2815,rough,14.0,2,3.686
980,31.36,-6.2113,-2.1509,0.2173,-0.0222,0.0382,-2.2657,rough,14.0,2,3.236
990,31.68,-6.4926,-2.4972,0.1972,-0.0239,0.0543,-2.2444,rough,14.0,2,2.794
1000,32.00,-6.7605,-2.8387,0.1831,-0.0134,0.0067,-2.2205,rough,14.0,2,2.365
1010,32.32,-7.0159,-3.1885,0.1903,-0.0285,-0.0337,-2.1924,rough,14.0,2,1.937
1020,32.64,-7.2640,-3.5524,0.2003,-0.0434,-0.0221,-2.1630,rough,14.0,2,1.501
1030,32.96,-7.5023,-3.9259,0.1994,-0.0626,0.0117,-2.1303,rough,14.0,2,1.063
1040,33.28,-7.7225,-4.2982,0.1894,-0.0416,0.0089,-2.1438,rough,14.0,3,0.914
1050,33.60,-7.8946,-4.6021,0.1795,0.0042,0.0018,-1.9450,rough,14.0,0,13.240
1060,33.92,-7.9888,-4.8872,0.1797,-0.0000,-0.0004,-1.5639,rough,14.0,0,13.339
1070,34.24,-7.9823,-5.1963,0.1798,-0.0001,-0.0002,-1.2673,rough,14.0,0,13.344
1080,34.56,-7.8630,-5.5184,0.1799,0.0002,-0.0000,-1.0512,rough,14.0,0,13.245
1090,34.88,-7.6665,-5.8258,0.1890,-0.0010,-0.0619,-0.8979,rough,14.0,0,13.077
1100,35.20,-7.3975,-6.1153,0.1972,-0.0477,-0.0146,-0.7564,rough,14.0,0,12.842
1110,35.52,-7.0982,-6.3754,0.1933,-0.0305,0.0353,-0.6349,rough,14.0,0,12.580
1120,35.84,-6.7731,-6.6057,0.1836,-0.0027,0.0269,-0.5381,rough,14.0,0,12.296
1130,36.16,-6.4172,-6.8029,0.1798,0.0001,-0.0006,-0.4511,rough,14.0,0,11.981
1140,36.48,-6.0264,-6.9772,0.1799,-0.0001,-0.0002,-0.3445,rough,14.0,0,11.633
1150,36.80,-5.6158,-7.1157,0.1799,-0.0001,0.0000,-0.2647,rough,14.0,0,11.264
1160,37.12,-5.2181,-7.2213,0.1905,0.0084,-0.0488,-0.2205,rough,14.0,0,10.903
1170,37.44,-4.8081,-7.3168,0.2029,0.0483,-0.0076,-0.1804,rough,14.0,0,10.531
1180,37.76,-4.3852,-7.3896,0.2037,0.0504,0.0051,-0.1097,rough,14.0,0,10.144
1190,38.08,-3.9512,-7.4316,0.1970,0.0415,0.0085,-0.0440,rough,14.0,0,9.741
1200,38.40,-3.5133,-7.4381,0.1853,0.0116,0.0161,0.0142,rough,14.0,0,9.326
1210,38.72,-3.0998,-7.4248,0.1826,-0.0127,-0.0071,0.1520,rough,14.0,0,8.930
1220,39.04,-2.7062,-7.3473,0.1850,-0.0151,0.0153,0.3309,rough,14.0,0,8.533
1230,39.36,-2.3457,-7.2170,0.1824,-0.0006,0.0165,0.5168,rough,14.0,0,8.149
1240,39.68,-2.0188,-7.0154,0.1784,-0.0086,0.0020,0.6701,rough,14.0,0,7.775
1250,40.00,-1.7098,-6.7525,0.1868,-0.0143,-0.0294,0.8084,rough,14.0,0,7.399
1260,40.32,-1.4086,-6.4640,0.1907,-0.0293,-0.0100,0.7297,rough,14.0,0,7.027
1270,40.64,-1.0958,-6.1832,0.1944,-0.0504,0.0045,0.6689,rough,14.0,0,6.652
1280,40.96,-0.7614,-5.9205,0.1924,-0.0621,0.0036,0.6097,rough,14.0,0,6.265
1290,41.28,-0.3943,-5.6828,0.1834,-0.0080,0.0155,0.5479,rough,14.0,0,5.856
1300,41.60,-0.0215,-5.4661,0.1798,-0.0001,0.0001,0.4903,rough,14.0,0,5.449
1310,41.92,0.3477,-5.2695,0.1891,-0.0177,-0.0411,0.4529,rough,14.0,0,5.053
1320,42.24,0.7307,-5.0857,0.2050,-0.0320,-0.0445,0.4140,rough,14.0,0,4.649
1330,42.56,1.1377,-4.9199,0.2068,-0.0153,0.0036,0.3738,rough,14.0,0,4.226
1340,42.88,1.5540,-4.7660,0.1991,-0.0077,0.0459,0.3158,rough,14.0,0,3.799
1350,43.20,1.9639,-4.6356,0.1863,-0.0112,0.0125,0.2753,rough,14.0,0,3.383
1360,43.52,2.3880,-4.5278,0.1796,0.0012,0.0083,0.2356,rough,14.0,0,2.957
1370,43.84,2.8132,-4.4297,0.1798,-0.0001,0.0002,0.1824,rough,14.0,0,2.533
1380,44.16,3.2437,-4.3543,0.1799,-0.0002,0.0000,0.1125,rough,14.0,0,2.108
1390,44.48,3.6775,-4.3091,0.1799,-0.0001,0.0000,0.0356,rough,14.0,0,1.681
1400,44.80,4.1115,-4.2977,0.1799,-0.0001,0.0000,-0.0520,rough,14.0,0,1.253
1410,45.12,4.5387,-4.3239,0.1799,-0.0000,0.0002,-0.1553,rough,14.0,0,0.830
1420,45.44,4.8920,-4.3679,0.1829,-0.0024,-0.0184,0.1279,rough,14.0,1,12.493
1430,45.76,5.1538,-4.3059,0.1960,-0.0365,-0.0599,0.3493,rough,14.0,1,12.518
1440,46.08,5.3452,-4.1878,0.2118,-0.0630,-0.1174,0.5400,rough,14.0,1,12.472
1450,46.40,5.5185,-4.0073,0.2218,-0.1329,-0.0871,0.7497,rough,14.0,1,12.365
1460,46.72,5.6726,-3.7793,0.2429,-0.1540,-0.1028,0.9704,rough,14.0,1,12.211
1470,47.04,5.7931,-3.4629,0.2350,-0.2597,0.0020,1.1660,rough,14.0,1,11.966
1480,47.36,5.8943,-3.1248,0.2291,-0.2438,0.0181,1.3176,rough,14.0,1,11.699
1490,47.68,5.9858,-2.7708,0.2103,-0.1561,0.0078,1.4059,rough,14.0,1,11.418
1500,48.00,6.0429,-2.3783,0.1928,-0.0567,0.0118,1.5041,rough,14.0,1,11.091
1510,48.32,6.0429,-1.9810,0.1783,0.0086,0.0009,1.6707,rough,14.0,1,10.739
1520,48.64,5.9909,-1.5729,0.1798,0.0004,-0.0001,1.8245,rough,14.0,1,10.355
1530,48.96,5.8759,-1.1662,0.1799,-0.0000,0.0000,1.9272,rough,14.0,1,9.943
1540,49.28,5.7200,-0.7669,0.1799,0.0002,0.0000,2.0012,rough,14.0,1,9.519
1550,49.60,5.5335,-0.3785,0.1799,0.0002,-0.0000,2.0637,rough,14.0,1,9.089
1560,49.92,5.3229,0.0001,0.1799,0.0001,-0.0000,2.1157,rough,14.0,1,8.656
1570,50.24,5.0924,0.3667,0.1799,0.0001,-0.0000,2.1670,rough,14.0,1,8.223
1580,50.56,4.8430,0.7207,0.1799,0.0001,-0.0000,2.2170,rough,14.0,1,7.792
1590,50.88,4.5756,1.0618,0.1799,0.0001,-0.0000,2.2656,rough,14.0,1,7.364
1600,51.20,4.2914,1.3894,0.1799,0.0001,-0.0000,2.3127,rough,14.0,1,6.940
1610,51.52,4.0031,1.7173,0.1799,-0.0000,-0.0000,2.2842,rough,14.0,1,6.516
1620,51.84,3.7148,2.0545,0.1799,-0.0000,-0.0000,2.2712,rough,14.0,1,6.085
1630,52.16,3.4309,2.3955,0.1799,-0.0000,-0.0000,2.2581,rough,14.0,1,5.655
1640,52.48,3.1514,2.7401,0.1799,-0.0000,-0.0000,2.2449,rough,14.0,1,5.225
1650,52.80,2.8766,3.0884,0.1799,-0.0000,0.0000,2.2312,rough,14.0,1,4.796
1660,53.12,2.6067,3.4403,0.1799,-0.0000,0.0000,2.2167,rough,14.0,1,4.368
1670,53.44,2.3422,3.7959,0.1799,-0.0000,0.0000,2.2010,rough,14.0,1,3.943
1680,53.76,2.0912,4.1521,0.1799,-0.0000,-0.0000,2.1608,rough,14.0,1,3.525
1690,54.08,1.8567,4.5188,0.1799,-0.0001,-0.0000,2.1098,rough,14.0,1,3.106
1700,54.40,1.6583,4.8350,0.2203,-0.0407,-0.2354,2.0747,rough,14.0,1,2.750
1710,54.72,1.4480,5.1697,0.2972,-0.1609,-0.2768,2.0347,rough,14.0,1,2.379
1720,55.04,1.2576,5.5141,0.4028,-0.2427,-0.3039,2.0021,rough,14.0,1,2.010
1730,55.36,1.1049,5.8369,0.5207,-0.2150,-0.4160,1.9868,rough,14.0,1,1.675
1740,55.68,0.9498,6.1555,0.6690,-0.2494,-0.4524,1.9510,rough,14.0,1,1.356
1750,56.00,0.8187,6.4462,0.8388,-0.2762,-0.5679,1.9280,rough,14.0,1,1.082
1760,56.32,0.7062,6.7183,1.0100,-0.2259,-0.5682,1.8752,rough,14.0,1,0.851
1770,56.64,0.6089,6.9170,1.1278,-0.3367,-0.5207,2.0201,rough,14.0,2,14.570
1780,56.96,0.4697,7.0636,1.2084,-0.4315,-0.3891,2.2690,rough,14.0,2,14.609
1790,57.28,0.2603,7.1960,1.2608,-0.5445,-0.2114,2.5972,rough,14.0,2,14.600
1800,57.60,-0.0277,7.2878,1.2625,-0.4877,0.0247,2.8908,rough,14.0,2,14.518
1810,57.92,-0.3617,7.3080,1.2230,-0.4426,0.0938,3.1159,rough,14.0,2,14.357
1820,58.24,-0.7378,7.2641,1.1558,-0.3904,0.1866,-2.9839,rough,14.0,2,14.126
1830,58.56,-1.1296,7.1544,1.0619,-0.3465,0.2249,-2.8270,rough,14.0,2,13.835
1840,58.88,-1.5169,6.9890,0.9539,-0.3578,0.2909,-2.7161,rough,14.0,2,13.504
1850,59.20,-1.8816,6.7952,0.8243,-0.3235,0.3163,-2.6148,rough,14.0,2,13.163
1860,59.52,-2.2174,6.5678,0.6939,-0.3042,0.2962,-2.5365,rough,14.0,2,12.809
1870,59.84,-2.5528,6.3249,0.5915,-0.2286,0.2645,-2.4675,rough,14.0,2,12.444
1880,60.16,-2.8566,6.0547,0.5023,-0.1926,0.1541,-2.3921,rough,14.0,2,12.071
1890,60.48,-3.1647,5.7498,0.4377,-0.1685,0.1682,-2.3484,rough,14.0,2,11.666
1900,60.80,-3.4674,5.4344,0.3589,-0.1166,0.2003,-2.3113,rough,14.0,2,11.256
1910,61.12,-3.7532,5.1116,0.2749,-0.0717,0.2022,-2.2721,rough,14.0,2,10.847
1920,61.44,-4.0183,4.7915,0.2147,-0.0306,0.1027,-2.2310,rough,14.0,2,10.451
1930,61.76,-4.2764,4.4584,0.1840,0.0168,0.0202,-2.1958,rough,14.0,2,10.047
1940,62.08,-4.5224,4.1101,0.1865,0.0192,-0.0228,-2.1669,rough,14.0,2,9.634
1950,62.40,-4.7654,3.7519,0.1968,0.0294,-0.0293,-2.1436,rough,14.0,2,9.214
1960,62.72,-5.0083,3.3809,0.1957,0.0685,0.0109,-2.1165,rough,14.0,2,8.783
1970,63.04,-5.2314,2.9942,0.1898,0.0312,0.0349,-2.0854,rough,14.0,2,8.345
1980,63.36,-5.4426,2.6138,0.1839,0.0201,-0.0077,-2.0608,rough,14.0,2,7.917
1990,63.68,-5.6407,2.2336,0.1912,0.0009,-0.0581,-2.0426,rough,14.0,2,7.495
2000,64.00,-5.8377,1.8441,0.2167,0.0147,-0.0717,-2.0179,rough,14.0,2,7.064
2010,64.32,-6.0239,1.4326,0.2266,-0.0065,-0.0103,-1.9994,rough,14.0,2,6.617
2020,64.64,-6.2074,1.0118,0.2077,-0.0214,0.0775,-1.9820,rough,14.0,2,6.162
2030,64.96,-6.3790,0.6121,0.1878,-0.0113,0.0224,-1.9688,rough,14.0,2,5.730
2040,65.28,-6.5475,0.2049,0.1811,-0.0028,0.0077,-1.9533,rough,14.0,2,5.293
2050,65.60,-6.7072,-0.2042,0.1825,-0.0090,-0.0093,-1.9374,rough,14.0,2,4.857
2060,65.92,-6.8600,-0.6166,0.1789,-0.0106,-0.0297,-1.9224,rough,14.0,2,4.420
2070,66.24,-7.0184,-1.0344,0.1875,0.0209,0.0132,-1.9122,rough,14.0,2,3.978
2080,66.56,-7.1645,-1.4491,0.1849,0.0270,-0.0010,-1.8945,rough,14.0,2,3.541
2090,66.88,-7.3052,-1.8697,0.1856,0.0328,0.0007,-1.8732,rough,14.0,2,3.101
2100,67.20,-7.4318,-2.2923,0.1841,0.0133,-0.0100,-1.8485,rough,14.0,2,2.662
2110,67.52,-7.5469,-2.7152,0.1926,0.0040,-0.0282,-1.8255,rough,14.0,2,2.226
2120,67.84,-7.6460,-3.1373,0.2166,-0.0278,-0.0701,-1.7933,rough,14.0,2,1.794
2130,68.16,-7.7347,-3.5846,0.2229,-0.0485,0.0214,-1.7670,rough,14.0,2,1.339
2140,68.48,-7.8148,-4.0243,0.2046,-0.0375,0.0836,-1.7106,rough,14.0,2,0.894
2150,68.80,-7.8734,-4.4216,0.1810,-0.0038,0.0080,-1.7133,rough,14.0,0,13.218
2160,69.12,-7.9107,-4.7511,0.1797,0.0000,0.0001,-1.4652,rough,14.0,0,13.257
2170,69.44,-7.8703,-5.0680,0.1799,-0.0000,-0.0001,-1.1904,rough,14.0,0,13.226
2180,69.76,-7.7243,-5.3880,0.1798,0.0000,-0.0002,-0.9864,rough,14.0,0,13.098
2190,70.08,-7.4975,-5.6844,0.1819,-0.0153,-0.0191,-0.8242,rough,14.0,0,12.895
2200,70.40,-7.2072,-5.9602,0.1902,-0.0208,-0.0045,-0.6866,rough,14.0,0,12.634
2210,70.72,-6.8703,-6.1977,0.1870,0.0064,0.0251,-0.5601,rough,14.0,0,12.330
2220,71.04,-6.5173,-6.3942,0.1761,-0.0078,-0.0171,-0.4495,rough,14.0,0,12.009
2230,71.36,-6.1276,-6.5661,0.1798,-0.0002,-0.0006,-0.3418,rough,14.0,0,11.653
2240,71.68,-5.7184,-6.6983,0.1799,0.0000,0.0002,-0.2514,rough,14.0,0,11.275
2250,72.00,-5.3098,-6.7952,0.1854,0.0018,-0.0360,-0.1267,rough,14.0,0,10.895
2260,72.32,-4.8862,-6.8312,0.2073,0.0018,-0.0427,-0.0529,rough,14.0,0,10.489
2270,72.64,-4.4720,-6.8514,0.2248,0.0087,-0.0398,-0.0011,rough,14.0,0,10.090
2280,72.96,-4.0301,-6.8443,0.2207,0.0096,0.0381,0.0885,rough,14.0,0,9.659
2290,73.28,-3.5879,-6.8119,0.1962,0.0462,0.0681,0.1368,rough,14.0,0,9.222
2300,73.60,-3.1808,-6.7433,0.1816,0.0087,0.0022,0.1689,rough,14.0,0,8.811
2310,73.92,-2.7581,-6.6596,0.1799,0.0000,-0.0001,0.2447,rough,14.0,0,8.380
2320,74.24,-2.3409,-6.5513,0.1800,0.0009,-0.0002,0.3170,rough,14.0,0,7.949
2330,74.56,-1.9377,-6.4139,0.1804,0.0032,-0.0057,0.3847,rough,14.0,0,7.525
2340,74.88,-1.5435,-6.2468,0.1878,-0.0098,-0.0278,0.4272,rough,14.0,0,7.101
2350,75.20,-1.1455,-6.0749,0.1883,-0.0563,0.0001,0.3843,rough,14.0,0,6.674
2360,75.52,-0.7342,-5.9112,0.1905,-0.0447,0.0142,0.3630,rough,14.0,0,6.236
2370,75.84,-0.3180,-5.7580,0.1853,-0.0190,0.0130,0.3395,rough,14.0,0,5.796
2380,76.16,0.0994,-5.6150,0.1805,-0.0041,0.0007,0.3167,rough,14.0,0,5.358
2390,76.48,0.5079,-5.4811,0.1945,-0.0187,-0.0542,0.2999,rough,14.0,0,4.931
2400,76.80,0.9338,-5.3580,0.2104,0.0153,-0.0399,0.2829,rough,14.0,0,4.490
2410,77.12,1.3672,-5.2328,0.2141,0.0057,0.0203,0.2658,rough,14.0,0,4.041
2420,77.44,1.8016,-5.1162,0.1987,-0.0074,0.0457,0.2515,rough,14.0,0,3.593
2430,77.76,2.2282,-5.0112,0.1839,0.0004,0.0267,0.2270,rough,14.0,0,3.155
2440,78.08,2.6544,-4.9152,0.1797,-0.0009,-0.0002,0.2109,rough,14.0,0,2.719
2450,78.40,3.0880,-4.8248,0.1798,-0.0002,-0.0000,0.1836,rough,14.0,0,2.277
2460,78.72,3.5229,-4.7460,0.1799,-0.0001,-0.0000,0.1545,rough,14.0,0,1.836
2470,79.04,3.9594,-4.6800,0.1799,-0.0001,0.0000,0.1182,rough,14.0,0,1.394
2480,79.36,4.3965,-4.6302,0.1799,-0.0001,0.0000,0.0676,rough,14.0,0,0.955
2490,79.68,4.8026,-4.6007,0.1850,-0.0105,-0.0214,0.1138,rough,14.0,1,12.688
2500,80.00,5.1310,-4.5341,0.2052,-0.0735,-0.0517,0.2585,rough,14.0,1,12.727
2510,80.32,5.3933,-4.4362,0.2278,-0.1061,-0.1231,0.4465,rough,14.0,1,12.722
2520,80.64,5.6343,-4.2758,0.2559,-0.1747,-0.1098,0.6976,rough,14.0,1,12.657
2530,80.96,5.7935,-4.0663,0.2841,-0.2037,-0.1410,0.9385,rough,14.0,1,12.522
2540,81.28,5.9258,-3.7651,0.2920,-0.2656,-0.0353,1.1329,rough,14.0,1,12.296
2550,81.60,6.0118,-3.4134,0.2825,-0.3432,0.0331,1.3332,rough,14.0,1,12.010
2560,81.92,6.0636,-3.0257,0.2568,-0.3526,-0.0124,1.4569,rough,14.0,1,11.681
2570,82.24,6.1074,-2.6081,0.2149,-0.0502,0.1766,1.6177,rough,14.0,1,11.325
2580,82.56,6.0695,-2.2318,0.1819,-0.0129,0.0072,1.7690,rough,14.0,1,10.973
2590,82.88,5.9690,-1.8162,0.1796,0.0008,-0.0008,1.8524,rough,14.0,1,10.558
2600,83.20,5.8423,-1.4103,0.1799,0.0001,0.0001,1.9431,rough,14.0,1,10.141
2610,83.52,5.6919,-1.0062,0.1799,0.0000,-0.0000,1.9503,rough,14.0,1,9.714
2620,83.84,5.5258,-0.5987,0.1799,0.0001,-0.0000,1.9782,rough,14.0,1,9.277
2630,84.16,5.3485,-0.1954,0.1799,0.0001,-0.0000,2.0025,rough,14.0,1,8.838
2640,84.48,5.1613,0.2039,0.1799,0.0001,-0.0000,2.0248,rough,14.0,1,8.399
2650,84.80,4.9651,0.5995,0.1799,0.0001,-0.0000,2.0453,rough,14.0,1,7.958
2660,85.12,4.7607,0.9914,0.1799,0.0001,-0.0000,2.0644,rough,14.0,1,7.516
2670,85.44,4.5489,1.3796,0.1799,0.0000,-0.0000,2.0823,rough,14.0,1,7.074
2680,85.76,4.3300,1.7643,0.1799,0.0000,-0.0000,2.0993,rough,14.0,1,6.631
2690,86.08,4.1045,2.1453,0.1799,0.0000,-0.0000,2.1156,rough,14.0,1,6.189
2700,86.40,3.8728,2.5228,0.1799,0.0000,-0.0000,2.1314,rough,14.0,1,5.746
2710,86.72,3.6352,2.8965,0.1799,0.0000,-0.0000,2.1469,rough,14.0,1,5.304
2720,87.04,3.3917,3.2665,0.1799,0.0000,-0.0000,2.1625,rough,14.0,1,4.862
2730,87.36,3.1424,3.6325,0.1799,0.0000,0.0000,2.1784,rough,14.0,1,4.421
2740,87.68,2.8874,3.9941,0.1799,0.0000,0.0000,2.1951,rough,14.0,1,3.981
2750,88.00,2.6261,4.3504,0.1804,-0.0006,0.0053,2.2139,rough,14.0,1,3.545
2760,88.32,2.3746,4.6567,0.2028,-0.0619,-0.0772,2.1622,rough,14.0,1,3.159
2770,88.64,2.1474,4.9378,0.2535,-0.1817,-0.2553,2.1225,rough,14.0,1,2.809
2780,88.96,1.9166,5.2129,0.3424,-0.2488,-0.3560,2.1428,rough,14.0,1,2.466
2790,89.28,1.6811,5.5279,0.4528,-0.3728,-0.3402,2.1340,rough,14.0,1,2.090
2800,89.60,1.4664,5.8323,0.5714,-0.3762,-0.3627,2.1323,rough,14.0,1,1.736
2810,89.92,1.2600,6.1535,0.7048,-0.3685,-0.3810,2.0871,rough,14.0,1,1.378
2820,90.24,1.0784,6.4402,0.8554,-0.3619,-0.4762,2.0711,rough,14.0,1,1.071
2830,90.56,0.9138,6.7143,1.0259,-0.3541,-0.5275,2.0117,rough,14.0,1,0.802
2840,90.88,0.7752,6.8899,1.1304,-0.4685,-0.4483,2.2446,rough,14.0,2,14.646
2850,91.20,0.5582,7.0464,1.2084,-0.5551,-0.2627,2.5499,rough,14.0,2,14.646
2860,91.52,0.2763,7.1353,1.2285,-0.5587,-0.0703,2.8564,rough,14.0,2,14.559
2870,91.84,-0.0518,7.1549,1.1911,-0.4959,0.0931,3.1307,rough,14.0,2,14.393
2880,92.16,-0.4012,7.0853,1.1106,-0.4015,0.2067,-2.8991,rough,14.0,2,14.147
2890,92.48,-0.7525,6.9297,1.0053,-0.3202,0.2912,-2.6795,rough,14.0,2,13.831
2900,92.80,-1.0843,6.7157,0.8729,-0.2693,0.3505,-2.4869,rough,14.0,2,13.477
2910,93.12,-1.3760,6.4529,0.7226,-0.2050,0.3817,-2.3266,rough,14.0,2,13.104
2920,93.44,-1.6151,6.1496,0.5734,-0.1594,0.3200,-2.2210,rough,14.0,2,12.722
2930,93.76,-1.8647,5.8133,0.4418,-0.1256,0.2408,-2.2043,rough,14.0,2,12.306
2940,94.08,-2.1068,5.4674,0.3677,-0.1425,0.1453,-2.1814,rough,14.0,2,11.886
2950,94.40,-2.3534,5.1131,0.3250,-0.1085,0.0632,-2.1633,rough,14.0,2,11.456
2960,94.72,-2.6112,4.7441,0.2782,-0.0592,0.1034,-2.1539,rough,14.0,2,11.009
2970,95.04,-2.8544,4.3725,0.2363,-0.0518,0.1028,-2.1458,rough,14.0,2,10.566
2980,95.36,-3.0947,4.0021,0.1960,-0.0362,0.0793,-2.1383,rough,14.0,2,10.126
2990,95.68,-3.3233,3.6401,0.1870,-0.0329,-0.0143,-2.1288,rough,14.0,2,9.699
3000,96.00,-3.5509,3.2598,0.1989,-0.0682,-0.0278,-2.1201,rough,14.0,2,9.256
3010,96.32,-3.7876,2.8775,0.2045,-0.0527,-0.0073,-2.1184,rough,14.0,2,8.808
3020,96.64,-4.0255,2.4881,0.1937,-0.0349,0.0468,-2.1145,rough,14.0,2,8.352
3030,96.96,-4.2544,2.1140,0.1821,-0.0138,0.0048,-2.1086,rough,14.0,2,7.915
3040,97.28,-4.4834,1.7334,0.1793,-0.0003,-0.0033,-2.1012,rough,14.0,2,7.472
3050,97.60,-4.7069,1.3473,0.1808,-0.0055,-0.0016,-2.0939,rough,14.0,2,7.026
3060,97.92,-4.9285,0.9605,0.1796,0.0016,0.0003,-2.0877,rough,14.0,2,6.581
3070,98.24,-5.1497,0.5760,0.1848,0.0165,-0.0067,-2.0829,rough,14.0,2,6.138
3080,98.56,-5.3713,0.1886,0.1856,0.0287,0.0029,-2.0777,rough,14.0,2,5.693
3090,98.88,-5.5786,-0.2071,0.1756,-0.0263,0.0010,-2.0712,rough,14.0,2,5.246
3100,99.20,-5.7949,-0.5955,0.1809,-0.0004,-0.0075,-2.0651,rough,14.0,2,4.802
3110,99.52,-6.0062,-0.9785,0.1915,0.0249,-0.0468,-2.0607,rough,14.0,2,4.365
3120,99.84,-6.2137,-1.3714,0.2139,0.0213,-0.0501,-2.0546,rough,14.0,2,3.921
3130,100.16,-6.4299,-1.7680,0.2235,0.0597,-0.0059,-2.0463,rough,14.0,2,3.470
3140,100.48,-6.6331,-2.1766,0.2064,0.0291,0.0475,-2.0361,rough,14.0,2,3.014
3150,100.80,-6.8265,-2.5759,0.1908,-0.0052,0.0340,-2.0292,rough,14.0,2,2.571
3160,101.12,-7.0145,-2.9670,0.1861,-0.0161,-0.0266,-2.0203,rough,14.0,2,2.137
3170,101.44,-7.1999,-3.3709,0.1935,-0.0420,-0.0270,-2.0112,rough,14.0,2,1.692
3180,101.76,-7.3879,-3.7761,0.2043,-0.0482,-0.0143,-2.0011,rough,14.0,2,1.246
3190,102.08,-7.5776,-4.1889,0.1902,-0.0267,0.0352,-1.9906,rough,14.0,3,0.792
3200,102.40,-7.7546,-4.5599,0.1788,-0.0000,-0.0063,-2.0621,rough,14.0,0,13.099
3210,102.72,-7.8701,-4.8715,0.1798,0.0000,0.0002,-1.8055,rough,14.0,0,13.219
3220,103.04,-7.9377,-5.1630,0.1797,0.0001,-0.0000,-1.4586,rough,14.0,0,13.298
3230,103.36,-7.8945,-5.4774,0.1799,0.0000,-0.0001,-1.1820,rough,14.0,0,13.274
3240,103.68,-7.7434,-5.7946,0.1858,-0.0041,-0.0350,-1.0233,rough,14.0,0,13.150
3250,104.00,-7.5224,-6.0974,0.1966,-0.0502,-0.0200,-0.8742,rough,14.0,0,12.963
3260,104.32,-7.2598,-6.3822,0.1966,-0.0436,0.0186,-0.7338,rough,14.0,0,12.741
3270,104.64,-6.9484,-6.6412,0.1887,-0.0178,0.0450,-0.6134,rough,14.0,0,12.475
3280,104.96,-6.6031,-6.8584,0.1796,0.0016,0.0004,-0.5177,rough,14.0,0,12.174
3290,105.28,-6.2270,-7.0524,0.1799,0.0001,-0.0001,-0.4017,rough,14.0,0,11.845
3300,105.60,-5.8318,-7.2116,0.1821,-0.0036,-0.0109,-0.3023,rough,14.0,0,11.496
3310,105.92,-5.4181,-7.3302,0.1814,-0.0190,0.0115,-0.2264,rough,14.0,0,11.124
3320,106.24,-5.0214,-7.4299,0.1926,0.0284,-0.0090,-0.1848,rough,14.0,0,10.767
3330,106.56,-4.6018,-7.5070,0.1952,0.0441,-0.0092,-0.1460,rough,14.0,0,10.385
3340,106.88,-4.1752,-7.5677,0.1950,0.0456,0.0254,-0.1065,rough,14.0,0,9.996
3350,107.20,-3.7475,-7.6039,0.1881,0.0402,0.0050,-0.0399,rough,14.0,0,9.601
3360,107.52,-3.3151,-7.6090,0.1848,0.0003,-0.0120,0.0222,rough,14.0,0,9.194
3370,107.84,-2.8792,-7.5880,0.1841,-0.0076,-0.0165,0.0733,rough,14.0,0,8.777
3380,108.16,-2.4392,-7.5363,0.1892,-0.0491,-0.0029,0.1095,rough,14.0,0,8.348
3390,108.48,-2.0018,-7.4765,0.1889,-0.0422,0.0054,0.1460,rough,14.0,0,7.919
3400,108.80,-1.5735,-7.4111,0.1879,-0.0242,-0.0285,0.1782,rough,14.0,0,7.498
3410,109.12,-1.1707,-7.3364,0.1971,0.0307,-0.0456,0.3090,rough,14.0,0,7.098
3420,109.44,-0.7612,-7.1993,0.2149,0.0371,-0.0356,0.3495,rough,14.0,0,6.668
3430,109.76,-0.3312,-7.0464,0.2170,0.0647,0.0174,0.3557,rough,14.0,0,6.213
3440,110.08,0.0924,-6.8839,0.2002,0.0368,0.0533,0.3627,rough,14.0,0,5.760
3450,110.40,0.5007,-6.7230,0.1833,0.0087,0.0087,0.3646,rough,14.0,0,5.321
3460,110.72,0.9166,-6.5624,0.1798,0.0006,0.0002,0.3665,rough,14.0,0,4.876
3470,111.04,1.3339,-6.4019,0.1801,0.0014,0.0002,0.3694,rough,14.0,0,4.430
3480,111.36,1.7504,-6.2400,0.1806,-0.0001,-0.0019,0.3719,rough,14.0,0,3.985
3490,111.68,2.1663,-6.0763,0.1812,-0.0048,-0.0007,0.3744,rough,14.0,0,3.539
3500,112.00,2.5785,-5.9085,0.1867,-0.0299,-0.0081,0.3772,rough,14.0,0,3.095
3510,112.32,2.9960,-5.7425,0.1826,-0.0090,0.0072,0.3826,rough,14.0,0,2.648
3520,112.64,3.4093,-5.5763,0.1801,-0.0005,-0.0005,0.3871,rough,14.0,0,2.205
3530,112.96,3.8219,-5.4062,0.1794,0.0016,0.0014,0.3937,rough,14.0,0,1.762
3540,113.28,4.2288,-5.2350,0.1836,-0.0028,-0.0226,0.3994,rough,14.0,0,1.325
3550,113.60,4.6353,-5.0509,0.1926,-0.0574,-0.0113,0.4037,rough,14.0,0,0.886
3560,113.92,4.9240,-4.9096,0.2016,-0.0873,-0.0390,0.6611,rough,14.0,1,13.019
3570,114.24,5.1550,-4.6889,0.2089,-0.1143,-0.0281,0.8751,rough,14.0,1,12.881
3580,114.56,5.3142,-4.4041,0.2155,-0.1465,-0.0045,1.0770,rough,14.0,1,12.665
3590,114.88,5.4378,-4.0769,0.2117,-0.1566,0.0009,1.2436,rough,14.0,1,12.401
3600,115.20,5.5436,-3.7312,0.2108,-0.1476,0.0083,1.3501,rough,14.0,1,12.118
3610,115.52,5.6204,-3.3783,0.2003,-0.0959,0.0026,1.4345,rough,14.0,1,11.821
3620,115.84,5.6378,-2.9809,0.1845,-0.0111,0.0155,1.5986,rough,14.0,1,11.463
3630,116.16,5.5965,-2.5746,0.1775,-0.0004,-0.0160,1.7353,rough,14.0,1,11.075
3640,116.48,5.5174,-2.1563,0.1797,0.0001,-0.0014,1.8512,rough,14.0,1,10.662
3650,116.80,5.3923,-1.7464,0.1799,0.0001,-0.0000,1.9317,rough,14.0,1,10.237
3660,117.12,5.2344,-1.3431,0.1799,0.0002,-0.0000,1.9890,rough,14.0,1,9.805
3670,117.44,5.0528,-0.9484,0.1799,0.0001,-0.0000,2.0389,rough,14.0,1,9.371
3680,117.76,4.8515,-0.5625,0.1799,0.0001,-0.0000,2.0844,rough,14.0,1,8.936
3690,118.08,4.6326,-0.1858,0.1799,0.0001,-0.0000,2.1273,rough,14.0,1,8.502
3700,118.40,4.3975,0.1809,0.1799,0.0001,-0.0000,2.1696,rough,14.0,1,8.070
3710,118.72,4.1467,0.5372,0.1799,0.0001,-0.0000,2.2109,rough,14.0,1,7.642
3720,119.04,3.8810,0.8828,0.1799,0.0001,-0.0000,2.2511,rough,14.0,1,7.219
3730,119.36,3.6013,1.2174,0.1799,0.0001,-0.0000,2.2903,rough,14.0,1,6.802
3740,119.68,3.3084,1.5409,0.1799,0.0001,-0.0000,2.3282,rough,14.0,1,6.393
3750,120.00,3.0029,1.8536,0.1799,0.0001,-0.0000,2.3636,rough,14.0,1,5.994
3760,120.32,2.6863,2.1558,0.1799,0.0001,-0.0000,2.3977,rough,14.0,1,5.608
3770,120.64,2.3596,2.4469,0.1799,0.0001,-0.0000,2.4312,rough,14.0,1,5.237
3780,120.96,2.0238,2.7272,0.1799,0.0001,-0.0000,2.4635,rough,14.0,1,4.887
3790,121.28,1.6791,2.9969,0.1799,0.0001,-0.0000,2.4964,rough,14.0,1,4.561
3800,121.60,1.3257,3.2552,0.1799,0.0001,-0.0000,2.5308,rough,14.0,1,4.266
3810,121.92,1.0236,3.4975,0.1798,0.0000,-0.0003,2.3675,rough,14.0,1,4.012
3820,122.24,0.7542,3.7963,0.1799,-0.0001,-0.0000,2.2203,rough,14.0,1,3.723
3830,122.56,0.5206,4.1370,0.1799,-0.0000,-0.0000,2.0714,rough,14.0,1,3.409
3840,122.88,0.3344,4.5118,0.1798,-0.0001,-0.0000,1.9366,rough,14.0,1,3.075
3850,123.20,0.1965,4.8597,0.1987,-0.0321,-0.0869,1.8697,rough,14.0,1,2.775
3860,123.52,0.0763,5.2129,0.2495,-0.1065,-0.1421,1.7958,rough,14.0,1,2.483
3870,123.84,0.0016,5.5365,0.3453,-0.0820,-0.4011,1.7154,rough,14.0,1,2.220
3880,124.16,-0.0397,5.8628,0.4890,-0.0309,-0.4804,1.6699,rough,14.0,1,1.958
3890,124.48,-0.0738,6.1651,0.6477,-0.0326,-0.4916,1.6660,rough,14.0,1,1.733
3900,124.80,-0.1032,6.4491,0.8061,-0.0308,-0.5324,1.6371,rough,14.0,1,1.544
3910,125.12,-0.1291,6.7283,0.9568,-0.0596,-0.5048,1.6132,rough,14.0,1,1.389
3920,125.44,-0.1463,6.9784,1.0901,-0.0901,-0.5197,1.6041,rough,14.0,1,1.281
3930,125.76,-0.1626,7.2299,1.2163,-0.1317,-0.4647,1.5850,rough,14.0,1,1.214
3940,126.08,-0.1682,7.4418,1.3153,-0.1438,-0.4692,1.5868,rough,14.0,1,1.189
3950,126.40,-0.1796,7.6400,1.4096,-0.1871,-0.4362,1.5756,rough,14.0,1,1.205
3960,126.72,-0.1809,7.8194,1.4864,-0.1915,-0.4002,1.5659,rough,14.0,1,1.239
3970,127.04,-0.1833,7.9842,1.5463,-0.1983,-0.3813,1.5365,rough,14.0,1,1.292
3980,127.36,-0.1816,8.1444,1.6116,-0.1921,-0.3829,1.5019,rough,14.0,1,1.358
3990,127.68,-0.1718,8.3134,1.6690,-0.1748,-0.3311,1.4469,rough,14.0,1,1.436
4000,128.00,-0.1476,8.5111,1.7285,-0.1206,-0.3138,1.2548,rough,14.0,1,1.537
4010,128.32,-0.0614,8.7320,1.8048,-0.0174,-0.3052,0.9305,rough,14.0,1,1.631
4020,128.64,0.0899,8.9379,1.8842,0.0595,-0.2949,0.6623,rough,14.0,1,1.704
4030,128.96,0.3335,9.0854,1.9547,0.1341,-0.2162,0.3960,rough,14.0,1,1.718
4040,129.28,0.5604,9.1865,2.0181,0.1405,-0.2228,0.2410,rough,14.0,1,1.738
4050,129.60,0.7944,9.2540,2.0649,0.1313,-0.1885,0.1260,rough,14.0,1,1.759
4060,129.92,1.0110,9.2817,2.1068,0.1366,-0.1922,0.0344,rough,14.0,1,1.772
4070,130.24,1.2423,9.2550,2.1489,0.1559,-0.2012,-0.1333,rough,14.0,1,1.759
4080,130.56,1.5131,9.1587,2.1916,0.1860,-0.1458,-0.3477,rough,14.0,1,1.721
4090,130.88,1.7282,9.0297,2.2263,0.2376,-0.1395,-0.5289,rough,14.0,1,1.677
4100,131.20,1.9444,8.8381,2.2401,0.2809,-0.0274,-0.7385,rough,14.0,1,1.619
4110,131.52,2.1520,8.5497,2.2113,0.2440,0.1120,-1.0028,rough,14.0,1,1.538
4120,131.84,2.2650,8.2411,2.1436,0.1897,0.2686,-1.3297,rough,14.0,1,1.445
4130,132.16,2.2935,7.9008,2.0391,0.1030,0.3233,-1.6549,rough,14.0,1,1.333
4140,132.48,2.2332,7.4740,1.8360,0.1160,0.5106,-1.7820,rough,14.0,1,1.215
4150,132.80,2.1361,7.0552,1.5651,0.1026,0.6738,-1.8309,rough,14.0,1,1.206
4160,133.12,2.0323,6.6701,1.2605,-0.0154,0.6882,-2.0195,rough,14.0,1,1.316
4170,133.44,1.9321,6.2971,0.9596,0.1334,0.6585,-1.8155,rough,14.0,1,1.518
4180,133.76,1.8412,5.9564,0.7176,-0.0592,0.6332,-2.0180,rough,14.0,1,1.758
4190,134.08,1.7191,5.6408,0.5066,-0.1474,0.4389,-2.1795,rough,14.0,1,1.996
4200,134.40,1.5464,5.4267,0.3894,-0.2787,0.2824,-2.5734,rough,14.0,1,2.149
4210,134.72,1.2976,5.2661,0.3256,-0.3068,0.1177,-2.9345,rough,14.0,1,2.261
4220,135.04,1.0713,5.1758,0.2796,-0.2660,-0.0389,2.8099,rough,14.0,1,2.335
4230,135.36,1.0346,5.0951,0.2545,-0.2033,-0.1038,2.5274,rough,14.0,1,2.415
4240,135.68,0.9876,5.0414,0.2411,-0.1704,-0.1482,2.3069,rough,14.0,1,2.469
4250,136.00,0.8645,4.9586,0.2307,-0.0837,-0.2551,2.0356,rough,14.0,1,2.556
4260,136.32,0.8019,4.9450,0.2163,-0.0413,-0.2074,1.7365,rough,14.0,1,2.574
4270,136.64,0.7478,4.9385,0.2130,-0.0265,-0.2006,1.6817,rough,14.0,1,2.586
4280,136.96,0.7217,4.9374,0.2131,-0.0194,-0.2128,1.6291,rough,14.0,1,2.590
4290,137.28,0.7055,4.9359,0.2132,-0.0140,-0.2179,1.6068,rough,14.0,1,2.593
4300,137.60,0.6972,4.9361,0.2131,-0.0094,-0.2180,1.5871,rough,14.0,1,2.594
4310,137.92,0.6938,4.9365,0.2131,-0.0072,-0.2180,1.5774,rough,14.0,1,2.594
4320,138.24,0.6924,4.9366,0.2131,-0.0063,-0.2179,1.5735,rough,14.0,1,2.594
4330,138.56,0.6921,4.9368,0.2131,-0.0058,-0.2180,1.5714,rough,14.0,1,2.594
4340,138.88,0.6921,4.9368,0.2131,-0.0057,-0.2180,1.5707,rough,14.0,1,2.594
4350,139.20,0.6923,4.9369,0.2131,-0.0056,-0.2180,1.5701,rough,14.0,1,2.594
4360,139.52,0.6928,4.9370,0.2132,-0.0055,-0.2181,1.5696,rough,14.0,1,2.593
4370,139.84,0.6935,4.9373,0.2133,-0.0055,-0.2182,1.5691,rough,14.0,1,2.593
4380,140.16,0.6943,4.9375,0.2133,-0.0054,-0.2184,1.5688,rough,14.0,1,2.593
4390,140.48,0.6953,4.9377,0.2134,-0.0054,-0.2185,1.5685,rough,14.0,1,2.592
4400,140.80,0.6964,4.9379,0.2135,-0.0054,-0.2187,1.5683,rough,14.0,1,2.592
4410,141.12,0.6975,4.9382,0.2136,-0.0055,-0.2188,1.5682,rough,14.0,1,2.592
4420,141.44,0.6986,4.9385,0.2137,-0.0055,-0.2190,1.5681,rough,14.0,1,2.591
4430,141.76,0.6995,4.9385,0.2129,-0.0057,-0.2142,1.5691,rough,14.0,1,2.591
4440,142.08,0.7002,4.9387,0.2137,-0.0059,-0.2186,1.5693,rough,14.0,1,2.591
4450,142.40,0.7009,4.9388,0.2138,-0.0059,-0.2192,1.5693,rough,14.0,1,2.591
4460,142.72,0.7016,4.9388,0.2138,-0.0059,-0.2193,1.5693,rough,14.0,1,2.590
4470,143.04,0.7023,4.9388,0.2138,-0.0059,-0.2194,1.5693,rough,14.0,1,2.590
4480,143.36,0.7028,4.9387,0.2130,-0.0061,-0.2139,1.5700,rough,14.0,1,2.590
4490,143.68,0.7031,4.9388,0.2138,-0.0062,-0.2189,1.5702,rough,14.0,1,2.590
4500,144.00,0.7034,4.9388,0.2138,-0.0062,-0.2195,1.5702,rough,14.0,1,2.590
4510,144.32,0.7038,4.9388,0.2139,-0.0062,-0.2196,1.5701,rough,14.0,1,2.590
4520,144.64,0.7041,4.9387,0.2139,-0.0062,-0.2197,1.5701,rough,14.0,1,2.590
4530,144.96,0.7044,4.9386,0.2120,-0.0060,-0.2077,1.5703,rough,14.0,1,2.590
4540,145.28,0.7044,4.9387,0.2138,-0.0063,-0.2189,1.5709,rough,14.0,1,2.590
4550,145.60,0.7044,4.9387,0.2139,-0.0063,-0.2196,1.5708,rough,14.0,1,2.590
4560,145.92,0.7045,4.9387,0.2139,-0.0063,-0.2197,1.5707,rough,14.0,1,2.590
4570,146.24,0.7046,4.9387,0.2139,-0.0063,-0.2197,1.5707,rough,14.0,1,2.590
4580,146.56,0.7047,4.9387,0.2140,-0.0063,-0.2208,1.5706,rough,14.0,1,2.590
4590,146.88,0.7045,4.9387,0.2137,-0.0064,-0.2187,1.5713,rough,14.0,1,2.590
4600,147.20,0.7044,4.9387,0.2139,-0.0064,-0.2195,1.5712,rough,14.0,1,2.590
4610,147.52,0.7040,4.9387,0.2136,-0.0065,-0.2177,1.5718,rough,14.0,1,2.590
4620,147.84,0.7037,4.9387,0.2138,-0.0065,-0.2193,1.5717,rough,14.0,1,2.590
4630,148.16,0.7034,4.9387,0.2138,-0.0065,-0.2194,1.5716,rough,14.0,1,2.590
4640,148.48,0.7029,4.9387,0.2136,-0.0066,-0.2182,1.5721,rough,14.0,1,2.590
4650,148.80,0.7024,4.9387,0.2138,-0.0065,-0.2192,1.5720,rough,14.0,1,2.590
4660,149.12,0.7020,4.9387,0.2138,-0.0065,-0.2192,1.5718,rough,14.0,1,2.591
4670,149.44,0.7016,4.9387,0.2138,-0.0065,-0.2192,1.5717,rough,14.0,1,2.591
4680,149.76,0.7013,4.9387,0.2138,-0.0064,-0.2191,1.5714,rough,14.0,1,2.591
4690,150.08,0.7009,4.9385,0.2135,-0.0064,-0.2175,1.5720,rough,14.0,1,2.591
4700,150.40,0.7005,4.9385,0.2137,-0.0064,-0.2189,1.5718,rough,14.0,1,2.591
4710,150.72,0.7002,4.9384,0.2137,-0.0063,-0.2190,1.5716,rough,14.0,1,2.591
4720,151.04,0.6999,4.9384,0.2137,-0.0063,-0.2190,1.5713,rough,14.0,1,2.591
4730,151.36,0.6998,4.9384,0.2137,-0.0062,-0.2190,1.5711,rough,14.0,1,2.591
4740,151.68,0.6996,4.9383,0.2133,-0.0063,-0.2167,1.5716,rough,14.0,1,2.591
4750,152.00,0.6993,4.9383,0.2136,-0.0063,-0.2187,1.5714,rough,14.0,1,2.591
4760,152.32,0.6992,4.9383,0.2136,-0.0062,-0.2189,1.5712,rough,14.0,1,2.591
4770,152.64,0.6991,4.9383,0.2136,-0.0061,-0.2189,1.5709,rough,14.0,1,2.591
4780,152.96,0.6992,4.9383,0.2136,-0.0061,-0.2189,1.5707,rough,14.0,1,2.591
4790,153.28,0.6991,4.9383,0.2132,-0.0062,-0.2160,1.5712,rough,14.0,1,2.591
4800,153.60,0.6990,4.9383,0.2136,-0.0062,-0.2186,1.5711,rough,14.0,1,2.591
4810,153.92,0.6988,4.9382,0.2132,-0.0062,-0.2164,1.5716,rough,14.0,1,2.591
4820,154.24,0.6985,4.9382,0.2135,-0.0062,-0.2185,1.5714,rough,14.0,1,2.592
4830,154.56,0.6984,4.9382,0.2136,-0.0061,-0.2188,1.5711,rough,14.0,1,2.592
4840,154.88,0.6982,4.9381,0.2130,-0.0062,-0.2149,1.5714,rough,14.0,1,2.592
4850,155.20,0.6980,4.9381,0.2135,-0.0062,-0.2183,1.5713,rough,14.0,1,2.592
4860,155.52,0.6979,4.9381,0.2135,-0.0061,-0.2187,1.5710,rough,14.0,1,2.592
4870,155.84,0.6980,4.9381,0.2136,-0.0060,-0.2187,1.5707,rough,14.0,1,2.592
4880,156.16,0.6982,4.9382,0.2136,-0.0060,-0.2188,1.5704,rough,14.0,1,2.592
4890,156.48,0.6982,4.9382,0.2129,-0.0060,-0.2141,1.5709,rough,14.0,1,2.592
4900,156.80,0.6982,4.9382,0.2135,-0.0061,-0.2183,1.5708,rough,14.0,1,2.592
4910,157.12,0.6983,4.9382,0.2136,-0.0060,-0.2187,1.5706,rough,14.0,1,2.591
4920,157.44,0.6985,4.9383,0.2136,-0.0060,-0.2188,1.5704,rough,14.0,1,2.591
4930,157.76,0.6988,4.9383,0.2136,-0.0060,-0.2189,1.5702,rough,14.0,1,2.591
4940,158.08,0.6990,4.9383,0.2128,-0.0060,-0.2134,1.5707,rough,14.0,1,2.591
4950,158.40,0.6991,4.9383,0.2135,-0.0061,-0.2183,1.5707,rough,14.0,1,2.591
4960,158.72,0.6992,4.9383,0.2136,-0.0061,-0.2189,1.5705,rough,14.0,1,2.591
4970,159.04,0.6994,4.9383,0.2136,-0.0060,-0.2190,1.5703,rough,14.0,1,2.591
4980,159.36,0.6997,4.9385,0.2137,-0.0060,-0.2190,1.5702,rough,14.0,1,2.591
4990,159.68,0.6999,4.9385,0.2127,-0.0061,-0.2127,1.5707,rough,14.0,1,2.591
5000,160.00,0.7000,4.9385,0.2136,-0.0062,-0.2183,1.5708,rough,14.0,1,2.591
5010,160.32,0.6998,4.9383,0.2133,-0.0062,-0.2167,1.5714,rough,14.0,1,2.591
5020,160.64,0.6996,4.9383,0.2136,-0.0062,-0.2187,1.5712,rough,14.0,1,2.591
5030,160.96,0.6995,4.9383,0.2136,-0.0062,-0.2189,1.5710,rough,14.0,1,2.591
5040,161.28,0.6996,4.9384,0.2115,-0.0059,-0.2046,1.5709,rough,14.0,1,2.591
5050,161.60,0.6993,4.9383,0.2135,-0.0062,-0.2180,1.5714,rough,14.0,1,2.591
5060,161.92,0.6991,4.9383,0.2136,-0.0062,-0.2188,1.5711,rough,14.0,1,2.591
5070,162.24,0.6991,4.9383,0.2136,-0.0061,-0.2189,1.5709,rough,14.0,1,2.591
5080,162.56,0.6992,4.9383,0.2136,-0.0061,-0.2189,1.5707,rough,14.0,1,2.591
5090,162.88,0.6993,4.9383,0.2137,-0.0061,-0.2195,1.5705,rough,14.0,1,2.591
5100,163.20,0.6992,4.9383,0.2135,-0.0062,-0.2177,1.5711,rough,14.0,1,2.591
5110,163.52,0.6992,4.9383,0.2136,-0.0061,-0.2188,1.5709,rough,14.0,1,2.591
5120,163.84,0.6992,4.9383,0.2136,-0.0061,-0.2189,1.5707,rough,14.0,1,2.591
5130,164.16,0.6994,4.9383,0.2136,-0.0061,-0.2190,1.5705,rough,14.0,1,2.591
5140,164.48,0.6996,4.9384,0.2137,-0.0061,-0.2189,1.5703,rough,14.0,1,2.591
5150,164.80,0.6995,4.9383,0.2134,-0.0062,-0.2176,1.5710,rough,14.0,1,2.591
5160,165.12,0.6995,4.9383,0.2136,-0.0061,-0.2188,1.5708,rough,14.0,1,2.591
5170,165.44,0.6997,4.9383,0.2136,-0.0061,-0.2190,1.5706,rough,14.0,1,2.591
5180,165.76,0.6998,4.9385,0.2137,-0.0061,-0.2190,1.5705,rough,14.0,1,2.591
5190,166.08,0.7000,4.9386,0.2137,-0.0061,-0.2189,1.5704,rough,14.0,1,2.591
5200,166.40,0.7000,4.9385,0.2134,-0.0062,-0.2174,1.5710,rough,14.0,1,2.591
5210,166.72,0.7000,4.9385,0.2137,-0.0062,-0.2190,1.5709,rough,14.0,1,2.591
5220,167.04,0.7001,4.9385,0.2137,-0.0062,-0.2190,1.5707,rough,14.0,1,2.591
5230,167.36,0.7002,4.9386,0.2137,-0.0061,-0.2191,1.5705,rough,14.0,1,2.591
5240,167.68,0.7004,4.9386,0.2137,-0.0061,-0.2191,1.5704,rough,14.0,1,2.591
5250,168.00,0.7004,4.9385,0.2134,-0.0062,-0.2170,1.5711,rough,14.0,1,2.591
5260,168.32,0.7003,4.9385,0.2137,-0.0062,-0.2188,1.5710,rough,14.0,1,2.591
5270,168.64,0.7003,4.9385,0.2137,-0.0062,-0.2190,1.5708,rough,14.0,1,2.591
5280,168.96,0.7004,4.9386,0.2137,-0.0062,-0.2191,1.5707,rough,14.0,1,2.591
5290,169.28,0.7005,4.9386,0.2137,-0.0062,-0.2191,1.5705,rough,14.0,1,2.591
5300,169.60,0.7005,4.9386,0.2133,-0.0062,-0.2166,1.5711,rough,14.0,1,2.591
5310,169.92,0.7004,4.9385,0.2137,-0.0063,-0.2188,1.5711,rough,14.0,1,2.591
5320,170.24,0.7004,4.9385,0.2137,-0.0062,-0.2190,1.5709,rough,14.0,1,2.591
5330,170.56,0.7004,4.9386,0.2137,-0.0062,-0.2191,1.5708,rough,14.0,1,2.591
5340,170.88,0.7005,4.9386,0.2137,-0.0062,-0.2191,1.5706,rough,14.0,1,2.591
5350,171.20,0.7005,4.9385,0.2132,-0.0062,-0.2159,1.5712,rough,14.0,1,2.591
5360,171.52,0.7003,4.9385,0.2137,-0.0063,-0.2187,1.5711,rough,14.0,1,2.591
5370,171.84,0.7003,4.9385,0.2137,-0.0062,-0.2190,1.5710,rough,14.0,1,2.591
5380,172.16,0.7003,4.9385,0.2137,-0.0062,-0.2191,1.5708,rough,14.0,1,2.591
5390,172.48,0.7004,4.9386,0.2137,-0.0062,-0.2191,1.5707,rough,14.0,1,2.591
5400,172.80,0.7004,4.9385,0.2131,-0.0062,-0.2151,1.5712,rough,14.0,1,2.591
5410,173.12,0.7002,4.9385,0.2137,-0.0063,-0.2187,1.5712,rough,14.0,1,2.591
5420,173.44,0.7002,4.9385,0.2137,-0.0062,-0.2190,1.5710,rough,14.0,1,2.591
5430,173.76,0.7002,4.9385,0.2137,-0.0062,-0.2190,1.5708,rough,14.0,1,2.591
5440,174.08,0.7003,4.9386,0.2137,-0.0062,-0.2191,1.5707,rough,14.0,1,2.591
5450,174.40,0.7003,4.9384,0.2129,-0.0062,-0.2141,1.5711,rough,14.0,1,2.591
5460,174.72,0.7001,4.9385,0.2136,-0.0063,-0.2185,1.5712,rough,14.0,1,2.591
5470,175.04,0.7001,4.9385,0.2137,-0.0062,-0.2190,1.5710,rough,14.0,1,2.591
5480,175.36,0.7001,4.9385,0.2137,-0.0062,-0.2190,1.5708,rough,14.0,1,2.591
5490,175.68,0.7002,4.9385,0.2137,-0.0062,-0.2190,1.5706,rough,14.0,1,2.591
5500,176.00,0.7003,4.9385,0.2127,-0.0062,-0.2128,1.5710,rough,14.0,1,2.591
5510,176.32,0.7001,4.9385,0.2136,-0.0062,-0.2183,1.5711,rough,14.0,1,2.591
5520,176.64,0.7001,4.9385,0.2137,-0.0062,-0.2189,1.5710,rough,14.0,1,2.591
5530,176.96,0.7001,4.9385,0.2137,-0.0062,-0.2190,1.5708,rough,14.0,1,2.591
5540,177.28,0.7002,4.9385,0.2137,-0.0062,-0.2190,1.5706,rough,14.0,1,2.591
5550,177.60,0.7003,4.9386,0.2117,-0.0060,-0.2059,1.5706,rough,14.0,1,2.591
5560,177.92,0.7001,4.9385,0.2136,-0.0062,-0.2182,1.5711,rough,14.0,1,2.591
5570,178.24,0.7001,4.9385,0.2137,-0.0062,-0.2189,1.5710,rough,14.0,1,2.591
5580,178.56,0.7001,4.9385,0.2137,-0.0062,-0.2190,1.5708,rough,14.0,1,2.591
5590,178.88,0.7002,4.9385,0.2137,-0.0062,-0.2190,1.5706,rough,14.0,1,2.591
5600,179.20,0.7003,4.9385,0.2138,-0.0061,-0.2199,1.5705,rough,14.0,1,2.591
5610,179.52,0.6998,4.9382,0.2134,-0.0063,-0.2177,1.5718,rough,14.0,1,2.591
5620,179.84,0.6995,4.9382,0.2136,-0.0063,-0.2188,1.5716,rough,14.0,1,2.591
5630,180.16,0.6993,4.9383,0.2136,-0.0062,-0.2189,1.5713,rough,14.0,1,2.591
5640,180.48,0.6992,4.9383,0.2136,-0.0062,-0.2189,1.5711,rough,14.0,1,2.591
5650,180.80,0.6992,4.9383,0.2136,-0.0062,-0.2188,1.5708,rough,14.0,1,2.591
5660,181.12,0.6989,4.9382,0.2134,-0.0062,-0.2174,1.5714,rough,14.0,1,2.591
5670,181.44,0.6988,4.9382,0.2136,-0.0062,-0.2187,1.5712,rough,14.0,1,2.591
5680,181.76,0.6988,4.9382,0.2136,-0.0061,-0.2188,1.5709,rough,14.0,1,2.591
5690,182.08,0.6988,4.9383,0.2136,-0.0061,-0.2189,1.5706,rough,14.0,1,2.591
5700,182.40,0.6990,4.9383,0.2136,-0.0061,-0.2188,1.5705,rough,14.0,1,2.591
5710,182.72,0.6989,4.9383,0.2133,-0.0061,-0.2170,1.5710,rough,14.0,1,2.591
5720,183.04,0.6989,4.9383,0.2136,-0.0061,-0.2187,1.5709,rough,14.0,1,2.591
5730,183.36,0.6990,4.9383,0.2136,-0.0061,-0.2189,1.5706,rough,14.0,1,2.591
5740,183.68,0.6992,4.9383,0.2136,-0.0060,-0.2189,1.5704,rough,14.0,1,2.591
5750,184.00,0.6994,4.9383,0.2136,-0.0060,-0.2190,1.5702,rough,14.0,1,2.591
5760,184.32,0.6994,4.9383,0.2133,-0.0061,-0.2167,1.5709,rough,14.0,1,2.591
5770,184.64,0.6994,4.9383,0.2136,-0.0061,-0.2187,1.5708,rough,14.0,1,2.591
5780,184.96,0.6996,4.9383,0.2136,-0.0061,-0.2190,1.5706,rough,14.0,1,2.591
5790,185.28,0.6997,4.9384,0.2137,-0.0061,-0.2190,1.5704,rough,14.0,1,2.591
5800,185.60,0.7000,4.9385,0.2137,-0.0061,-0.2190,1.5703,rough,14.0,1,2.591
5810,185.92,0.7000,4.9385,0.2133,-0.0062,-0.2165,1.5709,rough,14.0,1,2.591
5820,186.24,0.7000,4.9385,0.2137,-0.0062,-0.2187,1.5709,rough,14.0,1,2.591
5830,186.56,0.7001,4.9385,0.2137,-0.0062,-0.2190,1.5707,rough,14.0,1,2.591
5840,186.88,0.7002,4.9386,0.2137,-0.0061,-0.2191,1.5706,rough,14.0,1,2.591
5850,187.20,0.7004,4.9386,0.2137,-0.0061,-0.2191,1.5704,rough,14.0,1,2.591
5860,187.52,0.7004,4.9385,0.2132,-0.0062,-0.2159,1.5710,rough,14.0,1,2.591
5870,187.84,0.7003,4.9385,0.2137,-0.0062,-0.2187,1.5710,rough,14.0,1,2.591
5880,188.16,0.7003,4.9386,0.2137,-0.0062,-0.2190,1.5708,rough,14.0,1,2.591
5890,188.48,0.7004,4.9386,0.2137,-0.0062,-0.2191,1.5707,rough,14.0,1,2.591
5900,188.80,0.7006,4.9386,0.2137,-0.0062,-0.2191,1.5706,rough,14.0,1,2.591
5910,189.12,0.7006,4.9386,0.2131,-0.0062,-0.2152,1.5711,rough,14.0,1,2.591
5920,189.44,0.7004,4.9386,0.2137,-0.0063,-0.2186,1.5711,rough,14.0,1,2.591
5930,189.76,0.7004,4.9386,0.2137,-0.0062,-0.2190,1.5710,rough,14.0,1,2.591
5940,190.08,0.7004,4.9386,0.2137,-0.0062,-0.2191,1.5708,rough,14.0,1,2.591
5950,190.40,0.7005,4.9386,0.2137,-0.0062,-0.2191,1.5707,rough,14.0,1,2.591
5960,190.72,0.7005,4.9385,0.2130,-0.0062,-0.2142,1.5711,rough,14.0,1,2.591
5970,191.04,0.7004,4.9385,0.2136,-0.0063,-0.2185,1.5712,rough,14.0,1,2.591
5980,191.36,0.7003,4.9385,0.2137,-0.0062,-0.2190,1.5710,rough,14.0,1,2.591
5990,191.68,0.7003,4.9385,0.2137,-0.0062,-0.2190,1.5709,rough,14.0,1,2.591
6000,192.00,0.7004,4.9386,0.2137,-0.0062,-0.2191,1.5707,rough,14.0,1,2.591
6010,192.32,0.7002,4.9384,0.2134,-0.0063,-0.2174,1.5713,rough,14.0,1,2.591
6020,192.64,0.7001,4.9385,0.2137,-0.0063,-0.2188,1.5712,rough,14.0,1,2.591
6030,192.96,0.7000,4.9385,0.2137,-0.0062,-0.2190,1.5710,rough,14.0,1,2.591
6040,193.28,0.7001,4.9385,0.2137,-0.0062,-0.2190,1.5708,rough,14.0,1,2.591
6050,193.60,0.7002,4.9385,0.2137,-0.0062,-0.2190,1.5706,rough,14.0,1,2.591
6060,193.92,0.7003,4.9386,0.2117,-0.0060,-0.2060,1.5706,rough,14.0,1,2.591
6070,194.24,0.7001,4.9385,0.2136,-0.0062,-0.2182,1.5711,rough,14.0,1,2.591
6080,194.56,0.7001,4.9385,0.2137,-0.0062,-0.2189,1.5710,rough,14.0,1,2.591
6090,194.88,0.7001,4.9385,0.2137,-0.0062,-0.2190,1.5708,rough,14.0,1,2.591
6100,195.20,0.7002,4.9385,0.2137,-0.0062,-0.2190,1.5706,rough,14.0,1,2.591
6110,195.52,0.7003,4.9385,0.2138,-0.0061,-0.2199,1.5705,rough,14.0,1,2.591
6120,195.84,0.7002,4.9385,0.2135,-0.0062,-0.2180,1.5711,rough,14.0,1,2.591
6130,196.16,0.7001,4.9385,0.2137,-0.0062,-0.2189,1.5710,rough,14.0,1,2.591
6140,196.48,0.7001,4.9385,0.2137,-0.0062,-0.2190,1.5708,rough,14.0,1,2.591
6150,196.80,0.7002,4.9385,0.2137,-0.0062,-0.2190,1.5707,rough,14.0,1,2.591
6160,197.12,0.7003,4.9386,0.2137,-0.0062,-0.2190,1.5705,rough,14.0,1,2.591
6170,197.44,0.7002,4.9385,0.2135,-0.0062,-0.2177,1.5712,rough,14.0,1,2.591
6180,197.76,0.7001,4.9385,0.2137,-0.0062,-0.2189,1.5710,rough,14.0,1,2.591
6190,198.08,0.7001,4.9385,0.2137,-0.0062,-0.2190,1.5708,rough,14.0,1,2.591
6200,198.40,0.7002,4.9385,0.2137,-0.0062,-0.2190,1.5707,rough,14.0,1,2.591
6210,198.72,0.7001,4.9385,0.2134,-0.0063,-0.2168,1.5712,rough,14.0,1,2.591
6220,199.04,0.6999,4.9384,0.2137,-0.0062,-0.2189,1.5711,rough,14.0,1,2.591
6230,199.36,0.6999,4.9385,0.2137,-0.0062,-0.2190,1.5709,rough,14.0,1,2.591
6240,199.68,0.6999,4.9385,0.2137,-0.0062,-0.2190,1.5708,rough,14.0,1,2.591
6250,200.00,0.7000,4.9385,0.2137,-0.0061,-0.2190,1.5706,rough,14.0,1,2.591
6260,200.32,0.7002,4.9386,0.2137,-0.0061,-0.2191,1.5705,rough,14.0,1,2.591
6270,200.64,0.7002,4.9385,0.2134,-0.0062,-0.2170,1.5711,rough,14.0,1,2.591
6280,200.96,0.7001,4.9385,0.2137,-0.0062,-0.2188,1.5710,rough,14.0,1,2.591
6290,201.28,0.7001,4.9385,0.2137,-0.0062,-0.2190,1.5708,rough,14.0,1,2.591
6300,201.60,0.7002,4.9385,0.2137,-0.0062,-0.2190,1.5707,rough,14.0,1,2.591
6310,201.92,0.7004,4.9386,0.2137,-0.0061,-0.2191,1.5705,rough,14.0,1,2.591
6320,202.24,0.7003,4.9385,0.2133,-0.0062,-0.2165,1.5711,rough,14.0,1,2.591
6330,202.56,0.7002,4.9385,0.2137,-0.0062,-0.2188,1.5710,rough,14.0,1,2.591
6340,202.88,0.7002,4.9385,0.2137,-0.0062,-0.2190,1.5709,rough,14.0,1,2.591
6350,203.20,0.7003,4.9386,0.2137,-0.0062,-0.2191,1.5707,rough,14.0,1,2.591
6360,203.52,0.7004,4.9386,0.2137,-0.0062,-0.2191,1.5706,rough,14.0,1,2.591
6370,203.84,0.7004,4.9385,0.2132,-0.0062,-0.2159,1.5711,rough,14.0,1,2.591
6380,204.16,0.7003,4.9385,0.2137,-0.0062,-0.2187,1.5711,rough,14.0,1,2.591
6390,204.48,0.7002,4.9385,0.2137,-0.0062,-0.2190,1.5709,rough,14.0,1,2.591
6400,204.80,0.7003,4.9385,0.2137,-0.0062,-0.2190,1.5708,rough,14.0,1,2.591
6410,205.12,0.7001,4.9384,0.2134,-0.0063,-0.2169,1.5713,rough,14.0,1,2.591
6420,205.44,0.7000,4.9384,0.2137,-0.0063,-0.2190,1.5712,rough,14.0,1,2.591
6430,205.76,0.6999,4.9385,0.2137,-0.0062,-0.2190,1.5710,rough,14.0,1,2.591
6440,206.08,0.6999,4.9385,0.2137,-0.0062,-0.2190,1.5708,rough,14.0,1,2.591
6450,206.40,0.7000,4.9385,0.2137,-0.0061,-0.2190,1.5706,rough,14.0,1,2.591
6460,206.72,0.7002,4.9386,0.2137,-0.0061,-0.2191,1.5705,rough,14.0,1,2.591
6470,207.04,0.7002,4.9385,0.2129,-0.0062,-0.2141,1.5710,rough,14.0,1,2.591
6480,207.36,0.7002,4.9385,0.2136,-0.0062,-0.2185,1.5710,rough,14.0,1,2.591
6490,207.68,0.7001,4.9385,0.2137,-0.0062,-0.2190,1.5709,rough,14.0,1,2.591
6500,208.00,0.7002,4.9385,0.2137,-0.0062,-0.2190,1.5707,rough,14.0,1,2.591
6510,208.32,0.7003,4.9386,0.2137,-0.0061,-0.2191,1.5706,rough,14.0,1,2.591
6520,208.64,0.7004,4.9385,0.2128,-0.0062,-0.2129,1.5710,rough,14.0,1,2.591
6530,208.96,0.7003,4.9385,0.2136,-0.0062,-0.2184,1.5711,rough,14.0,1,2.591
6540,209.28,0.7003,4.9385,0.2137,-0.0062,-0.2190,1.5710,rough,14.0,1,2.591
6550,209.60,0.7003,4.9385,0.2137,-0.0062,-0.2190,1.5708,rough,14.0,1,2.591
6560,209.92,0.7004,4.9386,0.2137,-0.0062,-0.2191,1.5706,rough,14.0,1,2.591
6570,210.24,0.7005,4.9386,0.2117,-0.0060,-0.2062,1.5707,rough,14.0,1,2.591
6580,210.56,0.7003,4.9385,0.2136,-0.0063,-0.2182,1.5712,rough,14.0,1,2.591
6590,210.88,0.7003,4.9385,0.2137,-0.0062,-0.2190,1.5710,rough,14.0,1,2.591
6600,211.20,0.7003,4.9385,0.2137,-0.0062,-0.2190,1.5708,rough,14.0,1,2.591
6610,211.52,0.7001,4.9384,0.2134,-0.0063,-0.2169,1.5714,rough,14.0,1,2.591
6620,211.84,0.6999,4.9384,0.2137,-0.0063,-0.2194,1.5713,rough,14.0,1,2.591
6630,212.16,0.6995,4.9383,0.2135,-0.0063,-0.2178,1.5717,rough,14.0,1,2.591
6640,212.48,0.6992,4.9383,0.2136,-0.0063,-0.2188,1.5715,rough,14.0,1,2.591
6650,212.80,0.6990,4.9383,0.2136,-0.0062,-0.2189,1.5712,rough,14.0,1,2.591
6660,213.12,0.6990,4.9383,0.2136,-0.0061,-0.2189,1.5710,rough,14.0,1,2.591
6670,213.44,0.6990,4.9383,0.2136,-0.0061,-0.2188,1.5707,rough,14.0,1,2.591
6680,213.76,0.6988,4.9382,0.2134,-0.0062,-0.2174,1.5713,rough,14.0,1,2.591
6690,214.08,0.6987,4.9382,0.2136,-0.0062,-0.2187,1.5711,rough,14.0,1,2.591
6700,214.40,0.6987,4.9382,0.2136,-0.0061,-0.2188,1.5708,rough,14.0,1,2.591
6710,214.72,0.6988,4.9383,0.2136,-0.0061,-0.2189,1.5706,rough,14.0,1,2.591
6720,215.04,0.6990,4.9383,0.2136,-0.0061,-0.2188,1.5704,rough,14.0,1,2.591
6730,215.36,0.6990,4.9383,0.2133,-0.0061,-0.2170,1.5710,rough,14.0,1,2.591
6740,215.68,0.6990,4.9383,0.2136,-0.0061,-0.2187,1.5708,rough,14.0,1,2.591
6750,216.00,0.6991,4.9383,0.2136,-0.0061,-0.2189,1.5706,rough,14.0,1,2.591
6760,216.32,0.6993,4.9383,0.2136,-0.0060,-0.2189,1.5704,rough,14.0,1,2.591
6770,216.64,0.6995,4.9383,0.2137,-0.0060,-0.2190,1.5702,rough,14.0,1,2.591
6780,216.96,0.6995,4.9383,0.2133,-0.0061,-0.2168,1.5709,rough,14.0,1,2.591
6790,217.28,0.6996,4.9383,0.2136,-0.0061,-0.2187,1.5708,rough,14.0,1,2.591
6800,217.60,0.6997,4.9384,0.2137,-0.0061,-0.2190,1.5706,rough,14.0,1,2.591
6810,217.92,0.6996,4.9383,0.2133,-0.0062,-0.2168,1.5712,rough,14.0,1,2.591
6820,218.24,0.6995,4.9383,0.2136,-0.0062,-0.2187,1.5710,rough,14.0,1,2.591
6830,218.56,0.6993,4.9383,0.2132,-0.0062,-0.2160,1.5715,rough,14.0,1,2.591
6840,218.88,0.6991,4.9383,0.2136,-0.0062,-0.2185,1.5714,rough,14.0,1,2.591
6850,219.20,0.6989,4.9383,0.2136,-0.0062,-0.2188,1.5711,rough,14.0,1,2.591
6860,219.52,0.6989,4.9383,0.2136,-0.0061,-0.2189,1.5709,rough,14.0,1,2.591
6870,219.84,0.6990,4.9383,0.2136,-0.0061,-0.2189,1.5706,rough,14.0,1,2.591
6880,220.16,0.6990,4.9383,0.2131,-0.0061,-0.2153,1.5711,rough,14.0,1,2.591
6890,220.48,0.6989,4.9383,0.2136,-0.0062,-0.2185,1.5710,rough,14.0,1,2.591
6900,220.80,0.6989,4.9383,0.2136,-0.0061,-0.2188,1.5708,rough,14.0,1,2.591
6910,221.12,0.6990,4.9383,0.2136,-0.0061,-0.2189,1.5706,rough,14.0,1,2.591
6920,221.44,0.6992,4.9383,0.2136,-0.0060,-0.2189,1.5704,rough,14.0,1,2.591
6930,221.76,0.6993,4.9383,0.2130,-0.0061,-0.2145,1.5709,rough,14.0,1,2.591
6940,222.08,0.6993,4.9383,0.2136,-0.0061,-0.2184,1.5709,rough,14.0,1,2.591
6950,222.40,0.6993,4.9383,0.2136,-0.0061,-0.2189,1.5707,rough,14.0,1,2.591
6960,222.72,0.6995,4.9383,0.2136,-0.0061,-0.2190,1.5705,rough,14.0,1,2.591
6970,223.04,0.6997,4.9384,0.2137,-0.0061,-0.2190,1.5703,rough,14.0,1,2.591
6980,223.36,0.6999,4.9384,0.2129,-0.0061,-0.2139,1.5708,rough,14.0,1,2.591
6990,223.68,0.6998,4.9385,0.2136,-0.0062,-0.2184,1.5709,rough,14.0,1,2.591
7000,224.00,0.6999,4.9385,0.2137,-0.0062,-0.2189,1.5707,rough,14.0,1,2.591
7010,224.32,0.6997,4.9383,0.2133,-0.0062,-0.2168,1.5713,rough,14.0,1,2.591
7020,224.64,0.6996,4.9383,0.2136,-0.0062,-0.2187,1.5711,rough,14.0,1,2.591
7030,224.96,0.6995,4.9383,0.2126,-0.0062,-0.2119,1.5714,rough,14.0,1,2.591
7040,225.28,0.6992,4.9383,0.2135,-0.0063,-0.2181,1.5715,rough,14.0,1,2.591
7050,225.60,0.6990,4.9383,0.2136,-0.0062,-0.2188,1.5712,rough,14.0,1,2.591
7060,225.92,0.6990,4.9383,0.2136,-0.0061,-0.2189,1.5710,rough,14.0,1,2.591
7070,226.24,0.6990,4.9383,0.2136,-0.0061,-0.2189,1.5707,rough,14.0,1,2.591
7080,226.56,0.6991,4.9384,0.2115,-0.0059,-0.2046,1.5706,rough,14.0,1,2.591
7090,226.88,0.6989,4.9383,0.2135,-0.0062,-0.2179,1.5711,rough,14.0,1,2.591
7100,227.20,0.6989,4.9383,0.2136,-0.0061,-0.2188,1.5709,rough,14.0,1,2.591
7110,227.52,0.6990,4.9383,0.2136,-0.0061,-0.2189,1.5707,rough,14.0,1,2.591
7120,227.84,0.6991,4.9383,0.2136,-0.0061,-0.2189,1.5705,rough,14.0,1,2.591
7130,228.16,0.6993,4.9383,0.2137,-0.0060,-0.2195,1.5703,rough,14.0,1,2.591
7140,228.48,0.6993,4.9383,0.2135,-0.0061,-0.2177,1.5710,rough,14.0,1,2.591
7150,228.80,0.6993,4.9383,0.2136,-0.0061,-0.2188,1.5708,rough,14.0,1,2.591
7160,229.12,0.6994,4.9383,0.2136,-0.0061,-0.2189,1.5706,rough,14.0,1,2.591
7170,229.44,0.6996,4.9383,0.2137,-0.0061,-0.2190,1.5704,rough,14.0,1,2.591
7180,229.76,0.6998,4.9385,0.2137,-0.0061,-0.2189,1.5703,rough,14.0,1,2.591
7190,230.08,0.6998,4.9384,0.2135,-0.0062,-0.2176,1.5709,rough,14.0,1,2.591
7200,230.40,0.6998,4.9385,0.2137,-0.0062,-0.2188,1.5708,rough,14.0,1,2.591
7210,230.72,0.6997,4.9383,0.2133,-0.0062,-0.2168,1.5713,rough,14.0,1,2.591
7220,231.04,0.6995,4.9383,0.2136,-0.0062,-0.2187,1.5712,rough,14.0,1,2.591
7230,231.36,0.6994,4.9383,0.2136,-0.0062,-0.2188,1.5710,rough,14.0,1,2.591
7240,231.68,0.6992,4.9383,0.2133,-0.0062,-0.2170,1.5715,rough,14.0,1,2.591
7250,232.00,0.6990,4.9383,0.2136,-0.0062,-0.2187,1.5713,rough,14.0,1,2.591
7260,232.32,0.6989,4.9383,0.2136,-0.0062,-0.2188,1.5710,rough,14.0,1,2.591
7270,232.64,0.6989,4.9383,0.2136,-0.0061,-0.2189,1.5708,rough,14.0,1,2.591
7280,232.96,0.6990,4.9383,0.2136,-0.0061,-0.2189,1.5706,rough,14.0,1,2.591
7290,233.28,0.6990,4.9383,0.2133,-0.0062,-0.2166,1.5711,rough,14.0,1,2.591
7300,233.60,0.6989,4.9383,0.2136,-0.0061,-0.2186,1.5710,rough,14.0,1,2.591
7310,233.92,0.6989,4.9383,0.2136,-0.0061,-0.2188,1.5707,rough,14.0,1,2.591
7320,234.24,0.6991,4.9383,0.2136,-0.0061,-0.2189,1.5705,rough,14.0,1,2.591
7330,234.56,0.6993,4.9383,0.2136,-0.0060,-0.2190,1.5703,rough,14.0,1,2.591
7340,234.88,0.6993,4.9383,0.2132,-0.0061,-0.2161,1.5709,rough,14.0,1,2.591
7350,235.20,0.6993,4.9383,0.2136,-0.0061,-0.2186,1.5708,rough,14.0,1,2.591
7360,235.52,0.6994,4.9383,0.2136,-0.0061,-0.2189,1.5706,rough,14.0,1,2.591
7370,235.84,0.6996,4.9383,0.2136,-0.0061,-0.2190,1.5704,rough,14.0,1,2.591
7380,236.16,0.6998,4.9385,0.2137,-0.0061,-0.2190,1.5703,rough,14.0,1,2.591
7390,236.48,0.6999,4.9384,0.2132,-0.0061,-0.2157,1.5709,rough,14.0,1,2.591
7400,236.80,0.6999,4.9385,0.2136,-0.0062,-0.2186,1.5709,rough,14.0,1,2.591
7410,237.12,0.6997,4.9383,0.2133,-0.0062,-0.2167,1.5714,rough,14.0,1,2.591
7420,237.44,0.6995,4.9383,0.2136,-0.0062,-0.2187,1.5712,rough,14.0,1,2.591
7430,237.76,0.6994,4.9383,0.2136,-0.0062,-0.2189,1.5710,rough,14.0,1,2.591
7440,238.08,0.6993,4.9383,0.2129,-0.0062,-0.2144,1.5714,rough,14.0,1,2.591
7450,238.40,0.6990,4.9383,0.2135,-0.0062,-0.2184,1.5714,rough,14.0,1,2.591
7460,238.72,0.6989,4.9383,0.2136,-0.0062,-0.2188,1.5711,rough,14.0,1,2.591
7470,239.04,0.6989,4.9383,0.2136,-0.0061,-0.2189,1.5708,rough,14.0,1,2.591
7480,239.36,0.6990,4.9383,0.2136,-0.0061,-0.2189,1.5706,rough,14.0,1,2.591
7490,239.68,0.6990,4.9383,0.2128,-0.0061,-0.2133,1.5710,rough,14.0,1,2.591
7500,240.00,0.6989,4.9383,0.2135,-0.0062,-0.2183,1.5710,rough,14.0,1,2.591
7510,240.32,0.6989,4.9383,0.2136,-0.0061,-0.2188,1.5708,rough,14.0,1,2.591
7520,240.64,0.6991,4.9383,0.2136,-0.0061,-0.2189,1.5706,rough,14.0,1,2.591
7530,240.96,0.6992,4.9383,0.2136,-0.0060,-0.2189,1.5704,rough,14.0,1,2.591
7540,241.28,0.6994,4.9384,0.2126,-0.0061,-0.2120,1.5708,rough,14.0,1,2.591
7550,241.60,0.6994,4.9383,0.2135,-0.0061,-0.2182,1.5709,rough,14.0,1,2.591
7560,241.92,0.6994,4.9383,0.2136,-0.0061,-0.2189,1.5707,rough,14.0,1,2.591
7570,242.24,0.6995,4.9383,0.2136,-0.0061,-0.2190,1.5705,rough,14.0,1,2.591
7580,242.56,0.6998,4.9385,0.2137,-0.0061,-0.2190,1.5704,rough,14.0,1,2.591
7590,242.88,0.7000,4.9385,0.2117,-0.0059,-0.2057,1.5704,rough,14.0,1,2.591
7600,243.20,0.6999,4.9385,0.2136,-0.0062,-0.2181,1.5709,rough,14.0,1,2.591
7610,243.52,0.6997,4.9383,0.2133,-0.0063,-0.2167,1.5715,rough,14.0,1,2.591
7620,243.84,0.6995,4.9383,0.2136,-0.0062,-0.2187,1.5713,rough,14.0,1,2.591
7630,244.16,0.6994,4.9383,0.2136,-0.0062,-0.2189,1.5711,rough,14.0,1,2.591
7640,244.48,0.6994,4.9383,0.2137,-0.0061,-0.2195,1.5709,rough,14.0,1,2.591
7650,244.80,0.6991,4.9383,0.2134,-0.0062,-0.2177,1.5714,rough,14.0,1,2.591
7660,245.12,0.6989,4.9383,0.2136,-0.0062,-0.2187,1.5712,rough,14.0,1,2.591
7670,245.44,0.6989,4.9383,0.2136,-0.0061,-0.2188,1.5709,rough,14.0,1,2.591
7680,245.76,0.6990,4.9383,0.2136,-0.0061,-0.2189,1.5707,rough,14.0,1,2.591
7690,246.08,0.6991,4.9383,0.2136,-0.0061,-0.2188,1.5705,rough,14.0,1,2.591
7700,246.40,0.6990,4.9383,0.2134,-0.0062,-0.2174,1.5711,rough,14.0,1,2.591
7710,246.72,0.6990,4.9383,0.2136,-0.0061,-0.2187,1.5709,rough,14.0,1,2.591
7720,247.04,0.6990,4.9383,0.2136,-0.0061,-0.2189,1.5707,rough,14.0,1,2.591
7730,247.36,0.6992,4.9383,0.2136,-0.0061,-0.2189,1.5705,rough,14.0,1,2.591
7740,247.68,0.6994,4.9383,0.2136,-0.0061,-0.2189,1.5704,rough,14.0,1,2.591
7750,248.00,0.6994,4.9383,0.2134,-0.0061,-0.2171,1.5709,rough,14.0,1,2.591
7760,248.32,0.6994,4.9383,0.2136,-0.0061,-0.2188,1.5708,rough,14.0,1,2.591
7770,248.64,0.6995,4.9383,0.2136,-0.0061,-0.2190,1.5706,rough,14.0,1,2.591
7780,248.96,0.6997,4.9384,0.2137,-0.0061,-0.2190,1.5704,rough,14.0,1,2.591
7790,249.28,0.7000,4.9385,0.2137,-0.0061,-0.2190,1.5703,rough,14.0,1,2.591
7800,249.60,0.7000,4.9385,0.2134,-0.0062,-0.2169,1.5709,rough,14.0,1,2.591
7810,249.92,0.6999,4.9385,0.2137,-0.0062,-0.2189,1.5709,rough,14.0,1,2.591
7820,250.24,0.7000,4.9385,0.2137,-0.0062,-0.2190,1.5707,rough,14.0,1,2.591
7830,250.56,0.7002,4.9385,0.2137,-0.0061,-0.2190,1.5705,rough,14.0,1,2.591
7840,250.88,0.7004,4.9386,0.2137,-0.0061,-0.2191,1.5704,rough,14.0,1,2.591
7850,251.20,0.7004,4.9385,0.2133,-0.0062,-0.2165,1.5710,rough,14.0,1,2.591
7860,251.52,0.7003,4.9385,0.2137,-0.0062,-0.2188,1.5710,rough,14.0,1,2.591
7870,251.84,0.7003,4.9386,0.2137,-0.0062,-0.2190,1.5708,rough,14.0,1,2.591
7880,252.16,0.7004,4.9386,0.2137,-0.0062,-0.2191,1.5707,rough,14.0,1,2.591
7890,252.48,0.7006,4.9386,0.2137,-0.0062,-0.2191,1.5705,rough,14.0,1,2.591
7900,252.80,0.7005,4.9386,0.2133,-0.0062,-0.2160,1.5711,rough,14.0,1,2.591
7910,253.12,0.7004,4.9385,0.2137,-0.0063,-0.2187,1.5711,rough,14.0,1,2.591
7920,253.44,0.7004,4.9386,0.2137,-0.0062,-0.2190,1.5709,rough,14.0,1,2.591
7930,253.76,0.7004,4.9386,0.2137,-0.0062,-0.2191,1.5708,rough,14.0,1,2.591
7940,254.08,0.7005,4.9386,0.2137,-0.0062,-0.2191,1.5706,rough,14.0,1,2.591
7950,254.40,0.7005,4.9385,0.2131,-0.0062,-0.2152,1.5712,rough,14.0,1,2.591
7960,254.72,0.7004,4.9385,0.2137,-0.0063,-0.2186,1.5712,rough,14.0,1,2.591
7970,255.04,0.7003,4.9385,0.2137,-0.0062,-0.2190,1.5710,rough,14.0,1,2.591
7980,255.36,0.7003,4.9385,0.2137,-0.0062,-0.2191,1.5708,rough,14.0,1,2.591
7990,255.68,0.7004,4.9386,0.2137,-0.0062,-0.2191,1.5707,rough,14.0,1,2.591
