step,time_s,x,y,z,roll,pitch,yaw,terrain,speed,target_idx,dist_to_target
10,0.32,1.0685,-0.7750,0.1846,-0.0000,-0.0324,-0.0000,rough,14.0,0,5.685
20,0.64,1.5033,-0.7895,0.1793,-0.0000,0.0028,-0.1230,flat,18.0,0,5.355
30,0.96,2.0289,-0.8787,0.1799,-0.0000,-0.0000,-0.3129,flat,18.0,0,4.925
40,1.28,2.5348,-1.0644,0.1799,-0.0002,-0.0000,-0.4549,flat,18.0,0,4.454
50,1.60,3.0145,-1.3212,0.1798,-0.0004,-0.0000,-0.5672,flat,18.0,0,3.958
60,1.92,3.4689,-1.6323,0.1798,-0.0003,-0.0000,-0.6522,flat,18.0,0,3.444
70,2.24,3.8972,-1.9811,0.1798,-0.0003,-0.0000,-0.7302,flat,18.0,0,2.923
80,2.56,4.2941,-2.3631,0.1798,-0.0004,-0.0000,-0.8125,flat,18.0,0,2.400
90,2.88,4.6583,-2.7772,0.1798,-0.0004,-0.0000,-0.9021,flat,18.0,0,1.873
100,3.20,4.9842,-3.2226,0.1798,-0.0004,-0.0000,-1.0063,flat,18.0,0,1.347
110,3.52,5.2600,-3.6976,0.1799,-0.0002,0.0000,-1.1422,flat,18.0,0,0.827
120,3.84,5.3488,-4.0340,0.1796,0.0001,-0.0025,-1.5412,flat,18.0,1,12.329
130,4.16,5.3086,-4.3844,0.1799,0.0002,-0.0001,-2.0916,flat,18.0,1,12.644
140,4.48,5.0771,-4.6713,0.1799,0.0001,-0.0000,-2.4928,flat,18.0,1,12.839
150,4.80,4.7211,-4.8877,0.1799,0.0000,-0.0001,-2.8534,flat,18.0,1,12.939
160,5.12,4.2659,-4.9937,0.1799,-0.0001,-0.0000,3.0994,flat,18.0,1,12.918
170,5.44,3.7687,-4.9465,0.1799,-0.0001,-0.0000,2.8467,flat,18.0,1,12.756
180,5.76,3.2773,-4.7687,0.1799,-0.0001,-0.0000,2.6584,flat,18.0,1,12.484
190,6.08,2.8147,-4.4970,0.1799,-0.0002,-0.0000,2.5228,flat,18.0,1,12.140
200,6.40,2.3814,-4.1621,0.1798,-0.0004,-0.0000,2.4288,flat,18.0,1,11.751
210,6.72,1.9815,-3.7860,0.1798,-0.0003,-0.0000,2.3407,flat,18.0,1,11.337
220,7.04,1.6084,-3.3751,0.1798,-0.0003,-0.0000,2.2667,flat,18.0,1,10.901
230,7.36,1.2614,-2.9362,0.1797,-0.0002,-0.0000,2.2002,flat,18.0,1,10.449
240,7.68,0.9405,-2.4741,0.1797,-0.0002,-0.0000,2.1407,flat,18.0,1,9.984
250,8.00,0.6458,-1.9929,0.1797,-0.0002,-0.0000,2.0876,flat,18.0,1,9.510
260,8.32,0.3748,-1.4968,0.1797,-0.0002,-0.0000,2.0414,flat,18.0,1,9.030
270,8.64,0.1251,-0.9888,0.1797,-0.0001,-0.0000,2.0005,flat,18.0,1,8.545
280,8.96,-0.1051,-0.4704,0.1797,-0.0001,-0.0000,1.9629,flat,18.0,1,8.059
290,9.28,-0.3166,0.0567,0.1797,-0.0001,-0.0000,1.9279,flat,18.0,1,7.572
300,9.60,-0.5104,0.5913,0.1797,-0.0001,-0.0000,1.8950,flat,18.0,1,7.085
310,9.92,-0.6871,1.1323,0.1797,-0.0001,-0.0000,1.8634,flat,18.0,1,6.602
320,10.24,-0.8470,1.6787,0.1797,-0.0001,-0.0000,1.8325,flat,18.0,1,6.122
330,10.56,-0.9901,2.2298,0.1797,-0.0001,-0.0000,1.8010,flat,18.0,1,5.649
340,10.88,-1.1157,2.7847,0.1797,-0.0001,0.0000,1.7675,flat,18.0,1,5.185
350,11.20,-1.1833,3.3245,0.1799,-0.0002,-0.0000,1.5853,flat,18.0,1,4.729
360,11.52,-1.1740,3.8748,0.1799,-0.0001,-0.0000,1.4375,flat,18.0,1,4.245
370,11.84,-1.0870,4.4201,0.1799,-0.0004,-0.0000,1.3247,flat,18.0,1,3.739
380,12.16,-0.9400,4.9541,0.1798,-0.0004,-0.0000,1.2317,flat,18.0,1,3.220
390,12.48,-0.7441,5.4734,0.1798,-0.0004,-0.0000,1.1506,flat,18.0,1,2.693
400,12.80,-0.5063,5.9754,0.1798,-0.0003,-0.0000,1.0758,flat,18.0,1,2.163
410,13.12,-0.2309,6.4583,0.1797,-0.0003,-0.0000,1.0061,flat,18.0,1,1.633
420,13.44,0.0775,6.9212,0.1797,-0.0002,0.0000,0.9391,flat,18.0,1,1.110
430,13.76,0.3814,7.3196,0.1755,0.0000,-0.0275,0.8542,flat,18.0,2,14.770
440,14.08,0.5516,7.4359,0.1736,-0.0350,0.0008,0.1940,flat,18.0,2,14.962
450,14.40,0.8749,7.4868,0.1799,0.0003,-0.0000,-0.2857,flat,18.0,2,15.188
460,14.72,1.2081,7.3512,0.1799,0.0001,-0.0000,-0.6967,flat,18.0,2,15.274
470,15.04,1.4911,7.0442,0.1799,0.0000,-0.0001,-1.0026,flat,18.0,2,15.202
480,15.36,1.7154,6.6223,0.1799,-0.0000,-0.0000,-1.2854,flat,18.0,2,15.015
490,15.68,1.8346,6.1241,0.1799,0.0000,-0.0000,-1.5359,flat,18.0,2,14.714
500,16.00,1.8319,5.5905,0.1799,-0.0001,-0.0000,-1.7325,flat,18.0,2,14.316
510,16.32,1.7265,5.0565,0.1799,-0.0002,-0.0000,-1.8734,flat,18.0,2,13.856
520,16.64,1.5481,4.5358,0.1798,-0.0004,-0.0000,-1.9746,flat,18.0,2,13.359
530,16.96,1.3181,4.0306,0.1798,-0.0003,-0.0000,-2.0516,flat,18.0,2,12.841
540,17.28,1.0497,3.5406,0.1797,-0.0002,-0.0000,-2.1124,flat,18.0,2,12.308
550,17.60,0.7517,3.0646,0.1797,-0.0002,-0.0000,-2.1618,flat,18.0,2,11.765
560,17.92,0.4302,2.6021,0.1797,-0.0001,-0.0000,-2.2009,flat,18.0,2,11.216
570,18.24,0.0907,2.1505,0.1797,-0.0001,-0.0000,-2.2342,flat,18.0,2,10.662
580,18.56,-0.2639,1.7088,0.1797,-0.0001,-0.0000,-2.2631,flat,18.0,2,10.104
590,18.88,-0.6314,1.2762,0.1797,-0.0001,-0.0000,-2.2887,flat,18.0,2,9.543
600,19.20,-1.0099,0.8519,0.1797,-0.0001,-0.0000,-2.3121,flat,18.0,2,8.980
610,19.52,-1.3984,0.4355,0.1797,-0.0001,-0.0000,-2.3333,flat,18.0,2,8.415
620,19.84,-1.7958,0.0267,0.1797,-0.0001,-0.0000,-2.3524,flat,18.0,2,7.849
630,20.16,-2.2010,-0.3751,0.1797,-0.0001,-0.0000,-2.3698,flat,18.0,2,7.281
640,20.48,-2.6132,-0.7702,0.1797,-0.0001,-0.0000,-2.3861,flat,18.0,2,6.713
650,20.80,-3.0320,-1.1588,0.1797,-0.0001,-0.0000,-2.4015,flat,18.0,2,6.144
660,21.12,-3.4566,-1.5413,0.1797,-0.0001,-0.0000,-2.4159,flat,18.0,2,5.574
670,21.44,-3.8865,-1.9180,0.1797,-0.0000,-0.0000,-2.4295,flat,18.0,2,5.004
680,21.76,-4.3215,-2.2890,0.1797,-0.0000,-0.0000,-2.4425,flat,18.0,2,4.434
690,22.08,-4.7613,-2.6542,0.1797,-0.0000,-0.0000,-2.4555,flat,18.0,2,3.863
700,22.40,-5.2057,-3.0138,0.1797,-0.0000,0.0000,-2.4688,flat,18.0,2,3.292
710,22.72,-5.6549,-3.3672,0.1797,-0.0000,0.0000,-2.4828,flat,18.0,2,2.722
720,23.04,-6.1088,-3.7138,0.1797,-0.0001,0.0000,-2.4985,flat,18.0,2,2.152
730,23.36,-6.5677,-4.0522,0.1797,-0.0001,0.0000,-2.5178,flat,18.0,2,1.582
740,23.68,-7.0319,-4.3791,0.1797,-0.0001,0.0000,-2.5461,flat,18.0,2,1.015
750,24.00,-7.4993,-4.6725,0.1798,-0.0001,0.0000,-2.6360,flat,18.0,3,0.945
760,24.32,-7.8237,-4.8249,0.1791,-0.0000,-0.0040,-2.5557,rough,14.0,0,13.172
770,24.64,-8.0611,-5.0434,0.1773,0.0170,-0.0002,-2.0571,rough,14.0,0,13.416
780,24.96,-8.2068,-5.3675,0.1799,-0.0000,0.0000,-1.6290,flat,18.0,0,13.578
790,25.28,-8.2064,-5.7590,0.1799,0.0001,-0.0001,-1.2210,flat,18.0,0,13.608
800,25.60,-8.0188,-6.1606,0.1799,0.0001,-0.0000,-0.9320,flat,18.0,0,13.464
810,25.92,-7.6922,-6.5085,0.1799,0.0000,-0.0000,-0.6810,flat,18.0,0,13.188
820,26.24,-7.2660,-6.8018,0.1799,0.0000,-0.0000,-0.4617,flat,18.0,0,12.815
830,26.56,-6.7711,-7.0159,0.1799,0.0001,-0.0000,-0.2629,flat,18.0,0,12.370
840,26.88,-6.2364,-7.1386,0.1799,0.0001,-0.0000,-0.0933,flat,18.0,0,11.873
850,27.20,-5.6837,-7.1739,0.1799,0.0002,-0.0000,0.0478,flat,18.0,0,11.343
860,27.52,-5.1291,-7.1347,0.1798,0.0004,-0.0000,0.1556,flat,18.0,0,10.795
870,27.84,-4.5799,-7.0377,0.1798,0.0004,-0.0000,0.2416,flat,18.0,0,10.239
880,28.16,-4.0395,-6.8946,0.1798,0.0003,-0.0000,0.3138,flat,18.0,0,9.680
890,28.48,-3.5097,-6.7130,0.1797,0.0002,-0.0000,0.3772,flat,18.0,0,9.122
900,28.80,-2.9919,-6.4982,0.1797,0.0002,-0.0000,0.4354,flat,18.0,0,8.568
910,29.12,-2.4877,-6.2534,0.1797,0.0002,-0.0000,0.4916,flat,18.0,0,8.022
920,29.44,-2.0001,-5.9877,0.1797,0.0001,-0.0000,0.4938,flat,18.0,0,7.490
930,29.76,-1.4986,-5.7314,0.1798,-0.0002,-0.0000,0.4277,flat,18.0,0,6.950
940,30.08,-0.9802,-5.5057,0.1797,-0.0002,-0.0000,0.3678,flat,18.0,0,6.401
950,30.40,-0.4483,-5.3101,0.1797,-0.0002,-0.0000,0.3145,flat,18.0,0,5.847
960,30.72,0.0940,-5.1414,0.1797,-0.0002,-0.0000,0.2667,flat,18.0,0,5.287
970,31.04,0.6431,-4.9975,0.1797,-0.0001,-0.0000,0.2256,flat,18.0,0,4.726
980,31.36,1.1979,-4.8755,0.1797,-0.0001,-0.0000,0.1878,flat,18.0,0,4.162
990,31.68,1.7573,-4.7739,0.1797,-0.0001,-0.0000,0.1517,flat,18.0,0,3.596
1000,32.00,2.3201,-4.6922,0.1797,-0.0001,-0.0000,0.1166,flat,18.0,0,3.029
1010,32.32,2.8854,-4.6302,0.1797,-0.0001,-0.0000,0.0809,flat,18.0,0,2.462
1020,32.64,3.4520,-4.5884,0.1797,-0.0001,0.0000,0.0426,flat,18.0,0,1.894
1030,32.96,4.0184,-4.5688,0.1797,-0.0002,0.0000,-0.0032,flat,18.0,0,1.327
1040,33.28,4.5815,-4.5760,0.1797,-0.0003,0.0000,-0.0725,flat,18.0,1,0.765
1050,33.60,5.0978,-4.5787,0.1799,-0.0005,0.0000,0.1854,flat,18.0,1,12.758
1060,33.92,5.4963,-4.4801,0.1799,-0.0002,0.0000,0.5632,flat,18.0,1,12.799
1070,34.24,5.7893,-4.2303,0.1799,-0.0001,-0.0001,0.9038,flat,18.0,1,12.672
1080,34.56,6.0347,-3.8469,0.1799,-0.0000,-0.0000,1.2088,flat,18.0,1,12.415
1090,34.88,6.1832,-3.3721,0.1799,0.0000,-0.0000,1.4863,flat,18.0,1,12.045
1100,35.20,6.2026,-2.8504,0.1799,0.0001,0.0000,1.7165,flat,18.0,1,11.585
1110,35.52,6.1038,-2.3225,0.1799,0.0001,-0.0000,1.8851,flat,18.0,1,11.069
1120,35.84,5.9182,-1.8100,0.1799,0.0003,-0.0000,2.0050,flat,18.0,1,10.529
1130,36.16,5.6722,-1.3174,0.1798,0.0004,-0.0000,2.0959,flat,18.0,1,9.979
1140,36.48,5.3816,-0.8441,0.1798,0.0003,-0.0000,2.1669,flat,18.0,1,9.425
1150,36.80,5.0577,-0.3888,0.1797,0.0002,-0.0000,2.2246,flat,18.0,1,8.871
1160,37.12,4.7075,0.0492,0.1797,0.0002,-0.0000,2.2749,flat,18.0,1,8.323
1170,37.44,4.3352,0.4709,0.1797,0.0002,-0.0000,2.3183,flat,18.0,1,7.781
1180,37.76,3.9444,0.8778,0.1797,0.0001,-0.0000,2.3570,flat,18.0,1,7.249
1190,38.08,3.5379,1.2704,0.1797,0.0001,-0.0000,2.3924,flat,18.0,1,6.729
1200,38.40,3.1176,1.6491,0.1797,0.0001,-0.0000,2.4257,flat,18.0,1,6.225
1210,38.72,2.6855,2.0019,0.1797,0.0002,-0.0000,2.4819,flat,18.0,1,5.755
1220,39.04,2.2347,2.3376,0.1797,0.0002,-0.0000,2.5279,flat,18.0,1,5.313
1230,39.36,1.7687,2.6534,0.1797,0.0002,-0.0000,2.5737,flat,18.0,1,4.914
1240,39.68,1.2885,2.9480,0.1797,0.0002,-0.0000,2.6208,flat,18.0,1,4.570
1250,40.00,0.7948,3.2200,0.1797,0.0002,-0.0000,2.6725,flat,18.0,1,4.296
1260,40.32,0.3396,3.4576,0.1799,0.0003,0.0000,2.5241,flat,18.0,1,4.109
1270,40.64,-0.0253,3.7798,0.1799,-0.0000,-0.0000,2.2773,flat,18.0,1,3.873
1280,40.96,-0.3279,4.2019,0.1799,-0.0000,-0.0000,2.0446,flat,18.0,1,3.572
1290,41.28,-0.5443,4.6919,0.1799,-0.0001,-0.0000,1.8239,flat,18.0,1,3.222
1300,41.60,-0.6578,5.2220,0.1799,-0.0001,-0.0000,1.6179,flat,18.0,1,2.836
1310,41.92,-0.6633,5.7658,0.1799,-0.0001,-0.0000,1.4342,flat,18.0,1,2.423
1320,42.24,-0.5720,6.3001,0.1799,-0.0001,0.0000,1.2789,flat,18.0,1,1.999
1330,42.56,-0.3949,6.7947,0.1799,-0.0001,-0.0000,1.0888,flat,18.0,1,1.584
1340,42.88,-0.1253,7.2454,0.1799,-0.0001,-0.0000,0.9178,flat,18.0,1,1.174
1350,43.20,0.2204,7.6369,0.1799,-0.0000,0.0000,0.7444,flat,18.0,1,0.808
1360,43.52,0.4785,7.8264,0.1796,-0.0000,-0.0017,0.3267,flat,18.0,2,15.246
1370,43.84,0.8169,7.9131,0.1791,0.0004,-0.0048,-0.1598,flat,18.0,2,15.506
1380,44.16,1.1698,7.8263,0.1799,-0.0001,-0.0000,-0.6082,flat,18.0,2,15.636
1390,44.48,1.4636,7.5546,0.1799,0.0000,-0.0001,-0.9268,flat,18.0,2,15.590
1400,44.80,1.7095,7.1567,0.1799,-0.0000,-0.0000,-1.2127,flat,18.0,2,15.425
1410,45.12,1.8463,6.6853,0.1799,-0.0001,-0.0000,-1.4859,flat,18.0,2,15.147
1420,45.44,1.8658,6.1645,0.1799,-0.0001,0.0000,-1.7147,flat,18.0,2,14.765
1430,45.76,1.7680,5.6371,0.1799,-0.0001,-0.0000,-1.8843,flat,18.0,2,14.307
1440,46.08,1.5827,5.1244,0.1799,-0.0003,-0.0000,-2.0039,flat,18.0,2,13.805
1450,46.40,1.3373,4.6310,0.1798,-0.0004,-0.0000,-2.0933,flat,18.0,2,13.279
1460,46.72,1.0481,4.1565,0.1798,-0.0003,-0.0000,-2.1632,flat,18.0,2,12.738
1470,47.04,0.7258,3.6995,0.1797,-0.0002,-0.0000,-2.2197,flat,18.0,2,12.186
1480,47.36,0.3776,3.2587,0.1797,-0.0002,-0.0000,-2.2660,flat,18.0,2,11.629
1490,47.68,0.0091,2.8324,0.1797,-0.0001,-0.0000,-2.3045,flat,18.0,2,11.067
1500,48.00,-0.3760,2.4184,0.1797,-0.0001,-0.0000,-2.3390,flat,18.0,2,10.502
1510,48.32,-0.7755,2.0163,0.1797,-0.0001,-0.0000,-2.3692,flat,18.0,2,9.935
1520,48.64,-1.1871,1.6256,0.1797,-0.0001,-0.0000,-2.3967,flat,18.0,2,9.368
1530,48.96,-1.6095,1.2455,0.1797,-0.0001,-0.0000,-2.4218,flat,18.0,2,8.800
1540,49.28,-2.0410,0.8752,0.1797,-0.0001,-0.0000,-2.4444,flat,18.0,2,8.233
1550,49.60,-2.4808,0.5139,0.1797,-0.0001,-0.0000,-2.4653,flat,18.0,2,7.666
1560,49.92,-2.9282,0.1612,0.1797,-0.0001,-0.0000,-2.4850,flat,18.0,2,7.101
1570,50.24,-3.3827,-0.1831,0.1797,-0.0001,-0.0000,-2.5038,flat,18.0,2,6.537
1580,50.56,-3.8436,-0.5193,0.1797,-0.0001,-0.0000,-2.5220,flat,18.0,2,5.977
1590,50.88,-4.3107,-0.8473,0.1797,-0.0001,-0.0000,-2.5398,flat,18.0,2,5.421
1600,51.20,-4.7836,-1.1671,0.1797,-0.0001,-0.0000,-2.5576,flat,18.0,2,4.870
1610,51.52,-5.2400,-1.4869,0.1797,0.0002,0.0000,-2.4974,flat,18.0,2,4.335
1620,51.84,-5.6804,-1.8328,0.1797,0.0002,-0.0000,-2.4453,flat,18.0,2,3.794
1630,52.16,-6.1026,-2.2013,0.1797,0.0002,-0.0000,-2.3944,flat,18.0,2,3.251
1640,52.48,-6.5047,-2.5914,0.1797,0.0002,0.0000,-2.3428,flat,18.0,2,2.707
1650,52.80,-6.8843,-3.0018,0.1797,0.0002,0.0000,-2.2870,flat,18.0,2,2.163
1660,53.12,-7.2394,-3.4325,0.1797,0.0002,0.0000,-2.2196,flat,18.0,2,1.620
1670,53.44,-7.5607,-3.8846,0.1798,0.0004,0.0000,-2.1246,flat,18.0,2,1.082
1680,53.76,-7.8262,-4.3545,0.1798,0.0002,-0.0002,-2.0781,flat,18.0,0,0.799
1690,54.08,-7.9801,-4.7022,0.1798,-0.0004,0.0000,-1.7130,rough,14.0,0,13.326
1700,54.40,-8.0175,-5.0197,0.1799,-0.0001,-0.0001,-1.3757,flat,18.0,0,13.372
1710,54.72,-7.9261,-5.3804,0.1799,-0.0000,0.0001,-1.1258,rough,14.0,0,13.299
1720,55.04,-7.7368,-5.7252,0.1799,0.0000,-0.0001,-0.9227,flat,18.0,0,13.137
1730,55.36,-7.4017,-6.0925,0.1799,0.0001,-0.0000,-0.7167,flat,18.0,0,12.843
1740,55.68,-6.9790,-6.4116,0.1799,0.0001,-0.0000,-0.5370,flat,18.0,0,12.468
1750,56.00,-6.4965,-6.6683,0.1799,0.0001,-0.0000,-0.3830,flat,18.0,0,12.034
1760,56.32,-5.9753,-6.8586,0.1799,0.0003,-0.0000,-0.2565,flat,18.0,0,11.559
1770,56.64,-5.4307,-6.9877,0.1798,0.0004,-0.0000,-0.1532,flat,18.0,0,11.054
1780,56.96,-4.8730,-7.0634,0.1798,0.0004,-0.0000,-0.0686,flat,18.0,0,10.529
1790,57.28,-4.3086,-7.0939,0.1798,0.0003,-0.0000,0.0008,flat,18.0,0,9.990
1800,57.60,-3.7425,-7.0868,0.1797,0.0002,-0.0000,0.0544,flat,18.0,0,9.443
1810,57.92,-3.1943,-7.0466,0.1799,0.0001,0.0001,0.1900,flat,18.0,0,8.905
1820,58.24,-2.6946,-6.9243,0.1799,0.0001,-0.0000,0.4339,flat,18.0,0,8.391
1830,58.56,-2.2452,-6.6769,0.1799,0.0001,-0.0000,0.6455,flat,18.0,0,7.890
1840,58.88,-1.7933,-6.3663,0.1798,-0.0002,-0.0000,0.5637,flat,18.0,0,7.373
1850,59.20,-1.3119,-6.0777,0.1798,-0.0003,-0.0000,0.4960,flat,18.0,0,6.836
1860,59.52,-0.8105,-5.8185,0.1797,-0.0002,-0.0000,0.4347,flat,18.0,0,6.291
1870,59.84,-0.2933,-5.5888,0.1797,-0.0002,-0.0000,0.3797,flat,18.0,0,5.738
1880,60.16,0.2365,-5.3863,0.1797,-0.0002,-0.0000,0.3299,flat,18.0,0,5.181
1890,60.48,0.7757,-5.2091,0.1797,-0.0002,-0.0000,0.2859,flat,18.0,0,4.621
1900,60.80,1.3217,-5.0547,0.1797,-0.0001,-0.0000,0.2460,flat,18.0,0,4.058
1910,61.12,1.8738,-4.9215,0.1797,-0.0001,-0.0000,0.2077,flat,18.0,0,3.494
1920,61.44,2.4307,-4.8092,0.1797,-0.0001,-0.0000,0.1698,flat,18.0,0,2.928
1930,61.76,2.9912,-4.7178,0.1797,-0.0001,-0.0000,0.1310,flat,18.0,0,2.362
1940,62.08,3.5542,-4.6485,0.1797,-0.0001,0.0000,0.0882,flat,18.0,0,1.795
1950,62.40,4.1184,-4.6040,0.1797,-0.0002,0.0000,0.0343,flat,18.0,0,1.229
1960,62.72,4.6785,-4.5916,0.1798,-0.0003,0.0001,-0.0100,flat,18.0,1,12.643
1970,63.04,5.1932,-4.5736,0.1798,-0.0003,0.0001,0.2397,flat,18.0,1,12.784
1980,63.36,5.5911,-4.4491,0.1799,-0.0002,0.0000,0.5893,flat,18.0,1,12.803
1990,63.68,5.8819,-4.1888,0.1799,-0.0001,-0.0001,0.9237,flat,18.0,1,12.669
2000,64.00,6.1221,-3.7993,0.1799,-0.0000,-0.0000,1.2288,flat,18.0,1,12.407
2010,64.32,6.2622,-3.3206,0.1799,0.0000,-0.0000,1.5056,flat,18.0,1,12.033
2020,64.64,6.2723,-2.7979,0.1799,0.0001,-0.0000,1.7346,flat,18.0,1,11.569
2030,64.96,6.1647,-2.2713,0.1799,0.0001,-0.0000,1.8977,flat,18.0,1,11.052
2040,65.28,5.9725,-1.7610,0.1799,0.0003,-0.0000,2.0158,flat,18.0,1,10.511
2050,65.60,5.7212,-1.2709,0.1798,0.0004,-0.0000,2.1055,flat,18.0,1,9.961
2060,65.92,5.4260,-0.8001,0.1798,0.0003,-0.0000,2.1749,flat,18.0,1,9.406
2070,66.24,5.0984,-0.3471,0.1797,0.0002,-0.0000,2.2316,flat,18.0,1,8.853
2080,66.56,4.7451,0.0886,0.1797,0.0002,-0.0000,2.2812,flat,18.0,1,8.304
2090,66.88,4.3700,0.5079,0.1797,0.0002,-0.0000,2.3249,flat,18.0,1,7.763
2100,67.20,3.9765,0.9121,0.1797,0.0001,-0.0000,2.3636,flat,18.0,1,7.230
2110,67.52,3.5674,1.3020,0.1797,0.0001,-0.0000,2.3993,flat,18.0,1,6.711
2120,67.84,3.1446,1.6776,0.1797,0.0001,-0.0000,2.4325,flat,18.0,1,6.208
2130,68.16,2.7100,2.0400,0.1797,0.0001,-0.0000,2.4634,flat,18.0,1,5.725
2140,68.48,2.2642,2.3895,0.1797,0.0001,-0.0000,2.4936,flat,18.0,1,5.270
2150,68.80,1.8079,2.7259,0.1797,0.0001,-0.0000,2.5237,flat,18.0,1,4.849
2160,69.12,1.3416,3.0487,0.1797,0.0001,-0.0000,2.5545,flat,18.0,1,4.473
2170,69.44,0.8658,3.3568,0.1797,0.0001,0.0000,2.5873,flat,18.0,1,4.156
2180,69.76,0.4075,3.6339,0.1798,0.0001,0.0001,2.5119,flat,18.0,1,3.924
2190,70.08,0.0559,3.9545,0.1799,-0.0000,-0.0000,2.2502,flat,18.0,1,3.683
2200,70.40,-0.2284,4.3773,0.1799,-0.0000,-0.0000,1.9927,flat,18.0,1,3.372
2210,70.72,-0.4166,4.8734,0.1799,-0.0000,-0.0000,1.7430,flat,18.0,1,3.002
2220,71.04,-0.4849,5.4070,0.1799,-0.0000,-0.0000,1.5138,flat,18.0,1,2.585
2230,71.36,-0.4340,5.9428,0.1799,-0.0001,-0.0000,1.3294,flat,18.0,1,2.137
2240,71.68,-0.2862,6.4596,0.1799,-0.0001,-0.0000,1.1733,flat,18.0,1,1.675
2250,72.00,-0.0584,6.9440,0.1799,-0.0001,0.0000,1.0271,flat,18.0,1,1.217
2260,72.32,0.2407,7.3866,0.1799,-0.0001,0.0000,0.8868,flat,18.0,2,0.788
2270,72.64,0.4082,7.5667,0.1799,-0.0006,-0.0016,0.2911,flat,18.0,2,14.990
2280,72.96,0.7004,7.6454,0.1793,-0.0031,-0.0000,-0.1262,flat,18.0,2,15.219
2290,73.28,1.0534,7.5710,0.1799,-0.0001,0.0000,-0.5864,flat,18.0,2,15.360
2300,73.60,1.3488,7.3086,0.1799,0.0000,-0.0000,-0.9109,flat,18.0,2,15.324
2310,73.92,1.5980,6.9170,0.1799,-0.0000,-0.0000,-1.1994,flat,18.0,2,15.169
2320,74.24,1.7539,6.4371,0.1799,-0.0001,-0.0000,-1.4575,flat,18.0,2,14.898
2330,74.56,1.7903,5.9093,0.1799,-0.0001,0.0000,-1.6711,flat,18.0,2,14.524
2340,74.88,1.7168,5.3721,0.1799,-0.0001,-0.0000,-1.8288,flat,18.0,2,14.078
2350,75.20,1.5617,4.8454,0.1798,-0.0004,-0.0000,-1.9393,flat,18.0,2,13.589
2360,75.52,1.3497,4.3335,0.1798,-0.0004,-0.0000,-2.0221,flat,18.0,2,13.076
2370,75.84,1.0959,3.8367,0.1797,-0.0002,-0.0000,-2.0868,flat,18.0,2,12.546
2380,76.16,0.8103,3.3539,0.1797,-0.0002,-0.0000,-2.1390,flat,18.0,2,12.006
2390,76.48,0.4995,2.8845,0.1797,-0.0001,-0.0000,-2.1806,flat,18.0,2,11.458
2400,76.80,0.1693,2.4265,0.1797,-0.0001,-0.0000,-2.2152,flat,18.0,2,10.905
2410,77.12,-0.1768,1.9785,0.1797,-0.0001,-0.0000,-2.2451,flat,18.0,2,10.348
2420,77.44,-0.5363,1.5396,0.1797,-0.0001,-0.0000,-2.2713,flat,18.0,2,9.787
2430,77.76,-0.9073,1.1091,0.1797,-0.0001,-0.0000,-2.2948,flat,18.0,2,9.225
2440,78.08,-1.2884,0.6863,0.1797,-0.0001,-0.0000,-2.3163,flat,18.0,2,8.661
2450,78.40,-1.6788,0.2709,0.1797,-0.0001,-0.0000,-2.3359,flat,18.0,2,8.094
2460,78.72,-2.0773,-0.1374,0.1797,-0.0001,-0.0000,-2.3536,flat,18.0,2,7.527
2470,79.04,-2.4830,-0.5392,0.1797,-0.0001,-0.0000,-2.3699,flat,18.0,2,6.959
2480,79.36,-2.8953,-0.9346,0.1797,-0.0001,-0.0000,-2.3851,flat,18.0,2,6.390
2490,79.68,-3.3137,-1.3241,0.1797,-0.0001,-0.0000,-2.3996,flat,18.0,2,5.820
2500,80.00,-3.7376,-1.7076,0.1797,-0.0000,-0.0000,-2.4133,flat,18.0,2,5.250
2510,80.32,-4.1667,-2.0856,0.1797,-0.0000,-0.0000,-2.4264,flat,18.0,2,4.679
2520,80.64,-4.6005,-2.4581,0.1797,-0.0000,-0.0000,-2.4390,flat,18.0,2,4.109
2530,80.96,-5.0390,-2.8250,0.1797,-0.0000,0.0000,-2.4518,flat,18.0,2,3.538
2540,81.28,-5.4821,-3.1862,0.1797,-0.0000,0.0000,-2.4650,flat,18.0,2,2.967
2550,81.60,-5.9299,-3.5412,0.1797,-0.0001,0.0000,-2.4794,flat,18.0,2,2.397
2560,81.92,-6.3824,-3.8889,0.1797,-0.0001,0.0000,-2.4963,flat,18.0,2,1.827
2570,82.24,-6.8402,-4.2272,0.1797,-0.0001,0.0000,-2.5189,flat,18.0,2,1.258
2580,82.56,-7.3001,-4.5472,0.1797,-0.0001,0.0002,-2.5746,flat,18.0,3,1.170
2590,82.88,-7.7497,-4.8038,0.1789,-0.0001,-0.0054,-2.7120,rough,14.0,0,13.097
2600,83.20,-7.9733,-4.9019,0.1797,-0.0007,-0.0017,-2.3175,rough,14.0,0,13.323
2610,83.52,-8.1561,-5.1411,0.1798,-0.0002,-0.0000,-1.9471,rough,14.0,0,13.515
2620,83.84,-8.2756,-5.4772,0.1798,0.0001,0.0005,-1.5253,rough,14.0,0,13.654
2630,84.16,-8.2387,-5.8555,0.1799,0.0001,-0.0001,-1.1700,flat,18.0,0,13.649
2640,84.48,-8.0260,-6.2527,0.1799,0.0001,-0.0000,-0.8941,flat,18.0,0,13.482
2650,84.80,-7.6796,-6.6098,0.1799,0.0001,-0.0000,-0.6863,flat,18.0,0,13.191
2660,85.12,-7.2477,-6.9168,0.1799,0.0001,-0.0000,-0.5029,flat,18.0,0,12.818
2670,85.44,-6.7566,-7.1577,0.1799,0.0001,-0.0000,-0.3459,flat,18.0,0,12.385
2680,85.76,-6.2287,-7.3291,0.1799,0.0003,-0.0000,-0.2178,flat,18.0,0,11.909
2690,86.08,-5.6795,-7.4373,0.1798,0.0004,-0.0000,-0.1140,flat,18.0,0,11.404
2700,86.40,-5.1193,-7.4913,0.1798,0.0004,-0.0000,-0.0294,flat,18.0,0,10.878
2710,86.72,-4.5541,-7.4997,0.1798,0.0003,-0.0000,0.0386,flat,18.0,0,10.337
2720,87.04,-3.9889,-7.4716,0.1797,0.0002,-0.0000,0.0899,flat,18.0,0,9.789
2730,87.36,-3.4246,-7.4154,0.1797,0.0001,-0.0000,0.1309,flat,18.0,0,9.235
2740,87.68,-2.8623,-7.3370,0.1797,0.0001,-0.0000,0.1642,flat,18.0,0,8.677
2750,88.00,-2.3018,-7.2403,0.1797,0.0001,-0.0000,0.1924,flat,18.0,0,8.116
2760,88.32,-1.7434,-7.1280,0.1797,0.0001,-0.0000,0.2167,flat,18.0,0,7.553
2770,88.64,-1.1871,-7.0024,0.1797,0.0001,-0.0000,0.2380,flat,18.0,0,6.987
2780,88.96,-0.6330,-6.8651,0.1797,0.0001,-0.0000,0.2568,flat,18.0,0,6.421
2790,89.28,-0.0811,-6.7175,0.1797,0.0001,-0.0000,0.2737,flat,18.0,0,5.854
2800,89.60,0.4687,-6.5607,0.1797,0.0001,-0.0000,0.2891,flat,18.0,0,5.286
2810,89.92,1.0163,-6.3955,0.1797,0.0001,-0.0000,0.3034,flat,18.0,0,4.717
2820,90.24,1.5616,-6.2225,0.1797,0.0000,-0.0000,0.3168,flat,18.0,0,4.148
2830,90.56,2.1048,-6.0423,0.1797,0.0000,-0.0000,0.3297,flat,18.0,0,3.580
2840,90.88,2.6455,-5.8551,0.1797,0.0000,0.0000,0.3426,flat,18.0,0,3.011
2850,91.20,3.1836,-5.6609,0.1797,0.0000,0.0000,0.3560,flat,18.0,0,2.444
2860,91.52,3.7185,-5.4595,0.1797,0.0001,0.0000,0.3709,flat,18.0,0,1.878
2870,91.84,4.2490,-5.2500,0.1797,0.0001,0.0000,0.3896,flat,18.0,0,1.316
2880,92.16,4.7713,-5.0309,0.1797,0.0001,0.0000,0.4210,flat,18.0,1,0.768
2890,92.48,5.1466,-4.8295,0.1799,-0.0002,0.0000,0.7175,flat,18.0,1,13.011
2900,92.80,5.4170,-4.5308,0.1799,-0.0001,-0.0001,1.0020,flat,18.0,1,12.819
2910,93.12,5.6420,-4.1093,0.1799,0.0000,-0.0000,1.2844,flat,18.0,1,12.505
2920,93.44,5.7610,-3.6109,0.1799,0.0001,-0.0000,1.5387,flat,18.0,1,12.090
2930,93.76,5.7552,-3.0785,0.1799,0.0001,-0.0000,1.7425,flat,18.0,1,11.599
2940,94.08,5.6438,-2.5473,0.1799,0.0002,-0.0000,1.8886,flat,18.0,1,11.070
2950,94.40,5.4573,-2.0312,0.1798,0.0004,-0.0000,1.9944,flat,18.0,1,10.523
2960,94.72,5.2170,-1.5327,0.1798,0.0004,-0.0000,2.0762,flat,18.0,1,9.969
2970,95.04,4.9363,-1.0515,0.1797,0.0002,-0.0000,2.1420,flat,18.0,1,9.415
2980,95.36,4.6241,-0.5867,0.1797,0.0002,-0.0000,2.1965,flat,18.0,1,8.863
2990,95.68,4.2864,-0.1375,0.1797,0.0002,-0.0000,2.2421,flat,18.0,1,8.316
3000,96.00,3.9284,0.2974,0.1797,0.0001,-0.0000,2.2804,flat,18.0,1,7.777
3010,96.32,3.5536,0.7200,0.1797,0.0001,-0.0000,2.3158,flat,18.0,1,7.248
3020,96.64,3.1638,1.1303,0.1797,0.0001,-0.0000,2.3485,flat,18.0,1,6.730
3030,96.96,2.7606,1.5285,0.1797,0.0001,-0.0000,2.3788,flat,18.0,1,6.230
3040,97.28,2.3453,1.9146,0.1797,0.0001,-0.0000,2.4081,flat,18.0,1,5.750
3050,97.60,1.9191,2.2886,0.1797,0.0001,-0.0000,2.4362,flat,18.0,1,5.298
3060,97.92,1.4829,2.6508,0.1797,0.0001,-0.0000,2.4639,flat,18.0,1,4.881
3070,98.24,1.0369,3.0006,0.1797,0.0001,0.0000,2.4930,flat,18.0,1,4.509
3080,98.56,0.5811,3.3368,0.1797,0.0001,0.0000,2.5249,flat,18.0,1,4.196
3090,98.88,0.2012,3.6496,0.1798,-0.0017,0.0020,2.3079,flat,18.0,1,3.946
3100,99.20,-0.1022,4.0533,0.1799,0.0000,-0.0000,2.0607,flat,18.0,1,3.634
3110,99.52,-0.3215,4.5362,0.1799,-0.0000,-0.0000,1.8202,flat,18.0,1,3.262
3120,99.84,-0.4309,5.0644,0.1799,-0.0001,-0.0000,1.5984,flat,18.0,1,2.843
3130,100.16,-0.4250,5.6061,0.1799,-0.0001,-0.0000,1.4094,flat,18.0,1,2.389
3140,100.48,-0.3200,6.1370,0.1799,-0.0001,-0.0000,1.2552,flat,18.0,1,1.918
3150,100.80,-0.1342,6.6438,0.1799,-0.0002,-0.0000,1.1162,flat,18.0,1,1.442
3160,101.12,0.1220,7.1156,0.1799,-0.0002,-0.0000,0.9796,flat,18.0,1,0.980
3170,101.44,0.3749,7.4751,0.1785,-0.0002,-0.0082,0.7819,flat,18.0,2,14.896
3180,101.76,0.5626,7.5725,0.1776,-0.0131,0.0001,0.1328,flat,18.0,2,15.081
3190,102.08,0.9025,7.6051,0.1799,0.0003,0.0000,-0.3663,flat,18.0,2,15.301
3200,102.40,1.2257,7.4367,0.1799,0.0001,-0.0000,-0.7500,flat,18.0,2,15.353
3210,102.72,1.4990,7.1075,0.1799,-0.0000,-0.0000,-1.0581,flat,18.0,2,15.256
3220,103.04,1.7049,6.6695,0.1799,-0.0001,-0.0000,-1.3384,flat,18.0,2,15.044
3230,103.36,1.7984,6.1618,0.1799,-0.0001,0.0000,-1.5805,flat,18.0,2,14.718
3240,103.68,1.7716,5.6272,0.1799,-0.0001,-0.0000,-1.7700,flat,18.0,2,14.302
3250,104.00,1.6462,5.0971,0.1799,-0.0002,-0.0000,-1.9044,flat,18.0,2,13.829
3260,104.32,1.4517,4.5818,0.1798,-0.0004,-0.0000,-2.0016,flat,18.0,2,13.324
3270,104.64,1.2080,4.0828,0.1798,-0.0003,-0.0000,-2.0762,flat,18.0,2,12.798
3280,104.96,0.9274,3.5993,0.1797,-0.0002,-0.0000,-2.1355,flat,18.0,2,12.260
3290,105.28,0.6183,3.1303,0.1797,-0.0002,-0.0000,-2.1838,flat,18.0,2,11.712
3300,105.60,0.2866,2.6749,0.1797,-0.0001,-0.0000,-2.2222,flat,18.0,2,11.159
3310,105.92,-0.0626,2.2307,0.1797,-0.0001,-0.0000,-2.2551,flat,18.0,2,10.601
3320,106.24,-0.4265,1.7966,0.1797,-0.0001,-0.0000,-2.2840,flat,18.0,2,10.040
3330,106.56,-0.8029,1.3717,0.1797,-0.0001,-0.0000,-2.3102,flat,18.0,2,9.476
3340,106.88,-1.1906,0.9555,0.1797,-0.0001,-0.0000,-2.3339,flat,18.0,2,8.910
3350,107.20,-1.5882,0.5478,0.1797,-0.0001,-0.0000,-2.3551,flat,18.0,2,8.343
3360,107.52,-1.9945,0.1479,0.1797,-0.0001,-0.0000,-2.3745,flat,18.0,2,7.774
3370,107.84,-2.4085,-0.2445,0.1797,-0.0001,-0.0000,-2.3925,flat,18.0,2,7.204
3380,108.16,-2.8297,-0.6298,0.1797,-0.0001,-0.0000,-2.4094,flat,18.0,2,6.634
3390,108.48,-3.2571,-1.0084,0.1797,-0.0001,-0.0000,-2.4250,flat,18.0,2,6.063
3400,108.80,-3.6904,-1.3806,0.1797,-0.0001,-0.0000,-2.4397,flat,18.0,2,5.492
3410,109.12,-4.1201,-1.7513,0.1797,-0.0000,-0.0000,-2.4299,flat,18.0,2,4.924
3420,109.44,-4.5560,-2.1261,0.1797,-0.0000,-0.0000,-2.4333,flat,18.0,2,4.350
3430,109.76,-4.9932,-2.4994,0.1797,-0.0000,-0.0000,-2.4367,flat,18.0,2,3.775
3440,110.08,-5.4316,-2.8712,0.1797,-0.0000,0.0000,-2.4402,flat,18.0,2,3.200
3450,110.40,-5.8713,-3.2414,0.1797,-0.0000,0.0000,-2.4440,flat,18.0,2,2.625
3460,110.72,-6.3124,-3.6097,0.1797,-0.0000,0.0000,-2.4482,flat,18.0,2,2.051
3470,111.04,-6.7548,-3.9756,0.1797,-0.0000,0.0000,-2.4536,flat,18.0,2,1.476
3480,111.36,-7.1989,-4.3381,0.1797,-0.0000,0.0000,-2.4620,flat,18.0,2,0.903
3490,111.68,-7.6363,-4.6670,0.1799,-0.0001,0.0000,-2.5735,flat,18.0,3,0.814
3500,112.00,-7.9577,-4.9009,0.1797,0.0001,0.0002,-2.2228,flat,18.0,0,13.308
3510,112.32,-8.1387,-5.1853,0.1798,-0.0002,0.0001,-1.8255,transition,15.0,0,13.500
3520,112.64,-8.2156,-5.5163,0.1799,-0.0000,-0.0001,-1.4186,flat,18.0,0,13.597
3530,112.96,-8.1239,-5.9201,0.1799,0.0001,-0.0000,-1.0745,flat,18.0,0,13.541
3540,113.28,-7.8633,-6.3078,0.1799,0.0001,-0.0000,-0.8247,flat,18.0,0,13.328
3550,113.60,-7.4863,-6.6510,0.1799,0.0001,-0.0000,-0.6282,flat,18.0,0,13.007
3560,113.92,-7.0334,-6.9395,0.1799,0.0001,-0.0000,-0.4527,flat,18.0,0,12.612
3570,114.24,-6.5292,-7.1595,0.1799,0.0001,-0.0000,-0.3056,flat,18.0,0,12.164
3580,114.56,-5.9936,-7.3117,0.1799,0.0003,-0.0000,-0.1861,flat,18.0,0,11.677
3590,114.88,-5.4404,-7.4037,0.1798,0.0004,-0.0000,-0.0890,flat,18.0,0,11.164
3600,115.20,-4.8781,-7.4444,0.1798,0.0004,-0.0000,-0.0098,flat,18.0,0,10.633
3610,115.52,-4.3327,-7.4361,0.1799,0.0001,-0.0000,0.1621,flat,18.0,0,10.107
3620,115.84,-3.8114,-7.3277,0.1799,0.0001,0.0000,0.3483,flat,18.0,0,9.577
3630,116.16,-3.3156,-7.1239,0.1799,0.0001,-0.0000,0.4962,flat,18.0,0,9.043
3640,116.48,-2.8527,-6.8467,0.1799,0.0003,-0.0000,0.6211,flat,18.0,0,8.521
3650,116.80,-2.4250,-6.5164,0.1798,0.0004,-0.0003,0.6777,flat,18.0,0,8.022
3660,117.12,-1.9819,-6.1851,0.1798,-0.0003,-0.0000,0.5881,flat,18.0,0,7.513
3670,117.44,-1.5081,-5.8880,0.1798,-0.0003,-0.0000,0.5077,flat,18.0,0,6.988
3680,117.76,-1.0107,-5.6256,0.1798,-0.0003,-0.0000,0.4362,flat,18.0,0,6.451
3690,118.08,-0.4946,-5.3964,0.1797,-0.0002,-0.0000,0.3724,flat,18.0,0,5.905
3700,118.40,0.0359,-5.1985,0.1797,-0.0002,-0.0000,0.3150,flat,18.0,0,5.352
3710,118.72,0.5777,-5.0303,0.1797,-0.0002,-0.0000,0.2630,flat,18.0,0,4.794
3720,119.04,1.1280,-4.8891,0.1797,-0.0002,-0.0000,0.2154,flat,18.0,0,4.233
3730,119.36,1.6845,-4.7735,0.1797,-0.0002,0.0000,0.1720,flat,18.0,0,3.669
3740,119.68,2.2447,-4.6812,0.1797,-0.0001,-0.0000,0.1320,flat,18.0,0,3.104
3750,120.00,2.8081,-4.6111,0.1797,-0.0001,-0.0000,0.0918,flat,18.0,0,2.538
3760,120.32,3.3734,-4.5638,0.1797,-0.0001,-0.0000,0.0489,flat,18.0,0,1.972
3770,120.64,3.9390,-4.5412,0.1797,-0.0002,0.0000,-0.0014,flat,18.0,0,1.406
3780,120.96,4.5018,-4.5479,0.1798,-0.0003,0.0000,-0.0734,flat,18.0,0,0.843
3790,121.28,5.0204,-4.5581,0.1798,-0.0004,0.0001,0.1590,flat,18.0,1,12.714
3800,121.60,5.4220,-4.4714,0.1799,-0.0002,0.0001,0.5458,flat,18.0,1,12.765
3810,121.92,5.7175,-4.2286,0.1799,-0.0001,-0.0001,0.8892,flat,18.0,1,12.644
3820,122.24,5.9663,-3.8500,0.1799,-0.0000,-0.0000,1.1946,flat,18.0,1,12.390
3830,122.56,6.1207,-3.3783,0.1799,0.0000,-0.0000,1.4731,flat,18.0,1,12.024
3840,122.88,6.1468,-2.8574,0.1799,0.0001,0.0000,1.7053,flat,18.0,1,11.566
3850,123.20,6.0538,-2.3287,0.1799,0.0001,-0.0000,1.8766,flat,18.0,1,11.052
3860,123.52,5.8726,-1.8149,0.1799,0.0003,-0.0000,1.9983,flat,18.0,1,10.512
3870,123.84,5.6300,-1.3209,0.1798,0.0004,-0.0000,2.0903,flat,18.0,1,9.962
3880,124.16,5.3421,-0.8462,0.1798,0.0003,-0.0000,2.1622,flat,18.0,1,9.408
3890,124.48,5.0204,-0.3896,0.1797,0.0002,-0.0000,2.2205,flat,18.0,1,8.855
3900,124.80,4.6720,0.0497,0.1797,0.0002,-0.0000,2.2712,flat,18.0,1,8.307
3910,125.12,4.3012,0.4727,0.1797,0.0002,-0.0000,2.3149,flat,18.0,1,7.765
3920,125.44,3.9119,0.8808,0.1797,0.0001,-0.0000,2.3539,flat,18.0,1,7.233
3930,125.76,3.5066,1.2747,0.1797,0.0001,-0.0000,2.3894,flat,18.0,1,6.713
3940,126.08,3.0875,1.6546,0.1797,0.0001,-0.0000,2.4228,flat,18.0,1,6.210
3950,126.40,2.6563,2.0210,0.1797,0.0001,-0.0000,2.4538,flat,18.0,1,5.728
3960,126.72,2.2139,2.3747,0.1797,0.0001,-0.0000,2.4839,flat,18.0,1,5.272
3970,127.04,1.7610,2.7154,0.1797,0.0001,-0.0000,2.5140,flat,18.0,1,4.851
3980,127.36,1.2979,3.0425,0.1797,0.0001,-0.0000,2.5449,flat,18.0,1,4.476
3990,127.68,0.8251,3.3550,0.1797,0.0001,0.0000,2.5779,flat,18.0,1,4.159
4000,128.00,0.3797,3.6354,0.1798,0.0002,0.0001,2.4739,flat,18.0,1,3.927
4010,128.32,0.0289,3.9486,0.1799,0.0001,-0.0000,2.2658,flat,18.0,1,3.696
4020,128.64,-0.2587,4.3648,0.1799,-0.0000,-0.0000,2.0052,flat,18.0,1,3.395
4030,128.96,-0.4516,4.8573,0.1799,-0.0000,-0.0000,1.7512,flat,18.0,1,3.033
4040,129.28,-0.5236,5.3895,0.1799,-0.0000,-0.0000,1.5173,flat,18.0,1,2.622
4050,129.60,-0.4742,5.9249,0.1799,-0.0001,-0.0000,1.3297,flat,18.0,1,2.177
4060,129.92,-0.3265,6.4412,0.1799,-0.0001,-0.0000,1.1722,flat,18.0,1,1.718
4070,130.24,-0.0980,6.9253,0.1799,-0.0001,-0.0000,1.0258,flat,18.0,1,1.261
4080,130.56,0.2018,7.3678,0.1799,-0.0002,0.0000,0.8869,flat,18.0,1,0.829
4090,130.88,0.3963,7.5786,0.1797,-0.0003,-0.0025,0.3996,flat,18.0,2,14.994
4100,131.20,0.7054,7.6810,0.1792,0.0001,-0.0046,-0.0847,flat,18.0,2,15.251
4110,131.52,1.0645,7.6231,0.1799,-0.0001,-0.0000,-0.5598,flat,18.0,2,15.409
4120,131.84,1.3627,7.3722,0.1799,0.0000,-0.0001,-0.8898,flat,18.0,2,15.383
4130,132.16,1.6166,6.9882,0.1799,-0.0000,-0.0000,-1.1799,flat,18.0,2,15.236
4140,132.48,1.7803,6.5131,0.1799,-0.0001,-0.0000,-1.4404,flat,18.0,2,14.973
4150,132.80,1.8252,5.9873,0.1799,-0.0001,0.0000,-1.6576,flat,18.0,2,14.605
4160,133.12,1.7588,5.4497,0.1799,-0.0001,-0.0000,-1.8192,flat,18.0,2,14.163
4170,133.44,1.6086,4.9220,0.1799,-0.0004,-0.0000,-1.9323,flat,18.0,2,13.677
4180,133.76,1.4002,4.4090,0.1798,-0.0004,-0.0000,-2.0167,flat,18.0,2,13.165
4190,134.08,1.1491,3.9111,0.1797,-0.0003,-0.0000,-2.0824,flat,18.0,2,12.636
4200,134.40,0.8656,3.4272,0.1797,-0.0002,-0.0000,-2.1353,flat,18.0,2,12.096
4210,134.72,0.5566,2.9568,0.1797,-0.0002,-0.0000,-2.1776,flat,18.0,2,11.549
4220,135.04,0.2278,2.4980,0.1797,-0.0001,-0.0000,-2.2125,flat,18.0,2,10.996
4230,135.36,-0.1171,2.0491,0.1797,-0.0001,-0.0000,-2.2427,flat,18.0,2,10.439
4240,135.68,-0.4755,1.6095,0.1797,-0.0001,-0.0000,-2.2691,flat,18.0,2,9.879
4250,136.00,-0.8455,1.1782,0.1797,-0.0001,-0.0000,-2.2926,flat,18.0,2,9.317
4260,136.32,-1.2258,0.7546,0.1797,-0.0001,-0.0000,-2.3143,flat,18.0,2,8.752
4270,136.64,-1.6153,0.3385,0.1797,-0.0001,-0.0000,-2.3340,flat,18.0,2,8.186
4280,136.96,-2.0130,-0.0706,0.1797,-0.0001,-0.0000,-2.3517,flat,18.0,2,7.619
4290,137.28,-2.4180,-0.4731,0.1797,-0.0001,-0.0000,-2.3680,flat,18.0,2,7.051
4300,137.60,-2.8295,-0.8694,0.1797,-0.0001,-0.0000,-2.3833,flat,18.0,2,6.482
4310,137.92,-3.2471,-1.2596,0.1797,-0.0001,-0.0000,-2.3977,flat,18.0,2,5.912
4320,138.24,-3.6704,-1.6440,0.1797,-0.0000,-0.0000,-2.4114,flat,18.0,2,5.342
4330,138.56,-4.0987,-2.0228,0.1797,-0.0000,-0.0000,-2.4244,flat,18.0,2,4.772
4340,138.88,-4.5319,-2.3961,0.1797,-0.0000,-0.0000,-2.4370,flat,18.0,2,4.201
4350,139.20,-4.9697,-2.7640,0.1797,-0.0000,0.0000,-2.4496,flat,18.0,2,3.630
4360,139.52,-5.4120,-3.1263,0.1797,-0.0000,0.0000,-2.4625,flat,18.0,2,3.059
4370,139.84,-5.8589,-3.4825,0.1797,-0.0000,0.0000,-2.4766,flat,18.0,2,2.489
4380,140.16,-6.3105,-3.8317,0.1797,-0.0001,0.0000,-2.4928,flat,18.0,2,1.918
4390,140.48,-6.7672,-4.1721,0.1797,-0.0001,0.0000,-2.5139,flat,18.0,2,1.349
4400,140.80,-7.2291,-4.4986,0.1797,-0.0001,0.0000,-2.5497,flat,18.0,3,0.784
4410,141.12,-7.6867,-4.7712,0.1811,-0.0002,0.0092,-2.6844,rough,14.0,0,13.034
4420,141.44,-7.9481,-4.8930,0.1797,-0.0006,-0.0005,-2.3399,rough,14.0,0,13.298
4430,141.76,-8.1525,-5.1472,0.1785,-0.0004,-0.0092,-1.9193,rough,14.0,0,13.512
4440,142.08,-8.2585,-5.4603,0.1798,-0.0003,-0.0003,-1.5333,flat,18.0,0,13.636
4450,142.40,-8.2191,-5.8575,0.1799,-0.0000,-0.0001,-1.1522,flat,18.0,0,13.630
4460,142.72,-7.9984,-6.2533,0.1799,-0.0000,-0.0000,-0.8817,flat,18.0,0,13.455
4470,143.04,-7.6469,-6.6083,0.1799,0.0000,-0.0000,-0.6768,flat,18.0,0,13.158
4480,143.36,-7.2116,-6.9126,0.1799,0.0000,-0.0000,-0.4949,flat,18.0,0,12.782
4490,143.68,-6.7184,-7.1503,0.1799,0.0001,-0.0000,-0.3399,flat,18.0,0,12.346
4500,144.00,-6.1893,-7.3189,0.1799,0.0003,-0.0000,-0.2132,flat,18.0,0,11.869
4510,144.32,-5.6395,-7.4249,0.1798,0.0004,-0.0000,-0.1105,flat,18.0,0,11.362
4520,144.64,-5.0789,-7.4770,0.1798,0.0004,-0.0000,-0.0269,flat,18.0,0,10.835
4530,144.96,-4.5136,-7.4841,0.1797,0.0003,-0.0000,0.0404,flat,18.0,0,10.294
4540,145.28,-3.9484,-7.4550,0.1797,0.0002,-0.0000,0.0911,flat,18.0,0,9.745
4550,145.60,-3.3842,-7.3982,0.1797,0.0001,-0.0000,0.1317,flat,18.0,0,9.191
4560,145.92,-2.8218,-7.3194,0.1797,0.0001,-0.0000,0.1646,flat,18.0,0,8.633
4570,146.24,-2.2613,-7.2224,0.1797,0.0001,-0.0000,0.1927,flat,18.0,0,8.072
4580,146.56,-1.7029,-7.1100,0.1797,0.0001,-0.0000,0.2169,flat,18.0,0,7.508
4590,146.88,-1.1466,-6.9843,0.1797,0.0001,-0.0000,0.2380,flat,18.0,0,6.943
4600,147.20,-0.5925,-6.8470,0.1797,0.0001,-0.0000,0.2568,flat,18.0,0,6.377
4610,147.52,-0.0405,-6.6995,0.1797,0.0001,-0.0000,0.2736,flat,18.0,0,5.809
4620,147.84,0.5093,-6.5428,0.1797,0.0001,-0.0000,0.2889,flat,18.0,0,5.241
4630,148.16,1.0569,-6.3777,0.1797,0.0001,-0.0000,0.3031,flat,18.0,0,4.673
4640,148.48,1.6023,-6.2048,0.1797,0.0000,-0.0000,0.3165,flat,18.0,0,4.104
4650,148.80,2.1455,-6.0247,0.1797,0.0000,-0.0000,0.3295,flat,18.0,0,3.535
4660,149.12,2.6862,-5.8376,0.1797,0.0000,0.0000,0.3424,flat,18.0,0,2.967
4670,149.44,3.2243,-5.6435,0.1797,0.0000,0.0000,0.3559,flat,18.0,0,2.399
4680,149.76,3.7591,-5.4421,0.1797,0.0001,0.0000,0.3710,flat,18.0,0,1.834
4690,150.08,4.2894,-5.2326,0.1797,0.0001,0.0000,0.3904,flat,18.0,0,1.273
4700,150.40,4.8084,-5.0162,0.1797,0.0000,0.0002,0.4396,flat,18.0,1,13.087
4710,150.72,5.1657,-4.8096,0.1799,-0.0002,0.0000,0.7482,flat,18.0,1,12.999
4720,151.04,5.4319,-4.5001,0.1799,0.0000,-0.0001,1.0267,flat,18.0,1,12.795
4730,151.36,5.6494,-4.0690,0.1799,0.0000,-0.0000,1.3094,flat,18.0,1,12.470
4740,151.68,5.7573,-3.5656,0.1799,0.0000,-0.0000,1.5611,flat,18.0,1,12.046
4750,152.00,5.7405,-3.0323,0.1799,0.0001,-0.0000,1.7589,flat,18.0,1,11.551
4760,152.32,5.6209,-2.5021,0.1799,0.0002,-0.0000,1.8995,flat,18.0,1,11.019
4770,152.64,5.4287,-1.9875,0.1798,0.0004,-0.0000,2.0025,flat,18.0,1,10.471
4780,152.96,5.1844,-1.4904,0.1798,0.0004,-0.0000,2.0824,flat,18.0,1,9.917
4790,153.28,4.9007,-1.0107,0.1797,0.0002,-0.0000,2.1469,flat,18.0,1,9.363
4800,153.60,4.5862,-0.5472,0.1797,0.0002,-0.0000,2.2004,flat,18.0,1,8.811
4810,153.92,4.2467,-0.0991,0.1797,0.0002,-0.0000,2.2452,flat,18.0,1,8.265
4820,154.24,3.8873,0.3348,0.1797,0.0001,-0.0000,2.2830,flat,18.0,1,7.727
4830,154.56,3.5114,0.7566,0.1797,0.0001,-0.0000,2.3182,flat,18.0,1,7.199
4840,154.88,3.1206,1.1661,0.1797,0.0001,-0.0000,2.3506,flat,18.0,1,6.683
4850,155.20,2.7165,1.5635,0.1797,0.0001,-0.0000,2.3807,flat,18.0,1,6.184
4860,155.52,2.3005,1.9488,0.1797,0.0001,-0.0000,2.4099,flat,18.0,1,5.707
4870,155.84,1.8736,2.3221,0.1797,0.0001,0.0000,2.4379,flat,18.0,1,5.258
4880,156.16,1.4369,2.6834,0.1797,0.0001,-0.0000,2.4657,flat,18.0,1,4.844
4890,156.48,0.9902,3.0324,0.1797,0.0001,0.0000,2.4949,flat,18.0,1,4.477
4900,156.80,0.5338,3.3677,0.1797,0.0001,0.0000,2.5272,flat,18.0,1,4.170
4910,157.12,0.1676,3.6841,0.1798,-0.0006,0.0005,2.2827,flat,18.0,1,3.919
4920,157.44,-0.1290,4.0976,0.1799,-0.0000,-0.0000,2.0355,flat,18.0,1,3.600
4930,157.76,-0.3379,4.5868,0.1799,-0.0001,-0.0000,1.7966,flat,18.0,1,3.222
4940,158.08,-0.4354,5.1178,0.1799,-0.0001,-0.0000,1.5770,flat,18.0,1,2.799
4950,158.40,-0.4184,5.6593,0.1799,-0.0001,0.0000,1.3927,flat,18.0,1,2.343
4960,158.72,-0.3046,6.1883,0.1799,-0.0001,-0.0000,1.2408,flat,18.0,1,1.870
4970,159.04,-0.1114,6.6921,0.1799,-0.0002,-0.0000,1.1026,flat,18.0,1,1.395
4980,159.36,0.1516,7.1601,0.1799,-0.0002,-0.0000,0.9667,flat,18.0,1,0.935
4990,159.68,0.3882,7.4909,0.1788,-0.0002,-0.0063,0.7099,flat,18.0,2,14.916
5000,160.00,0.5910,7.5811,0.1780,-0.0104,0.0001,0.0903,flat,18.0,2,15.104
5010,160.32,0.9377,7.5966,0.1798,0.0000,0.0001,-0.4092,flat,18.0,2,15.314
5020,160.64,1.2550,7.4096,0.1799,0.0000,-0.0001,-0.7800,flat,18.0,2,15.349
5030,160.96,1.5280,7.0675,0.1799,0.0000,-0.0000,-1.0777,flat,18.0,2,15.243
5040,161.28,1.7292,6.6212,0.1799,-0.0000,-0.0000,-1.3511,flat,18.0,2,15.023
5050,161.60,1.8178,6.1094,0.1799,-0.0001,0.0000,-1.5867,flat,18.0,2,14.692
5060,161.92,1.7882,5.5725,0.1799,-0.0001,-0.0000,-1.7692,flat,18.0,2,14.273
5070,162.24,1.6637,5.0405,0.1799,-0.0003,-0.0000,-1.8976,flat,18.0,2,13.801
5080,162.56,1.4731,4.5225,0.1798,-0.0004,-0.0000,-1.9910,flat,18.0,2,13.297
5090,162.88,1.2348,4.0199,0.1798,-0.0003,-0.0000,-2.0629,flat,18.0,2,12.773
5100,163.20,0.9609,3.5318,0.1797,-0.0002,-0.0000,-2.1201,flat,18.0,2,12.237
5110,163.52,0.6592,3.0574,0.1797,-0.0002,-0.0000,-2.1664,flat,18.0,2,11.692
5120,163.84,0.3356,2.5957,0.1797,-0.0001,-0.0000,-2.2034,flat,18.0,2,11.141
5130,164.16,-0.0051,2.1444,0.1797,-0.0001,-0.0000,-2.2353,flat,18.0,2,10.586
5140,164.48,-0.3602,1.7027,0.1797,-0.0001,-0.0000,-2.2630,flat,18.0,2,10.027
5150,164.80,-0.7276,1.2697,0.1797,-0.0001,-0.0000,-2.2876,flat,18.0,2,9.466
5160,165.12,-1.1057,0.8446,0.1797,-0.0001,-0.0000,-2.3102,flat,18.0,2,8.902
5170,165.44,-1.4934,0.4272,0.1797,-0.0001,-0.0000,-2.3307,flat,18.0,2,8.337
5180,165.76,-1.8898,0.0171,0.1797,-0.0001,-0.0000,-2.3492,flat,18.0,2,7.770
5190,166.08,-2.2937,-0.3862,0.1797,-0.0001,-0.0000,-2.3660,flat,18.0,2,7.202
5200,166.40,-2.7045,-0.7831,0.1797,-0.0001,-0.0000,-2.3818,flat,18.0,2,6.633
5210,166.72,-3.1215,-1.1738,0.1797,-0.0001,-0.0000,-2.3967,flat,18.0,2,6.064
5220,167.04,-3.5443,-1.5584,0.1797,-0.0000,-0.0000,-2.4107,flat,18.0,2,5.494
5230,167.36,-3.9724,-1.9374,0.1797,-0.0000,-0.0000,-2.4240,flat,18.0,2,4.924
5240,167.68,-4.4054,-2.3109,0.1797,-0.0000,-0.0000,-2.4369,flat,18.0,2,4.353
5250,168.00,-4.8431,-2.6788,0.1797,-0.0000,-0.0000,-2.4496,flat,18.0,2,3.782
5260,168.32,-5.2855,-3.0410,0.1797,-0.0000,0.0000,-2.4626,flat,18.0,2,3.212
5270,168.64,-5.7324,-3.3972,0.1797,-0.0000,0.0000,-2.4765,flat,18.0,2,2.641
5280,168.96,-6.1841,-3.7467,0.1797,-0.0001,0.0000,-2.4922,flat,18.0,2,2.071
5290,169.28,-6.6407,-4.0878,0.1797,-0.0001,0.0000,-2.5118,flat,18.0,2,1.501
5300,169.60,-7.1027,-4.4169,0.1797,-0.0001,0.0000,-2.5419,flat,18.0,2,0.935
5310,169.92,-7.5676,-4.7081,0.1798,-0.0001,0.0000,-2.6471,flat,18.0,3,0.871
5320,170.24,-7.8668,-4.8384,0.1806,-0.0002,-0.0108,-2.5066,flat,18.0,0,13.215
5330,170.56,-8.1006,-5.0501,0.1784,0.0088,0.0002,-2.0426,rough,14.0,0,13.456
5340,170.88,-8.2403,-5.3648,0.1799,-0.0001,-0.0000,-1.6271,flat,18.0,0,13.611
5350,171.20,-8.2400,-5.7566,0.1799,-0.0001,-0.0000,-1.2156,flat,18.0,0,13.641
5360,171.52,-8.0513,-6.1576,0.1799,-0.0001,-0.0001,-0.9287,flat,18.0,0,13.496
5370,171.84,-7.7213,-6.5220,0.1799,0.0000,-0.0000,-0.7158,flat,18.0,0,13.218
5380,172.16,-7.3006,-6.8380,0.1799,0.0000,-0.0000,-0.5299,flat,18.0,0,12.856
5390,172.48,-6.8171,-7.0901,0.1799,0.0001,-0.0000,-0.3694,flat,18.0,0,12.430
5400,172.80,-6.2938,-7.2726,0.1799,0.0002,-0.0000,-0.2375,flat,18.0,0,11.960
5410,173.12,-5.7648,-7.3645,0.1799,0.0001,0.0000,-0.0193,flat,18.0,0,11.468
5420,173.44,-5.2204,-7.3547,0.1799,0.0001,-0.0000,0.1564,flat,18.0,0,10.939
5430,173.76,-4.6829,-7.2535,0.1799,0.0002,-0.0000,0.2885,flat,18.0,0,10.393
5440,174.08,-4.1610,-7.0829,0.1798,0.0004,-0.0000,0.3959,flat,18.0,0,9.845
5450,174.40,-3.6590,-6.8569,0.1798,0.0004,-0.0000,0.4893,flat,18.0,0,9.302
5460,174.72,-3.1781,-6.5836,0.1798,0.0004,-0.0000,0.5693,flat,18.0,0,8.769
5470,175.04,-2.7200,-6.2792,0.1798,0.0002,-0.0001,0.5870,flat,18.0,0,8.254
5480,175.36,-2.2460,-5.9834,0.1798,-0.0002,-0.0000,0.5065,flat,18.0,0,7.730
5490,175.68,-1.7481,-5.7216,0.1798,-0.0003,-0.0000,0.4354,flat,18.0,0,7.194
5500,176.00,-1.2318,-5.4926,0.1797,-0.0002,-0.0000,0.3726,flat,18.0,0,6.648
5510,176.32,-0.7011,-5.2945,0.1797,-0.0002,-0.0000,0.3169,flat,18.0,0,6.095
5520,176.64,-0.1594,-5.1248,0.1797,-0.0002,-0.0000,0.2673,flat,18.0,0,5.537
5530,176.96,0.3901,-4.9810,0.1797,-0.0002,-0.0000,0.2238,flat,18.0,0,4.976
5540,177.28,0.9450,-4.8601,0.1797,-0.0001,-0.0000,0.1854,flat,18.0,0,4.413
5550,177.60,1.5046,-4.7599,0.1797,-0.0001,-0.0000,0.1492,flat,18.0,0,3.848
5560,177.92,2.0677,-4.6796,0.1797,-0.0001,-0.0000,0.1143,flat,18.0,0,3.281
5570,178.24,2.6333,-4.6187,0.1797,-0.0001,-0.0000,0.0797,flat,18.0,0,2.713
5580,178.56,3.2005,-4.5774,0.1797,-0.0001,0.0000,0.0436,flat,18.0,0,2.145
5590,178.88,3.7678,-4.5568,0.1797,-0.0001,0.0000,0.0030,flat,18.0,0,1.577
5600,179.20,4.3330,-4.5600,0.1797,-0.0002,0.0000,-0.0499,flat,18.0,0,1.013
5610,179.52,4.8742,-4.5768,0.1798,-0.0005,0.0001,0.0623,flat,18.0,1,12.687
5620,179.84,5.3250,-4.5314,0.1798,-0.0002,0.0001,0.4102,flat,18.0,1,12.788
5630,180.16,5.6456,-4.3437,0.1799,-0.0001,-0.0001,0.7839,flat,18.0,1,12.725
5640,180.48,5.9128,-4.0046,0.1799,-0.0000,-0.0000,1.0943,flat,18.0,1,12.511
5650,180.80,6.1044,-3.5596,0.1799,0.0000,-0.0000,1.3835,flat,18.0,1,12.182
5660,181.12,6.1752,-3.0502,0.1799,0.0000,-0.0000,1.6372,flat,18.0,1,11.752
5670,181.44,6.1186,-2.5205,0.1799,0.0001,-0.0000,1.8262,flat,18.0,1,11.252
5680,181.76,5.9632,-2.0007,0.1799,0.0002,-0.0000,1.9618,flat,18.0,1,10.719
5690,182.08,5.7388,-1.5000,0.1798,0.0004,-0.0000,2.0622,flat,18.0,1,10.171
5700,182.40,5.4646,-1.0191,0.1798,0.0003,-0.0000,2.1402,flat,18.0,1,9.618
5710,182.72,5.1531,-0.5565,0.1797,0.0002,-0.0000,2.2022,flat,18.0,1,9.064
5720,183.04,4.8130,-0.1116,0.1797,0.0002,-0.0000,2.2551,flat,18.0,1,8.514
5730,183.36,4.4492,0.3166,0.1797,0.0002,-0.0000,2.3009,flat,18.0,1,7.969
5740,183.68,4.0657,0.7296,0.1797,0.0001,-0.0000,2.3414,flat,18.0,1,7.433
5750,184.00,3.6655,1.1283,0.1797,0.0001,-0.0000,2.3776,flat,18.0,1,6.909
5760,184.32,3.2509,1.5129,0.1797,0.0001,-0.0000,2.4118,flat,18.0,1,6.399
5770,184.64,2.8236,1.8839,0.1797,0.0001,-0.0000,2.4434,flat,18.0,1,5.908
5780,184.96,2.3850,2.2419,0.1797,0.0001,-0.0000,2.4735,flat,18.0,1,5.442
5790,185.28,1.9356,2.5873,0.1797,0.0001,-0.0000,2.5033,flat,18.0,1,5.007
5800,185.60,1.4761,2.9193,0.1797,0.0001,-0.0000,2.5337,flat,18.0,1,4.613
5810,185.92,1.0124,3.2205,0.1797,0.0001,-0.0001,2.5720,flat,18.0,1,4.289
5820,186.24,0.5339,3.5170,0.1797,0.0001,0.0002,2.5837,flat,18.0,1,4.022
5830,186.56,0.1598,3.8080,0.1799,-0.0001,-0.0000,2.3220,flat,18.0,1,3.800
5840,186.88,-0.1453,4.2060,0.1799,-0.0000,-0.0000,2.0659,flat,18.0,1,3.503
5850,187.20,-0.3646,4.6853,0.1799,-0.0001,-0.0000,1.8152,flat,18.0,1,3.145
5860,187.52,-0.4698,5.2121,0.1799,-0.0001,-0.0000,1.5815,flat,18.0,1,2.738
5870,187.84,-0.4539,5.7511,0.1799,-0.0001,0.0000,1.3852,flat,18.0,1,2.294
5880,188.16,-0.3355,6.2764,0.1799,-0.0001,0.0000,1.2246,flat,18.0,1,1.832
5890,188.48,-0.1337,6.7741,0.1799,-0.0001,-0.0000,1.0790,flat,18.0,1,1.367
5900,188.80,0.1411,7.2329,0.1799,-0.0001,-0.0000,0.9381,flat,18.0,1,0.920
5910,189.12,0.3639,7.5245,0.1791,-0.0003,-0.0043,0.5991,flat,18.0,2,14.931
5920,189.44,0.5924,7.6078,0.1784,-0.0084,0.0001,0.0320,flat,18.0,2,15.127
5930,189.76,0.9456,7.5990,0.1799,0.0003,0.0000,-0.4685,flat,18.0,2,15.321
5940,190.08,1.2557,7.3882,0.1799,0.0001,-0.0001,-0.8186,flat,18.0,2,15.332
5950,190.40,1.5232,7.0310,0.1799,0.0000,-0.0000,-1.1132,flat,18.0,2,15.211
5960,190.72,1.7123,6.5741,0.1799,-0.0000,-0.0000,-1.3824,flat,18.0,2,14.976
5970,191.04,1.7865,6.0566,0.1799,-0.0000,-0.0001,-1.6142,flat,18.0,2,14.631
5980,191.36,1.7437,5.5193,0.1799,-0.0001,-0.0000,-1.7865,flat,18.0,2,14.204
5990,191.68,1.6104,4.9885,0.1799,-0.0003,-0.0000,-1.9091,flat,18.0,2,13.726
6000,192.00,1.4138,4.4721,0.1798,-0.0004,-0.0000,-1.9992,flat,18.0,2,13.219
6010,192.32,1.1715,3.9708,0.1798,-0.0003,-0.0000,-2.0688,flat,18.0,2,12.694
6020,192.64,0.8946,3.4839,0.1797,-0.0002,-0.0000,-2.1245,flat,18.0,2,12.156
6030,192.96,0.5908,3.0106,0.1797,-0.0002,-0.0000,-2.1694,flat,18.0,2,11.610
6040,193.28,0.2658,2.5496,0.1797,-0.0001,-0.0000,-2.2056,flat,18.0,2,11.059
6050,193.60,-0.0759,2.0988,0.1797,-0.0001,-0.0000,-2.2369,flat,18.0,2,10.503
6060,193.92,-0.4317,1.6574,0.1797,-0.0001,-0.0000,-2.2642,flat,18.0,2,9.944
6070,194.24,-0.7996,1.2246,0.1797,-0.0001,-0.0000,-2.2884,flat,18.0,2,9.382
6080,194.56,-1.1780,0.7997,0.1797,-0.0001,-0.0000,-2.3106,flat,18.0,2,8.818
6090,194.88,-1.5659,0.3824,0.1797,-0.0001,-0.0000,-2.3308,flat,18.0,2,8.252
6100,195.20,-1.9623,-0.0278,0.1797,-0.0001,-0.0000,-2.3491,flat,18.0,2,7.685
6110,195.52,-2.3662,-0.4312,0.1797,-0.0001,-0.0000,-2.3657,flat,18.0,2,7.117
6120,195.84,-2.7768,-0.8283,0.1797,-0.0001,-0.0000,-2.3813,flat,18.0,2,6.549
6130,196.16,-3.1937,-1.2192,0.1797,-0.0001,-0.0000,-2.3961,flat,18.0,2,5.979
6140,196.48,-3.6163,-1.6042,0.1797,-0.0000,-0.0000,-2.4100,flat,18.0,2,5.409
6150,196.80,-4.0441,-1.9835,0.1797,-0.0000,-0.0000,-2.4233,flat,18.0,2,4.839
6160,197.12,-4.4768,-2.3573,0.1797,-0.0000,-0.0000,-2.4361,flat,18.0,2,4.268
6170,197.44,-4.9143,-2.7255,0.1797,-0.0000,0.0000,-2.4488,flat,18.0,2,3.697
6180,197.76,-5.3563,-3.0881,0.1797,-0.0000,0.0000,-2.4619,flat,18.0,2,3.127
6190,198.08,-5.8029,-3.4446,0.1797,-0.0000,0.0000,-2.4759,flat,18.0,2,2.556
6200,198.40,-6.2544,-3.7941,0.1797,-0.0001,0.0000,-2.4920,flat,18.0,2,1.986
6210,198.72,-6.7109,-4.1350,0.1797,-0.0001,0.0000,-2.5125,flat,18.0,2,1.417
6220,199.04,-7.1727,-4.4628,0.1797,-0.0001,0.0000,-2.5457,flat,18.0,2,0.851
6230,199.36,-7.6377,-4.7463,0.1798,-0.0002,0.0000,-2.6746,flat,18.0,0,0.795
6240,199.68,-7.8981,-4.8741,0.1795,-0.0002,-0.0022,-2.4322,flat,18.0,0,13.247
6250,200.00,-8.1160,-5.1076,0.1798,-0.0002,-0.0000,-2.0146,transition,15.0,0,13.473
6260,200.32,-8.2546,-5.4468,0.1799,-0.0001,-0.0000,-1.5600,flat,18.0,0,13.631
6270,200.64,-8.2256,-5.8426,0.1799,0.0002,-0.0000,-1.1740,flat,18.0,0,13.635
6280,200.96,-8.0147,-6.2404,0.1799,0.0001,-0.0000,-0.8972,flat,18.0,0,13.470
6290,201.28,-7.6696,-6.5982,0.1799,0.0001,-0.0000,-0.6888,flat,18.0,0,13.179
6300,201.60,-7.2386,-6.9059,0.1799,0.0001,-0.0000,-0.5053,flat,18.0,0,12.807
6310,201.92,-6.7481,-7.1478,0.1799,0.0001,-0.0000,-0.3479,flat,18.0,0,12.375
6320,202.24,-6.2206,-7.3202,0.1799,0.0003,-0.0000,-0.2195,flat,18.0,0,11.899
6330,202.56,-5.6717,-7.4293,0.1798,0.0004,-0.0000,-0.1154,flat,18.0,0,11.394
6340,202.88,-5.1115,-7.4841,0.1798,0.0004,-0.0000,-0.0307,flat,18.0,0,10.868
6350,203.20,-4.5464,-7.4932,0.1798,0.0003,-0.0000,0.0376,flat,18.0,0,10.328
6360,203.52,-3.9812,-7.4656,0.1797,0.0002,-0.0000,0.0891,flat,18.0,0,9.780
6370,203.84,-3.4168,-7.4098,0.1797,0.0001,-0.0000,0.1303,flat,18.0,0,9.226
6380,204.16,-2.8545,-7.3317,0.1797,0.0001,-0.0000,0.1636,flat,18.0,0,8.668
6390,204.48,-2.2939,-7.2353,0.1797,0.0001,-0.0000,0.1919,flat,18.0,0,8.107
6400,204.80,-1.7355,-7.1233,0.1797,0.0001,-0.0000,0.2163,flat,18.0,0,7.543
6410,205.12,-1.1791,-6.9980,0.1797,0.0001,-0.0000,0.2376,flat,18.0,0,6.978
6420,205.44,-0.6250,-6.8609,0.1797,0.0001,-0.0000,0.2565,flat,18.0,0,6.412
6430,205.76,-0.0730,-6.7135,0.1797,0.0001,-0.0000,0.2734,flat,18.0,0,5.845
6440,206.08,0.4768,-6.5568,0.1797,0.0001,-0.0000,0.2889,flat,18.0,0,5.277
6450,206.40,1.0244,-6.3918,0.1797,0.0001,-0.0000,0.3031,flat,18.0,0,4.708
6460,206.72,1.5698,-6.2190,0.1797,0.0000,-0.0000,0.3166,flat,18.0,0,4.139
6470,207.04,2.1129,-6.0389,0.1797,0.0000,-0.0000,0.3295,flat,18.0,0,3.571
6480,207.36,2.6537,-5.8517,0.1797,0.0000,0.0000,0.3425,flat,18.0,0,3.002
6490,207.68,3.1918,-5.6576,0.1797,0.0000,0.0000,0.3559,flat,18.0,0,2.435
6500,208.00,3.7267,-5.4562,0.1797,0.0001,0.0000,0.3709,flat,18.0,0,1.869
6510,208.32,4.2571,-5.2468,0.1797,0.0001,0.0000,0.3898,flat,18.0,0,1.308
6520,208.64,4.7793,-5.0275,0.1797,0.0001,0.0000,0.4216,flat,18.0,1,0.760
6530,208.96,5.1542,-4.8259,0.1799,-0.0002,0.0000,0.7184,flat,18.0,1,13.010
6540,209.28,5.4245,-4.5270,0.1799,-0.0001,-0.0001,1.0028,flat,18.0,1,12.818
6550,209.60,5.6491,-4.1053,0.1799,0.0000,-0.0000,1.2853,flat,18.0,1,12.504
6560,209.92,5.7677,-3.6068,0.1799,0.0001,-0.0000,1.5396,flat,18.0,1,12.088
6570,210.24,5.7615,-3.0744,0.1799,0.0001,-0.0000,1.7431,flat,18.0,1,11.598
6580,210.56,5.6498,-2.5432,0.1799,0.0002,-0.0000,1.8892,flat,18.0,1,11.068
6590,210.88,5.4628,-2.0273,0.1798,0.0004,-0.0000,1.9951,flat,18.0,1,10.522
6600,211.20,5.2222,-1.5289,0.1798,0.0004,-0.0000,2.0768,flat,18.0,1,9.968
6610,211.52,4.9412,-1.0480,0.1797,0.0002,-0.0000,2.1426,flat,18.0,1,9.414
6620,211.84,4.6287,-0.5834,0.1797,0.0002,-0.0000,2.1971,flat,18.0,1,8.862
6630,212.16,4.2908,-0.1344,0.1797,0.0002,-0.0000,2.2427,flat,18.0,1,8.315
6640,212.48,3.9324,0.3003,0.1797,0.0001,-0.0000,2.2810,flat,18.0,1,7.776
6650,212.80,3.5574,0.7226,0.1797,0.0001,-0.0000,2.3165,flat,18.0,1,7.246
6660,213.12,3.1673,1.1327,0.1797,0.0001,-0.0000,2.3492,flat,18.0,1,6.729
6670,213.44,2.7638,1.5306,0.1797,0.0001,-0.0000,2.3795,flat,18.0,1,6.229
6680,213.76,2.3482,1.9164,0.1797,0.0001,-0.0000,2.4088,flat,18.0,1,5.749
6690,214.08,1.9218,2.2901,0.1797,0.0001,-0.0000,2.4369,flat,18.0,1,5.297
6700,214.40,1.4854,2.6519,0.1797,0.0001,-0.0000,2.4646,flat,18.0,1,4.880
6710,214.72,1.0391,3.0015,0.1797,0.0001,0.0000,2.4937,flat,18.0,1,4.508
6720,215.04,0.5831,3.3374,0.1797,0.0001,0.0000,2.5256,flat,18.0,1,4.195
6730,215.36,0.2029,3.6499,0.1798,-0.0017,0.0020,2.3085,flat,18.0,1,3.945
6740,215.68,-0.1006,4.0533,0.1799,0.0000,-0.0000,2.0613,flat,18.0,1,3.633
6750,216.00,-0.3202,4.5361,0.1799,-0.0000,-0.0000,1.8207,flat,18.0,1,3.261
6760,216.32,-0.4299,5.0642,0.1799,-0.0001,-0.0000,1.5990,flat,18.0,1,2.842
6770,216.64,-0.4242,5.6059,0.1799,-0.0001,-0.0000,1.4098,flat,18.0,1,2.389
6780,216.96,-0.3195,6.1368,0.1799,-0.0001,-0.0000,1.2555,flat,18.0,1,1.917
6790,217.28,-0.1338,6.6437,0.1799,-0.0002,-0.0000,1.1164,flat,18.0,1,1.442
6800,217.60,0.1223,7.1155,0.1799,-0.0002,-0.0000,0.9797,flat,18.0,1,0.979
6810,217.92,0.3751,7.4751,0.1785,-0.0002,-0.0082,0.7821,flat,18.0,2,14.896
6820,218.24,0.5627,7.5725,0.1776,-0.0131,0.0001,0.1329,flat,18.0,2,15.081
6830,218.56,0.9027,7.6051,0.1799,0.0003,0.0000,-0.3662,flat,18.0,2,15.301
6840,218.88,1.2258,7.4368,0.1799,0.0001,-0.0000,-0.7499,flat,18.0,2,15.353
6850,219.20,1.5031,7.1072,0.1799,0.0000,-0.0000,-1.0490,flat,18.0,2,15.259
6860,219.52,1.7138,6.6697,0.1799,-0.0000,-0.0000,-1.3257,flat,18.0,2,15.050
6870,219.84,1.8150,6.1625,0.1799,0.0000,-0.0001,-1.5686,flat,18.0,2,14.730
6880,220.16,1.7960,5.6265,0.1799,-0.0001,-0.0000,-1.7539,flat,18.0,2,14.318
6890,220.48,1.6795,5.0934,0.1799,-0.0002,-0.0000,-1.8867,flat,18.0,2,13.850
6900,220.80,1.4945,4.5739,0.1798,-0.0004,-0.0000,-1.9828,flat,18.0,2,13.348
6910,221.12,1.2604,4.0697,0.1798,-0.0003,-0.0000,-2.0564,flat,18.0,2,12.827
6920,221.44,0.9896,3.5803,0.1797,-0.0002,-0.0000,-2.1149,flat,18.0,2,12.292
6930,221.76,0.6904,3.1045,0.1797,-0.0002,-0.0000,-2.1624,flat,18.0,2,11.747
6940,222.08,0.3688,2.6416,0.1797,-0.0001,-0.0000,-2.2000,flat,18.0,2,11.197
6950,222.40,0.0296,2.1893,0.1797,-0.0001,-0.0000,-2.2323,flat,18.0,2,10.642
6960,222.72,-0.3241,1.7467,0.1797,-0.0001,-0.0000,-2.2604,flat,18.0,2,10.083
6970,223.04,-0.6904,1.3128,0.1797,-0.0001,-0.0000,-2.2853,flat,18.0,2,9.522
6980,223.36,-1.0675,0.8870,0.1797,-0.0001,-0.0000,-2.3080,flat,18.0,2,8.959
6990,223.68,-1.4543,0.4688,0.1797,-0.0001,-0.0000,-2.3287,flat,18.0,2,8.394
7000,224.00,-1.8498,0.0580,0.1797,-0.0001,-0.0000,-2.3474,flat,18.0,2,7.827
7010,224.32,-2.2530,-0.3460,0.1797,-0.0001,-0.0000,-2.3644,flat,18.0,2,7.259
7020,224.64,-2.6631,-0.7435,0.1797,-0.0001,-0.0000,-2.3802,flat,18.0,2,6.690
7030,224.96,-3.0795,-1.1348,0.1797,-0.0001,-0.0000,-2.3952,flat,18.0,2,6.121
7040,225.28,-3.5018,-1.5201,0.1797,-0.0001,-0.0000,-2.4094,flat,18.0,2,5.551
7050,225.60,-3.9293,-1.8996,0.1797,-0.0000,-0.0000,-2.4227,flat,18.0,2,4.981
7060,225.92,-4.3618,-2.2736,0.1797,-0.0000,-0.0000,-2.4356,flat,18.0,2,4.410
7070,226.24,-4.7991,-2.6421,0.1797,-0.0000,-0.0000,-2.4483,flat,18.0,2,3.840
7080,226.56,-5.2409,-3.0049,0.1797,-0.0000,0.0000,-2.4612,flat,18.0,2,3.269
7090,226.88,-5.6874,-3.3618,0.1797,-0.0000,0.0000,-2.4750,flat,18.0,2,2.698
7100,227.20,-6.1386,-3.7120,0.1797,-0.0001,0.0000,-2.4904,flat,18.0,2,2.128
7110,227.52,-6.5947,-4.0541,0.1797,-0.0001,0.0000,-2.5095,flat,18.0,2,1.558
7120,227.84,-7.0562,-4.3847,0.1797,-0.0001,0.0000,-2.5379,flat,18.0,2,0.991
7130,228.16,-7.5205,-4.6811,0.1798,-0.0000,0.0000,-2.6315,flat,18.0,3,0.923
7140,228.48,-7.8683,-4.8616,0.1799,0.0002,0.0001,-2.4915,flat,18.0,0,13.217
7150,228.80,-8.1226,-5.1481,0.1798,-0.0003,-0.0000,-1.9837,transition,15.0,0,13.482
7160,229.12,-8.2537,-5.4970,0.1799,-0.0000,-0.0000,-1.5247,flat,18.0,0,13.633
7170,229.44,-8.2097,-5.8949,0.1799,0.0001,-0.0000,-1.1499,flat,18.0,0,13.624
7180,229.76,-7.9869,-6.2902,0.1799,0.0001,-0.0000,-0.8792,flat,18.0,0,13.449
7190,230.08,-7.6339,-6.6442,0.1799,0.0001,-0.0000,-0.6737,flat,18.0,0,13.151
7200,230.40,-7.1974,-6.9472,0.1799,0.0001,-0.0000,-0.4914,flat,18.0,0,12.775
7210,230.72,-6.7152,-7.1626,0.1799,0.0001,-0.0000,-0.2716,flat,18.0,0,12.346
7220,231.04,-6.1852,-7.2864,0.1799,0.0001,-0.0000,-0.0785,flat,18.0,0,11.857
7230,231.36,-5.6358,-7.3112,0.1799,0.0001,-0.0000,0.0808,flat,18.0,0,11.330
7240,231.68,-5.0865,-7.2526,0.1799,0.0003,-0.0000,0.2006,flat,18.0,0,10.783
7250,232.00,-4.5458,-7.1301,0.1798,0.0004,-0.0000,0.2961,flat,18.0,0,10.229
7260,232.32,-4.0176,-6.9569,0.1798,0.0004,-0.0000,0.3770,flat,18.0,0,9.674
7270,232.64,-3.5041,-6.7415,0.1798,0.0003,-0.0000,0.4489,flat,18.0,0,9.123
7280,232.96,-3.0072,-6.4894,0.1797,0.0002,-0.0000,0.5163,flat,18.0,0,8.581
7290,233.28,-2.5322,-6.2069,0.1797,0.0002,0.0002,0.5559,flat,18.0,0,8.055
7300,233.60,-2.0497,-5.9236,0.1798,-0.0002,-0.0000,0.4864,flat,18.0,0,7.526
7310,233.92,-1.5463,-5.6707,0.1797,-0.0002,-0.0000,0.4184,flat,18.0,0,6.986
7320,234.24,-1.0259,-5.4497,0.1797,-0.0002,-0.0000,0.3582,flat,18.0,0,6.438
7330,234.56,-0.4921,-5.2589,0.1797,-0.0002,-0.0000,0.3047,flat,18.0,0,5.883
7340,234.88,0.0518,-5.0954,0.1797,-0.0002,-0.0000,0.2568,flat,18.0,0,5.324
7350,235.20,0.6024,-4.9570,0.1797,-0.0001,-0.0000,0.2156,flat,18.0,0,4.762
7360,235.52,1.1584,-4.8404,0.1797,-0.0001,-0.0000,0.1779,flat,18.0,0,4.198
7370,235.84,1.7188,-4.7443,0.1797,-0.0001,-0.0000,0.1420,flat,18.0,0,3.633
7380,236.16,2.2825,-4.6680,0.1797,-0.0001,-0.0000,0.1072,flat,18.0,0,3.066
7390,236.48,2.8484,-4.6112,0.1797,-0.0001,-0.0000,0.0720,flat,18.0,0,2.498
7400,236.80,3.4155,-4.5744,0.1797,-0.0001,0.0000,0.0344,flat,18.0,0,1.930
7410,237.12,3.9823,-4.5593,0.1797,-0.0002,0.0000,-0.0100,flat,18.0,0,1.363
7420,237.44,4.5458,-4.5702,0.1797,-0.0002,0.0000,-0.0751,flat,18.0,0,0.800
7430,237.76,5.0649,-4.5809,0.1798,-0.0004,0.0001,0.1572,flat,18.0,1,12.750
7440,238.08,5.4676,-4.4948,0.1799,-0.0002,0.0001,0.5433,flat,18.0,1,12.802
7450,238.40,5.7632,-4.2531,0.1799,-0.0001,-0.0001,0.8877,flat,18.0,1,12.684
7460,238.72,6.0122,-3.8753,0.1799,-0.0000,-0.0000,1.1935,flat,18.0,1,12.432
7470,239.04,6.1668,-3.4040,0.1799,0.0001,-0.0000,1.4724,flat,18.0,1,12.067
7480,239.36,6.1933,-2.8833,0.1799,0.0001,0.0000,1.7050,flat,18.0,1,11.610
7490,239.68,6.1004,-2.3548,0.1799,0.0001,-0.0000,1.8767,flat,18.0,1,11.096
7500,240.00,5.9192,-1.8411,0.1799,0.0003,-0.0000,1.9986,flat,18.0,1,10.557
7510,240.32,5.6763,-1.3472,0.1798,0.0004,-0.0000,2.0907,flat,18.0,1,10.007
7520,240.64,5.3883,-0.8727,0.1798,0.0003,-0.0000,2.1627,flat,18.0,1,9.453
7530,240.96,5.0663,-0.4161,0.1797,0.0002,-0.0000,2.2210,flat,18.0,1,8.900
7540,241.28,4.7177,0.0230,0.1797,0.0002,-0.0000,2.2716,flat,18.0,1,8.351
7550,241.60,4.3468,0.4458,0.1797,0.0002,-0.0000,2.3153,flat,18.0,1,7.809
7560,241.92,3.9573,0.8538,0.1797,0.0001,-0.0000,2.3543,flat,18.0,1,7.276
7570,242.24,3.5519,1.2476,0.1797,0.0001,-0.0000,2.3897,flat,18.0,1,6.755
7580,242.56,3.1326,1.6273,0.1797,0.0001,-0.0000,2.4230,flat,18.0,1,6.251
7590,242.88,2.7013,1.9937,0.1797,0.0001,-0.0000,2.4539,flat,18.0,1,5.767
7600,243.20,2.2589,2.3474,0.1797,0.0001,-0.0000,2.4838,flat,18.0,1,5.309
7610,243.52,1.8066,2.6738,0.1797,0.0002,-0.0000,2.5462,flat,18.0,1,4.900
7620,243.84,1.3340,2.9793,0.1797,0.0002,-0.0000,2.6045,flat,18.0,1,4.541
7630,244.16,0.8441,3.2583,0.1797,0.0002,-0.0000,2.6664,flat,18.0,1,4.255
7640,244.48,0.3898,3.4985,0.1799,0.0003,0.0000,2.5211,flat,18.0,1,4.060
7650,244.80,0.0241,3.8230,0.1799,-0.0000,-0.0000,2.2763,flat,18.0,1,3.819
7660,245.12,-0.2791,4.2460,0.1799,-0.0000,-0.0000,2.0460,flat,18.0,1,3.512
7670,245.44,-0.4965,4.7359,0.1799,-0.0000,-0.0000,1.8275,flat,18.0,1,3.161
7680,245.76,-0.6121,5.2657,0.1799,-0.0001,-0.0000,1.6226,flat,18.0,1,2.774
7690,246.08,-0.6201,5.8095,0.1799,-0.0001,-0.0000,1.4382,flat,18.0,1,2.362
7700,246.40,-0.5332,6.3402,0.1799,-0.0001,-0.0001,1.2652,flat,18.0,1,1.943
7710,246.72,-0.3508,6.8342,0.1799,-0.0001,-0.0000,1.0810,flat,18.0,1,1.527
7720,247.04,-0.0776,7.2821,0.1799,-0.0001,-0.0000,0.9089,flat,18.0,1,1.120
7730,247.36,0.2643,7.6624,0.1814,-0.0002,0.0110,0.7305,flat,18.0,2,14.991
7740,247.68,0.4884,7.7983,0.1799,-0.0029,0.0038,0.2377,flat,18.0,2,15.228
7750,248.00,0.8162,7.8583,0.1794,0.0005,-0.0026,-0.2156,flat,18.0,2,15.460
7760,248.32,1.1614,7.7499,0.1799,-0.0001,-0.0000,-0.6451,flat,18.0,2,15.569
7770,248.64,1.4516,7.4623,0.1799,0.0000,-0.0001,-0.9572,flat,18.0,2,15.509
7780,248.96,1.6898,7.0538,0.1799,-0.0000,-0.0000,-1.2406,flat,18.0,2,15.333
7790,249.28,1.8289,6.5634,0.1799,-0.0001,-0.0000,-1.4913,flat,18.0,2,15.043
7800,249.60,1.8483,6.0313,0.1799,-0.0001,0.0000,-1.6956,flat,18.0,2,14.654
7810,249.92,1.7619,5.5267,0.1799,0.0000,-0.0000,-1.9425,flat,18.0,2,14.222
7820,250.24,1.5445,5.0581,0.1799,-0.0000,-0.0000,-2.1475,flat,18.0,2,13.731
7830,250.56,1.2293,4.6341,0.1799,-0.0001,-0.0000,-2.3035,flat,18.0,2,13.207
7840,250.88,0.8478,4.2562,0.1799,-0.0002,-0.0000,-2.4345,flat,18.0,2,12.670
7850,251.20,0.4171,3.9247,0.1799,-0.0002,-0.0000,-2.5684,flat,18.0,2,12.133
7860,251.52,-0.0560,3.6477,0.1799,-0.0001,-0.0000,-2.7083,flat,18.0,2,11.608
7870,251.84,-0.5594,3.4363,0.1798,-0.0002,-0.0000,-2.7242,flat,18.0,2,11.115
7880,252.16,-1.0569,3.1989,0.1798,0.0003,-0.0000,-2.6344,flat,18.0,2,10.610
7890,252.48,-1.5358,2.9172,0.1798,0.0003,-0.0000,-2.5637,flat,18.0,2,10.088
7900,252.80,-1.9973,2.6017,0.1797,0.0002,-0.0000,-2.5063,flat,18.0,2,9.553
7910,253.12,-2.4427,2.2597,0.1797,0.0002,-0.0000,-2.4586,flat,18.0,2,9.010
7920,253.44,-2.8730,1.8965,0.1797,0.0001,-0.0000,-2.4196,flat,18.0,2,8.462
7930,253.76,-3.2911,1.5164,0.1797,0.0001,-0.0000,-2.3840,flat,18.0,2,7.909
7940,254.08,-3.6968,1.1213,0.1797,0.0001,-0.0000,-2.3523,flat,18.0,2,7.352
7950,254.40,-4.0908,0.7134,0.1797,0.0001,-0.0000,-2.3235,flat,18.0,2,6.792
7960,254.72,-4.4735,0.2941,0.1797,0.0001,-0.0000,-2.2966,flat,18.0,2,6.231
7970,255.04,-4.8456,-0.1351,0.1797,0.0001,-0.0000,-2.2720,flat,18.0,2,5.669
7980,255.36,-5.2077,-0.5732,0.1797,0.0001,-0.0000,-2.2489,flat,18.0,2,5.105
7990,255.68,-5.5601,-1.0198,0.1797,0.0001,-0.0000,-2.2264,flat,18.0,2,4.540
8000,256.00,-5.9028,-1.4743,0.1797,0.0001,-0.0000,-2.2042,flat,18.0,2,3.975
8010,256.32,-6.2355,-1.9363,0.1797,0.0001,-0.0000,-2.1818,flat,18.0,2,3.409
