step,time_s,x,y,z,roll,pitch,yaw,terrain,speed,target_idx,dist_to_target
10,0.32,0.9450,-0.8122,0.1596,0.1924,0.0193,-0.2536,slope,18.0,0,5.754
20,0.64,1.1940,-0.8741,0.1614,0.1595,0.0395,-0.2574,rough,14.0,0,5.525
30,0.96,1.4991,-0.9843,0.1460,0.1462,0.0494,-0.3976,rough,14.0,0,5.224
40,1.28,1.8669,-1.1901,0.1114,0.1054,0.0851,-0.5626,slope,18.0,0,4.815
50,1.60,2.2741,-1.4953,0.0397,0.1163,0.2003,-0.6783,slope,18.0,0,4.310
60,1.92,2.6851,-1.8942,-0.1550,0.1945,0.4155,-0.7130,rough,14.0,0,3.738
70,2.24,2.9663,-2.2062,-0.3001,0.2978,0.2628,-0.7516,slope,18.0,0,3.318
80,2.56,3.2576,-2.5710,-0.3632,0.2714,-0.0180,-0.8781,rough,14.0,0,2.856
90,2.88,3.5049,-2.9593,-0.4077,0.4505,-0.0782,-0.8986,slope,18.0,0,2.413
100,3.20,3.7838,-3.3484,-0.5148,0.3883,0.1041,-0.7197,rough,14.0,0,1.952
110,3.52,4.0411,-3.6083,-0.5387,0.4101,-0.0072,-0.7732,rough,14.0,0,1.591
120,3.84,4.2691,-3.8451,-0.5041,0.3742,-0.2210,-0.8425,slope,18.0,0,1.270
130,4.16,4.5009,-4.0647,-0.4459,0.2470,-0.2474,-0.8120,rough,14.0,1,12.087
140,4.48,4.6511,-4.2161,-0.3915,0.1426,-0.3359,-0.5376,rough,14.0,1,12.276
150,4.80,4.6257,-4.2591,-0.3944,0.0227,-0.3653,-0.1833,rough,14.0,1,12.309
160,5.12,4.4566,-4.2731,-0.4548,-0.0338,-0.3750,0.0260,rough,14.0,1,12.274
170,5.44,4.3972,-4.2730,-0.4753,-0.0363,-0.3746,0.0419,rough,14.0,1,12.258
180,5.76,4.5260,-4.2622,-0.4307,-0.0536,-0.3554,0.0506,rough,14.0,1,12.283
190,6.08,4.6932,-4.2482,-0.3684,-0.0765,-0.3514,0.0760,rough,14.0,1,12.319
200,6.40,4.7206,-4.2200,-0.3592,-0.1268,-0.3242,0.2768,rough,14.0,1,12.300
210,6.72,4.7350,-4.1268,-0.3586,-0.3013,-0.2162,0.9051,slope,18.0,1,12.216
220,7.04,4.7713,-3.9136,-0.3521,-0.3335,0.0001,1.5482,rough,14.0,1,12.024
230,7.36,4.6623,-3.5715,-0.3760,-0.2647,0.0331,1.9250,rough,14.0,1,11.665
240,7.68,4.5414,-3.2393,-0.3519,-0.1495,-0.2264,2.0008,rough,14.0,1,11.312
250,8.00,4.4183,-2.8660,-0.2747,0.0605,-0.2140,1.9700,rough,14.0,1,10.919
260,8.32,4.2559,-2.5013,-0.1910,-0.0224,-0.1913,1.9083,rough,14.0,1,10.521
270,8.64,4.1494,-2.0692,-0.1460,0.0961,0.0356,1.8418,rough,14.0,1,10.078
280,8.96,4.0749,-1.6260,-0.1484,0.2558,0.0713,1.8465,rough,14.0,1,9.633
290,9.28,4.0092,-1.2211,-0.1838,0.3668,-0.0880,1.9010,rough,14.0,1,9.229
300,9.60,3.9001,-0.8148,-0.1587,0.3729,-0.1523,1.8666,rough,14.0,1,8.809
310,9.92,3.7851,-0.3985,-0.0941,0.4120,-0.1604,1.8396,rough,14.0,1,8.378
320,10.24,3.6836,0.0487,-0.0333,0.4108,-0.1467,1.8493,slope,18.0,1,7.923
330,10.56,3.5328,0.5796,-0.0321,0.2511,0.0366,1.8482,rough,14.0,1,7.372
340,10.88,3.4259,1.0869,-0.0796,0.1909,0.0582,1.8382,rough,14.0,1,6.859
350,11.20,3.3216,1.5765,-0.1097,0.3290,-0.0532,1.8691,slope,18.0,1,6.365
360,11.52,3.1781,2.0617,-0.1030,0.3633,-0.0328,1.9546,rough,14.0,1,5.860
370,11.84,2.9865,2.5237,-0.1711,0.3101,0.2225,2.0215,slope,18.0,1,5.360
380,12.16,2.7735,3.0560,-0.3777,0.3198,0.4388,1.9619,rough,14.0,1,4.787
390,12.48,2.6350,3.4619,-0.5651,0.3422,0.3216,1.9474,rough,14.0,1,4.359
400,12.80,2.4873,3.8352,-0.6870,0.2640,0.2842,1.9168,rough,14.0,1,3.957
410,13.12,2.3551,4.2425,-0.8002,0.1999,0.3399,1.8970,rough,14.0,1,3.530
420,13.44,2.1869,4.6542,-0.9485,-0.0232,0.3866,1.8997,rough,14.0,1,3.085
430,13.76,1.9566,5.0979,-1.1369,-0.4178,0.6484,1.7021,rough,14.0,1,2.588
440,14.08,1.8269,5.4413,-1.3048,-0.4379,0.1687,1.6989,rough,14.0,1,2.221
450,14.40,1.8082,5.7956,-1.3316,-0.2349,0.0016,1.7391,rough,14.0,1,1.887
460,14.72,1.7395,6.0926,-1.3076,-0.2287,-0.2659,1.8956,rough,14.0,1,1.590
470,15.04,1.5910,6.4113,-1.2447,-0.4307,-0.1339,1.8553,rough,14.0,1,1.239
480,15.36,1.4903,6.6848,-1.2152,-0.4458,-0.1189,1.8559,rough,14.0,2,14.920
490,15.68,1.3433,6.9229,-1.2224,-0.4417,-0.0014,2.1161,rough,14.0,2,15.015
500,16.00,1.0760,7.2243,-1.2432,-0.5423,0.0678,2.2305,rough,14.0,2,15.093
510,16.32,0.8229,7.4611,-1.2332,-0.5349,-0.3307,2.4181,rough,14.0,2,15.137
520,16.64,0.5372,7.7041,-1.1185,-0.4275,-0.3424,2.5068,rough,14.0,2,15.176
530,16.96,0.2190,7.9134,-1.0043,-0.4426,-0.2479,2.5017,rough,14.0,2,15.178
540,17.28,-0.0820,8.1332,-0.9336,-0.4021,-0.1331,2.4968,rough,14.0,2,15.208
550,17.60,-0.3915,8.3153,-0.9378,-0.5411,0.1306,2.4687,rough,14.0,2,15.209
560,17.92,-0.5888,8.3914,-0.9796,-0.5256,0.0276,2.5128,rough,14.0,2,15.179
570,18.24,-0.6849,8.3379,-1.0486,-0.5339,-0.1153,2.2368,rough,14.0,2,15.086
580,18.56,-0.7724,8.3420,-1.0726,-0.4173,-0.2917,1.9108,rough,14.0,2,15.048
590,18.88,-0.8121,8.3243,-1.0943,-0.3534,-0.3227,1.7765,rough,14.0,2,15.014
600,19.20,-0.8435,8.3011,-1.1084,-0.3118,-0.3439,1.7374,rough,14.0,2,14.979
610,19.52,-0.8796,8.3115,-1.1158,-0.3010,-0.4168,1.6800,rough,14.0,2,14.971
620,19.84,-0.9013,8.3148,-1.1258,-0.2895,-0.4140,1.6593,rough,14.0,2,14.964
630,20.16,-0.9372,8.3176,-1.1345,-0.2870,-0.4667,1.6520,rough,14.0,2,14.949
640,20.48,-0.9733,8.3242,-1.1484,-0.2766,-0.4835,1.6149,rough,14.0,2,14.939
650,20.80,-0.9896,8.3307,-1.1561,-0.2744,-0.4732,1.5741,rough,14.0,2,14.937
660,21.12,-0.9985,8.3379,-1.1582,-0.2845,-0.4742,1.5436,rough,14.0,2,14.939
670,21.44,-0.9968,8.3384,-1.1575,-0.2844,-0.4759,1.5449,rough,14.0,2,14.940
680,21.76,-0.9968,8.3386,-1.1575,-0.2844,-0.4765,1.5449,rough,14.0,2,14.940
690,22.08,-0.9967,8.3387,-1.1574,-0.2845,-0.4766,1.5451,rough,14.0,2,14.941
700,22.40,-0.9963,8.3386,-1.1573,-0.2843,-0.4766,1.5450,rough,14.0,2,14.941
710,22.72,-0.9965,8.3387,-1.1574,-0.2843,-0.4767,1.5448,rough,14.0,2,14.941
720,23.04,-0.9971,8.3387,-1.1576,-0.2843,-0.4769,1.5442,rough,14.0,2,14.940
730,23.36,-0.9963,8.3386,-1.1573,-0.2844,-0.4765,1.5452,rough,14.0,2,14.941
740,23.68,-0.9966,8.3386,-1.1574,-0.2844,-0.4766,1.5449,rough,14.0,2,14.941
750,24.00,-0.9966,8.3387,-1.1574,-0.2843,-0.4767,1.5446,rough,14.0,2,14.941
760,24.32,-0.9963,8.3386,-1.1573,-0.2845,-0.4763,1.5454,rough,14.0,2,14.941
770,24.64,-0.9965,8.3386,-1.1574,-0.2842,-0.4767,1.5447,rough,14.0,2,14.941
780,24.96,-0.9971,8.3387,-1.1576,-0.2843,-0.4769,1.5442,rough,14.0,2,14.940
790,25.28,-0.9963,8.3386,-1.1573,-0.2844,-0.4765,1.5452,rough,14.0,2,14.941
800,25.60,-0.9966,8.3386,-1.1574,-0.2844,-0.4766,1.5449,rough,14.0,2,14.941
810,25.92,-0.9966,8.3387,-1.1574,-0.2843,-0.4767,1.5446,rough,14.0,2,14.941
820,26.24,-0.9963,8.3386,-1.1573,-0.2845,-0.4763,1.5454,rough,14.0,2,14.941
830,26.56,-0.9965,8.3386,-1.1574,-0.2842,-0.4767,1.5447,rough,14.0,2,14.941
840,26.88,-0.9971,8.3387,-1.1576,-0.2843,-0.4769,1.5442,rough,14.0,2,14.940
850,27.20,-0.9963,8.3386,-1.1573,-0.2844,-0.4765,1.5452,rough,14.0,2,14.941
860,27.52,-0.9966,8.3386,-1.1574,-0.2844,-0.4766,1.5449,rough,14.0,2,14.941
870,27.84,-0.9966,8.3387,-1.1574,-0.2843,-0.4767,1.5446,rough,14.0,2,14.941
880,28.16,-0.9963,8.3386,-1.1573,-0.2845,-0.4763,1.5454,rough,14.0,2,14.941
890,28.48,-0.9965,8.3386,-1.1574,-0.2842,-0.4767,1.5447,rough,14.0,2,14.941
900,28.80,-0.9971,8.3387,-1.1576,-0.2843,-0.4769,1.5442,rough,14.0,2,14.940
910,29.12,-0.9963,8.3386,-1.1573,-0.2844,-0.4765,1.5452,rough,14.0,2,14.941
920,29.44,-0.9966,8.3386,-1.1574,-0.2844,-0.4766,1.5449,rough,14.0,3,15.168
930,29.76,-0.9966,8.3387,-1.1574,-0.2843,-0.4767,1.5446,rough,14.0,3,15.168
940,30.08,-0.9963,8.3386,-1.1573,-0.2845,-0.4763,1.5454,rough,14.0,3,15.168
950,30.40,-0.9965,8.3386,-1.1574,-0.2842,-0.4767,1.5447,rough,14.0,3,15.168
960,30.72,-0.9971,8.3387,-1.1576,-0.2843,-0.4769,1.5442,rough,14.0,3,15.168
970,31.04,-0.9962,8.3386,-1.1573,-0.2844,-0.4765,1.5452,rough,14.0,3,15.168
980,31.36,-0.9966,8.3386,-1.1574,-0.2844,-0.4766,1.5449,rough,14.0,3,15.168
990,31.68,-0.9966,8.3387,-1.1574,-0.2843,-0.4767,1.5446,rough,14.0,3,15.168
1000,32.00,-0.9963,8.3386,-1.1573,-0.2845,-0.4763,1.5454,rough,14.0,3,15.168
1010,32.32,-0.9965,8.3386,-1.1574,-0.2842,-0.4767,1.5447,rough,14.0,3,15.168
1020,32.64,-0.9971,8.3387,-1.1576,-0.2843,-0.4769,1.5442,rough,14.0,3,15.168
1030,32.96,-0.9963,8.3386,-1.1573,-0.2844,-0.4765,1.5452,rough,14.0,3,15.168
1040,33.28,-0.9966,8.3386,-1.1574,-0.2844,-0.4766,1.5449,rough,14.0,3,15.168
1050,33.60,-0.9966,8.3387,-1.1574,-0.2843,-0.4767,1.5446,rough,14.0,3,15.168
1060,33.92,-0.9963,8.3386,-1.1573,-0.2845,-0.4763,1.5454,rough,14.0,3,15.168
1070,34.24,-0.9965,8.3386,-1.1574,-0.2842,-0.4767,1.5447,rough,14.0,3,15.168
1080,34.56,-0.9971,8.3387,-1.1576,-0.2843,-0.4769,1.5442,rough,14.0,3,15.168
1090,34.88,-0.9962,8.3386,-1.1573,-0.2844,-0.4765,1.5452,rough,14.0,3,15.168
1100,35.20,-0.9966,8.3386,-1.1574,-0.2844,-0.4766,1.5449,rough,14.0,3,15.168
1110,35.52,-0.9966,8.3387,-1.1574,-0.2843,-0.4767,1.5446,rough,14.0,3,15.168
1120,35.84,-0.9963,8.3386,-1.1573,-0.2845,-0.4763,1.5454,rough,14.0,3,15.168
1130,36.16,-0.9965,8.3386,-1.1574,-0.2842,-0.4767,1.5447,rough,14.0,3,15.168
1140,36.48,-0.9971,8.3387,-1.1576,-0.2843,-0.4769,1.5442,rough,14.0,3,15.168
1150,36.80,-0.9963,8.3386,-1.1573,-0.2844,-0.4765,1.5452,rough,14.0,3,15.168
1160,37.12,-0.9966,8.3386,-1.1574,-0.2844,-0.4766,1.5449,rough,14.0,3,15.168
1170,37.44,-0.9966,8.3387,-1.1574,-0.2843,-0.4767,1.5446,rough,14.0,3,15.168
1180,37.76,-0.9963,8.3386,-1.1573,-0.2845,-0.4763,1.5454,rough,14.0,3,15.168
1190,38.08,-0.9965,8.3386,-1.1574,-0.2842,-0.4767,1.5447,rough,14.0,3,15.168
1200,38.40,-0.9971,8.3387,-1.1576,-0.2843,-0.4769,1.5442,rough,14.0,3,15.168
1210,38.72,-0.9962,8.3386,-1.1573,-0.2844,-0.4765,1.5452,rough,14.0,3,15.168
1220,39.04,-0.9966,8.3386,-1.1574,-0.2844,-0.4766,1.5449,rough,14.0,3,15.168
1230,39.36,-0.9966,8.3387,-1.1574,-0.2843,-0.4767,1.5446,rough,14.0,3,15.168
1240,39.68,-0.9963,8.3386,-1.1573,-0.2845,-0.4763,1.5454,rough,14.0,3,15.168
1250,40.00,-0.9965,8.3386,-1.1574,-0.2842,-0.4767,1.5447,rough,14.0,3,15.168
1260,40.32,-0.9971,8.3387,-1.1576,-0.2843,-0.4769,1.5442,rough,14.0,3,15.168
1270,40.64,-0.9963,8.3386,-1.1573,-0.2844,-0.4765,1.5452,rough,14.0,3,15.168
1280,40.96,-0.9966,8.3386,-1.1574,-0.2844,-0.4766,1.5449,rough,14.0,3,15.168
1290,41.28,-0.9966,8.3387,-1.1574,-0.2843,-0.4767,1.5446,rough,14.0,0,14.338
1300,41.60,-0.9963,8.3386,-1.1573,-0.2845,-0.4763,1.5454,rough,14.0,0,14.337
1310,41.92,-0.9965,8.3386,-1.1574,-0.2842,-0.4767,1.5447,rough,14.0,0,14.338
1320,42.24,-0.9971,8.3387,-1.1576,-0.2843,-0.4769,1.5442,rough,14.0,0,14.338
1330,42.56,-0.9962,8.3386,-1.1573,-0.2844,-0.4765,1.5452,rough,14.0,0,14.337
1340,42.88,-0.9966,8.3386,-1.1574,-0.2844,-0.4766,1.5449,rough,14.0,0,14.338
1350,43.20,-0.9966,8.3387,-1.1574,-0.2843,-0.4767,1.5446,rough,14.0,0,14.338
1360,43.52,-0.9963,8.3386,-1.1573,-0.2845,-0.4763,1.5454,rough,14.0,0,14.337
1370,43.84,-0.9965,8.3386,-1.1574,-0.2842,-0.4767,1.5447,rough,14.0,0,14.338
1380,44.16,-0.9971,8.3387,-1.1576,-0.2843,-0.4769,1.5442,rough,14.0,0,14.338
1390,44.48,-0.9963,8.3386,-1.1573,-0.2844,-0.4765,1.5452,rough,14.0,0,14.337
1400,44.80,-0.9966,8.3386,-1.1574,-0.2844,-0.4766,1.5449,rough,14.0,0,14.338
1410,45.12,-0.9966,8.3387,-1.1574,-0.2843,-0.4767,1.5446,rough,14.0,0,14.338
1420,45.44,-0.9963,8.3386,-1.1573,-0.2845,-0.4763,1.5454,rough,14.0,0,14.337
1430,45.76,-0.9965,8.3386,-1.1574,-0.2842,-0.4767,1.5447,rough,14.0,0,14.338
1440,46.08,-0.9971,8.3387,-1.1576,-0.2843,-0.4769,1.5442,rough,14.0,0,14.338
1450,46.40,-0.9962,8.3386,-1.1573,-0.2844,-0.4765,1.5452,rough,14.0,0,14.337
1460,46.72,-0.9966,8.3386,-1.1574,-0.2844,-0.4766,1.5449,rough,14.0,0,14.338
1470,47.04,-0.9966,8.3387,-1.1574,-0.2843,-0.4767,1.5446,rough,14.0,0,14.338
1480,47.36,-0.9963,8.3386,-1.1573,-0.2845,-0.4763,1.5454,rough,14.0,0,14.337
1490,47.68,-0.9965,8.3386,-1.1574,-0.2842,-0.4767,1.5447,rough,14.0,0,14.338
1500,48.00,-0.9971,8.3387,-1.1576,-0.2843,-0.4769,1.5442,rough,14.0,0,14.338
1510,48.32,-0.9963,8.3386,-1.1573,-0.2844,-0.4765,1.5452,rough,14.0,0,14.337
1520,48.64,-0.9966,8.3386,-1.1574,-0.2844,-0.4766,1.5449,rough,14.0,0,14.338
1530,48.96,-0.9966,8.3387,-1.1574,-0.2843,-0.4767,1.5446,rough,14.0,0,14.338
1540,49.28,-0.9963,8.3386,-1.1573,-0.2845,-0.4763,1.5454,rough,14.0,0,14.337
1550,49.60,-0.9965,8.3386,-1.1574,-0.2842,-0.4767,1.5447,rough,14.0,0,14.338
1560,49.92,-0.9971,8.3387,-1.1576,-0.2843,-0.4769,1.5442,rough,14.0,0,14.338
1570,50.24,-0.9963,8.3386,-1.1573,-0.2844,-0.4765,1.5452,rough,14.0,0,14.337
1580,50.56,-0.9966,8.3386,-1.1574,-0.2844,-0.4766,1.5449,rough,14.0,0,14.338
1590,50.88,-0.9966,8.3387,-1.1574,-0.2843,-0.4767,1.5446,rough,14.0,0,14.338
1600,51.20,-0.9963,8.3386,-1.1573,-0.2845,-0.4763,1.5454,rough,14.0,0,14.337
1610,51.52,-0.9965,8.3386,-1.1574,-0.2842,-0.4767,1.5447,rough,14.0,0,14.338
1620,51.84,-0.9971,8.3387,-1.1576,-0.2843,-0.4769,1.5442,rough,14.0,0,14.338
1630,52.16,-0.9963,8.3386,-1.1573,-0.2844,-0.4765,1.5452,rough,14.0,0,14.337
1640,52.48,-0.9966,8.3386,-1.1574,-0.2844,-0.4766,1.5449,rough,14.0,0,14.338
1650,52.80,-0.9966,8.3387,-1.1574,-0.2843,-0.4767,1.5446,rough,14.0,1,2.179
1660,53.12,-0.9963,8.3386,-1.1573,-0.2845,-0.4763,1.5454,rough,14.0,1,2.179
1670,53.44,-0.9965,8.3386,-1.1574,-0.2842,-0.4767,1.5447,rough,14.0,1,2.179
1680,53.76,-0.9971,8.3387,-1.1576,-0.2843,-0.4769,1.5442,rough,14.0,1,2.180
1690,54.08,-0.9962,8.3386,-1.1573,-0.2844,-0.4765,1.5452,rough,14.0,1,2.179
1700,54.40,-0.9966,8.3386,-1.1574,-0.2844,-0.4766,1.5449,rough,14.0,1,2.179
1710,54.72,-0.9966,8.3387,-1.1574,-0.2843,-0.4767,1.5446,rough,14.0,1,2.179
1720,55.04,-0.9963,8.3386,-1.1573,-0.2845,-0.4763,1.5454,rough,14.0,1,2.179
1730,55.36,-0.9965,8.3386,-1.1574,-0.2842,-0.4767,1.5447,rough,14.0,1,2.179
1740,55.68,-0.9971,8.3387,-1.1576,-0.2843,-0.4769,1.5442,rough,14.0,1,2.180
1750,56.00,-0.9963,8.3386,-1.1573,-0.2844,-0.4765,1.5452,rough,14.0,1,2.179
1760,56.32,-0.9966,8.3386,-1.1574,-0.2844,-0.4766,1.5449,rough,14.0,1,2.179
1770,56.64,-0.9966,8.3387,-1.1574,-0.2843,-0.4767,1.5446,rough,14.0,1,2.179
1780,56.96,-0.9963,8.3386,-1.1573,-0.2845,-0.4763,1.5454,rough,14.0,1,2.179
1790,57.28,-0.9965,8.3386,-1.1574,-0.2842,-0.4767,1.5447,rough,14.0,1,2.179
1800,57.60,-0.9971,8.3387,-1.1576,-0.2843,-0.4769,1.5442,rough,14.0,1,2.180
1810,57.92,-0.9962,8.3386,-1.1573,-0.2844,-0.4765,1.5452,rough,14.0,1,2.179
1820,58.24,-0.9966,8.3386,-1.1574,-0.2844,-0.4766,1.5449,rough,14.0,1,2.179
1830,58.56,-0.9966,8.3387,-1.1574,-0.2843,-0.4767,1.5446,rough,14.0,1,2.179
1840,58.88,-0.9963,8.3386,-1.1573,-0.2845,-0.4763,1.5454,rough,14.0,1,2.179
1850,59.20,-0.9965,8.3386,-1.1574,-0.2842,-0.4767,1.5447,rough,14.0,1,2.179
1860,59.52,-0.9971,8.3387,-1.1576,-0.2843,-0.4769,1.5442,rough,14.0,1,2.180
1870,59.84,-0.9963,8.3386,-1.1573,-0.2844,-0.4765,1.5452,rough,14.0,1,2.179
1880,60.16,-0.9966,8.3386,-1.1574,-0.2844,-0.4766,1.5449,rough,14.0,1,2.179
1890,60.48,-0.9966,8.3387,-1.1574,-0.2843,-0.4767,1.5446,rough,14.0,1,2.179
1900,60.80,-0.9963,8.3386,-1.1573,-0.2845,-0.4763,1.5454,rough,14.0,1,2.179
1910,61.12,-0.9965,8.3386,-1.1574,-0.2842,-0.4767,1.5447,rough,14.0,1,2.179
1920,61.44,-0.9971,8.3387,-1.1576,-0.2843,-0.4769,1.5442,rough,14.0,1,2.180
1930,61.76,-0.9963,8.3386,-1.1573,-0.2844,-0.4765,1.5452,rough,14.0,1,2.179
1940,62.08,-0.9966,8.3386,-1.1574,-0.2844,-0.4766,1.5449,rough,14.0,1,2.179
1950,62.40,-0.9966,8.3387,-1.1574,-0.2843,-0.4767,1.5446,rough,14.0,1,2.179
1960,62.72,-0.9963,8.3386,-1.1573,-0.2845,-0.4763,1.5454,rough,14.0,1,2.179
1970,63.04,-0.9965,8.3386,-1.1574,-0.2842,-0.4767,1.5447,rough,14.0,1,2.179
1980,63.36,-0.9971,8.3387,-1.1576,-0.2843,-0.4769,1.5442,rough,14.0,1,2.180
1990,63.68,-0.9963,8.3386,-1.1573,-0.2844,-0.4765,1.5452,rough,14.0,1,2.179
2000,64.00,-0.9966,8.3386,-1.1574,-0.2844,-0.4766,1.5449,rough,14.0,1,2.179
2010,64.32,-0.9966,8.3387,-1.1574,-0.2843,-0.4767,1.5446,rough,14.0,1,2.179
2020,64.64,-0.9963,8.3386,-1.1573,-0.2845,-0.4763,1.5454,rough,14.0,2,14.941
2030,64.96,-0.9965,8.3386,-1.1574,-0.2842,-0.4767,1.5447,rough,14.0,2,14.941
2040,65.28,-0.9971,8.3387,-1.1576,-0.2843,-0.4769,1.5442,rough,14.0,2,14.940
2050,65.60,-0.9963,8.3386,-1.1573,-0.2844,-0.4765,1.5452,rough,14.0,2,14.941
2060,65.92,-0.9966,8.3386,-1.1574,-0.2844,-0.4766,1.5449,rough,14.0,2,14.941
2070,66.24,-0.9966,8.3387,-1.1574,-0.2843,-0.4767,1.5446,rough,14.0,2,14.941
2080,66.56,-0.9963,8.3386,-1.1573,-0.2845,-0.4763,1.5454,rough,14.0,2,14.941
2090,66.88,-0.9965,8.3386,-1.1574,-0.2842,-0.4767,1.5447,rough,14.0,2,14.941
2100,67.20,-0.9971,8.3387,-1.1576,-0.2843,-0.4769,1.5442,rough,14.0,2,14.940
2110,67.52,-0.9962,8.3386,-1.1573,-0.2844,-0.4765,1.5452,rough,14.0,2,14.941
2120,67.84,-0.9966,8.3386,-1.1574,-0.2844,-0.4766,1.5449,rough,14.0,2,14.941
2130,68.16,-0.9966,8.3386,-1.1574,-0.2843,-0.4767,1.5446,rough,14.0,2,14.941
2140,68.48,-0.9963,8.3386,-1.1573,-0.2845,-0.4763,1.5454,rough,14.0,2,14.941
2150,68.80,-0.9965,8.3386,-1.1574,-0.2842,-0.4767,1.5447,rough,14.0,2,14.941
2160,69.12,-0.9971,8.3387,-1.1576,-0.2843,-0.4769,1.5442,rough,14.0,2,14.940
2170,69.44,-0.9963,8.3386,-1.1573,-0.2844,-0.4765,1.5452,rough,14.0,2,14.941
2180,69.76,-0.9966,8.3386,-1.1574,-0.2844,-0.4766,1.5449,rough,14.0,2,14.941
2190,70.08,-0.9966,8.3387,-1.1574,-0.2843,-0.4767,1.5446,rough,14.0,2,14.941
2200,70.40,-0.9963,8.3386,-1.1573,-0.2845,-0.4763,1.5454,rough,14.0,2,14.941
2210,70.72,-0.9965,8.3386,-1.1574,-0.2842,-0.4767,1.5447,rough,14.0,2,14.941
2220,71.04,-0.9971,8.3387,-1.1576,-0.2843,-0.4769,1.5442,rough,14.0,2,14.940
2230,71.36,-0.9963,8.3386,-1.1573,-0.2844,-0.4765,1.5452,rough,14.0,2,14.941
2240,71.68,-0.9966,8.3386,-1.1574,-0.2844,-0.4766,1.5449,rough,14.0,2,14.941
2250,72.00,-0.9966,8.3387,-1.1574,-0.2843,-0.4767,1.5446,rough,14.0,2,14.941
2260,72.32,-0.9963,8.3386,-1.1573,-0.2845,-0.4763,1.5454,rough,14.0,2,14.941
2270,72.64,-0.9965,8.3386,-1.1574,-0.2842,-0.4767,1.5447,rough,14.0,2,14.941
2280,72.96,-0.9971,8.3387,-1.1576,-0.2843,-0.4769,1.5442,rough,14.0,2,14.940
2290,73.28,-0.9963,8.3386,-1.1573,-0.2844,-0.4765,1.5452,rough,14.0,2,14.941
2300,73.60,-0.9966,8.3386,-1.1574,-0.2844,-0.4766,1.5449,rough,14.0,2,14.941
2310,73.92,-0.9966,8.3387,-1.1574,-0.2843,-0.4767,1.5446,rough,14.0,2,14.941
2320,74.24,-0.9963,8.3386,-1.1573,-0.2845,-0.4763,1.5454,rough,14.0,2,14.941
2330,74.56,-0.9965,8.3386,-1.1574,-0.2842,-0.4767,1.5447,rough,14.0,2,14.941
2340,74.88,-0.9971,8.3387,-1.1576,-0.2843,-0.4769,1.5442,rough,14.0,2,14.940
2350,75.20,-0.9962,8.3386,-1.1573,-0.2844,-0.4765,1.5452,rough,14.0,2,14.941
2360,75.52,-0.9966,8.3386,-1.1574,-0.2844,-0.4766,1.5449,rough,14.0,2,14.941
2370,75.84,-0.9966,8.3387,-1.1574,-0.2843,-0.4767,1.5446,rough,14.0,2,14.941
2380,76.16,-0.9963,8.3386,-1.1573,-0.2845,-0.4763,1.5454,rough,14.0,2,14.941
2390,76.48,-0.9965,8.3386,-1.1574,-0.2842,-0.4767,1.5447,rough,14.0,3,15.168
2400,76.80,-0.9971,8.3387,-1.1576,-0.2843,-0.4769,1.5442,rough,14.0,3,15.168
2410,77.12,-0.9963,8.3386,-1.1573,-0.2844,-0.4765,1.5452,rough,14.0,3,15.168
2420,77.44,-0.9966,8.3386,-1.1574,-0.2844,-0.4766,1.5449,rough,14.0,3,15.168
2430,77.76,-0.9966,8.3387,-1.1574,-0.2843,-0.4767,1.5446,rough,14.0,3,15.168
2440,78.08,-0.9963,8.3386,-1.1573,-0.2845,-0.4763,1.5454,rough,14.0,3,15.168
2450,78.40,-0.9965,8.3386,-1.1574,-0.2842,-0.4767,1.5447,rough,14.0,3,15.168
2460,78.72,-0.9971,8.3387,-1.1576,-0.2843,-0.4769,1.5442,rough,14.0,3,15.168
2470,79.04,-0.9962,8.3386,-1.1573,-0.2844,-0.4765,1.5452,rough,14.0,3,15.168
2480,79.36,-0.9966,8.3386,-1.1574,-0.2844,-0.4766,1.5449,rough,14.0,3,15.168
2490,79.68,-0.9966,8.3387,-1.1574,-0.2843,-0.4767,1.5446,rough,14.0,3,15.168
2500,80.00,-0.9963,8.3386,-1.1573,-0.2845,-0.4763,1.5454,rough,14.0,3,15.168
2510,80.32,-0.9965,8.3386,-1.1574,-0.2842,-0.4767,1.5447,rough,14.0,3,15.168
2520,80.64,-0.9971,8.3387,-1.1576,-0.2843,-0.4769,1.5442,rough,14.0,3,15.168
2530,80.96,-0.9963,8.3386,-1.1573,-0.2844,-0.4765,1.5452,rough,14.0,3,15.168
2540,81.28,-0.9966,8.3386,-1.1574,-0.2844,-0.4766,1.5449,rough,14.0,3,15.168
2550,81.60,-0.9966,8.3387,-1.1574,-0.2843,-0.4767,1.5446,rough,14.0,3,15.168
2560,81.92,-0.9963,8.3386,-1.1573,-0.2845,-0.4763,1.5454,rough,14.0,3,15.168
2570,82.24,-0.9965,8.3386,-1.1574,-0.2842,-0.4767,1.5447,rough,14.0,3,15.168
2580,82.56,-0.9971,8.3387,-1.1576,-0.2843,-0.4769,1.5442,rough,14.0,3,15.168
2590,82.88,-0.9962,8.3386,-1.1573,-0.2844,-0.4765,1.5452,rough,14.0,3,15.168
2600,83.20,-0.9966,8.3386,-1.1574,-0.2844,-0.4766,1.5449,rough,14.0,3,15.168
2610,83.52,-0.9966,8.3387,-1.1574,-0.2843,-0.4767,1.5446,rough,14.0,3,15.168
2620,83.84,-0.9963,8.3386,-1.1573,-0.2845,-0.4763,1.5454,rough,14.0,3,15.168
2630,84.16,-0.9965,8.3386,-1.1574,-0.2842,-0.4767,1.5447,rough,14.0,3,15.168
2640,84.48,-0.9971,8.3387,-1.1576,-0.2843,-0.4769,1.5442,rough,14.0,3,15.168
2650,84.80,-0.9963,8.3386,-1.1573,-0.2844,-0.4765,1.5452,rough,14.0,3,15.168
2660,85.12,-0.9966,8.3386,-1.1574,-0.2844,-0.4766,1.5449,rough,14.0,3,15.168
2670,85.44,-0.9966,8.3387,-1.1574,-0.2843,-0.4767,1.5446,rough,14.0,3,15.168
2680,85.76,-0.9963,8.3386,-1.1573,-0.2845,-0.4763,1.5454,rough,14.0,3,15.168
2690,86.08,-0.9965,8.3386,-1.1574,-0.2842,-0.4767,1.5447,rough,14.0,3,15.168
2700,86.40,-0.9971,8.3387,-1.1576,-0.2843,-0.4769,1.5442,rough,14.0,3,15.168
2710,86.72,-0.9962,8.3386,-1.1573,-0.2844,-0.4765,1.5452,rough,14.0,3,15.168
2720,87.04,-0.9966,8.3386,-1.1574,-0.2844,-0.4766,1.5449,rough,14.0,3,15.168
2730,87.36,-0.9966,8.3387,-1.1574,-0.2843,-0.4767,1.5446,rough,14.0,3,15.168
2740,87.68,-0.9963,8.3386,-1.1573,-0.2845,-0.4763,1.5454,rough,14.0,3,15.168
2750,88.00,-0.9965,8.3386,-1.1574,-0.2842,-0.4767,1.5447,rough,14.0,0,14.338
2760,88.32,-0.9971,8.3387,-1.1576,-0.2843,-0.4769,1.5442,rough,14.0,0,14.338
2770,88.64,-0.9963,8.3386,-1.1573,-0.2844,-0.4765,1.5452,rough,14.0,0,14.337
2780,88.96,-0.9966,8.3386,-1.1574,-0.2844,-0.4766,1.5449,rough,14.0,0,14.338
2790,89.28,-0.9966,8.3387,-1.1574,-0.2843,-0.4767,1.5446,rough,14.0,0,14.338
2800,89.60,-0.9963,8.3386,-1.1573,-0.2845,-0.4763,1.5454,rough,14.0,0,14.337
2810,89.92,-0.9965,8.3386,-1.1574,-0.2842,-0.4767,1.5447,rough,14.0,0,14.338
