step,time_s,x,y,z,roll,pitch,yaw,terrain,speed,target_idx,dist_to_target
10,0.32,-0.0067,-0.0580,0.1723,0.0000,-0.0145,0.0000,flat,18.0,0,5.404
20,0.64,0.2561,-0.0590,0.1792,-0.0000,0.0017,-0.0188,flat,18.0,0,5.199
30,0.96,0.6409,-0.0774,0.1799,0.0001,-0.0001,-0.3020,flat,18.0,0,4.899
40,1.28,1.0639,-0.2529,0.1799,-0.0001,-0.0000,-0.6069,flat,18.0,0,4.472
50,1.60,1.4526,-0.5703,0.1799,-0.0001,-0.0000,-0.7802,flat,18.0,0,3.973
60,1.92,1.8174,-0.9658,0.1798,-0.0003,-0.0001,-0.8716,flat,18.0,0,3.435
70,2.24,2.1745,-1.4044,0.1797,-0.0001,-0.0000,-0.8947,flat,18.0,0,2.873
80,2.56,2.5309,-1.8396,0.1797,0.0001,0.0000,-0.8651,flat,18.0,0,2.315
90,2.88,2.8943,-2.2457,0.1797,0.0002,0.0001,-0.8065,flat,18.0,0,1.773
100,3.20,3.2388,-2.5872,0.1797,0.0002,0.0001,-0.7460,flat,18.0,0,1.289
110,3.52,3.5723,-2.8779,0.1797,0.0002,-0.0000,-0.7114,flat,18.0,1,6.952
120,3.84,3.8739,-3.2009,0.1799,0.0001,-0.0000,-1.0257,flat,18.0,1,6.898
130,4.16,4.0742,-3.6087,0.1799,0.0000,-0.0000,-1.4601,flat,18.0,1,6.739
140,4.48,4.0897,-4.0570,0.1799,-0.0000,-0.0000,-1.9066,flat,18.0,1,6.443
150,4.80,3.9010,-4.4744,0.1799,-0.0000,-0.0000,-2.2045,flat,18.0,1,6.027
160,5.12,3.5783,-4.8381,0.1799,-0.0000,-0.0000,-2.4113,flat,18.0,1,5.546
170,5.44,3.1737,-5.1528,0.1799,-0.0001,-0.0000,-2.5850,flat,18.0,1,5.034
180,5.76,2.7053,-5.4153,0.1799,-0.0003,-0.0000,-2.7164,flat,18.0,1,4.506
190,6.08,2.1887,-5.6353,0.1798,-0.0002,-0.0000,-2.7682,flat,18.0,1,3.975
200,6.40,1.6654,-5.8447,0.1797,0.0001,0.0000,-2.7360,flat,18.0,1,3.456
210,6.72,1.1668,-6.0691,0.1797,0.0002,0.0000,-2.6685,flat,18.0,1,2.957
220,7.04,0.7006,-6.3240,0.1798,0.0003,0.0000,-2.5709,flat,18.0,1,2.472
230,7.36,0.2776,-6.6234,0.1799,0.0003,0.0000,-2.4426,flat,18.0,1,1.993
240,7.68,-0.0825,-6.9614,0.1798,0.0003,0.0001,-2.3267,flat,18.0,1,1.528
250,8.00,-0.3697,-7.2923,0.1798,0.0003,0.0001,-2.2174,flat,18.0,1,1.115
260,8.32,-0.6071,-7.6391,0.1798,0.0002,-0.0001,-2.1523,flat,18.0,2,4.567
270,8.64,-0.8812,-8.0477,0.1797,-0.0001,0.0001,-2.1869,flat,18.0,2,4.760
280,8.96,-1.1143,-8.3624,0.1797,-0.0001,0.0003,-2.2567,rough,14.0,2,4.927
290,9.28,-1.3388,-8.6111,0.1797,-0.0002,0.0000,-2.3717,flat,18.0,2,5.061
300,9.60,-1.5683,-8.8097,0.1797,-0.0002,0.0001,-2.5179,flat,18.0,2,5.165
310,9.92,-1.7928,-8.9553,0.1797,-0.0002,0.0000,-2.6977,flat,18.0,2,5.234
320,10.24,-2.0130,-9.0571,0.1797,-0.0002,0.0000,-2.9074,flat,18.0,2,5.275
330,10.56,-2.2270,-9.1168,0.1797,-0.0002,0.0000,3.1389,flat,18.0,2,5.286
340,10.88,-2.4325,-9.1260,0.1797,-0.0002,0.0000,2.9218,flat,18.0,2,5.258
350,11.20,-2.6317,-9.0856,0.1797,-0.0002,-0.0000,2.7538,flat,18.0,2,5.189
360,11.52,-2.8294,-9.0012,0.1797,-0.0001,-0.0000,2.6280,flat,18.0,2,5.084
370,11.84,-3.0342,-8.8770,0.1797,-0.0001,-0.0000,2.5293,flat,18.0,2,4.946
380,12.16,-3.2529,-8.7118,0.1797,-0.0001,-0.0001,2.4499,flat,18.0,2,4.775
390,12.48,-3.4915,-8.5016,0.1797,-0.0001,-0.0001,2.3853,flat,18.0,2,4.569
400,12.80,-3.7559,-8.2395,0.1797,-0.0001,-0.0001,2.3353,flat,18.0,2,4.328
410,13.12,-4.0535,-7.9177,0.1797,-0.0001,-0.0001,2.3011,flat,18.0,2,4.055
420,13.44,-4.3962,-7.5281,0.1797,-0.0000,-0.0001,2.2869,flat,18.0,2,3.760
430,13.76,-4.7270,-7.1328,0.1798,-0.0000,0.0001,2.1788,flat,18.0,2,3.508
440,14.08,-4.9657,-6.7173,0.1799,-0.0000,-0.0000,1.8587,flat,18.0,2,3.251
450,14.40,-5.0762,-6.2424,0.1799,-0.0000,-0.0000,1.5035,flat,18.0,2,2.922
460,14.72,-5.0149,-5.7541,0.1799,-0.0001,-0.0000,1.2311,flat,18.0,2,2.512
470,15.04,-4.8196,-5.2821,0.1799,-0.0001,-0.0000,1.0553,flat,18.0,2,2.044
480,15.36,-4.5515,-4.8440,0.1798,-0.0002,0.0001,0.9691,flat,18.0,2,1.561
490,15.68,-4.2870,-4.4794,0.1797,-0.0002,0.0001,0.8919,flat,18.0,2,1.143
500,16.00,-4.0218,-4.1675,0.1797,-0.0001,-0.0001,0.8792,flat,18.0,3,10.658
510,16.32,-3.7447,-3.7684,0.1799,0.0000,-0.0000,1.0957,flat,18.0,3,10.197
520,16.64,-3.5320,-3.2917,0.1799,0.0001,-0.0000,1.2914,flat,18.0,3,9.681
530,16.96,-3.3986,-2.7611,0.1799,0.0003,-0.0001,1.4103,flat,18.0,3,9.134
540,17.28,-3.3150,-2.1989,0.1798,0.0001,-0.0000,1.4397,flat,18.0,3,8.570
550,17.60,-3.2388,-1.6366,0.1797,-0.0001,0.0000,1.4139,flat,18.0,3,8.009
560,17.92,-3.1459,-1.0842,0.1797,-0.0002,0.0000,1.3618,flat,18.0,3,7.453
570,18.24,-3.0231,-0.5381,0.1797,-0.0002,-0.0000,1.3089,flat,18.0,3,6.895
580,18.56,-2.8715,0.0034,0.1797,-0.0001,-0.0000,1.2698,flat,18.0,3,6.333
590,18.88,-2.6994,0.5430,0.1797,-0.0001,-0.0000,1.2449,flat,18.0,3,5.767
600,19.20,-2.5142,1.0829,0.1797,-0.0001,-0.0000,1.2317,flat,18.0,3,5.196
610,19.52,-2.3221,1.6243,0.1797,-0.0000,-0.0000,1.2277,flat,18.0,3,4.622
620,19.84,-2.1288,2.1661,0.1797,0.0000,0.0000,1.2295,flat,18.0,3,4.048
630,20.16,-1.9373,2.7075,0.1797,0.0000,0.0000,1.2346,flat,18.0,3,3.474
640,20.48,-1.7488,3.2498,0.1797,0.0000,-0.0000,1.2405,flat,18.0,3,2.901
650,20.80,-1.5635,3.7933,0.1797,0.0000,-0.0000,1.2457,flat,18.0,3,2.327
660,21.12,-1.3823,4.3327,0.1797,0.0000,0.0001,1.2493,flat,18.0,3,1.760
670,21.44,-1.2224,4.8141,0.1797,0.0000,0.0001,1.2510,flat,18.0,3,1.255
680,21.76,-1.0869,5.2234,0.1797,-0.0000,0.0001,1.2418,flat,18.0,0,10.139
690,22.08,-0.9663,5.5629,0.1798,-0.0000,0.0001,1.0808,flat,18.0,0,10.368
700,22.40,-0.8283,5.7627,0.1798,0.0002,0.0001,0.5571,flat,18.0,0,10.474
710,22.72,-0.6208,5.8744,0.1798,0.0003,-0.0002,-0.2569,flat,18.0,0,10.474
720,23.04,-0.3119,5.7343,0.1799,0.0002,-0.0001,-0.7932,flat,18.0,0,10.209
730,23.36,-0.0164,5.3560,0.1792,-0.0037,-0.0000,-1.0327,flat,18.0,0,9.739
740,23.68,0.2297,4.8871,0.1799,-0.0004,-0.0000,-1.1937,flat,18.0,0,9.210
750,24.00,0.4199,4.3656,0.1798,-0.0003,-0.0000,-1.2741,flat,18.0,0,8.658
760,24.32,0.5844,3.8186,0.1797,-0.0000,0.0000,-1.2771,flat,18.0,0,8.095
770,24.64,0.7512,3.2828,0.1797,0.0001,0.0000,-1.2374,flat,18.0,0,7.542
780,24.96,0.9407,2.7609,0.1797,0.0002,0.0000,-1.1778,flat,18.0,0,6.992
790,25.28,1.1619,2.2510,0.1797,0.0002,-0.0000,-1.1223,flat,18.0,0,6.438
800,25.60,1.4118,1.7501,0.1797,0.0001,-0.0000,-1.0814,flat,18.0,0,5.879
810,25.92,1.6824,1.2543,0.1797,0.0001,-0.0000,-1.0556,flat,18.0,0,5.314
820,26.24,1.9662,0.7600,0.1797,0.0001,-0.0000,-1.0418,flat,18.0,0,4.744
830,26.56,2.2571,0.2650,0.1797,0.0000,-0.0000,-1.0375,flat,18.0,0,4.170
840,26.88,2.5492,-0.2304,0.1797,-0.0000,0.0000,-1.0396,flat,18.0,0,3.596
850,27.20,2.8389,-0.7256,0.1797,-0.0000,0.0000,-1.0453,flat,18.0,0,3.022
860,27.52,3.1253,-1.2224,0.1797,-0.0000,0.0000,-1.0521,flat,18.0,0,2.450
870,27.84,3.4079,-1.7204,0.1797,-0.0000,0.0000,-1.0582,flat,18.0,0,1.878
880,28.16,3.6635,-2.1759,0.1797,-0.0000,0.0001,-1.0621,flat,18.0,0,1.357
890,28.48,3.8912,-2.5932,0.1797,-0.0001,-0.0001,-1.1128,flat,18.0,1,7.373
900,28.80,4.0756,-3.0219,0.1799,0.0001,0.0000,-1.4874,flat,18.0,1,7.165
910,29.12,4.0738,-3.4506,0.1799,0.0000,-0.0000,-1.9778,flat,18.0,1,6.851
920,29.44,3.8517,-3.8502,0.1799,0.0000,-0.0000,-2.2662,flat,18.0,1,6.411
930,29.76,3.5003,-4.2071,0.1799,-0.0001,-0.0000,-2.4412,flat,18.0,1,5.910
940,30.08,3.0740,-4.5321,0.1798,-0.0003,-0.0001,-2.5524,flat,18.0,1,5.379
950,30.40,2.5990,-4.8364,0.1798,-0.0001,-0.0000,-2.5860,flat,18.0,1,4.830
960,30.72,2.1228,-5.1381,0.1797,0.0001,0.0000,-2.5574,flat,18.0,1,4.286
970,31.04,1.6692,-5.4504,0.1797,0.0002,0.0000,-2.5007,flat,18.0,1,3.754
980,31.36,1.2429,-5.7874,0.1797,0.0002,0.0000,-2.4274,flat,18.0,1,3.226
990,31.68,0.8463,-6.1560,0.1798,0.0003,-0.0000,-2.3488,flat,18.0,1,2.694
1000,32.00,0.4743,-6.5580,0.1797,0.0002,-0.0000,-2.2805,flat,18.0,1,2.152
1010,32.32,0.1302,-6.9766,0.1797,0.0001,0.0001,-2.2395,flat,18.0,1,1.614
1020,32.64,-0.1621,-7.3545,0.1797,0.0001,0.0001,-2.2139,flat,18.0,1,1.140
1030,32.96,-0.4384,-7.7412,0.1797,0.0001,-0.0001,-2.1786,flat,18.0,2,4.749
1040,33.28,-0.7188,-8.1320,0.1797,-0.0001,0.0001,-2.2262,flat,18.0,2,4.916
1050,33.60,-0.9697,-8.4386,0.1797,-0.0002,0.0002,-2.3138,rough,14.0,2,5.060
1060,33.92,-1.1937,-8.6595,0.1797,-0.0002,0.0000,-2.4272,flat,18.0,2,5.163
1070,34.24,-1.4273,-8.8393,0.1797,-0.0002,0.0001,-2.5809,flat,18.0,2,5.241
1080,34.56,-1.6557,-8.9712,0.1797,-0.0002,0.0000,-2.7663,flat,18.0,2,5.290
1090,34.88,-1.8788,-9.0599,0.1797,-0.0002,0.0000,-2.9798,flat,18.0,2,5.311
1100,35.20,-2.0951,-9.1049,0.1797,-0.0002,0.0000,3.0686,flat,18.0,2,5.302
1110,35.52,-2.3027,-9.0976,0.1797,-0.0002,-0.0000,2.8724,flat,18.0,2,5.252
1120,35.84,-2.5063,-9.0434,0.1797,-0.0002,-0.0000,2.7187,flat,18.0,2,5.165
1130,36.16,-2.7104,-8.9461,0.1797,-0.0001,-0.0000,2.6051,flat,18.0,2,5.041
1140,36.48,-2.9244,-8.8094,0.1797,-0.0001,-0.0001,2.5139,flat,18.0,2,4.885
1150,36.80,-3.1544,-8.6307,0.1797,-0.0001,-0.0001,2.4408,flat,18.0,2,4.695
1160,37.12,-3.4068,-8.4054,0.1797,-0.0001,-0.0001,2.3818,flat,18.0,2,4.470
1170,37.44,-3.6879,-8.1263,0.1797,-0.0001,-0.0001,2.3378,flat,18.0,2,4.209
1180,37.76,-4.0065,-7.7858,0.1797,-0.0001,-0.0001,2.3105,flat,18.0,2,3.916
1190,38.08,-4.3700,-7.3835,0.1797,-0.0000,0.0000,2.3031,flat,18.0,2,3.614
1200,38.40,-4.6805,-7.0077,0.1799,0.0001,0.0000,2.1124,flat,18.0,2,3.374
1210,38.72,-4.8862,-6.5879,0.1799,-0.0000,-0.0000,1.7287,flat,18.0,2,3.099
1220,39.04,-4.9283,-6.1153,0.1799,-0.0000,-0.0000,1.3454,flat,18.0,2,2.731
1230,39.36,-4.7890,-5.6447,0.1799,-0.0000,-0.0000,1.1047,flat,18.0,2,2.278
1240,39.68,-4.5331,-5.1948,0.1799,-0.0003,0.0000,0.9720,flat,18.0,2,1.775
1250,40.00,-4.2486,-4.7956,0.1798,-0.0002,0.0001,0.9237,flat,18.0,2,1.293
1260,40.32,-3.9822,-4.4539,0.1797,-0.0001,0.0000,0.9114,flat,18.0,3,10.922
1270,40.64,-3.7133,-4.0507,0.1799,0.0000,-0.0000,1.1076,flat,18.0,3,10.461
1280,40.96,-3.5043,-3.5700,0.1799,0.0000,-0.0000,1.2974,flat,18.0,3,9.942
1290,41.28,-3.3733,-3.0377,0.1798,0.0003,-0.0001,1.4123,flat,18.0,3,9.394
1300,41.60,-3.2905,-2.4753,0.1798,0.0001,-0.0000,1.4412,flat,18.0,3,8.830
1310,41.92,-3.2153,-1.9121,0.1797,-0.0001,0.0000,1.4175,flat,18.0,3,8.267
1320,42.24,-3.1248,-1.3586,0.1797,-0.0002,0.0000,1.3693,flat,18.0,3,7.710
1330,42.56,-3.0062,-0.8106,0.1797,-0.0002,-0.0000,1.3191,flat,18.0,3,7.151
1340,42.88,-2.8604,-0.2667,0.1797,-0.0001,-0.0000,1.2824,flat,18.0,3,6.588
1350,43.20,-2.6952,0.2756,0.1797,-0.0001,-0.0000,1.2588,flat,18.0,3,6.021
1360,43.52,-2.5176,0.8184,0.1797,-0.0000,-0.0000,1.2462,flat,18.0,3,5.450
1370,43.84,-2.3334,1.3626,0.1797,-0.0000,-0.0000,1.2425,flat,18.0,3,4.876
1380,44.16,-2.1481,1.9072,0.1797,0.0000,0.0000,1.2443,flat,18.0,3,4.301
1390,44.48,-1.9646,2.4515,0.1797,0.0000,0.0000,1.2492,flat,18.0,3,3.728
1400,44.80,-1.7839,2.9965,0.1797,0.0000,-0.0000,1.2548,flat,18.0,3,3.154
1410,45.12,-1.6062,3.5428,0.1797,0.0000,-0.0000,1.2597,flat,18.0,3,2.581
1420,45.44,-1.4309,4.0903,0.1797,0.0000,-0.0000,1.2631,flat,18.0,3,2.007
1430,45.76,-1.2675,4.6054,0.1797,0.0000,0.0001,1.2650,flat,18.0,3,1.468
1440,46.08,-1.1266,5.0520,0.1797,0.0000,0.0001,1.2653,flat,18.0,3,1.003
1450,46.40,-1.0081,5.4239,0.1797,-0.0001,0.0001,1.2024,flat,18.0,0,10.269
1460,46.72,-0.8864,5.7153,0.1798,0.0001,0.0002,0.8969,flat,18.0,0,10.461
1470,47.04,-0.7300,5.8529,0.1798,0.0003,-0.0001,0.1559,flat,18.0,0,10.506
1480,47.36,-0.4633,5.8834,0.1798,0.0003,-0.0002,-0.5651,flat,18.0,0,10.410
1490,47.68,-0.1526,5.6004,0.1778,-0.0127,0.0001,-0.9294,flat,18.0,0,10.019
1500,48.00,0.1203,5.1679,0.1797,-0.0009,-0.0000,-1.1286,flat,18.0,0,9.510
1510,48.32,0.3321,4.6690,0.1799,-0.0004,-0.0000,-1.2553,flat,18.0,0,8.969
1520,48.64,0.4986,4.1283,0.1798,-0.0002,-0.0000,-1.2944,flat,18.0,0,8.410
1530,48.96,0.6557,3.5832,0.1797,0.0001,0.0000,-1.2708,flat,18.0,0,7.853
1540,49.28,0.8266,3.0538,0.1797,0.0002,0.0000,-1.2143,flat,18.0,0,7.304
1550,49.60,1.0286,2.5379,0.1797,0.0002,-0.0000,-1.1523,flat,18.0,0,6.754
1560,49.92,1.2630,2.0328,0.1797,0.0002,-0.0000,-1.1007,flat,18.0,0,6.198
1570,50.24,1.5238,1.5353,0.1797,0.0001,-0.0000,-1.0667,flat,18.0,0,5.636
1580,50.56,1.8019,1.0410,0.1797,0.0001,-0.0000,-1.0465,flat,18.0,0,5.069
1590,50.88,2.0904,0.5469,0.1797,0.0000,-0.0000,-1.0376,flat,18.0,0,4.497
1600,51.20,2.3832,0.0517,0.1797,0.0000,-0.0000,-1.0370,flat,18.0,0,3.923
1610,51.52,2.6746,-0.4430,0.1797,-0.0000,0.0000,-1.0414,flat,18.0,0,3.349
1620,51.84,2.9630,-0.9386,0.1797,-0.0000,0.0000,-1.0482,flat,18.0,0,2.776
1630,52.16,3.2478,-1.4362,0.1797,-0.0000,-0.0000,-1.0552,flat,18.0,0,2.204
1640,52.48,3.5229,-1.9239,0.1797,-0.0000,0.0001,-1.0601,flat,18.0,0,1.645
1650,52.80,3.7621,-2.3523,0.1797,-0.0000,0.0001,-1.0643,flat,18.0,0,1.155
1660,53.12,3.9812,-2.7794,0.1799,0.0001,0.0001,-1.2111,flat,18.0,1,7.286
1670,53.44,4.1118,-3.2040,0.1799,0.0001,-0.0000,-1.7193,flat,18.0,1,7.056
1680,53.76,4.0085,-3.6256,0.1799,0.0000,-0.0000,-2.1141,flat,18.0,1,6.681
1690,54.08,3.7241,-4.0066,0.1799,-0.0000,-0.0000,-2.3480,flat,18.0,1,6.210
1700,54.40,3.3380,-4.3489,0.1799,-0.0001,-0.0000,-2.4968,flat,18.0,1,5.695
1710,54.72,2.8881,-4.6621,0.1798,-0.0003,-0.0001,-2.5788,flat,18.0,1,5.156
1720,55.04,2.4046,-4.9629,0.1797,-0.0000,0.0000,-2.5827,flat,18.0,1,4.605
1730,55.36,1.9367,-5.2653,0.1797,0.0001,0.0000,-2.5405,flat,18.0,1,4.068
1740,55.68,1.4928,-5.5849,0.1797,0.0002,0.0000,-2.4749,flat,18.0,1,3.539
1750,56.00,1.0780,-5.9330,0.1798,0.0003,0.0000,-2.3971,flat,18.0,1,3.010
1760,56.32,0.6921,-6.3145,0.1798,0.0003,-0.0000,-2.3203,flat,18.0,1,2.475
1770,56.64,0.3285,-6.7283,0.1797,0.0002,-0.0000,-2.2582,flat,18.0,1,1.929
1780,56.96,0.0044,-7.1345,0.1797,0.0001,0.0001,-2.2295,flat,18.0,1,1.414
1790,57.28,-0.2688,-7.4966,0.1797,0.0001,0.0000,-2.1891,flat,18.0,2,0.964
1800,57.60,-0.5566,-7.9080,0.1797,0.0000,0.0000,-2.1917,flat,18.0,2,4.816
1810,57.92,-0.8235,-8.2662,0.1797,-0.0001,0.0001,-2.2564,flat,18.0,2,4.978
1820,58.24,-1.0526,-8.5268,0.1797,-0.0002,0.0001,-2.3526,flat,18.0,2,5.102
1830,58.56,-1.2883,-8.7386,0.1797,-0.0002,0.0001,-2.4839,flat,18.0,2,5.199
1840,58.88,-1.5194,-8.8984,0.1797,-0.0002,0.0000,-2.6508,flat,18.0,2,5.265
1850,59.20,-1.7455,-9.0127,0.1797,-0.0002,0.0000,-2.8479,flat,18.0,2,5.303
1860,59.52,-1.9658,-9.0846,0.1797,-0.0002,0.0000,-3.0719,flat,18.0,2,5.313
1870,59.84,-2.1783,-9.1093,0.1797,-0.0002,0.0000,2.9842,flat,18.0,2,5.288
1880,60.16,-2.3834,-9.0825,0.1797,-0.0002,-0.0000,2.8066,flat,18.0,2,5.223
1890,60.48,-2.5860,-9.0107,0.1797,-0.0001,-0.0000,2.6697,flat,18.0,2,5.121
1900,60.80,-2.7929,-8.8979,0.1797,-0.0001,-0.0000,2.5662,flat,18.0,2,4.985
1910,61.12,-3.0122,-8.7451,0.1797,-0.0001,-0.0001,2.4825,flat,18.0,2,4.815
1920,61.44,-3.2499,-8.5485,0.1797,-0.0001,-0.0001,2.4157,flat,18.0,2,4.612
1930,61.76,-3.5126,-8.3030,0.1797,-0.0001,-0.0001,2.3618,flat,18.0,2,4.372
1940,62.08,-3.8069,-8.0006,0.1797,-0.0001,-0.0001,2.3243,flat,18.0,2,4.097
1950,62.40,-4.1433,-7.6338,0.1797,-0.0001,-0.0001,2.3046,flat,18.0,2,3.796
1960,62.72,-4.5006,-7.2338,0.1797,-0.0001,0.0001,2.2690,flat,18.0,2,3.515
1970,63.04,-4.7720,-6.8525,0.1799,0.0001,-0.0000,1.9619,flat,18.0,2,3.274
1980,63.36,-4.9212,-6.4042,0.1799,-0.0000,-0.0000,1.5578,flat,18.0,2,2.963
1990,63.68,-4.8826,-5.9277,0.1799,-0.0001,-0.0000,1.2322,flat,18.0,2,2.555
2000,64.00,-4.6876,-5.4642,0.1799,-0.0001,-0.0000,1.0373,flat,18.0,2,2.076
2010,64.32,-4.4092,-5.0310,0.1798,-0.0002,0.0001,0.9479,flat,18.0,2,1.571
2020,64.64,-4.1311,-4.6560,0.1797,-0.0001,0.0001,0.9104,flat,18.0,2,1.113
2030,64.96,-3.8651,-4.3082,0.1798,0.0000,-0.0002,0.9779,flat,18.0,3,10.749
2040,65.28,-3.6135,-3.8671,0.1799,0.0001,-0.0000,1.1949,flat,18.0,3,10.257
2050,65.60,-3.4396,-3.3622,0.1799,0.0001,-0.0000,1.3587,flat,18.0,3,9.725
2060,65.92,-3.3352,-2.8147,0.1798,0.0003,-0.0000,1.4365,flat,18.0,3,9.169
2070,66.24,-3.2607,-2.2477,0.1797,0.0000,0.0000,1.4377,flat,18.0,3,8.602
2080,66.56,-3.1826,-1.6894,0.1797,-0.0001,0.0000,1.4011,flat,18.0,3,8.044
2090,66.88,-3.0819,-1.1383,0.1797,-0.0002,-0.0000,1.3480,flat,18.0,3,7.486
2100,67.20,-2.9516,-0.5922,0.1797,-0.0002,-0.0000,1.3016,flat,18.0,3,6.926
2110,67.52,-2.7967,-0.0495,0.1797,-0.0001,-0.0000,1.2710,flat,18.0,3,6.362
2120,67.84,-2.6255,0.4928,0.1797,-0.0001,-0.0000,1.2521,flat,18.0,3,5.793
2130,68.16,-2.4443,1.0361,0.1797,-0.0000,-0.0000,1.2436,flat,18.0,3,5.221
2140,68.48,-2.2590,1.5808,0.1797,-0.0000,-0.0000,1.2426,flat,18.0,3,4.646
2150,68.80,-2.0741,2.1251,0.1797,0.0000,0.0000,1.2460,flat,18.0,3,4.072
2160,69.12,-1.8917,2.6695,0.1797,0.0000,0.0000,1.2515,flat,18.0,3,3.498
2170,69.44,-1.7124,3.2150,0.1797,0.0000,-0.0000,1.2570,flat,18.0,3,2.925
2180,69.76,-1.5357,3.7618,0.1797,0.0000,-0.0000,1.2613,flat,18.0,3,2.351
2190,70.08,-1.3625,4.3053,0.1797,0.0000,0.0001,1.2641,flat,18.0,3,1.782
2200,70.40,-1.2086,4.7920,0.1797,0.0000,0.0001,1.2652,flat,18.0,3,1.274
2210,70.72,-1.0773,5.2085,0.1797,-0.0000,0.0001,1.2608,flat,18.0,0,10.121
2220,71.04,-0.9617,5.5565,0.1798,-0.0001,0.0001,1.1221,flat,18.0,0,10.360
2230,71.36,-0.8304,5.7776,0.1798,0.0002,0.0001,0.6497,flat,18.0,0,10.488
2240,71.68,-0.6381,5.8983,0.1798,0.0004,-0.0002,-0.1695,flat,18.0,0,10.503
2250,72.00,-0.3353,5.8001,0.1799,0.0002,-0.0001,-0.7547,flat,18.0,0,10.278
2260,72.32,-0.0373,5.4372,0.1790,-0.0048,-0.0001,-1.0165,flat,18.0,0,9.821
2270,72.64,0.2123,4.9748,0.1799,-0.0004,-0.0000,-1.1897,flat,18.0,0,9.296
2280,72.96,0.4020,4.4561,0.1798,-0.0004,-0.0001,-1.2813,flat,18.0,0,8.747
2290,73.28,0.5612,3.9079,0.1797,-0.0001,-0.0000,-1.2901,flat,18.0,0,8.185
2300,73.60,0.7209,3.3696,0.1797,0.0001,0.0000,-1.2508,flat,18.0,0,7.633
2310,73.92,0.9033,2.8458,0.1797,0.0002,0.0000,-1.1888,flat,18.0,0,7.084
2320,74.24,1.1187,2.3346,0.1797,0.0002,-0.0000,-1.1299,flat,18.0,0,6.532
2330,74.56,1.3648,1.8330,0.1797,0.0002,-0.0000,-1.0851,flat,18.0,0,5.974
2340,74.88,1.6335,1.3373,0.1797,0.0001,-0.0000,-1.0571,flat,18.0,0,5.410
2350,75.20,1.9165,0.8433,0.1797,0.0001,-0.0000,-1.0417,flat,18.0,0,4.841
2360,75.52,2.2074,0.3488,0.1797,0.0000,-0.0000,-1.0366,flat,18.0,0,4.268
2370,75.84,2.5001,-0.1463,0.1797,-0.0000,0.0000,-1.0383,flat,18.0,0,3.693
2380,76.16,2.7905,-0.6412,0.1797,-0.0000,0.0000,-1.0440,flat,18.0,0,3.120
2390,76.48,3.0774,-1.1375,0.1797,-0.0000,0.0000,-1.0511,flat,18.0,0,2.547
2400,76.80,3.3610,-1.6360,0.1797,-0.0000,-0.0000,-1.0577,flat,18.0,0,1.974
2410,77.12,3.6230,-2.1027,0.1797,-0.0000,0.0001,-1.0617,flat,18.0,0,1.440
2420,77.44,3.8515,-2.5158,0.1797,-0.0000,-0.0001,-1.0845,flat,18.0,1,0.970
2430,77.76,4.0525,-2.9481,0.1799,0.0001,0.0000,-1.3828,flat,18.0,1,7.205
2440,78.08,4.0988,-3.3762,0.1799,0.0001,-0.0000,-1.9033,flat,18.0,1,6.922
2450,78.40,3.9112,-3.7836,0.1799,0.0000,-0.0000,-2.2224,flat,18.0,1,6.500
2460,78.72,3.5788,-4.1474,0.1799,-0.0000,-0.0000,-2.4138,flat,18.0,1,6.008
2470,79.04,3.1644,-4.4773,0.1799,-0.0003,-0.0001,-2.5389,flat,18.0,1,5.482
2480,79.36,2.6961,-4.7824,0.1798,-0.0002,-0.0001,-2.5884,flat,18.0,1,4.936
2490,79.68,2.2148,-5.0828,0.1797,0.0000,0.0000,-2.5687,flat,18.0,1,4.389
2500,80.00,1.7558,-5.3903,0.1797,0.0002,0.0000,-2.5165,flat,18.0,1,3.856
2510,80.32,1.3233,-5.7204,0.1797,0.0002,0.0000,-2.4448,flat,18.0,1,3.328
2520,80.64,0.9204,-6.0815,0.1798,0.0003,-0.0000,-2.3653,flat,18.0,1,2.797
2530,80.96,0.5441,-6.4765,0.1797,0.0003,-0.0000,-2.2932,flat,18.0,1,2.258
2540,81.28,0.1923,-6.8961,0.1797,0.0002,0.0000,-2.2438,flat,18.0,1,1.715
2550,81.60,-0.1102,-7.2835,0.1797,0.0001,0.0001,-2.2189,flat,18.0,1,1.227
2560,81.92,-0.3799,-7.6548,0.1797,0.0001,-0.0002,-2.1768,flat,18.0,2,4.716
2570,82.24,-0.6668,-8.0612,0.1797,-0.0001,0.0001,-2.2123,flat,18.0,2,4.883
2580,82.56,-0.9239,-8.3868,0.1797,-0.0002,0.0001,-2.2937,rough,14.0,2,5.035
2590,82.88,-1.1468,-8.6181,0.1797,-0.0002,0.0000,-2.3996,flat,18.0,2,5.145
2600,83.20,-1.3813,-8.8083,0.1797,-0.0002,0.0001,-2.5468,flat,18.0,2,5.229
2610,83.52,-1.6104,-8.9493,0.1797,-0.0002,0.0000,-2.7262,flat,18.0,2,5.283
2620,83.84,-1.8344,-9.0466,0.1797,-0.0002,0.0000,-2.9344,flat,18.0,2,5.310
2630,84.16,-2.0520,-9.1011,0.1797,-0.0002,0.0000,3.1150,flat,18.0,2,5.308
2640,84.48,-2.2609,-9.1043,0.1797,-0.0002,0.0000,2.9079,flat,18.0,2,5.267
2650,84.80,-2.4646,-9.0591,0.1797,-0.0002,-0.0000,2.7466,flat,18.0,2,5.187
2660,85.12,-2.6676,-8.9703,0.1797,-0.0001,-0.0000,2.6257,flat,18.0,2,5.070
2670,85.44,-2.8788,-8.8418,0.1797,-0.0001,-0.0001,2.5305,flat,18.0,2,4.921
2680,85.76,-3.1047,-8.6720,0.1797,-0.0001,-0.0001,2.4539,flat,18.0,2,4.738
2690,86.08,-3.3516,-8.4567,0.1797,-0.0001,-0.0001,2.3923,flat,18.0,2,4.520
2700,86.40,-3.6260,-8.1893,0.1797,-0.0001,-0.0001,2.3449,flat,18.0,2,4.266
2710,86.72,-3.9356,-7.8621,0.1797,-0.0001,-0.0001,2.3139,flat,18.0,2,3.979
2720,87.04,-4.2928,-7.4676,0.1797,-0.0000,-0.0001,2.3029,flat,18.0,2,3.673
2730,87.36,-4.6213,-7.0848,0.1798,0.0000,0.0001,2.1791,flat,18.0,2,3.421
2740,87.68,-4.8498,-6.6807,0.1799,0.0000,-0.0000,1.8061,flat,18.0,2,3.160
2750,88.00,-4.9288,-6.2136,0.1799,-0.0000,-0.0000,1.4066,flat,18.0,2,2.810
2760,88.32,-4.8194,-5.7401,0.1799,-0.0000,-0.0000,1.1418,flat,18.0,2,2.370
2770,88.64,-4.5803,-5.2847,0.1799,-0.0002,-0.0000,0.9876,flat,18.0,2,1.872
2780,88.96,-4.2949,-4.8734,0.1798,-0.0002,0.0001,0.9321,flat,18.0,2,1.380
2790,89.28,-4.0267,-4.5234,0.1797,-0.0001,0.0001,0.9004,flat,18.0,3,11.001
2800,89.60,-3.7573,-4.1406,0.1799,-0.0001,-0.0000,1.0686,flat,18.0,3,10.559
2810,89.92,-3.5340,-3.6717,0.1799,0.0000,-0.0000,1.2692,flat,18.0,3,10.048
