step,time_s,x,y,z,roll,pitch,yaw,terrain,speed,target_idx,dist_to_target
10,0.32,-0.0500,1.4500,0.1830,-0.0000,-0.0361,-0.0000,rough,14.0,0,8.047
20,0.64,0.3811,1.4362,0.1798,-0.0000,-0.0010,-0.1493,flat,18.0,0,7.754
30,0.96,0.9014,1.3338,0.1799,-0.0001,-0.0000,-0.3408,flat,18.0,0,7.349
40,1.28,1.4023,1.1335,0.1799,-0.0002,-0.0000,-0.4782,flat,18.0,0,6.893
50,1.60,1.8778,0.8652,0.1798,-0.0004,-0.0000,-0.5826,flat,18.0,0,6.405
60,1.92,2.3308,0.5471,0.1798,-0.0003,-0.0000,-0.6579,flat,18.0,0,5.896
70,2.24,2.7611,0.1955,0.1797,-0.0002,-0.0000,-0.7249,flat,18.0,0,5.377
80,2.56,3.1672,-0.1852,0.1797,-0.0002,-0.0000,-0.7883,flat,18.0,0,4.851
90,2.88,3.5492,-0.5915,0.1797,-0.0002,-0.0000,-0.8482,flat,18.0,0,4.320
100,3.20,3.9080,-1.0209,0.1797,-0.0002,-0.0000,-0.9066,flat,18.0,0,3.783
110,3.52,4.2430,-1.4711,0.1797,-0.0002,-0.0000,-0.9645,flat,18.0,0,3.242
120,3.84,4.5529,-1.9405,0.1797,-0.0002,-0.0000,-1.0233,flat,18.0,0,2.699
130,4.16,4.8366,-2.4273,0.1797,-0.0002,-0.0000,-1.0855,flat,18.0,0,2.154
140,4.48,5.0893,-2.9303,0.1797,-0.0003,0.0000,-1.1558,flat,18.0,0,1.610
150,4.80,5.3045,-3.4479,0.1798,-0.0004,0.0000,-1.2458,flat,18.0,0,1.073
160,5.12,5.4402,-3.9205,0.1796,-0.0004,-0.0006,-1.4090,flat,18.0,1,12.256
170,5.44,5.4364,-4.2443,0.1799,-0.0001,-0.0002,-1.8731,flat,18.0,1,12.557
180,5.76,5.2792,-4.5622,0.1798,0.0001,-0.0000,-2.3887,flat,18.0,1,12.802
190,6.08,4.9594,-4.7907,0.1799,0.0001,-0.0000,-2.8135,flat,18.0,1,12.916
200,6.40,4.5563,-4.9006,0.1799,-0.0000,-0.0001,3.0731,flat,18.0,1,12.905
210,6.72,4.0980,-4.8415,0.1799,-0.0002,-0.0000,2.7746,flat,18.0,1,12.729
220,7.04,3.6468,-4.6317,0.1799,-0.0001,-0.0000,2.5540,flat,18.0,1,12.423
230,7.36,3.2308,-4.3117,0.1799,-0.0001,-0.0000,2.3904,flat,18.0,1,12.027
240,7.68,2.8570,-3.9219,0.1799,-0.0003,-0.0000,2.2681,flat,18.0,1,11.579
250,8.00,2.5219,-3.4856,0.1798,-0.0004,-0.0000,2.1615,flat,18.0,1,11.098
260,8.32,2.2267,-3.0134,0.1798,-0.0004,-0.0000,2.0697,flat,18.0,1,10.592
270,8.64,1.9702,-2.5141,0.1798,-0.0004,-0.0000,1.9911,flat,18.0,1,10.069
280,8.96,1.7498,-1.9947,0.1797,-0.0003,-0.0000,1.9239,flat,18.0,1,9.533
290,9.28,1.5620,-1.4604,0.1797,-0.0002,-0.0000,1.8664,flat,18.0,1,8.987
300,9.60,1.4038,-0.9151,0.1797,-0.0002,-0.0000,1.8171,flat,18.0,1,8.434
310,9.92,1.2710,-0.3628,0.1797,-0.0001,-0.0000,1.7766,flat,18.0,1,7.877
320,10.24,1.1594,0.1949,0.1797,-0.0001,-0.0000,1.7418,flat,18.0,1,7.316
330,10.56,1.0665,0.7569,0.1797,-0.0001,-0.0000,1.7110,flat,18.0,1,6.753
340,10.88,0.9902,1.3221,0.1797,-0.0001,-0.0000,1.6836,flat,18.0,1,6.188
350,11.20,0.9290,1.8897,0.1797,-0.0001,-0.0000,1.6590,flat,18.0,1,5.621
360,11.52,0.8814,2.4592,0.1797,-0.0001,-0.0000,1.6366,flat,18.0,1,5.052
370,11.84,0.8462,3.0299,0.1797,-0.0001,-0.0000,1.6162,flat,18.0,1,4.483
380,12.16,0.8225,3.6015,0.1797,-0.0001,-0.0000,1.5971,flat,18.0,1,3.913
390,12.48,0.8096,4.1736,0.1797,-0.0001,-0.0000,1.5789,flat,18.0,1,3.343
400,12.80,0.8070,4.7459,0.1797,-0.0001,-0.0000,1.5612,flat,18.0,1,2.772
410,13.12,0.8145,5.3181,0.1797,-0.0001,0.0000,1.5432,flat,18.0,1,2.201
420,13.44,0.8323,5.8897,0.1797,-0.0001,0.0000,1.5238,flat,18.0,1,1.631
430,13.76,0.8616,6.4596,0.1797,-0.0001,0.0000,1.4997,flat,18.0,1,1.062
440,14.08,0.8889,7.0098,0.1798,-0.0003,0.0000,1.5981,flat,18.0,2,14.810
450,14.40,0.8552,7.4835,0.1798,-0.0003,0.0001,1.9720,flat,18.0,2,15.174
460,14.72,0.6647,7.8042,0.1799,-0.0001,-0.0000,2.3934,flat,18.0,2,15.330
470,15.04,0.3413,8.0379,0.1799,-0.0001,-0.0001,2.7601,flat,18.0,2,15.349
480,15.36,-0.0893,8.1790,0.1799,0.0000,-0.0000,3.0999,flat,18.0,2,15.243
490,15.68,-0.5796,8.1734,0.1799,0.0000,-0.0000,-2.9084,flat,18.0,2,14.993
500,16.00,-1.0763,8.0290,0.1799,0.0001,-0.0000,-2.7095,flat,18.0,2,14.629
510,16.32,-1.5509,7.7822,0.1799,0.0002,-0.0000,-2.5661,flat,18.0,2,14.193
520,16.64,-1.9966,7.4667,0.1798,0.0004,-0.0000,-2.4660,flat,18.0,2,13.714
530,16.96,-2.4170,7.1072,0.1798,0.0003,-0.0000,-2.3911,flat,18.0,2,13.210
540,17.28,-2.8117,6.7158,0.1797,0.0002,-0.0000,-2.3247,flat,18.0,2,12.692
550,17.60,-3.1833,6.2981,0.1797,0.0002,-0.0000,-2.2662,flat,18.0,2,12.162
560,17.92,-3.5330,5.8586,0.1797,0.0002,-0.0000,-2.2155,flat,18.0,2,11.622
570,18.24,-3.8631,5.4024,0.1797,0.0002,-0.0000,-2.1725,flat,18.0,2,11.076
580,18.56,-4.1758,4.9316,0.1797,0.0001,-0.0000,-2.1343,flat,18.0,2,10.525
590,18.88,-4.4723,4.4484,0.1797,0.0001,-0.0000,-2.1003,flat,18.0,2,9.969
600,19.20,-4.7538,3.9549,0.1797,0.0001,-0.0000,-2.0700,flat,18.0,2,9.409
610,19.52,-5.0215,3.4526,0.1797,0.0001,-0.0000,-2.0430,flat,18.0,2,8.846
620,19.84,-5.2765,2.9428,0.1797,0.0001,-0.0000,-2.0186,flat,18.0,2,8.282
630,20.16,-5.5198,2.4266,0.1797,0.0001,-0.0000,-1.9967,flat,18.0,2,7.715
640,20.48,-5.7525,1.9048,0.1797,0.0001,-0.0000,-1.9768,flat,18.0,2,7.148
650,20.80,-5.9754,1.3783,0.1797,0.0001,-0.0000,-1.9587,flat,18.0,2,6.579
660,21.12,-6.1891,0.8475,0.1797,0.0001,-0.0000,-1.9421,flat,18.0,2,6.009
670,21.44,-6.3944,0.3131,0.1797,0.0001,-0.0000,-1.9267,flat,18.0,2,5.438
680,21.76,-6.5917,-0.2246,0.1797,0.0001,-0.0000,-1.9123,flat,18.0,2,4.867
690,22.08,-6.7814,-0.7652,0.1797,0.0000,-0.0000,-1.8986,flat,18.0,2,4.296
700,22.40,-6.9639,-1.3085,0.1797,0.0000,-0.0000,-1.8853,flat,18.0,2,3.724
710,22.72,-7.1393,-1.8541,0.1797,0.0000,-0.0000,-1.8723,flat,18.0,2,3.152
720,23.04,-7.3075,-2.4019,0.1797,0.0000,0.0000,-1.8589,flat,18.0,2,2.580
730,23.36,-7.4683,-2.9518,0.1797,0.0001,0.0000,-1.8445,flat,18.0,2,2.008
740,23.68,-7.6208,-3.5034,0.1797,0.0001,0.0000,-1.8276,flat,18.0,2,1.437
750,24.00,-7.7631,-4.0564,0.1797,0.0001,0.0000,-1.8040,flat,18.0,2,0.868
760,24.32,-7.8775,-4.5583,0.1798,-0.0003,0.0002,-1.7590,flat,18.0,0,13.222
770,24.64,-7.9338,-4.9625,0.1799,-0.0002,-0.0000,-1.3485,flat,18.0,0,13.286
780,24.96,-7.8093,-5.3733,0.1799,-0.0001,-0.0001,-1.0307,flat,18.0,0,13.182
790,25.28,-7.5268,-5.7593,0.1799,0.0000,-0.0000,-0.7989,flat,18.0,0,12.931
800,25.60,-7.1375,-6.0997,0.1799,0.0000,-0.0000,-0.6108,flat,18.0,0,12.582
810,25.92,-6.6776,-6.3842,0.1799,0.0001,-0.0000,-0.4444,flat,18.0,0,12.166
820,26.24,-6.1706,-6.6019,0.1799,0.0002,-0.0000,-0.3059,flat,18.0,0,11.702
830,26.56,-5.6343,-6.7554,0.1799,0.0004,-0.0000,-0.1928,flat,18.0,0,11.204
840,26.88,-5.0811,-6.8518,0.1798,0.0004,-0.0000,-0.1004,flat,18.0,0,10.683
850,27.20,-4.5189,-6.8994,0.1798,0.0003,-0.0000,-0.0248,flat,18.0,0,10.146
860,27.52,-3.9529,-6.9059,0.1797,0.0002,-0.0000,0.0359,flat,18.0,0,9.599
870,27.84,-3.3870,-6.8800,0.1797,0.0002,-0.0000,0.0823,flat,18.0,0,9.045
880,28.16,-2.8219,-6.8286,0.1797,0.0001,-0.0000,0.1196,flat,18.0,0,8.487
890,28.48,-2.2581,-6.7568,0.1797,0.0001,-0.0000,0.1508,flat,18.0,0,7.925
900,28.80,-1.6958,-6.6677,0.1797,0.0001,-0.0000,0.1776,flat,18.0,0,7.361
910,29.12,-1.1353,-6.5639,0.1797,0.0001,-0.0000,0.2007,flat,18.0,0,6.795
920,29.44,-0.5768,-6.4473,0.1797,0.0001,-0.0000,0.2212,flat,18.0,0,6.227
930,29.76,-0.0202,-6.3195,0.1797,0.0001,-0.0000,0.2394,flat,18.0,0,5.658
940,30.08,0.5344,-6.1816,0.1797,0.0001,-0.0000,0.2559,flat,18.0,0,5.089
950,30.40,1.0870,-6.0347,0.1797,0.0001,-0.0000,0.2711,flat,18.0,0,4.519
960,30.72,1.6375,-5.8794,0.1797,0.0001,-0.0000,0.2854,flat,18.0,0,3.948
970,31.04,2.1859,-5.7163,0.1797,0.0000,-0.0000,0.2992,flat,18.0,0,3.378
980,31.36,2.7319,-5.5456,0.1797,0.0000,0.0000,0.3129,flat,18.0,0,2.807
990,31.68,3.2754,-5.3675,0.1797,0.0000,0.0000,0.3270,flat,18.0,0,2.236
1000,32.00,3.8157,-5.1817,0.1797,0.0001,0.0000,0.3428,flat,18.0,0,1.666
1010,32.32,4.3516,-4.9873,0.1797,0.0001,0.0000,0.3628,flat,18.0,0,1.097
1020,32.64,4.8488,-4.7983,0.1798,-0.0000,0.0002,0.4732,flat,18.0,1,12.890
1030,32.96,5.2230,-4.5636,0.1799,0.0000,-0.0000,0.7430,flat,18.0,1,12.784
1040,33.28,5.5396,-4.2060,0.1799,0.0000,-0.0000,0.9850,flat,18.0,1,12.558
1050,33.60,5.7952,-3.7567,0.1799,0.0000,-0.0000,1.2056,flat,18.0,1,12.237
1060,33.92,5.9644,-3.2446,0.1799,0.0001,-0.0000,1.3984,flat,18.0,1,11.837
1070,34.24,6.0407,-2.6991,0.1799,0.0001,-0.0000,1.5568,flat,18.0,1,11.377
1080,34.56,6.0341,-2.1432,0.1799,0.0003,-0.0000,1.6758,flat,18.0,1,10.878
1090,34.88,5.9649,-1.5888,0.1798,0.0004,-0.0000,1.7626,flat,18.0,1,10.356
1100,35.20,5.8492,-1.0396,0.1797,0.0003,-0.0000,1.8293,flat,18.0,1,9.820
1110,35.52,5.6980,-0.4969,0.1797,0.0002,-0.0000,1.8826,flat,18.0,1,9.274
1120,35.84,5.5183,0.0386,0.1797,0.0002,-0.0000,1.9252,flat,18.0,1,8.721
1130,36.16,5.3164,0.5670,0.1797,0.0001,-0.0000,1.9597,flat,18.0,1,8.165
1140,36.48,5.0965,1.0895,0.1797,0.0001,-0.0000,1.9896,flat,18.0,1,7.606
1150,36.80,4.8611,1.6063,0.1797,0.0001,-0.0000,2.0158,flat,18.0,1,7.044
1160,37.12,4.6122,2.1176,0.1797,0.0001,-0.0000,2.0392,flat,18.0,1,6.480
1170,37.44,4.3514,2.6237,0.1797,0.0001,-0.0000,2.0602,flat,18.0,1,5.914
1180,37.76,4.0801,3.1248,0.1797,0.0001,-0.0000,2.0795,flat,18.0,1,5.348
1190,38.08,3.7990,3.6210,0.1797,0.0001,-0.0000,2.0974,flat,18.0,1,4.780
1200,38.40,3.5092,4.1123,0.1797,0.0001,-0.0000,2.1144,flat,18.0,1,4.212
1210,38.72,3.2109,4.5989,0.1797,0.0001,-0.0000,2.1307,flat,18.0,1,3.644
1220,39.04,2.9048,5.0805,0.1797,0.0001,-0.0000,2.1470,flat,18.0,1,3.075
1230,39.36,2.5908,5.5569,0.1797,0.0001,0.0000,2.1638,flat,18.0,1,2.507
1240,39.68,2.2689,6.0273,0.1797,0.0001,0.0000,2.1820,flat,18.0,1,1.939
1250,40.00,1.9384,6.4903,0.1797,0.0001,0.0000,2.2038,flat,18.0,1,1.373
1260,40.32,1.5983,6.9425,0.1797,0.0001,0.0000,2.2347,flat,18.0,1,0.811
1270,40.64,1.3064,7.2597,0.1799,-0.0003,0.0000,2.5366,flat,18.0,2,15.260
1280,40.96,0.9318,7.4701,0.1799,-0.0000,-0.0000,2.8811,flat,18.0,2,15.208
1290,41.28,0.4641,7.5669,0.1799,0.0000,-0.0000,-3.0926,flat,18.0,2,15.021
1300,41.60,-0.0413,7.5177,0.1799,0.0000,-0.0000,-2.8569,flat,18.0,2,14.705
1310,41.92,-0.5419,7.3462,0.1799,0.0001,-0.0000,-2.6872,flat,18.0,2,14.296
1320,42.24,-0.9799,7.1110,0.1798,0.0001,0.0001,-2.5808,rough,14.0,2,13.871
1330,42.56,-1.3433,6.8697,0.1798,0.0002,-0.0004,-2.5092,flat,18.0,2,13.483
1340,42.88,-1.7796,6.5287,0.1798,0.0003,-0.0001,-2.4354,flat,18.0,2,12.974
1350,43.20,-2.1931,6.1557,0.1797,0.0002,-0.0000,-2.3727,flat,18.0,2,12.452
1360,43.52,-2.5852,5.7566,0.1797,0.0002,-0.0000,-2.3187,flat,18.0,2,11.919
1370,43.84,-2.9575,5.3366,0.1797,0.0002,-0.0000,-2.2718,flat,18.0,2,11.378
1380,44.16,-3.3126,4.8998,0.1797,0.0001,-0.0000,-2.2314,flat,18.0,2,10.831
1390,44.48,-3.6521,4.4483,0.1797,0.0001,-0.0000,-2.1952,flat,18.0,2,10.279
1400,44.80,-3.9771,3.9842,0.1797,0.0001,-0.0000,-2.1628,flat,18.0,2,9.723
1410,45.12,-4.2884,3.5093,0.1797,0.0001,-0.0000,-2.1337,flat,18.0,2,9.163
1420,45.44,-4.5871,3.0252,0.1797,0.0001,-0.0000,-2.1074,flat,18.0,2,8.601
1430,45.76,-4.8740,2.5329,0.1797,0.0001,-0.0000,-2.0836,flat,18.0,2,8.036
1440,46.08,-5.1500,2.0337,0.1797,0.0001,-0.0000,-2.0620,flat,18.0,2,7.470
1450,46.40,-5.4158,1.5283,0.1797,0.0001,-0.0000,-2.0423,flat,18.0,2,6.903
1460,46.72,-5.6722,1.0175,0.1797,0.0001,-0.0000,-2.0241,flat,18.0,2,6.334
1470,47.04,-5.9198,0.5020,0.1797,0.0001,-0.0000,-2.0073,flat,18.0,2,5.765
1480,47.36,-6.1590,-0.0179,0.1797,0.0001,-0.0000,-1.9916,flat,18.0,2,5.195
1490,47.68,-6.3904,-0.5415,0.1797,0.0001,-0.0000,-1.9767,flat,18.0,2,4.624
1500,48.00,-6.6141,-1.0686,0.1797,0.0001,-0.0000,-1.9624,flat,18.0,2,4.053
1510,48.32,-6.8305,-1.5990,0.1797,0.0000,-0.0000,-1.9484,flat,18.0,2,3.482
1520,48.64,-7.0394,-2.1323,0.1797,0.0000,-0.0000,-1.9343,flat,18.0,2,2.910
1530,48.96,-7.2408,-2.6684,0.1797,0.0001,0.0000,-1.9195,flat,18.0,2,2.339
1540,49.28,-7.4340,-3.2071,0.1797,0.0001,0.0000,-1.9031,flat,18.0,2,1.768
1550,49.60,-7.6176,-3.7482,0.1797,0.0001,0.0000,-1.8825,flat,18.0,2,1.198
1560,49.92,-7.7831,-4.2845,0.1797,0.0001,0.0001,-1.8919,flat,18.0,3,0.878
1570,50.24,-7.9114,-4.7259,0.1798,-0.0004,0.0001,-1.6409,flat,18.0,0,13.258
1580,50.56,-7.9153,-5.1208,0.1799,0.0002,-0.0000,-1.2353,flat,18.0,0,13.274
1590,50.88,-7.7334,-5.5280,0.1799,0.0001,-0.0000,-0.9478,flat,18.0,0,13.117
1600,51.20,-7.4096,-5.8992,0.1799,0.0001,-0.0000,-0.7345,flat,18.0,0,12.829
1610,51.52,-6.9941,-6.2228,0.1799,0.0001,-0.0000,-0.5520,flat,18.0,0,12.456
1620,51.84,-6.5160,-6.4850,0.1799,0.0001,-0.0000,-0.3941,flat,18.0,0,12.022
1630,52.16,-5.9973,-6.6802,0.1799,0.0002,-0.0000,-0.2643,flat,18.0,0,11.546
1640,52.48,-5.4541,-6.8130,0.1798,0.0004,-0.0000,-0.1585,flat,18.0,0,11.040
1650,52.80,-4.8971,-6.8914,0.1798,0.0004,-0.0000,-0.0720,flat,18.0,0,10.513
1660,53.12,-4.3330,-6.9236,0.1798,0.0003,-0.0000,-0.0011,flat,18.0,0,9.972
1670,53.44,-3.7670,-6.9174,0.1797,0.0002,-0.0000,0.0540,flat,18.0,0,9.422
1680,53.76,-3.2012,-6.8815,0.1797,0.0002,-0.0000,0.0973,flat,18.0,0,8.866
1690,54.08,-2.6366,-6.8219,0.1797,0.0001,-0.0000,0.1322,flat,18.0,0,8.307
1700,54.40,-2.0734,-6.7431,0.1797,0.0001,-0.0000,0.1618,flat,18.0,0,7.744
1710,54.72,-1.5119,-6.6479,0.1797,0.0001,-0.0000,0.1872,flat,18.0,0,7.179
1720,55.04,-0.9523,-6.5388,0.1797,0.0001,-0.0000,0.2094,flat,18.0,0,6.613
1730,55.36,-0.3945,-6.4174,0.1797,0.0001,-0.0000,0.2290,flat,18.0,0,6.045
1740,55.68,0.1612,-6.2852,0.1797,0.0001,-0.0000,0.2466,flat,18.0,0,5.476
1750,56.00,0.7149,-6.1434,0.1797,0.0001,-0.0000,0.2627,flat,18.0,0,4.906
1760,56.32,1.2666,-5.9927,0.1797,0.0001,-0.0000,0.2775,flat,18.0,0,4.336
1770,56.64,1.8161,-5.8339,0.1797,0.0001,-0.0000,0.2916,flat,18.0,0,3.765
1780,56.96,2.3635,-5.6674,0.1797,0.0000,-0.0000,0.3053,flat,18.0,0,3.194
1790,57.28,2.9084,-5.4934,0.1797,0.0000,0.0000,0.3190,flat,18.0,0,2.623
1800,57.60,3.4506,-5.3120,0.1797,0.0001,0.0000,0.3335,flat,18.0,0,2.053
1810,57.92,3.9894,-5.1226,0.1797,0.0001,0.0000,0.3503,flat,18.0,0,1.483
1820,58.24,4.5230,-4.9242,0.1797,0.0001,0.0000,0.3728,flat,18.0,0,0.916
1830,58.56,4.9810,-4.7350,0.1799,-0.0003,0.0000,0.5520,flat,18.0,1,12.870
1840,58.88,5.3331,-4.4626,0.1799,0.0000,-0.0000,0.8203,flat,18.0,1,12.726
1850,59.20,5.6341,-4.0735,0.1799,0.0000,-0.0000,1.0560,flat,18.0,1,12.469
1860,59.52,5.8646,-3.6015,0.1799,0.0001,-0.0000,1.2685,flat,18.0,1,12.122
1870,59.84,6.0047,-3.0760,0.1799,0.0001,-0.0000,1.4513,flat,18.0,1,11.701
1880,60.16,6.0534,-2.5252,0.1799,0.0001,-0.0000,1.5989,flat,18.0,1,11.227
1890,60.48,6.0249,-1.9692,0.1798,0.0004,-0.0000,1.7059,flat,18.0,1,10.720
1900,60.80,5.9396,-1.4162,0.1798,0.0004,-0.0000,1.7856,flat,18.0,1,10.192
1910,61.12,5.8116,-0.8690,0.1797,0.0002,-0.0000,1.8476,flat,18.0,1,9.653
1920,61.44,5.6506,-0.3285,0.1797,0.0002,-0.0000,1.8975,flat,18.0,1,9.105
1930,61.76,5.4631,0.2045,0.1797,0.0001,-0.0000,1.9370,flat,18.0,1,8.551
1940,62.08,5.2551,0.7309,0.1797,0.0001,-0.0000,1.9700,flat,18.0,1,7.994
1950,62.40,5.0298,1.2515,0.1797,0.0001,-0.0000,1.9986,flat,18.0,1,7.433
1960,62.72,4.7897,1.7664,0.1797,0.0001,-0.0000,2.0239,flat,18.0,1,6.871
1970,63.04,4.5367,2.2759,0.1797,0.0001,-0.0000,2.0465,flat,18.0,1,6.306
1980,63.36,4.2723,2.7803,0.1797,0.0001,-0.0000,2.0670,flat,18.0,1,5.740
1990,63.68,3.9975,3.2797,0.1797,0.0001,-0.0000,2.0858,flat,18.0,1,5.174
2000,64.00,3.7134,3.7742,0.1797,0.0001,-0.0000,2.1033,flat,18.0,1,4.606
2010,64.32,3.4206,4.2640,0.1797,0.0001,-0.0000,2.1201,flat,18.0,1,4.038
2020,64.64,3.1196,4.7489,0.1797,0.0001,-0.0000,2.1364,flat,18.0,1,3.469
2030,64.96,2.8107,5.2287,0.1797,0.0001,0.0000,2.1527,flat,18.0,1,2.901
2040,65.28,2.4940,5.7031,0.1797,0.0001,0.0000,2.1698,flat,18.0,1,2.332
2050,65.60,2.1693,6.1712,0.1797,0.0001,0.0000,2.1888,flat,18.0,1,1.765
2060,65.92,1.8357,6.6312,0.1797,0.0001,0.0000,2.2124,flat,18.0,1,1.200
2070,66.24,1.5013,7.0693,0.1797,0.0001,0.0003,2.2855,flat,18.0,2,15.228
2080,66.56,1.2042,7.3338,0.1799,-0.0002,-0.0000,2.6433,flat,18.0,2,15.258
2090,66.88,0.7962,7.5167,0.1799,0.0000,-0.0000,2.9794,flat,18.0,2,15.168
2100,67.20,0.3112,7.5693,0.1799,0.0001,-0.0000,-3.0135,flat,18.0,2,14.939
2110,67.52,-0.1960,7.4793,0.1799,0.0001,-0.0000,-2.8012,flat,18.0,2,14.590
2120,67.84,-0.6904,7.2783,0.1799,0.0001,-0.0000,-2.6458,flat,18.0,2,14.162
2130,68.16,-1.1019,7.0398,0.1798,0.0002,0.0002,-2.5605,rough,14.0,2,13.749
2140,68.48,-1.4897,6.7691,0.1798,0.0002,-0.0003,-2.4858,flat,18.0,2,13.324
2150,68.80,-1.9202,6.4183,0.1797,0.0002,-0.0000,-2.4174,flat,18.0,2,12.811
2160,69.12,-2.3276,6.0377,0.1797,0.0002,-0.0000,-2.3569,flat,18.0,2,12.286
2170,69.44,-2.7139,5.6323,0.1797,0.0002,-0.0000,-2.3046,flat,18.0,2,11.750
2180,69.76,-3.0809,5.2073,0.1797,0.0002,-0.0000,-2.2596,flat,18.0,2,11.208
2190,70.08,-3.4313,4.7660,0.1797,0.0001,-0.0000,-2.2203,flat,18.0,2,10.660
2200,70.40,-3.7664,4.3106,0.1797,0.0001,-0.0000,-2.1850,flat,18.0,2,10.106
2210,70.72,-4.0870,3.8431,0.1797,0.0001,-0.0000,-2.1534,flat,18.0,2,9.549
2220,71.04,-4.3942,3.3652,0.1797,0.0001,-0.0000,-2.1249,flat,18.0,2,8.989
2230,71.36,-4.6889,2.8783,0.1797,0.0001,-0.0000,-2.0993,flat,18.0,2,8.426
2240,71.68,-4.9720,2.3837,0.1797,0.0001,-0.0000,-2.0760,flat,18.0,2,7.861
2250,72.00,-5.2444,1.8823,0.1797,0.0001,-0.0000,-2.0548,flat,18.0,2,7.295
2260,72.32,-5.5068,1.3750,0.1797,0.0001,-0.0000,-2.0355,flat,18.0,2,6.727
2270,72.64,-5.7598,0.8624,0.1797,0.0001,-0.0000,-2.0176,flat,18.0,2,6.158
2280,72.96,-6.0041,0.3452,0.1797,0.0001,-0.0000,-2.0010,flat,18.0,2,5.589
2290,73.28,-6.2402,-0.1761,0.1797,0.0001,-0.0000,-1.9855,flat,18.0,2,5.019
2300,73.60,-6.4684,-0.7012,0.1797,0.0001,-0.0000,-1.9707,flat,18.0,2,4.448
2310,73.92,-6.6891,-1.2297,0.1797,0.0001,-0.0000,-1.9564,flat,18.0,2,3.877
2320,74.24,-6.9023,-1.7613,0.1797,0.0000,-0.0000,-1.9424,flat,18.0,2,3.305
2330,74.56,-7.1080,-2.2958,0.1797,0.0001,0.0000,-1.9280,flat,18.0,2,2.734
2340,74.88,-7.3059,-2.8330,0.1797,0.0001,0.0000,-1.9128,flat,18.0,2,2.163
2350,75.20,-7.4953,-3.3729,0.1797,0.0001,0.0000,-1.8953,flat,18.0,2,1.592
2360,75.52,-7.6744,-3.9150,0.1797,0.0001,0.0000,-1.8723,flat,18.0,2,1.023
2370,75.84,-7.8330,-4.4327,0.1799,-0.0001,0.0003,-1.9254,flat,18.0,0,13.178
2380,76.16,-7.9442,-4.8344,0.1799,-0.0002,0.0000,-1.5115,flat,18.0,0,13.293
2390,76.48,-7.8942,-5.2381,0.1799,0.0001,-0.0001,-1.1445,flat,18.0,0,13.258
2400,76.80,-7.6673,-5.6377,0.1799,0.0001,-0.0000,-0.8813,flat,18.0,0,13.060
2410,77.12,-7.3132,-5.9960,0.1799,0.0001,-0.0000,-0.6813,flat,18.0,0,12.744
2420,77.44,-6.8776,-6.3039,0.1799,0.0001,-0.0000,-0.5045,flat,18.0,0,12.352
2430,77.76,-6.3861,-6.5472,0.1799,0.0001,-0.0000,-0.3549,flat,18.0,0,11.905
2440,78.08,-5.8591,-6.7241,0.1799,0.0003,-0.0000,-0.2324,flat,18.0,0,11.419
2450,78.40,-5.3112,-6.8408,0.1798,0.0004,-0.0000,-0.1325,flat,18.0,0,10.906
2460,78.72,-4.7516,-6.9055,0.1798,0.0004,-0.0000,-0.0507,flat,18.0,0,10.374
2470,79.04,-4.1864,-6.9262,0.1797,0.0003,-0.0000,0.0161,flat,18.0,0,9.830
2480,79.36,-3.6205,-6.9108,0.1797,0.0002,-0.0000,0.0669,flat,18.0,0,9.278
2490,79.68,-3.0549,-6.8678,0.1797,0.0001,-0.0000,0.1075,flat,18.0,0,8.721
2500,80.00,-2.4907,-6.8026,0.1797,0.0001,-0.0000,0.1408,flat,18.0,0,8.161
2510,80.32,-1.9279,-6.7191,0.1797,0.0001,-0.0000,0.1691,flat,18.0,0,7.598
2520,80.64,-1.3669,-6.6199,0.1797,0.0001,-0.0000,0.1935,flat,18.0,0,7.032
2530,80.96,-0.8077,-6.5073,0.1797,0.0001,-0.0000,0.2149,flat,18.0,0,6.465
2540,81.28,-0.2505,-6.3829,0.1797,0.0001,-0.0000,0.2339,flat,18.0,0,5.897
2550,81.60,0.3047,-6.2481,0.1797,0.0001,-0.0000,0.2510,flat,18.0,0,5.328
2560,81.92,0.8579,-6.1039,0.1797,0.0001,-0.0000,0.2666,flat,18.0,0,4.758
2570,82.24,1.4091,-5.9511,0.1797,0.0001,-0.0000,0.2812,flat,18.0,0,4.188
2580,82.56,1.9581,-5.7903,0.1797,0.0000,-0.0000,0.2951,flat,18.0,0,3.617
2590,82.88,2.5049,-5.6219,0.1797,0.0000,-0.0000,0.3086,flat,18.0,0,3.046
2600,83.20,3.0492,-5.4461,0.1797,0.0000,0.0000,0.3225,flat,18.0,0,2.475
2610,83.52,3.5907,-5.2628,0.1797,0.0001,0.0000,0.3373,flat,18.0,0,1.905
2620,83.84,4.1284,-5.0713,0.1797,0.0001,0.0000,0.3550,flat,18.0,0,1.335
2630,84.16,4.6601,-4.8704,0.1797,0.0001,0.0000,0.3805,flat,18.0,1,12.905
2640,84.48,5.0736,-4.6754,0.1799,-0.0001,0.0000,0.6323,flat,18.0,1,12.842
2650,84.80,5.4088,-4.3656,0.1799,0.0000,-0.0000,0.8908,flat,18.0,1,12.661
2660,85.12,5.6927,-3.9495,0.1799,0.0000,-0.0000,1.1204,flat,18.0,1,12.376
2670,85.44,5.8984,-3.4587,0.1799,0.0000,-0.0000,1.3250,flat,18.0,1,12.005
2680,85.76,6.0115,-2.9233,0.1799,0.0001,-0.0000,1.4972,flat,18.0,1,11.566
2690,86.08,6.0362,-2.3694,0.1799,0.0002,-0.0000,1.6327,flat,18.0,1,11.080
2700,86.40,5.9900,-1.8137,0.1798,0.0004,-0.0000,1.7302,flat,18.0,1,10.566
2710,86.72,5.8917,-1.2621,0.1798,0.0003,-0.0000,1.8039,flat,18.0,1,10.034
2720,87.04,5.7540,-0.7166,0.1797,0.0002,-0.0000,1.8619,flat,18.0,1,9.492
2730,87.36,5.5854,-0.1778,0.1797,0.0002,-0.0000,1.9089,flat,18.0,1,8.942
2740,87.68,5.3921,0.3533,0.1797,0.0001,-0.0000,1.9457,flat,18.0,1,8.387
2750,88.00,5.1795,0.8783,0.1797,0.0001,-0.0000,1.9773,flat,18.0,1,7.829
2760,88.32,4.9504,1.3975,0.1797,0.0001,-0.0000,2.0049,flat,18.0,1,7.268
2770,88.64,4.7071,1.9112,0.1797,0.0001,-0.0000,2.0293,flat,18.0,1,6.704
2780,88.96,4.4514,2.4196,0.1797,0.0001,-0.0000,2.0512,flat,18.0,1,6.139
2790,89.28,4.1846,2.9229,0.1797,0.0001,-0.0000,2.0711,flat,18.0,1,5.573
2800,89.60,3.9077,3.4213,0.1797,0.0001,-0.0000,2.0895,flat,18.0,1,5.006
2810,89.92,3.6218,3.9148,0.1797,0.0001,-0.0000,2.1068,flat,18.0,1,4.438
2820,90.24,3.3273,4.4036,0.1797,0.0001,-0.0000,2.1233,flat,18.0,1,3.870
2830,90.56,3.0247,4.8875,0.1797,0.0001,-0.0000,2.1396,flat,18.0,1,3.301
2840,90.88,2.7143,5.3663,0.1797,0.0001,0.0000,2.1560,flat,18.0,1,2.733
2850,91.20,2.3960,5.8395,0.1797,0.0001,0.0000,2.1735,flat,18.0,1,2.165
2860,91.52,2.0695,6.3061,0.1797,0.0001,0.0000,2.1935,flat,18.0,1,1.598
2870,91.84,1.7339,6.7636,0.1797,0.0001,0.0000,2.2195,flat,18.0,1,1.034
2880,92.16,1.4223,7.1588,0.1798,-0.0001,0.0003,2.3926,flat,18.0,2,15.250
2890,92.48,1.0945,7.3965,0.1799,-0.0000,-0.0001,2.7455,flat,18.0,2,15.243
2900,92.80,0.6581,7.5464,0.1799,0.0000,-0.0000,3.0718,flat,18.0,2,15.113
2910,93.12,0.1613,7.5552,0.1799,0.0000,-0.0000,-2.9427,flat,18.0,2,14.845
2920,93.44,-0.3446,7.4287,0.1799,0.0001,-0.0000,-2.7490,flat,18.0,2,14.469
2930,93.76,-0.8316,7.2016,0.1799,0.0002,-0.0000,-2.6095,flat,18.0,2,14.024
2940,94.08,-1.2162,6.9621,0.1798,0.0002,0.0001,-2.5370,rough,14.0,2,13.625
2950,94.40,-1.6384,6.6513,0.1798,0.0003,-0.0001,-2.4626,flat,18.0,2,13.149
2960,94.72,-2.0610,6.2900,0.1797,0.0002,-0.0000,-2.3967,flat,18.0,2,12.632
2970,95.04,-2.4611,5.9007,0.1797,0.0002,-0.0000,-2.3388,flat,18.0,2,12.103
2980,95.36,-2.8407,5.4882,0.1797,0.0002,-0.0000,-2.2887,flat,18.0,2,11.565
2990,95.68,-3.2020,5.0575,0.1797,0.0001,-0.0000,-2.2460,flat,18.0,2,11.021
3000,96.00,-3.5471,4.6113,0.1797,0.0001,-0.0000,-2.2081,flat,18.0,2,10.471
3010,96.32,-3.8773,4.1517,0.1797,0.0001,-0.0000,-2.1741,flat,18.0,2,9.916
3020,96.64,-4.1933,3.6805,0.1797,0.0001,-0.0000,-2.1435,flat,18.0,2,9.358
3030,96.96,-4.4962,3.1995,0.1797,0.0001,-0.0000,-2.1160,flat,18.0,2,8.797
3040,97.28,-4.7870,2.7099,0.1797,0.0001,-0.0000,-2.0912,flat,18.0,2,8.233
3050,97.60,-5.0664,2.2129,0.1797,0.0001,-0.0000,-2.0687,flat,18.0,2,7.668
3060,97.92,-5.3353,1.7094,0.1797,0.0001,-0.0000,-2.0481,flat,18.0,2,7.101
3070,98.24,-5.5945,1.2002,0.1797,0.0001,-0.0000,-2.0293,flat,18.0,2,6.533
3080,98.56,-5.8445,0.6861,0.1797,0.0001,-0.0000,-2.0119,flat,18.0,2,5.964
3090,98.88,-6.0860,0.1674,0.1797,0.0001,-0.0000,-1.9957,flat,18.0,2,5.394
3100,99.20,-6.3194,-0.3552,0.1797,0.0001,-0.0000,-1.9804,flat,18.0,2,4.823
3110,99.52,-6.5450,-0.8815,0.1797,0.0001,-0.0000,-1.9658,flat,18.0,2,4.253
3120,99.84,-6.7631,-1.4110,0.1797,0.0001,-0.0000,-1.9516,flat,18.0,2,3.681
3130,100.16,-6.9737,-1.9436,0.1797,0.0000,-0.0000,-1.9375,flat,18.0,2,3.110
3140,100.48,-7.1768,-2.4791,0.1797,0.0001,0.0000,-1.9230,flat,18.0,2,2.539
3150,100.80,-7.3720,-3.0173,0.1797,0.0001,0.0000,-1.9071,flat,18.0,2,1.968
3160,101.12,-7.5581,-3.5580,0.1797,0.0001,0.0000,-1.8883,flat,18.0,2,1.397
3170,101.44,-7.7328,-4.1007,0.1797,0.0001,0.0000,-1.8614,flat,18.0,2,0.830
3180,101.76,-7.8783,-4.5840,0.1798,-0.0004,0.0002,-1.8249,flat,18.0,0,13.223
3190,102.08,-7.9560,-4.9748,0.1799,-0.0001,-0.0000,-1.3844,flat,18.0,0,13.308
3200,102.40,-7.8483,-5.3836,0.1799,-0.0001,-0.0000,-1.0531,flat,18.0,0,13.221
3210,102.72,-7.5770,-5.7724,0.1799,-0.0000,-0.0000,-0.8146,flat,18.0,0,12.982
3220,103.04,-7.1945,-6.1162,0.1799,0.0000,-0.0000,-0.6242,flat,18.0,0,12.640
3230,103.36,-6.7392,-6.4051,0.1799,0.0001,-0.0000,-0.4551,flat,18.0,0,12.230
3240,103.68,-6.2349,-6.6274,0.1799,0.0002,-0.0000,-0.3139,flat,18.0,0,11.770
3250,104.00,-5.7002,-6.7846,0.1799,0.0004,-0.0000,-0.1986,flat,18.0,0,11.275
3260,104.32,-5.1478,-6.8839,0.1798,0.0004,-0.0000,-0.1045,flat,18.0,0,10.755
3270,104.64,-4.5859,-6.9336,0.1798,0.0004,-0.0000,-0.0274,flat,18.0,0,10.220
3280,104.96,-4.0200,-6.9415,0.1797,0.0002,-0.0000,0.0346,flat,18.0,0,9.673
3290,105.28,-3.4542,-6.9162,0.1797,0.0002,-0.0000,0.0818,flat,18.0,0,9.119
3300,105.60,-2.8891,-6.8651,0.1797,0.0001,-0.0000,0.1197,flat,18.0,0,8.561
3310,105.92,-2.3254,-6.7931,0.1797,0.0001,-0.0000,0.1513,flat,18.0,0,8.000
3320,106.24,-1.7633,-6.7038,0.1797,0.0001,-0.0000,0.1783,flat,18.0,0,7.436
3330,106.56,-1.2029,-6.5995,0.1797,0.0001,-0.0000,0.2017,flat,18.0,0,6.870
3340,106.88,-0.6445,-6.4824,0.1797,0.0001,-0.0000,0.2223,flat,18.0,0,6.302
3350,107.20,-0.0881,-6.3539,0.1797,0.0001,-0.0000,0.2406,flat,18.0,0,5.734
3360,107.52,0.4663,-6.2153,0.1797,0.0001,-0.0000,0.2572,flat,18.0,0,5.164
3370,107.84,1.0186,-6.0677,0.1797,0.0001,-0.0000,0.2725,flat,18.0,0,4.594
3380,108.16,1.5689,-5.9116,0.1797,0.0001,-0.0000,0.2868,flat,18.0,0,4.024
3390,108.48,2.1171,-5.7477,0.1797,0.0000,-0.0000,0.3006,flat,18.0,0,3.453
3400,108.80,2.6629,-5.5764,0.1797,0.0000,-0.0000,0.3141,flat,18.0,0,2.882
3410,109.12,3.2062,-5.3976,0.1797,0.0000,0.0000,0.3281,flat,18.0,0,2.311
3420,109.44,3.7464,-5.2112,0.1797,0.0001,0.0000,0.3435,flat,18.0,0,1.741
3430,109.76,4.2825,-5.0164,0.1797,0.0001,0.0000,0.3626,flat,18.0,0,1.172
3440,110.08,4.7912,-4.8241,0.1798,0.0001,0.0003,0.4501,flat,18.0,1,12.898
3450,110.40,5.1726,-4.6000,0.1799,0.0000,-0.0000,0.7178,flat,18.0,1,12.802
3460,110.72,5.4939,-4.2529,0.1799,0.0000,-0.0000,0.9624,flat,18.0,1,12.585
3470,111.04,5.7568,-3.8110,0.1799,0.0001,-0.0000,1.1849,flat,18.0,1,12.272
3480,111.36,5.9351,-3.3036,0.1799,0.0001,0.0000,1.3796,flat,18.0,1,11.878
3490,111.68,6.0206,-2.7601,0.1799,0.0001,-0.0000,1.5421,flat,18.0,1,11.423
3500,112.00,6.0217,-2.2045,0.1799,0.0003,-0.0000,1.6649,flat,18.0,1,10.927
3510,112.32,5.9584,-1.6496,0.1798,0.0004,-0.0000,1.7540,flat,18.0,1,10.406
3520,112.64,5.8474,-1.0996,0.1798,0.0003,-0.0000,1.8223,flat,18.0,1,9.871
3530,112.96,5.6999,-0.5560,0.1797,0.0002,-0.0000,1.8766,flat,18.0,1,9.326
3540,113.28,5.5234,-0.0195,0.1797,0.0002,-0.0000,1.9202,flat,18.0,1,8.774
3550,113.60,5.3242,0.5098,0.1797,0.0001,-0.0000,1.9552,flat,18.0,1,8.218
3560,113.92,5.1067,1.0332,0.1797,0.0001,-0.0000,1.9854,flat,18.0,1,7.659
3570,114.24,4.8734,1.5509,0.1797,0.0001,-0.0000,2.0119,flat,18.0,1,7.097
3580,114.56,4.6266,2.0631,0.1797,0.0001,-0.0000,2.0355,flat,18.0,1,6.533
3590,114.88,4.3677,2.5701,0.1797,0.0001,-0.0000,2.0567,flat,18.0,1,5.968
3600,115.20,4.0981,3.0721,0.1797,0.0001,-0.0000,2.0761,flat,18.0,1,5.401
3610,115.52,3.8187,3.5692,0.1797,0.0001,-0.0000,2.0941,flat,18.0,1,4.834
3620,115.84,3.5305,4.0616,0.1797,0.0001,-0.0000,2.1111,flat,18.0,1,4.266
3630,116.16,3.2339,4.5491,0.1797,0.0001,-0.0000,2.1275,flat,18.0,1,3.698
3640,116.48,2.9293,5.0317,0.1797,0.0001,-0.0000,2.1437,flat,18.0,1,3.129
3650,116.80,2.6168,5.5091,0.1797,0.0001,0.0000,2.1604,flat,18.0,1,2.561
3660,117.12,2.2965,5.9807,0.1797,0.0001,0.0000,2.1784,flat,18.0,1,1.993
3670,117.44,1.9677,6.4451,0.1797,0.0001,0.0000,2.1997,flat,18.0,1,1.426
3680,117.76,1.6294,6.8992,0.1797,0.0001,0.0000,2.2291,flat,18.0,1,0.864
3690,118.08,1.3342,7.2370,0.1798,-0.0003,0.0000,2.4995,flat,18.0,2,15.258
3700,118.40,0.9720,7.4551,0.1799,-0.0000,-0.0000,2.8465,flat,18.0,2,15.219
3710,118.72,0.5115,7.5664,0.1799,0.0001,-0.0000,-3.1220,flat,18.0,2,15.047
3720,119.04,0.0078,7.5315,0.1799,0.0001,-0.0000,-2.8798,flat,18.0,2,14.742
3730,119.36,-0.4947,7.3711,0.1799,0.0001,-0.0000,-2.7022,flat,18.0,2,14.342
3740,119.68,-0.9658,7.1255,0.1799,0.0003,0.0004,-2.5834,rough,14.0,2,13.891
3750,120.00,-1.3303,6.8856,0.1798,0.0001,-0.0004,-2.5171,flat,18.0,2,13.503
3760,120.32,-1.7687,6.5481,0.1798,0.0003,-0.0001,-2.4417,flat,18.0,2,12.997
3770,120.64,-2.1843,6.1779,0.1797,0.0002,-0.0000,-2.3780,flat,18.0,2,12.476
3780,120.96,-2.5782,5.7810,0.1797,0.0002,-0.0000,-2.3230,flat,18.0,2,11.944
3790,121.28,-2.9519,5.3625,0.1797,0.0002,-0.0000,-2.2751,flat,18.0,2,11.404
3800,121.60,-3.3082,4.9270,0.1797,0.0001,-0.0000,-2.2341,flat,18.0,2,10.857
3810,121.92,-3.6487,4.4765,0.1797,0.0001,-0.0000,-2.1974,flat,18.0,2,10.306
3820,122.24,-3.9744,4.0132,0.1797,0.0001,-0.0000,-2.1644,flat,18.0,2,9.750
3830,122.56,-4.2864,3.5389,0.1797,0.0001,-0.0000,-2.1349,flat,18.0,2,9.191
3840,122.88,-4.5855,3.0551,0.1797,0.0001,-0.0000,-2.1082,flat,18.0,2,8.629
3850,123.20,-4.8726,2.5631,0.1797,0.0001,-0.0000,-2.0841,flat,18.0,2,8.065
3860,123.52,-5.1488,2.0640,0.1797,0.0001,-0.0000,-2.0622,flat,18.0,2,7.499
3870,123.84,-5.4146,1.5587,0.1797,0.0001,-0.0000,-2.0422,flat,18.0,2,6.932
3880,124.16,-5.6709,1.0480,0.1797,0.0001,-0.0000,-2.0238,flat,18.0,2,6.363
3890,124.48,-5.9183,0.5323,0.1797,0.0001,-0.0000,-2.0068,flat,18.0,2,5.794
3900,124.80,-6.1572,0.0124,0.1797,0.0001,-0.0000,-1.9908,flat,18.0,2,5.224
3910,125.12,-6.3881,-0.5114,0.1797,0.0001,-0.0000,-1.9758,flat,18.0,2,4.653
3920,125.44,-6.6114,-1.0387,0.1797,0.0001,-0.0000,-1.9614,flat,18.0,2,4.082
3930,125.76,-6.8272,-1.5692,0.1797,0.0000,-0.0000,-1.9473,flat,18.0,2,3.511
3940,126.08,-7.0355,-2.1027,0.1797,0.0001,-0.0000,-1.9331,flat,18.0,2,2.940
3950,126.40,-7.2362,-2.6391,0.1797,0.0001,0.0000,-1.9183,flat,18.0,2,2.369
3960,126.72,-7.4287,-3.1780,0.1797,0.0001,0.0000,-1.9018,flat,18.0,2,1.798
3970,127.04,-7.6117,-3.7195,0.1797,0.0001,0.0000,-1.8814,flat,18.0,2,1.228
3980,127.36,-7.7768,-4.2561,0.1797,0.0001,0.0001,-1.8913,flat,18.0,3,0.902
3990,127.68,-7.9156,-4.7040,0.1798,-0.0004,0.0001,-1.6981,flat,18.0,0,13.262
4000,128.00,-7.9432,-5.0952,0.1799,0.0001,-0.0001,-1.2744,flat,18.0,0,13.300
4010,128.32,-7.7814,-5.5030,0.1799,0.0001,-0.0000,-0.9759,flat,18.0,0,13.163
4020,128.64,-7.4711,-5.8790,0.1799,0.0001,-0.0000,-0.7561,flat,18.0,0,12.888
4030,128.96,-7.0642,-6.2083,0.1799,0.0001,-0.0000,-0.5712,flat,18.0,0,12.523
4040,129.28,-6.5918,-6.4779,0.1799,0.0001,-0.0000,-0.4099,flat,18.0,0,12.096
4050,129.60,-6.0767,-6.6801,0.1799,0.0002,-0.0000,-0.2768,flat,18.0,0,11.624
4060,129.92,-5.5356,-6.8191,0.1798,0.0004,-0.0000,-0.1684,flat,18.0,0,11.120
4070,130.24,-4.9796,-6.9027,0.1798,0.0004,-0.0000,-0.0798,flat,18.0,0,10.596
4080,130.56,-4.4161,-6.9391,0.1798,0.0003,-0.0000,-0.0072,flat,18.0,0,10.056
4090,130.88,-3.8500,-6.9361,0.1797,0.0002,-0.0000,0.0496,flat,18.0,0,9.507
4100,131.20,-3.2842,-6.9025,0.1797,0.0002,-0.0000,0.0941,flat,18.0,0,8.952
4110,131.52,-2.7196,-6.8447,0.1797,0.0001,-0.0000,0.1297,flat,18.0,0,8.393
4120,131.84,-2.1563,-6.7673,0.1797,0.0001,-0.0000,0.1597,flat,18.0,0,7.830
4130,132.16,-1.5947,-6.6733,0.1797,0.0001,-0.0000,0.1856,flat,18.0,0,7.266
4140,132.48,-1.0349,-6.5650,0.1797,0.0001,-0.0000,0.2081,flat,18.0,0,6.699
4150,132.80,-0.4771,-6.4444,0.1797,0.0001,-0.0000,0.2279,flat,18.0,0,6.131
4160,133.12,0.0787,-6.3128,0.1797,0.0001,-0.0000,0.2457,flat,18.0,0,5.563
4170,133.44,0.6325,-6.1715,0.1797,0.0001,-0.0000,0.2619,flat,18.0,0,4.993
4180,133.76,1.1843,-6.0213,0.1797,0.0001,-0.0000,0.2768,flat,18.0,0,4.423
4190,134.08,1.7340,-5.8629,0.1797,0.0001,-0.0000,0.2909,flat,18.0,0,3.852
4200,134.40,2.2814,-5.6968,0.1797,0.0000,-0.0000,0.3046,flat,18.0,0,3.281
4210,134.72,2.8265,-5.5232,0.1797,0.0000,0.0000,0.3182,flat,18.0,0,2.710
4220,135.04,3.3690,-5.3422,0.1797,0.0001,0.0000,0.3325,flat,18.0,0,2.140
4230,135.36,3.9082,-5.1534,0.1797,0.0001,0.0000,0.3486,flat,18.0,0,1.570
4240,135.68,4.4425,-4.9558,0.1797,0.0001,0.0000,0.3698,flat,18.0,0,1.002
4250,136.00,4.9144,-4.7674,0.1798,-0.0003,0.0000,0.5248,flat,18.0,1,12.880
4260,136.32,5.2740,-4.5079,0.1799,0.0000,-0.0000,0.7947,flat,18.0,1,12.749
4270,136.64,5.5808,-4.1288,0.1799,0.0000,-0.0000,1.0318,flat,18.0,1,12.501
4280,136.96,5.8204,-3.6642,0.1799,0.0000,-0.0000,1.2468,flat,18.0,1,12.162
4290,137.28,5.9709,-3.1429,0.1799,0.0001,-0.0000,1.4327,flat,18.0,1,11.747
4300,137.60,6.0295,-2.5937,0.1799,0.0001,-0.0000,1.5836,flat,18.0,1,11.278
4310,137.92,6.0090,-2.0375,0.1798,0.0004,-0.0000,1.6944,flat,18.0,1,10.773
4320,138.24,5.9299,-1.4838,0.1798,0.0004,-0.0000,1.7763,flat,18.0,1,10.247
4330,138.56,5.8069,-0.9357,0.1797,0.0002,-0.0000,1.8398,flat,18.0,1,9.708
4340,138.88,5.6501,-0.3941,0.1797,0.0002,-0.0000,1.8908,flat,18.0,1,9.161
4350,139.20,5.4661,0.1400,0.1797,0.0001,-0.0000,1.9313,flat,18.0,1,8.608
4360,139.52,5.2611,0.6675,0.1797,0.0001,-0.0000,1.9647,flat,18.0,1,8.051
4370,139.84,5.0386,1.1892,0.1797,0.0001,-0.0000,1.9937,flat,18.0,1,7.491
4380,140.16,4.8010,1.7052,0.1797,0.0001,-0.0000,2.0193,flat,18.0,1,6.928
4390,140.48,4.5504,2.2158,0.1797,0.0001,-0.0000,2.0421,flat,18.0,1,6.364
4400,140.80,4.2881,2.7213,0.1797,0.0001,-0.0000,2.0627,flat,18.0,1,5.798
4410,141.12,4.0155,3.2218,0.1797,0.0001,-0.0000,2.0817,flat,18.0,1,5.231
4420,141.44,3.7334,3.7175,0.1797,0.0001,-0.0000,2.0994,flat,18.0,1,4.664
4430,141.76,3.4426,4.2084,0.1797,0.0001,-0.0000,2.1161,flat,18.0,1,4.096
4440,142.08,3.1435,4.6944,0.1797,0.0001,-0.0000,2.1324,flat,18.0,1,3.527
4450,142.40,2.8365,5.1755,0.1797,0.0001,0.0000,2.1487,flat,18.0,1,2.959
4460,142.72,2.5217,5.6513,0.1797,0.0001,0.0000,2.1657,flat,18.0,1,2.390
4470,143.04,2.1989,6.1209,0.1797,0.0001,0.0000,2.1844,flat,18.0,1,1.823
4480,143.36,1.8674,6.5827,0.1797,0.0001,0.0000,2.2073,flat,18.0,1,1.257
4490,143.68,1.5292,7.0298,0.1797,0.0001,0.0002,2.2573,flat,18.0,2,15.214
4500,144.00,1.2386,7.3091,0.1799,-0.0002,-0.0000,2.6059,flat,18.0,2,15.259
4510,144.32,0.8419,7.5025,0.1799,-0.0000,-0.0000,2.9452,flat,18.0,2,15.182
4520,144.64,0.3624,7.5710,0.1799,0.0000,-0.0000,-3.0400,flat,18.0,2,14.969
4530,144.96,-0.1446,7.4951,0.1799,0.0000,-0.0000,-2.8188,flat,18.0,2,14.631
4540,145.28,-0.6412,7.3038,0.1799,0.0001,-0.0000,-2.6598,flat,18.0,2,14.209
4550,145.60,-1.0752,7.0575,0.1798,0.0002,0.0002,-2.5643,rough,14.0,2,13.778
4560,145.92,-1.4637,6.7887,0.1798,0.0002,-0.0003,-2.4906,flat,18.0,2,13.353
4570,146.24,-1.8957,6.4400,0.1797,0.0002,-0.0000,-2.4217,flat,18.0,2,12.841
4580,146.56,-2.3046,6.0613,0.1797,0.0002,-0.0000,-2.3606,flat,18.0,2,12.317
4590,146.88,-2.6923,5.6573,0.1797,0.0002,-0.0000,-2.3078,flat,18.0,2,11.782
4600,147.20,-3.0605,5.2334,0.1797,0.0002,-0.0000,-2.2623,flat,18.0,2,11.240
4610,147.52,-3.4119,4.7932,0.1797,0.0001,-0.0000,-2.2227,flat,18.0,2,10.692
4620,147.84,-3.7479,4.3386,0.1797,0.0001,-0.0000,-2.1871,flat,18.0,2,10.140
4630,148.16,-4.0694,3.8718,0.1797,0.0001,-0.0000,-2.1552,flat,18.0,2,9.583
4640,148.48,-4.3774,3.3945,0.1797,0.0001,-0.0000,-2.1266,flat,18.0,2,9.023
4650,148.80,-4.6728,2.9082,0.1797,0.0001,-0.0000,-2.1007,flat,18.0,2,8.460
4660,149.12,-4.9566,2.4140,0.1797,0.0001,-0.0000,-2.0773,flat,18.0,2,7.895
4670,149.44,-5.2295,1.9130,0.1797,0.0001,-0.0000,-2.0560,flat,18.0,2,7.329
4680,149.76,-5.4924,1.4059,0.1797,0.0001,-0.0000,-2.0365,flat,18.0,2,6.761
4690,150.08,-5.7460,0.8937,0.1797,0.0001,-0.0000,-2.0186,flat,18.0,2,6.193
4700,150.40,-5.9908,0.3767,0.1797,0.0001,-0.0000,-2.0019,flat,18.0,2,5.623
4710,150.72,-6.2273,-0.1444,0.1797,0.0001,-0.0000,-1.9863,flat,18.0,2,5.053
4720,151.04,-6.4559,-0.6693,0.1797,0.0001,-0.0000,-1.9714,flat,18.0,2,4.482
4730,151.36,-6.6769,-1.1976,0.1797,0.0001,-0.0000,-1.9571,flat,18.0,2,3.911
4740,151.68,-6.8905,-1.7290,0.1797,0.0000,-0.0000,-1.9430,flat,18.0,2,3.340
4750,152.00,-7.0965,-2.2634,0.1797,0.0001,-0.0000,-1.9287,flat,18.0,2,2.768
4760,152.32,-7.2949,-2.8006,0.1797,0.0001,0.0000,-1.9136,flat,18.0,2,2.197
4770,152.64,-7.4847,-3.3403,0.1797,0.0001,0.0000,-1.8963,flat,18.0,2,1.626
4780,152.96,-7.6643,-3.8824,0.1797,0.0001,0.0000,-1.8737,flat,18.0,2,1.057
4790,153.28,-7.8234,-4.4071,0.1798,0.0002,0.0000,-1.9500,flat,18.0,0,13.169
4800,153.60,-7.9445,-4.8183,0.1798,-0.0003,0.0000,-1.5547,flat,18.0,0,13.293
4810,153.92,-7.9136,-5.2187,0.1799,-0.0000,-0.0000,-1.1722,flat,18.0,0,13.277
4820,154.24,-7.7016,-5.6208,0.1799,-0.0000,-0.0001,-0.9014,flat,18.0,0,13.093
4830,154.56,-7.3572,-5.9832,0.1799,0.0000,-0.0000,-0.6983,flat,18.0,0,12.786
4840,154.88,-6.9282,-6.2963,0.1799,0.0000,-0.0000,-0.5195,flat,18.0,0,12.401
4850,155.20,-6.4409,-6.5457,0.1799,0.0001,-0.0000,-0.3671,flat,18.0,0,11.958
4860,155.52,-5.9165,-6.7282,0.1799,0.0003,-0.0000,-0.2419,flat,18.0,0,11.476
4870,155.84,-5.3700,-6.8497,0.1798,0.0004,-0.0000,-0.1399,flat,18.0,0,10.965
4880,156.16,-4.8111,-6.9183,0.1798,0.0004,-0.0000,-0.0565,flat,18.0,0,10.435
4890,156.48,-4.2463,-6.9421,0.1797,0.0003,-0.0000,0.0118,flat,18.0,0,9.892
4900,156.80,-3.6803,-6.9290,0.1797,0.0002,-0.0000,0.0639,flat,18.0,0,9.341
4910,157.12,-3.1147,-6.8876,0.1797,0.0002,-0.0000,0.1054,flat,18.0,0,8.784
4920,157.44,-2.5505,-6.8235,0.1797,0.0001,-0.0000,0.1392,flat,18.0,0,8.224
4930,157.76,-1.9877,-6.7408,0.1797,0.0001,-0.0000,0.1679,flat,18.0,0,7.661
4940,158.08,-1.4266,-6.6423,0.1797,0.0001,-0.0000,0.1926,flat,18.0,0,7.096
4950,158.40,-0.8674,-6.5302,0.1797,0.0001,-0.0000,0.2143,flat,18.0,0,6.529
4960,158.72,-0.3102,-6.4061,0.1797,0.0001,-0.0000,0.2335,flat,18.0,0,5.961
4970,159.04,0.2451,-6.2715,0.1797,0.0001,-0.0000,0.2507,flat,18.0,0,5.392
4980,159.36,0.7983,-6.1274,0.1797,0.0001,-0.0000,0.2665,flat,18.0,0,4.822
4990,159.68,1.3494,-5.9747,0.1797,0.0001,-0.0000,0.2811,flat,18.0,0,4.252
5000,160.00,1.8984,-5.8139,0.1797,0.0000,-0.0000,0.2951,flat,18.0,0,3.681
5010,160.32,2.4452,-5.6455,0.1797,0.0000,-0.0000,0.3086,flat,18.0,0,3.110
5020,160.64,2.9895,-5.4697,0.1797,0.0000,0.0000,0.3224,flat,18.0,0,2.539
5030,160.96,3.5311,-5.2864,0.1797,0.0001,0.0000,0.3371,flat,18.0,0,1.969
5040,161.28,4.0690,-5.0952,0.1797,0.0001,0.0000,0.3542,flat,18.0,0,1.399
5050,161.60,4.6014,-4.8946,0.1797,0.0001,0.0000,0.3783,flat,18.0,0,0.832
5060,161.92,5.0306,-4.7022,0.1799,-0.0002,0.0000,0.6051,flat,18.0,1,12.854
5070,162.24,5.3709,-4.4047,0.1799,0.0000,-0.0000,0.8673,flat,18.0,1,12.684
5080,162.56,5.6610,-3.9972,0.1799,0.0000,-0.0000,1.0989,flat,18.0,1,12.408
5090,162.88,5.8752,-3.5124,0.1799,0.0001,-0.0000,1.3054,flat,18.0,1,12.045
5100,163.20,5.9977,-2.9799,0.1799,0.0001,-0.0000,1.4815,flat,18.0,1,11.611
5110,163.52,6.0306,-2.4269,0.1799,0.0002,-0.0000,1.6210,flat,18.0,1,11.129
5120,163.84,5.9906,-1.8710,0.1798,0.0004,-0.0000,1.7214,flat,18.0,1,10.617
5130,164.16,5.8970,-1.3187,0.1798,0.0003,-0.0000,1.7970,flat,18.0,1,10.087
5140,164.48,5.7630,-0.7725,0.1797,0.0002,-0.0000,1.8563,flat,18.0,1,9.545
5150,164.80,5.5974,-0.2330,0.1797,0.0002,-0.0000,1.9042,flat,18.0,1,8.995
5160,165.12,5.4066,0.2989,0.1797,0.0001,-0.0000,1.9418,flat,18.0,1,8.441
5170,165.44,5.1960,0.8246,0.1797,0.0001,-0.0000,1.9738,flat,18.0,1,7.883
5180,165.76,4.9688,1.3445,0.1797,0.0001,-0.0000,2.0017,flat,18.0,1,7.322
5190,166.08,4.7271,1.8589,0.1797,0.0001,-0.0000,2.0264,flat,18.0,1,6.759
5200,166.40,4.4728,2.3680,0.1797,0.0001,-0.0000,2.0485,flat,18.0,1,6.194
5210,166.72,4.2074,2.8720,0.1797,0.0001,-0.0000,2.0686,flat,18.0,1,5.628
5220,167.04,3.9318,3.3710,0.1797,0.0001,-0.0000,2.0871,flat,18.0,1,5.061
5230,167.36,3.6470,3.8652,0.1797,0.0001,-0.0000,2.1045,flat,18.0,1,4.493
5240,167.68,3.3537,4.3547,0.1797,0.0001,-0.0000,2.1210,flat,18.0,1,3.925
5250,168.00,3.0522,4.8393,0.1797,0.0001,-0.0000,2.1373,flat,18.0,1,3.357
5260,168.32,2.7429,5.3188,0.1797,0.0001,0.0000,2.1537,flat,18.0,1,2.788
5270,168.64,2.4257,5.7928,0.1797,0.0001,0.0000,2.1710,flat,18.0,1,2.220
5280,168.96,2.1004,6.2603,0.1797,0.0001,0.0000,2.1906,flat,18.0,1,1.653
5290,169.28,1.7661,6.7192,0.1797,0.0001,0.0000,2.2157,flat,18.0,1,1.088
5300,169.60,1.4478,7.1320,0.1798,-0.0000,0.0004,2.3555,flat,18.0,2,15.244
5310,169.92,1.1314,7.3766,0.1799,-0.0001,-0.0001,2.7105,flat,18.0,2,15.249
5320,170.24,0.7042,7.5385,0.1799,0.0000,-0.0000,3.0403,flat,18.0,2,15.133
5330,170.56,0.2110,7.5623,0.1799,0.0001,-0.0000,-2.9669,flat,18.0,2,14.878
5340,170.88,-0.2957,7.4480,0.1799,0.0001,-0.0000,-2.7667,flat,18.0,2,14.511
5350,171.20,-0.7852,7.2295,0.1799,0.0002,-0.0000,-2.6215,flat,18.0,2,14.072
5360,171.52,-1.1820,6.9877,0.1798,0.0002,0.0001,-2.5438,rough,14.0,2,13.664
5370,171.84,-1.5959,6.6875,0.1798,0.0003,-0.0002,-2.4694,flat,18.0,2,13.201
5380,172.16,-2.0209,6.3292,0.1797,0.0002,-0.0000,-2.4030,flat,18.0,2,12.685
5390,172.48,-2.4231,5.9425,0.1797,0.0002,-0.0000,-2.3441,flat,18.0,2,12.158
5400,172.80,-2.8047,5.5321,0.1797,0.0002,-0.0000,-2.2933,flat,18.0,2,11.620
5410,173.12,-3.1676,5.1031,0.1797,0.0002,-0.0000,-2.2500,flat,18.0,2,11.077
5420,173.44,-3.5143,4.6583,0.1797,0.0001,-0.0000,-2.2116,flat,18.0,2,10.527
5430,173.76,-3.8458,4.1999,0.1797,0.0001,-0.0000,-2.1772,flat,18.0,2,9.973
5440,174.08,-4.1632,3.7297,0.1797,0.0001,-0.0000,-2.1463,flat,18.0,2,9.415
5450,174.40,-4.4673,3.2496,0.1797,0.0001,-0.0000,-2.1185,flat,18.0,2,8.854
5460,174.72,-4.7592,2.7608,0.1797,0.0001,-0.0000,-2.0935,flat,18.0,2,8.291
5470,175.04,-5.0396,2.2644,0.1797,0.0001,-0.0000,-2.0707,flat,18.0,2,7.726
5480,175.36,-5.3095,1.7615,0.1797,0.0001,-0.0000,-2.0500,flat,18.0,2,7.159
5490,175.68,-5.5695,1.2528,0.1797,0.0001,-0.0000,-2.0310,flat,18.0,2,6.591
5500,176.00,-5.8204,0.7391,0.1797,0.0001,-0.0000,-2.0134,flat,18.0,2,6.022
5510,176.32,-6.0626,0.2209,0.1797,0.0001,-0.0000,-1.9971,flat,18.0,2,5.452
5520,176.64,-6.2967,-0.3014,0.1797,0.0001,-0.0000,-1.9817,flat,18.0,2,4.882
5530,176.96,-6.5230,-0.8274,0.1797,0.0001,-0.0000,-1.9671,flat,18.0,2,4.311
5540,177.28,-6.7418,-1.3567,0.1797,0.0001,-0.0000,-1.9529,flat,18.0,2,3.740
5550,177.60,-6.9531,-1.8890,0.1797,0.0000,-0.0000,-1.9388,flat,18.0,2,3.168
5560,177.92,-7.1569,-2.4242,0.1797,0.0001,0.0000,-1.9243,flat,18.0,2,2.597
5570,178.24,-7.3528,-2.9622,0.1797,0.0001,0.0000,-1.9087,flat,18.0,2,2.026
5580,178.56,-7.5398,-3.5027,0.1797,0.0001,0.0000,-1.8903,flat,18.0,2,1.456
5590,178.88,-7.7157,-4.0452,0.1797,0.0001,0.0000,-1.8647,flat,18.0,2,0.887
5600,179.20,-7.8651,-4.5409,0.1799,-0.0006,0.0003,-1.8617,flat,18.0,0,13.210
5610,179.52,-7.9556,-4.9340,0.1799,-0.0001,-0.0000,-1.4255,flat,18.0,0,13.307
5620,179.84,-7.8668,-5.3417,0.1799,0.0001,-0.0000,-1.0839,flat,18.0,0,13.237
5630,180.16,-7.6098,-5.7343,0.1799,0.0001,-0.0000,-0.8363,flat,18.0,0,13.011
5640,180.48,-7.2361,-6.0828,0.1799,0.0001,-0.0000,-0.6430,flat,18.0,0,12.677
5650,180.80,-6.7870,-6.3782,0.1799,0.0001,-0.0000,-0.4709,flat,18.0,0,12.273
5660,181.12,-6.2867,-6.6072,0.1799,0.0001,-0.0000,-0.3268,flat,18.0,0,11.817
5670,181.44,-5.7543,-6.7707,0.1799,0.0003,-0.0000,-0.2091,flat,18.0,0,11.325
5680,181.76,-5.2032,-6.8754,0.1798,0.0004,-0.0000,-0.1131,flat,18.0,0,10.808
5690,182.08,-4.6421,-6.9297,0.1798,0.0004,-0.0000,-0.0345,flat,18.0,0,10.273
5700,182.40,-4.0763,-6.9416,0.1797,0.0002,-0.0000,0.0293,flat,18.0,0,9.727
5710,182.72,-3.5105,-6.9192,0.1797,0.0002,-0.0000,0.0773,flat,18.0,0,9.174
5720,183.04,-2.9453,-6.8705,0.1797,0.0001,-0.0000,0.1162,flat,18.0,0,8.617
5730,183.36,-2.3815,-6.8005,0.1797,0.0001,-0.0000,0.1483,flat,18.0,0,8.056
5740,183.68,-1.8191,-6.7128,0.1797,0.0001,-0.0000,0.1757,flat,18.0,0,7.492
5750,184.00,-1.2586,-6.6100,0.1797,0.0001,-0.0000,0.1994,flat,18.0,0,6.926
5760,184.32,-0.7000,-6.4941,0.1797,0.0001,-0.0000,0.2202,flat,18.0,0,6.359
5770,184.64,-0.1434,-6.3668,0.1797,0.0001,-0.0000,0.2388,flat,18.0,0,5.790
5780,184.96,0.4112,-6.2292,0.1797,0.0001,-0.0000,0.2556,flat,18.0,0,5.221
5790,185.28,0.9638,-6.0824,0.1797,0.0001,-0.0000,0.2710,flat,18.0,0,4.651
5800,185.60,1.5143,-5.9272,0.1797,0.0001,-0.0000,0.2854,flat,18.0,0,4.081
5810,185.92,2.0627,-5.7642,0.1797,0.0000,-0.0000,0.2991,flat,18.0,0,3.510
5820,186.24,2.6088,-5.5936,0.1797,0.0000,-0.0000,0.3127,flat,18.0,0,2.939
5830,186.56,3.1523,-5.4155,0.1797,0.0000,0.0000,0.3266,flat,18.0,0,2.368
5840,186.88,3.6929,-5.2299,0.1797,0.0001,0.0000,0.3418,flat,18.0,0,1.798
5850,187.20,4.2295,-5.0361,0.1797,0.0001,0.0000,0.3604,flat,18.0,0,1.229
5860,187.52,4.7495,-4.8406,0.1797,0.0000,0.0003,0.4258,flat,18.0,1,12.902
5870,187.84,5.1383,-4.6275,0.1799,-0.0000,-0.0000,0.6905,flat,18.0,1,12.817
5880,188.16,5.4642,-4.2922,0.1799,0.0000,-0.0000,0.9390,flat,18.0,1,12.611
5890,188.48,5.7344,-3.8585,0.1799,0.0000,-0.0000,1.1640,flat,18.0,1,12.308
5900,188.80,5.9220,-3.3562,0.1799,0.0000,-0.0000,1.3627,flat,18.0,1,11.921
5910,189.12,6.0165,-2.8152,0.1799,0.0001,-0.0000,1.5275,flat,18.0,1,11.471
5920,189.44,6.0252,-2.2600,0.1799,0.0003,-0.0000,1.6545,flat,18.0,1,10.978
5930,189.76,5.9674,-1.7047,0.1798,0.0004,-0.0000,1.7462,flat,18.0,1,10.459
5940,190.08,5.8606,-1.1542,0.1798,0.0003,-0.0000,1.8162,flat,18.0,1,9.925
5950,190.40,5.7163,-0.6099,0.1797,0.0002,-0.0000,1.8717,flat,18.0,1,9.381
5960,190.72,5.5425,-0.0726,0.1797,0.0002,-0.0000,1.9164,flat,18.0,1,8.829
5970,191.04,5.3453,0.4573,0.1797,0.0001,-0.0000,1.9519,flat,18.0,1,8.274
5980,191.36,5.1294,0.9812,0.1797,0.0001,-0.0000,1.9826,flat,18.0,1,7.715
5990,191.68,4.8977,1.4994,0.1797,0.0001,-0.0000,2.0094,flat,18.0,1,7.153
6000,192.00,4.6521,2.0122,0.1797,0.0001,-0.0000,2.0333,flat,18.0,1,6.590
6010,192.32,4.3943,2.5197,0.1797,0.0001,-0.0000,2.0547,flat,18.0,1,6.025
6020,192.64,4.1257,3.0222,0.1797,0.0001,-0.0000,2.0743,flat,18.0,1,5.458
6030,192.96,3.8473,3.5198,0.1797,0.0001,-0.0000,2.0924,flat,18.0,1,4.891
6040,193.28,3.5599,4.0126,0.1797,0.0001,-0.0000,2.1095,flat,18.0,1,4.323
6050,193.60,3.2640,4.5006,0.1797,0.0001,-0.0000,2.1259,flat,18.0,1,3.754
6060,193.92,2.9602,4.9837,0.1797,0.0001,-0.0000,2.1422,flat,18.0,1,3.186
6070,194.24,2.6486,5.4617,0.1797,0.0001,0.0000,2.1587,flat,18.0,1,2.617
6080,194.56,2.3290,5.9339,0.1797,0.0001,0.0000,2.1766,flat,18.0,1,2.049
6090,194.88,2.0011,6.3991,0.1797,0.0001,0.0000,2.1973,flat,18.0,1,1.483
6100,195.20,1.6638,6.8545,0.1797,0.0001,0.0000,2.2255,flat,18.0,1,0.919
6110,195.52,1.3640,7.2119,0.1798,-0.0003,0.0001,2.4640,flat,18.0,2,15.257
6120,195.84,1.0135,7.4370,0.1799,-0.0000,-0.0001,2.8130,flat,18.0,2,15.228
6130,196.16,0.5605,7.5617,0.1799,0.0000,-0.0000,3.1321,flat,18.0,2,15.071
6140,196.48,0.0585,7.5414,0.1799,-0.0000,-0.0000,-2.8989,flat,18.0,2,14.778
6150,196.80,-0.4453,7.3917,0.1799,0.0001,-0.0000,-2.7173,flat,18.0,2,14.385
6160,197.12,-0.9268,7.1491,0.1799,0.0003,-0.0000,-2.5868,rough,14.0,2,13.931
6170,197.44,-1.2876,6.9156,0.1798,0.0002,0.0001,-2.5236,flat,18.0,2,13.550
6180,197.76,-1.7259,6.5834,0.1798,0.0003,-0.0001,-2.4486,flat,18.0,2,13.048
6190,198.08,-2.1438,6.2161,0.1797,0.0002,-0.0000,-2.3841,flat,18.0,2,12.528
6200,198.40,-2.5397,5.8217,0.1797,0.0002,-0.0000,-2.3282,flat,18.0,2,11.997
6210,198.72,-2.9154,5.4051,0.1797,0.0002,-0.0000,-2.2796,flat,18.0,2,11.458
6220,199.04,-3.2733,4.9712,0.1797,0.0001,-0.0000,-2.2380,flat,18.0,2,10.912
6230,199.36,-3.6153,4.5221,0.1797,0.0001,-0.0000,-2.2009,flat,18.0,2,10.361
6240,199.68,-3.9425,4.0600,0.1797,0.0001,-0.0000,-2.1676,flat,18.0,2,9.806
6250,200.00,-4.2558,3.5867,0.1797,0.0001,-0.0000,-2.1377,flat,18.0,2,9.247
6260,200.32,-4.5561,3.1038,0.1797,0.0001,-0.0000,-2.1107,flat,18.0,2,8.685
6270,200.64,-4.8445,2.6126,0.1797,0.0001,-0.0000,-2.0864,flat,18.0,2,8.121
6280,200.96,-5.1216,2.1142,0.1797,0.0001,-0.0000,-2.0643,flat,18.0,2,7.556
6290,201.28,-5.3885,1.6095,0.1797,0.0001,-0.0000,-2.0441,flat,18.0,2,6.989
6300,201.60,-5.6457,1.0992,0.1797,0.0001,-0.0000,-2.0256,flat,18.0,2,6.420
6310,201.92,-5.8939,0.5841,0.1797,0.0001,-0.0000,-2.0084,flat,18.0,2,5.851
6320,202.24,-6.1337,0.0646,0.1797,0.0001,-0.0000,-1.9924,flat,18.0,2,5.281
6330,202.56,-6.3654,-0.4588,0.1797,0.0001,-0.0000,-1.9773,flat,18.0,2,4.711
6340,202.88,-6.5894,-0.9858,0.1797,0.0001,-0.0000,-1.9628,flat,18.0,2,4.140
6350,203.20,-6.8060,-1.5160,0.1797,0.0000,-0.0000,-1.9487,flat,18.0,2,3.568
6360,203.52,-7.0150,-2.0493,0.1797,0.0000,-0.0000,-1.9345,flat,18.0,2,2.997
6370,203.84,-7.2165,-2.5853,0.1797,0.0001,0.0000,-1.9198,flat,18.0,2,2.426
6380,204.16,-7.4098,-3.1241,0.1797,0.0001,0.0000,-1.9036,flat,18.0,2,1.855
6390,204.48,-7.5939,-3.6653,0.1797,0.0001,0.0000,-1.8838,flat,18.0,2,1.285
6400,204.80,-7.7623,-4.2054,0.1797,0.0001,0.0002,-1.8735,flat,18.0,3,0.948
6410,205.12,-7.9036,-4.6646,0.1798,-0.0003,0.0001,-1.7434,flat,18.0,0,13.249
6420,205.44,-7.9496,-5.0545,0.1799,-0.0000,-0.0000,-1.3085,flat,18.0,0,13.305
6430,205.76,-7.8052,-5.4632,0.1799,-0.0001,-0.0001,-0.9992,flat,18.0,0,13.184
6440,206.08,-7.5073,-5.8437,0.1799,0.0000,-0.0000,-0.7749,flat,18.0,0,12.920
6450,206.40,-7.1082,-6.1779,0.1799,0.0000,-0.0000,-0.5883,flat,18.0,0,12.563
6460,206.72,-6.6413,-6.4540,0.1799,0.0001,-0.0000,-0.4246,flat,18.0,0,12.141
6470,207.04,-6.1296,-6.6629,0.1799,0.0002,-0.0000,-0.2889,flat,18.0,0,11.673
6480,207.36,-5.5905,-6.8079,0.1798,0.0004,-0.0000,-0.1783,flat,18.0,0,11.172
6490,207.68,-5.0357,-6.8966,0.1798,0.0004,-0.0000,-0.0879,flat,18.0,0,10.649
6500,208.00,-4.4726,-6.9373,0.1798,0.0003,-0.0000,-0.0139,flat,18.0,0,10.110
6510,208.32,-3.9066,-6.9379,0.1797,0.0002,-0.0000,0.0447,flat,18.0,0,9.562
6520,208.64,-3.3408,-6.9071,0.1797,0.0002,-0.0000,0.0901,flat,18.0,0,9.007
6530,208.96,-2.7760,-6.8515,0.1797,0.0001,-0.0000,0.1264,flat,18.0,0,8.449
6540,209.28,-2.2126,-6.7759,0.1797,0.0001,-0.0000,0.1569,flat,18.0,0,7.887
6550,209.60,-1.6508,-6.6834,0.1797,0.0001,-0.0000,0.1831,flat,18.0,0,7.322
6560,209.92,-1.0908,-6.5765,0.1797,0.0001,-0.0000,0.2059,flat,18.0,0,6.756
6570,210.24,-0.5328,-6.4570,0.1797,0.0001,-0.0000,0.2260,flat,18.0,0,6.188
6580,210.56,0.0232,-6.3265,0.1797,0.0001,-0.0000,0.2440,flat,18.0,0,5.620
6590,210.88,0.5772,-6.1861,0.1797,0.0001,-0.0000,0.2603,flat,18.0,0,5.050
6600,211.20,1.1292,-6.0367,0.1797,0.0001,-0.0000,0.2754,flat,18.0,0,4.480
6610,211.52,1.6791,-5.8791,0.1797,0.0001,-0.0000,0.2895,flat,18.0,0,3.909
6620,211.84,2.2268,-5.7137,0.1797,0.0000,-0.0000,0.3032,flat,18.0,0,3.338
6630,212.16,2.7721,-5.5409,0.1797,0.0000,0.0000,0.3168,flat,18.0,0,2.768
6640,212.48,3.3149,-5.3607,0.1797,0.0000,0.0000,0.3310,flat,18.0,0,2.197
6650,212.80,3.8544,-5.1727,0.1797,0.0001,0.0000,0.3469,flat,18.0,0,1.627
6660,213.12,4.3894,-4.9761,0.1797,0.0001,0.0000,0.3672,flat,18.0,0,1.058
6670,213.44,4.8741,-4.7873,0.1798,-0.0002,0.0001,0.4997,flat,18.0,1,12.887
6680,213.76,5.2408,-4.5399,0.1799,0.0000,-0.0000,0.7698,flat,18.0,1,12.768
6690,214.08,5.5526,-4.1710,0.1799,0.0000,-0.0000,1.0088,flat,18.0,1,12.530
6700,214.40,5.8001,-3.7137,0.1799,0.0001,-0.0000,1.2263,flat,18.0,1,12.199
6710,214.72,5.9599,-3.1967,0.1799,0.0001,-0.0000,1.4150,flat,18.0,1,11.792
6720,215.04,6.0275,-2.6492,0.1799,0.0001,-0.0000,1.5702,flat,18.0,1,11.327
6730,215.36,6.0139,-2.0931,0.1799,0.0004,-0.0000,1.6849,flat,18.0,1,10.824
6740,215.68,5.9399,-1.5390,0.1798,0.0004,-0.0000,1.7691,flat,18.0,1,10.300
6750,216.00,5.8208,-0.9902,0.1797,0.0003,-0.0000,1.8341,flat,18.0,1,9.763
6760,216.32,5.6670,-0.4480,0.1797,0.0002,-0.0000,1.8862,flat,18.0,1,9.216
6770,216.64,5.4855,0.0870,0.1797,0.0001,-0.0000,1.9276,flat,18.0,1,8.663
6780,216.96,5.2824,0.6151,0.1797,0.0001,-0.0000,1.9616,flat,18.0,1,8.106
6790,217.28,5.0615,1.1373,0.1797,0.0001,-0.0000,1.9910,flat,18.0,1,7.547
6800,217.60,4.8253,1.6538,0.1797,0.0001,-0.0000,2.0169,flat,18.0,1,6.984
6810,217.92,4.5759,2.1650,0.1797,0.0001,-0.0000,2.0399,flat,18.0,1,6.420
6820,218.24,4.3148,2.6710,0.1797,0.0001,-0.0000,2.0608,flat,18.0,1,5.855
6830,218.56,4.0431,3.1720,0.1797,0.0001,-0.0000,2.0799,flat,18.0,1,5.288
6840,218.88,3.7620,3.6681,0.1797,0.0001,-0.0000,2.0976,flat,18.0,1,4.721
6850,219.20,3.4720,4.1595,0.1797,0.0001,-0.0000,2.1145,flat,18.0,1,4.152
6860,219.52,3.1737,4.6461,0.1797,0.0001,-0.0000,2.1308,flat,18.0,1,3.584
6870,219.84,2.8675,5.1277,0.1797,0.0001,0.0000,2.1471,flat,18.0,1,3.015
6880,220.16,2.5535,5.6040,0.1797,0.0001,0.0000,2.1639,flat,18.0,1,2.447
6890,220.48,2.2315,6.0742,0.1797,0.0001,0.0000,2.1824,flat,18.0,1,1.879
6900,220.80,1.9010,6.5369,0.1797,0.0001,0.0000,2.2046,flat,18.0,1,1.313
6910,221.12,1.5605,6.9881,0.1797,0.0001,0.0000,2.2373,flat,18.0,2,15.201
6920,221.44,1.2718,7.2855,0.1799,-0.0003,-0.0000,2.5705,flat,18.0,2,15.260
6930,221.76,0.8862,7.4880,0.1799,-0.0000,-0.0000,2.9126,flat,18.0,2,15.196
6940,222.08,0.4125,7.5709,0.1799,0.0001,-0.0000,-3.0666,flat,18.0,2,14.996
6950,222.40,-0.0938,7.5083,0.1799,0.0001,-0.0000,-2.8399,flat,18.0,2,14.669
6960,222.72,-0.5926,7.3271,0.1799,0.0001,-0.0000,-2.6734,flat,18.0,2,14.254
6970,223.04,-1.0389,7.0804,0.1798,0.0002,0.0003,-2.5707,rough,14.0,2,13.816
6980,223.36,-1.4194,6.8216,0.1798,0.0002,-0.0003,-2.4986,flat,18.0,2,13.404
6990,223.68,-1.8536,6.4764,0.1798,0.0003,-0.0000,-2.4280,flat,18.0,2,12.893
7000,224.00,-2.2647,6.1004,0.1797,0.0002,-0.0000,-2.3663,flat,18.0,2,12.370
7010,224.32,-2.6544,5.6988,0.1797,0.0002,-0.0000,-2.3128,flat,18.0,2,11.836
7020,224.64,-3.0245,5.2766,0.1797,0.0002,-0.0000,-2.2666,flat,18.0,2,11.295
7030,224.96,-3.3775,4.8379,0.1797,0.0001,-0.0000,-2.2264,flat,18.0,2,10.747
7040,225.28,-3.7150,4.3847,0.1797,0.0001,-0.0000,-2.1905,flat,18.0,2,10.195
7050,225.60,-4.0379,3.9191,0.1797,0.0001,-0.0000,-2.1583,flat,18.0,2,9.639
7060,225.92,-4.3472,3.4428,0.1797,0.0001,-0.0000,-2.1293,flat,18.0,2,9.079
7070,226.24,-4.6438,2.9572,0.1797,0.0001,-0.0000,-2.1032,flat,18.0,2,8.516
7080,226.56,-4.9287,2.4638,0.1797,0.0001,-0.0000,-2.0795,flat,18.0,2,7.952
7090,226.88,-5.2027,1.9634,0.1797,0.0001,-0.0000,-2.0580,flat,18.0,2,7.386
7100,227.20,-5.4666,1.4569,0.1797,0.0001,-0.0000,-2.0384,flat,18.0,2,6.818
7110,227.52,-5.7211,0.9452,0.1797,0.0001,-0.0000,-2.0203,flat,18.0,2,6.250
7120,227.84,-5.9667,0.4286,0.1797,0.0001,-0.0000,-2.0035,flat,18.0,2,5.680
7130,228.16,-6.2040,-0.0921,0.1797,0.0001,-0.0000,-1.9878,flat,18.0,2,5.110
7140,228.48,-6.4334,-0.6166,0.1797,0.0001,-0.0000,-1.9729,flat,18.0,2,4.539
7150,228.80,-6.6551,-1.1446,0.1797,0.0001,-0.0000,-1.9585,flat,18.0,2,3.968
7160,229.12,-6.8694,-1.6757,0.1797,0.0000,-0.0000,-1.9444,flat,18.0,2,3.397
7170,229.44,-7.0763,-2.2098,0.1797,0.0001,-0.0000,-1.9302,flat,18.0,2,2.826
7180,229.76,-7.2754,-2.7467,0.1797,0.0001,0.0000,-1.9151,flat,18.0,2,2.254
7190,230.08,-7.4661,-3.2862,0.1797,0.0001,0.0000,-1.8982,flat,18.0,2,1.684
7200,230.40,-7.6469,-3.8280,0.1797,0.0001,0.0000,-1.8764,flat,18.0,2,1.114
7210,230.72,-7.8070,-4.3573,0.1798,0.0001,0.0001,-1.9299,flat,18.0,3,0.811
7220,231.04,-7.9367,-4.7803,0.1798,-0.0004,0.0001,-1.6021,flat,18.0,0,13.284
7230,231.36,-7.9252,-5.1774,0.1799,0.0001,-0.0001,-1.2066,flat,18.0,0,13.286
7240,231.68,-7.7295,-5.5818,0.1799,0.0001,-0.0000,-0.9266,flat,18.0,0,13.117
7250,232.00,-7.3961,-5.9488,0.1799,0.0001,-0.0000,-0.7178,flat,18.0,0,12.821
7260,232.32,-6.9742,-6.2676,0.1799,0.0001,-0.0000,-0.5366,flat,18.0,0,12.442
7270,232.64,-6.4916,-6.5237,0.1799,0.0001,-0.0000,-0.3810,flat,18.0,0,12.005
7280,232.96,-5.9701,-6.7128,0.1799,0.0003,-0.0000,-0.2533,flat,18.0,0,11.525
7290,233.28,-5.4253,-6.8400,0.1798,0.0004,-0.0000,-0.1492,flat,18.0,0,11.017
7300,233.60,-4.8674,-6.9135,0.1798,0.0004,-0.0000,-0.0641,flat,18.0,0,10.489
7310,233.92,-4.3029,-6.9414,0.1798,0.0003,-0.0000,0.0056,flat,18.0,0,9.947
7320,234.24,-3.7369,-6.9316,0.1797,0.0002,-0.0000,0.0592,flat,18.0,0,9.396
7330,234.56,-3.1712,-6.8928,0.1797,0.0002,-0.0000,0.1017,flat,18.0,0,8.840
7340,234.88,-2.6068,-6.8308,0.1797,0.0001,-0.0000,0.1361,flat,18.0,0,8.280
7350,235.20,-2.0439,-6.7498,0.1797,0.0001,-0.0000,0.1652,flat,18.0,0,7.718
7360,235.52,-1.4826,-6.6528,0.1797,0.0001,-0.0000,0.1903,flat,18.0,0,7.153
7370,235.84,-0.9232,-6.5419,0.1797,0.0001,-0.0000,0.2122,flat,18.0,0,6.586
7380,236.16,-0.3658,-6.4190,0.1797,0.0001,-0.0000,0.2316,flat,18.0,0,6.018
7390,236.48,0.1896,-6.2854,0.1797,0.0001,-0.0000,0.2491,flat,18.0,0,5.449
7400,236.80,0.7430,-6.1422,0.1797,0.0001,-0.0000,0.2650,flat,18.0,0,4.879
7410,237.12,1.2944,-5.9903,0.1797,0.0001,-0.0000,0.2797,flat,18.0,0,4.309
7420,237.44,1.8436,-5.8303,0.1797,0.0000,-0.0000,0.2937,flat,18.0,0,3.738
7430,237.76,2.3906,-5.6627,0.1797,0.0000,-0.0000,0.3073,flat,18.0,0,3.167
7440,238.08,2.9352,-5.4876,0.1797,0.0000,0.0000,0.3210,flat,18.0,0,2.596
7450,238.40,3.4771,-5.3051,0.1797,0.0001,0.0000,0.3355,flat,18.0,0,2.026
7460,238.72,4.0155,-5.1147,0.1797,0.0001,0.0000,0.3523,flat,18.0,0,1.456
7470,239.04,4.5485,-4.9151,0.1797,0.0001,0.0000,0.3753,flat,18.0,0,0.889
7480,239.36,4.9928,-4.7249,0.1799,-0.0003,0.0000,0.5776,flat,18.0,1,12.864
7490,239.68,5.3390,-4.4401,0.1799,-0.0000,-0.0000,0.8433,flat,18.0,1,12.707
7500,240.00,5.6350,-4.0418,0.1799,0.0000,-0.0000,1.0768,flat,18.0,1,12.440
7510,240.32,5.8579,-3.5635,0.1799,0.0000,-0.0000,1.2866,flat,18.0,1,12.084
7520,240.64,5.9897,-3.0345,0.1799,0.0001,-0.0000,1.4657,flat,18.0,1,11.657
7530,240.96,6.0310,-2.4826,0.1799,0.0002,-0.0000,1.6090,flat,18.0,1,11.179
7540,241.28,5.9973,-1.9264,0.1798,0.0004,-0.0000,1.7127,flat,18.0,1,10.669
7550,241.60,5.9084,-1.3737,0.1798,0.0003,-0.0000,1.7903,flat,18.0,1,10.140
7560,241.92,5.7780,-0.8268,0.1797,0.0002,-0.0000,1.8509,flat,18.0,1,9.599
7570,242.24,5.6152,-0.2867,0.1797,0.0002,-0.0000,1.8998,flat,18.0,1,9.051
7580,242.56,5.4266,0.2460,0.1797,0.0001,-0.0000,1.9384,flat,18.0,1,8.497
7590,242.88,5.2178,0.7723,0.1797,0.0001,-0.0000,1.9708,flat,18.0,1,7.939
7600,243.20,4.9922,1.2928,0.1797,0.0001,-0.0000,1.9991,flat,18.0,1,7.378
7610,243.52,4.7518,1.8077,0.1797,0.0001,-0.0000,2.0241,flat,18.0,1,6.815
7620,243.84,4.4988,2.3173,0.1797,0.0001,-0.0000,2.0464,flat,18.0,1,6.251
7630,244.16,4.2343,2.8218,0.1797,0.0001,-0.0000,2.0667,flat,18.0,1,5.685
7640,244.48,3.9597,3.3213,0.1797,0.0001,-0.0000,2.0853,flat,18.0,1,5.118
7650,244.80,3.6759,3.8160,0.1797,0.0001,-0.0000,2.1028,flat,18.0,1,4.550
7660,245.12,3.3833,4.3060,0.1797,0.0001,-0.0000,2.1194,flat,18.0,1,3.982
7670,245.44,3.0827,4.7911,0.1797,0.0001,-0.0000,2.1357,flat,18.0,1,3.413
7680,245.76,2.7741,5.2711,0.1797,0.0001,0.0000,2.1520,flat,18.0,1,2.845
7690,246.08,2.4578,5.7457,0.1797,0.0001,0.0000,2.1692,flat,18.0,1,2.277
7700,246.40,2.1333,6.2139,0.1797,0.0001,0.0000,2.1885,flat,18.0,1,1.709
7710,246.72,1.7999,6.6738,0.1797,0.0001,0.0000,2.2128,flat,18.0,1,1.144
7720,247.04,1.4740,7.1012,0.1798,0.0000,0.0004,2.3197,flat,18.0,2,15.236
7730,247.36,1.1683,7.3548,0.1799,-0.0001,-0.0000,2.6759,flat,18.0,2,15.253
7740,247.68,0.7509,7.5279,0.1799,0.0000,-0.0000,3.0091,flat,18.0,2,15.151
7750,248.00,0.2616,7.5667,0.1799,0.0000,-0.0000,-2.9900,flat,18.0,2,14.910
7760,248.32,-0.2455,7.4649,0.1799,0.0001,-0.0000,-2.7828,flat,18.0,2,14.552
7770,248.64,-0.7375,7.2550,0.1799,0.0001,-0.0000,-2.6338,flat,18.0,2,14.118
7780,248.96,-1.1466,7.0113,0.1798,0.0002,0.0002,-2.5506,rough,14.0,2,13.702
7790,249.28,-1.5520,6.7216,0.1798,0.0003,-0.0002,-2.4762,flat,18.0,2,13.252
7800,249.60,-1.9794,6.3665,0.1797,0.0002,-0.0000,-2.4092,flat,18.0,2,12.737
7810,249.92,-2.3838,5.9824,0.1797,0.0002,-0.0000,-2.3495,flat,18.0,2,12.211
7820,250.24,-2.7674,5.5740,0.1797,0.0002,-0.0000,-2.2981,flat,18.0,2,11.674
7830,250.56,-3.1321,5.1467,0.1797,0.0002,-0.0000,-2.2541,flat,18.0,2,11.131
7840,250.88,-3.4803,4.7034,0.1797,0.0001,-0.0000,-2.2152,flat,18.0,2,10.582
7850,251.20,-3.8133,4.2463,0.1797,0.0001,-0.0000,-2.1805,flat,18.0,2,10.029
7860,251.52,-4.1321,3.7773,0.1797,0.0001,-0.0000,-2.1493,flat,18.0,2,9.471
7870,251.84,-4.4375,3.2980,0.1797,0.0001,-0.0000,-2.1212,flat,18.0,2,8.910
7880,252.16,-4.7305,2.8100,0.1797,0.0001,-0.0000,-2.0958,flat,18.0,2,8.347
7890,252.48,-5.0121,2.3144,0.1797,0.0001,-0.0000,-2.0729,flat,18.0,2,7.782
7900,252.80,-5.2830,1.8121,0.1797,0.0001,-0.0000,-2.0520,flat,18.0,2,7.216
7910,253.12,-5.5439,1.3040,0.1797,0.0001,-0.0000,-2.0328,flat,18.0,2,6.648
7920,253.44,-5.7957,0.7907,0.1797,0.0001,-0.0000,-2.0151,flat,18.0,2,6.079
7930,253.76,-6.0388,0.2729,0.1797,0.0001,-0.0000,-1.9987,flat,18.0,2,5.509
7940,254.08,-6.2737,-0.2490,0.1797,0.0001,-0.0000,-1.9832,flat,18.0,2,4.939
7950,254.40,-6.5007,-0.7746,0.1797,0.0001,-0.0000,-1.9685,flat,18.0,2,4.368
7960,254.72,-6.7202,-1.3036,0.1797,0.0001,-0.0000,-1.9543,flat,18.0,2,3.797
7970,255.04,-6.9323,-1.8356,0.1797,0.0000,-0.0000,-1.9402,flat,18.0,2,3.226
7980,255.36,-7.1369,-2.3706,0.1797,0.0001,0.0000,-1.9258,flat,18.0,2,2.654
7990,255.68,-7.3335,-2.9082,0.1797,0.0001,0.0000,-1.9103,flat,18.0,2,2.083
8000,256.00,-7.5215,-3.4485,0.1797,0.0001,0.0000,-1.8923,flat,18.0,2,1.513
8010,256.32,-7.6988,-3.9909,0.1797,0.0001,0.0000,-1.8679,flat,18.0,2,0.944
8020,256.64,-7.8522,-4.4981,0.1799,-0.0006,0.0003,-1.8945,flat,18.0,0,13.197
8030,256.96,-7.9540,-4.8948,0.1799,-0.0002,-0.0000,-1.4662,flat,18.0,0,13.304
8040,257.28,-7.8843,-5.3009,0.1799,-0.0001,-0.0000,-1.1107,flat,18.0,0,13.252
8050,257.60,-7.6416,-5.6970,0.1799,-0.0000,-0.0000,-0.8567,flat,18.0,0,13.039
8060,257.92,-7.2773,-6.0501,0.1799,0.0000,-0.0000,-0.6609,flat,18.0,0,12.714
