step,time_s,x,y,z,roll,pitch,yaw,terrain,speed,target_idx,dist_to_target
10,0.32,-1.2123,0.8840,0.1847,-0.0000,-0.0345,-0.0000,rough,14.0,0,8.497
20,0.64,-0.7803,0.8711,0.1794,-0.0001,0.0020,-0.1043,flat,18.0,0,8.160
30,0.96,-0.2446,0.7939,0.1799,-0.0002,-0.0000,-0.2636,flat,18.0,0,7.712
40,1.28,0.2791,0.6353,0.1799,-0.0004,-0.0000,-0.3809,flat,18.0,0,7.228
50,1.60,0.7855,0.4167,0.1798,-0.0004,-0.0000,-0.4714,flat,18.0,0,6.720
60,1.92,1.2739,0.1527,0.1798,-0.0003,-0.0000,-0.5448,flat,18.0,0,6.197
70,2.24,1.7446,-0.1470,0.1797,-0.0002,-0.0000,-0.6064,flat,18.0,0,5.665
80,2.56,2.1981,-0.4756,0.1797,-0.0002,-0.0000,-0.6596,flat,18.0,0,5.125
90,2.88,2.6351,-0.8285,0.1797,-0.0002,-0.0000,-0.7066,flat,18.0,0,4.580
100,3.20,3.0561,-1.2017,0.1797,-0.0001,-0.0000,-0.7491,flat,18.0,0,4.031
110,3.52,3.4616,-1.5930,0.1797,-0.0001,-0.0000,-0.7899,flat,18.0,0,3.481
120,3.84,3.8508,-2.0006,0.1797,-0.0001,0.0000,-0.8306,flat,18.0,0,2.929
130,4.16,4.2220,-2.4234,0.1797,-0.0001,0.0000,-0.8727,flat,18.0,0,2.379
140,4.48,4.5741,-2.8604,0.1797,-0.0002,0.0000,-0.9188,flat,18.0,0,1.830
150,4.80,4.9043,-3.3133,0.1797,-0.0002,0.0000,-0.9784,flat,18.0,0,1.285
160,5.12,5.2029,-3.7835,0.1798,-0.0003,0.0000,-1.0698,flat,18.0,1,12.043
170,5.44,5.3103,-4.0111,0.1799,0.0009,-0.0012,-0.5100,flat,18.0,1,12.294
180,5.76,5.6100,-4.1463,0.1792,-0.0001,-0.0051,-0.0335,flat,18.0,1,12.528
190,6.08,5.9803,-4.1368,0.1799,0.0001,-0.0000,0.4383,flat,18.0,1,12.659
200,6.40,6.3205,-3.9263,0.1799,0.0000,-0.0000,0.7645,flat,18.0,1,12.605
210,6.72,6.6209,-3.5687,0.1799,0.0000,-0.0000,1.0244,flat,18.0,1,12.414
220,7.04,6.8550,-3.1163,0.1799,0.0001,-0.0000,1.2624,flat,18.0,1,12.123
230,7.36,6.9930,-2.6006,0.1799,0.0001,0.0000,1.4690,flat,18.0,1,11.744
240,7.68,7.0287,-2.0549,0.1799,0.0001,-0.0000,1.6402,flat,18.0,1,11.296
250,8.00,6.9758,-1.5048,0.1799,0.0003,-0.0000,1.7611,flat,18.0,1,10.805
260,8.32,6.8591,-0.9610,0.1798,0.0004,-0.0000,1.8499,flat,18.0,1,10.289
270,8.64,6.6955,-0.4262,0.1798,0.0003,-0.0000,1.9187,flat,18.0,1,9.757
280,8.96,6.4959,0.0989,0.1797,0.0002,-0.0000,1.9738,flat,18.0,1,9.215
290,9.28,6.2677,0.6143,0.1797,0.0002,-0.0000,2.0186,flat,18.0,1,8.666
300,9.60,6.0169,1.1201,0.1797,0.0001,-0.0000,2.0548,flat,18.0,1,8.112
310,9.92,5.7479,1.6180,0.1797,0.0001,-0.0000,2.0862,flat,18.0,1,7.555
320,10.24,5.4633,2.1085,0.1797,0.0001,-0.0000,2.1139,flat,18.0,1,6.995
330,10.56,5.1651,2.5919,0.1797,0.0001,-0.0000,2.1387,flat,18.0,1,6.433
340,10.88,4.8549,3.0685,0.1797,0.0001,-0.0000,2.1612,flat,18.0,1,5.869
350,11.20,4.5341,3.5386,0.1797,0.0001,-0.0000,2.1819,flat,18.0,1,5.304
360,11.52,4.2035,4.0025,0.1797,0.0001,-0.0000,2.2012,flat,18.0,1,4.737
370,11.84,3.8639,4.4602,0.1797,0.0001,-0.0000,2.2197,flat,18.0,1,4.171
380,12.16,3.5159,4.9117,0.1797,0.0001,-0.0000,2.2376,flat,18.0,1,3.604
390,12.48,3.1597,5.3568,0.1797,0.0001,0.0000,2.2555,flat,18.0,1,3.036
400,12.80,2.7957,5.7952,0.1797,0.0001,0.0000,2.2742,flat,18.0,1,2.469
410,13.12,2.4236,6.2259,0.1797,0.0001,0.0000,2.2950,flat,18.0,1,1.903
420,13.44,2.0427,6.6473,0.1797,0.0001,0.0000,2.3208,flat,18.0,1,1.339
430,13.76,1.6517,7.0545,0.1797,0.0001,0.0000,2.3581,flat,18.0,2,15.309
440,14.08,1.3233,7.3235,0.1799,-0.0003,-0.0000,2.6819,flat,18.0,2,15.321
450,14.40,0.9028,7.4955,0.1799,-0.0000,-0.0000,3.0127,flat,18.0,2,15.212
460,14.72,0.4109,7.5333,0.1799,-0.0000,-0.0001,-2.9922,flat,18.0,2,14.964
470,15.04,-0.0981,7.4332,0.1799,0.0001,-0.0000,-2.7886,flat,18.0,2,14.603
480,15.36,-0.5918,7.2263,0.1799,0.0001,-0.0000,-2.6403,flat,18.0,2,14.168
490,15.68,-1.0592,6.9464,0.1798,0.0004,-0.0000,-2.5333,flat,18.0,2,13.689
500,16.00,-1.5040,6.6165,0.1798,0.0003,-0.0000,-2.4592,flat,18.0,2,13.183
510,16.32,-1.9263,6.2540,0.1797,0.0002,-0.0000,-2.3954,flat,18.0,2,12.663
520,16.64,-2.3269,5.8641,0.1797,0.0002,-0.0000,-2.3399,flat,18.0,2,12.131
530,16.96,-2.7078,5.4519,0.1797,0.0002,-0.0000,-2.2918,flat,18.0,2,11.591
540,17.28,-3.0710,5.0222,0.1797,0.0001,-0.0000,-2.2507,flat,18.0,2,11.045
550,17.60,-3.4188,4.5775,0.1797,0.0001,-0.0000,-2.2142,flat,18.0,2,10.494
560,17.92,-3.7521,4.1199,0.1797,0.0001,-0.0000,-2.1815,flat,18.0,2,9.939
570,18.24,-4.0719,3.6510,0.1797,0.0001,-0.0000,-2.1521,flat,18.0,2,9.380
580,18.56,-4.3791,3.1725,0.1797,0.0001,-0.0000,-2.1255,flat,18.0,2,8.818
590,18.88,-4.6747,2.6856,0.1797,0.0001,-0.0000,-2.1015,flat,18.0,2,8.254
600,19.20,-4.9593,2.1914,0.1797,0.0001,-0.0000,-2.0797,flat,18.0,2,7.688
610,19.52,-5.2339,1.6909,0.1797,0.0001,-0.0000,-2.0599,flat,18.0,2,7.121
620,19.84,-5.4991,1.1848,0.1797,0.0001,-0.0000,-2.0416,flat,18.0,2,6.553
630,20.16,-5.7556,0.6737,0.1797,0.0001,-0.0000,-2.0247,flat,18.0,2,5.983
640,20.48,-6.0037,0.1581,0.1797,0.0001,-0.0000,-2.0089,flat,18.0,2,5.413
650,20.80,-6.2440,-0.3614,0.1797,0.0001,-0.0000,-1.9941,flat,18.0,2,4.843
660,21.12,-6.4769,-0.8846,0.1797,0.0001,-0.0000,-1.9799,flat,18.0,2,4.272
670,21.44,-6.7024,-1.4111,0.1797,0.0000,-0.0000,-1.9661,flat,18.0,2,3.700
680,21.76,-6.9208,-1.9406,0.1797,0.0000,-0.0000,-1.9523,flat,18.0,2,3.129
690,22.08,-7.1318,-2.4731,0.1797,0.0000,0.0000,-1.9381,flat,18.0,2,2.558
700,22.40,-7.3351,-3.0083,0.1797,0.0001,0.0000,-1.9227,flat,18.0,2,1.986
710,22.72,-7.5297,-3.5461,0.1797,0.0001,0.0000,-1.9045,flat,18.0,2,1.416
720,23.04,-7.7132,-4.0860,0.1797,0.0001,0.0000,-1.8786,flat,18.0,2,0.848
730,23.36,-7.8666,-4.5662,0.1798,-0.0003,0.0002,-1.8386,flat,18.0,0,13.211
740,23.68,-7.9491,-4.9548,0.1799,-0.0001,-0.0000,-1.3919,flat,18.0,0,13.301
750,24.00,-7.8454,-5.3645,0.1799,-0.0001,-0.0001,-1.0605,flat,18.0,0,13.217
760,24.32,-7.5779,-5.7545,0.1799,-0.0000,-0.0000,-0.8205,flat,18.0,0,12.981
770,24.64,-7.1978,-6.0997,0.1799,0.0000,-0.0000,-0.6295,flat,18.0,0,12.642
780,24.96,-6.7443,-6.3906,0.1799,0.0001,-0.0000,-0.4597,flat,18.0,0,12.233
790,25.28,-6.2412,-6.6149,0.1799,0.0001,-0.0000,-0.3178,flat,18.0,0,11.774
800,25.60,-5.7071,-6.7740,0.1799,0.0004,-0.0000,-0.2019,flat,18.0,0,11.279
810,25.92,-5.1551,-6.8751,0.1798,0.0004,-0.0000,-0.1073,flat,18.0,0,10.761
820,26.24,-4.5935,-6.9262,0.1798,0.0004,-0.0000,-0.0298,flat,18.0,0,10.225
830,26.56,-4.0275,-6.9355,0.1797,0.0002,-0.0000,0.0327,flat,18.0,0,9.678
840,26.88,-3.4618,-6.9113,0.1797,0.0002,-0.0000,0.0801,flat,18.0,0,9.125
850,27.20,-2.8967,-6.8610,0.1797,0.0001,-0.0000,0.1183,flat,18.0,0,8.567
860,27.52,-2.3329,-6.7899,0.1797,0.0001,-0.0000,0.1501,flat,18.0,0,8.006
870,27.84,-1.7707,-6.7012,0.1797,0.0001,-0.0000,0.1772,flat,18.0,0,7.442
880,28.16,-1.2102,-6.5975,0.1797,0.0001,-0.0000,0.2007,flat,18.0,0,6.876
890,28.48,-0.6517,-6.4810,0.1797,0.0001,-0.0000,0.2214,flat,18.0,0,6.309
900,28.80,-0.0952,-6.3530,0.1797,0.0001,-0.0000,0.2398,flat,18.0,0,5.740
910,29.12,0.4593,-6.2149,0.1797,0.0001,-0.0000,0.2565,flat,18.0,0,5.171
920,29.44,1.0118,-6.0676,0.1797,0.0001,-0.0000,0.2718,flat,18.0,0,4.601
930,29.76,1.5621,-5.9120,0.1797,0.0001,-0.0000,0.2862,flat,18.0,0,4.030
940,30.08,2.1104,-5.7485,0.1797,0.0000,-0.0000,0.2999,flat,18.0,0,3.460
950,30.40,2.6563,-5.5774,0.1797,0.0000,-0.0000,0.3135,flat,18.0,0,2.889
960,30.72,3.1997,-5.3990,0.1797,0.0000,0.0000,0.3275,flat,18.0,0,2.318
970,31.04,3.7400,-5.2129,0.1797,0.0001,0.0000,0.3430,flat,18.0,0,1.748
980,31.36,4.2762,-5.0184,0.1797,0.0001,0.0000,0.3620,flat,18.0,0,1.179
990,31.68,4.7852,-4.8265,0.1798,0.0001,0.0003,0.4493,flat,18.0,1,12.898
1000,32.00,5.1668,-4.6027,0.1799,0.0000,-0.0000,0.7169,flat,18.0,1,12.803
1010,32.32,5.4883,-4.2559,0.1799,0.0000,-0.0000,0.9616,flat,18.0,1,12.586
1020,32.64,5.7515,-3.8143,0.1799,0.0001,-0.0000,1.1841,flat,18.0,1,12.273
1030,32.96,5.9301,-3.3070,0.1799,0.0001,0.0000,1.3788,flat,18.0,1,11.880
1040,33.28,6.0161,-2.7636,0.1799,0.0001,-0.0000,1.5413,flat,18.0,1,11.424
1050,33.60,6.0176,-2.2080,0.1799,0.0003,-0.0000,1.6643,flat,18.0,1,10.928
1060,33.92,5.9546,-1.6530,0.1798,0.0004,-0.0000,1.7534,flat,18.0,1,10.408
1070,34.24,5.8440,-1.1030,0.1798,0.0003,-0.0000,1.8217,flat,18.0,1,9.872
1080,34.56,5.6967,-0.5593,0.1797,0.0002,-0.0000,1.8761,flat,18.0,1,9.327
1090,34.88,5.5206,-0.0227,0.1797,0.0002,-0.0000,1.9197,flat,18.0,1,8.775
1100,35.20,5.3216,0.5067,0.1797,0.0001,-0.0000,1.9547,flat,18.0,1,8.219
1110,35.52,5.1044,1.0301,0.1797,0.0001,-0.0000,1.9849,flat,18.0,1,7.660
1120,35.84,4.8714,1.5479,0.1797,0.0001,-0.0000,2.0115,flat,18.0,1,7.098
1130,36.16,4.6247,2.0603,0.1797,0.0001,-0.0000,2.0350,flat,18.0,1,6.535
1140,36.48,4.3661,2.5674,0.1797,0.0001,-0.0000,2.0563,flat,18.0,1,5.969
1150,36.80,4.0967,3.0695,0.1797,0.0001,-0.0000,2.0757,flat,18.0,1,5.403
1160,37.12,3.8176,3.5668,0.1797,0.0001,-0.0000,2.0937,flat,18.0,1,4.835
1170,37.44,3.5296,4.0593,0.1797,0.0001,-0.0000,2.1107,flat,18.0,1,4.267
1180,37.76,3.2332,4.5469,0.1797,0.0001,-0.0000,2.1271,flat,18.0,1,3.699
1190,38.08,2.9288,5.0297,0.1797,0.0001,-0.0000,2.1433,flat,18.0,1,3.130
1200,38.40,2.6166,5.5073,0.1797,0.0001,0.0000,2.1599,flat,18.0,1,2.562
1210,38.72,2.2965,5.9790,0.1797,0.0001,0.0000,2.1779,flat,18.0,1,1.994
1220,39.04,1.9680,6.4436,0.1797,0.0001,0.0000,2.1991,flat,18.0,1,1.427
1230,39.36,1.6299,6.8979,0.1797,0.0001,0.0000,2.2286,flat,18.0,1,0.865
1240,39.68,1.3349,7.2358,0.1798,-0.0003,0.0000,2.4990,flat,18.0,2,15.258
1250,40.00,0.9728,7.4541,0.1799,-0.0000,-0.0000,2.8460,flat,18.0,2,15.219
1260,40.32,0.5125,7.5655,0.1799,0.0001,-0.0000,-3.1224,flat,18.0,2,15.047
1270,40.64,0.0087,7.5309,0.1799,0.0001,-0.0000,-2.8800,flat,18.0,2,14.742
1280,40.96,-0.4938,7.3707,0.1799,0.0001,-0.0000,-2.7024,flat,18.0,2,14.342
1290,41.28,-0.9727,7.1207,0.1799,0.0003,-0.0000,-2.5761,flat,18.0,2,13.884
1300,41.60,-1.4259,6.8100,0.1798,0.0004,-0.0000,-2.4870,flat,18.0,2,13.390
1310,41.92,-1.8571,6.4596,0.1797,0.0002,-0.0000,-2.4198,flat,18.0,2,12.877
1320,42.24,-2.2650,6.0799,0.1797,0.0002,-0.0000,-2.3586,flat,18.0,2,12.352
1330,42.56,-2.6522,5.6752,0.1797,0.0002,-0.0000,-2.3066,flat,18.0,2,11.816
1340,42.88,-3.0201,5.2508,0.1797,0.0002,-0.0000,-2.2618,flat,18.0,2,11.273
1350,43.20,-3.3716,4.8103,0.1797,0.0001,-0.0000,-2.2227,flat,18.0,2,10.725
1360,43.52,-3.7078,4.3557,0.1797,0.0001,-0.0000,-2.1877,flat,18.0,2,10.172
1370,43.84,-4.0297,3.8891,0.1797,0.0001,-0.0000,-2.1563,flat,18.0,2,9.614
1380,44.16,-4.3383,3.4121,0.1797,0.0001,-0.0000,-2.1280,flat,18.0,2,9.054
1390,44.48,-4.6345,2.9261,0.1797,0.0001,-0.0000,-2.1025,flat,18.0,2,8.491
1400,44.80,-4.9193,2.4324,0.1797,0.0001,-0.0000,-2.0794,flat,18.0,2,7.926
1410,45.12,-5.1933,1.9319,0.1797,0.0001,-0.0000,-2.0584,flat,18.0,2,7.360
1420,45.44,-5.4575,1.4255,0.1797,0.0001,-0.0000,-2.0392,flat,18.0,2,6.792
1430,45.76,-5.7125,0.9138,0.1797,0.0001,-0.0000,-2.0215,flat,18.0,2,6.223
1440,46.08,-5.9588,0.3976,0.1797,0.0001,-0.0000,-2.0050,flat,18.0,2,5.654
1450,46.40,-6.1970,-0.1228,0.1797,0.0001,-0.0000,-1.9896,flat,18.0,2,5.083
1460,46.72,-6.4274,-0.6470,0.1797,0.0001,-0.0000,-1.9750,flat,18.0,2,4.512
1470,47.04,-6.6503,-1.1745,0.1797,0.0000,-0.0000,-1.9609,flat,18.0,2,3.941
1480,47.36,-6.8660,-1.7052,0.1797,0.0000,-0.0000,-1.9470,flat,18.0,2,3.370
1490,47.68,-7.0742,-2.2388,0.1797,0.0000,-0.0000,-1.9330,flat,18.0,2,2.798
1500,48.00,-7.2749,-2.7751,0.1797,0.0001,0.0000,-1.9181,flat,18.0,2,2.227
1510,48.32,-7.4672,-3.3140,0.1797,0.0001,0.0000,-1.9012,flat,18.0,2,1.656
1520,48.64,-7.6497,-3.8553,0.1797,0.0001,0.0000,-1.8795,flat,18.0,2,1.087
1530,48.96,-7.8112,-4.3839,0.1798,0.0001,0.0001,-1.9328,flat,18.0,0,13.157
1540,49.28,-7.9267,-4.7996,0.1798,-0.0003,0.0000,-1.5475,flat,18.0,0,13.274
1550,49.60,-7.8918,-5.2011,0.1799,0.0002,-0.0000,-1.1711,flat,18.0,0,13.254
1560,49.92,-7.6778,-5.6036,0.1799,0.0001,-0.0000,-0.9006,flat,18.0,0,13.067
1570,50.24,-7.3323,-5.9658,0.1799,0.0001,-0.0000,-0.6970,flat,18.0,0,12.759
1580,50.56,-6.9025,-6.2786,0.1799,0.0001,-0.0000,-0.5184,flat,18.0,0,12.373
1590,50.88,-6.4148,-6.5275,0.1799,0.0001,-0.0000,-0.3664,flat,18.0,0,11.930
1600,51.20,-5.8902,-6.7098,0.1799,0.0003,-0.0000,-0.2417,flat,18.0,0,11.446
1610,51.52,-5.3436,-6.8312,0.1798,0.0004,-0.0000,-0.1401,flat,18.0,0,10.935
1620,51.84,-4.7847,-6.8999,0.1798,0.0004,-0.0000,-0.0569,flat,18.0,0,10.405
1630,52.16,-4.2198,-6.9239,0.1797,0.0003,-0.0000,0.0112,flat,18.0,0,9.862
1640,52.48,-3.6539,-6.9112,0.1797,0.0002,-0.0000,0.0631,flat,18.0,0,9.311
1650,52.80,-3.0883,-6.8702,0.1797,0.0002,-0.0000,0.1046,flat,18.0,0,8.754
1660,53.12,-2.5239,-6.8066,0.1797,0.0001,-0.0000,0.1383,flat,18.0,0,8.194
1670,53.44,-1.9610,-6.7244,0.1797,0.0001,-0.0000,0.1670,flat,18.0,0,7.631
1680,53.76,-1.3999,-6.6264,0.1797,0.0001,-0.0000,0.1917,flat,18.0,0,7.066
1690,54.08,-0.8406,-6.5148,0.1797,0.0001,-0.0000,0.2134,flat,18.0,0,6.499
1700,54.40,-0.2832,-6.3912,0.1797,0.0001,-0.0000,0.2326,flat,18.0,0,5.931
1710,54.72,0.2721,-6.2571,0.1797,0.0001,-0.0000,0.2498,flat,18.0,0,5.362
1720,55.04,0.8254,-6.1135,0.1797,0.0001,-0.0000,0.2656,flat,18.0,0,4.792
1730,55.36,1.3767,-5.9612,0.1797,0.0001,-0.0000,0.2803,flat,18.0,0,4.221
1740,55.68,1.9258,-5.8009,0.1797,0.0000,-0.0000,0.2943,flat,18.0,0,3.651
1750,56.00,2.4727,-5.6329,0.1797,0.0000,-0.0000,0.3079,flat,18.0,0,3.080
1760,56.32,3.0172,-5.4575,0.1797,0.0000,0.0000,0.3217,flat,18.0,0,2.509
1770,56.64,3.5588,-5.2746,0.1797,0.0001,0.0000,0.3366,flat,18.0,0,1.939
1780,56.96,4.0968,-5.0836,0.1797,0.0001,0.0000,0.3540,flat,18.0,0,1.369
1790,57.28,4.6289,-4.8831,0.1797,0.0001,0.0000,0.3788,flat,18.0,0,0.802
1800,57.60,5.0576,-4.6905,0.1799,-0.0002,0.0000,0.6063,flat,18.0,1,12.851
1810,57.92,5.3974,-4.3926,0.1799,0.0000,-0.0000,0.8687,flat,18.0,1,12.682
1820,58.24,5.6869,-3.9848,0.1799,0.0000,-0.0000,1.1006,flat,18.0,1,12.406
1830,58.56,5.9003,-3.4997,0.1799,0.0001,-0.0000,1.3075,flat,18.0,1,12.043
1840,58.88,6.0217,-2.9670,0.1799,0.0001,-0.0000,1.4838,flat,18.0,1,11.610
1850,59.20,6.0533,-2.4140,0.1799,0.0002,-0.0000,1.6233,flat,18.0,1,11.128
1860,59.52,6.0120,-1.8582,0.1798,0.0004,-0.0000,1.7236,flat,18.0,1,10.616
1870,59.84,5.9172,-1.3062,0.1798,0.0003,-0.0000,1.7992,flat,18.0,1,10.085
1880,60.16,5.7820,-0.7603,0.1797,0.0002,-0.0000,1.8584,flat,18.0,1,9.544
1890,60.48,5.6152,-0.2212,0.1797,0.0002,-0.0000,1.9064,flat,18.0,1,8.994
1900,60.80,5.4232,0.3103,0.1797,0.0001,-0.0000,1.9440,flat,18.0,1,8.440
1910,61.12,5.2115,0.8355,0.1797,0.0001,-0.0000,1.9760,flat,18.0,1,7.882
1920,61.44,4.9831,1.3549,0.1797,0.0001,-0.0000,2.0039,flat,18.0,1,7.321
1930,61.76,4.7403,1.8687,0.1797,0.0001,-0.0000,2.0286,flat,18.0,1,6.758
1940,62.08,4.4849,2.3772,0.1797,0.0001,-0.0000,2.0507,flat,18.0,1,6.193
1950,62.40,4.2183,2.8806,0.1797,0.0001,-0.0000,2.0708,flat,18.0,1,5.627
1960,62.72,3.9416,3.3790,0.1797,0.0001,-0.0000,2.0894,flat,18.0,1,5.060
1970,63.04,3.6557,3.8725,0.1797,0.0001,-0.0000,2.1068,flat,18.0,1,4.492
1980,63.36,3.3612,4.3613,0.1797,0.0001,-0.0000,2.1234,flat,18.0,1,3.924
1990,63.68,3.0586,4.8452,0.1797,0.0001,-0.0000,2.1396,flat,18.0,1,3.356
2000,64.00,2.7481,5.3240,0.1797,0.0001,0.0000,2.1561,flat,18.0,1,2.787
2010,64.32,2.4299,5.7972,0.1797,0.0001,0.0000,2.1734,flat,18.0,1,2.219
2020,64.64,2.1034,6.2639,0.1797,0.0001,0.0000,2.1931,flat,18.0,1,1.652
2030,64.96,1.7680,6.7219,0.1797,0.0001,0.0000,2.2182,flat,18.0,1,1.087
2040,65.28,1.4486,7.1338,0.1798,-0.0000,0.0004,2.3580,flat,18.0,2,15.246
2050,65.60,1.1314,7.3780,0.1799,-0.0001,-0.0001,2.7128,flat,18.0,2,15.250
2060,65.92,0.7036,7.5390,0.1799,0.0000,-0.0000,3.0424,flat,18.0,2,15.133
2070,66.24,0.2101,7.5619,0.1799,0.0001,-0.0000,-2.9655,flat,18.0,2,14.877
2080,66.56,-0.2966,7.4468,0.1799,0.0001,-0.0000,-2.7657,flat,18.0,2,14.509
2090,66.88,-0.7861,7.2278,0.1799,0.0002,-0.0000,-2.6208,flat,18.0,2,14.070
2100,67.20,-1.2486,6.9386,0.1798,0.0004,-0.0000,-2.5171,flat,18.0,2,13.589
2110,67.52,-1.6887,6.6016,0.1798,0.0003,-0.0000,-2.4450,flat,18.0,2,13.082
2120,67.84,-2.1057,6.2329,0.1797,0.0002,-0.0000,-2.3813,flat,18.0,2,12.561
2130,68.16,-2.5009,5.8373,0.1797,0.0002,-0.0000,-2.3264,flat,18.0,2,12.029
2140,68.48,-2.8761,5.4201,0.1797,0.0002,-0.0000,-2.2786,flat,18.0,2,11.488
2150,68.80,-3.2338,4.9857,0.1797,0.0001,-0.0000,-2.2377,flat,18.0,2,10.942
2160,69.12,-3.5759,4.5365,0.1797,0.0001,-0.0000,-2.2011,flat,18.0,2,10.391
2170,69.44,-3.9034,4.0744,0.1797,0.0001,-0.0000,-2.1683,flat,18.0,2,9.835
2180,69.76,-4.2172,3.6013,0.1797,0.0001,-0.0000,-2.1389,flat,18.0,2,9.276
2190,70.08,-4.5182,3.1187,0.1797,0.0001,-0.0000,-2.1123,flat,18.0,2,8.714
2200,70.40,-4.8074,2.6279,0.1797,0.0001,-0.0000,-2.0883,flat,18.0,2,8.150
2210,70.72,-5.0856,2.1300,0.1797,0.0001,-0.0000,-2.0665,flat,18.0,2,7.584
2220,71.04,-5.3537,1.6259,0.1797,0.0001,-0.0000,-2.0466,flat,18.0,2,7.016
2230,71.36,-5.6122,1.1162,0.1797,0.0001,-0.0000,-2.0284,flat,18.0,2,6.448
2240,71.68,-5.8620,0.6018,0.1797,0.0001,-0.0000,-2.0115,flat,18.0,2,5.879
2250,72.00,-6.1033,0.0830,0.1797,0.0001,-0.0000,-1.9957,flat,18.0,2,5.309
2260,72.32,-6.3368,-0.4397,0.1797,0.0001,-0.0000,-1.9808,flat,18.0,2,4.738
2270,72.64,-6.5627,-0.9659,0.1797,0.0001,-0.0000,-1.9665,flat,18.0,2,4.167
2280,72.96,-6.7813,-1.4954,0.1797,0.0000,-0.0000,-1.9526,flat,18.0,2,3.596
2290,73.28,-6.9925,-2.0278,0.1797,0.0000,-0.0000,-1.9387,flat,18.0,2,3.024
2300,73.60,-7.1963,-2.5630,0.1797,0.0001,0.0000,-1.9243,flat,18.0,2,2.453
2310,73.92,-7.3921,-3.1010,0.1797,0.0001,0.0000,-1.9084,flat,18.0,2,1.882
2320,74.24,-7.5788,-3.6413,0.1797,0.0001,0.0000,-1.8891,flat,18.0,2,1.312
2330,74.56,-7.7537,-4.1836,0.1797,0.0001,0.0000,-1.8603,flat,18.0,3,0.970
2340,74.88,-7.8885,-4.6473,0.1798,-0.0003,0.0001,-1.7322,flat,18.0,0,13.234
2350,75.20,-7.9300,-5.0392,0.1799,0.0001,-0.0001,-1.3053,flat,18.0,0,13.285
2360,75.52,-7.7827,-5.4489,0.1799,0.0001,-0.0000,-0.9989,flat,18.0,0,13.160
2370,75.84,-7.4834,-5.8292,0.1799,0.0001,-0.0000,-0.7733,flat,18.0,0,12.895
2380,76.16,-7.0834,-6.1630,0.1799,0.0001,-0.0000,-0.5872,flat,18.0,0,12.536
2390,76.48,-6.6159,-6.4386,0.1799,0.0001,-0.0000,-0.4236,flat,18.0,0,12.113
2400,76.80,-6.1039,-6.6470,0.1799,0.0002,-0.0000,-0.2883,flat,18.0,0,11.644
2410,77.12,-5.5647,-6.7918,0.1798,0.0004,-0.0000,-0.1781,flat,18.0,0,11.143
2420,77.44,-5.0098,-6.8805,0.1798,0.0004,-0.0000,-0.0880,flat,18.0,0,10.620
2430,77.76,-4.4467,-6.9213,0.1798,0.0003,-0.0000,-0.0142,flat,18.0,0,10.081
2440,78.08,-3.8807,-6.9221,0.1797,0.0002,-0.0000,0.0441,flat,18.0,0,9.533
2450,78.40,-3.3148,-6.8916,0.1797,0.0002,-0.0000,0.0895,flat,18.0,0,8.978
2460,78.72,-2.7500,-6.8363,0.1797,0.0001,-0.0000,0.1257,flat,18.0,0,8.420
2470,79.04,-2.1865,-6.7611,0.1797,0.0001,-0.0000,0.1562,flat,18.0,0,7.857
2480,79.36,-1.6247,-6.6690,0.1797,0.0001,-0.0000,0.1824,flat,18.0,0,7.293
2490,79.68,-1.0646,-6.5625,0.1797,0.0001,-0.0000,0.2052,flat,18.0,0,6.727
2500,80.00,-0.5065,-6.4434,0.1797,0.0001,-0.0000,0.2253,flat,18.0,0,6.159
2510,80.32,0.0496,-6.3133,0.1797,0.0001,-0.0000,0.2433,flat,18.0,0,5.590
2520,80.64,0.6037,-6.1732,0.1797,0.0001,-0.0000,0.2596,flat,18.0,0,5.021
2530,80.96,1.1558,-6.0243,0.1797,0.0001,-0.0000,0.2747,flat,18.0,0,4.451
2540,81.28,1.7057,-5.8670,0.1797,0.0001,-0.0000,0.2889,flat,18.0,0,3.880
2550,81.60,2.2535,-5.7020,0.1797,0.0000,-0.0000,0.3026,flat,18.0,0,3.309
2560,81.92,2.7990,-5.5295,0.1797,0.0000,0.0000,0.3163,flat,18.0,0,2.738
2570,82.24,3.3417,-5.3495,0.1797,0.0001,0.0000,0.3306,flat,18.0,0,2.168
2580,82.56,3.8813,-5.1617,0.1797,0.0001,0.0000,0.3467,flat,18.0,0,1.598
2590,82.88,4.4161,-4.9651,0.1797,0.0001,0.0000,0.3675,flat,18.0,0,1.030
2600,83.20,4.9004,-4.7762,0.1798,-0.0002,0.0001,0.5008,flat,18.0,1,12.885
2610,83.52,5.2666,-4.5285,0.1799,0.0000,-0.0000,0.7712,flat,18.0,1,12.766
2620,83.84,5.5778,-4.1591,0.1799,0.0000,-0.0000,1.0105,flat,18.0,1,12.528
2630,84.16,5.8246,-3.7015,0.1799,0.0001,-0.0000,1.2283,flat,18.0,1,12.198
2640,84.48,5.9834,-3.1842,0.1799,0.0001,-0.0000,1.4172,flat,18.0,1,11.790
2650,84.80,6.0497,-2.6366,0.1799,0.0001,-0.0000,1.5726,flat,18.0,1,11.325
2660,85.12,6.0349,-2.0806,0.1799,0.0004,-0.0000,1.6871,flat,18.0,1,10.823
2670,85.44,5.9597,-1.5266,0.1798,0.0004,-0.0000,1.7712,flat,18.0,1,10.299
2680,85.76,5.8394,-0.9782,0.1797,0.0003,-0.0000,1.8363,flat,18.0,1,9.761
2690,86.08,5.6844,-0.4363,0.1797,0.0002,-0.0000,1.8883,flat,18.0,1,9.215
2700,86.40,5.5018,0.0983,0.1797,0.0001,-0.0000,1.9297,flat,18.0,1,8.662
2710,86.72,5.2975,0.6259,0.1797,0.0001,-0.0000,1.9637,flat,18.0,1,8.105
2720,87.04,5.0755,1.1476,0.1797,0.0001,-0.0000,1.9931,flat,18.0,1,7.545
2730,87.36,4.8383,1.6637,0.1797,0.0001,-0.0000,2.0190,flat,18.0,1,6.983
2740,87.68,4.5878,2.1743,0.1797,0.0001,-0.0000,2.0421,flat,18.0,1,6.419
2750,88.00,4.3255,2.6797,0.1797,0.0001,-0.0000,2.0629,flat,18.0,1,5.854
2760,88.32,4.0528,3.1801,0.1797,0.0001,-0.0000,2.0820,flat,18.0,1,5.287
2770,88.64,3.7705,3.6756,0.1797,0.0001,-0.0000,2.0998,flat,18.0,1,4.719
2780,88.96,3.4795,4.1663,0.1797,0.0001,-0.0000,2.1167,flat,18.0,1,4.151
2790,89.28,3.1801,4.6522,0.1797,0.0001,-0.0000,2.1330,flat,18.0,1,3.583
2800,89.60,2.8728,5.1331,0.1797,0.0001,0.0000,2.1493,flat,18.0,1,3.014
2810,89.92,2.5577,5.6087,0.1797,0.0001,0.0000,2.1662,flat,18.0,1,2.446
2820,90.24,2.2347,6.0782,0.1797,0.0001,0.0000,2.1847,flat,18.0,1,1.878
2830,90.56,1.9030,6.5401,0.1797,0.0001,0.0000,2.2070,flat,18.0,1,1.312
2840,90.88,1.5615,6.9904,0.1797,0.0001,0.0000,2.2397,flat,18.0,2,15.203
2850,91.20,1.2719,7.2871,0.1799,-0.0003,-0.0000,2.5729,flat,18.0,2,15.261
2860,91.52,0.8856,7.4890,0.1799,-0.0000,-0.0000,2.9147,flat,18.0,2,15.196
2870,91.84,0.4115,7.5711,0.1799,0.0001,-0.0000,-3.0649,flat,18.0,2,14.996
2880,92.16,-0.0949,7.5075,0.1799,0.0001,-0.0000,-2.8388,flat,18.0,2,14.667
2890,92.48,-0.5936,7.3258,0.1799,0.0001,-0.0000,-2.6726,flat,18.0,2,14.252
2900,92.80,-1.0669,7.0614,0.1799,0.0003,-0.0000,-2.5545,flat,18.0,2,13.785
2910,93.12,-1.5156,6.7407,0.1798,0.0003,-0.0000,-2.4728,flat,18.0,2,13.286
2920,93.44,-1.9419,6.3840,0.1797,0.0002,-0.0000,-2.4063,flat,18.0,2,12.770
2930,93.76,-2.3454,5.9987,0.1797,0.0002,-0.0000,-2.3473,flat,18.0,2,12.243
2940,94.08,-2.7284,5.5895,0.1797,0.0002,-0.0000,-2.2967,flat,18.0,2,11.705
2950,94.40,-3.0928,5.1616,0.1797,0.0002,-0.0000,-2.2535,flat,18.0,2,11.162
2960,94.72,-3.4410,4.7181,0.1797,0.0001,-0.0000,-2.2152,flat,18.0,2,10.612
2970,95.04,-3.7742,4.2609,0.1797,0.0001,-0.0000,-2.1810,flat,18.0,2,10.058
2980,95.36,-4.0934,3.7920,0.1797,0.0001,-0.0000,-2.1503,flat,18.0,2,9.500
2990,95.68,-4.3994,3.3130,0.1797,0.0001,-0.0000,-2.1226,flat,18.0,2,8.939
3000,96.00,-4.6932,2.8254,0.1797,0.0001,-0.0000,-2.0976,flat,18.0,2,8.376
3010,96.32,-4.9757,2.3302,0.1797,0.0001,-0.0000,-2.0750,flat,18.0,2,7.810
3020,96.64,-5.2477,1.8285,0.1797,0.0001,-0.0000,-2.0544,flat,18.0,2,7.244
3030,96.96,-5.5100,1.3209,0.1797,0.0001,-0.0000,-2.0355,flat,18.0,2,6.676
3040,97.28,-5.7632,0.8083,0.1797,0.0001,-0.0000,-2.0181,flat,18.0,2,6.107
3050,97.60,-6.0078,0.2912,0.1797,0.0001,-0.0000,-2.0019,flat,18.0,2,5.537
3060,97.92,-6.2444,-0.2300,0.1797,0.0001,-0.0000,-1.9866,flat,18.0,2,4.966
3070,98.24,-6.4733,-0.7548,0.1797,0.0001,-0.0000,-1.9721,flat,18.0,2,4.396
3080,98.56,-6.6948,-1.2830,0.1797,0.0000,-0.0000,-1.9581,flat,18.0,2,3.824
3090,98.88,-6.9089,-1.8143,0.1797,0.0000,-0.0000,-1.9443,flat,18.0,2,3.253
3100,99.20,-7.1157,-2.3484,0.1797,0.0000,0.0000,-1.9301,flat,18.0,2,2.681
3110,99.52,-7.3148,-2.8853,0.1797,0.0001,0.0000,-1.9150,flat,18.0,2,2.110
3120,99.84,-7.5053,-3.4247,0.1797,0.0001,0.0000,-1.8974,flat,18.0,2,1.540
3130,100.16,-7.6854,-3.9664,0.1797,0.0001,0.0000,-1.8738,flat,18.0,2,0.971
3140,100.48,-7.8393,-4.4782,0.1799,-0.0006,0.0003,-1.8785,flat,18.0,0,13.184
3150,100.80,-7.9360,-4.8789,0.1799,-0.0001,-0.0000,-1.4604,flat,18.0,0,13.286
3160,101.12,-7.8626,-5.2863,0.1799,0.0002,-0.0000,-1.1101,flat,18.0,0,13.229
3170,101.44,-7.6182,-5.6824,0.1799,0.0001,-0.0000,-0.8555,flat,18.0,0,13.015
3180,101.76,-7.2528,-6.0352,0.1799,0.0001,-0.0000,-0.6595,flat,18.0,0,12.688
3190,102.08,-6.8094,-6.3362,0.1799,0.0001,-0.0000,-0.4855,flat,18.0,0,12.289
3200,102.40,-6.3128,-6.5715,0.1799,0.0001,-0.0000,-0.3392,flat,18.0,0,11.837
3210,102.72,-5.7827,-6.7410,0.1799,0.0003,-0.0000,-0.2195,flat,18.0,0,11.347
3220,103.04,-5.2330,-6.8511,0.1798,0.0004,-0.0000,-0.1219,flat,18.0,0,10.831
3230,103.36,-4.6725,-6.9101,0.1798,0.0004,-0.0000,-0.0420,flat,18.0,0,10.298
3240,103.68,-4.1070,-6.9260,0.1797,0.0003,-0.0000,0.0232,flat,18.0,0,9.753
3250,104.00,-3.5411,-6.9069,0.1797,0.0002,-0.0000,0.0724,flat,18.0,0,9.201
3260,104.32,-2.9758,-6.8609,0.1797,0.0001,-0.0000,0.1120,flat,18.0,0,8.643
3270,104.64,-2.4117,-6.7932,0.1797,0.0001,-0.0000,0.1446,flat,18.0,0,8.083
3280,104.96,-1.8492,-6.7076,0.1797,0.0001,-0.0000,0.1724,flat,18.0,0,7.519
3290,105.28,-1.2884,-6.6066,0.1797,0.0001,-0.0000,0.1965,flat,18.0,0,6.953
3300,105.60,-0.7295,-6.4923,0.1797,0.0001,-0.0000,0.2176,flat,18.0,0,6.386
3310,105.92,-0.1726,-6.3665,0.1797,0.0001,-0.0000,0.2363,flat,18.0,0,5.818
3320,106.24,0.3824,-6.2303,0.1797,0.0001,-0.0000,0.2533,flat,18.0,0,5.249
3330,106.56,0.9352,-6.0848,0.1797,0.0001,-0.0000,0.2688,flat,18.0,0,4.679
3340,106.88,1.4861,-5.9308,0.1797,0.0001,-0.0000,0.2833,flat,18.0,0,4.108
3350,107.20,2.0347,-5.7688,0.1797,0.0000,-0.0000,0.2972,flat,18.0,0,3.538
3360,107.52,2.5811,-5.5993,0.1797,0.0000,-0.0000,0.3108,flat,18.0,0,2.967
3370,107.84,3.1250,-5.4223,0.1797,0.0000,0.0000,0.3248,flat,18.0,0,2.396
3380,108.16,3.6660,-5.2377,0.1797,0.0001,0.0000,0.3399,flat,18.0,0,1.826
3390,108.48,4.2030,-5.0448,0.1797,0.0001,0.0000,0.3583,flat,18.0,0,1.256
3400,108.80,4.7307,-4.8454,0.1797,0.0000,0.0002,0.4022,flat,18.0,1,12.901
3410,109.12,5.1293,-4.6423,0.1799,-0.0001,0.0000,0.6636,flat,18.0,1,12.828
3420,109.44,5.4592,-4.3189,0.1799,0.0000,-0.0000,0.9168,flat,18.0,1,12.635
3430,109.76,5.7357,-3.8933,0.1799,0.0000,-0.0000,1.1443,flat,18.0,1,12.340
3440,110.08,5.9312,-3.3963,0.1799,0.0001,-0.0000,1.3453,flat,18.0,1,11.961
3450,110.40,6.0340,-2.8576,0.1799,0.0001,-0.0000,1.5148,flat,18.0,1,11.517
3460,110.72,6.0493,-2.3030,0.1799,0.0003,-0.0000,1.6460,flat,18.0,1,11.027
3470,111.04,5.9960,-1.7476,0.1798,0.0004,-0.0000,1.7403,flat,18.0,1,10.511
3480,111.36,5.8922,-1.1968,0.1798,0.0003,-0.0000,1.8121,flat,18.0,1,9.978
3490,111.68,5.7501,-0.6522,0.1797,0.0002,-0.0000,1.8688,flat,18.0,1,9.434
3500,112.00,5.5779,-0.1145,0.1797,0.0002,-0.0000,1.9147,flat,18.0,1,8.883
3510,112.32,5.3816,0.4156,0.1797,0.0001,-0.0000,1.9507,flat,18.0,1,8.328
3520,112.64,5.1663,0.9396,0.1797,0.0001,-0.0000,1.9818,flat,18.0,1,7.770
3530,112.96,4.9349,1.4579,0.1797,0.0001,-0.0000,2.0090,flat,18.0,1,7.208
3540,113.28,4.6895,1.9707,0.1797,0.0001,-0.0000,2.0332,flat,18.0,1,6.645
3550,113.60,4.4318,2.4781,0.1797,0.0001,-0.0000,2.0548,flat,18.0,1,6.080
3560,113.92,4.1631,2.9805,0.1797,0.0001,-0.0000,2.0746,flat,18.0,1,5.514
3570,114.24,3.8846,3.4780,0.1797,0.0001,-0.0000,2.0929,flat,18.0,1,4.947
3580,114.56,3.5969,3.9706,0.1797,0.0001,-0.0000,2.1100,flat,18.0,1,4.379
3590,114.88,3.3008,4.4584,0.1797,0.0001,-0.0000,2.1265,flat,18.0,1,3.810
3600,115.20,2.9967,4.9414,0.1797,0.0001,-0.0000,2.1428,flat,18.0,1,3.242
3610,115.52,2.6847,5.4191,0.1797,0.0001,0.0000,2.1593,flat,18.0,1,2.673
3620,115.84,2.3649,5.8912,0.1797,0.0001,0.0000,2.1770,flat,18.0,1,2.105
3630,116.16,2.0368,6.3564,0.1797,0.0001,0.0000,2.1974,flat,18.0,1,1.538
3640,116.48,1.6994,6.8121,0.1797,0.0001,0.0000,2.2245,flat,18.0,1,0.975
3650,116.80,1.3932,7.1880,0.1798,-0.0002,0.0002,2.4303,flat,18.0,2,15.255
3660,117.12,1.0536,7.4192,0.1799,-0.0000,-0.0001,2.7813,flat,18.0,2,15.237
3670,117.44,0.6081,7.5559,0.1799,0.0000,-0.0000,3.1037,flat,18.0,2,15.093
3680,117.76,0.1084,7.5491,0.1799,0.0001,-0.0000,-2.9207,flat,18.0,2,14.812
3690,118.08,-0.3967,7.4104,0.1799,0.0001,-0.0000,-2.7322,flat,18.0,2,14.426
3700,118.40,-0.8808,7.1750,0.1799,0.0002,-0.0000,-2.5974,flat,18.0,2,13.976
3710,118.72,-1.3385,6.8745,0.1798,0.0004,-0.0000,-2.5009,flat,18.0,2,13.489
3720,119.04,-1.7741,6.5303,0.1798,0.0003,-0.0000,-2.4321,flat,18.0,2,12.978
3730,119.36,-2.1865,6.1560,0.1797,0.0002,-0.0000,-2.3696,flat,18.0,2,12.455
3740,119.68,-2.5776,5.7557,0.1797,0.0002,-0.0000,-2.3162,flat,18.0,2,11.921
3750,120.00,-2.9491,5.3347,0.1797,0.0002,-0.0000,-2.2700,flat,18.0,2,11.380
3760,120.32,-3.3035,4.8972,0.1797,0.0001,-0.0000,-2.2300,flat,18.0,2,10.832
3770,120.64,-3.6427,4.4452,0.1797,0.0001,-0.0000,-2.1942,flat,18.0,2,10.280
3780,120.96,-3.9673,3.9808,0.1797,0.0001,-0.0000,-2.1621,flat,18.0,2,9.723
3790,121.28,-4.2784,3.5057,0.1797,0.0001,-0.0000,-2.1333,flat,18.0,2,9.164
3800,121.60,-4.5770,3.0214,0.1797,0.0001,-0.0000,-2.1073,flat,18.0,2,8.601
3810,121.92,-4.8639,2.5291,0.1797,0.0001,-0.0000,-2.0838,flat,18.0,2,8.037
3820,122.24,-5.1401,2.0299,0.1797,0.0001,-0.0000,-2.0624,flat,18.0,2,7.470
3830,122.56,-5.4062,1.5246,0.1797,0.0001,-0.0000,-2.0428,flat,18.0,2,6.903
3840,122.88,-5.6629,1.0139,0.1797,0.0001,-0.0000,-2.0249,flat,18.0,2,6.334
3850,123.20,-5.9109,0.4985,0.1797,0.0001,-0.0000,-2.0082,flat,18.0,2,5.765
3860,123.52,-6.1507,-0.0211,0.1797,0.0001,-0.0000,-1.9926,flat,18.0,2,5.195
3870,123.84,-6.3826,-0.5445,0.1797,0.0001,-0.0000,-1.9779,flat,18.0,2,4.624
3880,124.16,-6.6070,-1.0714,0.1797,0.0001,-0.0000,-1.9637,flat,18.0,2,4.053
3890,124.48,-6.8241,-1.6015,0.1797,0.0000,-0.0000,-1.9498,flat,18.0,2,3.481
3900,124.80,-7.0339,-2.1345,0.1797,0.0000,-0.0000,-1.9359,flat,18.0,2,2.910
3910,125.12,-7.2361,-2.6703,0.1797,0.0001,0.0000,-1.9212,flat,18.0,2,2.339
3920,125.44,-7.4302,-3.2087,0.1797,0.0001,0.0000,-1.9049,flat,18.0,2,1.768
3930,125.76,-7.6148,-3.7495,0.1797,0.0001,0.0000,-1.8845,flat,18.0,2,1.198
3940,126.08,-7.7815,-4.2855,0.1797,0.0001,0.0001,-1.8940,flat,18.0,3,0.878
3950,126.40,-7.9106,-4.7264,0.1798,-0.0004,0.0001,-1.6422,flat,18.0,0,13.257
3960,126.72,-7.9151,-5.1210,0.1799,0.0002,-0.0001,-1.2359,flat,18.0,0,13.273
3970,127.04,-7.7334,-5.5282,0.1799,0.0001,-0.0000,-0.9482,flat,18.0,0,13.117
3980,127.36,-7.4098,-5.8995,0.1799,0.0001,-0.0000,-0.7348,flat,18.0,0,12.829
3990,127.68,-6.9945,-6.2232,0.1799,0.0001,-0.0000,-0.5522,flat,18.0,0,12.456
4000,128.00,-6.5164,-6.4855,0.1799,0.0001,-0.0000,-0.3943,flat,18.0,0,12.023
4010,128.32,-5.9978,-6.6808,0.1799,0.0002,-0.0000,-0.2645,flat,18.0,0,11.546
4020,128.64,-5.4546,-6.8137,0.1798,0.0004,-0.0000,-0.1586,flat,18.0,0,11.040
4030,128.96,-4.8976,-6.8921,0.1798,0.0004,-0.0000,-0.0720,flat,18.0,0,10.513
4040,129.28,-4.3335,-6.9243,0.1798,0.0003,-0.0000,-0.0011,flat,18.0,0,9.972
4050,129.60,-3.7675,-6.9181,0.1797,0.0002,-0.0000,0.0539,flat,18.0,0,9.422
4060,129.92,-3.2017,-6.8822,0.1797,0.0002,-0.0000,0.0973,flat,18.0,0,8.867
4070,130.24,-2.6372,-6.8226,0.1797,0.0001,-0.0000,0.1322,flat,18.0,0,8.307
4080,130.56,-2.0740,-6.7438,0.1797,0.0001,-0.0000,0.1618,flat,18.0,0,7.745
4090,130.88,-1.5124,-6.6486,0.1797,0.0001,-0.0000,0.1873,flat,18.0,0,7.180
4100,131.20,-0.9528,-6.5394,0.1797,0.0001,-0.0000,0.2094,flat,18.0,0,6.613
4110,131.52,-0.3951,-6.4180,0.1797,0.0001,-0.0000,0.2291,flat,18.0,0,6.045
4120,131.84,0.1607,-6.2858,0.1797,0.0001,-0.0000,0.2467,flat,18.0,0,5.476
4130,132.16,0.7144,-6.1439,0.1797,0.0001,-0.0000,0.2627,flat,18.0,0,4.907
4140,132.48,1.2660,-5.9933,0.1797,0.0001,-0.0000,0.2776,flat,18.0,0,4.336
4150,132.80,1.8156,-5.8344,0.1797,0.0001,-0.0000,0.2917,flat,18.0,0,3.766
4160,133.12,2.3629,-5.6679,0.1797,0.0000,-0.0000,0.3053,flat,18.0,0,3.195
4170,133.44,2.9078,-5.4939,0.1797,0.0000,0.0000,0.3191,flat,18.0,0,2.624
4180,133.76,3.4500,-5.3124,0.1797,0.0001,0.0000,0.3336,flat,18.0,0,2.054
4190,134.08,3.9888,-5.1230,0.1797,0.0001,0.0000,0.3503,flat,18.0,0,1.484
4200,134.40,4.5224,-4.9245,0.1797,0.0001,0.0000,0.3729,flat,18.0,0,0.916
4210,134.72,4.9804,-4.7354,0.1799,-0.0003,0.0000,0.5520,flat,18.0,1,12.870
4220,135.04,5.3324,-4.4629,0.1799,0.0000,-0.0000,0.8203,flat,18.0,1,12.726
4230,135.36,5.6335,-4.0737,0.1799,0.0000,-0.0000,1.0561,flat,18.0,1,12.469
4240,135.68,5.8640,-3.6018,0.1799,0.0001,-0.0000,1.2685,flat,18.0,1,12.122
4250,136.00,6.0041,-3.0762,0.1799,0.0001,-0.0000,1.4513,flat,18.0,1,11.701
4260,136.32,6.0528,-2.5255,0.1799,0.0001,-0.0000,1.5989,flat,18.0,1,11.227
4270,136.64,6.0242,-1.9694,0.1798,0.0004,-0.0000,1.7059,flat,18.0,1,10.720
4280,136.96,5.9390,-1.4164,0.1798,0.0004,-0.0000,1.7855,flat,18.0,1,10.192
4290,137.28,5.8110,-0.8692,0.1797,0.0002,-0.0000,1.8476,flat,18.0,1,9.653
4300,137.60,5.6501,-0.3287,0.1797,0.0002,-0.0000,1.8975,flat,18.0,1,9.104
4310,137.92,5.4626,0.2043,0.1797,0.0001,-0.0000,1.9370,flat,18.0,1,8.551
4320,138.24,5.2545,0.7307,0.1797,0.0001,-0.0000,1.9699,flat,18.0,1,7.994
4330,138.56,5.0293,1.2513,0.1797,0.0001,-0.0000,1.9986,flat,18.0,1,7.433
4340,138.88,4.7893,1.7662,0.1797,0.0001,-0.0000,2.0239,flat,18.0,1,6.871
4350,139.20,4.5363,2.2758,0.1797,0.0001,-0.0000,2.0464,flat,18.0,1,6.306
4360,139.52,4.2718,2.7802,0.1797,0.0001,-0.0000,2.0669,flat,18.0,1,5.740
4370,139.84,3.9971,3.2796,0.1797,0.0001,-0.0000,2.0857,flat,18.0,1,5.173
4380,140.16,3.7130,3.7741,0.1797,0.0001,-0.0000,2.1033,flat,18.0,1,4.606
4390,140.48,3.4203,4.2639,0.1797,0.0001,-0.0000,2.1200,flat,18.0,1,4.038
4400,140.80,3.1193,4.7488,0.1797,0.0001,-0.0000,2.1363,flat,18.0,1,3.469
4410,141.12,2.8105,5.2287,0.1797,0.0001,0.0000,2.1526,flat,18.0,1,2.901
4420,141.44,2.4938,5.7031,0.1797,0.0001,0.0000,2.1697,flat,18.0,1,2.332
4430,141.76,2.1691,6.1712,0.1797,0.0001,0.0000,2.1888,flat,18.0,1,1.765
4440,142.08,1.8356,6.6313,0.1797,0.0001,0.0000,2.2124,flat,18.0,1,1.200
4450,142.40,1.5012,7.0693,0.1797,0.0001,0.0003,2.2855,flat,18.0,2,15.228
4460,142.72,1.2041,7.3339,0.1799,-0.0002,-0.0000,2.6432,flat,18.0,2,15.258
4470,143.04,0.7961,7.5168,0.1799,0.0000,-0.0000,2.9793,flat,18.0,2,15.168
4480,143.36,0.3111,7.5695,0.1799,0.0001,-0.0000,-3.0135,flat,18.0,2,14.939
4490,143.68,-0.1961,7.4795,0.1799,0.0001,-0.0000,-2.8013,flat,18.0,2,14.590
4500,144.00,-0.6905,7.2784,0.1799,0.0001,-0.0000,-2.6459,flat,18.0,2,14.162
4510,144.32,-1.1583,7.0012,0.1798,0.0004,-0.0000,-2.5351,flat,18.0,2,13.688
4520,144.64,-1.6027,6.6719,0.1798,0.0003,-0.0000,-2.4586,flat,18.0,2,13.184
4530,144.96,-2.0242,6.3092,0.1797,0.0002,-0.0000,-2.3936,flat,18.0,2,12.666
4540,145.28,-2.4236,5.9185,0.1797,0.0002,-0.0000,-2.3367,flat,18.0,2,12.136
4550,145.60,-2.8027,5.5052,0.1797,0.0002,-0.0000,-2.2875,flat,18.0,2,11.597
4560,145.92,-3.1637,5.0741,0.1797,0.0001,-0.0000,-2.2455,flat,18.0,2,11.052
4570,146.24,-3.5088,4.6276,0.1797,0.0001,-0.0000,-2.2081,flat,18.0,2,10.502
4580,146.56,-3.8391,4.1680,0.1797,0.0001,-0.0000,-2.1746,flat,18.0,2,9.946
4590,146.88,-4.1555,3.6969,0.1797,0.0001,-0.0000,-2.1445,flat,18.0,2,9.388
4600,147.20,-4.4590,3.2161,0.1797,0.0001,-0.0000,-2.1174,flat,18.0,2,8.826
4610,147.52,-4.7505,2.7269,0.1797,0.0001,-0.0000,-2.0929,flat,18.0,2,8.263
4620,147.84,-5.0309,2.2303,0.1797,0.0001,-0.0000,-2.0707,flat,18.0,2,7.697
4630,148.16,-5.3009,1.7274,0.1797,0.0001,-0.0000,-2.0505,flat,18.0,2,7.130
4640,148.48,-5.5613,1.2188,0.1797,0.0001,-0.0000,-2.0319,flat,18.0,2,6.562
4650,148.80,-5.8127,0.7052,0.1797,0.0001,-0.0000,-2.0147,flat,18.0,2,5.993
4660,149.12,-6.0557,0.1872,0.1797,0.0001,-0.0000,-1.9987,flat,18.0,2,5.423
4670,149.44,-6.2908,-0.3347,0.1797,0.0001,-0.0000,-1.9837,flat,18.0,2,4.852
4680,149.76,-6.5182,-0.8602,0.1797,0.0001,-0.0000,-1.9693,flat,18.0,2,4.281
4690,150.08,-6.7382,-1.3891,0.1797,0.0000,-0.0000,-1.9554,flat,18.0,2,3.710
4700,150.40,-6.9509,-1.9209,0.1797,0.0000,-0.0000,-1.9415,flat,18.0,2,3.139
4710,150.72,-7.1561,-2.4556,0.1797,0.0001,0.0000,-1.9272,flat,18.0,2,2.567
4720,151.04,-7.3536,-2.9930,0.1797,0.0001,0.0000,-1.9117,flat,18.0,2,1.996
4730,151.36,-7.5422,-3.5329,0.1797,0.0001,0.0000,-1.8934,flat,18.0,2,1.426
4740,151.68,-7.7199,-4.0749,0.1797,0.0001,0.0000,-1.8676,flat,18.0,2,0.857
4750,152.00,-7.8641,-4.5642,0.1798,-0.0003,0.0002,-1.8108,flat,18.0,0,13.209
4760,152.32,-7.9369,-4.9581,0.1799,-0.0000,-0.0000,-1.3799,flat,18.0,0,13.289
4770,152.64,-7.8259,-5.3680,0.1799,0.0001,-0.0000,-1.0528,flat,18.0,0,13.198
4780,152.96,-7.5531,-5.7567,0.1799,0.0001,-0.0000,-0.8132,flat,18.0,0,12.957
4790,153.28,-7.1695,-6.1001,0.1799,0.0001,-0.0000,-0.6230,flat,18.0,0,12.614
4800,153.60,-6.7136,-6.3887,0.1799,0.0001,-0.0000,-0.4540,flat,18.0,0,12.202
4810,153.92,-6.2089,-6.6105,0.1799,0.0002,-0.0000,-0.3132,flat,18.0,0,11.741
4820,154.24,-5.6740,-6.7675,0.1799,0.0004,-0.0000,-0.1984,flat,18.0,0,11.246
4830,154.56,-5.1216,-6.8667,0.1798,0.0004,-0.0000,-0.1046,flat,18.0,0,10.726
4840,154.88,-4.5597,-6.9165,0.1798,0.0004,-0.0000,-0.0278,flat,18.0,0,10.190
4850,155.20,-3.9937,-6.9246,0.1797,0.0002,-0.0000,0.0340,flat,18.0,0,9.643
4860,155.52,-3.4279,-6.8997,0.1797,0.0002,-0.0000,0.0811,flat,18.0,0,9.090
4870,155.84,-2.8628,-6.8489,0.1797,0.0001,-0.0000,0.1190,flat,18.0,0,8.531
4880,156.16,-2.2990,-6.7774,0.1797,0.0001,-0.0000,0.1506,flat,18.0,0,7.970
4890,156.48,-1.7368,-6.6884,0.1797,0.0001,-0.0000,0.1775,flat,18.0,0,7.406
4900,156.80,-1.1764,-6.5846,0.1797,0.0001,-0.0000,0.2009,flat,18.0,0,6.840
4910,157.12,-0.6179,-6.4679,0.1797,0.0001,-0.0000,0.2215,flat,18.0,0,6.273
4920,157.44,-0.0614,-6.3399,0.1797,0.0001,-0.0000,0.2399,flat,18.0,0,5.704
4930,157.76,0.4931,-6.2018,0.1797,0.0001,-0.0000,0.2565,flat,18.0,0,5.135
4940,158.08,1.0456,-6.0545,0.1797,0.0001,-0.0000,0.2718,flat,18.0,0,4.565
4950,158.40,1.5960,-5.8989,0.1797,0.0001,-0.0000,0.2861,flat,18.0,0,3.994
4960,158.72,2.1442,-5.7354,0.1797,0.0000,-0.0000,0.2999,flat,18.0,0,3.423
4970,159.04,2.6902,-5.5644,0.1797,0.0000,-0.0000,0.3135,flat,18.0,0,2.852
4980,159.36,3.2335,-5.3859,0.1797,0.0000,0.0000,0.3276,flat,18.0,0,2.282
4990,159.68,3.7738,-5.1997,0.1797,0.0001,0.0000,0.3432,flat,18.0,0,1.712
5000,160.00,4.3098,-5.0051,0.1797,0.0001,0.0000,0.3627,flat,18.0,0,1.143
5010,160.32,4.8182,-4.8128,0.1798,0.0001,0.0003,0.4510,flat,18.0,1,12.895
5020,160.64,5.1990,-4.5883,0.1799,-0.0000,-0.0000,0.7191,flat,18.0,1,12.800
5030,160.96,5.5198,-4.2408,0.1799,0.0000,-0.0000,0.9640,flat,18.0,1,12.583
5040,161.28,5.7820,-3.7987,0.1799,0.0001,-0.0000,1.1868,flat,18.0,1,12.271
5050,161.60,5.9593,-3.2909,0.1799,0.0001,0.0000,1.3818,flat,18.0,1,11.877
5060,161.92,6.0437,-2.7473,0.1799,0.0001,-0.0000,1.5444,flat,18.0,1,11.422
5070,162.24,6.0435,-2.1917,0.1799,0.0003,-0.0000,1.6672,flat,18.0,1,10.926
5080,162.56,5.9789,-1.6370,0.1798,0.0004,-0.0000,1.7562,flat,18.0,1,10.405
5090,162.88,5.8667,-1.0873,0.1798,0.0003,-0.0000,1.8244,flat,18.0,1,9.870
5100,163.20,5.7180,-0.5441,0.1797,0.0002,-0.0000,1.8787,flat,18.0,1,9.325
5110,163.52,5.5404,-0.0080,0.1797,0.0002,-0.0000,1.9223,flat,18.0,1,8.773
5120,163.84,5.3400,0.5209,0.1797,0.0001,-0.0000,1.9573,flat,18.0,1,8.217
5130,164.16,5.1214,1.0438,0.1797,0.0001,-0.0000,1.9876,flat,18.0,1,7.658
5140,164.48,4.8870,1.5609,0.1797,0.0001,-0.0000,2.0141,flat,18.0,1,7.096
5150,164.80,4.6390,2.0726,0.1797,0.0001,-0.0000,2.0377,flat,18.0,1,6.532
5160,165.12,4.3790,2.5790,0.1797,0.0001,-0.0000,2.0589,flat,18.0,1,5.967
5170,165.44,4.1082,3.0804,0.1797,0.0001,-0.0000,2.0784,flat,18.0,1,5.400
5180,165.76,3.8278,3.5769,0.1797,0.0001,-0.0000,2.0964,flat,18.0,1,4.833
5190,166.08,3.5384,4.0685,0.1797,0.0001,-0.0000,2.1134,flat,18.0,1,4.265
5200,166.40,3.2407,4.5554,0.1797,0.0001,-0.0000,2.1298,flat,18.0,1,3.697
5210,166.72,2.9350,5.0373,0.1797,0.0001,-0.0000,2.1461,flat,18.0,1,3.128
5220,167.04,2.6214,5.5140,0.1797,0.0001,0.0000,2.1627,flat,18.0,1,2.560
5230,167.36,2.3000,5.9848,0.1797,0.0001,0.0000,2.1808,flat,18.0,1,1.992
5240,167.68,1.9701,6.4484,0.1797,0.0001,0.0000,2.2021,flat,18.0,1,1.425
5250,168.00,1.6307,6.9016,0.1797,0.0001,0.0000,2.2316,flat,18.0,1,0.863
5260,168.32,1.3347,7.2386,0.1798,-0.0003,0.0000,2.5019,flat,18.0,2,15.260
5270,168.64,0.9716,7.4563,0.1799,-0.0000,-0.0000,2.8487,flat,18.0,2,15.220
5280,168.96,0.5107,7.5666,0.1799,0.0001,-0.0000,-3.1201,flat,18.0,2,15.047
5290,169.28,0.0067,7.5308,0.1799,0.0001,-0.0000,-2.8786,flat,18.0,2,14.741
5300,169.60,-0.4957,7.3698,0.1799,0.0001,-0.0000,-2.7013,flat,18.0,2,14.340
5310,169.92,-0.9744,7.1194,0.1799,0.0003,-0.0000,-2.5753,flat,18.0,2,13.881
5320,170.24,-1.4274,6.8083,0.1798,0.0004,-0.0000,-2.4866,flat,18.0,2,13.388
5330,170.56,-1.8585,6.4577,0.1797,0.0002,-0.0000,-2.4194,flat,18.0,2,12.875
5340,170.88,-2.2663,6.0778,0.1797,0.0002,-0.0000,-2.3583,flat,18.0,2,12.349
5350,171.20,-2.6533,5.6729,0.1797,0.0002,-0.0000,-2.3063,flat,18.0,2,11.813
5360,171.52,-3.0212,5.2485,0.1797,0.0002,-0.0000,-2.2616,flat,18.0,2,11.271
5370,171.84,-3.3726,4.8079,0.1797,0.0001,-0.0000,-2.2225,flat,18.0,2,10.722
5380,172.16,-3.7087,4.3533,0.1797,0.0001,-0.0000,-2.1875,flat,18.0,2,10.169
5390,172.48,-4.0306,3.8866,0.1797,0.0001,-0.0000,-2.1561,flat,18.0,2,9.612
5400,172.80,-4.3391,3.4095,0.1797,0.0001,-0.0000,-2.1279,flat,18.0,2,9.051
5410,173.12,-4.6353,2.9235,0.1797,0.0001,-0.0000,-2.1024,flat,18.0,2,8.488
5420,173.44,-4.9200,2.4298,0.1797,0.0001,-0.0000,-2.0793,flat,18.0,2,7.924
5430,173.76,-5.1941,1.9292,0.1797,0.0001,-0.0000,-2.0583,flat,18.0,2,7.357
5440,174.08,-5.4582,1.4228,0.1797,0.0001,-0.0000,-2.0391,flat,18.0,2,6.789
5450,174.40,-5.7132,0.9112,0.1797,0.0001,-0.0000,-2.0214,flat,18.0,2,6.220
5460,174.72,-5.9595,0.3949,0.1797,0.0001,-0.0000,-2.0050,flat,18.0,2,5.651
5470,175.04,-6.1977,-0.1255,0.1797,0.0001,-0.0000,-1.9896,flat,18.0,2,5.081
5480,175.36,-6.4281,-0.6496,0.1797,0.0001,-0.0000,-1.9750,flat,18.0,2,4.510
5490,175.68,-6.6510,-1.1772,0.1797,0.0000,-0.0000,-1.9609,flat,18.0,2,3.939
5500,176.00,-6.8666,-1.7078,0.1797,0.0000,-0.0000,-1.9471,flat,18.0,2,3.367
5510,176.32,-7.0749,-2.2414,0.1797,0.0000,-0.0000,-1.9330,flat,18.0,2,2.796
5520,176.64,-7.2756,-2.7778,0.1797,0.0001,0.0000,-1.9181,flat,18.0,2,2.224
5530,176.96,-7.4679,-3.3167,0.1797,0.0001,0.0000,-1.9013,flat,18.0,2,1.654
5540,177.28,-7.6504,-3.8580,0.1797,0.0001,0.0000,-1.8794,flat,18.0,2,1.084
5550,177.60,-7.8119,-4.3865,0.1798,0.0001,0.0001,-1.9327,flat,18.0,0,13.157
5560,177.92,-7.9274,-4.8022,0.1798,-0.0003,0.0000,-1.5475,flat,18.0,0,13.275
5570,178.24,-7.8925,-5.2038,0.1799,0.0002,-0.0000,-1.1711,flat,18.0,0,13.255
5580,178.56,-7.6785,-5.6062,0.1799,0.0001,-0.0000,-0.9005,flat,18.0,0,13.068
5590,178.88,-7.3329,-5.9683,0.1799,0.0001,-0.0000,-0.6969,flat,18.0,0,12.760
5600,179.20,-6.9031,-6.2810,0.1799,0.0001,-0.0000,-0.5183,flat,18.0,0,12.374
5610,179.52,-6.4153,-6.5299,0.1799,0.0001,-0.0000,-0.3662,flat,18.0,0,11.930
5620,179.84,-5.8907,-6.7121,0.1799,0.0003,-0.0000,-0.2415,flat,18.0,0,11.447
5630,180.16,-5.3441,-6.8335,0.1798,0.0004,-0.0000,-0.1399,flat,18.0,0,10.936
5640,180.48,-4.7852,-6.9020,0.1798,0.0004,-0.0000,-0.0567,flat,18.0,0,10.406
5650,180.80,-4.2203,-6.9260,0.1797,0.0003,-0.0000,0.0114,flat,18.0,0,9.863
5660,181.12,-3.6543,-6.9131,0.1797,0.0002,-0.0000,0.0634,flat,18.0,0,9.312
5670,181.44,-3.0887,-6.8720,0.1797,0.0002,-0.0000,0.1048,flat,18.0,0,8.755
5680,181.76,-2.5244,-6.8083,0.1797,0.0001,-0.0000,0.1386,flat,18.0,0,8.195
5690,182.08,-1.9615,-6.7260,0.1797,0.0001,-0.0000,0.1672,flat,18.0,0,7.632
5700,182.40,-1.4004,-6.6278,0.1797,0.0001,-0.0000,0.1919,flat,18.0,0,7.067
5710,182.72,-0.8411,-6.5161,0.1797,0.0001,-0.0000,0.2136,flat,18.0,0,6.500
5720,183.04,-0.2838,-6.3924,0.1797,0.0001,-0.0000,0.2327,flat,18.0,0,5.932
5730,183.36,0.2715,-6.2582,0.1797,0.0001,-0.0000,0.2500,flat,18.0,0,5.363
5740,183.68,0.8248,-6.1145,0.1797,0.0001,-0.0000,0.2658,flat,18.0,0,4.793
5750,184.00,1.3761,-5.9621,0.1797,0.0001,-0.0000,0.2805,flat,18.0,0,4.222
5760,184.32,1.9252,-5.8017,0.1797,0.0000,-0.0000,0.2944,flat,18.0,0,3.652
5770,184.64,2.4721,-5.6337,0.1797,0.0000,-0.0000,0.3081,flat,18.0,0,3.081
5780,184.96,3.0165,-5.4582,0.1797,0.0000,0.0000,0.3219,flat,18.0,0,2.510
5790,185.28,3.5581,-5.2752,0.1797,0.0001,0.0000,0.3367,flat,18.0,0,1.940
5800,185.60,4.0960,-5.0841,0.1797,0.0001,0.0000,0.3542,flat,18.0,0,1.370
5810,185.92,4.6281,-4.8836,0.1797,0.0001,0.0000,0.3789,flat,18.0,0,0.803
5820,186.24,5.0568,-4.6908,0.1799,-0.0002,0.0000,0.6064,flat,18.0,1,12.851
5830,186.56,5.3966,-4.3930,0.1799,0.0000,-0.0000,0.8688,flat,18.0,1,12.682
5840,186.88,5.6862,-3.9851,0.1799,0.0000,-0.0000,1.1007,flat,18.0,1,12.406
5850,187.20,5.8995,-3.5000,0.1799,0.0001,-0.0000,1.3075,flat,18.0,1,12.043
5860,187.52,6.0209,-2.9673,0.1799,0.0001,-0.0000,1.4838,flat,18.0,1,11.610
5870,187.84,6.0525,-2.4143,0.1799,0.0002,-0.0000,1.6233,flat,18.0,1,11.128
5880,188.16,6.0112,-1.8585,0.1798,0.0004,-0.0000,1.7236,flat,18.0,1,10.615
5890,188.48,5.9165,-1.3065,0.1798,0.0003,-0.0000,1.7991,flat,18.0,1,10.085
5900,188.80,5.7813,-0.7606,0.1797,0.0002,-0.0000,1.8584,flat,18.0,1,9.544
5910,189.12,5.6146,-0.2214,0.1797,0.0002,-0.0000,1.9063,flat,18.0,1,8.994
5920,189.44,5.4225,0.3101,0.1797,0.0001,-0.0000,1.9439,flat,18.0,1,8.440
5930,189.76,5.2108,0.8353,0.1797,0.0001,-0.0000,1.9760,flat,18.0,1,7.882
5940,190.08,4.9825,1.3547,0.1797,0.0001,-0.0000,2.0039,flat,18.0,1,7.321
5950,190.40,4.7397,1.8686,0.1797,0.0001,-0.0000,2.0286,flat,18.0,1,6.758
5960,190.72,4.4843,2.3771,0.1797,0.0001,-0.0000,2.0507,flat,18.0,1,6.193
5970,191.04,4.2178,2.8804,0.1797,0.0001,-0.0000,2.0708,flat,18.0,1,5.627
5980,191.36,3.9411,3.3789,0.1797,0.0001,-0.0000,2.0893,flat,18.0,1,5.060
5990,191.68,3.6552,3.8724,0.1797,0.0001,-0.0000,2.1067,flat,18.0,1,4.492
6000,192.00,3.3608,4.3612,0.1797,0.0001,-0.0000,2.1233,flat,18.0,1,3.924
6010,192.32,3.0582,4.8452,0.1797,0.0001,-0.0000,2.1395,flat,18.0,1,3.356
6020,192.64,2.7478,5.3240,0.1797,0.0001,0.0000,2.1560,flat,18.0,1,2.787
6030,192.96,2.4296,5.7972,0.1797,0.0001,0.0000,2.1733,flat,18.0,1,2.219
6040,193.28,2.1032,6.2639,0.1797,0.0001,0.0000,2.1930,flat,18.0,1,1.652
6050,193.60,1.7677,6.7220,0.1797,0.0001,0.0000,2.2182,flat,18.0,1,1.087
6060,193.92,1.4484,7.1339,0.1798,-0.0000,0.0004,2.3579,flat,18.0,2,15.246
6070,194.24,1.1312,7.3781,0.1799,-0.0001,-0.0001,2.7128,flat,18.0,2,15.250
6080,194.56,0.7035,7.5392,0.1799,0.0000,-0.0000,3.0423,flat,18.0,2,15.133
6090,194.88,0.2100,7.5621,0.1799,0.0001,-0.0000,-2.9656,flat,18.0,2,14.878
6100,195.20,-0.2967,7.4470,0.1799,0.0001,-0.0000,-2.7657,flat,18.0,2,14.509
6110,195.52,-0.7862,7.2281,0.1799,0.0002,-0.0000,-2.6208,flat,18.0,2,14.070
6120,195.84,-1.2487,6.9388,0.1798,0.0004,-0.0000,-2.5171,flat,18.0,2,13.589
6130,196.16,-1.6888,6.6018,0.1798,0.0003,-0.0000,-2.4450,flat,18.0,2,13.082
6140,196.48,-2.1057,6.2331,0.1797,0.0002,-0.0000,-2.3813,flat,18.0,2,12.561
6150,196.80,-2.5009,5.8375,0.1797,0.0002,-0.0000,-2.3264,flat,18.0,2,12.029
6160,197.12,-2.8762,5.4203,0.1797,0.0002,-0.0000,-2.2786,flat,18.0,2,11.489
6170,197.44,-3.2339,4.9859,0.1797,0.0001,-0.0000,-2.2377,flat,18.0,2,10.942
6180,197.76,-3.5760,4.5367,0.1797,0.0001,-0.0000,-2.2011,flat,18.0,2,10.391
6190,198.08,-3.9034,4.0746,0.1797,0.0001,-0.0000,-2.1683,flat,18.0,2,9.835
6200,198.40,-4.2172,3.6015,0.1797,0.0001,-0.0000,-2.1388,flat,18.0,2,9.276
6210,198.72,-4.5182,3.1189,0.1797,0.0001,-0.0000,-2.1123,flat,18.0,2,8.714
6220,199.04,-4.8074,2.6281,0.1797,0.0001,-0.0000,-2.0883,flat,18.0,2,8.150
6230,199.36,-5.0856,2.1302,0.1797,0.0001,-0.0000,-2.0665,flat,18.0,2,7.584
6240,199.68,-5.3537,1.6260,0.1797,0.0001,-0.0000,-2.0466,flat,18.0,2,7.016
6250,200.00,-5.6122,1.1164,0.1797,0.0001,-0.0000,-2.0284,flat,18.0,2,6.448
6260,200.32,-5.8620,0.6019,0.1797,0.0001,-0.0000,-2.0115,flat,18.0,2,5.879
6270,200.64,-6.1033,0.0831,0.1797,0.0001,-0.0000,-1.9957,flat,18.0,2,5.309
6280,200.96,-6.3368,-0.4396,0.1797,0.0001,-0.0000,-1.9808,flat,18.0,2,4.738
6290,201.28,-6.5627,-0.9658,0.1797,0.0001,-0.0000,-1.9665,flat,18.0,2,4.167
6300,201.60,-6.7813,-1.4952,0.1797,0.0000,-0.0000,-1.9526,flat,18.0,2,3.596
6310,201.92,-6.9925,-2.0277,0.1797,0.0000,-0.0000,-1.9387,flat,18.0,2,3.024
6320,202.24,-7.1963,-2.5629,0.1797,0.0001,0.0000,-1.9242,flat,18.0,2,2.453
6330,202.56,-7.3921,-3.1008,0.1797,0.0001,0.0000,-1.9084,flat,18.0,2,1.882
6340,202.88,-7.5788,-3.6412,0.1797,0.0001,0.0000,-1.8891,flat,18.0,2,1.312
6350,203.20,-7.7536,-4.1834,0.1797,0.0001,0.0000,-1.8603,flat,18.0,3,0.970
6360,203.52,-7.8885,-4.6472,0.1798,-0.0003,0.0001,-1.7322,flat,18.0,0,13.234
6370,203.84,-7.9300,-5.0391,0.1799,0.0001,-0.0001,-1.3053,flat,18.0,0,13.285
6380,204.16,-7.7827,-5.4488,0.1799,0.0001,-0.0000,-0.9989,flat,18.0,0,13.160
6390,204.48,-7.4834,-5.8291,0.1799,0.0001,-0.0000,-0.7733,flat,18.0,0,12.895
6400,204.80,-7.0834,-6.1629,0.1799,0.0001,-0.0000,-0.5872,flat,18.0,0,12.536
6410,205.12,-6.6159,-6.4385,0.1799,0.0001,-0.0000,-0.4236,flat,18.0,0,12.113
6420,205.44,-6.1039,-6.6470,0.1799,0.0002,-0.0000,-0.2884,flat,18.0,0,11.644
6430,205.76,-5.5647,-6.7917,0.1798,0.0004,-0.0000,-0.1781,flat,18.0,0,11.143
6440,206.08,-5.0098,-6.8804,0.1798,0.0004,-0.0000,-0.0880,flat,18.0,0,10.620
6450,206.40,-4.4467,-6.9213,0.1798,0.0003,-0.0000,-0.0142,flat,18.0,0,10.081
6460,206.72,-3.8807,-6.9220,0.1797,0.0002,-0.0000,0.0442,flat,18.0,0,9.533
6470,207.04,-3.3148,-6.8915,0.1797,0.0002,-0.0000,0.0895,flat,18.0,0,8.978
6480,207.36,-2.7500,-6.8362,0.1797,0.0001,-0.0000,0.1257,flat,18.0,0,8.419
6490,207.68,-2.1865,-6.7610,0.1797,0.0001,-0.0000,0.1563,flat,18.0,0,7.857
6500,208.00,-1.6246,-6.6689,0.1797,0.0001,-0.0000,0.1825,flat,18.0,0,7.293
6510,208.32,-1.0646,-6.5623,0.1797,0.0001,-0.0000,0.2052,flat,18.0,0,6.727
6520,208.64,-0.5065,-6.4433,0.1797,0.0001,-0.0000,0.2253,flat,18.0,0,6.159
6530,208.96,0.0497,-6.3131,0.1797,0.0001,-0.0000,0.2433,flat,18.0,0,5.590
6540,209.28,0.6038,-6.1731,0.1797,0.0001,-0.0000,0.2596,flat,18.0,0,5.021
6550,209.60,1.1558,-6.0241,0.1797,0.0001,-0.0000,0.2747,flat,18.0,0,4.451
6560,209.92,1.7058,-5.8669,0.1797,0.0001,-0.0000,0.2889,flat,18.0,0,3.880
6570,210.24,2.2536,-5.7018,0.1797,0.0000,-0.0000,0.3026,flat,18.0,0,3.309
6580,210.56,2.7990,-5.5293,0.1797,0.0000,0.0000,0.3163,flat,18.0,0,2.738
6590,210.88,3.3418,-5.3493,0.1797,0.0001,0.0000,0.3306,flat,18.0,0,2.168
6600,211.20,3.8813,-5.1616,0.1797,0.0001,0.0000,0.3467,flat,18.0,0,1.598
6610,211.52,4.4162,-4.9651,0.1797,0.0001,0.0000,0.3675,flat,18.0,0,1.029
6620,211.84,4.9005,-4.7761,0.1798,-0.0002,0.0001,0.5008,flat,18.0,1,12.885
6630,212.16,5.2667,-4.5284,0.1799,0.0000,-0.0000,0.7712,flat,18.0,1,12.766
6640,212.48,5.5779,-4.1591,0.1799,0.0000,-0.0000,1.0105,flat,18.0,1,12.528
6650,212.80,5.8247,-3.7014,0.1799,0.0001,-0.0000,1.2282,flat,18.0,1,12.198
6660,213.12,5.9835,-3.1842,0.1799,0.0001,-0.0000,1.4172,flat,18.0,1,11.790
6670,213.44,6.0499,-2.6366,0.1799,0.0001,-0.0000,1.5726,flat,18.0,1,11.325
6680,213.76,6.0350,-2.0805,0.1799,0.0004,-0.0000,1.6871,flat,18.0,1,10.823
6690,214.08,5.9598,-1.5266,0.1798,0.0004,-0.0000,1.7712,flat,18.0,1,10.299
6700,214.40,5.8395,-0.9781,0.1797,0.0003,-0.0000,1.8363,flat,18.0,1,9.761
6710,214.72,5.6845,-0.4363,0.1797,0.0002,-0.0000,1.8883,flat,18.0,1,9.215
6720,215.04,5.5019,0.0983,0.1797,0.0001,-0.0000,1.9297,flat,18.0,1,8.662
6730,215.36,5.2976,0.6259,0.1797,0.0001,-0.0000,1.9637,flat,18.0,1,8.105
6740,215.68,5.0756,1.1476,0.1797,0.0001,-0.0000,1.9931,flat,18.0,1,7.546
6750,216.00,4.8384,1.6637,0.1797,0.0001,-0.0000,2.0190,flat,18.0,1,6.983
6760,216.32,4.5879,2.1743,0.1797,0.0001,-0.0000,2.0421,flat,18.0,1,6.419
6770,216.64,4.3256,2.6797,0.1797,0.0001,-0.0000,2.0629,flat,18.0,1,5.854
6780,216.96,4.0529,3.1801,0.1797,0.0001,-0.0000,2.0820,flat,18.0,1,5.287
6790,217.28,3.7706,3.6756,0.1797,0.0001,-0.0000,2.0998,flat,18.0,1,4.719
6800,217.60,3.4795,4.1663,0.1797,0.0001,-0.0000,2.1167,flat,18.0,1,4.151
6810,217.92,3.1802,4.6522,0.1797,0.0001,-0.0000,2.1331,flat,18.0,1,3.583
6820,218.24,2.8729,5.1331,0.1797,0.0001,0.0000,2.1493,flat,18.0,1,3.014
6830,218.56,2.5578,5.6087,0.1797,0.0001,0.0000,2.1662,flat,18.0,1,2.446
6840,218.88,2.2347,6.0781,0.1797,0.0001,0.0000,2.1847,flat,18.0,1,1.878
6850,219.20,1.9031,6.5400,0.1797,0.0001,0.0000,2.2070,flat,18.0,1,1.312
6860,219.52,1.5615,6.9904,0.1797,0.0001,0.0000,2.2398,flat,18.0,2,15.203
6870,219.84,1.2720,7.2871,0.1799,-0.0003,-0.0000,2.5729,flat,18.0,2,15.261
6880,220.16,0.8856,7.4890,0.1799,-0.0000,-0.0000,2.9147,flat,18.0,2,15.196
6890,220.48,0.4115,7.5710,0.1799,0.0001,-0.0000,-3.0649,flat,18.0,2,14.996
6900,220.80,-0.0948,7.5075,0.1799,0.0001,-0.0000,-2.8388,flat,18.0,2,14.667
6910,221.12,-0.5936,7.3257,0.1799,0.0001,-0.0000,-2.6726,flat,18.0,2,14.252
6920,221.44,-1.0668,7.0614,0.1799,0.0003,-0.0000,-2.5545,flat,18.0,2,13.785
6930,221.76,-1.5156,6.7407,0.1798,0.0003,-0.0000,-2.4728,flat,18.0,2,13.286
6940,222.08,-1.9418,6.3840,0.1797,0.0002,-0.0000,-2.4063,flat,18.0,2,12.770
6950,222.40,-2.3453,5.9986,0.1797,0.0002,-0.0000,-2.3473,flat,18.0,2,12.243
6960,222.72,-2.7284,5.5894,0.1797,0.0002,-0.0000,-2.2967,flat,18.0,2,11.705
6970,223.04,-3.0928,5.1616,0.1797,0.0002,-0.0000,-2.2535,flat,18.0,2,11.162
6980,223.36,-3.4410,4.7180,0.1797,0.0001,-0.0000,-2.2152,flat,18.0,2,10.612
6990,223.68,-3.7742,4.2608,0.1797,0.0001,-0.0000,-2.1810,flat,18.0,2,10.058
7000,224.00,-4.0933,3.7919,0.1797,0.0001,-0.0000,-2.1503,flat,18.0,2,9.500
7010,224.32,-4.3993,3.3130,0.1797,0.0001,-0.0000,-2.1226,flat,18.0,2,8.939
7020,224.64,-4.6932,2.8253,0.1797,0.0001,-0.0000,-2.0976,flat,18.0,2,8.376
7030,224.96,-4.9757,2.3302,0.1797,0.0001,-0.0000,-2.0750,flat,18.0,2,7.810
7040,225.28,-5.2477,1.8284,0.1797,0.0001,-0.0000,-2.0544,flat,18.0,2,7.244
7050,225.60,-5.5100,1.3209,0.1797,0.0001,-0.0000,-2.0355,flat,18.0,2,6.676
7060,225.92,-5.7632,0.8083,0.1797,0.0001,-0.0000,-2.0181,flat,18.0,2,6.107
7070,226.24,-6.0078,0.2912,0.1797,0.0001,-0.0000,-2.0019,flat,18.0,2,5.537
7080,226.56,-6.2444,-0.2300,0.1797,0.0001,-0.0000,-1.9866,flat,18.0,2,4.966
7090,226.88,-6.4733,-0.7549,0.1797,0.0001,-0.0000,-1.9722,flat,18.0,2,4.396
7100,227.20,-6.6948,-1.2831,0.1797,0.0000,-0.0000,-1.9581,flat,18.0,2,3.824
7110,227.52,-6.9089,-1.8143,0.1797,0.0000,-0.0000,-1.9443,flat,18.0,2,3.253
7120,227.84,-7.1157,-2.3485,0.1797,0.0000,0.0000,-1.9301,flat,18.0,2,2.681
7130,228.16,-7.3148,-2.8853,0.1797,0.0001,0.0000,-1.9150,flat,18.0,2,2.110
7140,228.48,-7.5053,-3.4248,0.1797,0.0001,0.0000,-1.8974,flat,18.0,2,1.540
7150,228.80,-7.6854,-3.9664,0.1797,0.0001,0.0000,-1.8739,flat,18.0,2,0.971
7160,229.12,-7.8393,-4.4782,0.1799,-0.0006,0.0003,-1.8785,flat,18.0,0,13.184
7170,229.44,-7.9361,-4.8789,0.1799,-0.0001,-0.0000,-1.4604,flat,18.0,0,13.286
7180,229.76,-7.8626,-5.2863,0.1799,0.0002,-0.0000,-1.1101,flat,18.0,0,13.229
7190,230.08,-7.6182,-5.6824,0.1799,0.0001,-0.0000,-0.8555,flat,18.0,0,13.015
7200,230.40,-7.2528,-6.0352,0.1799,0.0001,-0.0000,-0.6595,flat,18.0,0,12.688
7210,230.72,-6.8094,-6.3362,0.1799,0.0001,-0.0000,-0.4855,flat,18.0,0,12.289
7220,231.04,-6.3128,-6.5715,0.1799,0.0001,-0.0000,-0.3392,flat,18.0,0,11.837
7230,231.36,-5.7828,-6.7410,0.1799,0.0003,-0.0000,-0.2195,flat,18.0,0,11.347
7240,231.68,-5.2330,-6.8511,0.1798,0.0004,-0.0000,-0.1219,flat,18.0,0,10.831
7250,232.00,-4.6725,-6.9101,0.1798,0.0004,-0.0000,-0.0420,flat,18.0,0,10.298
7260,232.32,-4.1070,-6.9260,0.1797,0.0003,-0.0000,0.0232,flat,18.0,0,9.753
7270,232.64,-3.5412,-6.9069,0.1797,0.0002,-0.0000,0.0724,flat,18.0,0,9.201
7280,232.96,-2.9758,-6.8609,0.1797,0.0001,-0.0000,0.1120,flat,18.0,0,8.643
7290,233.28,-2.4117,-6.7932,0.1797,0.0001,-0.0000,0.1446,flat,18.0,0,8.083
7300,233.60,-1.8492,-6.7076,0.1797,0.0001,-0.0000,0.1724,flat,18.0,0,7.519
7310,233.92,-1.2884,-6.6066,0.1797,0.0001,-0.0000,0.1965,flat,18.0,0,6.953
7320,234.24,-0.7295,-6.4923,0.1797,0.0001,-0.0000,0.2176,flat,18.0,0,6.386
7330,234.56,-0.1726,-6.3665,0.1797,0.0001,-0.0000,0.2363,flat,18.0,0,5.818
7340,234.88,0.3824,-6.2303,0.1797,0.0001,-0.0000,0.2533,flat,18.0,0,5.249
7350,235.20,0.9352,-6.0848,0.1797,0.0001,-0.0000,0.2688,flat,18.0,0,4.679
7360,235.52,1.4861,-5.9308,0.1797,0.0001,-0.0000,0.2833,flat,18.0,0,4.108
7370,235.84,2.0347,-5.7688,0.1797,0.0000,-0.0000,0.2972,flat,18.0,0,3.538
7380,236.16,2.5811,-5.5993,0.1797,0.0000,-0.0000,0.3108,flat,18.0,0,2.967
7390,236.48,3.1250,-5.4223,0.1797,0.0000,0.0000,0.3248,flat,18.0,0,2.396
7400,236.80,3.6660,-5.2377,0.1797,0.0001,0.0000,0.3399,flat,18.0,0,1.826
7410,237.12,4.2030,-5.0448,0.1797,0.0001,0.0000,0.3583,flat,18.0,0,1.256
7420,237.44,4.7307,-4.8453,0.1797,0.0000,0.0002,0.4021,flat,18.0,1,12.901
7430,237.76,5.1293,-4.6423,0.1799,-0.0001,0.0000,0.6636,flat,18.0,1,12.828
7440,238.08,5.4592,-4.3189,0.1799,0.0000,-0.0000,0.9168,flat,18.0,1,12.635
7450,238.40,5.7357,-3.8933,0.1799,0.0000,-0.0000,1.1443,flat,18.0,1,12.340
7460,238.72,5.9312,-3.3963,0.1799,0.0001,0.0000,1.3453,flat,18.0,1,11.961
7470,239.04,6.0340,-2.8576,0.1799,0.0001,-0.0000,1.5148,flat,18.0,1,11.517
7480,239.36,6.0493,-2.3030,0.1799,0.0003,-0.0000,1.6460,flat,18.0,1,11.027
7490,239.68,5.9960,-1.7477,0.1798,0.0004,-0.0000,1.7403,flat,18.0,1,10.511
7500,240.00,5.8922,-1.1968,0.1798,0.0003,-0.0000,1.8121,flat,18.0,1,9.978
7510,240.32,5.7501,-0.6522,0.1797,0.0002,-0.0000,1.8688,flat,18.0,1,9.434
7520,240.64,5.5779,-0.1145,0.1797,0.0002,-0.0000,1.9146,flat,18.0,1,8.883
7530,240.96,5.3816,0.4156,0.1797,0.0001,-0.0000,1.9507,flat,18.0,1,8.328
7540,241.28,5.1664,0.9396,0.1797,0.0001,-0.0000,1.9818,flat,18.0,1,7.770
7550,241.60,4.9350,1.4579,0.1797,0.0001,-0.0000,2.0090,flat,18.0,1,7.208
7560,241.92,4.6896,1.9707,0.1797,0.0001,-0.0000,2.0332,flat,18.0,1,6.645
7570,242.24,4.4318,2.4781,0.1797,0.0001,-0.0000,2.0548,flat,18.0,1,6.080
7580,242.56,4.1632,2.9805,0.1797,0.0001,-0.0000,2.0746,flat,18.0,1,5.514
7590,242.88,3.8846,3.4780,0.1797,0.0001,-0.0000,2.0929,flat,18.0,1,4.947
7600,243.20,3.5970,3.9706,0.1797,0.0001,-0.0000,2.1100,flat,18.0,1,4.379
7610,243.52,3.3009,4.4584,0.1797,0.0001,-0.0000,2.1265,flat,18.0,1,3.810
7620,243.84,2.9968,4.9413,0.1797,0.0001,-0.0000,2.1428,flat,18.0,1,3.242
7630,244.16,2.6848,5.4191,0.1797,0.0001,0.0000,2.1593,flat,18.0,1,2.673
7640,244.48,2.3649,5.8911,0.1797,0.0001,0.0000,2.1770,flat,18.0,1,2.105
7650,244.80,2.0368,6.3564,0.1797,0.0001,0.0000,2.1974,flat,18.0,1,1.538
7660,245.12,1.6994,6.8121,0.1797,0.0001,0.0000,2.2245,flat,18.0,1,0.975
7670,245.44,1.3933,7.1880,0.1798,-0.0002,0.0002,2.4304,flat,18.0,2,15.255
7680,245.76,1.0536,7.4191,0.1799,-0.0000,-0.0001,2.7813,flat,18.0,2,15.237
7690,246.08,0.6081,7.5559,0.1799,0.0000,-0.0000,3.1037,flat,18.0,2,15.093
7700,246.40,0.1084,7.5491,0.1799,0.0001,-0.0000,-2.9208,flat,18.0,2,14.812
7710,246.72,-0.3967,7.4103,0.1799,0.0001,-0.0000,-2.7322,flat,18.0,2,14.426
7720,247.04,-0.8808,7.1750,0.1799,0.0002,-0.0000,-2.5974,flat,18.0,2,13.976
7730,247.36,-1.3385,6.8744,0.1798,0.0004,-0.0000,-2.5010,flat,18.0,2,13.489
7740,247.68,-1.7741,6.5303,0.1798,0.0003,-0.0000,-2.4321,flat,18.0,2,12.978
7750,248.00,-2.1865,6.1560,0.1797,0.0002,-0.0000,-2.3696,flat,18.0,2,12.455
7760,248.32,-2.5776,5.7557,0.1797,0.0002,-0.0000,-2.3163,flat,18.0,2,11.921
7770,248.64,-2.9491,5.3347,0.1797,0.0002,-0.0000,-2.2700,flat,18.0,2,11.380
7780,248.96,-3.3036,4.8972,0.1797,0.0001,-0.0000,-2.2300,flat,18.0,2,10.832
7790,249.28,-3.6427,4.4452,0.1797,0.0001,-0.0000,-2.1942,flat,18.0,2,10.280
7800,249.60,-3.9673,3.9808,0.1797,0.0001,-0.0000,-2.1622,flat,18.0,2,9.723
7810,249.92,-4.2785,3.5057,0.1797,0.0001,-0.0000,-2.1333,flat,18.0,2,9.164
7820,250.24,-4.5770,3.0214,0.1797,0.0001,-0.0000,-2.1073,flat,18.0,2,8.601
7830,250.56,-4.8640,2.5291,0.1797,0.0001,-0.0000,-2.0838,flat,18.0,2,8.037
7840,250.88,-5.1401,2.0299,0.1797,0.0001,-0.0000,-2.0624,flat,18.0,2,7.470
7850,251.20,-5.4062,1.5246,0.1797,0.0001,-0.0000,-2.0428,flat,18.0,2,6.903
7860,251.52,-5.6629,1.0139,0.1797,0.0001,-0.0000,-2.0249,flat,18.0,2,6.334
7870,251.84,-5.9109,0.4985,0.1797,0.0001,-0.0000,-2.0082,flat,18.0,2,5.765
7880,252.16,-6.1507,-0.0211,0.1797,0.0001,-0.0000,-1.9926,flat,18.0,2,5.195
7890,252.48,-6.3826,-0.5445,0.1797,0.0001,-0.0000,-1.9779,flat,18.0,2,4.624
7900,252.80,-6.6071,-1.0714,0.1797,0.0001,-0.0000,-1.9637,flat,18.0,2,4.053
7910,253.12,-6.8241,-1.6015,0.1797,0.0000,-0.0000,-1.9498,flat,18.0,2,3.481
7920,253.44,-7.0339,-2.1345,0.1797,0.0000,-0.0000,-1.9359,flat,18.0,2,2.910
7930,253.76,-7.2361,-2.6703,0.1797,0.0001,0.0000,-1.9212,flat,18.0,2,2.339
7940,254.08,-7.4302,-3.2087,0.1797,0.0001,0.0000,-1.9049,flat,18.0,2,1.768
7950,254.40,-7.6148,-3.7495,0.1797,0.0001,0.0000,-1.8845,flat,18.0,2,1.198
7960,254.72,-7.7815,-4.2855,0.1797,0.0001,0.0001,-1.8940,flat,18.0,3,0.878
7970,255.04,-7.9106,-4.7264,0.1798,-0.0004,0.0001,-1.6422,flat,18.0,0,13.257
7980,255.36,-7.9151,-5.1211,0.1799,0.0002,-0.0001,-1.2359,flat,18.0,0,13.273
7990,255.68,-7.7334,-5.5283,0.1799,0.0001,-0.0000,-0.9482,flat,18.0,0,13.117
8000,256.00,-7.4098,-5.8995,0.1799,0.0001,-0.0000,-0.7348,flat,18.0,0,12.829
8010,256.32,-6.9945,-6.2232,0.1799,0.0001,-0.0000,-0.5522,flat,18.0,0,12.456
8020,256.64,-6.5164,-6.4856,0.1799,0.0001,-0.0000,-0.3943,flat,18.0,0,12.023
8030,256.96,-5.9978,-6.6808,0.1799,0.0002,-0.0000,-0.2645,flat,18.0,0,11.546
8040,257.28,-5.4546,-6.8137,0.1798,0.0004,-0.0000,-0.1586,flat,18.0,0,11.040
8050,257.60,-4.8976,-6.8921,0.1798,0.0004,-0.0000,-0.0720,flat,18.0,0,10.513
8060,257.92,-4.3335,-6.9244,0.1798,0.0003,-0.0000,-0.0011,flat,18.0,0,9.972
