step,time_s,x,y,z,roll,pitch,yaw,terrain,speed,target_idx,dist_to_target
10,0.32,-0.0501,1.4500,0.1830,-0.0000,-0.0352,-0.0000,rough,14.0,0,8.047
20,0.64,0.3788,1.4365,0.1798,0.0000,-0.0007,-0.1553,flat,18.0,0,7.755
30,0.96,0.8960,1.3309,0.1799,-0.0000,-0.0000,-0.3519,flat,18.0,0,7.350
40,1.28,1.3929,1.1247,0.1799,-0.0002,-0.0000,-0.4930,flat,18.0,0,6.891
50,1.60,1.8632,0.8490,0.1798,-0.0004,-0.0000,-0.5996,flat,18.0,0,6.399
60,1.92,2.3102,0.5232,0.1798,-0.0003,-0.0000,-0.6756,flat,18.0,0,5.886
70,2.24,2.7334,0.1637,0.1797,-0.0002,-0.0000,-0.7437,flat,18.0,0,5.363
80,2.56,3.1315,-0.2247,0.1797,-0.0002,-0.0000,-0.8087,flat,18.0,0,4.832
90,2.88,3.5061,-0.6389,0.1797,-0.0002,-0.0000,-0.8707,flat,18.0,0,4.295
100,3.20,3.8570,-1.0764,0.1797,-0.0002,-0.0000,-0.9307,flat,18.0,0,3.752
110,3.52,4.1826,-1.5348,0.1797,-0.0002,-0.0000,-0.9897,flat,18.0,0,3.204
120,3.84,4.4819,-2.0120,0.1797,-0.0002,-0.0000,-1.0487,flat,18.0,0,2.653
130,4.16,4.7539,-2.5061,0.1797,-0.0002,-0.0000,-1.1102,flat,18.0,0,2.099
140,4.48,4.9950,-3.0157,0.1797,-0.0002,-0.0000,-1.1780,flat,18.0,0,1.545
150,4.80,5.2001,-3.5388,0.1798,-0.0004,0.0000,-1.2608,flat,18.0,0,0.992
160,5.12,5.3014,-3.9739,0.1798,-0.0002,-0.0002,-1.4800,flat,18.0,1,12.256
170,5.44,5.2639,-4.3325,0.1799,0.0005,-0.0000,-2.0686,flat,18.0,1,12.580
180,5.76,5.0410,-4.6240,0.1799,0.0001,-0.0000,-2.4731,flat,18.0,1,12.783
190,6.08,4.6915,-4.8444,0.1799,0.0001,-0.0001,-2.8349,flat,18.0,1,12.889
200,6.40,4.2406,-4.9581,0.1799,-0.0000,-0.0000,3.1134,flat,18.0,1,12.877
210,6.72,3.7438,-4.9187,0.1799,0.0000,-0.0000,2.8551,flat,18.0,1,12.724
220,7.04,3.2519,-4.7465,0.1799,-0.0001,-0.0000,2.6658,flat,18.0,1,12.458
230,7.36,2.7881,-4.4784,0.1799,-0.0002,-0.0000,2.5274,flat,18.0,1,12.118
240,7.68,2.3541,-4.1455,0.1798,-0.0004,-0.0000,2.4313,flat,18.0,1,11.731
250,8.00,1.9491,-3.7712,0.1798,-0.0003,-0.0000,2.3509,flat,18.0,1,11.319
260,8.32,1.5717,-3.3642,0.1797,-0.0003,-0.0000,2.2785,flat,18.0,1,10.888
270,8.64,1.2196,-2.9296,0.1797,-0.0002,-0.0000,2.2131,flat,18.0,1,10.441
280,8.96,0.8931,-2.4718,0.1797,-0.0002,-0.0000,2.1541,flat,18.0,1,9.982
290,9.28,0.5923,-1.9947,0.1797,-0.0002,-0.0000,2.1010,flat,18.0,1,9.514
300,9.60,0.3149,-1.5023,0.1797,-0.0002,-0.0000,2.0544,flat,18.0,1,9.040
310,9.92,0.0590,-0.9977,0.1797,-0.0001,-0.0000,2.0128,flat,18.0,1,8.561
320,10.24,-0.1771,-0.4824,0.1797,-0.0001,-0.0000,1.9741,flat,18.0,1,8.081
330,10.56,-0.3940,0.0421,0.1797,-0.0001,-0.0000,1.9376,flat,18.0,1,7.600
340,10.88,-0.5925,0.5745,0.1797,-0.0001,-0.0000,1.9027,flat,18.0,1,7.120
350,11.20,-0.7727,1.1136,0.1797,-0.0001,-0.0000,1.8685,flat,18.0,1,6.642
360,11.52,-0.9347,1.6586,0.1797,-0.0001,-0.0000,1.8339,flat,18.0,1,6.169
370,11.84,-1.0777,2.2085,0.1797,-0.0001,0.0000,1.7973,flat,18.0,1,5.701
380,12.16,-1.1678,2.7478,0.1799,-0.0001,0.0000,1.6363,flat,18.0,1,5.240
390,12.48,-1.1870,3.2997,0.1799,-0.0001,-0.0000,1.4896,flat,18.0,1,4.753
400,12.80,-1.1290,3.8509,0.1798,-0.0004,-0.0000,1.3784,flat,18.0,1,4.243
410,13.12,-1.0231,4.3988,0.1798,-0.0003,-0.0000,1.3313,flat,18.0,1,3.721
420,13.44,-0.8820,4.9425,0.1797,-0.0002,-0.0000,1.2697,flat,18.0,1,3.194
430,13.76,-0.7078,5.4767,0.1797,-0.0002,-0.0000,1.2129,flat,18.0,1,2.667
440,14.08,-0.5034,5.9998,0.1797,-0.0002,-0.0000,1.1575,flat,18.0,1,2.144
450,14.40,-0.2689,6.5021,0.1798,-0.0002,-0.0000,1.0786,flat,18.0,1,1.635
460,14.72,0.0041,6.9814,0.1798,-0.0003,0.0000,0.9937,flat,18.0,1,1.144
470,15.04,0.2994,7.4033,0.1798,-0.0002,0.0002,0.8839,flat,18.0,2,14.794
480,15.36,0.4658,7.5416,0.1801,0.0005,-0.0007,0.2413,flat,18.0,2,15.001
490,15.68,0.7783,7.6102,0.1797,-0.0006,-0.0001,-0.2279,flat,18.0,2,15.234
500,16.00,1.1195,7.4970,0.1799,-0.0000,0.0000,-0.6542,flat,18.0,2,15.339
510,16.32,1.4079,7.2062,0.1799,0.0000,-0.0001,-0.9664,flat,18.0,2,15.279
520,16.64,1.6430,6.7954,0.1799,-0.0000,-0.0000,-1.2507,flat,18.0,2,15.102
530,16.96,1.7773,6.3036,0.1799,-0.0001,-0.0000,-1.5022,flat,18.0,2,14.812
540,17.28,1.7909,5.7715,0.1799,-0.0001,-0.0000,-1.7059,flat,18.0,2,14.422
550,17.60,1.6992,5.2356,0.1799,-0.0002,-0.0000,-1.8536,flat,18.0,2,13.966
560,17.92,1.5312,4.7119,0.1798,-0.0004,-0.0000,-1.9580,flat,18.0,2,13.472
570,18.24,1.3097,4.2033,0.1798,-0.0004,-0.0000,-2.0370,flat,18.0,2,12.955
580,18.56,1.0485,3.7096,0.1797,-0.0002,-0.0000,-2.0992,flat,18.0,2,12.424
590,18.88,0.7569,3.2299,0.1797,-0.0002,-0.0000,-2.1495,flat,18.0,2,11.882
600,19.20,0.4412,2.7635,0.1797,-0.0001,-0.0000,-2.1894,flat,18.0,2,11.333
610,19.52,0.1070,2.3081,0.1797,-0.0001,-0.0000,-2.2231,flat,18.0,2,10.779
620,19.84,-0.2427,1.8626,0.1797,-0.0001,-0.0000,-2.2523,flat,18.0,2,10.221
630,20.16,-0.6054,1.4262,0.1797,-0.0001,-0.0000,-2.2779,flat,18.0,2,9.661
640,20.48,-0.9792,0.9979,0.1797,-0.0001,-0.0000,-2.3012,flat,18.0,2,9.098
650,20.80,-1.3631,0.5774,0.1797,-0.0001,-0.0000,-2.3225,flat,18.0,2,8.533
660,21.12,-1.7560,0.1643,0.1797,-0.0001,-0.0000,-2.3417,flat,18.0,2,7.967
670,21.44,-2.1569,-0.2418,0.1797,-0.0001,-0.0000,-2.3591,flat,18.0,2,7.399
680,21.76,-2.5649,-0.6414,0.1797,-0.0001,-0.0000,-2.3753,flat,18.0,2,6.831
690,22.08,-2.9793,-1.0347,0.1797,-0.0001,-0.0000,-2.3905,flat,18.0,2,6.262
700,22.40,-3.3998,-1.4218,0.1797,-0.0001,-0.0000,-2.4049,flat,18.0,2,5.692
710,22.72,-3.8257,-1.8032,0.1797,-0.0000,-0.0000,-2.4185,flat,18.0,2,5.122
720,23.04,-4.2566,-2.1790,0.1797,-0.0000,-0.0000,-2.4314,flat,18.0,2,4.551
730,23.36,-4.6923,-2.5493,0.1797,-0.0000,-0.0000,-2.4442,flat,18.0,2,3.981
740,23.68,-5.1327,-2.9139,0.1797,-0.0000,0.0000,-2.4570,flat,18.0,2,3.410
750,24.00,-5.5777,-3.2727,0.1797,-0.0000,0.0000,-2.4706,flat,18.0,2,2.839
760,24.32,-6.0274,-3.6250,0.1797,-0.0001,0.0000,-2.4855,flat,18.0,2,2.269
770,24.64,-6.4820,-3.9697,0.1797,-0.0001,0.0000,-2.5034,flat,18.0,2,1.699
780,24.96,-6.9418,-4.3040,0.1797,-0.0001,0.0000,-2.5285,flat,18.0,2,1.131
790,25.28,-7.4044,-4.6118,0.1798,-0.0000,-0.0000,-2.6010,flat,18.0,3,1.052
800,25.60,-7.7977,-4.8181,0.1782,-0.0002,-0.0097,-2.5791,flat,18.0,0,13.146
810,25.92,-8.0550,-5.0071,0.1799,0.0011,0.0004,-2.0878,flat,18.0,0,13.409
820,26.24,-8.2114,-5.3636,0.1799,-0.0000,0.0000,-1.5862,flat,18.0,0,13.582
830,26.56,-8.1939,-5.7587,0.1799,0.0001,-0.0000,-1.1941,flat,18.0,0,13.595
840,26.88,-7.9928,-6.1588,0.1799,0.0001,-0.0000,-0.9127,flat,18.0,0,13.438
850,27.20,-7.6545,-6.5201,0.1799,0.0001,-0.0000,-0.7022,flat,18.0,0,13.152
860,27.52,-7.2282,-6.8321,0.1799,0.0001,-0.0000,-0.5180,flat,18.0,0,12.784
870,27.84,-6.7411,-7.0794,0.1799,0.0001,-0.0000,-0.3595,flat,18.0,0,12.354
880,28.16,-6.2158,-7.2574,0.1799,0.0002,-0.0000,-0.2298,flat,18.0,0,11.880
890,28.48,-5.6682,-7.3719,0.1798,0.0004,-0.0000,-0.1247,flat,18.0,0,11.376
900,28.80,-5.1087,-7.4317,0.1798,0.0004,-0.0000,-0.0391,flat,18.0,0,10.851
910,29.12,-4.5438,-7.4455,0.1798,0.0003,-0.0000,0.0302,flat,18.0,0,10.312
920,29.44,-3.9784,-7.4219,0.1797,0.0002,-0.0000,0.0827,flat,18.0,0,9.764
930,29.76,-3.4138,-7.3698,0.1797,0.0002,-0.0000,0.1245,flat,18.0,0,9.210
940,30.08,-2.8510,-7.2949,0.1797,0.0001,-0.0000,0.1583,flat,18.0,0,8.653
950,30.40,-2.2900,-7.2015,0.1797,0.0001,-0.0000,0.1869,flat,18.0,0,8.092
960,30.72,-1.7311,-7.0922,0.1797,0.0001,-0.0000,0.2116,flat,18.0,0,7.529
970,31.04,-1.1742,-6.9695,0.1797,0.0001,-0.0000,0.2331,flat,18.0,0,6.964
980,31.36,-0.6195,-6.8349,0.1797,0.0001,-0.0000,0.2522,flat,18.0,0,6.398
990,31.68,-0.0669,-6.6898,0.1797,0.0001,-0.0000,0.2693,flat,18.0,0,5.830
1000,32.00,0.4835,-6.5354,0.1797,0.0001,-0.0000,0.2849,flat,18.0,0,5.262
1010,32.32,1.0317,-6.3726,0.1797,0.0001,-0.0000,0.2993,flat,18.0,0,4.694
1020,32.64,1.5778,-6.2018,0.1797,0.0000,-0.0000,0.3129,flat,18.0,0,4.125
1030,32.96,2.1216,-6.0237,0.1797,0.0000,-0.0000,0.3260,flat,18.0,0,3.557
1040,33.28,2.6629,-5.8385,0.1797,0.0000,0.0000,0.3390,flat,18.0,0,2.988
1050,33.60,3.2017,-5.6463,0.1797,0.0000,0.0000,0.3526,flat,18.0,0,2.421
1060,33.92,3.7372,-5.4466,0.1797,0.0001,0.0000,0.3678,flat,18.0,0,1.855
1070,34.24,4.2682,-5.2389,0.1797,0.0001,0.0000,0.3870,flat,18.0,0,1.294
1080,34.56,4.7907,-5.0211,0.1797,0.0001,0.0000,0.4197,flat,18.0,1,0.747
1090,34.88,5.1661,-4.8202,0.1799,-0.0002,0.0000,0.7165,flat,18.0,1,13.009
1100,35.20,5.4491,-4.5017,0.1799,-0.0000,-0.0000,1.0216,flat,18.0,1,12.803
1110,35.52,5.6684,-4.0720,0.1799,0.0000,-0.0000,1.3054,flat,18.0,1,12.480
1120,35.84,5.7778,-3.5695,0.1799,0.0001,-0.0000,1.5571,flat,18.0,1,12.058
1130,36.16,5.7628,-3.0362,0.1799,0.0001,-0.0000,1.7562,flat,18.0,1,11.564
1140,36.48,5.6444,-2.5060,0.1799,0.0002,-0.0000,1.8984,flat,18.0,1,11.032
1150,36.80,5.4528,-1.9913,0.1798,0.0004,-0.0000,2.0020,flat,18.0,1,10.485
1160,37.12,5.2087,-1.4944,0.1798,0.0004,-0.0000,2.0824,flat,18.0,1,9.931
1170,37.44,4.9249,-1.0147,0.1797,0.0002,-0.0000,2.1472,flat,18.0,1,9.377
1180,37.76,4.6103,-0.5514,0.1797,0.0002,-0.0000,2.2010,flat,18.0,1,8.825
1190,38.08,4.2705,-0.1036,0.1797,0.0002,-0.0000,2.2460,flat,18.0,1,8.279
1200,38.40,3.9108,0.3300,0.1797,0.0001,-0.0000,2.2840,flat,18.0,1,7.740
1210,38.72,3.5345,0.7514,0.1797,0.0001,-0.0000,2.3193,flat,18.0,1,7.211
1220,39.04,3.1432,1.1604,0.1797,0.0001,-0.0000,2.3517,flat,18.0,1,6.695
1230,39.36,2.7387,1.5574,0.1797,0.0001,-0.0000,2.3819,flat,18.0,1,6.196
1240,39.68,2.3222,1.9422,0.1797,0.0001,-0.0000,2.4111,flat,18.0,1,5.718
1250,40.00,1.8949,2.3149,0.1797,0.0001,0.0000,2.4391,flat,18.0,1,5.268
1260,40.32,1.4577,2.6758,0.1797,0.0001,-0.0000,2.4669,flat,18.0,1,4.854
1270,40.64,1.0106,3.0243,0.1797,0.0001,0.0000,2.4961,flat,18.0,1,4.486
1280,40.96,0.5538,3.3590,0.1797,0.0001,0.0000,2.5282,flat,18.0,1,4.177
1290,41.28,0.1737,3.6697,0.1798,-0.0018,0.0021,2.3094,flat,18.0,1,3.932
1300,41.60,-0.1282,4.0718,0.1799,0.0000,-0.0000,2.0621,flat,18.0,1,3.624
1310,41.92,-0.3476,4.5535,0.1799,-0.0000,-0.0000,1.8189,flat,18.0,1,3.257
1320,42.24,-0.4560,5.0813,0.1799,-0.0000,-0.0000,1.5940,flat,18.0,1,2.841
1330,42.56,-0.4476,5.6224,0.1799,-0.0001,-0.0000,1.4036,flat,18.0,1,2.390
1340,42.88,-0.3395,6.1521,0.1799,-0.0001,-0.0000,1.2483,flat,18.0,1,1.920
1350,43.20,-0.1501,6.6572,0.1799,-0.0001,-0.0000,1.1085,flat,18.0,1,1.447
1360,43.52,0.1100,7.1266,0.1799,-0.0002,-0.0000,0.9718,flat,18.0,1,0.986
1370,43.84,0.3658,7.4834,0.1785,-0.0002,-0.0080,0.7728,flat,18.0,2,14.897
1380,44.16,0.5568,7.5795,0.1776,-0.0131,0.0001,0.1269,flat,18.0,2,15.084
1390,44.48,0.8980,7.6097,0.1799,0.0004,0.0000,-0.3733,flat,18.0,2,15.302
1400,44.80,1.2205,7.4386,0.1799,0.0001,-0.0000,-0.7539,flat,18.0,2,15.352
1410,45.12,1.4934,7.1077,0.1799,-0.0000,-0.0000,-1.0616,flat,18.0,2,15.253
1420,45.44,1.6982,6.6686,0.1799,-0.0001,-0.0000,-1.3413,flat,18.0,2,15.039
1430,45.76,1.7904,6.1602,0.1799,-0.0001,0.0000,-1.5828,flat,18.0,2,14.712
1440,46.08,1.7624,5.6255,0.1799,-0.0001,-0.0000,-1.7716,flat,18.0,2,14.295
1450,46.40,1.6362,5.0954,0.1799,-0.0002,-0.0000,-1.9054,flat,18.0,2,13.821
1460,46.72,1.4412,4.5803,0.1798,-0.0004,-0.0000,-2.0022,flat,18.0,2,13.315
1470,47.04,1.1972,4.0813,0.1798,-0.0003,-0.0000,-2.0765,flat,18.0,2,12.790
1480,47.36,0.9165,3.5979,0.1797,-0.0002,-0.0000,-2.1356,flat,18.0,2,12.251
1490,47.68,0.6074,3.1288,0.1797,-0.0002,-0.0000,-2.1838,flat,18.0,2,11.703
1500,48.00,0.2757,2.6734,0.1797,-0.0001,-0.0000,-2.2220,flat,18.0,2,11.150
1510,48.32,-0.0735,2.2291,0.1797,-0.0001,-0.0000,-2.2549,flat,18.0,2,10.592
1520,48.64,-0.4373,1.7949,0.1797,-0.0001,-0.0000,-2.2837,flat,18.0,2,10.031
1530,48.96,-0.8136,1.3699,0.1797,-0.0001,-0.0000,-2.3099,flat,18.0,2,9.467
1540,49.28,-1.2012,0.9536,0.1797,-0.0001,-0.0000,-2.3336,flat,18.0,2,8.901
1550,49.60,-1.5986,0.5457,0.1797,-0.0001,-0.0000,-2.3547,flat,18.0,2,8.334
1560,49.92,-2.0047,0.1457,0.1797,-0.0001,-0.0000,-2.3740,flat,18.0,2,7.765
1570,50.24,-2.4186,-0.2470,0.1797,-0.0001,-0.0000,-2.3921,flat,18.0,2,7.195
1580,50.56,-2.8396,-0.6325,0.1797,-0.0001,-0.0000,-2.4089,flat,18.0,2,6.625
1590,50.88,-3.2668,-1.0113,0.1797,-0.0001,-0.0000,-2.4245,flat,18.0,2,6.054
1600,51.20,-3.6999,-1.3837,0.1797,-0.0001,-0.0000,-2.4392,flat,18.0,2,5.483
1610,51.52,-4.1294,-1.7547,0.1797,-0.0000,-0.0000,-2.4294,flat,18.0,2,4.915
1620,51.84,-4.5652,-2.1297,0.1797,-0.0000,-0.0000,-2.4327,flat,18.0,2,4.340
1630,52.16,-5.0021,-2.5033,0.1797,-0.0000,-0.0000,-2.4361,flat,18.0,2,3.765
1640,52.48,-5.4403,-2.8753,0.1797,-0.0000,0.0000,-2.4396,flat,18.0,2,3.191
1650,52.80,-5.8798,-3.2457,0.1797,-0.0000,0.0000,-2.4433,flat,18.0,2,2.616
1660,53.12,-6.3206,-3.6143,0.1797,-0.0000,0.0000,-2.4476,flat,18.0,2,2.041
1670,53.44,-6.7629,-3.9806,0.1797,-0.0000,0.0000,-2.4529,flat,18.0,2,1.467
1680,53.76,-7.2067,-4.3434,0.1797,-0.0000,0.0000,-2.4613,flat,18.0,2,0.894
1690,54.08,-7.6436,-4.6722,0.1799,-0.0001,0.0000,-2.5743,flat,18.0,3,0.806
1700,54.40,-7.9741,-4.9297,0.1799,-0.0004,0.0000,-2.1883,flat,18.0,0,13.325
1710,54.72,-8.1685,-5.2769,0.1799,-0.0001,-0.0000,-1.6914,flat,18.0,0,13.534
1720,55.04,-8.1937,-5.6653,0.1799,0.0001,-0.0001,-1.2682,flat,18.0,0,13.587
1730,55.36,-8.0293,-6.0697,0.1799,0.0001,-0.0000,-0.9670,flat,18.0,0,13.463
1740,55.68,-7.7162,-6.4409,0.1799,0.0001,-0.0000,-0.7449,flat,18.0,0,13.201
1750,56.00,-7.3065,-6.7648,0.1799,0.0001,0.0000,-0.5565,flat,18.0,0,12.849
1760,56.32,-6.8305,-7.0273,0.1799,0.0001,-0.0000,-0.3916,flat,18.0,0,12.431
1770,56.64,-6.3119,-7.2200,0.1799,0.0002,-0.0000,-0.2559,flat,18.0,0,11.965
1780,56.96,-5.7681,-7.3477,0.1798,0.0004,-0.0000,-0.1458,flat,18.0,0,11.467
1790,57.28,-5.2106,-7.4187,0.1798,0.0004,-0.0000,-0.0562,flat,18.0,0,10.946
1800,57.60,-4.6464,-7.4418,0.1798,0.0003,-0.0000,0.0166,flat,18.0,0,10.409
1810,57.92,-4.0989,-7.4218,0.1799,0.0000,0.0000,0.1721,flat,18.0,0,9.879
1820,58.24,-3.5831,-7.3073,0.1799,0.0001,0.0000,0.3706,flat,18.0,0,9.353
1830,58.56,-3.0961,-7.0918,0.1799,0.0001,-0.0000,0.5280,flat,18.0,0,8.824
1840,58.88,-2.6459,-6.7990,0.1799,0.0002,-0.0000,0.6595,flat,18.0,0,8.309
1850,59.20,-2.2314,-6.4569,0.1798,0.0003,-0.0001,0.6810,flat,18.0,0,7.820
1860,59.52,-1.7887,-6.1237,0.1798,-0.0003,-0.0000,0.5895,flat,18.0,0,7.311
1870,59.84,-1.3154,-5.8263,0.1798,-0.0003,-0.0000,0.5077,flat,18.0,0,6.787
1880,60.16,-0.8181,-5.5642,0.1798,-0.0003,-0.0000,0.4348,flat,18.0,0,6.251
1890,60.48,-0.3018,-5.3360,0.1797,-0.0002,-0.0000,0.3695,flat,18.0,0,5.705
1900,60.80,0.2291,-5.1397,0.1797,-0.0002,-0.0000,0.3106,flat,18.0,0,5.153
1910,61.12,0.7714,-4.9740,0.1797,-0.0002,-0.0000,0.2571,flat,18.0,0,4.596
1920,61.44,1.3224,-4.8363,0.1797,-0.0002,-0.0000,0.2077,flat,18.0,0,4.035
1930,61.76,1.8799,-4.7250,0.1797,-0.0002,-0.0000,0.1613,flat,18.0,0,3.471
1940,62.08,2.4420,-4.6391,0.1797,-0.0002,0.0000,0.1173,flat,18.0,0,2.905
1950,62.40,3.0060,-4.5776,0.1797,-0.0001,0.0000,0.0752,flat,18.0,0,2.339
1960,62.72,3.5717,-4.5399,0.1797,-0.0002,0.0000,0.0285,flat,18.0,0,1.773
1970,63.04,4.1363,-4.5292,0.1797,-0.0002,0.0000,-0.0276,flat,18.0,0,1.208
1980,63.36,4.6905,-4.5479,0.1798,-0.0004,0.0001,-0.0505,flat,18.0,1,12.604
1990,63.68,5.1669,-4.5415,0.1798,-0.0003,0.0001,0.2941,flat,18.0,1,12.745
2000,64.00,5.5099,-4.4011,0.1799,-0.0001,-0.0000,0.6962,flat,18.0,1,12.729
2010,64.32,5.7886,-4.0965,0.1799,-0.0000,-0.0001,1.0134,flat,18.0,1,12.548
2020,64.64,6.0063,-3.6755,0.1799,0.0000,-0.0000,1.3091,flat,18.0,1,12.247
2030,64.96,6.1119,-3.1785,0.1799,0.0001,-0.0000,1.5726,flat,18.0,1,11.840
2040,65.28,6.0879,-2.6497,0.1799,0.0001,-0.0000,1.7788,flat,18.0,1,11.354
2050,65.60,5.9567,-2.1253,0.1799,0.0001,-0.0000,1.9279,flat,18.0,1,10.827
2060,65.92,5.7494,-1.6188,0.1798,0.0004,-0.0000,2.0358,flat,18.0,1,10.282
2070,66.24,5.4882,-1.1321,0.1798,0.0004,-0.0000,2.1192,flat,18.0,1,9.729
2080,66.56,5.1866,-0.6642,0.1797,0.0002,-0.0000,2.1849,flat,18.0,1,9.175
2090,66.88,4.8544,-0.2140,0.1797,0.0002,-0.0000,2.2400,flat,18.0,1,8.624
2100,67.20,4.4972,0.2192,0.1797,0.0002,-0.0000,2.2878,flat,18.0,1,8.078
2110,67.52,4.1194,0.6367,0.1797,0.0001,-0.0000,2.3292,flat,18.0,1,7.540
2120,67.84,3.7241,1.0399,0.1797,0.0001,-0.0000,2.3664,flat,18.0,1,7.013
2130,68.16,3.3139,1.4290,0.1797,0.0001,-0.0000,2.4010,flat,18.0,1,6.499
2140,68.48,2.8905,1.8043,0.1797,0.0001,-0.0000,2.4333,flat,18.0,1,6.005
2150,68.80,2.4555,2.1665,0.1797,0.0001,-0.0000,2.4637,flat,18.0,1,5.533
2160,69.12,2.0096,2.5160,0.1797,0.0001,-0.0000,2.4937,flat,18.0,1,5.091
2170,69.44,1.5533,2.8524,0.1797,0.0001,-0.0000,2.5240,flat,18.0,1,4.688
2180,69.76,1.0870,3.1747,0.1797,0.0001,-0.0000,2.5556,flat,18.0,1,4.336
2190,70.08,0.6111,3.4818,0.1797,0.0001,0.0000,2.5903,flat,18.0,1,4.049
2200,70.40,0.2136,3.7634,0.1799,0.0000,0.0001,2.3655,flat,18.0,1,3.832
2210,70.72,-0.1078,4.1204,0.1799,0.0001,-0.0000,2.1601,flat,18.0,1,3.572
2220,71.04,-0.3610,4.5708,0.1799,-0.0000,-0.0000,1.8999,flat,18.0,1,3.247
2230,71.36,-0.5061,5.0840,0.1799,-0.0001,-0.0000,1.6508,flat,18.0,1,2.865
2240,71.68,-0.5254,5.6212,0.1799,-0.0001,-0.0000,1.4327,flat,18.0,1,2.440
2250,72.00,-0.4317,6.1500,0.1799,-0.0001,-0.0000,1.2595,flat,18.0,1,1.988
2260,72.32,-0.2475,6.6537,0.1799,-0.0001,-0.0000,1.1079,flat,18.0,1,1.528
2270,72.64,0.0130,7.1201,0.1799,-0.0001,-0.0000,0.9631,flat,18.0,1,1.079
2280,72.96,0.3081,7.5078,0.1806,-0.0002,0.0058,0.8158,flat,18.0,2,14.886
2290,73.28,0.5016,7.6366,0.1743,0.0008,-0.0368,0.2259,flat,18.0,2,15.100
2300,73.60,0.8627,7.6916,0.1798,0.0005,-0.0004,-0.3128,flat,18.0,2,15.349
2310,73.92,1.1931,7.5452,0.1799,0.0000,-0.0001,-0.7119,flat,18.0,2,15.421
2320,74.24,1.4755,7.2306,0.1799,0.0000,-0.0001,-1.0145,flat,18.0,2,15.339
2330,74.56,1.6972,6.8037,0.1799,-0.0000,-0.0000,-1.2938,flat,18.0,2,15.143
2340,74.88,1.8129,6.3025,0.1799,-0.0000,-0.0000,-1.5398,flat,18.0,2,14.834
2350,75.20,1.8078,5.7681,0.1799,-0.0001,-0.0000,-1.7344,flat,18.0,2,14.431
2360,75.52,1.7016,5.2334,0.1799,-0.0002,-0.0000,-1.8719,flat,18.0,2,13.966
2370,75.84,1.5242,4.7117,0.1798,-0.0004,-0.0000,-1.9708,flat,18.0,2,13.467
2380,76.16,1.2962,4.2051,0.1798,-0.0003,-0.0000,-2.0463,flat,18.0,2,12.947
2390,76.48,1.0305,3.7132,0.1797,-0.0002,-0.0000,-2.1059,flat,18.0,2,12.413
2400,76.80,0.7356,3.2349,0.1797,-0.0002,-0.0000,-2.1544,flat,18.0,2,11.869
2410,77.12,0.4177,2.7697,0.1797,-0.0001,-0.0000,-2.1927,flat,18.0,2,11.320
2420,77.44,0.0819,2.3150,0.1797,-0.0001,-0.0000,-2.2254,flat,18.0,2,10.765
2430,77.76,-0.2687,1.8700,0.1797,-0.0001,-0.0000,-2.2538,flat,18.0,2,10.207
2440,78.08,-0.6321,1.4338,0.1797,-0.0001,-0.0000,-2.2788,flat,18.0,2,9.646
2450,78.40,-1.0064,1.0056,0.1797,-0.0001,-0.0000,-2.3015,flat,18.0,2,9.082
2460,78.72,-1.3904,0.5850,0.1797,-0.0001,-0.0000,-2.3223,flat,18.0,2,8.517
2470,79.04,-1.7833,0.1717,0.1797,-0.0001,-0.0000,-2.3411,flat,18.0,2,7.951
2480,79.36,-2.1839,-0.2348,0.1797,-0.0001,-0.0000,-2.3581,flat,18.0,2,7.383
2490,79.68,-2.5915,-0.6349,0.1797,-0.0001,-0.0000,-2.3739,flat,18.0,2,6.814
2500,80.00,-3.0054,-1.0289,0.1797,-0.0001,-0.0000,-2.3888,flat,18.0,2,6.245
2510,80.32,-3.4252,-1.4169,0.1797,-0.0001,-0.0000,-2.4029,flat,18.0,2,5.675
2520,80.64,-3.8504,-1.7992,0.1797,-0.0000,-0.0000,-2.4163,flat,18.0,2,5.105
2530,80.96,-4.2805,-2.1761,0.1797,-0.0000,-0.0000,-2.4290,flat,18.0,2,4.534
2540,81.28,-4.7154,-2.5475,0.1797,-0.0000,-0.0000,-2.4415,flat,18.0,2,3.963
2550,81.60,-5.1548,-2.9134,0.1797,-0.0000,0.0000,-2.4542,flat,18.0,2,3.392
2560,81.92,-5.5988,-3.2735,0.1797,-0.0000,0.0000,-2.4675,flat,18.0,2,2.822
2570,82.24,-6.0474,-3.6273,0.1797,-0.0001,0.0000,-2.4822,flat,18.0,2,2.251
2580,82.56,-6.5008,-3.9735,0.1797,-0.0001,0.0000,-2.4999,flat,18.0,2,1.681
2590,82.88,-6.9594,-4.3095,0.1797,-0.0001,0.0000,-2.5248,flat,18.0,2,1.113
2600,83.20,-7.4206,-4.6186,0.1798,-0.0000,0.0000,-2.5987,flat,18.0,3,1.035
2610,83.52,-7.8157,-4.8199,0.1799,-0.0003,0.0013,-2.5499,flat,18.0,0,13.164
2620,83.84,-8.0643,-5.0788,0.1800,0.0014,-0.0014,-2.0290,flat,18.0,0,13.421
2630,84.16,-8.2093,-5.4441,0.1799,-0.0001,-0.0000,-1.5322,flat,18.0,0,13.585
2640,84.48,-8.1698,-5.8421,0.1799,-0.0002,-0.0001,-1.1535,flat,18.0,0,13.579
2650,84.80,-7.9504,-6.2385,0.1799,-0.0000,-0.0001,-0.8839,flat,18.0,0,13.406
2660,85.12,-7.6000,-6.5941,0.1799,0.0000,-0.0000,-0.6790,flat,18.0,0,13.110
2670,85.44,-7.1655,-6.8990,0.1799,0.0000,-0.0000,-0.4968,flat,18.0,0,12.734
2680,85.76,-6.6728,-7.1376,0.1799,0.0001,-0.0000,-0.3414,flat,18.0,0,12.299
2690,86.08,-6.1440,-7.3069,0.1799,0.0003,-0.0000,-0.2144,flat,18.0,0,11.822
2700,86.40,-5.5944,-7.4134,0.1798,0.0004,-0.0000,-0.1114,flat,18.0,0,11.315
2710,86.72,-5.0338,-7.4661,0.1798,0.0004,-0.0000,-0.0275,flat,18.0,0,10.788
2720,87.04,-4.4686,-7.4735,0.1797,0.0003,-0.0000,0.0400,flat,18.0,0,10.248
2730,87.36,-3.9034,-7.4447,0.1797,0.0002,-0.0000,0.0908,flat,18.0,0,9.699
2740,87.68,-3.3392,-7.3880,0.1797,0.0001,-0.0000,0.1316,flat,18.0,0,9.145
2750,88.00,-2.7769,-7.3092,0.1797,0.0001,-0.0000,0.1647,flat,18.0,0,8.587
2760,88.32,-2.2164,-7.2122,0.1797,0.0001,-0.0000,0.1928,flat,18.0,0,8.026
2770,88.64,-1.6580,-7.0997,0.1797,0.0001,-0.0000,0.2171,flat,18.0,0,7.463
2780,88.96,-1.1018,-6.9738,0.1797,0.0001,-0.0000,0.2384,flat,18.0,0,6.898
2790,89.28,-0.5477,-6.8364,0.1797,0.0001,-0.0000,0.2572,flat,18.0,0,6.331
2800,89.60,0.0041,-6.6886,0.1797,0.0001,-0.0000,0.2741,flat,18.0,0,5.764
2810,89.92,0.5538,-6.5315,0.1797,0.0001,-0.0000,0.2896,flat,18.0,0,5.196
2820,90.24,1.1013,-6.3661,0.1797,0.0001,-0.0000,0.3039,flat,18.0,0,4.627
2830,90.56,1.6465,-6.1928,0.1797,0.0000,-0.0000,0.3174,flat,18.0,0,4.059
2840,90.88,2.1895,-6.0123,0.1797,0.0000,-0.0000,0.3305,flat,18.0,0,3.490
2850,91.20,2.7300,-5.8246,0.1797,0.0000,0.0000,0.3436,flat,18.0,0,2.922
2860,91.52,3.2677,-5.6298,0.1797,0.0000,0.0000,0.3574,flat,18.0,0,2.355
2870,91.84,3.8021,-5.4276,0.1797,0.0001,0.0000,0.3729,flat,18.0,0,1.790
2880,92.16,4.3318,-5.2171,0.1797,0.0001,0.0000,0.3930,flat,18.0,0,1.229
2890,92.48,4.8429,-5.0051,0.1797,0.0000,0.0003,0.4677,flat,18.0,1,13.086
2900,92.80,5.1850,-4.7884,0.1799,-0.0001,-0.0000,0.7790,flat,18.0,1,12.985
2910,93.12,5.4599,-4.4444,0.1799,-0.0000,-0.0000,1.0782,flat,18.0,1,12.753
2920,93.44,5.6611,-3.9970,0.1799,0.0000,-0.0000,1.3558,flat,18.0,1,12.408
2930,93.76,5.7470,-3.4852,0.1799,0.0001,-0.0000,1.5985,flat,18.0,1,11.969
2940,94.08,5.7107,-2.9499,0.1799,0.0001,-0.0000,1.7855,flat,18.0,1,11.464
2950,94.40,5.5772,-2.4219,0.1799,0.0002,-0.0000,1.9182,flat,18.0,1,10.928
2960,94.72,5.3755,-1.9099,0.1798,0.0004,-0.0000,2.0163,flat,18.0,1,10.378
2970,95.04,5.1243,-1.4156,0.1798,0.0003,-0.0000,2.0931,flat,18.0,1,9.824
2980,95.36,4.8354,-0.9382,0.1797,0.0002,-0.0000,2.1554,flat,18.0,1,9.270
2990,95.68,4.5169,-0.4769,0.1797,0.0002,-0.0000,2.2073,flat,18.0,1,8.719
3000,96.00,4.1743,-0.0310,0.1797,0.0002,-0.0000,2.2504,flat,18.0,1,8.174
3010,96.32,3.8126,0.4014,0.1797,0.0001,-0.0000,2.2876,flat,18.0,1,7.638
3020,96.64,3.4347,0.8217,0.1797,0.0001,-0.0000,2.3223,flat,18.0,1,7.111
3030,96.96,3.0422,1.2297,0.1797,0.0001,-0.0000,2.3542,flat,18.0,1,6.598
3040,97.28,2.6366,1.6258,0.1797,0.0001,-0.0000,2.3840,flat,18.0,1,6.102
3050,97.60,2.2193,2.0098,0.1797,0.0001,-0.0000,2.4130,flat,18.0,1,5.629
3060,97.92,1.7914,2.3818,0.1797,0.0001,0.0000,2.4409,flat,18.0,1,5.186
3070,98.24,1.3535,2.7419,0.1797,0.0001,-0.0000,2.4688,flat,18.0,1,4.780
3080,98.56,0.9059,3.0894,0.1797,0.0001,0.0000,2.4983,flat,18.0,1,4.422
3090,98.88,0.4512,3.4194,0.1797,0.0001,0.0002,2.5103,flat,18.0,1,4.130
3100,99.20,0.0970,3.7428,0.1799,-0.0006,0.0005,2.2548,flat,18.0,1,3.878
3110,99.52,-0.1911,4.1648,0.1799,-0.0000,-0.0000,2.0067,flat,18.0,1,3.557
3120,99.84,-0.3871,4.6600,0.1799,-0.0000,-0.0000,1.7668,flat,18.0,1,3.178
3130,100.16,-0.4691,5.1936,0.1799,-0.0001,-0.0000,1.5470,flat,18.0,1,2.753
3140,100.48,-0.4364,5.7338,0.1799,-0.0001,-0.0000,1.3669,flat,18.0,1,2.296
3150,100.80,-0.3089,6.2591,0.1799,-0.0001,-0.0000,1.2168,flat,18.0,1,1.824
3160,101.12,-0.1033,6.7573,0.1799,-0.0002,-0.0000,1.0788,flat,18.0,1,1.351
3170,101.44,0.1716,7.2186,0.1799,-0.0002,-0.0000,0.9450,flat,18.0,1,0.896
3180,101.76,0.3922,7.5138,0.1791,-0.0003,-0.0044,0.6100,flat,18.0,2,14.937
3190,102.08,0.6177,7.5988,0.1784,-0.0084,0.0001,0.0380,flat,18.0,2,15.134
3200,102.40,0.9705,7.5925,0.1799,0.0004,0.0000,-0.4640,flat,18.0,2,15.330
3210,102.72,1.2811,7.3837,0.1799,0.0001,-0.0001,-0.8157,flat,18.0,2,15.344
3220,103.04,1.5488,7.0279,0.1799,0.0000,-0.0000,-1.1108,flat,18.0,2,15.225
3230,103.36,1.7386,6.5719,0.1799,-0.0000,-0.0000,-1.3807,flat,18.0,2,14.991
3240,103.68,1.8136,6.0548,0.1799,-0.0000,-0.0001,-1.6133,flat,18.0,2,14.648
3250,104.00,1.7713,5.5176,0.1799,-0.0001,-0.0000,-1.7862,flat,18.0,2,14.221
3260,104.32,1.6381,4.9870,0.1799,-0.0003,-0.0000,-1.9093,flat,18.0,2,13.744
3270,104.64,1.4414,4.4707,0.1798,-0.0004,-0.0000,-1.9997,flat,18.0,2,13.238
3280,104.96,1.1988,3.9696,0.1798,-0.0003,-0.0000,-2.0696,flat,18.0,2,12.713
3290,105.28,0.9216,3.4830,0.1797,-0.0002,-0.0000,-2.1254,flat,18.0,2,12.175
3300,105.60,0.6173,3.0100,0.1797,-0.0002,-0.0000,-2.1704,flat,18.0,2,11.629
3310,105.92,0.2919,2.5493,0.1797,-0.0001,-0.0000,-2.2068,flat,18.0,2,11.078
3320,106.24,-0.0503,2.0990,0.1797,-0.0001,-0.0000,-2.2381,flat,18.0,2,10.522
3330,106.56,-0.4067,1.6580,0.1797,-0.0001,-0.0000,-2.2654,flat,18.0,2,9.963
3340,106.88,-0.7752,1.2257,0.1797,-0.0001,-0.0000,-2.2897,flat,18.0,2,9.401
3350,107.20,-1.1541,0.8013,0.1797,-0.0001,-0.0000,-2.3120,flat,18.0,2,8.837
3360,107.52,-1.5426,0.3845,0.1797,-0.0001,-0.0000,-2.3322,flat,18.0,2,8.272
3370,107.84,-1.9396,-0.0251,0.1797,-0.0001,-0.0000,-2.3505,flat,18.0,2,7.705
3380,108.16,-2.3441,-0.4279,0.1797,-0.0001,-0.0000,-2.3672,flat,18.0,2,7.137
3390,108.48,-2.7553,-0.8244,0.1797,-0.0001,-0.0000,-2.3828,flat,18.0,2,6.568
3400,108.80,-3.1727,-1.2146,0.1797,-0.0001,-0.0000,-2.3976,flat,18.0,2,5.998
3410,109.12,-3.5959,-1.5990,0.1797,-0.0000,-0.0000,-2.4116,flat,18.0,2,5.428
3420,109.44,-4.0243,-1.9776,0.1797,-0.0000,-0.0000,-2.4248,flat,18.0,2,4.858
3430,109.76,-4.4575,-2.3508,0.1797,-0.0000,-0.0000,-2.4376,flat,18.0,2,4.288
3440,110.08,-4.8955,-2.7184,0.1797,-0.0000,-0.0000,-2.4503,flat,18.0,2,3.717
3450,110.40,-5.3381,-3.0803,0.1797,-0.0000,0.0000,-2.4633,flat,18.0,2,3.146
3460,110.72,-5.7853,-3.4361,0.1797,-0.0000,0.0000,-2.4773,flat,18.0,2,2.575
3470,111.04,-6.2372,-3.7851,0.1797,-0.0001,0.0000,-2.4933,flat,18.0,2,2.005
3480,111.36,-6.6942,-4.1255,0.1797,-0.0001,0.0000,-2.5136,flat,18.0,2,1.436
3490,111.68,-7.1565,-4.4530,0.1797,-0.0001,0.0000,-2.5461,flat,18.0,2,0.870
3500,112.00,-7.6217,-4.7385,0.1798,-0.0001,0.0000,-2.6662,flat,18.0,3,0.812
3510,112.32,-7.9360,-4.9111,0.1799,0.0001,-0.0001,-2.3585,flat,18.0,0,13.286
3520,112.64,-8.1667,-5.2275,0.1798,-0.0002,-0.0000,-1.8594,flat,18.0,0,13.530
3530,112.96,-8.2562,-5.6048,0.1799,0.0001,-0.0001,-1.3932,flat,18.0,0,13.644
3540,113.28,-8.1527,-6.0092,0.1799,0.0001,-0.0000,-1.0567,flat,18.0,0,13.579
3550,113.60,-7.8836,-6.3938,0.1799,0.0001,-0.0000,-0.8107,flat,18.0,0,13.360
3560,113.92,-7.5011,-6.7334,0.1799,0.0001,-0.0000,-0.6151,flat,18.0,0,13.035
3570,114.24,-7.0440,-7.0170,0.1799,0.0001,-0.0000,-0.4403,flat,18.0,0,12.638
3580,114.56,-6.5368,-7.2314,0.1799,0.0001,-0.0000,-0.2944,flat,18.0,0,12.187
3590,114.88,-5.9994,-7.3779,0.1799,0.0003,-0.0000,-0.1759,flat,18.0,0,11.698
3600,115.20,-5.4451,-7.4646,0.1798,0.0004,-0.0000,-0.0797,flat,18.0,0,11.184
3610,115.52,-4.9060,-7.4735,0.1799,0.0002,0.0000,0.1307,flat,18.0,0,10.668
3620,115.84,-4.3737,-7.3834,0.1799,0.0001,-0.0000,0.2956,flat,18.0,0,10.131
3630,116.16,-3.8601,-7.2077,0.1799,0.0002,-0.0000,0.4257,flat,18.0,0,9.589
3640,116.48,-3.3715,-6.9660,0.1798,0.0004,-0.0000,0.5362,flat,18.0,0,9.053
3650,116.80,-2.9089,-6.6696,0.1798,0.0004,-0.0000,0.6266,flat,18.0,0,8.529
3660,117.12,-2.4707,-6.3438,0.1798,0.0003,-0.0001,0.6168,flat,18.0,0,8.025
3670,117.44,-2.0062,-6.0349,0.1798,-0.0003,-0.0000,0.5333,flat,18.0,0,7.505
3680,117.76,-1.5159,-5.7611,0.1798,-0.0003,-0.0000,0.4593,flat,18.0,0,6.972
3690,118.08,-1.0055,-5.5209,0.1797,-0.0002,-0.0000,0.3936,flat,18.0,0,6.429
3700,118.40,-0.4794,-5.3122,0.1797,-0.0002,-0.0000,0.3350,flat,18.0,0,5.878
3710,118.72,0.0587,-5.1335,0.1797,-0.0002,-0.0000,0.2825,flat,18.0,0,5.321
3720,119.04,0.6062,-4.9818,0.1797,-0.0002,-0.0000,0.2350,flat,18.0,0,4.761
3730,119.36,1.1599,-4.8553,0.1797,-0.0001,-0.0000,0.1935,flat,18.0,0,4.198
3740,119.68,1.7182,-4.7510,0.1797,-0.0001,-0.0000,0.1549,flat,18.0,0,3.634
3750,120.00,2.2803,-4.6679,0.1797,-0.0001,-0.0000,0.1173,flat,18.0,0,3.068
3760,120.32,2.8451,-4.6057,0.1797,-0.0001,-0.0000,0.0795,flat,18.0,0,2.501
3770,120.64,3.4114,-4.5650,0.1797,-0.0001,0.0000,0.0390,flat,18.0,0,1.934
3780,120.96,3.9775,-4.5477,0.1797,-0.0002,0.0000,-0.0088,flat,18.0,0,1.367
3790,121.28,4.5404,-4.5582,0.1798,-0.0003,0.0000,-0.0787,flat,18.0,0,0.805
3800,121.60,5.0567,-4.5699,0.1798,-0.0004,0.0001,0.1606,flat,18.0,1,12.737
3810,121.92,5.4543,-4.4831,0.1799,-0.0002,0.0001,0.5538,flat,18.0,1,12.787
3820,122.24,5.7487,-4.2373,0.1799,-0.0001,-0.0001,0.8955,flat,18.0,1,12.664
3830,122.56,5.9961,-3.8566,0.1799,-0.0000,-0.0000,1.2007,flat,18.0,1,12.408
3840,122.88,6.1480,-3.3834,0.1799,0.0000,-0.0000,1.4787,flat,18.0,1,12.040
3850,123.20,6.1717,-2.8622,0.1799,0.0000,-0.0000,1.7118,flat,18.0,1,11.581
3860,123.52,6.0757,-2.3337,0.1799,0.0001,-0.0000,1.8805,flat,18.0,1,11.066
3870,123.84,5.8924,-1.8205,0.1799,0.0003,-0.0000,2.0013,flat,18.0,1,10.526
3880,124.16,5.6483,-1.3270,0.1798,0.0004,-0.0000,2.0926,flat,18.0,1,9.976
3890,124.48,5.3593,-0.8529,0.1798,0.0003,-0.0000,2.1641,flat,18.0,1,9.422
3900,124.80,5.0367,-0.3968,0.1797,0.0002,-0.0000,2.2221,flat,18.0,1,8.869
3910,125.12,4.6876,0.0420,0.1797,0.0002,-0.0000,2.2726,flat,18.0,1,8.320
3920,125.44,4.3162,0.4645,0.1797,0.0002,-0.0000,2.3160,flat,18.0,1,7.779
3930,125.76,3.9264,0.8723,0.1797,0.0001,-0.0000,2.3548,flat,18.0,1,7.246
3940,126.08,3.5208,1.2659,0.1797,0.0001,-0.0000,2.3901,flat,18.0,1,6.727
3950,126.40,3.1013,1.6455,0.1797,0.0001,-0.0000,2.4234,flat,18.0,1,6.223
3960,126.72,2.6699,2.0117,0.1797,0.0001,-0.0000,2.4542,flat,18.0,1,5.741
3970,127.04,2.2274,2.3653,0.1797,0.0001,-0.0000,2.4841,flat,18.0,1,5.285
3980,127.36,1.7744,2.7060,0.1797,0.0001,-0.0000,2.5141,flat,18.0,1,4.863
3990,127.68,1.3113,3.0331,0.1797,0.0001,-0.0000,2.5448,flat,18.0,1,4.486
4000,128.00,0.8385,3.3457,0.1797,0.0001,0.0000,2.5775,flat,18.0,1,4.168
4010,128.32,0.3929,3.6265,0.1798,0.0002,0.0001,2.4736,flat,18.0,1,3.933
4020,128.64,0.0498,3.9646,0.1799,-0.0001,-0.0000,2.2157,flat,18.0,1,3.675
4030,128.96,-0.2247,4.4002,0.1799,-0.0000,-0.0000,1.9619,flat,18.0,1,3.349
4040,129.28,-0.3998,4.9039,0.1799,-0.0001,-0.0000,1.7184,flat,18.0,1,2.967
4050,129.60,-0.4555,5.4400,0.1799,-0.0001,-0.0000,1.4973,flat,18.0,1,2.541
4060,129.92,-0.3962,5.9758,0.1799,-0.0001,0.0000,1.3192,flat,18.0,1,2.087
4070,130.24,-0.2432,6.4917,0.1799,-0.0001,-0.0000,1.1667,flat,18.0,1,1.621
4080,130.56,-0.0121,6.9750,0.1799,-0.0001,0.0000,1.0220,flat,18.0,1,1.161
4090,130.88,0.2829,7.4091,0.1814,-0.0002,0.0109,0.8870,flat,18.0,2,14.790
4100,131.20,0.4465,7.5653,0.1800,-0.0002,-0.0014,0.2671,flat,18.0,2,15.010
4110,131.52,0.7486,7.6414,0.1795,-0.0017,-0.0001,-0.1789,flat,18.0,2,15.243
4120,131.84,1.0964,7.5473,0.1799,0.0001,-0.0000,-0.6237,flat,18.0,2,15.366
4130,132.16,1.3880,7.2705,0.1799,0.0001,-0.0001,-0.9387,flat,18.0,2,15.318
4140,132.48,1.6305,6.8693,0.1799,-0.0000,-0.0000,-1.2251,flat,18.0,2,15.152
4150,132.80,1.7760,6.3832,0.1799,-0.0000,-0.0000,-1.4811,flat,18.0,2,14.871
4160,133.12,1.8012,5.8531,0.1799,-0.0001,-0.0000,-1.6902,flat,18.0,2,14.489
4170,133.44,1.7182,5.3165,0.1799,-0.0001,-0.0000,-1.8411,flat,18.0,2,14.038
4180,133.76,1.5567,4.7913,0.1798,-0.0004,-0.0000,-1.9486,flat,18.0,2,13.547
4190,134.08,1.3399,4.2810,0.1798,-0.0004,-0.0000,-2.0295,flat,18.0,2,13.032
4200,134.40,1.0825,3.7857,0.1797,-0.0002,-0.0000,-2.0929,flat,18.0,2,12.501
4210,134.72,0.7939,3.3044,0.1797,-0.0002,-0.0000,-2.1441,flat,18.0,2,11.960
4220,135.04,0.4807,2.8365,0.1797,-0.0001,-0.0000,-2.1848,flat,18.0,2,11.411
4230,135.36,0.1486,2.3797,0.1797,-0.0001,-0.0000,-2.2190,flat,18.0,2,10.858
4240,135.68,-0.1992,1.9329,0.1797,-0.0001,-0.0000,-2.2485,flat,18.0,2,10.300
4250,136.00,-0.5602,1.4952,0.1797,-0.0001,-0.0000,-2.2744,flat,18.0,2,9.740
4260,136.32,-0.9325,1.0657,0.1797,-0.0001,-0.0000,-2.2977,flat,18.0,2,9.178
4270,136.64,-1.3150,0.6439,0.1797,-0.0001,-0.0000,-2.3192,flat,18.0,2,8.613
4280,136.96,-1.7065,0.2296,0.1797,-0.0001,-0.0000,-2.3386,flat,18.0,2,8.047
4290,137.28,-2.1061,-0.1777,0.1797,-0.0001,-0.0000,-2.3561,flat,18.0,2,7.479
4300,137.60,-2.5129,-0.5785,0.1797,-0.0001,-0.0000,-2.3723,flat,18.0,2,6.911
4310,137.92,-2.9261,-0.9730,0.1797,-0.0001,-0.0000,-2.3875,flat,18.0,2,6.342
4320,138.24,-3.3454,-1.3614,0.1797,-0.0001,-0.0000,-2.4019,flat,18.0,2,5.772
4330,138.56,-3.7702,-1.7441,0.1797,-0.0000,-0.0000,-2.4155,flat,18.0,2,5.202
4340,138.88,-4.2001,-2.1211,0.1797,-0.0000,-0.0000,-2.4285,flat,18.0,2,4.631
4350,139.20,-4.6347,-2.4927,0.1797,-0.0000,-0.0000,-2.4412,flat,18.0,2,4.061
4360,139.52,-5.0740,-2.8587,0.1797,-0.0000,0.0000,-2.4539,flat,18.0,2,3.490
4370,139.84,-5.5179,-3.2189,0.1797,-0.0000,0.0000,-2.4672,flat,18.0,2,2.919
4380,140.16,-5.9664,-3.5728,0.1797,-0.0001,0.0000,-2.4818,flat,18.0,2,2.349
4390,140.48,-6.4198,-3.9193,0.1797,-0.0001,0.0000,-2.4991,flat,18.0,2,1.779
4400,140.80,-6.8784,-4.2561,0.1797,-0.0001,0.0000,-2.5225,flat,18.0,2,1.210
4410,141.12,-7.3393,-4.5718,0.1797,-0.0001,-0.0000,-2.5834,flat,18.0,3,1.126
4420,141.44,-7.7739,-4.8146,0.1799,-0.0002,0.0010,-2.6752,flat,18.0,0,13.122
4430,141.76,-8.0363,-5.0238,0.1798,0.0001,-0.0003,-2.1591,flat,18.0,0,13.390
4440,142.08,-8.2228,-5.3758,0.1799,-0.0001,-0.0000,-1.6601,flat,18.0,0,13.594
4450,142.40,-8.2351,-5.7653,0.1799,0.0001,-0.0001,-1.2440,flat,18.0,0,13.637
4460,142.72,-8.0589,-6.1678,0.1799,0.0001,-0.0000,-0.9484,flat,18.0,0,13.505
4470,143.04,-7.7374,-6.5350,0.1799,0.0001,-0.0000,-0.7296,flat,18.0,0,13.236
4480,143.36,-7.3220,-6.8544,0.1799,0.0001,0.0000,-0.5417,flat,18.0,0,12.880
4490,143.68,-6.8418,-7.1108,0.1799,0.0001,-0.0000,-0.3780,flat,18.0,0,12.459
4500,144.00,-6.3205,-7.2972,0.1799,0.0002,-0.0000,-0.2436,flat,18.0,0,11.991
4510,144.32,-5.7750,-7.4185,0.1798,0.0004,-0.0000,-0.1348,flat,18.0,0,11.491
4520,144.64,-5.2165,-7.4835,0.1798,0.0004,-0.0000,-0.0462,flat,18.0,0,10.969
4530,144.96,-4.6520,-7.5010,0.1798,0.0003,-0.0000,0.0255,flat,18.0,0,10.432
4540,145.28,-4.0867,-7.4798,0.1797,0.0002,-0.0000,0.0801,flat,18.0,0,9.885
4550,145.60,-3.5221,-7.4290,0.1797,0.0002,-0.0000,0.1234,flat,18.0,0,9.332
4560,145.92,-2.9594,-7.3547,0.1797,0.0001,-0.0000,0.1579,flat,18.0,0,8.775
4570,146.24,-2.3986,-7.2614,0.1797,0.0001,-0.0000,0.1872,flat,18.0,0,8.214
4580,146.56,-1.8398,-7.1520,0.1797,0.0001,-0.0000,0.2124,flat,18.0,0,7.651
4590,146.88,-1.2831,-7.0287,0.1797,0.0001,-0.0000,0.2343,flat,18.0,0,7.087
4600,147.20,-0.7286,-6.8935,0.1797,0.0001,-0.0000,0.2537,flat,18.0,0,6.520
4610,147.52,-0.1764,-6.7476,0.1797,0.0001,-0.0000,0.2710,flat,18.0,0,5.953
4620,147.84,0.3737,-6.5923,0.1797,0.0001,-0.0000,0.2867,flat,18.0,0,5.385
4630,148.16,0.9216,-6.4284,0.1797,0.0001,-0.0000,0.3012,flat,18.0,0,4.817
4640,148.48,1.4673,-6.2566,0.1797,0.0000,-0.0000,0.3149,flat,18.0,0,4.248
4650,148.80,2.0107,-6.0774,0.1797,0.0000,-0.0000,0.3279,flat,18.0,0,3.680
4660,149.12,2.5518,-5.8911,0.1797,0.0000,-0.0000,0.3409,flat,18.0,0,3.111
4670,149.44,3.0902,-5.6978,0.1797,0.0000,0.0000,0.3542,flat,18.0,0,2.543
4680,149.76,3.6255,-5.4973,0.1797,0.0001,0.0000,0.3688,flat,18.0,0,1.977
4690,150.08,4.1568,-5.2890,0.1797,0.0001,0.0000,0.3867,flat,18.0,0,1.415
4700,150.40,4.6809,-5.0713,0.1797,0.0001,0.0000,0.4145,flat,18.0,0,0.863
4710,150.72,5.0955,-4.8715,0.1798,-0.0003,0.0000,0.6549,flat,18.0,1,13.035
4720,151.04,5.3879,-4.5780,0.1799,-0.0000,-0.0000,0.9652,flat,18.0,1,12.853
4730,151.36,5.6237,-4.1665,0.1799,0.0000,-0.0000,1.2536,flat,18.0,1,12.552
4740,151.68,5.7563,-3.6745,0.1799,0.0001,-0.0000,1.5120,flat,18.0,1,12.146
4750,152.00,5.7641,-3.1440,0.1799,0.0001,0.0000,1.7226,flat,18.0,1,11.663
4760,152.32,5.6631,-2.6115,0.1799,0.0001,-0.0000,1.8747,flat,18.0,1,11.136
4770,152.64,5.4836,-2.0935,0.1798,0.0004,-0.0000,1.9839,flat,18.0,1,10.590
4780,152.96,5.2486,-1.5929,0.1798,0.0004,-0.0000,2.0678,flat,18.0,1,10.037
4790,153.28,4.9720,-1.1098,0.1797,0.0003,-0.0000,2.1351,flat,18.0,1,9.483
4800,153.60,4.6630,-0.6432,0.1797,0.0002,-0.0000,2.1906,flat,18.0,1,8.930
4810,153.92,4.3281,-0.1922,0.1797,0.0002,-0.0000,2.2373,flat,18.0,1,8.383
4820,154.24,3.9722,0.2442,0.1797,0.0001,-0.0000,2.2760,flat,18.0,1,7.843
4830,154.56,3.5993,0.6683,0.1797,0.0001,-0.0000,2.3117,flat,18.0,1,7.312
4840,154.88,3.2112,1.0801,0.1797,0.0001,-0.0000,2.3447,flat,18.0,1,6.793
4850,155.20,2.8095,1.4798,0.1797,0.0001,-0.0000,2.3751,flat,18.0,1,6.290
4860,155.52,2.3957,1.8674,0.1797,0.0001,-0.0000,2.4045,flat,18.0,1,5.808
4870,155.84,1.9708,2.2429,0.1797,0.0001,-0.0000,2.4327,flat,18.0,1,5.352
4880,156.16,1.5358,2.6066,0.1797,0.0001,-0.0000,2.4604,flat,18.0,1,4.930
4890,156.48,1.0911,2.9580,0.1797,0.0001,0.0000,2.4891,flat,18.0,1,4.552
4900,156.80,0.6365,3.2961,0.1797,0.0001,0.0000,2.5205,flat,18.0,1,4.231
4910,157.12,0.2326,3.6045,0.1799,0.0002,0.0000,2.3566,flat,18.0,1,3.984
4920,157.44,-0.0815,3.9875,0.1799,0.0000,-0.0000,2.1107,flat,18.0,1,3.690
4930,157.76,-0.3200,4.4560,0.1799,-0.0000,-0.0000,1.8646,flat,18.0,1,3.334
4940,158.08,-0.4507,4.9775,0.1799,-0.0000,-0.0000,1.6353,flat,18.0,1,2.928
4950,158.40,-0.4638,5.5183,0.1799,-0.0001,-0.0000,1.4359,flat,18.0,1,2.483
4960,158.72,-0.3727,6.0513,0.1799,-0.0001,-0.0000,1.2756,flat,18.0,1,2.016
4970,159.04,-0.1973,6.5617,0.1799,-0.0001,-0.0000,1.1339,flat,18.0,1,1.542
4980,159.36,0.0500,7.0384,0.1799,-0.0002,-0.0000,0.9966,flat,18.0,1,1.077
4990,159.68,0.3318,7.4408,0.1805,-0.0003,0.0053,0.8620,flat,18.0,2,14.843
5000,160.00,0.4993,7.5643,0.1736,-0.0353,0.0008,0.2092,flat,18.0,2,15.039
5010,160.32,0.8251,7.6207,0.1799,0.0003,-0.0000,-0.2786,flat,18.0,2,15.269
5020,160.64,1.1599,7.4881,0.1799,0.0001,-0.0000,-0.6895,flat,18.0,2,15.356
5030,160.96,1.4447,7.1833,0.1799,0.0000,-0.0001,-0.9949,flat,18.0,2,15.283
5040,161.28,1.6719,6.7630,0.1799,-0.0000,-0.0000,-1.2767,flat,18.0,2,15.095
5050,161.60,1.7953,6.2656,0.1799,0.0000,-0.0000,-1.5266,flat,18.0,2,14.795
5060,161.92,1.7976,5.7318,0.1799,-0.0001,-0.0000,-1.7236,flat,18.0,2,14.397
5070,162.24,1.6971,5.1967,0.1799,-0.0002,-0.0000,-1.8650,flat,18.0,2,13.937
5080,162.56,1.5232,4.6744,0.1798,-0.0004,-0.0000,-1.9664,flat,18.0,2,13.440
5090,162.88,1.2974,4.1673,0.1798,-0.0003,-0.0000,-2.0435,flat,18.0,2,12.921
5100,163.20,1.0330,3.6750,0.1797,-0.0002,-0.0000,-2.1044,flat,18.0,2,12.388
5110,163.52,0.7388,3.1965,0.1797,-0.0002,-0.0000,-2.1538,flat,18.0,2,11.846
5120,163.84,0.4212,2.7313,0.1797,-0.0001,-0.0000,-2.1928,flat,18.0,2,11.296
5130,164.16,0.0854,2.2769,0.1797,-0.0001,-0.0000,-2.2260,flat,18.0,2,10.742
5140,164.48,-0.2656,1.8322,0.1797,-0.0001,-0.0000,-2.2548,flat,18.0,2,10.184
5150,164.80,-0.6294,1.3966,0.1797,-0.0001,-0.0000,-2.2801,flat,18.0,2,9.623
5160,165.12,-1.0042,0.9690,0.1797,-0.0001,-0.0000,-2.3032,flat,18.0,2,9.060
5170,165.44,-1.3890,0.5491,0.1797,-0.0001,-0.0000,-2.3243,flat,18.0,2,8.495
5180,165.76,-1.7826,0.1367,0.1797,-0.0001,-0.0000,-2.3433,flat,18.0,2,7.929
5190,166.08,-2.1842,-0.2688,0.1797,-0.0001,-0.0000,-2.3606,flat,18.0,2,7.361
5200,166.40,-2.5927,-0.6679,0.1797,-0.0001,-0.0000,-2.3766,flat,18.0,2,6.793
5210,166.72,-3.0077,-1.0606,0.1797,-0.0001,-0.0000,-2.3917,flat,18.0,2,6.223
5220,167.04,-3.4286,-1.4473,0.1797,-0.0001,-0.0000,-2.4060,flat,18.0,2,5.654
5230,167.36,-3.8549,-1.8283,0.1797,-0.0000,-0.0000,-2.4195,flat,18.0,2,5.083
5240,167.68,-4.2862,-2.2037,0.1797,-0.0000,-0.0000,-2.4324,flat,18.0,2,4.513
5250,168.00,-4.7223,-2.5735,0.1797,-0.0000,-0.0000,-2.4451,flat,18.0,2,3.942
5260,168.32,-5.1630,-2.9378,0.1797,-0.0000,0.0000,-2.4579,flat,18.0,2,3.371
5270,168.64,-5.6083,-3.2962,0.1797,-0.0000,0.0000,-2.4715,flat,18.0,2,2.801
5280,168.96,-6.0583,-3.6481,0.1797,-0.0001,0.0000,-2.4865,flat,18.0,2,2.230
5290,169.28,-6.5132,-3.9922,0.1797,-0.0001,0.0000,-2.5047,flat,18.0,2,1.661
5300,169.60,-6.9734,-4.3257,0.1797,-0.0001,0.0000,-2.5305,flat,18.0,2,1.093
5310,169.92,-7.4361,-4.6316,0.1798,-0.0000,-0.0000,-2.6065,flat,18.0,3,1.016
5320,170.24,-7.8280,-4.8349,0.1798,-0.0002,0.0009,-2.5878,flat,18.0,0,13.176
5330,170.56,-8.0878,-5.0895,0.1798,-0.0001,-0.0000,-2.0609,flat,18.0,0,13.445
5340,170.88,-8.2461,-5.4526,0.1799,-0.0000,-0.0000,-1.5650,flat,18.0,0,13.623
5350,171.20,-8.2194,-5.8478,0.1799,0.0002,-0.0000,-1.1783,flat,18.0,0,13.629
5360,171.52,-8.0107,-6.2459,0.1799,0.0001,-0.0000,-0.9002,flat,18.0,0,13.466
5370,171.84,-7.6670,-6.6041,0.1799,0.0001,-0.0000,-0.6911,flat,18.0,0,13.178
5380,172.16,-7.2369,-6.9125,0.1799,0.0001,-0.0000,-0.5071,flat,18.0,0,12.807
5390,172.48,-6.7470,-7.1551,0.1799,0.0001,-0.0000,-0.3492,flat,18.0,0,12.375
5400,172.80,-6.2197,-7.3280,0.1799,0.0002,-0.0000,-0.2203,flat,18.0,0,11.900
5410,173.12,-5.6892,-7.4105,0.1799,0.0001,0.0000,-0.0006,flat,18.0,0,11.406
5420,173.44,-5.1457,-7.3908,0.1799,0.0001,-0.0000,0.1734,flat,18.0,0,10.876
5430,173.76,-4.6105,-7.2804,0.1799,0.0002,-0.0000,0.3048,flat,18.0,0,10.331
5440,174.08,-4.0919,-7.1012,0.1798,0.0004,-0.0000,0.4120,flat,18.0,0,9.783
5450,174.40,-3.5940,-6.8669,0.1798,0.0004,-0.0000,0.5056,flat,18.0,0,9.242
5460,174.72,-3.1173,-6.5856,0.1798,0.0003,-0.0000,0.5836,flat,18.0,0,8.710
5470,175.04,-2.6629,-6.2767,0.1798,0.0002,-0.0001,0.5859,flat,18.0,0,8.198
5480,175.36,-2.1885,-5.9807,0.1798,-0.0002,-0.0000,0.5058,flat,18.0,0,7.673
5490,175.68,-1.6904,-5.7192,0.1798,-0.0003,-0.0000,0.4350,flat,18.0,0,7.137
5500,176.00,-1.1739,-5.4903,0.1797,-0.0002,-0.0000,0.3724,flat,18.0,0,6.590
5510,176.32,-0.6432,-5.2923,0.1797,-0.0002,-0.0000,0.3169,flat,18.0,0,6.037
5520,176.64,-0.1015,-5.1227,0.1797,-0.0002,-0.0000,0.2673,flat,18.0,0,5.479
5530,176.96,0.4480,-4.9789,0.1797,-0.0002,-0.0000,0.2239,flat,18.0,0,4.918
5540,177.28,1.0028,-4.8579,0.1797,-0.0001,-0.0000,0.1853,flat,18.0,0,4.355
5550,177.60,1.5624,-4.7578,0.1797,-0.0001,-0.0000,0.1490,flat,18.0,0,3.790
5560,177.92,2.1255,-4.6776,0.1797,-0.0001,-0.0000,0.1139,flat,18.0,0,3.223
5570,178.24,2.6910,-4.6171,0.1797,-0.0001,-0.0000,0.0788,flat,18.0,0,2.655
5580,178.56,3.2581,-4.5763,0.1797,-0.0001,0.0000,0.0421,flat,18.0,0,2.087
5590,178.88,3.8252,-4.5567,0.1797,-0.0001,0.0000,0.0003,flat,18.0,0,1.520
5600,179.20,4.3899,-4.5614,0.1797,-0.0002,0.0000,-0.0559,flat,18.0,0,0.956
5610,179.52,4.9259,-4.5770,0.1798,-0.0005,0.0001,0.0906,flat,18.0,1,12.703
5620,179.84,5.3632,-4.5187,0.1798,-0.0002,0.0001,0.4499,flat,18.0,1,12.789
5630,180.16,5.6749,-4.3147,0.1799,-0.0001,-0.0001,0.8150,flat,18.0,1,12.708
5640,180.48,5.9374,-3.9635,0.1799,-0.0000,-0.0000,1.1243,flat,18.0,1,12.483
5650,180.80,6.1184,-3.5101,0.1799,0.0000,-0.0000,1.4105,flat,18.0,1,12.143
5660,181.12,6.1758,-2.9970,0.1799,0.0001,-0.0000,1.6573,flat,18.0,1,11.704
5670,181.44,6.1080,-2.4672,0.1799,0.0001,-0.0000,1.8419,flat,18.0,1,11.200
5680,181.76,5.9445,-1.9492,0.1799,0.0002,-0.0000,1.9732,flat,18.0,1,10.665
5690,182.08,5.7144,-1.4505,0.1798,0.0004,-0.0000,2.0709,flat,18.0,1,10.116
5700,182.40,5.4359,-0.9715,0.1798,0.0003,-0.0000,2.1471,flat,18.0,1,9.563
5710,182.72,5.1212,-0.5108,0.1797,0.0002,-0.0000,2.2079,flat,18.0,1,9.009
5720,183.04,4.7785,-0.0676,0.1797,0.0002,-0.0000,2.2601,flat,18.0,1,8.459
5730,183.36,4.4125,0.3590,0.1797,0.0002,-0.0000,2.3053,flat,18.0,1,7.915
5740,183.68,4.0272,0.7705,0.1797,0.0001,-0.0000,2.3452,flat,18.0,1,7.380
5750,184.00,3.6254,1.1677,0.1797,0.0001,-0.0000,2.3812,flat,18.0,1,6.857
5760,184.32,3.2094,1.5509,0.1797,0.0001,-0.0000,2.4152,flat,18.0,1,6.349
5770,184.64,2.7809,1.9205,0.1797,0.0001,-0.0000,2.4465,flat,18.0,1,5.861
5780,184.96,2.3412,2.2772,0.1797,0.0001,-0.0000,2.4766,flat,18.0,1,5.397
5790,185.28,1.8908,2.6212,0.1797,0.0001,-0.0000,2.5065,flat,18.0,1,4.966
5800,185.60,1.4302,2.9518,0.1797,0.0001,-0.0000,2.5369,flat,18.0,1,4.576
5810,185.92,0.9659,3.2526,0.1797,0.0001,-0.0000,2.5730,flat,18.0,1,4.258
5820,186.24,0.4936,3.5438,0.1797,0.0001,0.0002,2.5532,flat,18.0,1,4.001
5830,186.56,0.1288,3.8469,0.1799,-0.0000,-0.0000,2.2939,flat,18.0,1,3.769
5840,186.88,-0.1690,4.2549,0.1799,0.0000,-0.0000,2.0384,flat,18.0,1,3.465
5850,187.20,-0.3773,4.7412,0.1799,-0.0000,-0.0000,1.7892,flat,18.0,1,3.101
5860,187.52,-0.4697,5.2709,0.1799,-0.0000,-0.0000,1.5579,flat,18.0,1,2.689
5870,187.84,-0.4419,5.8094,0.1799,-0.0001,-0.0000,1.3673,flat,18.0,1,2.242
5880,188.16,-0.3142,6.3324,0.1799,-0.0001,-0.0000,1.2093,flat,18.0,1,1.778
5890,188.48,-0.1045,6.8265,0.1799,-0.0001,-0.0000,1.0641,flat,18.0,1,1.315
5900,188.80,0.1776,7.2810,0.1799,-0.0001,-0.0000,0.9246,flat,18.0,1,0.872
5910,189.12,0.3790,7.5362,0.1793,-0.0004,-0.0027,0.4911,flat,18.0,2,14.949
5920,189.44,0.6291,7.6192,0.1787,-0.0065,0.0001,-0.0166,flat,18.0,2,15.157
5930,189.76,0.9846,7.5894,0.1799,-0.0001,0.0000,-0.5049,flat,18.0,2,15.336
5940,190.08,1.2897,7.3614,0.1799,0.0000,-0.0000,-0.8485,flat,18.0,2,15.331
5950,190.40,1.5518,6.9927,0.1799,0.0000,-0.0000,-1.1416,flat,18.0,2,15.199
5960,190.72,1.7303,6.5278,0.1799,-0.0001,-0.0000,-1.4071,flat,18.0,2,14.952
5970,191.04,1.7918,6.0067,0.1799,-0.0001,0.0000,-1.6317,flat,18.0,2,14.598
5980,191.36,1.7389,5.4690,0.1799,-0.0001,-0.0000,-1.8010,flat,18.0,2,14.164
5990,191.68,1.5981,4.9396,0.1799,-0.0003,-0.0000,-1.9195,flat,18.0,2,13.682
6000,192.00,1.3962,4.4247,0.1798,-0.0004,-0.0000,-2.0071,flat,18.0,2,13.173
6010,192.32,1.1499,3.9249,0.1797,-0.0003,-0.0000,-2.0751,flat,18.0,2,12.646
6020,192.64,0.8700,3.4395,0.1797,-0.0002,-0.0000,-2.1295,flat,18.0,2,12.108
6030,192.96,0.5637,2.9675,0.1797,-0.0002,-0.0000,-2.1733,flat,18.0,2,11.561
6040,193.28,0.2370,2.5076,0.1797,-0.0001,-0.0000,-2.2090,flat,18.0,2,11.009
6050,193.60,-0.1063,2.0578,0.1797,-0.0001,-0.0000,-2.2398,flat,18.0,2,10.453
6060,193.92,-0.4634,1.6173,0.1797,-0.0001,-0.0000,-2.2667,flat,18.0,2,9.893
6070,194.24,-0.8325,1.1854,0.1797,-0.0001,-0.0000,-2.2907,flat,18.0,2,9.331
6080,194.56,-1.2119,0.7612,0.1797,-0.0001,-0.0000,-2.3127,flat,18.0,2,8.767
6090,194.88,-1.6007,0.3446,0.1797,-0.0001,-0.0000,-2.3328,flat,18.0,2,8.202
6100,195.20,-1.9979,-0.0648,0.1797,-0.0001,-0.0000,-2.3508,flat,18.0,2,7.634
6110,195.52,-2.4025,-0.4676,0.1797,-0.0001,-0.0000,-2.3674,flat,18.0,2,7.066
6120,195.84,-2.8138,-0.8641,0.1797,-0.0001,-0.0000,-2.3828,flat,18.0,2,6.497
6130,196.16,-3.2312,-1.2544,0.1797,-0.0001,-0.0000,-2.3975,flat,18.0,2,5.928
6140,196.48,-3.6544,-1.6388,0.1797,-0.0000,-0.0000,-2.4114,flat,18.0,2,5.358
6150,196.80,-4.0827,-2.0175,0.1797,-0.0000,-0.0000,-2.4246,flat,18.0,2,4.787
6160,197.12,-4.5159,-2.3908,0.1797,-0.0000,-0.0000,-2.4373,flat,18.0,2,4.217
6170,197.44,-4.9538,-2.7585,0.1797,-0.0000,0.0000,-2.4500,flat,18.0,2,3.646
6180,197.76,-5.3963,-3.1204,0.1797,-0.0000,0.0000,-2.4632,flat,18.0,2,3.075
6190,198.08,-5.8434,-3.4763,0.1797,-0.0000,0.0000,-2.4773,flat,18.0,2,2.505
6200,198.40,-6.2953,-3.8252,0.1797,-0.0001,0.0000,-2.4937,flat,18.0,2,1.935
6210,198.72,-6.7523,-4.1651,0.1797,-0.0001,0.0000,-2.5148,flat,18.0,2,1.366
6220,199.04,-7.2145,-4.4913,0.1797,-0.0001,0.0000,-2.5503,flat,18.0,2,0.801
6230,199.36,-7.6723,-4.7657,0.1812,-0.0002,0.0096,-2.6764,flat,18.0,0,13.019
6240,199.68,-7.9577,-4.9113,0.1798,-0.0007,-0.0004,-2.2505,flat,18.0,0,13.308
6250,200.00,-8.1531,-5.2134,0.1799,-0.0001,-0.0000,-1.7743,flat,18.0,0,13.516
6260,200.32,-8.2108,-5.5967,0.1799,0.0001,-0.0001,-1.3295,flat,18.0,0,13.598
6270,200.64,-8.0764,-6.0025,0.1799,0.0001,-0.0000,-1.0116,flat,18.0,0,13.503
6280,200.96,-7.7848,-6.3812,0.1799,0.0001,-0.0000,-0.7783,flat,18.0,0,13.261
6290,201.28,-7.3885,-6.7136,0.1799,0.0001,-0.0000,-0.5870,flat,18.0,0,12.921
6300,201.60,-6.9219,-6.9875,0.1799,0.0001,-0.0000,-0.4174,flat,18.0,0,12.512
6310,201.92,-6.4092,-7.1920,0.1799,0.0002,-0.0000,-0.2769,flat,18.0,0,12.054
6320,202.24,-5.8687,-7.3302,0.1799,0.0004,-0.0000,-0.1630,flat,18.0,0,11.560
6330,202.56,-5.3129,-7.4102,0.1798,0.0004,-0.0000,-0.0703,flat,18.0,0,11.042
6340,202.88,-4.7495,-7.4408,0.1798,0.0003,-0.0000,0.0053,flat,18.0,0,10.508
6350,203.20,-4.1838,-7.4305,0.1797,0.0002,-0.0000,0.0638,flat,18.0,0,9.963
6360,203.52,-3.6188,-7.3888,0.1797,0.0002,-0.0000,0.1096,flat,18.0,0,9.411
6370,203.84,-3.0554,-7.3221,0.1797,0.0001,-0.0000,0.1458,flat,18.0,0,8.855
6380,204.16,-2.4937,-7.2355,0.1797,0.0001,-0.0000,0.1763,flat,18.0,0,8.295
6390,204.48,-1.9339,-7.1321,0.1797,0.0001,-0.0000,0.2024,flat,18.0,0,7.733
6400,204.80,-1.3762,-7.0144,0.1797,0.0001,-0.0000,0.2251,flat,18.0,0,7.169
6410,205.12,-0.8206,-6.8842,0.1797,0.0001,-0.0000,0.2451,flat,18.0,0,6.603
6420,205.44,-0.2673,-6.7430,0.1797,0.0001,-0.0000,0.2629,flat,18.0,0,6.036
6430,205.76,0.2840,-6.5921,0.1797,0.0001,-0.0000,0.2791,flat,18.0,0,5.468
6440,206.08,0.8330,-6.4324,0.1797,0.0001,-0.0000,0.2939,flat,18.0,0,4.900
6450,206.40,1.3799,-6.2646,0.1797,0.0000,-0.0000,0.3078,flat,18.0,0,4.332
6460,206.72,1.9245,-6.0892,0.1797,0.0000,-0.0000,0.3211,flat,18.0,0,3.763
6470,207.04,2.4668,-5.9067,0.1797,0.0000,-0.0000,0.3341,flat,18.0,0,3.194
6480,207.36,3.0066,-5.7170,0.1797,0.0000,0.0000,0.3475,flat,18.0,0,2.627
6490,207.68,3.5433,-5.5202,0.1797,0.0001,0.0000,0.3619,flat,18.0,0,2.060
6500,208.00,4.0762,-5.3156,0.1797,0.0001,0.0000,0.3793,flat,18.0,0,1.497
6510,208.32,4.6027,-5.1017,0.1797,0.0001,0.0000,0.4048,flat,18.0,0,0.943
6520,208.64,5.0382,-4.9043,0.1798,-0.0003,0.0001,0.6166,flat,18.0,1,13.049
6530,208.96,5.3378,-4.6268,0.1799,-0.0000,-0.0000,0.9284,flat,18.0,1,12.882
6540,209.28,5.5832,-4.2278,0.1799,0.0000,-0.0000,1.2192,flat,18.0,1,12.594
6550,209.60,5.7307,-3.7433,0.1799,0.0000,-0.0000,1.4819,flat,18.0,1,12.200
6560,209.92,5.7544,-3.2149,0.1799,0.0000,-0.0000,1.7001,flat,18.0,1,11.724
6570,210.24,5.6657,-2.6812,0.1799,0.0001,-0.0000,1.8572,flat,18.0,1,11.200
6580,210.56,5.4953,-2.1609,0.1799,0.0004,-0.0000,1.9707,flat,18.0,1,10.657
6590,210.88,5.2669,-1.6579,0.1798,0.0004,-0.0000,2.0572,flat,18.0,1,10.104
6600,211.20,4.9955,-1.1723,0.1797,0.0003,-0.0000,2.1262,flat,18.0,1,9.549
6610,211.52,4.6907,-0.7033,0.1797,0.0002,-0.0000,2.1831,flat,18.0,1,8.997
6620,211.84,4.3594,-0.2499,0.1797,0.0002,-0.0000,2.2310,flat,18.0,1,8.448
6630,212.16,4.0062,0.1886,0.1797,0.0001,-0.0000,2.2703,flat,18.0,1,7.907
6640,212.48,3.6359,0.6145,0.1797,0.0001,-0.0000,2.3061,flat,18.0,1,7.375
6650,212.80,3.2501,1.0283,0.1797,0.0001,-0.0000,2.3396,flat,18.0,1,6.855
6660,213.12,2.8505,1.4300,0.1797,0.0001,-0.0000,2.3702,flat,18.0,1,6.350
6670,213.44,2.4385,1.8196,0.1797,0.0001,-0.0000,2.3997,flat,18.0,1,5.865
6680,213.76,2.0154,2.1971,0.1797,0.0001,-0.0000,2.4281,flat,18.0,1,5.405
6690,214.08,1.5821,2.5627,0.1797,0.0001,-0.0000,2.4557,flat,18.0,1,4.979
6700,214.40,1.1390,2.9162,0.1797,0.0001,-0.0000,2.4843,flat,18.0,1,4.595
6710,214.72,0.6860,3.2565,0.1797,0.0001,0.0000,2.5153,flat,18.0,1,4.266
6720,215.04,0.2715,3.5663,0.1799,0.0003,0.0000,2.3804,flat,18.0,1,4.014
6730,215.36,-0.0495,3.9402,0.1799,-0.0000,-0.0000,2.1324,flat,18.0,1,3.726
6740,215.68,-0.2964,4.4029,0.1799,-0.0000,-0.0000,1.8861,flat,18.0,1,3.374
6750,216.00,-0.4374,4.9213,0.1799,-0.0001,-0.0000,1.6561,flat,18.0,1,2.970
6760,216.32,-0.4614,5.4619,0.1799,-0.0001,-0.0000,1.4536,flat,18.0,1,2.527
6770,216.64,-0.3797,5.9966,0.1799,-0.0001,0.0000,1.2910,flat,18.0,1,2.060
6780,216.96,-0.2124,6.5101,0.1799,-0.0001,-0.0000,1.1488,flat,18.0,1,1.586
6790,217.28,0.0275,6.9910,0.1799,-0.0002,-0.0000,1.0116,flat,18.0,1,1.119
6800,217.60,0.3161,7.4134,0.1797,-0.0001,-0.0005,0.8902,flat,18.0,2,14.812
6810,217.92,0.4803,7.5520,0.1801,0.0005,-0.0008,0.2449,flat,18.0,2,15.018
6820,218.24,0.7914,7.6218,0.1797,-0.0006,-0.0001,-0.2242,flat,18.0,2,15.251
6830,218.56,1.1331,7.5101,0.1799,-0.0000,0.0000,-0.6518,flat,18.0,2,15.358
6840,218.88,1.4216,7.2203,0.1799,0.0000,-0.0001,-0.9644,flat,18.0,2,15.298
6850,219.20,1.6572,6.8103,0.1799,-0.0000,-0.0000,-1.2490,flat,18.0,2,15.123
6860,219.52,1.7922,6.3189,0.1799,-0.0001,-0.0000,-1.5007,flat,18.0,2,14.833
6870,219.84,1.8066,5.7869,0.1799,-0.0001,-0.0000,-1.7048,flat,18.0,2,14.444
6880,220.16,1.7155,5.2510,0.1799,-0.0002,-0.0000,-1.8529,flat,18.0,2,13.989
6890,220.48,1.5478,4.7272,0.1798,-0.0004,-0.0000,-1.9575,flat,18.0,2,13.495
6900,220.80,1.3265,4.2186,0.1798,-0.0004,-0.0000,-2.0367,flat,18.0,2,12.978
6910,221.12,1.0655,3.7249,0.1797,-0.0002,-0.0000,-2.0989,flat,18.0,2,12.446
6920,221.44,0.7740,3.2451,0.1797,-0.0002,-0.0000,-2.1493,flat,18.0,2,11.904
6930,221.76,0.4584,2.7786,0.1797,-0.0001,-0.0000,-2.1893,flat,18.0,2,11.356
6940,222.08,0.1242,2.3232,0.1797,-0.0001,-0.0000,-2.2230,flat,18.0,2,10.802
6950,222.40,-0.2254,1.8777,0.1797,-0.0001,-0.0000,-2.2522,flat,18.0,2,10.244
6960,222.72,-0.5880,1.4412,0.1797,-0.0001,-0.0000,-2.2779,flat,18.0,2,9.684
6970,223.04,-0.9619,1.0129,0.1797,-0.0001,-0.0000,-2.3011,flat,18.0,2,9.121
6980,223.36,-1.3457,0.5923,0.1797,-0.0001,-0.0000,-2.3224,flat,18.0,2,8.556
6990,223.68,-1.7386,0.1792,0.1797,-0.0001,-0.0000,-2.3416,flat,18.0,2,7.990
7000,224.00,-2.1395,-0.2269,0.1797,-0.0001,-0.0000,-2.3591,flat,18.0,2,7.422
7010,224.32,-2.5474,-0.6265,0.1797,-0.0001,-0.0000,-2.3752,flat,18.0,2,6.854
7020,224.64,-2.9618,-1.0198,0.1797,-0.0001,-0.0000,-2.3904,flat,18.0,2,6.285
7030,224.96,-3.3822,-1.4070,0.1797,-0.0001,-0.0000,-2.4047,flat,18.0,2,5.715
7040,225.28,-3.8081,-1.7885,0.1797,-0.0000,-0.0000,-2.4183,flat,18.0,2,5.145
7050,225.60,-4.2390,-2.1644,0.1797,-0.0000,-0.0000,-2.4313,flat,18.0,2,4.574
7060,225.92,-4.6746,-2.5347,0.1797,-0.0000,-0.0000,-2.4440,flat,18.0,2,4.004
7070,226.24,-5.1149,-2.8995,0.1797,-0.0000,0.0000,-2.4568,flat,18.0,2,3.433
7080,226.56,-5.5598,-3.2584,0.1797,-0.0000,0.0000,-2.4702,flat,18.0,2,2.862
7090,226.88,-6.0094,-3.6109,0.1797,-0.0001,0.0000,-2.4851,flat,18.0,2,2.292
7100,227.20,-6.4639,-3.9559,0.1797,-0.0001,0.0000,-2.5027,flat,18.0,2,1.722
7110,227.52,-6.9235,-4.2907,0.1797,-0.0001,0.0000,-2.5273,flat,18.0,2,1.154
7120,227.84,-7.3857,-4.6012,0.1798,-0.0001,-0.0000,-2.5950,flat,18.0,3,1.073
7130,228.16,-7.8014,-4.8250,0.1799,-0.0002,0.0010,-2.6411,flat,18.0,0,13.150
7140,228.48,-8.0609,-5.0555,0.1799,-0.0005,-0.0003,-2.1086,flat,18.0,0,13.416
7150,228.80,-8.2342,-5.4131,0.1799,-0.0001,-0.0000,-1.6104,flat,18.0,0,13.608
7160,229.12,-8.2274,-5.8059,0.1799,-0.0002,-0.0001,-1.2063,flat,18.0,0,13.633
7170,229.44,-8.0346,-6.2061,0.1799,-0.0001,-0.0001,-0.9222,flat,18.0,0,13.485
7180,229.76,-7.7018,-6.5689,0.1799,0.0000,-0.0000,-0.7101,flat,18.0,0,13.206
7190,230.08,-7.2791,-6.8830,0.1799,0.0000,-0.0000,-0.5241,flat,18.0,0,12.843
7200,230.40,-6.7941,-7.1325,0.1799,0.0001,-0.0000,-0.3637,flat,18.0,0,12.417
7210,230.72,-6.2821,-7.2906,0.1799,0.0001,-0.0000,-0.1532,flat,18.0,0,11.952
7220,231.04,-5.7388,-7.3540,0.1799,0.0001,-0.0000,0.0273,flat,18.0,0,11.440
7230,231.36,-5.1892,-7.3229,0.1799,0.0002,-0.0000,0.1656,flat,18.0,0,10.900
7240,231.68,-4.6465,-7.2187,0.1798,0.0004,-0.0000,0.2724,flat,18.0,0,10.349
7250,232.00,-4.1160,-7.0578,0.1798,0.0004,-0.0000,0.3609,flat,18.0,0,9.795
7260,232.32,-3.6004,-6.8505,0.1798,0.0003,-0.0000,0.4382,flat,18.0,0,9.244
7270,232.64,-3.1019,-6.6037,0.1797,0.0003,-0.0000,0.5092,flat,18.0,0,8.700
7280,232.96,-2.6220,-6.3214,0.1797,0.0002,-0.0000,0.5758,flat,18.0,0,8.168
7290,233.28,-2.1525,-6.0286,0.1798,-0.0001,-0.0000,0.5204,flat,18.0,0,7.647
7300,233.60,-1.6585,-5.7603,0.1798,-0.0003,-0.0000,0.4482,flat,18.0,0,7.112
7310,233.92,-1.1453,-5.5252,0.1797,-0.0002,-0.0000,0.3843,flat,18.0,0,6.567
7320,234.24,-0.6172,-5.3211,0.1797,-0.0002,-0.0000,0.3276,flat,18.0,0,6.015
7330,234.56,-0.0775,-5.1461,0.1797,-0.0002,-0.0000,0.2768,flat,18.0,0,5.458
7340,234.88,0.4709,-4.9973,0.1797,-0.0002,0.0000,0.2317,flat,18.0,0,4.897
7350,235.20,1.0246,-4.8721,0.1797,-0.0001,-0.0000,0.1923,flat,18.0,0,4.334
7360,235.52,1.5833,-4.7683,0.1797,-0.0001,-0.0000,0.1551,flat,18.0,0,3.770
7370,235.84,2.1458,-4.6848,0.1797,-0.0001,-0.0000,0.1192,flat,18.0,0,3.203
7380,236.16,2.7108,-4.6214,0.1797,-0.0001,-0.0000,0.0833,flat,18.0,0,2.636
7390,236.48,3.2775,-4.5782,0.1797,-0.0001,0.0000,0.0456,flat,18.0,0,2.068
7400,236.80,3.8443,-4.5567,0.1797,-0.0001,0.0000,0.0023,flat,18.0,0,1.501
7410,237.12,4.4087,-4.5605,0.1797,-0.0002,0.0000,-0.0564,flat,18.0,0,0.937
7420,237.44,4.9434,-4.5763,0.1798,-0.0005,0.0001,0.0925,flat,18.0,1,12.707
7430,237.76,5.3774,-4.5173,0.1798,-0.0002,0.0001,0.4567,flat,18.0,1,12.793
7440,238.08,5.6872,-4.3106,0.1799,-0.0001,-0.0001,0.8208,flat,18.0,1,12.709
7450,238.40,5.9487,-3.9572,0.1799,-0.0000,-0.0000,1.1300,flat,18.0,1,12.482
7460,238.72,6.1276,-3.5023,0.1799,0.0000,-0.0000,1.4157,flat,18.0,1,12.139
7470,239.04,6.1823,-2.9885,0.1799,0.0002,0.0000,1.6607,flat,18.0,1,11.699
7480,239.36,6.1127,-2.4585,0.1799,0.0001,-0.0000,1.8446,flat,18.0,1,11.194
7490,239.68,5.9477,-1.9409,0.1799,0.0003,-0.0000,1.9753,flat,18.0,1,10.659
7500,240.00,5.7166,-1.4426,0.1798,0.0004,-0.0000,2.0726,flat,18.0,1,10.110
7510,240.32,5.4373,-0.9640,0.1798,0.0003,-0.0000,2.1485,flat,18.0,1,9.557
7520,240.64,5.1219,-0.5036,0.1797,0.0002,-0.0000,2.2090,flat,18.0,1,9.003
7530,240.96,4.7787,-0.0607,0.1797,0.0002,-0.0000,2.2611,flat,18.0,1,8.453
7540,241.28,4.4123,0.3655,0.1797,0.0002,-0.0000,2.3062,flat,18.0,1,7.909
7550,241.60,4.0266,0.7767,0.1797,0.0001,-0.0000,2.3461,flat,18.0,1,7.374
7560,241.92,3.6245,1.1736,0.1797,0.0001,-0.0000,2.3821,flat,18.0,1,6.851
7570,242.24,3.2081,1.5563,0.1797,0.0001,-0.0000,2.4160,flat,18.0,1,6.343
7580,242.56,2.7793,1.9256,0.1797,0.0001,-0.0000,2.4473,flat,18.0,1,5.855
7590,242.88,2.3393,2.2820,0.1797,0.0001,-0.0000,2.4774,flat,18.0,1,5.392
7600,243.20,1.8886,2.6256,0.1797,0.0001,-0.0000,2.5073,flat,18.0,1,4.961
7610,243.52,1.4331,2.9356,0.1798,0.0001,-0.0001,2.5511,flat,18.0,1,4.593
7620,243.84,0.9578,3.2468,0.1797,0.0001,-0.0000,2.5792,flat,18.0,1,4.263
7630,244.16,0.4834,3.5356,0.1797,0.0001,0.0002,2.5578,flat,18.0,1,4.010
7640,244.48,0.1179,3.8364,0.1799,0.0000,-0.0000,2.2977,flat,18.0,1,3.782
7650,244.80,-0.1806,4.2427,0.1799,0.0000,-0.0000,2.0416,flat,18.0,1,3.480
7660,245.12,-0.3900,4.7279,0.1799,-0.0000,-0.0000,1.7915,flat,18.0,1,3.118
7670,245.44,-0.4835,5.2573,0.1799,-0.0000,-0.0000,1.5592,flat,18.0,1,2.708
7680,245.76,-0.4563,5.7957,0.1799,-0.0001,-0.0000,1.3680,flat,18.0,1,2.261
7690,246.08,-0.3289,6.3188,0.1799,-0.0001,-0.0000,1.2098,flat,18.0,1,1.799
7700,246.40,-0.1195,6.8131,0.1799,-0.0001,-0.0000,1.0650,flat,18.0,1,1.335
7710,246.72,0.1621,7.2682,0.1799,-0.0001,-0.0000,0.9262,flat,18.0,1,0.890
7720,247.04,0.3889,7.5545,0.1791,-0.0003,-0.0043,0.5821,flat,18.0,2,14.969
7730,247.36,0.6207,7.6353,0.1784,-0.0084,0.0001,0.0252,flat,18.0,2,15.166
7740,247.68,0.9738,7.6237,0.1799,0.0003,0.0000,-0.4734,flat,18.0,2,15.357
7750,248.00,1.2832,7.4108,0.1799,0.0001,-0.0001,-0.8221,flat,18.0,2,15.367
7760,248.32,1.5500,7.0522,0.1799,0.0000,-0.0000,-1.1166,flat,18.0,2,15.244
7770,248.64,1.7379,6.5944,0.1799,-0.0000,-0.0000,-1.3854,flat,18.0,2,15.008
7780,248.96,1.8106,6.0765,0.1799,-0.0000,-0.0001,-1.6167,flat,18.0,2,14.662
7790,249.28,1.7665,5.5391,0.1799,-0.0001,-0.0000,-1.7883,flat,18.0,2,14.234
7800,249.60,1.6322,5.0085,0.1799,-0.0003,-0.0000,-1.9104,flat,18.0,2,13.756
7810,249.92,1.4350,4.4922,0.1798,-0.0004,-0.0000,-2.0001,flat,18.0,2,13.248
7820,250.24,1.1922,3.9911,0.1798,-0.0003,-0.0000,-2.0695,flat,18.0,2,12.723
7830,250.56,0.9150,3.5044,0.1797,-0.0002,-0.0000,-2.1250,flat,18.0,2,12.185
7840,250.88,0.6108,3.0312,0.1797,-0.0002,-0.0000,-2.1697,flat,18.0,2,11.639
7850,251.20,0.2858,2.5702,0.1797,-0.0001,-0.0000,-2.2059,flat,18.0,2,11.087
7860,251.52,-0.0560,2.1195,0.1797,-0.0001,-0.0000,-2.2370,flat,18.0,2,10.531
7870,251.84,-0.4120,1.6781,0.1797,-0.0001,-0.0000,-2.2642,flat,18.0,2,9.972
7880,252.16,-0.7799,1.2453,0.1797,-0.0001,-0.0000,-2.2884,flat,18.0,2,9.410
7890,252.48,-1.1583,0.8204,0.1797,-0.0001,-0.0000,-2.3105,flat,18.0,2,8.847
7900,252.80,-1.5462,0.4030,0.1797,-0.0001,-0.0000,-2.3307,flat,18.0,2,8.281
7910,253.12,-1.9425,-0.0072,0.1797,-0.0001,-0.0000,-2.3489,flat,18.0,2,7.714
7920,253.44,-2.3464,-0.4108,0.1797,-0.0001,-0.0000,-2.3655,flat,18.0,2,7.146
7930,253.76,-2.7569,-0.8079,0.1797,-0.0001,-0.0000,-2.3810,flat,18.0,2,6.577
7940,254.08,-3.1736,-1.1990,0.1797,-0.0001,-0.0000,-2.3957,flat,18.0,2,6.007
7950,254.40,-3.5961,-1.5842,0.1797,-0.0000,-0.0000,-2.4096,flat,18.0,2,5.437
7960,254.72,-4.0238,-1.9637,0.1797,-0.0000,-0.0000,-2.4228,flat,18.0,2,4.867
7970,255.04,-4.4563,-2.3377,0.1797,-0.0000,-0.0000,-2.4355,flat,18.0,2,4.296
7980,255.36,-4.8936,-2.7062,0.1797,-0.0000,-0.0000,-2.4482,flat,18.0,2,3.726
7990,255.68,-5.3354,-3.0691,0.1797,-0.0000,0.0000,-2.4611,flat,18.0,2,3.155
8000,256.00,-5.7818,-3.4259,0.1797,-0.0000,0.0000,-2.4750,flat,18.0,2,2.584
8010,256.32,-6.2329,-3.7760,0.1797,-0.0001,0.0000,-2.4909,flat,18.0,2,2.014
