step,time_s,x,y,z,roll,pitch,yaw,terrain,speed,target_idx,dist_to_target
10,0.32,1.0685,-0.7750,0.1846,-0.0000,-0.0324,-0.0000,rough,14.0,0,5.685
20,0.64,1.4930,-0.7889,0.1794,-0.0001,0.0028,-0.1212,flat,18.0,0,5.363
30,0.96,2.0174,-0.8773,0.1799,-0.0001,0.0000,-0.3103,flat,18.0,0,4.934
40,1.28,2.5238,-1.0616,0.1799,-0.0002,-0.0000,-0.4525,flat,18.0,0,4.463
50,1.60,3.0040,-1.3172,0.1798,-0.0004,-0.0000,-0.5652,flat,18.0,0,3.967
60,1.92,3.4590,-1.6275,0.1798,-0.0003,-0.0000,-0.6505,flat,18.0,0,3.453
70,2.24,3.8879,-1.9755,0.1798,-0.0003,-0.0000,-0.7284,flat,18.0,0,2.932
80,2.56,4.2855,-2.3567,0.1798,-0.0004,-0.0000,-0.8105,flat,18.0,0,2.409
90,2.88,4.6506,-2.7701,0.1798,-0.0004,-0.0000,-0.8998,flat,18.0,0,1.883
100,3.20,4.9775,-3.2148,0.1798,-0.0004,-0.0000,-1.0036,flat,18.0,0,1.356
110,3.52,5.2547,-3.6891,0.1799,-0.0002,0.0000,-1.1385,flat,18.0,0,0.836
120,3.84,5.3447,-4.0248,0.1796,0.0001,-0.0025,-1.5367,flat,18.0,1,12.319
130,4.16,5.3064,-4.3747,0.1799,0.0002,-0.0001,-2.0869,flat,18.0,1,12.634
140,4.48,5.0765,-4.6624,0.1799,0.0001,-0.0000,-2.4892,flat,18.0,1,12.831
150,4.80,4.7216,-4.8796,0.1799,0.0000,-0.0001,-2.8499,flat,18.0,1,12.931
160,5.12,4.2671,-4.9870,0.1799,-0.0001,-0.0000,3.1023,flat,18.0,1,12.912
170,5.44,3.7700,-4.9412,0.1799,-0.0001,-0.0000,2.8488,flat,18.0,1,12.751
180,5.76,3.2784,-4.7646,0.1799,-0.0001,-0.0000,2.6600,flat,18.0,1,12.481
190,6.08,2.8155,-4.4936,0.1799,-0.0002,-0.0000,2.5239,flat,18.0,1,12.137
200,6.40,2.3820,-4.1592,0.1798,-0.0004,-0.0000,2.4296,flat,18.0,1,11.748
210,6.72,1.9817,-3.7834,0.1798,-0.0003,-0.0000,2.3414,flat,18.0,1,11.334
220,7.04,1.6084,-3.3728,0.1798,-0.0003,-0.0000,2.2673,flat,18.0,1,10.899
230,7.36,1.2612,-2.9341,0.1797,-0.0002,-0.0000,2.2007,flat,18.0,1,10.447
240,7.68,0.9401,-2.4722,0.1797,-0.0002,-0.0000,2.1412,flat,18.0,1,9.982
250,8.00,0.6452,-1.9912,0.1797,-0.0002,-0.0000,2.0879,flat,18.0,1,9.508
260,8.32,0.3740,-1.4951,0.1797,-0.0002,-0.0000,2.0417,flat,18.0,1,9.028
270,8.64,0.1242,-0.9872,0.1797,-0.0001,-0.0000,2.0007,flat,18.0,1,8.544
280,8.96,-0.1060,-0.4689,0.1797,-0.0001,-0.0000,1.9630,flat,18.0,1,8.058
290,9.28,-0.3176,0.0583,0.1797,-0.0001,-0.0000,1.9280,flat,18.0,1,7.570
300,9.60,-0.5114,0.5928,0.1797,-0.0001,-0.0000,1.8950,flat,18.0,1,7.084
310,9.92,-0.6881,1.1338,0.1797,-0.0001,-0.0000,1.8634,flat,18.0,1,6.601
320,10.24,-0.8480,1.6802,0.1797,-0.0001,-0.0000,1.8324,flat,18.0,1,6.121
330,10.56,-0.9910,2.2313,0.1797,-0.0001,-0.0000,1.8009,flat,18.0,1,5.648
340,10.88,-1.1165,2.7862,0.1797,-0.0001,0.0000,1.7673,flat,18.0,1,5.184
350,11.20,-1.1840,3.3260,0.1799,-0.0002,-0.0000,1.5851,flat,18.0,1,4.728
360,11.52,-1.1746,3.8763,0.1799,-0.0001,-0.0000,1.4372,flat,18.0,1,4.244
370,11.84,-1.0875,4.4216,0.1799,-0.0004,-0.0000,1.3244,flat,18.0,1,3.738
380,12.16,-0.9404,4.9555,0.1798,-0.0004,-0.0000,1.2315,flat,18.0,1,3.219
390,12.48,-0.7443,5.4747,0.1798,-0.0004,-0.0000,1.1503,flat,18.0,1,2.693
400,12.80,-0.5064,5.9766,0.1798,-0.0003,-0.0000,1.0755,flat,18.0,1,2.163
410,13.12,-0.2308,6.4595,0.1797,-0.0003,-0.0000,1.0058,flat,18.0,1,1.632
420,13.44,0.0777,6.9223,0.1797,-0.0002,0.0000,0.9388,flat,18.0,1,1.109
430,13.76,0.3817,7.3206,0.1755,0.0000,-0.0275,0.8537,flat,18.0,2,14.771
440,14.08,0.5521,7.4368,0.1736,-0.0350,0.0008,0.1937,flat,18.0,2,14.963
450,14.40,0.8754,7.4876,0.1799,0.0003,-0.0000,-0.2859,flat,18.0,2,15.189
460,14.72,1.2086,7.3519,0.1799,0.0001,-0.0000,-0.6968,flat,18.0,2,15.275
470,15.04,1.4915,7.0448,0.1799,0.0000,-0.0001,-1.0027,flat,18.0,2,15.202
480,15.36,1.7158,6.6229,0.1799,-0.0000,-0.0000,-1.2855,flat,18.0,2,15.015
490,15.68,1.8349,6.1246,0.1799,0.0000,-0.0000,-1.5359,flat,18.0,2,14.715
500,16.00,1.8322,5.5910,0.1799,-0.0001,-0.0000,-1.7326,flat,18.0,2,14.317
510,16.32,1.7268,5.0570,0.1799,-0.0002,-0.0000,-1.8734,flat,18.0,2,13.856
520,16.64,1.5484,4.5364,0.1798,-0.0004,-0.0000,-1.9746,flat,18.0,2,13.360
530,16.96,1.3184,4.0312,0.1798,-0.0003,-0.0000,-2.0516,flat,18.0,2,12.841
540,17.28,1.0500,3.5412,0.1797,-0.0002,-0.0000,-2.1124,flat,18.0,2,12.308
550,17.60,0.7519,3.0652,0.1797,-0.0002,-0.0000,-2.1618,flat,18.0,2,11.766
560,17.92,0.4305,2.6026,0.1797,-0.0001,-0.0000,-2.2009,flat,18.0,2,11.216
570,18.24,0.0910,2.1511,0.1797,-0.0001,-0.0000,-2.2342,flat,18.0,2,10.662
580,18.56,-0.2637,1.7094,0.1797,-0.0001,-0.0000,-2.2631,flat,18.0,2,10.104
590,18.88,-0.6311,1.2768,0.1797,-0.0001,-0.0000,-2.2886,flat,18.0,2,9.544
600,19.20,-1.0096,0.8524,0.1797,-0.0001,-0.0000,-2.3120,flat,18.0,2,8.981
610,19.52,-1.3981,0.4361,0.1797,-0.0001,-0.0000,-2.3333,flat,18.0,2,8.416
620,19.84,-1.7955,0.0272,0.1797,-0.0001,-0.0000,-2.3524,flat,18.0,2,7.849
630,20.16,-2.2007,-0.3746,0.1797,-0.0001,-0.0000,-2.3698,flat,18.0,2,7.282
640,20.48,-2.6129,-0.7697,0.1797,-0.0001,-0.0000,-2.3861,flat,18.0,2,6.713
650,20.80,-3.0316,-1.1583,0.1797,-0.0001,-0.0000,-2.4014,flat,18.0,2,6.144
660,21.12,-3.4562,-1.5408,0.1797,-0.0001,-0.0000,-2.4158,flat,18.0,2,5.575
670,21.44,-3.8862,-1.9175,0.1797,-0.0000,-0.0000,-2.4294,flat,18.0,2,5.005
680,21.76,-4.3211,-2.2885,0.1797,-0.0000,-0.0000,-2.4425,flat,18.0,2,4.434
690,22.08,-4.7609,-2.6538,0.1797,-0.0000,-0.0000,-2.4555,flat,18.0,2,3.864
700,22.40,-5.2053,-3.0133,0.1797,-0.0000,0.0000,-2.4687,flat,18.0,2,3.293
710,22.72,-5.6545,-3.3668,0.1797,-0.0000,0.0000,-2.4828,flat,18.0,2,2.722
720,23.04,-6.1084,-3.7134,0.1797,-0.0001,0.0000,-2.4985,flat,18.0,2,2.152
730,23.36,-6.5673,-4.0518,0.1797,-0.0001,0.0000,-2.5177,flat,18.0,2,1.583
740,23.68,-7.0315,-4.3787,0.1797,-0.0001,0.0000,-2.5460,flat,18.0,2,1.016
750,24.00,-7.4989,-4.6722,0.1798,-0.0001,0.0000,-2.6358,flat,18.0,3,0.946
760,24.32,-7.8580,-4.8454,0.1789,-0.0002,-0.0063,-2.4693,flat,18.0,0,13.207
770,24.64,-8.0980,-5.0710,0.1800,0.0007,0.0001,-1.9894,transition,15.0,0,13.454
780,24.96,-8.2230,-5.3859,0.1799,-0.0002,-0.0001,-1.5503,flat,18.0,0,13.595
790,25.28,-8.1908,-5.7825,0.1799,-0.0000,-0.0001,-1.1651,flat,18.0,0,13.594
800,25.60,-7.9762,-6.1801,0.1799,-0.0000,-0.0000,-0.8920,flat,18.0,0,13.424
810,25.92,-7.6324,-6.5195,0.1799,0.0001,-0.0000,-0.6474,flat,18.0,0,13.130
820,26.24,-7.1938,-6.8029,0.1799,0.0001,-0.0000,-0.4317,flat,18.0,0,12.745
830,26.56,-6.6911,-7.0043,0.1799,0.0001,0.0000,-0.2382,flat,18.0,0,12.289
840,26.88,-6.1527,-7.1149,0.1799,0.0001,-0.0000,-0.0738,flat,18.0,0,11.786
850,27.20,-5.5988,-7.1401,0.1799,0.0002,-0.0000,0.0619,flat,18.0,0,11.253
860,27.52,-5.0444,-7.0935,0.1798,0.0004,-0.0000,0.1655,flat,18.0,0,10.703
870,27.84,-4.4958,-6.9913,0.1798,0.0004,-0.0000,0.2489,flat,18.0,0,10.146
880,28.16,-3.9561,-6.8443,0.1798,0.0003,-0.0000,0.3195,flat,18.0,0,9.587
890,28.48,-3.4272,-6.6597,0.1797,0.0002,-0.0000,0.3819,flat,18.0,0,9.029
900,28.80,-2.9103,-6.4425,0.1797,0.0002,-0.0000,0.4396,flat,18.0,0,8.476
910,29.12,-2.4072,-6.1955,0.1797,0.0002,-0.0000,0.4959,flat,18.0,0,7.931
920,29.44,-1.9177,-5.9324,0.1798,0.0000,-0.0000,0.4745,flat,18.0,0,7.398
930,29.76,-1.4110,-5.6846,0.1797,-0.0002,-0.0000,0.4100,flat,18.0,0,6.855
940,30.08,-0.8884,-5.4676,0.1797,-0.0002,-0.0000,0.3526,flat,18.0,0,6.305
950,30.40,-0.3533,-5.2794,0.1797,-0.0002,-0.0000,0.3015,flat,18.0,0,5.748
960,30.72,0.1911,-5.1174,0.1797,-0.0002,0.0000,0.2563,flat,18.0,0,5.188
970,31.04,0.7416,-4.9789,0.1797,-0.0001,-0.0000,0.2169,flat,18.0,0,4.626
980,31.36,1.2976,-4.8614,0.1797,-0.0001,-0.0000,0.1801,flat,18.0,0,4.061
990,31.68,1.8579,-4.7640,0.1797,-0.0001,-0.0000,0.1449,flat,18.0,0,3.495
1000,32.00,2.4214,-4.6860,0.1797,-0.0001,-0.0000,0.1104,flat,18.0,0,2.928
1010,32.32,2.9871,-4.6273,0.1797,-0.0001,-0.0000,0.0751,flat,18.0,0,2.360
1020,32.64,3.5539,-4.5888,0.1797,-0.0001,0.0000,0.0365,flat,18.0,0,1.792
1030,32.96,4.1201,-4.5727,0.1797,-0.0002,0.0000,-0.0108,flat,18.0,0,1.226
1040,33.28,4.6784,-4.5819,0.1797,-0.0002,0.0001,-0.0344,flat,18.0,1,12.633
1050,33.60,5.1818,-4.5721,0.1798,-0.0003,0.0001,0.2491,flat,18.0,1,12.779
1060,33.92,5.5382,-4.4617,0.1798,-0.0002,-0.0000,0.5835,flat,18.0,1,12.796
1070,34.24,5.8284,-4.2046,0.1799,-0.0000,-0.0001,0.9192,flat,18.0,1,12.663
1080,34.56,6.0701,-3.8162,0.1799,-0.0000,-0.0000,1.2237,flat,18.0,1,12.401
1090,34.88,6.2126,-3.3382,0.1799,0.0000,-0.0000,1.5007,flat,18.0,1,12.027
1100,35.20,6.2255,-2.8147,0.1799,0.0001,-0.0000,1.7273,flat,18.0,1,11.563
1110,35.52,6.1217,-2.2874,0.1799,0.0001,-0.0000,1.8920,flat,18.0,1,11.046
1120,35.84,5.9325,-1.7762,0.1799,0.0003,-0.0000,2.0108,flat,18.0,1,10.506
1130,36.16,5.6836,-1.2848,0.1798,0.0004,-0.0000,2.1010,flat,18.0,1,9.955
1140,36.48,5.3906,-0.8129,0.1798,0.0003,-0.0000,2.1711,flat,18.0,1,9.401
1150,36.80,5.0648,-0.3587,0.1797,0.0002,-0.0000,2.2282,flat,18.0,1,8.848
1160,37.12,4.7129,0.0781,0.1797,0.0002,-0.0000,2.2782,flat,18.0,1,8.299
1170,37.44,4.3392,0.4985,0.1797,0.0002,-0.0000,2.3218,flat,18.0,1,7.758
1180,37.76,3.9470,0.9040,0.1797,0.0001,-0.0000,2.3605,flat,18.0,1,7.226
1190,38.08,3.5391,1.2952,0.1797,0.0001,-0.0000,2.3960,flat,18.0,1,6.706
1200,38.40,3.1175,1.6723,0.1797,0.0001,-0.0000,2.4293,flat,18.0,1,6.203
1210,38.72,2.6841,2.0235,0.1797,0.0002,-0.0000,2.4857,flat,18.0,1,5.733
1220,39.04,2.2321,2.3575,0.1797,0.0002,-0.0000,2.5320,flat,18.0,1,5.293
1230,39.36,1.7647,2.6713,0.1797,0.0002,-0.0000,2.5781,flat,18.0,1,4.896
1240,39.68,1.2833,2.9639,0.1797,0.0002,-0.0000,2.6254,flat,18.0,1,4.554
1250,40.00,0.7882,3.2337,0.1797,0.0002,-0.0000,2.6777,flat,18.0,1,4.282
1260,40.32,0.3424,3.4729,0.1799,0.0003,-0.0000,2.4990,flat,18.0,1,4.093
1270,40.64,-0.0175,3.8070,0.1799,0.0000,-0.0000,2.2565,flat,18.0,1,3.845
1280,40.96,-0.3144,4.2367,0.1799,-0.0000,-0.0000,2.0272,flat,18.0,1,3.534
1290,41.28,-0.5239,4.7311,0.1799,-0.0000,-0.0000,1.8107,flat,18.0,1,3.178
1300,41.60,-0.6312,5.2632,0.1799,-0.0001,-0.0000,1.6081,flat,18.0,1,2.787
1310,41.92,-0.6318,5.8074,0.1799,-0.0001,-0.0000,1.4278,flat,18.0,1,2.371
1320,42.24,-0.5398,6.3386,0.1799,0.0001,0.0002,1.2601,flat,18.0,1,1.950
1330,42.56,-0.3558,6.8328,0.1799,-0.0001,0.0000,1.0801,flat,18.0,1,1.532
1340,42.88,-0.0822,7.2806,0.1799,-0.0001,-0.0000,0.9083,flat,18.0,1,1.125
1350,43.20,0.2600,7.6609,0.1814,-0.0002,0.0110,0.7304,flat,18.0,2,14.988
1360,43.52,0.4841,7.7969,0.1799,-0.0029,0.0038,0.2380,flat,18.0,2,15.224
1370,43.84,0.8118,7.8570,0.1794,0.0005,-0.0026,-0.2152,flat,18.0,2,15.457
1380,44.16,1.1571,7.7487,0.1799,-0.0001,-0.0000,-0.6447,flat,18.0,2,15.565
1390,44.48,1.4474,7.4613,0.1799,0.0000,-0.0001,-0.9569,flat,18.0,2,15.506
1400,44.80,1.6856,7.0529,0.1799,-0.0000,-0.0000,-1.2402,flat,18.0,2,15.329
1410,45.12,1.8114,6.5751,0.1799,-0.0001,0.0000,-1.5087,flat,18.0,2,15.040
1420,45.44,1.8195,6.0525,0.1799,-0.0001,0.0000,-1.7324,flat,18.0,2,14.650
1430,45.76,1.7123,5.5260,0.1799,-0.0001,-0.0000,-1.8974,flat,18.0,2,14.188
1440,46.08,1.5205,5.0152,0.1799,-0.0003,-0.0000,-2.0138,flat,18.0,2,13.683
1450,46.40,1.2700,4.5239,0.1798,-0.0004,-0.0000,-2.1013,flat,18.0,2,13.155
1460,46.72,0.9770,4.0514,0.1797,-0.0003,-0.0000,-2.1700,flat,18.0,2,12.613
1470,47.04,0.6515,3.5965,0.1797,-0.0002,-0.0000,-2.2257,flat,18.0,2,12.061
1480,47.36,0.3006,3.1576,0.1797,-0.0002,-0.0000,-2.2713,flat,18.0,2,11.503
1490,47.68,-0.0702,2.7331,0.1797,-0.0001,-0.0000,-2.3096,flat,18.0,2,10.941
1500,48.00,-0.4574,2.3209,0.1797,-0.0001,-0.0000,-2.3438,flat,18.0,2,10.376
1510,48.32,-0.8588,1.9208,0.1797,-0.0001,-0.0000,-2.3739,flat,18.0,2,9.809
1520,48.64,-1.2723,1.5319,0.1797,-0.0001,-0.0000,-2.4014,flat,18.0,2,9.241
1530,48.96,-1.6964,1.1538,0.1797,-0.0001,-0.0000,-2.4264,flat,18.0,2,8.674
1540,49.28,-2.1295,0.7854,0.1797,-0.0001,-0.0000,-2.4489,flat,18.0,2,8.107
1550,49.60,-2.5709,0.4261,0.1797,-0.0001,-0.0000,-2.4698,flat,18.0,2,7.540
1560,49.92,-3.0200,0.0754,0.1797,-0.0001,-0.0000,-2.4897,flat,18.0,2,6.975
1570,50.24,-3.4760,-0.2668,0.1797,-0.0001,-0.0000,-2.5086,flat,18.0,2,6.413
1580,50.56,-3.9386,-0.6007,0.1797,-0.0001,-0.0000,-2.5270,flat,18.0,2,5.853
1590,50.88,-4.4073,-0.9264,0.1797,-0.0001,-0.0000,-2.5451,flat,18.0,2,5.297
1600,51.20,-4.8819,-1.2436,0.1797,-0.0001,-0.0000,-2.5632,flat,18.0,2,4.749
1610,51.52,-5.3395,-1.5608,0.1797,0.0001,0.0000,-2.5010,flat,18.0,2,4.216
1620,51.84,-5.7801,-1.9051,0.1797,0.0002,-0.0000,-2.4461,flat,18.0,2,3.678
1630,52.16,-6.2014,-2.2733,0.1797,0.0002,-0.0000,-2.3920,flat,18.0,2,3.137
1640,52.48,-6.6011,-2.6642,0.1797,0.0002,0.0000,-2.3368,flat,18.0,2,2.595
1650,52.80,-6.9769,-3.0766,0.1797,0.0002,-0.0000,-2.2761,flat,18.0,2,2.054
1660,53.12,-7.3260,-3.5109,0.1798,0.0003,0.0000,-2.2010,flat,18.0,2,1.514
1670,53.44,-7.6361,-3.9675,0.1798,0.0003,0.0000,-2.0907,flat,18.0,2,0.981
1680,53.76,-7.8803,-4.4329,0.1799,-0.0003,0.0002,-2.0080,flat,18.0,0,13.225
1690,54.08,-8.0063,-4.7562,0.1798,-0.0003,0.0000,-1.6309,rough,14.0,0,13.353
1700,54.40,-8.0152,-5.0988,0.1799,0.0000,-0.0001,-1.2841,flat,18.0,0,13.372
1710,54.72,-7.8814,-5.4736,0.1799,0.0001,0.0002,-1.0682,rough,14.0,0,13.260
1720,55.04,-7.6393,-5.8428,0.1799,-0.0001,-0.0000,-0.8511,flat,18.0,0,13.051
1730,55.36,-7.2719,-6.1956,0.1799,0.0000,-0.0000,-0.6570,flat,18.0,0,12.727
1740,55.68,-6.8274,-6.4962,0.1799,0.0000,-0.0000,-0.4847,flat,18.0,0,12.331
1750,56.00,-6.3305,-6.7315,0.1799,0.0001,-0.0000,-0.3399,flat,18.0,0,11.883
1760,56.32,-5.8005,-6.9015,0.1799,0.0003,-0.0000,-0.2214,flat,18.0,0,11.397
1770,56.64,-5.2508,-7.0128,0.1798,0.0004,-0.0000,-0.1246,flat,18.0,0,10.885
1780,56.96,-4.6904,-7.0734,0.1798,0.0004,-0.0000,-0.0452,flat,18.0,0,10.355
1790,57.28,-4.1249,-7.0912,0.1797,0.0002,-0.0000,0.0196,flat,18.0,0,9.812
1800,57.60,-3.5590,-7.0742,0.1797,0.0002,-0.0000,0.0686,flat,18.0,0,9.263
1810,57.92,-3.0165,-7.0253,0.1799,-0.0000,0.0000,0.2245,flat,18.0,0,8.728
1820,58.24,-2.5281,-6.8830,0.1799,-0.0000,0.0000,0.4803,flat,18.0,0,8.220
1830,58.56,-2.0916,-6.6149,0.1800,0.0006,-0.0004,0.6277,flat,18.0,0,7.726
1840,58.88,-1.6330,-6.3017,0.1798,-0.0002,-0.0000,0.5561,flat,18.0,0,7.202
1850,59.20,-1.1488,-6.0164,0.1798,-0.0003,-0.0000,0.4881,flat,18.0,0,6.664
1860,59.52,-0.6453,-5.7610,0.1797,-0.0002,-0.0000,0.4273,flat,18.0,0,6.117
1870,59.84,-0.1263,-5.5350,0.1797,-0.0002,-0.0000,0.3724,flat,18.0,0,5.564
1880,60.16,0.4050,-5.3363,0.1797,-0.0002,-0.0000,0.3227,flat,18.0,0,5.007
1890,60.48,0.9455,-5.1629,0.1797,-0.0002,0.0000,0.2783,flat,18.0,0,4.446
1900,60.80,1.4926,-5.0126,0.1797,-0.0001,-0.0000,0.2381,flat,18.0,0,3.883
1910,61.12,2.0457,-4.8838,0.1797,-0.0001,-0.0000,0.1992,flat,18.0,0,3.319
1920,61.44,2.6033,-4.7763,0.1797,-0.0001,-0.0000,0.1604,flat,18.0,0,2.753
1930,61.76,3.1644,-4.6904,0.1797,-0.0001,0.0000,0.1198,flat,18.0,0,2.187
1940,62.08,3.7279,-4.6275,0.1797,-0.0002,0.0000,0.0732,flat,18.0,0,1.620
1950,62.40,4.2917,-4.5918,0.1797,-0.0002,0.0000,0.0112,flat,18.0,0,1.055
1960,62.72,4.8439,-4.5878,0.1798,-0.0003,0.0001,0.0505,flat,18.0,1,12.688
1970,63.04,5.3286,-4.5462,0.1798,-0.0003,0.0001,0.3412,flat,18.0,1,12.803
1980,63.36,5.6841,-4.3838,0.1799,-0.0001,0.0000,0.7028,flat,18.0,1,12.776
1990,63.68,5.9604,-4.0779,0.1799,-0.0000,-0.0001,1.0215,flat,18.0,1,12.597
2000,64.00,6.1746,-3.6559,0.1799,0.0000,-0.0000,1.3192,flat,18.0,1,12.299
2010,64.32,6.2753,-3.1585,0.1799,0.0001,-0.0000,1.5844,flat,18.0,1,11.893
2020,64.64,6.2451,-2.6309,0.1799,0.0001,-0.0000,1.7903,flat,18.0,1,11.408
2030,64.96,6.1079,-2.1083,0.1799,0.0001,-0.0000,1.9386,flat,18.0,1,10.881
2040,65.28,5.8950,-1.6042,0.1798,0.0004,-0.0000,2.0462,flat,18.0,1,10.336
2050,65.60,5.6286,-1.1204,0.1798,0.0004,-0.0000,2.1291,flat,18.0,1,9.784
2060,65.92,5.3223,-0.6552,0.1797,0.0002,-0.0000,2.1936,flat,18.0,1,9.230
2070,66.24,4.9861,-0.2076,0.1797,0.0002,-0.0000,2.2477,flat,18.0,1,8.677
2080,66.56,4.6257,0.2228,0.1797,0.0002,-0.0000,2.2955,flat,18.0,1,8.131
2090,66.88,4.2446,0.6373,0.1797,0.0001,-0.0000,2.3374,flat,18.0,1,7.592
2100,67.20,3.8460,1.0371,0.1797,0.0001,-0.0000,2.3749,flat,18.0,1,7.063
2110,67.52,3.4324,1.4225,0.1797,0.0001,-0.0000,2.4099,flat,18.0,1,6.548
2120,67.84,3.0058,1.7939,0.1797,0.0001,-0.0000,2.4422,flat,18.0,1,6.051
2130,68.16,2.5677,2.1523,0.1797,0.0001,-0.0000,2.4728,flat,18.0,1,5.577
2140,68.48,2.1186,2.4978,0.1797,0.0001,-0.0000,2.5029,flat,18.0,1,5.131
2150,68.80,1.6591,2.8301,0.1797,0.0001,-0.0000,2.5331,flat,18.0,1,4.723
2160,69.12,1.1899,3.1484,0.1797,0.0001,-0.0000,2.5644,flat,18.0,1,4.365
2170,69.44,0.7111,3.4517,0.1797,0.0001,0.0000,2.5982,flat,18.0,1,4.070
2180,69.76,0.2839,3.7232,0.1799,0.0003,0.0000,2.4328,flat,18.0,1,3.857
2190,70.08,-0.0466,4.0768,0.1799,-0.0000,-0.0000,2.1722,flat,18.0,1,3.595
2200,70.40,-0.3050,4.5250,0.1799,-0.0001,-0.0000,1.9154,flat,18.0,1,3.265
2210,70.72,-0.4580,5.0364,0.1799,-0.0001,-0.0000,1.6699,flat,18.0,1,2.881
2220,71.04,-0.4876,5.5738,0.1799,-0.0001,0.0000,1.4522,flat,18.0,1,2.453
2230,71.36,-0.4042,6.1053,0.1799,-0.0001,0.0000,1.2782,flat,18.0,1,1.999
2240,71.68,-0.2298,6.6131,0.1799,-0.0001,-0.0000,1.1267,flat,18.0,1,1.537
2250,72.00,0.0213,7.0849,0.1799,-0.0001,-0.0000,0.9813,flat,18.0,1,1.084
2260,72.32,0.3094,7.4793,0.1806,-0.0002,0.0055,0.8375,flat,18.0,2,14.863
2270,72.64,0.4834,7.5975,0.1736,-0.0350,0.0007,0.1963,flat,18.0,2,15.058
2280,72.96,0.8115,7.6488,0.1799,0.0003,-0.0000,-0.2901,flat,18.0,2,15.285
2290,73.28,1.1451,7.5117,0.1799,0.0001,-0.0000,-0.6964,flat,18.0,2,15.366
2300,73.60,1.4294,7.2038,0.1799,0.0000,-0.0001,-1.0004,flat,18.0,2,15.290
2310,73.92,1.6552,6.7814,0.1799,-0.0000,-0.0000,-1.2812,flat,18.0,2,15.099
2320,74.24,1.7767,6.2828,0.1799,0.0000,-0.0000,-1.5297,flat,18.0,2,14.795
2330,74.56,1.7773,5.7486,0.1799,-0.0001,-0.0000,-1.7256,flat,18.0,2,14.396
2340,74.88,1.6758,5.2135,0.1799,-0.0002,-0.0000,-1.8658,flat,18.0,2,13.934
2350,75.20,1.5015,4.6911,0.1798,-0.0004,-0.0000,-1.9665,flat,18.0,2,13.437
2360,75.52,1.2757,4.1838,0.1798,-0.0003,-0.0000,-2.0431,flat,18.0,2,12.918
2370,75.84,1.0115,3.6913,0.1797,-0.0002,-0.0000,-2.1036,flat,18.0,2,12.384
2380,76.16,0.7177,3.2125,0.1797,-0.0002,-0.0000,-2.1527,flat,18.0,2,11.841
2390,76.48,0.4006,2.7468,0.1797,-0.0001,-0.0000,-2.1915,flat,18.0,2,11.292
2400,76.80,0.0654,2.2919,0.1797,-0.0001,-0.0000,-2.2245,flat,18.0,2,10.737
2410,77.12,-0.2849,1.8467,0.1797,-0.0001,-0.0000,-2.2532,flat,18.0,2,10.179
2420,77.44,-0.6480,1.4103,0.1797,-0.0001,-0.0000,-2.2784,flat,18.0,2,9.618
2430,77.76,-1.0221,0.9821,0.1797,-0.0001,-0.0000,-2.3013,flat,18.0,2,9.055
2440,78.08,-1.4060,0.5615,0.1797,-0.0001,-0.0000,-2.3223,flat,18.0,2,8.490
2450,78.40,-1.7989,0.1483,0.1797,-0.0001,-0.0000,-2.3413,flat,18.0,2,7.924
2460,78.72,-2.1996,-0.2581,0.1797,-0.0001,-0.0000,-2.3585,flat,18.0,2,7.356
2470,79.04,-2.6073,-0.6580,0.1797,-0.0001,-0.0000,-2.3744,flat,18.0,2,6.787
2480,79.36,-3.0214,-1.0517,0.1797,-0.0001,-0.0000,-2.3894,flat,18.0,2,6.218
2490,79.68,-3.4414,-1.4394,0.1797,-0.0001,-0.0000,-2.4037,flat,18.0,2,5.648
2500,80.00,-3.8669,-1.8214,0.1797,-0.0000,-0.0000,-2.4171,flat,18.0,2,5.078
2510,80.32,-4.2973,-2.1978,0.1797,-0.0000,-0.0000,-2.4300,flat,18.0,2,4.508
2520,80.64,-4.7325,-2.5687,0.1797,-0.0000,-0.0000,-2.4427,flat,18.0,2,3.937
2530,80.96,-5.1724,-2.9340,0.1797,-0.0000,0.0000,-2.4555,flat,18.0,2,3.366
2540,81.28,-5.6168,-3.2935,0.1797,-0.0000,0.0000,-2.4690,flat,18.0,2,2.795
2550,81.60,-6.0659,-3.6465,0.1797,-0.0001,0.0000,-2.4840,flat,18.0,2,2.225
2560,81.92,-6.5199,-3.9918,0.1797,-0.0001,0.0000,-2.5021,flat,18.0,2,1.655
2570,82.24,-6.9792,-4.3265,0.1797,-0.0001,0.0000,-2.5279,flat,18.0,2,1.088
2580,82.56,-7.4410,-4.6334,0.1798,-0.0000,0.0000,-2.6045,flat,18.0,3,1.011
2590,82.88,-7.8331,-4.8355,0.1798,-0.0003,0.0007,-2.5842,flat,18.0,0,13.182
2600,83.20,-8.0882,-5.0825,0.1783,0.0097,0.0002,-2.0573,rough,14.0,0,13.445
2610,83.52,-8.2293,-5.3863,0.1798,-0.0001,-0.0002,-1.6399,flat,18.0,0,13.602
2620,83.84,-8.2345,-5.7749,0.1799,-0.0002,-0.0000,-1.2221,flat,18.0,0,13.637
2630,84.16,-8.0497,-6.1751,0.1799,-0.0001,-0.0001,-0.9317,flat,18.0,0,13.496
2640,84.48,-7.7218,-6.5384,0.1799,-0.0000,-0.0000,-0.7151,flat,18.0,0,13.221
2650,84.80,-7.3016,-6.8527,0.1799,0.0000,-0.0000,-0.5253,flat,18.0,0,12.860
2660,85.12,-6.8175,-7.1018,0.1799,0.0001,-0.0000,-0.3603,flat,18.0,0,12.433
2670,85.44,-6.2931,-7.2791,0.1799,0.0002,-0.0000,-0.2243,flat,18.0,0,11.960
2680,85.76,-5.7455,-7.3899,0.1798,0.0004,-0.0000,-0.1138,flat,18.0,0,11.455
2690,86.08,-5.1860,-7.4431,0.1798,0.0004,-0.0000,-0.0236,flat,18.0,0,10.929
2700,86.40,-4.6216,-7.4477,0.1798,0.0003,-0.0000,0.0487,flat,18.0,0,10.387
2710,86.72,-4.0572,-7.4133,0.1797,0.0002,-0.0000,0.1040,flat,18.0,0,9.837
2720,87.04,-3.4940,-7.3489,0.1797,0.0002,-0.0000,0.1487,flat,18.0,0,9.280
2730,87.36,-2.9339,-7.2603,0.1797,0.0001,-0.0000,0.1838,flat,18.0,0,8.720
2740,87.68,-2.3761,-7.1523,0.1797,0.0001,-0.0000,0.2140,flat,18.0,0,8.157
2750,88.00,-1.8209,-7.0279,0.1797,0.0001,-0.0000,0.2402,flat,18.0,0,7.592
2760,88.32,-1.2684,-6.8891,0.1797,0.0001,-0.0000,0.2633,flat,18.0,0,7.025
2770,88.64,-0.7187,-6.7376,0.1797,0.0001,-0.0000,0.2841,flat,18.0,0,6.456
2780,88.96,-0.1717,-6.5749,0.1797,0.0001,-0.0000,0.3030,flat,18.0,0,5.887
2790,89.28,0.3723,-6.4019,0.1797,0.0001,-0.0000,0.3206,flat,18.0,0,5.316
2800,89.60,0.9135,-6.2194,0.1797,0.0001,-0.0000,0.3373,flat,18.0,0,4.746
2810,89.92,1.4531,-6.0389,0.1797,0.0000,-0.0000,0.3244,flat,18.0,0,4.177
2820,90.24,1.9989,-5.8553,0.1797,0.0000,-0.0000,0.3249,flat,18.0,0,3.602
2830,90.56,2.5446,-5.6714,0.1797,0.0000,-0.0000,0.3254,flat,18.0,0,3.027
2840,90.88,3.0901,-5.4871,0.1797,0.0000,0.0000,0.3260,flat,18.0,0,2.453
2850,91.20,3.6356,-5.3026,0.1797,0.0000,0.0000,0.3267,flat,18.0,0,1.880
2860,91.52,4.1808,-5.1177,0.1797,0.0000,0.0000,0.3275,flat,18.0,0,1.308
2870,91.84,4.7229,-4.9357,0.1797,-0.0000,0.0002,0.3464,flat,18.0,1,12.985
2880,92.16,5.1152,-4.7625,0.1799,-0.0003,0.0000,0.6417,flat,18.0,1,12.938
2890,92.48,5.4101,-4.4751,0.1799,-0.0001,-0.0000,0.9519,flat,18.0,1,12.764
2900,92.80,5.6485,-4.0693,0.1799,0.0000,-0.0000,1.2434,flat,18.0,1,12.470
2910,93.12,5.7851,-3.5806,0.1799,0.0000,-0.0000,1.5057,flat,18.0,1,12.071
2920,93.44,5.7960,-3.0517,0.1799,0.0001,0.0000,1.7208,flat,18.0,1,11.592
2930,93.76,5.6956,-2.5199,0.1799,0.0001,-0.0000,1.8761,flat,18.0,1,11.067
2940,94.08,5.5153,-2.0029,0.1798,0.0004,-0.0000,1.9873,flat,18.0,1,10.522
2950,94.40,5.2785,-1.5037,0.1798,0.0004,-0.0000,2.0727,flat,18.0,1,9.969
2960,94.72,4.9994,-1.0224,0.1797,0.0003,-0.0000,2.1410,flat,18.0,1,9.415
2970,95.04,4.6877,-0.5580,0.1797,0.0002,-0.0000,2.1973,flat,18.0,1,8.863
2980,95.36,4.3497,-0.1094,0.1797,0.0002,-0.0000,2.2449,flat,18.0,1,8.315
2990,95.68,3.9905,0.3241,0.1797,0.0001,-0.0000,2.2842,flat,18.0,1,7.776
3000,96.00,3.6141,0.7449,0.1797,0.0001,-0.0000,2.3207,flat,18.0,1,7.246
3010,96.32,3.2218,1.1421,0.1797,0.0002,-0.0000,2.3753,flat,18.0,1,6.738
3020,96.64,2.8084,1.5241,0.1797,0.0001,-0.0000,2.4181,flat,18.0,1,6.248
3030,96.96,2.3796,1.8889,0.1797,0.0001,-0.0000,2.4581,flat,18.0,1,5.783
3040,97.28,1.9366,2.2373,0.1797,0.0001,-0.0000,2.4973,flat,18.0,1,5.352
3050,97.60,1.4800,2.5686,0.1797,0.0001,-0.0000,2.5372,flat,18.0,1,4.963
3060,97.92,1.0106,2.8817,0.1797,0.0001,-0.0000,2.5791,flat,18.0,1,4.628
3070,98.24,0.5378,3.1669,0.1797,0.0001,0.0002,2.5728,flat,18.0,1,4.369
3080,98.56,0.1523,3.4685,0.1799,-0.0001,-0.0000,2.3345,flat,18.0,1,4.133
3090,98.88,-0.1705,3.8718,0.1799,-0.0000,-0.0000,2.1107,flat,18.0,1,3.827
3100,99.20,-0.4167,4.3467,0.1799,-0.0000,-0.0000,1.8988,flat,18.0,1,3.474
3110,99.52,-0.5690,4.8680,0.1799,-0.0001,-0.0000,1.7020,flat,18.0,1,3.082
3120,99.84,-0.6211,5.4120,0.1799,-0.0001,-0.0000,1.5199,flat,18.0,1,2.663
3130,100.16,-0.5764,5.9562,0.1799,-0.0001,-0.0000,1.3657,flat,18.0,1,2.227
3140,100.48,-0.4508,6.4777,0.1799,0.0000,0.0000,1.2000,flat,18.0,1,1.796
3150,100.80,-0.2356,6.9601,0.1799,-0.0001,0.0000,1.0287,flat,18.0,1,1.370
3160,101.12,0.0623,7.3937,0.1799,-0.0001,-0.0000,0.8638,flat,18.0,1,0.964
3170,101.44,0.3551,7.7005,0.1786,-0.0001,-0.0075,0.6029,flat,18.0,2,15.073
3180,101.76,0.5970,7.7983,0.1776,0.0002,-0.0144,0.1222,flat,18.0,2,15.288
3190,102.08,0.9476,7.8264,0.1798,0.0003,-0.0001,-0.3773,flat,18.0,2,15.508
3200,102.40,1.2695,7.6532,0.1799,0.0001,-0.0001,-0.7562,flat,18.0,2,15.554
3210,102.72,1.5468,7.3202,0.1799,0.0000,-0.0000,-1.0535,flat,18.0,2,15.454
3220,103.04,1.7566,6.8805,0.1799,-0.0000,-0.0000,-1.3278,flat,18.0,2,15.240
3230,103.36,1.8571,6.3722,0.1799,0.0000,-0.0000,-1.5686,flat,18.0,2,14.916
3240,103.68,1.8380,5.8356,0.1799,-0.0001,-0.0000,-1.7525,flat,18.0,2,14.501
3250,104.00,1.7224,5.3017,0.1799,-0.0003,-0.0000,-1.8834,flat,18.0,2,14.030
3260,104.32,1.5391,4.7812,0.1798,-0.0004,-0.0000,-1.9783,flat,18.0,2,13.527
3270,104.64,1.3074,4.2756,0.1798,-0.0003,-0.0000,-2.0511,flat,18.0,2,13.005
3280,104.96,1.0393,3.7844,0.1797,-0.0002,-0.0000,-2.1089,flat,18.0,2,12.469
3290,105.28,0.7430,3.3066,0.1797,-0.0002,-0.0000,-2.1556,flat,18.0,2,11.924
3300,105.60,0.4245,2.8414,0.1797,-0.0001,-0.0000,-2.1928,flat,18.0,2,11.373
3310,105.92,0.0887,2.3864,0.1797,-0.0001,-0.0000,-2.2247,flat,18.0,2,10.818
3320,106.24,-0.2617,1.9409,0.1797,-0.0001,-0.0000,-2.2524,flat,18.0,2,10.259
3330,106.56,-0.6244,1.5040,0.1797,-0.0001,-0.0000,-2.2768,flat,18.0,2,9.698
3340,106.88,-0.9979,1.0749,0.1797,-0.0001,-0.0000,-2.2989,flat,18.0,2,9.134
3350,107.20,-1.3808,0.6531,0.1797,-0.0001,-0.0000,-2.3193,flat,18.0,2,8.569
3360,107.52,-1.7724,0.2384,0.1797,-0.0001,-0.0000,-2.3377,flat,18.0,2,8.002
3370,107.84,-2.1717,-0.1696,0.1797,-0.0001,-0.0000,-2.3544,flat,18.0,2,7.434
3380,108.16,-2.5777,-0.5714,0.1797,-0.0001,-0.0000,-2.3697,flat,18.0,2,6.865
3390,108.48,-2.9900,-0.9673,0.1797,-0.0001,-0.0000,-2.3842,flat,18.0,2,6.295
3400,108.80,-3.4080,-1.3574,0.1797,-0.0000,-0.0000,-2.3980,flat,18.0,2,5.725
3410,109.12,-3.8314,-1.7419,0.1797,-0.0000,-0.0000,-2.4111,flat,18.0,2,5.155
3420,109.44,-4.2596,-2.1211,0.1797,-0.0000,-0.0000,-2.4235,flat,18.0,2,4.584
3430,109.76,-4.6925,-2.4950,0.1797,-0.0000,-0.0000,-2.4357,flat,18.0,2,4.013
3440,110.08,-5.1298,-2.8636,0.1797,-0.0000,0.0000,-2.4480,flat,18.0,2,3.442
3450,110.40,-5.5716,-3.2266,0.1797,-0.0000,0.0000,-2.4608,flat,18.0,2,2.871
3460,110.72,-6.0178,-3.5836,0.1797,-0.0000,0.0000,-2.4749,flat,18.0,2,2.300
3470,111.04,-6.4688,-3.9334,0.1797,-0.0001,0.0000,-2.4917,flat,18.0,2,1.730
3480,111.36,-6.9249,-4.2735,0.1797,-0.0001,0.0000,-2.5150,flat,18.0,2,1.162
3490,111.68,-7.3831,-4.5902,0.1798,-0.0001,-0.0000,-2.5812,flat,18.0,3,1.079
3500,112.00,-7.7952,-4.8194,0.1799,-0.0002,0.0010,-2.6276,flat,18.0,0,13.143
3510,112.32,-8.0520,-5.0539,0.1799,-0.0005,-0.0003,-2.0966,flat,18.0,0,13.407
3520,112.64,-8.2217,-5.4129,0.1799,-0.0001,-0.0000,-1.5988,flat,18.0,0,13.596
3530,112.96,-8.2102,-5.8065,0.1799,-0.0002,-0.0001,-1.1984,flat,18.0,0,13.616
3540,113.28,-8.0134,-6.2063,0.1799,-0.0001,-0.0001,-0.9166,flat,18.0,0,13.464
3550,113.60,-7.6780,-6.5681,0.1799,0.0000,-0.0000,-0.7056,flat,18.0,0,13.183
3560,113.92,-7.2535,-6.8809,0.1799,0.0000,-0.0000,-0.5202,flat,18.0,0,12.817
3570,114.24,-6.7673,-7.1290,0.1799,0.0001,-0.0000,-0.3606,flat,18.0,0,12.390
3580,114.56,-6.2424,-7.3072,0.1799,0.0002,-0.0000,-0.2296,flat,18.0,0,11.917
3590,114.88,-5.6949,-7.4215,0.1798,0.0004,-0.0000,-0.1235,flat,18.0,0,11.414
3600,115.20,-5.1354,-7.4805,0.1798,0.0004,-0.0000,-0.0371,flat,18.0,0,10.890
3610,115.52,-4.5928,-7.4793,0.1799,0.0001,0.0000,0.1532,flat,18.0,0,10.369
3620,115.84,-4.0667,-7.3766,0.1799,0.0001,-0.0000,0.3278,flat,18.0,0,9.835
3630,116.16,-3.5629,-7.1836,0.1799,0.0002,-0.0000,0.4665,flat,18.0,0,9.297
3640,116.48,-3.0884,-6.9212,0.1799,0.0003,-0.0000,0.5842,flat,18.0,0,8.768
3650,116.80,-2.6431,-6.6030,0.1798,0.0004,-0.0000,0.6801,flat,18.0,0,8.255
3660,117.12,-2.2140,-6.2671,0.1799,-0.0000,-0.0001,0.6172,flat,18.0,0,7.758
3670,117.44,-1.7497,-5.9583,0.1798,-0.0003,-0.0000,0.5324,flat,18.0,0,7.239
3680,117.76,-1.2593,-5.6852,0.1798,-0.0003,-0.0000,0.4571,flat,18.0,0,6.706
3690,118.08,-0.7485,-5.4463,0.1797,-0.0002,-0.0000,0.3900,flat,18.0,0,6.163
3700,118.40,-0.2218,-5.2397,0.1797,-0.0002,-0.0000,0.3301,flat,18.0,0,5.613
3710,118.72,0.3170,-5.0637,0.1797,-0.0002,-0.0000,0.2760,flat,18.0,0,5.057
3720,119.04,0.8653,-4.9158,0.1797,-0.0002,-0.0000,0.2268,flat,18.0,0,4.497
3730,119.36,1.4207,-4.7939,0.1797,-0.0002,-0.0000,0.1815,flat,18.0,0,3.933
3740,119.68,1.9800,-4.6965,0.1797,-0.0001,-0.0000,0.1414,flat,18.0,0,3.369
3750,120.00,2.5428,-4.6211,0.1797,-0.0001,-0.0000,0.1018,flat,18.0,0,2.804
3760,120.32,3.1080,-4.5680,0.1797,-0.0001,-0.0000,0.0609,flat,18.0,0,2.237
3770,120.64,3.6741,-4.5383,0.1797,-0.0002,0.0000,0.0153,flat,18.0,0,1.671
3780,120.96,4.2386,-4.5349,0.1797,-0.0002,0.0000,-0.0421,flat,18.0,0,1.106
3790,121.28,4.7838,-4.5549,0.1798,-0.0003,0.0001,0.0103,flat,18.0,1,12.639
3800,121.60,5.2393,-4.5302,0.1798,-0.0002,0.0001,0.3716,flat,18.0,1,12.758
3810,121.92,5.5640,-4.3584,0.1799,-0.0001,-0.0000,0.7586,flat,18.0,1,12.709
3820,122.24,5.8352,-4.0286,0.1799,-0.0000,-0.0000,1.0697,flat,18.0,1,12.503
3830,122.56,6.0352,-3.5904,0.1799,0.0000,-0.0000,1.3605,flat,18.0,1,12.181
3840,122.88,6.1170,-3.0843,0.1799,0.0001,-0.0000,1.6160,flat,18.0,1,11.757
3850,123.20,6.0707,-2.5543,0.1799,0.0001,-0.0000,1.8111,flat,18.0,1,11.261
3860,123.52,5.9231,-2.0328,0.1799,0.0002,-0.0000,1.9504,flat,18.0,1,10.729
3870,123.84,5.7045,-1.5299,0.1798,0.0004,-0.0000,2.0528,flat,18.0,1,10.182
3880,124.16,5.4349,-1.0468,0.1798,0.0004,-0.0000,2.1325,flat,18.0,1,9.629
3890,124.48,5.1270,-0.5822,0.1797,0.0002,-0.0000,2.1957,flat,18.0,1,9.075
3900,124.80,4.7899,-0.1352,0.1797,0.0002,-0.0000,2.2494,flat,18.0,1,8.525
3910,125.12,4.4286,0.2949,0.1797,0.0002,-0.0000,2.2956,flat,18.0,1,7.980
3920,125.44,4.0474,0.7099,0.1797,0.0001,-0.0000,2.3363,flat,18.0,1,7.444
3930,125.76,3.6492,1.1105,0.1797,0.0001,-0.0000,2.3727,flat,18.0,1,6.919
3940,126.08,3.2365,1.4971,0.1797,0.0001,-0.0000,2.4070,flat,18.0,1,6.409
3950,126.40,2.8109,1.8700,0.1797,0.0001,-0.0000,2.4388,flat,18.0,1,5.918
3960,126.72,2.3740,2.2300,0.1797,0.0001,-0.0000,2.4690,flat,18.0,1,5.451
3970,127.04,1.9262,2.5772,0.1797,0.0001,-0.0000,2.4989,flat,18.0,1,5.015
3980,127.36,1.4681,2.9112,0.1797,0.0001,-0.0000,2.5294,flat,18.0,1,4.620
3990,127.68,1.0002,3.2311,0.1797,0.0001,0.0000,2.5614,flat,18.0,1,4.279
4000,128.00,0.5254,3.5317,0.1797,0.0001,0.0002,2.5762,flat,18.0,1,4.009
4010,128.32,0.1539,3.8261,0.1799,-0.0001,0.0000,2.3137,flat,18.0,1,3.784
4020,128.64,-0.1491,4.2273,0.1799,-0.0000,-0.0000,2.0577,flat,18.0,1,3.484
4030,128.96,-0.3650,4.7088,0.1799,-0.0001,-0.0000,1.8074,flat,18.0,1,3.124
4040,129.28,-0.4663,5.2365,0.1799,-0.0001,-0.0000,1.5743,flat,18.0,1,2.715
4050,129.60,-0.4467,5.7753,0.1799,-0.0001,0.0000,1.3795,flat,18.0,1,2.271
4060,129.92,-0.3253,6.2999,0.1799,-0.0001,0.0000,1.2195,flat,18.0,1,1.808
4070,130.24,-0.1208,6.7962,0.1799,-0.0001,-0.0000,1.0737,flat,18.0,1,1.345
4080,130.56,0.1565,7.2533,0.1799,-0.0001,-0.0000,0.9327,flat,18.0,1,0.900
4090,130.88,0.3811,7.5423,0.1791,-0.0003,-0.0043,0.5909,flat,18.0,2,14.955
4100,131.20,0.6111,7.6244,0.1784,-0.0084,0.0001,0.0285,flat,18.0,2,15.151
4110,131.52,0.9641,7.6142,0.1799,0.0003,0.0000,-0.4711,flat,18.0,2,15.344
4120,131.84,1.2739,7.4023,0.1799,0.0001,-0.0001,-0.8204,flat,18.0,2,15.354
4130,132.16,1.5410,7.0444,0.1799,0.0000,-0.0000,-1.1150,flat,18.0,2,15.233
4140,132.48,1.7295,6.5870,0.1799,-0.0000,-0.0000,-1.3840,flat,18.0,2,14.997
4150,132.80,1.8029,6.0693,0.1799,-0.0000,-0.0001,-1.6156,flat,18.0,2,14.652
4160,133.12,1.7594,5.5319,0.1799,-0.0001,-0.0000,-1.7875,flat,18.0,2,14.224
4170,133.44,1.6256,5.0013,0.1799,-0.0003,-0.0000,-1.9098,flat,18.0,2,13.746
4180,133.76,1.4286,4.4849,0.1798,-0.0004,-0.0000,-1.9997,flat,18.0,2,13.239
4190,134.08,1.1860,3.9837,0.1798,-0.0003,-0.0000,-2.0693,flat,18.0,2,12.713
4200,134.40,0.9090,3.4970,0.1797,-0.0002,-0.0000,-2.1248,flat,18.0,2,12.176
4210,134.72,0.6049,3.0238,0.1797,-0.0002,-0.0000,-2.1695,flat,18.0,2,11.630
4220,135.04,0.2799,2.5628,0.1797,-0.0001,-0.0000,-2.2058,flat,18.0,2,11.078
4230,135.36,-0.0619,2.1120,0.1797,-0.0001,-0.0000,-2.2370,flat,18.0,2,10.522
4240,135.68,-0.4178,1.6707,0.1797,-0.0001,-0.0000,-2.2642,flat,18.0,2,9.963
4250,136.00,-0.7857,1.2379,0.1797,-0.0001,-0.0000,-2.2884,flat,18.0,2,9.401
4260,136.32,-1.1641,0.8130,0.1797,-0.0001,-0.0000,-2.3106,flat,18.0,2,8.837
4270,136.64,-1.5520,0.3956,0.1797,-0.0001,-0.0000,-2.3308,flat,18.0,2,8.272
4280,136.96,-1.9484,-0.0146,0.1797,-0.0001,-0.0000,-2.3490,flat,18.0,2,7.705
4290,137.28,-2.3523,-0.4180,0.1797,-0.0001,-0.0000,-2.3657,flat,18.0,2,7.137
4300,137.60,-2.7629,-0.8151,0.1797,-0.0001,-0.0000,-2.3812,flat,18.0,2,6.568
4310,137.92,-3.1797,-1.2061,0.1797,-0.0001,-0.0000,-2.3959,flat,18.0,2,5.998
4320,138.24,-3.6022,-1.5912,0.1797,-0.0000,-0.0000,-2.4099,flat,18.0,2,5.428
4330,138.56,-4.0300,-1.9706,0.1797,-0.0000,-0.0000,-2.4231,flat,18.0,2,4.858
4340,138.88,-4.4626,-2.3445,0.1797,-0.0000,-0.0000,-2.4358,flat,18.0,2,4.287
4350,139.20,-4.9000,-2.7129,0.1797,-0.0000,0.0000,-2.4485,flat,18.0,2,3.717
4360,139.52,-5.3419,-3.0756,0.1797,-0.0000,0.0000,-2.4615,flat,18.0,2,3.146
4370,139.84,-5.7884,-3.4323,0.1797,-0.0000,0.0000,-2.4754,flat,18.0,2,2.575
4380,140.16,-6.2397,-3.7821,0.1797,-0.0001,0.0000,-2.4914,flat,18.0,2,2.005
4390,140.48,-6.6960,-4.1234,0.1797,-0.0001,0.0000,-2.5116,flat,18.0,2,1.436
4400,140.80,-7.1576,-4.4519,0.1797,-0.0001,0.0000,-2.5439,flat,18.0,2,0.870
4410,141.12,-7.6222,-4.7383,0.1798,-0.0001,0.0000,-2.6645,flat,18.0,3,0.811
4420,141.44,-7.9163,-4.8806,0.1793,0.0003,0.0040,-2.3558,flat,18.0,0,13.266
4430,141.76,-8.1127,-5.1632,0.1798,0.0007,0.0009,-1.9605,flat,18.0,0,13.473
4440,142.08,-8.2299,-5.4877,0.1798,-0.0001,-0.0001,-1.5504,flat,18.0,0,13.609
4450,142.40,-8.1973,-5.8831,0.1799,0.0001,-0.0001,-1.1655,flat,18.0,0,13.610
4460,142.72,-7.9824,-6.2797,0.1799,0.0001,-0.0000,-0.8905,flat,18.0,0,13.443
4470,143.04,-7.6344,-6.6358,0.1799,0.0001,-0.0000,-0.6829,flat,18.0,0,13.150
4480,143.36,-7.2014,-6.9415,0.1799,0.0001,-0.0000,-0.4994,flat,18.0,0,12.778
4490,143.68,-6.7094,-7.1808,0.1799,0.0001,-0.0000,-0.3424,flat,18.0,0,12.344
4500,144.00,-6.1808,-7.3505,0.1799,0.0003,-0.0000,-0.2143,flat,18.0,0,11.868
4510,144.32,-5.6313,-7.4568,0.1798,0.0004,-0.0000,-0.1105,flat,18.0,0,11.362
4520,144.64,-5.0708,-7.5089,0.1798,0.0004,-0.0000,-0.0260,flat,18.0,0,10.836
4530,144.96,-4.5057,-7.5154,0.1797,0.0003,-0.0000,0.0418,flat,18.0,0,10.296
4540,145.28,-3.9406,-7.4855,0.1797,0.0002,-0.0000,0.0930,flat,18.0,0,9.747
4550,145.60,-3.3765,-7.4276,0.1797,0.0001,-0.0000,0.1339,flat,18.0,0,9.193
4560,145.92,-2.8144,-7.3475,0.1797,0.0001,-0.0000,0.1671,flat,18.0,0,8.635
4570,146.24,-2.2542,-7.2491,0.1797,0.0001,-0.0000,0.1953,flat,18.0,0,8.074
4580,146.56,-1.6962,-7.1353,0.1797,0.0001,-0.0000,0.2196,flat,18.0,0,7.511
4590,146.88,-1.1403,-7.0080,0.1797,0.0001,-0.0000,0.2409,flat,18.0,0,6.946
4600,147.20,-0.5866,-6.8691,0.1797,0.0001,-0.0000,0.2598,flat,18.0,0,6.379
4610,147.52,-0.0351,-6.7199,0.1797,0.0001,-0.0000,0.2767,flat,18.0,0,5.812
4620,147.84,0.5141,-6.5614,0.1797,0.0001,-0.0000,0.2922,flat,18.0,0,5.244
4630,148.16,1.0612,-6.3945,0.1797,0.0001,-0.0000,0.3065,flat,18.0,0,4.676
4640,148.48,1.6060,-6.2199,0.1797,0.0000,-0.0000,0.3199,flat,18.0,0,4.107
4650,148.80,2.1485,-6.0380,0.1797,0.0000,-0.0000,0.3330,flat,18.0,0,3.538
4660,149.12,2.6885,-5.8489,0.1797,0.0000,0.0000,0.3460,flat,18.0,0,2.970
4670,149.44,3.2259,-5.6529,0.1797,0.0000,0.0000,0.3596,flat,18.0,0,2.402
4680,149.76,3.7599,-5.4495,0.1797,0.0001,0.0000,0.3748,flat,18.0,0,1.837
4690,150.08,4.2894,-5.2380,0.1797,0.0001,0.0000,0.3942,flat,18.0,0,1.276
4700,150.40,4.8075,-5.0196,0.1797,0.0000,0.0002,0.4436,flat,18.0,1,13.090
4710,150.72,5.1634,-4.8115,0.1799,-0.0002,0.0000,0.7522,flat,18.0,1,13.000
4720,151.04,5.4422,-4.4784,0.1799,-0.0000,-0.0000,1.0529,flat,18.0,1,12.778
4730,151.36,5.6518,-4.0385,0.1799,0.0000,-0.0000,1.3331,flat,18.0,1,12.443
4740,151.68,5.7488,-3.5305,0.1799,0.0000,-0.0000,1.5812,flat,18.0,1,12.011
4750,152.00,5.7218,-2.9961,0.1799,0.0001,-0.0000,1.7725,flat,18.0,1,11.510
4760,152.32,5.5951,-2.4669,0.1799,0.0002,-0.0000,1.9089,flat,18.0,1,10.976
4770,152.64,5.3982,-1.9535,0.1798,0.0004,-0.0000,2.0092,flat,18.0,1,10.428
4780,152.96,5.1505,-1.4577,0.1798,0.0003,-0.0000,2.0874,flat,18.0,1,9.874
4790,153.28,4.8643,-0.9791,0.1797,0.0002,-0.0000,2.1507,flat,18.0,1,9.319
4800,153.60,4.5480,-0.5165,0.1797,0.0002,-0.0000,2.2034,flat,18.0,1,8.768
4810,153.92,4.2072,-0.0693,0.1797,0.0002,-0.0000,2.2473,flat,18.0,1,8.222
4820,154.24,3.8469,0.3640,0.1797,0.0001,-0.0000,2.2847,flat,18.0,1,7.685
4830,154.56,3.4702,0.7853,0.1797,0.0001,-0.0000,2.3196,flat,18.0,1,7.157
4840,154.88,3.0788,1.1943,0.1797,0.0001,-0.0000,2.3518,flat,18.0,1,6.643
4850,155.20,2.6743,1.5914,0.1797,0.0001,-0.0000,2.3817,flat,18.0,1,6.146
4860,155.52,2.2578,1.9763,0.1797,0.0001,-0.0000,2.4107,flat,18.0,1,5.670
4870,155.84,1.8307,2.3493,0.1797,0.0001,0.0000,2.4387,flat,18.0,1,5.224
4880,156.16,1.3937,2.7103,0.1797,0.0001,-0.0000,2.4664,flat,18.0,1,4.814
4890,156.48,0.9468,3.0590,0.1797,0.0001,0.0000,2.4958,flat,18.0,1,4.451
4900,156.80,0.4929,3.3902,0.1797,0.0001,0.0002,2.5074,flat,18.0,1,4.153
4910,157.12,0.1379,3.7158,0.1799,-0.0006,0.0005,2.2550,flat,18.0,1,3.895
4920,157.44,-0.1511,4.1391,0.1799,0.0000,-0.0000,2.0097,flat,18.0,1,3.568
4930,157.76,-0.3492,4.6342,0.1799,-0.0000,-0.0000,1.7734,flat,18.0,1,3.184
4940,158.08,-0.4351,5.1678,0.1799,-0.0000,-0.0000,1.5565,flat,18.0,1,2.757
4950,158.40,-0.4076,5.7089,0.1799,-0.0001,-0.0000,1.3773,flat,18.0,1,2.297
4960,158.72,-0.2857,6.2362,0.1799,-0.0001,-0.0000,1.2279,flat,18.0,1,1.823
4970,159.04,-0.0859,6.7373,0.1799,-0.0002,-0.0000,1.0904,flat,18.0,1,1.348
4980,159.36,0.1832,7.2018,0.1799,-0.0002,-0.0000,0.9555,flat,18.0,1,0.891
4990,159.68,0.4002,7.5009,0.1791,-0.0003,-0.0045,0.6235,flat,18.0,2,14.931
5000,160.00,0.6211,7.5873,0.1784,-0.0084,0.0001,0.0477,flat,18.0,2,15.126
5010,160.32,0.9733,7.5850,0.1799,0.0005,0.0000,-0.4546,flat,18.0,2,15.325
5020,160.64,1.2846,7.3801,0.1799,0.0001,-0.0001,-0.8102,flat,18.0,2,15.343
5030,160.96,1.5531,7.0265,0.1799,0.0000,-0.0000,-1.1057,flat,18.0,2,15.226
5040,161.28,1.7447,6.5721,0.1799,-0.0000,-0.0000,-1.3764,flat,18.0,2,14.995
5050,161.60,1.8218,6.0558,0.1799,-0.0000,-0.0000,-1.6100,flat,18.0,2,14.654
5060,161.92,1.7812,5.5187,0.1799,-0.0001,-0.0000,-1.7840,flat,18.0,2,14.229
5070,162.24,1.6492,4.9879,0.1799,-0.0003,-0.0000,-1.9080,flat,18.0,2,13.753
5080,162.56,1.4531,4.4715,0.1798,-0.0004,-0.0000,-1.9989,flat,18.0,2,13.246
5090,162.88,1.2110,3.9703,0.1798,-0.0003,-0.0000,-2.0691,flat,18.0,2,12.722
5100,163.20,0.9340,3.4837,0.1797,-0.0002,-0.0000,-2.1251,flat,18.0,2,12.185
5110,163.52,0.6298,3.0106,0.1797,-0.0002,-0.0000,-2.1704,flat,18.0,2,11.639
5120,163.84,0.3044,2.5500,0.1797,-0.0001,-0.0000,-2.2069,flat,18.0,2,11.088
5130,164.16,-0.0379,2.0997,0.1797,-0.0001,-0.0000,-2.2383,flat,18.0,2,10.532
5140,164.48,-0.3944,1.6589,0.1797,-0.0001,-0.0000,-2.2657,flat,18.0,2,9.973
5150,164.80,-0.7629,1.2268,0.1797,-0.0001,-0.0000,-2.2901,flat,18.0,2,9.411
5160,165.12,-1.1421,0.8025,0.1797,-0.0001,-0.0000,-2.3124,flat,18.0,2,8.847
5170,165.44,-1.5307,0.3859,0.1797,-0.0001,-0.0000,-2.3327,flat,18.0,2,8.282
5180,165.76,-1.9279,-0.0235,0.1797,-0.0001,-0.0000,-2.3510,flat,18.0,2,7.715
5190,166.08,-2.3326,-0.4261,0.1797,-0.0001,-0.0000,-2.3678,flat,18.0,2,7.147
5200,166.40,-2.7440,-0.8223,0.1797,-0.0001,-0.0000,-2.3834,flat,18.0,2,6.578
5210,166.72,-3.1617,-1.2123,0.1797,-0.0001,-0.0000,-2.3983,flat,18.0,2,6.009
5220,167.04,-3.5851,-1.5963,0.1797,-0.0000,-0.0000,-2.4122,flat,18.0,2,5.439
5230,167.36,-4.0138,-1.9747,0.1797,-0.0000,-0.0000,-2.4255,flat,18.0,2,4.868
5240,167.68,-4.4473,-2.3475,0.1797,-0.0000,-0.0000,-2.4383,flat,18.0,2,4.298
5250,168.00,-4.8855,-2.7148,0.1797,-0.0000,-0.0000,-2.4510,flat,18.0,2,3.727
5260,168.32,-5.3284,-3.0764,0.1797,-0.0000,0.0000,-2.4640,flat,18.0,2,3.156
5270,168.64,-5.7758,-3.4319,0.1797,-0.0000,0.0000,-2.4781,flat,18.0,2,2.586
5280,168.96,-6.2280,-3.7806,0.1797,-0.0001,0.0000,-2.4940,flat,18.0,2,2.015
5290,169.28,-6.6853,-4.1207,0.1797,-0.0001,0.0000,-2.5142,flat,18.0,2,1.446
5300,169.60,-7.1478,-4.4480,0.1797,-0.0001,0.0000,-2.5463,flat,18.0,2,0.880
5310,169.92,-7.6134,-4.7338,0.1798,-0.0001,0.0000,-2.6645,flat,18.0,3,0.821
5320,170.24,-7.9301,-4.8994,0.1799,0.0001,0.0001,-2.3293,flat,18.0,0,13.280
5330,170.56,-8.1480,-5.2207,0.1799,-0.0001,-0.0000,-1.8316,flat,18.0,0,13.511
5340,170.88,-8.2284,-5.5999,0.1799,-0.0001,-0.0000,-1.3661,flat,18.0,0,13.616
5350,171.20,-8.1139,-6.0051,0.1799,-0.0001,-0.0001,-1.0382,flat,18.0,0,13.540
5360,171.52,-7.8370,-6.3877,0.1799,-0.0000,-0.0000,-0.7991,flat,18.0,0,13.313
5370,171.84,-7.4498,-6.7249,0.1799,0.0000,-0.0000,-0.6053,flat,18.0,0,12.983
5380,172.16,-6.9896,-7.0053,0.1799,0.0001,-0.0000,-0.4325,flat,18.0,0,12.582
5390,172.48,-6.4805,-7.2164,0.1799,0.0001,-0.0000,-0.2885,flat,18.0,0,12.129
5400,172.80,-5.9421,-7.3601,0.1799,0.0003,-0.0000,-0.1715,flat,18.0,0,11.639
5410,173.12,-5.4073,-7.4157,0.1799,0.0001,0.0000,0.0478,flat,18.0,0,11.135
5420,173.44,-4.8663,-7.3704,0.1799,0.0001,-0.0000,0.2157,flat,18.0,0,10.601
5430,173.76,-4.3373,-7.2373,0.1799,0.0002,-0.0000,0.3450,flat,18.0,0,10.056
5440,174.08,-3.8275,-7.0369,0.1798,0.0004,-0.0000,0.4524,flat,18.0,0,9.511
5450,174.40,-3.3407,-6.7821,0.1798,0.0004,-0.0000,0.5465,flat,18.0,0,8.975
5460,174.72,-2.8758,-6.4815,0.1798,0.0003,-0.0000,0.6225,flat,18.0,0,8.451
5470,175.04,-2.4236,-6.1689,0.1798,-0.0001,-0.0001,0.5625,flat,18.0,0,7.941
5480,175.36,-1.9420,-5.8825,0.1798,-0.0003,-0.0000,0.4849,flat,18.0,0,7.413
5490,175.68,-1.4383,-5.6304,0.1797,-0.0003,-0.0000,0.4162,flat,18.0,0,6.873
5500,176.00,-0.9174,-5.4106,0.1797,-0.0002,-0.0000,0.3554,flat,18.0,0,6.325
5510,176.32,-0.3832,-5.2213,0.1797,-0.0002,-0.0000,0.3013,flat,18.0,0,5.771
5520,176.64,0.1612,-5.0598,0.1797,-0.0002,-0.0000,0.2527,flat,18.0,0,5.211
5530,176.96,0.7126,-4.9238,0.1797,-0.0001,-0.0000,0.2104,flat,18.0,0,4.650
5540,177.28,1.2691,-4.8101,0.1797,-0.0001,-0.0000,0.1721,flat,18.0,0,4.086
5550,177.60,1.8299,-4.7173,0.1797,-0.0001,-0.0000,0.1356,flat,18.0,0,3.520
5560,177.92,2.3939,-4.6447,0.1797,-0.0001,-0.0000,0.0998,flat,18.0,0,2.953
5570,178.24,2.9600,-4.5922,0.1797,-0.0001,-0.0000,0.0635,flat,18.0,0,2.386
5580,178.56,3.5271,-4.5604,0.1797,-0.0001,0.0000,0.0240,flat,18.0,0,1.818
5590,178.88,4.0933,-4.5514,0.1797,-0.0002,0.0000,-0.0237,flat,18.0,0,1.252
5600,179.20,4.6529,-4.5692,0.1798,-0.0003,0.0002,-0.0713,flat,18.0,1,12.614
5610,179.52,5.1518,-4.5696,0.1798,-0.0002,0.0001,0.2303,flat,18.0,1,12.767
5620,179.84,5.5107,-4.4616,0.1798,-0.0001,-0.0000,0.5946,flat,18.0,1,12.786
5630,180.16,5.8000,-4.1993,0.1799,-0.0000,-0.0001,0.9285,flat,18.0,1,12.648
5640,180.48,6.0398,-3.8073,0.1799,0.0000,-0.0000,1.2319,flat,18.0,1,12.381
5650,180.80,6.1789,-3.3271,0.1799,0.0000,-0.0000,1.5071,flat,18.0,1,12.003
5660,181.12,6.1886,-2.8030,0.1799,0.0000,-0.0000,1.7330,flat,18.0,1,11.536
5670,181.44,6.0819,-2.2758,0.1799,0.0001,-0.0000,1.8950,flat,18.0,1,11.018
5680,181.76,5.8913,-1.7648,0.1799,0.0003,-0.0000,2.0124,flat,18.0,1,10.477
5690,182.08,5.6416,-1.2736,0.1798,0.0004,-0.0000,2.1017,flat,18.0,1,9.926
5700,182.40,5.3483,-0.8017,0.1798,0.0003,-0.0000,2.1714,flat,18.0,1,9.371
5710,182.72,5.0223,-0.3476,0.1797,0.0002,-0.0000,2.2284,flat,18.0,1,8.819
5720,183.04,4.6704,0.0892,0.1797,0.0002,-0.0000,2.2783,flat,18.0,1,8.270
5730,183.36,4.2966,0.5097,0.1797,0.0002,-0.0000,2.3214,flat,18.0,1,7.729
5740,183.68,3.9045,0.9155,0.1797,0.0001,-0.0000,2.3598,flat,18.0,1,7.198
5750,184.00,3.4970,1.3071,0.1797,0.0001,-0.0000,2.3951,flat,18.0,1,6.679
5760,184.32,3.0757,1.6846,0.1797,0.0001,-0.0000,2.4282,flat,18.0,1,6.178
5770,184.64,2.6426,2.0489,0.1797,0.0001,-0.0000,2.4589,flat,18.0,1,5.697
5780,184.96,2.1984,2.4005,0.1797,0.0001,-0.0000,2.4888,flat,18.0,1,5.244
5790,185.28,1.7437,2.7390,0.1797,0.0001,-0.0000,2.5189,flat,18.0,1,4.826
5800,185.60,1.2791,3.0640,0.1797,0.0001,-0.0000,2.5497,flat,18.0,1,4.453
5810,185.92,0.8047,3.3742,0.1797,0.0001,0.0000,2.5828,flat,18.0,1,4.141
5820,186.24,0.3582,3.6520,0.1798,0.0002,0.0001,2.4782,flat,18.0,1,3.914
5830,186.56,0.0159,3.9872,0.1799,-0.0001,-0.0000,2.2171,flat,18.0,1,3.663
5840,186.88,-0.2580,4.4215,0.1799,-0.0001,-0.0000,1.9606,flat,18.0,1,3.342
5850,187.20,-0.4319,4.9246,0.1799,-0.0001,-0.0000,1.7138,flat,18.0,1,2.964
5860,187.52,-0.4847,5.4604,0.1799,-0.0001,-0.0000,1.4901,flat,18.0,1,2.542
5870,187.84,-0.4213,5.9950,0.1799,-0.0001,0.0000,1.3108,flat,18.0,1,2.090
5880,188.16,-0.2638,6.5090,0.1799,-0.0001,-0.0000,1.1574,flat,18.0,1,1.627
5890,188.48,-0.0280,6.9896,0.1799,-0.0001,-0.0000,1.0122,flat,18.0,1,1.169
5900,188.80,0.2714,7.4205,0.1814,-0.0002,0.0110,0.8767,flat,18.0,2,14.793
5910,189.12,0.4377,7.5743,0.1800,-0.0003,-0.0013,0.2592,flat,18.0,2,15.013
5920,189.44,0.7413,7.6484,0.1795,-0.0017,-0.0001,-0.1837,flat,18.0,2,15.245
5930,189.76,1.0886,7.5524,0.1799,0.0001,-0.0000,-0.6266,flat,18.0,2,15.366
5940,190.08,1.3801,7.2743,0.1799,0.0001,-0.0001,-0.9409,flat,18.0,2,15.316
5950,190.40,1.6220,6.8722,0.1799,-0.0000,-0.0000,-1.2270,flat,18.0,2,15.149
5960,190.72,1.7668,6.3856,0.1799,-0.0000,-0.0000,-1.4825,flat,18.0,2,14.867
5970,191.04,1.7913,5.8553,0.1799,-0.0001,-0.0000,-1.6912,flat,18.0,2,14.484
5980,191.36,1.7078,5.3187,0.1799,-0.0001,-0.0000,-1.8416,flat,18.0,2,14.033
5990,191.68,1.5460,4.7934,0.1798,-0.0004,-0.0000,-1.9487,flat,18.0,2,13.541
6000,192.00,1.3292,4.2831,0.1798,-0.0004,-0.0000,-2.0294,flat,18.0,2,13.026
6010,192.32,1.0718,3.7878,0.1797,-0.0002,-0.0000,-2.0927,flat,18.0,2,12.495
6020,192.64,0.7834,3.3064,0.1797,-0.0002,-0.0000,-2.1438,flat,18.0,2,11.953
6030,192.96,0.4703,2.8383,0.1797,-0.0001,-0.0000,-2.1844,flat,18.0,2,11.405
6040,193.28,0.1384,2.3814,0.1797,-0.0001,-0.0000,-2.2185,flat,18.0,2,10.851
6050,193.60,-0.2092,1.9344,0.1797,-0.0001,-0.0000,-2.2480,flat,18.0,2,10.294
6060,193.92,-0.5700,1.4965,0.1797,-0.0001,-0.0000,-2.2739,flat,18.0,2,9.734
6070,194.24,-0.9421,1.0668,0.1797,-0.0001,-0.0000,-2.2971,flat,18.0,2,9.171
6080,194.56,-1.3243,0.6448,0.1797,-0.0001,-0.0000,-2.3186,flat,18.0,2,8.606
6090,194.88,-1.7156,0.2302,0.1797,-0.0001,-0.0000,-2.3379,flat,18.0,2,8.040
6100,195.20,-2.1149,-0.1774,0.1797,-0.0001,-0.0000,-2.3555,flat,18.0,2,7.473
6110,195.52,-2.5214,-0.5784,0.1797,-0.0001,-0.0000,-2.3716,flat,18.0,2,6.904
6120,195.84,-2.9344,-0.9732,0.1797,-0.0001,-0.0000,-2.3868,flat,18.0,2,6.335
6130,196.16,-3.3534,-1.3620,0.1797,-0.0001,-0.0000,-2.4012,flat,18.0,2,5.765
6140,196.48,-3.7779,-1.7449,0.1797,-0.0000,-0.0000,-2.4148,flat,18.0,2,5.195
6150,196.80,-4.2075,-2.1223,0.1797,-0.0000,-0.0000,-2.4278,flat,18.0,2,4.625
6160,197.12,-4.6419,-2.4941,0.1797,-0.0000,-0.0000,-2.4405,flat,18.0,2,4.054
6170,197.44,-5.0810,-2.8605,0.1797,-0.0000,0.0000,-2.4532,flat,18.0,2,3.483
6180,197.76,-5.5246,-3.2210,0.1797,-0.0000,0.0000,-2.4665,flat,18.0,2,2.913
6190,198.08,-5.9728,-3.5752,0.1797,-0.0001,0.0000,-2.4811,flat,18.0,2,2.342
6200,198.40,-6.4260,-3.9221,0.1797,-0.0001,0.0000,-2.4984,flat,18.0,2,1.772
6210,198.72,-6.8843,-4.2592,0.1797,-0.0001,0.0000,-2.5219,flat,18.0,2,1.204
6220,199.04,-7.3449,-4.5750,0.1797,-0.0001,-0.0000,-2.5833,flat,18.0,3,1.119
6230,199.36,-7.7772,-4.8159,0.1800,-0.0001,0.0018,-2.7093,rough,14.0,0,13.125
6240,199.68,-7.9970,-4.9204,0.1798,-0.0002,-0.0005,-2.2762,flat,18.0,0,13.348
6250,200.00,-8.1684,-5.1952,0.1798,0.0007,0.0009,-1.9135,flat,18.0,0,13.530
6260,200.32,-8.2637,-5.5216,0.1799,-0.0001,-0.0001,-1.4985,flat,18.0,0,13.645
6270,200.64,-8.2085,-5.9205,0.1799,0.0002,-0.0000,-1.1298,flat,18.0,0,13.625
6280,200.96,-7.9756,-6.3139,0.1799,0.0001,-0.0000,-0.8643,flat,18.0,0,13.440
6290,201.28,-7.6160,-6.6649,0.1799,0.0001,-0.0000,-0.6612,flat,18.0,0,13.137
6300,201.60,-7.1750,-6.9639,0.1799,0.0001,-0.0000,-0.4804,flat,18.0,0,12.756
6310,201.92,-6.6779,-7.1954,0.1799,0.0001,-0.0000,-0.3271,flat,18.0,0,12.317
6320,202.24,-6.1464,-7.3578,0.1799,0.0003,-0.0000,-0.2022,flat,18.0,0,11.836
6330,202.56,-5.5953,-7.4581,0.1798,0.0004,-0.0000,-0.1010,flat,18.0,0,11.328
6340,202.88,-5.0341,-7.5051,0.1798,0.0004,-0.0000,-0.0186,flat,18.0,0,10.799
6350,203.20,-4.4687,-7.5076,0.1797,0.0003,-0.0000,0.0473,flat,18.0,0,10.258
6360,203.52,-3.9036,-7.4748,0.1797,0.0002,-0.0000,0.0969,flat,18.0,0,9.709
6370,203.84,-3.3397,-7.4148,0.1797,0.0001,-0.0000,0.1367,flat,18.0,0,9.154
6380,204.16,-2.7777,-7.3332,0.1797,0.0001,-0.0000,0.1692,flat,18.0,0,8.596
6390,204.48,-2.2176,-7.2336,0.1797,0.0001,-0.0000,0.1969,flat,18.0,0,8.034
6400,204.80,-1.6596,-7.1188,0.1797,0.0001,-0.0000,0.2209,flat,18.0,0,7.471
6410,205.12,-1.1037,-6.9909,0.1797,0.0001,-0.0000,0.2418,flat,18.0,0,6.906
6420,205.44,-0.5501,-6.8516,0.1797,0.0001,-0.0000,0.2604,flat,18.0,0,6.339
6430,205.76,0.0013,-6.7020,0.1797,0.0001,-0.0000,0.2771,flat,18.0,0,5.772
6440,206.08,0.5506,-6.5434,0.1797,0.0001,-0.0000,0.2923,flat,18.0,0,5.203
6450,206.40,1.0976,-6.3764,0.1797,0.0001,-0.0000,0.3065,flat,18.0,0,4.635
6460,206.72,1.6425,-6.2018,0.1797,0.0000,-0.0000,0.3198,flat,18.0,0,4.066
6470,207.04,2.1851,-6.0199,0.1797,0.0000,-0.0000,0.3328,flat,18.0,0,3.497
6480,207.36,2.7252,-5.8310,0.1797,0.0000,0.0000,0.3457,flat,18.0,0,2.929
6490,207.68,3.2626,-5.6351,0.1797,0.0000,0.0000,0.3593,flat,18.0,0,2.362
6500,208.00,3.7967,-5.4319,0.1797,0.0001,0.0000,0.3746,flat,18.0,0,1.796
6510,208.32,4.3261,-5.2205,0.1797,0.0001,0.0000,0.3944,flat,18.0,0,1.236
6520,208.64,4.8371,-5.0077,0.1797,0.0000,0.0003,0.4684,flat,18.0,1,13.087
6530,208.96,5.1790,-4.7907,0.1799,-0.0001,-0.0000,0.7798,flat,18.0,1,12.985
6540,209.28,5.4343,-4.4773,0.1799,-0.0001,-0.0001,1.0478,flat,18.0,1,12.774
6550,209.60,5.6450,-4.0419,0.1799,0.0000,-0.0000,1.3246,flat,18.0,1,12.444
6560,209.92,5.7454,-3.5352,0.1799,0.0002,0.0000,1.5710,flat,18.0,1,12.014
6570,210.24,5.7232,-3.0004,0.1799,0.0001,-0.0000,1.7658,flat,18.0,1,11.515
6580,210.56,5.5998,-2.4708,0.1799,0.0002,-0.0000,1.9046,flat,18.0,1,10.982
6590,210.88,5.4051,-1.9569,0.1798,0.0004,-0.0000,2.0062,flat,18.0,1,10.434
6600,211.20,5.1589,-1.4606,0.1798,0.0004,-0.0000,2.0853,flat,18.0,1,9.880
6610,211.52,4.8737,-0.9815,0.1797,0.0002,-0.0000,2.1492,flat,18.0,1,9.325
6620,211.84,4.5581,-0.5187,0.1797,0.0002,-0.0000,2.2024,flat,18.0,1,8.774
6630,212.16,4.2177,-0.0712,0.1797,0.0002,-0.0000,2.2467,flat,18.0,1,8.228
6640,212.48,3.8576,0.3622,0.1797,0.0001,-0.0000,2.2844,flat,18.0,1,7.691
6650,212.80,3.4812,0.7835,0.1797,0.0001,-0.0000,2.3195,flat,18.0,1,7.163
6660,213.12,3.0898,1.1925,0.1797,0.0001,-0.0000,2.3518,flat,18.0,1,6.648
6670,213.44,2.6852,1.5895,0.1797,0.0001,-0.0000,2.3819,flat,18.0,1,6.150
6680,213.76,2.2687,1.9743,0.1797,0.0001,-0.0000,2.4111,flat,18.0,1,5.675
6690,214.08,1.8415,2.3471,0.1797,0.0001,0.0000,2.4391,flat,18.0,1,5.228
6700,214.40,1.4043,2.7079,0.1797,0.0001,-0.0000,2.4670,flat,18.0,1,4.817
6710,214.72,0.9572,3.0563,0.1797,0.0001,0.0000,2.4964,flat,18.0,1,4.454
6720,215.04,0.5004,3.3907,0.1797,0.0001,0.0000,2.5291,flat,18.0,1,4.152
6730,215.36,0.1348,3.7056,0.1798,-0.0006,0.0006,2.2827,flat,18.0,1,3.906
6740,215.68,-0.1610,4.1183,0.1799,-0.0000,-0.0000,2.0329,flat,18.0,1,3.591
6750,216.00,-0.3682,4.6075,0.1799,-0.0000,-0.0000,1.7914,flat,18.0,1,3.217
6760,216.32,-0.4627,5.1386,0.1799,-0.0001,-0.0000,1.5692,flat,18.0,1,2.796
6770,216.64,-0.4414,5.6794,0.1799,-0.0001,-0.0000,1.3844,flat,18.0,1,2.341
6780,216.96,-0.3231,6.2070,0.1799,-0.0001,-0.0000,1.2320,flat,18.0,1,1.870
6790,217.28,-0.1253,6.7086,0.1799,-0.0002,-0.0000,1.0934,flat,18.0,1,1.397
6800,217.60,0.1423,7.1739,0.1799,-0.0002,-0.0000,0.9580,flat,18.0,1,0.939
6810,217.92,0.3820,7.5016,0.1788,-0.0002,-0.0062,0.6992,flat,18.0,2,14.922
6820,218.24,0.5888,7.5904,0.1780,-0.0104,0.0001,0.0834,flat,18.0,2,15.111
6830,218.56,0.9363,7.6028,0.1798,-0.0001,0.0001,-0.4152,flat,18.0,2,15.319
6840,218.88,1.2530,7.4129,0.1799,0.0000,-0.0000,-0.7845,flat,18.0,2,15.350
6850,219.20,1.5254,7.0690,0.1799,0.0000,-0.0000,-1.0818,flat,18.0,2,15.242
6860,219.52,1.7253,6.6214,0.1799,-0.0000,-0.0000,-1.3546,flat,18.0,2,15.020
6870,219.84,1.8122,6.1091,0.1799,-0.0002,0.0000,-1.5895,flat,18.0,2,14.688
6880,220.16,1.7812,5.5719,0.1799,-0.0001,-0.0000,-1.7711,flat,18.0,2,14.268
6890,220.48,1.6558,5.0400,0.1799,-0.0003,-0.0000,-1.8987,flat,18.0,2,13.795
6900,220.80,1.4646,4.5222,0.1798,-0.0004,-0.0000,-1.9917,flat,18.0,2,13.290
6910,221.12,1.2260,4.0196,0.1798,-0.0003,-0.0000,-2.0633,flat,18.0,2,12.767
6920,221.44,0.9518,3.5316,0.1797,-0.0002,-0.0000,-2.1203,flat,18.0,2,12.231
6930,221.76,0.6500,3.0572,0.1797,-0.0002,-0.0000,-2.1664,flat,18.0,2,11.685
6940,222.08,0.3264,2.5955,0.1797,-0.0001,-0.0000,-2.2034,flat,18.0,2,11.135
6950,222.40,-0.0142,2.1441,0.1797,-0.0001,-0.0000,-2.2351,flat,18.0,2,10.579
6960,222.72,-0.3693,1.7023,0.1797,-0.0001,-0.0000,-2.2628,flat,18.0,2,10.020
6970,223.04,-0.7366,1.2692,0.1797,-0.0001,-0.0000,-2.2874,flat,18.0,2,9.459
6980,223.36,-1.1146,0.8440,0.1797,-0.0001,-0.0000,-2.3098,flat,18.0,2,8.895
6990,223.68,-1.5021,0.4264,0.1797,-0.0001,-0.0000,-2.3303,flat,18.0,2,8.330
7000,224.00,-1.8983,0.0162,0.1797,-0.0001,-0.0000,-2.3488,flat,18.0,2,7.763
7010,224.32,-2.3021,-0.3873,0.1797,-0.0001,-0.0000,-2.3656,flat,18.0,2,7.195
7020,224.64,-2.7127,-0.7844,0.1797,-0.0001,-0.0000,-2.3813,flat,18.0,2,6.626
7030,224.96,-3.1295,-1.1753,0.1797,-0.0001,-0.0000,-2.3962,flat,18.0,2,6.057
7040,225.28,-3.5521,-1.5602,0.1797,-0.0000,-0.0000,-2.4102,flat,18.0,2,5.487
7050,225.60,-3.9800,-1.9394,0.1797,-0.0000,-0.0000,-2.4235,flat,18.0,2,4.916
7060,225.92,-4.4128,-2.3131,0.1797,-0.0000,-0.0000,-2.4363,flat,18.0,2,4.346
7070,226.24,-4.8504,-2.6812,0.1797,-0.0000,-0.0000,-2.4490,flat,18.0,2,3.775
7080,226.56,-5.2925,-3.0437,0.1797,-0.0000,0.0000,-2.4620,flat,18.0,2,3.204
7090,226.88,-5.7392,-3.4002,0.1797,-0.0000,0.0000,-2.4759,flat,18.0,2,2.634
7100,227.20,-6.1907,-3.7499,0.1797,-0.0001,0.0000,-2.4916,flat,18.0,2,2.064
7110,227.52,-6.6472,-4.0912,0.1797,-0.0001,0.0000,-2.5113,flat,18.0,2,1.494
7120,227.84,-7.1089,-4.4204,0.1797,-0.0001,0.0000,-2.5416,flat,18.0,2,0.928
7130,228.16,-7.5736,-4.7115,0.1798,-0.0001,0.0000,-2.6480,flat,18.0,3,0.864
7140,228.48,-7.8693,-4.8454,0.1793,0.0001,-0.0052,-2.4964,rough,14.0,0,13.218
7150,228.80,-8.1025,-5.0449,0.1772,0.0168,-0.0002,-2.0638,rough,14.0,0,13.457
7160,229.12,-8.2470,-5.3614,0.1799,-0.0001,-0.0001,-1.6423,flat,18.0,0,13.618
7170,229.44,-8.2527,-5.7528,0.1799,-0.0002,-0.0001,-1.2273,flat,18.0,0,13.653
7180,229.76,-8.0701,-6.1546,0.1799,-0.0001,-0.0001,-0.9377,flat,18.0,0,13.514
7190,230.08,-7.7444,-6.5205,0.1799,0.0000,-0.0000,-0.7230,flat,18.0,0,13.241
7200,230.40,-7.3265,-6.8385,0.1799,0.0000,-0.0000,-0.5361,flat,18.0,0,12.881
7210,230.72,-6.8567,-7.0722,0.1799,0.0000,-0.0000,-0.3149,flat,18.0,0,12.465
7220,231.04,-6.3335,-7.2176,0.1799,0.0000,-0.0000,-0.1195,flat,18.0,0,11.986
7230,231.36,-5.7858,-7.2646,0.1799,0.0001,-0.0000,0.0450,flat,18.0,0,11.464
7240,231.68,-5.2347,-7.2251,0.1799,0.0003,-0.0000,0.1705,flat,18.0,0,10.920
7250,232.00,-4.6906,-7.1189,0.1798,0.0004,-0.0000,0.2690,flat,18.0,0,10.366
7260,232.32,-4.1578,-6.9602,0.1798,0.0004,-0.0000,0.3516,flat,18.0,0,9.811
7270,232.64,-3.6387,-6.7580,0.1798,0.0003,-0.0000,0.4243,flat,18.0,0,9.258
7280,232.96,-3.1353,-6.5184,0.1797,0.0002,-0.0000,0.4917,flat,18.0,0,8.712
7290,233.28,-2.6498,-6.2450,0.1797,0.0002,-0.0000,0.5572,flat,18.0,0,8.178
7300,233.60,-2.1713,-5.9647,0.1798,-0.0002,-0.0000,0.4919,flat,18.0,0,7.654
7310,233.92,-1.6694,-5.7091,0.1798,-0.0002,-0.0000,0.4236,flat,18.0,0,7.114
7320,234.24,-1.1501,-5.4855,0.1797,-0.0002,-0.0000,0.3633,flat,18.0,0,6.566
7330,234.56,-0.6174,-5.2921,0.1797,-0.0002,-0.0000,0.3096,flat,18.0,0,6.012
7340,234.88,-0.0743,-5.1260,0.1797,-0.0002,-0.0000,0.2617,flat,18.0,0,5.453
7350,235.20,0.4756,-4.9849,0.1797,-0.0001,-0.0000,0.2207,flat,18.0,0,4.891
7360,235.52,1.0311,-4.8654,0.1797,-0.0001,-0.0000,0.1832,flat,18.0,0,4.327
7370,235.84,1.5910,-4.7663,0.1797,-0.0001,-0.0000,0.1478,flat,18.0,0,3.762
7380,236.16,2.1543,-4.6867,0.1797,-0.0001,-0.0000,0.1135,flat,18.0,0,3.195
7390,236.48,2.7201,-4.6263,0.1797,-0.0001,-0.0000,0.0792,flat,18.0,0,2.627
7400,236.80,3.2872,-4.5853,0.1797,-0.0001,0.0000,0.0431,flat,18.0,0,2.059
7410,237.12,3.8544,-4.5650,0.1797,-0.0001,0.0000,0.0017,flat,18.0,0,1.491
7420,237.44,4.4191,-4.5690,0.1797,-0.0002,0.0000,-0.0549,flat,18.0,0,0.927
7430,237.76,4.9549,-4.5842,0.1798,-0.0005,0.0001,0.0916,flat,18.0,1,12.718
7440,238.08,5.3915,-4.5254,0.1798,-0.0002,0.0001,0.4516,flat,18.0,1,12.805
7450,238.40,5.7028,-4.3208,0.1799,-0.0001,-0.0001,0.8166,flat,18.0,1,12.724
7460,238.72,5.9649,-3.9691,0.1799,-0.0000,-0.0000,1.1261,flat,18.0,1,12.499
7470,239.04,6.1451,-3.5154,0.1799,0.0000,-0.0000,1.4124,flat,18.0,1,12.159
7480,239.36,6.2015,-3.0021,0.1799,0.0001,-0.0000,1.6588,flat,18.0,1,11.720
7490,239.68,6.1329,-2.4724,0.1799,0.0001,-0.0000,1.8432,flat,18.0,1,11.216
7500,240.00,5.9687,-1.9546,0.1799,0.0002,-0.0000,1.9745,flat,18.0,1,10.681
7510,240.32,5.7379,-1.4562,0.1798,0.0004,-0.0000,2.0721,flat,18.0,1,10.132
7520,240.64,5.4589,-0.9775,0.1798,0.0003,-0.0000,2.1482,flat,18.0,1,9.579
7530,240.96,5.1436,-0.5171,0.1797,0.0002,-0.0000,2.2088,flat,18.0,1,9.025
7540,241.28,4.8006,-0.0741,0.1797,0.0002,-0.0000,2.2610,flat,18.0,1,8.475
7550,241.60,4.4342,0.3521,0.1797,0.0002,-0.0000,2.3061,flat,18.0,1,7.931
7560,241.92,4.0486,0.7633,0.1797,0.0001,-0.0000,2.3461,flat,18.0,1,7.396
7570,242.24,3.6465,1.1602,0.1797,0.0001,-0.0000,2.3821,flat,18.0,1,6.872
7580,242.56,3.2301,1.5430,0.1797,0.0001,-0.0000,2.4160,flat,18.0,1,6.363
7590,242.88,2.8013,1.9123,0.1797,0.0001,-0.0000,2.4473,flat,18.0,1,5.874
7600,243.20,2.3613,2.2687,0.1797,0.0001,-0.0000,2.4773,flat,18.0,1,5.410
7610,243.52,1.9112,2.5982,0.1797,0.0002,-0.0000,2.5385,flat,18.0,1,4.992
7620,243.84,1.4410,2.9072,0.1797,0.0002,-0.0000,2.5949,flat,18.0,1,4.622
7630,244.16,0.9537,3.1904,0.1797,0.0002,-0.0000,2.6541,flat,18.0,1,4.320
7640,244.48,0.4740,3.4330,0.1798,0.0002,0.0001,2.6019,flat,18.0,1,4.113
7650,244.80,0.0869,3.7190,0.1799,-0.0001,-0.0000,2.3485,flat,18.0,1,3.904
7660,245.12,-0.2360,4.1148,0.1799,-0.0000,-0.0000,2.1143,flat,18.0,1,3.619
7670,245.44,-0.4808,4.5871,0.1799,-0.0000,-0.0000,1.8881,flat,18.0,1,3.285
7680,245.76,-0.6257,5.1078,0.1799,-0.0001,-0.0000,1.6762,flat,18.0,1,2.911
7690,246.08,-0.6621,5.6500,0.1799,-0.0001,-0.0000,1.4815,flat,18.0,1,2.507
7700,246.40,-0.5958,6.1880,0.1799,-0.0001,-0.0000,1.3182,flat,18.0,1,2.087
7710,246.72,-0.4418,6.6928,0.1799,-0.0000,-0.0000,1.1302,flat,18.0,1,1.674
7720,247.04,-0.1922,7.1548,0.1799,-0.0001,-0.0000,0.9562,flat,18.0,1,1.262
7730,247.36,0.1380,7.5609,0.1799,-0.0001,0.0000,0.7858,flat,18.0,1,0.882
7740,247.68,0.4152,7.7968,0.1792,-0.0001,-0.0052,0.4066,flat,18.0,2,15.186
7750,248.00,0.7300,7.9007,0.1785,0.0003,-0.0091,-0.0416,flat,18.0,2,15.447
7760,248.32,1.0958,7.8594,0.1799,-0.0002,-0.0000,-0.5300,flat,18.0,2,15.620
7770,248.64,1.3983,7.6205,0.1799,0.0000,-0.0001,-0.8658,flat,18.0,2,15.604
7780,248.96,1.6578,7.2447,0.1799,-0.0000,-0.0000,-1.1563,flat,18.0,2,15.462
7790,249.28,1.8312,6.7751,0.1799,-0.0001,-0.0000,-1.4182,flat,18.0,2,15.206
7800,249.60,1.8875,6.2516,0.1799,-0.0001,0.0000,-1.6387,flat,18.0,2,14.845
7810,249.92,1.8295,5.7460,0.1799,-0.0002,-0.0000,-1.8961,flat,18.0,2,14.429
7820,250.24,1.6349,5.2677,0.1799,-0.0001,-0.0000,-2.1068,flat,18.0,2,13.946
7830,250.56,1.3384,4.8308,0.1799,-0.0001,-0.0000,-2.2661,flat,18.0,2,13.424
7840,250.88,0.9719,4.4377,0.1799,-0.0002,-0.0000,-2.3921,flat,18.0,2,12.887
7850,251.20,0.5560,4.0889,0.1799,-0.0003,-0.0000,-2.5190,flat,18.0,2,12.348
7860,251.52,0.0971,3.7894,0.1799,-0.0002,-0.0000,-2.6507,flat,18.0,2,11.816
7870,251.84,-0.3969,3.5535,0.1799,-0.0003,-0.0001,-2.7379,flat,18.0,2,11.310
7880,252.16,-0.8964,3.3228,0.1798,0.0003,-0.0000,-2.6451,flat,18.0,2,10.808
7890,252.48,-1.3779,3.0463,0.1798,0.0003,-0.0000,-2.5732,flat,18.0,2,10.288
7900,252.80,-1.8420,2.7353,0.1797,0.0002,-0.0000,-2.5144,flat,18.0,2,9.754
7910,253.12,-2.2900,2.3970,0.1797,0.0002,-0.0000,-2.4657,flat,18.0,2,9.212
7920,253.44,-2.7227,2.0369,0.1797,0.0001,-0.0000,-2.4262,flat,18.0,2,8.664
7930,253.76,-3.1431,1.6596,0.1797,0.0001,-0.0000,-2.3904,flat,18.0,2,8.111
7940,254.08,-3.5512,1.2672,0.1797,0.0001,-0.0000,-2.3585,flat,18.0,2,7.555
7950,254.40,-3.9478,0.8617,0.1797,0.0001,-0.0000,-2.3296,flat,18.0,2,6.996
7960,254.72,-4.3331,0.4447,0.1797,0.0001,-0.0000,-2.3027,flat,18.0,2,6.434
7970,255.04,-4.7079,0.0177,0.1797,0.0001,-0.0000,-2.2781,flat,18.0,2,5.872
7980,255.36,-5.0727,-0.4182,0.1797,0.0001,-0.0000,-2.2552,flat,18.0,2,5.308
7990,255.68,-5.4279,-0.8625,0.1797,0.0001,-0.0000,-2.2331,flat,18.0,2,4.743
8000,256.00,-5.7738,-1.3147,0.1797,0.0001,-0.0000,-2.2114,flat,18.0,2,4.178
8010,256.32,-6.1100,-1.7744,0.1797,0.0001,-0.0000,-2.1897,flat,18.0,2,3.612
