step,time_s,x,y,z,roll,pitch,yaw,terrain,speed,target_idx,dist_to_target
10,0.32,1.0687,-0.7750,0.1846,-0.0000,-0.0336,-0.0000,rough,14.0,0,5.684
20,0.64,1.4964,-0.7887,0.1794,-0.0001,0.0022,-0.1127,flat,18.0,0,5.360
30,0.96,2.0250,-0.8723,0.1799,-0.0001,-0.0000,-0.2928,flat,18.0,0,4.932
40,1.28,2.5371,-1.0473,0.1799,-0.0002,-0.0000,-0.4294,flat,18.0,0,4.466
50,1.60,3.0250,-1.2912,0.1798,-0.0004,-0.0000,-0.5385,flat,18.0,0,3.976
60,1.92,3.4888,-1.5888,0.1798,-0.0004,-0.0000,-0.6233,flat,18.0,0,3.470
70,2.24,3.9292,-1.9246,0.1798,-0.0003,-0.0000,-0.6967,flat,18.0,0,2.957
80,2.56,4.3404,-2.2926,0.1798,-0.0003,0.0000,-0.7758,flat,18.0,0,2.444
90,2.88,4.7185,-2.6926,0.1798,-0.0004,-0.0000,-0.8635,flat,18.0,0,1.932
100,3.20,5.0594,-3.1243,0.1798,-0.0004,0.0000,-0.9685,flat,18.0,0,1.425
110,3.52,5.3497,-3.5872,0.1799,-0.0001,0.0000,-1.1126,flat,18.0,0,0.933
120,3.84,5.4863,-3.9344,0.1798,-0.0001,0.0006,-0.9003,flat,18.0,1,12.285
130,4.16,5.6865,-4.0936,0.1791,0.0001,0.0053,-0.2231,flat,18.0,1,12.507
140,4.48,6.0620,-4.1582,0.1799,-0.0005,-0.0000,0.3112,flat,18.0,1,12.711
150,4.80,6.4093,-4.0092,0.1799,-0.0001,-0.0000,0.6742,flat,18.0,1,12.718
160,5.12,6.7222,-3.6918,0.1799,-0.0000,-0.0001,0.9469,flat,18.0,1,12.570
170,5.44,6.9796,-3.2667,0.1799,0.0000,-0.0000,1.1958,flat,18.0,1,12.315
180,5.76,7.1471,-2.7674,0.1799,0.0000,-0.0000,1.4169,flat,18.0,1,11.966
190,6.08,7.2105,-2.2282,0.1799,0.0001,-0.0000,1.6010,flat,18.0,1,11.540
200,6.40,7.1776,-1.6784,0.1799,0.0002,-0.0000,1.7369,flat,18.0,1,11.061
210,6.72,7.0735,-1.1335,0.1798,0.0004,-0.0000,1.8346,flat,18.0,1,10.553
220,7.04,6.9178,-0.5976,0.1798,0.0003,-0.0000,1.9092,flat,18.0,1,10.026
230,7.36,6.7229,-0.0718,0.1797,0.0002,-0.0000,1.9685,flat,18.0,1,9.488
240,7.68,6.4975,0.4442,0.1797,0.0002,-0.0000,2.0169,flat,18.0,1,8.941
250,8.00,6.2474,0.9499,0.1797,0.0001,-0.0000,2.0552,flat,18.0,1,8.389
260,8.32,5.9781,1.4471,0.1797,0.0001,-0.0000,2.0882,flat,18.0,1,7.833
270,8.64,5.6925,1.9365,0.1797,0.0001,-0.0000,2.1171,flat,18.0,1,7.274
280,8.96,5.3927,2.4185,0.1797,0.0001,-0.0000,2.1428,flat,18.0,1,6.712
290,9.28,5.0806,2.8936,0.1797,0.0001,-0.0000,2.1660,flat,18.0,1,6.149
300,9.60,4.7574,3.3619,0.1797,0.0001,-0.0000,2.1873,flat,18.0,1,5.584
310,9.92,4.4243,3.8238,0.1797,0.0001,-0.0000,2.2070,flat,18.0,1,5.018
320,10.24,4.0820,4.2794,0.1797,0.0001,-0.0000,2.2256,flat,18.0,1,4.452
330,10.56,3.7313,4.7288,0.1797,0.0001,-0.0000,2.2436,flat,18.0,1,3.885
340,10.88,3.3725,5.1718,0.1797,0.0001,-0.0000,2.2613,flat,18.0,1,3.317
350,11.20,3.0058,5.6082,0.1797,0.0001,0.0000,2.2795,flat,18.0,1,2.750
360,11.52,2.6314,6.0375,0.1797,0.0001,0.0000,2.2992,flat,18.0,1,2.184
370,11.84,2.2486,6.4583,0.1797,0.0001,0.0000,2.3223,flat,18.0,1,1.618
380,12.16,1.8565,6.8676,0.1797,0.0001,0.0000,2.3522,flat,18.0,1,1.055
390,12.48,1.4939,7.2142,0.1798,-0.0001,0.0003,2.5201,flat,18.0,2,15.338
400,12.80,1.1229,7.4290,0.1799,0.0000,-0.0000,2.8635,flat,18.0,2,15.286
410,13.12,0.6570,7.5331,0.1799,0.0002,0.0000,-3.1132,flat,18.0,2,15.102
420,13.44,0.1498,7.4937,0.1799,0.0001,-0.0000,-2.8776,flat,18.0,2,14.787
430,13.76,-0.3538,7.3322,0.1799,0.0001,-0.0000,-2.7030,flat,18.0,2,14.382
440,14.08,-0.8337,7.0826,0.1799,0.0003,-0.0000,-2.5791,flat,18.0,2,13.920
450,14.40,-1.2885,6.7733,0.1798,0.0004,-0.0000,-2.4914,flat,18.0,2,13.425
460,14.72,-1.7217,6.4249,0.1797,0.0002,-0.0000,-2.4252,flat,18.0,2,12.910
470,15.04,-2.1321,6.0475,0.1797,0.0002,-0.0000,-2.3650,flat,18.0,2,12.384
480,15.36,-2.5223,5.6453,0.1797,0.0002,-0.0000,-2.3140,flat,18.0,2,11.848
490,15.68,-2.8937,5.2234,0.1797,0.0002,-0.0000,-2.2697,flat,18.0,2,11.304
500,16.00,-3.2487,4.7857,0.1797,0.0001,-0.0000,-2.2314,flat,18.0,2,10.755
510,16.32,-3.5889,4.3340,0.1797,0.0001,-0.0000,-2.1970,flat,18.0,2,10.201
520,16.64,-3.9152,3.8704,0.1797,0.0001,-0.0000,-2.1661,flat,18.0,2,9.644
530,16.96,-4.2286,3.3964,0.1797,0.0001,-0.0000,-2.1383,flat,18.0,2,9.083
540,17.28,-4.5298,2.9135,0.1797,0.0001,-0.0000,-2.1132,flat,18.0,2,8.520
550,17.60,-4.8198,2.4229,0.1797,0.0001,-0.0000,-2.0905,flat,18.0,2,7.955
560,17.92,-5.0995,1.9254,0.1797,0.0001,-0.0000,-2.0698,flat,18.0,2,7.389
570,18.24,-5.3694,1.4221,0.1797,0.0001,-0.0000,-2.0508,flat,18.0,2,6.821
580,18.56,-5.6303,0.9134,0.1797,0.0001,-0.0000,-2.0333,flat,18.0,2,6.252
590,18.88,-5.8827,0.4001,0.1797,0.0001,-0.0000,-2.0171,flat,18.0,2,5.682
600,19.20,-6.1271,-0.1174,0.1797,0.0001,-0.0000,-2.0018,flat,18.0,2,5.112
610,19.52,-6.3639,-0.6387,0.1797,0.0001,-0.0000,-1.9874,flat,18.0,2,4.541
620,19.84,-6.5933,-1.1634,0.1797,0.0000,-0.0000,-1.9734,flat,18.0,2,3.970
630,20.16,-6.8156,-1.6914,0.1797,0.0000,-0.0000,-1.9597,flat,18.0,2,3.399
640,20.48,-7.0306,-2.2223,0.1797,0.0000,-0.0000,-1.9458,flat,18.0,2,2.827
650,20.80,-7.2381,-2.7560,0.1797,0.0001,0.0000,-1.9312,flat,18.0,2,2.256
660,21.12,-7.4374,-3.2924,0.1797,0.0001,0.0000,-1.9146,flat,18.0,2,1.685
670,21.44,-7.6271,-3.8313,0.1797,0.0001,0.0000,-1.8933,flat,18.0,2,1.116
680,21.76,-7.7963,-4.3577,0.1798,0.0001,0.0001,-1.9466,flat,18.0,3,0.819
690,22.08,-7.9219,-4.7542,0.1798,-0.0003,-0.0000,-1.6603,flat,18.0,0,13.269
700,22.40,-7.9408,-5.1168,0.1799,0.0000,-0.0001,-1.2819,flat,18.0,0,13.299
710,22.72,-7.7985,-5.4966,0.1799,0.0002,-0.0003,-1.0324,flat,18.0,0,13.179
720,23.04,-7.5164,-5.8805,0.1799,0.0001,0.0000,-0.7977,flat,18.0,0,12.933
730,23.36,-7.1269,-6.2195,0.1799,0.0000,-0.0000,-0.6075,flat,18.0,0,12.587
740,23.68,-6.6662,-6.5020,0.1799,0.0001,-0.0000,-0.4389,flat,18.0,0,12.173
750,24.00,-6.1581,-6.7168,0.1799,0.0002,-0.0000,-0.2987,flat,18.0,0,11.711
760,24.32,-5.6208,-6.8664,0.1799,0.0004,-0.0000,-0.1845,flat,18.0,0,11.214
770,24.64,-5.0669,-6.9581,0.1798,0.0004,-0.0000,-0.0913,flat,18.0,0,10.693
780,24.96,-4.5043,-7.0005,0.1798,0.0003,-0.0000,-0.0151,flat,18.0,0,10.157
790,25.28,-3.9384,-7.0015,0.1797,0.0002,-0.0000,0.0455,flat,18.0,0,9.609
800,25.60,-3.3728,-6.9702,0.1797,0.0002,-0.0000,0.0920,flat,18.0,0,9.055
810,25.92,-2.8083,-6.9133,0.1797,0.0001,-0.0000,0.1293,flat,18.0,0,8.497
820,26.24,-2.2453,-6.8360,0.1797,0.0001,-0.0000,0.1604,flat,18.0,0,7.935
830,26.56,-1.6840,-6.7415,0.1797,0.0001,-0.0000,0.1871,flat,18.0,0,7.371
840,26.88,-1.1246,-6.6323,0.1797,0.0001,-0.0000,0.2103,flat,18.0,0,6.805
850,27.20,-0.5672,-6.5103,0.1797,0.0001,-0.0000,0.2307,flat,18.0,0,6.238
860,27.52,-0.0119,-6.3772,0.1797,0.0001,-0.0000,0.2490,flat,18.0,0,5.669
870,27.84,0.5413,-6.2340,0.1797,0.0001,-0.0000,0.2655,flat,18.0,0,5.100
880,28.16,1.0924,-6.0817,0.1797,0.0001,-0.0000,0.2808,flat,18.0,0,4.530
890,28.48,1.6413,-5.9211,0.1797,0.0001,-0.0000,0.2951,flat,18.0,0,3.959
900,28.80,2.1880,-5.7526,0.1797,0.0000,-0.0000,0.3089,flat,18.0,0,3.389
910,29.12,2.7323,-5.5766,0.1797,0.0000,0.0000,0.3226,flat,18.0,0,2.818
920,29.44,3.2739,-5.3932,0.1797,0.0000,0.0000,0.3369,flat,18.0,0,2.247
930,29.76,3.8124,-5.2021,0.1797,0.0001,0.0000,0.3527,flat,18.0,0,1.677
940,30.08,4.3463,-5.0023,0.1797,0.0001,0.0000,0.3726,flat,18.0,0,1.109
950,30.40,4.8416,-4.8084,0.1798,-0.0000,0.0002,0.4832,flat,18.0,1,12.898
960,30.72,5.2136,-4.5687,0.1799,0.0000,-0.0000,0.7522,flat,18.0,1,12.786
970,31.04,5.5288,-4.2070,0.1799,0.0000,-0.0000,0.9928,flat,18.0,1,12.555
980,31.36,5.7819,-3.7549,0.1799,0.0000,-0.0000,1.2120,flat,18.0,1,12.230
990,31.68,5.9483,-3.2410,0.1799,0.0001,-0.0000,1.4033,flat,18.0,1,11.827
1000,32.00,6.0220,-2.6947,0.1799,0.0001,-0.0000,1.5605,flat,18.0,1,11.365
1010,32.32,6.0135,-2.1387,0.1799,0.0003,-0.0000,1.6779,flat,18.0,1,10.865
1020,32.64,5.9432,-1.5842,0.1798,0.0004,-0.0000,1.7636,flat,18.0,1,10.342
1030,32.96,5.8271,-1.0350,0.1797,0.0003,-0.0000,1.8297,flat,18.0,1,9.805
1040,33.28,5.6756,-0.4922,0.1797,0.0002,-0.0000,1.8825,flat,18.0,1,9.258
1050,33.60,5.4961,0.0434,0.1797,0.0002,-0.0000,1.9246,flat,18.0,1,8.706
1060,33.92,5.2945,0.5720,0.1797,0.0001,-0.0000,1.9589,flat,18.0,1,8.150
1070,34.24,5.0751,1.0947,0.1797,0.0001,-0.0000,1.9885,flat,18.0,1,7.590
1080,34.56,4.8402,1.6118,0.1797,0.0001,-0.0000,2.0146,flat,18.0,1,7.028
1090,34.88,4.5920,2.1235,0.1797,0.0001,-0.0000,2.0378,flat,18.0,1,6.464
1100,35.20,4.3319,2.6300,0.1797,0.0001,-0.0000,2.0588,flat,18.0,1,5.898
1110,35.52,4.0613,3.1315,0.1797,0.0001,-0.0000,2.0779,flat,18.0,1,5.332
1120,35.84,3.7811,3.6282,0.1797,0.0001,-0.0000,2.0958,flat,18.0,1,4.764
1130,36.16,3.4920,4.1201,0.1797,0.0001,-0.0000,2.1126,flat,18.0,1,4.196
1140,36.48,3.1946,4.6072,0.1797,0.0001,-0.0000,2.1290,flat,18.0,1,3.628
1150,36.80,2.8893,5.0894,0.1797,0.0001,-0.0000,2.1452,flat,18.0,1,3.059
1160,37.12,2.5762,5.5664,0.1797,0.0001,0.0000,2.1619,flat,18.0,1,2.490
1170,37.44,2.2552,6.0374,0.1797,0.0001,0.0000,2.1802,flat,18.0,1,1.923
1180,37.76,1.9256,6.5010,0.1797,0.0001,0.0000,2.2020,flat,18.0,1,1.356
1190,38.08,1.5864,6.9536,0.1797,0.0001,0.0000,2.2332,flat,18.0,2,15.190
1200,38.40,1.2989,7.2522,0.1799,-0.0003,-0.0000,2.5660,flat,18.0,2,15.249
1210,38.72,0.9144,7.4559,0.1799,-0.0000,-0.0000,2.9079,flat,18.0,2,15.186
1220,39.04,0.4412,7.5411,0.1799,0.0000,-0.0000,-3.0710,flat,18.0,2,14.987
1230,39.36,-0.0652,7.4807,0.1799,0.0001,-0.0000,-2.8434,flat,18.0,2,14.661
1240,39.68,-0.5647,7.3013,0.1799,0.0001,-0.0000,-2.6765,flat,18.0,2,14.246
1250,40.00,-1.0389,7.0389,0.1799,0.0003,-0.0000,-2.5579,flat,18.0,2,13.780
1260,40.32,-1.4885,6.7197,0.1798,0.0003,-0.0000,-2.4755,flat,18.0,2,13.281
1270,40.64,-1.9158,6.3642,0.1797,0.0002,-0.0000,-2.4091,flat,18.0,2,12.765
1280,40.96,-2.3204,5.9800,0.1797,0.0002,-0.0000,-2.3501,flat,18.0,2,12.237
1290,41.28,-2.7046,5.5719,0.1797,0.0002,-0.0000,-2.2995,flat,18.0,2,11.700
1300,41.60,-3.0701,5.1450,0.1797,0.0002,-0.0000,-2.2561,flat,18.0,2,11.156
1310,41.92,-3.4194,4.7024,0.1797,0.0001,-0.0000,-2.2179,flat,18.0,2,10.607
1320,42.24,-3.7538,4.2461,0.1797,0.0001,-0.0000,-2.1837,flat,18.0,2,10.053
1330,42.56,-4.0742,3.7780,0.1797,0.0001,-0.0000,-2.1529,flat,18.0,2,9.495
1340,42.88,-4.3814,3.2999,0.1797,0.0001,-0.0000,-2.1253,flat,18.0,2,8.934
1350,43.20,-4.6765,2.8131,0.1797,0.0001,-0.0000,-2.1003,flat,18.0,2,8.371
1360,43.52,-4.9603,2.3186,0.1797,0.0001,-0.0000,-2.0776,flat,18.0,2,7.805
1370,43.84,-5.2336,1.8176,0.1797,0.0001,-0.0000,-2.0570,flat,18.0,2,7.239
1380,44.16,-5.4972,1.3108,0.1797,0.0001,-0.0000,-2.0381,flat,18.0,2,6.671
1390,44.48,-5.7517,0.7988,0.1797,0.0001,-0.0000,-2.0206,flat,18.0,2,6.102
1400,44.80,-5.9976,0.2823,0.1797,0.0001,-0.0000,-2.0044,flat,18.0,2,5.532
1410,45.12,-6.2355,-0.2382,0.1797,0.0001,-0.0000,-1.9891,flat,18.0,2,4.962
1420,45.44,-6.4657,-0.7625,0.1797,0.0001,-0.0000,-1.9746,flat,18.0,2,4.391
1430,45.76,-6.6884,-1.2901,0.1797,0.0000,-0.0000,-1.9606,flat,18.0,2,3.820
1440,46.08,-6.9038,-1.8209,0.1797,0.0000,-0.0000,-1.9466,flat,18.0,2,3.248
1450,46.40,-7.1119,-2.3545,0.1797,0.0001,0.0000,-1.9324,flat,18.0,2,2.677
1460,46.72,-7.3121,-2.8909,0.1797,0.0001,0.0000,-1.9172,flat,18.0,2,2.106
1470,47.04,-7.5039,-3.4299,0.1797,0.0001,0.0000,-1.8996,flat,18.0,2,1.535
1480,47.36,-7.6851,-3.9711,0.1797,0.0001,0.0000,-1.8758,flat,18.0,2,0.966
1490,47.68,-7.8427,-4.4772,0.1799,-0.0006,0.0003,-1.9017,flat,18.0,0,13.187
1500,48.00,-7.9413,-4.8263,0.1798,-0.0003,0.0000,-1.5406,rough,14.0,0,13.289
1510,48.32,-7.9120,-5.1996,0.1799,-0.0001,-0.0000,-1.1901,flat,18.0,0,13.274
1520,48.64,-7.7523,-5.5492,0.1798,0.0002,0.0000,-0.9996,rough,14.0,0,13.137
1530,48.96,-7.4713,-5.9119,0.1799,0.0001,-0.0000,-0.7864,flat,18.0,0,12.891
1540,49.28,-7.0773,-6.2480,0.1799,0.0000,-0.0000,-0.5972,flat,18.0,0,12.542
1550,49.60,-6.6134,-6.5267,0.1799,0.0001,-0.0000,-0.4297,flat,18.0,0,12.125
1560,49.92,-6.1031,-6.7374,0.1799,0.0002,-0.0000,-0.2909,flat,18.0,0,11.660
1570,50.24,-5.5645,-6.8830,0.1799,0.0004,-0.0000,-0.1778,flat,18.0,0,11.162
1580,50.56,-5.0099,-6.9712,0.1798,0.0004,-0.0000,-0.0855,flat,18.0,0,10.641
1590,50.88,-4.4470,-7.0104,0.1798,0.0003,-0.0000,-0.0100,flat,18.0,0,10.103
1600,51.20,-3.8811,-7.0086,0.1797,0.0002,-0.0000,0.0496,flat,18.0,0,9.555
1610,51.52,-3.3156,-6.9750,0.1797,0.0002,-0.0000,0.0958,flat,18.0,0,9.001
1620,51.84,-2.7512,-6.9160,0.1797,0.0001,-0.0000,0.1326,flat,18.0,0,8.443
1630,52.16,-2.1884,-6.8369,0.1797,0.0001,-0.0000,0.1635,flat,18.0,0,7.881
1640,52.48,-1.6274,-6.7407,0.1797,0.0001,-0.0000,0.1900,flat,18.0,0,7.317
1650,52.80,-1.0683,-6.6299,0.1797,0.0001,-0.0000,0.2130,flat,18.0,0,6.751
1660,53.12,-0.5112,-6.5064,0.1797,0.0001,-0.0000,0.2334,flat,18.0,0,6.184
1670,53.44,0.0437,-6.3718,0.1797,0.0001,-0.0000,0.2516,flat,18.0,0,5.615
1680,53.76,0.5965,-6.2271,0.1797,0.0001,-0.0000,0.2681,flat,18.0,0,5.046
1690,54.08,1.1472,-6.0735,0.1797,0.0001,-0.0000,0.2833,flat,18.0,0,4.476
1700,54.40,1.6957,-5.9114,0.1797,0.0001,-0.0000,0.2977,flat,18.0,0,3.905
1710,54.72,2.2420,-5.7416,0.1797,0.0000,-0.0000,0.3116,flat,18.0,0,3.334
1720,55.04,2.7858,-5.5642,0.1797,0.0000,0.0000,0.3254,flat,18.0,0,2.764
1730,55.36,3.3269,-5.3793,0.1797,0.0001,0.0000,0.3398,flat,18.0,0,2.193
1740,55.68,3.8646,-5.1865,0.1797,0.0001,0.0000,0.3559,flat,18.0,0,1.623
1750,56.00,4.3976,-4.9851,0.1797,0.0001,0.0000,0.3766,flat,18.0,0,1.055
1760,56.32,4.8802,-4.7915,0.1798,-0.0002,0.0001,0.5099,flat,18.0,1,12.893
1770,56.64,5.2447,-4.5392,0.1799,0.0000,-0.0000,0.7791,flat,18.0,1,12.769
1780,56.96,5.5548,-4.1663,0.1799,0.0000,-0.0000,1.0171,flat,18.0,1,12.526
1790,57.28,5.7996,-3.7063,0.1799,0.0000,-0.0000,1.2336,flat,18.0,1,12.192
1800,57.60,5.9563,-3.1876,0.1799,0.0000,-0.0000,1.4217,flat,18.0,1,11.782
1810,57.92,6.0206,-2.6394,0.1799,0.0001,-0.0000,1.5747,flat,18.0,1,11.315
1820,58.24,6.0048,-2.0832,0.1799,0.0004,-0.0000,1.6878,flat,18.0,1,10.811
1830,58.56,5.9293,-1.5291,0.1798,0.0004,-0.0000,1.7710,flat,18.0,1,10.287
1840,58.88,5.8092,-0.9805,0.1797,0.0002,-0.0000,1.8354,flat,18.0,1,9.748
1850,59.20,5.6547,-0.4384,0.1797,0.0002,-0.0000,1.8870,flat,18.0,1,9.201
1860,59.52,5.4727,0.0965,0.1797,0.0001,-0.0000,1.9280,flat,18.0,1,8.648
1870,59.84,5.2694,0.6246,0.1797,0.0001,-0.0000,1.9618,flat,18.0,1,8.092
1880,60.16,5.0484,1.1468,0.1797,0.0001,-0.0000,1.9910,flat,18.0,1,7.532
1890,60.48,4.8123,1.6634,0.1797,0.0001,-0.0000,2.0167,flat,18.0,1,6.969
1900,60.80,4.5629,2.1746,0.1797,0.0001,-0.0000,2.0397,flat,18.0,1,6.405
1910,61.12,4.3019,2.6807,0.1797,0.0001,-0.0000,2.0604,flat,18.0,1,5.839
1920,61.44,4.0305,3.1819,0.1797,0.0001,-0.0000,2.0794,flat,18.0,1,5.273
1930,61.76,3.7495,3.6782,0.1797,0.0001,-0.0000,2.0971,flat,18.0,1,4.705
1940,62.08,3.4598,4.1697,0.1797,0.0001,-0.0000,2.1139,flat,18.0,1,4.137
1950,62.40,3.1618,4.6565,0.1797,0.0001,-0.0000,2.1302,flat,18.0,1,3.568
1960,62.72,2.8559,5.1383,0.1797,0.0001,0.0000,2.1464,flat,18.0,1,3.000
1970,63.04,2.5422,5.6148,0.1797,0.0001,0.0000,2.1632,flat,18.0,1,2.431
1980,63.36,2.2205,6.0853,0.1797,0.0001,0.0000,2.1817,flat,18.0,1,1.864
1990,63.68,1.8903,6.5482,0.1797,0.0001,0.0000,2.2041,flat,18.0,1,1.298
2000,64.00,1.5534,6.9969,0.1797,0.0001,0.0002,2.2528,flat,18.0,2,15.203
2010,64.32,1.2642,7.2774,0.1799,-0.0002,-0.0000,2.6010,flat,18.0,2,15.248
2020,64.64,0.8687,7.4723,0.1799,-0.0000,-0.0000,2.9403,flat,18.0,2,15.173
2030,64.96,0.3897,7.5430,0.1799,0.0000,-0.0000,-3.0445,flat,18.0,2,14.960
2040,65.28,-0.1175,7.4695,0.1799,0.0000,-0.0000,-2.8227,flat,18.0,2,14.623
2050,65.60,-0.6148,7.2800,0.1799,0.0001,-0.0000,-2.6629,flat,18.0,2,14.202
2060,65.92,-1.0862,7.0110,0.1799,0.0003,-0.0000,-2.5479,flat,18.0,2,13.732
2070,66.24,-1.5337,6.6873,0.1798,0.0003,-0.0000,-2.4685,flat,18.0,2,13.231
2080,66.56,-1.9586,6.3288,0.1797,0.0002,-0.0000,-2.4027,flat,18.0,2,12.714
2090,66.88,-2.3610,5.9419,0.1797,0.0002,-0.0000,-2.3446,flat,18.0,2,12.185
2100,67.20,-2.7432,5.5317,0.1797,0.0002,-0.0000,-2.2947,flat,18.0,2,11.647
2110,67.52,-3.1070,5.1031,0.1797,0.0001,-0.0000,-2.2520,flat,18.0,2,11.103
2120,67.84,-3.4547,4.6589,0.1797,0.0001,-0.0000,-2.2142,flat,18.0,2,10.553
2130,68.16,-3.7876,4.2014,0.1797,0.0001,-0.0000,-2.1803,flat,18.0,2,9.998
2140,68.48,-4.1065,3.7322,0.1797,0.0001,-0.0000,-2.1499,flat,18.0,2,9.440
2150,68.80,-4.4125,3.2531,0.1797,0.0001,-0.0000,-2.1225,flat,18.0,2,8.879
2160,69.12,-4.7063,2.7654,0.1797,0.0001,-0.0000,-2.0978,flat,18.0,2,8.315
2170,69.44,-4.9889,2.2702,0.1797,0.0001,-0.0000,-2.0753,flat,18.0,2,7.750
2180,69.76,-5.2612,1.7686,0.1797,0.0001,-0.0000,-2.0549,flat,18.0,2,7.183
2190,70.08,-5.5237,1.2612,0.1797,0.0001,-0.0000,-2.0361,flat,18.0,2,6.615
2200,70.40,-5.7773,0.7487,0.1797,0.0001,-0.0000,-2.0188,flat,18.0,2,6.046
2210,70.72,-6.0223,0.2317,0.1797,0.0001,-0.0000,-2.0026,flat,18.0,2,5.476
2220,71.04,-6.2593,-0.2893,0.1797,0.0001,-0.0000,-1.9875,flat,18.0,2,4.906
2230,71.36,-6.4886,-0.8139,0.1797,0.0001,-0.0000,-1.9730,flat,18.0,2,4.335
2240,71.68,-6.7106,-1.3419,0.1797,0.0000,-0.0000,-1.9590,flat,18.0,2,3.763
2250,72.00,-6.9252,-1.8730,0.1797,0.0000,-0.0000,-1.9451,flat,18.0,2,3.192
2260,72.32,-7.1323,-2.4070,0.1797,0.0001,0.0000,-1.9308,flat,18.0,2,2.621
2270,72.64,-7.3317,-2.9436,0.1797,0.0001,0.0000,-1.9154,flat,18.0,2,2.049
2280,72.96,-7.5224,-3.4829,0.1797,0.0001,0.0000,-1.8974,flat,18.0,2,1.479
2290,73.28,-7.7024,-4.0244,0.1797,0.0001,0.0000,-1.8726,flat,18.0,2,0.910
2300,73.60,-7.8556,-4.5187,0.1799,-0.0006,0.0003,-1.8686,flat,18.0,0,13.200
2310,73.92,-7.9450,-4.8552,0.1798,-0.0002,0.0000,-1.5062,flat,18.0,0,13.294
2320,74.24,-7.8979,-5.2472,0.1799,-0.0002,-0.0000,-1.1533,flat,18.0,0,13.263
2330,74.56,-7.7074,-5.6160,0.1798,0.0001,-0.0001,-0.9501,flat,18.0,0,13.098
2340,74.88,-7.3856,-5.9867,0.1799,0.0001,-0.0000,-0.7353,flat,18.0,0,12.814
2350,75.20,-6.9710,-6.3099,0.1799,0.0000,-0.0000,-0.5510,flat,18.0,0,12.445
2360,75.52,-6.4930,-6.5713,0.1799,0.0001,-0.0000,-0.3915,flat,18.0,0,12.014
2370,75.84,-5.9740,-6.7649,0.1799,0.0002,-0.0000,-0.2601,flat,18.0,0,11.539
2380,76.16,-5.4303,-6.8953,0.1798,0.0004,-0.0000,-0.1531,flat,18.0,0,11.034
2390,76.48,-4.8730,-6.9706,0.1798,0.0004,-0.0000,-0.0657,flat,18.0,0,10.507
2400,76.80,-4.3089,-6.9992,0.1798,0.0003,-0.0000,0.0058,flat,18.0,0,9.967
2410,77.12,-3.7430,-6.9891,0.1797,0.0002,-0.0000,0.0610,flat,18.0,0,9.417
2420,77.44,-3.1775,-6.9491,0.1797,0.0002,-0.0000,0.1045,flat,18.0,0,8.862
2430,77.76,-2.6135,-6.8854,0.1797,0.0001,-0.0000,0.1396,flat,18.0,0,8.302
2440,78.08,-2.0510,-6.8025,0.1797,0.0001,-0.0000,0.1692,flat,18.0,0,7.740
2450,78.40,-1.4903,-6.7031,0.1797,0.0001,-0.0000,0.1947,flat,18.0,0,7.175
2460,78.72,-0.9315,-6.5898,0.1797,0.0001,-0.0000,0.2170,flat,18.0,0,6.609
2470,79.04,-0.3748,-6.4641,0.1797,0.0001,-0.0000,0.2367,flat,18.0,0,6.041
2480,79.36,0.1799,-6.3277,0.1797,0.0001,-0.0000,0.2544,flat,18.0,0,5.472
2490,79.68,0.7324,-6.1815,0.1797,0.0001,-0.0000,0.2705,flat,18.0,0,4.902
2500,80.00,1.2828,-6.0265,0.1797,0.0001,-0.0000,0.2855,flat,18.0,0,4.332
2510,80.32,1.8310,-5.8633,0.1797,0.0001,-0.0000,0.2997,flat,18.0,0,3.762
2520,80.64,2.3769,-5.6924,0.1797,0.0000,-0.0000,0.3134,flat,18.0,0,3.191
2530,80.96,2.9204,-5.5140,0.1797,0.0000,0.0000,0.3273,flat,18.0,0,2.620
2540,81.28,3.4610,-5.3281,0.1797,0.0001,0.0000,0.3419,flat,18.0,0,2.050
2550,81.60,3.9981,-5.1341,0.1797,0.0001,0.0000,0.3588,flat,18.0,0,1.480
2560,81.92,4.5298,-4.9311,0.1797,0.0001,0.0000,0.3816,flat,18.0,0,0.913
2570,82.24,4.9729,-4.7377,0.1799,-0.0003,0.0000,0.5841,flat,18.0,1,12.870
2580,82.56,5.3000,-4.4699,0.1799,0.0000,0.0001,0.8329,flat,18.0,1,12.722
2590,82.88,5.5950,-4.0793,0.1799,0.0000,-0.0000,1.0657,flat,18.0,1,12.460
2600,83.20,5.8220,-3.6040,0.1799,0.0001,0.0000,1.2754,flat,18.0,1,12.107
2610,83.52,5.9589,-3.0768,0.1799,0.0001,-0.0000,1.4560,flat,18.0,1,11.682
2620,83.84,6.0054,-2.5255,0.1799,0.0001,-0.0000,1.6011,flat,18.0,1,11.206
2630,84.16,5.9758,-1.9692,0.1798,0.0004,-0.0000,1.7063,flat,18.0,1,10.697
2640,84.48,5.8904,-1.4159,0.1798,0.0004,-0.0000,1.7848,flat,18.0,1,10.169
2650,84.80,5.7630,-0.8684,0.1797,0.0002,-0.0000,1.8460,flat,18.0,1,9.628
2660,85.12,5.6029,-0.3275,0.1797,0.0002,-0.0000,1.8953,flat,18.0,1,9.079
2670,85.44,5.4166,0.2060,0.1797,0.0001,-0.0000,1.9343,flat,18.0,1,8.526
2680,85.76,5.2101,0.7332,0.1797,0.0001,-0.0000,1.9669,flat,18.0,1,7.968
2690,86.08,4.9864,1.2545,0.1797,0.0001,-0.0000,1.9953,flat,18.0,1,7.407
2700,86.40,4.7481,1.7703,0.1797,0.0001,-0.0000,2.0204,flat,18.0,1,6.845
2710,86.72,4.4969,2.2808,0.1797,0.0001,-0.0000,2.0428,flat,18.0,1,6.280
2720,87.04,4.2343,2.7863,0.1797,0.0001,-0.0000,2.0631,flat,18.0,1,5.714
2730,87.36,3.9616,3.2868,0.1797,0.0001,-0.0000,2.0817,flat,18.0,1,5.147
2740,87.68,3.6794,3.7825,0.1797,0.0001,-0.0000,2.0992,flat,18.0,1,4.579
2750,88.00,3.3887,4.2735,0.1797,0.0001,-0.0000,2.1158,flat,18.0,1,4.011
2760,88.32,3.0898,4.7597,0.1797,0.0001,-0.0000,2.1320,flat,18.0,1,3.443
2770,88.64,2.7830,5.2409,0.1797,0.0001,0.0000,2.1483,flat,18.0,1,2.874
2780,88.96,2.4684,5.7167,0.1797,0.0001,0.0000,2.1654,flat,18.0,1,2.306
2790,89.28,2.1457,6.1863,0.1797,0.0001,0.0000,2.1845,flat,18.0,1,1.738
2800,89.60,1.8142,6.6477,0.1797,0.0001,0.0000,2.2083,flat,18.0,1,1.173
2810,89.92,1.4902,7.0771,0.1798,0.0000,0.0004,2.3145,flat,18.0,2,15.227
2820,90.24,1.1861,7.3318,0.1799,-0.0001,-0.0000,2.6704,flat,18.0,2,15.245
2830,90.56,0.7700,7.5067,0.1799,0.0000,-0.0000,3.0038,flat,18.0,2,15.144
2840,90.88,0.2813,7.5480,0.1799,0.0000,-0.0000,-2.9944,flat,18.0,2,14.905
2850,91.20,-0.2261,7.4484,0.1799,0.0001,-0.0000,-2.7862,flat,18.0,2,14.548
2860,91.52,-0.7187,7.2403,0.1799,0.0001,-0.0000,-2.6366,flat,18.0,2,14.115
2870,91.84,-1.1847,6.9586,0.1798,0.0004,-0.0000,-2.5286,flat,18.0,2,13.638
2880,92.16,-1.6276,6.6266,0.1798,0.0003,-0.0000,-2.4540,flat,18.0,2,13.133
2890,92.48,-2.0478,6.2619,0.1797,0.0002,-0.0000,-2.3897,flat,18.0,2,12.613
2900,92.80,-2.4458,5.8696,0.1797,0.0002,-0.0000,-2.3336,flat,18.0,2,12.082
2910,93.12,-2.8239,5.4551,0.1797,0.0002,-0.0000,-2.2850,flat,18.0,2,11.543
2920,93.44,-3.1840,5.0231,0.1797,0.0001,-0.0000,-2.2435,flat,18.0,2,10.997
2930,93.76,-3.5284,4.5759,0.1797,0.0001,-0.0000,-2.2064,flat,18.0,2,10.446
2940,94.08,-3.8581,4.1156,0.1797,0.0001,-0.0000,-2.1732,flat,18.0,2,9.891
2950,94.40,-4.1740,3.6441,0.1797,0.0001,-0.0000,-2.1434,flat,18.0,2,9.332
2960,94.72,-4.4771,3.1630,0.1797,0.0001,-0.0000,-2.1166,flat,18.0,2,8.770
2970,95.04,-4.7683,2.6735,0.1797,0.0001,-0.0000,-2.0923,flat,18.0,2,8.207
2980,95.36,-5.0484,2.1767,0.1797,0.0001,-0.0000,-2.0703,flat,18.0,2,7.641
2990,95.68,-5.3182,1.6736,0.1797,0.0001,-0.0000,-2.0502,flat,18.0,2,7.074
3000,96.00,-5.5785,1.1649,0.1797,0.0001,-0.0000,-2.0317,flat,18.0,2,6.505
3010,96.32,-5.8299,0.6513,0.1797,0.0001,-0.0000,-2.0146,flat,18.0,2,5.936
3020,96.64,-6.0729,0.1333,0.1797,0.0001,-0.0000,-1.9987,flat,18.0,2,5.366
3030,96.96,-6.3079,-0.3886,0.1797,0.0001,-0.0000,-1.9837,flat,18.0,2,4.796
3040,97.28,-6.5353,-0.9142,0.1797,0.0001,-0.0000,-1.9694,flat,18.0,2,4.225
3050,97.60,-6.7554,-1.4430,0.1797,0.0000,-0.0000,-1.9554,flat,18.0,2,3.653
3060,97.92,-6.9681,-1.9748,0.1797,0.0000,-0.0000,-1.9415,flat,18.0,2,3.082
3070,98.24,-7.1733,-2.5095,0.1797,0.0001,0.0000,-1.9271,flat,18.0,2,2.511
3080,98.56,-7.3706,-3.0469,0.1797,0.0001,0.0000,-1.9114,flat,18.0,2,1.940
3090,98.88,-7.5590,-3.5868,0.1797,0.0001,0.0000,-1.8926,flat,18.0,2,1.369
3100,99.20,-7.7360,-4.1286,0.1797,0.0001,0.0000,-1.8653,flat,18.0,2,0.802
3110,99.52,-7.8727,-4.5980,0.1798,-0.0002,0.0006,-1.7901,rough,14.0,0,13.218
3120,99.84,-7.9372,-4.9166,0.1798,-0.0002,-0.0001,-1.4633,flat,18.0,0,13.288
3130,100.16,-7.8664,-5.3209,0.1799,-0.0001,-0.0001,-1.1087,flat,18.0,0,13.235
3140,100.48,-7.6457,-5.6988,0.1799,-0.0000,-0.0000,-0.8942,flat,18.0,0,13.044
3150,100.80,-7.2982,-6.0589,0.1799,0.0000,-0.0000,-0.6907,flat,18.0,0,12.736
3160,101.12,-6.8665,-6.3693,0.1799,0.0000,-0.0000,-0.5113,flat,18.0,0,12.350
3170,101.44,-6.3771,-6.6149,0.1799,0.0001,-0.0000,-0.3587,flat,18.0,0,11.907
3180,101.76,-5.8511,-6.7933,0.1799,0.0003,-0.0000,-0.2335,flat,18.0,0,11.424
3190,102.08,-5.3036,-6.9103,0.1798,0.0004,-0.0000,-0.1316,flat,18.0,0,10.913
3200,102.40,-4.7442,-6.9742,0.1798,0.0004,-0.0000,-0.0483,flat,18.0,0,10.383
3210,102.72,-4.1791,-6.9934,0.1797,0.0003,-0.0000,0.0197,flat,18.0,0,9.840
3220,103.04,-3.6134,-6.9759,0.1797,0.0002,-0.0000,0.0713,flat,18.0,0,9.289
3230,103.36,-3.0481,-6.9303,0.1797,0.0001,-0.0000,0.1126,flat,18.0,0,8.732
3240,103.68,-2.4844,-6.8621,0.1797,0.0001,-0.0000,0.1462,flat,18.0,0,8.172
3250,104.00,-1.9222,-6.7755,0.1797,0.0001,-0.0000,0.1748,flat,18.0,0,7.609
3260,104.32,-1.3618,-6.6731,0.1797,0.0001,-0.0000,0.1995,flat,18.0,0,7.044
3270,104.64,-0.8034,-6.5571,0.1797,0.0001,-0.0000,0.2211,flat,18.0,0,6.477
3280,104.96,-0.2471,-6.4292,0.1797,0.0001,-0.0000,0.2403,flat,18.0,0,5.909
3290,105.28,0.3071,-6.2908,0.1797,0.0001,-0.0000,0.2576,flat,18.0,0,5.340
3300,105.60,0.8593,-6.1428,0.1797,0.0001,-0.0000,0.2734,flat,18.0,0,4.770
3310,105.92,1.4093,-5.9863,0.1797,0.0001,-0.0000,0.2881,flat,18.0,0,4.200
3320,106.24,1.9571,-5.8217,0.1797,0.0000,-0.0000,0.3022,flat,18.0,0,3.629
3330,106.56,2.5026,-5.6494,0.1797,0.0000,-0.0000,0.3159,flat,18.0,0,3.058
3340,106.88,3.0456,-5.4696,0.1797,0.0000,0.0000,0.3298,flat,18.0,0,2.487
3350,107.20,3.5856,-5.2823,0.1797,0.0001,0.0000,0.3448,flat,18.0,0,1.917
3360,107.52,4.1218,-5.0868,0.1797,0.0001,0.0000,0.3626,flat,18.0,0,1.348
3370,107.84,4.6519,-4.8818,0.1797,0.0001,0.0000,0.3881,flat,18.0,1,12.913
3380,108.16,5.0638,-4.6831,0.1799,-0.0001,0.0000,0.6405,flat,18.0,1,12.846
3390,108.48,5.3979,-4.3695,0.1799,0.0000,-0.0000,0.8971,flat,18.0,1,12.661
3400,108.80,5.6802,-3.9508,0.1799,0.0000,-0.0000,1.1258,flat,18.0,1,12.372
3410,109.12,5.8837,-3.4585,0.1799,0.0001,-0.0000,1.3289,flat,18.0,1,11.999
3420,109.44,5.9949,-2.9220,0.1799,0.0001,-0.0000,1.5005,flat,18.0,1,11.558
3430,109.76,6.0179,-2.3679,0.1799,0.0002,-0.0000,1.6345,flat,18.0,1,11.071
3440,110.08,5.9707,-1.8120,0.1798,0.0004,-0.0000,1.7310,flat,18.0,1,10.555
3450,110.40,5.8720,-1.2604,0.1798,0.0003,-0.0000,1.8041,flat,18.0,1,10.023
3460,110.72,5.7342,-0.7148,0.1797,0.0002,-0.0000,1.8617,flat,18.0,1,9.480
3470,111.04,5.5658,-0.1759,0.1797,0.0002,-0.0000,1.9084,flat,18.0,1,8.930
3480,111.36,5.3728,0.3553,0.1797,0.0001,-0.0000,1.9449,flat,18.0,1,8.375
3490,111.68,5.1606,0.8806,0.1797,0.0001,-0.0000,1.9763,flat,18.0,1,7.817
3500,112.00,4.9321,1.4001,0.1797,0.0001,-0.0000,2.0037,flat,18.0,1,7.256
3510,112.32,4.6895,1.9141,0.1797,0.0001,-0.0000,2.0280,flat,18.0,1,6.692
3520,112.64,4.4344,2.4229,0.1797,0.0001,-0.0000,2.0498,flat,18.0,1,6.127
3530,112.96,4.1683,2.9266,0.1797,0.0001,-0.0000,2.0696,flat,18.0,1,5.561
3540,113.28,3.8922,3.4255,0.1797,0.0001,-0.0000,2.0879,flat,18.0,1,4.994
3550,113.60,3.6070,3.9195,0.1797,0.0001,-0.0000,2.1051,flat,18.0,1,4.426
3560,113.92,3.3133,4.4088,0.1797,0.0001,-0.0000,2.1216,flat,18.0,1,3.858
3570,114.24,3.0116,4.8933,0.1797,0.0001,-0.0000,2.1378,flat,18.0,1,3.289
3580,114.56,2.7020,5.3726,0.1797,0.0001,0.0000,2.1542,flat,18.0,1,2.720
3590,114.88,2.3846,5.8464,0.1797,0.0001,0.0000,2.1717,flat,18.0,1,2.152
3600,115.20,2.0590,6.3135,0.1797,0.0001,0.0000,2.1917,flat,18.0,1,1.585
3610,115.52,1.7242,6.7716,0.1797,0.0001,0.0000,2.2178,flat,18.0,1,1.021
3620,115.84,1.4206,7.1503,0.1798,-0.0002,0.0002,2.4226,flat,18.0,2,15.242
3630,116.16,1.0832,7.3829,0.1799,-0.0000,-0.0001,2.7735,flat,18.0,2,15.226
3640,116.48,0.6394,7.5228,0.1799,0.0000,-0.0000,3.0961,flat,18.0,2,15.083
3650,116.80,0.1400,7.5197,0.1799,0.0001,-0.0000,-2.9264,flat,18.0,2,14.804
3660,117.12,-0.3657,7.3840,0.1799,0.0001,-0.0000,-2.7370,flat,18.0,2,14.420
3670,117.44,-0.8508,7.1510,0.1799,0.0002,-0.0000,-2.6013,flat,18.0,2,13.971
3680,117.76,-1.3094,6.8523,0.1798,0.0004,-0.0000,-2.5041,flat,18.0,2,13.484
3690,118.08,-1.7461,6.5096,0.1798,0.0003,-0.0000,-2.4351,flat,18.0,2,12.973
3700,118.40,-2.1596,6.1366,0.1797,0.0002,-0.0000,-2.3726,flat,18.0,2,12.450
3710,118.72,-2.5520,5.7375,0.1797,0.0002,-0.0000,-2.3192,flat,18.0,2,11.916
3720,119.04,-2.9247,5.3176,0.1797,0.0002,-0.0000,-2.2728,flat,18.0,2,11.375
3730,119.36,-3.2804,4.8811,0.1797,0.0001,-0.0000,-2.2329,flat,18.0,2,10.828
3740,119.68,-3.6207,4.4301,0.1797,0.0001,-0.0000,-2.1971,flat,18.0,2,10.275
3750,120.00,-3.9466,3.9666,0.1797,0.0001,-0.0000,-2.1650,flat,18.0,2,9.719
3760,120.32,-4.2591,3.4924,0.1797,0.0001,-0.0000,-2.1361,flat,18.0,2,9.159
3770,120.64,-4.5590,3.0089,0.1797,0.0001,-0.0000,-2.1101,flat,18.0,2,8.597
3780,120.96,-4.8472,2.5174,0.1797,0.0001,-0.0000,-2.0866,flat,18.0,2,8.032
3790,121.28,-5.1247,2.0190,0.1797,0.0001,-0.0000,-2.0651,flat,18.0,2,7.466
3800,121.60,-5.3922,1.5144,0.1797,0.0001,-0.0000,-2.0456,flat,18.0,2,6.899
3810,121.92,-5.6503,1.0045,0.1797,0.0001,-0.0000,-2.0275,flat,18.0,2,6.330
3820,122.24,-5.8996,0.4898,0.1797,0.0001,-0.0000,-2.0109,flat,18.0,2,5.760
3830,122.56,-6.1407,-0.0292,0.1797,0.0001,-0.0000,-1.9952,flat,18.0,2,5.190
3840,122.88,-6.3740,-0.5520,0.1797,0.0001,-0.0000,-1.9804,flat,18.0,2,4.620
3850,123.20,-6.5998,-1.0783,0.1797,0.0001,-0.0000,-1.9662,flat,18.0,2,4.049
3860,123.52,-6.8182,-1.6078,0.1797,0.0000,-0.0000,-1.9523,flat,18.0,2,3.477
3870,123.84,-7.0292,-2.1403,0.1797,0.0000,-0.0000,-1.9383,flat,18.0,2,2.906
3880,124.16,-7.2327,-2.6756,0.1797,0.0001,0.0000,-1.9236,flat,18.0,2,2.334
3890,124.48,-7.4281,-3.2135,0.1797,0.0001,0.0000,-1.9072,flat,18.0,2,1.764
3900,124.80,-7.6139,-3.7539,0.1797,0.0001,0.0000,-1.8866,flat,18.0,2,1.194
3910,125.12,-7.7802,-4.2861,0.1797,0.0000,0.0001,-1.9183,flat,18.0,3,0.879
3920,125.44,-7.9132,-4.7063,0.1799,-0.0004,0.0002,-1.6878,rough,14.0,0,13.259
3930,125.76,-7.9434,-5.0424,0.1799,0.0000,-0.0001,-1.3265,flat,18.0,0,13.298
3940,126.08,-7.8164,-5.4326,0.1799,0.0000,0.0002,-1.0543,rough,14.0,0,13.193
3950,126.40,-7.5530,-5.8128,0.1799,-0.0000,-0.0000,-0.8254,flat,18.0,0,12.962
3960,126.72,-7.1753,-6.1585,0.1799,0.0000,-0.0000,-0.6324,flat,18.0,0,12.627
3970,127.04,-6.7229,-6.4499,0.1799,0.0000,-0.0000,-0.4606,flat,18.0,0,12.221
3980,127.36,-6.2202,-6.6743,0.1799,0.0001,-0.0000,-0.3170,flat,18.0,0,11.764
3990,127.68,-5.6861,-6.8328,0.1799,0.0003,-0.0000,-0.1997,flat,18.0,0,11.271
4000,128.00,-5.1340,-6.9324,0.1798,0.0004,-0.0000,-0.1040,flat,18.0,0,10.753
4010,128.32,-4.5723,-6.9817,0.1798,0.0004,-0.0000,-0.0258,flat,18.0,0,10.218
4020,128.64,-4.0065,-6.9886,0.1797,0.0002,-0.0000,0.0372,flat,18.0,0,9.671
4030,128.96,-3.4409,-6.9618,0.1797,0.0002,-0.0000,0.0850,flat,18.0,0,9.119
4040,129.28,-2.8761,-6.9088,0.1797,0.0001,-0.0000,0.1234,flat,18.0,0,8.561
4050,129.60,-2.3128,-6.8347,0.1797,0.0001,-0.0000,0.1553,flat,18.0,0,8.000
4060,129.92,-1.7511,-6.7431,0.1797,0.0001,-0.0000,0.1825,flat,18.0,0,7.436
4070,130.24,-1.1913,-6.6365,0.1797,0.0001,-0.0000,0.2062,flat,18.0,0,6.870
4080,130.56,-0.6335,-6.5168,0.1797,0.0001,-0.0000,0.2269,flat,18.0,0,6.303
4090,130.88,-0.0778,-6.3857,0.1797,0.0001,-0.0000,0.2455,flat,18.0,0,5.734
4100,131.20,0.4759,-6.2444,0.1797,0.0001,-0.0000,0.2623,flat,18.0,0,5.165
4110,131.52,1.0274,-6.0940,0.1797,0.0001,-0.0000,0.2777,flat,18.0,0,4.595
4120,131.84,1.5768,-5.9351,0.1797,0.0001,-0.0000,0.2921,flat,18.0,0,4.025
4130,132.16,2.1240,-5.7683,0.1797,0.0000,-0.0000,0.3060,flat,18.0,0,3.454
4140,132.48,2.6688,-5.5939,0.1797,0.0000,-0.0000,0.3197,flat,18.0,0,2.883
4150,132.80,3.2110,-5.4120,0.1797,0.0000,0.0000,0.3339,flat,18.0,0,2.312
4160,133.12,3.7501,-5.2225,0.1797,0.0001,0.0000,0.3495,flat,18.0,0,1.742
4170,133.44,4.2849,-5.0245,0.1797,0.0001,0.0000,0.3687,flat,18.0,0,1.174
4180,133.76,4.7923,-4.8291,0.1798,0.0001,0.0003,0.4566,flat,18.0,1,12.903
4190,134.08,5.1722,-4.6017,0.1799,-0.0000,-0.0000,0.7242,flat,18.0,1,12.804
4200,134.40,5.4925,-4.2518,0.1799,0.0000,-0.0000,0.9679,flat,18.0,1,12.584
4210,134.72,5.7538,-3.8081,0.1799,0.0000,-0.0000,1.1897,flat,18.0,1,12.268
4220,135.04,5.9301,-3.2993,0.1799,0.0001,-0.0000,1.3840,flat,18.0,1,11.873
4230,135.36,6.0136,-2.7552,0.1799,0.0001,-0.0000,1.5451,flat,18.0,1,11.416
4240,135.68,6.0132,-2.1995,0.1799,0.0003,-0.0000,1.6668,flat,18.0,1,10.919
4250,136.00,5.9488,-1.6446,0.1798,0.0004,-0.0000,1.7552,flat,18.0,1,10.397
4260,136.32,5.8372,-1.0946,0.1798,0.0003,-0.0000,1.8230,flat,18.0,1,9.862
4270,136.64,5.6893,-0.5511,0.1797,0.0002,-0.0000,1.8770,flat,18.0,1,9.316
4280,136.96,5.5127,-0.0146,0.1797,0.0002,-0.0000,1.9202,flat,18.0,1,8.764
4290,137.28,5.3135,0.5147,0.1797,0.0001,-0.0000,1.9551,flat,18.0,1,8.208
4300,137.60,5.0960,1.0382,0.1797,0.0001,-0.0000,1.9852,flat,18.0,1,7.649
4310,137.92,4.8629,1.5560,0.1797,0.0001,-0.0000,2.0116,flat,18.0,1,7.087
4320,138.24,4.6162,2.0683,0.1797,0.0001,-0.0000,2.0351,flat,18.0,1,6.523
4330,138.56,4.3575,2.5755,0.1797,0.0001,-0.0000,2.0562,flat,18.0,1,5.958
4340,138.88,4.0881,3.0776,0.1797,0.0001,-0.0000,2.0756,flat,18.0,1,5.391
4350,139.20,3.8091,3.5749,0.1797,0.0001,-0.0000,2.0935,flat,18.0,1,4.824
4360,139.52,3.5211,4.0675,0.1797,0.0001,-0.0000,2.1105,flat,18.0,1,4.256
4370,139.84,3.2249,4.5552,0.1797,0.0001,-0.0000,2.1268,flat,18.0,1,3.687
4380,140.16,2.9206,5.0381,0.1797,0.0001,-0.0000,2.1430,flat,18.0,1,3.119
4390,140.48,2.6085,5.5157,0.1797,0.0001,0.0000,2.1596,flat,18.0,1,2.550
4400,140.80,2.2886,5.9875,0.1797,0.0001,0.0000,2.1777,flat,18.0,1,1.982
4410,141.12,1.9602,6.4522,0.1797,0.0001,0.0000,2.1989,flat,18.0,1,1.416
4420,141.44,1.6222,6.9065,0.1797,0.0001,0.0000,2.2286,flat,18.0,1,0.853
4430,141.76,1.3323,7.2256,0.1799,-0.0003,0.0000,2.5300,flat,18.0,2,15.248
4440,142.08,0.9595,7.4377,0.1799,-0.0000,-0.0000,2.8744,flat,18.0,2,15.197
4450,142.40,0.4928,7.5374,0.1799,0.0000,-0.0000,-3.0987,flat,18.0,2,15.013
4460,142.72,-0.0126,7.4912,0.1799,0.0000,-0.0000,-2.8619,flat,18.0,2,14.698
4470,143.04,-0.5139,7.3222,0.1799,0.0001,-0.0000,-2.6911,flat,18.0,2,14.290
4480,143.36,-0.9909,7.0668,0.1799,0.0003,-0.0000,-2.5685,flat,18.0,2,13.828
4490,143.68,-1.4427,6.7525,0.1798,0.0004,-0.0000,-2.4826,flat,18.0,2,13.332
4500,144.00,-1.8725,6.4001,0.1797,0.0002,-0.0000,-2.4159,flat,18.0,2,12.817
4510,144.32,-2.2793,6.0188,0.1797,0.0002,-0.0000,-2.3557,flat,18.0,2,12.291
4520,144.64,-2.6656,5.6129,0.1797,0.0002,-0.0000,-2.3044,flat,18.0,2,11.754
4530,144.96,-3.0329,5.1877,0.1797,0.0002,-0.0000,-2.2604,flat,18.0,2,11.211
4540,145.28,-3.3839,4.7466,0.1797,0.0001,-0.0000,-2.2217,flat,18.0,2,10.662
4550,145.60,-3.7198,4.2917,0.1797,0.0001,-0.0000,-2.1871,flat,18.0,2,10.108
4560,145.92,-4.0416,3.8248,0.1797,0.0001,-0.0000,-2.1560,flat,18.0,2,9.551
4570,146.24,-4.3502,3.3477,0.1797,0.0001,-0.0000,-2.1281,flat,18.0,2,8.990
4580,146.56,-4.6465,2.8617,0.1797,0.0001,-0.0000,-2.1028,flat,18.0,2,8.427
4590,146.88,-4.9315,2.3680,0.1797,0.0001,-0.0000,-2.0799,flat,18.0,2,7.862
4600,147.20,-5.2059,1.8677,0.1797,0.0001,-0.0000,-2.0591,flat,18.0,2,7.295
4610,147.52,-5.4705,1.3614,0.1797,0.0001,-0.0000,-2.0400,flat,18.0,2,6.728
4620,147.84,-5.7259,0.8500,0.1797,0.0001,-0.0000,-2.0224,flat,18.0,2,6.159
4630,148.16,-5.9728,0.3340,0.1797,0.0001,-0.0000,-2.0061,flat,18.0,2,5.589
4640,148.48,-6.2115,-0.1862,0.1797,0.0001,-0.0000,-1.9908,flat,18.0,2,5.019
4650,148.80,-6.4425,-0.7100,0.1797,0.0001,-0.0000,-1.9762,flat,18.0,2,4.448
4660,149.12,-6.6661,-1.2373,0.1797,0.0000,-0.0000,-1.9621,flat,18.0,2,3.877
4670,149.44,-6.8823,-1.7677,0.1797,0.0000,-0.0000,-1.9482,flat,18.0,2,3.305
4680,149.76,-7.0911,-2.3011,0.1797,0.0000,0.0000,-1.9340,flat,18.0,2,2.734
4690,150.08,-7.2923,-2.8371,0.1797,0.0001,0.0000,-1.9189,flat,18.0,2,2.163
4700,150.40,-7.4850,-3.3759,0.1797,0.0001,0.0000,-1.9017,flat,18.0,2,1.592
4710,150.72,-7.6675,-3.9169,0.1797,0.0001,0.0000,-1.8788,flat,18.0,2,1.023
4720,151.04,-7.8295,-4.4334,0.1799,-0.0001,0.0003,-1.9318,flat,18.0,0,13.175
4730,151.36,-7.9359,-4.7964,0.1798,-0.0003,0.0000,-1.5772,rough,14.0,0,13.283
4740,151.68,-7.9222,-5.1656,0.1799,-0.0001,-0.0000,-1.2184,flat,18.0,0,13.283
4750,152.00,-7.7527,-5.5441,0.1799,0.0000,-0.0001,-0.9887,flat,18.0,0,13.137
4760,152.32,-7.4493,-5.9217,0.1799,0.0001,-0.0000,-0.7654,flat,18.0,0,12.870
4770,152.64,-7.0465,-6.2528,0.1799,0.0001,-0.0000,-0.5785,flat,18.0,0,12.512
4780,152.96,-6.5765,-6.5248,0.1799,0.0001,-0.0000,-0.4146,flat,18.0,0,12.089
4790,153.28,-6.0626,-6.7289,0.1799,0.0002,-0.0000,-0.2792,flat,18.0,0,11.619
4800,153.60,-5.5220,-6.8688,0.1798,0.0004,-0.0000,-0.1689,flat,18.0,0,11.118
4810,153.92,-4.9663,-6.9525,0.1798,0.0004,-0.0000,-0.0789,flat,18.0,0,10.594
4820,154.24,-4.4029,-6.9882,0.1798,0.0003,-0.0000,-0.0052,flat,18.0,0,10.055
4830,154.56,-3.8370,-6.9839,0.1797,0.0002,-0.0000,0.0525,flat,18.0,0,9.506
4840,154.88,-3.2714,-6.9487,0.1797,0.0002,-0.0000,0.0976,flat,18.0,0,8.952
4850,155.20,-2.7071,-6.8889,0.1797,0.0001,-0.0000,0.1335,flat,18.0,0,8.393
4860,155.52,-2.1442,-6.8092,0.1797,0.0001,-0.0000,0.1639,flat,18.0,0,7.831
4870,155.84,-1.5831,-6.7129,0.1797,0.0001,-0.0000,0.1900,flat,18.0,0,7.266
4880,156.16,-1.0239,-6.6021,0.1797,0.0001,-0.0000,0.2127,flat,18.0,0,6.700
4890,156.48,-0.4667,-6.4789,0.1797,0.0001,-0.0000,0.2327,flat,18.0,0,6.133
4900,156.80,0.0884,-6.3446,0.1797,0.0001,-0.0000,0.2507,flat,18.0,0,5.564
4910,157.12,0.6414,-6.2005,0.1797,0.0001,-0.0000,0.2670,flat,18.0,0,4.994
4920,157.44,1.1923,-6.0474,0.1797,0.0001,-0.0000,0.2821,flat,18.0,0,4.424
4930,157.76,1.7411,-5.8860,0.1797,0.0001,-0.0000,0.2964,flat,18.0,0,3.854
4940,158.08,2.2876,-5.7169,0.1797,0.0000,-0.0000,0.3102,flat,18.0,0,3.283
4950,158.40,2.8316,-5.5403,0.1797,0.0000,0.0000,0.3239,flat,18.0,0,2.712
4960,158.72,3.3730,-5.3561,0.1797,0.0001,0.0000,0.3384,flat,18.0,0,2.142
4970,159.04,3.9109,-5.1641,0.1797,0.0001,0.0000,0.3547,flat,18.0,0,1.572
4980,159.36,4.4440,-4.9633,0.1797,0.0001,0.0000,0.3760,flat,18.0,0,1.004
4990,159.68,4.9145,-4.7717,0.1798,-0.0003,0.0000,0.5316,flat,18.0,1,12.885
5000,160.00,5.2727,-4.5088,0.1799,0.0000,-0.0000,0.8005,flat,18.0,1,12.749
5010,160.32,5.5784,-4.1273,0.1799,0.0000,-0.0000,1.0370,flat,18.0,1,12.498
5020,160.64,5.8161,-3.6610,0.1799,0.0000,-0.0000,1.2511,flat,18.0,1,12.157
5030,160.96,5.9647,-3.1385,0.1799,0.0001,-0.0000,1.4364,flat,18.0,1,11.741
5040,161.28,6.0214,-2.5890,0.1799,0.0001,-0.0000,1.5863,flat,18.0,1,11.270
5050,161.60,5.9995,-2.0327,0.1798,0.0004,-0.0000,1.6961,flat,18.0,1,10.764
5060,161.92,5.9196,-1.4791,0.1798,0.0004,-0.0000,1.7773,flat,18.0,1,10.238
5070,162.24,5.7961,-0.9310,0.1797,0.0002,-0.0000,1.8404,flat,18.0,1,9.699
5080,162.56,5.6390,-0.3894,0.1797,0.0002,-0.0000,1.8911,flat,18.0,1,9.151
5090,162.88,5.4549,0.1448,0.1797,0.0001,-0.0000,1.9312,flat,18.0,1,8.598
5100,163.20,5.2499,0.6723,0.1797,0.0001,-0.0000,1.9645,flat,18.0,1,8.041
5110,163.52,5.0274,1.1940,0.1797,0.0001,-0.0000,1.9934,flat,18.0,1,7.480
5120,163.84,4.7901,1.7102,0.1797,0.0001,-0.0000,2.0189,flat,18.0,1,6.918
5130,164.16,4.5396,2.2209,0.1797,0.0001,-0.0000,2.0416,flat,18.0,1,6.354
5140,164.48,4.2776,2.7266,0.1797,0.0001,-0.0000,2.0622,flat,18.0,1,5.788
5150,164.80,4.0053,3.2273,0.1797,0.0001,-0.0000,2.0811,flat,18.0,1,5.221
5160,165.12,3.7235,3.7231,0.1797,0.0001,-0.0000,2.0987,flat,18.0,1,4.653
5170,165.44,3.4330,4.2143,0.1797,0.0001,-0.0000,2.1154,flat,18.0,1,4.085
5180,165.76,3.1343,4.7006,0.1797,0.0001,-0.0000,2.1316,flat,18.0,1,3.517
5190,166.08,2.8277,5.1819,0.1797,0.0001,0.0000,2.1479,flat,18.0,1,2.948
5200,166.40,2.5133,5.6579,0.1797,0.0001,0.0000,2.1648,flat,18.0,1,2.380
5210,166.72,2.1909,6.1278,0.1797,0.0001,0.0000,2.1836,flat,18.0,1,1.812
5220,167.04,1.8598,6.5898,0.1797,0.0001,0.0000,2.2065,flat,18.0,1,1.246
5230,167.36,1.5280,7.0306,0.1797,0.0001,0.0003,2.2782,flat,18.0,2,15.214
5240,167.68,1.2331,7.2968,0.1799,-0.0002,-0.0000,2.6356,flat,18.0,2,15.245
5250,168.00,0.8270,7.4821,0.1799,0.0000,-0.0000,2.9718,flat,18.0,2,15.157
5260,168.32,0.3428,7.5383,0.1799,0.0001,-0.0000,-3.0198,flat,18.0,2,14.930
5270,168.64,-0.1646,7.4517,0.1799,0.0001,-0.0000,-2.8061,flat,18.0,2,14.583
5280,168.96,-0.6599,7.2531,0.1799,0.0001,-0.0000,-2.6499,flat,18.0,2,14.156
5290,169.28,-1.1287,6.9779,0.1798,0.0004,-0.0000,-2.5386,flat,18.0,2,13.682
5300,169.60,-1.5741,6.6502,0.1798,0.0003,-0.0000,-2.4617,flat,18.0,2,13.179
5310,169.92,-1.9968,6.2887,0.1797,0.0002,-0.0000,-2.3966,flat,18.0,2,12.661
5320,170.24,-2.3973,5.8993,0.1797,0.0002,-0.0000,-2.3397,flat,18.0,2,12.131
5330,170.56,-2.7776,5.4871,0.1797,0.0002,-0.0000,-2.2904,flat,18.0,2,11.592
5340,170.88,-3.1398,5.0570,0.1797,0.0001,-0.0000,-2.2483,flat,18.0,2,11.047
5350,171.20,-3.4862,4.6115,0.1797,0.0001,-0.0000,-2.2109,flat,18.0,2,10.496
5360,171.52,-3.8178,4.1528,0.1797,0.0001,-0.0000,-2.1774,flat,18.0,2,9.941
5370,171.84,-4.1355,3.6827,0.1797,0.0001,-0.0000,-2.1473,flat,18.0,2,9.383
5380,172.16,-4.4403,3.2028,0.1797,0.0001,-0.0000,-2.1202,flat,18.0,2,8.821
5390,172.48,-4.7331,2.7144,0.1797,0.0001,-0.0000,-2.0957,flat,18.0,2,8.258
5400,172.80,-5.0148,2.2186,0.1797,0.0001,-0.0000,-2.0735,flat,18.0,2,7.692
5410,173.12,-5.2862,1.7164,0.1797,0.0001,-0.0000,-2.0532,flat,18.0,2,7.125
5420,173.44,-5.5480,1.2085,0.1797,0.0001,-0.0000,-2.0346,flat,18.0,2,6.557
5430,173.76,-5.8008,0.6957,0.1797,0.0001,-0.0000,-2.0174,flat,18.0,2,5.988
5440,174.08,-6.0452,0.1784,0.1797,0.0001,-0.0000,-2.0014,flat,18.0,2,5.418
5450,174.40,-6.2816,-0.3429,0.1797,0.0001,-0.0000,-1.9863,flat,18.0,2,4.848
5460,174.72,-6.5103,-0.8679,0.1797,0.0001,-0.0000,-1.9719,flat,18.0,2,4.277
5470,175.04,-6.7317,-1.3961,0.1797,0.0000,-0.0000,-1.9579,flat,18.0,2,3.705
5480,175.36,-6.9457,-1.9274,0.1797,0.0000,-0.0000,-1.9440,flat,18.0,2,3.134
5490,175.68,-7.1523,-2.4616,0.1797,0.0001,0.0000,-1.9296,flat,18.0,2,2.563
5500,176.00,-7.3510,-2.9985,0.1797,0.0001,0.0000,-1.9141,flat,18.0,2,1.991
5510,176.32,-7.5409,-3.5379,0.1797,0.0001,0.0000,-1.8957,flat,18.0,2,1.421
5520,176.64,-7.7197,-4.0795,0.1797,0.0001,0.0000,-1.8696,flat,18.0,2,0.853
5530,176.96,-7.8690,-4.5615,0.1798,-0.0004,0.0002,-1.8314,flat,18.0,0,13.214
5540,177.28,-7.9468,-4.8899,0.1798,-0.0001,-0.0003,-1.4770,flat,18.0,0,13.297
5550,177.60,-7.8831,-5.2888,0.1799,0.0002,-0.0001,-1.1266,flat,18.0,0,13.250
5560,177.92,-7.6751,-5.6620,0.1799,0.0000,-0.0001,-0.9145,flat,18.0,0,13.070
5570,178.24,-7.3368,-6.0262,0.1799,0.0001,-0.0000,-0.7072,flat,18.0,0,12.771
5580,178.56,-6.9114,-6.3415,0.1799,0.0000,-0.0000,-0.5261,flat,18.0,0,12.391
5590,178.88,-6.4261,-6.5931,0.1799,0.0001,-0.0000,-0.3710,flat,18.0,0,11.952
5600,179.20,-5.9026,-6.7773,0.1799,0.0003,-0.0000,-0.2437,flat,18.0,0,11.472
5610,179.52,-5.3565,-6.8995,0.1798,0.0004,-0.0000,-0.1400,flat,18.0,0,10.962
5620,179.84,-4.7979,-6.9679,0.1798,0.0004,-0.0000,-0.0552,flat,18.0,0,10.434
5630,180.16,-4.2331,-6.9908,0.1798,0.0003,-0.0000,0.0141,flat,18.0,0,9.891
5640,180.48,-3.6673,-6.9763,0.1797,0.0002,-0.0000,0.0670,flat,18.0,0,9.341
5650,180.80,-3.1020,-6.9331,0.1797,0.0002,-0.0000,0.1090,flat,18.0,0,8.784
5660,181.12,-2.5381,-6.8669,0.1797,0.0001,-0.0000,0.1432,flat,18.0,0,8.225
5670,181.44,-1.9757,-6.7820,0.1797,0.0001,-0.0000,0.1721,flat,18.0,0,7.662
5680,181.76,-1.4151,-6.6810,0.1797,0.0001,-0.0000,0.1971,flat,18.0,0,7.097
5690,182.08,-0.8565,-6.5664,0.1797,0.0001,-0.0000,0.2190,flat,18.0,0,6.530
5700,182.40,-0.3000,-6.4397,0.1797,0.0001,-0.0000,0.2383,flat,18.0,0,5.962
5710,182.72,0.2545,-6.3023,0.1797,0.0001,-0.0000,0.2558,flat,18.0,0,5.393
5720,183.04,0.8069,-6.1554,0.1797,0.0001,-0.0000,0.2717,flat,18.0,0,4.823
5730,183.36,1.3572,-5.9998,0.1797,0.0001,-0.0000,0.2865,flat,18.0,0,4.253
5740,183.68,1.9053,-5.8361,0.1797,0.0000,-0.0000,0.3005,flat,18.0,0,3.683
5750,184.00,2.4510,-5.6647,0.1797,0.0000,-0.0000,0.3143,flat,18.0,0,3.112
5760,184.32,2.9943,-5.4858,0.1797,0.0000,0.0000,0.3281,flat,18.0,0,2.541
5770,184.64,3.5347,-5.2994,0.1797,0.0001,0.0000,0.3430,flat,18.0,0,1.970
5780,184.96,4.0715,-5.1049,0.1797,0.0001,0.0000,0.3603,flat,18.0,0,1.401
5790,185.28,4.6024,-4.9011,0.1797,0.0001,0.0000,0.3846,flat,18.0,0,0.834
5800,185.60,5.0302,-4.7056,0.1799,-0.0002,0.0000,0.6121,flat,18.0,1,12.857
5810,185.92,5.3695,-4.4048,0.1799,0.0000,-0.0000,0.8731,flat,18.0,1,12.684
5820,186.24,5.6582,-3.9951,0.1799,0.0000,-0.0000,1.1039,flat,18.0,1,12.405
5830,186.56,5.8705,-3.5088,0.1799,0.0001,-0.0000,1.3098,flat,18.0,1,12.039
5840,186.88,5.9909,-2.9754,0.1799,0.0001,-0.0000,1.4850,flat,18.0,1,11.604
5850,187.20,6.0221,-2.4222,0.1799,0.0002,-0.0000,1.6233,flat,18.0,1,11.121
5860,187.52,5.9809,-1.8662,0.1798,0.0004,-0.0000,1.7228,flat,18.0,1,10.608
5870,187.84,5.8866,-1.3140,0.1798,0.0003,-0.0000,1.7978,flat,18.0,1,10.077
5880,188.16,5.7521,-0.7678,0.1797,0.0002,-0.0000,1.8567,flat,18.0,1,9.535
5890,188.48,5.5863,-0.2283,0.1797,0.0002,-0.0000,1.9044,flat,18.0,1,8.986
5900,188.80,5.3954,0.3037,0.1797,0.0001,-0.0000,1.9418,flat,18.0,1,8.431
5910,189.12,5.1848,0.8294,0.1797,0.0001,-0.0000,1.9736,flat,18.0,1,7.873
5920,189.44,4.9577,1.3495,0.1797,0.0001,-0.0000,2.0014,flat,18.0,1,7.312
5930,189.76,4.7162,1.8640,0.1797,0.0001,-0.0000,2.0260,flat,18.0,1,6.749
5940,190.08,4.4622,2.3732,0.1797,0.0001,-0.0000,2.0480,flat,18.0,1,6.184
5950,190.40,4.1970,2.8773,0.1797,0.0001,-0.0000,2.0680,flat,18.0,1,5.618
5960,190.72,3.9217,3.3765,0.1797,0.0001,-0.0000,2.0864,flat,18.0,1,5.051
5970,191.04,3.6372,3.8710,0.1797,0.0001,-0.0000,2.1038,flat,18.0,1,4.483
5980,191.36,3.3442,4.3607,0.1797,0.0001,-0.0000,2.1203,flat,18.0,1,3.915
5990,191.68,3.0431,4.8455,0.1797,0.0001,-0.0000,2.1365,flat,18.0,1,3.346
6000,192.00,2.7342,5.3253,0.1797,0.0001,0.0000,2.1529,flat,18.0,1,2.778
6010,192.32,2.4174,5.7996,0.1797,0.0001,0.0000,2.1702,flat,18.0,1,2.209
6020,192.64,2.0925,6.2673,0.1797,0.0001,0.0000,2.1898,flat,18.0,1,1.642
6030,192.96,1.7586,6.7264,0.1797,0.0001,0.0000,2.2150,flat,18.0,1,1.077
6040,193.28,1.4487,7.1238,0.1798,-0.0001,0.0003,2.3869,flat,18.0,2,15.238
6050,193.60,1.1226,7.3626,0.1799,-0.0000,-0.0001,2.7396,flat,18.0,2,15.232
6060,193.92,0.6873,7.5147,0.1799,0.0000,-0.0000,3.0660,flat,18.0,2,15.104
6070,194.24,0.1909,7.5264,0.1799,0.0000,-0.0000,-2.9477,flat,18.0,2,14.837
6080,194.56,-0.3156,7.4023,0.1799,0.0001,-0.0000,-2.7529,flat,18.0,2,14.462
6090,194.88,-0.8034,7.1772,0.1799,0.0002,-0.0000,-2.6128,flat,18.0,2,14.017
6100,195.20,-1.2644,6.8841,0.1798,0.0004,-0.0000,-2.5120,flat,18.0,2,13.534
6110,195.52,-1.7033,6.5449,0.1798,0.0003,-0.0000,-2.4415,flat,18.0,2,13.025
6120,195.84,-2.1191,6.1747,0.1797,0.0002,-0.0000,-2.3784,flat,18.0,2,12.503
6130,196.16,-2.5135,5.7779,0.1797,0.0002,-0.0000,-2.3242,flat,18.0,2,11.970
6140,196.48,-2.8881,5.3598,0.1797,0.0002,-0.0000,-2.2771,flat,18.0,2,11.429
6150,196.80,-3.2453,4.9249,0.1797,0.0001,-0.0000,-2.2367,flat,18.0,2,10.882
6160,197.12,-3.5872,4.4752,0.1797,0.0001,-0.0000,-2.2005,flat,18.0,2,10.330
6170,197.44,-3.9145,4.0129,0.1797,0.0001,-0.0000,-2.1681,flat,18.0,2,9.774
6180,197.76,-4.2282,3.5397,0.1797,0.0001,-0.0000,-2.1389,flat,18.0,2,9.215
6190,198.08,-4.5294,3.0571,0.1797,0.0001,-0.0000,-2.1126,flat,18.0,2,8.653
6200,198.40,-4.8188,2.5664,0.1797,0.0001,-0.0000,-2.0888,flat,18.0,2,8.088
6210,198.72,-5.0973,2.0686,0.1797,0.0001,-0.0000,-2.0672,flat,18.0,2,7.522
6220,199.04,-5.3657,1.5646,0.1797,0.0001,-0.0000,-2.0475,flat,18.0,2,6.955
6230,199.36,-5.6248,1.0552,0.1797,0.0001,-0.0000,-2.0293,flat,18.0,2,6.386
6240,199.68,-5.8750,0.5409,0.1797,0.0001,-0.0000,-2.0125,flat,18.0,2,5.817
6250,200.00,-6.1169,0.0224,0.1797,0.0001,-0.0000,-1.9968,flat,18.0,2,5.247
6260,200.32,-6.3510,-0.5000,0.1797,0.0001,-0.0000,-1.9819,flat,18.0,2,4.676
6270,200.64,-6.5775,-1.0260,0.1797,0.0001,-0.0000,-1.9677,flat,18.0,2,4.105
6280,200.96,-6.7967,-1.5552,0.1797,0.0000,-0.0000,-1.9537,flat,18.0,2,3.534
6290,201.28,-7.0085,-2.0874,0.1797,0.0000,-0.0000,-1.9397,flat,18.0,2,2.963
6300,201.60,-7.2128,-2.6224,0.1797,0.0001,0.0000,-1.9251,flat,18.0,2,2.391
6310,201.92,-7.4090,-3.1600,0.1797,0.0001,0.0000,-1.9090,flat,18.0,2,1.820
6320,202.24,-7.5959,-3.7002,0.1797,0.0001,0.0000,-1.8890,flat,18.0,2,1.250
6330,202.56,-7.7652,-4.2358,0.1797,0.0001,0.0001,-1.8996,flat,18.0,3,0.925
6340,202.88,-7.9045,-4.6750,0.1798,-0.0002,0.0005,-1.7225,rough,14.0,0,13.250
6350,203.20,-7.9472,-5.0024,0.1799,-0.0001,-0.0002,-1.3621,flat,18.0,0,13.301
6360,203.52,-7.8339,-5.3990,0.1799,0.0000,0.0002,-1.0682,rough,14.0,0,13.208
6370,203.84,-7.5855,-5.7761,0.1799,-0.0001,-0.0000,-0.8468,flat,18.0,0,12.991
6380,204.16,-7.2169,-6.1264,0.1799,0.0000,-0.0000,-0.6511,flat,18.0,0,12.664
6390,204.48,-6.7709,-6.4240,0.1799,0.0001,-0.0000,-0.4767,flat,18.0,0,12.264
6400,204.80,-6.2722,-6.6553,0.1799,0.0001,-0.0000,-0.3301,flat,18.0,0,11.811
6410,205.12,-5.7406,-6.8200,0.1799,0.0003,-0.0000,-0.2103,flat,18.0,0,11.321
6420,205.44,-5.1899,-6.9252,0.1798,0.0004,-0.0000,-0.1127,flat,18.0,0,10.806
6430,205.76,-4.6289,-6.9791,0.1798,0.0004,-0.0000,-0.0329,flat,18.0,0,10.272
6440,206.08,-4.0632,-6.9899,0.1797,0.0003,-0.0000,0.0319,flat,18.0,0,9.727
6450,206.40,-3.4976,-6.9660,0.1797,0.0002,-0.0000,0.0806,flat,18.0,0,9.174
6460,206.72,-2.9327,-6.9153,0.1797,0.0001,-0.0000,0.1199,flat,18.0,0,8.617
6470,207.04,-2.3692,-6.8432,0.1797,0.0001,-0.0000,0.1523,flat,18.0,0,8.056
6480,207.36,-1.8073,-6.7532,0.1797,0.0001,-0.0000,0.1800,flat,18.0,0,7.492
6490,207.68,-1.2473,-6.6479,0.1797,0.0001,-0.0000,0.2040,flat,18.0,0,6.927
6500,208.00,-0.6893,-6.5295,0.1797,0.0001,-0.0000,0.2250,flat,18.0,0,6.360
6510,208.32,-0.1334,-6.3995,0.1797,0.0001,-0.0000,0.2437,flat,18.0,0,5.791
6520,208.64,0.4205,-6.2592,0.1797,0.0001,-0.0000,0.2607,flat,18.0,0,5.222
6530,208.96,0.9722,-6.1096,0.1797,0.0001,-0.0000,0.2762,flat,18.0,0,4.652
6540,209.28,1.5218,-5.9515,0.1797,0.0001,-0.0000,0.2908,flat,18.0,0,4.082
6550,209.60,2.0692,-5.7854,0.1797,0.0000,-0.0000,0.3047,flat,18.0,0,3.511
6560,209.92,2.6143,-5.6118,0.1797,0.0000,-0.0000,0.3184,flat,18.0,0,2.940
6570,210.24,3.1568,-5.4307,0.1797,0.0000,0.0000,0.3324,flat,18.0,0,2.370
6580,210.56,3.6962,-5.2419,0.1797,0.0001,0.0000,0.3478,flat,18.0,0,1.799
6590,210.88,4.2315,-5.0448,0.1797,0.0001,0.0000,0.3665,flat,18.0,0,1.231
6600,211.20,4.7502,-4.8461,0.1797,0.0000,0.0003,0.4323,flat,18.0,1,12.907
6610,211.52,5.1375,-4.6299,0.1799,-0.0000,-0.0000,0.6971,flat,18.0,1,12.819
6620,211.84,5.4624,-4.2916,0.1799,0.0000,-0.0000,0.9445,flat,18.0,1,12.610
6630,212.16,5.7310,-3.8559,0.1799,0.0000,-0.0000,1.1687,flat,18.0,1,12.304
6640,212.48,5.9166,-3.3524,0.1799,0.0001,-0.0000,1.3661,flat,18.0,1,11.915
6650,212.80,6.0092,-2.8105,0.1799,0.0001,-0.0000,1.5306,flat,18.0,1,11.464
6660,213.12,6.0163,-2.2552,0.1799,0.0003,-0.0000,1.6565,flat,18.0,1,10.970
6670,213.44,5.9575,-1.7000,0.1798,0.0004,-0.0000,1.7474,flat,18.0,1,10.450
6680,213.76,5.8500,-1.1494,0.1798,0.0003,-0.0000,1.8169,flat,18.0,1,9.916
6690,214.08,5.7054,-0.6052,0.1797,0.0002,-0.0000,1.8720,flat,18.0,1,9.371
6700,214.40,5.5314,-0.0679,0.1797,0.0002,-0.0000,1.9164,flat,18.0,1,8.820
6710,214.72,5.3341,0.4620,0.1797,0.0001,-0.0000,1.9518,flat,18.0,1,8.264
6720,215.04,5.1184,0.9860,0.1797,0.0001,-0.0000,1.9824,flat,18.0,1,7.705
6730,215.36,4.8867,1.5044,0.1797,0.0001,-0.0000,2.0091,flat,18.0,1,7.143
6740,215.68,4.6413,2.0173,0.1797,0.0001,-0.0000,2.0328,flat,18.0,1,6.580
6750,216.00,4.3837,2.5249,0.1797,0.0001,-0.0000,2.0542,flat,18.0,1,6.014
6760,216.32,4.1154,3.0276,0.1797,0.0001,-0.0000,2.0737,flat,18.0,1,5.448
6770,216.64,3.8373,3.5254,0.1797,0.0001,-0.0000,2.0917,flat,18.0,1,4.881
6780,216.96,3.5502,4.0184,0.1797,0.0001,-0.0000,2.1088,flat,18.0,1,4.313
6790,217.28,3.2548,4.5066,0.1797,0.0001,-0.0000,2.1252,flat,18.0,1,3.744
6800,217.60,2.9513,4.9900,0.1797,0.0001,-0.0000,2.1414,flat,18.0,1,3.176
6810,217.92,2.6400,5.4682,0.1797,0.0001,0.0000,2.1579,flat,18.0,1,2.607
6820,218.24,2.3209,5.9406,0.1797,0.0001,0.0000,2.1757,flat,18.0,1,2.039
6830,218.56,1.9933,6.4061,0.1797,0.0001,0.0000,2.1965,flat,18.0,1,1.472
6840,218.88,1.6564,6.8617,0.1797,0.0001,0.0000,2.2249,flat,18.0,1,0.909
6850,219.20,1.3627,7.2011,0.1798,-0.0003,0.0000,2.4944,flat,18.0,2,15.247
6860,219.52,1.0018,7.4205,0.1799,-0.0000,-0.0000,2.8411,flat,18.0,2,15.208
6870,219.84,0.5422,7.5341,0.1799,0.0001,-0.0000,-3.1272,flat,18.0,2,15.038
6880,220.16,0.0384,7.5018,0.1799,0.0001,-0.0000,-2.8838,flat,18.0,2,14.734
6890,220.48,-0.4647,7.3436,0.1799,0.0001,-0.0000,-2.7057,flat,18.0,2,14.334
6900,220.80,-0.9444,7.0953,0.1799,0.0003,-0.0000,-2.5791,flat,18.0,2,13.876
6910,221.12,-1.3985,6.7860,0.1798,0.0004,-0.0000,-2.4895,flat,18.0,2,13.383
6920,221.44,-1.8306,6.4367,0.1797,0.0002,-0.0000,-2.4224,flat,18.0,2,12.869
6930,221.76,-2.2396,6.0582,0.1797,0.0002,-0.0000,-2.3612,flat,18.0,2,12.344
6940,222.08,-2.6278,5.6544,0.1797,0.0002,-0.0000,-2.3093,flat,18.0,2,11.808
6950,222.40,-2.9969,5.2310,0.1797,0.0002,-0.0000,-2.2644,flat,18.0,2,11.266
6960,222.72,-3.3495,4.7914,0.1797,0.0001,-0.0000,-2.2254,flat,18.0,2,10.717
6970,223.04,-3.6869,4.3378,0.1797,0.0001,-0.0000,-2.1904,flat,18.0,2,10.164
6980,223.36,-4.0100,3.8720,0.1797,0.0001,-0.0000,-2.1590,flat,18.0,2,9.607
6990,223.68,-4.3199,3.3958,0.1797,0.0001,-0.0000,-2.1307,flat,18.0,2,9.046
7000,224.00,-4.6174,2.9107,0.1797,0.0001,-0.0000,-2.1052,flat,18.0,2,8.483
7010,224.32,-4.9035,2.4178,0.1797,0.0001,-0.0000,-2.0821,flat,18.0,2,7.919
7020,224.64,-5.1789,1.9180,0.1797,0.0001,-0.0000,-2.0611,flat,18.0,2,7.352
7030,224.96,-5.4444,1.4123,0.1797,0.0001,-0.0000,-2.0419,flat,18.0,2,6.784
7040,225.28,-5.7008,0.9014,0.1797,0.0001,-0.0000,-2.0241,flat,18.0,2,6.216
7050,225.60,-5.9484,0.3858,0.1797,0.0001,-0.0000,-2.0077,flat,18.0,2,5.646
7060,225.92,-6.1880,-0.1339,0.1797,0.0001,-0.0000,-1.9922,flat,18.0,2,5.076
7070,226.24,-6.4197,-0.6575,0.1797,0.0001,-0.0000,-1.9776,flat,18.0,2,4.505
7080,226.56,-6.6440,-1.1844,0.1797,0.0000,-0.0000,-1.9635,flat,18.0,2,3.934
7090,226.88,-6.8610,-1.7145,0.1797,0.0000,-0.0000,-1.9496,flat,18.0,2,3.363
7100,227.20,-7.0706,-2.2476,0.1797,0.0000,-0.0000,-1.9355,flat,18.0,2,2.791
7110,227.52,-7.2725,-2.7834,0.1797,0.0001,0.0000,-1.9205,flat,18.0,2,2.220
7120,227.84,-7.4661,-3.3219,0.1797,0.0001,0.0000,-1.9035,flat,18.0,2,1.649
7130,228.16,-7.6498,-3.8627,0.1797,0.0001,0.0000,-1.8816,flat,18.0,2,1.080
7140,228.48,-7.8132,-4.3864,0.1798,0.0002,0.0000,-1.9576,flat,18.0,0,13.159
7150,228.80,-7.9294,-4.7667,0.1798,-0.0004,0.0001,-1.6141,rough,14.0,0,13.276
7160,229.12,-7.9310,-5.1244,0.1799,0.0000,-0.0001,-1.2550,flat,18.0,0,13.289
7170,229.44,-7.7759,-5.5046,0.1799,0.0002,-0.0003,-1.0146,flat,18.0,0,13.157
7180,229.76,-7.4849,-5.8861,0.1799,0.0000,-0.0000,-0.7846,flat,18.0,0,12.902
7190,230.08,-7.0901,-6.2221,0.1799,0.0000,-0.0000,-0.5961,flat,18.0,0,12.551
7200,230.40,-6.6258,-6.5007,0.1799,0.0001,-0.0000,-0.4296,flat,18.0,0,12.133
7210,230.72,-6.1155,-6.7115,0.1799,0.0002,-0.0000,-0.2915,flat,18.0,0,11.668
7220,231.04,-5.5769,-6.8575,0.1799,0.0004,-0.0000,-0.1790,flat,18.0,0,11.169
7230,231.36,-5.0224,-6.9464,0.1798,0.0004,-0.0000,-0.0871,flat,18.0,0,10.647
7240,231.68,-4.4595,-6.9866,0.1798,0.0003,-0.0000,-0.0119,flat,18.0,0,10.110
7250,232.00,-3.8935,-6.9859,0.1797,0.0002,-0.0000,0.0476,flat,18.0,0,9.562
7260,232.32,-3.3279,-6.9535,0.1797,0.0002,-0.0000,0.0935,flat,18.0,0,9.007
7270,232.64,-2.7635,-6.8958,0.1797,0.0001,-0.0000,0.1302,flat,18.0,0,8.449
7280,232.96,-2.2004,-6.8180,0.1797,0.0001,-0.0000,0.1611,flat,18.0,0,7.887
7290,233.28,-1.6391,-6.7232,0.1797,0.0001,-0.0000,0.1876,flat,18.0,0,7.323
7300,233.60,-1.0797,-6.6137,0.1797,0.0001,-0.0000,0.2106,flat,18.0,0,6.757
7310,233.92,-0.5223,-6.4917,0.1797,0.0001,-0.0000,0.2308,flat,18.0,0,6.189
7320,234.24,0.0330,-6.3584,0.1797,0.0001,-0.0000,0.2490,flat,18.0,0,5.621
7330,234.56,0.5862,-6.2152,0.1797,0.0001,-0.0000,0.2655,flat,18.0,0,5.051
7340,234.88,1.1373,-6.0630,0.1797,0.0001,-0.0000,0.2807,flat,18.0,0,4.481
7350,235.20,1.6863,-5.9025,0.1797,0.0001,-0.0000,0.2950,flat,18.0,0,3.911
7360,235.52,2.2330,-5.7341,0.1797,0.0000,-0.0000,0.3088,flat,18.0,0,3.340
7370,235.84,2.7773,-5.5582,0.1797,0.0000,0.0000,0.3225,flat,18.0,0,2.769
7380,236.16,3.3190,-5.3748,0.1797,0.0001,0.0000,0.3369,flat,18.0,0,2.199
7390,236.48,3.8573,-5.1837,0.1797,0.0001,0.0000,0.3529,flat,18.0,0,1.629
7400,236.80,4.3910,-4.9838,0.1797,0.0001,0.0000,0.3735,flat,18.0,0,1.060
7410,237.12,4.8743,-4.7919,0.1798,-0.0002,0.0001,0.5064,flat,18.0,1,12.892
7420,237.44,5.2397,-4.5412,0.1799,0.0000,-0.0000,0.7758,flat,18.0,1,12.769
7430,237.76,5.5504,-4.1697,0.1799,0.0000,-0.0000,1.0141,flat,18.0,1,12.528
7440,238.08,5.7962,-3.7106,0.1799,0.0000,-0.0000,1.2309,flat,18.0,1,12.195
7450,238.40,5.9541,-3.1925,0.1799,0.0001,-0.0000,1.4192,flat,18.0,1,11.785
7460,238.72,6.0196,-2.6445,0.1799,0.0001,-0.0000,1.5730,flat,18.0,1,11.319
7470,239.04,6.0047,-2.0883,0.1799,0.0004,-0.0000,1.6866,flat,18.0,1,10.816
7480,239.36,5.9298,-1.5342,0.1798,0.0004,-0.0000,1.7701,flat,18.0,1,10.291
7490,239.68,5.8101,-0.9855,0.1797,0.0002,-0.0000,1.8347,flat,18.0,1,9.753
7500,240.00,5.6560,-0.4433,0.1797,0.0002,-0.0000,1.8865,flat,18.0,1,9.206
7510,240.32,5.4744,0.0917,0.1797,0.0001,-0.0000,1.9276,flat,18.0,1,8.653
7520,240.64,5.2712,0.6198,0.1797,0.0001,-0.0000,1.9614,flat,18.0,1,8.097
7530,240.96,5.0504,1.1421,0.1797,0.0001,-0.0000,1.9907,flat,18.0,1,7.537
7540,241.28,4.8145,1.6588,0.1797,0.0001,-0.0000,2.0165,flat,18.0,1,6.974
7550,241.60,4.5653,2.1701,0.1797,0.0001,-0.0000,2.0395,flat,18.0,1,6.410
7560,241.92,4.3044,2.6762,0.1797,0.0001,-0.0000,2.0602,flat,18.0,1,5.844
7570,242.24,4.0330,3.1774,0.1797,0.0001,-0.0000,2.0792,flat,18.0,1,5.278
7580,242.56,3.7521,3.6738,0.1797,0.0001,-0.0000,2.0969,flat,18.0,1,4.710
7590,242.88,3.4625,4.1653,0.1797,0.0001,-0.0000,2.1137,flat,18.0,1,4.142
7600,243.20,3.1646,4.6521,0.1797,0.0001,-0.0000,2.1300,flat,18.0,1,3.574
7610,243.52,2.8588,5.1340,0.1797,0.0001,0.0000,2.1463,flat,18.0,1,3.005
7620,243.84,2.5451,5.6106,0.1797,0.0001,0.0000,2.1631,flat,18.0,1,2.437
7630,244.16,2.2235,6.0811,0.1797,0.0001,0.0000,2.1816,flat,18.0,1,1.869
7640,244.48,1.8933,6.5440,0.1797,0.0001,0.0000,2.2039,flat,18.0,1,1.303
7650,244.80,1.5566,6.9929,0.1797,0.0001,0.0002,2.2524,flat,18.0,2,15.202
7660,245.12,1.2674,7.2736,0.1799,-0.0002,-0.0000,2.6006,flat,18.0,2,15.247
7670,245.44,0.8720,7.4686,0.1799,-0.0000,-0.0000,2.9398,flat,18.0,2,15.172
7680,245.76,0.3931,7.5395,0.1799,0.0000,-0.0000,-3.0450,flat,18.0,2,14.959
7690,246.08,-0.1141,7.4662,0.1799,0.0000,-0.0000,-2.8230,flat,18.0,2,14.622
7700,246.40,-0.6115,7.2769,0.1799,0.0001,-0.0000,-2.6632,flat,18.0,2,14.201
7710,246.72,-1.0830,7.0080,0.1799,0.0003,-0.0000,-2.5482,flat,18.0,2,13.731
7720,247.04,-1.5306,6.6845,0.1798,0.0003,-0.0000,-2.4688,flat,18.0,2,13.230
7730,247.36,-1.9556,6.3261,0.1797,0.0002,-0.0000,-2.4030,flat,18.0,2,12.713
7740,247.68,-2.3581,5.9394,0.1797,0.0002,-0.0000,-2.3449,flat,18.0,2,12.184
7750,248.00,-2.7404,5.5292,0.1797,0.0002,-0.0000,-2.2950,flat,18.0,2,11.646
7760,248.32,-3.1043,5.1007,0.1797,0.0001,-0.0000,-2.2523,flat,18.0,2,11.102
7770,248.64,-3.4522,4.6567,0.1797,0.0001,-0.0000,-2.2145,flat,18.0,2,10.552
7780,248.96,-3.7852,4.1992,0.1797,0.0001,-0.0000,-2.1806,flat,18.0,2,9.997
7790,249.28,-4.1043,3.7302,0.1797,0.0001,-0.0000,-2.1502,flat,18.0,2,9.439
7800,249.60,-4.4103,3.2512,0.1797,0.0001,-0.0000,-2.1228,flat,18.0,2,8.878
7810,249.92,-4.7043,2.7636,0.1797,0.0001,-0.0000,-2.0981,flat,18.0,2,8.314
7820,250.24,-4.9871,2.2685,0.1797,0.0001,-0.0000,-2.0756,flat,18.0,2,7.749
7830,250.56,-5.2595,1.7669,0.1797,0.0001,-0.0000,-2.0552,flat,18.0,2,7.182
7840,250.88,-5.5222,1.2595,0.1797,0.0001,-0.0000,-2.0364,flat,18.0,2,6.614
7850,251.20,-5.7759,0.7472,0.1797,0.0001,-0.0000,-2.0191,flat,18.0,2,6.045
7860,251.52,-6.0211,0.2303,0.1797,0.0001,-0.0000,-2.0030,flat,18.0,2,5.475
7870,251.84,-6.2583,-0.2907,0.1797,0.0001,-0.0000,-1.9878,flat,18.0,2,4.905
7880,252.16,-6.4878,-0.8152,0.1797,0.0001,-0.0000,-1.9733,flat,18.0,2,4.334
7890,252.48,-6.7099,-1.3432,0.1797,0.0000,-0.0000,-1.9593,flat,18.0,2,3.762
7900,252.80,-6.9246,-1.8742,0.1797,0.0000,-0.0000,-1.9454,flat,18.0,2,3.191
7910,253.12,-7.1320,-2.4081,0.1797,0.0001,0.0000,-1.9311,flat,18.0,2,2.620
7920,253.44,-7.3315,-2.9447,0.1797,0.0001,0.0000,-1.9157,flat,18.0,2,2.048
7930,253.76,-7.5224,-3.4839,0.1797,0.0001,0.0000,-1.8977,flat,18.0,2,1.478
7940,254.08,-7.7024,-4.0253,0.1797,0.0001,0.0000,-1.8729,flat,18.0,2,0.910
7950,254.40,-7.8558,-4.5196,0.1799,-0.0006,0.0003,-1.8688,flat,18.0,0,13.200
7960,254.72,-7.9452,-4.8560,0.1798,-0.0002,0.0000,-1.5063,flat,18.0,0,13.294
7970,255.04,-7.8982,-5.2480,0.1799,-0.0002,-0.0000,-1.1534,flat,18.0,0,13.263
7980,255.36,-7.7024,-5.6231,0.1799,0.0001,-0.0001,-0.9386,flat,18.0,0,13.094
7990,255.68,-7.3752,-5.9917,0.1799,0.0001,-0.0000,-0.7266,flat,18.0,0,12.805
8000,256.00,-6.9570,-6.3125,0.1799,0.0001,-0.0000,-0.5434,flat,18.0,0,12.432
8010,256.32,-6.4766,-6.5710,0.1799,0.0001,-0.0000,-0.3853,flat,18.0,0,11.998
8020,256.64,-5.9562,-6.7618,0.1799,0.0002,-0.0000,-0.2553,flat,18.0,0,11.521
8030,256.96,-5.4118,-6.8898,0.1798,0.0004,-0.0000,-0.1494,flat,18.0,0,11.014
8040,257.28,-4.8541,-6.9632,0.1798,0.0004,-0.0000,-0.0629,flat,18.0,0,10.487
8050,257.60,-4.2898,-6.9903,0.1798,0.0003,-0.0000,0.0078,flat,18.0,0,9.946
8060,257.92,-3.7239,-6.9791,0.1797,0.0002,-0.0000,0.0623,flat,18.0,0,9.396
