step,time_s,x,y,z,roll,pitch,yaw,terrain,speed,target_idx,dist_to_target
10,0.32,-1.2124,0.8840,0.1847,-0.0000,-0.0337,-0.0000,rough,14.0,0,8.497
20,0.64,-0.7829,0.8707,0.1794,-0.0001,0.0022,-0.1087,flat,18.0,0,8.162
30,0.96,-0.2500,0.7905,0.1799,-0.0001,-0.0000,-0.2746,flat,18.0,0,7.714
40,1.28,0.2703,0.6258,0.1799,-0.0003,-0.0000,-0.3961,flat,18.0,0,7.227
50,1.60,0.7721,0.3992,0.1798,-0.0004,-0.0000,-0.4895,flat,18.0,0,6.716
60,1.92,1.2546,0.1261,0.1798,-0.0003,-0.0000,-0.5647,flat,18.0,0,6.190
70,2.24,1.7188,-0.1831,0.1797,-0.0002,-0.0000,-0.6265,flat,18.0,0,5.653
80,2.56,2.1654,-0.5209,0.1797,-0.0002,-0.0000,-0.6799,flat,18.0,0,5.109
90,2.88,2.5948,-0.8827,0.1797,-0.0002,-0.0000,-0.7276,flat,18.0,0,4.560
100,3.20,3.0072,-1.2649,0.1797,-0.0002,-0.0000,-0.7721,flat,18.0,0,4.008
110,3.52,3.4030,-1.6654,0.1797,-0.0001,-0.0000,-0.8142,flat,18.0,0,3.453
120,3.84,3.7812,-2.0824,0.1797,-0.0001,0.0000,-0.8565,flat,18.0,0,2.896
130,4.16,4.1413,-2.5140,0.1797,-0.0001,0.0000,-0.8990,flat,18.0,0,2.340
140,4.48,4.4821,-2.9603,0.1797,-0.0002,0.0000,-0.9461,flat,18.0,0,1.783
150,4.80,4.8005,-3.4226,0.1797,-0.0002,-0.0000,-1.0053,flat,18.0,0,1.225
160,5.12,5.0742,-3.8814,0.1797,-0.0002,0.0003,-1.1027,flat,18.0,1,12.092
170,5.44,5.1170,-4.1677,0.1799,-0.0003,-0.0001,-1.6131,flat,18.0,1,12.376
180,5.76,5.0571,-4.5211,0.1796,-0.0013,0.0002,-2.1540,flat,18.0,1,12.691
190,6.08,4.8037,-4.7966,0.1799,0.0001,-0.0000,-2.5486,flat,18.0,1,12.875
200,6.40,4.4332,-4.9992,0.1799,0.0000,-0.0001,-2.9109,flat,18.0,1,12.967
210,6.72,3.9701,-5.0803,0.1799,0.0000,-0.0000,3.0444,flat,18.0,1,12.931
220,7.04,3.4737,-5.0066,0.1799,-0.0000,-0.0000,2.8010,flat,18.0,1,12.755
230,7.36,2.9897,-4.8064,0.1799,-0.0001,-0.0000,2.6218,flat,18.0,1,12.473
240,7.68,2.5367,-4.5171,0.1799,-0.0002,-0.0000,2.4916,flat,18.0,1,12.122
250,8.00,2.1133,-4.1687,0.1798,-0.0004,-0.0000,2.4004,flat,18.0,1,11.730
260,8.32,1.7205,-3.7817,0.1798,-0.0003,-0.0000,2.3197,flat,18.0,1,11.313
270,8.64,1.3548,-3.3626,0.1798,-0.0003,-0.0000,2.2471,flat,18.0,1,10.878
280,8.96,1.0155,-2.9168,0.1797,-0.0002,-0.0000,2.1818,flat,18.0,1,10.427
290,9.28,0.7026,-2.4488,0.1797,-0.0002,-0.0000,2.1231,flat,18.0,1,9.964
300,9.60,0.4158,-1.9623,0.1797,-0.0002,-0.0000,2.0704,flat,18.0,1,9.491
310,9.92,0.1530,-1.4614,0.1797,-0.0002,-0.0000,2.0243,flat,18.0,1,9.013
320,10.24,-0.0881,-0.9492,0.1797,-0.0001,-0.0000,1.9832,flat,18.0,1,8.531
330,10.56,-0.3093,-0.4270,0.1797,-0.0001,-0.0000,1.9449,flat,18.0,1,8.047
340,10.88,-0.5113,0.1038,0.1797,-0.0001,-0.0000,1.9089,flat,18.0,1,7.562
350,11.20,-0.6947,0.6417,0.1797,-0.0001,-0.0000,1.8743,flat,18.0,1,7.079
360,11.52,-0.8599,1.1859,0.1797,-0.0001,-0.0000,1.8405,flat,18.0,1,6.597
370,11.84,-1.0067,1.7353,0.1797,-0.0001,-0.0000,1.8061,flat,18.0,1,6.119
380,12.16,-1.1346,2.2890,0.1797,-0.0001,0.0000,1.7693,flat,18.0,1,5.647
390,12.48,-1.2046,2.8306,0.1799,-0.0002,0.0000,1.5996,flat,18.0,1,5.181
400,12.80,-1.2043,3.3835,0.1799,-0.0002,-0.0000,1.4616,flat,18.0,1,4.687
410,13.12,-1.1502,3.9452,0.1798,-0.0001,-0.0000,1.4529,flat,18.0,1,4.173
420,13.44,-1.0800,4.5104,0.1797,-0.0001,-0.0000,1.4266,flat,18.0,1,3.661
430,13.76,-0.9950,5.0737,0.1797,-0.0001,-0.0000,1.4011,flat,18.0,1,3.161
440,14.08,-0.8956,5.6344,0.1797,-0.0001,0.0000,1.3754,flat,18.0,1,2.680
450,14.40,-0.7857,6.1699,0.1799,0.0001,-0.0000,1.2502,flat,18.0,1,2.248
460,14.72,-0.5957,6.6636,0.1799,-0.0001,-0.0000,1.0762,flat,18.0,1,1.823
470,15.04,-0.3197,7.1160,0.1799,-0.0001,-0.0000,0.9201,flat,18.0,1,1.395
480,15.36,0.0261,7.5180,0.1799,-0.0001,0.0000,0.7712,flat,18.0,1,0.993
490,15.68,0.3675,7.8147,0.1771,0.0004,-0.0178,0.5257,flat,18.0,2,15.175
500,16.00,0.6579,7.9361,0.1798,0.0003,-0.0001,0.0720,flat,18.0,2,15.436
510,16.32,1.0238,7.9400,0.1799,0.0003,-0.0001,-0.4516,flat,18.0,2,15.645
520,16.64,1.3369,7.7362,0.1799,0.0001,-0.0001,-0.8053,flat,18.0,2,15.660
530,16.96,1.6075,7.3834,0.1799,0.0000,-0.0000,-1.0984,flat,18.0,2,15.541
540,17.28,1.8025,6.9297,0.1799,-0.0000,-0.0000,-1.3670,flat,18.0,2,15.307
550,17.60,1.8846,6.4135,0.1799,-0.0000,-0.0001,-1.5990,flat,18.0,2,14.965
560,17.92,1.8499,5.8754,0.1799,-0.0001,-0.0000,-1.7728,flat,18.0,2,14.539
570,18.24,1.7239,5.3428,0.1799,-0.0003,-0.0000,-1.8966,flat,18.0,2,14.061
580,18.56,1.5339,4.8238,0.1798,-0.0004,-0.0000,-1.9872,flat,18.0,2,13.554
590,18.88,1.2977,4.3194,0.1798,-0.0003,-0.0000,-2.0570,flat,18.0,2,13.029
600,19.20,1.0268,3.8292,0.1797,-0.0002,-0.0000,-2.1127,flat,18.0,2,12.491
610,19.52,0.7286,3.3522,0.1797,-0.0002,-0.0000,-2.1574,flat,18.0,2,11.945
620,19.84,0.4092,2.8871,0.1797,-0.0001,-0.0000,-2.1936,flat,18.0,2,11.393
630,20.16,0.0731,2.4321,0.1797,-0.0001,-0.0000,-2.2246,flat,18.0,2,10.837
640,20.48,-0.2773,1.9862,0.1797,-0.0001,-0.0000,-2.2517,flat,18.0,2,10.278
650,20.80,-0.6397,1.5488,0.1797,-0.0001,-0.0000,-2.2755,flat,18.0,2,9.716
660,21.12,-1.0126,1.1190,0.1797,-0.0001,-0.0000,-2.2970,flat,18.0,2,9.152
670,21.44,-1.3947,0.6963,0.1797,-0.0001,-0.0000,-2.3168,flat,18.0,2,8.586
680,21.76,-1.7853,0.2805,0.1797,-0.0001,-0.0000,-2.3348,flat,18.0,2,8.019
690,22.08,-2.1834,-0.1288,0.1797,-0.0001,-0.0000,-2.3512,flat,18.0,2,7.451
700,22.40,-2.5882,-0.5321,0.1797,-0.0001,-0.0000,-2.3662,flat,18.0,2,6.882
710,22.72,-2.9990,-0.9296,0.1797,-0.0001,-0.0000,-2.3803,flat,18.0,2,6.312
720,23.04,-3.4155,-1.3215,0.1797,-0.0000,-0.0000,-2.3937,flat,18.0,2,5.742
730,23.36,-3.8372,-1.7080,0.1797,-0.0000,-0.0000,-2.4065,flat,18.0,2,5.171
740,23.68,-4.2638,-2.0892,0.1797,-0.0000,-0.0000,-2.4187,flat,18.0,2,4.600
750,24.00,-4.6949,-2.4653,0.1797,-0.0000,0.0000,-2.4307,flat,18.0,2,4.029
760,24.32,-5.1304,-2.8363,0.1797,-0.0000,0.0000,-2.4426,flat,18.0,2,3.458
770,24.64,-5.5702,-3.2018,0.1797,-0.0000,0.0000,-2.4551,flat,18.0,2,2.887
780,24.96,-6.0145,-3.5614,0.1797,-0.0000,0.0000,-2.4688,flat,18.0,2,2.316
790,25.28,-6.4633,-3.9140,0.1797,-0.0001,0.0000,-2.4851,flat,18.0,2,1.746
800,25.60,-6.9172,-4.2574,0.1797,-0.0001,0.0000,-2.5075,flat,18.0,2,1.177
810,25.92,-7.3731,-4.5780,0.1798,-0.0001,0.0000,-2.5720,flat,18.0,3,1.092
820,26.24,-7.7827,-4.8115,0.1799,-0.0002,0.0012,-2.6179,flat,18.0,0,13.131
830,26.56,-8.0349,-5.0490,0.1799,-0.0004,0.0000,-2.0923,flat,18.0,0,13.390
840,26.88,-8.2028,-5.4089,0.1799,-0.0001,-0.0000,-1.5946,flat,18.0,0,13.577
850,27.20,-8.1884,-5.8027,0.1799,0.0002,-0.0000,-1.1984,flat,18.0,0,13.594
860,27.52,-7.9896,-6.2025,0.1799,0.0001,-0.0000,-0.9151,flat,18.0,0,13.440
870,27.84,-7.6527,-6.5637,0.1799,0.0001,-0.0000,-0.7034,flat,18.0,0,13.157
880,28.16,-7.2271,-6.8758,0.1799,0.0001,-0.0000,-0.5184,flat,18.0,0,12.791
890,28.48,-6.7402,-7.1230,0.1799,0.0001,-0.0000,-0.3587,flat,18.0,0,12.362
900,28.80,-6.2149,-7.3004,0.1799,0.0002,-0.0000,-0.2282,flat,18.0,0,11.889
910,29.12,-5.6671,-7.4140,0.1798,0.0004,-0.0000,-0.1224,flat,18.0,0,11.386
920,29.44,-5.1076,-7.4725,0.1798,0.0004,-0.0000,-0.0363,flat,18.0,0,10.861
930,29.76,-4.5427,-7.4846,0.1798,0.0003,-0.0000,0.0332,flat,18.0,0,10.322
940,30.08,-3.9774,-7.4593,0.1797,0.0002,-0.0000,0.0858,flat,18.0,0,9.774
950,30.40,-3.4130,-7.4054,0.1797,0.0002,-0.0000,0.1278,flat,18.0,0,9.221
960,30.72,-2.8505,-7.3286,0.1797,0.0001,-0.0000,0.1616,flat,18.0,0,8.663
970,31.04,-2.2899,-7.2333,0.1797,0.0001,-0.0000,0.1903,flat,18.0,0,8.102
980,31.36,-1.7313,-7.1221,0.1797,0.0001,-0.0000,0.2151,flat,18.0,0,7.539
990,31.68,-1.1749,-6.9974,0.1797,0.0001,-0.0000,0.2366,flat,18.0,0,6.974
1000,32.00,-0.6207,-6.8609,0.1797,0.0001,-0.0000,0.2558,flat,18.0,0,6.408
1010,32.32,-0.0687,-6.7139,0.1797,0.0001,-0.0000,0.2729,flat,18.0,0,5.841
1020,32.64,0.4811,-6.5575,0.1797,0.0001,-0.0000,0.2885,flat,18.0,0,5.273
1030,32.96,1.0287,-6.3926,0.1797,0.0001,-0.0000,0.3029,flat,18.0,0,4.705
1040,33.28,1.5741,-6.2199,0.1797,0.0000,-0.0000,0.3165,flat,18.0,0,4.136
1050,33.60,2.1173,-6.0398,0.1797,0.0000,-0.0000,0.3296,flat,18.0,0,3.567
1060,33.92,2.6579,-5.8526,0.1797,0.0000,0.0000,0.3427,flat,18.0,0,2.999
1070,34.24,3.1959,-5.6584,0.1797,0.0000,0.0000,0.3563,flat,18.0,0,2.432
1080,34.56,3.7307,-5.4567,0.1797,0.0001,0.0000,0.3715,flat,18.0,0,1.866
1090,34.88,4.2609,-5.2470,0.1797,0.0001,0.0000,0.3906,flat,18.0,0,1.305
1100,35.20,4.7827,-5.0273,0.1797,0.0001,0.0000,0.4229,flat,18.0,1,0.757
1110,35.52,5.1572,-4.8252,0.1799,-0.0002,0.0000,0.7199,flat,18.0,1,13.011
1120,35.84,5.4400,-4.5052,0.1799,-0.0000,-0.0000,1.0244,flat,18.0,1,12.803
1130,36.16,5.6585,-4.0745,0.1799,0.0000,-0.0000,1.3077,flat,18.0,1,12.479
1140,36.48,5.7670,-3.5714,0.1799,0.0001,-0.0000,1.5590,flat,18.0,1,12.056
1150,36.80,5.7509,-3.0380,0.1799,0.0001,-0.0000,1.7575,flat,18.0,1,11.561
1160,37.12,5.6319,-2.5078,0.1799,0.0002,-0.0000,1.8990,flat,18.0,1,11.029
1170,37.44,5.4400,-1.9932,0.1798,0.0004,-0.0000,2.0022,flat,18.0,1,10.481
1180,37.76,5.1958,-1.4961,0.1798,0.0004,-0.0000,2.0823,flat,18.0,1,9.927
1190,38.08,4.9122,-1.0164,0.1797,0.0002,-0.0000,2.1469,flat,18.0,1,9.373
1200,38.40,4.5977,-0.5529,0.1797,0.0002,-0.0000,2.2005,flat,18.0,1,8.821
1210,38.72,4.2582,-0.1049,0.1797,0.0002,-0.0000,2.2453,flat,18.0,1,8.275
1220,39.04,3.8987,0.3290,0.1797,0.0001,-0.0000,2.2832,flat,18.0,1,7.737
1230,39.36,3.5228,0.7507,0.1797,0.0001,-0.0000,2.3184,flat,18.0,1,7.208
1240,39.68,3.1319,1.1601,0.1797,0.0001,-0.0000,2.3508,flat,18.0,1,6.692
1250,40.00,2.7277,1.5575,0.1797,0.0001,-0.0000,2.3809,flat,18.0,1,6.193
1260,40.32,2.3116,1.9427,0.1797,0.0001,-0.0000,2.4101,flat,18.0,1,5.715
1270,40.64,1.8847,2.3159,0.1797,0.0001,0.0000,2.4381,flat,18.0,1,5.266
1280,40.96,1.4478,2.6772,0.1797,0.0001,-0.0000,2.4658,flat,18.0,1,4.852
1290,41.28,1.0011,3.0262,0.1797,0.0001,0.0000,2.4950,flat,18.0,1,4.484
1300,41.60,0.5447,3.3614,0.1797,0.0001,0.0000,2.5272,flat,18.0,1,4.175
1310,41.92,0.1651,3.6725,0.1798,-0.0018,0.0021,2.3082,flat,18.0,1,3.931
1320,42.24,-0.1363,4.0749,0.1799,0.0000,-0.0000,2.0607,flat,18.0,1,3.624
1330,42.56,-0.3550,4.5569,0.1799,-0.0000,-0.0000,1.8171,flat,18.0,1,3.257
1340,42.88,-0.4624,5.0848,0.1799,-0.0000,-0.0000,1.5919,flat,18.0,1,2.842
1350,43.20,-0.4528,5.6258,0.1799,-0.0001,-0.0000,1.4016,flat,18.0,1,2.391
1360,43.52,-0.3436,6.1553,0.1799,-0.0001,-0.0000,1.2464,flat,18.0,1,1.921
1370,43.84,-0.1531,6.6598,0.1799,-0.0001,-0.0000,1.1066,flat,18.0,1,1.448
1380,44.16,0.1079,7.1288,0.1799,-0.0002,-0.0000,0.9702,flat,18.0,1,0.987
1390,44.48,0.3643,7.4850,0.1785,-0.0002,-0.0080,0.7709,flat,18.0,2,14.898
1400,44.80,0.5560,7.5808,0.1776,-0.0131,0.0001,0.1257,flat,18.0,2,15.084
1410,45.12,0.8975,7.6106,0.1799,0.0004,0.0000,-0.3747,flat,18.0,2,15.303
1420,45.44,1.2198,7.4389,0.1799,0.0001,-0.0000,-0.7547,flat,18.0,2,15.352
1430,45.76,1.4966,7.1072,0.1799,0.0000,-0.0000,-1.0533,flat,18.0,2,15.255
1440,46.08,1.7060,6.6683,0.1799,-0.0000,-0.0000,-1.3293,flat,18.0,2,15.044
1450,46.40,1.8055,6.1604,0.1799,0.0000,-0.0000,-1.5717,flat,18.0,2,14.722
1460,46.72,1.7850,5.6242,0.1799,-0.0001,-0.0000,-1.7559,flat,18.0,2,14.309
1470,47.04,1.6675,5.0911,0.1799,-0.0002,-0.0000,-1.8878,flat,18.0,2,13.840
1480,47.36,1.4818,4.5717,0.1798,-0.0004,-0.0000,-1.9835,flat,18.0,2,13.338
1490,47.68,1.2474,4.0676,0.1798,-0.0003,-0.0000,-2.0568,flat,18.0,2,12.816
1500,48.00,0.9765,3.5782,0.1797,-0.0002,-0.0000,-2.1151,flat,18.0,2,12.281
1510,48.32,0.6772,3.1024,0.1797,-0.0002,-0.0000,-2.1623,flat,18.0,2,11.736
1520,48.64,0.3555,2.6395,0.1797,-0.0001,-0.0000,-2.1998,flat,18.0,2,11.186
1530,48.96,0.0165,2.1872,0.1797,-0.0001,-0.0000,-2.2321,flat,18.0,2,10.631
1540,49.28,-0.3372,1.7444,0.1797,-0.0001,-0.0000,-2.2601,flat,18.0,2,10.072
1550,49.60,-0.7033,1.3104,0.1797,-0.0001,-0.0000,-2.2849,flat,18.0,2,9.511
1560,49.92,-1.0802,0.8844,0.1797,-0.0001,-0.0000,-2.3076,flat,18.0,2,8.947
1570,50.24,-1.4669,0.4660,0.1797,-0.0001,-0.0000,-2.3283,flat,18.0,2,8.382
1580,50.56,-1.8622,0.0550,0.1797,-0.0001,-0.0000,-2.3469,flat,18.0,2,7.815
1590,50.88,-2.2652,-0.3492,0.1797,-0.0001,-0.0000,-2.3639,flat,18.0,2,7.248
1600,51.20,-2.6751,-0.7469,0.1797,-0.0001,-0.0000,-2.3797,flat,18.0,2,6.679
1610,51.52,-3.0913,-1.1385,0.1797,-0.0001,-0.0000,-2.3946,flat,18.0,2,6.110
1620,51.84,-3.5133,-1.5240,0.1797,-0.0001,-0.0000,-2.4087,flat,18.0,2,5.540
1630,52.16,-3.9406,-1.9038,0.1797,-0.0000,-0.0000,-2.4221,flat,18.0,2,4.969
1640,52.48,-4.3729,-2.2781,0.1797,-0.0000,-0.0000,-2.4349,flat,18.0,2,4.399
1650,52.80,-4.8099,-2.6468,0.1797,-0.0000,-0.0000,-2.4476,flat,18.0,2,3.828
1660,53.12,-5.2516,-3.0099,0.1797,-0.0000,0.0000,-2.4606,flat,18.0,2,3.257
1670,53.44,-5.6978,-3.3671,0.1797,-0.0000,0.0000,-2.4744,flat,18.0,2,2.687
1680,53.76,-6.1488,-3.7175,0.1797,-0.0001,0.0000,-2.4899,flat,18.0,2,2.116
1690,54.08,-6.6047,-4.0598,0.1797,-0.0001,0.0000,-2.5090,flat,18.0,2,1.547
1700,54.40,-7.0659,-4.3905,0.1797,-0.0001,0.0000,-2.5377,flat,18.0,2,0.980
1710,54.72,-7.5300,-4.6867,0.1798,-0.0000,0.0000,-2.6329,flat,18.0,3,0.912
1720,55.04,-7.8821,-4.8663,0.1798,0.0001,0.0001,-2.4637,flat,18.0,0,13.231
1730,55.36,-8.1311,-5.1574,0.1798,-0.0002,-0.0000,-1.9598,flat,18.0,0,13.491
1740,55.68,-8.2564,-5.5283,0.1799,0.0000,-0.0000,-1.4756,flat,18.0,0,13.638
1750,56.00,-8.1908,-5.9293,0.1799,0.0001,-0.0000,-1.1156,flat,18.0,0,13.609
1760,56.32,-7.9509,-6.3213,0.1799,0.0001,-0.0000,-0.8541,flat,18.0,0,13.417
1770,56.64,-7.5869,-6.6703,0.1799,0.0001,-0.0000,-0.6527,flat,18.0,0,13.109
1780,56.96,-7.1428,-6.9666,0.1799,0.0001,-0.0000,-0.4731,flat,18.0,0,12.725
1790,57.28,-6.6438,-7.1951,0.1799,0.0001,-0.0000,-0.3212,flat,18.0,0,12.283
1800,57.60,-6.1112,-7.3546,0.1799,0.0003,-0.0000,-0.1976,flat,18.0,0,11.801
1810,57.92,-5.5785,-7.4248,0.1799,0.0001,0.0000,0.0219,flat,18.0,0,11.303
1820,58.24,-5.0359,-7.3933,0.1799,0.0001,-0.0000,0.1925,flat,18.0,0,10.771
1830,58.56,-4.5032,-7.2726,0.1799,0.0002,-0.0000,0.3226,flat,18.0,0,10.225
1840,58.88,-3.9883,-7.0840,0.1798,0.0004,-0.0000,0.4295,flat,18.0,0,9.679
1850,59.20,-3.4951,-6.8407,0.1798,0.0004,-0.0000,0.5231,flat,18.0,0,9.139
1860,59.52,-3.0231,-6.5510,0.1798,0.0003,-0.0000,0.5992,flat,18.0,0,8.611
1870,59.84,-2.5695,-6.2405,0.1798,0.0002,-0.0001,0.5711,flat,18.0,0,8.099
1880,60.16,-2.0905,-5.9502,0.1798,-0.0003,-0.0000,0.4933,flat,18.0,0,7.571
1890,60.48,-1.5889,-5.6941,0.1797,-0.0003,-0.0000,0.4246,flat,18.0,0,7.032
1900,60.80,-1.0699,-5.4702,0.1797,-0.0002,-0.0000,0.3637,flat,18.0,0,6.485
1910,61.12,-0.5373,-5.2766,0.1797,-0.0002,-0.0000,0.3096,flat,18.0,0,5.930
1920,61.44,0.0058,-5.1105,0.1797,-0.0002,-0.0000,0.2612,flat,18.0,0,5.371
1930,61.76,0.5559,-4.9698,0.1797,-0.0001,-0.0000,0.2194,flat,18.0,0,4.810
1940,62.08,1.1114,-4.8511,0.1797,-0.0001,-0.0000,0.1815,flat,18.0,0,4.246
1950,62.40,1.6714,-4.7531,0.1797,-0.0001,-0.0000,0.1455,flat,18.0,0,3.681
1960,62.72,2.2348,-4.6748,0.1797,-0.0001,-0.0000,0.1106,flat,18.0,0,3.114
1970,63.04,2.8006,-4.6161,0.1797,-0.0001,-0.0000,0.0755,flat,18.0,0,2.546
1980,63.36,3.3676,-4.5773,0.1797,-0.0001,0.0000,0.0382,flat,18.0,0,1.978
1990,63.68,3.9088,-4.5615,0.1797,-0.0001,-0.0001,0.0130,flat,18.0,0,1.436
2000,64.00,4.4709,-4.5607,0.1798,-0.0003,-0.0000,-0.0544,flat,18.0,0,0.875
2010,64.32,5.0013,-4.5714,0.1799,-0.0005,0.0000,0.1236,flat,18.0,1,12.721
2020,64.64,5.4254,-4.4985,0.1799,-0.0002,0.0001,0.4898,flat,18.0,1,12.791
2030,64.96,5.7297,-4.2783,0.1799,-0.0001,-0.0001,0.8463,flat,18.0,1,12.695
2040,65.28,5.9866,-3.9157,0.1799,-0.0000,-0.0000,1.1546,flat,18.0,1,12.459
2050,65.60,6.1564,-3.4545,0.1799,0.0000,-0.0000,1.4382,flat,18.0,1,12.108
2060,65.92,6.2003,-2.9380,0.1799,0.0000,-0.0000,1.6812,flat,18.0,1,11.662
2070,66.24,6.1205,-2.4089,0.1799,0.0001,-0.0000,1.8588,flat,18.0,1,11.154
2080,66.56,5.9483,-1.8930,0.1799,0.0003,-0.0000,1.9859,flat,18.0,1,10.617
2090,66.88,5.7118,-1.3968,0.1798,0.0004,-0.0000,2.0811,flat,18.0,1,10.067
2100,67.20,5.4284,-0.9201,0.1798,0.0003,-0.0000,2.1553,flat,18.0,1,9.514
2110,67.52,5.1099,-0.4616,0.1797,0.0002,-0.0000,2.2148,flat,18.0,1,8.960
2120,67.84,4.7641,-0.0205,0.1797,0.0002,-0.0000,2.2662,flat,18.0,1,8.410
2130,68.16,4.3954,0.4039,0.1797,0.0002,-0.0000,2.3109,flat,18.0,1,7.867
2140,68.48,4.0078,0.8134,0.1797,0.0001,-0.0000,2.3505,flat,18.0,1,7.333
2150,68.80,3.6039,1.2086,0.1797,0.0001,-0.0000,2.3863,flat,18.0,1,6.811
2160,69.12,3.1859,1.5896,0.1797,0.0001,-0.0000,2.4201,flat,18.0,1,6.304
2170,69.44,2.7557,1.9571,0.1797,0.0001,-0.0000,2.4512,flat,18.0,1,5.818
2180,69.76,2.3143,2.3119,0.1797,0.0001,-0.0000,2.4813,flat,18.0,1,5.357
2190,70.08,1.8622,2.6538,0.1797,0.0001,-0.0000,2.5113,flat,18.0,1,4.929
2200,70.40,1.4000,2.9822,0.1797,0.0001,-0.0000,2.5419,flat,18.0,1,4.544
2210,70.72,0.9341,3.2803,0.1797,0.0001,-0.0000,2.5783,flat,18.0,1,4.230
2220,71.04,0.4687,3.5651,0.1797,0.0000,0.0002,2.5314,flat,18.0,1,3.983
2230,71.36,0.1102,3.8784,0.1799,-0.0001,-0.0000,2.2720,flat,18.0,1,3.743
2240,71.68,-0.1814,4.2947,0.1799,-0.0000,-0.0000,2.0169,flat,18.0,1,3.432
2250,72.00,-0.3806,4.7864,0.1799,-0.0001,-0.0000,1.7694,flat,18.0,1,3.062
2260,72.32,-0.4629,5.3184,0.1799,-0.0001,-0.0000,1.5411,flat,18.0,1,2.645
2270,72.64,-0.4262,5.8563,0.1799,-0.0001,0.0000,1.3542,flat,18.0,1,2.196
2280,72.96,-0.2916,6.3776,0.1799,-0.0001,0.0000,1.1979,flat,18.0,1,1.732
2290,73.28,-0.0762,6.8689,0.1799,-0.0001,0.0000,1.0530,flat,18.0,1,1.269
2300,73.60,0.2111,7.3200,0.1799,-0.0002,0.0000,0.9136,flat,18.0,1,0.830
2310,73.92,0.3896,7.5397,0.1796,-0.0004,-0.0014,0.3766,flat,18.0,2,14.957
2320,74.24,0.6624,7.6228,0.1790,-0.0048,0.0000,-0.0656,flat,18.0,2,15.179
2330,74.56,1.0187,7.5727,0.1799,0.0003,-0.0000,-0.5480,flat,18.0,2,15.342
2340,74.88,1.3185,7.3282,0.1799,0.0001,-0.0001,-0.8782,flat,18.0,2,15.322
2350,75.20,1.5749,6.9486,0.1799,0.0000,-0.0000,-1.1691,flat,18.0,2,15.179
2360,75.52,1.7430,6.4765,0.1799,-0.0000,-0.0000,-1.4319,flat,18.0,2,14.921
2370,75.84,1.7929,5.9518,0.1799,-0.0000,-0.0000,-1.6532,flat,18.0,2,14.557
2380,76.16,1.7296,5.4145,0.1799,-0.0001,-0.0000,-1.8145,flat,18.0,2,14.117
2390,76.48,1.5818,4.8864,0.1799,-0.0004,-0.0000,-1.9292,flat,18.0,2,13.633
2400,76.80,1.3749,4.3730,0.1798,-0.0004,-0.0000,-2.0146,flat,18.0,2,13.121
2410,77.12,1.1249,3.8747,0.1797,-0.0003,-0.0000,-2.0810,flat,18.0,2,12.593
2420,77.44,0.8421,3.3906,0.1797,-0.0002,-0.0000,-2.1344,flat,18.0,2,12.054
2430,77.76,0.5335,2.9200,0.1797,-0.0002,-0.0000,-2.1772,flat,18.0,2,11.507
2440,78.08,0.2049,2.4612,0.1797,-0.0001,-0.0000,-2.2124,flat,18.0,2,10.954
2450,78.40,-0.1399,2.0124,0.1797,-0.0001,-0.0000,-2.2428,flat,18.0,2,10.398
2460,78.72,-0.4984,1.5728,0.1797,-0.0001,-0.0000,-2.2694,flat,18.0,2,9.838
2470,79.04,-0.8685,1.1417,0.1797,-0.0001,-0.0000,-2.2931,flat,18.0,2,9.276
2480,79.36,-1.2490,0.7184,0.1797,-0.0001,-0.0000,-2.3150,flat,18.0,2,8.711
2490,79.68,-1.6387,0.3026,0.1797,-0.0001,-0.0000,-2.3348,flat,18.0,2,8.145
2500,80.00,-2.0368,-0.1061,0.1797,-0.0001,-0.0000,-2.3527,flat,18.0,2,7.578
2510,80.32,-2.4421,-0.5082,0.1797,-0.0001,-0.0000,-2.3691,flat,18.0,2,7.010
2520,80.64,-2.8541,-0.9039,0.1797,-0.0001,-0.0000,-2.3845,flat,18.0,2,6.441
2530,80.96,-3.2722,-1.2936,0.1797,-0.0001,-0.0000,-2.3991,flat,18.0,2,5.871
2540,81.28,-3.6960,-1.6773,0.1797,-0.0000,-0.0000,-2.4129,flat,18.0,2,5.301
2550,81.60,-4.1249,-2.0555,0.1797,-0.0000,-0.0000,-2.4260,flat,18.0,2,4.731
2560,81.92,-4.5586,-2.4281,0.1797,-0.0000,-0.0000,-2.4388,flat,18.0,2,4.160
2570,82.24,-4.9970,-2.7951,0.1797,-0.0000,0.0000,-2.4515,flat,18.0,2,3.590
2580,82.56,-5.4400,-3.1564,0.1797,-0.0000,0.0000,-2.4647,flat,18.0,2,3.019
2590,82.88,-5.8876,-3.5116,0.1797,-0.0001,0.0000,-2.4790,flat,18.0,2,2.448
2600,83.20,-6.3401,-3.8596,0.1797,-0.0001,0.0000,-2.4957,flat,18.0,2,1.878
2610,83.52,-6.7977,-4.1984,0.1797,-0.0001,0.0000,-2.5176,flat,18.0,2,1.310
2620,83.84,-7.2604,-4.5224,0.1797,-0.0001,0.0000,-2.5560,flat,18.0,3,0.745
2630,84.16,-7.7191,-4.7904,0.1811,-0.0002,0.0086,-2.6981,flat,18.0,0,13.067
2640,84.48,-8.0006,-4.9664,0.1799,-0.0003,0.0000,-2.2571,flat,18.0,0,13.353
2650,84.80,-8.2079,-5.3051,0.1797,0.0010,0.0001,-1.7404,flat,18.0,0,13.575
2660,85.12,-8.2524,-5.6905,0.1799,-0.0000,-0.0000,-1.2967,flat,18.0,0,13.647
2670,85.44,-8.1036,-6.0942,0.1799,-0.0001,-0.0000,-0.9855,flat,18.0,0,13.540
2680,85.76,-7.8008,-6.4683,0.1799,-0.0000,-0.0000,-0.7598,flat,18.0,0,13.289
2690,86.08,-7.3975,-6.7959,0.1799,0.0000,-0.0000,-0.5693,flat,18.0,0,12.944
2700,86.40,-6.9257,-7.0631,0.1799,0.0001,-0.0000,-0.4018,flat,18.0,0,12.531
2710,86.72,-6.4096,-7.2604,0.1799,0.0002,-0.0000,-0.2634,flat,18.0,0,12.069
2720,87.04,-5.8670,-7.3917,0.1799,0.0004,-0.0000,-0.1511,flat,18.0,0,11.574
2730,87.36,-5.3101,-7.4653,0.1798,0.0004,-0.0000,-0.0598,flat,18.0,0,11.054
2740,87.68,-4.7462,-7.4902,0.1798,0.0003,-0.0000,0.0144,flat,18.0,0,10.519
2750,88.00,-4.1807,-7.4750,0.1797,0.0002,-0.0000,0.0714,flat,18.0,0,9.973
2760,88.32,-3.6158,-7.4290,0.1797,0.0002,-0.0000,0.1163,flat,18.0,0,9.421
2770,88.64,-3.0528,-7.3586,0.1797,0.0001,-0.0000,0.1518,flat,18.0,0,8.864
2780,88.96,-2.4916,-7.2686,0.1797,0.0001,-0.0000,0.1818,flat,18.0,0,8.304
2790,89.28,-1.9323,-7.1622,0.1797,0.0001,-0.0000,0.2076,flat,18.0,0,7.742
2800,89.60,-1.3751,-7.0416,0.1797,0.0001,-0.0000,0.2299,flat,18.0,0,7.177
2810,89.92,-0.8202,-6.9087,0.1797,0.0001,-0.0000,0.2497,flat,18.0,0,6.611
2820,90.24,-0.2674,-6.7651,0.1797,0.0001,-0.0000,0.2673,flat,18.0,0,6.044
2830,90.56,0.2832,-6.6118,0.1797,0.0001,-0.0000,0.2832,flat,18.0,0,5.477
2840,90.88,0.8316,-6.4498,0.1797,0.0001,-0.0000,0.2979,flat,18.0,0,4.908
2850,91.20,1.3779,-6.2799,0.1797,0.0000,-0.0000,0.3116,flat,18.0,0,4.340
2860,91.52,1.9219,-6.1024,0.1797,0.0000,-0.0000,0.3247,flat,18.0,0,3.771
2870,91.84,2.4636,-5.9179,0.1797,0.0000,-0.0000,0.3376,flat,18.0,0,3.202
2880,92.16,3.0027,-5.7264,0.1797,0.0000,0.0000,0.3508,flat,18.0,0,2.634
2890,92.48,3.5388,-5.5277,0.1797,0.0000,0.0000,0.3651,flat,18.0,0,2.068
2900,92.80,4.0711,-5.3214,0.1797,0.0001,0.0000,0.3822,flat,18.0,0,1.505
2910,93.12,4.5971,-5.1060,0.1797,0.0001,0.0000,0.4073,flat,18.0,0,0.950
2920,93.44,5.0320,-4.9075,0.1798,-0.0003,0.0001,0.6187,flat,18.0,1,13.050
2930,93.76,5.3312,-4.6290,0.1799,-0.0000,-0.0000,0.9304,flat,18.0,1,12.882
2940,94.08,5.5763,-4.2292,0.1799,0.0000,-0.0000,1.2209,flat,18.0,1,12.593
2950,94.40,5.7231,-3.7441,0.1799,0.0000,-0.0000,1.4832,flat,18.0,1,12.198
2960,94.72,5.7461,-3.2156,0.1799,0.0000,-0.0000,1.7009,flat,18.0,1,11.721
2970,95.04,5.6569,-2.6819,0.1799,0.0001,-0.0000,1.8577,flat,18.0,1,11.197
2980,95.36,5.4862,-2.1616,0.1799,0.0004,-0.0000,1.9708,flat,18.0,1,10.653
2990,95.68,5.2578,-1.6585,0.1798,0.0004,-0.0000,2.0572,flat,18.0,1,10.101
3000,96.00,4.9864,-1.1728,0.1797,0.0003,-0.0000,2.1260,flat,18.0,1,9.546
3010,96.32,4.6817,-0.7038,0.1797,0.0002,-0.0000,2.1827,flat,18.0,1,8.993
3020,96.64,4.3505,-0.2502,0.1797,0.0002,-0.0000,2.2305,flat,18.0,1,8.445
3030,96.96,3.9975,0.1884,0.1797,0.0001,-0.0000,2.2698,flat,18.0,1,7.904
3040,97.28,3.6274,0.6146,0.1797,0.0001,-0.0000,2.3056,flat,18.0,1,7.372
3050,97.60,3.2419,1.0286,0.1797,0.0001,-0.0000,2.3390,flat,18.0,1,6.852
3060,97.92,2.8425,1.4306,0.1797,0.0001,-0.0000,2.3696,flat,18.0,1,6.347
3070,98.24,2.4308,1.8205,0.1797,0.0001,-0.0000,2.3990,flat,18.0,1,5.862
3080,98.56,2.0079,2.1983,0.1797,0.0001,-0.0000,2.4274,flat,18.0,1,5.403
3090,98.88,1.5748,2.5642,0.1797,0.0001,-0.0000,2.4551,flat,18.0,1,4.977
3100,99.20,1.1319,2.9179,0.1797,0.0001,-0.0000,2.4836,flat,18.0,1,4.593
3110,99.52,0.6793,3.2586,0.1797,0.0001,0.0000,2.5146,flat,18.0,1,4.265
3120,99.84,0.2650,3.5685,0.1799,0.0003,0.0000,2.3796,flat,18.0,1,4.013
3130,100.16,-0.0556,3.9427,0.1799,-0.0000,-0.0000,2.1315,flat,18.0,1,3.725
3140,100.48,-0.3020,4.4056,0.1799,-0.0001,-0.0000,1.8849,flat,18.0,1,3.374
3150,100.80,-0.4424,4.9241,0.1799,-0.0001,-0.0000,1.6546,flat,18.0,1,2.970
3160,101.12,-0.4655,5.4646,0.1799,-0.0001,-0.0000,1.4520,flat,18.0,1,2.527
3170,101.44,-0.3830,5.9992,0.1799,-0.0001,0.0000,1.2895,flat,18.0,1,2.061
3180,101.76,-0.2149,6.5124,0.1799,-0.0001,-0.0000,1.1473,flat,18.0,1,1.586
3190,102.08,0.0257,6.9929,0.1799,-0.0002,-0.0000,1.0102,flat,18.0,1,1.120
3200,102.40,0.3149,7.4149,0.1797,-0.0001,-0.0004,0.8887,flat,18.0,2,14.812
3210,102.72,0.4796,7.5532,0.1801,0.0005,-0.0008,0.2440,flat,18.0,2,15.019
3220,103.04,0.7911,7.6227,0.1797,-0.0006,-0.0001,-0.2253,flat,18.0,2,15.252
3230,103.36,1.1327,7.5105,0.1799,-0.0000,0.0000,-0.6525,flat,18.0,2,15.358
3240,103.68,1.4211,7.2204,0.1799,0.0000,-0.0001,-0.9650,flat,18.0,2,15.298
3250,104.00,1.6566,6.8102,0.1799,-0.0000,-0.0000,-1.2495,flat,18.0,2,15.122
3260,104.32,1.7914,6.3187,0.1799,-0.0001,-0.0000,-1.5011,flat,18.0,2,14.832
3270,104.64,1.8056,5.7867,0.1799,-0.0001,-0.0000,-1.7051,flat,18.0,2,14.443
3280,104.96,1.7143,5.2508,0.1799,-0.0002,-0.0000,-1.8531,flat,18.0,2,13.988
3290,105.28,1.5465,4.7270,0.1798,-0.0004,-0.0000,-1.9576,flat,18.0,2,13.494
3300,105.60,1.3252,4.2183,0.1798,-0.0004,-0.0000,-2.0367,flat,18.0,2,12.977
3310,105.92,1.0641,3.7246,0.1797,-0.0002,-0.0000,-2.0990,flat,18.0,2,12.445
3320,106.24,0.7726,3.2449,0.1797,-0.0002,-0.0000,-2.1493,flat,18.0,2,11.903
3330,106.56,0.4570,2.7784,0.1797,-0.0001,-0.0000,-2.1893,flat,18.0,2,11.354
3340,106.88,0.1228,2.3230,0.1797,-0.0001,-0.0000,-2.2230,flat,18.0,2,10.801
3350,107.20,-0.2268,1.8774,0.1797,-0.0001,-0.0000,-2.2522,flat,18.0,2,10.243
3360,107.52,-0.5894,1.4409,0.1797,-0.0001,-0.0000,-2.2778,flat,18.0,2,9.682
3370,107.84,-0.9633,1.0126,0.1797,-0.0001,-0.0000,-2.3010,flat,18.0,2,9.120
3380,108.16,-1.3471,0.5921,0.1797,-0.0001,-0.0000,-2.3224,flat,18.0,2,8.555
3390,108.48,-1.7400,0.1789,0.1797,-0.0001,-0.0000,-2.3416,flat,18.0,2,7.989
3400,108.80,-2.1408,-0.2272,0.1797,-0.0001,-0.0000,-2.3590,flat,18.0,2,7.421
3410,109.12,-2.5487,-0.6269,0.1797,-0.0001,-0.0000,-2.3751,flat,18.0,2,6.853
3420,109.44,-2.9631,-1.0202,0.1797,-0.0001,-0.0000,-2.3903,flat,18.0,2,6.283
3430,109.76,-3.3835,-1.4075,0.1797,-0.0001,-0.0000,-2.4047,flat,18.0,2,5.714
3440,110.08,-3.8093,-1.7889,0.1797,-0.0000,-0.0000,-2.4182,flat,18.0,2,5.143
3450,110.40,-4.2402,-2.1648,0.1797,-0.0000,-0.0000,-2.4312,flat,18.0,2,4.573
3460,110.72,-4.6758,-2.5352,0.1797,-0.0000,-0.0000,-2.4439,flat,18.0,2,4.002
3470,111.04,-5.1161,-2.9000,0.1797,-0.0000,0.0000,-2.4567,flat,18.0,2,3.432
3480,111.36,-5.5610,-3.2589,0.1797,-0.0000,0.0000,-2.4702,flat,18.0,2,2.861
3490,111.68,-6.0105,-3.6115,0.1797,-0.0001,0.0000,-2.4850,flat,18.0,2,2.290
3500,112.00,-6.4649,-3.9565,0.1797,-0.0001,0.0000,-2.5027,flat,18.0,2,1.721
3510,112.32,-6.9246,-4.2913,0.1797,-0.0001,0.0000,-2.5272,flat,18.0,2,1.153
3520,112.64,-7.3867,-4.6018,0.1798,-0.0001,-0.0000,-2.5951,flat,18.0,3,1.072
3530,112.96,-7.8024,-4.8255,0.1799,-0.0002,0.0010,-2.6413,flat,18.0,0,13.151
3540,113.28,-8.0621,-5.0560,0.1799,-0.0005,-0.0003,-2.1086,flat,18.0,0,13.418
3550,113.60,-8.2353,-5.4136,0.1799,-0.0001,-0.0000,-1.6104,flat,18.0,0,13.609
3560,113.92,-8.2285,-5.8063,0.1799,-0.0002,-0.0001,-1.2063,flat,18.0,0,13.634
3570,114.24,-8.0357,-6.2066,0.1799,-0.0001,-0.0001,-0.9222,flat,18.0,0,13.486
3580,114.56,-7.7029,-6.5693,0.1799,0.0000,-0.0000,-0.7101,flat,18.0,0,13.208
3590,114.88,-7.2802,-6.8834,0.1799,0.0000,-0.0000,-0.5241,flat,18.0,0,12.844
3600,115.20,-6.7951,-7.1330,0.1799,0.0001,-0.0000,-0.3637,flat,18.0,0,12.418
3610,115.52,-6.2832,-7.2911,0.1799,0.0001,-0.0000,-0.1532,flat,18.0,0,11.953
3620,115.84,-5.7399,-7.3544,0.1799,0.0001,-0.0000,0.0273,flat,18.0,0,11.441
3630,116.16,-5.1903,-7.3233,0.1799,0.0002,-0.0000,0.1656,flat,18.0,0,10.901
3640,116.48,-4.6475,-7.2191,0.1798,0.0004,-0.0000,0.2724,flat,18.0,0,10.350
3650,116.80,-4.1170,-7.0582,0.1798,0.0004,-0.0000,0.3608,flat,18.0,0,9.796
3660,117.12,-3.6014,-6.8510,0.1798,0.0003,-0.0000,0.4381,flat,18.0,0,9.245
3670,117.44,-3.1029,-6.6042,0.1797,0.0003,-0.0000,0.5091,flat,18.0,0,8.701
3680,117.76,-2.6230,-6.3219,0.1797,0.0002,-0.0000,0.5757,flat,18.0,0,8.169
3690,118.08,-2.1535,-6.0291,0.1798,-0.0001,-0.0000,0.5203,flat,18.0,0,7.648
3700,118.40,-1.6595,-5.7609,0.1798,-0.0003,-0.0000,0.4482,flat,18.0,0,7.113
3710,118.72,-1.1463,-5.5258,0.1797,-0.0002,-0.0000,0.3843,flat,18.0,0,6.568
3720,119.04,-0.6181,-5.3217,0.1797,-0.0002,-0.0000,0.3276,flat,18.0,0,6.016
3730,119.36,-0.0784,-5.1466,0.1797,-0.0002,-0.0000,0.2768,flat,18.0,0,5.459
3740,119.68,0.4699,-4.9978,0.1797,-0.0002,0.0000,0.2317,flat,18.0,0,4.898
3750,120.00,1.0237,-4.8727,0.1797,-0.0001,-0.0000,0.1923,flat,18.0,0,4.335
3760,120.32,1.5824,-4.7688,0.1797,-0.0001,-0.0000,0.1552,flat,18.0,0,3.770
3770,120.64,2.1448,-4.6853,0.1797,-0.0001,-0.0000,0.1193,flat,18.0,0,3.204
3780,120.96,2.7099,-4.6218,0.1797,-0.0001,-0.0000,0.0834,flat,18.0,0,2.637
3790,121.28,3.2765,-4.5786,0.1797,-0.0001,0.0000,0.0457,flat,18.0,0,2.069
3800,121.60,3.8235,-4.5584,0.1797,-0.0001,0.0004,0.0119,flat,18.0,0,1.522
3810,121.92,4.3801,-4.5546,0.1798,-0.0002,-0.0000,-0.0406,flat,18.0,0,0.965
3820,122.24,4.9188,-4.5652,0.1798,-0.0005,0.0000,0.0919,flat,18.0,1,12.689
3830,122.56,5.3622,-4.5058,0.1798,-0.0002,0.0001,0.4395,flat,18.0,1,12.776
3840,122.88,5.6779,-4.3060,0.1799,-0.0001,-0.0001,0.8051,flat,18.0,1,12.701
3850,123.20,5.9417,-3.9589,0.1799,-0.0000,-0.0000,1.1151,flat,18.0,1,12.481
3860,123.52,6.1259,-3.5083,0.1799,0.0000,-0.0000,1.4028,flat,18.0,1,12.144
3870,123.84,6.1873,-2.9963,0.1799,-0.0000,-0.0000,1.6533,flat,18.0,1,11.709
3880,124.16,6.1223,-2.4668,0.1799,0.0001,-0.0000,1.8382,flat,18.0,1,11.206
3890,124.48,5.9606,-1.9486,0.1799,0.0002,-0.0000,1.9710,flat,18.0,1,10.672
3900,124.80,5.7316,-1.4496,0.1798,0.0004,-0.0000,2.0697,flat,18.0,1,10.123
3910,125.12,5.4537,-0.9705,0.1798,0.0003,-0.0000,2.1465,flat,18.0,1,9.570
3920,125.44,5.1393,-0.5096,0.1797,0.0002,-0.0000,2.2074,flat,18.0,1,9.016
3930,125.76,4.7969,-0.0662,0.1797,0.0002,-0.0000,2.2598,flat,18.0,1,8.466
3940,126.08,4.4310,0.3603,0.1797,0.0002,-0.0000,2.3053,flat,18.0,1,7.922
3950,126.40,4.0457,0.7717,0.1797,0.0001,-0.0000,2.3456,flat,18.0,1,7.387
3960,126.72,3.6438,1.1687,0.1797,0.0001,-0.0000,2.3819,flat,18.0,1,6.863
3970,127.04,3.2275,1.5515,0.1797,0.0001,-0.0000,2.4160,flat,18.0,1,6.355
3980,127.36,2.7988,1.9206,0.1797,0.0001,-0.0000,2.4475,flat,18.0,1,5.866
3990,127.68,2.3587,2.2769,0.1797,0.0001,-0.0000,2.4777,flat,18.0,1,5.402
4000,128.00,1.9078,2.6203,0.1797,0.0001,-0.0000,2.5078,flat,18.0,1,4.970
4010,128.32,1.4522,2.9302,0.1798,0.0001,-0.0001,2.5514,flat,18.0,1,4.600
4020,128.64,0.9768,3.2411,0.1797,0.0001,-0.0000,2.5797,flat,18.0,1,4.269
4030,128.96,0.5023,3.5297,0.1797,0.0001,0.0002,2.5584,flat,18.0,1,4.013
4040,129.28,0.1359,3.8306,0.1799,0.0000,-0.0000,2.2992,flat,18.0,1,3.784
4050,129.60,-0.1634,4.2367,0.1799,0.0000,-0.0000,2.0440,flat,18.0,1,3.480
4060,129.92,-0.3741,4.7217,0.1799,-0.0000,-0.0000,1.7949,flat,18.0,1,3.117
4070,130.24,-0.4694,5.2509,0.1799,-0.0000,-0.0000,1.5635,flat,18.0,1,2.705
4080,130.56,-0.4445,5.7897,0.1799,-0.0001,-0.0000,1.3721,flat,18.0,1,2.258
4090,130.88,-0.3193,6.3135,0.1799,-0.0001,-0.0000,1.2139,flat,18.0,1,1.795
4100,131.20,-0.1120,6.8087,0.1799,-0.0001,-0.0000,1.0690,flat,18.0,1,1.331
4110,131.52,0.1677,7.2648,0.1799,-0.0001,-0.0000,0.9293,flat,18.0,1,0.886
4120,131.84,0.3934,7.5523,0.1791,-0.0003,-0.0043,0.5859,flat,18.0,2,14.970
4130,132.16,0.6243,7.6336,0.1784,-0.0084,0.0001,0.0266,flat,18.0,2,15.166
4140,132.48,0.9774,7.6226,0.1799,0.0003,0.0000,-0.4724,flat,18.0,2,15.358
4150,132.80,1.2869,7.4101,0.1799,0.0001,-0.0001,-0.8215,flat,18.0,2,15.368
4160,133.12,1.5538,7.0519,0.1799,0.0000,-0.0000,-1.1160,flat,18.0,2,15.247
4170,133.44,1.7418,6.5943,0.1799,-0.0000,-0.0000,-1.3849,flat,18.0,2,15.010
4180,133.76,1.8148,6.0764,0.1799,-0.0000,-0.0001,-1.6164,flat,18.0,2,14.665
4190,134.08,1.7708,5.5391,0.1799,-0.0001,-0.0000,-1.7882,flat,18.0,2,14.237
4200,134.40,1.6366,5.0085,0.1799,-0.0003,-0.0000,-1.9103,flat,18.0,2,13.759
4210,134.72,1.4395,4.4922,0.1798,-0.0004,-0.0000,-2.0001,flat,18.0,2,13.251
4220,135.04,1.1967,3.9911,0.1798,-0.0003,-0.0000,-2.0696,flat,18.0,2,12.726
4230,135.36,0.9194,3.5044,0.1797,-0.0002,-0.0000,-2.1251,flat,18.0,2,12.188
4240,135.68,0.6153,3.0313,0.1797,-0.0002,-0.0000,-2.1698,flat,18.0,2,11.642
4250,136.00,0.2901,2.5704,0.1797,-0.0001,-0.0000,-2.2060,flat,18.0,2,11.091
4260,136.32,-0.0518,2.1197,0.1797,-0.0001,-0.0000,-2.2372,flat,18.0,2,10.535
4270,136.64,-0.4078,1.6784,0.1797,-0.0001,-0.0000,-2.2644,flat,18.0,2,9.976
4280,136.96,-0.7758,1.2457,0.1797,-0.0001,-0.0000,-2.2886,flat,18.0,2,9.414
4290,137.28,-1.1543,0.8208,0.1797,-0.0001,-0.0000,-2.3107,flat,18.0,2,8.850
4300,137.60,-1.5422,0.4035,0.1797,-0.0001,-0.0000,-2.3309,flat,18.0,2,8.284
4310,137.92,-1.9387,-0.0066,0.1797,-0.0001,-0.0000,-2.3491,flat,18.0,2,7.717
4320,138.24,-2.3426,-0.4101,0.1797,-0.0001,-0.0000,-2.3657,flat,18.0,2,7.149
4330,138.56,-2.7532,-0.8072,0.1797,-0.0001,-0.0000,-2.3813,flat,18.0,2,6.580
4340,138.88,-3.1701,-1.1981,0.1797,-0.0001,-0.0000,-2.3960,flat,18.0,2,6.011
4350,139.20,-3.5926,-1.5832,0.1797,-0.0000,-0.0000,-2.4099,flat,18.0,2,5.441
4360,139.52,-4.0204,-1.9626,0.1797,-0.0000,-0.0000,-2.4230,flat,18.0,2,4.870
4370,139.84,-4.4530,-2.3365,0.1797,-0.0000,-0.0000,-2.4358,flat,18.0,2,4.300
4380,140.16,-4.8903,-2.7049,0.1797,-0.0000,-0.0000,-2.4484,flat,18.0,2,3.729
4390,140.48,-5.3322,-3.0677,0.1797,-0.0000,0.0000,-2.4613,flat,18.0,2,3.158
4400,140.80,-5.7787,-3.4244,0.1797,-0.0000,0.0000,-2.4752,flat,18.0,2,2.588
4410,141.12,-6.2300,-3.7744,0.1797,-0.0001,0.0000,-2.4911,flat,18.0,2,2.017
4420,141.44,-6.6862,-4.1159,0.1797,-0.0001,0.0000,-2.5111,flat,18.0,2,1.448
4430,141.76,-7.1477,-4.4448,0.1797,-0.0001,0.0000,-2.5429,flat,18.0,2,0.882
4440,142.08,-7.6122,-4.7322,0.1798,-0.0001,0.0000,-2.6613,flat,18.0,3,0.822
4450,142.40,-7.9247,-4.9072,0.1799,0.0001,-0.0000,-2.3558,flat,18.0,0,13.275
4460,142.72,-8.1538,-5.2238,0.1798,-0.0002,-0.0000,-1.8580,flat,18.0,0,13.517
4470,143.04,-8.2432,-5.6013,0.1799,0.0000,-0.0001,-1.3907,flat,18.0,0,13.631
4480,143.36,-8.1386,-6.0054,0.1799,0.0001,-0.0000,-1.0547,flat,18.0,0,13.565
4490,143.68,-7.8685,-6.3898,0.1799,0.0001,-0.0000,-0.8093,flat,18.0,0,13.345
4500,144.00,-7.4853,-6.7291,0.1799,0.0001,-0.0000,-0.6139,flat,18.0,0,13.019
4510,144.32,-7.0278,-7.0123,0.1799,0.0001,-0.0000,-0.4394,flat,18.0,0,12.621
4520,144.64,-6.5204,-7.2263,0.1799,0.0001,-0.0000,-0.2937,flat,18.0,0,12.170
4530,144.96,-5.9829,-7.3725,0.1799,0.0003,-0.0000,-0.1754,flat,18.0,0,11.681
4540,145.28,-5.4285,-7.4589,0.1798,0.0004,-0.0000,-0.0794,flat,18.0,0,11.167
4550,145.60,-4.8658,-7.4943,0.1798,0.0004,-0.0000,-0.0011,flat,18.0,0,10.635
4560,145.92,-4.3002,-7.4874,0.1797,0.0002,-0.0000,0.0602,flat,18.0,0,10.091
4570,146.24,-3.7353,-7.4476,0.1797,0.0002,-0.0000,0.1073,flat,18.0,0,9.540
4580,146.56,-3.1718,-7.3820,0.1797,0.0001,-0.0000,0.1448,flat,18.0,0,8.984
4590,146.88,-2.6102,-7.2959,0.1797,0.0001,-0.0000,0.1760,flat,18.0,0,8.425
4600,147.20,-2.0506,-7.1926,0.1797,0.0001,-0.0000,0.2027,flat,18.0,0,7.863
4610,147.52,-1.5470,-7.0677,0.1799,-0.0002,0.0000,0.4256,flat,18.0,0,7.347
4620,147.84,-1.1422,-6.8374,0.1799,-0.0000,-0.0000,0.7331,flat,18.0,0,6.888
4630,148.16,-0.8306,-6.4762,0.1799,0.0002,0.0001,1.0003,flat,18.0,0,6.478
4640,148.48,-0.5220,-6.0586,0.1782,-0.0100,0.0000,0.8492,flat,18.0,0,6.065
4650,148.80,-0.1431,-5.6791,0.1797,-0.0012,0.0000,0.7198,flat,18.0,0,5.609
4660,149.12,0.2845,-5.3389,0.1798,-0.0004,-0.0000,0.6015,flat,18.0,0,5.126
4670,149.44,0.7519,-5.0432,0.1798,-0.0004,-0.0000,0.4919,flat,18.0,0,4.622
4680,149.76,1.2508,-4.7949,0.1798,-0.0004,-0.0000,0.3901,flat,18.0,0,4.103
4690,150.08,1.7736,-4.5948,0.1798,-0.0004,-0.0000,0.2945,flat,18.0,0,3.572
4700,150.40,2.3140,-4.4430,0.1798,-0.0004,-0.0000,0.2032,flat,18.0,0,3.032
4710,150.72,2.8664,-4.3397,0.1798,-0.0004,-0.0000,0.1133,flat,18.0,0,2.485
4720,151.04,3.4254,-4.2860,0.1798,-0.0004,-0.0000,0.0205,flat,18.0,0,1.934
4730,151.36,3.9659,-4.2859,0.1798,-0.0004,0.0004,-0.0602,rough,14.0,0,1.399
4740,151.68,4.4255,-4.3215,0.1798,-0.0002,-0.0003,-0.1287,flat,18.0,0,0.940
4750,152.00,4.9260,-4.3728,0.1798,-0.0005,0.0001,0.0813,flat,18.0,1,12.508
4760,152.32,5.3030,-4.3201,0.1799,-0.0001,-0.0000,0.5426,flat,18.0,1,12.582
4770,152.64,5.5988,-4.0787,0.1799,-0.0001,-0.0001,0.8870,flat,18.0,1,12.461
4780,152.96,5.8481,-3.7010,0.1799,-0.0000,-0.0000,1.1930,flat,18.0,1,12.207
4790,153.28,6.0030,-3.2298,0.1799,0.0001,-0.0000,1.4723,flat,18.0,1,11.840
4800,153.60,6.0294,-2.7092,0.1799,0.0001,0.0000,1.7055,flat,18.0,1,11.381
4810,153.92,5.9362,-2.1809,0.1799,0.0001,-0.0000,1.8777,flat,18.0,1,10.867
4820,154.24,5.7544,-1.6676,0.1799,0.0003,-0.0000,2.0001,flat,18.0,1,10.327
4830,154.56,5.5108,-1.1742,0.1798,0.0004,-0.0000,2.0928,flat,18.0,1,9.777
4840,154.88,5.2217,-0.7004,0.1798,0.0003,-0.0000,2.1648,flat,18.0,1,9.223
4850,155.20,4.8988,-0.2445,0.1797,0.0002,-0.0000,2.2229,flat,18.0,1,8.671
4860,155.52,4.5493,0.1940,0.1797,0.0002,-0.0000,2.2735,flat,18.0,1,8.123
4870,155.84,4.1776,0.6158,0.1797,0.0002,-0.0000,2.3183,flat,18.0,1,7.583
4880,156.16,3.7869,1.0222,0.1797,0.0001,-0.0000,2.3582,flat,18.0,1,7.053
4890,156.48,3.3800,1.4140,0.1797,0.0001,-0.0000,2.3947,flat,18.0,1,6.537
4900,156.80,2.9589,1.7911,0.1797,0.0001,-0.0000,2.4291,flat,18.0,1,6.039
4910,157.12,2.5256,2.1545,0.1797,0.0001,-0.0000,2.4611,flat,18.0,1,5.563
4920,157.44,2.0808,2.5046,0.1797,0.0001,-0.0000,2.4925,flat,18.0,1,5.117
4930,157.76,1.6250,2.8409,0.1797,0.0001,-0.0000,2.5242,flat,18.0,1,4.708
4940,158.08,1.1588,3.1628,0.1797,0.0001,-0.0000,2.5570,flat,18.0,1,4.349
4950,158.40,0.6825,3.4688,0.1797,0.0001,0.0000,2.5927,flat,18.0,1,4.055
4960,158.72,0.2693,3.7460,0.1799,0.0003,-0.0000,2.3994,flat,18.0,1,3.838
4970,159.04,-0.0544,4.1138,0.1799,0.0000,-0.0000,2.1416,flat,18.0,1,3.562
4980,159.36,-0.3028,4.5719,0.1799,-0.0000,-0.0000,1.8871,flat,18.0,1,3.222
4990,159.68,-0.4430,5.0884,0.1799,-0.0000,-0.0000,1.6464,flat,18.0,1,2.828
5000,160.00,-0.4609,5.6269,0.1799,-0.0000,-0.0000,1.4350,flat,18.0,1,2.395
5010,160.32,-0.3687,6.1572,0.1799,-0.0001,-0.0000,1.2657,flat,18.0,1,1.938
5020,160.64,-0.1879,6.6629,0.1799,-0.0001,-0.0000,1.1159,flat,18.0,1,1.474
5030,160.96,0.0685,7.1317,0.1799,-0.0001,-0.0000,0.9708,flat,18.0,1,1.023
5040,161.28,0.3429,7.5065,0.1766,0.0004,-0.0209,0.8084,flat,18.0,2,14.904
5050,161.60,0.5284,7.6084,0.1770,-0.0169,0.0000,0.1579,flat,18.0,2,15.092
5060,161.92,0.8631,7.6482,0.1798,0.0001,0.0001,-0.3342,flat,18.0,2,15.314
5070,162.24,1.1906,7.4922,0.1799,-0.0000,-0.0000,-0.7273,flat,18.0,2,15.377
5080,162.56,1.4710,7.1710,0.1799,0.0000,-0.0000,-1.0291,flat,18.0,2,15.289
5090,162.88,1.6881,6.7394,0.1799,-0.0000,-0.0000,-1.3071,flat,18.0,2,15.087
5100,163.20,1.7974,6.2357,0.1799,-0.0001,-0.0000,-1.5497,flat,18.0,2,14.773
5110,163.52,1.7869,5.7000,0.1799,-0.0001,-0.0000,-1.7413,flat,18.0,2,14.366
5120,163.84,1.6768,5.1659,0.1799,-0.0002,-0.0000,-1.8776,flat,18.0,2,13.900
5130,164.16,1.4965,4.6450,0.1798,-0.0004,-0.0000,-1.9754,flat,18.0,2,13.400
5140,164.48,1.2662,4.1393,0.1798,-0.0003,-0.0000,-2.0501,flat,18.0,2,12.880
5150,164.80,0.9985,3.6483,0.1797,-0.0002,-0.0000,-2.1093,flat,18.0,2,12.345
5160,165.12,0.7020,3.1710,0.1797,-0.0002,-0.0000,-2.1574,flat,18.0,2,11.801
5170,165.44,0.3827,2.7066,0.1797,-0.0001,-0.0000,-2.1954,flat,18.0,2,11.251
5180,165.76,0.0457,2.2529,0.1797,-0.0001,-0.0000,-2.2280,flat,18.0,2,10.696
5190,166.08,-0.3062,1.8087,0.1797,-0.0001,-0.0000,-2.2563,flat,18.0,2,10.138
5200,166.40,-0.6706,1.3734,0.1797,-0.0001,-0.0000,-2.2812,flat,18.0,2,9.577
5210,166.72,-1.0460,0.9461,0.1797,-0.0001,-0.0000,-2.3039,flat,18.0,2,9.014
5220,167.04,-1.4310,0.5264,0.1797,-0.0001,-0.0000,-2.3248,flat,18.0,2,8.448
5230,167.36,-1.8249,0.1141,0.1797,-0.0001,-0.0000,-2.3435,flat,18.0,2,7.882
5240,167.68,-2.2265,-0.2915,0.1797,-0.0001,-0.0000,-2.3606,flat,18.0,2,7.314
5250,168.00,-2.6351,-0.6906,0.1797,-0.0001,-0.0000,-2.3764,flat,18.0,2,6.745
5260,168.32,-3.0500,-1.0835,0.1797,-0.0001,-0.0000,-2.3913,flat,18.0,2,6.176
5270,168.64,-3.4707,-1.4704,0.1797,-0.0001,-0.0000,-2.4055,flat,18.0,2,5.606
5280,168.96,-3.8969,-1.8516,0.1797,-0.0000,-0.0000,-2.4188,flat,18.0,2,5.036
5290,169.28,-4.3280,-2.2273,0.1797,-0.0000,-0.0000,-2.4317,flat,18.0,2,4.465
5300,169.60,-4.7638,-2.5975,0.1797,-0.0000,-0.0000,-2.4443,flat,18.0,2,3.895
5310,169.92,-5.2042,-2.9621,0.1797,-0.0000,0.0000,-2.4571,flat,18.0,2,3.324
5320,170.24,-5.6492,-3.3209,0.1797,-0.0000,0.0000,-2.4707,flat,18.0,2,2.753
5330,170.56,-6.0989,-3.6731,0.1797,-0.0001,0.0000,-2.4858,flat,18.0,2,2.183
5340,170.88,-6.5535,-4.0175,0.1797,-0.0001,0.0000,-2.5042,flat,18.0,2,1.613
5350,171.20,-7.0134,-4.3509,0.1797,-0.0001,0.0000,-2.5310,flat,18.0,2,1.046
5360,171.52,-7.4759,-4.6537,0.1798,-0.0000,0.0000,-2.6150,flat,18.0,3,0.972
5370,171.84,-7.8452,-4.8454,0.1799,0.0000,0.0005,-2.5199,flat,18.0,0,13.194
5380,172.16,-8.1008,-5.1202,0.1798,-0.0002,-0.0000,-2.0059,flat,18.0,0,13.459
5390,172.48,-8.2427,-5.4880,0.1799,-0.0001,-0.0000,-1.5131,flat,18.0,0,13.622
5400,172.80,-8.1952,-5.8866,0.1799,-0.0002,-0.0001,-1.1406,flat,18.0,0,13.609
5410,173.12,-7.9669,-6.2741,0.1799,0.0001,-0.0000,-0.8487,flat,18.0,0,13.427
5420,173.44,-7.6048,-6.6123,0.1799,0.0000,-0.0000,-0.6264,flat,18.0,0,13.117
5430,173.76,-7.1570,-6.8916,0.1799,0.0001,0.0000,-0.4219,flat,18.0,0,12.725
5440,174.08,-6.6503,-7.0909,0.1799,0.0001,-0.0000,-0.2422,flat,18.0,0,12.267
5450,174.40,-6.1101,-7.2055,0.1799,0.0001,-0.0000,-0.0916,flat,18.0,0,11.765
5460,174.72,-5.5547,-7.2421,0.1799,0.0003,-0.0000,0.0323,flat,18.0,0,11.234
5470,175.04,-4.9965,-7.2128,0.1798,0.0004,-0.0000,0.1278,flat,18.0,0,10.686
5480,175.36,-4.4418,-7.1321,0.1798,0.0003,-0.0000,0.2035,flat,18.0,0,10.129
5490,175.68,-3.8931,-7.0105,0.1797,0.0002,-0.0000,0.2663,flat,18.0,0,9.568
5500,176.00,-3.3519,-6.8552,0.1797,0.0002,-0.0000,0.3203,flat,18.0,0,9.005
5510,176.32,-2.8189,-6.6709,0.1797,0.0002,-0.0000,0.3684,flat,18.0,0,8.442
5520,176.64,-2.2952,-6.4612,0.1797,0.0002,0.0000,0.4119,flat,18.0,0,7.883
5530,176.96,-1.7819,-6.2290,0.1797,0.0001,0.0000,0.4525,flat,18.0,0,7.329
5540,177.28,-1.2794,-5.9760,0.1797,0.0001,0.0000,0.4948,flat,18.0,0,6.782
5550,177.60,-0.7790,-5.7264,0.1798,-0.0002,-0.0000,0.4301,flat,18.0,0,6.241
5560,177.92,-0.2610,-5.4994,0.1797,-0.0002,-0.0000,0.3726,flat,18.0,0,5.691
5570,178.24,0.2700,-5.3010,0.1797,-0.0002,-0.0000,0.3206,flat,18.0,0,5.134
5580,178.56,0.8113,-5.1289,0.1797,-0.0002,-0.0000,0.2731,flat,18.0,0,4.574
5590,178.88,1.3594,-4.9817,0.1797,-0.0001,-0.0000,0.2314,flat,18.0,0,4.012
5600,179.20,1.9132,-4.8567,0.1797,-0.0001,-0.0000,0.1919,flat,18.0,0,3.448
5610,179.52,2.4715,-4.7533,0.1797,-0.0001,-0.0000,0.1528,flat,18.0,0,2.883
5620,179.84,3.0333,-4.6716,0.1797,-0.0001,-0.0000,0.1126,flat,18.0,0,2.316
5630,180.16,3.5974,-4.6126,0.1797,-0.0002,-0.0000,0.0678,flat,18.0,0,1.750
5640,180.48,4.1617,-4.5797,0.1797,-0.0002,0.0000,0.0118,flat,18.0,0,1.184
5650,180.80,4.7188,-4.5777,0.1798,-0.0002,0.0001,-0.0023,flat,18.0,1,12.641
5660,181.12,5.2221,-4.5569,0.1798,-0.0003,0.0001,0.2721,flat,18.0,1,12.778
5670,181.44,5.5999,-4.4214,0.1799,-0.0001,0.0000,0.6374,flat,18.0,1,12.780
5680,181.76,5.8835,-4.1419,0.1799,-0.0000,-0.0001,0.9647,flat,18.0,1,12.626
5690,182.08,6.1138,-3.7381,0.1799,0.0000,-0.0000,1.2666,flat,18.0,1,12.348
5700,182.40,6.2379,-3.2509,0.1799,0.0001,-0.0000,1.5382,flat,18.0,1,11.960
5710,182.72,6.2311,-2.7255,0.1799,0.0001,-0.0000,1.7562,flat,18.0,1,11.486
5720,183.04,6.1115,-2.2002,0.1799,0.0001,-0.0000,1.9142,flat,18.0,1,10.964
5730,183.36,5.9111,-1.6922,0.1799,0.0004,-0.0000,2.0275,flat,18.0,1,10.422
5740,183.68,5.6538,-1.2043,0.1798,0.0004,-0.0000,2.1143,flat,18.0,1,9.870
5750,184.00,5.3545,-0.7355,0.1797,0.0003,-0.0000,2.1817,flat,18.0,1,9.316
5760,184.32,5.0238,-0.2844,0.1797,0.0002,-0.0000,2.2373,flat,18.0,1,8.763
5770,184.64,4.6679,0.1494,0.1797,0.0002,-0.0000,2.2863,flat,18.0,1,8.215
5780,184.96,4.2907,0.5671,0.1797,0.0002,-0.0000,2.3291,flat,18.0,1,7.675
5790,185.28,3.8955,0.9699,0.1797,0.0001,-0.0000,2.3672,flat,18.0,1,7.145
5800,185.60,3.4850,1.3584,0.1797,0.0001,-0.0000,2.4025,flat,18.0,1,6.627
5810,185.92,3.0613,1.7210,0.1797,0.0002,-0.0000,2.4585,flat,18.0,1,6.138
5820,186.24,2.6185,2.0672,0.1797,0.0002,-0.0000,2.5031,flat,18.0,1,5.673
5830,186.56,2.1604,2.3945,0.1797,0.0002,-0.0000,2.5469,flat,18.0,1,5.241
5840,186.88,1.6881,2.7024,0.1797,0.0002,-0.0000,2.5908,flat,18.0,1,4.854
5850,187.20,1.2027,2.9897,0.1797,0.0002,-0.0000,2.6360,flat,18.0,1,4.524
5860,187.52,0.7049,3.2548,0.1797,0.0002,-0.0000,2.6856,flat,18.0,1,4.267
5870,187.84,0.2710,3.4945,0.1799,0.0000,0.0001,2.4732,flat,18.0,1,4.084
5880,188.16,-0.0823,3.8394,0.1799,-0.0000,-0.0000,2.2330,flat,18.0,1,3.832
5890,188.48,-0.3708,4.2766,0.1799,-0.0000,-0.0000,2.0025,flat,18.0,1,3.519
5900,188.80,-0.5691,4.7762,0.1799,-0.0001,-0.0000,1.7855,flat,18.0,1,3.161
5910,189.12,-0.6632,5.3110,0.1799,-0.0001,-0.0000,1.5828,flat,18.0,1,2.768
5920,189.44,-0.6504,5.8547,0.1799,-0.0001,0.0000,1.4062,flat,18.0,1,2.351
5930,189.76,-0.5465,6.3823,0.1799,-0.0001,-0.0001,1.2389,flat,18.0,1,1.929
5940,190.08,-0.3509,6.8718,0.1799,-0.0001,-0.0000,1.0594,flat,18.0,1,1.511
5950,190.40,-0.0674,7.3138,0.1799,-0.0001,-0.0000,0.8900,flat,18.0,1,1.104
5960,190.72,0.2817,7.6876,0.1815,-0.0002,0.0111,0.7099,flat,18.0,2,15.022
5970,191.04,0.5269,7.8415,0.1798,-0.0052,0.0059,0.2641,flat,18.0,2,15.285
5980,191.36,0.8827,7.9052,0.1795,0.0005,-0.0020,-0.2578,flat,18.0,2,15.536
5990,191.68,1.2222,7.7803,0.1799,-0.0000,-0.0001,-0.6739,flat,18.0,2,15.629
6000,192.00,1.5094,7.4807,0.1799,0.0000,-0.0001,-0.9813,flat,18.0,2,15.558
6010,192.32,1.7218,7.0740,0.1799,0.0001,-0.0001,-1.2882,flat,18.0,2,15.368
6020,192.64,1.8365,6.5845,0.1799,0.0001,-0.0001,-1.5540,flat,18.0,2,15.064
6030,192.96,1.8232,6.0584,0.1799,-0.0001,-0.0000,-1.7650,flat,18.0,2,14.657
6040,193.28,1.6997,5.5334,0.1799,-0.0001,-0.0000,-1.9177,flat,18.0,2,14.184
6050,193.60,1.4976,5.0251,0.1798,-0.0004,-0.0000,-2.0275,flat,18.0,2,13.675
6060,193.92,1.2404,4.5361,0.1798,-0.0004,-0.0000,-2.1108,flat,18.0,2,13.144
6070,194.24,0.9428,4.0655,0.1797,-0.0002,-0.0000,-2.1766,flat,18.0,2,12.599
6080,194.56,0.6144,3.6120,0.1797,-0.0002,-0.0000,-2.2302,flat,18.0,2,12.046
6090,194.88,0.2614,3.1744,0.1797,-0.0002,-0.0000,-2.2737,flat,18.0,2,11.487
6100,195.20,-0.1105,2.7502,0.1797,-0.0001,-0.0000,-2.3110,flat,18.0,2,10.924
6110,195.52,-0.4983,2.3382,0.1797,-0.0001,-0.0000,-2.3442,flat,18.0,2,10.359
6120,195.84,-0.8999,1.9379,0.1797,-0.0001,-0.0000,-2.3735,flat,18.0,2,9.792
6130,196.16,-1.3132,1.5486,0.1797,-0.0001,-0.0000,-2.4003,flat,18.0,2,9.224
6140,196.48,-1.7369,1.1697,0.1797,-0.0001,-0.0000,-2.4247,flat,18.0,2,8.656
6150,196.80,-2.1695,0.8004,0.1797,-0.0001,-0.0000,-2.4466,flat,18.0,2,8.089
6160,197.12,-2.6101,0.4399,0.1797,-0.0001,-0.0000,-2.4670,flat,18.0,2,7.523
6170,197.44,-3.0582,0.0879,0.1797,-0.0001,-0.0000,-2.4864,flat,18.0,2,6.958
6180,197.76,-3.5132,-0.2560,0.1797,-0.0001,-0.0000,-2.5050,flat,18.0,2,6.395
6190,198.08,-3.9746,-0.5917,0.1797,-0.0001,-0.0000,-2.5230,flat,18.0,2,5.835
6200,198.40,-4.4420,-0.9193,0.1797,-0.0001,-0.0000,-2.5407,flat,18.0,2,5.280
6210,198.72,-4.8952,-1.2466,0.1797,0.0001,-0.0000,-2.4881,flat,18.0,2,4.738
6220,199.04,-5.3349,-1.5966,0.1797,0.0002,-0.0000,-2.4443,flat,18.0,2,4.190
6230,199.36,-5.7595,-1.9658,0.1797,0.0001,-0.0000,-2.4030,flat,18.0,2,3.640
6240,199.68,-6.1689,-2.3527,0.1797,0.0001,-0.0000,-2.3614,flat,18.0,2,3.089
6250,200.00,-6.5613,-2.7563,0.1797,0.0001,0.0000,-2.3185,flat,18.0,2,2.537
6260,200.32,-6.9337,-3.1759,0.1797,0.0002,0.0000,-2.2710,flat,18.0,2,1.986
6270,200.64,-7.2836,-3.6119,0.1797,0.0002,0.0000,-2.2108,flat,18.0,2,1.439
6280,200.96,-7.6016,-4.0663,0.1798,0.0003,0.0000,-2.1152,flat,18.0,2,0.897
6290,201.28,-7.8618,-4.5083,0.1799,-0.0003,0.0004,-2.0464,flat,18.0,0,13.207
6300,201.60,-8.0133,-4.8748,0.1799,-0.0002,-0.0000,-1.5625,flat,18.0,0,13.363
6310,201.92,-7.9862,-5.2771,0.1799,-0.0002,-0.0001,-1.1830,flat,18.0,0,13.352
6320,202.24,-7.7795,-5.6823,0.1799,-0.0000,-0.0000,-0.9127,flat,18.0,0,13.176
6330,202.56,-7.4397,-6.0485,0.1799,0.0000,-0.0000,-0.7097,flat,18.0,0,12.875
6340,202.88,-7.0143,-6.3661,0.1799,0.0000,-0.0000,-0.5322,flat,18.0,0,12.496
6350,203.20,-6.5302,-6.6212,0.1799,0.0001,-0.0000,-0.3806,flat,18.0,0,12.059
6360,203.52,-6.0083,-6.8106,0.1799,0.0003,-0.0000,-0.2560,flat,18.0,0,11.582
6370,203.84,-5.4635,-6.9397,0.1798,0.0004,-0.0000,-0.1541,flat,18.0,0,11.076
6380,204.16,-4.9058,-7.0161,0.1798,0.0004,-0.0000,-0.0707,flat,18.0,0,10.550
6390,204.48,-4.3413,-7.0479,0.1797,0.0003,-0.0000,-0.0023,flat,18.0,0,10.010
6400,204.80,-3.7751,-7.0426,0.1797,0.0002,-0.0000,0.0507,flat,18.0,0,9.462
6410,205.12,-3.2266,-7.0045,0.1799,0.0001,0.0001,0.1862,flat,18.0,0,8.924
6420,205.44,-2.7255,-6.8839,0.1799,0.0001,-0.0000,0.4278,flat,18.0,0,8.409
6430,205.76,-2.2733,-6.6396,0.1799,0.0001,-0.0000,0.6366,flat,18.0,0,7.907
6440,206.08,-1.8185,-6.3327,0.1798,-0.0002,-0.0000,0.5555,flat,18.0,0,7.389
6450,206.40,-1.3347,-6.0477,0.1798,-0.0003,-0.0000,0.4882,flat,18.0,0,6.852
6460,206.72,-0.8312,-5.7922,0.1797,-0.0002,-0.0000,0.4274,flat,18.0,0,6.305
6470,207.04,-0.3122,-5.5662,0.1797,-0.0002,-0.0000,0.3729,flat,18.0,0,5.753
6480,207.36,0.2190,-5.3671,0.1797,-0.0002,-0.0000,0.3235,flat,18.0,0,5.195
6490,207.68,0.7592,-5.1932,0.1797,-0.0002,-0.0000,0.2803,flat,18.0,0,4.635
6500,208.00,1.3061,-5.0417,0.1797,-0.0001,-0.0000,0.2407,flat,18.0,0,4.072
6510,208.32,1.8589,-4.9114,0.1797,-0.0001,-0.0000,0.2028,flat,18.0,0,3.508
6520,208.64,2.4164,-4.8017,0.1797,-0.0001,-0.0000,0.1653,flat,18.0,0,2.942
6530,208.96,2.9775,-4.7128,0.1797,-0.0001,-0.0000,0.1270,flat,18.0,0,2.375
6540,209.28,3.5409,-4.6456,0.1797,-0.0001,0.0000,0.0850,flat,18.0,0,1.808
6550,209.60,4.1053,-4.6028,0.1797,-0.0002,0.0000,0.0321,flat,18.0,0,1.242
6560,209.92,4.6656,-4.5914,0.1798,-0.0003,0.0001,-0.0099,flat,18.0,1,12.639
6570,210.24,5.1809,-4.5738,0.1798,-0.0003,0.0001,0.2384,flat,18.0,1,12.780
6580,210.56,5.5797,-4.4497,0.1799,-0.0002,0.0000,0.5870,flat,18.0,1,12.800
6590,210.88,5.8710,-4.1902,0.1799,-0.0001,-0.0001,0.9214,flat,18.0,1,12.666
6600,211.20,6.1118,-3.8014,0.1799,-0.0000,-0.0000,1.2266,flat,18.0,1,12.405
6610,211.52,6.2528,-3.3232,0.1799,0.0000,-0.0000,1.5036,flat,18.0,1,12.031
6620,211.84,6.2639,-2.8005,0.1799,0.0001,-0.0000,1.7325,flat,18.0,1,11.568
6630,212.16,6.1573,-2.2738,0.1799,0.0001,-0.0000,1.8962,flat,18.0,1,11.051
6640,212.48,5.9660,-1.7633,0.1799,0.0003,-0.0000,2.0146,flat,18.0,1,10.510
6650,212.80,5.7152,-1.2729,0.1798,0.0004,-0.0000,2.1045,flat,18.0,1,9.960
6660,213.12,5.4205,-0.8018,0.1798,0.0003,-0.0000,2.1741,flat,18.0,1,9.405
6670,213.44,5.0932,-0.3486,0.1797,0.0002,-0.0000,2.2309,flat,18.0,1,8.852
6680,213.76,4.7402,0.0873,0.1797,0.0002,-0.0000,2.2806,flat,18.0,1,8.303
6690,214.08,4.3654,0.5068,0.1797,0.0002,-0.0000,2.3243,flat,18.0,1,7.762
6700,214.40,3.9722,0.9113,0.1797,0.0001,-0.0000,2.3631,flat,18.0,1,7.229
6710,214.72,3.5633,1.3013,0.1797,0.0001,-0.0000,2.3987,flat,18.0,1,6.710
6720,215.04,3.1407,1.6772,0.1797,0.0001,-0.0000,2.4320,flat,18.0,1,6.207
6730,215.36,2.7063,2.0398,0.1797,0.0001,-0.0000,2.4629,flat,18.0,1,5.724
6740,215.68,2.2607,2.3895,0.1797,0.0001,-0.0000,2.4931,flat,18.0,1,5.269
6750,216.00,1.8045,2.7262,0.1797,0.0001,-0.0000,2.5232,flat,18.0,1,4.848
6760,216.32,1.3384,3.0492,0.1797,0.0001,-0.0000,2.5540,flat,18.0,1,4.472
6770,216.64,0.8627,3.3575,0.1797,0.0001,0.0000,2.5869,flat,18.0,1,4.155
6780,216.96,0.4046,3.6347,0.1798,0.0001,0.0001,2.5115,flat,18.0,1,3.923
6790,217.28,0.0531,3.9555,0.1799,-0.0000,-0.0000,2.2497,flat,18.0,1,3.683
6800,217.60,-0.2309,4.3784,0.1799,-0.0000,-0.0000,1.9921,flat,18.0,1,3.372
6810,217.92,-0.4188,4.8746,0.1799,-0.0000,-0.0000,1.7423,flat,18.0,1,3.002
6820,218.24,-0.4867,5.4082,0.1799,-0.0000,-0.0000,1.5130,flat,18.0,1,2.585
6830,218.56,-0.4354,5.9440,0.1799,-0.0001,-0.0000,1.3287,flat,18.0,1,2.137
6840,218.88,-0.2873,6.4606,0.1799,-0.0001,-0.0000,1.1727,flat,18.0,1,1.675
6850,219.20,-0.0591,6.9449,0.1799,-0.0001,0.0000,1.0264,flat,18.0,1,1.217
6860,219.52,0.2403,7.3873,0.1799,-0.0001,0.0000,0.8862,flat,18.0,2,0.788
6870,219.84,0.4079,7.5672,0.1799,-0.0006,-0.0016,0.2905,flat,18.0,2,14.991
6880,220.16,0.7002,7.6458,0.1793,-0.0031,-0.0000,-0.1265,flat,18.0,2,15.219
6890,220.48,1.0532,7.5713,0.1799,-0.0001,0.0000,-0.5866,flat,18.0,2,15.361
6900,220.80,1.3486,7.3089,0.1799,0.0000,-0.0000,-0.9110,flat,18.0,2,15.324
6910,221.12,1.5978,6.9172,0.1799,-0.0000,-0.0000,-1.1995,flat,18.0,2,15.169
6920,221.44,1.7537,6.4372,0.1799,-0.0001,-0.0000,-1.4576,flat,18.0,2,14.898
6930,221.76,1.7900,5.9095,0.1799,-0.0001,0.0000,-1.6712,flat,18.0,2,14.524
6940,222.08,1.7165,5.3722,0.1799,-0.0001,-0.0000,-1.8288,flat,18.0,2,14.078
6950,222.40,1.5613,4.8456,0.1798,-0.0004,-0.0000,-1.9393,flat,18.0,2,13.589
6960,222.72,1.3493,4.3337,0.1798,-0.0004,-0.0000,-2.0221,flat,18.0,2,13.076
6970,223.04,1.0955,3.8368,0.1797,-0.0002,-0.0000,-2.0868,flat,18.0,2,12.546
6980,223.36,0.8099,3.3541,0.1797,-0.0002,-0.0000,-2.1390,flat,18.0,2,12.005
6990,223.68,0.4991,2.8847,0.1797,-0.0001,-0.0000,-2.1806,flat,18.0,2,11.457
7000,224.00,0.1690,2.4267,0.1797,-0.0001,-0.0000,-2.2152,flat,18.0,2,10.904
7010,224.32,-0.1771,1.9787,0.1797,-0.0001,-0.0000,-2.2451,flat,18.0,2,10.347
7020,224.64,-0.5366,1.5398,0.1797,-0.0001,-0.0000,-2.2712,flat,18.0,2,9.787
7030,224.96,-0.9075,1.1093,0.1797,-0.0001,-0.0000,-2.2947,flat,18.0,2,9.225
7040,225.28,-1.2887,0.6864,0.1797,-0.0001,-0.0000,-2.3163,flat,18.0,2,8.660
7050,225.60,-1.6790,0.2710,0.1797,-0.0001,-0.0000,-2.3359,flat,18.0,2,8.094
7060,225.92,-2.0775,-0.1373,0.1797,-0.0001,-0.0000,-2.3536,flat,18.0,2,7.527
7070,226.24,-2.4833,-0.5391,0.1797,-0.0001,-0.0000,-2.3698,flat,18.0,2,6.959
7080,226.56,-2.8955,-0.9346,0.1797,-0.0001,-0.0000,-2.3851,flat,18.0,2,6.390
7090,226.88,-3.3139,-1.3240,0.1797,-0.0001,-0.0000,-2.3996,flat,18.0,2,5.820
7100,227.20,-3.7378,-1.7076,0.1797,-0.0000,-0.0000,-2.4133,flat,18.0,2,5.250
7110,227.52,-4.1669,-2.0856,0.1797,-0.0000,-0.0000,-2.4263,flat,18.0,2,4.679
7120,227.84,-4.6007,-2.4581,0.1797,-0.0000,-0.0000,-2.4390,flat,18.0,2,4.109
7130,228.16,-5.0392,-2.8251,0.1797,-0.0000,0.0000,-2.4517,flat,18.0,2,3.538
7140,228.48,-5.4823,-3.1863,0.1797,-0.0000,0.0000,-2.4650,flat,18.0,2,2.967
7150,228.80,-5.9300,-3.5413,0.1797,-0.0001,0.0000,-2.4794,flat,18.0,2,2.397
7160,229.12,-6.3826,-3.8890,0.1797,-0.0001,0.0000,-2.4963,flat,18.0,2,1.827
7170,229.44,-6.8403,-4.2273,0.1797,-0.0001,0.0000,-2.5189,flat,18.0,2,1.258
7180,229.76,-7.3002,-4.5473,0.1797,-0.0001,0.0002,-2.5746,flat,18.0,3,1.170
7190,230.08,-7.7497,-4.8052,0.1787,-0.0002,-0.0073,-2.7017,flat,18.0,0,13.097
7200,230.40,-8.0222,-4.9896,0.1745,0.0333,-0.0006,-2.2079,flat,18.0,0,13.375
7210,230.72,-8.2150,-5.3404,0.1799,-0.0002,0.0001,-1.6930,flat,18.0,0,13.584
7220,231.04,-8.2413,-5.7278,0.1799,-0.0000,-0.0000,-1.2634,flat,18.0,0,13.640
7230,231.36,-8.0760,-6.1304,0.1799,-0.0001,-0.0000,-0.9619,flat,18.0,0,13.517
7240,231.68,-7.7616,-6.5005,0.1799,-0.0000,-0.0000,-0.7413,flat,18.0,0,13.255
7250,232.00,-7.3510,-6.8233,0.1799,0.0000,-0.0000,-0.5525,flat,18.0,0,12.903
7260,232.32,-6.8742,-7.0841,0.1799,0.0001,-0.0000,-0.3877,flat,18.0,0,12.485
7270,232.64,-6.3549,-7.2750,0.1799,0.0002,-0.0000,-0.2519,flat,18.0,0,12.019
7280,232.96,-5.8106,-7.4005,0.1798,0.0004,-0.0000,-0.1417,flat,18.0,0,11.521
7290,233.28,-5.2527,-7.4692,0.1798,0.0004,-0.0000,-0.0522,flat,18.0,0,11.000
7300,233.60,-4.6885,-7.4900,0.1798,0.0003,-0.0000,0.0206,flat,18.0,0,10.463
7310,233.92,-4.1230,-7.4714,0.1797,0.0002,-0.0000,0.0761,flat,18.0,0,9.917
7320,234.24,-3.5583,-7.4229,0.1797,0.0002,-0.0000,0.1200,flat,18.0,0,9.364
7330,234.56,-2.9955,-7.3505,0.1797,0.0001,-0.0000,0.1549,flat,18.0,0,8.807
7340,234.88,-2.4344,-7.2588,0.1797,0.0001,-0.0000,0.1845,flat,18.0,0,8.247
7350,235.20,-1.8753,-7.1509,0.1797,0.0001,-0.0000,0.2099,flat,18.0,0,7.684
7360,235.52,-1.3184,-7.0291,0.1797,0.0001,-0.0000,0.2320,flat,18.0,0,7.120
7370,235.84,-0.7637,-6.8951,0.1797,0.0001,-0.0000,0.2515,flat,18.0,0,6.554
7380,236.16,-0.2111,-6.7504,0.1797,0.0001,-0.0000,0.2689,flat,18.0,0,5.987
7390,236.48,0.3393,-6.5962,0.1797,0.0001,-0.0000,0.2848,flat,18.0,0,5.419
7400,236.80,0.8875,-6.4334,0.1797,0.0001,-0.0000,0.2993,flat,18.0,0,4.850
7410,237.12,1.4335,-6.2626,0.1797,0.0000,-0.0000,0.3130,flat,18.0,0,4.282
7420,237.44,1.9773,-6.0844,0.1797,0.0000,-0.0000,0.3261,flat,18.0,0,3.713
7430,237.76,2.5187,-5.8992,0.1797,0.0000,-0.0000,0.3390,flat,18.0,0,3.144
7440,238.08,3.0575,-5.7069,0.1797,0.0000,0.0000,0.3523,flat,18.0,0,2.577
7450,238.40,3.5932,-5.5074,0.1797,0.0001,0.0000,0.3668,flat,18.0,0,2.010
7460,238.72,4.1250,-5.3002,0.1797,0.0001,0.0000,0.3844,flat,18.0,0,1.448
7470,239.04,4.6500,-5.0837,0.1797,0.0001,0.0000,0.4111,flat,18.0,0,0.894
7480,239.36,5.0661,-4.8853,0.1798,-0.0003,0.0000,0.6502,flat,18.0,1,13.039
7490,239.68,5.3596,-4.5936,0.1799,-0.0000,-0.0000,0.9605,flat,18.0,1,12.858
7500,240.00,5.5968,-4.1834,0.1799,0.0000,-0.0000,1.2487,flat,18.0,1,12.557
7510,240.32,5.7316,-3.6921,0.1799,0.0001,-0.0000,1.5071,flat,18.0,1,12.153
7520,240.64,5.7420,-3.1615,0.1799,0.0001,-0.0000,1.7179,flat,18.0,1,11.670
7530,240.96,5.6434,-2.6286,0.1799,0.0001,-0.0000,1.8709,flat,18.0,1,11.143
7540,241.28,5.4660,-2.1100,0.1798,0.0004,-0.0000,1.9806,flat,18.0,1,10.598
7550,241.60,5.2327,-1.6087,0.1798,0.0004,-0.0000,2.0648,flat,18.0,1,10.045
7560,241.92,4.9575,-1.1248,0.1797,0.0003,-0.0000,2.1323,flat,18.0,1,9.490
7570,242.24,4.6499,-0.6573,0.1797,0.0002,-0.0000,2.1880,flat,18.0,1,8.938
7580,242.56,4.3162,-0.2054,0.1797,0.0002,-0.0000,2.2348,flat,18.0,1,8.390
7590,242.88,3.9614,0.2319,0.1797,0.0001,-0.0000,2.2736,flat,18.0,1,7.850
7600,243.20,3.5896,0.6568,0.1797,0.0001,-0.0000,2.3091,flat,18.0,1,7.319
7610,243.52,3.2019,1.0588,0.1797,0.0002,-0.0000,2.3631,flat,18.0,1,6.810
7620,243.84,2.7933,1.4464,0.1797,0.0001,-0.0000,2.4050,flat,18.0,1,6.318
7630,244.16,2.3690,1.8170,0.1797,0.0001,-0.0000,2.4445,flat,18.0,1,5.851
7640,244.48,1.9307,2.1715,0.1797,0.0001,-0.0000,2.4827,flat,18.0,1,5.416
7650,244.80,1.4790,2.5095,0.1797,0.0001,-0.0000,2.5215,flat,18.0,1,5.021
7660,245.12,1.0146,2.8299,0.1797,0.0001,-0.0000,2.5624,flat,18.0,1,4.680
7670,245.44,0.5408,3.1271,0.1797,0.0002,0.0002,2.5860,flat,18.0,1,4.409
7680,245.76,0.1517,3.4237,0.1799,0.0000,-0.0000,2.3448,flat,18.0,1,4.177
7690,246.08,-0.1737,3.8227,0.1799,-0.0000,-0.0000,2.1205,flat,18.0,1,3.875
7700,246.40,-0.4237,4.2949,0.1799,-0.0000,-0.0000,1.9076,flat,18.0,1,3.524
7710,246.72,-0.5802,4.8147,0.1799,-0.0001,-0.0000,1.7101,flat,18.0,1,3.134
7720,247.04,-0.6366,5.3583,0.1799,-0.0001,-0.0000,1.5274,flat,18.0,1,2.715
7730,247.36,-0.5959,5.9031,0.1799,-0.0001,-0.0000,1.3728,flat,18.0,1,2.278
7740,247.68,-0.4743,6.4276,0.1799,0.0000,0.0000,1.2134,flat,18.0,1,1.844
7750,248.00,-0.2659,6.9134,0.1799,-0.0001,-0.0000,1.0421,flat,18.0,1,1.416
7760,248.32,0.0258,7.3518,0.1799,-0.0001,-0.0000,0.8780,flat,18.0,1,1.005
7770,248.64,0.3335,7.6844,0.1768,0.0005,-0.0194,0.6666,flat,18.0,2,15.047
7780,248.96,0.5746,7.7899,0.1780,-0.0003,-0.0137,0.1143,flat,18.0,2,15.268
7790,249.28,0.9368,7.8111,0.1799,0.0001,-0.0001,-0.4033,flat,18.0,2,15.489
7800,249.60,1.2551,7.6265,0.1799,0.0000,-0.0001,-0.7745,flat,18.0,2,15.524
7810,249.92,1.5299,7.2858,0.1799,0.0000,-0.0000,-1.0707,flat,18.0,2,15.416
7820,250.24,1.7341,6.8406,0.1799,-0.0000,-0.0000,-1.3428,flat,18.0,2,15.195
7830,250.56,1.8270,6.3294,0.1799,-0.0002,0.0000,-1.5777,flat,18.0,2,14.864
7840,250.88,1.8023,5.7917,0.1799,-0.0001,-0.0000,-1.7605,flat,18.0,2,14.444
7850,251.20,1.6825,5.2584,0.1799,-0.0003,-0.0000,-1.8889,flat,18.0,2,13.971
7860,251.52,1.4965,4.7386,0.1798,-0.0004,-0.0000,-1.9822,flat,18.0,2,13.467
7870,251.84,1.2627,4.2336,0.1798,-0.0003,-0.0000,-2.0540,flat,18.0,2,12.944
7880,252.16,0.9932,3.7430,0.1797,-0.0002,-0.0000,-2.1110,flat,18.0,2,12.407
7890,252.48,0.6958,3.2657,0.1797,-0.0002,-0.0000,-2.1571,flat,18.0,2,11.862
7900,252.80,0.3767,2.8008,0.1797,-0.0001,-0.0000,-2.1940,flat,18.0,2,11.311
7910,253.12,0.0403,2.3462,0.1797,-0.0001,-0.0000,-2.2256,flat,18.0,2,10.755
7920,253.44,-0.3105,1.9009,0.1797,-0.0001,-0.0000,-2.2532,flat,18.0,2,10.196
7930,253.76,-0.6736,1.4642,0.1797,-0.0001,-0.0000,-2.2774,flat,18.0,2,9.635
7940,254.08,-1.0472,1.0352,0.1797,-0.0001,-0.0000,-2.2994,flat,18.0,2,9.071
7950,254.40,-1.4304,0.6136,0.1797,-0.0001,-0.0000,-2.3196,flat,18.0,2,8.505
7960,254.72,-1.8222,0.1990,0.1797,-0.0001,-0.0000,-2.3380,flat,18.0,2,7.938
7970,255.04,-2.2215,-0.2089,0.1797,-0.0001,-0.0000,-2.3546,flat,18.0,2,7.370
7980,255.36,-2.6277,-0.6107,0.1797,-0.0001,-0.0000,-2.3699,flat,18.0,2,6.801
7990,255.68,-3.0400,-1.0064,0.1797,-0.0001,-0.0000,-2.3844,flat,18.0,2,6.232
8000,256.00,-3.4581,-1.3965,0.1797,-0.0000,-0.0000,-2.3981,flat,18.0,2,5.662
8010,256.32,-3.8815,-1.7810,0.1797,-0.0000,-0.0000,-2.4112,flat,18.0,2,5.091
