step,time_s,x,y,z,roll,pitch,yaw,terrain,speed,target_idx,dist_to_target
10,0.32,2.1784,0.5010,0.1829,-0.0000,-0.0297,-0.0000,rough,14.0,0,5.936
20,0.64,2.5925,0.4884,0.1797,0.0002,0.0006,-0.1974,flat,18.0,0,5.715
30,0.96,3.0863,0.3608,0.1799,-0.0000,-0.0000,-0.4301,flat,18.0,0,5.378
40,1.28,3.5508,0.1147,0.1799,-0.0001,-0.0000,-0.6032,flat,18.0,0,4.970
50,1.60,3.9767,-0.2133,0.1799,-0.0003,-0.0000,-0.7300,flat,18.0,0,4.519
60,1.92,4.3630,-0.5945,0.1798,-0.0004,-0.0000,-0.8398,flat,18.0,0,4.047
70,2.24,4.7111,-1.0184,0.1798,-0.0004,-0.0000,-0.9471,flat,18.0,0,3.559
80,2.56,5.0174,-1.4790,0.1798,-0.0004,-0.0000,-1.0530,flat,18.0,0,3.059
90,2.88,5.2771,-1.9705,0.1798,-0.0004,-0.0000,-1.1597,flat,18.0,0,2.551
100,3.20,5.4853,-2.4870,0.1798,-0.0004,-0.0000,-1.2710,flat,18.0,0,2.038
110,3.52,5.6358,-3.0224,0.1799,-0.0003,-0.0000,-1.3954,flat,18.0,0,1.526
120,3.84,5.7178,-3.5678,0.1799,-0.0001,0.0000,-1.5523,flat,18.0,0,1.023
130,4.16,5.7212,-4.0374,0.1793,0.0002,-0.0036,-1.8119,flat,18.0,1,12.468
140,4.48,5.5924,-4.3702,0.1799,0.0004,-0.0001,-2.3459,flat,18.0,1,12.730
150,4.80,5.2827,-4.6077,0.1799,0.0001,-0.0000,-2.7651,flat,18.0,1,12.846
160,5.12,4.8866,-4.7359,0.1799,0.0000,-0.0001,3.1195,flat,18.0,1,12.842
170,5.44,4.4270,-4.6993,0.1799,0.0001,-0.0001,2.8104,flat,18.0,1,12.676
180,5.76,3.9690,-4.5088,0.1799,-0.0000,-0.0000,2.5867,flat,18.0,1,12.375
190,6.08,3.5432,-4.2044,0.1799,-0.0001,-0.0000,2.4200,flat,18.0,1,11.983
200,6.40,3.1587,-3.8264,0.1799,-0.0003,-0.0000,2.2984,flat,18.0,1,11.536
210,6.72,2.8118,-3.4009,0.1798,-0.0004,-0.0000,2.1928,flat,18.0,1,11.057
220,7.04,2.5029,-2.9384,0.1798,-0.0004,-0.0000,2.1014,flat,18.0,1,10.553
230,7.36,2.2316,-2.4477,0.1798,-0.0003,-0.0000,2.0228,flat,18.0,1,10.031
240,7.68,1.9954,-1.9356,0.1797,-0.0003,-0.0000,1.9553,flat,18.0,1,9.496
250,8.00,1.7915,-1.4076,0.1797,-0.0002,-0.0000,1.8974,flat,18.0,1,8.951
260,8.32,1.6168,-0.8676,0.1797,-0.0002,-0.0000,1.8475,flat,18.0,1,8.399
270,8.64,1.4677,-0.3197,0.1797,-0.0001,-0.0000,1.8065,flat,18.0,1,7.842
280,8.96,1.3398,0.2343,0.1797,-0.0001,-0.0000,1.7711,flat,18.0,1,7.283
290,9.28,1.2307,0.7932,0.1797,-0.0001,-0.0000,1.7396,flat,18.0,1,6.720
300,9.60,1.1385,1.3559,0.1797,-0.0001,-0.0000,1.7116,flat,18.0,1,6.155
310,9.92,1.0615,1.9215,0.1797,-0.0001,-0.0000,1.6864,flat,18.0,1,5.589
320,10.24,0.9985,2.4892,0.1797,-0.0001,-0.0000,1.6634,flat,18.0,1,5.021
330,10.56,0.9482,3.0587,0.1797,-0.0001,-0.0000,1.6423,flat,18.0,1,4.452
340,10.88,0.9096,3.6293,0.1797,-0.0001,-0.0000,1.6226,flat,18.0,1,3.882
350,11.20,0.8822,4.2008,0.1797,-0.0001,-0.0000,1.6037,flat,18.0,1,3.312
360,11.52,0.8655,4.7727,0.1797,-0.0001,-0.0000,1.5852,flat,18.0,1,2.741
370,11.84,0.8594,5.3448,0.1797,-0.0001,0.0000,1.5661,flat,18.0,1,2.171
380,12.16,0.8643,5.9164,0.1797,-0.0001,0.0000,1.5453,flat,18.0,1,1.601
390,12.48,0.8814,6.4866,0.1797,-0.0001,0.0000,1.5193,flat,18.0,1,1.032
400,12.80,0.9011,7.0402,0.1798,-0.0003,0.0000,1.5974,flat,18.0,2,14.842
410,13.12,0.8695,7.5300,0.1798,-0.0003,0.0001,1.9352,flat,18.0,2,15.221
420,13.44,0.6921,7.8700,0.1799,-0.0002,-0.0000,2.3524,flat,18.0,2,15.400
430,13.76,0.3807,8.1107,0.1799,-0.0001,-0.0001,2.7210,flat,18.0,2,15.431
440,14.08,-0.0393,8.2650,0.1799,0.0000,-0.0000,3.0656,flat,18.0,2,15.343
450,14.40,-0.5256,8.2758,0.1799,0.0000,-0.0000,-2.9326,flat,18.0,2,15.109
460,14.72,-1.0229,8.1443,0.1799,0.0001,-0.0000,-2.7267,flat,18.0,2,14.756
470,15.04,-1.5002,7.9061,0.1799,0.0001,-0.0000,-2.5778,flat,18.0,2,14.326
480,15.36,-1.9481,7.5961,0.1798,0.0004,-0.0000,-2.4730,flat,18.0,2,13.852
490,15.68,-2.3708,7.2397,0.1798,0.0003,-0.0000,-2.3970,flat,18.0,2,13.350
500,16.00,-2.7673,6.8508,0.1797,0.0002,-0.0000,-2.3294,flat,18.0,2,12.834
510,16.32,-3.1406,6.4349,0.1797,0.0002,-0.0000,-2.2700,flat,18.0,2,12.305
520,16.64,-3.4917,5.9967,0.1797,0.0002,-0.0000,-2.2181,flat,18.0,2,11.766
530,16.96,-3.8227,5.5414,0.1797,0.0002,-0.0000,-2.1745,flat,18.0,2,11.221
540,17.28,-4.1362,5.0712,0.1797,0.0001,-0.0000,-2.1358,flat,18.0,2,10.669
550,17.60,-4.4332,4.5886,0.1797,0.0001,-0.0000,-2.1014,flat,18.0,2,10.114
560,17.92,-4.7151,4.0954,0.1797,0.0001,-0.0000,-2.0707,flat,18.0,2,9.554
570,18.24,-4.9830,3.5934,0.1797,0.0001,-0.0000,-2.0434,flat,18.0,2,8.992
580,18.56,-5.2381,3.0837,0.1797,0.0001,-0.0000,-2.0188,flat,18.0,2,8.428
590,18.88,-5.4816,2.5675,0.1797,0.0001,-0.0000,-1.9968,flat,18.0,2,7.861
600,19.20,-5.7143,2.0458,0.1797,0.0001,-0.0000,-1.9768,flat,18.0,2,7.294
610,19.52,-5.9371,1.5192,0.1797,0.0001,-0.0000,-1.9586,flat,18.0,2,6.725
620,19.84,-6.1507,0.9884,0.1797,0.0001,-0.0000,-1.9419,flat,18.0,2,6.155
630,20.16,-6.3559,0.4540,0.1797,0.0001,-0.0000,-1.9265,flat,18.0,2,5.584
640,20.48,-6.5531,-0.0838,0.1797,0.0001,-0.0000,-1.9121,flat,18.0,2,5.013
650,20.80,-6.7427,-0.6244,0.1797,0.0000,-0.0000,-1.8985,flat,18.0,2,4.442
660,21.12,-6.9253,-1.1677,0.1797,0.0000,-0.0000,-1.8855,flat,18.0,2,3.870
670,21.44,-7.1008,-1.7133,0.1797,0.0000,-0.0000,-1.8727,flat,18.0,2,3.298
680,21.76,-7.2693,-2.2612,0.1797,0.0000,-0.0000,-1.8597,flat,18.0,2,2.726
690,22.08,-7.4306,-2.8110,0.1797,0.0000,0.0000,-1.8459,flat,18.0,2,2.154
700,22.40,-7.5841,-3.3627,0.1797,0.0001,0.0000,-1.8302,flat,18.0,2,1.582
710,22.72,-7.7282,-3.9158,0.1797,0.0001,0.0000,-1.8095,flat,18.0,2,1.012
720,23.04,-7.8535,-4.4442,0.1798,-0.0000,0.0002,-1.8655,flat,18.0,0,13.198
730,23.36,-7.9465,-4.8585,0.1798,-0.0002,-0.0000,-1.4793,flat,18.0,0,13.295
740,23.68,-7.8823,-5.2642,0.1799,0.0000,-0.0000,-1.1212,flat,18.0,0,13.248
750,24.00,-7.6443,-5.6616,0.1799,0.0000,-0.0000,-0.8646,flat,18.0,0,13.039
760,24.32,-7.2830,-6.0165,0.1799,0.0000,-0.0000,-0.6676,flat,18.0,0,12.716
770,24.64,-6.8425,-6.3201,0.1799,0.0001,-0.0000,-0.4928,flat,18.0,0,12.319
780,24.96,-6.3478,-6.5585,0.1799,0.0001,-0.0000,-0.3453,flat,18.0,0,11.869
790,25.28,-5.8190,-6.7309,0.1799,0.0003,-0.0000,-0.2247,flat,18.0,0,11.380
800,25.60,-5.2699,-6.8437,0.1798,0.0004,-0.0000,-0.1262,flat,18.0,0,10.866
810,25.92,-4.7098,-6.9050,0.1798,0.0004,-0.0000,-0.0457,flat,18.0,0,10.333
820,26.24,-4.1444,-6.9230,0.1797,0.0003,-0.0000,0.0201,flat,18.0,0,9.789
830,26.56,-3.5785,-6.9055,0.1797,0.0002,-0.0000,0.0699,flat,18.0,0,9.236
840,26.88,-3.0130,-6.8609,0.1797,0.0001,-0.0000,0.1098,flat,18.0,0,8.679
850,27.20,-2.4489,-6.7944,0.1797,0.0001,-0.0000,0.1427,flat,18.0,0,8.119
860,27.52,-1.8862,-6.7098,0.1797,0.0001,-0.0000,0.1707,flat,18.0,0,7.555
870,27.84,-1.3252,-6.6098,0.1797,0.0001,-0.0000,0.1948,flat,18.0,0,6.990
880,28.16,-0.7662,-6.4964,0.1797,0.0001,-0.0000,0.2160,flat,18.0,0,6.422
890,28.48,-0.2091,-6.3714,0.1797,0.0001,-0.0000,0.2349,flat,18.0,0,5.854
900,28.80,0.3460,-6.2360,0.1797,0.0001,-0.0000,0.2519,flat,18.0,0,5.285
910,29.12,0.8991,-6.0913,0.1797,0.0001,-0.0000,0.2674,flat,18.0,0,4.715
920,29.44,1.4502,-5.9381,0.1797,0.0001,-0.0000,0.2819,flat,18.0,0,4.145
930,29.76,1.9991,-5.7769,0.1797,0.0000,-0.0000,0.2958,flat,18.0,0,3.574
940,30.08,2.5457,-5.6081,0.1797,0.0000,-0.0000,0.3094,flat,18.0,0,3.003
950,30.40,3.0899,-5.4319,0.1797,0.0000,0.0000,0.3232,flat,18.0,0,2.432
960,30.72,3.6312,-5.2481,0.1797,0.0001,0.0000,0.3383,flat,18.0,0,1.862
970,31.04,4.1686,-5.0562,0.1797,0.0001,0.0000,0.3562,flat,18.0,0,1.292
980,31.36,4.6971,-4.8578,0.1797,0.0000,0.0002,0.3991,flat,18.0,1,12.903
990,31.68,5.0969,-4.6560,0.1799,-0.0001,0.0000,0.6597,flat,18.0,1,12.831
1000,32.00,5.4277,-4.3341,0.1799,0.0000,-0.0000,0.9131,flat,18.0,1,12.638
1010,32.32,5.7054,-3.9096,0.1799,0.0000,-0.0000,1.1405,flat,18.0,1,12.344
1020,32.64,5.9027,-3.4134,0.1799,0.0001,0.0000,1.3414,flat,18.0,1,11.965
1030,32.96,6.0075,-2.8752,0.1799,0.0001,-0.0000,1.5110,flat,18.0,1,11.521
1040,33.28,6.0249,-2.3206,0.1799,0.0002,-0.0000,1.6426,flat,18.0,1,11.032
1050,33.60,5.9734,-1.7650,0.1798,0.0004,-0.0000,1.7372,flat,18.0,1,10.515
1060,33.92,5.8714,-1.2138,0.1798,0.0003,-0.0000,1.8092,flat,18.0,1,9.982
1070,34.24,5.7309,-0.6688,0.1797,0.0002,-0.0000,1.8660,flat,18.0,1,9.439
1080,34.56,5.5601,-0.1306,0.1797,0.0002,-0.0000,1.9120,flat,18.0,1,8.888
1090,34.88,5.3653,0.4000,0.1797,0.0001,-0.0000,1.9481,flat,18.0,1,8.333
1100,35.20,5.1514,0.9246,0.1797,0.0001,-0.0000,1.9792,flat,18.0,1,7.775
1110,35.52,4.9214,1.4435,0.1797,0.0001,-0.0000,2.0065,flat,18.0,1,7.213
1120,35.84,4.6773,1.9569,0.1797,0.0001,-0.0000,2.0306,flat,18.0,1,6.650
1130,36.16,4.4209,2.4650,0.1797,0.0001,-0.0000,2.0523,flat,18.0,1,6.085
1140,36.48,4.1535,2.9681,0.1797,0.0001,-0.0000,2.0720,flat,18.0,1,5.518
1150,36.80,3.8762,3.4663,0.1797,0.0001,-0.0000,2.0903,flat,18.0,1,4.951
1160,37.12,3.5899,3.9597,0.1797,0.0001,-0.0000,2.1074,flat,18.0,1,4.383
1170,37.44,3.2951,4.4483,0.1797,0.0001,-0.0000,2.1239,flat,18.0,1,3.815
1180,37.76,2.9922,4.9320,0.1797,0.0001,-0.0000,2.1402,flat,18.0,1,3.246
1190,38.08,2.6815,5.4106,0.1797,0.0001,0.0000,2.1567,flat,18.0,1,2.678
1200,38.40,2.3629,5.8835,0.1797,0.0001,0.0000,2.1743,flat,18.0,1,2.110
1210,38.72,2.0361,6.3497,0.1797,0.0001,0.0000,2.1946,flat,18.0,1,1.543
1220,39.04,1.7000,6.8065,0.1797,0.0001,0.0000,2.2216,flat,18.0,1,0.979
1230,39.36,1.3950,7.1834,0.1798,-0.0002,0.0002,2.4274,flat,18.0,2,15.253
1240,39.68,1.0562,7.4150,0.1799,-0.0000,-0.0001,2.7785,flat,18.0,2,15.236
1250,40.00,0.6114,7.5529,0.1799,0.0000,-0.0000,3.1012,flat,18.0,2,15.092
1260,40.32,0.1119,7.5473,0.1799,0.0001,-0.0000,-2.9223,flat,18.0,2,14.812
1270,40.64,-0.3932,7.4095,0.1799,0.0001,-0.0000,-2.7334,flat,18.0,2,14.427
1280,40.96,-0.8776,7.1747,0.1799,0.0002,-0.0000,-2.5983,flat,18.0,2,13.978
1290,41.28,-1.3354,6.8746,0.1798,0.0004,-0.0000,-2.5015,flat,18.0,2,13.491
1300,41.60,-1.7712,6.5307,0.1798,0.0003,-0.0000,-2.4326,flat,18.0,2,12.980
1310,41.92,-2.1837,6.1566,0.1797,0.0002,-0.0000,-2.3700,flat,18.0,2,12.457
1320,42.24,-2.5750,5.7564,0.1797,0.0002,-0.0000,-2.3167,flat,18.0,2,11.923
1330,42.56,-2.9467,5.3356,0.1797,0.0002,-0.0000,-2.2703,flat,18.0,2,11.382
1340,42.88,-3.3013,4.8983,0.1797,0.0001,-0.0000,-2.2304,flat,18.0,2,10.834
1350,43.20,-3.6406,4.4464,0.1797,0.0001,-0.0000,-2.1945,flat,18.0,2,10.282
1360,43.52,-3.9653,3.9821,0.1797,0.0001,-0.0000,-2.1624,flat,18.0,2,9.725
1370,43.84,-4.2766,3.5071,0.1797,0.0001,-0.0000,-2.1336,flat,18.0,2,9.166
1380,44.16,-4.5753,3.0228,0.1797,0.0001,-0.0000,-2.1076,flat,18.0,2,8.603
1390,44.48,-4.8623,2.5306,0.1797,0.0001,-0.0000,-2.0840,flat,18.0,2,8.039
1400,44.80,-5.1386,2.0314,0.1797,0.0001,-0.0000,-2.0626,flat,18.0,2,7.472
1410,45.12,-5.4047,1.5262,0.1797,0.0001,-0.0000,-2.0430,flat,18.0,2,6.905
1420,45.44,-5.6616,1.0156,0.1797,0.0001,-0.0000,-2.0250,flat,18.0,2,6.336
1430,45.76,-5.9097,0.5003,0.1797,0.0001,-0.0000,-2.0084,flat,18.0,2,5.767
1440,46.08,-6.1495,-0.0193,0.1797,0.0001,-0.0000,-1.9928,flat,18.0,2,5.197
1450,46.40,-6.3815,-0.5427,0.1797,0.0001,-0.0000,-1.9780,flat,18.0,2,4.626
1460,46.72,-6.6060,-1.0695,0.1797,0.0001,-0.0000,-1.9638,flat,18.0,2,4.055
1470,47.04,-6.8232,-1.5996,0.1797,0.0000,-0.0000,-1.9500,flat,18.0,2,3.484
1480,47.36,-7.0330,-2.1326,0.1797,0.0000,-0.0000,-1.9360,flat,18.0,2,2.912
1490,47.68,-7.2353,-2.6683,0.1797,0.0001,0.0000,-1.9213,flat,18.0,2,2.341
1500,48.00,-7.4294,-3.2067,0.1797,0.0001,0.0000,-1.9050,flat,18.0,2,1.770
1510,48.32,-7.6142,-3.7476,0.1797,0.0001,0.0000,-1.8846,flat,18.0,2,1.200
1520,48.64,-7.7809,-4.2835,0.1797,0.0001,0.0001,-1.8941,flat,18.0,3,0.880
1530,48.96,-7.9101,-4.7243,0.1798,-0.0004,0.0001,-1.6423,flat,18.0,0,13.256
1540,49.28,-7.9146,-5.1190,0.1799,0.0002,-0.0001,-1.2360,flat,18.0,0,13.273
1550,49.60,-7.7330,-5.5263,0.1799,0.0001,-0.0000,-0.9483,flat,18.0,0,13.116
1560,49.92,-7.4095,-5.8975,0.1799,0.0001,-0.0000,-0.7349,flat,18.0,0,12.828
1570,50.24,-6.9941,-6.2213,0.1799,0.0001,-0.0000,-0.5523,flat,18.0,0,12.455
1580,50.56,-6.5161,-6.4837,0.1799,0.0001,-0.0000,-0.3945,flat,18.0,0,12.022
1590,50.88,-5.9975,-6.6790,0.1799,0.0002,-0.0000,-0.2646,flat,18.0,0,11.546
1600,51.20,-5.4543,-6.8120,0.1798,0.0004,-0.0000,-0.1588,flat,18.0,0,11.039
1610,51.52,-4.8973,-6.8905,0.1798,0.0004,-0.0000,-0.0722,flat,18.0,0,10.513
1620,51.84,-4.3333,-6.9228,0.1798,0.0003,-0.0000,-0.0013,flat,18.0,0,9.972
1630,52.16,-3.7672,-6.9167,0.1797,0.0002,-0.0000,0.0538,flat,18.0,0,9.422
1640,52.48,-3.2014,-6.8808,0.1797,0.0002,-0.0000,0.0971,flat,18.0,0,8.866
1650,52.80,-2.6369,-6.8214,0.1797,0.0001,-0.0000,0.1321,flat,18.0,0,8.307
1660,53.12,-2.0737,-6.7426,0.1797,0.0001,-0.0000,0.1617,flat,18.0,0,7.744
1670,53.44,-1.5121,-6.6475,0.1797,0.0001,-0.0000,0.1871,flat,18.0,0,7.179
1680,53.76,-0.9525,-6.5384,0.1797,0.0001,-0.0000,0.2093,flat,18.0,0,6.613
1690,54.08,-0.3947,-6.4171,0.1797,0.0001,-0.0000,0.2289,flat,18.0,0,6.045
1700,54.40,0.1610,-6.2850,0.1797,0.0001,-0.0000,0.2466,flat,18.0,0,5.476
1710,54.72,0.7147,-6.1432,0.1797,0.0001,-0.0000,0.2626,flat,18.0,0,4.906
1720,55.04,1.2664,-5.9926,0.1797,0.0001,-0.0000,0.2775,flat,18.0,0,4.336
1730,55.36,1.8160,-5.8338,0.1797,0.0001,-0.0000,0.2916,flat,18.0,0,3.765
1740,55.68,2.3633,-5.6673,0.1797,0.0000,-0.0000,0.3052,flat,18.0,0,3.194
1750,56.00,2.9083,-5.4934,0.1797,0.0000,0.0000,0.3190,flat,18.0,0,2.624
1760,56.32,3.4505,-5.3120,0.1797,0.0001,0.0000,0.3335,flat,18.0,0,2.053
1770,56.64,3.9893,-5.1226,0.1797,0.0001,0.0000,0.3502,flat,18.0,0,1.483
1780,56.96,4.5229,-4.9242,0.1797,0.0001,0.0000,0.3728,flat,18.0,0,0.916
1790,57.28,4.9809,-4.7351,0.1799,-0.0003,0.0000,0.5519,flat,18.0,1,12.870
1800,57.60,5.3330,-4.4627,0.1799,0.0000,-0.0000,0.8202,flat,18.0,1,12.726
1810,57.92,5.6340,-4.0736,0.1799,0.0000,-0.0000,1.0560,flat,18.0,1,12.469
1820,58.24,5.8645,-3.6016,0.1799,0.0001,-0.0000,1.2685,flat,18.0,1,12.122
1830,58.56,6.0047,-3.0761,0.1799,0.0001,-0.0000,1.4513,flat,18.0,1,11.701
1840,58.88,6.0533,-2.5253,0.1799,0.0001,-0.0000,1.5989,flat,18.0,1,11.227
1850,59.20,6.0248,-1.9693,0.1798,0.0004,-0.0000,1.7059,flat,18.0,1,10.720
1860,59.52,5.9395,-1.4163,0.1798,0.0004,-0.0000,1.7855,flat,18.0,1,10.193
1870,59.84,5.8116,-0.8691,0.1797,0.0002,-0.0000,1.8476,flat,18.0,1,9.653
1880,60.16,5.6506,-0.3286,0.1797,0.0002,-0.0000,1.8975,flat,18.0,1,9.105
1890,60.48,5.4631,0.2044,0.1797,0.0001,-0.0000,1.9370,flat,18.0,1,8.551
1900,60.80,5.2551,0.7308,0.1797,0.0001,-0.0000,1.9699,flat,18.0,1,7.994
1910,61.12,5.0298,1.2514,0.1797,0.0001,-0.0000,1.9986,flat,18.0,1,7.433
1920,61.44,4.7898,1.7663,0.1797,0.0001,-0.0000,2.0239,flat,18.0,1,6.871
1930,61.76,4.5368,2.2759,0.1797,0.0001,-0.0000,2.0465,flat,18.0,1,6.306
1940,62.08,4.2723,2.7802,0.1797,0.0001,-0.0000,2.0669,flat,18.0,1,5.741
1950,62.40,3.9976,3.2796,0.1797,0.0001,-0.0000,2.0858,flat,18.0,1,5.174
1960,62.72,3.7135,3.7742,0.1797,0.0001,-0.0000,2.1033,flat,18.0,1,4.606
1970,63.04,3.4207,4.2639,0.1797,0.0001,-0.0000,2.1201,flat,18.0,1,4.038
1980,63.36,3.1197,4.7488,0.1797,0.0001,-0.0000,2.1364,flat,18.0,1,3.469
1990,63.68,2.8108,5.2286,0.1797,0.0001,0.0000,2.1527,flat,18.0,1,2.901
2000,64.00,2.4941,5.7030,0.1797,0.0001,0.0000,2.1698,flat,18.0,1,2.333
2010,64.32,2.1693,6.1711,0.1797,0.0001,0.0000,2.1888,flat,18.0,1,1.765
2020,64.64,1.8358,6.6312,0.1797,0.0001,0.0000,2.2124,flat,18.0,1,1.200
2030,64.96,1.5014,7.0692,0.1797,0.0001,0.0003,2.2856,flat,18.0,2,15.228
2040,65.28,1.2042,7.3337,0.1799,-0.0002,-0.0000,2.6433,flat,18.0,2,15.258
2050,65.60,0.7962,7.5166,0.1799,0.0000,-0.0000,2.9794,flat,18.0,2,15.168
2060,65.92,0.3113,7.5693,0.1799,0.0001,-0.0000,-3.0135,flat,18.0,2,14.939
2070,66.24,-0.1960,7.4793,0.1799,0.0001,-0.0000,-2.8013,flat,18.0,2,14.590
2080,66.56,-0.6903,7.2782,0.1799,0.0001,-0.0000,-2.6459,flat,18.0,2,14.162
2090,66.88,-1.1581,7.0010,0.1798,0.0004,-0.0000,-2.5351,flat,18.0,2,13.688
2100,67.20,-1.6025,6.6717,0.1798,0.0003,-0.0000,-2.4587,flat,18.0,2,13.184
2110,67.52,-2.0241,6.3090,0.1797,0.0002,-0.0000,-2.3936,flat,18.0,2,12.666
2120,67.84,-2.4234,5.9183,0.1797,0.0002,-0.0000,-2.3367,flat,18.0,2,12.136
2130,68.16,-2.8025,5.5050,0.1797,0.0002,-0.0000,-2.2875,flat,18.0,2,11.597
2140,68.48,-3.1635,5.0739,0.1797,0.0001,-0.0000,-2.2455,flat,18.0,2,11.052
2150,68.80,-3.5087,4.6274,0.1797,0.0001,-0.0000,-2.2081,flat,18.0,2,10.501
2160,69.12,-3.8390,4.1678,0.1797,0.0001,-0.0000,-2.1746,flat,18.0,2,9.946
2170,69.44,-4.1554,3.6967,0.1797,0.0001,-0.0000,-2.1445,flat,18.0,2,9.388
2180,69.76,-4.4589,3.2159,0.1797,0.0001,-0.0000,-2.1174,flat,18.0,2,8.826
2190,70.08,-4.7504,2.7267,0.1797,0.0001,-0.0000,-2.0929,flat,18.0,2,8.263
2200,70.40,-5.0308,2.2301,0.1797,0.0001,-0.0000,-2.0707,flat,18.0,2,7.697
2210,70.72,-5.3008,1.7272,0.1797,0.0001,-0.0000,-2.0505,flat,18.0,2,7.130
2220,71.04,-5.5612,1.2186,0.1797,0.0001,-0.0000,-2.0319,flat,18.0,2,6.562
2230,71.36,-5.8127,0.7050,0.1797,0.0001,-0.0000,-2.0147,flat,18.0,2,5.993
2240,71.68,-6.0557,0.1871,0.1797,0.0001,-0.0000,-1.9988,flat,18.0,2,5.423
2250,72.00,-6.2907,-0.3349,0.1797,0.0001,-0.0000,-1.9837,flat,18.0,2,4.852
2260,72.32,-6.5181,-0.8604,0.1797,0.0001,-0.0000,-1.9693,flat,18.0,2,4.281
2270,72.64,-6.7381,-1.3892,0.1797,0.0000,-0.0000,-1.9554,flat,18.0,2,3.710
2280,72.96,-6.9508,-1.9211,0.1797,0.0000,-0.0000,-1.9415,flat,18.0,2,3.138
2290,73.28,-7.1561,-2.4558,0.1797,0.0001,0.0000,-1.9272,flat,18.0,2,2.567
2300,73.60,-7.3536,-2.9931,0.1797,0.0001,0.0000,-1.9117,flat,18.0,2,1.996
2310,73.92,-7.5423,-3.5331,0.1797,0.0001,0.0000,-1.8934,flat,18.0,2,1.425
2320,74.24,-7.7199,-4.0750,0.1797,0.0001,0.0000,-1.8676,flat,18.0,2,0.857
2330,74.56,-7.8641,-4.5643,0.1798,-0.0003,0.0002,-1.8107,flat,18.0,0,13.209
2340,74.88,-7.9369,-4.9582,0.1799,-0.0000,-0.0000,-1.3799,flat,18.0,0,13.289
2350,75.20,-7.8259,-5.3682,0.1799,0.0001,-0.0000,-1.0528,flat,18.0,0,13.198
2360,75.52,-7.5531,-5.7568,0.1799,0.0001,-0.0000,-0.8132,flat,18.0,0,12.957
2370,75.84,-7.1696,-6.1003,0.1799,0.0001,-0.0000,-0.6230,flat,18.0,0,12.614
2380,76.16,-6.7136,-6.3888,0.1799,0.0001,-0.0000,-0.4540,flat,18.0,0,12.202
2390,76.48,-6.2090,-6.6107,0.1799,0.0002,-0.0000,-0.3132,flat,18.0,0,11.741
2400,76.80,-5.6741,-6.7676,0.1799,0.0004,-0.0000,-0.1984,flat,18.0,0,11.246
2410,77.12,-5.1216,-6.8669,0.1798,0.0004,-0.0000,-0.1046,flat,18.0,0,10.726
2420,77.44,-4.5597,-6.9166,0.1798,0.0004,-0.0000,-0.0278,flat,18.0,0,10.190
2430,77.76,-3.9938,-6.9247,0.1797,0.0002,-0.0000,0.0340,flat,18.0,0,9.643
2440,78.08,-3.4280,-6.8998,0.1797,0.0002,-0.0000,0.0811,flat,18.0,0,9.090
2450,78.40,-2.8629,-6.8491,0.1797,0.0001,-0.0000,0.1190,flat,18.0,0,8.532
2460,78.72,-2.2991,-6.7776,0.1797,0.0001,-0.0000,0.1505,flat,18.0,0,7.970
2470,79.04,-1.7369,-6.6886,0.1797,0.0001,-0.0000,0.1775,flat,18.0,0,7.406
2480,79.36,-1.1765,-6.5848,0.1797,0.0001,-0.0000,0.2009,flat,18.0,0,6.840
2490,79.68,-0.6180,-6.4681,0.1797,0.0001,-0.0000,0.2215,flat,18.0,0,6.273
2500,80.00,-0.0615,-6.3401,0.1797,0.0001,-0.0000,0.2399,flat,18.0,0,5.704
2510,80.32,0.4931,-6.2020,0.1797,0.0001,-0.0000,0.2565,flat,18.0,0,5.135
2520,80.64,1.0455,-6.0547,0.1797,0.0001,-0.0000,0.2718,flat,18.0,0,4.565
2530,80.96,1.5959,-5.8991,0.1797,0.0001,-0.0000,0.2861,flat,18.0,0,3.994
2540,81.28,2.1441,-5.7356,0.1797,0.0000,-0.0000,0.2999,flat,18.0,0,3.423
2550,81.60,2.6901,-5.5645,0.1797,0.0000,-0.0000,0.3136,flat,18.0,0,2.853
2560,81.92,3.2334,-5.3860,0.1797,0.0000,0.0000,0.3277,flat,18.0,0,2.282
2570,82.24,3.7737,-5.1999,0.1797,0.0001,0.0000,0.3433,flat,18.0,0,1.712
2580,82.56,4.3097,-5.0052,0.1797,0.0001,0.0000,0.3627,flat,18.0,0,1.143
2590,82.88,4.8181,-4.8129,0.1798,0.0001,0.0003,0.4511,flat,18.0,1,12.895
2600,83.20,5.1988,-4.5884,0.1799,-0.0000,-0.0000,0.7191,flat,18.0,1,12.800
2610,83.52,5.5196,-4.2409,0.1799,0.0000,-0.0000,0.9640,flat,18.0,1,12.583
2620,83.84,5.7818,-3.7987,0.1799,0.0001,-0.0000,1.1869,flat,18.0,1,12.271
2630,84.16,5.9592,-3.2909,0.1799,0.0001,0.0000,1.3818,flat,18.0,1,11.877
2640,84.48,6.0435,-2.7474,0.1799,0.0001,-0.0000,1.5444,flat,18.0,1,11.422
2650,84.80,6.0433,-2.1918,0.1799,0.0003,-0.0000,1.6672,flat,18.0,1,10.925
2660,85.12,5.9787,-1.6370,0.1798,0.0004,-0.0000,1.7562,flat,18.0,1,10.405
2670,85.44,5.8665,-1.0873,0.1798,0.0003,-0.0000,1.8244,flat,18.0,1,9.870
2680,85.76,5.7178,-0.5441,0.1797,0.0002,-0.0000,1.8787,flat,18.0,1,9.324
2690,86.08,5.5402,-0.0080,0.1797,0.0002,-0.0000,1.9223,flat,18.0,1,8.773
2700,86.40,5.3399,0.5209,0.1797,0.0001,-0.0000,1.9573,flat,18.0,1,8.217
2710,86.72,5.1212,1.0437,0.1797,0.0001,-0.0000,1.9875,flat,18.0,1,7.658
2720,87.04,4.8869,1.5609,0.1797,0.0001,-0.0000,2.0141,flat,18.0,1,7.096
2730,87.36,4.6389,2.0726,0.1797,0.0001,-0.0000,2.0377,flat,18.0,1,6.532
2740,87.68,4.3789,2.5790,0.1797,0.0001,-0.0000,2.0589,flat,18.0,1,5.967
2750,88.00,4.1082,3.0804,0.1797,0.0001,-0.0000,2.0783,flat,18.0,1,5.400
2760,88.32,3.8277,3.5769,0.1797,0.0001,-0.0000,2.0964,flat,18.0,1,4.833
2770,88.64,3.5384,4.0686,0.1797,0.0001,-0.0000,2.1134,flat,18.0,1,4.265
2780,88.96,3.2406,4.5554,0.1797,0.0001,-0.0000,2.1298,flat,18.0,1,3.697
2790,89.28,2.9349,5.0373,0.1797,0.0001,-0.0000,2.1460,flat,18.0,1,3.128
2800,89.60,2.6214,5.5140,0.1797,0.0001,0.0000,2.1627,flat,18.0,1,2.560
2810,89.92,2.3000,5.9848,0.1797,0.0001,0.0000,2.1808,flat,18.0,1,1.992
2820,90.24,1.9701,6.4484,0.1797,0.0001,0.0000,2.2021,flat,18.0,1,1.425
2830,90.56,1.6307,6.9017,0.1797,0.0001,0.0000,2.2316,flat,18.0,1,0.863
2840,90.88,1.3346,7.2386,0.1798,-0.0003,0.0000,2.5019,flat,18.0,2,15.260
2850,91.20,0.9716,7.4563,0.1799,-0.0000,-0.0000,2.8487,flat,18.0,2,15.220
2860,91.52,0.5106,7.5667,0.1799,0.0001,-0.0000,-3.1201,flat,18.0,2,15.047
2870,91.84,0.0067,7.5308,0.1799,0.0001,-0.0000,-2.8786,flat,18.0,2,14.741
2880,92.16,-0.4957,7.3698,0.1799,0.0001,-0.0000,-2.7013,flat,18.0,2,14.340
2890,92.48,-0.9744,7.1194,0.1799,0.0003,-0.0000,-2.5753,flat,18.0,2,13.881
2900,92.80,-1.4275,6.8083,0.1798,0.0004,-0.0000,-2.4866,flat,18.0,2,13.388
2910,93.12,-1.8585,6.4577,0.1797,0.0002,-0.0000,-2.4194,flat,18.0,2,12.875
2920,93.44,-2.2663,6.0778,0.1797,0.0002,-0.0000,-2.3583,flat,18.0,2,12.349
2930,93.76,-2.6534,5.6730,0.1797,0.0002,-0.0000,-2.3063,flat,18.0,2,11.813
2940,94.08,-3.0213,5.2485,0.1797,0.0002,-0.0000,-2.2616,flat,18.0,2,11.271
2950,94.40,-3.3726,4.8079,0.1797,0.0001,-0.0000,-2.2225,flat,18.0,2,10.722
2960,94.72,-3.7088,4.3533,0.1797,0.0001,-0.0000,-2.1875,flat,18.0,2,10.169
2970,95.04,-4.0306,3.8866,0.1797,0.0001,-0.0000,-2.1561,flat,18.0,2,9.612
2980,95.36,-4.3392,3.4095,0.1797,0.0001,-0.0000,-2.1279,flat,18.0,2,9.051
2990,95.68,-4.6353,2.9235,0.1797,0.0001,-0.0000,-2.1024,flat,18.0,2,8.488
3000,96.00,-4.9200,2.4298,0.1797,0.0001,-0.0000,-2.0793,flat,18.0,2,7.924
3010,96.32,-5.1941,1.9293,0.1797,0.0001,-0.0000,-2.0583,flat,18.0,2,7.357
3020,96.64,-5.4583,1.4229,0.1797,0.0001,-0.0000,-2.0391,flat,18.0,2,6.789
3030,96.96,-5.7132,0.9112,0.1797,0.0001,-0.0000,-2.0214,flat,18.0,2,6.220
3040,97.28,-5.9595,0.3949,0.1797,0.0001,-0.0000,-2.0050,flat,18.0,2,5.651
3050,97.60,-6.1977,-0.1255,0.1797,0.0001,-0.0000,-1.9896,flat,18.0,2,5.081
3060,97.92,-6.4281,-0.6496,0.1797,0.0001,-0.0000,-1.9750,flat,18.0,2,4.510
3070,98.24,-6.6511,-1.1771,0.1797,0.0000,-0.0000,-1.9609,flat,18.0,2,3.939
3080,98.56,-6.8667,-1.7078,0.1797,0.0000,-0.0000,-1.9471,flat,18.0,2,3.367
3090,98.88,-7.0749,-2.2414,0.1797,0.0000,-0.0000,-1.9330,flat,18.0,2,2.796
3100,99.20,-7.2756,-2.7777,0.1797,0.0001,0.0000,-1.9181,flat,18.0,2,2.224
3110,99.52,-7.4679,-3.3167,0.1797,0.0001,0.0000,-1.9013,flat,18.0,2,1.654
3120,99.84,-7.6504,-3.8579,0.1797,0.0001,0.0000,-1.8794,flat,18.0,2,1.084
3130,100.16,-7.8119,-4.3865,0.1798,0.0001,0.0001,-1.9328,flat,18.0,0,13.157
3140,100.48,-7.9274,-4.8022,0.1798,-0.0003,0.0000,-1.5475,flat,18.0,0,13.275
3150,100.80,-7.8925,-5.2037,0.1799,0.0002,-0.0000,-1.1710,flat,18.0,0,13.255
3160,101.12,-7.6784,-5.6061,0.1799,0.0001,-0.0000,-0.9005,flat,18.0,0,13.068
3170,101.44,-7.3329,-5.9683,0.1799,0.0001,-0.0000,-0.6968,flat,18.0,0,12.760
3180,101.76,-6.9031,-6.2810,0.1799,0.0001,-0.0000,-0.5183,flat,18.0,0,12.374
3190,102.08,-6.4153,-6.5298,0.1799,0.0001,-0.0000,-0.3662,flat,18.0,0,11.930
3200,102.40,-5.8907,-6.7121,0.1799,0.0003,-0.0000,-0.2415,flat,18.0,0,11.447
3210,102.72,-5.3440,-6.8334,0.1798,0.0004,-0.0000,-0.1399,flat,18.0,0,10.936
3220,103.04,-4.7852,-6.9020,0.1798,0.0004,-0.0000,-0.0567,flat,18.0,0,10.406
3230,103.36,-4.2203,-6.9259,0.1797,0.0003,-0.0000,0.0114,flat,18.0,0,9.863
3240,103.68,-3.6543,-6.9130,0.1797,0.0002,-0.0000,0.0633,flat,18.0,0,9.312
3250,104.00,-3.0887,-6.8720,0.1797,0.0002,-0.0000,0.1047,flat,18.0,0,8.755
3260,104.32,-2.5244,-6.8083,0.1797,0.0001,-0.0000,0.1385,flat,18.0,0,8.195
3270,104.64,-1.9615,-6.7260,0.1797,0.0001,-0.0000,0.1672,flat,18.0,0,7.632
3280,104.96,-1.4004,-6.6279,0.1797,0.0001,-0.0000,0.1919,flat,18.0,0,7.067
3290,105.28,-0.8411,-6.5162,0.1797,0.0001,-0.0000,0.2135,flat,18.0,0,6.500
3300,105.60,-0.2838,-6.3925,0.1797,0.0001,-0.0000,0.2327,flat,18.0,0,5.932
3310,105.92,0.2715,-6.2583,0.1797,0.0001,-0.0000,0.2500,flat,18.0,0,5.363
3320,106.24,0.8248,-6.1146,0.1797,0.0001,-0.0000,0.2658,flat,18.0,0,4.793
3330,106.56,1.3761,-5.9622,0.1797,0.0001,-0.0000,0.2805,flat,18.0,0,4.222
3340,106.88,1.9252,-5.8018,0.1797,0.0000,-0.0000,0.2944,flat,18.0,0,3.652
3350,107.20,2.4720,-5.6338,0.1797,0.0000,-0.0000,0.3081,flat,18.0,0,3.081
3360,107.52,3.0165,-5.4583,0.1797,0.0000,0.0000,0.3219,flat,18.0,0,2.510
3370,107.84,3.5581,-5.2753,0.1797,0.0001,0.0000,0.3367,flat,18.0,0,1.940
3380,108.16,4.0960,-5.0841,0.1797,0.0001,0.0000,0.3542,flat,18.0,0,1.370
3390,108.48,4.6281,-4.8836,0.1797,0.0001,0.0000,0.3790,flat,18.0,0,0.803
3400,108.80,5.0567,-4.6909,0.1799,-0.0002,0.0000,0.6064,flat,18.0,1,12.852
3410,109.12,5.3966,-4.3930,0.1799,0.0000,-0.0000,0.8688,flat,18.0,1,12.682
3420,109.44,5.6861,-3.9851,0.1799,0.0000,-0.0000,1.1007,flat,18.0,1,12.406
3430,109.76,5.8994,-3.5000,0.1799,0.0001,-0.0000,1.3075,flat,18.0,1,12.043
3440,110.08,6.0208,-2.9673,0.1799,0.0001,-0.0000,1.4838,flat,18.0,1,11.610
3450,110.40,6.0524,-2.4143,0.1799,0.0002,-0.0000,1.6233,flat,18.0,1,11.128
3460,110.72,6.0111,-1.8585,0.1798,0.0004,-0.0000,1.7236,flat,18.0,1,10.615
3470,111.04,5.9163,-1.3065,0.1798,0.0003,-0.0000,1.7991,flat,18.0,1,10.085
3480,111.36,5.7812,-0.7606,0.1797,0.0002,-0.0000,1.8584,flat,18.0,1,9.544
3490,111.68,5.6144,-0.2214,0.1797,0.0002,-0.0000,1.9063,flat,18.0,1,8.994
3500,112.00,5.4224,0.3101,0.1797,0.0001,-0.0000,1.9439,flat,18.0,1,8.440
3510,112.32,5.2107,0.8353,0.1797,0.0001,-0.0000,1.9760,flat,18.0,1,7.882
3520,112.64,4.9824,1.3547,0.1797,0.0001,-0.0000,2.0039,flat,18.0,1,7.321
3530,112.96,4.7396,1.8686,0.1797,0.0001,-0.0000,2.0285,flat,18.0,1,6.758
3540,113.28,4.4842,2.3771,0.1797,0.0001,-0.0000,2.0507,flat,18.0,1,6.193
3550,113.60,4.2177,2.8804,0.1797,0.0001,-0.0000,2.0708,flat,18.0,1,5.627
3560,113.92,3.9410,3.3789,0.1797,0.0001,-0.0000,2.0893,flat,18.0,1,5.060
3570,114.24,3.6551,3.8725,0.1797,0.0001,-0.0000,2.1067,flat,18.0,1,4.492
3580,114.56,3.3607,4.3613,0.1797,0.0001,-0.0000,2.1233,flat,18.0,1,3.924
3590,114.88,3.0582,4.8452,0.1797,0.0001,-0.0000,2.1395,flat,18.0,1,3.355
3600,115.20,2.7478,5.3240,0.1797,0.0001,0.0000,2.1560,flat,18.0,1,2.787
3610,115.52,2.4295,5.7973,0.1797,0.0001,0.0000,2.1733,flat,18.0,1,2.219
3620,115.84,2.1031,6.2640,0.1797,0.0001,0.0000,2.1930,flat,18.0,1,1.652
3630,116.16,1.7677,6.7220,0.1797,0.0001,0.0000,2.2181,flat,18.0,1,1.087
3640,116.48,1.4484,7.1339,0.1798,-0.0000,0.0004,2.3579,flat,18.0,2,15.246
3650,116.80,1.1312,7.3781,0.1799,-0.0001,-0.0001,2.7128,flat,18.0,2,15.250
3660,117.12,0.7034,7.5392,0.1799,0.0000,-0.0000,3.0423,flat,18.0,2,15.133
3670,117.44,0.2100,7.5621,0.1799,0.0001,-0.0000,-2.9656,flat,18.0,2,14.878
3680,117.76,-0.2968,7.4470,0.1799,0.0001,-0.0000,-2.7657,flat,18.0,2,14.509
3690,118.08,-0.7862,7.2281,0.1799,0.0002,-0.0000,-2.6209,flat,18.0,2,14.070
3700,118.40,-1.2488,6.9388,0.1798,0.0004,-0.0000,-2.5171,flat,18.0,2,13.589
3710,118.72,-1.6888,6.6018,0.1798,0.0003,-0.0000,-2.4450,flat,18.0,2,13.082
3720,119.04,-2.1058,6.2332,0.1797,0.0002,-0.0000,-2.3813,flat,18.0,2,12.561
3730,119.36,-2.5010,5.8376,0.1797,0.0002,-0.0000,-2.3264,flat,18.0,2,12.029
3740,119.68,-2.8762,5.4203,0.1797,0.0002,-0.0000,-2.2786,flat,18.0,2,11.489
3750,120.00,-3.2339,4.9860,0.1797,0.0001,-0.0000,-2.2377,flat,18.0,2,10.942
3760,120.32,-3.5761,4.5367,0.1797,0.0001,-0.0000,-2.2011,flat,18.0,2,10.391
3770,120.64,-3.9035,4.0746,0.1797,0.0001,-0.0000,-2.1683,flat,18.0,2,9.835
3780,120.96,-4.2173,3.6015,0.1797,0.0001,-0.0000,-2.1388,flat,18.0,2,9.276
3790,121.28,-4.5183,3.1189,0.1797,0.0001,-0.0000,-2.1123,flat,18.0,2,8.714
3800,121.60,-4.8075,2.6282,0.1797,0.0001,-0.0000,-2.0883,flat,18.0,2,8.150
3810,121.92,-5.0857,2.1302,0.1797,0.0001,-0.0000,-2.0665,flat,18.0,2,7.584
3820,122.24,-5.3538,1.6261,0.1797,0.0001,-0.0000,-2.0466,flat,18.0,2,7.017
3830,122.56,-5.6123,1.1165,0.1797,0.0001,-0.0000,-2.0283,flat,18.0,2,6.448
3840,122.88,-5.8620,0.6020,0.1797,0.0001,-0.0000,-2.0114,flat,18.0,2,5.879
3850,123.20,-6.1034,0.0832,0.1797,0.0001,-0.0000,-1.9957,flat,18.0,2,5.309
3860,123.52,-6.3369,-0.4395,0.1797,0.0001,-0.0000,-1.9808,flat,18.0,2,4.738
3870,123.84,-6.5628,-0.9657,0.1797,0.0001,-0.0000,-1.9665,flat,18.0,2,4.167
3880,124.16,-6.7813,-1.4952,0.1797,0.0000,-0.0000,-1.9526,flat,18.0,2,3.596
3890,124.48,-6.9925,-2.0276,0.1797,0.0000,-0.0000,-1.9387,flat,18.0,2,3.024
3900,124.80,-7.1963,-2.5629,0.1797,0.0001,0.0000,-1.9242,flat,18.0,2,2.453
3910,125.12,-7.3921,-3.1008,0.1797,0.0001,0.0000,-1.9084,flat,18.0,2,1.882
3920,125.44,-7.5788,-3.6412,0.1797,0.0001,0.0000,-1.8891,flat,18.0,2,1.312
3930,125.76,-7.7536,-4.1834,0.1797,0.0001,0.0000,-1.8603,flat,18.0,3,0.970
3940,126.08,-7.8885,-4.6472,0.1798,-0.0003,0.0001,-1.7322,flat,18.0,0,13.234
3950,126.40,-7.9300,-5.0390,0.1799,0.0001,-0.0001,-1.3053,flat,18.0,0,13.285
3960,126.72,-7.7827,-5.4488,0.1799,0.0001,-0.0000,-0.9989,flat,18.0,0,13.160
3970,127.04,-7.4834,-5.8290,0.1799,0.0001,-0.0000,-0.7733,flat,18.0,0,12.895
3980,127.36,-7.0834,-6.1628,0.1799,0.0001,-0.0000,-0.5872,flat,18.0,0,12.536
3990,127.68,-6.6159,-6.4385,0.1799,0.0001,-0.0000,-0.4236,flat,18.0,0,12.113
4000,128.00,-6.1039,-6.6469,0.1799,0.0002,-0.0000,-0.2883,flat,18.0,0,11.644
4010,128.32,-5.5646,-6.7917,0.1798,0.0004,-0.0000,-0.1781,flat,18.0,0,11.143
4020,128.64,-5.0097,-6.8804,0.1798,0.0004,-0.0000,-0.0880,flat,18.0,0,10.620
4030,128.96,-4.4467,-6.9212,0.1798,0.0003,-0.0000,-0.0142,flat,18.0,0,10.081
4040,129.28,-3.8806,-6.9220,0.1797,0.0002,-0.0000,0.0442,flat,18.0,0,9.533
4050,129.60,-3.3148,-6.8915,0.1797,0.0002,-0.0000,0.0895,flat,18.0,0,8.978
4060,129.92,-2.7500,-6.8362,0.1797,0.0001,-0.0000,0.1257,flat,18.0,0,8.419
4070,130.24,-2.1865,-6.7610,0.1797,0.0001,-0.0000,0.1563,flat,18.0,0,7.857
4080,130.56,-1.6246,-6.6689,0.1797,0.0001,-0.0000,0.1824,flat,18.0,0,7.293
4090,130.88,-1.0646,-6.5623,0.1797,0.0001,-0.0000,0.2052,flat,18.0,0,6.727
4100,131.20,-0.5065,-6.4433,0.1797,0.0001,-0.0000,0.2253,flat,18.0,0,6.159
4110,131.52,0.0497,-6.3131,0.1797,0.0001,-0.0000,0.2433,flat,18.0,0,5.590
4120,131.84,0.6038,-6.1731,0.1797,0.0001,-0.0000,0.2596,flat,18.0,0,5.021
4130,132.16,1.1558,-6.0241,0.1797,0.0001,-0.0000,0.2747,flat,18.0,0,4.451
4140,132.48,1.7058,-5.8669,0.1797,0.0001,-0.0000,0.2889,flat,18.0,0,3.880
4150,132.80,2.2536,-5.7019,0.1797,0.0000,-0.0000,0.3026,flat,18.0,0,3.309
4160,133.12,2.7990,-5.5294,0.1797,0.0000,0.0000,0.3163,flat,18.0,0,2.738
4170,133.44,3.3418,-5.3494,0.1797,0.0001,0.0000,0.3306,flat,18.0,0,2.168
4180,133.76,3.8814,-5.1616,0.1797,0.0001,0.0000,0.3467,flat,18.0,0,1.598
4190,134.08,4.4162,-4.9651,0.1797,0.0001,0.0000,0.3675,flat,18.0,0,1.029
4200,134.40,4.9005,-4.7762,0.1798,-0.0002,0.0001,0.5008,flat,18.0,1,12.885
4210,134.72,5.2667,-4.5284,0.1799,0.0000,-0.0000,0.7712,flat,18.0,1,12.766
4220,135.04,5.5779,-4.1591,0.1799,0.0000,-0.0000,1.0105,flat,18.0,1,12.528
4230,135.36,5.8247,-3.7014,0.1799,0.0001,-0.0000,1.2283,flat,18.0,1,12.198
4240,135.68,5.9835,-3.1842,0.1799,0.0001,-0.0000,1.4172,flat,18.0,1,11.790
4250,136.00,6.0498,-2.6366,0.1799,0.0001,-0.0000,1.5726,flat,18.0,1,11.325
4260,136.32,6.0350,-2.0805,0.1799,0.0004,-0.0000,1.6871,flat,18.0,1,10.823
4270,136.64,5.9598,-1.5266,0.1798,0.0004,-0.0000,1.7712,flat,18.0,1,10.299
4280,136.96,5.8395,-0.9781,0.1797,0.0003,-0.0000,1.8363,flat,18.0,1,9.761
4290,137.28,5.6845,-0.4363,0.1797,0.0002,-0.0000,1.8883,flat,18.0,1,9.215
4300,137.60,5.5018,0.0983,0.1797,0.0001,-0.0000,1.9298,flat,18.0,1,8.662
4310,137.92,5.2976,0.6259,0.1797,0.0001,-0.0000,1.9637,flat,18.0,1,8.105
4320,138.24,5.0756,1.1476,0.1797,0.0001,-0.0000,1.9931,flat,18.0,1,7.545
4330,138.56,4.8383,1.6637,0.1797,0.0001,-0.0000,2.0190,flat,18.0,1,6.983
4340,138.88,4.5878,2.1743,0.1797,0.0001,-0.0000,2.0421,flat,18.0,1,6.419
4350,139.20,4.3256,2.6797,0.1797,0.0001,-0.0000,2.0629,flat,18.0,1,5.854
4360,139.52,4.0528,3.1801,0.1797,0.0001,-0.0000,2.0820,flat,18.0,1,5.287
4370,139.84,3.7706,3.6756,0.1797,0.0001,-0.0000,2.0998,flat,18.0,1,4.719
4380,140.16,3.4795,4.1663,0.1797,0.0001,-0.0000,2.1167,flat,18.0,1,4.151
4390,140.48,3.1801,4.6522,0.1797,0.0001,-0.0000,2.1330,flat,18.0,1,3.583
4400,140.80,2.8729,5.1331,0.1797,0.0001,0.0000,2.1493,flat,18.0,1,3.014
4410,141.12,2.5578,5.6087,0.1797,0.0001,0.0000,2.1662,flat,18.0,1,2.446
4420,141.44,2.2347,6.0782,0.1797,0.0001,0.0000,2.1847,flat,18.0,1,1.878
4430,141.76,1.9030,6.5401,0.1797,0.0001,0.0000,2.2070,flat,18.0,1,1.312
4440,142.08,1.5615,6.9904,0.1797,0.0001,0.0000,2.2397,flat,18.0,2,15.203
4450,142.40,1.2719,7.2871,0.1799,-0.0003,-0.0000,2.5729,flat,18.0,2,15.261
4460,142.72,0.8856,7.4890,0.1799,-0.0000,-0.0000,2.9147,flat,18.0,2,15.196
4470,143.04,0.4115,7.5711,0.1799,0.0001,-0.0000,-3.0649,flat,18.0,2,14.996
4480,143.36,-0.0949,7.5075,0.1799,0.0001,-0.0000,-2.8388,flat,18.0,2,14.667
4490,143.68,-0.5936,7.3258,0.1799,0.0001,-0.0000,-2.6726,flat,18.0,2,14.252
4500,144.00,-1.0668,7.0614,0.1799,0.0003,-0.0000,-2.5545,flat,18.0,2,13.785
4510,144.32,-1.5156,6.7407,0.1798,0.0003,-0.0000,-2.4728,flat,18.0,2,13.286
4520,144.64,-1.9418,6.3840,0.1797,0.0002,-0.0000,-2.4063,flat,18.0,2,12.770
4530,144.96,-2.3453,5.9986,0.1797,0.0002,-0.0000,-2.3473,flat,18.0,2,12.243
4540,145.28,-2.7284,5.5895,0.1797,0.0002,-0.0000,-2.2967,flat,18.0,2,11.705
4550,145.60,-3.0927,5.1616,0.1797,0.0002,-0.0000,-2.2535,flat,18.0,2,11.162
4560,145.92,-3.4410,4.7180,0.1797,0.0001,-0.0000,-2.2152,flat,18.0,2,10.612
4570,146.24,-3.7742,4.2608,0.1797,0.0001,-0.0000,-2.1810,flat,18.0,2,10.058
4580,146.56,-4.0933,3.7919,0.1797,0.0001,-0.0000,-2.1502,flat,18.0,2,9.500
4590,146.88,-4.3993,3.3130,0.1797,0.0001,-0.0000,-2.1226,flat,18.0,2,8.939
4600,147.20,-4.6931,2.8253,0.1797,0.0001,-0.0000,-2.0976,flat,18.0,2,8.376
4610,147.52,-4.9756,2.3302,0.1797,0.0001,-0.0000,-2.0750,flat,18.0,2,7.810
4620,147.84,-5.2477,1.8284,0.1797,0.0001,-0.0000,-2.0544,flat,18.0,2,7.244
4630,148.16,-5.5099,1.3209,0.1797,0.0001,-0.0000,-2.0355,flat,18.0,2,6.676
4640,148.48,-5.7631,0.8083,0.1797,0.0001,-0.0000,-2.0181,flat,18.0,2,6.107
4650,148.80,-6.0078,0.2911,0.1797,0.0001,-0.0000,-2.0019,flat,18.0,2,5.537
4660,149.12,-6.2444,-0.2300,0.1797,0.0001,-0.0000,-1.9866,flat,18.0,2,4.966
4670,149.44,-6.4733,-0.7549,0.1797,0.0001,-0.0000,-1.9722,flat,18.0,2,4.396
4680,149.76,-6.6947,-1.2831,0.1797,0.0000,-0.0000,-1.9581,flat,18.0,2,3.824
4690,150.08,-6.9089,-1.8143,0.1797,0.0000,-0.0000,-1.9443,flat,18.0,2,3.253
4700,150.40,-7.1157,-2.3485,0.1797,0.0000,0.0000,-1.9301,flat,18.0,2,2.681
4710,150.72,-7.3147,-2.8853,0.1797,0.0001,0.0000,-1.9150,flat,18.0,2,2.110
4720,151.04,-7.5053,-3.4248,0.1797,0.0001,0.0000,-1.8975,flat,18.0,2,1.540
4730,151.36,-7.6854,-3.9664,0.1797,0.0001,0.0000,-1.8739,flat,18.0,2,0.971
4740,151.68,-7.8393,-4.4782,0.1799,-0.0006,0.0003,-1.8785,flat,18.0,0,13.184
4750,152.00,-7.9360,-4.8789,0.1799,-0.0001,-0.0000,-1.4604,flat,18.0,0,13.286
4760,152.32,-7.8626,-5.2863,0.1799,0.0002,-0.0000,-1.1101,flat,18.0,0,13.229
4770,152.64,-7.6182,-5.6824,0.1799,0.0001,-0.0000,-0.8555,flat,18.0,0,13.015
4780,152.96,-7.2528,-6.0353,0.1799,0.0001,-0.0000,-0.6595,flat,18.0,0,12.688
4790,153.28,-6.8094,-6.3362,0.1799,0.0001,-0.0000,-0.4855,flat,18.0,0,12.289
4800,153.60,-6.3128,-6.5716,0.1799,0.0001,-0.0000,-0.3392,flat,18.0,0,11.837
4810,153.92,-5.7828,-6.7410,0.1799,0.0003,-0.0000,-0.2195,flat,18.0,0,11.347
4820,154.24,-5.2330,-6.8511,0.1798,0.0004,-0.0000,-0.1219,flat,18.0,0,10.831
4830,154.56,-4.6725,-6.9101,0.1798,0.0004,-0.0000,-0.0420,flat,18.0,0,10.298
4840,154.88,-4.1070,-6.9260,0.1797,0.0003,-0.0000,0.0232,flat,18.0,0,9.753
4850,155.20,-3.5411,-6.9069,0.1797,0.0002,-0.0000,0.0724,flat,18.0,0,9.201
4860,155.52,-2.9757,-6.8609,0.1797,0.0001,-0.0000,0.1120,flat,18.0,0,8.643
4870,155.84,-2.4117,-6.7932,0.1797,0.0001,-0.0000,0.1447,flat,18.0,0,8.083
4880,156.16,-1.8491,-6.7075,0.1797,0.0001,-0.0000,0.1724,flat,18.0,0,7.519
4890,156.48,-1.2883,-6.6065,0.1797,0.0001,-0.0000,0.1965,flat,18.0,0,6.953
4900,156.80,-0.7295,-6.4922,0.1797,0.0001,-0.0000,0.2176,flat,18.0,0,6.386
4910,157.12,-0.1725,-6.3664,0.1797,0.0001,-0.0000,0.2363,flat,18.0,0,5.818
4920,157.44,0.3824,-6.2302,0.1797,0.0001,-0.0000,0.2533,flat,18.0,0,5.249
4930,157.76,0.9353,-6.0847,0.1797,0.0001,-0.0000,0.2688,flat,18.0,0,4.679
4940,158.08,1.4861,-5.9307,0.1797,0.0001,-0.0000,0.2833,flat,18.0,0,4.108
4950,158.40,2.0348,-5.7687,0.1797,0.0000,-0.0000,0.2972,flat,18.0,0,3.538
4960,158.72,2.5812,-5.5992,0.1797,0.0000,-0.0000,0.3108,flat,18.0,0,2.967
4970,159.04,3.1251,-5.4222,0.1797,0.0000,0.0000,0.3247,flat,18.0,0,2.396
4980,159.36,3.6660,-5.2376,0.1797,0.0001,0.0000,0.3399,flat,18.0,0,1.825
4990,159.68,4.2030,-5.0448,0.1797,0.0001,0.0000,0.3583,flat,18.0,0,1.256
5000,160.00,4.7307,-4.8453,0.1797,0.0000,0.0002,0.4021,flat,18.0,1,12.901
5010,160.32,5.1294,-4.6423,0.1799,-0.0001,0.0000,0.6636,flat,18.0,1,12.828
5020,160.64,5.4592,-4.3189,0.1799,0.0000,-0.0000,0.9167,flat,18.0,1,12.635
5030,160.96,5.7357,-3.8933,0.1799,0.0000,-0.0000,1.1443,flat,18.0,1,12.340
5040,161.28,5.9313,-3.3963,0.1799,0.0001,0.0000,1.3453,flat,18.0,1,11.961
5050,161.60,6.0340,-2.8576,0.1799,0.0001,-0.0000,1.5148,flat,18.0,1,11.517
5060,161.92,6.0494,-2.3030,0.1799,0.0003,-0.0000,1.6460,flat,18.0,1,11.027
5070,162.24,5.9960,-1.7476,0.1798,0.0004,-0.0000,1.7403,flat,18.0,1,10.511
5080,162.56,5.8923,-1.1968,0.1798,0.0003,-0.0000,1.8121,flat,18.0,1,9.978
5090,162.88,5.7502,-0.6522,0.1797,0.0002,-0.0000,1.8688,flat,18.0,1,9.434
5100,163.20,5.5779,-0.1145,0.1797,0.0002,-0.0000,1.9147,flat,18.0,1,8.883
5110,163.52,5.3816,0.4156,0.1797,0.0001,-0.0000,1.9507,flat,18.0,1,8.328
5120,163.84,5.1664,0.9397,0.1797,0.0001,-0.0000,1.9819,flat,18.0,1,7.770
5130,164.16,4.9350,1.4579,0.1797,0.0001,-0.0000,2.0091,flat,18.0,1,7.208
5140,164.48,4.6896,1.9707,0.1797,0.0001,-0.0000,2.0332,flat,18.0,1,6.645
5150,164.80,4.4318,2.4781,0.1797,0.0001,-0.0000,2.0548,flat,18.0,1,6.080
5160,165.12,4.1632,2.9805,0.1797,0.0001,-0.0000,2.0746,flat,18.0,1,5.514
5170,165.44,3.8846,3.4780,0.1797,0.0001,-0.0000,2.0929,flat,18.0,1,4.947
5180,165.76,3.5969,3.9706,0.1797,0.0001,-0.0000,2.1100,flat,18.0,1,4.379
5190,166.08,3.3009,4.4584,0.1797,0.0001,-0.0000,2.1266,flat,18.0,1,3.810
5200,166.40,2.9967,4.9413,0.1797,0.0001,-0.0000,2.1428,flat,18.0,1,3.242
5210,166.72,2.6847,5.4191,0.1797,0.0001,0.0000,2.1593,flat,18.0,1,2.673
5220,167.04,2.3649,5.8912,0.1797,0.0001,0.0000,2.1770,flat,18.0,1,2.105
5230,167.36,2.0368,6.3564,0.1797,0.0001,0.0000,2.1974,flat,18.0,1,1.538
5240,167.68,1.6994,6.8121,0.1797,0.0001,0.0000,2.2245,flat,18.0,1,0.975
5250,168.00,1.3932,7.1880,0.1798,-0.0002,0.0002,2.4303,flat,18.0,2,15.255
5260,168.32,1.0536,7.4191,0.1799,-0.0000,-0.0001,2.7813,flat,18.0,2,15.237
5270,168.64,0.6081,7.5559,0.1799,0.0000,-0.0000,3.1037,flat,18.0,2,15.093
5280,168.96,0.1084,7.5491,0.1799,0.0001,-0.0000,-2.9207,flat,18.0,2,14.812
5290,169.28,-0.3967,7.4104,0.1799,0.0001,-0.0000,-2.7322,flat,18.0,2,14.426
5300,169.60,-0.8808,7.1750,0.1799,0.0002,-0.0000,-2.5974,flat,18.0,2,13.976
5310,169.92,-1.3385,6.8745,0.1798,0.0004,-0.0000,-2.5009,flat,18.0,2,13.489
5320,170.24,-1.7741,6.5303,0.1798,0.0003,-0.0000,-2.4321,flat,18.0,2,12.978
5330,170.56,-2.1864,6.1560,0.1797,0.0002,-0.0000,-2.3696,flat,18.0,2,12.455
5340,170.88,-2.5776,5.7557,0.1797,0.0002,-0.0000,-2.3162,flat,18.0,2,11.921
5350,171.20,-2.9491,5.3347,0.1797,0.0002,-0.0000,-2.2700,flat,18.0,2,11.380
5360,171.52,-3.3035,4.8972,0.1797,0.0001,-0.0000,-2.2300,flat,18.0,2,10.832
5370,171.84,-3.6426,4.4452,0.1797,0.0001,-0.0000,-2.1942,flat,18.0,2,10.280
5380,172.16,-3.9673,3.9808,0.1797,0.0001,-0.0000,-2.1622,flat,18.0,2,9.723
5390,172.48,-4.2784,3.5057,0.1797,0.0001,-0.0000,-2.1333,flat,18.0,2,9.164
5400,172.80,-4.5770,3.0214,0.1797,0.0001,-0.0000,-2.1073,flat,18.0,2,8.601
5410,173.12,-4.8639,2.5291,0.1797,0.0001,-0.0000,-2.0838,flat,18.0,2,8.037
5420,173.44,-5.1401,2.0299,0.1797,0.0001,-0.0000,-2.0624,flat,18.0,2,7.470
5430,173.76,-5.4062,1.5245,0.1797,0.0001,-0.0000,-2.0428,flat,18.0,2,6.903
5440,174.08,-5.6629,1.0139,0.1797,0.0001,-0.0000,-2.0249,flat,18.0,2,6.334
5450,174.40,-5.9109,0.4985,0.1797,0.0001,-0.0000,-2.0082,flat,18.0,2,5.765
5460,174.72,-6.1507,-0.0211,0.1797,0.0001,-0.0000,-1.9926,flat,18.0,2,5.195
5470,175.04,-6.3826,-0.5445,0.1797,0.0001,-0.0000,-1.9779,flat,18.0,2,4.624
5480,175.36,-6.6070,-1.0714,0.1797,0.0001,-0.0000,-1.9637,flat,18.0,2,4.053
5490,175.68,-6.8241,-1.6015,0.1797,0.0000,-0.0000,-1.9498,flat,18.0,2,3.481
5500,176.00,-7.0339,-2.1345,0.1797,0.0000,-0.0000,-1.9359,flat,18.0,2,2.910
5510,176.32,-7.2361,-2.6703,0.1797,0.0001,0.0000,-1.9212,flat,18.0,2,2.339
5520,176.64,-7.4302,-3.2087,0.1797,0.0001,0.0000,-1.9049,flat,18.0,2,1.768
5530,176.96,-7.6148,-3.7495,0.1797,0.0001,0.0000,-1.8845,flat,18.0,2,1.198
5540,177.28,-7.7815,-4.2855,0.1797,0.0001,0.0001,-1.8940,flat,18.0,3,0.878
5550,177.60,-7.9106,-4.7263,0.1798,-0.0004,0.0001,-1.6422,flat,18.0,0,13.257
5560,177.92,-7.9151,-5.1210,0.1799,0.0002,-0.0001,-1.2359,flat,18.0,0,13.273
5570,178.24,-7.7334,-5.5282,0.1799,0.0001,-0.0000,-0.9482,flat,18.0,0,13.117
5580,178.56,-7.4099,-5.8995,0.1799,0.0001,-0.0000,-0.7348,flat,18.0,0,12.829
5590,178.88,-6.9945,-6.2232,0.1799,0.0001,-0.0000,-0.5522,flat,18.0,0,12.456
5600,179.20,-6.5164,-6.4855,0.1799,0.0001,-0.0000,-0.3943,flat,18.0,0,12.023
5610,179.52,-5.9978,-6.6808,0.1799,0.0002,-0.0000,-0.2645,flat,18.0,0,11.546
5620,179.84,-5.4546,-6.8136,0.1798,0.0004,-0.0000,-0.1586,flat,18.0,0,11.040
5630,180.16,-4.8976,-6.8921,0.1798,0.0004,-0.0000,-0.0720,flat,18.0,0,10.513
5640,180.48,-4.3335,-6.9243,0.1798,0.0003,-0.0000,-0.0011,flat,18.0,0,9.972
5650,180.80,-3.7675,-6.9181,0.1797,0.0002,-0.0000,0.0540,flat,18.0,0,9.422
5660,181.12,-3.2017,-6.8822,0.1797,0.0002,-0.0000,0.0973,flat,18.0,0,8.867
5670,181.44,-2.6372,-6.8226,0.1797,0.0001,-0.0000,0.1323,flat,18.0,0,8.307
5680,181.76,-2.0740,-6.7437,0.1797,0.0001,-0.0000,0.1618,flat,18.0,0,7.745
5690,182.08,-1.5124,-6.6486,0.1797,0.0001,-0.0000,0.1873,flat,18.0,0,7.180
5700,182.40,-0.9528,-6.5394,0.1797,0.0001,-0.0000,0.2094,flat,18.0,0,6.613
5710,182.72,-0.3951,-6.4180,0.1797,0.0001,-0.0000,0.2291,flat,18.0,0,6.045
5720,183.04,0.1607,-6.2858,0.1797,0.0001,-0.0000,0.2467,flat,18.0,0,5.476
5730,183.36,0.7144,-6.1439,0.1797,0.0001,-0.0000,0.2627,flat,18.0,0,4.907
5740,183.68,1.2660,-5.9932,0.1797,0.0001,-0.0000,0.2776,flat,18.0,0,4.336
5750,184.00,1.8156,-5.8344,0.1797,0.0001,-0.0000,0.2917,flat,18.0,0,3.766
5760,184.32,2.3629,-5.6679,0.1797,0.0000,-0.0000,0.3053,flat,18.0,0,3.195
5770,184.64,2.9078,-5.4939,0.1797,0.0000,0.0000,0.3191,flat,18.0,0,2.624
5780,184.96,3.4500,-5.3124,0.1797,0.0001,0.0000,0.3336,flat,18.0,0,2.054
5790,185.28,3.9888,-5.1230,0.1797,0.0001,0.0000,0.3503,flat,18.0,0,1.484
5800,185.60,4.5224,-4.9245,0.1797,0.0001,0.0000,0.3729,flat,18.0,0,0.916
5810,185.92,4.9804,-4.7353,0.1799,-0.0003,0.0000,0.5520,flat,18.0,1,12.870
5820,186.24,5.3324,-4.4629,0.1799,0.0000,-0.0000,0.8203,flat,18.0,1,12.726
5830,186.56,5.6335,-4.0737,0.1799,0.0000,-0.0000,1.0560,flat,18.0,1,12.469
5840,186.88,5.8640,-3.6018,0.1799,0.0001,-0.0000,1.2685,flat,18.0,1,12.122
5850,187.20,6.0041,-3.0762,0.1799,0.0001,-0.0000,1.4513,flat,18.0,1,11.701
5860,187.52,6.0528,-2.5255,0.1799,0.0001,-0.0000,1.5989,flat,18.0,1,11.227
5870,187.84,6.0243,-1.9694,0.1798,0.0004,-0.0000,1.7059,flat,18.0,1,10.720
5880,188.16,5.9390,-1.4164,0.1798,0.0004,-0.0000,1.7855,flat,18.0,1,10.192
5890,188.48,5.8111,-0.8692,0.1797,0.0002,-0.0000,1.8476,flat,18.0,1,9.653
5900,188.80,5.6501,-0.3287,0.1797,0.0002,-0.0000,1.8975,flat,18.0,1,9.104
5910,189.12,5.4627,0.2043,0.1797,0.0001,-0.0000,1.9370,flat,18.0,1,8.551
5920,189.44,5.2546,0.7307,0.1797,0.0001,-0.0000,1.9699,flat,18.0,1,7.994
5930,189.76,5.0294,1.2513,0.1797,0.0001,-0.0000,1.9986,flat,18.0,1,7.433
5940,190.08,4.7893,1.7662,0.1797,0.0001,-0.0000,2.0239,flat,18.0,1,6.871
5950,190.40,4.5364,2.2758,0.1797,0.0001,-0.0000,2.0464,flat,18.0,1,6.306
5960,190.72,4.2719,2.7802,0.1797,0.0001,-0.0000,2.0669,flat,18.0,1,5.740
5970,191.04,3.9972,3.2796,0.1797,0.0001,-0.0000,2.0857,flat,18.0,1,5.174
5980,191.36,3.7131,3.7741,0.1797,0.0001,-0.0000,2.1033,flat,18.0,1,4.606
5990,191.68,3.4203,4.2639,0.1797,0.0001,-0.0000,2.1200,flat,18.0,1,4.038
6000,192.00,3.1194,4.7488,0.1797,0.0001,-0.0000,2.1363,flat,18.0,1,3.469
6010,192.32,2.8105,5.2286,0.1797,0.0001,0.0000,2.1526,flat,18.0,1,2.901
6020,192.64,2.4938,5.7031,0.1797,0.0001,0.0000,2.1697,flat,18.0,1,2.332
6030,192.96,2.1691,6.1712,0.1797,0.0001,0.0000,2.1888,flat,18.0,1,1.765
6040,193.28,1.8356,6.6312,0.1797,0.0001,0.0000,2.2124,flat,18.0,1,1.200
6050,193.60,1.5012,7.0693,0.1797,0.0001,0.0003,2.2855,flat,18.0,2,15.228
6060,193.92,1.2041,7.3338,0.1799,-0.0002,-0.0000,2.6432,flat,18.0,2,15.258
6070,194.24,0.7961,7.5168,0.1799,0.0000,-0.0000,2.9793,flat,18.0,2,15.168
6080,194.56,0.3111,7.5694,0.1799,0.0001,-0.0000,-3.0135,flat,18.0,2,14.939
6090,194.88,-0.1961,7.4794,0.1799,0.0001,-0.0000,-2.8013,flat,18.0,2,14.590
6100,195.20,-0.6904,7.2784,0.1799,0.0001,-0.0000,-2.6459,flat,18.0,2,14.162
6110,195.52,-1.1582,7.0011,0.1798,0.0004,-0.0000,-2.5351,flat,18.0,2,13.688
6120,195.84,-1.6026,6.6719,0.1798,0.0003,-0.0000,-2.4587,flat,18.0,2,13.184
6130,196.16,-2.0242,6.3091,0.1797,0.0002,-0.0000,-2.3936,flat,18.0,2,12.666
6140,196.48,-2.4235,5.9185,0.1797,0.0002,-0.0000,-2.3367,flat,18.0,2,12.136
6150,196.80,-2.8026,5.5052,0.1797,0.0002,-0.0000,-2.2875,flat,18.0,2,11.597
6160,197.12,-3.1636,5.0741,0.1797,0.0001,-0.0000,-2.2455,flat,18.0,2,11.052
6170,197.44,-3.5088,4.6276,0.1797,0.0001,-0.0000,-2.2081,flat,18.0,2,10.502
6180,197.76,-3.8391,4.1679,0.1797,0.0001,-0.0000,-2.1746,flat,18.0,2,9.946
6190,198.08,-4.1555,3.6969,0.1797,0.0001,-0.0000,-2.1445,flat,18.0,2,9.388
6200,198.40,-4.4590,3.2161,0.1797,0.0001,-0.0000,-2.1174,flat,18.0,2,8.826
6210,198.72,-4.7505,2.7269,0.1797,0.0001,-0.0000,-2.0929,flat,18.0,2,8.263
6220,199.04,-5.0309,2.2303,0.1797,0.0001,-0.0000,-2.0707,flat,18.0,2,7.697
6230,199.36,-5.3009,1.7273,0.1797,0.0001,-0.0000,-2.0505,flat,18.0,2,7.130
6240,199.68,-5.5613,1.2187,0.1797,0.0001,-0.0000,-2.0319,flat,18.0,2,6.562
6250,200.00,-5.8127,0.7052,0.1797,0.0001,-0.0000,-2.0147,flat,18.0,2,5.993
6260,200.32,-6.0557,0.1872,0.1797,0.0001,-0.0000,-1.9987,flat,18.0,2,5.423
6270,200.64,-6.2908,-0.3347,0.1797,0.0001,-0.0000,-1.9837,flat,18.0,2,4.852
6280,200.96,-6.5182,-0.8603,0.1797,0.0001,-0.0000,-1.9693,flat,18.0,2,4.281
6290,201.28,-6.7382,-1.3891,0.1797,0.0000,-0.0000,-1.9554,flat,18.0,2,3.710
6300,201.60,-6.9509,-1.9209,0.1797,0.0000,-0.0000,-1.9415,flat,18.0,2,3.139
6310,201.92,-7.1561,-2.4556,0.1797,0.0001,0.0000,-1.9272,flat,18.0,2,2.567
6320,202.24,-7.3536,-2.9930,0.1797,0.0001,0.0000,-1.9117,flat,18.0,2,1.996
6330,202.56,-7.5422,-3.5329,0.1797,0.0001,0.0000,-1.8934,flat,18.0,2,1.426
6340,202.88,-7.7199,-4.0749,0.1797,0.0001,0.0000,-1.8676,flat,18.0,2,0.857
6350,203.20,-7.8641,-4.5642,0.1798,-0.0003,0.0002,-1.8107,flat,18.0,0,13.209
6360,203.52,-7.9369,-4.9581,0.1799,-0.0000,-0.0000,-1.3799,flat,18.0,0,13.289
6370,203.84,-7.8259,-5.3681,0.1799,0.0001,-0.0000,-1.0528,flat,18.0,0,13.198
6380,204.16,-7.5531,-5.7567,0.1799,0.0001,-0.0000,-0.8132,flat,18.0,0,12.957
6390,204.48,-7.1695,-6.1002,0.1799,0.0001,-0.0000,-0.6230,flat,18.0,0,12.614
6400,204.80,-6.7136,-6.3887,0.1799,0.0001,-0.0000,-0.4540,flat,18.0,0,12.202
6410,205.12,-6.2090,-6.6106,0.1799,0.0002,-0.0000,-0.3133,flat,18.0,0,11.741
6420,205.44,-5.6741,-6.7675,0.1799,0.0004,-0.0000,-0.1984,flat,18.0,0,11.246
6430,205.76,-5.1216,-6.8668,0.1798,0.0004,-0.0000,-0.1046,flat,18.0,0,10.726
6440,206.08,-4.5597,-6.9165,0.1798,0.0004,-0.0000,-0.0278,flat,18.0,0,10.190
6450,206.40,-3.9938,-6.9247,0.1797,0.0002,-0.0000,0.0340,flat,18.0,0,9.643
6460,206.72,-3.4280,-6.8997,0.1797,0.0002,-0.0000,0.0811,flat,18.0,0,9.090
6470,207.04,-2.8629,-6.8490,0.1797,0.0001,-0.0000,0.1190,flat,18.0,0,8.531
6480,207.36,-2.2991,-6.7774,0.1797,0.0001,-0.0000,0.1506,flat,18.0,0,7.970
6490,207.68,-1.7369,-6.6885,0.1797,0.0001,-0.0000,0.1775,flat,18.0,0,7.406
6500,208.00,-1.1764,-6.5847,0.1797,0.0001,-0.0000,0.2009,flat,18.0,0,6.840
6510,208.32,-0.6179,-6.4680,0.1797,0.0001,-0.0000,0.2215,flat,18.0,0,6.273
6520,208.64,-0.0614,-6.3399,0.1797,0.0001,-0.0000,0.2399,flat,18.0,0,5.704
6530,208.96,0.4931,-6.2018,0.1797,0.0001,-0.0000,0.2565,flat,18.0,0,5.135
6540,209.28,1.0456,-6.0545,0.1797,0.0001,-0.0000,0.2718,flat,18.0,0,4.565
6550,209.60,1.5960,-5.8989,0.1797,0.0001,-0.0000,0.2861,flat,18.0,0,3.994
6560,209.92,2.1442,-5.7354,0.1797,0.0000,-0.0000,0.2999,flat,18.0,0,3.423
6570,210.24,2.6901,-5.5644,0.1797,0.0000,-0.0000,0.3135,flat,18.0,0,2.852
6580,210.56,3.2335,-5.3859,0.1797,0.0000,0.0000,0.3276,flat,18.0,0,2.282
6590,210.88,3.7738,-5.1998,0.1797,0.0001,0.0000,0.3432,flat,18.0,0,1.712
6600,211.20,4.3098,-5.0051,0.1797,0.0001,0.0000,0.3627,flat,18.0,0,1.143
6610,211.52,4.8182,-4.8128,0.1798,0.0001,0.0003,0.4510,flat,18.0,1,12.895
6620,211.84,5.1989,-4.5884,0.1799,-0.0000,-0.0000,0.7191,flat,18.0,1,12.800
6630,212.16,5.5197,-4.2409,0.1799,0.0000,-0.0000,0.9640,flat,18.0,1,12.583
6640,212.48,5.7820,-3.7987,0.1799,0.0001,-0.0000,1.1868,flat,18.0,1,12.271
6650,212.80,5.9593,-3.2909,0.1799,0.0001,0.0000,1.3818,flat,18.0,1,11.877
6660,213.12,6.0437,-2.7473,0.1799,0.0001,-0.0000,1.5444,flat,18.0,1,11.422
6670,213.44,6.0435,-2.1918,0.1799,0.0003,-0.0000,1.6672,flat,18.0,1,10.926
6680,213.76,5.9789,-1.6370,0.1798,0.0004,-0.0000,1.7562,flat,18.0,1,10.405
6690,214.08,5.8667,-1.0873,0.1798,0.0003,-0.0000,1.8244,flat,18.0,1,9.870
6700,214.40,5.7180,-0.5441,0.1797,0.0002,-0.0000,1.8787,flat,18.0,1,9.325
6710,214.72,5.5404,-0.0080,0.1797,0.0002,-0.0000,1.9223,flat,18.0,1,8.773
6720,215.04,5.3400,0.5209,0.1797,0.0001,-0.0000,1.9573,flat,18.0,1,8.217
6730,215.36,5.1214,1.0437,0.1797,0.0001,-0.0000,1.9876,flat,18.0,1,7.658
6740,215.68,4.8870,1.5609,0.1797,0.0001,-0.0000,2.0141,flat,18.0,1,7.096
6750,216.00,4.6390,2.0726,0.1797,0.0001,-0.0000,2.0377,flat,18.0,1,6.532
6760,216.32,4.3790,2.5790,0.1797,0.0001,-0.0000,2.0589,flat,18.0,1,5.967
6770,216.64,4.1083,3.0804,0.1797,0.0001,-0.0000,2.0783,flat,18.0,1,5.400
6780,216.96,3.8278,3.5769,0.1797,0.0001,-0.0000,2.0964,flat,18.0,1,4.833
6790,217.28,3.5385,4.0685,0.1797,0.0001,-0.0000,2.1134,flat,18.0,1,4.265
6800,217.60,3.2407,4.5554,0.1797,0.0001,-0.0000,2.1298,flat,18.0,1,3.697
6810,217.92,2.9350,5.0373,0.1797,0.0001,-0.0000,2.1461,flat,18.0,1,3.128
6820,218.24,2.6215,5.5140,0.1797,0.0001,0.0000,2.1627,flat,18.0,1,2.560
6830,218.56,2.3000,5.9848,0.1797,0.0001,0.0000,2.1808,flat,18.0,1,1.992
6840,218.88,1.9701,6.4484,0.1797,0.0001,0.0000,2.2021,flat,18.0,1,1.425
6850,219.20,1.6307,6.9016,0.1797,0.0001,0.0000,2.2316,flat,18.0,1,0.863
6860,219.52,1.3347,7.2386,0.1798,-0.0003,0.0000,2.5019,flat,18.0,2,15.260
6870,219.84,0.9716,7.4563,0.1799,-0.0000,-0.0000,2.8487,flat,18.0,2,15.220
6880,220.16,0.5107,7.5666,0.1799,0.0001,-0.0000,-3.1201,flat,18.0,2,15.047
6890,220.48,0.0068,7.5308,0.1799,0.0001,-0.0000,-2.8786,flat,18.0,2,14.741
6900,220.80,-0.4956,7.3698,0.1799,0.0001,-0.0000,-2.7013,flat,18.0,2,14.340
6910,221.12,-0.9744,7.1193,0.1799,0.0003,-0.0000,-2.5753,flat,18.0,2,13.881
6920,221.44,-1.4274,6.8083,0.1798,0.0004,-0.0000,-2.4866,flat,18.0,2,13.388
6930,221.76,-1.8585,6.4577,0.1797,0.0002,-0.0000,-2.4194,flat,18.0,2,12.875
6940,222.08,-2.2663,6.0778,0.1797,0.0002,-0.0000,-2.3582,flat,18.0,2,12.349
6950,222.40,-2.6533,5.6729,0.1797,0.0002,-0.0000,-2.3063,flat,18.0,2,11.813
6960,222.72,-3.0212,5.2485,0.1797,0.0002,-0.0000,-2.2616,flat,18.0,2,11.271
6970,223.04,-3.3725,4.8079,0.1797,0.0001,-0.0000,-2.2225,flat,18.0,2,10.722
6980,223.36,-3.7087,4.3532,0.1797,0.0001,-0.0000,-2.1875,flat,18.0,2,10.169
6990,223.68,-4.0305,3.8865,0.1797,0.0001,-0.0000,-2.1561,flat,18.0,2,9.612
7000,224.00,-4.3391,3.4095,0.1797,0.0001,-0.0000,-2.1279,flat,18.0,2,9.051
7010,224.32,-4.6353,2.9235,0.1797,0.0001,-0.0000,-2.1024,flat,18.0,2,8.488
7020,224.64,-4.9200,2.4297,0.1797,0.0001,-0.0000,-2.0793,flat,18.0,2,7.924
7030,224.96,-5.1940,1.9292,0.1797,0.0001,-0.0000,-2.0583,flat,18.0,2,7.357
7040,225.28,-5.4582,1.4228,0.1797,0.0001,-0.0000,-2.0391,flat,18.0,2,6.789
7050,225.60,-5.7132,0.9112,0.1797,0.0001,-0.0000,-2.0214,flat,18.0,2,6.220
7060,225.92,-5.9595,0.3949,0.1797,0.0001,-0.0000,-2.0050,flat,18.0,2,5.651
7070,226.24,-6.1977,-0.1255,0.1797,0.0001,-0.0000,-1.9896,flat,18.0,2,5.080
7080,226.56,-6.4281,-0.6497,0.1797,0.0001,-0.0000,-1.9750,flat,18.0,2,4.510
7090,226.88,-6.6510,-1.1772,0.1797,0.0000,-0.0000,-1.9609,flat,18.0,2,3.939
7100,227.20,-6.8666,-1.7079,0.1797,0.0000,-0.0000,-1.9471,flat,18.0,2,3.367
7110,227.52,-7.0749,-2.2414,0.1797,0.0000,-0.0000,-1.9330,flat,18.0,2,2.796
7120,227.84,-7.2756,-2.7778,0.1797,0.0001,0.0000,-1.9181,flat,18.0,2,2.224
7130,228.16,-7.4679,-3.3167,0.1797,0.0001,0.0000,-1.9013,flat,18.0,2,1.654
7140,228.48,-7.6504,-3.8580,0.1797,0.0001,0.0000,-1.8794,flat,18.0,2,1.084
7150,228.80,-7.8119,-4.3865,0.1798,0.0001,0.0001,-1.9327,flat,18.0,0,13.157
7160,229.12,-7.9274,-4.8022,0.1798,-0.0003,0.0000,-1.5475,flat,18.0,0,13.275
7170,229.44,-7.8925,-5.2038,0.1799,0.0002,-0.0000,-1.1711,flat,18.0,0,13.255
7180,229.76,-7.6785,-5.6062,0.1799,0.0001,-0.0000,-0.9005,flat,18.0,0,13.068
7190,230.08,-7.3329,-5.9683,0.1799,0.0001,-0.0000,-0.6969,flat,18.0,0,12.760
7200,230.40,-6.9031,-6.2811,0.1799,0.0001,-0.0000,-0.5183,flat,18.0,0,12.374
7210,230.72,-6.4153,-6.5299,0.1799,0.0001,-0.0000,-0.3662,flat,18.0,0,11.930
7220,231.04,-5.8907,-6.7121,0.1799,0.0003,-0.0000,-0.2415,flat,18.0,0,11.447
7230,231.36,-5.3441,-6.8335,0.1798,0.0004,-0.0000,-0.1399,flat,18.0,0,10.936
7240,231.68,-4.7852,-6.9020,0.1798,0.0004,-0.0000,-0.0567,flat,18.0,0,10.406
7250,232.00,-4.2203,-6.9260,0.1797,0.0003,-0.0000,0.0114,flat,18.0,0,9.863
7260,232.32,-3.6544,-6.9131,0.1797,0.0002,-0.0000,0.0633,flat,18.0,0,9.312
7270,232.64,-3.0887,-6.8720,0.1797,0.0002,-0.0000,0.1048,flat,18.0,0,8.755
7280,232.96,-2.5244,-6.8083,0.1797,0.0001,-0.0000,0.1385,flat,18.0,0,8.195
7290,233.28,-1.9615,-6.7260,0.1797,0.0001,-0.0000,0.1672,flat,18.0,0,7.632
7300,233.60,-1.4004,-6.6279,0.1797,0.0001,-0.0000,0.1919,flat,18.0,0,7.067
7310,233.92,-0.8411,-6.5161,0.1797,0.0001,-0.0000,0.2136,flat,18.0,0,6.500
7320,234.24,-0.2838,-6.3925,0.1797,0.0001,-0.0000,0.2327,flat,18.0,0,5.932
7330,234.56,0.2715,-6.2583,0.1797,0.0001,-0.0000,0.2500,flat,18.0,0,5.363
7340,234.88,0.8248,-6.1146,0.1797,0.0001,-0.0000,0.2658,flat,18.0,0,4.793
7350,235.20,1.3761,-5.9622,0.1797,0.0001,-0.0000,0.2805,flat,18.0,0,4.222
7360,235.52,1.9252,-5.8018,0.1797,0.0000,-0.0000,0.2944,flat,18.0,0,3.652
7370,235.84,2.4720,-5.6337,0.1797,0.0000,-0.0000,0.3081,flat,18.0,0,3.081
7380,236.16,3.0165,-5.4583,0.1797,0.0000,0.0000,0.3219,flat,18.0,0,2.510
7390,236.48,3.5581,-5.2752,0.1797,0.0001,0.0000,0.3367,flat,18.0,0,1.940
7400,236.80,4.0960,-5.0841,0.1797,0.0001,0.0000,0.3542,flat,18.0,0,1.370
7410,237.12,4.6281,-4.8836,0.1797,0.0001,0.0000,0.3789,flat,18.0,0,0.803
7420,237.44,5.0568,-4.6909,0.1799,-0.0002,0.0000,0.6064,flat,18.0,1,12.852
7430,237.76,5.3966,-4.3930,0.1799,0.0000,-0.0000,0.8688,flat,18.0,1,12.682
7440,238.08,5.6861,-3.9851,0.1799,0.0000,-0.0000,1.1007,flat,18.0,1,12.406
7450,238.40,5.8994,-3.5000,0.1799,0.0001,-0.0000,1.3075,flat,18.0,1,12.043
7460,238.72,6.0208,-2.9673,0.1799,0.0001,-0.0000,1.4838,flat,18.0,1,11.610
7470,239.04,6.0525,-2.4143,0.1799,0.0002,-0.0000,1.6233,flat,18.0,1,11.128
7480,239.36,6.0111,-1.8585,0.1798,0.0004,-0.0000,1.7236,flat,18.0,1,10.615
7490,239.68,5.9164,-1.3065,0.1798,0.0003,-0.0000,1.7991,flat,18.0,1,10.085
7500,240.00,5.7812,-0.7606,0.1797,0.0002,-0.0000,1.8584,flat,18.0,1,9.544
7510,240.32,5.6145,-0.2214,0.1797,0.0002,-0.0000,1.9063,flat,18.0,1,8.994
7520,240.64,5.4225,0.3100,0.1797,0.0001,-0.0000,1.9439,flat,18.0,1,8.440
7530,240.96,5.2108,0.8353,0.1797,0.0001,-0.0000,1.9759,flat,18.0,1,7.882
7540,241.28,4.9824,1.3547,0.1797,0.0001,-0.0000,2.0039,flat,18.0,1,7.321
7550,241.60,4.7397,1.8686,0.1797,0.0001,-0.0000,2.0285,flat,18.0,1,6.758
7560,241.92,4.4843,2.3771,0.1797,0.0001,-0.0000,2.0507,flat,18.0,1,6.193
7570,242.24,4.2177,2.8804,0.1797,0.0001,-0.0000,2.0708,flat,18.0,1,5.627
7580,242.56,3.9411,3.3789,0.1797,0.0001,-0.0000,2.0893,flat,18.0,1,5.060
7590,242.88,3.6552,3.8725,0.1797,0.0001,-0.0000,2.1067,flat,18.0,1,4.492
7600,243.20,3.3608,4.3613,0.1797,0.0001,-0.0000,2.1233,flat,18.0,1,3.924
7610,243.52,3.0582,4.8452,0.1797,0.0001,-0.0000,2.1395,flat,18.0,1,3.355
7620,243.84,2.7478,5.3240,0.1797,0.0001,0.0000,2.1560,flat,18.0,1,2.787
7630,244.16,2.4295,5.7972,0.1797,0.0001,0.0000,2.1733,flat,18.0,1,2.219
7640,244.48,2.1031,6.2640,0.1797,0.0001,0.0000,2.1930,flat,18.0,1,1.652
7650,244.80,1.7677,6.7220,0.1797,0.0001,0.0000,2.2182,flat,18.0,1,1.087
7660,245.12,1.4484,7.1339,0.1798,-0.0000,0.0004,2.3579,flat,18.0,2,15.246
7670,245.44,1.1312,7.3781,0.1799,-0.0001,-0.0001,2.7128,flat,18.0,2,15.250
7680,245.76,0.7034,7.5392,0.1799,0.0000,-0.0000,3.0423,flat,18.0,2,15.133
7690,246.08,0.2100,7.5621,0.1799,0.0001,-0.0000,-2.9656,flat,18.0,2,14.878
7700,246.40,-0.2968,7.4470,0.1799,0.0001,-0.0000,-2.7658,flat,18.0,2,14.509
7710,246.72,-0.7862,7.2281,0.1799,0.0002,-0.0000,-2.6209,flat,18.0,2,14.070
7720,247.04,-1.2488,6.9388,0.1798,0.0004,-0.0000,-2.5171,flat,18.0,2,13.589
7730,247.36,-1.6888,6.6018,0.1798,0.0003,-0.0000,-2.4450,flat,18.0,2,13.082
7740,247.68,-2.1058,6.2331,0.1797,0.0002,-0.0000,-2.3813,flat,18.0,2,12.561
7750,248.00,-2.5010,5.8375,0.1797,0.0002,-0.0000,-2.3264,flat,18.0,2,12.029
7760,248.32,-2.8762,5.4203,0.1797,0.0002,-0.0000,-2.2786,flat,18.0,2,11.489
7770,248.64,-3.2339,4.9860,0.1797,0.0001,-0.0000,-2.2377,flat,18.0,2,10.942
7780,248.96,-3.5760,4.5367,0.1797,0.0001,-0.0000,-2.2011,flat,18.0,2,10.391
7790,249.28,-3.9035,4.0746,0.1797,0.0001,-0.0000,-2.1683,flat,18.0,2,9.835
7800,249.60,-4.2173,3.6015,0.1797,0.0001,-0.0000,-2.1388,flat,18.0,2,9.276
7810,249.92,-4.5183,3.1189,0.1797,0.0001,-0.0000,-2.1123,flat,18.0,2,8.714
7820,250.24,-4.8075,2.6281,0.1797,0.0001,-0.0000,-2.0883,flat,18.0,2,8.150
7830,250.56,-5.0857,2.1302,0.1797,0.0001,-0.0000,-2.0665,flat,18.0,2,7.584
7840,250.88,-5.3537,1.6261,0.1797,0.0001,-0.0000,-2.0466,flat,18.0,2,7.017
7850,251.20,-5.6123,1.1164,0.1797,0.0001,-0.0000,-2.0284,flat,18.0,2,6.448
7860,251.52,-5.8620,0.6020,0.1797,0.0001,-0.0000,-2.0114,flat,18.0,2,5.879
7870,251.84,-6.1034,0.0831,0.1797,0.0001,-0.0000,-1.9957,flat,18.0,2,5.309
7880,252.16,-6.3369,-0.4395,0.1797,0.0001,-0.0000,-1.9808,flat,18.0,2,4.738
7890,252.48,-6.5628,-0.9658,0.1797,0.0001,-0.0000,-1.9665,flat,18.0,2,4.167
7900,252.80,-6.7813,-1.4952,0.1797,0.0000,-0.0000,-1.9526,flat,18.0,2,3.596
7910,253.12,-6.9925,-2.0276,0.1797,0.0000,-0.0000,-1.9387,flat,18.0,2,3.024
7920,253.44,-7.1963,-2.5629,0.1797,0.0001,0.0000,-1.9242,flat,18.0,2,2.453
7930,253.76,-7.3921,-3.1008,0.1797,0.0001,0.0000,-1.9084,flat,18.0,2,1.882
7940,254.08,-7.5788,-3.6412,0.1797,0.0001,0.0000,-1.8891,flat,18.0,2,1.312
7950,254.40,-7.7537,-4.1834,0.1797,0.0001,0.0000,-1.8603,flat,18.0,3,0.970
7960,254.72,-7.8885,-4.6472,0.1798,-0.0003,0.0001,-1.7322,flat,18.0,0,13.234
7970,255.04,-7.9300,-5.0390,0.1799,0.0001,-0.0001,-1.3053,flat,18.0,0,13.285
7980,255.36,-7.7827,-5.4488,0.1799,0.0001,-0.0000,-0.9989,flat,18.0,0,13.160
7990,255.68,-7.4834,-5.8290,0.1799,0.0001,-0.0000,-0.7733,flat,18.0,0,12.895
8000,256.00,-7.0834,-6.1628,0.1799,0.0001,-0.0000,-0.5872,flat,18.0,0,12.536
8010,256.32,-6.6159,-6.4384,0.1799,0.0001,-0.0000,-0.4236,flat,18.0,0,12.113
8020,256.64,-6.1039,-6.6469,0.1799,0.0002,-0.0000,-0.2883,flat,18.0,0,11.644
8030,256.96,-5.5646,-6.7917,0.1798,0.0004,-0.0000,-0.1781,flat,18.0,0,11.143
8040,257.28,-5.0097,-6.8804,0.1798,0.0004,-0.0000,-0.0880,flat,18.0,0,10.620
8050,257.60,-4.4467,-6.9212,0.1798,0.0003,-0.0000,-0.0142,flat,18.0,0,10.081
8060,257.92,-3.8807,-6.9220,0.1797,0.0002,-0.0000,0.0441,flat,18.0,0,9.533
