step,time_s,x,y,z,roll,pitch,yaw,terrain,speed,target_idx,dist_to_target
10,0.32,2.0693,0.5010,0.1723,0.0000,-0.0145,0.0000,flat,18.0,0,6.352
20,0.64,2.3454,0.5010,0.1792,0.0000,0.0015,-0.0000,flat,18.0,0,6.084
30,0.96,2.7822,0.5042,0.1798,-0.0001,-0.0001,0.1266,flat,18.0,0,5.662
40,1.28,3.2843,0.5954,0.1799,0.0002,-0.0001,0.3361,flat,18.0,0,5.154
50,1.60,3.7922,0.7907,0.1798,0.0003,-0.0001,0.4262,flat,18.0,0,4.612
60,1.92,4.3086,1.0307,0.1797,0.0001,-0.0000,0.4399,flat,18.0,0,4.051
70,2.24,4.8226,1.2686,0.1797,-0.0001,0.0000,0.4119,flat,18.0,0,3.496
80,2.56,5.3390,1.4860,0.1797,-0.0002,0.0000,0.3614,flat,18.0,0,2.946
90,2.88,5.8670,1.6765,0.1797,-0.0002,-0.0000,0.3051,flat,18.0,0,2.393
100,3.20,6.4051,1.8384,0.1797,-0.0002,0.0000,0.2604,flat,18.0,0,1.839
110,3.52,6.9019,1.9673,0.1797,-0.0001,0.0001,0.2391,flat,18.0,0,1.333
120,3.84,7.3364,2.0722,0.1797,-0.0000,0.0001,0.2444,flat,18.0,1,4.630
130,4.16,7.7670,2.2191,0.1800,-0.0004,0.0000,0.5393,flat,18.0,1,4.795
140,4.48,8.1650,2.4716,0.1793,0.0027,0.0002,0.6020,flat,18.0,1,4.901
150,4.80,8.4839,2.7044,0.1797,0.0005,0.0001,0.6968,flat,18.0,1,4.997
160,5.12,8.7230,2.9277,0.1797,0.0002,0.0001,0.8333,flat,18.0,1,5.061
170,5.44,8.8984,3.1477,0.1797,0.0002,0.0001,1.0061,flat,18.0,1,5.092
180,5.76,9.0251,3.3657,0.1797,0.0002,0.0000,1.2149,flat,18.0,1,5.096
190,6.08,9.1084,3.5799,0.1797,0.0002,0.0000,1.4566,flat,18.0,1,5.074
200,6.40,9.1440,3.7865,0.1797,0.0002,0.0000,1.7130,flat,18.0,1,5.022
210,6.72,9.1231,3.9838,0.1797,0.0002,-0.0000,1.9139,flat,18.0,1,4.929
220,7.04,9.0537,4.1774,0.1797,0.0002,-0.0000,2.0699,flat,18.0,1,4.798
230,7.36,8.9390,4.3721,0.1797,0.0001,-0.0000,2.1845,flat,18.0,1,4.628
240,7.68,8.7815,4.5776,0.1797,0.0001,-0.0001,2.2753,flat,18.0,1,4.419
250,8.00,8.5782,4.8004,0.1797,0.0001,-0.0001,2.3502,flat,18.0,1,4.167
260,8.32,8.3218,5.0448,0.1797,0.0001,-0.0001,2.4092,flat,18.0,1,3.866
270,8.64,8.0046,5.3179,0.1797,0.0001,-0.0001,2.4502,flat,18.0,1,3.510
280,8.96,7.6171,5.6313,0.1797,0.0001,-0.0001,2.4703,flat,18.0,1,3.099
290,9.28,7.1966,5.9585,0.1798,0.0001,0.0001,2.5411,flat,18.0,1,2.684
300,9.60,6.7647,6.2089,0.1799,0.0000,-0.0000,2.7920,flat,18.0,1,2.291
310,9.92,6.2753,6.3613,0.1799,0.0001,0.0000,3.0332,flat,18.0,1,1.859
320,10.24,5.8123,6.3950,0.1799,0.0000,0.0000,-2.9916,flat,18.0,1,1.445
330,10.56,5.4085,6.3225,0.1799,0.0001,-0.0001,-2.7481,flat,18.0,1,1.058
340,10.88,4.9638,6.1106,0.1798,-0.0001,-0.0004,-2.6677,flat,18.0,2,12.757
350,11.20,4.4705,5.8769,0.1798,-0.0004,-0.0001,-2.7708,flat,18.0,2,12.216
360,11.52,3.9485,5.6876,0.1798,-0.0003,-0.0000,-2.8512,flat,18.0,2,11.661
370,11.84,3.4050,5.5331,0.1797,-0.0002,-0.0000,-2.8916,flat,18.0,2,11.096
380,12.16,2.8490,5.3936,0.1797,-0.0000,-0.0000,-2.9004,flat,18.0,2,10.524
390,12.48,2.2933,5.2559,0.1797,0.0000,0.0000,-2.8909,flat,18.0,2,9.953
400,12.80,1.7423,5.1124,0.1797,0.0001,0.0000,-2.8732,flat,18.0,2,9.385
410,13.12,1.1944,4.9588,0.1797,0.0001,-0.0000,-2.8546,flat,18.0,2,8.816
420,13.44,0.6483,4.7950,0.1797,0.0001,-0.0000,-2.8394,flat,18.0,2,8.246
430,13.76,0.1026,4.6230,0.1797,0.0000,-0.0000,-2.8293,flat,18.0,2,7.674
440,14.08,-0.4432,4.4456,0.1797,0.0000,-0.0000,-2.8241,flat,18.0,2,7.100
450,14.40,-0.9898,4.2656,0.1797,0.0000,-0.0000,-2.8227,flat,18.0,2,6.525
460,14.72,-1.5365,4.0853,0.1797,-0.0000,0.0000,-2.8236,flat,18.0,2,5.949
470,15.04,-2.0830,3.9058,0.1797,-0.0000,0.0000,-2.8259,flat,18.0,2,5.374
480,15.36,-2.6298,3.7276,0.1797,-0.0000,-0.0000,-2.8285,flat,18.0,2,4.799
490,15.68,-3.1773,3.5508,0.1797,-0.0000,-0.0000,-2.8306,flat,18.0,2,4.224
500,16.00,-3.7252,3.3750,0.1797,-0.0000,-0.0000,-2.8321,flat,18.0,2,3.649
510,16.32,-4.2736,3.1999,0.1797,-0.0000,-0.0000,-2.8329,flat,18.0,2,3.073
520,16.64,-4.8223,3.0250,0.1797,-0.0000,-0.0000,-2.8331,flat,18.0,2,2.498
530,16.96,-5.3708,2.8502,0.1797,0.0000,0.0000,-2.8331,flat,18.0,2,1.923
540,17.28,-5.8754,2.6893,0.1797,0.0000,0.0001,-2.8329,flat,18.0,2,1.394
550,17.60,-6.3126,2.5499,0.1797,0.0000,0.0001,-2.8251,flat,18.0,3,10.654
560,17.92,-6.7176,2.3895,0.1799,-0.0002,0.0000,-2.5328,flat,18.0,3,10.584
570,18.24,-7.0230,2.1005,0.1799,-0.0001,-0.0000,-2.1691,flat,18.0,3,10.381
580,18.56,-7.2425,1.7046,0.1799,-0.0000,0.0001,-1.7712,flat,18.0,3,10.064
590,18.88,-7.2978,1.2240,0.1799,-0.0003,0.0000,-1.4154,flat,18.0,3,9.624
600,19.20,-7.1955,0.7121,0.1799,0.0001,-0.0000,-1.2444,flat,18.0,3,9.106
610,19.52,-7.0063,0.1990,0.1798,0.0003,-0.0000,-1.1614,flat,18.0,3,8.559
620,19.84,-6.7750,-0.3186,0.1797,0.0001,-0.0000,-1.1384,flat,18.0,3,7.995
630,20.16,-6.5361,-0.8384,0.1797,-0.0000,0.0000,-1.1494,flat,18.0,3,7.427
640,20.48,-6.3086,-1.3569,0.1797,-0.0001,0.0000,-1.1781,flat,18.0,3,6.863
650,20.80,-6.0978,-1.8807,0.1797,-0.0001,-0.0000,-1.2124,flat,18.0,3,6.300
660,21.12,-5.9042,-2.4125,0.1797,-0.0001,-0.0000,-1.2434,flat,18.0,3,5.735
670,21.44,-5.7250,-2.9523,0.1797,-0.0001,-0.0000,-1.2660,flat,18.0,3,5.167
680,21.76,-5.5557,-3.4986,0.1797,-0.0000,-0.0000,-1.2789,flat,18.0,3,4.595
690,22.08,-5.3914,-4.0491,0.1797,-0.0000,-0.0000,-1.2833,flat,18.0,3,4.020
700,22.40,-5.2282,-4.6010,0.1797,0.0000,0.0000,-1.2822,flat,18.0,3,3.445
710,22.72,-5.0641,-5.1514,0.1797,0.0000,0.0000,-1.2779,flat,18.0,3,2.870
720,23.04,-4.8976,-5.7007,0.1797,0.0000,-0.0000,-1.2727,flat,18.0,3,2.296
730,23.36,-4.7301,-6.2423,0.1797,0.0000,0.0001,-1.2687,flat,18.0,3,1.730
740,23.68,-4.5797,-6.7219,0.1797,0.0000,0.0001,-1.2657,flat,18.0,3,1.227
750,24.00,-4.4486,-7.1607,0.1797,-0.0001,0.0002,-1.2975,flat,18.0,0,15.665
760,24.32,-4.3425,-7.5246,0.1797,0.0001,0.0001,-1.2015,flat,18.0,0,15.796
770,24.64,-4.1621,-7.8905,0.1800,-0.0004,-0.0001,-0.9155,flat,18.0,0,15.879
780,24.96,-3.8968,-8.2186,0.1793,0.0027,0.0001,-0.8668,flat,18.0,0,15.883
790,25.28,-3.6408,-8.5014,0.1797,0.0004,0.0001,-0.7881,flat,18.0,0,15.875
800,25.60,-3.4025,-8.7202,0.1797,0.0002,0.0001,-0.6858,flat,18.0,0,15.845
810,25.92,-3.1766,-8.8882,0.1797,0.0002,0.0001,-0.5590,flat,18.0,0,15.795
820,26.24,-2.9600,-9.0147,0.1797,0.0002,0.0000,-0.4113,flat,18.0,0,15.728
830,26.56,-2.7514,-9.1051,0.1797,0.0001,0.0000,-0.2464,flat,18.0,0,15.645
840,26.88,-2.5510,-9.1617,0.1797,0.0001,0.0000,-0.0715,flat,18.0,0,15.545
850,27.20,-2.3606,-9.1841,0.1797,0.0001,0.0000,0.0892,flat,18.0,0,15.430
860,27.52,-2.1744,-9.1734,0.1797,0.0001,-0.0000,0.2220,flat,18.0,0,15.295
870,27.84,-1.9878,-9.1337,0.1797,0.0001,-0.0000,0.3323,flat,18.0,0,15.139
880,28.16,-1.7963,-9.0669,0.1797,0.0001,-0.0000,0.4246,flat,18.0,0,14.961
890,28.48,-1.5958,-8.9729,0.1797,0.0001,-0.0000,0.5020,flat,18.0,0,14.757
900,28.80,-1.3816,-8.8501,0.1797,0.0001,-0.0000,0.5668,flat,18.0,0,14.523
910,29.12,-1.1492,-8.6956,0.1797,0.0001,-0.0001,0.6205,flat,18.0,0,14.254
920,29.44,-0.8933,-8.5052,0.1797,0.0001,-0.0001,0.6642,flat,18.0,0,13.942
930,29.76,-0.6078,-8.2741,0.1797,0.0001,-0.0001,0.6981,flat,18.0,0,13.581
940,30.08,-0.2852,-7.9966,0.1797,0.0001,-0.0001,0.7225,flat,18.0,0,13.160
950,30.40,0.0836,-7.6667,0.1797,0.0000,-0.0001,0.7362,flat,18.0,0,12.670
960,30.72,0.4852,-7.2991,0.1797,0.0001,0.0001,0.7735,flat,18.0,0,12.130
970,31.04,0.8337,-6.9131,0.1799,0.0003,-0.0000,0.9112,flat,18.0,0,11.611
980,31.36,1.1516,-6.4697,0.1798,0.0003,-0.0001,0.9999,flat,18.0,0,11.067
990,31.68,1.4492,-5.9894,0.1797,0.0001,-0.0000,1.0305,flat,18.0,0,10.507
1000,32.00,1.7442,-5.5007,0.1797,-0.0000,0.0000,1.0189,flat,18.0,0,9.944
1010,32.32,2.0439,-5.0267,0.1797,-0.0001,0.0000,0.9845,flat,18.0,0,9.390
1020,32.64,2.3600,-4.5680,0.1797,-0.0001,0.0000,0.9424,flat,18.0,0,8.837
1030,32.96,2.6958,-4.1222,0.1797,-0.0001,-0.0000,0.9030,flat,18.0,0,8.281
1040,33.28,3.0500,-3.6864,0.1797,-0.0001,-0.0000,0.8717,flat,18.0,0,7.720
1050,33.60,3.4189,-3.2571,0.1797,-0.0001,-0.0000,0.8499,flat,18.0,0,7.154
1060,33.92,3.7981,-2.8309,0.1797,-0.0000,-0.0000,0.8375,flat,18.0,0,6.584
1070,34.24,4.1834,-2.4054,0.1797,-0.0000,-0.0000,0.8333,flat,18.0,0,6.010
1080,34.56,4.5701,-1.9795,0.1797,0.0000,0.0000,0.8349,flat,18.0,0,5.434
1090,34.88,4.9544,-1.5534,0.1797,0.0000,0.0000,0.8398,flat,18.0,0,4.861
1100,35.20,5.3358,-1.1256,0.1797,0.0000,0.0000,0.8460,flat,18.0,0,4.287
1110,35.52,5.7147,-0.6954,0.1797,0.0000,-0.0000,0.8519,flat,18.0,0,3.714
1120,35.84,6.0916,-0.2627,0.1797,0.0000,-0.0000,0.8567,flat,18.0,0,3.141
1130,36.16,6.4672,0.1720,0.1797,0.0000,-0.0000,0.8600,flat,18.0,0,2.567
1140,36.48,6.8420,0.6083,0.1797,0.0000,-0.0000,0.8618,flat,18.0,0,1.992
1150,36.80,7.1927,1.0174,0.1797,0.0000,0.0001,0.8624,flat,18.0,0,1.455
1160,37.12,7.4963,1.3717,0.1797,-0.0000,0.0001,0.8622,flat,18.0,1,0.991
1170,37.44,7.8123,1.7610,0.1797,0.0001,-0.0000,0.9086,flat,18.0,1,5.170
1180,37.76,8.0967,2.1400,0.1797,0.0001,0.0001,0.9638,rough,14.0,1,5.080
1190,38.08,8.2879,2.4285,0.1797,0.0001,0.0001,1.0470,rough,14.0,1,5.021
1200,38.40,8.4534,2.7475,0.1797,0.0002,-0.0000,1.1528,flat,18.0,1,4.947
1210,38.72,8.5904,3.0711,0.1797,0.0002,0.0000,1.3009,flat,18.0,1,4.871
1220,39.04,8.6756,3.3844,0.1798,0.0002,0.0000,1.4778,flat,18.0,1,4.780
1230,39.36,8.7050,3.6897,0.1798,0.0002,0.0000,1.6695,flat,18.0,1,4.663
1240,39.68,8.6748,3.9892,0.1797,0.0003,-0.0000,1.8299,flat,18.0,1,4.511
1250,40.00,8.5912,4.2891,0.1797,0.0002,-0.0000,1.9590,flat,18.0,1,4.324
1260,40.32,8.4579,4.5969,0.1797,0.0002,-0.0001,2.0614,flat,18.0,1,4.102
1270,40.64,8.2751,4.9206,0.1797,0.0002,-0.0001,2.1397,flat,18.0,1,3.845
1280,40.96,8.0413,5.2691,0.1797,0.0001,-0.0001,2.1915,flat,18.0,1,3.553
1290,41.28,7.7567,5.6548,0.1797,0.0001,-0.0001,2.2226,flat,18.0,1,3.237
1300,41.60,7.4252,6.0842,0.1797,0.0000,0.0000,2.2326,flat,18.0,1,2.924
1310,41.92,7.1106,6.4500,0.1799,-0.0000,0.0000,2.4082,flat,18.0,1,2.683
1320,42.24,6.7344,6.7213,0.1799,-0.0000,-0.0000,2.7291,flat,18.0,1,2.418
1330,42.56,6.2766,6.8854,0.1799,0.0000,-0.0000,3.0718,flat,18.0,1,2.092
1340,42.88,5.7975,6.8939,0.1799,0.0000,0.0000,-2.9019,flat,18.0,1,1.716
1350,43.20,5.3918,6.7742,0.1799,0.0000,0.0000,-2.6545,flat,18.0,1,1.346
1360,43.52,5.0612,6.5726,0.1798,0.0001,-0.0001,-2.4439,flat,18.0,2,0.986
1370,43.84,4.7436,6.2971,0.1798,-0.0000,-0.0001,-2.4758,flat,18.0,2,12.607
1380,44.16,4.3277,6.0242,0.1799,-0.0001,-0.0000,-2.7024,flat,18.0,2,12.126
1390,44.48,3.8397,5.8245,0.1799,-0.0001,-0.0000,-2.8838,flat,18.0,2,11.599
1400,44.80,3.3015,5.6989,0.1798,-0.0003,-0.0001,-2.9807,flat,18.0,2,11.049
1410,45.12,2.7372,5.6115,0.1797,-0.0001,-0.0000,-2.9918,flat,18.0,2,10.487
1420,45.44,2.1799,5.5243,0.1797,0.0001,0.0000,-2.9565,flat,18.0,2,9.932
1430,45.76,1.6318,5.4149,0.1797,0.0002,0.0000,-2.8995,flat,18.0,2,9.380
1440,46.08,1.0906,5.2739,0.1797,0.0002,-0.0000,-2.8472,flat,18.0,2,8.824
1450,46.40,0.5540,5.1048,0.1797,0.0001,-0.0000,-2.8104,flat,18.0,2,8.262
1460,46.72,0.0192,4.9164,0.1797,0.0001,-0.0000,-2.7876,flat,18.0,2,7.695
1470,47.04,-0.5160,4.7161,0.1797,0.0000,-0.0000,-2.7763,flat,18.0,2,7.124
1480,47.36,-1.0527,4.5100,0.1797,0.0000,-0.0000,-2.7738,flat,18.0,2,6.549
1490,47.68,-1.5893,4.3036,0.1797,-0.0000,0.0000,-2.7765,flat,18.0,2,5.974
1500,48.00,-2.1259,4.0995,0.1797,-0.0000,0.0000,-2.7822,flat,18.0,2,5.400
1510,48.32,-2.6636,3.8986,0.1797,-0.0000,-0.0000,-2.7883,flat,18.0,2,4.826
1520,48.64,-3.2027,3.7007,0.1797,-0.0000,-0.0000,-2.7934,flat,18.0,2,4.251
1530,48.96,-3.7433,3.5052,0.1797,-0.0000,-0.0000,-2.7968,flat,18.0,2,3.677
1540,49.28,-4.2849,3.3111,0.1797,-0.0000,-0.0000,-2.7987,flat,18.0,2,3.102
1550,49.60,-4.8273,3.1177,0.1797,-0.0000,-0.0000,-2.7992,flat,18.0,2,2.526
1560,49.92,-5.3697,2.9243,0.1797,0.0000,0.0000,-2.7989,flat,18.0,2,1.951
1570,50.24,-5.8720,2.7450,0.1797,0.0000,0.0001,-2.7984,flat,18.0,2,1.419
1580,50.56,-6.3064,2.5896,0.1797,0.0000,0.0001,-2.7976,flat,18.0,3,0.959
1590,50.88,-6.7083,2.4222,0.1799,-0.0002,0.0000,-2.5359,flat,18.0,3,10.614
1600,51.20,-7.0161,2.1347,0.1799,-0.0001,-0.0000,-2.1762,flat,18.0,3,10.413
1610,51.52,-7.2391,1.7343,0.1799,-0.0000,-0.0000,-1.7812,flat,18.0,3,10.091
1620,51.84,-7.3043,1.2713,0.1799,0.0000,-0.0000,-1.3664,flat,18.0,3,9.671
1630,52.16,-7.1752,0.8073,0.1799,0.0000,-0.0000,-1.0989,flat,18.0,3,9.190
1640,52.48,-6.9157,0.3648,0.1799,0.0002,-0.0000,-0.9413,flat,18.0,3,8.688
1650,52.80,-6.5791,-0.0652,0.1798,0.0003,-0.0001,-0.8698,flat,18.0,3,8.177
1660,53.12,-6.2114,-0.4982,0.1797,0.0000,0.0000,-0.8753,flat,18.0,3,7.661
1670,53.44,-5.8692,-0.9279,0.1798,-0.0002,0.0000,-0.9438,flat,18.0,3,7.161
1680,53.76,-5.5699,-1.3750,0.1798,-0.0003,0.0000,-1.0611,flat,18.0,3,6.660
1690,54.08,-5.3265,-1.8535,0.1799,-0.0002,-0.0000,-1.1998,flat,18.0,3,6.144
1700,54.40,-5.1458,-2.3665,0.1799,-0.0003,-0.0000,-1.3261,flat,18.0,3,5.608
1710,54.72,-5.0234,-2.9078,0.1798,-0.0004,-0.0000,-1.4135,flat,18.0,3,5.054
1720,55.04,-4.9415,-3.4678,0.1797,-0.0002,-0.0000,-1.4520,flat,18.0,3,4.488
1730,55.36,-4.8750,-4.0379,0.1797,-0.0000,-0.0000,-1.4558,flat,18.0,3,3.914
1740,55.68,-4.8082,-4.6053,0.1797,0.0000,0.0000,-1.4414,flat,18.0,3,3.344
1750,56.00,-4.7323,-5.1692,0.1797,0.0001,0.0000,-1.4205,flat,18.0,3,2.775
1760,56.32,-4.6444,-5.7317,0.1797,0.0001,-0.0000,-1.4008,flat,18.0,3,2.206
1770,56.64,-4.5477,-6.2810,0.1797,0.0000,0.0001,-1.3882,flat,18.0,3,1.649
1780,56.96,-4.4557,-6.7623,0.1797,0.0000,0.0001,-1.3789,flat,18.0,3,1.159
1790,57.28,-4.3695,-7.2184,0.1797,0.0000,0.0001,-1.3666,flat,18.0,0,15.635
1800,57.60,-4.2926,-7.5955,0.1797,0.0001,0.0000,-1.2700,flat,18.0,0,15.800
1810,57.92,-4.1301,-7.9975,0.1772,0.0159,-0.0001,-1.0329,flat,18.0,0,15.922
1820,58.24,-3.9005,-8.3519,0.1795,0.0018,0.0001,-0.9674,flat,18.0,0,15.972
1830,58.56,-3.6921,-8.6381,0.1797,0.0003,0.0001,-0.8801,flat,18.0,0,16.004
1840,58.88,-3.4954,-8.8547,0.1797,0.0002,0.0001,-0.7631,flat,18.0,0,16.004
1850,59.20,-3.3051,-9.0162,0.1797,0.0001,0.0001,-0.6269,flat,18.0,0,15.977
1860,59.52,-3.1223,-9.1377,0.1797,0.0001,0.0000,-0.4753,flat,18.0,0,15.930
1870,59.84,-2.9485,-9.2262,0.1797,0.0001,0.0000,-0.3165,flat,18.0,0,15.869
1880,60.16,-2.7820,-9.2874,0.1797,0.0001,0.0000,-0.1476,flat,18.0,0,15.796
1890,60.48,-2.6225,-9.3229,0.1797,0.0001,0.0000,0.0274,flat,18.0,0,15.711
1900,60.80,-2.4686,-9.3289,0.1797,0.0001,0.0000,0.1805,flat,18.0,0,15.610
1910,61.12,-2.3168,-9.3070,0.1797,0.0001,-0.0000,0.3052,flat,18.0,0,15.490
1920,61.44,-2.1631,-9.2605,0.1797,0.0001,-0.0000,0.4083,flat,18.0,0,15.351
1930,61.76,-2.0037,-9.1902,0.1797,0.0001,-0.0000,0.4945,flat,18.0,0,15.192
1940,62.08,-1.8347,-9.0955,0.1797,0.0001,-0.0000,0.5668,flat,18.0,0,15.008
1950,62.40,-1.6524,-8.9739,0.1797,0.0001,-0.0000,0.6274,flat,18.0,0,14.796
1960,62.72,-1.4525,-8.8222,0.1797,0.0001,-0.0001,0.6779,flat,18.0,0,14.549
1970,63.04,-1.2305,-8.6358,0.1797,0.0001,-0.0001,0.7195,flat,18.0,0,14.263
1980,63.36,-0.9804,-8.4095,0.1797,0.0001,-0.0001,0.7543,flat,18.0,0,13.927
1990,63.68,-0.6966,-8.1358,0.1797,0.0001,-0.0001,0.7806,flat,18.0,0,13.534
2000,64.00,-0.3705,-7.8073,0.1797,0.0000,-0.0001,0.7969,flat,18.0,0,13.072
2010,64.32,0.0067,-7.4187,0.1797,0.0000,-0.0001,0.8024,flat,18.0,0,12.532
2020,64.64,0.3580,-7.0246,0.1799,0.0002,-0.0000,0.9144,flat,18.0,0,12.004
2030,64.96,0.6749,-6.5798,0.1798,0.0003,-0.0001,1.0021,flat,18.0,0,11.460
2040,65.28,0.9732,-6.0980,0.1797,0.0001,-0.0000,1.0273,flat,18.0,0,10.902
2050,65.60,1.2697,-5.6132,0.1797,-0.0000,0.0000,1.0090,flat,18.0,0,10.343
2060,65.92,1.5738,-5.1456,0.1797,-0.0001,0.0000,0.9680,flat,18.0,0,9.793
2070,66.24,1.8970,-4.6946,0.1797,-0.0002,-0.0000,0.9180,flat,18.0,0,9.243
2080,66.56,2.2437,-4.2588,0.1797,-0.0002,-0.0000,0.8742,flat,18.0,0,8.688
2090,66.88,2.6104,-3.8342,0.1797,-0.0001,-0.0000,0.8410,flat,18.0,0,8.128
2100,67.20,2.9924,-3.4165,0.1797,-0.0001,-0.0000,0.8180,flat,18.0,0,7.562
2110,67.52,3.3852,-3.0023,0.1797,-0.0000,-0.0000,0.8060,flat,18.0,0,6.991
2120,67.84,3.7838,-2.5886,0.1797,-0.0000,-0.0000,0.8027,flat,18.0,0,6.416
2130,68.16,4.1828,-2.1748,0.1797,0.0000,0.0000,0.8054,flat,18.0,0,5.842
2140,68.48,4.5790,-1.7603,0.1797,0.0000,0.0000,0.8114,flat,18.0,0,5.268
2150,68.80,4.9721,-1.3435,0.1797,0.0000,0.0000,0.8184,flat,18.0,0,4.695
2160,69.12,5.3625,-0.9238,0.1797,0.0000,-0.0000,0.8248,flat,18.0,0,4.122
2170,69.44,5.7509,-0.5015,0.1797,0.0000,-0.0000,0.8298,flat,18.0,0,3.549
2180,69.76,6.1380,-0.0770,0.1797,0.0000,-0.0000,0.8330,flat,18.0,0,2.975
2190,70.08,6.5246,0.3490,0.1797,0.0000,-0.0000,0.8347,flat,18.0,0,2.400
2200,70.40,6.9094,0.7740,0.1797,0.0000,0.0000,0.8351,flat,18.0,0,1.828
2210,70.72,7.2563,1.1571,0.1797,-0.0000,0.0001,0.8347,flat,18.0,0,1.313
2220,71.04,7.5626,1.4962,0.1797,0.0000,-0.0001,0.8526,flat,18.0,1,5.228
2230,71.36,7.8944,1.8915,0.1797,0.0001,0.0000,0.8916,flat,18.0,1,5.124
2240,71.68,8.1689,2.2471,0.1797,0.0002,0.0002,0.9563,rough,14.0,1,5.056
2250,72.00,8.3492,2.5204,0.1797,0.0002,-0.0000,1.0462,flat,18.0,1,5.008
2260,72.32,8.5204,2.8453,0.1797,0.0002,0.0000,1.1666,flat,18.0,1,4.942
2270,72.64,8.6483,3.1574,0.1797,0.0002,0.0000,1.3272,flat,18.0,1,4.873
2280,72.96,8.7237,3.4605,0.1798,0.0002,0.0000,1.5146,flat,18.0,1,4.785
2290,73.28,8.7417,3.7558,0.1798,0.0002,0.0000,1.7084,flat,18.0,1,4.668
2300,73.60,8.7008,4.0459,0.1797,0.0002,-0.0000,1.8657,flat,18.0,1,4.513
2310,73.92,8.6076,4.3374,0.1797,0.0002,-0.0000,1.9918,flat,18.0,1,4.324
2320,74.24,8.4650,4.6379,0.1797,0.0002,-0.0001,2.0913,flat,18.0,1,4.098
2330,74.56,8.2724,4.9552,0.1797,0.0002,-0.0001,2.1658,flat,18.0,1,3.835
2340,74.88,8.0285,5.2990,0.1797,0.0001,-0.0001,2.2153,flat,18.0,1,3.537
2350,75.20,7.7323,5.6813,0.1797,0.0001,-0.0001,2.2442,flat,18.0,1,3.212
2360,75.52,7.3921,6.1036,0.1797,0.0000,0.0001,2.2568,flat,18.0,1,2.893
2370,75.84,7.0691,6.4512,0.1799,-0.0001,-0.0000,2.4633,flat,18.0,1,2.644
2380,76.16,6.6767,6.7068,0.1799,-0.0000,-0.0000,2.7928,flat,18.0,1,2.360
2390,76.48,6.2078,6.8439,0.1799,0.0000,-0.0000,3.1380,flat,18.0,1,2.012
2400,76.80,5.7376,6.8234,0.1799,0.0001,0.0000,-2.8585,flat,18.0,1,1.624
2410,77.12,5.3474,6.6895,0.1799,0.0000,0.0000,-2.6257,flat,18.0,1,1.253
2420,77.44,5.0182,6.4725,0.1799,0.0001,-0.0000,-2.4379,flat,18.0,2,12.924
2430,77.76,4.6634,6.1994,0.1799,0.0001,-0.0001,-2.5830,flat,18.0,2,12.500
2440,78.08,4.2116,5.9565,0.1799,-0.0000,-0.0000,-2.7950,flat,18.0,2,11.994
2450,78.40,3.6974,5.7940,0.1799,-0.0002,-0.0000,-2.9410,flat,18.0,2,11.455
2460,78.72,3.1439,5.6924,0.1798,-0.0002,-0.0000,-2.9950,flat,18.0,2,10.898
2470,79.04,2.5797,5.6086,0.1797,0.0000,0.0000,-2.9800,flat,18.0,2,10.337
2480,79.36,2.0272,5.5138,0.1797,0.0002,0.0000,-2.9311,flat,18.0,2,9.785
2490,79.68,1.4826,5.3902,0.1797,0.0002,-0.0000,-2.8743,flat,18.0,2,9.231
2500,80.00,0.9437,5.2355,0.1797,0.0002,-0.0000,-2.8279,flat,18.0,2,8.673
2510,80.32,0.4085,5.0564,0.1797,0.0001,-0.0000,-2.7983,flat,18.0,2,8.109
2520,80.64,-0.1263,4.8617,0.1797,0.0001,-0.0000,-2.7810,flat,18.0,2,7.540
2530,80.96,-0.6621,4.6580,0.1797,0.0000,-0.0000,-2.7742,flat,18.0,2,6.966
2540,81.28,-1.1991,4.4511,0.1797,0.0000,0.0000,-2.7744,flat,18.0,2,6.391
2550,81.60,-1.7355,4.2455,0.1797,-0.0000,0.0000,-2.7789,flat,18.0,2,5.816
2560,81.92,-2.2725,4.0428,0.1797,-0.0000,0.0000,-2.7850,flat,18.0,2,5.242
2570,82.24,-2.8108,3.8434,0.1797,-0.0000,-0.0000,-2.7908,flat,18.0,2,4.668
2580,82.56,-3.3506,3.6467,0.1797,-0.0000,-0.0000,-2.7952,flat,18.0,2,4.094
2590,82.88,-3.8917,3.4520,0.1797,-0.0000,-0.0000,-2.7979,flat,18.0,2,3.519
2600,83.20,-4.4337,3.2583,0.1797,-0.0000,-0.0000,-2.7991,flat,18.0,2,2.944
2610,83.52,-4.9762,3.0650,0.1797,-0.0000,-0.0000,-2.7992,flat,18.0,2,2.368
2620,83.84,-5.5149,2.8728,0.1797,0.0000,0.0001,-2.7987,flat,18.0,2,1.797
2630,84.16,-5.9975,2.7004,0.1797,0.0000,0.0001,-2.7980,flat,18.0,2,1.286
2640,84.48,-6.4191,2.5496,0.1797,0.0000,0.0000,-2.7551,flat,18.0,3,10.675
2650,84.80,-6.8023,2.3546,0.1799,-0.0001,0.0000,-2.4300,flat,18.0,3,10.571
2660,85.12,-7.0863,2.0292,0.1799,-0.0001,-0.0000,-2.0667,flat,18.0,3,10.330
2670,85.44,-7.2676,1.6150,0.1799,0.0000,-0.0000,-1.7200,flat,18.0,3,9.986
2680,85.76,-7.3112,1.1210,0.1799,0.0001,-0.0000,-1.4067,flat,18.0,3,9.530
2690,86.08,-7.2032,0.6142,0.1799,0.0001,-0.0000,-1.2257,flat,18.0,3,9.016
2700,86.40,-7.0041,0.1058,0.1798,0.0003,-0.0001,-1.1414,flat,18.0,3,8.471
2710,86.72,-6.7624,-0.4079,0.1797,0.0001,-0.0000,-1.1209,flat,18.0,3,7.906
2720,87.04,-6.5157,-0.9225,0.1797,-0.0000,0.0000,-1.1360,flat,18.0,3,7.340
2730,87.36,-6.2828,-1.4368,0.1797,-0.0001,0.0000,-1.1696,flat,18.0,3,6.779
2740,87.68,-6.0689,-1.9576,0.1797,-0.0001,-0.0000,-1.2085,flat,18.0,3,6.218
2750,88.00,-5.8743,-2.4877,0.1797,-0.0001,-0.0000,-1.2431,flat,18.0,3,5.655
2760,88.32,-5.6956,-3.0270,0.1797,-0.0001,-0.0000,-1.2680,flat,18.0,3,5.087
2770,88.64,-5.5276,-3.5733,0.1797,-0.0001,-0.0000,-1.2817,flat,18.0,3,4.515
2780,88.96,-5.3648,-4.1244,0.1797,-0.0000,-0.0000,-1.2861,flat,18.0,3,3.941
2790,89.28,-5.2031,-4.6765,0.1797,0.0000,0.0000,-1.2843,flat,18.0,3,3.365
2800,89.60,-5.0402,-5.2269,0.1797,0.0000,0.0000,-1.2792,flat,18.0,3,2.791
2810,89.92,-4.8743,-5.7762,0.1797,0.0000,-0.0000,-1.2733,flat,18.0,3,2.217
