step,time_s,x,y,z,roll,pitch,yaw,terrain,speed,target_idx,dist_to_target
10,0.32,0.9450,-0.8122,0.1596,0.1924,0.0193,-0.2536,slope,18.0,0,5.754
20,0.64,1.1916,-0.8717,0.1601,0.1503,0.0453,-0.2745,rough,14.0,0,5.528
30,0.96,1.5010,-0.9922,0.1440,0.1354,0.0650,-0.4781,slope,18.0,0,5.217
40,1.28,1.9091,-1.2656,0.0999,0.1131,0.1298,-0.6603,slope,18.0,0,4.733
50,1.60,2.3250,-1.6306,0.0014,0.1570,0.2349,-0.7363,slope,18.0,0,4.180
60,1.92,2.7253,-2.0496,-0.2223,0.2391,0.4816,-0.7563,rough,14.0,0,3.601
70,2.24,2.9662,-2.3783,-0.3739,0.2221,0.1145,-0.7488,slope,18.0,0,3.201
80,2.56,3.3062,-2.7835,-0.4167,0.3877,0.0684,-0.7551,slope,18.0,0,2.678
90,2.88,3.6844,-3.2025,-0.4492,0.3481,0.2060,-0.7629,rough,14.0,0,2.120
100,3.20,4.0184,-3.5717,-0.4991,0.4143,0.2238,-0.6921,rough,14.0,0,1.631
110,3.52,4.2421,-3.8320,-0.5079,0.4057,-0.2378,-0.8158,slope,18.0,0,1.300
120,3.84,4.5329,-4.1031,-0.4329,0.2588,-0.2752,-0.8127,rough,14.0,1,12.133
130,4.16,4.7197,-4.3031,-0.3631,0.2023,-0.2737,-0.6781,rough,14.0,1,12.379
140,4.48,4.8931,-4.4600,-0.3483,0.0577,-0.0751,-0.1200,rough,14.0,1,12.581
150,4.80,4.9718,-4.5668,-0.3405,0.0737,-0.0237,0.6353,rough,14.0,1,12.707
160,5.12,5.0696,-4.4996,-0.3367,0.0500,-0.0690,1.0302,rough,14.0,1,12.674
170,5.44,5.1359,-4.2581,-0.2903,-0.0348,-0.2233,1.3209,rough,14.0,1,12.467
180,5.76,5.1259,-3.8966,-0.2422,-0.1755,-0.1417,1.6243,rough,14.0,1,12.123
190,6.08,5.0579,-3.4481,-0.2616,-0.3132,0.0280,1.6716,rough,14.0,1,11.679
200,6.40,4.9939,-3.0326,-0.2840,-0.2366,0.0403,1.7617,rough,14.0,1,11.267
210,6.72,4.9363,-2.6340,-0.2811,-0.0694,-0.0368,1.8461,rough,14.0,1,10.874
220,7.04,4.8432,-2.2357,-0.2519,0.0260,-0.1838,1.9034,slope,18.0,1,10.469
230,7.36,4.6556,-1.6944,-0.2116,0.0849,0.0523,1.9674,rough,14.0,1,9.897
240,7.68,4.4743,-1.2772,-0.2514,-0.0184,0.0945,1.9607,rough,14.0,1,9.442
250,8.00,4.3502,-0.8814,-0.2727,0.0172,0.0333,1.8764,rough,14.0,1,9.028
260,8.32,4.2805,-0.5079,-0.2615,0.1818,-0.1532,1.7753,rough,14.0,1,8.656
270,8.64,4.2192,-0.1470,-0.2011,0.1656,-0.2029,1.7132,rough,14.0,1,8.299
280,8.96,4.1805,0.2308,-0.1420,0.1106,-0.1444,1.7031,rough,14.0,1,7.936
290,9.28,4.1138,0.6352,-0.1126,0.0646,-0.0371,1.7310,rough,14.0,1,7.539
300,9.60,4.0888,1.0869,-0.1644,0.2789,0.2290,1.8632,rough,14.0,1,7.119
310,9.92,4.0149,1.4845,-0.2579,0.4949,0.2740,1.9642,slope,18.0,1,6.729
320,10.24,3.8918,1.9516,-0.3672,0.4491,0.1351,1.9343,slope,18.0,1,6.257
330,10.56,3.7655,2.3878,-0.4159,0.4937,0.0300,1.9354,rough,14.0,1,5.812
340,10.88,3.6112,2.7887,-0.4408,0.4711,0.0399,1.9991,rough,14.0,1,5.386
350,11.20,3.3856,3.2062,-0.5064,0.3708,0.2560,2.1612,rough,14.0,1,4.911
360,11.52,3.0799,3.6246,-0.6861,0.2369,0.3347,2.1931,rough,14.0,1,4.398
370,11.84,2.8760,3.9541,-0.7903,0.2265,0.1611,2.0823,rough,14.0,1,4.011
380,12.16,2.7177,4.3080,-0.8364,0.2304,0.0565,1.9813,rough,14.0,1,3.625
390,12.48,2.4924,4.7164,-0.9237,-0.1236,0.3109,1.9235,rough,14.0,1,3.158
400,12.80,2.3429,5.1125,-1.0613,-0.2247,0.2478,1.8282,rough,14.0,1,2.739
410,13.12,2.2185,5.5257,-1.1923,-0.3021,0.2575,1.8280,rough,14.0,1,2.319
420,13.44,2.0891,5.9166,-1.2673,-0.3423,0.1327,1.8671,rough,14.0,1,1.919
430,13.76,1.9942,6.2139,-1.2298,-0.2556,-0.3178,2.0223,rough,14.0,1,1.622
440,14.08,1.8426,6.5364,-1.1713,-0.1113,-0.1466,1.9939,rough,14.0,1,1.275
450,14.40,1.7092,6.8041,-1.1261,-0.1497,-0.2481,2.0036,rough,14.0,2,0.987
460,14.72,1.4916,7.1596,-1.1206,-0.3811,-0.1258,1.9666,rough,14.0,2,15.293
470,15.04,1.3498,7.4601,-1.1013,-0.2898,-0.1209,2.0370,rough,14.0,2,15.446
480,15.36,1.1622,7.7703,-1.0228,-0.3665,-0.3376,2.1173,rough,14.0,2,15.586
490,15.68,0.9821,8.0204,-0.8945,-0.4265,-0.4810,2.2160,rough,14.0,2,15.688
500,16.00,0.8194,8.2364,-0.7676,-0.3621,-0.4915,2.2609,rough,14.0,2,15.776
510,16.32,0.6293,8.4240,-0.6591,-0.4477,-0.4015,2.3315,rough,14.0,2,15.829
520,16.64,0.3705,8.6380,-0.6046,-0.5019,-0.1003,2.3210,slope,18.0,2,15.874
530,16.96,0.1474,8.8180,-0.5899,-0.5252,-0.1094,2.4730,slope,18.0,2,15.914
540,17.28,-0.0461,8.9539,-0.5839,-0.4533,-0.0618,2.5963,rough,14.0,2,15.935
550,17.60,-0.2121,9.0087,-0.5922,-0.4610,0.0150,2.7716,rough,14.0,2,15.902
560,17.92,-0.3721,9.0074,-0.6015,-0.5546,0.0889,2.9193,rough,14.0,2,15.824
570,18.24,-0.4694,9.0006,-0.6067,-0.5148,0.0640,-3.1333,rough,14.0,2,15.772
580,18.56,-0.5055,8.9556,-0.6079,-0.4035,-0.0762,-2.7907,rough,14.0,2,15.715
590,18.88,-0.5323,8.8890,-0.6218,-0.3795,-0.1921,-2.6021,rough,14.0,2,15.644
600,19.20,-0.5775,8.8117,-0.6549,-0.3981,-0.4164,-2.3967,rough,14.0,2,15.554
610,19.52,-0.5678,8.7342,-0.6998,-0.5199,-0.6397,-2.3724,rough,14.0,2,15.491
620,19.84,-0.5647,8.6865,-0.7434,-1.1467,-0.9807,-2.0540,rough,14.0,2,15.450
630,20.16,-0.4229,8.7036,-0.9022,-2.4895,-0.4548,-0.3316,rough,14.0,2,15.533
640,20.48,-0.4790,8.6673,-0.9810,-2.7267,-0.0617,-0.2035,rough,14.0,2,15.474
650,20.80,-0.4800,8.6674,-0.9793,-2.6991,-0.0702,-0.2142,rough,14.0,2,15.474
660,21.12,-0.4817,8.6688,-0.9797,-2.6962,-0.0702,-0.2184,rough,14.0,2,15.474
670,21.44,-0.4829,8.6693,-0.9798,-2.6962,-0.0695,-0.2172,rough,14.0,2,15.474
680,21.76,-0.4830,8.6694,-0.9798,-2.6962,-0.0695,-0.2170,rough,14.0,2,15.474
690,22.08,-0.4830,8.6696,-0.9797,-2.6962,-0.0695,-0.2170,rough,14.0,2,15.474
700,22.40,-0.4830,8.6697,-0.9797,-2.6962,-0.0695,-0.2169,rough,14.0,2,15.474
710,22.72,-0.4830,8.6697,-0.9796,-2.6962,-0.0696,-0.2168,rough,14.0,2,15.474
720,23.04,-0.4829,8.6698,-0.9796,-2.6963,-0.0696,-0.2167,rough,14.0,2,15.474
730,23.36,-0.4829,8.6699,-0.9795,-2.6963,-0.0696,-0.2167,rough,14.0,2,15.475
740,23.68,-0.4829,8.6700,-0.9795,-2.6963,-0.0697,-0.2167,rough,14.0,2,15.475
750,24.00,-0.4829,8.6701,-0.9795,-2.6963,-0.0697,-0.2167,rough,14.0,2,15.475
760,24.32,-0.4828,8.6702,-0.9794,-2.6963,-0.0697,-0.2167,rough,14.0,2,15.475
770,24.64,-0.4828,8.6702,-0.9794,-2.6963,-0.0697,-0.2167,rough,14.0,2,15.475
780,24.96,-0.4828,8.6703,-0.9793,-2.6963,-0.0697,-0.2167,rough,14.0,2,15.475
790,25.28,-0.4827,8.6704,-0.9793,-2.6963,-0.0697,-0.2167,rough,14.0,2,15.475
800,25.60,-0.4827,8.6704,-0.9793,-2.6963,-0.0697,-0.2167,rough,14.0,2,15.475
810,25.92,-0.4827,8.6705,-0.9792,-2.6963,-0.0697,-0.2167,rough,14.0,2,15.475
820,26.24,-0.4827,8.6706,-0.9792,-2.6963,-0.0697,-0.2167,rough,14.0,2,15.475
830,26.56,-0.4827,8.6706,-0.9791,-2.6963,-0.0697,-0.2167,rough,14.0,2,15.475
840,26.88,-0.4826,8.6707,-0.9791,-2.6963,-0.0697,-0.2167,rough,14.0,2,15.475
850,27.20,-0.4826,8.6707,-0.9791,-2.6963,-0.0697,-0.2167,rough,14.0,2,15.475
860,27.52,-0.4826,8.6708,-0.9790,-2.6963,-0.0697,-0.2167,rough,14.0,2,15.475
870,27.84,-0.4826,8.6708,-0.9790,-2.6963,-0.0697,-0.2167,rough,14.0,2,15.475
880,28.16,-0.4825,8.6709,-0.9790,-2.6963,-0.0697,-0.2167,rough,14.0,2,15.476
890,28.48,-0.4825,8.6710,-0.9789,-2.6963,-0.0698,-0.2167,rough,14.0,2,15.476
900,28.80,-0.4825,8.6710,-0.9789,-2.6963,-0.0698,-0.2167,rough,14.0,2,15.476
910,29.12,-0.4825,8.6711,-0.9789,-2.6963,-0.0698,-0.2167,rough,14.0,2,15.476
920,29.44,-0.4825,8.6711,-0.9789,-2.6963,-0.0698,-0.2167,rough,14.0,3,15.712
930,29.76,-0.4825,8.6712,-0.9788,-2.6963,-0.0698,-0.2167,rough,14.0,3,15.712
940,30.08,-0.4824,8.6712,-0.9788,-2.6963,-0.0698,-0.2167,rough,14.0,3,15.712
950,30.40,-0.4824,8.6713,-0.9788,-2.6963,-0.0698,-0.2167,rough,14.0,3,15.712
960,30.72,-0.4824,8.6713,-0.9787,-2.6963,-0.0698,-0.2167,rough,14.0,3,15.712
970,31.04,-0.4824,8.6713,-0.9787,-2.6963,-0.0698,-0.2167,rough,14.0,3,15.712
980,31.36,-0.4824,8.6714,-0.9787,-2.6963,-0.0698,-0.2168,rough,14.0,3,15.712
990,31.68,-0.4824,8.6714,-0.9787,-2.6963,-0.0698,-0.2168,rough,14.0,3,15.713
1000,32.00,-0.4823,8.6715,-0.9786,-2.6963,-0.0698,-0.2168,rough,14.0,3,15.713
1010,32.32,-0.4823,8.6715,-0.9786,-2.6963,-0.0698,-0.2168,rough,14.0,3,15.713
1020,32.64,-0.4823,8.6716,-0.9786,-2.6963,-0.0698,-0.2168,rough,14.0,3,15.713
1030,32.96,-0.4823,8.6716,-0.9786,-2.6963,-0.0698,-0.2168,rough,14.0,3,15.713
1040,33.28,-0.4823,8.6716,-0.9786,-2.6962,-0.0698,-0.2168,rough,14.0,3,15.713
1050,33.60,-0.4823,8.6717,-0.9785,-2.6962,-0.0698,-0.2168,rough,14.0,3,15.713
1060,33.92,-0.4823,8.6717,-0.9785,-2.6962,-0.0698,-0.2168,rough,14.0,3,15.713
1070,34.24,-0.4822,8.6717,-0.9785,-2.6962,-0.0698,-0.2168,rough,14.0,3,15.713
1080,34.56,-0.4822,8.6718,-0.9785,-2.6962,-0.0698,-0.2168,rough,14.0,3,15.713
1090,34.88,-0.4822,8.6718,-0.9785,-2.6962,-0.0698,-0.2168,rough,14.0,3,15.713
1100,35.20,-0.4819,8.6718,-0.9784,-2.6965,-0.0705,-0.2164,rough,14.0,3,15.713
1110,35.52,-0.4822,8.6719,-0.9784,-2.6963,-0.0699,-0.2167,rough,14.0,3,15.713
1120,35.84,-0.4819,8.6719,-0.9783,-2.6964,-0.0703,-0.2165,rough,14.0,3,15.713
1130,36.16,-0.4814,8.6719,-0.9782,-2.6968,-0.0712,-0.2161,rough,14.0,3,15.713
1140,36.48,-0.4821,8.6719,-0.9783,-2.6963,-0.0700,-0.2167,rough,14.0,3,15.713
1150,36.80,-0.4819,8.6720,-0.9783,-2.6964,-0.0703,-0.2165,rough,14.0,3,15.713
1160,37.12,-0.4816,8.6720,-0.9782,-2.6966,-0.0708,-0.2162,rough,14.0,3,15.713
1170,37.44,-0.4813,8.6720,-0.9781,-2.6968,-0.0713,-0.2159,rough,14.0,3,15.714
1180,37.76,-0.4813,8.6720,-0.9781,-2.6968,-0.0712,-0.2160,rough,14.0,3,15.714
1190,38.08,-0.4820,8.6720,-0.9783,-2.6963,-0.0700,-0.2167,rough,14.0,3,15.713
1200,38.40,-0.4820,8.6721,-0.9783,-2.6963,-0.0701,-0.2166,rough,14.0,3,15.713
1210,38.72,-0.4820,8.6721,-0.9782,-2.6963,-0.0701,-0.2166,rough,14.0,3,15.713
1220,39.04,-0.4820,8.6721,-0.9782,-2.6963,-0.0700,-0.2167,rough,14.0,3,15.713
1230,39.36,-0.4812,8.6720,-0.9781,-2.6969,-0.0712,-0.2162,rough,14.0,3,15.714
1240,39.68,-0.4812,8.6721,-0.9780,-2.6968,-0.0713,-0.2159,rough,14.0,3,15.714
1250,40.00,-0.4814,8.6721,-0.9781,-2.6967,-0.0710,-0.2161,rough,14.0,3,15.714
1260,40.32,-0.4815,8.6722,-0.9781,-2.6966,-0.0708,-0.2161,rough,14.0,3,15.714
1270,40.64,-0.4817,8.6721,-0.9781,-2.6965,-0.0704,-0.2164,rough,14.0,3,15.713
1280,40.96,-0.4818,8.6722,-0.9781,-2.6964,-0.0703,-0.2164,rough,14.0,3,15.713
1290,41.28,-0.4811,8.6721,-0.9780,-2.6969,-0.0713,-0.2160,rough,14.0,0,14.422
1300,41.60,-0.4813,8.6722,-0.9780,-2.6967,-0.0710,-0.2161,rough,14.0,0,14.422
1310,41.92,-0.4816,8.6722,-0.9781,-2.6966,-0.0706,-0.2162,rough,14.0,0,14.422
1320,42.24,-0.4818,8.6722,-0.9781,-2.6964,-0.0702,-0.2165,rough,14.0,0,14.422
1330,42.56,-0.4813,8.6722,-0.9780,-2.6968,-0.0711,-0.2160,rough,14.0,0,14.422
1340,42.88,-0.4816,8.6722,-0.9781,-2.6965,-0.0705,-0.2163,rough,14.0,0,14.422
1350,43.20,-0.4811,8.6722,-0.9779,-2.6969,-0.0714,-0.2158,rough,14.0,0,14.422
1360,43.52,-0.4815,8.6722,-0.9780,-2.6966,-0.0706,-0.2163,rough,14.0,0,14.422
1370,43.84,-0.4810,8.6722,-0.9779,-2.6969,-0.0713,-0.2160,rough,14.0,0,14.422
1380,44.16,-0.4814,8.6723,-0.9780,-2.6967,-0.0709,-0.2161,rough,14.0,0,14.422
1390,44.48,-0.4817,8.6723,-0.9781,-2.6964,-0.0702,-0.2165,rough,14.0,0,14.422
1400,44.80,-0.4813,8.6723,-0.9780,-2.6967,-0.0708,-0.2161,rough,14.0,0,14.422
1410,45.12,-0.4809,8.6722,-0.9779,-2.6970,-0.0714,-0.2160,rough,14.0,0,14.422
1420,45.44,-0.4814,8.6723,-0.9779,-2.6967,-0.0708,-0.2161,rough,14.0,0,14.422
1430,45.76,-0.4810,8.6723,-0.9779,-2.6969,-0.0714,-0.2157,rough,14.0,0,14.422
1440,46.08,-0.4816,8.6723,-0.9780,-2.6965,-0.0704,-0.2163,rough,14.0,0,14.422
1450,46.40,-0.4813,8.6723,-0.9779,-2.6967,-0.0709,-0.2160,rough,14.0,0,14.422
1460,46.72,-0.4810,8.6723,-0.9779,-2.6969,-0.0714,-0.2159,rough,14.0,0,14.422
1470,47.04,-0.4816,8.6723,-0.9780,-2.6965,-0.0704,-0.2163,rough,14.0,0,14.422
1480,47.36,-0.4813,8.6723,-0.9779,-2.6967,-0.0708,-0.2161,rough,14.0,0,14.422
1490,47.68,-0.4810,8.6723,-0.9778,-2.6969,-0.0714,-0.2157,rough,14.0,0,14.422
1500,48.00,-0.4815,8.6723,-0.9780,-2.6965,-0.0703,-0.2164,rough,14.0,0,14.422
1510,48.32,-0.4813,8.6723,-0.9779,-2.6967,-0.0709,-0.2160,rough,14.0,0,14.422
1520,48.64,-0.4811,8.6723,-0.9779,-2.6968,-0.0711,-0.2159,rough,14.0,0,14.422
1530,48.96,-0.4809,8.6723,-0.9778,-2.6970,-0.0715,-0.2156,rough,14.0,0,14.422
1540,49.28,-0.4808,8.6723,-0.9778,-2.6970,-0.0716,-0.2157,rough,14.0,0,14.422
1550,49.60,-0.4814,8.6724,-0.9779,-2.6966,-0.0706,-0.2161,rough,14.0,0,14.422
1560,49.92,-0.4814,8.6724,-0.9779,-2.6966,-0.0707,-0.2161,rough,14.0,0,14.422
1570,50.24,-0.4814,8.6724,-0.9779,-2.6966,-0.0707,-0.2161,rough,14.0,0,14.422
1580,50.56,-0.4814,8.6724,-0.9779,-2.6966,-0.0707,-0.2161,rough,14.0,0,14.422
1590,50.88,-0.4814,8.6724,-0.9779,-2.6966,-0.0707,-0.2161,rough,14.0,0,14.422
1600,51.20,-0.4814,8.6724,-0.9779,-2.6966,-0.0706,-0.2161,rough,14.0,0,14.422
1610,51.52,-0.4814,8.6724,-0.9779,-2.6966,-0.0706,-0.2161,rough,14.0,0,14.422
1620,51.84,-0.4814,8.6724,-0.9779,-2.6966,-0.0706,-0.2161,rough,14.0,0,14.422
1630,52.16,-0.4813,8.6724,-0.9779,-2.6966,-0.0706,-0.2161,rough,14.0,0,14.422
1640,52.48,-0.4813,8.6724,-0.9779,-2.6966,-0.0706,-0.2161,rough,14.0,0,14.422
1650,52.80,-0.4813,8.6724,-0.9779,-2.6966,-0.0706,-0.2161,rough,14.0,1,1.898
1660,53.12,-0.4813,8.6724,-0.9779,-2.6966,-0.0706,-0.2161,rough,14.0,1,1.898
1670,53.44,-0.4813,8.6724,-0.9779,-2.6966,-0.0706,-0.2161,rough,14.0,1,1.898
1680,53.76,-0.4813,8.6724,-0.9779,-2.6966,-0.0706,-0.2161,rough,14.0,1,1.898
1690,54.08,-0.4813,8.6724,-0.9779,-2.6966,-0.0706,-0.2161,rough,14.0,1,1.898
1700,54.40,-0.4813,8.6724,-0.9779,-2.6966,-0.0706,-0.2161,rough,14.0,1,1.898
1710,54.72,-0.4813,8.6724,-0.9779,-2.6966,-0.0706,-0.2161,rough,14.0,1,1.898
1720,55.04,-0.4813,8.6724,-0.9779,-2.6966,-0.0706,-0.2161,rough,14.0,1,1.898
1730,55.36,-0.4813,8.6724,-0.9779,-2.6966,-0.0706,-0.2161,rough,14.0,1,1.898
1740,55.68,-0.4813,8.6724,-0.9779,-2.6966,-0.0706,-0.2161,rough,14.0,1,1.898
1750,56.00,-0.4813,8.6724,-0.9779,-2.6966,-0.0706,-0.2160,rough,14.0,1,1.898
1760,56.32,-0.4813,8.6724,-0.9778,-2.6966,-0.0706,-0.2160,rough,14.0,1,1.898
1770,56.64,-0.4813,8.6724,-0.9778,-2.6966,-0.0706,-0.2160,rough,14.0,1,1.898
1780,56.96,-0.4813,8.6724,-0.9778,-2.6966,-0.0706,-0.2160,rough,14.0,1,1.898
1790,57.28,-0.4806,8.6724,-0.9777,-2.6972,-0.0718,-0.2154,rough,14.0,1,1.897
1800,57.60,-0.4807,8.6724,-0.9777,-2.6971,-0.0716,-0.2156,rough,14.0,1,1.897
1810,57.92,-0.4808,8.6724,-0.9777,-2.6970,-0.0715,-0.2155,rough,14.0,1,1.897
1820,58.24,-0.4809,8.6724,-0.9777,-2.6970,-0.0713,-0.2156,rough,14.0,1,1.898
1830,58.56,-0.4810,8.6724,-0.9778,-2.6969,-0.0712,-0.2157,rough,14.0,1,1.898
1840,58.88,-0.4812,8.6724,-0.9778,-2.6968,-0.0709,-0.2158,rough,14.0,1,1.898
1850,59.20,-0.4813,8.6724,-0.9778,-2.6967,-0.0706,-0.2160,rough,14.0,1,1.898
1860,59.52,-0.4807,8.6724,-0.9777,-2.6971,-0.0716,-0.2155,rough,14.0,1,1.897
1870,59.84,-0.4808,8.6724,-0.9777,-2.6971,-0.0715,-0.2155,rough,14.0,1,1.897
1880,60.16,-0.4810,8.6724,-0.9777,-2.6969,-0.0712,-0.2156,rough,14.0,1,1.898
1890,60.48,-0.4811,8.6724,-0.9778,-2.6968,-0.0709,-0.2158,rough,14.0,1,1.898
1900,60.80,-0.4806,8.6724,-0.9777,-2.6972,-0.0718,-0.2154,rough,14.0,1,1.897
1910,61.12,-0.4807,8.6724,-0.9777,-2.6971,-0.0717,-0.2154,rough,14.0,1,1.897
1920,61.44,-0.4809,8.6724,-0.9777,-2.6970,-0.0713,-0.2156,rough,14.0,1,1.898
1930,61.76,-0.4811,8.6724,-0.9778,-2.6968,-0.0709,-0.2158,rough,14.0,1,1.898
1940,62.08,-0.4813,8.6724,-0.9778,-2.6967,-0.0706,-0.2160,rough,14.0,1,1.898
1950,62.40,-0.4807,8.6724,-0.9777,-2.6971,-0.0716,-0.2155,rough,14.0,1,1.897
1960,62.72,-0.4808,8.6724,-0.9777,-2.6971,-0.0715,-0.2154,rough,14.0,1,1.897
1970,63.04,-0.4810,8.6724,-0.9777,-2.6969,-0.0712,-0.2156,rough,14.0,1,1.898
1980,63.36,-0.4811,8.6724,-0.9778,-2.6968,-0.0708,-0.2158,rough,14.0,1,1.898
1990,63.68,-0.4806,8.6724,-0.9777,-2.6972,-0.0718,-0.2154,rough,14.0,1,1.897
2000,64.00,-0.4807,8.6724,-0.9777,-2.6971,-0.0717,-0.2154,rough,14.0,1,1.897
2010,64.32,-0.4809,8.6724,-0.9777,-2.6970,-0.0713,-0.2155,rough,14.0,1,1.898
2020,64.64,-0.4811,8.6724,-0.9778,-2.6968,-0.0709,-0.2158,rough,14.0,2,15.478
2030,64.96,-0.4813,8.6724,-0.9778,-2.6967,-0.0706,-0.2160,rough,14.0,2,15.477
2040,65.28,-0.4807,8.6724,-0.9777,-2.6971,-0.0716,-0.2155,rough,14.0,2,15.478
2050,65.60,-0.4808,8.6724,-0.9777,-2.6971,-0.0715,-0.2154,rough,14.0,2,15.478
2060,65.92,-0.4811,8.6724,-0.9778,-2.6968,-0.0710,-0.2157,rough,14.0,2,15.478
2070,66.24,-0.4813,8.6724,-0.9778,-2.6967,-0.0706,-0.2160,rough,14.0,2,15.477
2080,66.56,-0.4807,8.6724,-0.9777,-2.6971,-0.0717,-0.2153,rough,14.0,2,15.478
2090,66.88,-0.4809,8.6724,-0.9777,-2.6970,-0.0713,-0.2155,rough,14.0,2,15.478
2100,67.20,-0.4811,8.6724,-0.9778,-2.6968,-0.0708,-0.2158,rough,14.0,2,15.478
2110,67.52,-0.4807,8.6724,-0.9777,-2.6971,-0.0716,-0.2155,rough,14.0,2,15.478
2120,67.84,-0.4809,8.6724,-0.9777,-2.6970,-0.0713,-0.2155,rough,14.0,2,15.478
2130,68.16,-0.4811,8.6724,-0.9778,-2.6968,-0.0709,-0.2158,rough,14.0,2,15.478
2140,68.48,-0.4806,8.6724,-0.9777,-2.6972,-0.0718,-0.2154,rough,14.0,2,15.478
2150,68.80,-0.4808,8.6724,-0.9777,-2.6971,-0.0715,-0.2154,rough,14.0,2,15.478
2160,69.12,-0.4811,8.6724,-0.9778,-2.6968,-0.0710,-0.2157,rough,14.0,2,15.478
2170,69.44,-0.4805,8.6724,-0.9776,-2.6972,-0.0718,-0.2153,rough,14.0,2,15.478
2180,69.76,-0.4807,8.6724,-0.9777,-2.6971,-0.0717,-0.2153,rough,14.0,2,15.478
2190,70.08,-0.4810,8.6724,-0.9777,-2.6969,-0.0712,-0.2156,rough,14.0,2,15.478
2200,70.40,-0.4813,8.6724,-0.9778,-2.6967,-0.0706,-0.2159,rough,14.0,2,15.477
2210,70.72,-0.4807,8.6724,-0.9777,-2.6972,-0.0717,-0.2153,rough,14.0,2,15.478
2220,71.04,-0.4809,8.6724,-0.9777,-2.6970,-0.0713,-0.2155,rough,14.0,2,15.478
2230,71.36,-0.4811,8.6724,-0.9778,-2.6968,-0.0708,-0.2158,rough,14.0,2,15.478
2240,71.68,-0.4807,8.6724,-0.9777,-2.6971,-0.0716,-0.2155,rough,14.0,2,15.478
2250,72.00,-0.4809,8.6724,-0.9777,-2.6970,-0.0713,-0.2155,rough,14.0,2,15.478
2260,72.32,-0.4811,8.6724,-0.9778,-2.6968,-0.0709,-0.2158,rough,14.0,2,15.478
2270,72.64,-0.4806,8.6724,-0.9777,-2.6972,-0.0718,-0.2154,rough,14.0,2,15.478
2280,72.96,-0.4808,8.6724,-0.9777,-2.6971,-0.0715,-0.2154,rough,14.0,2,15.478
2290,73.28,-0.4811,8.6724,-0.9778,-2.6968,-0.0710,-0.2157,rough,14.0,2,15.478
2300,73.60,-0.4805,8.6724,-0.9777,-2.6972,-0.0718,-0.2153,rough,14.0,2,15.478
2310,73.92,-0.4807,8.6724,-0.9777,-2.6971,-0.0716,-0.2153,rough,14.0,2,15.478
2320,74.24,-0.4810,8.6724,-0.9777,-2.6969,-0.0712,-0.2156,rough,14.0,2,15.478
2330,74.56,-0.4813,8.6724,-0.9778,-2.6967,-0.0706,-0.2159,rough,14.0,2,15.477
2340,74.88,-0.4807,8.6724,-0.9777,-2.6972,-0.0717,-0.2153,rough,14.0,2,15.478
2350,75.20,-0.4809,8.6724,-0.9777,-2.6970,-0.0713,-0.2155,rough,14.0,2,15.478
2360,75.52,-0.4811,8.6724,-0.9778,-2.6968,-0.0708,-0.2158,rough,14.0,2,15.478
2370,75.84,-0.4807,8.6723,-0.9777,-2.6971,-0.0716,-0.2155,rough,14.0,2,15.478
2380,76.16,-0.4809,8.6724,-0.9777,-2.6970,-0.0713,-0.2155,rough,14.0,2,15.478
2390,76.48,-0.4811,8.6724,-0.9778,-2.6968,-0.0709,-0.2157,rough,14.0,3,15.714
2400,76.80,-0.4806,8.6723,-0.9777,-2.6972,-0.0718,-0.2154,rough,14.0,3,15.714
2410,77.12,-0.4808,8.6724,-0.9777,-2.6971,-0.0715,-0.2154,rough,14.0,3,15.714
2420,77.44,-0.4811,8.6724,-0.9778,-2.6969,-0.0709,-0.2157,rough,14.0,3,15.714
2430,77.76,-0.4806,8.6723,-0.9777,-2.6972,-0.0718,-0.2154,rough,14.0,3,15.714
2440,78.08,-0.4808,8.6724,-0.9777,-2.6971,-0.0715,-0.2154,rough,14.0,3,15.714
2450,78.40,-0.4811,8.6724,-0.9778,-2.6969,-0.0709,-0.2157,rough,14.0,3,15.714
2460,78.72,-0.4806,8.6723,-0.9777,-2.6972,-0.0718,-0.2154,rough,14.0,3,15.714
2470,79.04,-0.4808,8.6724,-0.9777,-2.6971,-0.0715,-0.2154,rough,14.0,3,15.714
2480,79.36,-0.4811,8.6724,-0.9778,-2.6969,-0.0709,-0.2157,rough,14.0,3,15.714
2490,79.68,-0.4806,8.6723,-0.9777,-2.6972,-0.0718,-0.2153,rough,14.0,3,15.714
2500,80.00,-0.4808,8.6724,-0.9777,-2.6971,-0.0715,-0.2154,rough,14.0,3,15.714
2510,80.32,-0.4811,8.6724,-0.9778,-2.6969,-0.0709,-0.2157,rough,14.0,3,15.714
2520,80.64,-0.4805,8.6723,-0.9777,-2.6972,-0.0718,-0.2153,rough,14.0,3,15.714
2530,80.96,-0.4808,8.6724,-0.9777,-2.6971,-0.0715,-0.2154,rough,14.0,3,15.714
2540,81.28,-0.4811,8.6724,-0.9778,-2.6969,-0.0709,-0.2157,rough,14.0,3,15.714
2550,81.60,-0.4805,8.6723,-0.9777,-2.6972,-0.0718,-0.2153,rough,14.0,3,15.714
2560,81.92,-0.4807,8.6724,-0.9777,-2.6971,-0.0716,-0.2153,rough,14.0,3,15.714
2570,82.24,-0.4811,8.6724,-0.9778,-2.6969,-0.0710,-0.2157,rough,14.0,3,15.714
2580,82.56,-0.4805,8.6723,-0.9777,-2.6972,-0.0718,-0.2153,rough,14.0,3,15.714
2590,82.88,-0.4807,8.6724,-0.9777,-2.6971,-0.0716,-0.2153,rough,14.0,3,15.714
2600,83.20,-0.4810,8.6724,-0.9777,-2.6969,-0.0712,-0.2156,rough,14.0,3,15.714
2610,83.52,-0.4813,8.6724,-0.9778,-2.6967,-0.0706,-0.2159,rough,14.0,3,15.714
2620,83.84,-0.4807,8.6724,-0.9777,-2.6972,-0.0717,-0.2153,rough,14.0,3,15.714
2630,84.16,-0.4809,8.6724,-0.9777,-2.6970,-0.0713,-0.2155,rough,14.0,3,15.714
2640,84.48,-0.4811,8.6724,-0.9778,-2.6968,-0.0708,-0.2158,rough,14.0,3,15.714
2650,84.80,-0.4807,8.6723,-0.9777,-2.6971,-0.0716,-0.2155,rough,14.0,3,15.714
2660,85.12,-0.4809,8.6724,-0.9777,-2.6970,-0.0713,-0.2155,rough,14.0,3,15.714
2670,85.44,-0.4811,8.6724,-0.9778,-2.6968,-0.0708,-0.2158,rough,14.0,3,15.714
2680,85.76,-0.4807,8.6723,-0.9777,-2.6971,-0.0716,-0.2155,rough,14.0,3,15.714
2690,86.08,-0.4809,8.6724,-0.9777,-2.6970,-0.0713,-0.2155,rough,14.0,3,15.714
2700,86.40,-0.4811,8.6724,-0.9778,-2.6968,-0.0709,-0.2157,rough,14.0,3,15.714
2710,86.72,-0.4806,8.6723,-0.9777,-2.6972,-0.0718,-0.2153,rough,14.0,3,15.714
2720,87.04,-0.4809,8.6724,-0.9777,-2.6970,-0.0713,-0.2155,rough,14.0,3,15.714
2730,87.36,-0.4811,8.6724,-0.9778,-2.6968,-0.0709,-0.2157,rough,14.0,3,15.714
2740,87.68,-0.4806,8.6723,-0.9777,-2.6972,-0.0718,-0.2153,rough,14.0,3,15.714
2750,88.00,-0.4808,8.6724,-0.9777,-2.6971,-0.0715,-0.2154,rough,14.0,0,14.422
2760,88.32,-0.4811,8.6724,-0.9778,-2.6969,-0.0709,-0.2157,rough,14.0,0,14.422
2770,88.64,-0.4805,8.6723,-0.9777,-2.6972,-0.0718,-0.2153,rough,14.0,0,14.422
2780,88.96,-0.4807,8.6724,-0.9777,-2.6971,-0.0716,-0.2153,rough,14.0,0,14.422
2790,89.28,-0.4810,8.6724,-0.9777,-2.6969,-0.0712,-0.2156,rough,14.0,0,14.422
2800,89.60,-0.4813,8.6724,-0.9778,-2.6967,-0.0706,-0.2159,rough,14.0,0,14.422
2810,89.92,-0.4807,8.6724,-0.9777,-2.6972,-0.0717,-0.2153,rough,14.0,0,14.422
