step,time_s,x,y,z,roll,pitch,yaw,terrain,speed,target_idx,dist_to_target
10,0.32,0.9823,-0.8091,0.1779,0.1457,-0.1939,0.2131,rough,14.0,0,5.727
20,0.64,1.3448,-0.7413,0.1810,0.1516,-0.0099,0.1306,rough,14.0,0,5.503
30,0.96,1.7378,-0.7248,0.1782,0.1389,0.0163,-0.0281,rough,14.0,0,5.236
40,1.28,2.1507,-0.7864,0.1689,0.1269,0.0282,-0.1727,rough,14.0,0,4.914
50,1.60,2.5300,-0.8870,0.1760,0.1978,-0.0676,-0.2523,rough,14.0,0,4.596
60,1.92,2.9337,-1.0176,0.1392,0.2752,0.1410,-0.2973,rough,14.0,0,4.252
70,2.24,3.3342,-1.1669,0.0669,0.1400,0.2547,-0.4249,rough,14.0,0,3.910
80,2.56,3.7201,-1.3243,-0.1012,-0.1643,0.1633,-0.5487,rough,14.0,0,3.585
90,2.88,4.1258,-1.4862,-0.1867,-0.3207,0.2527,-0.5790,rough,14.0,0,3.270
100,3.20,4.4044,-1.6449,-0.1926,-0.2034,-0.1679,-0.5887,rough,14.0,0,3.025
110,3.52,4.7605,-1.9329,-0.2220,-0.0930,0.0638,-0.7078,rough,14.0,0,2.653
120,3.84,5.0584,-2.2359,-0.2750,0.0669,0.0623,-0.8235,rough,14.0,0,2.302
130,4.16,5.2938,-2.5318,-0.2680,0.0927,-0.1069,-0.9477,rough,14.0,0,1.989
140,4.48,5.4618,-2.8313,-0.1928,0.1642,-0.3081,-1.0900,rough,14.0,0,1.693
150,4.80,5.5954,-3.1895,-0.0923,0.2554,-0.2893,-1.2109,rough,14.0,0,1.354
160,5.12,5.7287,-3.5936,-0.0432,0.2487,-0.0493,-1.2803,rough,14.0,0,1.003
170,5.44,5.8507,-4.0293,-0.1038,0.0470,0.3796,-1.4373,rough,14.0,1,12.510
180,5.76,5.7952,-4.2827,-0.1839,0.1523,0.3745,-1.6651,rough,14.0,1,12.723
190,6.08,5.7015,-4.5896,-0.3037,-0.1549,0.4488,-2.1101,rough,14.0,1,12.974
200,6.40,5.5464,-4.7833,-0.3816,-0.1715,0.2409,-2.4186,rough,14.0,1,13.100
210,6.72,5.3360,-4.9713,-0.4298,-0.1611,0.0206,-2.6928,rough,14.0,1,13.207
220,7.04,5.1415,-5.0656,-0.4243,-0.1435,-0.1391,-2.8300,rough,14.0,1,13.234
230,7.36,4.9177,-5.1413,-0.3965,-0.1206,-0.1299,-2.9486,rough,14.0,1,13.238
240,7.68,4.5311,-5.1882,-0.4327,-0.0828,0.2474,3.0192,rough,14.0,1,13.175
250,8.00,4.1761,-5.1168,-0.5054,-0.0497,0.2026,2.8927,rough,14.0,1,13.015
260,8.32,3.7817,-4.9681,-0.6360,0.0582,0.3863,2.7194,rough,14.0,1,12.780
270,8.64,3.4654,-4.8163,-0.7344,-0.0360,0.1874,2.5532,rough,14.0,1,12.567
280,8.96,3.1361,-4.6335,-0.7797,-0.2523,0.1024,2.4256,rough,14.0,1,12.326
290,9.28,2.8678,-4.4184,-0.7711,-0.2505,-0.1660,2.3974,rough,14.0,1,12.071
300,9.60,2.5372,-4.1640,-0.7602,-0.3591,0.0163,2.2758,rough,14.0,1,11.772
310,9.92,2.2580,-3.8712,-0.7897,-0.4667,-0.0411,2.2509,rough,14.0,1,11.448
320,10.24,1.9797,-3.5954,-0.8108,-0.4301,-0.1945,2.2755,rough,14.0,1,11.147
330,10.56,1.7544,-3.3341,-0.7060,-0.3412,-0.3299,2.3029,rough,14.0,1,10.869
340,10.88,1.5610,-3.0689,-0.5544,-0.1757,-0.4470,2.2275,rough,14.0,1,10.593
350,11.20,1.3316,-2.7991,-0.4023,-0.1996,-0.3923,2.1816,rough,14.0,1,10.314
360,11.52,1.1312,-2.4861,-0.2640,-0.1335,-0.3078,2.1033,rough,14.0,1,9.997
370,11.84,0.9242,-2.1521,-0.1553,-0.1581,-0.2667,2.0533,rough,14.0,1,9.662
380,12.16,0.7543,-1.7883,-0.0370,-0.1172,-0.2940,1.9712,rough,14.0,1,9.302
390,12.48,0.6164,-1.3897,0.0728,-0.0407,-0.2648,1.8900,rough,14.0,1,8.909
400,12.80,0.4956,-0.9691,0.1514,0.0027,-0.1436,1.8390,rough,14.0,1,8.495
410,13.12,0.3734,-0.5521,0.1874,-0.0415,-0.0508,1.8207,rough,14.0,1,8.088
420,13.44,0.2680,-0.1317,0.2024,-0.0471,-0.0177,1.7886,rough,14.0,1,7.678
430,13.76,0.1763,0.2858,0.2137,-0.0470,-0.0458,1.7517,rough,14.0,1,7.273
440,14.08,0.1026,0.7087,0.2338,-0.0521,-0.0698,1.7128,rough,14.0,1,6.863
450,14.40,0.0461,1.1168,0.2861,-0.0459,-0.1387,1.6998,rough,14.0,1,6.467
460,14.72,-0.0143,1.5171,0.3546,-0.0838,-0.1976,1.6940,rough,14.0,1,6.081
470,15.04,-0.0761,1.9497,0.4096,-0.1262,-0.1307,1.6589,rough,14.0,1,5.667
480,15.36,-0.1090,2.4042,0.4507,-0.1179,-0.0114,1.6036,rough,14.0,1,5.229
490,15.68,-0.0735,2.8817,0.4012,0.0918,0.2128,1.5693,rough,14.0,1,4.755
500,16.00,0.0271,3.3563,0.2284,0.3496,0.1976,1.6347,rough,14.0,1,4.270
510,16.32,0.1254,3.9956,-0.0693,0.8571,0.9023,2.1070,rough,14.0,1,3.626
520,16.64,0.2737,4.6087,-0.5121,0.5999,0.0092,2.5338,rough,14.0,1,2.995
530,16.96,0.2588,4.9843,-0.7170,0.4369,-0.2870,2.8826,rough,14.0,1,2.637
540,17.28,0.0026,5.2000,-0.7371,0.5974,0.1033,2.7412,rough,14.0,1,2.523
550,17.60,-0.2181,5.3923,-0.7886,0.6986,0.1930,2.5435,rough,14.0,1,2.452
560,17.92,-0.3982,5.5982,-0.8539,0.6712,0.1526,2.2790,rough,14.0,1,2.379
570,18.24,-0.5414,5.8762,-0.9253,0.6379,0.1337,2.0228,rough,14.0,1,2.259
580,18.56,-0.6186,6.2074,-0.9990,0.6439,0.2052,1.8012,rough,14.0,1,2.092
590,18.88,-0.6101,6.5464,-1.0929,0.5489,0.1932,1.4858,rough,14.0,1,1.893
600,19.20,-0.5614,6.9386,-1.1983,0.1929,0.3385,1.2815,rough,14.0,1,1.680
610,19.52,-0.4124,7.2251,-1.2601,0.1120,0.0483,1.0556,rough,14.0,1,1.459
620,19.84,-0.2171,7.4472,-1.2207,0.2300,-0.2675,0.8716,rough,14.0,1,1.237
630,20.16,0.0464,7.6648,-1.1354,0.3282,-0.2621,0.6732,rough,14.0,1,0.985
640,20.48,0.3312,7.7785,-1.0790,0.5172,-0.2206,0.4306,rough,14.0,2,15.125
650,20.80,0.5962,7.7498,-1.0898,0.5645,0.0264,0.0189,rough,14.0,2,15.247
660,21.12,0.8527,7.6407,-1.1428,0.5718,0.1341,-0.3730,rough,14.0,2,15.302
670,21.44,1.0402,7.4677,-1.1789,0.5052,-0.0294,-0.7648,rough,14.0,2,15.269
680,21.76,1.2480,7.1999,-1.1956,0.4117,-0.0268,-0.9938,rough,14.0,2,15.177
690,22.08,1.3847,6.8710,-1.2094,0.4483,0.0435,-1.1793,rough,14.0,2,15.000
700,22.40,1.4747,6.4923,-1.2721,0.4469,0.1628,-1.3251,rough,14.0,2,14.761
710,22.72,1.4985,6.1214,-1.3375,0.3905,0.1016,-1.5636,rough,14.0,2,14.492
720,23.04,1.5405,5.7077,-1.3903,0.0287,0.0189,-1.6125,rough,14.0,2,14.207
730,23.36,1.5180,5.4043,-1.3504,-0.0419,-0.3178,-1.6547,rough,14.0,2,13.967
740,23.68,1.4994,5.1321,-1.2289,-0.0752,-0.6064,-1.6370,rough,14.0,2,13.754
750,24.00,1.5173,4.8686,-1.0806,-0.2769,-0.6358,-1.5662,rough,14.0,2,13.575
760,24.32,1.5307,4.6265,-0.9029,-0.2975,-0.6732,-1.5215,rough,14.0,2,13.411
770,24.64,1.5488,4.4067,-0.7360,-0.3089,-0.6447,-1.5384,rough,14.0,2,13.269
780,24.96,1.5638,4.1859,-0.5710,-0.3211,-0.6544,-1.5340,rough,14.0,2,13.125
790,25.28,1.5663,3.9348,-0.4015,-0.2761,-0.5726,-1.5550,rough,14.0,2,12.954
800,25.60,1.5642,3.6158,-0.2221,-0.2375,-0.4860,-1.6111,rough,14.0,2,12.737
810,25.92,1.6240,3.4980,-0.1713,-0.2881,-0.4930,-1.4361,rough,14.0,2,12.703
820,26.24,1.7070,3.3434,-0.1451,-0.3131,-0.3070,-1.3650,rough,14.0,2,12.664
830,26.56,1.7921,3.0470,-0.0740,-0.3280,-0.3104,-1.4773,rough,14.0,2,12.538
840,26.88,1.8178,2.7026,0.0239,-0.2424,-0.2233,-1.5504,rough,14.0,2,12.343
850,27.20,1.8186,2.3773,0.1171,-0.2150,-0.3542,-1.6035,rough,14.0,2,12.145
860,27.52,1.7716,2.0295,0.2027,-0.0756,-0.2417,-1.6561,rough,14.0,2,11.902
870,27.84,1.7255,1.6807,0.2763,-0.0378,-0.1582,-1.6956,rough,14.0,2,11.663
880,28.16,1.6622,1.3039,0.3275,0.0081,-0.1212,-1.8154,rough,14.0,2,11.401
890,28.48,1.5469,0.8955,0.3399,-0.0247,-0.0215,-1.9240,rough,14.0,2,11.086
900,28.80,1.3863,0.4951,0.3263,-0.0242,0.0926,-2.0455,rough,14.0,2,10.742
910,29.12,1.1761,0.1107,0.2832,0.0133,0.1051,-2.1094,rough,14.0,2,10.369
920,29.44,0.9401,-0.2482,0.2327,-0.0002,0.1117,-2.1874,rough,14.0,2,9.991
930,29.76,0.6974,-0.5933,0.1969,-0.0653,0.1045,-2.2585,rough,14.0,2,9.617
940,30.08,0.4328,-0.9192,0.1563,-0.0897,0.0916,-2.3184,rough,14.0,2,9.236
950,30.40,0.1233,-1.2476,0.1091,-0.1086,0.1632,-2.3749,rough,14.0,2,8.816
960,30.72,-0.1880,-1.5550,0.0377,-0.1755,0.1805,-2.4318,rough,14.0,2,8.407
970,31.04,-0.4893,-1.8164,-0.0001,-0.1599,-0.0131,-2.4421,rough,14.0,2,8.027
980,31.36,-0.8038,-2.0569,0.0201,-0.0709,-0.2118,-2.4589,rough,14.0,2,7.645
990,31.68,-1.1084,-2.3151,0.1010,-0.1406,-0.2854,-2.4734,rough,14.0,2,7.267
1000,32.00,-1.4761,-2.5258,0.1862,0.0810,-0.2249,-2.5120,rough,14.0,2,6.848
1010,32.32,-1.7660,-2.7129,0.3307,0.1296,-0.5438,-2.5571,rough,14.0,2,6.512
1020,32.64,-2.0008,-2.8626,0.5352,0.1604,-0.7606,-2.4892,rough,14.0,2,6.240
1030,32.96,-2.2329,-3.0066,0.7825,0.2699,-0.7776,-2.5048,rough,14.0,2,5.974
1040,33.28,-2.4546,-3.1219,0.9990,0.1910,-0.7669,-2.4034,rough,14.0,2,5.727
1050,33.60,-2.6398,-3.2632,1.1714,0.1207,-0.6284,-2.4270,rough,14.0,2,5.508
1060,33.92,-2.9648,-3.4622,1.3276,0.3575,-0.2946,-2.4597,rough,14.0,2,5.139
1070,34.24,-3.2700,-3.6830,1.4460,0.3743,-0.3896,-2.5297,rough,14.0,2,4.785
1080,34.56,-3.5768,-3.9398,1.5829,0.2097,-0.3873,-2.5571,rough,14.0,2,4.426
1090,34.88,-3.9582,-4.1310,1.6776,0.3780,-0.1757,-2.5927,rough,14.0,2,4.013
1100,35.20,-4.3191,-4.4626,1.6206,0.1714,0.2940,-2.4476,rough,14.0,2,3.604
1110,35.52,-4.6715,-4.7436,1.4344,-0.0241,0.3690,-2.6136,rough,14.0,2,3.227
1120,35.84,-4.9902,-4.9563,1.3270,-0.1400,0.1632,-2.6644,rough,14.0,2,2.904
1130,36.16,-5.3569,-5.1310,1.2865,-0.1385,0.0594,-2.7393,rough,14.0,2,2.547
1140,36.48,-5.7388,-5.2794,1.2707,-0.0904,-0.0254,-2.8199,rough,14.0,2,2.186
1150,36.80,-6.0442,-5.3915,1.3284,-0.0914,-0.3387,-2.8246,rough,14.0,2,1.911
1160,37.12,-6.2821,-5.4576,1.3999,0.0267,-0.3405,-2.9822,rough,14.0,2,1.701
1170,37.44,-6.2609,-5.4724,1.3827,0.0458,-0.2418,-3.1119,rough,14.0,2,1.726
1180,37.76,-6.2678,-5.4952,1.3849,0.0389,-0.2399,-3.0754,rough,14.0,2,1.727
1190,38.08,-6.2630,-5.5335,1.3856,0.0108,-0.2689,-3.0513,rough,14.0,2,1.745
1200,38.40,-6.2578,-5.5810,1.3881,-0.0101,-0.2939,-3.0374,rough,14.0,2,1.767
1210,38.72,-6.2571,-5.6269,1.3895,-0.0273,-0.3091,-3.0529,rough,14.0,2,1.785
1220,39.04,-6.2569,-5.6647,1.3911,-0.0414,-0.3246,-3.0670,rough,14.0,2,1.801
1230,39.36,-6.2583,-5.6947,1.3923,-0.0506,-0.3337,-3.0860,rough,14.0,2,1.813
1240,39.68,-6.2614,-5.7147,1.3935,-0.0535,-0.3383,-3.1102,rough,14.0,2,1.818
1250,40.00,-6.2664,-5.7225,1.3949,-0.0481,-0.3367,-3.1396,rough,14.0,2,1.817
1260,40.32,-6.2731,-5.7165,1.3964,-0.0338,-0.3283,3.1104,rough,14.0,2,1.809
1270,40.64,-6.2814,-5.6954,1.3978,-0.0105,-0.3126,3.0754,rough,14.0,2,1.792
1280,40.96,-6.2839,-5.6594,1.3974,0.0179,-0.2945,3.0417,rough,14.0,2,1.774
1290,41.28,-6.2812,-5.6274,1.3943,0.0238,-0.2785,3.0680,rough,14.0,2,1.764
1300,41.60,-6.2757,-5.6172,1.3940,0.0158,-0.2898,3.1098,rough,14.0,2,1.765
1310,41.92,-6.2752,-5.6123,1.3955,0.0175,-0.3003,3.1152,rough,14.0,2,1.763
1320,42.24,-6.2754,-5.6100,1.3931,0.0170,-0.2850,3.1173,rough,14.0,2,1.762
1330,42.56,-6.2735,-5.6102,1.3939,0.0139,-0.2946,3.1266,rough,14.0,2,1.764
1340,42.88,-6.2758,-5.6100,1.3934,0.0153,-0.2867,3.1255,rough,14.0,2,1.762
1350,43.20,-6.2760,-5.6096,1.3939,0.0160,-0.2895,3.1239,rough,14.0,2,1.761
1360,43.52,-6.2767,-5.6098,1.3944,0.0161,-0.2910,3.1245,rough,14.0,2,1.761
1370,43.84,-6.2771,-5.6109,1.3939,0.0155,-0.2873,3.1254,rough,14.0,2,1.761
1380,44.16,-6.2768,-5.6099,1.3929,0.0165,-0.2809,3.1208,rough,14.0,2,1.761
1390,44.48,-6.2766,-5.6099,1.3938,0.0162,-0.2870,3.1234,rough,14.0,2,1.761
1400,44.80,-6.2758,-5.6097,1.3936,0.0154,-0.2877,3.1243,rough,14.0,2,1.761
1410,45.12,-6.2749,-5.6090,1.3926,0.0158,-0.2827,3.1212,rough,14.0,2,1.762
1420,45.44,-6.2754,-5.6094,1.3922,0.0156,-0.2796,3.1233,rough,14.0,2,1.762
1430,45.76,-6.2678,-5.6101,1.3989,0.0088,-0.3390,-3.1357,rough,14.0,2,1.769
1440,46.08,-6.2664,-5.6097,1.3897,0.0009,-0.2846,-3.1202,rough,14.0,2,1.770
1450,46.40,-6.2726,-5.6087,1.3945,0.0135,-0.3004,3.1309,rough,14.0,2,1.764
1460,46.72,-6.2711,-5.6099,1.4006,0.0145,-0.3423,3.1321,rough,14.0,2,1.766
1470,47.04,-6.2724,-5.6099,1.3960,0.0147,-0.3096,3.1270,rough,14.0,2,1.765
1480,47.36,-6.2750,-5.6094,1.3909,0.0148,-0.2725,3.1231,rough,14.0,2,1.762
1490,47.68,-6.2763,-5.6095,1.3939,0.0155,-0.2886,3.1254,rough,14.0,2,1.761
1500,48.00,-6.2762,-5.6102,1.3946,0.0152,-0.2936,3.1269,rough,14.0,2,1.761
1510,48.32,-6.2743,-5.6099,1.3953,0.0148,-0.3017,3.1269,rough,14.0,2,1.763
1520,48.64,-6.2745,-5.6099,1.3933,0.0137,-0.2892,3.1279,rough,14.0,2,1.763
1530,48.96,-6.2766,-5.6094,1.3936,0.0160,-0.2860,3.1239,rough,14.0,2,1.761
1540,49.28,-6.2753,-5.6093,1.3950,0.0173,-0.2974,3.1206,rough,14.0,2,1.762
1550,49.60,-6.2659,-5.6083,1.4013,0.0080,-0.3587,-3.1289,rough,14.0,2,1.770
1560,49.92,-6.2720,-5.6089,1.3943,0.0127,-0.3000,3.1340,rough,14.0,2,1.765
1570,50.24,-6.2740,-5.6097,1.3947,0.0139,-0.2984,3.1296,rough,14.0,2,1.763
1580,50.56,-6.2755,-5.6096,1.3946,0.0156,-0.2947,3.1258,rough,14.0,2,1.762
1590,50.88,-6.2750,-5.6096,1.3950,0.0152,-0.2985,3.1260,rough,14.0,2,1.762
1600,51.20,-6.2770,-5.6098,1.3936,0.0163,-0.2855,3.1241,rough,14.0,2,1.760
1610,51.52,-6.2773,-5.6099,1.3937,0.0164,-0.2855,3.1237,rough,14.0,2,1.760
1620,51.84,-6.2760,-5.6109,1.3931,0.0143,-0.2848,3.1270,rough,14.0,2,1.762
1630,52.16,-6.2773,-5.6100,1.3925,0.0162,-0.2774,3.1222,rough,14.0,2,1.760
1640,52.48,-6.2757,-5.6099,1.3908,0.0150,-0.2704,3.1216,rough,14.0,2,1.762
1650,52.80,-6.2708,-5.6118,1.3936,0.0092,-0.2989,3.1388,rough,14.0,2,1.767
1660,53.12,-6.2717,-5.6098,1.3977,0.0134,-0.3223,3.1340,rough,14.0,2,1.765
1670,53.44,-6.2730,-5.6110,1.3905,0.0108,-0.2748,3.1347,rough,14.0,2,1.765
1680,53.76,-6.2714,-5.6095,1.3979,0.0128,-0.3246,3.1363,rough,14.0,2,1.765
1690,54.08,-6.2734,-5.6102,1.3983,0.0164,-0.3216,3.1248,rough,14.0,2,1.764
1700,54.40,-6.2752,-5.6097,1.3934,0.0152,-0.2875,3.1242,rough,14.0,2,1.762
1710,54.72,-6.2745,-5.6103,1.3958,0.0141,-0.3048,3.1291,rough,14.0,2,1.763
1720,55.04,-6.2752,-5.6096,1.3932,0.0154,-0.2863,3.1238,rough,14.0,2,1.762
1730,55.36,-6.2752,-5.6104,1.3942,0.0148,-0.2930,3.1263,rough,14.0,2,1.762
1740,55.68,-6.2749,-5.6108,1.3932,0.0139,-0.2877,3.1275,rough,14.0,2,1.763
1750,56.00,-6.2769,-5.6102,1.3947,0.0161,-0.2925,3.1248,rough,14.0,2,1.761
1760,56.32,-6.2751,-5.6094,1.3937,0.0169,-0.2890,3.1184,rough,14.0,2,1.762
1770,56.64,-6.2756,-5.6115,1.3937,0.0134,-0.2894,3.1302,rough,14.0,2,1.762
1780,56.96,-6.2770,-5.6123,1.3941,0.0147,-0.2888,3.1265,rough,14.0,2,1.761
1790,57.28,-6.2779,-5.6113,1.3942,0.0166,-0.2872,3.1223,rough,14.0,2,1.760
1800,57.60,-6.2753,-5.6098,1.3958,0.0176,-0.3022,3.1189,rough,14.0,2,1.762
1810,57.92,-6.2723,-5.6093,1.4015,0.0178,-0.3446,3.1240,rough,14.0,2,1.765
1820,58.24,-6.2739,-5.6102,1.3903,0.0140,-0.2709,3.1227,rough,14.0,2,1.763
1830,58.56,-6.2717,-5.6102,1.3985,0.0155,-0.3266,3.1264,rough,14.0,2,1.765
1840,58.88,-6.2739,-5.6092,1.3935,0.0164,-0.2901,3.1197,rough,14.0,2,1.763
1850,59.20,-6.2756,-5.6110,1.3936,0.0138,-0.2885,3.1293,rough,14.0,2,1.762
1860,59.52,-6.2773,-5.6113,1.3940,0.0155,-0.2879,3.1254,rough,14.0,2,1.761
1870,59.84,-6.2754,-5.6117,1.3916,0.0128,-0.2764,3.1288,rough,14.0,2,1.763
1880,60.16,-6.2776,-5.6108,1.3940,0.0164,-0.2868,3.1234,rough,14.0,2,1.760
1890,60.48,-6.2773,-5.6104,1.3928,0.0165,-0.2799,3.1216,rough,14.0,2,1.760
1900,60.80,-6.2747,-5.6104,1.3913,0.0143,-0.2755,3.1240,rough,14.0,2,1.763
1910,61.12,-6.2705,-5.6103,1.3988,0.0136,-0.3317,3.1325,rough,14.0,2,1.767
1920,61.44,-6.2725,-5.6107,1.3964,0.0139,-0.3122,3.1285,rough,14.0,2,1.765
1930,61.76,-6.2751,-5.6102,1.3934,0.0147,-0.2883,3.1260,rough,14.0,2,1.762
1940,62.08,-6.2751,-5.6102,1.3918,0.0138,-0.2780,3.1264,rough,14.0,2,1.762
1950,62.40,-6.2722,-5.6105,1.3988,0.0151,-0.3281,3.1280,rough,14.0,2,1.765
1960,62.72,-6.2752,-5.6096,1.3946,0.0160,-0.2948,3.1239,rough,14.0,2,1.762
1970,63.04,-6.2753,-5.6095,1.3950,0.0154,-0.2978,3.1253,rough,14.0,2,1.762
1980,63.36,-6.2744,-5.6098,1.3933,0.0144,-0.2888,3.1256,rough,14.0,2,1.763
1990,63.68,-6.2751,-5.6093,1.3937,0.0165,-0.2896,3.1218,rough,14.0,2,1.762
2000,64.00,-6.2746,-5.6093,1.3938,0.0162,-0.2913,3.1219,rough,14.0,2,1.762
2010,64.32,-6.2735,-5.6153,1.3934,0.0082,-0.2931,3.1399,rough,14.0,2,1.766
2020,64.64,-6.2759,-5.6183,1.3942,0.0107,-0.2930,3.1296,rough,14.0,2,1.765
2030,64.96,-6.2767,-5.6187,1.3944,0.0118,-0.2924,3.1256,rough,14.0,2,1.764
2040,65.28,-6.2777,-5.6172,1.3945,0.0141,-0.2905,3.1211,rough,14.0,2,1.763
2050,65.60,-6.2790,-5.6136,1.3946,0.0176,-0.2871,3.1161,rough,14.0,2,1.760
2060,65.92,-6.2775,-5.6111,1.3933,0.0171,-0.2821,3.1185,rough,14.0,2,1.761
2070,66.24,-6.2746,-5.6106,1.3951,0.0152,-0.2998,3.1242,rough,14.0,2,1.763
2080,66.56,-6.2759,-5.6097,1.3924,0.0154,-0.2799,3.1229,rough,14.0,2,1.761
2090,66.88,-6.2769,-5.6101,1.3937,0.0162,-0.2862,3.1236,rough,14.0,2,1.761
2100,67.20,-6.2772,-5.6102,1.3939,0.0163,-0.2868,3.1240,rough,14.0,2,1.760
2110,67.52,-6.2752,-5.6107,1.3930,0.0140,-0.2854,3.1276,rough,14.0,2,1.762
2120,67.84,-6.2756,-5.6111,1.3934,0.0141,-0.2871,3.1278,rough,14.0,2,1.762
2130,68.16,-6.2777,-5.6105,1.3941,0.0166,-0.2868,3.1235,rough,14.0,2,1.760
2140,68.48,-6.2762,-5.6099,1.3928,0.0154,-0.2816,3.1230,rough,14.0,2,1.761
2150,68.80,-6.2754,-5.6124,1.3934,0.0127,-0.2883,3.1304,rough,14.0,2,1.763
2160,69.12,-6.2769,-5.6131,1.3941,0.0142,-0.2891,3.1265,rough,14.0,2,1.762
2170,69.44,-6.2779,-5.6121,1.3942,0.0163,-0.2876,3.1222,rough,14.0,2,1.761
2180,69.76,-6.2754,-5.6117,1.3910,0.0130,-0.2730,3.1268,rough,14.0,2,1.763
2190,70.08,-6.2757,-5.6111,1.3932,0.0145,-0.2859,3.1265,rough,14.0,2,1.762
2200,70.40,-6.2759,-5.6109,1.3910,0.0137,-0.2714,3.1265,rough,14.0,2,1.762
2210,70.72,-6.2762,-5.6099,1.3933,0.0156,-0.2852,3.1239,rough,14.0,2,1.761
2220,71.04,-6.2769,-5.6106,1.3939,0.0157,-0.2873,3.1251,rough,14.0,2,1.761
2230,71.36,-6.2755,-5.6103,1.3922,0.0147,-0.2798,3.1236,rough,14.0,2,1.762
2240,71.68,-6.2681,-5.6107,1.4007,0.0098,-0.3500,-3.1377,rough,14.0,2,1.769
2250,72.00,-6.2655,-5.6100,1.3898,-0.0006,-0.2878,-3.1158,rough,14.0,2,1.771
2260,72.32,-6.2736,-5.6099,1.3931,0.0128,-0.2897,3.1330,rough,14.0,2,1.764
2270,72.64,-6.2762,-5.6119,1.3939,0.0137,-0.2893,3.1296,rough,14.0,2,1.762
2280,72.96,-6.2772,-5.6124,1.3941,0.0149,-0.2887,3.1258,rough,14.0,2,1.761
2290,73.28,-6.2781,-5.6111,1.3942,0.0170,-0.2869,3.1215,rough,14.0,2,1.760
2300,73.60,-6.2747,-5.6107,1.3929,0.0139,-0.2859,3.1262,rough,14.0,2,1.763
2310,73.92,-6.2746,-5.6098,1.3955,0.0159,-0.3021,3.1239,rough,14.0,2,1.763
2320,74.24,-6.2724,-5.6101,1.3966,0.0141,-0.3137,3.1285,rough,14.0,2,1.765
2330,74.56,-6.2754,-5.6096,1.3924,0.0162,-0.2805,3.1207,rough,14.0,2,1.762
2340,74.88,-6.2733,-5.6101,1.3956,0.0149,-0.3057,3.1256,rough,14.0,2,1.764
2350,75.20,-6.2748,-5.6095,1.3934,0.0148,-0.2887,3.1254,rough,14.0,2,1.762
2360,75.52,-6.2764,-5.6108,1.3937,0.0149,-0.2875,3.1267,rough,14.0,2,1.761
2370,75.84,-6.2758,-5.6108,1.3943,0.0146,-0.2926,3.1277,rough,14.0,2,1.762
2380,76.16,-6.2777,-5.6101,1.3939,0.0169,-0.2859,3.1230,rough,14.0,2,1.760
2390,76.48,-6.2755,-5.6101,1.3919,0.0150,-0.2780,3.1235,rough,14.0,2,1.762
2400,76.80,-6.2745,-5.6102,1.3932,0.0142,-0.2879,3.1272,rough,14.0,2,1.763
2410,77.12,-6.2760,-5.6098,1.3921,0.0151,-0.2780,3.1238,rough,14.0,2,1.761
2420,77.44,-6.2744,-5.6113,1.3935,0.0126,-0.2906,3.1310,rough,14.0,2,1.763
2430,77.76,-6.2768,-5.6121,1.3940,0.0145,-0.2889,3.1272,rough,14.0,2,1.762
2440,78.08,-6.2778,-5.6115,1.3942,0.0163,-0.2875,3.1230,rough,14.0,2,1.760
2450,78.40,-6.2769,-5.6109,1.3935,0.0158,-0.2852,3.1237,rough,14.0,2,1.761
2460,78.72,-6.2772,-5.6102,1.3935,0.0163,-0.2845,3.1232,rough,14.0,2,1.760
2470,79.04,-6.2766,-5.6094,1.3926,0.0174,-0.2791,3.1181,rough,14.0,2,1.761
2480,79.36,-6.2758,-5.6098,1.3939,0.0163,-0.2893,3.1225,rough,14.0,2,1.762
2490,79.68,-6.2759,-5.6099,1.3934,0.0157,-0.2861,3.1234,rough,14.0,2,1.761
2500,80.00,-6.2752,-5.6094,1.3912,0.0150,-0.2735,3.1217,rough,14.0,2,1.762
2510,80.32,-6.2748,-5.6095,1.3935,0.0149,-0.2895,3.1250,rough,14.0,2,1.762
2520,80.64,-6.2768,-5.6095,1.3925,0.0160,-0.2791,3.1232,rough,14.0,2,1.761
2530,80.96,-6.2753,-5.6099,1.3909,0.0145,-0.2716,3.1229,rough,14.0,2,1.762
2540,81.28,-6.2756,-5.6099,1.3927,0.0152,-0.2824,3.1237,rough,14.0,2,1.762
2550,81.60,-6.2747,-5.6108,1.3930,0.0133,-0.2866,3.1290,rough,14.0,2,1.763
2560,81.92,-6.2775,-5.6103,1.3940,0.0163,-0.2869,3.1242,rough,14.0,2,1.760
2570,82.24,-6.2759,-5.6112,1.3934,0.0142,-0.2869,3.1273,rough,14.0,2,1.762
2580,82.56,-6.2778,-5.6104,1.3941,0.0168,-0.2866,3.1230,rough,14.0,2,1.760
2590,82.88,-6.2745,-5.6107,1.3935,0.0144,-0.2897,3.1258,rough,14.0,2,1.763
2600,83.20,-6.2758,-5.6100,1.3936,0.0151,-0.2879,3.1253,rough,14.0,2,1.762
2610,83.52,-6.2767,-5.6105,1.3937,0.0154,-0.2871,3.1256,rough,14.0,2,1.761
2620,83.84,-6.2751,-5.6107,1.3940,0.0139,-0.2925,3.1285,rough,14.0,2,1.763
2630,84.16,-6.2776,-5.6100,1.3939,0.0167,-0.2859,3.1233,rough,14.0,2,1.760
2640,84.48,-6.2743,-5.6097,1.3954,0.0151,-0.3019,3.1255,rough,14.0,2,1.763
2650,84.80,-6.2758,-5.6093,1.3924,0.0158,-0.2803,3.1221,rough,14.0,2,1.761
2660,85.12,-6.2763,-5.6098,1.3942,0.0160,-0.2904,3.1239,rough,14.0,2,1.761
2670,85.44,-6.2755,-5.6097,1.3927,0.0157,-0.2828,3.1236,rough,14.0,2,1.762
2680,85.76,-6.2745,-5.6100,1.3930,0.0143,-0.2867,3.1264,rough,14.0,2,1.763
2690,86.08,-6.2746,-5.6110,1.3928,0.0130,-0.2862,3.1298,rough,14.0,2,1.763
2700,86.40,-6.2773,-5.6108,1.3940,0.0158,-0.2873,3.1249,rough,14.0,2,1.761
2710,86.72,-6.2752,-5.6105,1.3941,0.0144,-0.2924,3.1265,rough,14.0,2,1.762
2720,87.04,-6.2751,-5.6098,1.3929,0.0152,-0.2850,3.1235,rough,14.0,2,1.762
2730,87.36,-6.2764,-5.6105,1.3934,0.0151,-0.2854,3.1258,rough,14.0,2,1.761
2740,87.68,-6.2772,-5.6097,1.3928,0.0167,-0.2797,3.1221,rough,14.0,2,1.760
2750,88.00,-6.2743,-5.6097,1.3945,0.0162,-0.2957,3.1211,rough,14.0,2,1.763
2760,88.32,-6.2765,-5.6099,1.3936,0.0157,-0.2865,3.1258,rough,14.0,2,1.761
2770,88.64,-6.2764,-5.6111,1.3936,0.0146,-0.2867,3.1272,rough,14.0,2,1.761
2780,88.96,-6.2779,-5.6103,1.3941,0.0169,-0.2866,3.1229,rough,14.0,2,1.760
2790,89.28,-6.2777,-5.6101,1.3938,0.0168,-0.2850,3.1228,rough,14.0,2,1.760
2800,89.60,-6.2758,-5.6102,1.3935,0.0157,-0.2871,3.1235,rough,14.0,2,1.762
2810,89.92,-6.2737,-5.6102,1.3978,0.0157,-0.3186,3.1266,rough,14.0,2,1.764
2820,90.24,-6.2743,-5.6096,1.3945,0.0152,-0.2964,3.1255,rough,14.0,2,1.763
2830,90.56,-6.2748,-5.6097,1.3944,0.0150,-0.2948,3.1263,rough,14.0,2,1.762
2840,90.88,-6.2727,-5.6111,1.3941,0.0116,-0.2983,3.1342,rough,14.0,2,1.765
2850,91.20,-6.2750,-5.6097,1.3951,0.0154,-0.2988,3.1252,rough,14.0,2,1.762
2860,91.52,-6.2762,-5.6112,1.3937,0.0145,-0.2883,3.1275,rough,14.0,2,1.762
2870,91.84,-6.2777,-5.6105,1.3941,0.0166,-0.2870,3.1233,rough,14.0,2,1.760
2880,92.16,-6.2769,-5.6109,1.3939,0.0156,-0.2873,3.1249,rough,14.0,2,1.761
2890,92.48,-6.2769,-5.6103,1.3929,0.0159,-0.2812,3.1236,rough,14.0,2,1.761
2900,92.80,-6.2751,-5.6107,1.3931,0.0140,-0.2862,3.1275,rough,14.0,2,1.763
2910,93.12,-6.2756,-5.6111,1.3933,0.0141,-0.2866,3.1278,rough,14.0,2,1.762
2920,93.44,-6.2777,-5.6105,1.3940,0.0166,-0.2868,3.1235,rough,14.0,2,1.760
2930,93.76,-6.2769,-5.6113,1.3938,0.0152,-0.2871,3.1255,rough,14.0,2,1.761
2940,94.08,-6.2753,-5.6117,1.3918,0.0127,-0.2780,3.1292,rough,14.0,2,1.763
2950,94.40,-6.2775,-5.6111,1.3941,0.0161,-0.2873,3.1239,rough,14.0,2,1.760
2960,94.72,-6.2739,-5.6107,1.3970,0.0152,-0.3129,3.1259,rough,14.0,2,1.764
2970,95.04,-6.2754,-5.6107,1.3907,0.0135,-0.2710,3.1265,rough,14.0,2,1.762
2980,95.36,-6.2751,-5.6099,1.3935,0.0150,-0.2886,3.1251,rough,14.0,2,1.762
2990,95.68,-6.2744,-5.6109,1.3933,0.0132,-0.2891,3.1295,rough,14.0,2,1.763
3000,96.00,-6.2733,-5.6100,1.3959,0.0144,-0.3078,3.1293,rough,14.0,2,1.764
3010,96.32,-6.2741,-5.6098,1.3935,0.0148,-0.2904,3.1243,rough,14.0,2,1.763
3020,96.64,-6.2767,-5.6098,1.3938,0.0162,-0.2873,3.1242,rough,14.0,2,1.761
3030,96.96,-6.2769,-5.6108,1.3939,0.0154,-0.2877,3.1257,rough,14.0,2,1.761
3040,97.28,-6.2756,-5.6114,1.3930,0.0138,-0.2850,3.1283,rough,14.0,2,1.762
3050,97.60,-6.2776,-5.6108,1.3940,0.0164,-0.2869,3.1235,rough,14.0,2,1.760
3060,97.92,-6.2751,-5.6100,1.3934,0.0157,-0.2875,3.1217,rough,14.0,2,1.762
3070,98.24,-6.2719,-5.6097,1.3975,0.0137,-0.3209,3.1323,rough,14.0,2,1.765
3080,98.56,-6.2747,-5.6098,1.3934,0.0147,-0.2890,3.1263,rough,14.0,2,1.763
3090,98.88,-6.2759,-5.6110,1.3936,0.0143,-0.2882,3.1278,rough,14.0,2,1.762
3100,99.20,-6.2777,-5.6105,1.3941,0.0165,-0.2870,3.1237,rough,14.0,2,1.760
3110,99.52,-6.2760,-5.6096,1.3921,0.0157,-0.2777,3.1217,rough,14.0,2,1.761
3120,99.84,-6.2760,-5.6100,1.3934,0.0157,-0.2859,3.1243,rough,14.0,2,1.761
3130,100.16,-6.2751,-5.6106,1.3932,0.0143,-0.2869,3.1272,rough,14.0,2,1.762
3140,100.48,-6.2754,-5.6103,1.3944,0.0153,-0.2938,3.1260,rough,14.0,2,1.762
3150,100.80,-6.2729,-5.6107,1.3947,0.0133,-0.3009,3.1302,rough,14.0,2,1.765
3160,101.12,-6.2725,-5.6101,1.3984,0.0153,-0.3249,3.1279,rough,14.0,2,1.765
3170,101.44,-6.2735,-5.6102,1.3943,0.0149,-0.2969,3.1243,rough,14.0,2,1.764
3180,101.76,-6.2737,-5.6103,1.3924,0.0131,-0.2849,3.1286,rough,14.0,2,1.764
3190,102.08,-6.2768,-5.6098,1.3944,0.0161,-0.2907,3.1249,rough,14.0,2,1.761
3200,102.40,-6.2748,-5.6104,1.3935,0.0144,-0.2895,3.1275,rough,14.0,2,1.763
3210,102.72,-6.2749,-5.6096,1.3941,0.0153,-0.2929,3.1246,rough,14.0,2,1.762
3220,103.04,-6.2752,-5.6103,1.3940,0.0144,-0.2919,3.1281,rough,14.0,2,1.762
3230,103.36,-6.2758,-5.6100,1.3936,0.0155,-0.2878,3.1250,rough,14.0,2,1.762
3240,103.68,-6.2757,-5.6103,1.3929,0.0149,-0.2835,3.1256,rough,14.0,2,1.762
3250,104.00,-6.2760,-5.6097,1.3937,0.0159,-0.2877,3.1239,rough,14.0,2,1.761
3260,104.32,-6.2767,-5.6098,1.3944,0.0161,-0.2909,3.1245,rough,14.0,2,1.761
3270,104.64,-6.2769,-5.6112,1.3939,0.0152,-0.2881,3.1261,rough,14.0,2,1.761
3280,104.96,-6.2776,-5.6102,1.3946,0.0170,-0.2902,3.1224,rough,14.0,2,1.760
3290,105.28,-6.2757,-5.6109,1.3928,0.0143,-0.2837,3.1269,rough,14.0,2,1.762
3300,105.60,-6.2760,-5.6108,1.3907,0.0137,-0.2696,3.1265,rough,14.0,2,1.762
3310,105.92,-6.2743,-5.6105,1.3947,0.0138,-0.2980,3.1290,rough,14.0,2,1.763
3320,106.24,-6.2743,-5.6097,1.3955,0.0154,-0.3025,3.1248,rough,14.0,2,1.763
3330,106.56,-6.2751,-5.6095,1.3933,0.0155,-0.2870,3.1230,rough,14.0,2,1.762
3340,106.88,-6.2741,-5.6104,1.3903,0.0129,-0.2707,3.1271,rough,14.0,2,1.763
3350,107.20,-6.2745,-5.6098,1.3929,0.0144,-0.2858,3.1254,rough,14.0,2,1.763
3360,107.52,-6.2764,-5.6103,1.3935,0.0153,-0.2861,3.1257,rough,14.0,2,1.761
3370,107.84,-6.2737,-5.6116,1.3907,0.0110,-0.2747,3.1325,rough,14.0,2,1.764
3380,108.16,-6.2752,-5.6097,1.3933,0.0153,-0.2870,3.1244,rough,14.0,2,1.762
3390,108.48,-6.2736,-5.6097,1.3949,0.0152,-0.3004,3.1247,rough,14.0,2,1.763
3400,108.80,-6.2727,-5.6101,1.3962,0.0146,-0.3101,3.1268,rough,14.0,2,1.764
3410,109.12,-6.2747,-5.6096,1.3930,0.0150,-0.2859,3.1238,rough,14.0,2,1.762
3420,109.44,-6.2768,-5.6100,1.3937,0.0159,-0.2866,3.1247,rough,14.0,2,1.761
3430,109.76,-6.2768,-5.6096,1.3901,0.0155,-0.2634,3.1207,rough,14.0,2,1.761
3440,110.08,-6.2757,-5.6108,1.3934,0.0142,-0.2869,3.1274,rough,14.0,2,1.762
3450,110.40,-6.2776,-5.6100,1.3940,0.0167,-0.2867,3.1232,rough,14.0,2,1.760
3460,110.72,-6.2771,-5.6110,1.3938,0.0155,-0.2867,3.1251,rough,14.0,2,1.761
3470,111.04,-6.2755,-5.6106,1.3954,0.0148,-0.3002,3.1271,rough,14.0,2,1.762
3480,111.36,-6.2754,-5.6101,1.3935,0.0156,-0.2880,3.1236,rough,14.0,2,1.762
3490,111.68,-6.2754,-5.6101,1.3925,0.0156,-0.2817,3.1226,rough,14.0,2,1.762
3500,112.00,-6.2760,-5.6098,1.3926,0.0156,-0.2808,3.1228,rough,14.0,2,1.761
3510,112.32,-6.2762,-5.6098,1.3937,0.0155,-0.2878,3.1246,rough,14.0,2,1.761
3520,112.64,-6.2770,-5.6104,1.3937,0.0158,-0.2862,3.1250,rough,14.0,2,1.761
3530,112.96,-6.2751,-5.6101,1.3928,0.0146,-0.2844,3.1251,rough,14.0,2,1.762
3540,113.28,-6.2737,-5.6107,1.3936,0.0132,-0.2924,3.1289,rough,14.0,2,1.764
3550,113.60,-6.2774,-5.6101,1.3938,0.0165,-0.2859,3.1235,rough,14.0,2,1.760
3560,113.92,-6.2753,-5.6111,1.3932,0.0143,-0.2868,3.1268,rough,14.0,2,1.762
3570,114.24,-6.2760,-5.6110,1.3904,0.0135,-0.2677,3.1268,rough,14.0,2,1.762
3580,114.56,-6.2746,-5.6108,1.3931,0.0139,-0.2875,3.1273,rough,14.0,2,1.763
3590,114.88,-6.2762,-5.6094,1.3917,0.0157,-0.2749,3.1217,rough,14.0,2,1.761
3600,115.20,-6.2757,-5.6090,1.3928,0.0165,-0.2825,3.1214,rough,14.0,2,1.761
3610,115.52,-6.2707,-5.6106,1.4010,0.0146,-0.3452,3.1311,rough,14.0,2,1.767
3620,115.84,-6.2732,-5.6104,1.3923,0.0126,-0.2858,3.1301,rough,14.0,2,1.764
3630,116.16,-6.2769,-5.6106,1.3938,0.0155,-0.2874,3.1259,rough,14.0,2,1.761
3640,116.48,-6.2765,-5.6106,1.3922,0.0149,-0.2776,3.1256,rough,14.0,2,1.761
3650,116.80,-6.2761,-5.6098,1.3938,0.0155,-0.2884,3.1242,rough,14.0,2,1.761
3660,117.12,-6.2772,-5.6103,1.3938,0.0161,-0.2863,3.1244,rough,14.0,2,1.760
3670,117.44,-6.2758,-5.6092,1.3936,0.0164,-0.2873,3.1212,rough,14.0,2,1.761
3680,117.76,-6.2754,-5.6098,1.3935,0.0149,-0.2883,3.1259,rough,14.0,2,1.762
3690,118.08,-6.2758,-5.6095,1.3926,0.0150,-0.2814,3.1241,rough,14.0,2,1.761
3700,118.40,-6.2738,-5.6098,1.3958,0.0157,-0.3058,3.1246,rough,14.0,2,1.763
3710,118.72,-6.2745,-5.6098,1.3920,0.0148,-0.2804,3.1241,rough,14.0,2,1.763
3720,119.04,-6.2747,-5.6095,1.3918,0.0151,-0.2784,3.1230,rough,14.0,2,1.762
3730,119.36,-6.2748,-5.6096,1.3945,0.0153,-0.2954,3.1248,rough,14.0,2,1.762
3740,119.68,-6.2770,-5.6102,1.3937,0.0161,-0.2863,3.1245,rough,14.0,2,1.761
3750,120.00,-6.2769,-5.6106,1.3937,0.0156,-0.2863,3.1252,rough,14.0,2,1.761
3760,120.32,-6.2751,-5.6107,1.3941,0.0140,-0.2928,3.1283,rough,14.0,2,1.763
3770,120.64,-6.2776,-5.6100,1.3939,0.0168,-0.2859,3.1231,rough,14.0,2,1.760
3780,120.96,-6.2745,-5.6101,1.3949,0.0151,-0.2989,3.1251,rough,14.0,2,1.763
3790,121.28,-6.2722,-5.6103,1.3989,0.0154,-0.3283,3.1269,rough,14.0,2,1.765
3800,121.60,-6.2737,-5.6099,1.3945,0.0146,-0.2979,3.1270,rough,14.0,2,1.764
3810,121.92,-6.2753,-5.6094,1.3907,0.0158,-0.2701,3.1201,rough,14.0,2,1.762
3820,122.24,-6.2750,-5.6090,1.3925,0.0154,-0.2824,3.1225,rough,14.0,2,1.762
3830,122.56,-6.2734,-5.6097,1.3960,0.0146,-0.3076,3.1279,rough,14.0,2,1.764
3840,122.88,-6.2748,-5.6097,1.3935,0.0149,-0.2890,3.1253,rough,14.0,2,1.762
3850,123.20,-6.2760,-5.6106,1.3936,0.0147,-0.2874,3.1269,rough,14.0,2,1.762
3860,123.52,-6.2772,-5.6098,1.3928,0.0163,-0.2798,3.1224,rough,14.0,2,1.760
3870,123.84,-6.2752,-5.6095,1.3927,0.0156,-0.2829,3.1228,rough,14.0,2,1.762
3880,124.16,-6.2752,-5.6100,1.3934,0.0148,-0.2881,3.1259,rough,14.0,2,1.762
3890,124.48,-6.2747,-5.6107,1.3916,0.0132,-0.2777,3.1281,rough,14.0,2,1.763
3900,124.80,-6.2761,-5.6105,1.3921,0.0146,-0.2778,3.1264,rough,14.0,2,1.762
3910,125.12,-6.2746,-5.6100,1.3936,0.0144,-0.2900,3.1259,rough,14.0,2,1.763
3920,125.44,-6.2751,-5.6100,1.3943,0.0151,-0.2940,3.1255,rough,14.0,2,1.762
3930,125.76,-6.2736,-5.6111,1.3919,0.0116,-0.2823,3.1314,rough,14.0,2,1.764
3940,126.08,-6.2753,-5.6103,1.3944,0.0143,-0.2939,3.1276,rough,14.0,2,1.762
3950,126.40,-6.2766,-5.6100,1.3932,0.0156,-0.2840,3.1248,rough,14.0,2,1.761
3960,126.72,-6.2748,-5.6098,1.3955,0.0156,-0.3014,3.1244,rough,14.0,2,1.762
3970,127.04,-6.2736,-5.6096,1.3944,0.0148,-0.2970,3.1248,rough,14.0,2,1.763
3980,127.36,-6.2755,-5.6097,1.3928,0.0151,-0.2831,3.1245,rough,14.0,2,1.762
3990,127.68,-6.2765,-5.6105,1.3935,0.0151,-0.2862,3.1260,rough,14.0,2,1.761
4000,128.00,-6.2757,-5.6099,1.3956,0.0157,-0.3004,3.1254,rough,14.0,2,1.762
4010,128.32,-6.2764,-5.6093,1.3916,0.0160,-0.2736,3.1212,rough,14.0,2,1.761
4020,128.64,-6.2765,-5.6104,1.3937,0.0153,-0.2871,3.1259,rough,14.0,2,1.761
4030,128.96,-6.2756,-5.6113,1.3936,0.0140,-0.2885,3.1281,rough,14.0,2,1.762
4040,129.28,-6.2775,-5.6109,1.3941,0.0162,-0.2873,3.1240,rough,14.0,2,1.760
4050,129.60,-6.2749,-5.6105,1.3937,0.0145,-0.2905,3.1255,rough,14.0,2,1.763
4060,129.92,-6.2738,-5.6104,1.3924,0.0132,-0.2846,3.1282,rough,14.0,2,1.764
4070,130.24,-6.2755,-5.6105,1.3958,0.0148,-0.3025,3.1287,rough,14.0,2,1.762
4080,130.56,-6.2763,-5.6095,1.3902,0.0163,-0.2649,3.1184,rough,14.0,2,1.761
4090,130.88,-6.2751,-5.6100,1.3912,0.0141,-0.2741,3.1238,rough,14.0,2,1.762
4100,131.20,-6.2749,-5.6093,1.3924,0.0153,-0.2818,3.1222,rough,14.0,2,1.762
4110,131.52,-6.2725,-5.6098,1.3963,0.0140,-0.3117,3.1305,rough,14.0,2,1.765
4120,131.84,-6.2753,-5.6100,1.3935,0.0147,-0.2883,3.1263,rough,14.0,2,1.762
4130,132.16,-6.2767,-5.6095,1.3892,0.0151,-0.2585,3.1211,rough,14.0,2,1.761
4140,132.48,-6.2735,-5.6102,1.3941,0.0132,-0.2960,3.1296,rough,14.0,2,1.764
4150,132.80,-6.2761,-5.6100,1.3932,0.0155,-0.2845,3.1250,rough,14.0,2,1.761
4160,133.12,-6.2755,-5.6108,1.3929,0.0140,-0.2845,3.1276,rough,14.0,2,1.762
4170,133.44,-6.2771,-5.6102,1.3946,0.0163,-0.2913,3.1244,rough,14.0,2,1.760
4180,133.76,-6.2739,-5.6104,1.3963,0.0151,-0.3089,3.1263,rough,14.0,2,1.763
4190,134.08,-6.2759,-5.6114,1.3937,0.0139,-0.2888,3.1289,rough,14.0,2,1.762
4200,134.40,-6.2774,-5.6115,1.3941,0.0156,-0.2879,3.1249,rough,14.0,2,1.761
4210,134.72,-6.2770,-5.6103,1.3939,0.0163,-0.2872,3.1223,rough,14.0,2,1.761
4220,135.04,-6.2758,-5.6103,1.3935,0.0149,-0.2872,3.1256,rough,14.0,2,1.762
4230,135.36,-6.2753,-5.6101,1.3922,0.0146,-0.2798,3.1239,rough,14.0,2,1.762
4240,135.68,-6.2724,-5.6104,1.3965,0.0148,-0.3128,3.1269,rough,14.0,2,1.765
4250,136.00,-6.2746,-5.6097,1.3922,0.0152,-0.2815,3.1230,rough,14.0,2,1.763
4260,136.32,-6.2740,-5.6104,1.3937,0.0132,-0.2925,3.1294,rough,14.0,2,1.763
4270,136.64,-6.2759,-5.6102,1.3936,0.0152,-0.2878,3.1253,rough,14.0,2,1.762
4280,136.96,-6.2768,-5.6099,1.3928,0.0162,-0.2804,3.1223,rough,14.0,2,1.761
4290,137.28,-6.2754,-5.6101,1.3923,0.0152,-0.2803,3.1245,rough,14.0,2,1.762
4300,137.60,-6.2714,-5.6092,1.3995,0.0146,-0.3339,3.1319,rough,14.0,2,1.765
4310,137.92,-6.2670,-5.6101,1.4002,0.0086,-0.3493,-3.1347,rough,14.0,2,1.770
4320,138.24,-6.2732,-5.6093,1.3892,0.0123,-0.2654,3.1266,rough,14.0,2,1.764
4330,138.56,-6.2741,-5.6092,1.3911,0.0147,-0.2752,3.1251,rough,14.0,2,1.763
4340,138.88,-6.2739,-5.6086,1.3939,0.0165,-0.2926,3.1222,rough,14.0,2,1.763
4350,139.20,-6.2738,-5.6078,1.3967,0.0188,-0.3095,3.1180,rough,14.0,2,1.763
4360,139.52,-6.2701,-5.6106,1.3984,0.0123,-0.3300,3.1348,rough,14.0,2,1.767
4370,139.84,-6.2746,-5.6061,1.3912,0.0167,-0.2740,3.1219,rough,14.0,2,1.761
4380,140.16,-6.2740,-5.6092,1.3925,0.0132,-0.2852,3.1311,rough,14.0,2,1.763
4390,140.48,-6.2763,-5.6094,1.3937,0.0157,-0.2877,3.1261,rough,14.0,2,1.761
4400,140.80,-6.2742,-5.6101,1.3960,0.0146,-0.3068,3.1284,rough,14.0,2,1.763
4410,141.12,-6.2754,-5.6096,1.3936,0.0153,-0.2887,3.1244,rough,14.0,2,1.762
4420,141.44,-6.2755,-5.6097,1.3928,0.0151,-0.2831,3.1237,rough,14.0,2,1.762
4430,141.76,-6.2747,-5.6100,1.3931,0.0141,-0.2873,3.1268,rough,14.0,2,1.763
4440,142.08,-6.2750,-5.6096,1.3946,0.0157,-0.2959,3.1243,rough,14.0,2,1.762
4450,142.40,-6.2748,-5.6108,1.3928,0.0133,-0.2858,3.1291,rough,14.0,2,1.763
4460,142.72,-6.2775,-5.6101,1.3940,0.0166,-0.2867,3.1238,rough,14.0,2,1.760
4470,143.04,-6.2748,-5.6092,1.3956,0.0173,-0.3017,3.1197,rough,14.0,2,1.762
4480,143.36,-6.2721,-5.6114,1.3915,0.0100,-0.2832,3.1367,rough,14.0,2,1.766
4490,143.68,-6.2769,-5.6107,1.3939,0.0156,-0.2875,3.1256,rough,14.0,2,1.761
4500,144.00,-6.2769,-5.6099,1.3922,0.0160,-0.2765,3.1218,rough,14.0,2,1.761
4510,144.32,-6.2769,-5.6100,1.3939,0.0161,-0.2875,3.1243,rough,14.0,2,1.761
4520,144.64,-6.2761,-5.6110,1.3936,0.0145,-0.2872,3.1270,rough,14.0,2,1.762
4530,144.96,-6.2774,-5.6102,1.3946,0.0166,-0.2907,3.1235,rough,14.0,2,1.760
4540,145.28,-6.2761,-5.6106,1.3933,0.0150,-0.2857,3.1256,rough,14.0,2,1.762
4550,145.60,-6.2759,-5.6097,1.3947,0.0159,-0.2941,3.1241,rough,14.0,2,1.761
4560,145.92,-6.2759,-5.6106,1.3954,0.0150,-0.2993,3.1277,rough,14.0,2,1.762
4570,146.24,-6.2750,-5.6098,1.3933,0.0145,-0.2876,3.1252,rough,14.0,2,1.762
4580,146.56,-6.2749,-5.6099,1.3913,0.0140,-0.2754,3.1245,rough,14.0,2,1.762
4590,146.88,-6.2722,-5.6102,1.3993,0.0157,-0.3310,3.1266,rough,14.0,2,1.765
4600,147.20,-6.2727,-5.6110,1.3909,0.0108,-0.2776,3.1336,rough,14.0,2,1.765
4610,147.52,-6.2767,-5.6113,1.3939,0.0149,-0.2885,3.1268,rough,14.0,2,1.761
4620,147.84,-6.2779,-5.6104,1.3941,0.0169,-0.2868,3.1226,rough,14.0,2,1.760
4630,148.16,-6.2766,-5.6097,1.3925,0.0159,-0.2792,3.1223,rough,14.0,2,1.761
4640,148.48,-6.2745,-5.6102,1.3926,0.0137,-0.2845,3.1270,rough,14.0,2,1.763
4650,148.80,-6.2747,-5.6096,1.3952,0.0157,-0.2999,3.1245,rough,14.0,2,1.763
4660,149.12,-6.2719,-5.6114,1.3945,0.0114,-0.3021,3.1352,rough,14.0,2,1.766
4670,149.44,-6.2710,-5.6113,1.3925,0.0088,-0.2919,3.1416,rough,14.0,2,1.767
4680,149.76,-6.2747,-5.6083,1.3935,0.0167,-0.2889,3.1224,rough,14.0,2,1.762
4690,150.08,-6.2695,-5.6086,1.3998,0.0133,-0.3403,3.1365,rough,14.0,2,1.767
4700,150.40,-6.2709,-5.6094,1.3949,0.0124,-0.3058,3.1333,rough,14.0,2,1.766
4710,150.72,-6.2727,-5.6089,1.3957,0.0154,-0.3071,3.1255,rough,14.0,2,1.764
4720,151.04,-6.2739,-5.6097,1.3944,0.0154,-0.2964,3.1251,rough,14.0,2,1.763
4730,151.36,-6.2763,-5.6076,1.3907,0.0185,-0.2671,3.1134,rough,14.0,2,1.760
4740,151.68,-6.2748,-5.6094,1.3918,0.0145,-0.2785,3.1244,rough,14.0,2,1.762
4750,152.00,-6.2757,-5.6101,1.3935,0.0150,-0.2875,3.1263,rough,14.0,2,1.762
4760,152.32,-6.2752,-5.6096,1.3952,0.0158,-0.2989,3.1244,rough,14.0,2,1.762
4770,152.64,-6.2738,-5.6101,1.3950,0.0143,-0.3009,3.1272,rough,14.0,2,1.764
4780,152.96,-6.2760,-5.6100,1.3936,0.0152,-0.2875,3.1257,rough,14.0,2,1.761
4790,153.28,-6.2753,-5.6110,1.3932,0.0138,-0.2865,3.1282,rough,14.0,2,1.762
4800,153.60,-6.2776,-5.6104,1.3940,0.0164,-0.2868,3.1239,rough,14.0,2,1.760
4810,153.92,-6.2740,-5.6107,1.3910,0.0127,-0.2754,3.1281,rough,14.0,2,1.764
4820,154.24,-6.2760,-5.6102,1.3915,0.0150,-0.2739,3.1228,rough,14.0,2,1.762
4830,154.56,-6.2762,-5.6102,1.3917,0.0160,-0.2749,3.1200,rough,14.0,2,1.761
4840,154.88,-6.2738,-5.6103,1.3950,0.0148,-0.3004,3.1254,rough,14.0,2,1.764
4850,155.20,-6.2727,-5.6103,1.3967,0.0148,-0.3137,3.1269,rough,14.0,2,1.765
4860,155.52,-6.2737,-5.6100,1.3969,0.0155,-0.3128,3.1262,rough,14.0,2,1.764
4870,155.84,-6.2750,-5.6098,1.3930,0.0149,-0.2856,3.1253,rough,14.0,2,1.762
4880,156.16,-6.2744,-5.6097,1.3956,0.0153,-0.3030,3.1252,rough,14.0,2,1.763
4890,156.48,-6.2755,-5.6098,1.3919,0.0149,-0.2774,3.1237,rough,14.0,2,1.762
4900,156.80,-6.2749,-5.6109,1.3925,0.0132,-0.2832,3.1290,rough,14.0,2,1.763
4910,157.12,-6.2776,-5.6101,1.3940,0.0166,-0.2863,3.1237,rough,14.0,2,1.760
4920,157.44,-6.2734,-5.6121,1.3881,0.0094,-0.2591,3.1335,rough,14.0,2,1.765
4930,157.76,-6.2743,-5.6107,1.3905,0.0133,-0.2716,3.1262,rough,14.0,2,1.763
4940,158.08,-6.2742,-5.6100,1.3932,0.0139,-0.2886,3.1268,rough,14.0,2,1.763
4950,158.40,-6.2742,-5.6106,1.3931,0.0135,-0.2885,3.1287,rough,14.0,2,1.763
4960,158.72,-6.2751,-5.6109,1.3913,0.0137,-0.2753,3.1260,rough,14.0,2,1.763
4970,159.04,-6.2745,-5.6099,1.3956,0.0155,-0.3029,3.1246,rough,14.0,2,1.763
4980,159.36,-6.2747,-5.6102,1.3930,0.0144,-0.2867,3.1263,rough,14.0,2,1.763
4990,159.68,-6.2755,-5.6098,1.3930,0.0147,-0.2850,3.1255,rough,14.0,2,1.762
5000,160.00,-6.2720,-5.6105,1.3972,0.0134,-0.3188,3.1317,rough,14.0,2,1.765
5010,160.32,-6.2746,-5.6097,1.3902,0.0143,-0.2687,3.1230,rough,14.0,2,1.763
5020,160.64,-6.2732,-5.6095,1.3949,0.0148,-0.3011,3.1253,rough,14.0,2,1.764
5030,160.96,-6.2749,-5.6103,1.3932,0.0140,-0.2873,3.1277,rough,14.0,2,1.763
5040,161.28,-6.2754,-5.6106,1.3944,0.0143,-0.2938,3.1289,rough,14.0,2,1.762
5050,161.60,-6.2774,-5.6106,1.3939,0.0161,-0.2868,3.1245,rough,14.0,2,1.760
5060,161.92,-6.2765,-5.6110,1.3932,0.0149,-0.2842,3.1259,rough,14.0,2,1.761
5070,162.24,-6.2742,-5.6107,1.3960,0.0139,-0.3067,3.1310,rough,14.0,2,1.763
5080,162.56,-6.2744,-5.6110,1.3911,0.0132,-0.2753,3.1268,rough,14.0,2,1.763
5090,162.88,-6.2753,-5.6098,1.3931,0.0155,-0.2858,3.1233,rough,14.0,2,1.762
5100,163.20,-6.2756,-5.6098,1.3940,0.0154,-0.2908,3.1246,rough,14.0,2,1.762
5110,163.52,-6.2771,-5.6103,1.3939,0.0161,-0.2872,3.1245,rough,14.0,2,1.761
5120,163.84,-6.2752,-5.6101,1.3941,0.0152,-0.2925,3.1256,rough,14.0,2,1.762
5130,164.16,-6.2737,-5.6109,1.3902,0.0118,-0.2710,3.1299,rough,14.0,2,1.764
5140,164.48,-6.2756,-5.6106,1.3934,0.0147,-0.2870,3.1264,rough,14.0,2,1.762
5150,164.80,-6.2763,-5.6100,1.3938,0.0156,-0.2883,3.1245,rough,14.0,2,1.761
5160,165.12,-6.2765,-5.6093,1.3888,0.0158,-0.2557,3.1177,rough,14.0,2,1.761
5170,165.44,-6.2755,-5.6095,1.3927,0.0153,-0.2829,3.1240,rough,14.0,2,1.762
5180,165.76,-6.2733,-5.6092,1.3971,0.0163,-0.3143,3.1242,rough,14.0,2,1.764
5190,166.08,-6.2677,-5.6121,1.3906,0.0025,-0.2876,-3.1284,rough,14.0,2,1.770
5200,166.40,-6.2741,-5.6095,1.3950,0.0151,-0.3003,3.1270,rough,14.0,2,1.763
5210,166.72,-6.2748,-5.6104,1.3930,0.0140,-0.2863,3.1276,rough,14.0,2,1.763
5220,167.04,-6.2760,-5.6103,1.3937,0.0149,-0.2880,3.1268,rough,14.0,2,1.762
5230,167.36,-6.2764,-5.6098,1.3941,0.0156,-0.2898,3.1247,rough,14.0,2,1.761
5240,167.68,-6.2771,-5.6106,1.3938,0.0158,-0.2867,3.1250,rough,14.0,2,1.761
5250,168.00,-6.2771,-5.6103,1.3939,0.0161,-0.2872,3.1244,rough,14.0,2,1.761
5260,168.32,-6.2764,-5.6096,1.3933,0.0160,-0.2844,3.1225,rough,14.0,2,1.761
5270,168.64,-6.2759,-5.6097,1.3934,0.0157,-0.2865,3.1241,rough,14.0,2,1.761
5280,168.96,-6.2766,-5.6097,1.3942,0.0160,-0.2901,3.1247,rough,14.0,2,1.761
5290,169.28,-6.2770,-5.6109,1.3939,0.0155,-0.2871,3.1256,rough,14.0,2,1.761
5300,169.60,-6.2768,-5.6098,1.3927,0.0164,-0.2801,3.1208,rough,14.0,2,1.761
5310,169.92,-6.2766,-5.6100,1.3935,0.0160,-0.2857,3.1241,rough,14.0,2,1.761
5320,170.24,-6.2754,-5.6098,1.3917,0.0151,-0.2763,3.1227,rough,14.0,2,1.762
5330,170.56,-6.2747,-5.6098,1.3943,0.0145,-0.2949,3.1261,rough,14.0,2,1.763
5340,170.88,-6.2763,-5.6106,1.3936,0.0150,-0.2872,3.1263,rough,14.0,2,1.761
5350,171.20,-6.2760,-5.6100,1.3945,0.0153,-0.2929,3.1257,rough,14.0,2,1.761
5360,171.52,-6.2753,-5.6109,1.3909,0.0128,-0.2724,3.1289,rough,14.0,2,1.762
5370,171.84,-6.2768,-5.6102,1.3946,0.0158,-0.2924,3.1252,rough,14.0,2,1.761
5380,172.16,-6.2753,-5.6096,1.3950,0.0157,-0.2976,3.1240,rough,14.0,2,1.762
5390,172.48,-6.2755,-5.6096,1.3934,0.0157,-0.2868,3.1235,rough,14.0,2,1.762
5400,172.80,-6.2733,-5.6119,1.3929,0.0109,-0.2895,3.1346,rough,14.0,2,1.765
5410,173.12,-6.2760,-5.6138,1.3939,0.0126,-0.2904,3.1302,rough,14.0,2,1.763
5420,173.44,-6.2769,-5.6145,1.3942,0.0137,-0.2900,3.1263,rough,14.0,2,1.762
5430,173.76,-6.2778,-5.6134,1.3943,0.0157,-0.2884,3.1220,rough,14.0,2,1.761
5440,174.08,-6.2774,-5.6110,1.3942,0.0169,-0.2882,3.1198,rough,14.0,2,1.761
5450,174.40,-6.2778,-5.6105,1.3940,0.0171,-0.2862,3.1215,rough,14.0,2,1.760
5460,174.72,-6.2754,-5.6113,1.3912,0.0131,-0.2742,3.1276,rough,14.0,2,1.763
5470,175.04,-6.2767,-5.6101,1.3942,0.0165,-0.2896,3.1230,rough,14.0,2,1.761
5480,175.36,-6.2757,-5.6102,1.3933,0.0153,-0.2864,3.1238,rough,14.0,2,1.762
5490,175.68,-6.2762,-5.6100,1.3937,0.0161,-0.2875,3.1227,rough,14.0,2,1.761
5500,176.00,-6.2742,-5.6095,1.3944,0.0154,-0.2960,3.1234,rough,14.0,2,1.763
5510,176.32,-6.2768,-5.6101,1.3938,0.0160,-0.2872,3.1247,rough,14.0,2,1.761
5520,176.64,-6.2762,-5.6096,1.3940,0.0163,-0.2896,3.1231,rough,14.0,2,1.761
5530,176.96,-6.2738,-5.6101,1.3941,0.0140,-0.2953,3.1277,rough,14.0,2,1.763
5540,177.28,-6.2742,-5.6105,1.3951,0.0141,-0.3005,3.1279,rough,14.0,2,1.763
5550,177.60,-6.2752,-5.6094,1.3906,0.0152,-0.2699,3.1209,rough,14.0,2,1.762
5560,177.92,-6.2766,-5.6090,1.3867,0.0157,-0.2425,3.1155,rough,14.0,2,1.760
5570,178.24,-6.2747,-5.6095,1.3905,0.0145,-0.2700,3.1223,rough,14.0,2,1.762
5580,178.56,-6.2708,-5.6097,1.3992,0.0144,-0.3336,3.1308,rough,14.0,2,1.766
5590,178.88,-6.2723,-5.6100,1.3975,0.0151,-0.3197,3.1276,rough,14.0,2,1.765
5600,179.20,-6.2711,-5.6101,1.3994,0.0155,-0.3340,3.1275,rough,14.0,2,1.766
5610,179.52,-6.2726,-5.6104,1.3923,0.0128,-0.2863,3.1281,rough,14.0,2,1.765
5620,179.84,-6.2749,-5.6093,1.3936,0.0162,-0.2890,3.1220,rough,14.0,2,1.762
5630,180.16,-6.2759,-5.6117,1.3938,0.0138,-0.2893,3.1290,rough,14.0,2,1.762
5640,180.48,-6.2773,-5.6118,1.3941,0.0154,-0.2881,3.1250,rough,14.0,2,1.761
5650,180.80,-6.2769,-5.6107,1.3937,0.0161,-0.2864,3.1225,rough,14.0,2,1.761
5660,181.12,-6.2755,-5.6104,1.3915,0.0144,-0.2755,3.1241,rough,14.0,2,1.762
5670,181.44,-6.2743,-5.6104,1.3961,0.0147,-0.3068,3.1274,rough,14.0,2,1.763
5680,181.76,-6.2769,-5.6099,1.3936,0.0162,-0.2857,3.1240,rough,14.0,2,1.761
5690,182.08,-6.2755,-5.6105,1.3933,0.0149,-0.2865,3.1244,rough,14.0,2,1.762
5700,182.40,-6.2758,-5.6097,1.3914,0.0153,-0.2738,3.1220,rough,14.0,2,1.761
5710,182.72,-6.2762,-5.6094,1.3932,0.0156,-0.2844,3.1236,rough,14.0,2,1.761
5720,183.04,-6.2739,-5.6103,1.3941,0.0141,-0.2952,3.1276,rough,14.0,2,1.763
5730,183.36,-6.2740,-5.6099,1.3936,0.0142,-0.2916,3.1269,rough,14.0,2,1.763
5740,183.68,-6.2725,-5.6104,1.3947,0.0130,-0.3018,3.1311,rough,14.0,2,1.765
5750,184.00,-6.2757,-5.6093,1.3940,0.0173,-0.2895,3.1202,rough,14.0,2,1.761
5760,184.32,-6.2663,-5.6093,1.3961,0.0046,-0.3249,-3.1241,rough,14.0,2,1.770
5770,184.64,-6.2744,-5.6095,1.3936,0.0141,-0.2911,3.1291,rough,14.0,2,1.763
5780,184.96,-6.2754,-5.6095,1.3934,0.0148,-0.2873,3.1259,rough,14.0,2,1.762
5790,185.28,-6.2740,-5.6104,1.3945,0.0132,-0.2975,3.1306,rough,14.0,2,1.763
5800,185.60,-6.2769,-5.6109,1.3940,0.0153,-0.2880,3.1260,rough,14.0,2,1.761
5810,185.92,-6.2767,-5.6103,1.3945,0.0164,-0.2918,3.1236,rough,14.0,2,1.761
5820,186.24,-6.2751,-5.6105,1.3952,0.0151,-0.2994,3.1258,rough,14.0,2,1.762
5830,186.56,-6.2754,-5.6097,1.3919,0.0147,-0.2777,3.1239,rough,14.0,2,1.762
5840,186.88,-6.2759,-5.6097,1.3932,0.0157,-0.2849,3.1240,rough,14.0,2,1.761
5850,187.20,-6.2744,-5.6103,1.3957,0.0145,-0.3039,3.1282,rough,14.0,2,1.763
5860,187.52,-6.2721,-5.6107,1.3931,0.0114,-0.2927,3.1339,rough,14.0,2,1.765
5870,187.84,-6.2739,-5.6102,1.3920,0.0134,-0.2821,3.1271,rough,14.0,2,1.763
5880,188.16,-6.2757,-5.6102,1.3933,0.0151,-0.2865,3.1255,rough,14.0,2,1.762
5890,188.48,-6.2750,-5.6101,1.3937,0.0148,-0.2901,3.1258,rough,14.0,2,1.762
5900,188.80,-6.2763,-5.6096,1.3925,0.0154,-0.2795,3.1236,rough,14.0,2,1.761
5910,189.12,-6.2756,-5.6096,1.3918,0.0153,-0.2765,3.1227,rough,14.0,2,1.762
5920,189.44,-6.2698,-5.6107,1.3971,0.0108,-0.3231,3.1388,rough,14.0,2,1.767
5930,189.76,-6.2731,-5.6101,1.3961,0.0147,-0.3093,3.1279,rough,14.0,2,1.764
5940,190.08,-6.2747,-5.6095,1.3927,0.0146,-0.2841,3.1244,rough,14.0,2,1.762
5950,190.40,-6.2761,-5.6104,1.3937,0.0148,-0.2884,3.1269,rough,14.0,2,1.762
5960,190.72,-6.2767,-5.6100,1.3908,0.0154,-0.2682,3.1217,rough,14.0,2,1.761
5970,191.04,-6.2747,-5.6095,1.3931,0.0151,-0.2869,3.1233,rough,14.0,2,1.762
5980,191.36,-6.2744,-5.6096,1.3952,0.0155,-0.3007,3.1247,rough,14.0,2,1.763
5990,191.68,-6.2741,-5.6101,1.3952,0.0157,-0.3007,3.1225,rough,14.0,2,1.763
6000,192.00,-6.2728,-5.6110,1.3900,0.0111,-0.2720,3.1305,rough,14.0,2,1.765
6010,192.32,-6.2680,-5.6091,1.4014,0.0111,-0.3544,-3.1388,rough,14.0,2,1.768
6020,192.64,-6.2651,-5.6086,1.3947,0.0026,-0.3190,-3.1184,rough,14.0,2,1.771
6030,192.96,-6.2742,-5.6083,1.3933,0.0141,-0.2897,3.1303,rough,14.0,2,1.762
6040,193.28,-6.2749,-5.6091,1.3934,0.0148,-0.2886,3.1265,rough,14.0,2,1.762
6050,193.60,-6.2745,-5.6108,1.3935,0.0132,-0.2906,3.1299,rough,14.0,2,1.763
6060,193.92,-6.2746,-5.6098,1.3942,0.0154,-0.2941,3.1240,rough,14.0,2,1.763
6070,194.24,-6.2747,-5.6100,1.3935,0.0144,-0.2892,3.1258,rough,14.0,2,1.763
6080,194.56,-6.2751,-5.6098,1.3936,0.0151,-0.2890,3.1247,rough,14.0,2,1.762
6090,194.88,-6.2761,-5.6097,1.3940,0.0155,-0.2898,3.1248,rough,14.0,2,1.761
6100,195.20,-6.2773,-5.6102,1.3938,0.0162,-0.2862,3.1244,rough,14.0,2,1.760
6110,195.52,-6.2757,-5.6097,1.3920,0.0163,-0.2770,3.1190,rough,14.0,2,1.762
6120,195.84,-6.2748,-5.6097,1.3919,0.0143,-0.2793,3.1245,rough,14.0,2,1.762
6130,196.16,-6.2732,-5.6114,1.3907,0.0106,-0.2757,3.1331,rough,14.0,2,1.765
6140,196.48,-6.2743,-5.6106,1.3957,0.0141,-0.3042,3.1292,rough,14.0,2,1.763
6150,196.80,-6.2725,-5.6106,1.3957,0.0135,-0.3079,3.1292,rough,14.0,2,1.765
6160,197.12,-6.2729,-5.6105,1.3939,0.0133,-0.2958,3.1297,rough,14.0,2,1.764
6170,197.44,-6.2769,-5.6105,1.3939,0.0158,-0.2872,3.1249,rough,14.0,2,1.761
6180,197.76,-6.2767,-5.6104,1.3934,0.0156,-0.2846,3.1247,rough,14.0,2,1.761
6190,198.08,-6.2772,-5.6100,1.3935,0.0164,-0.2840,3.1234,rough,14.0,2,1.760
6200,198.40,-6.2772,-5.6098,1.3941,0.0166,-0.2876,3.1232,rough,14.0,2,1.760
6210,198.72,-6.2757,-5.6105,1.3940,0.0148,-0.2908,3.1272,rough,14.0,2,1.762
6220,199.04,-6.2749,-5.6103,1.3922,0.0139,-0.2809,3.1260,rough,14.0,2,1.763
6230,199.36,-6.2766,-5.6100,1.3935,0.0159,-0.2854,3.1245,rough,14.0,2,1.761
6240,199.68,-6.2758,-5.6095,1.3925,0.0153,-0.2809,3.1236,rough,14.0,2,1.761
6250,200.00,-6.2749,-5.6097,1.3957,0.0149,-0.3029,3.1269,rough,14.0,2,1.762
6260,200.32,-6.2734,-5.6105,1.3920,0.0132,-0.2829,3.1268,rough,14.0,2,1.764
6270,200.64,-6.2754,-5.6107,1.3934,0.0142,-0.2877,3.1279,rough,14.0,2,1.762
6280,200.96,-6.2776,-5.6102,1.3940,0.0166,-0.2868,3.1238,rough,14.0,2,1.760
6290,201.28,-6.2759,-5.6098,1.3934,0.0158,-0.2865,3.1235,rough,14.0,2,1.761
6300,201.60,-6.2744,-5.6103,1.3928,0.0135,-0.2861,3.1280,rough,14.0,2,1.763
6310,201.92,-6.2754,-5.6104,1.3947,0.0149,-0.2959,3.1269,rough,14.0,2,1.762
6320,202.24,-6.2759,-5.6101,1.3935,0.0154,-0.2868,3.1248,rough,14.0,2,1.762
6330,202.56,-6.2757,-5.6109,1.3933,0.0143,-0.2865,3.1271,rough,14.0,2,1.762
6340,202.88,-6.2763,-5.6105,1.3959,0.0158,-0.3012,3.1264,rough,14.0,2,1.761
6350,203.20,-6.2753,-5.6095,1.3925,0.0150,-0.2819,3.1233,rough,14.0,2,1.762
6360,203.52,-6.2753,-5.6097,1.3921,0.0151,-0.2791,3.1237,rough,14.0,2,1.762
6370,203.84,-6.2754,-5.6097,1.3933,0.0154,-0.2867,3.1234,rough,14.0,2,1.762
6380,204.16,-6.2735,-5.6098,1.3949,0.0145,-0.3008,3.1261,rough,14.0,2,1.764
6390,204.48,-6.2751,-5.6095,1.3942,0.0153,-0.2929,3.1254,rough,14.0,2,1.762
6400,204.80,-6.2738,-5.6094,1.3951,0.0157,-0.3008,3.1236,rough,14.0,2,1.763
6410,205.12,-6.2749,-5.6098,1.3928,0.0152,-0.2842,3.1227,rough,14.0,2,1.762
6420,205.44,-6.2745,-5.6099,1.3937,0.0141,-0.2913,3.1266,rough,14.0,2,1.763
6430,205.76,-6.2760,-5.6096,1.3939,0.0154,-0.2894,3.1249,rough,14.0,2,1.761
6440,206.08,-6.2772,-5.6102,1.3938,0.0160,-0.2863,3.1248,rough,14.0,2,1.760
6450,206.40,-6.2745,-5.6111,1.3896,0.0116,-0.2659,3.1298,rough,14.0,2,1.763
6460,206.72,-6.2744,-5.6102,1.3934,0.0138,-0.2900,3.1275,rough,14.0,2,1.763
6470,207.04,-6.2755,-5.6100,1.3935,0.0152,-0.2881,3.1259,rough,14.0,2,1.762
6480,207.36,-6.2755,-5.6098,1.3923,0.0148,-0.2800,3.1242,rough,14.0,2,1.762
6490,207.68,-6.2753,-5.6095,1.3926,0.0156,-0.2826,3.1233,rough,14.0,2,1.762
6500,208.00,-6.2751,-5.6086,1.3940,0.0169,-0.2915,3.1217,rough,14.0,2,1.762
6510,208.32,-6.2660,-5.6074,1.4052,0.0108,-0.3830,-3.1325,rough,14.0,2,1.770
6520,208.64,-6.2628,-5.6077,1.4088,0.0076,-0.4146,-3.1195,rough,14.0,2,1.773
6530,208.96,-6.2628,-5.6072,1.4104,0.0091,-0.4248,-3.1216,rough,14.0,2,1.772
6540,209.28,-6.2608,-5.6071,1.4155,0.0083,-0.4648,-3.1130,rough,14.0,2,1.774
6550,209.60,-6.2672,-5.6078,1.4099,0.0167,-0.4102,3.1374,rough,14.0,2,1.769
6560,209.92,-6.2666,-5.6079,1.4117,0.0170,-0.4235,3.1383,rough,14.0,2,1.769
6570,210.24,-6.2758,-5.6088,1.3802,0.0112,-0.2045,3.1223,rough,14.0,2,1.761
6580,210.56,-6.2716,-5.6099,1.3960,0.0137,-0.3115,3.1288,rough,14.0,2,1.765
6590,210.88,-6.2745,-5.6096,1.3919,0.0147,-0.2800,3.1241,rough,14.0,2,1.763
6600,211.20,-6.2753,-5.6094,1.3944,0.0154,-0.2935,3.1251,rough,14.0,2,1.762
6610,211.52,-6.2769,-5.6104,1.3939,0.0157,-0.2875,3.1255,rough,14.0,2,1.761
6620,211.84,-6.2756,-5.6097,1.3950,0.0161,-0.2969,3.1234,rough,14.0,2,1.762
6630,212.16,-6.2755,-5.6101,1.3949,0.0162,-0.2964,3.1235,rough,14.0,2,1.762
6640,212.48,-6.2745,-5.6128,1.3930,0.0118,-0.2873,3.1315,rough,14.0,2,1.764
6650,212.80,-6.2770,-5.6129,1.3940,0.0146,-0.2886,3.1258,rough,14.0,2,1.762
6660,213.12,-6.2781,-5.6116,1.3942,0.0168,-0.2871,3.1215,rough,14.0,2,1.760
6670,213.44,-6.2768,-5.6107,1.3928,0.0156,-0.2805,3.1223,rough,14.0,2,1.761
6680,213.76,-6.2748,-5.6105,1.3929,0.0142,-0.2858,3.1254,rough,14.0,2,1.763
6690,214.08,-6.2750,-5.6093,1.3908,0.0154,-0.2716,3.1209,rough,14.0,2,1.762
6700,214.40,-6.2734,-5.6102,1.3936,0.0136,-0.2929,3.1284,rough,14.0,2,1.764
6710,214.72,-6.2730,-5.6100,1.3981,0.0152,-0.3221,3.1283,rough,14.0,2,1.764
6720,215.04,-6.2729,-5.6104,1.3925,0.0124,-0.2871,3.1305,rough,14.0,2,1.764
6730,215.36,-6.2767,-5.6107,1.3938,0.0152,-0.2877,3.1264,rough,14.0,2,1.761
6740,215.68,-6.2770,-5.6101,1.3928,0.0159,-0.2800,3.1230,rough,14.0,2,1.761
6750,216.00,-6.2745,-5.6104,1.3932,0.0138,-0.2881,3.1282,rough,14.0,2,1.763
6760,216.32,-6.2775,-5.6099,1.3940,0.0166,-0.2867,3.1239,rough,14.0,2,1.760
6770,216.64,-6.2763,-5.6105,1.3933,0.0151,-0.2847,3.1256,rough,14.0,2,1.761
6780,216.96,-6.2742,-5.6106,1.3949,0.0137,-0.2995,3.1305,rough,14.0,2,1.763
6790,217.28,-6.2773,-5.6104,1.3939,0.0163,-0.2867,3.1239,rough,14.0,2,1.760
6800,217.60,-6.2753,-5.6103,1.3920,0.0146,-0.2786,3.1233,rough,14.0,2,1.762
6810,217.92,-6.2732,-5.6102,1.3977,0.0152,-0.3191,3.1274,rough,14.0,2,1.764
6820,218.24,-6.2760,-5.6093,1.3934,0.0162,-0.2857,3.1235,rough,14.0,2,1.761
6830,218.56,-6.2755,-5.6096,1.3924,0.0148,-0.2809,3.1247,rough,14.0,2,1.762
6840,218.88,-6.2725,-5.6101,1.3987,0.0150,-0.3265,3.1282,rough,14.0,2,1.765
6850,219.20,-6.2742,-5.6092,1.3931,0.0159,-0.2872,3.1213,rough,14.0,2,1.763
6860,219.52,-6.2748,-5.6098,1.3920,0.0146,-0.2797,3.1257,rough,14.0,2,1.762
6870,219.84,-6.2740,-5.6102,1.3890,0.0124,-0.2628,3.1271,rough,14.0,2,1.763
6880,220.16,-6.2741,-5.6099,1.3922,0.0141,-0.2826,3.1269,rough,14.0,2,1.763
6890,220.48,-6.2749,-5.6095,1.3920,0.0150,-0.2794,3.1236,rough,14.0,2,1.762
6900,220.80,-6.2737,-5.6100,1.3928,0.0137,-0.2869,3.1261,rough,14.0,2,1.764
6910,221.12,-6.2754,-5.6111,1.3935,0.0139,-0.2884,3.1286,rough,14.0,2,1.762
6920,221.44,-6.2774,-5.6109,1.3941,0.0160,-0.2875,3.1245,rough,14.0,2,1.760
6930,221.76,-6.2753,-5.6112,1.3908,0.0128,-0.2721,3.1281,rough,14.0,2,1.763
6940,222.08,-6.2775,-5.6098,1.3895,0.0160,-0.2587,3.1194,rough,14.0,2,1.760
6950,222.40,-6.2756,-5.6100,1.3930,0.0146,-0.2845,3.1254,rough,14.0,2,1.762
6960,222.72,-6.2761,-5.6095,1.3933,0.0158,-0.2853,3.1231,rough,14.0,2,1.761
6970,223.04,-6.2746,-5.6104,1.3935,0.0143,-0.2901,3.1272,rough,14.0,2,1.763
6980,223.36,-6.2746,-5.6091,1.3942,0.0165,-0.2933,3.1204,rough,14.0,2,1.762
6990,223.68,-6.2747,-5.6125,1.3934,0.0117,-0.2898,3.1334,rough,14.0,2,1.764
7000,224.00,-6.2761,-5.6147,1.3940,0.0123,-0.2909,3.1299,rough,14.0,2,1.763
7010,224.32,-6.2769,-5.6153,1.3942,0.0134,-0.2904,3.1261,rough,14.0,2,1.763
7020,224.64,-6.2778,-5.6140,1.3944,0.0155,-0.2887,3.1217,rough,14.0,2,1.761
7030,224.96,-6.2777,-5.6113,1.3938,0.0172,-0.2850,3.1184,rough,14.0,2,1.760
7040,225.28,-6.2776,-5.6108,1.3941,0.0168,-0.2868,3.1217,rough,14.0,2,1.760
7050,225.60,-6.2754,-5.6109,1.3944,0.0146,-0.2942,3.1271,rough,14.0,2,1.762
7060,225.92,-6.2777,-5.6101,1.3940,0.0169,-0.2863,3.1227,rough,14.0,2,1.760
7070,226.24,-6.2751,-5.6107,1.3918,0.0137,-0.2783,3.1273,rough,14.0,2,1.763
7080,226.56,-6.2732,-5.6102,1.3981,0.0157,-0.3215,3.1264,rough,14.0,2,1.764
7090,226.88,-6.2746,-5.6101,1.3955,0.0159,-0.3019,3.1239,rough,14.0,2,1.763
7100,227.20,-6.2737,-5.6107,1.3944,0.0132,-0.2976,3.1296,rough,14.0,2,1.764
7110,227.52,-6.2770,-5.6109,1.3940,0.0156,-0.2879,3.1253,rough,14.0,2,1.761
7120,227.84,-6.2760,-5.6110,1.3930,0.0145,-0.2840,3.1267,rough,14.0,2,1.762
7130,228.16,-6.2761,-5.6108,1.3907,0.0139,-0.2694,3.1260,rough,14.0,2,1.762
7140,228.48,-6.2764,-5.6100,1.3936,0.0160,-0.2865,3.1237,rough,14.0,2,1.761
7150,228.80,-6.2761,-5.6095,1.3919,0.0155,-0.2762,3.1222,rough,14.0,2,1.761
7160,229.12,-6.2751,-5.6099,1.3939,0.0143,-0.2911,3.1270,rough,14.0,2,1.762
7170,229.44,-6.2734,-5.6101,1.3921,0.0130,-0.2837,3.1284,rough,14.0,2,1.764
7180,229.76,-6.2753,-5.6099,1.3949,0.0150,-0.2972,3.1267,rough,14.0,2,1.762
7190,230.08,-6.2765,-5.6112,1.3938,0.0146,-0.2878,3.1273,rough,14.0,2,1.761
7200,230.40,-6.2778,-5.6106,1.3941,0.0167,-0.2869,3.1232,rough,14.0,2,1.760
7210,230.72,-6.2749,-5.6106,1.3924,0.0139,-0.2826,3.1268,rough,14.0,2,1.763
7220,231.04,-6.2751,-5.6112,1.3934,0.0136,-0.2883,3.1291,rough,14.0,2,1.763
7230,231.36,-6.2774,-5.6109,1.3941,0.0160,-0.2876,3.1244,rough,14.0,2,1.761
7240,231.68,-6.2752,-5.6104,1.3944,0.0146,-0.2939,3.1262,rough,14.0,2,1.762
7250,232.00,-6.2745,-5.6099,1.3940,0.0149,-0.2929,3.1251,rough,14.0,2,1.763
7260,232.32,-6.2755,-5.6095,1.3930,0.0151,-0.2845,3.1250,rough,14.0,2,1.762
7270,232.64,-6.2742,-5.6102,1.3930,0.0140,-0.2875,3.1271,rough,14.0,2,1.763
7280,232.96,-6.2751,-5.6100,1.3934,0.0148,-0.2883,3.1258,rough,14.0,2,1.762
7290,233.28,-6.2745,-5.6105,1.3944,0.0140,-0.2956,3.1288,rough,14.0,2,1.763
7300,233.60,-6.2774,-5.6101,1.3940,0.0164,-0.2869,3.1240,rough,14.0,2,1.760
7310,233.92,-6.2762,-5.6100,1.3932,0.0151,-0.2849,3.1249,rough,14.0,2,1.761
7320,234.24,-6.2748,-5.6107,1.3919,0.0133,-0.2796,3.1285,rough,14.0,2,1.763
7330,234.56,-6.2748,-5.6100,1.3913,0.0137,-0.2757,3.1258,rough,14.0,2,1.763
7340,234.88,-6.2749,-5.6119,1.3934,0.0125,-0.2891,3.1312,rough,14.0,2,1.763
7350,235.20,-6.2767,-5.6129,1.3940,0.0140,-0.2893,3.1274,rough,14.0,2,1.762
7360,235.52,-6.2777,-5.6123,1.3942,0.0158,-0.2880,3.1232,rough,14.0,2,1.761
7370,235.84,-6.2775,-5.6103,1.3911,0.0167,-0.2683,3.1177,rough,14.0,2,1.760
7380,236.16,-6.2739,-5.6106,1.3944,0.0144,-0.2966,3.1253,rough,14.0,2,1.764
7390,236.48,-6.2752,-5.6097,1.3924,0.0146,-0.2817,3.1241,rough,14.0,2,1.762
7400,236.80,-6.2750,-5.6101,1.3934,0.0147,-0.2884,3.1264,rough,14.0,2,1.762
7410,237.12,-6.2764,-5.6103,1.3931,0.0152,-0.2839,3.1257,rough,14.0,2,1.761
7420,237.44,-6.2736,-5.6118,1.3906,0.0107,-0.2746,3.1331,rough,14.0,2,1.764
7430,237.76,-6.2748,-5.6100,1.3931,0.0146,-0.2867,3.1250,rough,14.0,2,1.762
7440,238.08,-6.2758,-5.6098,1.3933,0.0152,-0.2858,3.1250,rough,14.0,2,1.762
7450,238.40,-6.2757,-5.6103,1.3950,0.0149,-0.2972,3.1277,rough,14.0,2,1.762
7460,238.72,-6.2767,-5.6097,1.3938,0.0161,-0.2874,3.1243,rough,14.0,2,1.761
7470,239.04,-6.2760,-5.6097,1.3919,0.0152,-0.2764,3.1234,rough,14.0,2,1.761
7480,239.36,-6.2750,-5.6097,1.3945,0.0155,-0.2953,3.1244,rough,14.0,2,1.762
7490,239.68,-6.2759,-5.6093,1.3925,0.0157,-0.2804,3.1230,rough,14.0,2,1.761
7500,240.00,-6.2751,-5.6102,1.3931,0.0148,-0.2865,3.1261,rough,14.0,2,1.762
7510,240.32,-6.2742,-5.6113,1.3932,0.0128,-0.2893,3.1308,rough,14.0,2,1.764
7520,240.64,-6.2769,-5.6118,1.3940,0.0149,-0.2885,3.1264,rough,14.0,2,1.761
7530,240.96,-6.2780,-5.6108,1.3942,0.0169,-0.2869,3.1222,rough,14.0,2,1.760
7540,241.28,-6.2770,-5.6114,1.3940,0.0154,-0.2881,3.1250,rough,14.0,2,1.761
7550,241.60,-6.2752,-5.6117,1.3922,0.0129,-0.2807,3.1289,rough,14.0,2,1.763
7560,241.92,-6.2738,-5.6109,1.3971,0.0151,-0.3141,3.1273,rough,14.0,2,1.764
7570,242.24,-6.2743,-5.6107,1.3906,0.0129,-0.2727,3.1269,rough,14.0,2,1.763
7580,242.56,-6.2721,-5.6120,1.3925,0.0087,-0.2899,3.1409,rough,14.0,2,1.766
7590,242.88,-6.2742,-5.6174,1.3937,0.0081,-0.2942,3.1382,rough,14.0,2,1.766
7600,243.20,-6.2767,-5.6183,1.3944,0.0120,-0.2922,3.1259,rough,14.0,2,1.764
7610,243.52,-6.2777,-5.6170,1.3945,0.0141,-0.2904,3.1215,rough,14.0,2,1.763
7620,243.84,-6.2789,-5.6135,1.3945,0.0175,-0.2872,3.1166,rough,14.0,2,1.760
7630,244.16,-6.2754,-5.6111,1.3945,0.0163,-0.2938,3.1190,rough,14.0,2,1.762
7640,244.48,-6.2754,-5.6105,1.3926,0.0154,-0.2820,3.1209,rough,14.0,2,1.762
7650,244.80,-6.2758,-5.6098,1.3938,0.0157,-0.2893,3.1232,rough,14.0,2,1.762
7660,245.12,-6.2754,-5.6105,1.3939,0.0145,-0.2908,3.1276,rough,14.0,2,1.762
7670,245.44,-6.2756,-5.6102,1.3938,0.0153,-0.2896,3.1254,rough,14.0,2,1.762
7680,245.76,-6.2758,-5.6099,1.3935,0.0157,-0.2873,3.1240,rough,14.0,2,1.762
7690,246.08,-6.2760,-5.6100,1.3891,0.0151,-0.2590,3.1196,rough,14.0,2,1.761
7700,246.40,-6.2728,-5.6109,1.3971,0.0138,-0.3161,3.1297,rough,14.0,2,1.765
7710,246.72,-6.2745,-5.6101,1.3931,0.0144,-0.2877,3.1256,rough,14.0,2,1.763
7720,247.04,-6.2768,-5.6099,1.3934,0.0160,-0.2843,3.1243,rough,14.0,2,1.761
7730,247.36,-6.2752,-5.6107,1.3936,0.0142,-0.2894,3.1274,rough,14.0,2,1.762
7740,247.68,-6.2768,-5.6103,1.3949,0.0159,-0.2939,3.1254,rough,14.0,2,1.761
7750,248.00,-6.2758,-5.6104,1.3935,0.0147,-0.2872,3.1263,rough,14.0,2,1.762
7760,248.32,-6.2767,-5.6102,1.3937,0.0157,-0.2868,3.1253,rough,14.0,2,1.761
7770,248.64,-6.2752,-5.6101,1.3939,0.0150,-0.2911,3.1260,rough,14.0,2,1.762
7780,248.96,-6.2749,-5.6091,1.3945,0.0168,-0.2946,3.1209,rough,14.0,2,1.762
7790,249.28,-6.2756,-5.6115,1.3932,0.0133,-0.2866,3.1302,rough,14.0,2,1.762
7800,249.60,-6.2771,-5.6121,1.3940,0.0148,-0.2883,3.1262,rough,14.0,2,1.761
7810,249.92,-6.2780,-5.6110,1.3942,0.0169,-0.2869,3.1220,rough,14.0,2,1.760
7820,250.24,-6.2734,-5.6114,1.3934,0.0129,-0.2920,3.1286,rough,14.0,2,1.764
7830,250.56,-6.2741,-5.6101,1.3928,0.0150,-0.2860,3.1237,rough,14.0,2,1.763
7840,250.88,-6.2727,-5.6112,1.3890,0.0101,-0.2662,3.1329,rough,14.0,2,1.765
7850,251.20,-6.2755,-5.6097,1.3945,0.0153,-0.2941,3.1262,rough,14.0,2,1.762
7860,251.52,-6.2757,-5.6098,1.3936,0.0150,-0.2881,3.1258,rough,14.0,2,1.762
7870,251.84,-6.2757,-5.6096,1.3915,0.0150,-0.2747,3.1233,rough,14.0,2,1.762
7880,252.16,-6.2755,-5.6099,1.3930,0.0154,-0.2843,3.1241,rough,14.0,2,1.762
7890,252.48,-6.2737,-5.6105,1.3939,0.0143,-0.2944,3.1269,rough,14.0,2,1.764
7900,252.80,-6.2735,-5.6104,1.3936,0.0130,-0.2930,3.1301,rough,14.0,2,1.764
7910,253.12,-6.2753,-5.6104,1.3942,0.0145,-0.2930,3.1279,rough,14.0,2,1.762
7920,253.44,-6.2765,-5.6101,1.3932,0.0157,-0.2838,3.1240,rough,14.0,2,1.761
7930,253.76,-6.2762,-5.6101,1.3938,0.0160,-0.2879,3.1231,rough,14.0,2,1.761
