step,time_s,x,y,z,roll,pitch,yaw,terrain,speed,target_idx,dist_to_target
10,0.32,0.9625,-0.7651,0.3564,-0.1798,-0.1459,0.3043,rough,14.0,0,5.771
20,0.64,1.2081,-0.6872,0.4168,-0.1303,-0.2614,0.2815,rough,14.0,0,5.640
30,0.96,1.5062,-0.5925,0.5023,-0.1192,-0.3151,0.1729,rough,14.0,0,5.492
40,1.28,1.8065,-0.5417,0.6112,-0.0825,-0.3953,0.0772,rough,14.0,0,5.324
50,1.60,2.0807,-0.5153,0.7264,-0.0804,-0.4015,0.0781,rough,14.0,0,5.167
60,1.92,2.3399,-0.4915,0.8454,-0.0816,-0.4507,0.0855,rough,14.0,0,5.026
70,2.24,2.5830,-0.4603,0.9630,-0.0991,-0.4489,0.1295,rough,14.0,0,4.910
80,2.56,2.7802,-0.4100,1.0585,-0.1419,-0.4491,0.2420,rough,14.0,0,4.845
90,2.88,2.9713,-0.3382,1.1515,-0.1493,-0.4482,0.2639,rough,14.0,0,4.809
100,3.20,3.1692,-0.2550,1.2481,-0.1366,-0.4459,0.2616,rough,14.0,0,4.788
110,3.52,3.3672,-0.1618,1.3416,-0.1156,-0.4336,0.2411,rough,14.0,0,4.786
120,3.84,3.5628,-0.0757,1.4334,-0.0992,-0.4348,0.2158,rough,14.0,0,4.789
130,4.16,3.7506,-0.0072,1.5188,-0.0899,-0.4168,0.1997,rough,14.0,0,4.786
140,4.48,3.9378,0.0514,1.5997,-0.0785,-0.4089,0.1647,rough,14.0,0,4.783
150,4.80,4.1419,0.0881,1.6909,-0.0482,-0.4073,0.1088,rough,14.0,0,4.763
160,5.12,4.3131,0.1216,1.7624,-0.0634,-0.3837,0.1518,rough,14.0,0,4.755
170,5.44,4.4906,0.1617,1.8316,-0.0493,-0.3772,0.1135,rough,14.0,0,4.759
180,5.76,4.6776,0.1880,1.9067,-0.0314,-0.3714,0.0765,rough,14.0,0,4.755
190,6.08,4.8346,0.2147,1.9666,-0.0465,-0.3542,0.1210,rough,14.0,0,4.763
200,6.40,4.9996,0.2505,2.0257,-0.0389,-0.3496,0.0962,rough,14.0,0,4.783
210,6.72,5.1741,0.2720,2.0904,-0.0236,-0.3463,0.0616,rough,14.0,0,4.795
220,7.04,5.3244,0.2933,2.1439,-0.0377,-0.3356,0.1058,rough,14.0,0,4.814
230,7.36,5.4713,0.3192,2.1951,-0.0468,-0.3307,0.1350,rough,14.0,0,4.841
240,7.68,5.6365,0.3535,2.2518,-0.0322,-0.3300,0.0962,rough,14.0,0,4.883
250,8.00,5.7969,0.3852,2.3061,-0.0281,-0.3245,0.0852,rough,14.0,0,4.926
260,8.32,5.9446,0.4182,2.3558,-0.0341,-0.3198,0.1083,rough,14.0,0,4.975
270,8.64,6.0909,0.4524,2.4044,-0.0372,-0.3190,0.1211,rough,14.0,0,5.028
280,8.96,6.2505,0.4831,2.4572,-0.0239,-0.3182,0.0810,rough,14.0,0,5.085
290,9.28,6.4137,0.5004,2.5110,-0.0117,-0.3165,0.0438,rough,14.0,0,5.133
300,9.60,6.5515,0.5176,2.5561,-0.0250,-0.3157,0.0888,rough,14.0,0,5.180
310,9.92,6.6841,0.5384,2.5995,-0.0363,-0.3142,0.1278,rough,14.0,0,5.233
320,10.24,6.8443,0.5631,2.6519,-0.0157,-0.3155,0.0641,rough,14.0,0,5.300
330,10.56,6.9949,0.5779,2.7012,-0.0108,-0.3153,0.0502,rough,14.0,0,5.359
340,10.88,7.1280,0.5927,2.7447,-0.0208,-0.3165,0.0807,rough,14.0,0,5.415
350,11.20,7.2672,0.6042,2.7902,-0.0192,-0.3162,0.0827,rough,14.0,0,5.473
360,11.52,7.4058,0.6156,2.8355,-0.0178,-0.3165,0.0821,rough,14.0,0,5.534
370,11.84,7.5430,0.6269,2.8805,-0.0172,-0.3159,0.0827,rough,14.0,0,5.597
380,12.16,7.6811,0.6388,2.9219,-0.0169,-0.2915,0.0833,rough,14.0,0,5.664
390,12.48,7.9206,0.6480,2.9372,0.0215,0.0769,-0.0375,rough,14.0,0,5.775
400,12.80,8.2646,0.4828,2.8193,0.4837,0.7693,-0.1784,rough,14.0,0,5.793
410,13.12,8.4090,0.1961,2.6382,1.2632,0.8085,-0.1405,rough,14.0,0,5.625
420,13.44,8.4959,-0.0961,2.4945,2.2987,0.7230,1.1568,rough,14.0,0,5.432
430,13.76,8.5798,-0.4471,2.1818,2.8720,-0.0511,1.6667,rough,14.0,0,5.202
440,14.08,8.6240,-0.7233,2.1285,3.0640,-0.1932,2.1663,rough,14.0,0,5.017
450,14.40,8.6904,-0.9241,2.0670,3.1376,-0.1420,2.3113,rough,14.0,0,4.912
460,14.72,8.7002,-0.9952,2.0770,3.1334,-0.1383,2.3348,rough,14.0,0,4.867
470,15.04,8.6154,-1.0276,2.0573,-3.0062,-0.1589,2.3341,slope,18.0,0,4.785
480,15.36,8.6251,-1.0372,2.0595,-3.0116,-0.1329,2.2601,rough,14.0,0,4.785
490,15.68,8.6222,-1.0236,2.0581,-3.0128,-0.1380,2.3282,rough,14.0,0,4.793
500,16.00,8.6240,-1.0032,2.0595,-3.0311,-0.1380,2.3449,rough,14.0,0,4.809
510,16.32,8.6199,-1.0141,2.0538,-3.0104,-0.1617,2.3429,rough,14.0,0,4.798
520,16.64,8.6314,-1.0189,2.0561,-3.0330,-0.1248,2.2600,rough,14.0,0,4.802
530,16.96,8.6223,-1.0256,2.0578,-2.9850,-0.1831,2.2905,rough,14.0,0,4.791
540,17.28,8.6272,-1.0286,2.0583,-3.0230,-0.1273,2.2683,rough,14.0,0,4.792
550,17.60,8.6162,-0.9928,2.0568,-3.0295,-0.1349,2.3162,slope,18.0,0,4.811
560,17.92,8.6359,-1.0268,2.0527,-3.0106,-0.1526,2.2279,rough,14.0,0,4.800
570,18.24,8.6151,-1.0040,2.0549,-3.0395,-0.1371,2.3388,slope,18.0,0,4.802
580,18.56,8.6144,-1.0122,2.0544,-3.0181,-0.1467,2.2790,rough,14.0,0,4.796
590,18.88,8.6167,-1.0116,2.0613,-2.9605,-0.1792,2.1728,rough,14.0,0,4.798
600,19.20,8.6205,-1.0119,2.0553,-3.0243,-0.1554,2.2995,rough,14.0,0,4.800
610,19.52,8.6195,-1.0109,2.0561,-3.0166,-0.1401,2.3180,rough,14.0,0,4.800
620,19.84,8.6251,-1.0095,2.0557,-3.0181,-0.1328,2.2516,rough,14.0,0,4.805
630,20.16,8.6248,-1.0188,2.0540,-3.0344,-0.1293,2.3164,rough,14.0,0,4.798
640,20.48,8.6171,-1.0077,2.0570,-3.0140,-0.1370,2.3602,rough,14.0,0,4.801
650,20.80,8.6211,-1.0150,2.0573,-3.0054,-0.1370,2.2527,rough,14.0,0,4.798
660,21.12,8.6322,-1.0450,2.0600,-3.0135,-0.1483,2.3164,rough,14.0,0,4.784
670,21.44,8.6198,-1.0101,2.0576,-3.0312,-0.1266,2.3055,rough,14.0,0,4.801
680,21.76,8.6219,-1.0112,2.0559,-3.0181,-0.1360,2.2756,slope,18.0,0,4.802
690,22.08,8.6187,-1.0096,2.0530,-3.0172,-0.1426,2.2355,rough,14.0,0,4.801
700,22.40,8.6304,-1.0099,2.0558,-3.0269,-0.1172,2.2610,rough,14.0,0,4.808
710,22.72,8.6208,-1.0295,2.0583,-3.0083,-0.1551,2.3301,slope,18.0,0,4.787
720,23.04,8.6278,-1.0261,2.0580,-3.0073,-0.1311,2.3193,rough,14.0,0,4.795
730,23.36,8.6224,-1.0215,2.0587,-3.0069,-0.1275,2.3511,rough,14.0,0,4.794
740,23.68,8.6236,-1.0173,2.0551,-3.0227,-0.1387,2.2693,rough,14.0,0,4.798
750,24.00,8.6275,-1.0200,2.0558,-3.0204,-0.1330,2.2868,slope,18.0,0,4.799
760,24.32,8.6229,-1.0166,2.0572,-3.0149,-0.1340,2.2806,rough,14.0,0,4.798
770,24.64,8.6090,-1.0135,2.0595,-2.9784,-0.1568,2.2453,rough,14.0,0,4.791
780,24.96,8.6468,-1.0490,2.0629,-3.0172,-0.1285,2.3482,rough,14.0,0,4.791
790,25.28,8.6210,-1.0233,2.0574,-3.0118,-0.1458,2.3163,rough,14.0,0,4.792
800,25.60,8.6239,-1.0093,2.0569,-3.0198,-0.1190,2.2621,rough,14.0,0,4.804
810,25.92,8.6209,-1.0255,2.0560,-3.0293,-0.1295,2.4007,rough,14.0,0,4.790
820,26.24,8.6280,-1.0046,2.0569,-3.0257,-0.1197,2.2795,rough,14.0,0,4.811
830,26.56,8.6275,-1.0093,2.0552,-3.0091,-0.1504,2.2875,rough,14.0,0,4.807
840,26.88,8.6230,-1.0092,2.0485,-3.0146,-0.1608,2.2161,rough,14.0,0,4.804
850,27.20,8.6252,-1.0158,2.0579,-3.0255,-0.1232,2.3694,rough,14.0,0,4.800
860,27.52,8.6144,-1.0174,2.0576,-3.0151,-0.1320,2.2792,slope,18.0,0,4.792
870,27.84,8.6179,-1.0221,2.0566,-3.0076,-0.1413,2.3103,slope,18.0,0,4.791
880,28.16,8.6220,-1.0304,2.0585,-3.0033,-0.1503,2.2556,rough,14.0,0,4.787
890,28.48,8.6287,-1.0193,2.0543,-3.0184,-0.1467,2.2889,rough,14.0,0,4.800
900,28.80,8.6195,-1.0315,2.0548,-3.0215,-0.1413,2.3492,slope,18.0,0,4.785
910,29.12,8.6257,-1.0248,2.0619,-3.0045,-0.1413,2.3396,rough,14.0,0,4.794
920,29.44,8.6317,-1.0230,2.0594,-3.0232,-0.1331,2.3132,rough,14.0,0,4.800
930,29.76,8.6178,-1.0277,2.0571,-2.9937,-0.1693,2.3361,rough,14.0,0,4.787
940,30.08,8.6218,-1.0096,2.0527,-3.0165,-0.1618,2.3011,slope,18.0,0,4.803
950,30.40,8.6276,-1.0065,2.0584,-3.0193,-0.1275,2.3259,rough,14.0,0,4.809
960,30.72,8.6205,-1.0165,2.0566,-3.0235,-0.1318,2.3375,slope,18.0,0,4.797
970,31.04,8.6139,-1.0166,2.0550,-3.0147,-0.1511,2.2939,rough,14.0,0,4.792
980,31.36,8.6169,-1.0097,2.0542,-3.0197,-0.1399,2.2669,rough,14.0,0,4.799
990,31.68,8.6212,-1.0185,2.0560,-3.0138,-0.1429,2.2874,slope,18.0,0,4.796
1000,32.00,8.6257,-1.0238,2.0542,-3.0394,-0.1272,2.3386,rough,14.0,0,4.795
1010,32.32,8.6321,-1.0430,2.0593,-3.0118,-0.1393,2.2937,rough,14.0,0,4.785
1020,32.64,8.6502,-1.0791,2.0618,-3.0308,-0.1391,2.3819,rough,14.0,0,4.772
1030,32.96,8.6179,-1.0370,2.0599,-3.0178,-0.1357,2.2649,rough,14.0,0,4.780
1040,33.28,8.6136,-1.0036,2.0573,-2.9842,-0.1730,2.3043,rough,14.0,0,4.801
1050,33.60,8.6157,-1.0143,2.0553,-2.9989,-0.1673,2.3150,rough,14.0,0,4.795
1060,33.92,8.6219,-1.0098,2.0545,-3.0138,-0.1510,2.3314,rough,14.0,0,4.803
1070,34.24,8.6167,-1.0089,2.0554,-3.0168,-0.1244,2.2562,slope,18.0,0,4.800
1080,34.56,8.6298,-1.0214,2.0560,-3.0234,-0.1318,2.3239,rough,14.0,0,4.799
1090,34.88,8.6202,-1.0083,2.0582,-2.9898,-0.1582,2.2071,rough,14.0,0,4.802
1100,35.20,8.6261,-1.0396,2.0564,-3.0174,-0.1369,2.2449,rough,14.0,0,4.784
1110,35.52,8.6356,-1.0401,2.0559,-3.0375,-0.1297,2.3347,rough,14.0,0,4.790
1120,35.84,8.6161,-1.0125,2.0534,-2.9934,-0.1193,2.2860,rough,14.0,0,4.797
1130,36.16,8.6213,-1.0122,2.0468,-3.0660,-0.1382,2.3573,rough,14.0,0,4.800
1140,36.48,8.6283,-1.0190,2.0539,-3.0348,-0.1305,2.2721,rough,14.0,0,4.800
1150,36.80,8.6214,-1.0169,2.0542,-3.0248,-0.1335,2.3201,rough,14.0,0,4.797
1160,37.12,8.6000,-1.0090,2.0577,-2.9773,-0.1887,2.3628,rough,14.0,0,4.788
1170,37.44,8.6530,-1.0419,2.0610,-3.0262,-0.1155,2.2914,rough,14.0,0,4.801
1180,37.76,8.6661,-1.0781,2.0658,-3.0194,-0.1277,2.3318,rough,14.0,0,4.783
1190,38.08,8.6784,-1.1200,2.0635,-2.9202,-0.0698,2.2692,rough,14.0,0,4.762
1200,38.40,8.6936,-1.0979,2.0603,-3.0153,-0.0767,2.1600,rough,14.0,0,4.788
1210,38.72,8.6412,-1.0541,2.0599,-2.9876,-0.1325,2.2504,rough,14.0,0,4.784
1220,39.04,8.6181,-1.0165,2.0553,-3.0135,-0.1463,2.3446,slope,18.0,0,4.795
1230,39.36,8.6378,-1.0211,2.0551,-3.0284,-0.1356,2.2293,rough,14.0,0,4.805
1240,39.68,8.6179,-1.0234,2.0584,-3.0025,-0.1315,2.3742,rough,14.0,0,4.790
1250,40.00,8.6141,-1.0147,2.0531,-3.0277,-0.1699,2.2284,rough,14.0,0,4.794
1260,40.32,8.6224,-1.0118,2.0564,-3.0181,-0.1185,2.2611,slope,18.0,0,4.801
1270,40.64,8.6286,-1.0160,2.0558,-3.0235,-0.1307,2.2602,rough,14.0,0,4.803
1280,40.96,8.6244,-1.0270,2.0549,-3.0278,-0.1546,2.2519,rough,14.0,0,4.792
1290,41.28,8.6318,-1.0142,2.0538,-3.0185,-0.1294,2.2689,rough,14.0,0,4.806
1300,41.60,8.6352,-1.0076,2.0559,-3.0335,-0.1255,2.2657,rough,14.0,0,4.813
1310,41.92,8.6258,-0.9952,2.0585,-3.0258,-0.1027,2.2539,rough,14.0,0,4.816
1320,42.24,8.6221,-1.0117,2.0579,-3.0241,-0.1368,2.3262,rough,14.0,0,4.801
1330,42.56,8.6103,-1.0086,2.0560,-3.0106,-0.1451,2.3293,rough,14.0,0,4.796
1340,42.88,8.6320,-1.0392,2.0604,-3.0194,-0.1303,2.2722,rough,14.0,0,4.788
1350,43.20,8.6338,-1.0349,2.0592,-3.0160,-0.1393,2.2961,rough,14.0,0,4.792
1360,43.52,8.6287,-1.0194,2.0525,-3.0138,-0.1760,2.3354,rough,14.0,0,4.800
1370,43.84,8.6179,-1.0116,2.0534,-3.0352,-0.1260,2.3499,rough,14.0,0,4.798
1380,44.16,8.6263,-1.0111,2.0540,-3.0283,-0.1297,2.2708,slope,18.0,0,4.805
1390,44.48,8.6110,-1.0019,2.0612,-2.9915,-0.1531,2.2708,rough,14.0,0,4.801
1400,44.80,8.6406,-1.0611,2.0631,-3.0125,-0.1446,2.3579,rough,14.0,0,4.778
1410,45.12,8.6404,-1.0141,2.0564,-3.0177,-0.1231,2.2814,rough,14.0,0,4.812
1420,45.44,8.6166,-1.0165,2.0568,-2.9847,-0.1365,2.3188,rough,14.0,0,4.794
1430,45.76,8.6194,-1.0229,2.0540,-3.0188,-0.1578,2.2247,slope,18.0,0,4.791
1440,46.08,8.6133,-1.0202,2.0568,-3.0013,-0.1572,2.2685,rough,14.0,0,4.789
1450,46.40,8.6030,-1.0190,2.0595,-2.9880,-0.1651,2.2141,slope,18.0,0,4.783
1460,46.72,8.6225,-1.0002,2.0538,-3.0450,-0.1259,2.3033,slope,18.0,0,4.810
1470,47.04,8.6209,-1.0129,2.0542,-3.0237,-0.1658,2.3663,rough,14.0,0,4.800
1480,47.36,8.6217,-1.0295,2.0553,-3.0131,-0.1504,2.2546,rough,14.0,0,4.788
1490,47.68,8.6268,-1.0251,2.0599,-3.0037,-0.1415,2.2714,rough,14.0,0,4.795
1500,48.00,8.6190,-1.0061,2.0565,-3.0109,-0.1356,2.2338,rough,14.0,0,4.803
1510,48.32,8.6286,-1.0498,2.0597,-3.0026,-0.1425,2.3416,rough,14.0,0,4.778
1520,48.64,8.6185,-1.0111,2.0552,-3.0194,-0.1377,2.2822,rough,14.0,0,4.799
1530,48.96,8.6267,-1.0151,2.0521,-3.0417,-0.1269,2.3215,slope,18.0,0,4.802
1540,49.28,8.6221,-1.0099,2.0517,-3.0367,-0.1360,2.3008,rough,14.0,0,4.803
1550,49.60,8.6176,-1.0146,2.0594,-3.0015,-0.1305,2.3285,rough,14.0,0,4.796
1560,49.92,8.6192,-1.0341,2.0585,-3.0127,-0.1483,2.3486,rough,14.0,0,4.783
1570,50.24,8.6211,-1.0062,2.0549,-3.0240,-0.1386,2.2972,rough,14.0,0,4.805
1580,50.56,8.6177,-1.0140,2.0562,-3.0049,-0.1309,2.2632,slope,18.0,0,4.797
1590,50.88,8.6224,-1.0086,2.0539,-3.0254,-0.1347,2.3158,rough,14.0,0,4.804
1600,51.20,8.6198,-1.0168,2.0564,-3.0083,-0.1480,2.2675,rough,14.0,0,4.796
1610,51.52,8.6142,-1.0056,2.0547,-3.0133,-0.1365,2.3072,slope,18.0,0,4.800
1620,51.84,8.6093,-1.0173,2.0607,-2.9768,-0.1599,2.2300,slope,18.0,0,4.788
1630,52.16,8.6363,-1.0361,2.0615,-3.0109,-0.1201,2.3382,rough,14.0,0,4.793
1640,52.48,8.6380,-1.0425,2.0624,-3.0124,-0.1277,2.2368,rough,14.0,0,4.790
1650,52.80,8.6128,-1.0244,2.0560,-2.9929,-0.1318,2.3654,rough,14.0,0,4.786
1660,53.12,8.6312,-1.0184,2.0595,-3.0218,-0.1039,2.1730,slope,18.0,0,4.803
1670,53.44,8.6282,-1.0520,2.0616,-3.0161,-0.1353,2.3483,rough,14.0,0,4.776
1680,53.76,8.6226,-1.0068,2.0545,-3.0421,-0.1290,2.3397,rough,14.0,0,4.805
1690,54.08,8.6236,-1.0088,2.0515,-3.0434,-0.1252,2.2713,rough,14.0,0,4.804
1700,54.40,8.6201,-1.0236,2.0552,-3.0058,-0.1645,2.2978,rough,14.0,0,4.791
1710,54.72,8.6103,-1.0105,2.0607,-2.9956,-0.1328,2.2425,rough,14.0,0,4.794
1720,55.04,8.6252,-1.0277,2.0558,-3.0207,-0.1433,2.2950,rough,14.0,0,4.792
1730,55.36,8.6168,-0.9872,2.0529,-3.0139,-0.1082,2.2749,rough,14.0,0,4.816
1740,55.68,8.6230,-1.0025,2.0577,-3.0254,-0.1275,2.2926,rough,14.0,0,4.809
1750,56.00,8.6143,-1.0105,2.0534,-3.0132,-0.1364,2.3439,slope,18.0,0,4.797
1760,56.32,8.6236,-1.0231,2.0544,-3.0328,-0.1340,2.3436,rough,14.0,0,4.794
1770,56.64,8.6317,-1.0226,2.0576,-3.0032,-0.1285,2.3323,rough,14.0,0,4.800
1780,56.96,8.6089,-1.0290,2.0568,-3.0164,-0.1462,2.3758,rough,14.0,0,4.780
1790,57.28,8.6299,-1.0165,2.0578,-3.0161,-0.1306,2.3148,slope,18.0,0,4.803
1800,57.60,8.6182,-1.0077,2.0558,-3.0203,-0.1386,2.2995,rough,14.0,0,4.802
1810,57.92,8.6207,-1.0121,2.0595,-3.0060,-0.1284,2.2320,rough,14.0,0,4.800
1820,58.24,8.6244,-1.0293,2.0559,-3.0074,-0.1644,2.3395,rough,14.0,0,4.790
1830,58.56,8.6212,-1.0294,2.0565,-3.0171,-0.1532,2.3640,rough,14.0,0,4.788
1840,58.88,8.6314,-1.0196,2.0594,-3.0176,-0.1211,2.3341,rough,14.0,0,4.802
1850,59.20,8.6097,-1.0301,2.0499,-2.9901,-0.2121,2.4396,rough,14.0,0,4.779
1860,59.52,8.6186,-1.0124,2.0520,-3.0417,-0.1322,2.3223,rough,14.0,0,4.798
1870,59.84,8.6237,-1.0091,2.0553,-3.0308,-0.1283,2.3293,slope,18.0,0,4.804
1880,60.16,8.6085,-1.0101,2.0561,-2.9973,-0.1674,2.3694,rough,14.0,0,4.793
1890,60.48,8.6319,-1.0191,2.0602,-3.0136,-0.1231,2.3633,rough,14.0,0,4.803
1900,60.80,8.6202,-1.0173,2.0579,-3.0146,-0.1372,2.3405,rough,14.0,0,4.796
1910,61.12,8.6253,-1.0110,2.0535,-3.0285,-0.1344,2.2279,rough,14.0,0,4.804
1920,61.44,8.6196,-1.0210,2.0585,-3.0082,-0.1431,2.3746,rough,14.0,0,4.793
1930,61.76,8.6370,-1.0157,2.0568,-3.0347,-0.1095,2.1712,rough,14.0,0,4.809
1940,62.08,8.6194,-1.0082,2.0588,-3.0190,-0.1102,2.2525,slope,18.0,0,4.802
1950,62.40,8.6169,-1.0192,2.0588,-3.0196,-0.1482,2.3749,rough,14.0,0,4.792
1960,62.72,8.6219,-1.0255,2.0534,-3.0212,-0.1615,2.2399,rough,14.0,0,4.791
1970,63.04,8.6092,-1.0141,2.0559,-3.0085,-0.1480,2.3611,rough,14.0,0,4.791
1980,63.36,8.6299,-1.0100,2.0549,-3.0193,-0.1326,2.2770,rough,14.0,0,4.808
1990,63.68,8.6159,-1.0238,2.0573,-3.0100,-0.1495,2.3317,slope,18.0,0,4.788
2000,64.00,8.6244,-1.0349,2.0576,-3.0111,-0.1436,2.2986,rough,14.0,0,4.786
2010,64.32,8.6298,-1.0001,2.0574,-3.0405,-0.1149,2.3180,rough,14.0,0,4.815
2020,64.64,8.6067,-1.0183,2.0575,-2.9949,-0.1616,2.2986,rough,14.0,0,4.786
2030,64.96,8.6294,-1.0150,2.0549,-3.0284,-0.1279,2.2565,rough,14.0,0,4.804
2040,65.28,8.6241,-1.0150,2.0536,-3.0410,-0.1179,2.3403,slope,18.0,0,4.800
2050,65.60,8.6117,-1.0054,2.0535,-3.0180,-0.1516,2.2709,slope,18.0,0,4.799
2060,65.92,8.6191,-1.0450,2.0543,-3.0408,-0.1534,2.3897,slope,18.0,0,4.775
2070,66.24,8.6228,-1.0171,2.0549,-3.0254,-0.1440,2.3286,rough,14.0,0,4.798
2080,66.56,8.6249,-0.9975,2.0591,-3.0407,-0.1046,2.2378,rough,14.0,0,4.814
2090,66.88,8.6080,-1.0266,2.0544,-3.0139,-0.1703,2.3015,rough,14.0,0,4.781
2100,67.20,8.6279,-1.0194,2.0591,-3.0196,-0.1196,2.3011,rough,14.0,0,4.800
2110,67.52,8.6153,-1.0169,2.0528,-3.0209,-0.1632,2.2148,slope,18.0,0,4.793
2120,67.84,8.6106,-1.0216,2.0592,-2.9998,-0.1413,2.2589,slope,18.0,0,4.786
2130,68.16,8.6150,-1.0224,2.0571,-3.0101,-0.1500,2.2969,rough,14.0,0,4.789
2140,68.48,8.6252,-1.0135,2.0541,-3.0304,-0.1235,2.3079,rough,14.0,0,4.802
2150,68.80,8.6258,-1.0254,2.0564,-3.0060,-0.1335,2.3026,rough,14.0,0,4.794
2160,69.12,8.6229,-1.0230,2.0573,-3.0205,-0.1514,2.3667,rough,14.0,0,4.794
2170,69.44,8.6185,-1.0125,2.0556,-3.0190,-0.1384,2.2776,rough,14.0,0,4.798
2180,69.76,8.6283,-1.0191,2.0536,-3.0385,-0.1314,2.2993,rough,14.0,0,4.800
2190,70.08,8.6305,-1.0213,2.0560,-3.0187,-0.1402,2.2762,rough,14.0,0,4.800
2200,70.40,8.6182,-1.0296,2.0555,-3.0305,-0.1446,2.2488,rough,14.0,0,4.786
2210,70.72,8.6258,-1.0065,2.0551,-3.0152,-0.1497,2.2869,rough,14.0,0,4.808
2220,71.04,8.6212,-1.0331,2.0551,-3.0220,-0.1378,2.3865,rough,14.0,0,4.785
2230,71.36,8.6295,-1.0242,2.0576,-3.0181,-0.1357,2.2034,rough,14.0,0,4.797
2240,71.68,8.6253,-1.0215,2.0577,-3.0275,-0.1176,2.2523,slope,18.0,0,4.796
2250,72.00,8.6221,-1.0227,2.0538,-3.0203,-0.1565,2.3596,rough,14.0,0,4.793
2260,72.32,8.6277,-1.0292,2.0594,-2.9989,-0.1542,2.2305,rough,14.0,0,4.792
2270,72.64,8.6196,-1.0427,2.0618,-3.0029,-0.1490,2.3175,rough,14.0,0,4.777
2280,72.96,8.6193,-1.0068,2.0565,-3.0229,-0.1580,2.3592,rough,14.0,0,4.803
2290,73.28,8.6088,-1.0166,2.0569,-3.0036,-0.1497,2.2831,rough,14.0,0,4.789
2300,73.60,8.6240,-1.0185,2.0588,-3.0152,-0.1257,2.2215,rough,14.0,0,4.798
2310,73.92,8.6304,-1.0087,2.0518,-3.0126,-0.1714,2.3452,rough,14.0,0,4.809
2320,74.24,8.6186,-1.0245,2.0544,-3.0141,-0.1170,2.4053,rough,14.0,0,4.789
2330,74.56,8.6298,-1.0085,2.0565,-3.0262,-0.1391,2.2892,rough,14.0,0,4.809
2340,74.88,8.6232,-1.0128,2.0553,-3.0141,-0.1401,2.3023,rough,14.0,0,4.801
2350,75.20,8.6336,-1.0120,2.0601,-3.0183,-0.1105,2.3356,rough,14.0,0,4.809
2360,75.52,8.6235,-1.0138,2.0561,-3.0110,-0.1234,2.3044,rough,14.0,0,4.801
2370,75.84,8.6279,-1.0197,2.0583,-3.0221,-0.1358,2.3507,rough,14.0,0,4.799
2380,76.16,8.6259,-1.0079,2.0541,-3.0218,-0.1354,2.2198,rough,14.0,0,4.807
2390,76.48,8.6286,-1.0144,2.0547,-3.0083,-0.1143,2.2315,rough,14.0,0,4.804
2400,76.80,8.6311,-1.0172,2.0535,-3.0063,-0.1777,2.3780,rough,14.0,0,4.803
2410,77.12,8.6196,-1.0271,2.0606,-3.0241,-0.1129,2.2274,rough,14.0,0,4.788
2420,77.44,8.6159,-1.0209,2.0572,-3.0015,-0.1557,2.2690,rough,14.0,0,4.790
2430,77.76,8.6209,-1.0180,2.0562,-3.0147,-0.1331,2.3209,rough,14.0,0,4.796
2440,78.08,8.6231,-1.0071,2.0568,-3.0148,-0.1284,2.2605,slope,18.0,0,4.805
2450,78.40,8.6166,-1.0170,2.0582,-3.0041,-0.1459,2.3629,rough,14.0,0,4.794
2460,78.72,8.6085,-1.0217,2.0538,-3.0153,-0.1635,2.3241,slope,18.0,0,4.785
2470,79.04,8.6086,-1.0107,2.0581,-3.0114,-0.1662,2.3526,rough,14.0,0,4.793
2480,79.36,8.6092,-1.0172,2.0606,-2.9940,-0.1369,2.2307,rough,14.0,0,4.788
2490,79.68,8.6209,-1.0175,2.0531,-3.0098,-0.1764,2.3568,rough,14.0,0,4.796
2500,80.00,8.6233,-1.0205,2.0542,-3.0203,-0.1471,2.2231,rough,14.0,0,4.796
2510,80.32,8.6154,-1.0096,2.0596,-3.0065,-0.1272,2.2411,rough,14.0,0,4.798
2520,80.64,8.6154,-1.0143,2.0559,-3.0179,-0.1384,2.3110,slope,18.0,0,4.795
2530,80.96,8.6165,-1.0106,2.0544,-3.0146,-0.1537,2.3398,rough,14.0,0,4.798
2540,81.28,8.6225,-1.0074,2.0580,-3.0301,-0.1431,2.3427,slope,18.0,0,4.805
2550,81.60,8.6033,-1.0194,2.0608,-2.9846,-0.1576,2.3114,rough,14.0,0,4.783
2560,81.92,8.6214,-1.0297,2.0558,-3.0142,-0.1621,2.3508,rough,14.0,0,4.788
2570,82.24,8.6196,-1.0144,2.0542,-3.0210,-0.1492,2.2566,rough,14.0,0,4.798
2580,82.56,8.6249,-1.0185,2.0589,-3.0251,-0.1292,2.3343,rough,14.0,0,4.798
2590,82.88,8.6259,-1.0231,2.0522,-3.0344,-0.1500,2.3546,rough,14.0,0,4.796
2600,83.20,8.6239,-1.0191,2.0561,-3.0175,-0.1442,2.2604,rough,14.0,0,4.797
2610,83.52,8.6184,-1.0193,2.0577,-3.0039,-0.1519,2.3651,rough,14.0,0,4.793
2620,83.84,8.6151,-1.0105,2.0561,-3.0083,-0.1367,2.3028,rough,14.0,0,4.797
2630,84.16,8.6074,-1.0326,2.0664,-2.9608,-0.1666,2.2064,slope,18.0,0,4.776
2640,84.48,8.6226,-1.0121,2.0544,-3.0220,-0.1158,2.2968,rough,14.0,0,4.801
2650,84.80,8.6303,-1.0321,2.0586,-3.0080,-0.1331,2.2369,rough,14.0,0,4.792
2660,85.12,8.6119,-1.0156,2.0569,-3.0075,-0.1486,2.3286,rough,14.0,0,4.791
2670,85.44,8.6300,-1.0279,2.0566,-3.0116,-0.1484,2.2888,rough,14.0,0,4.795
2680,85.76,8.6216,-1.0126,2.0556,-3.0188,-0.1301,2.2859,slope,18.0,0,4.800
2690,86.08,8.6219,-1.0148,2.0578,-3.0175,-0.1365,2.3217,slope,18.0,0,4.799
2700,86.40,8.6256,-1.0160,2.0543,-3.0094,-0.1533,2.1830,rough,14.0,0,4.801
2710,86.72,8.6307,-1.0179,2.0585,-3.0167,-0.1194,2.2942,rough,14.0,0,4.803
2720,87.04,8.6270,-1.0159,2.0567,-3.0188,-0.1367,2.2894,rough,14.0,0,4.802
2730,87.36,8.6246,-1.0188,2.0561,-3.0147,-0.1410,2.2683,slope,18.0,0,4.798
2740,87.68,8.6217,-1.0237,2.0577,-3.0051,-0.1521,2.3605,rough,14.0,0,4.792
2750,88.00,8.6202,-1.0097,2.0570,-3.0147,-0.1323,2.2990,rough,14.0,0,4.801
2760,88.32,8.6296,-1.0181,2.0560,-3.0273,-0.1321,2.1744,rough,14.0,0,4.802
2770,88.64,8.6089,-1.0128,2.0607,-2.9851,-0.1547,2.2620,rough,14.0,0,4.791
2780,88.96,8.6452,-1.0333,2.0583,-3.0233,-0.1324,2.2351,rough,14.0,0,4.801
2790,89.28,8.6245,-1.0006,2.0583,-3.0311,-0.1379,2.3363,rough,14.0,0,4.811
2800,89.60,8.6418,-1.0279,2.0584,-3.0252,-0.1309,2.2837,rough,14.0,0,4.803
2810,89.92,8.6134,-1.0222,2.0599,-2.9967,-0.1455,2.2522,slope,18.0,0,4.788
2820,90.24,8.6176,-1.0160,2.0560,-2.9938,-0.1226,2.3657,rough,14.0,0,4.795
2830,90.56,8.6152,-1.0141,2.0564,-3.0170,-0.1509,2.3463,rough,14.0,0,4.795
2840,90.88,8.6291,-1.0149,2.0571,-3.0377,-0.0997,2.1991,slope,18.0,0,4.804
2850,91.20,8.6312,-1.0240,2.0572,-3.0191,-0.1390,2.2707,rough,14.0,0,4.798
2860,91.52,8.6299,-1.0209,2.0583,-3.0203,-0.1276,2.3045,rough,14.0,0,4.800
2870,91.84,8.6217,-1.0105,2.0547,-3.0136,-0.1436,2.3106,rough,14.0,0,4.802
2880,92.16,8.6283,-1.0240,2.0568,-3.0065,-0.1214,2.2915,rough,14.0,0,4.797
2890,92.48,8.6234,-1.0137,2.0585,-2.9899,-0.1557,2.2249,rough,14.0,0,4.801
2900,92.80,8.6239,-1.0213,2.0544,-3.0125,-0.1655,2.3150,rough,14.0,0,4.795
2910,93.12,8.6178,-1.0101,2.0525,-3.0069,-0.1597,2.3674,slope,18.0,0,4.800
2920,93.44,8.6102,-1.0169,2.0546,-3.0215,-0.1422,2.3435,rough,14.0,0,4.789
2930,93.76,8.6189,-1.0291,2.0575,-3.0092,-0.1565,2.3063,rough,14.0,0,4.786
2940,94.08,8.6198,-1.0157,2.0511,-3.0423,-0.1407,2.2857,rough,14.0,0,4.797
2950,94.40,8.6147,-1.0274,2.0597,-2.9987,-0.1374,2.2513,slope,18.0,0,4.785
2960,94.72,8.6267,-1.0126,2.0555,-3.0244,-0.1328,2.2642,rough,14.0,0,4.804
2970,95.04,8.6208,-1.0179,2.0578,-3.0200,-0.1441,2.3469,rough,14.0,0,4.796
2980,95.36,8.6184,-1.0100,2.0546,-3.0116,-0.1329,2.2914,rough,14.0,0,4.800
2990,95.68,8.6245,-1.0445,2.0568,-3.0141,-0.1670,2.3139,rough,14.0,0,4.779
3000,96.00,8.6277,-1.0052,2.0527,-3.0379,-0.1230,2.2378,rough,14.0,0,4.810
3010,96.32,8.6264,-1.0248,2.0573,-3.0118,-0.1257,2.2424,rough,14.0,0,4.795
3020,96.64,8.6252,-1.0483,2.0622,-3.0159,-0.1337,2.3209,rough,14.0,0,4.777
3030,96.96,8.6154,-1.0114,2.0523,-3.0244,-0.1566,2.2720,rough,14.0,0,4.797
3040,97.28,8.6280,-1.0117,2.0571,-3.0255,-0.1239,2.2535,slope,18.0,0,4.805
3050,97.60,8.6306,-1.0425,2.0560,-3.0126,-0.1470,2.3237,rough,14.0,0,4.785
3060,97.92,8.6201,-1.0070,2.0582,-3.0099,-0.1274,2.2580,rough,14.0,0,4.803
3070,98.24,8.6246,-1.0119,2.0568,-3.0179,-0.1238,2.2594,rough,14.0,0,4.803
3080,98.56,8.6307,-1.0184,2.0550,-3.0133,-0.1515,2.2888,rough,14.0,0,4.802
3090,98.88,8.6163,-1.0098,2.0566,-3.0111,-0.1367,2.3241,rough,14.0,0,4.799
3100,99.20,8.6132,-1.0280,2.0501,-3.0162,-0.1951,2.2399,rough,14.0,0,4.783
3110,99.52,8.6126,-1.0056,2.0551,-3.0127,-0.1432,2.2688,rough,14.0,0,4.799
3120,99.84,8.6153,-1.0217,2.0550,-3.0101,-0.1596,2.3287,slope,18.0,0,4.789
3130,100.16,8.6385,-1.0007,2.0610,-3.0310,-0.1115,2.3382,rough,14.0,0,4.821
3140,100.48,8.6220,-1.0091,2.0570,-3.0227,-0.1394,2.3062,rough,14.0,0,4.803
3150,100.80,8.6300,-1.0129,2.0552,-3.0255,-0.1286,2.2486,rough,14.0,0,4.806
3160,101.12,8.6331,-1.0204,2.0570,-3.0218,-0.1204,2.2088,slope,18.0,0,4.802
3170,101.44,8.6214,-1.0356,2.0614,-3.0108,-0.1315,2.2552,rough,14.0,0,4.783
3180,101.76,8.6490,-1.0102,2.0588,-3.0292,-0.0974,2.2215,rough,14.0,0,4.821
3190,102.08,8.6151,-1.0246,2.0580,-3.0077,-0.1499,2.3617,rough,14.0,0,4.787
3200,102.40,8.6186,-1.0190,2.0594,-2.9898,-0.1327,2.2211,slope,18.0,0,4.794
3210,102.72,8.6275,-1.0141,2.0558,-3.0252,-0.1253,2.2555,rough,14.0,0,4.803
3220,103.04,8.6538,-1.0581,2.0596,-3.0153,-0.1594,2.3331,rough,14.0,0,4.789
3230,103.36,8.6465,-1.0348,2.0565,-3.0182,-0.1546,2.2607,rough,14.0,0,4.801
3240,103.68,8.6177,-1.0133,2.0529,-3.0106,-0.1086,2.3205,rough,14.0,0,4.797
3250,104.00,8.6140,-1.0043,2.0559,-3.0257,-0.1540,2.3175,slope,18.0,0,4.801
3260,104.32,8.6255,-1.0494,2.0622,-3.0121,-0.1311,2.3132,slope,18.0,0,4.776
3270,104.64,8.6552,-1.0627,2.0616,-3.0272,-0.1292,2.2726,rough,14.0,0,4.787
3280,104.96,8.6112,-0.9991,2.0649,-3.0072,-0.1192,2.1745,rough,14.0,0,4.803
3290,105.28,8.6215,-1.0226,2.0571,-3.0152,-0.1404,2.3244,rough,14.0,0,4.793
3300,105.60,8.6206,-1.0280,2.0563,-3.0118,-0.1596,2.3351,rough,14.0,0,4.788
3310,105.92,8.6165,-0.9966,2.0570,-3.0213,-0.1521,2.3641,slope,18.0,0,4.808
3320,106.24,8.6139,-1.0178,2.0563,-3.0056,-0.1478,2.2880,slope,18.0,0,4.791
3330,106.56,8.6290,-1.0274,2.0575,-3.0250,-0.1361,2.3101,rough,14.0,0,4.795
3340,106.88,8.6224,-1.0227,2.0551,-3.0141,-0.1329,2.2903,rough,14.0,0,4.793
3350,107.20,8.6110,-1.0098,2.0548,-3.0067,-0.1461,2.2623,rough,14.0,0,4.795
3360,107.52,8.6341,-1.0141,2.0573,-3.0076,-0.1220,2.2197,rough,14.0,0,4.808
3370,107.84,8.6059,-1.0404,2.0626,-2.9939,-0.1253,2.2967,slope,18.0,0,4.769
3380,108.16,8.6182,-1.0242,2.0556,-3.0210,-0.1444,2.3434,rough,14.0,0,4.789
3390,108.48,8.6169,-1.0147,2.0533,-3.0267,-0.1292,2.3457,slope,18.0,0,4.796
3400,108.80,8.6230,-1.0101,2.0601,-3.0148,-0.1347,2.3640,rough,14.0,0,4.803
3410,109.12,8.6118,-1.0209,2.0562,-3.0141,-0.1508,2.2815,rough,14.0,0,4.787
3420,109.44,8.6162,-1.0160,2.0567,-3.0096,-0.1495,2.2957,rough,14.0,0,4.794
3430,109.76,8.6139,-1.0159,2.0572,-3.0191,-0.1429,2.3732,slope,18.0,0,4.793
3440,110.08,8.6226,-1.0097,2.0534,-3.0135,-0.1537,2.1749,rough,14.0,0,4.803
3450,110.40,8.6282,-1.0024,2.0575,-3.0245,-0.1322,2.3159,rough,14.0,0,4.812
3460,110.72,8.6299,-1.0468,2.0586,-3.0198,-0.1383,2.3818,rough,14.0,0,4.781
3470,111.04,8.6240,-1.0273,2.0576,-3.0169,-0.1418,2.3431,rough,14.0,0,4.791
3480,111.36,8.6127,-1.0040,2.0600,-2.9810,-0.1552,2.2447,rough,14.0,0,4.801
3490,111.68,8.6253,-1.0132,2.0526,-2.9935,-0.1021,2.2256,rough,14.0,0,4.802
3500,112.00,8.6203,-1.0321,2.0568,-3.0151,-0.1594,2.3406,rough,14.0,0,4.785
3510,112.32,8.6094,-1.0165,2.0635,-2.9705,-0.1564,2.2045,rough,14.0,0,4.789
3520,112.64,8.6230,-1.0141,2.0552,-3.0179,-0.1460,2.3067,rough,14.0,0,4.800
3530,112.96,8.6206,-1.0117,2.0553,-3.0205,-0.1440,2.3323,slope,18.0,0,4.800
3540,113.28,8.6230,-1.0146,2.0572,-3.0066,-0.1369,2.2236,slope,18.0,0,4.800
3550,113.60,8.6222,-1.0186,2.0542,-3.0143,-0.1488,2.3163,rough,14.0,0,4.796
3560,113.92,8.6254,-1.0185,2.0552,-3.0202,-0.1393,2.2287,rough,14.0,0,4.799
3570,114.24,8.6250,-1.0351,2.0557,-3.0128,-0.1541,2.2622,rough,14.0,0,4.786
3580,114.56,8.6132,-1.0156,2.0506,-3.0295,-0.1523,2.2950,rough,14.0,0,4.792
3590,114.88,8.6213,-1.0135,2.0514,-3.0406,-0.1390,2.3201,slope,18.0,0,4.799
3600,115.20,8.6077,-1.0118,2.0606,-2.9700,-0.1693,2.2384,slope,18.0,0,4.791
3610,115.52,8.6239,-1.0070,2.0537,-3.0465,-0.1215,2.3372,rough,14.0,0,4.806
3620,115.84,8.6272,-1.0105,2.0518,-3.0441,-0.1230,2.2706,rough,14.0,0,4.806
3630,116.16,8.6400,-1.0353,2.0548,-3.0376,-0.1343,2.3380,rough,14.0,0,4.796
3640,116.48,8.6027,-1.0254,2.0607,-2.9936,-0.1639,2.3396,rough,14.0,0,4.778
3650,116.80,8.6309,-1.0071,2.0586,-3.0322,-0.1219,2.3398,rough,14.0,0,4.811
3660,117.12,8.6192,-1.0104,2.0556,-3.0064,-0.1398,2.2934,slope,18.0,0,4.800
3670,117.44,8.6416,-1.0572,2.0606,-3.0183,-0.1454,2.3045,rough,14.0,0,4.782
3680,117.76,8.6100,-1.0234,2.0600,-3.0092,-0.1410,2.3515,rough,14.0,0,4.784
3690,118.08,8.6038,-1.0064,2.0552,-3.0009,-0.1573,2.2046,slope,18.0,0,4.793
3700,118.40,8.6296,-1.0207,2.0536,-3.0415,-0.1235,2.3120,rough,14.0,0,4.800
3710,118.72,8.6218,-1.0165,2.0578,-3.0118,-0.1343,2.3451,rough,14.0,0,4.798
3720,119.04,8.6215,-1.0165,2.0546,-3.0254,-0.1382,2.2772,rough,14.0,0,4.797
3730,119.36,8.6233,-1.0252,2.0549,-3.0090,-0.1278,2.2946,rough,14.0,0,4.792
3740,119.68,8.6134,-1.0213,2.0553,-3.0105,-0.1604,2.3594,slope,18.0,0,4.788
3750,120.00,8.6237,-1.0182,2.0564,-3.0190,-0.1388,2.2760,rough,14.0,0,4.798
3760,120.32,8.6223,-1.0146,2.0559,-3.0232,-0.1311,2.2512,rough,14.0,0,4.799
3770,120.64,8.6157,-1.0098,2.0588,-3.0021,-0.1314,2.2445,slope,18.0,0,4.798
3780,120.96,8.6211,-1.0119,2.0546,-3.0184,-0.1363,2.2345,rough,14.0,0,4.800
3790,121.28,8.6136,-1.0131,2.0536,-3.0230,-0.1468,2.2955,slope,18.0,0,4.794
3800,121.60,8.6233,-1.0178,2.0570,-3.0152,-0.1403,2.3289,slope,18.0,0,4.798
3810,121.92,8.6251,-1.0210,2.0571,-3.0105,-0.1263,2.3254,rough,14.0,0,4.797
3820,122.24,8.6115,-1.0106,2.0609,-2.9891,-0.1673,2.2566,rough,14.0,0,4.795
3830,122.56,8.6266,-1.0149,2.0529,-3.0429,-0.1172,2.3139,rough,14.0,0,4.802
3840,122.88,8.6186,-1.0134,2.0540,-3.0160,-0.1503,2.2610,rough,14.0,0,4.798
3850,123.20,8.6272,-1.0171,2.0547,-3.0184,-0.1436,2.2847,rough,14.0,0,4.801
3860,123.52,8.6295,-1.0072,2.0565,-3.0286,-0.1198,2.2586,slope,18.0,0,4.810
3870,123.84,8.6137,-1.0122,2.0549,-2.9972,-0.1704,2.3147,slope,18.0,0,4.795
3880,124.16,8.6239,-1.0329,2.0546,-3.0157,-0.1626,2.2512,rough,14.0,0,4.787
3890,124.48,8.6233,-1.0127,2.0537,-3.0170,-0.1560,2.3381,rough,14.0,0,4.801
3900,124.80,8.6237,-1.0106,2.0541,-3.0154,-0.1153,2.2626,rough,14.0,0,4.803
3910,125.12,8.6316,-1.0155,2.0556,-3.0283,-0.1250,2.2681,rough,14.0,0,4.805
3920,125.44,8.6259,-1.0268,2.0593,-3.0043,-0.1442,2.2425,rough,14.0,0,4.793
3930,125.76,8.6137,-1.0084,2.0557,-3.0131,-0.1424,2.3384,rough,14.0,0,4.798
3940,126.08,8.6201,-1.0109,2.0592,-3.0132,-0.1277,2.3652,rough,14.0,0,4.801
3950,126.40,8.6192,-1.0125,2.0537,-3.0006,-0.1174,2.2493,rough,14.0,0,4.799
3960,126.72,8.6254,-1.0200,2.0589,-3.0020,-0.1296,2.3299,rough,14.0,0,4.797
3970,127.04,8.6201,-1.0128,2.0554,-3.0175,-0.1381,2.2848,rough,14.0,0,4.799
3980,127.36,8.6308,-1.0257,2.0593,-3.0285,-0.1115,2.2201,rough,14.0,0,4.797
3990,127.68,8.6008,-1.0339,2.0620,-2.9809,-0.1592,2.3194,rough,14.0,0,4.771
4000,128.00,8.6248,-1.0166,2.0573,-3.0081,-0.1347,2.2511,rough,14.0,0,4.800
4010,128.32,8.6143,-1.0175,2.0551,-3.0123,-0.1566,2.3412,slope,18.0,0,4.792
4020,128.64,8.6184,-1.0178,2.0563,-3.0042,-0.1322,2.3112,rough,14.0,0,4.794
4030,128.96,8.6101,-1.0037,2.0601,-3.0058,-0.1098,2.2420,rough,14.0,0,4.799
4040,129.28,8.6288,-1.0316,2.0587,-3.0130,-0.1278,2.2348,rough,14.0,0,4.791
4050,129.60,8.6171,-1.0173,2.0582,-3.0084,-0.1424,2.4058,rough,14.0,0,4.794
4060,129.92,8.6146,-1.0178,2.0546,-3.0182,-0.1548,2.2785,rough,14.0,0,4.792
4070,130.24,8.6151,-1.0136,2.0513,-2.9842,-0.1282,2.2725,rough,14.0,0,4.795
4080,130.56,8.6315,-1.0227,2.0548,-3.0245,-0.1425,2.2672,rough,14.0,0,4.800
4090,130.88,8.6260,-1.0230,2.0527,-3.0163,-0.1571,2.2204,rough,14.0,0,4.796
4100,131.20,8.6191,-1.0167,2.0558,-3.0056,-0.1559,2.3311,rough,14.0,0,4.796
4110,131.52,8.6309,-1.0095,2.0527,-3.0060,-0.1269,2.2671,rough,14.0,0,4.809
4120,131.84,8.6182,-1.0037,2.0589,-3.0002,-0.1367,2.2571,slope,18.0,0,4.804
4130,132.16,8.6272,-1.0170,2.0502,-3.0108,-0.1618,2.2238,rough,14.0,0,4.801
4140,132.48,8.6284,-1.0229,2.0590,-3.0224,-0.1242,2.3721,rough,14.0,0,4.797
4150,132.80,8.6265,-1.0272,2.0603,-3.0136,-0.1367,2.3598,rough,14.0,0,4.793
4160,133.12,8.6207,-1.0224,2.0554,-3.0142,-0.1580,2.3244,rough,14.0,0,4.792
4170,133.44,8.6200,-1.0233,2.0568,-3.0261,-0.1289,2.3321,rough,14.0,0,4.791
4180,133.76,8.6347,-1.0402,2.0588,-3.0122,-0.1511,2.2401,rough,14.0,0,4.789
4190,134.08,8.6173,-1.0123,2.0574,-3.0121,-0.1367,2.3626,rough,14.0,0,4.798
4200,134.40,8.6217,-1.0128,2.0558,-3.0245,-0.1251,2.2968,rough,14.0,0,4.800
4210,134.72,8.6228,-1.0085,2.0575,-3.0039,-0.1364,2.2554,slope,18.0,0,4.804
4220,135.04,8.6186,-1.0200,2.0569,-3.0091,-0.1515,2.2397,rough,14.0,0,4.793
4230,135.36,8.6185,-1.0081,2.0559,-3.0252,-0.1309,2.3395,rough,14.0,0,4.801
4240,135.68,8.6227,-1.0109,2.0540,-3.0071,-0.1157,2.2625,rough,14.0,0,4.802
4250,136.00,8.6140,-1.0242,2.0552,-3.0136,-0.1554,2.2898,rough,14.0,0,4.787
4260,136.32,8.6238,-1.0164,2.0549,-3.0245,-0.1319,2.2911,rough,14.0,0,4.799
4270,136.64,8.6162,-1.0195,2.0597,-2.9936,-0.1511,2.2315,slope,18.0,0,4.792
4280,136.96,8.6223,-1.0146,2.0570,-3.0316,-0.1543,2.2903,rough,14.0,0,4.799
4290,137.28,8.6170,-1.0105,2.0579,-3.0025,-0.1393,2.2682,rough,14.0,0,4.799
4300,137.60,8.6186,-1.0134,2.0558,-3.0127,-0.1442,2.3280,slope,18.0,0,4.798
4310,137.92,8.6135,-1.0152,2.0555,-2.9876,-0.1448,2.2944,rough,14.0,0,4.793
4320,138.24,8.6268,-1.0245,2.0576,-3.0145,-0.1413,2.3032,rough,14.0,0,4.795
4330,138.56,8.6297,-1.0062,2.0594,-3.0302,-0.1164,2.3540,rough,14.0,0,4.810
4340,138.88,8.6327,-1.0262,2.0532,-3.0235,-0.1587,2.2826,rough,14.0,0,4.798
4350,139.20,8.6088,-1.0131,2.0548,-3.0183,-0.1560,2.3059,slope,18.0,0,4.791
4360,139.52,8.6235,-1.0120,2.0581,-3.0164,-0.1450,2.3503,rough,14.0,0,4.802
4370,139.84,8.6224,-1.0154,2.0623,-2.9769,-0.1546,2.1860,rough,14.0,0,4.799
4380,140.16,8.6219,-1.0158,2.0539,-3.0120,-0.1627,2.3022,rough,14.0,0,4.798
4390,140.48,8.6336,-1.0158,2.0582,-3.0186,-0.1184,2.2307,rough,14.0,0,4.806
4400,140.80,8.6122,-1.0195,2.0511,-3.0191,-0.1604,2.2855,slope,18.0,0,4.789
4410,141.12,8.6201,-1.0209,2.0570,-3.0158,-0.1373,2.2721,rough,14.0,0,4.793
4420,141.44,8.6322,-0.9965,2.0614,-3.0391,-0.1211,2.3442,rough,14.0,0,4.819
4430,141.76,8.6112,-1.0204,2.0544,-2.9997,-0.1733,2.3449,rough,14.0,0,4.787
4440,142.08,8.6117,-1.0276,2.0563,-3.0050,-0.1546,2.3519,rough,14.0,0,4.783
4450,142.40,8.6033,-1.0372,2.0640,-2.9875,-0.1549,2.2582,slope,18.0,0,4.770
4460,142.72,8.6438,-1.0289,2.0583,-3.0237,-0.1277,2.2275,rough,14.0,0,4.804
4470,143.04,8.6211,-1.0262,2.0604,-3.0024,-0.1366,2.2187,rough,14.0,0,4.790
4480,143.36,8.6156,-1.0124,2.0569,-3.0068,-0.1203,2.2421,rough,14.0,0,4.796
4490,143.68,8.6223,-1.0112,2.0536,-3.0103,-0.1661,2.3346,rough,14.0,0,4.802
4500,144.00,8.6133,-1.0096,2.0540,-3.0196,-0.1408,2.3316,rough,14.0,0,4.797
4510,144.32,8.6360,-1.0254,2.0563,-3.0187,-0.1214,2.2935,rough,14.0,0,4.801
4520,144.64,8.6263,-1.0169,2.0539,-3.0304,-0.1352,2.2934,rough,14.0,0,4.800
4530,144.96,8.6218,-1.0053,2.0530,-3.0303,-0.1301,2.2683,rough,14.0,0,4.806
4540,145.28,8.6215,-1.0071,2.0549,-3.0144,-0.1352,2.2910,rough,14.0,0,4.804
4550,145.60,8.6287,-1.0121,2.0590,-3.0379,-0.1322,2.3591,rough,14.0,0,4.805
4560,145.92,8.6297,-1.0298,2.0537,-3.0201,-0.1622,2.3003,rough,14.0,0,4.793
4570,146.24,8.6417,-1.0266,2.0541,-3.0321,-0.1418,2.2672,rough,14.0,0,4.804
4580,146.56,8.6218,-1.0152,2.0533,-3.0247,-0.1428,2.2409,rough,14.0,0,4.799
4590,146.88,8.6193,-1.0150,2.0574,-3.0249,-0.1300,2.3001,rough,14.0,0,4.797
4600,147.20,8.6214,-1.0193,2.0558,-3.0114,-0.1495,2.2846,slope,18.0,0,4.795
4610,147.52,8.6137,-1.0177,2.0546,-3.0099,-0.1473,2.3031,slope,18.0,0,4.791
4620,147.84,8.6240,-1.0155,2.0553,-3.0153,-0.1533,2.3300,slope,18.0,0,4.800
4630,148.16,8.6244,-1.0283,2.0570,-3.0189,-0.1449,2.3029,rough,14.0,0,4.791
4640,148.48,8.6287,-1.0084,2.0563,-3.0260,-0.1140,2.2605,rough,14.0,0,4.808
4650,148.80,8.6261,-1.0131,2.0561,-3.0133,-0.1413,2.2164,rough,14.0,0,4.803
4660,149.12,8.6275,-1.0236,2.0581,-3.0174,-0.1339,2.3124,rough,14.0,0,4.796
4670,149.44,8.6264,-1.0051,2.0550,-3.0103,-0.1483,2.2543,rough,14.0,0,4.809
4680,149.76,8.6252,-1.0143,2.0583,-3.0232,-0.1326,2.3158,rough,14.0,0,4.801
4690,150.08,8.6235,-1.0316,2.0602,-2.9990,-0.1374,2.2772,rough,14.0,0,4.788
4700,150.40,8.6196,-1.0084,2.0529,-3.0163,-0.1560,2.2947,rough,14.0,0,4.802
4710,150.72,8.6181,-1.0192,2.0575,-3.0166,-0.1533,2.3342,rough,14.0,0,4.793
4720,151.04,8.6165,-1.0425,2.0648,-3.0091,-0.1205,2.2163,rough,14.0,0,4.775
4730,151.36,8.6268,-1.0278,2.0567,-3.0191,-0.1516,2.2854,rough,14.0,0,4.793
4740,151.68,8.6366,-1.0259,2.0584,-3.0237,-0.1262,2.2828,rough,14.0,0,4.801
4750,152.00,8.6314,-1.0004,2.0548,-3.0187,-0.1113,2.2622,rough,14.0,0,4.816
4760,152.32,8.6097,-1.0330,2.0629,-2.9928,-0.1437,2.2772,slope,18.0,0,4.777
4770,152.64,8.6300,-1.0125,2.0552,-3.0237,-0.1203,2.2651,rough,14.0,0,4.806
4780,152.96,8.6150,-1.0078,2.0560,-3.0038,-0.1366,2.2857,slope,18.0,0,4.799
4790,153.28,8.6195,-1.0151,2.0562,-2.9997,-0.1225,2.3126,slope,18.0,0,4.797
4800,153.60,8.6281,-1.0260,2.0588,-3.0253,-0.1134,2.2110,rough,14.0,0,4.795
4810,153.92,8.6145,-1.0086,2.0558,-3.0164,-0.1386,2.3195,slope,18.0,0,4.798
4820,154.24,8.6316,-1.0313,2.0538,-2.9957,-0.1385,2.2920,rough,14.0,0,4.793
4830,154.56,8.6237,-1.0032,2.0583,-3.0343,-0.1110,2.2625,rough,14.0,0,4.809
4840,154.88,8.6180,-1.0153,2.0516,-3.0058,-0.1252,2.2927,rough,14.0,0,4.796
4850,155.20,8.6234,-1.0180,2.0579,-3.0177,-0.1379,2.3386,rough,14.0,0,4.798
4860,155.52,8.6127,-1.0051,2.0597,-3.0143,-0.1055,2.2506,slope,18.0,0,4.800
4870,155.84,8.6231,-1.0169,2.0509,-3.0198,-0.1210,2.3260,slope,18.0,0,4.798
4880,156.16,8.6248,-1.0224,2.0554,-3.0217,-0.1461,2.2731,rough,14.0,0,4.795
4890,156.48,8.6189,-1.0197,2.0572,-3.0134,-0.1439,2.2814,rough,14.0,0,4.793
4900,156.80,8.6319,-1.0072,2.0568,-3.0136,-0.1393,2.2400,rough,14.0,0,4.811
4910,157.12,8.6288,-1.0129,2.0533,-3.0269,-0.1400,2.2820,rough,14.0,0,4.805
4920,157.44,8.6262,-1.0124,2.0536,-3.0148,-0.1566,2.3243,slope,18.0,0,4.804
4930,157.76,8.6218,-1.0068,2.0554,-3.0230,-0.1403,2.3152,slope,18.0,0,4.805
4940,158.08,8.6062,-1.0243,2.0544,-2.9910,-0.1425,2.3476,rough,14.0,0,4.781
4950,158.40,8.6208,-1.0194,2.0549,-3.0096,-0.1377,2.2957,rough,14.0,0,4.795
4960,158.72,8.6133,-1.0156,2.0599,-2.9955,-0.1366,2.2314,rough,14.0,0,4.792
4970,159.04,8.6222,-1.0224,2.0550,-3.0211,-0.1510,2.3495,slope,18.0,0,4.794
4980,159.36,8.6157,-1.0179,2.0566,-3.0119,-0.1444,2.2989,rough,14.0,0,4.792
4990,159.68,8.6275,-1.0103,2.0562,-3.0223,-0.1244,2.2386,rough,14.0,0,4.806
5000,160.00,8.6200,-1.0199,2.0573,-3.0136,-0.1464,2.3426,slope,18.0,0,4.794
5010,160.32,8.6367,-1.0257,2.0490,-2.9872,-0.1235,2.2342,rough,14.0,0,4.801
5020,160.64,8.6230,-1.0240,2.0583,-3.0121,-0.1355,2.3344,rough,14.0,0,4.793
5030,160.96,8.6300,-1.0407,2.0594,-3.0163,-0.1342,2.3097,rough,14.0,0,4.786
5040,161.28,8.6078,-1.0084,2.0558,-3.0112,-0.1470,2.3661,rough,14.0,0,4.794
5050,161.60,8.6234,-1.0287,2.0583,-3.0224,-0.1435,2.3543,rough,14.0,0,4.790
5060,161.92,8.6337,-1.0365,2.0591,-3.0115,-0.1401,2.2707,rough,14.0,0,4.791
5070,162.24,8.6235,-1.0075,2.0557,-3.0282,-0.1195,2.3281,rough,14.0,0,4.805
5080,162.56,8.6307,-1.0046,2.0525,-3.0542,-0.1238,2.2687,slope,18.0,0,4.812
5090,162.88,8.6081,-1.0323,2.0636,-3.0046,-0.1207,2.2430,rough,14.0,0,4.777
5100,163.20,8.6180,-1.0129,2.0562,-3.0131,-0.1411,2.3322,rough,14.0,0,4.798
5110,163.52,8.6121,-1.0056,2.0562,-3.0234,-0.1470,2.3874,slope,18.0,0,4.799
5120,163.84,8.6334,-1.0268,2.0551,-3.0112,-0.1430,2.2752,rough,14.0,0,4.798
5130,164.16,8.6219,-1.0235,2.0594,-3.0043,-0.1360,2.2224,rough,14.0,0,4.793
5140,164.48,8.6245,-1.0048,2.0577,-3.0213,-0.1255,2.2904,rough,14.0,0,4.808
5150,164.80,8.6235,-1.0157,2.0532,-3.0156,-0.1586,2.3307,rough,14.0,0,4.799
5160,165.12,8.6196,-1.0083,2.0547,-3.0163,-0.1470,2.3254,slope,18.0,0,4.802
5170,165.44,8.6418,-1.0322,2.0547,-3.0245,-0.1486,2.2679,rough,14.0,0,4.800
5180,165.76,8.6471,-1.0494,2.0606,-3.0192,-0.1419,2.3236,rough,14.0,0,4.791
5190,166.08,8.6118,-1.0356,2.0561,-3.0098,-0.1757,2.3350,rough,14.0,0,4.777
5200,166.40,8.6341,-1.0265,2.0542,-3.0160,-0.1518,2.2336,rough,14.0,0,4.799
5210,166.72,8.6238,-1.0162,2.0550,-3.0013,-0.1308,2.2983,slope,18.0,0,4.799
5220,167.04,8.6105,-1.0166,2.0567,-2.9978,-0.1399,2.3230,rough,14.0,0,4.790
5230,167.36,8.6224,-1.0301,2.0558,-3.0081,-0.1720,2.2355,rough,14.0,0,4.788
5240,167.68,8.6269,-1.0084,2.0528,-3.0297,-0.1328,2.3358,rough,14.0,0,4.807
5250,168.00,8.6244,-1.0207,2.0572,-3.0223,-0.1270,2.2404,rough,14.0,0,4.796
5260,168.32,8.6170,-1.0085,2.0595,-3.0049,-0.1179,2.2291,slope,18.0,0,4.800
5270,168.64,8.6303,-1.0082,2.0571,-3.0324,-0.1290,2.2740,rough,14.0,0,4.809
5280,168.96,8.6259,-1.0052,2.0556,-3.0179,-0.1321,2.2460,slope,18.0,0,4.809
5290,169.28,8.6092,-1.0172,2.0579,-2.9961,-0.1565,2.2951,rough,14.0,0,4.788
5300,169.60,8.6148,-1.0001,2.0619,-3.0163,-0.1227,2.2638,rough,14.0,0,4.805
5310,169.92,8.6318,-1.0147,2.0574,-3.0033,-0.0972,2.2818,rough,14.0,0,4.806
5320,170.24,8.6179,-1.0130,2.0538,-3.0057,-0.1339,2.2942,rough,14.0,0,4.797
5330,170.56,8.6253,-1.0262,2.0566,-3.0143,-0.1500,2.3034,rough,14.0,0,4.793
5340,170.88,8.5973,-1.0294,2.0588,-3.0093,-0.1458,2.3731,rough,14.0,0,4.771
5350,171.20,8.6162,-0.9797,2.0658,-2.9892,-0.1826,2.2567,rough,14.0,0,4.821
5360,171.52,8.6247,-1.0100,2.0535,-3.0112,-0.1521,2.3094,rough,14.0,0,4.804
5370,171.84,8.6358,-1.0241,2.0499,-2.9818,-0.1264,2.1983,rough,14.0,0,4.802
5380,172.16,8.6210,-1.0191,2.0519,-3.0220,-0.1668,2.2953,rough,14.0,0,4.795
5390,172.48,8.6327,-1.0164,2.0527,-3.0191,-0.1561,2.2826,slope,18.0,0,4.805
5400,172.80,8.6487,-1.0285,2.0628,-3.0205,-0.1037,2.3342,rough,14.0,0,4.807
5410,173.12,8.6189,-1.0196,2.0595,-3.0085,-0.1389,2.3676,rough,14.0,0,4.793
5420,173.44,8.6164,-1.0275,2.0617,-2.9904,-0.1531,2.2236,rough,14.0,0,4.786
5430,173.76,8.6318,-0.9913,2.0591,-3.0385,-0.1242,2.2849,rough,14.0,0,4.823
5440,174.08,8.6232,-1.0064,2.0562,-3.0096,-0.1209,2.3207,slope,18.0,0,4.806
5450,174.40,8.6204,-1.0152,2.0594,-3.0101,-0.1285,2.3746,rough,14.0,0,4.798
5460,174.72,8.6313,-1.0247,2.0588,-2.9997,-0.1088,2.3316,rough,14.0,0,4.798
5470,175.04,8.6144,-1.0226,2.0567,-3.0087,-0.1409,2.3312,rough,14.0,0,4.788
5480,175.36,8.6239,-1.0191,2.0557,-3.0151,-0.1431,2.2975,rough,14.0,0,4.797
5490,175.68,8.6207,-1.0146,2.0541,-3.0187,-0.1527,2.2982,slope,18.0,0,4.798
5500,176.00,8.6302,-1.0138,2.0556,-3.0270,-0.1264,2.2620,rough,14.0,0,4.805
5510,176.32,8.6258,-1.0263,2.0592,-3.0056,-0.1451,2.2381,rough,14.0,0,4.793
5520,176.64,8.6284,-1.0159,2.0547,-3.0258,-0.0933,2.3838,rough,14.0,0,4.803
5530,176.96,8.6279,-1.0198,2.0510,-2.9917,-0.1372,2.2617,rough,14.0,0,4.799
5540,177.28,8.6510,-1.0242,2.0571,-3.0277,-0.1212,2.3317,rough,14.0,0,4.812
5550,177.60,8.6023,-1.0222,2.0618,-2.9847,-0.1727,2.2721,rough,14.0,0,4.780
5560,177.92,8.6254,-1.0265,2.0579,-3.0161,-0.1353,2.3312,rough,14.0,0,4.793
5570,178.24,8.6415,-1.0523,2.0616,-3.0198,-0.1377,2.3360,rough,14.0,0,4.785
5580,178.56,8.6190,-1.0090,2.0550,-3.0323,-0.1141,2.2908,rough,14.0,0,4.801
5590,178.88,8.6296,-1.0189,2.0558,-3.0273,-0.1268,2.2812,rough,14.0,0,4.801
5600,179.20,8.6272,-1.0353,2.0593,-3.0098,-0.1455,2.3343,rough,14.0,0,4.788
5610,179.52,8.6115,-1.0189,2.0628,-3.0016,-0.1238,2.1890,rough,14.0,0,4.789
5620,179.84,8.6380,-1.0312,2.0552,-3.0077,-0.0970,2.1480,rough,14.0,0,4.798
5630,180.16,8.6291,-1.0405,2.0617,-3.0187,-0.1213,2.2563,rough,14.0,0,4.785
5640,180.48,8.6181,-1.0214,2.0542,-3.0260,-0.1378,2.3288,rough,14.0,0,4.791
5650,180.80,8.6307,-1.0092,2.0532,-3.0079,-0.1192,2.2403,rough,14.0,0,4.809
5660,181.12,8.6192,-1.0103,2.0550,-2.9811,-0.0997,2.1768,slope,18.0,0,4.800
5670,181.44,8.6189,-1.0224,2.0529,-3.0357,-0.1415,2.2971,rough,14.0,0,4.791
5680,181.76,8.6237,-1.0145,2.0544,-3.0068,-0.1196,2.2483,rough,14.0,0,4.800
5690,182.08,8.6161,-1.0200,2.0565,-3.0104,-0.1429,2.3198,rough,14.0,0,4.791
5700,182.40,8.6138,-1.0156,2.0553,-2.9919,-0.1741,2.2349,rough,14.0,0,4.793
5710,182.72,8.6282,-1.0232,2.0586,-3.0172,-0.1279,2.2205,rough,14.0,0,4.797
5720,183.04,8.6226,-1.0157,2.0554,-3.0098,-0.1415,2.2767,slope,18.0,0,4.799
5730,183.36,8.6197,-1.0203,2.0580,-3.0030,-0.1505,2.3590,rough,14.0,0,4.793
5740,183.68,8.6304,-1.0312,2.0588,-3.0146,-0.1365,2.2956,rough,14.0,0,4.793
5750,184.00,8.6265,-1.0245,2.0581,-3.0183,-0.1304,2.3235,rough,14.0,0,4.795
5760,184.32,8.6217,-1.0139,2.0541,-3.0284,-0.1373,2.3054,rough,14.0,0,4.799
5770,184.64,8.6223,-1.0193,2.0559,-3.0146,-0.1482,2.2638,rough,14.0,0,4.796
5780,184.96,8.6325,-1.0093,2.0464,-2.9848,-0.0750,2.1522,rough,14.0,0,4.810
5790,185.28,8.6243,-1.0118,2.0548,-3.0245,-0.0986,2.3764,rough,14.0,0,4.803
5800,185.60,8.6217,-1.0197,2.0563,-3.0256,-0.1272,2.2815,rough,14.0,0,4.795
5810,185.92,8.6593,-1.0729,2.0599,-3.0418,-0.1266,2.2984,rough,14.0,0,4.782
5820,186.24,8.6654,-1.0765,2.0651,-3.0320,-0.1152,2.2271,rough,14.0,0,4.784
5830,186.56,8.6322,-1.0311,2.0600,-3.0259,-0.1171,2.2194,rough,14.0,0,4.794
5840,186.88,8.6219,-1.0141,2.0556,-3.0116,-0.1395,2.3019,rough,14.0,0,4.799
5850,187.20,8.6295,-1.0217,2.0565,-3.0359,-0.0953,2.2231,rough,14.0,0,4.799
5860,187.52,8.6195,-1.0091,2.0563,-3.0136,-0.1371,2.3284,rough,14.0,0,4.801
5870,187.84,8.6242,-1.0211,2.0557,-3.0269,-0.1380,2.2067,slope,18.0,0,4.796
5880,188.16,8.6256,-1.0328,2.0590,-3.0113,-0.1377,2.3207,rough,14.0,0,4.788
5890,188.48,8.6205,-1.0062,2.0573,-3.0235,-0.1337,2.3059,rough,14.0,0,4.804
5900,188.80,8.6263,-1.0058,2.0564,-3.0199,-0.1220,2.2718,rough,14.0,0,4.808
5910,189.12,8.6099,-1.0123,2.0574,-3.0077,-0.1393,2.3539,rough,14.0,0,4.792
5920,189.44,8.6185,-1.0231,2.0564,-3.0148,-0.1641,2.3646,rough,14.0,0,4.790
5930,189.76,8.6239,-1.0204,2.0572,-3.0120,-0.1430,2.2574,slope,18.0,0,4.796
5940,190.08,8.6245,-1.0264,2.0567,-3.0109,-0.1397,2.2937,rough,14.0,0,4.792
5950,190.40,8.6242,-1.0154,2.0558,-3.0153,-0.1320,2.2735,rough,14.0,0,4.800
5960,190.72,8.6378,-1.0556,2.0608,-3.0074,-0.1561,2.3445,rough,14.0,0,4.780
5970,191.04,8.6245,-1.0285,2.0596,-3.0112,-0.1357,2.3618,rough,14.0,0,4.791
5980,191.36,8.6236,-1.0073,2.0570,-3.0138,-0.1396,2.3026,slope,18.0,0,4.805
5990,191.68,8.6179,-1.0082,2.0551,-3.0171,-0.1428,2.2858,slope,18.0,0,4.801
6000,192.00,8.6243,-1.0132,2.0559,-3.0152,-0.1328,2.2648,slope,18.0,0,4.802
6010,192.32,8.6277,-1.0128,2.0549,-3.0199,-0.1392,2.2854,rough,14.0,0,4.804
6020,192.64,8.6342,-1.0286,2.0551,-3.0220,-0.1516,2.3220,rough,14.0,0,4.797
6030,192.96,8.6276,-1.0036,2.0548,-3.0252,-0.1197,2.2686,rough,14.0,0,4.811
6040,193.28,8.6188,-1.0214,2.0476,-3.0047,-0.0954,2.2873,rough,14.0,0,4.792
6050,193.60,8.6151,-1.0137,2.0588,-3.0115,-0.1330,2.3256,rough,14.0,0,4.795
6060,193.92,8.6163,-1.0125,2.0585,-3.0143,-0.1286,2.3515,rough,14.0,0,4.797
6070,194.24,8.6215,-1.0143,2.0556,-3.0241,-0.1328,2.3399,slope,18.0,0,4.799
6080,194.56,8.6211,-1.0198,2.0583,-2.9981,-0.1188,2.3738,rough,14.0,0,4.795
6090,194.88,8.6199,-1.0142,2.0592,-2.9979,-0.1382,2.2330,rough,14.0,0,4.798
6100,195.20,8.6208,-1.0293,2.0563,-3.0011,-0.1547,2.2849,rough,14.0,0,4.788
6110,195.52,8.6145,-1.0142,2.0545,-3.0139,-0.1517,2.3296,rough,14.0,0,4.794
6120,195.84,8.6296,-1.0247,2.0555,-3.0150,-0.1463,2.2808,rough,14.0,0,4.797
6130,196.16,8.6234,-1.0189,2.0549,-3.0215,-0.1469,2.3285,rough,14.0,0,4.797
6140,196.48,8.6237,-1.0152,2.0571,-3.0097,-0.1392,2.2209,rough,14.0,0,4.800
6150,196.80,8.6251,-1.0180,2.0568,-3.0077,-0.1332,2.3179,rough,14.0,0,4.799
6160,197.12,8.6228,-1.0174,2.0543,-3.0314,-0.1327,2.3021,rough,14.0,0,4.798
6170,197.44,8.6339,-1.0098,2.0560,-3.0282,-0.1292,2.2675,rough,14.0,0,4.811
6180,197.76,8.6188,-1.0179,2.0474,-2.9736,-0.1234,2.2152,rough,14.0,0,4.794
6190,198.08,8.6236,-1.0131,2.0543,-3.0160,-0.1345,2.2978,slope,18.0,0,4.801
6200,198.40,8.6038,-1.0127,2.0619,-2.9564,-0.1599,2.1364,slope,18.0,0,4.788
6210,198.72,8.6356,-1.0207,2.0551,-3.0288,-0.1412,2.2268,rough,14.0,0,4.804
6220,199.04,8.6277,-1.0151,2.0558,-3.0214,-0.1387,2.2625,rough,14.0,0,4.803
6230,199.36,8.6300,-1.0226,2.0580,-3.0214,-0.1198,2.3697,slope,18.0,0,4.799
6240,199.68,8.6167,-1.0254,2.0584,-3.0115,-0.1438,2.2858,rough,14.0,0,4.788
6250,200.00,8.6109,-1.0204,2.0598,-2.9932,-0.1562,2.2756,rough,14.0,0,4.787
6260,200.32,8.6073,-1.0105,2.0585,-3.0038,-0.1477,2.3279,rough,14.0,0,4.792
6270,200.64,8.6169,-1.0199,2.0514,-3.0260,-0.1682,2.2055,rough,14.0,0,4.792
6280,200.96,8.6146,-1.0192,2.0554,-3.0158,-0.1451,2.3491,rough,14.0,0,4.791
6290,201.28,8.6231,-1.0307,2.0554,-2.9969,-0.1262,2.2535,rough,14.0,0,4.788
6300,201.60,8.6026,-1.0245,2.0617,-2.9869,-0.1521,2.2809,rough,14.0,0,4.779
6310,201.92,8.6348,-0.9961,2.0594,-3.0343,-0.1137,2.3015,slope,18.0,0,4.821
6320,202.24,8.6182,-1.0115,2.0565,-3.0151,-0.1376,2.3217,rough,14.0,0,4.799
6330,202.56,8.6194,-1.0241,2.0575,-3.0103,-0.1493,2.3504,slope,18.0,0,4.790
6340,202.88,8.6184,-1.0004,2.0552,-3.0300,-0.1342,2.3471,rough,14.0,0,4.807
6350,203.20,8.6202,-1.0032,2.0581,-3.0241,-0.1395,2.3611,slope,18.0,0,4.806
6360,203.52,8.6246,-1.0091,2.0560,-3.0141,-0.1324,2.2563,rough,14.0,0,4.805
6370,203.84,8.6298,-1.0234,2.0570,-3.0243,-0.1377,2.3093,rough,14.0,0,4.798
6380,204.16,8.6133,-1.0220,2.0585,-3.0089,-0.1347,2.3081,rough,14.0,0,4.788
6390,204.48,8.6258,-1.0131,2.0552,-3.0226,-0.1336,2.2797,rough,14.0,0,4.803
6400,204.80,8.6259,-1.0307,2.0602,-3.0154,-0.1405,2.3781,rough,14.0,0,4.790
6410,205.12,8.6262,-1.0204,2.0538,-3.0142,-0.1633,2.2958,rough,14.0,0,4.798
6420,205.44,8.6163,-1.0142,2.0574,-2.9936,-0.1210,2.3832,rough,14.0,0,4.796
6430,205.76,8.6294,-1.0052,2.0573,-2.9945,-0.1498,2.2019,rough,14.0,0,4.811
6440,206.08,8.6083,-1.0029,2.0581,-3.0192,-0.1342,2.3380,rough,14.0,0,4.798
6450,206.40,8.6186,-1.0130,2.0543,-3.0027,-0.1217,2.2710,rough,14.0,0,4.798
6460,206.72,8.6202,-1.0080,2.0559,-3.0308,-0.1425,2.3467,rough,14.0,0,4.803
6470,207.04,8.6164,-1.0110,2.0569,-3.0185,-0.1271,2.2891,slope,18.0,0,4.798
6480,207.36,8.6151,-1.0171,2.0562,-3.0065,-0.1428,2.3213,slope,18.0,0,4.793
6490,207.68,8.6265,-1.0231,2.0602,-3.0092,-0.1316,2.2198,rough,14.0,0,4.796
6500,208.00,8.6264,-1.0206,2.0546,-3.0253,-0.1289,2.2825,slope,18.0,0,4.798
6510,208.32,8.6086,-1.0101,2.0601,-2.9799,-0.1415,2.2286,rough,14.0,0,4.793
6520,208.64,8.6248,-1.0206,2.0545,-3.0114,-0.1641,2.3181,rough,14.0,0,4.797
6530,208.96,8.6354,-1.0480,2.0601,-3.0081,-0.1525,2.3340,rough,14.0,0,4.784
6540,209.28,8.6440,-1.0474,2.0606,-3.0273,-0.1262,2.2449,rough,14.0,0,4.790
6550,209.60,8.6137,-1.0018,2.0572,-3.0198,-0.1494,2.3061,rough,14.0,0,4.803
6560,209.92,8.6268,-1.0223,2.0544,-3.0277,-0.1422,2.2447,rough,14.0,0,4.797
6570,210.24,8.6252,-1.0211,2.0563,-3.0164,-0.1432,2.2825,slope,18.0,0,4.797
6580,210.56,8.6246,-1.0267,2.0549,-3.0327,-0.1351,2.3219,slope,18.0,0,4.792
6590,210.88,8.6261,-1.0197,2.0533,-3.0043,-0.1358,2.2616,rough,14.0,0,4.798
6600,211.20,8.6279,-1.0098,2.0546,-3.0233,-0.1345,2.2236,rough,14.0,0,4.807
6610,211.52,8.6171,-1.0174,2.0577,-2.9920,-0.1211,2.3753,slope,18.0,0,4.794
6620,211.84,8.6200,-1.0082,2.0544,-3.0132,-0.1474,2.1565,rough,14.0,0,4.802
6630,212.16,8.6368,-1.0341,2.0521,-2.9766,-0.1218,2.2654,rough,14.0,0,4.795
6640,212.48,8.6226,-1.0102,2.0586,-2.9979,-0.1426,2.2366,rough,14.0,0,4.803
6650,212.80,8.6351,-1.0364,2.0585,-3.0130,-0.1419,2.2695,rough,14.0,0,4.792
6660,213.12,8.6058,-1.0113,2.0602,-2.9851,-0.1506,2.1959,rough,14.0,0,4.791
6670,213.44,8.6244,-1.0170,2.0552,-3.0353,-0.1492,2.3217,rough,14.0,0,4.799
6680,213.76,8.6202,-1.0116,2.0562,-3.0088,-0.1433,2.2382,slope,18.0,0,4.800
6690,214.08,8.6301,-1.0212,2.0557,-3.0252,-0.1268,2.2331,slope,18.0,0,4.800
6700,214.40,8.6210,-1.0135,2.0568,-3.0155,-0.1361,2.3021,rough,14.0,0,4.799
6710,214.72,8.6176,-1.0127,2.0535,-3.0158,-0.1423,2.2768,slope,18.0,0,4.797
6720,215.04,8.6282,-1.0180,2.0553,-3.0234,-0.1349,2.2351,rough,14.0,0,4.801
6730,215.36,8.6190,-1.0092,2.0528,-3.0391,-0.1389,2.3551,rough,14.0,0,4.801
6740,215.68,8.6243,-1.0146,2.0556,-3.0143,-0.1173,2.2335,slope,18.0,0,4.801
6750,216.00,8.6263,-1.0414,2.0595,-3.0090,-0.1542,2.3035,rough,14.0,0,4.782
6760,216.32,8.6356,-0.9969,2.0596,-3.0386,-0.1247,2.3419,rough,14.0,0,4.821
6770,216.64,8.6120,-1.0015,2.0535,-3.0032,-0.1637,2.3411,rough,14.0,0,4.802
6780,216.96,8.6250,-1.0217,2.0570,-3.0222,-0.1321,2.2549,rough,14.0,0,4.796
6790,217.28,8.6186,-1.0016,2.0586,-3.0301,-0.1541,2.3995,rough,14.0,0,4.806
6800,217.60,8.6319,-1.0080,2.0573,-3.0406,-0.0941,2.1213,rough,14.0,0,4.811
6810,217.92,8.6120,-1.0175,2.0595,-2.9966,-0.1498,2.2468,rough,14.0,0,4.790
6820,218.24,8.6183,-1.0119,2.0592,-3.0155,-0.1265,2.2573,rough,14.0,0,4.799
6830,218.56,8.6225,-1.0263,2.0584,-3.0101,-0.1398,2.3538,rough,14.0,0,4.791
6840,218.88,8.6289,-1.0186,2.0556,-3.0277,-0.1310,2.2593,rough,14.0,0,4.801
6850,219.20,8.6175,-1.0073,2.0518,-3.0116,-0.1341,2.2234,rough,14.0,0,4.801
6860,219.52,8.6211,-1.0400,2.0611,-3.0064,-0.1419,2.2762,rough,14.0,0,4.780
6870,219.84,8.6457,-1.0505,2.0619,-3.0220,-0.1275,2.2447,rough,14.0,0,4.789
6880,220.16,8.6274,-1.0243,2.0578,-3.0111,-0.1478,2.2624,rough,14.0,0,4.796
6890,220.48,8.6178,-1.0208,2.0559,-3.0125,-0.1576,2.3368,rough,14.0,0,4.792
6900,220.80,8.6197,-1.0262,2.0580,-3.0108,-0.1456,2.3470,rough,14.0,0,4.789
6910,221.12,8.6259,-1.0261,2.0587,-3.0201,-0.1272,2.3235,rough,14.0,0,4.793
6920,221.44,8.6176,-1.0187,2.0610,-2.9938,-0.1418,2.2021,slope,18.0,0,4.793
6930,221.76,8.6311,-0.9979,2.0582,-3.0313,-0.1154,2.2618,rough,14.0,0,4.818
6940,222.08,8.6211,-1.0072,2.0552,-3.0216,-0.1318,2.2667,rough,14.0,0,4.804
6950,222.40,8.6216,-1.0224,2.0606,-3.0006,-0.1375,2.2165,rough,14.0,0,4.793
6960,222.72,8.6246,-1.0268,2.0597,-3.0055,-0.1274,2.3569,rough,14.0,0,4.792
6970,223.04,8.6175,-1.0152,2.0588,-3.0315,-0.1598,2.3495,rough,14.0,0,4.796
6980,223.36,8.6297,-1.0186,2.0557,-3.0147,-0.1262,2.2338,rough,14.0,0,4.801
6990,223.68,8.6191,-1.0221,2.0588,-3.0031,-0.1413,2.3559,rough,14.0,0,4.792
7000,224.00,8.6190,-1.0224,2.0593,-3.0203,-0.1200,2.2411,rough,14.0,0,4.791
7010,224.32,8.6182,-1.0075,2.0528,-3.0256,-0.1225,2.3369,rough,14.0,0,4.802
7020,224.64,8.6304,-1.0266,2.0576,-3.0180,-0.1375,2.3161,rough,14.0,0,4.796
7030,224.96,8.6292,-1.0344,2.0553,-2.9984,-0.1407,2.2939,rough,14.0,0,4.790
7040,225.28,8.6342,-1.0404,2.0588,-3.0155,-0.1485,2.3038,rough,14.0,0,4.789
7050,225.60,8.6005,-1.0092,2.0567,-2.9781,-0.1959,2.3380,rough,14.0,0,4.788
7060,225.92,8.6267,-1.0274,2.0540,-2.9994,-0.1415,2.3133,slope,18.0,0,4.793
7070,226.24,8.6325,-1.0375,2.0598,-3.0140,-0.1466,2.3551,rough,14.0,0,4.790
7080,226.56,8.6299,-1.0334,2.0611,-3.0137,-0.1279,2.2525,rough,14.0,0,4.791
7090,226.88,8.6236,-1.0181,2.0590,-3.0049,-0.1429,2.3116,rough,14.0,0,4.798
7100,227.20,8.6283,-1.0215,2.0546,-3.0068,-0.1282,2.2671,rough,14.0,0,4.798
7110,227.52,8.6331,-1.0224,2.0570,-3.0338,-0.1392,2.2768,rough,14.0,0,4.801
7120,227.84,8.6150,-1.0025,2.0576,-3.0281,-0.1297,2.2969,rough,14.0,0,4.803
7130,228.16,8.6550,-1.0449,2.0636,-3.0146,-0.1128,2.3396,rough,14.0,0,4.800
7140,228.48,8.6181,-1.0186,2.0592,-3.0014,-0.1393,2.2584,rough,14.0,0,4.793
7150,228.80,8.6238,-1.0087,2.0546,-3.0142,-0.1392,2.3061,rough,14.0,0,4.805
7160,229.12,8.6294,-1.0367,2.0598,-3.0293,-0.1192,2.2825,rough,14.0,0,4.788
7170,229.44,8.6190,-1.0030,2.0552,-3.0207,-0.1299,2.2968,slope,18.0,0,4.805
7180,229.76,8.6197,-1.0215,2.0577,-3.0046,-0.1460,2.2797,rough,14.0,0,4.792
7190,230.08,8.6157,-1.0115,2.0535,-3.0116,-0.1666,2.3634,slope,18.0,0,4.797
7200,230.40,8.6255,-1.0234,2.0509,-3.0251,-0.1647,2.1936,rough,14.0,0,4.795
7210,230.72,8.6261,-1.0102,2.0558,-3.0071,-0.1469,2.2469,rough,14.0,0,4.805
7220,231.04,8.6305,-1.0162,2.0540,-3.0150,-0.1355,2.2649,rough,14.0,0,4.804
7230,231.36,8.6289,-1.0231,2.0563,-3.0306,-0.1255,2.2261,rough,14.0,0,4.798
7240,231.68,8.6221,-1.0282,2.0563,-3.0198,-0.1474,2.2911,rough,14.0,0,4.789
7250,232.00,8.6097,-1.0233,2.0607,-2.9700,-0.1887,2.2054,rough,14.0,0,4.784
7260,232.32,8.6187,-1.0178,2.0546,-3.0148,-0.1394,2.2245,slope,18.0,0,4.794
7270,232.64,8.6176,-1.0157,2.0554,-3.0277,-0.1194,2.4192,rough,14.0,0,4.795
7280,232.96,8.6217,-1.0204,2.0606,-2.9754,-0.1668,2.1600,rough,14.0,0,4.795
7290,233.28,8.6071,-1.0221,2.0586,-2.9892,-0.1641,2.2980,rough,14.0,0,4.783
7300,233.60,8.6334,-1.0438,2.0575,-3.0273,-0.1386,2.3473,rough,14.0,0,4.786
7310,233.92,8.6293,-1.0072,2.0509,-3.0154,-0.1658,2.2968,slope,18.0,0,4.809
7320,234.24,8.6195,-1.0207,2.0576,-3.0191,-0.1337,2.2859,rough,14.0,0,4.793
7330,234.56,8.6088,-0.9998,2.0614,-2.9763,-0.1523,2.2321,slope,18.0,0,4.801
7340,234.88,8.6402,-1.0372,2.0585,-3.0205,-0.1393,2.2354,rough,14.0,0,4.795
7350,235.20,8.6297,-1.0070,2.0577,-3.0168,-0.1339,2.3749,rough,14.0,0,4.810
7360,235.52,8.6293,-1.0124,2.0485,-2.9843,-0.1214,2.2137,rough,14.0,0,4.806
7370,235.84,8.6372,-1.0316,2.0581,-3.0213,-0.1328,2.3052,rough,14.0,0,4.797
7380,236.16,8.6275,-1.0296,2.0579,-3.0085,-0.1513,2.2629,rough,14.0,0,4.792
7390,236.48,8.6205,-1.0065,2.0598,-3.0031,-0.1244,2.2090,rough,14.0,0,4.804
7400,236.80,8.6325,-1.0011,2.0559,-3.0384,-0.1177,2.2636,rough,14.0,0,4.816
7410,237.12,8.6216,-1.0153,2.0567,-2.9983,-0.1143,2.3227,rough,14.0,0,4.798
7420,237.44,8.6112,-1.0243,2.0565,-3.0121,-0.1423,2.3183,rough,14.0,0,4.785
7430,237.76,8.6301,-1.0104,2.0542,-3.0327,-0.1198,2.2702,rough,14.0,0,4.808
7440,238.08,8.6295,-1.0149,2.0526,-3.0092,-0.1731,2.3214,rough,14.0,0,4.804
7450,238.40,8.6269,-1.0245,2.0573,-3.0108,-0.1486,2.2649,rough,14.0,0,4.795
7460,238.72,8.6299,-0.9946,2.0564,-3.0600,-0.1247,2.3238,rough,14.0,0,4.819
7470,239.04,8.6248,-1.0225,2.0555,-3.0176,-0.1478,2.3020,rough,14.0,0,4.795
7480,239.36,8.6318,-1.0054,2.0562,-3.0212,-0.1226,2.2589,rough,14.0,0,4.812
7490,239.68,8.6282,-1.0170,2.0540,-3.0161,-0.1487,2.2477,rough,14.0,0,4.802
7500,240.00,8.6181,-1.0121,2.0575,-3.0208,-0.0971,2.2355,slope,18.0,0,4.798
7510,240.32,8.6273,-1.0262,2.0567,-3.0140,-0.1325,2.3781,rough,14.0,0,4.794
7520,240.64,8.6241,-1.0309,2.0558,-3.0094,-0.1609,2.2626,rough,14.0,0,4.789
7530,240.96,8.6315,-1.0175,2.0541,-3.0301,-0.1338,2.2801,rough,14.0,0,4.803
7540,241.28,8.6118,-1.0187,2.0562,-3.0089,-0.1552,2.2949,slope,18.0,0,4.789
7550,241.60,8.6235,-1.0143,2.0562,-2.9895,-0.1611,2.1408,rough,14.0,0,4.800
7560,241.92,8.6315,-1.0307,2.0593,-3.0152,-0.1338,2.3061,rough,14.0,0,4.794
7570,242.24,8.6076,-1.0110,2.0564,-2.9931,-0.1566,2.2864,rough,14.0,0,4.792
7580,242.56,8.6226,-1.0242,2.0520,-3.0172,-0.1716,2.2206,rough,14.0,0,4.793
7590,242.88,8.6203,-1.0264,2.0580,-2.9939,-0.1288,2.3645,rough,14.0,0,4.789
7600,243.20,8.6342,-1.0160,2.0560,-3.0209,-0.1179,2.2236,rough,14.0,0,4.806
7610,243.52,8.6323,-1.0161,2.0579,-3.0180,-0.1237,2.2601,slope,18.0,0,4.805
7620,243.84,8.6166,-1.0156,2.0549,-3.0136,-0.1487,2.2968,rough,14.0,0,4.795
7630,244.16,8.6300,-1.0120,2.0546,-3.0259,-0.1258,2.2445,rough,14.0,0,4.806
7640,244.48,8.6278,-1.0216,2.0535,-3.0113,-0.1670,2.2539,rough,14.0,0,4.798
7650,244.80,8.6258,-1.0119,2.0595,-2.9867,-0.1562,2.1042,slope,18.0,0,4.804
7660,245.12,8.6212,-1.0088,2.0552,-3.0051,-0.1155,2.2517,rough,14.0,0,4.803
7670,245.44,8.6130,-1.0135,2.0575,-3.0059,-0.1459,2.2641,rough,14.0,0,4.794
7680,245.76,8.6149,-1.0196,2.0557,-3.0132,-0.1524,2.3120,rough,14.0,0,4.791
7690,246.08,8.6193,-1.0045,2.0556,-3.0293,-0.1422,2.3543,slope,18.0,0,4.805
7700,246.40,8.6246,-1.0168,2.0553,-3.0217,-0.1396,2.2640,rough,14.0,0,4.799
7710,246.72,8.6240,-1.0067,2.0564,-3.0116,-0.1328,2.2637,rough,14.0,0,4.806
7720,247.04,8.6189,-1.0246,2.0543,-3.0203,-0.1543,2.3572,rough,14.0,0,4.790
7730,247.36,8.6201,-1.0200,2.0552,-3.0192,-0.1482,2.2570,rough,14.0,0,4.794
7740,247.68,8.6302,-1.0452,2.0595,-3.0069,-0.1537,2.3526,rough,14.0,0,4.782
7750,248.00,8.6279,-1.0097,2.0539,-3.0347,-0.1297,2.1505,rough,14.0,0,4.807
7760,248.32,8.6313,-1.0105,2.0488,-2.9821,-0.1097,2.1981,rough,14.0,0,4.808
7770,248.64,8.6192,-1.0114,2.0575,-3.0306,-0.1428,2.3720,slope,18.0,0,4.800
7780,248.96,8.6286,-1.0120,2.0567,-3.0222,-0.1198,2.3034,rough,14.0,0,4.806
7790,249.28,8.6264,-1.0137,2.0543,-3.0249,-0.1419,2.2252,rough,14.0,0,4.803
7800,249.60,8.6162,-1.0075,2.0551,-3.0210,-0.1583,2.3614,rough,14.0,0,4.800
7810,249.92,8.6307,-1.0256,2.0497,-2.9746,-0.1334,2.2331,rough,14.0,0,4.797
7820,250.24,8.6090,-1.0133,2.0612,-2.9805,-0.1573,2.1945,slope,18.0,0,4.791
7830,250.56,8.6225,-1.0231,2.0597,-3.0085,-0.1385,2.4323,slope,18.0,0,4.793
7840,250.88,8.6165,-1.0204,2.0580,-3.0213,-0.1268,2.2745,slope,18.0,0,4.791
7850,251.20,8.6222,-1.0091,2.0541,-3.0119,-0.1328,2.2720,slope,18.0,0,4.803
7860,251.52,8.6267,-1.0157,2.0594,-3.0049,-0.1159,2.1861,slope,18.0,0,4.801
7870,251.84,8.6337,-1.0260,2.0571,-3.0239,-0.1290,2.2928,rough,14.0,0,4.799
7880,252.16,8.6235,-1.0038,2.0572,-3.0186,-0.1308,2.3169,rough,14.0,0,4.808
7890,252.48,8.6289,-1.0545,2.0637,-3.0278,-0.1079,2.2974,rough,14.0,0,4.775
7900,252.80,8.6234,-1.0093,2.0573,-3.0212,-0.1225,2.2439,rough,14.0,0,4.804
7910,253.12,8.6247,-1.0147,2.0535,-3.0122,-0.1777,2.3502,slope,18.0,0,4.801
7920,253.44,8.6227,-1.0293,2.0596,-3.0225,-0.1226,2.2460,rough,14.0,0,4.789
7930,253.76,8.6292,-1.0270,2.0540,-3.0159,-0.1592,2.2469,rough,14.0,0,4.795
7940,254.08,8.6136,-1.0095,2.0526,-3.0163,-0.1432,2.3725,rough,14.0,0,4.797
