step,time_s,x,y,z,roll,pitch,yaw,terrain,speed,target_idx,dist_to_target
10,0.32,-0.0089,-0.0618,0.1916,-0.0015,-0.0149,-0.0002,slope,18.0,0,5.403
20,0.64,0.2426,-0.0671,0.2053,0.0224,-0.0474,-0.0188,slope,18.0,0,5.205
30,0.96,0.5535,-0.0785,0.2173,0.0489,-0.0459,-0.0818,slope,18.0,0,4.962
40,1.28,0.9673,-0.1556,0.2432,0.0880,-0.0559,-0.3098,slope,18.0,0,4.609
50,1.60,1.4083,-0.3757,0.2306,0.1010,0.0814,-0.5792,slope,18.0,0,4.144
60,1.92,1.7988,-0.6883,0.1838,0.0816,0.1010,-0.7670,slope,18.0,0,3.650
70,2.24,2.1566,-1.0967,0.1267,0.1103,0.1570,-0.8699,slope,18.0,0,3.107
80,2.56,2.5141,-1.5609,-0.0142,0.1093,0.2838,-0.8923,slope,18.0,0,2.523
90,2.88,2.8171,-1.9860,-0.2018,0.2858,0.4654,-0.8219,rough,14.0,0,2.007
100,3.20,3.0224,-2.2442,-0.3162,0.3110,0.1716,-0.8072,slope,18.0,0,1.679
110,3.52,3.2765,-2.5974,-0.3700,0.5111,0.2361,-0.7449,slope,18.0,0,1.254
120,3.84,3.4584,-2.8280,-0.3923,0.4552,-0.1622,-0.7797,slope,18.0,1,6.922
130,4.16,3.7785,-3.1825,-0.4266,0.3417,0.2904,-0.8429,rough,14.0,1,6.848
140,4.48,3.9987,-3.4921,-0.5110,0.4125,0.1577,-0.9704,rough,14.0,1,6.769
150,4.80,4.0744,-3.7484,-0.5646,0.3352,0.1827,-1.3855,rough,14.0,1,6.642
160,5.12,3.9582,-4.1010,-0.6491,0.3461,0.2113,-1.8902,slope,18.0,1,6.316
170,5.44,3.7968,-4.4573,-0.6934,0.3182,0.0678,-2.1056,rough,14.0,1,5.959
180,5.76,3.5705,-4.7548,-0.7229,0.2283,0.0277,-2.2892,rough,14.0,1,5.593
190,6.08,3.2746,-5.0296,-0.7490,0.2739,0.1396,-2.3817,rough,14.0,1,5.190
200,6.40,2.9331,-5.2413,-0.7829,0.4975,0.1651,-2.4535,rough,14.0,1,4.793
210,6.72,2.7226,-5.3592,-0.7454,0.5917,-0.5088,-2.8460,rough,14.0,1,4.556
220,7.04,2.4908,-5.4105,-0.6639,0.4181,-0.5021,-2.8950,rough,14.0,1,4.349
230,7.36,2.3166,-5.4050,-0.5453,0.4800,-0.7522,-2.9116,rough,14.0,1,4.226
240,7.68,2.1328,-5.4764,-0.3920,0.0976,-0.7802,-2.5552,rough,14.0,1,4.046
250,8.00,1.9458,-5.6004,-0.1846,-0.1184,-0.7394,-2.2920,rough,14.0,1,3.826
260,8.32,1.7571,-5.7698,-0.0005,-0.0261,-0.6555,-2.2213,rough,14.0,1,3.573
270,8.64,1.5580,-5.9812,0.1978,0.0141,-0.6113,-2.0888,rough,14.0,1,3.283
280,8.96,1.4370,-6.2218,0.4151,-0.0909,-0.7772,-2.0147,rough,14.0,1,3.027
290,9.28,1.3535,-6.4253,0.6574,-0.1313,-0.9125,-2.0002,rough,14.0,1,2.825
300,9.60,1.3058,-6.5834,0.8218,-0.4532,-0.7933,-1.6899,rough,14.0,1,2.684
310,9.92,1.3373,-6.6712,0.8769,-0.6266,-0.6921,-1.4316,rough,14.0,1,2.651
320,10.24,1.4794,-6.6574,0.7543,-0.6805,-0.4485,-1.1058,rough,14.0,1,2.771
330,10.56,1.6271,-6.5377,0.5700,-0.6265,-0.4251,-1.1127,rough,14.0,1,2.961
340,10.88,1.6944,-6.4000,0.4322,-0.5359,-0.5513,-1.2451,rough,14.0,1,3.099
350,11.20,1.7345,-6.2857,0.3270,-0.4693,-0.5873,-1.3043,rough,14.0,1,3.203
360,11.52,1.8160,-6.2895,0.2961,-0.5790,-0.4978,-1.0715,slope,18.0,1,3.263
370,11.84,1.9813,-6.3582,0.3050,-0.5956,-0.4961,-0.9576,slope,18.0,1,3.352
380,12.16,2.1436,-6.3689,0.2571,-0.5929,-0.4545,-0.8785,rough,14.0,1,3.477
390,12.48,2.2769,-6.3627,0.2107,-0.4985,-0.5961,-1.1327,rough,14.0,1,3.591
400,12.80,2.4104,-6.3633,0.1659,-0.3979,-0.7159,-1.4138,rough,14.0,1,3.702
410,13.12,2.4935,-6.3485,0.1222,-0.2164,-0.7995,-1.7331,rough,14.0,1,3.781
420,13.44,2.5872,-6.2749,0.0057,-0.1548,-0.8060,-1.8332,slope,18.0,1,3.899
430,13.76,2.6767,-6.1008,-0.1932,-0.3662,-0.7301,-1.5042,rough,14.0,1,4.069
440,14.08,2.7172,-5.8988,-0.3822,-0.3151,-0.7362,-1.5051,rough,14.0,1,4.217
450,14.40,2.7156,-5.7262,-0.5190,-0.3036,-0.6379,-1.5725,rough,14.0,1,4.318
460,14.72,2.7159,-5.6417,-0.5817,-0.3003,-0.5511,-1.5287,rough,14.0,1,4.370
470,15.04,2.7489,-5.6546,-0.5710,-0.3183,-0.5450,-1.4324,rough,14.0,1,4.388
480,15.36,2.7969,-5.7695,-0.4938,-0.3508,-0.6462,-1.2603,rough,14.0,1,4.357
490,15.68,2.8806,-5.8939,-0.4138,-0.3487,-0.6764,-1.1810,rough,14.0,1,4.354
500,16.00,2.9674,-5.9438,-0.3922,-0.3773,-0.5828,-0.9808,rough,14.0,1,4.398
510,16.32,3.0540,-5.9288,-0.3975,-0.1627,-0.7058,-1.1913,rough,14.0,1,4.479
520,16.64,3.1272,-5.9395,-0.3985,-0.1231,-0.6940,-1.3525,rough,14.0,1,4.535
530,16.96,3.1875,-6.0938,-0.3080,-0.1683,-0.5492,-1.4678,rough,14.0,1,4.507
540,17.28,3.2153,-6.2458,-0.1990,-0.1884,-0.6481,-1.4816,rough,14.0,1,4.457
550,17.60,3.2504,-6.4091,-0.1034,-0.3106,-0.7340,-1.4812,rough,14.0,1,4.413
560,17.92,3.2778,-6.6176,0.0116,-0.4009,-0.5486,-1.5670,rough,14.0,1,4.351
570,18.24,3.2877,-6.8049,0.1210,-0.4639,-0.5903,-1.5252,rough,14.0,1,4.289
580,18.56,3.3045,-7.0238,0.2443,-0.5172,-0.5811,-1.5360,slope,18.0,1,4.231
590,18.88,3.3194,-7.3133,0.4082,-0.4807,-0.6055,-1.6755,slope,18.0,1,4.163
600,19.20,3.2935,-7.5680,0.5880,-0.4668,-0.6486,-1.7041,slope,18.0,1,4.081
610,19.52,3.2708,-7.8678,0.8072,-0.4149,-0.7053,-1.7426,slope,18.0,1,4.012
620,19.84,3.2325,-8.1428,1.0419,-0.3947,-0.7223,-1.7564,rough,14.0,1,3.950
630,20.16,3.2218,-8.3135,1.1849,-0.4536,-0.7526,-1.6641,rough,14.0,1,3.934
640,20.48,3.2711,-8.3977,1.2247,-0.4494,-0.7417,-1.6394,rough,14.0,1,3.983
650,20.80,3.3725,-8.3985,1.1570,-0.3142,-0.7778,-1.7916,rough,14.0,1,4.085
660,21.12,3.5077,-8.2981,0.9813,-0.1606,-0.8007,-1.9737,rough,14.0,1,4.220
670,21.44,3.5905,-8.1410,0.8227,-0.5020,-0.5517,-1.3246,rough,14.0,1,4.307
680,21.76,3.6985,-8.0394,0.6881,-0.5527,-0.4793,-1.3308,rough,14.0,1,4.421
690,22.08,3.7566,-8.0226,0.6515,-0.5171,-0.5058,-1.3214,rough,14.0,1,4.481
700,22.40,3.8200,-8.1186,0.6864,-0.4972,-0.4576,-1.3793,rough,14.0,1,4.538
710,22.72,3.8817,-8.3108,0.7875,-0.5248,-0.5056,-1.3325,rough,14.0,1,4.594
720,23.04,3.9501,-8.5652,0.8741,-0.5677,-0.3320,-1.4538,rough,14.0,1,4.667
730,23.36,4.0111,-8.7643,0.9183,-0.5945,-0.3597,-1.6434,rough,14.0,1,4.741
740,23.68,4.0520,-8.9010,0.9272,-0.5058,-0.5355,-1.8090,rough,14.0,1,4.795
750,24.00,4.0589,-8.9988,0.9658,-0.4237,-0.6235,-1.9115,rough,14.0,1,4.814
760,24.32,4.0840,-9.1036,0.9692,-0.4133,-0.6459,-2.0709,rough,14.0,1,4.854
770,24.64,4.1761,-9.2012,0.9173,-0.5218,-0.6518,-2.1087,rough,14.0,1,4.961
780,24.96,4.2499,-9.2672,0.8788,-0.5571,-0.7579,-2.1931,rough,14.0,1,5.045
790,25.28,4.3448,-9.2978,0.7949,-0.3135,-0.6685,-2.3836,rough,14.0,1,5.144
800,25.60,4.3622,-9.3377,0.7984,-0.1283,-0.7486,-2.5727,rough,14.0,1,5.169
810,25.92,4.3098,-9.3905,0.8478,-0.0910,-0.7747,-2.6940,rough,14.0,1,5.128
820,26.24,4.2836,-9.4175,0.8815,-0.1442,-0.8266,-2.6632,rough,14.0,1,5.107
830,26.56,4.2692,-9.4399,0.9022,-0.2131,-0.8467,-2.5852,rough,14.0,1,5.098
840,26.88,4.2676,-9.4610,0.9085,-0.2728,-0.8232,-2.4856,rough,14.0,1,5.101
850,27.20,4.2707,-9.4860,0.9104,-0.3916,-0.7496,-2.2823,rough,14.0,1,5.110
860,27.52,4.2647,-9.5255,0.9263,-0.3199,-0.7901,-2.3735,rough,14.0,1,5.113
870,27.84,4.2536,-9.5611,0.9434,-0.2529,-0.8322,-2.4500,rough,14.0,1,5.110
880,28.16,4.2689,-9.5849,0.9427,-0.1586,-0.8477,-2.6028,rough,14.0,1,5.131
890,28.48,4.2783,-9.5993,0.9393,-0.0459,-0.8459,-2.7520,rough,14.0,1,5.143
900,28.80,4.2803,-9.6065,0.9403,-0.0261,-0.8456,-2.7802,rough,14.0,1,5.147
910,29.12,4.2838,-9.6186,0.9399,0.0714,-0.8522,-2.9138,rough,14.0,1,5.153
920,29.44,4.2945,-9.6174,0.9291,0.1521,-0.8374,-3.0175,rough,14.0,1,5.163
930,29.76,4.3039,-9.6111,0.9165,0.2347,-0.8219,-3.1218,rough,14.0,1,5.171
940,30.08,4.3265,-9.6011,0.8890,0.4006,-0.7784,2.9459,rough,14.0,1,5.191
950,30.40,4.3162,-9.5854,0.8877,0.4932,-0.7686,2.7914,rough,14.0,1,5.177
960,30.72,4.3045,-9.5619,0.8978,0.5519,-0.7203,2.6799,rough,14.0,1,5.160
970,31.04,4.2929,-9.5297,0.9004,0.6191,-0.6657,2.5731,rough,14.0,1,5.141
980,31.36,4.2768,-9.4833,0.8929,0.6998,-0.5846,2.4722,rough,14.0,2,9.375
990,31.68,4.2739,-9.4220,0.8911,0.7628,-0.5187,2.3132,rough,14.0,2,9.336
1000,32.00,4.2737,-9.3395,0.8743,0.8225,-0.4389,2.1588,rough,14.0,2,9.288
1010,32.32,4.3108,-9.2405,0.8085,0.7649,-0.3006,2.0655,rough,14.0,2,9.261
1020,32.64,4.3519,-9.1333,0.7518,0.7451,-0.2150,2.0286,rough,14.0,2,9.234
1030,32.96,4.3617,-9.0154,0.7071,0.6868,-0.1611,1.9956,rough,14.0,2,9.176
1040,33.28,4.3434,-8.8422,0.6979,0.6944,-0.1096,1.9845,rough,14.0,2,9.066
1050,33.60,4.3372,-8.6689,0.6538,0.6764,-0.1324,1.9474,rough,14.0,2,8.968
1060,33.92,4.2623,-8.4251,0.6334,0.6378,-0.0223,2.0521,rough,14.0,2,8.777
1070,34.24,4.0756,-8.1341,0.5783,0.5464,0.2166,2.1921,rough,14.0,2,8.470
1080,34.56,3.8468,-7.7858,0.4573,0.6294,0.3211,2.2560,slope,18.0,2,8.101
1090,34.88,3.5861,-7.4287,0.3234,0.6153,0.2612,2.2180,rough,14.0,2,7.704
1100,35.20,3.4302,-7.1340,0.2380,0.7428,0.0884,2.3707,rough,14.0,2,7.434
1110,35.52,3.2218,-6.8619,0.1927,0.7524,-0.2281,2.6405,rough,14.0,2,7.130
1120,35.84,2.9107,-6.5975,0.1938,0.8193,-0.1120,2.9426,rough,14.0,2,6.739
1130,36.16,2.6427,-6.3260,0.0232,0.8143,-0.3019,2.9689,rough,14.0,2,6.387
1140,36.48,2.5116,-6.0065,-0.2050,0.7304,-0.4066,3.0619,rough,14.0,2,6.151
1150,36.80,2.4384,-5.6382,-0.4845,0.4755,-0.6344,-2.8772,rough,14.0,2,5.967
1160,37.12,2.3273,-5.2775,-0.6377,-0.0138,-0.7102,-2.3302,rough,14.0,2,5.766
1170,37.44,2.3136,-5.1197,-0.7101,0.2830,-0.7146,-2.9339,rough,14.0,2,5.718
1180,37.76,2.1581,-5.0376,-0.6494,0.4990,-0.5818,2.8206,rough,14.0,2,5.549
1190,38.08,1.9266,-4.9229,-0.5786,0.6199,-0.3120,2.8237,rough,14.0,2,5.300
1200,38.40,1.5792,-4.8079,-0.4844,0.5630,-0.3704,3.0338,rough,14.0,2,4.938
1210,38.72,1.2039,-4.7459,-0.4060,0.4530,-0.1961,3.1413,rough,14.0,2,4.557
1220,39.04,0.8680,-4.7282,-0.3200,0.5019,-0.4706,3.1285,rough,14.0,2,4.224
1230,39.36,0.5787,-4.7506,-0.1714,0.3790,-0.5587,3.0972,rough,14.0,2,3.945
1240,39.68,0.3063,-4.7102,0.0087,0.4379,-0.7650,3.0550,rough,14.0,2,3.670
1250,40.00,0.1164,-4.6469,0.1435,0.4070,-0.7140,2.9652,rough,14.0,2,3.471
1260,40.32,0.0516,-4.5554,0.1606,0.3775,-0.7517,3.0000,rough,14.0,2,3.390
1270,40.64,0.0114,-4.4725,0.1538,0.3940,-0.7357,3.0413,rough,14.0,2,3.336
1280,40.96,-0.0804,-4.4552,0.2151,0.4974,-0.6232,2.9434,rough,14.0,2,3.242
1290,41.28,-0.2546,-4.4283,0.3323,0.5486,-0.5389,2.9196,rough,14.0,2,3.066
1300,41.60,-0.5286,-4.3378,0.4448,0.6457,-0.3866,2.8784,slope,18.0,2,2.781
1310,41.92,-0.9606,-4.1928,0.5921,0.6475,-0.3640,2.8792,rough,14.0,2,2.334
1320,42.24,-1.2637,-4.0542,0.6840,0.6721,-0.4927,2.7742,rough,14.0,2,2.021
1330,42.56,-1.4879,-3.9130,0.7873,0.6141,-0.6143,2.8690,rough,14.0,2,1.793
1340,42.88,-1.5910,-3.8190,0.8205,0.5873,-0.5850,2.8811,rough,14.0,2,1.694
1350,43.20,-1.6521,-3.7167,0.8173,0.6798,-0.4032,2.6795,rough,14.0,2,1.644
1360,43.52,-1.6557,-3.6047,0.7627,0.7736,-0.2772,2.6082,rough,14.0,2,1.659
1370,43.84,-1.6849,-3.4133,0.6625,0.6731,-0.4675,2.7942,rough,14.0,2,1.680
1380,44.16,-1.7766,-3.3011,0.6625,0.5525,-0.6965,2.9678,rough,14.0,2,1.633
1390,44.48,-1.8356,-3.2158,0.6695,0.7305,-0.5394,2.6376,rough,14.0,2,1.615
1400,44.80,-1.8615,-3.0858,0.5971,0.7460,-0.3229,2.5931,rough,14.0,2,1.655
1410,45.12,-1.9452,-2.9710,0.5780,0.6599,-0.2982,2.8670,rough,14.0,2,1.649
1420,45.44,-2.1107,-2.8416,0.5741,0.7073,-0.3019,2.9072,rough,14.0,2,1.603
1430,45.76,-2.2548,-2.6983,0.5608,0.6668,-0.2981,2.8593,rough,14.0,2,1.609
1440,46.08,-2.4228,-2.5596,0.5547,0.5339,-0.5365,3.0507,rough,14.0,2,1.623
1450,46.40,-2.5959,-2.4615,0.6131,0.3965,-0.6664,-2.9722,rough,14.0,2,1.627
1460,46.72,-2.7806,-2.4213,0.6975,0.2656,-0.6663,-2.7362,rough,14.0,2,1.596
1470,47.04,-2.9382,-2.5013,0.8311,0.1014,-0.6456,-2.4508,rough,14.0,2,1.476
1480,47.36,-3.0703,-2.6614,0.9687,-0.0528,-0.5474,-2.1904,rough,14.0,2,1.293
1490,47.68,-3.1659,-2.8607,1.0768,-0.1494,-0.4513,-2.0229,rough,14.0,2,1.083
1500,48.00,-3.2905,-3.1069,1.2130,-0.1488,-0.4893,-1.9603,rough,14.0,3,9.440
1510,48.32,-3.4045,-3.3198,1.3138,0.0009,-0.3968,-2.1143,rough,14.0,3,9.675
1520,48.64,-3.4183,-3.4230,1.3537,0.1902,-0.3863,-2.5706,rough,14.0,3,9.778
1530,48.96,-3.3410,-3.4429,1.3448,0.3636,-0.2759,-3.0379,rough,14.0,3,9.778
1540,49.28,-3.4166,-3.3708,1.3269,0.3834,-0.1105,2.7982,rough,14.0,3,9.727
1550,49.60,-3.6460,-3.1703,1.3235,0.4205,-0.0150,2.4623,rough,14.0,3,9.595
1560,49.92,-3.8579,-2.9849,1.3278,0.4330,-0.0337,2.4690,rough,14.0,3,9.480
1570,50.24,-4.0859,-2.7949,1.3218,0.4561,0.0320,2.5072,rough,14.0,3,9.373
1580,50.56,-4.3733,-2.5981,1.2618,0.4349,0.2618,2.6264,rough,14.0,3,9.289
1590,50.88,-4.6737,-2.4104,1.1292,0.1927,0.3703,2.4659,rough,14.0,3,9.232
1600,51.20,-4.8225,-2.2079,1.0336,0.0584,0.3460,2.1503,rough,14.0,3,9.109
1610,51.52,-4.9739,-1.8809,0.9380,0.0230,0.1877,2.0245,rough,14.0,3,8.881
1620,51.84,-5.0827,-1.5388,0.9046,0.1288,0.1583,1.8364,rough,14.0,3,8.629
1630,52.16,-5.1425,-1.2701,0.8712,0.1414,0.0562,1.7327,rough,14.0,3,8.424
1640,52.48,-5.1962,-0.9196,0.8193,0.2065,0.1415,1.6569,rough,14.0,3,8.149
1650,52.80,-5.1799,-0.4862,0.7121,0.3243,0.5095,1.5984,rough,14.0,3,7.773
1660,53.12,-5.0654,-0.1434,0.5245,0.4982,0.3604,1.5961,rough,14.0,3,7.424
1670,53.44,-4.9919,0.2207,0.3365,0.4951,0.5098,1.4382,rough,14.0,3,7.081
1680,53.76,-4.9126,0.5366,0.1926,0.3106,0.4039,1.1618,rough,14.0,3,6.778
1690,54.08,-4.7819,0.7882,0.1176,0.2024,0.1307,0.8772,rough,14.0,3,6.497
1700,54.40,-4.5828,1.0227,0.0957,0.1374,-0.0421,0.8631,rough,14.0,3,6.190
1710,54.72,-4.3603,1.3011,0.0939,0.1368,0.0744,0.9531,rough,14.0,3,5.834
1720,55.04,-4.1262,1.5653,0.0467,0.3549,0.1947,1.0402,rough,14.0,3,5.483
1730,55.36,-3.9665,1.7982,0.0095,0.4240,0.1114,1.0665,rough,14.0,3,5.201
1740,55.68,-3.8704,1.9316,0.0313,0.4444,-0.2514,0.9406,rough,14.0,3,5.036
1750,56.00,-3.7673,2.1423,0.0724,0.2466,-0.3407,0.9549,rough,14.0,3,4.805
1760,56.32,-3.6560,2.3578,0.1608,0.1156,-0.4936,0.9928,rough,14.0,3,4.565
1770,56.64,-3.5548,2.5425,0.2707,0.0264,-0.5758,1.0373,rough,14.0,3,4.357
1780,56.96,-3.4300,2.7357,0.3998,0.0681,-0.5305,1.0671,rough,14.0,3,4.127
1790,57.28,-3.3067,2.9259,0.5163,0.1627,-0.5499,1.0697,rough,14.0,3,3.901
1800,57.60,-3.1457,3.1680,0.6147,0.3492,-0.4182,1.1446,rough,14.0,3,3.611
1810,57.92,-2.9867,3.4897,0.6917,0.4683,-0.1485,1.2927,rough,14.0,3,3.259
1820,58.24,-2.9114,3.7328,0.7327,0.4584,-0.1859,1.2794,rough,14.0,3,3.024
1830,58.56,-2.8349,3.9633,0.7846,0.4683,-0.2503,1.2643,rough,14.0,3,2.800
1840,58.88,-2.7756,4.2354,0.8318,0.3486,-0.1959,1.2992,rough,14.0,3,2.562
1850,59.20,-2.7079,4.5320,0.8758,0.3030,-0.1329,1.3453,rough,14.0,3,2.311
1860,59.52,-2.6380,4.8294,0.8854,0.3314,0.0488,1.4025,rough,14.0,3,2.071
1870,59.84,-2.5292,5.1790,0.8307,0.4577,0.3448,1.3542,rough,14.0,3,1.792
1880,60.16,-2.3831,5.4853,0.6305,0.1514,0.5967,0.9480,rough,14.0,3,1.530
1890,60.48,-2.1111,5.8453,0.1969,0.1081,0.8865,0.9451,rough,14.0,3,1.170
1900,60.80,-1.8221,6.2966,-0.3074,0.0877,0.6557,0.9603,rough,14.0,0,11.438
1910,61.12,-1.5404,6.6331,-0.6062,-0.1429,0.5063,0.6117,rough,14.0,0,11.582
1920,61.44,-1.3068,6.8055,-0.7703,-0.0809,0.5893,0.6531,rough,14.0,0,11.619
1930,61.76,-1.0652,6.9869,-0.9697,0.0677,0.6366,0.7390,rough,14.0,0,11.667
1940,62.08,-0.9580,7.0892,-1.0732,0.0561,0.5912,0.7026,rough,14.0,0,11.710
1950,62.40,-0.9024,7.1760,-1.1241,-0.1345,0.6181,0.3071,rough,14.0,0,11.763
1960,62.72,-0.7924,7.2208,-1.1684,-0.1878,0.4493,0.1094,rough,14.0,0,11.756
1970,63.04,-0.6498,7.2275,-1.2095,-0.1280,0.0547,0.2446,rough,14.0,0,11.702
1980,63.36,-0.4105,7.2787,-1.2099,-0.1002,-0.1150,0.2860,rough,14.0,0,11.651
1990,63.68,-0.1204,7.2555,-1.2539,0.4100,0.1492,0.3589,rough,14.0,0,11.517
2000,64.00,-0.0026,7.2439,-1.2944,0.3725,0.1433,0.1638,rough,14.0,0,11.462
2010,64.32,0.1033,7.1262,-1.3596,0.1194,0.3268,-0.5265,rough,14.0,0,11.314
2020,64.64,0.2880,6.9799,-1.4259,0.0756,0.2699,-0.7763,rough,14.0,0,11.111
2030,64.96,0.5216,6.7762,-1.4586,-0.0743,0.0865,-0.9174,rough,14.0,0,10.838
2040,65.28,0.6779,6.5699,-1.4488,-0.2067,-0.3728,-1.0188,rough,14.0,0,10.591
2050,65.60,0.8474,6.2376,-1.3958,-0.0988,-0.2056,-1.0189,rough,14.0,0,10.222
2060,65.92,1.0764,5.9529,-1.3415,-0.2297,-0.0143,-1.0612,rough,14.0,0,9.878
2070,66.24,1.2580,5.7005,-1.3638,-0.3461,-0.1845,-1.1258,rough,14.0,0,9.581
2080,66.56,1.4049,5.3713,-1.3033,-0.3075,-0.0915,-1.2019,rough,14.0,0,9.223
2090,66.88,1.5350,5.1565,-1.2625,-0.4326,-0.3770,-1.0065,rough,14.0,0,8.978
2100,67.20,1.6950,4.9389,-1.1518,-0.5140,-0.4942,-0.9262,rough,14.0,0,8.723
2110,67.52,1.8302,4.7622,-1.0212,-0.5370,-0.6652,-0.7566,rough,14.0,0,8.515
2120,67.84,2.0410,4.5794,-0.9439,-0.2899,-0.2996,-0.7314,rough,14.0,0,8.282
2130,68.16,2.2851,4.3714,-0.8580,-0.3096,-0.2354,-0.7777,rough,14.0,0,8.018
2140,68.48,2.5209,4.1188,-0.8010,-0.2498,-0.1921,-0.8414,rough,14.0,0,7.718
2150,68.80,2.7662,3.8690,-0.7449,-0.2828,-0.1783,-0.8692,slope,18.0,0,7.422
2160,69.12,3.0270,3.5598,-0.6582,-0.2173,-0.3309,-0.9646,rough,14.0,0,7.070
2170,69.44,3.2032,3.3294,-0.5441,-0.1862,-0.4400,-1.1139,rough,14.0,0,6.814
2180,69.76,3.3652,3.0457,-0.4447,-0.2932,-0.3407,-1.2351,rough,14.0,0,6.511
2190,70.08,3.4957,2.7101,-0.3716,-0.4178,-0.2117,-1.3395,slope,18.0,0,6.161
2200,70.40,3.6083,2.2339,-0.3052,-0.4461,-0.1329,-1.4118,rough,14.0,0,5.675
2210,70.72,3.6794,1.8138,-0.2411,-0.3390,-0.1821,-1.3300,rough,14.0,0,5.250
2220,71.04,3.7732,1.4069,-0.1877,-0.2079,-0.2578,-1.3102,rough,14.0,0,4.836
2230,71.36,3.8787,1.0052,-0.1297,-0.1911,-0.1503,-1.3040,rough,14.0,0,4.426
2240,71.68,3.9809,0.5802,-0.0946,-0.0761,0.0923,-1.3084,rough,14.0,0,3.995
2250,72.00,4.0855,0.2121,-0.1318,-0.0569,0.1068,-1.2930,rough,14.0,0,3.622
2260,72.32,4.2268,-0.1686,-0.2084,-0.1963,0.3107,-1.2848,rough,14.0,0,3.238
2270,72.64,4.3122,-0.4973,-0.2667,-0.1590,0.1620,-1.4084,rough,14.0,0,2.910
2280,72.96,4.3395,-0.8425,-0.2708,-0.0836,-0.0863,-1.5487,rough,14.0,0,2.566
2290,73.28,4.3421,-1.2568,-0.2534,-0.0231,-0.1070,-1.5752,rough,14.0,0,2.152
2300,73.60,4.3363,-1.6414,-0.1899,-0.0118,-0.1509,-1.6237,rough,14.0,0,1.768
2310,73.92,4.3363,-2.0085,-0.1778,-0.1005,-0.0759,-1.6047,rough,14.0,0,1.402
2320,74.24,4.3275,-2.3562,-0.1904,-0.1266,0.1309,-1.6536,rough,14.0,0,1.054
2330,74.56,4.2822,-2.7224,-0.2388,-0.1153,0.1316,-1.8000,rough,14.0,1,7.526
2340,74.88,4.1277,-3.1439,-0.3538,0.1013,0.4293,-1.9156,rough,14.0,1,7.110
2350,75.20,3.9881,-3.4767,-0.5074,0.0820,0.3978,-2.0580,rough,14.0,1,6.773
2360,75.52,3.8298,-3.7697,-0.6150,-0.0722,0.3240,-2.2641,rough,14.0,1,6.452
2370,75.84,3.5953,-4.0175,-0.6912,-0.1572,0.0984,-2.3870,rough,14.0,1,6.111
2380,76.16,3.3024,-4.2738,-0.7110,-0.1589,0.0123,-2.4966,rough,14.0,1,5.723
2390,76.48,2.9283,-4.5508,-0.7885,-0.2078,0.2518,-2.5815,rough,14.0,1,5.264
2400,76.80,2.6123,-4.7557,-0.8157,-0.1007,-0.0403,-2.5258,rough,14.0,1,4.898
2410,77.12,2.3544,-4.9033,-0.7738,0.1178,-0.4764,-2.5694,rough,14.0,1,4.616
2420,77.44,2.2039,-4.9315,-0.7276,0.3022,-0.7287,-3.0861,rough,14.0,1,4.496
2430,77.76,2.0253,-4.9150,-0.6287,0.4188,-0.6344,-3.1080,rough,14.0,1,4.395
2440,78.08,1.8071,-4.9187,-0.5158,0.4329,-0.5224,-2.9821,rough,14.0,1,4.259
2450,78.40,1.5781,-4.9497,-0.4079,0.2580,-0.5708,-2.5741,rough,14.0,1,4.102
2460,78.72,1.3680,-5.0874,-0.2585,0.1215,-0.5845,-2.2997,rough,14.0,1,3.872
2470,79.04,1.1619,-5.2948,-0.0851,0.1442,-0.6039,-2.1720,rough,14.0,1,3.587
2480,79.36,1.0164,-5.4788,0.0950,0.1702,-0.7223,-2.1970,rough,14.0,1,3.354
2490,79.68,0.9181,-5.6326,0.2722,0.1121,-0.9003,-2.1701,rough,14.0,1,3.172
2500,80.00,0.8680,-5.7482,0.4036,-0.0012,-0.8864,-2.1174,rough,14.0,1,3.047
2510,80.32,0.8970,-5.7437,0.3791,-0.0938,-0.8781,-1.9869,rough,14.0,1,3.066
2520,80.64,0.9593,-5.6528,0.2655,-0.1352,-0.8330,-1.7991,rough,14.0,1,3.176
2530,80.96,1.0126,-5.5801,0.1905,-0.3286,-0.6708,-1.3525,rough,14.0,1,3.266
2540,81.28,1.0759,-5.6261,0.1903,-0.3991,-0.5956,-1.3677,rough,14.0,1,3.261
2550,81.60,1.1677,-5.7318,0.2280,-0.5564,-0.5635,-1.2987,rough,14.0,1,3.226
2560,81.92,1.2340,-5.8597,0.2985,-0.6035,-0.6783,-1.2398,rough,14.0,1,3.163
2570,82.24,1.3210,-6.0087,0.3436,-0.6166,-0.4809,-1.3342,rough,14.0,1,3.103
2580,82.56,1.3871,-6.1315,0.3907,-0.5485,-0.4815,-1.3842,rough,14.0,1,3.056
2590,82.88,1.4515,-6.2040,0.4055,-0.5491,-0.4917,-1.2871,rough,14.0,1,3.049
2600,83.20,1.5256,-6.2770,0.4073,-0.5045,-0.5067,-1.2347,rough,14.0,1,3.052
2610,83.52,1.5851,-6.3986,0.4721,-0.5068,-0.6056,-1.2764,rough,14.0,1,3.016
2620,83.84,1.6349,-6.4784,0.5188,-0.4579,-0.6385,-1.3773,rough,14.0,1,3.004
2630,84.16,1.6711,-6.5406,0.5502,-0.4149,-0.6567,-1.4575,rough,14.0,1,2.994
2640,84.48,1.7090,-6.6105,0.6014,-0.4960,-0.6587,-1.3464,rough,14.0,1,2.983
2650,84.80,1.8132,-6.6545,0.6103,-0.6551,-0.6018,-0.9944,rough,14.0,1,3.043
2660,85.12,1.9653,-6.6974,0.5919,-0.7129,-0.4429,-0.6155,rough,14.0,1,3.148
2670,85.44,2.0720,-6.6739,0.5466,-0.5346,-0.5909,-0.8719,rough,14.0,1,3.251
2680,85.76,2.1273,-6.5909,0.4596,-0.3857,-0.6529,-1.1608,rough,14.0,1,3.342
2690,86.08,2.2039,-6.4949,0.3546,-0.3965,-0.6277,-1.1812,rough,14.0,1,3.458
2700,86.40,2.3374,-6.4012,0.2249,-0.3923,-0.6953,-1.3455,rough,14.0,1,3.621
2710,86.72,2.4905,-6.3343,0.1055,-0.3341,-0.7479,-1.5615,rough,14.0,1,3.786
2720,87.04,2.6548,-6.2148,-0.0787,-0.4457,-0.7265,-1.4055,rough,14.0,1,3.988
2730,87.36,2.7657,-6.0322,-0.2727,-0.4833,-0.6577,-1.2069,rough,14.0,1,4.181
2740,87.68,2.8333,-5.8897,-0.3981,-0.4522,-0.7181,-1.1240,rough,14.0,1,4.317
2750,88.00,2.9113,-5.8117,-0.4858,-0.2668,-0.6235,-1.1291,rough,14.0,1,4.426
2760,88.32,2.9948,-5.8696,-0.4537,-0.1571,-0.7249,-1.2193,rough,14.0,1,4.462
2770,88.64,3.0613,-5.9731,-0.3615,-0.0819,-0.7209,-1.3570,rough,14.0,1,4.461
2780,88.96,3.1312,-6.1204,-0.2847,-0.1936,-0.5947,-1.4540,rough,14.0,1,4.445
2790,89.28,3.1658,-6.2894,-0.1659,-0.2530,-0.6891,-1.4449,rough,14.0,1,4.393
2800,89.60,3.2015,-6.4141,-0.0937,-0.3785,-0.7221,-1.4190,rough,14.0,1,4.367
2810,89.92,3.2332,-6.5549,-0.0100,-0.4090,-0.6086,-1.4854,rough,14.0,1,4.335
