step,time_s,x,y,z,roll,pitch,yaw,terrain,speed,target_idx,dist_to_target
10,0.32,0.9625,-0.7651,0.3564,-0.1798,-0.1459,0.3043,rough,14.0,0,5.771
20,0.64,1.2081,-0.6872,0.4168,-0.1303,-0.2614,0.2815,rough,14.0,0,5.640
30,0.96,1.5062,-0.5925,0.5023,-0.1192,-0.3151,0.1729,rough,14.0,0,5.492
40,1.28,1.8065,-0.5417,0.6112,-0.0825,-0.3953,0.0772,rough,14.0,0,5.324
50,1.60,2.0807,-0.5153,0.7264,-0.0804,-0.4015,0.0781,rough,14.0,0,5.167
60,1.92,2.3399,-0.4915,0.8454,-0.0816,-0.4507,0.0855,rough,14.0,0,5.026
70,2.24,2.5830,-0.4603,0.9630,-0.0991,-0.4489,0.1295,rough,14.0,0,4.910
80,2.56,2.7802,-0.4100,1.0585,-0.1419,-0.4491,0.2420,rough,14.0,0,4.845
90,2.88,2.9713,-0.3382,1.1515,-0.1493,-0.4482,0.2639,rough,14.0,0,4.809
100,3.20,3.1692,-0.2550,1.2481,-0.1366,-0.4459,0.2616,rough,14.0,0,4.788
110,3.52,3.3672,-0.1618,1.3416,-0.1156,-0.4336,0.2411,rough,14.0,0,4.786
120,3.84,3.5628,-0.0757,1.4334,-0.0992,-0.4348,0.2158,rough,14.0,0,4.789
130,4.16,3.7506,-0.0072,1.5188,-0.0899,-0.4168,0.1997,rough,14.0,0,4.786
140,4.48,3.9378,0.0514,1.5997,-0.0785,-0.4089,0.1647,rough,14.0,0,4.783
150,4.80,4.1419,0.0881,1.6909,-0.0482,-0.4073,0.1088,rough,14.0,0,4.763
160,5.12,4.3131,0.1216,1.7624,-0.0634,-0.3837,0.1518,rough,14.0,0,4.755
170,5.44,4.4906,0.1617,1.8316,-0.0493,-0.3772,0.1135,rough,14.0,0,4.759
180,5.76,4.6776,0.1880,1.9067,-0.0314,-0.3714,0.0765,rough,14.0,0,4.755
190,6.08,4.8346,0.2147,1.9666,-0.0465,-0.3542,0.1210,rough,14.0,0,4.763
200,6.40,4.9996,0.2505,2.0257,-0.0389,-0.3496,0.0962,rough,14.0,0,4.783
210,6.72,5.1741,0.2720,2.0904,-0.0236,-0.3463,0.0616,rough,14.0,0,4.795
220,7.04,5.3244,0.2933,2.1439,-0.0377,-0.3356,0.1058,rough,14.0,0,4.814
230,7.36,5.4713,0.3192,2.1951,-0.0468,-0.3307,0.1350,rough,14.0,0,4.841
240,7.68,5.6365,0.3535,2.2518,-0.0322,-0.3300,0.0962,rough,14.0,0,4.883
250,8.00,5.7969,0.3852,2.3061,-0.0281,-0.3245,0.0852,rough,14.0,0,4.926
260,8.32,5.9446,0.4182,2.3558,-0.0341,-0.3198,0.1083,rough,14.0,0,4.975
270,8.64,6.0909,0.4524,2.4044,-0.0372,-0.3190,0.1211,rough,14.0,0,5.028
280,8.96,6.2505,0.4831,2.4572,-0.0239,-0.3182,0.0810,rough,14.0,0,5.085
290,9.28,6.4137,0.5004,2.5110,-0.0117,-0.3165,0.0438,rough,14.0,0,5.133
300,9.60,6.5515,0.5176,2.5561,-0.0250,-0.3157,0.0888,rough,14.0,0,5.180
310,9.92,6.6841,0.5384,2.5995,-0.0363,-0.3142,0.1278,rough,14.0,0,5.233
320,10.24,6.8443,0.5631,2.6519,-0.0157,-0.3155,0.0641,rough,14.0,0,5.300
330,10.56,6.9949,0.5779,2.7012,-0.0108,-0.3153,0.0502,rough,14.0,0,5.359
340,10.88,7.1280,0.5927,2.7447,-0.0208,-0.3165,0.0807,rough,14.0,0,5.415
350,11.20,7.2672,0.6042,2.7902,-0.0192,-0.3162,0.0827,rough,14.0,0,5.473
360,11.52,7.4058,0.6156,2.8355,-0.0178,-0.3165,0.0821,rough,14.0,0,5.534
370,11.84,7.5430,0.6269,2.8805,-0.0172,-0.3159,0.0827,rough,14.0,0,5.597
380,12.16,7.6811,0.6388,2.9219,-0.0169,-0.2915,0.0833,rough,14.0,0,5.664
390,12.48,7.9206,0.6480,2.9372,0.0215,0.0769,-0.0375,rough,14.0,0,5.775
400,12.80,8.2646,0.4828,2.8193,0.4837,0.7693,-0.1784,rough,14.0,0,5.793
410,13.12,8.4090,0.1961,2.6382,1.2632,0.8085,-0.1405,rough,14.0,0,5.625
420,13.44,8.4959,-0.0961,2.4945,2.2987,0.7230,1.1568,rough,14.0,0,5.432
430,13.76,8.5798,-0.4471,2.1818,2.8720,-0.0511,1.6667,rough,14.0,0,5.202
440,14.08,8.6240,-0.7233,2.1285,3.0640,-0.1932,2.1663,rough,14.0,0,5.017
450,14.40,8.6904,-0.9241,2.0670,3.1376,-0.1420,2.3113,rough,14.0,0,4.912
460,14.72,8.7002,-0.9952,2.0770,3.1334,-0.1383,2.3348,rough,14.0,0,4.867
470,15.04,8.6158,-1.0272,2.0572,-3.0065,-0.1585,2.3308,rough,14.0,0,4.786
480,15.36,8.6270,-1.0178,2.0583,-3.0089,-0.1326,2.2372,rough,14.0,0,4.800
490,15.68,8.6292,-1.0173,2.0559,-3.0214,-0.1557,2.3547,rough,14.0,0,4.802
500,16.00,8.6245,-1.0125,2.0534,-3.0204,-0.1510,2.2527,slope,18.0,0,4.802
510,16.32,8.6280,-1.0138,2.0538,-3.0175,-0.1499,2.2910,rough,14.0,0,4.804
520,16.64,8.6318,-1.0218,2.0572,-3.0184,-0.1380,2.3608,rough,14.0,0,4.801
530,16.96,8.6050,-1.0097,2.0598,-2.9895,-0.1535,2.2493,slope,18.0,0,4.791
540,17.28,8.6307,-1.0249,2.0621,-3.0419,-0.1472,2.4134,slope,18.0,0,4.797
550,17.60,8.6226,-1.0174,2.0553,-3.0155,-0.1665,2.3592,rough,14.0,0,4.797
560,17.92,8.6263,-1.0094,2.0557,-3.0279,-0.1281,2.2906,rough,14.0,0,4.806
570,18.24,8.6223,-1.0175,2.0533,-3.0092,-0.1707,2.3471,rough,14.0,0,4.797
580,18.56,8.6274,-1.0215,2.0545,-3.0229,-0.1409,2.2206,rough,14.0,0,4.798
590,18.88,8.6264,-1.0140,2.0550,-3.0268,-0.1270,2.2764,rough,14.0,0,4.802
600,19.20,8.6137,-1.0233,2.0529,-3.0188,-0.1633,2.2843,slope,18.0,0,4.787
610,19.52,8.6310,-1.0239,2.0544,-3.0347,-0.1302,2.2879,rough,14.0,0,4.798
620,19.84,8.6087,-1.0129,2.0563,-3.0032,-0.1469,2.3019,rough,14.0,0,4.791
630,20.16,8.6344,-1.0253,2.0581,-3.0288,-0.1192,2.2702,rough,14.0,0,4.800
640,20.48,8.6202,-1.0105,2.0591,-3.0347,-0.1489,2.3565,rough,14.0,0,4.801
650,20.80,8.6132,-1.0157,2.0551,-2.9991,-0.1458,2.2949,rough,14.0,0,4.792
660,21.12,8.6249,-1.0342,2.0609,-3.0074,-0.1359,2.2296,rough,14.0,0,4.787
670,21.44,8.6309,-1.0122,2.0589,-3.0344,-0.1281,2.2923,rough,14.0,0,4.807
680,21.76,8.6186,-1.0175,2.0550,-3.0204,-0.1453,2.3160,rough,14.0,0,4.795
690,22.08,8.6324,-1.0189,2.0561,-3.0297,-0.1297,2.2419,rough,14.0,0,4.803
700,22.40,8.6291,-1.0135,2.0569,-3.0268,-0.1477,2.3216,slope,18.0,0,4.805
710,22.72,8.6155,-1.0296,2.0573,-3.0203,-0.1497,2.4114,rough,14.0,0,4.784
720,23.04,8.6278,-1.0121,2.0571,-3.0273,-0.1000,2.1480,rough,14.0,0,4.805
730,23.36,8.6246,-1.0392,2.0601,-3.0141,-0.1402,2.2864,rough,14.0,0,4.783
740,23.68,8.6267,-1.0236,2.0585,-3.0129,-0.1367,2.3442,rough,14.0,0,4.796
750,24.00,8.6148,-1.0013,2.0560,-3.0200,-0.1255,2.3584,rough,14.0,0,4.804
760,24.32,8.6183,-1.0039,2.0527,-3.0182,-0.1312,2.3604,slope,18.0,0,4.804
770,24.64,8.6117,-1.0181,2.0600,-3.0122,-0.1505,2.3584,slope,18.0,0,4.789
780,24.96,8.6261,-1.0260,2.0546,-2.9849,-0.1069,2.2198,rough,14.0,0,4.794
790,25.28,8.6245,-1.0200,2.0537,-3.0290,-0.1354,2.3308,rough,14.0,0,4.797
800,25.60,8.6167,-1.0190,2.0556,-3.0221,-0.1210,2.3220,slope,18.0,0,4.792
810,25.92,8.6225,-1.0076,2.0519,-2.9988,-0.1062,2.2073,rough,14.0,0,4.805
820,26.24,8.6365,-1.0368,2.0576,-3.0163,-0.1464,2.2827,rough,14.0,0,4.793
830,26.56,8.6520,-1.0579,2.0636,-3.0190,-0.1251,2.3120,rough,14.0,0,4.788
840,26.88,8.6184,-1.0458,2.0616,-3.0076,-0.1311,2.3321,rough,14.0,0,4.774
850,27.20,8.6225,-1.0094,2.0566,-3.0304,-0.1233,2.3614,slope,18.0,0,4.803
860,27.52,8.6234,-1.0036,2.0590,-3.0251,-0.1342,2.3692,slope,18.0,0,4.808
870,27.84,8.6245,-1.0155,2.0544,-3.0204,-0.1348,2.2426,rough,14.0,0,4.800
880,28.16,8.6243,-1.0168,2.0540,-3.0213,-0.1315,2.2674,slope,18.0,0,4.799
890,28.48,8.6331,-1.0213,2.0547,-3.0173,-0.1511,2.2708,rough,14.0,0,4.802
900,28.80,8.6193,-1.0105,2.0563,-3.0001,-0.1604,2.1813,rough,14.0,0,4.800
910,29.12,8.6237,-1.0130,2.0560,-3.0167,-0.1251,2.2804,rough,14.0,0,4.801
920,29.44,8.6200,-1.0245,2.0575,-3.0146,-0.1445,2.3131,slope,18.0,0,4.790
930,29.76,8.6299,-0.9911,2.0620,-3.0416,-0.1033,2.2385,rough,14.0,0,4.822
940,30.08,8.6148,-1.0226,2.0561,-3.0098,-0.1640,2.3601,rough,14.0,0,4.788
950,30.40,8.6194,-1.0054,2.0567,-3.0180,-0.1194,2.2349,slope,18.0,0,4.804
960,30.72,8.6317,-1.0336,2.0587,-3.0163,-0.1414,2.3206,rough,14.0,0,4.792
970,31.04,8.6387,-1.0711,2.0649,-3.0001,-0.1441,2.3083,rough,14.0,0,4.769
980,31.36,8.6388,-1.0148,2.0550,-3.0337,-0.1212,2.2213,rough,14.0,0,4.810
990,31.68,8.6043,-1.0268,2.0642,-2.9737,-0.1584,2.2330,rough,14.0,0,4.778
1000,32.00,8.6233,-1.0274,2.0551,-3.0106,-0.1370,2.2943,rough,14.0,0,4.791
1010,32.32,8.6182,-1.0182,2.0580,-2.9934,-0.1333,2.2326,slope,18.0,0,4.794
1020,32.64,8.6192,-1.0167,2.0570,-3.0000,-0.1194,2.2425,slope,18.0,0,4.796
1030,32.96,8.6183,-1.0250,2.0582,-3.0109,-0.1353,2.2750,slope,18.0,0,4.789
1040,33.28,8.6170,-1.0120,2.0559,-3.0120,-0.1384,2.3427,slope,18.0,0,4.798
1050,33.60,8.6361,-1.0234,2.0553,-3.0319,-0.1251,2.2579,rough,14.0,0,4.802
1060,33.92,8.6336,-1.0449,2.0600,-3.0070,-0.1397,2.3166,rough,14.0,0,4.785
1070,34.24,8.6400,-1.0501,2.0625,-3.0175,-0.1258,2.3402,rough,14.0,0,4.786
1080,34.56,8.6192,-1.0166,2.0567,-3.0141,-0.1425,2.3160,rough,14.0,0,4.796
1090,34.88,8.6249,-1.0117,2.0571,-3.0160,-0.1274,2.3054,rough,14.0,0,4.803
1100,35.20,8.6197,-1.0186,2.0557,-3.0310,-0.1512,2.3334,slope,18.0,0,4.795
1110,35.52,8.6227,-1.0292,2.0551,-3.0213,-0.1524,2.3487,rough,14.0,0,4.789
1120,35.84,8.6242,-1.0167,2.0583,-3.0107,-0.1300,2.2401,rough,14.0,0,4.799
1130,36.16,8.6277,-1.0099,2.0554,-3.0258,-0.1237,2.2664,rough,14.0,0,4.806
1140,36.48,8.6285,-1.0110,2.0544,-3.0265,-0.1231,2.2737,rough,14.0,0,4.806
1150,36.80,8.6238,-1.0165,2.0569,-3.0149,-0.1364,2.2747,rough,14.0,0,4.799
1160,37.12,8.6223,-1.0092,2.0536,-3.0376,-0.1273,2.3428,rough,14.0,0,4.803
1170,37.44,8.6304,-1.0123,2.0569,-3.0200,-0.1312,2.2979,rough,14.0,0,4.806
1180,37.76,8.6238,-1.0209,2.0547,-3.0207,-0.1442,2.3250,rough,14.0,0,4.796
1190,38.08,8.6282,-1.0158,2.0573,-3.0232,-0.1176,2.2359,rough,14.0,0,4.802
1200,38.40,8.6145,-1.0028,2.0590,-3.0233,-0.1507,2.4209,slope,18.0,0,4.803
1210,38.72,8.6211,-1.0187,2.0560,-3.0144,-0.1463,2.3245,rough,14.0,0,4.795
1220,39.04,8.6101,-1.0156,2.0514,-3.0050,-0.1096,2.3152,rough,14.0,0,4.790
1230,39.36,8.6212,-1.0250,2.0599,-3.0109,-0.1355,2.3798,rough,14.0,0,4.791
1240,39.68,8.6101,-1.0154,2.0570,-3.0177,-0.1274,2.3090,rough,14.0,0,4.790
1250,40.00,8.6255,-1.0316,2.0581,-3.0276,-0.1379,2.3751,rough,14.0,0,4.789
1260,40.32,8.6211,-1.0104,2.0506,-3.0285,-0.1156,2.3185,rough,14.0,0,4.802
1270,40.64,8.6060,-1.0154,2.0583,-2.9990,-0.1515,2.3137,rough,14.0,0,4.788
1280,40.96,8.6060,-1.0298,2.0638,-2.9665,-0.1675,2.2495,rough,14.0,0,4.777
1290,41.28,8.6266,-1.0203,2.0562,-3.0231,-0.1407,2.2607,rough,14.0,0,4.798
1300,41.60,8.6147,-1.0052,2.0599,-3.0073,-0.1491,2.3224,rough,14.0,0,4.801
1310,41.92,8.6173,-1.0258,2.0578,-3.0015,-0.1516,2.2437,rough,14.0,0,4.788
1320,42.24,8.6182,-1.0110,2.0553,-3.0108,-0.1509,2.3222,rough,14.0,0,4.799
1330,42.56,8.6125,-1.0233,2.0547,-3.0105,-0.1616,2.3207,rough,14.0,0,4.786
1340,42.88,8.6305,-1.0299,2.0573,-3.0206,-0.1387,2.3506,rough,14.0,0,4.794
1350,43.20,8.6185,-1.0123,2.0545,-3.0014,-0.1352,2.2212,rough,14.0,0,4.798
1360,43.52,8.6250,-1.0148,2.0575,-3.0239,-0.1300,2.3402,rough,14.0,0,4.801
1370,43.84,8.6272,-1.0212,2.0564,-3.0293,-0.1289,2.2613,slope,18.0,0,4.798
1380,44.16,8.6128,-1.0222,2.0588,-3.0011,-0.1501,2.3182,rough,14.0,0,4.787
1390,44.48,8.6266,-1.0238,2.0562,-3.0190,-0.1429,2.2566,rough,14.0,0,4.796
1400,44.80,8.6076,-1.0173,2.0591,-2.9922,-0.1522,2.2736,rough,14.0,0,4.787
1410,45.12,8.6238,-1.0118,2.0555,-3.0166,-0.1225,2.2754,rough,14.0,0,4.802
1420,45.44,8.6214,-1.0148,2.0557,-3.0106,-0.1284,2.2932,rough,14.0,0,4.798
1430,45.76,8.6154,-1.0113,2.0564,-3.0102,-0.1309,2.2794,slope,18.0,0,4.797
1440,46.08,8.6214,-1.0150,2.0566,-3.0147,-0.1390,2.3055,slope,18.0,0,4.798
1450,46.40,8.6163,-1.0174,2.0596,-3.0020,-0.1289,2.2286,rough,14.0,0,4.793
1460,46.72,8.6163,-1.0153,2.0555,-3.0178,-0.1393,2.2998,rough,14.0,0,4.795
1470,47.04,8.6208,-1.0187,2.0542,-3.0315,-0.1332,2.3320,slope,18.0,0,4.795
1480,47.36,8.6088,-1.0138,2.0551,-3.0098,-0.1467,2.3285,rough,14.0,0,4.791
1490,47.68,8.6304,-1.0231,2.0608,-3.0161,-0.1257,2.3540,rough,14.0,0,4.799
1500,48.00,8.6202,-1.0187,2.0516,-3.0163,-0.1672,2.2241,rough,14.0,0,4.795
1510,48.32,8.6197,-1.0230,2.0539,-3.0159,-0.1123,2.4153,slope,18.0,0,4.791
1520,48.64,8.6113,-1.0056,2.0588,-2.9963,-0.1361,2.2582,slope,18.0,0,4.798
1530,48.96,8.6227,-1.0184,2.0566,-3.0088,-0.1511,2.1469,rough,14.0,0,4.797
1540,49.28,8.6209,-1.0195,2.0569,-3.0157,-0.1369,2.3216,slope,18.0,0,4.795
1550,49.60,8.6251,-1.0159,2.0552,-3.0305,-0.1219,2.2941,rough,14.0,0,4.800
1560,49.92,8.6215,-1.0276,2.0574,-2.9966,-0.1075,2.4348,rough,14.0,0,4.789
1570,50.24,8.6189,-1.0174,2.0580,-3.0105,-0.1462,2.2767,rough,14.0,0,4.795
1580,50.56,8.6219,-1.0247,2.0579,-2.9915,-0.1578,2.2736,rough,14.0,0,4.792
1590,50.88,8.6141,-1.0145,2.0527,-3.0265,-0.1385,2.3708,rough,14.0,0,4.794
1600,51.20,8.6110,-1.0150,2.0607,-2.9937,-0.1434,2.2239,rough,14.0,0,4.791
1610,51.52,8.6265,-1.0252,2.0580,-3.0162,-0.1446,2.3292,rough,14.0,0,4.794
1620,51.84,8.6298,-1.0179,2.0594,-3.0060,-0.1069,2.3603,rough,14.0,0,4.802
1630,52.16,8.6165,-1.0136,2.0510,-2.9824,-0.1138,2.2562,slope,18.0,0,4.796
1640,52.48,8.6256,-1.0086,2.0578,-3.0084,-0.1299,2.2425,rough,14.0,0,4.806
1650,52.80,8.6399,-1.0003,2.0562,-3.0344,-0.1081,2.2467,rough,14.0,0,4.822
1660,53.12,8.6183,-1.0201,2.0537,-3.0387,-0.1256,2.3739,rough,14.0,0,4.793
1670,53.44,8.6318,-1.0113,2.0557,-3.0317,-0.1159,2.2989,rough,14.0,0,4.808
1680,53.76,8.6322,-1.0033,2.0528,-3.0174,-0.1145,2.2462,rough,14.0,0,4.814
1690,54.08,8.6248,-1.0047,2.0591,-3.0054,-0.1244,2.2269,rough,14.0,0,4.808
1700,54.40,8.6162,-1.0080,2.0554,-3.0213,-0.1283,2.3255,rough,14.0,0,4.800
1710,54.72,8.6279,-1.0222,2.0574,-3.0182,-0.1557,2.2963,rough,14.0,0,4.798
1720,55.04,8.6509,-1.0637,2.0627,-3.0149,-0.1409,2.2857,rough,14.0,0,4.783
1730,55.36,8.6239,-1.0422,2.0585,-3.0080,-0.1650,2.3783,rough,14.0,0,4.780
1740,55.68,8.6043,-1.0157,2.0581,-2.9979,-0.1476,2.2931,slope,18.0,0,4.786
1750,56.00,8.6205,-1.0181,2.0527,-3.0392,-0.1315,2.3590,rough,14.0,0,4.795
1760,56.32,8.6139,-1.0266,2.0585,-3.0074,-0.1529,2.3846,rough,14.0,0,4.785
1770,56.64,8.6264,-1.0119,2.0547,-3.0251,-0.1162,2.2837,rough,14.0,0,4.804
1780,56.96,8.6246,-1.0226,2.0540,-3.0351,-0.1299,2.3269,rough,14.0,0,4.795
1790,57.28,8.6232,-1.0207,2.0560,-3.0250,-0.1426,2.3530,rough,14.0,0,4.795
1800,57.60,8.6155,-1.0179,2.0531,-3.0185,-0.1573,2.3278,rough,14.0,0,4.792
1810,57.92,8.6289,-1.0144,2.0557,-3.0150,-0.1235,2.2814,rough,14.0,0,4.804
1820,58.24,8.6198,-1.0158,2.0524,-3.0421,-0.1351,2.3192,slope,18.0,0,4.797
1830,58.56,8.6270,-1.0133,2.0535,-3.0306,-0.1337,2.2544,rough,14.0,0,4.803
1840,58.88,8.6199,-1.0266,2.0562,-3.0153,-0.1397,2.3414,rough,14.0,0,4.789
1850,59.20,8.6213,-1.0040,2.0571,-3.0234,-0.1381,2.3095,rough,14.0,0,4.806
1860,59.52,8.6234,-1.0140,2.0502,-2.9773,-0.1162,2.2707,rough,14.0,0,4.800
1870,59.84,8.6310,-1.0170,2.0546,-3.0272,-0.1406,2.2845,slope,18.0,0,4.803
1880,60.16,8.6278,-1.0145,2.0571,-3.0206,-0.1233,2.2479,rough,14.0,0,4.803
1890,60.48,8.6251,-1.0235,2.0573,-3.0191,-0.1368,2.3064,rough,14.0,0,4.795
1900,60.80,8.6260,-1.0163,2.0555,-3.0220,-0.1355,2.2527,rough,14.0,0,4.801
1910,61.12,8.6232,-1.0143,2.0569,-3.0192,-0.1361,2.3007,rough,14.0,0,4.800
1920,61.44,8.6205,-1.0124,2.0523,-3.0081,-0.1666,2.3530,slope,18.0,0,4.800
1930,61.76,8.6224,-1.0159,2.0538,-3.0244,-0.1490,2.2141,rough,14.0,0,4.798
1940,62.08,8.6284,-1.0288,2.0567,-3.0239,-0.1337,2.3082,rough,14.0,0,4.793
1950,62.40,8.6177,-1.0258,2.0554,-3.0023,-0.1378,2.2856,rough,14.0,0,4.788
1960,62.72,8.6294,-1.0274,2.0592,-3.0146,-0.1318,2.3329,rough,14.0,0,4.795
1970,63.04,8.6234,-1.0197,2.0565,-3.0198,-0.1308,2.2737,rough,14.0,0,4.796
1980,63.36,8.6183,-1.0163,2.0508,-3.0398,-0.1389,2.3153,slope,18.0,0,4.795
1990,63.68,8.6221,-1.0177,2.0565,-3.0222,-0.1306,2.2651,rough,14.0,0,4.797
2000,64.00,8.6157,-1.0101,2.0542,-3.0030,-0.1289,2.3168,slope,18.0,0,4.798
2010,64.32,8.6169,-1.0179,2.0581,-3.0074,-0.1536,2.3481,rough,14.0,0,4.793
2020,64.64,8.6287,-1.0027,2.0558,-3.0271,-0.1334,2.2868,slope,18.0,0,4.812
2030,64.96,8.6040,-1.0114,2.0596,-2.9756,-0.1582,2.2188,rough,14.0,0,4.789
2040,65.28,8.6294,-1.0136,2.0559,-3.0141,-0.1291,2.2305,rough,14.0,0,4.805
2050,65.60,8.6212,-1.0231,2.0488,-3.0296,-0.1348,2.3310,slope,18.0,0,4.792
2060,65.92,8.6203,-1.0115,2.0578,-3.0077,-0.1353,2.2465,rough,14.0,0,4.800
2070,66.24,8.6248,-1.0046,2.0571,-3.0243,-0.1376,2.3195,slope,18.0,0,4.808
2080,66.56,8.6223,-1.0377,2.0591,-3.0034,-0.1504,2.2743,rough,14.0,0,4.782
2090,66.88,8.6269,-1.0235,2.0568,-3.0246,-0.1341,2.2530,rough,14.0,0,4.796
2100,67.20,8.6191,-1.0138,2.0576,-3.0109,-0.1356,2.3530,rough,14.0,0,4.798
2110,67.52,8.6239,-1.0137,2.0564,-3.0235,-0.1234,2.2596,rough,14.0,0,4.801
2120,67.84,8.6272,-1.0251,2.0550,-3.0142,-0.1284,2.2806,rough,14.0,0,4.795
2130,68.16,8.6126,-1.0214,2.0602,-2.9796,-0.1775,2.2443,rough,14.0,0,4.788
2140,68.48,8.6418,-1.0161,2.0562,-3.0259,-0.1175,2.1922,rough,14.0,0,4.812
2150,68.80,8.6156,-1.0250,2.0543,-3.0152,-0.1639,2.4053,rough,14.0,0,4.787
2160,69.12,8.6168,-1.0216,2.0540,-3.0096,-0.1730,2.3759,rough,14.0,0,4.790
2170,69.44,8.6191,-1.0081,2.0550,-3.0158,-0.1403,2.2373,slope,18.0,0,4.802
2180,69.76,8.6300,-1.0173,2.0542,-3.0159,-0.1525,2.2886,rough,14.0,0,4.803
2190,70.08,8.6191,-1.0054,2.0556,-3.0227,-0.1351,2.2827,rough,14.0,0,4.804
2200,70.40,8.6397,-1.0337,2.0537,-3.0181,-0.1729,2.2684,rough,14.0,0,4.797
2210,70.72,8.6183,-0.9928,2.0600,-3.0366,-0.1270,2.3279,slope,18.0,0,4.812
2220,71.04,8.6265,-1.0327,2.0594,-3.0115,-0.1312,2.2364,rough,14.0,0,4.789
2230,71.36,8.6122,-1.0163,2.0538,-2.9963,-0.1309,2.4423,rough,14.0,0,4.791
2240,71.68,8.6194,-1.0103,2.0565,-3.0100,-0.1378,2.3368,rough,14.0,0,4.801
2250,72.00,8.6289,-1.0127,2.0557,-3.0185,-0.1325,2.2413,rough,14.0,0,4.805
2260,72.32,8.6238,-1.0138,2.0603,-2.9885,-0.1509,2.2046,rough,14.0,0,4.801
2270,72.64,8.6291,-1.0116,2.0541,-3.0213,-0.1436,2.3046,rough,14.0,0,4.806
2280,72.96,8.6209,-1.0119,2.0568,-3.0202,-0.1326,2.2868,rough,14.0,0,4.800
2290,73.28,8.6197,-1.0206,2.0603,-3.0021,-0.1323,2.2459,slope,18.0,0,4.793
2300,73.60,8.6099,-1.0283,2.0612,-2.9818,-0.1701,2.2689,rough,14.0,0,4.781
2310,73.92,8.6275,-1.0133,2.0580,-3.0298,-0.1036,2.2035,rough,14.0,0,4.804
2320,74.24,8.6130,-1.0306,2.0574,-3.0100,-0.1550,2.3608,rough,14.0,0,4.781
2330,74.56,8.6311,-1.0360,2.0601,-3.0145,-0.1355,2.3621,rough,14.0,0,4.790
2340,74.88,8.6161,-1.0012,2.0551,-3.0143,-0.1267,2.2948,rough,14.0,0,4.805
2350,75.20,8.6158,-1.0203,2.0588,-3.0149,-0.1296,2.3514,rough,14.0,0,4.791
2360,75.52,8.6139,-1.0071,2.0601,-2.9910,-0.1381,2.2394,rough,14.0,0,4.799
2370,75.84,8.6231,-1.0154,2.0592,-3.0245,-0.1415,2.3500,slope,18.0,0,4.799
2380,76.16,8.6110,-1.0096,2.0610,-3.0105,-0.1516,2.3886,slope,18.0,0,4.795
2390,76.48,8.6243,-0.9999,2.0544,-3.0322,-0.1426,2.2385,rough,14.0,0,4.811
2400,76.80,8.6061,-1.0085,2.0548,-2.9869,-0.1483,2.2392,slope,18.0,0,4.793
2410,77.12,8.6235,-1.0143,2.0515,-2.9831,-0.1121,2.2201,rough,14.0,0,4.800
2420,77.44,8.6320,-1.0226,2.0484,-2.9803,-0.1195,2.2067,rough,14.0,0,4.800
2430,77.76,8.6136,-1.0138,2.0546,-3.0089,-0.1653,2.3637,slope,18.0,0,4.794
2440,78.08,8.6181,-1.0221,2.0538,-3.0127,-0.1494,2.2454,rough,14.0,0,4.791
2450,78.40,8.6233,-1.0065,2.0582,-3.0156,-0.1249,2.3164,slope,18.0,0,4.806
2460,78.72,8.6114,-1.0231,2.0574,-3.0181,-0.1387,2.2961,rough,14.0,0,4.786
2470,79.04,8.6344,-1.0223,2.0539,-3.0284,-0.1470,2.2892,rough,14.0,0,4.802
2480,79.36,8.6158,-1.0213,2.0590,-3.0035,-0.1452,2.2591,slope,18.0,0,4.790
2490,79.68,8.6120,-1.0147,2.0516,-3.0179,-0.1636,2.2363,rough,14.0,0,4.792
2500,80.00,8.6230,-1.0217,2.0586,-3.0272,-0.1153,2.2235,rough,14.0,0,4.795
2510,80.32,8.6380,-1.0346,2.0581,-3.0217,-0.1345,2.2600,rough,14.0,0,4.795
2520,80.64,8.6160,-1.0171,2.0578,-3.0192,-0.1280,2.2733,slope,18.0,0,4.793
2530,80.96,8.6255,-1.0204,2.0543,-3.0116,-0.1476,2.3114,rough,14.0,0,4.797
2540,81.28,8.6364,-1.0193,2.0585,-3.0063,-0.1107,2.3209,rough,14.0,0,4.805
2550,81.60,8.6143,-1.0175,2.0584,-2.9903,-0.1641,2.2743,rough,14.0,0,4.792
2560,81.92,8.6008,-1.0317,2.0643,-2.9792,-0.1606,2.2806,slope,18.0,0,4.772
2570,82.24,8.6370,-1.0218,2.0509,-3.0219,-0.1801,2.3086,rough,14.0,0,4.804
2580,82.56,8.6170,-1.0236,2.0498,-3.0258,-0.1089,2.3639,rough,14.0,0,4.789
2590,82.88,8.6215,-1.0153,2.0541,-3.0189,-0.1531,2.2571,rough,14.0,0,4.798
2600,83.20,8.6074,-1.0133,2.0610,-2.9850,-0.1459,2.2280,rough,14.0,0,4.790
2610,83.52,8.6330,-1.0240,2.0566,-3.0233,-0.1232,2.2368,rough,14.0,0,4.800
2620,83.84,8.6173,-1.0297,2.0569,-3.0281,-0.1276,2.3062,rough,14.0,0,4.785
2630,84.16,8.6322,-1.0045,2.0536,-3.0192,-0.1253,2.2276,rough,14.0,0,4.813
2640,84.48,8.6278,-1.0074,2.0576,-3.0232,-0.1335,2.3110,rough,14.0,0,4.808
2650,84.80,8.6229,-1.0177,2.0572,-3.0140,-0.1392,2.2955,rough,14.0,0,4.797
2660,85.12,8.6642,-1.0795,2.0664,-3.0190,-0.1225,2.2469,rough,14.0,0,4.781
2670,85.44,8.6405,-1.0473,2.0604,-3.0180,-0.1373,2.2897,rough,14.0,0,4.788
2680,85.76,8.6340,-1.0245,2.0542,-3.0406,-0.1276,2.2992,rough,14.0,0,4.800
2690,86.08,8.6338,-1.0294,2.0563,-3.0275,-0.1315,2.2863,rough,14.0,0,4.796
2700,86.40,8.6211,-1.0200,2.0580,-3.0143,-0.1322,2.2270,rough,14.0,0,4.795
2710,86.72,8.6292,-1.0036,2.0568,-3.0213,-0.1241,2.2708,slope,18.0,0,4.812
2720,87.04,8.6225,-1.0197,2.0547,-3.0255,-0.1425,2.2572,rough,14.0,0,4.796
2730,87.36,8.6262,-1.0155,2.0541,-3.0375,-0.1244,2.3242,rough,14.0,0,4.801
2740,87.68,8.6253,-1.0081,2.0542,-3.0124,-0.1287,2.2693,slope,18.0,0,4.806
2750,88.00,8.6205,-1.0122,2.0565,-3.0252,-0.1346,2.3437,rough,14.0,0,4.800
2760,88.32,8.6328,-1.0337,2.0575,-3.0096,-0.1361,2.3007,rough,14.0,0,4.793
2770,88.64,8.6323,-1.0400,2.0574,-3.0205,-0.1475,2.3037,rough,14.0,0,4.788
2780,88.96,8.6270,-1.0079,2.0569,-3.0206,-0.1175,2.2528,rough,14.0,0,4.807
2790,89.28,8.6284,-1.0314,2.0570,-3.0196,-0.1490,2.2984,rough,14.0,0,4.791
2800,89.60,8.6215,-1.0202,2.0536,-3.0126,-0.1327,2.2642,rough,14.0,0,4.795
2810,89.92,8.6180,-1.0135,2.0509,-3.0203,-0.1527,2.2241,rough,14.0,0,4.797
2820,90.24,8.6298,-1.0059,2.0606,-3.0198,-0.1276,2.3467,rough,14.0,0,4.811
2830,90.56,8.6197,-1.0361,2.0559,-2.9910,-0.1452,2.3593,rough,14.0,0,4.782
2840,90.88,8.6220,-1.0160,2.0563,-3.0245,-0.1221,2.2734,rough,14.0,0,4.798
2850,91.20,8.6168,-1.0095,2.0556,-3.0164,-0.1483,2.3269,slope,18.0,0,4.799
2860,91.52,8.6246,-1.0107,2.0556,-3.0186,-0.1333,2.2483,slope,18.0,0,4.804
2870,91.84,8.6212,-1.0037,2.0565,-3.0174,-0.1376,2.3051,slope,18.0,0,4.807
2880,92.16,8.6275,-1.0491,2.0575,-3.0072,-0.1550,2.3066,rough,14.0,0,4.778
2890,92.48,8.6307,-0.9936,2.0592,-3.0405,-0.1280,2.2805,rough,14.0,0,4.820
2900,92.80,8.6161,-1.0232,2.0593,-3.0099,-0.1302,2.2168,rough,14.0,0,4.789
2910,93.12,8.6213,-1.0139,2.0581,-3.0216,-0.1197,2.2618,slope,18.0,0,4.799
2920,93.44,8.6260,-1.0133,2.0526,-3.0094,-0.1576,2.3115,rough,14.0,0,4.803
2930,93.76,8.6139,-1.0224,2.0538,-3.0191,-0.1633,2.2567,rough,14.0,0,4.788
2940,94.08,8.6198,-1.0109,2.0570,-3.0070,-0.1342,2.1508,rough,14.0,0,4.800
2950,94.40,8.6275,-1.0118,2.0573,-3.0241,-0.1274,2.2714,rough,14.0,0,4.805
2960,94.72,8.6185,-1.0133,2.0556,-3.0179,-0.1385,2.2975,rough,14.0,0,4.798
2970,95.04,8.6191,-1.0186,2.0563,-3.0135,-0.1459,2.2796,slope,18.0,0,4.794
2980,95.36,8.6257,-1.0192,2.0569,-3.0151,-0.1248,2.3086,rough,14.0,0,4.798
2990,95.68,8.6322,-1.0232,2.0567,-3.0043,-0.1327,2.2093,rough,14.0,0,4.800
3000,96.00,8.6153,-1.0113,2.0544,-3.0295,-0.1296,2.3575,rough,14.0,0,4.797
3010,96.32,8.6251,-1.0368,2.0580,-3.0073,-0.1648,2.3596,rough,14.0,0,4.785
3020,96.64,8.6181,-1.0135,2.0569,-3.0094,-0.1322,2.2897,rough,14.0,0,4.797
3030,96.96,8.6285,-1.0089,2.0570,-3.0135,-0.1248,2.2350,slope,18.0,0,4.808
3040,97.28,8.6204,-1.0255,2.0561,-3.0156,-0.1487,2.3195,rough,14.0,0,4.790
3050,97.60,8.6259,-1.0075,2.0577,-3.0265,-0.1225,2.3324,rough,14.0,0,4.807
3060,97.92,8.6218,-1.0220,2.0547,-3.0255,-0.1397,2.3165,slope,18.0,0,4.794
3070,98.24,8.6238,-1.0173,2.0535,-3.0273,-0.1443,2.2312,rough,14.0,0,4.798
3080,98.56,8.6073,-1.0102,2.0595,-3.0016,-0.1525,2.3303,slope,18.0,0,4.792
3090,98.88,8.6209,-1.0329,2.0599,-3.0183,-0.1305,2.2943,rough,14.0,0,4.785
3100,99.20,8.6314,-0.9927,2.0541,-3.0530,-0.1162,2.3398,rough,14.0,0,4.821
3110,99.52,8.6162,-1.0159,2.0574,-3.0084,-0.1516,2.3403,rough,14.0,0,4.794
3120,99.84,8.6151,-1.0058,2.0524,-2.9838,-0.1039,2.2157,slope,18.0,0,4.801
3130,100.16,8.6313,-1.0061,2.0543,-3.0413,-0.1291,2.3470,rough,14.0,0,4.812
3140,100.48,8.6158,-1.0158,2.0577,-3.0041,-0.1257,2.3737,rough,14.0,0,4.794
3150,100.80,8.6290,-1.0245,2.0545,-3.0352,-0.1290,2.3023,rough,14.0,0,4.797
3160,101.12,8.6260,-1.0140,2.0582,-3.0309,-0.1045,2.2015,rough,14.0,0,4.802
3170,101.44,8.6065,-1.0036,2.0573,-3.0159,-0.1530,2.3762,slope,18.0,0,4.797
3180,101.76,8.6226,-1.0160,2.0570,-3.0171,-0.1346,2.3032,rough,14.0,0,4.799
3190,102.08,8.6238,-1.0104,2.0558,-3.0223,-0.1320,2.2710,rough,14.0,0,4.803
3200,102.40,8.6180,-1.0189,2.0530,-3.0208,-0.1586,2.3541,rough,14.0,0,4.793
3210,102.72,8.6239,-1.0196,2.0544,-3.0226,-0.1445,2.2337,rough,14.0,0,4.797
3220,103.04,8.6190,-1.0016,2.0570,-3.0244,-0.1245,2.3124,rough,14.0,0,4.807
3230,103.36,8.6441,-1.0288,2.0554,-3.0037,-0.1182,2.2265,rough,14.0,0,4.804
3240,103.68,8.6209,-0.9913,2.0585,-3.0484,-0.1372,2.3585,rough,14.0,0,4.815
3250,104.00,8.6188,-1.0124,2.0564,-3.0217,-0.1375,2.3195,rough,14.0,0,4.798
3260,104.32,8.6220,-1.0262,2.0559,-3.0206,-0.1476,2.3113,rough,14.0,0,4.791
3270,104.64,8.6063,-1.0225,2.0564,-3.0074,-0.1563,2.3124,slope,18.0,0,4.783
3280,104.96,8.6172,-1.0179,2.0487,-3.0040,-0.1051,2.2570,rough,14.0,0,4.793
3290,105.28,8.6186,-1.0167,2.0541,-3.0042,-0.1328,2.2783,rough,14.0,0,4.795
3300,105.60,8.6233,-1.0184,2.0559,-3.0120,-0.1432,2.2609,slope,18.0,0,4.797
3310,105.92,8.6170,-1.0191,2.0556,-2.9960,-0.1246,2.3327,rough,14.0,0,4.792
3320,106.24,8.6132,-1.0180,2.0566,-2.9997,-0.1558,2.2564,rough,14.0,0,4.791
3330,106.56,8.6171,-1.0267,2.0583,-3.0026,-0.1557,2.3663,rough,14.0,0,4.787
3340,106.88,8.6298,-1.0146,2.0542,-3.0327,-0.1281,2.2797,rough,14.0,0,4.804
3350,107.20,8.6312,-1.0180,2.0575,-3.0266,-0.1160,2.2241,slope,18.0,0,4.803
3360,107.52,8.6222,-1.0199,2.0571,-3.0164,-0.1438,2.3454,rough,14.0,0,4.795
3370,107.84,8.6289,-1.0050,2.0565,-3.0288,-0.1394,2.3047,rough,14.0,0,4.811
3380,108.16,8.6254,-1.0103,2.0568,-3.0243,-0.1356,2.2833,slope,18.0,0,4.805
3390,108.48,8.6118,-1.0252,2.0542,-2.9856,-0.1442,2.3076,rough,14.0,0,4.784
3400,108.80,8.6268,-1.0225,2.0539,-3.0201,-0.1575,2.2814,rough,14.0,0,4.797
3410,109.12,8.6386,-1.0163,2.0505,-3.0122,-0.0967,2.2053,rough,14.0,0,4.809
3420,109.44,8.6214,-1.0137,2.0569,-3.0078,-0.1252,2.3141,slope,18.0,0,4.799
3430,109.76,8.6252,-1.0153,2.0567,-3.0087,-0.1361,2.2199,rough,14.0,0,4.801
3440,110.08,8.6263,-1.0125,2.0575,-3.0183,-0.1200,2.3193,rough,14.0,0,4.804
3450,110.40,8.6143,-1.0110,2.0559,-3.0107,-0.1441,2.3007,rough,14.0,0,4.796
3460,110.72,8.6277,-1.0130,2.0556,-3.0224,-0.1265,2.2587,rough,14.0,0,4.804
3470,111.04,8.6235,-1.0229,2.0544,-3.0029,-0.1194,2.2592,rough,14.0,0,4.794
3480,111.36,8.6254,-1.0076,2.0542,-3.0188,-0.1347,2.3065,slope,18.0,0,4.807
3490,111.68,8.6219,-1.0143,2.0578,-3.0133,-0.1319,2.3742,rough,14.0,0,4.799
3500,112.00,8.6161,-1.0189,2.0566,-3.0119,-0.1496,2.3397,rough,14.0,0,4.792
3510,112.32,8.6215,-1.0184,2.0561,-3.0138,-0.1467,2.2876,rough,14.0,0,4.796
3520,112.64,8.6239,-1.0216,2.0541,-3.0194,-0.1553,2.3621,slope,18.0,0,4.795
3530,112.96,8.6239,-1.0208,2.0542,-3.0212,-0.1517,2.3249,rough,14.0,0,4.796
3540,113.28,8.6202,-1.0146,2.0538,-3.0113,-0.1501,2.2892,slope,18.0,0,4.798
3550,113.60,8.6153,-1.0107,2.0538,-3.0264,-0.1330,2.3214,rough,14.0,0,4.797
3560,113.92,8.6271,-1.0205,2.0545,-3.0227,-0.1484,2.2251,rough,14.0,0,4.798
3570,114.24,8.6170,-1.0261,2.0539,-3.0133,-0.1189,2.4106,rough,14.0,0,4.787
3580,114.56,8.6195,-1.0091,2.0553,-3.0174,-0.1420,2.3204,slope,18.0,0,4.801
3590,114.88,8.6256,-1.0325,2.0567,-3.0251,-0.1445,2.3662,rough,14.0,0,4.788
3600,115.20,8.6104,-1.0187,2.0573,-3.0048,-0.1547,2.3297,rough,14.0,0,4.788
3610,115.52,8.6325,-1.0091,2.0567,-3.0194,-0.1179,2.2307,rough,14.0,0,4.810
3620,115.84,8.6323,-1.0236,2.0568,-3.0141,-0.1417,2.2564,slope,18.0,0,4.800
3630,116.16,8.6152,-1.0207,2.0536,-3.0195,-0.1560,2.2321,rough,14.0,0,4.790
3640,116.48,8.6195,-1.0148,2.0591,-3.0007,-0.1313,2.2750,rough,14.0,0,4.797
3650,116.80,8.6245,-1.0071,2.0572,-3.0245,-0.1240,2.3227,rough,14.0,0,4.806
3660,117.12,8.6138,-1.0249,2.0574,-3.0057,-0.1473,2.2803,rough,14.0,0,4.786
3670,117.44,8.6183,-1.0104,2.0536,-3.0250,-0.1407,2.3587,slope,18.0,0,4.800
3680,117.76,8.6195,-1.0107,2.0560,-3.0175,-0.1429,2.3194,rough,14.0,0,4.800
3690,118.08,8.6198,-1.0094,2.0560,-3.0266,-0.1339,2.3455,rough,14.0,0,4.801
3700,118.40,8.6261,-1.0028,2.0534,-2.9964,-0.0935,2.2383,slope,18.0,0,4.811
3710,118.72,8.6262,-1.0091,2.0545,-3.0345,-0.1269,2.3083,rough,14.0,0,4.806
3720,119.04,8.6146,-1.0139,2.0523,-2.9933,-0.1195,2.2534,slope,18.0,0,4.795
3730,119.36,8.6262,-1.0152,2.0527,-3.0404,-0.1244,2.3246,rough,14.0,0,4.802
3740,119.68,8.6142,-1.0225,2.0582,-3.0075,-0.1497,2.3725,slope,18.0,0,4.788
3750,120.00,8.6291,-1.0191,2.0558,-3.0282,-0.1283,2.3129,rough,14.0,0,4.801
3760,120.32,8.6146,-1.0084,2.0581,-3.0234,-0.1288,2.2665,rough,14.0,0,4.799
3770,120.64,8.6118,-1.0120,2.0556,-3.0090,-0.1496,2.3199,slope,18.0,0,4.794
3780,120.96,8.6269,-1.0206,2.0557,-3.0062,-0.1321,2.3180,rough,14.0,0,4.798
3790,121.28,8.6417,-1.0291,2.0554,-3.0296,-0.1357,2.2745,rough,14.0,0,4.802
3800,121.60,8.6192,-1.0264,2.0546,-3.0157,-0.1458,2.3279,rough,14.0,0,4.789
3810,121.92,8.6201,-1.0148,2.0579,-3.0306,-0.1628,2.3506,slope,18.0,0,4.798
3820,122.24,8.6088,-1.0159,2.0579,-3.0188,-0.1521,2.3446,slope,18.0,0,4.789
3830,122.56,8.6115,-1.0166,2.0563,-3.0069,-0.1523,2.3172,rough,14.0,0,4.790
3840,122.88,8.6294,-1.0069,2.0551,-3.0221,-0.1424,2.3106,rough,14.0,0,4.810
3850,123.20,8.6222,-1.0111,2.0536,-3.0245,-0.1441,2.2208,rough,14.0,0,4.802
3860,123.52,8.6264,-1.0221,2.0587,-3.0061,-0.1206,2.3789,rough,14.0,0,4.797
3870,123.84,8.6264,-1.0076,2.0579,-3.0096,-0.1290,2.2284,rough,14.0,0,4.807
3880,124.16,8.6255,-1.0148,2.0561,-3.0149,-0.1254,2.2722,rough,14.0,0,4.801
3890,124.48,8.6291,-1.0226,2.0563,-3.0186,-0.1412,2.2373,rough,14.0,0,4.798
3900,124.80,8.6330,-1.0201,2.0575,-3.0255,-0.1223,2.2148,rough,14.0,0,4.803
3910,125.12,8.6197,-1.0188,2.0559,-3.0201,-0.1451,2.2804,rough,14.0,0,4.794
3920,125.44,8.6263,-1.0061,2.0532,-3.0026,-0.1071,2.2399,slope,18.0,0,4.808
3930,125.76,8.6156,-1.0188,2.0620,-2.9939,-0.1369,2.2315,slope,18.0,0,4.792
3940,126.08,8.6382,-1.0349,2.0558,-3.0249,-0.1502,2.2724,rough,14.0,0,4.795
3950,126.40,8.6341,-1.0253,2.0562,-3.0174,-0.1506,2.2850,rough,14.0,0,4.800
3960,126.72,8.6203,-1.0149,2.0537,-3.0156,-0.1587,2.3434,rough,14.0,0,4.798
3970,127.04,8.6268,-1.0180,2.0548,-3.0241,-0.1389,2.2279,rough,14.0,0,4.800
3980,127.36,8.6286,-1.0142,2.0577,-3.0185,-0.1195,2.3004,rough,14.0,0,4.804
3990,127.68,8.6128,-1.0108,2.0552,-2.9933,-0.1224,2.2397,rough,14.0,0,4.796
4000,128.00,8.6234,-1.0142,2.0560,-3.0251,-0.1311,2.3314,rough,14.0,0,4.800
4010,128.32,8.6288,-1.0280,2.0557,-3.0184,-0.1529,2.3064,rough,14.0,0,4.794
4020,128.64,8.6218,-1.0173,2.0546,-3.0207,-0.1475,2.2590,rough,14.0,0,4.797
4030,128.96,8.6307,-1.0059,2.0584,-3.0155,-0.1269,2.2554,rough,14.0,0,4.811
4040,129.28,8.6164,-1.0123,2.0553,-3.0088,-0.1340,2.2674,slope,18.0,0,4.797
4050,129.60,8.6094,-1.0144,2.0590,-2.9702,-0.1519,2.2268,rough,14.0,0,4.791
4060,129.92,8.6229,-1.0279,2.0570,-3.0119,-0.1579,2.3540,rough,14.0,0,4.790
4070,130.24,8.6268,-1.0158,2.0537,-3.0307,-0.1417,2.1624,rough,14.0,0,4.801
4080,130.56,8.6200,-1.0141,2.0588,-3.0234,-0.1416,2.3569,rough,14.0,0,4.798
4090,130.88,8.6234,-1.0223,2.0587,-2.9909,-0.1589,2.1124,slope,18.0,0,4.794
4100,131.20,8.6170,-0.9971,2.0569,-3.0321,-0.1628,2.3710,slope,18.0,0,4.808
4110,131.52,8.6236,-1.0197,2.0545,-3.0124,-0.1654,2.3409,rough,14.0,0,4.796
4120,131.84,8.6215,-1.0108,2.0568,-3.0209,-0.1170,2.2729,rough,14.0,0,4.801
4130,132.16,8.6191,-1.0128,2.0579,-3.0082,-0.1356,2.2596,rough,14.0,0,4.798
4140,132.48,8.6219,-1.0139,2.0578,-3.0204,-0.1267,2.2666,rough,14.0,0,4.799
4150,132.80,8.6144,-1.0073,2.0599,-3.0025,-0.1273,2.2368,rough,14.0,0,4.799
4160,133.12,8.6335,-1.0431,2.0612,-3.0269,-0.1200,2.2614,rough,14.0,0,4.786
4170,133.44,8.6251,-1.0396,2.0602,-3.0141,-0.1432,2.2362,rough,14.0,0,4.783
4180,133.76,8.6186,-1.0315,2.0574,-2.9999,-0.1434,2.2767,slope,18.0,0,4.784
4190,134.08,8.6126,-1.0086,2.0568,-3.0184,-0.1485,2.3471,rough,14.0,0,4.797
4200,134.40,8.6214,-1.0055,2.0554,-3.0398,-0.1285,2.3558,rough,14.0,0,4.805
4210,134.72,8.6252,-1.0098,2.0559,-3.0193,-0.1307,2.2698,rough,14.0,0,4.805
4220,135.04,8.6191,-1.0167,2.0583,-3.0235,-0.1508,2.3479,rough,14.0,0,4.796
4230,135.36,8.6530,-1.0496,2.0604,-3.0094,-0.1233,2.3057,rough,14.0,0,4.795
4240,135.68,8.6536,-1.0596,2.0641,-3.0091,-0.1255,2.2526,rough,14.0,0,4.788
4250,136.00,8.6083,-1.0219,2.0615,-2.9851,-0.1596,2.2683,rough,14.0,0,4.784
4260,136.32,8.6189,-1.0264,2.0582,-3.0174,-0.1330,2.2989,rough,14.0,0,4.788
4270,136.64,8.6187,-1.0139,2.0540,-3.0120,-0.1628,2.3434,rough,14.0,0,4.797
4280,136.96,8.6173,-1.0052,2.0555,-3.0163,-0.1469,2.3498,slope,18.0,0,4.803
4290,137.28,8.6294,-1.0100,2.0561,-3.0213,-0.1276,2.2681,rough,14.0,0,4.808
4300,137.60,8.6300,-1.0206,2.0558,-3.0197,-0.1425,2.2602,rough,14.0,0,4.800
4310,137.92,8.6065,-0.9977,2.0575,-3.0082,-0.1509,2.2656,slope,18.0,0,4.801
4320,138.24,8.6375,-1.0427,2.0569,-2.9923,-0.1255,2.3271,rough,14.0,0,4.789
4330,138.56,8.6176,-0.9957,2.0604,-3.0307,-0.1330,2.3096,rough,14.0,0,4.810
4340,138.88,8.6732,-1.0714,2.0667,-3.0174,-0.1088,2.3025,rough,14.0,0,4.793
4350,139.20,8.6411,-1.0521,2.0605,-3.0196,-0.1356,2.3252,rough,14.0,0,4.785
4360,139.52,8.6269,-1.0092,2.0549,-3.0105,-0.1210,2.2428,rough,14.0,0,4.806
4370,139.84,8.6203,-1.0112,2.0546,-3.0113,-0.1465,2.2934,rough,14.0,0,4.800
4380,140.16,8.6337,-1.0639,2.0589,-2.9817,-0.1224,2.3155,rough,14.0,0,4.771
4390,140.48,8.6167,-1.0081,2.0582,-3.0084,-0.1257,2.2516,rough,14.0,0,4.800
4400,140.80,8.6212,-1.0199,2.0563,-3.0210,-0.1428,2.2729,rough,14.0,0,4.795
4410,141.12,8.6231,-1.0347,2.0599,-2.9932,-0.1233,2.4014,rough,14.0,0,4.785
4420,141.44,8.6183,-1.0160,2.0562,-3.0134,-0.1442,2.3298,rough,14.0,0,4.796
4430,141.76,8.6007,-1.0120,2.0583,-2.9859,-0.1571,2.1750,rough,14.0,0,4.786
4440,142.08,8.6153,-1.0141,2.0566,-3.0088,-0.1370,2.3338,rough,14.0,0,4.795
4450,142.40,8.6273,-1.0278,2.0558,-3.0141,-0.1417,2.2498,rough,14.0,0,4.793
4460,142.72,8.6079,-1.0058,2.0549,-3.0246,-0.1218,2.3667,slope,18.0,0,4.796
4470,143.04,8.6205,-1.0097,2.0551,-3.0033,-0.1156,2.2522,rough,14.0,0,4.802
4480,143.36,8.6203,-1.0158,2.0589,-3.0151,-0.1354,2.3577,rough,14.0,0,4.797
4490,143.68,8.6212,-1.0229,2.0553,-3.0027,-0.1675,2.2174,rough,14.0,0,4.792
4500,144.00,8.6306,-1.0109,2.0566,-3.0167,-0.1304,2.3708,rough,14.0,0,4.808
4510,144.32,8.6220,-1.0099,2.0542,-3.0288,-0.1301,2.2837,rough,14.0,0,4.803
4520,144.64,8.6100,-1.0089,2.0540,-3.0028,-0.1691,2.3887,rough,14.0,0,4.795
4530,144.96,8.6186,-1.0142,2.0591,-3.0082,-0.1314,2.2343,slope,18.0,0,4.797
4540,145.28,8.6189,-1.0226,2.0502,-3.0209,-0.1812,2.2227,rough,14.0,0,4.791
4550,145.60,8.6249,-1.0049,2.0502,-3.0083,-0.1627,2.3541,rough,14.0,0,4.808
4560,145.92,8.6227,-1.0086,2.0592,-3.0397,-0.1488,2.3622,rough,14.0,0,4.804
4570,146.24,8.6199,-1.0162,2.0534,-3.0337,-0.1290,2.3418,rough,14.0,0,4.796
4580,146.56,8.6249,-1.0151,2.0517,-3.0424,-0.1320,2.2692,slope,18.0,0,4.801
4590,146.88,8.6372,-1.0370,2.0615,-3.0123,-0.1185,2.3154,rough,14.0,0,4.793
4600,147.20,8.6295,-1.0372,2.0579,-3.0116,-0.1564,2.3404,rough,14.0,0,4.788
4610,147.52,8.6155,-1.0118,2.0575,-3.0118,-0.1224,2.2674,slope,18.0,0,4.797
4620,147.84,8.6239,-1.0129,2.0540,-3.0083,-0.1121,2.2761,rough,14.0,0,4.802
4630,148.16,8.6255,-1.0248,2.0574,-3.0144,-0.1458,2.3503,rough,14.0,0,4.794
4640,148.48,8.6299,-1.0193,2.0592,-3.0011,-0.1389,2.2298,rough,14.0,0,4.801
4650,148.80,8.6067,-1.0318,2.0625,-2.9811,-0.1675,2.3033,rough,14.0,0,4.776
4660,149.12,8.6195,-0.9954,2.0577,-3.0377,-0.1496,2.3444,rough,14.0,0,4.811
4670,149.44,8.6136,-1.0194,2.0563,-3.0118,-0.1486,2.3194,rough,14.0,0,4.790
4680,149.76,8.6133,-1.0223,2.0572,-2.9970,-0.1471,2.3389,slope,18.0,0,4.788
4690,150.08,8.6295,-1.0217,2.0557,-3.0230,-0.1418,2.3000,rough,14.0,0,4.799
4700,150.40,8.6173,-1.0027,2.0604,-3.0015,-0.1236,2.2239,slope,18.0,0,4.805
4710,150.72,8.6283,-1.0378,2.0590,-2.9943,-0.1247,2.3689,rough,14.0,0,4.787
4720,151.04,8.6311,-1.0223,2.0554,-3.0276,-0.1352,2.2386,rough,14.0,0,4.800
4730,151.36,8.6280,-1.0093,2.0558,-3.0215,-0.1212,2.2584,rough,14.0,0,4.807
4740,151.68,8.6225,-1.0149,2.0530,-3.0395,-0.1258,2.3359,rough,14.0,0,4.799
4750,152.00,8.6254,-1.0230,2.0569,-3.0304,-0.1271,2.2913,slope,18.0,0,4.795
4760,152.32,8.6164,-1.0187,2.0577,-3.0077,-0.1418,2.2550,slope,18.0,0,4.792
4770,152.64,8.6358,-1.0379,2.0559,-3.0222,-0.1546,2.3206,rough,14.0,0,4.792
4780,152.96,8.6229,-1.0259,2.0578,-3.0142,-0.1411,2.3149,rough,14.0,0,4.792
4790,153.28,8.6396,-1.0149,2.0555,-3.0303,-0.1137,2.2549,rough,14.0,0,4.811
4800,153.60,8.6291,-1.0365,2.0589,-3.0026,-0.1437,2.2351,rough,14.0,0,4.788
4810,153.92,8.6272,-1.0205,2.0539,-3.0261,-0.1009,2.3736,rough,14.0,0,4.798
4820,154.24,8.6204,-1.0100,2.0559,-2.9957,-0.1666,2.2987,rough,14.0,0,4.801
4830,154.56,8.6338,-1.0329,2.0589,-3.0165,-0.1493,2.3638,rough,14.0,0,4.794
4840,154.88,8.6147,-1.0169,2.0545,-3.0081,-0.1630,2.2744,rough,14.0,0,4.792
4850,155.20,8.6185,-1.0091,2.0552,-3.0196,-0.1393,2.2803,rough,14.0,0,4.801
4860,155.52,8.6126,-1.0109,2.0585,-3.0201,-0.1575,2.3506,rough,14.0,0,4.795
4870,155.84,8.6209,-1.0266,2.0607,-2.9964,-0.1506,2.2134,rough,14.0,0,4.790
4880,156.16,8.6211,-1.0215,2.0566,-3.0081,-0.1293,2.2422,rough,14.0,0,4.793
4890,156.48,8.6189,-1.0068,2.0578,-3.0211,-0.1314,2.3493,slope,18.0,0,4.803
4900,156.80,8.6214,-1.0176,2.0550,-3.0176,-0.1443,2.2576,rough,14.0,0,4.797
4910,157.12,8.6198,-1.0327,2.0609,-3.0084,-0.1357,2.2706,rough,14.0,0,4.784
4920,157.44,8.6251,-1.0322,2.0599,-3.0113,-0.1410,2.3587,rough,14.0,0,4.788
4930,157.76,8.6230,-1.0299,2.0600,-3.0117,-0.1398,2.3918,rough,14.0,0,4.789
4940,158.08,8.6239,-1.0110,2.0567,-3.0128,-0.1262,2.2511,slope,18.0,0,4.803
4950,158.40,8.6228,-1.0170,2.0567,-3.0147,-0.1407,2.3310,rough,14.0,0,4.798
4960,158.72,8.6301,-1.0048,2.0551,-3.0240,-0.1235,2.2822,slope,18.0,0,4.812
4970,159.04,8.6328,-1.0436,2.0605,-3.0105,-0.1415,2.2757,rough,14.0,0,4.785
4980,159.36,8.6253,-1.0135,2.0563,-3.0135,-0.1173,2.2913,rough,14.0,0,4.802
4990,159.68,8.6397,-1.0288,2.0574,-3.0227,-0.1318,2.2923,rough,14.0,0,4.801
5000,160.00,8.6463,-1.0450,2.0606,-3.0293,-0.1203,2.2324,rough,14.0,0,4.794
5010,160.32,8.6235,-1.0170,2.0588,-3.0164,-0.1226,2.2597,rough,14.0,0,4.798
5020,160.64,8.6230,-1.0115,2.0598,-3.0194,-0.1345,2.3070,slope,18.0,0,4.802
5030,160.96,8.6162,-1.0116,2.0538,-3.0165,-0.1453,2.2453,rough,14.0,0,4.797
5040,161.28,8.6279,-1.0143,2.0556,-3.0284,-0.1234,2.2927,rough,14.0,0,4.803
5050,161.60,8.6241,-1.0090,2.0539,-3.0246,-0.1355,2.3178,slope,18.0,0,4.805
5060,161.92,8.6039,-0.9975,2.0625,-2.9924,-0.1592,2.2899,rough,14.0,0,4.799
5070,162.24,8.6354,-1.0410,2.0616,-3.0149,-0.1295,2.3688,rough,14.0,0,4.789
5080,162.56,8.6079,-1.0288,2.0556,-2.9901,-0.1417,2.3049,rough,14.0,0,4.779
5090,162.88,8.6283,-1.0109,2.0594,-3.0201,-0.1321,2.2991,rough,14.0,0,4.806
5100,163.20,8.6275,-1.0130,2.0550,-3.0241,-0.1200,2.2847,rough,14.0,0,4.804
5110,163.52,8.6250,-1.0083,2.0567,-3.0015,-0.1169,2.2258,rough,14.0,0,4.806
5120,163.84,8.6189,-1.0247,2.0569,-3.0070,-0.1596,2.4093,rough,14.0,0,4.790
5130,164.16,8.6303,-1.0271,2.0552,-3.0121,-0.1437,2.2756,rough,14.0,0,4.796
5140,164.48,8.6247,-1.0297,2.0554,-3.0105,-0.1338,2.2984,rough,14.0,0,4.790
5150,164.80,8.6062,-1.0138,2.0578,-2.9961,-0.1512,2.2953,slope,18.0,0,4.789
5160,165.12,8.6254,-1.0098,2.0545,-3.0214,-0.1349,2.2484,rough,14.0,0,4.805
5170,165.44,8.6195,-1.0290,2.0564,-3.0140,-0.1399,2.3343,rough,14.0,0,4.787
5180,165.76,8.6129,-1.0116,2.0558,-3.0121,-0.1403,2.3301,slope,18.0,0,4.795
5190,166.08,8.6262,-1.0231,2.0569,-3.0201,-0.1364,2.2832,rough,14.0,0,4.796
5200,166.40,8.6271,-1.0315,2.0599,-3.0043,-0.1234,2.2243,rough,14.0,0,4.790
5210,166.72,8.6228,-1.0125,2.0534,-3.0277,-0.1362,2.2447,rough,14.0,0,4.801
5220,167.04,8.6225,-1.0118,2.0556,-3.0190,-0.1575,2.3510,rough,14.0,0,4.801
5230,167.36,8.6212,-1.0108,2.0562,-3.0178,-0.1275,2.2778,rough,14.0,0,4.801
5240,167.68,8.6268,-1.0250,2.0570,-3.0170,-0.1452,2.3221,rough,14.0,0,4.795
5250,168.00,8.6205,-1.0266,2.0537,-3.0135,-0.1741,2.2989,rough,14.0,0,4.789
5260,168.32,8.6365,-1.0207,2.0593,-3.0258,-0.1252,2.3254,rough,14.0,0,4.805
5270,168.64,8.5985,-1.0211,2.0626,-2.9819,-0.1471,2.2516,rough,14.0,0,4.778
5280,168.96,8.6281,-1.0065,2.0545,-3.0252,-0.1085,2.2774,rough,14.0,0,4.809
5290,169.28,8.6171,-1.0132,2.0520,-2.9969,-0.1253,2.2356,slope,18.0,0,4.797
5300,169.60,8.6415,-1.0208,2.0564,-3.0517,-0.1230,2.2827,rough,14.0,0,4.808
5310,169.92,8.6162,-1.0163,2.0544,-3.0121,-0.1539,2.3587,rough,14.0,0,4.794
5320,170.24,8.6171,-1.0131,2.0608,-2.9887,-0.1433,2.2011,rough,14.0,0,4.797
5330,170.56,8.6234,-1.0232,2.0566,-3.0234,-0.1463,2.2721,rough,14.0,0,4.794
5340,170.88,8.6194,-1.0172,2.0555,-3.0132,-0.1463,2.2880,slope,18.0,0,4.795
5350,171.20,8.6428,-1.0447,2.0612,-3.0073,-0.1300,2.3423,rough,14.0,0,4.791
5360,171.52,8.6100,-1.0095,2.0521,-2.9900,-0.1546,2.3138,rough,14.0,0,4.795
5370,171.84,8.6261,-1.0192,2.0592,-3.0063,-0.1242,2.2427,slope,18.0,0,4.798
5380,172.16,8.6313,-1.0169,2.0532,-3.0337,-0.1338,2.3820,slope,18.0,0,4.804
5390,172.48,8.6168,-1.0170,2.0540,-3.0123,-0.1426,2.2831,rough,14.0,0,4.794
5400,172.80,8.6192,-1.0204,2.0552,-3.0201,-0.1455,2.2879,rough,14.0,0,4.793
5410,173.12,8.6173,-1.0084,2.0583,-3.0181,-0.1422,2.3329,rough,14.0,0,4.800
5420,173.44,8.5976,-1.0167,2.0635,-2.9756,-0.1490,2.3142,rough,14.0,0,4.781
5430,173.76,8.6265,-1.0134,2.0535,-3.0134,-0.1504,2.2530,rough,14.0,0,4.803
5440,174.08,8.6250,-1.0159,2.0535,-3.0322,-0.1347,2.3275,rough,14.0,0,4.800
5450,174.40,8.6204,-1.0237,2.0567,-3.0151,-0.1462,2.3275,slope,18.0,0,4.791
5460,174.72,8.6268,-1.0230,2.0562,-3.0244,-0.1373,2.2882,rough,14.0,0,4.796
5470,175.04,8.6276,-1.0252,2.0545,-3.0359,-0.1320,2.3030,rough,14.0,0,4.795
5480,175.36,8.6321,-1.0230,2.0565,-3.0343,-0.1167,2.2420,rough,14.0,0,4.800
5490,175.68,8.6270,-1.0376,2.0592,-3.0108,-0.1345,2.3672,rough,14.0,0,4.786
5500,176.00,8.6235,-1.0105,2.0562,-3.0260,-0.1296,2.2999,rough,14.0,0,4.803
5510,176.32,8.6239,-1.0152,2.0563,-3.0098,-0.1465,2.2006,rough,14.0,0,4.800
5520,176.64,8.6173,-1.0151,2.0553,-3.0150,-0.1454,2.3235,slope,18.0,0,4.795
5530,176.96,8.6191,-1.0300,2.0576,-3.0185,-0.1331,2.3443,rough,14.0,0,4.786
5540,177.28,8.6372,-1.0241,2.0567,-3.0250,-0.1303,2.2271,slope,18.0,0,4.803
5550,177.60,8.6190,-1.0085,2.0547,-3.0207,-0.1408,2.3034,rough,14.0,0,4.801
5560,177.92,8.6222,-1.0223,2.0583,-3.0208,-0.1449,2.3541,rough,14.0,0,4.794
5570,178.24,8.6128,-0.9937,2.0594,-3.0105,-0.1471,2.2827,slope,18.0,0,4.808
5580,178.56,8.6237,-1.0123,2.0589,-3.0283,-0.1392,2.3355,slope,18.0,0,4.802
5590,178.88,8.6262,-1.0176,2.0482,-3.0354,-0.1242,2.3613,slope,18.0,0,4.800
5600,179.20,8.6227,-1.0171,2.0584,-3.0128,-0.1303,2.2283,rough,14.0,0,4.798
5610,179.52,8.6225,-1.0102,2.0532,-3.0391,-0.1189,2.3430,rough,14.0,0,4.803
5620,179.84,8.6149,-1.0118,2.0529,-3.0158,-0.1786,2.3649,rough,14.0,0,4.796
5630,180.16,8.6269,-1.0086,2.0542,-3.0306,-0.1262,2.2469,slope,18.0,0,4.807
5640,180.48,8.6087,-1.0204,2.0590,-2.9950,-0.1431,2.3467,slope,18.0,0,4.786
5650,180.80,8.6296,-1.0225,2.0571,-3.0076,-0.1464,2.2428,rough,14.0,0,4.799
5660,181.12,8.6217,-1.0295,2.0585,-3.0169,-0.1400,2.3803,rough,14.0,0,4.788
5670,181.44,8.6263,-1.0159,2.0585,-3.0212,-0.1291,2.3230,rough,14.0,0,4.801
5680,181.76,8.6074,-1.0066,2.0620,-2.9721,-0.1471,2.2110,slope,18.0,0,4.795
5690,182.08,8.6243,-1.0202,2.0530,-3.0442,-0.1253,2.3411,rough,14.0,0,4.797
5700,182.40,8.6152,-1.0146,2.0532,-3.0151,-0.1802,2.3697,rough,14.0,0,4.794
5710,182.72,8.6253,-1.0110,2.0543,-3.0229,-0.1379,2.2547,rough,14.0,0,4.804
5720,183.04,8.6188,-1.0266,2.0554,-3.0038,-0.1325,2.3117,slope,18.0,0,4.788
5730,183.36,8.6397,-1.0412,2.0560,-3.0170,-0.1658,2.3663,rough,14.0,0,4.792
5740,183.68,8.6288,-1.0232,2.0545,-3.0212,-0.1501,2.3167,rough,14.0,0,4.797
5750,184.00,8.6181,-1.0179,2.0566,-3.0137,-0.1427,2.3047,rough,14.0,0,4.794
5760,184.32,8.6306,-1.0112,2.0541,-3.0064,-0.1218,2.2623,rough,14.0,0,4.807
5770,184.64,8.6365,-1.0122,2.0572,-3.0211,-0.1152,2.2336,rough,14.0,0,4.811
5780,184.96,8.6127,-1.0211,2.0575,-2.9868,-0.1501,2.2781,slope,18.0,0,4.788
5790,185.28,8.6318,-1.0112,2.0557,-3.0198,-0.1359,2.2879,slope,18.0,0,4.808
5800,185.60,8.6203,-1.0173,2.0556,-3.0632,-0.1507,2.4188,rough,14.0,0,4.796
5810,185.92,8.6230,-1.0357,2.0610,-3.0112,-0.1239,2.2204,slope,18.0,0,4.784
5820,186.24,8.6253,-1.0459,2.0590,-3.0140,-0.1440,2.4099,rough,14.0,0,4.779
5830,186.56,8.6177,-1.0102,2.0564,-3.0203,-0.1282,2.2996,rough,14.0,0,4.799
5840,186.88,8.6156,-1.0208,2.0546,-3.0035,-0.1460,2.3194,slope,18.0,0,4.790
5850,187.20,8.6258,-1.0084,2.0566,-3.0110,-0.1391,2.2133,rough,14.0,0,4.806
5860,187.52,8.6257,-1.0130,2.0543,-3.0182,-0.1235,2.2909,rough,14.0,0,4.803
5870,187.84,8.6109,-1.0166,2.0574,-3.0020,-0.1538,2.2795,slope,18.0,0,4.790
5880,188.16,8.6032,-1.0302,2.0608,-2.9547,-0.1586,2.2555,rough,14.0,0,4.775
5890,188.48,8.6577,-1.0462,2.0659,-2.9909,-0.0789,2.3972,rough,14.0,0,4.801
5900,188.80,8.6080,-1.0399,2.0566,-2.9819,-0.1318,2.3153,rough,14.0,0,4.771
5910,189.12,8.6180,-1.0143,2.0540,-3.0238,-0.1424,2.2752,slope,18.0,0,4.797
5920,189.44,8.6210,-1.0142,2.0544,-3.0167,-0.1504,2.2898,rough,14.0,0,4.799
5930,189.76,8.6297,-1.0332,2.0586,-3.0360,-0.1110,2.2427,rough,14.0,0,4.791
5940,190.08,8.6216,-1.0249,2.0575,-3.0094,-0.1507,2.2866,rough,14.0,0,4.791
5950,190.40,8.6146,-1.0177,2.0533,-3.0123,-0.1579,2.3088,rough,14.0,0,4.792
5960,190.72,8.6299,-1.0144,2.0575,-3.0273,-0.1312,2.2892,rough,14.0,0,4.805
5970,191.04,8.6075,-0.9984,2.0620,-2.9441,-0.1418,2.1577,rough,14.0,0,4.801
5980,191.36,8.6321,-1.0189,2.0600,-3.0246,-0.1300,2.3331,rough,14.0,0,4.803
5990,191.68,8.6139,-1.0242,2.0563,-3.0061,-0.1603,2.3325,rough,14.0,0,4.787
6000,192.00,8.6246,-1.0108,2.0565,-3.0107,-0.1211,2.2317,slope,18.0,0,4.804
6010,192.32,8.6264,-1.0181,2.0567,-3.0258,-0.1283,2.3243,rough,14.0,0,4.800
6020,192.64,8.6221,-1.0109,2.0554,-3.0294,-0.1300,2.3385,slope,18.0,0,4.802
6030,192.96,8.6226,-1.0058,2.0574,-3.0215,-0.1337,2.3364,slope,18.0,0,4.806
6040,193.28,8.6203,-1.0098,2.0566,-3.0214,-0.1307,2.2922,rough,14.0,0,4.801
6050,193.60,8.6429,-1.0310,2.0588,-3.0123,-0.1202,2.3061,rough,14.0,0,4.801
6060,193.92,8.6222,-1.0197,2.0533,-3.0356,-0.1337,2.3537,rough,14.0,0,4.796
6070,194.24,8.6238,-1.0117,2.0556,-3.0152,-0.1314,2.2833,rough,14.0,0,4.802
6080,194.56,8.6352,-1.0207,2.0530,-3.0236,-0.1584,2.3177,rough,14.0,0,4.804
6090,194.88,8.6359,-1.0493,2.0630,-3.0080,-0.1343,2.2556,rough,14.0,0,4.783
6100,195.20,8.6304,-1.0348,2.0600,-3.0114,-0.1386,2.3411,rough,14.0,0,4.790
6110,195.52,8.6235,-1.0120,2.0589,-3.0058,-0.1125,2.3718,rough,14.0,0,4.802
6120,195.84,8.6258,-1.0197,2.0551,-3.0242,-0.1330,2.2760,rough,14.0,0,4.798
6130,196.16,8.6296,-1.0195,2.0576,-3.0238,-0.1231,2.3119,rough,14.0,0,4.801
6140,196.48,8.6293,-1.0304,2.0573,-3.0213,-0.1384,2.3124,rough,14.0,0,4.793
6150,196.80,8.6230,-1.0142,2.0560,-3.0169,-0.1417,2.3149,rough,14.0,0,4.800
6160,197.12,8.6219,-1.0125,2.0565,-3.0111,-0.1441,2.2264,rough,14.0,0,4.801
6170,197.44,8.6310,-1.0223,2.0551,-3.0103,-0.1248,2.2220,rough,14.0,0,4.800
6180,197.76,8.6196,-1.0129,2.0551,-3.0063,-0.1203,2.2454,slope,18.0,0,4.799
6190,198.08,8.6206,-1.0212,2.0584,-3.0058,-0.1436,2.3604,rough,14.0,0,4.793
6200,198.40,8.6296,-1.0231,2.0582,-3.0018,-0.1391,2.2504,rough,14.0,0,4.798
6210,198.72,8.6222,-1.0247,2.0573,-3.0181,-0.1380,2.3375,rough,14.0,0,4.792
6220,199.04,8.6218,-1.0087,2.0555,-3.0142,-0.1419,2.2540,rough,14.0,0,4.803
6230,199.36,8.6812,-1.0866,2.0659,-3.0271,-0.1209,2.3067,rough,14.0,0,4.788
6240,199.68,8.6765,-1.1327,2.0667,-2.9636,-0.0894,2.2128,rough,14.0,0,4.752
6250,200.00,8.6640,-1.1562,2.0658,-2.9205,-0.0799,2.3117,rough,14.0,0,4.726
6260,200.32,8.6668,-1.1225,2.0626,-2.9348,-0.0865,2.2822,rough,14.0,0,4.752
6270,200.64,8.6404,-1.0244,2.0531,-3.0470,-0.1125,2.2388,rough,14.0,0,4.805
6280,200.96,8.6258,-1.0083,2.0534,-3.0223,-0.1155,2.2592,rough,14.0,0,4.806
6290,201.28,8.6262,-1.0332,2.0590,-3.0213,-0.1340,2.2419,rough,14.0,0,4.788
6300,201.60,8.6191,-1.0276,2.0566,-3.0159,-0.1524,2.3061,rough,14.0,0,4.788
6310,201.92,8.6228,-1.0071,2.0581,-3.0307,-0.1430,2.3184,rough,14.0,0,4.805
6320,202.24,8.6212,-1.0137,2.0598,-2.9838,-0.1586,2.1874,rough,14.0,0,4.799
6330,202.56,8.6136,-1.0211,2.0555,-3.0132,-0.1481,2.2976,slope,18.0,0,4.789
6340,202.88,8.6268,-1.0219,2.0544,-3.0308,-0.1423,2.2232,rough,14.0,0,4.797
6350,203.20,8.6103,-1.0259,2.0571,-3.0144,-0.1457,2.3596,slope,18.0,0,4.783
6360,203.52,8.6191,-1.0087,2.0541,-3.0143,-0.1533,2.3057,slope,18.0,0,4.801
6370,203.84,8.6297,-1.0125,2.0559,-3.0219,-0.1521,2.3486,rough,14.0,0,4.806
6380,204.16,8.6306,-1.0231,2.0552,-3.0210,-0.1439,2.2704,rough,14.0,0,4.799
6390,204.48,8.6038,-1.0206,2.0564,-2.9760,-0.1594,2.3067,rough,14.0,0,4.782
6400,204.80,8.6297,-1.0170,2.0563,-3.0227,-0.1305,2.2483,slope,18.0,0,4.803
6410,205.12,8.6218,-1.0239,2.0546,-3.0071,-0.1289,2.2879,rough,14.0,0,4.792
6420,205.44,8.6274,-1.0039,2.0568,-3.0041,-0.1415,2.2092,rough,14.0,0,4.811
6430,205.76,8.6314,-1.0068,2.0585,-3.0261,-0.1301,2.3165,rough,14.0,0,4.811
6440,206.08,8.6184,-1.0159,2.0573,-3.0126,-0.1192,2.3466,rough,14.0,0,4.796
6450,206.40,8.6093,-1.0223,2.0597,-2.9814,-0.1613,2.2659,rough,14.0,0,4.785
6460,206.72,8.6217,-1.0210,2.0571,-3.0143,-0.1379,2.2953,rough,14.0,0,4.794
6470,207.04,8.6243,-1.0137,2.0563,-3.0161,-0.1331,2.2846,rough,14.0,0,4.801
6480,207.36,8.6361,-1.0282,2.0549,-2.9961,-0.1366,2.3208,rough,14.0,0,4.799
6490,207.68,8.6202,-1.0381,2.0552,-2.9964,-0.1548,2.3227,rough,14.0,0,4.781
6500,208.00,8.6260,-1.0126,2.0556,-3.0219,-0.1263,2.2711,slope,18.0,0,4.803
6510,208.32,8.6138,-1.0103,2.0556,-3.0125,-0.1387,2.3070,slope,18.0,0,4.797
6520,208.64,8.6244,-1.0100,2.0602,-3.0165,-0.1237,2.3812,rough,14.0,0,4.804
6530,208.96,8.6123,-1.0176,2.0568,-3.0092,-0.1462,2.3374,rough,14.0,0,4.790
6540,209.28,8.6237,-1.0189,2.0564,-3.0156,-0.1273,2.3170,rough,14.0,0,4.797
6550,209.60,8.6137,-1.0068,2.0551,-3.0138,-0.1458,2.3375,rough,14.0,0,4.799
6560,209.92,8.6341,-1.0314,2.0590,-3.0202,-0.1377,2.3033,rough,14.0,0,4.795
6570,210.24,8.6344,-1.0387,2.0565,-3.0120,-0.1704,2.3709,rough,14.0,0,4.790
6580,210.56,8.6239,-1.0200,2.0537,-3.0368,-0.1345,2.3308,slope,18.0,0,4.796
6590,210.88,8.6262,-1.0191,2.0548,-3.0276,-0.1389,2.2631,rough,14.0,0,4.799
6600,211.20,8.6201,-1.0160,2.0536,-3.0139,-0.1642,2.3037,rough,14.0,0,4.797
6610,211.52,8.6165,-1.0300,2.0554,-3.0167,-0.1629,2.2843,rough,14.0,0,4.784
6620,211.84,8.6217,-1.0021,2.0563,-3.0328,-0.1356,2.3464,rough,14.0,0,4.808
6630,212.16,8.6238,-1.0145,2.0578,-3.0081,-0.1373,2.2067,slope,18.0,0,4.800
6640,212.48,8.6348,-1.0189,2.0536,-3.0022,-0.1209,2.2257,rough,14.0,0,4.805
6650,212.80,8.6149,-1.0126,2.0594,-3.0284,-0.1370,2.3112,rough,14.0,0,4.796
6660,213.12,8.6245,-1.0255,2.0577,-3.0182,-0.1500,2.3297,rough,14.0,0,4.793
6670,213.44,8.6113,-0.9870,2.0637,-3.0081,-0.1588,2.3170,rough,14.0,0,4.812
6680,213.76,8.6359,-1.0293,2.0593,-3.0057,-0.1159,2.3100,rough,14.0,0,4.798
6690,214.08,8.6096,-1.0177,2.0559,-2.9967,-0.1709,2.3492,rough,14.0,0,4.788
6700,214.40,8.6383,-1.0375,2.0585,-3.0093,-0.1320,2.3323,rough,14.0,0,4.794
6710,214.72,8.6135,-1.0170,2.0527,-3.0162,-0.1610,2.2490,rough,14.0,0,4.792
6720,215.04,8.6266,-1.0150,2.0563,-3.0125,-0.1422,2.2569,rough,14.0,0,4.802
6730,215.36,8.6099,-0.9976,2.0624,-3.0008,-0.1388,2.2655,rough,14.0,0,4.803
6740,215.68,8.6220,-1.0052,2.0592,-3.0002,-0.1286,2.2259,rough,14.0,0,4.806
6750,216.00,8.6377,-1.0374,2.0613,-3.0153,-0.1207,2.2210,rough,14.0,0,4.793
6760,216.32,8.6261,-1.0392,2.0587,-3.0277,-0.1311,2.2976,rough,14.0,0,4.784
6770,216.64,8.6181,-1.0239,2.0577,-3.0013,-0.1550,2.2501,rough,14.0,0,4.790
6780,216.96,8.6175,-1.0126,2.0505,-3.0289,-0.1542,2.2901,rough,14.0,0,4.798
6790,217.28,8.6136,-1.0124,2.0561,-3.0151,-0.1420,2.3245,rough,14.0,0,4.795
6800,217.60,8.6280,-1.0168,2.0581,-3.0249,-0.1271,2.3184,rough,14.0,0,4.802
6810,217.92,8.6258,-1.0216,2.0547,-2.9962,-0.1116,2.1841,rough,14.0,0,4.797
6820,218.24,8.6278,-1.0283,2.0594,-3.0016,-0.1206,2.3770,rough,14.0,0,4.793
6830,218.56,8.6190,-1.0268,2.0568,-3.0124,-0.1534,2.3108,rough,14.0,0,4.788
6840,218.88,8.6151,-1.0167,2.0586,-2.9954,-0.1537,2.2453,rough,14.0,0,4.793
6850,219.20,8.6161,-1.0086,2.0549,-2.9927,-0.1698,2.2920,slope,18.0,0,4.799
6860,219.52,8.6313,-1.0329,2.0560,-3.0163,-0.1584,2.3126,rough,14.0,0,4.792
6870,219.84,8.6396,-1.0418,2.0581,-3.0195,-0.1464,2.2584,rough,14.0,0,4.791
6880,220.16,8.6267,-1.0001,2.0573,-3.0249,-0.1182,2.2591,rough,14.0,0,4.813
6890,220.48,8.6087,-1.0077,2.0620,-2.9780,-0.1536,2.1959,rough,14.0,0,4.795
6900,220.80,8.6161,-1.0151,2.0580,-3.0102,-0.1261,2.4099,slope,18.0,0,4.795
6910,221.12,8.6360,-1.0157,2.0523,-3.0122,-0.1162,2.2231,rough,14.0,0,4.808
6920,221.44,8.6080,-1.0248,2.0560,-2.9858,-0.1552,2.3301,rough,14.0,0,4.782
6930,221.76,8.6146,-1.0173,2.0593,-3.0177,-0.1189,2.2171,slope,18.0,0,4.792
6940,222.08,8.6195,-1.0098,2.0550,-3.0140,-0.1282,2.3055,slope,18.0,0,4.801
6950,222.40,8.6227,-1.0084,2.0566,-3.0099,-0.1369,2.2606,rough,14.0,0,4.804
6960,222.72,8.6265,-1.0111,2.0583,-3.0297,-0.1223,2.3652,rough,14.0,0,4.805
6970,223.04,8.6249,-1.0167,2.0521,-3.0292,-0.1450,2.2043,slope,18.0,0,4.800
6980,223.36,8.6166,-1.0110,2.0594,-3.0114,-0.1406,2.3554,slope,18.0,0,4.798
6990,223.68,8.6192,-1.0107,2.0551,-3.0181,-0.1414,2.2572,rough,14.0,0,4.800
7000,224.00,8.6179,-1.0259,2.0540,-3.0196,-0.1589,2.2616,slope,18.0,0,4.788
7010,224.32,8.6209,-1.0095,2.0563,-3.0181,-0.1312,2.2124,rough,14.0,0,4.802
7020,224.64,8.6135,-1.0142,2.0582,-3.0139,-0.1469,2.3543,rough,14.0,0,4.794
7030,224.96,8.6295,-1.0347,2.0579,-3.0131,-0.1490,2.3530,rough,14.0,0,4.790
7040,225.28,8.6249,-1.0148,2.0549,-3.0305,-0.1251,2.3020,rough,14.0,0,4.801
7050,225.60,8.6256,-1.0195,2.0567,-3.0130,-0.1231,2.3010,rough,14.0,0,4.798
7060,225.92,8.6283,-1.0304,2.0575,-3.0147,-0.1357,2.2927,rough,14.0,0,4.792
7070,226.24,8.6180,-1.0226,2.0576,-3.0062,-0.1404,2.3576,rough,14.0,0,4.790
7080,226.56,8.6334,-0.9997,2.0601,-3.0372,-0.1204,2.3540,rough,14.0,0,4.818
7090,226.88,8.6241,-1.0156,2.0565,-3.0230,-0.1487,2.3088,rough,14.0,0,4.800
7100,227.20,8.6360,-1.0114,2.0541,-3.0229,-0.1345,2.2740,slope,18.0,0,4.811
7110,227.52,8.6326,-1.0147,2.0562,-3.0166,-0.1114,2.2544,rough,14.0,0,4.806
7120,227.84,8.6177,-1.0179,2.0560,-3.0179,-0.1408,2.2976,slope,18.0,0,4.794
7130,228.16,8.6329,-1.0182,2.0558,-3.0342,-0.1179,2.2405,rough,14.0,0,4.804
7140,228.48,8.6079,-1.0102,2.0624,-2.9733,-0.1584,2.1738,slope,18.0,0,4.793
7150,228.80,8.6162,-1.0206,2.0545,-3.0110,-0.1483,2.2760,rough,14.0,0,4.791
7160,229.12,8.6217,-1.0119,2.0566,-3.0061,-0.1463,2.2912,slope,18.0,0,4.801
7170,229.44,8.6315,-1.0276,2.0538,-3.0356,-0.1293,2.2320,rough,14.0,0,4.796
7180,229.76,8.6237,-1.0162,2.0570,-3.0270,-0.1423,2.2789,slope,18.0,0,4.799
7190,230.08,8.6305,-1.0165,2.0589,-3.0303,-0.1009,2.1786,slope,18.0,0,4.804
7200,230.40,8.6385,-1.0122,2.0604,-3.0023,-0.0817,2.3522,rough,14.0,0,4.812
7210,230.72,8.6142,-1.0212,2.0565,-3.0089,-0.1472,2.3428,rough,14.0,0,4.789
7220,231.04,8.6199,-1.0256,2.0588,-3.0166,-0.1327,2.3217,rough,14.0,0,4.790
7230,231.36,8.6373,-1.0008,2.0568,-3.0349,-0.1266,2.2743,rough,14.0,0,4.820
7240,231.68,8.6174,-1.0142,2.0554,-3.0100,-0.1450,2.3028,rough,14.0,0,4.796
7250,232.00,8.6234,-1.0108,2.0546,-3.0325,-0.1256,2.3317,slope,18.0,0,4.803
7260,232.32,8.6279,-1.0107,2.0539,-3.0309,-0.1291,2.2385,rough,14.0,0,4.806
7270,232.64,8.6313,-1.0091,2.0560,-3.0211,-0.1269,2.2498,slope,18.0,0,4.809
7280,232.96,8.6197,-1.0109,2.0586,-3.0039,-0.1338,2.2398,rough,14.0,0,4.800
7290,233.28,8.6181,-1.0265,2.0560,-3.0213,-0.1455,2.3445,rough,14.0,0,4.788
7300,233.60,8.6228,-1.0069,2.0560,-3.0197,-0.1307,2.2880,rough,14.0,0,4.805
7310,233.92,8.6085,-1.0069,2.0546,-3.0194,-0.1485,2.3065,rough,14.0,0,4.795
7320,234.24,8.6196,-1.0313,2.0582,-3.0098,-0.1506,2.3393,rough,14.0,0,4.785
7330,234.56,8.6258,-1.0111,2.0570,-3.0191,-0.1161,2.2511,slope,18.0,0,4.804
7340,234.88,8.6258,-1.0168,2.0566,-3.0220,-0.1262,2.2654,rough,14.0,0,4.800
7350,235.20,8.6251,-1.0222,2.0567,-3.0195,-0.1401,2.2879,rough,14.0,0,4.796
7360,235.52,8.6247,-1.0249,2.0547,-3.0257,-0.1471,2.2733,rough,14.0,0,4.793
7370,235.84,8.6107,-1.0093,2.0586,-3.0093,-0.1444,2.4176,rough,14.0,0,4.795
7380,236.16,8.6231,-1.0191,2.0549,-3.0262,-0.1488,2.2210,slope,18.0,0,4.797
7390,236.48,8.6157,-1.0068,2.0564,-3.0137,-0.1473,2.2956,rough,14.0,0,4.801
7400,236.80,8.6285,-1.0260,2.0529,-3.0324,-0.1457,2.2605,slope,18.0,0,4.795
7410,237.12,8.6306,-1.0355,2.0580,-3.0131,-0.1535,2.3247,rough,14.0,0,4.790
7420,237.44,8.6258,-1.0145,2.0579,-3.0183,-0.1281,2.3255,rough,14.0,0,4.802
7430,237.76,8.6175,-1.0033,2.0564,-3.0357,-0.1613,2.3528,rough,14.0,0,4.804
7440,238.08,8.6257,-1.0257,2.0581,-3.0190,-0.1328,2.3586,rough,14.0,0,4.793
7450,238.40,8.6109,-1.0201,2.0569,-2.9961,-0.1504,2.3653,slope,18.0,0,4.787
7460,238.72,8.6354,-1.0088,2.0586,-3.0303,-0.1116,2.3168,rough,14.0,0,4.812
7470,239.04,8.6229,-1.0117,2.0574,-3.0225,-0.1242,2.3720,rough,14.0,0,4.802
7480,239.36,8.6241,-1.0157,2.0538,-3.0192,-0.1391,2.2233,slope,18.0,0,4.800
7490,239.68,8.6160,-1.0078,2.0567,-3.0124,-0.1404,2.2976,slope,18.0,0,4.800
7500,240.00,8.6239,-1.0107,2.0571,-3.0080,-0.1374,2.2346,rough,14.0,0,4.803
7510,240.32,8.6474,-1.0359,2.0576,-3.0280,-0.1265,2.2279,rough,14.0,0,4.801
7520,240.64,8.6420,-1.0406,2.0581,-3.0189,-0.1425,2.2651,rough,14.0,0,4.794
7530,240.96,8.6245,-1.0019,2.0569,-3.0215,-0.1240,2.2729,rough,14.0,0,4.810
7540,241.28,8.6287,-1.0183,2.0545,-3.0158,-0.1284,2.2272,rough,14.0,0,4.801
7550,241.60,8.6093,-1.0181,2.0602,-2.9887,-0.1503,2.3391,rough,14.0,0,4.788
7560,241.92,8.6265,-1.0215,2.0576,-3.0081,-0.1471,2.2161,rough,14.0,0,4.797
7570,242.24,8.6059,-1.0094,2.0594,-2.9590,-0.1569,2.2225,slope,18.0,0,4.792
7580,242.56,8.6276,-1.0099,2.0554,-3.0193,-0.1308,2.2836,slope,18.0,0,4.806
7590,242.88,8.6191,-1.0088,2.0527,-2.9970,-0.1090,2.2536,rough,14.0,0,4.801
7600,243.20,8.6212,-1.0160,2.0587,-3.0185,-0.1321,2.3347,slope,18.0,0,4.798
7610,243.52,8.6447,-1.0433,2.0613,-3.0212,-0.1260,2.3103,rough,14.0,0,4.794
7620,243.84,8.6178,-0.9999,2.0572,-3.0288,-0.1431,2.3206,slope,18.0,0,4.807
7630,244.16,8.6253,-1.0335,2.0612,-3.0194,-0.1161,2.2364,rough,14.0,0,4.788
7640,244.48,8.6102,-1.0289,2.0611,-2.9967,-0.1488,2.2709,slope,18.0,0,4.781
7650,244.80,8.6217,-1.0064,2.0586,-3.0195,-0.1454,2.3431,rough,14.0,0,4.805
7660,245.12,8.6075,-1.0080,2.0614,-2.9762,-0.1539,2.2349,rough,14.0,0,4.794
7670,245.44,8.6235,-1.0169,2.0575,-3.0327,-0.1476,2.3453,rough,14.0,0,4.798
7680,245.76,8.6250,-1.0248,2.0590,-3.0216,-0.1218,2.3049,rough,14.0,0,4.794
7690,246.08,8.6303,-1.0312,2.0582,-3.0258,-0.1302,2.2744,rough,14.0,0,4.793
7700,246.40,8.6153,-1.0068,2.0579,-2.9960,-0.1463,2.2663,rough,14.0,0,4.800
7710,246.72,8.6278,-1.0211,2.0587,-3.0072,-0.1223,2.3263,rough,14.0,0,4.798
7720,247.04,8.6227,-1.0191,2.0563,-3.0207,-0.1404,2.3054,rough,14.0,0,4.796
7730,247.36,8.6220,-1.0188,2.0533,-3.0178,-0.1535,2.3531,rough,14.0,0,4.796
7740,247.68,8.6106,-1.0088,2.0604,-2.9856,-0.1316,2.2099,slope,18.0,0,4.796
7750,248.00,8.6293,-1.0268,2.0552,-3.0221,-0.1450,2.2335,rough,14.0,0,4.795
7760,248.32,8.6104,-1.0115,2.0526,-2.9756,-0.1310,2.2758,slope,18.0,0,4.793
7770,248.64,8.6323,-1.0298,2.0565,-3.0181,-0.1306,2.2500,rough,14.0,0,4.795
7780,248.96,8.6127,-1.0187,2.0533,-3.0000,-0.1546,2.3662,rough,14.0,0,4.790
7790,249.28,8.6258,-1.0169,2.0530,-3.0220,-0.1545,2.2511,slope,18.0,0,4.800
7800,249.60,8.6268,-1.0157,2.0538,-3.0170,-0.1529,2.2975,rough,14.0,0,4.802
7810,249.92,8.6301,-1.0281,2.0571,-3.0356,-0.1351,2.3437,rough,14.0,0,4.795
7820,250.24,8.6307,-1.0181,2.0553,-3.0222,-0.1369,2.2198,rough,14.0,0,4.802
7830,250.56,8.6275,-1.0200,2.0575,-3.0229,-0.1366,2.3421,rough,14.0,0,4.799
7840,250.88,8.6228,-1.0246,2.0556,-3.0011,-0.1664,2.2155,rough,14.0,0,4.792
7850,251.20,8.6312,-1.0123,2.0575,-3.0155,-0.1322,2.3681,rough,14.0,0,4.807
7860,251.52,8.6315,-1.0168,2.0569,-3.0167,-0.1281,2.2388,rough,14.0,0,4.804
7870,251.84,8.6153,-1.0058,2.0483,-3.0251,-0.1616,2.3102,rough,14.0,0,4.801
7880,252.16,8.6291,-1.0106,2.0577,-3.0237,-0.1199,2.3083,rough,14.0,0,4.807
7890,252.48,8.6219,-1.0100,2.0551,-3.0140,-0.1417,2.2248,rough,14.0,0,4.802
7900,252.80,8.6295,-1.0320,2.0552,-3.0150,-0.1520,2.2289,slope,18.0,0,4.791
7910,253.12,8.6145,-1.0327,2.0541,-3.0070,-0.1470,2.3701,rough,14.0,0,4.781
7920,253.44,8.6243,-1.0214,2.0566,-3.0149,-0.1579,2.3447,rough,14.0,0,4.796
7930,253.76,8.6164,-1.0230,2.0562,-3.0154,-0.1532,2.3235,rough,14.0,0,4.789
7940,254.08,8.6168,-1.0140,2.0585,-3.0144,-0.1447,2.3738,rough,14.0,0,4.796
