step,time_s,x,y,z,roll,pitch,yaw,terrain,speed,target_idx,dist_to_target
10,0.32,1.0678,-0.7750,0.1839,-0.0000,-0.0331,-0.0000,rough,14.0,0,5.685
20,0.64,1.4715,-0.7820,0.1793,0.0001,0.0031,-0.1386,rough,14.0,0,5.383
30,0.96,1.8829,-0.8488,0.1799,-0.0001,-0.0000,-0.2755,rough,14.0,0,5.046
40,1.28,2.2869,-0.9729,0.1799,-0.0001,-0.0000,-0.3763,rough,14.0,0,4.683
50,1.60,2.6780,-1.1363,0.1799,0.0001,-0.0000,-0.4668,rough,14.0,0,4.309
60,1.92,3.0525,-1.3364,0.1799,-0.0000,-0.0000,-0.5493,rough,14.0,0,3.923
70,2.24,3.4154,-1.5685,0.1799,-0.0002,-0.0000,-0.6082,rough,14.0,0,3.526
80,2.56,3.7636,-1.8218,0.1799,-0.0002,-0.0000,-0.6667,rough,14.0,0,3.128
90,2.88,4.0943,-2.0953,0.1799,-0.0002,0.0000,-0.7287,rough,14.0,0,2.728
100,3.20,4.4050,-2.3893,0.1799,-0.0002,0.0000,-0.7950,rough,14.0,0,2.329
110,3.52,4.6943,-2.7037,0.1799,-0.0002,-0.0000,-0.8646,rough,14.0,0,1.930
120,3.84,4.9612,-3.0373,0.1799,-0.0001,0.0001,-0.9446,rough,14.0,0,1.532
130,4.16,5.1985,-3.3885,0.1788,-0.0069,-0.0019,-1.0322,rough,14.0,0,1.141
140,4.48,5.3778,-3.7392,0.2010,0.0309,-0.1040,-1.1445,rough,14.0,1,0.782
150,4.80,5.4371,-3.9429,0.2114,0.1396,-0.0704,-1.5924,rough,14.0,1,12.275
160,5.12,5.3962,-4.2092,0.2144,0.1516,0.0037,-1.9962,rough,14.0,1,12.510
170,5.44,5.2538,-4.4468,0.2131,0.1393,0.0112,-2.3100,rough,14.0,1,12.684
180,5.76,5.0142,-4.6456,0.1988,0.0744,0.0339,-2.5420,rough,14.0,1,12.795
190,6.08,4.7017,-4.8035,0.1887,0.0133,0.0434,-2.7201,rough,14.0,1,12.852
200,6.40,4.3511,-4.9140,0.1795,0.0010,-0.0025,-2.8562,rough,14.0,1,12.863
210,6.72,3.9998,-5.0019,0.1798,0.0001,0.0000,-3.0900,rough,14.0,1,12.862
220,7.04,3.6249,-5.0125,0.1799,-0.0001,-0.0000,2.9637,rough,14.0,1,12.791
230,7.36,3.2409,-4.9330,0.1799,0.0003,-0.0000,2.7875,rough,14.0,1,12.640
240,7.68,2.8510,-4.7770,0.1799,-0.0002,-0.0000,2.6916,rough,14.0,1,12.423
250,8.00,2.4717,-4.5841,0.1805,0.0009,-0.0028,2.6120,rough,14.0,1,12.181
260,8.32,2.1229,-4.3585,0.1815,0.0054,0.0037,2.5287,rough,14.0,1,11.920
270,8.64,1.7899,-4.1103,0.1803,0.0048,-0.0027,2.4435,rough,14.0,1,11.646
280,8.96,1.4740,-3.8265,0.1796,-0.0010,-0.0003,2.3718,rough,14.0,1,11.345
290,9.28,1.1756,-3.5190,0.1799,-0.0003,-0.0000,2.3079,rough,14.0,1,11.030
300,9.60,0.8949,-3.1915,0.1799,-0.0002,-0.0000,2.2528,rough,14.0,1,10.702
310,9.92,0.6298,-2.8483,0.1799,-0.0002,-0.0000,2.2015,rough,14.0,1,10.365
320,10.24,0.3796,-2.4915,0.1799,-0.0002,-0.0000,2.1486,rough,14.0,1,10.022
330,10.56,0.1465,-2.1213,0.1799,-0.0002,-0.0000,2.0984,rough,14.0,1,9.671
340,10.88,-0.0693,-1.7393,0.1799,-0.0001,-0.0000,2.0517,rough,14.0,1,9.313
350,11.20,-0.2683,-1.3470,0.1799,-0.0001,-0.0000,2.0081,rough,14.0,1,8.950
360,11.52,-0.4507,-0.9464,0.1801,0.0006,-0.0015,1.9675,rough,14.0,1,8.583
370,11.84,-0.6115,-0.5524,0.1903,-0.0044,-0.0560,1.9381,rough,14.0,1,8.225
380,12.16,-0.7694,-0.1238,0.2005,-0.0050,0.0434,1.9143,rough,14.0,1,7.840
390,12.48,-0.9143,0.2890,0.1868,-0.0161,0.0260,1.8891,rough,14.0,1,7.475
400,12.80,-1.0470,0.7033,0.1808,-0.0091,-0.0034,1.8518,rough,14.0,1,7.113
410,13.12,-1.1611,1.1284,0.1800,0.0047,-0.0045,1.8104,rough,14.0,1,6.743
420,13.44,-1.2600,1.5573,0.1815,0.0082,-0.0025,1.7751,rough,14.0,1,6.374
430,13.76,-1.3463,1.9945,0.1779,0.0105,0.0258,1.7405,rough,14.0,1,6.001
440,14.08,-1.4195,2.4266,0.1800,0.0003,0.0015,1.7301,rough,14.0,1,5.638
450,14.40,-1.4816,2.8595,0.1804,-0.0038,-0.0061,1.7043,rough,14.0,1,5.280
460,14.72,-1.5367,3.2890,0.1807,0.0010,0.0042,1.6805,rough,14.0,1,4.934
470,15.04,-1.5729,3.7053,0.1803,-0.0044,0.0007,1.5359,rough,14.0,1,4.603
480,15.36,-1.5479,4.1259,0.1827,0.0068,-0.0104,1.4227,rough,14.0,1,4.247
490,15.68,-1.4652,4.5210,0.1871,0.0614,-0.0675,1.3638,rough,14.0,1,3.886
500,16.00,-1.3650,4.9065,0.2177,0.1112,-0.1220,1.3189,rough,14.0,1,3.530
510,16.32,-1.2430,5.2764,0.2756,0.1472,-0.2196,1.2292,rough,14.0,1,3.179
520,16.64,-1.0987,5.6224,0.3862,0.1604,-0.3301,1.1436,rough,14.0,1,2.837
530,16.96,-0.9299,5.9520,0.5260,0.1983,-0.3978,1.0624,rough,14.0,1,2.495
540,17.28,-0.7398,6.2791,0.6919,0.2064,-0.4125,0.9914,rough,14.0,1,2.146
550,17.60,-0.5218,6.5939,0.8625,0.2343,-0.4115,0.9227,rough,14.0,1,1.792
560,17.92,-0.2910,6.8944,1.0330,0.2589,-0.4345,0.8394,rough,14.0,1,1.447
570,18.24,-0.0428,7.1804,1.2060,0.2336,-0.4372,0.7735,rough,14.0,1,1.112
580,18.56,0.2281,7.4202,1.3822,0.2955,-0.5017,0.6826,rough,14.0,2,0.796
590,18.88,0.4168,7.4834,1.4557,0.4289,-0.3643,0.2351,rough,14.0,2,14.926
600,19.20,0.7087,7.4084,1.4720,0.5985,-0.0653,-0.1834,rough,14.0,2,15.029
610,19.52,0.9816,7.2246,1.4054,0.6101,0.2035,-0.5692,rough,14.0,2,15.038
620,19.84,1.2036,6.9785,1.2696,0.5654,0.4128,-0.7970,rough,14.0,2,14.974
630,20.16,1.3730,6.7236,1.1081,0.4706,0.4631,-1.0035,rough,14.0,2,14.877
640,20.48,1.5106,6.3912,0.9048,0.4318,0.5137,-1.1333,rough,14.0,2,14.706
650,20.80,1.6199,6.0536,0.7209,0.3229,0.4750,-1.2904,rough,14.0,2,14.520
660,21.12,1.7013,5.6767,0.5375,0.1954,0.4639,-1.3871,rough,14.0,2,14.291
670,21.44,1.7544,5.2911,0.3629,0.0692,0.4961,-1.4773,rough,14.0,2,14.044
680,21.76,1.7763,4.9215,0.2290,0.0117,0.3244,-1.5482,rough,14.0,2,13.794
690,22.08,1.7708,4.5990,0.1797,0.0056,0.0039,-1.6419,rough,14.0,2,13.562
700,22.40,1.7343,4.2672,0.1798,0.0003,-0.0003,-1.9166,rough,14.0,2,13.305
710,22.72,1.5917,3.9422,0.1799,-0.0001,0.0002,-2.1398,rough,14.0,2,12.978
720,23.04,1.3714,3.6459,0.1799,0.0002,-0.0000,-2.3329,rough,14.0,2,12.615
730,23.36,1.0888,3.3944,0.1798,0.0001,-0.0003,-2.5289,rough,14.0,2,12.236
740,23.68,0.7541,3.1911,0.1798,0.0000,-0.0003,-2.7320,rough,14.0,2,11.853
750,24.00,0.3737,3.0488,0.1799,-0.0000,-0.0003,-2.9234,rough,14.0,2,11.479
760,24.32,-0.0226,2.9555,0.1804,-0.0014,-0.0027,-2.8903,rough,14.0,2,11.131
770,24.64,-0.4340,2.8436,0.1859,-0.0117,-0.0262,-2.8526,rough,14.0,2,10.763
780,24.96,-0.8411,2.7124,0.1901,-0.0219,0.0074,-2.7757,rough,14.0,2,10.388
790,25.28,-1.2395,2.5552,0.1823,-0.0000,0.0167,-2.7056,rough,14.0,2,10.004
800,25.60,-1.6189,2.3689,0.1807,0.0049,-0.0005,-2.6604,rough,14.0,2,9.614
810,25.92,-1.9860,2.1738,0.1909,0.0073,-0.0677,-2.6046,rough,14.0,2,9.228
820,26.24,-2.3629,1.9569,0.2049,0.0734,-0.0475,-2.5573,rough,14.0,2,8.821
830,26.56,-2.7292,1.6972,0.2100,0.0342,0.0187,-2.5172,rough,14.0,2,8.390
840,26.88,-3.0872,1.4368,0.1981,0.0456,0.0583,-2.4797,rough,14.0,2,7.965
850,27.20,-3.4252,1.1660,0.1856,0.0200,0.0084,-2.4534,rough,14.0,2,7.546
860,27.52,-3.7593,0.8851,0.1831,0.0162,-0.0009,-2.4237,rough,14.0,2,7.123
870,27.84,-4.0808,0.6070,0.1945,0.0346,-0.0544,-2.3966,rough,14.0,2,6.710
880,28.16,-4.4050,0.3107,0.2104,0.0644,-0.0387,-2.3670,rough,14.0,2,6.283
890,28.48,-4.7203,-0.0090,0.2156,0.0573,0.0283,-2.3392,rough,14.0,2,5.843
900,28.80,-5.0239,-0.3324,0.1986,0.0463,0.0384,-2.3148,rough,14.0,2,5.407
910,29.12,-5.3134,-0.6622,0.1849,0.0105,0.0288,-2.2925,rough,14.0,2,4.974
920,29.44,-5.5898,-0.9879,0.1837,-0.0099,-0.0424,-2.2723,rough,14.0,2,4.553
930,29.76,-5.8697,-1.3175,0.2087,0.0084,-0.0648,-2.2500,rough,14.0,2,4.127
940,30.08,-6.1470,-1.6640,0.2274,0.0257,-0.0381,-2.2249,rough,14.0,2,3.690
950,30.40,-6.4181,-2.0350,0.2156,-0.0076,0.0632,-2.2007,rough,14.0,2,3.236
960,30.72,-6.6768,-2.3873,0.1984,0.0204,0.0422,-2.1743,rough,14.0,2,2.805
970,31.04,-6.9126,-2.7526,0.1846,-0.0143,0.0187,-2.1475,rough,14.0,2,2.374
980,31.36,-7.1390,-3.1163,0.1930,-0.0296,-0.0279,-2.1187,rough,14.0,2,1.950
990,31.68,-7.3558,-3.4984,0.2039,-0.0529,-0.0140,-2.0856,rough,14.0,2,1.515
1000,32.00,-7.5644,-3.8928,0.2052,-0.0644,0.0434,-2.0393,rough,14.0,2,1.073
1010,32.32,-7.7586,-4.2766,0.1904,-0.0120,0.0676,-2.0450,rough,14.0,3,0.901
1020,32.64,-7.8924,-4.6026,0.1798,0.0015,0.0014,-1.8693,rough,14.0,0,13.237
1030,32.96,-7.9687,-4.8928,0.1798,0.0000,0.0003,-1.5281,rough,14.0,0,13.319
1040,33.28,-7.9508,-5.2037,0.1798,0.0002,-0.0000,-1.2340,rough,14.0,0,13.313
1050,33.60,-7.8194,-5.5264,0.1799,-0.0002,-0.0000,-1.0251,rough,14.0,0,13.202
1060,33.92,-7.6143,-5.8211,0.1890,-0.0005,-0.0623,-0.8801,rough,14.0,0,13.024
1070,34.24,-7.3391,-6.1088,0.1962,-0.0303,-0.0024,-0.7430,rough,14.0,0,12.783
1080,34.56,-7.0304,-6.3650,0.1849,-0.0116,0.0249,-0.6197,rough,14.0,0,12.512
1090,34.88,-6.6888,-6.5855,0.1817,-0.0039,0.0099,-0.5248,rough,14.0,0,12.209
1100,35.20,-6.3225,-6.7827,0.1789,-0.0001,0.0006,-0.4203,rough,14.0,0,11.885
1110,35.52,-5.9264,-6.9487,0.1799,0.0001,-0.0000,-0.3127,rough,14.0,0,11.530
1120,35.84,-5.5116,-7.0748,0.1799,0.0000,0.0001,-0.2240,rough,14.0,0,11.153
1130,36.16,-5.1172,-7.1662,0.1937,0.0206,-0.0675,-0.1881,rough,14.0,0,10.791
1140,36.48,-4.7020,-7.2473,0.2077,0.0475,-0.0217,-0.1537,rough,14.0,0,10.410
1150,36.80,-4.2777,-7.3137,0.2064,0.0482,0.0171,-0.1047,rough,14.0,0,10.020
1160,37.12,-3.8440,-7.3547,0.1986,0.0458,0.0168,-0.0412,rough,14.0,0,9.616
1170,37.44,-3.4069,-7.3613,0.1846,0.0060,0.0147,0.0144,rough,14.0,0,9.201
1180,37.76,-2.9756,-7.3471,0.1835,-0.0052,-0.0216,0.0622,rough,14.0,0,8.787
1190,38.08,-2.5325,-7.3057,0.1815,-0.0076,0.0013,0.1009,rough,14.0,0,8.355
1200,38.40,-2.0949,-7.2489,0.1827,-0.0136,0.0025,0.1336,rough,14.0,0,7.924
1210,38.72,-1.6729,-7.1797,0.1852,-0.0031,-0.0280,0.1727,rough,14.0,0,7.505
1220,39.04,-1.2408,-7.1050,0.2000,0.0261,-0.0385,0.1931,rough,14.0,0,7.075
1230,39.36,-0.8090,-7.0202,0.2203,0.0377,-0.0436,0.2163,rough,14.0,0,6.642
1240,39.68,-0.3642,-6.9224,0.2174,0.0557,0.0234,0.2346,rough,14.0,0,6.194
1250,40.00,0.0704,-6.8122,0.2001,0.0340,0.0535,0.2518,rough,14.0,0,5.751
1260,40.32,0.4912,-6.6961,0.1829,0.0038,0.0159,0.2601,rough,14.0,0,5.319
1270,40.64,0.9179,-6.5804,0.1798,-0.0000,0.0011,0.2694,rough,14.0,0,4.883
1280,40.96,1.3442,-6.4582,0.1784,-0.0084,0.0002,0.2861,rough,14.0,0,4.445
1290,41.28,1.7707,-6.3331,0.1804,-0.0003,-0.0034,0.2983,rough,14.0,0,4.007
1300,41.60,2.1937,-6.2006,0.1818,-0.0035,-0.0093,0.3095,rough,14.0,0,3.571
1310,41.92,2.6046,-6.0584,0.1922,-0.0408,-0.0266,0.3194,rough,14.0,0,3.142
1320,42.24,3.0272,-5.9111,0.1878,-0.0439,0.0053,0.3379,rough,14.0,0,2.703
1330,42.56,3.4426,-5.7593,0.1859,-0.0310,0.0020,0.3613,rough,14.0,0,2.270
1340,42.88,3.8549,-5.5999,0.1803,-0.0027,0.0013,0.3870,rough,14.0,0,1.840
1350,43.20,4.2537,-5.4307,0.1840,-0.0064,-0.0204,0.4076,rough,14.0,0,1.421
1360,43.52,4.6479,-5.2440,0.1925,-0.0560,-0.0116,0.4363,rough,14.0,0,1.005
1370,43.84,4.9910,-5.0728,0.2066,-0.0324,-0.0229,0.6032,rough,14.0,1,13.195
1380,44.16,5.2140,-4.8964,0.2222,-0.0328,-0.0838,0.8472,rough,14.0,1,13.096
1390,44.48,5.3581,-4.6116,0.2324,-0.1357,-0.0432,1.0640,rough,14.0,1,12.875
1400,44.80,5.4775,-4.2712,0.2261,-0.1795,0.0018,1.2576,rough,14.0,1,12.597
1410,45.12,5.5694,-3.9041,0.2212,-0.1679,0.0236,1.3755,rough,14.0,1,12.288
1420,45.44,5.6055,-3.5112,0.2082,-0.1040,0.0378,1.5427,rough,14.0,1,11.937
1430,45.76,5.5871,-3.1034,0.1845,-0.0005,0.0309,1.6906,rough,14.0,1,11.555
1440,46.08,5.5314,-2.6948,0.1798,-0.0007,-0.0005,1.8090,rough,14.0,1,11.158
1450,46.40,5.4225,-2.2804,0.1799,0.0001,-0.0000,1.8912,rough,14.0,1,10.735
1460,46.72,5.2816,-1.8732,0.1799,0.0002,-0.0000,1.9591,rough,14.0,1,10.306
1470,47.04,5.1123,-1.4772,0.1799,0.0002,-0.0000,2.0241,rough,14.0,1,9.875
1480,47.36,4.9167,-1.0895,0.1799,0.0001,-0.0000,2.0734,rough,14.0,1,9.441
1490,47.68,4.7019,-0.7103,0.1799,0.0001,-0.0000,2.1162,rough,14.0,1,9.008
1500,48.00,4.4707,-0.3401,0.1799,0.0001,-0.0000,2.1559,rough,14.0,1,8.575
1510,48.32,4.2247,0.0211,0.1799,0.0001,-0.0000,2.1931,rough,14.0,1,8.146
1520,48.64,3.9651,0.3732,0.1799,0.0001,-0.0000,2.2281,rough,14.0,1,7.721
1530,48.96,3.6931,0.7159,0.1799,0.0001,0.0000,2.2612,rough,14.0,1,7.301
1540,49.28,3.4095,1.0491,0.1799,0.0001,-0.0000,2.2933,rough,14.0,1,6.889
1550,49.60,3.1151,1.3740,0.1799,0.0001,-0.0000,2.3243,rough,14.0,1,6.484
1560,49.92,2.8105,1.6902,0.1799,0.0001,-0.0000,2.3536,rough,14.0,1,6.089
1570,50.24,2.4966,1.9976,0.1799,0.0001,-0.0000,2.3818,rough,14.0,1,5.707
1580,50.56,2.1740,2.2960,0.1799,0.0001,-0.0000,2.4099,rough,14.0,1,5.340
1590,50.88,1.8433,2.5851,0.1799,0.0001,0.0000,2.4376,rough,14.0,1,4.993
1600,51.20,1.5052,2.8650,0.1799,0.0001,-0.0000,2.4652,rough,14.0,1,4.670
1610,51.52,1.2104,3.1343,0.1799,0.0000,-0.0000,2.3220,rough,14.0,1,4.380
1620,51.84,0.9469,3.4500,0.1799,-0.0001,-0.0000,2.1907,rough,14.0,1,4.060
1630,52.16,0.7177,3.8011,0.1799,-0.0001,-0.0000,2.0648,rough,14.0,1,3.721
1640,52.48,0.5282,4.1801,0.1798,-0.0001,-0.0000,1.9407,rough,14.0,1,3.366
1650,52.80,0.3826,4.5818,0.1799,-0.0001,-0.0000,1.8214,rough,14.0,1,2.996
1660,53.12,0.2893,4.9342,0.2074,-0.0182,-0.1701,1.7765,rough,14.0,1,2.677
1670,53.44,0.2071,5.2973,0.2715,-0.0398,-0.2701,1.7011,rough,14.0,1,2.357
1680,53.76,0.1626,5.6322,0.3842,-0.0704,-0.3986,1.6642,rough,14.0,1,2.064
1690,54.08,0.1314,5.9510,0.5328,-0.0445,-0.4757,1.6675,rough,14.0,1,1.794
1700,54.40,0.0939,6.2459,0.6912,-0.0456,-0.5079,1.6864,rough,14.0,1,1.566
1710,54.72,0.0601,6.5350,0.8567,-0.0312,-0.5274,1.6523,rough,14.0,1,1.367
1720,55.04,0.0284,6.8044,1.0052,-0.0640,-0.5271,1.6339,rough,14.0,1,1.216
1730,55.36,0.0062,7.0544,1.1465,-0.0991,-0.5402,1.6267,rough,14.0,1,1.110
1740,55.68,-0.0179,7.2955,1.2688,-0.1446,-0.4844,1.5975,rough,14.0,1,1.059
1750,56.00,-0.0276,7.5020,1.3690,-0.1762,-0.5141,1.5994,rough,14.0,1,1.046
1760,56.32,-0.0373,7.6972,1.4639,-0.1966,-0.4526,1.5802,rough,14.0,1,1.073
1770,56.64,-0.0421,7.8743,1.5381,-0.2179,-0.3886,1.5627,rough,14.0,1,1.122
1780,56.96,-0.0412,8.0253,1.5989,-0.2231,-0.3792,1.5639,rough,14.0,1,1.179
1790,57.28,-0.0408,8.1696,1.6544,-0.2325,-0.3737,1.5687,rough,14.0,1,1.248
1800,57.60,-0.0405,8.3219,1.7008,-0.2322,-0.2990,1.5498,rough,14.0,1,1.335
1810,57.92,-0.0343,8.4842,1.7545,-0.2207,-0.2902,1.4536,rough,14.0,1,1.435
1820,58.24,0.0194,8.6706,1.8099,-0.1474,-0.2989,1.2735,rough,14.0,1,1.532
1830,58.56,0.1342,8.8587,1.8738,-0.0394,-0.2748,1.0247,rough,14.0,1,1.613
1840,58.88,0.3076,9.0312,1.9455,0.0228,-0.2606,0.7235,rough,14.0,1,1.679
1850,59.20,0.5117,9.1716,2.0073,0.0992,-0.2323,0.4571,rough,14.0,1,1.737
1860,59.52,0.7157,9.2824,2.0574,0.1188,-0.2068,0.2731,rough,14.0,1,1.798
1870,59.84,0.9309,9.3472,2.1009,0.1266,-0.1907,0.1191,rough,14.0,1,1.839
1880,60.16,1.1956,9.3114,2.1471,0.1713,-0.1913,-0.1529,rough,14.0,1,1.810
1890,60.48,1.4976,9.1774,2.1906,0.2190,-0.1409,-0.4800,rough,14.0,1,1.735
1900,60.80,1.7342,8.9855,2.2236,0.2712,-0.0696,-0.6766,rough,14.0,1,1.640
1910,61.12,1.9510,8.7322,2.2205,0.2654,0.0098,-0.9104,rough,14.0,1,1.537
1920,61.44,2.1263,8.3903,2.1697,0.2232,0.2187,-1.1755,rough,14.0,1,1.415
1930,61.76,2.1982,8.0401,2.0735,0.1638,0.2924,-1.4472,rough,14.0,1,1.293
1940,62.08,2.1871,7.6129,1.9072,0.1988,0.5649,-1.5611,rough,14.0,1,1.173
1950,62.40,2.1762,7.1755,1.6497,0.2724,0.5935,-1.5077,rough,14.0,1,1.205
1960,62.72,2.1803,6.7627,1.3722,0.3734,0.5621,-1.4031,rough,14.0,1,1.381
1970,63.04,2.2124,6.3576,1.0937,0.4592,0.5246,-1.2273,rough,14.0,1,1.659
1980,63.36,2.2113,6.0105,0.8534,0.3192,0.5625,-1.4404,rough,14.0,1,1.916
1990,63.68,2.2512,5.6490,0.6267,0.1710,0.5699,-1.5075,rough,14.0,1,2.232
2000,64.00,2.2621,5.3694,0.4468,0.0996,0.5992,-1.5531,rough,14.0,1,2.475
2010,64.32,2.2713,5.1245,0.3253,0.0640,0.3802,-1.5655,rough,14.0,1,2.694
2020,64.64,2.2741,4.8435,0.2310,0.0238,0.3606,-1.6126,rough,14.0,1,2.947
2030,64.96,2.2811,4.6442,0.1871,-0.0682,-0.0358,-1.8177,rough,14.0,1,3.131
2040,65.28,2.1616,4.3354,0.1784,0.0011,-0.0016,-2.1389,rough,14.0,1,3.374
2050,65.60,1.9700,4.1128,0.1798,-0.0001,0.0003,-2.5024,rough,14.0,1,3.528
2060,65.92,1.7170,3.9564,0.1797,-0.0001,-0.0000,-2.8412,rough,14.0,1,3.621
2070,66.24,1.4277,3.8693,0.1797,-0.0000,-0.0000,3.0895,rough,14.0,1,3.663
2080,66.56,1.1107,3.8898,0.1798,0.0001,0.0004,2.7832,rough,14.0,1,3.621
2090,66.88,0.7909,4.0300,0.1799,0.0003,-0.0000,2.5645,rough,14.0,1,3.487
2100,67.20,0.5022,4.2509,0.1799,-0.0000,-0.0001,2.3671,rough,14.0,1,3.300
2110,67.52,0.2503,4.5394,0.1798,0.0001,0.0002,2.1899,rough,14.0,1,3.068
2120,67.84,0.0441,4.8233,0.1966,-0.0374,-0.0664,2.0605,rough,14.0,1,2.858
2130,68.16,-0.1306,5.1237,0.2197,-0.0841,-0.0863,1.9560,rough,14.0,1,2.648
2140,68.48,-0.2422,5.3837,0.2840,-0.0639,-0.3969,1.8920,rough,14.0,1,2.472
2150,68.80,-0.3442,5.6773,0.4035,-0.0932,-0.4251,1.8202,rough,14.0,1,2.284
2160,69.12,-0.4233,5.9622,0.5376,-0.1113,-0.4789,1.7599,rough,14.0,1,2.115
2170,69.44,-0.4754,6.2413,0.6849,-0.0736,-0.4751,1.6971,rough,14.0,1,1.960
2180,69.76,-0.5114,6.5120,0.8255,-0.0603,-0.4839,1.6511,rough,14.0,1,1.827
2190,70.08,-0.5404,6.7736,0.9504,-0.0826,-0.4518,1.6223,rough,14.0,1,1.724
2200,70.40,-0.5567,7.0209,1.0614,-0.0982,-0.4174,1.6101,rough,14.0,1,1.650
2210,70.72,-0.5700,7.2486,1.1681,-0.1123,-0.4193,1.5817,rough,14.0,1,1.610
2220,71.04,-0.5729,7.4551,1.2605,-0.1126,-0.4236,1.5764,rough,14.0,1,1.593
2230,71.36,-0.5794,7.6473,1.3381,-0.1413,-0.3990,1.5739,rough,14.0,1,1.604
2240,71.68,-0.5818,7.8236,1.4073,-0.1530,-0.3735,1.5690,rough,14.0,1,1.631
2250,72.00,-0.5819,7.9824,1.4687,-0.1559,-0.3635,1.5681,rough,14.0,1,1.669
2260,72.32,-0.5875,8.1505,1.5267,-0.1594,-0.3578,1.5254,rough,14.0,1,1.729
2270,72.64,-0.5830,8.3241,1.5842,-0.1455,-0.3269,1.4671,rough,14.0,1,1.797
2280,72.96,-0.5582,8.5079,1.6399,-0.1010,-0.3148,1.3391,rough,14.0,1,1.866
2290,73.28,-0.5015,8.7447,1.7217,-0.0262,-0.3293,1.0505,rough,14.0,1,1.959
2300,73.60,-0.3419,8.9494,1.8094,0.0629,-0.3185,0.7724,rough,14.0,1,1.981
2310,73.92,-0.0951,9.1014,1.8954,0.1465,-0.2769,0.5197,rough,14.0,1,1.943
2320,74.24,0.1427,9.2413,1.9648,0.1777,-0.2219,0.3463,rough,14.0,1,1.941
2330,74.56,0.4212,9.3240,2.0191,0.1661,-0.1627,0.1774,rough,14.0,1,1.910
2340,74.88,0.6655,9.3683,2.0629,0.1739,-0.1840,0.0812,rough,14.0,1,1.892
2350,75.20,0.9295,9.3689,2.1028,0.1706,-0.1587,-0.0866,rough,14.0,1,1.861
2360,75.52,1.2464,9.2550,2.1485,0.1981,-0.1587,-0.3879,rough,14.0,1,1.760
2370,75.84,1.5473,9.0714,2.1870,0.2227,-0.0926,-0.6354,rough,14.0,1,1.649
2380,76.16,1.7670,8.8271,2.1978,0.2510,0.0008,-0.8438,rough,14.0,1,1.515
2390,76.48,1.9697,8.5151,2.1783,0.2367,0.0916,-1.0756,rough,14.0,1,1.384
2400,76.80,2.1198,8.1566,2.0983,0.2108,0.3012,-1.3819,rough,14.0,1,1.277
2410,77.12,2.1456,7.7785,1.9674,0.1175,0.4263,-1.6669,rough,14.0,1,1.158
2420,77.44,2.0939,7.3409,1.7310,0.0676,0.5661,-1.8007,rough,14.0,1,1.088
2430,77.76,2.0043,6.9274,1.4372,0.1256,0.6786,-1.8042,rough,14.0,1,1.145
2440,78.08,1.9247,6.5277,1.1205,0.0990,0.6718,-1.8308,rough,14.0,1,1.336
2450,78.40,1.8771,6.1665,0.8508,0.0830,0.5950,-1.8309,rough,14.0,1,1.594
2460,78.72,1.7774,5.7988,0.6019,0.0351,0.5578,-1.8614,rough,14.0,1,1.872
2470,79.04,1.6760,5.4357,0.4159,-0.1151,0.4780,-1.9759,rough,14.0,1,2.176
2480,79.36,1.5395,5.1200,0.2838,-0.1599,0.2502,-2.2159,rough,14.0,1,2.446
2490,79.68,1.3617,4.8660,0.2244,-0.1907,0.0497,-2.5344,rough,14.0,1,2.666
2500,80.00,1.0928,4.7005,0.1993,-0.0905,0.0040,-2.9076,rough,14.0,1,2.810
2510,80.32,0.7984,4.6387,0.1856,-0.0286,0.0049,2.9954,rough,14.0,1,2.880
2520,80.64,0.5025,4.6739,0.1916,-0.0624,-0.0019,2.6969,rough,14.0,1,2.882
2530,80.96,0.2140,4.8027,0.1964,-0.0849,-0.0045,2.4545,rough,14.0,1,2.824
2540,81.28,-0.0271,4.9989,0.2063,-0.0769,-0.0811,2.2636,rough,14.0,1,2.720
2550,81.60,-0.2454,5.2254,0.2474,-0.1380,-0.1652,2.0996,rough,14.0,1,2.611
2560,81.92,-0.3987,5.4691,0.3032,-0.1535,-0.3468,1.9841,rough,14.0,1,2.485
2570,82.24,-0.5188,5.7327,0.4309,-0.1149,-0.4342,1.8726,rough,14.0,1,2.350
2580,82.56,-0.6112,6.0082,0.5617,-0.1009,-0.4551,1.7747,rough,14.0,1,2.216
2590,82.88,-0.6710,6.2775,0.6994,-0.0818,-0.4734,1.7092,rough,14.0,1,2.091
2600,83.20,-0.7167,6.5444,0.8250,-0.0982,-0.4482,1.6561,rough,14.0,1,1.986
2610,83.52,-0.7399,6.7972,0.9480,-0.0885,-0.4520,1.6197,rough,14.0,1,1.898
2620,83.84,-0.7602,7.0395,1.0532,-0.1118,-0.4163,1.6013,rough,14.0,1,1.840
2630,84.16,-0.7712,7.2577,1.1497,-0.1115,-0.4162,1.5909,rough,14.0,1,1.808
2640,84.48,-0.7772,7.4595,1.2330,-0.1205,-0.4100,1.5888,rough,14.0,1,1.797
2650,84.80,-0.7798,7.6482,1.3076,-0.0970,-0.3909,1.5695,rough,14.0,1,1.804
2660,85.12,-0.7836,7.8214,1.3798,-0.1174,-0.3722,1.5671,rough,14.0,1,1.829
2670,85.44,-0.7834,7.9826,1.4401,-0.1226,-0.3522,1.5668,rough,14.0,1,1.863
2680,85.76,-0.7842,8.1391,1.4950,-0.1335,-0.3381,1.5676,rough,14.0,1,1.910
2690,86.08,-0.7840,8.2959,1.5443,-0.1373,-0.3100,1.5623,rough,14.0,1,1.967
2700,86.40,-0.7873,8.4598,1.5925,-0.1404,-0.2813,1.5257,rough,14.0,1,2.041
2710,86.72,-0.7900,8.6648,1.6509,-0.0786,-0.3109,1.3328,rough,14.0,1,2.146
2720,87.04,-0.7260,8.9106,1.7267,0.0037,-0.3304,0.9838,rough,14.0,1,2.238
2730,87.36,-0.5374,9.1004,1.8162,0.0792,-0.3197,0.7452,rough,14.0,1,2.225
2740,87.68,-0.3169,9.2837,1.9009,0.1228,-0.2705,0.5289,rough,14.0,1,2.221
2750,88.00,-0.0468,9.4068,1.9703,0.1524,-0.2132,0.3318,rough,14.0,1,2.176
2760,88.32,0.2167,9.4980,2.0262,0.1664,-0.1659,0.2012,rough,14.0,1,2.144
2770,88.64,0.4802,9.5525,2.0676,0.1644,-0.1426,0.0962,rough,14.0,1,2.113
2780,88.96,0.7839,9.5203,2.1048,0.1914,-0.1323,-0.1385,rough,14.0,1,2.024
2790,89.28,1.1219,9.3879,2.1405,0.2142,-0.1072,-0.4087,rough,14.0,1,1.881
2800,89.60,1.4214,9.2014,2.1766,0.2325,-0.1041,-0.6297,rough,14.0,1,1.739
2810,89.92,1.6617,8.9589,2.2007,0.2526,-0.0578,-0.8289,rough,14.0,1,1.585
2820,90.24,1.8744,8.6413,2.1880,0.2331,0.0610,-1.0417,rough,14.0,1,1.419
2830,90.56,2.0243,8.2485,2.1187,0.2098,0.2851,-1.2531,rough,14.0,1,1.248
2840,90.88,2.0881,7.8980,2.0106,0.1237,0.3185,-1.5728,rough,14.0,1,1.138
2850,91.20,2.0403,7.4639,1.7968,0.1540,0.5779,-1.6919,rough,14.0,1,1.023
2860,91.52,1.9944,7.0593,1.5257,0.1503,0.6591,-1.7210,rough,14.0,1,1.075
2870,91.84,1.9254,6.6889,1.2359,0.1099,0.6619,-1.8201,rough,14.0,1,1.223
2880,92.16,1.8768,6.3057,0.9452,0.1919,0.6378,-1.6789,rough,14.0,1,1.479
2890,92.48,1.8390,5.9348,0.7009,0.0851,0.6267,-1.7345,rough,14.0,1,1.776
2900,92.80,1.8050,5.6085,0.5035,0.0473,0.4427,-1.7579,rough,14.0,1,2.057
2910,93.12,1.7563,5.3324,0.3773,-0.0362,0.4870,-1.8432,rough,14.0,1,2.299
2920,93.44,1.7145,5.1016,0.2831,-0.0972,0.2758,-2.0058,rough,14.0,1,2.507
2930,93.76,1.6162,4.8738,0.2260,-0.1848,0.1015,-2.4115,rough,14.0,1,2.703
2940,94.08,1.3753,4.6747,0.2007,-0.1069,-0.0017,-2.7478,rough,14.0,1,2.857
2950,94.40,1.0823,4.5733,0.1786,0.0111,-0.0016,-3.1317,rough,14.0,1,2.937
2960,94.72,0.7820,4.5719,0.1805,-0.0053,0.0008,2.8086,rough,14.0,1,2.947
2970,95.04,0.4892,4.6680,0.1910,-0.0278,-0.0438,2.5544,rough,14.0,1,2.891
2980,95.36,0.2131,4.8410,0.1984,-0.0575,-0.0535,2.3503,rough,14.0,1,2.788
2990,95.68,-0.0240,5.0719,0.2148,-0.0786,-0.1090,2.1677,rough,14.0,1,2.652
3000,96.00,-0.2050,5.3105,0.2651,-0.1040,-0.2769,2.0427,rough,14.0,1,2.517
3010,96.32,-0.3548,5.5747,0.3550,-0.1372,-0.3849,1.9337,rough,14.0,1,2.373
3020,96.64,-0.4600,5.8441,0.4837,-0.1037,-0.4735,1.8364,rough,14.0,1,2.227
3030,96.96,-0.5412,6.1246,0.6234,-0.0922,-0.4648,1.7474,rough,14.0,1,2.086
3040,97.28,-0.5918,6.3953,0.7618,-0.0764,-0.4810,1.6851,rough,14.0,1,1.959
3050,97.60,-0.6291,6.6585,0.8878,-0.0890,-0.4514,1.6437,rough,14.0,1,1.855
3060,97.92,-0.6490,6.9065,1.0081,-0.0827,-0.4553,1.6118,rough,14.0,1,1.774
3070,98.24,-0.6669,7.1445,1.1101,-0.1140,-0.4151,1.5954,rough,14.0,1,1.725
3080,98.56,-0.6731,7.3586,1.2059,-0.1114,-0.4212,1.5834,rough,14.0,1,1.699
3090,98.88,-0.6793,7.5546,1.2862,-0.1321,-0.4013,1.5841,rough,14.0,1,1.699
3100,99.20,-0.6838,7.7394,1.3605,-0.1400,-0.3775,1.5730,rough,14.0,1,1.718
3110,99.52,-0.6839,7.9044,1.4256,-0.1370,-0.3650,1.5686,rough,14.0,1,1.748
3120,99.84,-0.6847,8.0620,1.4820,-0.1479,-0.3538,1.5694,rough,14.0,1,1.791
3130,100.16,-0.6850,8.2175,1.5348,-0.1531,-0.3348,1.5667,rough,14.0,1,1.845
3140,100.48,-0.6849,8.3731,1.5832,-0.1600,-0.2929,1.5612,rough,14.0,1,1.910
3150,100.80,-0.6881,8.5296,1.6261,-0.1465,-0.2832,1.5122,rough,14.0,1,1.988
3160,101.12,-0.6901,8.7409,1.6882,-0.0820,-0.3141,1.2937,rough,14.0,1,2.106
3170,101.44,-0.6009,8.9547,1.7627,-0.0129,-0.3311,1.0217,rough,14.0,1,2.171
3180,101.76,-0.4260,9.1299,1.8429,0.0646,-0.3067,0.7821,rough,14.0,1,2.171
3190,102.08,-0.1843,9.2921,1.9234,0.1343,-0.2563,0.5286,rough,14.0,1,2.150
3200,102.40,0.0526,9.4314,1.9901,0.1650,-0.1980,0.3404,rough,14.0,1,2.151
3210,102.72,0.3051,9.5280,2.0436,0.1632,-0.1610,0.2069,rough,14.0,1,2.141
3220,103.04,0.5591,9.5780,2.0828,0.1700,-0.1452,0.0933,rough,14.0,1,2.119
3230,103.36,0.8370,9.5616,2.1196,0.1870,-0.1450,-0.0971,rough,14.0,1,2.060
3240,103.68,1.1641,9.4452,2.1579,0.2231,-0.1139,-0.3711,rough,14.0,1,1.941
3250,104.00,1.4487,9.2878,2.1965,0.2418,-0.1147,-0.5777,rough,14.0,1,1.829
3260,104.32,1.7073,9.0432,2.2224,0.2781,-0.0578,-0.7905,rough,14.0,1,1.681
3270,104.64,1.9236,8.7518,2.2169,0.2600,0.0326,-1.0003,rough,14.0,1,1.537
3280,104.96,2.0901,8.3637,2.1572,0.2294,0.2252,-1.1799,rough,14.0,1,1.370
3290,105.28,2.1863,8.0022,2.0618,0.1801,0.2911,-1.4360,rough,14.0,1,1.267
3300,105.60,2.1896,7.5953,1.8977,0.1623,0.5639,-1.6243,rough,14.0,1,1.174
3310,105.92,2.1371,7.1749,1.6384,0.1463,0.6101,-1.7182,rough,14.0,1,1.167
3320,106.24,2.0764,6.7686,1.3399,0.1061,0.6412,-1.8243,rough,14.0,1,1.291
3330,106.56,2.0169,6.3531,1.0262,0.2132,0.6491,-1.6772,rough,14.0,1,1.528
3340,106.88,1.9668,5.9711,0.7519,0.0876,0.6171,-1.7764,rough,14.0,1,1.807
3350,107.20,1.9104,5.5977,0.5208,-0.0044,0.5173,-1.8660,rough,14.0,1,2.110
3360,107.52,1.8007,5.2400,0.3351,-0.0867,0.3733,-2.0005,rough,14.0,1,2.401
3370,107.84,1.6752,4.9757,0.2437,-0.1796,0.2085,-2.3504,rough,14.0,1,2.618
3380,108.16,1.4732,4.7842,0.2113,-0.1642,-0.0007,-2.6565,rough,14.0,1,2.763
3390,108.48,1.1836,4.6554,0.1929,-0.0622,-0.0004,-3.0285,rough,14.0,1,2.859
3400,108.80,0.8868,4.6281,0.1810,-0.0066,0.0031,2.9026,rough,14.0,1,2.885
3410,109.12,0.5821,4.6883,0.1931,-0.0697,-0.0028,2.6296,rough,14.0,1,2.855
3420,109.44,0.2906,4.8408,0.2001,-0.1081,-0.0002,2.4068,rough,14.0,1,2.767
3430,109.76,0.0524,5.0675,0.2142,-0.0882,-0.0757,2.2150,rough,14.0,1,2.627
3440,110.08,-0.1442,5.3035,0.2681,-0.1349,-0.2479,2.0804,rough,14.0,1,2.494
3450,110.40,-0.3017,5.5670,0.3512,-0.1447,-0.3837,1.9543,rough,14.0,1,2.349
3460,110.72,-0.4128,5.8359,0.4800,-0.1083,-0.4711,1.8522,rough,14.0,1,2.203
3470,111.04,-0.4999,6.1172,0.6191,-0.1101,-0.4696,1.7682,rough,14.0,1,2.061
3480,111.36,-0.5556,6.3858,0.7575,-0.0855,-0.4787,1.7028,rough,14.0,1,1.934
3490,111.68,-0.5952,6.6509,0.8870,-0.0863,-0.4562,1.6494,rough,14.0,1,1.828
3500,112.00,-0.6169,6.9008,1.0081,-0.0807,-0.4555,1.6150,rough,14.0,1,1.745
3510,112.32,-0.6341,7.1402,1.1123,-0.1085,-0.4224,1.5929,rough,14.0,1,1.694
3520,112.64,-0.6405,7.3565,1.2086,-0.1109,-0.4234,1.5813,rough,14.0,1,1.666
3530,112.96,-0.6480,7.5572,1.2910,-0.1255,-0.4071,1.5695,rough,14.0,1,1.668
3540,113.28,-0.6506,7.7422,1.3660,-0.1424,-0.3786,1.5661,rough,14.0,1,1.685
3550,113.60,-0.6495,7.9070,1.4311,-0.1416,-0.3657,1.5652,rough,14.0,1,1.715
3560,113.92,-0.6508,8.0694,1.4889,-0.1511,-0.3593,1.5512,rough,14.0,1,1.761
3570,114.24,-0.6491,8.2241,1.5411,-0.1593,-0.3259,1.5510,rough,14.0,1,1.814
3580,114.56,-0.6495,8.3808,1.5846,-0.1912,-0.2954,1.5468,rough,14.0,1,1.882
3590,114.88,-0.6402,8.5478,1.6393,-0.1407,-0.2912,1.4641,rough,14.0,1,1.957
3600,115.20,-0.6292,8.7777,1.7085,-0.0598,-0.3218,1.1940,rough,14.0,1,2.079
3610,115.52,-0.5107,8.9837,1.7876,0.0184,-0.3292,0.9181,rough,14.0,1,2.124
3620,115.84,-0.3016,9.1464,1.8703,0.1013,-0.2944,0.6605,rough,14.0,1,2.103
3630,116.16,-0.0495,9.2791,1.9448,0.1758,-0.2503,0.4320,rough,14.0,1,2.067
3640,116.48,0.2007,9.4006,2.0047,0.1783,-0.2024,0.2697,rough,14.0,1,2.060
3650,116.80,0.4511,9.4814,2.0476,0.1530,-0.1711,0.1541,rough,14.0,1,2.052
3660,117.12,0.7316,9.4851,2.0912,0.1797,-0.1504,-0.0326,rough,14.0,1,1.996
3670,117.44,1.0649,9.3963,2.1324,0.1957,-0.1274,-0.3027,rough,14.0,1,1.887
3680,117.76,1.3762,9.2323,2.1747,0.2338,-0.1330,-0.5631,rough,14.0,1,1.759
3690,118.08,1.6532,8.9893,2.1981,0.2869,-0.0579,-0.7791,rough,14.0,1,1.610
3700,118.40,1.8710,8.6985,2.1998,0.2505,0.0374,-0.9919,rough,14.0,1,1.463
3710,118.72,2.0424,8.3361,2.1411,0.2040,0.2306,-1.1889,rough,14.0,1,1.315
3720,119.04,2.1412,7.9943,2.0540,0.1384,0.3155,-1.5755,rough,14.0,1,1.223
3730,119.36,2.1006,7.5963,1.8802,0.0553,0.5704,-1.8252,rough,14.0,1,1.085
3740,119.68,1.9898,7.2040,1.6246,-0.0946,0.6577,-2.0634,rough,14.0,1,1.018
3750,120.00,1.8101,6.8013,1.2835,-0.0802,0.6800,-2.0681,rough,14.0,1,1.062
3760,120.32,1.6792,6.4117,0.9684,0.0411,0.6695,-1.8427,rough,14.0,1,1.281
3770,120.64,1.6117,6.0242,0.7041,0.0236,0.5800,-1.8085,rough,14.0,1,1.600
3780,120.96,1.5734,5.7203,0.5267,0.0237,0.4867,-1.7907,rough,14.0,1,1.873
3790,121.28,1.5042,5.4671,0.4059,-0.0708,0.4258,-1.8930,rough,14.0,1,2.100
3800,121.60,1.4192,5.2293,0.3167,-0.1364,0.2604,-2.1108,rough,14.0,1,2.315
3810,121.92,1.2539,4.9801,0.2358,-0.1818,0.1736,-2.4904,rough,14.0,1,2.541
3820,122.24,1.0102,4.8167,0.2102,-0.1414,0.0344,-2.8603,rough,14.0,1,2.693
3830,122.56,0.7179,4.7395,0.1956,-0.0814,0.0048,3.0286,rough,14.0,1,2.787
3840,122.88,0.4281,4.7650,0.1947,-0.0711,-0.0100,2.7184,rough,14.0,1,2.808
3850,123.20,0.1430,4.8840,0.2021,-0.1113,-0.0093,2.4654,rough,14.0,1,2.768
3860,123.52,-0.0944,5.0772,0.2108,-0.1104,-0.1074,2.2703,rough,14.0,1,2.675
3870,123.84,-0.2989,5.2943,0.2663,-0.1435,-0.2354,2.1181,rough,14.0,1,2.578
3880,124.16,-0.4541,5.5375,0.3396,-0.1476,-0.3672,1.9840,rough,14.0,1,2.462
3890,124.48,-0.5731,5.7985,0.4624,-0.1156,-0.4563,1.8713,rough,14.0,1,2.337
3900,124.80,-0.6635,6.0678,0.5906,-0.1126,-0.4576,1.7850,rough,14.0,1,2.216
3910,125.12,-0.7222,6.3325,0.7267,-0.0821,-0.4782,1.7105,rough,14.0,1,2.102
3920,125.44,-0.7680,6.6008,0.8498,-0.1056,-0.4462,1.6565,rough,14.0,1,2.005
3930,125.76,-0.7911,6.8491,0.9651,-0.0963,-0.4367,1.6200,rough,14.0,1,1.927
3940,126.08,-0.8101,7.0864,1.0699,-0.1168,-0.4137,1.5973,rough,14.0,1,1.877
3950,126.40,-0.8144,7.3031,1.1655,-0.1010,-0.4207,1.5773,rough,14.0,1,1.845
3960,126.72,-0.8178,7.5042,1.2487,-0.1078,-0.3943,1.5739,rough,14.0,1,1.837
3970,127.04,-0.8210,7.6939,1.3248,-0.1050,-0.3851,1.5509,rough,14.0,1,1.849
3980,127.36,-0.8170,7.8620,1.3914,-0.1085,-0.3666,1.5591,rough,14.0,1,1.869
3990,127.68,-0.8175,8.0257,1.4494,-0.1183,-0.3484,1.5510,rough,14.0,1,1.907
4000,128.00,-0.8139,8.1809,1.5015,-0.1218,-0.3166,1.5590,rough,14.0,1,1.952
4010,128.32,-0.8149,8.3328,1.5494,-0.1381,-0.3008,1.5636,rough,14.0,1,2.010
4020,128.64,-0.8174,8.4930,1.5969,-0.1363,-0.2825,1.5318,rough,14.0,1,2.083
4030,128.96,-0.8241,8.6921,1.6458,-0.1195,-0.3067,1.3698,rough,14.0,1,2.190
4040,129.28,-0.7712,8.9367,1.7248,-0.0015,-0.3256,1.0098,rough,14.0,1,2.289
4050,129.60,-0.6009,9.1508,1.8188,0.0847,-0.3280,0.7551,rough,14.0,1,2.306
4060,129.92,-0.4057,9.3404,1.9022,0.1245,-0.2800,0.5336,rough,14.0,1,2.320
4070,130.24,-0.1448,9.4807,1.9766,0.1562,-0.1986,0.3309,rough,14.0,1,2.289
4080,130.56,0.1401,9.5635,2.0291,0.1764,-0.1507,0.1702,rough,14.0,1,2.234
4090,130.88,0.4660,9.5573,2.0663,0.1877,-0.1207,-0.0604,rough,14.0,1,2.121
4100,131.20,0.8194,9.4542,2.0982,0.2100,-0.1018,-0.3303,rough,14.0,1,1.955
4110,131.52,1.1551,9.2648,2.1310,0.2158,-0.1012,-0.5598,rough,14.0,1,1.760
4120,131.84,1.4497,9.0268,2.1606,0.2346,-0.0667,-0.7617,rough,14.0,1,1.577
4130,132.16,1.6892,8.7218,2.1670,0.2388,0.0229,-0.9857,rough,14.0,1,1.385
4140,132.48,1.8604,8.3553,2.1253,0.2278,0.1892,-1.1867,rough,14.0,1,1.193
4150,132.80,1.9645,8.0009,2.0328,0.1264,0.3184,-1.5734,rough,14.0,1,1.066
4160,133.12,1.9282,7.5754,1.8402,0.0991,0.6008,-1.7214,rough,14.0,1,0.912
4170,133.44,1.8510,7.1523,1.5489,0.0154,0.6678,-1.8859,rough,14.0,1,0.906
4180,133.76,1.7380,6.7831,1.2504,-0.1225,0.6698,-2.1276,rough,14.0,1,1.022
4190,134.08,1.5713,6.4525,0.9644,-0.0975,0.6574,-2.0272,rough,14.0,1,1.193
4200,134.40,1.4396,6.1258,0.7279,-0.1230,0.5677,-2.1906,rough,14.0,1,1.447
4210,134.72,1.2578,5.8611,0.5460,-0.2472,0.3841,-2.3973,rough,14.0,1,1.666
4220,135.04,1.0349,5.6455,0.4357,-0.3348,0.1891,-2.7610,rough,14.0,1,1.864
4230,135.36,0.9980,5.6034,0.4146,-0.2718,0.2473,-2.5363,rough,14.0,1,1.906
4240,135.68,1.0004,5.5729,0.4018,-0.2535,0.2483,-2.5176,rough,14.0,1,1.937
4250,136.00,1.0407,5.5240,0.3817,-0.2698,0.2199,-2.6797,rough,14.0,1,1.986
4260,136.32,1.0772,5.4560,0.3642,-0.3044,0.1521,-2.8436,rough,14.0,1,2.055
4270,136.64,1.0910,5.4159,0.3528,-0.3172,0.1135,-2.9159,rough,14.0,1,2.095
4280,136.96,1.0991,5.3818,0.3442,-0.3193,0.0822,-2.9616,rough,14.0,1,2.129
4290,137.28,1.1038,5.3524,0.3356,-0.3144,0.0706,-3.0036,rough,14.0,1,2.159
4300,137.60,1.1061,5.3244,0.3273,-0.3092,0.0572,-3.0523,rough,14.0,1,2.187
4310,137.92,1.1052,5.3131,0.3241,-0.3071,0.0468,-3.0808,rough,14.0,1,2.198
4320,138.24,1.1050,5.3051,0.3217,-0.3054,0.0413,-3.0989,rough,14.0,1,2.206
4330,138.56,1.1049,5.2995,0.3200,-0.3042,0.0371,-3.1140,rough,14.0,1,2.212
4340,138.88,1.1051,5.2955,0.3188,-0.3032,0.0341,-3.1262,rough,14.0,1,2.216
4350,139.20,1.1052,5.2917,0.3176,-0.3024,0.0333,-3.1324,rough,14.0,1,2.220
4360,139.52,1.1048,5.2889,0.3169,-0.3018,0.0306,-3.1377,rough,14.0,1,2.223
4370,139.84,1.1046,5.2868,0.3163,-0.3015,0.0290,3.1409,rough,14.0,1,2.225
4380,140.16,1.1041,5.2861,0.3160,-0.3015,0.0276,3.1331,rough,14.0,1,2.225
4390,140.48,1.1016,5.2885,0.3162,-0.3018,0.0263,3.1182,rough,14.0,1,2.223
4400,140.80,1.1007,5.2942,0.3176,-0.3033,0.0243,3.1018,rough,14.0,1,2.217
4410,141.12,1.1010,5.2960,0.3182,-0.3036,0.0264,3.1109,rough,14.0,1,2.215
4420,141.44,1.1012,5.2972,0.3186,-0.3040,0.0275,3.1157,rough,14.0,1,2.214
4430,141.76,1.1013,5.2986,0.3190,-0.3044,0.0280,3.1173,rough,14.0,1,2.213
4440,142.08,1.1014,5.2995,0.3192,-0.3046,0.0286,3.1193,rough,14.0,1,2.212
4450,142.40,1.1014,5.3003,0.3195,-0.3048,0.0289,3.1206,rough,14.0,1,2.211
4460,142.72,1.1015,5.3007,0.3196,-0.3049,0.0293,3.1223,rough,14.0,1,2.211
4470,143.04,1.1015,5.3012,0.3197,-0.3051,0.0295,3.1230,rough,14.0,1,2.210
4480,143.36,1.1015,5.3016,0.3199,-0.3052,0.0297,3.1235,rough,14.0,1,2.210
4490,143.68,1.1015,5.3019,0.3199,-0.3052,0.0298,3.1239,rough,14.0,1,2.209
4500,144.00,1.1016,5.3021,0.3200,-0.3053,0.0300,3.1243,rough,14.0,1,2.209
4510,144.32,1.1016,5.3023,0.3201,-0.3054,0.0300,3.1246,rough,14.0,1,2.209
4520,144.64,1.1016,5.3025,0.3201,-0.3054,0.0301,3.1248,rough,14.0,1,2.209
4530,144.96,1.1016,5.3027,0.3202,-0.3055,0.0302,3.1249,rough,14.0,1,2.209
4540,145.28,1.1016,5.3028,0.3202,-0.3055,0.0302,3.1250,rough,14.0,1,2.209
4550,145.60,1.1016,5.3030,0.3203,-0.3055,0.0302,3.1250,rough,14.0,1,2.208
4560,145.92,1.1016,5.3031,0.3203,-0.3056,0.0302,3.1251,rough,14.0,1,2.208
4570,146.24,1.1016,5.3033,0.3203,-0.3056,0.0303,3.1251,rough,14.0,1,2.208
4580,146.56,1.1016,5.3034,0.3204,-0.3057,0.0303,3.1251,rough,14.0,1,2.208
4590,146.88,1.1016,5.3035,0.3204,-0.3057,0.0303,3.1251,rough,14.0,1,2.208
4600,147.20,1.1016,5.3037,0.3205,-0.3058,0.0303,3.1252,rough,14.0,1,2.208
4610,147.52,1.1016,5.3038,0.3205,-0.3058,0.0303,3.1252,rough,14.0,1,2.208
4620,147.84,1.1016,5.3039,0.3205,-0.3058,0.0303,3.1252,rough,14.0,1,2.207
4630,148.16,1.1016,5.3041,0.3206,-0.3059,0.0303,3.1252,rough,14.0,1,2.207
4640,148.48,1.1016,5.3042,0.3206,-0.3059,0.0304,3.1252,rough,14.0,1,2.207
4650,148.80,1.1016,5.3043,0.3207,-0.3059,0.0304,3.1252,rough,14.0,1,2.207
4660,149.12,1.1016,5.3044,0.3207,-0.3060,0.0304,3.1252,rough,14.0,1,2.207
4670,149.44,1.1016,5.3046,0.3207,-0.3060,0.0304,3.1252,rough,14.0,1,2.207
4680,149.76,1.1016,5.3047,0.3208,-0.3061,0.0304,3.1252,rough,14.0,1,2.207
4690,150.08,1.1016,5.3048,0.3208,-0.3061,0.0304,3.1252,rough,14.0,1,2.207
4700,150.40,1.1016,5.3049,0.3208,-0.3061,0.0304,3.1253,rough,14.0,1,2.206
4710,150.72,1.1016,5.3050,0.3209,-0.3062,0.0304,3.1253,rough,14.0,1,2.206
4720,151.04,1.1016,5.3052,0.3209,-0.3062,0.0305,3.1253,rough,14.0,1,2.206
4730,151.36,1.1016,5.3053,0.3209,-0.3062,0.0305,3.1253,rough,14.0,1,2.206
4740,151.68,1.1017,5.3054,0.3210,-0.3063,0.0305,3.1253,rough,14.0,1,2.206
4750,152.00,1.1017,5.3055,0.3210,-0.3063,0.0305,3.1253,rough,14.0,1,2.206
4760,152.32,1.1017,5.3056,0.3210,-0.3063,0.0305,3.1253,rough,14.0,1,2.206
4770,152.64,1.1017,5.3057,0.3211,-0.3064,0.0305,3.1253,rough,14.0,1,2.206
4780,152.96,1.1017,5.3059,0.3211,-0.3064,0.0305,3.1253,rough,14.0,1,2.205
4790,153.28,1.1017,5.3060,0.3211,-0.3064,0.0305,3.1253,rough,14.0,1,2.205
4800,153.60,1.1017,5.3061,0.3212,-0.3065,0.0305,3.1253,rough,14.0,1,2.205
4810,153.92,1.1017,5.3062,0.3212,-0.3065,0.0306,3.1253,rough,14.0,1,2.205
4820,154.24,1.1017,5.3063,0.3212,-0.3065,0.0306,3.1253,rough,14.0,1,2.205
4830,154.56,1.1017,5.3064,0.3213,-0.3066,0.0306,3.1254,rough,14.0,1,2.205
4840,154.88,1.1017,5.3065,0.3213,-0.3066,0.0306,3.1254,rough,14.0,1,2.205
4850,155.20,1.1017,5.3066,0.3213,-0.3066,0.0306,3.1254,rough,14.0,1,2.205
4860,155.52,1.1017,5.3067,0.3214,-0.3067,0.0306,3.1254,rough,14.0,1,2.205
4870,155.84,1.1017,5.3068,0.3214,-0.3067,0.0306,3.1254,rough,14.0,1,2.205
4880,156.16,1.1017,5.3069,0.3214,-0.3067,0.0306,3.1254,rough,14.0,1,2.204
4890,156.48,1.1017,5.3070,0.3214,-0.3068,0.0306,3.1254,rough,14.0,1,2.204
4900,156.80,1.1017,5.3071,0.3215,-0.3068,0.0306,3.1254,rough,14.0,1,2.204
4910,157.12,1.1017,5.3072,0.3215,-0.3068,0.0307,3.1254,rough,14.0,1,2.204
4920,157.44,1.1017,5.3073,0.3215,-0.3069,0.0307,3.1254,rough,14.0,1,2.204
4930,157.76,1.1017,5.3074,0.3216,-0.3069,0.0307,3.1254,rough,14.0,1,2.204
4940,158.08,1.1017,5.3075,0.3216,-0.3069,0.0307,3.1254,rough,14.0,1,2.204
4950,158.40,1.1017,5.3076,0.3216,-0.3070,0.0307,3.1254,rough,14.0,1,2.204
4960,158.72,1.1017,5.3077,0.3216,-0.3070,0.0307,3.1254,rough,14.0,1,2.204
4970,159.04,1.1017,5.3078,0.3217,-0.3070,0.0307,3.1254,rough,14.0,1,2.204
4980,159.36,1.1017,5.3079,0.3217,-0.3070,0.0307,3.1255,rough,14.0,1,2.203
4990,159.68,1.1017,5.3080,0.3217,-0.3071,0.0307,3.1255,rough,14.0,1,2.203
5000,160.00,1.1017,5.3081,0.3218,-0.3071,0.0307,3.1255,rough,14.0,1,2.203
5010,160.32,1.1017,5.3082,0.3218,-0.3071,0.0308,3.1255,rough,14.0,1,2.203
5020,160.64,1.1017,5.3083,0.3218,-0.3072,0.0308,3.1255,rough,14.0,1,2.203
5030,160.96,1.1017,5.3084,0.3218,-0.3072,0.0308,3.1255,rough,14.0,1,2.203
5040,161.28,1.1017,5.3085,0.3219,-0.3072,0.0308,3.1255,rough,14.0,1,2.203
5050,161.60,1.1017,5.3086,0.3219,-0.3072,0.0308,3.1255,rough,14.0,1,2.203
5060,161.92,1.1017,5.3087,0.3219,-0.3073,0.0308,3.1255,rough,14.0,1,2.203
5070,162.24,1.1017,5.3087,0.3219,-0.3073,0.0308,3.1255,rough,14.0,1,2.203
5080,162.56,1.1017,5.3088,0.3220,-0.3073,0.0308,3.1255,rough,14.0,1,2.203
5090,162.88,1.1017,5.3089,0.3220,-0.3073,0.0308,3.1255,rough,14.0,1,2.202
5100,163.20,1.1017,5.3090,0.3220,-0.3074,0.0308,3.1255,rough,14.0,1,2.202
5110,163.52,1.1017,5.3091,0.3220,-0.3074,0.0308,3.1255,rough,14.0,1,2.202
5120,163.84,1.1017,5.3092,0.3221,-0.3074,0.0309,3.1255,rough,14.0,1,2.202
5130,164.16,1.1017,5.3093,0.3221,-0.3074,0.0309,3.1255,rough,14.0,1,2.202
5140,164.48,1.1017,5.3093,0.3221,-0.3075,0.0309,3.1255,rough,14.0,1,2.202
5150,164.80,1.1017,5.3094,0.3221,-0.3075,0.0309,3.1256,rough,14.0,1,2.202
5160,165.12,1.1017,5.3095,0.3222,-0.3075,0.0309,3.1256,rough,14.0,1,2.202
5170,165.44,1.1017,5.3096,0.3222,-0.3075,0.0309,3.1256,rough,14.0,1,2.202
5180,165.76,1.1017,5.3097,0.3222,-0.3076,0.0309,3.1256,rough,14.0,1,2.202
5190,166.08,1.1017,5.3098,0.3222,-0.3076,0.0309,3.1256,rough,14.0,1,2.202
5200,166.40,1.1017,5.3098,0.3222,-0.3076,0.0309,3.1256,rough,14.0,1,2.202
5210,166.72,1.1017,5.3099,0.3223,-0.3076,0.0309,3.1256,rough,14.0,1,2.201
5220,167.04,1.1017,5.3100,0.3223,-0.3077,0.0309,3.1256,rough,14.0,1,2.201
5230,167.36,1.1017,5.3101,0.3223,-0.3077,0.0309,3.1256,rough,14.0,1,2.201
5240,167.68,1.1017,5.3101,0.3223,-0.3077,0.0310,3.1256,rough,14.0,1,2.201
5250,168.00,1.1018,5.3102,0.3224,-0.3077,0.0310,3.1256,rough,14.0,1,2.201
5260,168.32,1.1018,5.3103,0.3224,-0.3077,0.0310,3.1256,rough,14.0,1,2.201
5270,168.64,1.1018,5.3104,0.3224,-0.3078,0.0310,3.1256,rough,14.0,1,2.201
5280,168.96,1.1018,5.3104,0.3224,-0.3078,0.0310,3.1256,rough,14.0,1,2.201
5290,169.28,1.1018,5.3105,0.3224,-0.3078,0.0310,3.1256,rough,14.0,1,2.201
5300,169.60,1.1018,5.3106,0.3225,-0.3078,0.0310,3.1256,rough,14.0,1,2.201
5310,169.92,1.1018,5.3107,0.3225,-0.3079,0.0310,3.1256,rough,14.0,1,2.201
5320,170.24,1.1018,5.3107,0.3225,-0.3079,0.0310,3.1256,rough,14.0,1,2.201
5330,170.56,1.1018,5.3108,0.3225,-0.3079,0.0310,3.1256,rough,14.0,1,2.201
5340,170.88,1.1018,5.3109,0.3225,-0.3079,0.0310,3.1256,rough,14.0,1,2.200
5350,171.20,1.1018,5.3109,0.3226,-0.3079,0.0310,3.1256,rough,14.0,1,2.200
5360,171.52,1.1018,5.3110,0.3226,-0.3080,0.0310,3.1257,rough,14.0,1,2.200
5370,171.84,1.1018,5.3111,0.3226,-0.3080,0.0310,3.1257,rough,14.0,1,2.200
5380,172.16,1.1018,5.3112,0.3226,-0.3080,0.0311,3.1257,rough,14.0,1,2.200
5390,172.48,1.1018,5.3112,0.3226,-0.3080,0.0311,3.1257,rough,14.0,1,2.200
5400,172.80,1.1018,5.3113,0.3227,-0.3080,0.0311,3.1257,rough,14.0,1,2.200
5410,173.12,1.1018,5.3114,0.3227,-0.3081,0.0311,3.1257,rough,14.0,1,2.200
5420,173.44,1.1018,5.3114,0.3227,-0.3081,0.0311,3.1257,rough,14.0,1,2.200
5430,173.76,1.1018,5.3115,0.3227,-0.3081,0.0311,3.1257,rough,14.0,1,2.200
5440,174.08,1.1018,5.3115,0.3227,-0.3081,0.0311,3.1257,rough,14.0,1,2.200
5450,174.40,1.1018,5.3116,0.3228,-0.3081,0.0311,3.1257,rough,14.0,1,2.200
5460,174.72,1.1018,5.3117,0.3228,-0.3082,0.0311,3.1257,rough,14.0,1,2.200
5470,175.04,1.1018,5.3117,0.3228,-0.3082,0.0311,3.1257,rough,14.0,1,2.200
5480,175.36,1.1018,5.3118,0.3228,-0.3082,0.0311,3.1257,rough,14.0,1,2.200
5490,175.68,1.1018,5.3119,0.3228,-0.3082,0.0311,3.1257,rough,14.0,1,2.199
5500,176.00,1.1018,5.3119,0.3229,-0.3082,0.0311,3.1257,rough,14.0,1,2.199
5510,176.32,1.1018,5.3120,0.3229,-0.3083,0.0311,3.1257,rough,14.0,1,2.199
5520,176.64,1.1018,5.3120,0.3229,-0.3083,0.0311,3.1257,rough,14.0,1,2.199
5530,176.96,1.1018,5.3121,0.3229,-0.3083,0.0312,3.1257,rough,14.0,1,2.199
5540,177.28,1.1018,5.3122,0.3229,-0.3083,0.0312,3.1257,rough,14.0,1,2.199
5550,177.60,1.1018,5.3122,0.3229,-0.3083,0.0312,3.1257,rough,14.0,1,2.199
5560,177.92,1.1018,5.3123,0.3230,-0.3083,0.0312,3.1257,rough,14.0,1,2.199
5570,178.24,1.1018,5.3123,0.3230,-0.3084,0.0312,3.1257,rough,14.0,1,2.199
5580,178.56,1.1018,5.3124,0.3230,-0.3084,0.0312,3.1257,rough,14.0,1,2.199
5590,178.88,1.1018,5.3125,0.3230,-0.3084,0.0312,3.1257,rough,14.0,1,2.199
5600,179.20,1.1018,5.3125,0.3230,-0.3084,0.0312,3.1257,rough,14.0,1,2.199
5610,179.52,1.1018,5.3126,0.3230,-0.3084,0.0312,3.1258,rough,14.0,1,2.199
5620,179.84,1.1018,5.3126,0.3231,-0.3084,0.0312,3.1258,rough,14.0,1,2.199
5630,180.16,1.1018,5.3127,0.3231,-0.3085,0.0312,3.1258,rough,14.0,1,2.199
5640,180.48,1.1018,5.3127,0.3231,-0.3085,0.0312,3.1258,rough,14.0,1,2.199
5650,180.80,1.1018,5.3128,0.3231,-0.3085,0.0312,3.1258,rough,14.0,1,2.199
5660,181.12,1.1018,5.3128,0.3231,-0.3085,0.0312,3.1258,rough,14.0,1,2.199
5670,181.44,1.1018,5.3129,0.3231,-0.3085,0.0312,3.1258,rough,14.0,1,2.198
5680,181.76,1.1018,5.3130,0.3231,-0.3085,0.0312,3.1258,rough,14.0,1,2.198
5690,182.08,1.1018,5.3130,0.3232,-0.3086,0.0312,3.1258,rough,14.0,1,2.198
5700,182.40,1.1018,5.3131,0.3232,-0.3086,0.0313,3.1258,rough,14.0,1,2.198
5710,182.72,1.1018,5.3131,0.3232,-0.3086,0.0313,3.1258,rough,14.0,1,2.198
5720,183.04,1.1018,5.3132,0.3232,-0.3086,0.0313,3.1258,rough,14.0,1,2.198
5730,183.36,1.1018,5.3132,0.3232,-0.3086,0.0313,3.1258,rough,14.0,1,2.198
5740,183.68,1.1018,5.3133,0.3232,-0.3086,0.0313,3.1258,rough,14.0,1,2.198
5750,184.00,1.1018,5.3133,0.3233,-0.3087,0.0313,3.1258,rough,14.0,1,2.198
5760,184.32,1.1018,5.3134,0.3233,-0.3087,0.0313,3.1258,rough,14.0,1,2.198
5770,184.64,1.1018,5.3134,0.3233,-0.3087,0.0313,3.1258,rough,14.0,1,2.198
5780,184.96,1.1018,5.3135,0.3233,-0.3087,0.0313,3.1258,rough,14.0,1,2.198
5790,185.28,1.1018,5.3135,0.3233,-0.3087,0.0313,3.1258,rough,14.0,1,2.198
5800,185.60,1.1018,5.3136,0.3233,-0.3087,0.0313,3.1258,rough,14.0,1,2.198
5810,185.92,1.1018,5.3136,0.3233,-0.3087,0.0313,3.1258,rough,14.0,1,2.198
5820,186.24,1.1018,5.3137,0.3233,-0.3088,0.0313,3.1258,rough,14.0,1,2.198
5830,186.56,1.1018,5.3137,0.3234,-0.3088,0.0313,3.1258,rough,14.0,1,2.198
5840,186.88,1.1018,5.3137,0.3234,-0.3088,0.0313,3.1258,rough,14.0,1,2.198
5850,187.20,1.1018,5.3138,0.3234,-0.3088,0.0313,3.1258,rough,14.0,1,2.198
5860,187.52,1.1018,5.3138,0.3234,-0.3088,0.0313,3.1258,rough,14.0,1,2.198
5870,187.84,1.1018,5.3139,0.3234,-0.3088,0.0313,3.1258,rough,14.0,1,2.197
5880,188.16,1.1018,5.3139,0.3234,-0.3088,0.0313,3.1258,rough,14.0,1,2.197
5890,188.48,1.1018,5.3140,0.3234,-0.3088,0.0313,3.1258,rough,14.0,1,2.197
5900,188.80,1.1018,5.3140,0.3235,-0.3089,0.0314,3.1258,rough,14.0,1,2.197
5910,189.12,1.1018,5.3141,0.3235,-0.3089,0.0314,3.1258,rough,14.0,1,2.197
5920,189.44,1.1018,5.3141,0.3235,-0.3089,0.0314,3.1258,rough,14.0,1,2.197
5930,189.76,1.1018,5.3141,0.3235,-0.3089,0.0314,3.1258,rough,14.0,1,2.197
5940,190.08,1.1018,5.3142,0.3235,-0.3089,0.0314,3.1259,rough,14.0,1,2.197
5950,190.40,1.1018,5.3142,0.3235,-0.3089,0.0314,3.1259,rough,14.0,1,2.197
5960,190.72,1.1018,5.3143,0.3235,-0.3089,0.0314,3.1259,rough,14.0,1,2.197
5970,191.04,1.1018,5.3143,0.3235,-0.3089,0.0314,3.1259,rough,14.0,1,2.197
5980,191.36,1.1018,5.3144,0.3236,-0.3090,0.0314,3.1259,rough,14.0,1,2.197
5990,191.68,1.1018,5.3144,0.3236,-0.3090,0.0314,3.1259,rough,14.0,1,2.197
6000,192.00,1.1018,5.3144,0.3236,-0.3090,0.0314,3.1259,rough,14.0,1,2.197
6010,192.32,1.1018,5.3145,0.3236,-0.3090,0.0314,3.1259,rough,14.0,1,2.197
6020,192.64,1.1018,5.3145,0.3236,-0.3090,0.0314,3.1259,rough,14.0,1,2.197
6030,192.96,1.1018,5.3146,0.3236,-0.3090,0.0314,3.1259,rough,14.0,1,2.197
6040,193.28,1.1018,5.3146,0.3236,-0.3090,0.0314,3.1259,rough,14.0,1,2.197
6050,193.60,1.1018,5.3146,0.3236,-0.3090,0.0314,3.1259,rough,14.0,1,2.197
6060,193.92,1.1018,5.3147,0.3236,-0.3091,0.0314,3.1259,rough,14.0,1,2.197
6070,194.24,1.1018,5.3147,0.3237,-0.3091,0.0314,3.1259,rough,14.0,1,2.197
6080,194.56,1.1018,5.3148,0.3237,-0.3091,0.0314,3.1259,rough,14.0,1,2.197
6090,194.88,1.1018,5.3148,0.3237,-0.3091,0.0314,3.1259,rough,14.0,1,2.197
6100,195.20,1.1018,5.3148,0.3237,-0.3091,0.0314,3.1259,rough,14.0,1,2.197
6110,195.52,1.1018,5.3149,0.3237,-0.3091,0.0314,3.1259,rough,14.0,1,2.196
6120,195.84,1.1018,5.3149,0.3237,-0.3091,0.0314,3.1259,rough,14.0,1,2.196
6130,196.16,1.1018,5.3149,0.3237,-0.3091,0.0315,3.1259,rough,14.0,1,2.196
6140,196.48,1.1018,5.3150,0.3237,-0.3091,0.0315,3.1259,rough,14.0,1,2.196
6150,196.80,1.1018,5.3150,0.3237,-0.3092,0.0315,3.1259,rough,14.0,1,2.196
6160,197.12,1.1018,5.3151,0.3238,-0.3092,0.0315,3.1259,rough,14.0,1,2.196
6170,197.44,1.1018,5.3151,0.3238,-0.3092,0.0315,3.1259,rough,14.0,1,2.196
6180,197.76,1.1018,5.3151,0.3238,-0.3092,0.0315,3.1259,rough,14.0,1,2.196
6190,198.08,1.1018,5.3152,0.3238,-0.3092,0.0315,3.1259,rough,14.0,1,2.196
6200,198.40,1.1018,5.3152,0.3238,-0.3092,0.0315,3.1259,rough,14.0,1,2.196
6210,198.72,1.1018,5.3152,0.3238,-0.3092,0.0315,3.1259,rough,14.0,1,2.196
6220,199.04,1.1018,5.3153,0.3238,-0.3092,0.0315,3.1259,rough,14.0,1,2.196
6230,199.36,1.1018,5.3153,0.3238,-0.3092,0.0315,3.1259,rough,14.0,1,2.196
6240,199.68,1.1019,5.3154,0.3238,-0.3092,0.0315,3.1259,rough,14.0,1,2.196
6250,200.00,1.1019,5.3154,0.3238,-0.3093,0.0315,3.1259,rough,14.0,1,2.196
6260,200.32,1.1019,5.3154,0.3239,-0.3093,0.0315,3.1259,rough,14.0,1,2.196
6270,200.64,1.1019,5.3155,0.3239,-0.3093,0.0315,3.1259,rough,14.0,1,2.196
6280,200.96,1.1019,5.3155,0.3239,-0.3093,0.0315,3.1259,rough,14.0,1,2.196
6290,201.28,1.1019,5.3155,0.3239,-0.3093,0.0315,3.1259,rough,14.0,1,2.196
6300,201.60,1.1019,5.3156,0.3239,-0.3093,0.0316,3.1259,rough,14.0,1,2.196
6310,201.92,1.1019,5.3156,0.3239,-0.3093,0.0316,3.1259,rough,14.0,1,2.196
6320,202.24,1.1019,5.3157,0.3239,-0.3093,0.0316,3.1259,rough,14.0,1,2.196
6330,202.56,1.1019,5.3157,0.3239,-0.3093,0.0316,3.1259,rough,14.0,1,2.196
6340,202.88,1.1019,5.3157,0.3239,-0.3093,0.0316,3.1259,rough,14.0,1,2.196
6350,203.20,1.1019,5.3158,0.3240,-0.3094,0.0316,3.1259,rough,14.0,1,2.196
6360,203.52,1.1020,5.3158,0.3240,-0.3094,0.0316,3.1259,rough,14.0,1,2.196
6370,203.84,1.1020,5.3158,0.3240,-0.3094,0.0316,3.1259,rough,14.0,1,2.196
6380,204.16,1.1020,5.3159,0.3240,-0.3094,0.0316,3.1259,rough,14.0,1,2.196
6390,204.48,1.1020,5.3159,0.3240,-0.3094,0.0316,3.1259,rough,14.0,1,2.195
6400,204.80,1.1020,5.3159,0.3240,-0.3094,0.0316,3.1259,rough,14.0,1,2.195
6410,205.12,1.1020,5.3160,0.3240,-0.3094,0.0316,3.1259,rough,14.0,1,2.195
6420,205.44,1.1020,5.3160,0.3240,-0.3094,0.0316,3.1259,rough,14.0,1,2.195
6430,205.76,1.1020,5.3160,0.3240,-0.3094,0.0316,3.1259,rough,14.0,1,2.195
6440,206.08,1.1020,5.3161,0.3240,-0.3094,0.0316,3.1259,rough,14.0,1,2.195
6450,206.40,1.1020,5.3161,0.3241,-0.3094,0.0317,3.1259,rough,14.0,1,2.195
6460,206.72,1.1020,5.3161,0.3241,-0.3095,0.0317,3.1259,rough,14.0,1,2.195
6470,207.04,1.1020,5.3162,0.3241,-0.3095,0.0317,3.1259,rough,14.0,1,2.195
6480,207.36,1.1020,5.3162,0.3241,-0.3095,0.0317,3.1259,rough,14.0,1,2.195
6490,207.68,1.1021,5.3162,0.3241,-0.3095,0.0317,3.1259,rough,14.0,1,2.195
6500,208.00,1.1021,5.3162,0.3241,-0.3095,0.0317,3.1259,rough,14.0,1,2.195
6510,208.32,1.1021,5.3163,0.3241,-0.3095,0.0317,3.1259,rough,14.0,1,2.195
6520,208.64,1.1021,5.3163,0.3241,-0.3095,0.0317,3.1259,rough,14.0,1,2.195
6530,208.96,1.1021,5.3163,0.3241,-0.3095,0.0317,3.1259,rough,14.0,1,2.195
6540,209.28,1.1021,5.3164,0.3241,-0.3095,0.0317,3.1259,rough,14.0,1,2.195
6550,209.60,1.1021,5.3164,0.3241,-0.3095,0.0317,3.1259,rough,14.0,1,2.195
6560,209.92,1.1021,5.3164,0.3242,-0.3095,0.0317,3.1259,rough,14.0,1,2.195
6570,210.24,1.1021,5.3165,0.3242,-0.3095,0.0317,3.1259,rough,14.0,1,2.195
6580,210.56,1.1021,5.3165,0.3242,-0.3096,0.0317,3.1259,rough,14.0,1,2.195
6590,210.88,1.1021,5.3165,0.3242,-0.3096,0.0317,3.1260,rough,14.0,1,2.195
6600,211.20,1.1021,5.3165,0.3242,-0.3096,0.0317,3.1260,rough,14.0,1,2.195
6610,211.52,1.1021,5.3166,0.3242,-0.3096,0.0317,3.1260,rough,14.0,1,2.195
6620,211.84,1.1021,5.3166,0.3242,-0.3096,0.0317,3.1260,rough,14.0,1,2.195
6630,212.16,1.1022,5.3166,0.3242,-0.3096,0.0317,3.1260,rough,14.0,1,2.195
6640,212.48,1.1022,5.3167,0.3242,-0.3096,0.0318,3.1260,rough,14.0,1,2.195
6650,212.80,1.1022,5.3167,0.3242,-0.3096,0.0318,3.1260,rough,14.0,1,2.195
6660,213.12,1.1022,5.3167,0.3242,-0.3096,0.0318,3.1260,rough,14.0,1,2.195
6670,213.44,1.1022,5.3167,0.3242,-0.3096,0.0318,3.1260,rough,14.0,1,2.195
6680,213.76,1.1022,5.3168,0.3243,-0.3096,0.0318,3.1260,rough,14.0,1,2.195
6690,214.08,1.1022,5.3168,0.3243,-0.3096,0.0318,3.1260,rough,14.0,1,2.195
6700,214.40,1.1022,5.3168,0.3243,-0.3096,0.0318,3.1260,rough,14.0,1,2.195
6710,214.72,1.1022,5.3168,0.3243,-0.3097,0.0318,3.1260,rough,14.0,1,2.195
6720,215.04,1.1022,5.3169,0.3243,-0.3097,0.0318,3.1260,rough,14.0,1,2.195
6730,215.36,1.1022,5.3169,0.3243,-0.3097,0.0318,3.1260,rough,14.0,1,2.194
6740,215.68,1.1022,5.3169,0.3243,-0.3097,0.0318,3.1260,rough,14.0,1,2.194
6750,216.00,1.1022,5.3170,0.3243,-0.3097,0.0318,3.1260,rough,14.0,1,2.194
6760,216.32,1.1022,5.3170,0.3243,-0.3097,0.0318,3.1260,rough,14.0,1,2.194
6770,216.64,1.1022,5.3170,0.3243,-0.3097,0.0318,3.1260,rough,14.0,1,2.194
6780,216.96,1.1022,5.3170,0.3243,-0.3097,0.0318,3.1260,rough,14.0,1,2.194
6790,217.28,1.1023,5.3171,0.3243,-0.3097,0.0318,3.1260,rough,14.0,1,2.194
6800,217.60,1.1023,5.3171,0.3243,-0.3097,0.0318,3.1260,rough,14.0,1,2.194
6810,217.92,1.1023,5.3171,0.3243,-0.3097,0.0318,3.1260,rough,14.0,1,2.194
6820,218.24,1.1023,5.3171,0.3244,-0.3097,0.0318,3.1260,rough,14.0,1,2.194
6830,218.56,1.1020,5.3172,0.3244,-0.3097,0.0318,3.1259,rough,14.0,1,2.194
6840,218.88,1.1019,5.3172,0.3244,-0.3098,0.0318,3.1259,rough,14.0,1,2.194
6850,219.20,1.1019,5.3173,0.3244,-0.3098,0.0318,3.1259,rough,14.0,1,2.194
6860,219.52,1.1019,5.3173,0.3244,-0.3098,0.0318,3.1259,rough,14.0,1,2.194
6870,219.84,1.1019,5.3173,0.3244,-0.3098,0.0318,3.1259,rough,14.0,1,2.194
6880,220.16,1.1019,5.3174,0.3244,-0.3098,0.0318,3.1259,rough,14.0,1,2.194
6890,220.48,1.1019,5.3174,0.3244,-0.3098,0.0318,3.1259,rough,14.0,1,2.194
6900,220.80,1.1019,5.3174,0.3244,-0.3098,0.0318,3.1259,rough,14.0,1,2.194
6910,221.12,1.1019,5.3175,0.3244,-0.3098,0.0318,3.1259,rough,14.0,1,2.194
6920,221.44,1.1019,5.3175,0.3244,-0.3098,0.0318,3.1259,rough,14.0,1,2.194
6930,221.76,1.1019,5.3176,0.3245,-0.3098,0.0319,3.1259,rough,14.0,1,2.194
6940,222.08,1.1019,5.3176,0.3245,-0.3099,0.0319,3.1259,rough,14.0,1,2.194
6950,222.40,1.1019,5.3176,0.3245,-0.3099,0.0319,3.1259,rough,14.0,1,2.194
6960,222.72,1.1019,5.3177,0.3245,-0.3099,0.0319,3.1259,rough,14.0,1,2.194
6970,223.04,1.1019,5.3177,0.3245,-0.3099,0.0319,3.1259,rough,14.0,1,2.194
6980,223.36,1.1019,5.3177,0.3245,-0.3099,0.0319,3.1259,rough,14.0,1,2.194
6990,223.68,1.1019,5.3178,0.3245,-0.3099,0.0319,3.1259,rough,14.0,1,2.194
7000,224.00,1.1019,5.3178,0.3245,-0.3099,0.0319,3.1259,rough,14.0,1,2.194
7010,224.32,1.1019,5.3179,0.3245,-0.3099,0.0319,3.1259,rough,14.0,1,2.194
7020,224.64,1.1019,5.3179,0.3245,-0.3099,0.0319,3.1259,rough,14.0,1,2.193
7030,224.96,1.1019,5.3179,0.3246,-0.3099,0.0319,3.1259,rough,14.0,1,2.193
7040,225.28,1.1019,5.3180,0.3246,-0.3099,0.0319,3.1259,rough,14.0,1,2.193
7050,225.60,1.1019,5.3180,0.3246,-0.3100,0.0319,3.1259,rough,14.0,1,2.193
7060,225.92,1.1019,5.3180,0.3246,-0.3100,0.0319,3.1259,rough,14.0,1,2.193
7070,226.24,1.1019,5.3181,0.3246,-0.3100,0.0320,3.1258,rough,14.0,1,2.193
7080,226.56,1.1019,5.3181,0.3246,-0.3100,0.0320,3.1258,rough,14.0,1,2.193
7090,226.88,1.1019,5.3181,0.3246,-0.3100,0.0320,3.1258,rough,14.0,1,2.193
7100,227.20,1.1019,5.3182,0.3246,-0.3100,0.0320,3.1258,rough,14.0,1,2.193
7110,227.52,1.1019,5.3182,0.3246,-0.3100,0.0320,3.1258,rough,14.0,1,2.193
7120,227.84,1.1019,5.3183,0.3246,-0.3100,0.0320,3.1258,rough,14.0,1,2.193
7130,228.16,1.1019,5.3183,0.3247,-0.3100,0.0320,3.1258,rough,14.0,1,2.193
7140,228.48,1.1019,5.3183,0.3247,-0.3100,0.0320,3.1258,rough,14.0,1,2.193
7150,228.80,1.1019,5.3184,0.3247,-0.3101,0.0320,3.1258,rough,14.0,1,2.193
7160,229.12,1.1019,5.3184,0.3247,-0.3101,0.0320,3.1258,rough,14.0,1,2.193
7170,229.44,1.1023,5.3184,0.3247,-0.3101,0.0321,3.1259,rough,14.0,1,2.193
7180,229.76,1.1024,5.3185,0.3247,-0.3101,0.0322,3.1259,rough,14.0,1,2.193
7190,230.08,1.1025,5.3185,0.3247,-0.3101,0.0322,3.1260,rough,14.0,1,2.193
7200,230.40,1.1025,5.3185,0.3247,-0.3101,0.0322,3.1260,rough,14.0,1,2.193
7210,230.72,1.1025,5.3185,0.3247,-0.3101,0.0322,3.1260,rough,14.0,1,2.193
7220,231.04,1.1025,5.3185,0.3248,-0.3101,0.0322,3.1260,rough,14.0,1,2.193
7230,231.36,1.1025,5.3186,0.3248,-0.3101,0.0322,3.1260,rough,14.0,1,2.193
7240,231.68,1.1025,5.3186,0.3248,-0.3101,0.0321,3.1260,rough,14.0,1,2.193
7250,232.00,1.1025,5.3186,0.3248,-0.3101,0.0321,3.1260,rough,14.0,1,2.193
7260,232.32,1.1025,5.3186,0.3248,-0.3101,0.0321,3.1260,rough,14.0,1,2.193
7270,232.64,1.1025,5.3186,0.3248,-0.3101,0.0321,3.1260,rough,14.0,1,2.193
7280,232.96,1.1025,5.3186,0.3248,-0.3101,0.0321,3.1260,rough,14.0,1,2.193
7290,233.28,1.1025,5.3187,0.3248,-0.3101,0.0321,3.1260,rough,14.0,1,2.193
7300,233.60,1.1025,5.3187,0.3248,-0.3101,0.0321,3.1260,rough,14.0,1,2.193
7310,233.92,1.1025,5.3187,0.3248,-0.3101,0.0321,3.1260,rough,14.0,1,2.193
7320,234.24,1.1025,5.3187,0.3248,-0.3101,0.0321,3.1260,rough,14.0,1,2.193
7330,234.56,1.1025,5.3187,0.3248,-0.3102,0.0321,3.1260,rough,14.0,1,2.193
7340,234.88,1.1025,5.3187,0.3248,-0.3102,0.0321,3.1260,rough,14.0,1,2.193
7350,235.20,1.1025,5.3188,0.3248,-0.3102,0.0321,3.1260,rough,14.0,1,2.193
7360,235.52,1.1025,5.3188,0.3248,-0.3102,0.0321,3.1260,rough,14.0,1,2.193
7370,235.84,1.1026,5.3188,0.3248,-0.3102,0.0321,3.1260,rough,14.0,1,2.193
7380,236.16,1.1026,5.3188,0.3248,-0.3102,0.0321,3.1260,rough,14.0,1,2.193
7390,236.48,1.1026,5.3188,0.3248,-0.3102,0.0321,3.1260,rough,14.0,1,2.193
7400,236.80,1.1026,5.3188,0.3248,-0.3102,0.0321,3.1260,rough,14.0,1,2.193
7410,237.12,1.1026,5.3188,0.3249,-0.3102,0.0322,3.1260,rough,14.0,1,2.193
7420,237.44,1.1026,5.3189,0.3249,-0.3102,0.0322,3.1260,rough,14.0,1,2.193
7430,237.76,1.1026,5.3189,0.3249,-0.3102,0.0322,3.1260,rough,14.0,1,2.193
7440,238.08,1.1026,5.3189,0.3249,-0.3102,0.0322,3.1261,rough,14.0,1,2.193
7450,238.40,1.1026,5.3189,0.3249,-0.3102,0.0322,3.1261,rough,14.0,1,2.192
7460,238.72,1.1026,5.3189,0.3249,-0.3102,0.0322,3.1261,rough,14.0,1,2.192
7470,239.04,1.1026,5.3189,0.3249,-0.3102,0.0322,3.1261,rough,14.0,1,2.192
7480,239.36,1.1026,5.3190,0.3249,-0.3102,0.0322,3.1261,rough,14.0,1,2.192
7490,239.68,1.1026,5.3190,0.3249,-0.3102,0.0322,3.1261,rough,14.0,1,2.192
7500,240.00,1.1026,5.3190,0.3249,-0.3102,0.0322,3.1261,rough,14.0,1,2.192
7510,240.32,1.1026,5.3190,0.3249,-0.3102,0.0322,3.1261,rough,14.0,1,2.192
7520,240.64,1.1026,5.3190,0.3249,-0.3102,0.0322,3.1261,rough,14.0,1,2.192
7530,240.96,1.1026,5.3190,0.3249,-0.3102,0.0322,3.1261,rough,14.0,1,2.192
7540,241.28,1.1026,5.3190,0.3249,-0.3102,0.0322,3.1261,rough,14.0,1,2.192
7550,241.60,1.1026,5.3190,0.3249,-0.3103,0.0322,3.1261,rough,14.0,1,2.192
7560,241.92,1.1026,5.3191,0.3249,-0.3103,0.0322,3.1261,rough,14.0,1,2.192
7570,242.24,1.1026,5.3191,0.3249,-0.3103,0.0322,3.1261,rough,14.0,1,2.192
7580,242.56,1.1026,5.3191,0.3249,-0.3103,0.0322,3.1261,rough,14.0,1,2.192
7590,242.88,1.1026,5.3191,0.3249,-0.3103,0.0322,3.1261,rough,14.0,1,2.192
7600,243.20,1.1026,5.3191,0.3249,-0.3103,0.0322,3.1261,rough,14.0,1,2.192
7610,243.52,1.1026,5.3191,0.3249,-0.3103,0.0322,3.1261,rough,14.0,1,2.192
7620,243.84,1.1026,5.3191,0.3249,-0.3103,0.0322,3.1261,rough,14.0,1,2.192
7630,244.16,1.1026,5.3192,0.3249,-0.3103,0.0322,3.1261,rough,14.0,1,2.192
7640,244.48,1.1026,5.3192,0.3249,-0.3103,0.0322,3.1261,rough,14.0,1,2.192
7650,244.80,1.1026,5.3192,0.3250,-0.3103,0.0322,3.1261,rough,14.0,1,2.192
7660,245.12,1.1026,5.3192,0.3250,-0.3103,0.0322,3.1261,rough,14.0,1,2.192
7670,245.44,1.1027,5.3192,0.3250,-0.3103,0.0322,3.1261,rough,14.0,1,2.192
7680,245.76,1.1027,5.3192,0.3250,-0.3103,0.0322,3.1261,rough,14.0,1,2.192
7690,246.08,1.1027,5.3192,0.3250,-0.3103,0.0322,3.1261,rough,14.0,1,2.192
7700,246.40,1.1027,5.3192,0.3250,-0.3103,0.0322,3.1261,rough,14.0,1,2.192
7710,246.72,1.1027,5.3193,0.3250,-0.3103,0.0322,3.1261,rough,14.0,1,2.192
7720,247.04,1.1027,5.3193,0.3250,-0.3103,0.0322,3.1261,rough,14.0,1,2.192
7730,247.36,1.1027,5.3193,0.3250,-0.3103,0.0322,3.1261,rough,14.0,1,2.192
7740,247.68,1.1027,5.3193,0.3250,-0.3103,0.0322,3.1261,rough,14.0,1,2.192
7750,248.00,1.1027,5.3193,0.3250,-0.3103,0.0322,3.1261,rough,14.0,1,2.192
7760,248.32,1.1027,5.3193,0.3250,-0.3103,0.0322,3.1261,rough,14.0,1,2.192
7770,248.64,1.1027,5.3193,0.3250,-0.3103,0.0322,3.1261,rough,14.0,1,2.192
7780,248.96,1.1027,5.3193,0.3250,-0.3103,0.0322,3.1261,rough,14.0,1,2.192
7790,249.28,1.1027,5.3194,0.3250,-0.3103,0.0322,3.1261,rough,14.0,1,2.192
7800,249.60,1.1027,5.3194,0.3250,-0.3103,0.0322,3.1261,rough,14.0,1,2.192
7810,249.92,1.1027,5.3194,0.3250,-0.3103,0.0322,3.1261,rough,14.0,1,2.192
7820,250.24,1.1027,5.3194,0.3250,-0.3103,0.0322,3.1261,rough,14.0,1,2.192
7830,250.56,1.1027,5.3194,0.3250,-0.3104,0.0322,3.1261,rough,14.0,1,2.192
7840,250.88,1.1027,5.3194,0.3250,-0.3104,0.0322,3.1261,rough,14.0,1,2.192
7850,251.20,1.1027,5.3194,0.3250,-0.3104,0.0322,3.1261,rough,14.0,1,2.192
7860,251.52,1.1027,5.3194,0.3250,-0.3104,0.0322,3.1261,rough,14.0,1,2.192
7870,251.84,1.1027,5.3194,0.3250,-0.3104,0.0322,3.1261,rough,14.0,1,2.192
7880,252.16,1.1027,5.3195,0.3250,-0.3104,0.0322,3.1261,rough,14.0,1,2.192
7890,252.48,1.1027,5.3195,0.3250,-0.3104,0.0322,3.1261,rough,14.0,1,2.192
7900,252.80,1.1027,5.3195,0.3250,-0.3104,0.0322,3.1261,rough,14.0,1,2.192
7910,253.12,1.1027,5.3195,0.3250,-0.3104,0.0322,3.1261,rough,14.0,1,2.192
7920,253.44,1.1027,5.3195,0.3250,-0.3104,0.0323,3.1261,rough,14.0,1,2.192
7930,253.76,1.1027,5.3195,0.3250,-0.3104,0.0323,3.1261,rough,14.0,1,2.192
7940,254.08,1.1027,5.3195,0.3251,-0.3104,0.0323,3.1261,rough,14.0,1,2.192
7950,254.40,1.1027,5.3195,0.3251,-0.3104,0.0323,3.1261,rough,14.0,1,2.192
7960,254.72,1.1027,5.3195,0.3251,-0.3104,0.0323,3.1261,rough,14.0,1,2.192
7970,255.04,1.1027,5.3195,0.3251,-0.3104,0.0323,3.1261,rough,14.0,1,2.192
7980,255.36,1.1027,5.3196,0.3251,-0.3104,0.0323,3.1261,rough,14.0,1,2.192
7990,255.68,1.1027,5.3196,0.3251,-0.3104,0.0323,3.1261,rough,14.0,1,2.192
8000,256.00,1.1027,5.3196,0.3251,-0.3104,0.0323,3.1261,rough,14.0,1,2.192
8010,256.32,1.1027,5.3196,0.3251,-0.3104,0.0323,3.1261,rough,14.0,1,2.192
8020,256.64,1.1027,5.3196,0.3251,-0.3104,0.0323,3.1261,rough,14.0,1,2.192
8030,256.96,1.1027,5.3196,0.3251,-0.3104,0.0323,3.1261,rough,14.0,1,2.192
8040,257.28,1.1027,5.3196,0.3251,-0.3104,0.0323,3.1261,rough,14.0,1,2.192
8050,257.60,1.1028,5.3196,0.3251,-0.3104,0.0323,3.1261,rough,14.0,1,2.192
8060,257.92,1.1028,5.3196,0.3251,-0.3104,0.0323,3.1261,rough,14.0,1,2.192
8070,258.24,1.1028,5.3196,0.3251,-0.3104,0.0323,3.1261,rough,14.0,1,2.192
