step,time_s,x,y,z,roll,pitch,yaw,terrain,speed,target_idx,dist_to_target
10,0.32,1.9923,0.4967,0.6860,0.0961,-0.3724,-0.1070,rough,14.0,0,6.034
20,0.64,2.1551,0.4659,0.7538,0.0819,-0.4225,-0.0998,rough,14.0,0,5.919
30,0.96,2.4177,0.4393,0.8766,0.0672,-0.4570,-0.0703,rough,14.0,0,5.759
40,1.28,2.6756,0.4230,1.0018,0.0479,-0.4588,-0.0498,rough,14.0,0,5.618
50,1.60,2.9237,0.4112,1.1244,0.0371,-0.4640,-0.0353,rough,14.0,0,5.494
60,1.92,3.1653,0.4036,1.2415,0.0270,-0.4503,-0.0290,rough,14.0,0,5.385
70,2.24,3.3995,0.3971,1.3561,0.0203,-0.4437,-0.0199,rough,14.0,0,5.288
80,2.56,3.6282,0.3933,1.4601,0.0129,-0.4211,-0.0153,rough,14.0,0,5.205
90,2.88,3.8487,0.3897,1.5635,0.0096,-0.4123,-0.0111,rough,14.0,0,5.133
100,3.20,4.0603,0.3884,1.6551,0.0019,-0.4139,-0.0043,rough,14.0,0,5.074
110,3.52,4.2694,0.3867,1.7429,0.0028,-0.3885,-0.0076,rough,14.0,0,5.024
120,3.84,4.4680,0.3859,1.8223,-0.0067,-0.3833,0.0009,rough,14.0,0,4.984
130,4.16,4.6621,0.3857,1.8986,-0.0005,-0.3644,-0.0050,rough,14.0,0,4.953
140,4.48,4.8514,0.3835,1.9722,0.0018,-0.3532,-0.0104,rough,14.0,0,4.929
150,4.80,5.0328,0.3804,2.0392,0.0025,-0.3508,-0.0124,rough,14.0,0,4.911
160,5.12,5.2138,0.3756,2.1034,0.0094,-0.3384,-0.0334,rough,14.0,0,4.898
170,5.44,5.3973,0.3622,2.1694,0.0205,-0.3310,-0.0658,rough,14.0,0,4.883
180,5.76,5.5872,0.3368,2.2349,0.0390,-0.3295,-0.1237,rough,14.0,0,4.863
190,6.08,5.7882,0.2922,2.3025,0.0645,-0.3149,-0.2035,rough,14.0,0,4.833
200,6.40,6.0127,0.2164,2.3784,0.1030,-0.3035,-0.3322,rough,14.0,0,4.784
210,6.72,6.2726,0.1028,2.4641,0.1622,-0.2750,-0.5400,rough,14.0,0,4.715
220,7.04,6.5419,-0.0782,2.5518,0.2154,-0.2302,-0.7608,rough,14.0,0,4.601
230,7.36,6.7814,-0.3339,2.6294,0.2516,-0.1900,-0.9378,rough,14.0,0,4.426
240,7.68,6.9831,-0.6371,2.6948,0.2740,-0.1527,-1.0809,rough,14.0,0,4.215
250,8.00,7.1306,-0.9995,2.7436,0.2932,-0.1125,-1.2327,rough,14.0,0,3.948
260,8.32,7.2100,-1.3907,2.7720,0.3114,-0.0608,-1.3989,rough,14.0,0,3.643
270,8.64,7.2270,-1.8029,2.7819,0.3205,-0.0157,-1.5516,rough,14.0,0,3.306
280,8.96,7.1870,-2.2217,2.7744,0.3256,0.0256,-1.6867,rough,14.0,0,2.946
290,9.28,7.0949,-2.6420,2.7493,0.3228,0.0653,-1.8005,rough,14.0,0,2.567
300,9.60,6.9620,-3.0483,2.7122,0.3253,0.0998,-1.9023,rough,14.0,0,2.187
310,9.92,6.8064,-3.4546,2.6649,0.3269,0.1238,-1.9613,rough,14.0,0,1.809
320,10.24,6.6365,-3.8448,2.6110,0.3283,0.1456,-2.0197,rough,14.0,0,1.458
330,10.56,6.4474,-4.2118,2.5472,0.3171,0.1723,-2.0940,rough,14.0,0,1.145
340,10.88,6.2311,-4.5607,2.4655,0.2831,0.2138,-2.2049,rough,14.0,0,0.887
350,11.20,5.9660,-4.8110,2.3706,0.2400,0.2824,-2.4244,rough,14.0,1,13.277
360,11.52,5.6925,-4.9860,2.2648,0.1793,0.3260,-2.6258,rough,14.0,1,13.341
370,11.84,5.3636,-5.1182,2.1376,0.1188,0.3520,-2.7817,rough,14.0,1,13.354
380,12.16,5.0081,-5.2147,1.9959,0.0709,0.3401,-2.9000,rough,14.0,1,13.335
390,12.48,4.6241,-5.2812,1.8505,0.0337,0.3670,-2.9872,rough,14.0,1,13.289
400,12.80,4.2320,-5.3227,1.7000,0.0063,0.3673,-3.0489,rough,14.0,1,13.229
410,13.12,3.8322,-5.3467,1.5470,-0.0120,0.3643,-3.0901,rough,14.0,1,13.161
420,13.44,3.4275,-5.3591,1.3930,-0.0247,0.3629,-3.1168,rough,14.0,1,13.092
430,13.76,3.0202,-5.3641,1.2390,-0.0338,0.3616,-3.1337,rough,14.0,1,13.029
440,14.08,2.6124,-5.3642,1.0858,-0.0401,0.3591,3.1391,rough,14.0,1,12.972
450,14.40,2.2049,-5.3615,0.9338,-0.0441,0.3563,3.1329,rough,14.0,1,12.926
460,14.72,1.7985,-5.3571,0.7835,-0.0469,0.3533,3.1293,rough,14.0,1,12.890
470,15.04,1.3939,-5.3516,0.6351,-0.0491,0.3503,3.1270,rough,14.0,1,12.867
480,15.36,0.9913,-5.3455,0.4889,-0.0509,0.3469,3.1256,rough,14.0,1,12.855
490,15.68,0.5910,-5.3390,0.3449,-0.0530,0.3440,3.1244,rough,14.0,1,12.856
500,16.00,0.2032,-5.3329,0.2192,-0.0530,0.2609,3.1279,rough,14.0,1,12.869
510,16.32,-0.1733,-5.3233,0.1470,-0.0582,0.1369,3.0911,rough,14.0,1,12.888
520,16.64,-0.4729,-5.2884,0.1278,-0.0438,-0.0052,-3.1056,rough,14.0,1,12.885
530,16.96,-0.4856,-5.3095,0.1274,-0.0525,-0.0016,-2.9791,rough,14.0,1,12.907
540,17.28,-0.4806,-5.3404,0.1260,-0.0514,-0.0018,-2.9771,rough,14.0,1,12.937
550,17.60,-0.4766,-5.3676,0.1247,-0.0512,-0.0031,-2.9865,rough,14.0,1,12.964
560,17.92,-0.4764,-5.3887,0.1236,-0.0509,-0.0047,-3.0232,rough,14.0,1,12.985
570,18.24,-0.4807,-5.4015,0.1229,-0.0504,-0.0063,-3.0634,rough,14.0,1,12.998
580,18.56,-0.4833,-5.4116,0.1224,-0.0501,-0.0071,-3.0812,rough,14.0,1,13.008
590,18.88,-0.4851,-5.4197,0.1221,-0.0499,-0.0078,-3.0949,rough,14.0,1,13.017
600,19.20,-0.4866,-5.4259,0.1218,-0.0497,-0.0084,-3.1063,rough,14.0,1,13.023
610,19.52,-0.4883,-5.4302,0.1216,-0.0495,-0.0089,-3.1174,rough,14.0,1,13.027
620,19.84,-0.4896,-5.4323,0.1214,-0.0494,-0.0093,-3.1279,rough,14.0,1,13.030
630,20.16,-0.4901,-5.4335,0.1214,-0.0492,-0.0095,-3.1338,rough,14.0,1,13.031
640,20.48,-0.4904,-5.4342,0.1213,-0.0491,-0.0096,-3.1371,rough,14.0,1,13.032
650,20.80,-0.4906,-5.4346,0.1213,-0.0491,-0.0096,-3.1389,rough,14.0,1,13.032
660,21.12,-0.4907,-5.4348,0.1213,-0.0490,-0.0096,-3.1399,rough,14.0,1,13.032
670,21.44,-0.4908,-5.4350,0.1213,-0.0490,-0.0096,-3.1405,rough,14.0,1,13.033
680,21.76,-0.4908,-5.4351,0.1213,-0.0490,-0.0096,-3.1408,rough,14.0,1,13.033
690,22.08,-0.4909,-5.4352,0.1213,-0.0490,-0.0096,-3.1411,rough,14.0,1,13.033
700,22.40,-0.4909,-5.4352,0.1212,-0.0490,-0.0096,-3.1413,rough,14.0,1,13.033
710,22.72,-0.4909,-5.4352,0.1213,-0.0491,-0.0096,3.1414,rough,14.0,1,13.033
720,23.04,-0.4910,-5.4349,0.1213,-0.0490,-0.0096,3.1405,rough,14.0,1,13.032
730,23.36,-0.4912,-5.4342,0.1213,-0.0490,-0.0096,3.1387,rough,14.0,1,13.032
740,23.68,-0.4915,-5.4328,0.1213,-0.0488,-0.0096,3.1352,rough,14.0,1,13.030
750,24.00,-0.4921,-5.4299,0.1214,-0.0486,-0.0095,3.1286,rough,14.0,1,13.028
760,24.32,-0.4931,-5.4243,0.1217,-0.0486,-0.0100,3.1163,rough,14.0,1,13.022
770,24.64,-0.4944,-5.4136,0.1223,-0.0485,-0.0110,3.0943,rough,14.0,1,13.012
780,24.96,-0.4913,-5.4012,0.1229,-0.0487,-0.0114,3.0868,rough,14.0,1,12.999
790,25.28,-0.4892,-5.3897,0.1234,-0.0488,-0.0113,3.0869,rough,14.0,1,12.987
800,25.60,-0.4871,-5.3784,0.1240,-0.0490,-0.0112,3.0880,rough,14.0,1,12.976
810,25.92,-0.4865,-5.3693,0.1244,-0.0491,-0.0106,3.0968,rough,14.0,1,12.967
820,26.24,-0.4864,-5.3627,0.1247,-0.0493,-0.0100,3.1073,rough,14.0,1,12.960
830,26.56,-0.4864,-5.3578,0.1250,-0.0495,-0.0096,3.1155,rough,14.0,1,12.955
840,26.88,-0.4864,-5.3541,0.1252,-0.0496,-0.0092,3.1220,rough,14.0,1,12.952
850,27.20,-0.4864,-5.3513,0.1253,-0.0497,-0.0090,3.1269,rough,14.0,1,12.949
860,27.52,-0.4865,-5.3492,0.1254,-0.0498,-0.0088,3.1307,rough,14.0,1,12.947
870,27.84,-0.4865,-5.3477,0.1255,-0.0498,-0.0086,3.1335,rough,14.0,1,12.945
880,28.16,-0.4865,-5.3465,0.1256,-0.0499,-0.0085,3.1356,rough,14.0,1,12.944
890,28.48,-0.4865,-5.3456,0.1256,-0.0499,-0.0085,3.1371,rough,14.0,1,12.943
900,28.80,-0.4866,-5.3449,0.1257,-0.0500,-0.0085,3.1384,rough,14.0,1,12.943
910,29.12,-0.4866,-5.3444,0.1257,-0.0500,-0.0085,3.1393,rough,14.0,1,12.942
920,29.44,-0.4865,-5.3440,0.1257,-0.0501,-0.0085,3.1399,rough,14.0,1,12.942
930,29.76,-0.4865,-5.3436,0.1258,-0.0501,-0.0085,3.1403,rough,14.0,1,12.941
940,30.08,-0.4865,-5.3434,0.1258,-0.0501,-0.0085,3.1407,rough,14.0,1,12.941
950,30.40,-0.4865,-5.3431,0.1258,-0.0501,-0.0086,3.1410,rough,14.0,1,12.941
960,30.72,-0.4865,-5.3430,0.1258,-0.0502,-0.0086,3.1412,rough,14.0,1,12.941
970,31.04,-0.4865,-5.3428,0.1258,-0.0502,-0.0086,3.1414,rough,14.0,1,12.940
980,31.36,-0.4865,-5.3427,0.1258,-0.0502,-0.0086,3.1415,rough,14.0,1,12.940
990,31.68,-0.4865,-5.3426,0.1258,-0.0502,-0.0086,-3.1415,rough,14.0,1,12.940
1000,32.00,-0.4865,-5.3425,0.1258,-0.0502,-0.0086,-3.1414,rough,14.0,1,12.940
1010,32.32,-0.4865,-5.3425,0.1258,-0.0501,-0.0086,-3.1412,rough,14.0,1,12.940
1020,32.64,-0.4865,-5.3425,0.1258,-0.0501,-0.0086,-3.1411,rough,14.0,1,12.940
1030,32.96,-0.4866,-5.3425,0.1258,-0.0500,-0.0086,-3.1408,rough,14.0,1,12.940
1040,33.28,-0.4867,-5.3427,0.1258,-0.0500,-0.0086,-3.1402,rough,14.0,1,12.940
1050,33.60,-0.4868,-5.3431,0.1258,-0.0501,-0.0086,-3.1391,rough,14.0,1,12.941
1060,33.92,-0.4872,-5.3441,0.1258,-0.0501,-0.0086,-3.1368,rough,14.0,1,12.942
1070,34.24,-0.4880,-5.3459,0.1257,-0.0502,-0.0086,-3.1324,rough,14.0,1,12.944
1080,34.56,-0.4895,-5.3496,0.1256,-0.0503,-0.0087,-3.1238,rough,14.0,1,12.948
1090,34.88,-0.4863,-5.3561,0.1245,-0.0501,-0.0031,-3.1133,rough,14.0,1,12.954
1100,35.20,-0.4837,-5.3681,0.1245,-0.0503,-0.0061,-3.0814,rough,14.0,1,12.965
1110,35.52,-0.4859,-5.3849,0.1227,-0.0500,0.0005,-3.0757,rough,14.0,1,12.982
1120,35.84,-0.4749,-5.4072,0.1226,-0.0504,-0.0043,-3.0235,rough,14.0,1,13.003
1130,36.16,-0.4798,-5.4203,0.1220,-0.0502,-0.0064,-3.0644,rough,14.0,1,13.017
1140,36.48,-0.4845,-5.4279,0.1216,-0.0498,-0.0077,-3.0932,rough,14.0,1,13.025
1150,36.80,-0.4868,-5.4335,0.1214,-0.0496,-0.0084,-3.1087,rough,14.0,1,13.031
1160,37.12,-0.4885,-5.4372,0.1212,-0.0494,-0.0090,-3.1201,rough,14.0,1,13.034
1170,37.44,-0.4897,-5.4391,0.1211,-0.0492,-0.0094,-3.1294,rough,14.0,1,13.036
1180,37.76,-0.4902,-5.4402,0.1210,-0.0491,-0.0096,-3.1346,rough,14.0,1,13.038
1190,38.08,-0.4905,-5.4408,0.1210,-0.0490,-0.0096,-3.1376,rough,14.0,1,13.038
1200,38.40,-0.4907,-5.4411,0.1210,-0.0490,-0.0097,-3.1392,rough,14.0,1,13.039
1210,38.72,-0.4907,-5.4414,0.1210,-0.0489,-0.0097,-3.1401,rough,14.0,1,13.039
1220,39.04,-0.4908,-5.4415,0.1209,-0.0489,-0.0097,-3.1406,rough,14.0,1,13.039
1230,39.36,-0.4908,-5.4416,0.1209,-0.0489,-0.0097,-3.1409,rough,14.0,1,13.039
1240,39.68,-0.4909,-5.4417,0.1209,-0.0489,-0.0096,-3.1412,rough,14.0,1,13.039
1250,40.00,-0.4909,-5.4417,0.1209,-0.0490,-0.0096,-3.1416,rough,14.0,1,13.039
1260,40.32,-0.4910,-5.4415,0.1209,-0.0490,-0.0097,3.1409,rough,14.0,1,13.039
1270,40.64,-0.4911,-5.4410,0.1210,-0.0489,-0.0097,3.1394,rough,14.0,1,13.038
1280,40.96,-0.4914,-5.4398,0.1210,-0.0488,-0.0096,3.1365,rough,14.0,1,13.037
1290,41.28,-0.4920,-5.4375,0.1211,-0.0486,-0.0096,3.1309,rough,14.0,1,13.035
1300,41.60,-0.4929,-5.4328,0.1213,-0.0485,-0.0099,3.1205,rough,14.0,1,13.031
1310,41.92,-0.4943,-5.4238,0.1218,-0.0485,-0.0108,3.1017,rough,14.0,1,13.022
1320,42.24,-0.4928,-5.4098,0.1225,-0.0485,-0.0117,3.0822,rough,14.0,1,13.008
1330,42.56,-0.4902,-5.3972,0.1231,-0.0487,-0.0116,3.0820,rough,14.0,1,12.995
1340,42.88,-0.4878,-5.3846,0.1237,-0.0488,-0.0115,3.0824,rough,14.0,1,12.982
1350,43.20,-0.4867,-5.3740,0.1242,-0.0490,-0.0110,3.0901,rough,14.0,1,12.971
1360,43.52,-0.4865,-5.3662,0.1246,-0.0492,-0.0103,3.1015,rough,14.0,1,12.964
1370,43.84,-0.4864,-5.3604,0.1249,-0.0494,-0.0098,3.1112,rough,14.0,1,12.958
1380,44.16,-0.4864,-5.3561,0.1251,-0.0495,-0.0094,3.1185,rough,14.0,1,12.954
1390,44.48,-0.4864,-5.3528,0.1252,-0.0496,-0.0091,3.1243,rough,14.0,1,12.950
1400,44.80,-0.4864,-5.3503,0.1254,-0.0497,-0.0089,3.1287,rough,14.0,1,12.948
1410,45.12,-0.4865,-5.3485,0.1255,-0.0498,-0.0087,3.1320,rough,14.0,1,12.946
1420,45.44,-0.4865,-5.3471,0.1255,-0.0498,-0.0086,3.1345,rough,14.0,1,12.945
1430,45.76,-0.4865,-5.3460,0.1256,-0.0499,-0.0085,3.1363,rough,14.0,1,12.944
1440,46.08,-0.4865,-5.3452,0.1256,-0.0499,-0.0085,3.1377,rough,14.0,1,12.943
1450,46.40,-0.4866,-5.3447,0.1257,-0.0500,-0.0085,3.1388,rough,14.0,1,12.942
1460,46.72,-0.4866,-5.3442,0.1257,-0.0500,-0.0085,3.1396,rough,14.0,1,12.942
1470,47.04,-0.4865,-5.3438,0.1257,-0.0501,-0.0085,3.1401,rough,14.0,1,12.941
1480,47.36,-0.4865,-5.3435,0.1258,-0.0501,-0.0085,3.1405,rough,14.0,1,12.941
1490,47.68,-0.4865,-5.3433,0.1258,-0.0501,-0.0086,3.1408,rough,14.0,1,12.941
1500,48.00,-0.4865,-5.3431,0.1258,-0.0501,-0.0086,3.1411,rough,14.0,1,12.941
1510,48.32,-0.4865,-5.3429,0.1258,-0.0502,-0.0086,3.1413,rough,14.0,1,12.941
1520,48.64,-0.4865,-5.3428,0.1258,-0.0502,-0.0086,3.1414,rough,14.0,1,12.940
1530,48.96,-0.4865,-5.3427,0.1258,-0.0502,-0.0086,3.1416,rough,14.0,1,12.940
1540,49.28,-0.4865,-5.3426,0.1258,-0.0502,-0.0086,-3.1414,rough,14.0,1,12.940
1550,49.60,-0.4865,-5.3425,0.1258,-0.0502,-0.0086,-3.1413,rough,14.0,1,12.940
1560,49.92,-0.4865,-5.3425,0.1258,-0.0501,-0.0086,-3.1412,rough,14.0,1,12.940
1570,50.24,-0.4866,-5.3425,0.1258,-0.0501,-0.0086,-3.1410,rough,14.0,1,12.940
1580,50.56,-0.4866,-5.3426,0.1258,-0.0500,-0.0086,-3.1406,rough,14.0,1,12.940
1590,50.88,-0.4867,-5.3429,0.1258,-0.0500,-0.0086,-3.1398,rough,14.0,1,12.941
1600,51.20,-0.4870,-5.3435,0.1258,-0.0501,-0.0086,-3.1382,rough,14.0,1,12.941
1610,51.52,-0.4875,-5.3447,0.1258,-0.0501,-0.0086,-3.1352,rough,14.0,1,12.942
1620,51.84,-0.4886,-5.3472,0.1257,-0.0503,-0.0087,-3.1294,rough,14.0,1,12.945
1630,52.16,-0.4900,-5.3522,0.1213,-0.0504,0.0194,-3.1210,rough,14.0,1,12.950
1640,52.48,-0.4840,-5.3603,0.1246,-0.0501,-0.0052,-3.1026,rough,14.0,1,12.957
1650,52.80,-0.4829,-5.3760,0.1243,-0.0504,-0.0062,-3.0624,rough,14.0,1,12.973
1660,53.12,-0.4810,-5.3929,0.1229,-0.0501,-0.0027,-3.0582,rough,14.0,1,12.990
1670,53.44,-0.4760,-5.4145,0.1223,-0.0503,-0.0053,-3.0368,rough,14.0,1,13.010
1680,53.76,-0.4815,-5.4241,0.1218,-0.0500,-0.0071,-3.0792,rough,14.0,1,13.021
1690,54.08,-0.4853,-5.4308,0.1215,-0.0497,-0.0080,-3.1004,rough,14.0,1,13.028
1700,54.40,-0.4866,-5.4359,0.1212,-0.0495,-0.0086,-3.1118,rough,14.0,1,13.033
1710,54.72,-0.4891,-5.4385,0.1211,-0.0493,-0.0092,-3.1247,rough,14.0,1,13.036
1720,55.04,-0.4899,-5.4399,0.1210,-0.0492,-0.0095,-3.1320,rough,14.0,1,13.037
1730,55.36,-0.4903,-5.4408,0.1210,-0.0491,-0.0096,-3.1361,rough,14.0,1,13.038
1740,55.68,-0.4906,-5.4413,0.1210,-0.0490,-0.0097,-3.1384,rough,14.0,1,13.039
1750,56.00,-0.4907,-5.4416,0.1209,-0.0489,-0.0097,-3.1397,rough,14.0,1,13.039
1760,56.32,-0.4908,-5.4417,0.1209,-0.0489,-0.0097,-3.1404,rough,14.0,1,13.039
1770,56.64,-0.4908,-5.4419,0.1209,-0.0489,-0.0097,-3.1408,rough,14.0,1,13.039
1780,56.96,-0.4908,-5.4420,0.1209,-0.0489,-0.0097,-3.1411,rough,14.0,1,13.039
1790,57.28,-0.4909,-5.4420,0.1209,-0.0489,-0.0096,-3.1413,rough,14.0,1,13.039
1800,57.60,-0.4909,-5.4419,0.1209,-0.0490,-0.0097,3.1414,rough,14.0,1,13.039
1810,57.92,-0.4910,-5.4416,0.1209,-0.0489,-0.0097,3.1403,rough,14.0,1,13.039
1820,58.24,-0.4912,-5.4409,0.1209,-0.0489,-0.0097,3.1384,rough,14.0,1,13.038
1830,58.56,-0.4916,-5.4393,0.1210,-0.0487,-0.0096,3.1345,rough,14.0,1,13.037
1840,58.88,-0.4924,-5.4361,0.1211,-0.0485,-0.0096,3.1271,rough,14.0,1,13.034
1850,59.20,-0.4935,-5.4298,0.1214,-0.0485,-0.0102,3.1135,rough,14.0,1,13.028
1860,59.52,-0.4949,-5.4180,0.1221,-0.0484,-0.0113,3.0894,rough,14.0,1,13.016
1870,59.84,-0.4915,-5.4044,0.1227,-0.0486,-0.0117,3.0816,rough,14.0,1,13.002
1880,60.16,-0.4891,-5.3917,0.1233,-0.0487,-0.0116,3.0818,rough,14.0,1,12.989
1890,60.48,-0.4871,-5.3796,0.1239,-0.0489,-0.0114,3.0845,rough,14.0,1,12.977
1900,60.80,-0.4865,-5.3703,0.1244,-0.0491,-0.0107,3.0950,rough,14.0,1,12.968
1910,61.12,-0.4864,-5.3635,0.1247,-0.0493,-0.0101,3.1060,rough,14.0,1,12.961
1920,61.44,-0.4864,-5.3584,0.1250,-0.0495,-0.0096,3.1146,rough,14.0,1,12.956
1930,61.76,-0.4864,-5.3545,0.1252,-0.0496,-0.0093,3.1212,rough,14.0,1,12.952
1940,62.08,-0.4864,-5.3516,0.1253,-0.0497,-0.0090,3.1264,rough,14.0,1,12.949
1950,62.40,-0.4865,-5.3495,0.1254,-0.0497,-0.0088,3.1302,rough,14.0,1,12.947
1960,62.72,-0.4865,-5.3478,0.1255,-0.0498,-0.0086,3.1332,rough,14.0,1,12.945
1970,63.04,-0.4865,-5.3466,0.1256,-0.0499,-0.0085,3.1353,rough,14.0,1,12.944
1980,63.36,-0.4865,-5.3457,0.1256,-0.0499,-0.0085,3.1369,rough,14.0,1,12.943
1990,63.68,-0.4865,-5.3450,0.1257,-0.0500,-0.0085,3.1383,rough,14.0,1,12.943
2000,64.00,-0.4866,-5.3444,0.1257,-0.0500,-0.0085,3.1392,rough,14.0,1,12.942
2010,64.32,-0.4866,-5.3440,0.1257,-0.0500,-0.0085,3.1398,rough,14.0,1,12.942
2020,64.64,-0.4865,-5.3437,0.1257,-0.0501,-0.0085,3.1403,rough,14.0,1,12.941
2030,64.96,-0.4865,-5.3434,0.1258,-0.0501,-0.0085,3.1407,rough,14.0,1,12.941
2040,65.28,-0.4865,-5.3432,0.1258,-0.0501,-0.0086,3.1409,rough,14.0,1,12.941
2050,65.60,-0.4865,-5.3430,0.1258,-0.0501,-0.0086,3.1412,rough,14.0,1,12.941
2060,65.92,-0.4865,-5.3428,0.1258,-0.0502,-0.0086,3.1414,rough,14.0,1,12.940
2070,66.24,-0.4865,-5.3427,0.1258,-0.0502,-0.0086,3.1415,rough,14.0,1,12.940
2080,66.56,-0.4865,-5.3426,0.1258,-0.0502,-0.0086,-3.1415,rough,14.0,1,12.940
2090,66.88,-0.4865,-5.3425,0.1258,-0.0502,-0.0086,-3.1414,rough,14.0,1,12.940
2100,67.20,-0.4865,-5.3425,0.1258,-0.0501,-0.0086,-3.1412,rough,14.0,1,12.940
2110,67.52,-0.4865,-5.3425,0.1258,-0.0501,-0.0086,-3.1411,rough,14.0,1,12.940
2120,67.84,-0.4866,-5.3425,0.1258,-0.0500,-0.0086,-3.1409,rough,14.0,1,12.940
2130,68.16,-0.4867,-5.3427,0.1258,-0.0500,-0.0086,-3.1403,rough,14.0,1,12.940
2140,68.48,-0.4868,-5.3431,0.1258,-0.0501,-0.0086,-3.1393,rough,14.0,1,12.941
2150,68.80,-0.4872,-5.3439,0.1258,-0.0501,-0.0086,-3.1371,rough,14.0,1,12.942
2160,69.12,-0.4879,-5.3456,0.1257,-0.0502,-0.0086,-3.1331,rough,14.0,1,12.943
2170,69.44,-0.4893,-5.3490,0.1256,-0.0503,-0.0087,-3.1252,rough,14.0,1,12.947
2180,69.76,-0.4888,-5.3544,0.1242,-0.0500,-0.0009,-3.1206,rough,14.0,1,12.952
2190,70.08,-0.4849,-5.3633,0.1247,-0.0500,-0.0060,-3.0975,rough,14.0,1,12.961
2200,70.40,-0.4875,-5.3788,0.1225,-0.0502,0.0042,-3.0792,rough,14.0,1,12.976
2210,70.72,-0.4782,-5.3959,0.1230,-0.0502,-0.0040,-3.0419,rough,14.0,1,12.992
2220,71.04,-0.4775,-5.4148,0.1223,-0.0504,-0.0059,-3.0478,rough,14.0,1,13.011
2230,71.36,-0.4824,-5.4239,0.1218,-0.0500,-0.0072,-3.0825,rough,14.0,1,13.021
2240,71.68,-0.4860,-5.4300,0.1215,-0.0497,-0.0082,-3.1036,rough,14.0,1,13.027
2250,72.00,-0.4866,-5.4351,0.1213,-0.0495,-0.0087,-3.1122,rough,14.0,1,13.032
2260,72.32,-0.4891,-5.4376,0.1212,-0.0493,-0.0092,-3.1250,rough,14.0,1,13.035
2270,72.64,-0.4899,-5.4391,0.1211,-0.0492,-0.0095,-3.1322,rough,14.0,1,13.036
2280,72.96,-0.4904,-5.4399,0.1210,-0.0491,-0.0096,-3.1362,rough,14.0,1,13.037
2290,73.28,-0.4906,-5.4404,0.1210,-0.0490,-0.0097,-3.1384,rough,14.0,1,13.038
2300,73.60,-0.4907,-5.4407,0.1210,-0.0490,-0.0097,-3.1397,rough,14.0,1,13.038
2310,73.92,-0.4908,-5.4408,0.1210,-0.0489,-0.0097,-3.1404,rough,14.0,1,13.038
2320,74.24,-0.4908,-5.4410,0.1210,-0.0489,-0.0097,-3.1408,rough,14.0,1,13.038
2330,74.56,-0.4908,-5.4411,0.1210,-0.0489,-0.0096,-3.1411,rough,14.0,1,13.039
2340,74.88,-0.4909,-5.4411,0.1210,-0.0490,-0.0096,-3.1413,rough,14.0,1,13.039
2350,75.20,-0.4909,-5.4410,0.1210,-0.0490,-0.0096,3.1414,rough,14.0,1,13.039
2360,75.52,-0.4910,-5.4407,0.1210,-0.0490,-0.0097,3.1404,rough,14.0,1,13.038
2370,75.84,-0.4912,-5.4400,0.1210,-0.0489,-0.0097,3.1384,rough,14.0,1,13.038
2380,76.16,-0.4916,-5.4385,0.1210,-0.0487,-0.0096,3.1347,rough,14.0,1,13.036
2390,76.48,-0.4923,-5.4353,0.1212,-0.0485,-0.0096,3.1274,rough,14.0,1,13.033
2400,76.80,-0.4934,-5.4292,0.1215,-0.0485,-0.0102,3.1142,rough,14.0,1,13.027
2410,77.12,-0.4948,-5.4177,0.1221,-0.0484,-0.0113,3.0905,rough,14.0,1,13.016
2420,77.44,-0.4911,-5.4036,0.1227,-0.0486,-0.0118,3.0802,rough,14.0,1,13.001
2430,77.76,-0.4887,-5.3907,0.1234,-0.0487,-0.0116,3.0805,rough,14.0,1,12.988
2440,78.08,-0.4870,-5.3787,0.1240,-0.0489,-0.0113,3.0849,rough,14.0,1,12.976
2450,78.40,-0.4865,-5.3696,0.1244,-0.0491,-0.0107,3.0959,rough,14.0,1,12.967
2460,78.72,-0.4864,-5.3630,0.1247,-0.0493,-0.0100,3.1068,rough,14.0,1,12.960
2470,79.04,-0.4864,-5.3580,0.1250,-0.0495,-0.0096,3.1152,rough,14.0,1,12.956
2480,79.36,-0.4864,-5.3542,0.1252,-0.0496,-0.0092,3.1217,rough,14.0,1,12.952
2490,79.68,-0.4864,-5.3514,0.1253,-0.0497,-0.0090,3.1267,rough,14.0,1,12.949
2500,80.00,-0.4865,-5.3493,0.1254,-0.0498,-0.0088,3.1305,rough,14.0,1,12.947
2510,80.32,-0.4865,-5.3477,0.1255,-0.0498,-0.0086,3.1334,rough,14.0,1,12.945
2520,80.64,-0.4865,-5.3465,0.1256,-0.0499,-0.0085,3.1355,rough,14.0,1,12.944
2530,80.96,-0.4865,-5.3456,0.1256,-0.0499,-0.0085,3.1371,rough,14.0,1,12.943
2540,81.28,-0.4866,-5.3449,0.1257,-0.0500,-0.0085,3.1384,rough,14.0,1,12.943
2550,81.60,-0.4866,-5.3444,0.1257,-0.0500,-0.0085,3.1392,rough,14.0,1,12.942
2560,81.92,-0.4865,-5.3440,0.1257,-0.0500,-0.0085,3.1399,rough,14.0,1,12.942
2570,82.24,-0.4865,-5.3436,0.1258,-0.0501,-0.0085,3.1403,rough,14.0,1,12.941
2580,82.56,-0.4865,-5.3434,0.1258,-0.0501,-0.0085,3.1407,rough,14.0,1,12.941
2590,82.88,-0.4865,-5.3431,0.1258,-0.0501,-0.0086,3.1410,rough,14.0,1,12.941
2600,83.20,-0.4865,-5.3430,0.1258,-0.0502,-0.0086,3.1412,rough,14.0,1,12.941
2610,83.52,-0.4865,-5.3428,0.1258,-0.0502,-0.0086,3.1414,rough,14.0,1,12.940
2620,83.84,-0.4865,-5.3427,0.1258,-0.0502,-0.0086,3.1415,rough,14.0,1,12.940
2630,84.16,-0.4865,-5.3426,0.1258,-0.0502,-0.0086,-3.1415,rough,14.0,1,12.940
2640,84.48,-0.4865,-5.3425,0.1258,-0.0502,-0.0086,-3.1414,rough,14.0,1,12.940
2650,84.80,-0.4865,-5.3425,0.1258,-0.0501,-0.0086,-3.1412,rough,14.0,1,12.940
2660,85.12,-0.4865,-5.3425,0.1258,-0.0501,-0.0086,-3.1411,rough,14.0,1,12.940
2670,85.44,-0.4866,-5.3425,0.1258,-0.0500,-0.0086,-3.1408,rough,14.0,1,12.940
2680,85.76,-0.4867,-5.3427,0.1258,-0.0500,-0.0086,-3.1403,rough,14.0,1,12.940
2690,86.08,-0.4868,-5.3431,0.1258,-0.0501,-0.0086,-3.1391,rough,14.0,1,12.941
2700,86.40,-0.4872,-5.3440,0.1258,-0.0501,-0.0086,-3.1369,rough,14.0,1,12.942
2710,86.72,-0.4880,-5.3458,0.1257,-0.0502,-0.0086,-3.1326,rough,14.0,1,12.944
2720,87.04,-0.4894,-5.3494,0.1256,-0.0503,-0.0087,-3.1243,rough,14.0,1,12.947
2730,87.36,-0.4871,-5.3558,0.1243,-0.0501,-0.0020,-3.1142,rough,14.0,1,12.953
2740,87.68,-0.4840,-5.3675,0.1245,-0.0502,-0.0059,-3.0834,rough,14.0,1,12.965
2750,88.00,-0.4853,-5.3825,0.1230,-0.0500,-0.0008,-3.0804,rough,14.0,1,12.980
2760,88.32,-0.4748,-5.4058,0.1227,-0.0504,-0.0044,-3.0218,rough,14.0,1,13.002
2770,88.64,-0.4798,-5.4191,0.1221,-0.0502,-0.0064,-3.0635,rough,14.0,1,13.015
2780,88.96,-0.4832,-5.4268,0.1217,-0.0498,-0.0077,-3.0927,rough,14.0,1,13.023
2790,89.28,-0.4859,-5.4322,0.1214,-0.0496,-0.0085,-3.1098,rough,14.0,1,13.029
2800,89.60,-0.4886,-5.4361,0.1212,-0.0494,-0.0090,-3.1202,rough,14.0,1,13.033
2810,89.92,-0.4897,-5.4380,0.1211,-0.0492,-0.0093,-3.1295,rough,14.0,1,13.035
2820,90.24,-0.4902,-5.4390,0.1211,-0.0491,-0.0095,-3.1347,rough,14.0,1,13.036
2830,90.56,-0.4905,-5.4396,0.1211,-0.0490,-0.0096,-3.1376,rough,14.0,1,13.037
2840,90.88,-0.4907,-5.4400,0.1210,-0.0490,-0.0097,-3.1392,rough,14.0,1,13.037
2850,91.20,-0.4908,-5.4402,0.1210,-0.0489,-0.0097,-3.1401,rough,14.0,1,13.038
2860,91.52,-0.4908,-5.4404,0.1210,-0.0489,-0.0097,-3.1406,rough,14.0,1,13.038
2870,91.84,-0.4908,-5.4405,0.1210,-0.0489,-0.0096,-3.1409,rough,14.0,1,13.038
2880,92.16,-0.4909,-5.4405,0.1210,-0.0489,-0.0096,-3.1412,rough,14.0,1,13.038
2890,92.48,-0.4909,-5.4405,0.1210,-0.0490,-0.0096,-3.1415,rough,14.0,1,13.038
2900,92.80,-0.4910,-5.4404,0.1210,-0.0490,-0.0096,3.1410,rough,14.0,1,13.038
2910,93.12,-0.4911,-5.4399,0.1210,-0.0489,-0.0097,3.1395,rough,14.0,1,13.037
2920,93.44,-0.4914,-5.4388,0.1210,-0.0488,-0.0096,3.1368,rough,14.0,1,13.036
2930,93.76,-0.4919,-5.4365,0.1211,-0.0486,-0.0096,3.1315,rough,14.0,1,13.034
2940,94.08,-0.4928,-5.4321,0.1213,-0.0485,-0.0099,3.1216,rough,14.0,1,13.030
2950,94.40,-0.4941,-5.4236,0.1218,-0.0485,-0.0107,3.1036,rough,14.0,1,13.022
2960,94.72,-0.4928,-5.4098,0.1225,-0.0485,-0.0116,3.0830,rough,14.0,1,13.008
2970,95.04,-0.4903,-5.3972,0.1231,-0.0487,-0.0116,3.0826,rough,14.0,1,12.995
2980,95.36,-0.4878,-5.3848,0.1237,-0.0488,-0.0115,3.0829,rough,14.0,1,12.982
2990,95.68,-0.4867,-5.3741,0.1242,-0.0490,-0.0110,3.0901,rough,14.0,1,12.972
3000,96.00,-0.4865,-5.3663,0.1246,-0.0492,-0.0103,3.1013,rough,14.0,1,12.964
3010,96.32,-0.4864,-5.3605,0.1249,-0.0494,-0.0098,3.1111,rough,14.0,1,12.958
3020,96.64,-0.4864,-5.3561,0.1251,-0.0495,-0.0094,3.1184,rough,14.0,1,12.954
3030,96.96,-0.4864,-5.3528,0.1252,-0.0496,-0.0091,3.1242,rough,14.0,1,12.950
3040,97.28,-0.4864,-5.3504,0.1254,-0.0497,-0.0089,3.1286,rough,14.0,1,12.948
3050,97.60,-0.4865,-5.3485,0.1255,-0.0498,-0.0087,3.1320,rough,14.0,1,12.946
3060,97.92,-0.4865,-5.3471,0.1255,-0.0498,-0.0086,3.1345,rough,14.0,1,12.945
3070,98.24,-0.4865,-5.3461,0.1256,-0.0499,-0.0085,3.1363,rough,14.0,1,12.944
3080,98.56,-0.4865,-5.3453,0.1256,-0.0499,-0.0085,3.1377,rough,14.0,1,12.943
3090,98.88,-0.4866,-5.3447,0.1257,-0.0500,-0.0085,3.1388,rough,14.0,1,12.942
3100,99.20,-0.4866,-5.3442,0.1257,-0.0500,-0.0085,3.1395,rough,14.0,1,12.942
3110,99.52,-0.4865,-5.3438,0.1257,-0.0501,-0.0085,3.1401,rough,14.0,1,12.941
3120,99.84,-0.4865,-5.3435,0.1258,-0.0501,-0.0085,3.1405,rough,14.0,1,12.941
3130,100.16,-0.4865,-5.3433,0.1258,-0.0501,-0.0086,3.1408,rough,14.0,1,12.941
3140,100.48,-0.4865,-5.3431,0.1258,-0.0501,-0.0086,3.1411,rough,14.0,1,12.941
3150,100.80,-0.4865,-5.3429,0.1258,-0.0502,-0.0086,3.1413,rough,14.0,1,12.941
3160,101.12,-0.4865,-5.3428,0.1258,-0.0502,-0.0086,3.1414,rough,14.0,1,12.940
3170,101.44,-0.4865,-5.3427,0.1258,-0.0502,-0.0086,3.1416,rough,14.0,1,12.940
3180,101.76,-0.4865,-5.3426,0.1258,-0.0502,-0.0086,-3.1414,rough,14.0,1,12.940
3190,102.08,-0.4865,-5.3425,0.1258,-0.0502,-0.0086,-3.1413,rough,14.0,1,12.940
3200,102.40,-0.4865,-5.3425,0.1258,-0.0501,-0.0086,-3.1412,rough,14.0,1,12.940
3210,102.72,-0.4866,-5.3425,0.1258,-0.0501,-0.0086,-3.1410,rough,14.0,1,12.940
3220,103.04,-0.4866,-5.3426,0.1258,-0.0500,-0.0086,-3.1406,rough,14.0,1,12.940
3230,103.36,-0.4867,-5.3429,0.1258,-0.0500,-0.0086,-3.1398,rough,14.0,1,12.941
3240,103.68,-0.4870,-5.3435,0.1258,-0.0501,-0.0086,-3.1383,rough,14.0,1,12.941
3250,104.00,-0.4875,-5.3447,0.1258,-0.0501,-0.0086,-3.1353,rough,14.0,1,12.942
3260,104.32,-0.4885,-5.3472,0.1257,-0.0503,-0.0087,-3.1295,rough,14.0,1,12.945
3270,104.64,-0.4900,-5.3521,0.1213,-0.0504,0.0194,-3.1212,rough,14.0,1,12.950
3280,104.96,-0.4841,-5.3601,0.1247,-0.0501,-0.0052,-3.1030,rough,14.0,1,12.957
3290,105.28,-0.4830,-5.3757,0.1243,-0.0504,-0.0062,-3.0630,rough,14.0,1,12.973
3300,105.60,-0.4810,-5.3926,0.1229,-0.0501,-0.0027,-3.0584,rough,14.0,1,12.989
3310,105.92,-0.4760,-5.4143,0.1223,-0.0503,-0.0053,-3.0364,rough,14.0,1,13.010
3320,106.24,-0.4815,-5.4239,0.1218,-0.0500,-0.0071,-3.0790,rough,14.0,1,13.020
3330,106.56,-0.4853,-5.4306,0.1215,-0.0497,-0.0080,-3.1002,rough,14.0,1,13.028
3340,106.88,-0.4866,-5.4357,0.1213,-0.0495,-0.0086,-3.1116,rough,14.0,1,13.033
3350,107.20,-0.4891,-5.4383,0.1211,-0.0493,-0.0092,-3.1246,rough,14.0,1,13.036
3360,107.52,-0.4899,-5.4398,0.1211,-0.0492,-0.0095,-3.1319,rough,14.0,1,13.037
3370,107.84,-0.4903,-5.4406,0.1210,-0.0491,-0.0096,-3.1361,rough,14.0,1,13.038
3380,108.16,-0.4906,-5.4411,0.1210,-0.0490,-0.0097,-3.1384,rough,14.0,1,13.039
3390,108.48,-0.4907,-5.4414,0.1210,-0.0489,-0.0097,-3.1396,rough,14.0,1,13.039
3400,108.80,-0.4908,-5.4416,0.1209,-0.0489,-0.0097,-3.1404,rough,14.0,1,13.039
3410,109.12,-0.4908,-5.4418,0.1209,-0.0489,-0.0097,-3.1408,rough,14.0,1,13.039
3420,109.44,-0.4908,-5.4418,0.1209,-0.0489,-0.0097,-3.1411,rough,14.0,1,13.039
3430,109.76,-0.4909,-5.4419,0.1209,-0.0489,-0.0096,-3.1413,rough,14.0,1,13.039
3440,110.08,-0.4909,-5.4418,0.1209,-0.0490,-0.0097,3.1414,rough,14.0,1,13.039
3450,110.40,-0.4910,-5.4415,0.1209,-0.0490,-0.0097,3.1404,rough,14.0,1,13.039
3460,110.72,-0.4912,-5.4408,0.1210,-0.0489,-0.0097,3.1384,rough,14.0,1,13.038
3470,111.04,-0.4916,-5.4392,0.1210,-0.0487,-0.0096,3.1346,rough,14.0,1,13.037
3480,111.36,-0.4923,-5.4360,0.1211,-0.0485,-0.0096,3.1273,rough,14.0,1,13.034
3490,111.68,-0.4934,-5.4299,0.1214,-0.0485,-0.0102,3.1138,rough,14.0,1,13.028
3500,112.00,-0.4949,-5.4181,0.1220,-0.0484,-0.0113,3.0899,rough,14.0,1,13.016
3510,112.32,-0.4915,-5.4046,0.1227,-0.0486,-0.0117,3.0818,rough,14.0,1,13.002
3520,112.64,-0.4891,-5.3920,0.1233,-0.0487,-0.0116,3.0820,rough,14.0,1,12.990
3530,112.96,-0.4871,-5.3798,0.1239,-0.0489,-0.0114,3.0845,rough,14.0,1,12.977
3540,113.28,-0.4866,-5.3705,0.1244,-0.0491,-0.0107,3.0948,rough,14.0,1,12.968
3550,113.60,-0.4864,-5.3636,0.1247,-0.0493,-0.0101,3.1058,rough,14.0,1,12.961
3560,113.92,-0.4864,-5.3585,0.1250,-0.0495,-0.0096,3.1144,rough,14.0,1,12.956
3570,114.24,-0.4864,-5.3546,0.1252,-0.0496,-0.0093,3.1211,rough,14.0,1,12.952
3580,114.56,-0.4864,-5.3517,0.1253,-0.0497,-0.0090,3.1263,rough,14.0,1,12.949
3590,114.88,-0.4865,-5.3495,0.1254,-0.0497,-0.0088,3.1302,rough,14.0,1,12.947
3600,115.20,-0.4865,-5.3479,0.1255,-0.0498,-0.0086,3.1331,rough,14.0,1,12.945
3610,115.52,-0.4865,-5.3466,0.1256,-0.0499,-0.0085,3.1353,rough,14.0,1,12.944
3620,115.84,-0.4865,-5.3457,0.1256,-0.0499,-0.0085,3.1369,rough,14.0,1,12.943
3630,116.16,-0.4865,-5.3450,0.1257,-0.0500,-0.0085,3.1382,rough,14.0,1,12.943
3640,116.48,-0.4866,-5.3444,0.1257,-0.0500,-0.0085,3.1392,rough,14.0,1,12.942
3650,116.80,-0.4866,-5.3440,0.1257,-0.0500,-0.0085,3.1398,rough,14.0,1,12.942
3660,117.12,-0.4865,-5.3437,0.1257,-0.0501,-0.0085,3.1403,rough,14.0,1,12.941
3670,117.44,-0.4865,-5.3434,0.1258,-0.0501,-0.0085,3.1406,rough,14.0,1,12.941
3680,117.76,-0.4865,-5.3432,0.1258,-0.0501,-0.0086,3.1409,rough,14.0,1,12.941
3690,118.08,-0.4865,-5.3430,0.1258,-0.0501,-0.0086,3.1412,rough,14.0,1,12.941
3700,118.40,-0.4865,-5.3428,0.1258,-0.0502,-0.0086,3.1414,rough,14.0,1,12.940
3710,118.72,-0.4865,-5.3427,0.1258,-0.0502,-0.0086,3.1415,rough,14.0,1,12.940
3720,119.04,-0.4865,-5.3426,0.1258,-0.0502,-0.0086,-3.1415,rough,14.0,1,12.940
3730,119.36,-0.4865,-5.3425,0.1258,-0.0502,-0.0086,-3.1414,rough,14.0,1,12.940
3740,119.68,-0.4865,-5.3425,0.1258,-0.0501,-0.0086,-3.1412,rough,14.0,1,12.940
3750,120.00,-0.4865,-5.3425,0.1258,-0.0501,-0.0086,-3.1411,rough,14.0,1,12.940
3760,120.32,-0.4866,-5.3425,0.1258,-0.0500,-0.0086,-3.1409,rough,14.0,1,12.940
3770,120.64,-0.4867,-5.3427,0.1258,-0.0500,-0.0086,-3.1404,rough,14.0,1,12.940
3780,120.96,-0.4868,-5.3431,0.1258,-0.0501,-0.0086,-3.1393,rough,14.0,1,12.941
3790,121.28,-0.4872,-5.3439,0.1258,-0.0501,-0.0086,-3.1372,rough,14.0,1,12.942
3800,121.60,-0.4879,-5.3456,0.1257,-0.0502,-0.0086,-3.1332,rough,14.0,1,12.943
3810,121.92,-0.4892,-5.3489,0.1257,-0.0503,-0.0087,-3.1255,rough,14.0,1,12.947
3820,122.24,-0.4882,-5.3550,0.1242,-0.0501,-0.0007,-3.1164,rough,14.0,1,12.953
3830,122.56,-0.4835,-5.3657,0.1246,-0.0501,-0.0058,-3.0883,rough,14.0,1,12.963
3840,122.88,-0.4860,-5.3844,0.1222,-0.0502,0.0045,-3.0668,rough,14.0,1,12.982
3850,123.20,-0.4763,-5.4035,0.1227,-0.0503,-0.0037,-3.0290,rough,14.0,1,13.000
3860,123.52,-0.4788,-5.4191,0.1220,-0.0502,-0.0061,-3.0573,rough,14.0,1,13.015
3870,123.84,-0.4830,-5.4274,0.1216,-0.0499,-0.0075,-3.0883,rough,14.0,1,13.024
3880,124.16,-0.4858,-5.4332,0.1214,-0.0496,-0.0083,-3.1053,rough,14.0,1,13.030
3890,124.48,-0.4880,-5.4372,0.1212,-0.0494,-0.0089,-3.1179,rough,14.0,1,13.034
3900,124.80,-0.4895,-5.4393,0.1211,-0.0492,-0.0093,-3.1282,rough,14.0,1,13.037
3910,125.12,-0.4901,-5.4404,0.1210,-0.0491,-0.0095,-3.1339,rough,14.0,1,13.038
3920,125.44,-0.4905,-5.4411,0.1210,-0.0490,-0.0096,-3.1372,rough,14.0,1,13.039
3930,125.76,-0.4906,-5.4415,0.1210,-0.0490,-0.0097,-3.1390,rough,14.0,1,13.039
3940,126.08,-0.4907,-5.4418,0.1209,-0.0489,-0.0097,-3.1400,rough,14.0,1,13.039
3950,126.40,-0.4908,-5.4419,0.1209,-0.0489,-0.0097,-3.1406,rough,14.0,1,13.039
3960,126.72,-0.4908,-5.4420,0.1209,-0.0489,-0.0097,-3.1409,rough,14.0,1,13.040
3970,127.04,-0.4909,-5.4421,0.1209,-0.0489,-0.0097,-3.1412,rough,14.0,1,13.040
3980,127.36,-0.4909,-5.4421,0.1209,-0.0490,-0.0097,-3.1415,rough,14.0,1,13.040
3990,127.68,-0.4909,-5.4420,0.1209,-0.0490,-0.0097,3.1410,rough,14.0,1,13.039
4000,128.00,-0.4911,-5.4415,0.1209,-0.0489,-0.0097,3.1397,rough,14.0,1,13.039
4010,128.32,-0.4914,-5.4405,0.1210,-0.0488,-0.0097,3.1370,rough,14.0,1,13.038
4020,128.64,-0.4919,-5.4383,0.1210,-0.0486,-0.0096,3.1320,rough,14.0,1,13.036
4030,128.96,-0.4928,-5.4341,0.1212,-0.0485,-0.0098,3.1224,rough,14.0,1,13.032
4040,129.28,-0.4941,-5.4259,0.1216,-0.0485,-0.0106,3.1051,rough,14.0,1,13.024
4050,129.60,-0.4934,-5.4121,0.1223,-0.0485,-0.0117,3.0828,rough,14.0,1,13.010
4060,129.92,-0.4905,-5.3991,0.1230,-0.0486,-0.0117,3.0812,rough,14.0,1,12.997
4070,130.24,-0.4880,-5.3863,0.1236,-0.0488,-0.0116,3.0815,rough,14.0,1,12.984
4080,130.56,-0.4868,-5.3753,0.1241,-0.0490,-0.0111,3.0885,rough,14.0,1,12.973
4090,130.88,-0.4865,-5.3671,0.1245,-0.0492,-0.0104,3.0999,rough,14.0,1,12.965
4100,131.20,-0.4864,-5.3611,0.1248,-0.0494,-0.0099,3.1100,rough,14.0,1,12.959
4110,131.52,-0.4864,-5.3566,0.1251,-0.0495,-0.0095,3.1176,rough,14.0,1,12.954
4120,131.84,-0.4864,-5.3532,0.1252,-0.0496,-0.0091,3.1236,rough,14.0,1,12.951
4130,132.16,-0.4864,-5.3506,0.1254,-0.0497,-0.0089,3.1281,rough,14.0,1,12.948
4140,132.48,-0.4865,-5.3487,0.1255,-0.0498,-0.0087,3.1316,rough,14.0,1,12.946
4150,132.80,-0.4865,-5.3473,0.1255,-0.0498,-0.0086,3.1342,rough,14.0,1,12.945
4160,133.12,-0.4865,-5.3462,0.1256,-0.0499,-0.0085,3.1361,rough,14.0,1,12.944
4170,133.44,-0.4865,-5.3453,0.1256,-0.0499,-0.0085,3.1375,rough,14.0,1,12.943
4180,133.76,-0.4866,-5.3447,0.1257,-0.0500,-0.0085,3.1387,rough,14.0,1,12.942
4190,134.08,-0.4866,-5.3442,0.1257,-0.0500,-0.0085,3.1395,rough,14.0,1,12.942
4200,134.40,-0.4865,-5.3439,0.1257,-0.0501,-0.0085,3.1400,rough,14.0,1,12.941
4210,134.72,-0.4865,-5.3435,0.1258,-0.0501,-0.0085,3.1405,rough,14.0,1,12.941
4220,135.04,-0.4865,-5.3433,0.1258,-0.0501,-0.0086,3.1408,rough,14.0,1,12.941
4230,135.36,-0.4865,-5.3431,0.1258,-0.0501,-0.0086,3.1410,rough,14.0,1,12.941
4240,135.68,-0.4865,-5.3429,0.1258,-0.0502,-0.0086,3.1413,rough,14.0,1,12.941
4250,136.00,-0.4865,-5.3428,0.1258,-0.0502,-0.0086,3.1414,rough,14.0,1,12.940
4260,136.32,-0.4865,-5.3427,0.1258,-0.0502,-0.0086,3.1416,rough,14.0,1,12.940
4270,136.64,-0.4865,-5.3426,0.1258,-0.0502,-0.0086,-3.1415,rough,14.0,1,12.940
4280,136.96,-0.4865,-5.3425,0.1258,-0.0502,-0.0086,-3.1413,rough,14.0,1,12.940
4290,137.28,-0.4865,-5.3425,0.1258,-0.0501,-0.0086,-3.1412,rough,14.0,1,12.940
4300,137.60,-0.4866,-5.3425,0.1258,-0.0501,-0.0086,-3.1410,rough,14.0,1,12.940
4310,137.92,-0.4866,-5.3426,0.1258,-0.0500,-0.0086,-3.1407,rough,14.0,1,12.940
4320,138.24,-0.4867,-5.3428,0.1258,-0.0500,-0.0086,-3.1400,rough,14.0,1,12.940
4330,138.56,-0.4869,-5.3434,0.1258,-0.0501,-0.0086,-3.1385,rough,14.0,1,12.941
4340,138.88,-0.4874,-5.3445,0.1258,-0.0501,-0.0086,-3.1357,rough,14.0,1,12.942
4350,139.20,-0.4884,-5.3468,0.1257,-0.0502,-0.0087,-3.1304,rough,14.0,1,12.945
4360,139.52,-0.4888,-5.3513,0.1256,-0.0504,-0.0087,-3.1198,rough,14.0,1,12.949
4370,139.84,-0.4845,-5.3588,0.1247,-0.0501,-0.0049,-3.1062,rough,14.0,1,12.956
4380,140.16,-0.4837,-5.3736,0.1244,-0.0504,-0.0060,-3.0669,rough,14.0,1,12.971
4390,140.48,-0.4823,-5.3898,0.1229,-0.0501,-0.0023,-3.0656,rough,14.0,1,12.987
4400,140.80,-0.4756,-5.4126,0.1224,-0.0504,-0.0050,-3.0295,rough,14.0,1,13.009
4410,141.12,-0.4817,-5.4229,0.1219,-0.0501,-0.0068,-3.0748,rough,14.0,1,13.019
4420,141.44,-0.4847,-5.4299,0.1215,-0.0497,-0.0079,-3.0976,rough,14.0,1,13.027
4430,141.76,-0.4862,-5.4351,0.1213,-0.0495,-0.0085,-3.1097,rough,14.0,1,13.032
4440,142.08,-0.4890,-5.4379,0.1212,-0.0493,-0.0091,-3.1235,rough,14.0,1,13.035
4450,142.40,-0.4899,-5.4395,0.1211,-0.0492,-0.0094,-3.1313,rough,14.0,1,13.037
4460,142.72,-0.4903,-5.4404,0.1210,-0.0491,-0.0096,-3.1357,rough,14.0,1,13.038
4470,143.04,-0.4906,-5.4409,0.1210,-0.0490,-0.0097,-3.1382,rough,14.0,1,13.038
4480,143.36,-0.4907,-5.4412,0.1210,-0.0490,-0.0097,-3.1395,rough,14.0,1,13.039
4490,143.68,-0.4908,-5.4414,0.1210,-0.0489,-0.0097,-3.1403,rough,14.0,1,13.039
4500,144.00,-0.4908,-5.4415,0.1209,-0.0489,-0.0097,-3.1407,rough,14.0,1,13.039
4510,144.32,-0.4908,-5.4416,0.1209,-0.0489,-0.0097,-3.1410,rough,14.0,1,13.039
4520,144.64,-0.4909,-5.4417,0.1209,-0.0489,-0.0096,-3.1413,rough,14.0,1,13.039
4530,144.96,-0.4909,-5.4416,0.1209,-0.0490,-0.0097,3.1415,rough,14.0,1,13.039
4540,145.28,-0.4910,-5.4414,0.1209,-0.0490,-0.0097,3.1405,rough,14.0,1,13.039
4550,145.60,-0.4912,-5.4407,0.1210,-0.0489,-0.0097,3.1387,rough,14.0,1,13.038
4560,145.92,-0.4916,-5.4393,0.1210,-0.0488,-0.0096,3.1352,rough,14.0,1,13.037
4570,146.24,-0.4922,-5.4363,0.1211,-0.0485,-0.0096,3.1285,rough,14.0,1,13.034
4580,146.56,-0.4933,-5.4307,0.1214,-0.0485,-0.0101,3.1160,rough,14.0,1,13.029
4590,146.88,-0.4947,-5.4199,0.1220,-0.0484,-0.0111,3.0937,rough,14.0,1,13.018
4600,147.20,-0.4920,-5.4060,0.1226,-0.0486,-0.0117,3.0819,rough,14.0,1,13.004
4610,147.52,-0.4895,-5.3934,0.1232,-0.0487,-0.0116,3.0821,rough,14.0,1,12.991
4620,147.84,-0.4872,-5.3811,0.1238,-0.0489,-0.0114,3.0837,rough,14.0,1,12.979
4630,148.16,-0.4866,-5.3714,0.1243,-0.0491,-0.0108,3.0934,rough,14.0,1,12.969
4640,148.48,-0.4864,-5.3643,0.1247,-0.0493,-0.0102,3.1046,rough,14.0,1,12.962
4650,148.80,-0.4864,-5.3590,0.1249,-0.0494,-0.0097,3.1136,rough,14.0,1,12.957
4660,149.12,-0.4864,-5.3550,0.1251,-0.0496,-0.0093,3.1204,rough,14.0,1,12.953
4670,149.44,-0.4864,-5.3520,0.1253,-0.0497,-0.0090,3.1257,rough,14.0,1,12.950
4680,149.76,-0.4864,-5.3497,0.1254,-0.0497,-0.0088,3.1298,rough,14.0,1,12.947
4690,150.08,-0.4865,-5.3480,0.1255,-0.0498,-0.0086,3.1328,rough,14.0,1,12.946
4700,150.40,-0.4865,-5.3468,0.1256,-0.0498,-0.0086,3.1351,rough,14.0,1,12.944
4710,150.72,-0.4865,-5.3458,0.1256,-0.0499,-0.0085,3.1367,rough,14.0,1,12.943
4720,151.04,-0.4865,-5.3451,0.1257,-0.0500,-0.0085,3.1381,rough,14.0,1,12.943
4730,151.36,-0.4866,-5.3445,0.1257,-0.0500,-0.0085,3.1391,rough,14.0,1,12.942
4740,151.68,-0.4866,-5.3441,0.1257,-0.0500,-0.0085,3.1397,rough,14.0,1,12.942
4750,152.00,-0.4865,-5.3437,0.1257,-0.0501,-0.0085,3.1402,rough,14.0,1,12.941
4760,152.32,-0.4865,-5.3434,0.1258,-0.0501,-0.0085,3.1406,rough,14.0,1,12.941
4770,152.64,-0.4865,-5.3432,0.1258,-0.0501,-0.0086,3.1409,rough,14.0,1,12.941
4780,152.96,-0.4865,-5.3430,0.1258,-0.0501,-0.0086,3.1411,rough,14.0,1,12.941
4790,153.28,-0.4865,-5.3429,0.1258,-0.0502,-0.0086,3.1413,rough,14.0,1,12.940
4800,153.60,-0.4865,-5.3427,0.1258,-0.0502,-0.0086,3.1415,rough,14.0,1,12.940
4810,153.92,-0.4865,-5.3426,0.1258,-0.0502,-0.0086,-3.1416,rough,14.0,1,12.940
4820,154.24,-0.4865,-5.3426,0.1258,-0.0502,-0.0086,-3.1414,rough,14.0,1,12.940
4830,154.56,-0.4865,-5.3425,0.1258,-0.0501,-0.0086,-3.1413,rough,14.0,1,12.940
4840,154.88,-0.4865,-5.3425,0.1258,-0.0501,-0.0086,-3.1411,rough,14.0,1,12.940
4850,155.20,-0.4866,-5.3425,0.1258,-0.0500,-0.0086,-3.1409,rough,14.0,1,12.940
4860,155.52,-0.4866,-5.3427,0.1258,-0.0500,-0.0086,-3.1404,rough,14.0,1,12.940
4870,155.84,-0.4868,-5.3430,0.1258,-0.0501,-0.0086,-3.1395,rough,14.0,1,12.941
4880,156.16,-0.4871,-5.3438,0.1258,-0.0501,-0.0086,-3.1375,rough,14.0,1,12.941
4890,156.48,-0.4878,-5.3453,0.1258,-0.0502,-0.0086,-3.1339,rough,14.0,1,12.943
4900,156.80,-0.4890,-5.3484,0.1257,-0.0503,-0.0087,-3.1267,rough,14.0,1,12.946
4910,157.12,-0.4895,-5.3541,0.1240,-0.0501,0.0009,-3.1185,rough,14.0,1,12.952
4920,157.44,-0.4841,-5.3640,0.1246,-0.0501,-0.0057,-3.0928,rough,14.0,1,12.961
4930,157.76,-0.4852,-5.3829,0.1219,-0.0504,0.0072,-3.0612,rough,14.0,1,12.980
4940,158.08,-0.4774,-5.4006,0.1227,-0.0502,-0.0034,-3.0351,rough,14.0,1,12.997
4950,158.40,-0.4777,-5.4179,0.1221,-0.0503,-0.0060,-3.0526,rough,14.0,1,13.014
4960,158.72,-0.4826,-5.4263,0.1217,-0.0499,-0.0074,-3.0873,rough,14.0,1,13.023
4970,159.04,-0.4853,-5.4326,0.1214,-0.0496,-0.0082,-3.1031,rough,14.0,1,13.030
4980,159.36,-0.4878,-5.4368,0.1212,-0.0494,-0.0088,-3.1164,rough,14.0,1,13.034
4990,159.68,-0.4894,-5.4390,0.1211,-0.0493,-0.0093,-3.1273,rough,14.0,1,13.036
5000,160.00,-0.4901,-5.4402,0.1210,-0.0491,-0.0095,-3.1335,rough,14.0,1,13.038
5010,160.32,-0.4904,-5.4409,0.1210,-0.0490,-0.0096,-3.1369,rough,14.0,1,13.038
5020,160.64,-0.4906,-5.4413,0.1210,-0.0490,-0.0097,-3.1388,rough,14.0,1,13.039
5030,160.96,-0.4907,-5.4416,0.1209,-0.0489,-0.0097,-3.1399,rough,14.0,1,13.039
5040,161.28,-0.4908,-5.4418,0.1209,-0.0489,-0.0097,-3.1405,rough,14.0,1,13.039
5050,161.60,-0.4908,-5.4419,0.1209,-0.0489,-0.0097,-3.1409,rough,14.0,1,13.039
5060,161.92,-0.4909,-5.4420,0.1209,-0.0489,-0.0097,-3.1411,rough,14.0,1,13.039
5070,162.24,-0.4909,-5.4420,0.1209,-0.0490,-0.0096,-3.1414,rough,14.0,1,13.039
5080,162.56,-0.4909,-5.4419,0.1209,-0.0490,-0.0097,3.1411,rough,14.0,1,13.039
5090,162.88,-0.4911,-5.4414,0.1209,-0.0489,-0.0097,3.1399,rough,14.0,1,13.039
5100,163.20,-0.4913,-5.4405,0.1210,-0.0488,-0.0097,3.1374,rough,14.0,1,13.038
5110,163.52,-0.4918,-5.4385,0.1210,-0.0487,-0.0096,3.1327,rough,14.0,1,13.036
5120,163.84,-0.4926,-5.4346,0.1212,-0.0485,-0.0098,3.1238,rough,14.0,1,13.032
5130,164.16,-0.4939,-5.4270,0.1216,-0.0485,-0.0105,3.1077,rough,14.0,1,13.025
5140,164.48,-0.4939,-5.4137,0.1223,-0.0485,-0.0116,3.0847,rough,14.0,1,13.012
5150,164.80,-0.4908,-5.4006,0.1229,-0.0486,-0.0116,3.0816,rough,14.0,1,12.998
5160,165.12,-0.4883,-5.3879,0.1235,-0.0488,-0.0115,3.0819,rough,14.0,1,12.985
5170,165.44,-0.4868,-5.3765,0.1241,-0.0490,-0.0112,3.0873,rough,14.0,1,12.974
5180,165.76,-0.4865,-5.3680,0.1245,-0.0492,-0.0105,3.0985,rough,14.0,1,12.966
5190,166.08,-0.4864,-5.3618,0.1248,-0.0494,-0.0099,3.1088,rough,14.0,1,12.959
5200,166.40,-0.4864,-5.3571,0.1250,-0.0495,-0.0095,3.1167,rough,14.0,1,12.955
5210,166.72,-0.4864,-5.3536,0.1252,-0.0496,-0.0092,3.1229,rough,14.0,1,12.951
5220,167.04,-0.4864,-5.3509,0.1253,-0.0497,-0.0089,3.1276,rough,14.0,1,12.948
5230,167.36,-0.4865,-5.3489,0.1254,-0.0498,-0.0087,3.1312,rough,14.0,1,12.947
5240,167.68,-0.4865,-5.3474,0.1255,-0.0498,-0.0086,3.1339,rough,14.0,1,12.945
5250,168.00,-0.4865,-5.3463,0.1256,-0.0499,-0.0085,3.1359,rough,14.0,1,12.944
5260,168.32,-0.4865,-5.3454,0.1256,-0.0499,-0.0085,3.1373,rough,14.0,1,12.943
5270,168.64,-0.4866,-5.3448,0.1257,-0.0500,-0.0085,3.1386,rough,14.0,1,12.942
5280,168.96,-0.4866,-5.3443,0.1257,-0.0500,-0.0085,3.1394,rough,14.0,1,12.942
5290,169.28,-0.4865,-5.3439,0.1257,-0.0501,-0.0085,3.1400,rough,14.0,1,12.942
5300,169.60,-0.4865,-5.3436,0.1258,-0.0501,-0.0085,3.1404,rough,14.0,1,12.941
5310,169.92,-0.4865,-5.3433,0.1258,-0.0501,-0.0086,3.1407,rough,14.0,1,12.941
5320,170.24,-0.4865,-5.3431,0.1258,-0.0501,-0.0086,3.1410,rough,14.0,1,12.941
5330,170.56,-0.4865,-5.3429,0.1258,-0.0502,-0.0086,3.1412,rough,14.0,1,12.941
5340,170.88,-0.4865,-5.3428,0.1258,-0.0502,-0.0086,3.1414,rough,14.0,1,12.940
5350,171.20,-0.4865,-5.3427,0.1258,-0.0502,-0.0086,3.1415,rough,14.0,1,12.940
5360,171.52,-0.4865,-5.3426,0.1258,-0.0502,-0.0086,-3.1415,rough,14.0,1,12.940
5370,171.84,-0.4865,-5.3425,0.1258,-0.0502,-0.0086,-3.1413,rough,14.0,1,12.940
5380,172.16,-0.4865,-5.3425,0.1258,-0.0501,-0.0086,-3.1412,rough,14.0,1,12.940
5390,172.48,-0.4865,-5.3425,0.1258,-0.0501,-0.0086,-3.1410,rough,14.0,1,12.940
5400,172.80,-0.4866,-5.3426,0.1258,-0.0500,-0.0086,-3.1407,rough,14.0,1,12.940
5410,173.12,-0.4867,-5.3428,0.1258,-0.0500,-0.0086,-3.1401,rough,14.0,1,12.940
5420,173.44,-0.4869,-5.3433,0.1258,-0.0501,-0.0086,-3.1388,rough,14.0,1,12.941
5430,173.76,-0.4873,-5.3443,0.1258,-0.0501,-0.0086,-3.1362,rough,14.0,1,12.942
5440,174.08,-0.4882,-5.3464,0.1257,-0.0502,-0.0087,-3.1313,rough,14.0,1,12.944
5450,174.40,-0.4899,-5.3505,0.1256,-0.0504,-0.0086,-3.1216,rough,14.0,1,12.949
5460,174.72,-0.4859,-5.3565,0.1246,-0.0501,-0.0041,-3.1153,rough,14.0,1,12.954
5470,175.04,-0.4844,-5.3676,0.1246,-0.0502,-0.0063,-3.0861,rough,14.0,1,12.965
5480,175.36,-0.4858,-5.3811,0.1231,-0.0499,-0.0011,-3.0853,rough,14.0,1,12.978
5490,175.68,-0.4755,-5.4036,0.1228,-0.0504,-0.0045,-3.0252,rough,14.0,1,13.000
5500,176.00,-0.4797,-5.4179,0.1221,-0.0503,-0.0063,-3.0611,rough,14.0,1,13.014
5510,176.32,-0.4832,-5.4261,0.1217,-0.0499,-0.0075,-3.0893,rough,14.0,1,13.023
5520,176.64,-0.4857,-5.4319,0.1214,-0.0496,-0.0083,-3.1049,rough,14.0,1,13.029
5530,176.96,-0.4877,-5.4360,0.1212,-0.0494,-0.0089,-3.1168,rough,14.0,1,13.033
5540,177.28,-0.4894,-5.4381,0.1211,-0.0493,-0.0093,-3.1276,rough,14.0,1,13.035
5550,177.60,-0.4901,-5.4394,0.1211,-0.0492,-0.0095,-3.1336,rough,14.0,1,13.037
5560,177.92,-0.4904,-5.4401,0.1210,-0.0491,-0.0096,-3.1370,rough,14.0,1,13.037
5570,178.24,-0.4906,-5.4405,0.1210,-0.0490,-0.0097,-3.1389,rough,14.0,1,13.038
5580,178.56,-0.4907,-5.4407,0.1210,-0.0489,-0.0097,-3.1399,rough,14.0,1,13.038
5590,178.88,-0.4908,-5.4409,0.1210,-0.0489,-0.0097,-3.1405,rough,14.0,1,13.038
5600,179.20,-0.4908,-5.4410,0.1210,-0.0489,-0.0097,-3.1409,rough,14.0,1,13.038
5610,179.52,-0.4909,-5.4411,0.1210,-0.0489,-0.0096,-3.1411,rough,14.0,1,13.039
5620,179.84,-0.4909,-5.4411,0.1210,-0.0490,-0.0096,-3.1414,rough,14.0,1,13.039
5630,180.16,-0.4909,-5.4410,0.1210,-0.0490,-0.0097,3.1412,rough,14.0,1,13.038
5640,180.48,-0.4911,-5.4406,0.1210,-0.0489,-0.0097,3.1399,rough,14.0,1,13.038
5650,180.80,-0.4913,-5.4397,0.1210,-0.0489,-0.0096,3.1376,rough,14.0,1,13.037
5660,181.12,-0.4918,-5.4377,0.1211,-0.0487,-0.0096,3.1329,rough,14.0,1,13.035
5670,181.44,-0.4926,-5.4339,0.1212,-0.0485,-0.0097,3.1242,rough,14.0,1,13.032
5680,181.76,-0.4938,-5.4265,0.1216,-0.0485,-0.0104,3.1084,rough,14.0,1,13.024
5690,182.08,-0.4938,-5.4134,0.1223,-0.0485,-0.0115,3.0857,rough,14.0,1,13.011
5700,182.40,-0.4904,-5.3997,0.1229,-0.0486,-0.0117,3.0803,rough,14.0,1,12.997
5710,182.72,-0.4880,-5.3868,0.1236,-0.0488,-0.0116,3.0806,rough,14.0,1,12.984
5720,183.04,-0.4868,-5.3757,0.1241,-0.0490,-0.0111,3.0879,rough,14.0,1,12.973
5730,183.36,-0.4865,-5.3674,0.1245,-0.0492,-0.0105,3.0994,rough,14.0,1,12.965
5740,183.68,-0.4864,-5.3613,0.1248,-0.0494,-0.0099,3.1096,rough,14.0,1,12.959
5750,184.00,-0.4864,-5.3568,0.1250,-0.0495,-0.0095,3.1173,rough,14.0,1,12.954
5760,184.32,-0.4864,-5.3533,0.1252,-0.0496,-0.0091,3.1234,rough,14.0,1,12.951
5770,184.64,-0.4864,-5.3507,0.1254,-0.0497,-0.0089,3.1280,rough,14.0,1,12.948
5780,184.96,-0.4865,-5.3488,0.1255,-0.0498,-0.0087,3.1315,rough,14.0,1,12.946
5790,185.28,-0.4865,-5.3473,0.1255,-0.0498,-0.0086,3.1341,rough,14.0,1,12.945
5800,185.60,-0.4865,-5.3462,0.1256,-0.0499,-0.0085,3.1360,rough,14.0,1,12.944
5810,185.92,-0.4865,-5.3454,0.1256,-0.0499,-0.0085,3.1374,rough,14.0,1,12.943
5820,186.24,-0.4866,-5.3448,0.1257,-0.0500,-0.0085,3.1387,rough,14.0,1,12.942
5830,186.56,-0.4866,-5.3443,0.1257,-0.0500,-0.0085,3.1394,rough,14.0,1,12.942
5840,186.88,-0.4865,-5.3439,0.1257,-0.0501,-0.0085,3.1400,rough,14.0,1,12.942
5850,187.20,-0.4865,-5.3436,0.1258,-0.0501,-0.0085,3.1404,rough,14.0,1,12.941
5860,187.52,-0.4865,-5.3433,0.1258,-0.0501,-0.0086,3.1408,rough,14.0,1,12.941
5870,187.84,-0.4865,-5.3431,0.1258,-0.0501,-0.0086,3.1410,rough,14.0,1,12.941
5880,188.16,-0.4865,-5.3429,0.1258,-0.0502,-0.0086,3.1413,rough,14.0,1,12.941
5890,188.48,-0.4865,-5.3428,0.1258,-0.0502,-0.0086,3.1414,rough,14.0,1,12.940
5900,188.80,-0.4865,-5.3427,0.1258,-0.0502,-0.0086,3.1416,rough,14.0,1,12.940
5910,189.12,-0.4865,-5.3426,0.1258,-0.0502,-0.0086,-3.1415,rough,14.0,1,12.940
5920,189.44,-0.4865,-5.3425,0.1258,-0.0502,-0.0086,-3.1413,rough,14.0,1,12.940
5930,189.76,-0.4865,-5.3425,0.1258,-0.0501,-0.0086,-3.1412,rough,14.0,1,12.940
5940,190.08,-0.4866,-5.3425,0.1258,-0.0501,-0.0086,-3.1410,rough,14.0,1,12.940
5950,190.40,-0.4866,-5.3426,0.1258,-0.0500,-0.0086,-3.1407,rough,14.0,1,12.940
5960,190.72,-0.4867,-5.3428,0.1258,-0.0500,-0.0086,-3.1400,rough,14.0,1,12.940
5970,191.04,-0.4869,-5.3433,0.1258,-0.0501,-0.0086,-3.1386,rough,14.0,1,12.941
5980,191.36,-0.4874,-5.3444,0.1258,-0.0501,-0.0086,-3.1359,rough,14.0,1,12.942
5990,191.68,-0.4883,-5.3467,0.1257,-0.0502,-0.0087,-3.1307,rough,14.0,1,12.944
6000,192.00,-0.4900,-5.3510,0.1256,-0.0504,-0.0086,-3.1204,rough,14.0,1,12.949
6010,192.32,-0.4853,-5.3571,0.1247,-0.0501,-0.0047,-3.1135,rough,14.0,1,12.955
6020,192.64,-0.4848,-5.3690,0.1245,-0.0502,-0.0063,-3.0823,rough,14.0,1,12.966
6030,192.96,-0.4846,-5.3825,0.1232,-0.0500,-0.0020,-3.0812,rough,14.0,1,12.980
6040,193.28,-0.4749,-5.4055,0.1227,-0.0505,-0.0047,-3.0234,rough,14.0,1,13.001
6050,193.60,-0.4796,-5.4186,0.1221,-0.0502,-0.0065,-3.0652,rough,14.0,1,13.015
6060,193.92,-0.4839,-5.4265,0.1217,-0.0498,-0.0076,-3.0918,rough,14.0,1,13.023
6070,194.24,-0.4861,-5.4322,0.1214,-0.0496,-0.0084,-3.1067,rough,14.0,1,13.029
6080,194.56,-0.4880,-5.4361,0.1212,-0.0494,-0.0089,-3.1181,rough,14.0,1,13.033
6090,194.88,-0.4895,-5.4382,0.1211,-0.0493,-0.0093,-3.1283,rough,14.0,1,13.036
6100,195.20,-0.4901,-5.4393,0.1211,-0.0491,-0.0095,-3.1340,rough,14.0,1,13.037
6110,195.52,-0.4905,-5.4400,0.1210,-0.0490,-0.0096,-3.1372,rough,14.0,1,13.037
6120,195.84,-0.4906,-5.4404,0.1210,-0.0490,-0.0097,-3.1390,rough,14.0,1,13.038
6130,196.16,-0.4907,-5.4406,0.1210,-0.0489,-0.0097,-3.1400,rough,14.0,1,13.038
6140,196.48,-0.4908,-5.4408,0.1210,-0.0489,-0.0097,-3.1406,rough,14.0,1,13.038
6150,196.80,-0.4908,-5.4409,0.1210,-0.0489,-0.0097,-3.1409,rough,14.0,1,13.038
6160,197.12,-0.4909,-5.4410,0.1210,-0.0489,-0.0096,-3.1412,rough,14.0,1,13.038
6170,197.44,-0.4909,-5.4410,0.1210,-0.0490,-0.0096,-3.1415,rough,14.0,1,13.038
6180,197.76,-0.4909,-5.4408,0.1210,-0.0490,-0.0097,3.1411,rough,14.0,1,13.038
6190,198.08,-0.4911,-5.4404,0.1210,-0.0489,-0.0097,3.1398,rough,14.0,1,13.038
6200,198.40,-0.4913,-5.4394,0.1210,-0.0489,-0.0096,3.1373,rough,14.0,1,13.037
6210,198.72,-0.4918,-5.4374,0.1211,-0.0487,-0.0096,3.1324,rough,14.0,1,13.035
6220,199.04,-0.4927,-5.4333,0.1213,-0.0485,-0.0098,3.1233,rough,14.0,1,13.031
6230,199.36,-0.4939,-5.4255,0.1217,-0.0485,-0.0105,3.1066,rough,14.0,1,13.023
6240,199.68,-0.4937,-5.4121,0.1223,-0.0485,-0.0116,3.0846,rough,14.0,1,13.010
6250,200.00,-0.4903,-5.3985,0.1230,-0.0486,-0.0117,3.0803,rough,14.0,1,12.996
6260,200.32,-0.4878,-5.3856,0.1236,-0.0488,-0.0116,3.0808,rough,14.0,1,12.983
6270,200.64,-0.4867,-5.3748,0.1242,-0.0490,-0.0111,3.0889,rough,14.0,1,12.972
6280,200.96,-0.4865,-5.3668,0.1245,-0.0492,-0.0104,3.1005,rough,14.0,1,12.964
6290,201.28,-0.4864,-5.3608,0.1248,-0.0494,-0.0098,3.1105,rough,14.0,1,12.958
6300,201.60,-0.4864,-5.3564,0.1251,-0.0495,-0.0094,3.1180,rough,14.0,1,12.954
6310,201.92,-0.4864,-5.3530,0.1252,-0.0496,-0.0091,3.1239,rough,14.0,1,12.951
6320,202.24,-0.4864,-5.3505,0.1254,-0.0497,-0.0089,3.1284,rough,14.0,1,12.948
6330,202.56,-0.4865,-5.3486,0.1255,-0.0498,-0.0087,3.1318,rough,14.0,1,12.946
6340,202.88,-0.4865,-5.3472,0.1255,-0.0498,-0.0086,3.1343,rough,14.0,1,12.945
6350,203.20,-0.4865,-5.3461,0.1256,-0.0499,-0.0085,3.1362,rough,14.0,1,12.944
6360,203.52,-0.4865,-5.3453,0.1256,-0.0499,-0.0085,3.1376,rough,14.0,1,12.943
6370,203.84,-0.4866,-5.3447,0.1257,-0.0500,-0.0085,3.1388,rough,14.0,1,12.942
6380,204.16,-0.4866,-5.3442,0.1257,-0.0500,-0.0085,3.1395,rough,14.0,1,12.942
6390,204.48,-0.4865,-5.3438,0.1257,-0.0501,-0.0085,3.1401,rough,14.0,1,12.941
6400,204.80,-0.4865,-5.3435,0.1258,-0.0501,-0.0085,3.1405,rough,14.0,1,12.941
6410,205.12,-0.4865,-5.3433,0.1258,-0.0501,-0.0086,3.1408,rough,14.0,1,12.941
6420,205.44,-0.4865,-5.3431,0.1258,-0.0501,-0.0086,3.1411,rough,14.0,1,12.941
6430,205.76,-0.4865,-5.3429,0.1258,-0.0502,-0.0086,3.1413,rough,14.0,1,12.941
6440,206.08,-0.4865,-5.3428,0.1258,-0.0502,-0.0086,3.1414,rough,14.0,1,12.940
6450,206.40,-0.4865,-5.3427,0.1258,-0.0502,-0.0086,3.1416,rough,14.0,1,12.940
6460,206.72,-0.4865,-5.3426,0.1258,-0.0502,-0.0086,-3.1415,rough,14.0,1,12.940
6470,207.04,-0.4865,-5.3425,0.1258,-0.0502,-0.0086,-3.1413,rough,14.0,1,12.940
6480,207.36,-0.4865,-5.3425,0.1258,-0.0501,-0.0086,-3.1412,rough,14.0,1,12.940
6490,207.68,-0.4866,-5.3425,0.1258,-0.0501,-0.0086,-3.1410,rough,14.0,1,12.940
6500,208.00,-0.4866,-5.3426,0.1258,-0.0500,-0.0086,-3.1406,rough,14.0,1,12.940
6510,208.32,-0.4867,-5.3428,0.1258,-0.0500,-0.0086,-3.1399,rough,14.0,1,12.941
6520,208.64,-0.4870,-5.3434,0.1258,-0.0501,-0.0086,-3.1384,rough,14.0,1,12.941
6530,208.96,-0.4875,-5.3446,0.1258,-0.0501,-0.0086,-3.1355,rough,14.0,1,12.942
6540,209.28,-0.4884,-5.3470,0.1257,-0.0503,-0.0087,-3.1300,rough,14.0,1,12.945
6550,209.60,-0.4889,-5.3516,0.1255,-0.0504,-0.0087,-3.1190,rough,14.0,1,12.949
6560,209.92,-0.4844,-5.3594,0.1246,-0.0501,-0.0049,-3.1048,rough,14.0,1,12.957
6570,210.24,-0.4835,-5.3747,0.1243,-0.0504,-0.0060,-3.0643,rough,14.0,1,12.972
6580,210.56,-0.4822,-5.3911,0.1229,-0.0501,-0.0023,-3.0649,rough,14.0,1,12.988
6590,210.88,-0.4757,-5.4136,0.1223,-0.0503,-0.0050,-3.0313,rough,14.0,1,13.010
6600,211.20,-0.4817,-5.4237,0.1218,-0.0500,-0.0069,-3.0758,rough,14.0,1,13.020
6610,211.52,-0.4847,-5.4306,0.1215,-0.0497,-0.0079,-3.0983,rough,14.0,1,13.027
6620,211.84,-0.4865,-5.4351,0.1213,-0.0495,-0.0087,-3.1140,rough,14.0,1,13.032
6630,212.16,-0.4888,-5.4387,0.1211,-0.0493,-0.0091,-3.1226,rough,14.0,1,13.036
6640,212.48,-0.4898,-5.4404,0.1210,-0.0492,-0.0094,-3.1309,rough,14.0,1,13.038
6650,212.80,-0.4903,-5.4413,0.1210,-0.0491,-0.0096,-3.1354,rough,14.0,1,13.039
6660,213.12,-0.4905,-5.4419,0.1209,-0.0490,-0.0097,-3.1380,rough,14.0,1,13.039
6670,213.44,-0.4907,-5.4422,0.1209,-0.0490,-0.0097,-3.1395,rough,14.0,1,13.040
6680,213.76,-0.4908,-5.4424,0.1209,-0.0489,-0.0097,-3.1403,rough,14.0,1,13.040
6690,214.08,-0.4908,-5.4425,0.1209,-0.0489,-0.0097,-3.1407,rough,14.0,1,13.040
6700,214.40,-0.4908,-5.4426,0.1209,-0.0489,-0.0097,-3.1410,rough,14.0,1,13.040
6710,214.72,-0.4909,-5.4427,0.1209,-0.0489,-0.0097,-3.1413,rough,14.0,1,13.040
6720,215.04,-0.4909,-5.4426,0.1209,-0.0490,-0.0097,3.1415,rough,14.0,1,13.040
6730,215.36,-0.4910,-5.4424,0.1209,-0.0490,-0.0097,3.1406,rough,14.0,1,13.040
6740,215.68,-0.4912,-5.4417,0.1209,-0.0489,-0.0097,3.1387,rough,14.0,1,13.039
6750,216.00,-0.4916,-5.4403,0.1210,-0.0488,-0.0096,3.1352,rough,14.0,1,13.038
6760,216.32,-0.4922,-5.4374,0.1211,-0.0485,-0.0096,3.1285,rough,14.0,1,13.035
6770,216.64,-0.4933,-5.4317,0.1213,-0.0485,-0.0101,3.1161,rough,14.0,1,13.030
6780,216.96,-0.4947,-5.4209,0.1219,-0.0484,-0.0111,3.0938,rough,14.0,1,13.019
6790,217.28,-0.4916,-5.4061,0.1226,-0.0485,-0.0119,3.0784,rough,14.0,1,13.004
6800,217.60,-0.4890,-5.3927,0.1233,-0.0487,-0.0118,3.0786,rough,14.0,1,12.990
6810,217.92,-0.4871,-5.3803,0.1239,-0.0489,-0.0115,3.0828,rough,14.0,1,12.978
6820,218.24,-0.4866,-5.3708,0.1243,-0.0491,-0.0108,3.0941,rough,14.0,1,12.968
6830,218.56,-0.4864,-5.3639,0.1247,-0.0493,-0.0101,3.1053,rough,14.0,1,12.961
6840,218.88,-0.4864,-5.3587,0.1250,-0.0495,-0.0096,3.1141,rough,14.0,1,12.956
6850,219.20,-0.4864,-5.3547,0.1251,-0.0496,-0.0093,3.1208,rough,14.0,1,12.952
6860,219.52,-0.4864,-5.3518,0.1253,-0.0497,-0.0090,3.1261,rough,14.0,1,12.949
6870,219.84,-0.4864,-5.3496,0.1254,-0.0497,-0.0088,3.1300,rough,14.0,1,12.947
6880,220.16,-0.4865,-5.3479,0.1255,-0.0498,-0.0086,3.1330,rough,14.0,1,12.946
6890,220.48,-0.4865,-5.3467,0.1256,-0.0499,-0.0085,3.1352,rough,14.0,1,12.944
6900,220.80,-0.4865,-5.3457,0.1256,-0.0499,-0.0085,3.1368,rough,14.0,1,12.943
6910,221.12,-0.4865,-5.3450,0.1257,-0.0500,-0.0085,3.1382,rough,14.0,1,12.943
6920,221.44,-0.4866,-5.3445,0.1257,-0.0500,-0.0085,3.1391,rough,14.0,1,12.942
6930,221.76,-0.4866,-5.3440,0.1257,-0.0500,-0.0085,3.1398,rough,14.0,1,12.942
6940,222.08,-0.4865,-5.3437,0.1257,-0.0501,-0.0085,3.1403,rough,14.0,1,12.941
6950,222.40,-0.4865,-5.3434,0.1258,-0.0501,-0.0085,3.1406,rough,14.0,1,12.941
6960,222.72,-0.4865,-5.3432,0.1258,-0.0501,-0.0086,3.1409,rough,14.0,1,12.941
6970,223.04,-0.4865,-5.3430,0.1258,-0.0501,-0.0086,3.1412,rough,14.0,1,12.941
6980,223.36,-0.4865,-5.3428,0.1258,-0.0502,-0.0086,3.1413,rough,14.0,1,12.940
6990,223.68,-0.4865,-5.3427,0.1258,-0.0502,-0.0086,3.1415,rough,14.0,1,12.940
7000,224.00,-0.4865,-5.3426,0.1258,-0.0502,-0.0086,-3.1415,rough,14.0,1,12.940
7010,224.32,-0.4865,-5.3425,0.1258,-0.0502,-0.0086,-3.1414,rough,14.0,1,12.940
7020,224.64,-0.4865,-5.3425,0.1258,-0.0501,-0.0086,-3.1412,rough,14.0,1,12.940
7030,224.96,-0.4865,-5.3425,0.1258,-0.0501,-0.0086,-3.1411,rough,14.0,1,12.940
7040,225.28,-0.4866,-5.3425,0.1258,-0.0500,-0.0086,-3.1409,rough,14.0,1,12.940
7050,225.60,-0.4867,-5.3427,0.1258,-0.0500,-0.0086,-3.1404,rough,14.0,1,12.940
7060,225.92,-0.4868,-5.3430,0.1258,-0.0501,-0.0086,-3.1394,rough,14.0,1,12.941
7070,226.24,-0.4871,-5.3438,0.1258,-0.0501,-0.0086,-3.1373,rough,14.0,1,12.942
7080,226.56,-0.4878,-5.3455,0.1257,-0.0502,-0.0086,-3.1335,rough,14.0,1,12.943
7090,226.88,-0.4891,-5.3487,0.1257,-0.0503,-0.0087,-3.1259,rough,14.0,1,12.947
7100,227.20,-0.4882,-5.3546,0.1242,-0.0501,-0.0008,-3.1171,rough,14.0,1,12.952
7110,227.52,-0.4836,-5.3650,0.1246,-0.0501,-0.0058,-3.0899,rough,14.0,1,12.962
7120,227.84,-0.4861,-5.3835,0.1223,-0.0502,0.0044,-3.0676,rough,14.0,1,12.981
7130,228.16,-0.4764,-5.4026,0.1227,-0.0503,-0.0037,-3.0294,rough,14.0,1,12.999
7140,228.48,-0.4788,-5.4185,0.1221,-0.0503,-0.0061,-3.0564,rough,14.0,1,13.015
7150,228.80,-0.4829,-5.4269,0.1217,-0.0499,-0.0075,-3.0874,rough,14.0,1,13.024
7160,229.12,-0.4856,-5.4327,0.1214,-0.0496,-0.0083,-3.1046,rough,14.0,1,13.030
7170,229.44,-0.4876,-5.4369,0.1212,-0.0494,-0.0088,-3.1162,rough,14.0,1,13.034
7180,229.76,-0.4894,-5.4391,0.1211,-0.0493,-0.0093,-3.1272,rough,14.0,1,13.036
7190,230.08,-0.4901,-5.4404,0.1210,-0.0492,-0.0095,-3.1334,rough,14.0,1,13.038
7200,230.40,-0.4904,-5.4411,0.1210,-0.0491,-0.0097,-3.1369,rough,14.0,1,13.039
7210,230.72,-0.4906,-5.4415,0.1210,-0.0490,-0.0097,-3.1388,rough,14.0,1,13.039
7220,231.04,-0.4907,-5.4418,0.1209,-0.0489,-0.0097,-3.1399,rough,14.0,1,13.039
7230,231.36,-0.4908,-5.4420,0.1209,-0.0489,-0.0097,-3.1405,rough,14.0,1,13.039
7240,231.68,-0.4908,-5.4421,0.1209,-0.0489,-0.0097,-3.1409,rough,14.0,1,13.040
7250,232.00,-0.4908,-5.4421,0.1209,-0.0489,-0.0097,-3.1411,rough,14.0,1,13.040
7260,232.32,-0.4909,-5.4422,0.1209,-0.0490,-0.0097,-3.1414,rough,14.0,1,13.040
7270,232.64,-0.4909,-5.4420,0.1209,-0.0490,-0.0097,3.1411,rough,14.0,1,13.040
7280,232.96,-0.4911,-5.4416,0.1209,-0.0489,-0.0097,3.1399,rough,14.0,1,13.039
7290,233.28,-0.4913,-5.4407,0.1210,-0.0488,-0.0097,3.1374,rough,14.0,1,13.038
7300,233.60,-0.4918,-5.4387,0.1210,-0.0487,-0.0096,3.1327,rough,14.0,1,13.036
7310,233.92,-0.4927,-5.4348,0.1212,-0.0485,-0.0098,3.1238,rough,14.0,1,13.033
7320,234.24,-0.4939,-5.4272,0.1216,-0.0485,-0.0105,3.1076,rough,14.0,1,13.025
7330,234.56,-0.4939,-5.4139,0.1223,-0.0485,-0.0116,3.0846,rough,14.0,1,13.012
7340,234.88,-0.4908,-5.4007,0.1229,-0.0486,-0.0117,3.0815,rough,14.0,1,12.998
7350,235.20,-0.4884,-5.3880,0.1235,-0.0488,-0.0116,3.0818,rough,14.0,1,12.986
7360,235.52,-0.4868,-5.3766,0.1241,-0.0490,-0.0112,3.0872,rough,14.0,1,12.974
7370,235.84,-0.4865,-5.3681,0.1245,-0.0492,-0.0105,3.0984,rough,14.0,1,12.966
7380,236.16,-0.4864,-5.3618,0.1248,-0.0493,-0.0099,3.1088,rough,14.0,1,12.959
7390,236.48,-0.4864,-5.3571,0.1250,-0.0495,-0.0095,3.1167,rough,14.0,1,12.955
7400,236.80,-0.4864,-5.3536,0.1252,-0.0496,-0.0092,3.1229,rough,14.0,1,12.951
7410,237.12,-0.4864,-5.3509,0.1253,-0.0497,-0.0089,3.1276,rough,14.0,1,12.949
7420,237.44,-0.4865,-5.3489,0.1254,-0.0498,-0.0087,3.1312,rough,14.0,1,12.947
7430,237.76,-0.4865,-5.3474,0.1255,-0.0498,-0.0086,3.1339,rough,14.0,1,12.945
7440,238.08,-0.4865,-5.3463,0.1256,-0.0499,-0.0085,3.1359,rough,14.0,1,12.944
7450,238.40,-0.4865,-5.3454,0.1256,-0.0499,-0.0085,3.1373,rough,14.0,1,12.943
7460,238.72,-0.4866,-5.3448,0.1257,-0.0500,-0.0085,3.1386,rough,14.0,1,12.942
7470,239.04,-0.4866,-5.3443,0.1257,-0.0500,-0.0085,3.1394,rough,14.0,1,12.942
7480,239.36,-0.4865,-5.3439,0.1257,-0.0501,-0.0085,3.1400,rough,14.0,1,12.942
7490,239.68,-0.4865,-5.3436,0.1258,-0.0501,-0.0085,3.1404,rough,14.0,1,12.941
7500,240.00,-0.4865,-5.3433,0.1258,-0.0501,-0.0086,3.1407,rough,14.0,1,12.941
7510,240.32,-0.4865,-5.3431,0.1258,-0.0501,-0.0086,3.1410,rough,14.0,1,12.941
7520,240.64,-0.4865,-5.3429,0.1258,-0.0502,-0.0086,3.1412,rough,14.0,1,12.941
7530,240.96,-0.4865,-5.3428,0.1258,-0.0502,-0.0086,3.1414,rough,14.0,1,12.940
7540,241.28,-0.4865,-5.3427,0.1258,-0.0502,-0.0086,3.1415,rough,14.0,1,12.940
7550,241.60,-0.4865,-5.3426,0.1258,-0.0502,-0.0086,-3.1415,rough,14.0,1,12.940
7560,241.92,-0.4865,-5.3425,0.1258,-0.0502,-0.0086,-3.1413,rough,14.0,1,12.940
7570,242.24,-0.4865,-5.3425,0.1258,-0.0501,-0.0086,-3.1412,rough,14.0,1,12.940
7580,242.56,-0.4865,-5.3425,0.1258,-0.0501,-0.0086,-3.1410,rough,14.0,1,12.940
7590,242.88,-0.4866,-5.3426,0.1258,-0.0500,-0.0086,-3.1407,rough,14.0,1,12.940
7600,243.20,-0.4867,-5.3428,0.1258,-0.0500,-0.0086,-3.1401,rough,14.0,1,12.940
7610,243.52,-0.4869,-5.3433,0.1258,-0.0501,-0.0086,-3.1388,rough,14.0,1,12.941
7620,243.84,-0.4873,-5.3443,0.1258,-0.0501,-0.0086,-3.1362,rough,14.0,1,12.942
7630,244.16,-0.4882,-5.3464,0.1257,-0.0502,-0.0087,-3.1313,rough,14.0,1,12.944
7640,244.48,-0.4898,-5.3505,0.1256,-0.0503,-0.0086,-3.1217,rough,14.0,1,12.948
7650,244.80,-0.4859,-5.3564,0.1246,-0.0501,-0.0041,-3.1155,rough,14.0,1,12.954
7660,245.12,-0.4844,-5.3674,0.1246,-0.0502,-0.0063,-3.0865,rough,14.0,1,12.965
7670,245.44,-0.4859,-5.3809,0.1231,-0.0499,-0.0011,-3.0855,rough,14.0,1,12.978
7680,245.76,-0.4755,-5.4034,0.1228,-0.0504,-0.0045,-3.0251,rough,14.0,1,12.999
7690,246.08,-0.4797,-5.4178,0.1221,-0.0503,-0.0063,-3.0608,rough,14.0,1,13.014
7700,246.40,-0.4832,-5.4260,0.1217,-0.0499,-0.0075,-3.0891,rough,14.0,1,13.023
7710,246.72,-0.4857,-5.4318,0.1214,-0.0496,-0.0083,-3.1048,rough,14.0,1,13.029
