step,time_s,x,y,z,roll,pitch,yaw,terrain,speed,target_idx,dist_to_target
10,0.32,2.1782,0.5010,0.1829,-0.0000,-0.0284,-0.0000,rough,14.0,0,5.936
20,0.64,2.5993,0.4882,0.1797,0.0003,0.0009,-0.2111,flat,18.0,0,5.712
30,0.96,3.0881,0.3538,0.1799,-0.0000,-0.0000,-0.4466,flat,18.0,0,5.371
40,1.28,3.5467,0.0996,0.1799,-0.0001,-0.0000,-0.6223,flat,18.0,0,4.958
50,1.60,3.9653,-0.2367,0.1799,-0.0003,-0.0000,-0.7505,flat,18.0,0,4.500
60,1.92,4.3430,-0.6262,0.1798,-0.0003,-0.0000,-0.8633,flat,18.0,0,4.021
70,2.24,4.6817,-1.0585,0.1798,-0.0004,-0.0000,-0.9724,flat,18.0,0,3.525
80,2.56,4.9771,-1.5270,0.1798,-0.0004,-0.0000,-1.0787,flat,18.0,0,3.016
90,2.88,5.2251,-2.0253,0.1798,-0.0004,-0.0000,-1.1840,flat,18.0,0,2.498
100,3.20,5.4219,-2.5474,0.1798,-0.0004,-0.0000,-1.2915,flat,18.0,0,1.975
110,3.52,5.5627,-3.0868,0.1799,-0.0004,-0.0000,-1.4077,flat,18.0,0,1.450
120,3.84,5.6395,-3.6359,0.1799,-0.0002,0.0000,-1.5468,flat,18.0,0,0.932
130,4.16,5.6403,-4.1588,0.1799,0.0002,0.0001,-1.8093,flat,18.0,1,12.550
140,4.48,5.5125,-4.5496,0.1799,0.0002,0.0000,-2.2142,flat,18.0,1,12.869
150,4.80,5.2411,-4.8155,0.1799,0.0001,-0.0001,-2.5897,flat,18.0,1,13.028
160,5.12,4.8526,-5.0111,0.1799,0.0000,-0.0000,-2.9409,flat,18.0,1,13.095
170,5.44,4.3789,-5.0800,0.1799,-0.0000,-0.0000,3.0297,flat,18.0,1,13.030
180,5.76,3.8779,-4.9984,0.1799,-0.0000,-0.0000,2.7970,flat,18.0,1,12.831
190,6.08,3.3903,-4.7959,0.1799,-0.0001,-0.0000,2.6279,flat,18.0,1,12.532
200,6.40,2.9325,-4.5096,0.1799,-0.0003,-0.0000,2.5052,flat,18.0,1,12.171
210,6.72,2.5052,-4.1665,0.1798,-0.0003,-0.0000,2.4128,flat,18.0,1,11.771
220,7.04,2.1067,-3.7845,0.1798,-0.0003,-0.0000,2.3345,flat,18.0,1,11.347
230,7.36,1.7345,-3.3710,0.1797,-0.0003,-0.0000,2.2644,flat,18.0,1,10.904
240,7.68,1.3874,-2.9312,0.1797,-0.0002,-0.0000,2.2015,flat,18.0,1,10.447
250,8.00,1.0658,-2.4693,0.1797,-0.0002,-0.0000,2.1451,flat,18.0,1,9.979
260,8.32,0.7684,-1.9894,0.1797,-0.0002,-0.0000,2.0952,flat,18.0,1,9.503
270,8.64,0.4931,-1.4960,0.1797,-0.0002,-0.0000,2.0523,flat,18.0,1,9.021
280,8.96,0.2375,-0.9906,0.1797,-0.0001,-0.0000,2.0131,flat,18.0,1,8.536
290,9.28,0.0007,-0.4750,0.1797,-0.0001,-0.0000,1.9770,flat,18.0,1,8.049
300,9.60,-0.2184,0.0493,0.1797,-0.0001,-0.0000,1.9433,flat,18.0,1,7.562
310,9.92,-0.4206,0.5810,0.1797,-0.0001,-0.0000,1.9116,flat,18.0,1,7.077
320,10.24,-0.6063,1.1191,0.1797,-0.0001,-0.0000,1.8812,flat,18.0,1,6.594
330,10.56,-0.7760,1.6627,0.1797,-0.0001,-0.0000,1.8513,flat,18.0,1,6.116
340,10.88,-0.9295,2.2112,0.1797,-0.0001,-0.0000,1.8210,flat,18.0,1,5.645
350,11.20,-1.0663,2.7636,0.1797,-0.0001,0.0000,1.7887,flat,18.0,1,5.184
360,11.52,-1.1451,3.3011,0.1799,-0.0003,-0.0000,1.6045,flat,18.0,1,4.732
370,11.84,-1.1459,3.8513,0.1799,-0.0001,-0.0000,1.4523,flat,18.0,1,4.251
380,12.16,-1.0668,4.3977,0.1799,-0.0004,-0.0000,1.3366,flat,18.0,1,3.746
390,12.48,-0.9262,4.9332,0.1798,-0.0004,-0.0000,1.2419,flat,18.0,1,3.228
400,12.80,-0.7356,5.4543,0.1798,-0.0004,-0.0000,1.1595,flat,18.0,1,2.702
410,13.12,-0.5024,5.9582,0.1798,-0.0003,-0.0000,1.0837,flat,18.0,1,2.173
420,13.44,-0.2308,6.4431,0.1797,-0.0003,-0.0000,1.0128,flat,18.0,1,1.643
430,13.76,0.0745,6.9080,0.1797,-0.0002,0.0000,0.9457,flat,18.0,1,1.120
440,14.08,0.3757,7.3089,0.1755,0.0000,-0.0279,0.8620,flat,18.0,2,14.758
450,14.40,0.5438,7.4267,0.1736,-0.0352,0.0009,0.1979,flat,18.0,2,14.950
460,14.72,0.8666,7.4792,0.1799,0.0003,-0.0000,-0.2822,flat,18.0,2,15.177
470,15.04,1.2002,7.3450,0.1799,0.0001,-0.0000,-0.6945,flat,18.0,2,15.264
480,15.36,1.4834,7.0389,0.1799,0.0000,-0.0001,-1.0007,flat,18.0,2,15.193
490,15.68,1.7083,6.6177,0.1799,-0.0000,-0.0000,-1.2837,flat,18.0,2,15.007
500,16.00,1.8282,6.1198,0.1799,0.0000,-0.0000,-1.5345,flat,18.0,2,14.706
510,16.32,1.8263,5.5863,0.1799,-0.0001,-0.0000,-1.7314,flat,18.0,2,14.309
520,16.64,1.7215,5.0522,0.1799,-0.0002,-0.0000,-1.8726,flat,18.0,2,13.849
530,16.96,1.5435,4.5315,0.1798,-0.0004,-0.0000,-1.9741,flat,18.0,2,13.353
540,17.28,1.3138,4.0262,0.1798,-0.0003,-0.0000,-2.0512,flat,18.0,2,12.834
550,17.60,1.0455,3.5361,0.1797,-0.0002,-0.0000,-2.1121,flat,18.0,2,12.302
560,17.92,0.7476,3.0601,0.1797,-0.0002,-0.0000,-2.1616,flat,18.0,2,11.759
570,18.24,0.4263,2.5974,0.1797,-0.0001,-0.0000,-2.2008,flat,18.0,2,11.210
580,18.56,0.0868,2.1458,0.1797,-0.0001,-0.0000,-2.2341,flat,18.0,2,10.656
590,18.88,-0.2678,1.7042,0.1797,-0.0001,-0.0000,-2.2630,flat,18.0,2,10.098
600,19.20,-0.6352,1.2716,0.1797,-0.0001,-0.0000,-2.2886,flat,18.0,2,9.537
610,19.52,-1.0137,0.8472,0.1797,-0.0001,-0.0000,-2.3121,flat,18.0,2,8.974
620,19.84,-1.4022,0.4308,0.1797,-0.0001,-0.0000,-2.3333,flat,18.0,2,8.409
630,20.16,-1.7996,0.0220,0.1797,-0.0001,-0.0000,-2.3524,flat,18.0,2,7.843
640,20.48,-2.2048,-0.3797,0.1797,-0.0001,-0.0000,-2.3699,flat,18.0,2,7.275
650,20.80,-2.6171,-0.7748,0.1797,-0.0001,-0.0000,-2.3862,flat,18.0,2,6.707
660,21.12,-3.0358,-1.1634,0.1797,-0.0001,-0.0000,-2.4016,flat,18.0,2,6.138
670,21.44,-3.4605,-1.5458,0.1797,-0.0001,-0.0000,-2.4160,flat,18.0,2,5.568
680,21.76,-3.8905,-1.9224,0.1797,-0.0000,-0.0000,-2.4296,flat,18.0,2,4.998
690,22.08,-4.3255,-2.2933,0.1797,-0.0000,-0.0000,-2.4427,flat,18.0,2,4.428
700,22.40,-4.7653,-2.6585,0.1797,-0.0000,-0.0000,-2.4557,flat,18.0,2,3.857
710,22.72,-5.2099,-3.0179,0.1797,-0.0000,0.0000,-2.4690,flat,18.0,2,3.287
720,23.04,-5.6591,-3.3713,0.1797,-0.0000,0.0000,-2.4831,flat,18.0,2,2.716
730,23.36,-6.1131,-3.7178,0.1797,-0.0001,0.0000,-2.4989,flat,18.0,2,2.146
740,23.68,-6.5721,-4.0560,0.1797,-0.0001,0.0000,-2.5182,flat,18.0,2,1.576
750,24.00,-7.0364,-4.3826,0.1797,-0.0001,0.0000,-2.5467,flat,18.0,2,1.009
760,24.32,-7.5039,-4.6756,0.1798,-0.0001,0.0000,-2.6373,flat,18.0,3,0.940
770,24.64,-7.8633,-4.8480,0.1789,-0.0002,-0.0064,-2.4710,flat,18.0,0,13.212
780,24.96,-8.1037,-5.0733,0.1800,0.0007,0.0001,-1.9905,flat,18.0,0,13.460
790,25.28,-8.2368,-5.4411,0.1799,0.0001,0.0000,-1.5025,flat,18.0,0,13.613
800,25.60,-8.1832,-5.8416,0.1799,0.0002,-0.0000,-1.1352,flat,18.0,0,13.592
810,25.92,-7.9523,-6.2288,0.1799,0.0001,-0.0000,-0.8513,flat,18.0,0,13.406
820,26.24,-7.5907,-6.5682,0.1799,0.0001,-0.0000,-0.6293,flat,18.0,0,13.097
830,26.56,-7.1436,-6.8487,0.1799,0.0001,0.0000,-0.4254,flat,18.0,0,12.703
840,26.88,-6.6375,-7.0498,0.1799,0.0001,-0.0000,-0.2463,flat,18.0,0,12.246
850,27.20,-6.0977,-7.1666,0.1799,0.0001,-0.0000,-0.0962,flat,18.0,0,11.744
860,27.52,-5.5424,-7.2058,0.1799,0.0003,-0.0000,0.0277,flat,18.0,0,11.213
870,27.84,-4.9840,-7.1790,0.1798,0.0004,-0.0000,0.1234,flat,18.0,0,10.665
880,28.16,-4.4289,-7.1008,0.1798,0.0003,-0.0000,0.1994,flat,18.0,0,10.109
890,28.48,-3.8797,-6.9815,0.1797,0.0002,-0.0000,0.2623,flat,18.0,0,9.547
900,28.80,-3.3379,-6.8283,0.1797,0.0002,-0.0000,0.3164,flat,18.0,0,8.984
910,29.12,-2.8042,-6.6461,0.1797,0.0002,-0.0000,0.3647,flat,18.0,0,8.422
920,29.44,-2.2796,-6.4384,0.1797,0.0002,0.0000,0.4087,flat,18.0,0,7.862
930,29.76,-1.7655,-6.2079,0.1797,0.0001,0.0000,0.4494,flat,18.0,0,7.308
940,30.08,-1.2656,-5.9596,0.1797,0.0001,0.0002,0.4697,flat,18.0,0,6.765
950,30.40,-0.7584,-5.7123,0.1797,-0.0002,-0.0000,0.4185,flat,18.0,0,6.218
960,30.72,-0.2375,-5.4912,0.1797,-0.0002,-0.0000,0.3632,flat,18.0,0,5.666
970,31.04,0.2956,-5.2974,0.1797,-0.0002,-0.0000,0.3130,flat,18.0,0,5.109
980,31.36,0.8380,-5.1292,0.1797,-0.0002,0.0000,0.2682,flat,18.0,0,4.548
990,31.68,1.3866,-4.9843,0.1797,-0.0001,-0.0000,0.2281,flat,18.0,0,3.985
1000,32.00,1.9410,-4.8610,0.1797,-0.0001,-0.0000,0.1895,flat,18.0,0,3.421
1010,32.32,2.4997,-4.7587,0.1797,-0.0001,-0.0000,0.1514,flat,18.0,0,2.855
1020,32.64,3.0618,-4.6777,0.1797,-0.0001,-0.0000,0.1119,flat,18.0,0,2.288
1030,32.96,3.6260,-4.6190,0.1797,-0.0002,-0.0000,0.0679,flat,18.0,0,1.722
1040,33.28,4.1903,-4.5860,0.1797,-0.0002,0.0000,0.0121,flat,18.0,0,1.156
1050,33.60,4.7471,-4.5838,0.1798,-0.0002,0.0001,-0.0024,flat,18.0,1,12.655
1060,33.92,5.2494,-4.5629,0.1798,-0.0003,0.0001,0.2748,flat,18.0,1,12.793
1070,34.24,5.6252,-4.4266,0.1799,-0.0001,0.0000,0.6420,flat,18.0,1,12.794
1080,34.56,5.9082,-4.1454,0.1799,-0.0000,-0.0001,0.9687,flat,18.0,1,12.639
1090,34.88,6.1374,-3.7404,0.1799,0.0000,-0.0000,1.2704,flat,18.0,1,12.360
1100,35.20,6.2598,-3.2525,0.1799,0.0000,-0.0000,1.5419,flat,18.0,1,11.971
1110,35.52,6.2514,-2.7269,0.1799,0.0000,-0.0000,1.7609,flat,18.0,1,11.496
1120,35.84,6.1298,-2.2017,0.1799,0.0001,-0.0000,1.9167,flat,18.0,1,10.974
1130,36.16,5.9280,-1.6942,0.1798,0.0004,-0.0000,2.0296,flat,18.0,1,10.431
1140,36.48,5.6698,-1.2068,0.1798,0.0004,-0.0000,2.1160,flat,18.0,1,9.880
1150,36.80,5.3697,-0.7384,0.1797,0.0003,-0.0000,2.1830,flat,18.0,1,9.325
1160,37.12,5.0383,-0.2877,0.1797,0.0002,-0.0000,2.2385,flat,18.0,1,8.773
1170,37.44,4.6819,0.1458,0.1797,0.0002,-0.0000,2.2874,flat,18.0,1,8.225
1180,37.76,4.3043,0.5631,0.1797,0.0002,-0.0000,2.3301,flat,18.0,1,7.684
1190,38.08,3.9087,0.9656,0.1797,0.0001,-0.0000,2.3681,flat,18.0,1,7.154
1200,38.40,3.4978,1.3537,0.1797,0.0001,-0.0000,2.4033,flat,18.0,1,6.636
1210,38.72,3.0738,1.7160,0.1797,0.0002,-0.0000,2.4592,flat,18.0,1,6.147
1220,39.04,2.6308,2.0619,0.1797,0.0002,-0.0000,2.5037,flat,18.0,1,5.681
1230,39.36,2.1725,2.3891,0.1797,0.0002,-0.0000,2.5473,flat,18.0,1,5.249
1240,39.68,1.7000,2.6968,0.1797,0.0002,-0.0000,2.5910,flat,18.0,1,4.861
1250,40.00,1.2145,2.9841,0.1797,0.0002,-0.0000,2.6361,flat,18.0,1,4.530
1260,40.32,0.7168,3.2491,0.1797,0.0002,-0.0000,2.6851,flat,18.0,1,4.271
1270,40.64,0.2826,3.4893,0.1799,0.0000,0.0001,2.4733,flat,18.0,1,4.087
1280,40.96,-0.0711,3.8343,0.1799,-0.0000,-0.0000,2.2337,flat,18.0,1,3.834
1290,41.28,-0.3601,4.2715,0.1799,-0.0000,-0.0000,2.0039,flat,18.0,1,3.520
1300,41.60,-0.5591,4.7709,0.1799,-0.0001,-0.0000,1.7878,flat,18.0,1,3.161
1310,41.92,-0.6546,5.3055,0.1799,-0.0001,-0.0000,1.5858,flat,18.0,1,2.768
1320,42.24,-0.6434,5.8494,0.1799,-0.0001,-0.0000,1.4092,flat,18.0,1,2.349
1330,42.56,-0.5411,6.3775,0.1799,-0.0001,-0.0001,1.2419,flat,18.0,1,1.928
1340,42.88,-0.3470,6.8676,0.1799,-0.0001,-0.0000,1.0622,flat,18.0,1,1.509
1350,43.20,-0.0649,7.3104,0.1799,-0.0001,-0.0000,0.8925,flat,18.0,1,1.102
1360,43.52,0.2833,7.6850,0.1815,-0.0002,0.0111,0.7125,flat,18.0,2,15.021
1370,43.84,0.5279,7.8395,0.1798,-0.0050,0.0056,0.2664,flat,18.0,2,15.284
1380,44.16,0.8833,7.9043,0.1795,0.0005,-0.0021,-0.2552,flat,18.0,2,15.536
1390,44.48,1.2230,7.7805,0.1799,-0.0000,-0.0001,-0.6720,flat,18.0,2,15.630
1400,44.80,1.5104,7.4817,0.1799,0.0000,-0.0001,-0.9797,flat,18.0,2,15.560
1410,45.12,1.7231,7.0756,0.1799,0.0001,-0.0001,-1.2868,flat,18.0,2,15.371
1420,45.44,1.8384,6.5864,0.1799,0.0001,-0.0001,-1.5529,flat,18.0,2,15.066
1430,45.76,1.8257,6.0603,0.1799,-0.0001,-0.0000,-1.7642,flat,18.0,2,14.660
1440,46.08,1.7026,5.5353,0.1799,-0.0001,-0.0000,-1.9172,flat,18.0,2,14.188
1450,46.40,1.5008,5.0269,0.1798,-0.0004,-0.0000,-2.0272,flat,18.0,2,13.678
1460,46.72,1.2438,4.5379,0.1798,-0.0004,-0.0000,-2.1106,flat,18.0,2,13.147
1470,47.04,0.9463,4.0673,0.1797,-0.0002,-0.0000,-2.1765,flat,18.0,2,12.603
1480,47.36,0.6179,3.6137,0.1797,-0.0002,-0.0000,-2.2301,flat,18.0,2,12.049
1490,47.68,0.2650,3.1760,0.1797,-0.0002,-0.0000,-2.2736,flat,18.0,2,11.490
1500,48.00,-0.1068,2.7518,0.1797,-0.0001,-0.0000,-2.3109,flat,18.0,2,10.928
1510,48.32,-0.4946,2.3398,0.1797,-0.0001,-0.0000,-2.3442,flat,18.0,2,10.362
1520,48.64,-0.8962,1.9395,0.1797,-0.0001,-0.0000,-2.3735,flat,18.0,2,9.795
1530,48.96,-1.3096,1.5503,0.1797,-0.0001,-0.0000,-2.4003,flat,18.0,2,9.228
1540,49.28,-1.7333,1.1714,0.1797,-0.0001,-0.0000,-2.4247,flat,18.0,2,8.660
1550,49.60,-2.1658,0.8021,0.1797,-0.0001,-0.0000,-2.4467,flat,18.0,2,8.093
1560,49.92,-2.6065,0.4416,0.1797,-0.0001,-0.0000,-2.4671,flat,18.0,2,7.526
1570,50.24,-3.0546,0.0896,0.1797,-0.0001,-0.0000,-2.4865,flat,18.0,2,6.961
1580,50.56,-3.5096,-0.2542,0.1797,-0.0001,-0.0000,-2.5050,flat,18.0,2,6.399
1590,50.88,-3.9710,-0.5899,0.1797,-0.0001,-0.0000,-2.5230,flat,18.0,2,5.839
1600,51.20,-4.4385,-0.9175,0.1797,-0.0001,-0.0000,-2.5407,flat,18.0,2,5.284
1610,51.52,-4.8917,-1.2448,0.1797,0.0001,-0.0000,-2.4882,flat,18.0,2,4.741
1620,51.84,-5.3314,-1.5947,0.1797,0.0002,-0.0000,-2.4445,flat,18.0,2,4.194
1630,52.16,-5.7561,-1.9639,0.1797,0.0001,-0.0000,-2.4032,flat,18.0,2,3.644
1640,52.48,-6.1657,-2.3506,0.1797,0.0001,-0.0000,-2.3617,flat,18.0,2,3.092
1650,52.80,-6.5581,-2.7542,0.1797,0.0001,0.0000,-2.3189,flat,18.0,2,2.540
1660,53.12,-6.9308,-3.1737,0.1797,0.0002,0.0000,-2.2714,flat,18.0,2,1.990
1670,53.44,-7.2809,-3.6094,0.1797,0.0002,0.0000,-2.2115,flat,18.0,2,1.442
1680,53.76,-7.5994,-4.0637,0.1798,0.0003,0.0000,-2.1164,flat,18.0,2,0.900
1690,54.08,-7.8723,-4.5132,0.1799,-0.0003,0.0002,-2.1014,flat,18.0,0,13.217
1700,54.40,-8.0390,-4.8736,0.1799,-0.0003,-0.0000,-1.6143,flat,18.0,0,13.388
1710,54.72,-8.0336,-5.2716,0.1799,-0.0002,-0.0001,-1.2177,flat,18.0,0,13.399
1720,55.04,-7.8445,-5.6789,0.1799,-0.0001,-0.0001,-0.9376,flat,18.0,0,13.240
1730,55.36,-7.5165,-6.0495,0.1799,0.0000,-0.0000,-0.7293,flat,18.0,0,12.952
1740,55.68,-7.0987,-6.3725,0.1799,0.0000,-0.0000,-0.5490,flat,18.0,0,12.580
1750,56.00,-6.6196,-6.6341,0.1799,0.0001,-0.0000,-0.3940,flat,18.0,0,12.150
1760,56.32,-6.1006,-6.8296,0.1799,0.0003,-0.0000,-0.2662,flat,18.0,0,11.676
1770,56.64,-5.5575,-6.9636,0.1798,0.0004,-0.0000,-0.1619,flat,18.0,0,11.173
1780,56.96,-5.0006,-7.0441,0.1798,0.0004,-0.0000,-0.0766,flat,18.0,0,10.649
1790,57.28,-4.4366,-7.0790,0.1798,0.0003,-0.0000,-0.0066,flat,18.0,0,10.110
1800,57.60,-3.8704,-7.0759,0.1797,0.0002,-0.0000,0.0479,flat,18.0,0,9.563
1810,57.92,-3.3219,-7.0393,0.1799,0.0001,0.0001,0.1846,flat,18.0,0,9.025
1820,58.24,-2.8190,-6.9191,0.1799,0.0000,0.0000,0.4209,flat,18.0,0,8.509
1830,58.56,-2.3617,-6.6782,0.1799,0.0000,-0.0000,0.6217,flat,18.0,0,8.003
1840,58.88,-1.9118,-6.3704,0.1799,-0.0002,-0.0001,0.5658,flat,18.0,0,7.489
1850,59.20,-1.4314,-6.0809,0.1798,-0.0003,-0.0000,0.4976,flat,18.0,0,6.954
1860,59.52,-0.9305,-5.8212,0.1797,-0.0002,-0.0000,0.4354,flat,18.0,0,6.409
1870,59.84,-0.4135,-5.5911,0.1797,-0.0002,-0.0000,0.3798,flat,18.0,0,5.857
1880,60.16,0.1163,-5.3887,0.1797,-0.0002,-0.0000,0.3295,flat,18.0,0,5.300
1890,60.48,0.6556,-5.2118,0.1797,-0.0002,-0.0000,0.2850,flat,18.0,0,4.740
1900,60.80,1.2017,-5.0579,0.1797,-0.0001,-0.0000,0.2450,flat,18.0,0,4.178
1910,61.12,1.7540,-4.9252,0.1797,-0.0001,-0.0000,0.2069,flat,18.0,0,3.613
1920,61.44,2.3110,-4.8133,0.1797,-0.0001,-0.0000,0.1695,flat,18.0,0,3.048
1930,61.76,2.8718,-4.7220,0.1797,-0.0001,-0.0000,0.1315,flat,18.0,0,2.481
1940,62.08,3.4351,-4.6522,0.1797,-0.0001,0.0000,0.0906,flat,18.0,0,1.914
1950,62.40,3.9997,-4.6060,0.1797,-0.0002,0.0000,0.0406,flat,18.0,0,1.348
1960,62.72,4.5625,-4.5891,0.1798,-0.0003,0.0000,-0.0357,flat,18.0,1,0.785
1970,63.04,5.0922,-4.5835,0.1798,-0.0004,0.0001,0.1767,flat,18.0,1,12.761
1980,63.36,5.5161,-4.4847,0.1799,-0.0002,0.0001,0.5158,flat,18.0,1,12.810
1990,63.68,5.8206,-4.2536,0.1799,-0.0001,-0.0000,0.8608,flat,18.0,1,12.706
2000,64.00,6.0742,-3.8865,0.1799,-0.0000,-0.0000,1.1695,flat,18.0,1,12.467
2010,64.32,6.2379,-3.4222,0.1799,0.0000,-0.0000,1.4529,flat,18.0,1,12.114
2020,64.64,6.2745,-2.9046,0.1799,-0.0000,-0.0000,1.6944,flat,18.0,1,11.665
2030,64.96,6.1880,-2.3763,0.1799,0.0001,-0.0000,1.8688,flat,18.0,1,11.156
2040,65.28,6.0106,-1.8622,0.1799,0.0003,-0.0000,1.9945,flat,18.0,1,10.618
2050,65.60,5.7698,-1.3679,0.1798,0.0004,-0.0000,2.0889,flat,18.0,1,10.069
2060,65.92,5.4826,-0.8933,0.1798,0.0003,-0.0000,2.1620,flat,18.0,1,9.515
2070,66.24,5.1609,-0.4367,0.1797,0.0002,-0.0000,2.2206,flat,18.0,1,8.961
2080,66.56,4.8125,0.0025,0.1797,0.0002,-0.0000,2.2715,flat,18.0,1,8.411
2090,66.88,4.4416,0.4251,0.1797,0.0002,-0.0000,2.3163,flat,18.0,1,7.868
2100,67.20,4.0517,0.8324,0.1797,0.0001,-0.0000,2.3559,flat,18.0,1,7.334
2110,67.52,3.6457,1.2252,0.1797,0.0001,-0.0000,2.3920,flat,18.0,1,6.811
2120,67.84,3.2255,1.6038,0.1797,0.0001,-0.0000,2.4258,flat,18.0,1,6.305
2130,68.16,2.7933,1.9689,0.1797,0.0001,-0.0000,2.4570,flat,18.0,1,5.818
2140,68.48,2.3498,2.3211,0.1797,0.0001,-0.0000,2.4872,flat,18.0,1,5.357
2150,68.80,1.8957,2.6603,0.1797,0.0001,-0.0000,2.5173,flat,18.0,1,4.928
2160,69.12,1.4315,2.9861,0.1797,0.0001,-0.0000,2.5479,flat,18.0,1,4.542
2170,69.44,0.9577,3.2974,0.1797,0.0001,0.0000,2.5801,flat,18.0,1,4.213
2180,69.76,0.4834,3.5843,0.1797,0.0001,0.0002,2.5627,flat,18.0,1,3.962
2190,70.08,0.1176,3.8824,0.1799,0.0000,-0.0000,2.3005,flat,18.0,1,3.738
2200,70.40,-0.1811,4.2873,0.1799,0.0000,-0.0000,2.0428,flat,18.0,1,3.439
2210,70.72,-0.3906,4.7717,0.1799,0.0000,-0.0000,1.7904,flat,18.0,1,3.080
2220,71.04,-0.4832,5.3008,0.1799,-0.0000,-0.0000,1.5554,flat,18.0,1,2.671
2230,71.36,-0.4538,5.8384,0.1799,-0.0001,-0.0000,1.3623,flat,18.0,1,2.228
2240,71.68,-0.3234,6.3600,0.1799,-0.0001,-0.0000,1.2024,flat,18.0,1,1.767
2250,72.00,-0.1101,6.8518,0.1799,-0.0001,-0.0000,1.0555,flat,18.0,1,1.307
2260,72.32,0.1761,7.3031,0.1799,-0.0001,-0.0000,0.9149,flat,18.0,1,0.868
2270,72.64,0.3805,7.5543,0.1794,-0.0004,-0.0027,0.4778,flat,18.0,2,14.965
2280,72.96,0.6328,7.6354,0.1787,-0.0065,0.0001,-0.0219,flat,18.0,2,15.173
2290,73.28,0.9882,7.6035,0.1799,-0.0000,0.0000,-0.5085,flat,18.0,2,15.349
2300,73.60,1.2929,7.3739,0.1799,0.0001,-0.0000,-0.8511,flat,18.0,2,15.343
2310,73.92,1.5546,7.0042,0.1799,0.0000,-0.0000,-1.1439,flat,18.0,2,15.210
2320,74.24,1.7323,6.5387,0.1799,-0.0001,-0.0000,-1.4090,flat,18.0,2,14.961
2330,74.56,1.7929,6.0172,0.1799,-0.0001,0.0000,-1.6331,flat,18.0,2,14.606
2340,74.88,1.7393,5.4795,0.1799,-0.0001,-0.0000,-1.8019,flat,18.0,2,14.172
2350,75.20,1.5980,4.9501,0.1799,-0.0003,-0.0000,-1.9199,flat,18.0,2,13.690
2360,75.52,1.3959,4.4352,0.1798,-0.0004,-0.0000,-2.0072,flat,18.0,2,13.180
2370,75.84,1.1496,3.9354,0.1797,-0.0003,-0.0000,-2.0750,flat,18.0,2,12.653
2380,76.16,0.8697,3.4499,0.1797,-0.0002,-0.0000,-2.1294,flat,18.0,2,12.115
2390,76.48,0.5635,2.9779,0.1797,-0.0002,-0.0000,-2.1730,flat,18.0,2,11.568
2400,76.80,0.2368,2.5178,0.1797,-0.0001,-0.0000,-2.2087,flat,18.0,2,11.016
2410,77.12,-0.1063,2.0679,0.1797,-0.0001,-0.0000,-2.2394,flat,18.0,2,10.460
2420,77.44,-0.4633,1.6272,0.1797,-0.0001,-0.0000,-2.2663,flat,18.0,2,9.900
2430,77.76,-0.8321,1.1951,0.1797,-0.0001,-0.0000,-2.2902,flat,18.0,2,9.338
2440,78.08,-1.2113,0.7707,0.1797,-0.0001,-0.0000,-2.3122,flat,18.0,2,8.774
2450,78.40,-1.5999,0.3539,0.1797,-0.0001,-0.0000,-2.3322,flat,18.0,2,8.208
2460,78.72,-1.9968,-0.0558,0.1797,-0.0001,-0.0000,-2.3502,flat,18.0,2,7.641
2470,79.04,-2.4012,-0.4589,0.1797,-0.0001,-0.0000,-2.3667,flat,18.0,2,7.073
2480,79.36,-2.8122,-0.8556,0.1797,-0.0001,-0.0000,-2.3821,flat,18.0,2,6.504
2490,79.68,-3.2293,-1.2462,0.1797,-0.0001,-0.0000,-2.3968,flat,18.0,2,5.934
2500,80.00,-3.6522,-1.6310,0.1797,-0.0000,-0.0000,-2.4106,flat,18.0,2,5.364
2510,80.32,-4.0803,-2.0101,0.1797,-0.0000,-0.0000,-2.4238,flat,18.0,2,4.794
2520,80.64,-4.5132,-2.3837,0.1797,-0.0000,-0.0000,-2.4365,flat,18.0,2,4.223
2530,80.96,-4.9507,-2.7517,0.1797,-0.0000,0.0000,-2.4492,flat,18.0,2,3.653
2540,81.28,-5.3929,-3.1141,0.1797,-0.0000,0.0000,-2.4622,flat,18.0,2,3.082
2550,81.60,-5.8397,-3.4704,0.1797,-0.0000,0.0000,-2.4763,flat,18.0,2,2.511
2560,81.92,-6.2913,-3.8197,0.1797,-0.0001,0.0000,-2.4926,flat,18.0,2,1.941
2570,82.24,-6.7479,-4.1602,0.1797,-0.0001,0.0000,-2.5136,flat,18.0,2,1.372
2580,82.56,-7.2098,-4.4870,0.1797,-0.0001,0.0000,-2.5486,flat,18.0,2,0.807
2590,82.88,-7.6747,-4.7672,0.1799,-0.0002,0.0000,-2.6865,flat,18.0,0,0.755
2600,83.20,-7.9696,-4.9378,0.1799,-0.0001,-0.0000,-2.3056,flat,18.0,0,13.321
2610,83.52,-8.1864,-5.2650,0.1797,0.0011,0.0001,-1.7936,flat,18.0,0,13.552
2620,83.84,-8.2515,-5.6472,0.1799,-0.0000,-0.0000,-1.3372,flat,18.0,0,13.643
2630,84.16,-8.1223,-6.0512,0.1799,-0.0001,-0.0000,-1.0146,flat,18.0,0,13.554
2640,84.48,-7.8335,-6.4301,0.1799,-0.0000,-0.0000,-0.7811,flat,18.0,0,13.316
2650,84.80,-7.4389,-6.7630,0.1799,0.0000,-0.0000,-0.5888,flat,18.0,0,12.979
2660,85.12,-6.9733,-7.0374,0.1799,0.0001,-0.0000,-0.4184,flat,18.0,0,12.573
2670,85.44,-6.4609,-7.2422,0.1799,0.0002,-0.0000,-0.2769,flat,18.0,0,12.115
2680,85.76,-5.9205,-7.3802,0.1799,0.0004,-0.0000,-0.1620,flat,18.0,0,11.623
2690,86.08,-5.3647,-7.4596,0.1798,0.0004,-0.0000,-0.0687,flat,18.0,0,11.105
2700,86.40,-4.8013,-7.4892,0.1798,0.0003,-0.0000,0.0073,flat,18.0,0,10.571
2710,86.72,-4.2358,-7.4778,0.1797,0.0002,-0.0000,0.0661,flat,18.0,0,10.027
2720,87.04,-3.6708,-7.4347,0.1797,0.0002,-0.0000,0.1121,flat,18.0,0,9.475
2730,87.36,-3.1076,-7.3666,0.1797,0.0001,-0.0000,0.1484,flat,18.0,0,8.919
2740,87.68,-2.5462,-7.2785,0.1797,0.0001,-0.0000,0.1789,flat,18.0,0,8.359
2750,88.00,-1.9867,-7.1737,0.1797,0.0001,-0.0000,0.2051,flat,18.0,0,7.797
2760,88.32,-1.4293,-7.0544,0.1797,0.0001,-0.0000,0.2278,flat,18.0,0,7.232
2770,88.64,-0.8742,-6.9228,0.1797,0.0001,-0.0000,0.2478,flat,18.0,0,6.667
2780,88.96,-0.3212,-6.7801,0.1797,0.0001,-0.0000,0.2656,flat,18.0,0,6.100
2790,89.28,0.2297,-6.6277,0.1797,0.0001,-0.0000,0.2817,flat,18.0,0,5.532
2800,89.60,0.7783,-6.4666,0.1797,0.0001,-0.0000,0.2965,flat,18.0,0,4.964
2810,89.92,1.3247,-6.2974,0.1797,0.0000,-0.0000,0.3103,flat,18.0,0,4.395
2820,90.24,1.8690,-6.1206,0.1797,0.0000,-0.0000,0.3235,flat,18.0,0,3.826
2830,90.56,2.4108,-5.9368,0.1797,0.0000,-0.0000,0.3364,flat,18.0,0,3.258
2840,90.88,2.9502,-5.7459,0.1797,0.0000,0.0000,0.3496,flat,18.0,0,2.690
2850,91.20,3.4866,-5.5479,0.1797,0.0000,0.0000,0.3638,flat,18.0,0,2.123
2860,91.52,4.0193,-5.3423,0.1797,0.0001,0.0000,0.3805,flat,18.0,0,1.560
2870,91.84,4.5461,-5.1278,0.1797,0.0001,0.0000,0.4043,flat,18.0,0,1.003
2880,92.16,4.9989,-4.9280,0.1798,-0.0002,0.0001,0.5880,flat,18.0,1,13.059
2890,92.48,5.3043,-4.6625,0.1799,-0.0001,-0.0000,0.9005,flat,18.0,1,12.905
2900,92.80,5.5564,-4.2731,0.1799,0.0000,-0.0000,1.1931,flat,18.0,1,12.626
2910,93.12,5.7145,-3.7947,0.1799,0.0001,-0.0000,1.4583,flat,18.0,1,12.241
2920,93.44,5.7497,-3.2687,0.1799,0.0001,0.0000,1.6806,flat,18.0,1,11.771
2930,93.76,5.6705,-2.7342,0.1799,0.0001,-0.0000,1.8446,flat,18.0,1,11.251
2940,94.08,5.5066,-2.2122,0.1799,0.0003,-0.0000,1.9611,flat,18.0,1,10.708
2950,94.40,5.2831,-1.7074,0.1798,0.0004,-0.0000,2.0496,flat,18.0,1,10.156
2960,94.72,5.0154,-1.2201,0.1798,0.0003,-0.0000,2.1199,flat,18.0,1,9.601
2970,95.04,4.7137,-0.7495,0.1797,0.0002,-0.0000,2.1776,flat,18.0,1,9.048
2980,95.36,4.3848,-0.2944,0.1797,0.0002,-0.0000,2.2263,flat,18.0,1,8.499
2990,95.68,4.0338,0.1456,0.1797,0.0001,-0.0000,2.2662,flat,18.0,1,7.957
3000,96.00,3.6652,0.5729,0.1797,0.0001,-0.0000,2.3022,flat,18.0,1,7.425
3010,96.32,3.2805,0.9776,0.1797,0.0002,-0.0000,2.3564,flat,18.0,1,6.913
3020,96.64,2.8745,1.3679,0.1797,0.0001,-0.0000,2.3982,flat,18.0,1,6.416
3030,96.96,2.4525,1.7414,0.1797,0.0001,-0.0000,2.4379,flat,18.0,1,5.944
3040,97.28,2.0166,2.0988,0.1797,0.0001,-0.0000,2.4757,flat,18.0,1,5.502
3050,97.60,1.5673,2.4400,0.1797,0.0001,-0.0000,2.5140,flat,18.0,1,5.099
3060,97.92,1.1052,2.7640,0.1797,0.0001,-0.0000,2.5539,flat,18.0,1,4.747
3070,98.24,0.6308,3.0690,0.1797,0.0001,0.0000,2.5976,flat,18.0,1,4.458
3080,98.56,0.2206,3.3523,0.1799,-0.0002,0.0001,2.3911,flat,18.0,1,4.233
3090,98.88,-0.1168,3.7334,0.1799,0.0000,-0.0000,2.1644,flat,18.0,1,3.943
3100,99.20,-0.3837,4.1932,0.1799,-0.0000,-0.0000,1.9484,flat,18.0,1,3.601
3110,99.52,-0.5594,4.7055,0.1799,-0.0001,-0.0000,1.7479,flat,18.0,1,3.218
3120,99.84,-0.6359,5.2462,0.1799,-0.0001,-0.0000,1.5616,flat,18.0,1,2.804
3130,100.16,-0.6132,5.7923,0.1799,-0.0001,-0.0000,1.4015,flat,18.0,1,2.369
3140,100.48,-0.5076,6.3228,0.1799,-0.0002,-0.0001,1.2466,flat,18.0,1,1.934
3150,100.80,-0.3166,6.8172,0.1799,-0.0001,-0.0000,1.0755,flat,18.0,1,1.504
3160,101.12,-0.0407,7.2661,0.1799,-0.0001,-0.0000,0.9106,flat,18.0,1,1.087
3170,101.44,0.2886,7.6399,0.1796,0.0000,-0.0015,0.7393,flat,18.0,2,14.986
3180,101.76,0.5060,7.7722,0.1745,0.0005,-0.0351,0.2164,flat,18.0,2,15.216
3190,102.08,0.8629,7.8232,0.1798,0.0004,-0.0003,-0.3109,flat,18.0,2,15.457
3200,102.40,1.1935,7.6771,0.1799,-0.0000,-0.0001,-0.7099,flat,18.0,2,15.528
3210,102.72,1.4768,7.3625,0.1799,0.0000,-0.0000,-1.0124,flat,18.0,2,15.445
3220,103.04,1.6994,6.9356,0.1799,-0.0000,-0.0000,-1.2906,flat,18.0,2,15.247
3230,103.36,1.8165,6.4344,0.1799,-0.0001,0.0000,-1.5339,flat,18.0,2,14.936
3240,103.68,1.8142,5.8990,0.1799,-0.0001,-0.0000,-1.7280,flat,18.0,2,14.532
3250,104.00,1.7112,5.3635,0.1799,-0.0002,-0.0000,-1.8665,flat,18.0,2,14.068
3260,104.32,1.5367,4.8407,0.1798,-0.0004,-0.0000,-1.9655,flat,18.0,2,13.569
3270,104.64,1.3114,4.3328,0.1798,-0.0003,-0.0000,-2.0409,flat,18.0,2,13.048
3280,104.96,1.0484,3.8394,0.1797,-0.0002,-0.0000,-2.1005,flat,18.0,2,12.514
3290,105.28,0.7562,3.3594,0.1797,-0.0002,-0.0000,-2.1489,flat,18.0,2,11.970
3300,105.60,0.4409,2.8923,0.1797,-0.0001,-0.0000,-2.1870,flat,18.0,2,11.420
3310,105.92,0.1078,2.4357,0.1797,-0.0001,-0.0000,-2.2196,flat,18.0,2,10.865
3320,106.24,-0.2403,1.9885,0.1797,-0.0001,-0.0000,-2.2479,flat,18.0,2,10.307
3330,106.56,-0.6010,1.5501,0.1797,-0.0001,-0.0000,-2.2727,flat,18.0,2,9.746
3340,106.88,-0.9727,1.1197,0.1797,-0.0001,-0.0000,-2.2951,flat,18.0,2,9.182
3350,107.20,-1.3540,0.6966,0.1797,-0.0001,-0.0000,-2.3157,flat,18.0,2,8.617
3360,107.52,-1.7441,0.2806,0.1797,-0.0001,-0.0000,-2.3344,flat,18.0,2,8.051
3370,107.84,-2.1420,-0.1286,0.1797,-0.0001,-0.0000,-2.3514,flat,18.0,2,7.483
3380,108.16,-2.5468,-0.5316,0.1797,-0.0001,-0.0000,-2.3669,flat,18.0,2,6.914
3390,108.48,-2.9580,-0.9286,0.1797,-0.0001,-0.0000,-2.3815,flat,18.0,2,6.345
3400,108.80,-3.3749,-1.3197,0.1797,-0.0000,-0.0000,-2.3954,flat,18.0,2,5.775
3410,109.12,-3.7973,-1.7053,0.1797,-0.0000,-0.0000,-2.4086,flat,18.0,2,5.204
3420,109.44,-4.2247,-2.0855,0.1797,-0.0000,-0.0000,-2.4212,flat,18.0,2,4.633
3430,109.76,-4.6567,-2.4604,0.1797,-0.0000,-0.0000,-2.4335,flat,18.0,2,4.063
3440,110.08,-5.0932,-2.8299,0.1797,-0.0000,0.0000,-2.4458,flat,18.0,2,3.492
3450,110.40,-5.5341,-3.1939,0.1797,-0.0000,0.0000,-2.4586,flat,18.0,2,2.921
3460,110.72,-5.9796,-3.5518,0.1797,-0.0000,0.0000,-2.4726,flat,18.0,2,2.350
3470,111.04,-6.4298,-3.9027,0.1797,-0.0001,0.0000,-2.4892,flat,18.0,2,1.780
3480,111.36,-6.8851,-4.2442,0.1797,-0.0001,0.0000,-2.5117,flat,18.0,2,1.211
3490,111.68,-7.3426,-4.5651,0.1797,-0.0001,-0.0000,-2.5716,flat,18.0,3,1.125
3500,112.00,-7.7737,-4.8123,0.1798,-0.0002,0.0007,-2.6652,flat,18.0,0,13.122
3510,112.32,-8.0351,-5.0217,0.1798,0.0000,-0.0003,-2.1468,flat,18.0,0,13.389
3520,112.64,-8.2183,-5.3754,0.1799,-0.0001,-0.0000,-1.6485,flat,18.0,0,13.590
3530,112.96,-8.2258,-5.7658,0.1799,0.0001,-0.0001,-1.2357,flat,18.0,0,13.627
3540,113.28,-8.0455,-6.1680,0.1799,0.0001,-0.0000,-0.9425,flat,18.0,0,13.491
3550,113.60,-7.7211,-6.5343,0.1799,0.0001,-0.0000,-0.7250,flat,18.0,0,13.220
3560,113.92,-7.3039,-6.8525,0.1799,0.0001,-0.0000,-0.5378,flat,18.0,0,12.862
3570,114.24,-6.8226,-7.1073,0.1799,0.0001,-0.0000,-0.3748,flat,18.0,0,12.439
3580,114.56,-6.3005,-7.2922,0.1799,0.0002,-0.0000,-0.2412,flat,18.0,0,11.971
3590,114.88,-5.7547,-7.4124,0.1798,0.0004,-0.0000,-0.1329,flat,18.0,0,11.470
3600,115.20,-5.1960,-7.4764,0.1798,0.0004,-0.0000,-0.0449,flat,18.0,0,10.947
3610,115.52,-4.6540,-7.4771,0.1799,0.0001,-0.0000,0.1494,flat,18.0,0,10.427
3620,115.84,-4.1267,-7.3765,0.1799,0.0001,-0.0000,0.3218,flat,18.0,0,9.893
3630,116.16,-3.6209,-7.1868,0.1799,0.0002,-0.0000,0.4584,flat,18.0,0,9.354
3640,116.48,-3.1435,-6.9285,0.1799,0.0003,-0.0000,0.5745,flat,18.0,0,8.823
3650,116.80,-2.6944,-6.6146,0.1798,0.0004,-0.0000,0.6687,flat,18.0,0,8.307
3660,117.12,-2.2605,-6.2828,0.1799,-0.0001,-0.0001,0.6071,flat,18.0,0,7.807
3670,117.44,-1.7928,-5.9777,0.1798,-0.0003,-0.0000,0.5246,flat,18.0,0,7.285
3680,117.76,-1.3001,-5.7078,0.1798,-0.0003,-0.0000,0.4514,flat,18.0,0,6.750
3690,118.08,-0.7878,-5.4713,0.1797,-0.0002,-0.0000,0.3863,flat,18.0,0,6.206
3700,118.40,-0.2602,-5.2662,0.1797,-0.0002,-0.0000,0.3281,flat,18.0,0,5.654
3710,118.72,0.2793,-5.0912,0.1797,-0.0002,-0.0000,0.2756,flat,18.0,0,5.097
3720,119.04,0.8278,-4.9432,0.1797,-0.0002,-0.0000,0.2279,flat,18.0,0,4.537
3730,119.36,1.3824,-4.8207,0.1797,-0.0001,-0.0000,0.1856,flat,18.0,0,3.974
3740,119.68,1.9414,-4.7208,0.1797,-0.0001,-0.0000,0.1464,flat,18.0,0,3.409
3750,120.00,2.5040,-4.6426,0.1797,-0.0001,-0.0000,0.1077,flat,18.0,0,2.843
3760,120.32,3.0691,-4.5860,0.1797,-0.0001,-0.0000,0.0679,flat,18.0,0,2.277
3770,120.64,3.6352,-4.5521,0.1797,-0.0002,0.0000,0.0238,flat,18.0,0,1.710
3780,120.96,4.2000,-4.5439,0.1797,-0.0002,0.0000,-0.0309,flat,18.0,0,1.145
3790,121.28,4.7513,-4.5615,0.1798,-0.0002,0.0001,-0.0222,flat,18.0,1,12.635
3800,121.60,5.2294,-4.5472,0.1798,-0.0002,0.0001,0.3104,flat,18.0,1,12.771
3810,121.92,5.5728,-4.4000,0.1799,-0.0001,-0.0000,0.7049,flat,18.0,1,12.751
3820,122.24,5.8501,-4.0923,0.1799,-0.0000,-0.0001,1.0216,flat,18.0,1,12.568
3830,122.56,6.0650,-3.6693,0.1799,0.0000,-0.0000,1.3174,flat,18.0,1,12.265
3840,122.88,6.1669,-3.1711,0.1799,0.0001,-0.0000,1.5812,flat,18.0,1,11.857
3850,123.20,6.1387,-2.6426,0.1799,0.0000,-0.0000,1.7875,flat,18.0,1,11.370
3860,123.52,6.0032,-2.1190,0.1799,0.0002,-0.0000,1.9341,flat,18.0,1,10.842
3870,123.84,5.7928,-1.6137,0.1798,0.0004,-0.0000,2.0411,flat,18.0,1,10.297
3880,124.16,5.5289,-1.1282,0.1798,0.0004,-0.0000,2.1237,flat,18.0,1,9.745
3890,124.48,5.2251,-0.6615,0.1797,0.0002,-0.0000,2.1887,flat,18.0,1,9.190
3900,124.80,4.8912,-0.2125,0.1797,0.0002,-0.0000,2.2434,flat,18.0,1,8.639
3910,125.12,4.5326,0.2195,0.1797,0.0002,-0.0000,2.2909,flat,18.0,1,8.093
3920,125.44,4.1534,0.6360,0.1797,0.0001,-0.0000,2.3323,flat,18.0,1,7.555
3930,125.76,3.7568,1.0379,0.1797,0.0001,-0.0000,2.3694,flat,18.0,1,7.027
3940,126.08,3.3454,1.4258,0.1797,0.0001,-0.0000,2.4039,flat,18.0,1,6.514
3950,126.40,2.9209,1.7999,0.1797,0.0001,-0.0000,2.4361,flat,18.0,1,6.018
3960,126.72,2.4850,2.1610,0.1797,0.0001,-0.0000,2.4664,flat,18.0,1,5.546
3970,127.04,2.0381,2.5093,0.1797,0.0001,-0.0000,2.4963,flat,18.0,1,5.103
3980,127.36,1.5809,2.8446,0.1797,0.0001,-0.0000,2.5265,flat,18.0,1,4.699
3990,127.68,1.1138,3.1659,0.1797,0.0001,-0.0000,2.5579,flat,18.0,1,4.345
4000,128.00,0.6371,3.4720,0.1797,0.0001,0.0000,2.5922,flat,18.0,1,4.056
4010,128.32,0.2382,3.7532,0.1799,-0.0000,0.0001,2.3683,flat,18.0,1,3.837
4020,128.64,-0.0789,4.1337,0.1799,-0.0000,-0.0000,2.1131,flat,18.0,1,3.550
4030,128.96,-0.3170,4.6006,0.1799,-0.0001,-0.0000,1.8611,flat,18.0,1,3.201
4040,129.28,-0.4448,5.1214,0.1799,-0.0001,-0.0000,1.6244,flat,18.0,1,2.801
4050,129.60,-0.4512,5.6607,0.1799,-0.0001,0.0000,1.4194,flat,18.0,1,2.362
4060,129.92,-0.3508,6.1899,0.1799,-0.0001,0.0000,1.2539,flat,18.0,1,1.902
4070,130.24,-0.1640,6.6937,0.1799,-0.0001,-0.0000,1.1063,flat,18.0,1,1.437
4080,130.56,0.0973,7.1601,0.1799,-0.0001,-0.0000,0.9627,flat,18.0,1,0.986
4090,130.88,0.3564,7.5116,0.1785,-0.0002,-0.0080,0.7566,flat,18.0,2,14.916
4100,131.20,0.5518,7.6045,0.1776,-0.0131,0.0001,0.1182,flat,18.0,2,15.102
4110,131.52,0.8941,7.6313,0.1799,0.0005,0.0000,-0.3817,flat,18.0,2,15.318
4120,131.84,1.2157,7.4569,0.1799,0.0001,-0.0000,-0.7589,flat,18.0,2,15.364
4130,132.16,1.4921,7.1234,0.1799,0.0000,-0.0000,-1.0568,flat,18.0,2,15.265
4140,132.48,1.7005,6.6833,0.1799,-0.0000,-0.0000,-1.3321,flat,18.0,2,15.052
4150,132.80,1.7988,6.1747,0.1799,0.0000,-0.0000,-1.5739,flat,18.0,2,14.728
4160,133.12,1.7771,5.6382,0.1799,-0.0001,-0.0000,-1.7571,flat,18.0,2,14.314
4170,133.44,1.6591,5.1052,0.1799,-0.0003,-0.0000,-1.8883,flat,18.0,2,13.844
4180,133.76,1.4732,4.5858,0.1798,-0.0004,-0.0000,-1.9835,flat,18.0,2,13.342
4190,134.08,1.2387,4.0816,0.1798,-0.0003,-0.0000,-2.0566,flat,18.0,2,12.819
4200,134.40,0.9679,3.5920,0.1797,-0.0002,-0.0000,-2.1146,flat,18.0,2,12.284
4210,134.72,0.6688,3.1160,0.1797,-0.0002,-0.0000,-2.1617,flat,18.0,2,11.739
4220,135.04,0.3475,2.6529,0.1797,-0.0001,-0.0000,-2.1991,flat,18.0,2,11.189
4230,135.36,0.0088,2.2002,0.1797,-0.0001,-0.0000,-2.2312,flat,18.0,2,10.634
4240,135.68,-0.3445,1.7571,0.1797,-0.0001,-0.0000,-2.2592,flat,18.0,2,10.075
4250,136.00,-0.7102,1.3227,0.1797,-0.0001,-0.0000,-2.2839,flat,18.0,2,9.514
4260,136.32,-1.0866,0.8963,0.1797,-0.0001,-0.0000,-2.3064,flat,18.0,2,8.950
4270,136.64,-1.4728,0.4775,0.1797,-0.0001,-0.0000,-2.3271,flat,18.0,2,8.385
4280,136.96,-1.8676,0.0660,0.1797,-0.0001,-0.0000,-2.3457,flat,18.0,2,7.818
4290,137.28,-2.2701,-0.3388,0.1797,-0.0001,-0.0000,-2.3626,flat,18.0,2,7.250
4300,137.60,-2.6795,-0.7371,0.1797,-0.0001,-0.0000,-2.3783,flat,18.0,2,6.682
4310,137.92,-3.0951,-1.1292,0.1797,-0.0001,-0.0000,-2.3932,flat,18.0,2,6.112
4320,138.24,-3.5166,-1.5153,0.1797,-0.0000,-0.0000,-2.4073,flat,18.0,2,5.542
4330,138.56,-3.9434,-1.8958,0.1797,-0.0000,-0.0000,-2.4206,flat,18.0,2,4.972
4340,138.88,-4.3752,-2.2707,0.1797,-0.0000,-0.0000,-2.4334,flat,18.0,2,4.401
4350,139.20,-4.8116,-2.6401,0.1797,-0.0000,-0.0000,-2.4461,flat,18.0,2,3.831
4360,139.52,-5.2527,-3.0039,0.1797,-0.0000,0.0000,-2.4590,flat,18.0,2,3.260
4370,139.84,-5.6984,-3.3618,0.1797,-0.0000,0.0000,-2.4727,flat,18.0,2,2.689
4380,140.16,-6.1487,-3.7130,0.1797,-0.0001,0.0000,-2.4881,flat,18.0,2,2.119
4390,140.48,-6.6041,-4.0561,0.1797,-0.0001,0.0000,-2.5072,flat,18.0,2,1.550
4400,140.80,-7.0647,-4.3877,0.1797,-0.0001,0.0000,-2.5357,flat,18.0,2,0.983
4410,141.12,-7.5282,-4.6849,0.1798,-0.0000,0.0000,-2.6307,flat,18.0,3,0.914
4420,141.44,-7.8798,-4.8654,0.1798,0.0001,0.0001,-2.4616,flat,18.0,0,13.229
4430,141.76,-8.1282,-5.1570,0.1798,-0.0002,-0.0000,-1.9581,flat,18.0,0,13.488
4440,142.08,-8.2529,-5.5279,0.1799,0.0000,-0.0000,-1.4741,flat,18.0,0,13.635
4450,142.40,-8.1866,-5.9291,0.1799,0.0001,-0.0000,-1.1145,flat,18.0,0,13.604
4460,142.72,-7.9462,-6.3210,0.1799,0.0001,-0.0000,-0.8533,flat,18.0,0,13.412
4470,143.04,-7.5818,-6.6698,0.1799,0.0001,-0.0000,-0.6521,flat,18.0,0,13.104
4480,143.36,-7.1375,-6.9659,0.1799,0.0001,-0.0000,-0.4725,flat,18.0,0,12.720
4490,143.68,-6.6384,-7.1942,0.1799,0.0001,-0.0000,-0.3208,flat,18.0,0,12.278
4500,144.00,-6.1057,-7.3535,0.1799,0.0003,-0.0000,-0.1973,flat,18.0,0,11.796
4510,144.32,-5.5539,-7.4513,0.1798,0.0004,-0.0000,-0.0971,flat,18.0,0,11.286
4520,144.64,-4.9924,-7.4962,0.1798,0.0004,-0.0000,-0.0156,flat,18.0,0,10.757
4530,144.96,-4.4269,-7.4971,0.1797,0.0003,-0.0000,0.0496,flat,18.0,0,10.215
4540,145.28,-3.8619,-7.4631,0.1797,0.0002,-0.0000,0.0986,flat,18.0,0,9.665
4550,145.60,-3.2980,-7.4022,0.1797,0.0001,-0.0000,0.1380,flat,18.0,0,9.111
4560,145.92,-2.7361,-7.3199,0.1797,0.0001,-0.0000,0.1703,flat,18.0,0,8.552
4570,146.24,-2.1760,-7.2198,0.1797,0.0001,-0.0000,0.1977,flat,18.0,0,7.990
4580,146.56,-1.6180,-7.1046,0.1797,0.0001,-0.0000,0.2215,flat,18.0,0,7.427
4590,146.88,-1.0623,-6.9763,0.1797,0.0001,-0.0000,0.2423,flat,18.0,0,6.862
4600,147.20,-0.5087,-6.8366,0.1797,0.0001,-0.0000,0.2608,flat,18.0,0,6.295
4610,147.52,0.0427,-6.6869,0.1797,0.0001,-0.0000,0.2775,flat,18.0,0,5.728
4620,147.84,0.5919,-6.5280,0.1797,0.0001,-0.0000,0.2927,flat,18.0,0,5.159
4630,148.16,1.1389,-6.3609,0.1797,0.0001,-0.0000,0.3068,flat,18.0,0,4.591
4640,148.48,1.6837,-6.1861,0.1797,0.0000,-0.0000,0.3201,flat,18.0,0,4.022
4650,148.80,2.2262,-6.0040,0.1797,0.0000,-0.0000,0.3331,flat,18.0,0,3.453
4660,149.12,2.7663,-5.8150,0.1797,0.0000,0.0000,0.3461,flat,18.0,0,2.885
4670,149.44,3.3036,-5.6189,0.1797,0.0000,0.0000,0.3598,flat,18.0,0,2.318
4680,149.76,3.8375,-5.4154,0.1797,0.0001,0.0000,0.3753,flat,18.0,0,1.753
4690,150.08,4.3665,-5.2036,0.1797,0.0001,0.0000,0.3958,flat,18.0,0,1.193
4700,150.40,4.8764,-4.9901,0.1797,0.0000,0.0003,0.4720,flat,18.0,1,13.082
4710,150.72,5.2170,-4.7717,0.1799,-0.0001,-0.0000,0.7839,flat,18.0,1,12.979
4720,151.04,5.4908,-4.4262,0.1799,-0.0000,-0.0000,1.0832,flat,18.0,1,12.746
4730,151.36,5.6901,-3.9776,0.1799,0.0000,-0.0000,1.3609,flat,18.0,1,12.401
4740,151.68,5.7736,-3.4653,0.1799,0.0001,-0.0000,1.6040,flat,18.0,1,11.961
4750,152.00,5.7344,-2.9303,0.1799,0.0001,-0.0000,1.7901,flat,18.0,1,11.456
4760,152.32,5.5985,-2.4029,0.1799,0.0002,-0.0000,1.9221,flat,18.0,1,10.919
4770,152.64,5.3948,-1.8917,0.1798,0.0004,-0.0000,2.0198,flat,18.0,1,10.370
4780,152.96,5.1418,-1.3982,0.1798,0.0003,-0.0000,2.0963,flat,18.0,1,9.816
4790,153.28,4.8514,-0.9218,0.1797,0.0002,-0.0000,2.1584,flat,18.0,1,9.262
4800,153.60,4.5314,-0.4615,0.1797,0.0002,-0.0000,2.2102,flat,18.0,1,8.711
4810,153.92,4.1875,-0.0165,0.1797,0.0002,-0.0000,2.2533,flat,18.0,1,8.166
4820,154.24,3.8246,0.4149,0.1797,0.0001,-0.0000,2.2904,flat,18.0,1,7.630
4830,154.56,3.4455,0.8341,0.1797,0.0001,-0.0000,2.3252,flat,18.0,1,7.103
4840,154.88,3.0517,1.2411,0.1797,0.0001,-0.0000,2.3570,flat,18.0,1,6.590
4850,155.20,2.6451,1.6360,0.1797,0.0001,-0.0000,2.3869,flat,18.0,1,6.095
4860,155.52,2.2267,2.0188,0.1797,0.0001,-0.0000,2.4159,flat,18.0,1,5.622
4870,155.84,1.7978,2.3896,0.1797,0.0001,0.0000,2.4437,flat,18.0,1,5.179
4880,156.16,1.3589,2.7484,0.1797,0.0001,-0.0000,2.4716,flat,18.0,1,4.773
4890,156.48,0.9103,3.0948,0.1797,0.0001,0.0000,2.5012,flat,18.0,1,4.416
4900,156.80,0.4546,3.4235,0.1797,0.0001,0.0002,2.5132,flat,18.0,1,4.125
4910,157.12,0.0996,3.7455,0.1799,-0.0007,0.0006,2.2568,flat,18.0,1,3.875
4920,157.44,-0.1883,4.1662,0.1799,0.0000,-0.0000,2.0110,flat,18.0,1,3.555
4930,157.76,-0.3862,4.6602,0.1799,-0.0000,-0.0000,1.7704,flat,18.0,1,3.177
4940,158.08,-0.4700,5.1933,0.1799,-0.0000,-0.0000,1.5495,flat,18.0,1,2.754
4950,158.40,-0.4385,5.7334,0.1799,-0.0001,-0.0000,1.3684,flat,18.0,1,2.298
4960,158.72,-0.3118,6.2588,0.1799,-0.0001,-0.0000,1.2175,flat,18.0,1,1.826
4970,159.04,-0.1066,6.7570,0.1799,-0.0002,-0.0000,1.0790,flat,18.0,1,1.354
4980,159.36,0.1682,7.2182,0.1799,-0.0002,-0.0000,0.9447,flat,18.0,1,0.899
4990,159.68,0.3889,7.5132,0.1791,-0.0003,-0.0044,0.6097,flat,18.0,2,14.935
5000,160.00,0.6145,7.5982,0.1784,-0.0084,0.0001,0.0378,flat,18.0,2,15.131
5010,160.32,0.9673,7.5918,0.1799,0.0004,0.0000,-0.4642,flat,18.0,2,15.327
5020,160.64,1.2779,7.3829,0.1799,0.0001,-0.0001,-0.8158,flat,18.0,2,15.341
5030,160.96,1.5456,7.0270,0.1799,0.0000,-0.0000,-1.1109,flat,18.0,2,15.222
5040,161.28,1.7354,6.5710,0.1799,-0.0000,-0.0000,-1.3807,flat,18.0,2,14.988
5050,161.60,1.8104,6.0539,0.1799,-0.0000,-0.0001,-1.6133,flat,18.0,2,14.645
5060,161.92,1.7681,5.5167,0.1799,-0.0001,-0.0000,-1.7862,flat,18.0,2,14.219
5070,162.24,1.6349,4.9860,0.1799,-0.0003,-0.0000,-1.9093,flat,18.0,2,13.741
5080,162.56,1.4383,4.4697,0.1798,-0.0004,-0.0000,-1.9996,flat,18.0,2,13.235
5090,162.88,1.1957,3.9686,0.1798,-0.0003,-0.0000,-2.0695,flat,18.0,2,12.710
5100,163.20,0.9185,3.4820,0.1797,-0.0002,-0.0000,-2.1253,flat,18.0,2,12.172
5110,163.52,0.6142,3.0090,0.1797,-0.0002,-0.0000,-2.1703,flat,18.0,2,11.626
5120,163.84,0.2889,2.5483,0.1797,-0.0001,-0.0000,-2.2067,flat,18.0,2,11.075
5130,164.16,-0.0533,2.0979,0.1797,-0.0001,-0.0000,-2.2380,flat,18.0,2,10.519
5140,164.48,-0.4096,1.6569,0.1797,-0.0001,-0.0000,-2.2653,flat,18.0,2,9.960
5150,164.80,-0.7780,1.2246,0.1797,-0.0001,-0.0000,-2.2896,flat,18.0,2,9.398
5160,165.12,-1.1570,0.8001,0.1797,-0.0001,-0.0000,-2.3119,flat,18.0,2,8.834
5170,165.44,-1.5454,0.3833,0.1797,-0.0001,-0.0000,-2.3321,flat,18.0,2,8.269
5180,165.76,-1.9423,-0.0263,0.1797,-0.0001,-0.0000,-2.3504,flat,18.0,2,7.702
5190,166.08,-2.3468,-0.4292,0.1797,-0.0001,-0.0000,-2.3671,flat,18.0,2,7.134
5200,166.40,-2.7579,-0.8257,0.1797,-0.0001,-0.0000,-2.3827,flat,18.0,2,6.565
5210,166.72,-3.1753,-1.2160,0.1797,-0.0001,-0.0000,-2.3975,flat,18.0,2,5.995
5220,167.04,-3.5985,-1.6004,0.1797,-0.0000,-0.0000,-2.4115,flat,18.0,2,5.425
5230,167.36,-4.0268,-1.9791,0.1797,-0.0000,-0.0000,-2.4247,flat,18.0,2,4.855
5240,167.68,-4.4601,-2.3523,0.1797,-0.0000,-0.0000,-2.4375,flat,18.0,2,4.285
5250,168.00,-4.8980,-2.7199,0.1797,-0.0000,-0.0000,-2.4502,flat,18.0,2,3.714
5260,168.32,-5.3406,-3.0819,0.1797,-0.0000,0.0000,-2.4632,flat,18.0,2,3.143
5270,168.64,-5.7877,-3.4378,0.1797,-0.0000,0.0000,-2.4773,flat,18.0,2,2.573
5280,168.96,-6.2396,-3.7867,0.1797,-0.0001,0.0000,-2.4933,flat,18.0,2,2.002
5290,169.28,-6.6966,-4.1271,0.1797,-0.0001,0.0000,-2.5136,flat,18.0,2,1.433
5300,169.60,-7.1588,-4.4546,0.1797,-0.0001,0.0000,-2.5462,flat,18.0,2,0.867
5310,169.92,-7.6241,-4.7400,0.1798,-0.0001,0.0000,-2.6669,flat,18.0,3,0.809
5320,170.24,-7.9387,-4.9120,0.1799,0.0001,-0.0001,-2.3586,flat,18.0,0,13.289
5330,170.56,-8.1695,-5.2286,0.1798,-0.0002,-0.0000,-1.8594,flat,18.0,0,13.533
5340,170.88,-8.2590,-5.6058,0.1799,0.0001,-0.0001,-1.3932,flat,18.0,0,13.647
5350,171.20,-8.1554,-6.0102,0.1799,0.0001,-0.0000,-1.0567,flat,18.0,0,13.582
5360,171.52,-7.8864,-6.3949,0.1799,0.0001,-0.0000,-0.8107,flat,18.0,0,13.363
5370,171.84,-7.5038,-6.7344,0.1799,0.0001,-0.0000,-0.6151,flat,18.0,0,13.038
5380,172.16,-7.0467,-7.0180,0.1799,0.0001,-0.0000,-0.4403,flat,18.0,0,12.641
5390,172.48,-6.5395,-7.2324,0.1799,0.0001,-0.0000,-0.2944,flat,18.0,0,12.190
5400,172.80,-6.0022,-7.3789,0.1799,0.0003,-0.0000,-0.1759,flat,18.0,0,11.701
5410,173.12,-5.4677,-7.4370,0.1799,0.0001,0.0000,0.0432,flat,18.0,0,11.199
5420,173.44,-4.9263,-7.3942,0.1799,0.0001,-0.0000,0.2112,flat,18.0,0,10.665
5430,173.76,-4.3964,-7.2635,0.1799,0.0003,-0.0000,0.3402,flat,18.0,0,10.120
5440,174.08,-3.8853,-7.0657,0.1798,0.0004,-0.0000,0.4470,flat,18.0,0,9.575
5450,174.40,-3.3969,-6.8136,0.1798,0.0004,-0.0000,0.5405,flat,18.0,0,9.037
5460,174.72,-2.9298,-6.5157,0.1798,0.0003,-0.0000,0.6157,flat,18.0,0,8.512
5470,175.04,-2.4791,-6.2018,0.1798,0.0001,-0.0001,0.5713,flat,18.0,0,8.002
5480,175.36,-2.0003,-5.9116,0.1798,-0.0003,-0.0000,0.4926,flat,18.0,0,7.476
5490,175.68,-1.4986,-5.6560,0.1797,-0.0003,-0.0000,0.4231,flat,18.0,0,6.937
5500,176.00,-0.9793,-5.4329,0.1797,-0.0002,-0.0000,0.3615,flat,18.0,0,6.390
5510,176.32,-0.4464,-5.2405,0.1797,-0.0002,-0.0000,0.3067,flat,18.0,0,5.836
5520,176.64,0.0971,-5.0761,0.1797,-0.0002,-0.0000,0.2576,flat,18.0,0,5.277
5530,176.96,0.6479,-4.9375,0.1797,-0.0002,-0.0000,0.2147,flat,18.0,0,4.715
5540,177.28,1.2039,-4.8216,0.1797,-0.0001,-0.0000,0.1761,flat,18.0,0,4.152
5550,177.60,1.7643,-4.7266,0.1797,-0.0001,-0.0000,0.1395,flat,18.0,0,3.586
5560,177.92,2.3280,-4.6518,0.1797,-0.0001,-0.0000,0.1038,flat,18.0,0,3.020
5570,178.24,2.8939,-4.5970,0.1797,-0.0001,-0.0000,0.0676,flat,18.0,0,2.452
5580,178.56,3.4609,-4.5628,0.1797,-0.0001,0.0000,0.0287,flat,18.0,0,1.884
5590,178.88,4.0274,-4.5511,0.1797,-0.0002,0.0000,-0.0176,flat,18.0,0,1.318
5600,179.20,4.5901,-4.5665,0.1798,-0.0003,0.0000,-0.0874,flat,18.0,1,0.756
5610,179.52,5.0989,-4.5726,0.1799,-0.0006,0.0001,0.1934,flat,18.0,1,12.753
5620,179.84,5.4843,-4.4723,0.1799,-0.0001,0.0000,0.5874,flat,18.0,1,12.787
5630,180.16,5.7746,-4.2126,0.1799,-0.0000,-0.0001,0.9225,flat,18.0,1,12.650
5640,180.48,6.0160,-3.8224,0.1799,0.0000,-0.0000,1.2259,flat,18.0,1,12.385
5650,180.80,6.1576,-3.3433,0.1799,0.0000,-0.0000,1.5011,flat,18.0,1,12.008
5660,181.12,6.1701,-2.8200,0.1799,0.0001,-0.0000,1.7292,flat,18.0,1,11.543
5670,181.44,6.0655,-2.2924,0.1799,0.0001,-0.0000,1.8919,flat,18.0,1,11.025
5680,181.76,5.8764,-1.7808,0.1799,0.0003,-0.0000,2.0096,flat,18.0,1,10.484
5690,182.08,5.6281,-1.2889,0.1798,0.0004,-0.0000,2.0992,flat,18.0,1,9.933
5700,182.40,5.3360,-0.8163,0.1798,0.0003,-0.0000,2.1692,flat,18.0,1,9.379
5710,182.72,5.0111,-0.3616,0.1797,0.0002,-0.0000,2.2265,flat,18.0,1,8.826
5720,183.04,4.6600,0.0758,0.1797,0.0002,-0.0000,2.2764,flat,18.0,1,8.278
5730,183.36,4.2870,0.4970,0.1797,0.0002,-0.0000,2.3194,flat,18.0,1,7.737
5740,183.68,3.8958,0.9037,0.1797,0.0001,-0.0000,2.3578,flat,18.0,1,7.205
5750,184.00,3.4890,1.2961,0.1797,0.0001,-0.0000,2.3929,flat,18.0,1,6.687
5760,184.32,3.0685,1.6746,0.1797,0.0001,-0.0000,2.4260,flat,18.0,1,6.185
5770,184.64,2.6362,2.0398,0.1797,0.0001,-0.0000,2.4566,flat,18.0,1,5.704
5780,184.96,2.1928,2.3923,0.1797,0.0001,-0.0000,2.4866,flat,18.0,1,5.250
5790,185.28,1.7389,2.7319,0.1797,0.0001,-0.0000,2.5165,flat,18.0,1,4.832
5800,185.60,1.2750,3.0580,0.1797,0.0001,-0.0000,2.5473,flat,18.0,1,4.459
5810,185.92,0.8014,3.3693,0.1797,0.0001,0.0000,2.5803,flat,18.0,1,4.146
5820,186.24,0.3557,3.6484,0.1798,0.0002,0.0001,2.4758,flat,18.0,1,3.918
5830,186.56,0.0136,3.9847,0.1799,-0.0001,-0.0000,2.2153,flat,18.0,1,3.666
5840,186.88,-0.2597,4.4195,0.1799,-0.0001,-0.0000,1.9590,flat,18.0,1,3.344
5850,187.20,-0.4329,4.9231,0.1799,-0.0001,-0.0000,1.7125,flat,18.0,1,2.966
5860,187.52,-0.4851,5.4589,0.1799,-0.0001,-0.0000,1.4893,flat,18.0,1,2.543
5870,187.84,-0.4213,5.9936,0.1799,-0.0001,0.0000,1.3104,flat,18.0,1,2.091
5880,188.16,-0.2637,6.5077,0.1799,-0.0001,-0.0000,1.1573,flat,18.0,1,1.628
5890,188.48,-0.0278,6.9882,0.1799,-0.0001,-0.0000,1.0124,flat,18.0,1,1.169
5900,188.80,0.2715,7.4194,0.1814,-0.0002,0.0110,0.8771,flat,18.0,2,14.792
5910,189.12,0.4377,7.5732,0.1800,-0.0003,-0.0013,0.2596,flat,18.0,2,15.012
5920,189.44,0.7413,7.6475,0.1795,-0.0017,-0.0001,-0.1836,flat,18.0,2,15.244
5930,189.76,1.0886,7.5516,0.1799,0.0001,-0.0000,-0.6265,flat,18.0,2,15.365
5940,190.08,1.3801,7.2735,0.1799,0.0001,-0.0001,-0.9409,flat,18.0,2,15.315
5950,190.40,1.6220,6.8714,0.1799,-0.0000,-0.0000,-1.2269,flat,18.0,2,15.148
5960,190.72,1.7669,6.3849,0.1799,-0.0000,-0.0000,-1.4824,flat,18.0,2,14.866
5970,191.04,1.7913,5.8545,0.1799,-0.0001,-0.0000,-1.6912,flat,18.0,2,14.484
5980,191.36,1.7079,5.3179,0.1799,-0.0001,-0.0000,-1.8416,flat,18.0,2,14.032
5990,191.68,1.5461,4.7927,0.1798,-0.0004,-0.0000,-1.9487,flat,18.0,2,13.541
6000,192.00,1.3293,4.2824,0.1798,-0.0004,-0.0000,-2.0294,flat,18.0,2,13.025
6010,192.32,1.0719,3.7871,0.1797,-0.0002,-0.0000,-2.0927,flat,18.0,2,12.494
6020,192.64,0.7834,3.3057,0.1797,-0.0002,-0.0000,-2.1439,flat,18.0,2,11.953
6030,192.96,0.4703,2.8376,0.1797,-0.0001,-0.0000,-2.1845,flat,18.0,2,11.404
6040,193.28,0.1384,2.3807,0.1797,-0.0001,-0.0000,-2.2186,flat,18.0,2,10.851
6050,193.60,-0.2092,1.9337,0.1797,-0.0001,-0.0000,-2.2481,flat,18.0,2,10.293
6060,193.92,-0.5701,1.4958,0.1797,-0.0001,-0.0000,-2.2739,flat,18.0,2,9.733
6070,194.24,-0.9422,1.0662,0.1797,-0.0001,-0.0000,-2.2972,flat,18.0,2,9.170
6080,194.56,-1.3244,0.6442,0.1797,-0.0001,-0.0000,-2.3186,flat,18.0,2,8.606
6090,194.88,-1.7157,0.2296,0.1797,-0.0001,-0.0000,-2.3380,flat,18.0,2,8.040
6100,195.20,-2.1151,-0.1780,0.1797,-0.0001,-0.0000,-2.3555,flat,18.0,2,7.472
6110,195.52,-2.5216,-0.5790,0.1797,-0.0001,-0.0000,-2.3716,flat,18.0,2,6.904
6120,195.84,-2.9346,-0.9738,0.1797,-0.0001,-0.0000,-2.3868,flat,18.0,2,6.335
6130,196.16,-3.3536,-1.3625,0.1797,-0.0001,-0.0000,-2.4013,flat,18.0,2,5.765
6140,196.48,-3.7781,-1.7454,0.1797,-0.0000,-0.0000,-2.4149,flat,18.0,2,5.195
6150,196.80,-4.2078,-2.1228,0.1797,-0.0000,-0.0000,-2.4279,flat,18.0,2,4.624
6160,197.12,-4.6422,-2.4946,0.1797,-0.0000,-0.0000,-2.4405,flat,18.0,2,4.054
6170,197.44,-5.0812,-2.8609,0.1797,-0.0000,0.0000,-2.4533,flat,18.0,2,3.483
6180,197.76,-5.5249,-3.2214,0.1797,-0.0000,0.0000,-2.4666,flat,18.0,2,2.912
6190,198.08,-5.9731,-3.5756,0.1797,-0.0001,0.0000,-2.4812,flat,18.0,2,2.342
6200,198.40,-6.4263,-3.9225,0.1797,-0.0001,0.0000,-2.4984,flat,18.0,2,1.772
6210,198.72,-6.8846,-4.2595,0.1797,-0.0001,0.0000,-2.5219,flat,18.0,2,1.203
6220,199.04,-7.3453,-4.5753,0.1797,-0.0001,-0.0000,-2.5834,flat,18.0,3,1.119
6230,199.36,-7.7797,-4.8176,0.1798,-0.0002,0.0008,-2.6765,flat,18.0,0,13.128
6240,199.68,-8.0429,-5.0212,0.1773,0.0166,-0.0003,-2.1550,flat,18.0,0,13.397
6250,200.00,-8.2247,-5.3772,0.1799,-0.0001,0.0001,-1.6453,flat,18.0,0,13.596
6260,200.32,-8.2314,-5.7675,0.1799,0.0000,-0.0000,-1.2306,flat,18.0,0,13.633
6270,200.64,-8.0494,-6.1686,0.1799,0.0001,-0.0000,-0.9390,flat,18.0,0,13.495
6280,200.96,-7.7234,-6.5343,0.1799,0.0001,-0.0000,-0.7226,flat,18.0,0,13.222
6290,201.28,-7.3052,-6.8518,0.1799,0.0001,-0.0000,-0.5356,flat,18.0,0,12.863
6300,201.60,-6.8232,-7.1059,0.1799,0.0001,-0.0000,-0.3732,flat,18.0,0,12.440
6310,201.92,-6.3008,-7.2900,0.1799,0.0002,-0.0000,-0.2400,flat,18.0,0,11.970
6320,202.24,-5.7548,-7.4096,0.1798,0.0004,-0.0000,-0.1321,flat,18.0,0,11.469
6330,202.56,-5.1960,-7.4732,0.1798,0.0004,-0.0000,-0.0443,flat,18.0,0,10.947
6340,202.88,-4.6314,-7.4897,0.1798,0.0003,-0.0000,0.0268,flat,18.0,0,10.409
6350,203.20,-4.0661,-7.4678,0.1797,0.0002,-0.0000,0.0808,flat,18.0,0,9.862
6360,203.52,-3.5015,-7.4167,0.1797,0.0002,-0.0000,0.1237,flat,18.0,0,9.308
6370,203.84,-2.9388,-7.3422,0.1797,0.0001,-0.0000,0.1581,flat,18.0,0,8.751
6380,204.16,-2.3779,-7.2488,0.1797,0.0001,-0.0000,0.1872,flat,18.0,0,8.190
6390,204.48,-1.8191,-7.1394,0.1797,0.0001,-0.0000,0.2122,flat,18.0,0,7.628
6400,204.80,-1.2624,-7.0162,0.1797,0.0001,-0.0000,0.2341,flat,18.0,0,7.063
6410,205.12,-0.7078,-6.8811,0.1797,0.0001,-0.0000,0.2533,flat,18.0,0,6.497
6420,205.44,-0.1555,-6.7354,0.1797,0.0001,-0.0000,0.2706,flat,18.0,0,5.929
6430,205.76,0.3947,-6.5803,0.1797,0.0001,-0.0000,0.2863,flat,18.0,0,5.362
6440,206.08,0.9426,-6.4167,0.1797,0.0001,-0.0000,0.3008,flat,18.0,0,4.793
6450,206.40,1.4884,-6.2451,0.1797,0.0000,-0.0000,0.3144,flat,18.0,0,4.224
6460,206.72,2.0319,-6.0662,0.1797,0.0000,-0.0000,0.3274,flat,18.0,0,3.656
6470,207.04,2.5731,-5.8802,0.1797,0.0000,-0.0000,0.3404,flat,18.0,0,3.087
6480,207.36,3.1116,-5.6872,0.1797,0.0000,0.0000,0.3537,flat,18.0,0,2.520
6490,207.68,3.6470,-5.4870,0.1797,0.0001,0.0000,0.3684,flat,18.0,0,1.954
6500,208.00,4.1783,-5.2789,0.1797,0.0001,0.0000,0.3865,flat,18.0,0,1.391
6510,208.32,4.7022,-5.0613,0.1797,0.0001,0.0000,0.4151,flat,18.0,0,0.840
6520,208.64,5.0987,-4.8622,0.1799,-0.0003,0.0000,0.6827,flat,18.0,1,13.027
6530,208.96,5.3869,-4.5571,0.1799,-0.0000,-0.0000,0.9905,flat,18.0,1,12.833
6540,209.28,5.6158,-4.1370,0.1799,0.0000,-0.0000,1.2762,flat,18.0,1,12.521
6550,209.60,5.7387,-3.6399,0.1799,0.0000,-0.0000,1.5319,flat,18.0,1,12.108
6560,209.92,5.7370,-3.1077,0.1799,0.0001,-0.0000,1.7368,flat,18.0,1,11.619
6570,210.24,5.6289,-2.5758,0.1799,0.0002,-0.0000,1.8834,flat,18.0,1,11.089
6580,210.56,5.4450,-2.0589,0.1798,0.0004,-0.0000,1.9900,flat,18.0,1,10.543
6590,210.88,5.2070,-1.5594,0.1798,0.0004,-0.0000,2.0723,flat,18.0,1,9.989
6600,211.20,4.9282,-1.0771,0.1797,0.0002,-0.0000,2.1384,flat,18.0,1,9.435
6610,211.52,4.6177,-0.6113,0.1797,0.0002,-0.0000,2.1931,flat,18.0,1,8.883
6620,211.84,4.2816,-0.1609,0.1797,0.0002,-0.0000,2.2389,flat,18.0,1,8.336
6630,212.16,3.9250,0.2751,0.1797,0.0001,-0.0000,2.2773,flat,18.0,1,7.797
6640,212.48,3.5516,0.6988,0.1797,0.0001,-0.0000,2.3126,flat,18.0,1,7.267
6650,212.80,3.1631,1.1104,0.1797,0.0001,-0.0000,2.3454,flat,18.0,1,6.749
6660,213.12,2.7611,1.5099,0.1797,0.0001,-0.0000,2.3756,flat,18.0,1,6.248
6670,213.44,2.3470,1.8973,0.1797,0.0001,-0.0000,2.4049,flat,18.0,1,5.768
6680,213.76,1.9220,2.2727,0.1797,0.0001,-0.0000,2.4331,flat,18.0,1,5.314
6690,214.08,1.4869,2.6361,0.1797,0.0001,-0.0000,2.4607,flat,18.0,1,4.896
6700,214.40,1.0420,2.9874,0.1797,0.0001,0.0000,2.4897,flat,18.0,1,4.522
6710,214.72,0.5874,3.3251,0.1797,0.0001,0.0000,2.5214,flat,18.0,1,4.207
6720,215.04,0.1961,3.6359,0.1799,0.0003,-0.0000,2.3292,flat,18.0,1,3.960
6730,215.36,-0.1122,4.0293,0.1799,0.0000,-0.0000,2.0816,flat,18.0,1,3.660
6740,215.68,-0.3394,4.5061,0.1799,-0.0000,-0.0000,1.8372,flat,18.0,1,3.296
6750,216.00,-0.4567,5.0316,0.1799,-0.0001,-0.0000,1.6109,flat,18.0,1,2.884
6760,216.32,-0.4570,5.5727,0.1799,-0.0001,-0.0000,1.4170,flat,18.0,1,2.435
6770,216.64,-0.3559,6.1040,0.1799,-0.0001,-0.0000,1.2599,flat,18.0,1,1.966
6780,216.96,-0.1724,6.6115,0.1799,-0.0001,-0.0000,1.1199,flat,18.0,1,1.492
6790,217.28,0.0820,7.0844,0.1799,-0.0002,-0.0000,0.9833,flat,18.0,1,1.029
6800,217.60,0.3516,7.4665,0.1766,0.0003,-0.0210,0.8303,flat,18.0,2,14.875
6810,217.92,0.5311,7.5730,0.1769,-0.0170,0.0000,0.1678,flat,18.0,2,15.064
6820,218.24,0.8646,7.6173,0.1799,0.0001,0.0001,-0.3248,flat,18.0,2,15.289
6830,218.56,1.1932,7.4652,0.1799,-0.0000,-0.0001,-0.7210,flat,18.0,2,15.357
6840,218.88,1.4741,7.1467,0.1799,0.0000,-0.0000,-1.0240,flat,18.0,2,15.272
6850,219.20,1.6926,6.7170,0.1799,-0.0000,-0.0000,-1.3029,flat,18.0,2,15.073
6860,219.52,1.8037,6.2144,0.1799,-0.0001,0.0000,-1.5464,flat,18.0,2,14.761
6870,219.84,1.7948,5.6790,0.1799,-0.0001,-0.0000,-1.7393,flat,18.0,2,14.356
6880,220.16,1.6858,5.1448,0.1799,-0.0002,-0.0000,-1.8767,flat,18.0,2,13.891
6890,220.48,1.5059,4.6240,0.1798,-0.0004,-0.0000,-1.9751,flat,18.0,2,13.392
6900,220.80,1.2757,4.1184,0.1798,-0.0003,-0.0000,-2.0503,flat,18.0,2,12.872
6910,221.12,1.0079,3.6276,0.1797,-0.0002,-0.0000,-2.1099,flat,18.0,2,12.337
6920,221.44,0.7111,3.1505,0.1797,-0.0002,-0.0000,-2.1582,flat,18.0,2,11.794
6930,221.76,0.3914,2.6865,0.1797,-0.0001,-0.0000,-2.1964,flat,18.0,2,11.244
6940,222.08,0.0539,2.2331,0.1797,-0.0001,-0.0000,-2.2291,flat,18.0,2,10.689
6950,222.40,-0.2985,1.7894,0.1797,-0.0001,-0.0000,-2.2576,flat,18.0,2,10.131
6960,222.72,-0.6635,1.3546,0.1797,-0.0001,-0.0000,-2.2826,flat,18.0,2,9.570
6970,223.04,-1.0394,0.9279,0.1797,-0.0001,-0.0000,-2.3055,flat,18.0,2,9.007
6980,223.36,-1.4251,0.5088,0.1797,-0.0001,-0.0000,-2.3264,flat,18.0,2,8.442
6990,223.68,-1.8197,0.0971,0.1797,-0.0001,-0.0000,-2.3452,flat,18.0,2,7.875
7000,224.00,-2.2220,-0.3077,0.1797,-0.0001,-0.0000,-2.3623,flat,18.0,2,7.307
7010,224.32,-2.6312,-0.7060,0.1797,-0.0001,-0.0000,-2.3782,flat,18.0,2,6.739
7020,224.64,-3.0468,-1.0981,0.1797,-0.0001,-0.0000,-2.3932,flat,18.0,2,6.169
7030,224.96,-3.4683,-1.4842,0.1797,-0.0001,-0.0000,-2.4074,flat,18.0,2,5.600
7040,225.28,-3.8952,-1.8646,0.1797,-0.0000,-0.0000,-2.4209,flat,18.0,2,5.029
7050,225.60,-4.3270,-2.2394,0.1797,-0.0000,-0.0000,-2.4337,flat,18.0,2,4.459
7060,225.92,-4.7636,-2.6086,0.1797,-0.0000,-0.0000,-2.4464,flat,18.0,2,3.888
7070,226.24,-5.2048,-2.9723,0.1797,-0.0000,0.0000,-2.4593,flat,18.0,2,3.317
7080,226.56,-5.6506,-3.3300,0.1797,-0.0000,0.0000,-2.4730,flat,18.0,2,2.747
7090,226.88,-6.1011,-3.6812,0.1797,-0.0001,0.0000,-2.4882,flat,18.0,2,2.176
7100,227.20,-6.5565,-4.0244,0.1797,-0.0001,0.0000,-2.5068,flat,18.0,2,1.607
7110,227.52,-7.0172,-4.3566,0.1797,-0.0001,0.0000,-2.5339,flat,18.0,2,1.039
7120,227.84,-7.4807,-4.6579,0.1798,-0.0000,0.0000,-2.6185,flat,18.0,3,0.967
7130,228.16,-7.8510,-4.8479,0.1799,0.0000,0.0004,-2.5230,flat,18.0,0,13.200
7140,228.48,-8.1075,-5.1219,0.1798,-0.0002,-0.0000,-2.0084,flat,18.0,0,13.466
7150,228.80,-8.2502,-5.4895,0.1799,-0.0001,-0.0000,-1.5153,flat,18.0,0,13.629
7160,229.12,-8.2036,-5.8879,0.1799,-0.0002,-0.0001,-1.1421,flat,18.0,0,13.617
7170,229.44,-7.9787,-6.2829,0.1799,-0.0000,-0.0001,-0.8753,flat,18.0,0,13.439
7180,229.76,-7.6246,-6.6365,0.1799,0.0000,-0.0000,-0.6713,flat,18.0,0,13.141
7190,230.08,-7.1874,-6.9389,0.1799,0.0000,-0.0000,-0.4897,flat,18.0,0,12.763
7200,230.40,-6.6928,-7.1744,0.1799,0.0001,-0.0000,-0.3351,flat,18.0,0,12.327
7210,230.72,-6.1756,-7.3186,0.1799,0.0001,-0.0000,-0.1267,flat,18.0,0,11.855
7220,231.04,-5.6305,-7.3679,0.1799,0.0001,-0.0000,0.0504,flat,18.0,0,11.339
7230,231.36,-5.0817,-7.3245,0.1799,0.0002,-0.0000,0.1846,flat,18.0,0,10.797
7240,231.68,-4.5411,-7.2101,0.1798,0.0004,-0.0000,0.2892,flat,18.0,0,10.245
7250,232.00,-4.0134,-7.0403,0.1798,0.0004,-0.0000,0.3765,flat,18.0,0,9.691
7260,232.32,-3.5014,-6.8249,0.1798,0.0003,-0.0000,0.4534,flat,18.0,0,9.141
7270,232.64,-3.0070,-6.5704,0.1797,0.0003,-0.0000,0.5245,flat,18.0,0,8.600
7280,232.96,-2.5313,-6.2806,0.1797,0.0002,-0.0000,0.5899,flat,18.0,0,8.070
7290,233.28,-2.0591,-5.9910,0.1798,-0.0002,-0.0000,0.5071,flat,18.0,0,7.548
7300,233.60,-1.5614,-5.7286,0.1798,-0.0003,-0.0000,0.4369,flat,18.0,0,7.011
7310,233.92,-1.0453,-5.4987,0.1797,-0.0002,-0.0000,0.3747,flat,18.0,0,6.464
7320,234.24,-0.5150,-5.2995,0.1797,-0.0002,-0.0000,0.3194,flat,18.0,0,5.911
7330,234.56,0.0262,-5.1286,0.1797,-0.0002,-0.0000,0.2698,flat,18.0,0,5.353
7340,234.88,0.5754,-4.9834,0.1797,-0.0002,-0.0000,0.2263,flat,18.0,0,4.792
7350,235.20,1.1299,-4.8612,0.1797,-0.0001,-0.0000,0.1875,flat,18.0,0,4.229
7360,235.52,1.6892,-4.7599,0.1797,-0.0001,-0.0000,0.1507,flat,18.0,0,3.663
7370,235.84,2.2520,-4.6789,0.1797,-0.0001,-0.0000,0.1149,flat,18.0,0,3.097
7380,236.16,2.8173,-4.6178,0.1797,-0.0001,-0.0000,0.0789,flat,18.0,0,2.529
7390,236.48,3.3840,-4.5772,0.1797,-0.0001,0.0000,0.0406,flat,18.0,0,1.961
7400,236.80,3.9506,-4.5587,0.1797,-0.0002,0.0000,-0.0044,flat,18.0,0,1.395
7410,237.12,4.5142,-4.5664,0.1797,-0.0002,0.0000,-0.0693,flat,18.0,0,0.832
7420,237.44,5.0363,-4.5756,0.1798,-0.0004,0.0001,0.1541,flat,18.0,1,12.736
7430,237.76,5.4450,-4.4901,0.1799,-0.0002,0.0001,0.5313,flat,18.0,1,12.790
7440,238.08,5.7424,-4.2531,0.1799,-0.0001,-0.0001,0.8786,flat,18.0,1,12.676
7450,238.40,5.9933,-3.8785,0.1799,-0.0000,-0.0000,1.1849,flat,18.0,1,12.427
7460,238.72,6.1514,-3.4093,0.1799,0.0000,-0.0000,1.4648,flat,18.0,1,12.065
7470,239.04,6.1817,-2.8897,0.1799,0.0002,0.0000,1.6994,flat,18.0,1,11.611
7480,239.36,6.0918,-2.3608,0.1799,0.0001,-0.0000,1.8727,flat,18.0,1,11.098
7490,239.68,5.9126,-1.8466,0.1799,0.0003,-0.0000,1.9956,flat,18.0,1,10.559
7500,240.00,5.6712,-1.3521,0.1798,0.0004,-0.0000,2.0884,flat,18.0,1,10.009
7510,240.32,5.3843,-0.8771,0.1798,0.0003,-0.0000,2.1608,flat,18.0,1,9.455
7520,240.64,5.0632,-0.4201,0.1797,0.0002,-0.0000,2.2194,flat,18.0,1,8.902
7530,240.96,4.7153,0.0196,0.1797,0.0002,-0.0000,2.2703,flat,18.0,1,8.353
7540,241.28,4.3449,0.4428,0.1797,0.0002,-0.0000,2.3141,flat,18.0,1,7.811
7550,241.60,3.9559,0.8512,0.1797,0.0001,-0.0000,2.3532,flat,18.0,1,7.278
7560,241.92,3.5509,1.2454,0.1797,0.0001,-0.0000,2.3887,flat,18.0,1,6.757
7570,242.24,3.1320,1.6255,0.1797,0.0001,-0.0000,2.4222,flat,18.0,1,6.252
7580,242.56,2.7011,1.9922,0.1797,0.0001,-0.0000,2.4531,flat,18.0,1,5.768
7590,242.88,2.2589,2.3462,0.1797,0.0001,-0.0000,2.4831,flat,18.0,1,5.310
7600,243.20,1.8062,2.6873,0.1797,0.0001,-0.0000,2.5131,flat,18.0,1,4.886
7610,243.52,1.3509,3.0005,0.1798,0.0001,-0.0001,2.5475,flat,18.0,1,4.522
7620,243.84,0.8770,3.3124,0.1797,0.0001,-0.0000,2.5785,flat,18.0,1,4.200
7630,244.16,0.4209,3.5944,0.1798,0.0001,0.0001,2.5018,flat,18.0,1,3.961
7640,244.48,0.0706,3.9200,0.1799,-0.0001,-0.0000,2.2429,flat,18.0,1,3.713
7650,244.80,-0.2124,4.3461,0.1799,-0.0000,-0.0000,1.9881,flat,18.0,1,3.395
7660,245.12,-0.3992,4.8441,0.1799,-0.0000,-0.0000,1.7422,flat,18.0,1,3.019
7670,245.44,-0.4675,5.3783,0.1799,-0.0000,-0.0000,1.5169,flat,18.0,1,2.599
7680,245.76,-0.4185,5.9152,0.1799,-0.0001,-0.0000,1.3350,flat,18.0,1,2.147
7690,246.08,-0.2739,6.4336,0.1799,-0.0001,-0.0000,1.1809,flat,18.0,1,1.682
7700,246.40,-0.0499,6.9207,0.1799,-0.0001,0.0000,1.0364,flat,18.0,1,1.220
7710,246.72,0.2450,7.3667,0.1799,-0.0002,0.0000,0.8974,flat,18.0,2,0.787
7720,247.04,0.4094,7.5501,0.1799,-0.0007,-0.0016,0.3017,flat,18.0,2,14.977
7730,247.36,0.6999,7.6310,0.1793,-0.0031,-0.0000,-0.1209,flat,18.0,2,15.207
7740,247.68,1.0532,7.5587,0.1799,-0.0001,0.0000,-0.5829,flat,18.0,2,15.350
7750,248.00,1.3490,7.2979,0.1799,0.0000,-0.0000,-0.9083,flat,18.0,2,15.316
7760,248.32,1.5987,6.9072,0.1799,-0.0000,-0.0000,-1.1972,flat,18.0,2,15.161
7770,248.64,1.7555,6.4279,0.1799,-0.0001,-0.0000,-1.4557,flat,18.0,2,14.892
7780,248.96,1.7927,5.9004,0.1799,-0.0001,0.0000,-1.6699,flat,18.0,2,14.519
7790,249.28,1.7198,5.3632,0.1799,-0.0001,-0.0000,-1.8281,flat,18.0,2,14.073
7800,249.60,1.5650,4.8365,0.1798,-0.0004,-0.0000,-1.9390,flat,18.0,2,13.585
7810,249.92,1.3532,4.3247,0.1798,-0.0004,-0.0000,-2.0220,flat,18.0,2,13.072
7820,250.24,1.0994,3.8278,0.1797,-0.0002,-0.0000,-2.0870,flat,18.0,2,12.542
7830,250.56,0.8137,3.3451,0.1797,-0.0002,-0.0000,-2.1392,flat,18.0,2,12.002
7840,250.88,0.5028,2.8758,0.1797,-0.0001,-0.0000,-2.1810,flat,18.0,2,11.454
7850,251.20,0.1725,2.4180,0.1797,-0.0001,-0.0000,-2.2156,flat,18.0,2,10.901
7860,251.52,-0.1738,1.9702,0.1797,-0.0001,-0.0000,-2.2456,flat,18.0,2,10.344
7870,251.84,-0.5335,1.5315,0.1797,-0.0001,-0.0000,-2.2718,flat,18.0,2,9.784
7880,252.16,-0.9047,1.1012,0.1797,-0.0001,-0.0000,-2.2954,flat,18.0,2,9.222
7890,252.48,-1.2861,0.6786,0.1797,-0.0001,-0.0000,-2.3170,flat,18.0,2,8.657
7900,252.80,-1.6767,0.2635,0.1797,-0.0001,-0.0000,-2.3366,flat,18.0,2,8.091
7910,253.12,-2.0755,-0.1445,0.1797,-0.0001,-0.0000,-2.3543,flat,18.0,2,7.524
7920,253.44,-2.4816,-0.5460,0.1797,-0.0001,-0.0000,-2.3706,flat,18.0,2,6.956
7930,253.76,-2.8941,-0.9411,0.1797,-0.0001,-0.0000,-2.3859,flat,18.0,2,6.387
7940,254.08,-3.3128,-1.3302,0.1797,-0.0001,-0.0000,-2.4004,flat,18.0,2,5.817
7950,254.40,-3.7371,-1.7134,0.1797,-0.0000,-0.0000,-2.4142,flat,18.0,2,5.247
7960,254.72,-4.1664,-2.0910,0.1797,-0.0000,-0.0000,-2.4272,flat,18.0,2,4.676
7970,255.04,-4.6006,-2.4631,0.1797,-0.0000,-0.0000,-2.4399,flat,18.0,2,4.106
7980,255.36,-5.0394,-2.8297,0.1797,-0.0000,0.0000,-2.4527,flat,18.0,2,3.535
7990,255.68,-5.4828,-3.1905,0.1797,-0.0000,0.0000,-2.4659,flat,18.0,2,2.964
8000,256.00,-5.9309,-3.5450,0.1797,-0.0001,0.0000,-2.4804,flat,18.0,2,2.394
8010,256.32,-6.3838,-3.8923,0.1797,-0.0001,0.0000,-2.4974,flat,18.0,2,1.824
