step,time_s,x,y,z,roll,pitch,yaw,terrain,speed,target_idx,dist_to_target
10,0.32,1.0687,-0.7750,0.1846,-0.0000,-0.0336,-0.0000,rough,14.0,0,5.684
20,0.64,1.5072,-0.7892,0.1794,-0.0001,0.0022,-0.1158,flat,18.0,0,5.352
30,0.96,2.0370,-0.8738,0.1799,-0.0001,-0.0000,-0.2962,flat,18.0,0,4.923
40,1.28,2.5485,-1.0505,0.1799,-0.0002,-0.0000,-0.4322,flat,18.0,0,4.456
50,1.60,3.0358,-1.2958,0.1798,-0.0004,-0.0000,-0.5408,flat,18.0,0,3.966
60,1.92,3.4991,-1.5945,0.1798,-0.0004,-0.0000,-0.6250,flat,18.0,0,3.459
70,2.24,3.9389,-1.9311,0.1798,-0.0003,-0.0000,-0.6986,flat,18.0,0,2.946
80,2.56,4.3493,-2.2999,0.1798,-0.0003,0.0000,-0.7778,flat,18.0,0,2.433
90,2.88,4.7266,-2.7006,0.1798,-0.0004,-0.0000,-0.8658,flat,18.0,0,1.922
100,3.20,5.0664,-3.1331,0.1798,-0.0004,0.0000,-0.9713,flat,18.0,0,1.415
110,3.52,5.3553,-3.5968,0.1799,-0.0001,0.0000,-1.1167,flat,18.0,0,0.924
120,3.84,5.4899,-3.9448,0.1798,-0.0000,0.0005,-0.9034,flat,18.0,1,12.296
130,4.16,5.6892,-4.1055,0.1791,0.0001,0.0053,-0.2279,flat,18.0,1,12.519
140,4.48,6.0644,-4.1719,0.1799,-0.0005,-0.0000,0.3077,flat,18.0,1,12.725
150,4.80,6.4120,-4.0246,0.1799,-0.0001,-0.0000,0.6716,flat,18.0,1,12.733
160,5.12,6.7253,-3.7082,0.1799,-0.0000,-0.0001,0.9447,flat,18.0,1,12.586
170,5.44,6.9834,-3.2840,0.1799,0.0000,-0.0000,1.1937,flat,18.0,1,12.332
180,5.76,7.1518,-2.7852,0.1799,0.0000,-0.0000,1.4152,flat,18.0,1,11.983
190,6.08,7.2161,-2.2462,0.1799,0.0001,-0.0000,1.5995,flat,18.0,1,11.558
200,6.40,7.1839,-1.6963,0.1799,0.0002,-0.0000,1.7358,flat,18.0,1,11.080
210,6.72,7.0804,-1.1514,0.1798,0.0004,-0.0000,1.8337,flat,18.0,1,10.572
220,7.04,6.9252,-0.6154,0.1798,0.0003,-0.0000,1.9085,flat,18.0,1,10.045
230,7.36,6.7308,-0.0893,0.1797,0.0002,-0.0000,1.9678,flat,18.0,1,9.506
240,7.68,6.5057,0.4267,0.1797,0.0002,-0.0000,2.0162,flat,18.0,1,8.960
250,8.00,6.2559,0.9326,0.1797,0.0001,-0.0000,2.0547,flat,18.0,1,8.408
260,8.32,5.9869,1.4299,0.1797,0.0001,-0.0000,2.0876,flat,18.0,1,7.852
270,8.64,5.7015,1.9195,0.1797,0.0001,-0.0000,2.1165,flat,18.0,1,7.292
280,8.96,5.4020,2.4017,0.1797,0.0001,-0.0000,2.1422,flat,18.0,1,6.731
290,9.28,5.0902,2.8769,0.1797,0.0001,-0.0000,2.1654,flat,18.0,1,6.168
300,9.60,4.7673,3.3454,0.1797,0.0001,-0.0000,2.1867,flat,18.0,1,5.603
310,9.92,4.4344,3.8075,0.1797,0.0001,-0.0000,2.2064,flat,18.0,1,5.037
320,10.24,4.0924,4.2634,0.1797,0.0001,-0.0000,2.2250,flat,18.0,1,4.471
330,10.56,3.7420,4.7130,0.1797,0.0001,-0.0000,2.2429,flat,18.0,1,3.904
340,10.88,3.3835,5.1563,0.1797,0.0001,-0.0000,2.2606,flat,18.0,1,3.336
350,11.20,3.0171,5.5930,0.1797,0.0001,0.0000,2.2787,flat,18.0,1,2.769
360,11.52,2.6430,6.0226,0.1797,0.0001,0.0000,2.2982,flat,18.0,1,2.202
370,11.84,2.2607,6.4439,0.1797,0.0001,0.0000,2.3211,flat,18.0,1,1.637
380,12.16,1.8690,6.8538,0.1797,0.0001,0.0000,2.3506,flat,18.0,1,1.074
390,12.48,1.5070,7.2012,0.1798,-0.0001,0.0003,2.5179,flat,18.0,2,15.335
400,12.80,1.1365,7.4166,0.1799,0.0000,-0.0000,2.8612,flat,18.0,2,15.284
410,13.12,0.6710,7.5217,0.1799,0.0002,0.0000,-3.1154,flat,18.0,2,15.100
420,13.44,0.1637,7.4834,0.1799,0.0001,-0.0000,-2.8794,flat,18.0,2,14.786
430,13.76,-0.3401,7.3227,0.1799,0.0001,-0.0000,-2.7046,flat,18.0,2,14.381
440,14.08,-0.8204,7.0739,0.1799,0.0003,-0.0000,-2.5804,flat,18.0,2,13.920
450,14.40,-1.2755,6.7653,0.1798,0.0004,-0.0000,-2.4925,flat,18.0,2,13.425
460,14.72,-1.7091,6.4174,0.1797,0.0002,-0.0000,-2.4264,flat,18.0,2,12.910
470,15.04,-2.1200,6.0405,0.1797,0.0002,-0.0000,-2.3661,flat,18.0,2,12.383
480,15.36,-2.5107,5.6387,0.1797,0.0002,-0.0000,-2.3151,flat,18.0,2,11.847
490,15.68,-2.8825,5.2172,0.1797,0.0002,-0.0000,-2.2708,flat,18.0,2,11.303
500,16.00,-3.2380,4.7799,0.1797,0.0001,-0.0000,-2.2325,flat,18.0,2,10.754
510,16.32,-3.5788,4.3286,0.1797,0.0001,-0.0000,-2.1982,flat,18.0,2,10.201
520,16.64,-3.9056,3.8653,0.1797,0.0001,-0.0000,-2.1673,flat,18.0,2,9.643
530,16.96,-4.2195,3.3917,0.1797,0.0001,-0.0000,-2.1395,flat,18.0,2,9.083
540,17.28,-4.5213,2.9092,0.1797,0.0001,-0.0000,-2.1144,flat,18.0,2,8.520
550,17.60,-4.8119,2.4189,0.1797,0.0001,-0.0000,-2.0917,flat,18.0,2,7.955
560,17.92,-5.0921,1.9218,0.1797,0.0001,-0.0000,-2.0710,flat,18.0,2,7.388
570,18.24,-5.3626,1.4187,0.1797,0.0001,-0.0000,-2.0520,flat,18.0,2,6.820
580,18.56,-5.6241,0.9104,0.1797,0.0001,-0.0000,-2.0345,flat,18.0,2,6.252
590,18.88,-5.8771,0.3974,0.1797,0.0001,-0.0000,-2.0182,flat,18.0,2,5.682
600,19.20,-6.1221,-0.1198,0.1797,0.0001,-0.0000,-2.0030,flat,18.0,2,5.112
610,19.52,-6.3595,-0.6408,0.1797,0.0001,-0.0000,-1.9885,flat,18.0,2,4.541
620,19.84,-6.5895,-1.1653,0.1797,0.0000,-0.0000,-1.9746,flat,18.0,2,3.970
630,20.16,-6.8123,-1.6930,0.1797,0.0000,-0.0000,-1.9609,flat,18.0,2,3.398
640,20.48,-7.0279,-2.2237,0.1797,0.0000,-0.0000,-1.9470,flat,18.0,2,2.827
650,20.80,-7.2360,-2.7571,0.1797,0.0001,0.0000,-1.9323,flat,18.0,2,2.255
660,21.12,-7.4360,-3.2933,0.1797,0.0001,0.0000,-1.9157,flat,18.0,2,1.685
670,21.44,-7.6263,-3.8320,0.1797,0.0001,0.0000,-1.8944,flat,18.0,2,1.115
680,21.76,-7.7960,-4.3582,0.1798,0.0001,0.0001,-1.9476,flat,18.0,3,0.819
690,22.08,-7.9144,-4.7331,0.1798,-0.0004,0.0001,-1.6980,rough,14.0,0,13.261
700,22.40,-7.9483,-5.0853,0.1799,-0.0000,-0.0001,-1.3150,flat,18.0,0,13.305
710,22.72,-7.8271,-5.4611,0.1798,0.0001,0.0001,-1.0986,rough,14.0,0,13.205
720,23.04,-7.5931,-5.8400,0.1799,0.0001,-0.0000,-0.8684,flat,18.0,0,13.005
730,23.36,-7.2344,-6.1939,0.1799,0.0000,-0.0000,-0.6675,flat,18.0,0,12.690
740,23.68,-6.7947,-6.4963,0.1799,0.0001,-0.0000,-0.4891,flat,18.0,0,12.299
750,24.00,-6.2995,-6.7322,0.1799,0.0001,-0.0000,-0.3380,flat,18.0,0,11.852
760,24.32,-5.7697,-6.9004,0.1799,0.0003,-0.0000,-0.2146,flat,18.0,0,11.366
770,24.64,-5.2198,-7.0075,0.1798,0.0004,-0.0000,-0.1141,flat,18.0,0,10.853
780,24.96,-4.6591,-7.0619,0.1798,0.0004,-0.0000,-0.0321,flat,18.0,0,10.322
790,25.28,-4.0937,-7.0720,0.1797,0.0003,-0.0000,0.0343,flat,18.0,0,9.777
800,25.60,-3.5283,-7.0465,0.1797,0.0002,-0.0000,0.0845,flat,18.0,0,9.226
810,25.92,-2.9636,-6.9935,0.1797,0.0001,-0.0000,0.1247,flat,18.0,0,8.669
820,26.24,-2.4007,-6.9186,0.1797,0.0001,-0.0000,0.1577,flat,18.0,0,8.108
830,26.56,-1.8395,-6.8255,0.1797,0.0001,-0.0000,0.1858,flat,18.0,0,7.545
840,26.88,-1.2803,-6.7170,0.1797,0.0001,-0.0000,0.2101,flat,18.0,0,6.980
850,27.20,-0.7231,-6.5951,0.1797,0.0001,-0.0000,0.2314,flat,18.0,0,6.413
860,27.52,-0.1681,-6.4614,0.1797,0.0001,-0.0000,0.2504,flat,18.0,0,5.845
870,27.84,0.3847,-6.3174,0.1797,0.0001,-0.0000,0.2676,flat,18.0,0,5.276
880,28.16,0.9353,-6.1640,0.1797,0.0001,-0.0000,0.2833,flat,18.0,0,4.706
890,28.48,1.4837,-6.0020,0.1797,0.0001,-0.0000,0.2980,flat,18.0,0,4.136
900,28.80,2.0298,-5.8320,0.1797,0.0000,-0.0000,0.3120,flat,18.0,0,3.565
910,29.12,2.5736,-5.6543,0.1797,0.0000,-0.0000,0.3258,flat,18.0,0,2.994
920,29.44,3.1147,-5.4692,0.1797,0.0000,0.0000,0.3399,flat,18.0,0,2.423
930,29.76,3.6526,-5.2764,0.1797,0.0001,0.0000,0.3552,flat,18.0,0,1.853
940,30.08,4.1866,-5.0753,0.1797,0.0001,0.0000,0.3735,flat,18.0,0,1.284
950,30.40,4.7111,-4.8677,0.1797,0.0000,0.0002,0.4170,flat,18.0,1,12.916
960,30.72,5.1065,-4.6575,0.1799,-0.0001,0.0000,0.6795,flat,18.0,1,12.836
970,31.04,5.4344,-4.3269,0.1799,0.0000,-0.0000,0.9292,flat,18.0,1,12.633
980,31.36,5.7077,-3.8965,0.1799,0.0000,-0.0000,1.1547,flat,18.0,1,12.332
990,31.68,5.8994,-3.3964,0.1799,0.0000,-0.0000,1.3543,flat,18.0,1,11.948
1000,32.00,5.9982,-2.8564,0.1799,0.0001,-0.0000,1.5201,flat,18.0,1,11.500
1010,32.32,6.0109,-2.3014,0.1799,0.0003,-0.0000,1.6487,flat,18.0,1,11.008
1020,32.64,5.9562,-1.7459,0.1798,0.0004,-0.0000,1.7413,flat,18.0,1,10.490
1030,32.96,5.8520,-1.1949,0.1798,0.0003,-0.0000,1.8120,flat,18.0,1,9.956
1040,33.28,5.7100,-0.6501,0.1797,0.0002,-0.0000,1.8679,flat,18.0,1,9.412
1050,33.60,5.5382,-0.1121,0.1797,0.0002,-0.0000,1.9130,flat,18.0,1,8.861
1060,33.92,5.3428,0.4184,0.1797,0.0001,-0.0000,1.9487,flat,18.0,1,8.306
1070,34.24,5.1287,0.9430,0.1797,0.0001,-0.0000,1.9795,flat,18.0,1,7.747
1080,34.56,4.8985,1.4619,0.1797,0.0001,-0.0000,2.0065,flat,18.0,1,7.185
1090,34.88,4.6544,1.9754,0.1797,0.0001,-0.0000,2.0304,flat,18.0,1,6.622
1100,35.20,4.3981,2.4837,0.1797,0.0001,-0.0000,2.0518,flat,18.0,1,6.057
1110,35.52,4.1310,2.9870,0.1797,0.0001,-0.0000,2.0714,flat,18.0,1,5.490
1120,35.84,3.8540,3.4854,0.1797,0.0001,-0.0000,2.0896,flat,18.0,1,4.923
1130,36.16,3.5680,3.9790,0.1797,0.0001,-0.0000,2.1066,flat,18.0,1,4.355
1140,36.48,3.2736,4.4679,0.1797,0.0001,-0.0000,2.1230,flat,18.0,1,3.786
1150,36.80,2.9712,4.9519,0.1797,0.0001,-0.0000,2.1392,flat,18.0,1,3.218
1160,37.12,2.6610,5.4308,0.1797,0.0001,0.0000,2.1557,flat,18.0,1,2.649
1170,37.44,2.3429,5.9041,0.1797,0.0001,0.0000,2.1733,flat,18.0,1,2.081
1180,37.76,2.0165,6.3705,0.1797,0.0001,0.0000,2.1938,flat,18.0,1,1.514
1190,38.08,1.6808,6.8274,0.1797,0.0001,0.0000,2.2212,flat,18.0,1,0.951
1200,38.40,1.3826,7.1866,0.1798,-0.0003,0.0001,2.4590,flat,18.0,2,15.248
1210,38.72,1.0336,7.4127,0.1799,-0.0000,-0.0001,2.8080,flat,18.0,2,15.220
1220,39.04,0.5815,7.5395,0.1799,0.0000,-0.0000,3.1272,flat,18.0,2,15.064
1230,39.36,0.0797,7.5215,0.1799,0.0000,-0.0000,-2.9029,flat,18.0,2,14.773
1240,39.68,-0.4246,7.3739,0.1799,0.0001,-0.0000,-2.7203,flat,18.0,2,14.380
1250,40.00,-0.9068,7.1327,0.1799,0.0002,-0.0000,-2.5893,flat,18.0,2,13.927
1260,40.32,-1.3629,6.8283,0.1798,0.0004,-0.0000,-2.4959,flat,18.0,2,13.437
1270,40.64,-1.7971,6.4819,0.1797,0.0003,-0.0000,-2.4281,flat,18.0,2,12.925
1280,40.96,-2.2080,6.1058,0.1797,0.0002,-0.0000,-2.3661,flat,18.0,2,12.401
1290,41.28,-2.5980,5.7041,0.1797,0.0002,-0.0000,-2.3134,flat,18.0,2,11.866
1300,41.60,-2.9685,5.2821,0.1797,0.0002,-0.0000,-2.2678,flat,18.0,2,11.324
1310,41.92,-3.3223,4.8438,0.1797,0.0001,-0.0000,-2.2283,flat,18.0,2,10.776
1320,42.24,-3.6608,4.3912,0.1797,0.0001,-0.0000,-2.1929,flat,18.0,2,10.223
1330,42.56,-3.9849,3.9263,0.1797,0.0001,-0.0000,-2.1611,flat,18.0,2,9.666
1340,42.88,-4.2956,3.4508,0.1797,0.0001,-0.0000,-2.1325,flat,18.0,2,9.106
1350,43.20,-4.5939,2.9662,0.1797,0.0001,-0.0000,-2.1068,flat,18.0,2,8.544
1360,43.52,-4.8806,2.4737,0.1797,0.0001,-0.0000,-2.0834,flat,18.0,2,7.979
1370,43.84,-5.1566,1.9744,0.1797,0.0001,-0.0000,-2.0622,flat,18.0,2,7.413
1380,44.16,-5.4227,1.4690,0.1797,0.0001,-0.0000,-2.0428,flat,18.0,2,6.845
1390,44.48,-5.6794,0.9583,0.1797,0.0001,-0.0000,-2.0249,flat,18.0,2,6.276
1400,44.80,-5.9275,0.4430,0.1797,0.0001,-0.0000,-2.0083,flat,18.0,2,5.707
1410,45.12,-6.1673,-0.0766,0.1797,0.0001,-0.0000,-1.9928,flat,18.0,2,5.137
1420,45.44,-6.3994,-0.6000,0.1797,0.0001,-0.0000,-1.9781,flat,18.0,2,4.566
1430,45.76,-6.6239,-1.1268,0.1797,0.0001,-0.0000,-1.9640,flat,18.0,2,3.995
1440,46.08,-6.8411,-1.6568,0.1797,0.0000,-0.0000,-1.9501,flat,18.0,2,3.424
1450,46.40,-7.0510,-2.1898,0.1797,0.0000,-0.0000,-1.9360,flat,18.0,2,2.852
1460,46.72,-7.2532,-2.7255,0.1797,0.0001,0.0000,-1.9212,flat,18.0,2,2.281
1470,47.04,-7.4473,-3.2639,0.1797,0.0001,0.0000,-1.9046,flat,18.0,2,1.710
1480,47.36,-7.6316,-3.8047,0.1797,0.0001,0.0000,-1.8834,flat,18.0,2,1.140
1490,47.68,-7.7959,-4.3370,0.1797,0.0001,0.0001,-1.9144,flat,18.0,3,0.833
1500,48.00,-7.9034,-4.7221,0.1798,-0.0004,0.0001,-1.6957,rough,14.0,0,13.250
1510,48.32,-7.9381,-5.0697,0.1799,-0.0001,-0.0001,-1.3227,flat,18.0,0,13.294
1520,48.64,-7.8237,-5.4370,0.1799,0.0001,0.0001,-1.0978,rough,14.0,0,13.200
1530,48.96,-7.5965,-5.8084,0.1799,-0.0001,-0.0000,-0.8735,flat,18.0,0,13.005
1540,49.28,-7.2402,-6.1637,0.1799,0.0000,-0.0000,-0.6724,flat,18.0,0,12.692
1550,49.60,-6.8022,-6.4678,0.1799,0.0000,-0.0000,-0.4938,flat,18.0,0,12.302
1560,49.92,-6.3083,-6.7059,0.1799,0.0001,-0.0000,-0.3425,flat,18.0,0,11.856
1570,50.24,-5.7793,-6.8763,0.1799,0.0003,-0.0000,-0.2187,flat,18.0,0,11.371
1580,50.56,-5.2299,-6.9855,0.1798,0.0004,-0.0000,-0.1179,flat,18.0,0,10.858
1590,50.88,-4.6695,-7.0419,0.1798,0.0004,-0.0000,-0.0355,flat,18.0,0,10.327
1600,51.20,-4.1041,-7.0540,0.1797,0.0003,-0.0000,0.0313,flat,18.0,0,9.783
1610,51.52,-3.5386,-7.0301,0.1797,0.0002,-0.0000,0.0817,flat,18.0,0,9.231
1620,51.84,-2.9738,-6.9787,0.1797,0.0001,-0.0000,0.1222,flat,18.0,0,8.674
1630,52.16,-2.4107,-6.9052,0.1797,0.0001,-0.0000,0.1553,flat,18.0,0,8.114
1640,52.48,-1.8493,-6.8134,0.1797,0.0001,-0.0000,0.1835,flat,18.0,0,7.551
1650,52.80,-1.2899,-6.7061,0.1797,0.0001,-0.0000,0.2079,flat,18.0,0,6.985
1660,53.12,-0.7325,-6.5854,0.1797,0.0001,-0.0000,0.2293,flat,18.0,0,6.418
1670,53.44,-0.1772,-6.4529,0.1797,0.0001,-0.0000,0.2484,flat,18.0,0,5.850
1680,53.76,0.3759,-6.3100,0.1797,0.0001,-0.0000,0.2656,flat,18.0,0,5.281
1690,54.08,0.9268,-6.1577,0.1797,0.0001,-0.0000,0.2813,flat,18.0,0,4.712
1700,54.40,1.4755,-5.9968,0.1797,0.0001,-0.0000,0.2960,flat,18.0,0,4.141
1710,54.72,2.0220,-5.8278,0.1797,0.0000,-0.0000,0.3101,flat,18.0,0,3.571
1720,55.04,2.5661,-5.6512,0.1797,0.0000,-0.0000,0.3239,flat,18.0,0,3.000
1730,55.36,3.1075,-5.4671,0.1797,0.0000,0.0000,0.3380,flat,18.0,0,2.429
1740,55.68,3.6459,-5.2753,0.1797,0.0001,0.0000,0.3533,flat,18.0,0,1.859
1750,56.00,4.1802,-5.0753,0.1797,0.0001,0.0000,0.3716,flat,18.0,0,1.290
1760,56.32,4.7052,-4.8687,0.1797,0.0000,0.0002,0.4149,flat,18.0,1,12.916
1770,56.64,5.1012,-4.6595,0.1799,-0.0001,0.0000,0.6771,flat,18.0,1,12.836
1780,56.96,5.4295,-4.3299,0.1799,0.0000,-0.0000,0.9272,flat,18.0,1,12.635
1790,57.28,5.7034,-3.9002,0.1799,0.0000,-0.0000,1.1529,flat,18.0,1,12.334
1800,57.60,5.8958,-3.4006,0.1799,0.0000,-0.0000,1.3525,flat,18.0,1,11.951
1810,57.92,5.9954,-2.8607,0.1799,0.0001,-0.0000,1.5188,flat,18.0,1,11.503
1820,58.24,6.0088,-2.3058,0.1799,0.0003,-0.0000,1.6477,flat,18.0,1,11.011
1830,58.56,5.9547,-1.7502,0.1798,0.0004,-0.0000,1.7406,flat,18.0,1,10.493
1840,58.88,5.8509,-1.1991,0.1798,0.0003,-0.0000,1.8114,flat,18.0,1,9.960
1850,59.20,5.7093,-0.6543,0.1797,0.0002,-0.0000,1.8674,flat,18.0,1,9.416
1860,59.52,5.5377,-0.1162,0.1797,0.0002,-0.0000,1.9126,flat,18.0,1,8.864
1870,59.84,5.3426,0.4144,0.1797,0.0001,-0.0000,1.9483,flat,18.0,1,8.309
1880,60.16,5.1286,0.9391,0.1797,0.0001,-0.0000,1.9791,flat,18.0,1,7.750
1890,60.48,4.8987,1.4581,0.1797,0.0001,-0.0000,2.0061,flat,18.0,1,7.189
1900,60.80,4.6548,1.9717,0.1797,0.0001,-0.0000,2.0300,flat,18.0,1,6.625
1910,61.12,4.3987,2.4800,0.1797,0.0001,-0.0000,2.0515,flat,18.0,1,6.060
1920,61.44,4.1317,2.9834,0.1797,0.0001,-0.0000,2.0711,flat,18.0,1,5.494
1930,61.76,3.8549,3.4818,0.1797,0.0001,-0.0000,2.0893,flat,18.0,1,4.926
1940,62.08,3.5690,3.9756,0.1797,0.0001,-0.0000,2.1063,flat,18.0,1,4.358
1950,62.40,3.2748,4.4645,0.1797,0.0001,-0.0000,2.1227,flat,18.0,1,3.790
1960,62.72,2.9725,4.9487,0.1797,0.0001,-0.0000,2.1389,flat,18.0,1,3.221
1970,63.04,2.6624,5.4277,0.1797,0.0001,0.0000,2.1554,flat,18.0,1,2.653
1980,63.36,2.3445,5.9010,0.1797,0.0001,0.0000,2.1730,flat,18.0,1,2.085
1990,63.68,2.0182,6.3676,0.1797,0.0001,0.0000,2.1934,flat,18.0,1,1.518
2000,64.00,1.6827,6.8246,0.1797,0.0001,0.0000,2.2208,flat,18.0,1,0.954
2010,64.32,1.3846,7.1839,0.1798,-0.0003,0.0001,2.4585,flat,18.0,2,15.247
2020,64.64,1.0357,7.4101,0.1799,-0.0000,-0.0001,2.8075,flat,18.0,2,15.220
2030,64.96,0.5838,7.5371,0.1799,0.0000,-0.0000,3.1267,flat,18.0,2,15.064
2040,65.28,0.0819,7.5194,0.1799,0.0000,-0.0000,-2.9032,flat,18.0,2,14.772
2050,65.60,-0.4224,7.3720,0.1799,0.0001,-0.0000,-2.7206,flat,18.0,2,14.380
2060,65.92,-0.9046,7.1310,0.1799,0.0002,-0.0000,-2.5896,flat,18.0,2,13.926
2070,66.24,-1.3608,6.8267,0.1798,0.0004,-0.0000,-2.4962,flat,18.0,2,13.436
2080,66.56,-1.7951,6.4804,0.1797,0.0003,-0.0000,-2.4283,flat,18.0,2,12.924
2090,66.88,-2.2061,6.1044,0.1797,0.0002,-0.0000,-2.3663,flat,18.0,2,12.400
2100,67.20,-2.5962,5.7028,0.1797,0.0002,-0.0000,-2.3137,flat,18.0,2,11.866
2110,67.52,-2.9668,5.2809,0.1797,0.0002,-0.0000,-2.2680,flat,18.0,2,11.324
2120,67.84,-3.3206,4.8426,0.1797,0.0001,-0.0000,-2.2285,flat,18.0,2,10.776
2130,68.16,-3.6592,4.3901,0.1797,0.0001,-0.0000,-2.1931,flat,18.0,2,10.223
2140,68.48,-3.9835,3.9252,0.1797,0.0001,-0.0000,-2.1613,flat,18.0,2,9.666
2150,68.80,-4.2943,3.4498,0.1797,0.0001,-0.0000,-2.1327,flat,18.0,2,9.106
2160,69.12,-4.5927,2.9653,0.1797,0.0001,-0.0000,-2.1070,flat,18.0,2,8.543
2170,69.44,-4.8795,2.4729,0.1797,0.0001,-0.0000,-2.0836,flat,18.0,2,7.979
2180,69.76,-5.1556,1.9736,0.1797,0.0001,-0.0000,-2.0624,flat,18.0,2,7.412
2190,70.08,-5.4217,1.4683,0.1797,0.0001,-0.0000,-2.0430,flat,18.0,2,6.845
2200,70.40,-5.6786,0.9576,0.1797,0.0001,-0.0000,-2.0251,flat,18.0,2,6.276
2210,70.72,-5.9267,0.4423,0.1797,0.0001,-0.0000,-2.0085,flat,18.0,2,5.707
2220,71.04,-6.1667,-0.0772,0.1797,0.0001,-0.0000,-1.9930,flat,18.0,2,5.136
2230,71.36,-6.3988,-0.6006,0.1797,0.0001,-0.0000,-1.9783,flat,18.0,2,4.566
2240,71.68,-6.6234,-1.1274,0.1797,0.0001,-0.0000,-1.9641,flat,18.0,2,3.995
2250,72.00,-6.8407,-1.6573,0.1797,0.0000,-0.0000,-1.9502,flat,18.0,2,3.423
2260,72.32,-7.0507,-2.1902,0.1797,0.0000,-0.0000,-1.9362,flat,18.0,2,2.852
2270,72.64,-7.2530,-2.7259,0.1797,0.0001,0.0000,-1.9214,flat,18.0,2,2.280
2280,72.96,-7.4472,-3.2643,0.1797,0.0001,0.0000,-1.9047,flat,18.0,2,1.710
2290,73.28,-7.6316,-3.8050,0.1797,0.0001,0.0000,-1.8836,flat,18.0,2,1.140
2300,73.60,-7.7957,-4.3333,0.1798,0.0001,0.0001,-1.9372,flat,18.0,3,0.835
2310,73.92,-7.9179,-4.7281,0.1799,-0.0005,-0.0001,-1.6650,rough,14.0,0,13.264
2320,74.24,-7.9401,-5.0513,0.1798,0.0000,0.0002,-1.3293,rough,14.0,0,13.295
2330,74.56,-7.8267,-5.4150,0.1799,-0.0000,0.0001,-1.0984,rough,14.0,0,13.202
2340,74.88,-7.5847,-5.8003,0.1799,-0.0001,-0.0000,-0.8581,flat,18.0,0,12.993
2350,75.20,-7.2215,-6.1526,0.1799,0.0000,-0.0000,-0.6601,flat,18.0,0,12.672
2360,75.52,-6.7789,-6.4530,0.1799,0.0000,-0.0000,-0.4836,flat,18.0,0,12.277
2370,75.84,-6.2821,-6.6870,0.1799,0.0001,-0.0000,-0.3349,flat,18.0,0,11.827
2380,76.16,-5.7516,-6.8539,0.1799,0.0003,-0.0000,-0.2132,flat,18.0,0,11.339
2390,76.48,-5.2014,-6.9604,0.1798,0.0004,-0.0000,-0.1142,flat,18.0,0,10.825
2400,76.80,-4.6406,-7.0150,0.1798,0.0004,-0.0000,-0.0332,flat,18.0,0,10.292
2410,77.12,-4.0751,-7.0258,0.1797,0.0003,-0.0000,0.0325,flat,18.0,0,9.747
2420,77.44,-3.5095,-7.0014,0.1797,0.0002,-0.0000,0.0820,flat,18.0,0,9.195
2430,77.76,-2.9447,-6.9499,0.1797,0.0001,-0.0000,0.1218,flat,18.0,0,8.638
2440,78.08,-2.3814,-6.8766,0.1797,0.0001,-0.0000,0.1546,flat,18.0,0,8.077
2450,78.40,-1.8199,-6.7853,0.1797,0.0001,-0.0000,0.1825,flat,18.0,0,7.514
2460,78.72,-1.2602,-6.6787,0.1797,0.0001,-0.0000,0.2066,flat,18.0,0,6.949
2470,79.04,-0.7026,-6.5587,0.1797,0.0001,-0.0000,0.2278,flat,18.0,0,6.382
2480,79.36,-0.1471,-6.4271,0.1797,0.0001,-0.0000,0.2467,flat,18.0,0,5.813
2490,79.68,0.4063,-6.2851,0.1797,0.0001,-0.0000,0.2638,flat,18.0,0,5.244
2500,80.00,0.9575,-6.1338,0.1797,0.0001,-0.0000,0.2794,flat,18.0,0,4.674
2510,80.32,1.5066,-5.9740,0.1797,0.0001,-0.0000,0.2940,flat,18.0,0,4.104
2520,80.64,2.0534,-5.8061,0.1797,0.0000,-0.0000,0.3080,flat,18.0,0,3.533
2530,80.96,2.5979,-5.6306,0.1797,0.0000,-0.0000,0.3218,flat,18.0,0,2.963
2540,81.28,3.1397,-5.4476,0.1797,0.0000,0.0000,0.3359,flat,18.0,0,2.392
2550,81.60,3.6785,-5.2570,0.1797,0.0001,0.0000,0.3513,flat,18.0,0,1.822
2560,81.92,4.2131,-5.0580,0.1797,0.0001,0.0000,0.3699,flat,18.0,0,1.253
2570,82.24,4.7382,-4.8524,0.1797,0.0000,0.0002,0.4141,flat,18.0,1,12.910
2580,82.56,5.1338,-4.6437,0.1799,-0.0001,0.0000,0.6768,flat,18.0,1,12.831
2590,82.88,5.4619,-4.3145,0.1799,0.0000,-0.0000,0.9275,flat,18.0,1,12.631
2600,83.20,5.7354,-3.8850,0.1799,0.0000,-0.0000,1.1538,flat,18.0,1,12.332
2610,83.52,5.9272,-3.3854,0.1799,0.0000,-0.0000,1.3540,flat,18.0,1,11.950
2620,83.84,6.0260,-2.8455,0.1799,0.0001,-0.0000,1.5209,flat,18.0,1,11.502
2630,84.16,6.0382,-2.2906,0.1799,0.0003,-0.0000,1.6499,flat,18.0,1,11.011
2640,84.48,5.9828,-1.7353,0.1798,0.0004,-0.0000,1.7430,flat,18.0,1,10.493
2650,84.80,5.8777,-1.1845,0.1798,0.0003,-0.0000,1.8138,flat,18.0,1,9.960
2660,85.12,5.7347,-0.6401,0.1797,0.0002,-0.0000,1.8699,flat,18.0,1,9.416
2670,85.44,5.5618,-0.1025,0.1797,0.0002,-0.0000,1.9152,flat,18.0,1,8.865
2680,85.76,5.3652,0.4276,0.1797,0.0001,-0.0000,1.9510,flat,18.0,1,8.310
2690,86.08,5.1499,0.9516,0.1797,0.0001,-0.0000,1.9819,flat,18.0,1,7.751
2700,86.40,4.9184,1.4700,0.1797,0.0001,-0.0000,2.0089,flat,18.0,1,7.189
2710,86.72,4.6731,1.9828,0.1797,0.0001,-0.0000,2.0329,flat,18.0,1,6.626
2720,87.04,4.4155,2.4904,0.1797,0.0001,-0.0000,2.0544,flat,18.0,1,6.061
2730,87.36,4.1471,2.9930,0.1797,0.0001,-0.0000,2.0741,flat,18.0,1,5.494
2740,87.68,3.8688,3.4906,0.1797,0.0001,-0.0000,2.0922,flat,18.0,1,4.927
2750,88.00,3.5814,3.9834,0.1797,0.0001,-0.0000,2.1093,flat,18.0,1,4.359
2760,88.32,3.2857,4.4715,0.1797,0.0001,-0.0000,2.1258,flat,18.0,1,3.791
2770,88.64,2.9819,4.9547,0.1797,0.0001,-0.0000,2.1420,flat,18.0,1,3.222
2780,88.96,2.6704,5.4327,0.1797,0.0001,0.0000,2.1585,flat,18.0,1,2.654
2790,89.28,2.3509,5.9050,0.1797,0.0001,0.0000,2.1762,flat,18.0,1,2.086
2800,89.60,2.0232,6.3704,0.1797,0.0001,0.0000,2.1967,flat,18.0,1,1.519
2810,89.92,1.6862,6.8263,0.1797,0.0001,0.0000,2.2241,flat,18.0,1,0.955
2820,90.24,1.3868,7.1846,0.1798,-0.0003,0.0001,2.4616,flat,18.0,2,15.249
2830,90.56,1.0369,7.4103,0.1799,-0.0000,-0.0001,2.8104,flat,18.0,2,15.220
2840,90.88,0.5842,7.5361,0.1799,0.0000,-0.0000,3.1292,flat,18.0,2,15.063
2850,91.20,0.0822,7.5172,0.1799,0.0000,-0.0000,-2.9018,flat,18.0,2,14.770
2860,91.52,-0.4221,7.3689,0.1799,0.0001,-0.0000,-2.7194,flat,18.0,2,14.377
2870,91.84,-0.9042,7.1272,0.1799,0.0003,-0.0000,-2.5888,flat,18.0,2,13.923
2880,92.16,-1.3602,6.8226,0.1798,0.0004,-0.0000,-2.4957,flat,18.0,2,13.433
2890,92.48,-1.7944,6.4761,0.1797,0.0003,-0.0000,-2.4279,flat,18.0,2,12.921
2900,92.80,-2.2053,6.0999,0.1797,0.0002,-0.0000,-2.3660,flat,18.0,2,12.397
2910,93.12,-2.5953,5.6981,0.1797,0.0002,-0.0000,-2.3135,flat,18.0,2,11.862
2920,93.44,-2.9659,5.2762,0.1797,0.0002,-0.0000,-2.2679,flat,18.0,2,11.320
2930,93.76,-3.3197,4.8379,0.1797,0.0001,-0.0000,-2.2284,flat,18.0,2,10.772
2940,94.08,-3.6583,4.3853,0.1797,0.0001,-0.0000,-2.1931,flat,18.0,2,10.219
2950,94.40,-3.9825,3.9205,0.1797,0.0001,-0.0000,-2.1614,flat,18.0,2,9.662
2960,94.72,-4.2934,3.4451,0.1797,0.0001,-0.0000,-2.1328,flat,18.0,2,9.102
2970,95.04,-4.5918,2.9606,0.1797,0.0001,-0.0000,-2.1071,flat,18.0,2,8.539
2980,95.36,-4.8787,2.4682,0.1797,0.0001,-0.0000,-2.0838,flat,18.0,2,7.975
2990,95.68,-5.1549,1.9690,0.1797,0.0001,-0.0000,-2.0626,flat,18.0,2,7.408
3000,96.00,-5.4212,1.4637,0.1797,0.0001,-0.0000,-2.0432,flat,18.0,2,6.841
3010,96.32,-5.6781,0.9531,0.1797,0.0001,-0.0000,-2.0253,flat,18.0,2,6.272
3020,96.64,-5.9264,0.4378,0.1797,0.0001,-0.0000,-2.0088,flat,18.0,2,5.703
3030,96.96,-6.1665,-0.0816,0.1797,0.0001,-0.0000,-1.9933,flat,18.0,2,5.132
3040,97.28,-6.3988,-0.6049,0.1797,0.0001,-0.0000,-1.9786,flat,18.0,2,4.562
3050,97.60,-6.6235,-1.1317,0.1797,0.0001,-0.0000,-1.9644,flat,18.0,2,3.990
3060,97.92,-6.8410,-1.6616,0.1797,0.0000,-0.0000,-1.9505,flat,18.0,2,3.419
3070,98.24,-7.0511,-2.1944,0.1797,0.0000,-0.0000,-1.9365,flat,18.0,2,2.848
3080,98.56,-7.2536,-2.7301,0.1797,0.0001,0.0000,-1.9217,flat,18.0,2,2.276
3090,98.88,-7.4479,-3.2683,0.1797,0.0001,0.0000,-1.9050,flat,18.0,2,1.705
3100,99.20,-7.6324,-3.8090,0.1797,0.0001,0.0000,-1.8838,flat,18.0,2,1.136
3110,99.52,-7.7966,-4.3373,0.1798,0.0001,0.0001,-1.9373,flat,18.0,3,0.832
3120,99.84,-7.9189,-4.7319,0.1799,-0.0005,-0.0001,-1.6650,rough,14.0,0,13.265
3130,100.16,-7.9395,-5.0745,0.1799,-0.0001,-0.0002,-1.3169,flat,18.0,0,13.296
3140,100.48,-7.8263,-5.4330,0.1799,0.0000,0.0000,-1.1129,flat,18.0,0,13.203
3150,100.80,-7.5837,-5.8240,0.1799,0.0002,0.0000,-0.8588,flat,18.0,0,12.994
3160,101.12,-7.2203,-6.1762,0.1799,0.0000,-0.0000,-0.6596,flat,18.0,0,12.674
3170,101.44,-6.7777,-6.4763,0.1799,0.0000,-0.0000,-0.4828,flat,18.0,0,12.279
3180,101.76,-6.2808,-6.7098,0.1799,0.0001,-0.0000,-0.3337,flat,18.0,0,11.830
3190,102.08,-5.7501,-6.8760,0.1799,0.0003,-0.0000,-0.2117,flat,18.0,0,11.342
3200,102.40,-5.1997,-6.9817,0.1798,0.0004,-0.0000,-0.1125,flat,18.0,0,10.828
3210,102.72,-4.6389,-7.0353,0.1798,0.0004,-0.0000,-0.0313,flat,18.0,0,10.295
3220,103.04,-4.0733,-7.0451,0.1797,0.0003,-0.0000,0.0344,flat,18.0,0,9.751
3230,103.36,-3.5079,-7.0197,0.1797,0.0002,-0.0000,0.0838,flat,18.0,0,9.199
3240,103.68,-2.9431,-6.9671,0.1797,0.0001,-0.0000,0.1237,flat,18.0,0,8.641
3250,104.00,-2.3801,-6.8928,0.1797,0.0001,-0.0000,0.1564,flat,18.0,0,8.081
3260,104.32,-1.8187,-6.8005,0.1797,0.0001,-0.0000,0.1843,flat,18.0,0,7.517
3270,104.64,-1.2592,-6.6928,0.1797,0.0001,-0.0000,0.2085,flat,18.0,0,6.952
3280,104.96,-0.7019,-6.5718,0.1797,0.0001,-0.0000,0.2297,flat,18.0,0,6.385
3290,105.28,-0.1466,-6.4391,0.1797,0.0001,-0.0000,0.2486,flat,18.0,0,5.817
3300,105.60,0.4065,-6.2961,0.1797,0.0001,-0.0000,0.2656,flat,18.0,0,5.248
3310,105.92,0.9575,-6.1438,0.1797,0.0001,-0.0000,0.2813,flat,18.0,0,4.678
3320,106.24,1.5062,-5.9829,0.1797,0.0001,-0.0000,0.2959,flat,18.0,0,4.108
3330,106.56,2.0527,-5.8140,0.1797,0.0000,-0.0000,0.3099,flat,18.0,0,3.537
3340,106.88,2.5968,-5.6374,0.1797,0.0000,-0.0000,0.3237,flat,18.0,0,2.966
3350,107.20,3.1383,-5.4534,0.1797,0.0000,0.0000,0.3378,flat,18.0,0,2.396
3360,107.52,3.6767,-5.2618,0.1797,0.0001,0.0000,0.3532,flat,18.0,0,1.825
3370,107.84,4.2109,-5.0618,0.1797,0.0001,0.0000,0.3717,flat,18.0,0,1.256
3380,108.16,4.7356,-4.8551,0.1797,0.0000,0.0002,0.4159,flat,18.0,1,12.911
3390,108.48,5.1309,-4.6456,0.1799,-0.0001,0.0000,0.6787,flat,18.0,1,12.832
3400,108.80,5.4587,-4.3155,0.1799,0.0000,-0.0000,0.9290,flat,18.0,1,12.631
3410,109.12,5.7318,-3.8854,0.1799,0.0000,-0.0000,1.1550,flat,18.0,1,12.331
3420,109.44,5.9232,-3.3854,0.1799,0.0000,-0.0000,1.3550,flat,18.0,1,11.948
3430,109.76,6.0215,-2.8454,0.1799,0.0001,-0.0000,1.5214,flat,18.0,1,11.500
3440,110.08,6.0335,-2.2905,0.1799,0.0003,-0.0000,1.6502,flat,18.0,1,11.009
3450,110.40,5.9779,-1.7351,0.1798,0.0004,-0.0000,1.7430,flat,18.0,1,10.491
3460,110.72,5.8728,-1.1844,0.1798,0.0003,-0.0000,1.8138,flat,18.0,1,9.957
3470,111.04,5.7298,-0.6399,0.1797,0.0002,-0.0000,1.8698,flat,18.0,1,9.413
3480,111.36,5.5570,-0.1022,0.1797,0.0002,-0.0000,1.9150,flat,18.0,1,8.862
3490,111.68,5.3605,0.4279,0.1797,0.0001,-0.0000,1.9508,flat,18.0,1,8.307
3500,112.00,5.1453,0.9520,0.1797,0.0001,-0.0000,1.9816,flat,18.0,1,7.748
3510,112.32,4.9140,1.4704,0.1797,0.0001,-0.0000,2.0086,flat,18.0,1,7.187
3520,112.64,4.6688,1.9834,0.1797,0.0001,-0.0000,2.0325,flat,18.0,1,6.623
3530,112.96,4.4114,2.4910,0.1797,0.0001,-0.0000,2.0540,flat,18.0,1,6.058
3540,113.28,4.1432,2.9937,0.1797,0.0001,-0.0000,2.0737,flat,18.0,1,5.492
3550,113.60,3.8651,3.4914,0.1797,0.0001,-0.0000,2.0918,flat,18.0,1,4.924
3560,113.92,3.5780,3.9844,0.1797,0.0001,-0.0000,2.1089,flat,18.0,1,4.356
3570,114.24,3.2824,4.4726,0.1797,0.0001,-0.0000,2.1254,flat,18.0,1,3.788
3580,114.56,2.9789,4.9559,0.1797,0.0001,-0.0000,2.1415,flat,18.0,1,3.219
3590,114.88,2.6675,5.4341,0.1797,0.0001,0.0000,2.1581,flat,18.0,1,2.651
3600,115.20,2.3483,5.9065,0.1797,0.0001,0.0000,2.1757,flat,18.0,1,2.083
3610,115.52,2.0207,6.3721,0.1797,0.0001,0.0000,2.1962,flat,18.0,1,1.516
3620,115.84,1.6839,6.8282,0.1797,0.0001,0.0000,2.2237,flat,18.0,1,0.952
3630,116.16,1.3847,7.1866,0.1798,-0.0003,0.0001,2.4613,flat,18.0,2,15.249
3640,116.48,1.0349,7.4123,0.1799,-0.0000,-0.0001,2.8101,flat,18.0,2,15.221
3650,116.80,0.5824,7.5382,0.1799,0.0000,-0.0000,3.1290,flat,18.0,2,15.064
3660,117.12,0.0804,7.5193,0.1799,0.0000,-0.0000,-2.9019,flat,18.0,2,14.771
3670,117.44,-0.4239,7.3711,0.1799,0.0001,-0.0000,-2.7194,flat,18.0,2,14.378
3680,117.76,-0.9060,7.1294,0.1799,0.0003,-0.0000,-2.5887,flat,18.0,2,13.924
3690,118.08,-1.3620,6.8247,0.1798,0.0004,-0.0000,-2.4956,flat,18.0,2,13.434
3700,118.40,-1.7961,6.4782,0.1797,0.0003,-0.0000,-2.4278,flat,18.0,2,12.922
3710,118.72,-2.2070,6.1020,0.1797,0.0002,-0.0000,-2.3659,flat,18.0,2,12.398
3720,119.04,-2.5969,5.7002,0.1797,0.0002,-0.0000,-2.3133,flat,18.0,2,11.863
3730,119.36,-2.9674,5.2782,0.1797,0.0002,-0.0000,-2.2678,flat,18.0,2,11.321
3740,119.68,-3.3212,4.8398,0.1797,0.0001,-0.0000,-2.2283,flat,18.0,2,10.773
3750,120.00,-3.6597,4.3872,0.1797,0.0001,-0.0000,-2.1929,flat,18.0,2,10.220
3760,120.32,-3.9839,3.9223,0.1797,0.0001,-0.0000,-2.1612,flat,18.0,2,9.663
3770,120.64,-4.2946,3.4469,0.1797,0.0001,-0.0000,-2.1326,flat,18.0,2,9.103
3780,120.96,-4.5930,2.9623,0.1797,0.0001,-0.0000,-2.1069,flat,18.0,2,8.541
3790,121.28,-4.8798,2.4699,0.1797,0.0001,-0.0000,-2.0836,flat,18.0,2,7.976
3800,121.60,-5.1559,1.9706,0.1797,0.0001,-0.0000,-2.0624,flat,18.0,2,7.410
3810,121.92,-5.4220,1.4653,0.1797,0.0001,-0.0000,-2.0430,flat,18.0,2,6.842
3820,122.24,-5.6789,0.9546,0.1797,0.0001,-0.0000,-2.0251,flat,18.0,2,6.273
3830,122.56,-5.9271,0.4393,0.1797,0.0001,-0.0000,-2.0086,flat,18.0,2,5.704
3840,122.88,-6.1670,-0.0802,0.1797,0.0001,-0.0000,-1.9931,flat,18.0,2,5.133
3850,123.20,-6.3992,-0.6036,0.1797,0.0001,-0.0000,-1.9784,flat,18.0,2,4.563
3860,123.52,-6.6239,-1.1303,0.1797,0.0001,-0.0000,-1.9642,flat,18.0,2,3.992
3870,123.84,-6.8412,-1.6603,0.1797,0.0000,-0.0000,-1.9503,flat,18.0,2,3.420
3880,124.16,-7.0512,-2.1932,0.1797,0.0000,-0.0000,-1.9363,flat,18.0,2,2.849
3890,124.48,-7.2536,-2.7289,0.1797,0.0001,0.0000,-1.9215,flat,18.0,2,2.277
3900,124.80,-7.4478,-3.2672,0.1797,0.0001,0.0000,-1.9048,flat,18.0,2,1.707
3910,125.12,-7.6323,-3.8079,0.1797,0.0001,0.0000,-1.8836,flat,18.0,2,1.137
3920,125.44,-7.7964,-4.3362,0.1798,0.0001,0.0001,-1.9372,flat,18.0,3,0.833
3930,125.76,-7.9186,-4.7309,0.1799,-0.0005,-0.0001,-1.6650,rough,14.0,0,13.265
3940,126.08,-7.9410,-5.0853,0.1799,-0.0000,-0.0001,-1.2940,flat,18.0,0,13.298
3950,126.40,-7.8088,-5.4601,0.1799,0.0001,0.0001,-1.0483,flat,18.0,0,13.187
3960,126.72,-7.5345,-5.8439,0.1799,0.0001,-0.0000,-0.8111,flat,18.0,0,12.947
3970,127.04,-7.1506,-6.1862,0.1799,0.0000,-0.0000,-0.6197,flat,18.0,0,12.606
3980,127.36,-6.6939,-6.4731,0.1799,0.0001,-0.0000,-0.4495,flat,18.0,0,12.196
3990,127.68,-6.1883,-6.6926,0.1799,0.0001,-0.0000,-0.3077,flat,18.0,0,11.736
4000,128.00,-5.6526,-6.8466,0.1799,0.0004,-0.0000,-0.1920,flat,18.0,0,11.241
4010,128.32,-5.0996,-6.9422,0.1798,0.0004,-0.0000,-0.0977,flat,18.0,0,10.721
4020,128.64,-4.5375,-6.9881,0.1798,0.0004,-0.0000,-0.0205,flat,18.0,0,10.186
4030,128.96,-3.9716,-6.9921,0.1797,0.0002,-0.0000,0.0411,flat,18.0,0,9.639
4040,129.28,-3.4060,-6.9631,0.1797,0.0002,-0.0000,0.0883,flat,18.0,0,9.085
4050,129.60,-2.8413,-6.9083,0.1797,0.0001,-0.0000,0.1261,flat,18.0,0,8.527
4060,129.92,-2.2781,-6.8327,0.1797,0.0001,-0.0000,0.1577,flat,18.0,0,7.966
4070,130.24,-1.7166,-6.7398,0.1797,0.0001,-0.0000,0.1846,flat,18.0,0,7.402
4080,130.56,-1.1569,-6.6320,0.1797,0.0001,-0.0000,0.2080,flat,18.0,0,6.836
4090,130.88,-0.5993,-6.5113,0.1797,0.0001,-0.0000,0.2286,flat,18.0,0,6.269
4100,131.20,-0.0438,-6.3793,0.1797,0.0001,-0.0000,0.2470,flat,18.0,0,5.700
4110,131.52,0.5097,-6.2372,0.1797,0.0001,-0.0000,0.2636,flat,18.0,0,5.131
4120,131.84,1.0611,-6.0860,0.1797,0.0001,-0.0000,0.2790,flat,18.0,0,4.561
4130,132.16,1.6103,-5.9264,0.1797,0.0001,-0.0000,0.2934,flat,18.0,0,3.990
4140,132.48,2.1573,-5.7589,0.1797,0.0000,-0.0000,0.3072,flat,18.0,0,3.420
4150,132.80,2.7019,-5.5839,0.1797,0.0000,-0.0000,0.3209,flat,18.0,0,2.849
4160,133.12,3.2439,-5.4014,0.1797,0.0000,0.0000,0.3351,flat,18.0,0,2.278
4170,133.44,3.7827,-5.2112,0.1797,0.0001,0.0000,0.3508,flat,18.0,0,1.708
4180,133.76,4.3171,-5.0125,0.1797,0.0001,0.0000,0.3704,flat,18.0,0,1.139
4190,134.08,4.8238,-4.8162,0.1798,0.0001,0.0003,0.4592,flat,18.0,1,12.900
4200,134.40,5.2026,-4.5877,0.1799,-0.0000,-0.0000,0.7272,rough,14.0,1,12.801
4210,134.72,5.4876,-4.2845,0.1799,0.0000,-0.0001,0.9418,flat,18.0,1,12.613
4220,135.04,5.7566,-3.8499,0.1799,0.0001,-0.0000,1.1667,flat,18.0,1,12.308
4230,135.36,5.9426,-3.3471,0.1799,0.0001,0.0000,1.3641,flat,18.0,1,11.921
4240,135.68,6.0359,-2.8058,0.1799,0.0001,-0.0000,1.5300,flat,18.0,1,11.471
4250,136.00,6.0432,-2.2506,0.1799,0.0003,-0.0000,1.6568,flat,18.0,1,10.978
4260,136.32,5.9842,-1.6955,0.1798,0.0004,-0.0000,1.7483,flat,18.0,1,10.459
4270,136.64,5.8762,-1.1452,0.1798,0.0003,-0.0000,1.8182,flat,18.0,1,9.925
4280,136.96,5.7308,-0.6013,0.1797,0.0002,-0.0000,1.8736,flat,18.0,1,9.380
4290,137.28,5.5560,-0.0643,0.1797,0.0002,-0.0000,1.9182,flat,18.0,1,8.829
4300,137.60,5.3578,0.4652,0.1797,0.0001,-0.0000,1.9537,flat,18.0,1,8.274
4310,137.92,5.1410,0.9888,0.1797,0.0001,-0.0000,1.9844,flat,18.0,1,7.715
4320,138.24,4.9083,1.5066,0.1797,0.0001,-0.0000,2.0112,flat,18.0,1,7.153
4330,138.56,4.6618,2.0189,0.1797,0.0001,-0.0000,2.0350,flat,18.0,1,6.589
4340,138.88,4.4031,2.5260,0.1797,0.0001,-0.0000,2.0565,flat,18.0,1,6.024
4350,139.20,4.1337,3.0280,0.1797,0.0001,-0.0000,2.0760,flat,18.0,1,5.458
4360,139.52,3.8544,3.5251,0.1797,0.0001,-0.0000,2.0941,flat,18.0,1,4.891
4370,139.84,3.5661,4.0174,0.1797,0.0001,-0.0000,2.1112,flat,18.0,1,4.323
4380,140.16,3.2694,4.5049,0.1797,0.0001,-0.0000,2.1277,flat,18.0,1,3.754
4390,140.48,2.9648,4.9875,0.1797,0.0001,-0.0000,2.1439,flat,18.0,1,3.186
4400,140.80,2.6523,5.4649,0.1797,0.0001,0.0000,2.1605,flat,18.0,1,2.617
4410,141.12,2.3319,5.9365,0.1797,0.0001,0.0000,2.1783,flat,18.0,1,2.049
4420,141.44,2.0032,6.4011,0.1797,0.0001,0.0000,2.1991,flat,18.0,1,1.483
4430,141.76,1.6651,6.8559,0.1797,0.0001,0.0000,2.2273,flat,18.0,1,0.919
4440,142.08,1.3645,7.2128,0.1798,-0.0003,0.0001,2.4656,flat,18.0,2,15.258
4450,142.40,1.0135,7.4375,0.1799,-0.0000,-0.0001,2.8146,flat,18.0,2,15.229
4460,142.72,0.5601,7.5616,0.1799,0.0000,-0.0000,3.1334,flat,18.0,2,15.071
4470,143.04,0.0580,7.5406,0.1799,-0.0000,-0.0000,-2.8978,flat,18.0,2,14.777
4480,143.36,-0.4457,7.3905,0.1799,0.0001,-0.0000,-2.7167,flat,18.0,2,14.384
4490,143.68,-0.9272,7.1476,0.1799,0.0003,-0.0000,-2.5864,flat,18.0,2,13.929
4500,144.00,-1.3825,6.8418,0.1798,0.0004,-0.0000,-2.4937,flat,18.0,2,13.439
4510,144.32,-1.8160,6.4943,0.1797,0.0003,-0.0000,-2.4258,flat,18.0,2,12.927
4520,144.64,-2.2260,6.1173,0.1797,0.0002,-0.0000,-2.3639,flat,18.0,2,12.403
4530,144.96,-2.6151,5.7147,0.1797,0.0002,-0.0000,-2.3113,flat,18.0,2,11.868
4540,145.28,-2.9848,5.2920,0.1797,0.0002,-0.0000,-2.2658,flat,18.0,2,11.326
4550,145.60,-3.3378,4.8530,0.1797,0.0001,-0.0000,-2.2263,flat,18.0,2,10.778
4560,145.92,-3.6754,4.3997,0.1797,0.0001,-0.0000,-2.1909,flat,18.0,2,10.225
4570,146.24,-3.9987,3.9341,0.1797,0.0001,-0.0000,-2.1592,flat,18.0,2,9.668
4580,146.56,-4.3085,3.4580,0.1797,0.0001,-0.0000,-2.1306,flat,18.0,2,9.108
4590,146.88,-4.6059,2.9729,0.1797,0.0001,-0.0000,-2.1049,flat,18.0,2,8.545
4600,147.20,-4.8918,2.4798,0.1797,0.0001,-0.0000,-2.0816,flat,18.0,2,7.981
4610,147.52,-5.1669,1.9800,0.1797,0.0001,-0.0000,-2.0604,flat,18.0,2,7.414
4620,147.84,-5.4320,1.4741,0.1797,0.0001,-0.0000,-2.0410,flat,18.0,2,6.847
4630,148.16,-5.6879,0.9630,0.1797,0.0001,-0.0000,-2.0232,flat,18.0,2,6.278
4640,148.48,-5.9350,0.4472,0.1797,0.0001,-0.0000,-2.0066,flat,18.0,2,5.708
4650,148.80,-6.1740,-0.0728,0.1797,0.0001,-0.0000,-1.9911,flat,18.0,2,5.138
4660,149.12,-6.4052,-0.5966,0.1797,0.0001,-0.0000,-1.9765,flat,18.0,2,4.567
4670,149.44,-6.6289,-1.1238,0.1797,0.0001,-0.0000,-1.9623,flat,18.0,2,3.996
4680,149.76,-6.8452,-1.6542,0.1797,0.0000,-0.0000,-1.9485,flat,18.0,2,3.425
4690,150.08,-7.0543,-2.1875,0.1797,0.0000,-0.0000,-1.9345,flat,18.0,2,2.853
4700,150.40,-7.2557,-2.7235,0.1797,0.0001,0.0000,-1.9197,flat,18.0,2,2.282
4710,150.72,-7.4490,-3.2622,0.1797,0.0001,0.0000,-1.9031,flat,18.0,2,1.711
4720,151.04,-7.6325,-3.8033,0.1797,0.0001,0.0000,-1.8820,flat,18.0,2,1.141
4730,151.36,-7.7961,-4.3358,0.1797,0.0001,0.0001,-1.9131,flat,18.0,3,0.833
4740,151.68,-7.9031,-4.7213,0.1798,-0.0004,0.0001,-1.6953,rough,14.0,0,13.249
4750,152.00,-7.9370,-5.0518,0.1799,-0.0001,-0.0002,-1.3404,flat,18.0,0,13.292
4760,152.32,-7.8257,-5.4243,0.1799,0.0000,0.0001,-1.1063,flat,18.0,0,13.201
4770,152.64,-7.5796,-5.8149,0.1799,0.0001,-0.0000,-0.8537,flat,18.0,0,12.989
4780,152.96,-7.2141,-6.1662,0.1799,0.0000,-0.0000,-0.6559,flat,18.0,0,12.666
4790,153.28,-6.7700,-6.4651,0.1799,0.0001,-0.0000,-0.4798,flat,18.0,0,12.270
4800,153.60,-6.2723,-6.6974,0.1799,0.0001,-0.0000,-0.3315,flat,18.0,0,11.819
4810,153.92,-5.7411,-6.8627,0.1799,0.0003,-0.0000,-0.2104,flat,18.0,0,11.331
4820,154.24,-5.1905,-6.9678,0.1798,0.0004,-0.0000,-0.1117,flat,18.0,0,10.816
4830,154.56,-4.6296,-7.0210,0.1798,0.0004,-0.0000,-0.0311,flat,18.0,0,10.283
4840,154.88,-4.0640,-7.0307,0.1797,0.0003,-0.0000,0.0343,flat,18.0,0,9.738
4850,155.20,-3.4985,-7.0054,0.1797,0.0002,-0.0000,0.0834,flat,18.0,0,9.186
4860,155.52,-2.9337,-6.9531,0.1797,0.0001,-0.0000,0.1231,flat,18.0,0,8.628
4870,155.84,-2.3705,-6.8791,0.1797,0.0001,-0.0000,0.1557,flat,18.0,0,8.068
4880,156.16,-1.8090,-6.7872,0.1797,0.0001,-0.0000,0.1835,flat,18.0,0,7.504
4890,156.48,-1.2495,-6.6800,0.1797,0.0001,-0.0000,0.2076,flat,18.0,0,6.939
4900,156.80,-0.6920,-6.5595,0.1797,0.0001,-0.0000,0.2287,flat,18.0,0,6.372
4910,157.12,-0.1366,-6.4274,0.1797,0.0001,-0.0000,0.2475,flat,18.0,0,5.804
4920,157.44,0.4167,-6.2850,0.1797,0.0001,-0.0000,0.2646,flat,18.0,0,5.234
4930,157.76,0.9678,-6.1332,0.1797,0.0001,-0.0000,0.2802,flat,18.0,0,4.665
4940,158.08,1.5168,-5.9730,0.1797,0.0001,-0.0000,0.2948,flat,18.0,0,4.094
4950,158.40,2.0635,-5.8047,0.1797,0.0000,-0.0000,0.3088,flat,18.0,0,3.524
4960,158.72,2.6078,-5.6288,0.1797,0.0000,-0.0000,0.3225,flat,18.0,0,2.953
4970,159.04,3.1495,-5.4454,0.1797,0.0000,0.0000,0.3366,flat,18.0,0,2.382
4980,159.36,3.6881,-5.2544,0.1797,0.0001,0.0000,0.3520,flat,18.0,0,1.812
4990,159.68,4.2226,-5.0550,0.1797,0.0001,0.0000,0.3707,flat,18.0,0,1.243
5000,160.00,4.7404,-4.8541,0.1797,0.0000,0.0003,0.4364,flat,18.0,1,12.912
5010,160.32,5.1269,-4.6359,0.1799,-0.0000,-0.0000,0.7010,flat,18.0,1,12.822
5020,160.64,5.4468,-4.3021,0.1799,0.0001,0.0004,0.9479,flat,18.0,1,12.615
5030,160.96,5.7119,-3.8724,0.1799,0.0000,-0.0000,1.1631,flat,18.0,1,12.312
5040,161.28,5.8997,-3.3701,0.1799,0.0001,0.0000,1.3604,flat,18.0,1,11.925
5050,161.60,5.9951,-2.8291,0.1799,0.0001,-0.0000,1.5259,flat,18.0,1,11.474
5060,161.92,6.0047,-2.2738,0.1799,0.0003,-0.0000,1.6528,flat,18.0,1,10.981
5070,162.24,5.9479,-1.7184,0.1798,0.0004,-0.0000,1.7444,flat,18.0,1,10.462
5080,162.56,5.8421,-1.1676,0.1798,0.0003,-0.0000,1.8143,flat,18.0,1,9.928
5090,162.88,5.6988,-0.6231,0.1797,0.0002,-0.0000,1.8698,flat,18.0,1,9.383
5100,163.20,5.5260,-0.0854,0.1797,0.0002,-0.0000,1.9144,flat,18.0,1,8.832
5110,163.52,5.3299,0.4449,0.1797,0.0001,-0.0000,1.9499,flat,18.0,1,8.276
5120,163.84,5.1151,0.9693,0.1797,0.0001,-0.0000,1.9805,flat,18.0,1,7.717
5130,164.16,4.8844,1.4881,0.1797,0.0001,-0.0000,2.0074,flat,18.0,1,7.156
5140,164.48,4.6399,2.0014,0.1797,0.0001,-0.0000,2.0311,flat,18.0,1,6.592
5150,164.80,4.3832,2.5095,0.1797,0.0001,-0.0000,2.0525,flat,18.0,1,6.027
5160,165.12,4.1157,3.0126,0.1797,0.0001,-0.0000,2.0721,flat,18.0,1,5.460
5170,165.44,3.8384,3.5108,0.1797,0.0001,-0.0000,2.0902,flat,18.0,1,4.893
5180,165.76,3.5521,4.0043,0.1797,0.0001,-0.0000,2.1072,flat,18.0,1,4.325
5190,166.08,3.2574,4.4930,0.1797,0.0001,-0.0000,2.1236,flat,18.0,1,3.757
5200,166.40,2.9547,4.9768,0.1797,0.0001,-0.0000,2.1398,flat,18.0,1,3.188
5210,166.72,2.6442,5.4555,0.1797,0.0001,0.0000,2.1563,flat,18.0,1,2.619
5220,167.04,2.3258,5.9285,0.1797,0.0001,0.0000,2.1741,flat,18.0,1,2.051
5230,167.36,1.9990,6.3946,0.1797,0.0001,0.0000,2.1948,flat,18.0,1,1.485
5240,167.68,1.6629,6.8509,0.1797,0.0001,0.0000,2.2228,flat,18.0,1,0.921
5250,168.00,1.3641,7.2093,0.1798,-0.0003,0.0001,2.4613,flat,18.0,2,15.254
5260,168.32,1.0145,7.4348,0.1799,-0.0000,-0.0001,2.8106,flat,18.0,2,15.227
5270,168.64,0.5621,7.5605,0.1799,0.0000,-0.0000,3.1299,flat,18.0,2,15.071
5280,168.96,0.0603,7.5412,0.1799,0.0000,-0.0000,-2.9007,flat,18.0,2,14.779
5290,169.28,-0.4437,7.3924,0.1799,0.0001,-0.0000,-2.7182,flat,18.0,2,14.386
5300,169.60,-0.9254,7.1502,0.1799,0.0002,-0.0000,-2.5875,flat,18.0,2,13.933
5310,169.92,-1.3809,6.8449,0.1798,0.0004,-0.0000,-2.4943,flat,18.0,2,13.443
5320,170.24,-1.8145,6.4978,0.1797,0.0003,-0.0000,-2.4264,flat,18.0,2,12.931
5330,170.56,-2.2248,6.1209,0.1797,0.0002,-0.0000,-2.3644,flat,18.0,2,12.406
5340,170.88,-2.6141,5.7185,0.1797,0.0002,-0.0000,-2.3117,flat,18.0,2,11.872
5350,171.20,-2.9839,5.2960,0.1797,0.0002,-0.0000,-2.2661,flat,18.0,2,11.330
5360,171.52,-3.3369,4.8571,0.1797,0.0001,-0.0000,-2.2265,flat,18.0,2,10.782
5370,171.84,-3.6747,4.4038,0.1797,0.0001,-0.0000,-2.1911,flat,18.0,2,10.229
5380,172.16,-3.9980,3.9383,0.1797,0.0001,-0.0000,-2.1593,flat,18.0,2,9.672
5390,172.48,-4.3079,3.4623,0.1797,0.0001,-0.0000,-2.1307,flat,18.0,2,9.112
5400,172.80,-4.6053,2.9772,0.1797,0.0001,-0.0000,-2.1049,flat,18.0,2,8.549
5410,173.12,-4.8912,2.4842,0.1797,0.0001,-0.0000,-2.0816,flat,18.0,2,7.985
5420,173.44,-5.1663,1.9843,0.1797,0.0001,-0.0000,-2.0604,flat,18.0,2,7.418
5430,173.76,-5.4314,1.4785,0.1797,0.0001,-0.0000,-2.0410,flat,18.0,2,6.851
5440,174.08,-5.6872,0.9673,0.1797,0.0001,-0.0000,-2.0231,flat,18.0,2,6.282
5450,174.40,-5.9344,0.4515,0.1797,0.0001,-0.0000,-2.0066,flat,18.0,2,5.713
5460,174.72,-6.1733,-0.0685,0.1797,0.0001,-0.0000,-1.9911,flat,18.0,2,5.142
5470,175.04,-6.4045,-0.5923,0.1797,0.0001,-0.0000,-1.9764,flat,18.0,2,4.572
5480,175.36,-6.6281,-1.1195,0.1797,0.0001,-0.0000,-1.9622,flat,18.0,2,4.000
5490,175.68,-6.8444,-1.6499,0.1797,0.0000,-0.0000,-1.9484,flat,18.0,2,3.429
5500,176.00,-7.0534,-2.1832,0.1797,0.0000,-0.0000,-1.9343,flat,18.0,2,2.858
5510,176.32,-7.2548,-2.7193,0.1797,0.0001,0.0000,-1.9196,flat,18.0,2,2.286
5520,176.64,-7.4479,-3.2580,0.1797,0.0001,0.0000,-1.9030,flat,18.0,2,1.715
5530,176.96,-7.6315,-3.7991,0.1797,0.0001,0.0000,-1.8820,flat,18.0,2,1.146
5540,177.28,-7.7951,-4.3317,0.1797,0.0001,0.0001,-1.9131,flat,18.0,3,0.837
5550,177.60,-7.9020,-4.7172,0.1798,-0.0004,0.0001,-1.6953,rough,14.0,0,13.248
5560,177.92,-7.9341,-5.0321,0.1799,-0.0002,-0.0002,-1.3677,flat,18.0,0,13.289
5570,178.24,-7.8357,-5.3979,0.1799,-0.0000,0.0001,-1.1161,rough,14.0,0,13.210
5580,178.56,-7.6100,-5.7778,0.1799,-0.0000,-0.0000,-0.8794,flat,18.0,0,13.016
5590,178.88,-7.2561,-6.1344,0.1799,0.0000,-0.0000,-0.6778,flat,18.0,0,12.704
5600,179.20,-6.8199,-6.4402,0.1799,0.0001,-0.0000,-0.4989,flat,18.0,0,12.315
5610,179.52,-6.3272,-6.6805,0.1799,0.0001,-0.0000,-0.3471,flat,18.0,0,11.870
5620,179.84,-5.7991,-6.8531,0.1799,0.0003,-0.0000,-0.2229,flat,18.0,0,11.385
5630,180.16,-5.2502,-6.9646,0.1798,0.0004,-0.0000,-0.1217,flat,18.0,0,10.873
5640,180.48,-4.6901,-7.0231,0.1798,0.0004,-0.0000,-0.0391,flat,18.0,0,10.342
5650,180.80,-4.1248,-7.0372,0.1797,0.0003,-0.0000,0.0280,flat,18.0,0,9.798
5660,181.12,-3.5592,-7.0151,0.1797,0.0002,-0.0000,0.0788,flat,18.0,0,9.247
5670,181.44,-2.9943,-6.9653,0.1797,0.0001,-0.0000,0.1195,flat,18.0,0,8.690
5680,181.76,-2.4310,-6.8933,0.1797,0.0001,-0.0000,0.1528,flat,18.0,0,8.130
5690,182.08,-1.8694,-6.8030,0.1797,0.0001,-0.0000,0.1811,flat,18.0,0,7.567
5700,182.40,-1.3097,-6.6970,0.1797,0.0001,-0.0000,0.2056,flat,18.0,0,7.001
5710,182.72,-0.7520,-6.5776,0.1797,0.0001,-0.0000,0.2270,flat,18.0,0,6.434
5720,183.04,-0.1965,-6.4465,0.1797,0.0001,-0.0000,0.2461,flat,18.0,0,5.866
5730,183.36,0.3570,-6.3048,0.1797,0.0001,-0.0000,0.2633,flat,18.0,0,5.297
5740,183.68,0.9082,-6.1537,0.1797,0.0001,-0.0000,0.2791,flat,18.0,0,4.728
5750,184.00,1.4573,-5.9940,0.1797,0.0001,-0.0000,0.2938,flat,18.0,0,4.157
5760,184.32,2.0042,-5.8262,0.1797,0.0000,-0.0000,0.3079,flat,18.0,0,3.587
5770,184.64,2.5486,-5.6508,0.1797,0.0000,-0.0000,0.3217,flat,18.0,0,3.016
5780,184.96,3.0905,-5.4679,0.1797,0.0000,0.0000,0.3357,flat,18.0,0,2.445
5790,185.28,3.6293,-5.2774,0.1797,0.0001,0.0000,0.3509,flat,18.0,0,1.875
5800,185.60,4.1642,-5.0786,0.1797,0.0001,0.0000,0.3691,flat,18.0,0,1.306
5810,185.92,4.6899,-4.8733,0.1797,0.0000,0.0002,0.4120,flat,18.0,1,12.916
5820,186.24,5.0867,-4.6654,0.1799,-0.0001,0.0000,0.6737,flat,18.0,1,12.837
5830,186.56,5.4025,-4.3554,0.1799,0.0000,-0.0000,0.9134,flat,18.0,1,12.649
5840,186.88,5.6805,-3.9306,0.1799,0.0000,-0.0000,1.1402,flat,18.0,1,12.354
5850,187.20,5.8782,-3.4342,0.1799,0.0000,-0.0000,1.3412,flat,18.0,1,11.974
5860,187.52,5.9834,-2.8959,0.1799,0.0001,-0.0000,1.5096,flat,18.0,1,11.529
5870,187.84,6.0017,-2.3413,0.1799,0.0002,-0.0000,1.6408,flat,18.0,1,11.040
5880,188.16,5.9513,-1.7855,0.1798,0.0004,-0.0000,1.7353,flat,18.0,1,10.523
5890,188.48,5.8504,-1.2341,0.1798,0.0003,-0.0000,1.8071,flat,18.0,1,9.990
5900,188.80,5.7110,-0.6887,0.1797,0.0002,-0.0000,1.8637,flat,18.0,1,9.446
5910,189.12,5.5415,-0.1500,0.1797,0.0002,-0.0000,1.9097,flat,18.0,1,8.895
5920,189.44,5.3479,0.3811,0.1797,0.0001,-0.0000,1.9457,flat,18.0,1,8.340
5930,189.76,5.1353,0.9063,0.1797,0.0001,-0.0000,1.9767,flat,18.0,1,7.782
5940,190.08,4.9066,1.4258,0.1797,0.0001,-0.0000,2.0039,flat,18.0,1,7.220
5950,190.40,4.6638,1.9398,0.1797,0.0001,-0.0000,2.0279,flat,18.0,1,6.657
5960,190.72,4.4088,2.4487,0.1797,0.0001,-0.0000,2.0496,flat,18.0,1,6.092
5970,191.04,4.1428,2.9525,0.1797,0.0001,-0.0000,2.0692,flat,18.0,1,5.525
5980,191.36,3.8669,3.4515,0.1797,0.0001,-0.0000,2.0874,flat,18.0,1,4.958
5990,191.68,3.5820,3.9457,0.1797,0.0001,-0.0000,2.1046,flat,18.0,1,4.390
6000,192.00,3.2886,4.4352,0.1797,0.0001,-0.0000,2.1210,flat,18.0,1,3.822
6010,192.32,2.9872,4.9199,0.1797,0.0001,-0.0000,2.1371,flat,18.0,1,3.253
6020,192.64,2.6779,5.3995,0.1797,0.0001,0.0000,2.1536,flat,18.0,1,2.684
6030,192.96,2.3608,5.8734,0.1797,0.0001,0.0000,2.1711,flat,18.0,1,2.116
6040,193.28,2.0355,6.3407,0.1797,0.0001,0.0000,2.1913,flat,18.0,1,1.549
6050,193.60,1.7009,6.7987,0.1797,0.0001,0.0000,2.2180,flat,18.0,1,0.985
6060,193.92,1.3973,7.1769,0.1798,-0.0002,0.0002,2.4237,flat,18.0,2,15.249
6070,194.24,1.0598,7.4092,0.1799,-0.0000,-0.0001,2.7750,flat,18.0,2,15.233
6080,194.56,0.6158,7.5484,0.1799,0.0000,-0.0000,3.0980,flat,18.0,2,15.091
6090,194.88,0.1166,7.5444,0.1799,0.0001,-0.0000,-2.9244,flat,18.0,2,14.812
6100,195.20,-0.3887,7.4077,0.1799,0.0001,-0.0000,-2.7350,flat,18.0,2,14.428
6110,195.52,-0.8733,7.1737,0.1799,0.0002,-0.0000,-2.5994,flat,18.0,2,13.979
6120,195.84,-1.3314,6.8742,0.1798,0.0004,-0.0000,-2.5024,flat,18.0,2,13.492
6130,196.16,-1.7675,6.5307,0.1798,0.0003,-0.0000,-2.4333,flat,18.0,2,12.982
6140,196.48,-2.1803,6.1569,0.1797,0.0002,-0.0000,-2.3707,flat,18.0,2,12.459
6150,196.80,-2.5718,5.7570,0.1797,0.0002,-0.0000,-2.3172,flat,18.0,2,11.925
6160,197.12,-2.9437,5.3364,0.1797,0.0002,-0.0000,-2.2708,flat,18.0,2,11.384
6170,197.44,-3.2985,4.8992,0.1797,0.0001,-0.0000,-2.2308,flat,18.0,2,10.836
6180,197.76,-3.6379,4.4475,0.1797,0.0001,-0.0000,-2.1950,flat,18.0,2,10.284
6190,198.08,-3.9629,3.9833,0.1797,0.0001,-0.0000,-2.1628,flat,18.0,2,9.728
6200,198.40,-4.2743,3.5084,0.1797,0.0001,-0.0000,-2.1339,flat,18.0,2,9.168
6210,198.72,-4.5731,3.0243,0.1797,0.0001,-0.0000,-2.1079,flat,18.0,2,8.605
6220,199.04,-4.8603,2.5322,0.1797,0.0001,-0.0000,-2.0843,flat,18.0,2,8.041
6230,199.36,-5.1367,2.0331,0.1797,0.0001,-0.0000,-2.0629,flat,18.0,2,7.475
6240,199.68,-5.4030,1.5279,0.1797,0.0001,-0.0000,-2.0433,flat,18.0,2,6.907
6250,200.00,-5.6600,1.0174,0.1797,0.0001,-0.0000,-2.0253,flat,18.0,2,6.339
6260,200.32,-5.9082,0.5021,0.1797,0.0001,-0.0000,-2.0086,flat,18.0,2,5.769
6270,200.64,-6.1482,-0.0174,0.1797,0.0001,-0.0000,-1.9930,flat,18.0,2,5.199
6280,200.96,-6.3803,-0.5407,0.1797,0.0001,-0.0000,-1.9782,flat,18.0,2,4.628
6290,201.28,-6.6049,-1.0675,0.1797,0.0001,-0.0000,-1.9640,flat,18.0,2,4.057
6300,201.60,-6.8221,-1.5975,0.1797,0.0000,-0.0000,-1.9501,flat,18.0,2,3.486
6310,201.92,-7.0320,-2.1305,0.1797,0.0000,-0.0000,-1.9361,flat,18.0,2,2.914
6320,202.24,-7.2344,-2.6662,0.1797,0.0001,0.0000,-1.9215,flat,18.0,2,2.343
6330,202.56,-7.4286,-3.2046,0.1797,0.0001,0.0000,-1.9052,flat,18.0,2,1.772
6340,202.88,-7.6134,-3.7454,0.1797,0.0001,0.0000,-1.8848,flat,18.0,2,1.202
6350,203.20,-7.7803,-4.2813,0.1797,0.0001,0.0001,-1.8943,flat,18.0,3,0.882
6360,203.52,-7.8939,-4.6856,0.1798,-0.0004,0.0001,-1.7260,rough,14.0,0,13.240
6370,203.84,-7.9405,-4.9918,0.1798,-0.0001,-0.0000,-1.3897,rough,14.0,0,13.294
6380,204.16,-7.8535,-5.3471,0.1799,-0.0001,0.0002,-1.1255,rough,14.0,0,13.224
6390,204.48,-7.6400,-5.7261,0.1799,-0.0001,-0.0000,-0.9034,flat,18.0,0,13.041
6400,204.80,-7.2970,-6.0876,0.1799,0.0000,-0.0000,-0.6978,flat,18.0,0,12.738
6410,205.12,-6.8682,-6.3998,0.1799,0.0001,-0.0000,-0.5168,flat,18.0,0,12.357
6420,205.44,-6.3803,-6.6474,0.1799,0.0001,-0.0000,-0.3622,flat,18.0,0,11.916
6430,205.76,-5.8552,-6.8272,0.1799,0.0003,-0.0000,-0.2354,flat,18.0,0,11.435
6440,206.08,-5.3080,-6.9450,0.1798,0.0004,-0.0000,-0.1322,flat,18.0,0,10.925
6450,206.40,-4.7488,-7.0092,0.1798,0.0004,-0.0000,-0.0478,flat,18.0,0,10.396
6460,206.72,-4.1838,-7.0280,0.1798,0.0003,-0.0000,0.0209,flat,18.0,0,9.853
6470,207.04,-3.6182,-7.0097,0.1797,0.0002,-0.0000,0.0731,flat,18.0,0,9.302
6480,207.36,-3.0530,-6.9631,0.1797,0.0002,-0.0000,0.1148,flat,18.0,0,8.746
6490,207.68,-2.4895,-6.8937,0.1797,0.0001,-0.0000,0.1487,flat,18.0,0,8.186
6500,208.00,-1.9276,-6.8056,0.1797,0.0001,-0.0000,0.1774,flat,18.0,0,7.623
6510,208.32,-1.3676,-6.7017,0.1797,0.0001,-0.0000,0.2023,flat,18.0,0,7.058
6520,208.64,-0.8096,-6.5842,0.1797,0.0001,-0.0000,0.2240,flat,18.0,0,6.491
6530,208.96,-0.2537,-6.4546,0.1797,0.0001,-0.0000,0.2433,flat,18.0,0,5.923
6540,209.28,0.3001,-6.3145,0.1797,0.0001,-0.0000,0.2607,flat,18.0,0,5.354
6550,209.60,0.8517,-6.1648,0.1797,0.0001,-0.0000,0.2766,flat,18.0,0,4.784
6560,209.92,1.4012,-6.0065,0.1797,0.0001,-0.0000,0.2915,flat,18.0,0,4.214
6570,210.24,1.9484,-5.8400,0.1797,0.0001,-0.0000,0.3056,flat,18.0,0,3.644
6580,210.56,2.4933,-5.6659,0.1797,0.0000,-0.0000,0.3193,flat,18.0,0,3.073
6590,210.88,3.0356,-5.4843,0.1797,0.0000,0.0000,0.3333,flat,18.0,0,2.502
6600,211.20,3.5749,-5.2950,0.1797,0.0001,0.0000,0.3484,flat,18.0,0,1.932
6610,211.52,4.1105,-5.0976,0.1797,0.0001,0.0000,0.3661,flat,18.0,0,1.363
6620,211.84,4.6399,-4.8907,0.1797,0.0001,0.0000,0.3914,flat,18.0,1,12.918
6630,212.16,5.0511,-4.6904,0.1799,-0.0001,0.0000,0.6438,flat,18.0,1,12.849
6640,212.48,5.3849,-4.3752,0.1799,0.0000,-0.0000,0.8996,flat,18.0,1,12.662
6650,212.80,5.6588,-3.9684,0.1799,0.0000,-0.0000,1.1196,flat,18.0,1,12.381
6660,213.12,5.8648,-3.4776,0.1799,0.0001,-0.0000,1.3228,flat,18.0,1,12.009
6670,213.44,5.9789,-2.9421,0.1799,0.0001,-0.0000,1.4951,flat,18.0,1,11.569
6680,213.76,6.0048,-2.3882,0.1799,0.0002,-0.0000,1.6303,flat,18.0,1,11.083
6690,214.08,5.9599,-1.8322,0.1798,0.0004,-0.0000,1.7276,flat,18.0,1,10.568
6700,214.40,5.8630,-1.2803,0.1798,0.0003,-0.0000,1.8012,flat,18.0,1,10.037
6710,214.72,5.7268,-0.7343,0.1797,0.0002,-0.0000,1.8591,flat,18.0,1,9.494
6720,215.04,5.5597,-0.1951,0.1797,0.0002,-0.0000,1.9061,flat,18.0,1,8.943
6730,215.36,5.3680,0.3366,0.1797,0.0001,-0.0000,1.9428,flat,18.0,1,8.389
6740,215.68,5.1569,0.8623,0.1797,0.0001,-0.0000,1.9743,flat,18.0,1,7.830
6750,216.00,4.9294,1.3823,0.1797,0.0001,-0.0000,2.0018,flat,18.0,1,7.269
6760,216.32,4.6877,1.8967,0.1797,0.0001,-0.0000,2.0262,flat,18.0,1,6.706
6770,216.64,4.4336,2.4060,0.1797,0.0001,-0.0000,2.0480,flat,18.0,1,6.141
6780,216.96,4.1684,2.9102,0.1797,0.0001,-0.0000,2.0679,flat,18.0,1,5.575
6790,217.28,3.8932,3.4095,0.1797,0.0001,-0.0000,2.0862,flat,18.0,1,5.007
6800,217.60,3.6088,3.9040,0.1797,0.0001,-0.0000,2.1034,flat,18.0,1,4.440
6810,217.92,3.3160,4.3938,0.1797,0.0001,-0.0000,2.1199,flat,18.0,1,3.871
6820,218.24,3.0151,4.8788,0.1797,0.0001,-0.0000,2.1361,flat,18.0,1,3.303
6830,218.56,2.7064,5.3587,0.1797,0.0001,0.0000,2.1525,flat,18.0,1,2.734
6840,218.88,2.3898,5.8331,0.1797,0.0001,0.0000,2.1699,flat,18.0,1,2.166
6850,219.20,2.0650,6.3008,0.1797,0.0001,0.0000,2.1898,flat,18.0,1,1.599
6860,219.52,1.7311,6.7597,0.1797,0.0001,0.0000,2.2157,flat,18.0,1,1.034
6870,219.84,1.4210,7.1563,0.1798,-0.0001,0.0003,2.3888,flat,18.0,2,15.247
6880,220.16,1.0945,7.3946,0.1799,-0.0000,-0.0001,2.7420,flat,18.0,2,15.242
6890,220.48,0.6590,7.5457,0.1799,0.0000,-0.0000,3.0687,flat,18.0,2,15.113
6900,220.80,0.1626,7.5560,0.1799,0.0000,-0.0000,-2.9452,flat,18.0,2,14.847
6910,221.12,-0.3435,7.4306,0.1799,0.0001,-0.0000,-2.7504,flat,18.0,2,14.471
6920,221.44,-0.8306,7.2043,0.1799,0.0002,-0.0000,-2.6105,flat,18.0,2,14.027
6930,221.76,-1.2910,6.9100,0.1798,0.0004,-0.0000,-2.5098,flat,18.0,2,13.543
6940,222.08,-1.7291,6.5698,0.1798,0.0003,-0.0000,-2.4393,flat,18.0,2,13.034
6950,222.40,-2.1440,6.1986,0.1797,0.0002,-0.0000,-2.3761,flat,18.0,2,12.513
6960,222.72,-2.5374,5.8009,0.1797,0.0002,-0.0000,-2.3218,flat,18.0,2,11.980
6970,223.04,-2.9109,5.3820,0.1797,0.0002,-0.0000,-2.2747,flat,18.0,2,11.439
6980,223.36,-3.2672,4.9462,0.1797,0.0001,-0.0000,-2.2342,flat,18.0,2,10.892
6990,223.68,-3.6079,4.4957,0.1797,0.0001,-0.0000,-2.1979,flat,18.0,2,10.340
7000,224.00,-3.9341,4.0325,0.1797,0.0001,-0.0000,-2.1654,flat,18.0,2,9.784
7010,224.32,-4.2466,3.5585,0.1797,0.0001,-0.0000,-2.1362,flat,18.0,2,9.225
7020,224.64,-4.5465,3.0751,0.1797,0.0001,-0.0000,-2.1099,flat,18.0,2,8.663
7030,224.96,-4.8346,2.5836,0.1797,0.0001,-0.0000,-2.0861,flat,18.0,2,8.098
7040,225.28,-5.1118,2.0851,0.1797,0.0001,-0.0000,-2.0645,flat,18.0,2,7.532
7050,225.60,-5.3789,1.5804,0.1797,0.0001,-0.0000,-2.0448,flat,18.0,2,6.965
7060,225.92,-5.6365,1.0702,0.1797,0.0001,-0.0000,-2.0266,flat,18.0,2,6.396
7070,226.24,-5.8854,0.5553,0.1797,0.0001,-0.0000,-2.0098,flat,18.0,2,5.827
7080,226.56,-6.1260,0.0361,0.1797,0.0001,-0.0000,-1.9941,flat,18.0,2,5.257
7090,226.88,-6.3586,-0.4870,0.1797,0.0001,-0.0000,-1.9793,flat,18.0,2,4.686
7100,227.20,-6.5838,-1.0135,0.1797,0.0001,-0.0000,-1.9651,flat,18.0,2,4.115
7110,227.52,-6.8016,-1.5433,0.1797,0.0000,-0.0000,-1.9511,flat,18.0,2,3.544
7120,227.84,-7.0120,-2.0760,0.1797,0.0000,-0.0000,-1.9372,flat,18.0,2,2.972
7130,228.16,-7.2150,-2.6116,0.1797,0.0001,0.0000,-1.9227,flat,18.0,2,2.401
7140,228.48,-7.4099,-3.1497,0.1797,0.0001,0.0000,-1.9066,flat,18.0,2,1.830
7150,228.80,-7.5955,-3.6904,0.1797,0.0001,0.0000,-1.8868,flat,18.0,2,1.260
7160,229.12,-7.7656,-4.2299,0.1797,0.0001,0.0002,-1.8763,flat,18.0,3,0.928
7170,229.44,-7.8853,-4.6525,0.1798,-0.0003,0.0002,-1.7546,rough,14.0,0,13.231
7180,229.76,-7.9388,-4.9639,0.1798,-0.0001,-0.0003,-1.4233,rough,14.0,0,13.291
7190,230.08,-7.8634,-5.3289,0.1799,0.0001,0.0003,-1.1501,rough,14.0,0,13.233
7200,230.40,-7.6670,-5.7006,0.1799,-0.0000,-0.0000,-0.9262,flat,18.0,0,13.065
7210,230.72,-7.3344,-6.0663,0.1799,0.0000,-0.0000,-0.7159,flat,18.0,0,12.773
7220,231.04,-6.9125,-6.3837,0.1799,0.0001,-0.0000,-0.5329,flat,18.0,0,12.398
7230,231.36,-6.4292,-6.6377,0.1799,0.0001,-0.0000,-0.3751,flat,18.0,0,11.963
7240,231.68,-5.9068,-6.8235,0.1799,0.0002,-0.0000,-0.2457,flat,18.0,0,11.485
7250,232.00,-5.3611,-6.9465,0.1798,0.0004,-0.0000,-0.1404,flat,18.0,0,10.977
7260,232.32,-4.8026,-7.0150,0.1798,0.0004,-0.0000,-0.0543,flat,18.0,0,10.449
7270,232.64,-4.2380,-7.0373,0.1798,0.0003,-0.0000,0.0159,flat,18.0,0,9.908
7280,232.96,-3.6723,-7.0217,0.1797,0.0002,-0.0000,0.0695,flat,18.0,0,9.358
7290,233.28,-3.1071,-6.9770,0.1797,0.0002,-0.0000,0.1121,flat,18.0,0,8.802
7300,233.60,-2.5435,-6.9090,0.1797,0.0001,-0.0000,0.1465,flat,18.0,0,8.242
7310,233.92,-1.9815,-6.8222,0.1797,0.0001,-0.0000,0.1758,flat,18.0,0,7.679
7320,234.24,-1.4214,-6.7192,0.1797,0.0001,-0.0000,0.2009,flat,18.0,0,7.114
7330,234.56,-0.8633,-6.6024,0.1797,0.0001,-0.0000,0.2229,flat,18.0,0,6.548
7340,234.88,-0.3074,-6.4734,0.1797,0.0001,-0.0000,0.2425,flat,18.0,0,5.980
7350,235.20,0.2465,-6.3338,0.1797,0.0001,-0.0000,0.2600,flat,18.0,0,5.411
7360,235.52,0.7982,-6.1845,0.1797,0.0001,-0.0000,0.2760,flat,18.0,0,4.841
7370,235.84,1.3477,-6.0265,0.1797,0.0001,-0.0000,0.2909,flat,18.0,0,4.271
7380,236.16,1.8950,-5.8603,0.1797,0.0001,-0.0000,0.3051,flat,18.0,0,3.701
7390,236.48,2.4400,-5.6864,0.1797,0.0000,-0.0000,0.3189,flat,18.0,0,3.130
7400,236.80,2.9824,-5.5050,0.1797,0.0000,0.0000,0.3328,flat,18.0,0,2.559
7410,237.12,3.5219,-5.3160,0.1797,0.0001,0.0000,0.3477,flat,18.0,0,1.989
7420,237.44,4.0577,-5.1190,0.1797,0.0001,0.0000,0.3651,flat,18.0,0,1.419
7430,237.76,4.5877,-4.9127,0.1797,0.0001,0.0000,0.3891,flat,18.0,0,0.853
7440,238.08,5.0147,-4.7149,0.1799,-0.0002,0.0000,0.6166,flat,18.0,1,12.861
7450,238.40,5.3398,-4.4293,0.1799,0.0000,-0.0000,0.8656,flat,18.0,1,12.697
7460,238.72,5.6306,-4.0222,0.1799,0.0000,-0.0000,1.0967,flat,18.0,1,12.420
7470,239.04,5.8460,-3.5378,0.1799,0.0000,-0.0000,1.3032,flat,18.0,1,12.056
7480,239.36,5.9698,-3.0055,0.1799,0.0001,-0.0000,1.4788,flat,18.0,1,11.623
7490,239.68,6.0044,-2.4526,0.1799,0.0002,-0.0000,1.6180,flat,18.0,1,11.140
7500,240.00,5.9660,-1.8964,0.1798,0.0004,-0.0000,1.7185,flat,18.0,1,10.628
7510,240.32,5.8740,-1.3439,0.1798,0.0003,-0.0000,1.7941,flat,18.0,1,10.098
7520,240.64,5.7416,-0.7972,0.1797,0.0002,-0.0000,1.8534,flat,18.0,1,9.556
7530,240.96,5.5776,-0.2572,0.1797,0.0002,-0.0000,1.9013,flat,18.0,1,9.006
7540,241.28,5.3883,0.2753,0.1797,0.0001,-0.0000,1.9389,flat,18.0,1,8.452
7550,241.60,5.1793,0.8017,0.1797,0.0001,-0.0000,1.9709,flat,18.0,1,7.894
7560,241.92,4.9536,1.3223,0.1797,0.0001,-0.0000,1.9987,flat,18.0,1,7.333
7570,242.24,4.7135,1.8375,0.1797,0.0001,-0.0000,2.0234,flat,18.0,1,6.769
7580,242.56,4.4608,2.3473,0.1797,0.0001,-0.0000,2.0454,flat,18.0,1,6.205
7590,242.88,4.1969,2.8522,0.1797,0.0001,-0.0000,2.0654,flat,18.0,1,5.639
7600,243.20,3.9229,3.3521,0.1797,0.0001,-0.0000,2.0839,flat,18.0,1,5.071
7610,243.52,3.6397,3.8473,0.1797,0.0001,-0.0000,2.1012,flat,18.0,1,4.504
7620,243.84,3.3479,4.3377,0.1797,0.0001,-0.0000,2.1177,flat,18.0,1,3.935
7630,244.16,3.0481,4.8234,0.1797,0.0001,-0.0000,2.1339,flat,18.0,1,3.367
7640,244.48,2.7404,5.3040,0.1797,0.0001,0.0000,2.1502,flat,18.0,1,2.798
7650,244.80,2.4249,5.7791,0.1797,0.0001,0.0000,2.1674,flat,18.0,1,2.230
7660,245.12,2.1013,6.2479,0.1797,0.0001,0.0000,2.1869,flat,18.0,1,1.663
7670,245.44,1.7687,6.7081,0.1797,0.0001,0.0000,2.2117,flat,18.0,1,1.098
7680,245.76,1.4521,7.1225,0.1798,-0.0000,0.0004,2.3513,flat,18.0,2,15.239
7690,246.08,1.1370,7.3679,0.1799,-0.0001,-0.0001,2.7063,flat,18.0,2,15.245
7700,246.40,0.7109,7.5311,0.1799,0.0000,-0.0000,3.0365,flat,18.0,2,15.131
7710,246.72,0.2181,7.5568,0.1799,0.0001,-0.0000,-2.9696,flat,18.0,2,14.878
7720,247.04,-0.2887,7.4440,0.1799,0.0001,-0.0000,-2.7687,flat,18.0,2,14.511
7730,247.36,-0.7786,7.2266,0.1799,0.0002,-0.0000,-2.6230,flat,18.0,2,14.072
7740,247.68,-1.2416,6.9383,0.1798,0.0004,-0.0000,-2.5187,flat,18.0,2,13.592
7750,248.00,-1.6821,6.6020,0.1798,0.0003,-0.0000,-2.4462,flat,18.0,2,13.085
7760,248.32,-2.0995,6.2339,0.1797,0.0002,-0.0000,-2.3825,flat,18.0,2,12.564
7770,248.64,-2.4951,5.8388,0.1797,0.0002,-0.0000,-2.3274,flat,18.0,2,12.032
7780,248.96,-2.8707,5.4219,0.1797,0.0002,-0.0000,-2.2795,flat,18.0,2,11.492
7790,249.28,-3.2288,4.9879,0.1797,0.0001,-0.0000,-2.2385,flat,18.0,2,10.946
7800,249.60,-3.5712,4.5389,0.1797,0.0001,-0.0000,-2.2018,flat,18.0,2,10.395
7810,249.92,-3.8990,4.0770,0.1797,0.0001,-0.0000,-2.1690,flat,18.0,2,9.839
7820,250.24,-4.2130,3.6042,0.1797,0.0001,-0.0000,-2.1395,flat,18.0,2,9.280
7830,250.56,-4.5143,3.1218,0.1797,0.0001,-0.0000,-2.1129,flat,18.0,2,8.718
7840,250.88,-4.8038,2.6312,0.1797,0.0001,-0.0000,-2.0888,flat,18.0,2,8.154
7850,251.20,-5.0822,2.1334,0.1797,0.0001,-0.0000,-2.0670,flat,18.0,2,7.588
7860,251.52,-5.3505,1.6294,0.1797,0.0001,-0.0000,-2.0471,flat,18.0,2,7.021
7870,251.84,-5.6093,1.1199,0.1797,0.0001,-0.0000,-2.0288,flat,18.0,2,6.452
7880,252.16,-5.8592,0.6055,0.1797,0.0001,-0.0000,-2.0118,flat,18.0,2,5.883
7890,252.48,-6.1008,0.0868,0.1797,0.0001,-0.0000,-1.9960,flat,18.0,2,5.313
7900,252.80,-6.3344,-0.4358,0.1797,0.0001,-0.0000,-1.9811,flat,18.0,2,4.742
7910,253.12,-6.5605,-0.9619,0.1797,0.0001,-0.0000,-1.9668,flat,18.0,2,4.171
7920,253.44,-6.7792,-1.4913,0.1797,0.0000,-0.0000,-1.9529,flat,18.0,2,3.600
7930,253.76,-6.9906,-2.0237,0.1797,0.0000,-0.0000,-1.9390,flat,18.0,2,3.029
7940,254.08,-7.1945,-2.5589,0.1797,0.0001,0.0000,-1.9245,flat,18.0,2,2.457
7950,254.40,-7.3905,-3.0967,0.1797,0.0001,0.0000,-1.9087,flat,18.0,2,1.886
7960,254.72,-7.5773,-3.6370,0.1797,0.0001,0.0000,-1.8894,flat,18.0,2,1.316
7970,255.04,-7.7524,-4.1792,0.1797,0.0001,0.0000,-1.8607,flat,18.0,3,0.974
7980,255.36,-7.8768,-4.6202,0.1798,-0.0002,0.0003,-1.7818,rough,14.0,0,13.222
7990,255.68,-7.9399,-4.9298,0.1798,-0.0001,-0.0000,-1.4526,rough,14.0,0,13.291
8000,256.00,-7.8825,-5.2762,0.1799,0.0000,-0.0001,-1.1503,rough,14.0,0,13.249
8010,256.32,-7.6942,-5.6483,0.1799,-0.0000,-0.0001,-0.9516,flat,18.0,0,13.088
8020,256.64,-7.3735,-6.0189,0.1799,0.0001,-0.0000,-0.7362,flat,18.0,0,12.806
8030,256.96,-6.9595,-6.3420,0.1799,0.0001,-0.0000,-0.5513,flat,18.0,0,12.438
8040,257.28,-6.4815,-6.6034,0.1799,0.0001,-0.0000,-0.3908,flat,18.0,0,12.008
8050,257.60,-5.9624,-6.7964,0.1799,0.0002,-0.0000,-0.2587,flat,18.0,0,11.534
8060,257.92,-5.4186,-6.9260,0.1798,0.0004,-0.0000,-0.1512,flat,18.0,0,11.029
