step,time_s,x,y,z,roll,pitch,yaw,terrain,speed,target_idx,dist_to_target
10,0.32,-0.0089,-0.0618,0.1916,-0.0015,-0.0149,-0.0002,slope,18.0,0,5.403
20,0.64,0.2426,-0.0671,0.2053,0.0224,-0.0474,-0.0188,slope,18.0,0,5.205
30,0.96,0.5535,-0.0785,0.2173,0.0489,-0.0459,-0.0818,slope,18.0,0,4.962
40,1.28,0.9687,-0.1598,0.2361,0.1351,-0.0563,-0.3204,slope,18.0,0,4.605
50,1.60,1.4289,-0.3831,0.2295,0.1115,0.0789,-0.5500,slope,18.0,0,4.125
60,1.92,1.8580,-0.6975,0.1823,0.0902,0.0918,-0.6802,slope,18.0,0,3.604
70,2.24,2.2649,-1.0879,0.1346,0.1974,0.1849,-0.7395,slope,18.0,0,3.042
80,2.56,2.6697,-1.4943,0.0005,0.1738,0.2933,-0.7713,rough,14.0,0,2.471
90,2.88,2.9642,-1.9074,-0.1941,0.3549,0.2765,-0.7515,rough,14.0,0,1.965
100,3.20,3.2021,-2.2364,-0.2933,0.3823,0.0875,-0.8078,slope,18.0,0,1.560
110,3.52,3.4149,-2.5466,-0.3335,0.4720,-0.0227,-0.8245,slope,18.0,0,1.188
120,3.84,3.6461,-2.8132,-0.3223,0.4778,-0.0503,-0.8717,slope,18.0,1,7.049
130,4.16,3.9206,-3.2036,-0.4193,0.3657,0.3367,-1.0950,rough,14.0,1,6.927
140,4.48,4.0050,-3.5074,-0.5160,0.3676,0.2974,-1.3805,rough,14.0,1,6.762
150,4.80,3.9535,-3.8331,-0.6099,0.3291,0.2891,-1.6919,rough,14.0,1,6.496
160,5.12,3.8656,-4.1412,-0.6701,0.2601,0.1200,-1.9726,rough,14.0,1,6.220
170,5.44,3.6984,-4.4262,-0.7050,0.1694,0.0649,-2.2300,rough,14.0,1,5.905
180,5.76,3.4446,-4.7005,-0.7380,0.0962,0.0424,-2.3760,rough,14.0,1,5.533
190,6.08,3.1260,-4.9423,-0.7881,0.1766,0.1738,-2.5057,rough,14.0,1,5.135
200,6.40,2.8520,-5.1294,-0.8102,0.1971,-0.1158,-2.6280,rough,14.0,1,4.806
210,6.72,2.5979,-5.2701,-0.7363,0.1535,-0.5528,-2.8137,rough,14.0,1,4.523
220,7.04,2.3221,-5.3380,-0.5842,0.4145,-0.7659,-2.8726,rough,14.0,1,4.277
230,7.36,2.1207,-5.3940,-0.4321,0.3919,-0.7112,-3.0265,rough,14.0,1,4.096
240,7.68,1.9068,-5.4422,-0.2506,0.2893,-0.7184,-2.9438,rough,14.0,1,3.915
250,8.00,1.6954,-5.4716,-0.1431,0.4156,-0.4117,-3.0237,rough,14.0,1,3.755
260,8.32,1.4345,-5.4817,-0.0431,0.2545,-0.5779,-2.5735,rough,14.0,1,3.585
270,8.64,1.2784,-5.6059,0.0886,-0.0317,-0.6337,-2.1417,rough,14.0,1,3.392
280,8.96,1.1600,-5.8135,0.2816,-0.1798,-0.7783,-1.9757,rough,14.0,1,3.155
290,9.28,1.1082,-5.9856,0.4611,-0.1795,-0.8778,-2.0171,rough,14.0,1,2.986
300,9.60,1.0955,-6.0307,0.4993,0.0656,-0.8470,-2.4348,rough,14.0,1,2.943
310,9.92,1.0847,-5.9879,0.4704,0.0540,-0.8499,-2.3512,rough,14.0,1,2.970
320,10.24,1.1011,-5.9060,0.3876,0.1032,-0.8510,-2.3489,rough,14.0,1,3.046
330,10.56,1.1503,-5.8764,0.3315,0.0067,-0.8400,-2.2487,rough,14.0,1,3.099
340,10.88,1.1386,-5.9019,0.3567,0.0635,-0.8538,-2.3289,rough,14.0,1,3.071
350,11.20,1.1229,-5.9074,0.3720,0.0896,-0.8493,-2.3535,rough,14.0,1,3.057
360,11.52,1.1358,-5.9002,0.3562,0.0945,-0.8422,-2.3754,rough,14.0,1,3.071
370,11.84,1.1433,-5.9044,0.3548,0.0743,-0.8496,-2.3526,rough,14.0,1,3.072
380,12.16,1.1421,-5.9011,0.3529,0.0776,-0.8475,-2.3561,rough,14.0,1,3.074
390,12.48,1.1341,-5.9015,0.3595,0.0776,-0.8512,-2.3444,rough,14.0,1,3.069
400,12.80,1.1234,-5.9002,0.3662,0.0848,-0.8518,-2.3401,rough,14.0,1,3.064
410,13.12,1.1115,-5.8974,0.3723,0.1029,-0.8460,-2.3556,rough,14.0,1,3.059
420,13.44,1.1023,-5.8964,0.3787,0.1030,-0.8483,-2.3432,rough,14.0,1,3.054
430,13.76,1.1068,-5.8948,0.3744,0.0750,-0.8490,-2.3058,rough,14.0,1,3.058
440,14.08,1.1094,-5.8973,0.3743,0.1073,-0.8526,-2.3544,rough,14.0,1,3.057
450,14.40,1.1170,-5.9014,0.3718,0.0930,-0.8500,-2.3476,rough,14.0,1,3.059
460,14.72,1.1122,-5.8920,0.3669,0.0535,-0.8380,-2.2821,rough,14.0,1,3.063
470,15.04,1.1257,-5.8970,0.3625,0.0665,-0.8500,-2.3175,rough,14.0,1,3.067
480,15.36,1.1357,-5.8982,0.3556,0.0361,-0.8535,-2.2767,rough,14.0,1,3.073
490,15.68,1.1446,-5.8930,0.3430,0.1070,-0.8312,-2.4185,rough,14.0,1,3.082
500,16.00,1.1412,-5.8809,0.3394,0.0055,-0.8385,-2.2481,rough,14.0,1,3.090
510,16.32,1.1428,-5.9023,0.3537,0.0627,-0.8510,-2.3331,rough,14.0,1,3.074
520,16.64,1.1334,-5.9061,0.3639,0.0767,-0.8513,-2.3469,rough,14.0,1,3.065
530,16.96,1.1380,-5.8959,0.3526,0.0560,-0.8481,-2.3180,rough,14.0,1,3.076
540,17.28,1.1414,-5.9033,0.3557,0.0859,-0.8512,-2.3673,rough,14.0,1,3.072
550,17.60,1.1430,-5.9033,0.3546,0.0646,-0.8527,-2.3358,rough,14.0,1,3.073
560,17.92,1.1376,-5.8970,0.3536,0.0630,-0.8473,-2.3284,rough,14.0,1,3.075
570,18.24,1.1373,-5.8996,0.3561,0.0629,-0.8520,-2.3261,rough,14.0,1,3.072
580,18.56,1.1346,-5.9013,0.3588,0.0795,-0.8495,-2.3489,rough,14.0,1,3.069
590,18.88,1.1324,-5.8975,0.3578,0.0702,-0.8485,-2.3321,rough,14.0,1,3.071
600,19.20,1.1292,-5.9014,0.3612,0.0674,-0.8423,-2.3238,rough,14.0,1,3.066
610,19.52,1.1420,-5.9033,0.3547,0.0780,-0.8490,-2.3561,rough,14.0,1,3.072
620,19.84,1.1374,-5.9011,0.3567,0.0759,-0.8499,-2.3464,rough,14.0,1,3.071
630,20.16,1.1282,-5.9005,0.3630,0.0843,-0.8502,-2.3474,rough,14.0,1,3.066
640,20.48,1.1217,-5.8983,0.3662,0.0831,-0.8491,-2.3380,rough,14.0,1,3.064
650,20.80,1.1137,-5.9002,0.3732,0.1014,-0.8498,-2.3548,rough,14.0,1,3.058
660,21.12,1.1196,-5.8990,0.3676,0.0877,-0.8490,-2.3397,rough,14.0,1,3.062
670,21.44,1.1273,-5.9011,0.3643,0.0809,-0.8517,-2.3408,rough,14.0,1,3.065
680,21.76,1.1246,-5.8911,0.3588,0.0581,-0.8455,-2.3048,rough,14.0,1,3.072
690,22.08,1.1237,-5.9034,0.3681,0.0992,-0.8479,-2.3668,rough,14.0,1,3.061
700,22.40,1.1314,-5.8985,0.3588,0.0723,-0.8466,-2.3342,rough,14.0,1,3.070
710,22.72,1.1399,-5.8996,0.3516,0.0787,-0.8414,-2.3514,rough,14.0,1,3.074
720,23.04,1.1399,-5.9042,0.3570,0.0333,-0.8591,-2.2945,rough,14.0,1,3.070
730,23.36,1.1238,-5.9010,0.3654,0.1043,-0.8436,-2.3757,rough,14.0,1,3.063
740,23.68,1.1147,-5.8960,0.3693,0.0910,-0.8462,-2.3422,rough,14.0,1,3.062
750,24.00,1.1141,-5.8932,0.3678,0.0774,-0.8463,-2.3207,rough,14.0,1,3.064
760,24.32,1.1080,-5.9011,0.3777,0.1131,-0.8476,-2.3672,rough,14.0,1,3.054
770,24.64,1.0963,-5.8956,0.3826,0.0998,-0.8497,-2.3306,rough,14.0,1,3.051
780,24.96,1.0836,-5.8963,0.3891,0.1263,-0.8493,-2.3397,rough,14.0,1,3.043
790,25.28,1.0772,-5.8962,0.3962,0.1322,-0.8485,-2.3540,rough,14.0,1,3.039
800,25.60,1.0741,-5.8932,0.3966,0.1242,-0.8469,-2.3402,rough,14.0,1,3.040
810,25.92,1.0651,-5.8956,0.4053,0.1314,-0.8523,-2.3377,rough,14.0,1,3.033
820,26.24,1.0523,-5.8905,0.4083,0.1535,-0.8469,-2.3467,rough,14.0,1,3.029
830,26.56,1.0427,-5.8933,0.4179,0.1902,-0.8557,-2.3839,rough,14.0,1,3.021
840,26.88,1.0309,-5.8857,0.4230,0.1505,-0.8506,-2.3239,rough,14.0,1,3.021
850,27.20,1.0413,-5.8804,0.4103,0.1305,-0.8381,-2.3115,rough,14.0,1,3.031
860,27.52,1.0677,-5.8903,0.3993,0.1092,-0.8477,-2.3091,rough,14.0,1,3.039
870,27.84,1.0763,-5.8979,0.3990,0.1401,-0.8510,-2.3668,rough,14.0,1,3.037
880,28.16,1.0898,-5.8985,0.3896,0.1090,-0.8526,-2.3349,rough,14.0,1,3.045
890,28.48,1.0912,-5.8966,0.3872,0.1053,-0.8511,-2.3320,rough,14.0,1,3.047
900,28.80,1.0777,-5.8911,0.3932,0.1010,-0.8499,-2.3088,rough,14.0,1,3.044
910,29.12,1.0700,-5.8985,0.4037,0.1372,-0.8495,-2.3559,rough,14.0,1,3.033
920,29.44,1.0621,-5.8927,0.4050,0.1349,-0.8476,-2.3408,rough,14.0,1,3.033
930,29.76,1.0555,-5.8950,0.4120,0.1370,-0.8536,-2.3334,rough,14.0,1,3.028
940,30.08,1.0503,-5.8922,0.4130,0.1362,-0.8502,-2.3253,rough,14.0,1,3.027
950,30.40,1.0435,-5.8884,0.4146,0.1509,-0.8432,-2.3430,rough,14.0,1,3.026
960,30.72,1.0344,-5.8931,0.4269,0.1792,-0.8653,-2.3632,rough,14.0,1,3.017
970,31.04,1.0492,-5.8829,0.4075,0.1111,-0.8456,-2.2886,rough,14.0,1,3.034
980,31.36,1.0675,-5.8909,0.3995,0.1277,-0.8450,-2.3380,rough,14.0,1,3.038
990,31.68,1.0680,-5.8965,0.4033,0.1423,-0.8482,-2.3596,rough,14.0,1,3.034
1000,32.00,1.0631,-5.8904,0.4026,0.1077,-0.8478,-2.3001,rough,14.0,1,3.036
1010,32.32,1.0621,-5.8966,0.4056,0.1433,-0.8417,-2.3509,rough,14.0,1,3.030
1020,32.64,1.0604,-5.8895,0.4042,0.1208,-0.8486,-2.3169,rough,14.0,1,3.035
1030,32.96,1.0649,-5.8955,0.4043,0.1585,-0.8648,-2.3584,rough,14.0,1,3.033
1040,33.28,1.0695,-5.8904,0.3980,0.1193,-0.8476,-2.3258,rough,14.0,1,3.039
1050,33.60,1.0683,-5.8976,0.4041,0.1409,-0.8496,-2.3577,rough,14.0,1,3.033
1060,33.92,1.0652,-5.8840,0.3967,0.0965,-0.8441,-2.2880,rough,14.0,1,3.042
1070,34.24,1.0640,-5.8987,0.4082,0.1430,-0.8485,-2.3583,rough,14.0,1,3.029
1080,34.56,1.0526,-5.8931,0.4114,0.1478,-0.8454,-2.3485,rough,14.0,1,3.027
1090,34.88,1.0481,-5.8931,0.4153,0.1500,-0.8491,-2.3453,rough,14.0,1,3.025
1100,35.20,1.0394,-5.8898,0.4191,0.1432,-0.8502,-2.3218,rough,14.0,1,3.022
1110,35.52,1.0329,-5.8888,0.4237,0.1527,-0.8517,-2.3298,rough,14.0,1,3.020
1120,35.84,1.0476,-5.8880,0.4116,0.1329,-0.8440,-2.3203,rough,14.0,1,3.029
1130,36.16,1.0619,-5.8962,0.4079,0.1382,-0.8518,-2.3440,rough,14.0,1,3.030
1140,36.48,1.0595,-5.8898,0.4039,0.1275,-0.8420,-2.3277,rough,14.0,1,3.034
1150,36.80,1.0640,-5.8979,0.4076,0.1376,-0.8502,-2.3484,rough,14.0,1,3.030
1160,37.12,1.0582,-5.8889,0.4050,0.1245,-0.8464,-2.3207,rough,14.0,1,3.034
1170,37.44,1.0477,-5.8942,0.4159,0.1543,-0.8515,-2.3467,rough,14.0,1,3.024
1180,37.76,1.0436,-5.8860,0.4119,0.1106,-0.8380,-2.2813,rough,14.0,1,3.028
1190,38.08,1.0601,-5.8869,0.4024,0.1096,-0.8464,-2.3006,rough,14.0,1,3.037
1200,38.40,1.0615,-5.8950,0.4071,0.1690,-0.8543,-2.3845,rough,14.0,1,3.031
1210,38.72,1.0531,-5.8937,0.4123,0.1454,-0.8507,-2.3434,rough,14.0,1,3.027
1220,39.04,1.0333,-5.8924,0.4254,0.1763,-0.8486,-2.3667,rough,14.0,1,3.017
1230,39.36,1.0440,-5.8869,0.4137,0.1213,-0.8459,-2.2971,rough,14.0,1,3.027
1240,39.68,1.0628,-5.8952,0.4063,0.1399,-0.8492,-2.3487,rough,14.0,1,3.032
1250,40.00,1.0622,-5.8935,0.4055,0.1352,-0.8488,-2.3410,rough,14.0,1,3.033
1260,40.32,1.0537,-5.8967,0.4138,0.1557,-0.8483,-2.3628,rough,14.0,1,3.025
1270,40.64,1.0516,-5.8926,0.4108,0.1436,-0.8504,-2.3304,rough,14.0,1,3.027
1280,40.96,1.0457,-5.8890,0.4135,0.1474,-0.8450,-2.3390,rough,14.0,1,3.027
1290,41.28,1.0396,-5.8904,0.4187,0.1793,-0.8457,-2.3773,rough,14.0,1,3.022
1300,41.60,1.0529,-5.8825,0.4042,0.1110,-0.8432,-2.2943,rough,14.0,1,3.036
1310,41.92,1.0649,-5.8944,0.4042,0.1344,-0.8492,-2.3432,rough,14.0,1,3.034
1320,42.24,1.0661,-5.8942,0.4025,0.1461,-0.8449,-2.3629,rough,14.0,1,3.034
1330,42.56,1.0588,-5.8883,0.4044,0.1201,-0.8473,-2.3144,rough,14.0,1,3.035
1340,42.88,1.0456,-5.8950,0.4173,0.1723,-0.8459,-2.3740,rough,14.0,1,3.022
1350,43.20,1.0368,-5.8959,0.4254,0.1729,-0.8481,-2.3671,rough,14.0,2,4.741
1360,43.52,1.0571,-5.8984,0.4131,0.1568,-0.8501,-2.3694,rough,14.0,2,4.761
1370,43.84,1.1073,-5.9040,0.3814,0.0986,-0.8517,-2.3466,rough,14.0,2,4.809
1380,44.16,1.1513,-5.8921,0.3389,0.1427,-0.8329,-2.4497,rough,14.0,2,4.844
1390,44.48,1.1340,-5.9130,0.3689,0.0873,-0.8480,-2.3713,rough,14.0,2,4.837
1400,44.80,1.1370,-5.9145,0.3681,0.0749,-0.8493,-2.3580,rough,14.0,2,4.840
1410,45.12,1.1402,-5.8918,0.3472,0.0331,-0.8434,-2.2896,rough,14.0,2,4.834
1420,45.44,1.1391,-5.9093,0.3611,0.0802,-0.8495,-2.3574,rough,14.0,2,4.840
1430,45.76,1.1463,-5.9035,0.3507,0.0425,-0.8454,-2.3059,rough,14.0,2,4.844
1440,46.08,1.1415,-5.9026,0.3551,0.0484,-0.8529,-2.3086,rough,14.0,2,4.840
1450,46.40,1.1491,-5.9092,0.3563,0.1003,-0.8544,-2.4054,rough,14.0,2,4.849
1460,46.72,1.1471,-5.8912,0.3430,0.0267,-0.8463,-2.2854,rough,14.0,2,4.840
1470,47.04,1.1490,-5.9234,0.3663,0.0533,-0.8482,-2.3481,rough,14.0,2,4.855
1480,47.36,1.1453,-5.9229,0.3687,0.0552,-0.8475,-2.3468,rough,14.0,2,4.851
1490,47.68,1.1486,-5.8917,0.3428,0.0123,-0.8508,-2.2629,rough,14.0,2,4.842
1500,48.00,1.1457,-5.8902,0.3436,0.0121,-0.8480,-2.2606,rough,14.0,2,4.838
1510,48.32,1.1376,-5.9289,0.3799,0.0639,-0.8488,-2.3587,rough,14.0,2,4.847
1520,48.64,1.1458,-5.9393,0.3829,0.0675,-0.8481,-2.3873,rough,14.0,2,4.859
1530,48.96,1.1457,-5.9140,0.3608,0.0746,-0.8473,-2.3675,rough,14.0,2,4.848
1540,49.28,1.1456,-5.8833,0.3374,0.0184,-0.8365,-2.2736,rough,14.0,2,4.836
1550,49.60,1.1476,-5.9108,0.3562,0.0562,-0.8577,-2.3244,rough,14.0,2,4.848
1560,49.92,1.1451,-5.9165,0.3635,0.0626,-0.8496,-2.3495,rough,14.0,2,4.849
1570,50.24,1.1475,-5.8998,0.3491,0.0478,-0.8532,-2.3157,rough,14.0,2,4.844
1580,50.56,1.1468,-5.9117,0.3581,0.0739,-0.8479,-2.3651,rough,14.0,2,4.848
1590,50.88,1.1470,-5.9033,0.3512,0.0910,-0.8474,-2.3818,rough,14.0,2,4.845
1600,51.20,1.1378,-5.8996,0.3566,0.1146,-0.8694,-2.3873,rough,14.0,2,4.835
1610,51.52,1.1466,-5.8886,0.3409,0.0292,-0.8432,-2.2883,rough,14.0,2,4.839
1620,51.84,1.1453,-5.9210,0.3667,0.0614,-0.8511,-2.3490,rough,14.0,2,4.851
1630,52.16,1.1495,-5.9269,0.3704,0.0925,-0.8509,-2.4148,rough,14.0,2,4.857
1640,52.48,1.1485,-5.9001,0.3494,0.0239,-0.8580,-2.2796,rough,14.0,2,4.845
1650,52.80,1.1424,-5.9104,0.3605,0.0725,-0.8486,-2.3569,rough,14.0,2,4.844
1660,53.12,1.1460,-5.9048,0.3521,0.0818,-0.8446,-2.3678,rough,14.0,2,4.845
1670,53.44,1.1537,-5.8637,0.3242,-0.1583,-0.8433,-1.9966,rough,14.0,2,4.835
1680,53.76,1.1609,-5.8338,0.2999,-0.2542,-0.8050,-1.8524,rough,14.0,2,4.830
1690,54.08,1.1646,-5.8579,0.3194,-0.2864,-0.8379,-1.7929,rough,14.0,2,4.843
1700,54.40,1.1731,-5.9209,0.3653,-0.2789,-0.8736,-1.8494,rough,14.0,2,4.876
1710,54.72,1.1729,-5.9847,0.4180,-0.3137,-0.8752,-1.8861,rough,14.0,2,4.902
1720,55.04,1.1755,-6.0176,0.4427,-0.3059,-0.8784,-1.9402,rough,14.0,2,4.918
1730,55.36,1.1763,-6.0176,0.4430,-0.3213,-0.8786,-1.9187,rough,14.0,2,4.919
1740,55.68,1.1802,-5.9944,0.4251,-0.3828,-0.8704,-1.7982,rough,14.0,2,4.913
1750,56.00,1.1944,-5.9676,0.3990,-0.4839,-0.8272,-1.6044,rough,14.0,2,4.915
1760,56.32,1.2131,-5.9367,0.3585,-0.5716,-0.6987,-1.3934,rough,14.0,2,4.919
1770,56.64,1.2134,-5.8529,0.3006,-0.5110,-0.7655,-1.3835,rough,14.0,2,4.886
1780,56.96,1.2057,-5.7075,0.1894,-0.4362,-0.6009,-1.5121,rough,14.0,2,4.823
1790,57.28,1.2000,-5.6032,0.1145,-0.3830,-0.5564,-1.4878,rough,14.0,2,4.781
1800,57.60,1.2112,-5.6036,0.1107,-0.3811,-0.5405,-1.5292,rough,14.0,2,4.791
1810,57.92,1.2308,-5.7142,0.1837,-0.4256,-0.6127,-1.4958,rough,14.0,2,4.849
1820,58.24,1.2421,-5.8111,0.2559,-0.4669,-0.7340,-1.4346,rough,14.0,2,4.896
1830,58.56,1.2435,-5.7792,0.2296,-0.4391,-0.6976,-1.4844,rough,14.0,2,4.885
1840,58.88,1.2478,-5.7301,0.1906,-0.4406,-0.6255,-1.4703,rough,14.0,2,4.871
1850,59.20,1.2860,-5.7677,0.2067,-0.4927,-0.6512,-1.3363,rough,14.0,2,4.920
1860,59.52,1.3486,-5.8730,0.2394,-0.5144,-0.5606,-1.2990,rough,14.0,2,5.018
1870,59.84,1.3804,-5.9282,0.2615,-0.4582,-0.5756,-1.4129,rough,14.0,2,5.069
1880,60.16,1.4370,-5.9730,0.2524,-0.4299,-0.4811,-1.4424,rough,14.0,2,5.139
1890,60.48,1.4514,-5.9577,0.2366,-0.3638,-0.5522,-1.4578,rough,14.0,2,5.146
1900,60.80,1.4833,-5.9562,0.2163,-0.3455,-0.5110,-1.4845,rough,14.0,2,5.175
1910,61.12,1.5039,-5.9863,0.2234,-0.2998,-0.5328,-1.5132,rough,14.0,2,5.205
1920,61.44,1.5194,-6.1454,0.3132,-0.3162,-0.5604,-1.5132,rough,14.0,2,5.284
1930,61.76,1.5472,-6.3371,0.4395,-0.3685,-0.6649,-1.4786,rough,14.0,2,5.392
1940,62.08,1.5547,-6.3833,0.4763,-0.3216,-0.7089,-1.5215,rough,14.0,2,5.419
1950,62.40,1.5659,-6.3094,0.4102,-0.3394,-0.6732,-1.5560,rough,14.0,2,5.396
1960,62.72,1.5735,-6.2707,0.3805,-0.3532,-0.6345,-1.5206,rough,14.0,2,5.386
1970,63.04,1.5837,-6.2697,0.3749,-0.3649,-0.6190,-1.4948,rough,14.0,2,5.395
1980,63.36,1.5856,-6.1341,0.2799,-0.3249,-0.5324,-1.5149,rough,14.0,2,5.340
1990,63.68,1.5855,-6.0496,0.2315,-0.2961,-0.5475,-1.5368,rough,14.0,2,5.305
2000,64.00,1.5935,-6.1312,0.2734,-0.3106,-0.5306,-1.5490,rough,14.0,2,5.346
2010,64.32,1.6197,-6.3230,0.3985,-0.3896,-0.6559,-1.4624,rough,14.0,2,5.451
2020,64.64,1.6444,-6.5009,0.5324,-0.3852,-0.6838,-1.4810,rough,14.0,2,5.553
2030,64.96,1.6540,-6.5283,0.5496,-0.3772,-0.6857,-1.5248,rough,14.0,2,5.574
2040,65.28,1.6525,-6.4279,0.4694,-0.3401,-0.7009,-1.5283,rough,14.0,2,5.527
2050,65.60,1.6600,-6.3231,0.3789,-0.3678,-0.6724,-1.5193,rough,14.0,2,5.487
2060,65.92,1.6720,-6.3023,0.3633,-0.3918,-0.6370,-1.4592,rough,14.0,2,5.489
2070,66.24,1.6825,-6.3525,0.3988,-0.3587,-0.6861,-1.4833,rough,14.0,2,5.520
2080,66.56,1.6893,-6.3263,0.3755,-0.3374,-0.6720,-1.5391,rough,14.0,2,5.515
2090,66.88,1.7066,-6.1969,0.2804,-0.3135,-0.6434,-1.6591,rough,14.0,2,5.476
2100,67.20,1.7125,-6.0359,0.1701,-0.1681,-0.6238,-1.9180,rough,14.0,2,5.417
2110,67.52,1.6774,-5.9259,0.1195,0.0787,-0.6232,-2.3115,rough,14.0,2,5.342
2120,67.84,1.5282,-5.9303,0.1807,0.3258,-0.5560,-2.6937,rough,14.0,2,5.206
2130,68.16,1.3955,-5.9884,0.2919,0.5139,-0.6057,-3.0667,rough,14.0,2,5.107
2140,68.48,1.2463,-5.9643,0.3514,0.6743,-0.5809,2.8510,rough,14.0,2,4.960
2150,68.80,1.1271,-5.7676,0.2886,0.8332,-0.1633,2.5513,rough,14.0,2,4.773
2160,69.12,1.0101,-5.4974,0.1191,0.6618,0.3013,2.2505,rough,14.0,2,4.566
2170,69.44,0.8316,-5.1143,-0.1066,0.7894,0.0996,2.5594,rough,14.0,2,4.278
2180,69.76,0.6440,-4.7573,-0.1815,0.7979,-0.3366,2.4990,rough,14.0,2,4.010
2190,70.08,0.5080,-4.5454,-0.2085,0.4630,-0.3673,2.6974,rough,14.0,2,3.838
2200,70.40,0.3068,-4.3937,-0.1186,0.5387,-0.5694,2.5441,rough,14.0,2,3.617
2210,70.72,0.0891,-4.1838,-0.0174,0.5855,-0.4615,2.5751,rough,14.0,2,3.379
2220,71.04,-0.1526,-4.0004,0.0496,0.5203,-0.3115,2.6662,rough,14.0,2,3.129
2230,71.36,-0.4790,-3.8173,0.1279,0.4889,-0.3798,2.9353,rough,14.0,2,2.805
2240,71.68,-0.7642,-3.7423,0.2396,0.3593,-0.4605,-3.0176,rough,14.0,2,2.524
2250,72.00,-0.8916,-3.7369,0.3063,0.0865,-0.6791,-2.6238,rough,14.0,2,2.398
2260,72.32,-1.0494,-3.8090,0.4060,-0.0369,-0.6609,-2.2744,rough,14.0,2,2.235
2270,72.64,-1.1492,-3.9549,0.5617,-0.1278,-0.7899,-2.0910,rough,14.0,2,2.132
2280,72.96,-1.2033,-4.1287,0.7046,-0.2974,-0.7430,-1.9409,rough,14.0,2,2.087
2290,73.28,-1.2150,-4.2593,0.8040,-0.4506,-0.7273,-1.7411,rough,14.0,2,2.091
2300,73.60,-1.1555,-4.3475,0.8258,-0.3285,-0.7396,-1.8046,rough,14.0,2,2.165
2310,73.92,-1.0821,-4.3703,0.7843,0.0146,-0.7861,-2.1899,rough,14.0,2,2.241
2320,74.24,-1.0706,-4.3450,0.7578,-0.1583,-0.7477,-1.9456,rough,14.0,2,2.248
2330,74.56,-1.0166,-4.3661,0.7423,-0.4738,-0.6205,-1.4438,rough,14.0,2,2.305
2340,74.88,-0.9540,-4.3747,0.7163,-0.6000,-0.5106,-1.1884,rough,14.0,2,2.368
2350,75.20,-0.8415,-4.3822,0.6578,-0.7252,-0.2445,-0.9189,rough,14.0,2,2.480
2360,75.52,-0.6704,-4.4505,0.6091,-0.7617,0.0329,-0.6240,rough,14.0,2,2.661
2370,75.84,-0.4543,-4.5554,0.5398,-0.7528,-0.0007,-0.8280,rough,14.0,2,2.894
2380,76.16,-0.3400,-4.5851,0.4831,-0.6835,-0.3321,-1.2935,rough,14.0,2,3.012
2390,76.48,-0.2727,-4.5860,0.4327,-0.4469,-0.6406,-1.7808,rough,14.0,2,3.077
2400,76.80,-0.2533,-4.5693,0.4092,-0.2545,-0.7145,-2.1104,rough,14.0,2,3.093
2410,77.12,-0.3107,-4.5557,0.4424,-0.1230,-0.7442,-2.2777,rough,14.0,2,3.034
2420,77.44,-0.3871,-4.5925,0.5173,-0.0968,-0.7459,-2.2932,rough,14.0,2,2.967
2430,77.76,-0.4785,-4.6170,0.5975,0.1920,-0.7392,-2.7320,rough,14.0,2,2.884
2440,78.08,-0.6811,-4.5897,0.7180,0.5702,-0.5407,2.9888,rough,14.0,2,2.681
2450,78.40,-1.0432,-4.4406,0.8114,0.7123,-0.3148,2.8368,rough,14.0,2,2.294
2460,78.72,-1.3231,-4.2823,0.8923,0.7673,-0.4434,2.6661,rough,14.0,2,1.988
2470,79.04,-1.4743,-4.1039,0.8959,0.7602,-0.3884,2.5818,rough,14.0,2,1.814
2480,79.36,-1.4802,-3.9314,0.7892,0.8173,-0.1466,2.3360,rough,14.0,2,1.801
2490,79.68,-1.4196,-3.7636,0.6582,0.8416,-0.1843,2.1835,rough,14.0,2,1.869
2500,80.00,-1.3737,-3.5444,0.5099,0.8626,-0.1313,2.3620,rough,14.0,2,1.947
2510,80.32,-1.3365,-3.3501,0.3982,0.4599,-0.4888,2.9621,rough,14.0,2,2.031
2520,80.64,-1.3647,-3.3351,0.4133,0.4073,-0.6192,2.9166,rough,14.0,2,2.009
2530,80.96,-1.5367,-3.2970,0.5020,0.4315,-0.5097,3.0495,rough,14.0,2,1.858
2540,81.28,-1.7312,-3.2546,0.6026,0.4929,-0.6568,3.0342,rough,14.0,2,1.693
2550,81.60,-1.8992,-3.2177,0.7174,0.4297,-0.7438,3.1401,rough,14.0,2,1.558
2560,81.92,-2.0074,-3.1790,0.7846,0.4351,-0.7093,3.1397,rough,14.0,2,1.482
2570,82.24,-2.0891,-3.1286,0.7992,0.5218,-0.6712,3.0870,rough,14.0,2,1.440
2580,82.56,-2.2318,-2.9809,0.7587,0.4213,-0.7113,-2.7376,rough,14.0,2,1.420
2590,82.88,-2.3041,-2.8427,0.6964,-0.0015,-0.7759,-2.2149,rough,14.0,2,1.467
2600,83.20,-2.3339,-2.7273,0.6325,-0.3371,-0.7711,-1.8409,rough,14.0,2,1.536
2610,83.52,-2.3528,-2.6584,0.5901,-0.4610,-0.6559,-1.6444,rough,14.0,2,1.580
2620,83.84,-2.3555,-2.6266,0.5698,-0.5271,-0.6264,-1.5512,rough,14.0,2,1.604
2630,84.16,-2.3366,-2.6436,0.5720,-0.5679,-0.5873,-1.4556,rough,14.0,2,1.602
2640,84.48,-2.2944,-2.7085,0.5947,-0.5889,-0.5285,-1.3422,rough,14.0,2,1.576
2650,84.80,-2.2280,-2.7897,0.6106,-0.6553,-0.5015,-1.1383,rough,14.0,2,1.557
2660,85.12,-2.1136,-2.8822,0.6159,-0.6844,-0.4198,-1.0497,rough,14.0,2,1.573
2670,85.44,-2.0225,-2.9328,0.6176,-0.6348,-0.4920,-1.1403,rough,14.0,2,1.610
2680,85.76,-1.9242,-2.9403,0.5632,-0.6176,-0.4654,-1.2970,rough,14.0,2,1.684
2690,86.08,-1.8486,-2.9830,0.5297,-0.6078,-0.5292,-1.5832,rough,14.0,2,1.721
2700,86.40,-1.8394,-3.1382,0.6014,-0.5769,-0.5520,-1.6410,rough,14.0,2,1.648
2710,86.72,-1.8233,-3.2699,0.6748,-0.6224,-0.5816,-1.5923,rough,14.0,2,1.603
2720,87.04,-1.8157,-3.3979,0.7562,-0.6210,-0.6453,-1.5622,rough,14.0,2,1.561
2730,87.36,-1.8071,-3.5065,0.8220,-0.6651,-0.6012,-1.5303,rough,14.0,2,1.536
2740,87.68,-1.7937,-3.6033,0.8729,-0.6895,-0.5533,-1.5201,rough,14.0,2,1.524
2750,88.00,-1.7699,-3.6917,0.9053,-0.6888,-0.4976,-1.5073,rough,14.0,2,1.531
2760,88.32,-1.7076,-3.7514,0.8999,-0.7441,-0.5158,-1.5077,rough,14.0,2,1.584
2770,88.64,-1.5607,-3.7832,0.7665,-0.5331,-0.6734,-1.7542,rough,14.0,2,1.727
2780,88.96,-1.3394,-3.8382,0.6170,-0.7447,-0.5075,-1.4481,rough,14.0,2,1.944
2790,89.28,-1.1842,-3.8803,0.5350,-0.7178,-0.4172,-1.2207,rough,14.0,2,2.098
2800,89.60,-1.1046,-3.9626,0.5312,-0.6288,-0.4117,-1.2693,rough,14.0,2,2.177
2810,89.92,-1.0380,-4.0906,0.5600,-0.4926,-0.4718,-1.4233,rough,14.0,2,2.248
