step,time_s,x,y,z,roll,pitch,yaw,terrain,speed,target_idx,dist_to_target
10,0.32,-0.1708,1.3875,0.3179,0.1532,-0.1089,-0.0033,rough,14.0,0,4.198
20,0.64,-0.0022,1.3697,0.3270,0.1459,-0.1310,0.1514,rough,14.0,0,4.259
30,0.96,0.2841,1.4036,0.3427,0.1468,-0.1438,0.5740,rough,14.0,0,4.315
40,1.28,0.4966,1.5443,0.3741,0.0938,-0.1245,0.8875,rough,14.0,0,4.262
50,1.60,0.6590,1.8173,0.3819,0.0859,0.0575,1.2178,rough,14.0,0,4.083
60,1.92,0.8130,2.1157,0.3601,0.2568,0.0354,1.5692,rough,14.0,0,3.895
70,2.24,0.8051,2.4752,0.3078,0.3081,0.1688,1.8539,rough,14.0,0,3.587
80,2.56,0.8002,2.5371,0.3122,0.2455,0.1447,1.5893,rough,14.0,0,3.532
90,2.88,0.7991,2.5436,0.2993,0.2508,0.2377,1.5784,rough,14.0,0,3.526
100,3.20,0.8001,2.5474,0.2970,0.2512,0.2465,1.5769,rough,14.0,0,3.524
110,3.52,0.8038,2.5489,0.2962,0.2500,0.2431,1.5744,rough,14.0,0,3.525
120,3.84,0.8034,2.5504,0.2954,0.2518,0.2472,1.5720,rough,14.0,0,3.523
130,4.16,0.8028,2.5511,0.2955,0.2512,0.2475,1.5684,rough,14.0,0,3.522
140,4.48,0.8025,2.5511,0.2956,0.2508,0.2477,1.5667,rough,14.0,0,3.522
150,4.80,0.8023,2.5511,0.2957,0.2506,0.2479,1.5658,rough,14.0,0,3.522
160,5.12,0.8021,2.5510,0.2958,0.2504,0.2479,1.5652,rough,14.0,0,3.522
170,5.44,0.8021,2.5509,0.2958,0.2503,0.2479,1.5649,rough,14.0,0,3.522
180,5.76,0.8062,2.5481,0.2954,0.2507,0.2459,1.5714,rough,14.0,0,3.527
190,6.08,0.8061,2.5516,0.2943,0.2515,0.2483,1.5697,rough,14.0,0,3.524
200,6.40,0.8058,2.5521,0.2944,0.2510,0.2481,1.5675,rough,14.0,0,3.523
210,6.72,0.8055,2.5519,0.2945,0.2507,0.2482,1.5662,rough,14.0,0,3.523
220,7.04,0.8054,2.5517,0.2946,0.2505,0.2483,1.5655,rough,14.0,0,3.523
230,7.36,0.8053,2.5516,0.2947,0.2504,0.2483,1.5651,rough,14.0,0,3.523
240,7.68,0.8052,2.5514,0.2948,0.2503,0.2482,1.5649,rough,14.0,0,3.523
250,8.00,0.8051,2.5513,0.2948,0.2502,0.2482,1.5647,rough,14.0,0,3.524
260,8.32,0.8051,2.5512,0.2949,0.2500,0.2482,1.5646,rough,14.0,0,3.524
270,8.64,0.8051,2.5511,0.2949,0.2499,0.2482,1.5645,rough,14.0,0,3.524
280,8.96,0.8051,2.5510,0.2949,0.2497,0.2481,1.5643,rough,14.0,0,3.524
290,9.28,0.8052,2.5510,0.2949,0.2496,0.2481,1.5642,rough,14.0,0,3.524
300,9.60,0.8080,2.5484,0.2947,0.2508,0.2470,1.5696,rough,14.0,0,3.528
310,9.92,0.8077,2.5497,0.2946,0.2508,0.2467,1.5674,rough,14.0,0,3.526
320,10.24,0.8074,2.5499,0.2946,0.2505,0.2471,1.5661,rough,14.0,0,3.526
330,10.56,0.8072,2.5500,0.2946,0.2502,0.2474,1.5654,rough,14.0,0,3.526
340,10.88,0.8070,2.5502,0.2946,0.2500,0.2476,1.5650,rough,14.0,0,3.525
350,11.20,0.8070,2.5503,0.2946,0.2500,0.2477,1.5648,rough,14.0,0,3.525
360,11.52,0.8069,2.5504,0.2946,0.2499,0.2477,1.5646,rough,14.0,0,3.525
370,11.84,0.8069,2.5505,0.2946,0.2498,0.2478,1.5645,rough,14.0,0,3.525
380,12.16,0.8069,2.5505,0.2945,0.2497,0.2479,1.5644,rough,14.0,0,3.525
390,12.48,0.8069,2.5506,0.2945,0.2496,0.2479,1.5643,rough,14.0,0,3.525
400,12.80,0.8069,2.5506,0.2945,0.2495,0.2480,1.5642,rough,14.0,0,3.525
410,13.12,0.8070,2.5506,0.2945,0.2494,0.2480,1.5641,rough,14.0,0,3.525
420,13.44,0.8086,2.5495,0.2943,0.2507,0.2471,1.5674,rough,14.0,0,3.527
430,13.76,0.8083,2.5501,0.2943,0.2505,0.2471,1.5661,rough,14.0,0,3.526
440,14.08,0.8081,2.5502,0.2943,0.2503,0.2474,1.5654,rough,14.0,0,3.526
450,14.40,0.8080,2.5503,0.2943,0.2501,0.2476,1.5650,rough,14.0,0,3.526
460,14.72,0.8079,2.5504,0.2943,0.2500,0.2477,1.5648,rough,14.0,0,3.526
470,15.04,0.8079,2.5505,0.2943,0.2499,0.2478,1.5647,rough,14.0,0,3.526
480,15.36,0.8078,2.5506,0.2943,0.2498,0.2479,1.5645,rough,14.0,0,3.526
490,15.68,0.8078,2.5506,0.2942,0.2497,0.2479,1.5644,rough,14.0,0,3.526
500,16.00,0.8078,2.5507,0.2942,0.2495,0.2480,1.5643,rough,14.0,0,3.526
510,16.32,0.8079,2.5507,0.2942,0.2494,0.2480,1.5642,rough,14.0,0,3.526
520,16.64,0.8079,2.5507,0.2942,0.2493,0.2480,1.5641,rough,14.0,0,3.526
530,16.96,0.8080,2.5508,0.2941,0.2492,0.2481,1.5641,rough,14.0,0,3.526
540,17.28,0.8081,2.5508,0.2941,0.2492,0.2481,1.5640,rough,14.0,0,3.526
550,17.60,0.8082,2.5508,0.2941,0.2491,0.2481,1.5639,rough,14.0,0,3.526
560,17.92,0.8083,2.5508,0.2940,0.2490,0.2481,1.5639,rough,14.0,0,3.526
570,18.24,0.8085,2.5508,0.2940,0.2490,0.2481,1.5638,rough,14.0,0,3.526
580,18.56,0.8086,2.5508,0.2940,0.2489,0.2481,1.5638,rough,14.0,0,3.526
590,18.88,0.8088,2.5508,0.2939,0.2489,0.2482,1.5638,rough,14.0,0,3.526
600,19.20,0.8089,2.5508,0.2939,0.2488,0.2482,1.5637,rough,14.0,0,3.526
610,19.52,0.8091,2.5508,0.2938,0.2488,0.2482,1.5637,rough,14.0,0,3.526
620,19.84,0.8093,2.5508,0.2938,0.2488,0.2482,1.5637,rough,14.0,0,3.526
630,20.16,0.8094,2.5508,0.2937,0.2487,0.2482,1.5637,rough,14.0,0,3.526
640,20.48,0.8096,2.5508,0.2937,0.2487,0.2482,1.5637,rough,14.0,0,3.526
650,20.80,0.8098,2.5508,0.2936,0.2487,0.2482,1.5636,rough,14.0,0,3.527
660,21.12,0.8100,2.5509,0.2935,0.2487,0.2482,1.5636,rough,14.0,0,3.527
670,21.44,0.8102,2.5509,0.2935,0.2486,0.2482,1.5636,rough,14.0,0,3.527
680,21.76,0.8104,2.5509,0.2934,0.2486,0.2482,1.5635,rough,14.0,0,3.527
690,22.08,0.8106,2.5508,0.2934,0.2486,0.2482,1.5634,rough,14.0,0,3.527
700,22.40,0.8109,2.5508,0.2933,0.2485,0.2483,1.5632,rough,14.0,0,3.527
710,22.72,0.8113,2.5507,0.2932,0.2483,0.2483,1.5627,rough,14.0,0,3.527
720,23.04,0.8125,2.5503,0.2930,0.2485,0.2478,1.5629,rough,14.0,0,3.528
730,23.36,0.8130,2.5502,0.2930,0.2511,0.2468,1.5657,rough,14.0,0,3.529
740,23.68,0.8128,2.5504,0.2930,0.2511,0.2468,1.5652,rough,14.0,0,3.529
750,24.00,0.8127,2.5505,0.2930,0.2510,0.2469,1.5648,rough,14.0,0,3.528
760,24.32,0.8126,2.5505,0.2930,0.2509,0.2470,1.5646,rough,14.0,0,3.528
770,24.64,0.8125,2.5505,0.2930,0.2508,0.2470,1.5645,rough,14.0,0,3.528
780,24.96,0.8125,2.5505,0.2931,0.2506,0.2472,1.5644,rough,14.0,0,3.528
790,25.28,0.8124,2.5505,0.2930,0.2504,0.2473,1.5643,rough,14.0,0,3.528
800,25.60,0.8124,2.5505,0.2930,0.2501,0.2474,1.5642,rough,14.0,0,3.528
810,25.92,0.8124,2.5506,0.2930,0.2499,0.2475,1.5641,rough,14.0,0,3.528
820,26.24,0.8124,2.5506,0.2930,0.2497,0.2476,1.5641,rough,14.0,0,3.528
830,26.56,0.8125,2.5506,0.2930,0.2495,0.2477,1.5640,rough,14.0,0,3.528
840,26.88,0.8126,2.5506,0.2929,0.2493,0.2478,1.5640,rough,14.0,0,3.528
850,27.20,0.8126,2.5507,0.2929,0.2492,0.2479,1.5639,rough,14.0,0,3.528
860,27.52,0.8127,2.5507,0.2928,0.2491,0.2480,1.5639,rough,14.0,0,3.528
870,27.84,0.8128,2.5507,0.2928,0.2490,0.2480,1.5639,rough,14.0,0,3.528
880,28.16,0.8129,2.5508,0.2927,0.2489,0.2481,1.5639,rough,14.0,0,3.528
890,28.48,0.8131,2.5508,0.2927,0.2488,0.2482,1.5639,rough,14.0,0,3.528
900,28.80,0.8132,2.5509,0.2926,0.2488,0.2482,1.5638,rough,14.0,0,3.528
910,29.12,0.8133,2.5510,0.2925,0.2487,0.2482,1.5638,rough,14.0,0,3.528
920,29.44,0.8135,2.5510,0.2925,0.2487,0.2482,1.5638,rough,14.0,0,3.528
930,29.76,0.8136,2.5511,0.2924,0.2487,0.2483,1.5638,rough,14.0,0,3.529
940,30.08,0.8138,2.5511,0.2924,0.2486,0.2483,1.5637,rough,14.0,0,3.529
950,30.40,0.8140,2.5511,0.2923,0.2486,0.2483,1.5637,rough,14.0,0,3.529
960,30.72,0.8141,2.5511,0.2923,0.2486,0.2483,1.5637,rough,14.0,0,3.529
970,31.04,0.8143,2.5512,0.2922,0.2486,0.2483,1.5637,rough,14.0,0,3.529
980,31.36,0.8145,2.5512,0.2921,0.2485,0.2484,1.5637,rough,14.0,0,3.529
990,31.68,0.8147,2.5512,0.2921,0.2485,0.2484,1.5637,rough,14.0,0,3.529
1000,32.00,0.8149,2.5512,0.2920,0.2485,0.2484,1.5637,rough,14.0,0,3.529
1010,32.32,0.8150,2.5512,0.2920,0.2485,0.2484,1.5637,rough,14.0,0,3.529
1020,32.64,0.8152,2.5513,0.2919,0.2485,0.2484,1.5637,rough,14.0,0,3.529
1030,32.96,0.8154,2.5513,0.2919,0.2485,0.2484,1.5637,rough,14.0,0,3.529
1040,33.28,0.8156,2.5513,0.2918,0.2486,0.2484,1.5638,rough,14.0,0,3.529
1050,33.60,0.8158,2.5513,0.2918,0.2487,0.2483,1.5638,rough,14.0,0,3.530
1060,33.92,0.8159,2.5513,0.2917,0.2488,0.2483,1.5638,rough,14.0,0,3.530
1070,34.24,0.8161,2.5513,0.2917,0.2489,0.2482,1.5638,rough,14.0,0,3.530
1080,34.56,0.8163,2.5513,0.2916,0.2490,0.2482,1.5639,rough,14.0,0,3.530
1090,34.88,0.8164,2.5513,0.2916,0.2491,0.2481,1.5639,rough,14.0,0,3.530
1100,35.20,0.8166,2.5514,0.2916,0.2491,0.2481,1.5639,rough,14.0,1,3.530
1110,35.52,0.8167,2.5514,0.2915,0.2492,0.2480,1.5639,rough,14.0,1,5.157
1120,35.84,0.8168,2.5514,0.2915,0.2493,0.2480,1.5639,rough,14.0,1,5.157
1130,36.16,0.8170,2.5513,0.2915,0.2494,0.2479,1.5639,rough,14.0,1,5.157
1140,36.48,0.8171,2.5513,0.2914,0.2494,0.2479,1.5639,rough,14.0,1,5.157
1150,36.80,0.8172,2.5513,0.2914,0.2495,0.2478,1.5639,rough,14.0,1,5.157
1160,37.12,0.8173,2.5513,0.2914,0.2496,0.2478,1.5639,rough,14.0,1,5.157
1170,37.44,0.8174,2.5513,0.2914,0.2496,0.2477,1.5639,rough,14.0,1,5.157
1180,37.76,0.8175,2.5513,0.2914,0.2497,0.2477,1.5639,rough,14.0,1,5.157
1190,38.08,0.8176,2.5513,0.2913,0.2498,0.2476,1.5639,rough,14.0,1,5.157
1200,38.40,0.8177,2.5513,0.2913,0.2498,0.2476,1.5639,rough,14.0,1,5.157
1210,38.72,0.8178,2.5513,0.2913,0.2499,0.2475,1.5639,rough,14.0,1,5.157
1220,39.04,0.8179,2.5512,0.2913,0.2499,0.2475,1.5639,rough,14.0,1,5.157
1230,39.36,0.8180,2.5512,0.2913,0.2500,0.2474,1.5639,rough,14.0,1,5.157
1240,39.68,0.8181,2.5512,0.2913,0.2500,0.2474,1.5639,rough,14.0,1,5.157
1250,40.00,0.8182,2.5512,0.2912,0.2501,0.2474,1.5639,rough,14.0,1,5.157
1260,40.32,0.8183,2.5512,0.2912,0.2501,0.2473,1.5639,rough,14.0,1,5.157
1270,40.64,0.8184,2.5512,0.2912,0.2501,0.2473,1.5639,rough,14.0,1,5.157
1280,40.96,0.8185,2.5512,0.2912,0.2502,0.2472,1.5639,rough,14.0,1,5.157
1290,41.28,0.8186,2.5511,0.2912,0.2502,0.2472,1.5639,rough,14.0,1,5.157
1300,41.60,0.8186,2.5511,0.2912,0.2503,0.2472,1.5639,rough,14.0,1,5.157
1310,41.92,0.8187,2.5511,0.2912,0.2503,0.2471,1.5639,rough,14.0,1,5.158
1320,42.24,0.8188,2.5511,0.2911,0.2503,0.2471,1.5639,rough,14.0,1,5.158
1330,42.56,0.8189,2.5511,0.2911,0.2504,0.2470,1.5639,rough,14.0,1,5.158
1340,42.88,0.8190,2.5511,0.2911,0.2504,0.2470,1.5639,rough,14.0,1,5.158
1350,43.20,0.8191,2.5511,0.2911,0.2504,0.2470,1.5639,rough,14.0,1,5.158
1360,43.52,0.8191,2.5510,0.2911,0.2505,0.2469,1.5638,rough,14.0,1,5.158
1370,43.84,0.8192,2.5510,0.2911,0.2505,0.2469,1.5638,rough,14.0,1,5.158
1380,44.16,0.8193,2.5510,0.2911,0.2505,0.2469,1.5638,rough,14.0,1,5.158
1390,44.48,0.8194,2.5510,0.2910,0.2506,0.2468,1.5638,rough,14.0,1,5.158
1400,44.80,0.8194,2.5510,0.2910,0.2506,0.2468,1.5638,rough,14.0,1,5.158
1410,45.12,0.8195,2.5510,0.2910,0.2506,0.2468,1.5638,rough,14.0,1,5.158
1420,45.44,0.8196,2.5510,0.2910,0.2507,0.2467,1.5638,rough,14.0,1,5.158
1430,45.76,0.8197,2.5510,0.2910,0.2507,0.2467,1.5638,rough,14.0,1,5.158
1440,46.08,0.8197,2.5510,0.2910,0.2507,0.2467,1.5638,rough,14.0,1,5.158
1450,46.40,0.8198,2.5509,0.2910,0.2508,0.2466,1.5638,rough,14.0,1,5.158
1460,46.72,0.8199,2.5509,0.2910,0.2508,0.2466,1.5638,rough,14.0,1,5.158
1470,47.04,0.8199,2.5509,0.2909,0.2508,0.2466,1.5638,rough,14.0,1,5.158
1480,47.36,0.8200,2.5509,0.2909,0.2509,0.2465,1.5638,rough,14.0,1,5.158
1490,47.68,0.8201,2.5509,0.2909,0.2509,0.2465,1.5638,rough,14.0,1,5.158
1500,48.00,0.8202,2.5509,0.2909,0.2509,0.2465,1.5638,rough,14.0,1,5.158
1510,48.32,0.8202,2.5509,0.2909,0.2509,0.2464,1.5638,rough,14.0,1,5.158
1520,48.64,0.8203,2.5509,0.2909,0.2510,0.2464,1.5638,rough,14.0,1,5.158
1530,48.96,0.8204,2.5509,0.2909,0.2510,0.2464,1.5638,rough,14.0,1,5.158
1540,49.28,0.8204,2.5508,0.2909,0.2510,0.2464,1.5637,rough,14.0,1,5.158
1550,49.60,0.8205,2.5508,0.2908,0.2510,0.2463,1.5637,rough,14.0,1,5.158
1560,49.92,0.8206,2.5508,0.2908,0.2511,0.2463,1.5637,rough,14.0,1,5.158
1570,50.24,0.8206,2.5508,0.2908,0.2511,0.2463,1.5637,rough,14.0,1,5.158
1580,50.56,0.8207,2.5508,0.2908,0.2511,0.2463,1.5637,rough,14.0,1,5.159
1590,50.88,0.8207,2.5508,0.2908,0.2512,0.2462,1.5637,rough,14.0,1,5.159
1600,51.20,0.8208,2.5508,0.2908,0.2512,0.2462,1.5637,rough,14.0,1,5.159
1610,51.52,0.8209,2.5508,0.2908,0.2512,0.2462,1.5637,rough,14.0,1,5.159
1620,51.84,0.8209,2.5508,0.2908,0.2512,0.2461,1.5637,rough,14.0,1,5.159
1630,52.16,0.8210,2.5508,0.2908,0.2513,0.2461,1.5637,rough,14.0,1,5.159
1640,52.48,0.8211,2.5508,0.2907,0.2513,0.2461,1.5637,rough,14.0,1,5.159
1650,52.80,0.8211,2.5507,0.2907,0.2513,0.2461,1.5637,rough,14.0,1,5.159
1660,53.12,0.8212,2.5507,0.2907,0.2513,0.2460,1.5637,rough,14.0,1,5.159
1670,53.44,0.8212,2.5507,0.2907,0.2514,0.2460,1.5637,rough,14.0,1,5.159
1680,53.76,0.8213,2.5507,0.2907,0.2514,0.2460,1.5637,rough,14.0,1,5.159
1690,54.08,0.8213,2.5507,0.2907,0.2514,0.2460,1.5637,rough,14.0,1,5.159
1700,54.40,0.8214,2.5507,0.2907,0.2514,0.2460,1.5637,rough,14.0,1,5.159
1710,54.72,0.8215,2.5507,0.2907,0.2514,0.2459,1.5637,rough,14.0,1,5.159
1720,55.04,0.8215,2.5507,0.2907,0.2515,0.2459,1.5637,rough,14.0,1,5.159
1730,55.36,0.8216,2.5507,0.2907,0.2515,0.2459,1.5637,rough,14.0,1,5.159
1740,55.68,0.8216,2.5507,0.2906,0.2515,0.2459,1.5637,rough,14.0,1,5.159
1750,56.00,0.8217,2.5507,0.2906,0.2515,0.2458,1.5637,rough,14.0,1,5.159
1760,56.32,0.8217,2.5507,0.2906,0.2516,0.2458,1.5637,rough,14.0,1,5.159
1770,56.64,0.8218,2.5507,0.2906,0.2516,0.2458,1.5636,rough,14.0,1,5.159
1780,56.96,0.8218,2.5506,0.2906,0.2516,0.2458,1.5636,rough,14.0,1,5.159
1790,57.28,0.8219,2.5506,0.2906,0.2516,0.2457,1.5636,rough,14.0,1,5.159
1800,57.60,0.8219,2.5506,0.2906,0.2516,0.2457,1.5636,rough,14.0,1,5.159
1810,57.92,0.8220,2.5506,0.2906,0.2517,0.2457,1.5636,rough,14.0,1,5.159
1820,58.24,0.8220,2.5506,0.2906,0.2517,0.2457,1.5636,rough,14.0,1,5.159
1830,58.56,0.8221,2.5506,0.2906,0.2517,0.2457,1.5636,rough,14.0,1,5.159
1840,58.88,0.8221,2.5506,0.2905,0.2517,0.2456,1.5636,rough,14.0,1,5.159
1850,59.20,0.8222,2.5506,0.2905,0.2517,0.2456,1.5636,rough,14.0,1,5.159
1860,59.52,0.8222,2.5506,0.2905,0.2518,0.2456,1.5636,rough,14.0,1,5.159
1870,59.84,0.8223,2.5506,0.2905,0.2518,0.2456,1.5636,rough,14.0,1,5.159
1880,60.16,0.8223,2.5506,0.2905,0.2518,0.2456,1.5636,rough,14.0,1,5.159
1890,60.48,0.8224,2.5506,0.2905,0.2518,0.2455,1.5636,rough,14.0,1,5.159
1900,60.80,0.8224,2.5506,0.2905,0.2518,0.2455,1.5636,rough,14.0,1,5.159
1910,61.12,0.8225,2.5506,0.2905,0.2519,0.2455,1.5636,rough,14.0,1,5.159
1920,61.44,0.8225,2.5506,0.2905,0.2519,0.2455,1.5636,rough,14.0,1,5.159
1930,61.76,0.8226,2.5505,0.2905,0.2519,0.2455,1.5636,rough,14.0,1,5.159
1940,62.08,0.8226,2.5505,0.2905,0.2519,0.2455,1.5636,rough,14.0,1,5.159
1950,62.40,0.8226,2.5505,0.2905,0.2519,0.2454,1.5636,rough,14.0,1,5.159
1960,62.72,0.8227,2.5505,0.2904,0.2519,0.2454,1.5636,rough,14.0,1,5.159
1970,63.04,0.8227,2.5505,0.2904,0.2520,0.2454,1.5636,rough,14.0,1,5.160
1980,63.36,0.8228,2.5505,0.2904,0.2520,0.2454,1.5636,rough,14.0,1,5.160
1990,63.68,0.8228,2.5505,0.2904,0.2520,0.2454,1.5636,rough,14.0,1,5.160
2000,64.00,0.8229,2.5505,0.2904,0.2520,0.2453,1.5636,rough,14.0,1,5.160
2010,64.32,0.8229,2.5505,0.2904,0.2520,0.2453,1.5636,rough,14.0,1,5.160
2020,64.64,0.8229,2.5505,0.2904,0.2520,0.2453,1.5636,rough,14.0,1,5.160
2030,64.96,0.8230,2.5505,0.2904,0.2521,0.2453,1.5636,rough,14.0,1,5.160
2040,65.28,0.8230,2.5505,0.2904,0.2521,0.2453,1.5636,rough,14.0,1,5.160
2050,65.60,0.8231,2.5505,0.2904,0.2521,0.2453,1.5636,rough,14.0,1,5.160
2060,65.92,0.8231,2.5505,0.2904,0.2521,0.2452,1.5636,rough,14.0,1,5.160
2070,66.24,0.8231,2.5505,0.2904,0.2521,0.2452,1.5635,rough,14.0,1,5.160
2080,66.56,0.8232,2.5505,0.2904,0.2521,0.2452,1.5635,rough,14.0,1,5.160
2090,66.88,0.8232,2.5505,0.2903,0.2522,0.2452,1.5635,rough,14.0,1,5.160
2100,67.20,0.8233,2.5505,0.2903,0.2522,0.2452,1.5635,rough,14.0,1,5.160
2110,67.52,0.8233,2.5504,0.2903,0.2522,0.2452,1.5635,rough,14.0,1,5.160
2120,67.84,0.8233,2.5504,0.2903,0.2522,0.2451,1.5635,rough,14.0,1,5.160
2130,68.16,0.8234,2.5504,0.2903,0.2522,0.2451,1.5635,rough,14.0,1,5.160
2140,68.48,0.8234,2.5504,0.2903,0.2522,0.2451,1.5635,rough,14.0,1,5.160
2150,68.80,0.8234,2.5504,0.2903,0.2523,0.2451,1.5635,rough,14.0,1,5.160
2160,69.12,0.8235,2.5504,0.2903,0.2523,0.2451,1.5635,rough,14.0,1,5.160
2170,69.44,0.8235,2.5504,0.2903,0.2523,0.2451,1.5635,rough,14.0,1,5.160
2180,69.76,0.8236,2.5504,0.2903,0.2523,0.2451,1.5635,rough,14.0,1,5.160
2190,70.08,0.8236,2.5504,0.2903,0.2523,0.2450,1.5635,rough,14.0,1,5.160
2200,70.40,0.8236,2.5504,0.2903,0.2523,0.2450,1.5635,rough,14.0,1,5.160
2210,70.72,0.8237,2.5504,0.2903,0.2523,0.2450,1.5635,rough,14.0,1,5.160
2220,71.04,0.8237,2.5504,0.2903,0.2524,0.2450,1.5635,rough,14.0,1,5.160
2230,71.36,0.8237,2.5504,0.2903,0.2524,0.2450,1.5635,rough,14.0,1,5.160
2240,71.68,0.8238,2.5504,0.2902,0.2524,0.2450,1.5635,rough,14.0,1,5.160
2250,72.00,0.8238,2.5504,0.2902,0.2524,0.2450,1.5635,rough,14.0,1,5.160
2260,72.32,0.8238,2.5504,0.2902,0.2524,0.2449,1.5635,rough,14.0,1,5.160
2270,72.64,0.8239,2.5504,0.2902,0.2524,0.2449,1.5635,rough,14.0,1,5.160
2280,72.96,0.8239,2.5504,0.2902,0.2524,0.2449,1.5635,rough,14.0,1,5.160
2290,73.28,0.8239,2.5504,0.2902,0.2524,0.2449,1.5635,rough,14.0,1,5.160
2300,73.60,0.8239,2.5504,0.2902,0.2525,0.2449,1.5635,rough,14.0,1,5.160
2310,73.92,0.8240,2.5504,0.2902,0.2525,0.2449,1.5635,rough,14.0,1,5.160
2320,74.24,0.8240,2.5503,0.2902,0.2525,0.2449,1.5635,rough,14.0,2,5.160
2330,74.56,0.8240,2.5503,0.2902,0.2525,0.2449,1.5635,rough,14.0,2,5.058
2340,74.88,0.8241,2.5503,0.2902,0.2525,0.2448,1.5635,rough,14.0,2,5.058
2350,75.20,0.8241,2.5503,0.2902,0.2525,0.2448,1.5635,rough,14.0,2,5.058
2360,75.52,0.8241,2.5503,0.2902,0.2525,0.2448,1.5635,rough,14.0,2,5.058
2370,75.84,0.8242,2.5503,0.2902,0.2525,0.2448,1.5635,rough,14.0,2,5.058
2380,76.16,0.8242,2.5503,0.2902,0.2525,0.2448,1.5635,rough,14.0,2,5.058
2390,76.48,0.8242,2.5503,0.2902,0.2526,0.2448,1.5635,rough,14.0,2,5.058
2400,76.80,0.8243,2.5503,0.2902,0.2526,0.2448,1.5635,rough,14.0,2,5.058
2410,77.12,0.8243,2.5503,0.2902,0.2526,0.2448,1.5635,rough,14.0,2,5.058
2420,77.44,0.8243,2.5503,0.2901,0.2526,0.2448,1.5635,rough,14.0,2,5.058
2430,77.76,0.8243,2.5503,0.2901,0.2526,0.2447,1.5635,rough,14.0,2,5.058
2440,78.08,0.8244,2.5503,0.2901,0.2526,0.2447,1.5634,rough,14.0,2,5.058
2450,78.40,0.8244,2.5503,0.2901,0.2526,0.2447,1.5634,rough,14.0,2,5.058
2460,78.72,0.8244,2.5503,0.2901,0.2526,0.2447,1.5634,rough,14.0,2,5.058
2470,79.04,0.8245,2.5503,0.2901,0.2526,0.2447,1.5634,rough,14.0,2,5.058
2480,79.36,0.8245,2.5503,0.2901,0.2526,0.2447,1.5634,rough,14.0,2,5.058
2490,79.68,0.8245,2.5503,0.2901,0.2526,0.2447,1.5634,rough,14.0,2,5.058
2500,80.00,0.8245,2.5503,0.2901,0.2527,0.2447,1.5634,rough,14.0,2,5.058
2510,80.32,0.8246,2.5503,0.2901,0.2527,0.2447,1.5634,rough,14.0,2,5.058
2520,80.64,0.8246,2.5503,0.2901,0.2527,0.2447,1.5634,rough,14.0,2,5.058
2530,80.96,0.8246,2.5503,0.2901,0.2527,0.2446,1.5634,rough,14.0,2,5.058
2540,81.28,0.8247,2.5503,0.2901,0.2527,0.2446,1.5634,rough,14.0,2,5.057
2550,81.60,0.8247,2.5503,0.2901,0.2527,0.2446,1.5634,rough,14.0,2,5.057
2560,81.92,0.8247,2.5503,0.2901,0.2527,0.2446,1.5634,rough,14.0,2,5.057
2570,82.24,0.8248,2.5503,0.2901,0.2527,0.2446,1.5634,rough,14.0,2,5.057
2580,82.56,0.8248,2.5503,0.2900,0.2527,0.2446,1.5634,rough,14.0,2,5.057
2590,82.88,0.8248,2.5503,0.2900,0.2527,0.2446,1.5634,rough,14.0,2,5.057
2600,83.20,0.8248,2.5503,0.2900,0.2527,0.2446,1.5634,rough,14.0,2,5.057
2610,83.52,0.8249,2.5502,0.2900,0.2527,0.2446,1.5634,rough,14.0,2,5.057
2620,83.84,0.8249,2.5502,0.2900,0.2528,0.2446,1.5634,rough,14.0,2,5.057
2630,84.16,0.8249,2.5502,0.2900,0.2528,0.2445,1.5634,rough,14.0,2,5.057
2640,84.48,0.8250,2.5502,0.2900,0.2528,0.2445,1.5634,rough,14.0,2,5.057
2650,84.80,0.8250,2.5502,0.2900,0.2528,0.2445,1.5634,rough,14.0,2,5.057
2660,85.12,0.8250,2.5502,0.2900,0.2528,0.2445,1.5634,rough,14.0,2,5.057
2670,85.44,0.8250,2.5502,0.2900,0.2528,0.2445,1.5634,rough,14.0,2,5.057
2680,85.76,0.8251,2.5502,0.2900,0.2528,0.2445,1.5634,rough,14.0,2,5.057
2690,86.08,0.8251,2.5502,0.2900,0.2528,0.2445,1.5634,rough,14.0,2,5.057
2700,86.40,0.8251,2.5502,0.2900,0.2528,0.2445,1.5634,rough,14.0,2,5.057
2710,86.72,0.8252,2.5502,0.2900,0.2528,0.2445,1.5634,rough,14.0,2,5.057
2720,87.04,0.8252,2.5502,0.2900,0.2528,0.2445,1.5634,rough,14.0,2,5.057
2730,87.36,0.8252,2.5502,0.2900,0.2528,0.2445,1.5634,rough,14.0,2,5.057
2740,87.68,0.8252,2.5502,0.2900,0.2529,0.2444,1.5634,rough,14.0,2,5.057
2750,88.00,0.8253,2.5502,0.2899,0.2529,0.2444,1.5634,rough,14.0,2,5.057
2760,88.32,0.8253,2.5502,0.2899,0.2529,0.2444,1.5634,rough,14.0,2,5.057
2770,88.64,0.8253,2.5502,0.2899,0.2529,0.2444,1.5634,rough,14.0,2,5.057
2780,88.96,0.8254,2.5502,0.2899,0.2529,0.2444,1.5634,rough,14.0,2,5.057
2790,89.28,0.8254,2.5502,0.2899,0.2529,0.2444,1.5634,rough,14.0,2,5.057
2800,89.60,0.8254,2.5502,0.2899,0.2529,0.2444,1.5634,rough,14.0,2,5.057
2810,89.92,0.8254,2.5502,0.2899,0.2529,0.2444,1.5633,rough,14.0,2,5.057
