step,time_s,x,y,z,roll,pitch,yaw,terrain,speed,target_idx,dist_to_target
10,0.32,2.0613,0.4848,0.3119,0.1221,-0.0331,0.0327,rough,14.0,0,6.364
20,0.64,2.3518,0.5047,0.2735,0.0588,0.1440,0.0300,slope,18.0,0,6.077
30,0.96,2.8366,0.5541,0.1582,-0.0908,0.3080,0.0631,slope,18.0,0,5.596
40,1.28,3.3539,0.6249,-0.0041,-0.1768,0.2813,0.1482,slope,18.0,0,5.079
50,1.60,3.7806,0.6968,-0.0876,-0.0845,0.1424,0.1923,rough,14.0,0,4.649
60,1.92,4.1845,0.8012,-0.1452,-0.1234,0.1652,0.2558,rough,14.0,0,4.233
70,2.24,4.6560,0.9378,-0.3567,-0.0100,0.6305,0.3297,rough,14.0,0,3.742
80,2.56,5.0345,1.0657,-0.5713,0.0663,0.4107,0.5628,rough,14.0,0,3.342
90,2.88,5.2470,1.1289,-0.6329,0.2850,0.0425,1.0203,rough,14.0,0,3.121
100,3.20,5.3641,1.3532,-0.6505,0.1903,-0.0159,1.4185,rough,14.0,0,2.949
110,3.52,5.4178,1.5974,-0.6583,0.1058,-0.1518,1.8787,rough,14.0,0,2.849
120,3.84,5.3306,1.8484,-0.6137,0.1311,-0.1799,2.2995,rough,14.0,0,2.909
130,4.16,5.0615,2.0554,-0.6479,-0.1572,0.2376,2.3016,rough,14.0,0,3.172
140,4.48,4.9228,2.2456,-0.6915,-0.1164,0.2655,1.9253,rough,14.0,0,3.317
150,4.80,4.8526,2.5402,-0.7259,-0.0308,0.1318,1.4658,rough,14.0,0,3.419
160,5.12,4.9256,2.9053,-0.7629,0.0257,0.0372,1.2964,rough,14.0,0,3.421
170,5.44,5.1337,3.3168,-0.9207,0.4821,0.4383,1.2878,rough,14.0,0,3.355
180,5.76,5.3215,3.7307,-1.1065,0.5300,0.3070,1.4018,rough,14.0,0,3.370
190,6.08,5.4438,4.0161,-1.1524,0.3924,-0.0311,1.0611,rough,14.0,0,3.422
200,6.40,5.6157,4.3078,-1.1614,0.1875,-0.1754,0.8897,rough,14.0,0,3.467
210,6.72,5.8681,4.5613,-1.1083,0.3744,-0.1889,0.8977,rough,14.0,0,3.461
220,7.04,6.1125,4.8065,-1.0934,0.4377,-0.0606,0.9178,rough,14.0,0,3.491
230,7.36,6.2622,4.9641,-1.0894,0.3527,-0.0150,0.7451,rough,14.0,0,3.531
240,7.68,6.4050,5.0137,-1.1245,0.2750,0.0716,0.3839,rough,14.0,0,3.496
250,8.00,6.6145,4.9692,-1.1633,0.3467,0.2380,-0.0136,rough,14.0,0,3.352
260,8.32,6.7667,4.8760,-1.1759,0.4881,0.0374,-0.0796,rough,14.0,0,3.198
270,8.64,6.8910,4.8687,-1.1695,0.5248,-0.4253,-0.3177,rough,14.0,0,3.136
280,8.96,7.0866,4.7774,-1.0953,0.5561,-0.3548,-0.2763,rough,14.0,0,2.973
290,9.28,7.2876,4.6871,-1.0009,0.5386,-0.2748,-0.5951,rough,14.0,0,2.816
300,9.60,7.2929,4.5643,-1.0732,0.6170,0.1142,-0.9289,rough,14.0,0,2.699
310,9.92,7.2090,4.5211,-1.1782,0.6618,-0.0021,-0.7502,rough,14.0,0,2.690
320,10.24,7.1239,4.4490,-1.2268,0.6920,-0.1058,-0.7515,rough,14.0,0,2.657
330,10.56,7.0926,4.3692,-1.2477,0.5987,-0.1801,-0.6475,rough,14.0,0,2.599
340,10.88,7.1102,4.3145,-1.2517,0.3801,0.0014,-0.3682,rough,14.0,0,2.542
350,11.20,7.1209,4.2765,-1.2634,0.3019,0.1182,-0.2645,rough,14.0,0,2.503
360,11.52,7.1317,4.3106,-1.2531,0.0932,-0.2474,-0.2694,rough,14.0,0,2.529
370,11.84,7.1450,4.2938,-1.2296,0.1521,-0.2421,-0.0341,rough,14.0,0,2.508
380,12.16,7.1576,4.2794,-1.2430,0.1904,-0.0767,-0.0217,rough,14.0,0,2.490
390,12.48,7.1586,4.2792,-1.2426,0.1921,-0.0755,-0.0122,rough,14.0,0,2.489
400,12.80,7.1580,4.2802,-1.2432,0.1947,-0.0693,-0.0104,rough,14.0,0,2.490
410,13.12,7.1583,4.2814,-1.2424,0.1955,-0.0747,-0.0023,rough,14.0,0,2.491
420,13.44,7.1579,4.2804,-1.2421,0.1967,-0.0756,-0.0127,rough,14.0,0,2.490
430,13.76,7.1580,4.2810,-1.2431,0.1968,-0.0680,-0.0106,rough,14.0,0,2.491
440,14.08,7.1581,4.2802,-1.2421,0.1971,-0.0757,-0.0148,rough,14.0,0,2.490
450,14.40,7.1581,4.2807,-1.2424,0.1973,-0.0733,-0.0130,rough,14.0,0,2.491
460,14.72,7.1588,4.2801,-1.2454,0.1960,-0.0528,-0.0144,rough,14.0,0,2.490
470,15.04,7.1582,4.2805,-1.2422,0.1974,-0.0745,-0.0134,rough,14.0,0,2.490
480,15.36,7.1577,4.2810,-1.2417,0.1971,-0.0778,-0.0105,rough,14.0,0,2.491
490,15.68,7.1588,4.2805,-1.2453,0.1966,-0.0533,-0.0133,rough,14.0,0,2.490
500,16.00,7.1582,4.2807,-1.2424,0.1974,-0.0732,-0.0131,rough,14.0,0,2.490
510,16.32,7.1581,4.2802,-1.2433,0.1966,-0.0674,-0.0147,rough,14.0,0,2.490
520,16.64,7.1589,4.2807,-1.2453,0.1968,-0.0531,-0.0128,rough,14.0,0,2.490
530,16.96,7.1579,4.2810,-1.2414,0.1969,-0.0803,-0.0096,rough,14.0,0,2.491
540,17.28,7.1582,4.2805,-1.2433,0.1970,-0.0671,-0.0134,rough,14.0,0,2.490
550,17.60,7.1589,4.2811,-1.2456,0.1967,-0.0506,-0.0108,rough,14.0,0,2.491
560,17.92,7.1579,4.2802,-1.2421,0.1969,-0.0754,-0.0148,rough,14.0,0,2.490
570,18.24,7.1583,4.2807,-1.2434,0.1971,-0.0663,-0.0130,rough,14.0,0,2.490
580,18.56,7.1584,4.2816,-1.2424,0.1966,-0.0737,-0.0035,rough,14.0,0,2.491
590,18.88,7.1580,4.2805,-1.2422,0.1973,-0.0745,-0.0134,rough,14.0,0,2.490
600,19.20,7.1581,4.2811,-1.2432,0.1970,-0.0673,-0.0108,rough,14.0,0,2.491
610,19.52,7.1581,4.2802,-1.2421,0.1972,-0.0754,-0.0149,rough,14.0,0,2.490
620,19.84,7.1581,4.2807,-1.2424,0.1973,-0.0732,-0.0130,rough,14.0,0,2.491
630,20.16,7.1588,4.2802,-1.2454,0.1960,-0.0528,-0.0144,rough,14.0,0,2.490
640,20.48,7.1582,4.2805,-1.2422,0.1974,-0.0745,-0.0135,rough,14.0,0,2.490
650,20.80,7.1577,4.2810,-1.2417,0.1971,-0.0778,-0.0105,rough,14.0,0,2.491
660,21.12,7.1588,4.2805,-1.2453,0.1966,-0.0533,-0.0133,rough,14.0,0,2.490
670,21.44,7.1582,4.2807,-1.2424,0.1974,-0.0732,-0.0131,rough,14.0,0,2.490
680,21.76,7.1581,4.2802,-1.2433,0.1966,-0.0674,-0.0147,rough,14.0,0,2.490
690,22.08,7.1589,4.2807,-1.2453,0.1968,-0.0531,-0.0128,rough,14.0,0,2.490
700,22.40,7.1579,4.2810,-1.2414,0.1969,-0.0803,-0.0096,rough,14.0,0,2.491
710,22.72,7.1582,4.2805,-1.2433,0.1970,-0.0671,-0.0134,rough,14.0,0,2.490
720,23.04,7.1589,4.2811,-1.2456,0.1967,-0.0506,-0.0108,rough,14.0,0,2.491
730,23.36,7.1579,4.2802,-1.2421,0.1969,-0.0754,-0.0148,rough,14.0,0,2.490
740,23.68,7.1583,4.2807,-1.2434,0.1971,-0.0663,-0.0130,rough,14.0,0,2.490
750,24.00,7.1584,4.2816,-1.2424,0.1966,-0.0737,-0.0035,rough,14.0,0,2.491
760,24.32,7.1580,4.2805,-1.2422,0.1973,-0.0745,-0.0134,rough,14.0,0,2.490
770,24.64,7.1581,4.2811,-1.2432,0.1970,-0.0673,-0.0108,rough,14.0,0,2.491
780,24.96,7.1581,4.2802,-1.2421,0.1972,-0.0754,-0.0149,rough,14.0,0,2.490
790,25.28,7.1581,4.2807,-1.2424,0.1973,-0.0732,-0.0130,rough,14.0,0,2.491
800,25.60,7.1588,4.2802,-1.2454,0.1960,-0.0528,-0.0144,rough,14.0,0,2.490
810,25.92,7.1582,4.2805,-1.2422,0.1974,-0.0745,-0.0134,rough,14.0,0,2.490
820,26.24,7.1577,4.2810,-1.2417,0.1971,-0.0778,-0.0105,rough,14.0,0,2.491
830,26.56,7.1588,4.2805,-1.2453,0.1966,-0.0533,-0.0133,rough,14.0,0,2.490
840,26.88,7.1582,4.2807,-1.2424,0.1974,-0.0732,-0.0131,rough,14.0,0,2.490
850,27.20,7.1581,4.2802,-1.2433,0.1966,-0.0674,-0.0147,rough,14.0,0,2.490
860,27.52,7.1589,4.2807,-1.2453,0.1968,-0.0531,-0.0128,rough,14.0,0,2.490
870,27.84,7.1579,4.2810,-1.2414,0.1969,-0.0803,-0.0096,rough,14.0,0,2.491
880,28.16,7.1582,4.2805,-1.2433,0.1970,-0.0671,-0.0134,rough,14.0,0,2.490
890,28.48,7.1589,4.2811,-1.2456,0.1967,-0.0506,-0.0108,rough,14.0,0,2.491
900,28.80,7.1579,4.2802,-1.2421,0.1969,-0.0754,-0.0148,rough,14.0,0,2.490
910,29.12,7.1583,4.2807,-1.2434,0.1971,-0.0662,-0.0130,rough,14.0,0,2.490
920,29.44,7.1584,4.2816,-1.2424,0.1966,-0.0737,-0.0035,rough,14.0,0,2.491
930,29.76,7.1580,4.2805,-1.2422,0.1973,-0.0745,-0.0134,rough,14.0,0,2.490
940,30.08,7.1581,4.2811,-1.2432,0.1970,-0.0673,-0.0108,rough,14.0,0,2.491
950,30.40,7.1581,4.2802,-1.2421,0.1972,-0.0754,-0.0149,rough,14.0,0,2.490
960,30.72,7.1581,4.2807,-1.2424,0.1973,-0.0732,-0.0130,rough,14.0,0,2.491
970,31.04,7.1588,4.2802,-1.2454,0.1960,-0.0528,-0.0144,rough,14.0,0,2.490
980,31.36,7.1582,4.2805,-1.2422,0.1974,-0.0745,-0.0134,rough,14.0,0,2.490
990,31.68,7.1577,4.2810,-1.2417,0.1971,-0.0778,-0.0105,rough,14.0,0,2.491
1000,32.00,7.1588,4.2805,-1.2453,0.1966,-0.0533,-0.0133,rough,14.0,0,2.490
1010,32.32,7.1582,4.2807,-1.2424,0.1974,-0.0732,-0.0131,rough,14.0,0,2.490
1020,32.64,7.1581,4.2802,-1.2433,0.1966,-0.0674,-0.0147,rough,14.0,0,2.490
1030,32.96,7.1589,4.2807,-1.2453,0.1968,-0.0531,-0.0128,rough,14.0,0,2.490
1040,33.28,7.1579,4.2810,-1.2414,0.1969,-0.0803,-0.0096,rough,14.0,0,2.491
1050,33.60,7.1582,4.2805,-1.2433,0.1970,-0.0671,-0.0134,rough,14.0,0,2.490
1060,33.92,7.1589,4.2811,-1.2456,0.1967,-0.0506,-0.0108,rough,14.0,0,2.491
1070,34.24,7.1579,4.2802,-1.2421,0.1969,-0.0754,-0.0148,rough,14.0,0,2.490
1080,34.56,7.1583,4.2807,-1.2434,0.1971,-0.0662,-0.0130,rough,14.0,0,2.490
1090,34.88,7.1584,4.2816,-1.2424,0.1966,-0.0737,-0.0035,rough,14.0,0,2.491
1100,35.20,7.1580,4.2805,-1.2422,0.1973,-0.0745,-0.0134,rough,14.0,0,2.490
1110,35.52,7.1581,4.2811,-1.2432,0.1970,-0.0673,-0.0108,rough,14.0,0,2.491
1120,35.84,7.1581,4.2802,-1.2421,0.1972,-0.0754,-0.0149,rough,14.0,0,2.490
1130,36.16,7.1581,4.2807,-1.2424,0.1973,-0.0732,-0.0130,rough,14.0,0,2.491
1140,36.48,7.1588,4.2802,-1.2454,0.1960,-0.0528,-0.0144,rough,14.0,0,2.490
1150,36.80,7.1582,4.2805,-1.2422,0.1974,-0.0745,-0.0134,rough,14.0,0,2.490
1160,37.12,7.1577,4.2810,-1.2417,0.1971,-0.0778,-0.0105,rough,14.0,0,2.491
1170,37.44,7.1588,4.2805,-1.2453,0.1966,-0.0533,-0.0133,rough,14.0,0,2.490
1180,37.76,7.1582,4.2807,-1.2424,0.1974,-0.0732,-0.0131,rough,14.0,0,2.490
1190,38.08,7.1581,4.2802,-1.2433,0.1966,-0.0674,-0.0147,rough,14.0,0,2.490
1200,38.40,7.1589,4.2807,-1.2453,0.1968,-0.0531,-0.0128,rough,14.0,0,2.490
1210,38.72,7.1579,4.2810,-1.2414,0.1969,-0.0803,-0.0096,rough,14.0,0,2.491
1220,39.04,7.1582,4.2805,-1.2433,0.1970,-0.0671,-0.0134,rough,14.0,0,2.490
1230,39.36,7.1589,4.2811,-1.2456,0.1967,-0.0506,-0.0108,rough,14.0,0,2.491
1240,39.68,7.1579,4.2802,-1.2421,0.1969,-0.0754,-0.0148,rough,14.0,0,2.490
1250,40.00,7.1583,4.2807,-1.2434,0.1971,-0.0662,-0.0130,rough,14.0,0,2.490
1260,40.32,7.1584,4.2816,-1.2424,0.1966,-0.0737,-0.0035,rough,14.0,0,2.491
1270,40.64,7.1580,4.2805,-1.2422,0.1973,-0.0745,-0.0134,rough,14.0,0,2.490
1280,40.96,7.1581,4.2811,-1.2432,0.1970,-0.0673,-0.0108,rough,14.0,0,2.491
1290,41.28,7.1581,4.2802,-1.2421,0.1972,-0.0754,-0.0149,rough,14.0,0,2.490
1300,41.60,7.1581,4.2807,-1.2424,0.1973,-0.0732,-0.0130,rough,14.0,0,2.491
1310,41.92,7.1588,4.2802,-1.2454,0.1960,-0.0528,-0.0144,rough,14.0,0,2.490
1320,42.24,7.1582,4.2805,-1.2422,0.1974,-0.0745,-0.0134,rough,14.0,0,2.490
1330,42.56,7.1577,4.2810,-1.2417,0.1971,-0.0778,-0.0105,rough,14.0,0,2.491
1340,42.88,7.1588,4.2805,-1.2453,0.1966,-0.0533,-0.0133,rough,14.0,0,2.490
1350,43.20,7.1578,4.2808,-1.2418,0.1972,-0.0772,-0.0120,rough,14.0,1,3.018
1360,43.52,7.1409,4.2643,-1.2533,0.1993,0.0040,-0.1405,rough,14.0,1,3.011
1370,43.84,7.0358,4.2825,-1.2693,0.1310,-0.0194,-0.5389,rough,14.0,1,2.911
1380,44.16,6.9584,4.3353,-1.2552,0.0992,0.0911,-1.0053,rough,14.0,1,2.818
1390,44.48,6.9077,4.4608,-1.2377,0.3222,0.0459,-1.3699,rough,14.0,1,2.712
1400,44.80,6.9047,4.4710,-1.2325,0.4001,0.0065,-1.5110,rough,14.0,1,2.705
1410,45.12,6.9713,4.3105,-1.2578,0.1850,-0.0430,-1.6651,rough,14.0,1,2.841
1420,45.44,7.0212,4.0260,-1.2866,-0.2378,0.1299,-1.9593,rough,14.0,1,3.036
1430,45.76,6.9690,3.8334,-1.3021,-0.2550,-0.2163,-2.2705,rough,14.0,1,3.108
1440,46.08,6.7400,3.6329,-1.2468,-0.1644,-0.1523,-2.4382,rough,14.0,1,3.066
1450,46.40,6.4543,3.4189,-1.2142,-0.1058,-0.0541,-2.5585,rough,14.0,1,3.027
1460,46.72,6.2252,3.2712,-1.1800,-0.0644,-0.2164,-2.5598,rough,14.0,1,3.007
1470,47.04,5.9863,3.1657,-1.1633,0.1839,-0.2432,-2.5794,rough,14.0,1,2.969
1480,47.36,5.9130,3.1303,-1.1353,0.3111,-0.4074,-2.7184,rough,14.0,1,2.965
1490,47.68,5.9245,3.0783,-1.1373,0.2301,-0.2771,-2.8763,rough,14.0,1,3.016
1500,48.00,5.8488,3.0728,-1.1100,0.3269,-0.3691,-2.9858,rough,14.0,1,2.987
1510,48.32,5.6438,3.0779,-1.0392,0.3538,-0.4800,3.1262,rough,14.0,1,2.897
1520,48.64,5.3266,3.0920,-0.9084,0.3866,-0.3110,3.1349,rough,14.0,1,2.776
1530,48.96,5.1087,3.0960,-0.8232,0.4285,-0.4714,3.0568,rough,14.0,1,2.716
1540,49.28,4.7552,3.0725,-0.7681,0.0794,-0.1954,2.9508,rough,14.0,1,2.686
1550,49.60,4.4377,3.1238,-0.7416,-0.0036,-0.1581,2.8853,rough,14.0,1,2.625
1560,49.92,4.2762,3.1883,-0.7046,-0.0271,-0.3121,2.6982,rough,14.0,1,2.571
1570,50.24,4.0289,3.3878,-0.6819,0.1395,-0.0343,2.4703,rough,14.0,1,2.411
1580,50.56,3.7708,3.6571,-0.7187,0.1755,0.1501,2.2665,slope,18.0,1,2.221
1590,50.88,3.4974,4.0249,-0.8336,0.1765,0.2520,2.2059,slope,18.0,1,2.004
1600,51.20,3.2853,4.3449,-0.9107,0.1859,0.1637,2.1280,rough,14.0,1,1.869
1610,51.52,3.1500,4.5944,-0.9340,0.2162,0.0569,2.0557,rough,14.0,1,1.791
1620,51.84,3.0330,4.8504,-0.9494,0.2027,0.0205,2.0037,rough,14.0,1,1.737
1630,52.16,2.9005,5.1588,-0.9670,0.2057,0.1059,1.9975,rough,14.0,1,1.724
1640,52.48,2.7289,5.4936,-1.0637,-0.0116,0.3143,1.9210,rough,14.0,1,1.810
1650,52.80,2.6221,5.8192,-1.1686,-0.0710,0.2029,1.8385,rough,14.0,1,1.900
1660,53.12,2.6095,6.1597,-1.2442,0.1726,0.2948,1.6009,rough,14.0,1,1.955
1670,53.44,2.6231,6.4373,-1.2844,0.1461,-0.0168,1.3936,rough,14.0,1,2.019
1680,53.76,2.6642,6.6807,-1.2601,0.2156,-0.1933,1.1164,rough,14.0,1,2.078
1690,54.08,2.7479,6.8560,-1.2064,0.3104,-0.4490,0.7783,rough,14.0,1,2.091
1700,54.40,2.8755,7.0146,-1.1190,0.3696,-0.5429,0.4569,rough,14.0,1,2.076
1710,54.72,3.0396,7.1366,-1.0269,0.2883,-0.5050,0.3108,rough,14.0,1,2.030
1720,55.04,3.3143,7.1833,-0.9462,0.3506,-0.1657,0.0623,rough,14.0,1,1.875
1730,55.36,3.5144,7.1910,-0.9009,0.2720,-0.2773,-0.0141,rough,14.0,1,1.759
1740,55.68,3.7771,7.2114,-0.8675,0.1418,-0.2480,-0.1573,rough,14.0,1,1.641
1750,56.00,4.0972,7.1678,-0.8484,0.0284,-0.0338,-0.3366,rough,14.0,1,1.482
1760,56.32,4.2700,7.0865,-0.8003,0.0614,-0.3013,-0.4328,rough,14.0,1,1.362
1770,56.64,4.4792,6.9262,-0.7928,0.2746,-0.0585,-0.4863,rough,14.0,1,1.179
1780,56.96,4.6640,6.7909,-0.8038,0.3166,0.0497,-0.5299,rough,14.0,1,1.053
1790,57.28,4.8317,6.6491,-0.8340,0.2979,0.2088,-0.6753,rough,14.0,2,12.809
1800,57.60,5.0562,6.3968,-0.8905,0.2878,0.0793,-0.8853,slope,18.0,2,12.935
1810,57.92,5.2915,6.0261,-0.8917,0.2569,-0.1139,-1.0863,rough,14.0,2,13.044
1820,58.24,5.5117,5.6365,-0.8773,0.1783,0.0066,-1.0717,rough,14.0,2,13.146
1830,58.56,5.7265,5.2533,-0.9058,0.1916,0.1490,-1.0054,rough,14.0,2,13.259
1840,58.88,6.0284,4.8937,-1.0536,-0.1390,0.4474,-0.9088,rough,14.0,2,13.476
1850,59.20,6.2590,4.5793,-1.1704,-0.0566,0.1527,-0.9612,rough,14.0,2,13.643
1860,59.52,6.5049,4.2502,-1.2165,-0.1764,0.0809,-1.0115,rough,14.0,2,13.832
1870,59.84,6.7269,3.9066,-1.2434,-0.1975,-0.0315,-1.0191,rough,14.0,2,14.004
1880,60.16,7.0240,3.4973,-1.3246,-0.4148,0.3243,-1.1163,rough,14.0,2,14.255
1890,60.48,7.2506,3.1443,-1.4671,-0.3364,0.2814,-1.0502,rough,14.0,2,14.453
1900,60.80,7.4194,2.9033,-1.5145,-0.2669,0.0413,-0.9151,rough,14.0,2,14.607
1910,61.12,7.5522,2.7545,-1.5106,-0.2768,-0.0763,-0.9602,rough,14.0,2,14.733
1920,61.44,7.7254,2.5084,-1.4536,-0.2661,-0.3252,-0.9786,rough,14.0,2,14.899
1930,61.76,7.9282,2.1892,-1.3499,-0.1982,-0.2499,-1.0057,rough,14.0,2,15.098
1940,62.08,8.1312,1.9092,-1.2892,-0.2201,-0.1294,-1.0340,rough,14.0,2,15.303
1950,62.40,8.2973,1.6605,-1.2667,-0.2960,-0.1731,-1.0622,rough,14.0,2,15.475
1960,62.72,8.4258,1.4512,-1.1965,-0.3158,-0.3616,-1.0800,rough,14.0,2,15.612
1970,63.04,8.5028,1.2379,-1.1189,-0.1235,-0.5164,-1.1577,rough,14.0,2,15.700
1980,63.36,8.5680,1.0419,-1.0148,-0.0237,-0.5517,-1.1945,rough,14.0,2,15.778
1990,63.68,8.6330,0.9055,-0.8976,-0.0191,-0.6994,-1.2201,rough,14.0,2,15.853
2000,64.00,8.6975,0.7670,-0.7831,-0.0267,-0.7748,-1.2932,rough,14.0,2,15.929
2010,64.32,8.7519,0.6435,-0.6895,-0.0912,-0.6962,-1.2999,rough,14.0,2,15.995
2020,64.64,8.8071,0.5045,-0.5884,-0.0806,-0.5862,-1.3929,rough,14.0,2,16.064
2030,64.96,8.8310,0.3985,-0.4918,-0.0592,-0.7047,-1.4124,rough,14.0,2,16.099
2040,65.28,8.8530,0.2897,-0.4171,-0.0561,-0.7450,-1.4360,rough,14.0,2,16.133
2050,65.60,8.8915,0.1564,-0.3149,-0.1274,-0.6822,-1.4497,rough,14.0,2,16.187
2060,65.92,8.9158,0.0143,-0.2102,-0.1438,-0.6136,-1.4823,rough,14.0,2,16.230
2070,66.24,8.9336,-0.1014,-0.1364,-0.1968,-0.6161,-1.4637,rough,14.0,2,16.263
2080,66.56,8.9590,-0.2159,-0.0738,-0.2538,-0.6264,-1.4521,rough,14.0,2,16.304
2090,66.88,8.9789,-0.3287,-0.0032,-0.2770,-0.6215,-1.4583,rough,14.0,2,16.341
2100,67.20,8.9941,-0.4263,0.0744,-0.2577,-0.6429,-1.4714,rough,14.0,2,16.371
2110,67.52,9.0099,-0.5281,0.1400,-0.2782,-0.6319,-1.4813,rough,14.0,2,16.403
2120,67.84,9.0251,-0.6301,0.1979,-0.2917,-0.5965,-1.4986,rough,14.0,2,16.435
2130,68.16,9.0447,-0.7395,0.2671,-0.3500,-0.6151,-1.4920,rough,14.0,2,16.474
2140,68.48,9.0588,-0.8296,0.3244,-0.3258,-0.6457,-1.4817,rough,14.0,2,16.504
2150,68.80,9.0782,-0.9151,0.3910,-0.3785,-0.6567,-1.4382,rough,14.0,2,16.538
2160,69.12,9.0946,-1.0110,0.4603,-0.3893,-0.6441,-1.3945,rough,14.0,2,16.573
2170,69.44,9.1186,-1.0958,0.5087,-0.3918,-0.5854,-1.3655,rough,14.0,2,16.613
2180,69.76,9.1496,-1.1635,0.5591,-0.4448,-0.5879,-1.2552,rough,14.0,2,16.657
2190,70.08,9.1974,-1.2004,0.5829,-0.5465,-0.5604,-1.0418,rough,14.0,2,16.711
2200,70.40,9.2765,-1.2157,0.5827,-0.6245,-0.5450,-0.8307,rough,14.0,2,16.791
2210,70.72,9.3705,-1.2280,0.5732,-0.6330,-0.5185,-0.6935,rough,14.0,2,16.886
2220,71.04,9.4281,-1.2248,0.5592,-0.6304,-0.4415,-0.5323,rough,14.0,2,16.942
2230,71.36,9.4514,-1.2217,0.5495,-0.6331,-0.3859,-0.4445,rough,14.0,2,16.964
2240,71.68,9.4701,-1.2416,0.5656,-0.5963,-0.4547,-0.5239,rough,14.0,2,16.986
2250,72.00,9.5308,-1.2505,0.5717,-0.4706,-0.5460,-0.7302,rough,14.0,2,17.047
2260,72.32,9.5747,-1.2529,0.5766,-0.3616,-0.6235,-0.9179,rough,14.0,2,17.091
2270,72.64,9.6054,-1.2653,0.5885,-0.2629,-0.6730,-1.0769,rough,14.0,2,17.124
2280,72.96,9.6279,-1.2769,0.5993,-0.1832,-0.6966,-1.2079,rough,14.0,2,17.148
2290,73.28,9.6436,-1.2851,0.6068,-0.1200,-0.7086,-1.3095,rough,14.0,2,17.165
2300,73.60,9.6543,-1.2901,0.6116,-0.0715,-0.7142,-1.3858,rough,14.0,2,17.176
2310,73.92,9.6614,-1.2883,0.6104,-0.0346,-0.7165,-1.4421,rough,14.0,2,17.183
2320,74.24,9.6663,-1.2777,0.6016,-0.0079,-0.7172,-1.4823,rough,14.0,2,17.186
2330,74.56,9.6697,-1.2724,0.5973,0.0107,-0.7171,-1.5107,rough,14.0,2,17.188
2340,74.88,9.6720,-1.2716,0.5967,0.0235,-0.7169,-1.5305,rough,14.0,2,17.190
2350,75.20,9.6736,-1.2723,0.5974,0.0323,-0.7166,-1.5441,rough,14.0,2,17.192
2360,75.52,9.6747,-1.2715,0.5967,0.0383,-0.7163,-1.5533,rough,14.0,2,17.193
2370,75.84,9.6754,-1.2703,0.5957,0.0427,-0.7161,-1.5598,rough,14.0,2,17.193
2380,76.16,9.6759,-1.2702,0.5957,0.0456,-0.7160,-1.5642,rough,14.0,2,17.194
2390,76.48,9.6763,-1.2701,0.5956,0.0475,-0.7159,-1.5673,rough,14.0,2,17.194
2400,76.80,9.6765,-1.2699,0.5955,0.0489,-0.7158,-1.5693,rough,14.0,2,17.194
2410,77.12,9.6766,-1.2697,0.5953,0.0498,-0.7157,-1.5707,rough,14.0,2,17.194
2420,77.44,9.6767,-1.2694,0.5950,0.0505,-0.7157,-1.5717,rough,14.0,2,17.194
2430,77.76,9.6768,-1.2691,0.5948,0.0509,-0.7157,-1.5724,rough,14.0,2,17.194
2440,78.08,9.6769,-1.2688,0.5945,0.0512,-0.7157,-1.5728,rough,14.0,2,17.194
2450,78.40,9.6769,-1.2684,0.5943,0.0515,-0.7156,-1.5731,rough,14.0,2,17.194
2460,78.72,9.6769,-1.2681,0.5940,0.0516,-0.7156,-1.5733,rough,14.0,2,17.194
2470,79.04,9.6769,-1.2678,0.5937,0.0518,-0.7156,-1.5735,rough,14.0,2,17.194
2480,79.36,9.6769,-1.2675,0.5934,0.0519,-0.7156,-1.5736,rough,14.0,2,17.194
2490,79.68,9.6769,-1.2671,0.5931,0.0519,-0.7156,-1.5736,rough,14.0,2,17.194
2500,80.00,9.6770,-1.2668,0.5928,0.0517,-0.7156,-1.5737,rough,14.0,2,17.194
2510,80.32,9.6770,-1.2665,0.5925,0.0517,-0.7156,-1.5738,rough,14.0,2,17.194
2520,80.64,9.6769,-1.2662,0.5922,0.0518,-0.7156,-1.5738,rough,14.0,2,17.194
2530,80.96,9.6769,-1.2658,0.5920,0.0519,-0.7156,-1.5738,rough,14.0,2,17.194
2540,81.28,9.6769,-1.2655,0.5917,0.0519,-0.7156,-1.5738,rough,14.0,2,17.194
2550,81.60,9.6769,-1.2652,0.5914,0.0520,-0.7156,-1.5738,rough,14.0,2,17.194
2560,81.92,9.6769,-1.2648,0.5911,0.0520,-0.7156,-1.5738,rough,14.0,2,17.193
2570,82.24,9.6769,-1.2645,0.5909,0.0521,-0.7156,-1.5738,rough,14.0,2,17.193
2580,82.56,9.6769,-1.2642,0.5906,0.0522,-0.7156,-1.5738,rough,14.0,2,17.193
2590,82.88,9.6768,-1.2639,0.5903,0.0522,-0.7156,-1.5738,rough,14.0,2,17.193
2600,83.20,9.6768,-1.2636,0.5901,0.0523,-0.7156,-1.5738,rough,14.0,2,17.193
2610,83.52,9.6768,-1.2632,0.5898,0.0523,-0.7156,-1.5738,rough,14.0,2,17.193
2620,83.84,9.6768,-1.2629,0.5895,0.0524,-0.7156,-1.5738,rough,14.0,2,17.193
2630,84.16,9.6768,-1.2626,0.5893,0.0524,-0.7156,-1.5739,rough,14.0,2,17.193
2640,84.48,9.6768,-1.2623,0.5890,0.0525,-0.7156,-1.5739,rough,14.0,2,17.193
2650,84.80,9.6768,-1.2620,0.5888,0.0525,-0.7156,-1.5739,rough,14.0,2,17.193
2660,85.12,9.6767,-1.2617,0.5885,0.0526,-0.7156,-1.5739,rough,14.0,2,17.193
2670,85.44,9.6767,-1.2614,0.5883,0.0526,-0.7156,-1.5739,rough,14.0,2,17.193
2680,85.76,9.6767,-1.2611,0.5880,0.0527,-0.7156,-1.5739,rough,14.0,2,17.193
2690,86.08,9.6767,-1.2608,0.5878,0.0527,-0.7156,-1.5739,rough,14.0,2,17.192
2700,86.40,9.6767,-1.2605,0.5875,0.0528,-0.7156,-1.5739,rough,14.0,2,17.192
2710,86.72,9.6767,-1.2602,0.5873,0.0528,-0.7156,-1.5739,rough,14.0,2,17.192
2720,87.04,9.6767,-1.2599,0.5870,0.0529,-0.7155,-1.5739,rough,14.0,2,17.192
2730,87.36,9.6766,-1.2596,0.5868,0.0529,-0.7155,-1.5739,rough,14.0,2,17.192
2740,87.68,9.6766,-1.2593,0.5866,0.0529,-0.7155,-1.5739,rough,14.0,2,17.192
2750,88.00,9.6766,-1.2590,0.5863,0.0530,-0.7155,-1.5739,rough,14.0,2,17.192
2760,88.32,9.6766,-1.2588,0.5861,0.0530,-0.7155,-1.5739,rough,14.0,2,17.192
2770,88.64,9.6766,-1.2585,0.5859,0.0530,-0.7154,-1.5739,rough,14.0,2,17.192
2780,88.96,9.6766,-1.2582,0.5856,0.0530,-0.7154,-1.5739,rough,14.0,2,17.192
2790,89.28,9.6766,-1.2579,0.5854,0.0531,-0.7154,-1.5739,rough,14.0,2,17.192
2800,89.60,9.6766,-1.2577,0.5852,0.0531,-0.7153,-1.5739,rough,14.0,2,17.192
2810,89.92,9.6766,-1.2574,0.5850,0.0531,-0.7153,-1.5739,rough,14.0,2,17.192
