step,time_s,x,y,z,roll,pitch,yaw,terrain,speed,target_idx,dist_to_target
10,0.32,-0.1324,1.4505,0.1832,0.0003,-0.0222,0.0044,rough,14.0,0,4.147
20,0.64,0.1303,1.4514,0.1796,-0.0007,0.0013,0.3681,flat,18.0,0,4.220
30,0.96,0.4376,1.6089,0.1799,-0.0001,-0.0001,0.7280,flat,18.0,0,4.179
40,1.28,0.7159,1.9252,0.1799,-0.0000,-0.0000,1.0242,flat,18.0,0,4.013
50,1.60,0.9302,2.3470,0.1799,0.0000,-0.0000,1.3184,flat,18.0,0,3.763
60,1.92,1.0300,2.8390,0.1799,0.0001,-0.0000,1.6006,flat,18.0,0,3.430
70,2.24,0.9901,3.3562,0.1799,0.0001,-0.0000,1.8365,flat,18.0,0,3.024
80,2.56,0.8274,3.8579,0.1799,0.0001,-0.0000,2.0226,flat,18.0,0,2.570
90,2.88,0.5718,4.3236,0.1799,0.0001,-0.0000,2.1774,flat,18.0,0,2.089
100,3.20,0.2437,4.7473,0.1799,0.0002,0.0000,2.3097,flat,18.0,0,1.593
110,3.52,-0.1376,5.1148,0.1799,0.0000,0.0000,2.4684,flat,18.0,0,1.099
120,3.84,-0.5630,5.4092,0.1799,0.0005,-0.0000,2.5702,flat,18.0,1,2.013
130,4.16,-0.9585,5.7064,0.1787,-0.0064,0.0005,2.3888,rough,14.0,1,1.665
140,4.48,-1.2484,6.0154,0.1797,-0.0008,-0.0004,2.2362,flat,18.0,1,1.374
150,4.80,-1.5327,6.4458,0.1799,-0.0000,-0.0000,1.9612,flat,18.0,1,1.057
160,5.12,-1.6933,6.9167,0.1799,0.0000,0.0000,1.5063,flat,18.0,1,0.812
170,5.44,-1.6576,7.2650,0.1798,0.0001,0.0000,1.0564,flat,18.0,2,8.473
180,5.76,-1.4480,7.5456,0.1799,0.0001,-0.0001,0.7328,flat,18.0,2,8.427
190,6.08,-1.0996,7.8004,0.1799,0.0000,-0.0000,0.4513,flat,18.0,2,8.264
200,6.40,-0.6529,7.9839,0.1799,-0.0000,-0.0000,0.1903,flat,18.0,2,7.999
210,6.72,-0.1446,8.0587,0.1799,-0.0000,-0.0000,-0.0402,flat,18.0,2,7.640
220,7.04,0.3873,8.0178,0.1799,-0.0001,-0.0000,-0.2182,flat,18.0,2,7.205
230,7.36,0.9150,7.8828,0.1799,-0.0002,-0.0000,-0.3495,flat,18.0,2,6.722
240,7.68,1.4264,7.6800,0.1798,-0.0004,-0.0000,-0.4477,flat,18.0,2,6.213
250,8.00,1.9199,7.4277,0.1798,-0.0003,-0.0000,-0.5255,flat,18.0,2,5.688
260,8.32,2.3955,7.1373,0.1797,-0.0002,-0.0000,-0.5899,flat,18.0,2,5.153
270,8.64,2.8538,6.8164,0.1797,-0.0002,-0.0000,-0.6452,flat,18.0,2,4.610
280,8.96,3.2954,6.4701,0.1797,-0.0002,-0.0000,-0.6943,flat,18.0,2,4.062
290,9.28,3.7203,6.1020,0.1797,-0.0002,-0.0000,-0.7386,flat,18.0,2,3.511
300,9.60,4.1291,5.7152,0.1797,-0.0001,-0.0000,-0.7817,flat,18.0,2,2.958
310,9.92,4.5205,5.3110,0.1797,-0.0002,0.0000,-0.8254,flat,18.0,2,2.404
320,10.24,4.8919,4.8905,0.1797,-0.0002,0.0000,-0.8729,flat,18.0,2,1.851
330,10.56,5.2411,4.4537,0.1797,-0.0002,-0.0000,-0.9313,flat,18.0,2,1.300
340,10.88,5.5605,3.9983,0.1798,-0.0003,0.0000,-1.0198,flat,18.0,3,0.753
350,11.20,5.8633,3.5294,0.1798,0.0001,-0.0000,-0.9685,flat,18.0,3,2.681
360,11.52,6.1231,3.1600,0.1797,0.0001,0.0001,-0.9357,rough,14.0,3,2.248
370,11.84,6.4312,2.7567,0.1797,0.0001,-0.0001,-0.8913,flat,18.0,3,1.765
380,12.16,6.7917,2.3334,0.1797,0.0002,-0.0000,-0.8255,flat,18.0,3,1.244
390,12.48,7.1769,1.9484,0.1798,0.0003,0.0000,-0.7207,flat,18.0,0,0.756
400,12.80,7.3841,1.7449,0.1797,0.0006,-0.0010,-1.0994,flat,18.0,0,9.336
410,13.12,7.5051,1.4799,0.1798,0.0002,-0.0001,-1.5823,flat,18.0,0,9.554
420,13.44,7.4922,1.1691,0.1799,0.0002,-0.0000,-2.0457,flat,18.0,0,9.677
430,13.76,7.2948,0.8754,0.1799,0.0001,-0.0001,-2.3676,flat,18.0,0,9.636
440,14.08,6.9543,0.6061,0.1799,0.0000,-0.0000,-2.6356,flat,18.0,0,9.474
450,14.40,6.5149,0.3986,0.1799,-0.0000,-0.0000,-2.8839,flat,18.0,0,9.211
460,14.72,6.0094,0.2889,0.1799,-0.0000,-0.0000,-3.1036,flat,18.0,0,8.857
470,15.04,5.4723,0.2877,0.1799,-0.0001,-0.0000,3.0032,flat,18.0,0,8.428
480,15.36,4.9323,0.3791,0.1799,-0.0003,-0.0000,2.8736,flat,18.0,0,7.950
490,15.68,4.4030,0.5385,0.1798,-0.0004,-0.0000,2.7784,flat,18.0,0,7.444
500,16.00,3.8871,0.7472,0.1798,-0.0003,-0.0000,2.7044,flat,18.0,0,6.922
510,16.32,3.3849,0.9936,0.1797,-0.0002,-0.0000,2.6443,flat,18.0,0,6.388
520,16.64,2.8959,1.2698,0.1797,-0.0002,-0.0000,2.5940,flat,18.0,0,5.847
530,16.96,2.4201,1.5706,0.1797,-0.0001,-0.0000,2.5520,flat,18.0,0,5.302
540,17.28,1.9562,1.8912,0.1797,-0.0001,-0.0000,2.5153,flat,18.0,0,4.753
550,17.60,1.5035,2.2289,0.1797,-0.0001,-0.0000,2.4814,flat,18.0,0,4.202
560,17.92,1.0619,2.5820,0.1797,-0.0001,-0.0000,2.4493,flat,18.0,0,3.650
570,18.24,0.6317,2.9492,0.1797,-0.0001,-0.0000,2.4176,flat,18.0,0,3.098
580,18.56,0.2134,3.3300,0.1797,-0.0001,0.0000,2.3842,flat,18.0,0,2.547
590,18.88,-0.1909,3.7246,0.1797,-0.0001,0.0000,2.3481,flat,18.0,0,2.000
600,19.20,-0.5777,4.1332,0.1797,-0.0001,0.0000,2.3046,flat,18.0,0,1.459
610,19.52,-0.9406,4.5568,0.1797,-0.0002,0.0000,2.2395,flat,18.0,0,0.937
620,19.84,-1.2521,4.9984,0.1799,-0.0001,-0.0000,2.0991,flat,18.0,1,2.383
630,20.16,-1.4849,5.4396,0.1798,-0.0002,0.0002,1.9499,rough,14.0,1,1.986
640,20.48,-1.6427,5.8745,0.1798,-0.0002,-0.0003,1.8124,flat,18.0,1,1.620
650,20.80,-1.7502,6.4004,0.1799,-0.0001,-0.0000,1.5727,flat,18.0,1,1.214
660,21.12,-1.7274,6.9111,0.1799,-0.0000,0.0000,1.2638,flat,18.0,1,0.844
670,21.44,-1.5864,7.2701,0.1799,0.0002,0.0000,0.9172,flat,18.0,2,8.413
680,21.76,-1.3130,7.5456,0.1799,0.0000,-0.0001,0.6227,flat,18.0,2,8.310
690,22.08,-0.9761,7.7543,0.1799,-0.0001,-0.0000,0.3863,rough,14.0,2,8.135
700,22.40,-0.5529,7.9079,0.1799,-0.0000,-0.0001,0.1768,flat,18.0,2,7.874
710,22.72,-0.0412,7.9766,0.1799,-0.0000,-0.0000,-0.0497,flat,18.0,2,7.508
720,23.04,0.4915,7.9312,0.1799,-0.0001,-0.0000,-0.2239,flat,18.0,2,7.069
730,23.36,1.0186,7.7931,0.1799,-0.0003,-0.0000,-0.3538,flat,18.0,2,6.585
740,23.68,1.5293,7.5882,0.1798,-0.0004,-0.0000,-0.4511,flat,18.0,2,6.076
750,24.00,2.0219,7.3342,0.1798,-0.0003,-0.0000,-0.5286,flat,18.0,2,5.550
760,24.32,2.4966,7.0423,0.1797,-0.0002,-0.0000,-0.5930,flat,18.0,2,5.014
770,24.64,2.9539,6.7199,0.1797,-0.0002,-0.0000,-0.6485,flat,18.0,2,4.472
780,24.96,3.3942,6.3721,0.1797,-0.0002,-0.0000,-0.6979,flat,18.0,2,3.924
790,25.28,3.8176,6.0026,0.1797,-0.0002,-0.0000,-0.7431,flat,18.0,2,3.373
800,25.60,4.2243,5.6139,0.1797,-0.0002,-0.0000,-0.7870,flat,18.0,2,2.820
810,25.92,4.6128,5.2077,0.1797,-0.0002,0.0000,-0.8324,flat,18.0,2,2.267
820,26.24,4.9803,4.7850,0.1797,-0.0002,0.0000,-0.8821,flat,18.0,2,1.715
830,26.56,5.3248,4.3448,0.1797,-0.0002,0.0000,-0.9471,flat,18.0,2,1.165
840,26.88,5.6335,3.8864,0.1798,-0.0003,-0.0001,-0.9911,flat,18.0,3,3.089
850,27.20,5.9427,3.4280,0.1798,0.0001,0.0004,-0.9528,rough,14.0,3,2.555
860,27.52,6.2007,3.0746,0.1797,0.0001,0.0001,-0.9212,rough,14.0,3,2.135
870,27.84,6.5305,2.6564,0.1797,0.0002,-0.0001,-0.8741,flat,18.0,3,1.627
880,28.16,6.8982,2.2405,0.1797,0.0002,0.0000,-0.8057,flat,18.0,3,1.109
890,28.48,7.2557,1.8963,0.1806,0.0002,0.0060,-0.7523,flat,18.0,0,9.158
900,28.80,7.4180,1.7001,0.1772,-0.0168,-0.0004,-1.2405,flat,18.0,0,9.385
910,29.12,7.5111,1.4028,0.1798,0.0001,0.0001,-1.7652,flat,18.0,0,9.592
920,29.44,7.4321,1.1003,0.1799,0.0000,-0.0001,-2.1694,flat,18.0,0,9.654
930,29.76,7.1762,0.8118,0.1799,0.0000,-0.0001,-2.4628,flat,18.0,0,9.563
940,30.08,6.7975,0.5582,0.1799,-0.0000,-0.0000,-2.7252,flat,18.0,0,9.364
950,30.40,6.3306,0.3820,0.1799,-0.0001,-0.0000,-2.9632,flat,18.0,0,9.067
960,30.72,5.8103,0.3104,0.1799,-0.0001,0.0000,3.1149,flat,18.0,0,8.684
970,31.04,5.2692,0.3434,0.1799,-0.0001,-0.0000,2.9542,flat,18.0,0,8.234
980,31.36,4.7320,0.4608,0.1799,-0.0004,-0.0000,2.8386,flat,18.0,0,7.744
990,31.68,4.2070,0.6384,0.1798,-0.0004,-0.0000,2.7520,flat,18.0,0,7.231
1000,32.00,3.6955,0.8606,0.1797,-0.0003,-0.0000,2.6836,flat,18.0,0,6.704
1010,32.32,3.1975,1.1173,0.1797,-0.0002,-0.0000,2.6274,flat,18.0,0,6.168
1020,32.64,2.7126,1.4019,0.1797,-0.0002,-0.0000,2.5798,flat,18.0,0,5.625
1030,32.96,2.2407,1.7094,0.1797,-0.0001,-0.0000,2.5404,flat,18.0,0,5.078
1040,33.28,1.7803,2.0354,0.1797,-0.0001,-0.0000,2.5047,flat,18.0,0,4.528
1050,33.60,1.3309,2.3779,0.1797,-0.0001,-0.0000,2.4715,flat,18.0,0,3.977
1060,33.92,0.8928,2.7354,0.1797,-0.0001,-0.0000,2.4397,flat,18.0,0,3.425
1070,34.24,0.4662,3.1067,0.1797,-0.0001,-0.0000,2.4074,flat,18.0,0,2.874
1080,34.56,0.0521,3.4918,0.1797,-0.0001,0.0000,2.3730,flat,18.0,0,2.324
1090,34.88,-0.3469,3.8908,0.1797,-0.0001,0.0000,2.3348,flat,18.0,0,1.779
1100,35.20,-0.7260,4.3042,0.1797,-0.0002,0.0000,2.2852,flat,18.0,0,1.244
1110,35.52,-1.0739,4.7306,0.1798,-0.0002,0.0003,2.1868,flat,18.0,1,2.640
1120,35.84,-1.3628,5.1883,0.1799,-0.0001,-0.0000,2.0341,flat,18.0,1,2.209
1130,36.16,-1.5520,5.5988,0.1798,-0.0003,0.0001,1.8990,rough,14.0,1,1.850
1140,36.48,-1.7008,6.0848,0.1799,-0.0000,-0.0000,1.7249,flat,18.0,1,1.455
1150,36.80,-1.7601,6.6115,0.1799,-0.0000,0.0000,1.4566,flat,18.0,1,1.060
1160,37.12,-1.6854,7.0832,0.1799,-0.0000,0.0003,1.1045,flat,18.0,2,8.414
1170,37.44,-1.4951,7.3837,0.1799,0.0001,-0.0001,0.7918,flat,18.0,2,8.387
1180,37.76,-1.1687,7.6477,0.1799,0.0000,-0.0001,0.5098,flat,18.0,2,8.240
1190,38.08,-0.8114,7.8239,0.1799,-0.0000,-0.0002,0.3085,flat,18.0,2,8.037
1200,38.40,-0.3306,7.9521,0.1799,-0.0002,0.0000,0.0707,flat,18.0,2,7.721
1210,38.72,0.1955,7.9671,0.1799,-0.0001,0.0000,-0.1329,flat,18.0,2,7.318
1220,39.04,0.7281,7.8766,0.1799,-0.0001,-0.0000,-0.2881,flat,18.0,2,6.856
1230,39.36,1.2483,7.7054,0.1798,-0.0004,-0.0000,-0.4009,flat,18.0,2,6.358
1240,39.68,1.7510,7.4765,0.1798,-0.0004,-0.0000,-0.4880,flat,18.0,2,5.841
1250,40.00,2.2355,7.2043,0.1798,-0.0003,-0.0000,-0.5588,flat,18.0,2,5.310
1260,40.32,2.7024,6.8980,0.1797,-0.0002,-0.0000,-0.6186,flat,18.0,2,4.770
1270,40.64,3.1520,6.5638,0.1797,-0.0002,-0.0000,-0.6710,flat,18.0,2,4.225
1280,40.96,3.5849,6.2060,0.1797,-0.0002,-0.0000,-0.7183,flat,18.0,2,3.675
1290,41.28,4.0010,5.8278,0.1797,-0.0002,-0.0000,-0.7625,flat,18.0,2,3.124
1300,41.60,4.4001,5.4313,0.1797,-0.0002,0.0000,-0.8063,flat,18.0,2,2.570
1310,41.92,4.7798,5.0177,0.1797,-0.0002,0.0000,-0.8535,flat,18.0,2,2.017
1320,42.24,5.1375,4.5878,0.1797,-0.0002,-0.0000,-0.9078,flat,18.0,2,1.466
1330,42.56,5.4691,4.1392,0.1798,-0.0003,0.0000,-0.9852,flat,18.0,2,0.918
1340,42.88,5.7704,3.6729,0.1798,0.0000,-0.0001,-0.9789,flat,18.0,3,2.845
1350,43.20,6.0483,3.2696,0.1797,0.0001,0.0001,-0.9446,rough,14.0,3,2.374
1360,43.52,6.3302,2.8922,0.1797,0.0001,-0.0003,-0.9071,flat,18.0,3,1.924
1370,43.84,6.6839,2.4609,0.1797,0.0002,-0.0000,-0.8472,flat,18.0,3,1.398
1380,44.16,7.0616,2.0615,0.1798,0.0003,0.0000,-0.7616,flat,18.0,3,0.895
1390,44.48,7.3353,1.8098,0.1791,0.0000,-0.0046,-0.9706,flat,18.0,0,9.265
1400,44.80,7.4741,1.5738,0.1799,-0.0001,0.0001,-1.4107,flat,18.0,0,9.487
1410,45.12,7.5173,1.2611,0.1798,0.0001,-0.0000,-1.9212,flat,18.0,0,9.659
1420,45.44,7.3747,0.9644,0.1799,0.0001,-0.0001,-2.2803,flat,18.0,0,9.665
1430,45.76,7.0706,0.6850,0.1799,0.0000,-0.0001,-2.5560,flat,18.0,0,9.534
1440,46.08,6.6580,0.4539,0.1799,-0.0000,-0.0000,-2.8116,flat,18.0,0,9.301
1450,46.40,6.1687,0.3126,0.1799,-0.0001,-0.0000,-3.0395,flat,18.0,0,8.973
1460,46.72,5.6376,0.2793,0.1799,-0.0001,0.0000,3.0532,flat,18.0,0,8.564
1470,47.04,5.0962,0.3449,0.1799,-0.0002,-0.0000,2.9085,flat,18.0,0,8.098
1480,47.36,4.5631,0.4861,0.1798,-0.0004,-0.0000,2.8047,flat,18.0,0,7.599
1490,47.68,4.0430,0.6812,0.1798,-0.0004,-0.0000,2.7252,flat,18.0,0,7.081
1500,48.00,3.5367,0.9171,0.1797,-0.0002,-0.0000,2.6615,flat,18.0,0,6.550
1510,48.32,3.0437,1.1848,0.1797,-0.0002,-0.0000,2.6086,flat,18.0,0,6.011
1520,48.64,2.5638,1.4786,0.1797,-0.0002,-0.0000,2.5641,flat,18.0,0,5.467
1530,48.96,2.0964,1.7935,0.1797,-0.0001,-0.0000,2.5263,flat,18.0,0,4.919
1540,49.28,1.6402,2.1261,0.1797,-0.0001,-0.0000,2.4917,flat,18.0,0,4.369
1550,49.60,1.1951,2.4745,0.1797,-0.0001,-0.0000,2.4592,flat,18.0,0,3.817
1560,49.92,0.7614,2.8374,0.1797,-0.0001,-0.0000,2.4276,flat,18.0,0,3.265
1570,50.24,0.3392,3.2140,0.1797,-0.0001,-0.0000,2.3948,flat,18.0,0,2.714
1580,50.56,-0.0697,3.6043,0.1797,-0.0001,0.0000,2.3598,flat,18.0,0,2.165
1590,50.88,-0.4625,4.0085,0.1797,-0.0001,0.0000,2.3194,flat,18.0,0,1.621
1600,51.20,-0.8335,4.4273,0.1797,-0.0002,0.0000,2.2638,flat,18.0,0,1.092
1610,51.52,-1.1629,4.8609,0.1798,-0.0000,-0.0000,2.1470,flat,18.0,1,2.513
1620,51.84,-1.4353,5.3307,0.1799,-0.0001,-0.0000,1.9825,rough,14.0,1,2.081
1630,52.16,-1.5988,5.7346,0.1798,-0.0003,-0.0004,1.8614,flat,18.0,1,1.735
1640,52.48,-1.7310,6.2522,0.1799,-0.0000,-0.0000,1.6481,flat,18.0,1,1.325
1650,52.80,-1.7482,6.7737,0.1799,-0.0000,0.0000,1.3591,flat,18.0,1,0.942
1660,53.12,-1.6357,7.1878,0.1799,0.0001,0.0001,1.0076,flat,18.0,2,8.418
1670,53.44,-1.4014,7.4717,0.1799,0.0001,-0.0001,0.6995,flat,18.0,2,8.349
1680,53.76,-1.0890,7.6939,0.1799,-0.0001,-0.0000,0.4593,rough,14.0,2,8.197
1690,54.08,-0.7050,7.8636,0.1799,-0.0000,-0.0001,0.2560,flat,18.0,2,7.972
1700,54.40,-0.2082,7.9692,0.1799,-0.0000,-0.0001,0.0167,flat,18.0,2,7.635
1710,54.72,0.3217,7.9581,0.1799,-0.0001,-0.0000,-0.1743,flat,18.0,2,7.216
1720,55.04,0.8524,7.8464,0.1799,-0.0002,-0.0000,-0.3171,flat,18.0,2,6.744
1730,55.36,1.3687,7.6602,0.1798,-0.0004,-0.0000,-0.4230,flat,18.0,2,6.241
1740,55.68,1.8670,7.4203,0.1798,-0.0004,-0.0000,-0.5058,flat,18.0,2,5.719
1750,56.00,2.3473,7.1394,0.1797,-0.0003,-0.0000,-0.5738,flat,18.0,2,5.186
1760,56.32,2.8100,6.8260,0.1797,-0.0002,-0.0000,-0.6317,flat,18.0,2,4.645
1770,56.64,3.2556,6.4858,0.1797,-0.0002,-0.0000,-0.6828,flat,18.0,2,4.099
1780,56.96,3.6843,6.1227,0.1797,-0.0002,-0.0000,-0.7290,flat,18.0,2,3.549
1790,57.28,4.0964,5.7400,0.1797,-0.0002,-0.0000,-0.7732,flat,18.0,2,2.997
1800,57.60,4.4910,5.3392,0.1797,-0.0002,0.0000,-0.8175,flat,18.0,2,2.443
1810,57.92,4.8655,4.9215,0.1797,-0.0002,0.0000,-0.8657,flat,18.0,2,1.891
1820,58.24,5.2176,4.4873,0.1797,-0.0002,-0.0000,-0.9238,flat,18.0,2,1.340
1830,58.56,5.5405,4.0341,0.1798,-0.0003,0.0000,-1.0102,flat,18.0,3,0.794
1840,58.88,5.8478,3.5674,0.1798,0.0001,-0.0000,-0.9615,flat,18.0,3,2.718
1850,59.20,6.1180,3.1891,0.1797,0.0001,0.0001,-0.9300,rough,14.0,3,2.270
1860,59.52,6.4209,2.7961,0.1797,0.0001,-0.0002,-0.8905,flat,18.0,3,1.795
1870,59.84,6.7817,2.3712,0.1797,0.0002,-0.0000,-0.8295,flat,18.0,3,1.270
1880,60.16,7.1660,1.9813,0.1798,0.0003,0.0000,-0.7348,flat,18.0,0,0.774
1890,60.48,7.3707,1.7735,0.1797,0.0006,-0.0007,-1.1080,flat,18.0,0,9.312
1900,60.80,7.4943,1.5074,0.1795,-0.0016,-0.0001,-1.6129,flat,18.0,0,9.533
1910,61.12,7.4709,1.1970,0.1799,0.0002,-0.0000,-2.0660,flat,18.0,0,9.645
1920,61.44,7.2636,0.9032,0.1799,0.0001,-0.0001,-2.3816,flat,18.0,0,9.596
1930,61.76,6.9170,0.6353,0.1799,0.0000,-0.0000,-2.6485,flat,18.0,0,9.426
1940,62.08,6.4731,0.4319,0.1799,-0.0000,-0.0000,-2.8948,flat,18.0,0,9.158
1950,62.40,5.9650,0.3271,0.1799,-0.0000,-0.0000,-3.1123,flat,18.0,0,8.799
1960,62.72,5.4269,0.3304,0.1799,-0.0001,-0.0000,2.9970,flat,18.0,0,8.366
1970,63.04,4.8870,0.4252,0.1799,-0.0003,-0.0000,2.8697,flat,18.0,0,7.885
1980,63.36,4.3581,0.5866,0.1798,-0.0004,-0.0000,2.7759,flat,18.0,0,7.378
1990,63.68,3.8425,0.7966,0.1798,-0.0003,-0.0000,2.7028,flat,18.0,0,6.855
2000,64.00,3.3404,1.0437,0.1797,-0.0002,-0.0000,2.6434,flat,18.0,0,6.321
2010,64.32,2.8516,1.3203,0.1797,-0.0002,-0.0000,2.5935,flat,18.0,0,5.780
2020,64.64,2.3759,1.6214,0.1797,-0.0001,-0.0000,2.5519,flat,18.0,0,5.234
2030,64.96,1.9120,1.9420,0.1797,-0.0001,-0.0000,2.5153,flat,18.0,0,4.685
2040,65.28,1.4592,2.2797,0.1797,-0.0001,-0.0000,2.4814,flat,18.0,0,4.135
2050,65.60,1.0177,2.6328,0.1797,-0.0001,-0.0000,2.4493,flat,18.0,0,3.583
2060,65.92,0.5876,3.0000,0.1797,-0.0001,-0.0000,2.4174,flat,18.0,0,3.031
2070,66.24,0.1695,3.3808,0.1797,-0.0001,0.0000,2.3835,flat,18.0,0,2.481
2080,66.56,-0.2343,3.7757,0.1797,-0.0001,0.0000,2.3468,flat,18.0,0,1.934
2090,66.88,-0.6200,4.1847,0.1797,-0.0002,0.0000,2.3016,flat,18.0,0,1.395
2100,67.20,-0.9805,4.6090,0.1797,-0.0002,0.0000,2.2314,flat,18.0,0,0.876
2110,67.52,-1.2859,5.0533,0.1799,-0.0001,-0.0000,2.0825,flat,18.0,1,2.332
2120,67.84,-1.5071,5.4872,0.1798,-0.0002,0.0001,1.9361,rough,14.0,1,1.945
2130,68.16,-1.6627,5.9350,0.1798,-0.0002,-0.0002,1.7898,flat,18.0,1,1.573
2140,68.48,-1.7576,6.4613,0.1799,-0.0001,0.0000,1.5399,flat,18.0,1,1.171
2150,68.80,-1.7178,6.9654,0.1799,-0.0000,0.0000,1.2209,flat,18.0,1,0.807
2160,69.12,-1.5642,7.3037,0.1798,0.0001,-0.0000,0.8777,flat,18.0,2,8.409
2170,69.44,-1.2734,7.5762,0.1799,0.0000,-0.0001,0.5878,flat,18.0,2,8.292
2180,69.76,-0.9536,7.7647,0.1799,-0.0001,-0.0000,0.3736,rough,14.0,2,8.122
2190,70.08,-0.5170,7.9169,0.1799,-0.0000,-0.0000,0.1599,flat,18.0,2,7.850
2200,70.40,-0.0027,7.9765,0.1799,-0.0001,0.0000,-0.0616,flat,18.0,2,7.478
2210,70.72,0.5305,7.9237,0.1799,-0.0001,-0.0000,-0.2345,flat,18.0,2,7.035
2220,71.04,1.0566,7.7800,0.1799,-0.0003,-0.0000,-0.3619,flat,18.0,2,6.549
2230,71.36,1.5660,7.5709,0.1798,-0.0004,-0.0000,-0.4575,flat,18.0,2,6.038
2240,71.68,2.0573,7.3138,0.1798,-0.0003,-0.0000,-0.5338,flat,18.0,2,5.511
2250,72.00,2.5307,7.0194,0.1797,-0.0002,-0.0000,-0.5973,flat,18.0,2,4.975
2260,72.32,2.9867,6.6950,0.1797,-0.0002,-0.0000,-0.6523,flat,18.0,2,4.431
2270,72.64,3.4257,6.3455,0.1797,-0.0002,-0.0000,-0.7014,flat,18.0,2,3.883
2280,72.96,3.8479,5.9745,0.1797,-0.0002,-0.0000,-0.7464,flat,18.0,2,3.332
2290,73.28,4.2534,5.5844,0.1797,-0.0002,-0.0000,-0.7902,flat,18.0,2,2.779
2300,73.60,4.6405,5.1770,0.1797,-0.0002,0.0000,-0.8358,flat,18.0,2,2.226
2310,73.92,5.0064,4.7532,0.1797,-0.0002,0.0000,-0.8860,flat,18.0,2,1.674
2320,74.24,5.3489,4.3115,0.1797,-0.0002,0.0000,-0.9528,flat,18.0,2,1.125
2330,74.56,5.6567,3.8517,0.1798,-0.0002,-0.0001,-0.9839,flat,18.0,3,3.049
2340,74.88,5.9619,3.4051,0.1798,0.0001,0.0004,-0.9481,rough,14.0,3,2.526
2350,75.20,6.2216,3.0529,0.1797,0.0001,0.0000,-0.9168,rough,14.0,3,2.105
2360,75.52,6.5613,2.6266,0.1797,0.0002,-0.0001,-0.8684,flat,18.0,3,1.586
2370,75.84,6.9313,2.2131,0.1797,0.0002,0.0000,-0.7992,flat,18.0,3,1.068
2380,76.16,7.2734,1.8888,0.1769,0.0006,-0.0185,-0.7869,flat,18.0,0,9.177
2390,76.48,7.4255,1.6849,0.1778,-0.0129,-0.0002,-1.2862,flat,18.0,0,9.398
2400,76.80,7.5064,1.3820,0.1799,0.0003,0.0001,-1.8155,flat,18.0,0,9.597
2410,77.12,7.4087,1.0814,0.1799,0.0001,-0.0001,-2.2037,flat,18.0,0,9.641
2420,77.44,7.1382,0.7950,0.1799,0.0000,-0.0001,-2.4890,flat,18.0,0,9.538
2430,77.76,6.7496,0.5468,0.1799,-0.0000,-0.0000,-2.7494,flat,18.0,0,9.329
2440,78.08,6.2759,0.3799,0.1799,-0.0000,-0.0000,-2.9847,flat,18.0,0,9.023
2450,78.40,5.7519,0.3184,0.1799,-0.0001,-0.0000,3.0954,flat,18.0,0,8.632
2460,78.72,5.2105,0.3609,0.1799,-0.0001,-0.0000,2.9416,flat,18.0,0,8.177
2470,79.04,4.6743,0.4848,0.1798,-0.0004,-0.0000,2.8295,flat,18.0,0,7.684
2480,79.36,4.1505,0.6671,0.1798,-0.0004,-0.0000,2.7450,flat,18.0,0,7.170
2490,79.68,3.6403,0.8929,0.1797,-0.0003,-0.0000,2.6780,flat,18.0,0,6.642
2500,80.00,3.1435,1.1524,0.1797,-0.0002,-0.0000,2.6227,flat,18.0,0,6.105
2510,80.32,2.6598,1.4392,0.1797,-0.0002,-0.0000,2.5759,flat,18.0,0,5.561
2520,80.64,2.1890,1.7485,0.1797,-0.0001,-0.0000,2.5371,flat,18.0,0,5.014
2530,80.96,1.7295,2.0761,0.1797,-0.0001,-0.0000,2.5017,flat,18.0,0,4.465
2540,81.28,1.2812,2.4200,0.1797,-0.0001,-0.0000,2.4686,flat,18.0,0,3.913
2550,81.60,0.8441,2.7788,0.1797,-0.0001,-0.0000,2.4368,flat,18.0,0,3.361
2560,81.92,0.4186,3.1514,0.1797,-0.0001,-0.0000,2.4043,flat,18.0,0,2.810
2570,82.24,0.0059,3.5377,0.1797,-0.0001,0.0000,2.3695,flat,18.0,0,2.261
2580,82.56,-0.3914,3.9381,0.1797,-0.0001,0.0000,2.3304,flat,18.0,0,1.716
2590,82.88,-0.7679,4.3530,0.1797,-0.0002,0.0000,2.2786,flat,18.0,0,1.184
2600,83.20,-1.1093,4.7815,0.1798,-0.0002,-0.0000,2.1739,flat,18.0,1,2.590
2610,83.52,-1.3926,5.2434,0.1799,-0.0001,-0.0000,2.0154,flat,18.0,1,2.159
2620,83.84,-1.5707,5.6460,0.1798,-0.0003,0.0001,1.8836,rough,14.0,1,1.810
2630,84.16,-1.7146,6.1449,0.1799,-0.0000,-0.0000,1.6984,flat,18.0,1,1.409
2640,84.48,-1.7592,6.6703,0.1799,-0.0000,0.0000,1.4221,flat,18.0,1,1.018
2650,84.80,-1.6699,7.1222,0.1799,-0.0000,0.0001,1.0691,flat,18.0,2,8.418
2660,85.12,-1.4637,7.4158,0.1799,0.0001,-0.0001,0.7573,flat,18.0,2,8.376
2670,85.44,-1.1465,7.6612,0.1799,-0.0000,0.0001,0.4937,rough,14.0,2,8.228
2680,85.76,-0.7897,7.8323,0.1799,-0.0000,-0.0002,0.3000,flat,18.0,2,8.024
2690,86.08,-0.3043,7.9574,0.1799,0.0000,-0.0000,0.0563,flat,18.0,2,7.704
2700,86.40,0.2228,7.9667,0.1799,-0.0001,-0.0000,-0.1437,flat,18.0,2,7.297
2710,86.72,0.7550,7.8713,0.1799,-0.0001,-0.0000,-0.2944,flat,18.0,2,6.832
2720,87.04,1.2743,7.6967,0.1798,-0.0004,-0.0000,-0.4058,flat,18.0,2,6.334
2730,87.36,1.7761,7.4654,0.1798,-0.0004,-0.0000,-0.4919,flat,18.0,2,5.815
2740,87.68,2.2597,7.1913,0.1798,-0.0003,-0.0000,-0.5621,flat,18.0,2,5.284
2750,88.00,2.7256,6.8834,0.1797,-0.0002,-0.0000,-0.6215,flat,18.0,2,4.744
2760,88.32,3.1744,6.5479,0.1797,-0.0002,-0.0000,-0.6736,flat,18.0,2,4.198
2770,88.64,3.6064,6.1889,0.1797,-0.0002,-0.0000,-0.7207,flat,18.0,2,3.649
2780,88.96,4.0216,5.8097,0.1797,-0.0002,-0.0000,-0.7649,flat,18.0,2,3.097
2790,89.28,4.4196,5.4122,0.1797,-0.0002,0.0000,-0.8088,flat,18.0,2,2.543
2800,89.60,4.7982,4.9977,0.1797,-0.0002,0.0000,-0.8562,flat,18.0,2,1.991
2810,89.92,5.1546,4.5669,0.1797,-0.0002,0.0000,-0.9112,flat,18.0,2,1.440
2820,90.24,5.4845,4.1173,0.1798,-0.0003,0.0000,-0.9903,flat,18.0,2,0.892
2830,90.56,5.7887,3.6509,0.1798,0.0001,-0.0000,-0.9710,flat,18.0,3,2.817
2840,90.88,6.0702,3.2502,0.1797,0.0001,0.0002,-0.9369,rough,14.0,3,2.345
2850,91.20,6.3551,2.8744,0.1797,0.0001,-0.0003,-0.9009,flat,18.0,3,1.893
2860,91.52,6.7115,2.4449,0.1797,0.0002,-0.0000,-0.8423,flat,18.0,3,1.366
2870,91.84,7.0913,2.0472,0.1798,0.0003,0.0000,-0.7570,flat,18.0,3,0.862
2880,92.16,7.3423,1.8094,0.1794,0.0004,-0.0032,-1.0199,flat,18.0,0,9.272
2890,92.48,7.4798,1.5642,0.1792,-0.0041,-0.0001,-1.4922,flat,18.0,0,9.497
2900,92.80,7.4954,1.2486,0.1799,0.0003,0.0000,-1.9888,flat,18.0,0,9.644
2910,93.12,7.3241,0.9533,0.1799,0.0001,-0.0001,-2.3262,flat,18.0,0,9.625
2920,93.44,7.0004,0.6783,0.1799,0.0000,-0.0000,-2.5963,flat,18.0,0,9.476
2930,93.76,6.5737,0.4584,0.1799,-0.0000,-0.0000,-2.8478,flat,18.0,0,9.228
2940,94.08,6.0756,0.3325,0.1799,-0.0000,-0.0000,-3.0713,flat,18.0,0,8.886
2950,94.40,5.5409,0.3148,0.1799,-0.0001,-0.0000,3.0275,flat,18.0,0,8.466
2960,94.72,4.9999,0.3934,0.1799,-0.0002,-0.0000,2.8918,flat,18.0,0,7.993
2970,95.04,4.4685,0.5432,0.1798,-0.0004,-0.0000,2.7926,flat,18.0,0,7.490
2980,95.36,3.9502,0.7446,0.1798,-0.0003,-0.0000,2.7160,flat,18.0,0,6.970
2990,95.68,3.4455,0.9851,0.1797,-0.0002,-0.0000,2.6543,flat,18.0,0,6.437
3000,96.00,2.9541,1.2564,0.1797,-0.0002,-0.0000,2.6027,flat,18.0,0,5.897
3010,96.32,2.4758,1.5530,0.1797,-0.0002,-0.0000,2.5596,flat,18.0,0,5.352
3020,96.64,2.0097,1.8701,0.1797,-0.0001,-0.0000,2.5223,flat,18.0,0,4.804
3030,96.96,1.5547,2.2045,0.1797,-0.0001,-0.0000,2.4880,flat,18.0,0,4.253
3040,97.28,1.1110,2.5547,0.1797,-0.0001,-0.0000,2.4556,flat,18.0,0,3.702
3050,97.60,0.6785,2.9191,0.1797,-0.0001,-0.0000,2.4239,flat,18.0,0,3.150
3060,97.92,0.2579,3.2972,0.1797,-0.0001,0.0000,2.3906,flat,18.0,0,2.599
3070,98.24,-0.1490,3.6893,0.1797,-0.0001,0.0000,2.3547,flat,18.0,0,2.051
3080,98.56,-0.5390,4.0953,0.1797,-0.0001,0.0000,2.3122,flat,18.0,0,1.510
3090,98.88,-0.9057,4.5164,0.1797,-0.0002,0.0000,2.2504,flat,18.0,0,0.985
3100,99.20,-1.2240,4.9542,0.1799,-0.0000,-0.0000,2.1170,flat,18.0,1,2.424
3110,99.52,-1.4688,5.4019,0.1799,-0.0001,0.0002,1.9633,rough,14.0,1,2.019
3120,99.84,-1.6288,5.8239,0.1798,-0.0003,-0.0004,1.8342,flat,18.0,1,1.662
3130,100.16,-1.7465,6.3482,0.1799,-0.0001,-0.0000,1.5999,flat,18.0,1,1.254
3140,100.48,-1.7378,6.8634,0.1799,-0.0000,0.0000,1.2977,flat,18.0,1,0.879
3150,100.80,-1.6064,7.2412,0.1798,0.0001,0.0000,0.9508,flat,18.0,2,8.417
3160,101.12,-1.3469,7.5193,0.1799,0.0001,-0.0001,0.6501,flat,18.0,2,8.326
3170,101.44,-1.0008,7.7426,0.1799,-0.0000,0.0000,0.3988,rough,14.0,2,8.149
3180,101.76,-0.5706,7.9043,0.1799,-0.0000,-0.0000,0.1818,flat,18.0,2,7.886
3190,102.08,-0.0597,7.9746,0.1799,-0.0001,0.0000,-0.0432,flat,18.0,2,7.521
3200,102.40,0.4733,7.9314,0.1799,-0.0001,-0.0000,-0.2201,flat,18.0,2,7.083
3210,102.72,1.0008,7.7950,0.1799,-0.0003,-0.0000,-0.3514,flat,18.0,2,6.600
3220,103.04,1.5120,7.5913,0.1798,-0.0004,-0.0000,-0.4490,flat,18.0,2,6.090
3230,103.36,2.0051,7.3384,0.1798,-0.0003,-0.0000,-0.5267,flat,18.0,2,5.565
3240,103.68,2.4804,7.0474,0.1797,-0.0002,-0.0000,-0.5911,flat,18.0,2,5.029
3250,104.00,2.9382,6.7259,0.1797,-0.0002,-0.0000,-0.6466,flat,18.0,2,4.486
3260,104.32,3.3792,6.3790,0.1797,-0.0002,-0.0000,-0.6961,flat,18.0,2,3.938
3270,104.64,3.8033,6.0102,0.1797,-0.0002,-0.0000,-0.7412,flat,18.0,2,3.388
3280,104.96,4.2107,5.6223,0.1797,-0.0002,-0.0000,-0.7850,flat,18.0,2,2.835
3290,105.28,4.6002,5.2168,0.1797,-0.0002,0.0000,-0.8301,flat,18.0,2,2.281
3300,105.60,4.9687,4.7949,0.1797,-0.0002,0.0000,-0.8797,flat,18.0,2,1.729
3310,105.92,5.3143,4.3555,0.1797,-0.0002,0.0000,-0.9438,flat,18.0,2,1.179
3320,106.24,5.6248,3.8982,0.1798,-0.0003,-0.0001,-0.9868,flat,18.0,3,3.103
3330,106.56,5.9360,3.4407,0.1798,0.0001,0.0004,-0.9498,rough,14.0,3,2.569
3340,106.88,6.1951,3.0877,0.1797,0.0001,0.0001,-0.9191,rough,14.0,3,2.147
3350,107.20,6.5259,2.6697,0.1797,0.0002,-0.0001,-0.8734,flat,18.0,3,1.638
3360,107.52,6.8939,2.2533,0.1797,0.0002,0.0000,-0.8070,flat,18.0,3,1.118
3370,107.84,7.2510,1.9068,0.1806,0.0002,0.0064,-0.7578,flat,18.0,0,9.150
3380,108.16,7.4126,1.7102,0.1772,-0.0168,-0.0003,-1.2414,flat,18.0,0,9.376
3390,108.48,7.5054,1.4152,0.1798,0.0001,0.0001,-1.7625,flat,18.0,0,9.582
3400,108.80,7.4273,1.1126,0.1799,0.0000,-0.0001,-2.1674,flat,18.0,0,9.644
3410,109.12,7.1723,0.8238,0.1799,0.0000,-0.0001,-2.4610,flat,18.0,0,9.554
3420,109.44,6.7942,0.5697,0.1799,-0.0000,-0.0000,-2.7235,flat,18.0,0,9.355
3430,109.76,6.3277,0.3929,0.1799,-0.0001,-0.0000,-2.9616,flat,18.0,0,9.059
3440,110.08,5.8076,0.3204,0.1799,-0.0001,0.0000,3.1165,flat,18.0,0,8.675
3450,110.40,5.2664,0.3527,0.1799,-0.0001,-0.0000,2.9554,flat,18.0,0,8.226
3460,110.72,4.7291,0.4694,0.1799,-0.0004,-0.0000,2.8396,flat,18.0,0,7.736
3470,111.04,4.2039,0.6464,0.1798,-0.0004,-0.0000,2.7528,flat,18.0,0,7.223
3480,111.36,3.6923,0.8682,0.1797,-0.0003,-0.0000,2.6843,flat,18.0,0,6.697
3490,111.68,3.1941,1.1246,0.1797,-0.0002,-0.0000,2.6280,flat,18.0,0,6.160
3500,112.00,2.7090,1.4088,0.1797,-0.0002,-0.0000,2.5803,flat,18.0,0,5.617
3510,112.32,2.2370,1.7160,0.1797,-0.0001,-0.0000,2.5409,flat,18.0,0,5.071
3520,112.64,1.7763,2.0418,0.1797,-0.0001,-0.0000,2.5052,flat,18.0,0,4.521
3530,112.96,1.3268,2.3841,0.1797,-0.0001,-0.0000,2.4720,flat,18.0,0,3.970
3540,113.28,0.8886,2.7414,0.1797,-0.0001,-0.0000,2.4401,flat,18.0,0,3.418
3550,113.60,0.4618,3.1125,0.1797,-0.0001,-0.0000,2.4078,flat,18.0,0,2.867
3560,113.92,0.0477,3.4974,0.1797,-0.0001,0.0000,2.3732,flat,18.0,0,2.317
3570,114.24,-0.3514,3.8964,0.1797,-0.0001,0.0000,2.3349,flat,18.0,0,1.772
3580,114.56,-0.7304,4.3097,0.1797,-0.0002,0.0000,2.2850,flat,18.0,0,1.237
3590,114.88,-1.0780,4.7361,0.1798,-0.0002,0.0003,2.1856,flat,18.0,1,2.635
3600,115.20,-1.3664,5.1941,0.1799,-0.0001,-0.0000,2.0328,flat,18.0,1,2.203
3610,115.52,-1.5550,5.6048,0.1798,-0.0003,0.0001,1.8974,rough,14.0,1,1.845
3620,115.84,-1.7029,6.0909,0.1799,-0.0000,-0.0000,1.7226,flat,18.0,1,1.450
3630,116.16,-1.7609,6.6174,0.1799,-0.0000,0.0000,1.4531,flat,18.0,1,1.057
3640,116.48,-1.6845,7.0880,0.1799,-0.0000,0.0003,1.0997,flat,18.0,2,8.416
3650,116.80,-1.4920,7.3875,0.1799,0.0001,-0.0001,0.7867,flat,18.0,2,8.386
3660,117.12,-1.1700,7.6472,0.1799,-0.0000,0.0004,0.5070,rough,14.0,2,8.241
3670,117.44,-0.8312,7.8159,0.1799,-0.0000,-0.0003,0.3168,flat,18.0,2,8.049
3680,117.76,-0.3567,7.9486,0.1799,0.0001,-0.0000,0.0816,flat,18.0,2,7.740
3690,118.08,0.1678,7.9705,0.1799,-0.0001,-0.0000,-0.1245,flat,18.0,2,7.342
3700,118.40,0.7006,7.8853,0.1799,-0.0001,-0.0000,-0.2801,flat,18.0,2,6.882
3710,118.72,1.2217,7.7181,0.1799,-0.0004,-0.0000,-0.3952,flat,18.0,2,6.386
3720,119.04,1.7253,7.4922,0.1798,-0.0004,-0.0000,-0.4836,flat,18.0,2,5.870
3730,119.36,2.2109,7.2221,0.1798,-0.0003,-0.0000,-0.5552,flat,18.0,2,5.340
3740,119.68,2.6786,6.9175,0.1797,-0.0002,-0.0000,-0.6157,flat,18.0,2,4.801
3750,120.00,3.1292,6.5846,0.1797,-0.0002,-0.0000,-0.6684,flat,18.0,2,4.256
3760,120.32,3.5629,6.2280,0.1797,-0.0002,-0.0000,-0.7161,flat,18.0,2,3.706
3770,120.64,3.9798,5.8507,0.1797,-0.0002,-0.0000,-0.7604,flat,18.0,2,3.155
3780,120.96,4.3796,5.4550,0.1797,-0.0002,-0.0000,-0.8043,flat,18.0,2,2.601
3790,121.28,4.7603,5.0421,0.1797,-0.0002,0.0000,-0.8512,flat,18.0,2,2.048
3800,121.60,5.1190,4.6131,0.1797,-0.0002,-0.0000,-0.9049,flat,18.0,2,1.497
3810,121.92,5.4522,4.1653,0.1798,-0.0003,0.0000,-0.9805,flat,18.0,2,0.949
3820,122.24,5.7562,3.7001,0.1798,0.0000,-0.0000,-0.9745,flat,18.0,3,2.873
3830,122.56,6.0361,3.2977,0.1797,0.0001,0.0001,-0.9415,rough,14.0,3,2.401
3840,122.88,6.3118,2.9302,0.1797,0.0001,-0.0003,-0.9074,flat,18.0,3,1.960
3850,123.20,6.6654,2.4977,0.1797,0.0002,-0.0000,-0.8509,flat,18.0,3,1.431
3860,123.52,7.0420,2.0949,0.1798,0.0003,0.0000,-0.7710,flat,18.0,3,0.924
3870,123.84,7.3138,1.8382,0.1792,0.0000,-0.0041,-0.9796,flat,18.0,0,9.235
3880,124.16,7.4571,1.6023,0.1789,-0.0057,-0.0000,-1.4389,flat,18.0,0,9.460
3890,124.48,7.4900,1.2875,0.1798,0.0001,0.0000,-1.9449,flat,18.0,0,9.623
3900,124.80,7.3368,0.9909,0.1799,0.0000,-0.0001,-2.2968,flat,18.0,0,9.619
3910,125.12,7.0252,0.7127,0.1799,0.0000,-0.0001,-2.5703,flat,18.0,0,9.481
3920,125.44,6.6073,0.4852,0.1799,-0.0000,-0.0000,-2.8241,flat,18.0,0,9.242
3930,125.76,6.1146,0.3492,0.1799,-0.0001,-0.0000,-3.0500,flat,18.0,0,8.908
3940,126.08,5.5822,0.3212,0.1799,-0.0001,0.0000,3.0451,flat,18.0,0,8.495
3950,126.40,5.0407,0.3910,0.1799,-0.0002,-0.0000,2.9031,flat,18.0,0,8.026
3960,126.72,4.5081,0.5350,0.1798,-0.0004,-0.0000,2.8011,flat,18.0,0,7.525
3970,127.04,3.9885,0.7319,0.1798,-0.0003,-0.0000,2.7227,flat,18.0,0,7.006
3980,127.36,3.4825,0.9690,0.1797,-0.0002,-0.0000,2.6597,flat,18.0,0,6.475
3990,127.68,2.9899,1.2376,0.1797,-0.0002,-0.0000,2.6073,flat,18.0,0,5.936
4000,128.00,2.5103,1.5321,0.1797,-0.0002,-0.0000,2.5632,flat,18.0,0,5.391
4010,128.32,2.0432,1.8474,0.1797,-0.0001,-0.0000,2.5255,flat,18.0,0,4.843
4020,128.64,1.5873,2.1804,0.1797,-0.0001,-0.0000,2.4909,flat,18.0,0,4.293
4030,128.96,1.1425,2.5292,0.1797,-0.0001,-0.0000,2.4583,flat,18.0,0,3.741
4040,129.28,0.7091,2.8925,0.1797,-0.0001,-0.0000,2.4265,flat,18.0,0,3.190
4050,129.60,0.2875,3.2694,0.1797,-0.0001,-0.0000,2.3933,flat,18.0,0,2.639
4060,129.92,-0.1206,3.6603,0.1797,-0.0001,0.0000,2.3576,flat,18.0,0,2.090
4070,130.24,-0.5120,4.0653,0.1797,-0.0001,0.0000,2.3158,flat,18.0,0,1.549
4080,130.56,-0.8805,4.4852,0.1797,-0.0002,0.0000,2.2561,flat,18.0,0,1.022
4090,130.88,-1.2031,4.9213,0.1799,-0.0000,-0.0000,2.1297,flat,18.0,1,2.456
4100,131.20,-1.4531,5.3657,0.1799,-0.0001,0.0002,1.9763,rough,14.0,1,2.051
4110,131.52,-1.6154,5.7762,0.1798,-0.0003,-0.0004,1.8521,flat,18.0,1,1.702
4120,131.84,-1.7419,6.2974,0.1799,-0.0001,-0.0000,1.6257,flat,18.0,1,1.293
4130,132.16,-1.7468,6.8160,0.1799,-0.0000,0.0000,1.3297,flat,18.0,1,0.914
4140,132.48,-1.6247,7.2127,0.1799,0.0003,0.0000,0.9808,flat,18.0,2,8.420
4150,132.80,-1.3787,7.4936,0.1799,0.0001,-0.0001,0.6764,flat,18.0,2,8.341
4160,133.12,-1.0327,7.7266,0.1799,-0.0000,0.0001,0.4166,rough,14.0,2,8.168
4170,133.44,-0.6375,7.8830,0.1799,-0.0000,-0.0001,0.2180,flat,18.0,2,7.928
4180,133.76,-0.1330,7.9713,0.1799,-0.0000,-0.0000,-0.0153,flat,18.0,2,7.577
4190,134.08,0.3986,7.9438,0.1799,-0.0001,-0.0000,-0.1979,flat,18.0,2,7.148
4200,134.40,0.9279,7.8195,0.1799,-0.0002,-0.0000,-0.3345,flat,18.0,2,6.670
4210,134.72,1.4417,7.6245,0.1798,-0.0004,-0.0000,-0.4361,flat,18.0,2,6.163
4220,135.04,1.9375,7.3780,0.1798,-0.0004,-0.0000,-0.5163,flat,18.0,2,5.640
4230,135.36,2.4153,7.0920,0.1797,-0.0002,-0.0000,-0.5825,flat,18.0,2,5.106
4240,135.68,2.8756,6.7745,0.1797,-0.0002,-0.0000,-0.6392,flat,18.0,2,4.564
4250,136.00,3.3188,6.4310,0.1797,-0.0002,-0.0000,-0.6894,flat,18.0,2,4.017
4260,136.32,3.7452,6.0650,0.1797,-0.0002,-0.0000,-0.7350,flat,18.0,2,3.466
4270,136.64,4.1550,5.6797,0.1797,-0.0002,-0.0000,-0.7791,flat,18.0,2,2.914
4280,136.96,4.5471,5.2766,0.1797,-0.0002,0.0000,-0.8238,flat,18.0,2,2.360
4290,137.28,4.9186,4.8568,0.1797,-0.0002,0.0000,-0.8727,flat,18.0,2,1.808
4300,137.60,5.2676,4.4200,0.1797,-0.0002,0.0000,-0.9337,flat,18.0,2,1.258
4310,137.92,5.5811,3.9664,0.1798,-0.0004,0.0002,-0.9967,flat,18.0,3,3.182
4320,138.24,5.8918,3.4967,0.1798,0.0001,-0.0000,-0.9604,rough,14.0,3,2.638
4330,138.56,6.1471,3.1388,0.1797,0.0001,0.0001,-0.9301,rough,14.0,3,2.216
4340,138.88,6.4576,2.7369,0.1797,0.0001,-0.0001,-0.8867,flat,18.0,3,1.732
4350,139.20,6.8200,2.3151,0.1797,0.0002,-0.0000,-0.8214,flat,18.0,3,1.211
4360,139.52,7.1997,1.9386,0.1814,0.0003,0.0116,-0.7251,flat,18.0,0,9.090
4370,139.84,7.3867,1.7392,0.1798,0.0009,-0.0003,-1.1465,flat,18.0,0,9.341
4380,140.16,7.4965,1.4584,0.1798,0.0002,-0.0000,-1.6604,flat,18.0,0,9.556
4390,140.48,7.4564,1.1519,0.1799,0.0001,-0.0001,-2.0979,flat,18.0,0,9.652
4400,140.80,7.2337,0.8598,0.1799,0.0001,-0.0001,-2.4068,flat,18.0,0,9.590
4410,141.12,6.8771,0.5961,0.1799,0.0000,-0.0000,-2.6729,flat,18.0,0,9.412
4420,141.44,6.4258,0.4010,0.1799,-0.0000,-0.0000,-2.9170,flat,18.0,0,9.136
4430,141.76,5.9137,0.3070,0.1799,-0.0001,-0.0000,-3.1308,flat,18.0,0,8.769
4440,142.08,5.3749,0.3205,0.1799,-0.0001,-0.0000,2.9822,flat,18.0,0,8.331
4450,142.40,4.8359,0.4234,0.1799,-0.0003,-0.0000,2.8581,flat,18.0,0,7.847
4460,142.72,4.3085,0.5909,0.1798,-0.0004,-0.0000,2.7668,flat,18.0,0,7.338
4470,143.04,3.7945,0.8055,0.1798,-0.0003,-0.0000,2.6953,flat,18.0,0,6.814
4480,143.36,3.2941,1.0564,0.1797,-0.0002,-0.0000,2.6370,flat,18.0,0,6.279
4490,143.68,2.8068,1.3362,0.1797,-0.0002,-0.0000,2.5878,flat,18.0,0,5.738
4500,144.00,2.3327,1.6399,0.1797,-0.0001,-0.0000,2.5470,flat,18.0,0,5.191
4510,144.32,1.8703,1.9629,0.1797,-0.0001,-0.0000,2.5107,flat,18.0,0,4.642
4520,144.64,1.4190,2.3027,0.1797,-0.0001,-0.0000,2.4771,flat,18.0,0,4.091
4530,144.96,0.9790,2.6577,0.1797,-0.0001,-0.0000,2.4451,flat,18.0,0,3.539
4540,145.28,0.5504,3.0267,0.1797,-0.0001,-0.0000,2.4131,flat,18.0,0,2.988
4550,145.60,0.1340,3.4094,0.1797,-0.0001,0.0000,2.3791,flat,18.0,0,2.437
4560,145.92,-0.2679,3.8061,0.1797,-0.0001,0.0000,2.3420,flat,18.0,0,1.891
4570,146.24,-0.6511,4.2169,0.1797,-0.0002,0.0000,2.2958,flat,18.0,0,1.353
4580,146.56,-1.0085,4.6431,0.1798,-0.0003,0.0000,2.2217,flat,18.0,0,0.837
4590,146.88,-1.3080,5.0907,0.1799,-0.0001,-0.0000,2.0672,flat,18.0,1,2.298
4600,147.20,-1.5231,5.5281,0.1798,-0.0002,0.0002,1.9211,rough,14.0,1,1.910
4610,147.52,-1.6758,5.9892,0.1799,-0.0001,-0.0001,1.7662,flat,18.0,1,1.529
4620,147.84,-1.7580,6.5162,0.1799,-0.0001,0.0000,1.5104,flat,18.0,1,1.129
4630,148.16,-1.7031,7.0134,0.1799,-0.0000,0.0000,1.1817,flat,18.0,2,0.771
4640,148.48,-1.5387,7.3338,0.1798,0.0001,-0.0001,0.8439,flat,18.0,2,8.401
4650,148.80,-1.2341,7.6033,0.1799,0.0000,-0.0001,0.5583,rough,14.0,2,8.272
4660,149.12,-0.9111,7.7828,0.1799,-0.0001,-0.0003,0.3588,flat,18.0,2,8.097
4670,149.44,-0.4526,7.9318,0.1799,-0.0001,-0.0000,0.1278,flat,18.0,2,7.807
4680,149.76,0.0665,7.9756,0.1799,-0.0001,0.0000,-0.0875,flat,18.0,2,7.423
4690,150.08,0.5999,7.9092,0.1799,-0.0001,-0.0000,-0.2543,flat,18.0,2,6.973
4700,150.40,1.1240,7.7553,0.1799,-0.0003,-0.0000,-0.3761,flat,18.0,2,6.483
4710,150.72,1.6310,7.5390,0.1798,-0.0004,-0.0000,-0.4685,flat,18.0,2,5.969
4720,151.04,2.1199,7.2764,0.1798,-0.0003,-0.0000,-0.5428,flat,18.0,2,5.441
4730,151.36,2.5910,6.9777,0.1797,-0.0002,-0.0000,-0.6050,flat,18.0,2,4.904
4740,151.68,3.0447,6.6498,0.1797,-0.0002,-0.0000,-0.6590,flat,18.0,2,4.359
4750,152.00,3.4816,6.2973,0.1797,-0.0002,-0.0000,-0.7074,flat,18.0,2,3.811
4760,152.32,3.9017,5.9237,0.1797,-0.0002,-0.0000,-0.7520,flat,18.0,2,3.260
4770,152.64,4.3049,5.5314,0.1797,-0.0002,-0.0000,-0.7958,flat,18.0,2,2.706
4780,152.96,4.6894,5.1217,0.1797,-0.0002,0.0000,-0.8420,flat,18.0,2,2.153
4790,153.28,5.0524,4.6959,0.1797,-0.0002,0.0000,-0.8932,flat,18.0,2,1.602
4800,153.60,5.3914,4.2517,0.1797,-0.0002,0.0000,-0.9634,flat,18.0,2,1.052
4810,153.92,5.6963,3.7894,0.1798,-0.0001,-0.0001,-0.9827,flat,18.0,3,2.978
4820,154.24,5.9872,3.3637,0.1797,0.0001,0.0002,-0.9483,rough,14.0,3,2.480
4830,154.56,6.2469,3.0120,0.1797,0.0001,0.0000,-0.9158,rough,14.0,3,2.061
4840,154.88,6.5868,2.5868,0.1797,0.0002,-0.0001,-0.8652,flat,18.0,3,1.543
4850,155.20,6.9580,2.1761,0.1797,0.0003,0.0000,-0.7919,flat,18.0,3,1.030
4860,155.52,7.2782,1.8742,0.1787,0.0001,-0.0064,-0.8487,flat,18.0,0,9.188
4870,155.84,7.4255,1.6608,0.1783,-0.0099,-0.0001,-1.3378,flat,18.0,0,9.408
4880,156.16,7.4908,1.3521,0.1798,0.0001,0.0001,-1.8596,flat,18.0,0,9.596
4890,156.48,7.3740,1.0530,0.1799,0.0000,-0.0001,-2.2359,flat,18.0,0,9.623
4900,156.80,7.0887,0.7692,0.1799,0.0000,-0.0001,-2.5174,flat,18.0,0,9.508
4910,157.12,6.6895,0.5278,0.1799,-0.0000,-0.0000,-2.7757,flat,18.0,0,9.289
4920,157.44,6.2089,0.3715,0.1799,-0.0001,-0.0000,-3.0078,flat,18.0,0,8.973
4930,157.76,5.6817,0.3221,0.1799,-0.0001,0.0000,3.0785,flat,18.0,0,8.573
4940,158.08,5.1400,0.3743,0.1799,-0.0001,-0.0000,2.9273,flat,18.0,0,8.114
4950,158.40,4.6051,0.5056,0.1798,-0.0004,-0.0000,2.8189,flat,18.0,0,7.618
4960,158.72,4.0829,0.6934,0.1798,-0.0004,-0.0000,2.7367,flat,18.0,0,7.102
4970,159.04,3.5742,0.9234,0.1797,-0.0002,-0.0000,2.6710,flat,18.0,0,6.573
4980,159.36,3.0791,1.1864,0.1797,-0.0002,-0.0000,2.6167,flat,18.0,0,6.035
4990,159.68,2.5969,1.4762,0.1797,-0.0002,-0.0000,2.5709,flat,18.0,0,5.491
5000,160.00,2.1276,1.7879,0.1797,-0.0001,-0.0000,2.5324,flat,18.0,0,4.944
5010,160.32,1.6696,2.1177,0.1797,-0.0001,-0.0000,2.4972,flat,18.0,0,4.394
5020,160.64,1.2228,2.4636,0.1797,-0.0001,-0.0000,2.4643,flat,18.0,0,3.843
5030,160.96,0.7873,2.8243,0.1797,-0.0001,-0.0000,2.4325,flat,18.0,0,3.291
5040,161.28,0.3634,3.1987,0.1797,-0.0001,-0.0000,2.3996,flat,18.0,0,2.740
5050,161.60,-0.0473,3.5870,0.1797,-0.0001,0.0000,2.3644,flat,18.0,0,2.191
5060,161.92,-0.4420,3.9894,0.1797,-0.0001,0.0000,2.3242,flat,18.0,0,1.648
5070,162.24,-0.8151,4.4065,0.1797,-0.0002,0.0000,2.2694,flat,18.0,0,1.117
5080,162.56,-1.1488,4.8380,0.1798,-0.0001,-0.0001,2.1563,flat,18.0,1,2.535
5090,162.88,-1.4249,5.3050,0.1799,-0.0001,-0.0000,1.9939,rough,14.0,1,2.104
5100,163.20,-1.5910,5.6998,0.1798,-0.0003,0.0000,1.8651,flat,18.0,1,1.765
5110,163.52,-1.7281,6.2118,0.1799,-0.0000,-0.0000,1.6679,flat,18.0,1,1.358
5120,163.84,-1.7559,6.7348,0.1799,-0.0000,0.0000,1.3826,flat,18.0,1,0.973
5130,164.16,-1.6534,7.1568,0.1799,0.0001,0.0001,1.0402,flat,18.0,2,8.419
5140,164.48,-1.4338,7.4456,0.1799,0.0001,-0.0001,0.7299,flat,18.0,2,8.364
5150,164.80,-1.1068,7.6873,0.1799,-0.0000,0.0001,0.4675,rough,14.0,2,8.209
5160,165.12,-0.7431,7.8509,0.1799,-0.0000,-0.0002,0.2763,flat,18.0,2,7.996
5170,165.44,-0.2523,7.9656,0.1799,-0.0000,-0.0001,0.0359,flat,18.0,2,7.667
5180,165.76,0.2763,7.9644,0.1799,-0.0001,-0.0000,-0.1597,flat,18.0,2,7.255
5190,166.08,0.8078,7.8605,0.1799,-0.0001,-0.0000,-0.3064,flat,18.0,2,6.786
5200,166.40,1.3255,7.6798,0.1798,-0.0004,-0.0000,-0.4149,flat,18.0,2,6.285
5210,166.72,1.8254,7.4439,0.1798,-0.0004,-0.0000,-0.4994,flat,18.0,2,5.765
5220,167.04,2.3072,7.1661,0.1797,-0.0003,-0.0000,-0.5685,flat,18.0,2,5.233
5230,167.36,2.7713,6.8552,0.1797,-0.0002,-0.0000,-0.6271,flat,18.0,2,4.693
5240,167.68,3.2184,6.5171,0.1797,-0.0002,-0.0000,-0.6787,flat,18.0,2,4.147
5250,168.00,3.6485,6.1558,0.1797,-0.0002,-0.0000,-0.7254,flat,18.0,2,3.597
5260,168.32,4.0619,5.7746,0.1797,-0.0002,-0.0000,-0.7696,flat,18.0,2,3.045
5270,168.64,4.4580,5.3752,0.1797,-0.0002,0.0000,-0.8138,flat,18.0,2,2.491
5280,168.96,4.8343,4.9589,0.1797,-0.0002,0.0000,-0.8616,flat,18.0,2,1.939
5290,169.28,5.1883,4.5261,0.1797,-0.0002,-0.0000,-0.9182,flat,18.0,2,1.388
5300,169.60,5.5144,4.0745,0.1798,-0.0003,0.0000,-1.0010,flat,18.0,2,0.841
5310,169.92,5.8194,3.6075,0.1798,0.0001,-0.0000,-0.9674,flat,18.0,3,2.765
5320,170.24,6.0873,3.2277,0.1797,0.0001,0.0001,-0.9355,rough,14.0,3,2.317
5330,170.56,6.3804,2.8428,0.1797,0.0001,-0.0002,-0.8976,flat,18.0,3,1.854
5340,170.88,6.7381,2.4149,0.1797,0.0002,-0.0000,-0.8376,flat,18.0,3,1.328
5350,171.20,7.1195,2.0201,0.1798,0.0003,0.0000,-0.7486,flat,18.0,3,0.828
5360,171.52,7.3477,1.7972,0.1796,0.0006,-0.0019,-1.0672,flat,18.0,0,9.282
5370,171.84,7.4776,1.5419,0.1794,-0.0027,-0.0000,-1.5517,flat,18.0,0,9.504
5380,172.16,7.4733,1.2283,0.1798,0.0001,0.0000,-2.0251,flat,18.0,0,9.633
5390,172.48,7.2839,0.9334,0.1799,0.0000,-0.0001,-2.3543,flat,18.0,0,9.599
5400,172.80,6.9483,0.6619,0.1799,0.0000,-0.0000,-2.6229,flat,18.0,0,9.440
5410,173.12,6.5126,0.4502,0.1799,-0.0000,-0.0000,-2.8718,flat,18.0,0,9.181
5420,173.44,6.0093,0.3353,0.1799,-0.0001,-0.0000,-3.0913,flat,18.0,0,8.830
5430,173.76,5.4728,0.3284,0.1799,-0.0001,0.0000,3.0130,flat,18.0,0,8.403
5440,174.08,4.9322,0.4152,0.1799,-0.0002,-0.0000,2.8802,flat,18.0,0,7.927
5450,174.40,4.4021,0.5712,0.1798,-0.0004,-0.0000,2.7838,flat,18.0,0,7.422
5460,174.72,3.8852,0.7770,0.1798,-0.0003,-0.0000,2.7090,flat,18.0,0,6.900
5470,175.04,3.3819,1.0210,0.1797,-0.0002,-0.0000,2.6485,flat,18.0,0,6.367
5480,175.36,2.8919,1.2952,0.1797,-0.0002,-0.0000,2.5977,flat,18.0,0,5.826
5490,175.68,2.4150,1.5942,0.1797,-0.0002,-0.0000,2.5553,flat,18.0,0,5.281
5500,176.00,1.9501,1.9133,0.1797,-0.0001,-0.0000,2.5183,flat,18.0,0,4.732
5510,176.32,1.4965,2.2496,0.1797,-0.0001,-0.0000,2.4842,flat,18.0,0,4.182
5520,176.64,1.0540,2.6014,0.1797,-0.0001,-0.0000,2.4519,flat,18.0,0,3.630
5530,176.96,0.6229,2.9674,0.1797,-0.0001,-0.0000,2.4200,flat,18.0,0,3.078
5540,177.28,0.2038,3.3472,0.1797,-0.0001,0.0000,2.3863,flat,18.0,0,2.528
5550,177.60,-0.2012,3.7409,0.1797,-0.0001,0.0000,2.3499,flat,18.0,0,1.980
5560,177.92,-0.5885,4.1488,0.1797,-0.0002,0.0000,2.3057,flat,18.0,0,1.441
5570,178.24,-0.9515,4.5719,0.1797,-0.0002,0.0000,2.2391,flat,18.0,0,0.920
5580,178.56,-1.2621,5.0135,0.1799,-0.0001,-0.0000,2.0970,flat,18.0,1,2.369
5590,178.88,-1.4891,5.4441,0.1798,-0.0002,0.0001,1.9509,rough,14.0,1,1.982
5600,179.20,-1.6471,5.8786,0.1798,-0.0002,-0.0003,1.8124,flat,18.0,1,1.618
5610,179.52,-1.7543,6.4041,0.1799,-0.0001,-0.0000,1.5705,flat,18.0,1,1.214
5620,179.84,-1.7302,6.9142,0.1799,-0.0000,0.0000,1.2601,flat,18.0,1,0.844
5630,180.16,-1.5878,7.2722,0.1799,0.0002,0.0000,0.9129,flat,18.0,2,8.415
5640,180.48,-1.3124,7.5474,0.1799,0.0000,-0.0001,0.6191,flat,18.0,2,8.311
5650,180.80,-0.9744,7.7555,0.1799,-0.0001,-0.0000,0.3830,rough,14.0,2,8.134
5660,181.12,-0.5400,7.9113,0.1799,-0.0000,-0.0000,0.1681,flat,18.0,2,7.865
5670,181.44,-0.0269,7.9749,0.1799,-0.0001,0.0000,-0.0547,flat,18.0,2,7.496
5680,181.76,0.5063,7.9258,0.1799,-0.0001,-0.0000,-0.2290,flat,18.0,2,7.055
5690,182.08,1.0330,7.7848,0.1799,-0.0003,-0.0000,-0.3578,flat,18.0,2,6.569
5700,182.40,1.5431,7.5778,0.1798,-0.0004,-0.0000,-0.4541,flat,18.0,2,6.059
5710,182.72,2.0352,7.3224,0.1798,-0.0003,-0.0000,-0.5308,flat,18.0,2,5.533
5720,183.04,2.5094,7.0294,0.1797,-0.0002,-0.0000,-0.5947,flat,18.0,2,4.996
5730,183.36,2.9662,6.7062,0.1797,-0.0002,-0.0000,-0.6498,flat,18.0,2,4.453
5740,183.68,3.4061,6.3578,0.1797,-0.0002,-0.0000,-0.6990,flat,18.0,2,3.905
5750,184.00,3.8291,5.9878,0.1797,-0.0002,-0.0000,-0.7440,flat,18.0,2,3.354
5760,184.32,4.2355,5.5988,0.1797,-0.0002,-0.0000,-0.7879,flat,18.0,2,2.801
5770,184.64,4.6237,5.1922,0.1797,-0.0002,0.0000,-0.8332,flat,18.0,2,2.248
5780,184.96,4.9908,4.7693,0.1797,-0.0002,0.0000,-0.8831,flat,18.0,2,1.696
5790,185.28,5.3347,4.3286,0.1797,-0.0002,0.0000,-0.9487,flat,18.0,2,1.146
5800,185.60,5.6423,3.8698,0.1798,-0.0003,-0.0001,-0.9937,flat,18.0,3,3.071
5810,185.92,5.9432,3.4209,0.1798,0.0001,0.0004,-0.9561,rough,14.0,3,2.550
5820,186.24,6.2000,3.0672,0.1797,0.0001,0.0000,-0.9233,rough,14.0,3,2.131
5830,186.56,6.5288,2.6488,0.1797,0.0002,-0.0001,-0.8750,flat,18.0,3,1.625
5840,186.88,6.8961,2.2332,0.1797,0.0002,0.0000,-0.8049,flat,18.0,3,1.108
5850,187.20,7.2537,1.8902,0.1805,0.0002,0.0058,-0.7497,flat,18.0,0,9.159
5860,187.52,7.4133,1.6923,0.1796,-0.0004,0.0004,-1.2193,flat,18.0,0,9.384
5870,187.84,7.5044,1.3932,0.1798,0.0002,-0.0000,-1.7627,flat,18.0,0,9.590
5880,188.16,7.4268,1.0912,0.1799,0.0001,-0.0001,-2.1682,flat,18.0,0,9.653
5890,188.48,7.1721,0.8028,0.1799,0.0000,-0.0001,-2.4613,flat,18.0,0,9.564
5900,188.80,6.7942,0.5490,0.1799,-0.0000,-0.0000,-2.7240,flat,18.0,0,9.366
5910,189.12,6.3278,0.3725,0.1799,-0.0000,-0.0000,-2.9626,flat,18.0,0,9.070
5920,189.44,5.8078,0.3003,0.1799,-0.0001,-0.0000,3.1139,flat,18.0,0,8.688
5930,189.76,5.2671,0.3338,0.1799,-0.0001,-0.0000,2.9533,flat,18.0,0,8.238
5940,190.08,4.7301,0.4516,0.1799,-0.0004,-0.0000,2.8376,flat,18.0,0,7.748
5950,190.40,4.2053,0.6297,0.1798,-0.0004,-0.0000,2.7511,flat,18.0,0,7.236
5960,190.72,3.6940,0.8524,0.1797,-0.0003,-0.0000,2.6826,flat,18.0,0,6.709
5970,191.04,3.1963,1.1096,0.1797,-0.0002,-0.0000,2.6264,flat,18.0,0,6.172
5980,191.36,2.7116,1.3946,0.1797,-0.0002,-0.0000,2.5788,flat,18.0,0,5.629
5990,191.68,2.2401,1.7026,0.1797,-0.0001,-0.0000,2.5395,flat,18.0,0,5.083
6000,192.00,1.7799,2.0290,0.1797,-0.0001,-0.0000,2.5038,flat,18.0,0,4.533
6010,192.32,1.3309,2.3720,0.1797,-0.0001,-0.0000,2.4706,flat,18.0,0,3.982
6020,192.64,0.8931,2.7299,0.1797,-0.0001,-0.0000,2.4388,flat,18.0,0,3.430
6030,192.96,0.4668,3.1016,0.1797,-0.0001,-0.0000,2.4065,flat,18.0,0,2.878
6040,193.28,0.0531,3.4871,0.1797,-0.0001,0.0000,2.3721,flat,18.0,0,2.329
6050,193.60,-0.3455,3.8865,0.1797,-0.0001,0.0000,2.3339,flat,18.0,0,1.783
6060,193.92,-0.7243,4.3002,0.1797,-0.0002,0.0000,2.2844,flat,18.0,0,1.248
6070,194.24,-1.0720,4.7269,0.1798,-0.0002,0.0003,2.1865,flat,18.0,1,2.644
6080,194.56,-1.3609,5.1847,0.1799,-0.0001,-0.0000,2.0341,flat,18.0,1,2.212
6090,194.88,-1.5542,5.6065,0.1798,-0.0003,0.0001,1.8953,rough,14.0,1,1.843
6100,195.20,-1.7012,6.0931,0.1799,-0.0000,-0.0000,1.7212,flat,18.0,1,1.447
6110,195.52,-1.7586,6.6198,0.1799,-0.0000,0.0000,1.4523,flat,18.0,1,1.053
6120,195.84,-1.6818,7.0901,0.1799,-0.0000,0.0003,1.0985,flat,18.0,2,8.414
6130,196.16,-1.4889,7.3892,0.1799,0.0001,-0.0001,0.7851,flat,18.0,2,8.384
6140,196.48,-1.1743,7.6432,0.1799,-0.0001,0.0002,0.5143,rough,14.0,2,8.243
6150,196.80,-0.8303,7.8162,0.1799,-0.0000,-0.0002,0.3217,flat,18.0,2,8.048
6160,197.12,-0.3529,7.9500,0.1799,-0.0001,-0.0000,0.0819,flat,18.0,2,7.738
6170,197.44,0.1719,7.9708,0.1799,-0.0001,0.0000,-0.1240,flat,18.0,2,7.339
6180,197.76,0.7048,7.8850,0.1799,-0.0001,-0.0000,-0.2817,flat,18.0,2,6.879
6190,198.08,1.2257,7.7170,0.1799,-0.0004,-0.0000,-0.3963,flat,18.0,2,6.383
6200,198.40,1.7292,7.4905,0.1798,-0.0004,-0.0000,-0.4844,flat,18.0,2,5.866
6210,198.72,2.2145,7.2201,0.1798,-0.0003,-0.0000,-0.5559,flat,18.0,2,5.336
6220,199.04,2.6821,6.9151,0.1797,-0.0002,-0.0000,-0.6162,flat,18.0,2,4.796
6230,199.36,3.1325,6.5820,0.1797,-0.0002,-0.0000,-0.6689,flat,18.0,2,4.251
6240,199.68,3.5660,6.2251,0.1797,-0.0002,-0.0000,-0.7165,flat,18.0,2,3.702
6250,200.00,3.9828,5.8477,0.1797,-0.0002,-0.0000,-0.7608,flat,18.0,2,3.150
6260,200.32,4.3825,5.4518,0.1797,-0.0002,-0.0000,-0.8047,flat,18.0,2,2.597
6270,200.64,4.7630,5.0388,0.1797,-0.0002,0.0000,-0.8516,flat,18.0,2,2.044
6280,200.96,5.1216,4.6096,0.1797,-0.0002,-0.0000,-0.9054,flat,18.0,2,1.493
6290,201.28,5.4545,4.1618,0.1798,-0.0003,0.0000,-0.9812,flat,18.0,2,0.945
6300,201.60,5.7582,3.6964,0.1798,0.0000,-0.0000,-0.9751,flat,18.0,3,2.870
6310,201.92,6.0452,3.2839,0.1797,0.0001,0.0002,-0.9405,rough,14.0,3,2.385
6320,202.24,6.3140,2.9263,0.1797,0.0001,-0.0004,-0.9088,flat,18.0,3,1.956
6330,202.56,6.6672,2.4943,0.1797,0.0002,-0.0000,-0.8509,flat,18.0,3,1.428
6340,202.88,7.0438,2.0917,0.1798,0.0003,0.0000,-0.7703,flat,18.0,3,0.921
6350,203.20,7.3157,1.8354,0.1792,0.0000,-0.0042,-0.9790,flat,18.0,0,9.237
6360,203.52,7.4591,1.5995,0.1789,-0.0057,-0.0001,-1.4387,flat,18.0,0,9.463
6370,203.84,7.4921,1.2847,0.1798,0.0001,0.0000,-1.9449,flat,18.0,0,9.626
6380,204.16,7.3389,0.9880,0.1799,0.0000,-0.0001,-2.2968,flat,18.0,0,9.622
6390,204.48,7.0273,0.7099,0.1799,0.0000,-0.0001,-2.5703,flat,18.0,0,9.484
6400,204.80,6.6094,0.4825,0.1799,-0.0000,-0.0000,-2.8242,flat,18.0,0,9.245
6410,205.12,6.1167,0.3465,0.1799,-0.0001,-0.0000,-3.0501,flat,18.0,0,8.911
6420,205.44,5.5843,0.3185,0.1799,-0.0001,0.0000,3.0450,flat,18.0,0,8.498
6430,205.76,5.0428,0.3884,0.1799,-0.0002,-0.0000,2.9031,flat,18.0,0,8.029
6440,206.08,4.5102,0.5324,0.1798,-0.0004,-0.0000,2.8010,flat,18.0,0,7.529
6450,206.40,3.9906,0.7294,0.1798,-0.0003,-0.0000,2.7226,flat,18.0,0,7.010
6460,206.72,3.4846,0.9665,0.1797,-0.0002,-0.0000,2.6596,flat,18.0,0,6.478
6470,207.04,2.9920,1.2352,0.1797,-0.0002,-0.0000,2.6072,flat,18.0,0,5.939
6480,207.36,2.5125,1.5297,0.1797,-0.0002,-0.0000,2.5632,flat,18.0,0,5.394
6490,207.68,2.0454,1.8450,0.1797,-0.0001,-0.0000,2.5255,flat,18.0,0,4.846
6500,208.00,1.5895,2.1780,0.1797,-0.0001,-0.0000,2.4909,flat,18.0,0,4.296
6510,208.32,1.1447,2.5268,0.1797,-0.0001,-0.0000,2.4583,flat,18.0,0,3.745
6520,208.64,0.7113,2.8901,0.1797,-0.0001,-0.0000,2.4266,flat,18.0,0,3.193
6530,208.96,0.2897,3.2670,0.1797,-0.0001,-0.0000,2.3933,flat,18.0,0,2.642
6540,209.28,-0.1184,3.6579,0.1797,-0.0001,0.0000,2.3577,flat,18.0,0,2.094
6550,209.60,-0.5099,4.0628,0.1797,-0.0001,0.0000,2.3159,flat,18.0,0,1.552
6560,209.92,-0.8786,4.4827,0.1797,-0.0002,0.0000,2.2564,flat,18.0,0,1.025
6570,210.24,-1.2014,4.9187,0.1799,-0.0000,-0.0000,2.1303,flat,18.0,1,2.458
6580,210.56,-1.4566,5.3738,0.1799,-0.0001,0.0003,1.9726,rough,14.0,1,2.043
6590,210.88,-1.6175,5.7849,0.1798,-0.0003,-0.0004,1.8486,flat,18.0,1,1.694
6600,211.20,-1.7421,6.3064,0.1799,-0.0001,-0.0000,1.6214,flat,18.0,1,1.286
6610,211.52,-1.7448,6.8245,0.1799,-0.0000,0.0000,1.3244,flat,18.0,1,0.908
6620,211.84,-1.6206,7.2193,0.1799,0.0003,0.0000,0.9729,flat,18.0,2,8.419
6630,212.16,-1.3712,7.4992,0.1799,0.0001,-0.0001,0.6693,flat,18.0,2,8.337
6640,212.48,-1.0315,7.7261,0.1799,-0.0000,0.0000,0.4172,rough,14.0,2,8.166
6650,212.80,-0.6364,7.8826,0.1799,-0.0000,-0.0001,0.2183,flat,18.0,2,7.927
6660,213.12,-0.1319,7.9709,0.1799,-0.0000,-0.0001,-0.0151,flat,18.0,2,7.575
6670,213.44,0.3997,7.9436,0.1799,-0.0001,-0.0000,-0.1978,flat,18.0,2,7.147
6680,213.76,0.9290,7.8193,0.1799,-0.0002,-0.0000,-0.3344,flat,18.0,2,6.669
6690,214.08,1.4427,7.6243,0.1798,-0.0004,-0.0000,-0.4361,flat,18.0,2,6.163
6700,214.40,1.9385,7.3778,0.1798,-0.0004,-0.0000,-0.5163,flat,18.0,2,5.639
6710,214.72,2.4163,7.0918,0.1797,-0.0002,-0.0000,-0.5825,flat,18.0,2,5.105
6720,215.04,2.8765,6.7743,0.1797,-0.0002,-0.0000,-0.6392,flat,18.0,2,4.563
6730,215.36,3.3198,6.4307,0.1797,-0.0002,-0.0000,-0.6895,flat,18.0,2,4.016
6740,215.68,3.7462,6.0647,0.1797,-0.0002,-0.0000,-0.7352,flat,18.0,2,3.465
6750,216.00,4.1559,5.6794,0.1797,-0.0002,-0.0000,-0.7792,flat,18.0,2,2.913
6760,216.32,4.5479,5.2762,0.1797,-0.0002,0.0000,-0.8239,flat,18.0,2,2.359
6770,216.64,4.9194,4.8564,0.1797,-0.0002,0.0000,-0.8728,flat,18.0,2,1.807
6780,216.96,5.2682,4.4195,0.1797,-0.0002,0.0000,-0.9339,flat,18.0,2,1.257
6790,217.28,5.5816,3.9658,0.1798,-0.0004,0.0002,-0.9971,flat,18.0,3,3.181
6800,217.60,5.8922,3.4961,0.1798,0.0001,-0.0000,-0.9607,rough,14.0,3,2.638
6810,217.92,6.1474,3.1381,0.1797,0.0001,0.0001,-0.9303,rough,14.0,3,2.215
6820,218.24,6.4578,2.7362,0.1797,0.0001,-0.0001,-0.8868,flat,18.0,3,1.731
6830,218.56,6.8202,2.3144,0.1797,0.0002,-0.0000,-0.8214,flat,18.0,3,1.210
6840,218.88,7.1998,1.9379,0.1814,0.0003,0.0116,-0.7249,flat,18.0,0,9.091
6850,219.20,7.3869,1.7387,0.1798,0.0009,-0.0003,-1.1464,flat,18.0,0,9.341
6860,219.52,7.4967,1.4577,0.1798,0.0002,-0.0000,-1.6608,flat,18.0,0,9.556
6870,219.84,7.4565,1.1512,0.1799,0.0001,-0.0001,-2.0982,flat,18.0,0,9.653
6880,220.16,7.2337,0.8591,0.1799,0.0001,-0.0001,-2.4070,flat,18.0,0,9.590
6890,220.48,6.8770,0.5954,0.1799,0.0000,-0.0000,-2.6731,flat,18.0,0,9.413
6900,220.80,6.4257,0.4004,0.1799,-0.0000,-0.0000,-2.9172,flat,18.0,0,9.136
6910,221.12,5.9136,0.3064,0.1799,-0.0001,-0.0000,-3.1310,flat,18.0,0,8.769
6920,221.44,5.3748,0.3201,0.1799,-0.0001,-0.0000,2.9820,flat,18.0,0,8.331
6930,221.76,4.8358,0.4231,0.1799,-0.0003,-0.0000,2.8580,flat,18.0,0,7.847
6940,222.08,4.3084,0.5906,0.1798,-0.0004,-0.0000,2.7667,flat,18.0,0,7.339
6950,222.40,3.7944,0.8053,0.1798,-0.0003,-0.0000,2.6952,flat,18.0,0,6.814
6960,222.72,3.2940,1.0562,0.1797,-0.0002,-0.0000,2.6369,flat,18.0,0,6.279
6970,223.04,2.8068,1.3361,0.1797,-0.0002,-0.0000,2.5877,flat,18.0,0,5.738
6980,223.36,2.3327,1.6399,0.1797,-0.0001,-0.0000,2.5470,flat,18.0,0,5.191
6990,223.68,1.8703,1.9628,0.1797,-0.0001,-0.0000,2.5107,flat,18.0,0,4.642
7000,224.00,1.4190,2.3026,0.1797,-0.0001,-0.0000,2.4770,flat,18.0,0,4.091
7010,224.32,0.9790,2.6577,0.1797,-0.0001,-0.0000,2.4450,flat,18.0,0,3.539
7020,224.64,0.5504,3.0267,0.1797,-0.0001,-0.0000,2.4131,flat,18.0,0,2.988
7030,224.96,0.1340,3.4094,0.1797,-0.0001,0.0000,2.3791,flat,18.0,0,2.438
7040,225.28,-0.2678,3.8061,0.1797,-0.0001,0.0000,2.3420,flat,18.0,0,1.891
7050,225.60,-0.6511,4.2168,0.1797,-0.0002,0.0000,2.2958,flat,18.0,0,1.353
7060,225.92,-1.0084,4.6430,0.1798,-0.0003,0.0000,2.2217,flat,18.0,0,0.837
7070,226.24,-1.3079,5.0906,0.1799,-0.0001,-0.0000,2.0673,flat,18.0,1,2.298
7080,226.56,-1.5230,5.5280,0.1798,-0.0002,0.0002,1.9211,rough,14.0,1,1.910
7090,226.88,-1.6758,5.9891,0.1799,-0.0001,-0.0001,1.7662,flat,18.0,1,1.529
7100,227.20,-1.7580,6.5162,0.1799,-0.0001,0.0000,1.5104,flat,18.0,1,1.129
7110,227.52,-1.7031,7.0134,0.1799,-0.0000,0.0000,1.1818,flat,18.0,2,0.771
7120,227.84,-1.5388,7.3338,0.1798,0.0001,-0.0001,0.8439,flat,18.0,2,8.401
7130,228.16,-1.2341,7.6033,0.1799,0.0000,-0.0001,0.5583,rough,14.0,2,8.273
7140,228.48,-0.9112,7.7828,0.1799,-0.0001,-0.0003,0.3589,flat,18.0,2,8.097
7150,228.80,-0.4526,7.9318,0.1799,-0.0001,-0.0000,0.1278,flat,18.0,2,7.807
7160,229.12,0.0665,7.9756,0.1799,-0.0001,0.0000,-0.0875,flat,18.0,2,7.423
7170,229.44,0.5998,7.9092,0.1799,-0.0001,-0.0000,-0.2543,flat,18.0,2,6.973
7180,229.76,1.1239,7.7554,0.1799,-0.0003,-0.0000,-0.3761,flat,18.0,2,6.483
7190,230.08,1.6309,7.5391,0.1798,-0.0004,-0.0000,-0.4685,flat,18.0,2,5.969
7200,230.40,2.1199,7.2764,0.1798,-0.0003,-0.0000,-0.5428,flat,18.0,2,5.441
7210,230.72,2.5909,6.9777,0.1797,-0.0002,-0.0000,-0.6050,flat,18.0,2,4.904
7220,231.04,3.0447,6.6498,0.1797,-0.0002,-0.0000,-0.6589,flat,18.0,2,4.360
7230,231.36,3.4816,6.2974,0.1797,-0.0002,-0.0000,-0.7074,flat,18.0,2,3.811
7240,231.68,3.9016,5.9238,0.1797,-0.0002,-0.0000,-0.7520,flat,18.0,2,3.260
7250,232.00,4.3048,5.5314,0.1797,-0.0002,-0.0000,-0.7958,flat,18.0,2,2.706
7260,232.32,4.6894,5.1218,0.1797,-0.0002,0.0000,-0.8420,flat,18.0,2,2.153
7270,232.64,5.0524,4.6960,0.1797,-0.0002,0.0000,-0.8932,flat,18.0,2,1.602
7280,232.96,5.3914,4.2518,0.1797,-0.0002,0.0000,-0.9634,flat,18.0,2,1.053
7290,233.28,5.6962,3.7895,0.1798,-0.0001,-0.0001,-0.9827,flat,18.0,3,2.978
7300,233.60,5.9872,3.3638,0.1797,0.0001,0.0002,-0.9483,rough,14.0,3,2.480
7310,233.92,6.2468,3.0120,0.1797,0.0001,0.0000,-0.9158,rough,14.0,3,2.061
7320,234.24,6.5868,2.5868,0.1797,0.0002,-0.0001,-0.8651,flat,18.0,3,1.543
7330,234.56,6.9580,2.1761,0.1797,0.0003,0.0000,-0.7919,flat,18.0,3,1.030
7340,234.88,7.2781,1.8743,0.1787,0.0001,-0.0064,-0.8488,flat,18.0,0,9.188
7350,235.20,7.4254,1.6608,0.1783,-0.0099,-0.0001,-1.3378,flat,18.0,0,9.408
7360,235.52,7.4908,1.3521,0.1798,0.0001,0.0001,-1.8596,flat,18.0,0,9.595
7370,235.84,7.3739,1.0530,0.1799,0.0000,-0.0001,-2.2359,flat,18.0,0,9.623
7380,236.16,7.0886,0.7692,0.1799,0.0000,-0.0001,-2.5174,flat,18.0,0,9.507
7390,236.48,6.6895,0.5279,0.1799,-0.0000,-0.0000,-2.7758,flat,18.0,0,9.288
7400,236.80,6.2088,0.3716,0.1799,-0.0001,-0.0000,-3.0078,flat,18.0,0,8.973
7410,237.12,5.6816,0.3221,0.1799,-0.0001,0.0000,3.0785,flat,18.0,0,8.573
7420,237.44,5.1400,0.3743,0.1799,-0.0001,-0.0000,2.9273,flat,18.0,0,8.113
7430,237.76,4.6050,0.5057,0.1798,-0.0004,-0.0000,2.8189,flat,18.0,0,7.618
7440,238.08,4.0828,0.6934,0.1798,-0.0004,-0.0000,2.7367,flat,18.0,0,7.102
7450,238.40,3.5742,0.9235,0.1797,-0.0002,-0.0000,2.6710,flat,18.0,0,6.573
7460,238.72,3.0790,1.1865,0.1797,-0.0002,-0.0000,2.6167,flat,18.0,0,6.035
7470,239.04,2.5968,1.4763,0.1797,-0.0002,-0.0000,2.5709,flat,18.0,0,5.491
7480,239.36,2.1276,1.7879,0.1797,-0.0001,-0.0000,2.5324,flat,18.0,0,4.944
7490,239.68,1.6695,2.1177,0.1797,-0.0001,-0.0000,2.4972,flat,18.0,0,4.394
7500,240.00,1.2227,2.4637,0.1797,-0.0001,-0.0000,2.4643,flat,18.0,0,3.843
7510,240.32,0.7872,2.8243,0.1797,-0.0001,-0.0000,2.4324,flat,18.0,0,3.291
7520,240.64,0.3634,3.1988,0.1797,-0.0001,-0.0000,2.3996,flat,18.0,0,2.740
7530,240.96,-0.0473,3.5871,0.1797,-0.0001,0.0000,2.3643,flat,18.0,0,2.191
7540,241.28,-0.4421,3.9895,0.1797,-0.0001,0.0000,2.3242,flat,18.0,0,1.647
7550,241.60,-0.8152,4.4066,0.1797,-0.0002,0.0000,2.2693,flat,18.0,0,1.117
7560,241.92,-1.1489,4.8381,0.1798,-0.0001,-0.0001,2.1563,flat,18.0,1,2.535
7570,242.24,-1.4249,5.3051,0.1799,-0.0001,-0.0000,1.9939,rough,14.0,1,2.104
7580,242.56,-1.5911,5.6999,0.1798,-0.0003,0.0000,1.8651,flat,18.0,1,1.765
7590,242.88,-1.7281,6.2119,0.1799,-0.0000,-0.0000,1.6679,flat,18.0,1,1.358
7600,243.20,-1.7559,6.7349,0.1799,-0.0000,0.0000,1.3826,flat,18.0,1,0.972
7610,243.52,-1.6534,7.1569,0.1799,0.0001,0.0001,1.0401,flat,18.0,2,8.419
7620,243.84,-1.4338,7.4457,0.1799,0.0001,-0.0001,0.7298,flat,18.0,2,8.364
7630,244.16,-1.1067,7.6874,0.1799,-0.0000,0.0001,0.4674,rough,14.0,2,8.209
7640,244.48,-0.7430,7.8510,0.1799,-0.0000,-0.0002,0.2762,flat,18.0,2,7.996
7650,244.80,-0.2522,7.9657,0.1799,-0.0000,-0.0001,0.0358,flat,18.0,2,7.667
7660,245.12,0.2764,7.9644,0.1799,-0.0001,-0.0000,-0.1597,flat,18.0,2,7.254
7670,245.44,0.8079,7.8605,0.1799,-0.0001,-0.0000,-0.3064,flat,18.0,2,6.786
7680,245.76,1.3256,7.6798,0.1798,-0.0004,-0.0000,-0.4150,flat,18.0,2,6.285
7690,246.08,1.8255,7.4439,0.1798,-0.0004,-0.0000,-0.4994,flat,18.0,2,5.765
7700,246.40,2.3073,7.1661,0.1797,-0.0003,-0.0000,-0.5685,flat,18.0,2,5.233
7710,246.72,2.7714,6.8552,0.1797,-0.0002,-0.0000,-0.6272,flat,18.0,2,4.693
7720,247.04,3.2184,6.5170,0.1797,-0.0002,-0.0000,-0.6787,flat,18.0,2,4.147
7730,247.36,3.6486,6.1558,0.1797,-0.0002,-0.0000,-0.7254,flat,18.0,2,3.597
7740,247.68,4.0620,5.7746,0.1797,-0.0002,-0.0000,-0.7696,flat,18.0,2,3.045
7750,248.00,4.4581,5.3752,0.1797,-0.0002,0.0000,-0.8138,flat,18.0,2,2.491
7760,248.32,4.8343,4.9588,0.1797,-0.0002,0.0000,-0.8616,flat,18.0,2,1.939
7770,248.64,5.1883,4.5261,0.1797,-0.0002,-0.0000,-0.9183,flat,18.0,2,1.388
7780,248.96,5.5144,4.0744,0.1798,-0.0003,0.0000,-1.0010,flat,18.0,2,0.841
7790,249.28,5.8194,3.6074,0.1798,0.0001,-0.0000,-0.9674,flat,18.0,3,2.765
7800,249.60,6.0873,3.2276,0.1797,0.0001,0.0001,-0.9355,rough,14.0,3,2.317
7810,249.92,6.3804,2.8427,0.1797,0.0001,-0.0002,-0.8976,flat,18.0,3,1.854
7820,250.24,6.7382,2.4148,0.1797,0.0002,-0.0000,-0.8376,flat,18.0,3,1.328
7830,250.56,7.1195,2.0201,0.1798,0.0003,0.0000,-0.7486,flat,18.0,3,0.828
7840,250.88,7.3477,1.7971,0.1796,0.0006,-0.0019,-1.0673,flat,18.0,0,9.282
7850,251.20,7.4776,1.5418,0.1794,-0.0027,-0.0000,-1.5517,flat,18.0,0,9.504
7860,251.52,7.4733,1.2282,0.1798,0.0001,0.0000,-2.0251,flat,18.0,0,9.634
7870,251.84,7.2839,0.9334,0.1799,0.0000,-0.0001,-2.3543,flat,18.0,0,9.599
7880,252.16,6.9483,0.6619,0.1799,0.0000,-0.0000,-2.6229,flat,18.0,0,9.440
7890,252.48,6.5126,0.4502,0.1799,-0.0000,-0.0000,-2.8719,flat,18.0,0,9.181
7900,252.80,6.0093,0.3352,0.1799,-0.0001,-0.0000,-3.0913,flat,18.0,0,8.830
7910,253.12,5.4727,0.3284,0.1799,-0.0001,0.0000,3.0130,flat,18.0,0,8.403
7920,253.44,4.9322,0.4152,0.1799,-0.0002,-0.0000,2.8802,flat,18.0,0,7.927
7930,253.76,4.4020,0.5711,0.1798,-0.0004,-0.0000,2.7838,flat,18.0,0,7.422
7940,254.08,3.8852,0.7770,0.1798,-0.0003,-0.0000,2.7090,flat,18.0,0,6.900
7950,254.40,3.3819,1.0210,0.1797,-0.0002,-0.0000,2.6484,flat,18.0,0,6.367
7960,254.72,2.8919,1.2952,0.1797,-0.0002,-0.0000,2.5977,flat,18.0,0,5.826
7970,255.04,2.4150,1.5942,0.1797,-0.0002,-0.0000,2.5553,flat,18.0,0,5.281
7980,255.36,1.9501,1.9133,0.1797,-0.0001,-0.0000,2.5183,flat,18.0,0,4.732
7990,255.68,1.4965,2.2496,0.1797,-0.0001,-0.0000,2.4842,flat,18.0,0,4.182
8000,256.00,1.0540,2.6014,0.1797,-0.0001,-0.0000,2.4519,flat,18.0,0,3.630
8010,256.32,0.6229,2.9674,0.1797,-0.0001,-0.0000,2.4200,flat,18.0,0,3.078
8020,256.64,0.2038,3.3472,0.1797,-0.0001,0.0000,2.3863,flat,18.0,0,2.528
8030,256.96,-0.2012,3.7409,0.1797,-0.0001,0.0000,2.3499,flat,18.0,0,1.980
8040,257.28,-0.5885,4.1488,0.1797,-0.0002,0.0000,2.3057,flat,18.0,0,1.441
8050,257.60,-0.9515,4.5719,0.1797,-0.0002,0.0000,2.2391,flat,18.0,0,0.919
8060,257.92,-1.2621,5.0135,0.1799,-0.0001,-0.0000,2.0969,flat,18.0,1,2.369
8070,258.24,-1.4891,5.4442,0.1798,-0.0002,0.0001,1.9509,rough,14.0,1,1.982
8080,258.56,-1.6471,5.8786,0.1798,-0.0002,-0.0003,1.8124,flat,18.0,1,1.618
8090,258.88,-1.7543,6.4041,0.1799,-0.0001,-0.0000,1.5705,flat,18.0,1,1.214
8100,259.20,-1.7302,6.9142,0.1799,-0.0000,0.0000,1.2601,flat,18.0,1,0.844
8110,259.52,-1.5877,7.2722,0.1799,0.0002,0.0000,0.9129,flat,18.0,2,8.415
8120,259.84,-1.3124,7.5474,0.1799,0.0000,-0.0001,0.6191,flat,18.0,2,8.311
