step,time_s,x,y,z,roll,pitch,yaw,terrain,speed,target_idx,dist_to_target
10,0.32,-1.3650,0.8840,0.1723,-0.0000,0.0000,0.0015,flat,18.0,0,6.084
20,0.64,-1.3650,0.8840,0.1799,-0.0000,-0.0000,0.5162,flat,18.0,0,6.084
30,0.96,-1.3312,0.9454,0.1799,-0.0004,-0.0001,1.7480,flat,18.0,0,6.079
40,1.28,-1.3926,1.1192,0.1798,0.0001,-0.0002,2.5759,flat,18.0,0,5.935
50,1.60,-1.7185,1.2784,0.1799,-0.0001,-0.0001,2.9501,flat,18.0,0,5.574
60,1.92,-2.1713,1.3582,0.1799,0.0001,-0.0001,2.8939,flat,18.0,0,5.149
70,2.24,-2.6486,1.5078,0.1799,-0.0001,-0.0000,2.6786,flat,18.0,0,4.670
80,2.56,-3.1038,1.7636,0.1799,-0.0002,-0.0000,2.5413,flat,18.0,0,4.151
90,2.88,-3.5422,2.0857,0.1798,-0.0003,-0.0000,2.4639,flat,18.0,0,3.607
100,3.20,-3.9734,2.4452,0.1797,-0.0001,-0.0000,2.4311,flat,18.0,0,3.047
110,3.52,-4.4065,2.8206,0.1797,-0.0000,-0.0000,2.4275,flat,18.0,0,2.478
120,3.84,-4.8385,3.1908,0.1797,0.0000,0.0000,2.4420,flat,18.0,0,1.915
130,4.16,-5.2394,3.5222,0.1797,0.0001,0.0001,2.4627,flat,18.0,0,1.402
140,4.48,-5.6070,3.8087,0.1797,0.0001,-0.0000,2.5193,flat,18.0,1,6.532
150,4.80,-5.9255,4.0330,0.1798,0.0000,0.0002,2.4670,flat,18.0,1,6.807
160,5.12,-6.1189,4.2274,0.1798,0.0002,0.0001,1.9926,flat,18.0,1,6.971
170,5.44,-6.2209,4.4564,0.1799,0.0003,-0.0001,1.1336,flat,18.0,1,7.049
180,5.76,-6.0120,4.7692,0.1799,-0.0011,0.0013,0.7093,flat,18.0,1,6.819
190,6.08,-5.6298,5.0355,0.1799,0.0001,-0.0000,0.4038,flat,18.0,1,6.430
200,6.40,-5.1673,5.1974,0.1799,-0.0000,-0.0000,0.0744,flat,18.0,1,5.968
210,6.72,-4.6597,5.2057,0.1799,-0.0001,-0.0000,-0.1871,flat,18.0,1,5.461
220,7.04,-4.1341,5.0869,0.1798,-0.0003,-0.0001,-0.3055,flat,18.0,1,4.934
230,7.36,-3.5940,4.9113,0.1798,-0.0000,0.0000,-0.3108,flat,18.0,1,4.397
240,7.68,-3.0635,4.7479,0.1798,0.0003,0.0000,-0.2302,flat,18.0,1,3.878
250,8.00,-2.5324,4.6369,0.1799,0.0002,0.0000,-0.0885,flat,18.0,1,3.362
260,8.32,-1.9935,4.6057,0.1799,0.0001,-0.0000,0.0683,flat,18.0,1,2.834
270,8.64,-1.4495,4.6566,0.1798,0.0004,-0.0000,0.1784,flat,18.0,1,2.289
280,8.96,-0.9099,4.7634,0.1798,0.0003,0.0000,0.2399,flat,18.0,1,1.739
290,9.28,-0.4266,4.8853,0.1797,0.0001,0.0001,0.2599,flat,18.0,1,1.242
300,9.60,-0.0055,5.0028,0.1797,-0.0000,0.0000,0.2096,flat,18.0,2,10.120
310,9.92,0.4336,5.0672,0.1799,0.0001,-0.0000,-0.2575,flat,18.0,2,9.793
320,10.24,0.8610,4.9128,0.1799,0.0000,-0.0000,-0.5783,flat,18.0,2,9.355
330,10.56,1.2549,4.6085,0.1799,-0.0001,-0.0000,-0.7618,flat,18.0,2,8.858
340,10.88,1.6237,4.2208,0.1798,-0.0003,-0.0001,-0.8587,flat,18.0,2,8.332
350,11.20,1.9842,3.7872,0.1797,-0.0001,-0.0000,-0.8872,flat,18.0,2,7.790
360,11.52,2.3440,3.3533,0.1797,0.0001,0.0000,-0.8603,flat,18.0,2,7.251
370,11.84,2.7126,2.9454,0.1797,0.0002,0.0000,-0.8001,flat,18.0,2,6.722
380,12.16,3.1044,2.5672,0.1797,0.0003,-0.0000,-0.7262,flat,18.0,2,6.192
390,12.48,3.5250,2.2166,0.1798,0.0003,-0.0000,-0.6511,flat,18.0,2,5.652
400,12.80,3.9742,1.8917,0.1797,0.0002,-0.0000,-0.5886,flat,18.0,2,5.102
410,13.12,4.4462,1.5884,0.1797,0.0001,-0.0000,-0.5489,flat,18.0,2,4.542
420,13.44,4.9338,1.2961,0.1797,0.0001,-0.0000,-0.5295,flat,18.0,2,3.975
430,13.76,5.4302,1.0072,0.1797,0.0000,-0.0000,-0.5259,flat,18.0,2,3.401
440,14.08,5.9254,0.7185,0.1797,-0.0000,0.0000,-0.5324,flat,18.0,2,2.828
450,14.40,6.4161,0.4267,0.1797,-0.0000,0.0000,-0.5439,flat,18.0,2,2.259
460,14.72,6.8950,0.1335,0.1797,-0.0000,0.0001,-0.5553,flat,18.0,2,1.701
470,15.04,7.3157,-0.1303,0.1797,-0.0000,0.0001,-0.5647,flat,18.0,2,1.212
480,15.36,7.7382,-0.4010,0.1797,-0.0000,-0.0001,-0.5765,flat,18.0,3,5.668
490,15.68,8.1385,-0.6682,0.1797,-0.0001,0.0001,-0.6220,flat,18.0,3,5.772
500,16.00,8.4558,-0.9095,0.1797,-0.0002,0.0001,-0.7112,flat,18.0,3,5.864
510,16.32,8.6968,-1.1390,0.1797,-0.0002,0.0001,-0.8351,flat,18.0,3,5.924
520,16.64,8.8753,-1.3624,0.1797,-0.0002,0.0001,-0.9917,flat,18.0,3,5.952
530,16.96,9.0066,-1.5816,0.1797,-0.0002,0.0000,-1.1801,flat,18.0,3,5.954
540,17.28,9.0959,-1.7960,0.1797,-0.0002,0.0000,-1.3969,flat,18.0,3,5.932
550,17.60,9.1431,-2.0038,0.1797,-0.0002,0.0000,-1.6363,flat,18.0,3,5.884
560,17.92,9.1390,-2.2028,0.1797,-0.0002,-0.0000,-1.8374,flat,18.0,3,5.799
570,18.24,9.0885,-2.3968,0.1797,-0.0002,-0.0000,-1.9928,flat,18.0,3,5.678
580,18.56,8.9963,-2.5910,0.1797,-0.0001,-0.0000,-2.1076,flat,18.0,3,5.523
590,18.88,8.8661,-2.7946,0.1797,-0.0001,-0.0001,-2.2011,flat,18.0,3,5.333
600,19.20,8.6950,-3.0130,0.1797,-0.0001,-0.0001,-2.2763,flat,18.0,3,5.104
610,19.52,8.4787,-3.2525,0.1797,-0.0001,-0.0001,-2.3382,flat,18.0,3,4.831
620,19.84,8.2097,-3.5185,0.1797,-0.0001,-0.0001,-2.3853,flat,18.0,3,4.507
630,20.16,7.8802,-3.8189,0.1797,-0.0001,-0.0001,-2.4169,flat,18.0,3,4.126
640,20.48,7.4821,-4.1662,0.1797,-0.0000,-0.0001,-2.4284,flat,18.0,3,3.688
650,20.80,7.0895,-4.4812,0.1799,0.0001,-0.0000,-2.5942,flat,18.0,3,3.282
660,21.12,6.6481,-4.7082,0.1799,-0.0000,-0.0000,-2.8683,flat,18.0,3,2.849
670,21.44,6.1491,-4.8205,0.1799,-0.0001,-0.0000,-3.1302,flat,18.0,3,2.365
680,21.76,5.6202,-4.8042,0.1799,-0.0002,0.0000,2.9797,flat,18.0,3,1.840
690,22.08,5.1272,-4.7149,0.1798,-0.0002,0.0001,2.9176,flat,18.0,3,1.339
700,22.40,4.6939,-4.6136,0.1797,-0.0001,-0.0000,2.8832,flat,18.0,0,14.219
710,22.72,4.2240,-4.4678,0.1799,-0.0000,-0.0000,2.6870,flat,18.0,0,13.761
720,23.04,3.7754,-4.2172,0.1799,-0.0001,-0.0000,2.5294,flat,18.0,0,13.255
730,23.36,3.3508,-3.8915,0.1798,-0.0004,-0.0001,2.4314,flat,18.0,0,12.720
740,23.68,2.9409,-3.5200,0.1797,-0.0002,-0.0000,2.3782,flat,18.0,0,12.168
750,24.00,2.5353,-3.1232,0.1797,-0.0001,-0.0000,2.3584,flat,18.0,0,11.602
760,24.32,2.1288,-2.7186,0.1797,0.0000,0.0000,2.3621,flat,18.0,0,11.032
770,24.64,1.7217,-2.3221,0.1797,0.0001,0.0000,2.3799,flat,18.0,0,10.466
780,24.96,1.3081,-1.9362,0.1797,0.0001,0.0000,2.4038,flat,18.0,0,9.903
790,25.28,0.8852,-1.5604,0.1797,0.0001,-0.0000,2.4272,flat,18.0,0,9.338
800,25.60,0.4533,-1.1927,0.1797,0.0001,-0.0000,2.4463,flat,18.0,0,8.771
810,25.92,0.0134,-0.8306,0.1797,0.0000,-0.0000,2.4598,flat,18.0,0,8.202
820,26.24,-0.4325,-0.4717,0.1797,0.0000,-0.0000,2.4677,flat,18.0,0,7.629
830,26.56,-0.8821,-0.1139,0.1797,0.0000,-0.0000,2.4707,flat,18.0,0,7.055
840,26.88,-1.3330,0.2440,0.1797,-0.0000,0.0000,2.4701,flat,18.0,0,6.479
850,27.20,-1.7825,0.6021,0.1797,-0.0000,0.0000,2.4673,flat,18.0,0,5.905
860,27.52,-2.2306,0.9614,0.1797,-0.0000,0.0000,2.4637,flat,18.0,0,5.330
870,27.84,-2.6774,1.3224,0.1797,-0.0000,-0.0000,2.4601,flat,18.0,0,4.756
880,28.16,-3.1232,1.6850,0.1797,-0.0000,-0.0000,2.4572,flat,18.0,0,4.182
890,28.48,-3.5683,2.0490,0.1797,-0.0000,-0.0000,2.4551,flat,18.0,0,3.608
900,28.80,-4.0132,2.4140,0.1797,-0.0000,-0.0000,2.4539,flat,18.0,0,3.033
910,29.12,-4.4581,2.7796,0.1797,-0.0000,-0.0000,2.4535,flat,18.0,0,2.459
920,29.44,-4.9023,3.1448,0.1797,0.0000,0.0000,2.4537,flat,18.0,0,1.886
930,29.76,-5.3077,3.4779,0.1797,0.0000,0.0001,2.4541,flat,18.0,0,1.365
940,30.08,-5.6704,3.7797,0.1797,-0.0001,0.0001,2.4250,flat,18.0,1,6.600
950,30.40,-5.9282,4.0237,0.1798,-0.0000,0.0002,2.2452,flat,18.0,1,6.811
960,30.72,-6.0886,4.2545,0.1798,0.0003,-0.0001,1.6071,flat,18.0,1,6.938
970,31.04,-6.0603,4.6223,0.1800,0.0004,-0.0000,1.0475,flat,18.0,1,6.876
980,31.36,-5.7967,4.9725,0.1795,-0.0019,0.0000,0.7457,flat,18.0,1,6.597
990,31.68,-5.4204,5.2510,0.1799,0.0000,-0.0000,0.4396,flat,18.0,1,6.222
1000,32.00,-4.9640,5.4286,0.1799,-0.0000,-0.0000,0.1155,flat,18.0,1,5.774
1010,32.32,-4.4620,5.4572,0.1799,-0.0000,-0.0000,-0.1696,flat,18.0,1,5.275
1020,32.64,-3.9458,5.3469,0.1799,-0.0002,-0.0000,-0.3224,flat,18.0,1,4.753
1030,32.96,-3.4176,5.1590,0.1798,-0.0002,-0.0001,-0.3658,flat,18.0,1,4.218
1040,33.28,-2.8913,4.9608,0.1797,0.0001,0.0000,-0.3191,flat,18.0,1,3.693
1050,33.60,-2.3695,4.8008,0.1799,0.0003,0.0000,-0.1969,flat,18.0,1,3.182
1060,33.92,-1.8400,4.7116,0.1799,0.0001,-0.0000,-0.0291,flat,18.0,1,2.666
1070,34.24,-1.3007,4.7134,0.1799,0.0002,-0.0000,0.1218,flat,18.0,1,2.133
1080,34.56,-0.7727,4.7902,0.1798,0.0003,0.0001,0.2026,flat,18.0,1,1.600
1090,34.88,-0.3083,4.8880,0.1797,0.0001,0.0001,0.2321,flat,18.0,1,1.125
1100,35.20,0.1109,4.9847,0.1798,0.0002,-0.0001,0.0682,flat,18.0,2,10.013
1110,35.52,0.5522,4.9775,0.1800,0.0001,-0.0001,-0.3840,flat,18.0,2,9.644
1120,35.84,0.9724,4.7636,0.1799,-0.0000,-0.0000,-0.6436,flat,18.0,2,9.177
1130,36.16,1.3622,4.4279,0.1799,-0.0002,-0.0001,-0.7873,flat,18.0,2,8.665
1140,36.48,1.7345,4.0264,0.1798,-0.0002,-0.0001,-0.8543,flat,18.0,2,8.131
1150,36.80,2.1059,3.5944,0.1797,-0.0000,0.0000,-0.8581,flat,18.0,2,7.582
1160,37.12,2.4772,3.1774,0.1797,0.0001,0.0000,-0.8178,flat,18.0,2,7.044
1170,37.44,2.8633,2.7872,0.1797,0.0002,0.0000,-0.7551,flat,18.0,2,6.511
1180,37.76,3.2732,2.4239,0.1797,0.0002,-0.0000,-0.6842,flat,18.0,2,5.974
1190,38.08,3.7104,2.0863,0.1797,0.0002,-0.0000,-0.6184,flat,18.0,2,5.427
1200,38.40,4.1720,1.7723,0.1797,0.0002,-0.0000,-0.5700,flat,18.0,2,4.871
1210,38.72,4.6514,1.4732,0.1797,0.0001,-0.0000,-0.5419,flat,18.0,2,4.307
1220,39.04,5.1427,1.1810,0.1797,0.0000,-0.0000,-0.5306,flat,18.0,2,3.736
1230,39.36,5.6387,0.8902,0.1797,0.0000,0.0000,-0.5316,flat,18.0,2,3.162
1240,39.68,6.1312,0.5988,0.1797,-0.0000,0.0000,-0.5400,flat,18.0,2,2.591
1250,40.00,6.6198,0.3031,0.1797,-0.0000,0.0000,-0.5512,flat,18.0,2,2.022
1260,40.32,7.0782,0.0182,0.1797,-0.0000,0.0001,-0.5603,flat,18.0,2,1.487
1270,40.64,7.4756,-0.2336,0.1797,-0.0000,0.0000,-0.5676,flat,18.0,2,1.026
1280,40.96,7.9131,-0.5140,0.1797,-0.0001,0.0001,-0.5843,flat,18.0,3,5.711
1290,41.28,8.2805,-0.7663,0.1797,-0.0001,0.0001,-0.6479,flat,18.0,3,5.816
1300,41.60,8.5664,-0.9996,0.1797,-0.0002,0.0001,-0.7531,flat,18.0,3,5.898
1310,41.92,8.7800,-1.2245,0.1797,-0.0002,0.0001,-0.8905,flat,18.0,3,5.946
1320,42.24,8.9383,-1.4447,0.1797,-0.0002,0.0000,-1.0607,flat,18.0,3,5.964
1330,42.56,9.0524,-1.6608,0.1797,-0.0002,0.0000,-1.2613,flat,18.0,3,5.957
1340,42.88,9.1255,-1.8716,0.1797,-0.0002,0.0000,-1.4892,flat,18.0,3,5.925
1350,43.20,9.1533,-2.0746,0.1797,-0.0002,0.0000,-1.7223,flat,18.0,3,5.864
1360,43.52,9.1304,-2.2697,0.1797,-0.0002,-0.0000,-1.9045,flat,18.0,3,5.765
1370,43.84,9.0630,-2.4612,0.1797,-0.0001,-0.0000,-2.0414,flat,18.0,3,5.631
1380,44.16,8.9567,-2.6570,0.1797,-0.0001,-0.0000,-2.1476,flat,18.0,3,5.464
1390,44.48,8.8116,-2.8643,0.1797,-0.0001,-0.0001,-2.2338,flat,18.0,3,5.260
1400,44.80,8.6242,-3.0885,0.1797,-0.0001,-0.0001,-2.3033,flat,18.0,3,5.015
1410,45.12,8.3891,-3.3360,0.1797,-0.0001,-0.0001,-2.3602,flat,18.0,3,4.723
1420,45.44,8.0985,-3.6122,0.1797,-0.0001,-0.0001,-2.4019,flat,18.0,3,4.378
1430,45.76,7.7442,-3.9267,0.1797,-0.0001,-0.0001,-2.4266,flat,18.0,3,3.976
1440,46.08,7.3381,-4.2754,0.1797,-0.0001,0.0001,-2.4578,flat,18.0,3,3.536
1450,46.40,6.9356,-4.5534,0.1799,0.0000,-0.0000,-2.7110,flat,18.0,3,3.129
1460,46.72,6.4664,-4.7348,0.1799,-0.0000,-0.0000,-2.9850,flat,18.0,3,2.670
1470,47.04,5.9505,-4.7905,0.1799,-0.0001,-0.0000,3.0625,flat,18.0,3,2.164
1480,47.36,5.4256,-4.7330,0.1798,-0.0003,0.0001,2.9456,flat,18.0,3,1.637
1490,47.68,4.9555,-4.6360,0.1798,-0.0001,0.0001,2.9120,flat,18.0,3,1.158
1500,48.00,4.5108,-4.5301,0.1798,-0.0001,-0.0001,2.8279,flat,18.0,0,14.024
1510,48.32,4.0407,-4.3484,0.1799,-0.0001,-0.0000,2.6310,flat,18.0,0,13.543
1520,48.64,3.5983,-4.0706,0.1799,-0.0003,-0.0000,2.4975,flat,18.0,0,13.025
1530,48.96,3.1770,-3.7297,0.1798,-0.0003,-0.0000,2.4165,flat,18.0,0,12.483
1540,49.28,2.7672,-3.3509,0.1797,-0.0002,-0.0000,2.3748,flat,18.0,0,11.926
1550,49.60,2.3593,-2.9518,0.1797,-0.0001,-0.0000,2.3625,flat,18.0,0,11.358
1560,49.92,1.9509,-2.5505,0.1797,0.0000,0.0000,2.3703,flat,18.0,0,10.788
1570,50.24,1.5406,-2.1581,0.1797,0.0001,0.0000,2.3894,flat,18.0,0,10.223
1580,50.56,1.1231,-1.7759,0.1797,0.0001,0.0000,2.4125,flat,18.0,0,9.658
1590,50.88,0.6968,-1.4029,0.1797,0.0001,-0.0000,2.4338,flat,18.0,0,9.092
1600,51.20,0.2621,-1.0369,0.1797,0.0001,-0.0000,2.4506,flat,18.0,0,8.525
1610,51.52,-0.1798,-0.6757,0.1797,0.0000,-0.0000,2.4620,flat,18.0,0,7.954
1620,51.84,-0.6268,-0.3169,0.1797,0.0000,-0.0000,2.4682,flat,18.0,0,7.381
1630,52.16,-1.0768,0.0413,0.1797,0.0000,-0.0000,2.4700,flat,18.0,0,6.806
1640,52.48,-1.5272,0.3995,0.1797,-0.0000,0.0000,2.4688,flat,18.0,0,6.231
1650,52.80,-1.9762,0.7582,0.1797,-0.0000,0.0000,2.4659,flat,18.0,0,5.656
1660,53.12,-2.4238,1.1181,0.1797,-0.0000,0.0000,2.4624,flat,18.0,0,5.082
1670,53.44,-2.8702,1.4797,0.1797,-0.0000,-0.0000,2.4591,flat,18.0,0,4.508
1680,53.76,-3.3158,1.8428,0.1797,-0.0000,-0.0000,2.4565,flat,18.0,0,3.933
1690,54.08,-3.7610,2.2071,0.1797,-0.0000,-0.0000,2.4548,flat,18.0,0,3.359
1700,54.40,-4.2059,2.5723,0.1797,-0.0000,-0.0000,2.4539,flat,18.0,0,2.784
1710,54.72,-4.6508,2.9379,0.1797,-0.0000,-0.0000,2.4536,flat,18.0,0,2.210
1720,55.04,-5.0851,3.2949,0.1797,0.0000,0.0001,2.4539,flat,18.0,0,1.651
1730,55.36,-5.4661,3.6077,0.1797,0.0000,0.0001,2.4543,flat,18.0,0,1.162
1740,55.68,-5.7993,3.8924,0.1797,-0.0001,0.0002,2.3964,flat,18.0,1,6.706
1750,56.00,-6.0100,4.1200,0.1798,0.0002,0.0001,2.0360,flat,18.0,1,6.878
1760,56.32,-6.1257,4.3944,0.1798,0.0004,-0.0002,1.3225,flat,18.0,1,6.960
1770,56.64,-5.9751,4.7772,0.1779,-0.0116,0.0001,0.9209,flat,18.0,1,6.782
1780,56.96,-5.6578,5.0973,0.1799,0.0000,-0.0000,0.6187,flat,18.0,1,6.458
1790,57.28,-5.2446,5.3394,0.1799,0.0000,-0.0000,0.3037,flat,18.0,1,6.050
1800,57.60,-4.7641,5.4592,0.1799,-0.0000,-0.0000,-0.0207,flat,18.0,1,5.577
1810,57.92,-4.2538,5.4219,0.1799,-0.0001,-0.0000,-0.2485,flat,18.0,1,5.065
1820,58.24,-3.7337,5.2715,0.1798,-0.0003,-0.0001,-0.3535,flat,18.0,1,4.537
1830,58.56,-3.2023,5.0707,0.1797,-0.0000,0.0000,-0.3561,flat,18.0,1,4.002
1840,58.88,-2.6802,4.8843,0.1798,0.0003,0.0000,-0.2752,flat,18.0,1,3.486
1850,59.20,-2.1560,4.7508,0.1799,0.0001,0.0000,-0.1287,flat,18.0,1,2.974
1860,59.52,-1.6220,4.6989,0.1799,0.0001,-0.0000,0.0420,flat,18.0,1,2.452
1870,59.84,-1.0807,4.7369,0.1799,0.0003,0.0000,0.1676,flat,18.0,1,1.912
1880,60.16,-0.5751,4.8303,0.1798,0.0002,0.0001,0.2144,flat,18.0,1,1.398
1890,60.48,-0.1392,4.9280,0.1797,0.0001,0.0001,0.2384,flat,18.0,2,10.191
1900,60.80,0.2898,5.0133,0.1799,0.0001,-0.0000,-0.1394,flat,18.0,2,9.880
1910,61.12,0.7262,4.9133,0.1799,0.0000,-0.0001,-0.5051,flat,18.0,2,9.465
1920,61.44,1.1334,4.6423,0.1799,-0.0001,-0.0000,-0.7128,flat,18.0,2,8.976
1930,61.76,1.5139,4.2750,0.1798,-0.0003,-0.0001,-0.8226,flat,18.0,2,8.453
1940,62.08,1.8838,3.8566,0.1798,-0.0002,-0.0000,-0.8637,flat,18.0,2,7.912
1950,62.40,2.2544,3.4260,0.1797,0.0000,0.0000,-0.8474,flat,18.0,2,7.366
1960,62.72,2.6294,3.0189,0.1797,0.0002,0.0000,-0.7953,flat,18.0,2,6.831
1970,63.04,3.0238,2.6394,0.1797,0.0002,0.0000,-0.7279,flat,18.0,2,6.298
1980,63.36,3.4443,2.2863,0.1797,0.0002,-0.0000,-0.6572,flat,18.0,2,5.757
1990,63.68,3.8916,1.9583,0.1797,0.0002,-0.0000,-0.5965,flat,18.0,2,5.206
2000,64.00,4.3610,1.6515,0.1797,0.0001,-0.0000,-0.5566,flat,18.0,2,4.647
2010,64.32,4.8459,1.3561,0.1797,0.0001,-0.0000,-0.5355,flat,18.0,2,4.080
2020,64.64,5.3403,1.0649,0.1797,0.0000,-0.0000,-0.5297,flat,18.0,2,3.507
2030,64.96,5.8353,0.7743,0.1797,-0.0000,0.0000,-0.5341,flat,18.0,2,2.934
2040,65.28,6.3263,0.4816,0.1797,-0.0000,0.0000,-0.5442,flat,18.0,2,2.364
2050,65.60,6.8103,0.1855,0.1797,-0.0000,0.0001,-0.5553,flat,18.0,2,1.800
2060,65.92,7.2428,-0.0854,0.1797,-0.0000,0.0001,-0.5637,flat,18.0,2,1.296
2070,66.24,7.6526,-0.3465,0.1797,-0.0000,-0.0002,-0.5692,flat,18.0,3,5.649
2080,66.56,8.0697,-0.6199,0.1797,-0.0001,0.0001,-0.6074,flat,18.0,3,5.753
2090,66.88,8.4031,-0.8639,0.1797,-0.0002,0.0001,-0.6886,flat,18.0,3,5.850
2100,67.20,8.6579,-1.0940,0.1797,-0.0002,0.0001,-0.8072,flat,18.0,3,5.918
2110,67.52,8.8471,-1.3177,0.1797,-0.0002,0.0001,-0.9574,flat,18.0,3,5.952
2120,67.84,8.9869,-1.5371,0.1797,-0.0002,0.0000,-1.1401,flat,18.0,3,5.959
2130,68.16,9.0841,-1.7519,0.1797,-0.0002,0.0000,-1.3519,flat,18.0,3,5.942
2140,68.48,9.1402,-1.9607,0.1797,-0.0002,0.0000,-1.5899,flat,18.0,3,5.900
2150,68.80,9.1464,-2.1606,0.1797,-0.0002,0.0000,-1.8021,flat,18.0,3,5.822
2160,69.12,9.1047,-2.3548,0.1797,-0.0002,-0.0000,-1.9665,flat,18.0,3,5.709
2170,69.44,9.0203,-2.5474,0.1797,-0.0001,-0.0000,-2.0872,flat,18.0,3,5.561
2180,69.76,8.8981,-2.7480,0.1797,-0.0001,-0.0000,-2.1847,flat,18.0,3,5.378
2190,70.08,8.7357,-2.9624,0.1797,-0.0001,-0.0001,-2.2634,flat,18.0,3,5.158
2200,70.40,8.5291,-3.1965,0.1797,-0.0001,-0.0001,-2.3277,flat,18.0,3,4.894
2210,70.72,8.2716,-3.4559,0.1797,-0.0001,-0.0001,-2.3780,flat,18.0,3,4.581
2220,71.04,7.9552,-3.7477,0.1797,-0.0001,-0.0001,-2.4132,flat,18.0,3,4.212
2230,71.36,7.5717,-4.0833,0.1797,-0.0001,-0.0001,-2.4292,flat,18.0,3,3.785
2240,71.68,7.1728,-4.4151,0.1798,0.0000,0.0001,-2.5430,flat,18.0,3,3.366
2250,72.00,6.7452,-4.6601,0.1799,-0.0000,-0.0000,-2.8163,flat,18.0,3,2.943
2260,72.32,6.2550,-4.7963,0.1799,-0.0001,-0.0000,-3.0836,flat,18.0,3,2.467
2270,72.64,5.7282,-4.8025,0.1799,-0.0001,-0.0000,3.0027,flat,18.0,3,1.946
2280,72.96,5.2226,-4.7210,0.1798,-0.0002,0.0001,2.9257,flat,18.0,3,1.434
2290,73.28,4.7820,-4.6222,0.1797,-0.0001,0.0001,2.8944,flat,18.0,0,0.984
2300,73.60,4.3170,-4.4937,0.1799,0.0000,-0.0000,2.7315,flat,18.0,0,13.850
2310,73.92,3.8614,-4.2648,0.1799,-0.0001,-0.0000,2.5605,flat,18.0,0,13.352
2320,74.24,3.4313,-3.9537,0.1798,-0.0003,-0.0001,2.4510,flat,18.0,0,12.822
2330,74.56,3.0181,-3.5913,0.1798,-0.0002,-0.0000,2.3891,flat,18.0,0,12.272
2340,74.88,2.6117,-3.1996,0.1797,-0.0001,-0.0000,2.3623,flat,18.0,0,11.710
2350,75.20,2.2045,-2.7955,0.1797,-0.0000,0.0000,2.3612,flat,18.0,0,11.139
2360,75.52,1.7974,-2.3972,0.1797,0.0000,0.0000,2.3761,flat,18.0,0,10.572
2370,75.84,1.3851,-2.0090,0.1797,0.0001,0.0000,2.3988,flat,18.0,0,10.008
2380,76.16,0.9642,-1.6312,0.1797,0.0001,-0.0000,2.4224,flat,18.0,0,9.444
2390,76.48,0.5341,-1.2618,0.1797,0.0001,-0.0000,2.4423,flat,18.0,0,8.877
2400,76.80,0.0959,-0.8985,0.1797,0.0001,-0.0000,2.4570,flat,18.0,0,8.308
2410,77.12,-0.3488,-0.5389,0.1797,0.0000,-0.0000,2.4661,flat,18.0,0,7.737
2420,77.44,-0.7976,-0.1809,0.1797,0.0000,-0.0000,2.4701,flat,18.0,0,7.163
2430,77.76,-1.2484,0.1771,0.1797,0.0000,0.0000,2.4702,flat,18.0,0,6.587
2440,78.08,-1.6982,0.5352,0.1797,-0.0000,0.0000,2.4679,flat,18.0,0,6.012
2450,78.40,-2.1466,0.8942,0.1797,-0.0000,0.0000,2.4645,flat,18.0,0,5.438
2460,78.72,-2.5937,1.2548,0.1797,-0.0000,-0.0000,2.4609,flat,18.0,0,4.864
2470,79.04,-3.0397,1.6171,0.1797,-0.0000,-0.0000,2.4578,flat,18.0,0,4.290
2480,79.36,-3.4850,1.9808,0.1797,-0.0000,-0.0000,2.4555,flat,18.0,0,3.715
2490,79.68,-3.9299,2.3456,0.1797,-0.0000,-0.0000,2.4542,flat,18.0,0,3.141
2500,80.00,-4.3748,2.7111,0.1797,-0.0000,-0.0000,2.4536,flat,18.0,0,2.566
2510,80.32,-4.8197,3.0768,0.1797,-0.0000,0.0000,2.4536,flat,18.0,0,1.992
2520,80.64,-5.2362,3.4191,0.1797,0.0000,0.0001,2.4540,flat,18.0,0,1.456
2530,80.96,-5.6044,3.7229,0.1797,-0.0000,-0.0001,2.4340,flat,18.0,1,0.985
2540,81.28,-5.8903,3.9814,0.1797,-0.0002,0.0002,2.3127,flat,18.0,1,6.780
2550,81.60,-6.0653,4.2037,0.1798,0.0003,-0.0001,1.7489,flat,18.0,1,6.921
2560,81.92,-6.0939,4.5463,0.1799,0.0002,-0.0001,1.1230,flat,18.0,1,6.915
2570,82.24,-5.8610,4.9111,0.1791,-0.0041,0.0001,0.8020,flat,18.0,1,6.663
2580,82.56,-5.5026,5.2031,0.1799,-0.0000,-0.0000,0.4996,flat,18.0,1,6.304
2590,82.88,-5.0593,5.4038,0.1799,-0.0000,-0.0000,0.1776,flat,18.0,1,5.868
2600,83.20,-4.5629,5.4631,0.1799,-0.0000,-0.0000,-0.1263,flat,18.0,1,5.376
2610,83.52,-4.0484,5.3745,0.1799,-0.0001,-0.0000,-0.3022,flat,18.0,1,4.857
2620,83.84,-3.5234,5.1968,0.1798,-0.0002,-0.0001,-0.3653,flat,18.0,1,4.325
2630,84.16,-2.9943,4.9957,0.1797,0.0001,0.0000,-0.3346,flat,18.0,1,3.795
2640,84.48,-2.4729,4.8256,0.1798,0.0003,0.0000,-0.2247,flat,18.0,1,3.283
2650,84.80,-1.9453,4.7209,0.1799,0.0001,-0.0000,-0.0621,flat,18.0,1,2.769
2660,85.12,-1.4075,4.7052,0.1799,0.0001,-0.0000,0.0979,flat,18.0,1,2.239
2670,85.44,-0.8730,4.7709,0.1798,0.0004,0.0001,0.1964,flat,18.0,1,1.702
2680,85.76,-0.3943,4.8689,0.1797,0.0001,0.0001,0.2268,flat,18.0,1,1.213
2690,86.08,0.0245,4.9662,0.1798,0.0001,-0.0000,0.1531,flat,18.0,2,10.075
2700,86.40,0.4656,4.9993,0.1799,0.0001,-0.0000,-0.3115,flat,18.0,2,9.728
2710,86.72,0.8920,4.8194,0.1799,0.0000,-0.0000,-0.6027,flat,18.0,2,9.275
2720,87.04,1.2871,4.5028,0.1799,-0.0001,-0.0000,-0.7661,flat,18.0,2,8.770
2730,87.36,1.6614,4.1113,0.1798,-0.0003,-0.0001,-0.8467,flat,18.0,2,8.239
2740,87.68,2.0323,3.6814,0.1797,-0.0001,-0.0000,-0.8621,flat,18.0,2,7.691
2750,88.00,2.4025,3.2594,0.1797,0.0001,0.0000,-0.8291,flat,18.0,2,7.151
2760,88.32,2.7843,2.8635,0.1797,0.0002,0.0000,-0.7692,flat,18.0,2,6.618
2770,88.64,3.1888,2.4948,0.1797,0.0002,-0.0000,-0.6988,flat,18.0,2,6.082
2780,88.96,3.6204,2.1521,0.1797,0.0002,-0.0000,-0.6308,flat,18.0,2,5.538
2790,89.28,4.0776,1.8336,0.1797,0.0002,-0.0000,-0.5778,flat,18.0,2,4.983
2800,89.60,4.5538,1.5323,0.1797,0.0001,-0.0000,-0.5461,flat,18.0,2,4.421
2810,89.92,5.0433,1.2394,0.1797,0.0001,-0.0000,-0.5316,flat,18.0,2,3.851
