step,time_s,x,y,z,roll,pitch,yaw,terrain,speed,target_idx,dist_to_target
10,0.32,0.0958,-0.0668,0.2006,0.0389,-0.0472,0.0026,rough,14.0,0,5.318
20,0.64,0.4804,-0.0843,0.2145,0.0365,-0.0552,-0.0893,rough,14.0,0,5.013
30,0.96,0.8899,-0.1402,0.2437,0.0724,-0.0992,-0.1637,rough,14.0,0,4.675
40,1.28,1.3114,-0.2393,0.2500,0.1234,0.0296,-0.2386,rough,14.0,0,4.310
50,1.60,1.7142,-0.3554,0.2280,0.1079,0.0663,-0.3397,rough,14.0,0,3.957
60,1.92,2.0979,-0.5160,0.2021,0.1128,0.0450,-0.4286,rough,14.0,0,3.595
70,2.24,2.4630,-0.7032,0.1955,0.1432,-0.0411,-0.5042,rough,14.0,0,3.232
80,2.56,2.8442,-0.9473,0.1637,0.2149,0.2430,-0.5327,rough,14.0,0,2.825
90,2.88,3.1858,-1.1751,0.0734,0.1442,0.1928,-0.6408,rough,14.0,0,2.466
100,3.20,3.5326,-1.4576,-0.0583,-0.0036,0.3687,-0.7305,rough,14.0,0,2.072
110,3.52,3.7968,-1.6821,-0.1083,-0.1074,0.1181,-0.8228,rough,14.0,0,1.779
120,3.84,4.0777,-1.9730,-0.1319,-0.1810,0.0938,-0.9291,rough,14.0,0,1.442
130,4.16,4.3071,-2.3346,-0.1727,-0.0822,0.1694,-1.0402,rough,14.0,0,1.074
140,4.48,4.4929,-2.7188,-0.2500,-0.1325,0.1956,-1.1941,rough,14.0,1,7.670
150,4.80,4.5591,-3.1053,-0.3231,0.1354,0.3758,-1.3164,rough,14.0,1,7.438
160,5.12,4.6097,-3.3950,-0.3658,0.1249,0.0108,-1.4925,rough,14.0,1,7.273
170,5.44,4.5433,-3.7872,-0.4142,0.3270,0.1135,-1.6588,rough,14.0,1,6.962
180,5.76,4.4454,-4.1735,-0.4602,0.3805,0.1143,-1.8111,rough,14.0,1,6.638
190,6.08,4.3022,-4.5499,-0.5000,0.3695,0.0896,-1.9457,rough,14.0,1,6.293
200,6.40,4.1175,-4.9188,-0.5361,0.3287,0.0331,-2.0758,rough,14.0,1,5.926
210,6.72,3.9058,-5.2791,-0.5560,0.2482,-0.0153,-2.1664,rough,14.0,1,5.547
220,7.04,3.6578,-5.6013,-0.5273,0.2411,-0.1146,-2.2529,rough,14.0,1,5.164
230,7.36,3.4109,-5.8495,-0.4630,0.2784,-0.3077,-2.3570,rough,14.0,1,4.823
240,7.68,3.1538,-5.9957,-0.3737,0.4548,-0.3590,-2.5517,rough,14.0,1,4.528
250,8.00,2.8694,-6.0764,-0.2645,0.5733,-0.6347,-2.6922,rough,14.0,1,4.244
260,8.32,2.6137,-6.1227,-0.1442,0.6217,-0.5888,-2.9607,rough,14.0,1,4.004
270,8.64,2.3574,-6.0198,-0.1189,0.5785,-0.5905,-2.9256,rough,14.0,1,3.855
280,8.96,2.1783,-5.9014,-0.1251,0.2545,-0.7551,-2.5055,rough,14.0,1,3.790
290,9.28,2.1753,-5.8283,-0.1729,-0.1866,-0.7925,-1.9876,rough,14.0,1,3.835
300,9.60,2.1188,-5.7173,-0.2341,-0.0574,-0.7706,-2.2558,rough,14.0,1,3.868
310,9.92,2.0019,-5.6097,-0.2298,0.0108,-0.6979,-2.4419,rough,14.0,1,3.859
320,10.24,1.8955,-5.5253,-0.1965,-0.1378,-0.7665,-2.2722,rough,14.0,1,3.846
330,10.56,1.6570,-5.4751,-0.1255,0.0478,-0.6115,-2.2421,rough,14.0,1,3.728
340,10.88,1.4269,-5.5612,0.0045,0.1016,-0.6306,-2.2731,rough,14.0,1,3.517
350,11.20,1.2258,-5.7994,0.2343,0.0307,-0.7210,-2.2532,rough,14.0,1,3.206
360,11.52,1.0756,-5.9654,0.4574,0.0770,-0.8539,-2.3480,rough,14.0,1,2.983
370,11.84,0.9745,-6.0484,0.6085,0.1784,-0.8580,-2.4846,rough,14.0,1,2.856
380,12.16,0.9039,-6.0450,0.6634,0.3391,-0.8565,-2.6464,rough,14.0,1,2.817
390,12.48,0.8575,-5.9643,0.6275,0.5580,-0.8041,-2.8444,rough,14.0,1,2.858
400,12.80,0.8389,-5.7692,0.4470,0.8197,-0.3709,2.8931,rough,14.0,1,3.014
410,13.12,0.7876,-5.4761,0.2060,0.7854,-0.4083,3.0000,rough,14.0,1,3.244
420,13.44,0.6572,-5.1090,-0.0179,0.3436,-0.7472,-2.9759,rough,14.0,1,3.521
430,13.76,0.6133,-4.8570,-0.1408,0.2034,-0.7216,-2.8089,rough,14.0,1,3.739
440,14.08,0.5448,-4.8304,-0.1152,0.4706,-0.5633,3.0601,rough,14.0,1,3.740
450,14.40,0.4101,-4.7935,-0.0362,0.4914,-0.5814,3.0050,rough,14.0,1,3.732
460,14.72,0.3404,-4.6855,-0.0328,0.5257,-0.5765,2.8210,rough,14.0,1,3.816
470,15.04,0.2777,-4.5878,-0.0368,0.4939,-0.6209,2.7588,rough,14.0,1,3.893
480,15.36,0.1902,-4.5174,0.0180,0.3987,-0.7348,2.9005,rough,14.0,1,3.940
490,15.68,0.1633,-4.4212,-0.0006,0.3151,-0.7868,3.1059,rough,14.0,1,4.028
500,16.00,0.1506,-4.3997,0.0058,0.3904,-0.7512,2.9836,rough,14.0,1,4.047
510,16.32,0.1496,-4.3789,-0.0022,0.4169,-0.7152,2.9311,rough,14.0,1,4.067
520,16.64,0.1117,-4.3875,0.0352,0.3621,-0.7545,3.0454,rough,14.0,1,4.050
530,16.96,0.0311,-4.3983,0.1026,0.3789,-0.7265,3.0813,rough,14.0,1,4.024
540,17.28,-0.0915,-4.3928,0.1909,0.4337,-0.6308,3.0812,rough,14.0,1,4.009
550,17.60,-0.2082,-4.3855,0.2790,0.4480,-0.6168,3.0608,rough,14.0,1,4.000
560,17.92,-0.3318,-4.3633,0.3462,0.4822,-0.6070,3.0900,rough,14.0,1,4.008
570,18.24,-0.5029,-4.3407,0.4388,0.4458,-0.6182,-3.0421,rough,14.0,1,4.018
580,18.56,-0.7298,-4.3544,0.5744,0.3439,-0.6780,-2.7922,rough,14.0,1,3.999
590,18.88,-0.9457,-4.4219,0.7412,0.2515,-0.7392,-2.5516,rough,14.0,1,3.938
600,19.20,-1.1004,-4.4761,0.8761,0.2584,-0.7583,-2.5470,rough,14.0,1,3.897
610,19.52,-1.2198,-4.5035,0.9770,0.3332,-0.7834,-2.6571,rough,14.0,1,3.883
620,19.84,-1.3292,-4.5635,1.0936,0.1007,-0.7982,-2.3885,rough,14.0,1,3.840
630,20.16,-1.4039,-4.6814,1.2250,0.0423,-0.7901,-2.3124,rough,14.0,1,3.736
640,20.48,-1.4960,-4.8168,1.3540,-0.0343,-0.7308,-2.3093,rough,14.0,1,3.622
650,20.80,-1.6104,-4.9377,1.4742,-0.1050,-0.6309,-2.3647,rough,14.0,1,3.532
660,21.12,-1.7527,-5.0315,1.5476,0.0666,-0.5398,-2.4327,rough,14.0,1,3.481
670,21.44,-2.0152,-5.2725,1.6343,0.2569,-0.1222,-2.1645,rough,14.0,1,3.345
680,21.76,-2.1994,-5.5946,1.6429,0.1860,-0.1055,-1.9452,rough,14.0,1,3.134
690,22.08,-2.3272,-5.9959,1.6452,0.1659,0.1299,-1.7656,rough,14.0,1,2.858
700,22.40,-2.3770,-6.4107,1.5783,0.1548,0.2871,-1.5677,rough,14.0,1,2.559
710,22.72,-2.3927,-6.8883,1.4077,0.3023,0.4096,-1.3139,rough,14.0,1,2.230
720,23.04,-2.2916,-7.4196,1.0883,0.5503,0.4487,-0.9887,rough,14.0,1,1.835
730,23.36,-2.1634,-7.9482,0.6933,0.6683,0.1522,-0.8558,rough,14.0,1,1.507
740,23.68,-1.9834,-8.4800,0.4584,0.6910,-0.0856,-0.7719,rough,14.0,1,1.278
750,24.00,-1.7730,-8.9127,0.3723,0.5875,-0.4112,-0.3195,rough,14.0,1,1.200
760,24.32,-1.4225,-9.2373,0.3366,0.5637,-0.3515,0.1064,rough,14.0,1,1.134
770,24.64,-1.2725,-9.4455,0.2663,0.3481,-0.7637,0.4433,rough,14.0,1,1.228
780,24.96,-1.1636,-9.6303,0.1821,-0.1635,-0.7309,1.0219,rough,14.0,1,1.355
790,25.28,-1.0365,-9.7531,0.1910,-0.1678,-0.7808,1.1537,rough,14.0,1,1.437
800,25.60,-1.0540,-9.7691,0.1678,-0.4878,-0.5729,1.7368,rough,14.0,1,1.457
810,25.92,-1.1229,-9.7527,0.1405,-0.5209,-0.5745,1.7416,rough,14.0,1,1.459
820,26.24,-1.1891,-9.6833,0.1377,-0.5575,-0.5191,1.7284,rough,14.0,1,1.413
830,26.56,-1.2467,-9.4951,0.2325,-0.5997,-0.5537,1.7357,rough,14.0,1,1.261
840,26.88,-1.3148,-9.2258,0.4055,-0.5601,-0.6260,1.7845,rough,14.0,1,1.061
850,27.20,-1.4081,-9.0120,0.5138,-0.5377,-0.5186,1.8236,rough,14.0,1,0.959
860,27.52,-1.5090,-8.8043,0.5895,-0.5825,-0.5302,1.8323,rough,14.0,1,0.916
870,27.84,-1.5731,-8.6348,0.6819,-0.5494,-0.6054,1.7648,rough,14.0,1,0.906
880,28.16,-1.6376,-8.4077,0.7581,-0.6327,-0.5120,1.5979,rough,14.0,1,0.927
890,28.48,-1.7148,-8.2047,0.8152,-0.5111,-0.6432,1.3848,rough,14.0,1,1.014
900,28.80,-1.7386,-8.0470,0.8923,-0.4120,-0.6965,1.2384,rough,14.0,1,1.072
910,29.12,-1.7014,-7.9148,0.9918,-0.4732,-0.6828,1.2759,rough,14.0,1,1.082
920,29.44,-1.6512,-7.7976,1.0954,-0.3323,-0.6899,1.0752,rough,14.0,1,1.091
930,29.76,-1.5502,-7.6697,1.2368,-0.1590,-0.7083,0.7882,rough,14.0,1,1.082
940,30.08,-1.4154,-7.5522,1.3623,0.0840,-0.5800,0.4478,rough,14.0,1,1.066
950,30.40,-1.2387,-7.4663,1.4808,0.1242,-0.4816,0.3155,rough,14.0,1,1.032
960,30.72,-1.0768,-7.3890,1.5688,0.0697,-0.5560,0.1905,rough,14.0,1,1.031
970,31.04,-0.8940,-7.3371,1.6264,-0.0069,-0.4240,0.0948,rough,14.0,1,1.032
980,31.36,-0.7219,-7.3012,1.6657,-0.1073,-0.1558,0.0484,rough,14.0,1,1.052
990,31.68,-0.5716,-7.2851,1.6788,-0.1349,-0.0728,-0.0326,rough,14.0,1,1.077
1000,32.00,-0.4390,-7.3011,1.6916,-0.1220,-0.0434,-0.0816,rough,14.0,1,1.087
1010,32.32,-0.3171,-7.3309,1.7066,-0.1105,-0.1020,-0.1695,rough,14.0,1,1.096
1020,32.64,-0.1920,-7.3868,1.7291,-0.0835,-0.2055,-0.3203,rough,14.0,1,1.097
1030,32.96,-0.0516,-7.5058,1.7478,0.0461,-0.1548,-0.5402,rough,14.0,1,1.074
1040,33.28,0.1125,-7.6848,1.7480,0.0925,0.0712,-0.8174,rough,14.0,1,1.061
1050,33.60,0.2082,-7.8509,1.7717,0.1181,-0.1342,-1.1232,rough,14.0,1,1.048
1060,33.92,0.2157,-8.1156,1.7443,0.3471,0.1441,-1.3390,rough,14.0,1,0.957
1070,34.24,0.1713,-8.3591,1.7240,0.2703,0.0816,-1.7738,rough,14.0,1,0.883
1080,34.56,0.0245,-8.6461,1.6515,0.2279,0.2741,-2.1118,rough,14.0,2,5.753
1090,34.88,-0.1771,-8.9122,1.5202,0.0390,0.5997,-2.3453,rough,14.0,2,5.864
1100,35.20,-0.4663,-9.1548,1.2547,0.2956,0.9263,-2.3847,rough,14.0,2,5.928
1110,35.52,-0.8418,-9.4893,0.6650,0.5249,1.1129,-2.2810,rough,14.0,2,6.064
1120,35.84,-1.3657,-9.9969,-0.0542,0.1559,0.3679,-2.3287,rough,14.0,2,6.355
1130,36.16,-1.9911,-10.6701,-0.4790,-0.2264,0.9054,-2.9561,rough,14.0,2,6.855
1140,36.48,-2.3324,-10.9062,-0.5147,-0.2023,-0.2059,2.7377,rough,14.0,2,7.033
1150,36.80,-2.5092,-10.7820,-0.5721,0.1726,-0.3158,2.6099,rough,14.0,2,6.888
1160,37.12,-2.8138,-10.5809,-0.4855,0.1560,-0.1672,2.4822,rough,14.0,2,6.660
1170,37.44,-3.0973,-10.3440,-0.4454,0.1538,-0.1167,2.3564,rough,14.0,2,6.409
1180,37.76,-3.4110,-10.0444,-0.4781,-0.0323,0.0479,2.2293,rough,14.0,2,6.109
1190,38.08,-3.6216,-9.7878,-0.4626,-0.0841,-0.2334,2.1486,rough,14.0,2,5.861
1200,38.40,-3.7580,-9.5295,-0.3674,-0.0395,-0.4137,2.1531,rough,14.0,2,5.613
1210,38.72,-3.9082,-9.2966,-0.2212,-0.0056,-0.6031,2.0571,rough,14.0,2,5.396
1220,39.04,-4.0888,-9.0181,-0.0614,-0.1713,-0.4416,2.0425,rough,14.0,2,5.145
1230,39.36,-4.2331,-8.7494,0.0769,-0.1794,-0.4872,1.9975,rough,14.0,2,4.906
1240,39.68,-4.3774,-8.4711,0.2006,-0.1175,-0.2807,1.9492,rough,14.0,2,4.665
1250,40.00,-4.5310,-8.1689,0.3029,-0.2762,-0.3873,1.9156,rough,14.0,2,4.413
1260,40.32,-4.6376,-7.8772,0.4558,-0.2432,-0.5977,1.8884,rough,14.0,2,4.167
1270,40.64,-4.6882,-7.6298,0.6221,-0.1197,-0.7062,1.8995,rough,14.0,2,3.952
1280,40.96,-4.7746,-7.3638,0.7990,-0.0072,-0.5074,1.9149,rough,14.0,2,3.738
1290,41.28,-4.8665,-7.1349,0.9508,0.0059,-0.6350,1.8820,rough,14.0,2,3.569
1300,41.60,-4.9956,-6.8300,1.0920,-0.1578,-0.3198,1.8149,rough,14.0,2,3.363
1310,41.92,-5.0981,-6.4499,1.1809,-0.1919,-0.1956,1.6616,rough,14.0,2,3.101
1320,42.24,-5.1262,-6.0338,1.2248,-0.1732,-0.1060,1.4719,rough,14.0,2,2.793
1330,42.56,-5.0655,-5.6248,1.2548,-0.1097,-0.0767,1.3118,rough,14.0,2,2.456
1340,42.88,-4.9542,-5.2510,1.2908,-0.0524,-0.1952,1.2242,rough,14.0,2,2.127
1350,43.20,-4.8336,-4.8850,1.3744,-0.0991,-0.2664,1.1123,rough,14.0,2,1.819
1360,43.52,-4.6762,-4.5437,1.4797,-0.1337,-0.3553,1.0119,rough,14.0,2,1.521
1370,43.84,-4.4826,-4.2119,1.5804,-0.1648,-0.2530,0.8715,rough,14.0,2,1.233
1380,44.16,-4.2210,-3.9367,1.6272,-0.0267,-0.1063,0.6880,rough,14.0,2,0.940
1390,44.48,-3.8750,-3.6034,1.5177,-0.1580,0.3984,0.6118,rough,14.0,3,10.076
1400,44.80,-3.5636,-3.3466,1.3560,-0.0698,0.4116,0.7173,rough,14.0,3,9.742
1410,45.12,-3.2844,-3.0772,1.1930,-0.0370,0.3890,0.8071,rough,14.0,3,9.410
1420,45.44,-3.0011,-2.7351,0.9801,-0.0488,0.6204,0.8744,rough,14.0,3,9.010
1430,45.76,-2.7154,-2.3607,0.6533,0.2524,0.8523,1.1581,rough,14.0,3,8.583
1440,46.08,-2.4204,-1.9592,0.2611,0.5024,0.3143,1.5686,rough,14.0,3,8.132
1450,46.40,-2.3457,-1.5618,0.1416,0.3652,0.0600,1.4837,rough,14.0,3,7.728
1460,46.72,-2.3454,-1.1277,0.0861,0.0655,0.0502,1.4893,rough,14.0,3,7.301
1470,47.04,-2.3323,-0.6824,0.0599,-0.0812,0.0875,1.4756,rough,14.0,3,6.862
1480,47.36,-2.3043,-0.2391,0.0323,-0.1536,0.0967,1.4539,rough,14.0,3,6.422
1490,47.68,-2.2615,0.1932,0.0019,-0.1852,0.0519,1.4471,rough,14.0,3,5.991
1500,48.00,-2.2136,0.6166,0.0135,-0.1710,-0.0387,1.4410,rough,14.0,3,5.567
1510,48.32,-2.1633,1.0309,0.0567,-0.1511,-0.1616,1.4466,rough,14.0,3,5.153
1520,48.64,-2.1096,1.4320,0.1518,-0.1186,-0.2961,1.4625,rough,14.0,3,4.750
1530,48.96,-2.0572,1.8429,0.2773,-0.0866,-0.3222,1.4607,rough,14.0,3,4.339
1540,49.28,-2.0033,2.2625,0.4087,-0.0567,-0.2877,1.4385,rough,14.0,3,3.920
1550,49.60,-1.9504,2.6919,0.5194,-0.0783,-0.2278,1.4248,rough,14.0,3,3.493
1560,49.92,-1.8788,3.1333,0.5907,-0.0686,-0.1461,1.3967,rough,14.0,3,3.050
1570,50.24,-1.7564,3.5961,0.6063,0.1201,0.0704,1.3901,rough,14.0,3,2.572
1580,50.56,-1.6229,4.0754,0.5282,0.3310,0.3810,1.4483,rough,14.0,3,2.075
1590,50.88,-1.4596,4.5163,0.3291,0.4939,0.5280,1.5432,rough,14.0,3,1.605
1600,51.20,-1.3333,5.0241,0.0067,0.7166,0.1719,2.0506,rough,14.0,3,1.084
1610,51.52,-1.2781,5.4596,-0.2339,0.6466,-0.3613,2.4960,rough,14.0,0,10.440
1620,51.84,-1.2175,5.7017,-0.3808,0.2249,-0.6649,-3.0498,rough,14.0,0,10.615
1630,52.16,-1.1815,5.7046,-0.4074,-0.0707,-0.7003,-2.5968,rough,14.0,0,10.599
1640,52.48,-1.1933,5.6359,-0.3733,-0.0955,-0.7068,-2.5635,rough,14.0,0,10.546
1650,52.80,-1.2668,5.5842,-0.2984,-0.0763,-0.7021,-2.5786,rough,14.0,0,10.540
1660,53.12,-1.3797,5.5298,-0.2022,-0.1287,-0.6745,-2.4405,rough,14.0,0,10.554
1670,53.44,-1.5030,5.4302,-0.0673,-0.2714,-0.6814,-2.1730,rough,14.0,0,10.536
1680,53.76,-1.5721,5.2632,0.0613,-0.4061,-0.6532,-1.9342,rough,14.0,0,10.435
1690,54.08,-1.5847,5.0232,0.1901,-0.5613,-0.5740,-1.6896,rough,14.0,0,10.243
1700,54.40,-1.5500,4.7320,0.2846,-0.6010,-0.3141,-1.4881,rough,14.0,0,9.985
1710,54.72,-1.4815,4.3957,0.3821,-0.5505,-0.3088,-1.2829,rough,14.0,0,9.672
1720,55.04,-1.3743,4.0168,0.4690,-0.3666,-0.3112,-1.2452,rough,14.0,0,9.304
1730,55.36,-1.2335,3.5899,0.5148,-0.1972,0.0024,-1.2406,rough,14.0,0,8.880
1740,55.68,-1.0749,3.1606,0.4896,-0.1544,0.1296,-1.2163,rough,14.0,0,8.445
1750,56.00,-0.9189,2.7580,0.4279,-0.1069,0.1292,-1.1679,rough,14.0,0,8.035
1760,56.32,-0.7740,2.3627,0.3909,0.0517,0.0655,-1.1203,rough,14.0,0,7.640
1770,56.64,-0.5970,1.9755,0.3641,0.1059,0.0245,-1.0839,rough,14.0,0,7.233
1780,56.96,-0.3792,1.5823,0.3376,0.0968,0.0729,-1.0510,rough,14.0,0,6.795
1790,57.28,-0.1553,1.1935,0.2903,0.1047,0.1444,-1.0162,rough,14.0,0,6.359
1800,57.60,0.0787,0.8319,0.2463,0.0501,0.0806,-0.9986,rough,14.0,0,5.936
1810,57.92,0.3056,0.4663,0.2284,0.0881,0.0467,-0.9745,rough,14.0,0,5.517
1820,58.24,0.5415,0.1094,0.2253,0.1213,-0.0219,-0.9554,rough,14.0,0,5.099
1830,58.56,0.8056,-0.2559,0.2236,0.1061,0.0424,-0.9241,rough,14.0,0,4.657
1840,58.88,1.0793,-0.6144,0.1997,0.1026,0.0921,-0.8941,rough,14.0,0,4.213
1850,59.20,1.3643,-0.9618,0.1459,0.1013,0.1416,-0.8666,rough,14.0,0,3.770
1860,59.52,1.6436,-1.2878,0.0961,0.0940,0.1062,-0.8469,rough,14.0,0,3.347
1870,59.84,1.9510,-1.6253,0.0340,0.0739,0.1963,-0.8137,rough,14.0,0,2.896
1880,60.16,2.2762,-1.9695,-0.1044,0.0481,0.3686,-0.8048,rough,14.0,0,2.429
1890,60.48,2.5885,-2.2820,-0.2896,0.0291,0.5109,-0.7810,rough,14.0,0,1.993
1900,60.80,2.8198,-2.5683,-0.4119,0.2223,0.2374,-0.7470,rough,14.0,0,1.644
1910,61.12,3.1190,-2.8386,-0.4713,0.1771,0.0988,-0.7336,rough,14.0,0,1.252
1920,61.44,3.3858,-3.1227,-0.4846,0.2949,-0.0062,-0.7106,rough,14.0,0,0.895
1930,61.76,3.6272,-3.3762,-0.5222,0.3188,0.1176,-0.7662,rough,14.0,1,6.603
1940,62.08,3.8130,-3.6386,-0.5794,0.3934,0.3475,-0.9390,rough,14.0,1,6.535
1950,62.40,3.9166,-3.8716,-0.6282,0.3585,0.1252,-1.2249,rough,14.0,1,6.443
1960,62.72,3.9440,-4.1860,-0.6598,0.3928,0.0453,-1.4747,rough,14.0,1,6.248
1970,63.04,3.8980,-4.5310,-0.6600,0.4008,-0.0714,-1.7317,rough,14.0,1,5.988
1980,63.36,3.7984,-4.9120,-0.6413,0.3456,-0.0766,-1.8811,rough,14.0,1,5.673
1990,63.68,3.6343,-5.2822,-0.6152,0.3390,-0.0860,-2.0187,rough,14.0,1,5.322
2000,64.00,3.4286,-5.6249,-0.5650,0.3268,-0.1723,-2.1552,rough,14.0,1,4.958
2010,64.32,3.2080,-5.8727,-0.4522,0.3922,-0.4827,-2.3054,rough,14.0,1,4.639
2020,64.64,2.9611,-6.0591,-0.3044,0.4367,-0.5935,-2.4615,rough,14.0,1,4.331
2030,64.96,2.7400,-6.1928,-0.1265,0.4781,-0.7213,-2.6397,rough,14.0,1,4.072
2040,65.28,2.4934,-6.2385,0.0195,0.5510,-0.6604,-2.8299,rough,14.0,1,3.840
2050,65.60,2.2526,-6.1641,0.0411,0.5183,-0.5822,-2.7634,rough,14.0,1,3.685
2060,65.92,2.0316,-6.0680,0.0659,0.1612,-0.6837,-2.3591,rough,14.0,1,3.570
2070,66.24,1.8456,-6.0373,0.1230,0.0456,-0.6981,-2.3629,rough,14.0,1,3.450
2080,66.56,1.6103,-6.0426,0.2177,0.1048,-0.6113,-2.3058,rough,14.0,1,3.276
2090,66.88,1.4545,-6.1246,0.3550,-0.0793,-0.8045,-2.0022,rough,14.0,1,3.108
2100,67.20,1.4173,-6.2861,0.4848,-0.0194,-0.8447,-2.1069,rough,14.0,1,2.967
2110,67.52,1.3862,-6.3987,0.6106,0.1710,-0.9410,-2.3261,rough,14.0,1,2.867
2120,67.84,1.3497,-6.4548,0.6827,0.2790,-0.9338,-2.5298,rough,14.0,1,2.802
2130,68.16,1.2917,-6.4223,0.6913,0.6652,-0.8201,-3.1202,rough,14.0,1,2.783
2140,68.48,1.2483,-6.2222,0.5399,0.7983,-0.4137,2.6199,rough,14.0,1,2.895
2150,68.80,1.2375,-5.9323,0.3430,0.7012,-0.5352,2.8012,rough,14.0,1,3.108
2160,69.12,1.2206,-5.6265,0.1249,0.5455,-0.4365,3.0034,rough,14.0,1,3.342
2170,69.44,1.0102,-5.3413,0.0105,0.6718,-0.3353,3.0430,rough,14.0,1,3.469
2180,69.76,0.8059,-5.1079,-0.0909,0.5948,-0.4882,3.0752,rough,14.0,1,3.583
2190,70.08,0.5952,-4.9214,-0.1063,0.4687,-0.6310,-3.1028,rough,14.0,1,3.672
2200,70.40,0.4241,-4.8460,-0.0191,0.4481,-0.6557,-3.1166,rough,14.0,1,3.687
2210,70.72,0.3239,-4.7783,0.0304,0.5354,-0.7045,2.9683,rough,14.0,1,3.722
2220,71.04,0.2620,-4.6631,0.0149,0.5638,-0.6491,2.7637,rough,14.0,1,3.816
2230,71.36,0.2386,-4.5730,-0.0105,0.5868,-0.5796,2.6491,rough,14.0,1,3.898
2240,71.68,0.2258,-4.4564,-0.0389,0.4464,-0.7116,2.8287,rough,14.0,1,4.008
2250,72.00,0.2621,-4.3792,-0.0930,0.4058,-0.7174,2.8521,rough,14.0,1,4.092
2260,72.32,0.1821,-4.3378,-0.0432,0.4021,-0.7029,2.9016,rough,14.0,1,4.114
2270,72.64,0.0581,-4.3059,0.0462,0.3937,-0.6508,2.9853,rough,14.0,1,4.120
2280,72.96,-0.0707,-4.2834,0.1356,0.3902,-0.5957,3.0205,rough,14.0,1,4.120
2290,73.28,-0.1905,-4.2584,0.2037,0.4222,-0.5991,3.0383,rough,14.0,1,4.128
2300,73.60,-0.3772,-4.2256,0.2985,0.3744,-0.6358,-3.0387,rough,14.0,1,4.141
2310,73.92,-0.6099,-4.2413,0.4394,0.3114,-0.6559,-2.8080,rough,14.0,1,4.113
2320,74.24,-0.8277,-4.3062,0.5976,0.2075,-0.7199,-2.5702,rough,14.0,1,4.049
2330,74.56,-1.0298,-4.4264,0.7944,0.1480,-0.7633,-2.3852,rough,14.0,1,3.940
2340,74.88,-1.1641,-4.5126,0.9438,0.2781,-0.7693,-2.5739,rough,14.0,1,3.867
2350,75.20,-1.2722,-4.5461,1.0435,0.3466,-0.7875,-2.6891,rough,14.0,1,3.848
2360,75.52,-1.3861,-4.6062,1.1661,0.2106,-0.8104,-2.5574,rough,14.0,1,3.807
2370,75.84,-1.4757,-4.6790,1.2701,0.1125,-0.7806,-2.4838,rough,14.0,1,3.753
2380,76.16,-1.5435,-4.7546,1.3412,0.1601,-0.7060,-2.6238,rough,14.0,1,3.693
2390,76.48,-1.6738,-4.8555,1.4695,0.0401,-0.6312,-2.5900,rough,14.0,1,3.628
2400,76.80,-1.8292,-4.9436,1.5347,0.0938,-0.3694,-2.5678,rough,14.0,1,3.588
2410,77.12,-2.0858,-5.1293,1.6017,0.0934,-0.1353,-2.3293,rough,14.0,1,3.505
2420,77.44,-2.2973,-5.4032,1.6323,0.0525,-0.0607,-2.1094,rough,14.0,1,3.349
2430,77.76,-2.4667,-5.7373,1.6369,-0.0486,-0.0433,-1.9043,rough,14.0,1,3.150
2440,78.08,-2.6017,-6.1277,1.6237,0.0465,0.1626,-1.8122,rough,14.0,1,2.920
2450,78.40,-2.7049,-6.5760,1.4927,0.1944,0.5289,-1.6502,rough,14.0,1,2.670
2460,78.72,-2.7821,-7.0028,1.2301,0.4739,0.4227,-1.2250,rough,14.0,1,2.472
2470,79.04,-2.7022,-7.4494,0.9319,0.6599,0.3922,-0.9461,rough,14.0,1,2.186
2480,79.36,-2.5244,-7.9913,0.5225,0.7122,0.2579,-0.7456,rough,14.0,1,1.848
2490,79.68,-2.3059,-8.5710,0.2235,0.6754,-0.0942,-0.7193,rough,14.0,1,1.609
2500,80.00,-2.1096,-9.0099,0.1225,0.5354,-0.3243,-0.4176,rough,14.0,1,1.544
2510,80.32,-1.7892,-9.2584,0.1737,0.4736,-0.4093,-0.1031,rough,14.0,1,1.407
2520,80.64,-1.4234,-9.3411,0.2597,0.5776,-0.4726,0.1374,rough,14.0,1,1.217
2530,80.96,-1.2048,-9.3775,0.3399,0.4200,-0.7498,0.2611,rough,14.0,1,1.137
2540,81.28,-1.0727,-9.3945,0.4368,0.2003,-0.8848,0.5026,rough,14.0,1,1.102
2550,81.60,-1.0252,-9.4402,0.4225,-0.2427,-0.8690,1.1205,rough,14.0,1,1.131
2560,81.92,-1.1111,-9.4948,0.3152,-0.6659,-0.4697,1.8831,rough,14.0,1,1.209
2570,82.24,-1.3071,-9.5334,0.1840,-0.7051,-0.3840,2.0554,rough,14.0,1,1.322
2580,82.56,-1.4943,-9.4927,0.1312,-0.5548,-0.2653,2.2947,rough,14.0,1,1.382
2590,82.88,-1.6602,-9.3657,0.1690,-0.4446,-0.4741,2.1586,rough,14.0,1,1.387
2600,83.20,-1.8439,-9.1124,0.2181,-0.5566,-0.2824,1.8696,rough,14.0,1,1.363
2610,83.52,-1.9878,-8.8374,0.2734,-0.5010,-0.4728,1.5829,rough,14.0,1,1.365
2620,83.84,-2.0003,-8.5314,0.4250,-0.3757,-0.6074,1.3395,rough,14.0,1,1.301
2630,84.16,-1.9436,-8.2657,0.6129,-0.2325,-0.7326,1.0901,rough,14.0,1,1.235
2640,84.48,-1.8361,-8.0645,0.8221,-0.1277,-0.7755,0.9380,rough,14.0,1,1.161
2650,84.80,-1.7202,-7.8855,1.0103,-0.1114,-0.7913,0.8278,rough,14.0,1,1.112
2660,85.12,-1.5779,-7.7309,1.1902,-0.0168,-0.7554,0.5935,rough,14.0,1,1.066
2670,85.44,-1.4181,-7.6292,1.3320,0.1610,-0.6176,0.2834,rough,14.0,1,1.011
2680,85.76,-1.2123,-7.5689,1.4882,0.2532,-0.5809,0.0839,rough,14.0,1,0.930
2690,86.08,-1.0111,-7.5261,1.6074,0.2240,-0.6436,-0.0365,rough,14.0,1,0.880
2700,86.40,-0.7791,-7.4994,1.6776,0.0916,-0.3003,-0.0835,rough,14.0,1,0.856
2710,86.72,-0.5139,-7.4928,1.7016,-0.0131,-0.0476,-0.3674,rough,14.0,1,0.883
2720,87.04,-0.2770,-7.6057,1.7310,0.0062,-0.1209,-0.6034,rough,14.0,1,0.865
2730,87.36,-0.0699,-7.8154,1.7264,0.0880,0.0782,-0.9128,rough,14.0,1,0.837
2740,87.68,0.0438,-8.0369,1.7145,0.0784,0.0596,-1.2558,rough,14.0,1,0.819
2750,88.00,0.0160,-8.2917,1.6766,0.0269,0.1177,-1.7028,rough,14.0,2,5.462
2760,88.32,-0.0975,-8.5947,1.6299,0.0872,0.1982,-1.9899,rough,14.0,2,5.642
2770,88.64,-0.2928,-8.9007,1.4705,0.1953,0.6593,-2.2145,rough,14.0,2,5.794
2780,88.96,-0.5256,-9.1740,1.1670,0.2049,0.9903,-2.3957,rough,14.0,2,5.918
2790,89.28,-0.8508,-9.5570,0.4977,-0.4471,0.9664,-2.9909,rough,14.0,2,6.123
2800,89.60,-1.3318,-9.9228,-0.0653,-0.2011,0.4940,-2.7976,rough,14.0,2,6.295
2810,89.92,-1.7054,-10.1244,-0.2491,-0.2887,0.4397,-2.7135,rough,14.0,2,6.385
2820,90.24,-1.9486,-10.2359,-0.3786,-0.3896,0.3687,-3.0369,rough,14.0,2,6.438
2830,90.56,-2.2072,-10.2678,-0.4701,-0.4540,0.2143,3.0470,rough,14.0,2,6.421
2840,90.88,-2.4396,-10.2762,-0.4923,-0.4229,-0.2010,3.0316,rough,14.0,2,6.395
2850,91.20,-2.7325,-10.2162,-0.4615,-0.2681,-0.1518,2.7458,rough,14.0,2,6.303
2860,91.52,-3.0623,-10.0031,-0.4646,-0.0275,0.0050,2.5596,rough,14.0,2,6.070
2870,91.84,-3.3826,-9.8274,-0.4623,-0.1712,0.0557,2.3976,rough,14.0,2,5.891
2880,92.16,-3.6006,-9.6396,-0.4265,-0.1731,-0.3523,2.3180,rough,14.0,2,5.711
2890,92.48,-3.7900,-9.3824,-0.2896,-0.0498,-0.4829,2.1792,rough,14.0,2,5.469
2900,92.80,-3.9563,-9.1486,-0.1367,-0.0751,-0.5578,2.0773,rough,14.0,2,5.255
2910,93.12,-4.1587,-8.8580,0.0157,-0.2420,-0.4233,2.0292,rough,14.0,2,4.999
2920,93.44,-4.2960,-8.5588,0.1517,-0.1544,-0.3263,1.9029,rough,14.0,2,4.732
2930,93.76,-4.4306,-8.2590,0.2662,-0.2427,-0.4084,1.9141,rough,14.0,2,4.472
2940,94.08,-4.5551,-7.9276,0.4145,-0.2512,-0.4159,1.8737,rough,14.0,2,4.189
2950,94.40,-4.6414,-7.6680,0.5891,-0.2328,-0.7084,1.9047,rough,14.0,2,3.971
2960,94.72,-4.7108,-7.3900,0.7691,-0.0670,-0.5595,1.9086,rough,14.0,2,3.737
2970,95.04,-4.7879,-7.1632,0.9125,0.0139,-0.6242,1.8992,rough,14.0,2,3.561
2980,95.36,-4.8709,-6.9260,1.0584,0.0308,-0.4719,1.8025,rough,14.0,2,3.385
2990,95.68,-5.0053,-6.5575,1.1831,-0.2102,-0.2446,1.7155,rough,14.0,2,3.137
3000,96.00,-5.0680,-6.1451,1.2324,-0.2153,-0.0765,1.5310,rough,14.0,2,2.840
3010,96.32,-5.0334,-5.7324,1.2479,-0.1275,-0.0421,1.3825,rough,14.0,2,2.509
3020,96.64,-4.9430,-5.3558,1.2800,-0.0872,-0.1214,1.2837,rough,14.0,2,2.185
3030,96.96,-4.8417,-5.0022,1.3558,-0.0877,-0.2880,1.1688,rough,14.0,2,1.889
3040,97.28,-4.7025,-4.6413,1.4522,-0.1505,-0.3422,1.0615,rough,14.0,2,1.586
3050,97.60,-4.5243,-4.3076,1.5672,-0.1589,-0.3362,0.9386,rough,14.0,2,1.297
3060,97.92,-4.2774,-3.9901,1.6442,-0.1562,-0.1880,0.7432,rough,14.0,2,0.998
3070,98.24,-3.9240,-3.6553,1.5582,-0.1120,0.4673,0.7263,rough,14.0,3,10.139
3080,98.56,-3.6257,-3.3642,1.3712,-0.0786,0.4403,0.7932,rough,14.0,3,9.776
3090,98.88,-3.3424,-3.0717,1.2063,0.0553,0.4515,0.9019,rough,14.0,3,9.419
3100,99.20,-3.0827,-2.7367,1.0065,0.0724,0.4922,0.9496,rough,14.0,3,9.031
3110,99.52,-2.8248,-2.3835,0.7162,0.2546,0.7449,1.1207,rough,14.0,3,8.628
3120,99.84,-2.6060,-2.0253,0.3868,0.3067,0.5526,1.3087,rough,14.0,3,8.233
3130,100.16,-2.4484,-1.6680,0.1806,0.3571,0.3758,1.3700,rough,14.0,3,7.851
3140,100.48,-2.3641,-1.2988,0.1104,0.2111,0.0454,1.3591,rough,14.0,3,7.473
3150,100.80,-2.3066,-0.8666,0.0763,0.0613,-0.0118,1.3677,rough,14.0,3,7.038
3160,101.12,-2.2350,-0.4105,0.0469,-0.0872,0.0574,1.3635,rough,14.0,3,6.576
3170,101.44,-2.1506,0.0241,0.0289,-0.1088,0.0330,1.3615,rough,14.0,3,6.134
3180,101.76,-2.0673,0.4468,0.0351,-0.1313,-0.0509,1.3714,rough,14.0,3,5.703
3190,102.08,-1.9973,0.8629,0.0685,-0.1839,-0.1740,1.3918,rough,14.0,3,5.281
3200,102.40,-1.9189,1.2808,0.1502,-0.1659,-0.2460,1.4037,rough,14.0,3,4.856
3210,102.72,-1.8383,1.6917,0.2620,-0.1029,-0.3115,1.4033,rough,14.0,3,4.437
3220,103.04,-1.7422,2.1115,0.3746,0.0315,-0.3044,1.3963,rough,14.0,3,4.007
3230,103.36,-1.6529,2.5368,0.4893,0.1128,-0.2684,1.3929,rough,14.0,3,3.572
3240,103.68,-1.5590,2.9927,0.5598,0.1941,-0.0862,1.4118,rough,14.0,3,3.107
3250,104.00,-1.4873,3.4629,0.5688,0.1615,0.0885,1.4310,rough,14.0,3,2.631
3260,104.32,-1.4077,3.9388,0.4944,0.2199,0.3199,1.4608,rough,14.0,3,2.149
3270,104.64,-1.3232,4.4163,0.2976,0.3237,0.5054,1.5846,rough,14.0,3,1.665
3280,104.96,-1.2707,4.8639,0.0590,0.6142,0.4918,1.7697,rough,14.0,3,1.218
3290,105.28,-1.3053,5.2659,-0.1294,0.6771,0.3877,1.7530,rough,14.0,3,0.849
3300,105.60,-1.2839,5.6310,-0.3049,0.5820,0.3850,1.5751,rough,14.0,0,10.589
3310,105.92,-1.2081,5.9158,-0.4687,0.5007,0.5069,1.3169,rough,14.0,0,10.795
3320,106.24,-1.1023,6.1888,-0.6321,0.4190,0.5928,1.0588,rough,14.0,0,10.980
3330,106.56,-0.9805,6.4094,-0.7985,0.2415,0.6815,0.7491,rough,14.0,0,11.115
3340,106.88,-0.8148,6.5669,-0.9764,0.0103,0.6798,0.3843,rough,14.0,0,11.179
3350,107.20,-0.5565,6.6532,-1.1675,-0.0902,0.5024,0.2141,rough,14.0,0,11.142
3360,107.52,-0.2473,6.6562,-1.3095,-0.0721,0.5072,-0.0391,rough,14.0,0,11.016
3370,107.84,0.0764,6.6542,-1.4105,-0.1600,0.2481,-0.0413,rough,14.0,0,10.886
3380,108.16,0.4403,6.6445,-1.4733,-0.1520,0.0869,-0.0583,rough,14.0,0,10.743
3390,108.48,0.7108,6.6171,-1.4619,-0.1113,-0.1430,-0.0893,rough,14.0,0,10.625
3400,108.80,0.8877,6.5802,-1.4438,-0.0459,-0.4132,-0.0785,rough,14.0,0,10.533
3410,109.12,1.1349,6.5048,-1.3780,0.2190,-0.2302,-0.1298,rough,14.0,0,10.385
3420,109.44,1.3621,6.4463,-1.3316,0.3117,-0.3636,-0.2352,rough,14.0,0,10.263
3430,109.76,1.6336,6.3553,-1.2529,0.3245,-0.2253,-0.2659,rough,14.0,0,10.102
3440,110.08,1.9837,6.2278,-1.2541,0.1898,0.0615,-0.3795,rough,14.0,0,9.894
3450,110.40,2.2220,6.1125,-1.2074,0.2102,-0.4012,-0.6304,rough,14.0,0,9.729
3460,110.72,2.5569,5.8783,-1.1832,-0.0586,-0.1141,-0.7569,rough,14.0,0,9.435
3470,111.04,2.7864,5.6980,-1.1122,-0.1176,-0.3235,-0.7384,rough,14.0,0,9.219
3480,111.36,3.0652,5.4575,-1.0400,-0.1728,-0.0800,-0.9055,rough,14.0,0,8.941
3490,111.68,3.3147,5.1083,-1.0161,-0.1257,0.0191,-0.9915,rough,14.0,0,8.564
3500,112.00,3.5407,4.7644,-1.0067,-0.1400,-0.0586,-1.0474,rough,14.0,0,8.200
3510,112.32,3.7126,4.4426,-0.9405,-0.1026,-0.3025,-1.0804,rough,14.0,0,7.866
3520,112.64,3.8677,4.0669,-0.8282,-0.0183,-0.2811,-1.1543,rough,14.0,0,7.482
3530,112.96,4.0123,3.6850,-0.7133,0.0517,-0.2764,-1.2062,rough,14.0,0,7.095
3540,113.28,4.2461,3.2774,-0.6930,-0.2976,0.0628,-1.2347,rough,14.0,0,6.684
3550,113.60,4.3897,2.8539,-0.7244,-0.1210,0.1204,-1.2939,rough,14.0,0,6.262
3560,113.92,4.4930,2.4704,-0.7324,-0.0557,-0.0311,-1.3162,rough,14.0,0,5.883
3570,114.24,4.5892,2.1407,-0.6634,-0.1062,-0.4011,-1.3282,rough,14.0,0,5.559
3580,114.56,4.7476,1.7601,-0.5941,-0.3706,-0.1946,-1.3335,rough,14.0,0,5.192
3590,114.88,4.8577,1.3508,-0.5367,-0.4291,0.0056,-1.4114,rough,14.0,0,4.798
3600,115.20,4.9524,0.9447,-0.5162,-0.4938,-0.0588,-1.4330,rough,14.0,0,4.410
3610,115.52,5.0502,0.5514,-0.5007,-0.5057,-0.1416,-1.4050,rough,14.0,0,4.041
3620,115.84,5.1290,0.1599,-0.4376,-0.4674,-0.2491,-1.3908,rough,14.0,0,3.677
3630,116.16,5.1705,-0.2156,-0.3458,-0.2433,-0.3528,-1.4045,rough,14.0,0,3.325
3640,116.48,5.1784,-0.6409,-0.2545,0.0151,-0.2395,-1.5098,rough,14.0,0,2.922
3650,116.80,5.1839,-1.0913,-0.1976,0.0781,-0.0730,-1.6064,rough,14.0,0,2.502
3660,117.12,5.1696,-1.5482,-0.2116,0.0507,0.0951,-1.6855,rough,14.0,0,2.080
3670,117.44,5.1215,-1.9793,-0.2523,0.0019,0.0950,-1.7491,rough,14.0,0,1.680
3680,117.76,5.0249,-2.3972,-0.2781,0.0621,0.0904,-1.8136,rough,14.0,0,1.282
3690,118.08,4.9042,-2.8079,-0.3022,0.0877,0.0937,-1.8875,rough,14.0,0,0.898
3700,118.40,4.7572,-3.1871,-0.3406,0.1107,0.0433,-1.9655,rough,14.0,1,7.523
3710,118.72,4.5488,-3.6050,-0.3956,0.2407,0.2615,-1.9718,rough,14.0,1,7.087
3720,119.04,4.3540,-3.9762,-0.4905,0.3090,0.2399,-2.0328,rough,14.0,1,6.695
3730,119.36,4.1408,-4.3326,-0.5762,0.3662,0.1879,-2.0874,rough,14.0,1,6.302
3740,119.68,3.9132,-4.6748,-0.6381,0.3711,0.0984,-2.1708,rough,14.0,1,5.909
3750,120.00,3.6591,-5.0128,-0.6602,0.3332,0.0138,-2.2388,rough,14.0,1,5.501
3760,120.32,3.3677,-5.3224,-0.6548,0.4174,-0.0040,-2.2901,rough,14.0,1,5.082
3770,120.64,3.0764,-5.5804,-0.6226,0.4309,-0.1879,-2.3864,rough,14.0,1,4.695
3780,120.96,2.8409,-5.7285,-0.5376,0.5766,-0.5884,-2.5903,rough,14.0,1,4.417
3790,121.28,2.6139,-5.8251,-0.4192,0.5230,-0.5586,-2.8931,rough,14.0,1,4.177
3800,121.60,2.3519,-5.8247,-0.2756,0.5306,-0.6974,-2.8826,rough,14.0,1,3.972
3810,121.92,2.1755,-5.8314,-0.1778,0.0648,-0.7498,-2.3124,rough,14.0,1,3.834
3820,122.24,2.0363,-5.8795,-0.0708,-0.1376,-0.7456,-2.1333,rough,14.0,1,3.697
3830,122.56,1.8813,-5.9269,0.0351,-0.1560,-0.7039,-2.1761,rough,14.0,1,3.551
3840,122.88,1.6599,-6.0345,0.1839,-0.0191,-0.5854,-2.1405,rough,14.0,1,3.317
3850,123.20,1.5055,-6.2119,0.3751,-0.0422,-0.7503,-2.0776,rough,14.0,1,3.082
3860,123.52,1.4009,-6.3921,0.5898,-0.2347,-0.8520,-1.8014,rough,14.0,1,2.883
3870,123.84,1.4175,-6.5463,0.7028,-0.4930,-0.6528,-1.4713,rough,14.0,1,2.793
3880,124.16,1.5320,-6.6431,0.7056,-0.5844,-0.5260,-1.2200,rough,14.0,1,2.821
3890,124.48,1.6760,-6.6681,0.6652,-0.6334,-0.5612,-1.1106,rough,14.0,1,2.923
3900,124.80,1.8541,-6.6499,0.5921,-0.6906,-0.5409,-0.8640,rough,14.0,1,3.080
3910,125.12,2.1082,-6.6353,0.4947,-0.6483,-0.4016,-0.5712,rough,14.0,1,3.302
3920,125.44,2.3453,-6.5396,0.3785,-0.7338,-0.3682,-0.8692,rough,14.0,1,3.555
3930,125.76,2.6054,-6.4023,0.1162,-0.6592,-0.5147,-1.0500,rough,14.0,1,3.848
3940,126.08,2.8670,-6.2037,-0.1488,-0.4515,-0.5536,-1.1799,rough,14.0,1,4.175
3950,126.40,2.9714,-5.9733,-0.3619,-0.2545,-0.6731,-1.1252,rough,14.0,1,4.385
3960,126.72,3.0145,-5.7435,-0.5269,-0.1114,-0.7067,-1.0501,rough,14.0,1,4.549
3970,127.04,3.0624,-5.6503,-0.5803,0.0510,-0.6128,-1.3229,rough,14.0,1,4.642
3980,127.36,3.1011,-5.6503,-0.5794,0.1099,-0.5217,-1.4825,rough,14.0,1,4.674
3990,127.68,3.1180,-5.8023,-0.4838,0.1477,-0.7468,-1.5647,rough,14.0,1,4.602
4000,128.00,3.1472,-5.9661,-0.3778,-0.0388,-0.7139,-1.5462,rough,14.0,1,4.538
4010,128.32,3.1768,-6.1891,-0.2396,-0.1691,-0.5919,-1.5576,rough,14.0,1,4.450
4020,128.64,3.1964,-6.3973,-0.1009,-0.2719,-0.7436,-1.5188,rough,14.0,1,4.370
4030,128.96,3.2298,-6.6344,0.0394,-0.4151,-0.5707,-1.5690,rough,14.0,1,4.300
4040,129.28,3.2434,-6.8700,0.1844,-0.5017,-0.6210,-1.5182,rough,14.0,1,4.224
4050,129.60,3.2633,-7.1247,0.3269,-0.5730,-0.5476,-1.5492,rough,14.0,1,4.161
4060,129.92,3.2803,-7.3793,0.4731,-0.5333,-0.5947,-1.6349,rough,14.0,1,4.109
4070,130.24,3.2700,-7.6010,0.6204,-0.5638,-0.5823,-1.5910,rough,14.0,1,4.052
4080,130.56,3.2800,-7.8090,0.7649,-0.5070,-0.6992,-1.6667,rough,14.0,1,4.029
4090,130.88,3.2491,-8.0050,0.9245,-0.3828,-0.7137,-1.7867,rough,14.0,1,3.976
4100,131.20,3.2277,-8.1846,1.0792,-0.4858,-0.6999,-1.6288,rough,14.0,1,3.943
4110,131.52,3.3116,-8.2647,1.0881,-0.6631,-0.5146,-1.2538,rough,14.0,1,4.024
4120,131.84,3.4365,-8.2545,0.9937,-0.6122,-0.4664,-1.2241,rough,14.0,1,4.149
4130,132.16,3.5539,-8.2358,0.9147,-0.6375,-0.4257,-1.1890,rough,14.0,1,4.267
4140,132.48,3.6710,-8.2363,0.8464,-0.6459,-0.4143,-1.1821,rough,14.0,1,4.384
4150,132.80,3.7819,-8.2548,0.7987,-0.6324,-0.4261,-1.1909,rough,14.0,1,4.495
4160,133.12,3.8757,-8.3151,0.7781,-0.6080,-0.3614,-1.2243,rough,14.0,1,4.588
4170,133.44,3.9597,-8.4279,0.7921,-0.5216,-0.3468,-1.3094,rough,14.0,1,4.672
4180,133.76,4.0359,-8.6088,0.8369,-0.5587,-0.2157,-1.5010,rough,14.0,1,4.755
4190,134.08,4.0856,-8.8013,0.8614,-0.4827,-0.4616,-1.6980,rough,14.0,1,4.818
4200,134.40,4.0949,-9.0728,0.9450,-0.4955,-0.5739,-1.9355,rough,14.0,1,4.860
4210,134.72,4.0977,-9.3248,1.0416,-0.5707,-0.7190,-2.0359,rough,14.0,1,4.907
4220,135.04,4.1740,-9.5115,1.0270,-0.6620,-0.6730,-1.8578,rough,14.0,1,5.021
4230,135.36,4.3416,-9.6619,0.9268,-0.3733,-0.7645,-2.1208,rough,14.0,1,5.220
4240,135.68,4.4362,-9.7629,0.8961,0.1799,-0.8644,-2.6998,rough,14.0,1,5.337
4250,136.00,4.4541,-9.8277,0.9125,0.4582,-0.6292,3.0695,rough,14.0,1,5.372
4260,136.32,4.3384,-9.7177,0.9337,0.5960,-0.5625,2.5617,rough,14.0,1,5.231
4270,136.64,4.1890,-9.4712,0.9906,0.6571,-0.5854,2.5179,rough,14.0,1,5.027
4280,136.96,4.1691,-9.2067,0.9328,0.5920,-0.5460,2.5196,rough,14.0,1,4.955
4290,137.28,4.2279,-8.9927,0.8306,0.4481,-0.6239,2.6056,rough,14.0,1,4.981
4300,137.60,4.2525,-8.8900,0.7825,0.3917,-0.6556,2.7494,rough,14.0,1,4.993
4310,137.92,4.1995,-8.8435,0.8068,0.3222,-0.6453,2.9308,rough,14.0,1,4.936
4320,138.24,4.0694,-8.8419,0.8996,0.2717,-0.6182,3.1212,rough,14.0,1,4.806
4330,138.56,3.8744,-8.8486,1.0480,0.4188,-0.7416,3.0373,rough,14.0,1,4.613
4340,138.88,3.6878,-8.7466,1.1721,0.4634,-0.7456,3.0156,rough,14.0,1,4.417
4350,139.20,3.6165,-8.5471,1.1114,0.4780,-0.7492,2.9880,rough,14.0,1,4.333
4360,139.52,3.5822,-8.2536,0.9171,0.4328,-0.6637,-2.9139,rough,14.0,1,4.295
4370,139.84,3.4841,-7.9205,0.7238,0.4236,-0.7251,-2.7593,rough,14.0,1,4.218
4380,140.16,3.4458,-7.5846,0.5063,-0.1197,-0.7416,-2.0043,rough,14.0,1,4.228
4390,140.48,3.5540,-7.3611,0.2980,-0.5373,-0.4201,-1.2175,rough,14.0,1,4.380
4400,140.80,3.6765,-7.2457,0.1709,-0.5283,-0.3766,-1.1636,rough,14.0,1,4.526
4410,141.12,3.8192,-7.2709,0.1269,-0.5674,-0.3336,-1.0547,rough,14.0,1,4.658
4420,141.44,3.9953,-7.3819,0.1284,-0.5740,-0.3719,-1.0241,rough,14.0,1,4.806
4430,141.76,4.1611,-7.4988,0.1512,-0.5618,-0.4654,-1.0537,rough,14.0,1,4.947
4440,142.08,4.2874,-7.6177,0.1838,-0.5105,-0.4518,-1.2107,rough,14.0,1,5.053
4450,142.40,4.3542,-7.7704,0.2561,-0.4277,-0.5142,-1.3529,rough,14.0,1,5.099
4460,142.72,4.4409,-8.0210,0.3285,-0.5799,-0.4831,-1.5896,rough,14.0,1,5.163
4470,143.04,4.4951,-8.3133,0.4350,-0.5871,-0.4892,-1.8281,rough,14.0,1,5.207
4480,143.36,4.4911,-8.5815,0.5268,-0.5222,-0.6212,-2.0779,rough,14.0,1,5.208
4490,143.68,4.4328,-8.8558,0.6191,-0.3057,-0.5618,-2.3551,rough,14.0,1,5.169
4500,144.00,4.2793,-9.0813,0.7869,-0.3297,-0.6968,-2.4267,rough,14.0,1,5.044
4510,144.32,4.1680,-9.2517,0.9565,-0.3501,-0.8490,-2.4903,rough,14.0,1,4.962
4520,144.64,4.0806,-9.3562,1.0723,-0.4805,-0.7679,-2.1773,rough,14.0,1,4.896
4530,144.96,4.1297,-9.5267,1.0711,-0.6732,-0.5665,-1.7838,rough,14.0,1,4.982
4540,145.28,4.3052,-9.6755,0.9539,-0.5969,-0.6013,-1.9942,rough,14.0,1,5.188
4550,145.60,4.3869,-9.8270,0.9616,-0.2135,-0.7750,-2.2461,rough,14.0,1,5.307
4560,145.92,4.3764,-9.9669,1.0421,0.2922,-0.8807,-2.8092,rough,14.0,1,5.338
4570,146.24,4.3034,-10.0017,1.1044,0.5910,-0.7904,2.8997,rough,14.0,1,5.279
4580,146.56,4.2254,-9.8246,1.0928,0.7895,-0.5201,2.3541,rough,14.0,1,5.152
4590,146.88,4.2487,-9.4752,0.9256,0.7291,-0.4879,2.3192,rough,14.0,1,5.086
4600,147.20,4.3551,-9.1512,0.7521,0.6630,-0.3838,2.2383,rough,14.0,1,5.129
4610,147.52,4.4712,-8.8748,0.6090,0.5622,-0.3382,2.3770,rough,14.0,1,5.209
4620,147.84,4.5254,-8.6775,0.5128,0.5913,-0.5071,2.4981,rough,14.0,1,5.247
4630,148.16,4.5416,-8.4787,0.4382,0.6641,-0.3736,2.2641,rough,14.0,1,5.255
4640,148.48,4.5461,-8.2444,0.3538,0.6627,-0.3919,2.4167,rough,14.0,1,5.259
4650,148.80,4.5305,-7.9422,0.2295,0.6189,-0.5489,2.7343,rough,14.0,1,5.258
4660,149.12,4.5368,-7.6225,0.0560,0.4597,-0.6120,2.9903,rough,14.0,1,5.299
4670,149.44,4.4774,-7.3353,-0.0929,0.5958,-0.4180,2.9648,rough,14.0,1,5.288
4680,149.76,4.2402,-7.1181,-0.1397,0.6475,-0.0702,2.7433,rough,14.0,1,5.104
4690,150.08,3.9134,-6.9272,-0.1222,0.6042,-0.2471,2.7918,rough,14.0,1,4.840
4700,150.40,3.5342,-6.8053,-0.0190,0.5230,-0.2682,2.9225,rough,14.0,1,4.519
4710,150.72,3.2053,-6.6850,0.0851,0.5662,-0.4759,2.9610,rough,14.0,1,4.257
4720,151.04,2.8296,-6.5896,0.2030,0.6636,-0.4600,3.0925,rough,14.0,1,3.956
4730,151.36,2.4911,-6.4622,0.2278,0.6680,-0.5025,-3.0373,rough,14.0,1,3.719
4740,151.68,2.2344,-6.2618,0.1398,0.6581,-0.4323,-3.0112,rough,14.0,1,3.613
4750,152.00,2.0591,-6.0055,0.0132,0.2885,-0.6956,-2.5583,rough,14.0,1,3.632
4760,152.32,1.9237,-5.7702,-0.0714,0.0430,-0.7386,-2.5038,rough,14.0,1,3.690
4770,152.64,1.8782,-5.6029,-0.1548,0.4651,-0.5518,-3.1252,rough,14.0,1,3.778
4780,152.96,1.8006,-5.4980,-0.1700,0.6645,-0.2947,2.7522,rough,14.0,1,3.803
4790,153.28,1.6070,-5.3754,-0.1699,0.5757,-0.1308,2.8308,rough,14.0,1,3.774
4800,153.60,1.3041,-5.2630,-0.1254,0.5699,-0.3100,3.0965,rough,14.0,1,3.690
4810,153.92,0.9563,-5.1991,-0.0807,0.5614,-0.3074,-2.9587,rough,14.0,1,3.568
4820,154.24,0.7450,-5.1621,-0.0172,0.4530,-0.7291,-2.8716,rough,14.0,1,3.508
4830,154.56,0.5989,-5.1270,0.0410,0.1284,-0.8539,-2.6462,rough,14.0,1,3.482
4840,154.88,0.5016,-5.0327,0.0383,-0.1412,-0.8281,-2.1564,rough,14.0,1,3.535
4850,155.20,0.5380,-4.9776,-0.0312,-0.5907,-0.4701,-1.3758,rough,14.0,1,3.600
4860,155.52,0.6306,-4.9757,-0.0930,-0.6249,-0.4666,-1.3714,rough,14.0,1,3.635
4870,155.84,0.7022,-5.0577,-0.0910,-0.5906,-0.4896,-1.4211,rough,14.0,1,3.586
4880,156.16,0.7782,-5.2323,0.0182,-0.6544,-0.6166,-1.2173,rough,14.0,1,3.458
4890,156.48,0.9114,-5.4514,0.1228,-0.5790,-0.4769,-1.1165,rough,14.0,1,3.325
4900,156.80,1.0349,-5.5735,0.1743,-0.4517,-0.5334,-1.1316,rough,14.0,1,3.283
4910,157.12,1.2377,-5.7237,0.1960,-0.6832,-0.3983,-1.1508,rough,14.0,1,3.273
4920,157.44,1.3940,-5.8962,0.2302,-0.5919,-0.4265,-1.1504,rough,14.0,1,3.236
4930,157.76,1.5388,-6.0803,0.2656,-0.3819,-0.4924,-1.3452,rough,14.0,1,3.199
4940,158.08,1.6164,-6.3296,0.4065,-0.4496,-0.6274,-1.3364,rough,14.0,1,3.085
4950,158.40,1.6876,-6.5700,0.5646,-0.4561,-0.6191,-1.3998,rough,14.0,1,2.989
4960,158.72,1.7720,-6.7421,0.7005,-0.6025,-0.7200,-1.1384,rough,14.0,1,2.961
4970,159.04,1.9014,-6.8195,0.7311,-0.5682,-0.6480,-0.9888,rough,14.0,1,3.030
4980,159.36,2.0395,-6.7569,0.6307,-0.4286,-0.6847,-1.0256,rough,14.0,1,3.181
4990,159.68,2.1597,-6.6261,0.4906,-0.3750,-0.6858,-1.1288,rough,14.0,1,3.351
5000,160.00,2.3108,-6.4573,0.2836,-0.2935,-0.7276,-1.4558,rough,14.0,1,3.568
5010,160.32,2.5263,-6.2987,0.0538,-0.3328,-0.7806,-1.5558,rough,14.0,1,3.835
5020,160.64,2.6962,-6.0938,-0.2016,-0.2960,-0.7533,-1.5373,rough,14.0,1,4.089
5030,160.96,2.7806,-5.8330,-0.4431,-0.4030,-0.7500,-1.2868,rough,14.0,1,4.307
5040,161.28,2.8452,-5.6387,-0.6006,-0.2328,-0.4348,-1.2494,rough,14.0,1,4.474
5050,161.60,2.9249,-5.5721,-0.6349,-0.3289,-0.4415,-0.8043,rough,14.0,1,4.578
5060,161.92,2.9866,-5.6219,-0.6031,-0.1281,-0.5701,-0.8386,rough,14.0,1,4.598
5070,162.24,3.0930,-5.7128,-0.5345,-0.0502,-0.6944,-1.0933,rough,14.0,1,4.631
5080,162.56,3.1935,-5.8562,-0.4550,-0.1056,-0.6654,-1.2690,rough,14.0,1,4.635
5090,162.88,3.3007,-6.0976,-0.3124,-0.2303,-0.4388,-1.3762,rough,14.0,1,4.603
5100,163.20,3.3379,-6.2506,-0.2206,-0.2097,-0.6213,-1.3592,rough,14.0,1,4.563
5110,163.52,3.4215,-6.5116,-0.1177,-0.3729,-0.4716,-1.4406,rough,14.0,1,4.525
5120,163.84,3.4637,-6.7391,-0.0100,-0.3945,-0.4851,-1.4681,rough,14.0,1,4.477
5130,164.16,3.5003,-6.9827,0.1028,-0.4342,-0.5035,-1.5140,rough,14.0,1,4.429
5140,164.48,3.5127,-7.2229,0.2342,-0.3735,-0.5533,-1.5907,rough,14.0,1,4.373
5150,164.80,3.5064,-7.4378,0.3704,-0.3678,-0.5860,-1.5832,rough,14.0,1,4.316
5160,165.12,3.5070,-7.6416,0.5054,-0.3225,-0.6249,-1.6437,rough,14.0,1,4.278
5170,165.44,3.4961,-7.8234,0.6358,-0.1161,-0.7406,-1.9039,rough,14.0,1,4.241
5180,165.76,3.4442,-7.9812,0.7931,-0.2582,-0.7318,-1.7293,rough,14.0,1,4.173
5190,166.08,3.4356,-8.1159,0.8996,-0.3878,-0.6726,-1.5717,rough,14.0,1,4.154
5200,166.40,3.4568,-8.2500,0.9768,-0.4836,-0.6191,-1.4854,rough,14.0,1,4.170
5210,166.72,3.5270,-8.3633,1.0186,-0.5453,-0.6083,-1.4115,rough,14.0,1,4.239
5220,167.04,3.6614,-8.4122,0.9765,-0.4639,-0.7104,-1.5566,rough,14.0,1,4.374
5230,167.36,3.8138,-8.4823,0.9268,-0.2190,-0.8119,-2.0269,rough,14.0,1,4.527
5240,167.68,3.8155,-8.5153,0.9281,0.2312,-0.7408,-2.7953,rough,14.0,1,4.530
5250,168.00,3.7426,-8.4336,0.9214,0.2523,-0.7835,-2.8024,rough,14.0,1,4.455
5260,168.32,3.6840,-8.4027,0.9320,-0.1237,-0.7681,-2.1723,rough,14.0,1,4.396
5270,168.64,3.7008,-8.4743,0.9701,0.0031,-0.8183,-2.4454,rough,14.0,1,4.414
5280,168.96,3.6830,-8.5131,1.0081,-0.0543,-0.8048,-2.3785,rough,14.0,1,4.398
5290,169.28,3.6661,-8.5541,1.0500,-0.0740,-0.8071,-2.3737,rough,14.0,1,4.383
5300,169.60,3.6536,-8.5996,1.0906,-0.1244,-0.8045,-2.3293,rough,14.0,1,4.372
5310,169.92,3.6533,-8.6287,1.1119,-0.1864,-0.8052,-2.2612,rough,14.0,1,4.374
5320,170.24,3.6746,-8.6520,1.1128,-0.2316,-0.8131,-2.2385,rough,14.0,1,4.397
5330,170.56,3.7162,-8.6713,1.0938,-0.3283,-0.8060,-2.1498,rough,14.0,1,4.439
5340,170.88,3.7360,-8.7058,1.1011,-0.4017,-0.7648,-2.0624,rough,14.0,1,4.462
5350,171.20,3.7618,-8.8227,1.1288,-0.4076,-0.7533,-2.0535,rough,14.0,1,4.498
5360,171.52,3.8130,-8.9521,1.1492,0.0718,-0.8480,-2.7444,rough,14.0,1,4.564
5370,171.84,3.8302,-8.9098,1.1104,0.2883,-0.8274,-3.0479,rough,14.0,1,4.576
5380,172.16,3.8651,-8.7929,1.0238,0.2698,-0.7916,-2.9755,rough,14.0,1,4.598
5390,172.48,3.8222,-8.7129,1.0227,0.3663,-0.7857,-3.1311,rough,14.0,1,4.548
5400,172.80,3.7686,-8.5571,0.9868,0.4095,-0.7452,3.0426,rough,14.0,1,4.485
5410,173.12,3.7534,-8.3426,0.8760,0.5479,-0.6956,2.9435,rough,14.0,1,4.465
5420,173.44,3.6630,-8.0728,0.7209,0.7115,-0.3115,2.8647,rough,14.0,1,4.384
5430,173.76,3.4281,-7.8308,0.6796,0.7667,-0.0980,2.7170,rough,14.0,1,4.173
5440,174.08,3.1771,-7.6128,0.6914,0.7272,-0.4198,2.6666,rough,14.0,1,3.959
5450,174.40,2.9722,-7.3565,0.6915,0.6931,-0.4612,2.7826,rough,14.0,1,3.816
5460,174.72,2.7352,-7.1014,0.6658,0.7428,-0.1988,2.7609,rough,14.0,1,3.667
5470,175.04,2.4096,-6.8201,0.6031,0.7495,-0.2683,2.9677,rough,14.0,1,3.478
5480,175.36,2.0742,-6.4773,0.3676,0.7922,-0.2605,3.1268,rough,14.0,1,3.359
5490,175.68,1.7670,-6.1265,0.2299,0.5460,-0.4543,-3.0021,rough,14.0,1,3.332
5500,176.00,1.5413,-5.8786,0.1472,0.2458,-0.6314,-2.4815,rough,14.0,1,3.347
5510,176.32,1.4649,-5.8083,0.1381,-0.2765,-0.6161,-1.5730,rough,14.0,1,3.349
5520,176.64,1.5424,-5.8771,0.1420,-0.3776,-0.4952,-1.3464,rough,14.0,1,3.348
5530,176.96,1.6081,-6.0406,0.2170,-0.3637,-0.5013,-1.4046,rough,14.0,1,3.276
5540,177.28,1.6682,-6.2914,0.3587,-0.4175,-0.6114,-1.3952,rough,14.0,1,3.149
5550,177.60,1.7247,-6.5298,0.5180,-0.4369,-0.6215,-1.4030,rough,14.0,1,3.043
5560,177.92,1.8047,-6.7011,0.6552,-0.5735,-0.7209,-1.1692,rough,14.0,1,3.010
5570,178.24,1.9362,-6.7942,0.6958,-0.5841,-0.6167,-0.9158,rough,14.0,1,3.073
5580,178.56,2.0790,-6.7550,0.6245,-0.4523,-0.6816,-0.9600,rough,14.0,1,3.216
5590,178.88,2.2028,-6.6249,0.4854,-0.3977,-0.6835,-1.0754,rough,14.0,1,3.388
5600,179.20,2.3841,-6.4404,0.2423,-0.2258,-0.7654,-1.6264,rough,14.0,1,3.639
5610,179.52,2.5693,-6.2210,-0.0374,-0.2440,-0.7739,-1.7068,rough,14.0,1,3.913
5620,179.84,2.7200,-5.9250,-0.3406,-0.3833,-0.8215,-1.4187,rough,14.0,1,4.204
5630,180.16,2.8069,-5.6623,-0.5737,-0.4006,-0.4970,-1.1283,rough,14.0,1,4.430
5640,180.48,2.8409,-5.5716,-0.6379,-0.1343,-0.4425,-1.3781,rough,14.0,1,4.512
5650,180.80,2.8930,-5.6331,-0.6065,-0.0547,-0.4954,-1.3593,rough,14.0,1,4.516
5660,181.12,2.9404,-5.7952,-0.5084,0.0050,-0.6927,-1.4175,rough,14.0,1,4.459
5670,181.44,2.9747,-5.9647,-0.3676,0.0062,-0.7428,-1.4600,rough,14.0,1,4.393
5680,181.76,3.0181,-6.1105,-0.2683,-0.0774,-0.6970,-1.5085,rough,14.0,1,4.352
5690,182.08,3.0635,-6.2940,-0.1481,-0.2319,-0.6690,-1.5238,rough,14.0,1,4.300
5700,182.40,3.0828,-6.4545,-0.0185,-0.2705,-0.7218,-1.5119,rough,14.0,1,4.243
5710,182.72,3.1120,-6.5946,0.0794,-0.3823,-0.6980,-1.5005,rough,14.0,1,4.209
5720,183.04,3.1396,-6.7903,0.1853,-0.4891,-0.5690,-1.5600,rough,14.0,1,4.156
5730,183.36,3.1551,-7.0078,0.3334,-0.5339,-0.6403,-1.5179,rough,14.0,1,4.094
5740,183.68,3.1826,-7.2604,0.4620,-0.5910,-0.5608,-1.5658,rough,14.0,1,4.045
5750,184.00,3.2332,-7.5166,0.5884,-0.5659,-0.6065,-1.6381,rough,14.0,1,4.033
5760,184.32,3.2337,-7.7289,0.7353,-0.5974,-0.6455,-1.5944,rough,14.0,1,3.995
5770,184.64,3.2407,-7.9245,0.8691,-0.4049,-0.7150,-1.7990,rough,14.0,1,3.976
5780,184.96,3.2274,-8.0976,1.0073,-0.4404,-0.6932,-1.7145,rough,14.0,1,3.948
5790,185.28,3.2875,-8.1965,1.0454,-0.6367,-0.5413,-1.3239,rough,14.0,1,4.002
5800,185.60,3.4021,-8.2063,0.9821,-0.6141,-0.4613,-1.2384,rough,14.0,1,4.117
5810,185.92,3.5334,-8.1876,0.8911,-0.6343,-0.3938,-1.2193,rough,14.0,1,4.248
5820,186.24,3.6550,-8.1743,0.8103,-0.6438,-0.3674,-1.2021,rough,14.0,1,4.370
5830,186.56,3.7680,-8.1811,0.7513,-0.6211,-0.3945,-1.1954,rough,14.0,1,4.483
5840,186.88,3.8582,-8.2346,0.7518,-0.5549,-0.4539,-1.2300,rough,14.0,1,4.572
5850,187.20,3.9430,-8.3394,0.7584,-0.5239,-0.3769,-1.3075,rough,14.0,1,4.655
5860,187.52,4.0003,-8.4875,0.8009,-0.4823,-0.3554,-1.4298,rough,14.0,1,4.714
5870,187.84,4.0411,-8.6620,0.8544,-0.5332,-0.2891,-1.5438,rough,14.0,1,4.763
5880,188.16,4.0944,-8.8959,0.8835,-0.5393,-0.4406,-1.7539,rough,14.0,1,4.837
5890,188.48,4.0878,-9.1550,0.9832,-0.5053,-0.5864,-1.9531,rough,14.0,1,4.866
5900,188.80,4.1363,-9.3876,1.0292,-0.6124,-0.6833,-2.0161,rough,14.0,1,4.957
5910,189.12,4.2724,-9.5823,0.9375,-0.5756,-0.6917,-2.0326,rough,14.0,1,5.133
5920,189.44,4.3757,-9.7226,0.9219,-0.1323,-0.8386,-2.4415,rough,14.0,1,5.269
5930,189.76,4.4052,-9.8059,0.9451,0.4435,-0.8223,3.1323,rough,14.0,1,5.319
5940,190.08,4.3168,-9.7344,0.9596,0.6390,-0.5908,2.5305,rough,14.0,1,5.215
5950,190.40,4.1869,-9.4848,0.9985,0.6637,-0.5791,2.5074,rough,14.0,1,5.028
5960,190.72,4.1862,-9.2189,0.9092,0.5284,-0.5721,2.5958,rough,14.0,1,4.974
5970,191.04,4.2953,-9.0139,0.7817,0.4701,-0.6699,2.5490,rough,14.0,1,5.051
5980,191.36,4.3950,-8.8617,0.6621,0.4617,-0.5774,2.6177,rough,14.0,1,5.132
5990,191.68,4.3662,-8.7731,0.6438,0.4451,-0.5687,2.6852,rough,14.0,1,5.095
6000,192.00,4.2623,-8.6516,0.7013,0.3961,-0.4862,2.7747,rough,14.0,1,4.983
6010,192.32,4.1012,-8.5445,0.7746,0.3502,-0.4341,2.7975,rough,14.0,1,4.817
6020,192.64,3.7949,-8.3593,0.8660,0.6591,-0.4319,2.8324,rough,14.0,1,4.507
6030,192.96,3.4337,-8.1732,0.9367,0.6543,-0.3462,2.9709,rough,14.0,1,4.149
6040,193.28,3.1640,-8.0025,0.9888,0.7064,-0.5950,2.8963,rough,14.0,1,3.892
6050,193.60,3.0032,-7.7610,0.9397,0.6285,-0.5613,2.9016,rough,14.0,1,3.762
6060,193.92,2.9026,-7.4664,0.8210,0.6003,-0.5497,2.9246,rough,14.0,1,3.722
6070,194.24,2.7333,-7.1534,0.7141,0.7327,-0.2651,2.7791,rough,14.0,1,3.648
6080,194.56,2.4797,-6.8124,0.5627,0.7773,-0.2412,2.8963,rough,14.0,1,3.544
6090,194.88,2.1749,-6.4106,0.2944,0.7329,-0.1877,3.0954,rough,14.0,1,3.479
6100,195.20,2.0169,-6.0081,0.0674,0.3273,-0.7595,-2.5583,rough,14.0,1,3.598
6110,195.52,2.1367,-5.6942,-0.2626,-0.0130,-0.7725,-2.3056,rough,14.0,1,3.897
6120,195.84,2.2358,-5.3947,-0.5077,-0.0531,-0.7552,-2.2970,rough,14.0,1,4.176
6130,196.16,2.2098,-5.1360,-0.6378,-0.0629,-0.7157,-2.4845,rough,14.0,1,4.346
6140,196.48,2.2099,-5.0472,-0.6862,0.4902,-0.5579,2.8259,rough,14.0,1,4.412
6150,196.80,2.1902,-4.9641,-0.7051,0.5492,-0.4930,2.7020,rough,14.0,1,4.462
6160,197.12,2.0869,-4.8667,-0.6874,0.5994,-0.4398,2.7396,rough,14.0,1,4.471
6170,197.44,1.8685,-4.7223,-0.6424,0.5506,-0.1270,2.9027,rough,14.0,1,4.454
6180,197.76,1.6048,-4.6257,-0.6009,0.4967,-0.3859,3.0707,rough,14.0,1,4.389
6190,198.08,1.2761,-4.6013,-0.4926,0.3477,-0.3688,-2.9624,rough,14.0,1,4.246
6200,198.40,0.9532,-4.6548,-0.3782,0.3147,-0.4609,-2.7835,rough,14.0,1,4.056
6210,198.72,0.6985,-4.8051,-0.2261,0.1521,-0.5704,-2.6762,rough,14.0,1,3.818
6220,199.04,0.5267,-4.8915,-0.0742,-0.0688,-0.7249,-2.3299,rough,14.0,1,3.677
6230,199.36,0.4137,-5.0159,0.0954,-0.2559,-0.7937,-1.9844,rough,14.0,1,3.522
6240,199.68,0.4018,-5.2044,0.2455,-0.5634,-0.7593,-1.6051,rough,14.0,1,3.340
6250,200.00,0.5018,-5.3738,0.3048,-0.5384,-0.7588,-1.5118,rough,14.0,1,3.217
6260,200.32,0.7149,-5.4072,0.1852,-0.5017,-0.7531,-1.5096,rough,14.0,1,3.273
6270,200.64,0.8242,-5.3479,0.0845,-0.3889,-0.7401,-1.4685,rough,14.0,1,3.375
6280,200.96,0.9038,-5.3133,0.0216,-0.4964,-0.6630,-1.1913,rough,14.0,1,3.443
6290,201.28,1.0139,-5.3482,0.0021,-0.3738,-0.6553,-1.1620,rough,14.0,1,3.465
6300,201.60,1.1253,-5.3749,0.0136,-0.3265,-0.6921,-1.2308,rough,14.0,1,3.499
6310,201.92,1.2316,-5.4230,-0.0036,-0.3758,-0.5839,-1.3082,rough,14.0,1,3.516
6320,202.24,1.3332,-5.6138,0.0774,-0.4635,-0.4637,-1.4110,rough,14.0,1,3.419
6330,202.56,1.3958,-5.8354,0.1889,-0.4269,-0.5848,-1.3464,rough,14.0,1,3.284
6340,202.88,1.5068,-6.0665,0.2708,-0.4270,-0.4000,-1.3572,rough,14.0,1,3.186
6350,203.20,1.5801,-6.3061,0.4026,-0.4436,-0.5934,-1.3407,rough,14.0,1,3.073
6360,203.52,1.6512,-6.5449,0.5638,-0.4577,-0.6297,-1.3807,rough,14.0,1,2.976
6370,203.84,1.7268,-6.7232,0.6978,-0.5820,-0.7048,-1.2100,rough,14.0,1,2.933
6380,204.16,1.8504,-6.8115,0.7388,-0.5779,-0.6824,-1.0233,rough,14.0,1,2.990
6390,204.48,1.9981,-6.7667,0.6482,-0.4602,-0.6594,-1.0265,rough,14.0,1,3.140
6400,204.80,2.1483,-6.6563,0.5209,-0.4794,-0.6402,-0.9470,rough,14.0,1,3.326
6410,205.12,2.3169,-6.4894,0.3181,-0.4249,-0.7119,-1.2038,rough,14.0,1,3.556
6420,205.44,2.5058,-6.2914,0.0687,-0.3016,-0.8292,-1.6470,rough,14.0,1,3.821
6430,205.76,2.7079,-6.0139,-0.2777,-0.3137,-0.7260,-1.5183,rough,14.0,1,4.143
6440,206.08,2.7704,-5.6749,-0.5518,-0.4814,-0.5428,-1.0986,rough,14.0,1,4.393
6450,206.40,2.7532,-5.3484,-0.7198,-0.2982,-0.7758,-1.2919,rough,14.0,1,4.586
6460,206.72,2.7859,-5.3176,-0.7602,-0.1301,-0.4615,-1.3544,rough,14.0,1,4.631
6470,207.04,2.8357,-5.5433,-0.6611,-0.1046,-0.4065,-1.4424,rough,14.0,1,4.526
6480,207.36,2.8720,-5.7301,-0.5366,-0.0768,-0.6185,-1.4409,rough,14.0,1,4.441
6490,207.68,2.9095,-5.9282,-0.3932,-0.0948,-0.7135,-1.4498,rough,14.0,1,4.358
6500,208.00,2.9526,-6.0526,-0.2934,-0.1171,-0.6946,-1.3906,rough,14.0,1,4.327
6510,208.32,3.0180,-6.2004,-0.1989,-0.2078,-0.7033,-1.4150,rough,14.0,1,4.306
6520,208.64,3.0666,-6.3847,-0.0717,-0.3290,-0.7541,-1.3877,rough,14.0,1,4.260
6530,208.96,3.1124,-6.4914,0.0082,-0.3511,-0.7207,-1.4240,rough,14.0,1,4.253
6540,209.28,3.1570,-6.6234,0.0695,-0.4375,-0.6146,-1.4786,rough,14.0,1,4.238
6550,209.60,3.1914,-6.8250,0.1831,-0.5193,-0.5988,-1.4877,rough,14.0,1,4.192
6560,209.92,3.2233,-7.0670,0.3178,-0.5785,-0.5827,-1.5165,rough,14.0,1,4.140
6570,210.24,3.2501,-7.3178,0.4517,-0.5790,-0.5734,-1.6182,rough,14.0,1,4.095
6580,210.56,3.2419,-7.5464,0.6034,-0.5825,-0.5944,-1.5925,rough,14.0,1,4.035
6590,210.88,3.2625,-7.7470,0.7319,-0.5761,-0.6550,-1.5909,rough,14.0,1,4.020
6600,211.20,3.2599,-7.9456,0.8734,-0.3931,-0.7097,-1.7809,rough,14.0,1,3.993
6610,211.52,3.2266,-8.1398,1.0438,-0.4235,-0.7169,-1.7276,rough,14.0,1,3.944
6620,211.84,3.2828,-8.2481,1.0929,-0.6380,-0.5635,-1.3252,rough,14.0,1,3.996
6630,212.16,3.4094,-8.2580,1.0176,-0.6512,-0.4411,-1.2028,rough,14.0,1,4.122
6640,212.48,3.5301,-8.2331,0.9273,-0.6430,-0.4171,-1.1807,rough,14.0,1,4.244
6650,212.80,3.6525,-8.2280,0.8515,-0.6527,-0.3962,-1.1774,rough,14.0,1,4.366
6660,213.12,3.7696,-8.2386,0.7899,-0.6537,-0.4034,-1.1807,rough,14.0,1,4.483
6670,213.44,3.8604,-8.2794,0.7714,-0.5535,-0.4105,-1.2095,rough,14.0,1,4.573
6680,213.76,3.9672,-8.3699,0.7554,-0.5055,-0.3402,-1.2711,rough,14.0,1,4.679
6690,214.08,4.0488,-8.5158,0.7863,-0.4932,-0.2879,-1.4261,rough,14.0,1,4.763
6700,214.40,4.0817,-8.6571,0.8195,-0.4512,-0.3991,-1.4887,rough,14.0,1,4.803
6710,214.72,4.1515,-8.9016,0.8418,-0.5766,-0.4376,-1.7442,rough,14.0,1,4.894
6720,215.04,4.1467,-9.1642,0.9363,-0.5648,-0.5797,-1.9085,rough,14.0,1,4.926
6730,215.36,4.1947,-9.4083,0.9646,-0.7196,-0.6299,-1.9336,rough,14.0,1,5.019
6740,215.68,4.3086,-9.5761,0.9194,-0.4705,-0.7420,-2.0583,rough,14.0,1,5.167
6750,216.00,4.3535,-9.7041,0.9311,-0.1137,-0.8467,-2.5244,rough,14.0,1,5.242
6760,216.32,4.3427,-9.7760,0.9725,0.4006,-0.8513,3.1065,rough,14.0,1,5.251
6770,216.64,4.2711,-9.6545,0.9664,0.7602,-0.5283,2.3820,rough,14.0,1,5.150
6780,216.96,4.2419,-9.3648,0.9151,0.7036,-0.6282,2.4306,rough,14.0,1,5.056
6790,217.28,4.3141,-9.0875,0.7779,0.6230,-0.4679,2.4480,rough,14.0,1,5.079
6800,217.60,4.3590,-8.8973,0.6924,0.5246,-0.4977,2.5147,rough,14.0,1,5.100
6810,217.92,4.2887,-8.7454,0.7046,0.4696,-0.4904,2.6228,rough,14.0,1,5.016
6820,218.24,4.1788,-8.5878,0.7466,0.4166,-0.4734,2.7372,rough,14.0,1,4.896
6830,218.56,3.9413,-8.4322,0.8127,0.5587,-0.3684,2.7781,rough,14.0,1,4.654
6840,218.88,3.5925,-8.2296,0.8907,0.7067,-0.3444,2.8899,rough,14.0,1,4.306
6850,219.20,3.2950,-8.0280,0.9158,0.7278,-0.5673,2.9370,rough,14.0,1,4.020
6860,219.52,3.1188,-7.8134,0.8836,0.6588,-0.5656,2.8734,rough,14.0,1,3.868
6870,219.84,3.0393,-7.5147,0.7436,0.6115,-0.5930,2.9062,rough,14.0,1,3.844
6880,220.16,3.0323,-7.1851,0.5450,0.5294,-0.6157,2.9833,rough,14.0,1,3.922
6890,220.48,2.9900,-6.8413,0.3239,0.6163,-0.4899,3.0196,rough,14.0,1,3.999
6900,220.80,2.8001,-6.4753,0.1123,0.7819,-0.2017,2.9426,rough,14.0,1,3.982
6910,221.12,2.5961,-6.0557,-0.2030,0.7455,-0.3666,3.0162,rough,14.0,1,4.028
6920,221.44,2.4597,-5.6083,-0.5024,0.4253,-0.6099,-2.9320,rough,14.0,1,4.194
6930,221.76,2.3086,-5.2029,-0.6580,0.0971,-0.7432,-2.5621,rough,14.0,1,4.364
6940,222.08,2.2698,-5.0362,-0.7256,0.4171,-0.5399,2.9740,rough,14.0,1,4.460
6950,222.40,2.1398,-5.0137,-0.6415,0.4074,-0.6333,2.9682,rough,14.0,1,4.391
6960,222.72,1.9250,-4.9652,-0.5431,0.5162,-0.5090,3.0156,rough,14.0,1,4.293
6970,223.04,1.6100,-4.9152,-0.4321,0.5200,-0.4386,-3.0594,rough,14.0,1,4.149
6980,223.36,1.2816,-4.9158,-0.3285,0.3436,-0.4408,-2.8372,rough,14.0,1,3.974
6990,223.68,0.9470,-4.9859,-0.2156,0.4584,-0.5034,-2.7897,rough,14.0,1,3.754
7000,224.00,0.7399,-5.0659,-0.0867,0.3048,-0.7185,-2.7195,rough,14.0,1,3.594
7010,224.32,0.5637,-5.1099,0.0525,0.0605,-0.8851,-2.5451,rough,14.0,1,3.485
7020,224.64,0.4324,-5.0967,0.1294,-0.3142,-0.7744,-1.9109,rough,14.0,1,3.452
7030,224.96,0.5221,-5.1792,0.1249,-0.6984,-0.4318,-1.2306,rough,14.0,1,3.405
7040,225.28,0.7130,-5.2644,0.0603,-0.7581,-0.4831,-1.0186,rough,14.0,1,3.402
7050,225.60,0.9112,-5.3609,0.0643,-0.6959,-0.5126,-0.8977,rough,14.0,1,3.404
7060,225.92,1.0913,-5.4126,0.0372,-0.4592,-0.5335,-1.0181,rough,14.0,1,3.449
7070,226.24,1.2535,-5.4720,0.0154,-0.4697,-0.4439,-1.1831,rough,14.0,1,3.488
7080,226.56,1.3885,-5.6474,0.0755,-0.4733,-0.4673,-1.2477,rough,14.0,1,3.425
7090,226.88,1.5201,-5.8760,0.1525,-0.4651,-0.4143,-1.2277,rough,14.0,1,3.334
7100,227.20,1.6323,-6.1199,0.2548,-0.4573,-0.4252,-1.3099,rough,14.0,1,3.238
7110,227.52,1.7103,-6.3441,0.3798,-0.4627,-0.6371,-1.2994,rough,14.0,1,3.147
7120,227.84,1.7910,-6.5863,0.5566,-0.4649,-0.6916,-1.3490,rough,14.0,1,3.064
7130,228.16,1.8710,-6.7480,0.6757,-0.4959,-0.7196,-1.1645,rough,14.0,1,3.041
7140,228.48,2.0011,-6.7823,0.6628,-0.5301,-0.6183,-0.9156,rough,14.0,1,3.135
7150,228.80,2.1284,-6.6847,0.5516,-0.4137,-0.6855,-1.0491,rough,14.0,1,3.294
7160,229.12,2.2749,-6.5242,0.3605,-0.3857,-0.6988,-1.2283,rough,14.0,1,3.502
7170,229.44,2.4747,-6.3422,0.1265,-0.3981,-0.7471,-1.4697,rough,14.0,1,3.768
7180,229.76,2.7237,-6.1414,-0.1733,-0.3874,-0.6648,-1.3938,rough,14.0,1,4.086
7190,230.08,2.8514,-5.8831,-0.4090,-0.4446,-0.7046,-1.1016,rough,14.0,1,4.336
7200,230.40,2.9418,-5.7254,-0.5483,-0.1242,-0.5744,-1.1351,rough,14.0,1,4.500
7210,230.72,2.9953,-5.7586,-0.5230,0.0469,-0.7674,-1.2992,rough,14.0,1,4.525
7220,231.04,3.0599,-5.9118,-0.4067,-0.0127,-0.7629,-1.4138,rough,14.0,1,4.493
7230,231.36,3.1286,-6.0942,-0.3037,-0.1688,-0.6035,-1.4663,rough,14.0,1,4.456
7240,231.68,3.1695,-6.2922,-0.1640,-0.2565,-0.6944,-1.4376,rough,14.0,1,4.395
7250,232.00,3.2188,-6.4896,-0.0508,-0.4103,-0.6401,-1.4253,rough,14.0,1,4.350
7260,232.32,3.2714,-6.7430,0.0924,-0.4986,-0.4925,-1.5341,rough,14.0,1,4.296
7270,232.64,3.2923,-6.9728,0.2189,-0.5249,-0.5806,-1.4966,rough,14.0,1,4.235
7280,232.96,3.3158,-7.2350,0.3611,-0.5222,-0.5593,-1.6030,rough,14.0,1,4.180
7290,233.28,3.3056,-7.4887,0.5294,-0.4938,-0.6236,-1.6447,rough,14.0,1,4.109
7300,233.60,3.2957,-7.7065,0.6825,-0.5245,-0.6487,-1.6258,rough,14.0,1,4.059
7310,233.92,3.2779,-7.9206,0.8439,-0.3195,-0.7364,-1.8643,rough,14.0,1,4.013
7320,234.24,3.2241,-8.1135,1.0246,-0.3991,-0.7245,-1.7696,rough,14.0,1,3.943
7330,234.56,3.2638,-8.2411,1.1001,-0.6095,-0.6050,-1.3927,rough,14.0,1,3.977
7340,234.88,3.3837,-8.2631,1.0406,-0.6488,-0.4766,-1.2285,rough,14.0,1,4.096
7350,235.20,3.5038,-8.2284,0.9380,-0.6282,-0.4301,-1.1934,rough,14.0,1,4.217
7360,235.52,3.6288,-8.2114,0.8532,-0.6461,-0.3928,-1.1791,rough,14.0,1,4.343
7370,235.84,3.7522,-8.2125,0.7812,-0.6545,-0.3807,-1.1825,rough,14.0,1,4.466
7380,236.16,3.8561,-8.2466,0.7604,-0.5896,-0.4203,-1.2136,rough,14.0,1,4.569
7390,236.48,3.9336,-8.3488,0.7670,-0.5156,-0.4037,-1.2895,rough,14.0,1,4.645
7400,236.80,3.9932,-8.5186,0.8219,-0.5025,-0.3441,-1.4499,rough,14.0,1,4.708
7410,237.12,4.0335,-8.6966,0.8735,-0.5600,-0.2866,-1.5672,rough,14.0,1,4.758
7420,237.44,4.0964,-8.9432,0.8966,-0.5829,-0.4491,-1.7783,rough,14.0,1,4.844
7430,237.76,4.0806,-9.2057,1.0000,-0.5327,-0.5598,-1.9717,rough,14.0,1,4.868
7440,238.08,4.1376,-9.4340,1.0337,-0.6308,-0.6206,-1.9121,rough,14.0,1,4.968
7450,238.40,4.3118,-9.6128,0.9196,-0.4636,-0.7218,-2.0804,rough,14.0,1,5.179
7460,238.72,4.4192,-9.7192,0.8869,-0.0144,-0.8510,-2.5180,rough,14.0,1,5.310
7470,239.04,4.4572,-9.8118,0.9019,0.4173,-0.6909,-3.0973,rough,14.0,1,5.371
7480,239.36,4.3286,-9.7319,0.9484,0.6130,-0.5865,2.5999,rough,14.0,1,5.226
7490,239.68,4.1698,-9.5121,1.0291,0.6167,-0.6340,2.5722,rough,14.0,1,5.017
7500,240.00,4.1302,-9.2769,0.9874,0.5362,-0.5996,2.6496,rough,14.0,1,4.929
7510,240.32,4.2012,-9.0692,0.8729,0.4594,-0.6426,2.5924,rough,14.0,1,4.965
7520,240.64,4.3268,-8.8776,0.7156,0.4749,-0.5745,2.6502,rough,14.0,1,5.066
7530,240.96,4.3804,-8.7973,0.6491,0.4396,-0.6114,2.7003,rough,14.0,1,5.111
7540,241.28,4.4081,-8.7156,0.6113,0.3980,-0.6222,2.8106,rough,14.0,1,5.133
7550,241.60,4.3698,-8.6517,0.6264,0.3463,-0.6069,2.8898,rough,14.0,1,5.090
7560,241.92,4.3051,-8.6023,0.6579,0.3032,-0.5623,2.9094,rough,14.0,1,5.023
7570,242.24,4.2236,-8.5528,0.7041,0.3287,-0.5609,2.8836,rough,14.0,1,4.939
7580,242.56,4.0319,-8.4712,0.7707,0.4048,-0.4162,2.9376,rough,14.0,1,4.745
7590,242.88,3.7163,-8.3471,0.8942,0.5663,-0.6175,2.9170,rough,14.0,1,4.428
7600,243.20,3.3835,-8.1708,0.9634,0.6722,-0.4698,2.9831,rough,14.0,1,4.099
7610,243.52,3.1603,-8.0136,0.9996,0.6554,-0.6190,2.9794,rough,14.0,1,3.887
7620,243.84,3.0022,-7.7906,0.9621,0.6187,-0.5826,2.9320,rough,14.0,1,3.756
7630,244.16,2.8982,-7.4976,0.8445,0.6029,-0.5437,2.9165,rough,14.0,1,3.710
7640,244.48,2.7276,-7.1744,0.7295,0.7095,-0.2875,2.7769,rough,14.0,1,3.636
7650,244.80,2.4464,-6.8243,0.5956,0.7808,-0.2370,2.8824,rough,14.0,1,3.509
7660,245.12,2.1390,-6.4277,0.3246,0.7149,-0.2679,-3.0820,rough,14.0,1,3.440
7670,245.44,1.9321,-6.0413,0.1281,0.5558,-0.7140,-3.0372,rough,14.0,1,3.512
7680,245.76,1.7309,-5.6618,-0.0478,0.4850,-0.3499,3.1001,rough,14.0,1,3.635
7690,246.08,1.4326,-5.3768,-0.1046,0.4502,-0.4164,-3.0162,rough,14.0,1,3.668
7700,246.40,1.0611,-5.2090,-0.0997,0.5793,-0.3096,-2.8126,rough,14.0,1,3.610
7710,246.72,0.8260,-5.1549,-0.0573,0.3446,-0.7698,-2.5732,rough,14.0,1,3.549
7720,247.04,0.6731,-5.1765,0.0240,-0.0602,-0.8460,-2.3293,rough,14.0,1,3.465
7730,247.36,0.6347,-5.2299,0.0880,-0.5210,-0.7872,-1.6685,rough,14.0,1,3.401
7740,247.68,0.7366,-5.3410,0.1302,-0.8101,-0.7133,-1.0704,rough,14.0,1,3.342
7750,248.00,0.9389,-5.4087,0.0846,-0.6462,-0.4619,-0.9478,rough,14.0,1,3.376
7760,248.32,1.0985,-5.4099,0.0265,-0.4372,-0.5137,-1.0562,rough,14.0,1,3.455
7770,248.64,1.2523,-5.4422,-0.0018,-0.4417,-0.4777,-1.1958,rough,14.0,1,3.512
7780,248.96,1.3885,-5.6083,0.0447,-0.4838,-0.3948,-1.2246,rough,14.0,1,3.456
7790,249.28,1.5072,-5.8316,0.1257,-0.4359,-0.4227,-1.2214,rough,14.0,1,3.359
7800,249.60,1.6126,-6.0902,0.2434,-0.4079,-0.4621,-1.3118,rough,14.0,1,3.244
7810,249.92,1.6955,-6.3392,0.3826,-0.4655,-0.6295,-1.2950,rough,14.0,1,3.139
7820,250.24,1.7858,-6.5493,0.5263,-0.5212,-0.6361,-1.2566,rough,14.0,1,3.081
7830,250.56,1.9117,-6.6766,0.5995,-0.6097,-0.6607,-0.9797,rough,14.0,1,3.114
7840,250.88,2.0808,-6.7299,0.6012,-0.5169,-0.6083,-0.9132,rough,14.0,1,3.230
7850,251.20,2.1991,-6.6922,0.5523,-0.4084,-0.6887,-1.0582,rough,14.0,1,3.351
7860,251.52,2.3859,-6.6061,0.4060,-0.3578,-0.7489,-1.4077,rough,14.0,1,3.556
7870,251.84,2.5078,-6.4249,0.1899,-0.0920,-0.8210,-1.9192,rough,14.0,1,3.753
7880,252.16,2.6336,-6.1229,-0.1530,0.0751,-0.8005,-2.1261,rough,14.0,1,4.021
