step,time_s,x,y,z,roll,pitch,yaw,terrain,speed,target_idx,dist_to_target
10,0.32,-1.4649,0.8638,0.1886,0.0624,-0.2300,0.1551,rough,14.0,0,6.011
20,0.64,-1.5105,0.8787,0.1824,0.0266,-0.2779,0.3179,rough,14.0,0,5.965
30,0.96,-1.3257,0.9176,0.2286,-0.0627,-0.2498,0.6826,rough,14.0,0,6.099
40,1.28,-1.1418,1.0509,0.2658,-0.0156,-0.1749,0.9785,rough,14.0,0,6.186
50,1.60,-1.0198,1.2408,0.2943,-0.0087,-0.1076,1.2469,rough,14.0,0,6.199
60,1.92,-0.9537,1.4268,0.3168,-0.0356,-0.0956,1.3777,rough,14.0,0,6.171
70,2.24,-0.9116,1.6063,0.3283,-0.0272,-0.0828,1.4576,rough,14.0,0,6.131
80,2.56,-0.8886,1.8336,0.3453,-0.0177,-0.0712,1.6316,rough,14.0,0,6.060
90,2.88,-0.9103,2.1257,0.3721,-0.0341,-0.1306,1.8831,rough,14.0,0,5.932
100,3.20,-1.0019,2.4391,0.4007,0.0368,-0.1714,2.0786,rough,14.0,0,5.743
110,3.52,-1.1793,2.7241,0.4612,0.0234,-0.2206,2.2563,rough,14.0,0,5.492
120,3.84,-1.4060,2.9969,0.5327,0.0231,-0.2102,2.4008,rough,14.0,0,5.204
130,4.16,-1.7026,3.2418,0.5981,-0.0277,-0.1096,2.5525,rough,14.0,0,4.862
140,4.48,-2.0762,3.4367,0.6007,-0.1087,0.0604,2.6796,rough,14.0,0,4.459
150,4.80,-2.4343,3.5656,0.6072,-0.1937,-0.0752,2.8099,rough,14.0,0,4.085
160,5.12,-2.7838,3.6532,0.6648,-0.2161,-0.3024,2.9441,rough,14.0,0,3.727
170,5.44,-3.1211,3.6908,0.8039,-0.2845,-0.4547,3.0552,rough,14.0,0,3.387
180,5.76,-3.4997,3.7021,0.9020,-0.3454,-0.2457,3.1020,rough,14.0,0,3.012
190,6.08,-3.9687,3.6684,0.9311,-0.4820,0.2194,3.1161,rough,14.0,0,2.557
200,6.40,-4.4369,3.5444,0.7041,-0.4403,-0.0307,3.1179,rough,14.0,0,2.135
210,6.72,-4.8182,3.5729,0.6920,-0.1712,-0.0874,3.0410,rough,14.0,0,1.765
220,7.04,-5.1172,3.5884,0.7724,-0.1572,-0.4348,3.0716,rough,14.0,0,1.482
230,7.36,-5.4863,3.6006,0.9065,-0.2008,-0.3904,2.9921,rough,14.0,0,1.148
240,7.68,-5.8275,3.6559,1.0433,-0.2097,-0.4466,2.8517,rough,14.0,0,0.837
250,8.00,-6.0695,3.7720,1.1179,-0.0260,-0.2514,2.5174,rough,14.0,1,6.993
260,8.32,-6.2084,3.9515,1.1567,0.0453,-0.1299,2.1877,rough,14.0,1,7.099
270,8.64,-6.2951,4.1888,1.1587,0.0537,0.0466,1.8572,rough,14.0,1,7.151
280,8.96,-6.3547,4.4454,1.1371,0.0364,0.1229,1.7460,rough,14.0,1,7.183
290,9.28,-6.3963,4.7417,1.0985,-0.0033,0.1438,1.5389,rough,14.0,1,7.204
300,9.60,-6.3931,5.0017,1.0789,-0.0205,0.0151,1.2704,rough,14.0,1,7.193
310,9.92,-6.3133,5.2855,1.0733,-0.0518,-0.1006,1.0664,rough,14.0,1,7.116
320,10.24,-6.1266,5.5645,1.1095,-0.0435,-0.1252,0.9218,rough,14.0,1,6.943
330,10.56,-5.8786,5.8705,1.1208,-0.1024,0.0799,0.7521,rough,14.0,1,6.725
340,10.88,-5.6044,6.1333,1.0863,-0.1536,0.1177,0.6257,rough,14.0,1,6.490
350,11.20,-5.3003,6.3899,1.0339,-0.3388,0.1932,0.4766,rough,14.0,1,6.239
360,11.52,-4.9649,6.6085,0.9702,-0.5014,0.1489,0.3275,rough,14.0,1,5.963
370,11.84,-4.5424,6.7721,0.8444,-0.4998,0.2941,0.1791,rough,14.0,1,5.603
380,12.16,-4.1504,6.9148,0.6979,-0.5933,0.1538,0.0902,rough,14.0,1,5.278
390,12.48,-3.7114,6.9931,0.5782,-0.6508,0.2745,-0.0426,rough,14.0,1,4.899
400,12.80,-3.2416,7.0733,0.3252,-0.8361,0.2506,-0.2889,rough,14.0,1,4.505
410,13.12,-2.6626,7.1110,-0.2214,-0.7528,0.2839,-0.5115,rough,14.0,1,4.013
420,13.44,-2.0359,7.1126,-0.6354,-0.5993,0.1355,-0.5068,rough,14.0,1,3.487
430,13.76,-1.5214,7.0781,-0.8121,-0.5321,0.2784,-0.3464,rough,14.0,1,3.061
440,14.08,-1.1338,6.9760,-0.9124,-0.5501,0.1684,-0.3321,rough,14.0,1,2.706
450,14.40,-0.6814,6.7555,-1.0628,-0.2538,0.4438,-0.5633,rough,14.0,1,2.234
460,14.72,-0.2628,6.5414,-1.2704,-0.2074,0.4109,-0.5017,rough,14.0,1,1.804
470,15.04,0.0828,6.4209,-1.3629,-0.3420,0.0614,-0.5214,rough,14.0,1,1.518
480,15.36,0.4302,6.2596,-1.3582,-0.4245,-0.0609,-0.6167,rough,14.0,1,1.233
490,15.68,0.7139,6.0719,-1.3280,-0.3986,-0.2709,-0.7105,rough,14.0,1,0.993
500,16.00,0.9786,5.8554,-1.2827,-0.3465,-0.0074,-0.8897,rough,14.0,2,0.793
510,16.32,1.2549,5.6100,-1.3269,-0.6071,-0.2013,-0.8016,rough,14.0,2,9.477
520,16.64,1.5363,5.3887,-1.3526,-0.4911,-0.2322,-0.6334,rough,14.0,2,9.119
530,16.96,1.7651,5.2296,-1.2499,-0.5486,-0.6285,-0.4454,rough,14.0,2,8.842
540,17.28,2.0192,5.0416,-1.1431,-0.1391,-0.4550,-0.4287,rough,14.0,2,8.527
550,17.60,2.3303,4.9025,-1.0071,-0.0881,-0.3374,-0.5074,rough,14.0,2,8.201
560,17.92,2.6846,4.7097,-0.9024,-0.0371,-0.1933,-0.6035,rough,14.0,2,7.809
570,18.24,3.1017,4.4777,-0.9192,-0.2200,0.0374,-0.6492,rough,14.0,2,7.346
580,18.56,3.4235,4.2464,-0.8969,-0.2237,-0.1438,-0.6472,rough,14.0,2,6.953
590,18.88,3.7349,4.0152,-0.8146,-0.2371,-0.3146,-0.6361,rough,14.0,2,6.568
600,19.20,4.0556,3.7327,-0.7193,-0.0895,-0.2447,-0.6958,rough,14.0,2,6.142
610,19.52,4.4517,3.4059,-0.7447,-0.0790,0.0907,-0.7685,rough,14.0,2,5.630
620,19.84,4.7741,3.1288,-0.7698,-0.1194,0.0962,-0.7771,rough,14.0,2,5.206
630,20.16,5.0645,2.8918,-0.7847,-0.2817,-0.1220,-0.7589,rough,14.0,2,4.833
640,20.48,5.3296,2.7246,-0.7607,-0.3235,-0.1358,-0.6194,rough,14.0,2,4.529
650,20.80,5.7404,2.5040,-0.8439,-0.5724,0.0719,-0.8188,rough,14.0,2,4.089
660,21.12,6.1443,2.1972,-0.9720,-0.6233,0.2761,-1.1385,rough,14.0,2,3.593
670,21.44,6.4152,1.9421,-1.0365,-0.5672,-0.1715,-0.9454,rough,14.0,2,3.223
680,21.76,6.6181,1.6200,-0.9592,-0.3773,-0.3641,-0.9252,rough,14.0,2,2.846
690,22.08,6.8258,1.4885,-0.8906,-0.2205,-0.5469,-1.2437,rough,14.0,2,2.613
700,22.40,6.9002,1.4627,-0.8839,-0.1084,-0.5265,-1.3747,rough,14.0,2,2.547
710,22.72,6.9736,1.2485,-0.7679,-0.0936,-0.4704,-1.3857,rough,14.0,2,2.333
720,23.04,7.0374,0.8792,-0.5861,-0.0655,-0.4048,-1.4146,rough,14.0,2,2.015
730,23.36,7.0916,0.4854,-0.4336,-0.0221,-0.3589,-1.4438,rough,14.0,2,1.713
740,23.68,7.1258,0.0698,-0.3176,0.1026,-0.2838,-1.4361,rough,14.0,2,1.465
750,24.00,7.1517,-0.2826,-0.2091,0.1682,-0.3760,-1.4432,rough,14.0,2,1.326
760,24.32,7.1788,-0.6489,-0.0689,0.2004,-0.4657,-1.3614,rough,14.0,2,1.273
770,24.64,7.2339,-0.9773,0.1028,0.2108,-0.5654,-1.2561,rough,14.0,2,1.285
780,24.96,7.3315,-1.2988,0.2501,0.0985,-0.4398,-0.9181,rough,14.0,2,1.340
790,25.28,7.4892,-1.5012,0.3653,-0.0774,-0.4267,-0.5516,rough,14.0,2,1.345
800,25.60,7.6514,-1.6417,0.4206,-0.0299,-0.1836,-0.2744,rough,14.0,2,1.345
810,25.92,7.7591,-1.6996,0.4564,-0.0046,-0.2533,-0.1337,rough,14.0,2,1.333
820,26.24,7.8608,-1.7156,0.4781,0.0111,-0.3901,-0.0172,rough,14.0,2,1.298
830,26.56,7.9966,-1.6917,0.5309,-0.1133,-0.5062,0.2600,rough,14.0,2,1.220
840,26.88,8.0576,-1.6341,0.5676,-0.2198,-0.4751,0.4994,rough,14.0,2,1.145
850,27.20,8.0331,-1.5794,0.5547,-0.1762,-0.4897,0.4190,rough,14.0,2,1.102
860,27.52,8.0065,-1.5105,0.5411,-0.1944,-0.4817,0.4742,rough,14.0,2,1.050
870,27.84,7.9789,-1.4605,0.5277,-0.1961,-0.4808,0.4745,rough,14.0,2,1.017
880,28.16,7.9836,-1.4422,0.5313,-0.1603,-0.4946,0.3985,rough,14.0,2,0.999
890,28.48,7.9847,-1.4258,0.5314,-0.1302,-0.4963,0.3360,rough,14.0,2,0.984
900,28.80,7.9864,-1.4124,0.5327,-0.1058,-0.5021,0.2845,rough,14.0,2,0.971
910,29.12,7.9882,-1.4016,0.5342,-0.0847,-0.5055,0.2411,rough,14.0,2,0.961
920,29.44,7.9908,-1.3926,0.5327,-0.0951,-0.5124,0.2171,rough,14.0,2,0.952
930,29.76,7.9924,-1.3864,0.5319,-0.0996,-0.5161,0.1977,rough,14.0,2,0.945
940,30.08,7.9997,-1.3647,0.5349,-0.0635,-0.5195,0.1056,rough,14.0,2,0.923
950,30.40,7.9405,-1.3444,0.5025,-0.1016,-0.5102,0.1968,rough,14.0,2,0.936
960,30.72,7.9351,-1.2996,0.4987,-0.2064,-0.5001,0.3867,rough,14.0,2,0.902
970,31.04,7.9780,-1.1796,0.5194,-0.4143,-0.3175,0.8711,rough,14.0,3,5.321
980,31.36,7.9241,-1.0329,0.4677,-0.5121,0.0682,1.4119,rough,14.0,3,5.372
990,31.68,7.8721,-0.7899,0.3674,-0.2963,0.3647,1.8168,rough,14.0,3,5.493
1000,32.00,7.7321,-0.4901,0.1649,-0.3177,0.6021,1.8950,rough,14.0,3,5.600
1010,32.32,7.6018,-0.1218,-0.0845,-0.3564,0.5846,1.8609,rough,14.0,3,5.782
1020,32.64,7.5452,0.2640,-0.3038,0.0530,0.5197,1.9111,rough,14.0,3,6.043
1030,32.96,7.4668,0.6544,-0.5246,0.1985,0.3329,1.7881,rough,14.0,3,6.309
1040,33.28,7.3857,0.9841,-0.6572,0.3812,0.3262,2.0807,rough,14.0,3,6.535
1050,33.60,7.2379,1.2512,-0.7708,0.4349,0.2517,2.3608,rough,14.0,3,6.683
1060,33.92,7.0266,1.4379,-0.8722,0.4783,0.2534,2.7166,rough,14.0,3,6.741
1070,34.24,6.7785,1.5727,-0.9538,0.5631,0.0475,2.9999,rough,14.0,3,6.747
1080,34.56,6.4808,1.6222,-0.9389,0.4908,-0.1988,-3.0809,rough,14.0,3,6.666
1090,34.88,6.2494,1.6246,-0.8524,0.3341,-0.5731,-2.9232,rough,14.0,3,6.579
1100,35.20,5.9676,1.4969,-0.7387,0.1241,-0.3547,-2.8377,rough,14.0,3,6.360
1110,35.52,5.6030,1.3425,-0.6700,0.0341,-0.0587,-2.7154,rough,14.0,3,6.098
1120,35.84,5.2973,1.1515,-0.6568,-0.1098,-0.1079,-2.6060,rough,14.0,3,5.830
1130,36.16,5.0436,0.9640,-0.5739,-0.1495,-0.3480,-2.4440,rough,14.0,3,5.587
1140,36.48,4.8464,0.7354,-0.4242,-0.2498,-0.5462,-2.2661,rough,14.0,3,5.323
1150,36.80,4.6475,0.4374,-0.2817,-0.2778,-0.3719,-2.2572,rough,14.0,3,4.993
1160,37.12,4.4015,0.0713,-0.2189,-0.3636,-0.0648,-2.2503,rough,14.0,3,4.595
1170,37.44,4.1561,-0.2527,-0.1975,-0.3110,-0.0806,-2.2439,rough,14.0,3,4.246
1180,37.76,3.9431,-0.5858,-0.1597,-0.3620,-0.1342,-2.1288,rough,14.0,3,3.901
1190,38.08,3.7936,-0.9211,-0.1061,-0.4112,-0.2331,-2.0409,rough,14.0,3,3.564
1200,38.40,3.6347,-1.3085,-0.0555,-0.3763,-0.0387,-2.0089,rough,14.0,3,3.181
1210,38.72,3.4508,-1.6554,-0.0607,-0.2681,0.0180,-2.0226,rough,14.0,3,2.852
1220,39.04,3.1975,-2.0845,-0.2445,-0.0690,0.4117,-1.9965,rough,14.0,3,2.477
1230,39.36,3.0551,-2.4443,-0.3857,-0.0198,0.2942,-1.8963,rough,14.0,3,2.175
1240,39.68,2.9591,-2.8067,-0.4727,-0.0031,0.1795,-1.7363,rough,14.0,3,1.881
1250,40.00,2.9116,-3.1959,-0.5151,-0.0025,0.0832,-1.5522,rough,14.0,3,1.570
1260,40.32,2.9364,-3.6278,-0.5791,-0.0631,0.1100,-1.4819,rough,14.0,3,1.222
1270,40.64,2.9556,-4.0592,-0.6701,0.0544,0.2869,-1.2940,rough,14.0,3,0.953
1280,40.96,3.0154,-4.3690,-0.7505,0.2472,0.1636,-0.9041,rough,14.0,3,0.801
1290,41.28,3.0943,-4.5860,-0.7773,0.2377,0.1996,-1.2397,rough,14.0,0,12.982
1300,41.60,3.1560,-4.7880,-0.7853,0.1860,-0.0152,-1.6417,rough,14.0,0,13.165
1310,41.92,3.0943,-5.0378,-0.8004,0.3167,-0.0091,-1.7734,rough,14.0,0,13.292
1320,42.24,2.9757,-5.1894,-0.7890,0.4608,0.0599,-1.9823,rough,14.0,0,13.313
1330,42.56,2.9078,-5.2806,-0.7775,0.3417,-0.1835,-2.2982,rough,14.0,0,13.330
1340,42.88,2.7828,-5.3488,-0.7448,0.5389,-0.4757,-2.6369,rough,14.0,0,13.291
1350,43.20,2.5816,-5.4672,-0.6572,0.3913,-0.5607,-2.8903,rough,14.0,0,13.238
1360,43.52,2.3301,-5.4685,-0.5222,0.6028,-0.6065,3.1403,rough,14.0,0,13.068
1370,43.84,2.0642,-5.4461,-0.3605,0.5190,-0.6578,3.0635,rough,14.0,0,12.874
1380,44.16,1.7190,-5.3880,-0.2011,0.5206,-0.2672,3.0094,rough,14.0,0,12.603
1390,44.48,1.3479,-5.2830,-0.1274,0.5891,-0.2111,2.9110,rough,14.0,0,12.284
1400,44.80,0.9370,-5.1363,-0.1288,0.6073,0.0910,2.9469,rough,14.0,0,11.911
1410,45.12,0.6581,-4.9743,-0.1194,0.7073,-0.3707,2.7123,rough,14.0,0,11.612
1420,45.44,0.3654,-4.7832,-0.0145,0.7088,-0.3811,2.5468,rough,14.0,0,11.282
1430,45.76,0.1426,-4.5124,0.0540,0.7418,-0.3836,2.3475,rough,14.0,0,10.931
1440,46.08,-0.0443,-4.1747,0.0572,0.6513,-0.2581,2.4931,rough,14.0,0,10.549
1450,46.40,-0.3106,-3.9279,0.0923,0.6275,-0.1468,2.5837,rough,14.0,0,10.192
1460,46.72,-0.6477,-3.6916,0.1624,0.5973,-0.2018,2.4989,rough,14.0,0,9.800
1470,47.04,-1.0031,-3.4454,0.2321,0.4936,-0.1728,2.4839,rough,14.0,0,9.392
1480,47.36,-1.2997,-3.1766,0.3213,0.5098,-0.2270,2.4389,rough,14.0,0,9.001
1490,47.68,-1.5707,-2.8450,0.3428,0.5212,0.0600,2.4285,rough,14.0,0,8.574
1500,48.00,-1.8437,-2.5313,0.2984,0.5098,0.0124,2.4000,rough,14.0,0,8.161
1510,48.32,-2.1544,-2.2162,0.2425,0.4997,0.0621,2.4726,rough,14.0,0,7.726
1520,48.64,-2.4216,-1.9319,0.2353,0.5820,-0.1139,2.3399,rough,14.0,0,7.341
1530,48.96,-2.6944,-1.6091,0.2668,0.5735,-0.0258,2.3241,rough,14.0,0,6.921
1540,49.28,-2.9489,-1.2331,0.2320,0.5662,0.0368,2.3681,rough,14.0,0,6.467
1550,49.60,-3.2539,-0.8954,0.1466,0.4171,0.2754,2.4113,rough,14.0,0,6.018
1560,49.92,-3.5407,-0.6113,0.1014,0.3718,0.0322,2.3380,rough,14.0,0,5.626
1570,50.24,-3.8169,-0.3072,0.1087,0.3762,-0.1130,2.2658,rough,14.0,0,5.223
1580,50.56,-4.1177,0.0228,0.1355,0.2534,-0.0603,2.2631,rough,14.0,0,4.787
1590,50.88,-4.3933,0.3839,0.1489,0.2649,0.0287,2.2797,rough,14.0,0,4.337
1600,51.20,-4.6466,0.7391,0.0902,0.0273,0.0616,2.1339,rough,14.0,0,3.904
1610,51.52,-4.7815,1.0730,0.1374,0.1813,-0.2383,2.0935,rough,14.0,0,3.546
1620,51.84,-4.9449,1.3759,0.2615,0.1451,-0.4945,2.0173,rough,14.0,0,3.202
1630,52.16,-5.1435,1.7484,0.4055,0.0180,-0.3601,2.0340,rough,14.0,0,2.780
1640,52.48,-5.3145,2.1223,0.5436,0.0409,-0.2661,2.0632,rough,14.0,0,2.370
1650,52.80,-5.5407,2.4797,0.6248,-0.1037,-0.1916,2.0900,rough,14.0,0,1.948
1660,53.12,-5.7110,2.8033,0.7386,-0.0606,-0.4456,2.0846,rough,14.0,0,1.582
1670,53.44,-5.8568,3.1792,0.8921,0.1668,-0.4249,2.0244,rough,14.0,0,1.184
1680,53.76,-6.0198,3.5297,1.0608,0.1853,-0.3877,1.9927,rough,14.0,0,0.801
1690,54.08,-6.1389,3.7924,1.1351,0.1275,-0.2149,1.8357,rough,14.0,1,7.058
1700,54.40,-6.2008,4.0020,1.1580,0.1072,-0.1178,1.7570,rough,14.0,1,7.084
1710,54.72,-6.2710,4.2607,1.1586,-0.0198,0.1111,1.6706,rough,14.0,1,7.118
1720,55.04,-6.2991,4.5930,1.1241,-0.1062,0.1621,1.5293,rough,14.0,1,7.116
1730,55.36,-6.2977,4.8950,1.0888,-0.1300,0.0552,1.3360,rough,14.0,1,7.100
1740,55.68,-6.2439,5.1722,1.0855,-0.1712,0.0289,1.0471,rough,14.0,1,7.044
1750,56.00,-6.1109,5.3915,1.0969,-0.1324,-0.1260,0.9104,rough,14.0,1,6.918
1760,56.32,-5.8469,5.6599,1.1228,-0.0875,-0.0318,0.7682,rough,14.0,1,6.672
1770,56.64,-5.5792,5.9371,1.1260,-0.1870,0.0487,0.6359,rough,14.0,1,6.436
1780,56.96,-5.2755,6.1955,1.0929,-0.3514,0.0807,0.4932,rough,14.0,1,6.176
1790,57.28,-4.9412,6.4092,1.0479,-0.4155,0.0549,0.3823,rough,14.0,1,5.892
1800,57.60,-4.4785,6.5925,0.9475,-0.5173,0.3690,0.1296,rough,14.0,1,5.490
1810,57.92,-4.0854,6.7150,0.8142,-0.5300,0.0838,0.0594,rough,14.0,1,5.151
1820,58.24,-3.6076,6.7229,0.7118,-0.4220,0.3442,-0.0747,rough,14.0,1,4.703
1830,58.56,-3.1208,6.7340,0.4527,-0.6911,0.6633,-0.4092,rough,14.0,1,4.254
1840,58.88,-2.5017,6.7681,-0.0810,-1.1446,0.8101,-1.0176,rough,14.0,1,3.707
1850,59.20,-1.8723,6.9522,-0.6222,-0.4878,0.0764,-0.5444,rough,14.0,1,3.261
1860,59.52,-1.3982,6.9160,-0.7486,-0.6818,-0.2663,-0.7289,rough,14.0,1,2.862
1870,59.84,-0.9816,6.8418,-0.9673,-0.6113,0.4464,-0.6300,rough,14.0,1,2.503
1880,60.16,-0.6058,6.6550,-1.1232,-0.5296,0.2023,-0.5880,rough,14.0,1,2.109
1890,60.48,-0.2298,6.4115,-1.2808,-0.3549,0.3064,-0.5995,rough,14.0,1,1.681
1900,60.80,0.1025,6.2480,-1.3121,-0.4205,-0.0382,-0.5749,rough,14.0,1,1.358
1910,61.12,0.4431,6.0507,-1.2842,-0.4614,-0.1342,-0.6531,rough,14.0,1,1.031
1920,61.44,0.7683,5.8112,-1.2413,-0.5254,-0.0871,-0.7862,rough,14.0,2,9.978
1930,61.76,1.1391,5.5179,-1.2818,-0.6180,0.1394,-0.8960,rough,14.0,2,9.506
1940,62.08,1.3699,5.2813,-1.2750,-0.5110,-0.0926,-0.6950,rough,14.0,2,9.177
1950,62.40,1.6404,5.1193,-1.2167,-0.5204,-0.2969,-0.5256,rough,14.0,2,8.865
1960,62.72,1.8430,4.9697,-1.1427,-0.3663,-0.4965,-0.4743,rough,14.0,2,8.614
1970,63.04,2.0955,4.8445,-1.0454,-0.1030,-0.4201,-0.6273,rough,14.0,2,8.340
1980,63.36,2.4149,4.6439,-0.9166,-0.1001,-0.3585,-0.6993,rough,14.0,2,7.967
1990,63.68,2.7748,4.3708,-0.8458,-0.0938,-0.0666,-0.6911,rough,14.0,2,7.516
2000,64.00,3.1177,4.1161,-0.8525,-0.2233,-0.1114,-0.7208,rough,14.0,2,7.091
2010,64.32,3.4185,3.8616,-0.7725,-0.2291,-0.2772,-0.7168,rough,14.0,2,6.697
2020,64.64,3.7498,3.5863,-0.6815,-0.3169,-0.2440,-0.7482,rough,14.0,2,6.266
2030,64.96,4.0983,3.2471,-0.6588,-0.2653,0.1427,-0.7771,rough,14.0,2,5.780
2040,65.28,4.4091,2.8969,-0.7399,-0.0053,0.2704,-0.8718,rough,14.0,2,5.316
2050,65.60,4.6566,2.6199,-0.7512,-0.0140,-0.0459,-0.8811,rough,14.0,2,4.948
2060,65.92,4.8994,2.3325,-0.6999,-0.0067,-0.2994,-0.9016,rough,14.0,2,4.578
2070,66.24,5.1619,2.0106,-0.6305,0.0668,-0.1242,-0.8701,rough,14.0,2,4.172
2080,66.56,5.4824,1.6853,-0.6453,-0.1809,0.1113,-0.9187,rough,14.0,2,3.720
2090,66.88,5.7180,1.3365,-0.6929,-0.0661,0.0346,-0.9511,rough,14.0,2,3.324
2100,67.20,5.9523,1.0392,-0.6644,-0.1143,-0.1436,-0.9221,rough,14.0,2,2.964
2110,67.52,6.1444,0.8048,-0.5805,-0.1512,-0.3448,-0.7919,rough,14.0,2,2.678
2120,67.84,6.3933,0.5463,-0.4450,-0.1053,-0.4101,-0.8675,rough,14.0,2,2.334
2130,68.16,6.6904,0.2118,-0.3629,-0.1914,-0.1975,-0.9686,rough,14.0,2,1.920
2140,68.48,6.8955,-0.1371,-0.2804,-0.0933,-0.2942,-1.0230,rough,14.0,2,1.610
2150,68.80,7.0583,-0.4869,-0.1701,0.0496,-0.3834,-1.1135,rough,14.0,2,1.393
2160,69.12,7.1770,-0.8009,-0.0056,0.1413,-0.5793,-1.2305,rough,14.0,2,1.295
2170,69.44,7.2651,-1.1667,0.1819,0.2507,-0.4300,-1.3053,rough,14.0,2,1.331
2180,69.76,7.3490,-1.4804,0.3197,0.2640,-0.4022,-1.3820,rough,14.0,2,1.435
2190,70.08,7.3932,-1.7266,0.3833,0.2140,-0.2181,-1.5571,rough,14.0,2,1.575
2200,70.40,7.3351,-1.9014,0.4034,0.1923,-0.1238,-2.1210,rough,14.0,2,1.745
2210,70.72,7.1280,-1.9709,0.3761,0.2446,0.1747,-2.7252,rough,14.0,2,1.934
2220,71.04,6.8167,-2.0113,0.2748,0.1038,0.4391,-3.0543,rough,14.0,2,2.185
2230,71.36,6.4972,-2.0235,0.0939,0.0968,0.6146,-3.0846,rough,14.0,2,2.441
2240,71.68,6.2421,-2.0356,-0.0620,0.0874,0.4842,-3.1013,rough,14.0,2,2.656
2250,72.00,5.9845,-2.0404,-0.1717,0.0758,0.3362,3.1357,rough,14.0,2,2.876
2260,72.32,5.7466,-2.0544,-0.2304,0.0131,0.1668,2.9479,rough,14.0,2,3.089
2270,72.64,5.5687,-2.0288,-0.2511,-0.0114,0.0344,2.4667,rough,14.0,2,3.234
2280,72.96,5.4178,-1.8784,-0.2505,0.0013,-0.0916,2.1197,rough,14.0,2,3.306
2290,73.28,5.3143,-1.7135,-0.2284,0.0020,-0.0957,1.8722,rough,14.0,2,3.341
2300,73.60,5.2590,-1.5730,-0.2136,0.0081,-0.1358,1.7230,rough,14.0,2,3.347
2310,73.92,5.2292,-1.4394,-0.1967,0.0017,-0.1285,1.6398,rough,14.0,2,3.338
2320,74.24,5.2057,-1.2761,-0.1968,-0.0381,-0.0376,1.5057,rough,14.0,2,3.322
2330,74.56,5.2327,-1.0235,-0.1983,-0.0792,0.0310,1.2335,rough,14.0,2,3.250
2340,74.88,5.3523,-0.7356,-0.2298,-0.1038,0.1963,0.9886,rough,14.0,2,3.102
2350,75.20,5.4929,-0.5208,-0.2852,-0.1865,0.1848,0.7000,rough,14.0,2,2.956
2360,75.52,5.7279,-0.3109,-0.3365,-0.2819,0.1198,0.4686,rough,14.0,2,2.732
2370,75.84,5.9646,-0.1852,-0.3390,-0.2591,-0.1886,0.2673,rough,14.0,2,2.512
2380,76.16,6.3076,-0.1102,-0.3062,-0.1874,-0.0752,0.0030,rough,14.0,2,2.188
2390,76.48,6.6832,-0.1200,-0.3039,-0.1789,-0.0142,-0.2823,rough,14.0,2,1.820
2400,76.80,6.9813,-0.2087,-0.2690,-0.1373,-0.2699,-0.4797,rough,14.0,2,1.509
2410,77.12,7.2101,-0.3452,-0.1588,-0.1115,-0.5225,-0.6242,rough,14.0,2,1.257
2420,77.44,7.3658,-0.5221,-0.0319,0.0273,-0.6254,-0.7679,rough,14.0,2,1.084
2430,77.76,7.4777,-0.7486,0.1308,0.3021,-0.6751,-1.0319,rough,14.0,2,0.990
2440,78.08,7.5796,-1.0312,0.2943,0.4197,-0.4219,-1.1937,rough,14.0,2,0.990
2450,78.40,7.6681,-1.2693,0.3962,0.4101,-0.4203,-1.3933,rough,14.0,2,1.056
2460,78.72,7.7273,-1.5633,0.4371,0.2638,-0.0636,-1.4967,rough,14.0,2,1.237
2470,79.04,7.6809,-1.8375,0.4435,0.0390,0.0815,-1.8983,rough,14.0,2,1.492
2480,79.36,7.5051,-2.0199,0.4248,0.0932,-0.0593,-2.3759,rough,14.0,2,1.740
2490,79.68,7.2604,-2.1865,0.4144,0.0903,0.2140,-2.9062,rough,14.0,2,2.016
2500,80.00,6.9504,-2.2801,0.3393,-0.1522,0.2433,2.9044,rough,14.0,2,2.282
2510,80.32,6.5966,-2.1889,0.1709,-0.2924,0.5197,2.5092,rough,14.0,2,2.468
2520,80.64,6.3135,-2.0476,-0.0127,-0.4573,0.3047,2.1130,rough,14.0,2,2.603
2530,80.96,6.1851,-1.8172,-0.0978,-0.4322,0.1463,1.7406,rough,14.0,2,2.590
2540,81.28,6.1454,-1.5754,-0.1462,-0.3836,-0.0221,1.3442,rough,14.0,2,2.518
2550,81.60,6.2042,-1.3186,-0.1494,-0.3180,-0.0540,0.9836,rough,14.0,2,2.370
2560,81.92,6.3449,-1.0850,-0.1447,-0.3101,-0.0604,0.6952,rough,14.0,2,2.169
2570,82.24,6.5393,-0.8984,-0.1314,-0.3756,-0.0041,0.4465,rough,14.0,2,1.940
2580,82.56,6.7689,-0.7652,-0.1277,-0.4046,-0.0668,0.2056,rough,14.0,2,1.693
2590,82.88,7.0445,-0.6961,-0.1001,-0.3135,-0.2860,-0.1317,rough,14.0,2,1.411
2600,83.20,7.2609,-0.6930,-0.0094,-0.2164,-0.6311,-0.4398,rough,14.0,2,1.196
2610,83.52,7.4157,-0.8291,0.1277,0.1168,-0.7131,-0.7792,rough,14.0,2,1.068
2620,83.84,7.5615,-1.0422,0.2814,0.2871,-0.4880,-0.9520,rough,14.0,2,1.011
2630,84.16,7.6978,-1.2210,0.3902,0.3376,-0.4201,-1.1508,rough,14.0,2,1.002
2640,84.48,7.7872,-1.4751,0.4502,0.3248,-0.0968,-1.3077,rough,14.0,2,1.131
2650,84.80,7.7575,-1.7382,0.4618,0.2582,-0.0021,-1.7454,rough,14.0,2,1.367
2660,85.12,7.6304,-1.9690,0.4399,0.1212,-0.1155,-2.1745,rough,14.0,2,1.631
2670,85.44,7.4538,-2.1699,0.4441,0.0300,-0.0549,-2.5913,rough,14.0,2,1.894
2680,85.76,7.1332,-2.2930,0.3978,-0.0320,0.4553,-3.0163,rough,14.0,2,2.177
2690,86.08,6.7694,-2.3388,0.2621,-0.2057,0.3114,2.8603,rough,14.0,2,2.448
2700,86.40,6.3672,-2.2165,0.0254,-0.4041,0.5446,2.2951,rough,14.0,2,2.661
2710,86.72,6.1288,-2.0327,-0.1043,-0.2617,0.3473,1.9926,rough,14.0,2,2.749
2720,87.04,6.0062,-1.8250,-0.1889,-0.3533,0.1100,1.6305,rough,14.0,2,2.752
2730,87.36,5.9867,-1.5835,-0.1998,-0.2578,-0.0575,1.2580,rough,14.0,2,2.667
2740,87.68,6.0944,-1.2974,-0.1844,-0.2499,-0.0409,0.9767,rough,14.0,2,2.468
2750,88.00,6.2444,-1.0712,-0.1798,-0.2247,-0.0699,0.7074,rough,14.0,2,2.263
2760,88.32,6.4431,-0.8810,-0.1634,-0.2783,-0.0139,0.4725,rough,14.0,2,2.032
2770,88.64,6.6753,-0.7244,-0.1600,-0.3397,-0.0670,0.1924,rough,14.0,2,1.782
2780,88.96,6.9693,-0.6524,-0.1297,-0.3163,-0.2622,-0.1278,rough,14.0,2,1.483
2790,89.28,7.2167,-0.6650,-0.0432,-0.2138,-0.5405,-0.4205,rough,14.0,2,1.237
2800,89.60,7.3702,-0.7836,0.0899,0.0123,-0.7321,-0.7039,rough,14.0,2,1.102
2810,89.92,7.5171,-1.0107,0.2391,0.2483,-0.5141,-0.9032,rough,14.0,2,1.036
2820,90.24,7.6448,-1.1794,0.3642,0.3173,-0.4851,-1.0862,rough,14.0,2,1.016
2830,90.56,7.7615,-1.4253,0.4365,0.3310,-0.1710,-1.2812,rough,14.0,2,1.106
2840,90.88,7.7687,-1.6887,0.4605,0.2513,0.0274,-1.6449,rough,14.0,2,1.319
2850,91.20,7.6536,-1.9244,0.4443,0.1469,-0.0902,-2.0893,rough,14.0,2,1.581
2860,91.52,7.4559,-2.1290,0.4411,0.1086,0.0010,-2.5466,rough,14.0,2,1.858
2870,91.84,7.1905,-2.2756,0.4083,-0.0225,0.3513,-3.0140,rough,14.0,2,2.129
2880,92.16,6.8769,-2.3273,0.3022,-0.2068,0.2494,2.9249,rough,14.0,2,2.366
2890,92.48,6.4795,-2.2021,0.1117,-0.3303,0.6319,2.4310,rough,14.0,2,2.565
2900,92.80,6.2056,-2.0757,-0.0619,-0.3936,0.2460,2.1177,rough,14.0,2,2.708
2910,93.12,6.0843,-1.8384,-0.1486,-0.3414,0.1404,1.7302,rough,14.0,2,2.689
2920,93.44,6.0253,-1.6050,-0.1829,-0.3409,-0.0675,1.3627,rough,14.0,2,2.640
2930,93.76,6.0973,-1.3412,-0.1801,-0.2299,-0.0977,1.0069,rough,14.0,2,2.479
2940,94.08,6.2340,-1.0929,-0.1802,-0.2300,-0.0724,0.7199,rough,14.0,2,2.279
2950,94.40,6.4300,-0.9025,-0.1624,-0.2686,-0.0369,0.4887,rough,14.0,2,2.048
2960,94.72,6.6631,-0.7404,-0.1553,-0.3545,-0.0510,0.2163,rough,14.0,2,1.795
2970,95.04,6.9539,-0.6625,-0.1285,-0.3251,-0.2472,-0.1057,rough,14.0,2,1.499
2980,95.36,7.2004,-0.6846,-0.0462,-0.2329,-0.4921,-0.3709,rough,14.0,2,1.255
2990,95.68,7.3482,-0.7939,0.0825,-0.1045,-0.7388,-0.5689,rough,14.0,2,1.126
3000,96.00,7.4959,-1.0018,0.2174,0.2328,-0.5741,-0.8027,rough,14.0,2,1.051
3010,96.32,7.6536,-1.1428,0.3600,0.2982,-0.4784,-1.0175,rough,14.0,2,0.987
3020,96.64,7.7711,-1.3724,0.4323,0.3240,-0.2437,-1.2715,rough,14.0,2,1.059
3030,96.96,7.7941,-1.6520,0.4596,0.2888,0.0023,-1.5878,rough,14.0,2,1.275
3040,97.28,7.6912,-1.8906,0.4542,0.2019,-0.0862,-2.0278,rough,14.0,2,1.533
3050,97.60,7.5260,-2.1057,0.4372,0.0362,-0.0749,-2.4329,rough,14.0,2,1.802
3060,97.92,7.2825,-2.2546,0.4189,0.0217,0.2008,-2.9198,rough,14.0,2,2.058
3070,98.24,6.9041,-2.3376,0.3153,-0.1623,0.3346,3.0185,rough,14.0,2,2.356
3080,98.56,6.5018,-2.2604,0.1143,-0.2590,0.5767,2.6280,rough,14.0,2,2.586
3090,98.88,6.2440,-2.1073,-0.0434,-0.3091,0.4117,2.2546,rough,14.0,2,2.695
3100,99.20,6.0832,-1.9162,-0.1399,-0.3273,0.1952,1.9264,rough,14.0,2,2.728
3110,99.52,5.9878,-1.6872,-0.1895,-0.3313,0.0136,1.5541,rough,14.0,2,2.708
3120,99.84,6.0029,-1.4402,-0.2014,-0.2368,-0.0591,1.1689,rough,14.0,2,2.600
3130,100.16,6.1212,-1.1683,-0.1973,-0.2000,-0.0476,0.8824,rough,14.0,2,2.406
3140,100.48,6.3114,-0.9710,-0.1836,-0.1877,-0.0585,0.6066,rough,14.0,2,2.177
3150,100.80,6.5197,-0.7878,-0.1684,-0.3131,0.0263,0.3753,rough,14.0,2,1.943
3160,101.12,6.7530,-0.6657,-0.1656,-0.3467,-0.0980,0.1290,rough,14.0,2,1.700
3170,101.44,7.0390,-0.6198,-0.1248,-0.2771,-0.3090,-0.1805,rough,14.0,2,1.411
3180,101.76,7.2532,-0.6584,-0.0299,-0.2335,-0.5755,-0.3796,rough,14.0,2,1.200
3190,102.08,7.3976,-0.7850,0.1007,0.0104,-0.7401,-0.6474,rough,14.0,2,1.076
3200,102.40,7.5352,-0.9825,0.2401,0.2542,-0.5082,-0.9076,rough,14.0,2,1.007
3210,102.72,7.6825,-1.1629,0.3790,0.3360,-0.4582,-1.1271,rough,14.0,2,0.976
3220,103.04,7.7818,-1.4215,0.4461,0.3545,-0.1592,-1.3013,rough,14.0,2,1.091
3230,103.36,7.7716,-1.7000,0.4617,0.2690,0.0293,-1.7006,rough,14.0,2,1.327
3240,103.68,7.6490,-1.9388,0.4435,0.1405,-0.0881,-2.1326,rough,14.0,2,1.595
3250,104.00,7.4637,-2.1309,0.4418,0.0870,-0.0206,-2.5561,rough,14.0,2,1.856
3260,104.32,7.1786,-2.2645,0.4050,-0.0348,0.3781,-3.1185,rough,14.0,2,2.127
3270,104.64,6.8929,-2.3032,0.3210,-0.3203,0.1667,2.6744,rough,14.0,2,2.338
3280,104.96,6.5546,-2.1220,0.1562,-0.4493,0.5380,2.2009,rough,14.0,2,2.456
3290,105.28,6.2936,-1.9661,-0.0312,-0.5051,0.1786,1.9098,rough,14.0,2,2.574
3300,105.60,6.2163,-1.7049,-0.1007,-0.4508,0.0787,1.4737,rough,14.0,2,2.510
3310,105.92,6.2358,-1.4647,-0.1312,-0.3587,-0.1169,1.1086,rough,14.0,2,2.392
3320,106.24,6.3537,-1.1927,-0.1181,-0.3852,-0.0456,0.7490,rough,14.0,2,2.189
3330,106.56,6.5393,-0.9945,-0.1118,-0.4273,-0.0638,0.4833,rough,14.0,2,1.959
3340,106.88,6.7683,-0.8608,-0.0964,-0.4457,-0.0689,0.2508,rough,14.0,2,1.708
3350,107.20,7.0093,-0.7873,-0.0734,-0.3736,-0.2797,-0.0260,rough,14.0,2,1.458
3360,107.52,7.2311,-0.7585,0.0005,-0.2445,-0.5885,-0.3434,rough,14.0,2,1.234
3370,107.84,7.3879,-0.8581,0.1296,0.0099,-0.7249,-0.6641,rough,14.0,2,1.103
3380,108.16,7.5354,-1.0563,0.2699,0.2359,-0.5073,-0.8807,rough,14.0,2,1.040
3390,108.48,7.6834,-1.2284,0.3861,0.3351,-0.4368,-1.1328,rough,14.0,2,1.017
3400,108.80,7.7839,-1.4768,0.4488,0.3178,-0.1001,-1.2906,rough,14.0,2,1.134
3410,109.12,7.7583,-1.7358,0.4619,0.2585,-0.0057,-1.7266,rough,14.0,2,1.365
3420,109.44,7.6346,-1.9658,0.4415,0.1271,-0.1160,-2.1602,rough,14.0,2,1.626
3430,109.76,7.4561,-2.1503,0.4450,0.0426,-0.0733,-2.5880,rough,14.0,2,1.876
3440,110.08,7.1358,-2.2514,0.3992,0.0154,0.4307,-3.0295,rough,14.0,2,2.142
3450,110.40,6.7654,-2.2935,0.2513,-0.1639,0.3782,2.9543,rough,14.0,2,2.418
3460,110.72,6.3569,-2.2111,0.0071,-0.2832,0.5511,2.5383,rough,14.0,2,2.666
3470,111.04,6.1008,-2.0556,-0.1190,-0.2645,0.2885,2.2427,rough,14.0,2,2.785
3480,111.36,5.9416,-1.8367,-0.1915,-0.2375,0.1748,1.8635,rough,14.0,2,2.814
3490,111.68,5.8625,-1.6241,-0.2073,-0.2120,-0.0273,1.5356,rough,14.0,2,2.797
3500,112.00,5.8876,-1.3666,-0.2159,-0.1427,-0.0153,1.1840,rough,14.0,2,2.686
3510,112.32,5.9810,-1.1144,-0.2122,-0.1707,0.0124,0.8866,rough,14.0,2,2.530
3520,112.64,6.1678,-0.9198,-0.2096,-0.1517,-0.0523,0.6539,rough,14.0,2,2.310
3530,112.96,6.3733,-0.7559,-0.2019,-0.1566,-0.0299,0.4417,rough,14.0,2,2.085
3540,113.28,6.5826,-0.6363,-0.1975,-0.2238,-0.0297,0.2780,rough,14.0,2,1.868
3550,113.60,6.8269,-0.5291,-0.1998,-0.2952,-0.1419,0.0228,rough,14.0,2,1.622
3560,113.92,7.1112,-0.5139,-0.1464,-0.2181,-0.3409,-0.2732,rough,14.0,2,1.339
3570,114.24,7.3006,-0.5876,-0.0384,-0.1651,-0.6038,-0.4504,rough,14.0,2,1.149
3580,114.56,7.4418,-0.7417,0.1047,0.0961,-0.7364,-0.7312,rough,14.0,2,1.024
3590,114.88,7.5501,-0.9367,0.2385,0.3116,-0.5128,-0.9991,rough,14.0,2,0.975
3600,115.20,7.6836,-1.1483,0.3749,0.3497,-0.4261,-1.1766,rough,14.0,2,0.966
3610,115.52,7.7865,-1.4013,0.4440,0.3650,-0.1678,-1.3210,rough,14.0,2,1.072
3620,115.84,7.7977,-1.6577,0.4668,0.3144,0.0022,-1.6068,rough,14.0,2,1.278
3630,116.16,7.7024,-1.9025,0.4585,0.2209,-0.0923,-2.0378,rough,14.0,2,1.537
3640,116.48,7.5280,-2.1286,0.4360,0.0345,-0.0495,-2.4303,rough,14.0,2,1.820
3650,116.80,7.2689,-2.2804,0.4149,0.0336,0.2591,-2.9480,rough,14.0,2,2.087
3660,117.12,6.9674,-2.3538,0.3374,-0.2744,0.2331,2.8498,rough,14.0,2,2.328
3670,117.44,6.6151,-2.2130,0.1803,-0.3434,0.4565,2.4147,rough,14.0,2,2.470
3680,117.76,6.3407,-2.0627,0.0048,-0.5174,0.2395,2.0099,rough,14.0,2,2.590
3690,118.08,6.2369,-1.8107,-0.0772,-0.4697,0.1188,1.6075,rough,14.0,2,2.542
3700,118.40,6.2274,-1.5535,-0.1165,-0.4263,-0.0412,1.1896,rough,14.0,2,2.434
3710,118.72,6.3306,-1.2992,-0.1111,-0.3621,-0.0871,0.8221,rough,14.0,2,2.244
3720,119.04,6.5036,-1.0644,-0.0985,-0.4606,-0.0265,0.5102,rough,14.0,2,2.010
3730,119.36,6.7141,-0.9291,-0.0886,-0.4513,-0.0877,0.3191,rough,14.0,2,1.774
3740,119.68,6.9224,-0.8521,-0.0711,-0.4144,-0.1823,0.1537,rough,14.0,2,1.555
3750,120.00,7.1639,-0.7916,-0.0178,-0.3333,-0.4030,-0.1611,rough,14.0,2,1.306
3760,120.32,7.3340,-0.8010,0.0724,-0.1678,-0.7084,-0.4644,rough,14.0,2,1.141
3770,120.64,7.4525,-0.9162,0.1851,0.0632,-0.7334,-0.6177,rough,14.0,2,1.059
3780,120.96,7.6013,-1.0742,0.3147,0.2220,-0.4793,-0.8280,rough,14.0,2,0.992
3790,121.28,7.7345,-1.2387,0.4062,0.3480,-0.3586,-1.0583,rough,14.0,2,0.986
3800,121.60,7.8051,-1.4920,0.4609,0.3601,-0.0686,-1.3125,rough,14.0,2,1.134
3810,121.92,7.7738,-1.7513,0.4675,0.2786,-0.0105,-1.7600,rough,14.0,2,1.371
3820,122.24,7.6461,-1.9805,0.4457,0.1474,-0.1204,-2.1797,rough,14.0,2,1.633
3830,122.56,7.4586,-2.1719,0.4450,0.0388,-0.0531,-2.6131,rough,14.0,2,1.893
3840,122.88,7.1659,-2.2906,0.4046,-0.0607,0.3960,3.1376,rough,14.0,2,2.156
3850,123.20,6.8610,-2.3018,0.3056,-0.2428,0.2170,2.7424,rough,14.0,2,2.358
3860,123.52,6.4701,-2.1426,0.0929,-0.4017,0.5416,2.2895,rough,14.0,2,2.535
3870,123.84,6.2087,-1.9877,-0.0661,-0.4353,0.2119,2.0810,rough,14.0,2,2.657
3880,124.16,6.0806,-1.7291,-0.1614,-0.3247,0.1170,1.6703,rough,14.0,2,2.642
3890,124.48,6.0351,-1.5074,-0.1833,-0.3070,-0.0847,1.2737,rough,14.0,2,2.594
3900,124.80,6.1287,-1.2274,-0.1820,-0.2408,-0.0111,0.9280,rough,14.0,2,2.415
3910,125.12,6.2881,-1.0163,-0.1795,-0.2064,-0.0738,0.6639,rough,14.0,2,2.209
3920,125.44,6.4927,-0.8262,-0.1626,-0.3063,0.0319,0.4224,rough,14.0,2,1.975
3930,125.76,6.7443,-0.6820,-0.1632,-0.3441,-0.1216,0.0980,rough,14.0,2,1.709
3940,126.08,7.0408,-0.6431,-0.1165,-0.2882,-0.3066,-0.2074,rough,14.0,2,1.411
3950,126.40,7.2420,-0.6733,-0.0287,-0.2418,-0.5621,-0.3678,rough,14.0,2,1.213
3960,126.72,7.3856,-0.7929,0.0989,-0.0244,-0.7406,-0.6111,rough,14.0,2,1.089
3970,127.04,7.5320,-0.9721,0.2374,0.2142,-0.5433,-0.8350,rough,14.0,2,1.006
3980,127.36,7.6739,-1.1478,0.3696,0.3027,-0.4697,-1.0555,rough,14.0,2,0.974
3990,127.68,7.7770,-1.4002,0.4384,0.3310,-0.1932,-1.2854,rough,14.0,2,1.077
4000,128.00,7.7943,-1.6551,0.4610,0.3055,-0.0129,-1.5999,rough,14.0,2,1.277
4010,128.32,7.7007,-1.8868,0.4561,0.2116,-0.0902,-2.0116,rough,14.0,2,1.525
4020,128.64,7.5311,-2.1089,0.4338,0.0503,-0.0643,-2.4179,rough,14.0,2,1.802
4030,128.96,7.2932,-2.2656,0.4226,0.0115,0.1758,-2.9140,rough,14.0,2,2.062
4040,129.28,6.9813,-2.3316,0.3463,-0.2090,0.3002,2.8241,rough,14.0,2,2.302
4050,129.60,6.6316,-2.2085,0.1910,-0.3024,0.4675,2.4806,rough,14.0,2,2.455
4060,129.92,6.3411,-2.0451,0.0033,-0.4553,0.3358,2.0645,rough,14.0,2,2.579
4070,130.24,6.2141,-1.8249,-0.0841,-0.4593,0.1251,1.7239,rough,14.0,2,2.569
4080,130.56,6.1809,-1.5731,-0.1313,-0.4053,-0.0189,1.3065,rough,14.0,2,2.485
4090,130.88,6.2557,-1.3103,-0.1337,-0.3463,-0.0609,0.9221,rough,14.0,2,2.319
4100,131.20,6.4104,-1.0773,-0.1254,-0.3656,-0.0454,0.6329,rough,14.0,2,2.104
4110,131.52,6.6151,-0.9025,-0.1185,-0.3998,-0.0390,0.3763,rough,14.0,2,1.866
4120,131.84,6.8311,-0.7942,-0.1072,-0.4013,-0.1398,0.1715,rough,14.0,2,1.635
4130,132.16,7.1141,-0.7353,-0.0674,-0.3171,-0.3170,-0.1850,rough,14.0,2,1.347
4140,132.48,7.2802,-0.7692,0.0350,-0.2660,-0.6831,-0.3682,rough,14.0,2,1.188
4150,132.80,7.4235,-0.9203,0.1717,0.0394,-0.7098,-0.6328,rough,14.0,2,1.087
4160,133.12,7.5895,-1.1044,0.3217,0.2421,-0.4787,-0.8707,rough,14.0,2,1.018
4170,133.44,7.7252,-1.2731,0.4012,0.3051,-0.3568,-1.0884,rough,14.0,2,1.017
4180,133.76,7.7866,-1.5571,0.4572,0.3249,-0.0369,-1.4126,rough,14.0,2,1.198
4190,134.08,7.7427,-1.7978,0.4622,0.2662,-0.0642,-1.8073,rough,14.0,2,1.426
4200,134.40,7.6148,-2.0282,0.4395,0.0618,-0.1085,-2.2201,rough,14.0,2,1.690
4210,134.72,7.4212,-2.2065,0.4503,0.0321,-0.0558,-2.6744,rough,14.0,2,1.942
4220,135.04,7.0954,-2.3186,0.3912,-0.1335,0.5021,3.0679,rough,14.0,2,2.220
4230,135.36,6.8084,-2.3181,0.2840,-0.3023,0.2131,2.7034,rough,14.0,2,2.406
4240,135.68,6.4745,-2.1481,0.0888,-0.4706,0.4379,2.1408,rough,14.0,2,2.535
4250,136.00,6.2893,-1.9562,-0.0359,-0.4924,0.1647,1.8320,rough,14.0,2,2.573
4260,136.32,6.2304,-1.6954,-0.0973,-0.4556,0.0606,1.4061,rough,14.0,2,2.493
4270,136.64,6.2700,-1.4452,-0.1282,-0.3565,-0.1091,0.9883,rough,14.0,2,2.353
4280,136.96,6.4060,-1.1814,-0.1068,-0.4405,-0.0315,0.6638,rough,14.0,2,2.136
4290,137.28,6.6119,-0.9934,-0.0962,-0.4636,-0.0553,0.4042,rough,14.0,2,1.888
4300,137.60,6.8270,-0.8932,-0.0768,-0.4462,-0.1371,0.2381,rough,14.0,2,1.656
4310,137.92,7.0295,-0.8255,-0.0529,-0.4102,-0.2477,0.0530,rough,14.0,2,1.445
4320,138.24,7.2391,-0.7763,0.0163,-0.2949,-0.5806,-0.2763,rough,14.0,2,1.229
4330,138.56,7.3913,-0.8526,0.1274,0.0451,-0.7472,-0.6783,rough,14.0,2,1.098
4340,138.88,7.5098,-0.9960,0.2324,0.1969,-0.5572,-0.8164,rough,14.0,2,1.036
4350,139.20,7.6481,-1.1462,0.3585,0.3021,-0.4777,-1.0296,rough,14.0,2,0.993
4360,139.52,7.7648,-1.3859,0.4316,0.3329,-0.2177,-1.2651,rough,14.0,2,1.074
4370,139.84,7.7815,-1.6589,0.4621,0.2716,0.0293,-1.6099,rough,14.0,2,1.287
4380,140.16,7.6721,-1.9005,0.4485,0.1693,-0.0783,-2.0591,rough,14.0,2,1.551
4390,140.48,7.5054,-2.1045,0.4352,0.0377,-0.0657,-2.4570,rough,14.0,2,1.811
4400,140.80,7.2464,-2.2329,0.4180,0.0202,0.2470,-2.9455,rough,14.0,2,2.061
4410,141.12,6.9066,-2.2939,0.3132,-0.1328,0.2789,2.9983,rough,14.0,2,2.322
4420,141.44,6.5024,-2.1956,0.1179,-0.2603,0.6158,2.5672,rough,14.0,2,2.543
4430,141.76,6.2209,-2.0693,-0.0557,-0.3579,0.3128,2.2165,rough,14.0,2,2.692
4440,142.08,6.0708,-1.8458,-0.1550,-0.3039,0.1861,1.8360,rough,14.0,2,2.704
4450,142.40,5.9832,-1.6282,-0.1926,-0.3448,-0.0494,1.4718,rough,14.0,2,2.688
4460,142.72,6.0389,-1.3627,-0.2011,-0.2296,-0.0455,1.1081,rough,14.0,2,2.541
4470,143.04,6.1491,-1.1225,-0.1975,-0.1871,-0.0570,0.8122,rough,14.0,2,2.368
4480,143.36,6.3514,-0.9247,-0.1809,-0.1882,-0.0549,0.5494,rough,14.0,2,2.129
4490,143.68,6.5736,-0.7442,-0.1690,-0.3227,-0.0068,0.2898,rough,14.0,2,1.885
4500,144.00,6.8567,-0.6362,-0.1572,-0.3382,-0.1728,-0.0363,rough,14.0,2,1.594
4510,144.32,7.1330,-0.6461,-0.0969,-0.2113,-0.4129,-0.3101,rough,14.0,2,1.319
4520,144.64,7.3038,-0.7239,0.0235,-0.1946,-0.6742,-0.4703,rough,14.0,2,1.157
4530,144.96,7.4421,-0.9018,0.1725,0.1342,-0.6972,-0.7486,rough,14.0,2,1.064
4540,145.28,7.6031,-1.1038,0.3253,0.2764,-0.4652,-0.9604,rough,14.0,2,1.006
4550,145.60,7.7371,-1.2942,0.4093,0.3175,-0.3408,-1.1849,rough,14.0,2,1.024
4560,145.92,7.7910,-1.5662,0.4563,0.3245,-0.0334,-1.4553,rough,14.0,2,1.203
4570,146.24,7.7339,-1.8038,0.4608,0.2537,-0.0601,-1.8563,rough,14.0,2,1.436
4580,146.56,7.5959,-2.0323,0.4327,0.0390,-0.1122,-2.2663,rough,14.0,2,1.703
4590,146.88,7.3963,-2.1995,0.4531,0.0444,-0.0603,-2.7359,rough,14.0,2,1.950
4600,147.20,7.0643,-2.2990,0.3763,-0.0995,0.4113,2.9654,rough,14.0,2,2.224
4610,147.52,6.7391,-2.2570,0.2384,-0.2700,0.3751,2.6225,rough,14.0,2,2.410
4620,147.84,6.3843,-2.1113,0.0322,-0.4574,0.3829,2.2082,rough,14.0,2,2.583
4630,148.16,6.2048,-1.8958,-0.0781,-0.4292,0.1926,1.8730,rough,14.0,2,2.612
4640,148.48,6.1378,-1.6483,-0.1484,-0.4029,0.0659,1.4707,rough,14.0,2,2.555
4650,148.80,6.1632,-1.4134,-0.1605,-0.2864,-0.0823,1.1003,rough,14.0,2,2.440
4660,149.12,6.2764,-1.1562,-0.1515,-0.2971,-0.0628,0.7877,rough,14.0,2,2.253
4670,149.44,6.4565,-0.9598,-0.1400,-0.3206,-0.0458,0.5388,rough,14.0,2,2.033
4680,149.76,6.6671,-0.8018,-0.1376,-0.3915,-0.0399,0.3001,rough,14.0,2,1.799
4690,150.08,6.9244,-0.7029,-0.1214,-0.3663,-0.2040,0.0165,rough,14.0,2,1.532
4700,150.40,7.1787,-0.6735,-0.0589,-0.2576,-0.4558,-0.3107,rough,14.0,2,1.276
4710,150.72,7.3462,-0.7375,0.0535,-0.0905,-0.7169,-0.5830,rough,14.0,2,1.117
4720,151.04,7.4788,-0.9325,0.2003,0.2258,-0.6467,-0.8570,rough,14.0,2,1.040
4730,151.36,7.6060,-1.1121,0.3285,0.3039,-0.4538,-1.0211,rough,14.0,2,1.009
4740,151.68,7.7451,-1.3175,0.4158,0.3234,-0.3063,-1.2194,rough,14.0,2,1.035
4750,152.00,7.7914,-1.5852,0.4577,0.3226,0.0180,-1.5051,rough,14.0,2,1.219
4760,152.32,7.7125,-1.8388,0.4555,0.2001,-0.0365,-1.9519,rough,14.0,2,1.477
4770,152.64,7.5544,-2.0582,0.4308,0.0486,-0.1016,-2.3719,rough,14.0,2,1.746
4780,152.96,7.3428,-2.1923,0.4389,0.0410,0.0202,-2.8251,rough,14.0,2,1.973
4790,153.28,6.9662,-2.2929,0.3353,-0.1037,0.3188,3.0454,rough,14.0,2,2.282
4800,153.60,6.6198,-2.2263,0.1837,-0.2805,0.4940,2.5781,rough,14.0,2,2.475
4810,153.92,6.3231,-2.0973,-0.0083,-0.4620,0.3162,2.1436,rough,14.0,2,2.624
4820,154.24,6.1840,-1.8695,-0.0930,-0.4276,0.1574,1.7849,rough,14.0,2,2.617
4830,154.56,6.1374,-1.6226,-0.1458,-0.3702,0.0105,1.3837,rough,14.0,2,2.545
4840,154.88,6.1844,-1.3670,-0.1533,-0.3121,-0.0680,1.0004,rough,14.0,2,2.405
4850,155.20,6.3233,-1.1218,-0.1421,-0.3130,-0.0659,0.7077,rough,14.0,2,2.199
4860,155.52,6.5175,-0.9344,-0.1268,-0.3581,-0.0334,0.4662,rough,14.0,2,1.968
4870,155.84,6.7283,-0.8000,-0.1230,-0.4198,-0.0244,0.2660,rough,14.0,2,1.738
4880,156.16,6.9895,-0.7161,-0.1034,-0.3508,-0.2591,-0.0454,rough,14.0,2,1.468
4890,156.48,7.2239,-0.7006,-0.0250,-0.2426,-0.5443,-0.3701,rough,14.0,2,1.233
4900,156.80,7.3795,-0.8108,0.1031,-0.0009,-0.7163,-0.6721,rough,14.0,2,1.099
4910,157.12,7.5327,-1.0361,0.2589,0.2709,-0.5128,-0.9099,rough,14.0,2,1.033
4920,157.44,7.6760,-1.2036,0.3818,0.3239,-0.4676,-1.1110,rough,14.0,2,1.007
4930,157.76,7.7734,-1.4598,0.4482,0.3457,-0.1232,-1.3018,rough,14.0,2,1.126
4940,158.08,7.7593,-1.7199,0.4596,0.2550,-0.0092,-1.7114,rough,14.0,2,1.351
4950,158.40,7.6359,-1.9548,0.4405,0.1244,-0.1101,-2.1467,rough,14.0,2,1.616
4960,158.72,7.4522,-2.1355,0.4426,0.0773,-0.0495,-2.5789,rough,14.0,2,1.866
4970,159.04,7.1412,-2.2460,0.3976,0.0417,0.4135,-2.9707,rough,14.0,2,2.135
4980,159.36,6.7879,-2.2986,0.2720,-0.1749,0.2836,2.8895,rough,14.0,2,2.406
4990,159.68,6.3685,-2.1770,0.0432,-0.3275,0.5848,2.3314,rough,14.0,2,2.636
5000,160.00,6.1209,-2.0101,-0.1115,-0.3639,0.1977,2.0330,rough,14.0,2,2.744
5010,160.32,6.0162,-1.7674,-0.1862,-0.3344,0.1150,1.6308,rough,14.0,2,2.717
5020,160.64,5.9918,-1.5365,-0.1984,-0.2650,-0.0736,1.2628,rough,14.0,2,2.645
5030,160.96,6.0843,-1.2517,-0.1891,-0.2503,-0.0159,0.9845,rough,14.0,2,2.464
5040,161.28,6.2409,-1.0350,-0.1869,-0.1977,-0.0632,0.7051,rough,14.0,2,2.259
5050,161.60,6.4519,-0.8424,-0.1697,-0.2661,0.0118,0.4532,rough,14.0,2,2.017
5060,161.92,6.6904,-0.6892,-0.1696,-0.3473,-0.0709,0.1650,rough,14.0,2,1.764
5070,162.24,6.9817,-0.6292,-0.1343,-0.2970,-0.2752,-0.1456,rough,14.0,2,1.469
5080,162.56,7.2220,-0.6584,-0.0474,-0.2228,-0.5143,-0.3882,rough,14.0,2,1.231
5090,162.88,7.3683,-0.7776,0.0853,-0.0643,-0.7445,-0.6076,rough,14.0,2,1.103
5100,163.20,7.5143,-0.9756,0.2277,0.2081,-0.5610,-0.8316,rough,14.0,2,1.024
5110,163.52,7.6535,-1.1488,0.3605,0.3075,-0.4750,-1.0513,rough,14.0,2,0.991
5120,163.84,7.7756,-1.3800,0.4359,0.3436,-0.2192,-1.2856,rough,14.0,2,1.062
5130,164.16,7.7860,-1.6651,0.4619,0.2972,0.0256,-1.6298,rough,14.0,2,1.290
5140,164.48,7.6758,-1.9082,0.4501,0.1725,-0.0779,-2.0749,rough,14.0,2,1.555
5150,164.80,7.5004,-2.1008,0.4388,0.0520,-0.0779,-2.4896,rough,14.0,2,1.811
5160,165.12,7.2312,-2.2147,0.4127,0.0334,0.2723,-2.9387,rough,14.0,2,2.056
5170,165.44,6.8686,-2.2959,0.3006,-0.1551,0.2899,2.9012,rough,14.0,2,2.349
5180,165.76,6.4876,-2.1831,0.1054,-0.3630,0.5798,2.4166,rough,14.0,2,2.547
5190,166.08,6.2314,-2.0566,-0.0486,-0.4505,0.2153,2.1430,rough,14.0,2,2.676
5200,166.40,6.1030,-1.8044,-0.1500,-0.3868,0.1554,1.7255,rough,14.0,2,2.656
5210,166.72,6.0495,-1.5747,-0.1768,-0.3527,-0.0824,1.3448,rough,14.0,2,2.606
5220,167.04,6.1257,-1.3021,-0.1745,-0.2604,-0.0526,0.9572,rough,14.0,2,2.439
5230,167.36,6.2788,-1.0751,-0.1671,-0.2520,-0.0761,0.6873,rough,14.0,2,2.231
5240,167.68,6.4805,-0.8876,-0.1506,-0.3118,-0.0190,0.4506,rough,14.0,2,1.996
5250,168.00,6.7053,-0.7449,-0.1470,-0.3856,-0.0406,0.2134,rough,14.0,2,1.754
5260,168.32,6.9881,-0.6705,-0.1260,-0.3483,-0.2786,-0.1045,rough,14.0,2,1.465
5270,168.64,7.2151,-0.6984,-0.0313,-0.2520,-0.5189,-0.3342,rough,14.0,2,1.242
5280,168.96,7.3591,-0.8064,0.0931,-0.1071,-0.7296,-0.5298,rough,14.0,2,1.118
5290,169.28,7.4998,-0.9924,0.2198,0.1507,-0.5467,-0.7451,rough,14.0,2,1.044
5300,169.60,7.6356,-1.1273,0.3448,0.2691,-0.4824,-0.9739,rough,14.0,2,0.993
5310,169.92,7.7644,-1.3352,0.4254,0.3121,-0.2972,-1.2247,rough,14.0,2,1.035
5320,170.24,7.7884,-1.6215,0.4580,0.2999,0.0241,-1.5338,rough,14.0,2,1.251
5330,170.56,7.6965,-1.8656,0.4539,0.2059,-0.0712,-1.9897,rough,14.0,2,1.508
5340,170.88,7.5323,-2.0721,0.4353,0.0432,-0.0959,-2.4110,rough,14.0,2,1.770
5350,171.20,7.2870,-2.2032,0.4186,0.0587,0.1852,-2.9098,rough,14.0,2,2.014
5360,171.52,6.9889,-2.2804,0.3462,-0.2059,0.1823,2.8373,rough,14.0,2,2.258
5370,171.84,6.6007,-2.1441,0.1705,-0.2929,0.5256,2.4893,rough,14.0,2,2.435
5380,172.16,6.2816,-2.0124,-0.0375,-0.4202,0.2469,2.1360,rough,14.0,2,2.610
5390,172.48,6.1491,-1.7607,-0.1270,-0.3667,0.2058,1.6964,rough,14.0,2,2.595
5400,172.80,6.1017,-1.5433,-0.1670,-0.3385,-0.0688,1.3557,rough,14.0,2,2.546
5410,173.12,6.1679,-1.2698,-0.1621,-0.2970,-0.0321,0.9536,rough,14.0,2,2.390
5420,173.44,6.3201,-1.0546,-0.1602,-0.2628,-0.0736,0.6868,rough,14.0,2,2.186
5430,173.76,6.5187,-0.8658,-0.1449,-0.3357,0.0013,0.4350,rough,14.0,2,1.955
5440,174.08,6.7375,-0.7356,-0.1431,-0.3854,-0.0520,0.2159,rough,14.0,2,1.721
5450,174.40,7.0131,-0.6641,-0.1158,-0.3228,-0.2737,-0.1046,rough,14.0,2,1.440
5460,174.72,7.2369,-0.6753,-0.0315,-0.2381,-0.5551,-0.3660,rough,14.0,2,1.218
5470,175.04,7.3845,-0.7936,0.1010,-0.0250,-0.7402,-0.6277,rough,14.0,2,1.090
5480,175.36,7.5346,-1.0136,0.2511,0.2226,-0.5089,-0.8573,rough,14.0,2,1.021
5490,175.68,7.6788,-1.1764,0.3801,0.3166,-0.4819,-1.0862,rough,14.0,2,0.987
5500,176.00,7.7776,-1.4385,0.4456,0.3448,-0.1418,-1.2879,rough,14.0,2,1.107
5510,176.32,7.7857,-1.6937,0.4622,0.2779,0.0180,-1.6573,rough,14.0,2,1.315
5520,176.64,7.6691,-1.9268,0.4491,0.1761,-0.1009,-2.0981,rough,14.0,2,1.575
5530,176.96,7.4922,-2.1257,0.4395,0.0539,-0.0504,-2.5079,rough,14.0,2,1.836
5540,177.28,7.2065,-2.2525,0.4089,-0.0024,0.3335,-3.0273,rough,14.0,2,2.101
5550,177.60,6.8640,-2.2954,0.3013,-0.1795,0.2651,2.8804,rough,14.0,2,2.351
5560,177.92,6.4639,-2.1714,0.0899,-0.3707,0.5660,2.3639,rough,14.0,2,2.558
5570,178.24,6.2032,-2.0342,-0.0650,-0.4431,0.2014,2.1129,rough,14.0,2,2.687
5580,178.56,6.0803,-1.7779,-0.1596,-0.3379,0.1321,1.6875,rough,14.0,2,2.664
5590,178.88,6.0210,-1.5536,-0.1839,-0.3245,-0.0918,1.3350,rough,14.0,2,2.624
5600,179.20,6.1011,-1.2720,-0.1825,-0.2581,-0.0312,0.9541,rough,14.0,2,2.454
5610,179.52,6.2581,-1.0522,-0.1798,-0.2194,-0.0716,0.6874,rough,14.0,2,2.246
5620,179.84,6.4600,-0.8631,-0.1627,-0.2828,-0.0058,0.4499,rough,14.0,2,2.012
5630,180.16,6.6945,-0.7091,-0.1603,-0.3643,-0.0505,0.1789,rough,14.0,2,1.761
5640,180.48,6.9829,-0.6435,-0.1364,-0.3330,-0.2812,-0.1302,rough,14.0,2,1.469
5650,180.80,7.2172,-0.6712,-0.0405,-0.2233,-0.5395,-0.3967,rough,14.0,2,1.237
5660,181.12,7.3692,-0.7944,0.0894,-0.0181,-0.7271,-0.6322,rough,14.0,2,1.105
5670,181.44,7.5194,-1.0048,0.2402,0.2135,-0.5325,-0.8442,rough,14.0,2,1.031
5680,181.76,7.6726,-1.1772,0.3780,0.3245,-0.4821,-1.0922,rough,14.0,2,0.993
5690,182.08,7.7742,-1.4308,0.4443,0.3490,-0.1561,-1.2982,rough,14.0,2,1.103
5700,182.40,7.7662,-1.7013,0.4604,0.2542,0.0303,-1.6998,rough,14.0,2,1.331
5710,182.72,7.6417,-1.9394,0.4410,0.1306,-0.0897,-2.1345,rough,14.0,2,1.600
5720,183.04,7.4351,-2.1396,0.4439,0.1286,0.0202,-2.6024,rough,14.0,2,1.878
5730,183.36,7.1574,-2.2830,0.4040,-0.0513,0.4067,3.1116,rough,14.0,2,2.155
5740,183.68,6.8769,-2.2818,0.3138,-0.2129,0.2333,2.6929,rough,14.0,2,2.333
5750,184.00,6.5418,-2.1456,0.1415,-0.4700,0.4774,2.1436,rough,14.0,2,2.481
5760,184.32,6.2909,-1.9642,-0.0311,-0.5037,0.1717,1.8511,rough,14.0,2,2.576
5770,184.64,6.2314,-1.7033,-0.0943,-0.4588,0.0628,1.4251,rough,14.0,2,2.496
5780,184.96,6.2660,-1.4613,-0.1288,-0.3787,-0.1232,1.0742,rough,14.0,2,2.362
5790,185.28,6.3940,-1.1874,-0.1083,-0.4237,-0.0456,0.7020,rough,14.0,2,2.149
5800,185.60,6.5829,-0.9961,-0.0965,-0.4707,-0.0370,0.4627,rough,14.0,2,1.917
5810,185.92,6.7852,-0.8838,-0.0877,-0.4522,-0.0852,0.2946,rough,14.0,2,1.695
5820,186.24,6.9619,-0.8191,-0.0726,-0.4294,-0.1881,0.1814,rough,14.0,2,1.510
5830,186.56,7.1913,-0.7522,-0.0256,-0.3206,-0.4130,-0.1532,rough,14.0,2,1.273
5840,186.88,7.3574,-0.7619,0.0705,-0.1384,-0.7180,-0.4847,rough,14.0,2,1.110
5850,187.20,7.4935,-0.9294,0.2070,0.1354,-0.6490,-0.7330,rough,14.0,2,1.025
5860,187.52,7.6419,-1.1148,0.3457,0.2902,-0.4841,-0.9764,rough,14.0,2,0.980
5870,187.84,7.7666,-1.3357,0.4268,0.3194,-0.2932,-1.2479,rough,14.0,2,1.034
5880,188.16,7.7966,-1.6284,0.4616,0.3415,-0.0358,-1.5313,rough,14.0,2,1.253
5890,188.48,7.7241,-1.8578,0.4616,0.2442,-0.0871,-1.9432,rough,14.0,2,1.488
5900,188.80,7.5738,-2.0860,0.4367,0.0178,-0.0683,-2.3495,rough,14.0,2,1.760
5910,189.12,7.3609,-2.2504,0.4403,0.0062,0.0332,-2.8001,rough,14.0,2,2.012
5920,189.44,7.0225,-2.3244,0.3637,-0.1412,0.4194,2.8874,rough,14.0,2,2.270
5930,189.76,6.7021,-2.2587,0.2238,-0.2861,0.3926,2.5764,rough,14.0,2,2.438
5940,190.08,6.3920,-2.1164,0.0366,-0.5172,0.3360,2.0942,rough,14.0,2,2.580
5950,190.40,6.2279,-1.8880,-0.0686,-0.4646,0.1533,1.7843,rough,14.0,2,2.589
5960,190.72,6.1851,-1.6321,-0.1249,-0.4088,0.0337,1.3633,rough,14.0,2,2.506
5970,191.04,6.2333,-1.3884,-0.1389,-0.3107,-0.1066,1.0019,rough,14.0,2,2.366
5980,191.36,6.3653,-1.1367,-0.1272,-0.3633,-0.0557,0.7005,rough,14.0,2,2.163
5990,191.68,6.5593,-0.9496,-0.1155,-0.4059,-0.0579,0.4480,rough,14.0,2,1.930
6000,192.00,6.8036,-0.8130,-0.1041,-0.4233,-0.0962,0.1633,rough,14.0,2,1.665
6010,192.32,7.0859,-0.7562,-0.0667,-0.3258,-0.3183,-0.1775,rough,14.0,2,1.377
6020,192.64,7.2632,-0.7941,0.0379,-0.2749,-0.6626,-0.3530,rough,14.0,2,1.209
6030,192.96,7.4068,-0.9352,0.1700,-0.0008,-0.7082,-0.5959,rough,14.0,2,1.108
6040,193.28,7.5683,-1.1190,0.3147,0.2620,-0.5157,-0.8589,rough,14.0,2,1.044
6050,193.60,7.7048,-1.2783,0.3937,0.2981,-0.3661,-1.0752,rough,14.0,2,1.035
6060,193.92,7.7710,-1.5577,0.4553,0.3043,-0.0229,-1.3902,rough,14.0,2,1.208
6070,194.24,7.7211,-1.8002,0.4561,0.2262,-0.0530,-1.8440,rough,14.0,2,1.439
6080,194.56,7.5800,-2.0314,0.4251,0.0107,-0.0920,-2.2620,rough,14.0,2,1.710
6090,194.88,7.3814,-2.1834,0.4437,0.0508,-0.0158,-2.7290,rough,14.0,2,1.944
6100,195.20,7.0400,-2.2747,0.3692,-0.0566,0.4143,3.0838,rough,14.0,2,2.220
6110,195.52,6.6632,-2.2455,0.2124,-0.0766,0.5358,2.8442,rough,14.0,2,2.457
6120,195.84,6.2840,-2.1595,-0.0213,-0.3232,0.4088,2.4049,rough,14.0,2,2.693
6130,196.16,6.0923,-1.9577,-0.1309,-0.2593,0.3032,2.0371,rough,14.0,2,2.741
6140,196.48,5.9654,-1.7461,-0.1940,-0.3120,0.0731,1.6754,rough,14.0,2,2.753
6150,196.80,5.9582,-1.4945,-0.2100,-0.2148,-0.0076,1.3095,rough,14.0,2,2.661
6160,197.12,6.0367,-1.2223,-0.2057,-0.2026,-0.0276,1.0420,rough,14.0,2,2.502
6170,197.44,6.1760,-0.9993,-0.1986,-0.1836,-0.0532,0.7530,rough,14.0,2,2.315
6180,197.76,6.4101,-0.7918,-0.1940,-0.2039,0.0370,0.4881,rough,14.0,2,2.052
6190,198.08,6.6209,-0.6376,-0.1896,-0.3281,0.0382,0.2547,rough,14.0,2,1.830
6200,198.40,6.8953,-0.5484,-0.1811,-0.3055,-0.1921,-0.0630,rough,14.0,2,1.554
6210,198.72,7.1689,-0.5566,-0.1097,-0.2193,-0.4332,-0.3319,rough,14.0,2,1.280
6220,199.04,7.3320,-0.6492,0.0072,-0.1304,-0.6663,-0.5057,rough,14.0,2,1.121
6230,199.36,7.4690,-0.8080,0.1490,0.2052,-0.7178,-0.8422,rough,14.0,2,1.011
6240,199.68,7.6058,-1.0314,0.3049,0.3408,-0.4290,-1.0548,rough,14.0,2,0.967
6250,200.00,7.7307,-1.2415,0.4018,0.3546,-0.3524,-1.2700,rough,14.0,2,0.991
6260,200.32,7.8033,-1.5036,0.4628,0.3539,-0.0419,-1.3886,rough,14.0,2,1.145
6270,200.64,7.7737,-1.7517,0.4677,0.3009,-0.0430,-1.7698,rough,14.0,2,1.371
6280,200.96,7.6476,-1.9854,0.4465,0.1504,-0.1253,-2.1836,rough,14.0,2,1.637
6290,201.28,7.4592,-2.1803,0.4451,0.0305,-0.0555,-2.6122,rough,14.0,2,1.900
6300,201.60,7.1442,-2.2878,0.3938,-0.0357,0.4023,-3.0721,rough,14.0,2,2.166
6310,201.92,6.7966,-2.3042,0.2722,-0.1552,0.3291,2.9388,rough,14.0,2,2.404
6320,202.24,6.3777,-2.2088,0.0223,-0.3109,0.5331,2.4811,rough,14.0,2,2.648
6330,202.56,6.1265,-2.0191,-0.1029,-0.2330,0.4080,2.1104,rough,14.0,2,2.744
6340,202.88,5.9724,-1.8265,-0.1874,-0.2634,0.1641,1.8446,rough,14.0,2,2.782
6350,203.20,5.9007,-1.6060,-0.2046,-0.2301,-0.0103,1.5053,rough,14.0,2,2.755
6360,203.52,5.9254,-1.3523,-0.2115,-0.1519,-0.0214,1.1121,rough,14.0,2,2.646
6370,203.84,6.0365,-1.1074,-0.2106,-0.1755,-0.0423,0.8290,rough,14.0,2,2.474
6380,204.16,6.2521,-0.9095,-0.2004,-0.1551,-0.0412,0.5771,rough,14.0,2,2.225
6390,204.48,6.4921,-0.7374,-0.1873,-0.2573,0.0507,0.3471,rough,14.0,2,1.965
6400,204.80,6.7379,-0.6120,-0.1855,-0.3186,-0.0992,0.0765,rough,14.0,2,1.712
6410,205.12,7.0362,-0.5773,-0.1468,-0.2572,-0.2910,-0.2376,rough,14.0,2,1.413
6420,205.44,7.2509,-0.6296,-0.0426,-0.2129,-0.5811,-0.4166,rough,14.0,2,1.200
6430,205.76,7.3980,-0.7625,0.0892,0.0143,-0.7493,-0.6714,rough,14.0,2,1.071
6440,206.08,7.5270,-0.9596,0.2334,0.3002,-0.5355,-0.9897,rough,14.0,2,1.006
6450,206.40,7.6483,-1.1589,0.3615,0.3388,-0.4587,-1.1294,rough,14.0,2,1.001
6460,206.72,7.7626,-1.4000,0.4292,0.3190,-0.2047,-1.2708,rough,14.0,2,1.086
6470,207.04,7.7822,-1.6650,0.4584,0.2580,0.0102,-1.6129,rough,14.0,2,1.292
6480,207.36,7.6715,-1.9059,0.4484,0.1649,-0.0823,-2.0544,rough,14.0,2,1.556
6490,207.68,7.4866,-2.1165,0.4390,0.0847,-0.0201,-2.4894,rough,14.0,2,1.831
6500,208.00,7.2260,-2.2818,0.4112,-0.0290,0.2948,-3.0206,rough,14.0,2,2.113
6510,208.32,6.9387,-2.3359,0.3303,-0.2792,0.1976,2.8038,rough,14.0,2,2.332
6520,208.64,6.6046,-2.1893,0.1803,-0.3623,0.4887,2.3675,rough,14.0,2,2.462
6530,208.96,6.3799,-2.0188,0.0218,-0.5116,0.2960,1.9703,rough,14.0,2,2.533
6540,209.28,6.2729,-1.7855,-0.0607,-0.5066,0.1151,1.6055,rough,14.0,2,2.498
6550,209.60,6.2707,-1.5291,-0.1048,-0.4312,-0.0393,1.1605,rough,14.0,2,2.385
6560,209.92,6.3666,-1.2744,-0.1008,-0.3966,-0.0679,0.8367,rough,14.0,2,2.202
6570,210.24,6.5305,-1.0501,-0.0963,-0.4686,-0.0230,0.5312,rough,14.0,2,1.981
6580,210.56,6.7316,-0.9163,-0.0901,-0.4676,-0.0596,0.3408,rough,14.0,2,1.754
6590,210.88,6.9100,-0.8469,-0.0744,-0.4344,-0.1462,0.2314,rough,14.0,2,1.566
6600,211.20,7.1388,-0.7744,-0.0453,-0.3593,-0.2808,-0.0683,rough,14.0,2,1.328
6610,211.52,7.3134,-0.7495,0.0414,-0.2014,-0.7058,-0.4189,rough,14.0,2,1.152
6620,211.84,7.4519,-0.8900,0.1721,0.1066,-0.7090,-0.6824,rough,14.0,2,1.051
6630,212.16,7.6027,-1.0798,0.3205,0.2649,-0.4504,-0.9191,rough,14.0,2,0.994
6640,212.48,7.7372,-1.2547,0.4061,0.3210,-0.3837,-1.1527,rough,14.0,2,0.996
6650,212.80,7.7980,-1.5491,0.4611,0.3408,-0.0297,-1.4238,rough,14.0,2,1.185
6660,213.12,7.7576,-1.7888,0.4659,0.2895,-0.0623,-1.8009,rough,14.0,2,1.411
6670,213.44,7.6314,-2.0182,0.4443,0.1058,-0.1226,-2.2112,rough,14.0,2,1.673
6680,213.76,7.4300,-2.2400,0.4507,0.0533,0.0133,-2.6688,rough,14.0,2,1.966
6690,214.08,7.1009,-2.3907,0.3902,-0.1884,0.5109,3.1270,rough,14.0,2,2.275
6700,214.40,6.8269,-2.4067,0.2791,-0.3697,0.2094,2.6436,rough,14.0,2,2.459
6710,214.72,6.5200,-2.2042,0.1286,-0.4956,0.4448,2.0905,rough,14.0,2,2.536
6720,215.04,6.3090,-2.0113,-0.0224,-0.5314,0.1672,1.7921,rough,14.0,2,2.587
6730,215.36,6.2627,-1.7402,-0.0766,-0.4772,0.0441,1.3764,rough,14.0,2,2.485
6740,215.68,6.3101,-1.4715,-0.1039,-0.3930,-0.1164,0.9301,rough,14.0,2,2.326
6750,216.00,6.4636,-1.2281,-0.0759,-0.4434,-0.0966,0.6332,rough,14.0,2,2.095
6760,216.32,6.6856,-1.0354,-0.0667,-0.4696,-0.1602,0.3615,rough,14.0,2,1.827
6770,216.64,6.9465,-0.9307,-0.0319,-0.4112,-0.2250,0.0591,rough,14.0,2,1.548
6780,216.96,7.1780,-0.8898,0.0369,-0.3323,-0.5177,-0.2485,rough,14.0,2,1.314
6790,217.28,7.3358,-0.9546,0.1398,-0.1293,-0.6966,-0.5043,rough,14.0,2,1.182
6800,217.60,7.4905,-1.1096,0.2629,0.1037,-0.5460,-0.6840,rough,14.0,2,1.106
6810,217.92,7.6378,-1.2316,0.3656,0.2561,-0.4742,-0.9583,rough,14.0,2,1.054
6820,218.24,7.7475,-1.4794,0.4374,0.2859,-0.1456,-1.2718,rough,14.0,2,1.158
6830,218.56,7.7329,-1.7431,0.4524,0.1771,0.0223,-1.7014,rough,14.0,2,1.384
6840,218.88,7.6027,-1.9654,0.4304,0.0498,-0.0861,-2.1589,rough,14.0,2,1.642
6850,219.20,7.4009,-2.1461,0.4456,0.1283,-0.0057,-2.6476,rough,14.0,2,1.902
6860,219.52,7.1133,-2.2840,0.3825,-0.0746,0.3589,3.0311,rough,14.0,2,2.182
6870,219.84,6.7882,-2.2453,0.2611,-0.2168,0.3515,2.7130,rough,14.0,2,2.367
6880,220.16,6.4527,-2.1144,0.0652,-0.4258,0.4460,2.2663,rough,14.0,2,2.531
6890,220.48,6.2707,-1.9124,-0.0425,-0.4393,0.2581,1.9096,rough,14.0,2,2.565
6900,220.80,6.1834,-1.6727,-0.1201,-0.4248,0.1033,1.5262,rough,14.0,2,2.525
6910,221.12,6.1859,-1.4450,-0.1532,-0.3505,-0.0824,1.1597,rough,14.0,2,2.431
6920,221.44,6.2975,-1.1814,-0.1362,-0.3360,-0.0469,0.8240,rough,14.0,2,2.240
6930,221.76,6.4704,-0.9827,-0.1298,-0.3520,-0.0363,0.5613,rough,14.0,2,2.024
6940,222.08,6.6700,-0.8301,-0.1245,-0.4079,-0.0087,0.3451,rough,14.0,2,1.800
6950,222.40,6.9065,-0.7239,-0.1169,-0.3858,-0.1721,0.0687,rough,14.0,2,1.551
6960,222.72,7.1655,-0.6849,-0.0619,-0.2904,-0.4249,-0.2516,rough,14.0,2,1.290
6970,223.04,7.3399,-0.7417,0.0544,-0.0983,-0.7235,-0.5832,rough,14.0,2,1.124
6980,223.36,7.4862,-0.9443,0.2024,0.2155,-0.5924,-0.8500,rough,14.0,2,1.037
6990,223.68,7.6362,-1.1368,0.3489,0.3043,-0.4650,-1.0505,rough,14.0,2,0.998
7000,224.00,7.7578,-1.3646,0.4297,0.3385,-0.2512,-1.2680,rough,14.0,2,1.062
7010,224.32,7.7857,-1.6294,0.4559,0.3356,-0.0304,-1.5235,rough,14.0,2,1.260
7020,224.64,7.7261,-1.8511,0.4617,0.2458,-0.0880,-1.9049,rough,14.0,2,1.481
7030,224.96,7.5824,-2.0805,0.4296,-0.0080,-0.0938,-2.3020,rough,14.0,2,1.751
7040,225.28,7.3724,-2.2322,0.4476,0.0329,0.0017,-2.7760,rough,14.0,2,1.990
7050,225.60,7.0149,-2.3089,0.3546,-0.1120,0.3843,2.9809,rough,14.0,2,2.263
7060,225.92,6.6540,-2.2507,0.1973,-0.2658,0.4726,2.6704,rough,14.0,2,2.467
7070,226.24,6.3185,-2.1193,-0.0075,-0.4257,0.3299,2.2245,rough,14.0,2,2.641
7080,226.56,6.1638,-1.9022,-0.0995,-0.4085,0.1725,1.8639,rough,14.0,2,2.651
7090,226.88,6.0993,-1.6592,-0.1588,-0.3539,0.0213,1.4708,rough,14.0,2,2.595
7100,227.20,6.1253,-1.4056,-0.1706,-0.2819,-0.0764,1.1074,rough,14.0,2,2.473
7110,227.52,6.2472,-1.1495,-0.1602,-0.2821,-0.0548,0.7932,rough,14.0,2,2.280
7120,227.84,6.4275,-0.9549,-0.1504,-0.2940,-0.0500,0.5494,rough,14.0,2,2.060
7130,228.16,6.6449,-0.7883,-0.1424,-0.3720,-0.0307,0.2873,rough,14.0,2,1.819
7140,228.48,6.9222,-0.6887,-0.1270,-0.3577,-0.2117,-0.0355,rough,14.0,2,1.532
7150,228.80,7.1817,-0.6762,-0.0597,-0.2441,-0.4487,-0.3255,rough,14.0,2,1.273
7160,229.12,7.3461,-0.7572,0.0655,-0.0674,-0.7262,-0.6313,rough,14.0,2,1.121
7170,229.44,7.4908,-0.9840,0.2113,0.2154,-0.5465,-0.8512,rough,14.0,2,1.048
7180,229.76,7.6295,-1.1532,0.3492,0.3120,-0.4956,-1.0483,rough,14.0,2,1.013
7190,230.08,7.7615,-1.3858,0.4309,0.3218,-0.2233,-1.2537,rough,14.0,2,1.076
7200,230.40,7.7862,-1.6461,0.4627,0.2943,-0.0070,-1.5561,rough,14.0,2,1.274
7210,230.72,7.6920,-1.8865,0.4540,0.1989,-0.0860,-2.0078,rough,14.0,2,1.529
7220,231.04,7.5297,-2.1080,0.4345,0.0307,-0.0623,-2.4146,rough,14.0,2,1.802
7230,231.36,7.2908,-2.2909,0.4231,-0.0104,0.1775,-2.9168,rough,14.0,2,2.084
7240,231.68,6.9995,-2.3745,0.3489,-0.2640,0.2888,2.8004,rough,14.0,2,2.324
7250,232.00,6.6778,-2.2452,0.2138,-0.3203,0.4049,2.4509,rough,14.0,2,2.446
7260,232.32,6.3924,-2.0780,0.0309,-0.5080,0.3325,2.0035,rough,14.0,2,2.557
7270,232.64,6.2738,-1.8538,-0.0509,-0.5097,0.1118,1.6763,rough,14.0,2,2.532
7280,232.96,6.2567,-1.5882,-0.1002,-0.4590,0.0028,1.2349,rough,14.0,2,2.422
7290,233.28,6.3473,-1.3334,-0.1062,-0.3683,-0.1000,0.8710,rough,14.0,2,2.240
7300,233.60,6.5085,-1.0871,-0.0934,-0.4809,-0.0186,0.5370,rough,14.0,2,2.011
7310,233.92,6.7277,-0.9442,-0.0819,-0.4549,-0.1096,0.3151,rough,14.0,2,1.764
7320,234.24,6.9214,-0.8732,-0.0646,-0.4318,-0.1915,0.1825,rough,14.0,2,1.560
7330,234.56,7.1653,-0.8074,-0.0106,-0.3422,-0.4035,-0.1500,rough,14.0,2,1.308
7340,234.88,7.3292,-0.8229,0.0840,-0.1804,-0.7477,-0.4760,rough,14.0,2,1.151
7350,235.20,7.4877,-1.0022,0.2244,0.1446,-0.5868,-0.7369,rough,14.0,2,1.059
7360,235.52,7.6310,-1.1561,0.3520,0.2891,-0.5019,-0.9832,rough,14.0,2,1.013
7370,235.84,7.7598,-1.3777,0.4318,0.3215,-0.2425,-1.2376,rough,14.0,2,1.071
7380,236.16,7.7787,-1.6662,0.4560,0.2721,0.0082,-1.5997,rough,14.0,2,1.295
7390,236.48,7.6703,-1.9063,0.4479,0.1644,-0.0849,-2.0522,rough,14.0,2,1.557
7400,236.80,7.4863,-2.1210,0.4374,0.0867,-0.0228,-2.4957,rough,14.0,2,1.835
7410,237.12,7.2168,-2.2615,0.4099,-0.0142,0.3370,-3.0388,rough,14.0,2,2.102
7420,237.44,6.9298,-2.3289,0.3231,-0.3529,0.1520,2.7164,rough,14.0,2,2.333
7430,237.76,6.5926,-2.1619,0.1765,-0.4565,0.4682,2.1805,rough,14.0,2,2.453
7440,238.08,6.3415,-1.9896,-0.0052,-0.5783,0.1338,1.7986,rough,14.0,2,2.547
7450,238.40,6.2953,-1.7111,-0.0631,-0.5041,0.0379,1.3548,rough,14.0,2,2.443
7460,238.72,6.3496,-1.4458,-0.0956,-0.4057,-0.0905,0.9045,rough,14.0,2,2.279
7470,239.04,6.5015,-1.1869,-0.0737,-0.5161,-0.0462,0.5788,rough,14.0,2,2.046
7480,239.36,6.6837,-1.0398,-0.0669,-0.4719,-0.1406,0.4259,rough,14.0,2,1.830
7490,239.68,6.9336,-0.9149,-0.0416,-0.4259,-0.2177,0.0955,rough,14.0,2,1.557
7500,240.00,7.1757,-0.8643,0.0234,-0.3431,-0.4975,-0.2197,rough,14.0,2,1.310
7510,240.32,7.3338,-0.9238,0.1306,-0.1188,-0.7180,-0.5436,rough,14.0,2,1.174
7520,240.64,7.4829,-1.1008,0.2549,0.1556,-0.5737,-0.7300,rough,14.0,2,1.108
7530,240.96,7.6049,-1.2049,0.3479,0.2045,-0.5446,-0.8817,rough,14.0,2,1.063
7540,241.28,7.7277,-1.4284,0.4243,0.3009,-0.2006,-1.2121,rough,14.0,2,1.130
7550,241.60,7.7464,-1.6923,0.4539,0.2002,0.0109,-1.6102,rough,14.0,2,1.334
7560,241.92,7.6330,-1.9249,0.4377,0.1112,-0.0935,-2.0727,rough,14.0,2,1.591
7570,242.24,7.4629,-2.1252,0.4388,0.0531,-0.0529,-2.4972,rough,14.0,2,1.851
7580,242.56,7.1956,-2.2749,0.4008,0.0014,0.3417,-3.0273,rough,14.0,2,2.125
7590,242.88,6.8797,-2.3235,0.3056,-0.2079,0.2866,2.8601,rough,14.0,2,2.362
7600,243.20,6.5203,-2.1910,0.1270,-0.3618,0.5754,2.3818,rough,14.0,2,2.527
7610,243.52,6.2736,-2.0657,-0.0333,-0.4928,0.2064,2.0747,rough,14.0,2,2.647
7620,243.84,6.1625,-1.8092,-0.1131,-0.4089,0.1278,1.6568,rough,14.0,2,2.606
7630,244.16,6.1377,-1.5679,-0.1523,-0.3651,-0.0582,1.2737,rough,14.0,2,2.522
7640,244.48,6.2162,-1.2999,-0.1470,-0.3095,-0.0607,0.9168,rough,14.0,2,2.353
7650,244.80,6.3718,-1.0707,-0.1386,-0.3346,-0.0558,0.6416,rough,14.0,2,2.140
7660,245.12,6.5707,-0.8967,-0.1266,-0.4005,-0.0312,0.4130,rough,14.0,2,1.909
7670,245.44,6.7884,-0.7766,-0.1196,-0.4135,-0.0715,0.2018,rough,14.0,2,1.675
7680,245.76,7.0626,-0.7100,-0.0908,-0.3166,-0.2877,-0.1369,rough,14.0,2,1.395
7690,246.08,7.2718,-0.7096,0.0050,-0.2209,-0.6632,-0.4423,rough,14.0,2,1.187
7700,246.40,7.4205,-0.8634,0.1465,0.1076,-0.7072,-0.7625,rough,14.0,2,1.073
7710,246.72,7.5764,-1.0786,0.3066,0.2989,-0.4717,-0.9679,rough,14.0,2,1.016
7720,247.04,7.7143,-1.2692,0.3994,0.3373,-0.3781,-1.2038,rough,14.0,2,1.022
7730,247.36,7.7876,-1.5315,0.4596,0.3098,-0.0518,-1.4118,rough,14.0,2,1.176
7740,247.68,7.7313,-1.7928,0.4584,0.2366,-0.0432,-1.8538,rough,14.0,2,1.428
7750,248.00,7.5884,-2.0197,0.4284,0.0370,-0.1153,-2.2742,rough,14.0,2,1.696
7760,248.32,7.3653,-2.2156,0.4458,0.0889,0.0532,-2.7684,rough,14.0,2,1.980
7770,248.64,7.0190,-2.3335,0.3716,-0.1365,0.5079,3.0574,rough,14.0,2,2.279
7780,248.96,6.7030,-2.3405,0.2274,-0.3042,0.3588,2.7323,rough,14.0,2,2.495
7790,249.28,6.3392,-2.1908,0.0025,-0.3436,0.3878,2.1894,rough,14.0,2,2.668
7800,249.60,6.1505,-1.9619,-0.1058,-0.2994,0.2805,1.9672,rough,14.0,2,2.693
7810,249.92,6.0431,-1.7348,-0.1787,-0.3254,0.1025,1.5848,rough,14.0,2,2.678
7820,250.24,6.0212,-1.5017,-0.1875,-0.2903,-0.0954,1.2031,rough,14.0,2,2.605
7830,250.56,6.1232,-1.2235,-0.1816,-0.2712,-0.0518,0.8706,rough,14.0,2,2.419
7840,250.88,6.2940,-1.0175,-0.1762,-0.2157,-0.0792,0.6339,rough,14.0,2,2.203
7850,251.20,6.5050,-0.8330,-0.1571,-0.3096,0.0117,0.3997,rough,14.0,2,1.963
7860,251.52,6.7591,-0.6921,-0.1555,-0.3506,-0.1088,0.0903,rough,14.0,2,1.695
7870,251.84,7.0511,-0.6555,-0.1099,-0.2876,-0.3158,-0.2101,rough,14.0,2,1.401
7880,252.16,7.2570,-0.7101,-0.0042,-0.2414,-0.6127,-0.3783,rough,14.0,2,1.202
7890,252.48,7.3989,-0.8397,0.1261,-0.0184,-0.7272,-0.6010,rough,14.0,2,1.087
7900,252.80,7.5529,-1.0419,0.2738,0.2255,-0.5028,-0.8611,rough,14.0,2,1.018
7910,253.12,7.7032,-1.2106,0.3907,0.3294,-0.4270,-1.1191,rough,14.0,2,0.991
7920,253.44,7.7894,-1.4954,0.4548,0.3514,-0.0843,-1.3212,rough,14.0,2,1.146
