step,time_s,x,y,z,roll,pitch,yaw,terrain,speed,target_idx,dist_to_target
10,0.32,-0.0785,1.3682,0.3186,0.1954,-0.0866,0.2115,rough,14.0,0,4.240
20,0.64,0.1439,1.4081,0.3411,0.1503,-0.1502,0.4669,rough,14.0,0,4.265
30,0.96,0.3953,1.5325,0.3687,0.1394,-0.1244,0.7034,rough,14.0,0,4.234
40,1.28,0.6202,1.7762,0.3931,0.1250,-0.0114,0.9195,rough,14.0,0,4.102
50,1.60,0.8708,2.0838,0.3574,0.2646,0.2374,1.1456,rough,14.0,0,3.952
60,1.92,1.0117,2.4310,0.2681,0.2925,0.2344,1.3874,rough,14.0,0,3.741
70,2.24,1.2087,2.6160,0.1657,0.2981,0.1228,1.9458,rough,14.0,0,3.716
80,2.56,1.2929,2.6949,0.1723,0.2813,-0.2107,2.0546,rough,14.0,0,3.711
90,2.88,1.3433,2.7675,0.1993,0.8730,-1.1360,1.2455,rough,14.0,0,3.692
100,3.20,1.3661,2.7371,0.0789,2.6478,-0.8371,-0.6579,rough,14.0,0,3.730
110,3.52,1.3557,2.7323,-0.0167,2.8446,0.1884,-1.2786,rough,14.0,0,3.726
120,3.84,1.4069,2.8048,0.0249,2.9009,0.4828,-1.3926,rough,14.0,0,3.709
130,4.16,1.4422,2.8761,0.0792,2.8303,0.8762,-1.6915,rough,14.0,0,3.683
140,4.48,1.5528,2.8683,0.0602,3.0809,0.8202,-2.1301,rough,14.0,0,3.768
150,4.80,1.5813,2.8314,-0.1041,-3.1347,-0.1687,-2.2373,rough,14.0,0,3.814
160,5.12,1.6878,2.9935,-0.1887,-3.1393,-0.4680,-2.4599,rough,14.0,0,3.784
170,5.44,1.7930,3.1859,-0.2871,3.0815,-0.4895,-2.3121,rough,14.0,0,3.744
180,5.76,1.9704,3.3525,-0.4399,-3.1339,-0.6549,-2.4522,rough,14.0,0,3.791
190,6.08,2.1850,3.5148,-0.6148,-2.9299,-0.6332,-2.5786,rough,14.0,0,3.888
200,6.40,2.3928,3.6167,-0.7482,-2.8590,-0.4603,-2.6569,rough,14.0,0,4.021
210,6.72,2.6006,3.7484,-0.8419,-2.9386,-0.3579,-2.7336,rough,14.0,0,4.151
220,7.04,2.8041,3.8815,-0.9219,-2.9401,-0.2128,-2.7921,rough,14.0,0,4.286
230,7.36,3.0517,3.9222,-0.9543,-2.8765,-0.1754,-2.8246,rough,14.0,0,4.503
240,7.68,3.2449,3.9630,-0.9783,-2.8756,-0.1281,-2.8177,rough,14.0,0,4.672
250,8.00,3.3815,4.0421,-1.0065,-2.8785,-0.1089,-2.8026,rough,14.0,0,4.777
260,8.32,3.5033,4.0671,-1.0153,-2.8723,-0.0914,-2.8614,rough,14.0,0,4.887
270,8.64,3.6250,4.0917,-1.0205,-2.8492,-0.0930,-2.8779,rough,14.0,0,4.996
280,8.96,3.6417,4.1029,-1.0214,-2.8414,-0.0737,-2.9159,rough,14.0,0,5.009
290,9.28,3.5751,4.1093,-1.0282,-2.8747,-0.0857,-2.8653,rough,14.0,0,4.944
300,9.60,3.5082,4.1991,-1.0513,-2.8796,-0.0709,-2.9160,rough,14.0,0,4.855
310,9.92,3.4660,4.2253,-1.0547,-2.8856,-0.0912,-2.9292,rough,14.0,0,4.808
320,10.24,3.4931,4.2286,-1.0572,-2.8864,-0.0825,-2.9253,rough,14.0,0,4.833
330,10.56,3.5716,4.2452,-1.0641,-2.8889,-0.0862,-2.8470,rough,14.0,0,4.905
340,10.88,3.6500,4.2842,-1.0699,-2.8595,-0.0646,-2.9219,rough,14.0,0,4.971
350,11.20,3.6501,4.2855,-1.0705,-2.8604,-0.0624,-2.9287,rough,14.0,0,4.971
360,11.52,3.5818,4.2917,-1.0791,-2.9114,-0.0798,-2.9036,rough,14.0,0,4.903
370,11.84,3.5810,4.3010,-1.0786,-2.8998,-0.0897,-2.8799,rough,14.0,0,4.900
380,12.16,3.5947,4.3131,-1.0837,-2.9110,-0.0860,-2.8828,rough,14.0,0,4.911
390,12.48,3.5778,4.3172,-1.0818,-2.8994,-0.0920,-2.8950,rough,14.0,0,4.893
400,12.80,3.5931,4.3200,-1.0823,-2.8966,-0.0896,-2.8847,rough,14.0,0,4.908
410,13.12,3.5814,4.3258,-1.0836,-2.8961,-0.0796,-2.9524,rough,14.0,0,4.895
420,13.44,3.5936,4.3312,-1.0853,-2.8973,-0.0815,-2.9352,rough,14.0,0,4.906
430,13.76,3.5848,4.3362,-1.0862,-2.8999,-0.0883,-2.9214,rough,14.0,0,4.896
440,14.08,3.5897,4.3505,-1.0903,-2.8991,-0.0925,-2.9399,rough,14.0,0,4.897
450,14.40,3.5863,4.3560,-1.0908,-2.9029,-0.0953,-2.9152,rough,14.0,0,4.893
460,14.72,3.5892,4.3599,-1.0917,-2.9034,-0.0965,-2.9090,rough,14.0,0,4.895
470,15.04,3.5881,4.3651,-1.0926,-2.9044,-0.1029,-2.8871,rough,14.0,0,4.892
480,15.36,3.5897,4.3700,-1.0939,-2.9017,-0.0901,-2.9490,rough,14.0,0,4.893
490,15.68,3.5864,4.3741,-1.0946,-2.9031,-0.0948,-2.9374,rough,14.0,0,4.889
500,16.00,3.5930,4.3797,-1.0964,-2.9057,-0.0986,-2.9186,rough,14.0,0,4.894
510,16.32,3.5869,4.3836,-1.0969,-2.9069,-0.1045,-2.9047,rough,14.0,0,4.887
520,16.64,3.5951,4.3964,-1.1024,-2.9207,-0.1050,-2.9011,rough,14.0,0,4.892
530,16.96,3.5841,4.4021,-1.1012,-2.9098,-0.1121,-2.9017,rough,14.0,0,4.880
540,17.28,3.5990,4.4054,-1.1010,-2.9030,-0.1092,-2.8959,rough,14.0,0,4.894
550,17.60,3.5838,4.4076,-1.1022,-2.9112,-0.1147,-2.8921,rough,14.0,0,4.879
560,17.92,3.5945,4.4115,-1.1034,-2.9068,-0.0996,-2.9516,rough,14.0,0,4.889
570,18.24,3.5857,4.4153,-1.1038,-2.9082,-0.1059,-2.9391,rough,14.0,0,4.879
580,18.56,3.5958,4.4208,-1.1050,-2.9072,-0.1087,-2.9203,rough,14.0,0,4.888
590,18.88,3.5860,4.4242,-1.1060,-2.9124,-0.1157,-2.9056,rough,14.0,0,4.877
600,19.20,3.5958,4.4372,-1.1102,-2.9130,-0.1171,-2.9220,rough,14.0,0,4.884
610,19.52,3.5857,4.4409,-1.1098,-2.9141,-0.1204,-2.9074,rough,14.0,0,4.874
620,19.84,3.5952,4.4440,-1.1098,-2.9092,-0.1193,-2.9026,rough,14.0,0,4.882
630,20.16,3.5821,4.4472,-1.1110,-2.9160,-0.1240,-2.9016,rough,14.0,0,4.869
640,20.48,3.5947,4.4521,-1.1123,-2.9110,-0.1099,-2.9557,rough,14.0,0,4.880
650,20.80,3.5850,4.4563,-1.1130,-2.9138,-0.1174,-2.9391,rough,14.0,0,4.870
660,21.12,3.5965,4.4602,-1.1137,-2.9112,-0.1176,-2.9284,rough,14.0,0,4.880
670,21.44,3.5879,4.4636,-1.1149,-2.9170,-0.1249,-2.9105,rough,14.0,0,4.871
680,21.76,3.5966,4.4686,-1.1155,-2.9128,-0.1245,-2.9079,rough,14.0,0,4.879
690,22.08,3.5931,4.4719,-1.1169,-2.9132,-0.1107,-2.9781,rough,14.0,0,4.875
700,22.40,3.5971,4.4716,-1.1163,-2.9135,-0.1241,-2.9128,rough,14.0,0,4.878
710,22.72,3.5900,4.4744,-1.1172,-2.9133,-0.1126,-2.9769,rough,14.0,0,4.871
720,23.04,3.5970,4.4743,-1.1169,-2.9140,-0.1254,-2.9104,rough,14.0,0,4.878
730,23.36,3.5927,4.4768,-1.1178,-2.9133,-0.1126,-2.9762,rough,14.0,0,4.873
740,23.68,3.5981,4.4764,-1.1174,-2.9139,-0.1256,-2.9106,rough,14.0,0,4.879
750,24.00,3.5923,4.4787,-1.1179,-2.9122,-0.1129,-2.9779,rough,14.0,0,4.872
760,24.32,3.6169,4.4896,-1.1204,-2.9079,-0.1252,-2.9204,rough,14.0,0,4.894
770,24.64,3.6111,4.4896,-1.1200,-2.9097,-0.1237,-2.9205,rough,14.0,0,4.889
780,24.96,3.5916,4.4902,-1.1200,-2.9136,-0.1311,-2.9180,rough,14.0,0,4.869
790,25.28,3.5993,4.4917,-1.1204,-2.9100,-0.1340,-2.9111,rough,14.0,0,4.877
800,25.60,3.6055,4.4928,-1.1206,-2.9111,-0.1285,-2.9139,rough,14.0,0,4.882
810,25.92,3.6100,4.4929,-1.1206,-2.9105,-0.1263,-2.9135,rough,14.0,0,4.887
820,26.24,3.6110,4.4929,-1.1206,-2.9103,-0.1260,-2.9131,rough,14.0,0,4.888
830,26.56,3.6089,4.4929,-1.1206,-2.9110,-0.1266,-2.9129,rough,14.0,0,4.886
840,26.88,3.6031,4.4929,-1.1207,-2.9128,-0.1283,-2.9128,rough,14.0,0,4.880
850,27.20,3.6034,4.4930,-1.1207,-2.9127,-0.1283,-2.9124,rough,14.0,0,4.880
860,27.52,3.6100,4.4931,-1.1206,-2.9106,-0.1266,-2.9118,rough,14.0,0,4.887
870,27.84,3.6095,4.4920,-1.1204,-2.9101,-0.1252,-2.9174,rough,14.0,0,4.887
880,28.16,3.5971,4.4924,-1.1207,-2.9141,-0.1299,-2.9153,rough,14.0,0,4.874
890,28.48,3.5944,4.4945,-1.1212,-2.9121,-0.1155,-2.9826,rough,14.0,0,4.871
900,28.80,3.5993,4.4954,-1.1211,-2.9121,-0.1322,-2.9116,rough,14.0,0,4.876
910,29.12,3.6027,4.4969,-1.1230,-2.9403,-0.1010,-2.9154,rough,14.0,0,4.879
920,29.44,3.5958,4.5000,-1.1222,-2.9176,-0.1258,-2.9212,rough,14.0,0,4.872
930,29.76,3.5977,4.5016,-1.1224,-2.9174,-0.1266,-2.9148,rough,14.0,0,4.873
940,30.08,3.6038,4.5020,-1.1225,-2.9147,-0.1269,-2.9140,rough,14.0,0,4.879
950,30.40,3.5977,4.5026,-1.1227,-2.9183,-0.1271,-2.9120,rough,14.0,0,4.873
960,30.72,3.5942,4.5044,-1.1230,-2.9198,-0.1270,-2.9145,rough,14.0,0,4.869
970,31.04,3.5983,4.5063,-1.1232,-2.9171,-0.1266,-2.9166,rough,14.0,0,4.873
980,31.36,3.6056,4.5063,-1.1233,-2.9143,-0.1265,-2.9169,rough,14.0,0,4.880
990,31.68,3.6010,4.5063,-1.1234,-2.9169,-0.1266,-2.9165,rough,14.0,0,4.875
1000,32.00,3.5940,4.5081,-1.1237,-2.9206,-0.1270,-2.9130,rough,14.0,0,4.868
1010,32.32,3.5985,4.5099,-1.1240,-2.9186,-0.1267,-2.9151,rough,14.0,0,4.872
1020,32.64,3.6026,4.5114,-1.1267,-2.9430,-0.0892,-2.9774,rough,14.0,0,4.876
1030,32.96,3.6063,4.5143,-1.1251,-2.9167,-0.1261,-2.9184,rough,14.0,0,4.879
1040,33.28,3.6069,4.5144,-1.1250,-2.9149,-0.1266,-2.9198,rough,14.0,0,4.880
1050,33.60,3.6063,4.5144,-1.1250,-2.9154,-0.1262,-2.9195,rough,14.0,0,4.879
1060,33.92,3.6033,4.5144,-1.1250,-2.9171,-0.1262,-2.9191,rough,14.0,0,4.876
1070,34.24,3.5982,4.5157,-1.1253,-2.9204,-0.1266,-2.9157,rough,14.0,0,4.871
1080,34.56,3.5993,4.5175,-1.1255,-2.9195,-0.1264,-2.9176,rough,14.0,0,4.872
1090,34.88,3.6029,4.5197,-1.1261,-2.9183,-0.1262,-2.9196,rough,14.0,0,4.875
1100,35.20,3.6043,4.5198,-1.1260,-2.9176,-0.1262,-2.9197,rough,14.0,0,4.876
1110,35.52,3.6030,4.5198,-1.1261,-2.9183,-0.1262,-2.9194,rough,14.0,0,4.875
1120,35.84,3.5996,4.5211,-1.1263,-2.9207,-0.1266,-2.9158,rough,14.0,0,4.871
1130,36.16,3.6043,4.5219,-1.1264,-2.9177,-0.1261,-2.9205,rough,14.0,0,4.876
1140,36.48,3.6083,4.5220,-1.1264,-2.9158,-0.1261,-2.9204,rough,14.0,0,4.880
1150,36.80,3.6098,4.5220,-1.1264,-2.9151,-0.1261,-2.9201,rough,14.0,0,4.881
1160,37.12,3.6088,4.5220,-1.1264,-2.9156,-0.1262,-2.9197,rough,14.0,0,4.880
1170,37.44,3.6054,4.5220,-1.1265,-2.9175,-0.1262,-2.9193,rough,14.0,0,4.877
1180,37.76,3.5995,4.5226,-1.1266,-2.9210,-0.1265,-2.9172,rough,14.0,0,4.871
1190,38.08,3.5995,4.5243,-1.1269,-2.9207,-0.1263,-2.9188,rough,14.0,0,4.870
1200,38.40,3.6017,4.5251,-1.1292,-2.9450,-0.1052,-2.9208,rough,14.0,0,4.872
1210,38.72,3.6012,4.5281,-1.1280,-2.9209,-0.1261,-2.9258,rough,14.0,0,4.871
1220,39.04,3.6026,4.5294,-1.1280,-2.9206,-0.1263,-2.9194,rough,14.0,0,4.872
1230,39.36,3.6022,4.5315,-1.1284,-2.9211,-0.1261,-2.9204,rough,14.0,0,4.872
1240,39.68,3.6006,4.5323,-1.1306,-2.9471,-0.1047,-2.9220,rough,14.0,0,4.870
1250,40.00,3.6013,4.5353,-1.1293,-2.9204,-0.1277,-2.9266,rough,14.0,0,4.870
1260,40.32,3.6115,4.5357,-1.1292,-2.9165,-0.1255,-2.9251,rough,14.0,0,4.880
1270,40.64,3.6191,4.5359,-1.1291,-2.9125,-0.1255,-2.9251,rough,14.0,0,4.887
1280,40.96,3.6244,4.5360,-1.1290,-2.9097,-0.1255,-2.9249,rough,14.0,0,4.893
1290,41.28,3.6275,4.5361,-1.1290,-2.9080,-0.1255,-2.9247,rough,14.0,0,4.896
1300,41.60,3.6286,4.5361,-1.1290,-2.9075,-0.1256,-2.9244,rough,14.0,0,4.897
1310,41.92,3.6276,4.5361,-1.1290,-2.9081,-0.1256,-2.9240,rough,14.0,0,4.896
1320,42.24,3.6244,4.5361,-1.1290,-2.9098,-0.1257,-2.9236,rough,14.0,0,4.893
1330,42.56,3.6192,4.5360,-1.1291,-2.9126,-0.1257,-2.9232,rough,14.0,0,4.887
1340,42.88,3.6116,4.5359,-1.1291,-2.9167,-0.1258,-2.9226,rough,14.0,0,4.880
1350,43.20,3.6015,4.5360,-1.1293,-2.9223,-0.1260,-2.9211,rough,14.0,0,4.870
1360,43.52,3.5999,4.5379,-1.1295,-2.9223,-0.1257,-2.9233,rough,14.0,0,4.868
1370,43.84,3.6063,4.5379,-1.1296,-2.9198,-0.1257,-2.9233,rough,14.0,0,4.875
1380,44.16,3.6101,4.5380,-1.1296,-2.9179,-0.1257,-2.9231,rough,14.0,0,4.878
1390,44.48,3.6112,4.5380,-1.1296,-2.9173,-0.1258,-2.9228,rough,14.0,0,4.879
1400,44.80,3.6097,4.5380,-1.1296,-2.9181,-0.1258,-2.9225,rough,14.0,0,4.878
1410,45.12,3.6057,4.5380,-1.1296,-2.9203,-0.1259,-2.9220,rough,14.0,0,4.874
1420,45.44,3.5991,4.5385,-1.1298,-2.9242,-0.1262,-2.9195,rough,14.0,0,4.867
1430,45.76,3.6003,4.5400,-1.1300,-2.9235,-0.1261,-2.9202,rough,14.0,0,4.868
1440,46.08,3.6005,4.5414,-1.1313,-2.9327,-0.1180,-2.9270,rough,14.0,0,4.868
1450,46.40,3.6012,4.5437,-1.1310,-2.9242,-0.1251,-2.9260,rough,14.0,0,4.868
1460,46.72,3.6014,4.5457,-1.1315,-2.9169,-0.1166,-2.9903,rough,14.0,0,4.868
1470,47.04,3.5993,4.5472,-1.1321,-2.9283,-0.1232,-2.9302,rough,14.0,0,4.866
1480,47.36,3.6016,4.5487,-1.1319,-2.9245,-0.1258,-2.9247,rough,14.0,0,4.868
1490,47.68,3.6062,4.5499,-1.1319,-2.9211,-0.1251,-2.9280,rough,14.0,0,4.872
1500,48.00,3.6101,4.5499,-1.1320,-2.9198,-0.1251,-2.9280,rough,14.0,0,4.876
1510,48.32,3.6114,4.5499,-1.1320,-2.9192,-0.1251,-2.9277,rough,14.0,0,4.877
1520,48.64,3.6099,4.5499,-1.1320,-2.9200,-0.1252,-2.9274,rough,14.0,0,4.876
1530,48.96,3.6058,4.5499,-1.1320,-2.9223,-0.1252,-2.9269,rough,14.0,0,4.872
1540,49.28,3.5991,4.5506,-1.1322,-2.9264,-0.1258,-2.9225,rough,14.0,0,4.865
1550,49.60,3.6003,4.5521,-1.1324,-2.9257,-0.1257,-2.9231,rough,14.0,0,4.866
1560,49.92,3.6015,4.5530,-1.1341,-2.9487,-0.1024,-2.9261,rough,14.0,0,4.867
1570,50.24,3.5965,4.5550,-1.1331,-2.9275,-0.1256,-2.9260,rough,14.0,0,4.862
1580,50.56,3.6035,4.5643,-1.1385,-2.9594,-0.1039,-2.9298,rough,14.0,0,4.867
1590,50.88,3.6184,4.5669,-1.1357,-2.9201,-0.1230,-2.9395,rough,14.0,0,4.881
1600,51.20,3.6293,4.5672,-1.1353,-2.9121,-0.1239,-2.9402,rough,14.0,0,4.892
1610,51.52,3.6391,4.5674,-1.1352,-2.9070,-0.1235,-2.9401,rough,14.0,0,4.901
1620,51.84,3.6468,4.5675,-1.1351,-2.9029,-0.1235,-2.9401,rough,14.0,0,4.909
1630,52.16,3.6527,4.5677,-1.1351,-2.8998,-0.1235,-2.9400,rough,14.0,0,4.915
1640,52.48,3.6567,4.5678,-1.1350,-2.8977,-0.1235,-2.9399,rough,14.0,0,4.918
1650,52.80,3.6543,4.5677,-1.1351,-2.8990,-0.1236,-2.9395,rough,14.0,0,4.916
1660,53.12,3.6496,4.5677,-1.1351,-2.9016,-0.1236,-2.9390,rough,14.0,0,4.911
1670,53.44,3.6431,4.5676,-1.1352,-2.9050,-0.1237,-2.9385,rough,14.0,0,4.905
1680,53.76,3.6346,4.5675,-1.1352,-2.9096,-0.1238,-2.9380,rough,14.0,0,4.897
1690,54.08,3.6240,4.5673,-1.1353,-2.9152,-0.1238,-2.9374,rough,14.0,0,4.886
1700,54.40,3.6110,4.5671,-1.1354,-2.9222,-0.1239,-2.9367,rough,14.0,0,4.874
1710,54.72,3.5967,4.5677,-1.1354,-2.9290,-0.1245,-2.9320,rough,14.0,0,4.860
1720,55.04,3.5970,4.5697,-1.1362,-2.9232,-0.1160,-2.9947,rough,14.0,0,4.859
1730,55.36,3.6111,4.5697,-1.1359,-2.9228,-0.1246,-2.9314,rough,14.0,0,4.873
1740,55.68,3.6222,4.5699,-1.1358,-2.9172,-0.1246,-2.9314,rough,14.0,0,4.884
1750,56.00,3.6306,4.5700,-1.1357,-2.9127,-0.1247,-2.9313,rough,14.0,0,4.892
1760,56.32,3.6367,4.5702,-1.1357,-2.9095,-0.1247,-2.9312,rough,14.0,0,4.898
1770,56.64,3.6407,4.5702,-1.1356,-2.9074,-0.1247,-2.9310,rough,14.0,0,4.902
1780,56.96,3.6425,4.5703,-1.1356,-2.9065,-0.1247,-2.9307,rough,14.0,0,4.904
1790,57.28,3.6424,4.5703,-1.1356,-2.9066,-0.1248,-2.9304,rough,14.0,0,4.904
1800,57.60,3.6403,4.5703,-1.1356,-2.9077,-0.1248,-2.9301,rough,14.0,0,4.902
1810,57.92,3.6360,4.5702,-1.1357,-2.9100,-0.1249,-2.9296,rough,14.0,0,4.898
1820,58.24,3.6296,4.5702,-1.1357,-2.9135,-0.1249,-2.9291,rough,14.0,0,4.891
1830,58.56,3.6209,4.5700,-1.1358,-2.9182,-0.1250,-2.9286,rough,14.0,0,4.883
1840,58.88,3.6095,4.5698,-1.1359,-2.9242,-0.1251,-2.9280,rough,14.0,0,4.872
1850,59.20,3.5981,4.5708,-1.1360,-2.9286,-0.1247,-2.9309,rough,14.0,0,4.860
1860,59.52,3.5996,4.5724,-1.1363,-2.9281,-0.1244,-2.9326,rough,14.0,0,4.861
1870,59.84,3.6131,4.5726,-1.1364,-2.9223,-0.1244,-2.9329,rough,14.0,0,4.875
1880,60.16,3.6237,4.5728,-1.1364,-2.9168,-0.1244,-2.9329,rough,14.0,0,4.885
1890,60.48,3.6318,4.5729,-1.1363,-2.9126,-0.1245,-2.9328,rough,14.0,0,4.893
1900,60.80,3.6375,4.5731,-1.1362,-2.9095,-0.1245,-2.9327,rough,14.0,0,4.899
1910,61.12,3.6410,4.5731,-1.1362,-2.9077,-0.1245,-2.9325,rough,14.0,0,4.902
1920,61.44,3.6425,4.5732,-1.1362,-2.9069,-0.1245,-2.9322,rough,14.0,0,4.904
1930,61.76,3.6419,4.5732,-1.1362,-2.9073,-0.1246,-2.9319,rough,14.0,0,4.903
1940,62.08,3.6393,4.5732,-1.1362,-2.9087,-0.1246,-2.9315,rough,14.0,0,4.900
1950,62.40,3.6346,4.5731,-1.1363,-2.9113,-0.1247,-2.9310,rough,14.0,0,4.896
1960,62.72,3.6276,4.5730,-1.1363,-2.9150,-0.1247,-2.9305,rough,14.0,0,4.889
1970,63.04,3.6182,4.5729,-1.1364,-2.9201,-0.1248,-2.9300,rough,14.0,0,4.880
1980,63.36,3.6060,4.5727,-1.1365,-2.9266,-0.1249,-2.9294,rough,14.0,0,4.868
1990,63.68,3.5974,4.5741,-1.1366,-2.9293,-0.1245,-2.9319,rough,14.0,0,4.859
2000,64.00,3.6099,4.5839,-1.1393,-2.9272,-0.1242,-2.9430,rough,14.0,0,4.870
2010,64.32,3.6143,4.5841,-1.1389,-2.9235,-0.1232,-2.9432,rough,14.0,0,4.874
2020,64.64,3.6156,4.5842,-1.1388,-2.9227,-0.1231,-2.9429,rough,14.0,0,4.875
2030,64.96,3.6139,4.5842,-1.1388,-2.9236,-0.1231,-2.9426,rough,14.0,0,4.873
2040,65.28,3.6092,4.5841,-1.1389,-2.9262,-0.1232,-2.9422,rough,14.0,0,4.869
2050,65.60,3.6016,4.5845,-1.1390,-2.9306,-0.1236,-2.9390,rough,14.0,0,4.861
2060,65.92,3.5973,4.5857,-1.1393,-2.9340,-0.1246,-2.9315,rough,14.0,0,4.857
2070,66.24,3.6146,4.5871,-1.1393,-2.9241,-0.1241,-2.9356,rough,14.0,0,4.874
2080,66.56,3.6335,4.5875,-1.1392,-2.9143,-0.1240,-2.9359,rough,14.0,0,4.892
2090,66.88,3.6500,4.5878,-1.1390,-2.9056,-0.1240,-2.9361,rough,14.0,0,4.908
2100,67.20,3.6644,4.5880,-1.1389,-2.8979,-0.1240,-2.9363,rough,14.0,0,4.922
2110,67.52,3.6773,4.5883,-1.1388,-2.8910,-0.1240,-2.9365,rough,14.0,0,4.935
2120,67.84,3.6775,4.5883,-1.1388,-2.8910,-0.1241,-2.9363,rough,14.0,0,4.935
2130,68.16,3.6659,4.5881,-1.1389,-2.8972,-0.1241,-2.9356,rough,14.0,0,4.924
2140,68.48,3.6528,4.5879,-1.1390,-2.9042,-0.1242,-2.9348,rough,14.0,0,4.911
2150,68.80,3.6378,4.5877,-1.1391,-2.9123,-0.1243,-2.9341,rough,14.0,0,4.896
2160,69.12,3.6205,4.5874,-1.1393,-2.9215,-0.1244,-2.9333,rough,14.0,0,4.879
2170,69.44,3.6005,4.5873,-1.1395,-2.9323,-0.1246,-2.9312,rough,14.0,0,4.860
2180,69.76,3.5969,4.5895,-1.1398,-2.9336,-0.1252,-2.9302,rough,14.0,0,4.856
2190,70.08,3.6143,4.5906,-1.1400,-2.9235,-0.1257,-2.9367,rough,14.0,0,4.873
2200,70.40,3.6329,4.5910,-1.1398,-2.9137,-0.1258,-2.9369,rough,14.0,0,4.891
2210,70.72,3.6527,4.5913,-1.1397,-2.9046,-0.1241,-2.9369,rough,14.0,0,4.910
2220,71.04,3.6739,4.5917,-1.1395,-2.8935,-0.1239,-2.9373,rough,14.0,0,4.931
2230,71.36,3.6848,4.5919,-1.1394,-2.8877,-0.1239,-2.9375,rough,14.0,0,4.942
2240,71.68,3.6714,4.5917,-1.1395,-2.8949,-0.1240,-2.9367,rough,14.0,0,4.929
2250,72.00,3.6541,4.5914,-1.1397,-2.9042,-0.1241,-2.9358,rough,14.0,0,4.912
2260,72.32,3.6404,4.5912,-1.1398,-2.9109,-0.1249,-2.9352,rough,14.0,0,4.898
2270,72.64,3.6282,4.5910,-1.1399,-2.9167,-0.1258,-2.9347,rough,14.0,0,4.886
2280,72.96,3.6161,4.5908,-1.1400,-2.9229,-0.1261,-2.9342,rough,14.0,0,4.874
2290,73.28,3.6035,4.5906,-1.1401,-2.9296,-0.1263,-2.9336,rough,14.0,0,4.862
2300,73.60,3.6016,4.5924,-1.1403,-2.9302,-0.1255,-2.9359,rough,14.0,0,4.860
2310,73.92,3.6106,4.5925,-1.1404,-2.9260,-0.1258,-2.9359,rough,14.0,0,4.869
2320,74.24,3.6192,4.5927,-1.1404,-2.9215,-0.1259,-2.9358,rough,14.0,0,4.877
2330,74.56,3.6278,4.5929,-1.1403,-2.9170,-0.1259,-2.9357,rough,14.0,0,4.885
2340,74.88,3.6365,4.5930,-1.1402,-2.9125,-0.1257,-2.9356,rough,14.0,0,4.894
2350,75.20,3.6462,4.5932,-1.1401,-2.9076,-0.1255,-2.9356,rough,14.0,0,4.904
2360,75.52,3.6572,4.5934,-1.1400,-2.9019,-0.1253,-2.9356,rough,14.0,0,4.914
2370,75.84,3.6704,4.5949,-1.1402,-2.8948,-0.1241,-2.9430,rough,14.0,0,4.927
2380,76.16,3.6815,4.5951,-1.1401,-2.8889,-0.1240,-2.9433,rough,14.0,0,4.938
2390,76.48,3.6761,4.5950,-1.1402,-2.8919,-0.1241,-2.9428,rough,14.0,0,4.933
2400,76.80,3.6644,4.5948,-1.1403,-2.8980,-0.1243,-2.9421,rough,14.0,0,4.921
2410,77.12,3.6551,4.5947,-1.1404,-2.9029,-0.1245,-2.9416,rough,14.0,0,4.912
2420,77.44,3.6477,4.5946,-1.1404,-2.9067,-0.1248,-2.9411,rough,14.0,0,4.905
2430,77.76,3.6417,4.5945,-1.1405,-2.9098,-0.1249,-2.9406,rough,14.0,0,4.899
2440,78.08,3.6368,4.5944,-1.1405,-2.9123,-0.1251,-2.9402,rough,14.0,0,4.894
2450,78.40,3.6328,4.5943,-1.1406,-2.9168,-0.1223,-2.9391,rough,14.0,0,4.890
2460,78.72,3.6351,4.5944,-1.1405,-2.9136,-0.1250,-2.9395,rough,14.0,0,4.892
2470,79.04,3.6489,4.5947,-1.1404,-2.9058,-0.1255,-2.9397,rough,14.0,0,4.906
2480,79.36,3.6674,4.5950,-1.1403,-2.8965,-0.1247,-2.9399,rough,14.0,0,4.924
2490,79.68,3.6841,4.5953,-1.1401,-2.8879,-0.1243,-2.9402,rough,14.0,0,4.940
2500,80.00,3.6787,4.5953,-1.1402,-2.8909,-0.1242,-2.9397,rough,14.0,0,4.935
2510,80.32,3.6656,4.5950,-1.1403,-2.8979,-0.1245,-2.9390,rough,14.0,0,4.922
2520,80.64,3.6552,4.5949,-1.1404,-2.9032,-0.1248,-2.9384,rough,14.0,0,4.912
2530,80.96,3.6464,4.5948,-1.1404,-2.9043,-0.1294,-2.9389,rough,14.0,0,4.903
2540,81.28,3.6490,4.5948,-1.1404,-2.9084,-0.1228,-2.9371,rough,14.0,0,4.906
2550,81.60,3.6625,4.5951,-1.1403,-2.8992,-0.1252,-2.9378,rough,14.0,0,4.919
2560,81.92,3.6799,4.5954,-1.1402,-2.8903,-0.1246,-2.9381,rough,14.0,0,4.936
2570,82.24,3.6830,4.5955,-1.1401,-2.8889,-0.1244,-2.9379,rough,14.0,0,4.939
2580,82.56,3.6709,4.5953,-1.1402,-2.8954,-0.1245,-2.9371,rough,14.0,0,4.927
2590,82.88,3.6603,4.5962,-1.1413,-2.8965,-0.1156,-3.0029,rough,14.0,0,4.917
2600,83.20,3.6529,4.5961,-1.1406,-2.9006,-0.1291,-2.9434,rough,14.0,0,4.910
2610,83.52,3.6597,4.5961,-1.1406,-2.9027,-0.1221,-2.9417,rough,14.0,0,4.916
2620,83.84,3.6786,4.5965,-1.1404,-2.8908,-0.1244,-2.9427,rough,14.0,0,4.935
2630,84.16,3.6901,4.5967,-1.1403,-2.8843,-0.1247,-2.9430,rough,14.0,0,4.946
2640,84.48,3.6798,4.5966,-1.1404,-2.8908,-0.1237,-2.9420,rough,14.0,0,4.936
2650,84.80,3.6701,4.5965,-1.1405,-2.8916,-0.1291,-2.9427,rough,14.0,0,4.927
2660,85.12,3.6769,4.5965,-1.1405,-2.8939,-0.1219,-2.9409,rough,14.0,0,4.933
2670,85.44,3.6899,4.5967,-1.1404,-2.8884,-0.1204,-2.9408,rough,14.0,0,4.946
2680,85.76,3.6822,4.5968,-1.1404,-2.8870,-0.1271,-2.9419,rough,14.0,0,4.938
2690,86.08,3.6724,4.5967,-1.1405,-2.8904,-0.1294,-2.9418,rough,14.0,0,4.929
2700,86.40,3.6776,4.5967,-1.1405,-2.8937,-0.1220,-2.9398,rough,14.0,0,4.934
2710,86.72,3.6891,4.5969,-1.1404,-2.8886,-0.1209,-2.9397,rough,14.0,0,4.945
2720,87.04,3.6853,4.5969,-1.1404,-2.8887,-0.1235,-2.9400,rough,14.0,0,4.941
2730,87.36,3.6809,4.5969,-1.1404,-2.8880,-0.1270,-2.9404,rough,14.0,0,4.937
2740,87.68,3.6763,4.5968,-1.1405,-2.8948,-0.1218,-2.9386,rough,14.0,0,4.933
2750,88.00,3.6819,4.5969,-1.1404,-2.8898,-0.1243,-2.9392,rough,14.0,0,4.938
2760,88.32,3.6850,4.5970,-1.1404,-2.8895,-0.1226,-2.9386,rough,14.0,0,4.941
2770,88.64,3.6778,4.5970,-1.1405,-2.8874,-0.1301,-2.9400,rough,14.0,0,4.934
2780,88.96,3.6792,4.5969,-1.1405,-2.8932,-0.1221,-2.9377,rough,14.0,0,4.935
2790,89.28,3.6794,4.5979,-1.1407,-2.8931,-0.1210,-2.9434,rough,14.0,0,4.935
2800,89.60,3.6833,4.5980,-1.1407,-2.8905,-0.1216,-2.9435,rough,14.0,0,4.939
2810,89.92,3.6772,4.5981,-1.1407,-2.8876,-0.1293,-2.9450,rough,14.0,0,4.933
2820,90.24,3.6793,4.5980,-1.1407,-2.8929,-0.1214,-2.9428,rough,14.0,0,4.935
2830,90.56,3.6861,4.5981,-1.1407,-2.8892,-0.1216,-2.9429,rough,14.0,0,4.942
2840,90.88,3.6792,4.5982,-1.1407,-2.8866,-0.1293,-2.9443,rough,14.0,0,4.935
2850,91.20,3.6800,4.5981,-1.1407,-2.8927,-0.1215,-2.9420,rough,14.0,0,4.936
2860,91.52,3.6828,4.5981,-1.1407,-2.8910,-0.1218,-2.9420,rough,14.0,0,4.939
2870,91.84,3.6803,4.5981,-1.1407,-2.8925,-0.1216,-2.9416,rough,14.0,0,4.936
2880,92.16,3.6828,4.5982,-1.1407,-2.8896,-0.1237,-2.9419,rough,14.0,0,4.939
2890,92.48,3.6822,4.5982,-1.1407,-2.8911,-0.1223,-2.9412,rough,14.0,0,4.938
2900,92.80,3.6818,4.5983,-1.1407,-2.8901,-0.1238,-2.9414,rough,14.0,0,4.938
2910,93.12,3.6843,4.5984,-1.1407,-2.8884,-0.1243,-2.9413,rough,14.0,0,4.940
2920,93.44,3.6811,4.5983,-1.1407,-2.8903,-0.1242,-2.9409,rough,14.0,0,4.937
2930,93.76,3.6811,4.5984,-1.1407,-2.8866,-0.1288,-2.9418,rough,14.0,0,4.937
2940,94.08,3.6825,4.5984,-1.1407,-2.8889,-0.1251,-2.9406,rough,14.0,0,4.938
2950,94.40,3.6799,4.5985,-1.1408,-2.8872,-0.1289,-2.9413,rough,14.0,0,4.936
2960,94.72,3.6841,4.5984,-1.1407,-2.8911,-0.1214,-2.9392,rough,14.0,0,4.940
2970,95.04,3.6808,4.5986,-1.1408,-2.8866,-0.1292,-2.9408,rough,14.0,0,4.937
2980,95.36,3.6823,4.5985,-1.1408,-2.8921,-0.1215,-2.9386,rough,14.0,0,4.938
2990,95.68,3.6849,4.5985,-1.1407,-2.8905,-0.1219,-2.9385,rough,14.0,0,4.941
3000,96.00,3.6825,4.5985,-1.1408,-2.8920,-0.1217,-2.9381,rough,14.0,0,4.938
3010,96.32,3.6716,4.5993,-1.1411,-2.8981,-0.1203,-2.9433,rough,14.0,0,4.928
3020,96.64,3.6700,4.5993,-1.1411,-2.8968,-0.1230,-2.9437,rough,14.0,0,4.926
3030,96.96,3.6820,4.5997,-1.1410,-2.8862,-0.1282,-2.9453,rough,14.0,0,4.938
3040,97.28,3.6942,4.5998,-1.1409,-2.8852,-0.1215,-2.9438,rough,14.0,0,4.950
3050,97.60,3.6778,4.5997,-1.1411,-2.8888,-0.1280,-2.9445,rough,14.0,0,4.934
3060,97.92,3.6674,4.5994,-1.1412,-2.9002,-0.1208,-2.9420,rough,14.0,0,4.923
3070,98.24,3.6700,4.5995,-1.1411,-2.8970,-0.1231,-2.9424,rough,14.0,0,4.926
3080,98.56,3.6857,4.5998,-1.1410,-2.8895,-0.1219,-2.9424,rough,14.0,0,4.941
3090,98.88,3.6891,4.5999,-1.1410,-2.8873,-0.1227,-2.9425,rough,14.0,0,4.945
3100,99.20,3.6848,4.5998,-1.1410,-2.8905,-0.1216,-2.9417,rough,14.0,0,4.940
3110,99.52,3.6792,4.5997,-1.1411,-2.8938,-0.1212,-2.9411,rough,14.0,0,4.935
3120,99.84,3.6838,4.5999,-1.1410,-2.8898,-0.1232,-2.9416,rough,14.0,0,4.939
3130,100.16,3.6862,4.5999,-1.1410,-2.8899,-0.1215,-2.9409,rough,14.0,0,4.942
3140,100.48,3.6791,4.5998,-1.1411,-2.8947,-0.1204,-2.9401,rough,14.0,0,4.935
3150,100.80,3.6792,4.5999,-1.1411,-2.8926,-0.1231,-2.9405,rough,14.0,0,4.935
3160,101.12,3.6883,4.6001,-1.1410,-2.8878,-0.1230,-2.9406,rough,14.0,0,4.944
3170,101.44,3.6911,4.6002,-1.1410,-2.8843,-0.1255,-2.9411,rough,14.0,0,4.947
3180,101.76,3.6852,4.6001,-1.1410,-2.8877,-0.1253,-2.9405,rough,14.0,0,4.941
3190,102.08,3.6771,4.6001,-1.1411,-2.8899,-0.1280,-2.9406,rough,14.0,0,4.933
3200,102.40,3.6806,4.6000,-1.1411,-2.8939,-0.1208,-2.9386,rough,14.0,0,4.936
3210,102.72,3.6915,4.6024,-1.1416,-2.8880,-0.1188,-2.9520,rough,14.0,0,4.947
3220,103.04,3.6960,4.6024,-1.1415,-2.8883,-0.1155,-2.9512,rough,14.0,0,4.951
3230,103.36,3.6734,4.6022,-1.1417,-2.8957,-0.1212,-2.9514,rough,14.0,0,4.929
3240,103.68,3.6591,4.6021,-1.1419,-2.8990,-0.1266,-2.9520,rough,14.0,0,4.915
3250,104.00,3.6597,4.6020,-1.1419,-2.9043,-0.1196,-2.9500,rough,14.0,0,4.915
3260,104.32,3.6723,4.6023,-1.1418,-2.8958,-0.1218,-2.9507,rough,14.0,0,4.928
3270,104.64,3.6935,4.6026,-1.1416,-2.8886,-0.1170,-2.9501,rough,14.0,0,4.949
3280,104.96,3.6919,4.6027,-1.1416,-2.8855,-0.1218,-2.9510,rough,14.0,0,4.947
3290,105.28,3.6776,4.6025,-1.1417,-2.8936,-0.1214,-2.9500,rough,14.0,0,4.933
3300,105.60,3.6754,4.6026,-1.1417,-2.8904,-0.1267,-2.9510,rough,14.0,0,4.931
3310,105.92,3.6873,4.6027,-1.1416,-2.8871,-0.1230,-2.9503,rough,14.0,0,4.942
3320,106.24,3.6903,4.6027,-1.1416,-2.8881,-0.1201,-2.9494,rough,14.0,0,4.945
3330,106.56,3.6889,4.6027,-1.1416,-2.8897,-0.1192,-2.9489,rough,14.0,0,4.944
3340,106.88,3.6854,4.6027,-1.1417,-2.8912,-0.1196,-2.9485,rough,14.0,0,4.940
3350,107.20,3.6762,4.6026,-1.1418,-2.8948,-0.1213,-2.9483,rough,14.0,0,4.931
3360,107.52,3.6791,4.6028,-1.1417,-2.8888,-0.1267,-2.9495,rough,14.0,0,4.934
3370,107.84,3.6863,4.6028,-1.1417,-2.8907,-0.1196,-2.9477,rough,14.0,0,4.941
3380,108.16,3.6809,4.6028,-1.1417,-2.8919,-0.1219,-2.9478,rough,14.0,0,4.936
3390,108.48,3.6818,4.6029,-1.1417,-2.8874,-0.1269,-2.9489,rough,14.0,0,4.937
3400,108.80,3.6840,4.6029,-1.1417,-2.8893,-0.1230,-2.9477,rough,14.0,0,4.939
3410,109.12,3.6818,4.6030,-1.1417,-2.8874,-0.1270,-2.9484,rough,14.0,0,4.937
3420,109.44,3.6864,4.6030,-1.1417,-2.8910,-0.1195,-2.9464,rough,14.0,0,4.941
3430,109.76,3.6823,4.6030,-1.1417,-2.8874,-0.1266,-2.9478,rough,14.0,0,4.937
3440,110.08,3.6817,4.6029,-1.1417,-2.8937,-0.1194,-2.9457,rough,14.0,0,4.937
3450,110.40,3.6853,4.6030,-1.1417,-2.8914,-0.1199,-2.9456,rough,14.0,0,4.940
3460,110.72,3.6833,4.6030,-1.1417,-2.8927,-0.1198,-2.9453,rough,14.0,0,4.938
3470,111.04,3.6862,4.6031,-1.1417,-2.8895,-0.1219,-2.9457,rough,14.0,0,4.941
3480,111.36,3.6857,4.6031,-1.1417,-2.8916,-0.1196,-2.9448,rough,14.0,0,4.941
3490,111.68,3.6830,4.6031,-1.1417,-2.8913,-0.1218,-2.9450,rough,14.0,0,4.938
3500,112.00,3.6847,4.6033,-1.1417,-2.8863,-0.1269,-2.9461,rough,14.0,0,4.940
3510,112.32,3.6872,4.6032,-1.1417,-2.8905,-0.1202,-2.9442,rough,14.0,0,4.942
3520,112.64,3.6813,4.6033,-1.1417,-2.8883,-0.1269,-2.9454,rough,14.0,0,4.936
3530,112.96,3.6852,4.6032,-1.1417,-2.8922,-0.1195,-2.9434,rough,14.0,0,4.940
3540,113.28,3.6823,4.6033,-1.1417,-2.8875,-0.1273,-2.9451,rough,14.0,0,4.937
3550,113.60,3.6840,4.6033,-1.1417,-2.8929,-0.1196,-2.9429,rough,14.0,0,4.939
3560,113.92,3.6867,4.6033,-1.1417,-2.8912,-0.1200,-2.9428,rough,14.0,0,4.942
3570,114.24,3.6842,4.6033,-1.1417,-2.8927,-0.1198,-2.9424,rough,14.0,0,4.939
3580,114.56,3.6868,4.6034,-1.1417,-2.8897,-0.1219,-2.9428,rough,14.0,0,4.942
3590,114.88,3.6861,4.6034,-1.1417,-2.8918,-0.1198,-2.9419,rough,14.0,0,4.941
3600,115.20,3.6833,4.6034,-1.1418,-2.8918,-0.1219,-2.9421,rough,14.0,0,4.938
3610,115.52,3.6874,4.6035,-1.1417,-2.8893,-0.1222,-2.9421,rough,14.0,0,4.942
3620,115.84,3.6836,4.6035,-1.1418,-2.8925,-0.1208,-2.9413,rough,14.0,0,4.939
3630,116.16,3.6828,4.6035,-1.1418,-2.8920,-0.1221,-2.9413,rough,14.0,0,4.938
3640,116.48,3.6901,4.6036,-1.1417,-2.8896,-0.1203,-2.9408,rough,14.0,0,4.945
3650,116.80,3.6894,4.6037,-1.1417,-2.8883,-0.1225,-2.9412,rough,14.0,0,4.944
3660,117.12,3.6834,4.6036,-1.1418,-2.8917,-0.1222,-2.9405,rough,14.0,0,4.938
3670,117.44,3.6834,4.6037,-1.1418,-2.8879,-0.1270,-2.9415,rough,14.0,0,4.938
3680,117.76,3.6932,4.6059,-1.1423,-2.8885,-0.1178,-2.9528,rough,14.0,0,4.948
3690,118.08,3.6943,4.6060,-1.1422,-2.8859,-0.1201,-2.9532,rough,14.0,0,4.949
3700,118.40,3.6785,4.6058,-1.1424,-2.8902,-0.1252,-2.9536,rough,14.0,0,4.933
3710,118.72,3.6752,4.6057,-1.1424,-2.8977,-0.1181,-2.9514,rough,14.0,0,4.930
3720,119.04,3.6847,4.6059,-1.1423,-2.8908,-0.1205,-2.9521,rough,14.0,0,4.939
3730,119.36,3.6915,4.6060,-1.1423,-2.8887,-0.1189,-2.9517,rough,14.0,0,4.946
3740,119.68,3.6871,4.6060,-1.1423,-2.8895,-0.1207,-2.9517,rough,14.0,0,4.942
3750,120.00,3.6775,4.6059,-1.1424,-2.8952,-0.1200,-2.9509,rough,14.0,0,4.932
3760,120.32,3.6783,4.6060,-1.1424,-2.8903,-0.1255,-2.9521,rough,14.0,0,4.933
3770,120.64,3.6878,4.6061,-1.1423,-2.8907,-0.1188,-2.9504,rough,14.0,0,4.942
3780,120.96,3.6815,4.6061,-1.1424,-2.8888,-0.1253,-2.9516,rough,14.0,0,4.936
3790,121.28,3.6812,4.6060,-1.1424,-2.8949,-0.1182,-2.9495,rough,14.0,0,4.936
3800,121.60,3.6869,4.6061,-1.1423,-2.8919,-0.1181,-2.9495,rough,14.0,0,4.941
3810,121.92,3.6809,4.6061,-1.1424,-2.8935,-0.1202,-2.9495,rough,14.0,0,4.935
3820,122.24,3.6822,4.6062,-1.1424,-2.8885,-0.1255,-2.9507,rough,14.0,0,4.937
3830,122.56,3.6875,4.6062,-1.1423,-2.8917,-0.1181,-2.9487,rough,14.0,0,4.942
3840,122.88,3.6809,4.6062,-1.1424,-2.8936,-0.1203,-2.9487,rough,14.0,0,4.935
3850,123.20,3.6838,4.6063,-1.1424,-2.8878,-0.1256,-2.9499,rough,14.0,0,4.938
3860,123.52,3.6895,4.6063,-1.1423,-2.8908,-0.1182,-2.9480,rough,14.0,0,4.944
3870,123.84,3.6799,4.6063,-1.1424,-2.8901,-0.1254,-2.9492,rough,14.0,0,4.934
3880,124.16,3.6807,4.6062,-1.1424,-2.8956,-0.1183,-2.9471,rough,14.0,0,4.935
3890,124.48,3.6875,4.6064,-1.1424,-2.8920,-0.1182,-2.9471,rough,14.0,0,4.942
3900,124.80,3.6823,4.6063,-1.1424,-2.8932,-0.1203,-2.9472,rough,14.0,0,4.937
3910,125.12,3.6833,4.6065,-1.1424,-2.8884,-0.1256,-2.9483,rough,14.0,0,4.938
3920,125.44,3.6874,4.6064,-1.1424,-2.8921,-0.1184,-2.9464,rough,14.0,0,4.942
3930,125.76,3.6814,4.6064,-1.1424,-2.8955,-0.1182,-2.9458,rough,14.0,0,4.936
3940,126.08,3.6873,4.6065,-1.1424,-2.8905,-0.1206,-2.9464,rough,14.0,0,4.942
3950,126.40,3.6902,4.6066,-1.1424,-2.8909,-0.1181,-2.9456,rough,14.0,0,4.945
3960,126.72,3.6803,4.6064,-1.1424,-2.8945,-0.1204,-2.9455,rough,14.0,0,4.935
3970,127.04,3.6799,4.6066,-1.1424,-2.8905,-0.1256,-2.9466,rough,14.0,0,4.934
3980,127.36,3.6940,4.6068,-1.1423,-2.8865,-0.1213,-2.9458,rough,14.0,0,4.948
3990,127.68,3.6997,4.6068,-1.1423,-2.8878,-0.1162,-2.9445,rough,14.0,0,4.954
4000,128.00,3.6845,4.6066,-1.1424,-2.8941,-0.1185,-2.9441,rough,14.0,0,4.939
4010,128.32,3.6727,4.6065,-1.1425,-2.8987,-0.1206,-2.9439,rough,14.0,0,4.927
4020,128.64,3.6744,4.6066,-1.1425,-2.8937,-0.1257,-2.9450,rough,14.0,0,4.929
4030,128.96,3.6906,4.6068,-1.1424,-2.8902,-0.1194,-2.9438,rough,14.0,0,4.945
4040,129.28,3.6977,4.6069,-1.1423,-2.8893,-0.1161,-2.9429,rough,14.0,0,4.952
4050,129.60,3.6891,4.6068,-1.1424,-2.8920,-0.1184,-2.9429,rough,14.0,0,4.943
4060,129.92,3.6797,4.6067,-1.1425,-2.8971,-0.1182,-2.9422,rough,14.0,0,4.934
4070,130.24,3.6840,4.6069,-1.1424,-2.8929,-0.1206,-2.9427,rough,14.0,0,4.938
4080,130.56,3.6985,4.6071,-1.1423,-2.8885,-0.1168,-2.9421,rough,14.0,0,4.953
4090,130.88,3.7017,4.6082,-1.1426,-2.8886,-0.1135,-2.9485,rough,14.0,0,4.956
4100,131.20,3.6766,4.6081,-1.1428,-2.8927,-0.1246,-2.9502,rough,14.0,0,4.931
4110,131.52,3.6589,4.6077,-1.1430,-2.9079,-0.1176,-2.9475,rough,14.0,0,4.914
4120,131.84,3.6512,4.6077,-1.1430,-2.9067,-0.1242,-2.9486,rough,14.0,0,4.906
4130,132.16,3.6562,4.6077,-1.1430,-2.9093,-0.1178,-2.9469,rough,14.0,0,4.911
4140,132.48,3.6727,4.6080,-1.1429,-2.8987,-0.1201,-2.9477,rough,14.0,0,4.927
4150,132.80,3.6982,4.6085,-1.1427,-2.8866,-0.1182,-2.9480,rough,14.0,0,4.952
4160,133.12,3.7021,4.6084,-1.1426,-2.8900,-0.1120,-2.9463,rough,14.0,0,4.956
4170,133.44,3.6802,4.6082,-1.1428,-2.8967,-0.1177,-2.9466,rough,14.0,0,4.934
4180,133.76,3.6648,4.6080,-1.1429,-2.9033,-0.1199,-2.9463,rough,14.0,0,4.919
4190,134.08,3.6620,4.6081,-1.1430,-2.9008,-0.1249,-2.9471,rough,14.0,0,4.917
4200,134.40,3.6739,4.6082,-1.1429,-2.9002,-0.1178,-2.9455,rough,14.0,0,4.928
4210,134.72,3.6949,4.6085,-1.1427,-2.8903,-0.1162,-2.9456,rough,14.0,0,4.949
4220,135.04,3.6961,4.6086,-1.1427,-2.8899,-0.1163,-2.9455,rough,14.0,0,4.950
4230,135.36,3.6906,4.6086,-1.1427,-2.8900,-0.1197,-2.9458,rough,14.0,0,4.945
4240,135.68,3.6796,4.6084,-1.1428,-2.8955,-0.1202,-2.9452,rough,14.0,0,4.934
4250,136.00,3.6792,4.6086,-1.1428,-2.8918,-0.1250,-2.9462,rough,14.0,0,4.933
4260,136.32,3.6933,4.6087,-1.1427,-2.8892,-0.1190,-2.9449,rough,14.0,0,4.947
4270,136.64,3.6987,4.6088,-1.1427,-2.8880,-0.1172,-2.9444,rough,14.0,0,4.953
4280,136.96,3.6913,4.6088,-1.1427,-2.8897,-0.1200,-2.9446,rough,14.0,0,4.945
4290,137.28,3.6786,4.6086,-1.1429,-2.8962,-0.1203,-2.9439,rough,14.0,0,4.933
4300,137.60,3.6766,4.6087,-1.1429,-2.8935,-0.1250,-2.9447,rough,14.0,0,4.931
4310,137.92,3.6900,4.6088,-1.1428,-2.8915,-0.1187,-2.9433,rough,14.0,0,4.944
4320,138.24,3.6944,4.6090,-1.1427,-2.8851,-0.1237,-2.9446,rough,14.0,0,4.948
4330,138.56,3.6867,4.6088,-1.1428,-2.8924,-0.1198,-2.9430,rough,14.0,0,4.941
4340,138.88,3.6764,4.6088,-1.1429,-2.8937,-0.1251,-2.9436,rough,14.0,0,4.931
4350,139.20,3.6819,4.6088,-1.1429,-2.8968,-0.1178,-2.9417,rough,14.0,0,4.936
4360,139.52,3.6933,4.6090,-1.1428,-2.8910,-0.1175,-2.9418,rough,14.0,0,4.947
4370,139.84,3.6890,4.6089,-1.1428,-2.8929,-0.1180,-2.9415,rough,14.0,0,4.943
4380,140.16,3.6815,4.6088,-1.1429,-2.8973,-0.1177,-2.9408,rough,14.0,0,4.936
4390,140.48,3.6873,4.6090,-1.1428,-2.8923,-0.1201,-2.9414,rough,14.0,0,4.941
4400,140.80,3.6961,4.6112,-1.1433,-2.8886,-0.1168,-2.9541,rough,14.0,0,4.950
4410,141.12,3.6974,4.6113,-1.1433,-2.8864,-0.1184,-2.9543,rough,14.0,0,4.951
4420,141.44,3.6809,4.6110,-1.1434,-2.8972,-0.1160,-2.9528,rough,14.0,0,4.935
4430,141.76,3.6717,4.6110,-1.1435,-2.9002,-0.1185,-2.9528,rough,14.0,0,4.926
4440,142.08,3.6754,4.6111,-1.1435,-2.8940,-0.1236,-2.9540,rough,14.0,0,4.929
4450,142.40,3.6928,4.6114,-1.1433,-2.8899,-0.1173,-2.9528,rough,14.0,0,4.946
4460,142.72,3.6986,4.6115,-1.1433,-2.8863,-0.1181,-2.9530,rough,14.0,0,4.952
4470,143.04,3.6900,4.6113,-1.1434,-2.8924,-0.1163,-2.9519,rough,14.0,0,4.943
4480,143.36,3.6790,4.6112,-1.1435,-2.8966,-0.1184,-2.9517,rough,14.0,0,4.933
4490,143.68,3.6796,4.6114,-1.1435,-2.8920,-0.1236,-2.9528,rough,14.0,0,4.933
4500,144.00,3.6918,4.6114,-1.1434,-2.8925,-0.1151,-2.9508,rough,14.0,0,4.945
4510,144.32,3.6885,4.6114,-1.1434,-2.8937,-0.1158,-2.9506,rough,14.0,0,4.942
4520,144.64,3.6817,4.6114,-1.1435,-2.8955,-0.1183,-2.9507,rough,14.0,0,4.935
4530,144.96,3.6867,4.6114,-1.1434,-2.8945,-0.1161,-2.9501,rough,14.0,0,4.940
4540,145.28,3.6909,4.6115,-1.1434,-2.8929,-0.1154,-2.9498,rough,14.0,0,4.944
4550,145.60,3.6827,4.6116,-1.1434,-2.8909,-0.1233,-2.9513,rough,14.0,0,4.936
4560,145.92,3.6871,4.6115,-1.1434,-2.8944,-0.1163,-2.9494,rough,14.0,0,4.941
4570,146.24,3.6918,4.6116,-1.1434,-2.8927,-0.1153,-2.9490,rough,14.0,0,4.945
4580,146.56,3.6844,4.6115,-1.1435,-2.8963,-0.1158,-2.9486,rough,14.0,0,4.938
4590,146.88,3.6857,4.6116,-1.1434,-2.8934,-0.1186,-2.9491,rough,14.0,0,4.939
4600,147.20,3.6920,4.6117,-1.1434,-2.8925,-0.1155,-2.9483,rough,14.0,0,4.945
4610,147.52,3.6861,4.6116,-1.1434,-2.8949,-0.1166,-2.9481,rough,14.0,0,4.940
4620,147.84,3.6848,4.6118,-1.1434,-2.8899,-0.1237,-2.9496,rough,14.0,0,4.938
4630,148.16,3.6899,4.6117,-1.1434,-2.8933,-0.1162,-2.9476,rough,14.0,0,4.943
4640,148.48,3.6872,4.6117,-1.1434,-2.8946,-0.1165,-2.9473,rough,14.0,0,4.941
4650,148.80,3.6873,4.6118,-1.1434,-2.8920,-0.1196,-2.9478,rough,14.0,0,4.941
4660,149.12,3.6893,4.6118,-1.1434,-2.8936,-0.1164,-2.9468,rough,14.0,0,4.943
4670,149.44,3.6908,4.6118,-1.1434,-2.8933,-0.1158,-2.9464,rough,14.0,0,4.944
4680,149.76,3.6906,4.6119,-1.1434,-2.8935,-0.1158,-2.9462,rough,14.0,0,4.944
4690,150.08,3.6890,4.6119,-1.1434,-2.8941,-0.1162,-2.9459,rough,14.0,0,4.942
4700,150.40,3.6890,4.6119,-1.1434,-2.8941,-0.1162,-2.9456,rough,14.0,0,4.942
4710,150.72,3.6906,4.6119,-1.1434,-2.8935,-0.1159,-2.9454,rough,14.0,0,4.944
4720,151.04,3.6917,4.6120,-1.1434,-2.8931,-0.1157,-2.9451,rough,14.0,0,4.945
4730,151.36,3.6902,4.6120,-1.1434,-2.8937,-0.1161,-2.9448,rough,14.0,0,4.944
4740,151.68,3.6903,4.6120,-1.1434,-2.8937,-0.1161,-2.9446,rough,14.0,0,4.944
4750,152.00,3.6920,4.6120,-1.1434,-2.8931,-0.1157,-2.9443,rough,14.0,0,4.945
4760,152.32,3.6917,4.6121,-1.1434,-2.8933,-0.1158,-2.9440,rough,14.0,0,4.945
4770,152.64,3.6915,4.6121,-1.1434,-2.8934,-0.1159,-2.9438,rough,14.0,0,4.945
4780,152.96,3.6921,4.6121,-1.1434,-2.8932,-0.1158,-2.9435,rough,14.0,0,4.945
4790,153.28,3.6921,4.6121,-1.1434,-2.8932,-0.1158,-2.9432,rough,14.0,0,4.945
4800,153.60,3.6923,4.6122,-1.1434,-2.8932,-0.1158,-2.9429,rough,14.0,0,4.946
4810,153.92,3.6917,4.6122,-1.1434,-2.8934,-0.1160,-2.9427,rough,14.0,0,4.945
4820,154.24,3.6922,4.6122,-1.1434,-2.8933,-0.1159,-2.9424,rough,14.0,0,4.945
4830,154.56,3.6924,4.6122,-1.1434,-2.8932,-0.1159,-2.9421,rough,14.0,0,4.946
4840,154.88,3.6926,4.6122,-1.1434,-2.8932,-0.1159,-2.9419,rough,14.0,0,4.946
4850,155.20,3.6871,4.6134,-1.1438,-2.8949,-0.1161,-2.9493,rough,14.0,0,4.940
4860,155.52,3.6798,4.6133,-1.1439,-2.8992,-0.1157,-2.9488,rough,14.0,0,4.933
4870,155.84,3.6854,4.6135,-1.1438,-2.8943,-0.1180,-2.9493,rough,14.0,0,4.939
4880,156.16,3.6948,4.6136,-1.1437,-2.8924,-0.1143,-2.9484,rough,14.0,0,4.948
4890,156.48,3.6870,4.6135,-1.1438,-2.8954,-0.1157,-2.9482,rough,14.0,0,4.940
4900,156.80,3.6823,4.6134,-1.1439,-2.8981,-0.1156,-2.9478,rough,14.0,0,4.936
4910,157.12,3.6888,4.6136,-1.1438,-2.8949,-0.1153,-2.9476,rough,14.0,0,4.942
4920,157.44,3.6945,4.6137,-1.1438,-2.8928,-0.1142,-2.9473,rough,14.0,0,4.948
4930,157.76,3.6873,4.6136,-1.1438,-2.8954,-0.1158,-2.9472,rough,14.0,0,4.940
4940,158.08,3.6840,4.6136,-1.1438,-2.8974,-0.1157,-2.9468,rough,14.0,0,4.937
4950,158.40,3.6920,4.6137,-1.1438,-2.8934,-0.1153,-2.9467,rough,14.0,0,4.945
4960,158.72,3.6908,4.6137,-1.1438,-2.8942,-0.1152,-2.9464,rough,14.0,0,4.944
4970,159.04,3.6829,4.6138,-1.1438,-2.8922,-0.1229,-2.9477,rough,14.0,0,4.936
4980,159.36,3.6879,4.6137,-1.1438,-2.8954,-0.1158,-2.9459,rough,14.0,0,4.941
4990,159.68,3.6950,4.6138,-1.1438,-2.8928,-0.1143,-2.9455,rough,14.0,0,4.948
5000,160.00,3.6890,4.6138,-1.1438,-2.8950,-0.1156,-2.9453,rough,14.0,0,4.942
5010,160.32,3.6844,4.6138,-1.1438,-2.8958,-0.1179,-2.9454,rough,14.0,0,4.938
5020,160.64,3.6917,4.6139,-1.1438,-2.8934,-0.1159,-2.9449,rough,14.0,0,4.945
5030,160.96,3.6949,4.6139,-1.1438,-2.8929,-0.1146,-2.9444,rough,14.0,0,4.948
5040,161.28,3.6864,4.6139,-1.1438,-2.8961,-0.1163,-2.9443,rough,14.0,0,4.940
5050,161.60,3.6837,4.6140,-1.1439,-2.8921,-0.1231,-2.9457,rough,14.0,0,4.937
5060,161.92,3.6932,4.6140,-1.1438,-2.8937,-0.1148,-2.9436,rough,14.0,0,4.946
5070,162.24,3.6939,4.6140,-1.1438,-2.8935,-0.1148,-2.9434,rough,14.0,0,4.947
5080,162.56,3.6859,4.6139,-1.1439,-2.8972,-0.1154,-2.9429,rough,14.0,0,4.939
5090,162.88,3.6868,4.6140,-1.1438,-2.8947,-0.1181,-2.9434,rough,14.0,0,4.940
5100,163.20,3.6957,4.6141,-1.1438,-2.8927,-0.1147,-2.9426,rough,14.0,0,4.949
5110,163.52,3.6914,4.6141,-1.1438,-2.8945,-0.1155,-2.9423,rough,14.0,0,4.944
5120,163.84,3.6846,4.6141,-1.1439,-2.8920,-0.1231,-2.9437,rough,14.0,0,4.938
5130,164.16,3.6843,4.6151,-1.1441,-2.8921,-0.1221,-2.9496,rough,14.0,0,4.937
5140,164.48,3.6907,4.6152,-1.1441,-2.8931,-0.1166,-2.9484,rough,14.0,0,4.944
5150,164.80,3.6921,4.6152,-1.1441,-2.8942,-0.1144,-2.9477,rough,14.0,0,4.945
5160,165.12,3.6880,4.6151,-1.1441,-2.8959,-0.1151,-2.9474,rough,14.0,0,4.941
5170,165.44,3.6852,4.6153,-1.1441,-2.8916,-0.1223,-2.9489,rough,14.0,0,4.938
5180,165.76,3.6916,4.6152,-1.1441,-2.8944,-0.1147,-2.9469,rough,14.0,0,4.944
5190,166.08,3.6947,4.6153,-1.1441,-2.8935,-0.1138,-2.9465,rough,14.0,0,4.948
5200,166.40,3.6904,4.6153,-1.1441,-2.8951,-0.1147,-2.9463,rough,14.0,0,4.943
5210,166.72,3.6855,4.6152,-1.1442,-2.8977,-0.1148,-2.9459,rough,14.0,0,4.938
5220,167.04,3.6892,4.6154,-1.1441,-2.8928,-0.1185,-2.9467,rough,14.0,0,4.942
5230,167.36,3.6944,4.6154,-1.1441,-2.8934,-0.1143,-2.9456,rough,14.0,0,4.947
5240,167.68,3.6879,4.6153,-1.1441,-2.8961,-0.1154,-2.9453,rough,14.0,0,4.941
5250,168.00,3.6860,4.6153,-1.1442,-2.8974,-0.1152,-2.9449,rough,14.0,0,4.939
5260,168.32,3.6941,4.6155,-1.1441,-2.8933,-0.1150,-2.9449,rough,14.0,0,4.947
5270,168.64,3.6919,4.6155,-1.1441,-2.8947,-0.1147,-2.9444,rough,14.0,0,4.945
5280,168.96,3.6894,4.6155,-1.1441,-2.8957,-0.1151,-2.9442,rough,14.0,0,4.942
5290,169.28,3.6887,4.6155,-1.1441,-2.8960,-0.1153,-2.9439,rough,14.0,0,4.942
5300,169.60,3.6896,4.6155,-1.1441,-2.8957,-0.1151,-2.9436,rough,14.0,0,4.942
5310,169.92,3.6918,4.6156,-1.1441,-2.8949,-0.1147,-2.9433,rough,14.0,0,4.945
5320,170.24,3.6929,4.6156,-1.1441,-2.8946,-0.1145,-2.9431,rough,14.0,0,4.946
5330,170.56,3.6907,4.6156,-1.1441,-2.8954,-0.1150,-2.9428,rough,14.0,0,4.943
5340,170.88,3.6900,4.6156,-1.1441,-2.8957,-0.1152,-2.9426,rough,14.0,0,4.943
5350,171.20,3.6893,4.6168,-1.1445,-2.8961,-0.1139,-2.9497,rough,14.0,0,4.942
5360,171.52,3.6868,4.6168,-1.1445,-2.8970,-0.1144,-2.9497,rough,14.0,0,4.939
5370,171.84,3.6870,4.6169,-1.1445,-2.8944,-0.1176,-2.9503,rough,14.0,0,4.940
5380,172.16,3.6941,4.6170,-1.1444,-2.8941,-0.1132,-2.9492,rough,14.0,0,4.947
5390,172.48,3.6937,4.6170,-1.1444,-2.8945,-0.1131,-2.9489,rough,14.0,0,4.946
5400,172.80,3.6871,4.6169,-1.1445,-2.8970,-0.1144,-2.9487,rough,14.0,0,4.940
5410,173.12,3.6851,4.6169,-1.1445,-2.8981,-0.1144,-2.9483,rough,14.0,0,4.938
5420,173.44,3.6944,4.6171,-1.1444,-2.8937,-0.1139,-2.9483,rough,14.0,0,4.947
5430,173.76,3.6945,4.6171,-1.1444,-2.8943,-0.1131,-2.9478,rough,14.0,0,4.947
5440,174.08,3.6872,4.6170,-1.1445,-2.8970,-0.1146,-2.9476,rough,14.0,0,4.940
5450,174.40,3.6840,4.6170,-1.1445,-2.8989,-0.1145,-2.9472,rough,14.0,0,4.937
5460,174.72,3.6920,4.6171,-1.1445,-2.8949,-0.1141,-2.9472,rough,14.0,0,4.945
5470,175.04,3.6981,4.6172,-1.1444,-2.8931,-0.1124,-2.9467,rough,14.0,0,4.951
5480,175.36,3.6903,4.6171,-1.1445,-2.8961,-0.1140,-2.9465,rough,14.0,0,4.943
5490,175.68,3.6828,4.6171,-1.1445,-2.8981,-0.1166,-2.9466,rough,14.0,0,4.935
5500,176.00,3.6869,4.6173,-1.1445,-2.8915,-0.1220,-2.9479,rough,14.0,0,4.939
5510,176.32,3.6983,4.6173,-1.1444,-2.8928,-0.1129,-2.9457,rough,14.0,0,4.951
5520,176.64,3.6915,4.6173,-1.1445,-2.8957,-0.1139,-2.9455,rough,14.0,0,4.944
5530,176.96,3.6823,4.6173,-1.1446,-2.8943,-0.1217,-2.9468,rough,14.0,0,4.935
5540,177.28,3.6859,4.6172,-1.1445,-2.8982,-0.1147,-2.9449,rough,14.0,0,4.939
5550,177.60,3.6982,4.6174,-1.1444,-2.8928,-0.1133,-2.9447,rough,14.0,0,4.951
5560,177.92,3.6944,4.6174,-1.1445,-2.8947,-0.1135,-2.9444,rough,14.0,0,4.947
5570,178.24,3.6845,4.6173,-1.1446,-2.8994,-0.1143,-2.9439,rough,14.0,0,4.937
5580,178.56,3.6832,4.6173,-1.1446,-2.8981,-0.1169,-2.9443,rough,14.0,0,4.936
5590,178.88,3.6951,4.6175,-1.1445,-2.8935,-0.1147,-2.9439,rough,14.0,0,4.948
5600,179.20,3.7005,4.6197,-1.1450,-2.8898,-0.1138,-2.9569,rough,14.0,0,4.952
5610,179.52,3.7054,4.6197,-1.1449,-2.8914,-0.1087,-2.9556,rough,14.0,0,4.957
5620,179.84,3.6999,4.6197,-1.1450,-2.8920,-0.1114,-2.9558,rough,14.0,0,4.952
5630,180.16,3.6824,4.6195,-1.1451,-2.8994,-0.1137,-2.9554,rough,14.0,0,4.935
5640,180.48,3.6705,4.6193,-1.1452,-2.9072,-0.1120,-2.9544,rough,14.0,0,4.923
5650,180.80,3.6694,4.6194,-1.1453,-2.9052,-0.1154,-2.9549,rough,14.0,0,4.922
5660,181.12,3.6796,4.6195,-1.1452,-2.9016,-0.1130,-2.9544,rough,14.0,0,4.932
5670,181.44,3.7002,4.6199,-1.1450,-2.8926,-0.1106,-2.9542,rough,14.0,0,4.952
5680,181.76,3.7084,4.6200,-1.1449,-2.8911,-0.1075,-2.9535,rough,14.0,0,4.960
5690,182.08,3.7004,4.6199,-1.1450,-2.8922,-0.1114,-2.9539,rough,14.0,0,4.952
5700,182.40,3.6848,4.6197,-1.1451,-2.8988,-0.1134,-2.9536,rough,14.0,0,4.937
5710,182.72,3.6726,4.6197,-1.1452,-2.8996,-0.1204,-2.9546,rough,14.0,0,4.925
5720,183.04,3.6740,4.6196,-1.1452,-2.9034,-0.1150,-2.9530,rough,14.0,0,4.926
5730,183.36,3.6862,4.6198,-1.1451,-2.8984,-0.1131,-2.9527,rough,14.0,0,4.938
5740,183.68,3.6992,4.6200,-1.1450,-2.8938,-0.1103,-2.9522,rough,14.0,0,4.951
5750,184.00,3.6953,4.6200,-1.1451,-2.8952,-0.1112,-2.9520,rough,14.0,0,4.947
5760,184.32,3.6830,4.6198,-1.1452,-2.9007,-0.1125,-2.9516,rough,14.0,0,4.935
5770,184.64,3.6793,4.6198,-1.1452,-2.9004,-0.1155,-2.9520,rough,14.0,0,4.932
5780,184.96,3.6883,4.6200,-1.1451,-2.8977,-0.1129,-2.9514,rough,14.0,0,4.940
5790,185.28,3.6987,4.6201,-1.1450,-2.8941,-0.1106,-2.9509,rough,14.0,0,4.951
5800,185.60,3.6957,4.6201,-1.1451,-2.8952,-0.1113,-2.9507,rough,14.0,0,4.948
5810,185.92,3.6833,4.6199,-1.1452,-2.9008,-0.1125,-2.9503,rough,14.0,0,4.935
5820,186.24,3.6789,4.6200,-1.1452,-2.9008,-0.1155,-2.9507,rough,14.0,0,4.931
5830,186.56,3.6876,4.6201,-1.1451,-2.8981,-0.1132,-2.9501,rough,14.0,0,4.940
5840,186.88,3.6977,4.6202,-1.1451,-2.8946,-0.1109,-2.9496,rough,14.0,0,4.950
5850,187.20,3.6976,4.6203,-1.1451,-2.8947,-0.1110,-2.9494,rough,14.0,0,4.949
5860,187.52,3.6875,4.6201,-1.1451,-2.8983,-0.1132,-2.9493,rough,14.0,0,4.940
5870,187.84,3.6808,4.6201,-1.1452,-2.9019,-0.1133,-2.9488,rough,14.0,0,4.933
5880,188.16,3.6867,4.6202,-1.1452,-2.8968,-0.1157,-2.9494,rough,14.0,0,4.939
5890,188.48,3.6997,4.6204,-1.1451,-2.8938,-0.1109,-2.9483,rough,14.0,0,4.952
5900,188.80,3.6989,4.6204,-1.1451,-2.8943,-0.1109,-2.9481,rough,14.0,0,4.951
5910,189.12,3.6855,4.6202,-1.1452,-2.8992,-0.1137,-2.9480,rough,14.0,0,4.938
5920,189.44,3.6774,4.6203,-1.1452,-2.8980,-0.1206,-2.9492,rough,14.0,0,4.930
5930,189.76,3.6848,4.6203,-1.1452,-2.8998,-0.1136,-2.9474,rough,14.0,0,4.937
5940,190.08,3.6955,4.6205,-1.1451,-2.8957,-0.1117,-2.9470,rough,14.0,0,4.947
5950,190.40,3.7004,4.6205,-1.1451,-2.8939,-0.1107,-2.9467,rough,14.0,0,4.952
5960,190.72,3.6945,4.6205,-1.1451,-2.8961,-0.1120,-2.9465,rough,14.0,0,4.946
5970,191.04,3.6854,4.6204,-1.1452,-2.8994,-0.1139,-2.9464,rough,14.0,0,4.937
5980,191.36,3.6818,4.6205,-1.1452,-2.8959,-0.1207,-2.9477,rough,14.0,0,4.934
5990,191.68,3.6931,4.6206,-1.1451,-2.8953,-0.1141,-2.9462,rough,14.0,0,4.945
6000,192.00,3.7030,4.6207,-1.1450,-2.8929,-0.1105,-2.9454,rough,14.0,0,4.955
6010,192.32,3.6945,4.6206,-1.1451,-2.8962,-0.1122,-2.9452,rough,14.0,0,4.946
6020,192.64,3.6822,4.6206,-1.1452,-2.8961,-0.1205,-2.9465,rough,14.0,0,4.934
6030,192.96,3.6828,4.6205,-1.1452,-2.9014,-0.1136,-2.9446,rough,14.0,0,4.935
6040,193.28,3.6940,4.6207,-1.1451,-2.8961,-0.1128,-2.9445,rough,14.0,0,4.946
6050,193.60,3.7057,4.6230,-1.1456,-2.8911,-0.1093,-2.9577,rough,14.0,0,4.957
6060,193.92,3.7112,4.6231,-1.1456,-2.8919,-0.1047,-2.9566,rough,14.0,0,4.962
6070,194.24,3.6919,4.6229,-1.1457,-2.8970,-0.1109,-2.9571,rough,14.0,0,4.943
6080,194.56,3.6702,4.6226,-1.1459,-2.9062,-0.1139,-2.9569,rough,14.0,0,4.922
6090,194.88,3.6583,4.6224,-1.1460,-2.9142,-0.1119,-2.9557,rough,14.0,0,4.910
6100,195.20,3.6549,4.6223,-1.1461,-2.9169,-0.1109,-2.9551,rough,14.0,0,4.907
6110,195.52,3.6593,4.6226,-1.1460,-2.9083,-0.1186,-2.9568,rough,14.0,0,4.911
6120,195.84,3.6747,4.6228,-1.1459,-2.9041,-0.1138,-2.9558,rough,14.0,0,4.926
6130,196.16,3.7002,4.6232,-1.1457,-2.8934,-0.1102,-2.9556,rough,14.0,0,4.952
6140,196.48,3.7101,4.6233,-1.1456,-2.8900,-0.1082,-2.9552,rough,14.0,0,4.961
6150,196.80,3.7077,4.6233,-1.1456,-2.8915,-0.1081,-2.9548,rough,14.0,0,4.959
6160,197.12,3.7057,4.6235,-1.1456,-2.8872,-0.1146,-2.9562,rough,14.0,0,4.957
6170,197.44,3.6975,4.6233,-1.1457,-2.8946,-0.1108,-2.9546,rough,14.0,0,4.949
6180,197.76,3.6800,4.6230,-1.1459,-2.9033,-0.1116,-2.9539,rough,14.0,0,4.932
6190,198.08,3.6709,4.6229,-1.1459,-2.9061,-0.1143,-2.9540,rough,14.0,0,4.923
6200,198.40,3.6730,4.6230,-1.1459,-2.9069,-0.1119,-2.9532,rough,14.0,0,4.925
6210,198.72,3.6874,4.6233,-1.1458,-2.8972,-0.1145,-2.9540,rough,14.0,0,4.939
6220,199.04,3.7068,4.6235,-1.1457,-2.8923,-0.1078,-2.9528,rough,14.0,0,4.958
6230,199.36,3.7117,4.6236,-1.1456,-2.8898,-0.1080,-2.9528,rough,14.0,0,4.963
6240,199.68,3.7048,4.6236,-1.1457,-2.8934,-0.1081,-2.9523,rough,14.0,0,4.956
6250,200.00,3.6887,4.6234,-1.1458,-2.8992,-0.1114,-2.9522,rough,14.0,0,4.940
6260,200.32,3.6750,4.6232,-1.1459,-2.9062,-0.1119,-2.9517,rough,14.0,0,4.927
6270,200.64,3.6738,4.6232,-1.1459,-2.9048,-0.1145,-2.9520,rough,14.0,0,4.926
6280,200.96,3.6840,4.6234,-1.1459,-2.9014,-0.1119,-2.9514,rough,14.0,0,4.936
6290,201.28,3.6974,4.6236,-1.1458,-2.8962,-0.1096,-2.9510,rough,14.0,0,4.949
6300,201.60,3.7030,4.6237,-1.1457,-2.8942,-0.1085,-2.9507,rough,14.0,0,4.954
6310,201.92,3.6930,4.6236,-1.1458,-2.8978,-0.1106,-2.9506,rough,14.0,0,4.944
6320,202.24,3.6804,4.6235,-1.1459,-2.8978,-0.1190,-2.9520,rough,14.0,0,4.932
6330,202.56,3.6802,4.6234,-1.1459,-2.9035,-0.1122,-2.9500,rough,14.0,0,4.932
6340,202.88,3.6900,4.6236,-1.1458,-2.8989,-0.1115,-2.9499,rough,14.0,0,4.941
6350,203.20,3.6990,4.6238,-1.1457,-2.8958,-0.1095,-2.9494,rough,14.0,0,4.950
6360,203.52,3.7031,4.6238,-1.1457,-2.8943,-0.1086,-2.9491,rough,14.0,0,4.954
6370,203.84,3.6991,4.6238,-1.1458,-2.8958,-0.1095,-2.9489,rough,14.0,0,4.950
6380,204.16,3.6897,4.6237,-1.1458,-2.8992,-0.1115,-2.9488,rough,14.0,0,4.941
6390,204.48,3.6811,4.6236,-1.1459,-2.9018,-0.1142,-2.9489,rough,14.0,0,4.933
6400,204.80,3.6835,4.6238,-1.1459,-2.8962,-0.1196,-2.9500,rough,14.0,0,4.935
6410,205.12,3.6969,4.6239,-1.1458,-2.8964,-0.1105,-2.9479,rough,14.0,0,4.948
6420,205.44,3.7044,4.6240,-1.1457,-2.8940,-0.1086,-2.9475,rough,14.0,0,4.956
6430,205.76,3.6979,4.6239,-1.1458,-2.8964,-0.1099,-2.9473,rough,14.0,0,4.949
6440,206.08,3.6869,4.6238,-1.1459,-2.9004,-0.1123,-2.9472,rough,14.0,0,4.938
6450,206.40,3.6801,4.6237,-1.1459,-2.9042,-0.1122,-2.9467,rough,14.0,0,4.932
6460,206.72,3.6858,4.6239,-1.1459,-2.8993,-0.1146,-2.9472,rough,14.0,0,4.937
6470,207.04,3.6983,4.6240,-1.1458,-2.8962,-0.1102,-2.9463,rough,14.0,0,4.950
6480,207.36,3.7048,4.6241,-1.1457,-2.8940,-0.1087,-2.9458,rough,14.0,0,4.956
6490,207.68,3.6972,4.6241,-1.1458,-2.8968,-0.1103,-2.9457,rough,14.0,0,4.948
6500,208.00,3.6852,4.6239,-1.1459,-2.9012,-0.1129,-2.9456,rough,14.0,0,4.937
6510,208.32,3.6784,4.6240,-1.1459,-2.8995,-0.1196,-2.9468,rough,14.0,0,4.930
6520,208.64,3.6868,4.6240,-1.1459,-2.9008,-0.1124,-2.9450,rough,14.0,0,4.938
6530,208.96,3.6984,4.6254,-1.1468,-2.8933,-0.1001,-3.0094,rough,14.0,0,4.949
6540,209.28,3.7020,4.6255,-1.1461,-2.8953,-0.1078,-2.9520,rough,14.0,0,4.953
6550,209.60,3.7003,4.6255,-1.1461,-2.8960,-0.1082,-2.9518,rough,14.0,0,4.951
6560,209.92,3.6936,4.6254,-1.1462,-2.8984,-0.1097,-2.9517,rough,14.0,0,4.945
6570,210.24,3.6837,4.6253,-1.1462,-2.9030,-0.1106,-2.9513,rough,14.0,0,4.935
6580,210.56,3.6820,4.6253,-1.1463,-2.9015,-0.1137,-2.9517,rough,14.0,0,4.933
6590,210.88,3.6890,4.6255,-1.1462,-2.8979,-0.1136,-2.9517,rough,14.0,0,4.940
6600,211.20,3.7005,4.6256,-1.1461,-2.8958,-0.1086,-2.9506,rough,14.0,0,4.951
6610,211.52,3.7038,4.6257,-1.1461,-2.8948,-0.1077,-2.9502,rough,14.0,0,4.955
6620,211.84,3.6948,4.6256,-1.1462,-2.8982,-0.1096,-2.9501,rough,14.0,0,4.946
6630,212.16,3.6826,4.6254,-1.1463,-2.9037,-0.1109,-2.9497,rough,14.0,0,4.934
6640,212.48,3.6788,4.6254,-1.1463,-2.9035,-0.1138,-2.9500,rough,14.0,0,4.930
6650,212.80,3.6880,4.6256,-1.1462,-2.9005,-0.1114,-2.9495,rough,14.0,0,4.939
6660,213.12,3.6982,4.6257,-1.1461,-2.8970,-0.1090,-2.9489,rough,14.0,0,4.949
6670,213.44,3.7037,4.6258,-1.1461,-2.8951,-0.1079,-2.9486,rough,14.0,0,4.955
6680,213.76,3.7043,4.6259,-1.1461,-2.8949,-0.1078,-2.9483,rough,14.0,0,4.955
6690,214.08,3.7001,4.6258,-1.1461,-2.8965,-0.1087,-2.9481,rough,14.0,0,4.951
6700,214.40,3.6908,4.6257,-1.1462,-2.8998,-0.1107,-2.9480,rough,14.0,0,4.942
6710,214.72,3.6822,4.6256,-1.1463,-2.9023,-0.1135,-2.9481,rough,14.0,0,4.933
6720,215.04,3.6846,4.6258,-1.1463,-2.8966,-0.1189,-2.9493,rough,14.0,0,4.936
6730,215.36,3.6981,4.6259,-1.1462,-2.8969,-0.1097,-2.9472,rough,14.0,0,4.949
6740,215.68,3.7068,4.6260,-1.1461,-2.8941,-0.1075,-2.9467,rough,14.0,0,4.958
6750,216.00,3.7013,4.6260,-1.1461,-2.8962,-0.1086,-2.9465,rough,14.0,0,4.952
6760,216.32,3.6895,4.6258,-1.1462,-2.9005,-0.1112,-2.9464,rough,14.0,0,4.941
6770,216.64,3.6800,4.6257,-1.1463,-2.9054,-0.1115,-2.9459,rough,14.0,0,4.931
6780,216.96,3.6832,4.6258,-1.1463,-2.9017,-0.1140,-2.9464,rough,14.0,0,4.934
6790,217.28,3.6938,4.6260,-1.1462,-2.8990,-0.1103,-2.9455,rough,14.0,0,4.945
6800,217.60,3.7001,4.6273,-1.1465,-2.8969,-0.1075,-2.9527,rough,14.0,0,4.951
6810,217.92,3.6980,4.6273,-1.1465,-2.8976,-0.1079,-2.9527,rough,14.0,0,4.949
6820,218.24,3.6908,4.6272,-1.1466,-2.9003,-0.1095,-2.9526,rough,14.0,0,4.942
6830,218.56,3.6809,4.6272,-1.1466,-2.8990,-0.1176,-2.9540,rough,14.0,0,4.932
6840,218.88,3.6831,4.6272,-1.1466,-2.9034,-0.1109,-2.9522,rough,14.0,0,4.934
6850,219.20,3.6882,4.6273,-1.1466,-2.9013,-0.1101,-2.9519,rough,14.0,0,4.939
6860,219.52,3.6928,4.6274,-1.1466,-2.8997,-0.1092,-2.9515,rough,14.0,0,4.944
6870,219.84,3.6929,4.6274,-1.1466,-2.8996,-0.1092,-2.9513,rough,14.0,0,4.944
6880,220.16,3.6888,4.6274,-1.1466,-2.9011,-0.1101,-2.9511,rough,14.0,0,4.940
6890,220.48,3.6855,4.6273,-1.1466,-2.9030,-0.1100,-2.9506,rough,14.0,0,4.936
6900,220.80,3.6885,4.6274,-1.1466,-2.9009,-0.1108,-2.9507,rough,14.0,0,4.939
6910,221.12,3.6930,4.6275,-1.1466,-2.8997,-0.1094,-2.9502,rough,14.0,0,4.944
6920,221.44,3.6938,4.6275,-1.1466,-2.8995,-0.1092,-2.9499,rough,14.0,0,4.944
6930,221.76,3.6897,4.6275,-1.1466,-2.9010,-0.1101,-2.9497,rough,14.0,0,4.940
6940,222.08,3.6856,4.6274,-1.1466,-2.9025,-0.1110,-2.9495,rough,14.0,0,4.936
6950,222.40,3.6869,4.6275,-1.1466,-2.9020,-0.1107,-2.9492,rough,14.0,0,4.938
6960,222.72,3.6912,4.6276,-1.1466,-2.9005,-0.1099,-2.9489,rough,14.0,0,4.942
6970,223.04,3.6938,4.6276,-1.1466,-2.8996,-0.1093,-2.9486,rough,14.0,0,4.944
6980,223.36,3.6913,4.6276,-1.1466,-2.9005,-0.1099,-2.9483,rough,14.0,0,4.942
6990,223.68,3.6877,4.6276,-1.1466,-2.9018,-0.1107,-2.9481,rough,14.0,0,4.939
7000,224.00,3.6851,4.6277,-1.1466,-2.8975,-0.1179,-2.9495,rough,14.0,0,4.936
7010,224.32,3.6911,4.6277,-1.1466,-2.9004,-0.1103,-2.9476,rough,14.0,0,4.942
7020,224.64,3.6957,4.6278,-1.1466,-2.8990,-0.1091,-2.9472,rough,14.0,0,4.946
7030,224.96,3.6953,4.6278,-1.1466,-2.8992,-0.1092,-2.9469,rough,14.0,0,4.946
7040,225.28,3.6902,4.6277,-1.1466,-2.9011,-0.1103,-2.9467,rough,14.0,0,4.941
7050,225.60,3.6853,4.6277,-1.1467,-2.9037,-0.1104,-2.9463,rough,14.0,0,4.936
7060,225.92,3.6884,4.6278,-1.1466,-2.8990,-0.1143,-2.9471,rough,14.0,0,4.939
7070,226.24,3.6989,4.6279,-1.1465,-2.8977,-0.1089,-2.9458,rough,14.0,0,4.949
7080,226.56,3.7029,4.6292,-1.1468,-2.8967,-0.1062,-2.9532,rough,14.0,0,4.953
7090,226.88,3.6999,4.6292,-1.1469,-2.8978,-0.1068,-2.9531,rough,14.0,0,4.950
7100,227.20,3.6919,4.6291,-1.1469,-2.9008,-0.1086,-2.9529,rough,14.0,0,4.942
7110,227.52,3.6811,4.6291,-1.1470,-2.8998,-0.1169,-2.9544,rough,14.0,0,4.932
7120,227.84,3.6825,4.6291,-1.1470,-2.9046,-0.1102,-2.9525,rough,14.0,0,4.933
7130,228.16,3.6901,4.6292,-1.1470,-2.8996,-0.1113,-2.9527,rough,14.0,0,4.941
7140,228.48,3.7004,4.6294,-1.1469,-2.8976,-0.1071,-2.9518,rough,14.0,0,4.951
7150,228.80,3.7056,4.6295,-1.1468,-2.8959,-0.1058,-2.9514,rough,14.0,0,4.956
7160,229.12,3.7059,4.6295,-1.1468,-2.8958,-0.1058,-2.9511,rough,14.0,0,4.956
7170,229.44,3.7013,4.6294,-1.1469,-2.8975,-0.1068,-2.9509,rough,14.0,0,4.952
7180,229.76,3.6917,4.6293,-1.1470,-2.9010,-0.1088,-2.9508,rough,14.0,0,4.942
7190,230.08,3.6795,4.6293,-1.1471,-2.9009,-0.1171,-2.9522,rough,14.0,0,4.930
7200,230.40,3.6797,4.6292,-1.1471,-2.9064,-0.1103,-2.9503,rough,14.0,0,4.930
7210,230.72,3.6899,4.6294,-1.1470,-2.9016,-0.1095,-2.9501,rough,14.0,0,4.940
7220,231.04,3.6991,4.6295,-1.1469,-2.8985,-0.1074,-2.9496,rough,14.0,0,4.949
7230,231.36,3.7032,4.6296,-1.1469,-2.8970,-0.1066,-2.9493,rough,14.0,0,4.953
7240,231.68,3.7024,4.6296,-1.1469,-2.8974,-0.1068,-2.9490,rough,14.0,0,4.953
7250,232.00,3.6965,4.6296,-1.1469,-2.8995,-0.1080,-2.9489,rough,14.0,0,4.947
7260,232.32,3.6865,4.6295,-1.1470,-2.9031,-0.1102,-2.9488,rough,14.0,0,4.937
7270,232.64,3.6803,4.6294,-1.1471,-2.9065,-0.1102,-2.9483,rough,14.0,0,4.931
7280,232.96,3.6863,4.6295,-1.1470,-2.9015,-0.1126,-2.9488,rough,14.0,0,4.937
7290,233.28,3.6987,4.6297,-1.1469,-2.8986,-0.1080,-2.9478,rough,14.0,0,4.949
7300,233.60,3.7065,4.6298,-1.1469,-2.8960,-0.1061,-2.9473,rough,14.0,0,4.957
7310,233.92,3.7093,4.6299,-1.1468,-2.8950,-0.1055,-2.9470,rough,14.0,0,4.959
7320,234.24,3.7073,4.6299,-1.1469,-2.8958,-0.1060,-2.9468,rough,14.0,0,4.957
7330,234.56,3.7003,4.6298,-1.1469,-2.8984,-0.1075,-2.9467,rough,14.0,0,4.951
7340,234.88,3.6886,4.6297,-1.1470,-2.9026,-0.1100,-2.9466,rough,14.0,0,4.939
7350,235.20,3.6801,4.6295,-1.1471,-2.9070,-0.1102,-2.9461,rough,14.0,0,4.931
7360,235.52,3.6839,4.6297,-1.1470,-2.9031,-0.1127,-2.9465,rough,14.0,0,4.934
7370,235.84,3.6948,4.6311,-1.1479,-2.8973,-0.0988,-3.0102,rough,14.0,0,4.945
7380,236.16,3.7020,4.6312,-1.1472,-2.8980,-0.1057,-2.9531,rough,14.0,0,4.952
7390,236.48,3.7037,4.6312,-1.1472,-2.8974,-0.1054,-2.9528,rough,14.0,0,4.954
7400,236.80,3.7005,4.6312,-1.1473,-2.8986,-0.1061,-2.9526,rough,14.0,0,4.950
7410,237.12,3.6922,4.6311,-1.1473,-2.9016,-0.1079,-2.9525,rough,14.0,0,4.942
7420,237.44,3.6812,4.6311,-1.1474,-2.9007,-0.1162,-2.9540,rough,14.0,0,4.932
7430,237.76,3.6823,4.6310,-1.1474,-2.9057,-0.1095,-2.9521,rough,14.0,0,4.933
7440,238.08,3.6930,4.6312,-1.1473,-2.9009,-0.1084,-2.9519,rough,14.0,0,4.943
7450,238.40,3.7018,4.6314,-1.1473,-2.8982,-0.1060,-2.9513,rough,14.0,0,4.952
7460,238.72,3.7056,4.6314,-1.1472,-2.8969,-0.1052,-2.9510,rough,14.0,0,4.955
7470,239.04,3.7044,4.6314,-1.1472,-2.8974,-0.1055,-2.9507,rough,14.0,0,4.954
7480,239.36,3.6983,4.6314,-1.1473,-2.8996,-0.1068,-2.9506,rough,14.0,0,4.948
7490,239.68,3.6873,4.6313,-1.1474,-2.9036,-0.1092,-2.9505,rough,14.0,0,4.937
7500,240.00,3.6794,4.6311,-1.1475,-2.9076,-0.1094,-2.9501,rough,14.0,0,4.930
7510,240.32,3.6835,4.6313,-1.1474,-2.9035,-0.1119,-2.9505,rough,14.0,0,4.934
7520,240.64,3.6944,4.6314,-1.1473,-2.9010,-0.1078,-2.9496,rough,14.0,0,4.944
7530,240.96,3.7011,4.6315,-1.1473,-2.8987,-0.1064,-2.9492,rough,14.0,0,4.951
7540,241.28,3.7027,4.6316,-1.1473,-2.8982,-0.1061,-2.9489,rough,14.0,0,4.953
7550,241.60,3.6993,4.6316,-1.1473,-2.8994,-0.1068,-2.9487,rough,14.0,0,4.949
7560,241.92,3.6908,4.6315,-1.1474,-2.9025,-0.1086,-2.9486,rough,14.0,0,4.941
7570,242.24,3.6810,4.6315,-1.1474,-2.9014,-0.1166,-2.9499,rough,14.0,0,4.931
7580,242.56,3.6832,4.6314,-1.1474,-2.9059,-0.1097,-2.9480,rough,14.0,0,4.933
7590,242.88,3.6952,4.6316,-1.1473,-2.9005,-0.1084,-2.9478,rough,14.0,0,4.945
7600,243.20,3.7052,4.6318,-1.1473,-2.8974,-0.1058,-2.9472,rough,14.0,0,4.955
7610,243.52,3.7080,4.6331,-1.1476,-2.8961,-0.1042,-2.9548,rough,14.0,0,4.958
7620,243.84,3.7008,4.6330,-1.1476,-2.8991,-0.1052,-2.9547,rough,14.0,0,4.951
7630,244.16,3.6885,4.6329,-1.1477,-2.9036,-0.1077,-2.9547,rough,14.0,0,4.938
7640,244.48,3.6768,4.6327,-1.1478,-2.9077,-0.1106,-2.9547,rough,14.0,0,4.927
7650,244.80,3.6747,4.6327,-1.1479,-2.9105,-0.1085,-2.9539,rough,14.0,0,4.925
7660,245.12,3.6828,4.6330,-1.1478,-2.9006,-0.1154,-2.9555,rough,14.0,0,4.933
7670,245.44,3.7002,4.6331,-1.1476,-2.8992,-0.1057,-2.9534,rough,14.0,0,4.950
7680,245.76,3.7123,4.6333,-1.1476,-2.8951,-0.1029,-2.9529,rough,14.0,0,4.962
7690,246.08,3.7086,4.6333,-1.1476,-2.8965,-0.1037,-2.9527,rough,14.0,0,4.958
7700,246.40,3.6969,4.6331,-1.1477,-2.9008,-0.1062,-2.9526,rough,14.0,0,4.947
7710,246.72,3.6811,4.6329,-1.1478,-2.9078,-0.1080,-2.9523,rough,14.0,0,4.931
7720,247.04,3.6729,4.6329,-1.1479,-2.9099,-0.1110,-2.9525,rough,14.0,0,4.923
7730,247.36,3.6755,4.6329,-1.1479,-2.9104,-0.1086,-2.9518,rough,14.0,0,4.926
7740,247.68,3.6880,4.6331,-1.1478,-2.9036,-0.1088,-2.9519,rough,14.0,0,4.938
7750,248.00,3.6986,4.6333,-1.1477,-2.9003,-0.1060,-2.9513,rough,14.0,0,4.948
7760,248.32,3.7042,4.6334,-1.1476,-2.8983,-0.1048,-2.9509,rough,14.0,0,4.954
7770,248.64,3.7049,4.6334,-1.1476,-2.8981,-0.1047,-2.9506,rough,14.0,0,4.954
7780,248.96,3.7005,4.6334,-1.1477,-2.8997,-0.1057,-2.9504,rough,14.0,0,4.950
7790,249.28,3.6910,4.6333,-1.1477,-2.9032,-0.1077,-2.9503,rough,14.0,0,4.941
7800,249.60,3.6806,4.6332,-1.1478,-2.9064,-0.1107,-2.9505,rough,14.0,0,4.931
7810,249.92,3.6808,4.6333,-1.1478,-2.9019,-0.1162,-2.9515,rough,14.0,0,4.931
7820,250.24,3.6916,4.6334,-1.1477,-2.9029,-0.1078,-2.9495,rough,14.0,0,4.941
7830,250.56,3.6995,4.6335,-1.1477,-2.9002,-0.1060,-2.9491,rough,14.0,0,4.949
7840,250.88,3.7024,4.6335,-1.1477,-2.8992,-0.1054,-2.9488,rough,14.0,0,4.952
