step,time_s,x,y,z,roll,pitch,yaw,terrain,speed,target_idx,dist_to_target
10,0.32,-1.3631,0.8830,0.1733,-0.0001,0.0007,0.0082,flat,18.0,0,6.086
20,0.64,-1.3297,0.8826,0.1797,0.0012,0.0007,0.5312,flat,18.0,0,6.114
30,0.96,-1.2686,0.9459,0.1785,0.0068,-0.0006,1.5356,flat,18.0,0,6.132
40,1.28,-1.2456,1.1226,0.1804,0.0006,-0.0029,2.3213,flat,18.0,0,6.060
50,1.60,-1.4624,1.3382,0.1827,0.0049,-0.0249,2.6780,flat,18.0,0,5.764
60,1.92,-1.9252,1.5518,0.2007,0.0251,-0.0570,2.7564,flat,18.0,0,5.257
70,2.24,-2.4296,1.7788,0.2166,0.0309,0.0292,2.6725,flat,18.0,0,4.707
80,2.56,-2.8790,2.0282,0.1946,0.0390,0.0927,2.6235,slope,18.0,0,4.193
90,2.88,-3.3223,2.2829,0.1805,-0.0021,0.0072,2.5800,flat,18.0,0,3.682
100,3.20,-3.7892,2.5749,0.1952,-0.0204,-0.0773,2.5609,flat,18.0,0,3.131
110,3.52,-4.2613,2.8922,0.2231,-0.0246,-0.0351,2.5341,slope,18.0,0,2.563
120,3.84,-4.7417,3.2218,0.2139,-0.0307,0.0511,2.5386,flat,18.0,0,1.983
130,4.16,-5.1783,3.5270,0.1862,-0.0058,0.0328,2.5417,slope,18.0,0,1.453
140,4.48,-5.5648,3.7880,0.1780,-0.0168,-0.0123,2.5667,flat,18.0,1,0.992
150,4.80,-5.9029,4.0014,0.1927,-0.0367,-0.0439,2.5356,flat,18.0,1,6.789
160,5.12,-6.0902,4.1524,0.2022,-0.0327,-0.0555,2.1638,rough,14.0,1,6.953
170,5.44,-6.1985,4.4102,0.2159,-0.0121,-0.0461,1.7691,flat,18.0,1,7.031
180,5.76,-6.2708,4.7725,0.2262,-0.0074,-0.0059,1.3856,flat,18.0,1,7.077
190,6.08,-6.1747,5.1423,0.2192,-0.0401,0.0372,1.0175,rough,14.0,1,6.975
200,6.40,-5.9853,5.4276,0.2071,-0.0729,0.0341,0.7157,rough,14.0,1,6.794
210,6.72,-5.7769,5.6105,0.2081,-0.0569,-0.0687,0.4755,rough,14.0,1,6.598
220,7.04,-5.4822,5.7107,0.2513,-0.0321,-0.2114,0.2341,slope,18.0,1,6.313
230,7.36,-5.0215,5.6937,0.3073,0.1981,-0.1573,-0.0124,slope,18.0,1,5.853
240,7.68,-4.4934,5.6017,0.3388,0.2856,-0.0329,-0.1810,slope,18.0,1,5.319
250,8.00,-4.0174,5.4996,0.3485,0.3000,-0.0123,-0.2124,rough,14.0,1,4.835
260,8.32,-3.5866,5.4082,0.3499,0.2579,-0.0293,-0.2302,rough,14.0,1,4.398
270,8.64,-3.1592,5.3123,0.3450,0.1849,-0.0212,-0.2609,rough,14.0,1,3.966
280,8.96,-2.7353,5.1941,0.3415,0.1504,0.0148,-0.2970,rough,14.0,1,3.537
290,9.28,-2.2876,5.0541,0.3129,0.1095,0.0755,-0.3298,slope,18.0,1,3.088
300,9.60,-1.7522,4.8766,0.2441,0.0994,0.1251,-0.2876,slope,18.0,1,2.560
310,9.92,-1.2405,4.7411,0.1955,0.0324,0.0746,-0.2667,slope,18.0,1,2.069
320,10.24,-0.7721,4.6219,0.1811,0.0089,-0.0014,-0.1545,transition,15.0,1,1.638
330,10.56,-0.2975,4.5615,0.1799,-0.0002,0.0001,-0.0299,transition,15.0,1,1.215
340,10.88,0.1463,4.5571,0.1799,0.0001,0.0002,0.0275,transition,15.0,2,9.752
350,11.20,0.5266,4.5506,0.1799,0.0009,0.0000,-0.3012,transition,15.0,2,9.427
360,11.52,0.9013,4.4164,0.1803,0.0002,-0.0035,-0.3766,transition,15.0,2,9.040
370,11.84,1.3365,4.2408,0.1805,0.0013,0.0033,-0.4073,flat,18.0,2,8.580
380,12.16,1.7914,4.0393,0.1798,0.0000,-0.0001,-0.4444,flat,18.0,2,8.091
390,12.48,2.2356,3.8084,0.1798,-0.0001,-0.0000,-0.5992,flat,18.0,2,7.595
400,12.80,2.6461,3.4924,0.1792,-0.0035,-0.0000,-0.7152,flat,18.0,2,7.077
410,13.12,3.0518,3.1428,0.1798,-0.0003,-0.0000,-0.7037,flat,18.0,2,6.545
420,13.44,3.4658,2.7966,0.1798,0.0000,-0.0000,-0.6868,flat,18.0,2,6.008
430,13.76,3.8888,2.4560,0.1799,0.0001,-0.0000,-0.6664,flat,18.0,2,5.467
440,14.08,4.3205,2.1232,0.1799,0.0001,-0.0000,-0.6440,flat,18.0,2,4.923
450,14.40,4.7598,1.8000,0.1799,0.0001,0.0000,-0.6209,flat,18.0,2,4.379
460,14.72,5.2063,1.4857,0.1799,0.0000,-0.0000,-0.6205,flat,18.0,2,3.833
470,15.04,5.6573,1.1521,0.1799,-0.0001,-0.0000,-0.6554,flat,18.0,2,3.274
480,15.36,6.1079,0.8011,0.1799,-0.0000,-0.0000,-0.6659,flat,18.0,2,2.707
490,15.68,6.5014,0.4939,0.1799,0.0000,0.0000,-0.6520,slope,18.0,2,2.214
500,16.00,6.9078,0.1902,0.1799,0.0001,0.0001,-0.6311,rough,14.0,2,1.714
510,16.32,7.2367,-0.0636,0.2244,0.0554,-0.1997,-0.6303,slope,18.0,2,1.310
520,16.64,7.5414,-0.3197,0.3157,0.2042,-0.3602,-0.6736,slope,18.0,3,5.593
530,16.96,7.9285,-0.6154,0.4966,0.1200,-0.3410,-0.7042,slope,18.0,3,5.653
540,17.28,8.2363,-0.8739,0.6417,0.1209,-0.3707,-0.7809,slope,18.0,3,5.714
550,17.60,8.4948,-1.1120,0.7569,0.0782,-0.2985,-0.8794,slope,18.0,3,5.774
560,17.92,8.6637,-1.3691,0.8469,0.1260,-0.2701,-1.0215,slope,18.0,3,5.770
570,18.24,8.7880,-1.6188,0.9140,0.1640,-0.2199,-1.1567,slope,18.0,3,5.746
580,18.56,8.8563,-1.8887,0.9572,0.1887,-0.1117,-1.3076,slope,18.0,3,5.677
590,18.88,8.8803,-2.1407,0.9822,0.2260,-0.0851,-1.4822,slope,18.0,3,5.588
600,19.20,8.8463,-2.3931,0.9803,0.2435,0.0266,-1.6778,rough,14.0,3,5.455
610,19.52,8.7790,-2.6070,0.9665,0.2560,0.0707,-1.8162,slope,18.0,3,5.314
620,19.84,8.6824,-2.8726,0.9396,0.2463,0.0926,-1.9227,slope,18.0,3,5.134
630,20.16,8.5530,-3.1626,0.9076,0.2482,0.1036,-1.9918,slope,18.0,3,4.926
640,20.48,8.4058,-3.4512,0.8823,0.2450,0.0439,-2.0563,slope,18.0,3,4.713
650,20.80,8.2394,-3.7315,0.8643,0.2289,0.0446,-2.1218,rough,14.0,3,4.495
660,21.12,8.0512,-4.0140,0.8459,0.2302,0.0604,-2.1574,slope,18.0,3,4.269
670,21.44,7.7718,-4.4116,0.7935,0.2431,0.1380,-2.1788,slope,18.0,3,3.965
680,21.76,7.4505,-4.8585,0.6838,0.2547,0.2208,-2.1661,slope,18.0,3,3.662
690,22.08,7.1389,-5.2286,0.5647,0.2008,0.2388,-2.3509,slope,18.0,3,3.413
700,22.40,6.7892,-5.5232,0.4573,0.1244,0.2444,-2.6153,slope,18.0,3,3.157
710,22.72,6.3333,-5.7269,0.3410,0.0498,0.2478,-2.7698,slope,18.0,3,2.814
720,23.04,5.8823,-5.8740,0.2539,0.0089,0.1859,-3.0337,slope,18.0,3,2.497
730,23.36,5.4212,-5.9057,0.2073,-0.0215,0.0497,2.9789,slope,18.0,3,2.150
740,23.68,4.9424,-5.8062,0.1962,-0.0318,0.0118,2.7991,flat,18.0,3,1.742
750,24.00,4.5812,-5.6568,0.1897,-0.0348,0.0191,2.4996,flat,18.0,3,1.404
760,24.32,4.2926,-5.4261,0.1839,-0.0241,-0.0011,2.3899,flat,18.0,3,1.059
770,24.64,3.9709,-5.0863,0.1798,0.0005,-0.0001,2.2870,flat,18.0,0,13.968
780,24.96,3.5970,-4.6691,0.1799,0.0001,0.0000,2.3211,flat,18.0,0,13.412
790,25.28,3.2082,-4.2657,0.1799,0.0002,0.0000,2.3574,flat,18.0,0,12.853
800,25.60,2.8041,-3.8743,0.1799,0.0001,-0.0000,2.3883,flat,18.0,0,12.291
810,25.92,2.3867,-3.4918,0.1799,0.0001,-0.0000,2.4112,flat,18.0,0,11.726
820,26.24,1.9593,-3.1143,0.1799,0.0001,-0.0000,2.4243,flat,18.0,0,11.155
830,26.56,1.5259,-2.7384,0.1799,0.0000,-0.0000,2.4294,flat,18.0,0,10.582
840,26.88,1.0903,-2.3624,0.1799,-0.0000,0.0000,2.4286,flat,18.0,0,10.006
850,27.20,0.6567,-1.9862,0.1799,-0.0000,0.0000,2.4245,flat,18.0,0,9.432
860,27.52,0.2255,-1.6082,0.1799,-0.0000,0.0000,2.4188,flat,18.0,0,8.859
870,27.84,-0.2036,-1.2278,0.1799,-0.0000,-0.0000,2.4131,flat,18.0,0,8.285
880,28.16,-0.6309,-0.8466,0.1817,-0.0062,-0.0056,2.4084,flat,18.0,0,7.713
890,28.48,-1.0614,-0.4688,0.1891,-0.0451,-0.0049,2.4005,flat,18.0,0,7.140
900,28.80,-1.4683,-0.0847,0.1806,-0.0060,0.0196,2.3925,flat,18.0,0,6.581
910,29.12,-1.8859,0.3050,0.1791,-0.0002,-0.0040,2.3937,flat,18.0,0,6.010
920,29.44,-2.3038,0.6913,0.1843,0.0051,-0.0262,2.3958,flat,18.0,0,5.442
930,29.76,-2.6919,1.0314,0.2011,-0.0584,-0.0654,2.3972,rough,14.0,0,4.926
940,30.08,-3.0288,1.3533,0.2001,-0.0300,0.0513,2.3784,rough,14.0,0,4.461
950,30.40,-3.3610,1.6707,0.1885,-0.0323,0.0067,2.3791,flat,18.0,0,4.003
960,30.72,-3.7650,2.0647,0.1797,-0.0010,0.0006,2.3756,flat,18.0,0,3.442
970,31.04,-4.1732,2.4461,0.1960,-0.0364,-0.0622,2.3829,rough,14.0,0,2.885
980,31.36,-4.5814,2.8271,0.2137,-0.0388,-0.0044,2.3858,rough,14.0,0,2.331
990,31.68,-4.9196,3.1398,0.2051,-0.0451,0.0413,2.4076,rough,14.0,0,1.874
1000,32.00,-5.2494,3.4347,0.1839,-0.0225,0.0219,2.4212,slope,18.0,0,1.437
1010,32.32,-5.5966,3.7381,0.1785,-0.0045,-0.0164,2.4159,flat,18.0,1,0.985
1020,32.64,-5.8760,3.9899,0.1923,-0.0437,-0.0301,2.2996,flat,18.0,1,6.765
1030,32.96,-6.0593,4.2634,0.2087,-0.0263,-0.0683,1.9827,slope,18.0,1,6.908
1040,33.28,-6.1954,4.6976,0.2237,0.0266,-0.0350,1.5386,flat,18.0,1,7.006
1050,33.60,-6.1576,5.0605,0.2228,-0.0293,0.0310,1.0654,slope,18.0,1,6.958
1060,33.92,-5.9305,5.3767,0.2028,-0.0238,0.0425,0.7298,slope,18.0,1,6.737
1070,34.24,-5.6781,5.5876,0.2151,-0.0763,-0.0901,0.3747,rough,14.0,1,6.498
1080,34.56,-5.3782,5.6347,0.2508,0.0372,-0.1747,0.0285,rough,14.0,1,6.203
1090,34.88,-4.9563,5.5645,0.2822,0.2116,-0.1087,-0.1063,slope,18.0,1,5.776
1100,35.20,-4.4009,5.4624,0.3099,0.3040,-0.0174,-0.1642,slope,18.0,1,5.215
1110,35.52,-3.9382,5.3633,0.3203,0.2706,-0.0244,-0.2446,rough,14.0,1,4.746
1120,35.84,-3.5257,5.2491,0.3166,0.1964,-0.0105,-0.3054,rough,14.0,1,4.329
1130,36.16,-3.1042,5.1124,0.3176,0.1463,0.0156,-0.3312,rough,14.0,1,3.904
1140,36.48,-2.6785,4.9691,0.3081,0.1125,0.0388,-0.3349,rough,14.0,1,3.480
1150,36.80,-2.2124,4.8084,0.2723,0.1088,0.1238,-0.3173,slope,18.0,1,3.025
1160,37.12,-1.6791,4.6524,0.2127,0.0808,0.1197,-0.2430,slope,18.0,1,2.516
1170,37.44,-1.1663,4.5465,0.1789,-0.0061,0.0041,-0.1874,flat,18.0,1,2.038
1180,37.76,-0.6392,4.4578,0.1797,0.0004,-0.0007,-0.0554,flat,18.0,1,1.569
1190,38.08,-0.1065,4.4478,0.1798,0.0001,0.0002,0.1396,transition,15.0,1,1.107
1200,38.40,0.3108,4.5194,0.1797,-0.0001,0.0001,0.0714,slope,18.0,2,9.593
1210,38.72,0.6806,4.5304,0.1804,-0.0020,-0.0068,-0.3181,transition,15.0,2,9.287
1220,39.04,1.0546,4.4007,0.1776,0.0051,-0.0219,-0.3746,transition,15.0,2,8.904
1230,39.36,1.4773,4.2270,0.1797,-0.0008,0.0008,-0.4134,flat,18.0,2,8.456
1240,39.68,1.9478,4.0191,0.1799,-0.0001,0.0001,-0.4474,flat,18.0,2,7.951
1250,40.00,2.4072,3.7752,0.1799,-0.0001,-0.0001,-0.5777,flat,18.0,2,7.435
1260,40.32,2.8421,3.4714,0.1798,-0.0001,-0.0001,-0.6299,flat,18.0,2,6.905
1270,40.64,3.2700,3.1606,0.1799,-0.0000,-0.0000,-0.6258,flat,18.0,2,6.376
1280,40.96,3.6989,2.8517,0.1799,0.0000,-0.0000,-0.6221,flat,18.0,2,5.848
1290,41.28,4.1249,2.5513,0.1799,0.0001,0.0000,-0.6014,flat,18.0,2,5.326
1300,41.60,4.5561,2.2586,0.1799,0.0000,-0.0000,-0.5957,flat,18.0,2,4.805
1310,41.92,4.9883,1.9647,0.1799,-0.0000,0.0000,-0.5989,flat,18.0,2,4.283
1320,42.24,5.4190,1.6698,0.1799,-0.0000,-0.0000,-0.6098,flat,18.0,2,3.761
1330,42.56,5.8400,1.3479,0.1782,-0.0090,-0.0000,-0.7076,flat,18.0,2,3.231
1340,42.88,6.2455,0.9811,0.1797,-0.0010,0.0001,-0.7563,transition,15.0,2,2.688
1350,43.20,6.5970,0.6578,0.1799,0.0000,-0.0002,-0.7197,rough,14.0,2,2.216
1360,43.52,6.9388,0.3673,0.1799,0.0001,0.0001,-0.6914,rough,14.0,2,1.772
1370,43.84,7.2413,0.1095,0.2132,0.0249,-0.2395,-0.7003,slope,18.0,2,1.380
1380,44.16,7.5402,-0.1924,0.3104,0.1921,-0.3160,-0.7314,slope,18.0,3,0.980
1390,44.48,7.8908,-0.5097,0.4705,0.1529,-0.3339,-0.7735,slope,18.0,3,5.698
1400,44.80,8.1919,-0.7989,0.6121,0.1435,-0.3412,-0.8390,slope,18.0,3,5.728
1410,45.12,8.4361,-1.0552,0.7309,0.1144,-0.3242,-0.9259,slope,18.0,3,5.760
1420,45.44,8.6098,-1.3207,0.8260,0.1234,-0.2723,-1.0518,slope,18.0,3,5.751
1430,45.76,8.7232,-1.5912,0.8957,0.1703,-0.2323,-1.1819,slope,18.0,3,5.704
1440,46.08,8.7873,-1.8783,0.9429,0.2101,-0.1122,-1.3443,slope,18.0,3,5.620
1450,46.40,8.8031,-2.1478,0.9636,0.2350,-0.0777,-1.5317,slope,18.0,3,5.515
1460,46.72,8.7604,-2.4060,0.9570,0.2399,0.0317,-1.7125,rough,14.0,3,5.371
1470,47.04,8.6879,-2.6454,0.9394,0.2373,0.0744,-1.8356,slope,18.0,3,5.215
1480,47.36,8.5945,-2.9449,0.9151,0.2415,0.0803,-1.8880,slope,18.0,3,5.028
1490,47.68,8.4817,-3.2493,0.8919,0.2510,0.0685,-1.9346,slope,18.0,3,4.834
1500,48.00,8.3515,-3.5461,0.8766,0.2349,0.0383,-2.0038,rough,14.0,3,4.640
1510,48.32,8.2039,-3.8151,0.8634,0.2412,0.0420,-2.0672,rough,14.0,3,4.447
1520,48.64,8.0342,-4.1024,0.8476,0.2598,0.0491,-2.0999,rough,14.0,3,4.244
1530,48.96,7.7989,-4.4880,0.7995,0.2485,0.1439,-2.1061,slope,18.0,3,3.991
1540,49.28,7.5142,-4.9479,0.6974,0.2753,0.1945,-2.0975,slope,18.0,3,3.735
1550,49.60,7.2319,-5.3656,0.5942,0.2381,0.2299,-2.2298,slope,18.0,3,3.535
1560,49.92,6.8917,-5.6582,0.4842,0.1693,0.2200,-2.5292,slope,18.0,3,3.300
1570,50.24,6.4574,-5.8997,0.3669,0.0766,0.2572,-2.7006,slope,18.0,3,3.004
1580,50.56,6.0049,-6.0592,0.2732,0.0907,0.2028,-2.9430,slope,18.0,3,2.703
1590,50.88,5.5484,-6.1297,0.2143,-0.0274,0.1030,2.9835,slope,18.0,3,2.395
1600,51.20,5.0749,-6.0276,0.1896,-0.0331,0.0295,2.7589,flat,18.0,3,1.996
1610,51.52,4.6283,-5.8350,0.1905,-0.0304,0.0160,2.6018,flat,18.0,3,1.580
1620,51.84,4.3059,-5.6066,0.1863,-0.0360,-0.0004,2.4016,flat,18.0,3,1.227
1630,52.16,4.0170,-5.3175,0.1800,-0.0027,-0.0014,2.2709,flat,18.0,0,14.157
1640,52.48,3.6869,-4.8978,0.1796,0.0012,0.0001,2.2272,flat,18.0,0,13.631
1650,52.80,3.3399,-4.4632,0.1799,0.0003,0.0000,2.2719,flat,18.0,0,13.083
1660,53.12,2.9737,-4.0476,0.1799,0.0002,0.0000,2.3222,flat,18.0,0,12.533
1670,53.44,2.5858,-3.6503,0.1799,0.0002,-0.0000,2.3697,flat,18.0,0,11.980
1680,53.76,2.1773,-3.2666,0.1799,0.0002,-0.0000,2.4057,flat,18.0,0,11.420
1690,54.08,1.7532,-2.8920,0.1799,0.0001,-0.0000,2.4292,flat,18.0,0,10.854
1700,54.40,1.3188,-2.5211,0.1799,0.0000,-0.0000,2.4396,flat,18.0,0,10.283
1710,54.72,0.8793,-2.1502,0.1799,0.0000,-0.0000,2.4405,flat,18.0,0,9.708
1720,55.04,0.4417,-1.7793,0.1799,-0.0000,0.0000,2.4354,flat,18.0,0,9.134
1730,55.36,0.0075,-1.4064,0.1799,-0.0000,0.0000,2.4274,flat,18.0,0,8.562
1740,55.68,-0.4232,-1.0300,0.1800,-0.0001,-0.0007,2.4188,flat,18.0,0,7.990
1750,56.00,-0.8452,-0.6607,0.1895,-0.0083,-0.0497,2.4106,flat,18.0,0,7.429
1760,56.32,-1.2813,-0.2729,0.1900,-0.0183,0.0181,2.4015,flat,18.0,0,6.846
1770,56.64,-1.7016,0.1158,0.1800,-0.0004,0.0010,2.3981,flat,18.0,0,6.273
1780,56.96,-2.1243,0.5047,0.1802,-0.0003,-0.0066,2.3977,flat,18.0,0,5.700
1790,57.28,-2.5504,0.8823,0.1972,-0.0519,-0.0316,2.3972,flat,18.0,0,5.130
1800,57.60,-2.9348,1.2339,0.2063,-0.0519,0.0322,2.4016,rough,14.0,0,4.610
1810,57.92,-3.2743,1.5291,0.1920,-0.0475,0.0038,2.4437,flat,18.0,0,4.160
1820,58.24,-3.6754,1.8655,0.1801,-0.0016,0.0060,2.4369,flat,18.0,0,3.637
1830,58.56,-4.0884,2.2252,0.1846,-0.0155,-0.0242,2.3857,flat,18.0,0,3.089
1840,58.88,-4.5014,2.6064,0.2047,-0.0517,-0.0192,2.3754,slope,18.0,0,2.528
1850,59.20,-4.8637,2.9499,0.2035,-0.0610,0.0130,2.3886,rough,14.0,0,2.031
1860,59.52,-5.1790,3.2543,0.1910,-0.0085,0.0641,2.3888,rough,14.0,0,1.596
1870,59.84,-5.5088,3.5635,0.1791,-0.0100,0.0061,2.3904,flat,18.0,0,1.149
1880,60.16,-5.8235,3.8651,0.1872,-0.0321,-0.0085,2.3381,flat,18.0,1,6.734
1890,60.48,-5.9919,4.0931,0.1980,-0.0276,-0.0557,2.1123,rough,14.0,1,6.864
1900,60.80,-6.0360,4.3599,0.2128,0.0071,-0.0476,1.5641,slope,18.0,1,6.874
1910,61.12,-5.9907,4.7265,0.2271,0.0074,0.0033,1.0535,transition,15.0,1,6.800
1920,61.44,-5.7847,5.0070,0.2192,-0.0056,0.0548,0.6733,slope,18.0,1,6.585
1930,61.76,-5.4184,5.2457,0.2079,0.0336,0.0141,0.3108,rough,14.0,1,6.220
1940,62.08,-5.0704,5.3200,0.2359,0.1040,-0.1200,0.0997,slope,18.0,1,5.875
1950,62.40,-4.5593,5.2866,0.2582,0.2355,-0.0534,-0.0865,slope,18.0,1,5.363
1960,62.72,-4.0966,5.2054,0.2700,0.2174,-0.0386,-0.1914,rough,14.0,1,4.898
1970,63.04,-3.6675,5.1149,0.2825,0.2111,-0.0424,-0.2186,rough,14.0,1,4.467
1980,63.36,-3.2324,5.0212,0.2974,0.1595,-0.0239,-0.2318,rough,14.0,1,4.033
1990,63.68,-2.7954,4.9167,0.3016,0.1286,0.0103,-0.2429,rough,14.0,1,3.599
2000,64.00,-2.3567,4.8099,0.2840,0.0953,0.0597,-0.2462,rough,14.0,1,3.168
2010,64.32,-1.8626,4.6857,0.2333,0.0816,0.1078,-0.2229,slope,18.0,1,2.692
2020,64.64,-1.3318,4.5874,0.1896,0.0066,0.0676,-0.1771,slope,18.0,1,2.188
2030,64.96,-0.8164,4.5089,0.1793,0.0007,0.0022,-0.0696,flat,18.0,1,1.715
2040,65.28,-0.2712,4.4879,0.1798,0.0002,-0.0000,0.1003,transition,15.0,1,1.225
2050,65.60,0.1956,4.5416,0.1799,-0.0000,0.0001,0.1235,transition,15.0,2,9.702
2060,65.92,0.6163,4.5859,0.1805,0.0027,0.0016,-0.2177,slope,18.0,2,9.371
2070,66.24,1.0214,4.4674,0.1799,0.0024,0.0074,-0.3934,transition,15.0,2,8.968
2080,66.56,1.3872,4.3098,0.1805,0.0085,-0.0051,-0.4382,flat,18.0,2,8.577
2090,66.88,1.8458,4.0942,0.1798,0.0000,-0.0001,-0.4522,flat,18.0,2,8.078
2100,67.20,2.2996,3.8558,0.1798,-0.0001,-0.0000,-0.5835,flat,18.0,2,7.570
2110,67.52,2.7282,3.5441,0.1799,-0.0002,-0.0001,-0.6747,flat,18.0,2,7.040
2120,67.84,3.1497,3.2111,0.1799,0.0000,-0.0000,-0.6617,flat,18.0,2,6.503
2130,68.16,3.5757,2.8834,0.1799,0.0000,-0.0000,-0.6478,flat,18.0,2,5.966
2140,68.48,4.0055,2.5627,0.1799,0.0001,-0.0000,-0.6320,flat,18.0,2,5.430
2150,68.80,4.4394,2.2484,0.1799,0.0000,0.0000,-0.6200,flat,18.0,2,4.895
2160,69.12,4.8755,1.9399,0.1799,0.0000,0.0000,-0.6100,flat,18.0,2,4.360
2170,69.44,5.3126,1.6364,0.1799,0.0000,0.0000,-0.6093,flat,18.0,2,3.828
2180,69.76,5.7488,1.3166,0.1799,-0.0000,0.0001,-0.6778,flat,18.0,2,3.288
2190,70.08,6.1759,0.9594,0.1799,-0.0001,0.0000,-0.7164,transition,15.0,2,2.733
2200,70.40,6.5406,0.6385,0.1799,-0.0000,-0.0000,-0.7233,slope,18.0,2,2.253
2210,70.72,6.8958,0.3315,0.1799,0.0001,0.0001,-0.6912,rough,14.0,2,1.790
2220,71.04,7.1995,0.0740,0.2081,0.0353,-0.1679,-0.6813,slope,18.0,2,1.401
2230,71.36,7.4987,-0.2050,0.2904,0.1638,-0.3570,-0.6991,slope,18.0,2,1.014
2240,71.68,7.8526,-0.5162,0.4561,0.1475,-0.3558,-0.7397,slope,18.0,3,5.667
2250,72.00,8.1710,-0.7966,0.6031,0.1175,-0.3558,-0.7860,slope,18.0,3,5.713
2260,72.32,8.4314,-1.0427,0.7265,0.0882,-0.3276,-0.8733,slope,18.0,3,5.764
2270,72.64,8.6150,-1.3039,0.8243,0.1214,-0.2657,-1.0078,slope,18.0,3,5.764
2280,72.96,8.7372,-1.5677,0.8956,0.1601,-0.2393,-1.1418,slope,18.0,3,5.728
2290,73.28,8.8175,-1.8431,0.9452,0.2048,-0.1347,-1.2800,slope,18.0,3,5.663
2300,73.60,8.8521,-2.0962,0.9722,0.2225,-0.0939,-1.4518,slope,18.0,3,5.581
2310,73.92,8.8236,-2.3671,0.9735,0.2393,0.0182,-1.6540,rough,14.0,3,5.444
2320,74.24,8.7570,-2.5830,0.9589,0.2539,0.0698,-1.8220,slope,18.0,3,5.302
2330,74.56,8.6640,-2.8628,0.9308,0.2403,0.0717,-1.9128,slope,18.0,3,5.120
2340,74.88,8.5329,-3.1592,0.8999,0.2300,0.0930,-1.9866,slope,18.0,3,4.907
2350,75.20,8.3810,-3.4552,0.8770,0.2427,0.0419,-2.0504,slope,18.0,3,4.688
2360,75.52,8.2186,-3.7333,0.8595,0.2225,0.0471,-2.1163,rough,14.0,3,4.474
2370,75.84,8.0332,-4.0135,0.8408,0.2379,0.0667,-2.1465,slope,18.0,3,4.252
2380,76.16,7.7627,-4.3953,0.7826,0.2805,0.1217,-2.1696,slope,18.0,3,3.956
2390,76.48,7.4502,-4.8545,0.6824,0.2543,0.2161,-2.1592,slope,18.0,3,3.661
2400,76.80,7.1411,-5.2240,0.5679,0.2025,0.2522,-2.3447,slope,18.0,3,3.414
2410,77.12,6.7960,-5.5124,0.4595,0.1217,0.2564,-2.6117,slope,18.0,3,3.160
2420,77.44,6.3441,-5.7138,0.3433,0.0519,0.2430,-2.7690,slope,18.0,3,2.818
2430,77.76,5.8981,-5.8497,0.2516,-0.0105,0.1719,-3.0664,slope,18.0,3,2.496
2440,78.08,5.4354,-5.8603,0.2037,-0.0324,0.0246,2.9476,slope,18.0,3,2.131
2450,78.40,5.0019,-5.7594,0.1954,-0.0185,-0.0111,2.8424,flat,18.0,3,1.746
2460,78.72,4.6178,-5.6125,0.1925,-0.0263,0.0377,2.5613,flat,18.0,3,1.388
2470,79.04,4.2816,-5.3784,0.1857,-0.0180,0.0205,2.4382,flat,18.0,3,1.011
2480,79.36,3.9402,-5.0509,0.1791,0.0002,0.0013,2.3347,flat,18.0,0,13.922
2490,79.68,3.5437,-4.6425,0.1798,0.0001,0.0001,2.3501,flat,18.0,0,13.354
2500,80.00,3.1413,-4.2420,0.1798,0.0001,0.0000,2.3689,flat,18.0,0,12.787
2510,80.32,2.7311,-3.8489,0.1799,0.0001,0.0000,2.3870,flat,18.0,0,12.220
2520,80.64,2.3133,-3.4616,0.1799,0.0001,-0.0000,2.4017,flat,18.0,0,11.650
2530,80.96,1.8891,-3.0783,0.1799,0.0000,-0.0000,2.4115,flat,18.0,0,11.079
2540,81.28,1.4606,-2.6968,0.1799,0.0000,-0.0000,2.4166,flat,18.0,0,10.505
2550,81.60,1.0296,-2.3157,0.1799,0.0000,-0.0000,2.4180,flat,18.0,0,9.930
2560,81.92,0.5985,-1.9346,0.1799,-0.0000,0.0000,2.4169,flat,18.0,0,9.354
2570,82.24,0.1684,-1.5530,0.1799,-0.0000,0.0000,2.4145,flat,18.0,0,8.779
2580,82.56,-0.2604,-1.1705,0.1799,-0.0000,0.0000,2.4115,flat,18.0,0,8.205
2590,82.88,-0.6865,-0.7906,0.1848,-0.0089,-0.0199,2.4085,flat,18.0,0,7.634
2600,83.20,-1.1209,-0.4071,0.1919,-0.0272,0.0111,2.4024,flat,18.0,0,7.055
2610,83.52,-1.5422,-0.0147,0.1814,-0.0018,0.0156,2.4011,flat,18.0,0,6.479
2620,83.84,-1.9647,0.3714,0.1795,-0.0002,-0.0020,2.4025,flat,18.0,0,5.907
2630,84.16,-2.3841,0.7499,0.1899,-0.0065,-0.0506,2.4031,flat,18.0,0,5.343
2640,84.48,-2.8084,1.1248,0.2077,-0.0509,-0.0138,2.3997,rough,14.0,0,4.777
2650,84.80,-3.1395,1.4344,0.1962,-0.0469,0.0441,2.3752,rough,14.0,0,4.324
2660,85.12,-3.4507,1.7437,0.1850,-0.0147,0.0133,2.3661,flat,18.0,0,3.888
2670,85.44,-3.8370,2.1262,0.1832,-0.0127,-0.0059,2.3629,flat,18.0,0,3.347
2680,85.76,-4.2431,2.5088,0.2002,-0.0568,-0.0635,2.3768,flat,18.0,0,2.792
2690,86.08,-4.6365,2.8888,0.2150,-0.0398,0.0029,2.3743,rough,14.0,0,2.250
2700,86.40,-4.9610,3.1974,0.2021,-0.0450,0.0495,2.3866,rough,14.0,0,1.808
2710,86.72,-5.2808,3.5015,0.1838,-0.0059,0.0202,2.4085,slope,18.0,0,1.376
2720,87.04,-5.6370,3.8118,0.1838,-0.0077,-0.0176,2.4332,flat,18.0,1,6.561
2730,87.36,-5.9370,4.0571,0.1952,-0.0448,-0.0452,2.3749,rough,14.0,1,6.814
2740,87.68,-6.0886,4.2390,0.2074,-0.0234,-0.0620,2.0330,slope,18.0,1,6.940
2750,88.00,-6.1881,4.5782,0.2224,0.0093,-0.0324,1.5239,flat,18.0,1,7.006
2760,88.32,-6.1596,4.9473,0.2267,-0.0227,0.0369,0.9672,transition,15.0,1,6.961
2770,88.64,-5.8919,5.2476,0.2112,-0.0359,0.0361,0.5841,slope,18.0,1,6.694
2780,88.96,-5.5778,5.4368,0.2231,0.0047,-0.1213,0.2813,rough,14.0,1,6.387
2790,89.28,-5.2338,5.4849,0.2376,0.1588,-0.1377,-0.0212,rough,14.0,1,6.047
2800,89.60,-4.7914,5.4207,0.2699,0.2563,-0.0528,-0.1518,slope,18.0,1,5.601
2810,89.92,-4.3167,5.3131,0.2838,0.2368,0.0041,-0.2392,rough,14.0,1,5.122
