step,time_s,x,y,z,roll,pitch,yaw,terrain,speed,target_idx,dist_to_target
10,0.32,2.1824,0.5010,0.1858,0.0000,-0.0408,0.0000,rough,14.0,0,6.242
20,0.64,2.6157,0.5070,0.1792,0.0001,0.0041,0.0373,rough,14.0,0,5.822
30,0.96,3.0551,0.5263,0.1798,0.0001,0.0004,0.0800,rough,14.0,0,5.394
40,1.28,3.4940,0.5637,0.1798,0.0001,0.0000,0.1164,rough,14.0,0,4.962
50,1.60,3.9320,0.6171,0.1799,0.0001,0.0000,0.1493,rough,14.0,0,4.529
60,1.92,4.3682,0.6848,0.1799,0.0001,0.0000,0.1782,rough,14.0,0,4.094
70,2.24,4.8022,0.7650,0.1799,0.0001,-0.0000,0.2042,rough,14.0,0,3.659
80,2.56,5.2340,0.8564,0.1799,0.0001,-0.0000,0.2291,rough,14.0,0,3.223
90,2.88,5.6634,0.9586,0.1799,0.0001,-0.0000,0.2535,rough,14.0,0,2.786
100,3.20,6.0899,1.0713,0.1799,0.0001,0.0000,0.2783,rough,14.0,0,2.350
110,3.52,6.5129,1.1946,0.1799,0.0001,0.0000,0.3044,rough,14.0,0,1.915
120,3.84,6.9140,1.3219,0.1936,0.0013,-0.0940,0.3368,rough,14.0,0,1.500
130,4.16,7.2645,1.4462,0.2511,0.0548,-0.2738,0.3449,rough,14.0,0,1.134
140,4.48,7.5226,1.5474,0.3606,0.0097,-0.5459,0.3134,rough,14.0,0,0.862
150,4.80,7.7396,1.6262,0.4986,-0.1583,-0.5443,0.6010,rough,14.0,1,5.230
160,5.12,7.9022,1.7182,0.5810,-0.1855,-0.4269,0.8019,rough,14.0,1,5.261
170,5.44,8.0663,1.8735,0.6729,-0.2241,-0.3381,1.0140,rough,14.0,1,5.252
180,5.76,8.1935,2.0721,0.7508,-0.2787,-0.3039,1.1791,rough,14.0,1,5.196
190,6.08,8.3103,2.3090,0.8221,-0.2314,-0.2520,1.2929,rough,14.0,1,5.117
200,6.40,8.3862,2.5541,0.8877,-0.2284,-0.2713,1.3891,rough,14.0,1,5.014
210,6.72,8.4342,2.8004,0.9619,-0.2351,-0.3252,1.4763,rough,14.0,1,4.899
220,7.04,8.4594,3.0583,1.0437,-0.2185,-0.3244,1.5263,rough,14.0,1,4.770
230,7.36,8.4646,3.2833,1.1343,-0.2391,-0.4194,1.5724,rough,14.0,1,4.651
240,7.68,8.4641,3.5080,1.2330,-0.2273,-0.4372,1.5860,rough,14.0,1,4.535
250,8.00,8.4554,3.7229,1.3386,-0.2405,-0.4648,1.6116,rough,14.0,1,4.425
260,8.32,8.4406,3.9237,1.4407,-0.2444,-0.5008,1.6171,rough,14.0,1,4.324
270,8.64,8.4288,4.1154,1.5430,-0.2434,-0.4904,1.6194,rough,14.0,1,4.235
280,8.96,8.4106,4.3121,1.6431,-0.2754,-0.4748,1.6617,rough,14.0,1,4.147
290,9.28,8.3879,4.4876,1.7278,-0.2588,-0.4599,1.6237,rough,14.0,1,4.068
300,9.60,8.3674,4.6713,1.8225,-0.2793,-0.4562,1.6683,rough,14.0,1,3.995
310,9.92,8.3312,4.8649,1.9062,-0.3077,-0.4116,1.7055,rough,14.0,1,3.912
320,10.24,8.2723,5.0595,1.9855,-0.3344,-0.4013,1.7701,rough,14.0,1,3.814
330,10.56,8.1734,5.2808,2.0613,-0.3706,-0.3458,1.8790,rough,14.0,1,3.683
340,10.88,8.0256,5.5401,2.1441,-0.4134,-0.2968,2.0870,rough,14.0,1,3.511
350,11.20,7.8113,5.8015,2.2314,-0.4420,-0.2785,2.2888,rough,14.0,1,3.291
360,11.52,7.5459,6.0353,2.3089,-0.4641,-0.2252,2.4642,rough,14.0,1,3.039
370,11.84,7.2275,6.2296,2.3696,-0.4900,-0.1492,2.6100,rough,14.0,1,2.749
380,12.16,6.8494,6.4078,2.3990,-0.4730,-0.0329,2.7271,rough,14.0,1,2.420
390,12.48,6.4487,6.5340,2.3755,-0.4564,0.0819,2.8503,rough,14.0,1,2.082
400,12.80,6.0451,6.5928,2.3088,-0.4185,0.1912,3.0253,rough,14.0,1,1.743
410,13.12,5.6392,6.5844,2.2042,-0.4048,0.2596,-3.1025,rough,14.0,1,1.397
420,13.44,5.2372,6.5059,2.0764,-0.3775,0.3430,-2.9297,rough,14.0,1,1.043
430,13.76,4.8470,6.3700,1.9079,-0.4118,0.4356,-2.8436,rough,14.0,2,12.729
440,14.08,4.4614,6.2203,1.7032,-0.4939,0.4658,-2.8533,rough,14.0,2,12.316
450,14.40,4.0770,6.0755,1.4852,-0.5388,0.4913,-2.8642,rough,14.0,2,11.905
460,14.72,3.6967,5.9316,1.2536,-0.5632,0.5041,-2.8685,rough,14.0,2,11.498
470,15.04,3.3164,5.7659,0.9963,-0.5743,0.4899,-2.8760,rough,14.0,2,11.085
480,15.36,2.9339,5.5927,0.7430,-0.5362,0.4770,-2.8694,rough,14.0,2,10.667
490,15.68,2.5606,5.3851,0.5099,-0.5679,0.3153,-2.8667,rough,14.0,2,10.247
500,16.00,2.1613,5.2824,0.3914,-0.3981,0.2249,-2.8233,rough,14.0,2,9.836
510,16.32,1.7543,5.1467,0.2971,-0.3580,0.1799,-2.8059,rough,14.0,2,9.407
520,16.64,1.3442,5.0144,0.2454,-0.2314,0.1074,-2.7876,rough,14.0,2,8.976
530,16.96,0.9321,4.8722,0.2159,-0.1512,0.0539,-2.7807,rough,14.0,2,8.540
540,17.28,0.5151,4.7306,0.1971,-0.0740,0.0200,-2.7838,rough,14.0,2,8.100
550,17.60,0.0934,4.5917,0.1764,0.0219,-0.0001,-2.7889,rough,14.0,2,7.656
560,17.92,-0.3251,4.4340,0.1798,0.0002,0.0002,-2.7922,rough,14.0,2,7.209
570,18.24,-0.7454,4.2814,0.1799,0.0000,0.0000,-2.7959,rough,14.0,2,6.762
580,18.56,-1.1660,4.1299,0.1803,-0.0023,-0.0007,-2.7991,rough,14.0,2,6.315
590,18.88,-1.5863,3.9789,0.1819,-0.0099,-0.0023,-2.8011,rough,14.0,2,5.869
600,19.20,-2.0067,3.8283,0.1843,-0.0206,-0.0032,-2.8037,rough,14.0,2,5.422
610,19.52,-2.4284,3.6811,0.1792,-0.0005,-0.0018,-2.8056,rough,14.0,2,4.976
620,19.84,-2.8510,3.5343,0.1796,-0.0014,0.0005,-2.8088,rough,14.0,2,4.529
630,20.16,-3.2663,3.3906,0.1864,-0.0051,-0.0390,-2.8115,rough,14.0,2,4.089
640,20.48,-3.6828,3.2427,0.2053,-0.0351,-0.0593,-2.8139,rough,14.0,2,3.648
650,20.80,-4.1118,3.0977,0.2232,-0.0373,-0.0221,-2.8176,rough,14.0,2,3.195
660,21.12,-4.5489,2.9582,0.2203,0.0019,0.0419,-2.8220,rough,14.0,2,2.736
670,21.44,-4.9741,2.8178,0.2018,0.0002,0.0447,-2.8262,rough,14.0,2,2.289
680,21.76,-5.3925,2.6838,0.1806,0.0063,0.0031,-2.8291,rough,14.0,2,1.849
690,22.08,-5.8168,2.5483,0.1817,0.0075,-0.0034,-2.8345,rough,14.0,2,1.404
700,22.40,-6.2411,2.4179,0.1869,0.0194,-0.0152,-2.8411,rough,14.0,2,0.961
710,22.72,-6.6031,2.3037,0.1806,0.0051,0.0031,-2.7179,rough,14.0,3,10.475
720,23.04,-6.8636,2.1866,0.1863,0.0270,-0.0032,-2.5028,rough,14.0,3,10.423
730,23.36,-7.1148,1.9889,0.1797,-0.0006,0.0015,-2.3245,rough,14.0,3,10.299
740,23.68,-7.3652,1.7134,0.1839,0.0223,0.0010,-2.1667,rough,14.0,3,10.110
750,24.00,-7.5793,1.3818,0.1800,0.0010,0.0003,-2.0106,rough,14.0,3,9.865
760,24.32,-7.7372,1.0033,0.1799,0.0001,0.0000,-1.8881,rough,14.0,3,9.567
770,24.64,-7.8543,0.6399,0.1920,0.0170,-0.0618,-1.8290,rough,14.0,3,9.274
780,24.96,-7.9539,0.2572,0.2153,0.0295,-0.0522,-1.7380,rough,14.0,3,8.964
790,25.28,-8.0092,-0.1448,0.2252,-0.0063,-0.0305,-1.6648,rough,14.0,3,8.624
800,25.60,-8.0355,-0.5817,0.2127,0.0068,0.0589,-1.5463,rough,14.0,3,8.245
810,25.92,-8.0138,-1.0155,0.1858,-0.0165,0.0341,-1.4952,rough,14.0,3,7.852
820,26.24,-7.9730,-1.4441,0.1797,0.0032,-0.0032,-1.4478,rough,14.0,3,7.459
830,26.56,-7.9122,-1.8730,0.1795,-0.0027,-0.0001,-1.3768,rough,14.0,3,7.059
840,26.88,-7.8238,-2.2922,0.1808,0.0048,-0.0129,-1.3216,rough,14.0,3,6.657
850,27.20,-7.7103,-2.7022,0.1958,-0.0133,-0.0425,-1.2950,rough,14.0,3,6.251
860,27.52,-7.5784,-3.1116,0.2131,-0.0464,-0.0421,-1.2616,rough,14.0,3,5.839
870,27.84,-7.4308,-3.5332,0.2082,-0.0486,0.0274,-1.2173,rough,14.0,3,5.410
880,28.16,-7.2707,-3.9466,0.1864,-0.0086,0.0490,-1.1723,rough,14.0,3,4.983
890,28.48,-7.1063,-4.3356,0.1772,0.0070,-0.0285,-1.1327,rough,14.0,3,4.576
900,28.80,-6.9209,-4.7264,0.1900,0.0145,-0.0315,-1.0935,rough,14.0,3,4.156
910,29.12,-6.7238,-5.1164,0.2081,0.0508,-0.0266,-1.0594,rough,14.0,3,3.733
920,29.44,-6.5004,-5.5055,0.2114,0.0552,0.0319,-1.0220,rough,14.0,3,3.295
930,29.76,-6.2600,-5.8821,0.1951,0.0153,0.0451,-0.9960,rough,14.0,3,2.857
940,30.08,-6.0224,-6.2441,0.1815,0.0181,0.0143,-0.9708,rough,14.0,3,2.435
950,30.40,-5.7681,-6.5990,0.1775,-0.0120,-0.0003,-0.9409,rough,14.0,3,2.009
960,30.72,-5.5109,-6.9500,0.1818,0.0064,-0.0051,-0.9033,rough,14.0,3,1.589
970,31.04,-5.2510,-7.2854,0.1849,0.0233,-0.0049,-0.8541,rough,14.0,3,1.186
980,31.36,-4.9607,-7.6017,0.1889,0.0251,0.0154,-0.7853,rough,14.0,0,16.338
990,31.68,-4.7136,-7.7919,0.1858,0.0274,0.0059,-0.5817,rough,14.0,0,16.254
1000,32.00,-4.4246,-7.9610,0.1816,0.0101,0.0012,-0.3874,rough,14.0,0,16.129
1010,32.32,-4.0781,-8.0944,0.1798,-0.0004,0.0005,-0.1925,rough,14.0,0,15.943
1020,32.64,-3.6945,-8.1623,0.1816,-0.0004,-0.0116,-0.0128,rough,14.0,0,15.692
1030,32.96,-3.2929,-8.1544,0.1891,-0.0038,-0.0411,0.1188,rough,14.0,0,15.384
1040,33.28,-2.9068,-8.0819,0.2035,-0.0260,-0.0444,0.1785,rough,14.0,0,15.048
1050,33.60,-2.4899,-7.9753,0.2124,-0.0484,0.0047,0.2702,rough,14.0,0,14.669
1060,33.92,-2.0769,-7.8386,0.2022,-0.0277,0.0238,0.3492,rough,14.0,0,14.275
1070,34.24,-1.6778,-7.6823,0.1856,0.0040,0.0023,0.4148,rough,14.0,0,13.880
1080,34.56,-1.2901,-7.4993,0.1901,0.0136,-0.0258,0.4756,rough,14.0,0,13.476
1090,34.88,-0.9092,-7.3035,0.2066,0.0305,-0.0378,0.5164,rough,14.0,0,13.068
1100,35.20,-0.5283,-7.0884,0.2187,0.0508,-0.0188,0.5562,rough,14.0,0,12.649
1110,35.52,-0.1501,-6.8461,0.2116,0.0447,0.0411,0.5946,rough,14.0,0,12.213
1120,35.84,0.2113,-6.5902,0.1931,0.0164,0.0556,0.6182,rough,14.0,0,11.779
1130,36.16,0.5623,-6.3338,0.1809,-0.0027,0.0142,0.6387,rough,14.0,0,11.352
1140,36.48,0.9152,-6.0723,0.1831,0.0085,-0.0097,0.6586,rough,14.0,0,10.921
1150,36.80,1.2629,-5.8110,0.1952,0.0387,-0.0247,0.6791,rough,14.0,0,10.495
1160,37.12,1.6122,-5.5308,0.1945,0.0616,0.0151,0.7006,rough,14.0,0,10.054
1170,37.44,1.9485,-5.2389,0.1924,0.0286,0.0130,0.7169,rough,14.0,0,9.613
1180,37.76,2.2776,-4.9407,0.1831,0.0048,0.0214,0.7328,rough,14.0,0,9.172
1190,38.08,2.6033,-4.6440,0.1798,0.0003,0.0002,0.7467,rough,14.0,0,8.735
1200,38.40,2.9271,-4.3406,0.1799,0.0001,0.0000,0.7605,rough,14.0,0,8.294
1210,38.72,3.2470,-4.0326,0.1799,0.0000,0.0000,0.7733,rough,14.0,0,7.853
1220,39.04,3.5632,-3.7205,0.1799,0.0000,-0.0000,0.7853,rough,14.0,0,7.411
1230,39.36,3.8759,-3.4046,0.1799,0.0000,-0.0000,0.7967,rough,14.0,0,6.969
1240,39.68,4.1851,-3.0851,0.1799,0.0000,-0.0000,0.8076,rough,14.0,0,6.527
1250,40.00,4.4909,-2.7622,0.1799,0.0000,-0.0000,0.8181,rough,14.0,0,6.084
1260,40.32,4.7935,-2.4360,0.1799,0.0000,-0.0000,0.8283,rough,14.0,0,5.641
1270,40.64,5.0927,-2.1068,0.1799,0.0000,-0.0000,0.8381,rough,14.0,0,5.197
1280,40.96,5.3889,-1.7747,0.1799,0.0000,-0.0000,0.8477,rough,14.0,0,4.754
1290,41.28,5.6818,-1.4398,0.1799,0.0000,-0.0000,0.8571,rough,14.0,0,4.311
1300,41.60,5.9717,-1.1022,0.1799,0.0000,0.0000,0.8664,rough,14.0,0,3.867
1310,41.92,6.2583,-0.7620,0.1799,0.0000,0.0000,0.8759,rough,14.0,0,3.424
1320,42.24,6.5416,-0.4191,0.1799,0.0000,0.0000,0.8857,rough,14.0,0,2.980
1330,42.56,6.8176,-0.0711,0.1810,-0.0102,0.0050,0.8972,rough,14.0,0,2.537
1340,42.88,7.0932,0.2784,0.1796,-0.0063,0.0035,0.9063,rough,14.0,0,2.094
1350,43.20,7.3141,0.5990,0.2337,-0.1059,-0.2460,0.9336,rough,14.0,0,1.705
1360,43.52,7.5207,0.9657,0.2933,-0.3331,-0.3110,0.9661,rough,14.0,0,1.285
1370,43.84,7.7355,1.2985,0.4385,-0.3524,-0.4107,1.0167,rough,14.0,0,0.889
1380,44.16,7.9113,1.5877,0.5619,-0.3025,-0.3462,1.1362,rough,14.0,1,5.367
1390,44.48,8.0265,1.8340,0.6533,-0.3115,-0.2997,1.2728,rough,14.0,1,5.255
1400,44.80,8.1123,2.0987,0.7300,-0.2980,-0.2637,1.3660,rough,14.0,1,5.120
1410,45.12,8.1742,2.3826,0.8022,-0.2593,-0.2592,1.4637,rough,14.0,1,4.967
1420,45.44,8.1988,2.6667,0.8756,-0.2349,-0.3035,1.5536,rough,14.0,1,4.798
1430,45.76,8.1734,2.9990,0.9676,-0.2169,-0.3157,1.7201,rough,14.0,1,4.572
1440,46.08,8.0855,3.3269,1.0765,-0.2211,-0.3815,1.8697,rough,14.0,1,4.309
1450,46.40,7.9555,3.6401,1.1962,-0.3092,-0.3533,1.9547,rough,14.0,1,4.030
1460,46.72,7.7950,3.9470,1.3108,-0.3727,-0.3333,2.0521,rough,14.0,1,3.737
1470,47.04,7.5948,4.2542,1.4087,-0.4007,-0.2801,2.1442,rough,14.0,1,3.418
1480,47.36,7.3569,4.5589,1.4891,-0.4630,-0.2052,2.2227,rough,14.0,1,3.075
1490,47.68,7.0899,4.8465,1.5718,-0.4575,-0.2305,2.3549,rough,14.0,1,2.723
1500,48.00,6.7884,5.0987,1.6578,-0.4985,-0.2078,2.4488,rough,14.0,1,2.359
1510,48.32,6.4518,5.3102,1.7242,-0.5329,-0.1904,2.5749,rough,14.0,1,1.980
1520,48.64,6.0784,5.5012,1.7687,-0.5749,-0.0871,2.6284,rough,14.0,1,1.577
1530,48.96,5.6922,5.6787,1.7772,-0.5858,0.0313,2.6842,rough,14.0,1,1.174
1540,49.28,5.2945,5.8138,1.7252,-0.5823,0.1365,2.8134,rough,14.0,2,12.985
1550,49.60,4.8986,5.8850,1.6299,-0.6072,0.2348,2.9245,rough,14.0,2,12.627
1560,49.92,4.4927,5.9222,1.5100,-0.6340,0.2825,3.0186,rough,14.0,2,12.251
1570,50.24,4.0818,5.9269,1.3759,-0.6494,0.3201,3.1023,rough,14.0,2,11.862
1580,50.56,3.6708,5.9065,1.2234,-0.6482,0.3399,-3.1105,rough,14.0,2,11.466
1590,50.88,3.2588,5.8611,1.0578,-0.6502,0.3663,-3.0610,rough,14.0,2,11.062
1600,51.20,2.8512,5.8086,0.8888,-0.6229,0.3762,-3.0172,rough,14.0,2,10.660
1610,51.52,2.4478,5.7343,0.7247,-0.5542,0.3604,-2.9714,rough,14.0,2,10.256
1620,51.84,2.0646,5.6530,0.5801,-0.5055,0.2418,-2.9001,rough,14.0,2,9.869
1630,52.16,1.6488,5.5723,0.4652,-0.3540,0.2262,-2.8832,rough,14.0,2,9.451
1640,52.48,1.2375,5.4617,0.3784,-0.3141,0.1825,-2.8569,rough,14.0,2,9.028
1650,52.80,1.1043,5.3617,0.3396,-0.3151,0.0780,-2.9474,rough,14.0,2,8.868
1660,53.12,1.1063,5.3153,0.3244,-0.3065,0.0476,-3.0785,rough,14.0,2,8.853
1670,53.44,1.1050,5.2972,0.3193,-0.3038,0.0359,-3.1176,rough,14.0,2,8.845
1680,53.76,1.1045,5.2884,0.3168,-0.3018,0.0304,-3.1380,rough,14.0,2,8.842
1690,54.08,1.1033,5.2869,0.3160,-0.3018,0.0266,3.1244,rough,14.0,2,8.840
1700,54.40,1.1011,5.2927,0.3173,-0.3029,0.0257,3.1107,rough,14.0,2,8.840
1710,54.72,1.1012,5.2985,0.3189,-0.3043,0.0277,3.1156,rough,14.0,2,8.842
1720,55.04,1.1014,5.3006,0.3196,-0.3049,0.0290,3.1208,rough,14.0,2,8.843
1730,55.36,1.1015,5.3020,0.3200,-0.3052,0.0297,3.1233,rough,14.0,2,8.844
1740,55.68,1.1016,5.3026,0.3202,-0.3054,0.0301,3.1245,rough,14.0,2,8.844
1750,56.00,1.1016,5.3030,0.3203,-0.3055,0.0303,3.1253,rough,14.0,2,8.844
1760,56.32,1.1016,5.3032,0.3203,-0.3056,0.0304,3.1256,rough,14.0,2,8.844
1770,56.64,1.1016,5.3033,0.3204,-0.3056,0.0304,3.1257,rough,14.0,2,8.844
1780,56.96,1.1016,5.3034,0.3204,-0.3057,0.0304,3.1258,rough,14.0,2,8.844
1790,57.28,1.1016,5.3036,0.3204,-0.3057,0.0304,3.1258,rough,14.0,2,8.844
1800,57.60,1.1016,5.3037,0.3205,-0.3058,0.0305,3.1258,rough,14.0,2,8.844
1810,57.92,1.1016,5.3039,0.3205,-0.3058,0.0305,3.1258,rough,14.0,2,8.844
1820,58.24,1.1016,5.3040,0.3206,-0.3058,0.0305,3.1258,rough,14.0,2,8.845
1830,58.56,1.1016,5.3041,0.3206,-0.3059,0.0305,3.1258,rough,14.0,2,8.845
1840,58.88,1.1016,5.3042,0.3206,-0.3059,0.0305,3.1258,rough,14.0,2,8.845
1850,59.20,1.1016,5.3044,0.3207,-0.3060,0.0305,3.1258,rough,14.0,2,8.845
1860,59.52,1.1016,5.3045,0.3207,-0.3060,0.0305,3.1258,rough,14.0,2,8.845
1870,59.84,1.1016,5.3046,0.3207,-0.3060,0.0305,3.1258,rough,14.0,2,8.845
1880,60.16,1.1017,5.3048,0.3208,-0.3061,0.0306,3.1258,rough,14.0,2,8.845
1890,60.48,1.1017,5.3049,0.3208,-0.3061,0.0306,3.1258,rough,14.0,2,8.845
1900,60.80,1.1017,5.3050,0.3209,-0.3061,0.0306,3.1258,rough,14.0,2,8.845
1910,61.12,1.1017,5.3051,0.3209,-0.3062,0.0306,3.1258,rough,14.0,2,8.845
1920,61.44,1.1017,5.3052,0.3209,-0.3062,0.0306,3.1258,rough,14.0,2,8.845
1930,61.76,1.1017,5.3054,0.3210,-0.3063,0.0306,3.1258,rough,14.0,2,8.845
1940,62.08,1.1017,5.3055,0.3210,-0.3063,0.0306,3.1258,rough,14.0,2,8.845
1950,62.40,1.1017,5.3056,0.3210,-0.3063,0.0306,3.1258,rough,14.0,2,8.845
1960,62.72,1.1017,5.3057,0.3211,-0.3064,0.0306,3.1258,rough,14.0,2,8.845
1970,63.04,1.1017,5.3058,0.3211,-0.3064,0.0306,3.1258,rough,14.0,2,8.845
1980,63.36,1.1017,5.3059,0.3211,-0.3064,0.0307,3.1258,rough,14.0,2,8.845
1990,63.68,1.1017,5.3061,0.3212,-0.3065,0.0307,3.1259,rough,14.0,2,8.845
2000,64.00,1.1017,5.3062,0.3212,-0.3065,0.0307,3.1259,rough,14.0,2,8.845
2010,64.32,1.1017,5.3063,0.3212,-0.3065,0.0307,3.1259,rough,14.0,2,8.845
2020,64.64,1.1017,5.3064,0.3213,-0.3066,0.0307,3.1259,rough,14.0,2,8.845
2030,64.96,1.1017,5.3065,0.3213,-0.3066,0.0307,3.1259,rough,14.0,2,8.845
2040,65.28,1.1017,5.3066,0.3213,-0.3066,0.0307,3.1259,rough,14.0,2,8.845
2050,65.60,1.1017,5.3067,0.3214,-0.3067,0.0307,3.1259,rough,14.0,2,8.846
2060,65.92,1.1017,5.3068,0.3214,-0.3067,0.0307,3.1259,rough,14.0,2,8.846
2070,66.24,1.1017,5.3069,0.3214,-0.3067,0.0307,3.1259,rough,14.0,2,8.846
2080,66.56,1.1017,5.3070,0.3214,-0.3068,0.0308,3.1259,rough,14.0,2,8.846
2090,66.88,1.1017,5.3071,0.3215,-0.3068,0.0308,3.1259,rough,14.0,2,8.846
2100,67.20,1.1017,5.3072,0.3215,-0.3068,0.0308,3.1259,rough,14.0,2,8.846
2110,67.52,1.1017,5.3073,0.3215,-0.3069,0.0308,3.1259,rough,14.0,2,8.846
2120,67.84,1.1017,5.3074,0.3216,-0.3069,0.0308,3.1259,rough,14.0,2,8.846
2130,68.16,1.1017,5.3075,0.3216,-0.3069,0.0308,3.1259,rough,14.0,2,8.846
2140,68.48,1.1017,5.3076,0.3216,-0.3069,0.0308,3.1259,rough,14.0,2,8.846
2150,68.80,1.1017,5.3077,0.3216,-0.3070,0.0308,3.1259,rough,14.0,2,8.846
2160,69.12,1.1017,5.3078,0.3217,-0.3070,0.0308,3.1259,rough,14.0,2,8.846
2170,69.44,1.1017,5.3079,0.3217,-0.3070,0.0308,3.1259,rough,14.0,2,8.846
2180,69.76,1.1017,5.3080,0.3217,-0.3071,0.0308,3.1259,rough,14.0,2,8.846
2190,70.08,1.1017,5.3081,0.3218,-0.3071,0.0309,3.1259,rough,14.0,2,8.846
2200,70.40,1.1017,5.3082,0.3218,-0.3071,0.0309,3.1259,rough,14.0,2,8.846
2210,70.72,1.1017,5.3083,0.3218,-0.3071,0.0309,3.1259,rough,14.0,2,8.846
2220,71.04,1.1017,5.3084,0.3218,-0.3072,0.0309,3.1259,rough,14.0,2,8.846
2230,71.36,1.1017,5.3085,0.3219,-0.3072,0.0309,3.1259,rough,14.0,2,8.846
2240,71.68,1.1017,5.3086,0.3219,-0.3072,0.0309,3.1259,rough,14.0,2,8.846
2250,72.00,1.1017,5.3087,0.3219,-0.3073,0.0309,3.1259,rough,14.0,2,8.846
2260,72.32,1.1017,5.3088,0.3219,-0.3073,0.0309,3.1259,rough,14.0,2,8.846
2270,72.64,1.1017,5.3089,0.3220,-0.3073,0.0309,3.1259,rough,14.0,2,8.846
2280,72.96,1.1017,5.3090,0.3220,-0.3073,0.0309,3.1259,rough,14.0,2,8.846
2290,73.28,1.1017,5.3090,0.3220,-0.3074,0.0309,3.1259,rough,14.0,2,8.846
2300,73.60,1.1017,5.3091,0.3220,-0.3074,0.0309,3.1259,rough,14.0,2,8.846
2310,73.92,1.1017,5.3092,0.3221,-0.3074,0.0310,3.1259,rough,14.0,2,8.846
2320,74.24,1.1017,5.3093,0.3221,-0.3074,0.0310,3.1259,rough,14.0,2,8.846
2330,74.56,1.1017,5.3094,0.3221,-0.3075,0.0310,3.1260,rough,14.0,2,8.847
2340,74.88,1.1017,5.3095,0.3221,-0.3075,0.0310,3.1260,rough,14.0,2,8.847
2350,75.20,1.1017,5.3096,0.3222,-0.3075,0.0310,3.1260,rough,14.0,2,8.847
2360,75.52,1.1017,5.3096,0.3222,-0.3075,0.0310,3.1260,rough,14.0,2,8.847
2370,75.84,1.1017,5.3097,0.3222,-0.3076,0.0310,3.1260,rough,14.0,2,8.847
2380,76.16,1.1017,5.3098,0.3222,-0.3076,0.0310,3.1260,rough,14.0,2,8.847
2390,76.48,1.1018,5.3099,0.3223,-0.3076,0.0310,3.1260,rough,14.0,2,8.847
2400,76.80,1.1018,5.3100,0.3223,-0.3076,0.0310,3.1260,rough,14.0,2,8.847
2410,77.12,1.1018,5.3100,0.3223,-0.3077,0.0310,3.1260,rough,14.0,2,8.847
2420,77.44,1.1018,5.3101,0.3223,-0.3077,0.0310,3.1260,rough,14.0,2,8.847
2430,77.76,1.1018,5.3102,0.3224,-0.3077,0.0310,3.1260,rough,14.0,2,8.847
2440,78.08,1.1018,5.3103,0.3224,-0.3077,0.0311,3.1260,rough,14.0,2,8.847
2450,78.40,1.1018,5.3104,0.3224,-0.3078,0.0311,3.1260,rough,14.0,2,8.847
2460,78.72,1.1018,5.3104,0.3224,-0.3078,0.0311,3.1260,rough,14.0,2,8.847
2470,79.04,1.1018,5.3105,0.3224,-0.3078,0.0311,3.1260,rough,14.0,2,8.847
2480,79.36,1.1018,5.3106,0.3225,-0.3078,0.0311,3.1260,rough,14.0,2,8.847
2490,79.68,1.1018,5.3106,0.3225,-0.3078,0.0311,3.1260,rough,14.0,2,8.847
2500,80.00,1.1018,5.3107,0.3225,-0.3079,0.0311,3.1260,rough,14.0,2,8.847
2510,80.32,1.1018,5.3108,0.3225,-0.3079,0.0311,3.1260,rough,14.0,2,8.847
2520,80.64,1.1018,5.3109,0.3225,-0.3079,0.0311,3.1260,rough,14.0,2,8.847
2530,80.96,1.1018,5.3109,0.3226,-0.3079,0.0311,3.1260,rough,14.0,2,8.847
2540,81.28,1.1018,5.3110,0.3226,-0.3080,0.0311,3.1260,rough,14.0,2,8.847
2550,81.60,1.1018,5.3111,0.3226,-0.3080,0.0311,3.1260,rough,14.0,2,8.847
2560,81.92,1.1018,5.3112,0.3226,-0.3080,0.0311,3.1260,rough,14.0,2,8.847
2570,82.24,1.1018,5.3112,0.3226,-0.3080,0.0311,3.1260,rough,14.0,2,8.847
2580,82.56,1.1018,5.3113,0.3227,-0.3080,0.0312,3.1260,rough,14.0,2,8.847
2590,82.88,1.1018,5.3114,0.3227,-0.3081,0.0312,3.1260,rough,14.0,2,8.847
2600,83.20,1.1018,5.3114,0.3227,-0.3081,0.0312,3.1260,rough,14.0,2,8.847
2610,83.52,1.1018,5.3115,0.3227,-0.3081,0.0312,3.1260,rough,14.0,2,8.847
2620,83.84,1.1018,5.3116,0.3227,-0.3081,0.0312,3.1260,rough,14.0,2,8.847
2630,84.16,1.1018,5.3116,0.3228,-0.3081,0.0312,3.1260,rough,14.0,2,8.847
2640,84.48,1.1018,5.3117,0.3228,-0.3082,0.0312,3.1260,rough,14.0,2,8.847
2650,84.80,1.1018,5.3118,0.3228,-0.3082,0.0312,3.1260,rough,14.0,2,8.847
2660,85.12,1.1018,5.3118,0.3228,-0.3082,0.0312,3.1260,rough,14.0,2,8.847
2670,85.44,1.1018,5.3119,0.3228,-0.3082,0.0312,3.1260,rough,14.0,2,8.847
2680,85.76,1.1018,5.3119,0.3229,-0.3082,0.0312,3.1260,rough,14.0,2,8.847
2690,86.08,1.1018,5.3120,0.3229,-0.3083,0.0312,3.1260,rough,14.0,2,8.847
2700,86.40,1.1018,5.3121,0.3229,-0.3083,0.0312,3.1260,rough,14.0,2,8.848
2710,86.72,1.1018,5.3121,0.3229,-0.3083,0.0312,3.1260,rough,14.0,2,8.848
2720,87.04,1.1018,5.3122,0.3229,-0.3083,0.0312,3.1260,rough,14.0,2,8.848
2730,87.36,1.1018,5.3122,0.3229,-0.3083,0.0312,3.1260,rough,14.0,2,8.848
2740,87.68,1.1018,5.3123,0.3230,-0.3083,0.0312,3.1260,rough,14.0,2,8.848
2750,88.00,1.1018,5.3124,0.3230,-0.3084,0.0313,3.1260,rough,14.0,2,8.848
2760,88.32,1.1018,5.3124,0.3230,-0.3084,0.0313,3.1260,rough,14.0,2,8.848
2770,88.64,1.1018,5.3125,0.3230,-0.3084,0.0313,3.1260,rough,14.0,2,8.848
2780,88.96,1.1018,5.3125,0.3230,-0.3084,0.0313,3.1260,rough,14.0,2,8.848
2790,89.28,1.1018,5.3126,0.3230,-0.3084,0.0313,3.1260,rough,14.0,2,8.848
2800,89.60,1.1018,5.3127,0.3231,-0.3084,0.0313,3.1260,rough,14.0,2,8.848
2810,89.92,1.1018,5.3127,0.3231,-0.3085,0.0313,3.1260,rough,14.0,2,8.848
2820,90.24,1.1018,5.3128,0.3231,-0.3085,0.0313,3.1260,rough,14.0,2,8.848
2830,90.56,1.1018,5.3128,0.3231,-0.3085,0.0313,3.1260,rough,14.0,2,8.848
2840,90.88,1.1018,5.3129,0.3231,-0.3085,0.0313,3.1261,rough,14.0,2,8.848
2850,91.20,1.1018,5.3129,0.3231,-0.3085,0.0313,3.1261,rough,14.0,2,8.848
2860,91.52,1.1018,5.3130,0.3232,-0.3085,0.0313,3.1261,rough,14.0,2,8.848
2870,91.84,1.1018,5.3130,0.3232,-0.3086,0.0313,3.1261,rough,14.0,2,8.848
2880,92.16,1.1018,5.3131,0.3232,-0.3086,0.0313,3.1261,rough,14.0,2,8.848
2890,92.48,1.1018,5.3131,0.3232,-0.3086,0.0313,3.1261,rough,14.0,2,8.848
2900,92.80,1.1018,5.3132,0.3232,-0.3086,0.0313,3.1261,rough,14.0,2,8.848
2910,93.12,1.1018,5.3133,0.3232,-0.3086,0.0313,3.1261,rough,14.0,2,8.848
2920,93.44,1.1018,5.3133,0.3232,-0.3086,0.0313,3.1261,rough,14.0,2,8.848
2930,93.76,1.1018,5.3134,0.3233,-0.3087,0.0313,3.1261,rough,14.0,2,8.848
2940,94.08,1.1018,5.3134,0.3233,-0.3087,0.0314,3.1261,rough,14.0,2,8.848
2950,94.40,1.1018,5.3135,0.3233,-0.3087,0.0314,3.1261,rough,14.0,2,8.848
2960,94.72,1.1018,5.3135,0.3233,-0.3087,0.0314,3.1261,rough,14.0,2,8.848
2970,95.04,1.1018,5.3136,0.3233,-0.3087,0.0314,3.1261,rough,14.0,2,8.848
2980,95.36,1.1018,5.3136,0.3233,-0.3087,0.0314,3.1261,rough,14.0,2,8.848
2990,95.68,1.1018,5.3136,0.3233,-0.3087,0.0314,3.1261,rough,14.0,2,8.848
3000,96.00,1.1018,5.3137,0.3234,-0.3088,0.0314,3.1261,rough,14.0,2,8.848
3010,96.32,1.1018,5.3137,0.3234,-0.3088,0.0314,3.1261,rough,14.0,2,8.848
3020,96.64,1.1018,5.3138,0.3234,-0.3088,0.0314,3.1261,rough,14.0,2,8.848
3030,96.96,1.1018,5.3138,0.3234,-0.3088,0.0314,3.1261,rough,14.0,2,8.848
3040,97.28,1.1018,5.3139,0.3234,-0.3088,0.0314,3.1261,rough,14.0,2,8.848
3050,97.60,1.1018,5.3139,0.3234,-0.3088,0.0314,3.1261,rough,14.0,2,8.848
3060,97.92,1.1018,5.3140,0.3234,-0.3088,0.0314,3.1261,rough,14.0,2,8.848
3070,98.24,1.1018,5.3140,0.3235,-0.3089,0.0314,3.1261,rough,14.0,2,8.848
3080,98.56,1.1018,5.3141,0.3235,-0.3089,0.0314,3.1261,rough,14.0,2,8.848
3090,98.88,1.1018,5.3141,0.3235,-0.3089,0.0314,3.1261,rough,14.0,2,8.848
3100,99.20,1.1018,5.3142,0.3235,-0.3089,0.0314,3.1261,rough,14.0,2,8.848
3110,99.52,1.1018,5.3142,0.3235,-0.3089,0.0314,3.1261,rough,14.0,2,8.848
3120,99.84,1.1018,5.3142,0.3235,-0.3089,0.0314,3.1261,rough,14.0,2,8.848
3130,100.16,1.1018,5.3143,0.3235,-0.3089,0.0314,3.1261,rough,14.0,2,8.848
3140,100.48,1.1018,5.3143,0.3235,-0.3089,0.0314,3.1261,rough,14.0,2,8.848
3150,100.80,1.1018,5.3144,0.3236,-0.3090,0.0314,3.1261,rough,14.0,2,8.848
3160,101.12,1.1018,5.3144,0.3236,-0.3090,0.0314,3.1261,rough,14.0,2,8.848
3170,101.44,1.1018,5.3145,0.3236,-0.3090,0.0315,3.1261,rough,14.0,2,8.848
3180,101.76,1.1018,5.3145,0.3236,-0.3090,0.0315,3.1261,rough,14.0,2,8.848
3190,102.08,1.1018,5.3145,0.3236,-0.3090,0.0315,3.1261,rough,14.0,2,8.848
3200,102.40,1.1018,5.3146,0.3236,-0.3090,0.0315,3.1261,rough,14.0,2,8.848
3210,102.72,1.1018,5.3146,0.3236,-0.3090,0.0315,3.1261,rough,14.0,2,8.848
3220,103.04,1.1018,5.3147,0.3236,-0.3090,0.0315,3.1261,rough,14.0,2,8.848
3230,103.36,1.1018,5.3147,0.3236,-0.3091,0.0315,3.1261,rough,14.0,2,8.848
3240,103.68,1.1018,5.3147,0.3237,-0.3091,0.0315,3.1261,rough,14.0,2,8.849
3250,104.00,1.1018,5.3148,0.3237,-0.3091,0.0315,3.1261,rough,14.0,2,8.849
3260,104.32,1.1018,5.3148,0.3237,-0.3091,0.0315,3.1261,rough,14.0,2,8.849
3270,104.64,1.1018,5.3148,0.3237,-0.3091,0.0315,3.1261,rough,14.0,2,8.849
3280,104.96,1.1018,5.3149,0.3237,-0.3091,0.0315,3.1261,rough,14.0,2,8.849
3290,105.28,1.1018,5.3149,0.3237,-0.3091,0.0315,3.1261,rough,14.0,2,8.849
3300,105.60,1.1018,5.3150,0.3237,-0.3091,0.0315,3.1261,rough,14.0,2,8.849
3310,105.92,1.1018,5.3150,0.3237,-0.3091,0.0315,3.1261,rough,14.0,2,8.849
3320,106.24,1.1018,5.3150,0.3237,-0.3092,0.0315,3.1261,rough,14.0,2,8.849
3330,106.56,1.1018,5.3151,0.3238,-0.3092,0.0315,3.1261,rough,14.0,2,8.849
3340,106.88,1.1018,5.3151,0.3238,-0.3092,0.0315,3.1261,rough,14.0,2,8.849
3350,107.20,1.1018,5.3152,0.3238,-0.3092,0.0315,3.1261,rough,14.0,2,8.849
3360,107.52,1.1018,5.3152,0.3238,-0.3092,0.0315,3.1261,rough,14.0,2,8.849
3370,107.84,1.1018,5.3152,0.3238,-0.3092,0.0315,3.1261,rough,14.0,2,8.849
3380,108.16,1.1018,5.3153,0.3238,-0.3092,0.0315,3.1261,rough,14.0,2,8.849
3390,108.48,1.1018,5.3153,0.3238,-0.3092,0.0315,3.1261,rough,14.0,2,8.849
3400,108.80,1.1018,5.3153,0.3238,-0.3092,0.0316,3.1261,rough,14.0,2,8.849
3410,109.12,1.1018,5.3154,0.3238,-0.3093,0.0316,3.1261,rough,14.0,2,8.849
3420,109.44,1.1019,5.3154,0.3239,-0.3093,0.0316,3.1261,rough,14.0,2,8.849
3430,109.76,1.1019,5.3155,0.3239,-0.3093,0.0316,3.1261,rough,14.0,2,8.849
3440,110.08,1.1019,5.3155,0.3239,-0.3093,0.0316,3.1261,rough,14.0,2,8.849
3450,110.40,1.1019,5.3155,0.3239,-0.3093,0.0316,3.1261,rough,14.0,2,8.849
3460,110.72,1.1019,5.3156,0.3239,-0.3093,0.0316,3.1261,rough,14.0,2,8.849
3470,111.04,1.1019,5.3156,0.3239,-0.3093,0.0316,3.1261,rough,14.0,2,8.849
3480,111.36,1.1019,5.3156,0.3239,-0.3093,0.0316,3.1261,rough,14.0,2,8.849
3490,111.68,1.1019,5.3157,0.3239,-0.3093,0.0316,3.1261,rough,14.0,2,8.849
3500,112.00,1.1019,5.3157,0.3239,-0.3093,0.0316,3.1261,rough,14.0,2,8.849
3510,112.32,1.1019,5.3157,0.3240,-0.3093,0.0316,3.1261,rough,14.0,2,8.849
3520,112.64,1.1019,5.3158,0.3240,-0.3094,0.0316,3.1261,rough,14.0,2,8.849
3530,112.96,1.1019,5.3158,0.3240,-0.3094,0.0316,3.1261,rough,14.0,2,8.849
3540,113.28,1.1020,5.3158,0.3240,-0.3094,0.0316,3.1261,rough,14.0,2,8.849
3550,113.60,1.1020,5.3159,0.3240,-0.3094,0.0316,3.1261,rough,14.0,2,8.849
3560,113.92,1.1020,5.3159,0.3240,-0.3094,0.0317,3.1261,rough,14.0,2,8.849
3570,114.24,1.1020,5.3160,0.3240,-0.3094,0.0317,3.1261,rough,14.0,2,8.849
3580,114.56,1.1020,5.3160,0.3240,-0.3094,0.0317,3.1261,rough,14.0,2,8.849
3590,114.88,1.1020,5.3160,0.3240,-0.3094,0.0317,3.1261,rough,14.0,2,8.849
3600,115.20,1.1020,5.3161,0.3240,-0.3094,0.0317,3.1261,rough,14.0,2,8.849
3610,115.52,1.1020,5.3161,0.3240,-0.3094,0.0317,3.1261,rough,14.0,2,8.849
3620,115.84,1.1020,5.3161,0.3241,-0.3094,0.0317,3.1261,rough,14.0,2,8.849
3630,116.16,1.1020,5.3161,0.3241,-0.3095,0.0317,3.1261,rough,14.0,2,8.849
3640,116.48,1.1020,5.3162,0.3241,-0.3095,0.0317,3.1261,rough,14.0,2,8.849
3650,116.80,1.1020,5.3162,0.3241,-0.3095,0.0317,3.1261,rough,14.0,2,8.849
3660,117.12,1.1020,5.3162,0.3241,-0.3095,0.0317,3.1261,rough,14.0,2,8.849
3670,117.44,1.1021,5.3163,0.3241,-0.3095,0.0317,3.1261,rough,14.0,2,8.849
3680,117.76,1.1021,5.3163,0.3241,-0.3095,0.0317,3.1261,rough,14.0,2,8.849
3690,118.08,1.1021,5.3163,0.3241,-0.3095,0.0317,3.1261,rough,14.0,2,8.849
3700,118.40,1.1021,5.3164,0.3241,-0.3095,0.0317,3.1261,rough,14.0,2,8.849
3710,118.72,1.1021,5.3164,0.3241,-0.3095,0.0317,3.1261,rough,14.0,2,8.849
3720,119.04,1.1021,5.3164,0.3242,-0.3095,0.0317,3.1261,rough,14.0,2,8.849
3730,119.36,1.1021,5.3165,0.3242,-0.3095,0.0317,3.1261,rough,14.0,2,8.849
3740,119.68,1.1021,5.3165,0.3242,-0.3096,0.0318,3.1261,rough,14.0,2,8.849
3750,120.00,1.1021,5.3165,0.3242,-0.3096,0.0318,3.1261,rough,14.0,2,8.849
3760,120.32,1.1021,5.3165,0.3242,-0.3096,0.0318,3.1261,rough,14.0,2,8.849
3770,120.64,1.1021,5.3166,0.3242,-0.3096,0.0318,3.1261,rough,14.0,2,8.849
3780,120.96,1.1021,5.3166,0.3242,-0.3096,0.0318,3.1261,rough,14.0,2,8.849
3790,121.28,1.1021,5.3166,0.3242,-0.3096,0.0318,3.1261,rough,14.0,2,8.849
3800,121.60,1.1021,5.3167,0.3242,-0.3096,0.0318,3.1261,rough,14.0,2,8.849
3810,121.92,1.1022,5.3167,0.3242,-0.3096,0.0318,3.1261,rough,14.0,2,8.850
3820,122.24,1.1022,5.3167,0.3242,-0.3096,0.0318,3.1261,rough,14.0,2,8.850
3830,122.56,1.1022,5.3167,0.3242,-0.3096,0.0318,3.1261,rough,14.0,2,8.850
3840,122.88,1.1022,5.3168,0.3243,-0.3096,0.0318,3.1261,rough,14.0,2,8.850
3850,123.20,1.1022,5.3168,0.3243,-0.3096,0.0318,3.1261,rough,14.0,2,8.850
3860,123.52,1.1022,5.3168,0.3243,-0.3096,0.0318,3.1261,rough,14.0,2,8.850
3870,123.84,1.1022,5.3168,0.3243,-0.3097,0.0318,3.1261,rough,14.0,2,8.850
3880,124.16,1.1022,5.3169,0.3243,-0.3097,0.0318,3.1261,rough,14.0,2,8.850
3890,124.48,1.1022,5.3169,0.3243,-0.3097,0.0318,3.1261,rough,14.0,2,8.850
3900,124.80,1.1022,5.3169,0.3243,-0.3097,0.0318,3.1261,rough,14.0,2,8.850
3910,125.12,1.1022,5.3170,0.3243,-0.3097,0.0318,3.1261,rough,14.0,2,8.850
3920,125.44,1.1022,5.3170,0.3243,-0.3097,0.0318,3.1261,rough,14.0,2,8.850
3930,125.76,1.1022,5.3170,0.3243,-0.3097,0.0318,3.1261,rough,14.0,2,8.850
3940,126.08,1.1022,5.3170,0.3243,-0.3097,0.0318,3.1261,rough,14.0,2,8.850
3950,126.40,1.1022,5.3171,0.3243,-0.3097,0.0319,3.1261,rough,14.0,2,8.850
3960,126.72,1.1022,5.3171,0.3243,-0.3097,0.0319,3.1261,rough,14.0,2,8.850
3970,127.04,1.1023,5.3171,0.3244,-0.3097,0.0319,3.1261,rough,14.0,2,8.850
3980,127.36,1.1023,5.3171,0.3244,-0.3097,0.0319,3.1261,rough,14.0,2,8.850
3990,127.68,1.1023,5.3172,0.3244,-0.3097,0.0319,3.1261,rough,14.0,2,8.850
4000,128.00,1.1021,5.3172,0.3244,-0.3098,0.0318,3.1260,rough,14.0,2,8.850
4010,128.32,1.1020,5.3173,0.3244,-0.3098,0.0319,3.1260,rough,14.0,2,8.850
4020,128.64,1.1020,5.3173,0.3244,-0.3098,0.0319,3.1261,rough,14.0,2,8.850
4030,128.96,1.1019,5.3173,0.3244,-0.3098,0.0318,3.1261,rough,14.0,2,8.850
4040,129.28,1.1019,5.3174,0.3244,-0.3098,0.0318,3.1261,rough,14.0,2,8.849
4050,129.60,1.1019,5.3174,0.3244,-0.3098,0.0319,3.1261,rough,14.0,2,8.849
4060,129.92,1.1019,5.3174,0.3244,-0.3098,0.0319,3.1261,rough,14.0,2,8.849
4070,130.24,1.1019,5.3175,0.3244,-0.3098,0.0319,3.1261,rough,14.0,2,8.850
4080,130.56,1.1019,5.3175,0.3244,-0.3098,0.0319,3.1261,rough,14.0,2,8.850
4090,130.88,1.1019,5.3175,0.3244,-0.3098,0.0319,3.1261,rough,14.0,2,8.850
4100,131.20,1.1019,5.3176,0.3245,-0.3099,0.0319,3.1261,rough,14.0,2,8.850
4110,131.52,1.1019,5.3176,0.3245,-0.3099,0.0319,3.1261,rough,14.0,2,8.850
4120,131.84,1.1019,5.3177,0.3245,-0.3099,0.0319,3.1261,rough,14.0,2,8.850
4130,132.16,1.1019,5.3177,0.3245,-0.3099,0.0319,3.1261,rough,14.0,2,8.850
4140,132.48,1.1019,5.3177,0.3245,-0.3099,0.0319,3.1261,rough,14.0,2,8.850
4150,132.80,1.1019,5.3178,0.3245,-0.3099,0.0319,3.1261,rough,14.0,2,8.850
4160,133.12,1.1019,5.3178,0.3245,-0.3099,0.0319,3.1261,rough,14.0,2,8.850
4170,133.44,1.1019,5.3178,0.3245,-0.3099,0.0319,3.1261,rough,14.0,2,8.850
4180,133.76,1.1019,5.3179,0.3245,-0.3099,0.0320,3.1261,rough,14.0,2,8.850
4190,134.08,1.1019,5.3179,0.3246,-0.3099,0.0320,3.1261,rough,14.0,2,8.850
4200,134.40,1.1019,5.3180,0.3246,-0.3099,0.0320,3.1261,rough,14.0,2,8.850
4210,134.72,1.1019,5.3180,0.3246,-0.3100,0.0320,3.1261,rough,14.0,2,8.850
4220,135.04,1.1019,5.3180,0.3246,-0.3100,0.0320,3.1261,rough,14.0,2,8.850
4230,135.36,1.1019,5.3181,0.3246,-0.3100,0.0320,3.1261,rough,14.0,2,8.850
4240,135.68,1.1019,5.3181,0.3246,-0.3100,0.0320,3.1261,rough,14.0,2,8.850
4250,136.00,1.1019,5.3181,0.3246,-0.3100,0.0320,3.1261,rough,14.0,2,8.850
4260,136.32,1.1019,5.3182,0.3246,-0.3100,0.0320,3.1261,rough,14.0,2,8.850
4270,136.64,1.1019,5.3182,0.3246,-0.3100,0.0320,3.1260,rough,14.0,2,8.850
4280,136.96,1.1019,5.3182,0.3246,-0.3100,0.0320,3.1260,rough,14.0,2,8.850
4290,137.28,1.1019,5.3183,0.3247,-0.3100,0.0320,3.1260,rough,14.0,2,8.850
4300,137.60,1.1019,5.3183,0.3247,-0.3100,0.0320,3.1260,rough,14.0,2,8.850
4310,137.92,1.1019,5.3184,0.3247,-0.3101,0.0320,3.1260,rough,14.0,2,8.850
4320,138.24,1.1019,5.3184,0.3247,-0.3101,0.0320,3.1260,rough,14.0,2,8.850
4330,138.56,1.1019,5.3184,0.3247,-0.3101,0.0321,3.1260,rough,14.0,2,8.850
4340,138.88,1.1019,5.3185,0.3247,-0.3101,0.0321,3.1260,rough,14.0,2,8.850
4350,139.20,1.1022,5.3185,0.3247,-0.3101,0.0321,3.1261,rough,14.0,2,8.850
4360,139.52,1.1024,5.3185,0.3247,-0.3101,0.0322,3.1261,rough,14.0,2,8.850
4370,139.84,1.1025,5.3185,0.3247,-0.3101,0.0322,3.1261,rough,14.0,2,8.850
4380,140.16,1.1025,5.3186,0.3248,-0.3101,0.0322,3.1261,rough,14.0,2,8.850
4390,140.48,1.1025,5.3186,0.3248,-0.3101,0.0322,3.1261,rough,14.0,2,8.850
4400,140.80,1.1025,5.3186,0.3248,-0.3101,0.0322,3.1261,rough,14.0,2,8.850
4410,141.12,1.1025,5.3186,0.3248,-0.3101,0.0322,3.1261,rough,14.0,2,8.851
4420,141.44,1.1025,5.3186,0.3248,-0.3101,0.0322,3.1261,rough,14.0,2,8.851
4430,141.76,1.1025,5.3186,0.3248,-0.3101,0.0322,3.1261,rough,14.0,2,8.851
4440,142.08,1.1025,5.3187,0.3248,-0.3101,0.0322,3.1261,rough,14.0,2,8.851
4450,142.40,1.1025,5.3187,0.3248,-0.3101,0.0322,3.1261,rough,14.0,2,8.851
4460,142.72,1.1025,5.3187,0.3248,-0.3101,0.0322,3.1261,rough,14.0,2,8.851
4470,143.04,1.1025,5.3187,0.3248,-0.3101,0.0322,3.1261,rough,14.0,2,8.851
4480,143.36,1.1025,5.3187,0.3248,-0.3101,0.0322,3.1261,rough,14.0,2,8.851
4490,143.68,1.1025,5.3187,0.3248,-0.3102,0.0322,3.1261,rough,14.0,2,8.851
4500,144.00,1.1025,5.3187,0.3248,-0.3102,0.0322,3.1261,rough,14.0,2,8.851
4510,144.32,1.1025,5.3188,0.3248,-0.3102,0.0322,3.1261,rough,14.0,2,8.851
4520,144.64,1.1025,5.3188,0.3248,-0.3102,0.0322,3.1261,rough,14.0,2,8.851
4530,144.96,1.1025,5.3188,0.3248,-0.3102,0.0322,3.1261,rough,14.0,2,8.851
4540,145.28,1.1026,5.3188,0.3248,-0.3102,0.0322,3.1261,rough,14.0,2,8.851
4550,145.60,1.1026,5.3188,0.3248,-0.3102,0.0322,3.1261,rough,14.0,2,8.851
4560,145.92,1.1026,5.3188,0.3249,-0.3102,0.0322,3.1261,rough,14.0,2,8.851
4570,146.24,1.1026,5.3189,0.3249,-0.3102,0.0322,3.1261,rough,14.0,2,8.851
4580,146.56,1.1026,5.3189,0.3249,-0.3102,0.0322,3.1261,rough,14.0,2,8.851
4590,146.88,1.1026,5.3189,0.3249,-0.3102,0.0322,3.1261,rough,14.0,2,8.851
4600,147.20,1.1026,5.3189,0.3249,-0.3102,0.0322,3.1261,rough,14.0,2,8.851
4610,147.52,1.1026,5.3189,0.3249,-0.3102,0.0322,3.1261,rough,14.0,2,8.851
4620,147.84,1.1026,5.3189,0.3249,-0.3102,0.0322,3.1261,rough,14.0,2,8.851
4630,148.16,1.1026,5.3189,0.3249,-0.3102,0.0322,3.1261,rough,14.0,2,8.851
4640,148.48,1.1026,5.3190,0.3249,-0.3102,0.0322,3.1261,rough,14.0,2,8.851
4650,148.80,1.1026,5.3190,0.3249,-0.3102,0.0322,3.1261,rough,14.0,2,8.851
4660,149.12,1.1026,5.3190,0.3249,-0.3102,0.0322,3.1261,rough,14.0,2,8.851
4670,149.44,1.1026,5.3190,0.3249,-0.3102,0.0322,3.1261,rough,14.0,2,8.851
4680,149.76,1.1026,5.3190,0.3249,-0.3102,0.0322,3.1261,rough,14.0,2,8.851
4690,150.08,1.1026,5.3190,0.3249,-0.3102,0.0322,3.1261,rough,14.0,2,8.851
4700,150.40,1.1026,5.3190,0.3249,-0.3103,0.0322,3.1261,rough,14.0,2,8.851
4710,150.72,1.1026,5.3191,0.3249,-0.3103,0.0322,3.1261,rough,14.0,2,8.851
4720,151.04,1.1026,5.3191,0.3249,-0.3103,0.0322,3.1261,rough,14.0,2,8.851
4730,151.36,1.1026,5.3191,0.3249,-0.3103,0.0322,3.1261,rough,14.0,2,8.851
4740,151.68,1.1026,5.3191,0.3249,-0.3103,0.0322,3.1261,rough,14.0,2,8.851
4750,152.00,1.1026,5.3191,0.3249,-0.3103,0.0322,3.1261,rough,14.0,2,8.851
4760,152.32,1.1026,5.3191,0.3249,-0.3103,0.0322,3.1261,rough,14.0,2,8.851
4770,152.64,1.1026,5.3191,0.3249,-0.3103,0.0322,3.1261,rough,14.0,2,8.851
4780,152.96,1.1026,5.3192,0.3249,-0.3103,0.0322,3.1261,rough,14.0,2,8.851
4790,153.28,1.1026,5.3192,0.3249,-0.3103,0.0322,3.1261,rough,14.0,2,8.851
4800,153.60,1.1026,5.3192,0.3250,-0.3103,0.0322,3.1261,rough,14.0,2,8.851
4810,153.92,1.1026,5.3192,0.3250,-0.3103,0.0322,3.1261,rough,14.0,2,8.851
4820,154.24,1.1026,5.3192,0.3250,-0.3103,0.0322,3.1261,rough,14.0,2,8.851
4830,154.56,1.1027,5.3192,0.3250,-0.3103,0.0322,3.1261,rough,14.0,2,8.851
4840,154.88,1.1027,5.3192,0.3250,-0.3103,0.0322,3.1261,rough,14.0,2,8.851
4850,155.20,1.1027,5.3192,0.3250,-0.3103,0.0322,3.1261,rough,14.0,2,8.851
4860,155.52,1.1027,5.3193,0.3250,-0.3103,0.0322,3.1261,rough,14.0,2,8.851
4870,155.84,1.1027,5.3193,0.3250,-0.3103,0.0322,3.1261,rough,14.0,2,8.851
4880,156.16,1.1027,5.3193,0.3250,-0.3103,0.0322,3.1261,rough,14.0,2,8.851
4890,156.48,1.1027,5.3193,0.3250,-0.3103,0.0322,3.1261,rough,14.0,2,8.851
4900,156.80,1.1027,5.3193,0.3250,-0.3103,0.0322,3.1261,rough,14.0,2,8.851
4910,157.12,1.1027,5.3193,0.3250,-0.3103,0.0322,3.1261,rough,14.0,2,8.851
4920,157.44,1.1027,5.3193,0.3250,-0.3103,0.0322,3.1261,rough,14.0,2,8.851
4930,157.76,1.1027,5.3193,0.3250,-0.3103,0.0322,3.1261,rough,14.0,2,8.851
4940,158.08,1.1027,5.3193,0.3250,-0.3103,0.0322,3.1261,rough,14.0,2,8.851
4950,158.40,1.1027,5.3194,0.3250,-0.3103,0.0322,3.1261,rough,14.0,2,8.851
4960,158.72,1.1027,5.3194,0.3250,-0.3103,0.0322,3.1261,rough,14.0,2,8.851
4970,159.04,1.1027,5.3194,0.3250,-0.3103,0.0322,3.1261,rough,14.0,2,8.851
4980,159.36,1.1027,5.3194,0.3250,-0.3104,0.0322,3.1261,rough,14.0,2,8.851
4990,159.68,1.1027,5.3194,0.3250,-0.3104,0.0322,3.1261,rough,14.0,2,8.851
5000,160.00,1.1027,5.3194,0.3250,-0.3104,0.0322,3.1261,rough,14.0,2,8.851
5010,160.32,1.1027,5.3194,0.3250,-0.3104,0.0322,3.1261,rough,14.0,2,8.851
5020,160.64,1.1027,5.3194,0.3250,-0.3104,0.0322,3.1261,rough,14.0,2,8.851
5030,160.96,1.1027,5.3195,0.3250,-0.3104,0.0323,3.1261,rough,14.0,2,8.851
5040,161.28,1.1027,5.3195,0.3250,-0.3104,0.0323,3.1261,rough,14.0,2,8.851
5050,161.60,1.1027,5.3195,0.3250,-0.3104,0.0323,3.1261,rough,14.0,2,8.851
5060,161.92,1.1027,5.3195,0.3250,-0.3104,0.0323,3.1261,rough,14.0,2,8.851
5070,162.24,1.1027,5.3195,0.3250,-0.3104,0.0323,3.1261,rough,14.0,2,8.851
5080,162.56,1.1027,5.3195,0.3250,-0.3104,0.0323,3.1261,rough,14.0,2,8.851
5090,162.88,1.1027,5.3195,0.3251,-0.3104,0.0323,3.1261,rough,14.0,2,8.851
5100,163.20,1.1027,5.3195,0.3251,-0.3104,0.0323,3.1261,rough,14.0,2,8.851
5110,163.52,1.1027,5.3195,0.3251,-0.3104,0.0323,3.1261,rough,14.0,2,8.851
5120,163.84,1.1027,5.3195,0.3251,-0.3104,0.0323,3.1261,rough,14.0,2,8.851
5130,164.16,1.1027,5.3196,0.3251,-0.3104,0.0323,3.1261,rough,14.0,2,8.851
5140,164.48,1.1027,5.3196,0.3251,-0.3104,0.0323,3.1261,rough,14.0,2,8.851
5150,164.80,1.1027,5.3196,0.3251,-0.3104,0.0323,3.1261,rough,14.0,2,8.851
5160,165.12,1.1027,5.3196,0.3251,-0.3104,0.0323,3.1261,rough,14.0,2,8.851
5170,165.44,1.1027,5.3196,0.3251,-0.3104,0.0323,3.1261,rough,14.0,2,8.851
5180,165.76,1.1027,5.3196,0.3251,-0.3104,0.0323,3.1261,rough,14.0,2,8.851
5190,166.08,1.1027,5.3196,0.3251,-0.3104,0.0323,3.1261,rough,14.0,2,8.851
5200,166.40,1.1027,5.3196,0.3251,-0.3104,0.0323,3.1261,rough,14.0,2,8.851
5210,166.72,1.1028,5.3196,0.3251,-0.3104,0.0323,3.1261,rough,14.0,2,8.851
5220,167.04,1.1028,5.3196,0.3251,-0.3104,0.0323,3.1261,rough,14.0,2,8.851
5230,167.36,1.1028,5.3197,0.3251,-0.3104,0.0323,3.1261,rough,14.0,2,8.851
5240,167.68,1.1028,5.3197,0.3251,-0.3104,0.0323,3.1261,rough,14.0,2,8.851
5250,168.00,1.1028,5.3197,0.3251,-0.3104,0.0323,3.1261,rough,14.0,2,8.851
5260,168.32,1.1028,5.3197,0.3251,-0.3104,0.0323,3.1261,rough,14.0,2,8.851
5270,168.64,1.1028,5.3197,0.3251,-0.3104,0.0323,3.1261,rough,14.0,2,8.851
5280,168.96,1.1028,5.3197,0.3251,-0.3104,0.0323,3.1261,rough,14.0,2,8.851
5290,169.28,1.1028,5.3197,0.3251,-0.3104,0.0323,3.1261,rough,14.0,2,8.851
5300,169.60,1.1028,5.3197,0.3251,-0.3104,0.0323,3.1261,rough,14.0,2,8.851
5310,169.92,1.1028,5.3197,0.3251,-0.3104,0.0323,3.1261,rough,14.0,2,8.851
5320,170.24,1.1028,5.3197,0.3251,-0.3104,0.0323,3.1261,rough,14.0,2,8.851
5330,170.56,1.1028,5.3197,0.3251,-0.3104,0.0323,3.1261,rough,14.0,2,8.851
5340,170.88,1.1028,5.3198,0.3251,-0.3105,0.0323,3.1261,rough,14.0,2,8.851
5350,171.20,1.1028,5.3198,0.3251,-0.3105,0.0323,3.1261,rough,14.0,2,8.851
5360,171.52,1.1028,5.3198,0.3251,-0.3105,0.0323,3.1261,rough,14.0,2,8.851
5370,171.84,1.1028,5.3198,0.3251,-0.3105,0.0323,3.1261,rough,14.0,2,8.851
5380,172.16,1.1028,5.3198,0.3251,-0.3105,0.0323,3.1261,rough,14.0,2,8.851
5390,172.48,1.1028,5.3198,0.3251,-0.3105,0.0323,3.1261,rough,14.0,2,8.851
5400,172.80,1.1028,5.3198,0.3251,-0.3105,0.0323,3.1261,rough,14.0,2,8.851
5410,173.12,1.1028,5.3198,0.3251,-0.3105,0.0323,3.1261,rough,14.0,2,8.851
5420,173.44,1.1028,5.3198,0.3251,-0.3105,0.0323,3.1261,rough,14.0,2,8.851
5430,173.76,1.1028,5.3198,0.3251,-0.3105,0.0323,3.1261,rough,14.0,2,8.851
5440,174.08,1.1028,5.3198,0.3251,-0.3105,0.0323,3.1261,rough,14.0,2,8.851
5450,174.40,1.1025,5.3199,0.3251,-0.3105,0.0323,3.1259,rough,14.0,2,8.851
5460,174.72,1.1024,5.3200,0.3252,-0.3105,0.0323,3.1260,rough,14.0,2,8.851
5470,175.04,1.1023,5.3200,0.3252,-0.3105,0.0323,3.1260,rough,14.0,2,8.851
5480,175.36,1.1022,5.3201,0.3252,-0.3105,0.0323,3.1260,rough,14.0,2,8.851
5490,175.68,1.1022,5.3201,0.3252,-0.3105,0.0323,3.1260,rough,14.0,2,8.851
5500,176.00,1.1021,5.3201,0.3252,-0.3105,0.0323,3.1260,rough,14.0,2,8.851
5510,176.32,1.1020,5.3202,0.3252,-0.3106,0.0323,3.1260,rough,14.0,2,8.851
5520,176.64,1.1019,5.3202,0.3252,-0.3106,0.0323,3.1260,rough,14.0,2,8.850
5530,176.96,1.1019,5.3202,0.3252,-0.3106,0.0323,3.1260,rough,14.0,2,8.851
5540,177.28,1.1019,5.3203,0.3252,-0.3106,0.0323,3.1260,rough,14.0,2,8.851
5550,177.60,1.1019,5.3203,0.3252,-0.3106,0.0323,3.1260,rough,14.0,2,8.851
5560,177.92,1.1019,5.3203,0.3252,-0.3106,0.0323,3.1260,rough,14.0,2,8.851
5570,178.24,1.1019,5.3204,0.3252,-0.3106,0.0323,3.1260,rough,14.0,2,8.851
5580,178.56,1.1019,5.3204,0.3252,-0.3106,0.0323,3.1260,rough,14.0,2,8.851
5590,178.88,1.1019,5.3204,0.3253,-0.3106,0.0324,3.1260,rough,14.0,2,8.851
5600,179.20,1.1019,5.3205,0.3253,-0.3106,0.0324,3.1260,rough,14.0,2,8.851
5610,179.52,1.1019,5.3205,0.3253,-0.3106,0.0324,3.1260,rough,14.0,2,8.851
5620,179.84,1.1019,5.3205,0.3253,-0.3106,0.0324,3.1260,rough,14.0,2,8.851
5630,180.16,1.1019,5.3206,0.3253,-0.3107,0.0324,3.1260,rough,14.0,2,8.851
5640,180.48,1.1019,5.3206,0.3253,-0.3107,0.0324,3.1260,rough,14.0,2,8.851
5650,180.80,1.1019,5.3207,0.3253,-0.3107,0.0324,3.1260,rough,14.0,2,8.851
5660,181.12,1.1019,5.3207,0.3253,-0.3107,0.0324,3.1260,rough,14.0,2,8.851
5670,181.44,1.1019,5.3207,0.3253,-0.3107,0.0324,3.1260,rough,14.0,2,8.851
5680,181.76,1.1019,5.3208,0.3253,-0.3107,0.0324,3.1260,rough,14.0,2,8.851
5690,182.08,1.1019,5.3208,0.3253,-0.3107,0.0324,3.1260,rough,14.0,2,8.851
5700,182.40,1.1019,5.3208,0.3254,-0.3107,0.0324,3.1260,rough,14.0,2,8.851
5710,182.72,1.1019,5.3209,0.3254,-0.3107,0.0324,3.1260,rough,14.0,2,8.851
5720,183.04,1.1019,5.3209,0.3254,-0.3107,0.0325,3.1260,rough,14.0,2,8.851
5730,183.36,1.1019,5.3209,0.3254,-0.3107,0.0325,3.1260,rough,14.0,2,8.851
5740,183.68,1.1019,5.3210,0.3254,-0.3108,0.0325,3.1260,rough,14.0,2,8.851
5750,184.00,1.1019,5.3210,0.3254,-0.3108,0.0325,3.1260,rough,14.0,2,8.851
5760,184.32,1.1019,5.3210,0.3254,-0.3108,0.0325,3.1260,rough,14.0,2,8.851
5770,184.64,1.1019,5.3211,0.3254,-0.3108,0.0325,3.1260,rough,14.0,2,8.851
5780,184.96,1.1019,5.3211,0.3254,-0.3108,0.0325,3.1260,rough,14.0,2,8.851
5790,185.28,1.1019,5.3211,0.3254,-0.3108,0.0325,3.1260,rough,14.0,2,8.851
5800,185.60,1.1019,5.3212,0.3255,-0.3108,0.0325,3.1260,rough,14.0,2,8.851
5810,185.92,1.1019,5.3212,0.3255,-0.3108,0.0325,3.1260,rough,14.0,2,8.851
5820,186.24,1.1019,5.3213,0.3255,-0.3108,0.0325,3.1260,rough,14.0,2,8.851
5830,186.56,1.1019,5.3213,0.3255,-0.3108,0.0325,3.1260,rough,14.0,2,8.851
5840,186.88,1.1019,5.3213,0.3255,-0.3108,0.0325,3.1260,rough,14.0,2,8.851
5850,187.20,1.1019,5.3214,0.3255,-0.3109,0.0325,3.1260,rough,14.0,2,8.851
5860,187.52,1.1019,5.3214,0.3255,-0.3109,0.0325,3.1260,rough,14.0,2,8.851
5870,187.84,1.1019,5.3214,0.3255,-0.3109,0.0326,3.1260,rough,14.0,2,8.851
5880,188.16,1.1019,5.3215,0.3255,-0.3109,0.0326,3.1260,rough,14.0,2,8.851
5890,188.48,1.1019,5.3215,0.3255,-0.3109,0.0326,3.1260,rough,14.0,2,8.851
5900,188.80,1.1019,5.3215,0.3256,-0.3109,0.0326,3.1260,rough,14.0,2,8.851
5910,189.12,1.1019,5.3216,0.3256,-0.3109,0.0326,3.1260,rough,14.0,2,8.851
5920,189.44,1.1019,5.3216,0.3256,-0.3109,0.0326,3.1260,rough,14.0,2,8.851
5930,189.76,1.1019,5.3216,0.3256,-0.3109,0.0326,3.1260,rough,14.0,2,8.851
5940,190.08,1.1021,5.3217,0.3256,-0.3109,0.0326,3.1260,rough,14.0,2,8.851
5950,190.40,1.1024,5.3217,0.3256,-0.3109,0.0327,3.1260,rough,14.0,2,8.852
5960,190.72,1.1029,5.3217,0.3256,-0.3109,0.0328,3.1260,rough,14.0,2,8.852
5970,191.04,1.1031,5.3217,0.3257,-0.3109,0.0328,3.1261,rough,14.0,2,8.852
5980,191.36,1.1031,5.3217,0.3257,-0.3109,0.0328,3.1261,rough,14.0,2,8.852
5990,191.68,1.1031,5.3217,0.3257,-0.3109,0.0328,3.1261,rough,14.0,2,8.852
6000,192.00,1.1031,5.3217,0.3257,-0.3109,0.0328,3.1261,rough,14.0,2,8.852
6010,192.32,1.1031,5.3217,0.3257,-0.3109,0.0328,3.1261,rough,14.0,2,8.852
6020,192.64,1.1031,5.3217,0.3257,-0.3109,0.0328,3.1261,rough,14.0,2,8.852
6030,192.96,1.1031,5.3217,0.3257,-0.3109,0.0327,3.1261,rough,14.0,2,8.852
6040,193.28,1.1031,5.3217,0.3257,-0.3109,0.0327,3.1261,rough,14.0,2,8.852
6050,193.60,1.1031,5.3217,0.3257,-0.3109,0.0327,3.1261,rough,14.0,2,8.852
6060,193.92,1.1031,5.3217,0.3257,-0.3109,0.0327,3.1261,rough,14.0,2,8.852
6070,194.24,1.1031,5.3217,0.3257,-0.3109,0.0327,3.1261,rough,14.0,2,8.852
6080,194.56,1.1031,5.3217,0.3257,-0.3109,0.0327,3.1261,rough,14.0,2,8.852
6090,194.88,1.1031,5.3217,0.3257,-0.3110,0.0327,3.1261,rough,14.0,2,8.852
6100,195.20,1.1031,5.3217,0.3257,-0.3110,0.0327,3.1261,rough,14.0,2,8.852
6110,195.52,1.1031,5.3217,0.3257,-0.3110,0.0327,3.1261,rough,14.0,2,8.852
6120,195.84,1.1031,5.3217,0.3257,-0.3110,0.0327,3.1261,rough,14.0,2,8.852
6130,196.16,1.1031,5.3217,0.3257,-0.3110,0.0327,3.1261,rough,14.0,2,8.852
6140,196.48,1.1031,5.3217,0.3257,-0.3110,0.0327,3.1261,rough,14.0,2,8.852
6150,196.80,1.1031,5.3217,0.3257,-0.3110,0.0327,3.1261,rough,14.0,2,8.852
6160,197.12,1.1031,5.3217,0.3257,-0.3110,0.0327,3.1261,rough,14.0,2,8.852
6170,197.44,1.1031,5.3217,0.3257,-0.3110,0.0327,3.1261,rough,14.0,2,8.852
6180,197.76,1.1031,5.3217,0.3257,-0.3110,0.0327,3.1261,rough,14.0,2,8.852
6190,198.08,1.1031,5.3217,0.3257,-0.3110,0.0327,3.1261,rough,14.0,2,8.852
6200,198.40,1.1031,5.3217,0.3257,-0.3110,0.0326,3.1261,rough,14.0,2,8.852
6210,198.72,1.1031,5.3217,0.3257,-0.3110,0.0326,3.1261,rough,14.0,2,8.852
6220,199.04,1.1031,5.3217,0.3257,-0.3110,0.0326,3.1261,rough,14.0,2,8.852
6230,199.36,1.1031,5.3217,0.3257,-0.3110,0.0326,3.1261,rough,14.0,2,8.852
6240,199.68,1.1031,5.3216,0.3257,-0.3110,0.0326,3.1261,rough,14.0,2,8.852
6250,200.00,1.1031,5.3216,0.3257,-0.3110,0.0326,3.1261,rough,14.0,2,8.852
6260,200.32,1.1031,5.3216,0.3257,-0.3110,0.0326,3.1261,rough,14.0,2,8.852
6270,200.64,1.1031,5.3216,0.3257,-0.3110,0.0326,3.1261,rough,14.0,2,8.852
6280,200.96,1.1031,5.3216,0.3257,-0.3110,0.0326,3.1261,rough,14.0,2,8.852
6290,201.28,1.1031,5.3216,0.3257,-0.3110,0.0326,3.1261,rough,14.0,2,8.852
6300,201.60,1.1031,5.3216,0.3257,-0.3110,0.0326,3.1261,rough,14.0,2,8.852
6310,201.92,1.1031,5.3216,0.3257,-0.3110,0.0326,3.1261,rough,14.0,2,8.852
6320,202.24,1.1031,5.3216,0.3257,-0.3110,0.0326,3.1261,rough,14.0,2,8.852
6330,202.56,1.1031,5.3216,0.3257,-0.3110,0.0326,3.1261,rough,14.0,2,8.852
6340,202.88,1.1031,5.3216,0.3257,-0.3110,0.0326,3.1261,rough,14.0,2,8.852
6350,203.20,1.1031,5.3216,0.3257,-0.3110,0.0326,3.1261,rough,14.0,2,8.852
6360,203.52,1.1031,5.3216,0.3257,-0.3110,0.0326,3.1261,rough,14.0,2,8.852
6370,203.84,1.1031,5.3216,0.3257,-0.3110,0.0326,3.1261,rough,14.0,2,8.852
6380,204.16,1.1031,5.3216,0.3257,-0.3110,0.0326,3.1261,rough,14.0,2,8.852
6390,204.48,1.1031,5.3216,0.3257,-0.3110,0.0326,3.1261,rough,14.0,2,8.852
6400,204.80,1.1031,5.3216,0.3257,-0.3110,0.0326,3.1261,rough,14.0,2,8.852
6410,205.12,1.1031,5.3216,0.3257,-0.3110,0.0326,3.1261,rough,14.0,2,8.852
6420,205.44,1.1031,5.3216,0.3257,-0.3110,0.0326,3.1261,rough,14.0,2,8.852
6430,205.76,1.1031,5.3216,0.3257,-0.3110,0.0326,3.1261,rough,14.0,2,8.852
6440,206.08,1.1031,5.3216,0.3257,-0.3110,0.0326,3.1261,rough,14.0,2,8.852
6450,206.40,1.1031,5.3216,0.3257,-0.3110,0.0326,3.1261,rough,14.0,2,8.852
6460,206.72,1.1031,5.3216,0.3257,-0.3110,0.0326,3.1261,rough,14.0,2,8.852
6470,207.04,1.1031,5.3216,0.3257,-0.3110,0.0326,3.1261,rough,14.0,2,8.852
6480,207.36,1.1031,5.3216,0.3257,-0.3110,0.0326,3.1261,rough,14.0,2,8.852
6490,207.68,1.1031,5.3216,0.3257,-0.3110,0.0326,3.1261,rough,14.0,2,8.852
6500,208.00,1.1031,5.3216,0.3257,-0.3110,0.0326,3.1261,rough,14.0,2,8.852
6510,208.32,1.1031,5.3216,0.3257,-0.3110,0.0326,3.1261,rough,14.0,2,8.852
6520,208.64,1.1031,5.3216,0.3257,-0.3110,0.0326,3.1261,rough,14.0,2,8.852
6530,208.96,1.1031,5.3216,0.3257,-0.3110,0.0326,3.1261,rough,14.0,2,8.852
6540,209.28,1.1031,5.3216,0.3257,-0.3110,0.0326,3.1261,rough,14.0,2,8.852
6550,209.60,1.1031,5.3216,0.3257,-0.3110,0.0326,3.1261,rough,14.0,2,8.852
6560,209.92,1.1031,5.3216,0.3257,-0.3110,0.0326,3.1261,rough,14.0,2,8.852
6570,210.24,1.1031,5.3216,0.3257,-0.3110,0.0326,3.1261,rough,14.0,2,8.852
6580,210.56,1.1031,5.3216,0.3257,-0.3110,0.0326,3.1261,rough,14.0,2,8.852
6590,210.88,1.1031,5.3216,0.3257,-0.3110,0.0326,3.1261,rough,14.0,2,8.852
6600,211.20,1.1031,5.3216,0.3257,-0.3110,0.0326,3.1261,rough,14.0,2,8.852
6610,211.52,1.1031,5.3216,0.3257,-0.3110,0.0326,3.1261,rough,14.0,2,8.852
6620,211.84,1.1031,5.3216,0.3257,-0.3110,0.0326,3.1261,rough,14.0,2,8.852
6630,212.16,1.1031,5.3216,0.3257,-0.3110,0.0326,3.1261,rough,14.0,2,8.852
6640,212.48,1.1031,5.3216,0.3257,-0.3110,0.0326,3.1261,rough,14.0,2,8.852
6650,212.80,1.1031,5.3216,0.3257,-0.3110,0.0326,3.1261,rough,14.0,2,8.852
6660,213.12,1.1031,5.3216,0.3257,-0.3110,0.0326,3.1261,rough,14.0,2,8.852
6670,213.44,1.1031,5.3216,0.3257,-0.3110,0.0326,3.1261,rough,14.0,2,8.852
6680,213.76,1.1031,5.3216,0.3257,-0.3110,0.0326,3.1261,rough,14.0,2,8.852
6690,214.08,1.1031,5.3216,0.3257,-0.3110,0.0326,3.1261,rough,14.0,2,8.852
6700,214.40,1.1031,5.3216,0.3257,-0.3110,0.0326,3.1261,rough,14.0,2,8.852
6710,214.72,1.1031,5.3216,0.3257,-0.3110,0.0326,3.1261,rough,14.0,2,8.852
6720,215.04,1.1031,5.3216,0.3257,-0.3110,0.0326,3.1261,rough,14.0,2,8.852
6730,215.36,1.1031,5.3216,0.3257,-0.3110,0.0326,3.1261,rough,14.0,2,8.852
6740,215.68,1.1031,5.3216,0.3257,-0.3110,0.0326,3.1261,rough,14.0,2,8.852
6750,216.00,1.1031,5.3216,0.3257,-0.3110,0.0326,3.1261,rough,14.0,2,8.852
6760,216.32,1.1031,5.3216,0.3257,-0.3110,0.0326,3.1261,rough,14.0,2,8.852
6770,216.64,1.1031,5.3216,0.3257,-0.3110,0.0326,3.1261,rough,14.0,2,8.852
6780,216.96,1.1031,5.3216,0.3257,-0.3110,0.0326,3.1261,rough,14.0,2,8.852
6790,217.28,1.1031,5.3216,0.3257,-0.3110,0.0326,3.1261,rough,14.0,2,8.852
6800,217.60,1.1031,5.3216,0.3257,-0.3110,0.0326,3.1261,rough,14.0,2,8.852
6810,217.92,1.1031,5.3216,0.3257,-0.3110,0.0326,3.1261,rough,14.0,2,8.852
6820,218.24,1.1031,5.3216,0.3256,-0.3110,0.0326,3.1261,rough,14.0,2,8.852
6830,218.56,1.1031,5.3216,0.3256,-0.3110,0.0326,3.1261,rough,14.0,2,8.852
6840,218.88,1.1031,5.3216,0.3256,-0.3110,0.0326,3.1261,rough,14.0,2,8.852
6850,219.20,1.1031,5.3216,0.3256,-0.3110,0.0326,3.1261,rough,14.0,2,8.852
6860,219.52,1.1031,5.3216,0.3256,-0.3110,0.0326,3.1261,rough,14.0,2,8.852
6870,219.84,1.1031,5.3216,0.3256,-0.3110,0.0326,3.1261,rough,14.0,2,8.852
6880,220.16,1.1031,5.3216,0.3256,-0.3110,0.0326,3.1261,rough,14.0,2,8.852
6890,220.48,1.1031,5.3216,0.3256,-0.3110,0.0326,3.1261,rough,14.0,2,8.852
6900,220.80,1.1031,5.3216,0.3256,-0.3110,0.0326,3.1261,rough,14.0,2,8.852
6910,221.12,1.1031,5.3216,0.3256,-0.3110,0.0326,3.1261,rough,14.0,2,8.852
6920,221.44,1.1031,5.3216,0.3256,-0.3110,0.0326,3.1261,rough,14.0,2,8.852
6930,221.76,1.1031,5.3216,0.3256,-0.3110,0.0326,3.1261,rough,14.0,2,8.852
6940,222.08,1.1031,5.3216,0.3256,-0.3110,0.0326,3.1261,rough,14.0,2,8.852
6950,222.40,1.1031,5.3216,0.3256,-0.3110,0.0326,3.1261,rough,14.0,2,8.852
6960,222.72,1.1031,5.3216,0.3256,-0.3109,0.0326,3.1261,rough,14.0,2,8.852
6970,223.04,1.1031,5.3216,0.3256,-0.3109,0.0326,3.1261,rough,14.0,2,8.852
6980,223.36,1.1031,5.3216,0.3256,-0.3109,0.0326,3.1261,rough,14.0,2,8.852
6990,223.68,1.1031,5.3216,0.3256,-0.3109,0.0326,3.1261,rough,14.0,2,8.852
7000,224.00,1.1031,5.3216,0.3256,-0.3109,0.0326,3.1261,rough,14.0,2,8.852
7010,224.32,1.1031,5.3216,0.3256,-0.3109,0.0326,3.1261,rough,14.0,2,8.852
7020,224.64,1.1031,5.3216,0.3256,-0.3109,0.0326,3.1261,rough,14.0,2,8.852
7030,224.96,1.1031,5.3216,0.3256,-0.3109,0.0326,3.1261,rough,14.0,2,8.852
7040,225.28,1.1031,5.3216,0.3256,-0.3109,0.0326,3.1261,rough,14.0,2,8.852
7050,225.60,1.1031,5.3216,0.3256,-0.3109,0.0326,3.1261,rough,14.0,2,8.852
7060,225.92,1.1031,5.3216,0.3256,-0.3109,0.0326,3.1261,rough,14.0,2,8.852
7070,226.24,1.1031,5.3216,0.3256,-0.3109,0.0326,3.1261,rough,14.0,2,8.852
7080,226.56,1.1031,5.3216,0.3256,-0.3109,0.0326,3.1261,rough,14.0,2,8.852
7090,226.88,1.1031,5.3215,0.3256,-0.3109,0.0326,3.1261,rough,14.0,2,8.852
7100,227.20,1.1031,5.3215,0.3256,-0.3109,0.0326,3.1261,rough,14.0,2,8.852
7110,227.52,1.1031,5.3215,0.3256,-0.3109,0.0326,3.1261,rough,14.0,2,8.852
7120,227.84,1.1031,5.3215,0.3256,-0.3109,0.0326,3.1261,rough,14.0,2,8.852
7130,228.16,1.1031,5.3215,0.3256,-0.3109,0.0326,3.1261,rough,14.0,2,8.852
7140,228.48,1.1031,5.3215,0.3256,-0.3109,0.0326,3.1261,rough,14.0,2,8.852
7150,228.80,1.1031,5.3215,0.3256,-0.3109,0.0326,3.1261,rough,14.0,2,8.852
7160,229.12,1.1031,5.3215,0.3256,-0.3109,0.0326,3.1261,rough,14.0,2,8.852
7170,229.44,1.1031,5.3215,0.3256,-0.3109,0.0326,3.1261,rough,14.0,2,8.852
7180,229.76,1.1031,5.3215,0.3256,-0.3109,0.0326,3.1261,rough,14.0,2,8.852
7190,230.08,1.1031,5.3215,0.3256,-0.3109,0.0326,3.1261,rough,14.0,2,8.852
7200,230.40,1.1031,5.3215,0.3256,-0.3109,0.0326,3.1261,rough,14.0,2,8.852
7210,230.72,1.1031,5.3215,0.3256,-0.3109,0.0326,3.1261,rough,14.0,2,8.852
7220,231.04,1.1031,5.3215,0.3256,-0.3109,0.0326,3.1261,rough,14.0,2,8.852
7230,231.36,1.1031,5.3215,0.3256,-0.3109,0.0326,3.1261,rough,14.0,2,8.852
7240,231.68,1.1031,5.3215,0.3256,-0.3109,0.0326,3.1261,rough,14.0,2,8.852
7250,232.00,1.1031,5.3215,0.3256,-0.3109,0.0326,3.1261,rough,14.0,2,8.852
7260,232.32,1.1031,5.3215,0.3256,-0.3109,0.0326,3.1261,rough,14.0,2,8.852
7270,232.64,1.1031,5.3215,0.3256,-0.3109,0.0326,3.1261,rough,14.0,2,8.852
7280,232.96,1.1031,5.3215,0.3256,-0.3109,0.0326,3.1261,rough,14.0,2,8.852
7290,233.28,1.1031,5.3215,0.3256,-0.3109,0.0326,3.1261,rough,14.0,2,8.852
7300,233.60,1.1031,5.3215,0.3256,-0.3109,0.0326,3.1261,rough,14.0,2,8.852
7310,233.92,1.1031,5.3215,0.3256,-0.3109,0.0326,3.1261,rough,14.0,2,8.852
7320,234.24,1.1031,5.3215,0.3256,-0.3109,0.0326,3.1261,rough,14.0,2,8.852
7330,234.56,1.1031,5.3215,0.3256,-0.3109,0.0326,3.1261,rough,14.0,2,8.852
7340,234.88,1.1031,5.3215,0.3256,-0.3109,0.0326,3.1261,rough,14.0,2,8.852
7350,235.20,1.1031,5.3215,0.3256,-0.3109,0.0326,3.1261,rough,14.0,2,8.852
7360,235.52,1.1031,5.3215,0.3256,-0.3109,0.0326,3.1261,rough,14.0,2,8.852
7370,235.84,1.1031,5.3215,0.3256,-0.3109,0.0326,3.1261,rough,14.0,2,8.852
7380,236.16,1.1031,5.3215,0.3256,-0.3109,0.0326,3.1261,rough,14.0,2,8.852
7390,236.48,1.1031,5.3215,0.3256,-0.3109,0.0326,3.1261,rough,14.0,2,8.852
7400,236.80,1.1031,5.3215,0.3256,-0.3109,0.0326,3.1261,rough,14.0,2,8.852
7410,237.12,1.1031,5.3215,0.3256,-0.3109,0.0326,3.1261,rough,14.0,2,8.852
7420,237.44,1.1031,5.3215,0.3256,-0.3109,0.0326,3.1261,rough,14.0,2,8.852
7430,237.76,1.1031,5.3215,0.3256,-0.3109,0.0326,3.1261,rough,14.0,2,8.852
7440,238.08,1.1031,5.3215,0.3256,-0.3109,0.0326,3.1261,rough,14.0,2,8.852
7450,238.40,1.1031,5.3215,0.3256,-0.3109,0.0326,3.1261,rough,14.0,2,8.852
7460,238.72,1.1031,5.3215,0.3256,-0.3109,0.0326,3.1261,rough,14.0,2,8.852
7470,239.04,1.1031,5.3215,0.3256,-0.3109,0.0326,3.1261,rough,14.0,2,8.852
7480,239.36,1.1031,5.3215,0.3256,-0.3109,0.0326,3.1261,rough,14.0,2,8.852
7490,239.68,1.1031,5.3215,0.3256,-0.3109,0.0326,3.1261,rough,14.0,2,8.852
7500,240.00,1.1031,5.3215,0.3256,-0.3109,0.0326,3.1261,rough,14.0,2,8.852
7510,240.32,1.1031,5.3215,0.3256,-0.3109,0.0326,3.1261,rough,14.0,2,8.852
7520,240.64,1.1031,5.3215,0.3256,-0.3109,0.0326,3.1261,rough,14.0,2,8.852
7530,240.96,1.1031,5.3215,0.3256,-0.3109,0.0326,3.1261,rough,14.0,2,8.852
7540,241.28,1.1031,5.3215,0.3256,-0.3109,0.0326,3.1261,rough,14.0,2,8.852
7550,241.60,1.1031,5.3215,0.3256,-0.3109,0.0326,3.1261,rough,14.0,2,8.852
7560,241.92,1.1031,5.3215,0.3256,-0.3109,0.0326,3.1261,rough,14.0,2,8.852
7570,242.24,1.1031,5.3215,0.3256,-0.3109,0.0326,3.1261,rough,14.0,2,8.852
7580,242.56,1.1031,5.3215,0.3256,-0.3109,0.0326,3.1261,rough,14.0,2,8.852
7590,242.88,1.1031,5.3215,0.3256,-0.3109,0.0326,3.1261,rough,14.0,2,8.852
7600,243.20,1.1031,5.3215,0.3256,-0.3109,0.0326,3.1261,rough,14.0,2,8.852
7610,243.52,1.1031,5.3215,0.3256,-0.3109,0.0326,3.1261,rough,14.0,2,8.852
7620,243.84,1.1031,5.3215,0.3256,-0.3109,0.0326,3.1261,rough,14.0,2,8.852
7630,244.16,1.1031,5.3215,0.3256,-0.3109,0.0326,3.1261,rough,14.0,2,8.852
7640,244.48,1.1031,5.3215,0.3256,-0.3109,0.0326,3.1261,rough,14.0,2,8.852
7650,244.80,1.1031,5.3215,0.3256,-0.3109,0.0326,3.1261,rough,14.0,2,8.852
7660,245.12,1.1031,5.3215,0.3256,-0.3109,0.0326,3.1261,rough,14.0,2,8.852
7670,245.44,1.1031,5.3215,0.3256,-0.3109,0.0326,3.1261,rough,14.0,2,8.852
7680,245.76,1.1031,5.3215,0.3256,-0.3109,0.0326,3.1261,rough,14.0,2,8.852
7690,246.08,1.1031,5.3215,0.3256,-0.3109,0.0326,3.1261,rough,14.0,2,8.852
7700,246.40,1.1031,5.3215,0.3256,-0.3109,0.0326,3.1261,rough,14.0,2,8.852
7710,246.72,1.1031,5.3215,0.3256,-0.3109,0.0326,3.1261,rough,14.0,2,8.852
7720,247.04,1.1031,5.3215,0.3256,-0.3109,0.0326,3.1261,rough,14.0,2,8.852
7730,247.36,1.1031,5.3215,0.3256,-0.3109,0.0326,3.1261,rough,14.0,2,8.852
7740,247.68,1.1031,5.3215,0.3256,-0.3109,0.0326,3.1261,rough,14.0,2,8.852
7750,248.00,1.1031,5.3215,0.3256,-0.3109,0.0326,3.1261,rough,14.0,2,8.852
7760,248.32,1.1031,5.3215,0.3256,-0.3109,0.0326,3.1261,rough,14.0,2,8.852
7770,248.64,1.1031,5.3215,0.3256,-0.3109,0.0326,3.1261,rough,14.0,2,8.852
7780,248.96,1.1031,5.3215,0.3256,-0.3109,0.0326,3.1261,rough,14.0,2,8.852
7790,249.28,1.1031,5.3215,0.3256,-0.3109,0.0326,3.1261,rough,14.0,2,8.852
7800,249.60,1.1031,5.3215,0.3256,-0.3109,0.0326,3.1261,rough,14.0,2,8.852
7810,249.92,1.1031,5.3215,0.3256,-0.3109,0.0326,3.1261,rough,14.0,2,8.852
7820,250.24,1.1031,5.3215,0.3256,-0.3109,0.0326,3.1261,rough,14.0,2,8.852
7830,250.56,1.1031,5.3215,0.3256,-0.3109,0.0326,3.1261,rough,14.0,2,8.852
7840,250.88,1.1031,5.3215,0.3256,-0.3109,0.0326,3.1261,rough,14.0,2,8.852
7850,251.20,1.1031,5.3215,0.3256,-0.3109,0.0326,3.1261,rough,14.0,2,8.852
7860,251.52,1.1031,5.3215,0.3256,-0.3109,0.0326,3.1261,rough,14.0,2,8.852
7870,251.84,1.1031,5.3215,0.3256,-0.3109,0.0326,3.1261,rough,14.0,2,8.852
7880,252.16,1.1031,5.3215,0.3256,-0.3109,0.0326,3.1261,rough,14.0,2,8.852
7890,252.48,1.1031,5.3215,0.3256,-0.3109,0.0326,3.1261,rough,14.0,2,8.852
7900,252.80,1.1031,5.3215,0.3256,-0.3109,0.0326,3.1261,rough,14.0,2,8.852
7910,253.12,1.1031,5.3215,0.3256,-0.3109,0.0326,3.1261,rough,14.0,2,8.852
7920,253.44,1.1031,5.3215,0.3256,-0.3109,0.0326,3.1261,rough,14.0,2,8.852
7930,253.76,1.1031,5.3215,0.3256,-0.3109,0.0326,3.1261,rough,14.0,2,8.852
7940,254.08,1.1031,5.3215,0.3256,-0.3109,0.0326,3.1261,rough,14.0,2,8.852
7950,254.40,1.1031,5.3215,0.3256,-0.3109,0.0326,3.1261,rough,14.0,2,8.852
7960,254.72,1.1031,5.3215,0.3256,-0.3109,0.0326,3.1261,rough,14.0,2,8.852
7970,255.04,1.1031,5.3215,0.3256,-0.3109,0.0326,3.1261,rough,14.0,2,8.852
7980,255.36,1.1031,5.3215,0.3256,-0.3109,0.0326,3.1261,rough,14.0,2,8.852
7990,255.68,1.1031,5.3215,0.3256,-0.3109,0.0326,3.1261,rough,14.0,2,8.852
8000,256.00,1.1031,5.3215,0.3256,-0.3109,0.0326,3.1261,rough,14.0,2,8.852
8010,256.32,1.1031,5.3215,0.3256,-0.3109,0.0326,3.1261,rough,14.0,2,8.852
8020,256.64,1.1031,5.3215,0.3256,-0.3109,0.0326,3.1261,rough,14.0,2,8.852
8030,256.96,1.1031,5.3215,0.3256,-0.3109,0.0326,3.1261,rough,14.0,2,8.852
8040,257.28,1.1031,5.3215,0.3256,-0.3109,0.0326,3.1261,rough,14.0,2,8.852
8050,257.60,1.1031,5.3215,0.3256,-0.3109,0.0326,3.1261,rough,14.0,2,8.852
8060,257.92,1.1031,5.3215,0.3256,-0.3109,0.0326,3.1261,rough,14.0,2,8.852
8070,258.24,1.1031,5.3215,0.3256,-0.3109,0.0326,3.1261,rough,14.0,2,8.852
8080,258.56,1.1031,5.3215,0.3256,-0.3109,0.0326,3.1261,rough,14.0,2,8.852
8090,258.88,1.1031,5.3215,0.3256,-0.3109,0.0326,3.1261,rough,14.0,2,8.852
8100,259.20,1.1031,5.3215,0.3256,-0.3109,0.0326,3.1261,rough,14.0,2,8.852
8110,259.52,1.1031,5.3215,0.3256,-0.3109,0.0326,3.1261,rough,14.0,2,8.852
8120,259.84,1.1031,5.3215,0.3256,-0.3109,0.0326,3.1261,rough,14.0,2,8.852
