step,time_s,x,y,z,roll,pitch,yaw,terrain,speed,target_idx,dist_to_target
10,0.32,1.0676,-0.7750,0.1839,-0.0000,-0.0307,-0.0000,rough,14.0,0,5.685
20,0.64,1.4643,-0.7814,0.1799,0.0003,-0.0002,-0.1525,rough,14.0,0,5.389
30,0.96,1.8689,-0.8520,0.1799,-0.0001,0.0000,-0.2897,rough,14.0,0,5.054
40,1.28,2.2655,-0.9803,0.1799,-0.0001,-0.0000,-0.4058,rough,14.0,0,4.692
50,1.60,2.6487,-1.1562,0.1799,-0.0000,-0.0000,-0.5006,rough,14.0,0,4.311
60,1.92,3.0199,-1.3702,0.1799,-0.0002,-0.0000,-0.5684,rough,14.0,0,3.915
70,2.24,3.3792,-1.6091,0.1799,-0.0002,-0.0000,-0.6244,rough,14.0,0,3.513
80,2.56,3.7231,-1.8682,0.1799,-0.0002,-0.0000,-0.6827,rough,14.0,0,3.109
90,2.88,4.0496,-2.1473,0.1799,-0.0002,0.0000,-0.7435,rough,14.0,0,2.704
100,3.20,4.3565,-2.4462,0.1799,-0.0002,-0.0000,-0.8076,rough,14.0,0,2.298
110,3.52,4.6427,-2.7648,0.1799,-0.0002,-0.0000,-0.8725,rough,14.0,0,1.891
120,3.84,4.9076,-3.1013,0.1799,-0.0002,-0.0000,-0.9451,rough,14.0,0,1.485
130,4.16,5.1489,-3.4534,0.1807,0.0015,-0.0041,-1.0380,rough,14.0,0,1.085
140,4.48,5.3288,-3.7913,0.1980,0.0560,-0.0483,-1.0957,rough,14.0,1,12.095
150,4.80,5.4083,-3.8959,0.1999,-0.0012,-0.1321,-0.5267,rough,14.0,1,12.221
160,5.12,5.5529,-4.0046,0.2262,0.0074,-0.1932,-0.2057,rough,14.0,1,12.375
170,5.44,5.7767,-4.0303,0.2742,-0.0752,-0.2393,0.1445,rough,14.0,1,12.482
180,5.76,5.9373,-3.9768,0.3090,-0.1588,-0.2745,0.3041,rough,14.0,1,12.495
190,6.08,6.1405,-3.8770,0.3631,-0.1893,-0.2274,0.5671,rough,14.0,1,12.486
200,6.40,6.3099,-3.7065,0.4044,-0.2243,-0.1964,0.7694,rough,14.0,1,12.402
210,6.72,6.4833,-3.4545,0.4422,-0.3074,-0.1211,0.9392,rough,14.0,1,12.251
220,7.04,6.6407,-3.1370,0.4459,-0.3731,0.0117,1.0786,rough,14.0,1,12.040
230,7.36,6.7802,-2.7725,0.4170,-0.3971,0.1164,1.1983,rough,14.0,1,11.786
240,7.68,6.8783,-2.3958,0.3546,-0.3901,0.1639,1.3321,rough,14.0,1,11.509
250,8.00,6.9319,-1.9962,0.2845,-0.3945,0.1605,1.4524,rough,14.0,1,11.195
260,8.32,6.9511,-1.6184,0.2435,-0.3748,0.0159,1.6204,rough,14.0,1,10.886
270,8.64,6.9372,-1.1995,0.2218,-0.2231,0.0104,1.7132,rough,14.0,1,10.530
280,8.96,6.8776,-0.7754,0.2017,-0.1057,0.0101,1.7850,rough,14.0,1,10.147
290,9.28,6.7852,-0.3508,0.1812,0.0044,0.0154,1.8443,rough,14.0,1,9.749
300,9.60,6.6560,0.0641,0.1778,0.0104,0.0003,1.8906,rough,14.0,1,9.339
310,9.92,6.5087,0.4753,0.1796,0.0012,0.0000,1.9374,rough,14.0,1,8.923
320,10.24,6.3479,0.8821,0.1798,0.0002,0.0000,1.9779,rough,14.0,1,8.504
330,10.56,6.1707,1.2834,0.1799,0.0001,-0.0000,2.0127,rough,14.0,1,8.081
340,10.88,5.9794,1.6788,0.1799,0.0001,-0.0000,2.0415,rough,14.0,1,7.656
350,11.20,5.7767,2.0693,0.1799,0.0001,-0.0000,2.0669,rough,14.0,1,7.227
360,11.52,5.5639,2.4551,0.1799,0.0001,-0.0000,2.0900,rough,14.0,1,6.798
370,11.84,5.3422,2.8366,0.1799,0.0001,-0.0000,2.1111,rough,14.0,1,6.366
380,12.16,5.1146,3.2078,0.1837,0.0012,-0.0281,2.1294,rough,14.0,1,5.940
390,12.48,4.8609,3.5581,0.1940,-0.1047,-0.0374,2.1337,rough,14.0,1,5.512
400,12.80,4.6492,3.8383,0.2397,-0.1050,-0.3010,2.1777,rough,14.0,1,5.163
410,13.12,4.3223,4.1407,0.2771,-0.5049,-0.0794,2.2174,rough,14.0,1,4.718
420,13.44,4.0860,4.3752,0.3108,-0.4964,-0.2779,2.2786,rough,14.0,1,4.386
430,13.76,3.7941,4.6732,0.3587,-0.5207,-0.1972,2.2459,rough,14.0,1,3.968
440,14.08,3.5034,4.9563,0.4264,-0.6008,-0.2862,2.2921,rough,14.0,1,3.563
450,14.40,3.2164,5.1867,0.4981,-0.5554,-0.2874,2.3060,rough,14.0,1,3.198
460,14.72,2.9306,5.4438,0.6242,-0.6140,-0.3697,2.3664,rough,14.0,1,2.815
470,15.04,2.6283,5.7013,0.7430,-0.5696,-0.2975,2.3221,rough,14.0,1,2.421
480,15.36,2.3348,5.9711,0.8589,-0.6032,-0.3385,2.3237,rough,14.0,1,2.025
490,15.68,2.0445,6.2483,0.9535,-0.6095,-0.3122,2.2830,rough,14.0,1,1.626
500,16.00,1.7734,6.5471,1.0939,-0.6138,-0.3723,2.3056,rough,14.0,1,1.223
510,16.32,1.5105,6.8510,1.2368,-0.5554,-0.3814,2.2697,rough,14.0,1,0.822
520,16.64,1.2808,6.9872,1.2924,-0.6651,-0.2018,2.6566,rough,14.0,2,15.028
530,16.96,1.0465,7.0029,1.2578,-0.6668,0.0762,3.0353,rough,14.0,2,14.898
540,17.28,0.7809,6.9501,1.1711,-0.5795,0.2827,-2.9528,rough,14.0,2,14.698
550,17.60,0.4931,6.8130,1.0496,-0.4564,0.3905,-2.6720,rough,14.0,2,14.418
560,17.92,0.2304,6.6115,0.9027,-0.3916,0.3935,-2.4677,rough,14.0,2,14.102
570,18.24,-0.0314,6.3759,0.7621,-0.3212,0.4056,-2.2796,rough,14.0,2,13.758
580,18.56,-0.2354,6.0671,0.5960,-0.2515,0.4178,-2.1257,rough,14.0,2,13.389
590,18.88,-0.4115,5.7218,0.4256,-0.1630,0.4319,-2.0057,rough,14.0,2,13.005
600,19.20,-0.5440,5.3747,0.2760,-0.1059,0.3519,-1.8881,rough,14.0,2,12.645
610,19.52,-0.6747,5.0188,0.2037,-0.0435,0.0972,-1.9242,rough,14.0,2,12.280
620,19.84,-0.8296,4.6248,0.1813,-0.0068,0.0026,-1.9580,rough,14.0,2,11.870
630,20.16,-1.0014,4.2251,0.1796,0.0008,0.0003,-2.0027,rough,14.0,2,11.447
640,20.48,-1.1881,3.8313,0.1806,0.0007,-0.0050,-2.0411,rough,14.0,2,11.021
650,20.80,-1.3902,3.4412,0.1796,-0.0036,0.0011,-2.0768,rough,14.0,2,10.589
660,21.12,-1.6115,3.0635,0.1814,0.0019,0.0086,-2.1218,rough,14.0,2,10.155
670,21.44,-1.8424,2.6973,0.1779,0.0003,-0.0131,-2.1615,rough,14.0,2,9.724
680,21.76,-2.0883,2.3410,0.1854,0.0013,-0.0373,-2.1888,rough,14.0,2,9.292
690,22.08,-2.3501,1.9980,0.2031,0.0500,-0.0654,-2.2153,rough,14.0,2,8.861
700,22.40,-2.6198,1.6406,0.2174,0.0213,-0.0093,-2.2459,rough,14.0,2,8.414
710,22.72,-2.9056,1.2951,0.2078,0.0298,0.0446,-2.2725,rough,14.0,2,7.965
720,23.04,-3.1946,0.9589,0.1887,0.0097,0.0478,-2.2977,rough,14.0,2,7.522
730,23.36,-3.4813,0.6417,0.1841,-0.0001,-0.0271,-2.3252,rough,14.0,2,7.095
740,23.68,-3.7812,0.3290,0.1998,0.0113,-0.0499,-2.3508,rough,14.0,2,6.664
750,24.00,-4.0910,0.0177,0.2225,-0.0038,-0.0437,-2.3762,rough,14.0,2,6.228
760,24.32,-4.4169,-0.2923,0.2235,-0.0213,0.0135,-2.3990,rough,14.0,2,5.784
770,24.64,-4.7501,-0.5908,0.2050,-0.0116,0.0554,-2.4244,rough,14.0,2,5.346
780,24.96,-5.0738,-0.8729,0.1904,0.0070,0.0245,-2.4218,rough,14.0,2,4.928
790,25.28,-5.3869,-1.1629,0.1899,-0.0118,-0.0164,-2.3880,rough,14.0,2,4.512
800,25.60,-5.6951,-1.4533,0.2100,-0.0028,-0.0652,-2.3571,rough,14.0,2,4.101
810,25.92,-6.0015,-1.7608,0.2307,0.0167,-0.0433,-2.3256,rough,14.0,2,3.678
820,26.24,-6.3009,-2.0973,0.2224,-0.0205,0.0325,-2.2965,rough,14.0,2,3.236
830,26.56,-6.5903,-2.4312,0.1983,-0.0035,0.0559,-2.2632,rough,14.0,2,2.805
840,26.88,-6.8567,-2.7659,0.1833,-0.0116,0.0091,-2.2263,rough,14.0,2,2.386
850,27.20,-7.1124,-3.1082,0.1915,-0.0161,-0.0386,-2.1866,rough,14.0,2,1.968
860,27.52,-7.3460,-3.4727,0.2033,-0.0411,-0.0196,-2.1400,rough,14.0,2,1.542
870,27.84,-7.5724,-3.8478,0.2051,-0.0334,0.0178,-2.0839,rough,14.0,2,1.114
880,28.16,-7.7746,-4.2408,0.1927,-0.0079,0.0764,-2.0671,rough,14.0,3,0.914
890,28.48,-7.9115,-4.5493,0.1799,0.0002,0.0014,-1.9057,rough,14.0,0,13.256
900,28.80,-7.9892,-4.7992,0.1798,-0.0003,0.0001,-1.5794,rough,14.0,0,13.337
910,29.12,-7.9945,-5.0663,0.1798,-0.0001,-0.0003,-1.2818,rough,14.0,0,13.350
920,29.44,-7.8898,-5.3635,0.1799,-0.0001,-0.0001,-1.0721,rough,14.0,0,13.261
930,29.76,-7.7023,-5.6569,0.1825,-0.0099,-0.0059,-0.9063,rough,14.0,0,13.096
940,30.08,-7.4526,-5.9266,0.1885,-0.0414,-0.0022,-0.7695,rough,14.0,0,12.874
950,30.40,-7.1803,-6.1846,0.1868,-0.0127,0.0057,-0.6452,rough,14.0,0,12.635
960,30.72,-6.8523,-6.4097,0.1849,-0.0147,0.0231,-0.5342,rough,14.0,0,12.342
970,31.04,-6.5138,-6.6001,0.1782,-0.0089,0.0013,-0.4447,rough,14.0,0,12.039
980,31.36,-6.1255,-6.7715,0.1798,-0.0002,-0.0006,-0.3480,rough,14.0,0,11.689
990,31.68,-5.7170,-6.9107,0.1799,0.0000,0.0000,-0.2508,rough,14.0,0,11.317
1000,32.00,-5.3066,-7.0104,0.1850,0.0024,-0.0330,-0.1801,rough,14.0,0,10.939
1010,32.32,-4.9053,-7.0888,0.2033,0.0321,-0.0374,-0.1607,rough,14.0,0,10.567
1020,32.64,-4.5004,-7.1609,0.2097,0.0755,-0.0351,-0.1422,rough,14.0,0,10.193
1030,32.96,-4.0606,-7.2095,0.2098,0.0451,0.0151,-0.0672,rough,14.0,0,9.782
1040,33.28,-3.6192,-7.2314,0.1969,0.0377,0.0425,-0.0080,rough,14.0,0,9.365
1050,33.60,-3.1894,-7.2223,0.1791,-0.0032,-0.0038,0.0383,rough,14.0,0,8.952
1060,33.92,-2.7506,-7.1995,0.1793,0.0020,0.0008,0.0795,rough,14.0,0,8.527
1070,34.24,-2.3113,-7.1542,0.1797,0.0001,0.0008,0.1102,rough,14.0,0,8.096
1080,34.56,-1.8745,-7.1003,0.1814,-0.0008,-0.0093,0.1408,rough,14.0,0,7.666
1090,34.88,-1.4465,-7.0366,0.1929,0.0047,-0.0506,0.1664,rough,14.0,0,7.242
1100,35.20,-1.0117,-6.9609,0.2152,0.0126,-0.0499,0.1898,rough,14.0,0,6.809
1110,35.52,-0.5659,-6.8743,0.2279,0.0286,0.0117,0.2079,rough,14.0,0,6.362
1120,35.84,-0.1219,-6.7755,0.2144,0.0203,0.0729,0.2259,rough,14.0,0,5.913
1130,36.16,0.3024,-6.6725,0.1875,-0.0044,0.0335,0.2350,rough,14.0,0,5.482
1140,36.48,0.7266,-6.5676,0.1808,0.0006,0.0067,0.2514,rough,14.0,0,5.051
1150,36.80,1.1527,-6.4571,0.1805,0.0033,-0.0011,0.2657,rough,14.0,0,4.618
1160,37.12,1.5799,-6.3392,0.1797,-0.0007,-0.0004,0.2813,rough,14.0,0,4.181
1170,37.44,2.0019,-6.2149,0.1814,-0.0019,-0.0053,0.2901,rough,14.0,0,3.748
1180,37.76,2.4196,-6.0820,0.1880,-0.0305,-0.0146,0.2997,rough,14.0,0,3.316
1190,38.08,2.8393,-5.9427,0.1900,-0.0514,0.0013,0.3173,rough,14.0,0,2.881
1200,38.40,3.2585,-5.7999,0.1866,-0.0339,0.0011,0.3384,rough,14.0,0,2.447
1210,38.72,3.6747,-5.6489,0.1821,-0.0098,0.0034,0.3640,rough,14.0,0,2.016
1220,39.04,4.0838,-5.4874,0.1788,0.0062,0.0002,0.3913,rough,14.0,0,1.589
1230,39.36,4.4743,-5.3162,0.1907,-0.0203,-0.0469,0.4125,rough,14.0,0,1.179
1240,39.68,4.8703,-5.1240,0.2014,-0.0532,-0.0187,0.4706,rough,14.0,1,0.768
1250,40.00,5.1328,-4.9445,0.2112,-0.0517,-0.0351,0.6994,rough,14.0,1,13.116
1260,40.32,5.3428,-4.7131,0.2340,-0.0913,-0.0853,0.8849,rough,14.0,1,12.965
1270,40.64,5.5151,-4.4034,0.2418,-0.1780,-0.0471,1.0513,rough,14.0,1,12.733
1280,40.96,5.6610,-4.0577,0.2509,-0.2098,-0.0348,1.1914,rough,14.0,1,12.464
1290,41.28,5.7631,-3.6658,0.2503,-0.2413,0.0591,1.3093,rough,14.0,1,12.141
1300,41.60,5.8355,-3.2678,0.2303,-0.2454,0.0212,1.4190,rough,14.0,1,11.805
1310,41.92,5.8935,-2.8496,0.2034,-0.0825,0.0524,1.5230,rough,14.0,1,11.449
1320,42.24,5.8983,-2.4237,0.1853,0.0161,0.0529,1.6214,rough,14.0,1,11.067
1330,42.56,5.8638,-2.0045,0.1793,0.0022,-0.0009,1.6992,rough,14.0,1,10.677
1340,42.88,5.8035,-1.5744,0.1798,0.0004,-0.0001,1.7674,rough,14.0,1,10.267
1350,43.20,5.7144,-1.1477,0.1799,0.0002,-0.0000,1.8224,rough,14.0,1,9.849
1360,43.52,5.6020,-0.7251,0.1799,0.0001,-0.0000,1.8681,rough,14.0,1,9.424
1370,43.84,5.4703,-0.3068,0.1799,0.0001,-0.0000,1.9069,rough,14.0,1,8.995
1380,44.16,5.3224,0.1070,0.1799,0.0001,-0.0000,1.9406,rough,14.0,1,8.563
1390,44.48,5.1604,0.5159,0.1799,0.0001,-0.0000,1.9686,rough,14.0,1,8.128
1400,44.80,4.9870,0.9206,0.1799,0.0001,-0.0000,1.9938,rough,14.0,1,7.692
1410,45.12,4.8099,1.3234,0.1799,0.0000,-0.0000,1.9928,rough,14.0,1,7.256
1420,45.44,4.6265,1.7287,0.1799,0.0000,-0.0000,2.0031,rough,14.0,1,6.814
1430,45.76,4.4388,2.1322,0.1799,0.0000,-0.0000,2.0128,rough,14.0,1,6.373
1440,46.08,4.2473,2.5340,0.1799,0.0000,-0.0000,2.0220,rough,14.0,1,5.931
1450,46.40,4.0520,2.9342,0.1799,0.0000,-0.0000,2.0307,rough,14.0,1,5.490
1460,46.72,3.8533,3.3328,0.1799,0.0000,-0.0000,2.0390,rough,14.0,1,5.048
1470,47.04,3.6507,3.7282,0.1797,0.0009,-0.0006,2.0474,rough,14.0,1,4.607
1480,47.36,3.4431,4.1128,0.1894,-0.0223,-0.0350,2.0522,rough,14.0,1,4.173
1490,47.68,3.2200,4.4870,0.2122,-0.0986,-0.0073,2.0191,rough,14.0,1,3.739
1500,48.00,3.0610,4.7638,0.2614,-0.1220,-0.3921,2.0222,rough,14.0,1,3.422
1510,48.32,2.8841,5.0210,0.3430,-0.3344,-0.4746,1.9702,rough,14.0,1,3.110
1520,48.64,2.7317,5.3174,0.4983,-0.3815,-0.5477,2.0486,rough,14.0,1,2.782
1530,48.96,2.5470,5.6267,0.6732,-0.4375,-0.4925,2.0917,rough,14.0,1,2.425
1540,49.28,2.3377,5.9460,0.8377,-0.5208,-0.4648,2.1156,rough,14.0,1,2.046
1550,49.60,2.1319,6.2679,1.0035,-0.5228,-0.4232,2.0909,rough,14.0,1,1.668
1560,49.92,1.9261,6.5955,1.1703,-0.5589,-0.4400,2.1306,rough,14.0,1,1.288
1570,50.24,1.7216,6.9186,1.3436,-0.5138,-0.4703,2.1276,rough,14.0,1,0.918
1580,50.56,1.5520,7.1186,1.4511,-0.6250,-0.3204,2.4419,rough,14.0,2,15.298
1590,50.88,1.3234,7.1255,1.4032,-0.6651,0.0672,2.9600,rough,14.0,2,15.163
1600,51.20,1.0879,7.0740,1.3159,-0.5846,0.2969,-2.9577,rough,14.0,2,14.980
1610,51.52,0.7238,6.9568,1.1714,-0.5734,0.3567,-2.8529,rough,14.0,2,14.670
1620,51.84,0.3570,6.8018,1.0297,-0.5037,0.2941,-2.7395,rough,14.0,2,14.330
1630,52.16,-0.0127,6.6297,0.9067,-0.4390,0.2576,-2.6629,rough,14.0,2,13.978
1640,52.48,-0.3865,6.4303,0.7842,-0.4015,0.2903,-2.6199,rough,14.0,2,13.604
1650,52.80,-0.7433,6.2066,0.6587,-0.3633,0.2952,-2.5653,rough,14.0,2,13.222
1660,53.12,-1.0883,5.9699,0.5279,-0.3188,0.2990,-2.5137,rough,14.0,2,12.837
1670,53.44,-1.4132,5.7194,0.4258,-0.2660,0.2067,-2.4504,rough,14.0,2,12.453
1680,53.76,-1.7356,5.4537,0.3520,-0.1960,0.1217,-2.4170,rough,14.0,2,12.059
1690,54.08,-2.0451,5.1659,0.3178,-0.1798,0.0368,-2.3739,rough,14.0,2,11.654
1700,54.40,-2.3715,4.8568,0.2911,-0.0984,0.0773,-2.3502,rough,14.0,2,11.224
1710,54.72,-2.6774,4.5346,0.2552,-0.1014,0.0897,-2.3320,rough,14.0,2,10.793
1720,55.04,-2.9813,4.2161,0.2166,-0.0485,0.0730,-2.3094,rough,14.0,2,10.368
1730,55.36,-3.2709,3.8950,0.1898,-0.0299,0.0275,-2.2881,rough,14.0,2,9.949
1740,55.68,-3.5492,3.5719,0.1930,-0.0165,-0.0500,-2.2679,rough,14.0,2,9.534
1750,56.00,-3.8260,3.2240,0.2130,-0.0409,-0.0257,-2.2464,rough,14.0,2,9.099
1760,56.32,-4.1010,2.8687,0.2188,-0.0628,0.0130,-2.2333,rough,14.0,2,8.658
1770,56.64,-4.3760,2.5128,0.1997,-0.0590,0.0535,-2.2198,rough,14.0,2,8.218
1780,56.96,-4.6437,2.1668,0.1850,-0.0119,0.0206,-2.2036,rough,14.0,2,7.792
1790,57.28,-4.9011,1.8122,0.1809,-0.0034,-0.0046,-2.1854,rough,14.0,2,7.362
1800,57.60,-5.1487,1.4483,0.1879,-0.0230,-0.0131,-2.1686,rough,14.0,2,6.930
1810,57.92,-5.3877,1.0743,0.1903,-0.0373,0.0143,-2.1393,rough,14.0,2,6.492
1820,58.24,-5.6240,0.6996,0.1869,-0.0248,0.0123,-2.1221,rough,14.0,2,6.056
1830,58.56,-5.8552,0.3230,0.1813,-0.0036,0.0065,-2.1048,rough,14.0,2,5.620
1840,58.88,-6.0773,-0.0584,0.1797,0.0004,-0.0005,-2.0869,rough,14.0,2,5.185
1850,59.20,-6.2922,-0.4444,0.1798,0.0001,-0.0001,-2.0627,rough,14.0,2,4.748
1860,59.52,-6.4949,-0.8238,0.1871,0.0076,-0.0405,-2.0440,rough,14.0,2,4.323
1870,59.84,-6.6991,-1.2170,0.1935,0.0325,-0.0112,-2.0204,rough,14.0,2,3.886
1880,60.16,-6.8904,-1.6128,0.1917,0.0342,0.0164,-2.0085,rough,14.0,2,3.451
1890,60.48,-7.0745,-2.0148,0.1897,0.0269,0.0158,-1.9804,rough,14.0,2,3.013
1900,60.80,-7.2430,-2.4179,0.1873,0.0212,-0.0102,-1.9543,rough,14.0,2,2.580
1910,61.12,-7.3993,-2.8243,0.1910,-0.0007,-0.0391,-1.9248,rough,14.0,2,2.148
1920,61.44,-7.5340,-3.2375,0.2158,-0.0357,-0.0569,-1.8914,rough,14.0,2,1.715
1930,61.76,-7.6655,-3.6661,0.2179,-0.0567,0.0063,-1.8652,rough,14.0,2,1.269
1940,62.08,-7.7899,-4.0999,0.1981,-0.0418,0.0772,-1.8315,rough,14.0,2,0.821
1950,62.40,-7.8828,-4.4613,0.1825,0.0156,0.0044,-1.7702,rough,14.0,0,13.228
1960,62.72,-7.9093,-4.7182,0.1795,-0.0026,-0.0001,-1.4366,rough,14.0,0,13.255
1970,63.04,-7.8653,-5.0086,0.1798,-0.0002,-0.0000,-1.1836,rough,14.0,0,13.219
1980,63.36,-7.7230,-5.3098,0.1799,0.0000,-0.0002,-0.9904,rough,14.0,0,13.092
1990,63.68,-7.5146,-5.5972,0.1813,0.0079,-0.0009,-0.8272,rough,14.0,0,12.904
2000,64.00,-7.2430,-5.8535,0.1874,-0.0054,-0.0115,-0.6926,rough,14.0,0,12.658
2010,64.32,-6.9223,-6.0916,0.1894,-0.0155,0.0113,-0.5830,rough,14.0,0,12.367
2020,64.64,-6.5823,-6.2992,0.1826,0.0136,0.0034,-0.4840,rough,14.0,0,12.059
2030,64.96,-6.2053,-6.4840,0.1802,0.0021,0.0008,-0.3773,rough,14.0,0,11.716
2040,65.28,-5.7974,-6.6308,0.1799,0.0001,-0.0001,-0.3091,rough,14.0,0,11.340
2050,65.60,-5.3848,-6.7523,0.1812,-0.0086,-0.0107,-0.2287,rough,14.0,0,10.959
2060,65.92,-4.9781,-6.8416,0.2023,0.0240,-0.0616,-0.1681,rough,14.0,0,10.581
2070,66.24,-4.5573,-6.9104,0.2221,0.0334,-0.0395,-0.1261,rough,14.0,0,10.186
2080,66.56,-4.1262,-6.9659,0.2235,0.0438,0.0420,-0.1056,rough,14.0,0,9.782
2090,66.88,-3.6868,-7.0003,0.2041,0.0347,0.0719,-0.0405,rough,14.0,0,9.366
2100,67.20,-3.2599,-7.0085,0.1844,0.0132,0.0152,0.0112,rough,14.0,0,8.957
2110,67.52,-2.8226,-6.9958,0.1789,-0.0035,-0.0024,0.0510,rough,14.0,0,8.534
2120,67.84,-2.3825,-6.9715,0.1798,-0.0003,-0.0003,0.0889,rough,14.0,0,8.107
2130,68.16,-1.9430,-6.9303,0.1798,0.0000,-0.0000,0.1216,rough,14.0,0,7.676
2140,68.48,-1.5167,-6.8707,0.1867,-0.0311,-0.0391,0.1335,rough,14.0,0,7.253
2150,68.80,-1.0858,-6.8138,0.2120,-0.0053,-0.0620,0.1509,rough,14.0,0,6.827
2160,69.12,-0.6392,-6.7426,0.2253,-0.0099,0.0049,0.1720,rough,14.0,0,6.383
2170,69.44,-0.1969,-6.6630,0.2177,-0.0129,0.0606,0.1847,rough,14.0,0,5.941
2180,69.76,0.2368,-6.5795,0.1894,0.0007,0.0623,0.2102,rough,14.0,0,5.507
2190,70.08,0.6578,-6.4862,0.1813,0.0006,0.0077,0.2271,rough,14.0,0,5.082
2200,70.40,1.0872,-6.3859,0.1810,0.0061,-0.0012,0.2474,rough,14.0,0,4.648
2210,70.72,1.5163,-6.2754,0.1810,0.0062,0.0010,0.2589,rough,14.0,0,4.211
2220,71.04,1.9426,-6.1591,0.1811,-0.0026,-0.0016,0.2673,rough,14.0,0,3.776
2230,71.36,2.3639,-6.0400,0.1832,-0.0047,-0.0170,0.2796,rough,14.0,0,3.346
2240,71.68,2.7854,-5.9092,0.1873,-0.0304,0.0039,0.2937,rough,14.0,0,2.912
2250,72.00,3.2071,-5.7741,0.1852,-0.0295,0.0030,0.3163,rough,14.0,0,2.478
2260,72.32,3.6262,-5.6321,0.1814,-0.0061,0.0044,0.3423,rough,14.0,0,2.047
2270,72.64,4.0378,-5.4794,0.1790,0.0050,0.0002,0.3699,rough,14.0,0,1.621
2280,72.96,4.4314,-5.3177,0.1893,-0.0118,-0.0486,0.3932,rough,14.0,0,1.212
2290,73.28,4.8310,-5.1343,0.2012,-0.0580,-0.0313,0.4404,rough,14.0,0,0.800
2300,73.60,5.1066,-4.9705,0.2105,-0.0470,-0.0380,0.6639,rough,14.0,1,13.133
2310,73.92,5.3171,-4.7546,0.2323,-0.0706,-0.0996,0.8616,rough,14.0,1,12.996
2320,74.24,5.4897,-4.4489,0.2406,-0.1742,-0.0427,1.0248,rough,14.0,1,12.767
2330,74.56,5.6409,-4.1068,0.2482,-0.2097,-0.0400,1.1724,rough,14.0,1,12.502
2340,74.88,5.7503,-3.7245,0.2506,-0.2206,0.0277,1.2989,rough,14.0,1,12.190
2350,75.20,5.8295,-3.3346,0.2333,-0.2590,0.0072,1.3891,rough,14.0,1,11.864
2360,75.52,5.9005,-2.9295,0.2127,-0.1507,0.0298,1.4712,rough,14.0,1,11.524
2370,75.84,5.9299,-2.5053,0.1930,-0.0297,0.0493,1.5793,rough,14.0,1,11.154
2380,76.16,5.9115,-2.0866,0.1796,0.0004,-0.0011,1.6641,rough,14.0,1,10.772
2390,76.48,5.8671,-1.6550,0.1799,0.0002,-0.0001,1.7383,rough,14.0,1,10.368
2400,76.80,5.7904,-1.2271,0.1799,0.0002,-0.0000,1.8010,rough,14.0,1,9.955
2410,77.12,5.6905,-0.8019,0.1799,0.0001,-0.0000,1.8309,rough,14.0,1,9.535
2420,77.44,5.5746,-0.3776,0.1799,0.0001,-0.0000,1.8656,rough,14.0,1,9.109
2430,77.76,5.4440,0.0429,0.1799,0.0001,-0.0000,1.8941,rough,14.0,1,8.680
2440,78.08,5.3015,0.4601,0.1799,0.0001,-0.0000,1.9185,rough,14.0,1,8.249
2450,78.40,5.1487,0.8744,0.1799,0.0001,-0.0000,1.9402,rough,14.0,1,7.816
2460,78.72,4.9870,1.2859,0.1799,0.0001,-0.0000,1.9599,rough,14.0,1,7.381
2470,79.04,4.8171,1.6946,0.1799,0.0000,-0.0000,1.9777,rough,14.0,1,6.946
2480,79.36,4.6399,2.1005,0.1799,0.0000,-0.0000,1.9941,rough,14.0,1,6.509
2490,79.68,4.4560,2.5039,0.1799,0.0000,-0.0000,2.0093,rough,14.0,1,6.072
2500,80.00,4.2659,2.9047,0.1799,0.0000,-0.0000,2.0235,rough,14.0,1,5.635
2510,80.32,4.0701,3.3030,0.1799,0.0000,-0.0000,2.0369,rough,14.0,1,5.197
2520,80.64,3.8699,3.6947,0.1819,0.0011,-0.0163,2.0494,rough,14.0,1,4.763
2530,80.96,3.6587,4.0943,0.1836,-0.0027,0.0333,2.0588,rough,14.0,1,4.317
2540,81.28,3.4724,4.4034,0.2437,-0.0939,-0.3482,2.0729,rough,14.0,1,3.959
2550,81.60,3.1949,4.7558,0.2734,-0.4102,-0.0438,2.1100,rough,14.0,1,3.510
2560,81.92,2.9915,4.9990,0.3373,-0.4251,-0.2956,2.2326,rough,14.0,1,3.193
2570,82.24,2.7371,5.2911,0.4797,-0.4583,-0.3917,2.2702,rough,14.0,1,2.806
2580,82.56,2.4563,5.5349,0.5815,-0.5208,-0.3477,2.2864,rough,14.0,1,2.443
2590,82.88,2.1797,5.8005,0.7019,-0.4965,-0.3277,2.2663,rough,14.0,1,2.066
2600,83.20,1.8976,6.0984,0.8122,-0.5496,-0.3055,2.2447,rough,14.0,1,1.663
2610,83.52,1.6410,6.3862,0.9387,-0.5460,-0.3835,2.2538,rough,14.0,1,1.284
2620,83.84,1.3921,6.6788,1.0831,-0.5243,-0.4067,2.2208,rough,14.0,1,0.911
2630,84.16,1.1679,6.8856,1.1920,-0.5969,-0.3378,2.4671,rough,14.0,2,14.878
2640,84.48,0.9306,6.9430,1.1907,-0.6601,-0.0405,2.8715,rough,14.0,2,14.781
2650,84.80,0.6867,6.9168,1.1358,-0.6032,0.1693,-3.0598,rough,14.0,2,14.615
2660,85.12,0.4232,6.8144,1.0470,-0.5437,0.2722,-2.7746,rough,14.0,2,14.379
2670,85.44,0.1477,6.6488,0.9203,-0.4040,0.3422,-2.5370,rough,14.0,2,14.085
2680,85.76,-0.0995,6.4171,0.7816,-0.3359,0.3762,-2.3405,rough,14.0,2,13.754
2690,86.08,-0.3137,6.1235,0.6253,-0.2598,0.4088,-2.1712,rough,14.0,2,13.390
2700,86.40,-0.4986,5.7940,0.4584,-0.1940,0.4211,-2.0458,rough,14.0,2,13.014
2710,86.72,-0.6298,5.4596,0.3117,-0.1426,0.3830,-1.8891,rough,14.0,2,12.665
2720,87.04,-0.7317,5.1148,0.2200,-0.0277,0.1536,-1.7808,rough,14.0,2,12.324
2730,87.36,-0.7845,4.7440,0.1836,-0.0059,0.0343,-1.6312,rough,14.0,2,11.993
2740,87.68,-0.7991,4.3506,0.1798,-0.0001,-0.0006,-1.5521,rough,14.0,2,11.670
2750,88.00,-0.8005,3.9302,0.1799,-0.0000,-0.0001,-1.6639,rough,14.0,2,11.338
2760,88.32,-0.8493,3.5059,0.1923,0.0203,-0.0505,-1.7162,rough,14.0,2,10.979
2770,88.64,-0.9335,3.0712,0.1915,0.0353,0.0199,-1.7903,rough,14.0,2,10.593
2780,88.96,-1.0392,2.6533,0.1851,0.0170,0.0130,-1.8513,rough,14.0,2,10.211
2790,89.28,-1.1631,2.2391,0.1811,-0.0041,0.0030,-1.9130,rough,14.0,2,9.822
2800,89.60,-1.3100,1.8327,0.1809,-0.0112,-0.0015,-1.9565,rough,14.0,2,9.427
2810,89.92,-1.4735,1.4306,0.1838,-0.0162,-0.0080,-1.9917,rough,14.0,2,9.027
2820,90.24,-1.6553,1.0351,0.1840,-0.0197,0.0074,-2.0222,rough,14.0,2,8.621
2830,90.56,-1.8519,0.6466,0.1812,-0.0066,0.0021,-2.0448,rough,14.0,2,8.212
2840,90.88,-2.0567,0.2549,0.1800,-0.0008,0.0008,-2.0684,rough,14.0,2,7.797
2850,91.20,-2.2694,-0.1275,0.1799,-0.0001,0.0000,-2.1033,rough,14.0,2,7.386
2860,91.52,-2.4958,-0.5020,0.1799,-0.0001,0.0000,-2.1391,rough,14.0,2,6.972
2870,91.84,-2.7337,-0.8605,0.1872,0.0117,-0.0351,-2.1648,rough,14.0,2,6.562
2880,92.16,-2.9921,-1.2173,0.1911,0.0412,0.0018,-2.1941,rough,14.0,2,6.140
2890,92.48,-3.2553,-1.5669,0.1901,0.0370,0.0059,-2.2237,rough,14.0,2,5.721
2900,92.80,-3.5284,-1.9138,0.1834,0.0096,0.0096,-2.2557,rough,14.0,2,5.298
2910,93.12,-3.8060,-2.2423,0.1806,0.0117,-0.0094,-2.3012,rough,14.0,2,4.884
2920,93.44,-4.1017,-2.5635,0.1889,0.0219,-0.0229,-2.3380,rough,14.0,2,4.462
2930,93.76,-4.4080,-2.8611,0.2038,0.0436,-0.0418,-2.3716,rough,14.0,2,4.046
2940,94.08,-4.7368,-3.1599,0.2081,0.0627,0.0123,-2.4053,rough,14.0,2,3.612
2950,94.40,-5.0720,-3.4529,0.1955,0.0448,0.0492,-2.4417,rough,14.0,2,3.178
2960,94.72,-5.4082,-3.7313,0.1842,0.0033,0.0274,-2.4751,rough,14.0,2,2.753
2970,95.04,-5.7531,-3.9915,0.1801,0.0007,-0.0009,-2.5115,rough,14.0,2,2.332
2980,95.36,-6.1050,-4.2334,0.1888,0.0158,-0.0369,-2.5562,rough,14.0,2,1.914
2990,95.68,-6.4808,-4.4519,0.1926,0.0613,0.0012,-2.6088,rough,14.0,2,1.487
3000,96.00,-6.8559,-4.6607,0.1921,0.0544,0.0178,-2.6600,rough,14.0,2,1.069
3010,96.32,-7.2434,-4.8496,0.1847,0.0059,0.0264,-2.7268,rough,14.0,3,1.177
3020,96.64,-7.6390,-4.9959,0.1797,0.0006,-0.0007,-2.8166,rough,14.0,0,0.788
3030,96.96,-7.8491,-5.0504,0.1797,0.0008,0.0003,-2.4219,rough,14.0,0,13.204
3040,97.28,-8.0144,-5.2368,0.1798,-0.0002,-0.0001,-2.0485,rough,14.0,0,13.378
3050,97.60,-8.1200,-5.4659,0.1797,0.0001,-0.0000,-1.7064,rough,14.0,0,13.498
3060,97.92,-8.1616,-5.7144,0.1822,-0.0004,-0.0159,-1.3736,rough,14.0,0,13.559
3070,98.24,-8.0932,-5.9546,0.1907,-0.0123,-0.0575,-1.2004,rough,14.0,0,13.514
3080,98.56,-7.9614,-6.2252,0.2044,-0.0294,-0.0377,-0.9941,rough,14.0,0,13.415
3090,98.88,-7.7537,-6.4994,0.2146,-0.0309,-0.0318,-0.8409,rough,14.0,0,13.247
3100,99.20,-7.4801,-6.7667,0.2087,-0.0237,0.0326,-0.7003,rough,14.0,0,13.020
3110,99.52,-7.1659,-7.0047,0.1916,-0.0181,0.0484,-0.5795,rough,14.0,0,12.755
3120,99.84,-6.8229,-7.2158,0.1821,-0.0086,0.0081,-0.4623,rough,14.0,0,12.463
3130,100.16,-6.4575,-7.3829,0.1848,-0.0059,-0.0312,-0.3626,rough,14.0,0,12.144
3140,100.48,-6.0523,-7.5117,0.1893,-0.0457,-0.0037,-0.2558,rough,14.0,0,11.783
3150,100.80,-5.6286,-7.6096,0.1923,-0.0448,-0.0088,-0.2037,rough,14.0,0,11.400
3160,101.12,-5.2190,-7.6949,0.1892,-0.0043,-0.0160,-0.1557,rough,14.0,0,11.030
3170,101.44,-4.8089,-7.7619,0.1808,0.0105,0.0155,-0.1185,rough,14.0,0,10.658
3180,101.76,-4.3810,-7.8133,0.1869,0.0358,0.0012,-0.0405,rough,14.0,0,10.268
3190,102.08,-3.9462,-7.8245,0.1841,0.0220,0.0011,0.0239,rough,14.0,0,9.861
3200,102.40,-3.5112,-7.8080,0.1833,0.0048,-0.0074,0.0788,rough,14.0,0,9.446
3210,102.72,-3.0792,-7.7637,0.1901,-0.0146,-0.0391,0.1091,rough,14.0,0,9.027
3220,103.04,-2.6344,-7.7014,0.1973,-0.0514,0.0095,0.1397,rough,14.0,0,8.590
3230,103.36,-2.1984,-7.6319,0.1949,-0.0518,0.0071,0.1686,rough,14.0,0,8.160
3240,103.68,-1.7644,-7.5528,0.1867,-0.0200,0.0054,0.1988,rough,14.0,0,7.729
3250,104.00,-1.3378,-7.4625,0.1895,0.0037,-0.0313,0.2277,rough,14.0,0,7.301
3260,104.32,-0.9073,-7.3659,0.2054,0.0371,-0.0321,0.2516,rough,14.0,0,6.869
3270,104.64,-0.4762,-7.2549,0.2082,0.0529,-0.0139,0.2729,rough,14.0,0,6.431
3280,104.96,-0.0398,-7.1280,0.2043,0.0472,0.0514,0.2906,rough,14.0,0,5.983
3290,105.28,0.3807,-6.9943,0.1867,0.0102,0.0260,0.2990,rough,14.0,0,5.546
3300,105.60,0.8004,-6.8613,0.1800,0.0007,0.0021,0.3104,rough,14.0,0,5.112
3310,105.92,1.2210,-6.7242,0.1798,-0.0000,-0.0001,0.3290,rough,14.0,0,4.676
3320,106.24,1.6393,-6.5793,0.1800,-0.0002,-0.0008,0.3465,rough,14.0,0,4.239
3330,106.56,2.0540,-6.4252,0.1829,-0.0127,-0.0038,0.3560,rough,14.0,0,3.802
3340,106.88,2.4571,-6.2688,0.1936,-0.0293,-0.0422,0.3665,rough,14.0,0,3.376
3350,107.20,2.8777,-6.0956,0.1983,-0.0653,0.0224,0.3810,rough,14.0,0,2.927
3360,107.52,3.2857,-5.9266,0.1916,-0.0496,0.0145,0.4027,rough,14.0,0,2.493
3370,107.84,3.6902,-5.7503,0.1859,-0.0275,0.0056,0.4257,rough,14.0,0,2.062
3380,108.16,4.0916,-5.5653,0.1798,-0.0000,-0.0002,0.4505,rough,14.0,0,1.632
3390,108.48,4.4762,-5.3700,0.1892,-0.0265,-0.0465,0.4745,rough,14.0,0,1.215
3400,108.80,4.8561,-5.1604,0.2012,-0.0550,-0.0291,0.5265,rough,14.0,0,0.805
3410,109.12,5.1229,-4.9688,0.2107,-0.0584,-0.0463,0.7502,rough,14.0,1,13.136
3420,109.44,5.3088,-4.7179,0.2306,-0.0942,-0.0750,0.9280,rough,14.0,1,12.958
3430,109.76,5.4724,-4.3870,0.2286,-0.2086,-0.0116,1.0781,rough,14.0,1,12.703
3440,110.08,5.6202,-4.0452,0.2415,-0.1923,-0.0287,1.2074,rough,14.0,1,12.437
3450,110.40,5.7182,-3.6510,0.2386,-0.2078,0.0528,1.3285,rough,14.0,1,12.110
3460,110.72,5.7905,-3.2576,0.2225,-0.2062,0.0128,1.4156,rough,14.0,1,11.777
3470,111.04,5.8480,-2.8383,0.1997,-0.0882,0.0181,1.5074,rough,14.0,1,11.419
3480,111.36,5.8544,-2.4166,0.1798,-0.0032,-0.0048,1.6057,rough,14.0,1,11.042
3490,111.68,5.8280,-1.9866,0.1796,0.0014,0.0000,1.6951,rough,14.0,1,10.645
3500,112.00,5.7695,-1.5563,0.1799,0.0003,0.0000,1.7638,rough,14.0,1,10.235
3510,112.32,5.6820,-1.1293,0.1799,0.0002,-0.0000,1.8192,rough,14.0,1,9.817
3520,112.64,5.5709,-0.7064,0.1799,0.0001,-0.0000,1.8651,rough,14.0,1,9.393
3530,112.96,5.4405,-0.2877,0.1799,0.0001,-0.0000,1.9042,rough,14.0,1,8.964
3540,113.28,5.2937,0.1264,0.1799,0.0001,-0.0000,1.9381,rough,14.0,1,8.532
3550,113.60,5.1328,0.5357,0.1799,0.0001,-0.0000,1.9663,rough,14.0,1,8.097
3560,113.92,4.9603,0.9408,0.1799,0.0001,-0.0000,1.9915,rough,14.0,1,7.661
3570,114.24,4.7776,1.3419,0.1799,0.0001,-0.0000,2.0148,rough,14.0,1,7.223
3580,114.56,4.5854,1.7391,0.1799,0.0001,-0.0000,2.0365,rough,14.0,1,6.784
3590,114.88,4.3846,2.1323,0.1799,0.0001,-0.0000,2.0570,rough,14.0,1,6.344
3600,115.20,4.1756,2.5215,0.1799,0.0001,-0.0000,2.0766,rough,14.0,1,5.903
3610,115.52,3.9692,2.9102,0.1799,-0.0000,-0.0000,2.0619,rough,14.0,1,5.465
3620,115.84,3.7580,3.3044,0.1799,0.0000,-0.0000,2.0642,rough,14.0,1,5.019
3630,116.16,3.5458,3.6981,0.1799,0.0000,-0.0000,2.0666,rough,14.0,1,4.573
3640,116.48,3.3327,4.0913,0.1799,0.0000,-0.0000,2.0689,rough,14.0,1,4.128
3650,116.80,3.1054,4.4737,0.1957,-0.0623,0.0548,2.0468,rough,14.0,1,3.684
3660,117.12,2.8677,4.7757,0.2530,-0.3522,-0.1227,2.0629,rough,14.0,1,3.301
3670,117.44,2.6735,5.0456,0.3267,-0.3356,-0.3363,2.1202,rough,14.0,1,2.968
3680,117.76,2.4724,5.3105,0.4510,-0.3628,-0.4934,2.1624,rough,14.0,1,2.636
3690,118.08,2.2263,5.6234,0.5906,-0.4339,-0.3698,2.0929,rough,14.0,1,2.240
3700,118.40,2.0129,5.9512,0.7509,-0.4769,-0.3876,2.1111,rough,14.0,1,1.849
3710,118.72,1.7996,6.2878,0.9137,-0.5101,-0.4151,2.1339,rough,14.0,1,1.450
3720,119.04,1.5853,6.6150,1.0843,-0.4997,-0.4287,2.1360,rough,14.0,1,1.059
3730,119.36,1.3800,6.9004,1.2474,-0.5193,-0.4412,2.2158,rough,14.0,2,15.020
3740,119.68,1.1564,7.0134,1.2871,-0.6578,-0.2107,2.6596,rough,14.0,2,14.973
3750,120.00,0.9154,7.0396,1.2581,-0.6447,0.0829,3.0158,rough,14.0,2,14.849
3760,120.32,0.6647,6.9752,1.1744,-0.5560,0.2874,-2.9042,rough,14.0,2,14.650
3770,120.64,0.3915,6.8325,1.0499,-0.4637,0.3704,-2.6613,rough,14.0,2,14.375
3780,120.96,0.1286,6.6392,0.9141,-0.3705,0.3838,-2.4407,rough,14.0,2,14.066
3790,121.28,-0.1294,6.4002,0.7740,-0.2973,0.4128,-2.2461,rough,14.0,2,13.723
3800,121.60,-0.3339,6.0919,0.6080,-0.2298,0.4206,-2.0969,rough,14.0,2,13.353
3810,121.92,-0.5463,5.7417,0.4363,-0.1992,0.4092,-2.1230,rough,14.0,2,12.944
3820,122.24,-0.7519,5.3932,0.2912,-0.2233,0.3017,-2.1333,rough,14.0,2,12.540
3830,122.56,-0.9782,5.0586,0.2178,-0.0946,0.1102,-2.1189,rough,14.0,2,12.136
3840,122.88,-1.2057,4.7012,0.1922,-0.0591,0.0118,-2.1275,rough,14.0,2,11.713
3850,123.20,-1.4475,4.3308,0.1830,-0.0189,-0.0014,-2.1423,rough,14.0,2,11.271
3860,123.52,-1.6927,3.9617,0.1791,0.0043,0.0018,-2.1585,rough,14.0,2,10.828
3870,123.84,-1.9395,3.5921,0.1798,-0.0002,-0.0000,-2.1721,rough,14.0,2,10.384
3880,124.16,-2.1925,3.2285,0.1798,-0.0000,-0.0000,-2.1877,rough,14.0,2,9.941
3890,124.48,-2.4510,2.8686,0.1799,-0.0000,-0.0000,-2.2023,rough,14.0,2,9.498
3900,124.80,-2.7149,2.5122,0.1799,-0.0000,-0.0000,-2.2160,rough,14.0,2,9.054
3910,125.12,-2.9860,2.1688,0.1884,0.0289,-0.0202,-2.2278,rough,14.0,2,8.618
3920,125.44,-3.2652,1.8185,0.1884,0.0400,0.0120,-2.2386,rough,14.0,2,8.171
3930,125.76,-3.5395,1.4689,0.1821,0.0079,0.0059,-2.2508,rough,14.0,2,7.727
3940,126.08,-3.8195,1.1254,0.1802,0.0021,0.0004,-2.2640,rough,14.0,2,7.286
3950,126.40,-4.1034,0.7934,0.1885,0.0196,-0.0335,-2.2755,rough,14.0,2,6.852
3960,126.72,-4.3961,0.4653,0.1999,0.0512,-0.0433,-2.2880,rough,14.0,2,6.417
3970,127.04,-4.6955,0.1289,0.2090,0.0531,-0.0086,-2.3000,rough,14.0,2,5.972
3980,127.36,-4.9961,-0.2087,0.1975,0.0367,0.0328,-2.3102,rough,14.0,2,5.527
3990,127.68,-5.2955,-0.5325,0.1882,0.0206,0.0367,-2.3023,rough,14.0,2,5.094
4000,128.00,-5.5728,-0.8528,0.1859,0.0032,-0.0382,-2.2754,rough,14.0,2,4.678
4010,128.32,-5.8548,-1.1827,0.2014,0.0248,-0.0500,-2.2511,rough,14.0,2,4.253
4020,128.64,-6.1284,-1.5237,0.2183,0.0291,-0.0462,-2.2252,rough,14.0,2,3.823
4030,128.96,-6.4001,-1.8886,0.2217,0.0178,0.0270,-2.1966,rough,14.0,2,3.375
4040,129.28,-6.6571,-2.2511,0.2035,0.0195,0.0473,-2.1686,rough,14.0,2,2.937
4050,129.60,-6.8958,-2.6145,0.1907,0.0027,0.0136,-2.1397,rough,14.0,2,2.507
4060,129.92,-7.1188,-2.9816,0.1881,-0.0201,-0.0404,-2.1106,rough,14.0,2,2.082
4070,130.24,-7.3314,-3.3634,0.2030,-0.0290,-0.0292,-2.0717,rough,14.0,2,1.650
4080,130.56,-7.5314,-3.7530,0.2113,-0.0487,-0.0162,-2.0253,rough,14.0,2,1.217
4090,130.88,-7.7205,-4.1646,0.1943,-0.0401,0.0618,-1.9860,rough,14.0,3,0.770
4100,131.20,-7.8749,-4.5038,0.1803,0.0179,-0.0025,-1.9329,rough,14.0,0,13.220
4110,131.52,-7.9554,-4.7604,0.1797,-0.0001,0.0002,-1.5903,rough,14.0,0,13.302
4120,131.84,-7.9633,-5.0283,0.1798,-0.0001,-0.0003,-1.2840,rough,14.0,0,13.318
4130,132.16,-7.8595,-5.3263,0.1799,-0.0002,-0.0001,-1.0713,rough,14.0,0,13.229
4140,132.48,-7.6763,-5.6162,0.1813,-0.0048,-0.0054,-0.8905,rough,14.0,0,13.067
4150,132.80,-7.4228,-5.8797,0.1873,-0.0291,-0.0106,-0.7521,rough,14.0,0,12.840
4160,133.12,-7.1301,-6.1295,0.1882,-0.0221,0.0032,-0.6336,rough,14.0,0,12.578
4170,133.44,-6.7974,-6.3557,0.1824,-0.0075,0.0201,-0.5312,rough,14.0,0,12.280
4180,133.76,-6.4436,-6.5553,0.1792,-0.0000,-0.0015,-0.4355,rough,14.0,0,11.963
4190,134.08,-6.0477,-6.7230,0.1798,0.0001,-0.0002,-0.3568,rough,14.0,0,11.603
4200,134.40,-5.6397,-6.8635,0.1799,0.0001,0.0000,-0.2658,rough,14.0,0,11.232
4210,134.72,-5.2435,-6.9659,0.1892,0.0045,-0.0585,-0.2110,rough,14.0,0,10.867
4220,135.04,-4.8338,-7.0614,0.2067,0.0403,-0.0360,-0.1651,rough,14.0,0,10.491
4230,135.36,-4.4192,-7.1339,0.2130,0.0739,-0.0080,-0.1336,rough,14.0,0,10.108
4240,135.68,-3.9807,-7.1800,0.2096,0.0439,0.0246,-0.0579,rough,14.0,0,9.697
4250,136.00,-3.5433,-7.1950,0.1912,0.0220,0.0328,-0.0031,rough,14.0,0,9.282
4260,136.32,-3.1104,-7.1859,0.1796,-0.0055,0.0028,0.0418,rough,14.0,0,8.865
4270,136.64,-2.6727,-7.1599,0.1797,0.0006,0.0001,0.0819,rough,14.0,0,8.441
4280,136.96,-2.2340,-7.1200,0.1795,0.0013,-0.0010,0.1173,rough,14.0,0,8.012
4290,137.28,-1.8003,-7.0659,0.1833,0.0007,-0.0247,0.1420,rough,14.0,0,7.585
4300,137.60,-1.3663,-7.0023,0.1932,0.0119,-0.0343,0.1652,rough,14.0,0,7.155
4310,137.92,-0.9396,-6.9295,0.2201,0.0077,-0.0561,0.1796,rough,14.0,0,6.730
4320,138.24,-0.4902,-6.8437,0.2244,0.0175,0.0255,0.2038,rough,14.0,0,6.280
4330,138.56,-0.0511,-6.7517,0.2061,0.0291,0.0725,0.2187,rough,14.0,0,5.839
4340,138.88,0.3696,-6.6511,0.1853,0.0070,0.0253,0.2311,rough,14.0,0,5.412
4350,139.20,0.7947,-6.5475,0.1790,0.0009,-0.0060,0.2477,rough,14.0,0,4.981
4360,139.52,1.2235,-6.4380,0.1802,0.0029,-0.0019,0.2664,rough,14.0,0,4.545
4370,139.84,1.6516,-6.3147,0.1759,-0.0263,-0.0009,0.2765,rough,14.0,0,4.106
4380,140.16,2.0794,-6.1960,0.1813,-0.0049,-0.0052,0.2874,rough,14.0,0,3.670
4390,140.48,2.4939,-6.0648,0.1889,-0.0253,-0.0249,0.3005,rough,14.0,0,3.242
4400,140.80,2.9160,-5.9222,0.1888,-0.0560,0.0048,0.3181,rough,14.0,0,2.804
4410,141.12,3.3344,-5.7797,0.1865,-0.0346,0.0022,0.3427,rough,14.0,0,2.372
4420,141.44,3.7500,-5.6276,0.1813,-0.0049,0.0052,0.3693,rough,14.0,0,1.941
4430,141.76,4.1566,-5.4647,0.1815,-0.0011,-0.0100,0.3981,rough,14.0,0,1.518
4440,142.08,4.5432,-5.2903,0.1926,-0.0289,-0.0489,0.4213,rough,14.0,0,1.111
4450,142.40,4.9248,-5.1087,0.2046,-0.0104,0.0066,0.5352,rough,14.0,1,13.209
4460,142.72,5.1723,-4.9431,0.2120,-0.0245,-0.0454,0.7497,rough,14.0,1,13.127
4470,143.04,5.3638,-4.6889,0.2353,-0.1059,-0.0705,0.9231,rough,14.0,1,12.949
4480,143.36,5.5357,-4.3698,0.2423,-0.1759,-0.0377,1.0889,rough,14.0,1,12.709
4490,143.68,5.6661,-4.0151,0.2498,-0.2063,-0.0273,1.2312,rough,14.0,1,12.427
4500,144.00,5.7576,-3.6097,0.2444,-0.2422,0.0843,1.3282,rough,14.0,1,12.087
4510,144.32,5.8310,-3.2263,0.2263,-0.2238,0.0178,1.4180,rough,14.0,1,11.765
4520,144.64,5.8835,-2.8230,0.1992,-0.0982,0.0036,1.5234,rough,14.0,1,11.421
4530,144.96,5.8887,-2.3944,0.1816,0.0092,0.0239,1.6213,rough,14.0,1,11.037
4540,145.28,5.8608,-1.9715,0.1798,0.0002,-0.0006,1.6912,rough,14.0,1,10.646
4550,145.60,5.8044,-1.5411,0.1799,0.0002,-0.0000,1.7610,rough,14.0,1,10.238
4560,145.92,5.7180,-1.1142,0.1799,0.0002,-0.0000,1.8181,rough,14.0,1,9.821
4570,146.24,5.6074,-0.6914,0.1799,0.0001,-0.0000,1.8653,rough,14.0,1,9.398
4580,146.56,5.4769,-0.2730,0.1799,0.0001,-0.0000,1.9053,rough,14.0,1,8.969
4590,146.88,5.3296,0.1408,0.1799,0.0001,-0.0000,1.9400,rough,14.0,1,8.537
4600,147.20,5.1679,0.5496,0.1799,0.0001,-0.0000,1.9691,rough,14.0,1,8.103
4610,147.52,5.0002,0.9562,0.1799,0.0000,-0.0000,1.9720,rough,14.0,1,7.668
4620,147.84,4.8253,1.3643,0.1799,0.0000,-0.0000,1.9851,rough,14.0,1,7.229
4630,148.16,4.6451,1.7704,0.1799,0.0000,-0.0000,1.9972,rough,14.0,1,6.789
4640,148.48,4.4599,2.1745,0.1799,0.0000,-0.0000,2.0084,rough,14.0,1,6.349
4650,148.80,4.2701,2.5767,0.1799,0.0000,-0.0000,2.0190,rough,14.0,1,5.908
4660,149.12,4.0761,2.9770,0.1799,0.0000,-0.0000,2.0290,rough,14.0,1,5.467
4670,149.44,3.8781,3.3755,0.1799,0.0000,-0.0000,2.0386,rough,14.0,1,5.027
4680,149.76,3.6761,3.7716,0.1796,0.0037,0.0032,2.0490,rough,14.0,1,4.586
4690,150.08,3.4658,4.1458,0.1888,-0.0564,-0.0664,2.0553,rough,14.0,1,4.160
4700,150.40,3.2381,4.5225,0.2204,-0.1218,0.0167,2.0178,rough,14.0,1,3.721
4710,150.72,3.0519,4.7961,0.2661,-0.2626,-0.3029,2.0558,rough,14.0,1,3.391
4720,151.04,2.8522,5.0752,0.3588,-0.3470,-0.3548,2.0095,rough,14.0,1,3.048
4730,151.36,2.6686,5.3867,0.5173,-0.4406,-0.4537,2.0886,rough,14.0,1,2.689
4740,151.68,2.4555,5.6706,0.6827,-0.4757,-0.4428,2.1242,rough,14.0,1,2.334
4750,152.00,2.2305,5.9877,0.8451,-0.5699,-0.4395,2.1683,rough,14.0,1,1.946
4760,152.32,1.9988,6.3032,0.9853,-0.5456,-0.3913,2.1586,rough,14.0,1,1.554
4770,152.64,1.7705,6.6273,1.1427,-0.5320,-0.4274,2.1681,rough,14.0,1,1.159
4780,152.96,1.5479,6.9461,1.3179,-0.5158,-0.4564,2.1767,rough,14.0,2,0.773
4790,153.28,1.3711,6.9961,1.3143,-0.6720,-0.1097,2.7212,rough,14.0,2,15.090
4800,153.60,1.1442,6.9770,1.2547,-0.6440,0.1813,-3.1261,rough,14.0,2,14.936
4810,153.92,0.8643,6.8983,1.1472,-0.5686,0.3324,-2.8714,rough,14.0,2,14.705
4820,154.24,0.5830,6.7483,1.0136,-0.4542,0.3765,-2.6088,rough,14.0,2,14.418
4830,154.56,0.3223,6.5351,0.8636,-0.3777,0.4130,-2.4133,rough,14.0,2,14.093
4840,154.88,0.0695,6.2793,0.7114,-0.3040,0.4252,-2.2323,rough,14.0,2,13.737
4850,155.20,-0.1277,5.9622,0.5415,-0.2394,0.4255,-2.0998,rough,14.0,2,13.365
4860,155.52,-0.2893,5.6212,0.3781,-0.1617,0.3888,-1.9776,rough,14.0,2,12.994
4870,155.84,-0.4295,5.2600,0.2524,-0.0576,0.2772,-1.8933,rough,14.0,2,12.619
4880,156.16,-0.5212,4.9075,0.1887,-0.0194,0.1070,-1.7767,rough,14.0,2,12.281
4890,156.48,-0.5983,4.5059,0.1796,-0.0000,-0.0014,-1.7827,rough,14.0,2,11.915
4900,156.80,-0.6997,4.0798,0.1794,-0.0001,0.0028,-1.8359,rough,14.0,2,11.518
4910,157.12,-0.8176,3.6742,0.1868,0.0038,-0.0434,-1.8639,rough,14.0,2,11.128
4920,157.44,-0.9594,3.2477,0.1953,0.0345,0.0137,-1.8966,rough,14.0,2,10.710
4930,157.76,-1.1091,2.8337,0.1842,0.0276,0.0222,-1.9385,rough,14.0,2,10.299
4940,158.08,-1.2695,2.4263,0.1816,0.0051,0.0084,-1.9731,rough,14.0,2,9.888
4950,158.40,-1.4415,2.0268,0.1823,-0.0042,-0.0126,-2.0064,rough,14.0,2,9.477
4960,158.72,-1.6248,1.6276,0.1887,-0.0270,-0.0109,-2.0342,rough,14.0,2,9.061
4970,159.04,-1.8209,1.2303,0.1905,-0.0360,0.0145,-2.0588,rough,14.0,2,8.640
4980,159.36,-2.0315,0.8387,0.1891,-0.0331,0.0195,-2.0790,rough,14.0,2,8.214
4990,159.68,-2.2523,0.4559,0.1792,0.0005,-0.0018,-2.0954,rough,14.0,2,7.789
5000,160.00,-2.4760,0.0731,0.1798,-0.0000,-0.0002,-2.1132,rough,14.0,2,7.364
5010,160.32,-2.7067,-0.3032,0.1798,-0.0000,-0.0001,-2.1340,rough,14.0,2,6.941
5020,160.64,-2.9453,-0.6741,0.1796,-0.0027,0.0002,-2.1535,rough,14.0,2,6.517
5030,160.96,-3.1935,-1.0373,0.1842,0.0198,-0.0081,-2.1683,rough,14.0,2,6.093
5040,161.28,-3.4448,-1.4006,0.1823,0.0066,-0.0021,-2.1863,rough,14.0,2,5.670
5050,161.60,-3.7031,-1.7583,0.1817,0.0065,0.0053,-2.2077,rough,14.0,2,5.247
5060,161.92,-3.9676,-2.0942,0.1802,0.0008,0.0016,-2.2636,rough,14.0,2,4.834
5070,162.24,-4.2502,-2.4152,0.1856,0.0149,-0.0213,-2.2961,rough,14.0,2,4.419
5080,162.56,-4.5463,-2.7311,0.1937,0.0318,-0.0238,-2.3288,rough,14.0,2,3.997
5090,162.88,-4.8528,-3.0354,0.2020,0.0483,-0.0247,-2.3615,rough,14.0,2,3.575
5100,163.20,-5.1793,-3.3444,0.1906,0.0406,0.0395,-2.3917,rough,14.0,2,3.136
5110,163.52,-5.5009,-3.6373,0.1816,0.0044,0.0092,-2.4253,rough,14.0,2,2.713
5120,163.84,-5.8322,-3.9169,0.1795,-0.0023,-0.0009,-2.4640,rough,14.0,2,2.291
5130,164.16,-6.1734,-4.1745,0.1779,0.0258,-0.0405,-2.5094,rough,14.0,2,1.873
5140,164.48,-6.5359,-4.4159,0.1908,0.0564,-0.0011,-2.5615,rough,14.0,2,1.447
5150,164.80,-6.9000,-4.6409,0.1909,0.0441,0.0144,-2.6221,rough,14.0,2,1.031
5160,165.12,-7.2819,-4.8415,0.1848,0.0018,0.0322,-2.6964,rough,14.0,3,1.139
5170,165.44,-7.6626,-4.9942,0.1782,0.0005,-0.0109,-2.8025,rough,14.0,0,0.764
5180,165.76,-7.8680,-5.0636,0.1798,0.0003,0.0002,-2.4003,rough,14.0,0,13.224
5190,166.08,-8.0279,-5.2509,0.1798,0.0000,-0.0000,-2.0436,rough,14.0,0,13.393
5200,166.40,-8.1339,-5.4832,0.1798,-0.0004,0.0000,-1.6862,rough,14.0,0,13.513
5210,166.72,-8.1712,-5.7307,0.1830,-0.0008,-0.0208,-1.3570,rough,14.0,0,13.570
5220,167.04,-8.0964,-5.9657,0.1911,-0.0155,-0.0556,-1.1883,rough,14.0,0,13.519
5230,167.36,-7.9640,-6.2370,0.2090,-0.0325,-0.0594,-0.9763,rough,14.0,0,13.419
5240,167.68,-7.7537,-6.5139,0.2155,-0.0519,-0.0416,-0.8083,rough,14.0,0,13.249
5250,168.00,-7.4638,-6.7726,0.2141,-0.0340,0.0550,-0.6722,rough,14.0,0,13.005
5260,168.32,-7.1472,-6.9976,0.1892,-0.0108,0.0313,-0.5463,rough,14.0,0,12.735
5270,168.64,-6.7917,-7.1945,0.1818,-0.0060,0.0065,-0.4338,rough,14.0,0,12.428
5280,168.96,-6.4126,-7.3483,0.1858,-0.0084,-0.0300,-0.3334,rough,14.0,0,12.093
5290,169.28,-6.0020,-7.4653,0.1876,-0.0363,-0.0041,-0.2309,rough,14.0,0,11.723
5300,169.60,-5.5754,-7.5514,0.1887,-0.0367,0.0090,-0.1648,rough,14.0,0,11.333
5310,169.92,-5.1587,-7.6221,0.1877,0.0001,-0.0324,-0.1279,rough,14.0,0,10.952
5320,170.24,-4.7305,-7.6804,0.1887,0.0396,-0.0030,-0.0633,rough,14.0,0,10.559
5330,170.56,-4.2928,-7.7023,0.1881,0.0329,0.0123,0.0023,rough,14.0,0,10.149
5340,170.88,-3.8573,-7.6979,0.1869,0.0307,0.0036,0.0560,rough,14.0,0,9.735
5350,171.20,-3.4198,-7.6636,0.1842,-0.0101,0.0049,0.1019,rough,14.0,0,9.311
5360,171.52,-2.9888,-7.6050,0.1889,-0.0314,-0.0170,0.1347,rough,14.0,0,8.886
5370,171.84,-2.5516,-7.5340,0.1866,-0.0477,-0.0139,0.1634,rough,14.0,0,8.452
5380,172.16,-2.1136,-7.4543,0.1883,-0.0433,0.0010,0.1879,rough,14.0,0,8.015
5390,172.48,-1.6842,-7.3698,0.1860,-0.0071,-0.0306,0.2124,rough,14.0,0,7.584
5400,172.80,-1.2532,-7.2759,0.1987,0.0093,-0.0376,0.2350,rough,14.0,0,7.150
5410,173.12,-0.8238,-7.1764,0.2152,0.0444,-0.0447,0.2539,rough,14.0,0,6.716
5420,173.44,-0.3883,-7.0607,0.2181,0.0496,-0.0062,0.2724,rough,14.0,0,6.271
5430,173.76,0.0479,-6.9374,0.2008,0.0577,0.0504,0.2929,rough,14.0,0,5.822
5440,174.08,0.4653,-6.8004,0.1825,0.0016,0.0121,0.2987,rough,14.0,0,5.386
5450,174.40,0.8885,-6.6686,0.1799,0.0004,0.0011,0.3069,rough,14.0,0,4.947
5460,174.72,1.3106,-6.5326,0.1799,0.0001,-0.0000,0.3225,rough,14.0,0,4.508
5470,175.04,1.7311,-6.3903,0.1804,-0.0000,-0.0030,0.3343,rough,14.0,0,4.069
5480,175.36,2.1522,-6.2442,0.1776,0.0095,0.0012,0.3440,rough,14.0,0,3.628
5490,175.68,2.5590,-6.0857,0.1919,-0.0409,-0.0213,0.3523,rough,14.0,0,3.195
5500,176.00,2.9762,-5.9248,0.1900,-0.0519,0.0035,0.3669,rough,14.0,0,2.754
5510,176.32,3.3894,-5.7634,0.1865,-0.0337,0.0017,0.3845,rough,14.0,0,2.317
5520,176.64,3.7999,-5.5963,0.1803,-0.0035,-0.0002,0.4040,rough,14.0,0,1.883
5530,176.96,4.2006,-5.4190,0.1826,-0.0103,-0.0055,0.4215,rough,14.0,0,1.455
5540,177.28,4.5892,-5.2362,0.1941,-0.0339,-0.0521,0.4419,rough,14.0,0,1.041
5550,177.60,4.9460,-5.0552,0.2051,-0.0483,-0.0219,0.5652,rough,14.0,1,13.164
5560,177.92,5.1915,-4.8878,0.2205,-0.0485,-0.0781,0.7790,rough,14.0,1,13.081
5570,178.24,5.3872,-4.6155,0.2349,-0.1268,-0.0628,0.9595,rough,14.0,1,12.888
5580,178.56,5.5581,-4.2850,0.2412,-0.1929,-0.0296,1.1136,rough,14.0,1,12.638
5590,178.88,5.6879,-3.9256,0.2489,-0.2153,-0.0250,1.2529,rough,14.0,1,12.352
5600,179.20,5.7796,-3.5249,0.2349,-0.2382,0.0351,1.3684,rough,14.0,1,12.018
5610,179.52,5.8477,-3.1297,0.2246,-0.2196,0.0224,1.4405,rough,14.0,1,11.684
5620,179.84,5.8970,-2.7074,0.2002,-0.0507,0.0699,1.5476,rough,14.0,1,11.322
5630,180.16,5.8853,-2.2904,0.1763,-0.0051,0.0068,1.6328,rough,14.0,1,10.942
5640,180.48,5.8495,-1.8608,0.1797,0.0003,0.0010,1.7160,rough,14.0,1,10.542
5650,180.80,5.7824,-1.4317,0.1799,0.0002,0.0001,1.7813,rough,14.0,1,10.131
5660,181.12,5.6874,-1.0060,0.1799,0.0002,0.0000,1.8344,rough,14.0,1,9.712
5670,181.44,5.5699,-0.5845,0.1799,0.0001,-0.0000,1.8786,rough,14.0,1,9.286
5680,181.76,5.4338,-0.1676,0.1799,0.0001,-0.0000,1.9165,rough,14.0,1,8.856
5690,182.08,5.2818,0.2449,0.1799,0.0001,-0.0000,1.9494,rough,14.0,1,8.423
5700,182.40,5.1163,0.6523,0.1799,0.0001,-0.0000,1.9766,rough,14.0,1,7.988
5710,182.72,4.9396,1.0557,0.1799,0.0001,-0.0000,2.0015,rough,14.0,1,7.552
5720,183.04,4.7529,1.4550,0.1799,0.0001,-0.0000,2.0244,rough,14.0,1,7.114
5730,183.36,4.5568,1.8504,0.1799,0.0001,-0.0000,2.0459,rough,14.0,1,6.674
5740,183.68,4.3523,2.2417,0.1799,0.0001,-0.0000,2.0662,rough,14.0,1,6.234
5750,184.00,4.1397,2.6290,0.1799,0.0001,-0.0000,2.0858,rough,14.0,1,5.793
5760,184.32,3.9196,3.0121,0.1799,0.0001,-0.0000,2.1049,rough,14.0,1,5.352
5770,184.64,3.6921,3.3908,0.1799,0.0001,-0.0000,2.1240,rough,14.0,1,4.910
5780,184.96,3.4574,3.7650,0.1799,0.0001,0.0000,2.1434,rough,14.0,1,4.469
5790,185.28,3.2143,4.1199,0.1902,-0.0303,-0.0288,2.1605,rough,14.0,1,4.039
5800,185.60,2.9849,4.4667,0.1862,-0.0190,-0.0187,2.1198,rough,14.0,1,3.623
5810,185.92,2.7734,4.7648,0.2382,-0.0965,-0.3165,2.1315,rough,14.0,1,3.258
5820,186.24,2.5478,5.0477,0.3018,-0.3027,-0.3466,2.1277,rough,14.0,1,2.898
5830,186.56,2.3221,5.3557,0.4484,-0.3878,-0.4117,2.1567,rough,14.0,1,2.518
5840,186.88,2.0742,5.6325,0.5784,-0.4342,-0.3074,2.1317,rough,14.0,1,2.154
5850,187.20,1.8467,5.9426,0.7000,-0.4758,-0.3432,2.1556,rough,14.0,1,1.772
5860,187.52,1.6252,6.2321,0.8358,-0.4511,-0.3853,2.1695,rough,14.0,1,1.414
5870,187.84,1.4014,6.5357,0.9856,-0.4935,-0.4403,2.1665,rough,14.0,1,1.047
5880,188.16,1.2046,6.8060,1.1394,-0.4830,-0.4546,2.1945,rough,14.0,2,14.838
5890,188.48,1.0100,6.9336,1.1961,-0.6227,-0.2425,2.6023,rough,14.0,2,14.821
5900,188.80,0.7688,6.9568,1.1788,-0.6440,0.0280,3.0053,rough,14.0,2,14.696
5910,189.12,0.5303,6.9095,1.1167,-0.6015,0.1845,-2.9497,rough,14.0,2,14.518
5920,189.44,0.2562,6.7895,1.0035,-0.4858,0.3235,-2.7024,rough,14.0,2,14.262
5930,189.76,-0.0012,6.6010,0.8889,-0.3839,0.3395,-2.4803,rough,14.0,2,13.961
5940,190.08,-0.2444,6.3593,0.7501,-0.2999,0.4006,-2.2743,rough,14.0,2,13.624
5950,190.40,-0.4452,6.0592,0.5906,-0.2261,0.4258,-2.1021,rough,14.0,2,13.263
5960,190.72,-0.6060,5.7378,0.4314,-0.1431,0.3979,-1.9188,rough,14.0,2,12.907
5970,191.04,-0.7230,5.3858,0.2854,-0.0723,0.3542,-1.7724,rough,14.0,2,12.551
5980,191.36,-0.7827,5.0197,0.2026,-0.0397,0.0768,-1.7064,rough,14.0,2,12.217
5990,191.68,-0.8121,4.6296,0.1789,0.0013,-0.0087,-1.5403,rough,14.0,2,11.885
6000,192.00,-0.7959,4.2328,0.1798,-0.0002,-0.0000,-1.5255,rough,14.0,2,11.578
6010,192.32,-0.7922,3.8388,0.1799,-0.0129,-0.0149,-1.6858,rough,14.0,2,11.272
6020,192.64,-0.8515,3.4428,0.1922,0.0167,-0.0228,-1.7424,rough,14.0,2,10.929
6030,192.96,-0.9415,3.0417,0.1895,0.0215,0.0016,-1.8592,rough,14.0,2,10.566
6040,193.28,-1.0776,2.6418,0.1845,0.0138,0.0227,-1.9422,rough,14.0,2,10.177
6050,193.60,-1.2385,2.2577,0.1792,0.0019,0.0042,-2.0354,rough,14.0,2,9.785
6060,193.92,-1.4290,1.8853,0.1829,-0.0132,-0.0052,-2.1201,rough,14.0,2,9.383
6070,194.24,-1.6516,1.5259,0.1900,-0.0297,-0.0124,-2.1836,rough,14.0,2,8.969
6080,194.56,-1.8942,1.1749,0.1947,-0.0533,0.0080,-2.2403,rough,14.0,2,8.549
6090,194.88,-2.1652,0.8406,0.1917,-0.0550,0.0027,-2.2901,rough,14.0,2,8.120
6100,195.20,-2.4644,0.5218,0.1818,0.0010,0.0100,-2.3334,rough,14.0,2,7.683
6110,195.52,-2.7680,0.2109,0.1802,-0.0052,0.0006,-2.3783,rough,14.0,2,7.249
6120,195.84,-3.0874,-0.0857,0.1815,-0.0059,-0.0040,-2.4213,rough,14.0,2,6.813
6130,196.16,-3.4044,-0.3687,0.1859,-0.0253,-0.0090,-2.4569,rough,14.0,2,6.389
6140,196.48,-3.7400,-0.6395,0.1967,-0.0427,-0.0114,-2.5023,rough,14.0,2,5.961
6150,196.80,-4.0911,-0.8942,0.1921,-0.0466,-0.0050,-2.5466,rough,14.0,2,5.534
6160,197.12,-4.4602,-1.1365,0.1887,-0.0353,0.0143,-2.5954,rough,14.0,2,5.105
6170,197.44,-4.7408,-1.1978,0.1850,0.0122,-0.0442,-2.3975,rough,14.0,2,4.874
6180,197.76,-4.8250,-1.2007,0.1851,-0.0116,0.0111,-2.1320,rough,14.0,2,4.818
6190,198.08,-4.8928,-1.1584,0.1866,-0.0153,0.0151,-2.1394,rough,14.0,2,4.808
6200,198.40,-4.9932,-1.1168,0.1870,0.0007,0.0054,-1.8323,rough,14.0,2,4.779
6210,198.72,-5.0551,-1.1049,0.1893,0.0100,-0.0146,-1.7747,rough,14.0,2,4.751
6220,199.04,-5.0973,-1.0861,0.1873,0.0231,-0.0063,-1.6778,rough,14.0,2,4.741
6230,199.36,-5.1369,-1.0863,0.1884,0.0224,-0.0097,-1.6560,rough,14.0,2,4.718
6240,199.68,-5.1653,-1.0825,0.1884,0.0256,-0.0103,-1.6255,rough,14.0,2,4.704
6250,200.00,-5.1835,-1.0840,0.1891,0.0167,-0.0089,-1.6125,rough,14.0,2,4.693
6260,200.32,-5.1983,-1.0844,0.1894,0.0152,-0.0094,-1.6033,rough,14.0,2,4.684
6270,200.64,-5.2067,-1.0849,0.1875,0.0101,-0.0011,-1.5789,rough,14.0,2,4.678
6280,200.96,-5.2099,-1.0834,0.1893,0.0124,-0.0081,-1.5763,rough,14.0,2,4.678
6290,201.28,-5.2117,-1.0846,0.1894,0.0122,-0.0084,-1.5743,rough,14.0,2,4.676
6300,201.60,-5.2128,-1.0847,0.1895,0.0120,-0.0086,-1.5729,rough,14.0,2,4.675
6310,201.92,-5.2134,-1.0848,0.1895,0.0120,-0.0087,-1.5718,rough,14.0,2,4.675
6320,202.24,-5.2136,-1.0848,0.1895,0.0120,-0.0089,-1.5710,rough,14.0,2,4.675
6330,202.56,-5.2137,-1.0848,0.1895,0.0122,-0.0090,-1.5707,rough,14.0,2,4.675
6340,202.88,-5.2137,-1.0848,0.1896,0.0123,-0.0091,-1.5706,rough,14.0,2,4.675
6350,203.20,-5.2136,-1.0848,0.1896,0.0124,-0.0092,-1.5706,rough,14.0,2,4.675
6360,203.52,-5.2136,-1.0847,0.1896,0.0125,-0.0093,-1.5706,rough,14.0,2,4.675
6370,203.84,-5.2135,-1.0847,0.1896,0.0125,-0.0094,-1.5705,rough,14.0,2,4.675
6380,204.16,-5.2135,-1.0847,0.1896,0.0126,-0.0094,-1.5705,rough,14.0,2,4.675
6390,204.48,-5.2134,-1.0847,0.1896,0.0126,-0.0095,-1.5705,rough,14.0,2,4.675
6400,204.80,-5.2134,-1.0847,0.1896,0.0127,-0.0095,-1.5705,rough,14.0,2,4.675
6410,205.12,-5.2133,-1.0847,0.1896,0.0127,-0.0096,-1.5705,rough,14.0,2,4.675
6420,205.44,-5.2132,-1.0847,0.1896,0.0127,-0.0096,-1.5705,rough,14.0,2,4.675
6430,205.76,-5.2132,-1.0847,0.1896,0.0128,-0.0097,-1.5706,rough,14.0,2,4.675
6440,206.08,-5.2131,-1.0847,0.1896,0.0128,-0.0097,-1.5706,rough,14.0,2,4.675
6450,206.40,-5.2130,-1.0847,0.1896,0.0128,-0.0097,-1.5706,rough,14.0,2,4.675
6460,206.72,-5.2130,-1.0847,0.1896,0.0129,-0.0097,-1.5706,rough,14.0,2,4.675
6470,207.04,-5.2129,-1.0847,0.1896,0.0129,-0.0098,-1.5706,rough,14.0,2,4.675
6480,207.36,-5.2129,-1.0847,0.1896,0.0129,-0.0098,-1.5706,rough,14.0,2,4.675
6490,207.68,-5.2128,-1.0847,0.1896,0.0129,-0.0098,-1.5706,rough,14.0,2,4.675
6500,208.00,-5.2127,-1.0847,0.1897,0.0129,-0.0098,-1.5706,rough,14.0,2,4.675
6510,208.32,-5.2127,-1.0847,0.1897,0.0130,-0.0098,-1.5706,rough,14.0,2,4.675
6520,208.64,-5.2126,-1.0847,0.1897,0.0130,-0.0098,-1.5706,rough,14.0,2,4.675
6530,208.96,-5.2125,-1.0847,0.1897,0.0130,-0.0098,-1.5706,rough,14.0,2,4.675
6540,209.28,-5.2125,-1.0847,0.1897,0.0130,-0.0098,-1.5706,rough,14.0,2,4.675
6550,209.60,-5.2124,-1.0847,0.1897,0.0130,-0.0099,-1.5706,rough,14.0,2,4.675
6560,209.92,-5.2124,-1.0847,0.1897,0.0130,-0.0099,-1.5706,rough,14.0,2,4.675
6570,210.24,-5.2123,-1.0847,0.1897,0.0130,-0.0099,-1.5706,rough,14.0,2,4.675
6580,210.56,-5.2122,-1.0847,0.1897,0.0131,-0.0099,-1.5706,rough,14.0,2,4.675
6590,210.88,-5.2122,-1.0847,0.1897,0.0131,-0.0099,-1.5706,rough,14.0,2,4.675
6600,211.20,-5.2121,-1.0847,0.1897,0.0131,-0.0099,-1.5706,rough,14.0,2,4.676
6610,211.52,-5.2121,-1.0847,0.1897,0.0131,-0.0099,-1.5706,rough,14.0,2,4.676
6620,211.84,-5.2120,-1.0847,0.1897,0.0131,-0.0099,-1.5706,rough,14.0,2,4.676
6630,212.16,-5.2119,-1.0847,0.1897,0.0131,-0.0099,-1.5706,rough,14.0,2,4.676
6640,212.48,-5.2119,-1.0847,0.1897,0.0131,-0.0099,-1.5706,rough,14.0,2,4.676
6650,212.80,-5.2118,-1.0847,0.1897,0.0131,-0.0099,-1.5706,rough,14.0,2,4.676
6660,213.12,-5.2117,-1.0847,0.1897,0.0132,-0.0099,-1.5706,rough,14.0,2,4.676
6670,213.44,-5.2117,-1.0847,0.1897,0.0132,-0.0099,-1.5706,rough,14.0,2,4.676
6680,213.76,-5.2116,-1.0847,0.1897,0.0132,-0.0099,-1.5706,rough,14.0,2,4.676
6690,214.08,-5.2116,-1.0847,0.1897,0.0132,-0.0099,-1.5706,rough,14.0,2,4.676
6700,214.40,-5.2115,-1.0847,0.1897,0.0132,-0.0099,-1.5706,rough,14.0,2,4.676
6710,214.72,-5.2114,-1.0847,0.1897,0.0132,-0.0099,-1.5706,rough,14.0,2,4.676
6720,215.04,-5.2114,-1.0847,0.1897,0.0132,-0.0099,-1.5706,rough,14.0,2,4.676
6730,215.36,-5.2113,-1.0847,0.1897,0.0132,-0.0099,-1.5706,rough,14.0,2,4.676
6740,215.68,-5.2113,-1.0847,0.1897,0.0132,-0.0099,-1.5706,rough,14.0,2,4.676
6750,216.00,-5.2112,-1.0847,0.1897,0.0133,-0.0099,-1.5706,rough,14.0,2,4.676
6760,216.32,-5.2111,-1.0847,0.1897,0.0133,-0.0099,-1.5706,rough,14.0,2,4.676
6770,216.64,-5.2111,-1.0847,0.1897,0.0133,-0.0099,-1.5706,rough,14.0,2,4.676
6780,216.96,-5.2110,-1.0847,0.1897,0.0133,-0.0099,-1.5706,rough,14.0,2,4.676
6790,217.28,-5.2110,-1.0847,0.1897,0.0133,-0.0099,-1.5706,rough,14.0,2,4.676
6800,217.60,-5.2109,-1.0847,0.1897,0.0133,-0.0099,-1.5706,rough,14.0,2,4.676
6810,217.92,-5.2108,-1.0847,0.1897,0.0133,-0.0099,-1.5706,rough,14.0,2,4.676
6820,218.24,-5.2108,-1.0847,0.1897,0.0133,-0.0099,-1.5706,rough,14.0,2,4.676
6830,218.56,-5.2107,-1.0847,0.1897,0.0133,-0.0099,-1.5706,rough,14.0,2,4.676
6840,218.88,-5.2107,-1.0847,0.1896,0.0134,-0.0099,-1.5706,rough,14.0,2,4.676
6850,219.20,-5.2106,-1.0847,0.1896,0.0134,-0.0099,-1.5706,rough,14.0,2,4.676
6860,219.52,-5.2105,-1.0847,0.1896,0.0134,-0.0099,-1.5706,rough,14.0,2,4.676
6870,219.84,-5.2105,-1.0847,0.1896,0.0134,-0.0099,-1.5706,rough,14.0,2,4.676
6880,220.16,-5.2104,-1.0847,0.1896,0.0134,-0.0099,-1.5706,rough,14.0,2,4.676
6890,220.48,-5.2104,-1.0847,0.1896,0.0134,-0.0099,-1.5706,rough,14.0,2,4.677
6900,220.80,-5.2103,-1.0847,0.1896,0.0134,-0.0099,-1.5706,rough,14.0,2,4.677
6910,221.12,-5.2102,-1.0847,0.1896,0.0134,-0.0099,-1.5706,rough,14.0,2,4.677
6920,221.44,-5.2102,-1.0847,0.1896,0.0134,-0.0099,-1.5706,rough,14.0,2,4.677
6930,221.76,-5.2101,-1.0847,0.1896,0.0134,-0.0099,-1.5706,rough,14.0,2,4.677
6940,222.08,-5.2101,-1.0847,0.1896,0.0135,-0.0099,-1.5706,rough,14.0,2,4.677
6950,222.40,-5.2100,-1.0847,0.1896,0.0135,-0.0099,-1.5706,rough,14.0,2,4.677
6960,222.72,-5.2100,-1.0847,0.1896,0.0135,-0.0099,-1.5706,rough,14.0,2,4.677
6970,223.04,-5.2099,-1.0847,0.1896,0.0135,-0.0099,-1.5706,rough,14.0,2,4.677
6980,223.36,-5.2098,-1.0847,0.1896,0.0135,-0.0099,-1.5706,rough,14.0,2,4.677
6990,223.68,-5.2098,-1.0847,0.1896,0.0135,-0.0099,-1.5706,rough,14.0,2,4.677
7000,224.00,-5.2097,-1.0847,0.1896,0.0135,-0.0099,-1.5706,rough,14.0,2,4.677
7010,224.32,-5.2097,-1.0847,0.1896,0.0135,-0.0099,-1.5706,rough,14.0,2,4.677
7020,224.64,-5.2096,-1.0847,0.1896,0.0135,-0.0099,-1.5706,rough,14.0,2,4.677
7030,224.96,-5.2095,-1.0847,0.1896,0.0136,-0.0099,-1.5706,rough,14.0,2,4.677
7040,225.28,-5.2095,-1.0847,0.1896,0.0136,-0.0099,-1.5706,rough,14.0,2,4.677
7050,225.60,-5.2094,-1.0847,0.1896,0.0136,-0.0099,-1.5706,rough,14.0,2,4.677
7060,225.92,-5.2094,-1.0847,0.1896,0.0136,-0.0099,-1.5706,rough,14.0,2,4.677
7070,226.24,-5.2093,-1.0847,0.1896,0.0136,-0.0099,-1.5706,rough,14.0,2,4.677
7080,226.56,-5.2093,-1.0847,0.1896,0.0136,-0.0099,-1.5706,rough,14.0,2,4.677
7090,226.88,-5.2092,-1.0847,0.1896,0.0136,-0.0099,-1.5706,rough,14.0,2,4.677
7100,227.20,-5.2091,-1.0847,0.1896,0.0136,-0.0099,-1.5706,rough,14.0,2,4.677
7110,227.52,-5.2091,-1.0847,0.1896,0.0136,-0.0099,-1.5706,rough,14.0,2,4.677
7120,227.84,-5.2090,-1.0847,0.1896,0.0136,-0.0099,-1.5706,rough,14.0,2,4.677
7130,228.16,-5.2090,-1.0847,0.1896,0.0137,-0.0099,-1.5706,rough,14.0,2,4.677
7140,228.48,-5.2089,-1.0847,0.1896,0.0137,-0.0099,-1.5706,rough,14.0,2,4.677
7150,228.80,-5.2088,-1.0847,0.1896,0.0137,-0.0099,-1.5706,rough,14.0,2,4.677
7160,229.12,-5.2088,-1.0847,0.1896,0.0137,-0.0099,-1.5706,rough,14.0,2,4.677
7170,229.44,-5.2087,-1.0847,0.1896,0.0137,-0.0099,-1.5706,rough,14.0,2,4.677
7180,229.76,-5.2087,-1.0847,0.1896,0.0137,-0.0099,-1.5706,rough,14.0,2,4.677
7190,230.08,-5.2086,-1.0847,0.1896,0.0137,-0.0099,-1.5706,rough,14.0,2,4.678
7200,230.40,-5.2086,-1.0847,0.1896,0.0137,-0.0099,-1.5706,rough,14.0,2,4.678
7210,230.72,-5.2085,-1.0847,0.1896,0.0137,-0.0099,-1.5706,rough,14.0,2,4.678
7220,231.04,-5.2084,-1.0847,0.1896,0.0137,-0.0099,-1.5706,rough,14.0,2,4.678
7230,231.36,-5.2084,-1.0847,0.1896,0.0138,-0.0099,-1.5706,rough,14.0,2,4.678
7240,231.68,-5.2083,-1.0847,0.1896,0.0138,-0.0099,-1.5706,rough,14.0,2,4.678
7250,232.00,-5.2083,-1.0847,0.1896,0.0138,-0.0099,-1.5706,rough,14.0,2,4.678
7260,232.32,-5.2082,-1.0847,0.1896,0.0138,-0.0099,-1.5706,rough,14.0,2,4.678
7270,232.64,-5.2082,-1.0847,0.1896,0.0138,-0.0099,-1.5706,rough,14.0,2,4.678
7280,232.96,-5.2081,-1.0847,0.1896,0.0138,-0.0099,-1.5706,rough,14.0,2,4.678
7290,233.28,-5.2081,-1.0847,0.1896,0.0138,-0.0099,-1.5706,rough,14.0,2,4.678
7300,233.60,-5.2080,-1.0847,0.1896,0.0138,-0.0099,-1.5706,rough,14.0,2,4.678
7310,233.92,-5.2079,-1.0847,0.1896,0.0138,-0.0099,-1.5706,rough,14.0,2,4.678
7320,234.24,-5.2079,-1.0847,0.1896,0.0139,-0.0099,-1.5706,rough,14.0,2,4.678
7330,234.56,-5.2078,-1.0847,0.1896,0.0139,-0.0099,-1.5706,rough,14.0,2,4.678
7340,234.88,-5.2078,-1.0847,0.1896,0.0139,-0.0099,-1.5706,rough,14.0,2,4.678
7350,235.20,-5.2077,-1.0847,0.1896,0.0139,-0.0099,-1.5706,rough,14.0,2,4.678
7360,235.52,-5.2077,-1.0847,0.1896,0.0139,-0.0099,-1.5706,rough,14.0,2,4.678
7370,235.84,-5.2076,-1.0847,0.1896,0.0139,-0.0099,-1.5706,rough,14.0,2,4.678
7380,236.16,-5.2075,-1.0847,0.1896,0.0139,-0.0099,-1.5706,rough,14.0,2,4.678
7390,236.48,-5.2075,-1.0847,0.1896,0.0139,-0.0099,-1.5706,rough,14.0,2,4.678
7400,236.80,-5.2074,-1.0847,0.1896,0.0139,-0.0099,-1.5706,rough,14.0,2,4.678
7410,237.12,-5.2074,-1.0847,0.1896,0.0139,-0.0099,-1.5706,rough,14.0,2,4.678
7420,237.44,-5.2073,-1.0847,0.1896,0.0139,-0.0099,-1.5706,rough,14.0,2,4.678
7430,237.76,-5.2073,-1.0847,0.1896,0.0140,-0.0099,-1.5706,rough,14.0,2,4.678
7440,238.08,-5.2072,-1.0847,0.1896,0.0140,-0.0099,-1.5706,rough,14.0,2,4.678
7450,238.40,-5.2072,-1.0847,0.1896,0.0140,-0.0099,-1.5706,rough,14.0,2,4.678
7460,238.72,-5.2071,-1.0847,0.1896,0.0140,-0.0099,-1.5706,rough,14.0,2,4.678
7470,239.04,-5.2070,-1.0847,0.1896,0.0140,-0.0099,-1.5706,rough,14.0,2,4.678
7480,239.36,-5.2070,-1.0847,0.1896,0.0140,-0.0099,-1.5706,rough,14.0,2,4.678
7490,239.68,-5.2069,-1.0847,0.1896,0.0140,-0.0099,-1.5706,rough,14.0,2,4.678
7500,240.00,-5.2069,-1.0847,0.1896,0.0140,-0.0099,-1.5706,rough,14.0,2,4.679
7510,240.32,-5.2068,-1.0847,0.1896,0.0140,-0.0099,-1.5706,rough,14.0,2,4.679
7520,240.64,-5.2068,-1.0847,0.1896,0.0140,-0.0099,-1.5706,rough,14.0,2,4.679
7530,240.96,-5.2067,-1.0847,0.1896,0.0141,-0.0099,-1.5706,rough,14.0,2,4.679
7540,241.28,-5.2067,-1.0847,0.1896,0.0141,-0.0099,-1.5706,rough,14.0,2,4.679
7550,241.60,-5.2066,-1.0847,0.1896,0.0141,-0.0099,-1.5706,rough,14.0,2,4.679
7560,241.92,-5.2066,-1.0847,0.1896,0.0141,-0.0099,-1.5706,rough,14.0,2,4.679
7570,242.24,-5.2065,-1.0847,0.1896,0.0141,-0.0099,-1.5706,rough,14.0,2,4.679
7580,242.56,-5.2064,-1.0847,0.1896,0.0141,-0.0099,-1.5706,rough,14.0,2,4.679
7590,242.88,-5.2064,-1.0847,0.1896,0.0141,-0.0099,-1.5706,rough,14.0,2,4.679
7600,243.20,-5.2063,-1.0847,0.1896,0.0141,-0.0099,-1.5706,rough,14.0,2,4.679
7610,243.52,-5.2063,-1.0847,0.1896,0.0141,-0.0099,-1.5706,rough,14.0,2,4.679
7620,243.84,-5.2062,-1.0847,0.1896,0.0141,-0.0099,-1.5706,rough,14.0,2,4.679
7630,244.16,-5.2062,-1.0847,0.1896,0.0142,-0.0099,-1.5706,rough,14.0,2,4.679
7640,244.48,-5.2061,-1.0847,0.1896,0.0142,-0.0099,-1.5706,rough,14.0,2,4.679
7650,244.80,-5.2061,-1.0847,0.1896,0.0142,-0.0099,-1.5706,rough,14.0,2,4.679
7660,245.12,-5.2060,-1.0847,0.1896,0.0142,-0.0099,-1.5706,rough,14.0,2,4.679
7670,245.44,-5.2060,-1.0847,0.1896,0.0142,-0.0099,-1.5706,rough,14.0,2,4.679
7680,245.76,-5.2059,-1.0847,0.1896,0.0142,-0.0099,-1.5706,rough,14.0,2,4.679
7690,246.08,-5.2059,-1.0847,0.1896,0.0142,-0.0099,-1.5706,rough,14.0,2,4.679
7700,246.40,-5.2058,-1.0847,0.1896,0.0142,-0.0099,-1.5706,rough,14.0,2,4.679
7710,246.72,-5.2057,-1.0847,0.1896,0.0142,-0.0099,-1.5706,rough,14.0,2,4.679
7720,247.04,-5.2057,-1.0847,0.1896,0.0142,-0.0099,-1.5706,rough,14.0,2,4.679
7730,247.36,-5.2056,-1.0847,0.1896,0.0143,-0.0099,-1.5706,rough,14.0,2,4.679
7740,247.68,-5.2056,-1.0847,0.1896,0.0143,-0.0099,-1.5706,rough,14.0,2,4.679
7750,248.00,-5.2055,-1.0847,0.1896,0.0143,-0.0099,-1.5706,rough,14.0,2,4.679
7760,248.32,-5.2055,-1.0847,0.1896,0.0143,-0.0099,-1.5706,rough,14.0,2,4.679
7770,248.64,-5.2054,-1.0847,0.1896,0.0143,-0.0099,-1.5706,rough,14.0,2,4.679
7780,248.96,-5.2054,-1.0847,0.1896,0.0143,-0.0099,-1.5706,rough,14.0,2,4.679
7790,249.28,-5.2053,-1.0847,0.1896,0.0143,-0.0099,-1.5706,rough,14.0,2,4.679
7800,249.60,-5.2053,-1.0847,0.1896,0.0143,-0.0099,-1.5706,rough,14.0,2,4.679
7810,249.92,-5.2052,-1.0847,0.1896,0.0143,-0.0099,-1.5706,rough,14.0,2,4.679
7820,250.24,-5.2052,-1.0847,0.1896,0.0143,-0.0099,-1.5706,rough,14.0,2,4.679
7830,250.56,-5.2051,-1.0847,0.1896,0.0143,-0.0099,-1.5706,rough,14.0,2,4.680
7840,250.88,-5.2051,-1.0847,0.1896,0.0144,-0.0099,-1.5706,rough,14.0,2,4.680
7850,251.20,-5.2050,-1.0847,0.1896,0.0144,-0.0099,-1.5706,rough,14.0,2,4.680
7860,251.52,-5.2050,-1.0847,0.1896,0.0144,-0.0099,-1.5706,rough,14.0,2,4.680
7870,251.84,-5.2049,-1.0847,0.1896,0.0144,-0.0099,-1.5706,rough,14.0,2,4.680
7880,252.16,-5.2048,-1.0847,0.1896,0.0144,-0.0099,-1.5706,rough,14.0,2,4.680
7890,252.48,-5.2048,-1.0847,0.1896,0.0144,-0.0099,-1.5706,rough,14.0,2,4.680
7900,252.80,-5.2047,-1.0847,0.1896,0.0144,-0.0099,-1.5706,rough,14.0,2,4.680
7910,253.12,-5.2047,-1.0847,0.1896,0.0144,-0.0099,-1.5706,rough,14.0,2,4.680
