step,time_s,x,y,z,roll,pitch,yaw,terrain,speed,target_idx,dist_to_target
10,0.32,0.8117,-0.7260,0.3261,-0.0674,-0.2680,-0.2195,slope,18.0,0,5.911
20,0.64,1.0275,-0.8019,0.3758,0.0151,-0.2490,-0.3498,slope,18.0,0,5.698
30,0.96,1.3839,-0.9756,0.4932,0.0625,-0.3310,-0.4997,slope,18.0,0,5.315
40,1.28,1.7330,-1.2237,0.6456,0.1342,-0.3679,-0.6694,slope,18.0,0,4.890
50,1.60,2.0669,-1.5468,0.8107,0.2099,-0.3548,-0.7920,slope,18.0,0,4.426
60,1.92,2.3954,-1.9260,0.9867,0.2505,-0.3339,-0.8644,slope,18.0,0,3.928
70,2.24,2.7372,-2.3468,1.1572,0.2639,-0.2940,-0.8787,slope,18.0,0,3.395
80,2.56,3.0889,-2.7701,1.3156,0.2685,-0.2690,-0.8560,slope,18.0,0,2.855
90,2.88,3.4455,-3.1789,1.4557,0.2643,-0.2532,-0.8176,slope,18.0,0,2.325
100,3.20,3.8194,-3.5706,1.5912,0.2615,-0.2499,-0.7765,slope,18.0,0,1.797
110,3.52,4.1700,-3.9111,1.7135,0.2511,-0.2485,-0.7483,slope,18.0,0,1.323
120,3.84,4.4795,-4.1983,1.8211,0.2459,-0.2554,-0.7182,slope,18.0,1,12.209
130,4.16,4.6916,-4.3851,1.8953,0.1646,-0.3201,-0.4277,slope,18.0,1,12.449
140,4.48,4.8715,-4.4802,1.9600,-0.0839,-0.3470,0.2995,slope,18.0,1,12.594
150,4.80,5.1467,-4.3100,2.0647,-0.1717,-0.3131,0.5581,slope,18.0,1,12.520
160,5.12,5.5329,-4.0256,2.2093,-0.2040,-0.2852,0.6517,slope,18.0,1,12.387
170,5.44,5.9026,-3.7033,2.3414,-0.2356,-0.2576,0.7481,slope,18.0,1,12.230
180,5.76,6.2591,-3.3436,2.4694,-0.2573,-0.2232,0.8530,slope,18.0,1,12.052
190,6.08,6.5771,-2.9455,2.5768,-0.2786,-0.1920,0.9564,slope,18.0,1,11.841
200,6.40,6.8477,-2.5178,2.6630,-0.2843,-0.1549,1.0595,rough,14.0,1,11.599
210,6.72,7.0253,-2.1458,2.7191,-0.2978,-0.1250,1.1514,rough,14.0,1,11.371
220,7.04,7.1752,-1.7581,2.7643,-0.3030,-0.1038,1.2176,rough,14.0,1,11.126
230,7.36,7.3027,-1.3582,2.8021,-0.3049,-0.0876,1.2761,rough,14.0,1,10.869
240,7.68,7.3973,-0.9571,2.8299,-0.3083,-0.0602,1.3659,rough,14.0,1,10.601
250,8.00,7.4288,-0.5584,2.8387,-0.3129,-0.0111,1.5311,rough,14.0,1,10.305
260,8.32,7.3765,-0.1644,2.8219,-0.3097,0.0513,1.7363,rough,14.0,1,9.966
270,8.64,7.2709,0.2479,2.7893,-0.3056,0.0761,1.8217,rough,14.0,1,9.582
280,8.96,7.1397,0.7018,2.7485,-0.3009,0.0841,1.8493,slope,18.0,1,9.155
290,9.28,6.9759,1.2299,2.6981,-0.3079,0.0787,1.8849,slope,18.0,1,8.656
300,9.60,6.8032,1.7281,2.6453,-0.2976,0.1050,1.9173,slope,18.0,1,8.178
310,9.92,6.6118,2.2011,2.5866,-0.3100,0.1241,1.9573,slope,18.0,1,7.711
320,10.24,6.4072,2.6752,2.5180,-0.3029,0.1425,2.0023,slope,18.0,1,7.239
330,10.56,6.1720,3.1294,2.4346,-0.3169,0.1685,2.0693,slope,18.0,1,6.763
340,10.88,5.8977,3.5974,2.3367,-0.2916,0.1932,2.1153,slope,18.0,1,6.254
350,11.20,5.6036,3.9786,2.2322,-0.3497,0.1117,2.0207,slope,18.0,1,5.787
360,11.52,5.3874,4.2357,2.1421,-0.3383,0.1128,1.8463,slope,18.0,1,5.459
370,11.84,5.2081,4.7493,2.0671,-0.3549,0.1454,1.9159,slope,18.0,1,5.017
380,12.16,5.0129,5.2720,1.9840,-0.3298,0.1608,1.9492,slope,18.0,1,4.578
390,12.48,4.7878,5.7752,1.8903,-0.3372,0.1790,2.0013,slope,18.0,1,4.149
400,12.80,4.5376,6.2532,1.7842,-0.3236,0.2068,2.0825,slope,18.0,1,3.736
410,13.12,4.2497,6.7064,1.6599,-0.3074,0.2043,2.1690,slope,18.0,1,3.329
420,13.44,3.9313,7.1317,1.5330,-0.2894,0.2504,2.2513,slope,18.0,1,2.937
430,13.76,3.5927,7.5243,1.3939,-0.2583,0.2559,2.3797,slope,18.0,1,2.574
440,14.08,3.2170,7.8768,1.2504,-0.2548,0.2778,2.4003,slope,18.0,1,2.229
450,14.40,2.8843,8.1703,1.1236,-0.2435,0.2828,2.4471,slope,18.0,1,1.979
460,14.72,2.5820,8.4140,1.0111,-0.2306,0.3037,2.5258,slope,18.0,1,1.806
470,15.04,2.3048,8.6037,0.9046,-0.1944,0.2853,2.6291,slope,18.0,1,1.688
480,15.36,2.0338,8.7446,0.8095,-0.1655,0.3219,2.7285,slope,18.0,1,1.598
490,15.68,1.7853,8.8542,0.7196,-0.1276,0.3466,2.8678,slope,18.0,1,1.548
500,16.00,1.5467,8.9221,0.6326,-0.0783,0.3485,3.0019,slope,18.0,1,1.508
510,16.32,1.2901,8.9534,0.5386,-0.0735,0.3481,3.0180,slope,18.0,1,1.469
520,16.64,1.0388,8.9789,0.4471,-0.0676,0.3452,3.0379,slope,18.0,1,1.469
530,16.96,0.7904,8.9999,0.3574,-0.0616,0.3457,3.0564,slope,18.0,1,1.508
540,17.28,0.5451,9.0167,0.2691,-0.0566,0.3423,3.0721,slope,18.0,1,1.580
550,17.60,0.3046,9.0286,0.1860,-0.0543,0.3202,3.0904,slope,18.0,1,1.678
560,17.92,0.0844,9.0316,0.1289,-0.0361,0.1824,3.1323,slope,18.0,1,1.786
570,18.24,-0.1538,9.0166,0.0891,-0.0326,0.1591,-3.0835,slope,18.0,1,1.909
580,18.56,-0.3851,9.0031,0.0710,-0.0316,0.0103,-3.0643,slope,18.0,1,2.050
590,18.88,-0.6198,8.9648,0.0701,-0.0325,-0.0086,-2.9364,flat,18.0,1,2.191
600,19.20,-0.8575,8.8961,0.0724,-0.0323,-0.0106,-2.8009,flat,18.0,1,2.333
610,19.52,-1.1016,8.7971,0.0751,-0.0310,-0.0086,-2.7002,flat,18.0,1,2.481
620,19.84,-1.3630,8.6653,0.0780,-0.0298,-0.0123,-2.6340,flat,18.0,1,2.647
630,20.16,-1.6402,8.5030,0.0825,-0.0301,-0.0148,-2.5610,flat,18.0,1,2.838
640,20.48,-1.9392,8.3019,0.0889,-0.0297,-0.0195,-2.5050,flat,18.0,1,3.062
650,20.80,-2.2677,8.0517,0.0964,-0.0273,-0.0173,-2.4643,flat,18.0,1,3.331
660,21.12,-2.6355,7.7517,0.1095,-0.0275,-0.0274,-2.4405,flat,18.0,1,3.662
670,21.44,-3.0484,7.4005,0.1259,-0.0261,-0.0310,-2.4347,flat,18.0,1,4.069
680,21.76,-3.3533,7.1355,0.1390,-0.0278,-0.0320,-2.3725,flat,18.0,1,4.388
690,22.08,-3.5153,6.9166,0.1463,-0.0369,-0.0204,-2.0083,flat,18.0,1,4.573
700,22.40,-3.5874,6.6630,0.1504,-0.0400,-0.0119,-1.7629,rough,14.0,1,4.683
710,22.72,-3.6201,6.3694,0.1530,-0.0395,-0.0083,-1.6614,rough,14.0,1,4.777
720,23.04,-3.6206,6.0810,0.1548,-0.0366,-0.0042,-1.5354,rough,14.0,1,4.854
730,23.36,-3.5943,5.8848,0.1548,-0.0334,0.0121,-1.0476,rough,14.0,1,4.891
740,23.68,-3.4949,5.8262,0.1518,-0.0092,0.0312,-0.0667,flat,18.0,1,4.818
750,24.00,-3.2532,5.8738,0.1435,0.0199,0.0268,0.7987,flat,18.0,1,4.575
760,24.32,-3.0275,6.1443,0.1321,0.0183,0.0315,0.9094,flat,18.0,1,4.270
770,24.64,-2.7162,6.4899,0.1175,0.0154,0.0342,0.7011,flat,18.0,1,3.872
780,24.96,-2.3181,6.7721,0.1002,0.0079,0.0359,0.4879,flat,18.0,1,3.417
790,25.28,-1.8466,6.9964,0.0822,0.0024,0.0341,0.2970,flat,18.0,1,2.911
800,25.60,-1.3164,7.1399,0.0651,-0.0013,0.0296,0.2334,flat,18.0,1,2.364
810,25.92,-0.7969,7.2533,0.0517,-0.0016,0.0229,0.1905,slope,18.0,1,1.834
820,26.24,-0.3094,7.3565,0.0509,-0.0206,-0.0431,0.2143,slope,18.0,1,1.337
830,26.56,0.0914,7.4477,0.1043,-0.0285,-0.1966,0.2237,slope,18.0,2,14.717
840,26.88,0.3430,7.5162,0.1718,-0.0454,-0.3316,0.1606,slope,18.0,2,14.912
850,27.20,0.7151,7.5731,0.3030,-0.0353,-0.3483,0.1080,slope,18.0,2,15.168
860,27.52,1.2273,7.6280,0.4907,-0.0338,-0.3526,0.1052,slope,18.0,2,15.509
870,27.84,1.7268,7.6811,0.6769,-0.0334,-0.3585,0.1046,slope,18.0,2,15.850
880,28.16,2.2135,7.7317,0.8613,-0.0314,-0.3636,0.1007,slope,18.0,2,16.189
890,28.48,2.6872,7.7796,1.0436,-0.0300,-0.3681,0.0973,slope,18.0,2,16.526
900,28.80,3.1494,7.8243,1.2238,-0.0279,-0.3723,0.0918,slope,18.0,2,16.859
910,29.12,3.6005,7.8654,1.4017,-0.0259,-0.3763,0.0857,slope,18.0,2,17.189
920,29.44,4.0415,7.9030,1.5775,-0.0241,-0.3798,0.0791,slope,18.0,2,17.514
930,29.76,4.4734,7.9369,1.7510,-0.0223,-0.3825,0.0722,slope,18.0,2,17.836
940,30.08,4.8971,7.9673,1.9223,-0.0206,-0.3851,0.0654,slope,18.0,2,18.154
950,30.40,5.3135,7.9945,2.0914,-0.0195,-0.3865,0.0588,slope,18.0,2,18.468
960,30.72,5.7234,8.0185,2.2585,-0.0186,-0.3877,0.0525,slope,18.0,2,18.780
970,31.04,6.1274,8.0396,2.4237,-0.0178,-0.3886,0.0464,slope,18.0,2,19.090
980,31.36,6.5260,8.0582,2.5874,-0.0173,-0.3902,0.0408,slope,18.0,2,19.397
990,31.68,6.9127,8.0740,2.7469,-0.0170,-0.3931,0.0357,rough,14.0,2,19.696
1000,32.00,7.2139,8.0850,2.8720,-0.0166,-0.3949,0.0313,rough,14.0,2,19.931
1010,32.32,7.5097,8.0944,2.9963,-0.0161,-0.4004,0.0273,rough,14.0,2,20.162
1020,32.64,7.8215,8.1041,3.1122,-0.0104,-0.3053,0.0094,rough,14.0,2,20.407
1030,32.96,8.1447,8.0929,3.1884,0.0965,-0.2376,-0.0450,rough,14.0,2,20.650
1040,33.28,8.3247,7.9662,3.1957,0.4473,-0.4290,-0.0895,rough,14.0,2,20.711
1050,33.60,8.4506,7.9208,3.2620,0.5916,-0.6876,-0.4398,rough,14.0,2,20.782
1060,33.92,8.5519,7.7649,3.2499,0.7016,-0.3321,-0.6457,rough,14.0,2,20.766
1070,34.24,8.6995,7.5503,3.2319,0.7735,0.0296,-0.6585,rough,14.0,2,20.754
1080,34.56,8.8307,7.3540,3.1835,0.7956,0.0337,-0.7165,rough,14.0,2,20.742
1090,34.88,8.9425,7.2025,3.1513,0.7790,0.0448,-0.8747,rough,14.0,2,20.744
1100,35.20,9.0360,7.0191,3.0870,0.7796,0.1283,-0.9511,rough,14.0,2,20.713
1110,35.52,9.1286,6.8422,3.0332,0.7288,0.2254,-0.9944,rough,14.0,2,20.688
1120,35.84,9.1912,6.7117,2.9880,0.6955,0.2231,-1.1198,rough,14.0,2,20.666
1130,36.16,9.2310,6.5566,2.9218,0.6936,0.3293,-1.1944,rough,14.0,2,20.612
1140,36.48,9.2495,6.4119,2.8485,0.6136,0.4968,-1.3531,rough,14.0,2,20.547
1150,36.80,9.2399,6.2842,2.7719,0.4933,0.4675,-1.4965,rough,14.0,2,20.469
1160,37.12,9.2334,6.1652,2.7189,0.3209,0.4731,-1.6346,rough,14.0,2,20.399
1170,37.44,9.2215,6.0289,2.6615,0.1644,0.5395,-1.7222,rough,14.0,2,20.315
1180,37.76,9.2028,5.8899,2.5885,0.0967,0.5453,-1.7374,rough,14.0,2,20.225
1190,38.08,9.1728,5.7822,2.5498,0.0050,0.4004,-1.8479,rough,14.0,2,20.142
1200,38.40,9.1377,5.6997,2.5155,-0.0360,0.1089,-1.9191,rough,14.0,2,20.069
1210,38.72,9.1072,5.5789,2.5101,-0.0553,-0.0171,-1.9861,rough,14.0,2,19.979
1220,39.04,9.0803,5.4667,2.5257,-0.1073,-0.1670,-2.0283,rough,14.0,2,19.897
1230,39.36,9.0436,5.3530,2.5426,-0.1503,-0.3602,-2.0505,rough,14.0,2,19.807
1240,39.68,8.9992,5.2583,2.5906,-0.1253,-0.5702,-2.0385,rough,14.0,2,19.720
1250,40.00,8.9408,5.1225,2.6724,-0.1641,-0.6395,-2.0584,rough,14.0,2,19.600
1260,40.32,8.8768,4.9603,2.7570,-0.3027,-0.6394,-2.0705,rough,14.0,2,19.462
1270,40.64,8.8073,4.8125,2.8547,-0.3971,-0.6581,-2.0565,rough,14.0,2,19.328
1280,40.96,8.7284,4.6683,2.9856,-0.3814,-0.6932,-2.0654,rough,14.0,2,19.187
1290,41.28,8.6442,4.5159,3.1181,-0.3602,-0.6542,-2.0683,rough,14.0,2,19.038
1300,41.60,8.5596,4.3424,3.2537,-0.3501,-0.5902,-2.0703,rough,14.0,2,18.879
1310,41.92,8.4772,4.1653,3.3721,-0.2788,-0.6199,-2.1481,rough,14.0,2,18.721
1320,42.24,8.2814,4.0441,3.4016,0.3048,-0.5879,-2.1781,rough,14.0,2,18.491
1330,42.56,8.0363,3.7259,3.3349,0.7973,0.0196,-1.6504,rough,14.0,2,18.123
1340,42.88,7.7812,3.4110,3.1000,0.8113,0.0585,-1.4554,rough,14.0,2,17.749
1350,43.20,7.6235,3.1050,2.9767,0.4451,-0.0106,-1.4847,rough,14.0,2,17.467
1360,43.52,7.6018,2.6811,2.9455,0.3756,-0.0063,-1.4964,rough,14.0,2,17.257
1370,43.84,7.6166,2.2535,2.9425,0.3798,-0.0001,-1.5056,rough,14.0,2,17.087
1380,44.16,7.6305,1.8295,2.9367,0.3706,-0.0010,-1.5209,rough,14.0,2,16.926
1390,44.48,7.6382,1.4060,2.9263,0.3405,0.0048,-1.5340,rough,14.0,2,16.769
1400,44.80,7.6447,0.9830,2.9125,0.3141,0.0047,-1.5441,rough,14.0,2,16.620
1410,45.12,7.6531,0.5620,2.9100,0.2843,0.0060,-1.5633,rough,14.0,2,16.484
1420,45.44,7.6526,0.1432,2.9090,0.2945,0.0080,-1.5809,rough,14.0,2,16.349
1430,45.76,7.6413,-0.2750,2.9065,0.3081,0.0085,-1.5928,rough,14.0,2,16.214
1440,46.08,7.6250,-0.6983,2.9026,0.3135,0.0102,-1.6112,rough,14.0,2,16.082
1450,46.40,7.6017,-1.1247,2.8975,0.3150,0.0114,-1.6277,rough,14.0,2,15.953
1460,46.72,7.5720,-1.5552,2.8925,0.3190,0.0112,-1.6399,rough,14.0,2,15.827
1470,47.04,7.5379,-1.9909,2.8878,0.3233,0.0099,-1.6485,rough,14.0,2,15.707
1480,47.36,7.5008,-2.4328,2.8841,0.3293,0.0066,-1.6526,rough,14.0,2,15.594
1490,47.68,7.4619,-2.7760,2.8790,0.3327,0.0239,-1.7080,rough,14.0,2,15.504
1500,48.00,7.3495,-3.0092,2.8461,0.3082,0.1456,-2.0688,slope,18.0,2,15.362
1510,48.32,7.1165,-3.2488,2.7701,0.2519,0.2339,-2.3793,slope,18.0,2,15.103
1520,48.64,6.7408,-3.5271,2.6396,0.1764,0.2933,-2.6215,slope,18.0,2,14.701
1530,48.96,6.2885,-3.7169,2.4805,0.1379,0.3252,-2.7792,slope,18.0,2,14.233
1540,49.28,5.8104,-3.8526,2.3096,0.0749,0.3372,-2.8992,slope,18.0,2,13.746
1550,49.60,5.3148,-3.9432,2.1303,0.0436,0.3432,-2.9815,slope,18.0,2,13.245
1560,49.92,4.8101,-4.0049,1.9462,0.0181,0.3492,-3.0356,slope,18.0,2,12.737
1570,50.24,4.2972,-4.0431,1.7511,0.0222,0.3742,-3.0667,slope,18.0,2,12.222
1580,50.56,3.7833,-4.0795,1.5669,-0.0021,0.3567,-3.0813,slope,18.0,2,11.707
1590,50.88,3.2676,-4.1048,1.3751,-0.0088,0.3572,-3.0982,slope,18.0,2,11.191
1600,51.20,2.7474,-4.1262,1.1809,-0.0045,0.3574,-3.0894,slope,18.0,2,10.671
1610,51.52,2.2285,-4.1493,0.9878,-0.0031,0.3551,-3.0911,slope,18.0,2,10.152
1620,51.84,1.7100,-4.1699,0.7972,-0.0082,0.3502,-3.1051,slope,18.0,2,9.633
1630,52.16,1.2035,-4.1847,0.6147,-0.0168,0.3443,-3.1168,slope,18.0,2,9.127
1640,52.48,0.7333,-4.1952,0.4490,-0.0281,0.3394,-3.1248,slope,18.0,2,8.657
1650,52.80,0.2719,-4.2030,0.2949,-0.0399,0.2972,-3.1295,slope,18.0,2,8.197
1660,53.12,-0.1610,-4.2064,0.2067,-0.0624,0.1263,3.1114,slope,18.0,2,7.766
1670,53.44,-0.6049,-4.1845,0.1850,-0.0469,-0.0015,3.0914,rough,14.0,2,7.326
1680,53.76,-0.9861,-4.1764,0.1855,-0.0461,0.0007,3.1383,rough,14.0,2,6.947
1690,54.08,-1.3545,-4.1957,0.1844,-0.0433,0.0022,-3.0834,rough,14.0,2,6.579
1700,54.40,-1.7304,-4.2255,0.1831,-0.0394,0.0039,-3.0594,rough,14.0,2,6.202
1710,54.72,-2.1096,-4.2593,0.1815,-0.0353,0.0046,-3.0509,rough,14.0,2,5.822
1720,55.04,-2.5400,-4.3016,0.1802,-0.0310,0.0001,-3.0347,flat,18.0,2,5.389
1730,55.36,-3.1021,-4.3603,0.1777,-0.0169,-0.0014,-3.0500,flat,18.0,2,4.824
1740,55.68,-3.6739,-4.4090,0.1778,-0.0118,0.0066,-3.0636,flat,18.0,2,4.251
1750,56.00,-4.2454,-4.4507,0.1791,0.0023,-0.0053,-3.0664,flat,18.0,2,3.678
1760,56.32,-4.8205,-4.4933,0.1814,0.0084,0.0030,-3.0647,flat,18.0,2,3.102
1770,56.64,-5.3914,-4.5363,0.1848,0.0192,-0.0067,-3.0602,flat,18.0,2,2.531
1780,56.96,-5.9635,-4.5823,0.1885,0.0275,-0.0082,-3.0546,flat,18.0,2,1.959
1790,57.28,-6.4852,-4.6274,0.1918,0.0384,-0.0068,-3.0499,rough,14.0,2,1.438
1800,57.60,-6.8565,-4.6601,0.1955,0.0380,-0.0125,-3.0245,rough,14.0,2,1.068
1810,57.92,-7.2320,-4.7021,0.1992,0.0453,-0.0075,-3.0194,rough,14.0,3,1.202
1820,58.24,-7.6392,-4.7370,0.2026,0.0497,-0.0071,-3.0450,rough,14.0,0,12.986
1830,58.56,-8.0284,-4.7568,0.2050,0.0518,-0.0065,-3.1078,rough,14.0,0,13.375
1840,58.88,-8.3624,-4.7364,0.2051,0.0545,0.0012,3.0712,rough,14.0,0,13.709
1850,59.20,-8.6591,-4.7045,0.2038,0.0566,0.0056,3.0178,rough,14.0,0,14.005
1860,59.52,-8.9170,-4.6735,0.2024,0.0571,0.0084,2.9763,rough,14.0,0,14.263
1870,59.84,-9.1347,-4.6396,0.2006,0.0573,0.0125,2.9134,rough,14.0,0,14.480
1880,60.16,-9.3135,-4.6025,0.1985,0.0561,0.0184,2.8228,rough,14.0,0,14.658
1890,60.48,-9.4387,-4.5491,0.1954,0.0518,0.0288,2.6388,rough,14.0,0,14.783
1900,60.80,-9.5186,-4.4859,0.1916,0.0445,0.0392,2.4222,rough,14.0,0,14.863
1910,61.12,-9.5764,-4.4256,0.1880,0.0366,0.0467,2.2375,rough,14.0,0,14.921
1920,61.44,-9.6238,-4.3569,0.1840,0.0275,0.0525,2.0541,flat,18.0,0,14.969
1930,61.76,-9.6704,-4.2813,0.1795,0.0171,0.0568,1.8635,slope,18.0,0,15.017
1940,62.08,-9.7099,-4.2112,0.1753,0.0058,0.0590,1.6683,slope,18.0,0,15.058
1950,62.40,-9.7378,-4.1477,0.1716,-0.0054,0.0591,1.4790,slope,18.0,0,15.087
1960,62.72,-9.7483,-4.0896,0.1681,-0.0142,0.0576,1.3281,slope,18.0,0,15.099
1970,63.04,-9.7446,-4.0343,0.1648,-0.0209,0.0555,1.2079,slope,18.0,0,15.097
1980,63.36,-9.7285,-3.9780,0.1615,-0.0259,0.0532,1.1143,slope,18.0,0,15.083
1990,63.68,-9.6980,-3.9125,0.1576,-0.0285,0.0515,1.0601,flat,18.0,0,15.055
2000,64.00,-9.6605,-3.8433,0.1536,-0.0311,0.0496,1.0063,flat,18.0,0,15.020
2010,64.32,-9.6144,-3.7696,0.1493,-0.0335,0.0475,0.9539,flat,18.0,0,14.978
2020,64.64,-9.5579,-3.6925,0.1448,-0.0357,0.0454,0.9034,rough,14.0,0,14.926
2030,64.96,-9.5050,-3.6283,0.1411,-0.0379,0.0432,0.8549,rough,14.0,0,14.876
2040,65.28,-9.4418,-3.5591,0.1372,-0.0397,0.0411,0.8125,rough,14.0,0,14.818
2050,65.60,-9.3680,-3.4837,0.1329,-0.0413,0.0391,0.7752,rough,14.0,0,14.749
2060,65.92,-9.2810,-3.4009,0.1284,-0.0423,0.0367,0.7421,rough,14.0,0,14.669
2070,66.24,-9.1791,-3.3047,0.1233,-0.0432,0.0337,0.7120,rough,14.0,0,14.575
2080,66.56,-9.0593,-3.1991,0.1178,-0.0430,0.0318,0.6849,rough,14.0,0,14.464
2090,66.88,-8.9204,-3.0865,0.1123,-0.0436,0.0293,0.6620,rough,14.0,0,14.337
2100,67.20,-8.7600,-2.9617,0.1067,-0.0438,0.0256,0.6424,rough,14.0,0,14.191
2110,67.52,-8.5696,-2.8192,0.1011,-0.0442,0.0206,0.6246,rough,14.0,0,14.018
2120,67.84,-8.3467,-2.6596,0.0953,-0.0413,0.0181,0.6107,rough,14.0,0,13.817
2130,68.16,-8.0871,-2.4797,0.0905,-0.0407,0.0130,0.5998,rough,14.0,0,13.586
2140,68.48,-7.7847,-2.2745,0.0871,-0.0388,0.0055,0.5930,rough,14.0,0,13.320
2150,68.80,-7.4353,-2.0403,0.0860,-0.0374,0.0006,0.5905,rough,14.0,0,13.018
2160,69.12,-7.1073,-1.8378,0.0881,-0.0372,-0.0160,0.4313,rough,14.0,0,12.738
2170,69.44,-6.7090,-1.6731,0.0949,-0.0233,-0.0292,0.1224,flat,18.0,0,12.385
2180,69.76,-6.2138,-1.6392,0.1094,-0.0102,-0.0363,-0.1829,flat,18.0,0,11.912
2190,70.08,-5.7013,-1.7592,0.1264,-0.0030,-0.0246,-0.3089,flat,18.0,0,11.386
2200,70.40,-5.1839,-1.9407,0.1487,0.0032,-0.0355,-0.3727,flat,18.0,0,10.840
2210,70.72,-4.6589,-2.1530,0.1668,0.0131,-0.0378,-0.3904,flat,18.0,0,10.280
2220,71.04,-4.1284,-2.3691,0.1840,0.0056,-0.0276,-0.3794,flat,18.0,0,9.714
2230,71.36,-3.6059,-2.5743,0.1978,0.0190,-0.0267,-0.3527,flat,18.0,0,9.160
2240,71.68,-3.0744,-2.7586,0.2081,0.0188,-0.0116,-0.3126,flat,18.0,0,8.602
2250,72.00,-2.5481,-2.9254,0.2152,0.0248,-0.0084,-0.2883,flat,18.0,0,8.052
2260,72.32,-2.0077,-3.0765,0.2171,0.0273,-0.0012,-0.2569,flat,18.0,0,7.493
2270,72.64,-1.4569,-3.2143,0.2203,0.0292,-0.0006,-0.2321,flat,18.0,0,6.926
2280,72.96,-0.9097,-3.3428,0.2200,0.0336,0.0010,-0.2226,slope,18.0,0,6.364
2290,73.28,-0.3894,-3.4620,0.2239,0.0564,-0.0096,-0.2100,rough,14.0,0,5.831
2300,73.60,0.0274,-3.5584,0.2563,0.0810,-0.1340,-0.2090,slope,18.0,0,5.404
2310,73.92,0.4887,-3.6739,0.3782,0.1063,-0.2982,-0.2525,slope,18.0,0,4.929
2320,74.24,0.9845,-3.8054,0.5461,0.0961,-0.3216,-0.2635,slope,18.0,0,4.418
2330,74.56,1.4964,-3.9498,0.7247,0.1099,-0.3286,-0.2735,slope,18.0,0,3.890
2340,74.88,2.0143,-4.0971,0.9099,0.1119,-0.3333,-0.2720,slope,18.0,0,3.357
2350,75.20,2.5244,-4.2399,1.0949,0.1144,-0.3379,-0.2631,slope,18.0,0,2.834
2360,75.52,3.0277,-4.3753,1.2780,0.1153,-0.3398,-0.2487,slope,18.0,0,2.321
2370,75.84,3.5255,-4.5010,1.4595,0.1096,-0.3426,-0.2284,slope,18.0,0,1.819
2380,76.16,3.9912,-4.6063,1.6298,0.0973,-0.3516,-0.1899,slope,18.0,0,1.356
2390,76.48,4.4036,-4.6837,1.7816,0.0722,-0.3525,-0.1371,slope,18.0,1,12.655
2400,76.80,4.7426,-4.7231,1.9074,-0.0318,-0.3631,0.1513,slope,18.0,1,12.787
2410,77.12,4.9690,-4.6591,1.9934,-0.0826,-0.3491,0.2867,slope,18.0,1,12.794
2420,77.44,5.0068,-4.5797,2.0088,-0.2167,-0.2868,0.7066,slope,18.0,1,12.730
2430,77.76,5.1297,-4.4079,2.0572,-0.3337,-0.1317,1.2487,slope,18.0,1,12.607
2440,78.08,5.2129,-4.0673,2.0917,-0.3457,-0.0579,1.4524,slope,18.0,1,12.313
2450,78.40,5.1808,-3.6354,2.0851,-0.3434,0.0171,1.6522,rough,14.0,1,11.897
2460,78.72,5.1307,-3.2025,2.0722,-0.3403,0.0346,1.6961,rough,14.0,1,11.474
2470,79.04,5.0593,-2.7730,2.0509,-0.3358,0.0534,1.7455,rough,14.0,1,11.048
2480,79.36,4.9569,-2.2852,2.0161,-0.3402,0.0712,1.7852,slope,18.0,1,10.557
2490,79.68,4.8225,-1.7330,1.9701,-0.3379,0.0941,1.8204,slope,18.0,1,9.995
2500,80.00,4.6759,-1.1850,1.9145,-0.3486,0.1100,1.8379,slope,18.0,1,9.433
2510,80.32,4.5069,-0.6532,1.8446,-0.3526,0.1343,1.8933,slope,18.0,1,8.877
2520,80.64,4.3169,-0.1285,1.7658,-0.3633,0.1585,1.9311,slope,18.0,1,8.320
2530,80.96,4.1092,0.3711,1.6751,-0.3646,0.1803,2.0005,slope,18.0,1,7.779
2540,81.28,3.9079,0.6906,1.5905,-0.3296,0.2441,2.1997,slope,18.0,1,7.406
2550,81.60,3.7219,0.8879,1.5111,-0.1672,0.3995,2.7583,slope,18.0,1,7.152
2560,81.92,3.4671,0.9780,1.3971,0.1640,0.3964,-2.6869,slope,18.0,1,6.976
2570,82.24,3.1739,0.8304,1.2529,0.3093,0.3208,-2.3239,slope,18.0,1,7.018
2580,82.56,2.9230,0.5252,1.1259,0.3416,0.3133,-2.2360,slope,18.0,1,7.239
2590,82.88,2.6904,0.2777,1.0052,0.2424,0.3910,-2.5541,slope,18.0,1,7.423
2600,83.20,2.2722,0.0600,0.7989,0.1423,0.4363,-2.8169,slope,18.0,1,7.555
2610,83.52,1.7950,-0.0827,0.5878,0.0916,0.3728,-2.8939,slope,18.0,1,7.632
2620,83.84,1.2964,-0.1939,0.4135,0.0612,0.2863,-2.9506,slope,18.0,1,7.709
2630,84.16,0.7812,-0.2745,0.2949,0.0566,0.1794,-3.0094,slope,18.0,1,7.788
2640,84.48,0.2623,-0.3280,0.2301,0.0207,0.0835,-3.0931,slope,18.0,1,7.874
2650,84.80,-0.1993,-0.3485,0.2092,0.0111,0.0183,2.9402,flat,18.0,1,7.952
2660,85.12,-0.5980,-0.2337,0.2090,0.0107,-0.0039,2.5474,flat,18.0,1,7.911
2670,85.44,-0.8980,0.0237,0.2126,0.0162,-0.0095,2.1513,flat,18.0,1,7.728
2680,85.76,-1.0963,0.4147,0.2173,0.0135,-0.0103,1.8994,flat,18.0,1,7.404
2690,86.08,-1.2138,0.8611,0.2223,0.0091,-0.0082,1.7693,flat,18.0,1,7.014
2700,86.40,-1.2844,1.3511,0.2194,0.0345,-0.0017,1.6834,flat,18.0,1,6.575
2710,86.72,-1.3038,1.8297,0.2250,-0.0037,0.0102,1.3421,flat,18.0,1,6.137
2720,87.04,-1.1702,2.2927,0.2198,-0.0099,0.0179,1.0986,flat,18.0,1,5.658
2730,87.36,-0.9279,2.7091,0.2104,-0.0158,0.0246,0.9565,transition,15.0,1,5.180
2740,87.68,-0.6608,3.0493,0.2008,-0.0279,0.0224,0.8630,slope,18.0,1,4.766
2750,88.00,-0.3535,3.4127,0.1976,-0.0731,0.0039,0.7462,rough,14.0,1,4.321
2760,88.32,-0.0699,3.6856,0.2079,-0.1239,-0.0969,0.6540,rough,14.0,1,3.976
2770,88.64,0.2189,3.9100,0.2606,-0.1406,-0.2264,0.5015,slope,18.0,1,3.688
2780,88.96,0.5916,4.1376,0.3617,-0.1991,-0.2714,0.5451,slope,18.0,1,3.399
2790,89.28,0.9597,4.3776,0.4798,-0.2137,-0.2618,0.5759,slope,18.0,1,3.133
2800,89.60,1.3444,4.6298,0.6095,-0.2081,-0.2827,0.5474,slope,18.0,1,2.898
2810,89.92,1.7101,4.8735,0.7344,-0.2314,-0.2721,0.6257,slope,18.0,1,2.725
