step,time_s,x,y,z,roll,pitch,yaw,terrain,speed,target_idx,dist_to_target
10,0.32,0.9607,-0.7653,0.3560,-0.1793,-0.1458,0.3011,rough,14.0,0,5.772
20,0.64,1.1956,-0.6918,0.4136,-0.1308,-0.2570,0.2803,rough,14.0,0,5.646
30,0.96,1.4753,-0.6071,0.4928,-0.1270,-0.3127,0.1942,rough,14.0,0,5.503
40,1.28,1.7597,-0.5491,0.5935,-0.0943,-0.3794,0.1090,rough,14.0,0,5.350
50,1.60,2.0270,-0.5157,0.7035,-0.0858,-0.4051,0.0934,rough,14.0,0,5.200
60,1.92,2.2815,-0.4873,0.8184,-0.0817,-0.4409,0.0843,rough,14.0,0,5.064
70,2.24,2.5215,-0.4589,0.9316,-0.0904,-0.4511,0.0983,rough,14.0,0,4.946
80,2.56,2.7219,-0.4205,1.0300,-0.1218,-0.4516,0.1908,rough,14.0,0,4.867
90,2.88,2.8844,-0.3630,1.1094,-0.1639,-0.4513,0.2897,rough,14.0,0,4.831
100,3.20,3.0552,-0.2856,1.1928,-0.1553,-0.4459,0.2940,rough,14.0,0,4.814
110,3.52,3.2293,-0.2032,1.2754,-0.1305,-0.4371,0.2569,rough,14.0,0,4.808
120,3.84,3.4085,-0.1229,1.3605,-0.1125,-0.4490,0.2152,rough,14.0,0,4.805
130,4.16,3.5818,-0.0539,1.4421,-0.0927,-0.4368,0.2019,rough,14.0,0,4.802
140,4.48,3.7455,0.0037,1.5165,-0.0861,-0.4184,0.1908,rough,14.0,0,4.798
150,4.80,3.9042,0.0583,1.5818,-0.0946,-0.4087,0.1735,rough,14.0,0,4.800
160,5.12,4.0853,0.0893,1.6665,-0.0423,-0.4109,0.0928,rough,14.0,0,4.779
170,5.44,4.2371,0.1138,1.7307,-0.0553,-0.3937,0.1306,rough,14.0,0,4.765
180,5.76,4.3658,0.1407,1.7840,-0.0719,-0.3760,0.1784,rough,14.0,0,4.763
190,6.08,4.4878,0.1682,1.8324,-0.0743,-0.3725,0.1919,rough,14.0,0,4.766
200,6.40,4.6093,0.1977,1.8806,-0.0722,-0.3718,0.1888,rough,14.0,0,4.775
210,6.72,4.7342,0.2242,1.9285,-0.0669,-0.3625,0.1756,rough,14.0,0,4.784
220,7.04,4.8617,0.2470,1.9770,-0.0601,-0.3504,0.1581,rough,14.0,0,4.792
230,7.36,4.9999,0.2801,2.0261,-0.0379,-0.3495,0.0943,rough,14.0,0,4.813
240,7.68,5.1364,0.2966,2.0770,-0.0207,-0.3490,0.0532,rough,14.0,0,4.821
250,8.00,5.2499,0.3129,2.1174,-0.0330,-0.3408,0.0913,rough,14.0,0,4.834
260,8.32,5.3528,0.3328,2.1540,-0.0497,-0.3328,0.1413,rough,14.0,0,4.853
270,8.64,5.4619,0.3567,2.1918,-0.0542,-0.3300,0.1575,rough,14.0,0,4.878
280,8.96,5.5822,0.3923,2.2331,-0.0427,-0.3293,0.1278,rough,14.0,0,4.918
290,9.28,5.7098,0.4212,2.2766,-0.0298,-0.3274,0.0907,rough,14.0,0,4.955
300,9.60,5.8225,0.4529,2.3147,-0.0321,-0.3234,0.0983,rough,14.0,0,4.996
310,9.92,5.9276,0.4852,2.3501,-0.0397,-0.3192,0.1253,rough,14.0,0,5.039
320,10.24,6.0304,0.5152,2.3843,-0.0453,-0.3185,0.1447,rough,14.0,0,5.082
330,10.56,6.1367,0.5462,2.4197,-0.0451,-0.3184,0.1454,rough,14.0,0,5.128
340,10.88,6.2424,0.5741,2.4547,-0.0444,-0.3173,0.1448,rough,14.0,0,5.173
350,11.20,6.3471,0.5937,2.4893,-0.0435,-0.3158,0.1438,rough,14.0,0,5.211
360,11.52,6.4507,0.6085,2.5234,-0.0422,-0.3145,0.1428,rough,14.0,0,5.247
370,11.84,6.5530,0.6230,2.5570,-0.0415,-0.3144,0.1420,rough,14.0,0,5.283
380,12.16,6.6540,0.6374,2.5901,-0.0409,-0.3145,0.1417,rough,14.0,0,5.321
390,12.48,6.7537,0.6515,2.6229,-0.0400,-0.3152,0.1414,rough,14.0,0,5.360
400,12.80,6.8584,0.6630,2.6572,-0.0334,-0.3157,0.1222,rough,14.0,0,5.400
410,13.12,6.9628,0.6727,2.6914,-0.0284,-0.3156,0.1087,rough,14.0,0,5.439
420,13.44,7.0616,0.6835,2.7238,-0.0275,-0.3145,0.1093,rough,14.0,0,5.480
430,13.76,7.1592,0.6944,2.7557,-0.0275,-0.3146,0.1101,rough,14.0,0,5.521
440,14.08,7.2551,0.7052,2.7872,-0.0273,-0.3161,0.1117,rough,14.0,0,5.564
450,14.40,7.3502,0.7159,2.8185,-0.0266,-0.3174,0.1121,rough,14.0,0,5.607
460,14.72,7.4483,0.7250,2.8506,-0.0231,-0.3179,0.1022,rough,14.0,0,5.652
470,15.04,7.5426,0.7347,2.8816,-0.0221,-0.3166,0.1027,rough,14.0,0,5.696
480,15.36,7.6360,0.7443,2.9123,-0.0213,-0.3158,0.1031,rough,14.0,0,5.742
490,15.68,7.7631,0.7602,2.9428,0.0026,-0.2462,0.0263,rough,14.0,0,5.808
500,16.00,7.9851,0.7449,2.9494,0.0461,0.1233,-0.1556,rough,14.0,0,5.890
510,16.32,8.2782,0.5796,2.8459,0.5572,0.6073,-0.2067,rough,14.0,0,5.883
520,16.64,8.3802,0.2955,2.7262,1.4870,0.8417,-0.0914,rough,14.0,0,5.693
530,16.96,8.3988,-0.0329,2.5400,2.2097,1.1167,0.4089,rough,14.0,0,5.428
540,17.28,8.4720,-0.3633,2.2975,2.6460,0.2263,1.2469,rough,14.0,0,5.202
550,17.60,8.5781,-0.7017,2.1005,3.1273,-0.1855,1.8222,rough,14.0,0,5.004
560,17.92,8.6300,-0.9365,2.0697,-3.0826,-0.1316,2.1413,rough,14.0,0,4.862
570,18.24,8.6192,-1.0319,2.0604,-3.0104,-0.1354,2.3822,rough,14.0,0,4.785
580,18.56,8.6314,-1.0021,2.0575,-3.0232,-0.1250,2.3062,rough,14.0,0,4.815
590,18.88,8.6175,-1.0181,2.0526,-3.0190,-0.1364,2.3180,slope,18.0,0,4.793
600,19.20,8.6164,-1.0280,2.0585,-3.0128,-0.1422,2.2813,rough,14.0,0,4.785
610,19.52,8.6141,-1.0252,2.0562,-3.0004,-0.1543,2.3061,slope,18.0,0,4.786
620,19.84,8.6324,-1.0465,2.0615,-3.0031,-0.1352,2.2843,rough,14.0,0,4.783
630,20.16,8.6133,-1.0145,2.0545,-3.0036,-0.1629,2.3476,rough,14.0,0,4.793
640,20.48,8.6270,-1.0116,2.0553,-3.0287,-0.1220,2.2549,rough,14.0,0,4.805
650,20.80,8.6175,-1.0160,2.0592,-3.0178,-0.1388,2.3992,slope,18.0,0,4.795
660,21.12,8.6146,-1.0171,2.0555,-3.0141,-0.1546,2.3718,rough,14.0,0,4.792
670,21.44,8.6159,-1.0085,2.0539,-3.0258,-0.1575,2.3809,slope,18.0,0,4.799
680,21.76,8.6263,-1.0254,2.0564,-3.0218,-0.1431,2.3065,rough,14.0,0,4.794
690,22.08,8.6178,-1.0004,2.0574,-3.0094,-0.1306,2.1591,rough,14.0,0,4.807
700,22.40,8.6096,-1.0194,2.0521,-3.0086,-0.1545,2.2481,rough,14.0,0,4.787
710,22.72,8.6213,-1.0084,2.0568,-3.0159,-0.1358,2.2901,rough,14.0,0,4.803
720,23.04,8.6223,-1.0122,2.0574,-3.0204,-0.1235,2.2685,slope,18.0,0,4.801
730,23.36,8.6189,-1.0337,2.0607,-2.9983,-0.1518,2.2962,rough,14.0,0,4.783
740,23.68,8.6276,-1.0216,2.0578,-3.0138,-0.1224,2.3259,rough,14.0,0,4.798
750,24.00,8.6007,-0.9896,2.0672,-3.0076,-0.1726,2.3180,rough,14.0,0,4.803
760,24.32,8.6663,-1.0660,2.0640,-3.0232,-0.1296,2.2708,rough,14.0,0,4.792
770,24.64,8.6383,-1.0497,2.0600,-3.0140,-0.1237,2.2666,rough,14.0,0,4.785
780,24.96,8.6131,-1.0066,2.0543,-3.0462,-0.1255,2.4043,slope,18.0,0,4.799
790,25.28,8.6110,-1.0132,2.0528,-3.0150,-0.1639,2.2919,slope,18.0,0,4.793
800,25.60,8.6298,-1.0285,2.0547,-3.0298,-0.1459,2.3104,rough,14.0,0,4.794
810,25.92,8.6267,-1.0358,2.0564,-3.0173,-0.1561,2.2854,rough,14.0,0,4.787
820,26.24,8.6192,-1.0105,2.0599,-3.0314,-0.0924,2.1940,slope,18.0,0,4.800
830,26.56,8.6138,-1.0187,2.0537,-3.0316,-0.1315,2.4007,slope,18.0,0,4.790
840,26.88,8.6160,-1.0164,2.0529,-3.0155,-0.1613,2.2888,rough,14.0,0,4.794
850,27.20,8.6235,-1.0223,2.0546,-3.0312,-0.1346,2.3405,rough,14.0,0,4.795
860,27.52,8.6148,-1.0152,2.0545,-3.0222,-0.1580,2.2725,rough,14.0,0,4.794
870,27.84,8.6227,-1.0205,2.0564,-3.0199,-0.1499,2.3515,rough,14.0,0,4.795
880,28.16,8.6202,-1.0145,2.0567,-3.0138,-0.1373,2.2685,rough,14.0,0,4.798
890,28.48,8.6388,-1.0476,2.0573,-3.0363,-0.1287,2.3461,rough,14.0,0,4.787
900,28.80,8.6208,-1.0478,2.0567,-3.0277,-0.1510,2.4495,rough,14.0,0,4.774
910,29.12,8.6072,-1.0121,2.0599,-2.9866,-0.1495,2.2637,rough,14.0,0,4.791
920,29.44,8.6198,-1.0129,2.0540,-3.0121,-0.1460,2.3186,slope,18.0,0,4.799
930,29.76,8.6202,-1.0173,2.0571,-3.0167,-0.1357,2.2876,rough,14.0,0,4.796
940,30.08,8.6209,-1.0146,2.0538,-3.0116,-0.1688,2.3780,rough,14.0,0,4.798
950,30.40,8.6194,-1.0161,2.0571,-3.0184,-0.1448,2.3111,rough,14.0,0,4.796
960,30.72,8.6302,-1.0221,2.0570,-3.0194,-0.1267,2.2241,rough,14.0,0,4.799
970,31.04,8.6398,-1.0229,2.0584,-3.0255,-0.1148,2.3014,rough,14.0,0,4.805
980,31.36,8.6108,-1.0024,2.0609,-3.0013,-0.1449,2.2725,rough,14.0,0,4.800
990,31.68,8.6231,-1.0283,2.0572,-3.0225,-0.1370,2.2859,rough,14.0,0,4.790
1000,32.00,8.6190,-1.0156,2.0551,-3.0230,-0.1336,2.3735,rough,14.0,0,4.796
1010,32.32,8.6221,-1.0117,2.0573,-3.0127,-0.1287,2.2625,slope,18.0,0,4.801
1020,32.64,8.6201,-1.0151,2.0573,-3.0107,-0.1393,2.3083,slope,18.0,0,4.797
1030,32.96,8.6358,-1.0390,2.0572,-3.0221,-0.1592,2.2685,rough,14.0,0,4.791
1040,33.28,8.6615,-1.0846,2.0633,-2.9920,-0.1179,2.3123,rough,14.0,0,4.776
1050,33.60,8.6435,-1.0548,2.0632,-3.0107,-0.1342,2.3573,rough,14.0,0,4.785
1060,33.92,8.6088,-1.0096,2.0584,-2.9993,-0.1451,2.3690,rough,14.0,0,4.794
1070,34.24,8.6263,-1.0113,2.0553,-3.0248,-0.1282,2.2978,rough,14.0,0,4.804
1080,34.56,8.6115,-1.0244,2.0578,-3.0013,-0.1559,2.2971,rough,14.0,0,4.785
1090,34.88,8.6255,-1.0255,2.0536,-2.9949,-0.1202,2.2420,rough,14.0,0,4.794
1100,35.20,8.6281,-1.0203,2.0579,-3.0138,-0.0960,2.4143,rough,14.0,0,4.799
1110,35.52,8.6232,-1.0129,2.0556,-3.0133,-0.1448,2.2981,rough,14.0,0,4.801
1120,35.84,8.6127,-1.0072,2.0561,-3.0070,-0.1348,2.3162,slope,18.0,0,4.798
1130,36.16,8.6076,-1.0199,2.0564,-3.0074,-0.1498,2.3873,rough,14.0,0,4.785
1140,36.48,8.6457,-1.0246,2.0584,-3.0231,-0.1202,2.2512,rough,14.0,0,4.808
1150,36.80,8.6154,-1.0208,2.0552,-3.0181,-0.1506,2.3171,rough,14.0,0,4.790
1160,37.12,8.6145,-1.0133,2.0587,-2.9865,-0.1436,2.2829,rough,14.0,0,4.795
1170,37.44,8.6185,-1.0150,2.0538,-2.9995,-0.1298,2.3003,slope,18.0,0,4.796
1180,37.76,8.6102,-1.0153,2.0602,-3.0342,-0.1802,2.3909,rough,14.0,0,4.791
1190,38.08,8.6352,-1.0282,2.0508,-2.9845,-0.1318,2.2222,rough,14.0,0,4.798
1200,38.40,8.6144,-1.0175,2.0546,-3.0117,-0.1514,2.3028,slope,18.0,0,4.792
1210,38.72,8.5989,-1.0246,2.0622,-2.9841,-0.1525,2.3159,slope,18.0,0,4.776
1220,39.04,8.6293,-1.0222,2.0534,-3.0393,-0.1312,2.3433,rough,14.0,0,4.798
1230,39.36,8.6421,-1.0101,2.0590,-3.0337,-0.1008,2.3014,rough,14.0,0,4.816
1240,39.68,8.6219,-1.0278,2.0553,-3.0343,-0.1301,2.3643,rough,14.0,0,4.789
1250,40.00,8.6195,-1.0088,2.0534,-3.0293,-0.1444,2.2396,rough,14.0,0,4.802
1260,40.32,8.6165,-1.0115,2.0523,-2.9992,-0.1944,2.3933,slope,18.0,0,4.798
1270,40.64,8.6396,-1.0481,2.0584,-3.0127,-0.1649,2.3687,rough,14.0,0,4.787
1280,40.96,8.6121,-1.0128,2.0559,-3.0109,-0.1472,2.2842,slope,18.0,0,4.794
1290,41.28,8.6109,-1.0186,2.0568,-3.0085,-0.1511,2.3584,slope,18.0,0,4.789
1300,41.60,8.6121,-1.0266,2.0572,-3.0123,-0.1553,2.3746,rough,14.0,0,4.784
1310,41.92,8.6531,-1.0375,2.0589,-3.0293,-0.1213,2.3125,rough,14.0,0,4.804
1320,42.24,8.6424,-1.0542,2.0591,-3.0182,-0.1528,2.3572,rough,14.0,0,4.784
1330,42.56,8.6237,-1.0144,2.0531,-3.0065,-0.1387,2.2770,rough,14.0,0,4.800
1340,42.88,8.6191,-1.0060,2.0552,-3.0192,-0.1319,2.2811,slope,18.0,0,4.803
1350,43.20,8.6151,-1.0346,2.0601,-3.0041,-0.1526,2.4108,rough,14.0,0,4.780
1360,43.52,8.6213,-1.0207,2.0571,-3.0105,-0.1560,2.3310,rough,14.0,0,4.794
1370,43.84,8.6325,-1.0258,2.0547,-3.0193,-0.1540,2.3114,rough,14.0,0,4.798
1380,44.16,8.6321,-1.0296,2.0575,-3.0164,-0.1381,2.2702,rough,14.0,0,4.795
1390,44.48,8.6217,-1.0099,2.0546,-3.0214,-0.1433,2.3237,rough,14.0,0,4.802
1400,44.80,8.6173,-1.0135,2.0546,-3.0185,-0.1421,2.2722,slope,18.0,0,4.797
1410,45.12,8.6125,-1.0180,2.0543,-3.0259,-0.1416,2.3661,slope,18.0,0,4.790
1420,45.44,8.6267,-0.9929,2.0610,-3.0481,-0.1372,2.3619,slope,18.0,0,4.818
1430,45.76,8.6187,-1.0158,2.0589,-3.0229,-0.1197,2.3225,rough,14.0,0,4.796
1440,46.08,8.6254,-1.0171,2.0569,-3.0298,-0.1311,2.3334,rough,14.0,0,4.800
1450,46.40,8.6345,-1.0161,2.0565,-3.0249,-0.1285,2.2320,rough,14.0,0,4.807
1460,46.72,8.6197,-1.0268,2.0583,-3.0267,-0.1480,2.3994,rough,14.0,0,4.789
1470,47.04,8.6272,-1.0276,2.0541,-3.0403,-0.1269,2.3642,rough,14.0,0,4.793
1480,47.36,8.6197,-1.0106,2.0556,-3.0211,-0.1333,2.3267,rough,14.0,0,4.800
1490,47.68,8.6153,-1.0244,2.0577,-2.9858,-0.1427,2.3556,slope,18.0,0,4.787
1500,48.00,8.6182,-1.0082,2.0582,-3.0190,-0.1262,2.3143,rough,14.0,0,4.801
1510,48.32,8.6239,-1.0195,2.0572,-3.0162,-0.1378,2.2443,slope,18.0,0,4.797
1520,48.64,8.6097,-1.0222,2.0556,-3.0084,-0.1664,2.2920,slope,18.0,0,4.785
1530,48.96,8.6207,-1.0112,2.0554,-3.0134,-0.1263,2.2892,rough,14.0,0,4.801
1540,49.28,8.6162,-1.0153,2.0551,-3.0114,-0.1375,2.2955,slope,18.0,0,4.795
1550,49.60,8.6276,-1.0353,2.0582,-3.0289,-0.1652,2.3522,rough,14.0,0,4.788
1560,49.92,8.6125,-1.0131,2.0534,-3.0225,-0.1492,2.2459,rough,14.0,0,4.794
1570,50.24,8.6271,-1.0172,2.0520,-3.0106,-0.1827,2.3476,rough,14.0,0,4.801
1580,50.56,8.6186,-1.0164,2.0518,-3.0381,-0.1427,2.2807,rough,14.0,0,4.795
1590,50.88,8.6186,-1.0164,2.0567,-3.0106,-0.1457,2.3495,rough,14.0,0,4.795
1600,51.20,8.6112,-1.0150,2.0597,-3.0217,-0.1609,2.3461,slope,18.0,0,4.791
1610,51.52,8.6184,-1.0176,2.0570,-3.0090,-0.1499,2.2807,rough,14.0,0,4.794
1620,51.84,8.6130,-1.0262,2.0560,-3.0246,-0.1412,2.4386,slope,18.0,0,4.784
1630,52.16,8.6159,-1.0045,2.0560,-3.0244,-0.1357,2.3316,rough,14.0,0,4.802
1640,52.48,8.6260,-1.0205,2.0560,-3.0144,-0.1341,2.2191,rough,14.0,0,4.797
1650,52.80,8.6287,-1.0225,2.0552,-3.0176,-0.1495,2.2858,rough,14.0,0,4.798
1660,53.12,8.6145,-1.0084,2.0555,-3.0125,-0.1436,2.3185,rough,14.0,0,4.799
1670,53.44,8.6172,-1.0154,2.0532,-3.0097,-0.1406,2.2654,slope,18.0,0,4.795
1680,53.76,8.6230,-1.0063,2.0558,-3.0092,-0.1408,2.2337,slope,18.0,0,4.806
1690,54.08,8.6259,-1.0158,2.0553,-3.0193,-0.1325,2.2735,rough,14.0,0,4.801
1700,54.40,8.6185,-1.0090,2.0577,-3.0038,-0.1340,2.2445,slope,18.0,0,4.801
1710,54.72,8.6228,-1.0195,2.0561,-3.0110,-0.1331,2.2785,rough,14.0,0,4.796
1720,55.04,8.6209,-1.0161,2.0577,-3.0207,-0.1324,2.3621,slope,18.0,0,4.797
1730,55.36,8.6317,-1.0355,2.0554,-3.0115,-0.1354,2.2484,rough,14.0,0,4.791
1740,55.68,8.6222,-1.0177,2.0538,-3.0181,-0.1577,2.3246,rough,14.0,0,4.797
1750,56.00,8.6374,-1.0083,2.0573,-3.0252,-0.1115,2.2288,rough,14.0,0,4.814
1760,56.32,8.6126,-1.0353,2.0578,-3.0068,-0.1631,2.3569,rough,14.0,0,4.777
1770,56.64,8.6180,-0.9899,2.0572,-3.0227,-0.1478,2.3572,slope,18.0,0,4.814
1780,56.96,8.6354,-1.0341,2.0573,-3.0182,-0.1482,2.3006,rough,14.0,0,4.794
1790,57.28,8.6094,-1.0160,2.0567,-3.0061,-0.1628,2.3907,rough,14.0,0,4.789
1800,57.60,8.6191,-1.0113,2.0559,-3.0213,-0.1572,2.3298,slope,18.0,0,4.800
1810,57.92,8.6149,-1.0245,2.0567,-3.0171,-0.1636,2.3719,rough,14.0,0,4.787
1820,58.24,8.6276,-1.0194,2.0582,-3.0273,-0.1204,2.2182,rough,14.0,0,4.799
1830,58.56,8.6259,-1.0275,2.0547,-3.0264,-0.1351,2.3259,rough,14.0,0,4.792
1840,58.88,8.6247,-1.0100,2.0520,-3.0032,-0.1285,2.2523,rough,14.0,0,4.804
1850,59.20,8.6160,-1.0055,2.0554,-3.0096,-0.1188,2.2992,rough,14.0,0,4.802
1860,59.52,8.6181,-1.0250,2.0592,-3.0043,-0.1426,2.4400,rough,14.0,0,4.789
1870,59.84,8.6130,-1.0109,2.0547,-3.0120,-0.1515,2.2533,slope,18.0,0,4.796
1880,60.16,8.6219,-1.0119,2.0545,-3.0215,-0.1406,2.2772,slope,18.0,0,4.801
1890,60.48,8.6253,-1.0151,2.0551,-3.0206,-0.1276,2.2907,slope,18.0,0,4.801
1900,60.80,8.6196,-1.0192,2.0608,-2.9921,-0.1490,2.2040,slope,18.0,0,4.794
1910,61.12,8.6028,-0.9969,2.0599,-2.9901,-0.1335,2.3109,rough,14.0,0,4.799
1920,61.44,8.6294,-1.0295,2.0574,-3.0139,-0.1501,2.3278,rough,14.0,0,4.793
1930,61.76,8.6456,-1.0581,2.0636,-3.0123,-0.1339,2.3749,rough,14.0,0,4.784
1940,62.08,8.6163,-1.0176,2.0562,-3.0226,-0.1600,2.3525,rough,14.0,0,4.793
1950,62.40,8.6143,-1.0059,2.0531,-3.0223,-0.1478,2.2566,rough,14.0,0,4.800
1960,62.72,8.6308,-1.0187,2.0560,-3.0245,-0.1298,2.2648,rough,14.0,0,4.802
1970,63.04,8.6309,-1.0072,2.0577,-3.0395,-0.1003,2.2402,rough,14.0,0,4.811
1980,63.36,8.6189,-1.0117,2.0550,-2.9730,-0.1285,2.2139,rough,14.0,0,4.799
1990,63.68,8.6183,-1.0133,2.0563,-3.0130,-0.1339,2.3236,rough,14.0,0,4.798
2000,64.00,8.6240,-1.0189,2.0582,-3.0202,-0.1376,2.3830,rough,14.0,0,4.797
2010,64.32,8.6162,-1.0072,2.0566,-3.0102,-0.1211,2.2825,slope,18.0,0,4.800
2020,64.64,8.6292,-1.0159,2.0555,-3.0240,-0.1558,2.3243,rough,14.0,0,4.803
2030,64.96,8.6003,-0.9921,2.0637,-3.0068,-0.1541,2.3003,slope,18.0,0,4.801
2040,65.28,8.6313,-1.0372,2.0616,-3.0121,-0.1310,2.4013,rough,14.0,0,4.789
2050,65.60,8.6077,-1.0052,2.0586,-3.0287,-0.1878,2.4293,rough,14.0,0,4.796
2060,65.92,8.6192,-1.0060,2.0565,-3.0228,-0.1547,2.3678,rough,14.0,0,4.803
2070,66.24,8.6266,-1.0151,2.0488,-2.9749,-0.1261,2.2259,rough,14.0,0,4.802
2080,66.56,8.6161,-1.0252,2.0541,-3.0058,-0.1441,2.2741,rough,14.0,0,4.787
2090,66.88,8.6243,-1.0212,2.0533,-3.0381,-0.1296,2.3437,rough,14.0,0,4.796
2100,67.20,8.6024,-1.0139,2.0608,-2.9855,-0.1498,2.2236,rough,14.0,0,4.786
2110,67.52,8.6380,-1.0271,2.0546,-3.0114,-0.1318,2.2202,rough,14.0,0,4.801
2120,67.84,8.6185,-1.0237,2.0567,-3.0047,-0.1585,2.3065,rough,14.0,0,4.790
2130,68.16,8.6251,-1.0088,2.0568,-3.0191,-0.1351,2.3038,rough,14.0,0,4.805
2140,68.48,8.6092,-1.0262,2.0540,-2.9885,-0.1455,2.3320,slope,18.0,0,4.782
2150,68.80,8.6176,-1.0207,2.0545,-3.0138,-0.1504,2.2829,rough,14.0,0,4.792
2160,69.12,8.6134,-1.0179,2.0586,-3.0063,-0.1495,2.4561,rough,14.0,0,4.791
2170,69.44,8.6215,-1.0172,2.0554,-3.0114,-0.1511,2.2604,rough,14.0,0,4.797
2180,69.76,8.6123,-1.0102,2.0555,-3.0161,-0.1293,2.3784,rough,14.0,0,4.796
2190,70.08,8.6098,-1.0126,2.0575,-3.0179,-0.1501,2.3824,slope,18.0,0,4.792
2200,70.40,8.6140,-1.0033,2.0578,-3.0214,-0.1391,2.3626,rough,14.0,0,4.802
2210,70.72,8.6193,-1.0100,2.0536,-3.0195,-0.1379,2.2407,slope,18.0,0,4.801
2220,71.04,8.6158,-1.0336,2.0587,-3.0023,-0.1553,2.3621,rough,14.0,0,4.781
2230,71.36,8.6099,-1.0294,2.0604,-2.9900,-0.1451,2.3636,rough,14.0,0,4.780
2240,71.68,8.6096,-1.0150,2.0573,-3.0122,-0.1711,2.3716,rough,14.0,0,4.790
2250,72.00,8.6246,-1.0140,2.0556,-3.0182,-0.1269,2.2745,slope,18.0,0,4.801
2260,72.32,8.6203,-1.0252,2.0511,-3.0197,-0.1617,2.2050,slope,18.0,0,4.790
2270,72.64,8.6066,-1.0251,2.0543,-3.0113,-0.1648,2.3234,rough,14.0,0,4.781
2280,72.96,8.6386,-1.0275,2.0613,-3.0292,-0.1156,2.3726,rough,14.0,0,4.801
2290,73.28,8.6164,-1.0187,2.0551,-3.0185,-0.1386,2.3313,rough,14.0,0,4.792
2300,73.60,8.6146,-1.0127,2.0573,-3.0101,-0.1419,2.3792,rough,14.0,0,4.795
2310,73.92,8.6160,-1.0150,2.0487,-3.0045,-0.1691,2.2688,rough,14.0,0,4.795
2320,74.24,8.6179,-1.0203,2.0577,-2.9962,-0.1585,2.2748,rough,14.0,0,4.792
2330,74.56,8.6190,-1.0161,2.0525,-3.0102,-0.1668,2.3625,slope,18.0,0,4.796
2340,74.88,8.6241,-1.0157,2.0510,-3.0275,-0.1178,2.3186,slope,18.0,0,4.800
2350,75.20,8.6055,-1.0266,2.0574,-3.0092,-0.1509,2.3752,rough,14.0,0,4.779
2360,75.52,8.6230,-0.9933,2.0579,-3.0326,-0.1485,2.2917,slope,18.0,0,4.815
2370,75.84,8.6170,-1.0278,2.0551,-3.0185,-0.1448,2.3760,rough,14.0,0,4.786
2380,76.16,8.6137,-1.0059,2.0533,-3.0054,-0.1327,2.3170,slope,18.0,0,4.800
2390,76.48,8.6304,-1.0407,2.0570,-3.0213,-0.1529,2.3657,rough,14.0,0,4.786
2400,76.80,8.6113,-1.0056,2.0573,-3.0107,-0.1529,2.4340,slope,18.0,0,4.798
2410,77.12,8.6103,-1.0265,2.0562,-3.0116,-0.1598,2.3385,rough,14.0,0,4.782
2420,77.44,8.6195,-1.0137,2.0563,-3.0205,-0.1320,2.3382,rough,14.0,0,4.798
2430,77.76,8.6243,-1.0231,2.0558,-3.0228,-0.1414,2.3036,rough,14.0,0,4.794
2440,78.08,8.6037,-1.0294,2.0582,-2.9849,-0.1657,2.2613,slope,18.0,0,4.776
2450,78.40,8.6154,-1.0225,2.0573,-3.0135,-0.1432,2.3797,rough,14.0,0,4.789
2460,78.72,8.6185,-1.0221,2.0599,-2.9822,-0.1712,2.2285,rough,14.0,0,4.791
2470,79.04,8.6270,-1.0192,2.0530,-3.0157,-0.1650,2.2684,rough,14.0,0,4.799
2480,79.36,8.6098,-1.0204,2.0592,-2.9860,-0.1686,2.2699,rough,14.0,0,4.787
2490,79.68,8.6198,-1.0013,2.0617,-2.9973,-0.1310,2.2588,rough,14.0,0,4.807
2500,80.00,8.6223,-0.9989,2.0566,-3.0319,-0.1295,2.3101,slope,18.0,0,4.811
2510,80.32,8.6145,-1.0236,2.0571,-3.0095,-0.1467,2.3241,rough,14.0,0,4.787
2520,80.64,8.6189,-1.0236,2.0562,-3.0064,-0.1536,2.3529,rough,14.0,0,4.790
2530,80.96,8.6340,-1.0276,2.0558,-3.0229,-0.1467,2.2475,rough,14.0,0,4.798
2540,81.28,8.6316,-1.0300,2.0558,-3.0187,-0.1499,2.2299,rough,14.0,0,4.794
2550,81.60,8.6249,-1.0383,2.0596,-2.9953,-0.1277,2.3941,rough,14.0,0,4.784
2560,81.92,8.6338,-1.0349,2.0588,-3.0074,-0.1422,2.2370,rough,14.0,0,4.792
2570,82.24,8.6117,-1.0218,2.0605,-2.9845,-0.1548,2.2468,rough,14.0,0,4.787
2580,82.56,8.6302,-1.0344,2.0599,-3.0130,-0.1387,2.3384,rough,14.0,0,4.790
2590,82.88,8.6303,-1.0242,2.0534,-3.0411,-0.1362,2.3604,rough,14.0,0,4.798
2600,83.20,8.6284,-1.0210,2.0540,-3.0149,-0.1411,2.2580,rough,14.0,0,4.799
2610,83.52,8.6185,-1.0158,2.0533,-3.0045,-0.1345,2.2552,rough,14.0,0,4.796
2620,83.84,8.6126,-1.0090,2.0514,-3.0190,-0.1213,2.3199,slope,18.0,0,4.797
2630,84.16,8.6189,-1.0193,2.0530,-3.0164,-0.1500,2.3343,slope,18.0,0,4.794
2640,84.48,8.6233,-1.0193,2.0548,-3.0238,-0.1494,2.2404,rough,14.0,0,4.797
2650,84.80,8.6049,-1.0044,2.0586,-3.0040,-0.1433,2.3089,slope,18.0,0,4.795
2660,85.12,8.6598,-1.0774,2.0639,-3.0184,-0.1452,2.3060,rough,14.0,0,4.780
2670,85.44,8.6564,-1.0892,2.0636,-2.9961,-0.1598,2.4206,rough,14.0,0,4.769
2680,85.76,8.6168,-1.0306,2.0600,-3.0099,-0.1384,2.3193,rough,14.0,0,4.784
2690,86.08,8.6159,-1.0155,2.0568,-3.0020,-0.1521,2.2687,rough,14.0,0,4.794
2700,86.40,8.6170,-1.0154,2.0584,-3.0187,-0.1439,2.3616,rough,14.0,0,4.795
2710,86.72,8.6355,-1.0195,2.0597,-3.0182,-0.1217,2.3329,rough,14.0,0,4.805
2720,87.04,8.6244,-1.0100,2.0558,-3.0267,-0.1273,2.3027,slope,18.0,0,4.804
2730,87.36,8.6234,-1.0258,2.0539,-3.0266,-0.1467,2.2365,rough,14.0,0,4.792
2740,87.68,8.6264,-1.0277,2.0584,-3.0182,-0.1436,2.3727,rough,14.0,0,4.792
2750,88.00,8.6271,-1.0213,2.0549,-3.0135,-0.1516,2.1942,rough,14.0,0,4.798
2760,88.32,8.6144,-1.0145,2.0527,-3.0299,-0.1450,2.2776,rough,14.0,0,4.794
2770,88.64,8.6154,-1.0111,2.0587,-3.0065,-0.1417,2.3554,rough,14.0,0,4.797
2780,88.96,8.6235,-1.0180,2.0521,-3.0189,-0.1617,2.2315,rough,14.0,0,4.798
2790,89.28,8.6180,-1.0299,2.0538,-3.0145,-0.1239,2.4153,rough,14.0,0,4.785
2800,89.60,8.6171,-1.0142,2.0560,-3.0177,-0.1492,2.3543,slope,18.0,0,4.796
2810,89.92,8.6424,-1.0290,2.0583,-3.0262,-0.1056,2.2355,rough,14.0,0,4.803
2820,90.24,8.6233,-1.0160,2.0576,-3.0091,-0.1314,2.3432,rough,14.0,0,4.799
2830,90.56,8.6293,-1.0227,2.0539,-3.0305,-0.1219,2.2712,rough,14.0,0,4.798
2840,90.88,8.6271,-1.0388,2.0607,-3.0112,-0.1426,2.3741,rough,14.0,0,4.785
2850,91.20,8.6160,-1.0090,2.0542,-3.0164,-0.1353,2.2436,slope,18.0,0,4.799
2860,91.52,8.6159,-1.0086,2.0571,-3.0130,-0.1392,2.2736,slope,18.0,0,4.799
2870,91.84,8.6348,-1.0184,2.0534,-3.0147,-0.1629,2.2978,rough,14.0,0,4.805
2880,92.16,8.6210,-1.0284,2.0557,-3.0190,-0.1557,2.2638,rough,14.0,0,4.788
2890,92.48,8.6392,-1.0458,2.0607,-3.0181,-0.1323,2.3175,rough,14.0,0,4.788
2900,92.80,8.6156,-1.0148,2.0536,-3.0183,-0.1551,2.2616,slope,18.0,0,4.795
2910,93.12,8.6207,-1.0154,2.0545,-3.0181,-0.1488,2.2932,rough,14.0,0,4.798
2920,93.44,8.6260,-1.0217,2.0572,-3.0143,-0.1426,2.2694,rough,14.0,0,4.797
2930,93.76,8.6144,-1.0402,2.0599,-2.9926,-0.1648,2.2879,rough,14.0,0,4.775
2940,94.08,8.6139,-1.0083,2.0589,-3.0140,-0.1488,2.3909,rough,14.0,0,4.798
2950,94.40,8.6124,-1.0223,2.0596,-2.9981,-0.1425,2.4461,rough,14.0,0,4.787
2960,94.72,8.6183,-1.0102,2.0549,-3.0315,-0.1278,2.3504,slope,18.0,0,4.800
2970,95.04,8.6190,-1.0245,2.0601,-3.0116,-0.1468,2.3852,rough,14.0,0,4.790
2980,95.36,8.6227,-1.0105,2.0557,-3.0133,-0.1342,2.2782,slope,18.0,0,4.803
2990,95.68,8.6111,-1.0111,2.0555,-2.9970,-0.1172,2.3441,slope,18.0,0,4.794
3000,96.00,8.6199,-1.0127,2.0557,-3.0172,-0.1517,2.3483,slope,18.0,0,4.799
3010,96.32,8.6192,-1.0085,2.0569,-3.0071,-0.1433,2.2329,rough,14.0,0,4.802
3020,96.64,8.6192,-1.0087,2.0583,-3.0153,-0.1375,2.3426,rough,14.0,0,4.802
3030,96.96,8.6296,-1.0196,2.0527,-3.0266,-0.1549,2.2336,rough,14.0,0,4.801
3040,97.28,8.6208,-1.0272,2.0569,-3.0080,-0.1625,2.4023,rough,14.0,0,4.789
3050,97.60,8.6182,-1.0080,2.0550,-3.0283,-0.1451,2.3572,slope,18.0,0,4.801
3060,97.92,8.6267,-1.0284,2.0585,-3.0093,-0.1362,2.3132,rough,14.0,0,4.792
3070,98.24,8.6175,-1.0110,2.0555,-3.0166,-0.1424,2.3406,slope,18.0,0,4.799
3080,98.56,8.6107,-1.0100,2.0590,-3.0175,-0.1496,2.3342,rough,14.0,0,4.795
3090,98.88,8.6216,-1.0124,2.0520,-3.0052,-0.1864,2.3739,rough,14.0,0,4.800
3100,99.20,8.6120,-1.0210,2.0544,-3.0112,-0.1639,2.2660,rough,14.0,0,4.788
3110,99.52,8.6313,-1.0229,2.0565,-3.0205,-0.1325,2.2562,rough,14.0,0,4.799
3120,99.84,8.6194,-1.0185,2.0541,-3.0178,-0.1459,2.2685,slope,18.0,0,4.794
3130,100.16,8.6160,-1.0106,2.0509,-3.0171,-0.1101,2.3033,rough,14.0,0,4.798
3140,100.48,8.6113,-1.0065,2.0542,-3.0294,-0.1524,2.3144,slope,18.0,0,4.798
3150,100.80,8.6220,-1.0165,2.0593,-3.0166,-0.1443,2.3382,rough,14.0,0,4.798
3160,101.12,8.6268,-1.0287,2.0602,-3.0044,-0.1334,2.3926,rough,14.0,0,4.792
3170,101.44,8.6294,-1.0287,2.0571,-3.0143,-0.1509,2.3025,rough,14.0,0,4.794
3180,101.76,8.6282,-1.0419,2.0626,-3.0056,-0.1486,2.2477,rough,14.0,0,4.783
3190,102.08,8.6283,-1.0436,2.0577,-3.0139,-0.1542,2.3192,rough,14.0,0,4.782
3200,102.40,8.6162,-1.0124,2.0530,-2.9987,-0.1383,2.3104,rough,14.0,0,4.797
3210,102.72,8.6268,-1.0339,2.0591,-3.0095,-0.1501,2.2639,rough,14.0,0,4.788
3220,103.04,8.6153,-1.0054,2.0583,-3.0121,-0.1256,2.2488,rough,14.0,0,4.801
3230,103.36,8.6178,-1.0194,2.0577,-3.0012,-0.1483,2.2583,rough,14.0,0,4.793
3240,103.68,8.6296,-1.0531,2.0541,-3.0119,-0.1890,2.2732,rough,14.0,0,4.776
3250,104.00,8.6086,-1.0130,2.0573,-3.0034,-0.1523,2.3040,rough,14.0,0,4.791
3260,104.32,8.6166,-1.0264,2.0588,-3.0035,-0.1470,2.2839,rough,14.0,0,4.787
3270,104.64,8.6275,-1.0333,2.0584,-3.0112,-0.1375,2.3324,rough,14.0,0,4.789
3280,104.96,8.6100,-1.0219,2.0558,-3.0037,-0.1632,2.2850,rough,14.0,0,4.786
3290,105.28,8.6057,-1.0275,2.0634,-2.9869,-0.1469,2.3047,slope,18.0,0,4.779
3300,105.60,8.6453,-1.0480,2.0617,-3.0045,-0.1177,2.3391,rough,14.0,0,4.791
3310,105.92,8.6335,-1.0459,2.0608,-3.0182,-0.1346,2.2953,rough,14.0,0,4.784
3320,106.24,8.6235,-1.0148,2.0524,-3.0032,-0.1218,2.2437,slope,18.0,0,4.800
3330,106.56,8.6127,-1.0110,2.0539,-3.0130,-0.1453,2.3491,slope,18.0,0,4.795
3340,106.88,8.6238,-1.0192,2.0583,-3.0105,-0.1286,2.3720,slope,18.0,0,4.797
3350,107.20,8.6375,-1.0308,2.0617,-3.0142,-0.1082,2.4003,rough,14.0,0,4.798
3360,107.52,8.6189,-1.0268,2.0543,-3.0163,-0.1596,2.2449,rough,14.0,0,4.788
3370,107.84,8.6120,-1.0133,2.0579,-3.0032,-0.1486,2.2952,rough,14.0,0,4.793
3380,108.16,8.6191,-1.0145,2.0553,-3.0256,-0.1393,2.3015,slope,18.0,0,4.797
3390,108.48,8.6123,-1.0249,2.0564,-2.9990,-0.1585,2.4249,slope,18.0,0,4.785
3400,108.80,8.6121,-1.0171,2.0538,-2.9917,-0.1374,2.2672,rough,14.0,0,4.791
3410,109.12,8.6258,-1.0119,2.0581,-3.0220,-0.1301,2.3249,slope,18.0,0,4.804
3420,109.44,8.6128,-1.0041,2.0580,-3.0085,-0.1479,2.3198,rough,14.0,0,4.801
3430,109.76,8.6553,-1.0763,2.0670,-3.0235,-0.1541,2.3897,rough,14.0,0,4.777
3440,110.08,8.6243,-1.0276,2.0594,-3.0185,-0.1194,2.2260,rough,14.0,0,4.791
3450,110.40,8.6123,-1.0079,2.0573,-3.0096,-0.1421,2.3087,rough,14.0,0,4.797
3460,110.72,8.6342,-1.0372,2.0574,-3.0278,-0.1551,2.2462,rough,14.0,0,4.791
3470,111.04,8.6228,-1.0210,2.0563,-3.0170,-0.1666,2.3840,rough,14.0,0,4.795
3480,111.36,8.6054,-1.0075,2.0610,-3.0138,-0.1576,2.3308,slope,18.0,0,4.793
3490,111.68,8.6310,-1.0240,2.0558,-3.0261,-0.1357,2.2729,rough,14.0,0,4.798
3500,112.00,8.6148,-1.0118,2.0560,-3.0127,-0.1451,2.3322,rough,14.0,0,4.796
3510,112.32,8.6275,-1.0425,2.0602,-3.0108,-0.1409,2.3881,rough,14.0,0,4.783
3520,112.64,8.6193,-1.0221,2.0557,-3.0199,-0.1443,2.3069,slope,18.0,0,4.792
3530,112.96,8.6203,-1.0080,2.0543,-3.0097,-0.1575,2.2970,slope,18.0,0,4.803
3540,113.28,8.6104,-1.0273,2.0553,-3.0002,-0.1416,2.4445,slope,18.0,0,4.782
3550,113.60,8.6165,-1.0186,2.0563,-3.0172,-0.1477,2.3151,rough,14.0,0,4.792
3560,113.92,8.6390,-1.0193,2.0588,-3.0299,-0.1308,2.2539,rough,14.0,0,4.807
3570,114.24,8.6229,-1.0201,2.0562,-3.0163,-0.1408,2.2777,rough,14.0,0,4.796
3580,114.56,8.6193,-1.0174,2.0569,-3.0195,-0.1387,2.3304,rough,14.0,0,4.795
3590,114.88,8.6213,-1.0223,2.0602,-2.9868,-0.1558,2.1829,rough,14.0,0,4.793
3600,115.20,8.6359,-1.0272,2.0597,-3.0221,-0.1312,2.3228,rough,14.0,0,4.799
3610,115.52,8.6156,-0.9888,2.0620,-3.0256,-0.1531,2.3376,rough,14.0,0,4.814
3620,115.84,8.6225,-1.0148,2.0554,-3.0135,-0.1287,2.2791,rough,14.0,0,4.799
3630,116.16,8.6108,-1.0385,2.0543,-2.9796,-0.1466,2.3748,rough,14.0,0,4.774
3640,116.48,8.6501,-1.0499,2.0609,-3.0230,-0.1313,2.2857,rough,14.0,0,4.793
3650,116.80,8.6059,-0.9935,2.0618,-2.9928,-0.1511,2.2886,slope,18.0,0,4.804
3660,117.12,8.6692,-1.0752,2.0645,-3.0354,-0.1364,2.3388,rough,14.0,0,4.788
3670,117.44,8.6927,-1.1527,2.0584,-2.9828,-0.0512,2.3496,rough,14.0,0,4.749
3680,117.76,8.7063,-1.1497,2.0598,-3.0071,-0.0474,2.3270,rough,14.0,0,4.760
3690,118.08,8.6964,-1.1441,2.0588,-3.0086,-0.0449,2.3320,rough,14.0,0,4.757
3700,118.40,8.7077,-1.1597,2.0624,-3.0044,-0.0434,2.3259,rough,14.0,0,4.754
3710,118.72,8.7656,-1.2257,2.0440,-3.0292,-0.0704,2.3816,slope,18.0,0,4.749
3720,119.04,8.8233,-1.2866,2.0549,-3.0025,0.0060,2.3981,rough,14.0,0,4.750
3730,119.36,8.8177,-1.2884,2.0558,-2.9464,0.0572,2.4098,rough,14.0,0,4.744
3740,119.68,8.7653,-1.2567,2.0530,-2.9857,-0.0404,2.3747,rough,14.0,0,4.728
3750,120.00,8.7775,-1.2613,2.0593,-2.9845,-0.0111,2.4350,rough,14.0,0,4.733
3760,120.32,8.7768,-1.2796,2.0500,-2.9766,-0.0464,2.3116,rough,14.0,0,4.720
3770,120.64,8.7423,-1.2776,2.0534,-2.9472,-0.0930,2.3627,rough,14.0,0,4.697
3780,120.96,8.7585,-1.2983,2.0586,-2.9369,-0.0903,2.4258,rough,14.0,0,4.694
3790,121.28,8.7614,-1.2843,2.0598,-2.9535,-0.0648,2.4278,rough,14.0,0,4.706
3800,121.60,8.7619,-1.2766,2.0558,-2.9737,-0.0709,2.3816,rough,14.0,0,4.712
3810,121.92,8.7429,-1.2931,2.0553,-2.9303,-0.1001,2.3651,rough,14.0,0,4.687
3820,122.24,8.7493,-1.2802,2.0579,-2.9596,-0.0844,2.4209,rough,14.0,0,4.700
3830,122.56,8.7586,-1.2740,2.0598,-2.9758,-0.0709,2.4387,rough,14.0,0,4.711
3840,122.88,8.7898,-1.2814,2.0574,-2.9532,0.0085,2.4152,rough,14.0,0,4.729
3850,123.20,8.8512,-1.3018,2.0572,-2.9144,0.1108,2.4746,rough,14.0,0,4.760
3860,123.52,8.8568,-1.2953,2.0568,3.1138,-0.1329,2.3491,rough,14.0,0,4.768
3870,123.84,8.8464,-1.2937,2.0524,-3.0798,-0.0590,2.3365,rough,14.0,0,4.762
3880,124.16,8.7673,-1.2136,2.0585,-3.0890,-0.0474,2.4139,rough,14.0,0,4.759
3890,124.48,8.6794,-1.1943,2.0541,-3.0299,-0.2429,2.3540,rough,14.0,0,4.710
3900,124.80,8.7452,-1.1413,2.0528,-3.0288,-0.1363,2.3440,rough,14.0,0,4.794
3910,125.12,8.7546,-1.1375,2.0540,-3.0080,-0.1227,2.3477,rough,14.0,0,4.803
3920,125.44,8.7523,-1.1495,2.0529,-3.0309,-0.1343,2.3879,rough,14.0,0,4.793
3930,125.76,8.7526,-1.1425,2.0539,-3.0190,-0.1287,2.3647,rough,14.0,0,4.798
3940,126.08,8.7522,-1.1445,2.0536,-3.0244,-0.1332,2.3708,rough,14.0,0,4.797
3950,126.40,8.7522,-1.1455,2.0512,-3.0553,-0.1448,2.3691,rough,14.0,0,4.796
3960,126.72,8.7510,-1.1876,2.0532,-3.0145,-0.1041,2.3072,rough,14.0,0,4.766
3970,127.04,8.7662,-1.2277,2.0576,-3.0476,-0.0427,2.4068,rough,14.0,0,4.748
3980,127.36,8.8082,-1.2545,2.0597,-3.0426,0.0032,2.4386,rough,14.0,0,4.761
3990,127.68,8.8182,-1.2612,2.0487,-2.9865,0.0826,2.3173,rough,14.0,0,4.763
4000,128.00,8.7965,-1.2539,2.0557,-3.0029,-0.0109,2.4654,rough,14.0,0,4.752
4010,128.32,8.7841,-1.2543,2.0462,-3.0237,0.0003,2.3155,rough,14.0,0,4.743
4020,128.64,8.8111,-1.2862,2.0555,-2.9490,0.0101,2.4600,rough,14.0,0,4.741
4030,128.96,8.8003,-1.2869,2.0482,-2.9560,0.0092,2.3139,rough,14.0,0,4.732
4040,129.28,8.7551,-1.2899,2.0523,-2.9362,-0.0725,2.3381,rough,14.0,0,4.698
4050,129.60,8.7472,-1.2752,2.0583,-2.9604,-0.1221,2.4811,rough,14.0,0,4.702
4060,129.92,8.7536,-1.2465,2.0537,-2.9806,-0.0927,2.3938,rough,14.0,0,4.726
4070,130.24,8.8290,-1.2727,2.0531,-2.9725,0.0983,2.3716,rough,14.0,0,4.763
4080,130.56,8.8144,-1.2549,2.0513,-3.0079,0.0627,2.3408,rough,14.0,0,4.765
4090,130.88,8.8060,-1.2723,2.0497,-3.0172,-0.0168,2.3330,rough,14.0,0,4.747
4100,131.20,8.7969,-1.2960,2.0566,-2.9788,-0.0498,2.3957,rough,14.0,0,4.724
4110,131.52,8.7715,-1.2597,2.0563,-2.9958,-0.0347,2.3961,rough,14.0,0,4.730
4120,131.84,8.7758,-1.2461,2.0399,-3.0602,-0.0266,2.2955,rough,14.0,0,4.743
4130,132.16,8.7987,-1.2581,2.0589,-3.0077,0.0188,2.4335,rough,14.0,0,4.751
4140,132.48,8.8069,-1.2622,2.0514,-3.0865,-0.0764,2.3237,rough,14.0,0,4.754
4150,132.80,8.8335,-1.2715,2.0375,-3.0025,0.0372,2.2680,rough,14.0,0,4.767
4160,133.12,8.7744,-1.2459,2.0556,-3.0094,-0.0074,2.3938,rough,14.0,0,4.742
4170,133.44,8.7828,-1.2404,2.0461,-3.0267,0.0176,2.3348,rough,14.0,0,4.752
4180,133.76,8.8498,-1.2751,2.0550,-3.0345,0.0594,2.3858,rough,14.0,0,4.777
4190,134.08,8.8442,-1.2960,2.0516,3.1304,-0.1239,2.3666,rough,14.0,0,4.758
4200,134.40,8.8626,-1.2838,2.0618,-3.0579,0.0325,2.4689,rough,14.0,0,4.780
4210,134.72,8.8132,-1.2720,2.0504,-3.0153,0.0113,2.3184,rough,14.0,0,4.752
4220,135.04,8.7839,-1.2532,2.0520,-3.0140,0.0057,2.3765,rough,14.0,0,4.744
4230,135.36,8.8136,-1.2896,2.0499,-2.9653,0.0239,2.3314,rough,14.0,0,4.740
4240,135.68,8.8030,-1.2856,2.0546,-2.9499,0.0273,2.3884,rough,14.0,0,4.735
4250,136.00,8.7536,-1.2751,2.0520,-2.9583,-0.0647,2.3335,rough,14.0,0,4.707
4260,136.32,8.7884,-1.2795,2.0548,-2.9540,-0.0015,2.4105,rough,14.0,0,4.729
4270,136.64,8.7807,-1.3028,2.0563,-2.9153,0.0004,2.3671,rough,14.0,0,4.707
4280,136.96,8.7605,-1.2910,2.0557,-2.9385,-0.0733,2.3967,rough,14.0,0,4.701
4290,137.28,8.7635,-1.2909,2.0551,-2.9634,-0.0890,2.3926,rough,14.0,0,4.703
4300,137.60,8.7660,-1.2660,2.0567,-2.9846,-0.0506,2.4030,rough,14.0,0,4.722
4310,137.92,8.7424,-1.2357,2.0582,-2.9986,-0.0375,2.3609,rough,14.0,0,4.726
4320,138.24,8.8398,-1.2782,2.0529,-3.0580,-0.0017,2.3652,rough,14.0,0,4.767
4330,138.56,8.9227,-1.2884,2.0421,-3.0974,0.0665,2.3114,rough,14.0,0,4.822
4340,138.88,8.8801,-1.2822,2.0550,-3.1130,0.0113,2.3899,rough,14.0,0,4.794
4350,139.20,8.8518,-1.2678,2.0496,-3.1040,-0.0039,2.3093,rough,14.0,0,4.783
4360,139.52,8.8310,-1.2436,2.0585,3.1411,-0.0450,2.4353,rough,14.0,0,4.784
4370,139.84,8.8666,-1.2442,2.0524,3.0529,-0.0757,2.3556,rough,14.0,0,4.810
4380,140.16,8.9846,-1.2741,2.0537,2.9952,0.0453,2.4054,rough,14.0,0,4.877
4390,140.48,8.9791,-1.2660,2.0542,3.0032,0.0702,2.4496,rough,14.0,0,4.879
4400,140.80,8.9218,-1.2243,2.0543,2.9540,-0.0642,2.3469,rough,14.0,0,4.864
4410,141.12,8.9508,-1.2582,2.0483,2.9711,-0.0182,2.3449,rough,14.0,0,4.863
4420,141.44,8.9859,-1.2790,2.0516,2.9941,0.0602,2.4134,rough,14.0,0,4.875
4430,141.76,8.9836,-1.2672,2.0529,2.9978,0.0468,2.4204,rough,14.0,0,4.881
4440,142.08,8.9744,-1.2459,2.0519,2.9572,0.0511,2.4162,rough,14.0,0,4.888
4450,142.40,8.9645,-1.2327,2.0500,2.9487,0.0070,2.3411,rough,14.0,0,4.890
4460,142.72,8.9413,-1.2497,2.0528,2.9662,-0.0287,2.4051,rough,14.0,0,4.861
4470,143.04,8.9769,-1.2618,2.0519,2.9772,0.0397,2.3970,rough,14.0,0,4.880
4480,143.36,8.9695,-1.2564,2.0464,2.9808,0.0275,2.3597,rough,14.0,0,4.878
4490,143.68,8.9394,-1.2586,2.0498,2.9756,-0.0449,2.3542,rough,14.0,0,4.854
4500,144.00,8.9921,-1.2776,2.0564,3.0000,0.0572,2.4375,rough,14.0,0,4.881
4510,144.32,8.9748,-1.2723,2.0470,3.0136,0.0228,2.3907,rough,14.0,0,4.871
4520,144.64,8.9546,-1.2786,2.0372,2.9627,-0.0284,2.2861,rough,14.0,0,4.852
4530,144.96,8.9789,-1.2652,2.0506,2.9950,0.0409,2.3867,rough,14.0,0,4.879
4540,145.28,8.9978,-1.2565,2.0551,2.9352,0.1066,2.3908,rough,14.0,0,4.899
4550,145.60,8.9812,-1.2510,2.0517,2.9788,0.0422,2.4125,rough,14.0,0,4.890
4560,145.92,8.9897,-1.2412,2.0513,2.9475,0.0750,2.4050,slope,18.0,0,4.903
4570,146.24,8.9607,-1.2390,2.0480,2.9506,0.0199,2.3674,rough,14.0,0,4.883
4580,146.56,8.9880,-1.2333,2.0528,2.9359,0.0883,2.4391,rough,14.0,0,4.907
4590,146.88,8.9932,-1.2433,2.0545,2.9224,0.0810,2.3792,slope,18.0,0,4.904
4600,147.20,8.9828,-1.2354,2.0504,2.9531,0.0891,2.3823,rough,14.0,0,4.902
4610,147.52,8.9643,-1.2462,2.0497,2.9578,0.0306,2.3822,rough,14.0,0,4.881
4620,147.84,8.9920,-1.2535,2.0535,2.9518,0.0691,2.4115,rough,14.0,0,4.896
4630,148.16,8.9760,-1.2443,2.0550,2.9994,0.0956,2.4415,slope,18.0,0,4.891
4640,148.48,8.9666,-1.2242,2.0551,2.9322,0.0572,2.4793,rough,14.0,0,4.897
4650,148.80,8.9863,-1.2667,2.0545,2.9899,0.0604,2.4192,rough,14.0,0,4.883
4660,149.12,8.9609,-1.2629,2.0544,3.0158,0.0299,2.4551,rough,14.0,0,4.867
4670,149.44,8.9074,-1.2529,2.0460,2.9786,-0.0803,2.3406,rough,14.0,0,4.834
4680,149.76,8.9917,-1.2598,2.0488,2.9696,0.0699,2.3516,rough,14.0,0,4.892
4690,150.08,8.9617,-1.2491,2.0568,2.9695,0.0182,2.4711,rough,14.0,0,4.877
4700,150.40,8.9917,-1.2559,2.0517,2.9517,0.0797,2.3739,rough,14.0,0,4.895
4710,150.72,8.9588,-1.2686,2.0477,3.0059,0.0225,2.3693,rough,14.0,0,4.862
4720,151.04,8.9926,-1.2707,2.0510,2.9850,0.0539,2.3606,rough,14.0,0,4.885
4730,151.36,8.9405,-1.2583,2.0410,2.9715,0.0019,2.3313,rough,14.0,0,4.855
4740,151.68,8.9707,-1.2552,2.0590,2.9739,0.0303,2.4823,rough,14.0,0,4.879
4750,152.00,8.9802,-1.2432,2.0519,2.9528,0.0665,2.4067,slope,18.0,0,4.895
4760,152.32,8.9677,-1.2397,2.0502,2.9493,0.0186,2.3439,rough,14.0,0,4.888
4770,152.64,8.9695,-1.2404,2.0509,2.9500,0.0585,2.4328,rough,14.0,0,4.888
4780,152.96,8.9888,-1.2574,2.0523,2.9768,0.0369,2.3682,rough,14.0,0,4.891
4790,153.28,8.9729,-1.2317,2.0519,2.9398,0.0575,2.4157,rough,14.0,0,4.897
4800,153.60,8.9873,-1.2453,2.0512,2.9629,0.0793,2.4266,rough,14.0,0,4.898
4810,153.92,8.9812,-1.2409,2.0495,2.9481,0.0868,2.4303,slope,18.0,0,4.897
4820,154.24,8.9783,-1.2274,2.0547,2.9351,0.0685,2.4508,rough,14.0,0,4.904
4830,154.56,8.9867,-1.2525,2.0517,2.9858,0.0871,2.4233,slope,18.0,0,4.893
4840,154.88,8.9794,-1.2514,2.0494,2.9694,0.0487,2.3828,rough,14.0,0,4.888
4850,155.20,8.9823,-1.2396,2.0527,2.9469,0.0690,2.4177,rough,14.0,0,4.899
4860,155.52,8.9882,-1.2285,2.0537,2.9322,0.1025,2.4699,rough,14.0,0,4.910
4870,155.84,8.9863,-1.2374,2.0547,2.9585,0.1040,2.4527,rough,14.0,0,4.903
4880,156.16,8.9839,-1.2484,2.0493,2.9609,0.0592,2.3784,slope,18.0,0,4.894
4890,156.48,9.0008,-1.2616,2.0521,2.9746,0.1147,2.4586,slope,18.0,0,4.898
4900,156.80,8.9717,-1.2285,2.0559,2.9428,0.0649,2.4743,rough,14.0,0,4.898
4910,157.12,8.9752,-1.2475,2.0564,2.9623,0.0498,2.4594,rough,14.0,0,4.888
4920,157.44,8.9671,-1.2382,2.0484,2.9650,0.0565,2.3854,rough,14.0,0,4.888
4930,157.76,8.9602,-1.2146,2.0565,2.9303,0.0029,2.3711,rough,14.0,0,4.899
4940,158.08,8.9860,-1.2614,2.0536,2.9765,0.0609,2.4221,rough,14.0,0,4.887
4950,158.40,8.9915,-1.2785,2.0546,3.0173,0.0913,2.4420,rough,14.0,0,4.879
4960,158.72,8.9857,-1.2694,2.0516,2.9915,0.0403,2.4010,rough,14.0,0,4.881
4970,159.04,8.9660,-1.2659,2.0561,2.9803,0.0037,2.4402,rough,14.0,0,4.869
4980,159.36,8.9799,-1.2709,2.0468,3.0158,0.0331,2.4012,rough,14.0,0,4.876
4990,159.68,8.9610,-1.2634,2.0407,2.9771,0.0414,2.3295,rough,14.0,0,4.867
5000,160.00,8.9719,-1.2380,2.0541,2.9487,0.0505,2.4394,rough,14.0,0,4.892
5010,160.32,8.9778,-1.2435,2.0500,2.9499,0.0563,2.3876,slope,18.0,0,4.893
5020,160.64,8.9850,-1.2388,2.0548,2.9595,0.0893,2.4568,slope,18.0,0,4.901
5030,160.96,8.9693,-1.2410,2.0459,2.9549,0.0475,2.3536,slope,18.0,0,4.888
5040,161.28,8.9762,-1.2329,2.0528,2.9476,0.0430,2.3588,rough,14.0,0,4.898
5050,161.60,8.9860,-1.2492,2.0479,2.9387,0.0496,2.3714,slope,18.0,0,4.895
5060,161.92,8.9793,-1.2408,2.0537,2.9483,0.0518,2.4373,rough,14.0,0,4.896
5070,162.24,8.9795,-1.2244,2.0529,2.9313,0.0770,2.4254,rough,14.0,0,4.907
5080,162.56,8.9772,-1.2360,2.0515,2.9446,0.0497,2.3910,rough,14.0,0,4.897
5090,162.88,8.9836,-1.2423,2.0501,2.9570,0.0725,2.4118,rough,14.0,0,4.898
5100,163.20,8.9956,-1.2572,2.0534,2.9564,0.0723,2.4111,slope,18.0,0,4.897
5110,163.52,8.9690,-1.2810,2.0602,3.0103,0.0063,2.4781,rough,14.0,0,4.861
5120,163.84,8.9673,-1.2705,2.0493,2.9873,0.0111,2.3549,rough,14.0,0,4.867
5130,164.16,8.9880,-1.2348,2.0528,2.9377,0.0764,2.3926,slope,18.0,0,4.906
5140,164.48,8.9862,-1.2477,2.0498,2.9474,0.0839,2.4404,rough,14.0,0,4.896
5150,164.80,8.9761,-1.2449,2.0475,2.9549,0.0536,2.3723,slope,18.0,0,4.890
5160,165.12,8.9779,-1.2572,2.0570,2.9680,0.0401,2.4742,slope,18.0,0,4.883
5170,165.44,8.9917,-1.2310,2.0518,2.9297,0.0939,2.4224,rough,14.0,0,4.911
5180,165.76,8.9878,-1.2399,2.0535,2.9639,0.0793,2.4576,rough,14.0,0,4.902
5190,166.08,8.9791,-1.2568,2.0469,2.9731,0.0451,2.3533,rough,14.0,0,4.885
5200,166.40,8.9809,-1.2666,2.0548,3.0008,0.0501,2.4399,rough,14.0,0,4.879
5210,166.72,8.9884,-1.2637,2.0462,2.9691,0.0576,2.3392,rough,14.0,0,4.887
5220,167.04,8.9786,-1.2537,2.0462,2.9741,0.0696,2.3749,rough,14.0,0,4.886
5230,167.36,8.9893,-1.2406,2.0503,2.9686,0.0719,2.4664,slope,18.0,0,4.903
5240,167.68,8.9631,-1.2237,2.0546,2.9585,0.0603,2.4083,slope,18.0,0,4.895
5250,168.00,8.9786,-1.2364,2.0429,2.9393,0.0817,2.3227,rough,14.0,0,4.898
5260,168.32,8.9824,-1.2385,2.0502,2.9422,0.0312,2.3353,slope,18.0,0,4.899
5270,168.64,8.9757,-1.2216,2.0553,2.9261,0.0362,2.3927,rough,14.0,0,4.906
5280,168.96,8.9887,-1.2527,2.0493,2.9718,0.0676,2.3866,rough,14.0,0,4.895
5290,169.28,8.9431,-1.2405,2.0494,2.9495,-0.0185,2.3682,rough,14.0,0,4.869
5300,169.60,8.9863,-1.2365,2.0524,2.9417,0.0809,2.4225,slope,18.0,0,4.904
5310,169.92,8.9838,-1.2386,2.0569,2.9511,0.0711,2.4622,rough,14.0,0,4.900
5320,170.24,8.9827,-1.2711,2.0514,2.9993,0.0385,2.4063,slope,18.0,0,4.878
5330,170.56,8.9292,-1.2272,2.0545,3.0475,0.0972,2.4165,rough,14.0,0,4.868
5340,170.88,8.8806,-1.2319,2.0559,3.0350,-0.0170,2.4518,rough,14.0,0,4.829
5350,171.20,8.9436,-1.2938,2.0606,3.0223,-0.0685,2.4622,rough,14.0,0,4.834
5360,171.52,8.9659,-1.2989,2.0503,3.0490,-0.0239,2.4050,rough,14.0,0,4.847
5370,171.84,8.9540,-1.2874,2.0389,3.0067,0.0016,2.2889,rough,14.0,0,4.845
5380,172.16,8.9487,-1.2525,2.0562,3.0156,0.0433,2.4329,rough,14.0,0,4.865
5390,172.48,8.9854,-1.2558,2.0497,2.9636,0.0509,2.3867,rough,14.0,0,4.890
5400,172.80,8.9883,-1.2824,2.0533,2.9998,0.0410,2.3959,rough,14.0,0,4.874
5410,173.12,8.9369,-1.2568,2.0480,3.0074,-0.0034,2.3409,rough,14.0,0,4.853
5420,173.44,8.9262,-1.2332,2.0517,2.9442,-0.0587,2.3699,rough,14.0,0,4.861
5430,173.76,8.9360,-1.2334,2.0500,2.9422,-0.0323,2.3657,rough,14.0,0,4.868
5440,174.08,8.9711,-1.2458,2.0493,2.9556,0.0655,2.4211,rough,14.0,0,4.886
5450,174.40,8.9783,-1.2458,2.0545,2.9586,0.0590,2.4406,rough,14.0,0,4.891
5460,174.72,8.9896,-1.2446,2.0527,2.9578,0.0837,2.4198,slope,18.0,0,4.901
5470,175.04,8.9941,-1.2665,2.0536,2.9589,0.0583,2.3481,rough,14.0,0,4.889
5480,175.36,8.9569,-1.2503,2.0500,2.9729,0.0175,2.3914,rough,14.0,0,4.873
5490,175.68,8.9598,-1.2287,2.0546,2.9480,0.0407,2.4346,rough,14.0,0,4.889
5500,176.00,8.9814,-1.2553,2.0509,2.9855,0.0410,2.4086,slope,18.0,0,4.887
5510,176.32,8.9525,-1.2432,2.0475,2.9527,0.0024,2.3541,rough,14.0,0,4.874
5520,176.64,8.9837,-1.2402,2.0490,2.9477,0.0763,2.3783,slope,18.0,0,4.899
5530,176.96,8.9769,-1.2411,2.0473,2.9650,0.0137,2.2957,rough,14.0,0,4.893
5540,177.28,8.9972,-1.2293,2.0537,2.9313,0.1089,2.4443,rough,14.0,0,4.916
5550,177.60,8.9661,-1.2420,2.0435,2.9355,0.0378,2.3499,rough,14.0,0,4.885
5560,177.92,8.9793,-1.2317,2.0517,2.9422,0.0527,2.3821,slope,18.0,0,4.902
5570,178.24,8.9896,-1.2461,2.0507,2.9623,0.0874,2.4024,slope,18.0,0,4.900
5580,178.56,8.9846,-1.2241,2.0546,2.9312,0.0811,2.4349,rough,14.0,0,4.911
5590,178.88,8.9847,-1.2353,2.0483,2.9535,0.0891,2.4092,rough,14.0,0,4.903
5600,179.20,8.9901,-1.2489,2.0502,2.9478,0.0634,2.4100,slope,18.0,0,4.898
5610,179.52,8.9721,-1.2408,2.0571,2.9500,0.0508,2.5003,rough,14.0,0,4.890
5620,179.84,8.9800,-1.2328,2.0498,2.9354,0.0481,2.3479,rough,14.0,0,4.901
5630,180.16,8.9783,-1.2437,2.0458,2.9693,0.0732,2.4006,rough,14.0,0,4.893
5640,180.48,8.9825,-1.2359,2.0516,2.9399,0.0226,2.3062,rough,14.0,0,4.901
5650,180.80,8.9627,-1.2478,2.0543,2.9647,0.0189,2.4308,rough,14.0,0,4.878
5660,181.12,8.9704,-1.2530,2.0534,2.9597,0.0444,2.4192,rough,14.0,0,4.881
5670,181.44,8.9882,-1.2277,2.0536,2.9126,0.0736,2.4610,rough,14.0,0,4.911
5680,181.76,8.9879,-1.2195,2.0546,2.9219,0.0680,2.3937,rough,14.0,0,4.916
5690,182.08,8.9846,-1.2385,2.0497,2.9467,0.0747,2.3734,rough,14.0,0,4.901
5700,182.40,8.9814,-1.2183,2.0569,2.9277,0.0813,2.4586,rough,14.0,0,4.912
5710,182.72,8.9751,-1.2577,2.0483,2.9704,0.0408,2.3544,rough,14.0,0,4.881
5720,183.04,8.9642,-1.2572,2.0521,2.9923,0.0457,2.4140,rough,14.0,0,4.873
5730,183.36,8.9572,-1.2453,2.0559,2.9531,0.0007,2.4497,rough,14.0,0,4.876
5740,183.68,8.9891,-1.2443,2.0542,2.9551,0.0896,2.4514,rough,14.0,0,4.900
5750,184.00,8.9693,-1.2652,2.0464,2.9856,0.0178,2.3388,slope,18.0,0,4.872
5760,184.32,8.9520,-1.2691,2.0568,2.9942,-0.0094,2.4772,rough,14.0,0,4.856
5770,184.64,8.9833,-1.2809,2.0584,3.0153,0.0409,2.4647,rough,14.0,0,4.872
5780,184.96,8.9815,-1.2639,2.0530,2.9856,0.0552,2.4079,rough,14.0,0,4.882
5790,185.28,8.9677,-1.2559,2.0486,2.9870,0.0526,2.3559,rough,14.0,0,4.877
5800,185.60,8.9911,-1.2435,2.0546,2.9552,0.0926,2.4550,slope,18.0,0,4.902
5810,185.92,8.9727,-1.2527,2.0535,2.9700,0.0271,2.3959,rough,14.0,0,4.883
5820,186.24,8.9828,-1.2492,2.0464,2.9738,0.0815,2.4115,rough,14.0,0,4.893
5830,186.56,8.9788,-1.2504,2.0485,2.9697,0.0495,2.3701,rough,14.0,0,4.889
5840,186.88,8.9739,-1.2323,2.0516,2.9480,0.0594,2.3966,rough,14.0,0,4.897
5850,187.20,8.9862,-1.2390,2.0542,2.9392,0.0799,2.4162,rough,14.0,0,4.902
5860,187.52,8.9733,-1.2486,2.0506,2.9608,0.0439,2.3869,rough,14.0,0,4.886
5870,187.84,8.9784,-1.2546,2.0502,2.9745,0.0597,2.3951,slope,18.0,0,4.886
5880,188.16,8.9724,-1.2340,2.0521,2.9463,0.0771,2.4440,slope,18.0,0,4.895
5890,188.48,8.9864,-1.2515,2.0555,2.9676,0.0683,2.4404,rough,14.0,0,4.894
5900,188.80,8.9583,-1.2537,2.0447,2.9885,0.0159,2.3478,rough,14.0,0,4.871
5910,189.12,8.9343,-1.2275,2.0537,2.9544,0.0095,2.4539,rough,14.0,0,4.871
5920,189.44,8.9392,-1.2517,2.0521,2.9668,-0.0385,2.3834,rough,14.0,0,4.859
5930,189.76,8.9861,-1.2620,2.0485,3.0058,0.0478,2.4177,rough,14.0,0,4.886
5940,190.08,8.9757,-1.2660,2.0537,3.0153,0.0672,2.3983,rough,14.0,0,4.876
5950,190.40,8.9970,-1.2574,2.0548,2.9592,0.0688,2.3762,rough,14.0,0,4.898
5960,190.72,8.9490,-1.2669,2.0390,2.9901,0.0088,2.3238,rough,14.0,0,4.856
5970,191.04,8.9956,-1.2727,2.0592,3.0012,0.0744,2.4760,rough,14.0,0,4.886
5980,191.36,8.9922,-1.2589,2.0521,2.9805,0.0643,2.4243,rough,14.0,0,4.893
5990,191.68,8.9237,-1.2383,2.0511,2.9454,-0.0359,2.4454,rough,14.0,0,4.856
6000,192.00,8.9526,-1.2436,2.0456,2.9522,0.0087,2.3370,rough,14.0,0,4.874
6010,192.32,9.0031,-1.2580,2.0591,2.9401,0.0801,2.4008,rough,14.0,0,4.902
6020,192.64,8.9847,-1.3119,2.0506,3.0579,0.0365,2.4549,rough,14.0,0,4.852
6030,192.96,8.9345,-1.2804,2.0563,3.0298,-0.0426,2.4198,rough,14.0,0,4.836
6040,193.28,8.9420,-1.2718,2.0513,2.9862,-0.0499,2.3806,rough,14.0,0,4.847
6050,193.60,8.9979,-1.2770,2.0563,2.9848,0.0596,2.4019,rough,14.0,0,4.885
6060,193.92,8.9284,-1.2663,2.0534,2.9901,-0.0764,2.3956,rough,14.0,0,4.841
6070,194.24,8.9178,-1.2679,2.0534,3.0001,-0.0863,2.3805,rough,14.0,0,4.832
6080,194.56,8.9685,-1.2768,2.0527,3.0113,0.0251,2.3876,rough,14.0,0,4.863
6090,194.88,8.9707,-1.2916,2.0473,3.0227,0.0023,2.3510,rough,14.0,0,4.855
6100,195.20,8.9571,-1.2729,2.0597,2.9969,-0.0188,2.4738,rough,14.0,0,4.857
6110,195.52,8.9857,-1.2764,2.0501,2.9959,0.0458,2.3559,rough,14.0,0,4.877
6120,195.84,8.9684,-1.2306,2.0536,2.9411,0.0594,2.4572,rough,14.0,0,4.894
6130,196.16,8.9603,-1.2313,2.0488,2.9354,0.0291,2.3769,rough,14.0,0,4.888
6140,196.48,8.9703,-1.2424,2.0461,2.9782,0.0937,2.3892,rough,14.0,0,4.888
6150,196.80,8.9830,-1.2308,2.0547,2.9465,0.0938,2.4620,rough,14.0,0,4.905
6160,197.12,8.9744,-1.2335,2.0507,2.9448,0.0627,2.4075,rough,14.0,0,4.897
6170,197.44,8.9805,-1.2436,2.0528,2.9534,0.0645,2.4245,rough,14.0,0,4.895
6180,197.76,8.9712,-1.2396,2.0470,2.9448,0.0435,2.3423,rough,14.0,0,4.890
6190,198.08,8.9858,-1.2363,2.0480,2.9579,0.0730,2.3765,rough,14.0,0,4.903
6200,198.40,8.9835,-1.2405,2.0463,2.9458,0.0702,2.3349,rough,14.0,0,4.899
6210,198.72,8.9817,-1.2439,2.0504,2.9476,0.0480,2.3682,slope,18.0,0,4.895
6220,199.04,8.9778,-1.2265,2.0530,2.9295,0.0260,2.3662,rough,14.0,0,4.904
6230,199.36,8.9788,-1.2694,2.0508,2.9858,0.0341,2.3730,rough,14.0,0,4.876
6240,199.68,8.9792,-1.2561,2.0516,2.9762,0.0655,2.4061,rough,14.0,0,4.885
6250,200.00,8.9700,-1.2211,2.0549,2.9576,0.0567,2.3573,rough,14.0,0,4.902
6260,200.32,8.9757,-1.2357,2.0491,2.9635,0.0334,2.3662,rough,14.0,0,4.896
6270,200.64,8.9959,-1.2334,2.0555,2.9439,0.1063,2.4602,rough,14.0,0,4.913
6280,200.96,8.9739,-1.2372,2.0498,2.9455,0.0492,2.3784,rough,14.0,0,4.894
6290,201.28,8.9850,-1.2578,2.0528,2.9839,0.0660,2.4182,slope,18.0,0,4.888
6300,201.60,8.9837,-1.2270,2.0536,2.9314,0.0859,2.4492,rough,14.0,0,4.908
6310,201.92,8.9733,-1.2477,2.0482,2.9571,0.0453,2.3604,rough,14.0,0,4.886
6320,202.24,8.9950,-1.2189,2.0561,2.9306,0.1126,2.4470,rough,14.0,0,4.922
6330,202.56,8.9769,-1.2466,2.0504,2.9580,0.0497,2.4032,rough,14.0,0,4.890
6340,202.88,8.9810,-1.2597,2.0406,2.9555,0.0003,2.3238,rough,14.0,0,4.884
6350,203.20,8.9469,-1.2455,2.0579,2.9752,0.0011,2.4706,rough,14.0,0,4.868
6360,203.52,8.9898,-1.2509,2.0519,2.9533,0.1010,2.4317,rough,14.0,0,4.897
6370,203.84,8.9366,-1.2323,2.0521,2.9474,-0.0170,2.4241,rough,14.0,0,4.870
6380,204.16,8.9835,-1.2432,2.0495,2.9485,0.0736,2.3934,rough,14.0,0,4.897
6390,204.48,8.9940,-1.2315,2.0524,2.9217,0.0494,2.3617,rough,14.0,0,4.913
6400,204.80,8.9745,-1.2457,2.0505,2.9557,0.0723,2.4225,slope,18.0,0,4.889
6410,205.12,8.9788,-1.2494,2.0455,2.9740,0.0742,2.3952,rough,14.0,0,4.889
6420,205.44,8.9798,-1.2352,2.0577,2.9478,0.0564,2.4571,rough,14.0,0,4.900
6430,205.76,8.9623,-1.2521,2.0495,2.9625,0.0167,2.3782,rough,14.0,0,4.875
6440,206.08,8.9859,-1.2347,2.0540,2.9421,0.0830,2.4375,rough,14.0,0,4.905
6450,206.40,8.9840,-1.2325,2.0526,2.9373,0.0667,2.4030,rough,14.0,0,4.905
6460,206.72,8.9685,-1.2268,2.0513,2.9388,0.0524,2.4097,rough,14.0,0,4.897
6470,207.04,8.9808,-1.2191,2.0560,2.9269,0.0565,2.4047,rough,14.0,0,4.911
6480,207.36,9.0018,-1.2649,2.0544,2.9724,0.0887,2.4208,rough,14.0,0,4.896
6490,207.68,8.9372,-1.2363,2.0516,2.9629,-0.0113,2.3880,rough,14.0,0,4.867
6500,208.00,8.9604,-1.2448,2.0553,2.9592,0.0225,2.4549,rough,14.0,0,4.879
6510,208.32,8.9825,-1.2428,2.0493,2.9577,0.0985,2.4394,slope,18.0,0,4.897
6520,208.64,9.0038,-1.2701,2.0542,2.9735,0.0735,2.4031,rough,14.0,0,4.894
6530,208.96,8.9769,-1.2793,2.0591,3.0354,0.0558,2.4693,rough,14.0,0,4.868
6540,209.28,8.9487,-1.2459,2.0550,2.9561,-0.0227,2.4146,rough,14.0,0,4.869
6550,209.60,8.9577,-1.2405,2.0552,2.9258,0.0035,2.4968,rough,14.0,0,4.880
6560,209.92,8.9837,-1.2399,2.0489,2.9685,0.0905,2.4542,slope,18.0,0,4.899
6570,210.24,8.9808,-1.2415,2.0508,2.9517,0.0860,2.4387,rough,14.0,0,4.896
6580,210.56,8.9687,-1.2434,2.0525,2.9688,0.0443,2.4345,rough,14.0,0,4.886
6590,210.88,8.9580,-1.2431,2.0526,2.9562,0.0126,2.4106,rough,14.0,0,4.878
6600,211.20,8.9797,-1.2429,2.0471,2.9513,0.0896,2.3953,slope,18.0,0,4.894
6610,211.52,8.9692,-1.2371,2.0574,2.9472,0.0276,2.4592,rough,14.0,0,4.890
6620,211.84,8.9922,-1.2812,2.0564,3.0014,0.0474,2.4315,rough,14.0,0,4.878
6630,212.16,8.9368,-1.2678,2.0520,3.0053,-0.0411,2.3836,rough,14.0,0,4.846
6640,212.48,8.9261,-1.2450,2.0556,2.9719,-0.0422,2.4382,rough,14.0,0,4.853
6650,212.80,8.9865,-1.2463,2.0501,2.9510,0.0945,2.4388,rough,14.0,0,4.897
6660,213.12,8.9785,-1.2508,2.0554,2.9687,0.0518,2.4453,rough,14.0,0,4.888
6670,213.44,8.9782,-1.2456,2.0493,2.9509,0.0560,2.3670,slope,18.0,0,4.891
6680,213.76,8.9692,-1.2463,2.0498,2.9637,0.0354,2.3838,rough,14.0,0,4.884
6690,214.08,8.9883,-1.2396,2.0510,2.9415,0.0901,2.4336,slope,18.0,0,4.903
6700,214.40,8.9961,-1.2579,2.0503,2.9752,0.1047,2.4489,rough,14.0,0,4.897
6710,214.72,8.9649,-1.2415,2.0486,2.9521,0.0314,2.3680,rough,14.0,0,4.884
6720,215.04,8.9865,-1.2245,2.0546,2.9402,0.0744,2.3850,slope,18.0,0,4.912
6730,215.36,8.9834,-1.2505,2.0566,2.9675,0.0785,2.5154,rough,14.0,0,4.892
6740,215.68,8.9896,-1.2479,2.0475,2.9533,0.0746,2.3445,rough,14.0,0,4.898
6750,216.00,8.9746,-1.2352,2.0505,2.9532,0.0533,2.3589,slope,18.0,0,4.896
6760,216.32,8.9831,-1.2408,2.0511,2.9409,0.0675,2.3695,rough,14.0,0,4.898
6770,216.64,8.9961,-1.2575,2.0511,2.9728,0.1049,2.4458,rough,14.0,0,4.897
6780,216.96,8.9649,-1.2412,2.0480,2.9505,0.0315,2.3592,rough,14.0,0,4.885
6790,217.28,8.9910,-1.2680,2.0542,2.9469,0.0767,2.3607,slope,18.0,0,4.886
6800,217.60,8.9363,-1.2860,2.0565,3.0244,-0.0589,2.4163,rough,14.0,0,4.833
6810,217.92,8.9247,-1.2583,2.0526,2.9748,-0.0782,2.3829,rough,14.0,0,4.843
6820,218.24,8.9716,-1.2440,2.0491,2.9713,0.0711,2.3682,rough,14.0,0,4.888
6830,218.56,8.9873,-1.2461,2.0548,2.9618,0.0812,2.4492,rough,14.0,0,4.898
6840,218.88,8.9754,-1.2564,2.0513,2.9832,0.0609,2.4188,slope,18.0,0,4.882
6850,219.20,8.9838,-1.2251,2.0544,2.9270,0.0700,2.4271,rough,14.0,0,4.909
6860,219.52,8.9764,-1.2458,2.0497,2.9475,0.0624,2.4205,rough,14.0,0,4.890
6870,219.84,8.9817,-1.2354,2.0496,2.9409,0.0729,2.3781,rough,14.0,0,4.901
6880,220.16,8.9787,-1.2503,2.0405,2.9559,0.0942,2.3332,slope,18.0,0,4.889
6890,220.48,8.9739,-1.2369,2.0512,2.9445,0.0526,2.3970,rough,14.0,0,4.894
6900,220.80,9.0047,-1.2648,2.0587,2.9222,0.0667,2.3299,rough,14.0,0,4.898
6910,221.12,8.9711,-1.2414,2.0481,2.9612,0.0471,2.3941,slope,18.0,0,4.889
6920,221.44,8.9913,-1.2481,2.0546,2.9627,0.0826,2.4362,slope,18.0,0,4.900
6930,221.76,9.0031,-1.2544,2.0550,2.9604,0.0898,2.4320,rough,14.0,0,4.904
6940,222.08,8.9652,-1.2297,2.0537,2.9556,0.0656,2.4578,rough,14.0,0,4.892
6950,222.40,8.9914,-1.2411,2.0490,2.9468,0.0904,2.3736,rough,14.0,0,4.904
6960,222.72,8.9729,-1.2814,2.0409,3.0252,0.0235,2.3362,rough,14.0,0,4.864
6970,223.04,8.9723,-1.2382,2.0513,2.9462,0.0468,2.4042,rough,14.0,0,4.892
6980,223.36,8.9797,-1.2340,2.0526,2.9458,0.0744,2.4201,rough,14.0,0,4.900
6990,223.68,8.9838,-1.2233,2.0544,2.9313,0.0886,2.4468,rough,14.0,0,4.911
7000,224.00,8.9902,-1.2227,2.0543,2.9326,0.0906,2.4085,rough,14.0,0,4.916
7010,224.32,8.9872,-1.2293,2.0536,2.9388,0.1039,2.4720,rough,14.0,0,4.909
7020,224.64,8.9800,-1.2393,2.0514,2.9435,0.0765,2.4379,rough,14.0,0,4.897
7030,224.96,8.9778,-1.2415,2.0489,2.9654,0.0585,2.4079,slope,18.0,0,4.894
7040,225.28,8.9560,-1.2282,2.0532,2.9365,0.0219,2.4268,rough,14.0,0,4.887
7050,225.60,8.9530,-1.2443,2.0566,3.0112,0.0698,2.4487,rough,14.0,0,4.874
7060,225.92,8.9975,-1.2473,2.0436,2.9542,0.0661,2.3349,rough,14.0,0,4.905
7070,226.24,8.9563,-1.2625,2.0476,2.9994,0.0146,2.3557,rough,14.0,0,4.864
7080,226.56,8.9284,-1.2630,2.0500,2.9809,-0.0745,2.3495,rough,14.0,0,4.843
7090,226.88,8.9833,-1.2771,2.0543,2.9903,0.0287,2.4113,rough,14.0,0,4.874
7100,227.20,8.9854,-1.2720,2.0531,2.9900,0.0395,2.4069,rough,14.0,0,4.879
7110,227.52,8.9780,-1.2634,2.0503,2.9753,0.0368,2.3598,rough,14.0,0,4.879
7120,227.84,8.9267,-1.2223,2.0548,2.9279,-0.0682,2.3984,rough,14.0,0,4.869
7130,228.16,8.8890,-1.2431,2.0499,2.9563,-0.1378,2.3577,rough,14.0,0,4.827
7140,228.48,8.9337,-1.2838,2.0613,3.0040,-0.0891,2.4760,rough,14.0,0,4.833
7150,228.80,8.9922,-1.2824,2.0426,2.9455,0.0315,2.3655,rough,14.0,0,4.877
7160,229.12,8.9208,-1.2713,2.0462,3.0731,0.0085,2.2939,rough,14.0,0,4.832
7170,229.44,8.9023,-1.2598,2.0530,3.0080,-0.0848,2.3843,rough,14.0,0,4.826
7180,229.76,8.9478,-1.2696,2.0470,2.9846,-0.0372,2.3165,rough,14.0,0,4.853
7190,230.08,8.9752,-1.2629,2.0505,3.0000,0.0679,2.4079,rough,14.0,0,4.878
7200,230.40,8.9289,-1.2159,2.0574,2.9290,-0.0302,2.4661,rough,14.0,0,4.875
7210,230.72,8.9188,-1.2479,2.0564,2.9630,-0.0733,2.4550,rough,14.0,0,4.846
7220,231.04,8.9855,-1.2376,2.0518,2.9289,0.0494,2.3928,rough,14.0,0,4.902
7230,231.36,8.9847,-1.2738,2.0542,2.9959,0.0385,2.4183,rough,14.0,0,4.878
7240,231.68,8.9764,-1.2825,2.0569,3.0070,0.0136,2.4394,rough,14.0,0,4.866
7250,232.00,8.9666,-1.2646,2.0544,2.9823,0.0134,2.4219,rough,14.0,0,4.870
7260,232.32,8.9955,-1.2610,2.0559,2.9417,0.0670,2.3510,rough,14.0,0,4.894
7270,232.64,8.9185,-1.2704,2.0515,3.0366,-0.0531,2.3725,rough,14.0,0,4.831
7280,232.96,8.9145,-1.2503,2.0495,3.1084,0.1066,2.3501,rough,14.0,0,4.841
7290,233.28,8.9156,-1.2691,2.0600,2.9925,-0.1296,2.4478,rough,14.0,0,4.829
7300,233.60,8.9496,-1.2530,2.0524,3.0059,0.0381,2.3948,rough,14.0,0,4.865
7310,233.92,9.0038,-1.2565,2.0530,2.9661,0.1287,2.4813,rough,14.0,0,4.903
7320,234.24,8.9881,-1.2697,2.0466,2.9704,0.0412,2.3007,rough,14.0,0,4.883
7330,234.56,8.9643,-1.2453,2.0434,2.9484,0.0108,2.3228,rough,14.0,0,4.881
7340,234.88,8.9937,-1.2337,2.0527,2.9243,0.0514,2.3783,rough,14.0,0,4.911
7350,235.20,8.9699,-1.2347,2.0519,2.9454,0.0351,2.3803,rough,14.0,0,4.893
7360,235.52,8.9924,-1.2311,2.0534,2.9335,0.1014,2.4505,rough,14.0,0,4.912
7370,235.84,8.9928,-1.2378,2.0545,2.9322,0.0733,2.3840,slope,18.0,0,4.908
7380,236.16,8.9858,-1.2526,2.0497,2.9642,0.0639,2.3646,rough,14.0,0,4.892
7390,236.48,8.9780,-1.2543,2.0489,2.9610,0.0453,2.3517,rough,14.0,0,4.886
7400,236.80,8.9696,-1.2625,2.0507,2.9809,0.0264,2.3839,rough,14.0,0,4.874
7410,237.12,8.9986,-1.2572,2.0544,2.9603,0.1073,2.5022,rough,14.0,0,4.899
7420,237.44,8.9876,-1.2760,2.0570,3.0067,0.0578,2.4471,rough,14.0,0,4.878
7430,237.76,8.9536,-1.2665,2.0454,2.9839,-0.0064,2.3215,rough,14.0,0,4.859
7440,238.08,8.9732,-1.2540,2.0514,2.9664,0.0348,2.3823,rough,14.0,0,4.882
7450,238.40,8.9704,-1.2376,2.0518,2.9438,0.0431,2.4031,rough,14.0,0,4.891
7460,238.72,8.9832,-1.2294,2.0546,2.9327,0.0792,2.4585,rough,14.0,0,4.906
7470,239.04,8.9671,-1.2422,2.0498,2.9482,0.0288,2.3756,rough,14.0,0,4.885
7480,239.36,8.9841,-1.2392,2.0461,2.9552,0.0599,2.4314,rough,14.0,0,4.900
7490,239.68,8.9734,-1.2446,2.0482,2.9824,0.0426,2.4284,rough,14.0,0,4.889
7500,240.00,8.9946,-1.2304,2.0535,2.9387,0.1190,2.4687,rough,14.0,0,4.914
7510,240.32,8.9603,-1.2349,2.0521,2.9410,0.0205,2.4179,rough,14.0,0,4.885
7520,240.64,8.9787,-1.2449,2.0507,2.9558,0.0711,2.3900,slope,18.0,0,4.892
7530,240.96,8.9690,-1.2392,2.0489,2.9497,0.0489,2.3845,rough,14.0,0,4.889
7540,241.28,8.9672,-1.2477,2.0498,2.9739,0.0595,2.3905,rough,14.0,0,4.882
7550,241.60,8.9745,-1.2491,2.0489,2.9740,0.0434,2.3975,rough,14.0,0,4.886
7560,241.92,8.9866,-1.2627,2.0532,2.9844,0.0719,2.4170,rough,14.0,0,4.886
7570,242.24,8.9820,-1.2245,2.0539,2.9351,0.0704,2.4006,rough,14.0,0,4.908
7580,242.56,8.9895,-1.2319,2.0490,2.9242,0.0234,2.3230,rough,14.0,0,4.909
7590,242.88,8.9798,-1.2404,2.0448,2.9717,0.0606,2.3685,slope,18.0,0,4.896
7600,243.20,8.9683,-1.2283,2.0529,2.9246,0.0308,2.4261,rough,14.0,0,4.896
7610,243.52,8.9637,-1.2469,2.0465,2.9587,0.0443,2.3655,rough,14.0,0,4.880
7620,243.84,8.9870,-1.2393,2.0508,2.9517,0.1012,2.4214,slope,18.0,0,4.902
7630,244.16,8.9842,-1.2409,2.0574,2.9492,0.0584,2.4545,rough,14.0,0,4.899
7640,244.48,8.9716,-1.2432,2.0530,2.9693,0.0568,2.4259,slope,18.0,0,4.888
7650,244.80,8.9922,-1.2508,2.0529,2.9433,0.0474,2.3601,rough,14.0,0,4.898
7660,245.12,8.9284,-1.2282,2.0537,2.9554,-0.0325,2.3998,rough,14.0,0,4.866
7670,245.44,8.9280,-1.2588,2.0561,2.9791,-0.0670,2.4328,rough,14.0,0,4.845
7680,245.76,8.9916,-1.2627,2.0514,2.9710,0.0712,2.4032,rough,14.0,0,4.890
7690,246.08,8.9753,-1.2392,2.0509,2.9528,0.0589,2.4126,rough,14.0,0,4.894
7700,246.40,8.9747,-1.2435,2.0556,2.9584,0.0535,2.4561,rough,14.0,0,4.890
7710,246.72,8.9656,-1.2636,2.0558,2.9968,0.0163,2.4616,slope,18.0,0,4.870
7720,247.04,8.9573,-1.2805,2.0488,2.9988,-0.0190,2.3514,rough,14.0,0,4.853
7730,247.36,8.9929,-1.2740,2.0570,2.9595,0.0378,2.3446,rough,14.0,0,4.883
7740,247.68,8.9688,-1.2588,2.0547,2.9949,0.0258,2.4494,rough,14.0,0,4.876
7750,248.00,8.9638,-1.2462,2.0444,2.9450,0.0313,2.3369,rough,14.0,0,4.880
7760,248.32,8.9856,-1.2440,2.0507,2.9473,0.0707,2.3588,rough,14.0,0,4.898
7770,248.64,8.9717,-1.2415,2.0464,2.9929,0.0394,2.4387,rough,14.0,0,4.889
7780,248.96,8.9762,-1.2486,2.0466,2.9621,0.0748,2.3865,rough,14.0,0,4.888
7790,249.28,8.9691,-1.2411,2.0498,2.9497,0.0349,2.3693,rough,14.0,0,4.888
7800,249.60,8.9804,-1.2530,2.0496,2.9719,0.0601,2.4048,rough,14.0,0,4.888
7810,249.92,8.9624,-1.2488,2.0519,2.9686,0.0316,2.4092,rough,14.0,0,4.878
7820,250.24,8.9818,-1.2475,2.0495,2.9565,0.0791,2.4103,rough,14.0,0,4.893
7830,250.56,8.9985,-1.2612,2.0558,2.9503,0.0735,2.3726,rough,14.0,0,4.896
7840,250.88,8.9271,-1.2798,2.0545,3.0064,-0.0918,2.4094,rough,14.0,0,4.831
7850,251.20,8.9029,-1.2748,2.0310,3.0794,-0.0882,2.2958,rough,14.0,0,4.816
7860,251.52,8.9060,-1.2669,2.0562,3.1359,0.0590,2.4132,rough,14.0,0,4.824
7870,251.84,8.8734,-1.2537,2.0480,3.0514,-0.0710,2.3331,rough,14.0,0,4.809
7880,252.16,8.9757,-1.2575,2.0500,2.9621,0.0276,2.3689,rough,14.0,0,4.882
7890,252.48,8.9867,-1.2819,2.0509,3.0461,0.0393,2.4903,rough,14.0,0,4.874
7900,252.80,8.9530,-1.2666,2.0483,3.0248,0.0302,2.3303,rough,14.0,0,4.859
7910,253.12,8.9623,-1.2610,2.0558,2.9731,0.0011,2.4419,rough,14.0,0,4.869
7920,253.44,8.9919,-1.2496,2.0583,2.9670,0.0859,2.4814,rough,14.0,0,4.899
7930,253.76,8.9634,-1.2325,2.0477,2.9665,0.0645,2.4671,rough,14.0,0,4.889
7940,254.08,8.9507,-1.2467,2.0549,2.9606,0.0001,2.4557,rough,14.0,0,4.870
7950,254.40,8.9897,-1.2482,2.0548,2.9630,0.0878,2.4574,rough,14.0,0,4.898
7960,254.72,8.9888,-1.2417,2.0514,2.9530,0.1148,2.4769,slope,18.0,0,4.902
7970,255.04,8.9916,-1.2706,2.0536,2.9575,0.0803,2.3869,slope,18.0,0,4.885
7980,255.36,8.9842,-1.2692,2.0500,2.9871,0.0679,2.3989,rough,14.0,0,4.880
7990,255.68,8.9800,-1.2626,2.0538,2.9929,0.0501,2.4254,rough,14.0,0,4.881
8000,256.00,8.9934,-1.2366,2.0535,2.9453,0.0986,2.4343,slope,18.0,0,4.909
8010,256.32,8.9825,-1.2455,2.0474,2.9383,0.0558,2.3779,slope,18.0,0,4.895
8020,256.64,8.9883,-1.2657,2.0522,2.9718,0.0511,2.3554,rough,14.0,0,4.886
8030,256.96,8.9785,-1.2392,2.0544,2.9535,0.0679,2.4393,rough,14.0,0,4.896
8040,257.28,8.9829,-1.2453,2.0520,2.9670,0.0829,2.4064,slope,18.0,0,4.895
