step,time_s,x,y,z,roll,pitch,yaw,terrain,speed,target_idx,dist_to_target
10,0.32,1.8932,0.4978,0.6434,0.0349,-0.4055,-0.0104,slope,18.0,0,6.524
20,0.64,1.9625,0.5034,0.6703,0.0337,-0.4136,0.0338,slope,18.0,0,6.455
30,0.96,2.3253,0.5236,0.8349,0.0196,-0.4538,0.0475,slope,18.0,0,6.098
40,1.28,2.7045,0.5525,1.0196,-0.0037,-0.4576,0.0780,slope,18.0,0,5.724
50,1.60,3.0789,0.5956,1.2051,-0.0293,-0.4629,0.1202,slope,18.0,0,5.352
60,1.92,3.4591,0.6572,1.3856,-0.0662,-0.4374,0.1774,slope,18.0,0,4.969
70,2.24,3.8565,0.7450,1.5692,-0.0815,-0.3979,0.2154,slope,18.0,0,4.563
80,2.56,4.2661,0.8550,1.7433,-0.1032,-0.3832,0.2661,slope,18.0,0,4.139
90,2.88,4.6970,0.9888,1.9137,-0.1170,-0.3587,0.3187,slope,18.0,0,3.688
100,3.20,5.1582,1.1613,2.0829,-0.1290,-0.3220,0.3822,slope,18.0,0,3.197
110,3.52,5.6472,1.3665,2.2538,-0.1307,-0.3074,0.4163,slope,18.0,0,2.671
120,3.84,6.1464,1.5870,2.4246,-0.1283,-0.3046,0.4099,slope,18.0,0,2.134
130,4.16,6.6276,1.7916,2.5887,-0.1116,-0.3074,0.3747,slope,18.0,0,1.624
140,4.48,7.0618,1.9565,2.7375,-0.0679,-0.3231,0.2507,rough,14.0,0,1.174
150,4.80,7.3845,2.0306,2.8474,-0.0346,-0.3276,0.1762,rough,14.0,1,4.693
160,5.12,7.6690,2.0868,2.9632,-0.0439,-0.4085,0.1228,rough,14.0,1,4.829
170,5.44,7.8898,2.1166,3.1273,0.0062,-0.7719,0.0597,rough,14.0,1,4.954
180,5.76,8.0006,2.1057,3.2379,0.1204,-0.7921,-0.1033,rough,14.0,1,5.038
190,6.08,8.0137,2.0440,3.2323,0.1953,-0.7894,-0.1511,rough,14.0,1,5.091
200,6.40,8.0207,2.0017,3.2356,0.1838,-0.7873,-0.1227,rough,14.0,1,5.127
210,6.72,8.0501,1.9779,3.2532,0.2920,-0.7220,-0.2649,rough,14.0,1,5.164
220,7.04,8.1818,1.9393,3.3233,0.3732,-0.5778,-0.1935,rough,14.0,1,5.283
230,7.36,8.3773,1.8766,3.4383,0.4481,-0.5802,-0.2042,rough,14.0,1,5.465
240,7.68,8.5840,1.8344,3.5527,0.3948,-0.5248,-0.2848,rough,14.0,1,5.642
250,8.00,8.7561,1.7579,3.6000,0.3795,-0.3241,-0.2435,rough,14.0,1,5.819
260,8.32,8.9461,1.6708,3.6474,0.3741,-0.0613,-0.2061,rough,14.0,1,6.017
270,8.64,8.9893,1.6388,3.6211,0.4007,-0.2807,-0.2047,rough,14.0,1,6.071
280,8.96,9.1694,1.5749,3.6579,0.3397,-0.1016,-0.4023,rough,14.0,1,6.247
290,9.28,9.2774,1.4693,3.6510,0.3615,-0.0940,-0.6697,rough,14.0,1,6.398
300,9.60,9.4520,1.3350,3.5783,-0.0138,0.2858,-0.8133,rough,14.0,1,6.618
310,9.92,9.5760,1.2544,3.5258,-0.1753,0.2849,-0.9143,rough,14.0,1,6.764
320,10.24,9.6347,1.1249,3.4648,-0.0554,0.4565,-1.0017,rough,14.0,1,6.894
330,10.56,9.6291,1.0466,3.4656,-0.0506,0.4889,-1.2059,rough,14.0,1,6.943
340,10.88,9.6112,0.9654,3.4510,-0.0556,0.4686,-1.3647,rough,14.0,1,6.985
350,11.20,9.6136,0.8528,3.4182,-0.0072,0.3867,-1.3041,rough,14.0,1,7.064
360,11.52,9.6210,0.7291,3.3668,0.1246,0.3985,-1.2509,rough,14.0,1,7.156
370,11.84,9.6276,0.6469,3.3342,0.1034,0.4639,-1.4581,rough,14.0,1,7.218
380,12.16,9.6051,0.5731,3.3082,0.0472,0.4848,-1.6716,rough,14.0,1,7.255
390,12.48,9.5712,0.5094,3.2554,0.0682,0.3042,-1.7888,rough,14.0,1,7.277
400,12.80,9.5219,0.3777,3.2142,0.0348,0.5298,-1.9385,rough,14.0,1,7.338
410,13.12,9.4830,0.2802,3.1518,0.0073,0.5941,-2.0210,rough,14.0,1,7.384
420,13.44,9.4357,0.1824,3.0825,-0.0076,0.6604,-2.0933,rough,14.0,1,7.425
430,13.76,9.3785,0.0687,2.9917,0.0025,0.7019,-2.1489,rough,14.0,1,7.473
440,14.08,9.3148,-0.0304,2.9027,0.0206,0.7150,-2.1940,rough,14.0,1,7.508
450,14.40,9.2436,-0.1184,2.8164,0.0358,0.7233,-2.2583,rough,14.0,1,7.531
460,14.72,9.1632,-0.2066,2.7175,0.0062,0.7237,-2.3390,rough,14.0,1,7.551
470,15.04,9.0706,-0.2972,2.6129,0.0059,0.7218,-2.3947,rough,14.0,1,7.566
480,15.36,8.9661,-0.3905,2.4993,-0.0005,0.7064,-2.4462,rough,14.0,1,7.579
490,15.68,8.8783,-0.5107,2.4160,-0.2078,0.6332,-2.5239,rough,14.0,1,7.626
500,16.00,8.7481,-0.6267,2.3269,-0.3110,0.5241,-2.5444,rough,14.0,1,7.649
510,16.32,8.6102,-0.6956,2.2862,-0.1486,0.1909,-2.4774,rough,14.0,1,7.632
520,16.64,8.5449,-0.7963,2.2878,-0.2417,-0.1995,-2.3982,rough,14.0,1,7.683
530,16.96,8.4747,-0.8466,2.3363,-0.0714,-0.8465,-2.3384,rough,14.0,1,7.689
540,17.28,8.4198,-0.9726,2.3693,-0.1974,-0.8497,-2.4456,rough,14.0,1,7.770
550,17.60,8.3167,-1.1217,2.4360,-0.5411,-0.8103,-2.3755,rough,14.0,1,7.849
560,17.92,8.3297,-1.2076,2.4381,-0.5553,-0.7913,-2.3040,rough,14.0,1,7.930
570,18.24,8.3522,-1.2987,2.4584,-0.3496,-0.8260,-2.4270,rough,14.0,1,8.021
580,18.56,8.2915,-1.3965,2.5418,-0.3656,-0.8338,-2.4571,rough,14.0,1,8.079
590,18.88,8.3099,-1.4855,2.5408,-0.4155,-0.7356,-2.3046,rough,14.0,1,8.166
600,19.20,8.2688,-1.6154,2.6121,-0.3175,-0.7625,-2.3607,rough,14.0,1,8.263
610,19.52,8.2386,-1.7259,2.6603,-0.3571,-0.6990,-2.2780,rough,14.0,1,8.348
620,19.84,8.1784,-1.8398,2.7489,-0.4179,-0.6647,-2.1955,rough,14.0,1,8.423
630,20.16,8.0527,-2.0185,2.8893,-0.2819,-0.5761,-2.4073,rough,14.0,1,8.532
640,20.48,7.7882,-2.2172,2.9581,0.0043,-0.0819,-2.6129,rough,14.0,1,8.609
650,20.80,7.3182,-2.4722,2.8263,0.2317,0.2718,-2.4288,slope,18.0,1,8.683
660,21.12,6.8965,-2.8014,2.6846,0.2049,0.2604,-2.5070,slope,18.0,1,8.873
670,21.44,6.4542,-3.1025,2.5358,0.1826,0.2825,-2.5785,slope,18.0,1,9.059
680,21.76,5.9923,-3.3746,2.3755,0.1627,0.3004,-2.6255,slope,18.0,1,9.241
690,22.08,5.5199,-3.6269,2.2064,0.1445,0.3145,-2.6694,slope,18.0,1,9.428
700,22.40,5.0372,-3.8567,2.0312,0.1281,0.3274,-2.7094,slope,18.0,1,9.619
710,22.72,4.5478,-4.0674,1.8492,0.1138,0.3353,-2.7455,slope,18.0,1,9.815
720,23.04,4.0509,-4.2605,1.6613,0.0975,0.3427,-2.7829,slope,18.0,1,10.019
730,23.36,3.5493,-4.4363,1.4705,0.0829,0.3489,-2.8144,slope,18.0,1,10.230
740,23.68,3.0438,-4.5948,1.2760,0.0683,0.3465,-2.8533,slope,18.0,1,10.448
750,24.00,2.5319,-4.7373,1.0811,0.0565,0.3533,-2.8786,slope,18.0,1,10.672
760,24.32,2.0171,-4.8674,0.8855,0.0437,0.3532,-2.9022,slope,18.0,1,10.907
770,24.64,1.5131,-4.9832,0.6959,0.0312,0.3516,-2.9233,slope,18.0,1,11.145
780,24.96,1.1393,-5.0529,0.5568,0.0106,0.3501,-2.9775,slope,18.0,1,11.318
790,25.28,0.7496,-5.0758,0.4152,-0.0348,0.3468,-3.1043,slope,18.0,1,11.462
800,25.60,0.3378,-5.0726,0.2683,-0.0541,0.3421,3.1294,slope,18.0,1,11.601
810,25.92,-0.0435,-5.0636,0.1776,-0.0632,0.1677,3.0846,slope,18.0,1,11.735
820,26.24,-0.3937,-5.0470,0.1456,-0.0603,0.0094,2.8727,slope,18.0,1,11.861
830,26.56,-0.5592,-4.9994,0.1435,-0.0215,-0.0461,2.1419,flat,18.0,1,11.887
840,26.88,-0.6382,-4.8237,0.1529,0.0077,-0.0495,1.4809,slope,18.0,1,11.763
850,27.20,-0.5645,-4.4616,0.1714,0.0319,-0.0414,0.9500,slope,18.0,1,11.406
860,27.52,-0.2807,-4.0760,0.2096,0.0056,-0.1385,0.8962,slope,18.0,1,10.934
870,27.84,-0.0074,-3.6401,0.2521,-0.1173,-0.1295,1.0155,slope,18.0,1,10.423
880,28.16,0.2294,-3.1695,0.3181,-0.2063,-0.1406,1.1041,slope,18.0,1,9.896
890,28.48,0.4591,-2.6545,0.3698,-0.2624,-0.0801,1.1347,slope,18.0,1,9.333
900,28.80,0.6926,-2.1263,0.4051,-0.2864,-0.0361,1.1333,rough,14.0,1,8.755
910,29.12,0.8885,-1.7055,0.4269,-0.2734,-0.0216,1.0995,rough,14.0,1,8.291
920,29.44,1.0783,-1.3244,0.4389,-0.2816,-0.0367,1.0655,rough,14.0,1,7.866
930,29.76,1.2812,-0.9405,0.4606,-0.3228,-0.0443,1.0402,rough,14.0,1,7.432
940,30.08,1.5114,-0.5427,0.5004,-0.3150,-0.1147,1.0618,slope,18.0,1,6.973
950,30.40,1.7444,-0.0588,0.5700,-0.3647,-0.1534,1.1296,slope,18.0,1,6.436
960,30.72,1.9662,0.4410,0.6696,-0.3629,-0.2097,1.1726,slope,18.0,1,5.890
970,31.04,2.1758,0.9510,0.7894,-0.3450,-0.2343,1.1754,slope,18.0,1,5.339
980,31.36,2.3849,1.4552,0.9201,-0.3357,-0.2472,1.1516,slope,18.0,1,4.795
990,31.68,2.6077,1.9541,1.0518,-0.3400,-0.2434,1.1178,slope,18.0,1,4.249
1000,32.00,2.8486,2.4484,1.1794,-0.3272,-0.2220,1.0822,slope,18.0,1,3.699
1010,32.32,3.1075,2.9389,1.2933,-0.3213,-0.2017,1.0534,slope,18.0,1,3.145
1020,32.64,3.3794,3.4057,1.3948,-0.3108,-0.2231,0.9867,slope,18.0,1,2.606
1030,32.96,3.6835,3.8522,1.5073,-0.3081,-0.1984,0.9434,slope,18.0,1,2.072
1040,33.28,3.9777,4.2431,1.6093,-0.2908,-0.2218,0.8710,slope,18.0,1,1.600
1050,33.60,4.2353,4.5384,1.7001,-0.2698,-0.2503,0.7718,slope,18.0,1,1.243
1060,33.92,4.4582,4.7536,1.7806,-0.2526,-0.2737,0.7044,slope,18.0,2,0.996
1070,34.24,4.6023,4.9035,1.8328,-0.2822,-0.2413,0.8288,slope,18.0,2,12.085
1080,34.56,4.5668,4.9439,1.8179,-0.3575,-0.0959,1.2632,slope,18.0,2,12.059
1090,34.88,4.4639,4.9907,1.7773,-0.3416,0.1482,1.9105,slope,18.0,2,11.970
1100,35.20,4.2888,5.2082,1.7047,-0.2670,0.2609,2.2710,slope,18.0,2,11.854
1110,35.52,3.9836,5.5130,1.5788,-0.2433,0.2944,2.3739,slope,18.0,2,11.643
1120,35.84,3.6469,5.8280,1.4393,-0.2266,0.2969,2.4148,slope,18.0,2,11.418
1130,36.16,3.2964,6.1290,1.2963,-0.2164,0.3067,2.4501,slope,18.0,2,11.189
1140,36.48,2.9342,6.4196,1.1493,-0.2104,0.3106,2.4841,slope,18.0,2,10.960
1150,36.80,2.5740,6.6775,1.0053,-0.1910,0.3147,2.5424,slope,18.0,2,10.735
1160,37.12,2.2193,6.9089,0.8664,-0.1624,0.3293,2.6404,slope,18.0,2,10.516
1170,37.44,1.8194,7.0971,0.7128,-0.1046,0.3466,2.8163,slope,18.0,2,10.250
1180,37.76,1.3578,7.2101,0.5391,-0.0429,0.3511,2.9968,slope,18.0,2,9.905
1190,38.08,0.8611,7.2571,0.3573,-0.0199,0.3493,3.0661,slope,18.0,2,9.505
1200,38.40,0.3551,7.2830,0.1749,-0.0100,0.3441,3.0966,slope,18.0,2,9.097
1210,38.72,-0.1285,7.2888,0.0638,0.0081,0.1632,-3.1122,slope,18.0,2,8.704
1220,39.04,-0.5982,7.2544,0.0475,0.0023,-0.0190,-2.9861,flat,18.0,2,8.308
1230,39.36,-1.0468,7.1534,0.0578,-0.0044,-0.0249,-2.6766,flat,18.0,2,7.893
1240,39.68,-1.4772,6.9080,0.0711,-0.0063,-0.0288,-2.5120,flat,18.0,2,7.405
1250,40.00,-1.8833,6.5762,0.0881,-0.0104,-0.0329,-2.3945,flat,18.0,2,6.881
1260,40.32,-2.2768,6.1922,0.1065,-0.0110,-0.0345,-2.3399,flat,18.0,2,6.333
1270,40.64,-2.6712,5.7799,0.1260,-0.0103,-0.0339,-2.3333,flat,18.0,2,5.767
1280,40.96,-3.0650,5.3746,0.1445,-0.0093,-0.0297,-2.3576,flat,18.0,2,5.206
1290,41.28,-3.4666,4.9871,0.1600,-0.0058,-0.0247,-2.3995,flat,18.0,2,4.652
1300,41.60,-3.8795,4.6184,0.1716,-0.0060,-0.0234,-2.4495,flat,18.0,2,4.100
1310,41.92,-4.3166,4.2678,0.1793,-0.0043,-0.0116,-2.4870,flat,18.0,2,3.540
1320,42.24,-4.7643,3.9307,0.1816,-0.0102,-0.0082,-2.5217,flat,18.0,2,2.980
1330,42.56,-5.2285,3.6031,0.1800,-0.0164,0.0107,-2.5422,flat,18.0,2,2.412
1340,42.88,-5.7012,3.2838,0.1727,-0.0167,0.0186,-2.5530,flat,18.0,2,1.842
1350,43.20,-6.1328,2.9951,0.1626,-0.0210,0.0245,-2.5541,flat,18.0,2,1.324
1360,43.52,-6.5088,2.7443,0.1505,-0.0217,0.0291,-2.5349,flat,18.0,3,10.884
1370,43.84,-6.8423,2.4678,0.1363,-0.0104,0.0386,-2.2264,flat,18.0,3,10.690
1380,44.16,-7.0580,2.1042,0.1197,0.0020,0.0406,-1.9745,flat,18.0,3,10.394
1390,44.48,-7.2019,1.6330,0.1006,0.0120,0.0363,-1.8209,flat,18.0,3,9.984
1400,44.80,-7.2945,1.1203,0.0834,0.0191,0.0290,-1.7246,flat,18.0,3,9.524
1410,45.12,-7.3521,0.5954,0.0704,0.0235,0.0187,-1.6571,flat,18.0,3,9.049
1420,45.44,-7.3854,0.0950,0.0628,0.0275,0.0025,-1.4273,flat,18.0,3,8.593
1430,45.76,-7.2806,-0.3764,0.0620,0.0182,-0.0101,-1.1491,flat,18.0,3,8.116
1440,46.08,-7.0466,-0.8244,0.0727,0.0215,-0.0243,-0.9918,flat,18.0,3,7.613
1450,46.40,-6.7399,-1.2493,0.0843,0.0012,-0.0274,-0.8841,flat,18.0,3,7.106
1460,46.72,-6.3850,-1.6619,0.1046,0.0113,-0.0355,-0.8207,flat,18.0,3,6.598
1470,47.04,-5.9963,-2.0736,0.1233,0.0124,-0.0330,-0.8245,flat,18.0,3,6.086
1480,47.36,-5.6335,-2.4817,0.1418,0.0097,-0.0311,-0.8873,flat,18.0,3,5.595
1490,47.68,-5.3171,-2.9054,0.1567,0.0105,-0.0255,-0.9813,flat,18.0,3,5.110
1500,48.00,-5.0492,-3.3392,0.1660,0.0086,-0.0293,-1.1019,flat,18.0,3,4.633
1510,48.32,-4.8336,-3.8200,0.1704,0.0214,0.0093,-1.2333,flat,18.0,3,4.124
1520,48.64,-4.6806,-4.3239,0.1792,0.0089,-0.0028,-1.3515,flat,18.0,3,3.604
1530,48.96,-4.5727,-4.8560,0.1811,-0.0171,-0.0047,-1.4416,flat,18.0,3,3.063
1540,49.28,-4.5091,-5.4130,0.1845,-0.0199,-0.0037,-1.4828,flat,18.0,3,2.502
1550,49.60,-4.4609,-5.9834,0.1847,-0.0256,-0.0018,-1.4906,flat,18.0,3,1.930
1560,49.92,-4.4131,-6.5093,0.1846,-0.0392,0.0058,-1.4815,flat,18.0,3,1.402
1570,50.24,-4.3709,-6.9393,0.1835,-0.0404,0.0046,-1.4729,rough,14.0,0,0.970
1580,50.56,-4.3384,-7.2775,0.1822,-0.0418,0.0054,-1.4599,rough,14.0,0,15.645
1590,50.88,-4.3099,-7.5603,0.1808,-0.0413,0.0106,-1.3086,rough,14.0,0,15.792
1600,51.20,-4.1882,-7.8124,0.1756,-0.0338,0.0291,-0.8621,flat,18.0,0,15.851
1610,51.52,-3.8836,-8.1213,0.1616,-0.0296,0.0340,-0.7540,flat,18.0,0,15.810
1620,51.84,-3.5807,-8.3929,0.1485,-0.0281,0.0339,-0.6865,flat,18.0,0,15.758
1630,52.16,-3.2999,-8.6057,0.1368,-0.0260,0.0332,-0.6048,flat,18.0,0,15.692
1640,52.48,-3.0407,-8.7782,0.1267,-0.0227,0.0335,-0.4914,flat,18.0,0,15.621
1650,52.80,-2.7954,-8.9094,0.1178,-0.0193,0.0333,-0.3524,flat,18.0,0,15.537
1660,53.12,-2.5609,-8.9993,0.1096,-0.0163,0.0344,-0.1980,flat,18.0,0,15.436
1670,53.44,-2.3357,-9.0505,0.1020,-0.0119,0.0348,-0.0352,flat,18.0,0,15.316
1680,53.76,-2.1177,-9.0636,0.0946,-0.0085,0.0340,0.1120,flat,18.0,0,15.176
1690,54.08,-1.8813,-9.0366,0.0866,-0.0081,0.0334,0.1530,flat,18.0,0,14.996
1700,54.40,-1.6517,-8.9974,0.0791,-0.0057,0.0315,0.2377,flat,18.0,0,14.813
1710,54.72,-1.4244,-8.9421,0.0719,-0.0025,0.0307,0.3446,flat,18.0,0,14.620
1720,55.04,-1.1967,-8.8557,0.0647,0.0003,0.0285,0.4257,transition,15.0,0,14.406
1730,55.36,-0.9924,-8.7551,0.0585,0.0037,0.0276,0.4970,transition,15.0,0,14.196
1740,55.68,-0.7540,-8.6162,0.0518,0.0051,0.0213,0.5438,slope,18.0,0,13.936
1750,56.00,-0.4695,-8.4388,0.0452,0.0074,0.0193,0.5888,slope,18.0,0,13.617
1760,56.32,-0.2026,-8.2461,0.0674,-0.0199,-0.1398,0.6248,slope,18.0,0,13.299
1770,56.64,0.1145,-7.9832,0.1168,-0.1183,-0.1940,0.6601,slope,18.0,0,12.895
1780,56.96,0.4626,-7.6824,0.2175,-0.1998,-0.2734,0.6882,slope,18.0,0,12.442
1790,57.28,0.8592,-7.3462,0.3652,-0.2174,-0.2802,0.7283,slope,18.0,0,11.932
1800,57.60,1.1840,-7.0013,0.4913,-0.2538,-0.2441,0.8932,slope,18.0,0,11.460
1810,57.92,1.4820,-6.6077,0.6139,-0.2763,-0.2282,0.9930,slope,18.0,0,10.967
1820,58.24,1.7545,-6.1481,0.7323,-0.2872,-0.2153,1.0512,slope,18.0,0,10.437
1830,58.56,2.0259,-5.6630,0.8540,-0.2882,-0.2168,1.0615,slope,18.0,0,9.889
1840,58.88,2.2963,-5.1828,0.9756,-0.2831,-0.2225,1.0357,slope,18.0,0,9.345
1850,59.20,2.5750,-4.7148,1.0978,-0.2746,-0.2271,0.9946,slope,18.0,0,8.807
1860,59.52,2.8726,-4.2648,1.2245,-0.2740,-0.2321,0.9500,slope,18.0,0,8.272
1870,59.84,3.1865,-3.8309,1.3510,-0.2690,-0.2396,0.9113,slope,18.0,0,7.738
1880,60.16,3.5228,-3.4030,1.4835,-0.2669,-0.2445,0.8789,slope,18.0,0,7.194
1890,60.48,3.8767,-2.9809,1.6195,-0.2666,-0.2438,0.8600,slope,18.0,0,6.643
1900,60.80,4.2408,-2.5596,1.7572,-0.2673,-0.2425,0.8540,slope,18.0,0,6.087
1910,61.12,4.6072,-2.1383,1.8920,-0.2635,-0.2354,0.8555,slope,18.0,0,5.528
1920,61.44,4.9709,-1.7172,2.0229,-0.2559,-0.2261,0.8609,slope,18.0,0,4.972
1930,61.76,5.3321,-1.2942,2.1485,-0.2452,-0.2246,0.8698,slope,18.0,0,4.416
1940,62.08,5.6907,-0.8644,2.2718,-0.2512,-0.2137,0.8769,slope,18.0,0,3.856
1950,62.40,6.0480,-0.4317,2.3898,-0.2450,-0.2035,0.8834,slope,18.0,0,3.295
1960,62.72,6.4032,0.0027,2.5066,-0.2426,-0.2035,0.8889,slope,18.0,0,2.734
1970,63.04,6.7565,0.4391,2.6228,-0.2415,-0.2048,0.8934,slope,18.0,0,2.174
1980,63.36,7.0986,0.8672,2.7372,-0.2374,-0.2122,0.8810,slope,18.0,0,1.628
1990,63.68,7.3578,1.1785,2.8259,-0.2224,-0.2339,0.8117,rough,14.0,0,1.225
2000,64.00,7.5996,1.4310,2.9141,-0.2026,-0.2822,0.7466,rough,14.0,1,5.302
2010,64.32,7.8363,1.6896,3.0366,-0.2963,-0.4333,0.8141,rough,14.0,1,5.241
2020,64.64,7.9849,1.9383,3.1675,-0.4385,-0.5387,0.9797,rough,14.0,1,5.149
2030,64.96,8.0717,2.1727,3.3014,-0.5650,-0.5725,1.1427,rough,14.0,1,5.039
2040,65.28,8.1218,2.4196,3.4062,-0.7196,-0.4407,1.3018,rough,14.0,1,4.904
2050,65.60,8.1396,2.7159,3.4592,-0.7754,-0.2864,1.3591,rough,14.0,1,4.721
2060,65.92,8.0958,3.0069,3.4305,-0.8721,-0.2015,1.4203,rough,14.0,1,4.505
2070,66.24,7.8981,3.2760,3.1841,-0.8619,-0.1217,1.4486,rough,14.0,1,4.185
2080,66.56,7.6819,3.5579,3.0282,-0.5353,-0.0733,1.4521,rough,14.0,1,3.846
2090,66.88,7.6415,3.9411,2.9941,-0.3927,-0.0676,1.4574,rough,14.0,1,3.606
2100,67.20,7.6667,4.3575,3.0134,-0.3890,-0.0609,1.4795,rough,14.0,1,3.440
2110,67.52,7.6921,4.7704,3.0211,-0.3286,-0.0464,1.5047,rough,14.0,1,3.319
2120,67.84,7.7166,5.1810,3.0262,-0.2515,-0.0253,1.5560,rough,14.0,1,3.246
2130,68.16,7.7200,5.5900,3.0266,-0.2003,-0.0140,1.5888,rough,14.0,1,3.203
2140,68.48,7.7039,5.9931,3.0339,-0.2328,-0.0078,1.5997,rough,14.0,1,3.193
2150,68.80,7.6780,6.4005,3.0426,-0.2990,-0.0045,1.5983,rough,14.0,1,3.224
2160,69.12,7.6555,6.8139,3.0462,-0.3453,0.0013,1.5970,rough,14.0,1,3.311
2170,69.44,7.6407,7.2294,3.0467,-0.3657,0.0004,1.5851,rough,14.0,1,3.454
2180,69.76,7.6201,7.6545,3.0436,-0.3949,0.0151,1.6067,rough,14.0,1,3.639
2190,70.08,7.5878,8.0434,3.0281,-0.3878,0.0472,1.6637,rough,14.0,1,3.831
2200,70.40,7.5271,8.3667,3.0014,-0.3896,0.0887,1.7621,slope,18.0,1,3.987
2210,70.72,7.4250,8.6945,2.9550,-0.3696,0.1425,1.8923,slope,18.0,1,4.137
2220,71.04,7.3008,8.9456,2.9007,-0.3395,0.1984,2.0370,slope,18.0,1,4.237
2230,71.36,7.1710,9.1366,2.8444,-0.3064,0.2412,2.1845,slope,18.0,1,4.302
2240,71.68,7.0307,9.2756,2.7857,-0.2652,0.2815,2.3351,slope,18.0,1,4.329
2250,72.00,6.8949,9.3766,2.7283,-0.2226,0.3040,2.4803,slope,18.0,1,4.336
2260,72.32,6.7820,9.4556,2.6838,-0.1765,0.3379,2.6253,slope,18.0,1,4.343
2270,72.64,6.6788,9.5256,2.6420,-0.1162,0.3623,2.8006,slope,18.0,1,4.351
2280,72.96,6.5850,9.5735,2.6047,-0.0582,0.3759,2.9686,slope,18.0,1,4.347
2290,73.28,6.4748,9.5949,2.5609,-0.0406,0.3781,3.0222,slope,18.0,1,4.315
2300,73.60,6.3504,9.6065,2.5115,-0.0544,0.3748,2.9866,slope,18.0,1,4.270
2310,73.92,6.2314,9.6235,2.4643,-0.0620,0.3731,2.9705,slope,18.0,1,4.236
2320,74.24,6.1180,9.6347,2.4197,-0.0642,0.3737,2.9703,slope,18.0,1,4.202
2330,74.56,6.0061,9.6453,2.3755,-0.0664,0.3728,2.9685,slope,18.0,1,4.171
2340,74.88,5.8967,9.6614,2.3324,-0.0673,0.3702,2.9663,slope,18.0,1,4.148
2350,75.20,5.7913,9.6792,2.2909,-0.0675,0.3699,2.9710,slope,18.0,1,4.132
2360,75.52,5.6859,9.6937,2.2497,-0.0736,0.3702,2.9596,slope,18.0,1,4.114
2370,75.84,5.5819,9.7087,2.2089,-0.0814,0.3691,2.9417,slope,18.0,1,4.100
2380,76.16,5.4835,9.7267,2.1703,-0.0821,0.3664,2.9391,slope,18.0,1,4.094
2390,76.48,5.3922,9.7411,2.1347,-0.0764,0.3659,2.9578,slope,18.0,1,4.087
2400,76.80,5.2992,9.7495,2.0984,-0.0783,0.3658,2.9588,slope,18.0,1,4.077
2410,77.12,5.2061,9.7524,2.0622,-0.0804,0.3672,2.9570,slope,18.0,1,4.063
2420,77.44,5.1129,9.7553,2.0259,-0.0820,0.3675,2.9552,slope,18.0,1,4.051
2430,77.76,5.0199,9.7583,1.9895,-0.0826,0.3654,2.9536,slope,18.0,1,4.041
2440,78.08,4.9278,9.7605,1.9535,-0.0814,0.3639,2.9583,slope,18.0,1,4.033
2450,78.40,4.8349,9.7624,1.9174,-0.0826,0.3633,2.9615,slope,18.0,1,4.027
2460,78.72,4.7408,9.7652,1.8809,-0.0843,0.3643,2.9606,slope,18.0,1,4.023
2470,79.04,4.6463,9.7680,1.8443,-0.0861,0.3651,2.9592,slope,18.0,1,4.022
2480,79.36,4.5520,9.7709,1.8076,-0.0867,0.3635,2.9578,slope,18.0,1,4.023
2490,79.68,4.4577,9.7735,1.7710,-0.0868,0.3617,2.9580,slope,18.0,1,4.026
2500,80.00,4.3654,9.7745,1.7353,-0.0843,0.3613,2.9702,slope,18.0,1,4.030
2510,80.32,4.2702,9.7771,1.6985,-0.0862,0.3617,2.9695,slope,18.0,1,4.037
2520,80.64,4.1744,9.7798,1.6616,-0.0880,0.3626,2.9680,slope,18.0,1,4.047
2530,80.96,4.0787,9.7827,1.6247,-0.0887,0.3616,2.9667,slope,18.0,1,4.059
2540,81.28,3.9829,9.7855,1.5876,-0.0892,0.3598,2.9654,slope,18.0,1,4.073
2550,81.60,3.8895,9.7864,1.5517,-0.0859,0.3593,2.9784,slope,18.0,1,4.087
2560,81.92,3.7930,9.7888,1.5147,-0.0878,0.3591,2.9777,slope,18.0,1,4.106
2570,82.24,3.6960,9.7915,1.4776,-0.0895,0.3596,2.9762,slope,18.0,1,4.127
2580,82.56,3.5989,9.7942,1.4404,-0.0904,0.3591,2.9750,slope,18.0,1,4.150
2590,82.88,3.5017,9.7970,1.4031,-0.0908,0.3574,2.9738,slope,18.0,1,4.175
2600,83.20,3.4064,9.7981,1.3666,-0.0882,0.3569,2.9842,slope,18.0,1,4.201
2610,83.52,3.3086,9.8005,1.3294,-0.0897,0.3562,2.9839,slope,18.0,1,4.230
2620,83.84,3.2103,9.8031,1.2921,-0.0911,0.3563,2.9827,slope,18.0,1,4.262
2630,84.16,3.1117,9.8057,1.2546,-0.0920,0.3558,2.9815,slope,18.0,1,4.295
2640,84.48,3.0130,9.8084,1.2171,-0.0924,0.3544,2.9804,slope,18.0,1,4.331
2650,84.80,2.9157,9.8099,1.1802,-0.0906,0.3538,2.9879,slope,18.0,1,4.367
2660,85.12,2.8164,9.8122,1.1428,-0.0918,0.3530,2.9878,slope,18.0,1,4.407
2670,85.44,2.7167,9.8146,1.1052,-0.0929,0.3530,2.9872,slope,18.0,1,4.449
2680,85.76,2.6167,9.8172,1.0676,-0.0937,0.3523,2.9862,slope,18.0,1,4.493
2690,86.08,2.5164,9.8197,1.0298,-0.0940,0.3511,2.9853,slope,18.0,1,4.538
2700,86.40,2.4174,9.8212,0.9926,-0.0922,0.3507,2.9925,slope,18.0,1,4.584
2710,86.72,2.3166,9.8234,0.9549,-0.0929,0.3498,2.9925,slope,18.0,1,4.633
2720,87.04,2.2155,9.8258,0.9172,-0.0934,0.3493,2.9925,slope,18.0,1,4.684
2730,87.36,2.1140,9.8282,0.8794,-0.0938,0.3483,2.9922,slope,18.0,1,4.737
2740,87.68,2.0122,9.8305,0.8414,-0.0939,0.3476,2.9920,slope,18.0,1,4.792
2750,88.00,1.9169,9.8380,0.8063,-0.0830,0.3497,3.0257,slope,18.0,1,4.848
2760,88.32,1.8176,9.8422,0.7696,-0.0793,0.3499,3.0378,slope,18.0,1,4.906
2770,88.64,1.7153,9.8446,0.7318,-0.0805,0.3489,3.0354,slope,18.0,1,4.965
2780,88.96,1.6129,9.8477,0.6941,-0.0810,0.3479,3.0345,slope,18.0,1,5.026
2790,89.28,1.5152,9.8535,0.6582,-0.0728,0.3491,3.0592,slope,18.0,1,5.088
2800,89.60,1.4163,9.8581,0.6220,-0.0670,0.3499,3.0774,slope,18.0,1,5.151
2810,89.92,1.3166,9.8619,0.5855,-0.0626,0.3502,3.0907,slope,18.0,1,5.214
