step,time_s,x,y,z,roll,pitch,yaw,terrain,speed,target_idx,dist_to_target
10,0.32,0.0822,-0.0578,0.2075,0.0000,-0.0792,-0.0002,rough,14.0,0,5.334
20,0.64,0.4594,-0.0603,0.2444,0.0124,-0.1148,-0.1197,rough,14.0,0,5.045
30,0.96,0.8292,-0.1172,0.3013,0.0207,-0.2094,-0.1998,rough,14.0,0,4.735
40,1.28,1.2000,-0.2086,0.3911,0.0454,-0.2748,-0.2858,rough,14.0,0,4.409
50,1.60,1.5525,-0.3291,0.5048,0.0771,-0.3254,-0.3570,rough,14.0,0,4.082
60,1.92,1.8806,-0.4736,0.6391,0.1100,-0.3982,-0.4203,rough,14.0,0,3.761
70,2.24,2.2042,-0.6398,0.7924,0.1496,-0.4212,-0.4949,rough,14.0,0,3.432
80,2.56,2.5252,-0.8275,0.9547,0.1944,-0.4137,-0.5781,rough,14.0,0,3.094
90,2.88,2.8302,-1.0464,1.1152,0.2111,-0.4066,-0.6490,rough,14.0,0,2.746
100,3.20,3.1277,-1.2922,1.2648,0.2286,-0.3678,-0.7142,rough,14.0,0,2.386
110,3.52,3.4040,-1.5642,1.4033,0.2534,-0.3330,-0.7752,rough,14.0,0,2.021
120,3.84,3.6763,-1.8539,1.5276,0.2688,-0.2857,-0.8370,rough,14.0,0,1.650
130,4.16,3.9364,-2.1636,1.6378,0.2848,-0.2492,-0.9120,rough,14.0,0,1.278
140,4.48,4.1710,-2.4962,1.7302,0.3021,-0.1975,-0.9998,rough,14.0,0,0.913
150,4.80,4.3363,-2.8201,1.7906,0.3219,-0.1412,-1.1551,rough,14.0,1,7.490
160,5.12,4.4255,-3.1399,1.8205,0.3419,-0.0698,-1.3488,rough,14.0,1,7.319
170,5.44,4.4467,-3.5008,1.8185,0.3493,-0.0238,-1.5407,rough,14.0,1,7.082
180,5.76,4.4008,-3.8970,1.7986,0.3436,0.0710,-1.7075,rough,14.0,1,6.782
190,6.08,4.2942,-4.2960,1.7506,0.3352,0.1306,-1.8532,rough,14.0,1,6.444
200,6.40,4.1565,-4.7017,1.6875,0.3238,0.1511,-1.9377,rough,14.0,1,6.086
210,6.72,3.9805,-5.0902,1.6113,0.3113,0.1890,-2.0186,rough,14.0,1,5.715
220,7.04,3.7909,-5.4748,1.5271,0.3024,0.2101,-2.0738,rough,14.0,1,5.344
230,7.36,3.5800,-5.8438,1.4347,0.2911,0.2279,-2.1346,rough,14.0,1,4.972
240,7.68,3.3453,-6.1913,1.3336,0.2794,0.2480,-2.1969,rough,14.0,1,4.597
250,8.00,3.0933,-6.5278,1.2263,0.2642,0.2610,-2.2574,rough,14.0,1,4.220
260,8.32,2.8207,-6.8462,1.1126,0.2505,0.2743,-2.3179,rough,14.0,1,3.841
270,8.64,2.5258,-7.1442,0.9921,0.2354,0.2842,-2.3766,rough,14.0,1,3.456
280,8.96,2.2206,-7.4305,0.8700,0.2205,0.2938,-2.4383,rough,14.0,1,3.074
290,9.28,1.8977,-7.6887,0.7440,0.2053,0.2996,-2.4947,rough,14.0,1,2.693
300,9.60,1.5630,-7.9349,0.6164,0.1897,0.3095,-2.5635,rough,14.0,1,2.313
310,9.92,1.2103,-8.1530,0.4844,0.1676,0.3128,-2.6284,rough,14.0,1,1.932
320,10.24,0.8458,-8.3430,0.3510,0.1489,0.3195,-2.7104,rough,14.0,1,1.558
330,10.56,0.4713,-8.5043,0.2169,0.1219,0.3248,-2.7962,rough,14.0,1,1.193
340,10.88,0.1852,-8.5135,0.1307,0.1607,0.1954,-2.6682,rough,14.0,1,0.911
350,11.20,-0.1349,-8.6428,0.0685,0.0422,0.1397,-2.8697,rough,14.0,2,5.660
360,11.52,-0.4498,-8.7106,0.0453,0.0084,-0.0286,-2.9709,rough,14.0,2,5.550
370,11.84,-0.7863,-8.7454,0.0535,0.0108,-0.0216,3.0805,rough,14.0,2,5.417
380,12.16,-1.1461,-8.7171,0.0617,0.0152,-0.0213,2.8624,rough,14.0,2,5.235
390,12.48,-1.5175,-8.5979,0.0711,0.0184,-0.0246,2.7233,rough,14.0,2,4.983
400,12.80,-1.8674,-8.4280,0.0815,0.0203,-0.0262,2.5720,rough,14.0,2,4.708
410,13.12,-2.1971,-8.1979,0.0926,0.0223,-0.0284,2.4465,rough,14.0,2,4.396
420,13.44,-2.5033,-7.9190,0.1048,0.0237,-0.0281,2.3406,rough,14.0,2,4.057
430,13.76,-2.7778,-7.6083,0.1169,0.0257,-0.0304,2.2447,rough,14.0,2,3.706
440,14.08,-3.0245,-7.2694,0.1291,0.0259,-0.0275,2.1614,rough,14.0,2,3.342
450,14.40,-3.2432,-6.9128,0.1406,0.0263,-0.0266,2.0803,rough,14.0,2,2.976
460,14.72,-3.4345,-6.5371,0.1481,0.0402,-0.0228,2.0022,rough,14.0,2,2.605
470,15.04,-3.6001,-6.1492,0.1592,0.0228,-0.0213,1.9357,rough,14.0,2,2.235
480,15.36,-3.7365,-5.7473,0.1672,0.0198,-0.0161,1.8735,rough,14.0,2,1.867
490,15.68,-3.8435,-5.3430,0.1719,0.0097,-0.0114,1.7838,rough,14.0,2,1.514
500,16.00,-3.9158,-4.9265,0.1763,0.0093,-0.0012,1.6595,rough,14.0,2,1.175
510,16.32,-3.9350,-4.5196,0.1790,0.0024,-0.0028,1.4366,rough,14.0,2,0.876
520,16.64,-3.8693,-4.1027,0.1820,-0.0019,-0.0081,1.3538,rough,14.0,3,10.553
530,16.96,-3.7737,-3.6683,0.1861,-0.0089,-0.0140,1.3458,rough,14.0,3,10.109
540,17.28,-3.6747,-3.2328,0.1914,-0.0162,-0.0107,1.3383,rough,14.0,3,9.663
550,17.60,-3.5723,-2.7992,0.1975,-0.0213,-0.0138,1.3319,rough,14.0,3,9.218
560,17.92,-3.4668,-2.3657,0.2036,-0.0226,-0.0150,1.3267,rough,14.0,3,8.773
570,18.24,-3.3590,-1.9325,0.2102,-0.0257,-0.0133,1.3216,rough,14.0,3,8.327
580,18.56,-3.2482,-1.4993,0.2158,-0.0257,-0.0117,1.3183,rough,14.0,3,7.880
590,18.88,-3.1355,-1.0664,0.2205,-0.0235,-0.0080,1.3150,rough,14.0,3,7.433
600,19.20,-3.0219,-0.6340,0.2236,-0.0227,-0.0054,1.3101,rough,14.0,3,6.986
610,19.52,-2.9057,-0.2021,0.2255,-0.0200,-0.0012,1.3076,rough,14.0,3,6.539
620,19.84,-2.7883,0.2279,0.2261,-0.0158,-0.0013,1.3051,rough,14.0,3,6.094
630,20.16,-2.6697,0.6597,0.2262,-0.0120,0.0006,1.3026,rough,14.0,3,5.647
640,20.48,-2.5509,1.0906,0.2253,-0.0123,0.0029,1.2970,rough,14.0,3,5.200
650,20.80,-2.4296,1.5212,0.2231,-0.0138,0.0068,1.2926,rough,14.0,3,4.753
660,21.12,-2.3063,1.9514,0.2191,-0.0144,0.0122,1.2880,rough,14.0,3,4.306
670,21.44,-2.1808,2.3810,0.2127,-0.0136,0.0184,1.2839,rough,14.0,3,3.858
680,21.76,-2.0534,2.8114,0.2025,-0.0120,0.0233,1.2793,rough,14.0,3,3.410
690,22.08,-1.9289,3.2424,0.1856,-0.0419,0.0347,1.2759,rough,14.0,3,2.962
700,22.40,-1.7932,3.6678,0.1754,-0.0110,0.0363,1.2724,rough,14.0,3,2.516
710,22.72,-1.6603,4.0955,0.1584,-0.0060,0.0410,1.2693,rough,14.0,3,2.068
720,23.04,-1.5264,4.5217,0.1399,-0.0017,0.0434,1.2654,rough,14.0,3,1.622
730,23.36,-1.3913,4.9471,0.1209,0.0016,0.0425,1.2604,rough,14.0,3,1.176
740,23.68,-1.2593,5.3669,0.1030,0.0050,0.0409,1.2248,rough,14.0,0,10.352
750,24.00,-1.1500,5.6554,0.0908,-0.0031,0.0380,0.9784,rough,14.0,0,10.541
760,24.32,-0.9844,5.9039,0.0798,-0.0100,0.0349,0.7009,rough,14.0,0,10.673
770,24.64,-0.7639,6.0518,0.0713,-0.0180,0.0293,0.4606,rough,14.0,0,10.698
780,24.96,-0.4808,6.1544,0.0636,-0.0232,0.0232,0.2861,rough,14.0,0,10.660
790,25.28,-0.2345,6.2343,0.0750,-0.0224,-0.1096,0.0880,rough,14.0,0,10.626
800,25.60,0.0496,6.2631,0.1113,-0.0129,-0.1731,-0.0846,rough,14.0,0,10.536
810,25.92,0.3147,6.2271,0.1821,0.0082,-0.3485,-0.1802,rough,14.0,0,10.401
820,26.24,0.5984,6.1532,0.2812,0.0591,-0.3453,-0.2600,rough,14.0,0,10.228
830,26.56,0.8886,6.0504,0.3899,0.0910,-0.3399,-0.3524,rough,14.0,0,10.031
840,26.88,1.2060,5.9142,0.5103,0.1382,-0.3268,-0.4980,rough,14.0,0,9.800
850,27.20,1.5145,5.7251,0.6292,0.1736,-0.3089,-0.6175,rough,14.0,0,9.528
860,27.52,1.7987,5.4856,0.7443,0.2056,-0.2962,-0.7201,rough,14.0,0,9.220
870,27.84,2.0786,5.2188,0.8584,0.2338,-0.2759,-0.8175,rough,14.0,0,8.891
880,28.16,2.1948,4.9450,0.9118,0.2334,-0.2766,-0.8157,rough,14.0,0,8.597
890,28.48,2.3903,4.6371,0.9956,0.2579,-0.2552,-0.8982,rough,14.0,0,8.252
900,28.80,2.6261,4.3044,1.0950,0.2780,-0.2344,-0.9735,rough,14.0,0,7.877
910,29.12,2.8408,3.9490,1.1845,0.2986,-0.2106,-1.0374,rough,14.0,0,7.486
920,29.44,3.0382,3.5743,1.2637,0.3248,-0.1923,-1.0930,rough,14.0,0,7.083
930,29.76,3.2218,3.1884,1.3400,0.3322,-0.1614,-1.1368,rough,14.0,0,6.672
940,30.08,3.3904,2.7978,1.4031,0.3401,-0.1424,-1.1693,rough,14.0,0,6.261
950,30.40,3.5398,2.3961,1.4605,0.3645,-0.1399,-1.2139,rough,14.0,0,5.844
960,30.72,3.6791,1.9867,1.5090,0.3614,-0.1203,-1.2492,rough,14.0,0,5.422
970,31.04,3.7975,1.5689,1.5549,0.3882,-0.1088,-1.2880,rough,14.0,0,4.995
980,31.36,3.9040,1.1448,1.5932,0.3860,-0.0869,-1.3254,rough,14.0,0,4.563
990,31.68,3.9973,0.7182,1.6288,0.4003,-0.0906,-1.3562,rough,14.0,0,4.132
1000,32.00,4.0802,0.2876,1.6643,0.4059,-0.0821,-1.3873,rough,14.0,0,3.697
1010,32.32,4.1507,-0.1475,1.6960,0.4017,-0.0719,-1.4206,rough,14.0,0,3.260
1020,32.64,4.2077,-0.5856,1.7229,0.3919,-0.0559,-1.4510,rough,14.0,0,2.821
1030,32.96,4.2511,-1.0254,1.7466,0.3825,-0.0454,-1.4796,rough,14.0,0,2.381
1040,33.28,4.2863,-1.4666,1.7663,0.3714,-0.0452,-1.4999,rough,14.0,0,1.941
1050,33.60,4.3118,-1.9102,1.7811,0.3639,-0.0298,-1.5214,rough,14.0,0,1.498
1060,33.92,4.3264,-2.3554,1.7869,0.3585,-0.0005,-1.5447,rough,14.0,0,1.055
1070,34.24,4.3188,-2.7838,1.7839,0.3510,0.0182,-1.6162,rough,14.0,1,7.505
1080,34.56,4.2552,-3.1947,1.7531,0.3157,0.0775,-1.7565,rough,14.0,1,7.161
1090,34.88,4.1349,-3.6037,1.7072,0.3306,0.1229,-1.8661,rough,14.0,1,6.786
1100,35.20,3.9862,-4.0093,1.6429,0.3271,0.1555,-1.9359,rough,14.0,1,6.399
1110,35.52,3.8195,-4.4067,1.5716,0.3103,0.1807,-1.9960,rough,14.0,1,6.009
1120,35.84,3.6298,-4.7913,1.4887,0.3007,0.1976,-2.0505,rough,14.0,1,5.616
1130,36.16,3.4210,-5.1658,1.3975,0.2912,0.2180,-2.1006,rough,14.0,1,5.219
1140,36.48,3.1950,-5.5279,1.2988,0.2813,0.2343,-2.1482,rough,14.0,1,4.821
1150,36.80,2.9579,-5.8819,1.1956,0.2724,0.2460,-2.1916,rough,14.0,1,4.424
1160,37.12,2.7049,-6.2182,1.0873,0.2619,0.2572,-2.2371,rough,14.0,1,4.029
1170,37.44,2.4390,-6.5476,0.9751,0.2524,0.2658,-2.2805,rough,14.0,1,3.632
1180,37.76,2.1580,-6.8633,0.8591,0.2425,0.2740,-2.3258,rough,14.0,1,3.233
1190,38.08,1.8641,-7.1642,0.7405,0.2310,0.2792,-2.3724,rough,14.0,1,2.837
1200,38.40,1.5586,-7.4527,0.6205,0.2204,0.2859,-2.4230,rough,14.0,1,2.442
1210,38.72,1.2369,-7.7206,0.4971,0.2061,0.2887,-2.4743,rough,14.0,1,2.049
1220,39.04,0.9048,-7.9735,0.3736,0.1959,0.3006,-2.5374,rough,14.0,1,1.661
1230,39.36,0.5576,-8.1999,0.2464,0.1721,0.2970,-2.6087,rough,14.0,1,1.279
1240,39.68,0.2048,-8.4045,0.1390,0.0811,0.2697,-2.6990,rough,14.0,1,0.918
1250,40.00,-0.1124,-8.5186,0.0709,0.0372,0.1530,-2.8687,rough,14.0,2,5.570
1260,40.32,-0.4225,-8.5907,0.0459,0.0081,-0.0111,-2.9924,rough,14.0,2,5.461
1270,40.64,-0.7781,-8.6271,0.0523,0.0090,-0.0217,3.1051,rough,14.0,2,5.316
1280,40.96,-1.1371,-8.6062,0.0606,0.0135,-0.0229,2.8843,rough,14.0,2,5.138
1290,41.28,-1.5138,-8.4915,0.0690,0.0252,-0.0250,2.7490,rough,14.0,2,4.885
1300,41.60,-1.8678,-8.3289,0.0812,0.0184,-0.0267,2.5963,rough,14.0,2,4.614
1310,41.92,-2.2028,-8.1068,0.0929,0.0205,-0.0299,2.4731,rough,14.0,2,4.307
1320,42.24,-2.5147,-7.8391,0.1056,0.0214,-0.0286,2.3624,rough,14.0,2,3.977
1330,42.56,-2.7945,-7.5343,0.1181,0.0251,-0.0307,2.2572,rough,14.0,2,3.630
1340,42.88,-3.0461,-7.1981,0.1304,0.0250,-0.0282,2.1725,rough,14.0,2,3.269
1350,43.20,-3.2670,-6.8427,0.1358,0.0466,-0.0067,2.0927,rough,14.0,2,2.906
1360,43.52,-3.4614,-6.4704,0.1521,0.0261,-0.0197,2.0049,rough,14.0,2,2.540
1370,43.84,-3.6256,-6.0802,0.1610,0.0238,-0.0191,1.9413,rough,14.0,2,2.171
1380,44.16,-3.7622,-5.6894,0.1679,0.0191,-0.0160,1.8704,rough,14.0,2,1.817
1390,44.48,-3.8687,-5.3025,0.1734,0.0136,-0.0084,1.7992,rough,14.0,2,1.486
1400,44.80,-3.9488,-4.8996,0.1771,0.0035,0.0024,1.7350,rough,14.0,2,1.171
1410,45.12,-3.9977,-4.4747,0.1797,-0.0004,0.0003,1.6610,rough,14.0,2,0.896
1420,45.44,-4.0209,-4.0423,0.1819,-0.0008,-0.0080,1.6081,rough,14.0,3,10.538
1430,45.76,-4.0308,-3.6049,0.1837,-0.0123,-0.0035,1.5477,rough,14.0,3,10.123
1440,46.08,-4.0186,-3.1673,0.1849,-0.0210,-0.0064,1.4959,rough,14.0,3,9.703
1450,46.40,-3.9837,-2.7297,0.1880,-0.0236,-0.0086,1.4540,rough,14.0,3,9.278
1460,46.72,-3.9315,-2.2928,0.1913,-0.0296,-0.0079,1.4197,rough,14.0,3,8.848
1470,47.04,-3.8639,-1.8571,0.1951,-0.0323,-0.0078,1.3912,rough,14.0,3,8.415
1480,47.36,-3.7835,-1.4227,0.1990,-0.0338,-0.0096,1.3651,rough,14.0,3,7.980
1490,47.68,-3.6908,-0.9878,0.2032,-0.0337,-0.0097,1.3504,rough,14.0,3,7.541
1500,48.00,-3.5922,-0.5547,0.2071,-0.0333,-0.0080,1.3316,rough,14.0,3,7.102
1510,48.32,-3.4857,-0.1249,0.2104,-0.0328,-0.0068,1.3113,rough,14.0,3,6.664
1520,48.64,-3.3699,0.3030,0.2128,-0.0297,-0.0040,1.3032,rough,14.0,3,6.224
1530,48.96,-3.2506,0.7288,0.2143,-0.0262,-0.0031,1.2949,rough,14.0,3,5.786
1540,49.28,-3.1279,1.1581,0.2148,-0.0230,0.0002,1.2846,rough,14.0,3,5.343
1550,49.60,-3.0003,1.5844,0.2138,-0.0223,0.0036,1.2698,rough,14.0,3,4.902
1560,49.92,-2.8679,2.0016,0.2069,-0.0198,-0.0167,1.2539,rough,14.0,3,4.468
1570,50.24,-2.7257,2.4283,0.2056,-0.0177,0.0132,1.2410,rough,14.0,3,4.022
1580,50.56,-2.5801,2.8493,0.1983,-0.0153,0.0200,1.2276,rough,14.0,3,3.580
1590,50.88,-2.4287,3.2683,0.1881,-0.0142,0.0264,1.2154,rough,14.0,3,3.138
1600,51.20,-2.2733,3.6865,0.1695,-0.0301,0.0500,1.2008,rough,14.0,3,2.697
1610,51.52,-2.1077,4.0960,0.1611,-0.0076,0.0364,1.1867,rough,14.0,3,2.259
1620,51.84,-1.9388,4.5054,0.1450,-0.0030,0.0386,1.1703,rough,14.0,3,1.822
1630,52.16,-1.7642,4.9129,0.1279,-0.0008,0.0388,1.1507,rough,14.0,3,1.386
1640,52.48,-1.5821,5.3154,0.1106,0.0024,0.0374,1.1227,rough,14.0,3,0.957
1650,52.80,-1.4286,5.6359,0.0971,-0.0016,0.0379,0.9470,rough,14.0,0,10.669
1660,53.12,-1.2568,5.8651,0.0867,-0.0094,0.0349,0.6694,rough,14.0,0,10.776
1670,53.44,-1.0384,6.0097,0.0779,-0.0172,0.0305,0.4202,rough,14.0,0,10.792
1680,53.76,-0.7355,6.1049,0.0693,-0.0226,0.0252,0.2754,rough,14.0,0,10.732
1690,54.08,-0.4014,6.1756,0.0661,-0.0373,0.0056,0.1552,rough,14.0,0,10.645
1700,54.40,-0.1213,6.2299,0.0833,-0.0293,-0.1832,-0.0618,rough,14.0,0,10.575
1710,54.72,0.1864,6.2002,0.1503,0.0038,-0.2698,-0.2048,rough,14.0,0,10.425
1720,55.04,0.4615,6.1144,0.2335,0.0639,-0.3455,-0.2835,rough,14.0,0,10.241
1730,55.36,0.7596,6.0009,0.3445,0.0968,-0.3345,-0.3757,rough,14.0,0,10.029
1740,55.68,1.0841,5.8626,0.4675,0.1450,-0.3218,-0.5248,rough,14.0,0,9.790
1750,56.00,1.3989,5.6667,0.5896,0.1837,-0.3053,-0.6520,rough,14.0,0,9.506
1760,56.32,1.6856,5.4118,0.7020,0.2106,-0.2727,-0.7463,rough,14.0,0,9.179
1770,56.64,1.9632,5.1283,0.8184,0.2398,-0.2714,-0.8385,rough,14.0,0,8.832
1780,56.96,2.2144,4.8166,0.9238,0.2592,-0.2524,-0.9151,rough,14.0,0,8.468
1790,57.28,2.4464,4.4780,1.0217,0.2804,-0.2305,-0.9841,rough,14.0,0,8.085
1800,57.60,2.6588,4.1206,1.1115,0.2977,-0.2086,-1.0422,rough,14.0,0,7.690
1810,57.92,2.8561,3.7474,1.1944,0.3105,-0.1890,-1.0930,rough,14.0,0,7.286
1820,58.24,3.0403,3.3631,1.2684,0.3314,-0.1750,-1.1357,rough,14.0,0,6.874
1830,58.56,3.2082,2.9659,1.3340,0.3477,-0.1530,-1.1742,rough,14.0,0,6.455
1840,58.88,3.3612,2.5610,1.3902,0.3654,-0.1370,-1.2112,rough,14.0,0,6.031
1850,59.20,3.4977,2.1459,1.4344,0.4096,-0.1176,-1.2432,rough,14.0,0,5.601
1860,59.52,3.6248,1.7283,1.4847,0.3981,-0.0952,-1.2731,rough,14.0,0,5.171
1870,59.84,3.7399,1.3085,1.5250,0.4000,-0.0984,-1.3124,rough,14.0,0,4.741
1880,60.16,3.8414,0.8824,1.5592,0.3760,-0.0854,-1.3478,rough,14.0,0,4.307
1890,60.48,3.9238,0.4503,1.5962,0.4038,-0.0779,-1.3735,rough,14.0,0,3.869
1900,60.80,3.9991,0.0187,1.6282,0.3990,-0.0809,-1.3985,rough,14.0,0,3.433
1910,61.12,4.0662,-0.4163,1.6628,0.4036,-0.0807,-1.4224,rough,14.0,0,2.995
1920,61.44,4.1252,-0.8539,1.6946,0.4000,-0.0786,-1.4476,rough,14.0,0,2.555
1930,61.76,4.1728,-1.2940,1.7200,0.3837,-0.0633,-1.4668,rough,14.0,0,2.113
1940,62.08,4.2156,-1.7371,1.7431,0.3719,-0.0495,-1.4846,rough,14.0,0,1.670
1950,62.40,4.2484,-2.1795,1.7565,0.3621,-0.0437,-1.5043,rough,14.0,0,1.227
1960,62.72,4.2743,-2.6253,1.7688,0.3529,-0.0169,-1.5198,rough,14.0,1,7.594
1970,63.04,4.2464,-3.0321,1.7554,0.3465,0.0431,-1.6671,rough,14.0,1,7.273
1980,63.36,4.1601,-3.4435,1.7194,0.3399,0.0980,-1.7952,rough,14.0,1,6.917
1990,63.68,4.0318,-3.8516,1.6642,0.3262,0.1370,-1.8933,rough,14.0,1,6.540
2000,64.00,3.8771,-4.2516,1.5966,0.3163,0.1580,-1.9616,rough,14.0,1,6.155
2010,64.32,3.6984,-4.6456,1.5189,0.3085,0.1900,-2.0150,rough,14.0,1,5.762
2020,64.64,3.5041,-5.0280,1.4338,0.2983,0.2076,-2.0665,rough,14.0,1,5.369
2030,64.96,3.2916,-5.3986,1.3402,0.2878,0.2255,-2.1189,rough,14.0,1,4.976
2040,65.28,3.0659,-5.7626,1.2411,0.2795,0.2374,-2.1606,rough,14.0,1,4.581
2050,65.60,2.8217,-6.1051,1.1358,0.2680,0.2510,-2.2116,rough,14.0,1,4.188
2060,65.92,2.5640,-6.4418,1.0262,0.2586,0.2608,-2.2564,rough,14.0,1,3.793
2070,66.24,2.2912,-6.7609,0.9125,0.2478,0.2693,-2.3037,rough,14.0,1,3.399
2080,66.56,2.0053,-7.0689,0.7959,0.2365,0.2759,-2.3511,rough,14.0,1,3.005
2090,66.88,1.7053,-7.3638,0.6767,0.2251,0.2824,-2.4021,rough,14.0,1,2.612
2100,67.20,1.3909,-7.6393,0.5550,0.2116,0.2876,-2.4552,rough,14.0,1,2.221
2110,67.52,1.0652,-7.8966,0.4326,0.1978,0.2949,-2.5166,rough,14.0,1,1.835
2120,67.84,0.7230,-8.1322,0.3066,0.1783,0.3006,-2.5826,rough,14.0,1,1.452
2130,68.16,0.3755,-8.3407,0.1821,0.1339,0.2795,-2.6734,rough,14.0,1,1.087
2140,68.48,0.0153,-8.5003,0.0901,0.0396,0.1890,-2.7958,rough,14.0,2,5.629
2150,68.80,-0.2984,-8.5788,0.0561,0.0128,0.0718,-2.9256,rough,14.0,2,5.517
2160,69.12,-0.6347,-8.6302,0.0489,0.0069,-0.0211,-3.0641,rough,14.0,2,5.388
2170,69.44,-0.9857,-8.6501,0.0571,0.0114,-0.0225,2.9762,rough,14.0,2,5.242
2180,69.76,-1.3662,-8.5734,0.0665,0.0142,-0.0261,2.8477,rough,14.0,2,5.016
2190,70.08,-1.7256,-8.4489,0.0770,0.0179,-0.0266,2.6703,rough,14.0,2,4.772
2200,70.40,-2.0686,-8.2588,0.0881,0.0189,-0.0268,2.5247,rough,14.0,2,4.488
2210,70.72,-2.3905,-8.0077,0.1001,0.0225,-0.0300,2.4131,rough,14.0,2,4.167
2220,71.04,-2.6848,-7.7280,0.1119,0.0237,-0.0303,2.3081,rough,14.0,2,3.837
2230,71.36,-2.9486,-7.4097,0.1215,0.0246,-0.0284,2.2133,rough,14.0,2,3.488
2240,71.68,-3.1836,-7.0705,0.1365,0.0269,-0.0274,2.1184,rough,14.0,2,3.135
2250,72.00,-3.3870,-6.6999,0.1475,0.0292,-0.0261,2.0435,rough,14.0,2,2.765
2260,72.32,-3.5661,-6.3172,0.1573,0.0242,-0.0199,1.9738,rough,14.0,2,2.397
2270,72.64,-3.7138,-5.9256,0.1643,0.0235,-0.0144,1.8908,rough,14.0,2,2.035
2280,72.96,-3.8338,-5.5336,0.1706,0.0175,-0.0103,1.8330,rough,14.0,2,1.689
2290,73.28,-3.9276,-5.1428,0.1748,0.0136,-0.0096,1.7724,rough,14.0,2,1.368
2300,73.60,-3.9986,-4.7564,0.1770,0.0118,-0.0042,1.6332,rough,14.0,2,1.089
2310,73.92,-4.0177,-4.3661,0.1783,-0.0041,-0.0076,1.3353,rough,14.0,2,0.852
2320,74.24,-3.9134,-3.9556,0.1827,-0.0042,-0.0058,1.2866,rough,14.0,3,10.424
2330,74.56,-3.7892,-3.5260,0.1872,-0.0116,-0.0095,1.2863,rough,14.0,3,9.977
2340,74.88,-3.6652,-3.0975,0.1908,-0.0229,-0.0212,1.2857,rough,14.0,3,9.531
2350,75.20,-3.5386,-2.6670,0.1992,-0.0214,-0.0163,1.2854,rough,14.0,3,9.082
2360,75.52,-3.4129,-2.2371,0.2063,-0.0239,-0.0160,1.2851,rough,14.0,3,8.634
2370,75.84,-3.2867,-1.8070,0.2130,-0.0248,-0.0139,1.2848,rough,14.0,3,8.186
2380,76.16,-3.1600,-1.3770,0.2188,-0.0238,-0.0119,1.2845,rough,14.0,3,7.738
2390,76.48,-3.0331,-0.9467,0.2232,-0.0229,-0.0082,1.2842,rough,14.0,3,7.289
2400,76.80,-2.9055,-0.5162,0.2261,-0.0197,-0.0022,1.2839,rough,14.0,3,6.840
2410,77.12,-2.7781,-0.0868,0.2272,-0.0158,-0.0026,1.2838,rough,14.0,3,6.392
2420,77.44,-2.6501,0.3429,0.2277,-0.0102,-0.0000,1.2836,rough,14.0,3,5.944
2430,77.76,-2.5231,0.7728,0.2274,-0.0101,0.0019,1.2835,rough,14.0,3,5.495
2440,78.08,-2.3962,1.2029,0.2260,-0.0114,0.0042,1.2833,rough,14.0,3,5.047
2450,78.40,-2.2690,1.6329,0.2234,-0.0114,0.0071,1.2831,rough,14.0,3,4.599
2460,78.72,-2.1418,2.0633,0.2189,-0.0122,0.0120,1.2828,rough,14.0,3,4.150
2470,79.04,-2.0143,2.4942,0.2108,-0.0087,0.0218,1.2830,rough,14.0,3,3.700
2480,79.36,-1.8876,2.9252,0.2009,-0.0131,0.0295,1.2826,rough,14.0,3,3.251
2490,79.68,-1.7593,3.3565,0.1851,-0.0111,0.0427,1.2823,rough,14.0,3,2.801
2500,80.00,-1.6317,3.7848,0.1706,-0.0091,0.0382,1.2820,rough,14.0,3,2.354
2510,80.32,-1.5028,4.2141,0.1505,0.0013,0.0376,1.2814,rough,14.0,3,1.906
2520,80.64,-1.3749,4.6442,0.1330,0.0003,0.0438,1.2813,rough,14.0,3,1.457
2530,80.96,-1.2467,5.0729,0.1137,0.0029,0.0428,1.2813,rough,14.0,3,1.010
2540,81.28,-1.1410,5.4541,0.0977,0.0020,0.0403,1.1650,rough,14.0,0,10.364
2550,81.60,-1.0158,5.7408,0.0856,-0.0054,0.0378,0.9052,rough,14.0,0,10.547
2560,81.92,-0.8373,5.9673,0.0751,-0.0135,0.0323,0.6201,rough,14.0,0,10.658
2570,82.24,-0.5956,6.0926,0.0672,-0.0201,0.0269,0.4188,rough,14.0,0,10.657
2580,82.56,-0.3285,6.1948,0.0718,-0.0619,-0.0083,0.2546,rough,14.0,0,10.631
2590,82.88,-0.0814,6.2547,0.0902,-0.0343,-0.1639,0.0539,rough,14.0,0,10.581
2600,83.20,0.1969,6.2706,0.1500,-0.0058,-0.2600,-0.1058,rough,14.0,0,10.486
2610,83.52,0.4512,6.2276,0.2242,0.0372,-0.3528,-0.1727,rough,14.0,0,10.350
2620,83.84,0.7384,6.1585,0.3320,0.0634,-0.3440,-0.2701,rough,14.0,0,10.184
2630,84.16,1.0307,6.0522,0.4416,0.0948,-0.3381,-0.3637,rough,14.0,0,9.987
2640,84.48,1.3284,5.9111,0.5554,0.1310,-0.3316,-0.4728,rough,14.0,0,9.760
2650,84.80,1.6436,5.7401,0.6776,0.1733,-0.3129,-0.6105,rough,14.0,0,9.507
2660,85.12,1.9266,5.5052,0.7912,0.2064,-0.2974,-0.7150,rough,14.0,0,9.206
2670,85.44,2.2046,5.2403,0.9048,0.2336,-0.2776,-0.8143,rough,14.0,0,8.882
2680,85.76,2.2482,5.0778,0.9272,0.1534,-0.3294,-0.5482,rough,14.0,0,8.714
2690,86.08,2.2051,4.9069,0.9172,0.1632,-0.3234,-0.5793,rough,14.0,0,8.558
2700,86.40,2.4189,4.6911,1.0044,0.1958,-0.3055,-0.6705,rough,14.0,0,8.299
2710,86.72,2.6907,4.4354,1.1153,0.2274,-0.2850,-0.7769,rough,14.0,0,7.992
2720,87.04,2.9419,4.1417,1.2181,0.2605,-0.2563,-0.8753,rough,14.0,0,7.658
2730,87.36,3.1777,3.8180,1.3158,0.2837,-0.2326,-0.9657,rough,14.0,0,7.301
2740,87.68,3.3888,3.4706,1.4005,0.2993,-0.2057,-1.0418,rough,14.0,0,6.929
2750,88.00,3.5768,3.0993,1.4756,0.3409,-0.1862,-1.1084,rough,14.0,0,6.539
2760,88.32,3.7561,2.7196,1.5489,0.3388,-0.1551,-1.1569,rough,14.0,0,6.145
2770,88.64,3.9080,2.3213,1.6086,0.3567,-0.1290,-1.2149,rough,14.0,0,5.737
2780,88.96,4.0383,1.9133,1.6571,0.3671,-0.1205,-1.2636,rough,14.0,0,5.323
2790,89.28,4.1524,1.4955,1.7004,0.3769,-0.0975,-1.3138,rough,14.0,0,4.903
2800,89.60,4.2442,1.0734,1.7298,0.3798,-0.1026,-1.3719,rough,14.0,0,4.480
2810,89.92,4.3173,0.6387,1.7630,0.3798,-0.0662,-1.4131,rough,14.0,0,4.046
2820,90.24,4.3726,0.2022,1.7863,0.3777,-0.0512,-1.4550,rough,14.0,0,3.611
2830,90.56,4.4132,-0.2365,1.8047,0.3764,-0.0406,-1.4861,rough,14.0,0,3.175
2840,90.88,4.4416,-0.6771,1.8195,0.3744,-0.0322,-1.5134,rough,14.0,0,2.737
2850,91.20,4.4586,-1.1189,1.8306,0.3710,-0.0236,-1.5400,rough,14.0,0,2.299
2860,91.52,4.4641,-1.5613,1.8371,0.3658,-0.0134,-1.5667,rough,14.0,0,1.859
2870,91.84,4.4586,-2.0045,1.8372,0.3585,0.0013,-1.5925,rough,14.0,0,1.420
2880,92.16,4.4370,-2.4475,1.8291,0.3516,0.0222,-1.6211,rough,14.0,0,0.980
2890,92.48,4.3915,-2.8739,1.8098,0.3405,0.0588,-1.7105,rough,14.0,1,7.488
2900,92.80,4.2887,-3.2847,1.7687,0.3343,0.1068,-1.8320,rough,14.0,1,7.120
2910,93.12,4.1563,-3.6968,1.7134,0.3249,0.1372,-1.9062,rough,14.0,1,6.737
2920,93.44,3.9908,-4.0947,1.6428,0.3135,0.1632,-1.9815,rough,14.0,1,6.344
2930,93.76,3.8023,-4.4830,1.5614,0.3120,0.1939,-2.0338,rough,14.0,1,5.946
2940,94.08,3.6042,-4.8658,1.4768,0.2962,0.2090,-2.0788,rough,14.0,1,5.549
2950,94.40,3.3878,-5.2347,1.3815,0.2862,0.2186,-2.1247,rough,14.0,1,5.151
2960,94.72,3.1546,-5.5944,1.2810,0.2773,0.2392,-2.1668,rough,14.0,1,4.750
2970,95.04,2.9092,-5.9386,1.1750,0.2674,0.2515,-2.2122,rough,14.0,1,4.352
2980,95.36,2.6500,-6.2713,1.0646,0.2577,0.2616,-2.2547,rough,14.0,1,3.954
2990,95.68,2.3774,-6.5953,0.9502,0.2480,0.2694,-2.2967,rough,14.0,1,3.554
3000,96.00,2.0931,-6.9065,0.8335,0.2390,0.2766,-2.3399,rough,14.0,1,3.156
3010,96.32,1.7944,-7.2028,0.7135,0.2275,0.2809,-2.3847,rough,14.0,1,2.758
3020,96.64,1.4853,-7.4881,0.5926,0.2168,0.2868,-2.4345,rough,14.0,1,2.361
3030,96.96,1.1587,-7.7516,0.4681,0.2039,0.2896,-2.4831,rough,14.0,1,1.965
3040,97.28,0.8261,-8.0036,0.3445,0.1890,0.2964,-2.5474,rough,14.0,1,1.577
3050,97.60,0.4753,-8.2217,0.2156,0.1684,0.2883,-2.6191,rough,14.0,1,1.194
3060,97.92,0.1189,-8.4187,0.1177,0.0749,0.2315,-2.6978,rough,14.0,1,0.833
3070,98.24,-0.1817,-8.5242,0.0651,0.0267,0.1316,-2.8785,rough,14.0,2,5.536
3080,98.56,-0.4843,-8.5887,0.0465,0.0076,-0.0174,-2.9947,rough,14.0,2,5.428
3090,98.88,-0.8292,-8.6276,0.0532,0.0095,-0.0219,3.0478,rough,14.0,2,5.293
3100,99.20,-1.1941,-8.5829,0.0620,0.0143,-0.0232,2.8502,rough,14.0,2,5.093
3110,99.52,-1.5682,-8.4627,0.0722,0.0153,-0.0249,2.7091,rough,14.0,2,4.839
3120,99.84,-1.9172,-8.2874,0.0829,0.0177,-0.0266,2.5605,rough,14.0,2,4.559
3130,100.16,-2.2465,-8.0494,0.0946,0.0213,-0.0298,2.4437,rough,14.0,2,4.240
3140,100.48,-2.5505,-7.7713,0.1072,0.0223,-0.0293,2.3353,rough,14.0,2,3.903
3150,100.80,-2.8223,-7.4590,0.1196,0.0258,-0.0297,2.2370,rough,14.0,2,3.552
3160,101.12,-3.0679,-7.1253,0.1317,0.0260,-0.0292,2.1552,rough,14.0,2,3.195
3170,101.44,-3.2856,-6.7689,0.1410,0.0379,-0.0247,2.0682,rough,14.0,2,2.832
3180,101.76,-3.4764,-6.3852,0.1537,0.0254,-0.0186,1.9883,rough,14.0,2,2.456
3190,102.08,-3.6356,-5.9971,0.1601,0.0290,-0.0111,1.9158,rough,14.0,2,2.090
3200,102.40,-3.7645,-5.6027,0.1688,0.0198,-0.0130,1.8443,rough,14.0,2,1.734
3210,102.72,-3.8643,-5.2000,0.1735,0.0141,-0.0123,1.7779,rough,14.0,2,1.391
3220,103.04,-3.9314,-4.7893,0.1759,0.0167,-0.0063,1.6572,rough,14.0,2,1.072
3230,103.36,-3.9537,-4.3920,0.1795,-0.0001,-0.0030,1.3848,rough,14.0,2,0.812
3240,103.68,-3.8705,-3.9673,0.1831,-0.0017,-0.0085,1.3477,rough,14.0,3,10.423
3250,104.00,-3.7727,-3.5326,0.1873,-0.0113,-0.0108,1.3402,rough,14.0,3,9.978
3260,104.32,-3.6711,-3.0993,0.1927,-0.0155,-0.0160,1.3330,rough,14.0,3,9.534
3270,104.64,-3.5666,-2.6651,0.1987,-0.0221,-0.0142,1.3267,rough,14.0,3,9.088
3280,104.96,-3.4588,-2.2322,0.2052,-0.0247,-0.0151,1.3209,rough,14.0,3,8.643
3290,105.28,-3.3481,-1.7996,0.2113,-0.0264,-0.0132,1.3160,rough,14.0,3,8.196
3300,105.60,-3.2349,-1.3672,0.2167,-0.0256,-0.0114,1.3129,rough,14.0,3,7.750
3310,105.92,-3.1200,-0.9348,0.2210,-0.0234,-0.0085,1.3104,rough,14.0,3,7.303
3320,106.24,-3.0041,-0.5029,0.2240,-0.0228,-0.0051,1.3059,rough,14.0,3,6.856
3330,106.56,-2.8858,-0.0717,0.2256,-0.0188,-0.0004,1.3031,rough,14.0,3,6.409
3340,106.88,-2.7665,0.3582,0.2260,-0.0149,-0.0005,1.3007,rough,14.0,3,5.963
3350,107.20,-2.6463,0.7894,0.2259,-0.0120,0.0017,1.2976,rough,14.0,3,5.516
3360,107.52,-2.5254,1.2199,0.2247,-0.0136,0.0044,1.2924,rough,14.0,3,5.069
3370,107.84,-2.4021,1.6499,0.2220,-0.0142,0.0074,1.2882,rough,14.0,3,4.622
3380,108.16,-2.2767,2.0792,0.2174,-0.0141,0.0127,1.2842,rough,14.0,3,4.175
3390,108.48,-2.1487,2.5097,0.2097,-0.0137,0.0252,1.2800,rough,14.0,3,3.726
3400,108.80,-2.0200,2.9376,0.1997,-0.0135,0.0263,1.2753,rough,14.0,3,3.280
3410,109.12,-1.8881,3.3678,0.1849,-0.0123,0.0444,1.2716,rough,14.0,3,2.830
3420,109.44,-1.7562,3.7923,0.1699,-0.0092,0.0336,1.2676,rough,14.0,3,2.386
3430,109.76,-1.6212,4.2199,0.1529,-0.0042,0.0413,1.2644,rough,14.0,3,1.938
3440,110.08,-1.4854,4.6454,0.1344,-0.0010,0.0427,1.2606,rough,14.0,3,1.492
3450,110.40,-1.3482,5.0700,0.1155,0.0029,0.0419,1.2555,rough,14.0,3,1.046
3460,110.72,-1.2298,5.4580,0.0991,0.0014,0.0388,1.1533,rough,14.0,0,10.413
3470,111.04,-1.1022,5.7294,0.0875,-0.0058,0.0365,0.8944,rough,14.0,0,10.580
3480,111.36,-0.9209,5.9477,0.0772,-0.0132,0.0332,0.6120,rough,14.0,0,10.681
3490,111.68,-0.6765,6.0719,0.0692,-0.0197,0.0272,0.4091,rough,14.0,0,10.675
3500,112.00,-0.3862,6.1657,0.0681,-0.0426,0.0041,0.2642,rough,14.0,0,10.629
3510,112.32,-0.1457,6.2348,0.0819,-0.0266,-0.1652,0.0823,rough,14.0,0,10.590
3520,112.64,0.1423,6.2554,0.1341,-0.0243,-0.2288,-0.0876,rough,14.0,0,10.493
3530,112.96,0.3860,6.2156,0.2019,0.0273,-0.3437,-0.1320,rough,14.0,0,10.363
3540,113.28,0.6540,6.1648,0.3015,0.0385,-0.3448,-0.1966,rough,14.0,0,10.219
3550,113.60,0.9314,6.0868,0.4044,0.0666,-0.3446,-0.2789,rough,14.0,0,10.052
3560,113.92,1.2191,5.9775,0.5130,0.0987,-0.3405,-0.3735,rough,14.0,0,9.857
3570,114.24,1.5274,5.8415,0.6314,0.1504,-0.3329,-0.5162,rough,14.0,0,9.636
3580,114.56,1.8268,5.6474,0.7490,0.1818,-0.3115,-0.6349,rough,14.0,0,9.369
3590,114.88,2.1144,5.4052,0.8652,0.2144,-0.2925,-0.7416,rough,14.0,0,9.063
3600,115.20,2.3007,5.1657,0.9438,0.1912,-0.3088,-0.6634,rough,14.0,0,8.788
3610,115.52,2.2132,5.0085,0.9165,0.1664,-0.3217,-0.5899,rough,14.0,0,8.654
3620,115.84,2.3051,4.7808,0.9590,0.1982,-0.3043,-0.6899,rough,14.0,0,8.412
3630,116.16,2.5824,4.5180,1.0717,0.2319,-0.2799,-0.7940,rough,14.0,0,8.095
3640,116.48,2.8321,4.2178,1.1747,0.2637,-0.2522,-0.8884,rough,14.0,0,7.752
3650,116.80,3.0630,3.8880,1.2703,0.2860,-0.2298,-0.9760,rough,14.0,0,7.388
3660,117.12,3.2774,3.5323,1.3543,0.2886,-0.2043,-1.0483,rough,14.0,0,7.005
3670,117.44,3.4615,3.1547,1.4328,0.3322,-0.1678,-1.1117,rough,14.0,0,6.607
3680,117.76,3.6260,2.7655,1.4970,0.3441,-0.1418,-1.1688,rough,14.0,0,6.202
3690,118.08,3.7798,2.3657,1.5558,0.3577,-0.1312,-1.2116,rough,14.0,0,5.790
3700,118.40,3.9129,1.9572,1.6081,0.3659,-0.1115,-1.2622,rough,14.0,0,5.373
3710,118.72,4.0256,1.5401,1.6475,0.3789,-0.1056,-1.2993,rough,14.0,0,4.951
3720,119.04,4.1264,1.1146,1.6866,0.3885,-0.0793,-1.3410,rough,14.0,0,4.522
3730,119.36,4.2087,0.6859,1.7183,0.3897,-0.0698,-1.3926,rough,14.0,0,4.093
3740,119.68,4.2728,0.2516,1.7449,0.3881,-0.0601,-1.4351,rough,14.0,0,3.658
3750,120.00,4.3214,-0.1867,1.7671,0.3842,-0.0502,-1.4706,rough,14.0,0,3.221
3760,120.32,4.3567,-0.6276,1.7853,0.3787,-0.0395,-1.4997,rough,14.0,0,2.782
3770,120.64,4.3802,-1.0695,1.7996,0.3731,-0.0311,-1.5253,rough,14.0,0,2.342
3780,120.96,4.3935,-1.5129,1.8093,0.3662,-0.0194,-1.5489,rough,14.0,0,1.900
3790,121.28,4.3940,-1.9573,1.8122,0.3590,-0.0049,-1.5693,rough,14.0,0,1.458
3800,121.60,4.3862,-2.4005,1.8107,0.3528,0.0103,-1.5959,rough,14.0,0,1.017
3810,121.92,4.3517,-2.8251,1.7964,0.3493,0.0460,-1.6833,rough,14.0,1,7.497
3820,122.24,4.2641,-3.2383,1.7596,0.3347,0.0950,-1.8005,rough,14.0,1,7.136
3830,122.56,4.1415,-3.6504,1.7043,0.3001,0.1310,-1.8894,rough,14.0,1,6.758
3840,122.88,3.9774,-4.0480,1.6397,0.3148,0.1638,-1.9637,rough,14.0,1,6.366
3850,123.20,3.7930,-4.4356,1.5588,0.3129,0.1952,-2.0240,rough,14.0,1,5.970
3860,123.52,3.5993,-4.8198,1.4764,0.2977,0.2056,-2.0686,rough,14.0,1,5.574
3870,123.84,3.3863,-5.1896,1.3822,0.2883,0.2136,-2.1145,rough,14.0,1,5.177
3880,124.16,3.1548,-5.5507,1.2827,0.2789,0.2364,-2.1583,rough,14.0,1,4.775
3890,124.48,2.9117,-5.8974,1.1775,0.2689,0.2496,-2.2042,rough,14.0,1,4.377
3900,124.80,2.6545,-6.2319,1.0677,0.2590,0.2599,-2.2474,rough,14.0,1,3.979
3910,125.12,2.3841,-6.5588,0.9539,0.2498,0.2676,-2.2888,rough,14.0,1,3.578
3920,125.44,2.1003,-6.8717,0.8372,0.2407,0.2756,-2.3323,rough,14.0,1,3.178
3930,125.76,1.8030,-7.1711,0.7174,0.2292,0.2796,-2.3770,rough,14.0,1,2.779
3940,126.08,1.4960,-7.4575,0.5972,0.2193,0.2859,-2.4257,rough,14.0,1,2.383
3950,126.40,1.1711,-7.7242,0.4727,0.2058,0.2877,-2.4739,rough,14.0,1,1.985
3960,126.72,0.8393,-7.9783,0.3496,0.1921,0.2963,-2.5382,rough,14.0,1,1.596
3970,127.04,0.4897,-8.2019,0.2226,0.1741,0.2994,-2.6028,rough,14.0,1,1.211
3980,127.36,0.1396,-8.4044,0.1227,0.0786,0.2368,-2.6854,rough,14.0,1,0.853
3990,127.68,-0.1586,-8.5194,0.0660,0.0312,0.1517,-2.8376,rough,14.0,2,5.545
4000,128.00,-0.4584,-8.5921,0.0438,0.0073,-0.0315,-2.9551,rough,14.0,2,5.444
4010,128.32,-0.8068,-8.6410,0.0526,0.0061,-0.0225,-3.1384,rough,14.0,2,5.315
4020,128.64,-1.1627,-8.6335,0.0615,0.0133,-0.0233,2.9127,rough,14.0,2,5.152
4030,128.96,-1.5380,-8.5390,0.0715,0.0159,-0.0262,2.7720,rough,14.0,2,4.921
4040,129.28,-1.8904,-8.3901,0.0822,0.0184,-0.0272,2.6089,rough,14.0,2,4.665
4050,129.60,-2.2248,-8.1738,0.0937,0.0208,-0.0297,2.4769,rough,14.0,2,4.366
4060,129.92,-2.5365,-7.9074,0.1043,0.0305,-0.0297,2.3665,rough,14.0,2,4.039
4070,130.24,-2.8173,-7.6045,0.1185,0.0253,-0.0309,2.2592,rough,14.0,2,3.697
4080,130.56,-3.0683,-7.2678,0.1308,0.0257,-0.0279,2.1705,rough,14.0,2,3.337
4090,130.88,-3.2874,-6.9128,0.1420,0.0280,-0.0261,2.0815,rough,14.0,2,2.976
4100,131.20,-3.4798,-6.5454,0.1501,0.0223,-0.0279,2.0028,rough,14.0,2,2.616
4110,131.52,-3.6409,-6.1550,0.1555,0.0517,-0.0151,1.9390,rough,14.0,2,2.247
4120,131.84,-3.7773,-5.7666,0.1680,0.0203,-0.0126,1.8613,rough,14.0,2,1.896
4130,132.16,-3.8807,-5.3769,0.1732,0.0133,-0.0049,1.7852,rough,14.0,2,1.560
4140,132.48,-3.9561,-4.9685,0.1766,0.0100,-0.0038,1.7294,rough,14.0,2,1.233
4150,132.80,-4.0056,-4.5404,0.1794,0.0055,-0.0062,1.6686,rough,14.0,2,0.943
4160,133.12,-4.0310,-4.1150,0.1800,-0.0026,-0.0063,1.6052,rough,14.0,3,10.610
4170,133.44,-4.0374,-3.6792,0.1830,-0.0114,-0.0046,1.5453,rough,14.0,3,10.196
4180,133.76,-4.0246,-3.2413,0.1840,-0.0222,-0.0081,1.4947,rough,14.0,3,9.775
4190,134.08,-3.9889,-2.8035,0.1876,-0.0239,-0.0074,1.4531,rough,14.0,3,9.349
4200,134.40,-3.9361,-2.3664,0.1909,-0.0289,-0.0067,1.4190,rough,14.0,3,8.919
4210,134.72,-3.8683,-1.9311,0.1946,-0.0321,-0.0078,1.3903,rough,14.0,3,8.486
4220,135.04,-3.7875,-1.4969,0.1986,-0.0334,-0.0103,1.3640,rough,14.0,3,8.051
4230,135.36,-3.6943,-1.0627,0.2030,-0.0336,-0.0097,1.3468,rough,14.0,3,7.612
4240,135.68,-3.5945,-0.6304,0.2070,-0.0331,-0.0084,1.3260,rough,14.0,3,7.173
4250,136.00,-3.4856,-0.2010,0.2105,-0.0329,-0.0074,1.3067,rough,14.0,3,6.734
4260,136.32,-3.3679,0.2276,0.2131,-0.0299,-0.0049,1.2992,rough,14.0,3,6.293
4270,136.64,-3.2468,0.6548,0.2149,-0.0261,-0.0039,1.2914,rough,14.0,3,5.852
4280,136.96,-3.1222,1.0839,0.2155,-0.0225,0.0001,1.2834,rough,14.0,3,5.409
4290,137.28,-2.9944,1.5096,0.2147,-0.0230,0.0034,1.2676,rough,14.0,3,4.968
4300,137.60,-2.8600,1.9337,0.2115,-0.0183,0.0094,1.2558,rough,14.0,3,4.526
4310,137.92,-2.7208,2.3572,0.2071,-0.0176,0.0138,1.2459,rough,14.0,3,4.084
4320,138.24,-2.5768,2.7795,0.1991,-0.0151,0.0162,1.2311,rough,14.0,3,3.641
4330,138.56,-2.4268,3.2000,0.1902,-0.0149,0.0242,1.2196,rough,14.0,3,3.198
4340,138.88,-2.2713,3.6180,0.1780,-0.0109,0.0285,1.2078,rough,14.0,3,2.756
4350,139.20,-2.1109,4.0331,0.1637,-0.0057,0.0374,1.1957,rough,14.0,3,2.315
4360,139.52,-1.9465,4.4456,0.1472,-0.0036,0.0380,1.1802,rough,14.0,3,1.876
4370,139.84,-1.7757,4.8548,0.1302,-0.0008,0.0388,1.1614,rough,14.0,3,1.440
4380,140.16,-1.5977,5.2598,0.1128,0.0028,0.0385,1.1356,rough,14.0,3,1.009
4390,140.48,-1.4426,5.5985,0.0986,-0.0004,0.0379,0.9837,rough,14.0,0,10.645
4400,140.80,-1.2790,5.8392,0.0878,-0.0079,0.0363,0.7119,rough,14.0,0,10.765
4410,141.12,-1.0674,5.9935,0.0789,-0.0162,0.0311,0.4466,rough,14.0,0,10.792
4420,141.44,-0.7728,6.0933,0.0703,-0.0220,0.0262,0.2940,rough,14.0,0,10.739
4430,141.76,-0.4371,6.1656,0.0625,-0.0258,0.0203,0.1741,rough,14.0,0,10.651
4440,142.08,-0.1572,6.2226,0.0805,-0.0293,-0.1545,-0.0230,rough,14.0,0,10.583
4450,142.40,0.1429,6.2092,0.1374,-0.0030,-0.2340,-0.1689,rough,14.0,0,10.450
4460,142.72,0.4079,6.1395,0.2150,0.0470,-0.3386,-0.2380,rough,14.0,0,10.285
4470,143.04,0.7016,6.0421,0.3222,0.0852,-0.3397,-0.3369,rough,14.0,0,10.088
4480,143.36,1.0190,5.9144,0.4413,0.1302,-0.3232,-0.4755,rough,14.0,0,9.860
4490,143.68,1.3289,5.7325,0.5616,0.1663,-0.3138,-0.5948,rough,14.0,0,9.590
4500,144.00,1.6260,5.5074,0.6794,0.1974,-0.2992,-0.7007,rough,14.0,0,9.288
4510,144.32,1.9050,5.2383,0.7930,0.2320,-0.2852,-0.7969,rough,14.0,0,8.953
4520,144.64,2.1667,4.9361,0.9015,0.2505,-0.2601,-0.8824,rough,14.0,0,8.595
4530,144.96,2.4049,4.6069,1.0020,0.2735,-0.2387,-0.9570,rough,14.0,0,8.220
4540,145.28,2.6276,4.2570,1.0967,0.2911,-0.2167,-1.0184,rough,14.0,0,7.830
4550,145.60,2.8303,3.8908,1.1819,0.3064,-0.1991,-1.0758,rough,14.0,0,7.431
4560,145.92,3.0170,3.5082,1.2583,0.3238,-0.1754,-1.1235,rough,14.0,0,7.021
4570,146.24,3.1848,3.1110,1.3224,0.3406,-0.1403,-1.1610,rough,14.0,0,6.602
4580,146.56,3.3420,2.7076,1.3849,0.3532,-0.1273,-1.2016,rough,14.0,0,6.179
4590,146.88,3.4843,2.2993,1.4373,0.3709,-0.1224,-1.2377,rough,14.0,0,5.755
4600,147.20,3.6109,1.8824,1.4810,0.3871,-0.1121,-1.2651,rough,14.0,0,5.326
4610,147.52,3.7289,1.4633,1.5233,0.4028,-0.1100,-1.3012,rough,14.0,0,4.896
4620,147.84,3.8337,1.0370,1.5626,0.3996,-0.0871,-1.3395,rough,14.0,0,4.462
4630,148.16,3.9233,0.6070,1.5968,0.4017,-0.0828,-1.3651,rough,14.0,0,4.026
4640,148.48,4.0035,0.1759,1.6293,0.3960,-0.0827,-1.3888,rough,14.0,0,3.590
4650,148.80,4.0732,-0.2584,1.6641,0.4045,-0.0802,-1.4146,rough,14.0,0,3.152
4660,149.12,4.1326,-0.6963,1.6936,0.3918,-0.0710,-1.4392,rough,14.0,0,2.712
4670,149.44,4.1816,-1.1361,1.7194,0.3778,-0.0554,-1.4600,rough,14.0,0,2.271
4680,149.76,4.2238,-1.5777,1.7437,0.3707,-0.0463,-1.4814,rough,14.0,0,1.829
4690,150.08,4.2555,-2.0213,1.7595,0.3599,-0.0340,-1.4981,rough,14.0,0,1.385
4700,150.40,4.2809,-2.4647,1.7716,0.3561,-0.0206,-1.5188,rough,14.0,0,0.943
4710,150.72,4.2746,-2.8882,1.7660,0.3429,0.0250,-1.6251,rough,14.0,1,7.398
4720,151.04,4.2032,-3.2970,1.7372,0.3433,0.0816,-1.7612,rough,14.0,1,7.051
4730,151.36,4.0874,-3.7106,1.6880,0.3296,0.1266,-1.8692,rough,14.0,1,6.677
4740,151.68,3.9359,-4.1113,1.6222,0.3154,0.1587,-1.9490,rough,14.0,1,6.292
4750,152.00,3.7567,-4.5031,1.5455,0.3080,0.1863,-2.0121,rough,14.0,1,5.898
4760,152.32,3.5644,-4.8874,1.4578,0.3163,0.2028,-2.0572,rough,14.0,1,5.504
4770,152.64,3.3590,-5.2647,1.3702,0.2923,0.2196,-2.1031,rough,14.0,1,5.110
4780,152.96,3.1346,-5.6293,1.2721,0.2819,0.2349,-2.1488,rough,14.0,1,4.713
4790,153.28,2.8962,-5.9796,1.1686,0.2715,0.2470,-2.1963,rough,14.0,1,4.319
4800,153.60,2.6423,-6.3168,1.0601,0.2616,0.2582,-2.2419,rough,14.0,1,3.924
4810,153.92,2.3732,-6.6419,0.9472,0.2508,0.2670,-2.2883,rough,14.0,1,3.528
4820,154.24,2.0920,-6.9576,0.8316,0.2407,0.2743,-2.3348,rough,14.0,1,3.132
4830,154.56,1.7967,-7.2551,0.7133,0.2291,0.2800,-2.3829,rough,14.0,1,2.738
4840,154.88,1.4884,-7.5407,0.5927,0.2161,0.2858,-2.4377,rough,14.0,1,2.345
4850,155.20,1.1641,-7.8016,0.4695,0.2021,0.2907,-2.4925,rough,14.0,1,1.955
4860,155.52,0.8302,-8.0493,0.3456,0.1862,0.2980,-2.5599,rough,14.0,1,1.572
4870,155.84,0.4776,-8.2669,0.2182,0.1658,0.3024,-2.6344,rough,14.0,1,1.193
4880,156.16,0.1226,-8.4510,0.1180,0.0776,0.2222,-2.7305,rough,14.0,1,0.840
4890,156.48,-0.1852,-8.5456,0.0644,0.0301,0.1148,-2.9086,rough,14.0,2,5.552
4900,156.80,-0.5022,-8.6078,0.0434,-0.0123,-0.0200,-3.0312,rough,14.0,2,5.435
4910,157.12,-0.8543,-8.6367,0.0538,0.0080,-0.0230,3.1149,rough,14.0,2,5.289
4920,157.44,-1.2144,-8.6182,0.0628,0.0135,-0.0241,2.9026,rough,14.0,2,5.117
4930,157.76,-1.5927,-8.5202,0.0731,0.0157,-0.0261,2.7660,rough,14.0,2,4.884
4940,158.08,-1.9440,-8.3687,0.0840,0.0181,-0.0272,2.6015,rough,14.0,2,4.629
4950,158.40,-2.2744,-8.1497,0.0954,0.0210,-0.0305,2.4710,rough,14.0,2,4.331
4960,158.72,-2.5836,-7.8809,0.1080,0.0228,-0.0289,2.3567,rough,14.0,2,4.005
4970,159.04,-2.8591,-7.5749,0.1202,0.0262,-0.0299,2.2513,rough,14.0,2,3.662
4980,159.36,-3.1073,-7.2378,0.1325,0.0263,-0.0282,2.1632,rough,14.0,2,3.305
4990,159.68,-3.3240,-6.8811,0.1438,0.0262,-0.0235,2.0746,rough,14.0,2,2.944
5000,160.00,-3.5107,-6.5083,0.1520,0.0313,-0.0165,2.0001,rough,14.0,2,2.581
5010,160.32,-3.6731,-6.1134,0.1619,0.0249,-0.0189,1.9354,rough,14.0,2,2.211
5020,160.64,-3.8049,-5.7247,0.1691,0.0198,-0.0122,1.8590,rough,14.0,2,1.863
5030,160.96,-3.9113,-5.3286,0.1740,0.0108,-0.0014,1.7990,rough,14.0,2,1.528
5040,161.28,-3.9893,-4.9240,0.1774,0.0066,0.0007,1.7319,rough,14.0,2,1.215
5050,161.60,-4.0375,-4.5393,0.1793,0.0020,-0.0026,1.5563,rough,14.0,2,0.967
5060,161.92,-4.0263,-4.1636,0.1809,-0.0022,-0.0019,1.2641,rough,14.0,3,10.655
5070,162.24,-3.8938,-3.7380,0.1843,-0.0064,-0.0123,1.2662,rough,14.0,3,10.210
5080,162.56,-3.7611,-3.3103,0.1893,-0.0133,-0.0108,1.2677,rough,14.0,3,9.762
5090,162.88,-3.6289,-2.8837,0.1953,-0.0173,-0.0164,1.2692,rough,14.0,3,9.315
5100,163.20,-3.4971,-2.4560,0.2023,-0.0222,-0.0163,1.2704,rough,14.0,3,8.868
5110,163.52,-3.3653,-2.0280,0.2093,-0.0246,-0.0151,1.2715,rough,14.0,3,8.420
5120,163.84,-3.2335,-1.5998,0.2157,-0.0248,-0.0133,1.2725,rough,14.0,3,7.972
5130,164.16,-3.1015,-1.1714,0.2210,-0.0228,-0.0095,1.2733,rough,14.0,3,7.524
5140,164.48,-2.9704,-0.7429,0.2248,-0.0229,-0.0069,1.2741,rough,14.0,3,7.076
5150,164.80,-2.8384,-0.3142,0.2268,-0.0173,-0.0023,1.2749,rough,14.0,3,6.627
5160,165.12,-2.7072,0.1139,0.2278,-0.0126,-0.0022,1.2758,rough,14.0,3,6.179
5170,165.44,-2.5764,0.5427,0.2278,-0.0097,0.0009,1.2765,rough,14.0,3,5.731
5180,165.76,-2.4468,0.9717,0.2270,-0.0105,0.0032,1.2774,rough,14.0,3,5.283
5190,166.08,-2.3175,1.4007,0.2252,-0.0109,0.0055,1.2783,rough,14.0,3,4.835
5200,166.40,-2.1883,1.8303,0.2219,-0.0112,0.0101,1.2791,rough,14.0,3,4.386
5210,166.72,-2.0561,2.2621,0.2101,0.0085,0.0337,1.2797,rough,14.0,3,3.935
5220,167.04,-1.9322,2.6902,0.2071,-0.0130,0.0223,1.2804,rough,14.0,3,3.489
5230,167.36,-1.8036,3.1204,0.1953,-0.0120,0.0302,1.2812,rough,14.0,3,3.040
5240,167.68,-1.6753,3.5505,0.1802,-0.0108,0.0376,1.2819,rough,14.0,3,2.591
5250,168.00,-1.5471,3.9801,0.1626,-0.0069,0.0428,1.2828,rough,14.0,3,2.143
5260,168.32,-1.4198,4.4090,0.1434,-0.0038,0.0440,1.2839,rough,14.0,3,1.696
5270,168.64,-1.2926,4.8379,0.1240,0.0012,0.0443,1.2851,rough,14.0,3,1.248
5280,168.96,-1.1663,5.2664,0.1050,0.0062,0.0421,1.2869,rough,14.0,3,0.802
5290,169.28,-1.0705,5.6019,0.0911,-0.0001,0.0404,1.0698,rough,14.0,0,10.454
5300,169.60,-0.9239,5.8637,0.0800,-0.0087,0.0350,0.7972,rough,14.0,0,10.609
5310,169.92,-0.7235,6.0312,0.0712,-0.0161,0.0301,0.5388,rough,14.0,0,10.661
5320,170.24,-0.4605,6.1430,0.0636,-0.0217,0.0249,0.3547,rough,14.0,0,10.641
5330,170.56,-0.2493,6.2304,0.0763,-0.0629,-0.0535,0.2410,rough,14.0,0,10.629
5340,170.88,-0.0481,6.2882,0.0891,-0.0562,-0.1881,0.1315,rough,14.0,0,10.599
5350,171.20,0.1890,6.3224,0.1452,-0.0324,-0.2463,0.0335,rough,14.0,0,10.537
5360,171.52,0.4002,6.3302,0.2056,-0.0296,-0.3463,0.0158,rough,14.0,0,10.465
5370,171.84,0.6159,6.3338,0.2833,-0.0286,-0.3452,0.0120,rough,14.0,0,10.391
5380,172.16,0.8262,6.3363,0.3593,-0.0277,-0.3495,0.0098,rough,14.0,0,10.322
5390,172.48,1.0324,6.3383,0.4343,-0.0271,-0.3495,0.0087,rough,14.0,0,10.257
5400,172.80,1.2332,6.3400,0.5080,-0.0266,-0.3530,0.0082,rough,14.0,0,10.198
5410,173.12,1.4295,6.3416,0.5804,-0.0261,-0.3553,0.0078,rough,14.0,0,10.144
5420,173.44,1.6216,6.3430,0.6516,-0.0256,-0.3557,0.0075,rough,14.0,0,10.094
5430,173.76,1.8083,6.3443,0.7214,-0.0251,-0.3601,0.0073,rough,14.0,0,10.048
5440,174.08,1.9912,6.3455,0.7902,-0.0245,-0.3606,0.0070,rough,14.0,0,10.007
5450,174.40,2.1696,6.3466,0.8577,-0.0239,-0.3622,0.0063,rough,14.0,0,9.969
5460,174.72,2.3436,6.3475,0.9237,-0.0230,-0.3660,0.0053,rough,14.0,0,9.936
5470,175.04,2.5145,6.3479,0.9890,-0.0218,-0.3655,0.0035,rough,14.0,0,9.905
5480,175.36,2.6817,6.3478,1.0533,-0.0201,-0.3673,-0.0000,rough,14.0,0,9.877
5490,175.68,2.8463,6.3464,1.1167,-0.0173,-0.3709,-0.0063,rough,14.0,0,9.851
5500,176.00,3.0107,6.3429,1.1805,-0.0125,-0.3704,-0.0178,rough,14.0,0,9.826
5510,176.32,3.1768,6.3354,1.2454,-0.0045,-0.3720,-0.0392,rough,14.0,0,9.799
5520,176.64,3.3488,6.3207,1.3126,0.0094,-0.3749,-0.0759,rough,14.0,0,9.768
5530,176.96,3.5326,6.2938,1.3852,0.0312,-0.3726,-0.1337,rough,14.0,0,9.726
5540,177.28,3.7313,6.2475,1.4642,0.0615,-0.3709,-0.2175,rough,14.0,0,9.667
5550,177.60,3.9495,6.1723,1.5514,0.1015,-0.3635,-0.3256,rough,14.0,0,9.583
5560,177.92,4.1803,6.0588,1.6449,0.1470,-0.3493,-0.4550,rough,14.0,0,9.465
5570,178.24,4.4252,5.9000,1.7445,0.1981,-0.3252,-0.6025,rough,14.0,0,9.308
5580,178.56,4.6809,5.6954,1.8487,0.2433,-0.2892,-0.7590,rough,14.0,0,9.113
5590,178.88,4.9082,5.4278,1.9428,0.2807,-0.2539,-0.8919,rough,14.0,0,8.860
5600,179.20,5.1182,5.1233,2.0287,0.3032,-0.2173,-1.0110,rough,14.0,0,8.575
5610,179.52,5.2982,4.7704,2.1027,0.3303,-0.1765,-1.1210,rough,14.0,0,8.246
5620,179.84,5.2489,4.5552,2.0916,0.2863,-0.2552,-0.9672,rough,14.0,0,8.026
5630,180.16,5.3645,4.2088,2.1350,0.3214,-0.1687,-1.1254,rough,14.0,0,7.699
5640,180.48,5.5134,3.8292,2.1924,0.3212,-0.1325,-1.2246,rough,14.0,0,7.348
5650,180.80,5.6174,3.4268,2.2359,0.3385,-0.0918,-1.3357,rough,14.0,0,6.972
5660,181.12,5.6844,3.0050,2.2618,0.3423,-0.0500,-1.4291,rough,14.0,0,6.573
5670,181.44,5.7193,2.5750,2.2748,0.3299,-0.0299,-1.5037,rough,14.0,0,6.163
5680,181.76,5.7264,2.1387,2.2802,0.3360,-0.0071,-1.5622,rough,14.0,0,5.742
5690,182.08,5.7134,1.7003,2.2767,0.3342,0.0116,-1.6102,rough,14.0,0,5.317
5700,182.40,5.6808,1.2607,2.2659,0.3312,0.0275,-1.6540,rough,14.0,0,4.886
5710,182.72,5.6307,0.8221,2.2493,0.3297,0.0404,-1.6919,rough,14.0,0,4.453
5720,183.04,5.5658,0.3848,2.2275,0.3278,0.0516,-1.7249,rough,14.0,0,4.018
5730,183.36,5.4879,-0.0502,2.2013,0.3254,0.0612,-1.7547,rough,14.0,0,3.583
5740,183.68,5.3963,-0.4827,2.1705,0.3241,0.0726,-1.7859,rough,14.0,0,3.146
5750,184.00,5.2893,-0.9124,2.1340,0.3259,0.0844,-1.8200,rough,14.0,0,2.708
5760,184.32,5.1754,-1.3415,2.0949,0.3278,0.0899,-1.8354,rough,14.0,0,2.269
5770,184.64,5.0512,-1.7653,2.0516,0.3257,0.1019,-1.8626,rough,14.0,0,1.833
5780,184.96,4.9147,-2.1836,2.0027,0.3211,0.1144,-1.8941,rough,14.0,0,1.399
5790,185.28,4.7698,-2.5976,1.9494,0.3213,0.1275,-1.9177,rough,14.0,0,0.970
5800,185.60,4.6109,-2.9988,1.8891,0.3138,0.1505,-1.9759,rough,14.0,1,7.550
5810,185.92,4.4202,-3.3891,1.8140,0.2992,0.1717,-2.0330,rough,14.0,1,7.140
5820,186.24,4.2216,-3.7756,1.7358,0.2979,0.1890,-2.0660,rough,14.0,1,6.730
5830,186.56,4.0053,-4.1515,1.6471,0.2921,0.2066,-2.1043,rough,14.0,1,6.317
5840,186.88,3.7767,-4.5177,1.5516,0.2855,0.2220,-2.1384,rough,14.0,1,5.904
5850,187.20,3.5396,-4.8778,1.4524,0.2749,0.2365,-2.1701,rough,14.0,1,5.491
5860,187.52,3.2906,-5.2279,1.3459,0.2670,0.2461,-2.2033,rough,14.0,1,5.078
5870,187.84,3.0313,-5.5674,1.2355,0.2592,0.2578,-2.2347,rough,14.0,1,4.666
5880,188.16,2.7648,-5.8972,1.1219,0.2519,0.2657,-2.2656,rough,14.0,1,4.257
5890,188.48,2.4870,-6.2197,1.0047,0.2449,0.2721,-2.2961,rough,14.0,1,3.845
5900,188.80,2.2007,-6.5344,0.8853,0.2374,0.2766,-2.3266,rough,14.0,1,3.434
5910,189.12,1.9060,-6.8406,0.7649,0.2321,0.2811,-2.3580,rough,14.0,1,3.023
5920,189.44,1.6007,-7.1341,0.6426,0.2229,0.2816,-2.3915,rough,14.0,1,2.614
5930,189.76,1.2866,-7.4170,0.5199,0.2166,0.2856,-2.4315,rough,14.0,1,2.207
5940,190.08,0.9612,-7.6844,0.3966,0.2057,0.2868,-2.4714,rough,14.0,1,1.802
5950,190.40,0.6304,-7.9420,0.2740,0.1938,0.2908,-2.5239,rough,14.0,1,1.404
5960,190.72,0.2873,-8.1766,0.1621,0.1404,0.2656,-2.5887,rough,14.0,1,1.015
5970,191.04,-0.0313,-8.3467,0.0824,0.0619,0.1691,-2.7528,rough,14.0,2,5.478
5980,191.36,-0.3256,-8.4470,0.0532,0.0101,0.0580,-2.8720,rough,14.0,2,5.392
5990,191.68,-0.6603,-8.5115,0.0482,0.0000,-0.0195,-3.0054,rough,14.0,2,5.272
6000,192.00,-1.0243,-8.5545,0.0573,0.0082,-0.0239,3.0966,rough,14.0,2,5.139
6010,192.32,-1.3774,-8.5294,0.0666,0.0128,-0.0272,2.8794,rough,14.0,2,4.971
6020,192.64,-1.7356,-8.4239,0.0772,0.0166,-0.0270,2.6967,rough,14.0,2,4.745
6030,192.96,-2.0803,-8.2444,0.0885,0.0187,-0.0280,2.5447,rough,14.0,2,4.471
6040,193.28,-2.4044,-8.0015,0.1006,0.0223,-0.0304,2.4300,rough,14.0,2,4.158
6050,193.60,-2.7017,-7.7198,0.1131,0.0248,-0.0314,2.3168,rough,14.0,2,3.827
6060,193.92,-2.9663,-7.4018,0.1258,0.0258,-0.0279,2.2152,rough,14.0,2,3.479
6070,194.24,-3.2024,-7.0569,0.1376,0.0274,-0.0271,2.1254,rough,14.0,2,3.121
6080,194.56,-3.4051,-6.6870,0.1480,0.0284,-0.0214,2.0325,rough,14.0,2,2.753
6090,194.88,-3.5790,-6.2978,0.1578,0.0247,-0.0203,1.9652,rough,14.0,2,2.379
6100,195.20,-3.7262,-5.9101,0.1654,0.0210,-0.0158,1.8965,rough,14.0,2,2.023
6110,195.52,-3.8472,-5.5355,0.1709,0.0177,-0.0107,1.8370,rough,14.0,2,1.696
6120,195.84,-3.9423,-5.1591,0.1750,0.0136,-0.0089,1.7752,rough,14.0,2,1.389
6130,196.16,-4.0114,-4.7697,0.1781,0.0068,-0.0047,1.7029,rough,14.0,2,1.108
6140,196.48,-4.0457,-4.3767,0.1783,0.0114,-0.0045,1.5927,rough,14.0,2,0.882
6150,196.80,-4.0345,-4.0045,0.1819,0.0023,-0.0119,1.3519,rough,14.0,3,10.506
6160,197.12,-3.9387,-3.5686,0.1849,-0.0085,-0.0090,1.3438,rough,14.0,3,10.061
6170,197.44,-3.8395,-3.1347,0.1893,-0.0180,-0.0111,1.3338,rough,14.0,3,9.617
6180,197.76,-3.7354,-2.7015,0.1944,-0.0238,-0.0115,1.3247,rough,14.0,3,9.173
6190,198.08,-3.6268,-2.2694,0.2002,-0.0262,-0.0131,1.3169,rough,14.0,3,8.728
6200,198.40,-3.5148,-1.8378,0.2062,-0.0291,-0.0133,1.3096,rough,14.0,3,8.283
6210,198.72,-3.3988,-1.4070,0.2118,-0.0293,-0.0114,1.3051,rough,14.0,3,7.837
6220,199.04,-3.2804,-0.9771,0.2164,-0.0270,-0.0096,1.3014,rough,14.0,3,7.392
6230,199.36,-3.1603,-0.5457,0.2202,-0.0236,-0.0062,1.2981,rough,14.0,3,6.945
6240,199.68,-3.0393,-0.1159,0.2226,-0.0221,-0.0038,1.2923,rough,14.0,3,6.499
6250,200.00,-2.9156,0.3134,0.2239,-0.0205,-0.0008,1.2888,rough,14.0,3,6.053
6260,200.32,-2.7903,0.7412,0.2240,-0.0173,0.0000,1.2852,rough,14.0,3,5.607
6270,200.64,-2.6634,1.1702,0.2232,-0.0148,0.0028,1.2807,rough,14.0,3,5.160
6280,200.96,-2.5350,1.5983,0.2211,-0.0150,0.0060,1.2741,rough,14.0,3,4.714
6290,201.28,-2.4034,2.0260,0.2170,-0.0161,0.0128,1.2685,rough,14.0,3,4.267
6300,201.60,-2.2696,2.4527,0.2103,-0.0158,0.0189,1.2634,rough,14.0,3,3.820
6310,201.92,-2.1332,2.8789,0.1989,-0.0092,0.0254,1.2588,rough,14.0,3,3.373
6320,202.24,-1.9960,3.3049,0.1883,-0.0124,0.0309,1.2538,rough,14.0,3,2.926
6330,202.56,-1.8565,3.7312,0.1706,-0.0210,0.0466,1.2472,rough,14.0,3,2.478
6340,202.88,-1.7126,4.1524,0.1561,-0.0094,0.0367,1.2435,rough,14.0,3,2.033
6350,203.20,-1.5670,4.5756,0.1381,-0.0019,0.0429,1.2388,rough,14.0,3,1.587
6360,203.52,-1.4205,4.9970,0.1194,0.0022,0.0423,1.2325,rough,14.0,3,1.141
6370,203.84,-1.2836,5.4106,0.1009,-0.0095,0.0709,1.1225,rough,14.0,0,10.402
6380,204.16,-1.1545,5.6352,0.0915,-0.0097,0.0372,0.8152,rough,14.0,0,10.526
6390,204.48,-0.9596,5.8411,0.0813,-0.0175,0.0315,0.5314,rough,14.0,0,10.606
6400,204.80,-0.6997,5.9632,0.0729,-0.0233,0.0261,0.3212,rough,14.0,0,10.590
6410,205.12,-0.3763,6.0420,0.0668,-0.0357,0.0213,0.1930,rough,14.0,0,10.514
6420,205.44,-0.1014,6.1030,0.0870,-0.0273,-0.1871,-0.0138,rough,14.0,0,10.451
6430,205.76,0.2019,6.0924,0.1579,0.0017,-0.2786,-0.1871,rough,14.0,0,10.319
6440,206.08,0.4777,6.0130,0.2405,0.0734,-0.3384,-0.2729,rough,14.0,0,10.141
6450,206.40,0.7818,5.9091,0.3554,0.0941,-0.3370,-0.3770,rough,14.0,0,9.935
6460,206.72,1.1082,5.7688,0.4795,0.1480,-0.3231,-0.5335,rough,14.0,0,9.693
6470,207.04,1.4142,5.5618,0.5988,0.1793,-0.3073,-0.6400,rough,14.0,0,9.401
6480,207.36,1.7090,5.3148,0.7172,0.2105,-0.2902,-0.7452,rough,14.0,0,9.080
6490,207.68,1.9788,5.0290,0.8279,0.2371,-0.2708,-0.8344,rough,14.0,0,8.732
6500,208.00,2.2278,4.7154,0.9322,0.2591,-0.2518,-0.9120,rough,14.0,0,8.366
6510,208.32,2.4588,4.3773,1.0296,0.2804,-0.2305,-0.9826,rough,14.0,0,7.984
6520,208.64,2.6728,4.0194,1.1192,0.2982,-0.2089,-1.0404,rough,14.0,0,7.588
6530,208.96,2.8672,3.6440,1.1960,0.3227,-0.1825,-1.0913,rough,14.0,0,7.182
6540,209.28,3.0507,3.2586,1.2676,0.3106,-0.1526,-1.1318,rough,14.0,0,6.769
6550,209.60,3.2118,2.8616,1.3347,0.3517,-0.1440,-1.1701,rough,14.0,0,6.351
6560,209.92,3.3656,2.4583,1.3917,0.3640,-0.1292,-1.2118,rough,14.0,0,5.929
6570,210.24,3.5028,2.0453,1.4384,0.3920,-0.1158,-1.2410,rough,14.0,0,5.501
6580,210.56,3.6291,1.6276,1.4839,0.3943,-0.0974,-1.2708,rough,14.0,0,5.070
6590,210.88,3.7441,1.2067,1.5253,0.3997,-0.0933,-1.3108,rough,14.0,0,4.639
6600,211.20,3.8437,0.7820,1.5629,0.3976,-0.0950,-1.3429,rough,14.0,0,4.207
6610,211.52,3.9316,0.3504,1.5988,0.4022,-0.0782,-1.3718,rough,14.0,0,3.769
6620,211.84,4.0092,-0.0820,1.6343,0.4050,-0.0796,-1.3975,rough,14.0,0,3.332
6630,212.16,4.0790,-0.5171,1.6647,0.3775,-0.0747,-1.4211,rough,14.0,0,2.894
6640,212.48,4.1330,-0.9551,1.6986,0.3932,-0.0740,-1.4463,rough,14.0,0,2.454
6650,212.80,4.1840,-1.3989,1.7229,0.3842,-0.0416,-1.4657,rough,14.0,0,2.008
6660,213.12,4.2222,-1.8377,1.7467,0.3708,-0.0520,-1.4856,rough,14.0,0,1.569
6670,213.44,4.2547,-2.2810,1.7605,0.3613,-0.0403,-1.5032,rough,14.0,0,1.126
6680,213.76,4.2763,-2.7215,1.7693,0.3545,-0.0094,-1.5406,rough,14.0,1,7.523
6690,214.08,4.2349,-3.1278,1.7496,0.3406,0.0547,-1.6931,rough,14.0,1,7.195
6700,214.40,4.1390,-3.5381,1.7100,0.3371,0.1061,-1.8178,rough,14.0,1,6.835
6710,214.72,4.0042,-3.9422,1.6481,0.3236,0.1205,-1.9184,rough,14.0,1,6.457
6720,215.04,3.8322,-4.3414,1.5781,0.3115,0.1772,-1.9904,rough,14.0,1,6.062
6730,215.36,3.6509,-4.7331,1.4986,0.3039,0.1929,-2.0344,rough,14.0,1,5.669
6740,215.68,3.4500,-5.1130,1.4096,0.3001,0.2115,-2.0785,rough,14.0,1,5.274
6750,216.00,3.2327,-5.4818,1.3147,0.2859,0.2288,-2.1295,rough,14.0,1,4.879
6760,216.32,3.0024,-5.8412,1.2140,0.2767,0.2412,-2.1740,rough,14.0,1,4.484
6770,216.64,2.7545,-6.1807,1.1076,0.2655,0.2536,-2.2227,rough,14.0,1,4.091
6780,216.96,2.4935,-6.5143,0.9969,0.2558,0.2628,-2.2677,rough,14.0,1,3.695
6790,217.28,2.2164,-6.8325,0.8821,0.2454,0.2713,-2.3145,rough,14.0,1,3.300
6800,217.60,1.9265,-7.1367,0.7646,0.2341,0.2779,-2.3621,rough,14.0,1,2.905
6810,217.92,1.6239,-7.4292,0.6452,0.2226,0.2844,-2.4146,rough,14.0,1,2.512
6820,218.24,1.3058,-7.6990,0.5228,0.2082,0.2887,-2.4683,rough,14.0,1,2.121
6830,218.56,0.9756,-7.9520,0.3996,0.1970,0.2998,-2.5319,rough,14.0,1,1.734
6840,218.88,0.6290,-8.1800,0.2718,0.1743,0.2950,-2.5999,rough,14.0,1,1.352
6850,219.20,0.2790,-8.3849,0.1579,0.1139,0.2739,-2.6958,rough,14.0,1,0.991
6860,219.52,-0.0582,-8.5204,0.0752,0.0434,0.1539,-2.8529,rough,14.0,2,5.603
6870,219.84,-0.3578,-8.5949,0.0510,0.0112,0.0291,-2.9812,rough,14.0,2,5.499
6880,220.16,-0.6984,-8.6305,0.0505,0.0092,-0.0204,3.1021,rough,14.0,2,5.357
6890,220.48,-1.0589,-8.6099,0.0586,0.0135,-0.0214,2.8823,rough,14.0,2,5.174
6900,220.80,-1.4336,-8.4971,0.0682,0.0169,-0.0266,2.7553,rough,14.0,2,4.920
6910,221.12,-1.7885,-8.3392,0.0786,0.0177,-0.0265,2.5990,rough,14.0,2,4.648
6920,221.44,-2.1237,-8.1174,0.0900,0.0199,-0.0293,2.4734,rough,14.0,2,4.338
6930,221.76,-2.4376,-7.8482,0.1025,0.0217,-0.0290,2.3676,rough,14.0,2,4.001
6940,222.08,-2.7204,-7.5445,0.1151,0.0244,-0.0304,2.2661,rough,14.0,2,3.651
6950,222.40,-2.9755,-7.2120,0.1277,0.0254,-0.0295,2.1829,rough,14.0,2,3.289
6960,222.72,-3.2040,-6.8570,0.1397,0.0235,-0.0267,2.1053,rough,14.0,2,2.921
6970,223.04,-3.4011,-6.4809,0.1499,0.0270,-0.0222,2.0146,rough,14.0,2,2.547
6980,223.36,-3.5684,-6.0895,0.1532,0.0434,-0.0003,1.9542,rough,14.0,2,2.172
6990,223.68,-3.7134,-5.7025,0.1667,0.0200,-0.0175,1.8823,rough,14.0,2,1.818
7000,224.00,-3.8265,-5.3210,0.1727,0.0125,-0.0080,1.8133,rough,14.0,2,1.487
7010,224.32,-3.9116,-4.9359,0.1765,0.0090,-0.0057,1.7513,rough,14.0,2,1.181
7020,224.64,-3.9694,-4.5314,0.1792,0.0024,-0.0033,1.6651,rough,14.0,2,0.909
7030,224.96,-3.9929,-4.1070,0.1814,-0.0039,-0.0044,1.5960,rough,14.0,3,10.592
7040,225.28,-3.9990,-3.6712,0.1827,-0.0135,-0.0075,1.5367,rough,14.0,3,10.177
7050,225.60,-3.9804,-3.2337,0.1845,-0.0134,-0.0125,1.4957,rough,14.0,3,9.754
7060,225.92,-3.9467,-2.7950,0.1887,-0.0233,-0.0069,1.4556,rough,14.0,3,9.327
7070,226.24,-3.8951,-2.3577,0.1922,-0.0287,-0.0066,1.4218,rough,14.0,3,8.897
7080,226.56,-3.8285,-1.9222,0.1959,-0.0318,-0.0083,1.3932,rough,14.0,3,8.464
7090,226.88,-3.7489,-1.4876,0.2000,-0.0328,-0.0105,1.3669,rough,14.0,3,8.029
7100,227.20,-3.6573,-1.0534,0.2043,-0.0332,-0.0096,1.3474,rough,14.0,3,7.590
7110,227.52,-3.5574,-0.6216,0.2083,-0.0330,-0.0082,1.3266,rough,14.0,3,7.151
7120,227.84,-3.4484,-0.1905,0.2117,-0.0325,-0.0065,1.3126,rough,14.0,3,6.710
7130,228.16,-3.3332,0.2350,0.2140,-0.0289,-0.0050,1.3050,rough,14.0,3,6.273
7140,228.48,-3.2145,0.6655,0.2156,-0.0251,-0.0030,1.2973,rough,14.0,3,5.830
7150,228.80,-3.0927,1.0935,0.2161,-0.0223,0.0003,1.2879,rough,14.0,3,5.388
7160,229.12,-2.9669,1.5193,0.2151,-0.0227,0.0035,1.2722,rough,14.0,3,4.948
7170,229.44,-2.8341,1.9427,0.2122,-0.0199,0.0100,1.2605,rough,14.0,3,4.507
7180,229.76,-2.6965,2.3672,0.2073,-0.0173,0.0143,1.2518,rough,14.0,3,4.064
7190,230.08,-2.5540,2.7911,0.1988,-0.0161,0.0268,1.2374,rough,14.0,3,3.620
7200,230.40,-2.4067,3.2110,0.1899,-0.0145,0.0257,1.2257,rough,14.0,3,3.179
7210,230.72,-2.2530,3.6284,0.1747,0.0009,0.0213,1.2136,rough,14.0,3,2.738
7220,231.04,-2.0958,4.0469,0.1629,-0.0056,0.0366,1.1988,rough,14.0,3,2.296
7230,231.36,-1.9323,4.4600,0.1465,-0.0032,0.0383,1.1831,rough,14.0,3,1.857
7240,231.68,-1.7629,4.8695,0.1295,-0.0009,0.0385,1.1642,rough,14.0,3,1.421
7250,232.00,-1.5861,5.2748,0.1121,0.0021,0.0374,1.1381,rough,14.0,3,0.990
7260,232.32,-1.4318,5.6151,0.0978,-0.0003,0.0379,0.9852,rough,14.0,0,10.654
7270,232.64,-1.2680,5.8527,0.0873,-0.0081,0.0356,0.7114,rough,14.0,0,10.771
7280,232.96,-1.0580,6.0084,0.0783,-0.0161,0.0310,0.4495,rough,14.0,0,10.801
7290,233.28,-0.7687,6.1084,0.0698,-0.0217,0.0262,0.2962,rough,14.0,0,10.750
7300,233.60,-0.4416,6.1853,0.0621,-0.0259,0.0197,0.1486,rough,14.0,0,10.671
7310,233.92,-0.1546,6.2277,0.0784,-0.0386,-0.1521,-0.0531,rough,14.0,0,10.587
7320,234.24,0.1423,6.1977,0.1389,0.0026,-0.2373,-0.1768,rough,14.0,0,10.440
7330,234.56,0.4105,6.1251,0.2164,0.0522,-0.3364,-0.2474,rough,14.0,0,10.270
7340,234.88,0.7064,6.0243,0.3245,0.0888,-0.3389,-0.3473,rough,14.0,0,10.069
7350,235.20,1.0275,5.8971,0.4458,0.1345,-0.3270,-0.4899,rough,14.0,0,9.841
7360,235.52,1.3392,5.7100,0.5659,0.1731,-0.3117,-0.6135,rough,14.0,0,9.565
7370,235.84,1.6321,5.4748,0.6829,0.2031,-0.2953,-0.7163,rough,14.0,0,9.255
7380,236.16,1.9103,5.2012,0.7962,0.2299,-0.2775,-0.8070,rough,14.0,0,8.916
7390,236.48,2.1691,4.8968,0.9040,0.2522,-0.2591,-0.8898,rough,14.0,0,8.556
7400,236.80,2.4060,4.5652,1.0038,0.2746,-0.2371,-0.9624,rough,14.0,0,8.179
7410,237.12,2.6254,4.2123,1.0967,0.2978,-0.2084,-1.0229,rough,14.0,0,7.787
7420,237.44,2.8260,3.8458,1.1813,0.3076,-0.1975,-1.0814,rough,14.0,0,7.388
7430,237.76,3.0092,3.4617,1.2550,0.3274,-0.1756,-1.1240,rough,14.0,0,6.977
7440,238.08,3.1772,3.0664,1.3220,0.3448,-0.1545,-1.1629,rough,14.0,0,6.559
7450,238.40,3.3383,2.6656,1.3784,0.3536,-0.1570,-1.2022,rough,14.0,0,6.138
7460,238.72,3.4815,2.2535,1.4333,0.3646,-0.1140,-1.2261,rough,14.0,0,5.710
7470,239.04,3.6093,1.8393,1.4794,0.3881,-0.1100,-1.2600,rough,14.0,0,5.283
7480,239.36,3.7287,1.4206,1.5224,0.4008,-0.1079,-1.3002,rough,14.0,0,4.854
7490,239.68,3.8357,0.9963,1.5589,0.3776,-0.0926,-1.3367,rough,14.0,0,4.421
7500,240.00,3.9238,0.5656,1.5969,0.4022,-0.0818,-1.3627,rough,14.0,0,3.984
7510,240.32,4.0052,0.1345,1.6314,0.4061,-0.0870,-1.3895,rough,14.0,0,3.549
7520,240.64,4.0771,-0.3000,1.6664,0.4055,-0.0821,-1.4153,rough,14.0,0,3.111
7530,240.96,4.1364,-0.7378,1.6962,0.3926,-0.0730,-1.4404,rough,14.0,0,2.671
7540,241.28,4.1847,-1.1771,1.7218,0.3811,-0.0598,-1.4626,rough,14.0,0,2.230
7550,241.60,4.2272,-1.6194,1.7456,0.3717,-0.0471,-1.4828,rough,14.0,0,1.787
7560,241.92,4.2594,-2.0632,1.7619,0.3631,-0.0279,-1.5044,rough,14.0,0,1.344
7570,242.24,4.2820,-2.5068,1.7719,0.3554,-0.0157,-1.5277,rough,14.0,0,0.901
7580,242.56,4.2690,-2.9256,1.7654,0.3512,0.0328,-1.6385,rough,14.0,1,7.367
7590,242.88,4.1899,-3.3340,1.7309,0.3367,0.0904,-1.7809,rough,14.0,1,7.016
7600,243.20,4.0661,-3.7437,1.6795,0.3277,0.1315,-1.8826,rough,14.0,1,6.639
7610,243.52,3.9114,-4.1446,1.6081,0.2940,0.1608,-1.9586,rough,14.0,1,6.252
7620,243.84,3.7292,-4.5364,1.5340,0.3065,0.1876,-2.0143,rough,14.0,1,5.856
7630,244.16,3.5303,-4.9166,1.4471,0.2971,0.2054,-2.0697,rough,14.0,1,5.459
7640,244.48,3.3191,-5.2885,1.3547,0.2880,0.2231,-2.1150,rough,14.0,1,5.064
7650,244.80,3.0903,-5.6506,1.2545,0.2790,0.2375,-2.1589,rough,14.0,1,4.665
7660,245.12,2.8471,-5.9964,1.1493,0.2685,0.2500,-2.2070,rough,14.0,1,4.269
7670,245.44,2.5898,-6.3316,1.0397,0.2593,0.2604,-2.2505,rough,14.0,1,3.871
7680,245.76,2.3182,-6.6548,0.9259,0.2487,0.2682,-2.2950,rough,14.0,1,3.474
7690,246.08,2.0347,-6.9677,0.8098,0.2389,0.2751,-2.3400,rough,14.0,1,3.076
7700,246.40,1.7361,-7.2624,0.6903,0.2273,0.2800,-2.3868,rough,14.0,1,2.680
7710,246.72,1.4265,-7.5477,0.5696,0.2153,0.2859,-2.4397,rough,14.0,1,2.285
7720,247.04,1.0997,-7.8090,0.4460,0.2032,0.2905,-2.4908,rough,14.0,1,1.891
7730,247.36,0.7646,-8.0569,0.3220,0.1851,0.2970,-2.5575,rough,14.0,1,1.506
7740,247.68,0.4101,-8.2700,0.1931,0.1707,0.3035,-2.6348,rough,14.0,1,1.125
7750,248.00,0.0573,-8.4549,0.1016,0.0760,0.1881,-2.7169,rough,14.0,2,5.617
7760,248.32,-0.2428,-8.5581,0.0613,-0.0047,0.1291,-2.8738,rough,14.0,2,5.530
7770,248.64,-0.5674,-8.6159,0.0475,0.0059,-0.0217,-2.9840,rough,14.0,2,5.409
7780,248.96,-0.9032,-8.6569,0.0551,0.0099,-0.0230,3.0447,rough,14.0,2,5.285
7790,249.28,-1.2722,-8.6076,0.0643,0.0142,-0.0244,2.8683,rough,14.0,2,5.084
7800,249.60,-1.6435,-8.4950,0.0746,0.0167,-0.0260,2.7151,rough,14.0,2,4.843
7810,249.92,-1.9910,-8.3234,0.0855,0.0184,-0.0267,2.5622,rough,14.0,2,4.572
7820,250.24,-2.3181,-8.0872,0.0971,0.0212,-0.0311,2.4422,rough,14.0,2,4.260
7830,250.56,-2.6206,-7.8170,0.1083,0.0228,-0.0302,2.3355,rough,14.0,2,3.936
7840,250.88,-2.8915,-7.5022,0.1220,0.0263,-0.0287,2.2306,rough,14.0,2,3.586
7850,251.20,-3.1345,-7.1585,0.1339,0.0271,-0.0288,2.1477,rough,14.0,2,3.225
7860,251.52,-3.3438,-6.7937,0.1441,0.0294,-0.0181,2.0563,rough,14.0,2,2.857
7870,251.84,-3.5222,-6.4088,0.1551,0.0251,-0.0177,1.9758,rough,14.0,2,2.483
7880,252.16,-3.6750,-6.0189,0.1590,0.0244,-0.0427,1.9115,rough,14.0,2,2.119
7890,252.48,-3.8044,-5.6359,0.1691,0.0202,-0.0164,1.8528,rough,14.0,2,1.778
7900,252.80,-3.9008,-5.2344,0.1726,0.0135,-0.0215,1.7651,rough,14.0,2,1.438
7910,253.12,-3.9625,-4.8159,0.1774,0.0067,-0.0038,1.6925,rough,14.0,2,1.112
7920,253.44,-3.9986,-4.3842,0.1801,0.0004,-0.0023,1.6341,rough,14.0,2,0.845
7930,253.76,-4.0126,-3.9489,0.1823,-0.0092,0.0006,1.5787,rough,14.0,3,10.446
7940,254.08,-4.0134,-3.5123,0.1845,-0.0138,-0.0023,1.5242,rough,14.0,3,10.030
7950,254.40,-3.9911,-3.0751,0.1860,-0.0221,-0.0065,1.4773,rough,14.0,3,9.607
7960,254.72,-3.9484,-2.6378,0.1892,-0.0256,-0.0086,1.4402,rough,14.0,3,9.179
7970,255.04,-3.8898,-2.2013,0.1928,-0.0296,-0.0097,1.4079,rough,14.0,3,8.748
7980,255.36,-3.8171,-1.7659,0.1968,-0.0326,-0.0090,1.3804,rough,14.0,3,8.314
