step,time_s,x,y,z,roll,pitch,yaw,terrain,speed,target_idx,dist_to_target
10,0.32,0.1046,-0.0580,0.1846,-0.0000,-0.0331,-0.0000,rough,14.0,0,6.883
20,0.64,0.5423,-0.0724,0.1794,-0.0001,0.0023,-0.1170,flat,18.0,0,6.546
30,0.96,1.0723,-0.1574,0.1799,-0.0001,-0.0000,-0.2951,flat,18.0,0,6.106
40,1.28,1.5856,-0.3334,0.1799,-0.0002,-0.0000,-0.4258,flat,18.0,0,5.627
50,1.60,2.0769,-0.5754,0.1798,-0.0004,-0.0000,-0.5278,flat,18.0,0,5.123
60,1.92,2.5463,-0.8677,0.1798,-0.0003,-0.0000,-0.6064,flat,18.0,0,4.601
70,2.24,2.9959,-1.1960,0.1797,-0.0002,-0.0000,-0.6709,flat,18.0,0,4.070
80,2.56,3.4223,-1.5533,0.1797,-0.0002,-0.0000,-0.7356,flat,18.0,0,3.535
90,2.88,3.8242,-1.9384,0.1797,-0.0002,-0.0000,-0.7989,flat,18.0,0,2.996
100,3.20,4.2019,-2.3485,0.1797,-0.0002,-0.0000,-0.8629,flat,18.0,0,2.454
110,3.52,4.5533,-2.7825,0.1797,-0.0002,-0.0000,-0.9327,flat,18.0,0,1.910
120,3.84,4.8730,-3.2397,0.1798,-0.0003,0.0000,-1.0135,flat,18.0,0,1.365
130,4.16,5.1522,-3.7194,0.1798,-0.0004,0.0000,-1.1194,flat,18.0,0,0.824
140,4.48,5.2510,-4.0509,0.1796,-0.0001,-0.0022,-1.5157,flat,18.0,1,12.311
150,4.80,5.2212,-4.4002,0.1799,0.0003,-0.0000,-2.0714,flat,18.0,1,12.630
160,5.12,4.9969,-4.6908,0.1799,0.0001,-0.0000,-2.4778,flat,18.0,1,12.833
170,5.44,4.6466,-4.9098,0.1799,0.0001,-0.0001,-2.8407,flat,18.0,1,12.939
180,5.76,4.1954,-5.0209,0.1799,-0.0000,-0.0000,3.1070,flat,18.0,1,12.927
190,6.08,3.6992,-4.9784,0.1799,0.0000,-0.0000,2.8491,flat,18.0,1,12.773
200,6.40,3.2085,-4.8030,0.1799,-0.0001,-0.0000,2.6602,flat,18.0,1,12.506
210,6.72,2.7484,-4.5320,0.1799,-0.0002,-0.0000,2.5168,flat,18.0,1,12.165
220,7.04,2.3192,-4.1944,0.1798,-0.0004,-0.0000,2.4179,flat,18.0,1,11.776
230,7.36,1.9207,-3.8146,0.1798,-0.0004,-0.0000,2.3346,flat,18.0,1,11.360
240,7.68,1.5500,-3.4013,0.1798,-0.0003,-0.0000,2.2600,flat,18.0,1,10.924
250,8.00,1.2059,-2.9601,0.1797,-0.0002,-0.0000,2.1931,flat,18.0,1,10.472
260,8.32,0.8881,-2.4958,0.1797,-0.0002,-0.0000,2.1333,flat,18.0,1,10.006
270,8.64,0.5968,-2.0124,0.1797,-0.0002,-0.0000,2.0800,flat,18.0,1,9.532
280,8.96,0.3295,-1.5141,0.1797,-0.0002,-0.0000,2.0336,flat,18.0,1,9.050
290,9.28,0.0837,-1.0041,0.1797,-0.0001,-0.0000,1.9926,flat,18.0,1,8.565
300,9.60,-0.1424,-0.4839,0.1797,-0.0001,-0.0000,1.9550,flat,18.0,1,8.078
310,9.92,-0.3499,0.0449,0.1797,-0.0001,-0.0000,1.9200,flat,18.0,1,7.589
320,10.24,-0.5395,0.5811,0.1797,-0.0001,-0.0000,1.8871,flat,18.0,1,7.102
330,10.56,-0.7119,1.1234,0.1797,-0.0001,-0.0000,1.8556,flat,18.0,1,6.617
340,10.88,-0.8676,1.6711,0.1797,-0.0001,-0.0000,1.8247,flat,18.0,1,6.136
350,11.20,-1.0065,2.2233,0.1797,-0.0001,-0.0000,1.7934,flat,18.0,1,5.661
360,11.52,-1.1280,2.7791,0.1797,-0.0001,0.0000,1.7600,flat,18.0,1,5.195
370,11.84,-1.1916,3.3199,0.1799,-0.0002,-0.0000,1.5793,flat,18.0,1,4.737
380,12.16,-1.1792,3.8703,0.1799,-0.0001,-0.0000,1.4335,flat,18.0,1,4.252
390,12.48,-1.0902,4.4155,0.1798,-0.0004,-0.0000,1.3220,flat,18.0,1,3.745
400,12.80,-0.9418,4.9492,0.1798,-0.0004,-0.0000,1.2299,flat,18.0,1,3.225
410,13.12,-0.7450,5.4683,0.1798,-0.0004,-0.0000,1.1495,flat,18.0,1,2.698
420,13.44,-0.5067,5.9702,0.1798,-0.0003,-0.0000,1.0753,flat,18.0,1,2.167
430,13.76,-0.2310,6.4532,0.1797,-0.0003,-0.0000,1.0059,flat,18.0,1,1.637
440,14.08,0.0775,6.9161,0.1797,-0.0002,0.0000,0.9394,flat,18.0,1,1.113
450,14.40,0.3813,7.3149,0.1755,0.0000,-0.0274,0.8553,flat,18.0,2,14.766
460,14.72,0.5512,7.4315,0.1736,-0.0350,0.0008,0.1945,flat,18.0,2,14.958
470,15.04,0.8745,7.4826,0.1799,0.0003,-0.0000,-0.2854,flat,18.0,2,15.185
480,15.36,1.2078,7.3471,0.1799,0.0001,-0.0000,-0.6965,flat,18.0,2,15.271
490,15.68,1.4907,7.0403,0.1799,0.0000,-0.0001,-1.0024,flat,18.0,2,15.198
500,16.00,1.7151,6.6185,0.1799,-0.0000,-0.0000,-1.2853,flat,18.0,2,15.012
510,16.32,1.8343,6.1203,0.1799,0.0000,-0.0000,-1.5358,flat,18.0,2,14.711
520,16.64,1.8316,5.5867,0.1799,-0.0001,-0.0000,-1.7325,flat,18.0,2,14.313
530,16.96,1.7262,5.0527,0.1799,-0.0002,-0.0000,-1.8734,flat,18.0,2,13.853
540,17.28,1.5479,4.5321,0.1798,-0.0004,-0.0000,-1.9747,flat,18.0,2,13.356
550,17.60,1.3178,4.0269,0.1798,-0.0003,-0.0000,-2.0517,flat,18.0,2,12.838
560,17.92,1.0493,3.5369,0.1797,-0.0002,-0.0000,-2.1125,flat,18.0,2,12.305
570,18.24,0.7512,3.0610,0.1797,-0.0002,-0.0000,-2.1619,flat,18.0,2,11.762
580,18.56,0.4297,2.5985,0.1797,-0.0001,-0.0000,-2.2010,flat,18.0,2,11.213
590,18.88,0.0901,2.1470,0.1797,-0.0001,-0.0000,-2.2343,flat,18.0,2,10.659
600,19.20,-0.2646,1.7054,0.1797,-0.0001,-0.0000,-2.2632,flat,18.0,2,10.101
610,19.52,-0.6321,1.2728,0.1797,-0.0001,-0.0000,-2.2888,flat,18.0,2,9.540
620,19.84,-1.0107,0.8486,0.1797,-0.0001,-0.0000,-2.3123,flat,18.0,2,8.977
630,20.16,-1.3993,0.4323,0.1797,-0.0001,-0.0000,-2.3335,flat,18.0,2,8.413
640,20.48,-1.7967,0.0235,0.1797,-0.0001,-0.0000,-2.3526,flat,18.0,2,7.846
650,20.80,-2.2021,-0.3782,0.1797,-0.0001,-0.0000,-2.3700,flat,18.0,2,7.279
660,21.12,-2.6144,-0.7732,0.1797,-0.0001,-0.0000,-2.3863,flat,18.0,2,6.710
670,21.44,-3.0332,-1.1617,0.1797,-0.0001,-0.0000,-2.4017,flat,18.0,2,6.141
680,21.76,-3.4579,-1.5441,0.1797,-0.0001,-0.0000,-2.4161,flat,18.0,2,5.571
690,22.08,-3.8879,-1.9207,0.1797,-0.0000,-0.0000,-2.4297,flat,18.0,2,5.001
700,22.40,-4.3230,-2.2915,0.1797,-0.0000,-0.0000,-2.4428,flat,18.0,2,4.431
710,22.72,-4.7628,-2.6567,0.1797,-0.0000,-0.0000,-2.4558,flat,18.0,2,3.860
720,23.04,-5.2074,-3.0161,0.1797,-0.0000,0.0000,-2.4690,flat,18.0,2,3.290
730,23.36,-5.6566,-3.3694,0.1797,-0.0000,0.0000,-2.4831,flat,18.0,2,2.719
740,23.68,-6.1106,-3.7159,0.1797,-0.0001,0.0000,-2.4989,flat,18.0,2,2.149
750,24.00,-6.5697,-4.0541,0.1797,-0.0001,0.0000,-2.5181,flat,18.0,2,1.579
760,24.32,-7.0340,-4.3808,0.1797,-0.0001,0.0000,-2.5466,flat,18.0,2,1.012
770,24.64,-7.5015,-4.6740,0.1798,-0.0001,0.0000,-2.6367,flat,18.0,3,0.943
780,24.96,-7.8608,-4.8467,0.1789,-0.0002,-0.0064,-2.4703,flat,18.0,0,13.210
790,25.28,-8.1010,-5.0721,0.1800,0.0007,0.0001,-1.9901,flat,18.0,0,13.457
800,25.60,-8.2339,-5.4400,0.1799,0.0001,0.0000,-1.5021,flat,18.0,0,13.610
810,25.92,-8.1803,-5.8396,0.1799,0.0002,-0.0000,-1.1329,flat,18.0,0,13.589
820,26.24,-7.9489,-6.2329,0.1799,0.0001,-0.0000,-0.8653,flat,18.0,0,13.404
830,26.56,-7.5900,-6.5835,0.1799,0.0001,-0.0000,-0.6602,flat,18.0,0,13.098
840,26.88,-7.1489,-6.8815,0.1799,0.0001,-0.0000,-0.4769,flat,18.0,0,12.715
850,27.20,-6.6513,-7.1109,0.1799,0.0001,-0.0000,-0.3208,flat,18.0,0,12.273
860,27.52,-6.1191,-7.2696,0.1799,0.0003,-0.0000,-0.1932,flat,18.0,0,11.789
870,27.84,-5.5675,-7.3646,0.1798,0.0004,-0.0000,-0.0894,flat,18.0,0,11.277
880,28.16,-5.0060,-7.4049,0.1798,0.0004,-0.0000,-0.0046,flat,18.0,0,10.745
890,28.48,-4.4411,-7.3993,0.1797,0.0003,-0.0000,0.0627,flat,18.0,0,10.201
900,28.80,-3.8769,-7.3576,0.1797,0.0002,-0.0000,0.1141,flat,18.0,0,9.648
910,29.12,-3.3143,-7.2876,0.1797,0.0002,-0.0000,0.1557,flat,18.0,0,9.090
920,29.44,-2.7544,-7.1952,0.1797,0.0001,-0.0000,0.1894,flat,18.0,0,8.529
930,29.76,-2.1969,-7.0842,0.1797,0.0001,-0.0000,0.2183,flat,18.0,0,7.966
940,30.08,-1.6420,-6.9574,0.1797,0.0001,-0.0000,0.2436,flat,18.0,0,7.400
950,30.40,-1.0898,-6.8168,0.1797,0.0001,-0.0000,0.2660,flat,18.0,0,6.832
960,30.72,-0.5404,-6.6639,0.1797,0.0001,-0.0000,0.2862,flat,18.0,0,6.263
970,31.04,0.0063,-6.5000,0.1797,0.0001,-0.0000,0.3047,flat,18.0,0,5.694
980,31.36,0.5502,-6.3261,0.1797,0.0001,-0.0000,0.3221,flat,18.0,0,5.123
990,31.68,1.0912,-6.1428,0.1797,0.0001,-0.0000,0.3387,flat,18.0,0,4.552
1000,32.00,1.6290,-5.9505,0.1797,0.0001,-0.0000,0.3551,flat,18.0,0,3.981
1010,32.32,2.1645,-5.7626,0.1797,-0.0000,-0.0000,0.3370,flat,18.0,0,3.414
1020,32.64,2.7074,-5.5731,0.1797,-0.0000,-0.0000,0.3328,flat,18.0,0,2.840
1030,32.96,3.2511,-5.3860,0.1797,-0.0000,0.0000,0.3283,flat,18.0,0,2.265
1040,33.28,3.7955,-5.2014,0.1797,-0.0000,0.0000,0.3230,flat,18.0,0,1.692
1050,33.60,4.3405,-5.0200,0.1797,-0.0000,0.0000,0.3158,flat,18.0,0,1.122
1060,33.92,4.8528,-4.8596,0.1798,-0.0001,0.0002,0.4101,flat,18.0,1,12.950
1070,34.24,5.2162,-4.6638,0.1799,-0.0001,0.0000,0.7119,flat,18.0,1,12.877
1080,34.56,5.4987,-4.3482,0.1799,-0.0000,-0.0000,1.0194,flat,18.0,1,12.676
1090,34.88,5.7176,-3.9208,0.1799,0.0000,-0.0000,1.3065,flat,18.0,1,12.359
1100,35.20,5.8261,-3.4197,0.1799,0.0000,-0.0000,1.5623,flat,18.0,1,11.940
1110,35.52,5.8083,-2.8879,0.1799,0.0001,-0.0000,1.7638,flat,18.0,1,11.448
1120,35.84,5.6859,-2.3592,0.1799,0.0002,-0.0000,1.9070,flat,18.0,1,10.917
1130,36.16,5.4897,-1.8469,0.1798,0.0004,-0.0000,2.0118,flat,18.0,1,10.370
1140,36.48,5.2406,-1.3528,0.1798,0.0004,-0.0000,2.0930,flat,18.0,1,9.817
1150,36.80,4.9517,-0.8766,0.1797,0.0002,-0.0000,2.1585,flat,18.0,1,9.263
1160,37.12,4.6317,-0.4172,0.1797,0.0002,-0.0000,2.2129,flat,18.0,1,8.712
1170,37.44,4.2866,0.0263,0.1797,0.0002,-0.0000,2.2585,flat,18.0,1,8.166
1180,37.76,3.9214,0.4551,0.1797,0.0001,-0.0000,2.2973,flat,18.0,1,7.628
1190,38.08,3.5395,0.8713,0.1797,0.0001,-0.0000,2.3334,flat,18.0,1,7.101
1200,38.40,3.1424,1.2746,0.1797,0.0001,-0.0000,2.3662,flat,18.0,1,6.587
1210,38.72,2.7323,1.6533,0.1797,0.0002,-0.0000,2.4204,flat,18.0,1,6.102
1220,39.04,2.3030,2.0158,0.1797,0.0001,-0.0000,2.4637,flat,18.0,1,5.642
1230,39.36,1.8583,2.3605,0.1797,0.0001,-0.0000,2.5063,flat,18.0,1,5.217
1240,39.68,1.3991,2.6866,0.1797,0.0001,-0.0000,2.5499,flat,18.0,1,4.838
1250,40.00,0.9262,2.9925,0.1797,0.0002,-0.0000,2.5961,flat,18.0,1,4.518
1260,40.32,0.4635,3.2643,0.1798,0.0001,0.0001,2.5358,flat,18.0,1,4.282
1270,40.64,0.0896,3.5830,0.1799,-0.0001,-0.0000,2.2974,flat,18.0,1,4.035
1280,40.96,-0.2220,3.9995,0.1799,-0.0000,-0.0000,2.0734,flat,18.0,1,3.723
1290,41.28,-0.4527,4.4839,0.1799,-0.0000,-0.0000,1.8622,flat,18.0,1,3.365
1300,41.60,-0.5868,5.0106,0.1799,-0.0001,-0.0000,1.6656,flat,18.0,1,2.971
1310,41.92,-0.6191,5.5558,0.1799,-0.0001,-0.0000,1.4855,flat,18.0,1,2.550
1320,42.24,-0.5558,6.0972,0.1799,-0.0001,-0.0000,1.3334,flat,18.0,1,2.115
1330,42.56,-0.4116,6.6096,0.1799,-0.0000,0.0000,1.1584,flat,18.0,1,1.690
1340,42.88,-0.1757,7.0809,0.1799,-0.0000,0.0000,0.9872,flat,18.0,1,1.269
1350,43.20,0.1410,7.4994,0.1799,-0.0000,0.0000,0.8206,flat,18.0,1,0.878
1360,43.52,0.3991,7.7405,0.1791,-0.0003,-0.0041,0.4139,flat,18.0,2,15.130
1370,43.84,0.6810,7.8277,0.1785,0.0005,-0.0094,0.0121,flat,18.0,2,15.359
1380,44.16,1.0428,7.8100,0.1798,-0.0001,-0.0000,-0.4837,flat,18.0,2,15.549
1390,44.48,1.3506,7.5910,0.1799,0.0000,-0.0001,-0.8317,flat,18.0,2,15.552
1400,44.80,1.6162,7.2281,0.1799,0.0000,-0.0000,-1.1249,flat,18.0,2,15.424
1410,45.12,1.7862,6.7794,0.1799,0.0001,-0.0001,-1.4172,flat,18.0,2,15.181
1420,45.44,1.8413,6.2674,0.1799,0.0000,-0.0000,-1.6611,flat,18.0,2,14.826
1430,45.76,1.7727,5.7391,0.1799,-0.0001,-0.0000,-1.8438,flat,18.0,2,14.386
1440,46.08,1.6081,5.2215,0.1799,-0.0002,-0.0000,-1.9751,flat,18.0,2,13.894
1450,46.40,1.3770,4.7229,0.1798,-0.0004,-0.0000,-2.0715,flat,18.0,2,13.373
1460,46.72,1.0984,4.2435,0.1798,-0.0003,-0.0000,-2.1461,flat,18.0,2,12.835
1470,47.04,0.7841,3.7821,0.1797,-0.0002,-0.0000,-2.2060,flat,18.0,2,12.286
1480,47.36,0.4421,3.3372,0.1797,-0.0002,-0.0000,-2.2553,flat,18.0,2,11.730
1490,47.68,0.0782,2.9076,0.1797,-0.0001,-0.0000,-2.2952,flat,18.0,2,11.169
1500,48.00,-0.3029,2.4906,0.1797,-0.0001,-0.0000,-2.3310,flat,18.0,2,10.605
1510,48.32,-0.6991,2.0858,0.1797,-0.0001,-0.0000,-2.3624,flat,18.0,2,10.039
1520,48.64,-1.1080,1.6925,0.1797,-0.0001,-0.0000,-2.3906,flat,18.0,2,9.471
1530,48.96,-1.5280,1.3101,0.1797,-0.0001,-0.0000,-2.4166,flat,18.0,2,8.904
1540,49.28,-1.9576,0.9378,0.1797,-0.0001,-0.0000,-2.4398,flat,18.0,2,8.336
1550,49.60,-2.3957,0.5748,0.1797,-0.0001,-0.0000,-2.4612,flat,18.0,2,7.769
1560,49.92,-2.8416,0.2205,0.1797,-0.0001,-0.0000,-2.4813,flat,18.0,2,7.204
1570,50.24,-3.2948,-0.1254,0.1797,-0.0001,-0.0000,-2.5005,flat,18.0,2,6.640
1580,50.56,-3.7546,-0.4629,0.1797,-0.0001,-0.0000,-2.5190,flat,18.0,2,6.079
1590,50.88,-4.2207,-0.7922,0.1797,-0.0001,-0.0000,-2.5371,flat,18.0,2,5.522
1600,51.20,-4.6927,-1.1133,0.1797,-0.0001,-0.0000,-2.5550,flat,18.0,2,4.970
1610,51.52,-5.1487,-1.4342,0.1797,0.0002,0.0000,-2.4963,flat,18.0,2,4.433
1620,51.84,-5.5895,-1.7805,0.1797,0.0002,-0.0000,-2.4464,flat,18.0,2,3.890
1630,52.16,-6.0126,-2.1487,0.1797,0.0002,-0.0000,-2.3982,flat,18.0,2,3.345
1640,52.48,-6.4173,-2.5373,0.1797,0.0002,-0.0000,-2.3496,flat,18.0,2,2.799
1650,52.80,-6.8012,-2.9452,0.1797,0.0002,0.0000,-2.2977,flat,18.0,2,2.252
1660,53.12,-7.1617,-3.3724,0.1797,0.0002,0.0000,-2.2362,flat,18.0,2,1.707
1670,53.44,-7.4925,-3.8197,0.1798,0.0003,0.0000,-2.1522,flat,18.0,2,1.166
1680,53.76,-7.7719,-4.2857,0.1799,0.0004,-0.0002,-2.0940,flat,18.0,3,0.885
1690,54.08,-7.9776,-4.6827,0.1798,-0.0004,0.0000,-1.7781,flat,18.0,0,13.323
1700,54.40,-8.0377,-5.0685,0.1799,-0.0001,-0.0000,-1.3364,flat,18.0,0,13.394
1710,54.72,-7.9072,-5.4811,0.1799,-0.0001,-0.0001,-1.0246,flat,18.0,0,13.287
1720,55.04,-7.6211,-5.8677,0.1799,0.0000,-0.0000,-0.7963,flat,18.0,0,13.036
1730,55.36,-7.2300,-6.2086,0.1799,0.0000,-0.0000,-0.6105,flat,18.0,0,12.688
1740,55.68,-6.7697,-6.4937,0.1799,0.0001,-0.0000,-0.4467,flat,18.0,0,12.274
1750,56.00,-6.2629,-6.7130,0.1799,0.0002,-0.0000,-0.3106,flat,18.0,0,11.813
1760,56.32,-5.7271,-6.8692,0.1798,0.0004,-0.0000,-0.1993,flat,18.0,0,11.318
1770,56.64,-5.1744,-6.9693,0.1798,0.0004,-0.0000,-0.1082,flat,18.0,0,10.800
1780,56.96,-4.6124,-7.0213,0.1798,0.0003,-0.0000,-0.0335,flat,18.0,0,10.266
1790,57.28,-4.0464,-7.0329,0.1797,0.0002,-0.0000,0.0268,flat,18.0,0,9.721
1800,57.60,-3.4802,-7.0122,0.1797,0.0002,-0.0000,0.0730,flat,18.0,0,9.170
1810,57.92,-2.9401,-6.9607,0.1799,0.0000,0.0000,0.2366,flat,18.0,0,8.637
1820,58.24,-2.4559,-6.8115,0.1799,0.0001,-0.0000,0.4959,flat,18.0,0,8.130
1830,58.56,-2.0090,-6.5400,0.1799,0.0001,-0.0001,0.5644,flat,18.0,0,7.626
1840,58.88,-1.5278,-6.2510,0.1798,-0.0002,-0.0000,0.5015,flat,18.0,0,7.087
1850,59.20,-1.0275,-5.9888,0.1797,-0.0002,-0.0000,0.4438,flat,18.0,0,6.539
1860,59.52,-0.5121,-5.7542,0.1797,-0.0002,-0.0000,0.3921,flat,18.0,0,5.985
1870,59.84,0.0148,-5.5448,0.1797,-0.0002,-0.0000,0.3467,flat,18.0,0,5.427
1880,60.16,0.5504,-5.3582,0.1797,-0.0001,-0.0000,0.3064,flat,18.0,0,4.867
1890,60.48,1.0934,-5.1923,0.1797,-0.0001,-0.0000,0.2688,flat,18.0,0,4.304
1900,60.80,1.6427,-5.0463,0.1797,-0.0001,-0.0000,0.2328,flat,18.0,0,3.739
1910,61.12,2.1970,-4.9197,0.1797,-0.0001,-0.0000,0.1978,flat,18.0,0,3.173
1920,61.44,2.7554,-4.8124,0.1797,-0.0001,-0.0000,0.1624,flat,18.0,0,2.606
1930,61.76,3.3169,-4.7250,0.1797,-0.0001,0.0000,0.1246,flat,18.0,0,2.038
1940,62.08,3.8802,-4.6591,0.1797,-0.0002,0.0000,0.0801,flat,18.0,0,1.471
1950,62.40,4.4436,-4.6194,0.1797,-0.0002,0.0000,0.0153,flat,18.0,0,0.907
1960,62.72,4.9882,-4.6094,0.1798,-0.0005,0.0000,0.1341,flat,18.0,1,12.753
1970,63.04,5.4459,-4.5278,0.1798,-0.0003,0.0001,0.4348,flat,18.0,1,12.826
1980,63.36,5.7805,-4.3274,0.1799,-0.0001,-0.0000,0.7762,flat,18.0,1,12.759
1990,63.68,6.0473,-3.9924,0.1799,-0.0000,-0.0000,1.0894,flat,18.0,1,12.553
2000,64.00,6.2397,-3.5502,0.1799,0.0000,-0.0000,1.3814,flat,18.0,1,12.230
2010,64.32,6.3109,-3.0426,0.1799,0.0001,-0.0000,1.6356,flat,18.0,1,11.805
2020,64.64,6.2543,-2.5136,0.1799,0.0001,-0.0000,1.8283,flat,18.0,1,11.308
2030,64.96,6.0976,-1.9948,0.1799,0.0002,-0.0000,1.9659,flat,18.0,1,10.776
2040,65.28,5.8710,-1.4955,0.1798,0.0004,-0.0000,2.0674,flat,18.0,1,10.229
2050,65.60,5.5942,-1.0163,0.1798,0.0003,-0.0000,2.1458,flat,18.0,1,9.676
2060,65.92,5.2800,-0.5554,0.1797,0.0002,-0.0000,2.2073,flat,18.0,1,9.122
2070,66.24,4.9376,-0.1120,0.1797,0.0002,-0.0000,2.2597,flat,18.0,1,8.570
2080,66.56,4.5719,0.3144,0.1797,0.0002,-0.0000,2.3061,flat,18.0,1,8.025
2090,66.88,4.1862,0.7251,0.1797,0.0001,-0.0000,2.3472,flat,18.0,1,7.488
2100,67.20,3.7837,1.1212,0.1797,0.0001,-0.0000,2.3842,flat,18.0,1,6.961
2110,67.52,3.3666,1.5027,0.1797,0.0001,-0.0000,2.4188,flat,18.0,1,6.450
2120,67.84,2.9369,1.8706,0.1797,0.0001,-0.0000,2.4506,flat,18.0,1,5.956
2130,68.16,2.4957,2.2254,0.1797,0.0001,-0.0000,2.4811,flat,18.0,1,5.487
2140,68.48,2.0437,2.5673,0.1797,0.0001,-0.0000,2.5112,flat,18.0,1,5.048
2150,68.80,1.5815,2.8958,0.1797,0.0001,-0.0000,2.5416,flat,18.0,1,4.648
2160,69.12,1.1095,3.2102,0.1797,0.0001,-0.0000,2.5733,flat,18.0,1,4.301
2170,69.44,0.6281,3.5091,0.1797,0.0001,0.0000,2.6078,flat,18.0,1,4.020
2180,69.76,0.2254,3.7824,0.1799,0.0000,0.0001,2.3820,flat,18.0,1,3.811
2190,70.08,-0.0936,4.1566,0.1799,-0.0000,-0.0000,2.1240,flat,18.0,1,3.533
2200,70.40,-0.3349,4.6194,0.1799,-0.0001,-0.0000,1.8686,flat,18.0,1,3.192
2210,70.72,-0.4657,5.1385,0.1799,-0.0001,-0.0000,1.6270,flat,18.0,1,2.798
2220,71.04,-0.4730,5.6769,0.1799,-0.0001,-0.0000,1.4178,flat,18.0,1,2.363
2230,71.36,-0.3716,6.2051,0.1799,-0.0001,0.0000,1.2496,flat,18.0,1,1.907
2240,71.68,-0.1824,6.7073,0.1799,-0.0001,-0.0000,1.1001,flat,18.0,1,1.445
2250,72.00,0.0819,7.1714,0.1799,-0.0001,-0.0000,0.9555,flat,18.0,1,0.996
2260,72.32,0.3437,7.5200,0.1785,-0.0002,-0.0079,0.7473,flat,18.0,2,14.916
2270,72.64,0.5413,7.6113,0.1776,-0.0131,0.0001,0.1146,flat,18.0,2,15.101
2280,72.96,0.8837,7.6365,0.1799,0.0005,0.0000,-0.3849,flat,18.0,2,15.316
2290,73.28,1.2051,7.4609,0.1799,0.0001,-0.0000,-0.7607,flat,18.0,2,15.360
2300,73.60,1.4813,7.1265,0.1799,0.0000,-0.0000,-1.0583,flat,18.0,2,15.261
2310,73.92,1.6892,6.6858,0.1799,-0.0000,-0.0000,-1.3333,flat,18.0,2,15.047
2320,74.24,1.7871,6.1769,0.1799,0.0000,-0.0000,-1.5748,flat,18.0,2,14.722
2330,74.56,1.7650,5.6404,0.1799,-0.0001,-0.0000,-1.7575,flat,18.0,2,14.307
2340,74.88,1.6467,5.1073,0.1799,-0.0003,-0.0000,-1.8884,flat,18.0,2,13.837
2350,75.20,1.4608,4.5878,0.1798,-0.0004,-0.0000,-1.9834,flat,18.0,2,13.335
2360,75.52,1.2265,4.0835,0.1798,-0.0003,-0.0000,-2.0563,flat,18.0,2,12.812
2370,75.84,0.9558,3.5939,0.1797,-0.0002,-0.0000,-2.1142,flat,18.0,2,12.277
2380,76.16,0.6569,3.1177,0.1797,-0.0002,-0.0000,-2.1612,flat,18.0,2,11.732
2390,76.48,0.3358,2.6544,0.1797,-0.0001,-0.0000,-2.1985,flat,18.0,2,11.181
2400,76.80,-0.0026,2.2015,0.1797,-0.0001,-0.0000,-2.2306,flat,18.0,2,10.626
2410,77.12,-0.3557,1.7582,0.1797,-0.0001,-0.0000,-2.2586,flat,18.0,2,10.067
2420,77.44,-0.7211,1.3236,0.1797,-0.0001,-0.0000,-2.2832,flat,18.0,2,9.506
2430,77.76,-1.0973,0.8969,0.1797,-0.0001,-0.0000,-2.3057,flat,18.0,2,8.943
2440,78.08,-1.4831,0.4778,0.1797,-0.0001,-0.0000,-2.3263,flat,18.0,2,8.377
2450,78.40,-1.8777,0.0660,0.1797,-0.0001,-0.0000,-2.3449,flat,18.0,2,7.810
2460,78.72,-2.2799,-0.3390,0.1797,-0.0001,-0.0000,-2.3618,flat,18.0,2,7.243
2470,79.04,-2.6889,-0.7376,0.1797,-0.0001,-0.0000,-2.3775,flat,18.0,2,6.674
2480,79.36,-3.1043,-1.1300,0.1797,-0.0001,-0.0000,-2.3924,flat,18.0,2,6.104
2490,79.68,-3.5255,-1.5165,0.1797,-0.0001,-0.0000,-2.4065,flat,18.0,2,5.535
2500,80.00,-3.9520,-1.8973,0.1797,-0.0000,-0.0000,-2.4198,flat,18.0,2,4.964
2510,80.32,-4.3835,-2.2726,0.1797,-0.0000,-0.0000,-2.4327,flat,18.0,2,4.394
2520,80.64,-4.8197,-2.6423,0.1797,-0.0000,-0.0000,-2.4453,flat,18.0,2,3.823
2530,80.96,-5.2605,-3.0065,0.1797,-0.0000,0.0000,-2.4582,flat,18.0,2,3.252
2540,81.28,-5.7058,-3.3647,0.1797,-0.0000,0.0000,-2.4719,flat,18.0,2,2.682
2550,81.60,-6.1559,-3.7162,0.1797,-0.0001,0.0000,-2.4874,flat,18.0,2,2.111
2560,81.92,-6.6110,-4.0597,0.1797,-0.0001,0.0000,-2.5065,flat,18.0,2,1.542
2570,82.24,-7.0714,-4.3915,0.1797,-0.0001,0.0000,-2.5352,flat,18.0,2,0.975
2580,82.56,-7.5345,-4.6885,0.1798,-0.0000,0.0000,-2.6314,flat,18.0,3,0.907
2590,82.88,-7.8875,-4.8652,0.1798,0.0001,-0.0000,-2.4591,flat,18.0,0,13.237
2600,83.20,-8.1332,-5.1560,0.1790,0.0051,0.0000,-1.9465,flat,18.0,0,13.493
2610,83.52,-8.2522,-5.5300,0.1799,0.0001,0.0000,-1.4597,flat,18.0,0,13.634
2620,83.84,-8.1797,-5.9307,0.1799,0.0001,-0.0000,-1.1020,flat,18.0,0,13.598
2630,84.16,-7.9333,-6.3200,0.1799,0.0001,-0.0000,-0.8418,flat,18.0,0,13.399
2640,84.48,-7.5644,-6.6652,0.1799,0.0001,-0.0000,-0.6395,flat,18.0,0,13.086
2650,84.80,-7.1163,-6.9561,0.1799,0.0001,-0.0000,-0.4578,flat,18.0,0,12.697
2660,85.12,-6.6140,-7.1771,0.1799,0.0001,-0.0000,-0.3041,flat,18.0,0,12.250
2670,85.44,-6.0789,-7.3276,0.1799,0.0003,-0.0000,-0.1786,flat,18.0,0,11.763
2680,85.76,-5.5256,-7.4149,0.1798,0.0004,-0.0000,-0.0766,flat,18.0,0,11.249
2690,86.08,-4.9635,-7.4481,0.1798,0.0004,-0.0000,0.0067,flat,18.0,0,10.716
2700,86.40,-4.3986,-7.4364,0.1797,0.0003,-0.0000,0.0721,flat,18.0,0,10.170
2710,86.72,-3.8347,-7.3895,0.1797,0.0002,-0.0000,0.1223,flat,18.0,0,9.617
2720,87.04,-3.2727,-7.3150,0.1797,0.0001,-0.0000,0.1629,flat,18.0,0,9.059
2730,87.36,-2.7134,-7.2186,0.1797,0.0001,-0.0000,0.1960,flat,18.0,0,8.498
2740,87.68,-2.1566,-7.1040,0.1797,0.0001,-0.0000,0.2245,flat,18.0,0,7.934
2750,88.00,-1.6024,-6.9737,0.1797,0.0001,-0.0000,0.2494,flat,18.0,0,7.368
2760,88.32,-1.0510,-6.8299,0.1797,0.0001,-0.0000,0.2715,flat,18.0,0,6.800
2770,88.64,-0.5023,-6.6740,0.1797,0.0001,-0.0000,0.2915,flat,18.0,0,6.231
2780,88.96,0.0435,-6.5072,0.1797,0.0001,-0.0000,0.3099,flat,18.0,0,5.661
2790,89.28,0.5865,-6.3304,0.1797,0.0001,-0.0000,0.3271,flat,18.0,0,5.091
2800,89.60,1.1265,-6.1444,0.1797,0.0001,-0.0000,0.3436,flat,18.0,0,4.520
2810,89.92,1.6649,-5.9615,0.1797,0.0000,-0.0000,0.3290,flat,18.0,0,3.952
2820,90.24,2.2099,-5.7756,0.1797,-0.0000,-0.0000,0.3284,flat,18.0,0,3.377
2830,90.56,2.7550,-5.5900,0.1797,-0.0000,-0.0000,0.3279,flat,18.0,0,2.802
2840,90.88,3.3002,-5.4047,0.1797,-0.0000,0.0000,0.3272,flat,18.0,0,2.228
2850,91.20,3.8454,-5.2198,0.1797,-0.0000,0.0000,0.3264,flat,18.0,0,1.654
2860,91.52,4.3908,-5.0354,0.1797,-0.0000,0.0000,0.3253,flat,18.0,0,1.084
2870,91.84,4.9029,-4.8688,0.1798,-0.0001,0.0003,0.4269,flat,18.0,1,12.974
2880,92.16,5.2595,-4.6669,0.1799,-0.0001,0.0000,0.7316,flat,18.0,1,12.894
2890,92.48,5.5388,-4.3436,0.1799,-0.0000,-0.0000,1.0378,flat,18.0,1,12.686
2900,92.80,5.7520,-3.9105,0.1799,0.0000,-0.0000,1.3233,flat,18.0,1,12.362
2910,93.12,5.8528,-3.4063,0.1799,0.0000,-0.0000,1.5770,flat,18.0,1,11.939
2920,93.44,5.8276,-2.8740,0.1799,0.0001,-0.0000,1.7740,flat,18.0,1,11.443
2930,93.76,5.6998,-2.3462,0.1799,0.0002,-0.0000,1.9144,flat,18.0,1,10.911
2940,94.08,5.4998,-1.8350,0.1798,0.0004,-0.0000,2.0174,flat,18.0,1,10.364
2950,94.40,5.2479,-1.3420,0.1798,0.0004,-0.0000,2.0975,flat,18.0,1,9.810
2960,94.72,4.9569,-0.8669,0.1797,0.0002,-0.0000,2.1622,flat,18.0,1,9.256
2970,95.04,4.6352,-0.4085,0.1797,0.0002,-0.0000,2.2159,flat,18.0,1,8.705
2980,95.36,4.2887,0.0340,0.1797,0.0002,-0.0000,2.2609,flat,18.0,1,8.160
2990,95.68,3.9224,0.4621,0.1797,0.0001,-0.0000,2.2995,flat,18.0,1,7.622
3000,96.00,3.5395,0.8775,0.1797,0.0001,-0.0000,2.3354,flat,18.0,1,7.095
3010,96.32,3.1413,1.2688,0.1797,0.0002,-0.0000,2.3897,flat,18.0,1,6.592
3020,96.64,2.7226,1.6446,0.1797,0.0001,-0.0000,2.4327,flat,18.0,1,6.108
3030,96.96,2.2887,2.0032,0.1797,0.0001,-0.0000,2.4728,flat,18.0,1,5.651
3040,97.28,1.8405,2.3450,0.1797,0.0001,-0.0000,2.5128,flat,18.0,1,5.230
3050,97.60,1.3789,2.6692,0.1797,0.0001,-0.0000,2.5537,flat,18.0,1,4.854
3060,97.92,0.9045,2.9742,0.1797,0.0001,-0.0000,2.5972,flat,18.0,1,4.537
3070,98.24,0.4416,3.2462,0.1798,0.0001,0.0001,2.5347,flat,18.0,1,4.303
3080,98.56,0.0682,3.5651,0.1799,-0.0001,-0.0000,2.2962,flat,18.0,1,4.058
3090,98.88,-0.2427,3.9819,0.1799,-0.0000,-0.0000,2.0714,flat,18.0,1,3.747
3100,99.20,-0.4723,4.4667,0.1799,-0.0000,-0.0000,1.8595,flat,18.0,1,3.389
3110,99.52,-0.6051,4.9937,0.1799,-0.0001,-0.0000,1.6626,flat,18.0,1,2.995
3120,99.84,-0.6357,5.5390,0.1799,-0.0001,-0.0000,1.4830,flat,18.0,1,2.573
3130,100.16,-0.5712,6.0803,0.1799,-0.0001,-0.0000,1.3317,flat,18.0,1,2.138
3140,100.48,-0.4261,6.5928,0.1799,-0.0000,0.0000,1.1581,flat,18.0,1,1.711
3150,100.80,-0.1901,7.0646,0.1799,-0.0001,0.0000,0.9887,flat,18.0,1,1.288
3160,101.12,0.1262,7.4846,0.1799,-0.0001,0.0000,0.8245,flat,18.0,1,0.893
3170,101.44,0.3834,7.7276,0.1792,-0.0003,-0.0040,0.4222,flat,18.0,2,15.111
3180,101.76,0.6642,7.8178,0.1785,0.0005,-0.0093,0.0188,flat,18.0,2,15.341
3190,102.08,1.0255,7.8036,0.1799,-0.0000,-0.0001,-0.4781,flat,18.0,2,15.534
3200,102.40,1.3339,7.5871,0.1799,0.0000,-0.0001,-0.8275,flat,18.0,2,15.538
3210,102.72,1.6003,7.2257,0.1799,0.0000,-0.0000,-1.1209,flat,18.0,2,15.412
3220,103.04,1.7868,6.7660,0.1799,-0.0001,-0.0000,-1.3874,flat,18.0,2,15.171
3230,103.36,1.8582,6.2471,0.1799,-0.0001,0.0000,-1.6142,flat,18.0,2,14.822
3240,103.68,1.8145,5.7089,0.1799,-0.0001,-0.0000,-1.7870,flat,18.0,2,14.391
3250,104.00,1.6810,5.1777,0.1799,-0.0003,-0.0000,-1.9078,flat,18.0,2,13.912
3260,104.32,1.4852,4.6607,0.1798,-0.0004,-0.0000,-1.9967,flat,18.0,2,13.404
3270,104.64,1.2442,4.1584,0.1798,-0.0003,-0.0000,-2.0655,flat,18.0,2,12.877
3280,104.96,0.9690,3.6704,0.1797,-0.0002,-0.0000,-2.1205,flat,18.0,2,12.339
3290,105.28,0.6670,3.1957,0.1797,-0.0002,-0.0000,-2.1646,flat,18.0,2,11.793
3300,105.60,0.3443,2.7329,0.1797,-0.0001,-0.0000,-2.2005,flat,18.0,2,11.241
3310,105.92,0.0050,2.2802,0.1797,-0.0001,-0.0000,-2.2314,flat,18.0,2,10.685
3320,106.24,-0.3484,1.8366,0.1797,-0.0001,-0.0000,-2.2583,flat,18.0,2,10.125
3330,106.56,-0.7137,1.4016,0.1797,-0.0001,-0.0000,-2.2820,flat,18.0,2,9.563
3340,106.88,-1.0894,0.9742,0.1797,-0.0001,-0.0000,-2.3037,flat,18.0,2,8.999
3350,107.20,-1.4744,0.5540,0.1797,-0.0001,-0.0000,-2.3236,flat,18.0,2,8.433
3360,107.52,-1.8678,0.1409,0.1797,-0.0001,-0.0000,-2.3416,flat,18.0,2,7.866
3370,107.84,-2.2687,-0.2657,0.1797,-0.0001,-0.0000,-2.3580,flat,18.0,2,7.298
3380,108.16,-2.6762,-0.6661,0.1797,-0.0001,-0.0000,-2.3731,flat,18.0,2,6.729
3390,108.48,-3.0899,-1.0607,0.1797,-0.0001,-0.0000,-2.3874,flat,18.0,2,6.159
3400,108.80,-3.5091,-1.4495,0.1797,-0.0000,-0.0000,-2.4010,flat,18.0,2,5.589
3410,109.12,-3.9336,-1.8328,0.1797,-0.0000,-0.0000,-2.4139,flat,18.0,2,5.018
3420,109.44,-4.3629,-2.2108,0.1797,-0.0000,-0.0000,-2.4263,flat,18.0,2,4.447
3430,109.76,-4.7968,-2.5835,0.1797,-0.0000,-0.0000,-2.4385,flat,18.0,2,3.876
3440,110.08,-5.2352,-2.9508,0.1797,-0.0000,0.0000,-2.4509,flat,18.0,2,3.305
3450,110.40,-5.6779,-3.3125,0.1797,-0.0000,0.0000,-2.4639,flat,18.0,2,2.735
3460,110.72,-6.1253,-3.6679,0.1797,-0.0001,0.0000,-2.4785,flat,18.0,2,2.164
3470,111.04,-6.5774,-4.0157,0.1797,-0.0001,0.0000,-2.4964,flat,18.0,2,1.594
3480,111.36,-7.0347,-4.3528,0.1797,-0.0001,0.0000,-2.5226,flat,18.0,2,1.027
3490,111.68,-7.4942,-4.6591,0.1798,-0.0000,0.0000,-2.6087,flat,18.0,3,0.953
3500,112.00,-7.8475,-4.8400,0.1789,-0.0002,-0.0064,-2.4406,flat,18.0,0,13.196
3510,112.32,-8.0803,-5.0708,0.1800,0.0006,0.0001,-1.9697,flat,18.0,0,13.436
3520,112.64,-8.2060,-5.4401,0.1799,0.0001,0.0000,-1.4847,flat,18.0,0,13.582
3530,112.96,-8.1445,-5.8415,0.1799,0.0002,-0.0000,-1.1228,flat,18.0,0,13.554
3540,113.28,-7.9079,-6.2351,0.1799,0.0001,-0.0000,-0.8603,flat,18.0,0,13.363
3550,113.60,-7.5462,-6.5861,0.1799,0.0001,-0.0000,-0.6590,flat,18.0,0,13.055
3560,113.92,-7.1040,-6.8849,0.1799,0.0001,-0.0000,-0.4797,flat,18.0,0,12.671
3570,114.24,-6.6066,-7.1165,0.1799,0.0001,-0.0000,-0.3281,flat,18.0,0,12.230
3580,114.56,-6.0751,-7.2796,0.1799,0.0003,-0.0000,-0.2045,flat,18.0,0,11.748
3590,114.88,-5.5241,-7.3812,0.1798,0.0004,-0.0000,-0.1042,flat,18.0,0,11.239
3600,115.20,-4.9629,-7.4300,0.1798,0.0004,-0.0000,-0.0224,flat,18.0,0,10.710
3610,115.52,-4.4188,-7.4252,0.1799,0.0001,-0.0000,0.1582,flat,18.0,0,10.186
3620,115.84,-3.8954,-7.3193,0.1799,0.0001,-0.0000,0.3393,flat,18.0,0,9.655
3630,116.16,-3.3962,-7.1202,0.1799,0.0001,-0.0000,0.4837,flat,18.0,0,9.119
3640,116.48,-2.9285,-6.8492,0.1799,0.0003,-0.0000,0.6061,flat,18.0,0,8.595
3650,116.80,-2.4959,-6.5244,0.1798,0.0004,0.0002,0.6762,flat,18.0,0,8.093
3660,117.12,-2.0533,-6.1932,0.1798,-0.0003,-0.0000,0.5897,flat,18.0,0,7.585
3670,117.44,-1.5801,-5.8955,0.1798,-0.0003,-0.0000,0.5089,flat,18.0,0,7.060
3680,117.76,-1.0829,-5.6326,0.1798,-0.0003,-0.0000,0.4371,flat,18.0,0,6.523
3690,118.08,-0.5671,-5.4030,0.1797,-0.0002,-0.0000,0.3731,flat,18.0,0,5.977
3700,118.40,-0.0367,-5.2047,0.1797,-0.0002,-0.0000,0.3156,flat,18.0,0,5.425
3710,118.72,0.5049,-5.0361,0.1797,-0.0002,-0.0000,0.2637,flat,18.0,0,4.867
3720,119.04,1.0552,-4.8946,0.1797,-0.0002,-0.0000,0.2161,flat,18.0,0,4.306
3730,119.36,1.6114,-4.7785,0.1797,-0.0002,0.0000,0.1733,flat,18.0,0,3.742
3740,119.68,2.1716,-4.6855,0.1797,-0.0001,-0.0000,0.1336,flat,18.0,0,3.177
3750,120.00,2.7349,-4.6145,0.1797,-0.0001,-0.0000,0.0939,flat,18.0,0,2.611
3760,120.32,3.3003,-4.5659,0.1797,-0.0001,0.0000,0.0520,flat,18.0,0,2.045
3770,120.64,3.8662,-4.5415,0.1797,-0.0002,0.0000,0.0034,flat,18.0,0,1.479
3780,120.96,4.4297,-4.5451,0.1797,-0.0002,0.0000,-0.0633,flat,18.0,0,0.915
3790,121.28,4.9560,-4.5634,0.1798,-0.0005,0.0001,0.1051,flat,18.0,1,12.699
3800,121.60,5.3690,-4.5008,0.1799,-0.0002,0.0001,0.5001,flat,18.0,1,12.774
3810,121.92,5.6707,-4.2766,0.1799,-0.0001,-0.0001,0.8544,flat,18.0,1,12.671
3820,122.24,5.9267,-3.9105,0.1799,-0.0000,-0.0000,1.1612,flat,18.0,1,12.430
3830,122.56,6.0942,-3.4469,0.1799,0.0000,-0.0000,1.4431,flat,18.0,1,12.075
3840,122.88,6.1360,-2.9291,0.1799,0.0000,-0.0000,1.6846,flat,18.0,1,11.626
3850,123.20,6.0550,-2.3995,0.1799,0.0001,-0.0000,1.8591,flat,18.0,1,11.116
3860,123.52,5.8827,-1.8834,0.1799,0.0003,-0.0000,1.9851,flat,18.0,1,10.578
3870,123.84,5.6466,-1.3867,0.1798,0.0004,-0.0000,2.0797,flat,18.0,1,10.028
3880,124.16,5.3639,-0.9096,0.1798,0.0003,-0.0000,2.1537,flat,18.0,1,9.475
3890,124.48,5.0462,-0.4506,0.1797,0.0002,-0.0000,2.2133,flat,18.0,1,8.921
3900,124.80,4.7010,-0.0090,0.1797,0.0002,-0.0000,2.2648,flat,18.0,1,8.372
3910,125.12,4.3330,0.4161,0.1797,0.0002,-0.0000,2.3089,flat,18.0,1,7.830
3920,125.44,3.9462,0.8265,0.1797,0.0001,-0.0000,2.3483,flat,18.0,1,7.296
3930,125.76,3.5432,1.2226,0.1797,0.0001,-0.0000,2.3839,flat,18.0,1,6.775
3940,126.08,3.1261,1.6047,0.1797,0.0001,-0.0000,2.4175,flat,18.0,1,6.270
3950,126.40,2.6968,1.9734,0.1797,0.0001,-0.0000,2.4486,flat,18.0,1,5.785
3960,126.72,2.2563,2.3293,0.1797,0.0001,-0.0000,2.4786,flat,18.0,1,5.326
3970,127.04,1.8052,2.6724,0.1797,0.0001,-0.0000,2.5086,flat,18.0,1,4.901
3980,127.36,1.3439,3.0020,0.1797,0.0001,-0.0000,2.5392,flat,18.0,1,4.519
3990,127.68,0.8728,3.3172,0.1797,0.0001,0.0000,2.5719,flat,18.0,1,4.195
4000,128.00,0.4189,3.6017,0.1798,0.0001,0.0001,2.4966,flat,18.0,1,3.954
4010,128.32,0.0608,3.9051,0.1799,0.0001,-0.0000,2.2879,flat,18.0,1,3.730
4020,128.64,-0.2333,4.3137,0.1799,0.0000,-0.0000,2.0278,flat,18.0,1,3.433
4030,128.96,-0.4360,4.8009,0.1799,0.0000,-0.0000,1.7736,flat,18.0,1,3.075
4040,129.28,-0.5197,5.3312,0.1799,-0.0000,-0.0000,1.5378,flat,18.0,1,2.667
4050,129.60,-0.4810,5.8678,0.1799,-0.0001,-0.0000,1.3467,flat,18.0,1,2.224
4060,129.92,-0.3423,6.3869,0.1799,-0.0001,-0.0000,1.1878,flat,18.0,1,1.765
4070,130.24,-0.1216,6.8751,0.1799,-0.0001,-0.0000,1.0415,flat,18.0,1,1.305
4080,130.56,0.1711,7.3227,0.1799,-0.0002,0.0000,0.9029,flat,18.0,1,0.868
4090,130.88,0.3794,7.5692,0.1794,-0.0004,-0.0025,0.4627,flat,18.0,2,14.976
4100,131.20,0.6701,7.6720,0.1790,-0.0001,-0.0063,-0.0237,flat,18.0,2,15.224
4110,131.52,1.0334,7.6378,0.1799,0.0002,-0.0001,-0.5229,flat,18.0,2,15.403
4120,131.84,1.3362,7.4038,0.1799,0.0001,-0.0001,-0.8593,flat,18.0,2,15.393
4130,132.16,1.5963,7.0312,0.1799,0.0000,-0.0000,-1.1513,flat,18.0,2,15.257
4140,132.48,1.7713,6.5637,0.1799,-0.0000,-0.0000,-1.4161,flat,18.0,2,15.006
4150,132.80,1.8291,6.0411,0.1799,-0.0000,-0.0000,-1.6406,flat,18.0,2,14.648
4160,133.12,1.7725,5.5035,0.1799,-0.0001,-0.0000,-1.8052,flat,18.0,2,14.212
4170,133.44,1.6295,4.9745,0.1799,-0.0003,-0.0000,-1.9223,flat,18.0,2,13.729
4180,133.76,1.4262,4.4599,0.1798,-0.0004,-0.0000,-2.0091,flat,18.0,2,13.219
4190,134.08,1.1789,3.9605,0.1797,-0.0003,-0.0000,-2.0765,flat,18.0,2,12.692
4200,134.40,0.8984,3.4753,0.1797,-0.0002,-0.0000,-2.1305,flat,18.0,2,12.153
4210,134.72,0.5916,3.0036,0.1797,-0.0002,-0.0000,-2.1738,flat,18.0,2,11.606
4220,135.04,0.2646,2.5437,0.1797,-0.0001,-0.0000,-2.2093,flat,18.0,2,11.054
4230,135.36,-0.0788,2.0939,0.1797,-0.0001,-0.0000,-2.2399,flat,18.0,2,10.497
4240,135.68,-0.4360,1.6534,0.1797,-0.0001,-0.0000,-2.2667,flat,18.0,2,9.938
4250,136.00,-0.8050,1.2214,0.1797,-0.0001,-0.0000,-2.2905,flat,18.0,2,9.376
4260,136.32,-1.1843,0.7971,0.1797,-0.0001,-0.0000,-2.3123,flat,18.0,2,8.812
4270,136.64,-1.5730,0.3803,0.1797,-0.0001,-0.0000,-2.3322,flat,18.0,2,8.246
4280,136.96,-1.9700,-0.0294,0.1797,-0.0001,-0.0000,-2.3502,flat,18.0,2,7.679
4290,137.28,-2.3743,-0.4325,0.1797,-0.0001,-0.0000,-2.3666,flat,18.0,2,7.110
4300,137.60,-2.7853,-0.8293,0.1797,-0.0001,-0.0000,-2.3819,flat,18.0,2,6.541
4310,137.92,-3.2024,-1.2201,0.1797,-0.0001,-0.0000,-2.3965,flat,18.0,2,5.972
4320,138.24,-3.6252,-1.6049,0.1797,-0.0000,-0.0000,-2.4102,flat,18.0,2,5.402
4330,138.56,-4.0531,-1.9843,0.1797,-0.0000,-0.0000,-2.4233,flat,18.0,2,4.831
4340,138.88,-4.4858,-2.3581,0.1797,-0.0000,-0.0000,-2.4359,flat,18.0,2,4.261
4350,139.20,-4.9232,-2.7265,0.1797,-0.0000,0.0000,-2.4485,flat,18.0,2,3.690
4360,139.52,-5.3651,-3.0892,0.1797,-0.0000,0.0000,-2.4614,flat,18.0,2,3.119
4370,139.84,-5.8116,-3.4460,0.1797,-0.0000,0.0000,-2.4753,flat,18.0,2,2.548
4380,140.16,-6.2628,-3.7959,0.1797,-0.0001,0.0000,-2.4912,flat,18.0,2,1.978
4390,140.48,-6.7191,-4.1373,0.1797,-0.0001,0.0000,-2.5115,flat,18.0,2,1.409
4400,140.80,-7.1805,-4.4656,0.1797,-0.0001,0.0000,-2.5446,flat,18.0,2,0.843
4410,141.12,-7.6450,-4.7492,0.1799,-0.0002,0.0000,-2.6752,flat,18.0,0,0.787
4420,141.44,-7.9391,-4.9045,0.1800,-0.0007,-0.0010,-2.2666,flat,18.0,0,13.289
4430,141.76,-8.1356,-5.2370,0.1793,-0.0004,-0.0035,-1.7935,flat,18.0,0,13.499
4440,142.08,-8.2021,-5.6210,0.1799,-0.0001,-0.0001,-1.3419,flat,18.0,0,13.591
4450,142.40,-8.0752,-6.0253,0.1799,-0.0001,-0.0001,-1.0177,flat,18.0,0,13.504
4460,142.72,-7.7881,-6.4050,0.1799,-0.0000,-0.0000,-0.7840,flat,18.0,0,13.267
4470,143.04,-7.3946,-6.7386,0.1799,0.0000,-0.0000,-0.5916,flat,18.0,0,12.931
4480,143.36,-6.9299,-7.0142,0.1799,0.0001,-0.0000,-0.4210,flat,18.0,0,12.525
4490,143.68,-6.4181,-7.2201,0.1799,0.0001,-0.0000,-0.2792,flat,18.0,0,12.069
4500,144.00,-5.8781,-7.3593,0.1799,0.0004,-0.0000,-0.1640,flat,18.0,0,11.576
4510,144.32,-5.3225,-7.4397,0.1798,0.0004,-0.0000,-0.0704,flat,18.0,0,11.059
4520,144.64,-4.7592,-7.4704,0.1798,0.0003,-0.0000,0.0058,flat,18.0,0,10.526
4530,144.96,-4.1936,-7.4597,0.1797,0.0002,-0.0000,0.0650,flat,18.0,0,9.981
4540,145.28,-3.6286,-7.4173,0.1797,0.0002,-0.0000,0.1111,flat,18.0,0,9.429
4550,145.60,-3.0654,-7.3497,0.1797,0.0001,-0.0000,0.1476,flat,18.0,0,8.873
4560,145.92,-2.5039,-7.2621,0.1797,0.0001,-0.0000,0.1782,flat,18.0,0,8.314
4570,146.24,-1.9444,-7.1576,0.1797,0.0001,-0.0000,0.2045,flat,18.0,0,7.751
4580,146.56,-1.3870,-7.0387,0.1797,0.0001,-0.0000,0.2273,flat,18.0,0,7.187
4590,146.88,-0.8317,-6.9073,0.1797,0.0001,-0.0000,0.2474,flat,18.0,0,6.622
4600,147.20,-0.2787,-6.7649,0.1797,0.0001,-0.0000,0.2653,flat,18.0,0,6.055
4610,147.52,0.2721,-6.6127,0.1797,0.0001,-0.0000,0.2815,flat,18.0,0,5.487
4620,147.84,0.8208,-6.4516,0.1797,0.0001,-0.0000,0.2964,flat,18.0,0,4.919
4630,148.16,1.3672,-6.2824,0.1797,0.0000,-0.0000,0.3103,flat,18.0,0,4.350
4640,148.48,1.9114,-6.1057,0.1797,0.0000,-0.0000,0.3236,flat,18.0,0,3.782
4650,148.80,2.4532,-5.9217,0.1797,0.0000,-0.0000,0.3367,flat,18.0,0,3.213
4660,149.12,2.9924,-5.7307,0.1797,0.0000,0.0000,0.3501,flat,18.0,0,2.645
4670,149.44,3.5286,-5.5324,0.1797,0.0001,0.0000,0.3645,flat,18.0,0,2.079
4680,149.76,4.0610,-5.3264,0.1797,0.0001,0.0000,0.3817,flat,18.0,0,1.516
4690,150.08,4.5871,-5.1112,0.1797,0.0001,0.0000,0.4069,flat,18.0,0,0.961
4700,150.40,5.0222,-4.9130,0.1798,-0.0003,0.0001,0.6180,flat,18.0,1,13.052
4710,150.72,5.3217,-4.6347,0.1799,-0.0000,-0.0000,0.9296,flat,18.0,1,12.884
4720,151.04,5.5670,-4.2350,0.1799,0.0000,-0.0000,1.2199,flat,18.0,1,12.595
4730,151.36,5.7142,-3.7501,0.1799,0.0000,-0.0000,1.4822,flat,18.0,1,12.200
4740,151.68,5.7378,-3.2215,0.1799,0.0000,-0.0000,1.6999,flat,18.0,1,11.723
4750,152.00,5.6492,-2.6877,0.1799,0.0001,-0.0000,1.8567,flat,18.0,1,11.200
4760,152.32,5.4790,-2.1672,0.1799,0.0004,-0.0000,1.9699,flat,18.0,1,10.655
4770,152.64,5.2510,-1.6639,0.1798,0.0004,-0.0000,2.0563,flat,18.0,1,10.103
4780,152.96,4.9801,-1.1780,0.1797,0.0003,-0.0000,2.1252,flat,18.0,1,9.548
4790,153.28,4.6758,-0.7087,0.1797,0.0002,-0.0000,2.1819,flat,18.0,1,8.995
4800,153.60,4.3450,-0.2548,0.1797,0.0002,-0.0000,2.2297,flat,18.0,1,8.447
4810,153.92,3.9925,0.1841,0.1797,0.0001,-0.0000,2.2689,flat,18.0,1,7.906
4820,154.24,3.6227,0.6106,0.1797,0.0001,-0.0000,2.3047,flat,18.0,1,7.374
4830,154.56,3.2376,1.0250,0.1797,0.0001,-0.0000,2.3381,flat,18.0,1,6.854
4840,154.88,2.8385,1.4273,0.1797,0.0001,-0.0000,2.3687,flat,18.0,1,6.349
4850,155.20,2.4272,1.8176,0.1797,0.0001,-0.0000,2.3981,flat,18.0,1,5.864
4860,155.52,2.0046,2.1958,0.1797,0.0001,-0.0000,2.4265,flat,18.0,1,5.405
4870,155.84,1.5719,2.5621,0.1797,0.0001,-0.0000,2.4541,flat,18.0,1,4.979
4880,156.16,1.1294,2.9163,0.1797,0.0001,-0.0000,2.4827,flat,18.0,1,4.595
4890,156.48,0.6770,3.2573,0.1797,0.0001,0.0000,2.5137,flat,18.0,1,4.266
4900,156.80,0.2742,3.5697,0.1799,0.0002,0.0000,2.3516,flat,18.0,1,4.010
4910,157.12,-0.0391,3.9573,0.1794,-0.0024,0.0000,2.1020,flat,18.0,1,3.707
4920,157.44,-0.2750,4.4309,0.1799,-0.0000,-0.0000,1.8596,flat,18.0,1,3.340
4930,157.76,-0.4041,4.9541,0.1799,-0.0000,-0.0000,1.6371,flat,18.0,1,2.925
4940,158.08,-0.4188,5.4960,0.1799,-0.0001,-0.0000,1.4425,flat,18.0,1,2.474
4950,158.40,-0.3315,6.0308,0.1799,-0.0001,-0.0000,1.2852,flat,18.0,1,2.003
4960,158.72,-0.1614,6.5439,0.1799,-0.0002,-0.0000,1.1457,flat,18.0,1,1.525
4970,159.04,0.0800,7.0242,0.1799,-0.0002,-0.0000,1.0092,flat,18.0,1,1.057
4980,159.36,0.3397,7.4152,0.1766,0.0003,-0.0208,0.8609,flat,18.0,2,14.826
4990,159.68,0.5083,7.5267,0.1745,0.0012,-0.0365,0.1897,flat,18.0,2,15.013
5000,160.00,0.8573,7.5722,0.1796,0.0019,0.0007,-0.2983,flat,18.0,2,15.248
5010,160.32,1.1922,7.4313,0.1799,0.0001,-0.0001,-0.7023,flat,18.0,2,15.329
5020,160.64,1.4750,7.1213,0.1799,0.0000,-0.0001,-1.0069,flat,18.0,2,15.253
5030,160.96,1.6985,6.6975,0.1799,-0.0000,-0.0000,-1.2882,flat,18.0,2,15.062
5040,161.28,1.8165,6.1981,0.1799,-0.0000,-0.0000,-1.5365,flat,18.0,2,14.758
5050,161.60,1.8131,5.6643,0.1799,-0.0001,-0.0000,-1.7331,flat,18.0,2,14.358
5060,161.92,1.7075,5.1300,0.1799,-0.0002,-0.0000,-1.8725,flat,18.0,2,13.895
5070,162.24,1.5297,4.6088,0.1798,-0.0004,-0.0000,-1.9727,flat,18.0,2,13.398
5080,162.56,1.3007,4.1030,0.1798,-0.0003,-0.0000,-2.0490,flat,18.0,2,12.879
5090,162.88,1.0335,3.6121,0.1797,-0.0002,-0.0000,-2.1094,flat,18.0,2,12.345
5100,163.20,0.7370,3.1350,0.1797,-0.0002,-0.0000,-2.1584,flat,18.0,2,11.802
5110,163.52,0.4172,2.6712,0.1797,-0.0001,-0.0000,-2.1971,flat,18.0,2,11.253
5120,163.84,0.0794,2.2182,0.1797,-0.0001,-0.0000,-2.2301,flat,18.0,2,10.698
5130,164.16,-0.2734,1.7750,0.1797,-0.0001,-0.0000,-2.2588,flat,18.0,2,10.140
5140,164.48,-0.6390,1.3408,0.1797,-0.0001,-0.0000,-2.2841,flat,18.0,2,9.579
5150,164.80,-1.0156,0.9147,0.1797,-0.0001,-0.0000,-2.3072,flat,18.0,2,9.016
5160,165.12,-1.4020,0.4964,0.1797,-0.0001,-0.0000,-2.3283,flat,18.0,2,8.451
5170,165.44,-1.7974,0.0855,0.1797,-0.0001,-0.0000,-2.3473,flat,18.0,2,7.885
5180,165.76,-2.2005,-0.3184,0.1797,-0.0001,-0.0000,-2.3645,flat,18.0,2,7.317
5190,166.08,-2.6107,-0.7158,0.1797,-0.0001,-0.0000,-2.3806,flat,18.0,2,6.749
5200,166.40,-3.0272,-1.1068,0.1797,-0.0001,-0.0000,-2.3958,flat,18.0,2,6.179
5210,166.72,-3.4497,-1.4918,0.1797,-0.0001,-0.0000,-2.4101,flat,18.0,2,5.610
5220,167.04,-3.8775,-1.8710,0.1797,-0.0000,-0.0000,-2.4236,flat,18.0,2,5.039
5230,167.36,-4.3103,-2.2446,0.1797,-0.0000,-0.0000,-2.4365,flat,18.0,2,4.469
5240,167.68,-4.7479,-2.6126,0.1797,-0.0000,-0.0000,-2.4493,flat,18.0,2,3.898
5250,168.00,-5.1901,-2.9750,0.1797,-0.0000,0.0000,-2.4623,flat,18.0,2,3.328
5260,168.32,-5.6370,-3.3314,0.1797,-0.0000,0.0000,-2.4760,flat,18.0,2,2.757
5270,168.64,-6.0885,-3.6812,0.1797,-0.0001,0.0000,-2.4914,flat,18.0,2,2.187
5280,168.96,-6.5451,-4.0230,0.1797,-0.0001,0.0000,-2.5100,flat,18.0,2,1.617
5290,169.28,-7.0069,-4.3538,0.1797,-0.0001,0.0000,-2.5370,flat,18.0,2,1.050
5300,169.60,-7.4715,-4.6539,0.1798,-0.0000,0.0000,-2.6202,flat,18.0,3,0.977
5310,169.92,-7.8481,-4.8350,0.1799,0.0001,0.0007,-2.4910,flat,18.0,0,13.197
5320,170.24,-8.0930,-5.1075,0.1784,0.0093,-0.0000,-1.9858,flat,18.0,0,13.451
5330,170.56,-8.2251,-5.4793,0.1799,-0.0000,0.0001,-1.4912,flat,18.0,0,13.604
5340,170.88,-8.1665,-5.8798,0.1799,0.0002,-0.0000,-1.1266,flat,18.0,0,13.579
5350,171.20,-7.9319,-6.2733,0.1799,0.0001,-0.0000,-0.8626,flat,18.0,0,13.392
5360,171.52,-7.5714,-6.6244,0.1799,0.0001,-0.0000,-0.6604,flat,18.0,0,13.086
5370,171.84,-7.1299,-6.9234,0.1799,0.0001,-0.0000,-0.4802,flat,18.0,0,12.704
5380,172.16,-6.6327,-7.1550,0.1799,0.0001,-0.0000,-0.3277,flat,18.0,0,12.264
5390,172.48,-6.1013,-7.3178,0.1799,0.0003,-0.0000,-0.2034,flat,18.0,0,11.783
5400,172.80,-5.5502,-7.4187,0.1798,0.0004,-0.0000,-0.1026,flat,18.0,0,11.274
5410,173.12,-5.0126,-7.4352,0.1799,0.0002,0.0000,0.1140,flat,18.0,0,10.760
5420,173.44,-4.4777,-7.3544,0.1799,0.0001,-0.0000,0.2774,flat,18.0,0,10.223
5430,173.76,-3.9599,-7.1884,0.1799,0.0003,-0.0000,0.4060,flat,18.0,0,9.680
5440,174.08,-3.4656,-6.9566,0.1798,0.0004,-0.0000,0.5151,flat,18.0,0,9.141
5450,174.40,-2.9966,-6.6704,0.1798,0.0004,-0.0000,0.6063,flat,18.0,0,8.614
5460,174.72,-2.5528,-6.3511,0.1798,0.0002,-0.0001,0.6127,flat,18.0,0,8.107
5470,175.04,-2.0869,-6.0439,0.1798,-0.0003,-0.0000,0.5299,flat,18.0,0,7.586
5480,175.36,-1.5956,-5.7716,0.1798,-0.0003,-0.0000,0.4565,flat,18.0,0,7.052
5490,175.68,-1.0845,-5.5326,0.1797,-0.0002,-0.0000,0.3915,flat,18.0,0,6.508
5500,176.00,-0.5580,-5.3249,0.1797,-0.0002,-0.0000,0.3336,flat,18.0,0,5.957
5510,176.32,-0.0195,-5.1468,0.1797,-0.0002,-0.0000,0.2818,flat,18.0,0,5.401
5520,176.64,0.5282,-4.9954,0.1797,-0.0002,-0.0000,0.2350,flat,18.0,0,4.840
5530,176.96,1.0816,-4.8687,0.1797,-0.0001,-0.0000,0.1947,flat,18.0,0,4.277
5540,177.28,1.6399,-4.7636,0.1797,-0.0001,-0.0000,0.1567,flat,18.0,0,3.713
5550,177.60,2.2020,-4.6794,0.1797,-0.0001,-0.0000,0.1199,flat,18.0,0,3.147
5560,177.92,2.7669,-4.6157,0.1797,-0.0001,-0.0000,0.0830,flat,18.0,0,2.580
5570,178.24,3.3333,-4.5729,0.1797,-0.0001,0.0000,0.0439,flat,18.0,0,2.012
5580,178.56,3.8997,-4.5526,0.1797,-0.0002,0.0000,-0.0014,flat,18.0,0,1.445
5590,178.88,4.4635,-4.5586,0.1797,-0.0002,0.0000,-0.0649,flat,18.0,0,0.882
5600,179.20,4.9911,-4.5725,0.1799,-0.0006,0.0000,0.1245,flat,18.0,1,12.719
5610,179.52,5.4091,-4.5000,0.1799,-0.0002,0.0001,0.5006,flat,18.0,1,12.787
5620,179.84,5.7109,-4.2753,0.1799,-0.0001,-0.0001,0.8551,flat,18.0,1,12.685
5630,180.16,5.9665,-3.9093,0.1799,-0.0000,-0.0000,1.1624,flat,18.0,1,12.445
5640,180.48,6.1334,-3.4458,0.1799,0.0000,-0.0000,1.4448,flat,18.0,1,12.091
5650,180.80,6.1742,-2.9279,0.1799,0.0000,-0.0000,1.6859,flat,18.0,1,11.641
5660,181.12,6.0923,-2.3987,0.1799,0.0001,-0.0000,1.8608,flat,18.0,1,11.132
5670,181.44,5.9191,-1.8830,0.1799,0.0003,-0.0000,1.9870,flat,18.0,1,10.594
5680,181.76,5.6821,-1.3868,0.1798,0.0004,-0.0000,2.0816,flat,18.0,1,10.045
5690,182.08,5.3985,-0.9102,0.1798,0.0003,-0.0000,2.1555,flat,18.0,1,9.491
5700,182.40,5.0798,-0.4517,0.1797,0.0002,-0.0000,2.2149,flat,18.0,1,8.937
5710,182.72,4.7340,-0.0107,0.1797,0.0002,-0.0000,2.2663,flat,18.0,1,8.388
5720,183.04,4.3654,0.4139,0.1797,0.0002,-0.0000,2.3106,flat,18.0,1,7.845
5730,183.36,3.9778,0.8235,0.1797,0.0001,-0.0000,2.3501,flat,18.0,1,7.312
5740,183.68,3.5741,1.2189,0.1797,0.0001,-0.0000,2.3858,flat,18.0,1,6.790
5750,184.00,3.1563,1.6002,0.1797,0.0001,-0.0000,2.4194,flat,18.0,1,6.284
5760,184.32,2.7263,1.9680,0.1797,0.0001,-0.0000,2.4505,flat,18.0,1,5.799
5770,184.64,2.2851,2.3231,0.1797,0.0001,-0.0000,2.4806,flat,18.0,1,5.339
5780,184.96,1.8333,2.6653,0.1797,0.0001,-0.0000,2.5105,flat,18.0,1,4.912
5790,185.28,1.3713,2.9940,0.1797,0.0001,-0.0000,2.5412,flat,18.0,1,4.529
5800,185.60,0.8997,3.3084,0.1797,0.0001,0.0000,2.5736,flat,18.0,1,4.203
5810,185.92,0.4361,3.5944,0.1797,0.0001,0.0002,2.5285,flat,18.0,1,3.959
5820,186.24,0.0800,3.9084,0.1799,-0.0001,-0.0000,2.2669,flat,18.0,1,3.722
5830,186.56,-0.2093,4.3260,0.1799,-0.0000,-0.0000,2.0099,flat,18.0,1,3.412
5840,186.88,-0.4050,4.8186,0.1799,-0.0001,-0.0000,1.7605,flat,18.0,1,3.045
5850,187.20,-0.4822,5.3510,0.1799,-0.0001,-0.0000,1.5306,flat,18.0,1,2.629
5860,187.52,-0.4400,5.8880,0.1799,-0.0001,0.0000,1.3438,flat,18.0,1,2.181
5870,187.84,-0.2998,6.4073,0.1799,-0.0001,0.0000,1.1872,flat,18.0,1,1.719
5880,188.16,-0.0789,6.8957,0.1799,-0.0001,0.0000,1.0418,flat,18.0,1,1.258
5890,188.48,0.2136,7.3432,0.1799,-0.0002,0.0000,0.9025,flat,18.0,1,0.822
5900,188.80,0.3954,7.5590,0.1796,-0.0004,-0.0013,0.3643,flat,18.0,2,14.977
5910,189.12,0.6704,7.6400,0.1790,-0.0048,0.0000,-0.0715,flat,18.0,2,15.198
5920,189.44,1.0264,7.5874,0.1799,0.0003,-0.0000,-0.5518,flat,18.0,2,15.358
5930,189.76,1.3259,7.3411,0.1799,0.0001,-0.0001,-0.8812,flat,18.0,2,15.336
5940,190.08,1.5816,6.9604,0.1799,0.0000,-0.0000,-1.1718,flat,18.0,2,15.192
5950,190.40,1.7487,6.4875,0.1799,-0.0000,-0.0000,-1.4341,flat,18.0,2,14.933
5960,190.72,1.7975,5.9626,0.1799,-0.0000,-0.0000,-1.6550,flat,18.0,2,14.568
5970,191.04,1.7333,5.4252,0.1799,-0.0001,-0.0000,-1.8156,flat,18.0,2,14.128
5980,191.36,1.5849,4.8972,0.1799,-0.0004,-0.0000,-1.9299,flat,18.0,2,13.643
5990,191.68,1.3778,4.3839,0.1798,-0.0004,-0.0000,-2.0149,flat,18.0,2,13.131
6000,192.00,1.1276,3.8856,0.1797,-0.0003,-0.0000,-2.0812,flat,18.0,2,12.603
6010,192.32,0.8447,3.4015,0.1797,-0.0002,-0.0000,-2.1345,flat,18.0,2,12.063
6020,192.64,0.5361,2.9309,0.1797,-0.0002,-0.0000,-2.1771,flat,18.0,2,11.516
6030,192.96,0.2075,2.4720,0.1797,-0.0001,-0.0000,-2.2122,flat,18.0,2,10.963
6040,193.28,-0.1372,2.0231,0.1797,-0.0001,-0.0000,-2.2425,flat,18.0,2,10.407
6050,193.60,-0.4955,1.5834,0.1797,-0.0001,-0.0000,-2.2690,flat,18.0,2,9.847
6060,193.92,-0.8655,1.1522,0.1797,-0.0001,-0.0000,-2.2927,flat,18.0,2,9.285
6070,194.24,-1.2458,0.7287,0.1797,-0.0001,-0.0000,-2.3145,flat,18.0,2,8.720
6080,194.56,-1.6354,0.3127,0.1797,-0.0001,-0.0000,-2.3343,flat,18.0,2,8.154
6090,194.88,-2.0332,-0.0962,0.1797,-0.0001,-0.0000,-2.3522,flat,18.0,2,7.587
6100,195.20,-2.4384,-0.4985,0.1797,-0.0001,-0.0000,-2.3685,flat,18.0,2,7.019
6110,195.52,-2.8502,-0.8945,0.1797,-0.0001,-0.0000,-2.3839,flat,18.0,2,6.450
6120,195.84,-3.2680,-1.2844,0.1797,-0.0001,-0.0000,-2.3985,flat,18.0,2,5.880
6130,196.16,-3.6915,-1.6685,0.1797,-0.0000,-0.0000,-2.4122,flat,18.0,2,5.310
6140,196.48,-4.1202,-2.0469,0.1797,-0.0000,-0.0000,-2.4253,flat,18.0,2,4.740
6150,196.80,-4.5537,-2.4198,0.1797,-0.0000,-0.0000,-2.4380,flat,18.0,2,4.169
6160,197.12,-4.9918,-2.7872,0.1797,-0.0000,0.0000,-2.4507,flat,18.0,2,3.598
6170,197.44,-5.4345,-3.1489,0.1797,-0.0000,0.0000,-2.4638,flat,18.0,2,3.028
6180,197.76,-5.8819,-3.5045,0.1797,-0.0000,0.0000,-2.4781,flat,18.0,2,2.457
6190,198.08,-6.3340,-3.8529,0.1797,-0.0001,0.0000,-2.4947,flat,18.0,2,1.887
6200,198.40,-6.7913,-4.1922,0.1797,-0.0001,0.0000,-2.5164,flat,18.0,2,1.318
6210,198.72,-7.2537,-4.5170,0.1797,-0.0001,0.0000,-2.5542,flat,18.0,3,0.754
6220,199.04,-7.7120,-4.7862,0.1811,-0.0002,0.0087,-2.6946,flat,18.0,0,13.059
6230,199.36,-7.9916,-4.9672,0.1799,-0.0003,0.0000,-2.2579,flat,18.0,0,13.344
6240,199.68,-8.2022,-5.3031,0.1799,-0.0001,-0.0000,-1.7575,flat,18.0,0,13.569
6250,200.00,-8.2532,-5.6867,0.1799,0.0001,-0.0001,-1.3148,flat,18.0,0,13.648
6260,200.32,-8.1119,-6.0914,0.1799,0.0001,-0.0000,-1.0000,flat,18.0,0,13.548
6270,200.64,-7.8150,-6.4675,0.1799,0.0001,-0.0000,-0.7689,flat,18.0,0,13.303
6280,200.96,-7.4152,-6.7971,0.1799,0.0001,-0.0000,-0.5774,flat,18.0,0,12.961
6290,201.28,-6.9459,-7.0671,0.1799,0.0001,-0.0000,-0.4080,flat,18.0,0,12.552
6300,201.60,-6.4311,-7.2671,0.1799,0.0002,-0.0000,-0.2681,flat,18.0,0,12.092
6310,201.92,-5.8894,-7.4007,0.1799,0.0004,-0.0000,-0.1546,flat,18.0,0,11.597
6320,202.24,-5.3328,-7.4762,0.1798,0.0004,-0.0000,-0.0624,flat,18.0,0,11.079
6330,202.56,-4.7691,-7.5024,0.1798,0.0003,-0.0000,0.0127,flat,18.0,0,10.544
6340,202.88,-4.2036,-7.4881,0.1797,0.0002,-0.0000,0.0704,flat,18.0,0,9.999
6350,203.20,-3.6387,-7.4426,0.1797,0.0002,-0.0000,0.1158,flat,18.0,0,9.447
6360,203.52,-3.0757,-7.3725,0.1797,0.0001,-0.0000,0.1516,flat,18.0,0,8.890
6370,203.84,-2.5145,-7.2827,0.1797,0.0001,-0.0000,0.1818,flat,18.0,0,8.330
6380,204.16,-1.9553,-7.1762,0.1797,0.0001,-0.0000,0.2077,flat,18.0,0,7.768
6390,204.48,-1.3982,-7.0555,0.1797,0.0001,-0.0000,0.2302,flat,18.0,0,7.204
6400,204.80,-0.8433,-6.9225,0.1797,0.0001,-0.0000,0.2500,flat,18.0,0,6.638
6410,205.12,-0.2906,-6.7787,0.1797,0.0001,-0.0000,0.2677,flat,18.0,0,6.071
6420,205.44,0.2600,-6.6252,0.1797,0.0001,-0.0000,0.2837,flat,18.0,0,5.503
6430,205.76,0.8083,-6.4629,0.1797,0.0001,-0.0000,0.2984,flat,18.0,0,4.935
6440,206.08,1.3544,-6.2927,0.1797,0.0000,-0.0000,0.3122,flat,18.0,0,4.366
6450,206.40,1.8983,-6.1149,0.1797,0.0000,-0.0000,0.3253,flat,18.0,0,3.797
6460,206.72,2.4399,-5.9301,0.1797,0.0000,-0.0000,0.3382,flat,18.0,0,3.229
6470,207.04,2.9789,-5.7382,0.1797,0.0000,0.0000,0.3514,flat,18.0,0,2.661
6480,207.36,3.5149,-5.5393,0.1797,0.0000,0.0000,0.3656,flat,18.0,0,2.094
6490,207.68,4.0472,-5.3327,0.1797,0.0001,0.0000,0.3825,flat,18.0,0,1.531
6500,208.00,4.5733,-5.1171,0.1797,0.0001,0.0000,0.4070,flat,18.0,0,0.975
6510,208.32,5.0249,-4.9161,0.1798,-0.0002,0.0001,0.5919,flat,18.0,1,13.056
6520,208.64,5.3292,-4.6491,0.1799,-0.0001,-0.0000,0.9046,flat,18.0,1,12.900
6530,208.96,5.5802,-4.2585,0.1799,0.0000,-0.0000,1.1974,flat,18.0,1,12.621
6540,209.28,5.7365,-3.7793,0.1799,0.0001,-0.0000,1.4626,flat,18.0,1,12.235
6550,209.60,5.7694,-3.2533,0.1799,0.0001,0.0000,1.6846,flat,18.0,1,11.765
6560,209.92,5.6881,-2.7190,0.1799,0.0001,-0.0000,1.8480,flat,18.0,1,11.244
6570,210.24,5.5223,-2.1976,0.1799,0.0003,-0.0000,1.9640,flat,18.0,1,10.701
6580,210.56,5.2973,-1.6934,0.1798,0.0004,-0.0000,2.0522,flat,18.0,1,10.149
6590,210.88,5.0283,-1.2068,0.1798,0.0003,-0.0000,2.1224,flat,18.0,1,9.595
6600,211.20,4.7254,-0.7369,0.1797,0.0002,-0.0000,2.1800,flat,18.0,1,9.041
6610,211.52,4.3955,-0.2826,0.1797,0.0002,-0.0000,2.2285,flat,18.0,1,8.493
6620,211.84,4.0434,0.1566,0.1797,0.0001,-0.0000,2.2684,flat,18.0,1,7.951
6630,212.16,3.6739,0.5831,0.1797,0.0001,-0.0000,2.3044,flat,18.0,1,7.418
6640,212.48,3.2889,0.9975,0.1797,0.0001,-0.0000,2.3381,flat,18.0,1,6.897
6650,212.80,2.8898,1.3997,0.1797,0.0001,-0.0000,2.3689,flat,18.0,1,6.390
6660,213.12,2.4785,1.7899,0.1797,0.0001,-0.0000,2.3984,flat,18.0,1,5.903
6670,213.44,2.0558,2.1679,0.1797,0.0001,-0.0000,2.4269,flat,18.0,1,5.442
6680,213.76,1.6229,2.5341,0.1797,0.0001,-0.0000,2.4545,flat,18.0,1,5.012
6690,214.08,1.1802,2.8881,0.1797,0.0001,-0.0000,2.4829,flat,18.0,1,4.624
6700,214.40,0.7277,3.2291,0.1797,0.0001,0.0000,2.5136,flat,18.0,1,4.291
6710,214.72,0.3026,3.5396,0.1798,0.0002,0.0000,2.4079,flat,18.0,1,4.034
6720,215.04,-0.0235,3.9028,0.1799,-0.0001,-0.0000,2.1605,flat,18.0,1,3.755
6730,215.36,-0.2805,4.3568,0.1799,-0.0000,-0.0000,1.9125,flat,18.0,1,3.410
6740,215.68,-0.4340,4.8705,0.1799,-0.0000,-0.0000,1.6794,flat,18.0,1,3.013
6750,216.00,-0.4703,5.4101,0.1799,-0.0000,-0.0000,1.4717,flat,18.0,1,2.574
6760,216.32,-0.3982,5.9461,0.1799,-0.0001,-0.0000,1.3056,flat,18.0,1,2.110
6770,216.64,-0.2384,6.4619,0.1799,-0.0001,-0.0000,1.1615,flat,18.0,1,1.637
6780,216.96,-0.0049,6.9461,0.1799,-0.0002,-0.0000,1.0238,flat,18.0,1,1.169
6790,217.28,0.2892,7.3836,0.1814,-0.0002,0.0111,0.8964,flat,18.0,2,14.772
6800,217.60,0.4502,7.5428,0.1800,-0.0003,-0.0014,0.2755,flat,18.0,2,14.994
6810,217.92,0.7502,7.6211,0.1795,-0.0017,-0.0001,-0.1723,flat,18.0,2,15.227
6820,218.24,1.0987,7.5296,0.1799,0.0001,-0.0000,-0.6197,flat,18.0,2,15.353
6830,218.56,1.3906,7.2546,0.1799,0.0001,-0.0001,-0.9357,flat,18.0,2,15.307
6840,218.88,1.6337,6.8545,0.1799,-0.0000,-0.0000,-1.2226,flat,18.0,2,15.142
6850,219.20,1.7802,6.3692,0.1799,-0.0000,-0.0000,-1.4792,flat,18.0,2,14.863
6860,219.52,1.8063,5.8393,0.1799,-0.0001,-0.0000,-1.6890,flat,18.0,2,14.482
6870,219.84,1.7240,5.3028,0.1799,-0.0001,-0.0000,-1.8405,flat,18.0,2,14.032
6880,220.16,1.5627,4.7776,0.1798,-0.0004,-0.0000,-1.9485,flat,18.0,2,13.541
6890,220.48,1.3460,4.2674,0.1798,-0.0004,-0.0000,-2.0296,flat,18.0,2,13.026
6900,220.80,1.0885,3.7722,0.1797,-0.0002,-0.0000,-2.0933,flat,18.0,2,12.496
6910,221.12,0.7997,3.2911,0.1797,-0.0002,-0.0000,-2.1446,flat,18.0,2,11.955
6920,221.44,0.4863,2.8233,0.1797,-0.0001,-0.0000,-2.1855,flat,18.0,2,11.406
6930,221.76,0.1539,2.3669,0.1797,-0.0001,-0.0000,-2.2197,flat,18.0,2,10.853
6940,222.08,-0.1943,1.9203,0.1797,-0.0001,-0.0000,-2.2493,flat,18.0,2,10.296
6950,222.40,-0.5556,1.4829,0.1797,-0.0001,-0.0000,-2.2753,flat,18.0,2,9.736
6960,222.72,-0.9284,1.0538,0.1797,-0.0001,-0.0000,-2.2987,flat,18.0,2,9.173
6970,223.04,-1.3112,0.6324,0.1797,-0.0001,-0.0000,-2.3202,flat,18.0,2,8.608
6980,223.36,-1.7032,0.2185,0.1797,-0.0001,-0.0000,-2.3397,flat,18.0,2,8.042
6990,223.68,-2.1032,-0.1883,0.1797,-0.0001,-0.0000,-2.3572,flat,18.0,2,7.475
7000,224.00,-2.5104,-0.5887,0.1797,-0.0001,-0.0000,-2.3734,flat,18.0,2,6.906
7010,224.32,-2.9242,-0.9826,0.1797,-0.0001,-0.0000,-2.3887,flat,18.0,2,6.337
7020,224.64,-3.3439,-1.3705,0.1797,-0.0001,-0.0000,-2.4032,flat,18.0,2,5.768
7030,224.96,-3.7692,-1.7526,0.1797,-0.0000,-0.0000,-2.4168,flat,18.0,2,5.197
7040,225.28,-4.1995,-2.1291,0.1797,-0.0000,-0.0000,-2.4298,flat,18.0,2,4.627
7050,225.60,-4.6347,-2.5001,0.1797,-0.0000,-0.0000,-2.4426,flat,18.0,2,4.056
7060,225.92,-5.0745,-2.8654,0.1797,-0.0000,0.0000,-2.4553,flat,18.0,2,3.486
7070,226.24,-5.5188,-3.2250,0.1797,-0.0000,0.0000,-2.4687,flat,18.0,2,2.915
7080,226.56,-5.9679,-3.5783,0.1797,-0.0001,0.0000,-2.4834,flat,18.0,2,2.344
7090,226.88,-6.4218,-3.9241,0.1797,-0.0001,0.0000,-2.5007,flat,18.0,2,1.774
7100,227.20,-6.8809,-4.2601,0.1797,-0.0001,0.0000,-2.5243,flat,18.0,2,1.206
7110,227.52,-7.3423,-4.5749,0.1797,-0.0001,-0.0000,-2.5856,flat,18.0,3,1.122
7120,227.84,-7.7775,-4.8166,0.1799,-0.0002,0.0009,-2.6777,flat,18.0,0,13.126
7130,228.16,-8.0406,-5.0250,0.1798,0.0001,-0.0003,-2.1608,flat,18.0,0,13.395
7140,228.48,-8.2276,-5.3769,0.1799,-0.0001,-0.0000,-1.6617,flat,18.0,0,13.599
7150,228.80,-8.2405,-5.7662,0.1799,0.0001,-0.0001,-1.2451,flat,18.0,0,13.642
7160,229.12,-8.0649,-6.1688,0.1799,0.0001,-0.0000,-0.9492,flat,18.0,0,13.511
7170,229.44,-7.7438,-6.5361,0.1799,0.0001,-0.0000,-0.7302,flat,18.0,0,13.243
7180,229.76,-7.3286,-6.8556,0.1799,0.0001,0.0000,-0.5423,flat,18.0,0,12.887
7190,230.08,-6.8486,-7.1122,0.1799,0.0001,-0.0000,-0.3784,flat,18.0,0,12.466
7200,230.40,-6.3273,-7.2988,0.1799,0.0002,-0.0000,-0.2439,flat,18.0,0,11.998
7210,230.72,-5.7995,-7.3940,0.1799,0.0001,-0.0000,-0.0241,flat,18.0,0,11.509
7220,231.04,-5.2554,-7.3866,0.1799,0.0001,0.0000,0.1536,flat,18.0,0,10.981
7230,231.36,-4.7178,-7.2868,0.1799,0.0002,-0.0000,0.2867,flat,18.0,0,10.436
7240,231.68,-4.1956,-7.1171,0.1798,0.0004,-0.0000,0.3946,flat,18.0,0,9.887
7250,232.00,-3.6933,-6.8918,0.1798,0.0004,-0.0000,0.4881,flat,18.0,0,9.344
7260,232.32,-3.2121,-6.6191,0.1798,0.0004,-0.0000,0.5681,flat,18.0,0,8.810
7270,232.64,-2.7546,-6.3134,0.1798,0.0003,-0.0002,0.6003,flat,18.0,0,8.295
7280,232.96,-2.2850,-6.0128,0.1798,-0.0003,-0.0000,0.5186,flat,18.0,0,7.774
7290,233.28,-1.7906,-5.7457,0.1798,-0.0003,-0.0000,0.4457,flat,18.0,0,7.240
7300,233.60,-1.2768,-5.5118,0.1797,-0.0002,-0.0000,0.3814,flat,18.0,0,6.695
7310,233.92,-0.7481,-5.3093,0.1797,-0.0002,-0.0000,0.3244,flat,18.0,0,6.144
7320,234.24,-0.2078,-5.1359,0.1797,-0.0002,-0.0000,0.2735,flat,18.0,0,5.587
7330,234.56,0.3410,-4.9889,0.1797,-0.0002,0.0000,0.2284,flat,18.0,0,5.026
7340,234.88,0.8952,-4.8655,0.1797,-0.0001,-0.0000,0.1893,flat,18.0,0,4.463
7350,235.20,1.4543,-4.7632,0.1797,-0.0001,-0.0000,0.1525,flat,18.0,0,3.898
7360,235.52,2.0171,-4.6812,0.1797,-0.0001,-0.0000,0.1172,flat,18.0,0,3.331
7370,235.84,2.5825,-4.6187,0.1797,-0.0001,-0.0000,0.0823,flat,18.0,0,2.764
7380,236.16,3.1494,-4.5760,0.1797,-0.0001,0.0000,0.0461,flat,18.0,0,2.196
7390,236.48,3.7168,-4.5540,0.1797,-0.0001,0.0000,0.0057,flat,18.0,0,1.628
7400,236.80,4.2822,-4.5556,0.1797,-0.0002,0.0000,-0.0459,flat,18.0,0,1.063
7410,237.12,4.8272,-4.5738,0.1798,-0.0004,0.0001,0.0344,flat,18.0,1,12.670
7420,237.44,5.2885,-4.5402,0.1798,-0.0002,0.0001,0.3753,flat,18.0,1,12.784
7430,237.76,5.6169,-4.3667,0.1799,-0.0001,-0.0000,0.7564,flat,18.0,1,12.736
7440,238.08,5.8879,-4.0383,0.1799,-0.0000,-0.0000,1.0684,flat,18.0,1,12.533
7450,238.40,6.0881,-3.6008,0.1799,0.0000,-0.0000,1.3600,flat,18.0,1,12.212
7460,238.72,6.1700,-3.0952,0.1799,0.0001,-0.0000,1.6160,flat,18.0,1,11.790
7470,239.04,6.1237,-2.5654,0.1799,0.0001,-0.0000,1.8116,flat,18.0,1,11.295
7480,239.36,5.9757,-2.0442,0.1799,0.0002,-0.0000,1.9515,flat,18.0,1,10.763
7490,239.68,5.7565,-1.5417,0.1798,0.0004,-0.0000,2.0543,flat,18.0,1,10.216
7500,240.00,5.4861,-1.0590,0.1798,0.0004,-0.0000,2.1340,flat,18.0,1,9.663
7510,240.32,5.1775,-0.5949,0.1797,0.0002,-0.0000,2.1971,flat,18.0,1,9.109
7520,240.64,4.8398,-0.1483,0.1797,0.0002,-0.0000,2.2506,flat,18.0,1,8.558
7530,240.96,4.4779,0.2813,0.1797,0.0002,-0.0000,2.2971,flat,18.0,1,8.014
7540,241.28,4.0961,0.6956,0.1797,0.0001,-0.0000,2.3379,flat,18.0,1,7.477
7550,241.60,3.6973,1.0956,0.1797,0.0001,-0.0000,2.3745,flat,18.0,1,6.951
7560,241.92,3.2839,1.4814,0.1797,0.0001,-0.0000,2.4088,flat,18.0,1,6.440
7570,242.24,2.8577,1.8536,0.1797,0.0001,-0.0000,2.4406,flat,18.0,1,5.948
7580,242.56,2.4201,2.2128,0.1797,0.0001,-0.0000,2.4707,flat,18.0,1,5.479
7590,242.88,1.9717,2.5593,0.1797,0.0001,-0.0000,2.5006,flat,18.0,1,5.041
7600,243.20,1.5130,2.8926,0.1797,0.0001,-0.0000,2.5309,flat,18.0,1,4.644
7610,243.52,1.0445,3.2118,0.1797,0.0001,0.0000,2.5626,flat,18.0,1,4.298
7620,243.84,0.5664,3.5155,0.1797,0.0001,0.0000,2.5976,flat,18.0,1,4.020
7630,244.16,0.1821,3.7991,0.1799,0.0001,-0.0000,2.3421,flat,18.0,1,3.804
7640,244.48,-0.1280,4.1890,0.1799,0.0000,-0.0000,2.0857,flat,18.0,1,3.513
7650,244.80,-0.3551,4.6627,0.1799,0.0000,-0.0000,1.8331,flat,18.0,1,3.161
7660,245.12,-0.4693,5.1871,0.1799,-0.0000,-0.0000,1.5966,flat,18.0,1,2.759
7670,245.44,-0.4612,5.7260,0.1799,-0.0001,-0.0000,1.3960,flat,18.0,1,2.318
7680,245.76,-0.3485,6.2523,0.1799,-0.0001,-0.0000,1.2331,flat,18.0,1,1.858
7690,246.08,-0.1510,6.7515,0.1799,-0.0001,-0.0000,1.0861,flat,18.0,1,1.394
7700,246.40,0.1203,7.2120,0.1799,-0.0001,-0.0000,0.9437,flat,18.0,1,0.947
7710,246.72,0.3649,7.5327,0.1788,-0.0002,-0.0061,0.6772,flat,18.0,2,14.938
7720,247.04,0.5772,7.6175,0.1780,-0.0105,0.0001,0.0725,flat,18.0,2,15.127
7730,247.36,0.9252,7.6256,0.1798,-0.0002,0.0001,-0.4234,flat,18.0,2,15.331
7740,247.68,1.2411,7.4320,0.1799,0.0000,-0.0000,-0.7902,flat,18.0,2,15.359
7750,248.00,1.5129,7.0856,0.1799,0.0000,-0.0000,-1.0866,flat,18.0,2,15.248
7760,248.32,1.7112,6.6364,0.1799,-0.0000,-0.0000,-1.3585,flat,18.0,2,15.023
7770,248.64,1.7964,6.1232,0.1799,-0.0002,0.0000,-1.5923,flat,18.0,2,14.688
7780,248.96,1.7639,5.5858,0.1799,-0.0001,-0.0000,-1.7727,flat,18.0,2,14.267
7790,249.28,1.6377,5.0539,0.1799,-0.0003,-0.0000,-1.8993,flat,18.0,2,13.792
7800,249.60,1.4462,4.5360,0.1798,-0.0004,-0.0000,-1.9917,flat,18.0,2,13.287
7810,249.92,1.2076,4.0333,0.1798,-0.0003,-0.0000,-2.0629,flat,18.0,2,12.763
7820,250.24,0.9337,3.5451,0.1797,-0.0002,-0.0000,-2.1196,flat,18.0,2,12.227
7830,250.56,0.6321,3.0704,0.1797,-0.0002,-0.0000,-2.1655,flat,18.0,2,11.681
7840,250.88,0.3090,2.6083,0.1797,-0.0001,-0.0000,-2.2023,flat,18.0,2,11.130
7850,251.20,-0.0311,2.1565,0.1797,-0.0001,-0.0000,-2.2339,flat,18.0,2,10.575
7860,251.52,-0.3856,1.7142,0.1797,-0.0001,-0.0000,-2.2615,flat,18.0,2,10.016
7870,251.84,-0.7524,1.2805,0.1797,-0.0001,-0.0000,-2.2859,flat,18.0,2,9.454
7880,252.16,-1.1297,0.8548,0.1797,-0.0001,-0.0000,-2.3082,flat,18.0,2,8.891
7890,252.48,-1.5166,0.4366,0.1797,-0.0001,-0.0000,-2.3287,flat,18.0,2,8.325
7900,252.80,-1.9121,0.0256,0.1797,-0.0001,-0.0000,-2.3471,flat,18.0,2,7.758
7910,253.12,-2.3152,-0.3786,0.1797,-0.0001,-0.0000,-2.3638,flat,18.0,2,7.190
7920,253.44,-2.7251,-0.7764,0.1797,-0.0001,-0.0000,-2.3795,flat,18.0,2,6.621
7930,253.76,-3.1412,-1.1681,0.1797,-0.0001,-0.0000,-2.3943,flat,18.0,2,6.052
7940,254.08,-3.5631,-1.5538,0.1797,-0.0000,-0.0000,-2.4083,flat,18.0,2,5.482
7950,254.40,-3.9903,-1.9339,0.1797,-0.0000,-0.0000,-2.4215,flat,18.0,2,4.912
7960,254.72,-4.4224,-2.3084,0.1797,-0.0000,-0.0000,-2.4343,flat,18.0,2,4.341
7970,255.04,-4.8591,-2.6775,0.1797,-0.0000,-0.0000,-2.4470,flat,18.0,2,3.770
7980,255.36,-5.3005,-3.0409,0.1797,-0.0000,0.0000,-2.4599,flat,18.0,2,3.200
7990,255.68,-5.7465,-3.3983,0.1797,-0.0000,0.0000,-2.4737,flat,18.0,2,2.629
8000,256.00,-6.1972,-3.7490,0.1797,-0.0001,0.0000,-2.4894,flat,18.0,2,2.059
8010,256.32,-6.6530,-4.0913,0.1797,-0.0001,0.0000,-2.5090,flat,18.0,2,1.489
