step,time_s,x,y,z,roll,pitch,yaw,terrain,speed,target_idx,dist_to_target
10,0.32,-0.1596,1.4500,0.1733,-0.0000,-0.0140,0.0000,flat,18.0,0,4.140
20,0.64,0.0828,1.4507,0.1793,-0.0000,0.0029,0.0799,flat,18.0,0,4.206
30,0.96,0.4023,1.4964,0.1798,-0.0013,-0.0002,0.4966,flat,18.0,0,4.270
40,1.28,0.7449,1.7419,0.1799,0.0000,-0.0001,0.8346,flat,18.0,0,4.189
50,1.60,1.0119,2.1114,0.1799,-0.0000,-0.0000,1.1655,flat,18.0,0,4.004
60,1.92,1.1687,2.5642,0.1799,0.0001,-0.0001,1.5413,flat,18.0,0,3.730
70,2.24,1.1508,3.0463,0.1799,0.0002,-0.0001,1.8858,flat,18.0,0,3.357
80,2.56,0.9643,3.5136,0.1793,0.0025,0.0001,2.0856,flat,18.0,0,2.897
90,2.88,0.6887,3.9549,0.1798,0.0001,0.0001,2.2154,transition,15.0,0,2.401
100,3.20,0.4314,4.2616,0.1799,0.0000,-0.0001,2.3490,transition,15.0,0,2.009
110,3.52,0.1494,4.5195,0.1799,0.0001,0.0000,2.4507,rough,14.0,0,1.630
120,3.84,-0.1139,4.7158,0.1910,-0.0559,-0.0016,2.5047,rough,14.0,0,1.301
130,4.16,-0.3289,4.8667,0.1942,-0.0543,-0.0258,2.5576,rough,14.0,0,1.039
140,4.48,-0.5699,5.0066,0.2024,-0.0735,-0.0578,2.4354,rough,14.0,1,2.406
150,4.80,-0.7601,5.1467,0.2324,-0.0827,-0.1718,2.2468,rough,14.0,1,2.238
160,5.12,-0.9066,5.3081,0.2723,-0.0922,-0.3537,2.1159,rough,14.0,1,2.065
170,5.44,-1.0617,5.5453,0.3555,-0.1109,-0.3465,1.9979,slope,18.0,1,1.825
180,5.76,-1.2080,5.8549,0.4868,-0.1226,-0.4365,1.9373,slope,18.0,1,1.527
190,6.08,-1.3349,6.1675,0.6063,-0.1513,-0.3934,1.8640,slope,18.0,1,1.243
200,6.40,-1.4326,6.4539,0.7148,-0.1900,-0.3921,1.8006,slope,18.0,1,1.005
210,6.72,-1.5280,6.8530,0.8857,-0.1815,-0.4048,1.7435,slope,18.0,2,8.171
220,7.04,-1.5976,7.2698,1.0739,-0.1157,-0.4226,1.6651,slope,18.0,2,8.422
230,7.36,-1.6208,7.6793,1.2525,-0.0698,-0.4138,1.6046,slope,18.0,2,8.643
240,7.68,-1.6409,8.1403,1.3966,-0.0800,-0.2754,1.5874,slope,18.0,2,8.903
250,8.00,-1.6571,8.5026,1.4819,-0.1252,-0.2270,1.5324,slope,18.0,2,9.119
260,8.32,-1.6617,8.8088,1.5350,-0.1323,-0.1926,1.3338,slope,18.0,2,9.301
270,8.64,-1.6235,9.0256,1.5794,-0.0923,-0.2771,1.1003,slope,18.0,2,9.400
280,8.96,-1.5560,9.1957,1.6250,-0.0682,-0.2894,0.8731,slope,18.0,2,9.452
290,9.28,-1.4436,9.2775,1.6683,-0.0180,-0.3134,0.6916,slope,18.0,2,9.416
300,9.60,-1.3166,9.3222,1.7077,0.0606,-0.3133,0.4799,slope,18.0,2,9.348
310,9.92,-1.1761,9.3378,1.7383,0.1207,-0.2758,0.2494,slope,18.0,2,9.251
320,10.24,-1.0298,9.3174,1.7743,0.2150,-0.2342,0.0064,slope,18.0,2,9.127
330,10.56,-0.8654,9.2636,1.7983,0.2842,-0.1342,-0.1988,slope,18.0,2,8.968
340,10.88,-0.6982,9.2001,1.8122,0.3130,-0.0917,-0.3129,slope,18.0,2,8.801
350,11.20,-0.5295,9.1211,1.8221,0.3163,-0.0619,-0.4003,slope,18.0,2,8.624
360,11.52,-0.3396,9.0135,1.8284,0.3259,-0.0359,-0.4947,slope,18.0,2,8.411
370,11.84,-0.1353,8.8806,1.8287,0.3116,-0.0164,-0.5731,slope,18.0,2,8.171
380,12.16,0.0728,8.7312,1.8332,0.3057,-0.0387,-0.6261,rough,14.0,2,7.917
390,12.48,0.2591,8.5710,1.8392,0.3278,-0.0529,-0.6997,rough,14.0,2,7.672
400,12.80,0.4582,8.3832,1.8541,0.3444,-0.0263,-0.7368,rough,14.0,2,7.398
410,13.12,0.6817,8.1559,1.8379,0.4253,0.0552,-0.7300,rough,14.0,2,7.079
420,13.44,0.9400,7.9039,1.8031,0.4538,0.1309,-0.7290,rough,14.0,2,6.719
430,13.76,1.2422,7.5905,1.7034,0.5483,0.2523,-0.6891,slope,18.0,2,6.284
440,14.08,1.6465,7.2256,1.5586,0.6213,0.2897,-0.6725,slope,18.0,2,5.739
450,14.40,2.0447,6.8001,1.3506,0.6307,0.1901,-0.7140,slope,18.0,2,5.158
460,14.72,2.4638,6.3829,1.2000,0.6604,0.2013,-0.7119,slope,18.0,2,4.567
470,15.04,2.8767,5.9846,1.0422,0.6738,0.2712,-0.6616,rough,14.0,2,3.993
480,15.36,3.2268,5.5852,0.8145,0.6786,0.2567,-0.6257,rough,14.0,2,3.466
490,15.68,3.5470,5.1890,0.6087,0.6789,0.1662,-0.7133,rough,14.0,2,2.965
500,16.00,3.8614,4.8278,0.4750,0.6298,0.1586,-0.7765,rough,14.0,2,2.494
510,16.32,4.0776,4.5668,0.3960,0.5250,0.2244,-0.9355,rough,14.0,2,2.164
520,16.64,4.2430,4.3136,0.3079,0.2961,0.4230,-1.1318,rough,14.0,2,1.884
530,16.96,4.3129,4.0993,0.2465,0.2922,0.0440,-1.2783,rough,14.0,2,1.715
540,17.28,4.4394,3.7819,0.2261,0.1029,0.1934,-1.2471,rough,14.0,2,1.471
550,17.60,4.5417,3.5304,0.1821,0.0069,-0.0026,-1.2542,transition,15.0,2,1.307
560,17.92,4.6356,3.2300,0.1794,0.0008,-0.0020,-1.2807,flat,18.0,2,1.193
570,18.24,4.7265,2.9206,0.1788,-0.0029,-0.0032,-1.2554,flat,18.0,2,1.162
580,18.56,4.8212,2.6403,0.1797,0.0001,0.0001,-1.0354,flat,18.0,2,1.200
590,18.88,4.9814,2.4255,0.1798,-0.0000,-0.0000,-0.7475,flat,18.0,2,1.212
600,19.20,5.2035,2.2644,0.1798,-0.0000,0.0002,-0.4762,flat,18.0,2,1.204
610,19.52,5.4554,2.1497,0.1798,-0.0003,0.0000,-0.1561,transition,15.0,2,1.203
620,19.84,5.6756,2.1010,0.1798,-0.0001,-0.0001,0.1855,rough,14.0,2,1.202
630,20.16,5.8796,2.1335,0.1798,-0.0001,-0.0000,0.4623,rough,14.0,2,1.161
640,20.48,6.0612,2.2334,0.1799,-0.0001,-0.0000,0.6648,rough,14.0,2,1.086
650,20.80,6.1941,2.3397,0.2003,-0.0010,-0.1419,0.8333,rough,14.0,2,1.022
660,21.12,6.2817,2.4530,0.2253,0.0008,-0.3417,0.9361,rough,14.0,3,1.760
670,21.44,6.3655,2.6195,0.2488,-0.1253,-0.3523,0.6965,rough,14.0,3,1.753
680,21.76,6.4736,2.6868,0.3184,-0.0875,-0.6117,0.3780,rough,14.0,3,1.692
690,22.08,6.7022,2.6871,0.4029,0.2433,-0.4250,-0.0185,rough,14.0,3,1.501
700,22.40,6.9593,2.5853,0.4305,0.5110,-0.3019,-0.2810,rough,14.0,3,1.235
710,22.72,7.1748,2.4691,0.4829,0.5691,-0.2446,-0.4755,rough,14.0,0,0.995
720,23.04,7.3441,2.2940,0.4841,0.5675,-0.0617,-0.8126,slope,18.0,0,9.094
730,23.36,7.3876,2.0818,0.4283,0.4449,0.2521,-1.4529,slope,18.0,0,9.210
740,23.68,7.2428,1.8418,0.3150,-0.0014,0.4609,-2.2067,rough,14.0,0,9.168
750,24.00,7.0219,1.6297,0.2298,-0.0298,0.1272,-2.4806,slope,18.0,0,9.053
760,24.32,6.6498,1.3483,0.1819,0.0195,0.0013,-2.5679,flat,18.0,0,8.845
770,24.64,6.2281,1.1188,0.1798,0.0001,-0.0002,-2.7472,flat,18.0,0,8.587
780,24.96,5.8092,0.9827,0.1798,0.0014,-0.0001,3.0443,flat,18.0,0,8.301
790,25.28,5.3661,1.0606,0.1799,-0.0001,-0.0001,2.6836,flat,18.0,0,7.888
800,25.60,4.9437,1.3115,0.1789,0.0023,-0.0040,2.5008,flat,18.0,0,7.398
810,25.92,4.5338,1.6484,0.1799,-0.0002,0.0000,2.3936,flat,18.0,0,6.870
820,26.24,4.1347,2.0377,0.1799,-0.0001,-0.0000,2.3508,flat,18.0,0,6.322
830,26.56,3.7338,2.4396,0.1799,0.0001,0.0000,2.3688,flat,18.0,0,5.769
840,26.88,3.3298,2.8156,0.1799,0.0002,0.0000,2.4250,flat,18.0,0,5.229
850,27.20,2.9070,3.1599,0.1799,0.0001,0.0000,2.4995,flat,18.0,0,4.691
860,27.52,2.4578,3.4714,0.1799,0.0001,0.0000,2.5764,flat,18.0,0,4.147
870,27.84,1.9850,3.7518,0.1799,-0.0002,-0.0000,2.6731,flat,18.0,0,3.598
880,28.16,1.4807,3.9917,0.1799,-0.0003,-0.0000,2.7575,flat,18.0,0,3.040
890,28.48,0.9625,4.1922,0.1802,-0.0009,-0.0021,2.8051,flat,18.0,0,2.491
900,28.80,0.4615,4.3591,0.1784,-0.0001,-0.0060,2.8339,transition,15.0,0,1.978
910,29.12,0.0688,4.4816,0.1797,0.0000,-0.0006,2.8657,transition,15.0,0,1.588
920,29.44,-0.2884,4.5777,0.1799,0.0002,-0.0001,2.9390,slope,18.0,0,1.256
930,29.76,-0.6573,4.6374,0.1821,-0.0016,-0.0132,2.9938,slope,18.0,1,0.977
940,30.08,-1.0865,4.6885,0.1862,-0.0380,0.0021,2.7705,slope,18.0,1,2.682
950,30.40,-1.4088,4.8112,0.2071,-0.0083,-0.1679,2.3731,slope,18.0,1,2.588
960,30.72,-1.6742,5.0742,0.2626,-0.0294,-0.1726,2.1109,slope,18.0,1,2.387
970,31.04,-1.8549,5.3765,0.3371,-0.0002,-0.2654,1.9275,slope,18.0,1,2.162
980,31.36,-1.9876,5.7126,0.4212,-0.0226,-0.2577,1.8145,slope,18.0,1,1.919
990,31.68,-2.0787,6.0405,0.5042,-0.0642,-0.2786,1.7476,slope,18.0,1,1.700
1000,32.00,-2.1415,6.3261,0.6015,-0.0860,-0.3824,1.6748,slope,18.0,1,1.533
1010,32.32,-2.1728,6.5714,0.6964,-0.0901,-0.3951,1.6356,slope,18.0,1,1.403
1020,32.64,-2.1882,6.7720,0.7870,-0.0841,-0.4288,1.6107,slope,18.0,1,1.313
1030,32.96,-2.1984,6.9405,0.8613,-0.0757,-0.4741,1.5992,slope,18.0,1,1.255
1040,33.28,-2.2078,7.1655,0.9722,-0.0743,-0.4438,1.5873,slope,18.0,1,1.206
1050,33.60,-2.2159,7.4168,1.0890,-0.0950,-0.4163,1.5835,slope,18.0,1,1.197
1060,33.92,-2.2171,7.6820,1.2007,-0.0840,-0.3900,1.5703,slope,18.0,1,1.238
1070,34.24,-2.2250,8.1272,1.3306,-0.1199,-0.2396,1.5267,slope,18.0,1,1.424
1080,34.56,-2.2158,8.5217,1.4015,-0.1401,-0.1645,1.3410,slope,18.0,1,1.661
1090,34.88,-2.1466,8.8136,1.4464,-0.1187,-0.1711,1.1413,slope,18.0,1,1.832
1100,35.20,-2.0475,9.0212,1.4890,-0.0846,-0.2080,0.9573,slope,18.0,1,1.945
1110,35.52,-1.9544,9.1784,1.5304,-0.0577,-0.2472,0.7796,slope,18.0,1,2.036
1120,35.84,-1.8321,9.2593,1.5695,-0.0150,-0.2810,0.6023,slope,18.0,1,2.057
1130,36.16,-1.7027,9.3152,1.6109,0.0483,-0.3062,0.4172,slope,18.0,1,2.062
1140,36.48,-1.5646,9.3352,1.6524,0.0970,-0.2999,0.2257,slope,18.0,1,2.039
1150,36.80,-1.4155,9.3257,1.6892,0.1571,-0.2611,0.0345,slope,18.0,1,1.995
1160,37.12,-1.2658,9.2918,1.7152,0.2282,-0.2007,-0.1325,slope,18.0,1,1.938
1170,37.44,-1.1329,9.2619,1.7375,0.2546,-0.1961,-0.1719,slope,18.0,1,1.895
1180,37.76,-0.9938,9.2313,1.7640,0.2622,-0.1865,-0.1988,slope,18.0,1,1.862
1190,38.08,-0.8327,9.1849,1.7836,0.3070,-0.1248,-0.2300,slope,18.0,1,1.824
1200,38.40,-0.6637,9.1305,1.8011,0.3129,-0.0935,-0.2840,slope,18.0,1,1.796
1210,38.72,-0.4696,9.0408,1.8107,0.3191,-0.0662,-0.4031,slope,18.0,1,1.759
1220,39.04,-0.2630,8.9249,1.8184,0.3245,-0.0374,-0.4981,slope,18.0,1,1.729
1230,39.36,-0.0482,8.7853,1.8221,0.3277,-0.0235,-0.5626,slope,18.0,1,1.716
1240,39.68,0.1642,8.6330,1.8331,0.3211,-0.0699,-0.6358,rough,14.0,1,1.731
1250,40.00,0.3668,8.4665,1.8435,0.3144,-0.0485,-0.6902,rough,14.0,1,1.767
1260,40.32,0.5781,8.2613,1.8471,0.3903,0.0091,-0.7082,rough,14.0,1,1.829
1270,40.64,0.8153,8.0173,1.8226,0.4567,0.0664,-0.6938,rough,14.0,1,1.946
1280,40.96,1.0997,7.7380,1.7701,0.5710,0.1884,-0.6434,rough,14.0,1,2.151
1290,41.28,1.4668,7.4334,1.6481,0.5733,0.2073,-0.6284,slope,18.0,1,2.487
1300,41.60,1.7689,7.1569,1.5316,0.6447,0.2309,-0.6129,slope,18.0,1,2.796
1310,41.92,1.9299,6.9402,1.4214,0.5557,0.4240,-0.9649,slope,18.0,1,2.981
1320,42.24,1.9678,6.7023,1.2605,0.3527,0.5936,-1.4035,rough,14.0,1,3.061
1330,42.56,1.9897,6.3811,1.0335,0.3225,0.5971,-1.4599,rough,14.0,1,3.167
1340,42.88,2.0200,6.0824,0.8466,0.2609,0.5956,-1.4805,rough,14.0,1,3.301
1350,43.20,2.0414,5.7933,0.6525,0.2225,0.5555,-1.4955,rough,14.0,1,3.443
1360,43.52,2.0663,5.5746,0.5396,0.1078,0.5438,-1.5257,rough,14.0,1,3.570
1370,43.84,2.0762,5.3554,0.4113,0.0768,0.5482,-1.5433,rough,14.0,1,3.693
1380,44.16,2.0855,5.1554,0.3236,0.0289,0.3995,-1.5599,rough,14.0,1,3.814
1390,44.48,2.0711,4.9230,0.2329,-0.0294,0.3487,-1.6776,slope,18.0,1,3.942
1400,44.80,2.0373,4.7076,0.2021,-0.0104,0.1479,-1.8907,slope,18.0,1,4.054
1410,45.12,1.9879,4.5221,0.1788,0.0029,-0.0018,-2.2546,flat,18.0,1,4.142
1420,45.44,1.8856,4.4445,0.1799,0.0000,0.0001,-2.7460,transition,15.0,1,4.123
1430,45.76,1.6369,4.3718,0.1799,-0.0004,-0.0013,-3.1349,transition,15.0,1,4.006
1440,46.08,1.2509,4.3771,0.1811,-0.0047,-0.0029,3.0957,transition,15.0,1,3.757
1450,46.40,0.8012,4.3815,0.1799,-0.0008,0.0007,-3.0426,flat,18.0,1,3.499
1460,46.72,0.3336,4.3351,0.1799,-0.0002,0.0001,-3.0908,flat,18.0,1,3.323
1470,47.04,-0.1438,4.3190,0.1799,-0.0000,0.0000,3.0908,flat,18.0,1,3.174
1480,47.36,-0.6424,4.3488,0.1799,-0.0001,-0.0000,3.0420,transition,15.0,1,3.045
1490,47.68,-1.0767,4.3915,0.1799,-0.0001,0.0001,2.9870,transition,15.0,1,2.979
1500,48.00,-1.4736,4.4526,0.1882,-0.0057,-0.0420,2.7285,slope,18.0,1,2.952
1510,48.32,-1.7816,4.5892,0.2120,-0.0090,-0.1513,2.2945,slope,18.0,1,2.883
1520,48.64,-2.0054,4.8965,0.2718,0.0329,-0.1830,1.9601,slope,18.0,1,2.663
1530,48.96,-2.1447,5.2358,0.3355,0.0315,-0.1717,1.8044,slope,18.0,1,2.413
1540,49.28,-2.2377,5.5889,0.3928,-0.0124,-0.1630,1.7163,slope,18.0,1,2.158
1550,49.60,-2.2876,5.9036,0.4651,-0.0085,-0.3036,1.6600,slope,18.0,1,1.939
1560,49.92,-2.3246,6.2360,0.5615,-0.0246,-0.3196,1.5800,slope,18.0,1,1.729
1570,50.24,-2.3295,6.5081,0.6617,-0.0430,-0.4071,1.5814,slope,18.0,1,1.568
1580,50.56,-2.3354,6.7417,0.7623,-0.0620,-0.4290,1.5806,slope,18.0,1,1.458
1590,50.88,-2.3392,6.9373,0.8518,-0.0661,-0.4583,1.5850,slope,18.0,1,1.389
1600,51.20,-2.3414,7.1201,0.9443,-0.0589,-0.4645,1.5781,slope,18.0,1,1.345
1610,51.52,-2.3458,7.3002,1.0245,-0.0775,-0.4339,1.5749,slope,18.0,1,1.328
1620,51.84,-2.3491,7.4833,1.1049,-0.0918,-0.4134,1.5713,slope,18.0,1,1.335
1630,52.16,-2.3530,7.7565,1.2099,-0.1238,-0.3567,1.5759,slope,18.0,1,1.388
1640,52.48,-2.3606,8.1977,1.3258,-0.1413,-0.2329,1.5004,slope,18.0,1,1.576
1650,52.80,-2.3383,8.5766,1.3842,-0.1623,-0.1526,1.3335,slope,18.0,1,1.788
1660,53.12,-2.2663,8.8369,1.4260,-0.1455,-0.1494,1.2290,slope,18.0,1,1.925
1670,53.44,-2.2052,9.0480,1.4620,-0.1125,-0.2133,0.9995,slope,18.0,1,2.055
1680,53.76,-2.1155,9.1944,1.4992,-0.0920,-0.2447,0.8167,slope,18.0,1,2.128
1690,54.08,-1.9965,9.2687,1.5371,-0.0528,-0.2849,0.6444,slope,18.0,1,2.135
1700,54.40,-1.8631,9.3125,1.5725,0.0198,-0.2808,0.4496,slope,18.0,1,2.118
1710,54.72,-1.7284,9.3252,1.6074,0.0940,-0.2931,0.2411,slope,18.0,1,2.080
1720,55.04,-1.5822,9.3212,1.6443,0.1500,-0.2724,0.0466,slope,18.0,1,2.031
1730,55.36,-1.4254,9.2866,1.6790,0.1980,-0.2252,-0.1385,slope,18.0,1,1.959
1740,55.68,-1.2685,9.2321,1.7021,0.2593,-0.1621,-0.2301,slope,18.0,1,1.879
1750,56.00,-1.1223,9.1886,1.7236,0.2759,-0.1674,-0.2667,slope,18.0,1,1.822
1760,56.32,-0.9584,9.1337,1.7455,0.2827,-0.1255,-0.3018,slope,18.0,1,1.765
1770,56.64,-0.7748,9.0633,1.7605,0.3198,-0.0806,-0.3354,slope,18.0,1,1.711
1780,56.96,-0.5689,8.9609,1.7701,0.3258,-0.0539,-0.4339,slope,18.0,1,1.653
1790,57.28,-0.3479,8.8349,1.7766,0.3262,-0.0294,-0.5151,slope,18.0,1,1.611
1800,57.60,-0.1155,8.6841,1.7800,0.3158,-0.0288,-0.5729,slope,18.0,1,1.595
1810,57.92,0.0986,8.5191,1.7885,0.3287,-0.0718,-0.6455,rough,14.0,1,1.603
1820,58.24,0.3113,8.3322,1.7970,0.3958,-0.0326,-0.6720,rough,14.0,1,1.642
1830,58.56,0.5529,8.1199,1.7889,0.4284,0.0359,-0.6758,rough,14.0,1,1.742
1840,58.88,0.8270,7.8632,1.7599,0.5011,0.1243,-0.6506,rough,14.0,1,1.911
1850,59.20,1.1491,7.5816,1.6743,0.5667,0.2051,-0.6204,slope,18.0,1,2.179
1860,59.52,1.5316,7.2630,1.5546,0.6296,0.2481,-0.6015,slope,18.0,1,2.553
1870,59.84,1.7955,7.0089,1.4277,0.5926,0.3374,-0.7788,slope,18.0,1,2.838
1880,60.16,1.9027,6.7732,1.2928,0.5199,0.4692,-1.0697,slope,18.0,1,2.982
1890,60.48,1.9005,6.5509,1.1282,0.5226,0.4434,-1.0698,rough,14.0,1,3.033
1900,60.80,1.8934,6.3580,0.9893,0.5625,0.4477,-0.9995,rough,14.0,1,3.084
1910,61.12,1.9171,6.2059,0.8937,0.4406,0.4723,-1.2206,rough,14.0,1,3.159
1920,61.44,1.9412,6.0353,0.7889,0.3331,0.5121,-1.3948,rough,14.0,1,3.248
1930,61.76,1.9688,5.8239,0.6547,0.2430,0.5428,-1.4662,rough,14.0,1,3.365
1940,62.08,1.9871,5.6196,0.5466,0.1547,0.5094,-1.5214,rough,14.0,1,3.479
1950,62.40,2.0035,5.3741,0.4181,0.0511,0.5491,-1.5467,rough,14.0,1,3.622
1960,62.72,2.0101,5.1699,0.3210,0.0398,0.3793,-1.5537,rough,14.0,1,3.744
1970,63.04,2.0064,4.9086,0.2255,0.0177,0.3348,-1.6029,slope,18.0,1,3.901
1980,63.36,1.9936,4.6808,0.1912,-0.0010,0.0774,-1.7294,slope,18.0,1,4.039
1990,63.68,1.9620,4.4390,0.1795,-0.0004,-0.0021,-1.9947,flat,18.0,1,4.181
2000,64.00,1.9128,4.3671,0.1797,-0.0004,-0.0002,-2.5885,flat,18.0,1,4.197
2010,64.32,1.7621,4.2970,0.1798,-0.0004,-0.0001,-3.0660,flat,18.0,1,4.145
2020,64.64,1.4700,4.2856,0.1803,-0.0025,-0.0007,2.9239,transition,15.0,1,3.964
2030,64.96,1.0696,4.3528,0.1806,-0.0073,0.0046,3.0392,transition,15.0,1,3.670
2040,65.28,0.5954,4.3745,0.1783,0.0021,0.0015,-3.0954,flat,18.0,1,3.403
2050,65.60,0.1084,4.3559,0.1798,0.0001,0.0002,3.1161,flat,18.0,1,3.218
2060,65.92,-0.3815,4.3779,0.1799,-0.0001,-0.0000,3.0501,flat,18.0,1,3.059
2070,66.24,-0.8381,4.4221,0.1799,-0.0001,0.0001,3.0131,transition,15.0,1,2.953
2080,66.56,-1.2059,4.4849,0.1806,0.0002,-0.0063,2.7338,slope,18.0,1,2.891
2090,66.88,-1.5458,4.6479,0.2031,-0.0173,-0.1153,2.3868,slope,18.0,1,2.773
2100,67.20,-1.7953,4.8847,0.2493,0.0162,-0.1819,2.0799,slope,18.0,1,2.604
2110,67.52,-1.9587,5.2258,0.3156,0.0097,-0.1973,1.8615,slope,18.0,1,2.341
2120,67.84,-2.0558,5.5583,0.3859,0.0266,-0.2192,1.7568,slope,18.0,1,2.087
2130,68.16,-2.1284,5.8687,0.4596,-0.0202,-0.3126,1.6899,slope,18.0,1,1.867
2140,68.48,-2.1788,6.1885,0.5502,-0.0732,-0.2967,1.6446,slope,18.0,1,1.655
2150,68.80,-2.2042,6.4514,0.6432,-0.0832,-0.4147,1.6195,slope,18.0,1,1.499
2160,69.12,-2.2164,6.6855,0.7448,-0.0682,-0.4029,1.5829,slope,18.0,1,1.379
2170,69.44,-2.2215,6.8696,0.8273,-0.0740,-0.4473,1.5794,slope,18.0,1,1.302
2180,69.76,-2.2247,7.0321,0.9070,-0.0737,-0.4559,1.5824,slope,18.0,1,1.252
2190,70.08,-2.2270,7.2731,1.0244,-0.0679,-0.4387,1.5751,slope,18.0,1,1.211
2200,70.40,-2.2336,7.5004,1.1231,-0.0811,-0.4125,1.5578,slope,18.0,1,1.221
2210,70.72,-2.2290,7.7722,1.2307,-0.0825,-0.3389,1.5596,slope,18.0,1,1.275
2220,71.04,-2.2367,8.2129,1.3486,-0.1306,-0.2263,1.5050,slope,18.0,1,1.481
2230,71.36,-2.2174,8.5894,1.4092,-0.1415,-0.1614,1.2982,slope,18.0,1,1.709
2240,71.68,-2.1348,8.8604,1.4549,-0.1215,-0.1790,1.1531,slope,18.0,1,1.862
2250,72.00,-2.0581,9.0644,1.4932,-0.0903,-0.2131,0.9350,slope,18.0,1,1.987
2260,72.32,-1.9523,9.1989,1.5337,-0.0555,-0.2506,0.7570,slope,18.0,1,2.053
2270,72.64,-1.8261,9.2653,1.5718,-0.0091,-0.2831,0.5769,slope,18.0,1,2.060
2280,72.96,-1.6912,9.3030,1.6139,0.0492,-0.3070,0.3821,slope,18.0,1,2.046
2290,73.28,-1.5461,9.3176,1.6543,0.1057,-0.2929,0.1923,slope,18.0,1,2.018
2300,73.60,-1.3908,9.3020,1.6842,0.1975,-0.2540,0.0001,slope,18.0,1,1.967
2310,73.92,-1.2416,9.2670,1.7155,0.2340,-0.1991,-0.1512,slope,18.0,1,1.910
2320,74.24,-1.1023,9.2354,1.7390,0.2592,-0.1904,-0.1842,slope,18.0,1,1.867
2330,74.56,-0.9532,9.2002,1.7627,0.2655,-0.1576,-0.2120,slope,18.0,1,1.831
2340,74.88,-0.7831,9.1456,1.7826,0.3155,-0.1077,-0.2553,slope,18.0,1,1.791
2350,75.20,-0.6012,9.0773,1.7976,0.3200,-0.0842,-0.3331,slope,18.0,1,1.758
2360,75.52,-0.3971,8.9796,1.8079,0.3239,-0.0551,-0.4354,slope,18.0,1,1.726
2370,75.84,-0.1808,8.8556,1.8139,0.3113,-0.0412,-0.5182,slope,18.0,1,1.706
2380,76.16,0.0381,8.7131,1.8183,0.3071,-0.0692,-0.5854,slope,18.0,1,1.710
2390,76.48,0.2468,8.5506,1.8357,0.3200,-0.0738,-0.6574,rough,14.0,1,1.731
2400,76.80,0.4531,8.3666,1.8495,0.3482,-0.0377,-0.6942,rough,14.0,1,1.778
2410,77.12,0.6831,8.1405,1.8317,0.4256,0.0519,-0.6965,rough,14.0,1,1.869
2420,77.44,0.9511,7.8891,1.8027,0.4902,0.1398,-0.6795,rough,14.0,1,2.038
2430,77.76,1.2532,7.5788,1.7038,0.5935,0.2061,-0.6253,slope,18.0,1,2.282
2440,78.08,1.6121,7.2618,1.5713,0.6235,0.2273,-0.5901,slope,18.0,1,2.634
2450,78.40,1.8487,7.0217,1.4508,0.5713,0.3735,-0.8416,slope,18.0,1,2.889
2460,78.72,1.9464,6.7859,1.3126,0.4499,0.5172,-1.1958,slope,18.0,1,3.023
2470,79.04,1.9508,6.5286,1.1282,0.4698,0.4964,-1.1853,rough,14.0,1,3.087
2480,79.36,2.0165,6.2700,0.9683,0.3963,0.5345,-1.3125,rough,14.0,1,3.229
2490,79.68,2.0577,6.0686,0.8486,0.2908,0.5699,-1.4025,rough,14.0,1,3.341
2500,80.00,2.0779,5.8588,0.7076,0.2459,0.5995,-1.4666,rough,14.0,1,3.446
2510,80.32,2.0994,5.6523,0.5927,0.1514,0.5658,-1.5119,rough,14.0,1,3.561
2520,80.64,2.1128,5.4369,0.4677,0.0971,0.5445,-1.5362,rough,14.0,1,3.681
2530,80.96,2.1236,5.2244,0.3598,0.0570,0.4725,-1.5470,rough,14.0,1,3.806
2540,81.28,2.1261,5.0196,0.2669,0.0323,0.3651,-1.5728,slope,18.0,1,3.927
2550,81.60,2.1247,4.7498,0.2035,0.0005,0.1647,-1.6251,slope,18.0,1,4.093
2560,81.92,2.1106,4.4976,0.1791,0.0002,-0.0039,-1.7697,flat,18.0,1,4.248
2570,82.24,2.0886,4.3470,0.1797,-0.0004,0.0000,-2.2742,flat,18.0,1,4.336
2580,82.56,1.9758,4.2700,0.1799,-0.0005,-0.0010,-2.8028,flat,18.0,1,4.311
2590,82.88,1.7015,4.2086,0.1796,0.0002,-0.0003,2.9514,flat,18.0,1,4.171
2600,83.20,1.3247,4.3034,0.1797,-0.0074,-0.0076,2.8528,transition,15.0,1,3.860
2610,83.52,0.9116,4.4156,0.1809,-0.0011,0.0069,3.0838,transition,15.0,1,3.529
2620,83.84,0.5301,4.4142,0.1797,0.0007,-0.0019,-2.8598,flat,18.0,1,3.337
2630,84.16,0.0965,4.2974,0.1799,-0.0001,-0.0001,-2.9342,flat,18.0,1,3.269
2640,84.48,-0.3852,4.2063,0.1799,-0.0001,-0.0000,-3.0046,flat,18.0,1,3.227
2650,84.80,-0.8848,4.1408,0.1798,0.0008,0.0001,3.0877,flat,18.0,1,3.232
2660,85.12,-1.3025,4.1686,0.1804,-0.0040,-0.0005,2.7830,transition,15.0,1,3.214
2670,85.44,-1.5949,4.3127,0.1811,-0.0368,-0.0391,2.4391,slope,18.0,1,3.111
2680,85.76,-1.8454,4.5644,0.2158,0.0282,-0.1368,2.0965,slope,18.0,1,2.925
2690,86.08,-2.0100,4.9297,0.2758,0.0678,-0.1528,1.7654,slope,18.0,1,2.634
2700,86.40,-2.0749,5.3047,0.3403,0.0541,-0.1815,1.6464,slope,18.0,1,2.319
2710,86.72,-2.1139,5.6670,0.4091,-0.0083,-0.1845,1.6143,slope,18.0,1,2.024
2720,87.04,-2.1250,5.9943,0.4936,-0.0020,-0.3333,1.5303,slope,18.0,1,1.765
2730,87.36,-2.1221,6.3130,0.5947,-0.0421,-0.3652,1.4917,slope,18.0,1,1.527
2740,87.68,-2.1016,6.5709,0.7025,-0.0221,-0.4249,1.4481,slope,18.0,1,1.345
2750,88.00,-2.0673,6.7960,0.8069,-0.0214,-0.4565,1.4004,slope,18.0,1,1.195
2760,88.32,-1.9942,7.1130,0.9650,0.0187,-0.4610,1.3515,slope,18.0,1,1.008
2770,88.64,-1.9152,7.4750,1.1396,-0.0271,-0.4194,1.4315,slope,18.0,2,8.799
2780,88.96,-1.8456,7.9582,1.3294,-0.0300,-0.3019,1.4111,slope,18.0,2,8.979
2790,89.28,-1.7873,8.3665,1.4395,-0.0447,-0.2586,1.2962,slope,18.0,2,9.150
2800,89.60,-1.7077,8.6932,1.5065,-0.0773,-0.1980,1.1289,slope,18.0,2,9.270
2810,89.92,-1.5904,8.9037,1.5634,-0.0658,-0.2571,1.0067,slope,18.0,2,9.300
