step,time_s,x,y,z,roll,pitch,yaw,terrain,speed,target_idx,dist_to_target
10,0.32,-0.0067,-0.0580,0.1723,0.0000,-0.0145,0.0000,flat,18.0,0,5.404
20,0.64,0.2561,-0.0590,0.1792,-0.0000,0.0017,-0.0188,flat,18.0,0,5.199
30,0.96,0.6409,-0.0774,0.1799,0.0001,-0.0001,-0.3020,flat,18.0,0,4.899
40,1.28,1.0639,-0.2529,0.1799,-0.0001,-0.0000,-0.6069,flat,18.0,0,4.472
50,1.60,1.4526,-0.5703,0.1799,-0.0001,-0.0000,-0.7802,flat,18.0,0,3.973
60,1.92,1.8174,-0.9658,0.1798,-0.0003,-0.0001,-0.8716,flat,18.0,0,3.435
70,2.24,2.1745,-1.4044,0.1797,-0.0001,-0.0000,-0.8947,flat,18.0,0,2.873
80,2.56,2.5309,-1.8396,0.1797,0.0001,0.0000,-0.8651,flat,18.0,0,2.315
90,2.88,2.8943,-2.2457,0.1797,0.0002,0.0001,-0.8065,flat,18.0,0,1.773
100,3.20,3.2388,-2.5872,0.1797,0.0002,0.0001,-0.7460,flat,18.0,0,1.289
110,3.52,3.5723,-2.8779,0.1797,0.0002,-0.0000,-0.7114,flat,18.0,1,6.952
120,3.84,3.8739,-3.2009,0.1799,0.0001,-0.0000,-1.0257,flat,18.0,1,6.898
130,4.16,4.0742,-3.6087,0.1799,0.0000,-0.0000,-1.4601,flat,18.0,1,6.739
140,4.48,4.0897,-4.0570,0.1799,-0.0000,-0.0000,-1.9066,flat,18.0,1,6.443
150,4.80,3.9010,-4.4744,0.1799,-0.0000,-0.0000,-2.2045,flat,18.0,1,6.027
160,5.12,3.5783,-4.8381,0.1799,-0.0000,-0.0000,-2.4113,flat,18.0,1,5.546
170,5.44,3.1737,-5.1528,0.1799,-0.0001,-0.0000,-2.5850,flat,18.0,1,5.034
180,5.76,2.7053,-5.4153,0.1799,-0.0003,-0.0000,-2.7164,flat,18.0,1,4.506
190,6.08,2.1887,-5.6353,0.1798,-0.0002,-0.0000,-2.7682,flat,18.0,1,3.975
200,6.40,1.6654,-5.8447,0.1797,0.0001,0.0000,-2.7360,flat,18.0,1,3.456
210,6.72,1.1668,-6.0691,0.1797,0.0002,0.0000,-2.6685,flat,18.0,1,2.957
220,7.04,0.7006,-6.3240,0.1798,0.0003,0.0000,-2.5709,flat,18.0,1,2.472
230,7.36,0.2776,-6.6234,0.1799,0.0003,0.0000,-2.4426,flat,18.0,1,1.993
240,7.68,-0.0825,-6.9614,0.1798,0.0003,0.0001,-2.3267,flat,18.0,1,1.528
250,8.00,-0.3697,-7.2923,0.1798,0.0003,0.0001,-2.2174,flat,18.0,1,1.115
260,8.32,-0.6071,-7.6391,0.1798,0.0002,-0.0001,-2.1523,flat,18.0,2,4.567
270,8.64,-0.8812,-8.0477,0.1797,-0.0001,0.0001,-2.1869,flat,18.0,2,4.760
280,8.96,-1.1092,-8.3563,0.1797,-0.0001,0.0003,-2.2561,flat,18.0,2,4.924
290,9.28,-1.3389,-8.6115,0.1797,-0.0002,0.0001,-2.3707,flat,18.0,2,5.062
300,9.60,-1.5681,-8.8099,0.1797,-0.0002,0.0001,-2.5170,flat,18.0,2,5.165
310,9.92,-1.7925,-8.9557,0.1797,-0.0002,0.0000,-2.6967,flat,18.0,2,5.235
320,10.24,-2.0125,-9.0576,0.1797,-0.0002,0.0000,-2.9064,flat,18.0,2,5.275
330,10.56,-2.2264,-9.1175,0.1797,-0.0002,0.0000,3.1398,flat,18.0,2,5.287
340,10.88,-2.4316,-9.1269,0.1797,-0.0002,0.0000,2.9224,flat,18.0,2,5.259
350,11.20,-2.6307,-9.0868,0.1797,-0.0002,-0.0000,2.7542,flat,18.0,2,5.191
360,11.52,-2.8281,-9.0025,0.1797,-0.0001,-0.0000,2.6283,flat,18.0,2,5.086
370,11.84,-3.0327,-8.8786,0.1797,-0.0001,-0.0000,2.5295,flat,18.0,2,4.948
380,12.16,-3.2511,-8.7137,0.1797,-0.0001,-0.0001,2.4499,flat,18.0,2,4.777
390,12.48,-3.4894,-8.5038,0.1797,-0.0001,-0.0001,2.3853,flat,18.0,2,4.571
400,12.80,-3.7534,-8.2420,0.1797,-0.0001,-0.0001,2.3351,flat,18.0,2,4.331
410,13.12,-4.0505,-7.9206,0.1797,-0.0001,-0.0001,2.3008,flat,18.0,2,4.057
420,13.44,-4.3926,-7.5314,0.1797,-0.0000,-0.0001,2.2864,flat,18.0,2,3.762
430,13.76,-4.7213,-7.1400,0.1798,-0.0001,0.0001,2.1876,flat,18.0,2,3.512
440,14.08,-4.9494,-6.7464,0.1799,0.0001,-0.0000,1.7870,flat,18.0,2,3.267
450,14.40,-5.0148,-6.2901,0.1799,0.0000,-0.0000,1.3508,flat,18.0,2,2.923
460,14.72,-4.8776,-5.8312,0.1799,-0.0000,-0.0000,1.0803,flat,18.0,2,2.477
470,15.04,-4.6089,-5.3914,0.1799,-0.0002,-0.0000,0.9297,flat,18.0,2,1.969
480,15.36,-4.2896,-4.9860,0.1798,-0.0002,0.0000,0.8795,flat,18.0,2,1.455
490,15.68,-3.9925,-4.6278,0.1797,-0.0000,0.0001,0.8766,flat,18.0,3,0.992
500,16.00,-3.6770,-4.2342,0.1798,0.0001,-0.0001,0.9603,flat,18.0,3,10.629
510,16.32,-3.4021,-3.7980,0.1799,0.0001,0.0002,1.1149,flat,18.0,3,10.138
520,16.64,-3.2141,-3.3649,0.1799,0.0002,-0.0002,1.2645,flat,18.0,3,9.672
530,16.96,-3.0651,-2.8327,0.1798,0.0002,-0.0001,1.3528,flat,18.0,3,9.120
540,17.28,-2.9482,-2.2770,0.1797,0.0001,-0.0000,1.3830,flat,18.0,3,8.552
550,17.60,-2.8417,-1.7129,0.1797,0.0000,0.0000,1.3817,flat,18.0,3,7.979
560,17.92,-2.7327,-1.1535,0.1797,-0.0001,0.0000,1.3643,flat,18.0,3,7.410
570,18.24,-2.6133,-0.5982,0.1797,-0.0001,0.0000,1.3418,flat,18.0,3,6.842
580,18.56,-2.4813,-0.0452,0.1797,-0.0001,-0.0000,1.3215,flat,18.0,3,6.274
590,18.88,-2.3382,0.5070,0.1797,-0.0001,-0.0000,1.3066,flat,18.0,3,5.703
600,19.20,-2.1871,1.0594,0.1797,-0.0000,-0.0000,1.2978,flat,18.0,3,5.131
610,19.52,-2.0315,1.6126,0.1797,-0.0000,-0.0000,1.2943,flat,18.0,3,4.556
620,19.84,-1.8742,2.1665,0.1797,-0.0000,0.0000,1.2944,flat,18.0,3,3.981
630,20.16,-1.7175,2.7200,0.1797,0.0000,0.0000,1.2965,flat,18.0,3,3.406
640,20.48,-1.5622,3.2736,0.1797,0.0000,0.0000,1.2994,flat,18.0,3,2.832
650,20.80,-1.4085,3.8278,0.1797,0.0000,-0.0000,1.3022,flat,18.0,3,2.258
660,21.12,-1.2588,4.3729,0.1797,0.0000,0.0001,1.3042,flat,18.0,3,1.695
670,21.44,-1.1276,4.8540,0.1797,0.0000,0.0001,1.3052,flat,18.0,3,1.199
680,21.76,-1.0167,5.2611,0.1797,-0.0000,0.0001,1.2878,flat,18.0,0,10.134
690,22.08,-0.9131,5.6059,0.1798,0.0000,0.0001,1.1202,flat,18.0,0,10.379
700,22.40,-0.7885,5.8094,0.1798,0.0002,0.0001,0.5853,flat,18.0,0,10.496
710,22.72,-0.5933,5.9188,0.1798,0.0003,-0.0002,-0.2631,flat,18.0,0,10.501
720,23.04,-0.3025,5.7838,0.1799,0.0003,-0.0001,-0.8349,flat,18.0,0,10.249
730,23.36,-0.0257,5.3988,0.1799,-0.0001,-0.0000,-1.1102,flat,18.0,0,9.782
740,23.68,0.1756,4.9241,0.1799,-0.0001,-0.0000,-1.3311,flat,18.0,0,9.267
750,24.00,0.2850,4.3913,0.1799,-0.0003,-0.0001,-1.4645,flat,18.0,0,8.741
760,24.32,0.3400,3.8255,0.1798,-0.0001,0.0000,-1.4729,flat,18.0,0,8.214
770,24.64,0.3997,3.2757,0.1798,0.0003,0.0000,-1.3917,flat,18.0,0,7.705
780,24.96,0.5082,2.7475,0.1799,0.0004,0.0000,-1.2724,flat,18.0,0,7.194
790,25.28,0.6808,2.2403,0.1798,0.0004,-0.0000,-1.1560,flat,18.0,0,6.672
800,25.60,0.9132,1.7514,0.1798,0.0004,-0.0000,-1.0634,flat,18.0,0,6.135
810,25.92,1.1921,1.2762,0.1797,0.0002,-0.0000,-0.9997,flat,18.0,0,5.584
820,26.24,1.5026,0.8092,0.1797,0.0001,-0.0000,-0.9645,flat,18.0,0,5.024
830,26.56,1.8305,0.3439,0.1797,0.0001,-0.0000,-0.9495,flat,18.0,0,4.455
840,26.88,2.1657,-0.1230,0.1797,0.0000,-0.0000,-0.9485,flat,18.0,0,3.881
850,27.20,2.4983,-0.5893,0.1797,-0.0000,0.0000,-0.9560,flat,18.0,0,3.309
860,27.52,2.8255,-1.0574,0.1797,-0.0000,0.0000,-0.9678,flat,18.0,0,2.739
870,27.84,3.1469,-1.5293,0.1797,-0.0000,-0.0000,-0.9802,flat,18.0,0,2.170
880,28.16,3.4543,-1.9918,0.1797,-0.0000,0.0001,-0.9892,flat,18.0,0,1.616
890,28.48,3.7197,-2.3981,0.1797,-0.0000,0.0001,-0.9971,flat,18.0,0,1.132
900,28.80,3.9570,-2.7964,0.1798,0.0002,0.0001,-1.2075,flat,18.0,1,7.258
910,29.12,4.0836,-3.2161,0.1799,0.0000,-0.0000,-1.7407,flat,18.0,1,7.028
920,29.44,3.9707,-3.6370,0.1799,-0.0000,-0.0000,-2.1250,flat,18.0,1,6.646
930,29.76,3.6812,-4.0176,0.1799,-0.0000,-0.0000,-2.3523,flat,18.0,1,6.172
940,30.08,3.2925,-4.3606,0.1799,-0.0002,-0.0000,-2.4956,flat,18.0,1,5.655
950,30.40,2.8421,-4.6763,0.1798,-0.0003,-0.0001,-2.5714,flat,18.0,1,5.114
960,30.72,2.3612,-4.9816,0.1797,-0.0000,0.0000,-2.5716,flat,18.0,1,4.562
970,31.04,1.8972,-5.2891,0.1797,0.0001,0.0000,-2.5285,flat,18.0,1,4.024
980,31.36,1.4574,-5.6143,0.1797,0.0002,0.0000,-2.4630,flat,18.0,1,3.494
990,31.68,1.0460,-5.9678,0.1797,0.0003,0.0000,-2.3869,flat,18.0,1,2.963
1000,32.00,0.6624,-6.3539,0.1797,0.0003,-0.0000,-2.3134,flat,18.0,1,2.426
1010,32.32,0.3007,-6.7702,0.1797,0.0002,0.0000,-2.2549,flat,18.0,1,1.879
1020,32.64,-0.0193,-7.1721,0.1797,0.0001,0.0001,-2.2292,flat,18.0,1,1.369
1030,32.96,-0.2907,-7.5330,0.1797,0.0001,0.0000,-2.1889,flat,18.0,2,4.677
1040,33.28,-0.5818,-7.9464,0.1797,-0.0000,0.0001,-2.1994,flat,18.0,2,4.833
1050,33.60,-0.8355,-8.2815,0.1797,-0.0001,0.0003,-2.2605,rough,14.0,2,4.985
1060,33.92,-1.0630,-8.5385,0.1797,-0.0002,0.0002,-2.3524,flat,18.0,2,5.108
1070,34.24,-1.2974,-8.7501,0.1797,-0.0002,0.0001,-2.4865,flat,18.0,2,5.206
1080,34.56,-1.5270,-8.9080,0.1797,-0.0002,0.0000,-2.6550,flat,18.0,2,5.271
1090,34.88,-1.7517,-9.0208,0.1797,-0.0002,0.0000,-2.8537,flat,18.0,2,5.309
1100,35.20,-1.9707,-9.0913,0.1797,-0.0002,0.0000,-3.0792,flat,18.0,2,5.318
1110,35.52,-2.1817,-9.1145,0.1797,-0.0002,0.0000,2.9774,flat,18.0,2,5.293
1120,35.84,-2.3853,-9.0864,0.1797,-0.0002,-0.0000,2.8008,flat,18.0,2,5.227
1130,36.16,-2.5866,-9.0135,0.1797,-0.0001,-0.0000,2.6653,flat,18.0,2,5.124
1140,36.48,-2.7925,-8.9000,0.1797,-0.0001,-0.0000,2.5623,flat,18.0,2,4.987
1150,36.80,-3.0110,-8.7464,0.1797,-0.0001,-0.0001,2.4789,flat,18.0,2,4.817
1160,37.12,-3.2478,-8.5491,0.1797,-0.0001,-0.0001,2.4123,flat,18.0,2,4.612
1170,37.44,-3.5097,-8.3027,0.1797,-0.0001,-0.0001,2.3586,flat,18.0,2,4.372
1180,37.76,-3.8031,-7.9992,0.1797,-0.0001,-0.0001,2.3212,flat,18.0,2,4.096
1190,38.08,-4.1386,-7.6311,0.1797,-0.0001,-0.0001,2.3016,flat,18.0,2,3.792
1200,38.40,-4.4948,-7.2303,0.1797,-0.0001,0.0001,2.2683,flat,18.0,2,3.510
1210,38.72,-4.7636,-6.8559,0.1799,0.0001,-0.0000,1.9460,flat,18.0,2,3.274
1220,39.04,-4.8995,-6.4174,0.1799,-0.0000,-0.0000,1.4886,flat,18.0,2,2.962
1230,39.36,-4.8270,-5.9529,0.1799,-0.0001,-0.0000,1.1633,flat,18.0,2,2.540
1240,39.68,-4.5980,-5.5018,0.1799,-0.0001,-0.0000,0.9837,flat,18.0,2,2.045
1250,40.00,-4.2975,-5.0798,0.1798,-0.0002,0.0001,0.9135,flat,18.0,2,1.529
1260,40.32,-4.0065,-4.7043,0.1797,-0.0000,0.0001,0.9095,flat,18.0,2,1.056
1270,40.64,-3.7115,-4.3198,0.1798,0.0001,-0.0001,0.9600,flat,18.0,3,10.720
1280,40.96,-3.4296,-3.8721,0.1799,0.0001,-0.0000,1.1101,flat,18.0,3,10.216
1290,41.28,-3.2401,-3.4536,0.1798,0.0002,0.0001,1.2383,flat,18.0,3,9.765
1300,41.60,-3.0919,-2.9541,0.1798,0.0004,-0.0002,1.3318,flat,18.0,3,9.244
1310,41.92,-2.9664,-2.4040,0.1797,0.0002,-0.0000,1.3781,flat,18.0,3,8.680
1320,42.24,-2.8588,-1.8408,0.1797,0.0000,-0.0000,1.3856,flat,18.0,3,8.107
1330,42.56,-2.7523,-1.2795,0.1797,-0.0000,0.0000,1.3722,flat,18.0,3,7.537
1340,42.88,-2.6375,-0.7230,0.1797,-0.0001,0.0000,1.3503,flat,18.0,3,6.969
1350,43.20,-2.5101,-0.1694,0.1797,-0.0001,-0.0000,1.3284,flat,18.0,3,6.401
1360,43.52,-2.3708,0.3829,0.1797,-0.0001,-0.0000,1.3112,flat,18.0,3,5.831
1370,43.84,-2.2221,0.9351,0.1797,-0.0000,-0.0000,1.3002,flat,18.0,3,5.260
1380,44.16,-2.0676,1.4880,0.1797,-0.0000,-0.0000,1.2949,flat,18.0,3,4.686
1390,44.48,-1.9106,2.0417,0.1797,-0.0000,-0.0000,1.2940,flat,18.0,3,4.111
1400,44.80,-1.7535,2.5953,0.1797,0.0000,0.0000,1.2955,flat,18.0,3,3.536
1410,45.12,-1.5976,3.1488,0.1797,0.0000,0.0000,1.2983,flat,18.0,3,2.962
1420,45.44,-1.4433,3.7028,0.1797,0.0000,-0.0000,1.3012,flat,18.0,3,2.388
1430,45.76,-1.2913,4.2544,0.1797,0.0000,0.0001,1.3036,flat,18.0,3,1.817
1440,46.08,-1.1555,4.7513,0.1797,0.0000,0.0001,1.3049,flat,18.0,3,1.304
1450,46.40,-1.0400,5.1761,0.1797,0.0000,0.0002,1.3015,flat,18.0,0,10.074
1460,46.72,-0.9375,5.5325,0.1798,-0.0001,0.0001,1.1745,flat,18.0,0,10.327
1470,47.04,-0.8191,5.7762,0.1798,0.0001,0.0002,0.7396,flat,18.0,0,10.482
1480,47.36,-0.6671,5.8918,0.1798,0.0004,-0.0001,-0.1177,flat,18.0,0,10.511
1490,47.68,-0.4151,5.8365,0.1799,0.0003,-0.0002,-0.8147,flat,18.0,0,10.347
1500,48.00,-0.1650,5.4831,0.1799,-0.0001,-0.0001,-1.1546,flat,18.0,0,9.919
1510,48.32,0.0199,4.9946,0.1799,-0.0001,-0.0000,-1.3569,flat,18.0,0,9.399
1520,48.64,0.1204,4.4514,0.1798,-0.0003,-0.0001,-1.4564,flat,18.0,0,8.870
1530,48.96,0.1843,3.8876,0.1797,0.0000,0.0000,-1.4374,flat,18.0,0,8.343
1540,49.28,0.2653,3.3447,0.1798,0.0003,0.0000,-1.3436,flat,18.0,0,7.832
1550,49.60,0.3998,2.8235,0.1798,0.0004,0.0000,-1.2269,flat,18.0,0,7.316
1560,49.92,0.5960,2.3225,0.1798,0.0004,-0.0000,-1.1204,flat,18.0,0,6.787
1570,50.24,0.8463,1.8385,0.1798,0.0004,-0.0000,-1.0392,flat,18.0,0,6.244
1580,50.56,1.1373,1.3661,0.1797,0.0002,-0.0000,-0.9861,flat,18.0,0,5.690
1590,50.88,1.4543,0.8997,0.1797,0.0001,-0.0000,-0.9592,flat,18.0,0,5.126
1600,51.20,1.7850,0.4335,0.1797,0.0000,-0.0000,-0.9494,flat,18.0,0,4.555
1610,51.52,2.1195,-0.0339,0.1797,-0.0000,0.0000,-0.9515,flat,18.0,0,3.981
1620,51.84,2.4500,-0.5009,0.1797,-0.0000,0.0000,-0.9605,flat,18.0,0,3.410
1630,52.16,2.7751,-0.9705,0.1797,-0.0000,0.0000,-0.9724,flat,18.0,0,2.840
1640,52.48,3.0946,-1.4440,0.1797,-0.0000,-0.0000,-0.9841,flat,18.0,0,2.270
1650,52.80,3.4048,-1.9144,0.1797,-0.0000,0.0001,-0.9922,flat,18.0,0,1.707
1660,53.12,3.6764,-2.3323,0.1797,-0.0000,0.0001,-0.9984,flat,18.0,0,1.211
1670,53.44,3.9238,-2.7407,0.1798,-0.0000,0.0001,-1.1159,flat,18.0,1,7.279
1680,53.76,4.0941,-3.1542,0.1799,0.0001,-0.0000,-1.6007,flat,18.0,1,7.080
1690,54.08,4.0429,-3.5804,0.1799,-0.0000,-0.0000,-2.0463,flat,18.0,1,6.737
1700,54.40,3.7895,-3.9704,0.1799,-0.0000,-0.0000,-2.3092,flat,18.0,1,6.283
1710,54.72,3.4204,-4.3184,0.1799,-0.0001,-0.0000,-2.4735,flat,18.0,1,5.775
1720,55.04,2.9813,-4.6346,0.1798,-0.0003,-0.0001,-2.5746,flat,18.0,1,5.241
1730,55.36,2.4985,-4.9326,0.1797,-0.0001,-0.0000,-2.5958,flat,18.0,1,4.691
1740,55.68,2.0231,-5.2294,0.1797,0.0001,0.0000,-2.5600,flat,18.0,1,4.152
1750,56.00,1.5709,-5.5401,0.1797,0.0002,0.0000,-2.4984,flat,18.0,1,3.623
1760,56.32,1.1474,-5.8776,0.1797,0.0003,0.0000,-2.4210,flat,18.0,1,3.096
1770,56.64,0.7543,-6.2487,0.1798,0.0003,-0.0000,-2.3403,flat,18.0,1,2.565
1780,56.96,0.3855,-6.6541,0.1797,0.0002,-0.0000,-2.2718,flat,18.0,1,2.023
1790,57.28,0.0517,-7.0650,0.1797,0.0001,0.0001,-2.2350,flat,18.0,1,1.497
1800,57.60,-0.2280,-7.4310,0.1797,0.0001,0.0001,-2.2057,flat,18.0,1,1.041
1810,57.92,-0.5094,-7.8285,0.1797,0.0001,-0.0000,-2.1871,flat,18.0,2,4.778
1820,58.24,-0.7833,-8.2019,0.1797,-0.0001,0.0001,-2.2433,rough,14.0,2,4.942
1830,58.56,-1.0245,-8.4850,0.1797,-0.0002,0.0002,-2.3346,flat,18.0,2,5.077
1840,58.88,-1.2630,-8.7094,0.1797,-0.0002,0.0001,-2.4617,flat,18.0,2,5.181
1850,59.20,-1.4951,-8.8768,0.1797,-0.0002,0.0001,-2.6238,flat,18.0,2,5.253
1860,59.52,-1.7221,-8.9977,0.1797,-0.0002,0.0000,-2.8166,flat,18.0,2,5.295
1870,59.84,-1.9435,-9.0759,0.1797,-0.0002,0.0000,-3.0368,flat,18.0,2,5.310
1880,60.16,-2.1575,-9.1085,0.1797,-0.0002,0.0000,3.0147,flat,18.0,2,5.292
1890,60.48,-2.3634,-9.0888,0.1797,-0.0002,-0.0000,2.8304,flat,18.0,2,5.233
1900,60.80,-2.5664,-9.0236,0.1797,-0.0002,-0.0000,2.6868,flat,18.0,2,5.136
1910,61.12,-2.7720,-8.9164,0.1797,-0.0001,-0.0000,2.5801,flat,18.0,2,5.005
1920,61.44,-2.9893,-8.7696,0.1797,-0.0001,-0.0001,2.4936,flat,18.0,2,4.841
1930,61.76,-3.2240,-8.5796,0.1797,-0.0001,-0.0001,2.4246,flat,18.0,2,4.643
1940,62.08,-3.4828,-8.3416,0.1797,-0.0001,-0.0001,2.3687,flat,18.0,2,4.409
1950,62.40,-3.7720,-8.0478,0.1797,-0.0001,-0.0001,2.3287,flat,18.0,2,4.140
1960,62.72,-4.1015,-7.6908,0.1797,-0.0001,-0.0001,2.3061,flat,18.0,2,3.842
1970,63.04,-4.4597,-7.2913,0.1797,-0.0000,0.0001,2.2809,flat,18.0,2,3.555
1980,63.36,-4.7370,-6.9195,0.1799,0.0001,-0.0000,1.9797,flat,18.0,2,3.319
1990,63.68,-4.8865,-6.4862,0.1799,-0.0000,-0.0000,1.5231,flat,18.0,2,3.013
2000,64.00,-4.8297,-6.0212,0.1799,-0.0000,-0.0000,1.1830,flat,18.0,2,2.596
2010,64.32,-4.6104,-5.5680,0.1799,-0.0001,-0.0000,0.9960,flat,18.0,2,2.104
2020,64.64,-4.3113,-5.1391,0.1798,-0.0002,0.0001,0.9208,flat,18.0,2,1.583
2030,64.96,-4.0183,-4.7567,0.1797,-0.0000,0.0001,0.9169,flat,18.0,2,1.102
2040,65.28,-3.7300,-4.3755,0.1797,0.0001,-0.0001,0.9591,flat,18.0,3,10.779
2050,65.60,-3.4478,-3.9279,0.1799,0.0001,-0.0000,1.1083,flat,18.0,3,10.275
2060,65.92,-3.2265,-3.4368,0.1799,0.0002,-0.0000,1.2459,flat,18.0,3,9.745
2070,66.24,-3.0642,-2.9094,0.1798,0.0004,-0.0000,1.3430,flat,18.0,3,9.194
2080,66.56,-2.9447,-2.3577,0.1797,0.0002,-0.0000,1.3883,flat,18.0,3,8.630
2090,66.88,-2.8423,-1.7933,0.1797,0.0000,-0.0000,1.3929,flat,18.0,3,8.057
2100,67.20,-2.7398,-1.2323,0.1797,-0.0000,0.0000,1.3763,flat,18.0,3,7.488
2110,67.52,-2.6271,-0.6763,0.1797,-0.0001,0.0000,1.3518,flat,18.0,3,6.921
2120,67.84,-2.5005,-0.1232,0.1797,-0.0001,-0.0000,1.3282,flat,18.0,3,6.354
2130,68.16,-2.3609,0.4287,0.1797,-0.0001,-0.0000,1.3101,flat,18.0,3,5.785
2140,68.48,-2.2116,0.9806,0.1797,-0.0000,-0.0000,1.2988,flat,18.0,3,5.213
2150,68.80,-2.0564,1.5333,0.1797,-0.0000,-0.0000,1.2937,flat,18.0,3,4.639
2160,69.12,-1.8986,2.0869,0.1797,-0.0000,-0.0000,1.2931,flat,18.0,3,4.064
2170,69.44,-1.7412,2.6403,0.1797,0.0000,0.0000,1.2950,flat,18.0,3,3.489
2180,69.76,-1.5850,3.1936,0.1797,0.0000,0.0000,1.2981,flat,18.0,3,2.915
2190,70.08,-1.4307,3.7475,0.1797,0.0000,-0.0000,1.3013,flat,18.0,3,2.341
2200,70.40,-1.2793,4.2972,0.1797,0.0000,0.0001,1.3037,flat,18.0,3,1.773
2210,70.72,-1.1452,4.7884,0.1797,0.0000,0.0001,1.3051,flat,18.0,3,1.266
2220,71.04,-1.0315,5.2057,0.1797,-0.0000,0.0001,1.2962,flat,18.0,0,10.095
2230,71.36,-0.9286,5.5570,0.1798,-0.0001,0.0001,1.1512,flat,18.0,0,10.344
2240,71.68,-0.8073,5.7819,0.1798,0.0001,0.0002,0.6727,flat,18.0,0,10.481
2250,72.00,-0.6344,5.8976,0.1798,0.0003,-0.0001,-0.2514,flat,18.0,0,10.501
2260,72.32,-0.3823,5.7891,0.1799,0.0004,-0.0002,-0.8957,flat,18.0,0,10.290
2270,72.64,-0.1464,5.4107,0.1799,-0.0000,-0.0001,-1.2073,flat,18.0,0,9.846
2280,72.96,0.0177,4.9075,0.1799,-0.0001,-0.0000,-1.3893,flat,18.0,0,9.322
2290,73.28,0.1050,4.3547,0.1798,-0.0002,-0.0001,-1.4575,flat,18.0,0,8.791
2300,73.60,0.1704,3.7947,0.1797,0.0001,0.0000,-1.4165,flat,18.0,0,8.269
2310,73.92,0.2639,3.2573,0.1798,0.0004,0.0000,-1.3137,flat,18.0,0,7.757
2320,74.24,0.4145,2.7414,0.1798,0.0004,-0.0000,-1.1979,flat,18.0,0,7.238
2330,74.56,0.6255,2.2450,0.1798,0.0004,-0.0000,-1.0974,flat,18.0,0,6.706
2340,74.88,0.8875,1.7643,0.1798,0.0003,-0.0000,-1.0235,flat,18.0,0,6.160
2350,75.20,1.1863,1.2940,0.1797,0.0002,-0.0000,-0.9778,flat,18.0,0,5.602
2360,75.52,1.5076,0.8279,0.1797,0.0001,-0.0000,-0.9556,flat,18.0,0,5.037
2370,75.84,1.8401,0.3611,0.1797,0.0000,-0.0000,-0.9493,flat,18.0,0,4.464
2380,76.16,2.1738,-0.1061,0.1797,-0.0000,0.0000,-0.9534,flat,18.0,0,3.891
2390,76.48,2.5030,-0.5736,0.1797,-0.0000,0.0000,-0.9635,flat,18.0,0,3.320
2400,76.80,2.8266,-1.0441,0.1797,-0.0000,0.0000,-0.9755,flat,18.0,0,2.750
2410,77.12,3.1449,-1.5187,0.1797,-0.0000,-0.0000,-0.9867,flat,18.0,0,2.180
2420,77.44,3.4504,-1.9843,0.1797,-0.0000,0.0001,-0.9939,flat,18.0,0,1.624
2430,77.76,3.7152,-2.3932,0.1797,-0.0000,0.0001,-0.9999,flat,18.0,0,1.139
2440,78.08,3.9579,-2.8026,0.1799,0.0001,0.0001,-1.1504,flat,18.0,1,7.254
2450,78.40,4.1108,-3.2174,0.1799,0.0000,-0.0000,-1.6659,flat,18.0,1,7.045
2460,78.72,4.0313,-3.6410,0.1799,-0.0001,-0.0000,-2.0841,flat,18.0,1,6.686
2470,79.04,3.7608,-4.0252,0.1799,-0.0001,-0.0000,-2.3329,flat,18.0,1,6.224
2480,79.36,3.3819,-4.3681,0.1799,-0.0001,-0.0000,-2.4918,flat,18.0,1,5.713
2490,79.68,2.9355,-4.6793,0.1798,-0.0003,-0.0001,-2.5862,flat,18.0,1,5.177
2500,80.00,2.4493,-4.9738,0.1797,-0.0001,-0.0000,-2.5998,flat,18.0,1,4.627
2510,80.32,1.9746,-5.2685,0.1797,0.0001,0.0000,-2.5602,flat,18.0,1,4.091
2520,80.64,1.5237,-5.5789,0.1797,0.0002,0.0000,-2.4959,flat,18.0,1,3.563
2530,80.96,1.1022,-5.9174,0.1798,0.0003,0.0000,-2.4163,flat,18.0,1,3.037
2540,81.28,0.7114,-6.2904,0.1798,0.0003,-0.0000,-2.3346,flat,18.0,1,2.506
2550,81.60,0.3445,-6.6980,0.1797,0.0002,-0.0000,-2.2665,flat,18.0,1,1.964
2560,81.92,0.0167,-7.1048,0.1797,0.0001,0.0001,-2.2318,flat,18.0,1,1.445
2570,82.24,-0.2574,-7.4664,0.1797,0.0001,0.0001,-2.1952,flat,18.0,2,0.996
2580,82.56,-0.5413,-7.8702,0.1797,0.0000,-0.0000,-2.1888,flat,18.0,2,4.793
2590,82.88,-0.8112,-8.2359,0.1797,-0.0001,0.0001,-2.2495,flat,18.0,2,4.958
2600,83.20,-1.0506,-8.5122,0.1797,-0.0002,0.0001,-2.3434,flat,18.0,2,5.090
2610,83.52,-1.2880,-8.7307,0.1797,-0.0002,0.0001,-2.4753,flat,18.0,2,5.191
2620,83.84,-1.5189,-8.8929,0.1797,-0.0002,0.0001,-2.6408,flat,18.0,2,5.260
2630,84.16,-1.7450,-9.0095,0.1797,-0.0002,0.0000,-2.8367,flat,18.0,2,5.300
2640,84.48,-1.9653,-9.0835,0.1797,-0.0002,0.0000,-3.0598,flat,18.0,2,5.312
2650,84.80,-2.1779,-9.1109,0.1797,-0.0002,0.0000,2.9942,flat,18.0,2,5.290
2660,85.12,-2.3828,-9.0866,0.1797,-0.0002,-0.0000,2.8141,flat,18.0,2,5.227
2670,85.44,-2.5851,-9.0170,0.1797,-0.0001,-0.0000,2.6750,flat,18.0,2,5.127
2680,85.76,-2.7911,-8.9062,0.1797,-0.0001,-0.0000,2.5703,flat,18.0,2,4.993
2690,86.08,-3.0092,-8.7556,0.1797,-0.0001,-0.0001,2.4856,flat,18.0,2,4.826
2700,86.40,-3.2453,-8.5614,0.1797,-0.0001,-0.0001,2.4180,flat,18.0,2,4.624
2710,86.72,-3.5062,-8.3186,0.1797,-0.0001,-0.0001,2.3633,flat,18.0,2,4.387
2720,87.04,-3.7981,-8.0193,0.1797,-0.0001,-0.0001,2.3248,flat,18.0,2,4.115
2730,87.36,-4.1313,-7.6559,0.1797,-0.0001,-0.0001,2.3039,flat,18.0,2,3.815
2740,87.68,-4.4850,-7.2586,0.1797,-0.0001,0.0001,2.2651,flat,18.0,2,3.533
2750,88.00,-4.7508,-6.8839,0.1799,0.0001,-0.0000,1.9329,flat,18.0,2,3.293
2760,88.32,-4.8810,-6.4437,0.1799,-0.0000,-0.0000,1.4754,flat,18.0,2,2.974
2770,88.64,-4.8023,-5.9788,0.1799,-0.0001,-0.0000,1.1573,flat,18.0,2,2.546
2780,88.96,-4.5702,-5.5265,0.1799,-0.0001,-0.0000,0.9841,flat,18.0,2,2.046
2790,89.28,-4.2695,-5.1020,0.1798,-0.0002,0.0001,0.9196,flat,18.0,2,1.528
2800,89.60,-3.9815,-4.7238,0.1797,-0.0000,0.0001,0.9210,flat,18.0,2,1.053
2810,89.92,-3.6924,-4.3347,0.1798,0.0001,-0.0001,0.9786,flat,18.0,3,10.730
