step,time_s,x,y,z,roll,pitch,yaw,terrain,speed,target_idx,dist_to_target
10,0.32,2.0693,0.5010,0.1723,0.0000,-0.0145,0.0000,flat,18.0,0,6.352
20,0.64,2.3454,0.5010,0.1792,0.0000,0.0015,-0.0000,flat,18.0,0,6.084
30,0.96,2.7822,0.5042,0.1798,-0.0001,-0.0001,0.1266,flat,18.0,0,5.662
40,1.28,3.2843,0.5954,0.1799,0.0002,-0.0001,0.3361,flat,18.0,0,5.154
50,1.60,3.7922,0.7907,0.1798,0.0003,-0.0001,0.4262,flat,18.0,0,4.612
60,1.92,4.3086,1.0307,0.1797,0.0001,-0.0000,0.4399,flat,18.0,0,4.051
70,2.24,4.8226,1.2686,0.1797,-0.0001,0.0000,0.4119,flat,18.0,0,3.496
80,2.56,5.3390,1.4860,0.1797,-0.0002,0.0000,0.3614,flat,18.0,0,2.946
90,2.88,5.8670,1.6765,0.1797,-0.0002,-0.0000,0.3051,flat,18.0,0,2.393
100,3.20,6.4051,1.8384,0.1797,-0.0002,0.0000,0.2604,flat,18.0,0,1.839
110,3.52,6.9019,1.9673,0.1797,-0.0001,0.0001,0.2391,flat,18.0,0,1.333
120,3.84,7.3364,2.0722,0.1797,-0.0000,0.0001,0.2444,flat,18.0,1,4.630
130,4.16,7.7670,2.2191,0.1800,-0.0004,0.0000,0.5393,flat,18.0,1,4.795
140,4.48,8.1650,2.4716,0.1793,0.0027,0.0002,0.6020,flat,18.0,1,4.901
150,4.80,8.4839,2.7044,0.1797,0.0005,0.0001,0.6968,flat,18.0,1,4.997
160,5.12,8.7230,2.9277,0.1797,0.0002,0.0001,0.8333,flat,18.0,1,5.061
170,5.44,8.8984,3.1477,0.1797,0.0002,0.0001,1.0061,flat,18.0,1,5.092
180,5.76,9.0251,3.3657,0.1797,0.0002,0.0000,1.2149,flat,18.0,1,5.096
190,6.08,9.1084,3.5799,0.1797,0.0002,0.0000,1.4566,flat,18.0,1,5.074
200,6.40,9.1440,3.7865,0.1797,0.0002,0.0000,1.7130,flat,18.0,1,5.022
210,6.72,9.1231,3.9838,0.1797,0.0002,-0.0000,1.9139,flat,18.0,1,4.929
220,7.04,9.0537,4.1774,0.1797,0.0002,-0.0000,2.0699,flat,18.0,1,4.798
230,7.36,8.9390,4.3721,0.1797,0.0001,-0.0000,2.1845,flat,18.0,1,4.628
240,7.68,8.7815,4.5776,0.1797,0.0001,-0.0001,2.2753,flat,18.0,1,4.419
250,8.00,8.5782,4.8004,0.1797,0.0001,-0.0001,2.3502,flat,18.0,1,4.167
260,8.32,8.3218,5.0448,0.1797,0.0001,-0.0001,2.4092,flat,18.0,1,3.866
270,8.64,8.0046,5.3179,0.1797,0.0001,-0.0001,2.4502,flat,18.0,1,3.510
280,8.96,7.6171,5.6313,0.1797,0.0001,-0.0001,2.4703,flat,18.0,1,3.099
290,9.28,7.1966,5.9585,0.1798,0.0001,0.0001,2.5411,flat,18.0,1,2.684
300,9.60,6.7647,6.2089,0.1799,0.0000,-0.0000,2.7920,flat,18.0,1,2.291
310,9.92,6.2753,6.3613,0.1799,0.0001,0.0000,3.0332,flat,18.0,1,1.859
320,10.24,5.8123,6.3950,0.1799,0.0000,0.0000,-2.9916,flat,18.0,1,1.445
330,10.56,5.4085,6.3225,0.1799,0.0001,-0.0001,-2.7481,flat,18.0,1,1.058
340,10.88,4.9638,6.1106,0.1798,-0.0001,-0.0004,-2.6677,flat,18.0,2,12.757
350,11.20,4.4705,5.8769,0.1798,-0.0004,-0.0001,-2.7708,flat,18.0,2,12.216
360,11.52,3.9485,5.6876,0.1798,-0.0003,-0.0000,-2.8512,flat,18.0,2,11.661
370,11.84,3.4050,5.5331,0.1797,-0.0002,-0.0000,-2.8916,flat,18.0,2,11.096
380,12.16,2.8490,5.3936,0.1797,-0.0000,-0.0000,-2.9004,flat,18.0,2,10.524
390,12.48,2.2933,5.2559,0.1797,0.0000,0.0000,-2.8909,flat,18.0,2,9.953
400,12.80,1.7423,5.1124,0.1797,0.0001,0.0000,-2.8732,flat,18.0,2,9.385
410,13.12,1.1944,4.9588,0.1797,0.0001,-0.0000,-2.8546,flat,18.0,2,8.816
420,13.44,0.6483,4.7950,0.1797,0.0001,-0.0000,-2.8394,flat,18.0,2,8.246
430,13.76,0.1026,4.6230,0.1797,0.0000,-0.0000,-2.8293,flat,18.0,2,7.674
440,14.08,-0.4432,4.4456,0.1797,0.0000,-0.0000,-2.8241,flat,18.0,2,7.100
450,14.40,-0.9898,4.2656,0.1797,0.0000,-0.0000,-2.8227,flat,18.0,2,6.525
460,14.72,-1.5365,4.0853,0.1797,-0.0000,0.0000,-2.8236,flat,18.0,2,5.949
470,15.04,-2.0830,3.9058,0.1797,-0.0000,0.0000,-2.8259,flat,18.0,2,5.374
480,15.36,-2.6298,3.7276,0.1797,-0.0000,-0.0000,-2.8285,flat,18.0,2,4.799
490,15.68,-3.1773,3.5508,0.1797,-0.0000,-0.0000,-2.8306,flat,18.0,2,4.224
500,16.00,-3.7252,3.3750,0.1797,-0.0000,-0.0000,-2.8321,flat,18.0,2,3.649
510,16.32,-4.2736,3.1999,0.1797,-0.0000,-0.0000,-2.8329,flat,18.0,2,3.073
520,16.64,-4.8223,3.0250,0.1797,-0.0000,-0.0000,-2.8331,flat,18.0,2,2.498
530,16.96,-5.3708,2.8502,0.1797,0.0000,0.0000,-2.8331,flat,18.0,2,1.923
540,17.28,-5.8754,2.6893,0.1797,0.0000,0.0001,-2.8329,flat,18.0,2,1.394
550,17.60,-6.3126,2.5499,0.1797,0.0000,0.0001,-2.8251,flat,18.0,3,10.654
560,17.92,-6.7176,2.3895,0.1799,-0.0002,0.0000,-2.5328,flat,18.0,3,10.584
570,18.24,-7.0230,2.1005,0.1799,-0.0001,-0.0000,-2.1691,flat,18.0,3,10.381
580,18.56,-7.2418,1.7073,0.1799,-0.0001,-0.0001,-1.7690,flat,18.0,3,10.066
590,18.88,-7.3002,1.2444,0.1799,0.0000,-0.0000,-1.3551,flat,18.0,3,9.644
600,19.20,-7.1657,0.7811,0.1799,0.0001,-0.0000,-1.0922,flat,18.0,3,9.162
610,19.52,-6.9028,0.3393,0.1799,0.0002,-0.0000,-0.9376,flat,18.0,3,8.660
620,19.84,-6.5643,-0.0907,0.1798,0.0002,-0.0001,-0.8691,flat,18.0,3,8.149
630,20.16,-6.1969,-0.5237,0.1797,-0.0000,0.0000,-0.8769,flat,18.0,3,7.632
640,20.48,-5.8560,-0.9538,0.1798,-0.0002,0.0000,-0.9473,flat,18.0,3,7.132
650,20.80,-5.5585,-1.4019,0.1798,-0.0003,0.0000,-1.0658,flat,18.0,3,6.631
660,21.12,-5.3172,-1.8816,0.1799,-0.0002,-0.0000,-1.2046,flat,18.0,3,6.115
670,21.44,-5.1387,-2.3957,0.1799,-0.0003,-0.0000,-1.3298,flat,18.0,3,5.578
680,21.76,-5.0181,-2.9378,0.1798,-0.0004,-0.0000,-1.4156,flat,18.0,3,5.023
690,22.08,-4.9371,-3.4984,0.1797,-0.0002,-0.0000,-1.4526,flat,18.0,3,4.457
700,22.40,-4.8707,-4.0686,0.1797,-0.0000,-0.0000,-1.4556,flat,18.0,3,3.884
710,22.72,-4.8037,-4.6358,0.1797,0.0000,0.0000,-1.4407,flat,18.0,3,3.313
720,23.04,-4.7274,-5.1996,0.1797,0.0001,0.0000,-1.4197,flat,18.0,3,2.745
730,23.36,-4.6391,-5.7621,0.1797,0.0001,-0.0000,-1.4001,flat,18.0,3,2.175
740,23.68,-4.5424,-6.3090,0.1797,0.0000,0.0001,-1.3881,flat,18.0,3,1.620
750,24.00,-4.4510,-6.7864,0.1797,0.0000,0.0001,-1.3787,flat,18.0,3,1.134
760,24.32,-4.3653,-7.2411,0.1797,0.0001,0.0002,-1.3647,flat,18.0,0,15.645
770,24.64,-4.2882,-7.6171,0.1798,0.0000,-0.0000,-1.2425,flat,18.0,0,15.810
780,24.96,-4.1092,-8.0226,0.1778,0.0130,0.0000,-1.0288,flat,18.0,0,15.921
790,25.28,-3.8789,-8.3754,0.1795,0.0015,0.0001,-0.9613,flat,18.0,0,15.971
800,25.60,-3.6714,-8.6559,0.1797,0.0003,0.0001,-0.8711,flat,18.0,0,16.000
810,25.92,-3.4750,-8.8677,0.1797,0.0002,0.0001,-0.7527,flat,18.0,0,15.998
820,26.24,-3.2847,-9.0258,0.1797,0.0001,0.0001,-0.6148,flat,18.0,0,15.969
830,26.56,-3.1023,-9.1445,0.1797,0.0001,0.0000,-0.4623,flat,18.0,0,15.921
840,26.88,-2.9288,-9.2307,0.1797,0.0001,0.0000,-0.3027,flat,18.0,0,15.859
850,27.20,-2.7625,-9.2898,0.1797,0.0001,0.0000,-0.1331,flat,18.0,0,15.784
860,27.52,-2.6032,-9.3231,0.1797,0.0001,0.0000,0.0415,flat,18.0,0,15.698
870,27.84,-2.4493,-9.3265,0.1797,0.0001,0.0000,0.1918,flat,18.0,0,15.595
880,28.16,-2.2971,-9.3024,0.1797,0.0001,-0.0000,0.3144,flat,18.0,0,15.473
890,28.48,-2.1428,-9.2538,0.1797,0.0001,-0.0000,0.4160,flat,18.0,0,15.333
900,28.80,-1.9823,-9.1814,0.1797,0.0001,-0.0000,0.5009,flat,18.0,0,15.171
910,29.12,-1.8120,-9.0843,0.1797,0.0001,-0.0000,0.5721,flat,18.0,0,14.985
920,29.44,-1.6279,-8.9601,0.1797,0.0001,-0.0000,0.6318,flat,18.0,0,14.769
930,29.76,-1.4259,-8.8053,0.1797,0.0001,-0.0001,0.6815,flat,18.0,0,14.519
940,30.08,-1.2012,-8.6155,0.1797,0.0001,-0.0001,0.7225,flat,18.0,0,14.228
950,30.40,-0.9480,-8.3850,0.1797,0.0001,-0.0001,0.7567,flat,18.0,0,13.888
960,30.72,-0.6603,-8.1065,0.1797,0.0001,-0.0001,0.7820,flat,18.0,0,13.488
970,31.04,-0.3295,-7.7725,0.1797,0.0000,-0.0001,0.7974,flat,18.0,0,13.019
980,31.36,0.0501,-7.3815,0.1797,0.0000,-0.0000,0.8039,flat,18.0,0,12.475
990,31.68,0.3834,-6.9977,0.1799,-0.0000,-0.0000,0.9657,flat,18.0,0,11.967
1000,32.00,0.6511,-6.5544,0.1799,0.0000,-0.0000,1.1525,flat,18.0,0,11.457
1010,32.32,0.8508,-6.0519,0.1799,0.0003,-0.0000,1.2863,flat,18.0,0,10.950
1020,32.64,0.9995,-5.5065,0.1798,0.0002,-0.0000,1.3268,flat,18.0,0,10.450
1030,32.96,1.1391,-4.9649,0.1797,-0.0001,0.0000,1.2777,flat,18.0,0,9.966
1040,33.28,1.3060,-4.4487,0.1798,-0.0003,0.0000,1.1886,flat,18.0,0,9.488
1050,33.60,1.5180,-3.9591,0.1798,-0.0003,0.0000,1.0915,flat,18.0,0,9.001
1060,33.92,1.7755,-3.5015,0.1798,-0.0003,0.0000,0.9803,flat,18.0,0,8.506
1070,34.24,2.0850,-3.0833,0.1799,-0.0003,-0.0000,0.8564,flat,18.0,0,8.000
1080,34.56,2.4504,-2.7035,0.1798,-0.0004,-0.0000,0.7439,flat,18.0,0,7.476
1090,34.88,2.8647,-2.3492,0.1798,-0.0003,-0.0000,0.6647,flat,18.0,0,6.931
1100,35.20,3.3128,-2.0117,0.1797,-0.0001,-0.0000,0.6278,flat,18.0,0,6.370
1110,35.52,3.7777,-1.6769,0.1797,-0.0000,-0.0000,0.6245,flat,18.0,0,5.799
1120,35.84,4.2364,-1.3418,0.1797,0.0001,0.0000,0.6422,flat,18.0,0,5.232
1130,36.16,4.6838,-0.9992,0.1797,0.0001,0.0000,0.6696,flat,18.0,0,4.669
1140,36.48,5.1205,-0.6441,0.1797,0.0001,-0.0000,0.6983,flat,18.0,0,4.107
1150,36.80,5.5486,-0.2761,0.1797,0.0001,-0.0000,0.7235,flat,18.0,0,3.542
1160,37.12,5.9706,0.1035,0.1797,0.0001,-0.0000,0.7427,flat,18.0,0,2.975
1170,37.44,6.3888,0.4920,0.1797,0.0000,-0.0000,0.7547,flat,18.0,0,2.405
1180,37.76,6.8040,0.8845,0.1797,0.0000,0.0000,0.7599,flat,18.0,0,1.835
1190,38.08,7.1788,1.2410,0.1797,0.0000,0.0001,0.7598,flat,18.0,0,1.320
1200,38.40,7.5048,1.5505,0.1797,0.0000,0.0001,0.7759,flat,18.0,1,5.150
1210,38.72,7.8485,1.9210,0.1798,0.0002,-0.0000,0.8511,flat,18.0,1,5.072
1220,39.04,8.1424,2.2709,0.1797,0.0002,0.0002,0.9095,rough,14.0,1,5.021
1230,39.36,8.3408,2.5448,0.1797,0.0002,-0.0001,0.9951,flat,18.0,1,4.985
1240,39.68,8.5307,2.8615,0.1797,0.0002,0.0000,1.1181,flat,18.0,1,4.941
1250,40.00,8.6711,3.1646,0.1797,0.0002,0.0000,1.2788,flat,18.0,1,4.889
1260,40.32,8.7591,3.4586,0.1798,0.0002,0.0000,1.4680,flat,18.0,1,4.817
1270,40.64,8.7913,3.7448,0.1798,0.0002,0.0000,1.6734,flat,18.0,1,4.717
1280,40.96,8.7633,4.0242,0.1797,0.0002,-0.0000,1.8437,flat,18.0,1,4.580
1290,41.28,8.6819,4.3030,0.1797,0.0002,-0.0000,1.9797,flat,18.0,1,4.405
1300,41.60,8.5508,4.5885,0.1797,0.0002,-0.0001,2.0874,flat,18.0,1,4.194
1310,41.92,8.3700,4.8885,0.1797,0.0002,-0.0001,2.1703,flat,18.0,1,3.944
1320,42.24,8.1375,5.2112,0.1797,0.0001,-0.0001,2.2265,flat,18.0,1,3.657
1330,42.56,7.8521,5.5687,0.1797,0.0001,-0.0001,2.2625,flat,18.0,1,3.336
1340,42.88,7.5112,5.9733,0.1797,0.0001,-0.0001,2.2767,flat,18.0,1,2.999
1350,43.20,7.1663,6.3607,0.1798,0.0001,0.0002,2.3783,flat,18.0,1,2.716
1360,43.52,6.7844,6.6658,0.1799,0.0000,-0.0000,2.6120,flat,18.0,1,2.443
1370,43.84,6.3386,6.8901,0.1799,0.0000,-0.0000,2.8821,flat,18.0,1,2.147
1380,44.16,5.8647,6.9907,0.1799,0.0000,0.0000,-3.0517,flat,18.0,1,1.831
1390,44.48,5.4363,6.9312,0.1799,0.0000,0.0000,-2.7468,flat,18.0,1,1.496
1400,44.80,5.0920,6.7609,0.1799,-0.0000,0.0000,-2.5017,flat,18.0,1,1.163
1410,45.12,4.8169,6.5180,0.1799,0.0001,-0.0000,-2.3426,flat,18.0,2,12.750
1420,45.44,4.4965,6.2305,0.1799,0.0001,-0.0001,-2.5218,flat,18.0,2,12.352
1430,45.76,4.0684,5.9730,0.1799,-0.0000,-0.0000,-2.7647,flat,18.0,2,11.864
1440,46.08,3.5676,5.8026,0.1799,-0.0001,-0.0000,-2.9467,flat,18.0,2,11.335
1450,46.40,3.0185,5.7087,0.1798,-0.0003,-0.0000,-3.0263,flat,18.0,2,10.785
1460,46.72,2.4518,5.6438,0.1797,0.0000,0.0000,-3.0154,flat,18.0,2,10.229
1470,47.04,1.8979,5.5685,0.1797,0.0002,0.0000,-2.9578,flat,18.0,2,9.683
1480,47.36,1.3537,5.4590,0.1797,0.0003,-0.0000,-2.8887,flat,18.0,2,9.135
1490,47.68,0.8166,5.3116,0.1797,0.0002,-0.0000,-2.8298,flat,18.0,2,8.581
1500,48.00,0.2841,5.1329,0.1797,0.0001,-0.0000,-2.7901,flat,18.0,2,8.020
1510,48.32,-0.2467,4.9336,0.1797,0.0001,-0.0000,-2.7676,flat,18.0,2,7.454
1520,48.64,-0.7783,4.7225,0.1797,0.0000,-0.0000,-2.7577,flat,18.0,2,6.882
1530,48.96,-1.3116,4.5066,0.1797,0.0000,-0.0000,-2.7569,flat,18.0,2,6.306
1540,49.28,-1.8442,4.2917,0.1797,-0.0000,0.0000,-2.7615,flat,18.0,2,5.732
1550,49.60,-2.3773,4.0800,0.1797,-0.0000,0.0000,-2.7685,flat,18.0,2,5.158
1560,49.92,-2.9120,3.8720,0.1797,-0.0000,-0.0000,-2.7755,flat,18.0,2,4.585
1570,50.24,-3.4485,3.6674,0.1797,-0.0000,-0.0000,-2.7810,flat,18.0,2,4.011
1580,50.56,-3.9865,3.4653,0.1797,-0.0000,-0.0000,-2.7846,flat,18.0,2,3.436
1590,50.88,-4.5258,3.2646,0.1797,-0.0000,-0.0000,-2.7863,flat,18.0,2,2.861
1600,51.20,-5.0657,3.0644,0.1797,-0.0000,-0.0000,-2.7866,flat,18.0,2,2.285
1610,51.52,-5.5978,2.8670,0.1797,0.0000,0.0001,-2.7861,flat,18.0,2,1.719
1620,51.84,-6.0683,2.6922,0.1797,0.0000,0.0001,-2.7854,flat,18.0,2,1.218
1630,52.16,-6.4873,2.5364,0.1798,-0.0000,-0.0000,-2.6890,flat,18.0,3,10.676
1640,52.48,-6.8495,2.3120,0.1799,-0.0001,0.0000,-2.3576,flat,18.0,3,10.541
1650,52.80,-7.1157,1.9694,0.1799,-0.0001,0.0001,-1.9861,flat,18.0,3,10.281
1660,53.12,-7.2670,1.5461,0.1799,-0.0000,-0.0000,-1.5511,flat,18.0,3,9.920
1670,53.44,-7.2241,1.0769,0.1799,0.0000,-0.0000,-1.2091,flat,18.0,3,9.461
1680,53.76,-7.0183,0.6232,0.1799,0.0001,-0.0000,-1.0064,flat,18.0,3,8.966
1690,54.08,-6.7132,0.1871,0.1798,0.0003,-0.0001,-0.8996,flat,18.0,3,8.458
1700,54.40,-6.3550,-0.2491,0.1798,0.0001,-0.0000,-0.8757,flat,18.0,3,7.939
1710,54.72,-6.0040,-0.6821,0.1797,-0.0001,0.0000,-0.9195,flat,18.0,3,7.431
1720,55.04,-5.6895,-1.1237,0.1798,-0.0003,0.0000,-1.0199,flat,18.0,3,6.930
1730,55.36,-5.4263,-1.5918,0.1799,-0.0003,-0.0000,-1.1520,flat,18.0,3,6.419
1740,55.68,-5.2234,-2.0937,0.1799,-0.0003,-0.0000,-1.2843,flat,18.0,3,5.890
1750,56.00,-5.0813,-2.6261,0.1798,-0.0004,-0.0000,-1.3861,flat,18.0,3,5.341
1760,56.32,-4.9867,-3.1806,0.1798,-0.0002,-0.0000,-1.4416,flat,18.0,3,4.779
1770,56.64,-4.9161,-3.7481,0.1797,-0.0001,-0.0000,-1.4555,flat,18.0,3,4.207
1780,56.96,-4.8497,-4.3173,0.1797,0.0000,0.0000,-1.4467,flat,18.0,3,3.635
1790,57.28,-4.7770,-4.8823,0.1797,0.0001,0.0000,-1.4275,flat,18.0,3,3.066
1800,57.60,-4.6931,-5.4452,0.1797,0.0001,-0.0000,-1.4071,flat,18.0,3,2.497
1810,57.92,-4.5979,-6.0073,0.1797,0.0001,0.0000,-1.3907,flat,18.0,3,1.927
1820,58.24,-4.5010,-6.5261,0.1797,0.0000,0.0001,-1.3824,flat,18.0,3,1.399
1830,58.56,-4.4122,-6.9887,0.1797,-0.0000,-0.0001,-1.3916,flat,18.0,0,15.535
1840,58.88,-4.3312,-7.4081,0.1797,0.0001,0.0001,-1.3429,flat,18.0,0,15.717
1850,59.20,-4.2351,-7.7912,0.1798,-0.0001,-0.0001,-1.1018,flat,18.0,0,15.875
1860,59.52,-4.0104,-8.1835,0.1790,0.0053,0.0001,-1.0006,flat,18.0,0,15.947
1870,59.84,-3.7913,-8.5053,0.1797,0.0007,0.0001,-0.9271,flat,18.0,0,15.990
1880,60.16,-3.5898,-8.7548,0.1797,0.0002,0.0001,-0.8224,flat,18.0,0,16.006
1890,60.48,-3.3961,-8.9411,0.1797,0.0002,0.0001,-0.6964,flat,18.0,0,15.991
1900,60.80,-3.2087,-9.0817,0.1797,0.0001,0.0000,-0.5497,flat,18.0,0,15.953
1910,61.12,-3.0306,-9.1853,0.1797,0.0001,0.0000,-0.3954,flat,18.0,0,15.898
1920,61.44,-2.8603,-9.2596,0.1797,0.0001,0.0000,-0.2310,flat,18.0,0,15.831
1930,61.76,-2.6971,-9.3076,0.1797,0.0001,0.0000,-0.0584,flat,18.0,0,15.752
1940,62.08,-2.5405,-9.3286,0.1797,0.0001,0.0000,0.1098,flat,18.0,0,15.659
1950,62.40,-2.3880,-9.3197,0.1797,0.0001,-0.0000,0.2472,flat,18.0,0,15.548
1960,62.72,-2.2354,-9.2849,0.1797,0.0001,-0.0000,0.3602,flat,18.0,0,15.418
1970,63.04,-2.0790,-9.2261,0.1797,0.0001,-0.0000,0.4542,flat,18.0,0,15.269
1980,63.36,-1.9148,-9.1434,0.1797,0.0001,-0.0000,0.5329,flat,18.0,0,15.097
1990,63.68,-1.7392,-9.0351,0.1797,0.0001,-0.0000,0.5989,flat,18.0,0,14.899
2000,64.00,-1.5481,-8.8984,0.1797,0.0001,-0.0001,0.6542,flat,18.0,0,14.670
2010,64.32,-1.3371,-8.7294,0.1797,0.0001,-0.0001,0.7000,flat,18.0,0,14.403
2020,64.64,-1.1011,-8.5231,0.1797,0.0001,-0.0001,0.7379,flat,18.0,0,14.092
2030,64.96,-0.8341,-8.2731,0.1797,0.0001,-0.0001,0.7686,flat,18.0,0,13.728
2040,65.28,-0.5293,-7.9720,0.1797,0.0001,-0.0001,0.7899,flat,18.0,0,13.301
2050,65.60,-0.1770,-7.6122,0.1797,0.0000,-0.0001,0.8006,flat,18.0,0,12.798
2060,65.92,0.1900,-7.2255,0.1798,0.0001,0.0001,0.8722,flat,18.0,0,12.266
2070,66.24,0.4871,-6.8141,0.1799,0.0001,-0.0000,1.0703,flat,18.0,0,11.760
2080,66.56,0.7179,-6.3370,0.1799,0.0001,-0.0000,1.2342,flat,18.0,0,11.250
2090,66.88,0.8858,-5.8092,0.1798,0.0003,-0.0001,1.3220,flat,18.0,0,10.748
2100,67.20,1.0247,-5.2584,0.1797,-0.0000,0.0000,1.3096,flat,18.0,0,10.254
2110,67.52,1.1742,-4.7303,0.1798,-0.0003,0.0000,1.2323,flat,18.0,0,9.777
2120,67.84,1.3644,-4.2283,0.1798,-0.0003,0.0000,1.1363,flat,18.0,0,9.296
2130,68.16,1.6009,-3.7546,0.1798,-0.0003,0.0000,1.0345,flat,18.0,0,8.804
2140,68.48,1.8853,-3.3177,0.1798,-0.0003,0.0000,0.9138,flat,18.0,0,8.303
2150,68.80,2.2251,-2.9210,0.1799,-0.0003,-0.0000,0.7929,flat,18.0,0,7.788
2160,69.12,2.6182,-2.5565,0.1798,-0.0004,-0.0001,0.6966,flat,18.0,0,7.253
2170,69.44,3.0528,-2.2126,0.1797,-0.0002,-0.0000,0.6400,flat,18.0,0,6.699
2180,69.76,3.5123,-1.8776,0.1797,-0.0001,-0.0000,0.6229,flat,18.0,0,6.131
2190,70.08,3.9758,-1.5429,0.1797,0.0000,0.0000,0.6323,flat,18.0,0,5.561
2200,70.40,4.4284,-1.2046,0.1797,0.0001,0.0000,0.6564,flat,18.0,0,4.997
2210,70.72,4.8699,-0.8556,0.1797,0.0001,0.0000,0.6853,flat,18.0,0,4.435
2220,71.04,5.3017,-0.4935,0.1797,0.0001,-0.0000,0.7124,flat,18.0,0,3.871
2230,71.36,5.7262,-0.1190,0.1797,0.0001,-0.0000,0.7347,flat,18.0,0,3.305
2240,71.68,6.1459,0.2658,0.1797,0.0001,-0.0000,0.7500,flat,18.0,0,2.736
2250,72.00,6.5631,0.6577,0.1797,0.0000,-0.0000,0.7582,flat,18.0,0,2.165
2260,72.32,6.9672,1.0415,0.1797,0.0000,0.0001,0.7605,flat,18.0,0,1.609
2270,72.64,7.3201,1.3768,0.1797,-0.0000,0.0001,0.7590,flat,18.0,0,1.125
2280,72.96,7.6428,1.7028,0.1799,-0.0000,-0.0002,0.8662,flat,18.0,1,5.110
2290,73.28,7.9607,2.0960,0.1798,0.0001,0.0000,0.9153,flat,18.0,1,5.017
2300,73.60,8.2014,2.4231,0.1797,0.0001,0.0002,0.9842,flat,18.0,1,4.960
2310,73.92,8.4015,2.7509,0.1797,0.0002,0.0000,1.0837,flat,18.0,1,4.903
2320,74.24,8.5628,3.0731,0.1797,0.0002,0.0000,1.2246,flat,18.0,1,4.847
2330,74.56,8.6715,3.3842,0.1797,0.0002,0.0000,1.3950,flat,18.0,1,4.777
2340,74.88,8.7266,3.6868,0.1798,0.0002,0.0000,1.5906,flat,18.0,1,4.684
2350,75.20,8.7214,3.9822,0.1798,0.0003,-0.0000,1.7708,flat,18.0,1,4.557
2360,75.52,8.6599,4.2745,0.1797,0.0002,-0.0000,1.9154,flat,18.0,1,4.394
2370,75.84,8.5472,4.5712,0.1797,0.0002,-0.0000,2.0308,flat,18.0,1,4.195
2380,76.16,8.3851,4.8800,0.1797,0.0002,-0.0001,2.1208,flat,18.0,1,3.961
2390,76.48,8.1720,5.2090,0.1797,0.0002,-0.0001,2.1849,flat,18.0,1,3.691
2400,76.80,7.9075,5.5693,0.1797,0.0001,-0.0001,2.2262,flat,18.0,1,3.392
2410,77.12,7.5899,5.9733,0.1797,0.0001,-0.0001,2.2458,flat,18.0,1,3.078
2420,77.44,7.2526,6.3872,0.1798,0.0001,0.0001,2.3064,flat,18.0,1,2.806
2430,77.76,6.8955,6.7158,0.1799,0.0000,-0.0000,2.5274,flat,18.0,1,2.565
2440,78.08,6.4695,6.9732,0.1799,0.0000,-0.0000,2.7800,flat,18.0,1,2.302
2450,78.40,5.9997,7.1225,0.1799,0.0000,-0.0000,3.1082,flat,18.0,1,2.019
2460,78.72,5.5395,7.1123,0.1799,0.0000,0.0000,-2.8325,flat,18.0,1,1.703
2470,79.04,5.1574,6.9641,0.1799,0.0000,0.0000,-2.5638,flat,18.0,1,1.373
2480,79.36,4.8635,6.7375,0.1799,0.0000,0.0001,-2.3502,flat,18.0,1,1.047
2490,79.68,4.6274,6.4586,0.1798,0.0001,-0.0001,-2.2666,flat,18.0,2,12.552
2500,80.00,4.3096,6.1451,0.1799,0.0000,-0.0000,-2.5038,flat,18.0,2,12.147
2510,80.32,3.8883,5.8834,0.1799,-0.0000,-0.0000,-2.7541,flat,18.0,2,11.664
2520,80.64,3.3918,5.7099,0.1799,-0.0001,-0.0000,-2.9465,flat,18.0,2,11.138
2530,80.96,2.8446,5.6174,0.1798,-0.0003,-0.0001,-3.0356,flat,18.0,2,10.590
2540,81.28,2.2773,5.5586,0.1797,-0.0000,0.0000,-3.0278,flat,18.0,2,10.036
2550,81.60,1.7225,5.4902,0.1797,0.0002,0.0000,-2.9694,flat,18.0,2,9.491
2560,81.92,1.1777,5.3870,0.1797,0.0003,-0.0000,-2.8973,flat,18.0,2,8.945
2570,82.24,0.6403,5.2442,0.1797,0.0002,-0.0000,-2.8351,flat,18.0,2,8.393
2580,82.56,0.1077,5.0681,0.1797,0.0002,-0.0000,-2.7923,flat,18.0,2,7.833
2590,82.88,-0.4228,4.8699,0.1797,0.0001,-0.0000,-2.7681,flat,18.0,2,7.266
2600,83.20,-0.9540,4.6591,0.1797,0.0000,-0.0000,-2.7572,flat,18.0,2,6.695
2610,83.52,-1.4870,4.4429,0.1797,0.0000,-0.0000,-2.7559,flat,18.0,2,6.120
2620,83.84,-2.0194,4.2274,0.1797,-0.0000,0.0000,-2.7604,flat,18.0,2,5.545
2630,84.16,-2.5523,4.0151,0.1797,-0.0000,0.0000,-2.7675,flat,18.0,2,4.972
2640,84.48,-3.0867,3.8067,0.1797,-0.0000,-0.0000,-2.7748,flat,18.0,2,4.398
2650,84.80,-3.6229,3.6019,0.1797,-0.0000,-0.0000,-2.7806,flat,18.0,2,3.824
2660,85.12,-4.1609,3.3996,0.1797,-0.0000,-0.0000,-2.7844,flat,18.0,2,3.250
2670,85.44,-4.7001,3.1989,0.1797,-0.0000,-0.0000,-2.7863,flat,18.0,2,2.675
2680,85.76,-5.2400,2.9987,0.1797,-0.0000,-0.0000,-2.7867,flat,18.0,2,2.099
2690,86.08,-5.7572,2.8070,0.1797,0.0000,0.0001,-2.7863,flat,18.0,2,1.549
2700,86.40,-6.2062,2.6402,0.1797,0.0000,0.0001,-2.7856,flat,18.0,2,1.071
2710,86.72,-6.6163,2.4780,0.1799,-0.0002,0.0000,-2.5974,flat,18.0,3,10.647
2720,87.04,-6.9443,2.2151,0.1799,-0.0001,-0.0000,-2.2493,flat,18.0,3,10.471
2730,87.36,-7.1878,1.8342,0.1799,-0.0000,-0.0000,-1.8636,flat,18.0,3,10.172
2740,87.68,-7.2912,1.3787,0.1799,0.0000,-0.0000,-1.4359,flat,18.0,3,9.768
2750,88.00,-7.1953,0.9116,0.1799,0.0000,-0.0000,-1.1410,flat,18.0,3,9.295
2760,88.32,-6.9563,0.4645,0.1799,0.0001,-0.0000,-0.9660,flat,18.0,3,8.795
2770,88.64,-6.6317,0.0322,0.1798,0.0003,-0.0001,-0.8808,flat,18.0,3,8.286
2780,88.96,-6.2666,-0.4028,0.1797,0.0000,0.0000,-0.8752,flat,18.0,3,7.767
2790,89.28,-5.9209,-0.8336,0.1797,-0.0002,0.0000,-0.9340,flat,18.0,3,7.264
2800,89.60,-5.6157,-1.2785,0.1798,-0.0003,0.0000,-1.0449,flat,18.0,3,6.764
2810,89.92,-5.3645,-1.7530,0.1799,-0.0002,-0.0000,-1.1813,flat,18.0,3,6.250
