step,time_s,x,y,z,roll,pitch,yaw,terrain,speed,target_idx,dist_to_target
10,0.32,0.9450,-0.8122,0.1596,0.1924,0.0193,-0.2536,slope,18.0,0,5.754
20,0.64,1.1916,-0.8717,0.1601,0.1503,0.0453,-0.2745,rough,14.0,0,5.528
30,0.96,1.5068,-0.9925,0.1443,0.1418,0.0559,-0.4685,slope,18.0,0,5.213
40,1.28,1.9069,-1.2438,0.1056,0.0823,0.1390,-0.7032,slope,18.0,0,4.749
50,1.60,2.2932,-1.6211,0.0084,0.1149,0.2519,-0.8141,slope,18.0,0,4.209
60,1.92,2.6364,-2.0541,-0.2233,0.0906,0.3838,-0.8910,rough,14.0,0,3.663
70,2.24,2.8426,-2.4275,-0.3683,0.1907,0.3458,-0.9300,rough,14.0,0,3.262
80,2.56,3.0789,-2.7365,-0.4491,0.1806,0.1221,-0.9083,slope,18.0,0,2.884
90,2.88,3.3592,-3.1589,-0.4913,0.3419,0.0823,-0.8403,rough,14.0,0,2.407
100,3.20,3.6651,-3.4896,-0.5615,0.3341,0.1397,-0.6953,rough,14.0,0,1.971
110,3.52,3.9142,-3.7622,-0.6096,0.3375,-0.0505,-0.7006,rough,14.0,0,1.619
120,3.84,4.1785,-3.9950,-0.5546,0.3268,-0.2722,-0.7272,slope,18.0,0,1.279
130,4.16,4.4659,-4.2238,-0.4534,0.2266,-0.3384,-0.6995,rough,14.0,1,12.229
140,4.48,4.6784,-4.3851,-0.3768,0.1058,-0.2848,-0.4377,rough,14.0,1,12.445
150,4.80,4.8362,-4.5071,-0.3402,0.0128,-0.1128,0.2005,rough,14.0,1,12.609
160,5.12,4.9878,-4.5090,-0.3323,0.0208,-0.1115,0.7124,rough,14.0,1,12.657
170,5.44,5.1904,-4.3513,-0.3021,0.0758,-0.2623,0.9904,rough,14.0,1,12.573
180,5.76,5.2793,-4.0624,-0.2188,-0.0907,-0.3183,1.2977,rough,14.0,1,12.332
190,6.08,5.2661,-3.6303,-0.1942,-0.3364,0.0109,1.5956,rough,14.0,1,11.922
200,6.40,5.1623,-3.2388,-0.2340,-0.3133,0.1581,1.8619,rough,14.0,1,11.520
210,6.72,5.0117,-2.9038,-0.2874,-0.1494,0.1195,2.0778,rough,14.0,1,11.153
220,7.04,4.8512,-2.6129,-0.2805,-0.0245,-0.1193,2.2417,rough,14.0,1,10.824
230,7.36,4.6402,-2.3197,-0.2304,0.0722,-0.2998,2.3016,rough,14.0,1,10.475
240,7.68,4.3125,-1.9539,-0.1726,0.1008,0.0626,2.3754,rough,14.0,1,10.020
250,8.00,4.0673,-1.6605,-0.1607,0.2571,-0.1531,2.3368,rough,14.0,1,9.664
260,8.32,3.8134,-1.3574,-0.1186,0.2482,-0.1821,2.2701,rough,14.0,1,9.297
270,8.64,3.6274,-1.0698,-0.0396,0.3407,-0.2745,2.1832,rough,14.0,1,8.967
280,8.96,3.4859,-0.7574,0.0528,0.3989,-0.3209,2.0892,rough,14.0,1,8.627
290,9.28,3.3040,-0.4253,0.1386,0.3258,-0.2305,2.0284,rough,14.0,1,8.258
300,9.60,3.1220,0.0302,0.1364,0.3625,0.0359,1.9267,rough,14.0,1,7.770
310,9.92,3.0102,0.4637,0.1203,0.4051,0.0645,1.8725,rough,14.0,1,7.322
320,10.24,2.9176,0.8775,0.0946,0.3767,-0.0044,1.8131,rough,14.0,1,6.899
330,10.56,2.8286,1.2676,0.0951,0.3578,-0.0382,1.8212,rough,14.0,1,6.499
340,10.88,2.7234,1.7058,0.0902,0.3713,0.0481,1.8253,rough,14.0,1,6.049
350,11.20,2.6164,2.1610,0.0325,0.3498,0.1735,1.8152,slope,18.0,1,5.582
360,11.52,2.4647,2.7077,-0.1433,0.3350,0.3496,1.8741,slope,18.0,1,5.015
370,11.84,2.3820,3.2150,-0.3580,0.4589,0.4105,1.8708,rough,14.0,1,4.506
380,12.16,2.3042,3.5927,-0.5157,0.4751,0.4001,1.8245,rough,14.0,1,4.123
390,12.48,2.2303,3.9504,-0.6640,0.4675,0.3352,1.7737,rough,14.0,1,3.760
400,12.80,2.0944,4.3795,-0.8301,0.2321,0.5037,1.8900,rough,14.0,1,3.310
410,13.12,1.9617,4.7984,-1.0215,0.1928,0.5314,1.9570,rough,14.0,1,2.871
420,13.44,1.7516,5.2733,-1.2946,-0.1965,0.4364,1.8640,rough,14.0,1,2.353
430,13.76,1.6169,5.6214,-1.3920,-0.0320,0.1311,1.9436,rough,14.0,1,1.981
440,14.08,1.4199,5.9125,-1.3885,-0.4047,0.1315,1.8711,rough,14.0,1,1.647
450,14.40,1.3322,6.1716,-1.3930,-0.4039,-0.0404,1.8429,rough,14.0,1,1.374
460,14.72,1.2578,6.4698,-1.3508,-0.3111,-0.1727,1.8530,rough,14.0,1,1.067
470,15.04,1.1431,6.7318,-1.3331,-0.3772,0.0288,1.9119,rough,14.0,2,14.741
480,15.36,0.9946,6.9196,-1.3555,-0.4819,0.1096,2.1002,rough,14.0,2,14.800
490,15.68,0.7912,7.1605,-1.3593,-0.4845,-0.1757,2.3748,rough,14.0,2,14.874
500,16.00,0.5273,7.4108,-1.2942,-0.3708,-0.3224,2.5370,rough,14.0,2,14.928
510,16.32,0.1954,7.6019,-1.1586,-0.4065,-0.3997,2.6277,rough,14.0,2,14.903
520,16.64,-0.1851,7.8029,-1.0857,-0.3774,-0.1358,2.6055,rough,14.0,2,14.871
530,16.96,-0.5857,8.0123,-1.1241,-0.4930,0.1842,2.4479,rough,14.0,2,14.850
540,17.28,-0.8402,8.1721,-1.1605,-0.5003,-0.0542,2.6088,rough,14.0,2,14.867
550,17.60,-1.1450,8.3241,-1.1765,-0.5347,0.2040,2.5801,rough,14.0,2,14.860
560,17.92,-1.2298,8.3484,-1.1818,-0.2188,-0.0993,2.4146,rough,14.0,2,14.843
570,18.24,-1.3418,8.3630,-1.1729,0.0064,-0.2869,2.2690,rough,14.0,2,14.806
580,18.56,-1.3749,8.4140,-1.1478,0.1805,-0.3356,1.9682,rough,14.0,2,14.837
590,18.88,-1.4120,8.4291,-1.1341,0.2590,-0.3154,1.7579,rough,14.0,2,14.835
600,19.20,-1.4363,8.4369,-1.1290,0.3162,-0.3192,1.6153,rough,14.0,2,14.831
610,19.52,-1.4486,8.4609,-1.1273,0.3097,-0.2914,1.4891,rough,14.0,2,14.847
620,19.84,-1.4254,8.4612,-1.1388,0.2874,-0.2563,1.4762,rough,14.0,2,14.858
630,20.16,-1.4218,8.4620,-1.1373,0.2617,-0.2462,1.4876,rough,14.0,2,14.860
640,20.48,-1.4217,8.4635,-1.1357,0.2376,-0.2287,1.4941,rough,14.0,2,14.861
650,20.80,-1.4191,8.4664,-1.1338,0.1988,-0.2097,1.5108,rough,14.0,2,14.865
660,21.12,-1.4184,8.4675,-1.1329,0.1832,-0.1998,1.5139,rough,14.0,2,14.866
670,21.44,-1.4174,8.4678,-1.1328,0.1737,-0.1967,1.5190,rough,14.0,2,14.867
680,21.76,-1.4164,8.4679,-1.1329,0.1697,-0.1981,1.5241,rough,14.0,2,14.868
690,22.08,-1.4171,8.4682,-1.1325,0.1741,-0.1980,1.5187,rough,14.0,2,14.868
700,22.40,-1.4166,8.4681,-1.1327,0.1706,-0.1979,1.5217,rough,14.0,2,14.868
710,22.72,-1.4159,8.4685,-1.1327,0.1725,-0.2020,1.5232,rough,14.0,2,14.868
720,23.04,-1.4158,8.4682,-1.1327,0.1688,-0.1994,1.5244,rough,14.0,2,14.868
730,23.36,-1.4153,8.4684,-1.1328,0.1712,-0.2034,1.5253,rough,14.0,2,14.869
740,23.68,-1.4156,8.4687,-1.1326,0.1723,-0.2028,1.5237,rough,14.0,2,14.869
750,24.00,-1.4152,8.4684,-1.1327,0.1704,-0.2031,1.5251,rough,14.0,2,14.869
760,24.32,-1.4154,8.4686,-1.1326,0.1718,-0.2030,1.5237,rough,14.0,2,14.869
770,24.64,-1.4158,8.4687,-1.1325,0.1726,-0.2015,1.5217,rough,14.0,2,14.869
780,24.96,-1.4155,8.4684,-1.1325,0.1709,-0.2018,1.5227,rough,14.0,2,14.869
790,25.28,-1.4156,8.4686,-1.1325,0.1720,-0.2018,1.5217,rough,14.0,2,14.869
800,25.60,-1.4146,8.4686,-1.1327,0.1714,-0.2056,1.5261,rough,14.0,2,14.869
810,25.92,-1.4160,8.4683,-1.1323,0.1710,-0.1990,1.5192,rough,14.0,2,14.868
820,26.24,-1.4146,8.4685,-1.1327,0.1710,-0.2053,1.5253,rough,14.0,2,14.869
830,26.56,-1.4152,8.4686,-1.1326,0.1719,-0.2030,1.5226,rough,14.0,2,14.869
840,26.88,-1.4152,8.4682,-1.1326,0.1692,-0.2009,1.5227,rough,14.0,2,14.868
850,27.20,-1.4150,8.4684,-1.1325,0.1712,-0.2032,1.5226,rough,14.0,2,14.869
860,27.52,-1.4139,8.4685,-1.1329,0.1704,-0.2074,1.5276,rough,14.0,3,15.083
870,27.84,-1.4145,8.4685,-1.1327,0.1715,-0.2055,1.5248,rough,14.0,3,15.083
880,28.16,-1.4157,8.4682,-1.1323,0.1709,-0.1994,1.5185,rough,14.0,3,15.082
890,28.48,-1.4143,8.4684,-1.1327,0.1708,-0.2058,1.5248,rough,14.0,3,15.083
900,28.80,-1.4148,8.4684,-1.1326,0.1718,-0.2037,1.5222,rough,14.0,3,15.083
910,29.12,-1.4138,8.4684,-1.1329,0.1706,-0.2075,1.5271,rough,14.0,3,15.083
920,29.44,-1.4142,8.4680,-1.1328,0.1671,-0.2032,1.5260,rough,14.0,3,15.083
930,29.76,-1.4139,8.4682,-1.1328,0.1699,-0.2066,1.5259,rough,14.0,3,15.083
940,30.08,-1.4142,8.4683,-1.1327,0.1712,-0.2059,1.5240,rough,14.0,3,15.083
950,30.40,-1.4147,8.4683,-1.1326,0.1719,-0.2039,1.5217,rough,14.0,3,15.083
960,30.72,-1.4138,8.4684,-1.1329,0.1708,-0.2072,1.5261,rough,14.0,3,15.083
970,31.04,-1.4141,8.4679,-1.1328,0.1671,-0.2032,1.5255,rough,14.0,3,15.083
980,31.36,-1.4138,8.4681,-1.1328,0.1698,-0.2068,1.5255,rough,14.0,3,15.083
990,31.68,-1.4141,8.4682,-1.1327,0.1711,-0.2061,1.5238,rough,14.0,3,15.083
1000,32.00,-1.4145,8.4683,-1.1326,0.1718,-0.2042,1.5215,rough,14.0,3,15.083
1010,32.32,-1.4136,8.4683,-1.1329,0.1707,-0.2075,1.5259,rough,14.0,3,15.083
1020,32.64,-1.4142,8.4683,-1.1327,0.1716,-0.2055,1.5231,rough,14.0,3,15.083
1030,32.96,-1.4134,8.4683,-1.1329,0.1704,-0.2085,1.5272,rough,14.0,3,15.083
1040,33.28,-1.4141,8.4684,-1.1327,0.1714,-0.2059,1.5237,rough,14.0,3,15.083
1050,33.60,-1.4133,8.4684,-1.1329,0.1702,-0.2086,1.5274,rough,14.0,3,15.083
1060,33.92,-1.4141,8.4684,-1.1327,0.1712,-0.2059,1.5239,rough,14.0,3,15.083
1070,34.24,-1.4133,8.4684,-1.1329,0.1701,-0.2086,1.5275,rough,14.0,3,15.083
1080,34.56,-1.4141,8.4685,-1.1327,0.1711,-0.2058,1.5239,rough,14.0,3,15.083
1090,34.88,-1.4133,8.4685,-1.1329,0.1701,-0.2085,1.5276,rough,14.0,3,15.083
1100,35.20,-1.4141,8.4685,-1.1326,0.1711,-0.2058,1.5239,rough,14.0,3,15.083
1110,35.52,-1.4134,8.4685,-1.1329,0.1700,-0.2083,1.5276,rough,14.0,3,15.083
1120,35.84,-1.4141,8.4686,-1.1326,0.1710,-0.2056,1.5240,rough,14.0,3,15.083
1130,36.16,-1.4136,8.4686,-1.1327,0.1704,-0.2078,1.5265,rough,14.0,3,15.083
1140,36.48,-1.4144,8.4686,-1.1325,0.1711,-0.2045,1.5227,rough,14.0,3,15.083
1150,36.80,-1.4139,8.4686,-1.1326,0.1705,-0.2064,1.5251,rough,14.0,3,15.083
1160,37.12,-1.4133,8.4687,-1.1328,0.1696,-0.2086,1.5282,rough,14.0,3,15.084
1170,37.44,-1.4142,8.4687,-1.1325,0.1708,-0.2049,1.5235,rough,14.0,3,15.083
1180,37.76,-1.4138,8.4687,-1.1327,0.1702,-0.2067,1.5258,rough,14.0,3,15.083
1190,38.08,-1.4132,8.4687,-1.1328,0.1694,-0.2087,1.5285,rough,14.0,3,15.084
1200,38.40,-1.4142,8.4688,-1.1325,0.1706,-0.2049,1.5237,rough,14.0,3,15.083
1210,38.72,-1.4139,8.4688,-1.1326,0.1702,-0.2064,1.5256,rough,14.0,3,15.083
1220,39.04,-1.4134,8.4688,-1.1327,0.1697,-0.2081,1.5275,rough,14.0,3,15.084
1230,39.36,-1.4131,8.4688,-1.1328,0.1690,-0.2094,1.5295,rough,14.0,0,14.642
1240,39.68,-1.4141,8.4688,-1.1325,0.1703,-0.2054,1.5245,rough,14.0,0,14.642
1250,40.00,-1.4138,8.4689,-1.1326,0.1699,-0.2065,1.5260,rough,14.0,0,14.642
1260,40.32,-1.4134,8.4689,-1.1327,0.1695,-0.2080,1.5278,rough,14.0,0,14.642
1270,40.64,-1.4132,8.4689,-1.1327,0.1692,-0.2090,1.5289,rough,14.0,0,14.642
1280,40.96,-1.4129,8.4689,-1.1328,0.1686,-0.2099,1.5306,rough,14.0,0,14.642
1290,41.28,-1.4141,8.4689,-1.1325,0.1700,-0.2055,1.5250,rough,14.0,0,14.643
1300,41.60,-1.4138,8.4690,-1.1325,0.1698,-0.2065,1.5262,rough,14.0,0,14.642
1310,41.92,-1.4136,8.4690,-1.1326,0.1695,-0.2072,1.5271,rough,14.0,0,14.642
1320,42.24,-1.4134,8.4690,-1.1326,0.1692,-0.2081,1.5283,rough,14.0,0,14.642
1330,42.56,-1.4132,8.4690,-1.1327,0.1690,-0.2088,1.5292,rough,14.0,0,14.642
1340,42.88,-1.4130,8.4690,-1.1328,0.1685,-0.2094,1.5304,rough,14.0,0,14.642
1350,43.20,-1.4128,8.4690,-1.1328,0.1683,-0.2102,1.5313,rough,14.0,0,14.642
1360,43.52,-1.4127,8.4691,-1.1328,0.1681,-0.2107,1.5320,rough,14.0,0,14.642
1370,43.84,-1.4140,8.4691,-1.1325,0.1697,-0.2058,1.5258,rough,14.0,0,14.643
1380,44.16,-1.4138,8.4691,-1.1325,0.1694,-0.2064,1.5266,rough,14.0,0,14.643
1390,44.48,-1.4138,8.4691,-1.1325,0.1693,-0.2067,1.5270,rough,14.0,0,14.643
1400,44.80,-1.4137,8.4691,-1.1325,0.1692,-0.2070,1.5275,rough,14.0,0,14.643
1410,45.12,-1.4136,8.4692,-1.1325,0.1691,-0.2072,1.5278,rough,14.0,0,14.643
1420,45.44,-1.4136,8.4692,-1.1325,0.1690,-0.2073,1.5279,rough,14.0,0,14.643
1430,45.76,-1.4136,8.4692,-1.1325,0.1690,-0.2073,1.5280,rough,14.0,0,14.643
1440,46.08,-1.4136,8.4692,-1.1325,0.1690,-0.2073,1.5280,rough,14.0,0,14.643
1450,46.40,-1.4136,8.4692,-1.1325,0.1690,-0.2072,1.5281,rough,14.0,0,14.643
1460,46.72,-1.4136,8.4692,-1.1325,0.1689,-0.2072,1.5281,rough,14.0,0,14.643
1470,47.04,-1.4136,8.4693,-1.1325,0.1689,-0.2072,1.5281,rough,14.0,0,14.643
1480,47.36,-1.4136,8.4693,-1.1325,0.1689,-0.2071,1.5281,rough,14.0,0,14.643
1490,47.68,-1.4137,8.4693,-1.1325,0.1689,-0.2068,1.5278,rough,14.0,0,14.643
1500,48.00,-1.4138,8.4693,-1.1325,0.1689,-0.2066,1.5277,rough,14.0,0,14.643
1510,48.32,-1.4139,8.4693,-1.1324,0.1690,-0.2061,1.5271,rough,14.0,0,14.643
1520,48.64,-1.4126,8.4693,-1.1328,0.1674,-0.2111,1.5335,rough,14.0,0,14.642
1530,48.96,-1.4127,8.4693,-1.1328,0.1675,-0.2108,1.5332,rough,14.0,0,14.642
1540,49.28,-1.4128,8.4693,-1.1327,0.1676,-0.2104,1.5328,rough,14.0,0,14.642
1550,49.60,-1.4129,8.4694,-1.1327,0.1677,-0.2098,1.5321,rough,14.0,0,14.642
1560,49.92,-1.4131,8.4694,-1.1326,0.1680,-0.2094,1.5314,rough,14.0,0,14.642
1570,50.24,-1.4132,8.4694,-1.1326,0.1680,-0.2091,1.5311,rough,14.0,0,14.643
1580,50.56,-1.4133,8.4694,-1.1326,0.1682,-0.2084,1.5303,rough,14.0,0,14.643
1590,50.88,-1.4135,8.4694,-1.1325,0.1684,-0.2076,1.5294,rough,14.0,1,2.615
1600,51.20,-1.4137,8.4694,-1.1325,0.1685,-0.2071,1.5288,rough,14.0,1,2.615
1610,51.52,-1.4139,8.4695,-1.1324,0.1687,-0.2061,1.5277,rough,14.0,1,2.615
1620,51.84,-1.4127,8.4695,-1.1327,0.1672,-0.2109,1.5339,rough,14.0,1,2.614
1630,52.16,-1.4129,8.4695,-1.1327,0.1674,-0.2099,1.5327,rough,14.0,1,2.614
1640,52.48,-1.4131,8.4695,-1.1326,0.1678,-0.2093,1.5317,rough,14.0,1,2.614
1650,52.80,-1.4134,8.4695,-1.1325,0.1680,-0.2083,1.5306,rough,14.0,1,2.615
1660,53.12,-1.4136,8.4695,-1.1325,0.1682,-0.2075,1.5296,rough,14.0,1,2.615
1670,53.44,-1.4138,8.4695,-1.1324,0.1685,-0.2066,1.5286,rough,14.0,1,2.615
1680,53.76,-1.4127,8.4695,-1.1327,0.1670,-0.2109,1.5343,rough,14.0,1,2.614
1690,54.08,-1.4129,8.4695,-1.1327,0.1673,-0.2098,1.5330,rough,14.0,1,2.614
1700,54.40,-1.4132,8.4696,-1.1326,0.1677,-0.2091,1.5319,rough,14.0,1,2.615
1710,54.72,-1.4135,8.4696,-1.1325,0.1680,-0.2077,1.5302,rough,14.0,1,2.615
1720,55.04,-1.4138,8.4696,-1.1324,0.1683,-0.2069,1.5293,rough,14.0,1,2.615
1730,55.36,-1.4127,8.4696,-1.1327,0.1669,-0.2110,1.5346,rough,14.0,1,2.614
1740,55.68,-1.4131,8.4696,-1.1326,0.1675,-0.2095,1.5326,rough,14.0,1,2.614
1750,56.00,-1.4133,8.4696,-1.1325,0.1677,-0.2088,1.5318,rough,14.0,1,2.615
1760,56.32,-1.4136,8.4696,-1.1325,0.1680,-0.2075,1.5302,rough,14.0,1,2.615
1770,56.64,-1.4126,8.4696,-1.1327,0.1668,-0.2112,1.5351,rough,14.0,1,2.614
1780,56.96,-1.4130,8.4696,-1.1326,0.1671,-0.2097,1.5334,rough,14.0,1,2.614
1790,57.28,-1.4133,8.4697,-1.1326,0.1676,-0.2089,1.5322,rough,14.0,1,2.615
1800,57.60,-1.4136,8.4697,-1.1325,0.1680,-0.2075,1.5304,rough,14.0,1,2.615
1810,57.92,-1.4127,8.4697,-1.1327,0.1667,-0.2111,1.5352,rough,14.0,1,2.614
1820,58.24,-1.4131,8.4697,-1.1326,0.1673,-0.2095,1.5330,rough,14.0,1,2.615
1830,58.56,-1.4136,8.4697,-1.1325,0.1678,-0.2076,1.5309,rough,14.0,1,2.615
1840,58.88,-1.4127,8.4697,-1.1327,0.1666,-0.2111,1.5354,rough,14.0,1,2.614
1850,59.20,-1.4132,8.4697,-1.1326,0.1673,-0.2094,1.5331,rough,14.0,1,2.615
1860,59.52,-1.4136,8.4697,-1.1325,0.1678,-0.2076,1.5309,rough,14.0,1,2.615
1870,59.84,-1.4127,8.4697,-1.1327,0.1666,-0.2111,1.5355,rough,14.0,1,2.614
1880,60.16,-1.4132,8.4697,-1.1326,0.1673,-0.2093,1.5332,rough,14.0,1,2.615
1890,60.48,-1.4137,8.4698,-1.1324,0.1678,-0.2075,1.5310,rough,14.0,1,2.615
1900,60.80,-1.4127,8.4698,-1.1327,0.1666,-0.2110,1.5356,rough,14.0,1,2.614
1910,61.12,-1.4132,8.4698,-1.1326,0.1673,-0.2093,1.5332,rough,14.0,1,2.615
1920,61.44,-1.4137,8.4698,-1.1324,0.1678,-0.2074,1.5310,rough,14.0,1,2.615
1930,61.76,-1.4128,8.4698,-1.1327,0.1666,-0.2109,1.5356,rough,14.0,1,2.614
1940,62.08,-1.4133,8.4698,-1.1326,0.1673,-0.2092,1.5333,rough,14.0,1,2.615
1950,62.40,-1.4137,8.4698,-1.1324,0.1678,-0.2073,1.5311,rough,14.0,1,2.615
1960,62.72,-1.4128,8.4698,-1.1327,0.1666,-0.2108,1.5357,rough,14.0,2,14.871
1970,63.04,-1.4133,8.4698,-1.1326,0.1673,-0.2091,1.5333,rough,14.0,2,14.871
1980,63.36,-1.4138,8.4698,-1.1324,0.1678,-0.2072,1.5311,rough,14.0,2,14.871
1990,63.68,-1.4128,8.4698,-1.1327,0.1666,-0.2107,1.5357,rough,14.0,2,14.871
2000,64.00,-1.4133,8.4699,-1.1325,0.1672,-0.2090,1.5334,rough,14.0,2,14.871
2010,64.32,-1.4138,8.4699,-1.1324,0.1678,-0.2071,1.5312,rough,14.0,2,14.871
2020,64.64,-1.4129,8.4699,-1.1327,0.1666,-0.2106,1.5358,rough,14.0,2,14.871
2030,64.96,-1.4134,8.4699,-1.1325,0.1672,-0.2089,1.5334,rough,14.0,2,14.871
2040,65.28,-1.4138,8.4699,-1.1324,0.1677,-0.2070,1.5312,rough,14.0,2,14.871
2050,65.60,-1.4129,8.4699,-1.1327,0.1666,-0.2105,1.5358,rough,14.0,2,14.871
2060,65.92,-1.4134,8.4699,-1.1325,0.1672,-0.2088,1.5335,rough,14.0,2,14.871
2070,66.24,-1.4139,8.4699,-1.1324,0.1677,-0.2070,1.5312,rough,14.0,2,14.871
2080,66.56,-1.4129,8.4699,-1.1327,0.1666,-0.2104,1.5358,rough,14.0,2,14.871
2090,66.88,-1.4134,8.4699,-1.1325,0.1672,-0.2087,1.5335,rough,14.0,2,14.871
2100,67.20,-1.4139,8.4700,-1.1324,0.1677,-0.2069,1.5313,rough,14.0,2,14.871
2110,67.52,-1.4130,8.4700,-1.1327,0.1665,-0.2104,1.5359,rough,14.0,2,14.871
2120,67.84,-1.4135,8.4700,-1.1325,0.1672,-0.2086,1.5335,rough,14.0,2,14.871
2130,68.16,-1.4139,8.4700,-1.1324,0.1677,-0.2068,1.5313,rough,14.0,2,14.871
2140,68.48,-1.4130,8.4700,-1.1326,0.1665,-0.2103,1.5359,rough,14.0,2,14.871
2150,68.80,-1.4135,8.4700,-1.1325,0.1672,-0.2086,1.5336,rough,14.0,2,14.871
2160,69.12,-1.4140,8.4700,-1.1324,0.1677,-0.2067,1.5314,rough,14.0,2,14.871
2170,69.44,-1.4130,8.4700,-1.1326,0.1665,-0.2102,1.5360,rough,14.0,2,14.871
2180,69.76,-1.4135,8.4700,-1.1325,0.1672,-0.2085,1.5336,rough,14.0,2,14.871
2190,70.08,-1.4140,8.4700,-1.1323,0.1677,-0.2066,1.5314,rough,14.0,2,14.871
2200,70.40,-1.4131,8.4700,-1.1326,0.1665,-0.2101,1.5360,rough,14.0,2,14.871
2210,70.72,-1.4135,8.4701,-1.1325,0.1672,-0.2084,1.5337,rough,14.0,2,14.871
2220,71.04,-1.4140,8.4701,-1.1323,0.1677,-0.2065,1.5314,rough,14.0,2,14.871
2230,71.36,-1.4131,8.4701,-1.1326,0.1665,-0.2100,1.5361,rough,14.0,2,14.871
2240,71.68,-1.4136,8.4701,-1.1325,0.1672,-0.2083,1.5337,rough,14.0,2,14.871
2250,72.00,-1.4141,8.4701,-1.1323,0.1677,-0.2064,1.5315,rough,14.0,2,14.871
2260,72.32,-1.4131,8.4701,-1.1326,0.1665,-0.2099,1.5361,rough,14.0,2,14.871
2270,72.64,-1.4136,8.4701,-1.1325,0.1671,-0.2082,1.5337,rough,14.0,2,14.871
2280,72.96,-1.4141,8.4701,-1.1323,0.1676,-0.2063,1.5315,rough,14.0,2,14.871
2290,73.28,-1.4131,8.4701,-1.1326,0.1665,-0.2098,1.5361,rough,14.0,2,14.871
2300,73.60,-1.4136,8.4701,-1.1324,0.1671,-0.2081,1.5338,rough,14.0,2,14.871
2310,73.92,-1.4141,8.4702,-1.1323,0.1676,-0.2063,1.5316,rough,14.0,2,14.871
2320,74.24,-1.4132,8.4702,-1.1326,0.1664,-0.2098,1.5362,rough,14.0,3,14.871
2330,74.56,-1.4137,8.4702,-1.1324,0.1671,-0.2081,1.5338,rough,14.0,3,15.085
2340,74.88,-1.4129,8.4702,-1.1326,0.1661,-0.2107,1.5374,rough,14.0,3,15.085
2350,75.20,-1.4136,8.4702,-1.1325,0.1669,-0.2084,1.5344,rough,14.0,3,15.085
2360,75.52,-1.4141,8.4702,-1.1323,0.1675,-0.2063,1.5319,rough,14.0,3,15.085
2370,75.84,-1.4132,8.4702,-1.1326,0.1664,-0.2097,1.5364,rough,14.0,3,15.085
2380,76.16,-1.4139,8.4702,-1.1324,0.1672,-0.2070,1.5328,rough,14.0,3,15.085
2390,76.48,-1.4131,8.4702,-1.1326,0.1662,-0.2100,1.5368,rough,14.0,3,15.085
2400,76.80,-1.4137,8.4702,-1.1324,0.1670,-0.2080,1.5341,rough,14.0,3,15.085
2410,77.12,-1.4130,8.4702,-1.1326,0.1660,-0.2106,1.5376,rough,14.0,3,15.085
2420,77.44,-1.4136,8.4702,-1.1324,0.1668,-0.2083,1.5345,rough,14.0,3,15.085
2430,77.76,-1.4128,8.4702,-1.1327,0.1658,-0.2114,1.5387,rough,14.0,3,15.085
2440,78.08,-1.4136,8.4703,-1.1325,0.1667,-0.2086,1.5350,rough,14.0,3,15.085
2450,78.40,-1.4142,8.4703,-1.1323,0.1674,-0.2062,1.5322,rough,14.0,3,15.085
2460,78.72,-1.4134,8.4703,-1.1325,0.1666,-0.2091,1.5357,rough,14.0,3,15.085
2470,79.04,-1.4141,8.4703,-1.1323,0.1673,-0.2064,1.5325,rough,14.0,3,15.085
2480,79.36,-1.4133,8.4703,-1.1325,0.1664,-0.2095,1.5363,rough,14.0,3,15.085
2490,79.68,-1.4141,8.4703,-1.1323,0.1672,-0.2066,1.5328,rough,14.0,3,15.085
2500,80.00,-1.4133,8.4703,-1.1326,0.1662,-0.2096,1.5369,rough,14.0,3,15.085
2510,80.32,-1.4140,8.4703,-1.1323,0.1671,-0.2068,1.5331,rough,14.0,3,15.085
2520,80.64,-1.4132,8.4703,-1.1326,0.1661,-0.2097,1.5370,rough,14.0,3,15.085
2530,80.96,-1.4141,8.4703,-1.1323,0.1671,-0.2068,1.5332,rough,14.0,3,15.085
2540,81.28,-1.4133,8.4703,-1.1326,0.1661,-0.2097,1.5371,rough,14.0,3,15.085
2550,81.60,-1.4141,8.4704,-1.1323,0.1671,-0.2067,1.5332,rough,14.0,3,15.085
2560,81.92,-1.4133,8.4704,-1.1326,0.1661,-0.2096,1.5371,rough,14.0,3,15.085
2570,82.24,-1.4141,8.4704,-1.1323,0.1671,-0.2067,1.5333,rough,14.0,3,15.085
2580,82.56,-1.4134,8.4704,-1.1325,0.1663,-0.2095,1.5367,rough,14.0,3,15.085
2590,82.88,-1.4142,8.4704,-1.1323,0.1671,-0.2064,1.5331,rough,14.0,3,15.085
2600,83.20,-1.4135,8.4704,-1.1325,0.1664,-0.2090,1.5362,rough,14.0,3,15.085
2610,83.52,-1.4142,8.4704,-1.1323,0.1672,-0.2062,1.5329,rough,14.0,3,15.085
2620,83.84,-1.4136,8.4704,-1.1324,0.1665,-0.2086,1.5358,rough,14.0,3,15.085
2630,84.16,-1.4129,8.4704,-1.1327,0.1656,-0.2113,1.5394,rough,14.0,3,15.085
2640,84.48,-1.4137,8.4704,-1.1324,0.1666,-0.2083,1.5355,rough,14.0,3,15.085
2650,84.80,-1.4130,8.4704,-1.1326,0.1657,-0.2107,1.5388,rough,14.0,3,15.085
2660,85.12,-1.4138,8.4704,-1.1324,0.1666,-0.2080,1.5352,rough,14.0,3,15.085
2670,85.44,-1.4131,8.4704,-1.1326,0.1658,-0.2103,1.5384,rough,14.0,3,15.085
2680,85.76,-1.4139,8.4705,-1.1324,0.1668,-0.2074,1.5346,rough,14.0,3,15.085
2690,86.08,-1.4133,8.4704,-1.1326,0.1659,-0.2098,1.5378,rough,14.0,0,14.643
2700,86.40,-1.4141,8.4705,-1.1323,0.1669,-0.2068,1.5340,rough,14.0,0,14.644
2710,86.72,-1.4134,8.4705,-1.1325,0.1662,-0.2094,1.5371,rough,14.0,0,14.644
2720,87.04,-1.4142,8.4705,-1.1323,0.1670,-0.2062,1.5334,rough,14.0,0,14.644
2730,87.36,-1.4137,8.4705,-1.1324,0.1664,-0.2085,1.5361,rough,14.0,0,14.644
2740,87.68,-1.4131,8.4705,-1.1326,0.1656,-0.2107,1.5392,rough,14.0,0,14.643
2750,88.00,-1.4138,8.4705,-1.1324,0.1666,-0.2079,1.5355,rough,14.0,0,14.644
2760,88.32,-1.4133,8.4705,-1.1326,0.1658,-0.2099,1.5383,rough,14.0,0,14.644
2770,88.64,-1.4141,8.4705,-1.1323,0.1668,-0.2068,1.5343,rough,14.0,0,14.644
2780,88.96,-1.4135,8.4705,-1.1325,0.1661,-0.2093,1.5373,rough,14.0,0,14.644
2790,89.28,-1.4143,8.4705,-1.1323,0.1670,-0.2061,1.5335,rough,14.0,0,14.644
2800,89.60,-1.4137,8.4705,-1.1324,0.1664,-0.2084,1.5363,rough,14.0,0,14.644
2810,89.92,-1.4131,8.4705,-1.1326,0.1656,-0.2106,1.5393,rough,14.0,0,14.643
