step,time_s,x,y,z,roll,pitch,yaw,terrain,speed,target_idx,dist_to_target
10,0.32,-0.0060,-0.0582,0.1767,0.0019,-0.0137,0.0009,flat,18.0,0,5.403
20,0.64,0.2599,-0.0577,0.1810,-0.0003,0.0086,-0.0280,flat,18.0,0,5.197
30,0.96,0.6297,-0.0785,0.1797,-0.0001,0.0002,-0.2958,flat,18.0,0,4.906
40,1.28,1.0598,-0.2544,0.1799,-0.0019,-0.0020,-0.5703,flat,18.0,0,4.474
50,1.60,1.4618,-0.5515,0.1798,-0.0033,-0.0042,-0.7474,flat,18.0,0,3.980
60,1.92,1.8336,-0.9322,0.1799,0.0000,-0.0001,-0.8516,flat,18.0,0,3.448
70,2.24,2.1911,-1.3617,0.1799,-0.0001,-0.0000,-0.8939,flat,18.0,0,2.891
80,2.56,2.5484,-1.8028,0.1799,0.0001,0.0000,-0.8762,flat,18.0,0,2.327
90,2.88,2.9077,-2.2175,0.1799,0.0002,0.0001,-0.8255,flat,18.0,0,1.782
100,3.20,3.2463,-2.5664,0.1799,0.0002,0.0001,-0.7655,flat,18.0,0,1.297
110,3.52,3.5644,-2.8546,0.1799,0.0002,-0.0000,-0.7300,flat,18.0,1,6.966
120,3.84,3.8465,-3.1716,0.1797,-0.0001,-0.0000,-1.0593,flat,18.0,1,6.901
130,4.16,4.0303,-3.5763,0.1797,-0.0000,-0.0001,-1.5057,flat,18.0,1,6.731
140,4.48,4.0255,-4.0188,0.1797,-0.0001,0.0001,-1.9391,flat,18.0,1,6.421
150,4.80,3.8226,-4.4276,0.1799,0.0000,-0.0001,-2.2302,flat,18.0,1,5.998
160,5.12,3.4909,-4.7839,0.1799,-0.0001,-0.0000,-2.4306,flat,18.0,1,5.514
170,5.44,3.0804,-5.0924,0.1799,-0.0001,-0.0000,-2.5984,flat,18.0,1,5.001
180,5.76,2.6078,-5.3505,0.1799,-0.0001,-0.0000,-2.7105,flat,18.0,1,4.476
190,6.08,2.0987,-5.5806,0.1841,-0.0124,-0.0130,-2.7348,flat,18.0,1,3.948
200,6.40,1.5841,-5.8107,0.1852,-0.0237,-0.0021,-2.7032,flat,18.0,1,3.426
210,6.72,1.1026,-6.0500,0.1825,-0.0018,0.0108,-2.6028,flat,18.0,1,2.932
220,7.04,0.6672,-6.3406,0.1813,-0.0062,0.0003,-2.4850,flat,18.0,1,2.440
230,7.36,0.2879,-6.6678,0.1922,-0.0066,-0.0621,-2.3667,flat,18.0,1,1.960
240,7.68,-0.0511,-7.0562,0.2037,-0.0733,-0.0143,-2.2570,slope,18.0,1,1.456
250,8.00,-0.3102,-7.4019,0.1995,-0.0321,0.0323,-2.1702,rough,14.0,1,1.033
260,8.32,-0.5409,-7.7601,0.1876,-0.0201,0.0262,-2.1078,flat,18.0,2,4.704
270,8.64,-0.7938,-8.1637,0.1757,0.0260,0.0001,-2.1461,flat,18.0,2,4.904
280,8.96,-1.0149,-8.4912,0.1796,0.0015,0.0001,-2.2342,flat,18.0,2,5.087
290,9.28,-1.2196,-8.7336,0.1829,-0.0131,-0.0060,-2.3623,flat,18.0,2,5.221
300,9.60,-1.4061,-8.9147,0.1866,-0.0244,-0.0069,-2.4933,flat,18.0,2,5.319
310,9.92,-1.5850,-9.0476,0.1853,-0.0184,0.0061,-2.6295,flat,18.0,2,5.385
320,10.24,-1.7535,-9.1431,0.1869,-0.0333,0.0019,-2.7476,flat,18.0,2,5.425
330,10.56,-1.9097,-9.2057,0.1883,-0.0417,-0.0001,-2.8365,rough,14.0,2,5.444
340,10.88,-2.0538,-9.2446,0.1900,-0.0516,-0.0020,-2.9094,rough,14.0,2,5.448
350,11.20,-2.1912,-9.2716,0.1901,-0.0520,-0.0018,-2.9683,rough,14.0,2,5.445
360,11.52,-2.3344,-9.2942,0.1898,-0.0506,-0.0018,-3.0599,rough,14.0,2,5.440
370,11.84,-2.4601,-9.3224,0.1897,-0.0500,-0.0018,2.9864,rough,14.0,2,5.447
380,12.16,-2.5792,-9.3207,0.1899,-0.0513,-0.0018,2.8029,rough,14.0,2,5.429
390,12.48,-2.6938,-9.2954,0.1906,-0.0549,-0.0018,2.6553,rough,14.0,2,5.390
400,12.80,-2.8026,-9.2495,0.1920,-0.0494,-0.0182,2.5351,rough,14.0,2,5.334
410,13.12,-2.9108,-9.1812,0.1910,-0.0292,-0.0250,2.4364,rough,14.0,2,5.257
420,13.44,-3.0290,-9.0780,0.1928,-0.0497,-0.0005,2.3508,rough,14.0,2,5.147
430,13.76,-3.1437,-8.9512,0.1901,-0.0210,0.0016,2.2745,rough,14.0,2,5.016
440,14.08,-3.2775,-8.7969,0.1917,-0.0433,0.0084,2.2100,rough,14.0,2,4.860
450,14.40,-3.4183,-8.6077,0.1892,-0.0363,0.0030,2.1514,rough,14.0,2,4.673
460,14.72,-3.5744,-8.3481,0.1833,-0.0114,0.0086,2.0988,flat,18.0,2,4.421
470,15.04,-3.7705,-7.9849,0.1807,-0.0044,0.0014,2.0634,flat,18.0,2,4.077
480,15.36,-4.0044,-7.5443,0.1910,-0.0143,-0.0388,2.0499,flat,18.0,2,3.679
490,15.68,-4.2338,-7.0752,0.2218,-0.0082,-0.0472,1.9721,flat,18.0,2,3.279
500,16.00,-4.4174,-6.6002,0.2210,-0.0408,0.0324,1.8616,flat,18.0,2,2.895
510,16.32,-4.5280,-6.0971,0.1967,-0.0155,0.0563,1.6552,slope,18.0,2,2.494
520,16.64,-4.5439,-5.6082,0.1787,0.0035,0.0003,1.3649,flat,18.0,2,2.095
530,16.96,-4.4337,-5.2036,0.1798,-0.0002,0.0013,1.1063,flat,18.0,2,1.713
540,17.28,-4.2290,-4.8605,0.1748,-0.0319,0.0000,0.8952,flat,18.0,2,1.323
550,17.60,-3.9703,-4.5402,0.1795,-0.0018,0.0000,0.9273,flat,18.0,3,11.001
560,17.92,-3.7228,-4.2091,0.1897,0.0236,-0.0398,1.0905,flat,18.0,3,10.616
570,18.24,-3.5199,-3.8178,0.1915,0.0661,0.0053,1.2483,rough,14.0,3,10.186
580,18.56,-3.4013,-3.4355,0.1898,0.0566,-0.0010,1.4051,rough,14.0,3,9.786
590,18.88,-3.3458,-3.0313,0.1860,0.0280,0.0082,1.6016,rough,14.0,3,9.381
600,19.20,-3.3791,-2.6041,0.1845,-0.0009,-0.0017,1.7397,flat,18.0,3,8.977
610,19.52,-3.4607,-2.1226,0.1829,-0.0184,-0.0051,1.6250,flat,18.0,3,8.538
620,19.84,-3.4572,-1.6107,0.1825,-0.0106,0.0052,1.4155,flat,18.0,3,8.049
630,20.16,-3.3704,-1.0962,0.1842,-0.0104,-0.0031,1.3678,flat,18.0,3,7.534
640,20.48,-3.2615,-0.5868,0.1778,-0.0097,-0.0034,1.3469,flat,18.0,3,7.016
650,20.80,-3.1289,-0.0865,0.1770,-0.0140,0.0005,1.2380,flat,18.0,3,6.500
660,21.12,-2.9409,0.4188,0.1811,0.0021,-0.0053,1.1711,flat,18.0,3,5.961
670,21.44,-2.7136,0.9097,0.1962,0.0254,-0.0605,1.1183,flat,18.0,3,5.423
680,21.76,-2.4615,1.4303,0.2234,0.0037,-0.0130,1.1125,flat,18.0,3,4.849
690,22.08,-2.2099,1.9534,0.2034,-0.0290,0.0608,1.1329,slope,18.0,3,4.275
700,22.40,-1.9781,2.4568,0.1814,0.0001,0.0107,1.1630,flat,18.0,3,3.726
710,22.72,-1.7682,2.9744,0.1795,-0.0018,0.0004,1.2108,flat,18.0,3,3.171
720,23.04,-1.5766,3.5063,0.1813,-0.0038,0.0058,1.2330,flat,18.0,3,2.609
730,23.36,-1.4053,4.0046,0.1809,0.0058,-0.0010,1.2482,transition,15.0,3,2.085
740,23.68,-1.2507,4.4757,0.1808,0.0055,-0.0001,1.2701,slope,18.0,3,1.592
750,24.00,-1.0957,4.9107,0.2047,0.0753,-0.0707,1.2965,rough,14.0,3,1.138
760,24.32,-0.9924,5.2399,0.2599,0.1125,-0.2273,1.3301,slope,18.0,0,10.104
770,24.64,-0.9211,5.4571,0.3180,0.1744,-0.3770,1.2603,slope,18.0,0,10.254
780,24.96,-0.8075,5.5998,0.3722,0.2848,-0.2953,0.8281,slope,18.0,0,10.322
790,25.28,-0.7408,5.5771,0.3606,0.3919,-0.0821,0.2224,slope,18.0,0,10.269
800,25.60,-0.6095,5.4687,0.3147,0.3753,0.1626,-0.3512,rough,14.0,0,10.111
810,25.92,-0.4191,5.3678,0.2862,0.3501,0.0816,-0.4784,rough,14.0,0,9.932
820,26.24,-0.1723,5.2187,0.2515,0.2316,0.0472,-0.6526,rough,14.0,0,9.686
830,26.56,0.0988,4.9696,0.2053,0.0915,0.0794,-0.8591,slope,18.0,0,9.342
840,26.88,0.3555,4.6438,0.1833,-0.0047,0.0305,-1.0411,rough,14.0,0,8.936
850,27.20,0.5701,4.2565,0.1794,0.0000,-0.0032,-1.0857,flat,18.0,0,8.494
860,27.52,0.7992,3.8083,0.1798,-0.0001,-0.0004,-1.1250,flat,18.0,0,7.991
870,27.84,1.0091,3.3401,0.1798,0.0000,-0.0004,-1.2218,flat,18.0,0,7.478
880,28.16,1.1699,2.8273,0.1799,-0.0002,0.0001,-1.3606,flat,18.0,0,6.946
890,28.48,1.2784,2.2717,0.1799,-0.0001,-0.0000,-1.3975,flat,18.0,0,6.402
900,28.80,1.3793,1.7181,0.1799,0.0001,0.0000,-1.3577,flat,18.0,0,5.866
910,29.12,1.5027,1.1828,0.1799,0.0001,-0.0002,-1.2863,flat,18.0,0,5.341
920,29.44,1.6626,0.6576,0.1799,0.0001,0.0000,-1.2315,flat,18.0,0,4.810
930,29.76,1.8510,0.1612,0.1799,-0.0001,-0.0001,-1.1242,flat,18.0,0,4.291
940,30.08,2.0973,-0.3093,0.1799,-0.0001,0.0002,-1.0123,flat,18.0,0,3.763
950,30.40,2.3988,-0.7701,0.1799,0.0002,0.0000,-0.9563,flat,18.0,0,3.213
960,30.72,2.7286,-1.2224,0.1799,0.0001,-0.0000,-0.9196,flat,18.0,0,2.653
970,31.04,3.0775,-1.6721,0.1799,0.0001,-0.0000,-0.9041,flat,18.0,0,2.085
980,31.36,3.4148,-2.1026,0.1799,-0.0000,0.0001,-0.9117,flat,18.0,0,1.540
990,31.68,3.7027,-2.4785,0.1799,-0.0000,0.0000,-0.9305,flat,18.0,0,1.070
1000,32.00,3.9669,-2.8671,0.1798,0.0007,0.0001,-1.1807,flat,18.0,1,7.210
1010,32.32,4.1020,-3.2760,0.1798,0.0015,-0.0000,-1.7077,flat,18.0,1,6.996
1020,32.64,4.0099,-3.6948,0.1798,0.0008,-0.0000,-2.0995,flat,18.0,1,6.633
1030,32.96,3.7368,-4.0814,0.1798,-0.0002,0.0004,-2.3270,flat,18.0,1,6.168
1040,33.28,3.3623,-4.4241,0.1799,-0.0001,-0.0002,-2.4918,flat,18.0,1,5.660
1050,33.60,2.9188,-4.7310,0.1799,-0.0002,-0.0001,-2.5842,flat,18.0,1,5.129
1060,33.92,2.4341,-5.0242,0.1814,-0.0020,-0.0084,-2.6051,flat,18.0,1,4.580
1070,34.24,1.9636,-5.3188,0.1889,-0.0379,-0.0243,-2.5773,flat,18.0,1,4.045
1080,34.56,1.5574,-5.5949,0.1969,-0.0667,0.0156,-2.5263,rough,14.0,1,3.572
1090,34.88,1.2185,-5.8483,0.1936,-0.0323,0.0262,-2.4536,flat,18.0,1,3.162
1100,35.20,0.8340,-6.1730,0.1780,-0.0085,0.0075,-2.3731,flat,18.0,1,2.673
1110,35.52,0.4629,-6.5598,0.1826,-0.0136,-0.0207,-2.2941,flat,18.0,1,2.144
1120,35.84,0.1301,-6.9772,0.1954,-0.0445,-0.0178,-2.2300,flat,18.0,1,1.613
1130,36.16,-0.1369,-7.3600,0.1978,-0.0493,0.0269,-2.1618,rough,14.0,1,1.148
1140,36.48,-0.3420,-7.6867,0.1863,-0.0397,0.0282,-2.1182,rough,14.0,2,4.764
1150,36.80,-0.5808,-8.0571,0.1802,-0.0019,0.0029,-2.1484,flat,18.0,2,4.926
1160,37.12,-0.8164,-8.4015,0.1795,-0.0000,-0.0025,-2.2277,flat,18.0,2,5.100
1170,37.44,-1.0373,-8.6669,0.1804,-0.0012,-0.0019,-2.3394,flat,18.0,2,5.235
1180,37.76,-1.2443,-8.8634,0.1832,-0.0090,-0.0078,-2.4729,flat,18.0,2,5.331
1190,38.08,-1.4411,-9.0082,0.1869,-0.0239,-0.0002,-2.5956,flat,18.0,2,5.395
1200,38.40,-1.6334,-9.1114,0.1855,-0.0200,0.0055,-2.7200,flat,18.0,2,5.430
1210,38.72,-1.8200,-9.1859,0.1872,-0.0341,0.0028,-2.8141,flat,18.0,2,5.448
1220,39.04,-1.9913,-9.2343,0.1889,-0.0463,-0.0019,-2.8909,rough,14.0,2,5.452
1230,39.36,-2.1441,-9.2622,0.1888,-0.0450,-0.0015,-2.9995,rough,14.0,2,5.445
1240,39.68,-2.2788,-9.2988,0.1904,-0.0535,-0.0018,3.0633,rough,14.0,2,5.454
1250,40.00,-2.4033,-9.3069,0.1910,-0.0568,-0.0018,2.8667,rough,14.0,2,5.441
1260,40.32,-2.5225,-9.2885,0.1916,-0.0598,-0.0019,2.7096,rough,14.0,2,5.405
1270,40.64,-2.6371,-9.2484,0.1927,-0.0591,-0.0102,2.5818,rough,14.0,2,5.350
1280,40.96,-2.7485,-9.1883,0.1943,-0.0529,-0.0290,2.4768,rough,14.0,2,5.278
1290,41.28,-2.8679,-9.0907,0.1955,-0.0483,-0.0246,2.3862,rough,14.0,2,5.170
1300,41.60,-2.9944,-8.9760,0.1991,-0.0549,0.0098,2.3111,rough,14.0,2,5.047
1310,41.92,-3.1228,-8.8357,0.1966,-0.0574,0.0127,2.2443,rough,14.0,2,4.901
1320,42.24,-3.2657,-8.6581,0.1952,-0.0552,0.0054,2.1843,rough,14.0,2,4.721
1330,42.56,-3.4141,-8.4412,0.1887,-0.0310,0.0058,2.1313,flat,18.0,2,4.506
1340,42.88,-3.5993,-8.1222,0.1813,-0.0038,0.0057,2.0916,flat,18.0,2,4.197
1350,43.20,-3.8268,-7.7151,0.1844,-0.0031,-0.0275,2.0701,flat,18.0,2,3.817
1360,43.52,-4.0871,-7.2442,0.2024,-0.0294,-0.0374,2.0256,flat,18.0,2,3.404
1370,43.84,-4.2914,-6.7781,0.2259,-0.0102,0.0044,1.8941,flat,18.0,2,3.015
1380,44.16,-4.4310,-6.2700,0.2078,-0.0075,0.0630,1.7506,flat,18.0,2,2.601
1390,44.48,-4.4892,-5.7813,0.1817,-0.0012,0.0199,1.4712,slope,18.0,2,2.205
1400,44.80,-4.4214,-5.3134,0.1796,0.0002,-0.0027,1.2540,flat,18.0,2,1.787
1410,45.12,-4.2972,-5.0121,0.1798,0.0002,0.0000,0.9442,flat,18.0,2,1.479
1420,45.44,-4.0424,-4.7483,0.1799,-0.0008,0.0010,0.7124,flat,18.0,2,1.112
1430,45.76,-3.7186,-4.4541,0.1783,-0.0066,0.0011,0.8184,flat,18.0,3,10.852
1440,46.08,-3.4112,-4.1091,0.1836,0.0208,-0.0012,1.0022,flat,18.0,3,10.442
1450,46.40,-3.1610,-3.6771,0.1788,-0.0018,0.0010,1.1983,flat,18.0,3,9.964
1460,46.72,-2.9935,-3.1734,0.1798,0.0005,0.0004,1.2901,flat,18.0,3,9.436
1470,47.04,-2.8642,-2.6661,0.1875,0.0002,-0.0526,1.4393,flat,18.0,3,8.913
1480,47.36,-2.8323,-2.1468,0.2095,-0.0391,-0.0266,1.6567,flat,18.0,3,8.399
1490,47.68,-2.8891,-1.6962,0.2093,-0.0672,0.0361,1.7324,rough,14.0,3,7.974
1500,48.00,-2.9577,-1.3411,0.1993,-0.0301,0.0470,1.8110,flat,18.0,3,7.648
1510,48.32,-3.0646,-0.9197,0.1842,-0.0140,0.0158,1.7978,flat,18.0,3,7.272
1520,48.64,-3.1528,-0.4631,0.1799,0.0038,-0.0012,1.7184,flat,18.0,3,6.864
1530,48.96,-3.2058,-0.0004,0.1841,0.0209,-0.0011,1.5674,flat,18.0,3,6.446
1540,49.28,-3.1766,0.4647,0.1837,0.0039,0.0092,1.2432,flat,18.0,3,6.001
1550,49.60,-2.9958,0.9216,0.1909,-0.0044,-0.0575,1.0896,flat,18.0,3,5.510
1560,49.92,-2.7378,1.3795,0.2137,-0.0007,-0.0397,0.9635,flat,18.0,3,4.989
1570,50.24,-2.4063,1.8580,0.2078,-0.0411,0.0441,0.9458,flat,18.0,3,4.426
1580,50.56,-2.0790,2.3104,0.1885,0.0011,0.0597,0.9726,slope,18.0,3,3.895
1590,50.88,-1.7885,2.7605,0.1788,0.0069,-0.0021,1.0420,flat,18.0,3,3.384
1600,51.20,-1.5253,3.2382,0.1823,-0.0075,-0.0057,1.1530,flat,18.0,3,2.859
1610,51.52,-1.3181,3.7476,0.1798,-0.0019,0.0069,1.2223,flat,18.0,3,2.321
1620,51.84,-1.1626,4.2231,0.1781,-0.0112,0.0003,1.2905,slope,18.0,3,1.829
1630,52.16,-1.0376,4.7106,0.1803,0.0043,0.0012,1.3438,slope,18.0,3,1.332
1640,52.48,-0.9278,5.1268,0.2311,0.0883,-0.1313,1.3835,slope,18.0,0,9.973
1650,52.80,-0.8669,5.3923,0.2928,0.1000,-0.3637,1.3494,slope,18.0,0,10.171
1660,53.12,-0.7855,5.5693,0.3599,0.1948,-0.3233,1.0596,slope,18.0,0,10.284
1670,53.44,-0.6804,5.6256,0.3826,0.3471,-0.2287,0.5557,slope,18.0,0,10.283
1680,53.76,-0.4466,5.6536,0.3956,0.4030,-0.0950,0.1859,slope,18.0,0,10.198
1690,54.08,-0.0939,5.6309,0.3842,0.4170,0.0368,-0.0986,rough,14.0,0,10.021
1700,54.40,0.2124,5.5038,0.3339,0.3490,0.1309,-0.4412,rough,14.0,0,9.776
1710,54.72,0.3439,5.3652,0.2981,0.3405,-0.0075,-0.2410,rough,14.0,0,9.596
1720,55.04,0.3497,5.3345,0.2930,0.3056,-0.0459,-0.0939,rough,14.0,0,9.566
1730,55.36,0.3503,5.3213,0.2890,0.2902,-0.0483,-0.0548,rough,14.0,0,9.553
1740,55.68,0.3504,5.3143,0.2871,0.2835,-0.0512,-0.0378,rough,14.0,0,9.547
1750,56.00,0.3504,5.3096,0.2857,0.2796,-0.0518,-0.0315,rough,14.0,0,9.542
1760,56.32,0.3509,5.3056,0.2846,0.2768,-0.0515,-0.0298,rough,14.0,0,9.539
1770,56.64,0.3502,5.3021,0.2834,0.2743,-0.0502,-0.0275,rough,14.0,0,9.536
1780,56.96,0.3510,5.2994,0.2830,0.2724,-0.0528,-0.0257,rough,14.0,0,9.533
1790,57.28,0.3500,5.2977,0.2823,0.2707,-0.0524,-0.0207,rough,14.0,0,9.532
1800,57.60,0.3504,5.2961,0.2817,0.2691,-0.0518,-0.0173,rough,14.0,0,9.530
1810,57.92,0.3505,5.2950,0.2817,0.2683,-0.0534,-0.0185,rough,14.0,0,9.529
1820,58.24,0.3501,5.2934,0.2813,0.2673,-0.0532,-0.0187,rough,14.0,0,9.528
1830,58.56,0.3499,5.2923,0.2812,0.2660,-0.0560,-0.0131,rough,14.0,0,9.527
1840,58.88,0.3500,5.2919,0.2807,0.2659,-0.0531,-0.0154,rough,14.0,0,9.526
1850,59.20,0.3501,5.2913,0.2806,0.2652,-0.0537,-0.0136,rough,14.0,0,9.526
1860,59.52,0.3499,5.2910,0.2803,0.2651,-0.0526,-0.0133,rough,14.0,0,9.526
1870,59.84,0.3499,5.2908,0.2803,0.2648,-0.0525,-0.0127,rough,14.0,0,9.525
1880,60.16,0.3498,5.2907,0.2800,0.2647,-0.0510,-0.0117,rough,14.0,0,9.525
1890,60.48,0.3501,5.2907,0.2805,0.2647,-0.0544,-0.0123,rough,14.0,0,9.525
1900,60.80,0.3500,5.2907,0.2805,0.2644,-0.0552,-0.0104,rough,14.0,0,9.525
1910,61.12,0.3500,5.2906,0.2805,0.2643,-0.0551,-0.0102,rough,14.0,0,9.525
1920,61.44,0.3503,5.2907,0.2805,0.2649,-0.0534,-0.0154,rough,14.0,0,9.525
1930,61.76,0.3498,5.2905,0.2799,0.2645,-0.0512,-0.0104,rough,14.0,0,9.525
1940,62.08,0.3503,5.2907,0.2804,0.2649,-0.0527,-0.0153,rough,14.0,0,9.525
1950,62.40,0.3501,5.2907,0.2804,0.2649,-0.0530,-0.0143,rough,14.0,0,9.525
1960,62.72,0.3501,5.2906,0.2803,0.2648,-0.0526,-0.0142,rough,14.0,0,9.525
1970,63.04,0.3502,5.2907,0.2805,0.2647,-0.0544,-0.0124,rough,14.0,0,9.525
1980,63.36,0.3501,5.2908,0.2805,0.2647,-0.0541,-0.0120,rough,14.0,0,9.525
1990,63.68,0.3503,5.2908,0.2805,0.2651,-0.0533,-0.0158,rough,14.0,0,9.525
2000,64.00,0.3502,5.2908,0.2804,0.2650,-0.0530,-0.0151,rough,14.0,0,9.525
2010,64.32,0.3501,5.2908,0.2803,0.2648,-0.0529,-0.0124,rough,14.0,0,9.525
2020,64.64,0.3499,5.2908,0.2804,0.2647,-0.0541,-0.0109,rough,14.0,1,13.685
2030,64.96,0.3499,5.2907,0.2804,0.2644,-0.0544,-0.0103,rough,14.0,1,13.685
2040,65.28,0.3498,5.2906,0.2805,0.2643,-0.0558,-0.0087,rough,14.0,1,13.685
2050,65.60,0.3502,5.2907,0.2805,0.2650,-0.0539,-0.0145,rough,14.0,1,13.685
2060,65.92,0.3499,5.2907,0.2803,0.2648,-0.0529,-0.0125,rough,14.0,1,13.685
2070,66.24,0.3502,5.2907,0.2805,0.2649,-0.0540,-0.0143,rough,14.0,1,13.685
2080,66.56,0.3499,5.2905,0.2804,0.2642,-0.0552,-0.0094,rough,14.0,1,13.685
2090,66.88,0.3499,5.2905,0.2805,0.2642,-0.0554,-0.0095,rough,14.0,1,13.685
2100,67.20,0.3499,5.2904,0.2804,0.2642,-0.0544,-0.0107,rough,14.0,1,13.685
2110,67.52,0.3500,5.2905,0.2804,0.2644,-0.0545,-0.0105,rough,14.0,1,13.685
2120,67.84,0.3500,5.2907,0.2805,0.2647,-0.0545,-0.0112,rough,14.0,1,13.685
2130,68.16,0.3498,5.2908,0.2802,0.2647,-0.0528,-0.0104,rough,14.0,1,13.685
2140,68.48,0.3502,5.2908,0.2804,0.2650,-0.0528,-0.0153,rough,14.0,1,13.685
2150,68.80,0.3495,5.2907,0.2799,0.2643,-0.0516,-0.0076,rough,14.0,1,13.685
2160,69.12,0.3499,5.2906,0.2805,0.2642,-0.0556,-0.0091,rough,14.0,1,13.685
2170,69.44,0.3501,5.2908,0.2804,0.2648,-0.0529,-0.0137,rough,14.0,1,13.685
2180,69.76,0.3501,5.2906,0.2804,0.2647,-0.0535,-0.0134,rough,14.0,1,13.685
2190,70.08,0.3501,5.2907,0.2804,0.2648,-0.0529,-0.0140,rough,14.0,1,13.685
2200,70.40,0.3501,5.2906,0.2803,0.2648,-0.0527,-0.0143,rough,14.0,1,13.685
2210,70.72,0.3500,5.2905,0.2803,0.2648,-0.0526,-0.0141,rough,14.0,1,13.685
2220,71.04,0.3502,5.2908,0.2804,0.2649,-0.0532,-0.0141,rough,14.0,1,13.685
2230,71.36,0.3501,5.2907,0.2805,0.2647,-0.0539,-0.0133,rough,14.0,1,13.685
2240,71.68,0.3498,5.2907,0.2799,0.2646,-0.0509,-0.0111,rough,14.0,1,13.685
2250,72.00,0.3500,5.2907,0.2806,0.2646,-0.0553,-0.0114,rough,14.0,1,13.685
2260,72.32,0.3500,5.2906,0.2805,0.2646,-0.0549,-0.0115,rough,14.0,1,13.685
2270,72.64,0.3499,5.2907,0.2802,0.2646,-0.0530,-0.0109,rough,14.0,1,13.685
2280,72.96,0.3499,5.2906,0.2802,0.2645,-0.0528,-0.0112,rough,14.0,1,13.685
2290,73.28,0.3497,5.2906,0.2801,0.2644,-0.0524,-0.0094,rough,14.0,1,13.685
2300,73.60,0.3497,5.2906,0.2799,0.2644,-0.0510,-0.0101,rough,14.0,1,13.685
2310,73.92,0.3502,5.2907,0.2804,0.2649,-0.0528,-0.0154,rough,14.0,1,13.685
2320,74.24,0.3497,5.2905,0.2799,0.2644,-0.0514,-0.0097,rough,14.0,1,13.685
2330,74.56,0.3499,5.2905,0.2803,0.2643,-0.0540,-0.0100,rough,14.0,1,13.685
2340,74.88,0.3499,5.2905,0.2804,0.2642,-0.0549,-0.0093,rough,14.0,1,13.685
2350,75.20,0.3501,5.2907,0.2804,0.2649,-0.0531,-0.0147,rough,14.0,1,13.685
2360,75.52,0.3501,5.2906,0.2803,0.2649,-0.0527,-0.0148,rough,14.0,1,13.685
2370,75.84,0.3500,5.2905,0.2804,0.2645,-0.0541,-0.0124,rough,14.0,1,13.685
2380,76.16,0.3498,5.2903,0.2805,0.2641,-0.0564,-0.0085,rough,14.0,1,13.685
2390,76.48,0.3503,5.2904,0.2804,0.2645,-0.0537,-0.0133,rough,14.0,2,9.916
2400,76.80,0.3148,5.2786,0.2763,0.2593,-0.0313,-0.0833,rough,14.0,2,9.892
2410,77.12,0.2962,5.2405,0.2658,0.2344,-0.0250,-0.0992,rough,14.0,2,9.850
2420,77.44,0.3128,5.2268,0.2620,0.2194,-0.0430,-0.0185,rough,14.0,2,9.843
2430,77.76,0.2698,5.1760,0.2484,0.1956,-0.0043,-0.1782,rough,14.0,2,9.780
2440,78.08,0.2963,5.1418,0.2389,0.1679,-0.0301,-0.0575,rough,14.0,2,9.758
2450,78.40,0.2737,5.0964,0.2280,0.1492,0.0094,-0.2492,rough,14.0,2,9.708
2460,78.72,0.3666,5.0050,0.2119,0.1076,0.0380,-0.5649,rough,14.0,2,9.658
2470,79.04,0.6057,4.7933,0.2020,0.0930,0.0311,-0.8315,rough,14.0,2,9.556
2480,79.36,0.8252,4.5116,0.1779,-0.0007,-0.0126,-1.0083,flat,18.0,2,9.394
2490,79.68,1.0510,4.1376,0.1798,-0.0005,0.0010,-1.0658,flat,18.0,2,9.163
2500,80.00,1.2723,3.7126,0.1799,-0.0001,-0.0000,-1.1342,flat,18.0,2,8.902
2510,80.32,1.4575,3.2642,0.1798,-0.0001,0.0008,-1.4333,flat,18.0,2,8.621
2520,80.64,1.4834,2.8146,0.1798,-0.0006,0.0000,-1.9130,flat,18.0,2,8.264
2530,80.96,1.2904,2.3670,0.1776,-0.0039,-0.0000,-2.1194,flat,18.0,2,7.787
2540,81.28,0.9946,1.9487,0.1799,-0.0004,0.0001,-2.2728,flat,18.0,2,7.275
2550,81.60,0.6285,1.5470,0.1799,-0.0002,-0.0000,-2.3474,flat,18.0,2,6.735
2560,81.92,0.2255,1.1469,0.1799,-0.0001,-0.0000,-2.3654,flat,18.0,2,6.176
2570,82.24,-0.1753,0.7473,0.1799,0.0001,0.0000,-2.3425,flat,18.0,2,5.620
2580,82.56,-0.5542,0.3419,0.1882,0.0042,-0.0182,-2.2945,flat,18.0,2,5.074
2590,82.88,-0.9138,-0.0704,0.1957,0.0442,-0.0122,-2.2358,rough,14.0,2,4.534
2600,83.20,-1.2086,-0.4616,0.1915,0.0296,0.0081,-2.1812,flat,18.0,2,4.047
2610,83.52,-1.5127,-0.9243,0.1797,-0.0033,-0.0096,-2.1471,flat,18.0,2,3.493
2620,83.84,-1.8103,-1.3964,0.1951,-0.0091,-0.0544,-2.1228,flat,18.0,2,2.936
2630,84.16,-2.1030,-1.8994,0.2147,-0.0619,0.0036,-2.1168,rough,14.0,2,2.354
2640,84.48,-2.3636,-2.3136,0.2071,-0.0274,0.0505,-2.1213,rough,14.0,2,1.865
2650,84.80,-2.6093,-2.7107,0.1883,-0.0185,0.0450,-2.1216,flat,18.0,2,1.398
2660,85.12,-2.8657,-3.1214,0.1772,-0.0003,-0.0163,-2.1210,flat,18.0,3,9.358
2670,85.44,-3.0875,-3.4840,0.1811,-0.0073,-0.0015,-2.1541,flat,18.0,3,9.760
2680,85.76,-3.2582,-3.7226,0.1861,-0.0342,-0.0016,-2.4457,flat,18.0,3,10.031
2690,86.08,-3.3716,-3.8144,0.1889,-0.0484,-0.0017,-2.8393,rough,14.0,3,10.146
2700,86.40,-3.3857,-3.8244,0.1873,0.0020,-0.0559,-3.1159,rough,14.0,3,10.159
2710,86.72,-3.3267,-3.8019,0.1846,-0.0008,-0.0340,2.7172,flat,18.0,3,10.124
2720,87.04,-3.3365,-3.6571,0.1884,0.0113,-0.0428,2.0521,slope,18.0,3,9.985
2730,87.36,-3.3407,-3.3818,0.1889,0.0368,-0.0118,1.5957,rough,14.0,3,9.719
2740,87.68,-3.3287,-3.0409,0.1867,0.0342,0.0009,1.5789,flat,18.0,3,9.386
2750,88.00,-3.3389,-2.6883,0.1861,0.0110,-0.0047,1.6023,flat,18.0,3,9.048
2760,88.32,-3.3632,-2.2911,0.1866,-0.0332,-0.0100,1.5025,flat,18.0,3,8.672
2770,88.64,-3.3083,-1.8244,0.1924,-0.0501,-0.0036,1.2481,rough,14.0,3,8.209
2780,88.96,-3.1742,-1.4467,0.1901,-0.0378,-0.0001,1.1976,rough,14.0,3,7.808
2790,89.28,-3.0291,-1.0824,0.1886,-0.0362,0.0154,1.1848,rough,14.0,3,7.418
2800,89.60,-2.8615,-0.6881,0.1825,-0.0114,0.0055,1.1710,flat,18.0,3,6.993
2810,89.92,-2.6368,-0.2117,0.1791,0.0046,-0.0001,1.0898,flat,18.0,3,6.474
