step,time_s,x,y,z,roll,pitch,yaw,terrain,speed,target_idx,dist_to_target
10,0.32,0.9574,-0.7750,0.1733,-0.0000,-0.0140,0.0000,flat,18.0,0,5.769
20,0.64,1.2173,-0.7761,0.1793,0.0000,0.0029,-0.0300,flat,18.0,0,5.573
30,0.96,1.5916,-0.8027,0.1797,-0.0002,-0.0001,-0.3460,flat,18.0,0,5.283
40,1.28,1.9955,-0.9961,0.1799,-0.0004,0.0003,-0.6608,flat,18.0,0,4.862
50,1.60,2.3587,-1.3316,0.1799,-0.0003,0.0000,-0.8479,flat,18.0,0,4.369
60,1.92,2.6885,-1.7475,0.1799,-0.0001,-0.0000,-0.9638,flat,18.0,0,3.840
70,2.24,2.9976,-2.2152,0.1799,-0.0001,0.0000,-1.0098,flat,18.0,0,3.290
80,2.56,3.3020,-2.6959,0.1799,0.0000,0.0000,-0.9943,flat,18.0,0,2.739
90,2.88,3.6116,-3.1579,0.1799,0.0002,0.0000,-0.9502,flat,18.0,0,2.205
100,3.20,3.9338,-3.5868,0.1799,0.0001,0.0000,-0.8863,flat,18.0,0,1.692
110,3.52,4.2438,-3.9508,0.1799,0.0002,0.0001,-0.8334,flat,18.0,0,1.239
120,3.84,4.5232,-4.2426,0.1799,0.0002,0.0002,-0.7692,transition,15.0,1,12.264
130,4.16,4.7365,-4.4216,0.1817,0.0105,-0.0011,-0.5960,transition,15.0,1,12.497
140,4.48,4.9219,-4.4959,0.1854,-0.0363,-0.0329,-0.1001,slope,18.0,1,12.624
150,4.80,5.0808,-4.4884,0.1972,-0.0645,-0.0310,0.6844,rough,14.0,1,12.667
160,5.12,5.1976,-4.2865,0.1982,-0.0706,-0.0048,1.1493,rough,14.0,1,12.515
170,5.44,5.2604,-3.9614,0.1916,-0.0652,-0.0079,1.4193,rough,14.0,1,12.230
180,5.76,5.2747,-3.5930,0.1838,-0.0009,0.0245,1.6368,rough,14.0,1,11.891
190,6.08,5.2281,-3.2225,0.1806,-0.0024,0.0074,1.8834,flat,18.0,1,11.528
200,6.40,5.0527,-2.7789,0.1800,-0.0001,-0.0002,2.0988,flat,18.0,1,11.051
210,6.72,4.7656,-2.3485,0.1794,0.0018,0.0014,2.2360,flat,18.0,1,10.546
220,7.04,4.4119,-1.9244,0.1798,0.0003,0.0001,2.2918,flat,18.0,1,10.026
230,7.36,4.0392,-1.4974,0.1799,-0.0000,0.0000,2.2735,flat,18.0,1,9.500
240,7.68,3.6977,-1.0696,0.1799,-0.0001,-0.0001,2.2069,flat,18.0,1,8.988
250,8.00,3.3985,-0.6251,0.1799,0.0003,-0.0000,2.0953,flat,18.0,1,8.476
260,8.32,3.1476,-0.1512,0.1799,0.0001,-0.0003,1.9621,flat,18.0,1,7.951
270,8.64,2.9547,0.3582,0.1799,0.0003,-0.0000,1.8495,flat,18.0,1,7.409
280,8.96,2.8123,0.8966,0.1799,-0.0000,-0.0000,1.7733,flat,18.0,1,6.852
290,9.28,2.7037,1.4545,0.1799,-0.0001,-0.0000,1.7420,flat,18.0,1,6.285
300,9.60,2.6065,2.0205,0.1799,-0.0000,0.0000,1.7428,flat,18.0,1,5.714
310,9.92,2.5072,2.5821,0.1799,0.0001,0.0000,1.7592,flat,18.0,1,5.148
320,10.24,2.3980,3.1400,0.1799,0.0001,0.0000,1.7805,flat,18.0,1,4.582
330,10.56,2.2767,3.6960,0.1799,0.0001,-0.0000,1.7998,transition,15.0,1,4.016
340,10.88,2.1627,4.1897,0.1799,-0.0000,0.0001,1.7946,rough,14.0,1,3.512
350,11.20,2.0706,4.6074,0.1799,-0.0001,0.0000,1.7510,rough,14.0,1,3.087
360,11.52,1.9979,4.9130,0.2313,-0.0221,-0.3553,1.6719,rough,14.0,1,2.775
370,11.84,1.9569,5.2250,0.3460,-0.0805,-0.4217,1.6470,rough,14.0,1,2.470
380,12.16,1.9209,5.5094,0.4786,-0.1459,-0.5128,1.6404,rough,14.0,1,2.194
390,12.48,1.8855,5.8310,0.6444,-0.2043,-0.5632,1.6530,slope,18.0,1,1.889
400,12.80,1.8358,6.1827,0.8551,-0.2889,-0.5441,1.6643,slope,18.0,1,1.558
410,13.12,1.8007,6.4871,1.0533,-0.2941,-0.6088,1.6737,slope,18.0,1,1.287
420,13.44,1.7682,6.7733,1.2534,-0.2990,-0.6097,1.6764,slope,18.0,1,1.051
430,13.76,1.7460,7.0118,1.4213,-0.2743,-0.6311,1.6765,rough,14.0,2,15.335
440,14.08,1.7255,7.1346,1.5004,-0.2580,-0.6088,1.6762,rough,14.0,2,15.418
450,14.40,1.7114,7.0948,1.4734,-0.2332,-0.6485,1.6274,rough,14.0,2,15.378
460,14.72,1.6991,6.8954,1.3189,-0.3252,-0.5925,1.7442,rough,14.0,2,15.215
470,15.04,1.6653,6.6564,1.1359,-0.5161,-0.4391,2.1860,slope,18.0,2,15.009
480,15.36,1.6209,6.4371,0.9695,-0.6287,-0.2485,2.4844,slope,18.0,2,14.812
490,15.68,1.5554,6.3211,0.8715,-0.6322,0.1089,2.9370,slope,18.0,2,14.681
500,16.00,1.4622,6.2216,0.7935,-0.4395,0.3821,-2.7299,slope,18.0,2,14.545
510,16.32,1.2861,6.0872,0.6746,-0.3198,0.4353,-2.5262,rough,14.0,2,14.329
520,16.64,1.0732,5.9192,0.5550,-0.1946,0.4467,-2.2119,rough,14.0,2,14.063
530,16.96,0.9378,5.6355,0.4180,-0.0644,0.3605,-1.9560,rough,14.0,2,13.759
540,17.28,0.9678,5.6047,0.4113,-0.1612,0.3158,-2.1812,rough,14.0,2,13.755
550,17.60,0.9383,5.6557,0.4284,-0.0459,0.3695,-1.8858,rough,14.0,2,13.775
560,17.92,0.9167,5.6615,0.4288,-0.0492,0.3389,-1.8266,slope,18.0,2,13.765
570,18.24,0.9173,5.6370,0.4195,-0.0970,0.3399,-1.9855,rough,14.0,2,13.747
580,18.56,0.9118,5.6447,0.4222,-0.0759,0.3487,-1.9397,rough,14.0,2,13.749
590,18.88,0.8887,5.6560,0.4244,-0.0491,0.3513,-1.8615,slope,18.0,2,13.743
600,19.20,0.8341,5.6697,0.4269,-0.0168,0.3520,-1.7461,slope,18.0,2,13.719
610,19.52,0.7971,5.6780,0.4279,0.0242,0.3639,-1.6418,slope,18.0,2,13.702
620,19.84,0.7788,5.6804,0.4283,0.0335,0.3641,-1.6132,slope,18.0,2,13.692
630,20.16,0.7694,5.6818,0.4285,0.0386,0.3644,-1.5977,slope,18.0,2,13.687
640,20.48,0.7639,5.6826,0.4286,0.0422,0.3645,-1.5871,slope,18.0,2,13.684
650,20.80,0.7611,5.6829,0.4286,0.0438,0.3646,-1.5820,slope,18.0,2,13.683
660,21.12,0.7598,5.6831,0.4286,0.0451,0.3647,-1.5787,slope,18.0,2,13.682
670,21.44,0.7592,5.6832,0.4286,0.0457,0.3648,-1.5770,slope,18.0,2,13.682
680,21.76,0.7590,5.6831,0.4285,0.0460,0.3649,-1.5764,slope,18.0,2,13.682
690,22.08,0.7588,5.6831,0.4285,0.0461,0.3649,-1.5762,slope,18.0,2,13.681
700,22.40,0.7587,5.6831,0.4285,0.0461,0.3650,-1.5762,slope,18.0,2,13.681
710,22.72,0.7586,5.6831,0.4284,0.0461,0.3651,-1.5762,slope,18.0,2,13.681
720,23.04,0.7585,5.6830,0.4284,0.0462,0.3651,-1.5762,slope,18.0,2,13.681
730,23.36,0.7584,5.6830,0.4284,0.0462,0.3652,-1.5762,slope,18.0,2,13.681
740,23.68,0.7582,5.6830,0.4283,0.0462,0.3652,-1.5762,slope,18.0,2,13.681
750,24.00,0.7581,5.6829,0.4283,0.0462,0.3653,-1.5762,slope,18.0,2,13.681
760,24.32,0.7580,5.6829,0.4283,0.0462,0.3653,-1.5762,slope,18.0,2,13.681
770,24.64,0.7579,5.6829,0.4283,0.0463,0.3654,-1.5762,slope,18.0,2,13.681
780,24.96,0.7578,5.6829,0.4282,0.0463,0.3654,-1.5762,slope,18.0,2,13.681
790,25.28,0.7577,5.6828,0.4282,0.0463,0.3654,-1.5762,slope,18.0,2,13.681
800,25.60,0.7576,5.6828,0.4282,0.0463,0.3655,-1.5762,slope,18.0,2,13.680
810,25.92,0.7574,5.6828,0.4282,0.0463,0.3655,-1.5762,slope,18.0,2,13.680
820,26.24,0.7573,5.6828,0.4282,0.0463,0.3656,-1.5762,slope,18.0,2,13.680
830,26.56,0.7572,5.6828,0.4281,0.0463,0.3656,-1.5762,slope,18.0,2,13.680
840,26.88,0.7571,5.6827,0.4281,0.0463,0.3656,-1.5762,slope,18.0,2,13.680
850,27.20,0.7570,5.6827,0.4281,0.0463,0.3656,-1.5762,slope,18.0,2,13.680
860,27.52,0.7569,5.6827,0.4281,0.0463,0.3657,-1.5762,slope,18.0,3,13.999
870,27.84,0.7568,5.6827,0.4281,0.0463,0.3657,-1.5761,slope,18.0,3,13.999
880,28.16,0.7566,5.6827,0.4281,0.0464,0.3657,-1.5761,slope,18.0,3,13.999
890,28.48,0.7565,5.6827,0.4280,0.0464,0.3658,-1.5761,slope,18.0,3,13.999
900,28.80,0.7564,5.6827,0.4280,0.0464,0.3658,-1.5761,slope,18.0,3,13.998
910,29.12,0.7563,5.6827,0.4280,0.0464,0.3658,-1.5761,slope,18.0,3,13.998
920,29.44,0.7562,5.6826,0.4280,0.0464,0.3658,-1.5761,slope,18.0,3,13.998
930,29.76,0.7561,5.6826,0.4280,0.0464,0.3658,-1.5761,slope,18.0,3,13.998
940,30.08,0.7560,5.6826,0.4280,0.0464,0.3659,-1.5761,slope,18.0,3,13.998
950,30.40,0.7559,5.6826,0.4280,0.0464,0.3659,-1.5761,slope,18.0,3,13.998
960,30.72,0.7557,5.6826,0.4279,0.0464,0.3659,-1.5761,slope,18.0,3,13.998
970,31.04,0.7556,5.6826,0.4279,0.0464,0.3659,-1.5761,slope,18.0,3,13.998
980,31.36,0.7555,5.6826,0.4279,0.0464,0.3659,-1.5761,slope,18.0,3,13.998
990,31.68,0.7554,5.6826,0.4279,0.0464,0.3660,-1.5761,slope,18.0,3,13.998
1000,32.00,0.7553,5.6826,0.4279,0.0463,0.3660,-1.5761,slope,18.0,3,13.998
1010,32.32,0.7552,5.6826,0.4279,0.0463,0.3660,-1.5761,slope,18.0,3,13.998
1020,32.64,0.7551,5.6826,0.4279,0.0463,0.3660,-1.5761,slope,18.0,3,13.998
1030,32.96,0.7550,5.6826,0.4279,0.0463,0.3660,-1.5761,slope,18.0,3,13.997
1040,33.28,0.7549,5.6826,0.4279,0.0463,0.3660,-1.5761,slope,18.0,3,13.997
1050,33.60,0.7548,5.6826,0.4279,0.0463,0.3660,-1.5761,slope,18.0,3,13.997
1060,33.92,0.7546,5.6825,0.4278,0.0463,0.3660,-1.5761,slope,18.0,3,13.997
1070,34.24,0.7545,5.6825,0.4278,0.0463,0.3661,-1.5761,slope,18.0,3,13.997
1080,34.56,0.7544,5.6825,0.4278,0.0463,0.3661,-1.5761,slope,18.0,3,13.997
1090,34.88,0.7543,5.6825,0.4278,0.0463,0.3661,-1.5761,slope,18.0,3,13.997
1100,35.20,0.7542,5.6825,0.4278,0.0463,0.3661,-1.5761,slope,18.0,3,13.997
1110,35.52,0.7541,5.6825,0.4278,0.0463,0.3661,-1.5761,slope,18.0,3,13.997
1120,35.84,0.7540,5.6825,0.4278,0.0463,0.3661,-1.5761,slope,18.0,3,13.997
1130,36.16,0.7539,5.6825,0.4278,0.0463,0.3661,-1.5761,slope,18.0,3,13.997
1140,36.48,0.7538,5.6825,0.4278,0.0463,0.3661,-1.5761,slope,18.0,3,13.997
1150,36.80,0.7537,5.6825,0.4278,0.0463,0.3661,-1.5761,slope,18.0,3,13.997
1160,37.12,0.7536,5.6825,0.4278,0.0462,0.3661,-1.5761,slope,18.0,3,13.996
1170,37.44,0.7535,5.6825,0.4278,0.0462,0.3662,-1.5761,slope,18.0,3,13.996
1180,37.76,0.7534,5.6825,0.4278,0.0462,0.3662,-1.5761,slope,18.0,3,13.996
1190,38.08,0.7532,5.6825,0.4277,0.0462,0.3662,-1.5761,slope,18.0,3,13.996
1200,38.40,0.7531,5.6825,0.4277,0.0462,0.3662,-1.5761,slope,18.0,3,13.996
1210,38.72,0.7530,5.6825,0.4277,0.0462,0.3662,-1.5761,slope,18.0,3,13.996
1220,39.04,0.7529,5.6825,0.4277,0.0462,0.3662,-1.5761,slope,18.0,3,13.996
1230,39.36,0.7528,5.6825,0.4277,0.0462,0.3662,-1.5761,slope,18.0,0,11.189
1240,39.68,0.7527,5.6825,0.4277,0.0461,0.3662,-1.5762,slope,18.0,0,11.189
1250,40.00,0.7526,5.6825,0.4277,0.0461,0.3662,-1.5762,slope,18.0,0,11.189
1260,40.32,0.7525,5.6825,0.4277,0.0461,0.3662,-1.5763,slope,18.0,0,11.189
1270,40.64,0.7524,5.6825,0.4277,0.0461,0.3662,-1.5763,slope,18.0,0,11.189
1280,40.96,0.7523,5.6825,0.4277,0.0461,0.3662,-1.5763,slope,18.0,0,11.189
1290,41.28,0.7522,5.6825,0.4277,0.0461,0.3662,-1.5763,slope,18.0,0,11.189
1300,41.60,0.7521,5.6825,0.4277,0.0460,0.3662,-1.5763,slope,18.0,0,11.189
1310,41.92,0.7520,5.6825,0.4277,0.0460,0.3662,-1.5763,slope,18.0,0,11.189
1320,42.24,0.7519,5.6825,0.4277,0.0460,0.3662,-1.5763,slope,18.0,0,11.189
1330,42.56,0.7518,5.6825,0.4277,0.0460,0.3662,-1.5763,slope,18.0,0,11.189
1340,42.88,0.7517,5.6825,0.4277,0.0460,0.3662,-1.5762,slope,18.0,0,11.189
1350,43.20,0.7516,5.6825,0.4276,0.0460,0.3663,-1.5762,slope,18.0,0,11.189
1360,43.52,0.7515,5.6825,0.4276,0.0460,0.3663,-1.5762,slope,18.0,0,11.189
1370,43.84,0.7514,5.6825,0.4276,0.0460,0.3663,-1.5762,slope,18.0,0,11.189
1380,44.16,0.7513,5.6825,0.4276,0.0460,0.3663,-1.5762,slope,18.0,0,11.189
1390,44.48,0.7512,5.6825,0.4276,0.0460,0.3663,-1.5762,slope,18.0,0,11.189
1400,44.80,0.7511,5.6825,0.4276,0.0459,0.3663,-1.5762,slope,18.0,0,11.189
1410,45.12,0.7510,5.6825,0.4276,0.0459,0.3663,-1.5762,slope,18.0,0,11.189
1420,45.44,0.7509,5.6825,0.4276,0.0459,0.3663,-1.5762,slope,18.0,0,11.189
1430,45.76,0.7508,5.6825,0.4276,0.0459,0.3663,-1.5762,slope,18.0,0,11.189
1440,46.08,0.7507,5.6825,0.4276,0.0459,0.3663,-1.5762,slope,18.0,0,11.189
1450,46.40,0.7506,5.6825,0.4276,0.0459,0.3663,-1.5762,slope,18.0,0,11.190
1460,46.72,0.7505,5.6825,0.4276,0.0459,0.3663,-1.5762,slope,18.0,0,11.190
1470,47.04,0.7504,5.6825,0.4276,0.0459,0.3663,-1.5762,slope,18.0,0,11.190
1480,47.36,0.7503,5.6825,0.4276,0.0459,0.3663,-1.5762,slope,18.0,0,11.190
1490,47.68,0.7501,5.6825,0.4276,0.0458,0.3663,-1.5762,slope,18.0,0,11.190
1500,48.00,0.7500,5.6825,0.4276,0.0458,0.3663,-1.5762,slope,18.0,0,11.190
1510,48.32,0.7499,5.6825,0.4276,0.0458,0.3663,-1.5762,slope,18.0,0,11.190
1520,48.64,0.7498,5.6825,0.4276,0.0458,0.3663,-1.5762,slope,18.0,0,11.190
1530,48.96,0.7497,5.6825,0.4276,0.0458,0.3663,-1.5762,slope,18.0,0,11.190
1540,49.28,0.7496,5.6825,0.4276,0.0458,0.3663,-1.5762,slope,18.0,0,11.190
1550,49.60,0.7495,5.6825,0.4276,0.0458,0.3663,-1.5762,slope,18.0,0,11.190
1560,49.92,0.7494,5.6825,0.4275,0.0458,0.3663,-1.5762,slope,18.0,0,11.190
1570,50.24,0.7493,5.6825,0.4275,0.0458,0.3663,-1.5762,slope,18.0,0,11.190
1580,50.56,0.7492,5.6825,0.4275,0.0458,0.3663,-1.5762,slope,18.0,0,11.190
1590,50.88,0.7491,5.6826,0.4275,0.0457,0.3664,-1.5762,slope,18.0,1,1.847
1600,51.20,0.7491,5.6826,0.4275,0.0457,0.3664,-1.5764,slope,18.0,1,1.847
1610,51.52,0.7496,5.6900,0.4318,-0.0036,0.3875,-1.7273,slope,18.0,1,1.840
1620,51.84,0.7859,5.7019,0.4398,-0.1176,0.3355,-1.9504,rough,14.0,1,1.823
1630,52.16,0.8628,5.7061,0.4475,-0.2090,0.3058,-2.2302,rough,14.0,1,1.810
1640,52.48,0.9573,5.6982,0.4538,-0.3223,0.2296,-2.6047,rough,14.0,1,1.813
1650,52.80,0.9966,5.6720,0.4452,-0.3350,0.2007,-2.7044,rough,14.0,1,1.838
1660,53.12,0.9665,5.6064,0.4120,-0.2424,0.2794,-2.4188,rough,14.0,1,1.904
1670,53.44,0.9278,5.6238,0.4171,-0.1692,0.3159,-2.1922,rough,14.0,1,1.888
1680,53.76,0.9273,5.6289,0.4191,-0.1677,0.3184,-2.1829,rough,14.0,1,1.883
1690,54.08,0.9784,5.6027,0.4127,-0.2468,0.2685,-2.4533,rough,14.0,1,1.908
1700,54.40,1.0161,5.5691,0.4010,-0.2719,0.2323,-2.5937,rough,14.0,1,1.941
1710,54.72,1.0412,5.5248,0.3811,-0.2699,0.2266,-2.6804,rough,14.0,1,1.985
1720,55.04,1.0810,5.4469,0.3618,-0.3088,0.1424,-2.8660,rough,14.0,1,2.064
1730,55.36,1.0991,5.3835,0.3434,-0.3207,0.0800,-2.9637,rough,14.0,1,2.128
1740,55.68,1.1043,5.3461,0.3333,-0.3137,0.0677,-3.0231,rough,14.0,1,2.165
1750,56.00,1.1060,5.3177,0.3253,-0.3082,0.0510,-3.0714,rough,14.0,1,2.194
1760,56.32,1.1051,5.3051,0.3217,-0.3055,0.0414,-3.0993,rough,14.0,1,2.206
1770,56.64,1.1049,5.2970,0.3193,-0.3037,0.0357,-3.1188,rough,14.0,1,2.214
1780,56.96,1.1049,5.2920,0.3178,-0.3026,0.0315,-3.1358,rough,14.0,1,2.219
1790,57.28,1.1040,5.2890,0.3167,-0.3018,0.0300,3.1394,rough,14.0,1,2.222
1800,57.60,1.1027,5.2889,0.3165,-0.3020,0.0280,3.1277,rough,14.0,1,2.222
1810,57.92,1.1011,5.2934,0.3175,-0.3031,0.0256,3.1095,rough,14.0,1,2.218
1820,58.24,1.1011,5.2971,0.3185,-0.3040,0.0269,3.1128,rough,14.0,1,2.214
1830,58.56,1.1013,5.2987,0.3190,-0.3044,0.0282,3.1182,rough,14.0,1,2.213
1840,58.88,1.1012,5.3007,0.3195,-0.3049,0.0280,3.1151,rough,14.0,1,2.211
1850,59.20,1.1033,5.2990,0.3191,-0.3061,0.0198,3.0751,rough,14.0,1,2.212
1860,59.52,1.1012,5.3019,0.3198,-0.3057,0.0230,3.0892,rough,14.0,1,2.209
1870,59.84,1.1009,5.3041,0.3204,-0.3058,0.0258,3.1005,rough,14.0,1,2.207
1880,60.16,1.1016,5.3048,0.3206,-0.3065,0.0247,3.0950,rough,14.0,1,2.207
1890,60.48,1.1023,5.3062,0.3211,-0.3072,0.0241,3.0922,rough,14.0,1,2.205
1900,60.80,1.1016,5.3081,0.3216,-0.3071,0.0265,3.1018,rough,14.0,1,2.203
1910,61.12,1.1024,5.3090,0.3219,-0.3079,0.0255,3.0969,rough,14.0,1,2.202
1920,61.44,1.1022,5.3096,0.3220,-0.3080,0.0253,3.0950,rough,14.0,1,2.202
1930,61.76,1.1026,5.3108,0.3224,-0.3086,0.0244,3.0898,rough,14.0,1,2.201
1940,62.08,1.1021,5.3129,0.3229,-0.3085,0.0271,3.1005,rough,14.0,1,2.198
1950,62.40,1.1039,5.3137,0.3233,-0.3094,0.0265,3.0980,rough,14.0,1,2.198
1960,62.72,1.1037,5.3149,0.3237,-0.3100,0.0258,3.0958,rough,14.0,2,13.624
1970,63.04,1.1022,5.3175,0.3243,-0.3098,0.0289,3.1091,rough,14.0,2,13.625
1980,63.36,1.1024,5.3197,0.3249,-0.3100,0.0320,3.1204,rough,14.0,2,13.626
1990,63.68,1.1018,5.3204,0.3251,-0.3102,0.0328,3.1241,rough,14.0,2,13.626
2000,64.00,1.1017,5.3207,0.3252,-0.3103,0.0331,3.1252,rough,14.0,2,13.627
2010,64.32,1.1017,5.3208,0.3252,-0.3104,0.0331,3.1256,rough,14.0,2,13.627
2020,64.64,1.1018,5.3208,0.3253,-0.3104,0.0331,3.1257,rough,14.0,2,13.627
2030,64.96,1.1018,5.3209,0.3253,-0.3105,0.0330,3.1257,rough,14.0,2,13.627
2040,65.28,1.1018,5.3209,0.3253,-0.3105,0.0330,3.1258,rough,14.0,2,13.627
2050,65.60,1.1018,5.3209,0.3253,-0.3105,0.0330,3.1258,rough,14.0,2,13.627
2060,65.92,1.1018,5.3210,0.3253,-0.3106,0.0329,3.1258,rough,14.0,2,13.627
2070,66.24,1.1018,5.3210,0.3253,-0.3106,0.0329,3.1258,rough,14.0,2,13.627
2080,66.56,1.1018,5.3210,0.3254,-0.3106,0.0329,3.1258,rough,14.0,2,13.627
2090,66.88,1.1018,5.3211,0.3254,-0.3106,0.0328,3.1258,rough,14.0,2,13.627
2100,67.20,1.1018,5.3211,0.3254,-0.3106,0.0328,3.1259,rough,14.0,2,13.627
2110,67.52,1.1018,5.3211,0.3254,-0.3107,0.0328,3.1259,rough,14.0,2,13.627
2120,67.84,1.1018,5.3212,0.3254,-0.3107,0.0328,3.1259,rough,14.0,2,13.627
2130,68.16,1.1018,5.3212,0.3254,-0.3107,0.0328,3.1259,rough,14.0,2,13.627
2140,68.48,1.1018,5.3212,0.3254,-0.3107,0.0327,3.1259,rough,14.0,2,13.627
2150,68.80,1.1018,5.3213,0.3254,-0.3107,0.0327,3.1259,rough,14.0,2,13.627
2160,69.12,1.1018,5.3213,0.3255,-0.3108,0.0327,3.1259,rough,14.0,2,13.627
2170,69.44,1.1018,5.3213,0.3255,-0.3108,0.0327,3.1259,rough,14.0,2,13.627
2180,69.76,1.1018,5.3214,0.3255,-0.3108,0.0327,3.1259,rough,14.0,2,13.627
2190,70.08,1.1018,5.3214,0.3255,-0.3108,0.0327,3.1259,rough,14.0,2,13.627
2200,70.40,1.1018,5.3215,0.3255,-0.3108,0.0327,3.1259,rough,14.0,2,13.627
2210,70.72,1.1018,5.3215,0.3255,-0.3108,0.0327,3.1259,rough,14.0,2,13.627
2220,71.04,1.1018,5.3215,0.3255,-0.3108,0.0327,3.1259,rough,14.0,2,13.627
2230,71.36,1.1019,5.3216,0.3255,-0.3109,0.0327,3.1259,rough,14.0,2,13.627
2240,71.68,1.1019,5.3216,0.3256,-0.3109,0.0327,3.1259,rough,14.0,2,13.627
2250,72.00,1.1021,5.3216,0.3256,-0.3109,0.0327,3.1260,rough,14.0,2,13.628
2260,72.32,1.1023,5.3216,0.3256,-0.3109,0.0328,3.1260,rough,14.0,2,13.628
2270,72.64,1.1027,5.3217,0.3256,-0.3109,0.0328,3.1260,rough,14.0,2,13.628
2280,72.96,1.1030,5.3217,0.3256,-0.3109,0.0329,3.1260,rough,14.0,2,13.628
2290,73.28,1.1031,5.3217,0.3256,-0.3109,0.0329,3.1260,rough,14.0,2,13.628
2300,73.60,1.1031,5.3217,0.3256,-0.3109,0.0329,3.1260,rough,14.0,2,13.628
2310,73.92,1.1031,5.3217,0.3256,-0.3109,0.0328,3.1260,rough,14.0,2,13.628
2320,74.24,1.1031,5.3217,0.3256,-0.3109,0.0328,3.1261,rough,14.0,3,13.628
2330,74.56,1.1031,5.3216,0.3256,-0.3109,0.0328,3.1261,rough,14.0,3,13.962
2340,74.88,1.1031,5.3216,0.3256,-0.3109,0.0328,3.1261,rough,14.0,3,13.962
2350,75.20,1.1031,5.3216,0.3256,-0.3109,0.0328,3.1261,rough,14.0,3,13.962
2360,75.52,1.1031,5.3216,0.3257,-0.3109,0.0328,3.1261,rough,14.0,3,13.962
2370,75.84,1.1031,5.3216,0.3257,-0.3109,0.0327,3.1261,rough,14.0,3,13.962
2380,76.16,1.1031,5.3216,0.3257,-0.3109,0.0327,3.1261,rough,14.0,3,13.962
2390,76.48,1.1031,5.3216,0.3257,-0.3109,0.0327,3.1261,rough,14.0,3,13.962
2400,76.80,1.1031,5.3216,0.3257,-0.3109,0.0327,3.1261,rough,14.0,3,13.962
2410,77.12,1.1031,5.3216,0.3257,-0.3109,0.0327,3.1261,rough,14.0,3,13.962
2420,77.44,1.1031,5.3216,0.3257,-0.3109,0.0327,3.1261,rough,14.0,3,13.962
2430,77.76,1.1031,5.3216,0.3257,-0.3109,0.0327,3.1261,rough,14.0,3,13.962
2440,78.08,1.1031,5.3216,0.3257,-0.3109,0.0327,3.1261,rough,14.0,3,13.962
2450,78.40,1.1031,5.3216,0.3257,-0.3109,0.0327,3.1261,rough,14.0,3,13.962
2460,78.72,1.1031,5.3216,0.3257,-0.3109,0.0327,3.1261,rough,14.0,3,13.962
2470,79.04,1.1031,5.3216,0.3257,-0.3109,0.0327,3.1261,rough,14.0,3,13.962
2480,79.36,1.1031,5.3216,0.3257,-0.3109,0.0327,3.1261,rough,14.0,3,13.962
2490,79.68,1.1031,5.3216,0.3257,-0.3109,0.0327,3.1261,rough,14.0,3,13.962
2500,80.00,1.1031,5.3216,0.3257,-0.3109,0.0327,3.1261,rough,14.0,3,13.962
2510,80.32,1.1031,5.3216,0.3257,-0.3110,0.0327,3.1261,rough,14.0,3,13.962
2520,80.64,1.1031,5.3216,0.3257,-0.3110,0.0326,3.1261,rough,14.0,3,13.962
2530,80.96,1.1031,5.3216,0.3257,-0.3110,0.0326,3.1261,rough,14.0,3,13.962
2540,81.28,1.1031,5.3216,0.3257,-0.3110,0.0326,3.1261,rough,14.0,3,13.962
2550,81.60,1.1031,5.3216,0.3257,-0.3110,0.0326,3.1261,rough,14.0,3,13.962
2560,81.92,1.1031,5.3216,0.3257,-0.3110,0.0326,3.1261,rough,14.0,3,13.962
2570,82.24,1.1031,5.3216,0.3257,-0.3110,0.0326,3.1261,rough,14.0,3,13.962
2580,82.56,1.1031,5.3216,0.3257,-0.3110,0.0326,3.1261,rough,14.0,3,13.962
2590,82.88,1.1031,5.3216,0.3257,-0.3110,0.0326,3.1261,rough,14.0,3,13.962
2600,83.20,1.1031,5.3216,0.3257,-0.3110,0.0326,3.1261,rough,14.0,3,13.962
2610,83.52,1.1031,5.3216,0.3257,-0.3110,0.0326,3.1261,rough,14.0,3,13.962
2620,83.84,1.1031,5.3216,0.3257,-0.3110,0.0326,3.1261,rough,14.0,3,13.962
2630,84.16,1.1031,5.3216,0.3257,-0.3110,0.0326,3.1261,rough,14.0,3,13.962
2640,84.48,1.1031,5.3216,0.3257,-0.3110,0.0326,3.1261,rough,14.0,3,13.962
2650,84.80,1.1031,5.3216,0.3257,-0.3110,0.0326,3.1261,rough,14.0,3,13.962
2660,85.12,1.1031,5.3216,0.3257,-0.3110,0.0326,3.1261,rough,14.0,3,13.962
2670,85.44,1.1031,5.3216,0.3257,-0.3110,0.0326,3.1261,rough,14.0,3,13.962
2680,85.76,1.1031,5.3216,0.3257,-0.3110,0.0326,3.1261,rough,14.0,3,13.962
2690,86.08,1.1031,5.3216,0.3257,-0.3110,0.0326,3.1261,rough,14.0,0,10.717
2700,86.40,1.1031,5.3216,0.3257,-0.3110,0.0326,3.1261,rough,14.0,0,10.717
2710,86.72,1.1106,5.3052,0.3225,-0.3037,0.0534,-3.0516,rough,14.0,0,10.699
2720,87.04,1.1500,5.2652,0.3137,-0.2963,0.0434,-3.0498,rough,14.0,0,10.647
2730,87.36,1.1653,5.2207,0.3025,-0.2903,0.0483,-3.0372,rough,14.0,0,10.600
2740,87.68,1.1758,5.1721,0.2890,-0.2782,0.0526,-3.0123,rough,14.0,0,10.551
2750,88.00,1.1776,5.1137,0.2713,-0.2607,0.0588,-2.9880,slope,18.0,0,10.497
2760,88.32,1.1248,5.0297,0.2405,-0.2107,0.0675,-2.9270,slope,18.0,0,10.441
2770,88.64,0.8498,4.8610,0.2124,-0.1153,0.0643,-2.4989,slope,18.0,0,10.403
2780,88.96,0.5225,4.5926,0.1828,0.0044,0.0259,-2.2314,slope,18.0,0,10.310
2790,89.28,0.2519,4.2133,0.1791,-0.0043,-0.0000,-2.1561,flat,18.0,0,10.110
2800,89.60,-0.0082,3.8028,0.1801,0.0007,-0.0017,-2.1082,flat,18.0,0,9.896
2810,89.92,-0.2355,3.3962,0.1854,-0.0205,-0.0057,-1.7850,flat,18.0,0,9.686
