step,time_s,x,y,z,roll,pitch,yaw,terrain,speed,target_idx,dist_to_target
10,0.32,2.1784,0.5010,0.1829,-0.0000,-0.0297,-0.0000,rough,14.0,0,5.936
20,0.64,2.6031,0.4885,0.1797,0.0002,0.0006,-0.2032,flat,18.0,0,5.710
30,0.96,3.0966,0.3579,0.1799,-0.0000,0.0000,-0.4345,flat,18.0,0,5.371
40,1.28,3.5602,0.1097,0.1799,-0.0001,-0.0000,-0.6065,flat,18.0,0,4.962
50,1.60,3.9852,-0.2197,0.1799,-0.0003,-0.0000,-0.7326,flat,18.0,0,4.510
60,1.92,4.3706,-0.6021,0.1798,-0.0004,-0.0000,-0.8423,flat,18.0,0,4.038
70,2.24,4.7178,-1.0268,0.1798,-0.0004,-0.0000,-0.9495,flat,18.0,0,3.549
80,2.56,5.0231,-1.4882,0.1798,-0.0004,-0.0000,-1.0554,flat,18.0,0,3.049
90,2.88,5.2817,-1.9803,0.1798,-0.0004,-0.0000,-1.1620,flat,18.0,0,2.541
100,3.20,5.4888,-2.4974,0.1798,-0.0004,-0.0000,-1.2735,flat,18.0,0,2.028
110,3.52,5.6380,-3.0330,0.1799,-0.0003,-0.0000,-1.3982,flat,18.0,0,1.516
120,3.84,5.7184,-3.5785,0.1799,-0.0001,0.0000,-1.5560,flat,18.0,0,1.013
130,4.16,5.7207,-4.0470,0.1793,0.0002,-0.0035,-1.8244,flat,18.0,1,12.477
140,4.48,5.5857,-4.3795,0.1775,-0.0147,-0.0002,-2.3499,flat,18.0,1,12.736
150,4.80,5.2700,-4.6145,0.1799,0.0001,0.0001,-2.7778,flat,18.0,1,12.848
160,5.12,4.8711,-4.7380,0.1799,-0.0000,-0.0000,3.1093,flat,18.0,1,12.839
170,5.44,4.4112,-4.6958,0.1799,-0.0002,-0.0000,2.8050,flat,18.0,1,12.668
180,5.76,3.9537,-4.5010,0.1799,-0.0001,-0.0000,2.5815,flat,18.0,1,12.364
190,6.08,3.5291,-4.1935,0.1799,-0.0001,-0.0000,2.4154,flat,18.0,1,11.969
200,6.40,3.1458,-3.8137,0.1799,-0.0003,-0.0000,2.2949,flat,18.0,1,11.521
210,6.72,2.8001,-3.3868,0.1798,-0.0004,-0.0000,2.1897,flat,18.0,1,11.041
220,7.04,2.4924,-2.9233,0.1798,-0.0004,-0.0000,2.0987,flat,18.0,1,10.537
230,7.36,2.2223,-2.4318,0.1798,-0.0003,-0.0000,2.0204,flat,18.0,1,10.014
240,7.68,1.9872,-1.9192,0.1797,-0.0003,-0.0000,1.9533,flat,18.0,1,9.479
250,8.00,1.7843,-1.3907,0.1797,-0.0002,-0.0000,1.8956,flat,18.0,1,8.933
260,8.32,1.6105,-0.8503,0.1797,-0.0002,-0.0000,1.8460,flat,18.0,1,8.381
270,8.64,1.4622,-0.3022,0.1797,-0.0001,-0.0000,1.8052,flat,18.0,1,7.825
280,8.96,1.3350,0.2519,0.1797,-0.0001,-0.0000,1.7699,flat,18.0,1,7.265
290,9.28,1.2265,0.8110,0.1797,-0.0001,-0.0000,1.7386,flat,18.0,1,6.702
300,9.60,1.1349,1.3738,0.1797,-0.0001,-0.0000,1.7106,flat,18.0,1,6.137
310,9.92,1.0585,1.9394,0.1797,-0.0001,-0.0000,1.6855,flat,18.0,1,5.570
320,10.24,0.9959,2.5073,0.1797,-0.0001,-0.0000,1.6626,flat,18.0,1,5.003
330,10.56,0.9460,3.0768,0.1797,-0.0001,-0.0000,1.6415,flat,18.0,1,4.434
340,10.88,0.9080,3.6475,0.1797,-0.0001,-0.0000,1.6218,flat,18.0,1,3.864
350,11.20,0.8810,4.2190,0.1797,-0.0001,-0.0000,1.6030,flat,18.0,1,3.294
360,11.52,0.8647,4.7909,0.1797,-0.0001,-0.0000,1.5844,flat,18.0,1,2.723
370,11.84,0.8590,5.3630,0.1797,-0.0001,0.0000,1.5653,flat,18.0,1,2.153
380,12.16,0.8644,5.9346,0.1797,-0.0001,0.0000,1.5444,flat,18.0,1,1.583
390,12.48,0.8820,6.5046,0.1797,-0.0001,0.0000,1.5181,flat,18.0,1,1.014
400,12.80,0.8994,7.0558,0.1798,-0.0005,0.0000,1.6197,flat,18.0,2,14.853
410,13.12,0.8569,7.5366,0.1798,-0.0003,0.0001,1.9682,flat,18.0,2,15.219
420,13.44,0.6667,7.8667,0.1799,-0.0001,-0.0000,2.3799,flat,18.0,2,15.383
430,13.76,0.3473,8.1025,0.1799,-0.0001,-0.0001,2.7476,flat,18.0,2,15.407
440,14.08,-0.0796,8.2478,0.1799,0.0000,-0.0000,3.0894,flat,18.0,2,15.307
450,14.40,-0.5685,8.2474,0.1799,-0.0000,-0.0000,-2.9147,flat,18.0,2,15.063
460,14.72,-1.0653,8.1067,0.1799,0.0001,-0.0000,-2.7144,flat,18.0,2,14.703
470,15.04,-1.5405,7.8623,0.1799,0.0002,-0.0000,-2.5691,flat,18.0,2,14.269
480,15.36,-1.9866,7.5482,0.1798,0.0004,-0.0000,-2.4675,flat,18.0,2,13.792
490,15.68,-2.4074,7.1894,0.1798,0.0003,-0.0000,-2.3920,flat,18.0,2,13.289
500,16.00,-2.8022,6.7985,0.1797,0.0002,-0.0000,-2.3250,flat,18.0,2,12.772
510,16.32,-3.1739,6.3808,0.1797,0.0002,-0.0000,-2.2661,flat,18.0,2,12.242
520,16.64,-3.5235,5.9413,0.1797,0.0002,-0.0000,-2.2150,flat,18.0,2,11.703
530,16.96,-3.8533,5.4849,0.1797,0.0002,-0.0000,-2.1717,flat,18.0,2,11.157
540,17.28,-4.1656,5.0138,0.1797,0.0001,-0.0000,-2.1333,flat,18.0,2,10.605
550,17.60,-4.4615,4.5304,0.1797,0.0001,-0.0000,-2.0992,flat,18.0,2,10.049
560,17.92,-4.7424,4.0366,0.1797,0.0001,-0.0000,-2.0688,flat,18.0,2,9.490
570,18.24,-5.0094,3.5340,0.1797,0.0001,-0.0000,-2.0416,flat,18.0,2,8.927
580,18.56,-5.2638,3.0238,0.1797,0.0001,-0.0000,-2.0172,flat,18.0,2,8.363
590,18.88,-5.5064,2.5072,0.1797,0.0001,-0.0000,-1.9953,flat,18.0,2,7.796
600,19.20,-5.7384,1.9852,0.1797,0.0001,-0.0000,-1.9754,flat,18.0,2,7.228
610,19.52,-5.9605,1.4583,0.1797,0.0001,-0.0000,-1.9573,flat,18.0,2,6.660
620,19.84,-6.1735,0.9272,0.1797,0.0001,-0.0000,-1.9407,flat,18.0,2,6.090
630,20.16,-6.3780,0.3925,0.1797,0.0001,-0.0000,-1.9254,flat,18.0,2,5.519
640,20.48,-6.5746,-0.1455,0.1797,0.0001,-0.0000,-1.9110,flat,18.0,2,4.948
650,20.80,-6.7637,-0.6863,0.1797,0.0000,-0.0000,-1.8974,flat,18.0,2,4.377
660,21.12,-6.9456,-1.2298,0.1797,0.0000,-0.0000,-1.8843,flat,18.0,2,3.805
670,21.44,-7.1205,-1.7757,0.1797,0.0000,-0.0000,-1.8715,flat,18.0,2,3.233
680,21.76,-7.2884,-2.3237,0.1797,0.0000,0.0000,-1.8584,flat,18.0,2,2.661
690,22.08,-7.4489,-2.8737,0.1797,0.0000,0.0000,-1.8444,flat,18.0,2,2.089
700,22.40,-7.6015,-3.4255,0.1797,0.0001,0.0000,-1.8282,flat,18.0,2,1.517
710,22.72,-7.7444,-3.9787,0.1797,0.0001,0.0000,-1.8064,flat,18.0,2,0.948
720,23.04,-7.8619,-4.4921,0.1799,-0.0005,0.0002,-1.7907,flat,18.0,0,13.207
730,23.36,-7.9296,-4.9003,0.1799,-0.0001,-0.0000,-1.3920,flat,18.0,0,13.280
740,23.68,-7.8241,-5.3109,0.1799,0.0001,-0.0000,-1.0621,flat,18.0,0,13.193
750,24.00,-7.5557,-5.7013,0.1799,0.0001,-0.0000,-0.8207,flat,18.0,0,12.954
760,24.32,-7.1751,-6.0469,0.1799,0.0001,-0.0000,-0.6302,flat,18.0,0,12.613
770,24.64,-6.7215,-6.3382,0.1799,0.0001,-0.0000,-0.4610,flat,18.0,0,12.202
780,24.96,-6.2185,-6.5633,0.1799,0.0002,-0.0000,-0.3199,flat,18.0,0,11.742
790,25.28,-5.6847,-6.7236,0.1799,0.0004,-0.0000,-0.2046,flat,18.0,0,11.247
800,25.60,-5.1329,-6.8261,0.1798,0.0004,-0.0000,-0.1105,flat,18.0,0,10.728
810,25.92,-4.5714,-6.8791,0.1798,0.0004,-0.0000,-0.0333,flat,18.0,0,10.193
820,26.24,-4.0055,-6.8904,0.1797,0.0002,-0.0000,0.0292,flat,18.0,0,9.646
830,26.56,-3.4396,-6.8682,0.1797,0.0002,-0.0000,0.0765,flat,18.0,0,9.093
840,26.88,-2.8743,-6.8200,0.1797,0.0001,-0.0000,0.1147,flat,18.0,0,8.535
850,27.20,-2.3102,-6.7509,0.1797,0.0001,-0.0000,0.1464,flat,18.0,0,7.973
860,27.52,-1.7477,-6.6643,0.1797,0.0001,-0.0000,0.1736,flat,18.0,0,7.409
870,27.84,-1.1868,-6.5627,0.1797,0.0001,-0.0000,0.1971,flat,18.0,0,6.843
880,28.16,-0.6279,-6.4482,0.1797,0.0001,-0.0000,0.2178,flat,18.0,0,6.276
890,28.48,-0.0709,-6.3222,0.1797,0.0001,-0.0000,0.2362,flat,18.0,0,5.707
900,28.80,0.4841,-6.1861,0.1797,0.0001,-0.0000,0.2529,flat,18.0,0,5.138
910,29.12,1.0371,-6.0409,0.1797,0.0001,-0.0000,0.2682,flat,18.0,0,4.568
920,29.44,1.5880,-5.8872,0.1797,0.0001,-0.0000,0.2826,flat,18.0,0,3.998
930,29.76,2.1369,-5.7256,0.1797,0.0000,-0.0000,0.2964,flat,18.0,0,3.427
940,30.08,2.6834,-5.5565,0.1797,0.0000,-0.0000,0.3101,flat,18.0,0,2.856
950,30.40,3.2274,-5.3799,0.1797,0.0000,0.0000,0.3242,flat,18.0,0,2.285
960,30.72,3.7683,-5.1956,0.1797,0.0001,0.0000,0.3398,flat,18.0,0,1.715
970,31.04,4.3050,-5.0028,0.1797,0.0001,0.0000,0.3592,flat,18.0,0,1.146
980,31.36,4.8141,-4.8123,0.1798,0.0001,0.0003,0.4474,flat,18.0,1,12.893
990,31.68,5.1958,-4.5896,0.1799,0.0000,-0.0000,0.7155,flat,18.0,1,12.800
1000,32.00,5.5172,-4.2436,0.1799,0.0000,-0.0000,0.9609,flat,18.0,1,12.585
1010,32.32,5.7804,-3.8025,0.1799,0.0001,-0.0000,1.1840,flat,18.0,1,12.274
1020,32.64,5.9589,-3.2955,0.1799,0.0001,0.0000,1.3794,flat,18.0,1,11.881
1030,32.96,6.0445,-2.7522,0.1799,0.0001,-0.0000,1.5425,flat,18.0,1,11.427
1040,33.28,6.0452,-2.1967,0.1799,0.0003,-0.0000,1.6659,flat,18.0,1,10.931
1050,33.60,5.9813,-1.6419,0.1798,0.0004,-0.0000,1.7553,flat,18.0,1,10.411
1060,33.92,5.8696,-1.0922,0.1798,0.0003,-0.0000,1.8238,flat,18.0,1,9.875
1070,34.24,5.7212,-0.5489,0.1797,0.0002,-0.0000,1.8782,flat,18.0,1,9.330
1080,34.56,5.5439,-0.0127,0.1797,0.0002,-0.0000,1.9220,flat,18.0,1,8.779
1090,34.88,5.3437,0.5162,0.1797,0.0001,-0.0000,1.9571,flat,18.0,1,8.223
1100,35.20,5.1252,1.0391,0.1797,0.0001,-0.0000,1.9874,flat,18.0,1,7.664
1110,35.52,4.8909,1.5563,0.1797,0.0001,-0.0000,2.0140,flat,18.0,1,7.102
1120,35.84,4.6430,2.0680,0.1797,0.0001,-0.0000,2.0376,flat,18.0,1,6.538
1130,36.16,4.3830,2.5744,0.1797,0.0001,-0.0000,2.0589,flat,18.0,1,5.973
1140,36.48,4.1123,3.0758,0.1797,0.0001,-0.0000,2.0783,flat,18.0,1,5.406
1150,36.80,3.8319,3.5723,0.1797,0.0001,-0.0000,2.0964,flat,18.0,1,4.839
1160,37.12,3.5425,4.0639,0.1797,0.0001,-0.0000,2.1134,flat,18.0,1,4.271
1170,37.44,3.2448,4.5508,0.1797,0.0001,-0.0000,2.1298,flat,18.0,1,3.703
1180,37.76,2.9390,5.0327,0.1797,0.0001,-0.0000,2.1461,flat,18.0,1,3.134
1190,38.08,2.6255,5.5093,0.1797,0.0001,0.0000,2.1628,flat,18.0,1,2.566
1200,38.40,2.3040,5.9801,0.1797,0.0001,0.0000,2.1808,flat,18.0,1,1.998
1210,38.72,1.9741,6.4437,0.1797,0.0001,0.0000,2.2021,flat,18.0,1,1.431
1220,39.04,1.6347,6.8970,0.1797,0.0001,0.0000,2.2315,flat,18.0,1,0.869
1230,39.36,1.3387,7.2341,0.1798,-0.0003,0.0000,2.5017,flat,18.0,2,15.259
1240,39.68,0.9757,7.4518,0.1799,-0.0000,-0.0000,2.8484,flat,18.0,2,15.218
1250,40.00,0.5147,7.5623,0.1799,0.0001,-0.0000,-3.1205,flat,18.0,2,15.046
1260,40.32,0.0108,7.5267,0.1799,0.0001,-0.0000,-2.8790,flat,18.0,2,14.740
1270,40.64,-0.4917,7.3659,0.1799,0.0001,-0.0000,-2.7016,flat,18.0,2,14.339
1280,40.96,-0.9705,7.1156,0.1799,0.0003,-0.0000,-2.5757,flat,18.0,2,13.880
1290,41.28,-1.4236,6.8046,0.1798,0.0004,-0.0000,-2.4868,flat,18.0,2,13.387
1300,41.60,-1.8548,6.4542,0.1797,0.0002,-0.0000,-2.4197,flat,18.0,2,12.873
1310,41.92,-2.2627,6.0744,0.1797,0.0002,-0.0000,-2.3586,flat,18.0,2,12.348
1320,42.24,-2.6499,5.6697,0.1797,0.0002,-0.0000,-2.3067,flat,18.0,2,11.812
1330,42.56,-3.0179,5.2454,0.1797,0.0002,-0.0000,-2.2620,flat,18.0,2,11.269
1340,42.88,-3.3694,4.8049,0.1797,0.0001,-0.0000,-2.2229,flat,18.0,2,10.721
1350,43.20,-3.7057,4.3504,0.1797,0.0001,-0.0000,-2.1879,flat,18.0,2,10.168
1360,43.52,-4.0278,3.8838,0.1797,0.0001,-0.0000,-2.1565,flat,18.0,2,9.610
1370,43.84,-4.3365,3.4069,0.1797,0.0001,-0.0000,-2.1283,flat,18.0,2,9.050
1380,44.16,-4.6328,2.9210,0.1797,0.0001,-0.0000,-2.1028,flat,18.0,2,8.487
1390,44.48,-4.9177,2.4273,0.1797,0.0001,-0.0000,-2.0797,flat,18.0,2,7.922
1400,44.80,-5.1920,1.9269,0.1797,0.0001,-0.0000,-2.0587,flat,18.0,2,7.356
1410,45.12,-5.4564,1.4206,0.1797,0.0001,-0.0000,-2.0395,flat,18.0,2,6.788
1420,45.44,-5.7115,0.9091,0.1797,0.0001,-0.0000,-2.0218,flat,18.0,2,6.219
1430,45.76,-5.9580,0.3929,0.1797,0.0001,-0.0000,-2.0054,flat,18.0,2,5.649
1440,46.08,-6.1964,-0.1274,0.1797,0.0001,-0.0000,-1.9900,flat,18.0,2,5.079
1450,46.40,-6.4270,-0.6515,0.1797,0.0001,-0.0000,-1.9754,flat,18.0,2,4.508
1460,46.72,-6.6502,-1.1789,0.1797,0.0000,-0.0000,-1.9613,flat,18.0,2,3.937
1470,47.04,-6.8660,-1.7095,0.1797,0.0000,-0.0000,-1.9474,flat,18.0,2,3.366
1480,47.36,-7.0744,-2.2430,0.1797,0.0000,-0.0000,-1.9334,flat,18.0,2,2.794
1490,47.68,-7.2753,-2.7793,0.1797,0.0001,0.0000,-1.9185,flat,18.0,2,2.223
1500,48.00,-7.4678,-3.3181,0.1797,0.0001,0.0000,-1.9016,flat,18.0,2,1.652
1510,48.32,-7.6505,-3.8593,0.1797,0.0001,0.0000,-1.8798,flat,18.0,2,1.083
1520,48.64,-7.8130,-4.3834,0.1798,0.0002,0.0000,-1.9558,flat,18.0,0,13.158
1530,48.96,-7.9360,-4.7934,0.1798,-0.0003,0.0000,-1.5587,flat,18.0,0,13.284
1540,49.28,-7.9069,-5.1939,0.1799,-0.0001,-0.0000,-1.1746,flat,18.0,0,13.269
1550,49.60,-7.6963,-5.5966,0.1799,-0.0000,-0.0000,-0.9041,flat,18.0,0,13.085
1560,49.92,-7.3532,-5.9598,0.1799,0.0000,-0.0000,-0.7009,flat,18.0,0,12.779
1570,50.24,-6.9250,-6.2738,0.1799,0.0000,-0.0000,-0.5221,flat,18.0,0,12.394
1580,50.56,-6.4384,-6.5243,0.1799,0.0001,-0.0000,-0.3696,flat,18.0,0,11.952
1590,50.88,-5.9145,-6.7081,0.1799,0.0003,-0.0000,-0.2444,flat,18.0,0,11.470
1600,51.20,-5.3682,-6.8309,0.1798,0.0004,-0.0000,-0.1422,flat,18.0,0,10.959
1610,51.52,-4.8096,-6.9007,0.1798,0.0004,-0.0000,-0.0587,flat,18.0,0,10.430
1620,51.84,-4.2448,-6.9257,0.1797,0.0003,-0.0000,0.0097,flat,18.0,0,9.887
1630,52.16,-3.6788,-6.9138,0.1797,0.0002,-0.0000,0.0620,flat,18.0,0,9.336
1640,52.48,-3.1131,-6.8734,0.1797,0.0002,-0.0000,0.1036,flat,18.0,0,8.779
1650,52.80,-2.5488,-6.8104,0.1797,0.0001,-0.0000,0.1375,flat,18.0,0,8.219
1660,53.12,-1.9858,-6.7286,0.1797,0.0001,-0.0000,0.1663,flat,18.0,0,7.656
1670,53.44,-1.4246,-6.6310,0.1797,0.0001,-0.0000,0.1911,flat,18.0,0,7.091
1680,53.76,-0.8652,-6.5198,0.1797,0.0001,-0.0000,0.2127,flat,18.0,0,6.524
1690,54.08,-0.3078,-6.3966,0.1797,0.0001,-0.0000,0.2320,flat,18.0,0,5.956
1700,54.40,0.2476,-6.2628,0.1797,0.0001,-0.0000,0.2493,flat,18.0,0,5.387
1710,54.72,0.8010,-6.1195,0.1797,0.0001,-0.0000,0.2651,flat,18.0,0,4.817
1720,55.04,1.3523,-5.9675,0.1797,0.0001,-0.0000,0.2797,flat,18.0,0,4.247
1730,55.36,1.9016,-5.8075,0.1797,0.0000,-0.0000,0.2937,flat,18.0,0,3.676
1740,55.68,2.4486,-5.6399,0.1797,0.0000,-0.0000,0.3073,flat,18.0,0,3.105
1750,56.00,2.9932,-5.4648,0.1797,0.0000,0.0000,0.3211,flat,18.0,0,2.534
1760,56.32,3.5350,-5.2823,0.1797,0.0001,0.0000,0.3358,flat,18.0,0,1.964
1770,56.64,4.0731,-5.0917,0.1797,0.0001,0.0000,0.3530,flat,18.0,0,1.394
1780,56.96,4.6057,-4.8918,0.1797,0.0001,0.0000,0.3772,flat,18.0,0,0.827
1790,57.28,5.0350,-4.6998,0.1799,-0.0002,0.0000,0.6040,flat,18.0,1,12.853
1800,57.60,5.3755,-4.4029,0.1799,0.0000,-0.0000,0.8665,flat,18.0,1,12.684
1810,57.92,5.6658,-3.9957,0.1799,0.0000,-0.0000,1.0983,flat,18.0,1,12.409
1820,58.24,5.8802,-3.5112,0.1799,0.0001,-0.0000,1.3050,flat,18.0,1,12.046
1830,58.56,6.0028,-2.9788,0.1799,0.0001,-0.0000,1.4813,flat,18.0,1,11.613
1840,58.88,6.0359,-2.4259,0.1799,0.0002,-0.0000,1.6210,flat,18.0,1,11.131
1850,59.20,5.9958,-1.8700,0.1798,0.0004,-0.0000,1.7215,flat,18.0,1,10.618
1860,59.52,5.9022,-1.3178,0.1798,0.0003,-0.0000,1.7972,flat,18.0,1,10.088
1870,59.84,5.7681,-0.7716,0.1797,0.0002,-0.0000,1.8565,flat,18.0,1,9.547
1880,60.16,5.6023,-0.2321,0.1797,0.0002,-0.0000,1.9045,flat,18.0,1,8.997
1890,60.48,5.4113,0.2997,0.1797,0.0001,-0.0000,1.9422,flat,18.0,1,8.443
1900,60.80,5.2005,0.8253,0.1797,0.0001,-0.0000,1.9742,flat,18.0,1,7.885
1910,61.12,4.9731,1.3452,0.1797,0.0001,-0.0000,2.0021,flat,18.0,1,7.324
1920,61.44,4.7312,1.8594,0.1797,0.0001,-0.0000,2.0268,flat,18.0,1,6.761
1930,61.76,4.4767,2.3684,0.1797,0.0001,-0.0000,2.0490,flat,18.0,1,6.196
1940,62.08,4.2110,2.8722,0.1797,0.0001,-0.0000,2.0690,flat,18.0,1,5.630
1950,62.40,3.9352,3.3711,0.1797,0.0001,-0.0000,2.0876,flat,18.0,1,5.063
1960,62.72,3.6502,3.8652,0.1797,0.0001,-0.0000,2.1049,flat,18.0,1,4.495
1970,63.04,3.3566,4.3545,0.1797,0.0001,-0.0000,2.1215,flat,18.0,1,3.927
1980,63.36,3.0549,4.8390,0.1797,0.0001,-0.0000,2.1378,flat,18.0,1,3.358
1990,63.68,2.7453,5.3184,0.1797,0.0001,0.0000,2.1542,flat,18.0,1,2.790
2000,64.00,2.4279,5.7922,0.1797,0.0001,0.0000,2.1715,flat,18.0,1,2.222
2010,64.32,2.1024,6.2595,0.1797,0.0001,0.0000,2.1911,flat,18.0,1,1.654
2020,64.64,1.7678,6.7182,0.1797,0.0001,0.0000,2.2162,flat,18.0,1,1.090
2030,64.96,1.4493,7.1309,0.1798,-0.0000,0.0004,2.3560,flat,18.0,2,15.244
2040,65.28,1.1327,7.3754,0.1799,-0.0001,-0.0001,2.7109,flat,18.0,2,15.249
2050,65.60,0.7055,7.5371,0.1799,0.0000,-0.0000,3.0406,flat,18.0,2,15.133
2060,65.92,0.2122,7.5608,0.1799,0.0001,-0.0000,-2.9667,flat,18.0,2,14.878
2070,66.24,-0.2945,7.4464,0.1799,0.0001,-0.0000,-2.7666,flat,18.0,2,14.510
2080,66.56,-0.7841,7.2279,0.1799,0.0002,-0.0000,-2.6215,flat,18.0,2,14.071
2090,66.88,-1.2468,6.9389,0.1798,0.0004,-0.0000,-2.5176,flat,18.0,2,13.590
2100,67.20,-1.6869,6.6021,0.1798,0.0003,-0.0000,-2.4453,flat,18.0,2,13.083
2110,67.52,-2.1040,6.2336,0.1797,0.0002,-0.0000,-2.3816,flat,18.0,2,12.562
2120,67.84,-2.4993,5.8381,0.1797,0.0002,-0.0000,-2.3267,flat,18.0,2,12.030
2130,68.16,-2.8747,5.4210,0.1797,0.0002,-0.0000,-2.2788,flat,18.0,2,11.490
2140,68.48,-3.2325,4.9867,0.1797,0.0001,-0.0000,-2.2379,flat,18.0,2,10.944
2150,68.80,-3.5747,4.5375,0.1797,0.0001,-0.0000,-2.2013,flat,18.0,2,10.392
2160,69.12,-3.9022,4.0755,0.1797,0.0001,-0.0000,-2.1685,flat,18.0,2,9.836
2170,69.44,-4.2160,3.6025,0.1797,0.0001,-0.0000,-2.1390,flat,18.0,2,9.277
2180,69.76,-4.5171,3.1199,0.1797,0.0001,-0.0000,-2.1125,flat,18.0,2,8.715
2190,70.08,-4.8064,2.6292,0.1797,0.0001,-0.0000,-2.0884,flat,18.0,2,8.151
2200,70.40,-5.0847,2.1313,0.1797,0.0001,-0.0000,-2.0666,flat,18.0,2,7.585
2210,70.72,-5.3528,1.6272,0.1797,0.0001,-0.0000,-2.0467,flat,18.0,2,7.018
2220,71.04,-5.6114,1.1176,0.1797,0.0001,-0.0000,-2.0285,flat,18.0,2,6.450
2230,71.36,-5.8612,0.6032,0.1797,0.0001,-0.0000,-2.0115,flat,18.0,2,5.880
2240,71.68,-6.1026,0.0844,0.1797,0.0001,-0.0000,-1.9958,flat,18.0,2,5.310
2250,72.00,-6.3361,-0.4383,0.1797,0.0001,-0.0000,-1.9809,flat,18.0,2,4.740
2260,72.32,-6.5621,-0.9645,0.1797,0.0001,-0.0000,-1.9666,flat,18.0,2,4.168
2270,72.64,-6.7807,-1.4939,0.1797,0.0000,-0.0000,-1.9527,flat,18.0,2,3.597
2280,72.96,-6.9919,-2.0263,0.1797,0.0000,-0.0000,-1.9388,flat,18.0,2,3.026
2290,73.28,-7.1957,-2.5616,0.1797,0.0001,0.0000,-1.9243,flat,18.0,2,2.454
2300,73.60,-7.3916,-3.0994,0.1797,0.0001,0.0000,-1.9084,flat,18.0,2,1.883
2310,73.92,-7.5783,-3.6398,0.1797,0.0001,0.0000,-1.8892,flat,18.0,2,1.313
2320,74.24,-7.7532,-4.1820,0.1797,0.0001,0.0000,-1.8604,flat,18.0,3,0.971
2330,74.56,-7.8881,-4.6458,0.1798,-0.0003,0.0001,-1.7323,flat,18.0,0,13.233
2340,74.88,-7.9297,-5.0376,0.1799,0.0001,-0.0001,-1.3054,flat,18.0,0,13.284
2350,75.20,-7.7824,-5.4474,0.1799,0.0001,-0.0000,-0.9989,flat,18.0,0,13.160
2360,75.52,-7.4831,-5.8277,0.1799,0.0001,-0.0000,-0.7734,flat,18.0,0,12.894
2370,75.84,-7.0831,-6.1615,0.1799,0.0001,-0.0000,-0.5873,flat,18.0,0,12.536
2380,76.16,-6.6156,-6.4372,0.1799,0.0001,-0.0000,-0.4237,flat,18.0,0,12.113
2390,76.48,-6.1037,-6.6457,0.1799,0.0002,-0.0000,-0.2884,flat,18.0,0,11.644
2400,76.80,-5.5644,-6.7905,0.1798,0.0004,-0.0000,-0.1782,flat,18.0,0,11.143
2410,77.12,-5.0095,-6.8792,0.1798,0.0004,-0.0000,-0.0881,flat,18.0,0,10.620
2420,77.44,-4.4465,-6.9201,0.1798,0.0003,-0.0000,-0.0143,flat,18.0,0,10.081
2430,77.76,-3.8805,-6.9209,0.1797,0.0002,-0.0000,0.0440,flat,18.0,0,9.532
2440,78.08,-3.3146,-6.8905,0.1797,0.0002,-0.0000,0.0894,flat,18.0,0,8.978
2450,78.40,-2.7498,-6.8353,0.1797,0.0001,-0.0000,0.1256,flat,18.0,0,8.419
2460,78.72,-2.1863,-6.7601,0.1797,0.0001,-0.0000,0.1561,flat,18.0,0,7.857
2470,79.04,-1.6244,-6.6681,0.1797,0.0001,-0.0000,0.1823,flat,18.0,0,7.293
2480,79.36,-1.0643,-6.5616,0.1797,0.0001,-0.0000,0.2051,flat,18.0,0,6.726
2490,79.68,-0.5062,-6.4426,0.1797,0.0001,-0.0000,0.2252,flat,18.0,0,6.159
2500,80.00,0.0499,-6.3125,0.1797,0.0001,-0.0000,0.2432,flat,18.0,0,5.590
2510,80.32,0.6040,-6.1726,0.1797,0.0001,-0.0000,0.2595,flat,18.0,0,5.020
2520,80.64,1.1561,-6.0236,0.1797,0.0001,-0.0000,0.2746,flat,18.0,0,4.450
2530,80.96,1.7061,-5.8664,0.1797,0.0001,-0.0000,0.2888,flat,18.0,0,3.880
2540,81.28,2.2539,-5.7015,0.1797,0.0000,-0.0000,0.3025,flat,18.0,0,3.309
2550,81.60,2.7993,-5.5290,0.1797,0.0000,0.0000,0.3162,flat,18.0,0,2.738
2560,81.92,3.3421,-5.3491,0.1797,0.0001,0.0000,0.3305,flat,18.0,0,2.167
2570,82.24,3.8817,-5.1613,0.1797,0.0001,0.0000,0.3466,flat,18.0,0,1.597
2580,82.56,4.4166,-4.9649,0.1797,0.0001,0.0000,0.3675,flat,18.0,0,1.029
2590,82.88,4.9009,-4.7760,0.1798,-0.0002,0.0001,0.5007,flat,18.0,1,12.884
2600,83.20,5.2670,-4.5283,0.1799,0.0000,-0.0000,0.7712,flat,18.0,1,12.766
2610,83.52,5.5783,-4.1589,0.1799,0.0000,-0.0000,1.0105,flat,18.0,1,12.528
2620,83.84,5.8251,-3.7013,0.1799,0.0001,-0.0000,1.2282,flat,18.0,1,12.198
2630,84.16,5.9839,-3.1841,0.1799,0.0001,-0.0000,1.4172,flat,18.0,1,11.790
2640,84.48,6.0502,-2.6365,0.1799,0.0001,-0.0000,1.5726,flat,18.0,1,11.325
2650,84.80,6.0354,-2.0804,0.1799,0.0004,-0.0000,1.6871,flat,18.0,1,10.823
2660,85.12,5.9601,-1.5265,0.1798,0.0004,-0.0000,1.7712,flat,18.0,1,10.299
2670,85.44,5.8399,-0.9780,0.1797,0.0003,-0.0000,1.8363,flat,18.0,1,9.761
2680,85.76,5.6849,-0.4362,0.1797,0.0002,-0.0000,1.8883,flat,18.0,1,9.215
2690,86.08,5.5022,0.0984,0.1797,0.0001,-0.0000,1.9298,flat,18.0,1,8.662
2700,86.40,5.2979,0.6260,0.1797,0.0001,-0.0000,1.9637,flat,18.0,1,8.105
2710,86.72,5.0759,1.1477,0.1797,0.0001,-0.0000,1.9932,flat,18.0,1,7.546
2720,87.04,4.8386,1.6638,0.1797,0.0001,-0.0000,2.0191,flat,18.0,1,6.983
2730,87.36,4.5881,2.1744,0.1797,0.0001,-0.0000,2.0421,flat,18.0,1,6.419
2740,87.68,4.3258,2.6798,0.1797,0.0001,-0.0000,2.0630,flat,18.0,1,5.854
2750,88.00,4.0531,3.1801,0.1797,0.0001,-0.0000,2.0821,flat,18.0,1,5.287
2760,88.32,3.7708,3.6756,0.1797,0.0001,-0.0000,2.0999,flat,18.0,1,4.720
2770,88.64,3.4797,4.1663,0.1797,0.0001,-0.0000,2.1167,flat,18.0,1,4.151
2780,88.96,3.1803,4.6522,0.1797,0.0001,-0.0000,2.1331,flat,18.0,1,3.583
2790,89.28,2.8730,5.1331,0.1797,0.0001,0.0000,2.1494,flat,18.0,1,3.014
2800,89.60,2.5579,5.6087,0.1797,0.0001,0.0000,2.1662,flat,18.0,1,2.446
2810,89.92,2.2348,6.0781,0.1797,0.0001,0.0000,2.1847,flat,18.0,1,1.878
2820,90.24,1.9031,6.5400,0.1797,0.0001,0.0000,2.2071,flat,18.0,1,1.312
2830,90.56,1.5616,6.9903,0.1797,0.0001,0.0000,2.2398,flat,18.0,2,15.203
2840,90.88,1.2720,7.2871,0.1799,-0.0003,-0.0000,2.5729,flat,18.0,2,15.261
2850,91.20,0.8857,7.4890,0.1799,-0.0000,-0.0000,2.9148,flat,18.0,2,15.196
2860,91.52,0.4115,7.5710,0.1799,0.0001,-0.0000,-3.0649,flat,18.0,2,14.996
2870,91.84,-0.0948,7.5074,0.1799,0.0001,-0.0000,-2.8388,flat,18.0,2,14.667
2880,92.16,-0.5936,7.3256,0.1799,0.0001,-0.0000,-2.6726,flat,18.0,2,14.252
2890,92.48,-1.0668,7.0613,0.1799,0.0003,-0.0000,-2.5545,flat,18.0,2,13.785
2900,92.80,-1.5156,6.7406,0.1798,0.0003,-0.0000,-2.4728,flat,18.0,2,13.286
2910,93.12,-1.9418,6.3839,0.1797,0.0002,-0.0000,-2.4063,flat,18.0,2,12.770
2920,93.44,-2.3453,5.9985,0.1797,0.0002,-0.0000,-2.3474,flat,18.0,2,12.243
2930,93.76,-2.7283,5.5894,0.1797,0.0002,-0.0000,-2.2967,flat,18.0,2,11.705
2940,94.08,-3.0927,5.1615,0.1797,0.0002,-0.0000,-2.2535,flat,18.0,2,11.161
2950,94.40,-3.4410,4.7180,0.1797,0.0001,-0.0000,-2.2152,flat,18.0,2,10.612
2960,94.72,-3.7742,4.2608,0.1797,0.0001,-0.0000,-2.1810,flat,18.0,2,10.058
2970,95.04,-4.0933,3.7919,0.1797,0.0001,-0.0000,-2.1503,flat,18.0,2,9.500
2980,95.36,-4.3993,3.3129,0.1797,0.0001,-0.0000,-2.1226,flat,18.0,2,8.939
2990,95.68,-4.6931,2.8253,0.1797,0.0001,-0.0000,-2.0976,flat,18.0,2,8.376
3000,96.00,-4.9756,2.3301,0.1797,0.0001,-0.0000,-2.0750,flat,18.0,2,7.810
3010,96.32,-5.2477,1.8284,0.1797,0.0001,-0.0000,-2.0544,flat,18.0,2,7.244
3020,96.64,-5.5100,1.3208,0.1797,0.0001,-0.0000,-2.0355,flat,18.0,2,6.676
3030,96.96,-5.7631,0.8082,0.1797,0.0001,-0.0000,-2.0181,flat,18.0,2,6.107
3040,97.28,-6.0078,0.2911,0.1797,0.0001,-0.0000,-2.0019,flat,18.0,2,5.537
3050,97.60,-6.2444,-0.2301,0.1797,0.0001,-0.0000,-1.9866,flat,18.0,2,4.966
3060,97.92,-6.4733,-0.7549,0.1797,0.0001,-0.0000,-1.9722,flat,18.0,2,4.395
3070,98.24,-6.6948,-1.2831,0.1797,0.0000,-0.0000,-1.9581,flat,18.0,2,3.824
3080,98.56,-6.9089,-1.8144,0.1797,0.0000,-0.0000,-1.9443,flat,18.0,2,3.253
3090,98.88,-7.1157,-2.3485,0.1797,0.0000,0.0000,-1.9301,flat,18.0,2,2.681
3100,99.20,-7.3148,-2.8854,0.1797,0.0001,0.0000,-1.9150,flat,18.0,2,2.110
3110,99.52,-7.5053,-3.4248,0.1797,0.0001,0.0000,-1.8974,flat,18.0,2,1.539
3120,99.84,-7.6854,-3.9665,0.1797,0.0001,0.0000,-1.8739,flat,18.0,2,0.971
3130,100.16,-7.8393,-4.4783,0.1799,-0.0006,0.0003,-1.8785,flat,18.0,0,13.184
3140,100.48,-7.9361,-4.8789,0.1799,-0.0001,-0.0000,-1.4604,flat,18.0,0,13.286
3150,100.80,-7.8626,-5.2863,0.1799,0.0002,-0.0000,-1.1101,flat,18.0,0,13.229
3160,101.12,-7.6182,-5.6824,0.1799,0.0001,-0.0000,-0.8555,flat,18.0,0,13.015
3170,101.44,-7.2528,-6.0353,0.1799,0.0001,-0.0000,-0.6595,flat,18.0,0,12.688
3180,101.76,-6.8094,-6.3362,0.1799,0.0001,-0.0000,-0.4855,flat,18.0,0,12.289
3190,102.08,-6.3128,-6.5716,0.1799,0.0001,-0.0000,-0.3392,flat,18.0,0,11.837
3200,102.40,-5.7828,-6.7410,0.1799,0.0003,-0.0000,-0.2195,flat,18.0,0,11.347
3210,102.72,-5.2330,-6.8511,0.1798,0.0004,-0.0000,-0.1219,flat,18.0,0,10.831
3220,103.04,-4.6725,-6.9101,0.1798,0.0004,-0.0000,-0.0419,flat,18.0,0,10.298
3230,103.36,-4.1070,-6.9260,0.1797,0.0003,-0.0000,0.0232,flat,18.0,0,9.753
3240,103.68,-3.5412,-6.9070,0.1797,0.0002,-0.0000,0.0724,flat,18.0,0,9.201
3250,104.00,-2.9758,-6.8609,0.1797,0.0001,-0.0000,0.1120,flat,18.0,0,8.643
3260,104.32,-2.4117,-6.7933,0.1797,0.0001,-0.0000,0.1446,flat,18.0,0,8.083
3270,104.64,-1.8492,-6.7076,0.1797,0.0001,-0.0000,0.1724,flat,18.0,0,7.519
3280,104.96,-1.2884,-6.6066,0.1797,0.0001,-0.0000,0.1965,flat,18.0,0,6.953
3290,105.28,-0.7295,-6.4923,0.1797,0.0001,-0.0000,0.2176,flat,18.0,0,6.386
3300,105.60,-0.1726,-6.3665,0.1797,0.0001,-0.0000,0.2363,flat,18.0,0,5.818
3310,105.92,0.3824,-6.2303,0.1797,0.0001,-0.0000,0.2533,flat,18.0,0,5.249
3320,106.24,0.9352,-6.0848,0.1797,0.0001,-0.0000,0.2688,flat,18.0,0,4.679
3330,106.56,1.4861,-5.9308,0.1797,0.0001,-0.0000,0.2833,flat,18.0,0,4.108
3340,106.88,2.0347,-5.7688,0.1797,0.0000,-0.0000,0.2972,flat,18.0,0,3.538
3350,107.20,2.5811,-5.5993,0.1797,0.0000,-0.0000,0.3108,flat,18.0,0,2.967
3360,107.52,3.1250,-5.4223,0.1797,0.0000,0.0000,0.3248,flat,18.0,0,2.396
3370,107.84,3.6660,-5.2377,0.1797,0.0001,0.0000,0.3399,flat,18.0,0,1.826
3380,108.16,4.2030,-5.0448,0.1797,0.0001,0.0000,0.3583,flat,18.0,0,1.256
3390,108.48,4.7307,-4.8454,0.1797,0.0000,0.0002,0.4022,flat,18.0,1,12.901
3400,108.80,5.1293,-4.6423,0.1799,-0.0001,0.0000,0.6636,flat,18.0,1,12.828
3410,109.12,5.4592,-4.3189,0.1799,0.0000,-0.0000,0.9168,flat,18.0,1,12.635
3420,109.44,5.7356,-3.8933,0.1799,0.0000,-0.0000,1.1443,flat,18.0,1,12.340
3430,109.76,5.9312,-3.3963,0.1799,0.0001,-0.0000,1.3453,flat,18.0,1,11.961
3440,110.08,6.0340,-2.8576,0.1799,0.0001,-0.0000,1.5148,flat,18.0,1,11.517
3450,110.40,6.0493,-2.3030,0.1799,0.0003,-0.0000,1.6460,flat,18.0,1,11.027
3460,110.72,5.9960,-1.7477,0.1798,0.0004,-0.0000,1.7403,flat,18.0,1,10.511
3470,111.04,5.8922,-1.1968,0.1798,0.0003,-0.0000,1.8121,flat,18.0,1,9.978
3480,111.36,5.7501,-0.6522,0.1797,0.0002,-0.0000,1.8688,flat,18.0,1,9.434
3490,111.68,5.5779,-0.1145,0.1797,0.0002,-0.0000,1.9147,flat,18.0,1,8.883
3500,112.00,5.3816,0.4156,0.1797,0.0001,-0.0000,1.9507,flat,18.0,1,8.328
3510,112.32,5.1663,0.9396,0.1797,0.0001,-0.0000,1.9818,flat,18.0,1,7.770
3520,112.64,4.9349,1.4579,0.1797,0.0001,-0.0000,2.0090,flat,18.0,1,7.208
3530,112.96,4.6895,1.9707,0.1797,0.0001,-0.0000,2.0332,flat,18.0,1,6.645
3540,113.28,4.4318,2.4781,0.1797,0.0001,-0.0000,2.0548,flat,18.0,1,6.080
3550,113.60,4.1631,2.9805,0.1797,0.0001,-0.0000,2.0746,flat,18.0,1,5.514
3560,113.92,3.8846,3.4780,0.1797,0.0001,-0.0000,2.0929,flat,18.0,1,4.947
3570,114.24,3.5969,3.9706,0.1797,0.0001,-0.0000,2.1100,flat,18.0,1,4.379
3580,114.56,3.3008,4.4584,0.1797,0.0001,-0.0000,2.1265,flat,18.0,1,3.810
3590,114.88,2.9967,4.9413,0.1797,0.0001,-0.0000,2.1428,flat,18.0,1,3.242
3600,115.20,2.6847,5.4191,0.1797,0.0001,0.0000,2.1593,flat,18.0,1,2.673
3610,115.52,2.3649,5.8912,0.1797,0.0001,0.0000,2.1770,flat,18.0,1,2.105
3620,115.84,2.0368,6.3564,0.1797,0.0001,0.0000,2.1974,flat,18.0,1,1.538
3630,116.16,1.6994,6.8121,0.1797,0.0001,0.0000,2.2245,flat,18.0,1,0.975
3640,116.48,1.3932,7.1880,0.1798,-0.0002,0.0002,2.4303,flat,18.0,2,15.255
3650,116.80,1.0536,7.4192,0.1799,-0.0000,-0.0001,2.7813,flat,18.0,2,15.237
3660,117.12,0.6081,7.5559,0.1799,0.0000,-0.0000,3.1037,flat,18.0,2,15.093
3670,117.44,0.1084,7.5491,0.1799,0.0001,-0.0000,-2.9207,flat,18.0,2,14.812
3680,117.76,-0.3967,7.4104,0.1799,0.0001,-0.0000,-2.7322,flat,18.0,2,14.426
3690,118.08,-0.8808,7.1750,0.1799,0.0002,-0.0000,-2.5974,flat,18.0,2,13.976
3700,118.40,-1.3385,6.8745,0.1798,0.0004,-0.0000,-2.5009,flat,18.0,2,13.489
3710,118.72,-1.7741,6.5303,0.1798,0.0003,-0.0000,-2.4321,flat,18.0,2,12.978
3720,119.04,-2.1865,6.1560,0.1797,0.0002,-0.0000,-2.3696,flat,18.0,2,12.455
3730,119.36,-2.5776,5.7557,0.1797,0.0002,-0.0000,-2.3162,flat,18.0,2,11.921
3740,119.68,-2.9491,5.3347,0.1797,0.0002,-0.0000,-2.2700,flat,18.0,2,11.380
3750,120.00,-3.3035,4.8972,0.1797,0.0001,-0.0000,-2.2300,flat,18.0,2,10.832
3760,120.32,-3.6427,4.4452,0.1797,0.0001,-0.0000,-2.1942,flat,18.0,2,10.280
3770,120.64,-3.9673,3.9808,0.1797,0.0001,-0.0000,-2.1621,flat,18.0,2,9.723
3780,120.96,-4.2784,3.5057,0.1797,0.0001,-0.0000,-2.1333,flat,18.0,2,9.164
3790,121.28,-4.5770,3.0214,0.1797,0.0001,-0.0000,-2.1073,flat,18.0,2,8.601
3800,121.60,-4.8639,2.5291,0.1797,0.0001,-0.0000,-2.0838,flat,18.0,2,8.037
3810,121.92,-5.1401,2.0299,0.1797,0.0001,-0.0000,-2.0624,flat,18.0,2,7.470
3820,122.24,-5.4062,1.5246,0.1797,0.0001,-0.0000,-2.0428,flat,18.0,2,6.903
3830,122.56,-5.6629,1.0139,0.1797,0.0001,-0.0000,-2.0249,flat,18.0,2,6.334
3840,122.88,-5.9109,0.4985,0.1797,0.0001,-0.0000,-2.0082,flat,18.0,2,5.765
3850,123.20,-6.1507,-0.0211,0.1797,0.0001,-0.0000,-1.9926,flat,18.0,2,5.195
3860,123.52,-6.3826,-0.5445,0.1797,0.0001,-0.0000,-1.9779,flat,18.0,2,4.624
3870,123.84,-6.6070,-1.0714,0.1797,0.0001,-0.0000,-1.9637,flat,18.0,2,4.053
3880,124.16,-6.8241,-1.6015,0.1797,0.0000,-0.0000,-1.9498,flat,18.0,2,3.481
3890,124.48,-7.0339,-2.1345,0.1797,0.0000,-0.0000,-1.9359,flat,18.0,2,2.910
3900,124.80,-7.2361,-2.6703,0.1797,0.0001,0.0000,-1.9212,flat,18.0,2,2.339
3910,125.12,-7.4302,-3.2087,0.1797,0.0001,0.0000,-1.9049,flat,18.0,2,1.768
3920,125.44,-7.6148,-3.7495,0.1797,0.0001,0.0000,-1.8845,flat,18.0,2,1.198
3930,125.76,-7.7815,-4.2855,0.1797,0.0001,0.0001,-1.8940,flat,18.0,3,0.878
3940,126.08,-7.9106,-4.7264,0.1798,-0.0004,0.0001,-1.6422,flat,18.0,0,13.257
3950,126.40,-7.9151,-5.1210,0.1799,0.0002,-0.0001,-1.2359,flat,18.0,0,13.273
3960,126.72,-7.7334,-5.5283,0.1799,0.0001,-0.0000,-0.9482,flat,18.0,0,13.117
3970,127.04,-7.4098,-5.8995,0.1799,0.0001,-0.0000,-0.7348,flat,18.0,0,12.829
3980,127.36,-6.9945,-6.2232,0.1799,0.0001,-0.0000,-0.5522,flat,18.0,0,12.456
3990,127.68,-6.5164,-6.4855,0.1799,0.0001,-0.0000,-0.3943,flat,18.0,0,12.023
4000,128.00,-5.9978,-6.6808,0.1799,0.0002,-0.0000,-0.2645,flat,18.0,0,11.546
4010,128.32,-5.4546,-6.8137,0.1798,0.0004,-0.0000,-0.1586,flat,18.0,0,11.040
4020,128.64,-4.8976,-6.8921,0.1798,0.0004,-0.0000,-0.0720,flat,18.0,0,10.513
4030,128.96,-4.3335,-6.9244,0.1798,0.0003,-0.0000,-0.0011,flat,18.0,0,9.972
4040,129.28,-3.7675,-6.9181,0.1797,0.0002,-0.0000,0.0540,flat,18.0,0,9.422
4050,129.60,-3.2017,-6.8822,0.1797,0.0002,-0.0000,0.0973,flat,18.0,0,8.867
4060,129.92,-2.6372,-6.8226,0.1797,0.0001,-0.0000,0.1323,flat,18.0,0,8.307
4070,130.24,-2.0740,-6.7438,0.1797,0.0001,-0.0000,0.1618,flat,18.0,0,7.745
4080,130.56,-1.5124,-6.6486,0.1797,0.0001,-0.0000,0.1873,flat,18.0,0,7.180
4090,130.88,-0.9528,-6.5394,0.1797,0.0001,-0.0000,0.2094,flat,18.0,0,6.613
4100,131.20,-0.3951,-6.4180,0.1797,0.0001,-0.0000,0.2291,flat,18.0,0,6.045
4110,131.52,0.1607,-6.2858,0.1797,0.0001,-0.0000,0.2467,flat,18.0,0,5.476
4120,131.84,0.7144,-6.1439,0.1797,0.0001,-0.0000,0.2627,flat,18.0,0,4.907
4130,132.16,1.2660,-5.9933,0.1797,0.0001,-0.0000,0.2776,flat,18.0,0,4.336
4140,132.48,1.8155,-5.8344,0.1797,0.0001,-0.0000,0.2917,flat,18.0,0,3.766
4150,132.80,2.3629,-5.6679,0.1797,0.0000,-0.0000,0.3053,flat,18.0,0,3.195
4160,133.12,2.9078,-5.4939,0.1797,0.0000,0.0000,0.3191,flat,18.0,0,2.624
4170,133.44,3.4500,-5.3124,0.1797,0.0001,0.0000,0.3336,flat,18.0,0,2.054
4180,133.76,3.9888,-5.1230,0.1797,0.0001,0.0000,0.3503,flat,18.0,0,1.484
4190,134.08,4.5224,-4.9245,0.1797,0.0001,0.0000,0.3729,flat,18.0,0,0.916
4200,134.40,4.9804,-4.7354,0.1799,-0.0003,0.0000,0.5520,flat,18.0,1,12.870
4210,134.72,5.3324,-4.4629,0.1799,0.0000,-0.0000,0.8203,flat,18.0,1,12.726
4220,135.04,5.6335,-4.0737,0.1799,0.0000,-0.0000,1.0561,flat,18.0,1,12.469
4230,135.36,5.8640,-3.6018,0.1799,0.0001,-0.0000,1.2685,flat,18.0,1,12.122
4240,135.68,6.0041,-3.0762,0.1799,0.0001,-0.0000,1.4513,flat,18.0,1,11.701
4250,136.00,6.0528,-2.5255,0.1799,0.0001,-0.0000,1.5989,flat,18.0,1,11.227
4260,136.32,6.0243,-1.9694,0.1798,0.0004,-0.0000,1.7059,flat,18.0,1,10.720
4270,136.64,5.9390,-1.4164,0.1798,0.0004,-0.0000,1.7855,flat,18.0,1,10.192
4280,136.96,5.8111,-0.8692,0.1797,0.0002,-0.0000,1.8476,flat,18.0,1,9.653
4290,137.28,5.6501,-0.3287,0.1797,0.0002,-0.0000,1.8975,flat,18.0,1,9.104
4300,137.60,5.4626,0.2043,0.1797,0.0001,-0.0000,1.9370,flat,18.0,1,8.551
4310,137.92,5.2546,0.7307,0.1797,0.0001,-0.0000,1.9699,flat,18.0,1,7.994
4320,138.24,5.0293,1.2513,0.1797,0.0001,-0.0000,1.9986,flat,18.0,1,7.433
4330,138.56,4.7893,1.7662,0.1797,0.0001,-0.0000,2.0239,flat,18.0,1,6.871
4340,138.88,4.5363,2.2758,0.1797,0.0001,-0.0000,2.0464,flat,18.0,1,6.306
4350,139.20,4.2719,2.7802,0.1797,0.0001,-0.0000,2.0669,flat,18.0,1,5.740
4360,139.52,3.9971,3.2796,0.1797,0.0001,-0.0000,2.0857,flat,18.0,1,5.174
4370,139.84,3.7131,3.7741,0.1797,0.0001,-0.0000,2.1033,flat,18.0,1,4.606
4380,140.16,3.4203,4.2639,0.1797,0.0001,-0.0000,2.1200,flat,18.0,1,4.038
4390,140.48,3.1193,4.7488,0.1797,0.0001,-0.0000,2.1363,flat,18.0,1,3.469
4400,140.80,2.8105,5.2286,0.1797,0.0001,0.0000,2.1526,flat,18.0,1,2.901
4410,141.12,2.4938,5.7031,0.1797,0.0001,0.0000,2.1697,flat,18.0,1,2.332
4420,141.44,2.1691,6.1712,0.1797,0.0001,0.0000,2.1888,flat,18.0,1,1.765
4430,141.76,1.8356,6.6313,0.1797,0.0001,0.0000,2.2124,flat,18.0,1,1.200
4440,142.08,1.5012,7.0693,0.1797,0.0001,0.0003,2.2855,flat,18.0,2,15.228
4450,142.40,1.2041,7.3339,0.1799,-0.0002,-0.0000,2.6432,flat,18.0,2,15.258
4460,142.72,0.7961,7.5168,0.1799,0.0000,-0.0000,2.9793,flat,18.0,2,15.168
4470,143.04,0.3111,7.5695,0.1799,0.0001,-0.0000,-3.0135,flat,18.0,2,14.939
4480,143.36,-0.1961,7.4795,0.1799,0.0001,-0.0000,-2.8013,flat,18.0,2,14.590
4490,143.68,-0.6904,7.2784,0.1799,0.0001,-0.0000,-2.6459,flat,18.0,2,14.162
4500,144.00,-1.1583,7.0012,0.1798,0.0004,-0.0000,-2.5351,flat,18.0,2,13.688
4510,144.32,-1.6026,6.6719,0.1798,0.0003,-0.0000,-2.4587,flat,18.0,2,13.184
4520,144.64,-2.0242,6.3092,0.1797,0.0002,-0.0000,-2.3936,flat,18.0,2,12.666
4530,144.96,-2.4235,5.9185,0.1797,0.0002,-0.0000,-2.3367,flat,18.0,2,12.136
4540,145.28,-2.8026,5.5052,0.1797,0.0002,-0.0000,-2.2875,flat,18.0,2,11.597
4550,145.60,-3.1636,5.0741,0.1797,0.0001,-0.0000,-2.2455,flat,18.0,2,11.052
4560,145.92,-3.5088,4.6276,0.1797,0.0001,-0.0000,-2.2081,flat,18.0,2,10.502
4570,146.24,-3.8391,4.1679,0.1797,0.0001,-0.0000,-2.1746,flat,18.0,2,9.946
4580,146.56,-4.1555,3.6969,0.1797,0.0001,-0.0000,-2.1445,flat,18.0,2,9.388
4590,146.88,-4.4590,3.2161,0.1797,0.0001,-0.0000,-2.1174,flat,18.0,2,8.826
4600,147.20,-4.7505,2.7269,0.1797,0.0001,-0.0000,-2.0929,flat,18.0,2,8.263
4610,147.52,-5.0308,2.2303,0.1797,0.0001,-0.0000,-2.0707,flat,18.0,2,7.697
4620,147.84,-5.3009,1.7273,0.1797,0.0001,-0.0000,-2.0505,flat,18.0,2,7.130
4630,148.16,-5.5613,1.2187,0.1797,0.0001,-0.0000,-2.0319,flat,18.0,2,6.562
4640,148.48,-5.8127,0.7052,0.1797,0.0001,-0.0000,-2.0147,flat,18.0,2,5.993
4650,148.80,-6.0557,0.1872,0.1797,0.0001,-0.0000,-1.9987,flat,18.0,2,5.423
4660,149.12,-6.2907,-0.3347,0.1797,0.0001,-0.0000,-1.9837,flat,18.0,2,4.852
4670,149.44,-6.5181,-0.8603,0.1797,0.0001,-0.0000,-1.9693,flat,18.0,2,4.281
4680,149.76,-6.7381,-1.3891,0.1797,0.0000,-0.0000,-1.9554,flat,18.0,2,3.710
4690,150.08,-6.9508,-1.9209,0.1797,0.0000,-0.0000,-1.9415,flat,18.0,2,3.139
4700,150.40,-7.1561,-2.4556,0.1797,0.0001,0.0000,-1.9272,flat,18.0,2,2.567
4710,150.72,-7.3536,-2.9930,0.1797,0.0001,0.0000,-1.9117,flat,18.0,2,1.996
4720,151.04,-7.5422,-3.5329,0.1797,0.0001,0.0000,-1.8934,flat,18.0,2,1.426
4730,151.36,-7.7199,-4.0749,0.1797,0.0001,0.0000,-1.8676,flat,18.0,2,0.857
4740,151.68,-7.8641,-4.5642,0.1798,-0.0003,0.0002,-1.8108,flat,18.0,0,13.209
4750,152.00,-7.9369,-4.9581,0.1799,-0.0000,-0.0000,-1.3799,flat,18.0,0,13.289
4760,152.32,-7.8259,-5.3680,0.1799,0.0001,-0.0000,-1.0528,flat,18.0,0,13.198
4770,152.64,-7.5531,-5.7567,0.1799,0.0001,-0.0000,-0.8132,flat,18.0,0,12.957
4780,152.96,-7.1695,-6.1002,0.1799,0.0001,-0.0000,-0.6230,flat,18.0,0,12.614
4790,153.28,-6.7136,-6.3887,0.1799,0.0001,-0.0000,-0.4540,flat,18.0,0,12.202
4800,153.60,-6.2089,-6.6105,0.1799,0.0002,-0.0000,-0.3132,flat,18.0,0,11.741
4810,153.92,-5.6740,-6.7675,0.1799,0.0004,-0.0000,-0.1984,flat,18.0,0,11.246
4820,154.24,-5.1216,-6.8667,0.1798,0.0004,-0.0000,-0.1046,flat,18.0,0,10.726
4830,154.56,-4.5597,-6.9165,0.1798,0.0004,-0.0000,-0.0278,flat,18.0,0,10.190
4840,154.88,-3.9937,-6.9246,0.1797,0.0002,-0.0000,0.0341,flat,18.0,0,9.643
4850,155.20,-3.4279,-6.8997,0.1797,0.0002,-0.0000,0.0811,flat,18.0,0,9.090
4860,155.52,-2.8628,-6.8489,0.1797,0.0001,-0.0000,0.1190,flat,18.0,0,8.531
4870,155.84,-2.2990,-6.7774,0.1797,0.0001,-0.0000,0.1506,flat,18.0,0,7.970
4880,156.16,-1.7368,-6.6884,0.1797,0.0001,-0.0000,0.1775,flat,18.0,0,7.406
4890,156.48,-1.1764,-6.5846,0.1797,0.0001,-0.0000,0.2009,flat,18.0,0,6.840
4900,156.80,-0.6179,-6.4679,0.1797,0.0001,-0.0000,0.2215,flat,18.0,0,6.273
4910,157.12,-0.0614,-6.3399,0.1797,0.0001,-0.0000,0.2399,flat,18.0,0,5.704
4920,157.44,0.4931,-6.2018,0.1797,0.0001,-0.0000,0.2565,flat,18.0,0,5.135
4930,157.76,1.0456,-6.0545,0.1797,0.0001,-0.0000,0.2718,flat,18.0,0,4.565
4940,158.08,1.5960,-5.8989,0.1797,0.0001,-0.0000,0.2861,flat,18.0,0,3.994
4950,158.40,2.1442,-5.7354,0.1797,0.0000,-0.0000,0.2999,flat,18.0,0,3.423
4960,158.72,2.6902,-5.5643,0.1797,0.0000,-0.0000,0.3135,flat,18.0,0,2.852
4970,159.04,3.2335,-5.3859,0.1797,0.0000,0.0000,0.3276,flat,18.0,0,2.282
4980,159.36,3.7738,-5.1997,0.1797,0.0001,0.0000,0.3432,flat,18.0,0,1.712
4990,159.68,4.3098,-5.0051,0.1797,0.0001,0.0000,0.3627,flat,18.0,0,1.143
5000,160.00,4.8182,-4.8128,0.1798,0.0001,0.0003,0.4510,flat,18.0,1,12.895
5010,160.32,5.1990,-4.5883,0.1799,-0.0000,-0.0000,0.7191,flat,18.0,1,12.800
5020,160.64,5.5198,-4.2408,0.1799,0.0000,-0.0000,0.9640,flat,18.0,1,12.583
5030,160.96,5.7820,-3.7987,0.1799,0.0001,-0.0000,1.1868,flat,18.0,1,12.271
5040,161.28,5.9593,-3.2909,0.1799,0.0001,0.0000,1.3818,flat,18.0,1,11.877
5050,161.60,6.0437,-2.7473,0.1799,0.0001,-0.0000,1.5444,flat,18.0,1,11.422
5060,161.92,6.0435,-2.1917,0.1799,0.0003,-0.0000,1.6672,flat,18.0,1,10.926
5070,162.24,5.9789,-1.6370,0.1798,0.0004,-0.0000,1.7562,flat,18.0,1,10.405
5080,162.56,5.8667,-1.0873,0.1798,0.0003,-0.0000,1.8244,flat,18.0,1,9.870
5090,162.88,5.7180,-0.5441,0.1797,0.0002,-0.0000,1.8787,flat,18.0,1,9.325
5100,163.20,5.5404,-0.0080,0.1797,0.0002,-0.0000,1.9223,flat,18.0,1,8.773
5110,163.52,5.3400,0.5209,0.1797,0.0001,-0.0000,1.9573,flat,18.0,1,8.217
5120,163.84,5.1214,1.0438,0.1797,0.0001,-0.0000,1.9876,flat,18.0,1,7.658
5130,164.16,4.8870,1.5609,0.1797,0.0001,-0.0000,2.0141,flat,18.0,1,7.096
5140,164.48,4.6390,2.0726,0.1797,0.0001,-0.0000,2.0377,flat,18.0,1,6.532
5150,164.80,4.3790,2.5790,0.1797,0.0001,-0.0000,2.0589,flat,18.0,1,5.967
5160,165.12,4.1082,3.0804,0.1797,0.0001,-0.0000,2.0784,flat,18.0,1,5.400
5170,165.44,3.8278,3.5769,0.1797,0.0001,-0.0000,2.0964,flat,18.0,1,4.833
5180,165.76,3.5384,4.0685,0.1797,0.0001,-0.0000,2.1134,flat,18.0,1,4.265
5190,166.08,3.2407,4.5554,0.1797,0.0001,-0.0000,2.1298,flat,18.0,1,3.697
5200,166.40,2.9350,5.0373,0.1797,0.0001,-0.0000,2.1461,flat,18.0,1,3.128
5210,166.72,2.6214,5.5140,0.1797,0.0001,0.0000,2.1627,flat,18.0,1,2.560
5220,167.04,2.3000,5.9848,0.1797,0.0001,0.0000,2.1808,flat,18.0,1,1.992
5230,167.36,1.9701,6.4484,0.1797,0.0001,0.0000,2.2021,flat,18.0,1,1.425
5240,167.68,1.6307,6.9016,0.1797,0.0001,0.0000,2.2316,flat,18.0,1,0.863
5250,168.00,1.3347,7.2386,0.1798,-0.0003,0.0000,2.5019,flat,18.0,2,15.260
5260,168.32,0.9716,7.4563,0.1799,-0.0000,-0.0000,2.8487,flat,18.0,2,15.220
5270,168.64,0.5107,7.5666,0.1799,0.0001,-0.0000,-3.1201,flat,18.0,2,15.047
5280,168.96,0.0067,7.5308,0.1799,0.0001,-0.0000,-2.8786,flat,18.0,2,14.741
5290,169.28,-0.4957,7.3698,0.1799,0.0001,-0.0000,-2.7013,flat,18.0,2,14.340
5300,169.60,-0.9744,7.1194,0.1799,0.0003,-0.0000,-2.5753,flat,18.0,2,13.881
5310,169.92,-1.4274,6.8083,0.1798,0.0004,-0.0000,-2.4866,flat,18.0,2,13.388
5320,170.24,-1.8585,6.4577,0.1797,0.0002,-0.0000,-2.4194,flat,18.0,2,12.875
5330,170.56,-2.2663,6.0778,0.1797,0.0002,-0.0000,-2.3583,flat,18.0,2,12.349
5340,170.88,-2.6533,5.6729,0.1797,0.0002,-0.0000,-2.3063,flat,18.0,2,11.813
5350,171.20,-3.0212,5.2485,0.1797,0.0002,-0.0000,-2.2616,flat,18.0,2,11.271
5360,171.52,-3.3726,4.8079,0.1797,0.0001,-0.0000,-2.2225,flat,18.0,2,10.722
5370,171.84,-3.7087,4.3533,0.1797,0.0001,-0.0000,-2.1875,flat,18.0,2,10.169
5380,172.16,-4.0306,3.8866,0.1797,0.0001,-0.0000,-2.1561,flat,18.0,2,9.612
5390,172.48,-4.3391,3.4095,0.1797,0.0001,-0.0000,-2.1279,flat,18.0,2,9.051
5400,172.80,-4.6353,2.9235,0.1797,0.0001,-0.0000,-2.1024,flat,18.0,2,8.488
5410,173.12,-4.9200,2.4298,0.1797,0.0001,-0.0000,-2.0793,flat,18.0,2,7.924
5420,173.44,-5.1941,1.9293,0.1797,0.0001,-0.0000,-2.0583,flat,18.0,2,7.357
5430,173.76,-5.4582,1.4228,0.1797,0.0001,-0.0000,-2.0391,flat,18.0,2,6.789
5440,174.08,-5.7132,0.9112,0.1797,0.0001,-0.0000,-2.0214,flat,18.0,2,6.220
5450,174.40,-5.9595,0.3949,0.1797,0.0001,-0.0000,-2.0050,flat,18.0,2,5.651
5460,174.72,-6.1977,-0.1255,0.1797,0.0001,-0.0000,-1.9896,flat,18.0,2,5.081
5470,175.04,-6.4281,-0.6496,0.1797,0.0001,-0.0000,-1.9750,flat,18.0,2,4.510
5480,175.36,-6.6510,-1.1772,0.1797,0.0000,-0.0000,-1.9609,flat,18.0,2,3.939
5490,175.68,-6.8667,-1.7078,0.1797,0.0000,-0.0000,-1.9471,flat,18.0,2,3.367
5500,176.00,-7.0749,-2.2414,0.1797,0.0000,-0.0000,-1.9330,flat,18.0,2,2.796
5510,176.32,-7.2756,-2.7777,0.1797,0.0001,0.0000,-1.9181,flat,18.0,2,2.224
5520,176.64,-7.4679,-3.3167,0.1797,0.0001,0.0000,-1.9013,flat,18.0,2,1.654
5530,176.96,-7.6504,-3.8579,0.1797,0.0001,0.0000,-1.8794,flat,18.0,2,1.084
5540,177.28,-7.8119,-4.3865,0.1798,0.0001,0.0001,-1.9328,flat,18.0,0,13.157
5550,177.60,-7.9274,-4.8022,0.1798,-0.0003,0.0000,-1.5475,flat,18.0,0,13.275
5560,177.92,-7.8925,-5.2037,0.1799,0.0002,-0.0000,-1.1710,flat,18.0,0,13.255
5570,178.24,-7.6785,-5.6062,0.1799,0.0001,-0.0000,-0.9005,flat,18.0,0,13.068
5580,178.56,-7.3329,-5.9683,0.1799,0.0001,-0.0000,-0.6969,flat,18.0,0,12.760
5590,178.88,-6.9031,-6.2810,0.1799,0.0001,-0.0000,-0.5183,flat,18.0,0,12.374
5600,179.20,-6.4153,-6.5299,0.1799,0.0001,-0.0000,-0.3662,flat,18.0,0,11.930
5610,179.52,-5.8907,-6.7121,0.1799,0.0003,-0.0000,-0.2415,flat,18.0,0,11.447
5620,179.84,-5.3441,-6.8334,0.1798,0.0004,-0.0000,-0.1399,flat,18.0,0,10.936
5630,180.16,-4.7852,-6.9020,0.1798,0.0004,-0.0000,-0.0567,flat,18.0,0,10.406
5640,180.48,-4.2203,-6.9259,0.1797,0.0003,-0.0000,0.0114,flat,18.0,0,9.863
5650,180.80,-3.6543,-6.9131,0.1797,0.0002,-0.0000,0.0633,flat,18.0,0,9.312
5660,181.12,-3.0887,-6.8720,0.1797,0.0002,-0.0000,0.1048,flat,18.0,0,8.755
5670,181.44,-2.5244,-6.8083,0.1797,0.0001,-0.0000,0.1386,flat,18.0,0,8.195
5680,181.76,-1.9615,-6.7260,0.1797,0.0001,-0.0000,0.1672,flat,18.0,0,7.632
5690,182.08,-1.4004,-6.6278,0.1797,0.0001,-0.0000,0.1919,flat,18.0,0,7.067
5700,182.40,-0.8411,-6.5161,0.1797,0.0001,-0.0000,0.2136,flat,18.0,0,6.500
5710,182.72,-0.2838,-6.3924,0.1797,0.0001,-0.0000,0.2327,flat,18.0,0,5.932
5720,183.04,0.2715,-6.2582,0.1797,0.0001,-0.0000,0.2500,flat,18.0,0,5.363
5730,183.36,0.8248,-6.1145,0.1797,0.0001,-0.0000,0.2658,flat,18.0,0,4.793
5740,183.68,1.3761,-5.9621,0.1797,0.0001,-0.0000,0.2805,flat,18.0,0,4.222
5750,184.00,1.9252,-5.8017,0.1797,0.0000,-0.0000,0.2944,flat,18.0,0,3.652
5760,184.32,2.4721,-5.6337,0.1797,0.0000,-0.0000,0.3081,flat,18.0,0,3.081
5770,184.64,3.0165,-5.4582,0.1797,0.0000,0.0000,0.3219,flat,18.0,0,2.510
5780,184.96,3.5581,-5.2752,0.1797,0.0001,0.0000,0.3367,flat,18.0,0,1.940
5790,185.28,4.0960,-5.0841,0.1797,0.0001,0.0000,0.3542,flat,18.0,0,1.370
5800,185.60,4.6281,-4.8836,0.1797,0.0001,0.0000,0.3789,flat,18.0,0,0.803
5810,185.92,5.0568,-4.6909,0.1799,-0.0002,0.0000,0.6064,flat,18.0,1,12.851
5820,186.24,5.3966,-4.3930,0.1799,0.0000,-0.0000,0.8688,flat,18.0,1,12.682
5830,186.56,5.6862,-3.9851,0.1799,0.0000,-0.0000,1.1007,flat,18.0,1,12.406
5840,186.88,5.8995,-3.5000,0.1799,0.0001,-0.0000,1.3075,flat,18.0,1,12.043
5850,187.20,6.0209,-2.9673,0.1799,0.0001,-0.0000,1.4838,flat,18.0,1,11.610
5860,187.52,6.0525,-2.4143,0.1799,0.0002,-0.0000,1.6233,flat,18.0,1,11.128
5870,187.84,6.0112,-1.8585,0.1798,0.0004,-0.0000,1.7236,flat,18.0,1,10.615
5880,188.16,5.9165,-1.3065,0.1798,0.0003,-0.0000,1.7991,flat,18.0,1,10.085
5890,188.48,5.7813,-0.7606,0.1797,0.0002,-0.0000,1.8584,flat,18.0,1,9.544
5900,188.80,5.6146,-0.2214,0.1797,0.0002,-0.0000,1.9063,flat,18.0,1,8.994
5910,189.12,5.4225,0.3100,0.1797,0.0001,-0.0000,1.9439,flat,18.0,1,8.440
5920,189.44,5.2108,0.8353,0.1797,0.0001,-0.0000,1.9760,flat,18.0,1,7.882
5930,189.76,4.9825,1.3547,0.1797,0.0001,-0.0000,2.0039,flat,18.0,1,7.321
5940,190.08,4.7397,1.8685,0.1797,0.0001,-0.0000,2.0286,flat,18.0,1,6.758
5950,190.40,4.4843,2.3771,0.1797,0.0001,-0.0000,2.0507,flat,18.0,1,6.193
5960,190.72,4.2178,2.8804,0.1797,0.0001,-0.0000,2.0708,flat,18.0,1,5.627
5970,191.04,3.9411,3.3789,0.1797,0.0001,-0.0000,2.0893,flat,18.0,1,5.060
5980,191.36,3.6552,3.8724,0.1797,0.0001,-0.0000,2.1067,flat,18.0,1,4.492
5990,191.68,3.3608,4.3612,0.1797,0.0001,-0.0000,2.1233,flat,18.0,1,3.924
6000,192.00,3.0582,4.8451,0.1797,0.0001,-0.0000,2.1395,flat,18.0,1,3.356
6010,192.32,2.7478,5.3240,0.1797,0.0001,0.0000,2.1560,flat,18.0,1,2.787
6020,192.64,2.4296,5.7972,0.1797,0.0001,0.0000,2.1733,flat,18.0,1,2.219
6030,192.96,2.1032,6.2639,0.1797,0.0001,0.0000,2.1930,flat,18.0,1,1.652
6040,193.28,1.7678,6.7219,0.1797,0.0001,0.0000,2.2182,flat,18.0,1,1.087
6050,193.60,1.4484,7.1339,0.1798,-0.0000,0.0004,2.3579,flat,18.0,2,15.246
6060,193.92,1.1312,7.3781,0.1799,-0.0001,-0.0001,2.7128,flat,18.0,2,15.250
6070,194.24,0.7035,7.5392,0.1799,0.0000,-0.0000,3.0423,flat,18.0,2,15.133
6080,194.56,0.2100,7.5621,0.1799,0.0001,-0.0000,-2.9656,flat,18.0,2,14.878
6090,194.88,-0.2967,7.4470,0.1799,0.0001,-0.0000,-2.7657,flat,18.0,2,14.509
6100,195.20,-0.7862,7.2280,0.1799,0.0002,-0.0000,-2.6209,flat,18.0,2,14.070
6110,195.52,-1.2487,6.9388,0.1798,0.0004,-0.0000,-2.5171,flat,18.0,2,13.589
6120,195.84,-1.6888,6.6018,0.1798,0.0003,-0.0000,-2.4450,flat,18.0,2,13.082
6130,196.16,-2.1057,6.2331,0.1797,0.0002,-0.0000,-2.3813,flat,18.0,2,12.561
6140,196.48,-2.5009,5.8375,0.1797,0.0002,-0.0000,-2.3264,flat,18.0,2,12.029
6150,196.80,-2.8762,5.4203,0.1797,0.0002,-0.0000,-2.2786,flat,18.0,2,11.489
6160,197.12,-3.2339,4.9859,0.1797,0.0001,-0.0000,-2.2377,flat,18.0,2,10.942
6170,197.44,-3.5760,4.5367,0.1797,0.0001,-0.0000,-2.2011,flat,18.0,2,10.391
6180,197.76,-3.9035,4.0746,0.1797,0.0001,-0.0000,-2.1683,flat,18.0,2,9.835
6190,198.08,-4.2172,3.6015,0.1797,0.0001,-0.0000,-2.1388,flat,18.0,2,9.276
6200,198.40,-4.5182,3.1189,0.1797,0.0001,-0.0000,-2.1123,flat,18.0,2,8.714
6210,198.72,-4.8074,2.6281,0.1797,0.0001,-0.0000,-2.0883,flat,18.0,2,8.150
6220,199.04,-5.0857,2.1302,0.1797,0.0001,-0.0000,-2.0665,flat,18.0,2,7.584
6230,199.36,-5.3537,1.6260,0.1797,0.0001,-0.0000,-2.0466,flat,18.0,2,7.016
6240,199.68,-5.6123,1.1164,0.1797,0.0001,-0.0000,-2.0284,flat,18.0,2,6.448
6250,200.00,-5.8620,0.6019,0.1797,0.0001,-0.0000,-2.0115,flat,18.0,2,5.879
6260,200.32,-6.1034,0.0831,0.1797,0.0001,-0.0000,-1.9957,flat,18.0,2,5.309
6270,200.64,-6.3368,-0.4396,0.1797,0.0001,-0.0000,-1.9808,flat,18.0,2,4.738
6280,200.96,-6.5627,-0.9658,0.1797,0.0001,-0.0000,-1.9665,flat,18.0,2,4.167
6290,201.28,-6.7813,-1.4952,0.1797,0.0000,-0.0000,-1.9526,flat,18.0,2,3.596
6300,201.60,-6.9925,-2.0277,0.1797,0.0000,-0.0000,-1.9387,flat,18.0,2,3.024
6310,201.92,-7.1963,-2.5629,0.1797,0.0001,0.0000,-1.9242,flat,18.0,2,2.453
6320,202.24,-7.3921,-3.1008,0.1797,0.0001,0.0000,-1.9084,flat,18.0,2,1.882
6330,202.56,-7.5788,-3.6412,0.1797,0.0001,0.0000,-1.8891,flat,18.0,2,1.312
6340,202.88,-7.7536,-4.1834,0.1797,0.0001,0.0000,-1.8603,flat,18.0,3,0.970
6350,203.20,-7.8885,-4.6472,0.1798,-0.0003,0.0001,-1.7322,flat,18.0,0,13.234
6360,203.52,-7.9300,-5.0391,0.1799,0.0001,-0.0001,-1.3053,flat,18.0,0,13.285
6370,203.84,-7.7827,-5.4488,0.1799,0.0001,-0.0000,-0.9989,flat,18.0,0,13.160
6380,204.16,-7.4834,-5.8291,0.1799,0.0001,-0.0000,-0.7733,flat,18.0,0,12.895
6390,204.48,-7.0834,-6.1629,0.1799,0.0001,-0.0000,-0.5872,flat,18.0,0,12.536
6400,204.80,-6.6159,-6.4385,0.1799,0.0001,-0.0000,-0.4236,flat,18.0,0,12.113
6410,205.12,-6.1039,-6.6470,0.1799,0.0002,-0.0000,-0.2884,flat,18.0,0,11.644
6420,205.44,-5.5647,-6.7918,0.1798,0.0004,-0.0000,-0.1781,flat,18.0,0,11.143
6430,205.76,-5.0098,-6.8804,0.1798,0.0004,-0.0000,-0.0880,flat,18.0,0,10.620
6440,206.08,-4.4467,-6.9213,0.1798,0.0003,-0.0000,-0.0142,flat,18.0,0,10.081
6450,206.40,-3.8807,-6.9220,0.1797,0.0002,-0.0000,0.0442,flat,18.0,0,9.533
6460,206.72,-3.3148,-6.8915,0.1797,0.0002,-0.0000,0.0895,flat,18.0,0,8.978
6470,207.04,-2.7500,-6.8362,0.1797,0.0001,-0.0000,0.1257,flat,18.0,0,8.419
6480,207.36,-2.1865,-6.7610,0.1797,0.0001,-0.0000,0.1563,flat,18.0,0,7.857
6490,207.68,-1.6246,-6.6689,0.1797,0.0001,-0.0000,0.1825,flat,18.0,0,7.293
6500,208.00,-1.0646,-6.5624,0.1797,0.0001,-0.0000,0.2052,flat,18.0,0,6.727
6510,208.32,-0.5065,-6.4433,0.1797,0.0001,-0.0000,0.2253,flat,18.0,0,6.159
6520,208.64,0.0496,-6.3131,0.1797,0.0001,-0.0000,0.2433,flat,18.0,0,5.590
6530,208.96,0.6037,-6.1731,0.1797,0.0001,-0.0000,0.2596,flat,18.0,0,5.021
6540,209.28,1.1558,-6.0241,0.1797,0.0001,-0.0000,0.2747,flat,18.0,0,4.451
6550,209.60,1.7058,-5.8669,0.1797,0.0001,-0.0000,0.2889,flat,18.0,0,3.880
6560,209.92,2.2536,-5.7019,0.1797,0.0000,-0.0000,0.3026,flat,18.0,0,3.309
6570,210.24,2.7990,-5.5293,0.1797,0.0000,0.0000,0.3163,flat,18.0,0,2.738
6580,210.56,3.3418,-5.3494,0.1797,0.0001,0.0000,0.3306,flat,18.0,0,2.168
6590,210.88,3.8813,-5.1616,0.1797,0.0001,0.0000,0.3467,flat,18.0,0,1.598
6600,211.20,4.4162,-4.9651,0.1797,0.0001,0.0000,0.3675,flat,18.0,0,1.029
6610,211.52,4.9005,-4.7762,0.1798,-0.0002,0.0001,0.5008,flat,18.0,1,12.885
6620,211.84,5.2666,-4.5284,0.1799,0.0000,-0.0000,0.7712,flat,18.0,1,12.766
6630,212.16,5.5779,-4.1591,0.1799,0.0000,-0.0000,1.0105,flat,18.0,1,12.528
6640,212.48,5.8247,-3.7014,0.1799,0.0001,-0.0000,1.2283,flat,18.0,1,12.198
6650,212.80,5.9835,-3.1842,0.1799,0.0001,-0.0000,1.4172,flat,18.0,1,11.790
6660,213.12,6.0498,-2.6366,0.1799,0.0001,-0.0000,1.5726,flat,18.0,1,11.325
6670,213.44,6.0350,-2.0805,0.1799,0.0004,-0.0000,1.6871,flat,18.0,1,10.823
6680,213.76,5.9598,-1.5266,0.1798,0.0004,-0.0000,1.7712,flat,18.0,1,10.299
6690,214.08,5.8395,-0.9781,0.1797,0.0003,-0.0000,1.8363,flat,18.0,1,9.761
6700,214.40,5.6845,-0.4363,0.1797,0.0002,-0.0000,1.8883,flat,18.0,1,9.215
6710,214.72,5.5018,0.0983,0.1797,0.0001,-0.0000,1.9297,flat,18.0,1,8.662
6720,215.04,5.2976,0.6259,0.1797,0.0001,-0.0000,1.9637,flat,18.0,1,8.105
6730,215.36,5.0756,1.1476,0.1797,0.0001,-0.0000,1.9931,flat,18.0,1,7.546
6740,215.68,4.8384,1.6637,0.1797,0.0001,-0.0000,2.0190,flat,18.0,1,6.983
6750,216.00,4.5879,2.1743,0.1797,0.0001,-0.0000,2.0421,flat,18.0,1,6.419
6760,216.32,4.3256,2.6797,0.1797,0.0001,-0.0000,2.0629,flat,18.0,1,5.854
6770,216.64,4.0529,3.1801,0.1797,0.0001,-0.0000,2.0820,flat,18.0,1,5.287
6780,216.96,3.7706,3.6756,0.1797,0.0001,-0.0000,2.0998,flat,18.0,1,4.719
6790,217.28,3.4795,4.1663,0.1797,0.0001,-0.0000,2.1167,flat,18.0,1,4.151
6800,217.60,3.1802,4.6522,0.1797,0.0001,-0.0000,2.1330,flat,18.0,1,3.583
6810,217.92,2.8729,5.1331,0.1797,0.0001,0.0000,2.1493,flat,18.0,1,3.014
6820,218.24,2.5578,5.6087,0.1797,0.0001,0.0000,2.1662,flat,18.0,1,2.446
6830,218.56,2.2347,6.0782,0.1797,0.0001,0.0000,2.1847,flat,18.0,1,1.878
6840,218.88,1.9031,6.5400,0.1797,0.0001,0.0000,2.2070,flat,18.0,1,1.312
6850,219.20,1.5615,6.9904,0.1797,0.0001,0.0000,2.2398,flat,18.0,2,15.203
6860,219.52,1.2720,7.2871,0.1799,-0.0003,-0.0000,2.5729,flat,18.0,2,15.261
6870,219.84,0.8856,7.4890,0.1799,-0.0000,-0.0000,2.9148,flat,18.0,2,15.196
6880,220.16,0.4115,7.5710,0.1799,0.0001,-0.0000,-3.0649,flat,18.0,2,14.996
6890,220.48,-0.0948,7.5075,0.1799,0.0001,-0.0000,-2.8388,flat,18.0,2,14.667
6900,220.80,-0.5936,7.3257,0.1799,0.0001,-0.0000,-2.6726,flat,18.0,2,14.252
6910,221.12,-1.0668,7.0614,0.1799,0.0003,-0.0000,-2.5545,flat,18.0,2,13.785
6920,221.44,-1.5156,6.7407,0.1798,0.0003,-0.0000,-2.4728,flat,18.0,2,13.286
6930,221.76,-1.9418,6.3840,0.1797,0.0002,-0.0000,-2.4063,flat,18.0,2,12.770
6940,222.08,-2.3453,5.9986,0.1797,0.0002,-0.0000,-2.3473,flat,18.0,2,12.243
6950,222.40,-2.7284,5.5894,0.1797,0.0002,-0.0000,-2.2967,flat,18.0,2,11.705
6960,222.72,-3.0928,5.1616,0.1797,0.0002,-0.0000,-2.2535,flat,18.0,2,11.162
6970,223.04,-3.4410,4.7180,0.1797,0.0001,-0.0000,-2.2152,flat,18.0,2,10.612
6980,223.36,-3.7742,4.2608,0.1797,0.0001,-0.0000,-2.1810,flat,18.0,2,10.058
6990,223.68,-4.0933,3.7919,0.1797,0.0001,-0.0000,-2.1503,flat,18.0,2,9.500
7000,224.00,-4.3993,3.3130,0.1797,0.0001,-0.0000,-2.1226,flat,18.0,2,8.939
7010,224.32,-4.6931,2.8253,0.1797,0.0001,-0.0000,-2.0976,flat,18.0,2,8.376
7020,224.64,-4.9757,2.3302,0.1797,0.0001,-0.0000,-2.0750,flat,18.0,2,7.810
7030,224.96,-5.2477,1.8284,0.1797,0.0001,-0.0000,-2.0544,flat,18.0,2,7.244
7040,225.28,-5.5100,1.3209,0.1797,0.0001,-0.0000,-2.0355,flat,18.0,2,6.676
7050,225.60,-5.7631,0.8083,0.1797,0.0001,-0.0000,-2.0181,flat,18.0,2,6.107
7060,225.92,-6.0078,0.2911,0.1797,0.0001,-0.0000,-2.0019,flat,18.0,2,5.537
7070,226.24,-6.2444,-0.2300,0.1797,0.0001,-0.0000,-1.9866,flat,18.0,2,4.966
7080,226.56,-6.4733,-0.7549,0.1797,0.0001,-0.0000,-1.9722,flat,18.0,2,4.396
7090,226.88,-6.6947,-1.2831,0.1797,0.0000,-0.0000,-1.9581,flat,18.0,2,3.824
7100,227.20,-6.9089,-1.8143,0.1797,0.0000,-0.0000,-1.9443,flat,18.0,2,3.253
7110,227.52,-7.1157,-2.3485,0.1797,0.0000,0.0000,-1.9301,flat,18.0,2,2.681
7120,227.84,-7.3148,-2.8853,0.1797,0.0001,0.0000,-1.9150,flat,18.0,2,2.110
7130,228.16,-7.5053,-3.4248,0.1797,0.0001,0.0000,-1.8974,flat,18.0,2,1.540
7140,228.48,-7.6854,-3.9664,0.1797,0.0001,0.0000,-1.8739,flat,18.0,2,0.971
7150,228.80,-7.8393,-4.4782,0.1799,-0.0006,0.0003,-1.8785,flat,18.0,0,13.184
7160,229.12,-7.9360,-4.8789,0.1799,-0.0001,-0.0000,-1.4604,flat,18.0,0,13.286
7170,229.44,-7.8626,-5.2863,0.1799,0.0002,-0.0000,-1.1101,flat,18.0,0,13.229
7180,229.76,-7.6182,-5.6824,0.1799,0.0001,-0.0000,-0.8555,flat,18.0,0,13.015
7190,230.08,-7.2528,-6.0353,0.1799,0.0001,-0.0000,-0.6595,flat,18.0,0,12.688
7200,230.40,-6.8094,-6.3362,0.1799,0.0001,-0.0000,-0.4855,flat,18.0,0,12.289
7210,230.72,-6.3128,-6.5715,0.1799,0.0001,-0.0000,-0.3392,flat,18.0,0,11.837
7220,231.04,-5.7828,-6.7410,0.1799,0.0003,-0.0000,-0.2195,flat,18.0,0,11.347
7230,231.36,-5.2330,-6.8511,0.1798,0.0004,-0.0000,-0.1219,flat,18.0,0,10.831
7240,231.68,-4.6725,-6.9101,0.1798,0.0004,-0.0000,-0.0420,flat,18.0,0,10.298
7250,232.00,-4.1070,-6.9260,0.1797,0.0003,-0.0000,0.0232,flat,18.0,0,9.753
7260,232.32,-3.5412,-6.9069,0.1797,0.0002,-0.0000,0.0724,flat,18.0,0,9.201
7270,232.64,-2.9758,-6.8609,0.1797,0.0001,-0.0000,0.1120,flat,18.0,0,8.643
7280,232.96,-2.4117,-6.7933,0.1797,0.0001,-0.0000,0.1446,flat,18.0,0,8.083
7290,233.28,-1.8492,-6.7076,0.1797,0.0001,-0.0000,0.1724,flat,18.0,0,7.519
7300,233.60,-1.2884,-6.6066,0.1797,0.0001,-0.0000,0.1965,flat,18.0,0,6.953
7310,233.92,-0.7295,-6.4924,0.1797,0.0001,-0.0000,0.2176,flat,18.0,0,6.386
7320,234.24,-0.1726,-6.3665,0.1797,0.0001,-0.0000,0.2363,flat,18.0,0,5.818
7330,234.56,0.3824,-6.2303,0.1797,0.0001,-0.0000,0.2533,flat,18.0,0,5.249
7340,234.88,0.9352,-6.0848,0.1797,0.0001,-0.0000,0.2688,flat,18.0,0,4.679
7350,235.20,1.4860,-5.9308,0.1797,0.0001,-0.0000,0.2833,flat,18.0,0,4.108
7360,235.52,2.0347,-5.7688,0.1797,0.0000,-0.0000,0.2972,flat,18.0,0,3.538
7370,235.84,2.5811,-5.5993,0.1797,0.0000,-0.0000,0.3108,flat,18.0,0,2.967
7380,236.16,3.1250,-5.4223,0.1797,0.0000,0.0000,0.3248,flat,18.0,0,2.396
7390,236.48,3.6660,-5.2377,0.1797,0.0001,0.0000,0.3399,flat,18.0,0,1.826
7400,236.80,4.2030,-5.0449,0.1797,0.0001,0.0000,0.3583,flat,18.0,0,1.256
7410,237.12,4.7307,-4.8454,0.1797,0.0000,0.0002,0.4022,flat,18.0,1,12.901
7420,237.44,5.1293,-4.6423,0.1799,-0.0001,0.0000,0.6636,flat,18.0,1,12.828
7430,237.76,5.4591,-4.3189,0.1799,0.0000,-0.0000,0.9168,flat,18.0,1,12.635
7440,238.08,5.7356,-3.8933,0.1799,0.0000,-0.0000,1.1443,flat,18.0,1,12.340
7450,238.40,5.9312,-3.3963,0.1799,0.0001,-0.0000,1.3453,flat,18.0,1,11.961
7460,238.72,6.0339,-2.8576,0.1799,0.0001,-0.0000,1.5148,flat,18.0,1,11.517
7470,239.04,6.0493,-2.3030,0.1799,0.0003,-0.0000,1.6460,flat,18.0,1,11.027
7480,239.36,5.9959,-1.7476,0.1798,0.0004,-0.0000,1.7403,flat,18.0,1,10.511
7490,239.68,5.8922,-1.1968,0.1798,0.0003,-0.0000,1.8121,flat,18.0,1,9.978
7500,240.00,5.7501,-0.6522,0.1797,0.0002,-0.0000,1.8688,flat,18.0,1,9.434
7510,240.32,5.5778,-0.1145,0.1797,0.0002,-0.0000,1.9146,flat,18.0,1,8.883
7520,240.64,5.3816,0.4156,0.1797,0.0001,-0.0000,1.9507,flat,18.0,1,8.328
7530,240.96,5.1663,0.9396,0.1797,0.0001,-0.0000,1.9818,flat,18.0,1,7.770
7540,241.28,4.9349,1.4579,0.1797,0.0001,-0.0000,2.0090,flat,18.0,1,7.208
7550,241.60,4.6895,1.9707,0.1797,0.0001,-0.0000,2.0332,flat,18.0,1,6.645
7560,241.92,4.4318,2.4781,0.1797,0.0001,-0.0000,2.0548,flat,18.0,1,6.080
7570,242.24,4.1631,2.9805,0.1797,0.0001,-0.0000,2.0746,flat,18.0,1,5.514
7580,242.56,3.8846,3.4780,0.1797,0.0001,-0.0000,2.0928,flat,18.0,1,4.947
7590,242.88,3.5969,3.9706,0.1797,0.0001,-0.0000,2.1100,flat,18.0,1,4.379
7600,243.20,3.3009,4.4584,0.1797,0.0001,-0.0000,2.1265,flat,18.0,1,3.810
7610,243.52,2.9967,4.9414,0.1797,0.0001,-0.0000,2.1428,flat,18.0,1,3.242
7620,243.84,2.6848,5.4191,0.1797,0.0001,0.0000,2.1593,flat,18.0,1,2.673
7630,244.16,2.3649,5.8912,0.1797,0.0001,0.0000,2.1770,flat,18.0,1,2.105
7640,244.48,2.0368,6.3564,0.1797,0.0001,0.0000,2.1974,flat,18.0,1,1.538
7650,244.80,1.6994,6.8121,0.1797,0.0001,0.0000,2.2245,flat,18.0,1,0.975
7660,245.12,1.3933,7.1880,0.1798,-0.0002,0.0002,2.4303,flat,18.0,2,15.255
7670,245.44,1.0536,7.4191,0.1799,-0.0000,-0.0001,2.7813,flat,18.0,2,15.237
7680,245.76,0.6081,7.5559,0.1799,0.0000,-0.0000,3.1037,flat,18.0,2,15.093
7690,246.08,0.1084,7.5491,0.1799,0.0001,-0.0000,-2.9208,flat,18.0,2,14.812
7700,246.40,-0.3967,7.4104,0.1799,0.0001,-0.0000,-2.7322,flat,18.0,2,14.426
7710,246.72,-0.8808,7.1750,0.1799,0.0002,-0.0000,-2.5974,flat,18.0,2,13.976
7720,247.04,-1.3385,6.8745,0.1798,0.0004,-0.0000,-2.5010,flat,18.0,2,13.489
7730,247.36,-1.7741,6.5303,0.1798,0.0003,-0.0000,-2.4321,flat,18.0,2,12.978
7740,247.68,-2.1865,6.1560,0.1797,0.0002,-0.0000,-2.3696,flat,18.0,2,12.455
7750,248.00,-2.5776,5.7557,0.1797,0.0002,-0.0000,-2.3163,flat,18.0,2,11.921
7760,248.32,-2.9491,5.3347,0.1797,0.0002,-0.0000,-2.2700,flat,18.0,2,11.380
7770,248.64,-3.3036,4.8972,0.1797,0.0001,-0.0000,-2.2300,flat,18.0,2,10.832
7780,248.96,-3.6427,4.4453,0.1797,0.0001,-0.0000,-2.1942,flat,18.0,2,10.280
7790,249.28,-3.9673,3.9808,0.1797,0.0001,-0.0000,-2.1622,flat,18.0,2,9.723
7800,249.60,-4.2785,3.5057,0.1797,0.0001,-0.0000,-2.1333,flat,18.0,2,9.164
7810,249.92,-4.5771,3.0214,0.1797,0.0001,-0.0000,-2.1073,flat,18.0,2,8.601
7820,250.24,-4.8640,2.5291,0.1797,0.0001,-0.0000,-2.0838,flat,18.0,2,8.037
7830,250.56,-5.1401,2.0299,0.1797,0.0001,-0.0000,-2.0624,flat,18.0,2,7.470
7840,250.88,-5.4062,1.5246,0.1797,0.0001,-0.0000,-2.0428,flat,18.0,2,6.903
7850,251.20,-5.6630,1.0139,0.1797,0.0001,-0.0000,-2.0249,flat,18.0,2,6.334
7860,251.52,-5.9110,0.4985,0.1797,0.0001,-0.0000,-2.0082,flat,18.0,2,5.765
7870,251.84,-6.1507,-0.0211,0.1797,0.0001,-0.0000,-1.9926,flat,18.0,2,5.195
7880,252.16,-6.3827,-0.5445,0.1797,0.0001,-0.0000,-1.9779,flat,18.0,2,4.624
7890,252.48,-6.6071,-1.0714,0.1797,0.0001,-0.0000,-1.9637,flat,18.0,2,4.053
7900,252.80,-6.8241,-1.6014,0.1797,0.0000,-0.0000,-1.9498,flat,18.0,2,3.481
7910,253.12,-7.0339,-2.1345,0.1797,0.0000,-0.0000,-1.9358,flat,18.0,2,2.910
7920,253.44,-7.2361,-2.6702,0.1797,0.0001,0.0000,-1.9212,flat,18.0,2,2.339
7930,253.76,-7.4302,-3.2087,0.1797,0.0001,0.0000,-1.9049,flat,18.0,2,1.768
7940,254.08,-7.6148,-3.7495,0.1797,0.0001,0.0000,-1.8845,flat,18.0,2,1.198
7950,254.40,-7.7815,-4.2855,0.1797,0.0001,0.0001,-1.8940,flat,18.0,3,0.878
7960,254.72,-7.9106,-4.7263,0.1798,-0.0004,0.0001,-1.6422,flat,18.0,0,13.257
7970,255.04,-7.9151,-5.1210,0.1799,0.0002,-0.0001,-1.2359,flat,18.0,0,13.273
7980,255.36,-7.7334,-5.5282,0.1799,0.0001,-0.0000,-0.9482,flat,18.0,0,13.117
7990,255.68,-7.4098,-5.8995,0.1799,0.0001,-0.0000,-0.7348,flat,18.0,0,12.829
8000,256.00,-6.9945,-6.2232,0.1799,0.0001,-0.0000,-0.5522,flat,18.0,0,12.456
8010,256.32,-6.5164,-6.4855,0.1799,0.0001,-0.0000,-0.3943,flat,18.0,0,12.023
8020,256.64,-5.9978,-6.6808,0.1799,0.0002,-0.0000,-0.2645,flat,18.0,0,11.546
8030,256.96,-5.4546,-6.8136,0.1798,0.0004,-0.0000,-0.1586,flat,18.0,0,11.040
8040,257.28,-4.8976,-6.8921,0.1798,0.0004,-0.0000,-0.0720,flat,18.0,0,10.513
8050,257.60,-4.3335,-6.9243,0.1798,0.0003,-0.0000,-0.0011,flat,18.0,0,9.972
8060,257.92,-3.7675,-6.9181,0.1797,0.0002,-0.0000,0.0539,flat,18.0,0,9.422
