step,time_s,x,y,z,roll,pitch,yaw,terrain,speed,target_idx,dist_to_target
10,0.32,-1.2110,0.8834,0.1844,0.0023,-0.0327,-0.0004,rough,14.0,0,8.496
20,0.64,-0.8040,0.8779,0.1805,-0.0054,0.0018,-0.1254,rough,14.0,0,8.182
30,0.96,-0.3898,0.8153,0.1789,0.0089,0.0072,-0.2391,rough,14.0,0,7.833
40,1.28,0.0245,0.7075,0.1785,0.0041,-0.0058,-0.2984,rough,14.0,0,7.459
50,1.60,0.4381,0.5759,0.1797,0.0002,-0.0004,-0.3539,rough,14.0,0,7.074
60,1.92,0.8358,0.4199,0.1799,-0.0000,0.0000,-0.4337,rough,14.0,0,6.689
70,2.24,1.2281,0.2330,0.1799,-0.0001,0.0000,-0.4828,rough,14.0,0,6.288
80,2.56,1.6108,0.0262,0.1799,-0.0001,-0.0000,-0.5287,rough,14.0,0,5.883
90,2.88,1.9833,-0.1984,0.1799,-0.0001,-0.0000,-0.5740,rough,14.0,0,5.475
100,3.20,2.3446,-0.4399,0.1799,-0.0001,-0.0000,-0.6194,rough,14.0,0,5.065
110,3.52,2.6941,-0.6979,0.1799,-0.0001,-0.0000,-0.6648,rough,14.0,0,4.652
120,3.84,3.0310,-0.9719,0.1799,-0.0001,-0.0000,-0.7102,rough,14.0,0,4.236
130,4.16,3.3549,-1.2612,0.1799,-0.0001,-0.0000,-0.7549,rough,14.0,0,3.819
140,4.48,3.6656,-1.5653,0.1799,-0.0001,-0.0000,-0.7985,rough,14.0,0,3.399
150,4.80,3.9624,-1.8828,0.1799,-0.0001,-0.0000,-0.8424,rough,14.0,0,2.978
160,5.12,4.2456,-2.2133,0.1799,-0.0001,-0.0000,-0.8877,rough,14.0,0,2.555
170,5.44,4.5144,-2.5563,0.1799,-0.0001,-0.0000,-0.9371,rough,14.0,0,2.132
180,5.76,4.7659,-2.9120,0.1799,-0.0002,-0.0000,-0.9917,rough,14.0,0,1.709
190,6.08,4.9971,-3.2802,0.1799,-0.0002,0.0000,-1.0552,rough,14.0,0,1.288
200,6.40,5.2008,-3.6563,0.1862,0.0159,-0.0217,-1.1307,rough,14.0,0,0.876
210,6.72,5.3109,-3.9109,0.1966,0.0482,-0.0635,-1.4749,rough,14.0,1,12.201
220,7.04,5.2955,-4.2007,0.2035,0.1034,-0.0179,-1.8705,rough,14.0,1,12.467
230,7.36,5.1852,-4.4546,0.2053,0.1056,0.0163,-2.2182,rough,14.0,1,12.669
240,7.68,4.9768,-4.6625,0.1976,0.0775,0.0206,-2.4765,rough,14.0,1,12.800
250,8.00,4.7091,-4.8304,0.1899,0.0223,0.0389,-2.6711,rough,14.0,1,12.880
260,8.32,4.3843,-4.9532,0.1814,0.0036,0.0065,-2.8193,rough,14.0,1,12.909
270,8.64,4.0178,-5.0430,0.1799,-0.0000,0.0001,-2.9408,rough,14.0,1,12.906
280,8.96,3.6581,-5.1072,0.1799,-0.0000,-0.0000,3.1055,rough,14.0,1,12.890
290,9.28,3.2808,-5.0850,0.1799,-0.0001,-0.0001,2.8928,rough,14.0,1,12.796
300,9.60,2.8961,-4.9764,0.1799,0.0003,-0.0000,2.7383,rough,14.0,1,12.627
310,9.92,2.5195,-4.8017,0.1799,-0.0001,0.0000,2.6279,rough,14.0,1,12.403
320,10.24,2.1554,-4.5855,0.1838,0.0087,-0.0159,2.5489,rough,14.0,1,12.149
330,10.56,1.8146,-4.3377,0.1776,-0.0011,0.0122,2.4656,rough,14.0,1,11.874
340,10.88,1.4965,-4.0725,0.1804,-0.0011,0.0060,2.3882,rough,14.0,1,11.592
350,11.20,1.1954,-3.7736,0.1790,-0.0046,0.0001,2.3196,rough,14.0,1,11.285
360,11.52,0.9125,-3.4494,0.1798,-0.0006,0.0000,2.2583,rough,14.0,1,10.960
370,11.84,0.6459,-3.1079,0.1799,-0.0002,-0.0000,2.2033,rough,14.0,1,10.624
380,12.16,0.3954,-2.7528,0.1786,-0.0064,-0.0002,2.1503,rough,14.0,1,10.282
390,12.48,0.1663,-2.3839,0.1791,-0.0029,-0.0015,2.1048,rough,14.0,1,9.930
400,12.80,-0.0508,-2.0030,0.1798,-0.0004,-0.0002,2.0564,rough,14.0,1,9.573
410,13.12,-0.2470,-1.6118,0.1798,-0.0001,-0.0000,2.0103,rough,14.0,1,9.209
420,13.44,-0.4296,-1.2117,0.1799,-0.0001,-0.0000,1.9649,rough,14.0,1,8.841
430,13.76,-0.5932,-0.8056,0.1802,0.0048,-0.0048,1.9326,rough,14.0,1,8.470
440,14.08,-0.7388,-0.4013,0.1933,0.0253,-0.0483,1.8974,rough,14.0,1,8.104
450,14.40,-0.8880,0.0211,0.1949,-0.0201,0.0357,1.8787,rough,14.0,1,7.728
460,14.72,-1.0105,0.4416,0.1846,-0.0032,0.0283,1.8411,rough,14.0,1,7.354
470,15.04,-1.1234,0.8615,0.1798,0.0001,-0.0004,1.8080,rough,14.0,1,6.985
480,15.36,-1.2212,1.2901,0.1799,-0.0018,-0.0032,1.7738,rough,14.0,1,6.611
490,15.68,-1.2994,1.7238,0.1818,0.0097,-0.0001,1.7431,rough,14.0,1,6.233
500,16.00,-1.3693,2.1612,0.1816,0.0096,0.0050,1.7182,rough,14.0,1,5.858
510,16.32,-1.4293,2.5977,0.1784,0.0076,0.0007,1.6901,rough,14.0,1,5.488
520,16.64,-1.4807,3.0343,0.1821,-0.0044,-0.0044,1.6572,rough,14.0,1,5.126
530,16.96,-1.5128,3.4655,0.1814,-0.0084,0.0078,1.5759,rough,14.0,1,4.771
540,17.28,-1.5065,3.8863,0.1809,-0.0003,-0.0059,1.4458,rough,14.0,1,4.417
550,17.60,-1.4412,4.3101,0.1843,0.0175,-0.0070,1.3659,rough,14.0,1,4.036
560,17.92,-1.3389,4.6989,0.1995,0.0539,-0.0621,1.3230,rough,14.0,1,3.669
570,18.24,-1.2206,5.0708,0.2274,0.1339,-0.1329,1.2708,rough,14.0,1,3.311
580,18.56,-1.0991,5.4155,0.3046,0.1333,-0.3249,1.2085,rough,14.0,1,2.979
590,18.88,-0.9662,5.7500,0.4367,0.1335,-0.3863,1.1814,rough,14.0,1,2.653
600,19.20,-0.8058,6.0810,0.5956,0.1836,-0.4278,1.1156,rough,14.0,1,2.317
610,19.52,-0.6359,6.4104,0.7613,0.1870,-0.4237,1.0508,rough,14.0,1,1.987
620,19.84,-0.4461,6.7335,0.9371,0.2153,-0.4199,0.9536,rough,14.0,1,1.658
630,20.16,-0.2306,7.0326,1.1104,0.2302,-0.4473,0.8639,rough,14.0,1,1.337
640,20.48,0.0142,7.3081,1.2818,0.2287,-0.4546,0.7816,rough,14.0,1,1.025
650,20.80,0.2619,7.5313,1.4529,0.2214,-0.3826,0.6044,rough,14.0,2,14.880
660,21.12,0.4758,7.5786,1.5267,0.4478,-0.3317,0.1255,rough,14.0,2,15.038
670,21.44,0.7678,7.4694,1.5247,0.6055,-0.0193,-0.2742,rough,14.0,2,15.113
680,21.76,1.0278,7.2868,1.4584,0.5998,0.2161,-0.5856,rough,14.0,2,15.115
690,22.08,1.2407,7.0554,1.3357,0.5772,0.4021,-0.7867,rough,14.0,2,15.057
700,22.40,1.4054,6.8061,1.1807,0.5054,0.4641,-0.9806,rough,14.0,2,14.962
710,22.72,1.5467,6.4914,0.9797,0.4572,0.4969,-1.1394,rough,14.0,2,14.806
720,23.04,1.6680,6.1431,0.7897,0.3361,0.4618,-1.2608,rough,14.0,2,14.619
730,23.36,1.7578,5.7617,0.5913,0.2303,0.5218,-1.3563,rough,14.0,2,14.392
740,23.68,1.8095,5.3862,0.4073,0.1374,0.4782,-1.4693,rough,14.0,2,14.151
750,24.00,1.8469,5.0064,0.2570,0.0545,0.2993,-1.5179,rough,14.0,2,13.904
760,24.32,1.8673,4.6455,0.1771,-0.0205,0.0149,-1.5927,rough,14.0,2,13.663
770,24.64,1.8417,4.3009,0.1797,-0.0004,-0.0005,-1.7944,rough,14.0,2,13.406
780,24.96,1.7485,3.9508,0.1799,0.0001,0.0000,-2.0183,rough,14.0,2,13.099
790,25.28,1.5632,3.6176,0.1798,-0.0001,-0.0002,-2.2000,rough,14.0,2,12.737
800,25.60,1.3162,3.3259,0.1799,-0.0000,0.0003,-2.3837,rough,14.0,2,12.359
810,25.92,1.0063,3.0218,0.1799,0.0000,-0.0000,-2.3635,rough,14.0,2,11.925
820,26.24,0.6876,2.7092,0.1799,-0.0000,-0.0000,-2.3685,rough,14.0,2,11.479
830,26.56,0.3673,2.3981,0.1799,-0.0000,-0.0000,-2.3734,rough,14.0,2,11.033
840,26.88,0.0455,2.0885,0.1799,-0.0000,-0.0000,-2.3779,rough,14.0,2,10.587
850,27.20,-0.2778,1.7803,0.1799,-0.0000,-0.0000,-2.3822,rough,14.0,2,10.140
860,27.52,-0.6023,1.4734,0.1799,-0.0000,-0.0000,-2.3863,rough,14.0,2,9.694
870,27.84,-0.9282,1.1677,0.1799,-0.0000,-0.0000,-2.3902,rough,14.0,2,9.248
880,28.16,-1.2552,0.8633,0.1799,-0.0000,-0.0000,-2.3938,rough,14.0,2,8.801
890,28.48,-1.5834,0.5599,0.1799,-0.0000,-0.0000,-2.3973,rough,14.0,2,8.354
900,28.80,-1.9126,0.2577,0.1799,-0.0000,-0.0000,-2.4006,rough,14.0,2,7.908
910,29.12,-2.2428,-0.0435,0.1799,-0.0000,-0.0000,-2.4038,rough,14.0,2,7.461
920,29.44,-2.5739,-0.3437,0.1799,-0.0000,-0.0000,-2.4069,rough,14.0,2,7.014
930,29.76,-2.9060,-0.6426,0.1785,-0.0053,0.0036,-2.4103,rough,14.0,2,6.567
940,30.08,-3.2393,-0.9383,0.1815,0.0037,-0.0052,-2.4132,rough,14.0,2,6.122
950,30.40,-3.5696,-1.2344,0.1782,-0.0045,-0.0245,-2.4158,rough,14.0,2,5.678
960,30.72,-3.9084,-1.5334,0.1802,-0.0000,0.0005,-2.4190,rough,14.0,2,5.227
970,31.04,-4.1701,-1.8225,0.1862,0.0006,-0.0453,-2.4272,rough,14.0,2,4.840
980,31.36,-4.3343,-2.1053,0.1917,0.0117,-0.1168,-2.4185,rough,14.0,2,4.535
990,31.68,-4.5817,-2.4209,0.1824,0.0254,-0.0143,-2.3332,rough,14.0,2,4.146
1000,32.00,-4.8930,-2.7332,0.1894,0.0420,0.0027,-2.3537,rough,14.0,2,3.710
1010,32.32,-5.2069,-3.0429,0.1854,0.0267,0.0044,-2.3733,rough,14.0,2,3.275
1020,32.64,-5.5278,-3.3478,0.1809,0.0060,0.0010,-2.3947,rough,14.0,2,2.838
1030,32.96,-5.8537,-3.6435,0.1795,0.0002,0.0022,-2.4215,rough,14.0,2,2.404
1040,33.28,-6.1876,-3.9291,0.1802,0.0016,-0.0008,-2.4517,rough,14.0,2,1.971
1050,33.60,-6.5280,-4.2030,0.1829,0.0063,-0.0123,-2.4871,rough,14.0,2,1.540
1060,33.92,-6.8786,-4.4573,0.1866,0.0232,-0.0132,-2.5336,rough,14.0,2,1.114
1070,34.24,-7.2393,-4.6935,0.1856,0.0035,0.0337,-2.6079,rough,14.0,3,1.196
1080,34.56,-7.6087,-4.8847,0.1798,0.0006,0.0001,-2.6945,rough,14.0,3,0.811
1090,34.88,-7.8435,-4.9746,0.1797,0.0009,-0.0003,-2.3682,rough,14.0,0,13.196
1100,35.20,-8.0230,-5.1994,0.1798,-0.0000,0.0002,-2.0075,rough,14.0,0,13.385
1110,35.52,-8.1343,-5.4789,0.1797,-0.0000,0.0003,-1.6013,rough,14.0,0,13.513
1120,35.84,-8.1416,-5.7764,0.1845,-0.0006,-0.0320,-1.3025,rough,14.0,0,13.545
1130,36.16,-8.0375,-6.0693,0.1958,-0.0308,-0.0648,-1.1440,rough,14.0,0,13.472
1140,36.48,-7.8651,-6.3783,0.2163,-0.0329,-0.0321,-0.9674,rough,14.0,0,13.340
1150,36.80,-7.6258,-6.6708,0.2200,-0.0495,0.0192,-0.8090,rough,14.0,0,13.148
1160,37.12,-7.3388,-6.9401,0.2014,-0.0119,0.0403,-0.6712,rough,14.0,0,12.912
1170,37.44,-7.0123,-7.1800,0.1829,-0.0031,0.0272,-0.5439,rough,14.0,0,12.640
1180,37.76,-6.6512,-7.3707,0.1811,-0.0094,-0.0144,-0.4302,rough,14.0,0,12.330
1190,38.08,-6.2614,-7.5319,0.1883,-0.0320,-0.0152,-0.3198,rough,14.0,0,11.990
1200,38.40,-5.8512,-7.6477,0.1943,-0.0461,-0.0070,-0.2511,rough,14.0,0,11.624
1210,38.72,-5.4561,-7.7281,0.1883,-0.0227,0.0278,-0.1171,rough,14.0,0,11.267
1220,39.04,-5.0567,-7.7722,0.1853,0.0047,0.0004,0.0628,rough,14.0,0,10.898
1230,39.36,-4.6456,-7.7452,0.1880,0.0374,-0.0081,0.2058,rough,14.0,0,10.498
1240,39.68,-4.2413,-7.6600,0.1848,0.0762,-0.0042,0.3103,rough,14.0,0,10.087
1250,40.00,-3.8491,-7.5199,0.1918,0.0435,-0.0040,0.3908,rough,14.0,0,9.671
1260,40.32,-3.4543,-7.3414,0.1852,0.0077,0.0229,0.4558,rough,14.0,0,9.240
1270,40.64,-3.0795,-7.1470,0.1799,-0.0010,0.0022,0.5194,rough,14.0,0,8.824
1280,40.96,-2.7188,-6.9261,0.1799,0.0001,-0.0000,0.6015,rough,14.0,0,8.415
1290,41.28,-2.3793,-6.6767,0.1799,0.0000,0.0000,0.6910,rough,14.0,0,8.019
1300,41.60,-2.0479,-6.4142,0.1805,0.0006,-0.0042,0.6330,rough,14.0,0,7.631
1310,41.92,-1.7027,-6.1647,0.1845,-0.0074,-0.0069,0.5845,rough,14.0,0,7.237
1320,42.24,-1.3434,-5.9309,0.1835,-0.0088,0.0099,0.5351,rough,14.0,0,6.835
1330,42.56,-0.9672,-5.7108,0.1817,-0.0101,0.0014,0.4838,rough,14.0,0,6.423
1340,42.88,-0.5751,-5.5154,0.1782,0.0107,0.0002,0.4372,rough,14.0,0,6.003
1350,43.20,-0.1758,-5.3327,0.1797,0.0010,0.0000,0.3884,rough,14.0,0,5.580
1360,43.52,0.2244,-5.1716,0.1851,-0.0100,-0.0234,0.3525,rough,14.0,0,5.162
1370,43.84,0.6233,-5.0245,0.1934,-0.0128,-0.0481,0.3248,rough,14.0,0,4.748
1380,44.16,1.0338,-4.8832,0.2064,-0.0423,-0.0281,0.2939,rough,14.0,0,4.326
1390,44.48,1.4633,-4.7587,0.2046,-0.0266,0.0280,0.2488,rough,14.0,0,3.889
1400,44.80,1.8897,-4.6617,0.1853,0.0049,0.0253,0.2202,rough,14.0,0,3.458
1410,45.12,2.3186,-4.5696,0.1814,-0.0003,0.0105,0.1841,rough,14.0,0,3.027
1420,45.44,2.7498,-4.4953,0.1792,-0.0026,-0.0020,0.1467,rough,14.0,0,2.595
1430,45.76,3.1854,-4.4345,0.1798,-0.0004,-0.0002,0.0928,rough,14.0,0,2.161
1440,46.08,3.6228,-4.3968,0.1799,-0.0002,-0.0000,0.0342,rough,14.0,0,1.726
1450,46.40,4.0600,-4.3850,0.1799,-0.0002,-0.0000,-0.0335,rough,14.0,0,1.292
1460,46.72,4.4929,-4.4029,0.1799,-0.0001,0.0000,-0.1172,rough,14.0,0,0.860
1470,47.04,4.8580,-4.4270,0.1843,-0.0161,-0.0102,0.1082,rough,14.0,1,12.539
1480,47.36,5.1236,-4.3750,0.1968,-0.0382,-0.0583,0.3531,rough,14.0,1,12.574
1490,47.68,5.3145,-4.2433,0.2116,-0.1079,-0.0502,0.5407,rough,14.0,1,12.514
1500,48.00,5.4836,-4.0732,0.2212,-0.1353,-0.0746,0.7533,rough,14.0,1,12.414
1510,48.32,5.6405,-3.8425,0.2385,-0.1558,-0.0901,0.9734,rough,14.0,1,12.257
1520,48.64,5.7720,-3.5205,0.2357,-0.2642,0.0135,1.1643,rough,14.0,1,12.011
1530,48.96,5.8778,-3.1836,0.2305,-0.2481,0.0193,1.3063,rough,14.0,1,11.746
1540,49.28,5.9698,-2.8339,0.2138,-0.1743,0.0099,1.3996,rough,14.0,1,11.468
1550,49.60,6.0273,-2.4397,0.1958,-0.0755,0.0081,1.5034,rough,14.0,1,11.139
1560,49.92,6.0238,-2.0448,0.1785,-0.0070,-0.0030,1.6673,rough,14.0,1,10.786
1570,50.24,5.9767,-1.6341,0.1798,0.0000,0.0002,1.8141,rough,14.0,1,10.401
1580,50.56,5.8657,-1.2287,0.1799,0.0000,-0.0000,1.9247,rough,14.0,1,9.993
1590,50.88,5.7114,-0.8320,0.1799,0.0000,-0.0000,2.0098,rough,14.0,1,9.571
1600,51.20,5.5220,-0.4508,0.1799,0.0001,-0.0000,2.0903,rough,14.0,1,9.146
1610,51.52,5.3120,-0.0706,0.1799,0.0000,-0.0000,2.0876,rough,14.0,1,8.712
1620,51.84,5.0911,0.3130,0.1799,0.0000,-0.0000,2.1040,rough,14.0,1,8.269
1630,52.16,4.8638,0.6932,0.1799,0.0000,-0.0000,2.1195,rough,14.0,1,7.826
1640,52.48,4.6305,1.0701,0.1799,0.0000,-0.0000,2.1342,rough,14.0,1,7.383
1650,52.80,4.3917,1.4437,0.1799,0.0000,-0.0000,2.1483,rough,14.0,1,6.941
1660,53.12,4.1476,1.8140,0.1799,0.0000,-0.0000,2.1620,rough,14.0,1,6.499
1670,53.44,3.8984,2.1811,0.1799,0.0000,-0.0000,2.1754,rough,14.0,1,6.057
1680,53.76,3.6443,2.5447,0.1799,0.0000,-0.0000,2.1887,rough,14.0,1,5.616
1690,54.08,3.3853,2.9048,0.1799,0.0000,0.0000,2.2021,rough,14.0,1,5.177
1700,54.40,3.1215,3.2613,0.1799,0.0000,0.0000,2.2160,rough,14.0,1,4.740
1710,54.72,2.8528,3.6136,0.1799,0.0000,0.0000,2.2308,rough,14.0,1,4.306
1720,55.04,2.5849,3.9583,0.1798,-0.0000,-0.0000,2.2186,rough,14.0,1,3.881
1730,55.36,2.3286,4.3112,0.1799,-0.0001,-0.0000,2.1771,rough,14.0,1,3.456
1740,55.68,2.0829,4.6488,0.1972,-0.0564,-0.0433,2.1323,rough,14.0,1,3.052
1750,56.00,1.8654,4.9496,0.2449,-0.1612,-0.2571,2.1120,rough,14.0,1,2.697
1760,56.32,1.6527,5.2730,0.3457,-0.1926,-0.3053,2.1023,rough,14.0,1,2.325
1770,56.64,1.4263,5.5986,0.4552,-0.3056,-0.2639,2.0551,rough,14.0,1,1.954
1780,56.96,1.2450,5.9175,0.5732,-0.3321,-0.3827,2.0412,rough,14.0,1,1.608
1790,57.28,1.0734,6.2333,0.7304,-0.3005,-0.4569,2.0049,rough,14.0,1,1.278
1800,57.60,0.9249,6.5324,0.8992,-0.3151,-0.5239,1.9713,rough,14.0,1,0.982
1810,57.92,0.8013,6.8037,1.0697,-0.3237,-0.5151,1.9857,rough,14.0,2,14.592
1820,58.24,0.6702,6.9487,1.1615,-0.4744,-0.4554,2.2479,rough,14.0,2,14.632
1830,58.56,0.4680,7.1175,1.2402,-0.5238,-0.2380,2.4954,rough,14.0,2,14.652
1840,58.88,0.2076,7.2082,1.2618,-0.5663,-0.0943,2.8109,rough,14.0,2,14.581
1850,59.20,-0.1143,7.2386,1.2240,-0.4709,0.1208,3.0882,rough,14.0,2,14.430
1860,59.52,-0.4482,7.1765,1.1508,-0.4058,0.1797,-2.9170,rough,14.0,2,14.200
1870,59.84,-0.8018,7.0340,1.0474,-0.3313,0.2848,-2.7040,rough,14.0,2,13.895
1880,60.16,-1.1545,6.8547,0.9290,-0.2891,0.3306,-2.5512,rough,14.0,2,13.562
1890,60.48,-1.4461,6.6024,0.7813,-0.2217,0.3830,-2.3620,rough,14.0,2,13.199
1900,60.80,-1.7078,6.3242,0.6328,-0.1234,0.3932,-2.1771,rough,14.0,2,12.829
1910,61.12,-1.9022,5.9772,0.4977,-0.1765,0.3368,-2.1287,rough,14.0,2,12.431
1920,61.44,-2.1174,5.6234,0.3984,-0.1113,0.1504,-2.0950,rough,14.0,2,12.017
1930,61.76,-2.3357,5.2487,0.3430,-0.0938,0.0965,-2.0874,rough,14.0,2,11.584
1940,62.08,-2.5574,4.8655,0.2943,-0.0790,0.0847,-2.0853,rough,14.0,2,11.141
1950,62.40,-2.7822,4.4741,0.2450,-0.0582,0.1117,-2.0858,rough,14.0,2,10.690
1960,62.72,-3.0047,4.0952,0.2027,-0.0163,0.0798,-2.0827,rough,14.0,2,10.251
1970,63.04,-3.2166,3.7165,0.1842,-0.0170,0.0094,-2.0792,rough,14.0,2,9.817
1980,63.36,-3.4237,3.3264,0.1924,-0.0523,-0.0174,-2.0766,rough,14.0,2,9.375
1990,63.68,-3.6396,2.9311,0.1983,-0.0625,-0.0011,-2.0758,rough,14.0,2,8.925
2000,64.00,-3.8626,2.5328,0.1977,-0.0476,0.0484,-2.0766,rough,14.0,2,8.468
2010,64.32,-4.0821,2.1495,0.1816,-0.0080,0.0111,-2.0757,rough,14.0,2,8.027
2020,64.64,-4.2988,1.7604,0.1798,0.0002,0.0005,-2.0742,rough,14.0,2,7.582
2030,64.96,-4.5144,1.3683,0.1798,0.0000,0.0000,-2.0726,rough,14.0,2,7.134
2040,65.28,-4.7292,0.9758,0.1800,-0.0007,-0.0006,-2.0709,rough,14.0,2,6.687
2050,65.60,-4.9439,0.5928,0.1892,0.0171,-0.0367,-2.0712,rough,14.0,2,6.248
2060,65.92,-5.1676,0.1952,0.1907,0.0485,0.0123,-2.0680,rough,14.0,2,5.792
2070,66.24,-5.3785,-0.1983,0.1852,0.0273,0.0014,-2.0665,rough,14.0,2,5.345
2080,66.56,-5.5872,-0.5920,0.1803,0.0100,-0.0096,-2.0645,rough,14.0,2,4.900
2090,66.88,-5.7975,-0.9784,0.1921,0.0216,-0.0476,-2.0634,rough,14.0,2,4.460
2100,67.20,-6.0066,-1.3716,0.2122,0.0175,-0.0513,-2.0626,rough,14.0,2,4.014
2110,67.52,-6.2204,-1.7752,0.2290,0.0039,-0.0005,-2.0598,rough,14.0,2,3.558
2120,67.84,-6.4372,-2.1784,0.2136,0.0134,0.0517,-2.0576,rough,14.0,2,3.100
2130,68.16,-6.6423,-2.5769,0.1913,-0.0129,0.0581,-2.0563,rough,14.0,2,2.652
2140,68.48,-6.8419,-2.9620,0.1833,-0.0283,-0.0177,-2.0544,rough,14.0,2,2.218
2150,68.80,-7.0467,-3.3591,0.1908,-0.0430,-0.0210,-2.0520,rough,14.0,2,1.771
2160,69.12,-7.2540,-3.7564,0.1976,-0.0412,-0.0139,-2.0500,rough,14.0,2,1.323
2170,69.44,-7.4642,-4.1594,0.1885,-0.0291,0.0216,-2.0510,rough,14.0,2,0.869
2180,69.76,-7.6723,-4.5235,0.1796,-0.0091,0.0082,-2.1683,rough,14.0,3,0.832
2190,70.08,-7.8627,-4.7913,0.1798,-0.0004,0.0000,-1.8694,rough,14.0,0,13.210
2200,70.40,-7.9475,-5.0768,0.1798,-0.0000,-0.0003,-1.5048,rough,14.0,0,13.304
2210,70.72,-7.9200,-5.3879,0.1798,-0.0000,-0.0004,-1.2253,rough,14.0,0,13.293
2220,71.04,-7.7853,-5.7022,0.1837,-0.0015,-0.0252,-1.0257,rough,14.0,0,13.183
2230,71.36,-7.5726,-5.9923,0.1931,-0.0345,-0.0435,-0.8858,rough,14.0,0,13.001
2240,71.68,-7.3165,-6.2746,0.1962,-0.0363,0.0032,-0.7426,rough,14.0,0,12.782
2250,72.00,-7.0098,-6.5322,0.1885,-0.0273,0.0369,-0.6116,rough,14.0,0,12.517
2260,72.32,-6.6732,-6.7506,0.1805,0.0012,0.0070,-0.5152,rough,14.0,0,12.223
2270,72.64,-6.2996,-6.9390,0.1794,-0.0036,-0.0004,-0.3894,rough,14.0,0,11.893
2280,72.96,-5.8977,-7.0894,0.1798,0.0001,0.0003,-0.3103,rough,14.0,0,11.532
2290,73.28,-5.4891,-7.2136,0.1820,-0.0051,-0.0082,-0.2146,rough,14.0,0,11.164
2300,73.60,-5.0834,-7.3011,0.1915,0.0301,-0.0449,-0.1807,rough,14.0,0,10.792
2310,73.92,-4.6676,-7.3778,0.1997,0.0549,-0.0166,-0.1385,rough,14.0,0,10.412
2320,74.24,-4.2375,-7.4287,0.1995,0.0519,0.0072,-0.0629,rough,14.0,0,10.014
2330,74.56,-3.8023,-7.4508,0.1935,0.0467,0.0161,0.0078,rough,14.0,0,9.605
2340,74.88,-3.3656,-7.4351,0.1845,-0.0064,0.0274,0.0643,rough,14.0,0,9.185
2350,75.20,-2.9371,-7.3988,0.1854,-0.0209,-0.0108,0.1181,rough,14.0,0,8.768
2360,75.52,-2.5015,-7.3387,0.1836,-0.0226,-0.0009,0.1586,rough,14.0,0,8.337
2370,75.84,-2.0670,-7.2626,0.1833,-0.0132,0.0077,0.1942,rough,14.0,0,7.903
2380,76.16,-1.6438,-7.1751,0.1837,0.0124,-0.0422,0.2241,rough,14.0,0,7.476
2390,76.48,-1.2183,-7.0715,0.2024,0.0115,-0.0548,0.2494,rough,14.0,0,7.041
2400,76.80,-0.7897,-6.9611,0.2197,0.0096,-0.0320,0.2817,rough,14.0,0,6.602
2410,77.12,-0.3534,-6.8375,0.2203,0.0226,0.0259,0.2785,rough,14.0,0,6.151
2420,77.44,0.0817,-6.7110,0.1982,0.0169,0.0704,0.2865,rough,14.0,0,5.701
2430,77.76,0.4962,-6.5838,0.1814,-0.0018,0.0029,0.2943,rough,14.0,0,5.269
2440,78.08,0.9218,-6.4540,0.1804,0.0038,-0.0018,0.3032,rough,14.0,0,4.827
2450,78.40,1.3467,-6.3195,0.1792,-0.0039,0.0007,0.3118,rough,14.0,0,4.384
2460,78.72,1.7707,-6.1824,0.1805,-0.0023,0.0007,0.3177,rough,14.0,0,3.942
2470,79.04,2.1921,-6.0421,0.1811,-0.0044,-0.0009,0.3229,rough,14.0,0,3.501
2480,79.36,2.6091,-5.8950,0.1873,-0.0333,-0.0075,0.3286,rough,14.0,0,3.062
2490,79.68,3.0309,-5.7487,0.1848,-0.0210,0.0073,0.3414,rough,14.0,0,2.620
2500,80.00,3.4491,-5.5993,0.1803,-0.0020,0.0018,0.3544,rough,14.0,0,2.181
2510,80.32,3.8632,-5.4440,0.1793,0.0031,0.0002,0.3670,rough,14.0,0,1.746
2520,80.64,4.2688,-5.2837,0.1847,-0.0027,-0.0299,0.3822,rough,14.0,0,1.319
2530,80.96,4.6698,-5.1109,0.1896,-0.0341,-0.0211,0.3981,rough,14.0,0,0.897
2540,81.28,4.9821,-4.9670,0.1990,-0.0674,-0.0365,0.6291,rough,14.0,1,13.091
2550,81.60,5.1867,-4.7644,0.2184,-0.0877,-0.0673,0.8694,rough,14.0,1,12.963
2560,81.92,5.3316,-4.4677,0.2203,-0.1751,0.0064,1.0762,rough,14.0,1,12.730
2570,82.24,5.4739,-4.1515,0.2214,-0.1714,-0.0083,1.2226,rough,14.0,1,12.483
2580,82.56,5.5796,-3.7863,0.2109,-0.1839,0.0298,1.3365,rough,14.0,1,12.182
2590,82.88,5.6595,-3.4371,0.2104,-0.1515,-0.0133,1.3980,rough,14.0,1,11.890
2600,83.20,5.6877,-3.0443,0.1868,-0.0385,-0.0063,1.5693,rough,14.0,1,11.541
2610,83.52,5.6508,-2.6297,0.1829,0.0004,0.0212,1.7185,rough,14.0,1,11.147
2620,83.84,5.5760,-2.2175,0.1798,-0.0000,-0.0007,1.8357,rough,14.0,1,10.742
2630,84.16,5.4562,-1.8080,0.1799,0.0001,0.0000,1.9243,rough,14.0,1,10.320
2640,84.48,5.3014,-1.4075,0.1799,0.0002,-0.0000,1.9958,rough,14.0,1,9.892
2650,84.80,5.1171,-1.0174,0.1799,0.0002,-0.0000,2.0561,rough,14.0,1,9.461
2660,85.12,4.9091,-0.6350,0.1799,0.0001,-0.0000,2.1011,rough,14.0,1,9.026
2670,85.44,4.6837,-0.2617,0.1799,0.0001,-0.0000,2.1424,rough,14.0,1,8.592
2680,85.76,4.4428,0.1019,0.1799,0.0001,-0.0000,2.1825,rough,14.0,1,8.161
2690,86.08,4.1872,0.4556,0.1799,0.0001,-0.0000,2.2216,rough,14.0,1,7.733
2700,86.40,3.9177,0.7990,0.1799,0.0001,-0.0000,2.2595,rough,14.0,1,7.310
2710,86.72,3.6350,1.1320,0.1799,0.0001,-0.0000,2.2964,rough,14.0,1,6.894
2720,87.04,3.3399,1.4544,0.1799,0.0001,-0.0000,2.3319,rough,14.0,1,6.485
2730,87.36,3.0331,1.7669,0.1799,0.0001,-0.0000,2.3650,rough,14.0,1,6.086
2740,87.68,2.7159,2.0693,0.1799,0.0001,-0.0000,2.3970,rough,14.0,1,5.699
2750,88.00,2.3892,2.3614,0.1799,0.0001,-0.0000,2.4284,rough,14.0,1,5.328
2760,88.32,2.0539,2.6434,0.1799,0.0001,-0.0000,2.4587,rough,14.0,1,4.975
2770,88.64,1.7102,2.9153,0.1799,0.0001,-0.0000,2.4895,rough,14.0,1,4.646
2780,88.96,1.3584,3.1767,0.1799,0.0001,-0.0000,2.5215,rough,14.0,1,4.346
2790,89.28,0.9985,3.4266,0.1799,0.0001,0.0000,2.5556,rough,14.0,1,4.083
2800,89.60,0.6297,3.6639,0.1799,0.0001,-0.0000,2.5952,rough,14.0,1,3.865
2810,89.92,0.3361,3.8729,0.1798,-0.0003,0.0002,2.3966,rough,14.0,1,3.700
2820,90.24,0.0799,4.1498,0.1799,0.0002,0.0000,2.2189,rough,14.0,1,3.489
2830,90.56,-0.1377,4.4773,0.1798,-0.0001,-0.0000,2.0401,rough,14.0,1,3.246
2840,90.88,-0.3016,4.8137,0.1915,-0.0234,-0.0499,1.9156,rough,14.0,1,3.002
2850,91.20,-0.4100,5.1514,0.2244,-0.0447,-0.1330,1.7924,rough,14.0,1,2.757
2860,91.52,-0.4801,5.4346,0.2929,-0.0602,-0.3862,1.7311,rough,14.0,1,2.560
2870,91.84,-0.5299,5.7357,0.4310,-0.0442,-0.4390,1.6867,rough,14.0,1,2.355
2880,92.16,-0.5669,6.0284,0.5716,-0.0439,-0.4590,1.6507,rough,14.0,1,2.170
2890,92.48,-0.5933,6.3072,0.7160,-0.0476,-0.4800,1.6255,rough,14.0,1,2.011
2900,92.80,-0.6145,6.5763,0.8477,-0.0672,-0.4616,1.6123,rough,14.0,1,1.881
2910,93.12,-0.6275,6.8331,0.9740,-0.0718,-0.4558,1.5939,rough,14.0,1,1.780
2920,93.44,-0.6379,7.0743,1.0829,-0.0942,-0.4347,1.5830,rough,14.0,1,1.713
2930,93.76,-0.6433,7.2984,1.1822,-0.1053,-0.4272,1.5755,rough,14.0,1,1.675
2940,94.08,-0.6464,7.5017,1.2706,-0.1193,-0.4201,1.5734,rough,14.0,1,1.665
2950,94.40,-0.6500,7.6932,1.3470,-0.1407,-0.3856,1.5690,rough,14.0,1,1.679
2960,94.72,-0.6499,7.8637,1.4139,-0.1426,-0.3687,1.5660,rough,14.0,1,1.706
2970,95.04,-0.6520,8.0272,1.4731,-0.1488,-0.3608,1.5487,rough,14.0,1,1.749
2980,95.36,-0.6486,8.1793,1.5282,-0.1602,-0.3470,1.5591,rough,14.0,1,1.797
2990,95.68,-0.6472,8.3378,1.5781,-0.1596,-0.3038,1.5423,rough,14.0,1,1.860
3000,96.00,-0.6419,8.4977,1.6235,-0.1463,-0.2876,1.4970,rough,14.0,1,1.932
3010,96.32,-0.6407,8.7028,1.6851,-0.0929,-0.3124,1.3015,rough,14.0,1,2.044
3020,96.64,-0.5623,8.9371,1.7643,0.0009,-0.3341,0.9744,rough,14.0,1,2.130
3030,96.96,-0.3705,9.1067,1.8457,0.0777,-0.2981,0.7361,rough,14.0,1,2.117
3040,97.28,-0.1165,9.2518,1.9269,0.1664,-0.2354,0.4811,rough,14.0,1,2.079
3050,97.60,0.1235,9.3845,1.9918,0.1777,-0.2226,0.3133,rough,14.0,1,2.078
3060,97.92,0.3810,9.4778,2.0438,0.1664,-0.1586,0.1856,rough,14.0,1,2.069
3070,98.24,0.6442,9.5094,2.0818,0.1728,-0.1457,0.0453,rough,14.0,1,2.034
3080,98.56,0.9521,9.4561,2.1216,0.1928,-0.1320,-0.2095,rough,14.0,1,1.947
3090,98.88,1.2755,9.3032,2.1607,0.2142,-0.1375,-0.4868,rough,14.0,1,1.812
3100,99.20,1.5641,9.0780,2.1951,0.2448,-0.0650,-0.7173,rough,14.0,1,1.660
3110,99.52,1.7830,8.8108,2.2003,0.2642,0.0052,-0.9189,rough,14.0,1,1.509
3120,99.84,1.9699,8.4706,2.1689,0.2168,0.1373,-1.1397,rough,14.0,1,1.352
3130,100.16,2.0674,8.1040,2.0774,0.1879,0.2990,-1.4042,rough,14.0,1,1.205
3140,100.48,2.0879,7.7039,1.9235,0.1553,0.4701,-1.6177,rough,14.0,1,1.087
3150,100.80,2.0540,7.2755,1.6795,0.1487,0.5616,-1.6884,rough,14.0,1,1.061
3160,101.12,2.0081,6.8866,1.4075,0.1562,0.6658,-1.7647,rough,14.0,1,1.169
3170,101.44,1.9306,6.5408,1.1323,0.0585,0.6748,-1.8971,rough,14.0,1,1.331
3180,101.76,1.8486,6.1942,0.8661,0.0665,0.5988,-1.8875,rough,14.0,1,1.555
3190,102.08,1.7285,5.8393,0.6243,-0.0429,0.6166,-1.9623,rough,14.0,1,1.815
3200,102.40,1.5997,5.5120,0.4355,-0.1760,0.4245,-2.1615,rough,14.0,1,2.080
3210,102.72,1.4151,5.2676,0.3313,-0.2367,0.2346,-2.4833,rough,14.0,1,2.277
3220,103.04,1.1620,5.0813,0.2572,-0.2169,0.0976,-2.8535,rough,14.0,1,2.433
3230,103.36,1.0171,4.9175,0.2278,-0.1943,-0.0683,2.9684,rough,14.0,1,2.592
3240,103.68,0.7734,4.8572,0.2103,-0.1393,-0.0213,2.6764,rough,14.0,1,2.664
3250,104.00,0.4833,4.9940,0.2168,-0.1434,-0.0672,2.4641,rough,14.0,1,2.572
3260,104.32,0.2143,5.2026,0.2549,-0.1659,-0.1424,2.2665,rough,14.0,1,2.443
3270,104.64,0.0016,5.4329,0.3047,-0.1995,-0.2923,2.1239,rough,14.0,1,2.313
3280,104.96,-0.1620,5.6865,0.4077,-0.1689,-0.4022,2.0081,rough,14.0,1,2.172
3290,105.28,-0.2893,5.9504,0.5356,-0.1401,-0.4647,1.8905,rough,14.0,1,2.035
3300,105.60,-0.3808,6.2153,0.6740,-0.1070,-0.4751,1.7953,rough,14.0,1,1.906
3310,105.92,-0.4452,6.4836,0.8123,-0.0887,-0.4812,1.7154,rough,14.0,1,1.788
3320,106.24,-0.4881,6.7454,0.9405,-0.0886,-0.4581,1.6565,rough,14.0,1,1.690
3330,106.56,-0.5115,6.9917,1.0602,-0.0820,-0.4547,1.6184,rough,14.0,1,1.616
3340,106.88,-0.5312,7.2232,1.1612,-0.1085,-0.4278,1.5948,rough,14.0,1,1.576
3350,107.20,-0.5385,7.4343,1.2552,-0.1150,-0.4231,1.5823,rough,14.0,1,1.559
3360,107.52,-0.5468,7.6287,1.3358,-0.1452,-0.3928,1.5754,rough,14.0,1,1.570
3370,107.84,-0.5493,7.8056,1.4057,-0.1540,-0.3738,1.5703,rough,14.0,1,1.596
3380,108.16,-0.5495,7.9654,1.4677,-0.1558,-0.3631,1.5682,rough,14.0,1,1.633
3390,108.48,-0.5529,8.1218,1.5230,-0.1634,-0.3533,1.5577,rough,14.0,1,1.687
3400,108.80,-0.5531,8.2741,1.5724,-0.1736,-0.3174,1.5596,rough,14.0,1,1.748
3410,109.12,-0.5528,8.4263,1.6214,-0.1788,-0.2816,1.5526,rough,14.0,1,1.819
3420,109.44,-0.5460,8.5907,1.6694,-0.1624,-0.2916,1.4775,rough,14.0,1,1.902
3430,109.76,-0.5076,8.7599,1.7248,-0.1284,-0.3042,1.3755,rough,14.0,1,1.973
3440,110.08,-0.4353,8.9373,1.7889,-0.0780,-0.3204,1.2159,rough,14.0,1,2.038
3450,110.40,-0.3147,9.1105,1.8592,-0.0038,-0.3246,0.9959,rough,14.0,1,2.083
3460,110.72,-0.1383,9.2754,1.9291,0.1079,-0.2722,0.7139,rough,14.0,1,2.111
3470,111.04,0.0462,9.4420,1.9926,0.1332,-0.2198,0.4839,rough,14.0,1,2.163
3480,111.36,0.2872,9.5612,2.0470,0.1493,-0.1678,0.2880,rough,14.0,1,2.178
3490,111.68,0.5401,9.6251,2.0891,0.1651,-0.1539,0.1429,rough,14.0,1,2.169
3500,112.00,0.8002,9.6332,2.1273,0.1811,-0.1510,-0.0277,rough,14.0,1,2.135
3510,112.32,1.1112,9.5438,2.1642,0.2229,-0.1180,-0.2918,rough,14.0,1,2.036
3520,112.64,1.3673,9.4312,2.1993,0.2322,-0.1580,-0.4364,rough,14.0,1,1.953
3530,112.96,1.6615,9.2148,2.2372,0.2656,-0.0735,-0.6861,rough,14.0,1,1.822
3540,113.28,1.8787,8.9591,2.2452,0.2831,-0.0023,-0.8960,rough,14.0,1,1.685
3550,113.60,2.0824,8.6092,2.2123,0.2274,0.1149,-1.0928,rough,14.0,1,1.530
3560,113.92,2.2027,8.2415,2.1365,0.1919,0.2892,-1.3578,rough,14.0,1,1.392
3570,114.24,2.2405,7.8910,2.0257,0.1055,0.2991,-1.6740,rough,14.0,1,1.280
3580,114.56,2.1674,7.4498,1.8171,0.1202,0.5757,-1.7881,rough,14.0,1,1.150
3590,114.88,2.0632,7.0516,1.5350,0.0760,0.6488,-1.8742,rough,14.0,1,1.140
3600,115.20,1.9495,6.6751,1.2345,0.0014,0.6763,-1.9989,rough,14.0,1,1.250
3610,115.52,1.8381,6.3160,0.9463,0.0713,0.6581,-1.8819,rough,14.0,1,1.448
3620,115.84,1.7361,5.9754,0.7070,-0.1479,0.6085,-2.1546,rough,14.0,1,1.694
3630,116.16,1.5441,5.6948,0.5171,-0.1573,0.4727,-2.3355,rough,14.0,1,1.889
3640,116.48,1.3348,5.4705,0.3895,-0.2736,0.2485,-2.6986,rough,14.0,1,2.064
3650,116.80,1.1154,5.3435,0.3237,-0.3015,0.0157,-3.0721,rough,14.0,1,2.168
3660,117.12,1.1059,5.3193,0.3255,-0.3072,0.0490,-3.0658,rough,14.0,1,2.192
3670,117.44,1.1053,5.3060,0.3219,-0.3055,0.0422,-3.0968,rough,14.0,1,2.205
3680,117.76,1.1049,5.3000,0.3202,-0.3043,0.0376,-3.1121,rough,14.0,1,2.211
3690,118.08,1.1049,5.2959,0.3189,-0.3032,0.0345,-3.1245,rough,14.0,1,2.216
3700,118.40,1.1050,5.2925,0.3180,-0.3025,0.0322,-3.1326,rough,14.0,1,2.219
3710,118.72,1.1049,5.2893,0.3170,-0.3018,0.0311,-3.1370,rough,14.0,1,2.222
3720,119.04,1.1047,5.2870,0.3164,-0.3015,0.0293,-3.1414,rough,14.0,1,2.224
3730,119.36,1.1044,5.2861,0.3160,-0.3015,0.0278,3.1346,rough,14.0,1,2.225
3740,119.68,1.1020,5.2879,0.3161,-0.3016,0.0267,3.1212,rough,14.0,1,2.223
3750,120.00,1.1008,5.2936,0.3174,-0.3032,0.0241,3.1011,rough,14.0,1,2.218
3760,120.32,1.1009,5.2957,0.3181,-0.3036,0.0261,3.1098,rough,14.0,1,2.216
3770,120.64,1.1012,5.2970,0.3185,-0.3039,0.0274,3.1154,rough,14.0,1,2.214
3780,120.96,1.1012,5.2984,0.3189,-0.3043,0.0279,3.1168,rough,14.0,1,2.213
3790,121.28,1.1013,5.2993,0.3192,-0.3046,0.0285,3.1190,rough,14.0,1,2.212
3800,121.60,1.1014,5.3002,0.3194,-0.3048,0.0289,3.1203,rough,14.0,1,2.211
3810,121.92,1.1015,5.3007,0.3196,-0.3049,0.0293,3.1221,rough,14.0,1,2.211
3820,122.24,1.1015,5.3011,0.3197,-0.3050,0.0295,3.1229,rough,14.0,1,2.210
3830,122.56,1.1015,5.3015,0.3198,-0.3051,0.0297,3.1234,rough,14.0,1,2.210
3840,122.88,1.1015,5.3018,0.3199,-0.3052,0.0298,3.1239,rough,14.0,1,2.210
3850,123.20,1.1016,5.3021,0.3200,-0.3053,0.0299,3.1242,rough,14.0,1,2.209
3860,123.52,1.1016,5.3023,0.3201,-0.3053,0.0300,3.1245,rough,14.0,1,2.209
3870,123.84,1.1016,5.3025,0.3201,-0.3054,0.0301,3.1247,rough,14.0,1,2.209
3880,124.16,1.1016,5.3026,0.3202,-0.3054,0.0301,3.1249,rough,14.0,1,2.209
3890,124.48,1.1016,5.3028,0.3202,-0.3055,0.0302,3.1250,rough,14.0,1,2.209
3900,124.80,1.1016,5.3029,0.3203,-0.3055,0.0302,3.1250,rough,14.0,1,2.208
3910,125.12,1.1016,5.3031,0.3203,-0.3056,0.0302,3.1251,rough,14.0,1,2.208
3920,125.44,1.1016,5.3032,0.3203,-0.3056,0.0303,3.1251,rough,14.0,1,2.208
3930,125.76,1.1016,5.3034,0.3204,-0.3057,0.0303,3.1251,rough,14.0,1,2.208
3940,126.08,1.1016,5.3035,0.3204,-0.3057,0.0303,3.1251,rough,14.0,1,2.208
3950,126.40,1.1016,5.3036,0.3205,-0.3057,0.0303,3.1252,rough,14.0,1,2.208
3960,126.72,1.1016,5.3038,0.3205,-0.3058,0.0303,3.1252,rough,14.0,1,2.208
3970,127.04,1.1016,5.3039,0.3205,-0.3058,0.0303,3.1252,rough,14.0,1,2.207
3980,127.36,1.1016,5.3040,0.3206,-0.3059,0.0303,3.1252,rough,14.0,1,2.207
3990,127.68,1.1016,5.3042,0.3206,-0.3059,0.0304,3.1252,rough,14.0,1,2.207
4000,128.00,1.1016,5.3043,0.3206,-0.3059,0.0304,3.1252,rough,14.0,1,2.207
4010,128.32,1.1016,5.3044,0.3207,-0.3060,0.0304,3.1252,rough,14.0,1,2.207
4020,128.64,1.1016,5.3045,0.3207,-0.3060,0.0304,3.1252,rough,14.0,1,2.207
4030,128.96,1.1016,5.3047,0.3208,-0.3061,0.0304,3.1252,rough,14.0,1,2.207
4040,129.28,1.1016,5.3048,0.3208,-0.3061,0.0304,3.1252,rough,14.0,1,2.207
4050,129.60,1.1016,5.3049,0.3208,-0.3061,0.0304,3.1253,rough,14.0,1,2.206
4060,129.92,1.1016,5.3050,0.3209,-0.3062,0.0304,3.1253,rough,14.0,1,2.206
4070,130.24,1.1016,5.3051,0.3209,-0.3062,0.0305,3.1253,rough,14.0,1,2.206
4080,130.56,1.1016,5.3053,0.3209,-0.3062,0.0305,3.1253,rough,14.0,1,2.206
4090,130.88,1.1017,5.3054,0.3210,-0.3063,0.0305,3.1253,rough,14.0,1,2.206
4100,131.20,1.1017,5.3055,0.3210,-0.3063,0.0305,3.1253,rough,14.0,1,2.206
4110,131.52,1.1017,5.3056,0.3210,-0.3063,0.0305,3.1253,rough,14.0,1,2.206
4120,131.84,1.1017,5.3057,0.3211,-0.3064,0.0305,3.1253,rough,14.0,1,2.206
4130,132.16,1.1017,5.3058,0.3211,-0.3064,0.0305,3.1253,rough,14.0,1,2.206
4140,132.48,1.1017,5.3059,0.3211,-0.3064,0.0305,3.1253,rough,14.0,1,2.205
4150,132.80,1.1017,5.3061,0.3212,-0.3065,0.0305,3.1253,rough,14.0,1,2.205
4160,133.12,1.1017,5.3062,0.3212,-0.3065,0.0306,3.1253,rough,14.0,1,2.205
4170,133.44,1.1017,5.3063,0.3212,-0.3065,0.0306,3.1253,rough,14.0,1,2.205
4180,133.76,1.1017,5.3064,0.3213,-0.3066,0.0306,3.1254,rough,14.0,1,2.205
4190,134.08,1.1017,5.3065,0.3213,-0.3066,0.0306,3.1254,rough,14.0,1,2.205
4200,134.40,1.1017,5.3066,0.3213,-0.3066,0.0306,3.1254,rough,14.0,1,2.205
4210,134.72,1.1017,5.3067,0.3213,-0.3067,0.0306,3.1254,rough,14.0,1,2.205
4220,135.04,1.1017,5.3068,0.3214,-0.3067,0.0306,3.1254,rough,14.0,1,2.205
4230,135.36,1.1017,5.3069,0.3214,-0.3067,0.0306,3.1254,rough,14.0,1,2.204
4240,135.68,1.1017,5.3070,0.3214,-0.3068,0.0306,3.1254,rough,14.0,1,2.204
4250,136.00,1.1017,5.3071,0.3215,-0.3068,0.0306,3.1254,rough,14.0,1,2.204
4260,136.32,1.1017,5.3072,0.3215,-0.3068,0.0307,3.1254,rough,14.0,1,2.204
4270,136.64,1.1017,5.3073,0.3215,-0.3069,0.0307,3.1254,rough,14.0,1,2.204
4280,136.96,1.1017,5.3074,0.3216,-0.3069,0.0307,3.1254,rough,14.0,1,2.204
4290,137.28,1.1017,5.3075,0.3216,-0.3069,0.0307,3.1254,rough,14.0,1,2.204
4300,137.60,1.1017,5.3076,0.3216,-0.3069,0.0307,3.1254,rough,14.0,1,2.204
4310,137.92,1.1017,5.3077,0.3216,-0.3070,0.0307,3.1254,rough,14.0,1,2.204
4320,138.24,1.1017,5.3078,0.3217,-0.3070,0.0307,3.1254,rough,14.0,1,2.204
4330,138.56,1.1017,5.3079,0.3217,-0.3070,0.0307,3.1255,rough,14.0,1,2.203
4340,138.88,1.1017,5.3080,0.3217,-0.3071,0.0307,3.1255,rough,14.0,1,2.203
4350,139.20,1.1017,5.3081,0.3217,-0.3071,0.0307,3.1255,rough,14.0,1,2.203
4360,139.52,1.1017,5.3082,0.3218,-0.3071,0.0308,3.1255,rough,14.0,1,2.203
4370,139.84,1.1017,5.3083,0.3218,-0.3071,0.0308,3.1255,rough,14.0,1,2.203
4380,140.16,1.1017,5.3084,0.3218,-0.3072,0.0308,3.1255,rough,14.0,1,2.203
4390,140.48,1.1017,5.3085,0.3219,-0.3072,0.0308,3.1255,rough,14.0,1,2.203
4400,140.80,1.1017,5.3086,0.3219,-0.3072,0.0308,3.1255,rough,14.0,1,2.203
4410,141.12,1.1017,5.3086,0.3219,-0.3073,0.0308,3.1255,rough,14.0,1,2.203
4420,141.44,1.1017,5.3087,0.3219,-0.3073,0.0308,3.1255,rough,14.0,1,2.203
4430,141.76,1.1017,5.3088,0.3220,-0.3073,0.0308,3.1255,rough,14.0,1,2.203
4440,142.08,1.1017,5.3089,0.3220,-0.3073,0.0308,3.1255,rough,14.0,1,2.202
4450,142.40,1.1017,5.3090,0.3220,-0.3074,0.0308,3.1255,rough,14.0,1,2.202
4460,142.72,1.1017,5.3091,0.3220,-0.3074,0.0308,3.1255,rough,14.0,1,2.202
4470,143.04,1.1017,5.3092,0.3221,-0.3074,0.0309,3.1255,rough,14.0,1,2.202
4480,143.36,1.1017,5.3092,0.3221,-0.3074,0.0309,3.1255,rough,14.0,1,2.202
4490,143.68,1.1017,5.3093,0.3221,-0.3075,0.0309,3.1255,rough,14.0,1,2.202
4500,144.00,1.1017,5.3094,0.3221,-0.3075,0.0309,3.1256,rough,14.0,1,2.202
4510,144.32,1.1017,5.3095,0.3222,-0.3075,0.0309,3.1256,rough,14.0,1,2.202
4520,144.64,1.1017,5.3096,0.3222,-0.3075,0.0309,3.1256,rough,14.0,1,2.202
4530,144.96,1.1017,5.3097,0.3222,-0.3076,0.0309,3.1256,rough,14.0,1,2.202
4540,145.28,1.1017,5.3097,0.3222,-0.3076,0.0309,3.1256,rough,14.0,1,2.202
4550,145.60,1.1017,5.3098,0.3222,-0.3076,0.0309,3.1256,rough,14.0,1,2.202
4560,145.92,1.1017,5.3099,0.3223,-0.3076,0.0309,3.1256,rough,14.0,1,2.201
4570,146.24,1.1017,5.3100,0.3223,-0.3077,0.0309,3.1256,rough,14.0,1,2.201
4580,146.56,1.1017,5.3101,0.3223,-0.3077,0.0309,3.1256,rough,14.0,1,2.201
4590,146.88,1.1017,5.3101,0.3223,-0.3077,0.0309,3.1256,rough,14.0,1,2.201
4600,147.20,1.1017,5.3102,0.3224,-0.3077,0.0310,3.1256,rough,14.0,1,2.201
4610,147.52,1.1018,5.3103,0.3224,-0.3077,0.0310,3.1256,rough,14.0,1,2.201
4620,147.84,1.1018,5.3104,0.3224,-0.3078,0.0310,3.1256,rough,14.0,1,2.201
4630,148.16,1.1018,5.3104,0.3224,-0.3078,0.0310,3.1256,rough,14.0,1,2.201
4640,148.48,1.1018,5.3105,0.3224,-0.3078,0.0310,3.1256,rough,14.0,1,2.201
4650,148.80,1.1018,5.3106,0.3225,-0.3078,0.0310,3.1256,rough,14.0,1,2.201
4660,149.12,1.1018,5.3106,0.3225,-0.3079,0.0310,3.1256,rough,14.0,1,2.201
4670,149.44,1.1018,5.3107,0.3225,-0.3079,0.0310,3.1256,rough,14.0,1,2.201
4680,149.76,1.1018,5.3108,0.3225,-0.3079,0.0310,3.1256,rough,14.0,1,2.201
4690,150.08,1.1018,5.3109,0.3225,-0.3079,0.0310,3.1256,rough,14.0,1,2.200
4700,150.40,1.1018,5.3109,0.3226,-0.3079,0.0310,3.1256,rough,14.0,1,2.200
4710,150.72,1.1018,5.3110,0.3226,-0.3080,0.0310,3.1257,rough,14.0,1,2.200
4720,151.04,1.1018,5.3111,0.3226,-0.3080,0.0310,3.1257,rough,14.0,1,2.200
4730,151.36,1.1018,5.3111,0.3226,-0.3080,0.0311,3.1257,rough,14.0,1,2.200
4740,151.68,1.1018,5.3112,0.3226,-0.3080,0.0311,3.1257,rough,14.0,1,2.200
4750,152.00,1.1018,5.3113,0.3227,-0.3080,0.0311,3.1257,rough,14.0,1,2.200
4760,152.32,1.1018,5.3113,0.3227,-0.3081,0.0311,3.1257,rough,14.0,1,2.200
4770,152.64,1.1018,5.3114,0.3227,-0.3081,0.0311,3.1257,rough,14.0,1,2.200
4780,152.96,1.1018,5.3115,0.3227,-0.3081,0.0311,3.1257,rough,14.0,1,2.200
4790,153.28,1.1018,5.3115,0.3227,-0.3081,0.0311,3.1257,rough,14.0,1,2.200
4800,153.60,1.1018,5.3116,0.3228,-0.3081,0.0311,3.1257,rough,14.0,1,2.200
4810,153.92,1.1018,5.3117,0.3228,-0.3082,0.0311,3.1257,rough,14.0,1,2.200
4820,154.24,1.1018,5.3117,0.3228,-0.3082,0.0311,3.1257,rough,14.0,1,2.200
4830,154.56,1.1018,5.3118,0.3228,-0.3082,0.0311,3.1257,rough,14.0,1,2.200
4840,154.88,1.1018,5.3119,0.3228,-0.3082,0.0311,3.1257,rough,14.0,1,2.200
4850,155.20,1.1018,5.3119,0.3228,-0.3082,0.0311,3.1257,rough,14.0,1,2.199
4860,155.52,1.1018,5.3120,0.3229,-0.3083,0.0311,3.1257,rough,14.0,1,2.199
4870,155.84,1.1018,5.3120,0.3229,-0.3083,0.0311,3.1257,rough,14.0,1,2.199
4880,156.16,1.1018,5.3121,0.3229,-0.3083,0.0312,3.1257,rough,14.0,1,2.199
4890,156.48,1.1018,5.3122,0.3229,-0.3083,0.0312,3.1257,rough,14.0,1,2.199
4900,156.80,1.1018,5.3122,0.3229,-0.3083,0.0312,3.1257,rough,14.0,1,2.199
4910,157.12,1.1018,5.3123,0.3230,-0.3083,0.0312,3.1257,rough,14.0,1,2.199
4920,157.44,1.1018,5.3123,0.3230,-0.3084,0.0312,3.1257,rough,14.0,1,2.199
4930,157.76,1.1018,5.3124,0.3230,-0.3084,0.0312,3.1257,rough,14.0,1,2.199
4940,158.08,1.1018,5.3124,0.3230,-0.3084,0.0312,3.1257,rough,14.0,1,2.199
4950,158.40,1.1018,5.3125,0.3230,-0.3084,0.0312,3.1257,rough,14.0,1,2.199
4960,158.72,1.1018,5.3126,0.3230,-0.3084,0.0312,3.1257,rough,14.0,1,2.199
4970,159.04,1.1018,5.3126,0.3231,-0.3084,0.0312,3.1258,rough,14.0,1,2.199
4980,159.36,1.1018,5.3127,0.3231,-0.3085,0.0312,3.1258,rough,14.0,1,2.199
4990,159.68,1.1018,5.3127,0.3231,-0.3085,0.0312,3.1258,rough,14.0,1,2.199
5000,160.00,1.1018,5.3128,0.3231,-0.3085,0.0312,3.1258,rough,14.0,1,2.199
5010,160.32,1.1018,5.3128,0.3231,-0.3085,0.0312,3.1258,rough,14.0,1,2.199
5020,160.64,1.1018,5.3129,0.3231,-0.3085,0.0312,3.1258,rough,14.0,1,2.198
5030,160.96,1.1018,5.3129,0.3231,-0.3085,0.0312,3.1258,rough,14.0,1,2.198
5040,161.28,1.1018,5.3130,0.3232,-0.3086,0.0312,3.1258,rough,14.0,1,2.198
5050,161.60,1.1018,5.3130,0.3232,-0.3086,0.0312,3.1258,rough,14.0,1,2.198
5060,161.92,1.1018,5.3131,0.3232,-0.3086,0.0313,3.1258,rough,14.0,1,2.198
5070,162.24,1.1018,5.3132,0.3232,-0.3086,0.0313,3.1258,rough,14.0,1,2.198
5080,162.56,1.1018,5.3132,0.3232,-0.3086,0.0313,3.1258,rough,14.0,1,2.198
5090,162.88,1.1018,5.3133,0.3232,-0.3086,0.0313,3.1258,rough,14.0,1,2.198
5100,163.20,1.1018,5.3133,0.3232,-0.3086,0.0313,3.1258,rough,14.0,1,2.198
5110,163.52,1.1018,5.3134,0.3233,-0.3087,0.0313,3.1258,rough,14.0,1,2.198
5120,163.84,1.1018,5.3134,0.3233,-0.3087,0.0313,3.1258,rough,14.0,1,2.198
5130,164.16,1.1018,5.3135,0.3233,-0.3087,0.0313,3.1258,rough,14.0,1,2.198
5140,164.48,1.1018,5.3135,0.3233,-0.3087,0.0313,3.1258,rough,14.0,1,2.198
5150,164.80,1.1018,5.3135,0.3233,-0.3087,0.0313,3.1258,rough,14.0,1,2.198
5160,165.12,1.1018,5.3136,0.3233,-0.3087,0.0313,3.1258,rough,14.0,1,2.198
5170,165.44,1.1018,5.3136,0.3233,-0.3087,0.0313,3.1258,rough,14.0,1,2.198
5180,165.76,1.1018,5.3137,0.3234,-0.3088,0.0313,3.1258,rough,14.0,1,2.198
5190,166.08,1.1018,5.3137,0.3234,-0.3088,0.0313,3.1258,rough,14.0,1,2.198
5200,166.40,1.1018,5.3138,0.3234,-0.3088,0.0313,3.1258,rough,14.0,1,2.198
5210,166.72,1.1018,5.3138,0.3234,-0.3088,0.0313,3.1258,rough,14.0,1,2.198
5220,167.04,1.1018,5.3139,0.3234,-0.3088,0.0313,3.1258,rough,14.0,1,2.197
5230,167.36,1.1018,5.3139,0.3234,-0.3088,0.0313,3.1258,rough,14.0,1,2.197
5240,167.68,1.1018,5.3140,0.3234,-0.3088,0.0313,3.1258,rough,14.0,1,2.197
5250,168.00,1.1018,5.3140,0.3235,-0.3089,0.0313,3.1258,rough,14.0,1,2.197
5260,168.32,1.1018,5.3141,0.3235,-0.3089,0.0314,3.1258,rough,14.0,1,2.197
5270,168.64,1.1018,5.3141,0.3235,-0.3089,0.0314,3.1258,rough,14.0,1,2.197
5280,168.96,1.1018,5.3141,0.3235,-0.3089,0.0314,3.1258,rough,14.0,1,2.197
5290,169.28,1.1018,5.3142,0.3235,-0.3089,0.0314,3.1259,rough,14.0,1,2.197
5300,169.60,1.1018,5.3142,0.3235,-0.3089,0.0314,3.1259,rough,14.0,1,2.197
5310,169.92,1.1018,5.3143,0.3235,-0.3089,0.0314,3.1259,rough,14.0,1,2.197
5320,170.24,1.1018,5.3143,0.3235,-0.3089,0.0314,3.1259,rough,14.0,1,2.197
5330,170.56,1.1018,5.3143,0.3235,-0.3090,0.0314,3.1259,rough,14.0,1,2.197
5340,170.88,1.1018,5.3144,0.3236,-0.3090,0.0314,3.1259,rough,14.0,1,2.197
5350,171.20,1.1018,5.3144,0.3236,-0.3090,0.0314,3.1259,rough,14.0,1,2.197
5360,171.52,1.1018,5.3145,0.3236,-0.3090,0.0314,3.1259,rough,14.0,1,2.197
5370,171.84,1.1018,5.3145,0.3236,-0.3090,0.0314,3.1259,rough,14.0,1,2.197
5380,172.16,1.1018,5.3145,0.3236,-0.3090,0.0314,3.1259,rough,14.0,1,2.197
5390,172.48,1.1018,5.3146,0.3236,-0.3090,0.0314,3.1259,rough,14.0,1,2.197
5400,172.80,1.1018,5.3146,0.3236,-0.3090,0.0314,3.1259,rough,14.0,1,2.197
5410,173.12,1.1018,5.3147,0.3236,-0.3091,0.0314,3.1259,rough,14.0,1,2.197
5420,173.44,1.1018,5.3147,0.3237,-0.3091,0.0314,3.1259,rough,14.0,1,2.197
5430,173.76,1.1018,5.3147,0.3237,-0.3091,0.0314,3.1259,rough,14.0,1,2.197
5440,174.08,1.1018,5.3148,0.3237,-0.3091,0.0314,3.1259,rough,14.0,1,2.197
5450,174.40,1.1018,5.3148,0.3237,-0.3091,0.0314,3.1259,rough,14.0,1,2.197
5460,174.72,1.1018,5.3149,0.3237,-0.3091,0.0314,3.1259,rough,14.0,1,2.197
5470,175.04,1.1018,5.3149,0.3237,-0.3091,0.0314,3.1259,rough,14.0,1,2.196
5480,175.36,1.1018,5.3149,0.3237,-0.3091,0.0314,3.1259,rough,14.0,1,2.196
5490,175.68,1.1018,5.3150,0.3237,-0.3091,0.0315,3.1259,rough,14.0,1,2.196
5500,176.00,1.1018,5.3150,0.3237,-0.3092,0.0315,3.1259,rough,14.0,1,2.196
5510,176.32,1.1018,5.3150,0.3237,-0.3092,0.0315,3.1259,rough,14.0,1,2.196
5520,176.64,1.1018,5.3151,0.3238,-0.3092,0.0315,3.1259,rough,14.0,1,2.196
5530,176.96,1.1018,5.3151,0.3238,-0.3092,0.0315,3.1259,rough,14.0,1,2.196
5540,177.28,1.1018,5.3152,0.3238,-0.3092,0.0315,3.1259,rough,14.0,1,2.196
5550,177.60,1.1018,5.3152,0.3238,-0.3092,0.0315,3.1259,rough,14.0,1,2.196
5560,177.92,1.1018,5.3152,0.3238,-0.3092,0.0315,3.1259,rough,14.0,1,2.196
5570,178.24,1.1018,5.3153,0.3238,-0.3092,0.0315,3.1259,rough,14.0,1,2.196
5580,178.56,1.1018,5.3153,0.3238,-0.3092,0.0315,3.1259,rough,14.0,1,2.196
5590,178.88,1.1019,5.3154,0.3238,-0.3092,0.0315,3.1259,rough,14.0,1,2.196
5600,179.20,1.1019,5.3154,0.3238,-0.3093,0.0315,3.1259,rough,14.0,1,2.196
5610,179.52,1.1019,5.3154,0.3239,-0.3093,0.0315,3.1259,rough,14.0,1,2.196
5620,179.84,1.1019,5.3155,0.3239,-0.3093,0.0315,3.1259,rough,14.0,1,2.196
5630,180.16,1.1019,5.3155,0.3239,-0.3093,0.0315,3.1259,rough,14.0,1,2.196
5640,180.48,1.1019,5.3155,0.3239,-0.3093,0.0315,3.1259,rough,14.0,1,2.196
5650,180.80,1.1019,5.3156,0.3239,-0.3093,0.0316,3.1259,rough,14.0,1,2.196
5660,181.12,1.1019,5.3156,0.3239,-0.3093,0.0316,3.1259,rough,14.0,1,2.196
5670,181.44,1.1019,5.3156,0.3239,-0.3093,0.0316,3.1259,rough,14.0,1,2.196
5680,181.76,1.1019,5.3157,0.3239,-0.3093,0.0316,3.1259,rough,14.0,1,2.196
5690,182.08,1.1019,5.3157,0.3239,-0.3093,0.0316,3.1259,rough,14.0,1,2.196
5700,182.40,1.1019,5.3157,0.3240,-0.3094,0.0316,3.1259,rough,14.0,1,2.196
5710,182.72,1.1020,5.3158,0.3240,-0.3094,0.0316,3.1259,rough,14.0,1,2.196
5720,183.04,1.1020,5.3158,0.3240,-0.3094,0.0316,3.1259,rough,14.0,1,2.196
5730,183.36,1.1020,5.3159,0.3240,-0.3094,0.0316,3.1259,rough,14.0,1,2.196
5740,183.68,1.1020,5.3159,0.3240,-0.3094,0.0316,3.1259,rough,14.0,1,2.195
5750,184.00,1.1020,5.3159,0.3240,-0.3094,0.0316,3.1259,rough,14.0,1,2.195
5760,184.32,1.1020,5.3160,0.3240,-0.3094,0.0316,3.1259,rough,14.0,1,2.195
5770,184.64,1.1020,5.3160,0.3240,-0.3094,0.0316,3.1259,rough,14.0,1,2.195
5780,184.96,1.1020,5.3160,0.3240,-0.3094,0.0316,3.1259,rough,14.0,1,2.195
5790,185.28,1.1020,5.3161,0.3240,-0.3094,0.0316,3.1259,rough,14.0,1,2.195
5800,185.60,1.1020,5.3161,0.3240,-0.3094,0.0317,3.1259,rough,14.0,1,2.195
5810,185.92,1.1020,5.3161,0.3241,-0.3095,0.0317,3.1259,rough,14.0,1,2.195
5820,186.24,1.1020,5.3161,0.3241,-0.3095,0.0317,3.1259,rough,14.0,1,2.195
5830,186.56,1.1020,5.3162,0.3241,-0.3095,0.0317,3.1259,rough,14.0,1,2.195
5840,186.88,1.1021,5.3162,0.3241,-0.3095,0.0317,3.1259,rough,14.0,1,2.195
5850,187.20,1.1021,5.3162,0.3241,-0.3095,0.0317,3.1259,rough,14.0,1,2.195
5860,187.52,1.1021,5.3163,0.3241,-0.3095,0.0317,3.1259,rough,14.0,1,2.195
5870,187.84,1.1021,5.3163,0.3241,-0.3095,0.0317,3.1259,rough,14.0,1,2.195
5880,188.16,1.1021,5.3163,0.3241,-0.3095,0.0317,3.1259,rough,14.0,1,2.195
5890,188.48,1.1021,5.3164,0.3241,-0.3095,0.0317,3.1259,rough,14.0,1,2.195
5900,188.80,1.1021,5.3164,0.3241,-0.3095,0.0317,3.1259,rough,14.0,1,2.195
5910,189.12,1.1021,5.3164,0.3241,-0.3095,0.0317,3.1259,rough,14.0,1,2.195
5920,189.44,1.1021,5.3165,0.3242,-0.3095,0.0317,3.1259,rough,14.0,1,2.195
5930,189.76,1.1021,5.3165,0.3242,-0.3096,0.0317,3.1259,rough,14.0,1,2.195
5940,190.08,1.1021,5.3165,0.3242,-0.3096,0.0317,3.1260,rough,14.0,1,2.195
5950,190.40,1.1021,5.3165,0.3242,-0.3096,0.0317,3.1260,rough,14.0,1,2.195
5960,190.72,1.1021,5.3166,0.3242,-0.3096,0.0317,3.1260,rough,14.0,1,2.195
5970,191.04,1.1021,5.3166,0.3242,-0.3096,0.0317,3.1260,rough,14.0,1,2.195
5980,191.36,1.1022,5.3166,0.3242,-0.3096,0.0317,3.1260,rough,14.0,1,2.195
5990,191.68,1.1022,5.3167,0.3242,-0.3096,0.0318,3.1260,rough,14.0,1,2.195
6000,192.00,1.1022,5.3167,0.3242,-0.3096,0.0318,3.1260,rough,14.0,1,2.195
6010,192.32,1.1022,5.3167,0.3242,-0.3096,0.0318,3.1260,rough,14.0,1,2.195
6020,192.64,1.1022,5.3167,0.3242,-0.3096,0.0318,3.1260,rough,14.0,1,2.195
6030,192.96,1.1022,5.3168,0.3242,-0.3096,0.0318,3.1260,rough,14.0,1,2.195
6040,193.28,1.1022,5.3168,0.3243,-0.3096,0.0318,3.1260,rough,14.0,1,2.195
6050,193.60,1.1022,5.3168,0.3243,-0.3096,0.0318,3.1260,rough,14.0,1,2.195
6060,193.92,1.1022,5.3168,0.3243,-0.3097,0.0318,3.1260,rough,14.0,1,2.195
6070,194.24,1.1022,5.3169,0.3243,-0.3097,0.0318,3.1260,rough,14.0,1,2.195
6080,194.56,1.1022,5.3169,0.3243,-0.3097,0.0318,3.1260,rough,14.0,1,2.194
6090,194.88,1.1022,5.3169,0.3243,-0.3097,0.0318,3.1260,rough,14.0,1,2.194
6100,195.20,1.1022,5.3169,0.3243,-0.3097,0.0318,3.1260,rough,14.0,1,2.194
6110,195.52,1.1022,5.3170,0.3243,-0.3097,0.0318,3.1260,rough,14.0,1,2.194
6120,195.84,1.1022,5.3170,0.3243,-0.3097,0.0318,3.1260,rough,14.0,1,2.194
6130,196.16,1.1022,5.3170,0.3243,-0.3097,0.0318,3.1260,rough,14.0,1,2.194
6140,196.48,1.1023,5.3171,0.3243,-0.3097,0.0318,3.1260,rough,14.0,1,2.194
6150,196.80,1.1023,5.3171,0.3243,-0.3097,0.0318,3.1260,rough,14.0,1,2.194
6160,197.12,1.1023,5.3171,0.3243,-0.3097,0.0318,3.1260,rough,14.0,1,2.194
6170,197.44,1.1023,5.3171,0.3244,-0.3097,0.0318,3.1260,rough,14.0,1,2.194
6180,197.76,1.1020,5.3172,0.3244,-0.3097,0.0318,3.1259,rough,14.0,1,2.194
6190,198.08,1.1020,5.3172,0.3244,-0.3098,0.0318,3.1259,rough,14.0,1,2.194
6200,198.40,1.1019,5.3173,0.3244,-0.3098,0.0318,3.1259,rough,14.0,1,2.194
6210,198.72,1.1019,5.3173,0.3244,-0.3098,0.0318,3.1259,rough,14.0,1,2.194
6220,199.04,1.1019,5.3173,0.3244,-0.3098,0.0318,3.1259,rough,14.0,1,2.194
6230,199.36,1.1019,5.3174,0.3244,-0.3098,0.0318,3.1259,rough,14.0,1,2.194
6240,199.68,1.1019,5.3174,0.3244,-0.3098,0.0318,3.1259,rough,14.0,1,2.194
6250,200.00,1.1019,5.3174,0.3244,-0.3098,0.0318,3.1259,rough,14.0,1,2.194
6260,200.32,1.1019,5.3175,0.3244,-0.3098,0.0318,3.1259,rough,14.0,1,2.194
6270,200.64,1.1019,5.3175,0.3244,-0.3098,0.0318,3.1259,rough,14.0,1,2.194
6280,200.96,1.1019,5.3176,0.3244,-0.3098,0.0319,3.1259,rough,14.0,1,2.194
6290,201.28,1.1019,5.3176,0.3245,-0.3099,0.0319,3.1259,rough,14.0,1,2.194
6300,201.60,1.1019,5.3176,0.3245,-0.3099,0.0319,3.1259,rough,14.0,1,2.194
6310,201.92,1.1019,5.3177,0.3245,-0.3099,0.0319,3.1259,rough,14.0,1,2.194
6320,202.24,1.1019,5.3177,0.3245,-0.3099,0.0319,3.1259,rough,14.0,1,2.194
6330,202.56,1.1019,5.3177,0.3245,-0.3099,0.0319,3.1259,rough,14.0,1,2.194
6340,202.88,1.1019,5.3178,0.3245,-0.3099,0.0319,3.1259,rough,14.0,1,2.194
6350,203.20,1.1019,5.3178,0.3245,-0.3099,0.0319,3.1259,rough,14.0,1,2.194
6360,203.52,1.1019,5.3178,0.3245,-0.3099,0.0319,3.1259,rough,14.0,1,2.194
6370,203.84,1.1019,5.3179,0.3245,-0.3099,0.0319,3.1259,rough,14.0,1,2.193
6380,204.16,1.1019,5.3179,0.3245,-0.3099,0.0319,3.1259,rough,14.0,1,2.193
6390,204.48,1.1019,5.3180,0.3246,-0.3099,0.0319,3.1259,rough,14.0,1,2.193
6400,204.80,1.1019,5.3180,0.3246,-0.3100,0.0319,3.1259,rough,14.0,1,2.193
6410,205.12,1.1019,5.3180,0.3246,-0.3100,0.0319,3.1259,rough,14.0,1,2.193
6420,205.44,1.1019,5.3181,0.3246,-0.3100,0.0319,3.1258,rough,14.0,1,2.193
6430,205.76,1.1019,5.3181,0.3246,-0.3100,0.0320,3.1258,rough,14.0,1,2.193
6440,206.08,1.1019,5.3181,0.3246,-0.3100,0.0320,3.1258,rough,14.0,1,2.193
6450,206.40,1.1019,5.3182,0.3246,-0.3100,0.0320,3.1258,rough,14.0,1,2.193
6460,206.72,1.1019,5.3182,0.3246,-0.3100,0.0320,3.1258,rough,14.0,1,2.193
6470,207.04,1.1019,5.3182,0.3246,-0.3100,0.0320,3.1258,rough,14.0,1,2.193
6480,207.36,1.1019,5.3183,0.3246,-0.3100,0.0320,3.1258,rough,14.0,1,2.193
6490,207.68,1.1019,5.3183,0.3247,-0.3100,0.0320,3.1258,rough,14.0,1,2.193
6500,208.00,1.1019,5.3184,0.3247,-0.3101,0.0320,3.1258,rough,14.0,1,2.193
6510,208.32,1.1019,5.3184,0.3247,-0.3101,0.0320,3.1258,rough,14.0,1,2.193
6520,208.64,1.1022,5.3184,0.3247,-0.3101,0.0321,3.1259,rough,14.0,1,2.193
6530,208.96,1.1024,5.3185,0.3247,-0.3101,0.0321,3.1259,rough,14.0,1,2.193
6540,209.28,1.1025,5.3185,0.3247,-0.3101,0.0322,3.1260,rough,14.0,1,2.193
6550,209.60,1.1025,5.3185,0.3247,-0.3101,0.0322,3.1260,rough,14.0,1,2.193
6560,209.92,1.1025,5.3185,0.3247,-0.3101,0.0322,3.1260,rough,14.0,1,2.193
6570,210.24,1.1025,5.3185,0.3248,-0.3101,0.0322,3.1260,rough,14.0,1,2.193
6580,210.56,1.1025,5.3186,0.3248,-0.3101,0.0322,3.1260,rough,14.0,1,2.193
6590,210.88,1.1025,5.3186,0.3248,-0.3101,0.0321,3.1260,rough,14.0,1,2.193
6600,211.20,1.1025,5.3186,0.3248,-0.3101,0.0321,3.1260,rough,14.0,1,2.193
6610,211.52,1.1025,5.3186,0.3248,-0.3101,0.0321,3.1260,rough,14.0,1,2.193
6620,211.84,1.1025,5.3186,0.3248,-0.3101,0.0321,3.1260,rough,14.0,1,2.193
6630,212.16,1.1025,5.3186,0.3248,-0.3101,0.0321,3.1260,rough,14.0,1,2.193
6640,212.48,1.1025,5.3187,0.3248,-0.3101,0.0321,3.1260,rough,14.0,1,2.193
6650,212.80,1.1025,5.3187,0.3248,-0.3101,0.0321,3.1260,rough,14.0,1,2.193
6660,213.12,1.1025,5.3187,0.3248,-0.3101,0.0321,3.1260,rough,14.0,1,2.193
6670,213.44,1.1025,5.3187,0.3248,-0.3101,0.0321,3.1260,rough,14.0,1,2.193
6680,213.76,1.1025,5.3187,0.3248,-0.3102,0.0321,3.1260,rough,14.0,1,2.193
6690,214.08,1.1025,5.3187,0.3248,-0.3102,0.0321,3.1260,rough,14.0,1,2.193
6700,214.40,1.1025,5.3188,0.3248,-0.3102,0.0321,3.1260,rough,14.0,1,2.193
6710,214.72,1.1025,5.3188,0.3248,-0.3102,0.0321,3.1260,rough,14.0,1,2.193
6720,215.04,1.1025,5.3188,0.3248,-0.3102,0.0321,3.1260,rough,14.0,1,2.193
6730,215.36,1.1026,5.3188,0.3248,-0.3102,0.0321,3.1260,rough,14.0,1,2.193
6740,215.68,1.1026,5.3188,0.3248,-0.3102,0.0321,3.1260,rough,14.0,1,2.193
6750,216.00,1.1026,5.3188,0.3248,-0.3102,0.0321,3.1260,rough,14.0,1,2.193
6760,216.32,1.1026,5.3188,0.3249,-0.3102,0.0322,3.1260,rough,14.0,1,2.193
6770,216.64,1.1026,5.3189,0.3249,-0.3102,0.0322,3.1260,rough,14.0,1,2.193
6780,216.96,1.1026,5.3189,0.3249,-0.3102,0.0322,3.1260,rough,14.0,1,2.193
6790,217.28,1.1026,5.3189,0.3249,-0.3102,0.0322,3.1260,rough,14.0,1,2.193
6800,217.60,1.1026,5.3189,0.3249,-0.3102,0.0322,3.1261,rough,14.0,1,2.192
6810,217.92,1.1026,5.3189,0.3249,-0.3102,0.0322,3.1261,rough,14.0,1,2.192
6820,218.24,1.1026,5.3189,0.3249,-0.3102,0.0322,3.1261,rough,14.0,1,2.192
6830,218.56,1.1026,5.3189,0.3249,-0.3102,0.0322,3.1261,rough,14.0,1,2.192
6840,218.88,1.1026,5.3190,0.3249,-0.3102,0.0322,3.1261,rough,14.0,1,2.192
6850,219.20,1.1026,5.3190,0.3249,-0.3102,0.0322,3.1261,rough,14.0,1,2.192
6860,219.52,1.1026,5.3190,0.3249,-0.3102,0.0322,3.1261,rough,14.0,1,2.192
6870,219.84,1.1026,5.3190,0.3249,-0.3102,0.0322,3.1261,rough,14.0,1,2.192
6880,220.16,1.1026,5.3190,0.3249,-0.3102,0.0322,3.1261,rough,14.0,1,2.192
6890,220.48,1.1026,5.3190,0.3249,-0.3102,0.0322,3.1261,rough,14.0,1,2.192
6900,220.80,1.1026,5.3190,0.3249,-0.3103,0.0322,3.1261,rough,14.0,1,2.192
6910,221.12,1.1026,5.3191,0.3249,-0.3103,0.0322,3.1261,rough,14.0,1,2.192
6920,221.44,1.1026,5.3191,0.3249,-0.3103,0.0322,3.1261,rough,14.0,1,2.192
6930,221.76,1.1026,5.3191,0.3249,-0.3103,0.0322,3.1261,rough,14.0,1,2.192
6940,222.08,1.1026,5.3191,0.3249,-0.3103,0.0322,3.1261,rough,14.0,1,2.192
6950,222.40,1.1026,5.3191,0.3249,-0.3103,0.0322,3.1261,rough,14.0,1,2.192
6960,222.72,1.1026,5.3191,0.3249,-0.3103,0.0322,3.1261,rough,14.0,1,2.192
6970,223.04,1.1026,5.3191,0.3249,-0.3103,0.0322,3.1261,rough,14.0,1,2.192
6980,223.36,1.1026,5.3192,0.3249,-0.3103,0.0322,3.1261,rough,14.0,1,2.192
6990,223.68,1.1026,5.3192,0.3249,-0.3103,0.0322,3.1261,rough,14.0,1,2.192
7000,224.00,1.1026,5.3192,0.3250,-0.3103,0.0322,3.1261,rough,14.0,1,2.192
7010,224.32,1.1026,5.3192,0.3250,-0.3103,0.0322,3.1261,rough,14.0,1,2.192
7020,224.64,1.1027,5.3192,0.3250,-0.3103,0.0322,3.1261,rough,14.0,1,2.192
7030,224.96,1.1027,5.3192,0.3250,-0.3103,0.0322,3.1261,rough,14.0,1,2.192
7040,225.28,1.1027,5.3192,0.3250,-0.3103,0.0322,3.1261,rough,14.0,1,2.192
7050,225.60,1.1027,5.3192,0.3250,-0.3103,0.0322,3.1261,rough,14.0,1,2.192
7060,225.92,1.1027,5.3193,0.3250,-0.3103,0.0322,3.1261,rough,14.0,1,2.192
7070,226.24,1.1027,5.3193,0.3250,-0.3103,0.0322,3.1261,rough,14.0,1,2.192
7080,226.56,1.1027,5.3193,0.3250,-0.3103,0.0322,3.1261,rough,14.0,1,2.192
7090,226.88,1.1027,5.3193,0.3250,-0.3103,0.0322,3.1261,rough,14.0,1,2.192
7100,227.20,1.1027,5.3193,0.3250,-0.3103,0.0322,3.1261,rough,14.0,1,2.192
7110,227.52,1.1027,5.3193,0.3250,-0.3103,0.0322,3.1261,rough,14.0,1,2.192
7120,227.84,1.1027,5.3193,0.3250,-0.3103,0.0322,3.1261,rough,14.0,1,2.192
7130,228.16,1.1027,5.3193,0.3250,-0.3103,0.0322,3.1261,rough,14.0,1,2.192
7140,228.48,1.1027,5.3193,0.3250,-0.3103,0.0322,3.1261,rough,14.0,1,2.192
7150,228.80,1.1027,5.3194,0.3250,-0.3103,0.0322,3.1261,rough,14.0,1,2.192
7160,229.12,1.1027,5.3194,0.3250,-0.3103,0.0322,3.1261,rough,14.0,1,2.192
7170,229.44,1.1027,5.3194,0.3250,-0.3103,0.0322,3.1261,rough,14.0,1,2.192
7180,229.76,1.1027,5.3194,0.3250,-0.3104,0.0322,3.1261,rough,14.0,1,2.192
7190,230.08,1.1027,5.3194,0.3250,-0.3104,0.0322,3.1261,rough,14.0,1,2.192
7200,230.40,1.1027,5.3194,0.3250,-0.3104,0.0322,3.1261,rough,14.0,1,2.192
7210,230.72,1.1027,5.3194,0.3250,-0.3104,0.0322,3.1261,rough,14.0,1,2.192
7220,231.04,1.1027,5.3194,0.3250,-0.3104,0.0322,3.1261,rough,14.0,1,2.192
7230,231.36,1.1027,5.3194,0.3250,-0.3104,0.0322,3.1261,rough,14.0,1,2.192
7240,231.68,1.1027,5.3195,0.3250,-0.3104,0.0322,3.1261,rough,14.0,1,2.192
7250,232.00,1.1027,5.3195,0.3250,-0.3104,0.0322,3.1261,rough,14.0,1,2.192
7260,232.32,1.1027,5.3195,0.3250,-0.3104,0.0322,3.1261,rough,14.0,1,2.192
7270,232.64,1.1027,5.3195,0.3250,-0.3104,0.0323,3.1261,rough,14.0,1,2.192
7280,232.96,1.1027,5.3195,0.3250,-0.3104,0.0323,3.1261,rough,14.0,1,2.192
7290,233.28,1.1027,5.3195,0.3251,-0.3104,0.0323,3.1261,rough,14.0,1,2.192
7300,233.60,1.1027,5.3195,0.3251,-0.3104,0.0323,3.1261,rough,14.0,1,2.192
7310,233.92,1.1027,5.3195,0.3251,-0.3104,0.0323,3.1261,rough,14.0,1,2.192
7320,234.24,1.1027,5.3195,0.3251,-0.3104,0.0323,3.1261,rough,14.0,1,2.192
7330,234.56,1.1027,5.3196,0.3251,-0.3104,0.0323,3.1261,rough,14.0,1,2.192
7340,234.88,1.1027,5.3196,0.3251,-0.3104,0.0323,3.1261,rough,14.0,1,2.192
7350,235.20,1.1027,5.3196,0.3251,-0.3104,0.0323,3.1261,rough,14.0,1,2.192
7360,235.52,1.1027,5.3196,0.3251,-0.3104,0.0323,3.1261,rough,14.0,1,2.192
7370,235.84,1.1027,5.3196,0.3251,-0.3104,0.0323,3.1261,rough,14.0,1,2.192
7380,236.16,1.1027,5.3196,0.3251,-0.3104,0.0323,3.1261,rough,14.0,1,2.192
7390,236.48,1.1027,5.3196,0.3251,-0.3104,0.0323,3.1261,rough,14.0,1,2.192
7400,236.80,1.1028,5.3196,0.3251,-0.3104,0.0323,3.1261,rough,14.0,1,2.192
7410,237.12,1.1028,5.3196,0.3251,-0.3104,0.0323,3.1261,rough,14.0,1,2.192
7420,237.44,1.1028,5.3196,0.3251,-0.3104,0.0323,3.1261,rough,14.0,1,2.192
7430,237.76,1.1028,5.3197,0.3251,-0.3104,0.0323,3.1261,rough,14.0,1,2.192
7440,238.08,1.1028,5.3197,0.3251,-0.3104,0.0323,3.1261,rough,14.0,1,2.192
7450,238.40,1.1028,5.3197,0.3251,-0.3104,0.0323,3.1261,rough,14.0,1,2.192
7460,238.72,1.1028,5.3197,0.3251,-0.3104,0.0323,3.1261,rough,14.0,1,2.192
7470,239.04,1.1028,5.3197,0.3251,-0.3104,0.0323,3.1261,rough,14.0,1,2.192
7480,239.36,1.1028,5.3197,0.3251,-0.3104,0.0323,3.1261,rough,14.0,1,2.192
7490,239.68,1.1028,5.3197,0.3251,-0.3104,0.0323,3.1261,rough,14.0,1,2.192
7500,240.00,1.1028,5.3197,0.3251,-0.3104,0.0323,3.1261,rough,14.0,1,2.192
7510,240.32,1.1028,5.3197,0.3251,-0.3104,0.0323,3.1261,rough,14.0,1,2.192
7520,240.64,1.1028,5.3197,0.3251,-0.3104,0.0323,3.1261,rough,14.0,1,2.192
7530,240.96,1.1028,5.3197,0.3251,-0.3104,0.0323,3.1261,rough,14.0,1,2.192
7540,241.28,1.1028,5.3198,0.3251,-0.3104,0.0323,3.1261,rough,14.0,1,2.192
7550,241.60,1.1028,5.3198,0.3251,-0.3105,0.0323,3.1261,rough,14.0,1,2.192
7560,241.92,1.1028,5.3198,0.3251,-0.3105,0.0323,3.1261,rough,14.0,1,2.192
7570,242.24,1.1028,5.3198,0.3251,-0.3105,0.0323,3.1261,rough,14.0,1,2.192
7580,242.56,1.1028,5.3198,0.3251,-0.3105,0.0323,3.1261,rough,14.0,1,2.192
7590,242.88,1.1028,5.3198,0.3251,-0.3105,0.0323,3.1261,rough,14.0,1,2.192
7600,243.20,1.1028,5.3198,0.3251,-0.3105,0.0323,3.1261,rough,14.0,1,2.192
7610,243.52,1.1028,5.3198,0.3251,-0.3105,0.0323,3.1261,rough,14.0,1,2.192
7620,243.84,1.1028,5.3198,0.3251,-0.3105,0.0323,3.1261,rough,14.0,1,2.192
7630,244.16,1.1028,5.3198,0.3251,-0.3105,0.0323,3.1261,rough,14.0,1,2.192
7640,244.48,1.1023,5.3199,0.3251,-0.3105,0.0322,3.1258,rough,14.0,1,2.191
7650,244.80,1.1022,5.3199,0.3251,-0.3105,0.0322,3.1258,rough,14.0,1,2.191
7660,245.12,1.1023,5.3200,0.3252,-0.3105,0.0323,3.1259,rough,14.0,1,2.191
7670,245.44,1.1022,5.3200,0.3252,-0.3105,0.0323,3.1259,rough,14.0,1,2.191
7680,245.76,1.1021,5.3201,0.3252,-0.3105,0.0323,3.1259,rough,14.0,1,2.191
7690,246.08,1.1021,5.3201,0.3252,-0.3105,0.0323,3.1259,rough,14.0,1,2.191
7700,246.40,1.1019,5.3201,0.3252,-0.3106,0.0322,3.1259,rough,14.0,1,2.191
7710,246.72,1.1019,5.3201,0.3252,-0.3106,0.0322,3.1259,rough,14.0,1,2.191
7720,247.04,1.1019,5.3202,0.3252,-0.3106,0.0322,3.1259,rough,14.0,1,2.191
7730,247.36,1.1019,5.3202,0.3252,-0.3106,0.0323,3.1258,rough,14.0,1,2.191
7740,247.68,1.1019,5.3203,0.3252,-0.3106,0.0323,3.1258,rough,14.0,1,2.191
7750,248.00,1.1019,5.3203,0.3252,-0.3106,0.0323,3.1258,rough,14.0,1,2.191
7760,248.32,1.1019,5.3203,0.3252,-0.3106,0.0323,3.1258,rough,14.0,1,2.191
7770,248.64,1.1019,5.3204,0.3252,-0.3106,0.0323,3.1258,rough,14.0,1,2.191
7780,248.96,1.1019,5.3204,0.3252,-0.3106,0.0323,3.1258,rough,14.0,1,2.191
7790,249.28,1.1019,5.3204,0.3252,-0.3106,0.0323,3.1258,rough,14.0,1,2.191
7800,249.60,1.1019,5.3205,0.3253,-0.3106,0.0323,3.1258,rough,14.0,1,2.191
7810,249.92,1.1019,5.3205,0.3253,-0.3106,0.0323,3.1258,rough,14.0,1,2.191
7820,250.24,1.1019,5.3205,0.3253,-0.3106,0.0323,3.1258,rough,14.0,1,2.191
7830,250.56,1.1019,5.3206,0.3253,-0.3107,0.0323,3.1258,rough,14.0,1,2.191
7840,250.88,1.1019,5.3206,0.3253,-0.3107,0.0324,3.1258,rough,14.0,1,2.191
7850,251.20,1.1019,5.3206,0.3253,-0.3107,0.0324,3.1258,rough,14.0,1,2.191
7860,251.52,1.1019,5.3207,0.3253,-0.3107,0.0324,3.1258,rough,14.0,1,2.191
7870,251.84,1.1019,5.3207,0.3253,-0.3107,0.0324,3.1258,rough,14.0,1,2.191
7880,252.16,1.1019,5.3208,0.3253,-0.3107,0.0324,3.1258,rough,14.0,1,2.191
7890,252.48,1.1019,5.3208,0.3253,-0.3107,0.0324,3.1258,rough,14.0,1,2.191
7900,252.80,1.1019,5.3208,0.3254,-0.3107,0.0324,3.1258,rough,14.0,1,2.191
7910,253.12,1.1019,5.3209,0.3254,-0.3107,0.0324,3.1258,rough,14.0,1,2.191
7920,253.44,1.1019,5.3209,0.3254,-0.3107,0.0324,3.1258,rough,14.0,1,2.190
7930,253.76,1.1019,5.3209,0.3254,-0.3107,0.0324,3.1258,rough,14.0,1,2.190
7940,254.08,1.1019,5.3210,0.3254,-0.3108,0.0324,3.1258,rough,14.0,1,2.190
7950,254.40,1.1019,5.3210,0.3254,-0.3108,0.0324,3.1258,rough,14.0,1,2.190
7960,254.72,1.1019,5.3210,0.3254,-0.3108,0.0324,3.1258,rough,14.0,1,2.190
7970,255.04,1.1019,5.3211,0.3254,-0.3108,0.0325,3.1258,rough,14.0,1,2.190
7980,255.36,1.1019,5.3211,0.3254,-0.3108,0.0325,3.1258,rough,14.0,1,2.190
7990,255.68,1.1019,5.3211,0.3254,-0.3108,0.0325,3.1258,rough,14.0,1,2.190
8000,256.00,1.1019,5.3212,0.3255,-0.3108,0.0325,3.1258,rough,14.0,1,2.190
8010,256.32,1.1019,5.3212,0.3255,-0.3108,0.0325,3.1258,rough,14.0,1,2.190
8020,256.64,1.1019,5.3212,0.3255,-0.3108,0.0325,3.1258,rough,14.0,1,2.190
8030,256.96,1.1019,5.3213,0.3255,-0.3108,0.0325,3.1258,rough,14.0,1,2.190
8040,257.28,1.1019,5.3213,0.3255,-0.3108,0.0325,3.1258,rough,14.0,1,2.190
8050,257.60,1.1019,5.3214,0.3255,-0.3109,0.0325,3.1258,rough,14.0,1,2.190
8060,257.92,1.1019,5.3214,0.3255,-0.3109,0.0325,3.1258,rough,14.0,1,2.190
