step,time_s,x,y,z,roll,pitch,yaw,terrain,speed,target_idx,dist_to_target
10,0.32,-0.1704,1.4447,0.2232,0.0431,-0.0881,-0.0218,slope,18.0,0,4.143
20,0.64,0.1050,1.4413,0.2472,0.0243,-0.0719,-0.0223,slope,18.0,0,4.222
30,0.96,0.4659,1.4277,0.3025,0.0446,-0.2016,0.0309,slope,18.0,0,4.358
40,1.28,0.8025,1.4601,0.3722,0.0222,-0.2580,0.3183,slope,18.0,0,4.466
50,1.60,1.2052,1.6345,0.4945,-0.0373,-0.3047,0.4560,slope,18.0,0,4.510
60,1.92,1.5806,1.8640,0.6348,-0.1024,-0.3350,0.5925,slope,18.0,0,4.535
70,2.24,1.9034,2.1512,0.7820,-0.1846,-0.3287,0.7580,slope,18.0,0,4.525
80,2.56,2.1678,2.5069,0.9024,-0.2601,-0.2476,0.9917,slope,18.0,0,4.466
90,2.88,2.3425,2.9454,0.9935,-0.3432,-0.1474,1.2468,slope,18.0,0,4.329
100,3.20,2.4019,3.4402,1.0236,-0.3612,-0.0116,1.5228,slope,18.0,0,4.113
110,3.52,2.3092,3.9433,0.9784,-0.3181,0.1047,1.8276,slope,18.0,0,3.805
120,3.84,2.1151,4.4274,0.8998,-0.3103,0.1789,1.9882,slope,18.0,0,3.454
130,4.16,1.8550,4.8780,0.7878,-0.2784,0.2255,2.1351,slope,18.0,0,3.090
140,4.48,1.5424,5.2970,0.6528,-0.2475,0.2347,2.2575,slope,18.0,0,2.727
150,4.80,1.1826,5.6778,0.5100,-0.2116,0.2840,2.3817,slope,18.0,0,2.372
160,5.12,0.7938,5.9978,0.3570,-0.1689,0.3070,2.5332,slope,18.0,0,2.045
170,5.44,0.3850,6.2390,0.2030,-0.1153,0.3269,2.7157,slope,18.0,0,1.747
180,5.76,0.0188,6.3804,0.1028,-0.0291,0.1696,2.8400,slope,18.0,0,1.510
190,6.08,-0.3188,6.4679,0.0626,0.0231,0.0570,3.0651,slope,18.0,0,1.324
200,6.40,-0.6352,6.4872,0.0580,0.0155,-0.0229,-2.9281,flat,18.0,0,1.160
210,6.72,-0.9190,6.4231,0.0652,0.0100,-0.0286,-2.7022,flat,18.0,1,0.995
220,7.04,-1.2138,6.2775,0.0751,0.0039,-0.0326,-2.4922,flat,18.0,2,7.647
230,7.36,-1.5996,5.9426,0.0926,0.0007,-0.0353,-2.3586,flat,18.0,2,7.885
240,7.68,-1.9715,5.5462,0.1121,-0.0001,-0.0364,-2.2796,flat,18.0,2,8.117
250,8.00,-2.3129,5.1207,0.1316,0.0004,-0.0332,-2.2103,flat,18.0,2,8.343
260,8.32,-2.6272,4.6766,0.1492,0.0008,-0.0306,-2.1456,flat,18.0,2,8.567
270,8.64,-2.9150,4.2067,0.1648,0.0039,-0.0249,-2.0950,flat,18.0,2,8.790
280,8.96,-3.1800,3.7242,0.1760,0.0082,-0.0131,-2.0405,flat,18.0,2,9.018
290,9.28,-3.4205,3.2256,0.1848,0.0128,-0.0111,-2.0003,flat,18.0,2,9.248
300,9.60,-3.6427,2.7176,0.1886,0.0165,-0.0041,-1.9428,flat,18.0,2,9.487
310,9.92,-3.8356,2.1963,0.1892,0.0242,0.0001,-1.8978,flat,18.0,2,9.725
320,10.24,-4.0085,1.6680,0.1870,0.0278,0.0088,-1.8586,flat,18.0,2,9.969
330,10.56,-4.1596,1.1309,0.1844,0.0352,0.0105,-1.8180,flat,18.0,2,10.218
340,10.88,-4.2896,0.5826,0.1798,0.0384,0.0096,-1.7950,flat,18.0,2,10.474
350,11.20,-4.4083,0.0305,0.1749,0.0416,0.0090,-1.7738,flat,18.0,2,10.743
360,11.52,-4.4962,-0.4170,0.1712,0.0428,0.0073,-1.7438,flat,18.0,2,10.970
370,11.84,-4.5676,-0.7398,0.1681,0.0426,-0.0108,-1.3556,flat,18.0,2,11.150
380,12.16,-4.4850,-0.9915,0.1719,0.0302,-0.0286,-0.8491,flat,18.0,2,11.167
390,12.48,-4.1449,-1.2760,0.1858,0.0207,-0.0328,-0.5426,flat,18.0,2,10.969
400,12.80,-3.7406,-1.4857,0.2003,0.0143,-0.0312,-0.3199,flat,18.0,2,10.695
410,13.12,-3.2937,-1.6045,0.2121,0.0069,-0.0425,-0.0472,flat,18.0,2,10.353
420,13.44,-2.7926,-1.5993,0.2265,-0.0002,-0.0206,0.2507,flat,18.0,2,9.912
430,13.76,-2.3004,-1.4453,0.2329,-0.0004,-0.0020,0.3954,flat,18.0,2,9.408
440,14.08,-1.8173,-1.2222,0.2358,-0.0026,0.0036,0.4890,flat,18.0,2,8.879
450,14.40,-1.3399,-0.9498,0.2274,-0.0035,0.0283,0.5643,flat,18.0,2,8.329
460,14.72,-0.8754,-0.6436,0.2176,-0.0021,0.0216,0.6034,flat,18.0,2,7.774
470,15.04,-0.4080,-0.3172,0.2076,-0.0081,0.0076,0.6118,flat,18.0,2,7.205
480,15.36,0.0117,-0.0194,0.2109,-0.0235,-0.0268,0.6050,slope,18.0,2,6.693
490,15.68,0.4397,0.2793,0.2474,-0.0409,-0.1076,0.5607,slope,18.0,2,6.173
500,16.00,0.8774,0.5570,0.3226,-0.0642,-0.2105,0.5347,slope,18.0,2,5.656
510,16.32,1.3219,0.8171,0.4540,-0.0627,-0.3072,0.5080,slope,18.0,2,5.141
520,16.64,1.7715,1.0694,0.6335,-0.0783,-0.3961,0.4963,slope,18.0,2,4.626
530,16.96,2.2265,1.3252,0.8422,-0.1188,-0.4103,0.4978,slope,18.0,2,4.104
540,17.28,2.6901,1.5802,1.0670,-0.1383,-0.4002,0.4928,slope,18.0,2,3.575
550,17.60,3.1266,1.8325,1.2717,-0.1792,-0.3873,0.5430,slope,18.0,2,3.071
560,17.92,3.5480,2.1060,1.4591,-0.2129,-0.3422,0.5914,slope,18.0,2,2.570
570,18.24,3.9544,2.3887,1.6270,-0.2116,-0.3088,0.6214,slope,18.0,2,2.080
580,18.56,4.3308,2.6627,1.7661,-0.2074,-0.2848,0.6661,slope,18.0,2,1.624
590,18.88,4.6364,2.9304,1.8808,-0.2511,-0.2620,0.7380,slope,18.0,2,1.245
600,19.20,4.8914,3.1888,1.9726,-0.2656,-0.2369,0.8223,slope,18.0,3,3.328
610,19.52,5.1368,3.4436,2.0596,-0.2436,-0.2576,0.7399,slope,18.0,3,3.228
620,19.84,5.3686,3.6498,2.1432,-0.1699,-0.3336,0.4453,slope,18.0,3,3.146
630,20.16,5.6740,3.7974,2.2544,-0.0841,-0.3448,0.2218,slope,18.0,3,2.999
640,20.48,6.0159,3.8825,2.3810,-0.0071,-0.3567,0.0163,slope,18.0,3,2.815
650,20.80,6.3511,3.8806,2.5057,0.0136,-0.3594,-0.0328,slope,18.0,3,2.598
660,21.12,6.7616,3.8644,2.6575,0.0226,-0.3575,-0.0359,slope,18.0,3,2.359
670,21.44,7.1339,3.8478,2.7945,0.0377,-0.3506,-0.0558,rough,14.0,3,2.184
680,21.76,7.4116,3.8305,2.8979,0.0412,-0.3595,-0.0619,rough,14.0,3,2.084
690,22.08,7.6590,3.8112,2.9983,0.0529,-0.4067,-0.1032,rough,14.0,3,2.018
700,22.40,7.8896,3.7773,3.1554,0.0982,-0.7942,-0.1640,rough,14.0,3,1.968
710,22.72,8.0187,3.7748,3.2702,0.0357,-0.8088,-0.1858,rough,14.0,3,1.967
720,23.04,8.0311,3.7737,3.2855,0.0935,-0.8158,-0.2727,rough,14.0,3,1.967
730,23.36,7.9820,3.7716,3.2341,0.0183,-0.8071,-0.1529,rough,14.0,3,1.963
740,23.68,7.9046,3.7811,3.1646,-0.0720,-0.7839,0.0559,rough,14.0,3,1.971
750,24.00,7.8505,3.7947,3.1229,-0.0231,-0.7844,0.0621,rough,14.0,3,1.986
760,24.32,7.8765,3.8230,3.1404,-0.0644,-0.7731,0.0763,rough,14.0,3,2.014
770,24.64,7.9241,3.8548,3.1828,-0.1032,-0.7827,0.0828,rough,14.0,3,2.045
780,24.96,8.0002,3.8910,3.2450,-0.1750,-0.7833,0.0971,rough,14.0,3,2.083
790,25.28,8.1095,3.9337,3.3323,-0.2681,-0.7742,0.1129,rough,14.0,3,2.132
800,25.60,8.1764,3.9843,3.3208,-0.2073,-0.4698,-0.0019,rough,14.0,3,2.189
810,25.92,8.2147,4.0292,3.3028,-0.2335,-0.2388,0.0242,rough,14.0,3,2.239
820,26.24,8.2236,4.0397,3.3092,-0.1844,-0.2523,-0.0376,rough,14.0,3,2.250
830,26.56,8.2609,4.0483,3.3230,-0.1074,-0.2157,-0.1412,rough,14.0,3,2.264
840,26.88,8.4597,4.1064,3.3698,-0.3538,0.3164,-0.1182,rough,14.0,3,2.359
850,27.20,8.7165,4.1264,3.2534,-0.6220,0.4547,-0.3375,rough,14.0,3,2.449
860,27.52,8.8907,4.0923,3.1646,-0.6591,0.2697,-0.4649,rough,14.0,3,2.480
870,27.84,9.0483,4.0268,3.1036,-0.6883,0.1225,-0.6522,rough,14.0,3,2.487
880,28.16,9.1887,3.9385,3.0700,-0.7009,0.0246,-0.8210,rough,14.0,3,2.478
890,28.48,9.2999,3.8442,3.0583,-0.7043,-0.0698,-0.8923,rough,14.0,3,2.458
900,28.80,9.3856,3.7609,3.0601,-0.6998,-0.2052,-0.9641,rough,14.0,3,2.440
910,29.12,9.4647,3.7077,3.0455,-0.6689,-0.2656,-1.0100,rough,14.0,3,2.447
920,29.44,9.5277,3.6409,3.0428,-0.6228,-0.2575,-1.1323,rough,14.0,3,2.436
930,29.76,9.5732,3.5909,3.0524,-0.6434,-0.2506,-1.2514,rough,14.0,3,2.430
940,30.08,9.6077,3.5497,3.0555,-0.6261,-0.2511,-1.3499,rough,14.0,3,2.423
950,30.40,9.6320,3.5076,3.0633,-0.6165,-0.2831,-1.4348,rough,14.0,3,2.411
960,30.72,9.6604,3.4471,3.0669,-0.5426,-0.4171,-1.6219,rough,14.0,3,2.389
970,31.04,9.6719,3.3933,3.0802,-0.4733,-0.5198,-1.7531,rough,14.0,3,2.361
980,31.36,9.6763,3.3496,3.0975,-0.4347,-0.5843,-1.8513,rough,14.0,3,2.335
990,31.68,9.6680,3.3199,3.1185,-0.4245,-0.6067,-1.8932,rough,14.0,3,2.309
1000,32.00,9.6507,3.2877,3.1471,-0.3980,-0.6211,-1.9392,rough,14.0,3,2.275
1010,32.32,9.6300,3.2529,3.1790,-0.3686,-0.6331,-1.9874,rough,14.0,3,2.237
1020,32.64,9.6092,3.2161,3.2091,-0.3173,-0.6517,-2.0545,rough,14.0,3,2.198
1030,32.96,9.5787,3.1779,3.2477,-0.2773,-0.6625,-2.1023,rough,14.0,3,2.150
1040,33.28,9.5473,3.1364,3.2878,-0.2211,-0.6739,-2.1673,rough,14.0,3,2.099
1050,33.60,9.5108,3.0920,3.3377,-0.1994,-0.6821,-2.2122,rough,14.0,3,2.043
1060,33.92,9.4712,3.0464,3.3812,-0.1461,-0.6806,-2.2672,rough,14.0,3,1.983
1070,34.24,9.4176,2.9990,3.4366,-0.1025,-0.6758,-2.3018,rough,14.0,3,1.912
1080,34.56,9.3611,2.9474,3.4780,-0.0792,-0.5869,-2.2865,rough,14.0,3,1.835
1090,34.88,9.2960,2.8806,3.5464,-0.0146,-0.5820,-2.3362,rough,14.0,3,1.743
1100,35.20,9.2261,2.8083,3.6121,0.0072,-0.5712,-2.3661,rough,14.0,3,1.644
1110,35.52,9.1515,2.7234,3.6598,-0.0613,-0.4850,-2.3391,rough,14.0,3,1.533
1120,35.84,9.0392,2.6013,3.7166,-0.0983,-0.2964,-2.4202,rough,14.0,3,1.370
1130,36.16,8.9277,2.4963,3.7641,-0.1295,-0.2939,-2.4689,rough,14.0,3,1.219
1140,36.48,8.6449,2.3606,3.6688,0.3041,0.4557,-2.4367,rough,14.0,0,10.303
1150,36.80,8.4169,2.1220,3.5370,0.0822,0.5993,-2.3625,rough,14.0,0,10.161
1160,37.12,8.2107,1.9468,3.3432,0.1090,0.6534,-2.3679,rough,14.0,0,10.027
1170,37.44,7.9587,1.7887,3.1428,0.3173,0.6670,-2.3960,rough,14.0,0,9.849
1180,37.76,7.6922,1.5716,2.9642,0.2330,0.3382,-2.4878,slope,18.0,0,9.688
1190,38.08,7.2831,1.2610,2.8002,0.1693,0.2664,-2.5227,slope,18.0,0,9.448
1200,38.40,6.8709,0.9861,2.6576,0.0807,0.2978,-2.7485,slope,18.0,0,9.211
1210,38.72,6.4011,0.8281,2.5077,0.0586,0.3155,-2.9435,slope,18.0,0,8.885
1220,39.04,5.9303,0.7625,2.3511,-0.0333,0.3295,3.0202,slope,18.0,0,8.523
1230,39.36,5.4490,0.8461,2.1859,-0.0995,0.3141,2.8260,slope,18.0,0,8.078
1240,39.68,4.9846,1.0089,2.0172,-0.1515,0.2965,2.6741,slope,18.0,0,7.605
1250,40.00,4.5939,1.2340,1.8704,-0.2444,0.2674,2.3706,slope,18.0,0,7.157
1260,40.32,4.2649,1.5769,1.7456,-0.3436,0.1988,2.0650,slope,18.0,0,6.689
1270,40.64,4.0678,1.9893,1.6700,-0.3797,0.0323,1.6629,slope,18.0,0,6.293
1280,40.96,4.0585,2.4240,1.6670,-0.3485,-0.1339,1.2112,slope,18.0,0,6.056
1290,41.28,4.2114,2.8261,1.7230,-0.3249,-0.1609,1.0898,slope,18.0,0,6.001
1300,41.60,4.4142,3.2033,1.7954,-0.3021,-0.1969,0.9698,slope,18.0,0,6.033
1310,41.92,4.6680,3.5765,1.8836,-0.3036,-0.1902,0.9814,slope,18.0,0,6.144
1320,42.24,4.8818,4.0058,1.9563,-0.3401,-0.1242,1.1840,slope,18.0,0,6.234
1330,42.56,5.0197,4.5116,1.9985,-0.3586,-0.0805,1.3340,slope,18.0,0,6.272
1340,42.88,5.0897,5.0423,2.0179,-0.3638,-0.0224,1.4723,slope,18.0,0,6.283
1350,43.20,5.0851,5.5844,2.0103,-0.3765,0.0305,1.6120,slope,18.0,0,6.266
1360,43.52,5.0091,6.1221,1.9698,-0.3482,0.0856,1.7553,slope,18.0,0,6.224
1370,43.84,4.8595,6.6489,1.9092,-0.3634,0.1253,1.8668,slope,18.0,0,6.155
1380,44.16,4.6724,7.1633,1.8301,-0.3560,0.1511,1.9448,slope,18.0,0,6.094
1390,44.48,4.4588,7.6678,1.7441,-0.3478,0.1655,2.0001,slope,18.0,0,6.054
1400,44.80,4.2478,8.1067,1.6613,-0.3416,0.1729,2.0403,slope,18.0,0,6.037
1410,45.12,4.0640,8.3501,1.5861,-0.3527,0.1791,1.9837,slope,18.0,0,5.986
1420,45.44,3.9337,8.3606,1.5386,-0.3609,0.1176,1.9040,slope,18.0,0,5.877
1430,45.76,3.8367,8.3940,1.5005,-0.3775,0.0227,1.6666,slope,18.0,0,5.810
1440,46.08,3.7468,8.4558,1.4588,-0.3623,-0.0669,1.3162,slope,18.0,0,5.765
1450,46.40,3.7152,8.4639,1.4555,-0.3604,-0.1264,1.3219,slope,18.0,0,5.742
1460,46.72,3.7165,8.4623,1.4520,-0.3624,-0.0987,1.3257,slope,18.0,0,5.742
1470,47.04,3.7782,8.4466,1.4847,-0.3708,-0.1267,1.4003,slope,18.0,0,5.787
1480,47.36,3.7763,8.4385,1.4922,-0.3754,-0.1677,1.4427,slope,18.0,0,5.781
1490,47.68,3.7777,8.4411,1.4909,-0.3745,-0.1587,1.4326,slope,18.0,0,5.783
1500,48.00,3.7799,8.4497,1.4780,-0.3687,-0.0844,1.3801,slope,18.0,0,5.790
1510,48.32,3.7857,8.4484,1.4813,-0.3708,-0.0832,1.4022,slope,18.0,0,5.794
1520,48.64,3.7871,8.4484,1.4820,-0.3713,-0.0819,1.4075,slope,18.0,0,5.795
1530,48.96,3.7881,8.4477,1.4823,-0.3716,-0.0805,1.4111,slope,18.0,0,5.796
1540,49.28,3.7881,8.4477,1.4824,-0.3716,-0.0806,1.4110,slope,18.0,0,5.796
1550,49.60,3.7882,8.4476,1.4824,-0.3716,-0.0805,1.4112,slope,18.0,0,5.796
1560,49.92,3.7882,8.4477,1.4824,-0.3716,-0.0806,1.4108,slope,18.0,0,5.796
1570,50.24,3.7882,8.4477,1.4824,-0.3716,-0.0806,1.4108,slope,18.0,0,5.796
1580,50.56,3.7882,8.4477,1.4824,-0.3716,-0.0806,1.4108,slope,18.0,0,5.796
1590,50.88,3.7882,8.4477,1.4824,-0.3716,-0.0806,1.4108,slope,18.0,0,5.796
1600,51.20,3.7882,8.4477,1.4824,-0.3716,-0.0806,1.4108,slope,18.0,0,5.796
1610,51.52,3.7882,8.4477,1.4824,-0.3716,-0.0806,1.4108,slope,18.0,0,5.796
1620,51.84,3.7882,8.4476,1.4824,-0.3716,-0.0804,1.4113,slope,18.0,0,5.796
1630,52.16,3.7883,8.4476,1.4824,-0.3716,-0.0804,1.4115,slope,18.0,0,5.796
1640,52.48,3.7882,8.4476,1.4824,-0.3716,-0.0805,1.4111,slope,18.0,0,5.796
1650,52.80,3.7883,8.4476,1.4824,-0.3716,-0.0804,1.4115,slope,18.0,0,5.796
1660,53.12,3.7883,8.4476,1.4824,-0.3716,-0.0804,1.4114,slope,18.0,0,5.796
1670,53.44,3.7882,8.4477,1.4824,-0.3716,-0.0807,1.4107,slope,18.0,0,5.796
1680,53.76,3.7883,8.4477,1.4824,-0.3716,-0.0806,1.4109,slope,18.0,0,5.796
1690,54.08,3.7883,8.4476,1.4824,-0.3716,-0.0805,1.4111,slope,18.0,0,5.796
1700,54.40,3.7883,8.4476,1.4824,-0.3716,-0.0805,1.4111,slope,18.0,0,5.796
1710,54.72,3.7883,8.4476,1.4824,-0.3716,-0.0805,1.4110,slope,18.0,0,5.796
1720,55.04,3.7883,8.4476,1.4824,-0.3716,-0.0805,1.4111,slope,18.0,0,5.796
1730,55.36,3.7883,8.4476,1.4824,-0.3716,-0.0805,1.4111,slope,18.0,0,5.796
1740,55.68,3.7882,8.4477,1.4824,-0.3716,-0.0805,1.4112,slope,18.0,0,5.796
1750,56.00,3.7882,8.4476,1.4824,-0.3717,-0.0803,1.4116,slope,18.0,0,5.796
1760,56.32,3.7882,8.4477,1.4824,-0.3716,-0.0805,1.4111,slope,18.0,0,5.796
1770,56.64,3.7883,8.4476,1.4824,-0.3717,-0.0803,1.4115,slope,18.0,0,5.796
1780,56.96,3.7882,8.4476,1.4824,-0.3716,-0.0804,1.4114,slope,18.0,1,4.927
1790,57.28,3.7881,8.4479,1.4823,-0.3716,-0.0808,1.4105,slope,18.0,1,4.927
1800,57.60,3.7881,8.4478,1.4824,-0.3716,-0.0808,1.4104,slope,18.0,1,4.927
1810,57.92,3.7882,8.4477,1.4824,-0.3716,-0.0806,1.4108,slope,18.0,1,4.927
1820,58.24,3.7881,8.4477,1.4824,-0.3716,-0.0807,1.4107,slope,18.0,1,4.927
1830,58.56,3.7881,8.4478,1.4824,-0.3716,-0.0807,1.4107,slope,18.0,1,4.927
1840,58.88,3.7881,8.4478,1.4824,-0.3716,-0.0807,1.4107,slope,18.0,1,4.927
1850,59.20,3.7881,8.4478,1.4824,-0.3716,-0.0807,1.4107,slope,18.0,1,4.927
1860,59.52,3.7881,8.4478,1.4824,-0.3716,-0.0807,1.4107,slope,18.0,1,4.927
1870,59.84,3.7882,8.4476,1.4824,-0.3716,-0.0804,1.4114,slope,18.0,1,4.927
1880,60.16,3.7882,8.4476,1.4824,-0.3717,-0.0803,1.4115,slope,18.0,1,4.927
1890,60.48,3.7882,8.4476,1.4824,-0.3716,-0.0804,1.4114,slope,18.0,1,4.927
1900,60.80,3.7881,8.4477,1.4824,-0.3716,-0.0805,1.4110,slope,18.0,1,4.927
1910,61.12,3.7882,8.4476,1.4824,-0.3716,-0.0804,1.4114,slope,18.0,1,4.927
1920,61.44,3.7882,8.4477,1.4824,-0.3716,-0.0806,1.4108,slope,18.0,1,4.927
1930,61.76,3.7883,8.4477,1.4824,-0.3716,-0.0805,1.4110,slope,18.0,1,4.927
1940,62.08,3.7882,8.4477,1.4824,-0.3716,-0.0806,1.4109,slope,18.0,1,4.927
1950,62.40,3.7882,8.4477,1.4824,-0.3716,-0.0806,1.4109,slope,18.0,1,4.927
1960,62.72,3.7882,8.4477,1.4824,-0.3716,-0.0806,1.4109,slope,18.0,1,4.927
1970,63.04,3.7882,8.4477,1.4824,-0.3716,-0.0806,1.4109,slope,18.0,1,4.927
1980,63.36,3.7882,8.4477,1.4824,-0.3716,-0.0806,1.4109,slope,18.0,1,4.927
1990,63.68,3.7882,8.4477,1.4824,-0.3716,-0.0806,1.4109,slope,18.0,1,4.927
2000,64.00,3.7883,8.4476,1.4824,-0.3716,-0.0804,1.4114,slope,18.0,1,4.927
2010,64.32,3.7883,8.4476,1.4824,-0.3716,-0.0805,1.4112,slope,18.0,1,4.927
2020,64.64,3.7883,8.4476,1.4824,-0.3716,-0.0804,1.4115,slope,18.0,1,4.927
2030,64.96,3.7883,8.4476,1.4824,-0.3716,-0.0804,1.4114,slope,18.0,1,4.927
2040,65.28,3.7883,8.4477,1.4824,-0.3716,-0.0806,1.4108,slope,18.0,1,4.927
2050,65.60,3.7881,8.4477,1.4824,-0.3716,-0.0806,1.4109,slope,18.0,1,4.927
2060,65.92,3.7881,8.4478,1.4824,-0.3716,-0.0806,1.4108,slope,18.0,1,4.927
2070,66.24,3.7881,8.4478,1.4824,-0.3716,-0.0806,1.4107,slope,18.0,1,4.927
2080,66.56,3.7881,8.4478,1.4824,-0.3716,-0.0806,1.4107,slope,18.0,1,4.927
2090,66.88,3.7881,8.4478,1.4824,-0.3716,-0.0806,1.4107,slope,18.0,1,4.927
2100,67.20,3.7881,8.4478,1.4824,-0.3716,-0.0806,1.4107,slope,18.0,1,4.927
2110,67.52,3.7881,8.4478,1.4824,-0.3716,-0.0806,1.4107,slope,18.0,1,4.927
2120,67.84,3.7881,8.4476,1.4824,-0.3716,-0.0804,1.4115,slope,18.0,1,4.927
2130,68.16,3.7882,8.4476,1.4824,-0.3717,-0.0803,1.4116,slope,18.0,1,4.927
2140,68.48,3.7882,8.4476,1.4824,-0.3716,-0.0804,1.4114,slope,18.0,2,5.543
2150,68.80,3.7881,8.4477,1.4823,-0.3716,-0.0805,1.4110,slope,18.0,2,5.543
2160,69.12,3.7883,8.4476,1.4824,-0.3717,-0.0804,1.4115,slope,18.0,2,5.543
2170,69.44,3.7882,8.4476,1.4824,-0.3716,-0.0805,1.4111,slope,18.0,2,5.543
2180,69.76,3.7882,8.4477,1.4824,-0.3716,-0.0806,1.4108,slope,18.0,2,5.543
2190,70.08,3.7882,8.4477,1.4824,-0.3716,-0.0806,1.4108,slope,18.0,2,5.543
2200,70.40,3.7882,8.4477,1.4824,-0.3716,-0.0806,1.4108,slope,18.0,2,5.543
2210,70.72,3.7882,8.4477,1.4824,-0.3716,-0.0806,1.4108,slope,18.0,2,5.543
2220,71.04,3.7882,8.4477,1.4824,-0.3716,-0.0806,1.4108,slope,18.0,2,5.543
2230,71.36,3.7882,8.4477,1.4824,-0.3716,-0.0806,1.4108,slope,18.0,2,5.543
2240,71.68,3.7882,8.4476,1.4824,-0.3716,-0.0804,1.4113,slope,18.0,2,5.543
2250,72.00,3.7883,8.4476,1.4824,-0.3716,-0.0804,1.4115,slope,18.0,2,5.542
2260,72.32,3.7882,8.4476,1.4824,-0.3716,-0.0805,1.4111,slope,18.0,2,5.543
2270,72.64,3.7883,8.4476,1.4824,-0.3716,-0.0804,1.4115,slope,18.0,2,5.542
2280,72.96,3.7883,8.4476,1.4824,-0.3716,-0.0804,1.4114,slope,18.0,2,5.543
2290,73.28,3.7882,8.4477,1.4824,-0.3716,-0.0807,1.4107,slope,18.0,2,5.543
2300,73.60,3.7883,8.4477,1.4824,-0.3716,-0.0806,1.4109,slope,18.0,2,5.543
2310,73.92,3.7883,8.4476,1.4824,-0.3716,-0.0805,1.4111,slope,18.0,2,5.543
2320,74.24,3.7883,8.4476,1.4824,-0.3716,-0.0805,1.4111,slope,18.0,2,5.543
2330,74.56,3.7883,8.4476,1.4824,-0.3716,-0.0805,1.4110,slope,18.0,2,5.543
2340,74.88,3.7883,8.4476,1.4824,-0.3716,-0.0805,1.4111,slope,18.0,2,5.543
2350,75.20,3.7883,8.4476,1.4824,-0.3716,-0.0805,1.4111,slope,18.0,2,5.543
2360,75.52,3.7882,8.4477,1.4824,-0.3716,-0.0805,1.4112,slope,18.0,2,5.543
2370,75.84,3.7882,8.4476,1.4824,-0.3717,-0.0803,1.4116,slope,18.0,2,5.543
2380,76.16,3.7882,8.4477,1.4824,-0.3716,-0.0805,1.4111,slope,18.0,2,5.543
2390,76.48,3.7883,8.4476,1.4824,-0.3717,-0.0803,1.4115,slope,18.0,2,5.543
2400,76.80,3.7882,8.4476,1.4824,-0.3716,-0.0804,1.4114,slope,18.0,2,5.543
2410,77.12,3.7881,8.4479,1.4823,-0.3716,-0.0808,1.4105,slope,18.0,2,5.543
2420,77.44,3.7881,8.4478,1.4824,-0.3716,-0.0808,1.4104,slope,18.0,2,5.543
2430,77.76,3.7882,8.4477,1.4824,-0.3716,-0.0806,1.4108,slope,18.0,2,5.543
2440,78.08,3.7881,8.4477,1.4824,-0.3716,-0.0807,1.4107,slope,18.0,2,5.543
2450,78.40,3.7881,8.4478,1.4824,-0.3716,-0.0807,1.4107,slope,18.0,2,5.543
2460,78.72,3.7881,8.4478,1.4824,-0.3716,-0.0807,1.4107,slope,18.0,2,5.543
2470,79.04,3.7881,8.4478,1.4824,-0.3716,-0.0807,1.4107,slope,18.0,2,5.543
2480,79.36,3.7881,8.4478,1.4824,-0.3716,-0.0807,1.4107,slope,18.0,2,5.543
2490,79.68,3.7882,8.4476,1.4824,-0.3716,-0.0805,1.4112,slope,18.0,2,5.543
2500,80.00,3.7882,8.4476,1.4824,-0.3717,-0.0804,1.4115,slope,18.0,2,5.543
2510,80.32,3.7882,8.4476,1.4824,-0.3716,-0.0804,1.4114,slope,18.0,3,7.819
2520,80.64,3.7881,8.4477,1.4824,-0.3716,-0.0805,1.4110,slope,18.0,3,7.819
2530,80.96,3.7882,8.4476,1.4824,-0.3716,-0.0804,1.4114,slope,18.0,3,7.819
2540,81.28,3.7882,8.4477,1.4824,-0.3716,-0.0806,1.4108,slope,18.0,3,7.819
2550,81.60,3.7883,8.4477,1.4824,-0.3716,-0.0805,1.4110,slope,18.0,3,7.819
2560,81.92,3.7882,8.4477,1.4824,-0.3716,-0.0806,1.4109,slope,18.0,3,7.819
2570,82.24,3.7882,8.4477,1.4824,-0.3716,-0.0806,1.4109,slope,18.0,3,7.819
2580,82.56,3.7882,8.4477,1.4824,-0.3716,-0.0806,1.4109,slope,18.0,3,7.819
2590,82.88,3.7882,8.4477,1.4824,-0.3716,-0.0806,1.4109,slope,18.0,3,7.819
2600,83.20,3.7882,8.4477,1.4824,-0.3716,-0.0806,1.4109,slope,18.0,3,7.819
2610,83.52,3.7882,8.4477,1.4824,-0.3716,-0.0806,1.4109,slope,18.0,3,7.819
2620,83.84,3.7883,8.4476,1.4824,-0.3716,-0.0804,1.4114,slope,18.0,3,7.819
2630,84.16,3.7883,8.4476,1.4824,-0.3716,-0.0805,1.4112,slope,18.0,3,7.819
2640,84.48,3.7883,8.4476,1.4824,-0.3716,-0.0804,1.4115,slope,18.0,3,7.819
2650,84.80,3.7883,8.4476,1.4824,-0.3716,-0.0804,1.4114,slope,18.0,3,7.819
2660,85.12,3.7883,8.4477,1.4824,-0.3716,-0.0806,1.4108,slope,18.0,3,7.819
2670,85.44,3.7881,8.4477,1.4824,-0.3716,-0.0806,1.4109,slope,18.0,3,7.819
2680,85.76,3.7881,8.4478,1.4824,-0.3716,-0.0806,1.4108,slope,18.0,3,7.819
2690,86.08,3.7881,8.4478,1.4824,-0.3716,-0.0806,1.4107,slope,18.0,3,7.819
2700,86.40,3.7881,8.4478,1.4824,-0.3716,-0.0806,1.4107,slope,18.0,3,7.819
2710,86.72,3.7881,8.4478,1.4824,-0.3716,-0.0806,1.4107,slope,18.0,3,7.819
2720,87.04,3.7881,8.4478,1.4824,-0.3716,-0.0806,1.4107,slope,18.0,3,7.819
2730,87.36,3.7881,8.4478,1.4824,-0.3716,-0.0806,1.4107,slope,18.0,3,7.819
2740,87.68,3.7881,8.4476,1.4824,-0.3716,-0.0804,1.4115,slope,18.0,3,7.819
2750,88.00,3.7882,8.4476,1.4824,-0.3717,-0.0803,1.4116,slope,18.0,3,7.819
2760,88.32,3.7882,8.4476,1.4824,-0.3716,-0.0804,1.4114,slope,18.0,3,7.819
2770,88.64,3.7881,8.4477,1.4823,-0.3716,-0.0805,1.4110,slope,18.0,3,7.819
2780,88.96,3.7883,8.4476,1.4824,-0.3717,-0.0804,1.4115,slope,18.0,3,7.819
2790,89.28,3.7883,8.4478,1.4824,-0.3716,-0.0807,1.4106,slope,18.0,3,7.819
2800,89.60,3.7883,8.4476,1.4824,-0.3716,-0.0805,1.4112,slope,18.0,3,7.819
2810,89.92,3.7882,8.4477,1.4824,-0.3716,-0.0806,1.4108,slope,18.0,3,7.819
