step,time_s,x,y,z,roll,pitch,yaw,terrain,speed,target_idx,dist_to_target
10,0.32,0.0822,-0.0578,0.2075,0.0000,-0.0805,-0.0002,rough,14.0,0,6.900
20,0.64,0.4617,-0.0606,0.2446,0.0121,-0.1155,-0.1092,rough,14.0,0,6.613
30,0.96,0.8360,-0.1134,0.3023,0.0192,-0.2112,-0.1855,rough,14.0,0,6.305
40,1.28,1.2097,-0.1975,0.3919,0.0360,-0.2731,-0.2577,rough,14.0,0,5.982
50,1.60,1.5696,-0.3084,0.5106,0.0754,-0.3275,-0.3365,rough,14.0,0,5.656
60,1.92,1.9065,-0.4465,0.6476,0.1100,-0.3969,-0.3927,rough,14.0,0,5.331
70,2.24,2.2370,-0.6014,0.8055,0.1355,-0.4319,-0.4608,rough,14.0,0,5.002
80,2.56,2.5685,-0.7784,0.9735,0.1746,-0.4240,-0.5263,rough,14.0,0,4.659
90,2.88,2.8880,-0.9795,1.1370,0.1933,-0.4212,-0.5822,rough,14.0,0,4.310
100,3.20,3.2030,-1.2030,1.2968,0.2084,-0.3836,-0.6311,rough,14.0,0,3.949
110,3.52,3.5200,-1.4410,1.4490,0.2328,-0.3452,-0.6941,rough,14.0,0,3.579
120,3.84,3.8202,-1.7095,1.5837,0.2430,-0.3098,-0.7424,rough,14.0,0,3.198
130,4.16,4.1178,-1.9923,1.7070,0.2522,-0.2723,-0.7923,rough,14.0,0,2.810
140,4.48,4.4017,-2.2962,1.8162,0.2629,-0.2399,-0.8448,rough,14.0,0,2.416
150,4.80,4.6694,-2.6166,1.9134,0.2725,-0.2172,-0.8965,rough,14.0,0,2.020
160,5.12,4.9186,-2.9501,1.9990,0.2797,-0.1945,-0.9541,rough,14.0,0,1.627
170,5.44,5.1400,-3.3010,2.0746,0.2954,-0.1739,-1.0267,rough,14.0,0,1.236
180,5.76,5.3318,-3.6652,2.1390,0.3121,-0.1529,-1.1096,rough,14.0,0,0.855
190,6.08,5.3853,-3.9052,2.1552,0.2200,-0.2762,-0.6582,rough,14.0,1,12.222
200,6.40,5.5381,-4.0502,2.2109,0.1211,-0.3374,-0.3259,rough,14.0,1,12.412
210,6.72,5.7954,-4.1413,2.3047,-0.0328,-0.3526,0.0982,rough,14.0,1,12.592
220,7.04,5.9925,-4.0999,2.3776,-0.0917,-0.3427,0.2661,rough,14.0,1,12.630
230,7.36,6.1840,-4.0079,2.4469,-0.1469,-0.3206,0.4234,rough,14.0,1,12.623
240,7.68,6.3804,-3.8668,2.5173,-0.2036,-0.2851,0.6078,rough,14.0,1,12.577
250,8.00,6.5781,-3.6637,2.5862,-0.2555,-0.2383,0.7976,rough,14.0,1,12.480
260,8.32,6.7862,-3.3983,2.6563,-0.2946,-0.1833,0.9785,rough,14.0,1,12.339
270,8.64,6.9709,-3.0853,2.7159,-0.3101,-0.1396,1.1092,rough,14.0,1,12.152
280,8.96,7.1176,-2.7431,2.7596,-0.3185,-0.0988,1.2264,rough,14.0,1,11.930
290,9.28,7.2224,-2.3678,2.7874,-0.3190,-0.0664,1.3462,rough,14.0,1,11.664
300,9.60,7.2653,-1.9659,2.7965,-0.3206,-0.0128,1.4973,rough,14.0,1,11.349
310,9.92,7.2524,-1.5462,2.7873,-0.3159,0.0271,1.6241,rough,14.0,1,10.994
320,10.24,7.1957,-1.1226,2.7654,-0.3097,0.0546,1.7227,rough,14.0,1,10.615
330,10.56,7.1023,-0.6997,2.7334,-0.3034,0.0769,1.8043,rough,14.0,1,10.218
340,10.88,6.9816,-0.2809,2.6941,-0.2990,0.0933,1.8651,rough,14.0,1,9.811
350,11.20,6.8453,0.1354,2.6507,-0.2971,0.1045,1.9061,rough,14.0,1,9.398
360,11.52,6.6958,0.5467,2.6034,-0.2958,0.1135,1.9377,rough,14.0,1,8.984
370,11.84,6.5341,0.9455,2.5522,-0.2976,0.1227,1.9630,rough,14.0,1,8.574
380,12.16,6.3663,1.3446,2.4938,-0.2711,0.1325,1.9866,rough,14.0,1,8.161
390,12.48,6.1739,1.7375,2.4344,-0.2963,0.1462,2.0203,rough,14.0,1,7.739
400,12.80,5.9796,2.1281,2.3671,-0.2885,0.1584,2.0433,rough,14.0,1,7.319
410,13.12,5.7767,2.5079,2.2970,-0.2949,0.1681,2.0651,rough,14.0,1,6.903
420,13.44,5.5650,2.8866,2.2205,-0.2944,0.1799,2.0889,rough,14.0,1,6.484
430,13.76,5.3419,3.2594,2.1365,-0.2924,0.1950,2.1121,rough,14.0,1,6.063
440,14.08,5.1097,3.6264,2.0460,-0.2993,0.2084,2.1338,rough,14.0,1,5.641
450,14.40,4.8738,3.9912,1.9519,-0.2788,0.2196,2.1586,rough,14.0,1,5.219
460,14.72,4.6277,4.3459,1.8539,-0.2829,0.2319,2.1819,rough,14.0,1,4.799
470,15.04,4.3720,4.6948,1.7470,-0.2715,0.2423,2.2047,rough,14.0,1,4.378
480,15.36,4.1108,5.0355,1.6397,-0.2733,0.2503,2.2304,rough,14.0,1,3.960
490,15.68,3.8452,5.3722,1.5284,-0.2700,0.2599,2.2539,rough,14.0,1,3.544
500,16.00,3.5698,5.7012,1.4127,-0.2624,0.2662,2.2813,rough,14.0,1,3.127
510,16.32,3.2884,6.0225,1.2956,-0.2556,0.2738,2.3092,rough,14.0,1,2.713
520,16.64,2.9954,6.3297,1.1742,-0.2542,0.2777,2.3404,rough,14.0,1,2.302
530,16.96,2.6958,6.6298,1.0532,-0.2396,0.2833,2.3753,rough,14.0,1,1.894
540,17.28,2.3873,6.9175,0.9308,-0.2329,0.2910,2.4194,rough,14.0,1,1.491
550,17.60,2.0657,7.1848,0.8055,-0.2169,0.2938,2.4728,rough,14.0,1,1.096
560,17.92,1.7471,7.4326,0.6841,-0.1877,0.3109,2.5820,rough,14.0,2,15.665
570,18.24,1.4551,7.5835,0.5749,-0.1156,0.3375,2.8107,rough,14.0,2,15.608
580,18.56,1.0924,7.6742,0.4413,-0.0761,0.3423,2.9285,rough,14.0,2,15.467
590,18.88,0.7137,7.7324,0.3038,-0.0426,0.3449,3.0288,rough,14.0,2,15.298
600,19.20,0.3113,7.7675,0.1657,-0.0151,0.3239,3.0703,rough,14.0,2,15.105
610,19.52,-0.0762,7.7844,0.0738,-0.0090,0.1668,3.1282,rough,14.0,2,14.912
620,19.84,-0.4663,7.7757,0.0458,-0.0059,-0.0124,-3.0883,rough,14.0,2,14.704
630,20.16,-0.8523,7.7385,0.0529,-0.0085,-0.0213,-2.8991,rough,14.0,2,14.480
640,20.48,-1.2432,7.6289,0.0624,-0.0112,-0.0251,-2.7670,rough,14.0,2,14.198
650,20.80,-1.6285,7.4687,0.0735,-0.0141,-0.0276,-2.6629,rough,14.0,2,13.878
660,21.12,-1.9930,7.2682,0.0858,-0.0148,-0.0291,-2.5602,rough,14.0,2,13.537
670,21.44,-2.3423,7.0249,0.0992,-0.0177,-0.0326,-2.4902,rough,14.0,2,13.167
680,21.76,-2.6743,6.7583,0.1134,-0.0189,-0.0335,-2.4215,rough,14.0,2,12.787
690,22.08,-2.9903,6.4666,0.1279,-0.0200,-0.0333,-2.3675,rough,14.0,2,12.393
700,22.40,-3.2928,6.1581,0.1420,-0.0206,-0.0314,-2.3197,rough,14.0,2,11.990
710,22.72,-3.5802,5.8351,0.1549,-0.0212,-0.0283,-2.2766,rough,14.0,2,11.583
720,23.04,-3.8558,5.5038,0.1661,-0.0204,-0.0245,-2.2409,rough,14.0,2,11.174
730,23.36,-4.1209,5.1568,0.1730,-0.0347,-0.0189,-2.2084,rough,14.0,2,10.755
740,23.68,-4.3788,4.8021,0.1816,-0.0185,-0.0114,-2.1757,rough,14.0,2,10.333
750,24.00,-4.6247,4.4372,0.1848,-0.0164,-0.0040,-2.1505,rough,14.0,2,9.907
760,24.32,-4.8614,4.0660,0.1851,-0.0129,0.0044,-2.1244,rough,14.0,2,9.479
770,24.64,-5.0885,3.6871,0.1812,-0.0083,0.0102,-2.0990,rough,14.0,2,9.048
780,24.96,-5.3078,3.2996,0.1752,-0.0049,0.0175,-2.0799,rough,14.0,2,8.612
790,25.28,-5.5204,2.9099,0.1659,0.0009,0.0247,-2.0620,rough,14.0,2,8.176
800,25.60,-5.7264,2.5170,0.1542,0.0094,0.0293,-2.0416,rough,14.0,2,7.741
810,25.92,-5.9235,2.1179,0.1418,0.0105,0.0314,-2.0254,rough,14.0,2,7.303
820,26.24,-6.1147,1.7165,0.1278,0.0141,0.0316,-2.0106,rough,14.0,2,6.865
830,26.56,-6.3004,1.3121,0.1141,0.0184,0.0318,-1.9960,rough,14.0,2,6.427
840,26.88,-6.4798,0.9059,0.1007,0.0215,0.0293,-1.9817,rough,14.0,2,5.990
850,27.20,-6.6539,0.4980,0.0889,0.0247,0.0242,-1.9658,rough,14.0,2,5.553
860,27.52,-6.8211,0.0874,0.0794,0.0269,0.0183,-1.9503,rough,14.0,2,5.116
870,27.84,-6.9820,-0.3245,0.0727,0.0282,0.0113,-1.9332,rough,14.0,2,4.680
880,28.16,-7.1361,-0.7374,0.0694,0.0309,0.0041,-1.9145,rough,14.0,2,4.245
890,28.48,-7.2826,-1.1532,0.0696,0.0307,-0.0039,-1.8959,rough,14.0,2,3.811
900,28.80,-7.4215,-1.5703,0.0739,0.0297,-0.0144,-1.8731,rough,14.0,2,3.377
910,29.12,-7.5501,-1.9896,0.0820,0.0288,-0.0259,-1.8523,rough,14.0,2,2.945
920,29.44,-7.6687,-2.4136,0.0931,0.0207,-0.0320,-1.8277,rough,14.0,2,2.511
930,29.76,-7.7791,-2.8393,0.1096,0.0216,-0.0414,-1.7973,rough,14.0,2,2.078
940,30.08,-7.8760,-3.2685,0.1284,0.0182,-0.0455,-1.7633,rough,14.0,2,1.646
950,30.40,-7.9574,-3.7000,0.1491,0.0123,-0.0482,-1.7220,rough,14.0,2,1.216
960,30.72,-8.0203,-4.1315,0.1717,0.0059,-0.0530,-1.6611,rough,14.0,3,0.856
970,31.04,-8.0690,-4.4940,0.1911,-0.0046,-0.0532,-1.5253,rough,14.0,0,13.414
980,31.36,-8.0461,-4.8005,0.2074,-0.0215,-0.0485,-1.2359,rough,14.0,0,13.394
990,31.68,-7.9155,-5.1283,0.2235,-0.0289,-0.0413,-1.0860,rough,14.0,0,13.274
1000,32.00,-7.7236,-5.4478,0.2372,-0.0352,-0.0307,-0.9284,rough,14.0,0,13.101
1010,32.32,-7.4743,-5.7385,0.2467,-0.0384,-0.0188,-0.7784,rough,14.0,0,12.877
1020,32.64,-7.1727,-6.0036,0.2516,-0.0393,-0.0077,-0.6510,rough,14.0,0,12.605
1030,32.96,-6.8300,-6.2358,0.2524,-0.0349,0.0049,-0.5449,rough,14.0,0,12.295
1040,33.28,-6.4588,-6.4366,0.2481,-0.0334,0.0146,-0.4519,rough,14.0,0,11.958
1050,33.60,-6.0590,-6.6089,0.2404,-0.0277,0.0229,-0.3891,rough,14.0,0,11.593
1060,33.92,-5.6541,-6.7579,0.2292,-0.0226,0.0270,-0.3255,rough,14.0,0,11.224
1070,34.24,-5.2356,-6.8829,0.2161,-0.0160,0.0357,-0.2720,rough,14.0,0,10.841
1080,34.56,-4.8084,-6.9899,0.2005,-0.0133,0.0375,-0.2364,rough,14.0,0,10.449
1090,34.88,-4.3765,-7.0842,0.1836,-0.0078,0.0408,-0.2065,rough,14.0,0,10.054
1100,35.20,-3.9417,-7.1664,0.1658,-0.0047,0.0409,-0.1801,rough,14.0,0,9.656
1110,35.52,-3.5051,-7.2383,0.1480,-0.0006,0.0403,-0.1567,rough,14.0,0,9.258
1120,35.84,-3.0685,-7.2978,0.1304,0.0030,0.0384,-0.1250,rough,14.0,0,8.860
1130,36.16,-2.6390,-7.3453,0.1138,0.0088,0.0365,-0.0447,rough,14.0,0,8.469
1140,36.48,-2.2059,-7.3612,0.0984,0.0139,0.0335,0.0257,rough,14.0,0,8.067
1150,36.80,-1.7714,-7.3470,0.0845,0.0174,0.0298,0.0835,rough,14.0,0,7.657
1160,37.12,-1.3377,-7.3083,0.0726,0.0204,0.0248,0.1323,rough,14.0,0,7.241
1170,37.44,-0.9050,-7.2488,0.0631,0.0243,0.0200,0.1739,rough,14.0,0,6.819
1180,37.76,-0.4750,-7.1713,0.0563,0.0262,0.0118,0.2105,rough,14.0,0,6.395
1190,38.08,-0.0919,-7.0798,0.0859,-0.0055,-0.1828,0.2230,rough,14.0,0,6.009
1200,38.40,0.2883,-6.9847,0.1757,-0.0178,-0.3324,0.2442,rough,14.0,0,5.625
1210,38.72,0.6785,-6.8740,0.3111,-0.0621,-0.3404,0.2652,rough,14.0,0,5.226
1220,39.04,1.0734,-6.7651,0.4584,-0.0703,-0.3444,0.2944,rough,14.0,0,4.825
1230,39.36,1.4609,-6.6431,0.6050,-0.0746,-0.3484,0.3090,rough,14.0,0,4.426
1240,39.68,1.8460,-6.5153,0.7526,-0.0817,-0.3515,0.3269,rough,14.0,0,4.027
1250,40.00,2.2313,-6.3797,0.9023,-0.0903,-0.3516,0.3511,rough,14.0,0,3.626
1260,40.32,2.6106,-6.2351,1.0509,-0.0966,-0.3521,0.3680,rough,14.0,0,3.227
1270,40.64,2.9860,-6.0837,1.1992,-0.1043,-0.3522,0.3869,rough,14.0,0,2.830
1280,40.96,3.3579,-5.9247,1.3468,-0.1133,-0.3500,0.4074,rough,14.0,0,2.433
1290,41.28,3.7248,-5.7579,1.4930,-0.1237,-0.3481,0.4307,rough,14.0,0,2.038
1300,41.60,4.0865,-5.5819,1.6371,-0.1352,-0.3431,0.4573,rough,14.0,0,1.646
1310,41.92,4.4402,-5.3962,1.7777,-0.1476,-0.3378,0.4898,rough,14.0,0,1.259
1320,42.24,4.7809,-5.1981,1.9126,-0.1670,-0.3290,0.5339,rough,14.0,0,0.882
1330,42.56,5.0458,-5.0111,2.0168,-0.2186,-0.2950,0.7078,rough,14.0,1,13.153
1340,42.88,5.2533,-4.7649,2.0988,-0.2695,-0.2444,0.8803,rough,14.0,1,12.985
1350,43.20,5.4668,-4.4901,2.1817,-0.2984,-0.2011,1.0174,rough,14.0,1,12.798
1360,43.52,5.6281,-4.1518,2.2431,-0.3217,-0.1504,1.1635,rough,14.0,1,12.540
1370,43.84,5.7593,-3.7733,2.2917,-0.3289,-0.1098,1.2747,rough,14.0,1,12.239
1380,44.16,5.8465,-3.3765,2.3239,-0.3342,-0.0662,1.3969,rough,14.0,1,11.909
1390,44.48,5.8768,-2.9540,2.3337,-0.3335,-0.0169,1.5156,rough,14.0,1,11.536
1400,44.80,5.8696,-2.5250,2.3324,-0.3285,0.0110,1.6040,rough,14.0,1,11.146
1410,45.12,5.8311,-2.0933,2.3194,-0.3239,0.0348,1.6727,rough,14.0,1,10.741
1420,45.44,5.7645,-1.6610,2.2969,-0.3207,0.0557,1.7355,rough,14.0,1,10.326
1430,45.76,5.6720,-1.2302,2.2656,-0.3186,0.0753,1.7942,rough,14.0,1,9.901
1440,46.08,5.5599,-0.8033,2.2272,-0.3168,0.0904,1.8355,rough,14.0,1,9.473
1450,46.40,5.4340,-0.3813,2.1834,-0.3146,0.1023,1.8681,rough,14.0,1,9.042
1460,46.72,5.2996,0.0392,2.1358,-0.3223,0.1129,1.8825,rough,14.0,1,8.610
1470,47.04,5.1611,0.4595,2.0857,-0.3300,0.1172,1.8954,rough,14.0,1,8.177
1480,47.36,5.0152,0.8756,2.0319,-0.3281,0.1251,1.9166,rough,14.0,1,7.745
1490,47.68,4.8568,1.2863,1.9730,-0.3290,0.1378,1.9339,rough,14.0,1,7.312
1500,48.00,4.6948,1.6931,1.9103,-0.3312,0.1340,1.9521,rough,14.0,1,6.881
1510,48.32,4.5235,2.0985,1.8457,-0.3284,0.1464,1.9685,rough,14.0,1,6.447
1520,48.64,4.3465,2.5021,1.7777,-0.3288,0.1614,1.9852,rough,14.0,1,6.013
1530,48.96,4.1628,2.9004,1.7039,-0.3265,0.1639,1.9978,rough,14.0,1,5.579
1540,49.28,3.9772,3.2964,1.6289,-0.3212,0.1690,2.0131,rough,14.0,1,5.148
1550,49.60,3.7836,3.6905,1.5476,-0.3102,0.1847,2.0281,rough,14.0,1,4.715
1560,49.92,3.5869,4.0762,1.4614,-0.3100,0.1713,2.0472,rough,14.0,1,4.288
1570,50.24,3.3813,4.4654,1.3760,-0.3061,0.2009,2.0595,rough,14.0,1,3.854
1580,50.56,3.1722,4.8473,1.2847,-0.3014,0.2097,2.0773,rough,14.0,1,3.424
1590,50.88,3.1155,5.0957,1.2547,-0.1516,0.3325,2.6415,rough,14.0,1,3.197
1600,51.20,3.0202,5.2253,1.2143,0.0923,0.3540,-2.9645,rough,14.0,1,3.037
1610,51.52,2.9506,5.2516,1.1868,0.2331,0.2860,-2.5259,rough,14.0,1,2.972
1620,51.84,2.9122,5.2916,1.1706,0.3008,0.2137,-2.2499,rough,14.0,1,2.916
1630,52.16,2.8627,5.3346,1.1500,0.3308,0.1642,-2.0910,rough,14.0,1,2.852
1640,52.48,2.8068,5.3653,1.1280,0.3516,0.1090,-1.9401,rough,14.0,1,2.792
1650,52.80,2.7500,5.3866,1.1062,0.3621,0.0548,-1.8030,rough,14.0,1,2.740
1660,53.12,2.6925,5.3953,1.0830,0.3596,0.0044,-1.6706,rough,14.0,1,2.697
1670,53.44,2.6684,5.3963,1.0749,0.3646,-0.0190,-1.6101,rough,14.0,1,2.681
1680,53.76,2.6611,5.3975,1.0722,0.3643,-0.0288,-1.5845,rough,14.0,1,2.676
1690,54.08,2.6580,5.3979,1.0710,0.3641,-0.0316,-1.5775,rough,14.0,1,2.673
1700,54.40,2.6566,5.3981,1.0704,0.3639,-0.0328,-1.5742,rough,14.0,1,2.672
1710,54.72,2.6559,5.3980,1.0702,0.3639,-0.0333,-1.5730,rough,14.0,1,2.672
1720,55.04,2.6554,5.3978,1.0700,0.3638,-0.0334,-1.5726,rough,14.0,1,2.672
1730,55.36,2.6550,5.3975,1.0698,0.3638,-0.0335,-1.5724,rough,14.0,1,2.672
1740,55.68,2.6547,5.3972,1.0697,0.3638,-0.0335,-1.5723,rough,14.0,1,2.672
1750,56.00,2.6544,5.3973,1.0696,0.3638,-0.0336,-1.5723,rough,14.0,1,2.672
1760,56.32,2.6540,5.3977,1.0695,0.3638,-0.0335,-1.5724,rough,14.0,1,2.671
1770,56.64,2.6536,5.3977,1.0693,0.3638,-0.0335,-1.5724,rough,14.0,1,2.671
1780,56.96,2.6532,5.3976,1.0692,0.3638,-0.0335,-1.5724,rough,14.0,1,2.671
1790,57.28,2.6529,5.3976,1.0690,0.3638,-0.0335,-1.5724,rough,14.0,1,2.671
1800,57.60,2.6525,5.3974,1.0689,0.3637,-0.0335,-1.5723,rough,14.0,1,2.670
1810,57.92,2.6522,5.3969,1.0688,0.3637,-0.0336,-1.5722,rough,14.0,1,2.671
1820,58.24,2.6519,5.3965,1.0687,0.3637,-0.0336,-1.5721,rough,14.0,1,2.671
1830,58.56,2.6516,5.3970,1.0686,0.3637,-0.0336,-1.5722,rough,14.0,1,2.670
1840,58.88,2.6513,5.3972,1.0684,0.3637,-0.0336,-1.5723,rough,14.0,1,2.670
1850,59.20,2.6510,5.3972,1.0683,0.3637,-0.0336,-1.5723,rough,14.0,1,2.670
1860,59.52,2.6507,5.3971,1.0682,0.3637,-0.0336,-1.5722,rough,14.0,1,2.670
1870,59.84,2.6503,5.3970,1.0681,0.3637,-0.0336,-1.5722,rough,14.0,1,2.669
1880,60.16,2.6500,5.3970,1.0680,0.3637,-0.0336,-1.5722,rough,14.0,1,2.669
1890,60.48,2.6497,5.3969,1.0678,0.3637,-0.0336,-1.5722,rough,14.0,1,2.669
1900,60.80,2.6494,5.3968,1.0677,0.3637,-0.0336,-1.5722,rough,14.0,1,2.669
1910,61.12,2.6492,5.3965,1.0676,0.3636,-0.0336,-1.5720,rough,14.0,1,2.669
1920,61.44,2.6489,5.3966,1.0675,0.3636,-0.0336,-1.5721,rough,14.0,1,2.669
1930,61.76,2.6486,5.3967,1.0674,0.3636,-0.0336,-1.5721,rough,14.0,1,2.669
1940,62.08,2.6483,5.3966,1.0673,0.3636,-0.0336,-1.5721,rough,14.0,1,2.668
1950,62.40,2.6481,5.3966,1.0672,0.3636,-0.0336,-1.5721,rough,14.0,1,2.668
1960,62.72,2.6478,5.3965,1.0671,0.3636,-0.0336,-1.5721,rough,14.0,1,2.668
1970,63.04,2.6476,5.3965,1.0670,0.3636,-0.0336,-1.5720,rough,14.0,1,2.668
1980,63.36,2.6473,5.3964,1.0669,0.3636,-0.0336,-1.5720,rough,14.0,1,2.668
1990,63.68,2.6471,5.3964,1.0668,0.3636,-0.0336,-1.5720,rough,14.0,1,2.668
2000,64.00,2.6468,5.3964,1.0667,0.3636,-0.0336,-1.5720,rough,14.0,1,2.668
2010,64.32,2.6466,5.3964,1.0666,0.3636,-0.0336,-1.5720,rough,14.0,1,2.668
2020,64.64,2.6463,5.3964,1.0666,0.3636,-0.0336,-1.5720,rough,14.0,1,2.667
2030,64.96,2.6461,5.3964,1.0665,0.3636,-0.0336,-1.5720,rough,14.0,1,2.667
2040,65.28,2.6458,5.3964,1.0664,0.3636,-0.0336,-1.5720,rough,14.0,1,2.667
2050,65.60,2.6456,5.3964,1.0663,0.3636,-0.0336,-1.5720,rough,14.0,1,2.667
2060,65.92,2.6454,5.3964,1.0662,0.3636,-0.0336,-1.5720,rough,14.0,1,2.667
2070,66.24,2.6451,5.3964,1.0661,0.3636,-0.0336,-1.5720,rough,14.0,1,2.667
2080,66.56,2.6449,5.3964,1.0660,0.3636,-0.0336,-1.5720,rough,14.0,1,2.667
2090,66.88,2.6446,5.3963,1.0659,0.3636,-0.0336,-1.5720,rough,14.0,1,2.666
2100,67.20,2.6444,5.3963,1.0658,0.3636,-0.0336,-1.5720,rough,14.0,1,2.666
2110,67.52,2.6442,5.3963,1.0657,0.3635,-0.0336,-1.5720,rough,14.0,1,2.666
2120,67.84,2.6439,5.3963,1.0656,0.3635,-0.0336,-1.5720,rough,14.0,1,2.666
2130,68.16,2.6437,5.3963,1.0655,0.3635,-0.0336,-1.5720,rough,14.0,1,2.666
2140,68.48,2.6434,5.3963,1.0655,0.3635,-0.0336,-1.5720,rough,14.0,1,2.666
2150,68.80,2.6432,5.3963,1.0654,0.3635,-0.0336,-1.5720,rough,14.0,1,2.666
2160,69.12,2.6430,5.3963,1.0653,0.3635,-0.0336,-1.5720,rough,14.0,1,2.665
2170,69.44,2.6427,5.3963,1.0652,0.3635,-0.0336,-1.5720,rough,14.0,1,2.665
2180,69.76,2.6425,5.3963,1.0651,0.3635,-0.0336,-1.5720,rough,14.0,1,2.665
2190,70.08,2.6423,5.3963,1.0650,0.3635,-0.0336,-1.5720,rough,14.0,1,2.665
2200,70.40,2.6420,5.3963,1.0649,0.3635,-0.0336,-1.5720,rough,14.0,1,2.665
2210,70.72,2.6418,5.3963,1.0648,0.3635,-0.0336,-1.5720,rough,14.0,1,2.665
2220,71.04,2.6415,5.3963,1.0647,0.3635,-0.0337,-1.5720,rough,14.0,1,2.665
2230,71.36,2.6413,5.3963,1.0646,0.3635,-0.0337,-1.5720,rough,14.0,1,2.664
2240,71.68,2.6411,5.3963,1.0646,0.3635,-0.0337,-1.5720,rough,14.0,1,2.664
2250,72.00,2.6408,5.3963,1.0645,0.3635,-0.0337,-1.5720,rough,14.0,1,2.664
2260,72.32,2.6406,5.3963,1.0644,0.3635,-0.0337,-1.5720,rough,14.0,1,2.664
2270,72.64,2.6404,5.3963,1.0643,0.3635,-0.0337,-1.5720,rough,14.0,1,2.664
2280,72.96,2.6401,5.3963,1.0642,0.3635,-0.0337,-1.5720,rough,14.0,1,2.664
2290,73.28,2.6399,5.3963,1.0641,0.3635,-0.0337,-1.5720,rough,14.0,1,2.664
2300,73.60,2.6397,5.3963,1.0640,0.3635,-0.0337,-1.5720,rough,14.0,1,2.663
2310,73.92,2.6394,5.3963,1.0639,0.3635,-0.0337,-1.5720,rough,14.0,1,2.663
2320,74.24,2.6392,5.3963,1.0638,0.3635,-0.0337,-1.5720,rough,14.0,1,2.663
2330,74.56,2.6390,5.3963,1.0638,0.3635,-0.0337,-1.5720,rough,14.0,1,2.663
2340,74.88,2.6388,5.3963,1.0637,0.3635,-0.0337,-1.5720,rough,14.0,1,2.663
2350,75.20,2.6385,5.3963,1.0636,0.3635,-0.0337,-1.5720,rough,14.0,1,2.663
2360,75.52,2.6383,5.3963,1.0635,0.3634,-0.0337,-1.5720,rough,14.0,1,2.663
2370,75.84,2.6381,5.3963,1.0634,0.3634,-0.0337,-1.5720,rough,14.0,1,2.662
2380,76.16,2.6378,5.3963,1.0633,0.3634,-0.0337,-1.5720,rough,14.0,1,2.662
2390,76.48,2.6376,5.3963,1.0632,0.3634,-0.0337,-1.5720,rough,14.0,1,2.662
2400,76.80,2.6374,5.3963,1.0631,0.3634,-0.0337,-1.5720,rough,14.0,1,2.662
2410,77.12,2.6371,5.3963,1.0631,0.3634,-0.0337,-1.5720,rough,14.0,1,2.662
2420,77.44,2.6369,5.3963,1.0630,0.3634,-0.0337,-1.5719,rough,14.0,1,2.662
2430,77.76,2.6367,5.3963,1.0629,0.3634,-0.0337,-1.5719,rough,14.0,1,2.662
2440,78.08,2.6365,5.3963,1.0628,0.3634,-0.0337,-1.5719,rough,14.0,1,2.662
2450,78.40,2.6362,5.3963,1.0627,0.3634,-0.0337,-1.5719,rough,14.0,1,2.661
2460,78.72,2.6360,5.3962,1.0626,0.3634,-0.0337,-1.5719,rough,14.0,1,2.661
2470,79.04,2.6358,5.3962,1.0625,0.3634,-0.0337,-1.5719,rough,14.0,1,2.661
2480,79.36,2.6356,5.3962,1.0624,0.3634,-0.0337,-1.5719,rough,14.0,1,2.661
2490,79.68,2.6353,5.3962,1.0624,0.3634,-0.0337,-1.5719,rough,14.0,1,2.661
2500,80.00,2.6351,5.3962,1.0623,0.3634,-0.0337,-1.5719,rough,14.0,1,2.661
2510,80.32,2.6349,5.3962,1.0622,0.3634,-0.0337,-1.5719,rough,14.0,1,2.661
2520,80.64,2.6347,5.3962,1.0621,0.3634,-0.0337,-1.5719,rough,14.0,1,2.660
2530,80.96,2.6344,5.3962,1.0620,0.3634,-0.0337,-1.5719,rough,14.0,1,2.660
2540,81.28,2.6342,5.3962,1.0619,0.3634,-0.0337,-1.5719,rough,14.0,1,2.660
2550,81.60,2.6340,5.3962,1.0618,0.3634,-0.0337,-1.5719,rough,14.0,1,2.660
2560,81.92,2.6338,5.3962,1.0618,0.3634,-0.0337,-1.5719,rough,14.0,1,2.660
2570,82.24,2.6335,5.3962,1.0617,0.3634,-0.0337,-1.5719,rough,14.0,1,2.660
2580,82.56,2.6333,5.3962,1.0616,0.3634,-0.0337,-1.5719,rough,14.0,1,2.660
2590,82.88,2.6331,5.3962,1.0615,0.3634,-0.0337,-1.5719,rough,14.0,1,2.660
2600,83.20,2.6329,5.3962,1.0614,0.3634,-0.0337,-1.5719,rough,14.0,1,2.659
2610,83.52,2.6327,5.3962,1.0613,0.3634,-0.0337,-1.5719,rough,14.0,1,2.659
2620,83.84,2.6324,5.3962,1.0613,0.3634,-0.0337,-1.5719,rough,14.0,1,2.659
2630,84.16,2.6322,5.3962,1.0612,0.3633,-0.0337,-1.5719,rough,14.0,1,2.659
2640,84.48,2.6320,5.3962,1.0611,0.3633,-0.0337,-1.5719,rough,14.0,1,2.659
2650,84.80,2.6318,5.3962,1.0610,0.3633,-0.0337,-1.5719,rough,14.0,1,2.659
2660,85.12,2.6316,5.3962,1.0609,0.3633,-0.0337,-1.5719,rough,14.0,1,2.659
2670,85.44,2.6313,5.3962,1.0608,0.3633,-0.0337,-1.5719,rough,14.0,1,2.658
2680,85.76,2.6311,5.3962,1.0607,0.3633,-0.0337,-1.5719,rough,14.0,1,2.658
2690,86.08,2.6308,5.3964,1.0607,0.3635,-0.0339,-1.5720,rough,14.0,1,2.658
2700,86.40,2.6303,5.3966,1.0604,0.3634,-0.0331,-1.5723,rough,14.0,1,2.658
2710,86.72,2.6300,5.3966,1.0603,0.3634,-0.0336,-1.5720,rough,14.0,1,2.657
2720,87.04,2.6297,5.3966,1.0602,0.3635,-0.0339,-1.5720,rough,14.0,1,2.657
2730,87.36,2.6295,5.3967,1.0602,0.3635,-0.0339,-1.5719,rough,14.0,1,2.657
2740,87.68,2.6293,5.3967,1.0601,0.3635,-0.0339,-1.5719,rough,14.0,1,2.657
2750,88.00,2.6291,5.3968,1.0600,0.3635,-0.0339,-1.5719,rough,14.0,1,2.657
2760,88.32,2.6289,5.3968,1.0599,0.3635,-0.0339,-1.5719,rough,14.0,1,2.657
2770,88.64,2.6287,5.3968,1.0598,0.3635,-0.0339,-1.5719,rough,14.0,1,2.656
2780,88.96,2.6283,5.3969,1.0597,0.3642,-0.0345,-1.5721,rough,14.0,1,2.656
2790,89.28,2.6280,5.3972,1.0594,0.3636,-0.0329,-1.5726,rough,14.0,1,2.656
2800,89.60,2.6276,5.3970,1.0594,0.3634,-0.0335,-1.5721,rough,14.0,1,2.656
2810,89.92,2.6274,5.3970,1.0593,0.3634,-0.0338,-1.5719,rough,14.0,1,2.655
2820,90.24,2.6272,5.3971,1.0592,0.3634,-0.0339,-1.5718,rough,14.0,1,2.655
2830,90.56,2.6270,5.3971,1.0592,0.3634,-0.0339,-1.5718,rough,14.0,1,2.655
2840,90.88,2.6268,5.3971,1.0591,0.3634,-0.0339,-1.5718,rough,14.0,1,2.655
2850,91.20,2.6266,5.3972,1.0590,0.3634,-0.0339,-1.5718,rough,14.0,1,2.655
2860,91.52,2.6264,5.3972,1.0589,0.3634,-0.0339,-1.5718,rough,14.0,1,2.655
2870,91.84,2.6263,5.3972,1.0589,0.3634,-0.0339,-1.5718,rough,14.0,1,2.655
2880,92.16,2.6261,5.3973,1.0588,0.3634,-0.0339,-1.5718,rough,14.0,1,2.654
2890,92.48,2.6259,5.3973,1.0587,0.3634,-0.0339,-1.5717,rough,14.0,1,2.654
2900,92.80,2.6257,5.3973,1.0587,0.3633,-0.0339,-1.5717,rough,14.0,1,2.654
2910,93.12,2.6256,5.3973,1.0586,0.3633,-0.0339,-1.5717,rough,14.0,1,2.654
2920,93.44,2.6254,5.3974,1.0585,0.3633,-0.0339,-1.5717,rough,14.0,1,2.654
2930,93.76,2.6252,5.3974,1.0585,0.3633,-0.0338,-1.5717,rough,14.0,1,2.654
2940,94.08,2.6238,5.3978,1.0575,0.3631,-0.0343,-1.5632,rough,14.0,1,2.653
2950,94.40,2.6249,5.3973,1.0583,0.3632,-0.0347,-1.5683,rough,14.0,1,2.654
2960,94.72,2.6252,5.3973,1.0585,0.3633,-0.0341,-1.5707,rough,14.0,1,2.654
2970,95.04,2.6252,5.3974,1.0585,0.3633,-0.0339,-1.5714,rough,14.0,1,2.654
2980,95.36,2.6251,5.3974,1.0584,0.3633,-0.0339,-1.5716,rough,14.0,1,2.654
2990,95.68,2.6244,5.3973,1.0581,0.3632,-0.0353,-1.5660,rough,14.0,1,2.653
3000,96.00,2.6252,5.3973,1.0584,0.3632,-0.0343,-1.5701,rough,14.0,1,2.654
3010,96.32,2.6253,5.3974,1.0585,0.3633,-0.0340,-1.5712,rough,14.0,1,2.654
3020,96.64,2.6252,5.3974,1.0585,0.3633,-0.0339,-1.5716,rough,14.0,1,2.654
3030,96.96,2.6238,5.3976,1.0576,0.3631,-0.0348,-1.5633,rough,14.0,1,2.653
3040,97.28,2.6249,5.3973,1.0583,0.3632,-0.0347,-1.5687,rough,14.0,1,2.654
3050,97.60,2.6252,5.3973,1.0585,0.3633,-0.0340,-1.5708,rough,14.0,1,2.654
3060,97.92,2.6252,5.3974,1.0585,0.3633,-0.0339,-1.5714,rough,14.0,1,2.654
3070,98.24,2.6251,5.3974,1.0584,0.3633,-0.0339,-1.5716,rough,14.0,1,2.654
3080,98.56,2.6246,5.3973,1.0581,0.3632,-0.0351,-1.5667,rough,14.0,1,2.654
3090,98.88,2.6252,5.3973,1.0584,0.3632,-0.0342,-1.5703,rough,14.0,1,2.654
3100,99.20,2.6253,5.3974,1.0585,0.3633,-0.0340,-1.5713,rough,14.0,1,2.654
3110,99.52,2.6252,5.3974,1.0584,0.3633,-0.0339,-1.5716,rough,14.0,1,2.654
3120,99.84,2.6240,5.3973,1.0578,0.3631,-0.0355,-1.5636,rough,14.0,1,2.653
3130,100.16,2.6251,5.3973,1.0584,0.3632,-0.0345,-1.5693,rough,14.0,1,2.654
3140,100.48,2.6253,5.3973,1.0585,0.3633,-0.0340,-1.5710,rough,14.0,1,2.654
3150,100.80,2.6252,5.3974,1.0585,0.3633,-0.0339,-1.5715,rough,14.0,1,2.654
3160,101.12,2.6240,5.3978,1.0581,0.3630,-0.0377,-1.5629,rough,14.0,1,2.653
3170,101.44,2.6247,5.3973,1.0582,0.3632,-0.0350,-1.5673,rough,14.0,1,2.654
3180,101.76,2.6252,5.3973,1.0584,0.3632,-0.0341,-1.5704,rough,14.0,1,2.654
3190,102.08,2.6253,5.3974,1.0585,0.3633,-0.0340,-1.5713,rough,14.0,1,2.654
3200,102.40,2.6251,5.3974,1.0584,0.3633,-0.0339,-1.5716,rough,14.0,1,2.654
3210,102.72,2.6239,5.3973,1.0578,0.3631,-0.0355,-1.5637,rough,14.0,1,2.653
3220,103.04,2.6250,5.3973,1.0584,0.3632,-0.0345,-1.5694,rough,14.0,1,2.654
3230,103.36,2.6252,5.3973,1.0585,0.3633,-0.0340,-1.5710,rough,14.0,1,2.654
3240,103.68,2.6252,5.3974,1.0585,0.3633,-0.0339,-1.5715,rough,14.0,1,2.654
3250,104.00,2.6238,5.3978,1.0575,0.3631,-0.0344,-1.5630,rough,14.0,1,2.653
3260,104.32,2.6249,5.3973,1.0583,0.3632,-0.0348,-1.5682,rough,14.0,1,2.654
3270,104.64,2.6253,5.3973,1.0585,0.3633,-0.0341,-1.5707,rough,14.0,1,2.654
3280,104.96,2.6252,5.3974,1.0585,0.3633,-0.0339,-1.5714,rough,14.0,1,2.654
3290,105.28,2.6251,5.3974,1.0584,0.3633,-0.0339,-1.5716,rough,14.0,1,2.654
3300,105.60,2.6243,5.3973,1.0580,0.3632,-0.0354,-1.5653,rough,14.0,1,2.653
3310,105.92,2.6251,5.3973,1.0584,0.3632,-0.0343,-1.5699,rough,14.0,1,2.654
3320,106.24,2.6253,5.3974,1.0585,0.3633,-0.0340,-1.5711,rough,14.0,1,2.654
3330,106.56,2.6252,5.3974,1.0585,0.3633,-0.0339,-1.5715,rough,14.0,1,2.654
3340,106.88,2.6238,5.3978,1.0575,0.3631,-0.0344,-1.5630,rough,14.0,1,2.653
3350,107.20,2.6249,5.3973,1.0583,0.3632,-0.0348,-1.5682,rough,14.0,1,2.654
3360,107.52,2.6252,5.3973,1.0585,0.3633,-0.0341,-1.5707,rough,14.0,1,2.654
3370,107.84,2.6252,5.3974,1.0585,0.3633,-0.0339,-1.5714,rough,14.0,1,2.654
3380,108.16,2.6251,5.3974,1.0584,0.3633,-0.0339,-1.5716,rough,14.0,1,2.654
3390,108.48,2.6243,5.3973,1.0580,0.3631,-0.0353,-1.5653,rough,14.0,1,2.653
3400,108.80,2.6251,5.3973,1.0584,0.3632,-0.0343,-1.5699,rough,14.0,1,2.654
3410,109.12,2.6253,5.3974,1.0585,0.3633,-0.0340,-1.5712,rough,14.0,1,2.654
3420,109.44,2.6252,5.3974,1.0584,0.3633,-0.0339,-1.5715,rough,14.0,1,2.654
3430,109.76,2.6238,5.3976,1.0576,0.3631,-0.0348,-1.5633,rough,14.0,1,2.653
3440,110.08,2.6249,5.3973,1.0583,0.3632,-0.0347,-1.5687,rough,14.0,1,2.654
3450,110.40,2.6252,5.3973,1.0585,0.3633,-0.0340,-1.5708,rough,14.0,1,2.654
3460,110.72,2.6252,5.3974,1.0585,0.3633,-0.0339,-1.5714,rough,14.0,1,2.654
3470,111.04,2.6251,5.3974,1.0584,0.3633,-0.0339,-1.5716,rough,14.0,1,2.654
3480,111.36,2.6245,5.3973,1.0581,0.3632,-0.0351,-1.5667,rough,14.0,1,2.654
3490,111.68,2.6252,5.3973,1.0584,0.3632,-0.0342,-1.5703,rough,14.0,1,2.654
3500,112.00,2.6252,5.3974,1.0585,0.3633,-0.0340,-1.5713,rough,14.0,1,2.654
3510,112.32,2.6251,5.3974,1.0584,0.3633,-0.0339,-1.5716,rough,14.0,1,2.654
3520,112.64,2.6241,5.3973,1.0579,0.3631,-0.0355,-1.5645,rough,14.0,1,2.653
3530,112.96,2.6251,5.3973,1.0584,0.3632,-0.0344,-1.5696,rough,14.0,1,2.654
3540,113.28,2.6253,5.3973,1.0585,0.3633,-0.0340,-1.5711,rough,14.0,1,2.654
3550,113.60,2.6252,5.3974,1.0585,0.3633,-0.0339,-1.5715,rough,14.0,1,2.654
3560,113.92,2.6239,5.3980,1.0570,0.3630,-0.0314,-1.5622,rough,14.0,1,2.653
3570,114.24,2.6248,5.3973,1.0582,0.3632,-0.0349,-1.5678,rough,14.0,1,2.654
3580,114.56,2.6252,5.3973,1.0585,0.3633,-0.0341,-1.5706,rough,14.0,1,2.654
3590,114.88,2.6253,5.3974,1.0585,0.3633,-0.0339,-1.5714,rough,14.0,1,2.654
3600,115.20,2.6251,5.3974,1.0584,0.3633,-0.0339,-1.5716,rough,14.0,1,2.654
3610,115.52,2.6241,5.3973,1.0579,0.3631,-0.0354,-1.5645,rough,14.0,1,2.653
3620,115.84,2.6251,5.3973,1.0584,0.3632,-0.0344,-1.5696,rough,14.0,1,2.654
3630,116.16,2.6253,5.3974,1.0585,0.3633,-0.0340,-1.5711,rough,14.0,1,2.654
3640,116.48,2.6252,5.3974,1.0585,0.3633,-0.0339,-1.5715,rough,14.0,1,2.654
3650,116.80,2.6239,5.3980,1.0570,0.3630,-0.0313,-1.5622,rough,14.0,1,2.653
3660,117.12,2.6248,5.3973,1.0582,0.3632,-0.0349,-1.5678,rough,14.0,1,2.654
3670,117.44,2.6252,5.3973,1.0584,0.3633,-0.0341,-1.5706,rough,14.0,1,2.654
3680,117.76,2.6252,5.3974,1.0585,0.3633,-0.0339,-1.5714,rough,14.0,1,2.654
3690,118.08,2.6251,5.3974,1.0584,0.3633,-0.0339,-1.5716,rough,14.0,1,2.654
3700,118.40,2.6243,5.3973,1.0580,0.3631,-0.0353,-1.5653,rough,14.0,1,2.653
3710,118.72,2.6251,5.3973,1.0584,0.3632,-0.0343,-1.5699,rough,14.0,1,2.654
3720,119.04,2.6252,5.3974,1.0585,0.3633,-0.0340,-1.5712,rough,14.0,1,2.654
3730,119.36,2.6252,5.3974,1.0584,0.3633,-0.0339,-1.5715,rough,14.0,1,2.654
3740,119.68,2.6239,5.3975,1.0577,0.3631,-0.0352,-1.5634,rough,14.0,1,2.653
3750,120.00,2.6250,5.3973,1.0583,0.3632,-0.0346,-1.5690,rough,14.0,1,2.654
3760,120.32,2.6253,5.3973,1.0585,0.3633,-0.0340,-1.5709,rough,14.0,1,2.654
3770,120.64,2.6252,5.3974,1.0585,0.3633,-0.0339,-1.5715,rough,14.0,1,2.654
3780,120.96,2.6251,5.3974,1.0584,0.3633,-0.0339,-1.5716,rough,14.0,1,2.654
3790,121.28,2.6246,5.3973,1.0581,0.3632,-0.0351,-1.5667,rough,14.0,1,2.654
3800,121.60,2.6252,5.3973,1.0584,0.3632,-0.0342,-1.5703,rough,14.0,1,2.654
3810,121.92,2.6253,5.3974,1.0585,0.3633,-0.0340,-1.5713,rough,14.0,1,2.654
3820,122.24,2.6252,5.3974,1.0584,0.3633,-0.0339,-1.5716,rough,14.0,1,2.654
3830,122.56,2.6239,5.3975,1.0577,0.3631,-0.0352,-1.5635,rough,14.0,1,2.653
3840,122.88,2.6250,5.3973,1.0583,0.3632,-0.0346,-1.5690,rough,14.0,1,2.654
3850,123.20,2.6252,5.3973,1.0585,0.3633,-0.0340,-1.5709,rough,14.0,1,2.654
3860,123.52,2.6252,5.3974,1.0585,0.3633,-0.0339,-1.5715,rough,14.0,1,2.654
3870,123.84,2.6240,5.3978,1.0581,0.3630,-0.0377,-1.5629,rough,14.0,1,2.653
3880,124.16,2.6247,5.3973,1.0582,0.3632,-0.0350,-1.5673,rough,14.0,1,2.654
3890,124.48,2.6252,5.3973,1.0584,0.3632,-0.0341,-1.5704,rough,14.0,1,2.654
3900,124.80,2.6252,5.3974,1.0585,0.3633,-0.0340,-1.5713,rough,14.0,1,2.654
3910,125.12,2.6251,5.3974,1.0584,0.3633,-0.0339,-1.5716,rough,14.0,1,2.654
3920,125.44,2.6243,5.3973,1.0580,0.3632,-0.0354,-1.5653,rough,14.0,1,2.653
3930,125.76,2.6252,5.3973,1.0584,0.3632,-0.0343,-1.5699,rough,14.0,1,2.654
3940,126.08,2.6253,5.3974,1.0585,0.3633,-0.0340,-1.5711,rough,14.0,1,2.654
3950,126.40,2.6252,5.3974,1.0585,0.3633,-0.0339,-1.5715,rough,14.0,1,2.654
3960,126.72,2.6238,5.3978,1.0575,0.3631,-0.0344,-1.5630,rough,14.0,1,2.653
3970,127.04,2.6249,5.3973,1.0583,0.3632,-0.0348,-1.5682,rough,14.0,1,2.654
3980,127.36,2.6253,5.3973,1.0585,0.3633,-0.0341,-1.5707,rough,14.0,1,2.654
3990,127.68,2.6252,5.3974,1.0585,0.3633,-0.0339,-1.5714,rough,14.0,1,2.654
4000,128.00,2.6251,5.3974,1.0584,0.3633,-0.0339,-1.5716,rough,14.0,1,2.654
4010,128.32,2.6243,5.3973,1.0580,0.3631,-0.0353,-1.5653,rough,14.0,1,2.653
4020,128.64,2.6251,5.3973,1.0584,0.3632,-0.0343,-1.5699,rough,14.0,1,2.654
4030,128.96,2.6253,5.3974,1.0585,0.3633,-0.0340,-1.5711,rough,14.0,1,2.654
4040,129.28,2.6252,5.3974,1.0585,0.3633,-0.0339,-1.5715,rough,14.0,1,2.654
4050,129.60,2.6238,5.3976,1.0576,0.3631,-0.0349,-1.5632,rough,14.0,1,2.653
4060,129.92,2.6249,5.3973,1.0583,0.3632,-0.0347,-1.5686,rough,14.0,1,2.654
4070,130.24,2.6253,5.3973,1.0585,0.3633,-0.0340,-1.5708,rough,14.0,1,2.654
4080,130.56,2.6252,5.3974,1.0585,0.3633,-0.0339,-1.5714,rough,14.0,1,2.654
4090,130.88,2.6251,5.3974,1.0584,0.3633,-0.0339,-1.5716,rough,14.0,1,2.654
4100,131.20,2.6244,5.3973,1.0581,0.3632,-0.0353,-1.5660,rough,14.0,1,2.653
4110,131.52,2.6252,5.3973,1.0584,0.3632,-0.0343,-1.5701,rough,14.0,1,2.654
4120,131.84,2.6253,5.3974,1.0585,0.3633,-0.0340,-1.5712,rough,14.0,1,2.654
4130,132.16,2.6252,5.3974,1.0585,0.3633,-0.0339,-1.5716,rough,14.0,1,2.654
4140,132.48,2.6238,5.3976,1.0576,0.3631,-0.0349,-1.5632,rough,14.0,1,2.653
4150,132.80,2.6249,5.3973,1.0583,0.3632,-0.0347,-1.5686,rough,14.0,1,2.654
4160,133.12,2.6253,5.3973,1.0585,0.3633,-0.0340,-1.5708,rough,14.0,1,2.654
4170,133.44,2.6252,5.3974,1.0585,0.3633,-0.0339,-1.5714,rough,14.0,1,2.654
4180,133.76,2.6251,5.3974,1.0584,0.3633,-0.0339,-1.5716,rough,14.0,1,2.654
4190,134.08,2.6244,5.3973,1.0581,0.3632,-0.0353,-1.5660,rough,14.0,1,2.653
4200,134.40,2.6252,5.3973,1.0584,0.3632,-0.0343,-1.5701,rough,14.0,1,2.654
4210,134.72,2.6253,5.3974,1.0585,0.3633,-0.0340,-1.5712,rough,14.0,1,2.654
4220,135.04,2.6252,5.3974,1.0585,0.3633,-0.0339,-1.5716,rough,14.0,1,2.654
4230,135.36,2.6238,5.3976,1.0576,0.3631,-0.0348,-1.5633,rough,14.0,1,2.653
4240,135.68,2.6249,5.3973,1.0583,0.3632,-0.0347,-1.5687,rough,14.0,1,2.654
4250,136.00,2.6253,5.3973,1.0585,0.3633,-0.0340,-1.5708,rough,14.0,1,2.654
4260,136.32,2.6252,5.3974,1.0585,0.3633,-0.0339,-1.5714,rough,14.0,1,2.654
4270,136.64,2.6251,5.3974,1.0584,0.3633,-0.0339,-1.5716,rough,14.0,1,2.654
4280,136.96,2.6246,5.3973,1.0581,0.3632,-0.0352,-1.5667,rough,14.0,1,2.654
4290,137.28,2.6252,5.3973,1.0584,0.3632,-0.0342,-1.5703,rough,14.0,1,2.654
4300,137.60,2.6253,5.3974,1.0585,0.3633,-0.0340,-1.5713,rough,14.0,1,2.654
4310,137.92,2.6252,5.3974,1.0585,0.3633,-0.0339,-1.5716,rough,14.0,1,2.654
4320,138.24,2.6239,5.3975,1.0577,0.3631,-0.0352,-1.5634,rough,14.0,1,2.653
4330,138.56,2.6250,5.3973,1.0584,0.3632,-0.0346,-1.5690,rough,14.0,1,2.654
4340,138.88,2.6253,5.3973,1.0585,0.3633,-0.0340,-1.5709,rough,14.0,1,2.654
4350,139.20,2.6252,5.3974,1.0585,0.3633,-0.0339,-1.5715,rough,14.0,1,2.654
4360,139.52,2.6251,5.3974,1.0584,0.3633,-0.0339,-1.5716,rough,14.0,1,2.654
4370,139.84,2.6246,5.3973,1.0581,0.3632,-0.0351,-1.5667,rough,14.0,1,2.654
4380,140.16,2.6252,5.3973,1.0584,0.3632,-0.0342,-1.5703,rough,14.0,1,2.654
4390,140.48,2.6253,5.3974,1.0585,0.3633,-0.0340,-1.5713,rough,14.0,1,2.654
4400,140.80,2.6252,5.3974,1.0585,0.3633,-0.0339,-1.5716,rough,14.0,1,2.654
4410,141.12,2.6239,5.3975,1.0577,0.3631,-0.0352,-1.5635,rough,14.0,1,2.653
4420,141.44,2.6250,5.3973,1.0583,0.3632,-0.0346,-1.5690,rough,14.0,1,2.654
4430,141.76,2.6253,5.3973,1.0585,0.3633,-0.0340,-1.5709,rough,14.0,1,2.654
4440,142.08,2.6252,5.3974,1.0585,0.3633,-0.0339,-1.5715,rough,14.0,1,2.654
4450,142.40,2.6251,5.3974,1.0584,0.3633,-0.0339,-1.5716,rough,14.0,1,2.654
4460,142.72,2.6246,5.3973,1.0581,0.3632,-0.0351,-1.5667,rough,14.0,1,2.654
4470,143.04,2.6252,5.3973,1.0584,0.3632,-0.0342,-1.5703,rough,14.0,1,2.654
4480,143.36,2.6253,5.3974,1.0585,0.3633,-0.0340,-1.5713,rough,14.0,1,2.654
4490,143.68,2.6252,5.3974,1.0584,0.3633,-0.0339,-1.5716,rough,14.0,1,2.654
4500,144.00,2.6239,5.3975,1.0577,0.3631,-0.0352,-1.5635,rough,14.0,1,2.653
4510,144.32,2.6250,5.3973,1.0583,0.3632,-0.0346,-1.5690,rough,14.0,1,2.654
4520,144.64,2.6252,5.3973,1.0585,0.3633,-0.0340,-1.5709,rough,14.0,1,2.654
4530,144.96,2.6252,5.3974,1.0585,0.3633,-0.0339,-1.5715,rough,14.0,1,2.654
4540,145.28,2.6239,5.3980,1.0570,0.3630,-0.0314,-1.5621,rough,14.0,1,2.653
4550,145.60,2.6248,5.3973,1.0582,0.3632,-0.0349,-1.5678,rough,14.0,1,2.654
4560,145.92,2.6252,5.3973,1.0585,0.3633,-0.0341,-1.5706,rough,14.0,1,2.654
4570,146.24,2.6253,5.3974,1.0585,0.3633,-0.0339,-1.5714,rough,14.0,1,2.654
4580,146.56,2.6251,5.3974,1.0584,0.3633,-0.0339,-1.5716,rough,14.0,1,2.654
4590,146.88,2.6241,5.3973,1.0579,0.3631,-0.0354,-1.5645,rough,14.0,1,2.653
4600,147.20,2.6251,5.3973,1.0584,0.3632,-0.0344,-1.5696,rough,14.0,1,2.654
4610,147.52,2.6253,5.3973,1.0585,0.3633,-0.0340,-1.5711,rough,14.0,1,2.654
4620,147.84,2.6252,5.3974,1.0585,0.3633,-0.0339,-1.5715,rough,14.0,1,2.654
4630,148.16,2.6239,5.3980,1.0570,0.3630,-0.0314,-1.5622,rough,14.0,1,2.653
4640,148.48,2.6248,5.3973,1.0582,0.3632,-0.0349,-1.5678,rough,14.0,1,2.654
4650,148.80,2.6252,5.3973,1.0585,0.3633,-0.0341,-1.5706,rough,14.0,1,2.654
4660,149.12,2.6253,5.3974,1.0585,0.3633,-0.0339,-1.5714,rough,14.0,1,2.654
4670,149.44,2.6251,5.3974,1.0584,0.3633,-0.0339,-1.5716,rough,14.0,1,2.654
4680,149.76,2.6241,5.3973,1.0579,0.3631,-0.0354,-1.5645,rough,14.0,1,2.653
4690,150.08,2.6251,5.3973,1.0584,0.3632,-0.0344,-1.5696,rough,14.0,1,2.654
4700,150.40,2.6253,5.3974,1.0585,0.3633,-0.0340,-1.5711,rough,14.0,1,2.654
4710,150.72,2.6252,5.3974,1.0585,0.3633,-0.0339,-1.5715,rough,14.0,1,2.654
4720,151.04,2.6238,5.3978,1.0575,0.3631,-0.0344,-1.5630,rough,14.0,1,2.653
4730,151.36,2.6249,5.3973,1.0583,0.3632,-0.0348,-1.5682,rough,14.0,1,2.654
4740,151.68,2.6252,5.3973,1.0585,0.3633,-0.0341,-1.5707,rough,14.0,1,2.654
4750,152.00,2.6252,5.3974,1.0585,0.3633,-0.0339,-1.5714,rough,14.0,1,2.654
4760,152.32,2.6251,5.3974,1.0584,0.3633,-0.0339,-1.5716,rough,14.0,1,2.654
4770,152.64,2.6244,5.3973,1.0581,0.3632,-0.0353,-1.5660,rough,14.0,1,2.653
4780,152.96,2.6252,5.3973,1.0584,0.3632,-0.0343,-1.5701,rough,14.0,1,2.654
4790,153.28,2.6253,5.3974,1.0585,0.3633,-0.0340,-1.5712,rough,14.0,1,2.654
4800,153.60,2.6252,5.3974,1.0585,0.3633,-0.0339,-1.5716,rough,14.0,1,2.654
4810,153.92,2.6238,5.3976,1.0576,0.3631,-0.0349,-1.5633,rough,14.0,1,2.653
4820,154.24,2.6249,5.3973,1.0583,0.3632,-0.0347,-1.5686,rough,14.0,1,2.654
4830,154.56,2.6253,5.3973,1.0585,0.3633,-0.0340,-1.5708,rough,14.0,1,2.654
4840,154.88,2.6252,5.3974,1.0585,0.3633,-0.0339,-1.5714,rough,14.0,1,2.654
4850,155.20,2.6251,5.3974,1.0584,0.3633,-0.0339,-1.5716,rough,14.0,1,2.654
4860,155.52,2.6244,5.3973,1.0581,0.3632,-0.0353,-1.5660,rough,14.0,1,2.653
4870,155.84,2.6252,5.3973,1.0584,0.3632,-0.0343,-1.5701,rough,14.0,1,2.654
4880,156.16,2.6253,5.3974,1.0585,0.3633,-0.0340,-1.5712,rough,14.0,1,2.654
4890,156.48,2.6252,5.3974,1.0585,0.3633,-0.0339,-1.5716,rough,14.0,1,2.654
4900,156.80,2.6238,5.3976,1.0576,0.3631,-0.0348,-1.5633,rough,14.0,1,2.653
4910,157.12,2.6249,5.3973,1.0583,0.3632,-0.0347,-1.5687,rough,14.0,1,2.654
4920,157.44,2.6252,5.3973,1.0585,0.3633,-0.0340,-1.5708,rough,14.0,1,2.654
4930,157.76,2.6252,5.3974,1.0585,0.3633,-0.0339,-1.5714,rough,14.0,1,2.654
4940,158.08,2.6251,5.3974,1.0584,0.3633,-0.0339,-1.5716,rough,14.0,1,2.654
4950,158.40,2.6246,5.3973,1.0581,0.3632,-0.0351,-1.5667,rough,14.0,1,2.654
4960,158.72,2.6252,5.3973,1.0584,0.3632,-0.0342,-1.5703,rough,14.0,1,2.654
4970,159.04,2.6253,5.3974,1.0585,0.3633,-0.0340,-1.5713,rough,14.0,1,2.654
4980,159.36,2.6252,5.3974,1.0584,0.3633,-0.0339,-1.5716,rough,14.0,1,2.654
4990,159.68,2.6240,5.3973,1.0578,0.3631,-0.0355,-1.5636,rough,14.0,1,2.653
5000,160.00,2.6251,5.3973,1.0584,0.3632,-0.0345,-1.5693,rough,14.0,1,2.654
5010,160.32,2.6253,5.3973,1.0585,0.3633,-0.0340,-1.5710,rough,14.0,1,2.654
5020,160.64,2.6252,5.3974,1.0585,0.3633,-0.0339,-1.5715,rough,14.0,1,2.654
5030,160.96,2.6240,5.3978,1.0581,0.3630,-0.0377,-1.5629,rough,14.0,1,2.653
5040,161.28,2.6247,5.3973,1.0582,0.3632,-0.0350,-1.5673,rough,14.0,1,2.654
5050,161.60,2.6252,5.3973,1.0584,0.3632,-0.0341,-1.5704,rough,14.0,1,2.654
5060,161.92,2.6252,5.3974,1.0585,0.3633,-0.0340,-1.5713,rough,14.0,1,2.654
5070,162.24,2.6251,5.3974,1.0584,0.3633,-0.0339,-1.5716,rough,14.0,1,2.654
5080,162.56,2.6241,5.3973,1.0579,0.3631,-0.0354,-1.5645,rough,14.0,1,2.653
5090,162.88,2.6251,5.3973,1.0584,0.3632,-0.0344,-1.5696,rough,14.0,1,2.654
5100,163.20,2.6253,5.3973,1.0585,0.3633,-0.0340,-1.5711,rough,14.0,1,2.654
5110,163.52,2.6252,5.3974,1.0585,0.3633,-0.0339,-1.5715,rough,14.0,1,2.654
5120,163.84,2.6239,5.3980,1.0570,0.3630,-0.0314,-1.5622,rough,14.0,1,2.653
5130,164.16,2.6248,5.3973,1.0582,0.3632,-0.0349,-1.5678,rough,14.0,1,2.654
5140,164.48,2.6252,5.3973,1.0585,0.3633,-0.0341,-1.5706,rough,14.0,1,2.654
5150,164.80,2.6252,5.3974,1.0585,0.3633,-0.0339,-1.5714,rough,14.0,1,2.654
5160,165.12,2.6251,5.3974,1.0584,0.3633,-0.0339,-1.5716,rough,14.0,1,2.654
5170,165.44,2.6243,5.3973,1.0580,0.3631,-0.0354,-1.5653,rough,14.0,1,2.653
5180,165.76,2.6251,5.3973,1.0584,0.3632,-0.0343,-1.5699,rough,14.0,1,2.654
5190,166.08,2.6253,5.3974,1.0585,0.3633,-0.0340,-1.5711,rough,14.0,1,2.654
5200,166.40,2.6252,5.3974,1.0585,0.3633,-0.0339,-1.5715,rough,14.0,1,2.654
5210,166.72,2.6238,5.3978,1.0575,0.3631,-0.0344,-1.5630,rough,14.0,1,2.653
5220,167.04,2.6249,5.3973,1.0583,0.3632,-0.0348,-1.5682,rough,14.0,1,2.654
5230,167.36,2.6252,5.3973,1.0585,0.3633,-0.0341,-1.5707,rough,14.0,1,2.654
5240,167.68,2.6252,5.3974,1.0585,0.3633,-0.0339,-1.5714,rough,14.0,1,2.654
5250,168.00,2.6251,5.3974,1.0584,0.3633,-0.0339,-1.5716,rough,14.0,1,2.654
5260,168.32,2.6244,5.3973,1.0581,0.3632,-0.0353,-1.5660,rough,14.0,1,2.653
5270,168.64,2.6252,5.3973,1.0584,0.3632,-0.0343,-1.5701,rough,14.0,1,2.654
5280,168.96,2.6253,5.3974,1.0585,0.3633,-0.0340,-1.5712,rough,14.0,1,2.654
5290,169.28,2.6252,5.3974,1.0585,0.3633,-0.0339,-1.5716,rough,14.0,1,2.654
5300,169.60,2.6238,5.3976,1.0576,0.3631,-0.0348,-1.5633,rough,14.0,1,2.653
5310,169.92,2.6249,5.3973,1.0583,0.3632,-0.0347,-1.5687,rough,14.0,1,2.654
5320,170.24,2.6253,5.3973,1.0585,0.3633,-0.0340,-1.5708,rough,14.0,1,2.654
5330,170.56,2.6252,5.3974,1.0585,0.3633,-0.0339,-1.5714,rough,14.0,1,2.654
5340,170.88,2.6251,5.3974,1.0584,0.3633,-0.0339,-1.5716,rough,14.0,1,2.654
5350,171.20,2.6246,5.3973,1.0581,0.3632,-0.0352,-1.5667,rough,14.0,1,2.654
5360,171.52,2.6252,5.3973,1.0584,0.3632,-0.0342,-1.5703,rough,14.0,1,2.654
5370,171.84,2.6253,5.3974,1.0585,0.3633,-0.0340,-1.5713,rough,14.0,1,2.654
5380,172.16,2.6252,5.3974,1.0585,0.3633,-0.0339,-1.5716,rough,14.0,1,2.654
5390,172.48,2.6239,5.3975,1.0577,0.3631,-0.0352,-1.5634,rough,14.0,1,2.653
5400,172.80,2.6250,5.3973,1.0584,0.3632,-0.0346,-1.5690,rough,14.0,1,2.654
5410,173.12,2.6253,5.3973,1.0585,0.3633,-0.0340,-1.5709,rough,14.0,1,2.654
5420,173.44,2.6252,5.3974,1.0585,0.3633,-0.0339,-1.5715,rough,14.0,1,2.654
5430,173.76,2.6251,5.3974,1.0584,0.3633,-0.0339,-1.5716,rough,14.0,1,2.654
5440,174.08,2.6244,5.3973,1.0581,0.3632,-0.0352,-1.5661,rough,14.0,1,2.653
5450,174.40,2.6252,5.3973,1.0584,0.3632,-0.0343,-1.5701,rough,14.0,1,2.654
5460,174.72,2.6252,5.3974,1.0585,0.3633,-0.0340,-1.5712,rough,14.0,1,2.654
5470,175.04,2.6252,5.3974,1.0584,0.3633,-0.0339,-1.5716,rough,14.0,1,2.654
5480,175.36,2.6239,5.3975,1.0577,0.3631,-0.0352,-1.5635,rough,14.0,1,2.653
5490,175.68,2.6250,5.3973,1.0583,0.3632,-0.0346,-1.5690,rough,14.0,1,2.654
5500,176.00,2.6252,5.3973,1.0585,0.3633,-0.0340,-1.5709,rough,14.0,1,2.654
5510,176.32,2.6252,5.3974,1.0585,0.3633,-0.0339,-1.5715,rough,14.0,1,2.654
5520,176.64,2.6240,5.3978,1.0581,0.3630,-0.0377,-1.5629,rough,14.0,1,2.653
5530,176.96,2.6247,5.3973,1.0582,0.3632,-0.0350,-1.5673,rough,14.0,1,2.654
5540,177.28,2.6252,5.3973,1.0584,0.3632,-0.0341,-1.5704,rough,14.0,1,2.654
5550,177.60,2.6252,5.3974,1.0585,0.3633,-0.0340,-1.5713,rough,14.0,1,2.654
5560,177.92,2.6251,5.3974,1.0584,0.3633,-0.0339,-1.5716,rough,14.0,1,2.654
5570,178.24,2.6243,5.3973,1.0580,0.3631,-0.0354,-1.5653,rough,14.0,1,2.653
5580,178.56,2.6251,5.3973,1.0584,0.3632,-0.0343,-1.5699,rough,14.0,1,2.654
5590,178.88,2.6253,5.3974,1.0585,0.3633,-0.0340,-1.5711,rough,14.0,1,2.654
5600,179.20,2.6252,5.3974,1.0585,0.3633,-0.0339,-1.5715,rough,14.0,1,2.654
5610,179.52,2.6238,5.3978,1.0575,0.3631,-0.0344,-1.5630,rough,14.0,1,2.653
5620,179.84,2.6249,5.3973,1.0583,0.3632,-0.0348,-1.5682,rough,14.0,1,2.654
5630,180.16,2.6252,5.3973,1.0585,0.3633,-0.0341,-1.5707,rough,14.0,1,2.654
5640,180.48,2.6252,5.3974,1.0585,0.3633,-0.0339,-1.5714,rough,14.0,1,2.654
5650,180.80,2.6251,5.3974,1.0584,0.3633,-0.0339,-1.5716,rough,14.0,1,2.654
5660,181.12,2.6243,5.3973,1.0580,0.3631,-0.0353,-1.5654,rough,14.0,1,2.653
5670,181.44,2.6251,5.3973,1.0584,0.3632,-0.0343,-1.5699,rough,14.0,1,2.654
5680,181.76,2.6252,5.3974,1.0585,0.3633,-0.0340,-1.5712,rough,14.0,1,2.654
5690,182.08,2.6252,5.3974,1.0584,0.3633,-0.0339,-1.5715,rough,14.0,1,2.654
5700,182.40,2.6239,5.3975,1.0577,0.3631,-0.0352,-1.5634,rough,14.0,1,2.653
5710,182.72,2.6250,5.3973,1.0584,0.3632,-0.0346,-1.5690,rough,14.0,1,2.654
5720,183.04,2.6253,5.3973,1.0585,0.3633,-0.0340,-1.5709,rough,14.0,1,2.654
5730,183.36,2.6252,5.3974,1.0585,0.3633,-0.0339,-1.5715,rough,14.0,1,2.654
5740,183.68,2.6251,5.3974,1.0584,0.3633,-0.0339,-1.5716,rough,14.0,1,2.654
5750,184.00,2.6246,5.3973,1.0581,0.3632,-0.0351,-1.5667,rough,14.0,1,2.654
5760,184.32,2.6252,5.3973,1.0584,0.3632,-0.0342,-1.5703,rough,14.0,1,2.654
5770,184.64,2.6253,5.3974,1.0585,0.3633,-0.0340,-1.5713,rough,14.0,1,2.654
5780,184.96,2.6252,5.3974,1.0585,0.3633,-0.0339,-1.5716,rough,14.0,1,2.654
5790,185.28,2.6239,5.3975,1.0577,0.3631,-0.0352,-1.5635,rough,14.0,1,2.653
5800,185.60,2.6250,5.3973,1.0583,0.3632,-0.0346,-1.5690,rough,14.0,1,2.654
5810,185.92,2.6253,5.3973,1.0585,0.3633,-0.0340,-1.5709,rough,14.0,1,2.654
5820,186.24,2.6252,5.3974,1.0585,0.3633,-0.0339,-1.5715,rough,14.0,1,2.654
5830,186.56,2.6251,5.3974,1.0584,0.3633,-0.0339,-1.5716,rough,14.0,1,2.654
5840,186.88,2.6246,5.3973,1.0581,0.3632,-0.0351,-1.5667,rough,14.0,1,2.654
5850,187.20,2.6252,5.3973,1.0584,0.3632,-0.0342,-1.5703,rough,14.0,1,2.654
5860,187.52,2.6253,5.3974,1.0585,0.3633,-0.0340,-1.5713,rough,14.0,1,2.654
5870,187.84,2.6252,5.3974,1.0584,0.3633,-0.0339,-1.5716,rough,14.0,1,2.654
5880,188.16,2.6240,5.3973,1.0578,0.3631,-0.0355,-1.5636,rough,14.0,1,2.653
5890,188.48,2.6251,5.3973,1.0584,0.3632,-0.0345,-1.5693,rough,14.0,1,2.654
5900,188.80,2.6253,5.3973,1.0585,0.3633,-0.0340,-1.5710,rough,14.0,1,2.654
5910,189.12,2.6252,5.3974,1.0585,0.3633,-0.0339,-1.5715,rough,14.0,1,2.654
5920,189.44,2.6240,5.3978,1.0581,0.3630,-0.0377,-1.5629,rough,14.0,1,2.653
5930,189.76,2.6247,5.3973,1.0582,0.3632,-0.0350,-1.5673,rough,14.0,1,2.654
5940,190.08,2.6252,5.3973,1.0584,0.3632,-0.0342,-1.5704,rough,14.0,1,2.654
5950,190.40,2.6253,5.3974,1.0585,0.3633,-0.0340,-1.5713,rough,14.0,1,2.654
5960,190.72,2.6252,5.3974,1.0584,0.3633,-0.0339,-1.5716,rough,14.0,1,2.654
5970,191.04,2.6240,5.3973,1.0578,0.3631,-0.0355,-1.5636,rough,14.0,1,2.653
5980,191.36,2.6251,5.3973,1.0584,0.3632,-0.0345,-1.5693,rough,14.0,1,2.654
5990,191.68,2.6253,5.3973,1.0585,0.3633,-0.0340,-1.5710,rough,14.0,1,2.654
6000,192.00,2.6252,5.3974,1.0585,0.3633,-0.0339,-1.5715,rough,14.0,1,2.654
6010,192.32,2.6239,5.3980,1.0570,0.3630,-0.0314,-1.5622,rough,14.0,1,2.653
6020,192.64,2.6248,5.3973,1.0582,0.3632,-0.0349,-1.5678,rough,14.0,1,2.654
6030,192.96,2.6252,5.3973,1.0585,0.3633,-0.0341,-1.5706,rough,14.0,1,2.654
6040,193.28,2.6252,5.3974,1.0585,0.3633,-0.0339,-1.5714,rough,14.0,1,2.654
6050,193.60,2.6251,5.3974,1.0584,0.3633,-0.0339,-1.5716,rough,14.0,1,2.654
6060,193.92,2.6241,5.3973,1.0579,0.3631,-0.0354,-1.5646,rough,14.0,1,2.653
6070,194.24,2.6251,5.3973,1.0584,0.3632,-0.0344,-1.5696,rough,14.0,1,2.654
6080,194.56,2.6253,5.3974,1.0585,0.3633,-0.0340,-1.5711,rough,14.0,1,2.654
6090,194.88,2.6252,5.3974,1.0585,0.3633,-0.0339,-1.5715,rough,14.0,1,2.654
6100,195.20,2.6238,5.3978,1.0575,0.3631,-0.0344,-1.5630,rough,14.0,1,2.653
6110,195.52,2.6249,5.3973,1.0583,0.3632,-0.0348,-1.5682,rough,14.0,1,2.654
6120,195.84,2.6252,5.3973,1.0585,0.3633,-0.0341,-1.5707,rough,14.0,1,2.654
6130,196.16,2.6252,5.3974,1.0585,0.3633,-0.0339,-1.5714,rough,14.0,1,2.654
6140,196.48,2.6251,5.3974,1.0584,0.3633,-0.0339,-1.5716,rough,14.0,1,2.654
6150,196.80,2.6244,5.3973,1.0581,0.3632,-0.0352,-1.5660,rough,14.0,1,2.653
6160,197.12,2.6252,5.3973,1.0584,0.3632,-0.0343,-1.5701,rough,14.0,1,2.654
6170,197.44,2.6253,5.3974,1.0585,0.3633,-0.0340,-1.5712,rough,14.0,1,2.654
6180,197.76,2.6252,5.3974,1.0584,0.3633,-0.0339,-1.5716,rough,14.0,1,2.654
6190,198.08,2.6239,5.3975,1.0577,0.3631,-0.0352,-1.5634,rough,14.0,1,2.653
6200,198.40,2.6250,5.3973,1.0583,0.3632,-0.0346,-1.5690,rough,14.0,1,2.654
6210,198.72,2.6253,5.3973,1.0585,0.3633,-0.0340,-1.5709,rough,14.0,1,2.654
6220,199.04,2.6252,5.3974,1.0585,0.3633,-0.0339,-1.5715,rough,14.0,1,2.654
6230,199.36,2.6251,5.3974,1.0584,0.3633,-0.0339,-1.5716,rough,14.0,1,2.654
6240,199.68,2.6246,5.3973,1.0581,0.3632,-0.0351,-1.5667,rough,14.0,1,2.654
6250,200.00,2.6252,5.3973,1.0584,0.3632,-0.0342,-1.5703,rough,14.0,1,2.654
6260,200.32,2.6253,5.3974,1.0585,0.3633,-0.0340,-1.5713,rough,14.0,1,2.654
6270,200.64,2.6252,5.3974,1.0584,0.3633,-0.0339,-1.5716,rough,14.0,1,2.654
6280,200.96,2.6239,5.3975,1.0577,0.3631,-0.0352,-1.5635,rough,14.0,1,2.653
6290,201.28,2.6250,5.3973,1.0583,0.3632,-0.0346,-1.5690,rough,14.0,1,2.654
6300,201.60,2.6252,5.3973,1.0585,0.3633,-0.0340,-1.5709,rough,14.0,1,2.654
6310,201.92,2.6252,5.3974,1.0585,0.3633,-0.0339,-1.5715,rough,14.0,1,2.654
6320,202.24,2.6239,5.3980,1.0570,0.3630,-0.0314,-1.5621,rough,14.0,1,2.653
6330,202.56,2.6248,5.3973,1.0582,0.3632,-0.0349,-1.5678,rough,14.0,1,2.654
6340,202.88,2.6252,5.3973,1.0585,0.3633,-0.0341,-1.5706,rough,14.0,1,2.654
6350,203.20,2.6253,5.3974,1.0585,0.3633,-0.0339,-1.5714,rough,14.0,1,2.654
6360,203.52,2.6251,5.3974,1.0584,0.3633,-0.0339,-1.5716,rough,14.0,1,2.654
6370,203.84,2.6241,5.3973,1.0579,0.3631,-0.0354,-1.5645,rough,14.0,1,2.653
6380,204.16,2.6251,5.3973,1.0584,0.3632,-0.0344,-1.5696,rough,14.0,1,2.654
6390,204.48,2.6253,5.3973,1.0585,0.3633,-0.0340,-1.5711,rough,14.0,1,2.654
6400,204.80,2.6252,5.3974,1.0585,0.3633,-0.0339,-1.5715,rough,14.0,1,2.654
6410,205.12,2.6239,5.3980,1.0570,0.3630,-0.0314,-1.5622,rough,14.0,1,2.653
6420,205.44,2.6248,5.3973,1.0582,0.3632,-0.0349,-1.5678,rough,14.0,1,2.654
6430,205.76,2.6252,5.3973,1.0585,0.3633,-0.0341,-1.5706,rough,14.0,1,2.654
6440,206.08,2.6252,5.3974,1.0585,0.3633,-0.0339,-1.5714,rough,14.0,1,2.654
6450,206.40,2.6251,5.3974,1.0584,0.3633,-0.0339,-1.5716,rough,14.0,1,2.654
6460,206.72,2.6243,5.3973,1.0580,0.3632,-0.0354,-1.5653,rough,14.0,1,2.653
6470,207.04,2.6252,5.3973,1.0584,0.3632,-0.0343,-1.5699,rough,14.0,1,2.654
6480,207.36,2.6253,5.3974,1.0585,0.3633,-0.0340,-1.5711,rough,14.0,1,2.654
6490,207.68,2.6252,5.3974,1.0585,0.3633,-0.0339,-1.5715,rough,14.0,1,2.654
6500,208.00,2.6238,5.3978,1.0575,0.3631,-0.0344,-1.5630,rough,14.0,1,2.653
6510,208.32,2.6249,5.3973,1.0583,0.3632,-0.0348,-1.5682,rough,14.0,1,2.654
6520,208.64,2.6253,5.3973,1.0585,0.3633,-0.0341,-1.5707,rough,14.0,1,2.654
6530,208.96,2.6252,5.3974,1.0585,0.3633,-0.0339,-1.5714,rough,14.0,1,2.654
6540,209.28,2.6251,5.3974,1.0584,0.3633,-0.0339,-1.5716,rough,14.0,1,2.654
6550,209.60,2.6243,5.3973,1.0580,0.3631,-0.0353,-1.5653,rough,14.0,1,2.653
6560,209.92,2.6251,5.3973,1.0584,0.3632,-0.0343,-1.5699,rough,14.0,1,2.654
6570,210.24,2.6253,5.3974,1.0585,0.3633,-0.0340,-1.5711,rough,14.0,1,2.654
6580,210.56,2.6252,5.3974,1.0585,0.3633,-0.0339,-1.5715,rough,14.0,1,2.654
6590,210.88,2.6238,5.3978,1.0575,0.3631,-0.0344,-1.5631,rough,14.0,1,2.653
6600,211.20,2.6249,5.3973,1.0583,0.3632,-0.0348,-1.5683,rough,14.0,1,2.654
6610,211.52,2.6252,5.3973,1.0585,0.3633,-0.0341,-1.5707,rough,14.0,1,2.654
6620,211.84,2.6252,5.3974,1.0585,0.3633,-0.0339,-1.5714,rough,14.0,1,2.654
6630,212.16,2.6251,5.3974,1.0584,0.3633,-0.0339,-1.5716,rough,14.0,1,2.654
6640,212.48,2.6244,5.3973,1.0581,0.3632,-0.0352,-1.5660,rough,14.0,1,2.653
6650,212.80,2.6252,5.3973,1.0584,0.3632,-0.0343,-1.5701,rough,14.0,1,2.654
6660,213.12,2.6253,5.3974,1.0585,0.3633,-0.0340,-1.5712,rough,14.0,1,2.654
6670,213.44,2.6252,5.3974,1.0584,0.3633,-0.0339,-1.5716,rough,14.0,1,2.654
6680,213.76,2.6239,5.3975,1.0577,0.3631,-0.0352,-1.5635,rough,14.0,1,2.653
6690,214.08,2.6250,5.3973,1.0583,0.3632,-0.0346,-1.5690,rough,14.0,1,2.654
6700,214.40,2.6253,5.3973,1.0585,0.3633,-0.0340,-1.5709,rough,14.0,1,2.654
6710,214.72,2.6252,5.3974,1.0585,0.3633,-0.0339,-1.5715,rough,14.0,1,2.654
6720,215.04,2.6240,5.3978,1.0581,0.3630,-0.0378,-1.5629,rough,14.0,1,2.653
6730,215.36,2.6247,5.3973,1.0582,0.3632,-0.0350,-1.5672,rough,14.0,1,2.654
6740,215.68,2.6252,5.3973,1.0584,0.3632,-0.0342,-1.5704,rough,14.0,1,2.654
6750,216.00,2.6253,5.3974,1.0585,0.3633,-0.0340,-1.5713,rough,14.0,1,2.654
6760,216.32,2.6252,5.3974,1.0584,0.3633,-0.0339,-1.5716,rough,14.0,1,2.654
6770,216.64,2.6240,5.3973,1.0578,0.3631,-0.0355,-1.5636,rough,14.0,1,2.653
6780,216.96,2.6251,5.3973,1.0584,0.3632,-0.0345,-1.5693,rough,14.0,1,2.654
6790,217.28,2.6253,5.3973,1.0585,0.3633,-0.0340,-1.5710,rough,14.0,1,2.654
6800,217.60,2.6252,5.3974,1.0585,0.3633,-0.0339,-1.5715,rough,14.0,1,2.654
6810,217.92,2.6240,5.3978,1.0581,0.3630,-0.0377,-1.5629,rough,14.0,1,2.653
6820,218.24,2.6247,5.3973,1.0582,0.3632,-0.0350,-1.5673,rough,14.0,1,2.654
6830,218.56,2.6252,5.3973,1.0584,0.3632,-0.0341,-1.5704,rough,14.0,1,2.654
6840,218.88,2.6252,5.3974,1.0585,0.3633,-0.0340,-1.5713,rough,14.0,1,2.654
6850,219.20,2.6251,5.3974,1.0584,0.3633,-0.0339,-1.5716,rough,14.0,1,2.654
6860,219.52,2.6241,5.3973,1.0579,0.3631,-0.0354,-1.5645,rough,14.0,1,2.653
6870,219.84,2.6251,5.3973,1.0584,0.3632,-0.0344,-1.5696,rough,14.0,1,2.654
6880,220.16,2.6253,5.3974,1.0585,0.3633,-0.0340,-1.5711,rough,14.0,1,2.654
6890,220.48,2.6252,5.3974,1.0585,0.3633,-0.0339,-1.5715,rough,14.0,1,2.654
6900,220.80,2.6239,5.3980,1.0570,0.3630,-0.0313,-1.5622,rough,14.0,1,2.653
6910,221.12,2.6248,5.3973,1.0582,0.3632,-0.0349,-1.5678,rough,14.0,1,2.654
6920,221.44,2.6252,5.3973,1.0584,0.3633,-0.0341,-1.5706,rough,14.0,1,2.654
6930,221.76,2.6252,5.3974,1.0585,0.3633,-0.0339,-1.5714,rough,14.0,1,2.654
6940,222.08,2.6251,5.3974,1.0584,0.3633,-0.0339,-1.5716,rough,14.0,1,2.654
6950,222.40,2.6244,5.3973,1.0581,0.3632,-0.0353,-1.5660,rough,14.0,1,2.653
6960,222.72,2.6252,5.3973,1.0584,0.3632,-0.0343,-1.5701,rough,14.0,1,2.654
6970,223.04,2.6253,5.3974,1.0585,0.3633,-0.0340,-1.5712,rough,14.0,1,2.654
6980,223.36,2.6252,5.3974,1.0585,0.3633,-0.0339,-1.5716,rough,14.0,1,2.654
6990,223.68,2.6238,5.3976,1.0576,0.3631,-0.0349,-1.5632,rough,14.0,1,2.653
7000,224.00,2.6249,5.3973,1.0583,0.3632,-0.0347,-1.5686,rough,14.0,1,2.654
7010,224.32,2.6253,5.3973,1.0585,0.3633,-0.0340,-1.5708,rough,14.0,1,2.654
7020,224.64,2.6252,5.3974,1.0585,0.3633,-0.0339,-1.5714,rough,14.0,1,2.654
7030,224.96,2.6251,5.3974,1.0584,0.3633,-0.0339,-1.5716,rough,14.0,1,2.654
7040,225.28,2.6244,5.3973,1.0581,0.3632,-0.0353,-1.5660,rough,14.0,1,2.653
7050,225.60,2.6252,5.3973,1.0584,0.3632,-0.0343,-1.5701,rough,14.0,1,2.654
7060,225.92,2.6253,5.3974,1.0585,0.3633,-0.0340,-1.5712,rough,14.0,1,2.654
7070,226.24,2.6252,5.3974,1.0585,0.3633,-0.0339,-1.5716,rough,14.0,1,2.654
7080,226.56,2.6238,5.3976,1.0576,0.3631,-0.0348,-1.5633,rough,14.0,1,2.653
7090,226.88,2.6249,5.3973,1.0583,0.3632,-0.0347,-1.5687,rough,14.0,1,2.654
7100,227.20,2.6253,5.3973,1.0585,0.3633,-0.0340,-1.5708,rough,14.0,1,2.654
7110,227.52,2.6252,5.3974,1.0585,0.3633,-0.0339,-1.5714,rough,14.0,1,2.654
7120,227.84,2.6251,5.3974,1.0584,0.3633,-0.0339,-1.5716,rough,14.0,1,2.654
7130,228.16,2.6246,5.3973,1.0581,0.3632,-0.0351,-1.5667,rough,14.0,1,2.654
7140,228.48,2.6252,5.3973,1.0584,0.3632,-0.0342,-1.5703,rough,14.0,1,2.654
7150,228.80,2.6253,5.3974,1.0585,0.3633,-0.0340,-1.5713,rough,14.0,1,2.654
7160,229.12,2.6252,5.3974,1.0585,0.3633,-0.0339,-1.5716,rough,14.0,1,2.654
7170,229.44,2.6239,5.3975,1.0577,0.3631,-0.0352,-1.5635,rough,14.0,1,2.653
7180,229.76,2.6250,5.3973,1.0583,0.3632,-0.0346,-1.5690,rough,14.0,1,2.654
7190,230.08,2.6253,5.3973,1.0585,0.3633,-0.0340,-1.5709,rough,14.0,1,2.654
7200,230.40,2.6252,5.3974,1.0585,0.3633,-0.0339,-1.5715,rough,14.0,1,2.654
7210,230.72,2.6251,5.3974,1.0584,0.3633,-0.0339,-1.5716,rough,14.0,1,2.654
7220,231.04,2.6246,5.3973,1.0581,0.3632,-0.0351,-1.5667,rough,14.0,1,2.654
7230,231.36,2.6252,5.3973,1.0584,0.3632,-0.0342,-1.5703,rough,14.0,1,2.654
7240,231.68,2.6253,5.3974,1.0585,0.3633,-0.0340,-1.5713,rough,14.0,1,2.654
7250,232.00,2.6252,5.3974,1.0584,0.3633,-0.0339,-1.5716,rough,14.0,1,2.654
7260,232.32,2.6240,5.3973,1.0578,0.3631,-0.0355,-1.5636,rough,14.0,1,2.653
7270,232.64,2.6251,5.3973,1.0584,0.3632,-0.0345,-1.5693,rough,14.0,1,2.654
7280,232.96,2.6253,5.3973,1.0585,0.3633,-0.0340,-1.5710,rough,14.0,1,2.654
7290,233.28,2.6252,5.3974,1.0585,0.3633,-0.0339,-1.5715,rough,14.0,1,2.654
7300,233.60,2.6240,5.3978,1.0581,0.3630,-0.0377,-1.5629,rough,14.0,1,2.653
7310,233.92,2.6247,5.3973,1.0582,0.3632,-0.0350,-1.5673,rough,14.0,1,2.654
7320,234.24,2.6252,5.3973,1.0584,0.3632,-0.0341,-1.5704,rough,14.0,1,2.654
7330,234.56,2.6252,5.3974,1.0585,0.3633,-0.0340,-1.5713,rough,14.0,1,2.654
7340,234.88,2.6251,5.3974,1.0584,0.3633,-0.0339,-1.5716,rough,14.0,1,2.654
7350,235.20,2.6241,5.3973,1.0579,0.3631,-0.0354,-1.5645,rough,14.0,1,2.653
7360,235.52,2.6251,5.3973,1.0584,0.3632,-0.0344,-1.5696,rough,14.0,1,2.654
7370,235.84,2.6253,5.3974,1.0585,0.3633,-0.0340,-1.5711,rough,14.0,1,2.654
7380,236.16,2.6252,5.3974,1.0585,0.3633,-0.0339,-1.5715,rough,14.0,1,2.654
7390,236.48,2.6239,5.3980,1.0570,0.3630,-0.0314,-1.5622,rough,14.0,1,2.653
7400,236.80,2.6248,5.3973,1.0582,0.3632,-0.0349,-1.5678,rough,14.0,1,2.654
7410,237.12,2.6252,5.3973,1.0584,0.3633,-0.0341,-1.5706,rough,14.0,1,2.654
7420,237.44,2.6252,5.3974,1.0585,0.3633,-0.0339,-1.5714,rough,14.0,1,2.654
7430,237.76,2.6251,5.3974,1.0584,0.3633,-0.0339,-1.5716,rough,14.0,1,2.654
7440,238.08,2.6243,5.3973,1.0580,0.3631,-0.0353,-1.5653,rough,14.0,1,2.653
7450,238.40,2.6251,5.3973,1.0584,0.3632,-0.0343,-1.5699,rough,14.0,1,2.654
7460,238.72,2.6253,5.3974,1.0585,0.3633,-0.0340,-1.5711,rough,14.0,1,2.654
7470,239.04,2.6252,5.3974,1.0585,0.3633,-0.0339,-1.5715,rough,14.0,1,2.654
7480,239.36,2.6238,5.3976,1.0576,0.3631,-0.0348,-1.5633,rough,14.0,1,2.653
7490,239.68,2.6249,5.3973,1.0583,0.3632,-0.0347,-1.5687,rough,14.0,1,2.654
7500,240.00,2.6253,5.3973,1.0585,0.3633,-0.0340,-1.5708,rough,14.0,1,2.654
7510,240.32,2.6252,5.3974,1.0585,0.3633,-0.0339,-1.5714,rough,14.0,1,2.654
7520,240.64,2.6251,5.3974,1.0584,0.3633,-0.0339,-1.5716,rough,14.0,1,2.654
7530,240.96,2.6244,5.3973,1.0581,0.3632,-0.0352,-1.5661,rough,14.0,1,2.653
7540,241.28,2.6252,5.3973,1.0584,0.3632,-0.0343,-1.5701,rough,14.0,1,2.654
7550,241.60,2.6252,5.3974,1.0585,0.3633,-0.0340,-1.5712,rough,14.0,1,2.654
7560,241.92,2.6252,5.3974,1.0584,0.3633,-0.0339,-1.5716,rough,14.0,1,2.654
7570,242.24,2.6240,5.3973,1.0578,0.3631,-0.0355,-1.5636,rough,14.0,1,2.653
7580,242.56,2.6251,5.3973,1.0584,0.3632,-0.0345,-1.5693,rough,14.0,1,2.654
7590,242.88,2.6253,5.3973,1.0585,0.3633,-0.0340,-1.5710,rough,14.0,1,2.654
7600,243.20,2.6252,5.3974,1.0585,0.3633,-0.0339,-1.5715,rough,14.0,1,2.654
7610,243.52,2.6240,5.3978,1.0581,0.3630,-0.0377,-1.5629,rough,14.0,1,2.653
7620,243.84,2.6247,5.3973,1.0582,0.3632,-0.0350,-1.5673,rough,14.0,1,2.654
7630,244.16,2.6252,5.3973,1.0584,0.3632,-0.0342,-1.5704,rough,14.0,1,2.654
7640,244.48,2.6253,5.3974,1.0585,0.3633,-0.0340,-1.5713,rough,14.0,1,2.654
7650,244.80,2.6252,5.3974,1.0584,0.3633,-0.0339,-1.5716,rough,14.0,1,2.654
7660,245.12,2.6240,5.3973,1.0578,0.3631,-0.0355,-1.5636,rough,14.0,1,2.653
7670,245.44,2.6251,5.3973,1.0584,0.3632,-0.0345,-1.5693,rough,14.0,1,2.654
7680,245.76,2.6253,5.3973,1.0585,0.3633,-0.0340,-1.5710,rough,14.0,1,2.654
7690,246.08,2.6252,5.3974,1.0585,0.3633,-0.0339,-1.5715,rough,14.0,1,2.654
7700,246.40,2.6240,5.3978,1.0581,0.3630,-0.0377,-1.5629,rough,14.0,1,2.653
7710,246.72,2.6247,5.3973,1.0582,0.3632,-0.0350,-1.5673,rough,14.0,1,2.654
7720,247.04,2.6252,5.3973,1.0584,0.3632,-0.0341,-1.5704,rough,14.0,1,2.654
7730,247.36,2.6252,5.3974,1.0585,0.3633,-0.0340,-1.5713,rough,14.0,1,2.654
7740,247.68,2.6251,5.3974,1.0584,0.3633,-0.0339,-1.5716,rough,14.0,1,2.654
7750,248.00,2.6241,5.3973,1.0579,0.3631,-0.0354,-1.5645,rough,14.0,1,2.653
7760,248.32,2.6251,5.3973,1.0584,0.3632,-0.0344,-1.5696,rough,14.0,1,2.654
7770,248.64,2.6253,5.3974,1.0585,0.3633,-0.0340,-1.5711,rough,14.0,1,2.654
7780,248.96,2.6252,5.3974,1.0585,0.3633,-0.0339,-1.5715,rough,14.0,1,2.654
7790,249.28,2.6238,5.3978,1.0575,0.3631,-0.0344,-1.5630,rough,14.0,1,2.653
7800,249.60,2.6249,5.3973,1.0583,0.3632,-0.0348,-1.5682,rough,14.0,1,2.654
7810,249.92,2.6253,5.3973,1.0585,0.3633,-0.0341,-1.5707,rough,14.0,1,2.654
7820,250.24,2.6252,5.3974,1.0585,0.3633,-0.0339,-1.5714,rough,14.0,1,2.654
7830,250.56,2.6251,5.3974,1.0584,0.3633,-0.0339,-1.5716,rough,14.0,1,2.654
7840,250.88,2.6243,5.3973,1.0580,0.3631,-0.0354,-1.5653,rough,14.0,1,2.653
7850,251.20,2.6252,5.3973,1.0584,0.3632,-0.0343,-1.5699,rough,14.0,1,2.654
7860,251.52,2.6253,5.3974,1.0585,0.3633,-0.0340,-1.5711,rough,14.0,1,2.654
7870,251.84,2.6252,5.3974,1.0585,0.3633,-0.0339,-1.5715,rough,14.0,1,2.654
7880,252.16,2.6238,5.3978,1.0575,0.3631,-0.0344,-1.5630,rough,14.0,1,2.653
7890,252.48,2.6249,5.3973,1.0583,0.3632,-0.0348,-1.5682,rough,14.0,1,2.654
7900,252.80,2.6253,5.3973,1.0585,0.3633,-0.0341,-1.5707,rough,14.0,1,2.654
7910,253.12,2.6252,5.3974,1.0585,0.3633,-0.0339,-1.5714,rough,14.0,1,2.654
7920,253.44,2.6251,5.3974,1.0584,0.3633,-0.0339,-1.5716,rough,14.0,1,2.654
7930,253.76,2.6243,5.3973,1.0580,0.3631,-0.0353,-1.5654,rough,14.0,1,2.653
7940,254.08,2.6251,5.3973,1.0584,0.3632,-0.0343,-1.5699,rough,14.0,1,2.654
7950,254.40,2.6252,5.3974,1.0585,0.3633,-0.0340,-1.5712,rough,14.0,1,2.654
7960,254.72,2.6252,5.3974,1.0584,0.3633,-0.0339,-1.5715,rough,14.0,1,2.654
7970,255.04,2.6239,5.3975,1.0577,0.3631,-0.0352,-1.5634,rough,14.0,1,2.653
7980,255.36,2.6250,5.3973,1.0584,0.3632,-0.0346,-1.5690,rough,14.0,1,2.654
7990,255.68,2.6253,5.3973,1.0585,0.3633,-0.0340,-1.5709,rough,14.0,1,2.654
8000,256.00,2.6252,5.3974,1.0585,0.3633,-0.0339,-1.5715,rough,14.0,1,2.654
8010,256.32,2.6251,5.3974,1.0584,0.3633,-0.0339,-1.5716,rough,14.0,1,2.654
8020,256.64,2.6246,5.3973,1.0581,0.3632,-0.0351,-1.5667,rough,14.0,1,2.654
8030,256.96,2.6252,5.3973,1.0584,0.3632,-0.0342,-1.5703,rough,14.0,1,2.654
