step,time_s,x,y,z,roll,pitch,yaw,terrain,speed,target_idx,dist_to_target
10,0.32,-0.0107,-0.0578,0.2045,0.0000,-0.0141,-0.0000,slope,18.0,0,5.407
20,0.64,0.2386,-0.0581,0.2244,-0.0003,-0.0788,-0.0170,slope,18.0,0,5.213
30,0.96,0.5588,-0.0730,0.2560,0.0154,-0.1166,-0.1406,slope,18.0,0,4.962
40,1.28,0.9117,-0.1660,0.3170,0.0629,-0.2027,-0.3490,slope,18.0,0,4.641
50,1.60,1.2707,-0.3517,0.4156,0.1064,-0.2728,-0.5697,slope,18.0,0,4.256
60,1.92,1.5930,-0.6331,0.5382,0.1849,-0.3101,-0.7566,slope,18.0,0,3.830
70,2.24,1.8950,-0.9927,0.6826,0.2431,-0.3143,-0.8916,slope,18.0,0,3.362
80,2.56,2.1975,-1.4067,0.8532,0.2720,-0.3264,-0.9520,slope,18.0,0,2.855
90,2.88,2.5104,-1.8424,1.0274,0.2664,-0.3286,-0.9167,slope,18.0,0,2.328
100,3.20,2.8139,-2.2350,1.1812,0.2547,-0.3089,-0.8384,slope,18.0,0,1.841
110,3.52,3.1087,-2.5570,1.3174,0.2402,-0.2955,-0.7701,slope,18.0,0,1.410
120,3.84,3.3608,-2.8007,1.4216,0.2295,-0.2966,-0.7035,slope,18.0,0,1.063
130,4.16,3.6187,-3.0459,1.5214,0.2682,-0.2429,-0.8396,slope,18.0,1,6.850
140,4.48,3.7846,-3.3882,1.5816,0.3416,-0.1063,-1.2410,slope,18.0,1,6.698
150,4.80,3.7754,-3.8029,1.5707,0.3494,0.0686,-1.7026,slope,18.0,1,6.391
160,5.12,3.5890,-4.2409,1.4905,0.2973,0.1949,-2.0517,slope,18.0,1,5.950
170,5.44,3.3001,-4.6288,1.3711,0.2453,0.2632,-2.2841,slope,18.0,1,5.474
180,5.76,2.9266,-4.9675,1.2162,0.2169,0.3009,-2.4297,slope,18.0,1,4.970
190,6.08,2.5209,-5.2787,1.0550,0.1605,0.3265,-2.5524,slope,18.0,1,4.461
200,6.40,2.0686,-5.5552,0.8747,0.1435,0.3294,-2.6030,slope,18.0,1,3.945
210,6.72,1.6038,-5.8299,0.6903,0.1430,0.3275,-2.6015,slope,18.0,1,3.425
220,7.04,1.1530,-6.1115,0.5123,0.1572,0.3179,-2.5530,slope,18.0,1,2.916
230,7.36,0.7445,-6.4134,0.3513,0.1977,0.2911,-2.4264,slope,18.0,1,2.426
240,7.68,0.3684,-6.7607,0.2069,0.2034,0.2526,-2.3259,rough,14.0,1,1.924
250,8.00,0.0956,-7.0741,0.1286,0.1323,0.1853,-2.2404,slope,18.0,1,1.513
260,8.32,-0.1605,-7.4200,0.0765,0.0790,0.0815,-2.1156,slope,18.0,1,1.084
270,8.64,-0.3758,-7.8266,0.0536,0.0111,0.0254,-2.0025,slope,18.0,2,4.855
280,8.96,-0.5535,-8.1984,0.0460,-0.0168,-0.0078,-2.0472,transition,15.0,2,5.059
290,9.28,-0.7326,-8.5220,0.0507,-0.0148,-0.0169,-2.1337,flat,18.0,2,5.245
300,9.60,-0.9098,-8.7810,0.0569,-0.0116,-0.0243,-2.2779,flat,18.0,2,5.393
310,9.92,-1.0921,-8.9954,0.0639,-0.0047,-0.0282,-2.4343,flat,18.0,2,5.512
320,10.24,-1.2758,-9.1285,0.0705,0.0001,-0.0302,-2.5849,flat,18.0,2,5.565
330,10.56,-1.4530,-9.2212,0.0768,0.0047,-0.0326,-2.7434,flat,18.0,2,5.591
340,10.88,-1.6170,-9.2931,0.0826,0.0116,-0.0312,-2.9595,flat,18.0,2,5.609
350,11.20,-1.7812,-9.3231,0.0880,0.0145,-0.0300,-3.0716,flat,18.0,2,5.591
360,11.52,-1.9349,-9.3320,0.0927,0.0208,-0.0279,2.9923,flat,18.0,2,5.560
370,11.84,-2.0857,-9.3202,0.0972,0.0242,-0.0245,2.8087,flat,18.0,2,5.514
380,12.16,-2.2328,-9.2762,0.1013,0.0274,-0.0226,2.6646,flat,18.0,2,5.441
390,12.48,-2.3826,-9.1956,0.1052,0.0291,-0.0222,2.5525,flat,18.0,2,5.335
400,12.80,-2.5410,-9.0821,0.1097,0.0310,-0.0218,2.4525,flat,18.0,2,5.198
410,13.12,-2.7105,-8.9341,0.1147,0.0321,-0.0220,2.3687,flat,18.0,2,5.029
420,13.44,-2.8937,-8.7439,0.1206,0.0327,-0.0235,2.3003,flat,18.0,2,4.822
430,13.76,-3.0951,-8.5037,0.1280,0.0337,-0.0243,2.2443,flat,18.0,2,4.570
440,14.08,-3.3215,-8.2076,0.1373,0.0341,-0.0259,2.2037,flat,18.0,2,4.271
450,14.40,-3.5798,-7.8435,0.1490,0.0348,-0.0274,2.1776,flat,18.0,2,3.918
460,14.72,-3.8838,-7.4002,0.1609,0.0334,-0.0111,2.1651,flat,18.0,2,3.515
470,15.04,-4.1579,-6.9482,0.1708,0.0338,-0.0462,2.0664,flat,18.0,2,3.136
480,15.36,-4.3881,-6.4725,0.1837,0.0302,-0.0109,1.9536,flat,18.0,2,2.767
490,15.68,-4.5647,-5.9776,0.1880,0.0282,0.0003,1.8373,flat,18.0,2,2.411
500,16.00,-4.6776,-5.4820,0.1878,0.0198,0.0027,1.7141,flat,18.0,2,2.083
510,16.32,-4.7287,-5.0126,0.1839,0.0224,0.0105,1.5299,flat,18.0,2,1.803
520,16.64,-4.7011,-4.6000,0.1816,-0.0001,0.0034,1.2632,flat,18.0,2,1.567
530,16.96,-4.5710,-4.2391,0.1800,-0.0036,0.0037,1.0989,flat,18.0,2,1.325
540,17.28,-4.4133,-3.9605,0.1796,-0.0068,0.0001,0.8947,flat,18.0,2,1.133
550,17.60,-4.2055,-3.7300,0.1810,-0.0059,-0.0088,0.7644,flat,18.0,3,10.296
560,17.92,-3.9250,-3.4572,0.1853,-0.0036,-0.0174,0.8309,flat,18.0,3,9.950
570,18.24,-3.6418,-3.0741,0.1934,-0.0114,-0.0206,1.0689,flat,18.0,3,9.502
580,18.56,-3.4223,-2.6126,0.2020,-0.0173,-0.0136,1.2529,flat,18.0,3,8.997
590,18.88,-3.2755,-2.0924,0.2112,-0.0243,-0.0135,1.3966,flat,18.0,3,8.457
600,19.20,-3.1870,-1.5340,0.2173,-0.0256,-0.0085,1.4377,flat,18.0,3,7.896
610,19.52,-3.1109,-0.9674,0.2213,-0.0238,-0.0053,1.4251,flat,18.0,3,7.331
620,19.84,-3.0197,-0.4144,0.2214,-0.0100,-0.0040,1.3833,flat,18.0,3,6.776
630,20.16,-2.9081,0.1346,0.2245,-0.0196,-0.0008,1.3398,flat,18.0,3,6.220
640,20.48,-2.7758,0.6748,0.2245,-0.0173,-0.0011,1.3142,flat,18.0,3,5.665
650,20.80,-2.6293,1.2146,0.2235,-0.0144,0.0034,1.2701,flat,18.0,3,5.107
660,21.12,-2.4545,1.7428,0.2196,-0.0189,0.0056,1.2116,flat,18.0,3,4.551
670,21.44,-2.2505,2.2739,0.2142,-0.0162,0.0140,1.1898,flat,18.0,3,3.982
680,21.76,-2.0344,2.8061,0.2025,-0.0135,0.0205,1.1796,flat,18.0,3,3.409
690,22.08,-1.8163,3.3400,0.1865,-0.0211,0.0322,1.1819,flat,18.0,3,2.834
700,22.40,-1.6069,3.8612,0.1670,-0.0094,0.0358,1.2270,flat,18.0,3,2.274
710,22.72,-1.4321,4.3782,0.1448,-0.0049,0.0435,1.2579,flat,18.0,3,1.729
720,23.04,-1.2927,4.8446,0.1238,0.0019,0.0446,1.2935,flat,18.0,3,1.242
730,23.36,-1.1905,5.2428,0.1064,0.0072,0.0418,1.3202,flat,18.0,0,10.210
740,23.68,-1.1092,5.5699,0.0930,0.0054,0.0390,1.2258,flat,18.0,0,10.447
750,24.00,-1.0110,5.8747,0.0811,-0.0059,0.0365,0.8297,transition,15.0,0,10.661
760,24.32,-0.7969,6.0408,0.0722,-0.0216,0.0276,0.3373,slope,18.0,0,10.704
770,24.64,-0.4715,6.1396,0.0638,-0.0266,0.0200,0.1624,slope,18.0,0,10.643
780,24.96,-0.0505,6.2123,0.0974,-0.0392,-0.1603,0.1064,slope,18.0,0,10.530
790,25.28,0.4243,6.2604,0.2161,-0.0401,-0.3529,0.0615,slope,18.0,0,10.391
800,25.60,0.9176,6.2910,0.3936,-0.0434,-0.3491,0.0541,slope,18.0,0,10.249
810,25.92,1.4032,6.3176,0.5711,-0.0434,-0.3538,0.0562,slope,18.0,0,10.128
820,26.24,1.8791,6.3457,0.7478,-0.0434,-0.3600,0.0606,slope,18.0,0,10.033
830,26.56,2.3541,6.3762,0.9270,-0.0439,-0.3643,0.0663,slope,18.0,0,9.962
840,26.88,2.7452,6.4087,1.0765,-0.0499,-0.3656,0.0877,slope,18.0,0,9.928
850,27.20,2.9850,6.4420,1.1684,0.0129,-0.3710,-0.0839,slope,18.0,0,9.928
860,27.52,3.1011,6.4609,1.2134,0.1808,-0.3293,-0.5608,slope,18.0,0,9.932
870,27.84,3.2217,6.3730,1.2621,0.3029,-0.2225,-1.0061,slope,18.0,0,9.832
880,28.16,3.3583,6.1264,1.3173,0.3383,-0.1392,-1.2091,slope,18.0,0,9.573
890,28.48,3.4613,5.7063,1.3693,0.3500,-0.1143,-1.3480,slope,18.0,0,9.146
900,28.80,3.5245,5.2498,1.4075,0.3626,-0.0728,-1.4605,slope,18.0,0,8.685
910,29.12,3.5578,4.7587,1.4348,0.3588,-0.0755,-1.4517,slope,18.0,0,8.193
920,29.44,3.6251,4.2814,1.4742,0.3486,-0.1083,-1.3508,slope,18.0,0,7.712
930,29.76,3.7214,3.8424,1.5217,0.3499,-0.1016,-1.3594,slope,18.0,0,7.267
940,30.08,3.7681,3.3958,1.5473,0.3600,-0.0465,-1.4909,slope,18.0,0,6.818
950,30.40,3.7453,2.9330,1.5430,0.3707,0.0219,-1.6700,slope,18.0,0,6.358
960,30.72,3.5949,2.4800,1.4819,0.3532,0.1561,-1.9876,slope,18.0,0,5.921
970,31.04,3.3055,2.1155,1.3572,0.2614,0.2902,-2.3401,slope,18.0,0,5.600
980,31.36,2.9385,1.8311,1.1894,0.1843,0.3886,-2.5855,slope,18.0,0,5.396
990,31.68,2.5516,1.6407,1.0107,0.1081,0.4129,-2.6953,slope,18.0,0,5.320
1000,32.00,2.1410,1.4265,0.8147,0.1486,0.3875,-2.5399,slope,18.0,0,5.267
1010,32.32,1.7561,1.1449,0.6338,0.1875,0.3333,-2.3552,slope,18.0,0,5.183
1020,32.64,1.4298,0.7928,0.4832,0.2546,0.2466,-2.1320,slope,18.0,0,5.050
1030,32.96,1.1978,0.3779,0.3955,0.2485,0.1228,-1.9078,slope,18.0,0,4.852
1040,33.28,1.0524,-0.0665,0.3477,0.2256,-0.0115,-1.5343,slope,18.0,0,4.613
1050,33.60,1.0863,-0.4870,0.3717,0.2111,-0.1494,-1.1227,slope,18.0,0,4.294
1060,33.92,1.2775,-0.8644,0.4513,0.1598,-0.2650,-0.8764,slope,18.0,0,3.900
1070,34.24,1.5775,-1.2026,0.5835,0.1425,-0.3321,-0.7126,slope,18.0,0,3.452
1080,34.56,1.9372,-1.5074,0.7503,0.1352,-0.3642,-0.6091,slope,18.0,0,2.981
1090,34.88,2.3447,-1.7911,0.9535,0.1416,-0.3945,-0.5754,slope,18.0,0,2.486
1100,35.20,2.7733,-2.0777,1.1583,0.1659,-0.3820,-0.5799,slope,18.0,0,1.975
1110,35.52,3.1503,-2.3384,1.3245,0.1802,-0.3347,-0.6045,slope,18.0,0,1.522
1120,35.84,3.4540,-2.5665,1.4542,0.2115,-0.3179,-0.6428,slope,18.0,0,1.147
1130,36.16,3.7043,-2.8002,1.5541,0.2560,-0.2637,-0.8039,slope,18.0,1,7.095
1140,36.48,3.8950,-3.0931,1.6257,0.3322,-0.1390,-1.1748,slope,18.0,1,6.992
1150,36.80,3.9700,-3.4326,1.6488,0.3503,-0.0090,-1.5012,slope,18.0,1,6.792
1160,37.12,3.8371,-3.8542,1.5926,0.3167,0.1597,-1.9463,slope,18.0,1,6.398
1170,37.44,3.5650,-4.2590,1.4815,0.2572,0.2496,-2.2416,slope,18.0,1,5.921
1180,37.76,3.2235,-4.6251,1.3421,0.2201,0.2901,-2.3955,slope,18.0,1,5.421
1190,38.08,2.8187,-4.9478,1.1793,0.1745,0.3136,-2.5097,slope,18.0,1,4.905
1200,38.40,2.3780,-5.2458,1.0033,0.1592,0.3235,-2.5592,slope,18.0,1,4.382
1210,38.72,1.9239,-5.5422,0.8216,0.1571,0.3228,-2.5575,slope,18.0,1,3.853
1220,39.04,1.4839,-5.8422,0.6456,0.1711,0.3138,-2.5112,slope,18.0,1,3.336
1230,39.36,1.0628,-6.1667,0.4771,0.1888,0.3000,-2.4526,slope,18.0,1,2.816
1240,39.68,0.7095,-6.4783,0.3362,0.2044,0.2853,-2.4052,slope,18.0,1,2.353
1250,40.00,0.3557,-6.8203,0.1973,0.2130,0.2516,-2.3359,rough,14.0,1,1.868
1260,40.32,0.1010,-7.1112,0.1289,0.1166,0.2051,-2.3024,slope,18.0,1,1.484
1270,40.64,-0.1230,-7.3652,0.0798,0.0876,0.1028,-2.2879,slope,18.0,1,1.150
1280,40.96,-0.3374,-7.6241,0.0618,0.0608,0.0002,-2.2137,slope,18.0,2,4.718
1290,41.28,-0.5810,-7.9984,0.0449,-0.0275,-0.0080,-2.1613,flat,18.0,2,4.877
1300,41.60,-0.8245,-8.3493,0.0518,-0.0187,-0.0173,-2.2340,flat,18.0,2,5.050
1310,41.92,-1.0532,-8.6277,0.0587,-0.0123,-0.0225,-2.3457,flat,18.0,2,5.193
1320,42.24,-1.2714,-8.8334,0.0663,-0.0077,-0.0285,-2.4865,flat,18.0,2,5.293
1330,42.56,-1.4848,-8.9990,0.0743,-0.0010,-0.0314,-2.6661,flat,18.0,2,5.371
1340,42.88,-1.7047,-9.0925,0.0819,0.0034,-0.0327,-2.7985,flat,18.0,2,5.391
1350,43.20,-1.9272,-9.1532,0.0896,0.0053,-0.0348,-2.8801,flat,18.0,2,5.389
1360,43.52,-2.1436,-9.1966,0.0972,0.0064,-0.0348,-2.9461,flat,18.0,2,5.381
1370,43.84,-2.3310,-9.2271,0.1039,0.0084,-0.0353,-3.0254,flat,18.0,2,5.375
1380,44.16,-2.5038,-9.2446,0.1101,0.0151,-0.0341,3.0295,flat,18.0,2,5.364
1390,44.48,-2.6740,-9.2354,0.1162,0.0205,-0.0310,2.8431,flat,18.0,2,5.333
1400,44.80,-2.8416,-9.1866,0.1217,0.0247,-0.0294,2.6937,flat,18.0,2,5.268
1410,45.12,-3.0140,-9.1022,0.1276,0.0277,-0.0284,2.5631,flat,18.0,2,5.172
1420,45.44,-3.1922,-8.9791,0.1338,0.0295,-0.0279,2.4591,flat,18.0,2,5.043
1430,45.76,-3.3815,-8.8149,0.1409,0.0315,-0.0280,2.3756,flat,18.0,2,4.879
1440,46.08,-3.5873,-8.6035,0.1491,0.0332,-0.0278,2.3093,flat,18.0,2,4.676
1450,46.40,-3.8154,-8.3394,0.1588,0.0342,-0.0280,2.2596,flat,18.0,2,4.435
1460,46.72,-4.0719,-8.0131,0.1703,0.0349,-0.0273,2.2211,flat,18.0,2,4.152
1470,47.04,-4.3685,-7.6150,0.1836,0.0348,-0.0259,2.2038,flat,18.0,2,3.835
1480,47.36,-4.6782,-7.1802,0.1959,0.0349,-0.0198,2.1499,flat,18.0,2,3.531
1490,47.68,-4.8974,-6.7705,0.2028,0.0330,0.0005,1.8644,flat,18.0,2,3.262
1500,48.00,-4.9837,-6.2984,0.2002,0.0441,0.0033,1.6725,flat,18.0,2,2.911
1510,48.32,-5.0173,-5.7939,0.1973,0.0194,0.0112,1.4594,flat,18.0,2,2.542
1520,48.64,-4.9391,-5.3206,0.1897,0.0119,0.0018,1.1742,flat,18.0,2,2.159
1530,48.96,-4.7348,-4.8908,0.1850,0.0034,0.0149,1.0094,flat,18.0,2,1.739
1540,49.28,-4.4941,-4.5381,0.1805,0.0023,0.0095,0.9119,flat,18.0,2,1.354
1550,49.60,-4.2670,-4.2692,0.1799,0.0001,-0.0002,0.8106,flat,18.0,2,1.040
1560,49.92,-4.0119,-4.0192,0.1813,-0.0004,-0.0065,0.7801,flat,18.0,3,10.513
1570,50.24,-3.7191,-3.6730,0.1866,-0.0026,-0.0166,0.9986,flat,18.0,3,10.098
1580,50.56,-3.4800,-3.2279,0.1945,-0.0104,-0.0163,1.1685,flat,18.0,3,9.606
1590,50.88,-3.3028,-2.7369,0.2043,-0.0181,-0.0182,1.3511,flat,18.0,3,9.085
1600,51.20,-3.2110,-2.1980,0.2117,-0.0217,-0.0118,1.4361,flat,18.0,3,8.541
1610,51.52,-3.1424,-1.6315,0.2181,-0.0247,-0.0080,1.4473,flat,18.0,3,7.977
1620,51.84,-3.0698,-1.0705,0.2222,-0.0254,-0.0068,1.4105,flat,18.0,3,7.418
1630,52.16,-2.9754,-0.5165,0.2247,-0.0234,-0.0038,1.3686,flat,18.0,3,6.860
1640,52.48,-2.8591,0.0310,0.2257,-0.0196,-0.0019,1.3482,flat,18.0,3,6.303
1650,52.80,-2.7309,0.5768,0.2257,-0.0143,-0.0004,1.3223,flat,18.0,3,5.744
1660,53.12,-2.5881,1.1128,0.2248,-0.0158,0.0060,1.2623,flat,18.0,3,5.190
1670,53.44,-2.4095,1.6422,0.2220,-0.0147,0.0065,1.2124,flat,18.0,3,4.632
1680,53.76,-2.2073,2.1781,0.2102,-0.0361,0.0306,1.1925,flat,18.0,3,4.060
1690,54.08,-1.9929,2.7029,0.2065,-0.0176,0.0217,1.1698,flat,18.0,3,3.494
1700,54.40,-1.7699,3.2074,0.1899,-0.0194,0.0374,1.1341,flat,18.0,3,2.947
1710,54.72,-1.5389,3.6924,0.1741,-0.0175,0.0373,1.1023,flat,18.0,3,2.419
1720,55.04,-1.3101,4.1338,0.1541,-0.0154,0.0437,1.1185,flat,18.0,3,1.939
1730,55.36,-1.1210,4.5669,0.1339,-0.0075,0.0473,1.1774,flat,18.0,3,1.483
1740,55.68,-0.9527,4.9642,0.1143,-0.0074,0.0440,1.1318,flat,18.0,3,1.076
1750,56.00,-0.7829,5.3069,0.0978,-0.0118,0.0407,0.9921,slope,18.0,0,10.055
1760,56.32,-0.4905,5.6781,0.0793,-0.0170,0.0351,0.7794,slope,18.0,0,10.240
1770,56.64,-0.1886,5.9979,0.0922,-0.1208,-0.0298,0.5936,slope,18.0,0,10.393
1780,56.96,0.1707,6.2349,0.1481,-0.1203,-0.2303,0.4933,slope,18.0,0,10.463
1790,57.28,0.5739,6.4554,0.2641,-0.1499,-0.3160,0.3896,slope,18.0,0,10.519
1800,57.60,0.9779,6.6152,0.4078,-0.1176,-0.3315,0.2918,slope,18.0,0,10.538
1810,57.92,1.3850,6.7290,0.5556,-0.0875,-0.3474,0.2013,slope,18.0,0,10.529
1820,58.24,1.8348,6.8194,0.7221,-0.0696,-0.3554,0.1590,slope,18.0,0,10.504
1830,58.56,2.2796,6.8965,0.8895,-0.0054,-0.3659,-0.0187,slope,18.0,0,10.487
1840,58.88,2.6322,6.8789,1.0250,0.1538,-0.3364,-0.4696,slope,18.0,0,10.409
1850,59.20,2.9180,6.7169,1.1381,0.2610,-0.2733,-0.8189,slope,18.0,0,10.209
1860,59.52,3.1061,6.4510,1.2154,0.3247,-0.1851,-1.1178,slope,18.0,0,9.922
1870,59.84,3.2068,6.0835,1.2620,0.3635,-0.0792,-1.4252,slope,18.0,0,9.546
1880,60.16,3.1192,5.6353,1.2399,0.3605,0.0818,-1.8642,slope,18.0,0,9.110
1890,60.48,2.9473,5.2703,1.1868,0.2703,0.2030,-2.3185,slope,18.0,0,8.772
1900,60.80,2.9870,5.1967,1.2030,0.1613,0.3276,-2.7605,slope,18.0,0,8.693
1910,61.12,3.0128,5.1206,1.2149,0.0912,0.3546,-2.9703,slope,18.0,0,8.614
1920,61.44,3.0199,5.0842,1.2188,0.0532,0.3621,-3.0790,slope,18.0,0,8.577
1930,61.76,3.0213,5.0719,1.2197,0.0424,0.3634,-3.1095,slope,18.0,0,8.565
1940,62.08,3.0218,5.0663,1.2200,0.0385,0.3638,-3.1205,slope,18.0,0,8.559
1950,62.40,3.0220,5.0637,1.2202,0.0373,0.3639,-3.1241,slope,18.0,0,8.557
1960,62.72,3.0222,5.0622,1.2203,0.0367,0.3639,-3.1256,slope,18.0,0,8.555
1970,63.04,3.0224,5.0615,1.2204,0.0362,0.3639,-3.1270,slope,18.0,0,8.554
1980,63.36,3.0258,5.0771,1.2213,0.0742,0.3594,-3.0208,slope,18.0,0,8.569
1990,63.68,3.0173,5.1118,1.2172,0.1536,0.3314,-2.7834,slope,18.0,0,8.605
2000,64.00,3.0197,5.0684,1.2190,0.0751,0.3591,-3.0159,slope,18.0,0,8.562
2010,64.32,3.0213,5.0530,1.2203,0.0455,0.3631,-3.0995,slope,18.0,0,8.546
2020,64.64,3.0237,5.0882,1.2201,0.1291,0.3430,-2.8612,slope,18.0,0,8.581
2030,64.96,3.0218,5.0605,1.2198,0.0770,0.3601,-3.0090,slope,18.0,0,8.553
2040,65.28,3.0265,5.0689,1.2217,0.0994,0.3527,-2.9466,slope,18.0,0,8.561
2050,65.60,3.0254,5.0528,1.2222,0.0691,0.3570,-3.0308,slope,18.0,0,8.545
2060,65.92,3.0274,5.0754,1.2220,0.1255,0.3442,-2.8714,slope,18.0,0,8.567
2070,66.24,3.0240,5.0466,1.2211,0.0673,0.3628,-3.0344,slope,18.0,0,8.539
2080,66.56,3.0286,5.0717,1.2224,0.1269,0.3444,-2.8673,slope,18.0,0,8.564
2090,66.88,3.0243,5.0591,1.2207,0.1052,0.3540,-2.9278,slope,18.0,0,8.552
2100,67.20,3.0224,5.0307,1.2215,0.0517,0.3624,-3.0811,slope,18.0,0,8.524
2110,67.52,3.0306,5.0631,1.2236,0.1244,0.3452,-2.8743,slope,18.0,0,8.555
2120,67.84,3.0249,5.0339,1.2218,0.0683,0.3623,-3.0334,slope,18.0,0,8.527
2130,68.16,3.0308,5.0531,1.2239,0.1106,0.3494,-2.9139,slope,18.0,0,8.545
2140,68.48,3.0266,5.0352,1.2222,0.0775,0.3622,-3.0068,slope,18.0,0,8.528
2150,68.80,3.0310,5.0407,1.2244,0.0951,0.3542,-2.9591,slope,18.0,0,8.533
2160,69.12,3.0294,5.0399,1.2227,0.0956,0.3601,-2.9554,slope,18.0,0,8.532
2170,69.44,3.0301,5.0300,1.2244,0.0794,0.3584,-3.0035,slope,18.0,0,8.522
2180,69.76,3.0298,5.0273,1.2217,0.0769,0.3738,-3.0104,slope,18.0,0,8.519
2190,70.08,3.0332,5.0391,1.2253,0.1038,0.3519,-2.9323,slope,18.0,0,8.531
2200,70.40,3.0302,5.0230,1.2243,0.0746,0.3610,-3.0160,slope,18.0,1,13.890
2210,70.72,3.0256,5.0062,1.2236,0.0430,0.3622,-3.1062,slope,18.0,1,13.872
2220,71.04,3.0250,5.0030,1.2235,0.0372,0.3626,-3.1232,slope,18.0,1,13.869
2230,71.36,3.0290,5.0069,1.2250,0.0478,0.3609,-3.0920,slope,18.0,1,13.874
2240,71.68,3.0258,5.0026,1.2235,0.0397,0.3649,-3.1158,slope,18.0,1,13.869
2250,72.00,3.0277,5.0035,1.2247,0.0435,0.3611,-3.1038,slope,18.0,1,13.870
2260,72.32,3.0293,5.0039,1.2248,0.0457,0.3641,-3.0994,slope,18.0,1,13.871
2270,72.64,3.0307,5.0034,1.2256,0.0453,0.3626,-3.1000,slope,18.0,1,13.871
2280,72.96,3.0303,5.0032,1.2252,0.0457,0.3649,-3.0997,slope,18.0,1,13.871
2290,73.28,3.0309,5.0030,1.2257,0.0459,0.3629,-3.0989,slope,18.0,1,13.871
2300,73.60,3.0306,5.0032,1.2251,0.0471,0.3656,-3.0954,slope,18.0,1,13.871
2310,73.92,3.0309,5.0043,1.2257,0.0510,0.3622,-3.0843,slope,18.0,1,13.872
2320,74.24,3.0242,4.9983,1.2228,0.0392,0.3657,-3.1162,slope,18.0,1,13.864
2330,74.56,3.0225,4.9965,1.2226,0.0361,0.3640,-3.1267,slope,18.0,1,13.862
2340,74.88,3.0224,4.9960,1.2226,0.0354,0.3638,-3.1289,slope,18.0,1,13.862
2350,75.20,3.0225,4.9959,1.2227,0.0351,0.3637,-3.1293,slope,18.0,1,13.862
2360,75.52,3.0227,4.9959,1.2227,0.0350,0.3637,-3.1295,slope,18.0,1,13.862
2370,75.84,3.0228,4.9959,1.2228,0.0349,0.3636,-3.1295,slope,18.0,1,13.862
2380,76.16,3.0229,4.9959,1.2228,0.0349,0.3636,-3.1295,slope,18.0,1,13.862
2390,76.48,3.0230,4.9960,1.2229,0.0348,0.3635,-3.1295,slope,18.0,1,13.862
2400,76.80,3.0231,4.9960,1.2229,0.0348,0.3635,-3.1295,slope,18.0,1,13.862
2410,77.12,3.0232,4.9961,1.2229,0.0348,0.3634,-3.1295,slope,18.0,1,13.862
2420,77.44,3.0233,4.9961,1.2230,0.0348,0.3634,-3.1295,slope,18.0,1,13.862
2430,77.76,3.0234,4.9961,1.2230,0.0348,0.3634,-3.1295,slope,18.0,1,13.862
2440,78.08,3.0235,4.9962,1.2230,0.0348,0.3634,-3.1295,slope,18.0,1,13.862
2450,78.40,3.0235,4.9962,1.2231,0.0348,0.3633,-3.1295,slope,18.0,1,13.862
2460,78.72,3.0236,4.9963,1.2231,0.0348,0.3633,-3.1295,slope,18.0,1,13.862
2470,79.04,3.0236,4.9963,1.2231,0.0348,0.3633,-3.1295,slope,18.0,1,13.862
2480,79.36,3.0237,4.9963,1.2231,0.0348,0.3633,-3.1295,slope,18.0,1,13.862
2490,79.68,3.0237,4.9964,1.2232,0.0348,0.3632,-3.1295,slope,18.0,1,13.862
2500,80.00,3.0238,4.9964,1.2232,0.0348,0.3632,-3.1295,slope,18.0,1,13.862
2510,80.32,3.0238,4.9965,1.2232,0.0348,0.3632,-3.1295,slope,18.0,1,13.862
2520,80.64,3.0238,4.9965,1.2232,0.0348,0.3632,-3.1295,slope,18.0,1,13.863
2530,80.96,3.0239,4.9965,1.2232,0.0348,0.3632,-3.1295,slope,18.0,1,13.863
2540,81.28,3.0239,4.9966,1.2232,0.0348,0.3632,-3.1295,slope,18.0,1,13.863
2550,81.60,3.0239,4.9966,1.2232,0.0348,0.3632,-3.1295,slope,18.0,1,13.863
2560,81.92,3.0239,4.9967,1.2232,0.0347,0.3631,-3.1295,slope,18.0,1,13.863
2570,82.24,3.0240,4.9967,1.2232,0.0347,0.3631,-3.1295,slope,18.0,2,10.935
2580,82.56,3.0240,4.9967,1.2233,0.0347,0.3631,-3.1295,slope,18.0,2,10.935
2590,82.88,3.0240,4.9968,1.2233,0.0347,0.3631,-3.1295,slope,18.0,2,10.935
2600,83.20,3.0240,4.9968,1.2233,0.0347,0.3631,-3.1295,slope,18.0,2,10.935
2610,83.52,3.0240,4.9969,1.2233,0.0347,0.3631,-3.1295,slope,18.0,2,10.935
2620,83.84,3.0240,4.9969,1.2233,0.0347,0.3631,-3.1295,slope,18.0,2,10.935
2630,84.16,3.0241,4.9969,1.2233,0.0347,0.3631,-3.1295,slope,18.0,2,10.935
2640,84.48,3.0241,4.9970,1.2233,0.0347,0.3631,-3.1295,slope,18.0,2,10.935
2650,84.80,3.0241,4.9970,1.2233,0.0347,0.3631,-3.1295,slope,18.0,2,10.935
2660,85.12,3.0241,4.9971,1.2233,0.0347,0.3631,-3.1295,slope,18.0,2,10.935
2670,85.44,3.0241,4.9971,1.2233,0.0347,0.3631,-3.1295,slope,18.0,2,10.935
2680,85.76,3.0241,4.9971,1.2233,0.0347,0.3631,-3.1295,slope,18.0,2,10.935
2690,86.08,3.0241,4.9972,1.2233,0.0347,0.3631,-3.1295,slope,18.0,2,10.935
2700,86.40,3.0241,4.9972,1.2233,0.0347,0.3631,-3.1295,slope,18.0,2,10.935
2710,86.72,3.0241,4.9973,1.2233,0.0347,0.3631,-3.1295,slope,18.0,2,10.935
2720,87.04,3.0241,4.9973,1.2233,0.0347,0.3630,-3.1295,slope,18.0,2,10.935
2730,87.36,3.0241,4.9973,1.2233,0.0347,0.3630,-3.1295,slope,18.0,2,10.935
2740,87.68,3.0241,4.9974,1.2233,0.0347,0.3630,-3.1295,slope,18.0,2,10.935
2750,88.00,3.0242,4.9974,1.2233,0.0347,0.3630,-3.1295,slope,18.0,2,10.935
2760,88.32,3.0242,4.9974,1.2233,0.0347,0.3630,-3.1295,slope,18.0,2,10.935
2770,88.64,3.0242,4.9975,1.2233,0.0347,0.3630,-3.1295,slope,18.0,2,10.935
2780,88.96,3.0242,4.9975,1.2233,0.0347,0.3630,-3.1295,slope,18.0,2,10.935
2790,89.28,3.0242,4.9976,1.2233,0.0347,0.3630,-3.1295,slope,18.0,2,10.935
2800,89.60,3.0242,4.9976,1.2233,0.0347,0.3630,-3.1295,slope,18.0,2,10.935
2810,89.92,3.0242,4.9976,1.2233,0.0347,0.3630,-3.1295,slope,18.0,2,10.936
