step,time_s,x,y,z,roll,pitch,yaw,terrain,speed,target_idx,dist_to_target
10,0.32,-1.3212,0.8846,0.1837,0.0003,-0.0334,0.0049,rough,14.0,0,6.120
20,0.64,-1.0979,0.8863,0.1798,-0.0008,-0.0001,0.4003,flat,18.0,0,6.308
30,0.96,-0.8367,1.0442,0.1798,-0.0003,-0.0000,0.8512,flat,18.0,0,6.454
40,1.28,-0.6400,1.3263,0.1798,-0.0002,-0.0001,1.2425,flat,18.0,0,6.497
50,1.60,-0.5303,1.7164,0.1799,0.0000,-0.0001,1.6162,flat,18.0,0,6.436
60,1.92,-0.5753,2.1673,0.1799,0.0001,-0.0000,1.9106,flat,18.0,0,6.234
70,2.24,-0.7676,2.6175,0.1799,0.0001,-0.0000,2.1317,flat,18.0,0,5.917
80,2.56,-1.0723,3.0361,0.1799,0.0001,-0.0000,2.3045,flat,18.0,0,5.521
90,2.88,-1.4546,3.4112,0.1799,0.0002,-0.0000,2.4406,flat,18.0,0,5.077
100,3.20,-1.8885,3.7427,0.1799,0.0003,-0.0000,2.5647,flat,18.0,0,4.605
110,3.52,-2.3630,4.0267,0.1799,0.0004,-0.0000,2.6787,flat,18.0,0,4.112
120,3.84,-2.8686,4.2604,0.1798,0.0004,-0.0000,2.7847,flat,18.0,0,3.603
130,4.16,-3.3974,4.4430,0.1798,0.0004,-0.0000,2.8850,flat,18.0,0,3.084
140,4.48,-3.9424,4.5738,0.1798,0.0004,-0.0000,2.9831,flat,18.0,0,2.558
150,4.80,-4.4972,4.6515,0.1798,0.0004,-0.0000,3.0842,flat,18.0,0,2.027
160,5.12,-5.0550,4.6723,0.1798,0.0004,0.0000,-3.0864,flat,18.0,0,1.496
170,5.44,-5.6028,4.6298,0.1799,0.0002,0.0000,-2.9475,flat,18.0,0,0.973
180,5.76,-6.0087,4.5687,0.1797,0.0001,-0.0007,-2.5694,flat,18.0,1,6.828
190,6.08,-6.2126,4.4062,0.1779,0.0127,-0.0002,-2.0244,flat,18.0,1,7.045
200,6.40,-6.3277,4.1563,0.1797,0.0004,0.0001,-1.5968,rough,14.0,1,7.187
210,6.72,-6.3395,3.9017,0.1798,-0.0001,-0.0001,-1.2515,rough,14.0,1,7.236
220,7.04,-6.1970,3.5701,0.1799,-0.0001,-0.0001,-0.9315,flat,18.0,1,7.159
230,7.36,-5.8973,3.2479,0.1799,-0.0000,-0.0000,-0.6806,flat,18.0,1,6.944
240,7.68,-5.4929,2.9710,0.1799,0.0000,-0.0000,-0.4518,flat,18.0,1,6.638
250,8.00,-5.0124,2.7689,0.1799,0.0000,-0.0000,-0.2420,flat,18.0,1,6.256
260,8.32,-4.4838,2.6599,0.1799,0.0001,-0.0000,-0.0556,flat,18.0,1,5.813
270,8.64,-3.9342,2.6467,0.1799,0.0001,-0.0000,0.0960,flat,18.0,1,5.324
280,8.96,-3.3847,2.7132,0.1799,0.0004,-0.0000,0.2083,flat,18.0,1,4.809
290,9.28,-2.8433,2.8394,0.1798,0.0004,-0.0000,0.2963,flat,18.0,1,4.279
300,9.60,-2.3129,3.0123,0.1798,0.0003,-0.0000,0.3695,flat,18.0,1,3.739
310,9.92,-1.7952,3.2235,0.1797,0.0002,-0.0000,0.4334,flat,18.0,1,3.192
320,10.24,-1.2914,3.4675,0.1797,0.0002,-0.0000,0.4921,flat,18.0,1,2.642
330,10.56,-0.8030,3.7409,0.1797,0.0002,-0.0000,0.5491,flat,18.0,1,2.090
340,10.88,-0.3323,4.0422,0.1797,0.0002,-0.0000,0.6074,flat,18.0,1,1.538
350,11.20,0.1181,4.3703,0.1797,0.0002,0.0000,0.6701,flat,18.0,1,0.986
360,11.52,0.4981,4.6693,0.1798,0.0003,-0.0000,0.5398,flat,18.0,2,9.516
370,11.84,0.9105,4.8772,0.1799,-0.0001,-0.0000,0.2661,flat,18.0,2,9.294
380,12.16,1.3402,4.9751,0.1798,-0.0002,-0.0003,0.0923,flat,18.0,2,9.009
390,12.48,1.8567,4.9998,0.1799,-0.0001,0.0000,-0.1231,flat,18.0,2,8.623
400,12.80,2.3863,4.9146,0.1799,-0.0001,-0.0000,-0.2860,flat,18.0,2,8.168
410,13.12,2.9053,4.7440,0.1799,-0.0003,-0.0000,-0.4041,flat,18.0,2,7.671
420,13.44,3.4064,4.5133,0.1798,-0.0004,-0.0000,-0.4931,flat,18.0,2,7.152
430,13.76,3.8895,4.2386,0.1798,-0.0003,-0.0000,-0.5637,flat,18.0,2,6.618
440,14.08,4.3554,3.9299,0.1797,-0.0002,-0.0000,-0.6219,flat,18.0,2,6.075
450,14.40,4.8049,3.5941,0.1797,-0.0002,-0.0000,-0.6714,flat,18.0,2,5.525
460,14.72,5.2386,3.2360,0.1797,-0.0001,-0.0000,-0.7132,flat,18.0,2,4.971
470,15.04,5.6586,2.8598,0.1797,-0.0001,-0.0000,-0.7521,flat,18.0,2,4.413
480,15.36,6.0647,2.4672,0.1797,-0.0001,-0.0000,-0.7886,flat,18.0,2,3.852
490,15.68,6.4564,2.0598,0.1797,-0.0001,-0.0000,-0.8240,flat,18.0,2,3.290
500,16.00,6.8330,1.6389,0.1797,-0.0001,0.0000,-0.8599,flat,18.0,2,2.728
510,16.32,7.1939,1.2056,0.1797,-0.0001,0.0000,-0.8968,flat,18.0,2,2.165
520,16.64,7.5374,0.7597,0.1797,-0.0001,0.0000,-0.9391,flat,18.0,2,1.603
530,16.96,7.8595,0.3001,0.1797,-0.0002,0.0000,-0.9952,flat,18.0,2,1.042
540,17.28,8.1163,-0.1368,0.1798,0.0002,0.0002,-1.1699,flat,18.0,3,6.121
550,17.60,8.2644,-0.5597,0.1799,-0.0001,-0.0000,-1.4894,flat,18.0,3,5.939
560,17.92,8.2789,-1.0458,0.1799,-0.0001,-0.0000,-1.7612,flat,18.0,3,5.641
570,18.24,8.1574,-1.5429,0.1799,-0.0001,-0.0000,-1.9694,flat,18.0,3,5.251
580,18.56,7.9274,-2.0196,0.1799,-0.0001,-0.0000,-2.1313,flat,18.0,3,4.801
590,18.88,7.6189,-2.4633,0.1799,-0.0003,-0.0000,-2.2503,flat,18.0,3,4.314
600,19.20,7.2584,-2.8745,0.1798,-0.0004,-0.0000,-2.3456,flat,18.0,3,3.808
610,19.52,6.8587,-3.2505,0.1798,-0.0004,-0.0000,-2.4391,flat,18.0,3,3.291
620,19.84,6.4239,-3.5920,0.1798,-0.0004,-0.0000,-2.5329,flat,18.0,3,2.764
630,20.16,5.9581,-3.8945,0.1798,-0.0004,-0.0000,-2.6298,flat,18.0,3,2.230
640,20.48,5.4651,-4.1521,0.1798,-0.0004,-0.0000,-2.7353,flat,18.0,3,1.690
650,20.80,4.9496,-4.3563,0.1799,-0.0003,0.0000,-2.8621,flat,18.0,3,1.149
660,21.12,4.4288,-4.4844,0.1799,0.0001,-0.0001,-3.0469,flat,18.0,0,13.931
670,21.44,3.9100,-4.5114,0.1799,-0.0001,0.0000,3.0296,flat,18.0,0,13.546
680,21.76,3.3772,-4.4328,0.1799,-0.0001,-0.0000,2.8757,flat,18.0,0,13.091
690,22.08,2.8520,-4.2733,0.1798,-0.0004,-0.0000,2.7655,flat,18.0,0,12.592
700,22.40,2.3414,-4.0573,0.1798,-0.0004,-0.0000,2.6845,flat,18.0,0,12.071
710,22.72,1.8454,-3.8007,0.1797,-0.0002,-0.0000,2.6219,flat,18.0,0,11.534
720,23.04,1.3630,-3.5133,0.1797,-0.0002,-0.0000,2.5719,flat,18.0,0,10.988
730,23.36,0.8934,-3.2019,0.1797,-0.0001,-0.0000,2.5327,flat,18.0,0,10.435
740,23.68,0.4345,-2.8722,0.1797,-0.0001,-0.0000,2.4998,flat,18.0,0,9.878
750,24.00,-0.0150,-2.5273,0.1797,-0.0001,-0.0000,2.4713,flat,18.0,0,9.318
760,24.32,-0.4559,-2.1695,0.1797,-0.0001,-0.0000,2.4464,flat,18.0,0,8.754
770,24.64,-0.8888,-1.8008,0.1797,-0.0001,-0.0000,2.4241,flat,18.0,0,8.189
780,24.96,-1.3144,-1.4224,0.1797,-0.0001,-0.0000,2.4036,flat,18.0,0,7.623
790,25.28,-1.7330,-1.0352,0.1797,-0.0001,-0.0000,2.3848,flat,18.0,0,7.054
800,25.60,-2.1449,-0.6402,0.1797,-0.0001,-0.0000,2.3677,flat,18.0,0,6.485
810,25.92,-2.5505,-0.2380,0.1797,-0.0001,-0.0000,2.3519,flat,18.0,0,5.915
820,26.24,-2.9500,0.1706,0.1797,-0.0001,-0.0000,2.3370,flat,18.0,0,5.344
830,26.56,-3.3435,0.5851,0.1797,-0.0001,-0.0000,2.3226,flat,18.0,0,4.773
840,26.88,-3.7312,1.0052,0.1797,-0.0000,-0.0000,2.3087,flat,18.0,0,4.202
850,27.20,-4.1131,1.4307,0.1797,-0.0000,0.0000,2.2950,flat,18.0,0,3.630
860,27.52,-4.4890,1.8612,0.1797,-0.0000,0.0000,2.2812,flat,18.0,0,3.059
870,27.84,-4.8587,2.2966,0.1797,-0.0001,0.0000,2.2668,flat,18.0,0,2.488
880,28.16,-5.2214,2.7371,0.1797,-0.0001,0.0000,2.2505,flat,18.0,0,1.917
890,28.48,-5.5756,3.1831,0.1797,-0.0001,0.0000,2.2301,flat,18.0,0,1.348
900,28.80,-5.9171,3.6348,0.1797,-0.0001,0.0000,2.1982,flat,18.0,1,0.785
910,29.12,-6.1184,3.9674,0.1798,0.0003,0.0000,1.8217,flat,18.0,1,7.008
920,29.44,-6.1925,4.3170,0.1799,0.0000,-0.0001,1.4002,flat,18.0,1,7.034
930,29.76,-6.0960,4.7213,0.1799,-0.0001,-0.0000,1.0885,flat,18.0,1,6.905
940,30.08,-5.8452,5.1145,0.1799,-0.0001,-0.0000,0.8545,flat,18.0,1,6.645
950,30.40,-5.4829,5.4670,0.1799,-0.0001,-0.0000,0.6687,flat,18.0,1,6.294
960,30.72,-5.0456,5.7703,0.1799,-0.0001,-0.0000,0.4974,flat,18.0,1,5.886
970,31.04,-4.5530,6.0097,0.1799,-0.0001,-0.0000,0.3437,flat,18.0,1,5.432
980,31.36,-4.0252,6.1797,0.1799,-0.0002,-0.0000,0.2123,flat,18.0,1,4.948
990,31.68,-3.4767,6.2841,0.1799,-0.0004,-0.0000,0.0997,flat,18.0,1,4.442
1000,32.00,-2.9177,6.3287,0.1798,-0.0004,-0.0000,0.0015,flat,18.0,1,3.921
1010,32.32,-2.3557,6.3199,0.1798,-0.0004,-0.0000,-0.0821,flat,18.0,1,3.389
1020,32.64,-1.7960,6.2654,0.1798,-0.0003,-0.0000,-0.1541,flat,18.0,1,2.853
1030,32.96,-1.2419,6.1714,0.1797,-0.0002,-0.0000,-0.2205,flat,18.0,1,2.314
1040,33.28,-0.6965,6.0408,0.1797,-0.0002,0.0000,-0.2871,flat,18.0,1,1.777
1050,33.60,-0.1648,5.8740,0.1798,-0.0003,0.0000,-0.3630,flat,18.0,1,1.247
1060,33.92,0.3444,5.6668,0.1798,-0.0004,0.0001,-0.4337,flat,18.0,2,10.220
1070,34.24,0.8489,5.4227,0.1797,-0.0002,-0.0000,-0.4823,flat,18.0,2,9.672
1080,34.56,1.3447,5.1543,0.1797,-0.0001,-0.0000,-0.5208,flat,18.0,2,9.116
1090,34.88,1.8316,4.8668,0.1797,-0.0001,-0.0000,-0.5535,flat,18.0,2,8.557
1100,35.20,2.3104,4.5635,0.1797,-0.0001,-0.0000,-0.5818,flat,18.0,2,7.995
1110,35.52,2.7815,4.2466,0.1797,-0.0001,-0.0000,-0.6068,flat,18.0,2,7.430
1120,35.84,3.2456,3.9180,0.1797,-0.0001,-0.0000,-0.6290,flat,18.0,2,6.864
1130,36.16,3.7031,3.5790,0.1797,-0.0001,-0.0000,-0.6491,flat,18.0,2,6.296
1140,36.48,4.1543,3.2309,0.1797,-0.0001,-0.0000,-0.6675,flat,18.0,2,5.728
1150,36.80,4.5995,2.8744,0.1797,-0.0001,-0.0000,-0.6846,flat,18.0,2,5.158
1160,37.12,5.0389,2.5103,0.1797,-0.0001,-0.0000,-0.7008,flat,18.0,2,4.588
1170,37.44,5.4725,2.1391,0.1797,-0.0001,-0.0000,-0.7165,flat,18.0,2,4.017
1180,37.76,5.9004,1.7611,0.1797,-0.0001,-0.0000,-0.7322,flat,18.0,2,3.446
1190,38.08,6.3223,1.3764,0.1797,-0.0001,0.0000,-0.7485,flat,18.0,2,2.875
1200,38.40,6.7376,0.9849,0.1797,-0.0001,0.0000,-0.7657,flat,18.0,2,2.305
1210,38.72,7.1452,0.5863,0.1797,-0.0001,0.0000,-0.7849,flat,18.0,2,1.735
1220,39.04,7.5433,0.1803,0.1797,-0.0001,0.0000,-0.8091,flat,18.0,2,1.169
1230,39.36,7.9069,-0.2137,0.1798,-0.0001,0.0004,-0.8996,flat,18.0,3,5.920
1240,39.68,8.1198,-0.5469,0.1799,0.0001,-0.0000,-1.2443,flat,18.0,3,5.840
1250,40.00,8.2307,-0.9411,0.1798,-0.0022,0.0024,-1.5038,flat,18.0,3,5.667
1260,40.32,8.2446,-1.4012,0.1799,0.0000,-0.0000,-1.7603,flat,18.0,3,5.403
1270,40.64,8.1247,-1.8888,0.1799,-0.0001,-0.0000,-1.9821,flat,18.0,3,5.037
1280,40.96,7.8889,-2.3562,0.1799,-0.0001,-0.0000,-2.1561,flat,18.0,3,4.603
1290,41.28,7.5689,-2.7880,0.1799,-0.0003,-0.0000,-2.2840,flat,18.0,3,4.126
1300,41.60,7.1945,-3.1816,0.1798,-0.0004,-0.0000,-2.3910,flat,18.0,3,3.629
1310,41.92,6.7778,-3.5375,0.1798,-0.0004,-0.0000,-2.4961,flat,18.0,3,3.117
1320,42.24,6.3242,-3.8530,0.1798,-0.0004,-0.0000,-2.6015,flat,18.0,3,2.594
1330,42.56,5.8391,-4.1225,0.1798,-0.0004,-0.0000,-2.7106,flat,18.0,3,2.063
1340,42.88,5.3280,-4.3392,0.1799,-0.0003,-0.0000,-2.8308,flat,18.0,3,1.527
1350,43.20,4.7976,-4.4927,0.1799,-0.0001,0.0000,-2.9796,flat,18.0,3,0.990
1360,43.52,4.2713,-4.5556,0.1799,0.0000,0.0000,3.1049,flat,18.0,0,13.853
1370,43.84,3.7403,-4.5171,0.1799,-0.0001,-0.0000,2.9326,flat,18.0,0,13.420
1380,44.16,3.2098,-4.3877,0.1799,-0.0003,-0.0000,2.8081,flat,18.0,0,12.935
1390,44.48,2.6924,-4.1936,0.1798,-0.0004,-0.0000,2.7178,flat,18.0,0,12.421
1400,44.80,2.1896,-3.9536,0.1798,-0.0003,-0.0000,2.6492,flat,18.0,0,11.889
1410,45.12,1.7005,-3.6796,0.1797,-0.0002,-0.0000,2.5951,flat,18.0,0,11.346
1420,45.44,1.2245,-3.3792,0.1797,-0.0002,-0.0000,2.5523,flat,18.0,0,10.795
1430,45.76,0.7598,-3.0586,0.1797,-0.0001,-0.0000,2.5175,flat,18.0,0,10.239
1440,46.08,0.3048,-2.7219,0.1797,-0.0001,-0.0000,2.4876,flat,18.0,0,9.680
1450,46.40,-0.1415,-2.3715,0.1797,-0.0001,-0.0000,2.4616,flat,18.0,0,9.118
1460,46.72,-0.5796,-2.0094,0.1797,-0.0001,-0.0000,2.4387,flat,18.0,0,8.553
1470,47.04,-1.0104,-1.6373,0.1797,-0.0001,-0.0000,2.4179,flat,18.0,0,7.987
1480,47.36,-1.4343,-1.2562,0.1797,-0.0001,-0.0000,2.3988,flat,18.0,0,7.419
1490,47.68,-1.8515,-0.8670,0.1797,-0.0001,-0.0000,2.3812,flat,18.0,0,6.850
1500,48.00,-2.2624,-0.4704,0.1797,-0.0001,-0.0000,2.3651,flat,18.0,0,6.280
1510,48.32,-2.6673,-0.0672,0.1797,-0.0001,-0.0000,2.3502,flat,18.0,0,5.710
1520,48.64,-3.0664,0.3420,0.1797,-0.0001,-0.0000,2.3361,flat,18.0,0,5.139
1530,48.96,-3.4599,0.7569,0.1797,-0.0000,-0.0000,2.3224,flat,18.0,0,4.567
1540,49.28,-3.8477,1.1772,0.1797,-0.0000,-0.0000,2.3089,flat,18.0,0,3.996
1550,49.60,-4.2298,1.6026,0.1797,-0.0000,0.0000,2.2956,flat,18.0,0,3.424
1560,49.92,-4.6061,2.0328,0.1797,-0.0000,0.0000,2.2821,flat,18.0,0,2.852
1570,50.24,-4.9762,2.4679,0.1797,-0.0001,0.0000,2.2676,flat,18.0,0,2.281
1580,50.56,-5.3391,2.9081,0.1797,-0.0001,0.0000,2.2508,flat,18.0,0,1.711
1590,50.88,-5.6928,3.3537,0.1797,-0.0001,0.0000,2.2284,flat,18.0,0,1.143
1600,51.20,-6.0129,3.7855,0.1798,-0.0001,0.0004,2.1330,flat,18.0,1,6.935
1610,51.52,-6.1728,4.0950,0.1798,0.0003,0.0000,1.6904,flat,18.0,1,7.042
1620,51.84,-6.2002,4.4670,0.1799,0.0000,-0.0001,1.2954,flat,18.0,1,7.027
1630,52.16,-6.0541,4.8721,0.1799,0.0000,-0.0000,1.0091,flat,18.0,1,6.857
1640,52.48,-5.7651,5.2537,0.1799,-0.0000,-0.0000,0.7943,flat,18.0,1,6.567
1650,52.80,-5.3777,5.5918,0.1799,-0.0000,-0.0000,0.6139,flat,18.0,1,6.198
1660,53.12,-4.9213,5.8763,0.1799,-0.0001,-0.0000,0.4463,flat,18.0,1,5.776
1670,53.44,-4.4158,6.0935,0.1799,-0.0001,-0.0000,0.2989,flat,18.0,1,5.313
1680,53.76,-3.8800,6.2416,0.1799,-0.0003,-0.0000,0.1731,flat,18.0,1,4.821
1690,54.08,-3.3272,6.3254,0.1798,-0.0004,-0.0000,0.0650,flat,18.0,1,4.310
1700,54.40,-2.7665,6.3510,0.1798,-0.0004,-0.0000,-0.0291,flat,18.0,1,3.785
1710,54.72,-2.2049,6.3256,0.1798,-0.0004,-0.0000,-0.1082,flat,18.0,1,3.252
1720,55.04,-1.6469,6.2568,0.1797,-0.0003,-0.0000,-0.1776,flat,18.0,1,2.714
1730,55.36,-1.0953,6.1498,0.1797,-0.0002,-0.0000,-0.2430,flat,18.0,1,2.175
1740,55.68,-0.5536,6.0070,0.1797,-0.0002,0.0000,-0.3104,flat,18.0,1,1.639
1750,56.00,-0.0276,5.8276,0.1798,-0.0003,0.0000,-0.3904,flat,18.0,1,1.113
1760,56.32,0.4735,5.6081,0.1798,-0.0003,-0.0000,-0.4492,flat,18.0,2,10.082
1770,56.64,0.9764,5.3557,0.1797,-0.0002,-0.0000,-0.4946,flat,18.0,2,9.530
1780,56.96,1.4694,5.0812,0.1797,-0.0001,-0.0000,-0.5310,flat,18.0,2,8.973
1790,57.28,1.9539,4.7887,0.1797,-0.0001,-0.0000,-0.5622,flat,18.0,2,8.413
1800,57.60,2.4304,4.4812,0.1797,-0.0001,-0.0000,-0.5893,flat,18.0,2,7.850
1810,57.92,2.8996,4.1608,0.1797,-0.0001,-0.0000,-0.6133,flat,18.0,2,7.285
1820,58.24,3.3618,3.8291,0.1797,-0.0001,-0.0000,-0.6347,flat,18.0,2,6.718
1830,58.56,3.8176,3.4875,0.1797,-0.0001,-0.0000,-0.6542,flat,18.0,2,6.150
1840,58.88,4.2672,3.1371,0.1797,-0.0001,-0.0000,-0.6721,flat,18.0,2,5.581
1850,59.20,4.7109,2.7785,0.1797,-0.0001,-0.0000,-0.6888,flat,18.0,2,5.011
1860,59.52,5.1489,2.4125,0.1797,-0.0001,-0.0000,-0.7047,flat,18.0,2,4.441
1870,59.84,5.5811,2.0397,0.1797,-0.0001,-0.0000,-0.7202,flat,18.0,2,3.870
1880,60.16,6.0077,1.6601,0.1797,-0.0001,-0.0000,-0.7360,flat,18.0,2,3.299
1890,60.48,6.4282,1.2738,0.1797,-0.0001,0.0000,-0.7523,flat,18.0,2,2.728
1900,60.80,6.8418,0.8807,0.1797,-0.0001,0.0000,-0.7697,flat,18.0,2,2.158
1910,61.12,7.2476,0.4806,0.1797,-0.0001,0.0000,-0.7897,flat,18.0,2,1.589
1920,61.44,7.6428,0.0728,0.1797,-0.0001,0.0000,-0.8162,flat,18.0,2,1.024
1930,61.76,7.9746,-0.2975,0.1798,0.0001,0.0003,-0.9719,flat,18.0,3,5.907
1940,62.08,8.1733,-0.6520,0.1799,0.0000,-0.0000,-1.3142,flat,18.0,3,5.809
1950,62.40,8.2618,-1.0594,0.1799,-0.0003,0.0003,-1.5671,flat,18.0,3,5.619
1960,62.72,8.2389,-1.5413,0.1799,-0.0001,-0.0000,-1.8372,flat,18.0,3,5.320
1970,63.04,8.0790,-2.0253,0.1799,-0.0000,-0.0000,-2.0421,flat,18.0,3,4.929
1980,63.36,7.8135,-2.4823,0.1799,-0.0001,-0.0000,-2.2011,flat,18.0,3,4.478
1990,63.68,7.4738,-2.9029,0.1798,-0.0003,-0.0000,-2.3172,flat,18.0,3,3.993
2000,64.00,7.0857,-3.2847,0.1798,-0.0004,-0.0000,-2.4230,flat,18.0,3,3.491
2010,64.32,6.6573,-3.6291,0.1798,-0.0004,-0.0000,-2.5275,flat,18.0,3,2.975
2020,64.64,6.1937,-3.9316,0.1798,-0.0004,-0.0000,-2.6328,flat,18.0,3,2.449
2030,64.96,5.7003,-4.1865,0.1798,-0.0004,-0.0000,-2.7434,flat,18.0,3,1.916
2040,65.28,5.1827,-4.3866,0.1799,-0.0003,-0.0000,-2.8683,flat,18.0,3,1.378
2050,65.60,4.6488,-4.5197,0.1799,-0.0001,0.0000,-3.0304,flat,18.0,3,0.842
2060,65.92,4.1262,-4.5531,0.1799,-0.0001,-0.0000,3.0526,flat,18.0,0,13.739
2070,66.24,3.5932,-4.4869,0.1799,-0.0001,-0.0000,2.8944,flat,18.0,0,13.289
2080,66.56,3.0902,-4.3472,0.1798,-0.0001,-0.0002,2.8049,flat,18.0,0,12.819
2090,66.88,2.5735,-4.1514,0.1798,-0.0004,-0.0000,2.7144,flat,18.0,0,12.305
2100,67.20,2.0716,-3.9096,0.1798,-0.0003,-0.0000,2.6457,flat,18.0,0,11.773
2110,67.52,1.5837,-3.6339,0.1797,-0.0002,-0.0000,2.5914,flat,18.0,0,11.230
2120,67.84,1.1089,-3.3317,0.1797,-0.0002,-0.0000,2.5484,flat,18.0,0,10.679
2130,68.16,0.6455,-3.0093,0.1797,-0.0001,-0.0000,2.5135,flat,18.0,0,10.124
2140,68.48,0.1919,-2.6707,0.1797,-0.0001,-0.0000,2.4834,flat,18.0,0,9.564
2150,68.80,-0.2528,-2.3184,0.1797,-0.0001,-0.0000,2.4573,flat,18.0,0,9.002
2160,69.12,-0.6894,-1.9544,0.1797,-0.0001,-0.0000,2.4342,flat,18.0,0,8.438
2170,69.44,-1.1184,-1.5804,0.1797,-0.0001,-0.0000,2.4132,flat,18.0,0,7.872
2180,69.76,-1.5405,-1.1973,0.1797,-0.0001,-0.0000,2.3938,flat,18.0,0,7.304
2190,70.08,-1.9557,-0.8060,0.1797,-0.0001,-0.0000,2.3761,flat,18.0,0,6.735
2200,70.40,-2.3645,-0.4073,0.1797,-0.0001,-0.0000,2.3599,flat,18.0,0,6.165
2210,70.72,-2.7672,-0.0020,0.1797,-0.0001,-0.0000,2.3448,flat,18.0,0,5.595
2220,71.04,-3.1640,0.4094,0.1797,-0.0001,-0.0000,2.3304,flat,18.0,0,5.024
2230,71.36,-3.5549,0.8265,0.1797,-0.0000,-0.0000,2.3164,flat,18.0,0,4.452
2240,71.68,-3.9400,1.2491,0.1797,-0.0000,-0.0000,2.3026,flat,18.0,0,3.881
2250,72.00,-4.3194,1.6768,0.1797,-0.0000,0.0000,2.2891,flat,18.0,0,3.309
2260,72.32,-4.6927,2.1094,0.1797,-0.0000,0.0000,2.2751,flat,18.0,0,2.738
2270,72.64,-5.0595,2.5470,0.1797,-0.0001,0.0000,2.2600,flat,18.0,0,2.167
2280,72.96,-5.4186,2.9898,0.1797,-0.0001,0.0000,2.2419,flat,18.0,0,1.597
2290,73.28,-5.7675,3.4382,0.1797,-0.0001,0.0000,2.2169,flat,18.0,0,1.030
2300,73.60,-6.0541,3.8462,0.1798,0.0001,0.0004,2.0477,flat,18.0,1,6.965
2310,73.92,-6.1933,4.1602,0.1798,0.0002,-0.0001,1.5974,flat,18.0,1,7.054
2320,74.24,-6.1842,4.5463,0.1799,0.0001,-0.0000,1.2269,flat,18.0,1,7.005
2330,74.56,-6.0042,4.9500,0.1799,0.0000,-0.0000,0.9588,flat,18.0,1,6.805
2340,74.88,-5.6908,5.3230,0.1799,-0.0000,-0.0000,0.7558,flat,18.0,1,6.495
2350,75.20,-5.2874,5.6515,0.1799,-0.0000,-0.0000,0.5778,flat,18.0,1,6.114
2360,75.52,-4.8190,5.9229,0.1799,-0.0001,-0.0000,0.4140,flat,18.0,1,5.681
2370,75.84,-4.3059,6.1256,0.1799,-0.0001,-0.0000,0.2715,flat,18.0,1,5.211
2380,76.16,-3.7657,6.2601,0.1799,-0.0003,-0.0000,0.1499,flat,18.0,1,4.715
2390,76.48,-3.2106,6.3316,0.1798,-0.0004,-0.0000,0.0450,flat,18.0,1,4.200
2400,76.80,-2.6491,6.3463,0.1798,-0.0004,-0.0000,-0.0460,flat,18.0,1,3.673
2410,77.12,-2.0880,6.3117,0.1798,-0.0003,-0.0000,-0.1225,flat,18.0,1,3.138
2420,77.44,-1.5310,6.2351,0.1797,-0.0003,-0.0000,-0.1906,flat,18.0,1,2.600
2430,77.76,-0.9811,6.1209,0.1797,-0.0002,-0.0000,-0.2558,flat,18.0,1,2.061
2440,78.08,-0.4419,5.9711,0.1797,-0.0003,0.0000,-0.3249,flat,18.0,1,1.527
2450,78.40,0.0800,5.7838,0.1798,-0.0004,0.0000,-0.4088,flat,18.0,1,1.005
2460,78.72,0.5793,5.5564,0.1798,-0.0002,-0.0000,-0.4589,flat,18.0,2,9.966
2470,79.04,1.0804,5.2995,0.1797,-0.0002,-0.0000,-0.5023,flat,18.0,2,9.414
2480,79.36,1.5717,5.0212,0.1797,-0.0001,-0.0000,-0.5376,flat,18.0,2,8.856
2490,79.68,2.0545,4.7255,0.1797,-0.0001,-0.0000,-0.5679,flat,18.0,2,8.295
2500,80.00,2.5295,4.4153,0.1797,-0.0001,-0.0000,-0.5943,flat,18.0,2,7.732
2510,80.32,2.9972,4.0925,0.1797,-0.0001,-0.0000,-0.6178,flat,18.0,2,7.166
2520,80.64,3.4581,3.7587,0.1797,-0.0001,-0.0000,-0.6388,flat,18.0,2,6.599
2530,80.96,3.9126,3.4153,0.1797,-0.0001,-0.0000,-0.6580,flat,18.0,2,6.031
2540,81.28,4.3610,3.0631,0.1797,-0.0001,-0.0000,-0.6756,flat,18.0,2,5.462
2550,81.60,4.8035,2.7029,0.1797,-0.0001,-0.0000,-0.6921,flat,18.0,2,4.892
2560,81.92,5.2402,2.3355,0.1797,-0.0001,-0.0000,-0.7080,flat,18.0,2,4.321
2570,82.24,5.6713,1.9612,0.1797,-0.0001,-0.0000,-0.7235,flat,18.0,2,3.750
2580,82.56,6.0966,1.5802,0.1797,-0.0001,-0.0000,-0.7394,flat,18.0,2,3.179
2590,82.88,6.5157,1.1925,0.1797,-0.0001,0.0000,-0.7559,flat,18.0,2,2.609
2600,83.20,6.9278,0.7979,0.1797,-0.0001,0.0000,-0.7737,flat,18.0,2,2.038
2610,83.52,7.3316,0.3962,0.1797,-0.0001,0.0000,-0.7946,flat,18.0,2,1.470
2620,83.84,7.7239,-0.0133,0.1797,-0.0001,0.0000,-0.8237,flat,18.0,2,0.907
2630,84.16,8.0083,-0.3531,0.1798,0.0003,-0.0000,-1.0717,flat,18.0,3,5.892
2640,84.48,8.1844,-0.7408,0.1799,-0.0000,-0.0000,-1.4074,flat,18.0,3,5.760
2650,84.80,8.2369,-1.2086,0.1799,0.0001,-0.0000,-1.7115,flat,18.0,3,5.509
2660,85.12,8.1431,-1.7007,0.1799,-0.0000,-0.0000,-1.9396,flat,18.0,3,5.152
2670,85.44,7.9297,-2.1769,0.1799,-0.0001,-0.0000,-2.1173,flat,18.0,3,4.724
2680,85.76,7.6279,-2.6193,0.1799,-0.0002,-0.0000,-2.2524,flat,18.0,3,4.251
2690,86.08,7.2667,-3.0262,0.1798,-0.0003,-0.0000,-2.3567,flat,18.0,3,3.754
2700,86.40,6.8630,-3.3952,0.1798,-0.0004,-0.0000,-2.4588,flat,18.0,3,3.244
2710,86.72,6.4218,-3.7266,0.1798,-0.0004,-0.0000,-2.5610,flat,18.0,3,2.722
2720,87.04,5.9480,-4.0148,0.1798,-0.0004,-0.0000,-2.6661,flat,18.0,3,2.191
2730,87.36,5.4466,-4.2538,0.1798,-0.0004,-0.0000,-2.7802,flat,18.0,3,1.655
2740,87.68,4.9233,-4.4343,0.1799,-0.0002,0.0000,-2.9172,flat,18.0,3,1.117
2750,88.00,4.3978,-4.5316,0.1799,0.0001,0.0001,-3.1075,flat,18.0,0,13.936
2760,88.32,3.8723,-4.5288,0.1799,-0.0001,-0.0000,2.9845,flat,18.0,0,13.529
2770,88.64,3.3395,-4.4264,0.1799,-0.0002,-0.0000,2.8438,flat,18.0,0,13.058
2780,88.96,2.8176,-4.2505,0.1798,-0.0004,-0.0000,2.7436,flat,18.0,0,12.552
2790,89.28,2.3103,-4.0236,0.1798,-0.0003,-0.0000,2.6688,flat,18.0,0,12.025
2800,89.60,1.8172,-3.7592,0.1797,-0.0002,-0.0000,2.6104,flat,18.0,0,11.485
2810,89.92,1.3373,-3.4662,0.1797,-0.0002,-0.0000,2.5637,flat,18.0,0,10.936
2820,90.24,0.8697,-3.1510,0.1797,-0.0001,-0.0000,2.5269,flat,18.0,0,10.382
2830,90.56,0.4121,-2.8185,0.1797,-0.0001,-0.0000,2.4954,flat,18.0,0,9.824
2840,90.88,-0.0364,-2.4717,0.1797,-0.0001,-0.0000,2.4681,flat,18.0,0,9.263
2850,91.20,-0.4765,-2.1125,0.1797,-0.0001,-0.0000,2.4442,flat,18.0,0,8.699
2860,91.52,-0.9090,-1.7428,0.1797,-0.0001,-0.0000,2.4228,flat,18.0,0,8.133
2870,91.84,-1.3344,-1.3639,0.1797,-0.0001,-0.0000,2.4030,flat,18.0,0,7.566
2880,92.16,-1.7530,-0.9764,0.1797,-0.0001,-0.0000,2.3848,flat,18.0,0,6.997
2890,92.48,-2.1652,-0.5813,0.1797,-0.0001,-0.0000,2.3682,flat,18.0,0,6.428
2900,92.80,-2.5711,-0.1794,0.1797,-0.0001,-0.0000,2.3529,flat,18.0,0,5.858
2910,93.12,-2.9713,0.2287,0.1797,-0.0001,-0.0000,2.3385,flat,18.0,0,5.287
2920,93.44,-3.3656,0.6427,0.1797,-0.0000,-0.0000,2.3245,flat,18.0,0,4.715
2930,93.76,-3.7542,1.0621,0.1797,-0.0000,-0.0000,2.3109,flat,18.0,0,4.144
2940,94.08,-4.1371,1.4868,0.1797,-0.0000,0.0000,2.2975,flat,18.0,0,3.572
2950,94.40,-4.5143,1.9163,0.1797,-0.0000,0.0000,2.2840,flat,18.0,0,3.001
2960,94.72,-4.8853,2.3508,0.1797,-0.0000,0.0000,2.2697,flat,18.0,0,2.429
2970,95.04,-5.2493,2.7903,0.1797,-0.0001,0.0000,2.2536,flat,18.0,0,1.859
2980,95.36,-5.6048,3.2351,0.1797,-0.0001,0.0000,2.2329,flat,18.0,0,1.290
2990,95.68,-5.9446,3.6824,0.1797,-0.0001,0.0003,2.1835,flat,18.0,1,6.888
3000,96.00,-6.1308,4.0028,0.1798,0.0003,0.0000,1.7811,flat,18.0,1,7.014
3010,96.32,-6.1913,4.3593,0.1799,0.0001,-0.0001,1.3662,flat,18.0,1,7.028
3020,96.64,-6.0794,4.7645,0.1799,0.0001,-0.0000,1.0615,flat,18.0,1,6.887
3030,96.96,-5.8164,5.1544,0.1799,-0.0000,-0.0000,0.8352,flat,18.0,1,6.617
3040,97.28,-5.4461,5.5026,0.1799,-0.0000,-0.0000,0.6518,flat,18.0,1,6.260
3050,97.60,-5.0028,5.8004,0.1799,-0.0000,-0.0000,0.4816,flat,18.0,1,5.847
3060,97.92,-4.5061,6.0331,0.1799,-0.0001,-0.0000,0.3301,flat,18.0,1,5.390
3070,98.24,-3.9757,6.1966,0.1799,-0.0002,-0.0000,0.2005,flat,18.0,1,4.904
3080,98.56,-3.4258,6.2948,0.1798,-0.0004,-0.0000,0.0893,flat,18.0,1,4.396
3090,98.88,-2.8662,6.3338,0.1798,-0.0004,-0.0000,-0.0078,flat,18.0,1,3.874
3100,99.20,-2.3043,6.3199,0.1798,-0.0004,-0.0000,-0.0900,flat,18.0,1,3.342
3110,99.52,-1.7451,6.2611,0.1798,-0.0003,-0.0000,-0.1612,flat,18.0,1,2.804
3120,99.84,-1.1918,6.1631,0.1797,-0.0002,-0.0000,-0.2274,flat,18.0,1,2.266
3130,100.16,-0.6475,6.0288,0.1797,-0.0002,0.0000,-0.2943,flat,18.0,1,1.729
3140,100.48,-0.1175,5.8581,0.1798,-0.0003,0.0000,-0.3717,flat,18.0,1,1.201
3150,100.80,0.3893,5.6468,0.1798,-0.0004,0.0000,-0.4403,flat,18.0,2,10.172
3160,101.12,0.8944,5.3997,0.1797,-0.0002,-0.0000,-0.4867,flat,18.0,2,9.622
3170,101.44,1.3892,5.1291,0.1797,-0.0001,-0.0000,-0.5243,flat,18.0,2,9.066
3180,101.76,1.8752,4.8400,0.1797,-0.0001,-0.0000,-0.5565,flat,18.0,2,8.506
3190,102.08,2.3532,4.5352,0.1797,-0.0001,-0.0000,-0.5844,flat,18.0,2,7.944
3200,102.40,2.8237,4.2171,0.1797,-0.0001,-0.0000,-0.6090,flat,18.0,2,7.379
3210,102.72,3.2871,3.8874,0.1797,-0.0001,-0.0000,-0.6310,flat,18.0,2,6.813
3220,103.04,3.7440,3.5475,0.1797,-0.0001,-0.0000,-0.6509,flat,18.0,2,6.245
3230,103.36,4.1946,3.1985,0.1797,-0.0001,-0.0000,-0.6692,flat,18.0,2,5.676
3240,103.68,4.6393,2.8413,0.1797,-0.0001,-0.0000,-0.6862,flat,18.0,2,5.106
3250,104.00,5.0781,2.4765,0.1797,-0.0001,-0.0000,-0.7022,flat,18.0,2,4.536
3260,104.32,5.5112,2.1046,0.1797,-0.0001,-0.0000,-0.7179,flat,18.0,2,3.965
3270,104.64,5.9386,1.7261,0.1797,-0.0001,-0.0000,-0.7337,flat,18.0,2,3.394
3280,104.96,6.3600,1.3408,0.1797,-0.0001,0.0000,-0.7500,flat,18.0,2,2.823
3290,105.28,6.7746,0.9486,0.1797,-0.0001,0.0000,-0.7672,flat,18.0,2,2.253
3300,105.60,7.1816,0.5495,0.1797,-0.0001,0.0000,-0.7867,flat,18.0,2,1.684
3310,105.92,7.5786,0.1428,0.1797,-0.0001,0.0000,-0.8117,flat,18.0,2,1.118
3320,106.24,7.9274,-0.2395,0.1798,-0.0000,0.0005,-0.9351,flat,18.0,3,5.916
3330,106.56,8.1339,-0.5826,0.1799,0.0001,-0.0000,-1.2773,flat,18.0,3,5.826
3340,106.88,8.2304,-0.9539,0.1799,0.0000,-0.0002,-1.5239,flat,18.0,3,5.659
3350,107.20,8.2305,-1.4271,0.1799,-0.0001,-0.0000,-1.7930,flat,18.0,3,5.377
3360,107.52,8.0930,-1.9148,0.1799,-0.0001,-0.0000,-2.0060,flat,18.0,3,4.997
3370,107.84,7.8450,-2.3792,0.1799,-0.0001,-0.0000,-2.1726,flat,18.0,3,4.553
3380,108.16,7.5177,-2.8077,0.1799,-0.0003,-0.0000,-2.2940,flat,18.0,3,4.071
3390,108.48,7.1390,-3.1983,0.1798,-0.0004,-0.0000,-2.3992,flat,18.0,3,3.571
3400,108.80,6.7192,-3.5517,0.1798,-0.0004,-0.0000,-2.5029,flat,18.0,3,3.057
3410,109.12,6.2634,-3.8648,0.1798,-0.0004,-0.0000,-2.6073,flat,18.0,3,2.533
3420,109.44,5.7768,-4.1317,0.1798,-0.0004,-0.0000,-2.7161,flat,18.0,3,2.000
3430,109.76,5.2645,-4.3457,0.1799,-0.0003,-0.0000,-2.8374,flat,18.0,3,1.463
3440,110.08,4.7338,-4.4955,0.1799,-0.0001,0.0000,-2.9907,flat,18.0,3,0.926
3450,110.40,4.2097,-4.5507,0.1799,-0.0001,-0.0000,3.0924,flat,18.0,0,13.802
3460,110.72,3.6780,-4.5052,0.1799,-0.0001,-0.0000,2.9241,flat,18.0,0,13.365
3470,111.04,3.1482,-4.3707,0.1799,-0.0003,-0.0000,2.8007,flat,18.0,0,12.878
3480,111.36,2.6319,-4.1728,0.1798,-0.0004,-0.0000,2.7120,flat,18.0,0,12.362
3490,111.68,2.1303,-3.9299,0.1797,-0.0003,-0.0000,2.6445,flat,18.0,0,11.829
3500,112.00,1.6424,-3.6536,0.1797,-0.0002,-0.0000,2.5911,flat,18.0,0,11.286
3510,112.32,1.1675,-3.3512,0.1797,-0.0002,-0.0000,2.5489,flat,18.0,0,10.735
3520,112.64,0.7038,-3.0291,0.1797,-0.0001,-0.0000,2.5144,flat,18.0,0,10.179
3530,112.96,0.2497,-2.6909,0.1797,-0.0001,-0.0000,2.4847,flat,18.0,0,9.619
3540,113.28,-0.1956,-2.3391,0.1797,-0.0001,-0.0000,2.4589,flat,18.0,0,9.057
3550,113.60,-0.6328,-1.9759,0.1797,-0.0001,-0.0000,2.4361,flat,18.0,0,8.492
3560,113.92,-1.0627,-1.6027,0.1797,-0.0001,-0.0000,2.4154,flat,18.0,0,7.926
3570,114.24,-1.4856,-1.2205,0.1797,-0.0001,-0.0000,2.3963,flat,18.0,0,7.358
3580,114.56,-1.9019,-0.8302,0.1797,-0.0001,-0.0000,2.3787,flat,18.0,0,6.789
3590,114.88,-2.3118,-0.4326,0.1797,-0.0001,-0.0000,2.3627,flat,18.0,0,6.219
3600,115.20,-2.7158,-0.0284,0.1797,-0.0001,-0.0000,2.3479,flat,18.0,0,5.649
3610,115.52,-3.1139,0.3817,0.1797,-0.0001,-0.0000,2.3337,flat,18.0,0,5.078
3620,115.84,-3.5063,0.7976,0.1797,-0.0000,-0.0000,2.3199,flat,18.0,0,4.506
3630,116.16,-3.8931,1.2188,0.1797,-0.0000,-0.0000,2.3064,flat,18.0,0,3.935
3640,116.48,-4.2741,1.6451,0.1797,-0.0000,0.0000,2.2931,flat,18.0,0,3.363
3650,116.80,-4.6493,2.0763,0.1797,-0.0000,0.0000,2.2794,flat,18.0,0,2.791
3660,117.12,-5.0181,2.5124,0.1797,-0.0001,0.0000,2.2647,flat,18.0,0,2.220
3670,117.44,-5.3796,2.9535,0.1797,-0.0001,0.0000,2.2474,flat,18.0,0,1.650
3680,117.76,-5.7313,3.4002,0.1797,-0.0001,0.0000,2.2239,flat,18.0,0,1.083
3690,118.08,-6.0358,3.8208,0.1798,-0.0000,0.0005,2.0932,flat,18.0,1,6.951
3700,118.40,-6.1854,4.1308,0.1798,0.0002,-0.0001,1.6450,flat,18.0,1,7.050
3710,118.72,-6.1949,4.5100,0.1799,-0.0000,-0.0001,1.2627,flat,18.0,1,7.018
3720,119.04,-6.0320,4.9145,0.1799,-0.0001,-0.0000,0.9855,flat,18.0,1,6.834
3730,119.36,-5.7308,5.2919,0.1799,-0.0001,-0.0000,0.7752,flat,18.0,1,6.534
3740,119.68,-5.3353,5.6252,0.1799,-0.0001,-0.0000,0.5959,flat,18.0,1,6.159
3750,120.00,-4.8728,5.9032,0.1799,-0.0001,-0.0000,0.4299,flat,18.0,1,5.732
3760,120.32,-4.3633,6.1130,0.1799,-0.0001,-0.0000,0.2848,flat,18.0,1,5.265
3770,120.64,-3.8252,6.2541,0.1799,-0.0003,-0.0000,0.1610,flat,18.0,1,4.771
3780,120.96,-3.2712,6.3314,0.1798,-0.0004,-0.0000,0.0545,flat,18.0,1,4.258
3790,121.28,-2.7101,6.3514,0.1798,-0.0004,-0.0000,-0.0381,flat,18.0,1,3.732
3800,121.60,-2.1487,6.3210,0.1798,-0.0004,-0.0000,-0.1158,flat,18.0,1,3.198
3810,121.92,-1.5912,6.2481,0.1797,-0.0003,-0.0000,-0.1845,flat,18.0,1,2.660
3820,122.24,-1.0405,6.1373,0.1797,-0.0002,-0.0000,-0.2497,flat,18.0,1,2.121
3830,122.56,-0.5001,5.9908,0.1797,-0.0002,0.0000,-0.3178,flat,18.0,1,1.586
3840,122.88,0.0240,5.8074,0.1798,-0.0004,0.0000,-0.3996,flat,18.0,1,1.061
3850,123.20,0.5241,5.5837,0.1798,-0.0002,-0.0000,-0.4547,flat,18.0,2,10.027
3860,123.52,1.0262,5.3290,0.1797,-0.0002,-0.0000,-0.4986,flat,18.0,2,9.474
3870,123.84,1.5183,5.0525,0.1797,-0.0001,-0.0000,-0.5344,flat,18.0,2,8.917
3880,124.16,2.0020,4.7585,0.1797,-0.0001,-0.0000,-0.5651,flat,18.0,2,8.357
3890,124.48,2.4777,4.4496,0.1797,-0.0001,-0.0000,-0.5919,flat,18.0,2,7.794
3900,124.80,2.9462,4.1279,0.1797,-0.0001,-0.0000,-0.6155,flat,18.0,2,7.228
3910,125.12,3.4077,3.7952,0.1797,-0.0001,-0.0000,-0.6368,flat,18.0,2,6.661
3920,125.44,3.8629,3.4527,0.1797,-0.0001,-0.0000,-0.6560,flat,18.0,2,6.093
3930,125.76,4.3119,3.1014,0.1797,-0.0001,-0.0000,-0.6738,flat,18.0,2,5.524
3940,126.08,4.7550,2.7420,0.1797,-0.0001,-0.0000,-0.6904,flat,18.0,2,4.954
3950,126.40,5.1924,2.3754,0.1797,-0.0001,-0.0000,-0.7062,flat,18.0,2,4.383
3960,126.72,5.6241,2.0018,0.1797,-0.0001,-0.0000,-0.7218,flat,18.0,2,3.813
3970,127.04,6.0501,1.6216,0.1797,-0.0001,-0.0000,-0.7375,flat,18.0,2,3.242
3980,127.36,6.4699,1.2346,0.1797,-0.0001,0.0000,-0.7540,flat,18.0,2,2.671
3990,127.68,6.8829,0.8408,0.1797,-0.0001,0.0000,-0.7716,flat,18.0,2,2.100
4000,128.00,7.2877,0.4400,0.1797,-0.0001,0.0000,-0.7919,flat,18.0,2,1.532
4010,128.32,7.6817,0.0314,0.1797,-0.0001,0.0000,-0.8195,flat,18.0,2,0.968
4020,128.64,7.9972,-0.3277,0.1798,0.0001,0.0002,-1.0072,flat,18.0,3,5.902
4030,128.96,8.1886,-0.6936,0.1799,0.0000,-0.0001,-1.3477,flat,18.0,3,5.793
4040,129.28,8.2665,-1.1054,0.1799,-0.0001,0.0000,-1.5978,flat,18.0,3,5.595
4050,129.60,8.2287,-1.5904,0.1799,-0.0001,-0.0000,-1.8599,flat,18.0,3,5.284
4060,129.92,8.0568,-2.0726,0.1799,-0.0001,-0.0000,-2.0594,flat,18.0,3,4.886
4070,130.24,7.7826,-2.5260,0.1799,-0.0001,-0.0000,-2.2147,flat,18.0,3,4.431
4080,130.56,7.4371,-2.9429,0.1798,-0.0003,-0.0000,-2.3280,flat,18.0,3,3.943
4090,130.88,7.0448,-3.3209,0.1798,-0.0004,-0.0000,-2.4335,flat,18.0,3,3.440
4100,131.20,6.6125,-3.6614,0.1798,-0.0004,-0.0000,-2.5379,flat,18.0,3,2.923
4110,131.52,6.1458,-3.9594,0.1798,-0.0004,-0.0000,-2.6436,flat,18.0,3,2.396
4120,131.84,5.6497,-4.2092,0.1798,-0.0004,-0.0000,-2.7551,flat,18.0,3,1.862
4130,132.16,5.1300,-4.4033,0.1799,-0.0003,0.0000,-2.8823,flat,18.0,3,1.325
4140,132.48,4.5952,-4.5286,0.1799,-0.0001,0.0000,-3.0506,flat,18.0,0,0.789
4150,132.80,4.0733,-4.5512,0.1799,-0.0000,-0.0000,3.0332,flat,18.0,0,13.697
4160,133.12,3.5401,-4.4753,0.1799,-0.0001,-0.0000,2.8807,flat,18.0,0,13.241
4170,133.44,3.0380,-4.3301,0.1798,-0.0002,-0.0001,2.7945,flat,18.0,0,12.769
4180,133.76,2.5228,-4.1290,0.1798,-0.0004,-0.0000,2.7067,flat,18.0,0,12.252
4190,134.08,2.0223,-3.8834,0.1797,-0.0003,-0.0000,2.6397,flat,18.0,0,11.719
4200,134.40,1.5357,-3.6047,0.1797,-0.0002,-0.0000,2.5866,flat,18.0,0,11.175
4210,134.72,1.0622,-3.3003,0.1797,-0.0001,-0.0000,2.5447,flat,18.0,0,10.624
4220,135.04,0.5998,-2.9761,0.1797,-0.0001,-0.0000,2.5103,flat,18.0,0,10.068
4230,135.36,0.1471,-2.6360,0.1797,-0.0001,-0.0000,2.4807,flat,18.0,0,9.508
4240,135.68,-0.2968,-2.2825,0.1797,-0.0001,-0.0000,2.4549,flat,18.0,0,8.946
4250,136.00,-0.7325,-1.9175,0.1797,-0.0001,-0.0000,2.4321,flat,18.0,0,8.381
4260,136.32,-1.1609,-1.5425,0.1797,-0.0001,-0.0000,2.4112,flat,18.0,0,7.815
4270,136.64,-1.5822,-1.1586,0.1797,-0.0001,-0.0000,2.3920,flat,18.0,0,7.247
4280,136.96,-1.9968,-0.7665,0.1797,-0.0001,-0.0000,2.3744,flat,18.0,0,6.678
4290,137.28,-2.4050,-0.3671,0.1797,-0.0001,-0.0000,2.3584,flat,18.0,0,6.108
4300,137.60,-2.8071,0.0388,0.1797,-0.0001,-0.0000,2.3433,flat,18.0,0,5.538
4310,137.92,-3.2033,0.4508,0.1797,-0.0001,-0.0000,2.3290,flat,18.0,0,4.967
4320,138.24,-3.5936,0.8685,0.1797,-0.0000,-0.0000,2.3150,flat,18.0,0,4.395
4330,138.56,-3.9782,1.2916,0.1797,-0.0000,-0.0000,2.3013,flat,18.0,0,3.824
4340,138.88,-4.3569,1.7197,0.1797,-0.0000,0.0000,2.2877,flat,18.0,0,3.252
4350,139.20,-4.7296,2.1529,0.1797,-0.0000,0.0000,2.2737,flat,18.0,0,2.681
4360,139.52,-5.0957,2.5910,0.1797,-0.0001,0.0000,2.2583,flat,18.0,0,2.110
4370,139.84,-5.4540,3.0343,0.1797,-0.0001,0.0000,2.2399,flat,18.0,0,1.540
4380,140.16,-5.8016,3.4833,0.1797,-0.0001,0.0000,2.2137,flat,18.0,0,0.974
4390,140.48,-6.0717,3.8761,0.1798,0.0002,0.0003,2.0024,flat,18.0,1,6.977
4400,140.80,-6.2002,4.1956,0.1798,0.0001,-0.0001,1.5549,flat,18.0,1,7.056
4410,141.12,-6.1730,4.5868,0.1799,-0.0001,-0.0001,1.1991,flat,18.0,1,6.991
4420,141.44,-5.9781,4.9889,0.1799,-0.0001,-0.0000,0.9378,flat,18.0,1,6.779
4430,141.76,-5.6538,5.3578,0.1799,-0.0001,-0.0000,0.7378,flat,18.0,1,6.459
4440,142.08,-5.2432,5.6814,0.1799,-0.0001,-0.0000,0.5609,flat,18.0,1,6.073
4450,142.40,-4.7693,5.9462,0.1799,-0.0001,-0.0000,0.3988,flat,18.0,1,5.636
4460,142.72,-4.2528,6.1420,0.1799,-0.0002,-0.0000,0.2585,flat,18.0,1,5.162
4470,143.04,-3.7106,6.2699,0.1799,-0.0003,-0.0000,0.1387,flat,18.0,1,4.664
4480,143.36,-3.1545,6.3354,0.1798,-0.0004,-0.0000,0.0352,flat,18.0,1,4.148
4490,143.68,-2.5929,6.3449,0.1798,-0.0004,-0.0000,-0.0542,flat,18.0,1,3.620
4500,144.00,-2.0320,6.3058,0.1798,-0.0003,-0.0000,-0.1296,flat,18.0,1,3.085
4510,144.32,-1.4756,6.2252,0.1797,-0.0003,-0.0000,-0.1971,flat,18.0,1,2.546
4520,144.64,-0.9265,6.1075,0.1797,-0.0002,-0.0000,-0.2624,flat,18.0,1,2.008
4530,144.96,-0.3887,5.9541,0.1797,-0.0003,0.0000,-0.3324,flat,18.0,1,1.474
4540,145.28,0.1310,5.7627,0.1798,-0.0004,0.0000,-0.4181,flat,18.0,1,0.954
4550,145.60,0.6298,5.5318,0.1798,-0.0001,-0.0000,-0.4636,flat,18.0,2,9.911
4560,145.92,1.1300,5.2725,0.1797,-0.0002,-0.0000,-0.5061,flat,18.0,2,9.358
4570,146.24,1.6204,4.9923,0.1797,-0.0001,-0.0000,-0.5408,flat,18.0,2,8.800
4580,146.56,2.1024,4.6951,0.1797,-0.0001,-0.0000,-0.5707,flat,18.0,2,8.239
4590,146.88,2.5767,4.3835,0.1797,-0.0001,-0.0000,-0.5968,flat,18.0,2,7.675
4600,147.20,3.0437,4.0596,0.1797,-0.0001,-0.0000,-0.6200,flat,18.0,2,7.110
4610,147.52,3.5039,3.7248,0.1797,-0.0001,-0.0000,-0.6408,flat,18.0,2,6.542
4620,147.84,3.9578,3.3804,0.1797,-0.0001,-0.0000,-0.6598,flat,18.0,2,5.974
4630,148.16,4.4055,3.0274,0.1797,-0.0001,-0.0000,-0.6773,flat,18.0,2,5.405
4640,148.48,4.8475,2.6665,0.1797,-0.0001,-0.0000,-0.6938,flat,18.0,2,4.835
4650,148.80,5.2837,2.2984,0.1797,-0.0001,-0.0000,-0.7095,flat,18.0,2,4.264
4660,149.12,5.7142,1.9234,0.1797,-0.0001,-0.0000,-0.7251,flat,18.0,2,3.693
4670,149.44,6.1389,1.5417,0.1797,-0.0001,-0.0000,-0.7410,flat,18.0,2,3.122
4680,149.76,6.5573,1.1533,0.1797,-0.0001,0.0000,-0.7576,flat,18.0,2,2.551
4690,150.08,6.9686,0.7581,0.1797,-0.0001,0.0000,-0.7756,flat,18.0,2,1.981
4700,150.40,7.3715,0.3556,0.1797,-0.0001,0.0000,-0.7970,flat,18.0,2,1.413
4710,150.72,7.7622,-0.0548,0.1797,-0.0001,0.0000,-0.8275,flat,18.0,2,0.852
4720,151.04,8.0296,-0.3869,0.1798,0.0003,-0.0000,-1.1056,flat,18.0,3,5.884
4730,151.36,8.1962,-0.7849,0.1799,-0.0000,-0.0000,-1.4395,flat,18.0,3,5.740
4740,151.68,8.2332,-1.2574,0.1799,-0.0002,-0.0000,-1.7336,flat,18.0,3,5.477
4750,152.00,8.1265,-1.7493,0.1799,-0.0001,-0.0000,-1.9574,flat,18.0,3,5.112
4760,152.32,7.9031,-2.2228,0.1799,-0.0001,-0.0000,-2.1327,flat,18.0,3,4.678
4770,152.64,7.5939,-2.6618,0.1799,-0.0002,-0.0000,-2.2631,flat,18.0,3,4.202
4780,152.96,7.2282,-3.0647,0.1798,-0.0004,-0.0000,-2.3670,flat,18.0,3,3.703
4790,153.28,6.8205,-3.4301,0.1798,-0.0004,-0.0000,-2.4690,flat,18.0,3,3.192
4800,153.60,6.3758,-3.7574,0.1798,-0.0004,-0.0000,-2.5713,flat,18.0,3,2.669
4810,153.92,5.8991,-4.0411,0.1798,-0.0004,-0.0000,-2.6770,flat,18.0,3,2.138
4820,154.24,5.3952,-4.2747,0.1799,-0.0004,-0.0000,-2.7925,flat,18.0,3,1.601
4830,154.56,4.8702,-4.4486,0.1799,-0.0001,0.0000,-2.9333,flat,18.0,3,1.063
4840,154.88,4.3464,-4.5366,0.1799,0.0000,-0.0000,-3.1297,flat,18.0,0,13.899
4850,155.20,3.8190,-4.5227,0.1799,-0.0001,-0.0000,2.9679,flat,18.0,0,13.484
4860,155.52,3.2867,-4.4116,0.1799,-0.0002,-0.0000,2.8322,flat,18.0,0,13.009
4870,155.84,2.7662,-4.2299,0.1798,-0.0004,-0.0000,2.7352,flat,18.0,0,12.500
4880,156.16,2.2604,-3.9986,0.1798,-0.0003,-0.0000,2.6623,flat,18.0,0,11.971
4890,156.48,1.7686,-3.7310,0.1797,-0.0002,-0.0000,2.6052,flat,18.0,0,11.430
4900,156.80,1.2901,-3.4355,0.1797,-0.0002,-0.0000,2.5597,flat,18.0,0,10.881
4910,157.12,0.8235,-3.1184,0.1797,-0.0001,-0.0000,2.5235,flat,18.0,0,10.327
4920,157.44,0.3669,-2.7844,0.1797,-0.0001,-0.0000,2.4925,flat,18.0,0,9.768
4930,157.76,-0.0807,-2.4363,0.1797,-0.0001,-0.0000,2.4656,flat,18.0,0,9.206
4940,158.08,-0.5201,-2.0760,0.1797,-0.0001,-0.0000,2.4420,flat,18.0,0,8.642
4950,158.40,-0.9518,-1.7053,0.1797,-0.0001,-0.0000,2.4207,flat,18.0,0,8.077
4960,158.72,-1.3765,-1.3255,0.1797,-0.0001,-0.0000,2.4011,flat,18.0,0,7.509
4970,159.04,-1.7945,-0.9372,0.1797,-0.0001,-0.0000,2.3831,flat,18.0,0,6.940
4980,159.36,-2.2060,-0.5414,0.1797,-0.0001,-0.0000,2.3666,flat,18.0,0,6.371
4990,159.68,-2.6114,-0.1389,0.1797,-0.0001,-0.0000,2.3514,flat,18.0,0,5.801
5000,160.00,-3.0109,0.2699,0.1797,-0.0001,-0.0000,2.3371,flat,18.0,0,5.230
5010,160.32,-3.4047,0.6844,0.1797,-0.0000,-0.0000,2.3232,flat,18.0,0,4.658
5020,160.64,-3.7927,1.1044,0.1797,-0.0000,-0.0000,2.3095,flat,18.0,0,4.087
5030,160.96,-4.1751,1.5295,0.1797,-0.0000,0.0000,2.2961,flat,18.0,0,3.515
5040,161.28,-4.5516,1.9596,0.1797,-0.0000,0.0000,2.2826,flat,18.0,0,2.943
5050,161.60,-4.9220,2.3945,0.1797,-0.0001,0.0000,2.2682,flat,18.0,0,2.372
5060,161.92,-5.2853,2.8345,0.1797,-0.0001,0.0000,2.2518,flat,18.0,0,1.802
5070,162.24,-5.6397,3.2799,0.1797,-0.0001,0.0000,2.2304,flat,18.0,0,1.234
5080,162.56,-5.9715,3.7210,0.1797,-0.0001,0.0003,2.1613,flat,18.0,1,6.907
5090,162.88,-6.1433,4.0343,0.1798,0.0003,0.0000,1.7368,flat,18.0,1,7.022
5100,163.20,-6.1878,4.3990,0.1799,-0.0000,-0.0001,1.3326,flat,18.0,1,7.021
5110,163.52,-6.0590,4.8047,0.1799,-0.0001,-0.0000,1.0382,flat,18.0,1,6.865
5120,163.84,-5.7834,5.1911,0.1799,-0.0001,-0.0000,0.8162,flat,18.0,1,6.584
5130,164.16,-5.4047,5.5348,0.1799,-0.0001,-0.0000,0.6344,flat,18.0,1,6.221
5140,164.48,-4.9551,5.8267,0.1799,-0.0001,-0.0000,0.4657,flat,18.0,1,5.803
5150,164.80,-4.4542,6.0525,0.1799,-0.0001,-0.0000,0.3162,flat,18.0,1,5.343
5160,165.12,-3.9214,6.2092,0.1799,-0.0003,-0.0000,0.1886,flat,18.0,1,4.854
5170,165.44,-3.3701,6.3012,0.1798,-0.0004,-0.0000,0.0790,flat,18.0,1,4.344
5180,165.76,-2.8100,6.3346,0.1798,-0.0004,-0.0000,-0.0167,flat,18.0,1,3.821
5190,166.08,-2.2482,6.3159,0.1798,-0.0004,-0.0000,-0.0975,flat,18.0,1,3.288
5200,166.40,-1.6894,6.2530,0.1798,-0.0003,-0.0000,-0.1680,flat,18.0,1,2.751
5210,166.72,-1.1368,6.1513,0.1797,-0.0002,-0.0000,-0.2339,flat,18.0,1,2.212
5220,167.04,-0.5937,6.0134,0.1797,-0.0002,0.0000,-0.3014,flat,18.0,1,1.676
5230,167.36,-0.0656,5.8388,0.1798,-0.0003,0.0000,-0.3805,flat,18.0,1,1.149
5240,167.68,0.4404,5.6231,0.1798,-0.0003,-0.0000,-0.4445,flat,18.0,2,10.117
5250,168.00,0.9443,5.3735,0.1797,-0.0002,-0.0000,-0.4906,flat,18.0,2,9.566
5260,168.32,1.4382,5.1010,0.1797,-0.0001,-0.0000,-0.5277,flat,18.0,2,9.010
5270,168.64,1.9235,4.8101,0.1797,-0.0001,-0.0000,-0.5594,flat,18.0,2,8.450
5280,168.96,2.4007,4.5040,0.1797,-0.0001,-0.0000,-0.5870,flat,18.0,2,7.888
5290,169.28,2.8704,4.1846,0.1797,-0.0001,-0.0000,-0.6113,flat,18.0,2,7.323
5300,169.60,3.3332,3.8538,0.1797,-0.0001,-0.0000,-0.6331,flat,18.0,2,6.756
5310,169.92,3.7894,3.5130,0.1797,-0.0001,-0.0000,-0.6528,flat,18.0,2,6.188
5320,170.24,4.2394,3.1631,0.1797,-0.0001,-0.0000,-0.6709,flat,18.0,2,5.619
5330,170.56,4.6835,2.8051,0.1797,-0.0001,-0.0000,-0.6878,flat,18.0,2,5.049
5340,170.88,5.1217,2.4396,0.1797,-0.0001,-0.0000,-0.7038,flat,18.0,2,4.479
5350,171.20,5.5543,2.0671,0.1797,-0.0001,-0.0000,-0.7195,flat,18.0,2,3.908
5360,171.52,5.9811,1.6878,0.1797,-0.0001,-0.0000,-0.7353,flat,18.0,2,3.337
5370,171.84,6.4018,1.3019,0.1797,-0.0001,0.0000,-0.7516,flat,18.0,2,2.766
5380,172.16,6.8157,0.9090,0.1797,-0.0001,0.0000,-0.7691,flat,18.0,2,2.196
5390,172.48,7.2218,0.5091,0.1797,-0.0001,0.0000,-0.7888,flat,18.0,2,1.627
5400,172.80,7.6176,0.1017,0.1797,-0.0001,0.0000,-0.8148,flat,18.0,2,1.062
5410,173.12,7.9505,-0.2684,0.1798,0.0001,0.0003,-0.9694,flat,18.0,3,5.911
5420,173.44,8.1503,-0.6231,0.1799,0.0000,-0.0000,-1.3105,flat,18.0,3,5.811
5430,173.76,8.2353,-0.9968,0.1799,0.0000,-0.0001,-1.5485,flat,18.0,3,5.636
5440,174.08,8.2230,-1.4763,0.1799,0.0000,-0.0000,-1.8191,flat,18.0,3,5.343
5450,174.40,8.0729,-1.9628,0.1799,-0.0000,-0.0000,-2.0261,flat,18.0,3,4.955
5460,174.72,7.8154,-2.4236,0.1799,-0.0001,-0.0000,-2.1868,flat,18.0,3,4.507
5470,175.04,7.4818,-2.8486,0.1799,-0.0003,-0.0000,-2.3046,flat,18.0,3,4.022
5480,175.36,7.0989,-3.2353,0.1798,-0.0004,-0.0000,-2.4096,flat,18.0,3,3.520
5490,175.68,6.6752,-3.5850,0.1798,-0.0004,-0.0000,-2.5133,flat,18.0,3,3.005
5500,176.00,6.2161,-3.8936,0.1798,-0.0004,-0.0000,-2.6179,flat,18.0,3,2.480
5510,176.32,5.7266,-4.1556,0.1798,-0.0004,-0.0000,-2.7275,flat,18.0,3,1.947
5520,176.64,5.2122,-4.3638,0.1799,-0.0003,-0.0000,-2.8508,flat,18.0,3,1.409
5530,176.96,4.6802,-4.5063,0.1799,-0.0001,0.0000,-3.0094,flat,18.0,3,0.873
5540,177.28,4.1571,-4.5512,0.1799,-0.0000,-0.0000,3.0709,flat,18.0,0,13.762
5550,177.60,3.6246,-4.4955,0.1799,-0.0001,-0.0000,2.9087,flat,18.0,0,13.319
5560,177.92,3.0960,-4.3534,0.1799,-0.0003,-0.0000,2.7906,flat,18.0,0,12.827
5570,178.24,2.5812,-4.1503,0.1798,-0.0004,-0.0000,2.7045,flat,18.0,0,12.309
5580,178.56,2.0809,-3.9037,0.1797,-0.0003,-0.0000,2.6386,flat,18.0,0,11.776
5590,178.88,1.5943,-3.6244,0.1797,-0.0002,-0.0000,2.5863,flat,18.0,0,11.231
5600,179.20,1.1207,-3.3198,0.1797,-0.0001,-0.0000,2.5452,flat,18.0,0,10.679
5610,179.52,0.6580,-2.9959,0.1797,-0.0001,-0.0000,2.5112,flat,18.0,0,10.123
5620,179.84,0.2048,-2.6563,0.1797,-0.0001,-0.0000,2.4820,flat,18.0,0,9.563
5630,180.16,-0.2396,-2.3033,0.1797,-0.0001,-0.0000,2.4565,flat,18.0,0,9.000
5640,180.48,-0.6761,-1.9390,0.1797,-0.0001,-0.0000,2.4339,flat,18.0,0,8.436
5650,180.80,-1.1052,-1.5649,0.1797,-0.0001,-0.0000,2.4134,flat,18.0,0,7.869
5660,181.12,-1.5275,-1.1819,0.1797,-0.0001,-0.0000,2.3944,flat,18.0,0,7.301
5670,181.44,-1.9432,-0.7908,0.1797,-0.0001,-0.0000,2.3771,flat,18.0,0,6.732
5680,181.76,-2.3525,-0.3925,0.1797,-0.0001,-0.0000,2.3612,flat,18.0,0,6.162
5690,182.08,-2.7558,0.0123,0.1797,-0.0001,-0.0000,2.3464,flat,18.0,0,5.592
5700,182.40,-3.1534,0.4231,0.1797,-0.0001,-0.0000,2.3323,flat,18.0,0,5.020
5710,182.72,-3.5452,0.8395,0.1797,-0.0000,-0.0000,2.3186,flat,18.0,0,4.449
5720,183.04,-3.9314,1.2612,0.1797,-0.0000,-0.0000,2.3051,flat,18.0,0,3.877
5730,183.36,-4.3119,1.6880,0.1797,-0.0000,0.0000,2.2917,flat,18.0,0,3.306
5740,183.68,-4.6864,2.1196,0.1797,-0.0000,0.0000,2.2780,flat,18.0,0,2.734
5750,184.00,-5.0546,2.5562,0.1797,-0.0001,0.0000,2.2631,flat,18.0,0,2.163
5760,184.32,-5.4152,2.9979,0.1797,-0.0001,0.0000,2.2454,flat,18.0,0,1.593
5770,184.64,-5.7658,3.4452,0.1797,-0.0001,0.0000,2.2208,flat,18.0,0,1.027
5780,184.96,-6.0541,3.8518,0.1798,0.0001,0.0004,2.0513,flat,18.0,1,6.964
5790,185.28,-6.1941,4.1651,0.1798,0.0002,-0.0001,1.6005,flat,18.0,1,7.054
5800,185.60,-6.1862,4.5506,0.1799,0.0000,-0.0000,1.2293,flat,18.0,1,7.006
5810,185.92,-6.0074,4.9541,0.1799,0.0000,-0.0000,0.9602,flat,18.0,1,6.808
5820,186.24,-5.6946,5.3272,0.1799,-0.0000,-0.0000,0.7566,flat,18.0,1,6.499
5830,186.56,-5.2917,5.6558,0.1799,-0.0000,-0.0000,0.5784,flat,18.0,1,6.118
5840,186.88,-4.8235,5.9273,0.1799,-0.0001,-0.0000,0.4142,flat,18.0,1,5.686
5850,187.20,-4.3105,6.1301,0.1799,-0.0001,-0.0000,0.2715,flat,18.0,1,5.216
5860,187.52,-3.7703,6.2645,0.1799,-0.0003,-0.0000,0.1496,flat,18.0,1,4.720
5870,187.84,-3.2152,6.3359,0.1798,-0.0004,-0.0000,0.0446,flat,18.0,1,4.206
5880,188.16,-2.6538,6.3504,0.1798,-0.0004,-0.0000,-0.0464,flat,18.0,1,3.679
5890,188.48,-2.0927,6.3155,0.1798,-0.0003,-0.0000,-0.1230,flat,18.0,1,3.144
5900,188.80,-1.5357,6.2386,0.1797,-0.0003,-0.0000,-0.1911,flat,18.0,1,2.606
5910,189.12,-0.9858,6.1242,0.1797,-0.0002,-0.0000,-0.2563,flat,18.0,1,2.067
5920,189.44,-0.4467,5.9741,0.1797,-0.0003,0.0000,-0.3252,flat,18.0,1,1.532
5930,189.76,0.0753,5.7867,0.1798,-0.0004,0.0000,-0.4088,flat,18.0,1,1.010
5940,190.08,0.5748,5.5593,0.1798,-0.0002,-0.0000,-0.4591,flat,18.0,2,9.972
5950,190.40,1.0759,5.3022,0.1797,-0.0002,-0.0000,-0.5024,flat,18.0,2,9.419
5960,190.72,1.5671,5.0238,0.1797,-0.0001,-0.0000,-0.5376,flat,18.0,2,8.861
5970,191.04,2.0499,4.7282,0.1797,-0.0001,-0.0000,-0.5679,flat,18.0,2,8.301
5980,191.36,2.5249,4.4179,0.1797,-0.0001,-0.0000,-0.5943,flat,18.0,2,7.737
5990,191.68,2.9927,4.0951,0.1797,-0.0001,-0.0000,-0.6178,flat,18.0,2,7.171
6000,192.00,3.4536,3.7614,0.1797,-0.0001,-0.0000,-0.6388,flat,18.0,2,6.604
6010,192.32,3.9081,3.4179,0.1797,-0.0001,-0.0000,-0.6579,flat,18.0,2,6.036
6020,192.64,4.3565,3.0657,0.1797,-0.0001,-0.0000,-0.6755,flat,18.0,2,5.467
6030,192.96,4.7991,2.7057,0.1797,-0.0001,-0.0000,-0.6920,flat,18.0,2,4.897
6040,193.28,5.2359,2.3383,0.1797,-0.0001,-0.0000,-0.7078,flat,18.0,2,4.326
6050,193.60,5.6670,1.9641,0.1797,-0.0001,-0.0000,-0.7233,flat,18.0,2,3.755
6060,193.92,6.0924,1.5831,0.1797,-0.0001,-0.0000,-0.7392,flat,18.0,2,3.184
6070,194.24,6.5116,1.1955,0.1797,-0.0001,0.0000,-0.7557,flat,18.0,2,2.614
6080,194.56,6.9238,0.8010,0.1797,-0.0001,0.0000,-0.7734,flat,18.0,2,2.043
6090,194.88,7.3278,0.3994,0.1797,-0.0001,0.0000,-0.7942,flat,18.0,2,1.475
6100,195.20,7.7202,-0.0100,0.1797,-0.0001,0.0000,-0.8231,flat,18.0,2,0.912
6110,195.52,8.0195,-0.3590,0.1798,0.0002,0.0001,-1.0416,flat,18.0,3,5.896
6120,195.84,8.2026,-0.7360,0.1799,-0.0000,-0.0000,-1.3806,flat,18.0,3,5.776
6130,196.16,8.2696,-1.1528,0.1799,-0.0001,-0.0001,-1.6278,flat,18.0,3,5.569
6140,196.48,8.2172,-1.6394,0.1799,-0.0001,-0.0000,-1.8827,flat,18.0,3,5.248
6150,196.80,8.0336,-2.1196,0.1799,-0.0001,-0.0000,-2.0775,flat,18.0,3,4.843
6160,197.12,7.7509,-2.5693,0.1799,-0.0001,-0.0000,-2.2278,flat,18.0,3,4.384
6170,197.44,7.3999,-2.9825,0.1798,-0.0003,-0.0000,-2.3386,flat,18.0,3,3.894
6180,197.76,7.0033,-3.3568,0.1798,-0.0004,-0.0000,-2.4440,flat,18.0,3,3.389
6190,198.08,6.5674,-3.6932,0.1798,-0.0004,-0.0000,-2.5484,flat,18.0,3,2.871
6200,198.40,6.0975,-3.9867,0.1798,-0.0004,-0.0000,-2.6544,flat,18.0,3,2.343
6210,198.72,5.5987,-4.2313,0.1798,-0.0004,-0.0000,-2.7668,flat,18.0,3,1.809
6220,199.04,5.0771,-4.4192,0.1799,-0.0002,0.0000,-2.8966,flat,18.0,3,1.271
6230,199.36,4.5438,-4.5346,0.1799,-0.0000,0.0002,-3.0844,flat,18.0,0,14.052
6240,199.68,4.0204,-4.5478,0.1799,-0.0001,-0.0000,3.0174,flat,18.0,0,13.654
6250,200.00,3.4869,-4.4628,0.1799,-0.0001,-0.0000,2.8680,rough,14.0,0,13.193
6260,200.32,2.9859,-4.3125,0.1798,-0.0002,-0.0001,2.7845,flat,18.0,0,12.718
6270,200.64,2.4722,-4.1063,0.1798,-0.0004,-0.0000,2.6992,flat,18.0,0,12.200
6280,200.96,1.9732,-3.8569,0.1797,-0.0002,-0.0000,2.6338,flat,18.0,0,11.665
6290,201.28,1.4879,-3.5754,0.1797,-0.0002,-0.0000,2.5819,flat,18.0,0,11.120
6300,201.60,1.0156,-3.2687,0.1797,-0.0001,-0.0000,2.5410,flat,18.0,0,10.569
6310,201.92,0.5542,-2.9428,0.1797,-0.0001,-0.0000,2.5071,flat,18.0,0,10.012
6320,202.24,0.1024,-2.6013,0.1797,-0.0001,-0.0000,2.4780,flat,18.0,0,9.452
6330,202.56,-0.3406,-2.2465,0.1797,-0.0001,-0.0000,2.4525,flat,18.0,0,8.890
6340,202.88,-0.7756,-1.8805,0.1797,-0.0001,-0.0000,2.4299,flat,18.0,0,8.325
6350,203.20,-1.2032,-1.5046,0.1797,-0.0001,-0.0000,2.4092,flat,18.0,0,7.758
6360,203.52,-1.6239,-1.1198,0.1797,-0.0001,-0.0000,2.3901,flat,18.0,0,7.190
6370,203.84,-2.0378,-0.7270,0.1797,-0.0001,-0.0000,2.3728,flat,18.0,0,6.621
6380,204.16,-2.4454,-0.3269,0.1797,-0.0001,-0.0000,2.3568,flat,18.0,0,6.051
6390,204.48,-2.8469,0.0797,0.1797,-0.0001,-0.0000,2.3419,flat,18.0,0,5.481
6400,204.80,-3.2425,0.4922,0.1797,-0.0001,-0.0000,2.3275,flat,18.0,0,4.910
6410,205.12,-3.6323,0.9105,0.1797,-0.0000,-0.0000,2.3136,flat,18.0,0,4.338
6420,205.44,-4.0163,1.3341,0.1797,-0.0000,-0.0000,2.2999,flat,18.0,0,3.767
6430,205.76,-4.3944,1.7628,0.1797,-0.0000,0.0000,2.2863,flat,18.0,0,3.195
6440,206.08,-4.7665,2.1964,0.1797,-0.0000,0.0000,2.2722,flat,18.0,0,2.624
6450,206.40,-5.1318,2.6350,0.1797,-0.0001,0.0000,2.2567,flat,18.0,0,2.053
6460,206.72,-5.4892,3.0789,0.1797,-0.0001,0.0000,2.2377,flat,18.0,0,1.484
6470,207.04,-5.8354,3.5285,0.1797,-0.0001,0.0000,2.2102,flat,18.0,0,0.918
6480,207.36,-6.0892,3.9056,0.1798,0.0002,0.0002,1.9559,flat,18.0,1,6.989
6490,207.68,-6.2055,4.2321,0.1799,0.0001,-0.0001,1.5125,flat,18.0,1,7.057
6500,208.00,-6.1609,4.6276,0.1799,0.0001,-0.0000,1.1665,flat,18.0,1,6.976
6510,208.32,-5.9507,5.0278,0.1799,0.0000,-0.0000,0.9140,flat,18.0,1,6.751
6520,208.64,-5.6160,5.3922,0.1799,-0.0000,-0.0000,0.7193,flat,18.0,1,6.423
6530,208.96,-5.1983,5.7107,0.1799,-0.0000,-0.0000,0.5437,flat,18.0,1,6.031
6540,209.28,-4.7192,5.9689,0.1799,-0.0001,-0.0000,0.3837,flat,18.0,1,5.590
6550,209.60,-4.1994,6.1577,0.1799,-0.0002,-0.0000,0.2456,flat,18.0,1,5.114
6560,209.92,-3.6554,6.2791,0.1799,-0.0003,-0.0000,0.1277,flat,18.0,1,4.613
6570,210.24,-3.0985,6.3388,0.1798,-0.0004,-0.0000,0.0256,flat,18.0,1,4.096
6580,210.56,-2.5366,6.3430,0.1798,-0.0004,-0.0000,-0.0622,flat,18.0,1,3.566
6590,210.88,-1.9761,6.2994,0.1798,-0.0003,-0.0000,-0.1366,flat,18.0,1,3.031
6600,211.20,-1.4202,6.2151,0.1797,-0.0003,-0.0000,-0.2037,flat,18.0,1,2.492
6610,211.52,-0.8721,6.0937,0.1797,-0.0002,0.0000,-0.2691,flat,18.0,1,1.954
6620,211.84,-0.3358,5.9367,0.1797,-0.0003,0.0000,-0.3400,flat,18.0,1,1.421
6630,212.16,0.1818,5.7411,0.1798,-0.0004,0.0000,-0.4276,flat,18.0,1,0.903
6640,212.48,0.6802,5.5069,0.1798,-0.0001,-0.0000,-0.4681,flat,18.0,2,9.856
6650,212.80,1.1794,5.2453,0.1797,-0.0001,-0.0000,-0.5098,flat,18.0,2,9.302
6660,213.12,1.6690,4.9632,0.1797,-0.0001,-0.0000,-0.5440,flat,18.0,2,8.744
6670,213.44,2.1502,4.6645,0.1797,-0.0001,-0.0000,-0.5734,flat,18.0,2,8.183
6680,213.76,2.6237,4.3516,0.1797,-0.0001,-0.0000,-0.5992,flat,18.0,2,7.619
6690,214.08,3.0900,4.0265,0.1797,-0.0001,-0.0000,-0.6222,flat,18.0,2,7.053
6700,214.40,3.5496,3.6907,0.1797,-0.0001,-0.0000,-0.6428,flat,18.0,2,6.486
6710,214.72,4.0028,3.3454,0.1797,-0.0001,-0.0000,-0.6616,flat,18.0,2,5.917
6720,215.04,4.4500,2.9916,0.1797,-0.0001,-0.0000,-0.6790,flat,18.0,2,5.348
6730,215.36,4.8914,2.6299,0.1797,-0.0001,-0.0000,-0.6954,flat,18.0,2,4.777
6740,215.68,5.3270,2.2611,0.1797,-0.0001,-0.0000,-0.7111,flat,18.0,2,4.207
6750,216.00,5.7569,1.8855,0.1797,-0.0001,-0.0000,-0.7267,flat,18.0,2,3.636
6760,216.32,6.1811,1.5031,0.1797,-0.0001,-0.0000,-0.7426,flat,18.0,2,3.065
6770,216.64,6.5988,1.1141,0.1797,-0.0001,0.0000,-0.7593,flat,18.0,2,2.494
6780,216.96,7.0094,0.7181,0.1797,-0.0001,0.0000,-0.7776,flat,18.0,2,1.924
6790,217.28,7.4112,0.3149,0.1797,-0.0001,0.0000,-0.7994,flat,18.0,2,1.357
6800,217.60,7.8003,-0.0963,0.1797,-0.0001,0.0000,-0.8316,flat,18.0,3,0.797
6810,217.92,8.0503,-0.4219,0.1799,0.0003,-0.0000,-1.1400,flat,18.0,3,5.874
6820,218.24,8.2067,-0.8298,0.1799,-0.0000,-0.0000,-1.4721,flat,18.0,3,5.719
6830,218.56,8.2292,-1.3071,0.1799,0.0000,-0.0001,-1.7620,flat,18.0,3,5.445
6840,218.88,8.1091,-1.7980,0.1799,-0.0000,-0.0000,-1.9788,flat,18.0,3,5.071
6850,219.20,7.8755,-2.2684,0.1799,-0.0001,-0.0000,-2.1477,flat,18.0,3,4.632
6860,219.52,7.5594,-2.7039,0.1799,-0.0003,-0.0000,-2.2735,flat,18.0,3,4.153
6870,219.84,7.1892,-3.1028,0.1798,-0.0004,-0.0000,-2.3772,flat,18.0,3,3.653
6880,220.16,6.7776,-3.4647,0.1798,-0.0004,-0.0000,-2.4792,flat,18.0,3,3.140
6890,220.48,6.3295,-3.7879,0.1798,-0.0004,-0.0000,-2.5817,flat,18.0,3,2.616
6900,220.80,5.8498,-4.0669,0.1798,-0.0004,-0.0000,-2.6880,flat,18.0,3,2.084
6910,221.12,5.3435,-4.2950,0.1799,-0.0004,-0.0000,-2.8051,flat,18.0,3,1.547
6920,221.44,4.8168,-4.4621,0.1799,-0.0001,0.0000,-2.9500,flat,18.0,3,1.009
6930,221.76,4.2946,-4.5403,0.1799,0.0000,-0.0000,3.1322,flat,18.0,0,13.861
6940,222.08,3.7656,-4.5155,0.1799,-0.0001,-0.0000,2.9527,flat,18.0,0,13.439
6950,222.40,3.2340,-4.3962,0.1799,-0.0002,-0.0000,2.8210,flat,18.0,0,12.959
6960,222.72,2.7149,-4.2087,0.1798,-0.0004,-0.0000,2.7270,flat,18.0,0,12.448
6970,223.04,2.2106,-3.9733,0.1798,-0.0003,-0.0000,2.6560,flat,18.0,0,11.918
6980,223.36,1.7202,-3.7026,0.1797,-0.0002,-0.0000,2.6002,flat,18.0,0,11.376
6990,223.68,1.2430,-3.4046,0.1797,-0.0002,-0.0000,2.5559,flat,18.0,0,10.826
7000,224.00,0.7774,-3.0858,0.1797,-0.0001,-0.0000,2.5202,flat,18.0,0,10.271
7010,224.32,0.3217,-2.7502,0.1797,-0.0001,-0.0000,2.4897,flat,18.0,0,9.712
7020,224.64,-0.1250,-2.4008,0.1797,-0.0001,-0.0000,2.4631,flat,18.0,0,9.150
7030,224.96,-0.5636,-2.0394,0.1797,-0.0001,-0.0000,2.4398,flat,18.0,0,8.586
7040,225.28,-0.9946,-1.6678,0.1797,-0.0001,-0.0000,2.4187,flat,18.0,0,8.020
7050,225.60,-1.4187,-1.2870,0.1797,-0.0001,-0.0000,2.3992,flat,18.0,0,7.452
7060,225.92,-1.8360,-0.8980,0.1797,-0.0001,-0.0000,2.3814,flat,18.0,0,6.884
7070,226.24,-2.2468,-0.5015,0.1797,-0.0001,-0.0000,2.3651,flat,18.0,0,6.314
7080,226.56,-2.6516,-0.0983,0.1797,-0.0001,-0.0000,2.3500,flat,18.0,0,5.743
7090,226.88,-3.0506,0.3111,0.1797,-0.0001,-0.0000,2.3357,flat,18.0,0,5.172
7100,227.20,-3.4438,0.7261,0.1797,-0.0000,-0.0000,2.3218,flat,18.0,0,4.601
7110,227.52,-3.8313,1.1466,0.1797,-0.0000,-0.0000,2.3082,flat,18.0,0,4.030
7120,227.84,-4.2130,1.5723,0.1797,-0.0000,0.0000,2.2948,flat,18.0,0,3.458
7130,228.16,-4.5890,2.0028,0.1797,-0.0000,0.0000,2.2812,flat,18.0,0,2.886
7140,228.48,-4.9587,2.4382,0.1797,-0.0001,0.0000,2.2667,flat,18.0,0,2.315
7150,228.80,-5.3212,2.8788,0.1797,-0.0001,0.0000,2.2499,flat,18.0,0,1.745
7160,229.12,-5.6745,3.3247,0.1797,-0.0001,0.0000,2.2278,flat,18.0,0,1.177
7170,229.44,-5.9947,3.7568,0.1798,-0.0001,0.0004,2.1336,flat,18.0,1,6.923
7180,229.76,-6.1548,4.0664,0.1798,0.0003,-0.0000,1.6920,flat,18.0,1,7.029
7190,230.08,-6.1829,4.4391,0.1799,0.0001,-0.0001,1.2972,flat,18.0,1,7.012
7200,230.40,-6.0375,4.8450,0.1799,0.0001,-0.0000,1.0110,flat,18.0,1,6.841
7210,230.72,-5.7493,5.2275,0.1799,-0.0000,-0.0000,0.7966,flat,18.0,1,6.551
7220,231.04,-5.3626,5.5667,0.1799,-0.0000,-0.0000,0.6167,flat,18.0,1,6.181
7230,231.36,-4.9070,5.8525,0.1799,-0.0001,-0.0000,0.4495,flat,18.0,1,5.758
7240,231.68,-4.4021,6.0713,0.1799,-0.0001,-0.0000,0.3025,flat,18.0,1,5.295
7250,232.00,-3.8669,6.2212,0.1799,-0.0003,-0.0000,0.1769,flat,18.0,1,4.804
7260,232.32,-3.3144,6.3071,0.1798,-0.0004,-0.0000,0.0688,flat,18.0,1,4.292
7270,232.64,-2.7537,6.3349,0.1798,-0.0004,-0.0000,-0.0255,flat,18.0,1,3.768
7280,232.96,-2.1921,6.3114,0.1798,-0.0004,-0.0000,-0.1049,flat,18.0,1,3.234
7290,233.28,-1.6338,6.2445,0.1797,-0.0003,-0.0000,-0.1747,flat,18.0,1,2.697
7300,233.60,-1.0820,6.1391,0.1797,-0.0002,-0.0000,-0.2405,flat,18.0,1,2.158
7310,233.92,-0.5401,5.9976,0.1797,-0.0002,0.0000,-0.3085,flat,18.0,1,1.622
7320,234.24,-0.0139,5.8192,0.1798,-0.0004,0.0000,-0.3895,flat,18.0,1,1.097
7330,234.56,0.4911,5.5993,0.1798,-0.0002,-0.0000,-0.4496,flat,18.0,2,10.062
7340,234.88,0.9941,5.3472,0.1797,-0.0002,-0.0000,-0.4946,flat,18.0,2,9.511
7350,235.20,1.4871,5.0726,0.1797,-0.0001,-0.0000,-0.5311,flat,18.0,2,8.954
7360,235.52,1.9715,4.7801,0.1797,-0.0001,-0.0000,-0.5624,flat,18.0,2,8.394
7370,235.84,2.4480,4.4725,0.1797,-0.0001,-0.0000,-0.5896,flat,18.0,2,7.831
7380,236.16,2.9170,4.1520,0.1797,-0.0001,-0.0000,-0.6136,flat,18.0,2,7.266
7390,236.48,3.3791,3.8201,0.1797,-0.0001,-0.0000,-0.6352,flat,18.0,2,6.699
7400,236.80,3.8347,3.4783,0.1797,-0.0001,-0.0000,-0.6547,flat,18.0,2,6.131
7410,237.12,4.2841,3.1276,0.1797,-0.0001,-0.0000,-0.6727,flat,18.0,2,5.562
7420,237.44,4.7275,2.7688,0.1797,-0.0001,-0.0000,-0.6894,flat,18.0,2,4.992
7430,237.76,5.1652,2.4026,0.1797,-0.0001,-0.0000,-0.7054,flat,18.0,2,4.422
7440,238.08,5.5972,2.0294,0.1797,-0.0001,-0.0000,-0.7210,flat,18.0,2,3.851
7450,238.40,6.0235,1.6495,0.1797,-0.0001,-0.0000,-0.7369,flat,18.0,2,3.280
7460,238.72,6.4435,1.2628,0.1797,-0.0001,0.0000,-0.7533,flat,18.0,2,2.709
7470,239.04,6.8567,0.8693,0.1797,-0.0001,0.0000,-0.7709,flat,18.0,2,2.139
7480,239.36,7.2619,0.4687,0.1797,-0.0001,0.0000,-0.7910,flat,18.0,2,1.570
7490,239.68,7.6564,0.0604,0.1797,-0.0001,0.0000,-0.8180,flat,18.0,2,1.006
7500,240.00,7.9731,-0.2985,0.1798,0.0001,0.0002,-1.0046,flat,18.0,3,5.905
7510,240.32,8.1657,-0.6647,0.1799,0.0000,-0.0001,-1.3440,rough,14.0,3,5.795
7520,240.64,8.2401,-1.0415,0.1799,-0.0000,-0.0001,-1.5745,flat,18.0,3,5.613
7530,240.96,8.2134,-1.5253,0.1799,-0.0001,-0.0000,-1.8400,flat,18.0,3,5.307
7540,241.28,8.0513,-2.0103,0.1799,-0.0001,-0.0000,-2.0428,flat,18.0,3,4.912
7550,241.60,7.7851,-2.4677,0.1799,-0.0001,-0.0000,-2.2007,flat,18.0,3,4.459
7560,241.92,7.4455,-2.8891,0.1798,-0.0003,-0.0000,-2.3152,flat,18.0,3,3.972
7570,242.24,7.0583,-3.2720,0.1798,-0.0004,-0.0000,-2.4200,flat,18.0,3,3.469
7580,242.56,6.6309,-3.6178,0.1798,-0.0004,-0.0000,-2.5236,flat,18.0,3,2.953
7590,242.88,6.1685,-3.9221,0.1798,-0.0004,-0.0000,-2.6285,flat,18.0,3,2.427
7600,243.20,5.6762,-4.1790,0.1798,-0.0004,-0.0000,-2.7390,flat,18.0,3,1.893
7610,243.52,5.1596,-4.3813,0.1799,-0.0003,-0.0000,-2.8645,flat,18.0,3,1.356
7620,243.84,4.6266,-4.5162,0.1799,-0.0001,0.0000,-3.0290,flat,18.0,3,0.819
7630,244.16,4.1044,-4.5498,0.1799,-0.0001,-0.0000,3.0548,flat,18.0,0,13.720
7640,244.48,3.5713,-4.4846,0.1799,-0.0001,-0.0000,2.8958,flat,18.0,0,13.271
7650,244.80,3.0438,-4.3355,0.1799,-0.0004,-0.0000,2.7808,flat,18.0,0,12.776
7660,245.12,2.5305,-4.1274,0.1798,-0.0004,-0.0000,2.6971,flat,18.0,0,12.257
7670,245.44,2.0317,-3.8770,0.1797,-0.0002,-0.0000,2.6328,flat,18.0,0,11.721
7680,245.76,1.5464,-3.5950,0.1797,-0.0002,-0.0000,2.5817,flat,18.0,0,11.176
7690,246.08,1.0740,-3.2882,0.1797,-0.0001,-0.0000,2.5416,flat,18.0,0,10.624
7700,246.40,0.6123,-2.9626,0.1797,-0.0001,-0.0000,2.5081,flat,18.0,0,10.067
7710,246.72,0.1600,-2.6216,0.1797,-0.0001,-0.0000,2.4793,flat,18.0,0,9.507
7720,247.04,-0.2836,-2.2674,0.1797,-0.0001,-0.0000,2.4541,flat,18.0,0,8.944
7730,247.36,-0.7193,-1.9020,0.1797,-0.0001,-0.0000,2.4318,flat,18.0,0,8.379
7740,247.68,-1.1478,-1.5270,0.1797,-0.0001,-0.0000,2.4114,flat,18.0,0,7.812
7750,248.00,-1.5694,-1.1431,0.1797,-0.0001,-0.0000,2.3926,flat,18.0,0,7.244
7760,248.32,-1.9844,-0.7513,0.1797,-0.0001,-0.0000,2.3754,flat,18.0,0,6.675
7770,248.64,-2.3931,-0.3523,0.1797,-0.0001,-0.0000,2.3597,flat,18.0,0,6.105
7780,248.96,-2.7959,0.0531,0.1797,-0.0001,-0.0000,2.3450,flat,18.0,0,5.535
7790,249.28,-3.1928,0.4644,0.1797,-0.0000,-0.0000,2.3309,flat,18.0,0,4.963
7800,249.60,-3.5841,0.8814,0.1797,-0.0000,-0.0000,2.3172,flat,18.0,0,4.392
7810,249.92,-3.9697,1.3036,0.1797,-0.0000,-0.0000,2.3037,flat,18.0,0,3.820
7820,250.24,-4.3496,1.7309,0.1797,-0.0000,0.0000,2.2904,flat,18.0,0,3.249
7830,250.56,-4.7235,2.1631,0.1797,-0.0000,0.0000,2.2766,flat,18.0,0,2.677
7840,250.88,-5.0910,2.6001,0.1797,-0.0001,0.0000,2.2615,flat,18.0,0,2.106
7850,251.20,-5.4508,3.0424,0.1797,-0.0001,0.0000,2.2434,flat,18.0,0,1.536
7860,251.52,-5.8000,3.4902,0.1797,-0.0001,0.0000,2.2176,flat,18.0,0,0.970
7870,251.84,-6.0719,3.8817,0.1798,0.0002,0.0003,2.0057,flat,18.0,1,6.976
7880,252.16,-6.2012,4.2005,0.1798,0.0001,-0.0001,1.5576,flat,18.0,1,7.056
7890,252.48,-6.1754,4.5911,0.1799,-0.0001,-0.0001,1.2005,flat,18.0,1,6.993
7900,252.80,-5.9814,4.9931,0.1799,-0.0001,-0.0000,0.9389,flat,18.0,1,6.782
7910,253.12,-5.6578,5.3620,0.1799,-0.0001,-0.0000,0.7386,flat,18.0,1,6.464
7920,253.44,-5.2475,5.6857,0.1799,-0.0001,-0.0000,0.5615,flat,18.0,1,6.077
7930,253.76,-4.7739,5.9507,0.1799,-0.0001,-0.0000,0.3990,flat,18.0,1,5.641
7940,254.08,-4.2574,6.1466,0.1799,-0.0002,-0.0000,0.2584,flat,18.0,1,5.168
7950,254.40,-3.7153,6.2744,0.1799,-0.0003,-0.0000,0.1385,flat,18.0,1,4.670
7960,254.72,-3.1592,6.3398,0.1798,-0.0004,-0.0000,0.0348,flat,18.0,1,4.154
7970,255.04,-2.5976,6.3490,0.1798,-0.0004,-0.0000,-0.0546,flat,18.0,1,3.626
7980,255.36,-2.0367,6.3096,0.1798,-0.0003,-0.0000,-0.1300,flat,18.0,1,3.090
7990,255.68,-1.4803,6.2288,0.1797,-0.0003,-0.0000,-0.1976,flat,18.0,1,2.552
8000,256.00,-0.9314,6.1108,0.1797,-0.0002,-0.0000,-0.2629,flat,18.0,1,2.013
8010,256.32,-0.3936,5.9571,0.1797,-0.0003,0.0000,-0.3326,flat,18.0,1,1.479
8020,256.64,0.1262,5.7656,0.1798,-0.0004,0.0000,-0.4181,flat,18.0,1,0.959
8030,256.96,0.6253,5.5347,0.1798,-0.0001,-0.0000,-0.4638,flat,18.0,2,9.917
