step,time_s,x,y,z,roll,pitch,yaw,terrain,speed,target_idx,dist_to_target
10,0.32,1.0684,-0.7750,0.1845,-0.0000,-0.0316,-0.0000,rough,14.0,0,5.685
20,0.64,1.4988,-0.7895,0.1793,-0.0001,0.0033,-0.1183,flat,18.0,0,5.358
30,0.96,2.0219,-0.8748,0.1799,-0.0001,-0.0000,-0.3034,flat,18.0,0,4.933
40,1.28,2.5302,-1.0557,0.1799,-0.0002,-0.0000,-0.4442,flat,18.0,0,4.464
50,1.60,3.0139,-1.3071,0.1798,-0.0004,-0.0000,-0.5535,flat,18.0,0,3.970
60,1.92,3.4736,-1.6119,0.1798,-0.0003,-0.0000,-0.6361,flat,18.0,0,3.458
70,2.24,3.9096,-1.9536,0.1798,-0.0003,-0.0000,-0.7093,flat,18.0,0,2.941
80,2.56,4.3164,-2.3270,0.1798,-0.0003,0.0000,-0.7869,flat,18.0,0,2.422
90,2.88,4.6914,-2.7314,0.1798,-0.0004,-0.0000,-0.8720,flat,18.0,0,1.905
100,3.20,5.0301,-3.1664,0.1798,-0.0004,0.0000,-0.9733,flat,18.0,0,1.390
110,3.52,5.3195,-3.6311,0.1799,-0.0001,0.0000,-1.1129,flat,18.0,0,0.890
120,3.84,5.4406,-3.9416,0.1792,0.0003,-0.0034,-0.7812,flat,18.0,1,12.275
130,4.16,5.6143,-4.0682,0.1787,0.0064,0.0001,-0.2295,flat,18.0,1,12.457
140,4.48,5.9221,-4.1332,0.1798,-0.0002,0.0001,0.2798,flat,18.0,1,12.633
150,4.80,6.2249,-4.0191,0.1799,-0.0000,-0.0001,0.6512,flat,18.0,1,12.650
160,5.12,6.5154,-3.7365,0.1799,-0.0000,-0.0001,0.9249,flat,18.0,1,12.518
170,5.44,6.7667,-3.3402,0.1799,0.0000,-0.0000,1.1717,flat,18.0,1,12.278
180,5.76,6.9398,-2.8620,0.1799,0.0001,-0.0000,1.3909,flat,18.0,1,11.943
190,6.08,7.0148,-2.3345,0.1799,0.0001,0.0000,1.5766,flat,18.0,1,11.527
200,6.40,6.9944,-1.7873,0.1799,0.0002,-0.0000,1.7219,flat,18.0,1,11.052
210,6.72,6.8980,-1.2417,0.1798,0.0004,-0.0000,1.8245,flat,18.0,1,10.543
220,7.04,6.7476,-0.7045,0.1798,0.0003,-0.0000,1.9007,flat,18.0,1,10.015
230,7.36,6.5573,-0.1769,0.1797,0.0002,-0.0000,1.9599,flat,18.0,1,9.474
240,7.68,6.3363,0.3413,0.1797,0.0002,-0.0000,2.0075,flat,18.0,1,8.925
250,8.00,6.0911,0.8497,0.1797,0.0001,-0.0000,2.0447,flat,18.0,1,8.372
260,8.32,5.8272,1.3502,0.1797,0.0001,-0.0000,2.0765,flat,18.0,1,7.814
270,8.64,5.5474,1.8435,0.1797,0.0001,-0.0000,2.1042,flat,18.0,1,7.254
280,8.96,5.2540,2.3299,0.1797,0.0001,-0.0000,2.1287,flat,18.0,1,6.691
290,9.28,4.9486,2.8098,0.1797,0.0001,-0.0000,2.1507,flat,18.0,1,6.126
300,9.60,4.6327,3.2836,0.1797,0.0001,-0.0000,2.1707,flat,18.0,1,5.561
310,9.92,4.3074,3.7515,0.1797,0.0001,-0.0000,2.1893,flat,18.0,1,4.994
320,10.24,3.9733,4.2136,0.1797,0.0001,-0.0000,2.2067,flat,18.0,1,4.426
330,10.56,3.6312,4.6701,0.1797,0.0001,-0.0000,2.2235,flat,18.0,1,3.859
340,10.88,3.2814,5.1209,0.1797,0.0001,-0.0000,2.2400,flat,18.0,1,3.290
350,11.20,2.9243,5.5656,0.1797,0.0001,0.0000,2.2568,flat,18.0,1,2.722
360,11.52,2.5596,6.0038,0.1797,0.0001,0.0000,2.2747,flat,18.0,1,2.155
370,11.84,2.1873,6.4344,0.1797,0.0001,0.0000,2.2956,flat,18.0,1,1.588
380,12.16,1.8064,6.8547,0.1797,0.0001,0.0000,2.3238,flat,18.0,1,1.024
390,12.48,1.4633,7.2072,0.1798,-0.0000,0.0005,2.4808,flat,18.0,2,15.313
400,12.80,1.1484,7.4046,0.1799,-0.0001,-0.0001,2.8256,flat,18.0,2,15.282
410,13.12,0.7228,7.5190,0.1799,0.0000,-0.0000,3.1393,flat,18.0,2,15.127
420,13.44,0.2383,7.4975,0.1799,0.0000,-0.0000,-2.8966,flat,18.0,2,14.839
430,13.76,-0.2557,7.3508,0.1799,0.0001,-0.0000,-2.7180,flat,18.0,2,14.449
440,14.08,-0.7343,7.1095,0.1799,0.0002,-0.0000,-2.5836,flat,18.0,2,13.994
450,14.40,-1.1877,6.8024,0.1798,0.0004,-0.0000,-2.4882,flat,18.0,2,13.500
460,14.72,-1.6190,6.4525,0.1798,0.0003,-0.0000,-2.4201,flat,18.0,2,12.984
470,15.04,-2.0272,6.0730,0.1797,0.0002,-0.0000,-2.3594,flat,18.0,2,12.456
480,15.36,-2.4151,5.6685,0.1797,0.0002,-0.0000,-2.3083,flat,18.0,2,11.917
490,15.68,-2.7843,5.2446,0.1797,0.0002,-0.0000,-2.2647,flat,18.0,2,11.372
500,16.00,-3.1375,4.8050,0.1797,0.0001,-0.0000,-2.2272,flat,18.0,2,10.821
510,16.32,-3.4763,4.3518,0.1797,0.0001,-0.0000,-2.1940,flat,18.0,2,10.265
520,16.64,-3.8017,3.8870,0.1797,0.0001,-0.0000,-2.1644,flat,18.0,2,9.706
530,16.96,-4.1147,3.4124,0.1797,0.0001,-0.0000,-2.1380,flat,18.0,2,9.144
540,17.28,-4.4162,2.9292,0.1797,0.0001,-0.0000,-2.1143,flat,18.0,2,8.580
550,17.60,-4.7072,2.4387,0.1797,0.0001,-0.0000,-2.0930,flat,18.0,2,8.014
560,17.92,-4.9885,1.9418,0.1797,0.0001,-0.0000,-2.0737,flat,18.0,2,7.446
570,18.24,-5.2608,1.4393,0.1797,0.0001,-0.0000,-2.0561,flat,18.0,2,6.878
580,18.56,-5.5247,0.9319,0.1797,0.0001,-0.0000,-2.0400,flat,18.0,2,6.308
590,18.88,-5.7809,0.4201,0.1797,0.0001,-0.0000,-2.0250,flat,18.0,2,5.738
600,19.20,-6.0297,-0.0956,0.1797,0.0000,-0.0000,-2.0111,flat,18.0,2,5.167
610,19.52,-6.2716,-0.6149,0.1797,0.0000,-0.0000,-1.9979,flat,18.0,2,4.596
620,19.84,-6.5068,-1.1373,0.1797,0.0000,-0.0000,-1.9853,flat,18.0,2,4.024
630,20.16,-6.7356,-1.6628,0.1797,0.0000,-0.0000,-1.9729,flat,18.0,2,3.452
640,20.48,-6.9578,-2.1910,0.1797,0.0000,-0.0000,-1.9604,flat,18.0,2,2.880
650,20.80,-7.1734,-2.7219,0.1797,0.0000,0.0000,-1.9472,flat,18.0,2,2.308
660,21.12,-7.3816,-3.2553,0.1797,0.0001,0.0000,-1.9325,flat,18.0,2,1.736
670,21.44,-7.5814,-3.7911,0.1797,0.0001,0.0000,-1.9139,flat,18.0,2,1.166
680,21.76,-7.7629,-4.3187,0.1797,0.0000,0.0001,-1.9475,flat,18.0,3,0.870
690,22.08,-7.8810,-4.6930,0.1798,-0.0003,0.0001,-1.7646,rough,14.0,0,13.227
700,22.40,-7.9366,-4.9695,0.1798,-0.0002,-0.0002,-1.4195,rough,14.0,0,13.289
710,22.72,-7.8724,-5.2903,0.1798,0.0001,0.0002,-1.1473,rough,14.0,0,13.239
720,23.04,-7.7053,-5.6186,0.1798,0.0001,-0.0002,-0.9544,flat,18.0,0,13.096
730,23.36,-7.4014,-5.9721,0.1799,0.0001,-0.0000,-0.7392,flat,18.0,0,12.828
740,23.68,-7.0015,-6.2862,0.1799,0.0000,-0.0000,-0.5553,flat,18.0,0,12.472
750,24.00,-6.5326,-6.5449,0.1799,0.0001,-0.0000,-0.3921,flat,18.0,0,12.049
760,24.32,-6.0156,-6.7370,0.1799,0.0002,-0.0000,-0.2531,flat,18.0,0,11.575
770,24.64,-5.4716,-6.8630,0.1798,0.0004,-0.0000,-0.1423,flat,18.0,0,11.067
780,24.96,-4.9135,-6.9321,0.1798,0.0004,-0.0000,-0.0543,flat,18.0,0,10.538
790,25.28,-4.3489,-6.9543,0.1798,0.0003,-0.0000,0.0159,flat,18.0,0,9.994
800,25.60,-3.7831,-6.9387,0.1797,0.0002,-0.0000,0.0685,flat,18.0,0,9.443
810,25.92,-3.2176,-6.8947,0.1797,0.0001,-0.0000,0.1096,flat,18.0,0,8.885
820,26.24,-2.6535,-6.8283,0.1797,0.0001,-0.0000,0.1427,flat,18.0,0,8.325
830,26.56,-2.0908,-6.7437,0.1797,0.0001,-0.0000,0.1706,flat,18.0,0,7.761
840,26.88,-1.5298,-6.6437,0.1797,0.0001,-0.0000,0.1945,flat,18.0,0,7.195
850,27.20,-0.9706,-6.5306,0.1797,0.0001,-0.0000,0.2152,flat,18.0,0,6.627
860,27.52,-0.4132,-6.4061,0.1797,0.0001,-0.0000,0.2334,flat,18.0,0,6.059
870,27.84,0.1423,-6.2716,0.1797,0.0001,-0.0000,0.2498,flat,18.0,0,5.489
880,28.16,0.6959,-6.1281,0.1797,0.0001,-0.0000,0.2646,flat,18.0,0,4.919
890,28.48,1.2476,-5.9764,0.1797,0.0000,-0.0000,0.2784,flat,18.0,0,4.348
900,28.80,1.7974,-5.8172,0.1797,0.0000,-0.0000,0.2913,flat,18.0,0,3.777
910,29.12,2.3452,-5.6509,0.1797,0.0000,-0.0000,0.3039,flat,18.0,0,3.206
920,29.44,2.8907,-5.4778,0.1797,0.0000,0.0000,0.3165,flat,18.0,0,2.634
930,29.76,3.4338,-5.2978,0.1797,0.0000,0.0000,0.3298,flat,18.0,0,2.063
940,30.08,3.9738,-5.1105,0.1797,0.0001,0.0000,0.3450,flat,18.0,0,1.493
950,30.40,4.5091,-4.9150,0.1797,0.0001,0.0000,0.3655,flat,18.0,0,0.924
960,30.72,4.9461,-4.7418,0.1798,-0.0003,0.0001,0.5359,flat,18.0,1,12.866
970,31.04,5.2725,-4.5003,0.1799,-0.0000,-0.0000,0.8038,flat,18.0,1,12.741
980,31.36,5.5610,-4.1387,0.1799,0.0000,-0.0000,1.0389,flat,18.0,1,12.503
990,31.68,5.7904,-3.6880,0.1799,0.0000,-0.0000,1.2517,flat,18.0,1,12.172
1000,32.00,5.9361,-3.1764,0.1799,0.0001,-0.0000,1.4358,flat,18.0,1,11.763
1010,32.32,5.9923,-2.6314,0.1799,0.0001,-0.0000,1.5894,flat,18.0,1,11.295
1020,32.64,5.9680,-2.0762,0.1799,0.0004,-0.0000,1.7033,flat,18.0,1,10.788
1030,32.96,5.8839,-1.5234,0.1798,0.0004,-0.0000,1.7850,flat,18.0,1,10.260
1040,33.28,5.7562,-0.9762,0.1797,0.0002,-0.0000,1.8473,flat,18.0,1,9.719
1050,33.60,5.5954,-0.4355,0.1797,0.0002,-0.0000,1.8966,flat,18.0,1,9.169
1060,33.92,5.4085,0.0979,0.1797,0.0001,-0.0000,1.9349,flat,18.0,1,8.614
1070,34.24,5.2016,0.6251,0.1797,0.0001,-0.0000,1.9668,flat,18.0,1,8.056
1080,34.56,4.9780,1.1468,0.1797,0.0001,-0.0000,1.9943,flat,18.0,1,7.494
1090,34.88,4.7402,1.6632,0.1797,0.0001,-0.0000,2.0184,flat,18.0,1,6.930
1100,35.20,4.4901,2.1746,0.1797,0.0001,-0.0000,2.0398,flat,18.0,1,6.365
1110,35.52,4.2290,2.6812,0.1797,0.0001,-0.0000,2.0591,flat,18.0,1,5.798
1120,35.84,3.9583,3.1832,0.1797,0.0001,-0.0000,2.0768,flat,18.0,1,5.231
1130,36.16,3.6786,3.6807,0.1797,0.0001,-0.0000,2.0932,flat,18.0,1,4.662
1140,36.48,3.3909,4.1739,0.1797,0.0001,-0.0000,2.1087,flat,18.0,1,4.093
1150,36.80,3.0955,4.6627,0.1797,0.0001,-0.0000,2.1238,flat,18.0,1,3.524
1160,37.12,2.7927,5.1470,0.1797,0.0001,0.0000,2.1388,flat,18.0,1,2.955
1170,37.44,2.4827,5.6264,0.1797,0.0001,0.0000,2.1544,flat,18.0,1,2.385
1180,37.76,2.1653,6.1002,0.1797,0.0001,0.0000,2.1716,flat,18.0,1,1.817
1190,38.08,1.8398,6.5670,0.1797,0.0001,0.0000,2.1926,flat,18.0,1,1.250
1200,38.40,1.5153,7.0128,0.1797,0.0001,0.0004,2.2569,flat,18.0,2,15.192
1210,38.72,1.2672,7.2578,0.1798,-0.0003,-0.0000,2.6089,flat,18.0,2,15.235
1220,39.04,0.9083,7.4345,0.1799,-0.0000,-0.0001,2.9449,flat,18.0,2,15.165
1230,39.36,0.4977,7.5006,0.1799,0.0001,-0.0001,-3.1115,flat,18.0,2,14.985
1240,39.68,0.0116,7.4627,0.1799,0.0001,-0.0000,-2.8737,flat,18.0,2,14.686
1250,40.00,-0.4801,7.3028,0.1799,0.0001,-0.0000,-2.6975,flat,18.0,2,14.291
1260,40.32,-0.9545,7.0509,0.1799,0.0002,-0.0000,-2.5657,flat,18.0,2,13.832
1270,40.64,-1.4033,6.7352,0.1798,0.0004,-0.0000,-2.4744,flat,18.0,2,13.336
1280,40.96,-1.8297,6.3792,0.1797,0.0002,-0.0000,-2.4067,flat,18.0,2,12.819
1290,41.28,-2.2327,5.9940,0.1797,0.0002,-0.0000,-2.3463,flat,18.0,2,12.290
1300,41.60,-2.6151,5.5844,0.1797,0.0002,-0.0000,-2.2952,flat,18.0,2,11.751
1310,41.92,-2.9788,5.1560,0.1797,0.0002,-0.0000,-2.2521,flat,18.0,2,11.206
1320,42.24,-3.3267,4.7119,0.1797,0.0001,-0.0000,-2.2144,flat,18.0,2,10.655
1330,42.56,-3.6598,4.2543,0.1797,0.0001,-0.0000,-2.1810,flat,18.0,2,10.099
1340,42.88,-3.9793,3.7853,0.1797,0.0001,-0.0000,-2.1513,flat,18.0,2,9.540
1350,43.20,-4.2862,3.3065,0.1797,0.0001,-0.0000,-2.1248,flat,18.0,2,8.978
1360,43.52,-4.5814,2.8194,0.1797,0.0001,-0.0000,-2.1010,flat,18.0,2,8.413
1370,43.84,-4.8659,2.3251,0.1797,0.0001,-0.0000,-2.0796,flat,18.0,2,7.847
1380,44.16,-5.1406,1.8244,0.1797,0.0001,-0.0000,-2.0603,flat,18.0,2,7.280
1390,44.48,-5.4062,1.3183,0.1797,0.0001,-0.0000,-2.0426,flat,18.0,2,6.711
1400,44.80,-5.6633,0.8074,0.1797,0.0001,-0.0000,-2.0264,flat,18.0,2,6.141
1410,45.12,-5.9125,0.2921,0.1797,0.0001,-0.0000,-2.0113,flat,18.0,2,5.571
1420,45.44,-6.1543,-0.2269,0.1797,0.0001,-0.0000,-1.9973,flat,18.0,2,5.000
1430,45.76,-6.3890,-0.7495,0.1797,0.0000,-0.0000,-1.9839,flat,18.0,2,4.429
1440,46.08,-6.6169,-1.2751,0.1797,0.0000,-0.0000,-1.9710,flat,18.0,2,3.857
1450,46.40,-6.8381,-1.8038,0.1797,0.0000,-0.0000,-1.9583,flat,18.0,2,3.285
1460,46.72,-7.0526,-2.3351,0.1797,0.0000,0.0000,-1.9454,flat,18.0,2,2.713
1470,47.04,-7.2601,-2.8691,0.1797,0.0000,0.0000,-1.9317,flat,18.0,2,2.141
1480,47.36,-7.4599,-3.4055,0.1797,0.0001,0.0000,-1.9158,flat,18.0,2,1.570
1490,47.68,-7.6504,-3.9442,0.1797,0.0001,0.0000,-1.8948,flat,18.0,2,1.000
1500,48.00,-7.8215,-4.4581,0.1799,-0.0000,0.0003,-1.9487,flat,18.0,0,13.166
1510,48.32,-7.9071,-4.7702,0.1798,-0.0003,0.0001,-1.6935,rough,14.0,0,13.254
1520,48.64,-7.9397,-5.0500,0.1798,-0.0002,0.0000,-1.3549,flat,18.0,0,13.295
1530,48.96,-7.8524,-5.3708,0.1799,-0.0000,0.0001,-1.1067,rough,14.0,0,13.224
1540,49.28,-7.6368,-5.7251,0.1799,-0.0000,-0.0000,-0.8702,flat,18.0,0,13.037
1550,49.60,-7.2933,-6.0658,0.1799,0.0000,-0.0000,-0.6717,flat,18.0,0,12.732
1560,49.92,-6.8662,-6.3625,0.1799,0.0001,-0.0000,-0.4952,flat,18.0,0,12.349
1570,50.24,-6.3777,-6.5984,0.1799,0.0001,-0.0000,-0.3406,flat,18.0,0,11.905
1580,50.56,-5.8490,-6.7668,0.1799,0.0003,-0.0000,-0.2120,flat,18.0,0,11.417
1590,50.88,-5.2989,-6.8722,0.1798,0.0004,-0.0000,-0.1104,flat,18.0,0,10.900
1600,51.20,-4.7379,-6.9246,0.1798,0.0004,-0.0000,-0.0294,flat,18.0,0,10.365
1610,51.52,-4.1722,-6.9334,0.1797,0.0002,-0.0000,0.0346,flat,18.0,0,9.818
1620,51.84,-3.6065,-6.9081,0.1797,0.0002,-0.0000,0.0821,flat,18.0,0,9.264
1630,52.16,-3.0414,-6.8567,0.1797,0.0001,-0.0000,0.1198,flat,18.0,0,8.705
1640,52.48,-2.4775,-6.7848,0.1797,0.0001,-0.0000,0.1508,flat,18.0,0,8.143
1650,52.80,-1.9152,-6.6958,0.1797,0.0001,-0.0000,0.1771,flat,18.0,0,7.579
1660,53.12,-1.3545,-6.5922,0.1797,0.0001,-0.0000,0.1997,flat,18.0,0,7.012
1670,53.44,-0.7956,-6.4763,0.1797,0.0001,-0.0000,0.2194,flat,18.0,0,6.444
1680,53.76,-0.2385,-6.3495,0.1797,0.0001,-0.0000,0.2369,flat,18.0,0,5.875
1690,54.08,0.3167,-6.2130,0.1797,0.0001,-0.0000,0.2526,flat,18.0,0,5.305
1700,54.40,0.8700,-6.0680,0.1797,0.0001,-0.0000,0.2670,flat,18.0,0,4.735
1710,54.72,1.4215,-5.9151,0.1797,0.0000,-0.0000,0.2803,flat,18.0,0,4.164
1720,55.04,1.9710,-5.7548,0.1797,0.0000,-0.0000,0.2930,flat,18.0,0,3.592
1730,55.36,2.5185,-5.5877,0.1797,0.0000,-0.0000,0.3055,flat,18.0,0,3.021
1740,55.68,3.0638,-5.4137,0.1797,0.0000,0.0000,0.3181,flat,18.0,0,2.450
1750,56.00,3.6065,-5.2327,0.1797,0.0000,0.0000,0.3318,flat,18.0,0,1.879
1760,56.32,4.1457,-5.0444,0.1797,0.0001,0.0000,0.3480,flat,18.0,0,1.308
1770,56.64,4.6768,-4.8505,0.1797,0.0000,0.0002,0.3886,flat,18.0,1,12.890
1780,56.96,5.0435,-4.6756,0.1799,-0.0002,0.0000,0.6381,flat,18.0,1,12.833
1790,57.28,5.3414,-4.4019,0.1799,0.0000,-0.0001,0.8821,flat,18.0,1,12.672
1800,57.60,5.5955,-4.0448,0.1799,0.0000,-0.0001,1.0882,flat,18.0,1,12.428
1810,57.92,5.8081,-3.5779,0.1799,0.0000,-0.0000,1.2950,flat,18.0,1,12.078
1820,58.24,5.9344,-3.0565,0.1799,0.0001,-0.0000,1.4723,flat,18.0,1,11.654
1830,58.56,5.9723,-2.5075,0.1799,0.0002,-0.0000,1.6168,flat,18.0,1,11.175
1840,58.88,5.9339,-1.9521,0.1798,0.0004,-0.0000,1.7218,flat,18.0,1,10.662
1850,59.20,5.8400,-1.4003,0.1798,0.0003,-0.0000,1.7985,flat,18.0,1,10.131
1860,59.52,5.7051,-0.8542,0.1797,0.0002,-0.0000,1.8576,flat,18.0,1,9.587
1870,59.84,5.5388,-0.3147,0.1797,0.0002,-0.0000,1.9046,flat,18.0,1,9.036
1880,60.16,5.3479,0.2174,0.1797,0.0001,-0.0000,1.9409,flat,18.0,1,8.481
1890,60.48,5.1379,0.7437,0.1797,0.0001,-0.0000,1.9717,flat,18.0,1,7.921
1900,60.80,4.9117,1.2645,0.1797,0.0001,-0.0000,1.9985,flat,18.0,1,7.359
1910,61.12,4.6718,1.7802,0.1797,0.0001,-0.0000,2.0219,flat,18.0,1,6.795
1920,61.44,4.4199,2.2908,0.1797,0.0001,-0.0000,2.0428,flat,18.0,1,6.229
1930,61.76,4.1574,2.7968,0.1797,0.0001,-0.0000,2.0617,flat,18.0,1,5.662
1940,62.08,3.8853,3.2981,0.1797,0.0001,-0.0000,2.0791,flat,18.0,1,5.095
1950,62.40,3.6045,3.7951,0.1797,0.0001,-0.0000,2.0953,flat,18.0,1,4.526
1960,62.72,3.3157,4.2877,0.1797,0.0001,-0.0000,2.1107,flat,18.0,1,3.957
1970,63.04,3.0193,4.7759,0.1797,0.0001,-0.0000,2.1257,flat,18.0,1,3.388
1980,63.36,2.7156,5.2596,0.1797,0.0001,0.0000,2.1408,flat,18.0,1,2.818
1990,63.68,2.4046,5.7382,0.1797,0.0001,0.0000,2.1567,flat,18.0,1,2.249
2000,64.00,2.0861,6.2111,0.1797,0.0001,0.0000,2.1746,flat,18.0,1,1.681
2010,64.32,1.7592,6.6763,0.1797,0.0001,0.0000,2.1973,flat,18.0,1,1.115
2020,64.64,1.4549,7.0940,0.1798,-0.0000,0.0005,2.3251,flat,18.0,2,15.219
2030,64.96,1.1911,7.3153,0.1798,-0.0002,-0.0001,2.6789,flat,18.0,2,15.235
2040,65.28,0.8094,7.4751,0.1799,-0.0000,-0.0001,3.0091,flat,18.0,2,15.141
2050,65.60,0.3801,7.5181,0.1799,0.0001,-0.0001,-3.0412,flat,18.0,2,14.934
2060,65.92,-0.1112,7.4454,0.1799,0.0001,-0.0000,-2.8226,flat,18.0,2,14.606
2070,66.24,-0.5998,7.2586,0.1799,0.0001,-0.0000,-2.6590,flat,18.0,2,14.191
2080,66.56,-1.0675,6.9875,0.1799,0.0003,-0.0000,-2.5378,flat,18.0,2,13.721
2090,66.88,-1.5105,6.6592,0.1798,0.0003,-0.0000,-2.4559,flat,18.0,2,13.217
2100,67.20,-1.9305,6.2952,0.1797,0.0002,-0.0000,-2.3897,flat,18.0,2,12.697
2110,67.52,-2.3280,5.9030,0.1797,0.0002,-0.0000,-2.3322,flat,18.0,2,12.165
2120,67.84,-2.7052,5.4879,0.1797,0.0002,-0.0000,-2.2831,flat,18.0,2,11.625
2130,68.16,-3.0646,5.0552,0.1797,0.0001,-0.0000,-2.2417,flat,18.0,2,11.078
2140,68.48,-3.4085,4.6073,0.1797,0.0001,-0.0000,-2.2053,flat,18.0,2,10.525
2150,68.80,-3.7380,4.1466,0.1797,0.0001,-0.0000,-2.1729,flat,18.0,2,9.969
2160,69.12,-4.0541,3.6749,0.1797,0.0001,-0.0000,-2.1441,flat,18.0,2,9.409
2170,69.44,-4.3578,3.1938,0.1797,0.0001,-0.0000,-2.1184,flat,18.0,2,8.846
2180,69.76,-4.6502,2.7047,0.1797,0.0001,-0.0000,-2.0953,flat,18.0,2,8.281
2190,70.08,-4.9321,2.2086,0.1797,0.0001,-0.0000,-2.0744,flat,18.0,2,7.714
2200,70.40,-5.2044,1.7065,0.1797,0.0001,-0.0000,-2.0555,flat,18.0,2,7.146
2210,70.72,-5.4677,1.1991,0.1797,0.0001,-0.0000,-2.0383,flat,18.0,2,6.577
2220,71.04,-5.7227,0.6870,0.1797,0.0001,-0.0000,-2.0224,flat,18.0,2,6.008
2230,71.36,-5.9700,0.1707,0.1797,0.0001,-0.0000,-2.0077,flat,18.0,2,5.437
2240,71.68,-6.2100,-0.3492,0.1797,0.0000,-0.0000,-1.9939,flat,18.0,2,4.866
2250,72.00,-6.4430,-0.8726,0.1797,0.0000,-0.0000,-1.9807,flat,18.0,2,4.294
2260,72.32,-6.6692,-1.3990,0.1797,0.0000,-0.0000,-1.9679,flat,18.0,2,3.723
2270,72.64,-6.8888,-1.9284,0.1797,0.0000,-0.0000,-1.9553,flat,18.0,2,3.151
2280,72.96,-7.1017,-2.4604,0.1797,0.0000,0.0000,-1.9422,flat,18.0,2,2.579
2290,73.28,-7.3074,-2.9949,0.1797,0.0000,0.0000,-1.9282,flat,18.0,2,2.007
2300,73.60,-7.5052,-3.5319,0.1797,0.0001,0.0000,-1.9116,flat,18.0,2,1.436
2310,73.92,-7.6931,-4.0710,0.1797,0.0001,0.0000,-1.8883,flat,18.0,2,0.867
2320,74.24,-7.8488,-4.5525,0.1799,-0.0004,0.0006,-1.9000,rough,14.0,0,13.194
2330,74.56,-7.9250,-4.8326,0.1798,-0.0002,0.0001,-1.6212,rough,14.0,0,13.273
2340,74.88,-7.9357,-5.1088,0.1798,-0.0001,0.0001,-1.3077,rough,14.0,0,13.293
2350,75.20,-7.8317,-5.4294,0.1799,-0.0000,0.0000,-1.0726,rough,14.0,0,13.208
2360,75.52,-7.6067,-5.7721,0.1799,-0.0001,-0.0000,-0.8455,flat,18.0,0,13.012
2370,75.84,-7.2524,-6.1084,0.1799,0.0000,-0.0000,-0.6509,flat,18.0,0,12.697
2380,76.16,-6.8175,-6.3990,0.1799,0.0000,-0.0000,-0.4765,flat,18.0,0,12.306
2390,76.48,-6.3234,-6.6275,0.1799,0.0001,-0.0000,-0.3245,flat,18.0,0,11.857
2400,76.80,-5.7916,-6.7883,0.1799,0.0003,-0.0000,-0.1991,flat,18.0,0,11.365
2410,77.12,-5.2399,-6.8870,0.1798,0.0004,-0.0000,-0.1000,flat,18.0,0,10.846
2420,77.44,-4.6781,-6.9339,0.1798,0.0004,-0.0000,-0.0210,flat,18.0,0,10.309
2430,77.76,-4.1122,-6.9381,0.1797,0.0002,-0.0000,0.0408,flat,18.0,0,9.761
2440,78.08,-3.5465,-6.9093,0.1797,0.0002,-0.0000,0.0873,flat,18.0,0,9.207
2450,78.40,-2.9816,-6.8552,0.1797,0.0001,-0.0000,0.1240,flat,18.0,0,8.647
2460,78.72,-2.4179,-6.7809,0.1797,0.0001,-0.0000,0.1544,flat,18.0,0,8.085
2470,79.04,-1.8558,-6.6899,0.1797,0.0001,-0.0000,0.1803,flat,18.0,0,7.520
2480,79.36,-1.2953,-6.5846,0.1797,0.0001,-0.0000,0.2025,flat,18.0,0,6.954
2490,79.68,-0.7367,-6.4671,0.1797,0.0001,-0.0000,0.2220,flat,18.0,0,6.385
2500,80.00,-0.1799,-6.3389,0.1797,0.0001,-0.0000,0.2392,flat,18.0,0,5.816
2510,80.32,0.3750,-6.2012,0.1797,0.0001,-0.0000,0.2548,flat,18.0,0,5.246
2520,80.64,0.9281,-6.0550,0.1797,0.0001,-0.0000,0.2690,flat,18.0,0,4.676
2530,80.96,1.4792,-5.9010,0.1797,0.0000,-0.0000,0.2822,flat,18.0,0,4.105
2540,81.28,2.0285,-5.7397,0.1797,0.0000,-0.0000,0.2949,flat,18.0,0,3.533
2550,81.60,2.5757,-5.5715,0.1797,0.0000,-0.0000,0.3073,flat,18.0,0,2.962
2560,81.92,3.1206,-5.3965,0.1797,0.0000,0.0000,0.3200,flat,18.0,0,2.390
2570,82.24,3.6629,-5.2145,0.1797,0.0000,0.0000,0.3338,flat,18.0,0,1.819
2580,82.56,4.2016,-5.0250,0.1797,0.0001,0.0000,0.3506,flat,18.0,0,1.250
2590,82.88,4.7213,-4.8355,0.1797,0.0000,0.0004,0.4066,flat,18.0,1,12.889
2600,83.20,5.0778,-4.6523,0.1799,-0.0001,0.0000,0.6680,flat,18.0,1,12.822
2610,83.52,5.3468,-4.3979,0.1798,0.0001,-0.0004,0.8777,flat,18.0,1,12.670
2620,83.84,5.6204,-4.0062,0.1799,0.0001,-0.0000,1.1067,flat,18.0,1,12.401
2630,84.16,5.8259,-3.5335,0.1799,0.0001,0.0000,1.3104,flat,18.0,1,12.044
2640,84.48,5.9442,-3.0087,0.1799,0.0001,0.0000,1.4845,flat,18.0,1,11.615
2650,84.80,5.9749,-2.4583,0.1799,0.0002,-0.0000,1.6278,flat,18.0,1,11.132
2660,85.12,5.9308,-1.9031,0.1798,0.0004,-0.0000,1.7296,flat,18.0,1,10.617
2670,85.44,5.8326,-1.3517,0.1798,0.0003,-0.0000,1.8045,flat,18.0,1,10.085
2680,85.76,5.6946,-0.8063,0.1797,0.0002,-0.0000,1.8623,flat,18.0,1,9.540
2690,86.08,5.5257,-0.2675,0.1797,0.0002,-0.0000,1.9084,flat,18.0,1,8.989
2700,86.40,5.3328,0.2640,0.1797,0.0001,-0.0000,1.9440,flat,18.0,1,8.433
2710,86.72,5.1212,0.7898,0.1797,0.0001,-0.0000,1.9745,flat,18.0,1,7.873
2720,87.04,4.8936,1.3101,0.1797,0.0001,-0.0000,2.0009,flat,18.0,1,7.311
2730,87.36,4.6524,1.8252,0.1797,0.0001,-0.0000,2.0241,flat,18.0,1,6.747
2740,87.68,4.3994,2.3354,0.1797,0.0001,-0.0000,2.0448,flat,18.0,1,6.181
2750,88.00,4.1358,2.8408,0.1797,0.0001,-0.0000,2.0636,flat,18.0,1,5.614
2760,88.32,3.8628,3.3418,0.1797,0.0001,-0.0000,2.0808,flat,18.0,1,5.046
2770,88.64,3.5812,3.8383,0.1797,0.0001,-0.0000,2.0969,flat,18.0,1,4.477
2780,88.96,3.2916,4.3304,0.1797,0.0001,-0.0000,2.1123,flat,18.0,1,3.908
2790,89.28,2.9944,4.8182,0.1797,0.0001,-0.0000,2.1273,flat,18.0,1,3.339
2800,89.60,2.6900,5.3013,0.1797,0.0001,0.0000,2.1424,flat,18.0,1,2.770
2810,89.92,2.3782,5.7794,0.1797,0.0001,0.0000,2.1584,flat,18.0,1,2.200
2820,90.24,2.0588,6.2516,0.1797,0.0001,0.0000,2.1766,flat,18.0,1,1.632
2830,90.56,1.7311,6.7159,0.1797,0.0001,0.0000,2.1999,flat,18.0,1,1.067
2840,90.88,1.4379,7.1151,0.1798,-0.0000,0.0004,2.3598,flat,18.0,2,15.225
2850,91.20,1.1632,7.3287,0.1798,-0.0002,-0.0001,2.7127,flat,18.0,2,15.229
2860,91.52,0.7709,7.4793,0.1799,0.0000,-0.0001,3.0396,rough,14.0,2,15.122
2870,91.84,0.3461,7.5144,0.1799,-0.0000,-0.0001,-3.0285,flat,18.0,2,14.912
2880,92.16,-0.1456,7.4364,0.1799,0.0001,-0.0000,-2.8127,flat,18.0,2,14.580
2890,92.48,-0.6334,7.2453,0.1799,0.0001,-0.0000,-2.6528,flat,18.0,2,14.163
2900,92.80,-1.0999,6.9713,0.1799,0.0003,-0.0000,-2.5333,flat,18.0,2,13.691
2910,93.12,-1.5418,6.6410,0.1798,0.0003,-0.0000,-2.4526,flat,18.0,2,13.186
2920,93.44,-1.9607,6.2755,0.1797,0.0002,-0.0000,-2.3866,flat,18.0,2,12.666
2930,93.76,-2.3571,5.8821,0.1797,0.0002,-0.0000,-2.3295,flat,18.0,2,12.134
2940,94.08,-2.7333,5.4660,0.1797,0.0002,-0.0000,-2.2807,flat,18.0,2,11.593
2950,94.40,-3.0917,5.0324,0.1797,0.0001,-0.0000,-2.2395,flat,18.0,2,11.046
2960,94.72,-3.4347,4.5838,0.1797,0.0001,-0.0000,-2.2031,flat,18.0,2,10.493
2970,95.04,-3.7633,4.1223,0.1797,0.0001,-0.0000,-2.1709,flat,18.0,2,9.936
2980,95.36,-4.0785,3.6500,0.1797,0.0001,-0.0000,-2.1422,flat,18.0,2,9.376
2990,95.68,-4.3813,3.1683,0.1797,0.0001,-0.0000,-2.1165,flat,18.0,2,8.813
3000,96.00,-4.6729,2.6786,0.1797,0.0001,-0.0000,-2.0935,flat,18.0,2,8.248
3010,96.32,-4.9539,2.1821,0.1797,0.0001,-0.0000,-2.0727,flat,18.0,2,7.681
3020,96.64,-5.2254,1.6795,0.1797,0.0001,-0.0000,-2.0539,flat,18.0,2,7.113
3030,96.96,-5.4879,1.1716,0.1797,0.0001,-0.0000,-2.0367,flat,18.0,2,6.544
3040,97.28,-5.7421,0.6591,0.1797,0.0001,-0.0000,-2.0208,flat,18.0,2,5.975
3050,97.60,-5.9886,0.1424,0.1797,0.0001,-0.0000,-2.0061,flat,18.0,2,5.404
3060,97.92,-6.2278,-0.3779,0.1797,0.0000,-0.0000,-1.9923,flat,18.0,2,4.833
3070,98.24,-6.4599,-0.9016,0.1797,0.0000,-0.0000,-1.9791,flat,18.0,2,4.261
3080,98.56,-6.6854,-1.4284,0.1797,0.0000,-0.0000,-1.9664,flat,18.0,2,3.690
3090,98.88,-6.9041,-1.9581,0.1797,0.0000,-0.0000,-1.9537,flat,18.0,2,3.118
3100,99.20,-7.1161,-2.4904,0.1797,0.0000,0.0000,-1.9406,flat,18.0,2,2.546
3110,99.52,-7.3210,-3.0253,0.1797,0.0000,0.0000,-1.9264,flat,18.0,2,1.974
3120,99.84,-7.5178,-3.5626,0.1797,0.0001,0.0000,-1.9096,flat,18.0,2,1.403
3130,100.16,-7.7044,-4.1019,0.1797,0.0001,0.0000,-1.8855,flat,18.0,2,0.834
3140,100.48,-7.8521,-4.5655,0.1799,-0.0003,0.0006,-1.8754,rough,14.0,0,13.197
3150,100.80,-7.9262,-4.8507,0.1798,-0.0002,-0.0001,-1.5827,flat,18.0,0,13.275
3160,101.12,-7.9257,-5.1517,0.1799,-0.0001,-0.0000,-1.2434,rough,14.0,0,13.285
3170,101.44,-7.7979,-5.4737,0.1798,0.0001,0.0000,-1.0533,rough,14.0,0,13.177
3180,101.76,-7.5496,-5.8309,0.1799,-0.0000,-0.0000,-0.8232,flat,18.0,0,12.961
3190,102.08,-7.1854,-6.1629,0.1799,0.0000,-0.0000,-0.6309,flat,18.0,0,12.637
3200,102.40,-6.7433,-6.4471,0.1799,0.0000,-0.0000,-0.4583,flat,18.0,0,12.241
3210,102.72,-6.2441,-6.6679,0.1799,0.0001,-0.0000,-0.3085,flat,18.0,0,11.786
3220,103.04,-5.7093,-6.8210,0.1799,0.0003,-0.0000,-0.1859,flat,18.0,0,11.291
3230,103.36,-5.1560,-6.9128,0.1798,0.0004,-0.0000,-0.0889,flat,18.0,0,10.770
3240,103.68,-4.5935,-6.9537,0.1798,0.0004,-0.0000,-0.0116,flat,18.0,0,10.232
3250,104.00,-4.0276,-6.9527,0.1797,0.0002,-0.0000,0.0483,flat,18.0,0,9.683
3260,104.32,-3.4619,-6.9199,0.1797,0.0002,-0.0000,0.0938,flat,18.0,0,9.128
3270,104.64,-2.8973,-6.8621,0.1797,0.0001,-0.0000,0.1297,flat,18.0,0,8.568
3280,104.96,-2.3340,-6.7847,0.1797,0.0001,-0.0000,0.1596,flat,18.0,0,8.006
3290,105.28,-1.7722,-6.6908,0.1797,0.0001,-0.0000,0.1850,flat,18.0,0,7.441
3300,105.60,-1.2122,-6.5830,0.1797,0.0001,-0.0000,0.2069,flat,18.0,0,6.874
3310,105.92,-0.6541,-6.4630,0.1797,0.0001,-0.0000,0.2262,flat,18.0,0,6.305
3320,106.24,-0.0978,-6.3324,0.1797,0.0001,-0.0000,0.2433,flat,18.0,0,5.736
3330,106.56,0.4566,-6.1925,0.1797,0.0001,-0.0000,0.2587,flat,18.0,0,5.166
3340,106.88,1.0090,-6.0441,0.1797,0.0001,-0.0000,0.2728,flat,18.0,0,4.596
3350,107.20,1.5596,-5.8880,0.1797,0.0000,-0.0000,0.2861,flat,18.0,0,4.025
3360,107.52,2.1082,-5.7246,0.1797,0.0000,-0.0000,0.2987,flat,18.0,0,3.453
3370,107.84,2.6547,-5.5543,0.1797,0.0000,-0.0000,0.3112,flat,18.0,0,2.882
3380,108.16,3.1989,-5.3771,0.1797,0.0000,0.0000,0.3241,flat,18.0,0,2.311
3390,108.48,3.7403,-5.1929,0.1797,0.0000,0.0000,0.3383,flat,18.0,0,1.740
3400,108.80,4.2779,-5.0010,0.1797,0.0001,0.0000,0.3558,flat,18.0,0,1.170
3410,109.12,4.7821,-4.8152,0.1797,0.0001,0.0004,0.4361,flat,18.0,1,12.887
3420,109.44,5.1307,-4.6202,0.1799,-0.0001,-0.0000,0.6998,flat,18.0,1,12.808
3430,109.76,5.4109,-4.3339,0.1799,0.0001,0.0003,0.9293,rough,14.0,1,12.632
3440,110.08,5.6321,-4.0016,0.1799,0.0001,-0.0003,1.0993,flat,18.0,1,12.401
3450,110.40,5.8394,-3.5321,0.1799,0.0001,-0.0000,1.3047,flat,18.0,1,12.048
3460,110.72,5.9610,-3.0090,0.1799,0.0001,-0.0000,1.4810,flat,18.0,1,11.622
3470,111.04,5.9942,-2.4594,0.1799,0.0002,-0.0000,1.6241,flat,18.0,1,11.142
3480,111.36,5.9519,-1.9043,0.1798,0.0004,-0.0000,1.7277,flat,18.0,1,10.628
3490,111.68,5.8548,-1.3529,0.1798,0.0003,-0.0000,1.8036,flat,18.0,1,10.096
3500,112.00,5.7171,-0.8075,0.1797,0.0002,-0.0000,1.8622,flat,18.0,1,9.553
3510,112.32,5.5484,-0.2688,0.1797,0.0002,-0.0000,1.9088,flat,18.0,1,9.001
3520,112.64,5.3552,0.2625,0.1797,0.0001,-0.0000,1.9449,flat,18.0,1,8.446
3530,112.96,5.1431,0.7880,0.1797,0.0001,-0.0000,1.9756,flat,18.0,1,7.886
3540,113.28,4.9149,1.3080,0.1797,0.0001,-0.0000,2.0022,flat,18.0,1,7.324
3550,113.60,4.6731,1.8227,0.1797,0.0001,-0.0000,2.0256,flat,18.0,1,6.760
3560,113.92,4.4193,2.3324,0.1797,0.0001,-0.0000,2.0465,flat,18.0,1,6.194
3570,114.24,4.1549,2.8374,0.1797,0.0001,-0.0000,2.0653,flat,18.0,1,5.627
3580,114.56,3.8810,3.3378,0.1797,0.0001,-0.0000,2.0827,flat,18.0,1,5.059
3590,114.88,3.5984,3.8338,0.1797,0.0001,-0.0000,2.0989,flat,18.0,1,4.491
3600,115.20,3.3078,4.3253,0.1797,0.0001,-0.0000,2.1144,flat,18.0,1,3.922
3610,115.52,3.0096,4.8124,0.1797,0.0001,-0.0000,2.1294,flat,18.0,1,3.353
3620,115.84,2.7041,5.2948,0.1797,0.0001,0.0000,2.1447,flat,18.0,1,2.783
3630,116.16,2.3913,5.7722,0.1797,0.0001,0.0000,2.1607,flat,18.0,1,2.214
3640,116.48,2.0708,6.2437,0.1797,0.0001,0.0000,2.1788,flat,18.0,1,1.646
3650,116.80,1.7420,6.7072,0.1797,0.0001,0.0000,2.2021,flat,18.0,1,1.080
3660,117.12,1.4479,7.1058,0.1798,-0.0000,0.0004,2.3613,flat,18.0,2,15.224
3670,117.44,1.1726,7.3193,0.1798,-0.0002,-0.0001,2.7140,flat,18.0,2,15.227
3680,117.76,0.7797,7.4695,0.1799,0.0000,-0.0001,3.0405,rough,14.0,2,15.119
3690,118.08,0.3545,7.5043,0.1799,-0.0000,-0.0001,-3.0280,flat,18.0,2,14.909
3700,118.40,-0.1374,7.4261,0.1799,0.0001,-0.0000,-2.8126,flat,18.0,2,14.576
3710,118.72,-0.6253,7.2348,0.1799,0.0001,-0.0000,-2.6528,flat,18.0,2,14.158
3720,119.04,-1.0919,6.9608,0.1799,0.0003,-0.0000,-2.5336,flat,18.0,2,13.685
3730,119.36,-1.5340,6.6306,0.1798,0.0003,-0.0000,-2.4530,flat,18.0,2,13.181
3740,119.68,-1.9530,6.2654,0.1797,0.0002,-0.0000,-2.3870,flat,18.0,2,12.660
3750,120.00,-2.3496,5.8721,0.1797,0.0002,-0.0000,-2.3300,flat,18.0,2,12.128
3760,120.32,-2.7260,5.4562,0.1797,0.0002,-0.0000,-2.2813,flat,18.0,2,11.587
3770,120.64,-3.0847,5.0228,0.1797,0.0001,-0.0000,-2.2402,flat,18.0,2,11.040
3780,120.96,-3.4280,4.5744,0.1797,0.0001,-0.0000,-2.2039,flat,18.0,2,10.487
3790,121.28,-3.7569,4.1131,0.1797,0.0001,-0.0000,-2.1717,flat,18.0,2,9.930
3800,121.60,-4.0725,3.6410,0.1797,0.0001,-0.0000,-2.1430,flat,18.0,2,9.370
3810,121.92,-4.3757,3.1596,0.1797,0.0001,-0.0000,-2.1174,flat,18.0,2,8.807
3820,122.24,-4.6677,2.6702,0.1797,0.0001,-0.0000,-2.0944,flat,18.0,2,8.242
3830,122.56,-4.9492,2.1739,0.1797,0.0001,-0.0000,-2.0737,flat,18.0,2,7.676
3840,122.88,-5.2211,1.6715,0.1797,0.0001,-0.0000,-2.0548,flat,18.0,2,7.108
3850,123.20,-5.4841,1.1639,0.1797,0.0001,-0.0000,-2.0376,flat,18.0,2,6.539
3860,123.52,-5.7388,0.6516,0.1797,0.0001,-0.0000,-2.0218,flat,18.0,2,5.969
3870,123.84,-5.9858,0.1352,0.1797,0.0001,-0.0000,-2.0071,flat,18.0,2,5.398
3880,124.16,-6.2254,-0.3849,0.1797,0.0000,-0.0000,-1.9933,flat,18.0,2,4.827
3890,124.48,-6.4581,-0.9084,0.1797,0.0000,-0.0000,-1.9801,flat,18.0,2,4.256
3900,124.80,-6.6840,-1.4350,0.1797,0.0000,-0.0000,-1.9673,flat,18.0,2,3.684
3910,125.12,-6.9033,-1.9644,0.1797,0.0000,-0.0000,-1.9546,flat,18.0,2,3.112
3920,125.44,-7.1158,-2.4965,0.1797,0.0000,0.0000,-1.9415,flat,18.0,2,2.540
3930,125.76,-7.3212,-3.0312,0.1797,0.0000,0.0000,-1.9273,flat,18.0,2,1.968
3940,126.08,-7.5184,-3.5683,0.1797,0.0001,0.0000,-1.9104,flat,18.0,2,1.398
3950,126.40,-7.7055,-4.1075,0.1797,0.0001,0.0000,-1.8862,flat,18.0,2,0.829
3960,126.72,-7.8535,-4.5709,0.1799,-0.0003,0.0006,-1.8760,rough,14.0,0,13.198
3970,127.04,-7.9276,-4.8531,0.1798,-0.0002,-0.0000,-1.5900,rough,14.0,0,13.276
3980,127.36,-7.9351,-5.1226,0.1798,-0.0001,-0.0001,-1.2759,rough,14.0,0,13.293
3990,127.68,-7.8202,-5.4414,0.1798,0.0001,0.0000,-1.0715,rough,14.0,0,13.197
4000,128.00,-7.5953,-5.7875,0.1799,-0.0001,-0.0000,-0.8522,flat,18.0,0,13.002
4010,128.32,-7.2440,-6.1247,0.1799,0.0000,-0.0000,-0.6558,flat,18.0,0,12.691
4020,128.64,-6.8112,-6.4165,0.1799,0.0000,-0.0000,-0.4804,flat,18.0,0,12.303
4030,128.96,-6.3185,-6.6464,0.1799,0.0001,-0.0000,-0.3273,flat,18.0,0,11.855
4040,129.28,-5.7873,-6.8084,0.1799,0.0003,-0.0000,-0.2007,flat,18.0,0,11.365
4050,129.60,-5.2359,-6.9078,0.1798,0.0004,-0.0000,-0.1006,flat,18.0,0,10.847
4060,129.92,-4.6742,-6.9549,0.1798,0.0004,-0.0000,-0.0209,flat,18.0,0,10.310
4070,130.24,-4.1084,-6.9590,0.1797,0.0002,-0.0000,0.0416,flat,18.0,0,9.763
4080,130.56,-3.5428,-6.9297,0.1797,0.0002,-0.0000,0.0884,flat,18.0,0,9.208
4090,130.88,-2.9780,-6.8749,0.1797,0.0001,-0.0000,0.1254,flat,18.0,0,8.649
4100,131.20,-2.4145,-6.7998,0.1797,0.0001,-0.0000,0.1561,flat,18.0,0,8.087
4110,131.52,-1.8525,-6.7078,0.1797,0.0001,-0.0000,0.1820,flat,18.0,0,7.522
4120,131.84,-1.2923,-6.6016,0.1797,0.0001,-0.0000,0.2044,flat,18.0,0,6.956
4130,132.16,-0.7340,-6.4830,0.1797,0.0001,-0.0000,0.2239,flat,18.0,0,6.388
4140,132.48,-0.1775,-6.3537,0.1797,0.0001,-0.0000,0.2413,flat,18.0,0,5.819
4150,132.80,0.3771,-6.2148,0.1797,0.0001,-0.0000,0.2569,flat,18.0,0,5.249
4160,133.12,0.9298,-6.0674,0.1797,0.0001,-0.0000,0.2712,flat,18.0,0,4.678
4170,133.44,1.4806,-5.9121,0.1797,0.0000,-0.0000,0.2845,flat,18.0,0,4.107
4180,133.76,2.0295,-5.7496,0.1797,0.0000,-0.0000,0.2973,flat,18.0,0,3.536
4190,134.08,2.5762,-5.5801,0.1797,0.0000,-0.0000,0.3097,flat,18.0,0,2.964
4200,134.40,3.1207,-5.4037,0.1797,0.0000,0.0000,0.3225,flat,18.0,0,2.393
4210,134.72,3.6625,-5.2204,0.1797,0.0000,0.0000,0.3364,flat,18.0,0,1.822
4220,135.04,4.2007,-5.0295,0.1797,0.0001,0.0000,0.3532,flat,18.0,0,1.252
4230,135.36,4.7199,-4.8386,0.1797,0.0000,0.0004,0.4093,flat,18.0,1,12.891
4240,135.68,5.0760,-4.6542,0.1799,-0.0001,0.0000,0.6709,flat,18.0,1,12.823
4250,136.00,5.3636,-4.3744,0.1799,0.0000,-0.0001,0.9030,flat,18.0,1,12.654
4260,136.32,5.6243,-3.9845,0.1799,0.0000,-0.0000,1.1218,flat,18.0,1,12.383
4270,136.64,5.8243,-3.5072,0.1799,0.0001,-0.0000,1.3238,flat,18.0,1,12.019
4280,136.96,5.9369,-2.9799,0.1799,0.0001,-0.0000,1.4970,flat,18.0,1,11.585
4290,137.28,5.9616,-2.4286,0.1799,0.0002,-0.0000,1.6355,flat,18.0,1,11.100
4300,137.60,5.9135,-1.8735,0.1798,0.0004,-0.0000,1.7348,flat,18.0,1,10.583
4310,137.92,5.8126,-1.3223,0.1798,0.0003,-0.0000,1.8081,flat,18.0,1,10.049
4320,138.24,5.6726,-0.7772,0.1797,0.0002,-0.0000,1.8649,flat,18.0,1,9.504
4330,138.56,5.5024,-0.2387,0.1797,0.0002,-0.0000,1.9099,flat,18.0,1,8.952
4340,138.88,5.3087,0.2927,0.1797,0.0001,-0.0000,1.9451,flat,18.0,1,8.396
4350,139.20,5.0965,0.8183,0.1797,0.0001,-0.0000,1.9752,flat,18.0,1,7.836
4360,139.52,4.8686,1.3386,0.1797,0.0001,-0.0000,2.0013,flat,18.0,1,7.274
4370,139.84,4.6272,1.8536,0.1797,0.0001,-0.0000,2.0243,flat,18.0,1,6.709
4380,140.16,4.3741,2.3638,0.1797,0.0001,-0.0000,2.0448,flat,18.0,1,6.143
4390,140.48,4.1105,2.8694,0.1797,0.0001,-0.0000,2.0634,flat,18.0,1,5.576
4400,140.80,3.8376,3.3704,0.1797,0.0001,-0.0000,2.0805,flat,18.0,1,5.008
4410,141.12,3.5561,3.8670,0.1797,0.0001,-0.0000,2.0965,flat,18.0,1,4.439
4420,141.44,3.2667,4.3593,0.1797,0.0001,-0.0000,2.1118,flat,18.0,1,3.870
4430,141.76,2.9698,4.8472,0.1797,0.0001,-0.0000,2.1268,flat,18.0,1,3.301
4440,142.08,2.6655,5.3305,0.1797,0.0001,0.0000,2.1420,flat,18.0,1,2.731
4450,142.40,2.3540,5.8087,0.1797,0.0001,0.0000,2.1580,flat,18.0,1,2.162
4460,142.72,2.0349,6.2810,0.1797,0.0001,0.0000,2.1763,flat,18.0,1,1.594
4470,143.04,1.7072,6.7452,0.1797,0.0001,0.0000,2.2002,flat,18.0,1,1.029
4480,143.36,1.4141,7.1440,0.1798,-0.0000,0.0004,2.3612,flat,18.0,2,15.233
4490,143.68,1.1392,7.3573,0.1798,-0.0002,-0.0001,2.7146,flat,18.0,2,15.238
4500,144.00,0.7467,7.5071,0.1799,0.0000,-0.0001,3.0417,flat,18.0,2,15.131
4510,144.32,0.2764,7.5310,0.1799,0.0000,-0.0000,-2.9669,flat,18.0,2,14.888
4520,144.64,-0.2170,7.4208,0.1799,0.0001,-0.0000,-2.7672,flat,18.0,2,14.529
4530,144.96,-0.7009,7.2053,0.1799,0.0001,-0.0000,-2.6186,flat,18.0,2,14.094
4540,145.28,-1.1608,6.9148,0.1798,0.0004,-0.0000,-2.5098,flat,18.0,2,13.611
4550,145.60,-1.5975,6.5743,0.1798,0.0003,-0.0000,-2.4359,flat,18.0,2,13.101
4560,145.92,-2.0109,6.2017,0.1797,0.0002,-0.0000,-2.3723,flat,18.0,2,12.577
4570,146.24,-2.4027,5.8025,0.1797,0.0002,-0.0000,-2.3180,flat,18.0,2,12.042
4580,146.56,-2.7748,5.3821,0.1797,0.0002,-0.0000,-2.2715,flat,18.0,2,11.499
4590,146.88,-3.1301,4.9451,0.1797,0.0001,-0.0000,-2.2320,flat,18.0,2,10.950
4600,147.20,-3.4703,4.4937,0.1797,0.0001,-0.0000,-2.1970,flat,18.0,2,10.396
4610,147.52,-3.7965,4.0301,0.1797,0.0001,-0.0000,-2.1659,flat,18.0,2,9.838
4620,147.84,-4.1098,3.5560,0.1797,0.0001,-0.0000,-2.1382,flat,18.0,2,9.277
4630,148.16,-4.4110,3.0730,0.1797,0.0001,-0.0000,-2.1134,flat,18.0,2,8.714
4640,148.48,-4.7013,2.5823,0.1797,0.0001,-0.0000,-2.0911,flat,18.0,2,8.148
4650,148.80,-4.9814,2.0850,0.1797,0.0001,-0.0000,-2.0710,flat,18.0,2,7.581
4660,149.12,-5.2521,1.5819,0.1797,0.0001,-0.0000,-2.0527,flat,18.0,2,7.013
4670,149.44,-5.5142,1.0737,0.1797,0.0001,-0.0000,-2.0360,flat,18.0,2,6.444
4680,149.76,-5.7682,0.5609,0.1797,0.0001,-0.0000,-2.0206,flat,18.0,2,5.874
4690,150.08,-6.0147,0.0442,0.1797,0.0001,-0.0000,-2.0062,flat,18.0,2,5.303
4700,150.40,-6.2540,-0.4762,0.1797,0.0000,-0.0000,-1.9927,flat,18.0,2,4.732
4710,150.72,-6.4864,-0.9999,0.1797,0.0000,-0.0000,-1.9798,flat,18.0,2,4.160
4720,151.04,-6.7122,-1.5265,0.1797,0.0000,-0.0000,-1.9672,flat,18.0,2,3.588
4730,151.36,-6.9315,-2.0560,0.1797,0.0000,-0.0000,-1.9546,flat,18.0,2,3.016
4740,151.68,-7.1440,-2.5881,0.1797,0.0000,0.0000,-1.9416,flat,18.0,2,2.444
4750,152.00,-7.3493,-3.1228,0.1797,0.0001,0.0000,-1.9272,flat,18.0,2,1.873
4760,152.32,-7.5465,-3.6598,0.1797,0.0001,0.0000,-1.9098,flat,18.0,2,1.302
4770,152.64,-7.7295,-4.1961,0.1797,0.0001,0.0002,-1.9042,flat,18.0,3,0.978
4780,152.96,-7.8658,-4.6204,0.1798,-0.0002,0.0004,-1.8192,rough,14.0,0,13.211
4790,153.28,-7.9358,-4.9063,0.1798,-0.0002,-0.0002,-1.4727,flat,18.0,0,13.286
4800,153.60,-7.8803,-5.2697,0.1799,-0.0001,-0.0001,-1.1162,rough,14.0,0,13.246
4810,153.92,-7.7069,-5.5899,0.1798,0.0001,-0.0004,-0.9403,flat,18.0,0,13.095
4820,154.24,-7.3957,-5.9420,0.1799,0.0001,-0.0000,-0.7289,flat,18.0,0,12.819
4830,154.56,-6.9911,-6.2541,0.1799,0.0001,-0.0000,-0.5467,flat,18.0,0,12.457
4840,154.88,-6.5189,-6.5099,0.1799,0.0001,-0.0000,-0.3856,flat,18.0,0,12.029
4850,155.20,-6.0001,-6.6992,0.1799,0.0002,-0.0000,-0.2487,flat,18.0,0,11.552
4860,155.52,-5.4552,-6.8232,0.1798,0.0004,-0.0000,-0.1400,flat,18.0,0,11.043
4870,155.84,-4.8967,-6.8913,0.1798,0.0004,-0.0000,-0.0535,flat,18.0,0,10.512
4880,156.16,-4.3319,-6.9132,0.1798,0.0003,-0.0000,0.0155,flat,18.0,0,9.968
4890,156.48,-3.7660,-6.8981,0.1797,0.0002,-0.0000,0.0671,flat,18.0,0,9.416
4900,156.80,-3.2005,-6.8549,0.1797,0.0001,-0.0000,0.1076,flat,18.0,0,8.858
4910,157.12,-2.6361,-6.7897,0.1797,0.0001,-0.0000,0.1403,flat,18.0,0,8.297
4920,157.44,-2.0731,-6.7065,0.1797,0.0001,-0.0000,0.1679,flat,18.0,0,7.733
4930,157.76,-1.5117,-6.6081,0.1797,0.0001,-0.0000,0.1915,flat,18.0,0,7.167
4940,158.08,-0.9521,-6.4966,0.1797,0.0001,-0.0000,0.2121,flat,18.0,0,6.600
4950,158.40,-0.3942,-6.3739,0.1797,0.0001,-0.0000,0.2302,flat,18.0,0,6.031
4960,158.72,0.1617,-6.2412,0.1797,0.0001,-0.0000,0.2464,flat,18.0,0,5.461
4970,159.04,0.7159,-6.0996,0.1797,0.0001,-0.0000,0.2611,flat,18.0,0,4.891
4980,159.36,1.2682,-5.9499,0.1797,0.0000,-0.0000,0.2747,flat,18.0,0,4.320
4990,159.68,1.8185,-5.7927,0.1797,0.0000,-0.0000,0.2876,flat,18.0,0,3.749
5000,160.00,2.3669,-5.6285,0.1797,0.0000,-0.0000,0.3001,flat,18.0,0,3.177
5010,160.32,2.9132,-5.4574,0.1797,0.0000,0.0000,0.3127,flat,18.0,0,2.606
5020,160.64,3.4570,-5.2795,0.1797,0.0000,0.0000,0.3260,flat,18.0,0,2.035
5030,160.96,3.9976,-5.0943,0.1797,0.0001,0.0000,0.3413,flat,18.0,0,1.464
5040,161.28,4.5336,-4.9007,0.1797,0.0001,0.0000,0.3621,flat,18.0,0,0.896
5050,161.60,4.9544,-4.7314,0.1798,-0.0003,0.0000,0.5547,flat,18.0,1,12.858
5060,161.92,5.2668,-4.4923,0.1799,0.0001,0.0003,0.8114,flat,18.0,1,12.732
5070,162.24,5.5177,-4.1811,0.1799,0.0001,0.0000,1.0136,flat,18.0,1,12.527
5080,162.56,5.7516,-3.7501,0.1799,0.0001,-0.0000,1.2184,flat,18.0,1,12.214
5090,162.88,5.9117,-3.2464,0.1799,0.0001,0.0000,1.4068,flat,18.0,1,11.817
5100,163.20,5.9825,-2.7050,0.1799,0.0001,-0.0000,1.5656,flat,18.0,1,11.357
5110,163.52,5.9705,-2.1502,0.1799,0.0003,-0.0000,1.6869,flat,18.0,1,10.855
5120,163.84,5.8951,-1.5967,0.1798,0.0004,-0.0000,1.7729,flat,18.0,1,10.330
5130,164.16,5.7739,-1.0485,0.1797,0.0003,-0.0000,1.8380,flat,18.0,1,9.791
5140,164.48,5.6180,-0.5068,0.1797,0.0002,-0.0000,1.8893,flat,18.0,1,9.242
5150,164.80,5.4348,0.0278,0.1797,0.0001,-0.0000,1.9293,flat,18.0,1,8.688
5160,165.12,5.2309,0.5559,0.1797,0.0001,-0.0000,1.9621,flat,18.0,1,8.130
5170,165.44,5.0098,1.0784,0.1797,0.0001,-0.0000,1.9903,flat,18.0,1,7.569
5180,165.76,4.7741,1.5956,0.1797,0.0001,-0.0000,2.0150,flat,18.0,1,7.006
5190,166.08,4.5257,2.1077,0.1797,0.0001,-0.0000,2.0368,flat,18.0,1,6.441
5200,166.40,4.2661,2.6149,0.1797,0.0001,-0.0000,2.0565,flat,18.0,1,5.874
5210,166.72,3.9967,3.1175,0.1797,0.0001,-0.0000,2.0744,flat,18.0,1,5.307
5220,167.04,3.7182,3.6157,0.1797,0.0001,-0.0000,2.0911,flat,18.0,1,4.738
5230,167.36,3.4315,4.1094,0.1797,0.0001,-0.0000,2.1068,flat,18.0,1,4.169
5240,167.68,3.1370,4.5987,0.1797,0.0001,-0.0000,2.1219,flat,18.0,1,3.600
5250,168.00,2.8352,5.0835,0.1797,0.0001,-0.0000,2.1370,flat,18.0,1,3.031
5260,168.32,2.5260,5.5635,0.1797,0.0001,0.0000,2.1526,flat,18.0,1,2.462
5270,168.64,2.2094,6.0380,0.1797,0.0001,0.0000,2.1695,flat,18.0,1,1.893
5280,168.96,1.8848,6.5057,0.1797,0.0001,0.0000,2.1899,flat,18.0,1,1.326
5290,169.28,1.5511,6.9631,0.1797,0.0001,0.0000,2.2196,flat,18.0,2,15.175
5300,169.60,1.3013,7.2454,0.1798,-0.0003,0.0000,2.5426,flat,18.0,2,15.245
5310,169.92,0.9658,7.4344,0.1799,-0.0000,-0.0001,2.8840,flat,18.0,2,15.198
5320,170.24,0.5266,7.5263,0.1799,0.0000,-0.0000,-3.0923,flat,18.0,2,15.023
5330,170.56,0.0388,7.4797,0.1799,0.0000,-0.0000,-2.8591,flat,18.0,2,14.715
5340,170.88,-0.4525,7.3127,0.1799,0.0001,-0.0000,-2.6877,flat,18.0,2,14.314
5350,171.20,-0.9256,7.0559,0.1799,0.0003,-0.0000,-2.5596,flat,18.0,2,13.851
5360,171.52,-1.3735,6.7375,0.1798,0.0004,-0.0000,-2.4712,flat,18.0,2,13.352
5370,171.84,-1.7988,6.3800,0.1797,0.0002,-0.0000,-2.4041,flat,18.0,2,12.834
5380,172.16,-2.2012,5.9937,0.1797,0.0002,-0.0000,-2.3446,flat,18.0,2,12.304
5390,172.48,-2.5831,5.5834,0.1797,0.0002,-0.0000,-2.2942,flat,18.0,2,11.765
5400,172.80,-2.9468,5.1546,0.1797,0.0001,-0.0000,-2.2518,flat,18.0,2,11.219
5410,173.12,-3.2947,4.7104,0.1797,0.0001,-0.0000,-2.2147,flat,18.0,2,10.667
5420,173.44,-3.6282,4.2528,0.1797,0.0001,-0.0000,-2.1818,flat,18.0,2,10.111
5430,173.76,-3.9482,3.7840,0.1797,0.0001,-0.0000,-2.1525,flat,18.0,2,9.552
5440,174.08,-4.2557,3.3056,0.1797,0.0001,-0.0000,-2.1264,flat,18.0,2,8.989
5450,174.40,-4.5518,2.8189,0.1797,0.0001,-0.0000,-2.1029,flat,18.0,2,8.425
5460,174.72,-4.8374,2.3251,0.1797,0.0001,-0.0000,-2.0818,flat,18.0,2,7.858
5470,175.04,-5.1132,1.8250,0.1797,0.0001,-0.0000,-2.0627,flat,18.0,2,7.291
5480,175.36,-5.3800,1.3195,0.1797,0.0001,-0.0000,-2.0452,flat,18.0,2,6.722
5490,175.68,-5.6385,0.8092,0.1797,0.0001,-0.0000,-2.0292,flat,18.0,2,6.152
5500,176.00,-5.8892,0.2947,0.1797,0.0001,-0.0000,-2.0143,flat,18.0,2,5.582
5510,176.32,-6.1326,-0.2237,0.1797,0.0000,-0.0000,-2.0004,flat,18.0,2,5.011
5520,176.64,-6.3690,-0.7455,0.1797,0.0000,-0.0000,-1.9872,flat,18.0,2,4.439
5530,176.96,-6.5987,-1.2704,0.1797,0.0000,-0.0000,-1.9745,flat,18.0,2,3.867
5540,177.28,-6.8217,-1.7983,0.1797,0.0000,-0.0000,-1.9620,flat,18.0,2,3.295
5550,177.60,-7.0382,-2.3289,0.1797,0.0000,0.0000,-1.9492,flat,18.0,2,2.724
5560,177.92,-7.2478,-2.8621,0.1797,0.0000,0.0000,-1.9356,flat,18.0,2,2.152
5570,178.24,-7.4497,-3.3977,0.1797,0.0001,0.0000,-1.9200,flat,18.0,2,1.580
5580,178.56,-7.6425,-3.9356,0.1797,0.0001,0.0000,-1.8993,flat,18.0,2,1.011
5590,178.88,-7.8161,-4.4488,0.1799,-0.0000,0.0003,-1.9533,flat,18.0,0,13.161
5600,179.20,-7.9068,-4.7654,0.1798,-0.0003,0.0001,-1.6728,rough,14.0,0,13.254
5610,179.52,-7.9343,-5.0818,0.1799,-0.0002,-0.0001,-1.2865,flat,18.0,0,13.291
5620,179.84,-7.8106,-5.4303,0.1799,0.0001,0.0001,-1.0593,rough,14.0,0,13.187
5630,180.16,-7.5801,-5.7772,0.1799,-0.0001,-0.0000,-0.8467,flat,18.0,0,12.986
5640,180.48,-7.2262,-6.1137,0.1799,0.0000,-0.0000,-0.6515,flat,18.0,0,12.671
5650,180.80,-6.7916,-6.4043,0.1799,0.0001,-0.0000,-0.4768,flat,18.0,0,12.282
5660,181.12,-6.2977,-6.6329,0.1799,0.0001,-0.0000,-0.3245,flat,18.0,0,11.833
5670,181.44,-5.7659,-6.7936,0.1799,0.0003,-0.0000,-0.1989,flat,18.0,0,11.341
5680,181.76,-5.2142,-6.8922,0.1798,0.0004,-0.0000,-0.0995,flat,18.0,0,10.822
5690,182.08,-4.6524,-6.9388,0.1798,0.0004,-0.0000,-0.0204,flat,18.0,0,10.285
5700,182.40,-4.0866,-6.9426,0.1797,0.0002,-0.0000,0.0416,flat,18.0,0,9.737
5710,182.72,-3.5209,-6.9134,0.1797,0.0002,-0.0000,0.0882,flat,18.0,0,9.183
5720,183.04,-2.9561,-6.8587,0.1797,0.0001,-0.0000,0.1250,flat,18.0,0,8.624
5730,183.36,-2.3925,-6.7839,0.1797,0.0001,-0.0000,0.1555,flat,18.0,0,8.061
5740,183.68,-1.8304,-6.6923,0.1797,0.0001,-0.0000,0.1813,flat,18.0,0,7.497
5750,184.00,-1.2701,-6.5864,0.1797,0.0001,-0.0000,0.2036,flat,18.0,0,6.930
5760,184.32,-0.7117,-6.4683,0.1797,0.0001,-0.0000,0.2231,flat,18.0,0,6.362
5770,184.64,-0.1550,-6.3394,0.1797,0.0001,-0.0000,0.2404,flat,18.0,0,5.793
5780,184.96,0.3997,-6.2011,0.1797,0.0001,-0.0000,0.2560,flat,18.0,0,5.223
5790,185.28,0.9526,-6.0541,0.1797,0.0001,-0.0000,0.2703,flat,18.0,0,4.652
5800,185.60,1.5035,-5.8994,0.1797,0.0000,-0.0000,0.2836,flat,18.0,0,4.081
5810,185.92,2.0525,-5.7373,0.1797,0.0000,-0.0000,0.2963,flat,18.0,0,3.510
5820,186.24,2.5994,-5.5683,0.1797,0.0000,-0.0000,0.3088,flat,18.0,0,2.939
5830,186.56,3.1440,-5.3925,0.1797,0.0000,0.0000,0.3217,flat,18.0,0,2.367
5840,186.88,3.6859,-5.2096,0.1797,0.0000,0.0000,0.3356,flat,18.0,0,1.796
5850,187.20,4.2242,-5.0192,0.1797,0.0001,0.0000,0.3527,flat,18.0,0,1.226
5860,187.52,4.7433,-4.8285,0.1797,0.0000,0.0004,0.4094,flat,18.0,1,12.888
5870,187.84,5.0990,-4.6442,0.1799,-0.0001,0.0000,0.6714,flat,18.0,1,12.821
5880,188.16,5.3870,-4.3643,0.1799,0.0000,-0.0001,0.9037,flat,18.0,1,12.652
5890,188.48,5.6554,-3.9624,0.1799,0.0000,-0.0000,1.1304,flat,18.0,1,12.374
5900,188.80,5.8521,-3.4828,0.1799,0.0000,-0.0000,1.3321,flat,18.0,1,12.008
5910,189.12,5.9607,-2.9541,0.1799,0.0001,-0.0000,1.5038,flat,18.0,1,11.572
5920,189.44,5.9818,-2.4025,0.1799,0.0002,-0.0000,1.6409,flat,18.0,1,11.085
5930,189.76,5.9308,-1.8475,0.1798,0.0004,-0.0000,1.7391,flat,18.0,1,10.568
5940,190.08,5.8276,-1.2968,0.1798,0.0003,-0.0000,1.8119,flat,18.0,1,10.034
5950,190.40,5.6856,-0.7521,0.1797,0.0002,-0.0000,1.8682,flat,18.0,1,9.489
5960,190.72,5.5136,-0.2141,0.1797,0.0002,-0.0000,1.9129,flat,18.0,1,8.937
5970,191.04,5.3183,0.3166,0.1797,0.0001,-0.0000,1.9480,flat,18.0,1,8.380
5980,191.36,5.1045,0.8417,0.1797,0.0001,-0.0000,1.9780,flat,18.0,1,7.820
5990,191.68,4.8752,1.3613,0.1797,0.0001,-0.0000,2.0040,flat,18.0,1,7.258
6000,192.00,4.6324,1.8758,0.1797,0.0001,-0.0000,2.0269,flat,18.0,1,6.693
6010,192.32,4.3780,2.3853,0.1797,0.0001,-0.0000,2.0474,flat,18.0,1,6.127
6020,192.64,4.1131,2.8901,0.1797,0.0001,-0.0000,2.0659,flat,18.0,1,5.560
6030,192.96,3.8389,3.3905,0.1797,0.0001,-0.0000,2.0830,flat,18.0,1,4.992
6040,193.28,3.5562,3.8864,0.1797,0.0001,-0.0000,2.0990,flat,18.0,1,4.423
6050,193.60,3.2655,4.3780,0.1797,0.0001,-0.0000,2.1143,flat,18.0,1,3.854
6060,193.92,2.9674,4.8651,0.1797,0.0001,-0.0000,2.1293,flat,18.0,1,3.285
6070,194.24,2.6619,5.3476,0.1797,0.0001,0.0000,2.1445,flat,18.0,1,2.716
6080,194.56,2.3492,5.8250,0.1797,0.0001,0.0000,2.1606,flat,18.0,1,2.147
6090,194.88,2.0288,6.2964,0.1797,0.0001,0.0000,2.1790,flat,18.0,1,1.579
6100,195.20,1.6999,6.7596,0.1797,0.0001,0.0000,2.2032,flat,18.0,1,1.013
6110,195.52,1.4168,7.1373,0.1798,-0.0001,0.0003,2.3967,flat,18.0,2,15.230
6120,195.84,1.1309,7.3456,0.1799,-0.0001,-0.0001,2.7470,flat,18.0,2,15.224
6130,196.16,0.7370,7.4831,0.1799,0.0001,0.0005,3.0560,flat,18.0,2,15.106
6140,196.48,0.2996,7.5098,0.1799,0.0000,-0.0000,-3.0062,flat,18.0,2,14.883
6150,196.80,-0.1931,7.4194,0.1799,0.0001,-0.0000,-2.7966,flat,18.0,2,14.541
6160,197.12,-0.6795,7.2189,0.1799,0.0001,-0.0000,-2.6393,flat,18.0,2,14.116
6170,197.44,-1.1434,6.9382,0.1799,0.0003,-0.0000,-2.5236,flat,18.0,2,13.640
6180,197.76,-1.5831,6.6036,0.1798,0.0003,-0.0000,-2.4458,flat,18.0,2,13.134
6190,198.08,-1.9997,6.2353,0.1797,0.0002,-0.0000,-2.3805,flat,18.0,2,12.612
6200,198.40,-2.3941,5.8393,0.1797,0.0002,-0.0000,-2.3245,flat,18.0,2,12.079
6210,198.72,-2.7684,5.4214,0.1797,0.0002,-0.0000,-2.2764,flat,18.0,2,11.537
6220,199.04,-3.1253,4.9863,0.1797,0.0001,-0.0000,-2.2358,flat,18.0,2,10.989
6230,199.36,-3.4669,4.5363,0.1797,0.0001,-0.0000,-2.1999,flat,18.0,2,10.436
6240,199.68,-3.7941,4.0737,0.1797,0.0001,-0.0000,-2.1680,flat,18.0,2,9.879
6250,200.00,-4.1081,3.6004,0.1797,0.0001,-0.0000,-2.1397,flat,18.0,2,9.319
6260,200.32,-4.4099,3.1179,0.1797,0.0001,-0.0000,-2.1143,flat,18.0,2,8.755
6270,200.64,-4.7005,2.6276,0.1797,0.0001,-0.0000,-2.0915,flat,18.0,2,8.190
6280,200.96,-4.9806,2.1304,0.1797,0.0001,-0.0000,-2.0710,flat,18.0,2,7.624
6290,201.28,-5.2512,1.6273,0.1797,0.0001,-0.0000,-2.0523,flat,18.0,2,7.055
6300,201.60,-5.5130,1.1190,0.1797,0.0001,-0.0000,-2.0352,flat,18.0,2,6.486
6310,201.92,-5.7665,0.6061,0.1797,0.0001,-0.0000,-2.0195,flat,18.0,2,5.916
6320,202.24,-6.0123,0.0891,0.1797,0.0001,-0.0000,-2.0049,flat,18.0,2,5.346
6330,202.56,-6.2509,-0.4315,0.1797,0.0000,-0.0000,-1.9911,flat,18.0,2,4.775
6340,202.88,-6.4825,-0.9555,0.1797,0.0000,-0.0000,-1.9780,flat,18.0,2,4.203
6350,203.20,-6.7073,-1.4826,0.1797,0.0000,-0.0000,-1.9653,flat,18.0,2,3.631
6360,203.52,-6.9255,-2.0124,0.1797,0.0000,-0.0000,-1.9526,flat,18.0,2,3.059
6370,203.84,-7.1369,-2.5450,0.1797,0.0000,0.0000,-1.9394,flat,18.0,2,2.487
6380,204.16,-7.3411,-3.0801,0.1797,0.0001,0.0000,-1.9250,flat,18.0,2,1.916
6390,204.48,-7.5371,-3.6176,0.1797,0.0001,0.0000,-1.9078,flat,18.0,2,1.345
6400,204.80,-7.7226,-4.1570,0.1797,0.0001,0.0000,-1.8824,flat,18.0,3,1.011
6410,205.12,-7.8602,-4.5969,0.1798,-0.0002,0.0005,-1.8549,rough,14.0,0,13.205
6420,205.44,-7.9326,-4.8783,0.1798,-0.0002,-0.0001,-1.5501,flat,18.0,0,13.282
6430,205.76,-7.9137,-5.2076,0.1799,-0.0001,-0.0001,-1.1977,flat,18.0,0,13.276
6440,206.08,-7.7693,-5.5341,0.1798,0.0002,0.0000,-1.0112,rough,14.0,0,13.153
6450,206.40,-7.5006,-5.8858,0.1799,-0.0000,-0.0000,-0.7890,flat,18.0,0,12.918
6460,206.72,-7.1216,-6.2110,0.1799,0.0000,-0.0000,-0.6005,flat,18.0,0,12.580
6470,207.04,-6.6683,-6.4854,0.1799,0.0000,-0.0000,-0.4316,flat,18.0,0,12.173
6480,207.36,-6.1616,-6.6950,0.1799,0.0001,-0.0000,-0.2860,flat,18.0,0,11.710
6490,207.68,-5.6229,-6.8372,0.1799,0.0003,-0.0000,-0.1683,flat,18.0,0,11.210
6500,208.00,-5.0675,-6.9199,0.1798,0.0004,-0.0000,-0.0750,flat,18.0,0,10.685
6510,208.32,-4.5041,-6.9534,0.1798,0.0003,-0.0000,-0.0006,flat,18.0,0,10.145
6520,208.64,-3.9382,-6.9465,0.1797,0.0002,-0.0000,0.0562,flat,18.0,0,9.595
6530,208.96,-3.3725,-6.9093,0.1797,0.0002,-0.0000,0.0999,flat,18.0,0,9.039
6540,209.28,-2.8081,-6.8482,0.1797,0.0001,-0.0000,0.1346,flat,18.0,0,8.479
6550,209.60,-2.2450,-6.7680,0.1797,0.0001,-0.0000,0.1637,flat,18.0,0,7.916
6560,209.92,-1.6835,-6.6719,0.1797,0.0001,-0.0000,0.1885,flat,18.0,0,7.350
6570,210.24,-1.1237,-6.5621,0.1797,0.0001,-0.0000,0.2099,flat,18.0,0,6.783
6580,210.56,-0.5659,-6.4405,0.1797,0.0001,-0.0000,0.2287,flat,18.0,0,6.215
6590,210.88,-0.0098,-6.3085,0.1797,0.0001,-0.0000,0.2455,flat,18.0,0,5.645
6600,211.20,0.5443,-6.1673,0.1797,0.0001,-0.0000,0.2607,flat,18.0,0,5.075
6610,211.52,1.0965,-6.0178,0.1797,0.0000,-0.0000,0.2747,flat,18.0,0,4.504
6620,211.84,1.6469,-5.8607,0.1797,0.0000,-0.0000,0.2878,flat,18.0,0,3.933
6630,212.16,2.1952,-5.6964,0.1797,0.0000,-0.0000,0.3004,flat,18.0,0,3.362
6640,212.48,2.7414,-5.5252,0.1797,0.0000,0.0000,0.3129,flat,18.0,0,2.790
6650,212.80,3.2852,-5.3471,0.1797,0.0000,0.0000,0.3258,flat,18.0,0,2.219
6660,213.12,3.8262,-5.1620,0.1797,0.0001,0.0000,0.3403,flat,18.0,0,1.648
6670,213.44,4.3631,-4.9690,0.1797,0.0001,0.0000,0.3587,flat,18.0,0,1.079
6680,213.76,4.8350,-4.7922,0.1798,-0.0001,0.0003,0.4830,flat,18.0,1,12.880
6690,214.08,5.1734,-4.5757,0.1799,-0.0000,-0.0000,0.7507,rough,14.0,1,12.780
6700,214.40,5.4459,-4.2708,0.1799,0.0000,-0.0003,0.9684,flat,18.0,1,12.585
6710,214.72,5.6951,-3.8477,0.1799,0.0000,-0.0000,1.1849,flat,18.0,1,12.282
6720,215.04,5.8698,-3.3526,0.1799,0.0001,-0.0000,1.3781,flat,18.0,1,11.896
6730,215.36,5.9554,-2.8156,0.1799,0.0001,0.0000,1.5410,flat,18.0,1,11.445
6740,215.68,5.9563,-2.2615,0.1799,0.0003,-0.0000,1.6689,flat,18.0,1,10.948
6750,216.00,5.8905,-1.7072,0.1798,0.0004,-0.0000,1.7590,flat,18.0,1,10.425
6760,216.32,5.7767,-1.1578,0.1798,0.0003,-0.0000,1.8267,flat,18.0,1,9.888
6770,216.64,5.6269,-0.6146,0.1797,0.0002,-0.0000,1.8796,flat,18.0,1,9.340
6780,216.96,5.4488,-0.0784,0.1797,0.0002,-0.0000,1.9212,flat,18.0,1,8.787
6790,217.28,5.2491,0.4512,0.1797,0.0001,-0.0000,1.9548,flat,18.0,1,8.229
6800,217.60,5.0319,0.9752,0.1797,0.0001,-0.0000,1.9836,flat,18.0,1,7.669
6810,217.92,4.7996,1.4938,0.1797,0.0001,-0.0000,2.0087,flat,18.0,1,7.105
6820,218.24,4.5544,2.0073,0.1797,0.0001,-0.0000,2.0309,flat,18.0,1,6.540
6830,218.56,4.2979,2.5160,0.1797,0.0001,-0.0000,2.0508,flat,18.0,1,5.974
6840,218.88,4.0314,3.0201,0.1797,0.0001,-0.0000,2.0689,flat,18.0,1,5.407
6850,219.20,3.7557,3.5198,0.1797,0.0001,-0.0000,2.0857,flat,18.0,1,4.838
6860,219.52,3.4717,4.0150,0.1797,0.0001,-0.0000,2.1014,flat,18.0,1,4.270
6870,219.84,3.1798,4.5059,0.1797,0.0001,-0.0000,2.1166,flat,18.0,1,3.700
6880,220.16,2.8806,4.9924,0.1797,0.0001,-0.0000,2.1316,flat,18.0,1,3.131
6890,220.48,2.5741,5.4742,0.1797,0.0001,0.0000,2.1469,flat,18.0,1,2.562
6900,220.80,2.2602,5.9506,0.1797,0.0001,0.0000,2.1634,flat,18.0,1,1.993
6910,221.12,1.9385,6.4207,0.1797,0.0001,0.0000,2.1829,flat,18.0,1,1.425
6920,221.44,1.6079,6.8815,0.1797,0.0001,0.0000,2.2099,flat,18.0,1,0.861
6930,221.76,1.3431,7.2122,0.1798,-0.0002,0.0001,2.4699,flat,18.0,2,15.244
6940,222.08,1.0335,7.4115,0.1799,-0.0001,-0.0001,2.8164,flat,18.0,2,15.219
6950,222.40,0.6117,7.5287,0.1799,0.0000,-0.0000,3.1329,flat,18.0,2,15.073
6960,222.72,0.1294,7.5099,0.1799,0.0001,-0.0000,-2.9010,flat,18.0,2,14.790
6970,223.04,-0.3634,7.3648,0.1799,0.0001,-0.0000,-2.7188,flat,18.0,2,14.405
6980,223.36,-0.8411,7.1238,0.1799,0.0002,-0.0000,-2.5819,flat,18.0,2,13.952
6990,223.68,-1.2935,6.8158,0.1798,0.0004,-0.0000,-2.4852,flat,18.0,2,13.460
7000,224.00,-1.7235,6.4646,0.1798,0.0003,-0.0000,-2.4165,flat,18.0,2,12.945
7010,224.32,-2.1301,6.0836,0.1797,0.0002,-0.0000,-2.3551,flat,18.0,2,12.417
7020,224.64,-2.5158,5.6775,0.1797,0.0002,-0.0000,-2.3032,flat,18.0,2,11.879
7030,224.96,-2.8826,5.2519,0.1797,0.0002,-0.0000,-2.2592,flat,18.0,2,11.334
7040,225.28,-3.2333,4.8103,0.1797,0.0001,-0.0000,-2.2211,flat,18.0,2,10.784
7050,225.60,-3.5692,4.3550,0.1797,0.0001,-0.0000,-2.1873,flat,18.0,2,10.229
7060,225.92,-3.8914,3.8881,0.1797,0.0001,-0.0000,-2.1573,flat,18.0,2,9.670
7070,226.24,-4.2010,3.4113,0.1797,0.0001,-0.0000,-2.1305,flat,18.0,2,9.108
7080,226.56,-4.4989,2.9259,0.1797,0.0001,-0.0000,-2.1065,flat,18.0,2,8.544
7090,226.88,-4.7860,2.4331,0.1797,0.0001,-0.0000,-2.0850,flat,18.0,2,7.978
7100,227.20,-5.0633,1.9340,0.1797,0.0001,-0.0000,-2.0654,flat,18.0,2,7.410
7110,227.52,-5.3314,1.4293,0.1797,0.0001,-0.0000,-2.0476,flat,18.0,2,6.842
7120,227.84,-5.5910,0.9196,0.1797,0.0001,-0.0000,-2.0313,flat,18.0,2,6.272
7130,228.16,-5.8428,0.4057,0.1797,0.0001,-0.0000,-2.0163,flat,18.0,2,5.702
7140,228.48,-6.0871,-0.1122,0.1797,0.0000,-0.0000,-2.0022,flat,18.0,2,5.131
7150,228.80,-6.3243,-0.6336,0.1797,0.0000,-0.0000,-1.9889,flat,18.0,2,4.560
7160,229.12,-6.5548,-1.1581,0.1797,0.0000,-0.0000,-1.9761,flat,18.0,2,3.988
7170,229.44,-6.7787,-1.6857,0.1797,0.0000,-0.0000,-1.9635,flat,18.0,2,3.416
7180,229.76,-6.9960,-2.2159,0.1797,0.0000,-0.0000,-1.9508,flat,18.0,2,2.844
7190,230.08,-7.2064,-2.7488,0.1797,0.0000,0.0000,-1.9375,flat,18.0,2,2.272
7200,230.40,-7.4095,-3.2842,0.1797,0.0001,0.0000,-1.9225,flat,18.0,2,1.701
7210,230.72,-7.6038,-3.8219,0.1797,0.0001,0.0000,-1.9034,flat,18.0,2,1.130
7220,231.04,-7.7792,-4.3471,0.1798,0.0001,0.0001,-1.9583,flat,18.0,3,0.839
7230,231.36,-7.8899,-4.7056,0.1798,-0.0003,0.0001,-1.7360,rough,14.0,0,13.236
7240,231.68,-7.9382,-5.0107,0.1798,-0.0001,-0.0001,-1.3536,flat,18.0,0,13.292
7250,232.00,-7.8374,-5.3656,0.1799,0.0000,0.0001,-1.0723,rough,14.0,0,13.209
7260,232.32,-7.6263,-5.6999,0.1799,-0.0001,-0.0001,-0.8704,flat,18.0,0,13.025
7270,232.64,-7.2828,-6.0410,0.1799,0.0000,-0.0000,-0.6721,flat,18.0,0,12.719
7280,232.96,-6.8558,-6.3380,0.1799,0.0001,-0.0000,-0.4959,flat,18.0,0,12.335
7290,233.28,-6.3674,-6.5745,0.1799,0.0001,-0.0000,-0.3416,flat,18.0,0,11.891
7300,233.60,-5.8389,-6.7435,0.1799,0.0003,-0.0000,-0.2134,flat,18.0,0,11.402
7310,233.92,-5.2889,-6.8496,0.1798,0.0004,-0.0000,-0.1120,flat,18.0,0,10.886
7320,234.24,-4.7280,-6.9029,0.1798,0.0004,-0.0000,-0.0311,flat,18.0,0,10.351
7330,234.56,-4.1622,-6.9127,0.1797,0.0002,-0.0000,0.0329,flat,18.0,0,9.803
7340,234.88,-3.5965,-6.8884,0.1797,0.0002,-0.0000,0.0804,flat,18.0,0,9.249
7350,235.20,-3.0313,-6.8380,0.1797,0.0001,-0.0000,0.1181,flat,18.0,0,8.691
7360,235.52,-2.4673,-6.7670,0.1797,0.0001,-0.0000,0.1491,flat,18.0,0,8.129
7370,235.84,-1.9048,-6.6790,0.1797,0.0001,-0.0000,0.1754,flat,18.0,0,7.564
7380,236.16,-1.3439,-6.5764,0.1797,0.0001,-0.0000,0.1980,flat,18.0,0,6.997
7390,236.48,-0.7848,-6.4614,0.1797,0.0001,-0.0000,0.2178,flat,18.0,0,6.429
7400,236.80,-0.2275,-6.3355,0.1797,0.0001,-0.0000,0.2353,flat,18.0,0,5.860
7410,237.12,0.3279,-6.2000,0.1797,0.0001,-0.0000,0.2510,flat,18.0,0,5.291
7420,237.44,0.8815,-6.0558,0.1797,0.0001,-0.0000,0.2653,flat,18.0,0,4.720
7430,237.76,1.4332,-5.9038,0.1797,0.0000,-0.0000,0.2787,flat,18.0,0,4.149
7440,238.08,1.9830,-5.7445,0.1797,0.0000,-0.0000,0.2914,flat,18.0,0,3.578
7450,238.40,2.5307,-5.5781,0.1797,0.0000,-0.0000,0.3039,flat,18.0,0,3.006
7460,238.72,3.0763,-5.4050,0.1797,0.0000,0.0000,0.3166,flat,18.0,0,2.435
7470,239.04,3.6192,-5.2249,0.1797,0.0000,0.0000,0.3303,flat,18.0,0,1.864
7480,239.36,4.1587,-5.0373,0.1797,0.0001,0.0000,0.3467,flat,18.0,0,1.294
7490,239.68,4.6900,-4.8442,0.1797,0.0000,0.0002,0.3877,flat,18.0,1,12.888
7500,240.00,5.0565,-4.6698,0.1799,-0.0002,0.0000,0.6373,flat,18.0,1,12.831
7510,240.32,5.3541,-4.3969,0.1799,0.0000,-0.0001,0.8831,flat,18.0,1,12.671
7520,240.64,5.5909,-4.0653,0.1799,0.0001,-0.0003,1.0706,flat,18.0,1,12.445
7530,240.96,5.8088,-3.6046,0.1799,0.0000,-0.0000,1.2794,flat,18.0,1,12.103
7540,241.28,5.9422,-3.0867,0.1799,0.0001,-0.0000,1.4595,flat,18.0,1,11.684
7550,241.60,5.9867,-2.5392,0.1799,0.0001,-0.0000,1.6073,flat,18.0,1,11.210
7560,241.92,5.9532,-1.9839,0.1798,0.0004,-0.0000,1.7155,flat,18.0,1,10.699
7570,242.24,5.8626,-1.4317,0.1798,0.0004,-0.0000,1.7942,flat,18.0,1,10.169
7580,242.56,5.7300,-0.8854,0.1797,0.0002,-0.0000,1.8546,flat,18.0,1,9.627
7590,242.88,5.5653,-0.3456,0.1797,0.0002,-0.0000,1.9026,flat,18.0,1,9.076
7600,243.20,5.3753,0.1868,0.1797,0.0001,-0.0000,1.9397,flat,18.0,1,8.521
7610,243.52,5.1659,0.7132,0.1797,0.0001,-0.0000,1.9710,flat,18.0,1,7.962
7620,243.84,4.9402,1.2341,0.1797,0.0001,-0.0000,1.9980,flat,18.0,1,7.400
7630,244.16,4.7005,1.7497,0.1797,0.0001,-0.0000,2.0218,flat,18.0,1,6.836
7640,244.48,4.4486,2.2603,0.1797,0.0001,-0.0000,2.0429,flat,18.0,1,6.271
7650,244.80,4.1860,2.7661,0.1797,0.0001,-0.0000,2.0620,flat,18.0,1,5.704
7660,245.12,3.9138,3.2674,0.1797,0.0001,-0.0000,2.0795,flat,18.0,1,5.136
7670,245.44,3.6328,3.7642,0.1797,0.0001,-0.0000,2.0958,flat,18.0,1,4.568
7680,245.76,3.3438,4.2566,0.1797,0.0001,-0.0000,2.1113,flat,18.0,1,3.999
7690,246.08,3.0471,4.7446,0.1797,0.0001,-0.0000,2.1264,flat,18.0,1,3.429
7700,246.40,2.7430,5.2280,0.1797,0.0001,0.0000,2.1416,flat,18.0,1,2.860
7710,246.72,2.4317,5.7065,0.1797,0.0001,0.0000,2.1574,flat,18.0,1,2.291
7720,247.04,2.1128,6.1791,0.1797,0.0001,0.0000,2.1751,flat,18.0,1,1.723
7730,247.36,1.7857,6.6443,0.1797,0.0001,0.0000,2.1973,flat,18.0,1,1.156
7740,247.68,1.4688,7.0765,0.1798,0.0000,0.0005,2.2887,flat,18.0,2,15.213
7750,248.00,1.2139,7.3076,0.1798,-0.0003,-0.0001,2.6473,flat,18.0,2,15.243
7760,248.32,0.8426,7.4753,0.1799,-0.0000,-0.0001,2.9805,flat,18.0,2,15.160
7770,248.64,0.3827,7.5267,0.1799,0.0000,-0.0000,-3.0142,flat,18.0,2,14.943
7780,248.96,-0.1096,7.4408,0.1799,0.0001,-0.0000,-2.8027,flat,18.0,2,14.603
7790,249.28,-0.5970,7.2438,0.1799,0.0001,-0.0000,-2.6451,flat,18.0,2,14.180
7800,249.60,-1.0624,6.9660,0.1799,0.0003,-0.0000,-2.5287,flat,18.0,2,13.705
7810,249.92,-1.5036,6.6337,0.1798,0.0003,-0.0000,-2.4502,flat,18.0,2,13.198
7820,250.24,-1.9218,6.2672,0.1797,0.0002,-0.0000,-2.3848,flat,18.0,2,12.677
7830,250.56,-2.3179,5.8730,0.1797,0.0002,-0.0000,-2.3287,flat,18.0,2,12.143
7840,250.88,-2.6941,5.4566,0.1797,0.0002,-0.0000,-2.2807,flat,18.0,2,11.602
7850,251.20,-3.0528,5.0230,0.1797,0.0001,-0.0000,-2.2402,flat,18.0,2,11.054
7860,251.52,-3.3963,4.5745,0.1797,0.0001,-0.0000,-2.2044,flat,18.0,2,10.501
7870,251.84,-3.7256,4.1134,0.1797,0.0001,-0.0000,-2.1726,flat,18.0,2,9.944
7880,252.16,-4.0417,3.6415,0.1797,0.0001,-0.0000,-2.1444,flat,18.0,2,9.383
7890,252.48,-4.3458,3.1605,0.1797,0.0001,-0.0000,-2.1191,flat,18.0,2,8.820
7900,252.80,-4.6386,2.6716,0.1797,0.0001,-0.0000,-2.0964,flat,18.0,2,8.255
7910,253.12,-4.9211,2.1758,0.1797,0.0001,-0.0000,-2.0759,flat,18.0,2,7.688
7920,253.44,-5.1942,1.6740,0.1797,0.0001,-0.0000,-2.0573,flat,18.0,2,7.120
7930,253.76,-5.4585,1.1670,0.1797,0.0001,-0.0000,-2.0403,flat,18.0,2,6.551
7940,254.08,-5.7146,0.6554,0.1797,0.0001,-0.0000,-2.0246,flat,18.0,2,5.981
7950,254.40,-5.9630,0.1396,0.1797,0.0001,-0.0000,-2.0101,flat,18.0,2,5.410
7960,254.72,-6.2043,-0.3798,0.1797,0.0000,-0.0000,-1.9964,flat,18.0,2,4.839
7970,255.04,-6.4386,-0.9026,0.1797,0.0000,-0.0000,-1.9834,flat,18.0,2,4.268
7980,255.36,-6.6663,-1.4284,0.1797,0.0000,-0.0000,-1.9707,flat,18.0,2,3.696
7990,255.68,-6.8874,-1.9571,0.1797,0.0000,-0.0000,-1.9582,flat,18.0,2,3.124
8000,256.00,-7.1018,-2.4885,0.1797,0.0000,0.0000,-1.9452,flat,18.0,2,2.552
8010,256.32,-7.3092,-3.0224,0.1797,0.0000,0.0000,-1.9312,flat,18.0,2,1.980
8020,256.64,-7.5086,-3.5588,0.1797,0.0001,0.0000,-1.9146,flat,18.0,2,1.409
8030,256.96,-7.6980,-4.0972,0.1797,0.0001,0.0000,-1.8909,flat,18.0,2,0.840
8040,257.28,-7.8514,-4.5669,0.1798,-0.0003,0.0004,-1.8621,rough,14.0,0,13.196
8050,257.60,-7.9265,-4.8456,0.1798,-0.0002,-0.0001,-1.5668,flat,18.0,0,13.275
8060,257.92,-7.9102,-5.1931,0.1799,-0.0000,-0.0001,-1.1877,flat,18.0,0,13.272
