step,time_s,x,y,z,roll,pitch,yaw,terrain,speed,target_idx,dist_to_target
10,0.32,2.1822,0.5010,0.1853,0.0000,-0.0442,0.0000,rough,14.0,0,6.243
20,0.64,2.6644,0.5057,0.1797,0.0001,-0.0007,0.0321,flat,18.0,0,5.775
30,0.96,3.2288,0.5309,0.1797,0.0002,-0.0001,0.0908,flat,18.0,0,5.226
40,1.28,3.7919,0.5881,0.1797,0.0002,-0.0000,0.1398,flat,18.0,0,4.671
50,1.60,4.3525,0.6725,0.1797,0.0002,-0.0000,0.1819,flat,18.0,0,4.113
60,1.92,4.9089,0.7797,0.1797,0.0001,-0.0000,0.2178,flat,18.0,0,3.553
70,2.24,5.4614,0.9067,0.1797,0.0001,-0.0000,0.2514,flat,18.0,0,2.993
80,2.56,6.0092,1.0523,0.1797,0.0001,-0.0000,0.2845,flat,18.0,0,2.431
90,2.88,6.5512,1.2160,0.1797,0.0001,0.0000,0.3190,flat,18.0,0,1.871
100,3.20,7.0853,1.3985,0.1797,0.0001,0.0000,0.3586,flat,18.0,0,1.313
110,3.52,7.6073,1.6021,0.1797,0.0002,0.0000,0.4167,flat,18.0,1,5.169
120,3.84,7.9466,1.7769,0.1798,-0.0003,0.0001,0.7323,flat,18.0,1,5.245
130,4.16,8.1821,2.0543,0.1799,-0.0001,-0.0001,1.0692,flat,18.0,1,5.201
140,4.48,8.3629,2.4501,0.1799,0.0000,-0.0000,1.3989,flat,18.0,1,5.064
150,4.80,8.4197,2.9232,0.1799,0.0000,-0.0000,1.6993,flat,18.0,1,4.815
160,5.12,8.3309,3.4189,0.1799,0.0000,-0.0000,1.9305,flat,18.0,1,4.466
170,5.44,8.1215,3.8982,0.1799,0.0001,-0.0000,2.1094,flat,18.0,1,4.048
180,5.76,7.8235,4.3424,0.1799,0.0002,-0.0000,2.2471,flat,18.0,1,3.590
190,6.08,7.4647,4.7498,0.1798,0.0003,-0.0000,2.3553,flat,18.0,1,3.109
200,6.40,7.0620,5.1168,0.1798,0.0004,-0.0000,2.4652,flat,18.0,1,2.619
210,6.72,6.6196,5.4421,0.1799,0.0004,-0.0000,2.5807,flat,18.0,1,2.121
220,7.04,6.1423,5.7169,0.1799,0.0002,-0.0000,2.7090,flat,18.0,1,1.622
230,7.36,5.6358,5.9287,0.1799,0.0001,0.0000,2.8663,flat,18.0,1,1.130
240,7.68,5.1136,6.0509,0.1799,0.0002,-0.0000,3.0413,flat,18.0,2,12.881
250,8.00,4.5587,6.0926,0.1799,0.0003,-0.0000,-3.1409,flat,18.0,2,12.366
260,8.32,3.9960,6.0826,0.1798,0.0004,-0.0000,-3.0620,flat,18.0,2,11.831
270,8.64,3.4336,6.0304,0.1797,0.0002,-0.0000,-3.0033,flat,18.0,2,11.284
280,8.96,2.8734,5.9464,0.1797,0.0002,-0.0000,-2.9574,flat,18.0,2,10.729
290,9.28,2.3168,5.8379,0.1797,0.0001,-0.0000,-2.9229,flat,18.0,2,10.170
300,9.60,1.7631,5.7105,0.1797,0.0001,-0.0000,-2.8940,flat,18.0,2,9.608
310,9.92,1.2121,5.5674,0.1797,0.0001,-0.0000,-2.8696,flat,18.0,2,9.043
320,10.24,0.6638,5.4111,0.1797,0.0001,-0.0000,-2.8487,flat,18.0,2,8.477
330,10.56,0.1182,5.2435,0.1797,0.0001,-0.0000,-2.8304,flat,18.0,2,7.909
340,10.88,-0.4249,5.0661,0.1797,0.0001,-0.0000,-2.8144,flat,18.0,2,7.340
350,11.20,-0.9657,4.8801,0.1797,0.0001,-0.0000,-2.8002,flat,18.0,2,6.769
360,11.52,-1.5042,4.6865,0.1797,0.0000,-0.0000,-2.7874,flat,18.0,2,6.199
370,11.84,-2.0405,4.4861,0.1797,0.0000,-0.0000,-2.7758,flat,18.0,2,5.627
380,12.16,-2.5747,4.2794,0.1797,0.0000,-0.0000,-2.7650,flat,18.0,2,5.055
390,12.48,-3.1068,4.0671,0.1797,0.0000,-0.0000,-2.7550,flat,18.0,2,4.483
400,12.80,-3.6370,3.8494,0.1797,0.0000,-0.0000,-2.7454,flat,18.0,2,3.911
410,13.12,-4.1651,3.6267,0.1797,0.0000,-0.0000,-2.7360,flat,18.0,2,3.338
420,13.44,-4.6910,3.3990,0.1797,0.0000,0.0000,-2.7266,flat,18.0,2,2.766
430,13.76,-5.2146,3.1664,0.1797,0.0000,0.0000,-2.7166,flat,18.0,2,2.194
440,14.08,-5.7354,2.9285,0.1797,0.0000,0.0000,-2.7053,flat,18.0,2,1.622
450,14.40,-6.2522,2.6848,0.1797,0.0001,0.0000,-2.6907,flat,18.0,2,1.051
460,14.72,-6.7131,2.4599,0.1798,-0.0001,0.0002,-2.5677,flat,18.0,3,10.652
470,15.04,-7.0455,2.1962,0.1799,0.0000,0.0004,-2.3186,rough,14.0,3,10.480
480,15.36,-7.3317,1.8326,0.1799,-0.0000,-0.0000,-2.1063,flat,18.0,3,10.213
490,15.68,-7.5680,1.3750,0.1799,0.0000,-0.0000,-1.9039,flat,18.0,3,9.855
500,16.00,-7.7232,0.8601,0.1799,0.0001,-0.0000,-1.7272,flat,18.0,3,9.428
510,16.32,-7.7925,0.3134,0.1799,0.0001,-0.0000,-1.5803,flat,18.0,3,8.950
520,16.64,-7.7843,-0.2438,0.1798,0.0004,-0.0000,-1.4689,flat,18.0,3,8.438
530,16.96,-7.7174,-0.7997,0.1798,0.0004,-0.0000,-1.3875,flat,18.0,3,7.907
540,17.28,-7.6067,-1.3509,0.1797,0.0002,-0.0000,-1.3244,flat,18.0,3,7.365
550,17.60,-7.4623,-1.8963,0.1797,0.0002,-0.0000,-1.2736,flat,18.0,3,6.815
560,17.92,-7.2907,-2.4348,0.1797,0.0001,-0.0000,-1.2328,flat,18.0,3,6.260
570,18.24,-7.0977,-2.9667,0.1797,0.0001,-0.0000,-1.1988,flat,18.0,3,5.703
580,18.56,-6.8868,-3.4929,0.1797,0.0001,-0.0000,-1.1686,flat,18.0,3,5.142
590,18.88,-6.6600,-4.0132,0.1797,0.0001,-0.0000,-1.1412,flat,18.0,3,4.580
600,19.20,-6.4191,-4.5277,0.1797,0.0001,-0.0000,-1.1159,flat,18.0,3,4.017
610,19.52,-6.1652,-5.0363,0.1797,0.0001,-0.0000,-1.0919,flat,18.0,3,3.452
620,19.84,-5.8991,-5.5386,0.1797,0.0001,-0.0000,-1.0683,flat,18.0,3,2.888
630,20.16,-5.6211,-6.0342,0.1797,0.0001,0.0000,-1.0441,flat,18.0,3,2.323
640,20.48,-5.3312,-6.5220,0.1797,0.0001,0.0000,-1.0177,flat,18.0,3,1.759
650,20.80,-5.0285,-6.9998,0.1797,0.0001,0.0000,-0.9856,flat,18.0,3,1.199
660,21.12,-4.7212,-7.4502,0.1797,0.0001,0.0004,-0.9091,flat,18.0,0,16.056
670,21.44,-4.4588,-7.7138,0.1799,-0.0002,-0.0000,-0.6088,flat,18.0,0,16.004
680,21.76,-4.0794,-7.9343,0.1799,0.0000,-0.0000,-0.3260,flat,18.0,0,15.842
690,22.08,-3.6100,-8.0668,0.1799,0.0000,-0.0000,-0.0751,flat,18.0,0,15.566
700,22.40,-3.0916,-8.0845,0.1799,0.0001,-0.0000,0.1308,flat,18.0,0,15.187
710,22.72,-2.5607,-7.9968,0.1799,0.0001,-0.0000,0.2806,flat,18.0,0,14.736
720,23.04,-2.0378,-7.8296,0.1798,0.0004,-0.0000,0.3892,flat,18.0,0,14.241
730,23.36,-1.5300,-7.6069,0.1798,0.0004,-0.0000,0.4688,flat,18.0,0,13.721
740,23.68,-1.0368,-7.3444,0.1797,0.0002,-0.0000,0.5301,flat,18.0,0,13.187
750,24.00,-0.5570,-7.0519,0.1797,0.0002,-0.0000,0.5788,flat,18.0,0,12.643
760,24.32,-0.0900,-6.7363,0.1797,0.0001,-0.0000,0.6166,flat,18.0,0,12.092
770,24.64,0.3668,-6.4030,0.1797,0.0001,-0.0000,0.6484,flat,18.0,0,11.536
780,24.96,0.8144,-6.0551,0.1797,0.0001,-0.0000,0.6757,flat,18.0,0,10.976
790,25.28,1.2538,-5.6949,0.1797,0.0001,-0.0000,0.6994,flat,18.0,0,10.414
800,25.60,1.6857,-5.3243,0.1797,0.0001,-0.0000,0.7205,flat,18.0,0,9.850
810,25.92,2.1108,-4.9446,0.1797,0.0001,-0.0000,0.7396,flat,18.0,0,9.284
820,26.24,2.5294,-4.5567,0.1797,0.0001,-0.0000,0.7569,flat,18.0,0,8.717
830,26.56,2.9418,-4.1615,0.1797,0.0001,-0.0000,0.7724,flat,18.0,0,8.148
840,26.88,3.3487,-3.7599,0.1797,0.0001,-0.0000,0.7865,flat,18.0,0,7.579
850,27.20,3.7503,-3.3526,0.1797,0.0000,-0.0000,0.7994,flat,18.0,0,7.008
860,27.52,4.1470,-2.9401,0.1797,0.0000,-0.0000,0.8115,flat,18.0,0,6.438
870,27.84,4.5388,-2.5228,0.1797,0.0000,-0.0000,0.8228,flat,18.0,0,5.867
880,28.16,4.9262,-2.1010,0.1797,0.0000,-0.0000,0.8336,flat,18.0,0,5.295
890,28.48,5.3091,-1.6751,0.1797,0.0000,-0.0000,0.8438,flat,18.0,0,4.724
900,28.80,5.6879,-1.2453,0.1797,0.0000,-0.0000,0.8537,flat,18.0,0,4.152
910,29.12,6.0624,-0.8120,0.1797,0.0000,0.0000,0.8634,flat,18.0,0,3.580
920,29.44,6.4327,-0.3750,0.1797,0.0000,0.0000,0.8733,flat,18.0,0,3.008
930,29.76,6.7983,0.0655,0.1797,0.0000,0.0000,0.8838,flat,18.0,0,2.436
940,30.08,7.1589,0.5097,0.1797,0.0000,0.0000,0.8956,flat,18.0,0,1.865
950,30.40,7.5132,0.9579,0.1797,0.0001,0.0000,0.9104,flat,18.0,0,1.295
960,30.72,7.8557,1.4070,0.1797,0.0001,0.0002,0.9492,flat,18.0,1,5.474
970,31.04,8.0774,1.7875,0.1799,-0.0001,-0.0000,1.2476,flat,18.0,1,5.323
980,31.36,8.2040,2.2480,0.1799,-0.0001,-0.0001,1.5423,flat,18.0,1,5.081
990,31.68,8.2088,2.7082,0.1798,0.0001,-0.0001,1.7175,flat,18.0,1,4.779
1000,32.00,8.1094,3.2148,0.1799,0.0001,-0.0000,1.9277,flat,18.0,1,4.393
1010,32.32,7.9002,3.7029,0.1799,0.0001,-0.0000,2.0903,flat,18.0,1,3.950
1020,32.64,7.6114,4.1583,0.1799,0.0003,-0.0000,2.2150,flat,18.0,1,3.476
1030,32.96,7.2663,4.5821,0.1798,0.0004,-0.0000,2.3117,flat,18.0,1,2.983
1040,33.28,6.8804,4.9685,0.1798,0.0004,-0.0000,2.4112,flat,18.0,1,2.485
1050,33.60,6.4567,5.3168,0.1798,0.0004,-0.0000,2.5185,flat,18.0,1,1.984
1060,33.92,5.9978,5.6193,0.1799,0.0003,-0.0000,2.6418,flat,18.0,1,1.483
1070,34.24,5.5078,5.8619,0.1799,0.0001,0.0000,2.8021,flat,18.0,1,0.994
1080,34.56,4.9879,6.0113,0.1799,0.0003,-0.0002,2.9716,flat,18.0,2,12.749
1090,34.88,4.4381,6.0901,0.1799,0.0003,-0.0000,3.0947,flat,18.0,2,12.251
1100,35.20,3.8774,6.1048,0.1798,0.0004,-0.0000,-3.0934,flat,18.0,2,11.726
1110,35.52,3.3151,6.0691,0.1798,0.0003,-0.0000,-3.0236,flat,18.0,2,11.186
1120,35.84,2.7546,5.9959,0.1797,0.0002,-0.0000,-2.9704,flat,18.0,2,10.636
1130,36.16,2.1973,5.8938,0.1797,0.0001,-0.0000,-2.9293,flat,18.0,2,10.079
1140,36.48,1.6437,5.7698,0.1797,0.0001,-0.0000,-2.8970,flat,18.0,2,9.519
1150,36.80,1.0931,5.6281,0.1797,0.0001,-0.0000,-2.8697,flat,18.0,2,8.957
1160,37.12,0.5456,5.4717,0.1797,0.0001,-0.0000,-2.8464,flat,18.0,2,8.391
1170,37.44,0.0010,5.3028,0.1797,0.0001,-0.0000,-2.8262,flat,18.0,2,7.824
1180,37.76,-0.5409,5.1230,0.1797,0.0001,-0.0000,-2.8086,flat,18.0,2,7.256
1190,38.08,-1.0800,4.9337,0.1797,0.0001,-0.0000,-2.7929,flat,18.0,2,6.687
1200,38.40,-1.6166,4.7361,0.1797,0.0001,-0.0000,-2.7788,flat,18.0,2,6.117
1210,38.72,-2.1507,4.5309,0.1797,0.0000,-0.0000,-2.7659,flat,18.0,2,5.546
1220,39.04,-2.6824,4.3189,0.1797,0.0000,-0.0000,-2.7541,flat,18.0,2,4.975
1230,39.36,-3.2118,4.1007,0.1797,0.0000,-0.0000,-2.7430,flat,18.0,2,4.403
1240,39.68,-3.7390,3.8767,0.1797,0.0000,-0.0000,-2.7324,flat,18.0,2,3.831
1250,40.00,-4.2637,3.6471,0.1797,0.0000,-0.0000,-2.7221,flat,18.0,2,3.259
1260,40.32,-4.7861,3.4120,0.1797,0.0000,0.0000,-2.7116,flat,18.0,2,2.687
1270,40.64,-5.3056,3.1715,0.1797,0.0000,0.0000,-2.7004,flat,18.0,2,2.115
1280,40.96,-5.8218,2.9251,0.1797,0.0000,0.0000,-2.6876,flat,18.0,2,1.544
1290,41.28,-6.3334,2.6722,0.1797,0.0001,0.0000,-2.6705,flat,18.0,2,0.975
1300,41.60,-6.7748,2.4409,0.1798,-0.0002,0.0001,-2.5230,flat,18.0,3,10.648
1310,41.92,-7.1030,2.1513,0.1799,0.0000,-0.0000,-2.2792,flat,18.0,3,10.452
1320,42.24,-7.3800,1.7707,0.1799,0.0001,-0.0001,-2.0728,flat,18.0,3,10.169
1330,42.56,-7.6033,1.3023,0.1799,0.0001,0.0000,-1.8749,flat,18.0,3,9.799
1340,42.88,-7.7446,0.7807,0.1799,0.0001,0.0000,-1.7034,flat,18.0,3,9.363
1350,43.20,-7.8010,0.2310,0.1799,0.0001,-0.0000,-1.5596,flat,18.0,3,8.878
1360,43.52,-7.7820,-0.3263,0.1798,0.0004,-0.0000,-1.4542,flat,18.0,3,8.362
1370,43.84,-7.7072,-0.8816,0.1798,0.0004,-0.0000,-1.3763,flat,18.0,3,7.829
1380,44.16,-7.5906,-1.4320,0.1797,0.0002,-0.0000,-1.3155,flat,18.0,3,7.286
1390,44.48,-7.4414,-1.9763,0.1797,0.0002,-0.0000,-1.2663,flat,18.0,3,6.735
1400,44.80,-7.2659,-2.5136,0.1797,0.0001,-0.0000,-1.2270,flat,18.0,3,6.180
1410,45.12,-7.0698,-3.0446,0.1797,0.0001,-0.0000,-1.1936,flat,18.0,3,5.621
1420,45.44,-6.8562,-3.5698,0.1797,0.0001,-0.0000,-1.1639,flat,18.0,3,5.061
1430,45.76,-6.6270,-4.0892,0.1797,0.0001,-0.0000,-1.1370,flat,18.0,3,4.498
1440,46.08,-6.3839,-4.6027,0.1797,0.0001,-0.0000,-1.1119,flat,18.0,3,3.935
1450,46.40,-6.1279,-5.1103,0.1797,0.0001,-0.0000,-1.0880,flat,18.0,3,3.370
1460,46.72,-5.8599,-5.6117,0.1797,0.0001,-0.0000,-1.0644,flat,18.0,3,2.805
1470,47.04,-5.5800,-6.1061,0.1797,0.0001,0.0000,-1.0401,flat,18.0,3,2.241
1480,47.36,-5.2882,-6.5926,0.1797,0.0001,0.0000,-1.0132,flat,18.0,3,1.678
1490,47.68,-4.9834,-7.0684,0.1797,0.0001,0.0000,-0.9797,flat,18.0,3,1.117
1500,48.00,-4.6945,-7.4868,0.1798,0.0000,0.0005,-0.8529,flat,18.0,0,16.056
1510,48.32,-4.4108,-7.7384,0.1799,-0.0001,-0.0001,-0.5534,flat,18.0,0,15.981
1520,48.64,-4.0112,-7.9461,0.1799,0.0000,-0.0000,-0.2762,flat,18.0,0,15.797
1530,48.96,-3.5292,-8.0582,0.1799,0.0000,-0.0000,-0.0325,flat,18.0,0,15.499
1540,49.28,-3.0060,-8.0546,0.1799,0.0001,-0.0000,0.1620,flat,18.0,0,15.103
1550,49.60,-2.4751,-7.9503,0.1799,0.0002,-0.0000,0.3031,flat,18.0,0,14.641
1560,49.92,-1.9547,-7.7715,0.1798,0.0004,-0.0000,0.4048,flat,18.0,0,14.141
1570,50.24,-1.4494,-7.5409,0.1798,0.0003,-0.0000,0.4803,flat,18.0,0,13.618
1580,50.56,-0.9584,-7.2728,0.1797,0.0002,-0.0000,0.5388,flat,18.0,0,13.081
1590,50.88,-0.4808,-6.9760,0.1797,0.0002,-0.0000,0.5851,flat,18.0,0,12.535
1600,51.20,-0.0154,-6.6574,0.1797,0.0001,-0.0000,0.6216,flat,18.0,0,11.983
1610,51.52,0.4401,-6.3218,0.1797,0.0001,-0.0000,0.6524,flat,18.0,0,11.426
1620,51.84,0.8867,-5.9721,0.1797,0.0001,-0.0000,0.6790,flat,18.0,0,10.866
1630,52.16,1.3251,-5.6105,0.1797,0.0001,-0.0000,0.7021,flat,18.0,0,10.304
1640,52.48,1.7563,-5.2388,0.1797,0.0001,-0.0000,0.7226,flat,18.0,0,9.739
1650,52.80,2.1807,-4.8581,0.1797,0.0001,-0.0000,0.7414,flat,18.0,0,9.173
1660,53.12,2.5987,-4.4695,0.1797,0.0001,-0.0000,0.7583,flat,18.0,0,8.605
1670,53.44,3.0108,-4.0737,0.1797,0.0001,-0.0000,0.7735,flat,18.0,0,8.037
1680,53.76,3.4173,-3.6717,0.1797,0.0000,-0.0000,0.7873,flat,18.0,0,7.467
1690,54.08,3.8187,-3.2640,0.1797,0.0000,-0.0000,0.8000,flat,18.0,0,6.897
1700,54.40,4.2151,-2.8512,0.1797,0.0000,-0.0000,0.8119,flat,18.0,0,6.326
1710,54.72,4.6068,-2.4337,0.1797,0.0000,-0.0000,0.8232,flat,18.0,0,5.755
1720,55.04,4.9941,-2.0117,0.1797,0.0000,-0.0000,0.8338,flat,18.0,0,5.183
1730,55.36,5.3770,-1.5858,0.1797,0.0000,-0.0000,0.8440,flat,18.0,0,4.611
1740,55.68,5.7557,-1.1560,0.1797,0.0000,-0.0000,0.8538,flat,18.0,0,4.040
1750,56.00,6.1302,-0.7226,0.1797,0.0000,0.0000,0.8635,flat,18.0,0,3.468
1760,56.32,6.5004,-0.2856,0.1797,0.0000,0.0000,0.8735,flat,18.0,0,2.896
1770,56.64,6.8659,0.1550,0.1797,0.0000,0.0000,0.8841,flat,18.0,0,2.324
1780,56.96,7.2262,0.5993,0.1797,0.0000,0.0000,0.8963,flat,18.0,0,1.753
1790,57.28,7.5798,1.0476,0.1797,0.0001,0.0000,0.9121,flat,18.0,0,1.184
1800,57.60,7.9038,1.4809,0.1797,0.0001,0.0004,0.9963,flat,18.0,1,5.446
1810,57.92,8.1105,1.8717,0.1799,-0.0000,-0.0000,1.3067,flat,18.0,1,5.283
1820,58.24,8.2090,2.3361,0.1799,0.0002,0.0006,1.5711,flat,18.0,1,5.024
1830,58.56,8.1927,2.8180,0.1799,-0.0001,-0.0000,1.7784,flat,18.0,1,4.698
1840,58.88,8.0622,3.3228,0.1799,0.0000,-0.0000,1.9727,flat,18.0,1,4.292
1850,59.20,7.8306,3.8036,0.1799,0.0001,-0.0000,2.1233,flat,18.0,1,3.839
1860,59.52,7.5260,4.2519,0.1799,0.0003,-0.0000,2.2377,flat,18.0,1,3.357
1870,59.84,7.1711,4.6679,0.1798,0.0004,-0.0000,2.3333,flat,18.0,1,2.862
1880,60.16,6.7767,5.0462,0.1798,0.0004,-0.0000,2.4334,flat,18.0,1,2.363
1890,60.48,6.3452,5.3857,0.1798,0.0004,-0.0000,2.5427,flat,18.0,1,1.860
1900,60.80,5.8793,5.6769,0.1799,0.0002,0.0000,2.6715,flat,18.0,1,1.361
1910,61.12,5.3840,5.9040,0.1799,0.0000,0.0000,2.8466,flat,18.0,1,0.877
1920,61.44,4.8569,6.0338,0.1798,0.0000,0.0001,2.9981,flat,18.0,2,12.631
1930,61.76,4.3032,6.0995,0.1799,0.0004,-0.0000,3.1163,flat,18.0,2,12.127
1940,62.08,3.7417,6.1027,0.1798,0.0004,-0.0000,-3.0773,flat,18.0,2,11.598
1950,62.40,3.1796,6.0584,0.1798,0.0003,-0.0000,-3.0113,flat,18.0,2,11.055
1960,62.72,2.6197,5.9785,0.1797,0.0002,-0.0000,-2.9606,flat,18.0,2,10.503
1970,63.04,2.0633,5.8711,0.1797,0.0001,-0.0000,-2.9217,flat,18.0,2,9.946
1980,63.36,1.5104,5.7429,0.1797,0.0001,-0.0000,-2.8904,flat,18.0,2,9.386
1990,63.68,0.9606,5.5977,0.1797,0.0001,-0.0000,-2.8640,flat,18.0,2,8.823
2000,64.00,0.4137,5.4382,0.1797,0.0001,-0.0000,-2.8413,flat,18.0,2,8.257
2010,64.32,-0.1301,5.2665,0.1797,0.0001,-0.0000,-2.8217,flat,18.0,2,7.690
2020,64.64,-0.6712,5.0842,0.1797,0.0001,-0.0000,-2.8044,flat,18.0,2,7.121
2030,64.96,-1.2097,4.8927,0.1797,0.0001,-0.0000,-2.7890,flat,18.0,2,6.552
2040,65.28,-1.7455,4.6930,0.1797,0.0000,-0.0000,-2.7751,flat,18.0,2,5.981
2050,65.60,-2.2789,4.4859,0.1797,0.0000,-0.0000,-2.7625,flat,18.0,2,5.411
2060,65.92,-2.8100,4.2721,0.1797,0.0000,-0.0000,-2.7508,flat,18.0,2,4.839
2070,66.24,-3.3387,4.0521,0.1797,0.0000,-0.0000,-2.7398,flat,18.0,2,4.268
2080,66.56,-3.8651,3.8264,0.1797,0.0000,-0.0000,-2.7292,flat,18.0,2,3.696
2090,66.88,-4.3891,3.5950,0.1797,0.0000,-0.0000,-2.7188,flat,18.0,2,3.124
2100,67.20,-4.9106,3.3583,0.1797,0.0000,0.0000,-2.7081,flat,18.0,2,2.552
2110,67.52,-5.4292,3.1159,0.1797,0.0000,0.0000,-2.6966,flat,18.0,2,1.980
2120,67.84,-5.9442,2.8676,0.1797,0.0000,0.0000,-2.6831,flat,18.0,2,1.409
2130,68.16,-6.4539,2.6124,0.1797,0.0001,0.0000,-2.6640,flat,18.0,2,0.841
2140,68.48,-6.8478,2.3843,0.1799,-0.0002,0.0000,-2.4474,flat,18.0,3,10.611
2150,68.80,-7.1639,2.0603,0.1799,0.0000,-0.0000,-2.2131,flat,18.0,3,10.382
2160,69.12,-7.4337,1.6399,0.1799,0.0000,-0.0000,-2.0007,flat,18.0,3,10.061
2170,69.44,-7.6305,1.1494,0.1799,0.0001,-0.0000,-1.8122,flat,18.0,3,9.665
2180,69.76,-7.7425,0.6151,0.1799,0.0001,-0.0000,-1.6505,flat,18.0,3,9.208
2190,70.08,-7.7714,0.0605,0.1799,0.0003,-0.0000,-1.5210,flat,18.0,3,8.710
2200,70.40,-7.7323,-0.4969,0.1798,0.0004,-0.0000,-1.4274,flat,18.0,3,8.187
2210,70.72,-7.6432,-1.0511,0.1798,0.0003,-0.0000,-1.3566,flat,18.0,3,7.649
2220,71.04,-7.5161,-1.5999,0.1797,0.0002,-0.0000,-1.3007,flat,18.0,3,7.102
2230,71.36,-7.3590,-2.1426,0.1797,0.0002,-0.0000,-1.2551,flat,18.0,3,6.549
2240,71.68,-7.1779,-2.6782,0.1797,0.0001,-0.0000,-1.2188,flat,18.0,3,5.993
2250,72.00,-6.9775,-3.2081,0.1797,0.0001,-0.0000,-1.1870,flat,18.0,3,5.434
2260,72.32,-6.7605,-3.7323,0.1797,0.0001,-0.0000,-1.1585,flat,18.0,3,4.872
2270,72.64,-6.5285,-4.2507,0.1797,0.0001,-0.0000,-1.1325,flat,18.0,3,4.309
2280,72.96,-6.2831,-4.7633,0.1797,0.0001,-0.0000,-1.1081,flat,18.0,3,3.745
2290,73.28,-6.0252,-5.2701,0.1797,0.0001,-0.0000,-1.0845,flat,18.0,3,3.180
2300,73.60,-5.7554,-5.7704,0.1797,0.0001,0.0000,-1.0610,flat,18.0,3,2.615
2310,73.92,-5.4739,-6.2638,0.1797,0.0001,0.0000,-1.0362,flat,18.0,3,2.051
2320,74.24,-5.1801,-6.7485,0.1797,0.0001,0.0000,-1.0079,flat,18.0,3,1.488
2330,74.56,-4.8729,-7.2212,0.1797,0.0001,0.0000,-0.9704,flat,18.0,3,0.930
2340,74.88,-4.6083,-7.5774,0.1798,-0.0002,0.0001,-0.7641,flat,18.0,0,16.041
2350,75.20,-4.2888,-7.8217,0.1799,-0.0000,-0.0001,-0.4698,flat,18.0,0,15.936
2360,75.52,-3.8613,-8.0055,0.1799,0.0000,-0.0000,-0.2012,flat,18.0,0,15.719
2370,75.84,-3.3633,-8.0840,0.1799,0.0001,-0.0000,0.0305,flat,18.0,0,15.391
2380,76.16,-2.8353,-8.0481,0.1799,0.0001,-0.0000,0.2069,flat,18.0,0,14.972
2390,76.48,-2.3064,-7.9191,0.1799,0.0003,-0.0000,0.3373,flat,18.0,0,14.497
2400,76.80,-1.7906,-7.7228,0.1798,0.0004,-0.0000,0.4301,flat,18.0,0,13.989
2410,77.12,-1.2898,-7.4796,0.1798,0.0003,-0.0000,0.4999,flat,18.0,0,13.461
2420,77.44,-0.8032,-7.2018,0.1797,0.0002,-0.0000,0.5546,flat,18.0,0,12.922
2430,77.76,-0.3298,-6.8974,0.1797,0.0002,-0.0000,0.5976,flat,18.0,0,12.374
2440,78.08,0.1322,-6.5729,0.1797,0.0001,-0.0000,0.6323,flat,18.0,0,11.820
2450,78.40,0.5845,-6.2323,0.1797,0.0001,-0.0000,0.6618,flat,18.0,0,11.263
2460,78.72,1.0282,-5.8784,0.1797,0.0001,-0.0000,0.6873,flat,18.0,0,10.702
2470,79.04,1.4640,-5.5131,0.1797,0.0001,-0.0000,0.7096,flat,18.0,0,10.139
2480,79.36,1.8926,-5.1381,0.1797,0.0001,-0.0000,0.7297,flat,18.0,0,9.573
2490,79.68,2.3146,-4.7544,0.1797,0.0001,-0.0000,0.7480,flat,18.0,0,9.007
2500,80.00,2.7302,-4.3630,0.1797,0.0001,-0.0000,0.7644,flat,18.0,0,8.439
2510,80.32,3.1400,-3.9647,0.1797,0.0001,-0.0000,0.7792,flat,18.0,0,7.870
2520,80.64,3.5444,-3.5604,0.1797,0.0000,-0.0000,0.7926,flat,18.0,0,7.300
2530,80.96,3.9437,-3.1506,0.1797,0.0000,-0.0000,0.8051,flat,18.0,0,6.729
2540,81.28,4.3381,-2.7358,0.1797,0.0000,-0.0000,0.8168,flat,18.0,0,6.159
2550,81.60,4.7278,-2.3163,0.1797,0.0000,-0.0000,0.8279,flat,18.0,0,5.587
2560,81.92,5.1131,-1.8926,0.1797,0.0000,-0.0000,0.8384,flat,18.0,0,5.016
2570,82.24,5.4941,-1.4649,0.1797,0.0000,-0.0000,0.8484,flat,18.0,0,4.444
2580,82.56,5.8709,-1.0334,0.1797,0.0000,-0.0000,0.8582,flat,18.0,0,3.872
2590,82.88,6.2435,-0.5984,0.1797,0.0000,0.0000,0.8680,flat,18.0,0,3.300
2600,83.20,6.6116,-0.1598,0.1797,0.0000,0.0000,0.8781,flat,18.0,0,2.728
2610,83.52,6.9750,0.2825,0.1797,0.0000,0.0000,0.8891,flat,18.0,0,2.157
2620,83.84,7.3328,0.7285,0.1797,0.0000,0.0000,0.9021,flat,18.0,0,1.586
2630,84.16,7.6833,1.1786,0.1797,0.0001,0.0000,0.9197,flat,18.0,0,1.017
2640,84.48,7.9704,1.5843,0.1798,-0.0002,0.0000,1.0913,flat,18.0,1,5.407
2650,84.80,8.1525,2.0037,0.1799,0.0001,-0.0000,1.3955,flat,18.0,1,5.216
2660,85.12,8.2097,2.4607,0.1799,-0.0001,-0.0003,1.6062,flat,18.0,1,4.941
2670,85.44,8.1722,2.9574,0.1799,0.0002,-0.0000,1.8295,flat,18.0,1,4.596
2680,85.76,8.0144,3.4579,0.1799,0.0000,-0.0000,2.0137,flat,18.0,1,4.177
2690,86.08,7.7626,3.9303,0.1799,0.0002,-0.0000,2.1560,flat,18.0,1,3.717
2700,86.40,7.4430,4.3705,0.1798,0.0003,-0.0000,2.2625,flat,18.0,1,3.231
2710,86.72,7.0775,4.7764,0.1798,0.0004,-0.0000,2.3599,flat,18.0,1,2.735
2720,87.04,6.6728,5.1445,0.1798,0.0004,-0.0000,2.4622,flat,18.0,1,2.235
2730,87.36,6.2316,5.4718,0.1798,0.0004,-0.0000,2.5758,flat,18.0,1,1.733
2740,87.68,5.7567,5.7472,0.1799,0.0002,0.0000,2.7135,flat,18.0,1,1.236
2750,88.00,5.2552,5.9523,0.1799,0.0000,0.0000,2.9107,flat,18.0,2,12.987
2760,88.32,4.7167,6.0586,0.1798,0.0001,0.0001,3.0353,flat,18.0,2,12.506
2770,88.64,4.1596,6.1050,0.1798,0.0004,-0.0000,-3.1382,flat,18.0,2,11.993
2780,88.96,3.5974,6.0931,0.1798,0.0004,-0.0000,-3.0566,flat,18.0,2,11.459
2790,89.28,3.0358,6.0376,0.1797,0.0002,-0.0000,-2.9959,flat,18.0,2,10.913
2800,89.60,2.4765,5.9494,0.1797,0.0002,-0.0000,-2.9485,flat,18.0,2,10.360
2810,89.92,1.9213,5.8357,0.1797,0.0001,-0.0000,-2.9126,flat,18.0,2,9.802
2820,90.24,1.3692,5.7025,0.1797,0.0001,-0.0000,-2.8829,flat,18.0,2,9.240
2830,90.56,0.8202,5.5532,0.1797,0.0001,-0.0000,-2.8577,flat,18.0,2,8.676
2840,90.88,0.2741,5.3904,0.1797,0.0001,-0.0000,-2.8360,flat,18.0,2,8.110
2850,91.20,-0.2691,5.2158,0.1797,0.0001,-0.0000,-2.8171,flat,18.0,2,7.542
2860,91.52,-0.8095,5.0311,0.1797,0.0001,-0.0000,-2.8005,flat,18.0,2,6.973
2870,91.84,-1.3474,4.8375,0.1797,0.0001,-0.0000,-2.7856,flat,18.0,2,6.404
2880,92.16,-1.8827,4.6360,0.1797,0.0000,-0.0000,-2.7721,flat,18.0,2,5.833
2890,92.48,-2.4156,4.4273,0.1797,0.0000,-0.0000,-2.7598,flat,18.0,2,5.262
2900,92.80,-2.9461,4.2122,0.1797,0.0000,-0.0000,-2.7484,flat,18.0,2,4.691
2910,93.12,-3.4744,3.9909,0.1797,0.0000,-0.0000,-2.7376,flat,18.0,2,4.119
2920,93.44,-4.0003,3.7640,0.1797,0.0000,-0.0000,-2.7271,flat,18.0,2,3.547
2930,93.76,-4.5239,3.5316,0.1797,0.0000,0.0000,-2.7167,flat,18.0,2,2.975
2940,94.08,-5.0448,3.2937,0.1797,0.0000,0.0000,-2.7060,flat,18.0,2,2.403
2950,94.40,-5.5627,3.0503,0.1797,0.0000,0.0000,-2.6941,flat,18.0,2,1.831
2960,94.72,-6.0769,2.8007,0.1797,0.0000,0.0000,-2.6797,flat,18.0,2,1.261
2970,95.04,-6.5820,2.5472,0.1797,0.0000,0.0002,-2.6415,flat,18.0,3,10.707
2980,95.36,-6.9431,2.3126,0.1799,-0.0001,-0.0000,-2.3955,flat,18.0,3,10.565
2990,95.68,-7.2511,1.9662,0.1799,0.0000,-0.0000,-2.1673,flat,18.0,3,10.316
3000,96.00,-7.4995,1.5456,0.1799,0.0000,-0.0000,-1.9700,flat,18.0,3,9.993
3010,96.32,-7.6836,1.0473,0.1799,0.0001,-0.0000,-1.7842,flat,18.0,3,9.588
3020,96.64,-7.7818,0.5089,0.1799,0.0001,-0.0000,-1.6272,flat,18.0,3,9.125
3030,96.96,-7.7982,-0.0468,0.1799,0.0003,-0.0000,-1.5026,flat,18.0,3,8.623
3040,97.28,-7.7492,-0.6037,0.1798,0.0004,-0.0000,-1.4128,flat,18.0,3,8.098
3050,97.60,-7.6522,-1.1567,0.1798,0.0003,-0.0000,-1.3443,flat,18.0,3,7.559
3060,97.92,-7.5184,-1.7042,0.1797,0.0002,-0.0000,-1.2898,flat,18.0,3,7.011
3070,98.24,-7.3554,-2.2452,0.1797,0.0002,-0.0000,-1.2456,flat,18.0,3,6.458
3080,98.56,-7.1692,-2.7791,0.1797,0.0001,-0.0000,-1.2100,flat,18.0,3,5.901
3090,98.88,-6.9641,-3.3073,0.1797,0.0001,-0.0000,-1.1786,flat,18.0,3,5.341
3100,99.20,-6.7426,-3.8296,0.1797,0.0001,-0.0000,-1.1503,flat,18.0,3,4.780
3110,99.52,-6.5064,-4.3461,0.1797,0.0001,-0.0000,-1.1244,flat,18.0,3,4.217
3120,99.84,-6.2569,-4.8568,0.1797,0.0001,-0.0000,-1.1001,flat,18.0,3,3.653
3130,100.16,-5.9949,-5.3613,0.1797,0.0001,-0.0000,-1.0765,flat,18.0,3,3.088
3140,100.48,-5.7210,-5.8594,0.1797,0.0001,0.0000,-1.0527,flat,18.0,3,2.523
3150,100.80,-5.4353,-6.3501,0.1797,0.0001,0.0000,-1.0273,flat,18.0,3,1.959
3160,101.12,-5.1373,-6.8318,0.1797,0.0001,0.0000,-0.9979,flat,18.0,3,1.397
3170,101.44,-4.8254,-7.3002,0.1797,0.0001,0.0000,-0.9576,flat,18.0,3,0.840
3180,101.76,-4.5684,-7.6142,0.1798,-0.0003,-0.0000,-0.7011,flat,18.0,0,16.031
3190,102.08,-4.2239,-7.8514,0.1799,0.0000,-0.0000,-0.4114,flat,18.0,0,15.903
3200,102.40,-3.7781,-8.0160,0.1799,0.0000,-0.0000,-0.1500,flat,18.0,0,15.662
3210,102.72,-3.2706,-8.0702,0.1799,0.0001,-0.0000,0.0708,flat,18.0,0,15.312
3220,103.04,-2.7403,-8.0133,0.1799,0.0001,-0.0000,0.2367,flat,18.0,0,14.879
3230,103.36,-2.2133,-7.8686,0.1799,0.0003,-0.0000,0.3581,flat,18.0,0,14.395
3240,103.68,-1.7004,-7.6618,0.1798,0.0004,-0.0000,0.4451,flat,18.0,0,13.882
3250,104.00,-1.2023,-7.4110,0.1797,0.0003,-0.0000,0.5113,flat,18.0,0,13.351
3260,104.32,-0.7182,-7.1277,0.1797,0.0002,-0.0000,0.5634,flat,18.0,0,12.809
3270,104.64,-0.2470,-6.8192,0.1797,0.0001,-0.0000,0.6041,flat,18.0,0,12.260
3280,104.96,0.2134,-6.4917,0.1797,0.0001,-0.0000,0.6376,flat,18.0,0,11.705
3290,105.28,0.6643,-6.1487,0.1797,0.0001,-0.0000,0.6661,flat,18.0,0,11.147
3300,105.60,1.1067,-5.7928,0.1797,0.0001,-0.0000,0.6909,flat,18.0,0,10.586
3310,105.92,1.5414,-5.4260,0.1797,0.0001,-0.0000,0.7126,flat,18.0,0,10.022
3320,106.24,1.9692,-5.0497,0.1797,0.0001,-0.0000,0.7322,flat,18.0,0,9.457
3330,106.56,2.3904,-4.6650,0.1797,0.0001,-0.0000,0.7501,flat,18.0,0,8.889
3340,106.88,2.8054,-4.2726,0.1797,0.0001,-0.0000,0.7661,flat,18.0,0,8.321
3350,107.20,3.2146,-3.8736,0.1797,0.0001,-0.0000,0.7806,flat,18.0,0,7.752
3360,107.52,3.6185,-3.4687,0.1797,0.0000,-0.0000,0.7938,flat,18.0,0,7.182
3370,107.84,4.0174,-3.0584,0.1797,0.0000,-0.0000,0.8061,flat,18.0,0,6.612
3380,108.16,4.4114,-2.6432,0.1797,0.0000,-0.0000,0.8176,flat,18.0,0,6.041
3390,108.48,4.8009,-2.2235,0.1797,0.0000,-0.0000,0.8286,flat,18.0,0,5.469
3400,108.80,5.1860,-1.7995,0.1797,0.0000,-0.0000,0.8390,flat,18.0,0,4.898
3410,109.12,5.5668,-1.3716,0.1797,0.0000,-0.0000,0.8489,flat,18.0,0,4.326
3420,109.44,5.9434,-0.9400,0.1797,0.0000,0.0000,0.8586,flat,18.0,0,3.754
3430,109.76,6.3157,-0.5048,0.1797,0.0000,0.0000,0.8684,flat,18.0,0,3.182
3440,110.08,6.6836,-0.0660,0.1797,0.0000,0.0000,0.8787,flat,18.0,0,2.610
3450,110.40,7.0466,0.3764,0.1797,0.0000,0.0000,0.8900,flat,18.0,0,2.039
3460,110.72,7.4038,0.8227,0.1797,0.0000,0.0000,0.9036,flat,18.0,0,1.468
3470,111.04,7.7531,1.2731,0.1797,0.0001,0.0000,0.9228,flat,18.0,0,0.900
3480,111.36,8.0156,1.6638,0.1799,-0.0002,-0.0000,1.1523,flat,18.0,1,5.375
3490,111.68,8.1774,2.1003,0.1799,0.0001,-0.0000,1.4527,flat,18.0,1,5.165
3500,112.00,8.2102,2.5642,0.1798,0.0001,-0.0001,1.6574,flat,18.0,1,4.873
3510,112.32,8.1419,3.0718,0.1799,0.0001,0.0000,1.8801,flat,18.0,1,4.503
3520,112.64,7.9570,3.5671,0.1799,0.0001,-0.0000,2.0530,flat,18.0,1,4.070
3530,112.96,7.6862,4.0313,0.1799,0.0002,-0.0000,2.1856,flat,18.0,1,3.601
3540,113.28,7.3537,4.4643,0.1798,0.0004,-0.0000,2.2850,flat,18.0,1,3.110
3550,113.60,6.9787,4.8614,0.1798,0.0004,-0.0000,2.3826,flat,18.0,1,2.613
3560,113.92,6.5655,5.2211,0.1798,0.0004,-0.0000,2.4864,flat,18.0,1,2.112
3570,114.24,6.1164,5.5380,0.1799,0.0004,-0.0000,2.6035,flat,18.0,1,1.610
3580,114.56,5.6348,5.7999,0.1799,0.0001,0.0000,2.7503,flat,18.0,1,1.115
3590,114.88,5.1276,5.9777,0.1799,0.0001,-0.0002,2.9330,flat,18.0,2,12.873
3600,115.20,4.5818,6.0752,0.1799,0.0002,-0.0000,3.0609,flat,18.0,2,12.383
3610,115.52,4.0229,6.1080,0.1798,0.0004,-0.0000,-3.1185,flat,18.0,2,11.865
3620,115.84,3.4606,6.0857,0.1798,0.0003,-0.0000,-3.0420,flat,18.0,2,11.328
3630,116.16,2.8995,6.0224,0.1797,0.0002,-0.0000,-2.9845,flat,18.0,2,10.780
3640,116.48,2.3409,5.9279,0.1797,0.0002,-0.0000,-2.9396,flat,18.0,2,10.225
3650,116.80,1.7866,5.8094,0.1797,0.0001,-0.0000,-2.9054,flat,18.0,2,9.667
3660,117.12,1.2352,5.6723,0.1797,0.0001,-0.0000,-2.8767,flat,18.0,2,9.105
3670,117.44,0.6869,5.5197,0.1797,0.0001,-0.0000,-2.8523,flat,18.0,2,8.540
3680,117.76,0.1416,5.3539,0.1797,0.0001,-0.0000,-2.8312,flat,18.0,2,7.974
3690,118.08,-0.4009,5.1767,0.1797,0.0001,-0.0000,-2.8128,flat,18.0,2,7.406
3700,118.40,-0.9407,4.9897,0.1797,0.0001,-0.0000,-2.7965,flat,18.0,2,6.837
3710,118.72,-1.4778,4.7939,0.1797,0.0001,-0.0000,-2.7819,flat,18.0,2,6.267
3720,119.04,-2.0124,4.5904,0.1797,0.0000,-0.0000,-2.7687,flat,18.0,2,5.696
3730,119.36,-2.5446,4.3799,0.1797,0.0000,-0.0000,-2.7565,flat,18.0,2,5.125
3740,119.68,-3.0745,4.1630,0.1797,0.0000,-0.0000,-2.7452,flat,18.0,2,4.554
3750,120.00,-3.6021,3.9401,0.1797,0.0000,-0.0000,-2.7344,flat,18.0,2,3.982
3760,120.32,-4.1273,3.7115,0.1797,0.0000,-0.0000,-2.7240,flat,18.0,2,3.410
3770,120.64,-4.6501,3.4775,0.1797,0.0000,0.0000,-2.7135,flat,18.0,2,2.838
3780,120.96,-5.1701,3.2379,0.1797,0.0000,0.0000,-2.7025,flat,18.0,2,2.266
3790,121.28,-5.6871,2.9927,0.1797,0.0000,0.0000,-2.6902,flat,18.0,2,1.695
3800,121.60,-6.1998,2.7411,0.1797,0.0001,0.0000,-2.6746,flat,18.0,2,1.125
3810,121.92,-6.6709,2.5034,0.1798,0.0000,0.0003,-2.5725,flat,18.0,3,10.684
3820,122.24,-7.0099,2.2366,0.1799,0.0000,-0.0000,-2.3262,flat,18.0,3,10.509
3830,122.56,-7.3064,1.8606,0.1799,0.0000,-0.0000,-2.1043,flat,18.0,3,10.232
3840,122.88,-7.5422,1.4018,0.1799,0.0001,-0.0000,-1.9032,flat,18.0,3,9.872
3850,123.20,-7.6970,0.8863,0.1799,0.0001,-0.0000,-1.7283,flat,18.0,3,9.443
3860,123.52,-7.7666,0.3391,0.1799,0.0001,-0.0000,-1.5810,flat,18.0,3,8.963
3870,123.84,-7.7589,-0.2183,0.1798,0.0004,-0.0000,-1.4706,flat,18.0,3,8.451
3880,124.16,-7.6930,-0.7745,0.1798,0.0004,-0.0000,-1.3898,flat,18.0,3,7.919
3890,124.48,-7.5837,-1.3261,0.1797,0.0002,-0.0000,-1.3272,flat,18.0,3,7.377
3900,124.80,-7.4408,-1.8720,0.1797,0.0002,-0.0000,-1.2767,flat,18.0,3,6.826
3910,125.12,-7.2709,-2.4111,0.1797,0.0001,-0.0000,-1.2363,flat,18.0,3,6.272
3920,125.44,-7.0798,-2.9438,0.1797,0.0001,-0.0000,-1.2024,flat,18.0,3,5.714
3930,125.76,-6.8708,-3.4709,0.1797,0.0001,-0.0000,-1.1724,flat,18.0,3,5.153
3940,126.08,-6.6461,-3.9921,0.1797,0.0001,-0.0000,-1.1453,flat,18.0,3,4.591
3950,126.40,-6.4073,-4.5077,0.1797,0.0001,-0.0000,-1.1201,flat,18.0,3,4.027
3960,126.72,-6.1555,-5.0174,0.1797,0.0001,-0.0000,-1.0962,flat,18.0,3,3.463
3970,127.04,-5.8917,-5.5210,0.1797,0.0001,-0.0000,-1.0728,flat,18.0,3,2.898
3980,127.36,-5.6160,-6.0180,0.1797,0.0001,0.0000,-1.0489,flat,18.0,3,2.333
3990,127.68,-5.3285,-6.5074,0.1797,0.0001,0.0000,-1.0227,flat,18.0,3,1.769
4000,128.00,-5.0282,-6.9868,0.1797,0.0001,0.0000,-0.9910,flat,18.0,3,1.208
4010,128.32,-4.7235,-7.4390,0.1797,0.0001,0.0004,-0.9154,flat,18.0,0,16.051
4020,128.64,-4.4637,-7.7030,0.1799,-0.0002,-0.0000,-0.6147,flat,18.0,0,16.001
4030,128.96,-4.0865,-7.9248,0.1799,0.0000,-0.0000,-0.3314,flat,18.0,0,15.842
4040,129.28,-3.6184,-8.0595,0.1799,0.0000,-0.0000,-0.0799,flat,18.0,0,15.568
4050,129.60,-3.1007,-8.0796,0.1799,0.0001,-0.0000,0.1273,flat,18.0,0,15.191
4060,129.92,-2.5697,-7.9938,0.1799,0.0001,-0.0000,0.2780,flat,18.0,0,14.740
4070,130.24,-2.0466,-7.8279,0.1798,0.0004,-0.0000,0.3872,flat,18.0,0,14.246
4080,130.56,-1.5384,-7.6062,0.1798,0.0004,-0.0000,0.4673,flat,18.0,0,13.727
4090,130.88,-1.0448,-7.3445,0.1797,0.0002,-0.0000,0.5289,flat,18.0,0,13.193
4100,131.20,-0.5648,-7.0526,0.1797,0.0002,-0.0000,0.5778,flat,18.0,0,12.648
4110,131.52,-0.0975,-6.7374,0.1797,0.0001,-0.0000,0.6157,flat,18.0,0,12.098
4120,131.84,0.3595,-6.4045,0.1797,0.0001,-0.0000,0.6477,flat,18.0,0,11.542
4130,132.16,0.8074,-6.0570,0.1797,0.0001,-0.0000,0.6750,flat,18.0,0,10.983
4140,132.48,1.2470,-5.6971,0.1797,0.0001,-0.0000,0.6988,flat,18.0,0,10.420
4150,132.80,1.6791,-5.3268,0.1797,0.0001,-0.0000,0.7199,flat,18.0,0,9.856
4160,133.12,2.1044,-4.9473,0.1797,0.0001,-0.0000,0.7391,flat,18.0,0,9.290
4170,133.44,2.5232,-4.5597,0.1797,0.0001,-0.0000,0.7564,flat,18.0,0,8.723
4180,133.76,2.9358,-4.1647,0.1797,0.0001,-0.0000,0.7720,flat,18.0,0,8.154
4190,134.08,3.3429,-3.7633,0.1797,0.0001,-0.0000,0.7860,flat,18.0,0,7.585
4200,134.40,3.7447,-3.3562,0.1797,0.0000,-0.0000,0.7990,flat,18.0,0,7.015
4210,134.72,4.1415,-2.9438,0.1797,0.0000,-0.0000,0.8111,flat,18.0,0,6.444
4220,135.04,4.5335,-2.5266,0.1797,0.0000,-0.0000,0.8225,flat,18.0,0,5.873
4230,135.36,4.9210,-2.1050,0.1797,0.0000,-0.0000,0.8332,flat,18.0,0,5.302
4240,135.68,5.3041,-1.6792,0.1797,0.0000,-0.0000,0.8435,flat,18.0,0,4.730
4250,136.00,5.6830,-1.2496,0.1797,0.0000,-0.0000,0.8533,flat,18.0,0,4.158
4260,136.32,6.0577,-0.8164,0.1797,0.0000,0.0000,0.8630,flat,18.0,0,3.586
4270,136.64,6.4281,-0.3796,0.1797,0.0000,0.0000,0.8730,flat,18.0,0,3.014
4280,136.96,6.7939,0.0609,0.1797,0.0000,0.0000,0.8835,flat,18.0,0,2.443
4290,137.28,7.1546,0.5049,0.1797,0.0000,0.0000,0.8953,flat,18.0,0,1.872
4300,137.60,7.5091,0.9530,0.1797,0.0001,0.0000,0.9100,flat,18.0,0,1.302
4310,137.92,7.8518,1.4020,0.1797,0.0001,0.0002,0.9486,flat,18.0,1,5.476
4320,138.24,8.0738,1.7824,0.1799,-0.0001,-0.0000,1.2468,flat,18.0,1,5.325
4330,138.56,8.2008,2.2429,0.1799,-0.0001,-0.0001,1.5415,flat,18.0,1,5.082
4340,138.88,8.2059,2.7032,0.1798,0.0001,-0.0001,1.7165,flat,18.0,1,4.780
4350,139.20,8.1071,3.2100,0.1799,0.0001,-0.0000,1.9268,flat,18.0,1,4.394
4360,139.52,7.8984,3.6983,0.1799,0.0001,-0.0000,2.0893,flat,18.0,1,3.951
4370,139.84,7.6100,4.1540,0.1799,0.0003,-0.0000,2.2141,flat,18.0,1,3.476
4380,140.16,7.2653,4.5782,0.1798,0.0004,-0.0000,2.3107,flat,18.0,1,2.984
4390,140.48,6.8799,4.9650,0.1798,0.0004,-0.0000,2.4101,flat,18.0,1,2.486
4400,140.80,6.4566,5.3138,0.1798,0.0004,-0.0000,2.5171,flat,18.0,1,1.984
4410,141.12,5.9981,5.6169,0.1799,0.0003,-0.0000,2.6403,flat,18.0,1,1.483
4420,141.44,5.5084,5.8602,0.1799,0.0001,0.0000,2.8004,flat,18.0,1,0.994
4430,141.76,4.9890,6.0104,0.1799,0.0003,-0.0002,2.9702,flat,18.0,2,12.750
4440,142.08,4.4394,6.0899,0.1799,0.0003,-0.0000,3.0936,flat,18.0,2,12.252
4450,142.40,3.8787,6.1053,0.1798,0.0004,-0.0000,-3.0942,flat,18.0,2,11.728
4460,142.72,3.3164,6.0700,0.1798,0.0003,-0.0000,-3.0241,flat,18.0,2,11.187
4470,143.04,2.7559,5.9971,0.1797,0.0002,-0.0000,-2.9708,flat,18.0,2,10.637
4480,143.36,2.1985,5.8952,0.1797,0.0002,-0.0000,-2.9296,flat,18.0,2,10.081
4490,143.68,1.6449,5.7713,0.1797,0.0001,-0.0000,-2.8972,flat,18.0,2,9.521
4500,144.00,1.0943,5.6297,0.1797,0.0001,-0.0000,-2.8698,flat,18.0,2,8.958
4510,144.32,0.5468,5.4734,0.1797,0.0001,-0.0000,-2.8465,flat,18.0,2,8.393
4520,144.64,0.0022,5.3045,0.1797,0.0001,-0.0000,-2.8263,flat,18.0,2,7.826
4530,144.96,-0.5396,5.1247,0.1797,0.0001,-0.0000,-2.8086,flat,18.0,2,7.258
4540,145.28,-1.0787,4.9354,0.1797,0.0001,-0.0000,-2.7928,flat,18.0,2,6.689
4550,145.60,-1.6153,4.7378,0.1797,0.0001,-0.0000,-2.7787,flat,18.0,2,6.118
4560,145.92,-2.1494,4.5326,0.1797,0.0000,-0.0000,-2.7659,flat,18.0,2,5.548
4570,146.24,-2.6811,4.3206,0.1797,0.0000,-0.0000,-2.7540,flat,18.0,2,4.976
4580,146.56,-3.2105,4.1023,0.1797,0.0000,-0.0000,-2.7429,flat,18.0,2,4.405
4590,146.88,-3.7376,3.8782,0.1797,0.0000,-0.0000,-2.7323,flat,18.0,2,3.833
4600,147.20,-4.2624,3.6485,0.1797,0.0000,-0.0000,-2.7219,flat,18.0,2,3.261
4610,147.52,-4.7846,3.4134,0.1797,0.0000,0.0000,-2.7114,flat,18.0,2,2.689
4620,147.84,-5.3041,3.1728,0.1797,0.0000,0.0000,-2.7002,flat,18.0,2,2.117
4630,148.16,-5.8203,2.9263,0.1797,0.0000,0.0000,-2.6874,flat,18.0,2,1.546
4640,148.48,-6.3318,2.6733,0.1797,0.0001,0.0000,-2.6703,flat,18.0,2,0.977
4650,148.80,-6.7732,2.4419,0.1798,-0.0002,0.0001,-2.5229,flat,18.0,3,10.648
4660,149.12,-7.1015,2.1523,0.1799,0.0000,-0.0000,-2.2791,flat,18.0,3,10.452
4670,149.44,-7.3785,1.7716,0.1799,0.0001,-0.0001,-2.0728,flat,18.0,3,10.169
4680,149.76,-7.6018,1.3031,0.1799,0.0001,0.0000,-1.8749,flat,18.0,3,9.799
4690,150.08,-7.7431,0.7815,0.1799,0.0001,0.0000,-1.7034,flat,18.0,3,9.363
4700,150.40,-7.7995,0.2318,0.1799,0.0001,-0.0000,-1.5597,flat,18.0,3,8.878
4710,150.72,-7.7806,-0.3255,0.1798,0.0004,-0.0000,-1.4544,flat,18.0,3,8.362
4720,151.04,-7.7058,-0.8808,0.1798,0.0004,-0.0000,-1.3764,flat,18.0,3,7.830
4730,151.36,-7.5893,-1.4312,0.1797,0.0002,-0.0000,-1.3156,flat,18.0,3,7.286
4740,151.68,-7.4401,-1.9756,0.1797,0.0002,-0.0000,-1.2664,flat,18.0,3,6.735
4750,152.00,-7.2648,-2.5129,0.1797,0.0001,-0.0000,-1.2272,flat,18.0,3,6.180
4760,152.32,-7.0688,-3.0439,0.1797,0.0001,-0.0000,-1.1938,flat,18.0,3,5.621
4770,152.64,-6.8552,-3.5692,0.1797,0.0001,-0.0000,-1.1641,flat,18.0,3,5.061
4780,152.96,-6.6261,-4.0886,0.1797,0.0001,-0.0000,-1.1372,flat,18.0,3,4.498
4790,153.28,-6.3831,-4.6022,0.1797,0.0001,-0.0000,-1.1121,flat,18.0,3,3.935
4800,153.60,-6.1273,-5.1098,0.1797,0.0001,-0.0000,-1.0882,flat,18.0,3,3.370
4810,153.92,-5.8593,-5.6112,0.1797,0.0001,-0.0000,-1.0647,flat,18.0,3,2.805
4820,154.24,-5.5796,-6.1058,0.1797,0.0001,0.0000,-1.0403,flat,18.0,3,2.241
4830,154.56,-5.2878,-6.5923,0.1797,0.0001,0.0000,-1.0134,flat,18.0,3,1.678
4840,154.88,-4.9831,-7.0681,0.1797,0.0001,0.0000,-0.9799,flat,18.0,3,1.117
4850,155.20,-4.6943,-7.4866,0.1798,0.0000,0.0005,-0.8532,flat,18.0,0,16.055
4860,155.52,-4.4108,-7.7382,0.1799,-0.0001,-0.0001,-0.5537,flat,18.0,0,15.981
4870,155.84,-4.0113,-7.9460,0.1799,0.0000,-0.0000,-0.2764,flat,18.0,0,15.797
4880,156.16,-3.5293,-8.0581,0.1799,0.0000,-0.0000,-0.0327,flat,18.0,0,15.499
4890,156.48,-3.0061,-8.0547,0.1799,0.0001,-0.0000,0.1618,flat,18.0,0,15.104
4900,156.80,-2.4752,-7.9504,0.1799,0.0002,-0.0000,0.3030,flat,18.0,0,14.641
4910,157.12,-1.9549,-7.7717,0.1798,0.0004,-0.0000,0.4048,flat,18.0,0,14.141
4920,157.44,-1.4495,-7.5411,0.1798,0.0003,-0.0000,0.4803,flat,18.0,0,13.618
4930,157.76,-0.9586,-7.2730,0.1797,0.0002,-0.0000,0.5388,flat,18.0,0,13.081
4940,158.08,-0.4809,-6.9763,0.1797,0.0002,-0.0000,0.5851,flat,18.0,0,12.535
4950,158.40,-0.0155,-6.6577,0.1797,0.0001,-0.0000,0.6216,flat,18.0,0,11.983
4960,158.72,0.4400,-6.3220,0.1797,0.0001,-0.0000,0.6524,flat,18.0,0,11.427
4970,159.04,0.8866,-5.9723,0.1797,0.0001,-0.0000,0.6790,flat,18.0,0,10.867
4980,159.36,1.3250,-5.6107,0.1797,0.0001,-0.0000,0.7021,flat,18.0,0,10.304
4990,159.68,1.7562,-5.2390,0.1797,0.0001,-0.0000,0.7226,flat,18.0,0,9.739
5000,160.00,2.1806,-4.8584,0.1797,0.0001,-0.0000,0.7414,flat,18.0,0,9.173
5010,160.32,2.5986,-4.4697,0.1797,0.0001,-0.0000,0.7583,flat,18.0,0,8.606
5020,160.64,3.0107,-4.0739,0.1797,0.0001,-0.0000,0.7735,flat,18.0,0,8.037
5030,160.96,3.4172,-3.6719,0.1797,0.0000,-0.0000,0.7873,flat,18.0,0,7.467
5040,161.28,3.8185,-3.2642,0.1797,0.0000,-0.0000,0.8000,flat,18.0,0,6.897
5050,161.60,4.2150,-2.8514,0.1797,0.0000,-0.0000,0.8119,flat,18.0,0,6.326
5060,161.92,4.6067,-2.4339,0.1797,0.0000,-0.0000,0.8232,flat,18.0,0,5.755
5070,162.24,4.9940,-2.0120,0.1797,0.0000,-0.0000,0.8338,flat,18.0,0,5.183
5080,162.56,5.3769,-1.5860,0.1797,0.0000,-0.0000,0.8440,flat,18.0,0,4.612
5090,162.88,5.7556,-1.1562,0.1797,0.0000,-0.0000,0.8538,flat,18.0,0,4.040
5100,163.20,6.1301,-0.7228,0.1797,0.0000,0.0000,0.8635,flat,18.0,0,3.468
5110,163.52,6.5002,-0.2858,0.1797,0.0000,0.0000,0.8735,flat,18.0,0,2.896
5120,163.84,6.8658,0.1548,0.1797,0.0000,0.0000,0.8841,flat,18.0,0,2.325
5130,164.16,7.2260,0.5991,0.1797,0.0000,0.0000,0.8963,flat,18.0,0,1.754
5140,164.48,7.5797,1.0474,0.1797,0.0001,0.0000,0.9121,flat,18.0,0,1.184
5150,164.80,7.9036,1.4807,0.1797,0.0001,0.0004,0.9963,flat,18.0,1,5.446
5160,165.12,8.1104,1.8715,0.1799,-0.0000,-0.0000,1.3066,flat,18.0,1,5.283
5170,165.44,8.2089,2.3360,0.1799,0.0002,0.0006,1.5710,flat,18.0,1,5.024
5180,165.76,8.1926,2.8178,0.1799,-0.0001,-0.0000,1.7784,flat,18.0,1,4.698
5190,166.08,8.0621,3.3226,0.1799,0.0000,-0.0000,1.9726,flat,18.0,1,4.292
5200,166.40,7.8305,3.8035,0.1799,0.0001,-0.0000,2.1233,flat,18.0,1,3.839
5210,166.72,7.5260,4.2517,0.1799,0.0003,-0.0000,2.2376,flat,18.0,1,3.357
5220,167.04,7.1711,4.6678,0.1798,0.0004,-0.0000,2.3333,flat,18.0,1,2.862
5230,167.36,6.7767,5.0460,0.1798,0.0004,-0.0000,2.4333,flat,18.0,1,2.363
5240,167.68,6.3452,5.3856,0.1798,0.0004,-0.0000,2.5427,flat,18.0,1,1.860
5250,168.00,5.8793,5.6769,0.1799,0.0002,0.0000,2.6715,flat,18.0,1,1.361
5260,168.32,5.3840,5.9040,0.1799,0.0000,0.0000,2.8465,flat,18.0,1,0.877
5270,168.64,4.8570,6.0338,0.1798,0.0000,0.0001,2.9980,flat,18.0,2,12.631
5280,168.96,4.3032,6.0995,0.1799,0.0004,-0.0000,3.1163,flat,18.0,2,12.127
5290,169.28,3.7418,6.1027,0.1798,0.0004,-0.0000,-3.0773,flat,18.0,2,11.598
5300,169.60,3.1797,6.0584,0.1798,0.0003,-0.0000,-3.0113,flat,18.0,2,11.055
5310,169.92,2.6197,5.9786,0.1797,0.0002,-0.0000,-2.9606,flat,18.0,2,10.504
5320,170.24,2.0633,5.8712,0.1797,0.0001,-0.0000,-2.9217,flat,18.0,2,9.947
5330,170.56,1.5105,5.7430,0.1797,0.0001,-0.0000,-2.8904,flat,18.0,2,9.386
5340,170.88,0.9606,5.5978,0.1797,0.0001,-0.0000,-2.8640,flat,18.0,2,8.823
5350,171.20,0.4138,5.4383,0.1797,0.0001,-0.0000,-2.8413,flat,18.0,2,8.257
5360,171.52,-0.1301,5.2666,0.1797,0.0001,-0.0000,-2.8217,flat,18.0,2,7.690
5370,171.84,-0.6712,5.0843,0.1797,0.0001,-0.0000,-2.8044,flat,18.0,2,7.121
5380,172.16,-1.2096,4.8928,0.1797,0.0001,-0.0000,-2.7890,flat,18.0,2,6.552
5390,172.48,-1.7455,4.6931,0.1797,0.0000,-0.0000,-2.7751,flat,18.0,2,5.982
5400,172.80,-2.2789,4.4860,0.1797,0.0000,-0.0000,-2.7625,flat,18.0,2,5.411
5410,173.12,-2.8099,4.2722,0.1797,0.0000,-0.0000,-2.7508,flat,18.0,2,4.839
5420,173.44,-3.3386,4.0522,0.1797,0.0000,-0.0000,-2.7398,flat,18.0,2,4.268
5430,173.76,-3.8650,3.8265,0.1797,0.0000,-0.0000,-2.7292,flat,18.0,2,3.696
5440,174.08,-4.3890,3.5951,0.1797,0.0000,-0.0000,-2.7188,flat,18.0,2,3.124
5450,174.40,-4.9105,3.3584,0.1797,0.0000,0.0000,-2.7081,flat,18.0,2,2.552
5460,174.72,-5.4291,3.1160,0.1797,0.0000,0.0000,-2.6966,flat,18.0,2,1.980
5470,175.04,-5.9441,2.8677,0.1797,0.0000,0.0000,-2.6830,flat,18.0,2,1.409
5480,175.36,-6.4538,2.6125,0.1797,0.0001,0.0000,-2.6640,flat,18.0,2,0.841
5490,175.68,-6.8477,2.3843,0.1799,-0.0002,0.0000,-2.4474,flat,18.0,3,10.611
5500,176.00,-7.1638,2.0604,0.1799,0.0000,-0.0000,-2.2131,flat,18.0,3,10.382
5510,176.32,-7.4336,1.6399,0.1799,0.0000,-0.0000,-2.0007,flat,18.0,3,10.061
5520,176.64,-7.6304,1.1495,0.1799,0.0001,-0.0000,-1.8122,flat,18.0,3,9.665
5530,176.96,-7.7424,0.6152,0.1799,0.0001,-0.0000,-1.6505,flat,18.0,3,9.208
5540,177.28,-7.7713,0.0606,0.1799,0.0003,-0.0000,-1.5210,flat,18.0,3,8.710
5550,177.60,-7.7322,-0.4968,0.1798,0.0004,-0.0000,-1.4274,flat,18.0,3,8.187
5560,177.92,-7.6431,-1.0510,0.1798,0.0003,-0.0000,-1.3566,flat,18.0,3,7.649
5570,178.24,-7.5160,-1.5999,0.1797,0.0002,-0.0000,-1.3007,flat,18.0,3,7.102
5580,178.56,-7.3590,-2.1426,0.1797,0.0002,-0.0000,-1.2551,flat,18.0,3,6.549
5590,178.88,-7.1778,-2.6782,0.1797,0.0001,-0.0000,-1.2188,flat,18.0,3,5.993
5600,179.20,-6.9774,-3.2081,0.1797,0.0001,-0.0000,-1.1870,flat,18.0,3,5.434
5610,179.52,-6.7603,-3.7322,0.1797,0.0001,-0.0000,-1.1585,flat,18.0,3,4.872
5620,179.84,-6.5284,-4.2507,0.1797,0.0001,-0.0000,-1.1325,flat,18.0,3,4.309
5630,180.16,-6.2830,-4.7633,0.1797,0.0001,-0.0000,-1.1081,flat,18.0,3,3.745
5640,180.48,-6.0251,-5.2700,0.1797,0.0001,-0.0000,-1.0845,flat,18.0,3,3.180
5650,180.80,-5.7553,-5.7704,0.1797,0.0001,0.0000,-1.0610,flat,18.0,3,2.615
5660,181.12,-5.4738,-6.2638,0.1797,0.0001,0.0000,-1.0362,flat,18.0,3,2.051
5670,181.44,-5.1800,-6.7485,0.1797,0.0001,0.0000,-1.0079,flat,18.0,3,1.488
5680,181.76,-4.8728,-7.2212,0.1797,0.0001,0.0000,-0.9704,flat,18.0,3,0.930
5690,182.08,-4.6083,-7.5774,0.1798,-0.0002,0.0001,-0.7641,flat,18.0,0,16.041
5700,182.40,-4.2888,-7.8217,0.1799,-0.0000,-0.0001,-0.4698,flat,18.0,0,15.936
5710,182.72,-3.8613,-8.0055,0.1799,0.0000,-0.0000,-0.2012,flat,18.0,0,15.719
5720,183.04,-3.3633,-8.0841,0.1799,0.0001,-0.0000,0.0305,flat,18.0,0,15.391
5730,183.36,-2.8353,-8.0481,0.1799,0.0001,-0.0000,0.2069,flat,18.0,0,14.972
5740,183.68,-2.3063,-7.9191,0.1799,0.0003,-0.0000,0.3373,flat,18.0,0,14.497
5750,184.00,-1.7905,-7.7228,0.1798,0.0004,-0.0000,0.4301,flat,18.0,0,13.989
5760,184.32,-1.2898,-7.4796,0.1798,0.0003,-0.0000,0.5000,flat,18.0,0,13.461
5770,184.64,-0.8032,-7.2018,0.1797,0.0002,-0.0000,0.5546,flat,18.0,0,12.922
5780,184.96,-0.3298,-6.8974,0.1797,0.0002,-0.0000,0.5976,flat,18.0,0,12.374
5790,185.28,0.1322,-6.5729,0.1797,0.0001,-0.0000,0.6323,flat,18.0,0,11.820
5800,185.60,0.5846,-6.2323,0.1797,0.0001,-0.0000,0.6619,flat,18.0,0,11.263
5810,185.92,1.0282,-5.8784,0.1797,0.0001,-0.0000,0.6873,flat,18.0,0,10.702
5820,186.24,1.4640,-5.5131,0.1797,0.0001,-0.0000,0.7096,flat,18.0,0,10.139
5830,186.56,1.8926,-5.1381,0.1797,0.0001,-0.0000,0.7297,flat,18.0,0,9.573
5840,186.88,2.3146,-4.7544,0.1797,0.0001,-0.0000,0.7480,flat,18.0,0,9.007
5850,187.20,2.7303,-4.3630,0.1797,0.0001,-0.0000,0.7644,flat,18.0,0,8.439
5860,187.52,3.1401,-3.9647,0.1797,0.0001,-0.0000,0.7792,flat,18.0,0,7.870
5870,187.84,3.5444,-3.5603,0.1797,0.0000,-0.0000,0.7926,flat,18.0,0,7.300
5880,188.16,3.9437,-3.1505,0.1797,0.0000,-0.0000,0.8051,flat,18.0,0,6.729
5890,188.48,4.3381,-2.7357,0.1797,0.0000,-0.0000,0.8168,flat,18.0,0,6.159
5900,188.80,4.7279,-2.3162,0.1797,0.0000,-0.0000,0.8279,flat,18.0,0,5.587
5910,189.12,5.1131,-1.8925,0.1797,0.0000,-0.0000,0.8384,flat,18.0,0,5.016
5920,189.44,5.4941,-1.4648,0.1797,0.0000,-0.0000,0.8484,flat,18.0,0,4.444
5930,189.76,5.8709,-1.0334,0.1797,0.0000,-0.0000,0.8582,flat,18.0,0,3.872
5940,190.08,6.2435,-0.5983,0.1797,0.0000,0.0000,0.8680,flat,18.0,0,3.300
5950,190.40,6.6117,-0.1597,0.1797,0.0000,0.0000,0.8781,flat,18.0,0,2.728
5960,190.72,6.9750,0.2825,0.1797,0.0000,0.0000,0.8891,flat,18.0,0,2.157
5970,191.04,7.3328,0.7285,0.1797,0.0000,0.0000,0.9021,flat,18.0,0,1.586
5980,191.36,7.6833,1.1786,0.1797,0.0001,0.0000,0.9197,flat,18.0,0,1.017
5990,191.68,7.9704,1.5843,0.1798,-0.0002,0.0000,1.0913,flat,18.0,1,5.407
6000,192.00,8.1525,2.0037,0.1799,0.0001,-0.0000,1.3955,flat,18.0,1,5.216
6010,192.32,8.2098,2.4607,0.1799,-0.0001,-0.0003,1.6062,flat,18.0,1,4.941
6020,192.64,8.1723,2.9575,0.1799,0.0002,-0.0000,1.8295,flat,18.0,1,4.596
6030,192.96,8.0144,3.4580,0.1799,0.0001,-0.0000,2.0137,flat,18.0,1,4.177
6040,193.28,7.7627,3.9304,0.1799,0.0002,-0.0000,2.1560,flat,18.0,1,3.717
6050,193.60,7.4430,4.3706,0.1798,0.0003,-0.0000,2.2626,flat,18.0,1,3.231
6060,193.92,7.0775,4.7764,0.1798,0.0004,-0.0000,2.3599,flat,18.0,1,2.735
6070,194.24,6.6728,5.1446,0.1798,0.0004,-0.0000,2.4623,flat,18.0,1,2.235
6080,194.56,6.2316,5.4718,0.1798,0.0004,-0.0000,2.5759,flat,18.0,1,1.733
6090,194.88,5.7567,5.7473,0.1799,0.0002,0.0000,2.7135,flat,18.0,1,1.236
6100,195.20,5.2552,5.9523,0.1799,0.0000,0.0000,2.9107,flat,18.0,2,12.987
6110,195.52,4.7167,6.0586,0.1798,0.0001,0.0001,3.0353,flat,18.0,2,12.506
6120,195.84,4.1596,6.1049,0.1798,0.0004,-0.0000,-3.1382,flat,18.0,2,11.993
6130,196.16,3.5974,6.0931,0.1798,0.0004,-0.0000,-3.0566,flat,18.0,2,11.459
6140,196.48,3.0358,6.0376,0.1797,0.0002,-0.0000,-2.9959,flat,18.0,2,10.913
6150,196.80,2.4765,5.9494,0.1797,0.0002,-0.0000,-2.9485,flat,18.0,2,10.360
6160,197.12,1.9213,5.8356,0.1797,0.0001,-0.0000,-2.9126,flat,18.0,2,9.802
6170,197.44,1.3692,5.7025,0.1797,0.0001,-0.0000,-2.8829,flat,18.0,2,9.240
6180,197.76,0.8202,5.5532,0.1797,0.0001,-0.0000,-2.8577,flat,18.0,2,8.676
6190,198.08,0.2741,5.3903,0.1797,0.0001,-0.0000,-2.8360,flat,18.0,2,8.110
6200,198.40,-0.2691,5.2158,0.1797,0.0001,-0.0000,-2.8171,flat,18.0,2,7.542
6210,198.72,-0.8096,5.0311,0.1797,0.0001,-0.0000,-2.8005,flat,18.0,2,6.973
6220,199.04,-1.3474,4.8375,0.1797,0.0001,-0.0000,-2.7856,flat,18.0,2,6.404
6230,199.36,-1.8827,4.6360,0.1797,0.0000,-0.0000,-2.7721,flat,18.0,2,5.833
6240,199.68,-2.4156,4.4273,0.1797,0.0000,-0.0000,-2.7598,flat,18.0,2,5.262
6250,200.00,-2.9462,4.2121,0.1797,0.0000,-0.0000,-2.7484,flat,18.0,2,4.691
6260,200.32,-3.4744,3.9909,0.1797,0.0000,-0.0000,-2.7376,flat,18.0,2,4.119
6270,200.64,-4.0003,3.7640,0.1797,0.0000,-0.0000,-2.7271,flat,18.0,2,3.547
6280,200.96,-4.5239,3.5315,0.1797,0.0000,0.0000,-2.7167,flat,18.0,2,2.975
6290,201.28,-5.0448,3.2937,0.1797,0.0000,0.0000,-2.7060,flat,18.0,2,2.403
6300,201.60,-5.5628,3.0502,0.1797,0.0000,0.0000,-2.6941,flat,18.0,2,1.831
6310,201.92,-6.0769,2.8007,0.1797,0.0000,0.0000,-2.6797,flat,18.0,2,1.261
6320,202.24,-6.5821,2.5471,0.1797,0.0000,0.0002,-2.6415,flat,18.0,3,10.707
6330,202.56,-6.9431,2.3126,0.1799,-0.0001,-0.0000,-2.3955,flat,18.0,3,10.565
6340,202.88,-7.2511,1.9662,0.1799,0.0000,-0.0000,-2.1673,flat,18.0,3,10.316
6350,203.20,-7.4996,1.5456,0.1799,0.0000,-0.0000,-1.9700,flat,18.0,3,9.993
6360,203.52,-7.6836,1.0472,0.1799,0.0001,-0.0000,-1.7842,flat,18.0,3,9.588
6370,203.84,-7.7818,0.5088,0.1799,0.0001,-0.0000,-1.6271,flat,18.0,3,9.125
6380,204.16,-7.7982,-0.0468,0.1799,0.0003,-0.0000,-1.5026,flat,18.0,3,8.623
6390,204.48,-7.7492,-0.6037,0.1798,0.0004,-0.0000,-1.4128,flat,18.0,3,8.098
6400,204.80,-7.6522,-1.1568,0.1798,0.0003,-0.0000,-1.3443,flat,18.0,3,7.559
6410,205.12,-7.5184,-1.7042,0.1797,0.0002,-0.0000,-1.2898,flat,18.0,3,7.011
6420,205.44,-7.3554,-2.2452,0.1797,0.0002,-0.0000,-1.2456,flat,18.0,3,6.458
6430,205.76,-7.1692,-2.7792,0.1797,0.0001,-0.0000,-1.2099,flat,18.0,3,5.901
6440,206.08,-6.9641,-3.3073,0.1797,0.0001,-0.0000,-1.1785,flat,18.0,3,5.341
6450,206.40,-6.7426,-3.8296,0.1797,0.0001,-0.0000,-1.1503,flat,18.0,3,4.780
6460,206.72,-6.5064,-4.3461,0.1797,0.0001,-0.0000,-1.1244,flat,18.0,3,4.217
6470,207.04,-6.2568,-4.8568,0.1797,0.0001,-0.0000,-1.1001,flat,18.0,3,3.652
6480,207.36,-5.9949,-5.3613,0.1797,0.0001,-0.0000,-1.0764,flat,18.0,3,3.088
6490,207.68,-5.7210,-5.8594,0.1797,0.0001,0.0000,-1.0527,flat,18.0,3,2.523
6500,208.00,-5.4353,-6.3501,0.1797,0.0001,0.0000,-1.0273,flat,18.0,3,1.959
6510,208.32,-5.1373,-6.8318,0.1797,0.0001,0.0000,-0.9979,flat,18.0,3,1.397
6520,208.64,-4.8254,-7.3002,0.1797,0.0001,0.0000,-0.9576,flat,18.0,3,0.840
6530,208.96,-4.5684,-7.6143,0.1798,-0.0003,-0.0000,-0.7011,flat,18.0,0,16.031
6540,209.28,-4.2239,-7.8514,0.1799,0.0000,-0.0000,-0.4114,flat,18.0,0,15.903
6550,209.60,-3.7780,-8.0160,0.1799,0.0000,-0.0000,-0.1500,flat,18.0,0,15.662
6560,209.92,-3.2706,-8.0702,0.1799,0.0001,-0.0000,0.0708,flat,18.0,0,15.312
6570,210.24,-2.7403,-8.0133,0.1799,0.0001,-0.0000,0.2367,flat,18.0,0,14.879
6580,210.56,-2.2132,-7.8686,0.1799,0.0003,-0.0000,0.3581,flat,18.0,0,14.395
6590,210.88,-1.7003,-7.6618,0.1798,0.0004,-0.0000,0.4451,flat,18.0,0,13.882
6600,211.20,-1.2023,-7.4110,0.1797,0.0003,-0.0000,0.5113,flat,18.0,0,13.351
6610,211.52,-0.7181,-7.1277,0.1797,0.0002,-0.0000,0.5634,flat,18.0,0,12.809
6620,211.84,-0.2469,-6.8192,0.1797,0.0001,-0.0000,0.6041,flat,18.0,0,12.260
6630,212.16,0.2134,-6.4917,0.1797,0.0001,-0.0000,0.6376,flat,18.0,0,11.705
6640,212.48,0.6643,-6.1488,0.1797,0.0001,-0.0000,0.6662,flat,18.0,0,11.147
6650,212.80,1.1068,-5.7929,0.1797,0.0001,-0.0000,0.6909,flat,18.0,0,10.586
6660,213.12,1.5415,-5.4260,0.1797,0.0001,-0.0000,0.7126,flat,18.0,0,10.022
6670,213.44,1.9692,-5.0497,0.1797,0.0001,-0.0000,0.7322,flat,18.0,0,9.457
6680,213.76,2.3904,-4.6650,0.1797,0.0001,-0.0000,0.7501,flat,18.0,0,8.889
6690,214.08,2.8054,-4.2727,0.1797,0.0001,-0.0000,0.7661,flat,18.0,0,8.321
6700,214.40,3.2146,-3.8737,0.1797,0.0001,-0.0000,0.7806,flat,18.0,0,7.752
6710,214.72,3.6185,-3.4687,0.1797,0.0000,-0.0000,0.7938,flat,18.0,0,7.182
6720,215.04,4.0174,-3.0584,0.1797,0.0000,-0.0000,0.8061,flat,18.0,0,6.612
6730,215.36,4.4114,-2.6432,0.1797,0.0000,-0.0000,0.8176,flat,18.0,0,6.041
6740,215.68,4.8009,-2.2235,0.1797,0.0000,-0.0000,0.8286,flat,18.0,0,5.469
6750,216.00,5.1860,-1.7995,0.1797,0.0000,-0.0000,0.8390,flat,18.0,0,4.898
6760,216.32,5.5668,-1.3716,0.1797,0.0000,-0.0000,0.8489,flat,18.0,0,4.326
6770,216.64,5.9434,-0.9400,0.1797,0.0000,0.0000,0.8586,flat,18.0,0,3.754
6780,216.96,6.3157,-0.5048,0.1797,0.0000,0.0000,0.8684,flat,18.0,0,3.182
6790,217.28,6.6836,-0.0660,0.1797,0.0000,0.0000,0.8787,flat,18.0,0,2.610
6800,217.60,7.0466,0.3764,0.1797,0.0000,0.0000,0.8900,flat,18.0,0,2.039
6810,217.92,7.4038,0.8227,0.1797,0.0000,0.0000,0.9036,flat,18.0,0,1.468
6820,218.24,7.7531,1.2731,0.1797,0.0001,0.0000,0.9228,flat,18.0,0,0.900
6830,218.56,8.0156,1.6638,0.1799,-0.0002,-0.0000,1.1523,flat,18.0,1,5.375
6840,218.88,8.1774,2.1003,0.1799,0.0001,-0.0000,1.4527,flat,18.0,1,5.165
6850,219.20,8.2102,2.5642,0.1798,0.0001,-0.0001,1.6574,flat,18.0,1,4.873
6860,219.52,8.1419,3.0718,0.1799,0.0001,0.0000,1.8802,flat,18.0,1,4.503
6870,219.84,7.9570,3.5671,0.1799,0.0001,-0.0000,2.0530,flat,18.0,1,4.070
6880,220.16,7.6862,4.0313,0.1799,0.0002,-0.0000,2.1856,flat,18.0,1,3.601
6890,220.48,7.3536,4.4644,0.1798,0.0004,-0.0000,2.2850,flat,18.0,1,3.110
6900,220.80,6.9787,4.8614,0.1798,0.0004,-0.0000,2.3826,flat,18.0,1,2.613
6910,221.12,6.5654,5.2211,0.1798,0.0004,-0.0000,2.4864,flat,18.0,1,2.112
6920,221.44,6.1163,5.5380,0.1799,0.0003,-0.0000,2.6035,flat,18.0,1,1.609
6930,221.76,5.6347,5.7999,0.1799,0.0001,0.0000,2.7503,flat,18.0,1,1.115
6940,222.08,5.1275,5.9777,0.1799,0.0001,-0.0002,2.9331,flat,18.0,2,12.873
6950,222.40,4.5817,6.0752,0.1799,0.0002,-0.0000,3.0609,flat,18.0,2,12.383
6960,222.72,4.0228,6.1080,0.1798,0.0004,-0.0000,-3.1185,flat,18.0,2,11.864
6970,223.04,3.4605,6.0856,0.1798,0.0003,-0.0000,-3.0420,flat,18.0,2,11.328
6980,223.36,2.8994,6.0223,0.1797,0.0002,-0.0000,-2.9845,flat,18.0,2,10.780
6990,223.68,2.3408,5.9279,0.1797,0.0002,-0.0000,-2.9396,flat,18.0,2,10.225
7000,224.00,1.7865,5.8094,0.1797,0.0001,-0.0000,-2.9053,flat,18.0,2,9.667
7010,224.32,1.2351,5.6722,0.1797,0.0001,-0.0000,-2.8767,flat,18.0,2,9.105
7020,224.64,0.6868,5.5196,0.1797,0.0001,-0.0000,-2.8522,flat,18.0,2,8.540
7030,224.96,0.1415,5.3538,0.1797,0.0001,-0.0000,-2.8312,flat,18.0,2,7.974
7040,225.28,-0.4010,5.1766,0.1797,0.0001,-0.0000,-2.8128,flat,18.0,2,7.406
7050,225.60,-0.9407,4.9896,0.1797,0.0001,-0.0000,-2.7965,flat,18.0,2,6.837
7060,225.92,-1.4779,4.7938,0.1797,0.0001,-0.0000,-2.7819,flat,18.0,2,6.267
7070,226.24,-2.0125,4.5903,0.1797,0.0000,-0.0000,-2.7687,flat,18.0,2,5.696
7080,226.56,-2.5447,4.3798,0.1797,0.0000,-0.0000,-2.7565,flat,18.0,2,5.125
7090,226.88,-3.0746,4.1629,0.1797,0.0000,-0.0000,-2.7452,flat,18.0,2,4.553
7100,227.20,-3.6022,3.9400,0.1797,0.0000,-0.0000,-2.7345,flat,18.0,2,3.982
7110,227.52,-4.1274,3.7114,0.1797,0.0000,-0.0000,-2.7240,flat,18.0,2,3.410
7120,227.84,-4.6502,3.4774,0.1797,0.0000,0.0000,-2.7135,flat,18.0,2,2.838
7130,228.16,-5.1702,3.2378,0.1797,0.0000,0.0000,-2.7025,flat,18.0,2,2.266
7140,228.48,-5.6872,2.9926,0.1797,0.0000,0.0000,-2.6902,flat,18.0,2,1.695
7150,228.80,-6.1999,2.7410,0.1797,0.0001,0.0000,-2.6746,flat,18.0,2,1.125
7160,229.12,-6.6710,2.5033,0.1798,0.0000,0.0003,-2.5726,flat,18.0,3,10.684
7170,229.44,-7.0101,2.2365,0.1799,0.0000,-0.0000,-2.3262,flat,18.0,3,10.509
7180,229.76,-7.3065,1.8605,0.1799,0.0000,-0.0000,-2.1043,flat,18.0,3,10.232
7190,230.08,-7.5423,1.4018,0.1799,0.0001,-0.0000,-1.9032,flat,18.0,3,9.872
7200,230.40,-7.6972,0.8863,0.1799,0.0001,-0.0000,-1.7283,flat,18.0,3,9.443
7210,230.72,-7.7667,0.3390,0.1799,0.0001,-0.0000,-1.5810,flat,18.0,3,8.963
7220,231.04,-7.7591,-0.2183,0.1798,0.0004,-0.0000,-1.4706,flat,18.0,3,8.451
7230,231.36,-7.6931,-0.7745,0.1798,0.0004,-0.0000,-1.3898,flat,18.0,3,7.919
7240,231.68,-7.5838,-1.3262,0.1797,0.0002,-0.0000,-1.3271,flat,18.0,3,7.377
7250,232.00,-7.4409,-1.8721,0.1797,0.0002,-0.0000,-1.2767,flat,18.0,3,6.826
7260,232.32,-7.2710,-2.4111,0.1797,0.0001,-0.0000,-1.2363,flat,18.0,3,6.272
7270,232.64,-7.0799,-2.9439,0.1797,0.0001,-0.0000,-1.2025,flat,18.0,3,5.714
7280,232.96,-6.8709,-3.4709,0.1797,0.0001,-0.0000,-1.1724,flat,18.0,3,5.153
7290,233.28,-6.6462,-3.9922,0.1797,0.0001,-0.0000,-1.1453,flat,18.0,3,4.591
7300,233.60,-6.4074,-4.5077,0.1797,0.0001,-0.0000,-1.1201,flat,18.0,3,4.027
7310,233.92,-6.1557,-5.0174,0.1797,0.0001,-0.0000,-1.0962,flat,18.0,3,3.463
7320,234.24,-5.8918,-5.5211,0.1797,0.0001,-0.0000,-1.0728,flat,18.0,3,2.898
7330,234.56,-5.6161,-6.0180,0.1797,0.0001,0.0000,-1.0489,flat,18.0,3,2.333
7340,234.88,-5.3285,-6.5074,0.1797,0.0001,0.0000,-1.0227,flat,18.0,3,1.769
7350,235.20,-5.0283,-6.9868,0.1797,0.0001,0.0000,-0.9910,flat,18.0,3,1.208
7360,235.52,-4.7235,-7.4390,0.1797,0.0001,0.0004,-0.9154,flat,18.0,0,16.051
7370,235.84,-4.4638,-7.7030,0.1799,-0.0002,-0.0000,-0.6147,flat,18.0,0,16.001
7380,236.16,-4.0865,-7.9248,0.1799,0.0000,-0.0000,-0.3314,flat,18.0,0,15.842
7390,236.48,-3.6185,-8.0594,0.1799,0.0000,-0.0000,-0.0798,flat,18.0,0,15.568
7400,236.80,-3.1008,-8.0796,0.1799,0.0001,-0.0000,0.1273,flat,18.0,0,15.191
7410,237.12,-2.5698,-7.9937,0.1799,0.0001,-0.0000,0.2780,flat,18.0,0,14.740
7420,237.44,-2.0466,-7.8278,0.1798,0.0004,-0.0000,0.3872,flat,18.0,0,14.246
7430,237.76,-1.5384,-7.6062,0.1798,0.0004,-0.0000,0.4673,flat,18.0,0,13.727
7440,238.08,-1.0449,-7.3444,0.1797,0.0002,-0.0000,0.5289,flat,18.0,0,13.193
7450,238.40,-0.5648,-7.0525,0.1797,0.0002,-0.0000,0.5778,flat,18.0,0,12.648
7460,238.72,-0.0976,-6.7374,0.1797,0.0001,-0.0000,0.6157,flat,18.0,0,12.098
7470,239.04,0.3595,-6.4045,0.1797,0.0001,-0.0000,0.6476,flat,18.0,0,11.542
7480,239.36,0.8074,-6.0569,0.1797,0.0001,-0.0000,0.6750,flat,18.0,0,10.983
7490,239.68,1.2470,-5.6971,0.1797,0.0001,-0.0000,0.6988,flat,18.0,0,10.420
7500,240.00,1.6791,-5.3267,0.1797,0.0001,-0.0000,0.7199,flat,18.0,0,9.856
7510,240.32,2.1044,-4.9473,0.1797,0.0001,-0.0000,0.7390,flat,18.0,0,9.290
7520,240.64,2.5232,-4.5596,0.1797,0.0001,-0.0000,0.7564,flat,18.0,0,8.723
7530,240.96,2.9358,-4.1647,0.1797,0.0001,-0.0000,0.7720,flat,18.0,0,8.154
7540,241.28,3.3429,-3.7633,0.1797,0.0001,-0.0000,0.7860,flat,18.0,0,7.585
7550,241.60,3.7447,-3.3561,0.1797,0.0000,-0.0000,0.7989,flat,18.0,0,7.015
7560,241.92,4.1415,-2.9438,0.1797,0.0000,-0.0000,0.8110,flat,18.0,0,6.444
7570,242.24,4.5335,-2.5266,0.1797,0.0000,-0.0000,0.8224,flat,18.0,0,5.873
7580,242.56,4.9210,-2.1050,0.1797,0.0000,-0.0000,0.8332,flat,18.0,0,5.302
7590,242.88,5.3042,-1.6792,0.1797,0.0000,-0.0000,0.8435,flat,18.0,0,4.730
7600,243.20,5.6830,-1.2496,0.1797,0.0000,-0.0000,0.8533,flat,18.0,0,4.158
7610,243.52,6.0577,-0.8164,0.1797,0.0000,0.0000,0.8630,flat,18.0,0,3.586
7620,243.84,6.4281,-0.3796,0.1797,0.0000,0.0000,0.8730,flat,18.0,0,3.014
7630,244.16,6.7939,0.0609,0.1797,0.0000,0.0000,0.8835,flat,18.0,0,2.443
7640,244.48,7.1546,0.5050,0.1797,0.0000,0.0000,0.8953,flat,18.0,0,1.872
7650,244.80,7.5091,0.9530,0.1797,0.0001,0.0000,0.9100,flat,18.0,0,1.302
7660,245.12,7.8518,1.4020,0.1797,0.0001,0.0002,0.9486,flat,18.0,1,5.476
7670,245.44,8.0738,1.7825,0.1799,-0.0001,-0.0000,1.2469,flat,18.0,1,5.325
7680,245.76,8.2008,2.2429,0.1799,-0.0001,-0.0001,1.5415,flat,18.0,1,5.082
7690,246.08,8.2059,2.7032,0.1798,0.0001,-0.0001,1.7165,flat,18.0,1,4.780
7700,246.40,8.1070,3.2100,0.1799,0.0001,-0.0000,1.9268,flat,18.0,1,4.394
7710,246.72,7.8984,3.6983,0.1799,0.0001,-0.0000,2.0893,flat,18.0,1,3.951
7720,247.04,7.6100,4.1540,0.1799,0.0003,-0.0000,2.2141,flat,18.0,1,3.476
7730,247.36,7.2653,4.5782,0.1798,0.0004,-0.0000,2.3107,flat,18.0,1,2.984
7740,247.68,6.8799,4.9650,0.1798,0.0004,-0.0000,2.4101,flat,18.0,1,2.486
7750,248.00,6.4566,5.3138,0.1798,0.0004,-0.0000,2.5171,flat,18.0,1,1.984
7760,248.32,5.9981,5.6169,0.1799,0.0003,-0.0000,2.6403,flat,18.0,1,1.483
7770,248.64,5.5084,5.8602,0.1799,0.0001,0.0000,2.8004,flat,18.0,1,0.994
7780,248.96,4.9890,6.0104,0.1799,0.0003,-0.0002,2.9702,flat,18.0,2,12.750
7790,249.28,4.4393,6.0899,0.1799,0.0003,-0.0000,3.0936,flat,18.0,2,12.252
7800,249.60,3.8787,6.1053,0.1798,0.0004,-0.0000,-3.0942,flat,18.0,2,11.728
7810,249.92,3.3164,6.0700,0.1798,0.0003,-0.0000,-3.0241,flat,18.0,2,11.187
7820,250.24,2.7559,5.9971,0.1797,0.0002,-0.0000,-2.9708,flat,18.0,2,10.637
7830,250.56,2.1985,5.8952,0.1797,0.0002,-0.0000,-2.9296,flat,18.0,2,10.081
7840,250.88,1.6449,5.7713,0.1797,0.0001,-0.0000,-2.8971,flat,18.0,2,9.521
7850,251.20,1.0943,5.6297,0.1797,0.0001,-0.0000,-2.8698,flat,18.0,2,8.958
7860,251.52,0.5468,5.4734,0.1797,0.0001,-0.0000,-2.8465,flat,18.0,2,8.393
7870,251.84,0.0022,5.3045,0.1797,0.0001,-0.0000,-2.8263,flat,18.0,2,7.826
7880,252.16,-0.5396,5.1247,0.1797,0.0001,-0.0000,-2.8086,flat,18.0,2,7.258
7890,252.48,-1.0788,4.9354,0.1797,0.0001,-0.0000,-2.7928,flat,18.0,2,6.689
7900,252.80,-1.6153,4.7377,0.1797,0.0001,-0.0000,-2.7787,flat,18.0,2,6.118
7910,253.12,-2.1494,4.5326,0.1797,0.0000,-0.0000,-2.7659,flat,18.0,2,5.548
7920,253.44,-2.6811,4.3206,0.1797,0.0000,-0.0000,-2.7540,flat,18.0,2,4.976
7930,253.76,-3.2105,4.1023,0.1797,0.0000,-0.0000,-2.7429,flat,18.0,2,4.405
7940,254.08,-3.7376,3.8782,0.1797,0.0000,-0.0000,-2.7323,flat,18.0,2,3.833
7950,254.40,-4.2624,3.6485,0.1797,0.0000,-0.0000,-2.7219,flat,18.0,2,3.261
7960,254.72,-4.7846,3.4134,0.1797,0.0000,0.0000,-2.7114,flat,18.0,2,2.689
7970,255.04,-5.3042,3.1727,0.1797,0.0000,0.0000,-2.7002,flat,18.0,2,2.117
7980,255.36,-5.8204,2.9263,0.1797,0.0000,0.0000,-2.6874,flat,18.0,2,1.546
7990,255.68,-6.3318,2.6733,0.1797,0.0001,0.0000,-2.6703,flat,18.0,2,0.976
8000,256.00,-6.7733,2.4419,0.1798,-0.0002,0.0001,-2.5229,flat,18.0,3,10.648
8010,256.32,-7.1015,2.1523,0.1799,0.0000,-0.0000,-2.2791,flat,18.0,3,10.452
8020,256.64,-7.3785,1.7716,0.1799,0.0001,-0.0001,-2.0728,flat,18.0,3,10.169
8030,256.96,-7.6018,1.3031,0.1799,0.0001,0.0000,-1.8749,flat,18.0,3,9.799
8040,257.28,-7.7431,0.7815,0.1799,0.0001,0.0000,-1.7034,flat,18.0,3,9.363
8050,257.60,-7.7995,0.2318,0.1799,0.0001,-0.0000,-1.5597,flat,18.0,3,8.878
8060,257.92,-7.7806,-0.3255,0.1798,0.0004,-0.0000,-1.4544,flat,18.0,3,8.362
8070,258.24,-7.7059,-0.8808,0.1798,0.0004,-0.0000,-1.3764,flat,18.0,3,7.830
8080,258.56,-7.5893,-1.4312,0.1797,0.0002,-0.0000,-1.3156,flat,18.0,3,7.286
8090,258.88,-7.4402,-1.9756,0.1797,0.0002,-0.0000,-1.2664,flat,18.0,3,6.735
