step,time_s,x,y,z,roll,pitch,yaw,terrain,speed,target_idx,dist_to_target
10,0.32,0.0959,-0.0668,0.2007,0.0391,-0.0480,0.0026,rough,14.0,0,5.318
20,0.64,0.4596,-0.0790,0.2187,0.0226,-0.0861,-0.0602,rough,14.0,0,5.032
30,0.96,0.8542,-0.1308,0.2407,0.0642,-0.0965,-0.1446,rough,14.0,0,4.707
40,1.28,1.2698,-0.2240,0.2510,0.1187,0.0092,-0.2382,rough,14.0,0,4.350
50,1.60,1.6805,-0.3496,0.2308,0.1136,0.0673,-0.3327,rough,14.0,0,3.983
60,1.92,2.0728,-0.5171,0.2010,0.1105,0.0643,-0.4284,rough,14.0,0,3.609
70,2.24,2.4364,-0.7047,0.1925,0.1496,-0.0089,-0.4929,rough,14.0,0,3.245
80,2.56,2.8272,-0.9520,0.1564,0.2052,0.2606,-0.5430,rough,14.0,0,2.829
90,2.88,3.1708,-1.1844,0.0720,0.1447,0.1979,-0.6365,rough,14.0,0,2.464
100,3.20,3.5284,-1.4683,-0.0594,0.0301,0.3420,-0.7167,rough,14.0,0,2.063
110,3.52,3.8192,-1.6644,-0.1117,-0.1473,0.0691,-0.8702,rough,14.0,0,1.791
120,3.84,4.0822,-1.9815,-0.1359,-0.1135,0.1802,-0.9389,rough,14.0,0,1.433
130,4.16,4.3129,-2.3235,-0.1787,-0.1084,0.1755,-1.0728,rough,14.0,0,1.086
140,4.48,4.4963,-2.7034,-0.2516,-0.1497,0.1590,-1.2976,rough,14.0,1,7.684
150,4.80,4.5481,-3.0944,-0.3183,0.0502,0.3139,-1.4616,rough,14.0,1,7.438
160,5.12,4.5450,-3.4221,-0.3781,0.0760,0.0438,-1.6410,rough,14.0,1,7.208
170,5.44,4.4189,-3.8431,-0.4522,0.3327,0.2250,-1.7348,rough,14.0,1,6.831
180,5.76,4.3028,-4.2147,-0.5154,0.3828,0.1380,-1.8509,rough,14.0,1,6.502
190,6.08,4.1490,-4.5777,-0.5591,0.3823,0.0596,-1.9903,rough,14.0,1,6.155
200,6.40,3.9533,-4.9412,-0.5850,0.3916,0.0311,-2.0807,rough,14.0,1,5.780
210,6.72,3.7397,-5.2960,-0.5933,0.3036,-0.0528,-2.1871,rough,14.0,1,5.400
220,7.04,3.4759,-5.6089,-0.5528,0.3315,-0.1273,-2.2688,rough,14.0,1,5.007
230,7.36,3.2130,-5.8506,-0.4721,0.3920,-0.3798,-2.3916,rough,14.0,1,4.655
240,7.68,2.9440,-6.0401,-0.3149,0.4837,-0.6000,-2.5110,rough,14.0,1,4.326
250,8.00,2.7123,-6.1697,-0.1459,0.5561,-0.6356,-2.7902,rough,14.0,1,4.061
260,8.32,2.4497,-6.1561,-0.0386,0.6226,-0.5724,-2.9696,rough,14.0,1,3.850
270,8.64,2.1884,-6.0174,-0.0322,0.6553,-0.6706,-2.9751,rough,14.0,1,3.724
280,8.96,2.0057,-5.8983,-0.0475,0.0547,-0.6944,-2.3946,rough,14.0,1,3.662
290,9.28,1.8856,-5.7929,-0.0435,-0.2094,-0.6732,-2.0789,rough,14.0,1,3.647
300,9.60,1.7514,-5.7278,-0.0188,-0.1639,-0.6735,-1.9699,rough,14.0,1,3.600
310,9.92,1.5945,-5.7516,0.0501,-0.0655,-0.6059,-1.9727,rough,14.0,1,3.477
320,10.24,1.4863,-5.8979,0.1860,-0.1338,-0.6778,-1.7813,rough,14.0,1,3.295
330,10.56,1.4800,-6.1411,0.3334,-0.3198,-0.5731,-1.5809,rough,14.0,1,3.114
340,10.88,1.5055,-6.3835,0.4905,-0.3132,-0.6979,-1.5637,rough,14.0,1,2.966
350,11.20,1.5193,-6.5951,0.6682,-0.3508,-0.7097,-1.5299,rough,14.0,1,2.841
360,11.52,1.5828,-6.7848,0.8004,-0.5408,-0.6756,-1.2785,rough,14.0,1,2.779
370,11.84,1.6928,-6.8837,0.8559,-0.4370,-0.7809,-1.4067,rough,14.0,1,2.818
380,12.16,1.7716,-6.8954,0.8459,-0.3532,-0.7852,-1.4365,rough,14.0,1,2.880
390,12.48,1.8515,-6.8560,0.7787,-0.2734,-0.7760,-1.4511,rough,14.0,1,2.969
400,12.80,1.9150,-6.7709,0.6809,-0.2501,-0.7803,-1.4405,rough,14.0,1,3.067
410,13.12,2.0107,-6.6500,0.5437,-0.5139,-0.6473,-1.0114,rough,14.0,1,3.211
420,13.44,2.2086,-6.4842,0.3485,-0.7021,-0.3484,-0.6117,rough,14.0,1,3.467
430,13.76,2.5088,-6.2876,0.0575,-0.7098,-0.4383,-0.8728,rough,14.0,1,3.826
440,14.08,2.8088,-6.0326,-0.2799,-0.5833,-0.5973,-1.0044,rough,14.0,1,4.217
450,14.40,2.9427,-5.7641,-0.5222,-0.2906,-0.5164,-0.8934,rough,14.0,1,4.479
460,14.72,2.9705,-5.6418,-0.5916,0.0374,-0.6553,-1.1766,rough,14.0,1,4.573
470,15.04,3.0501,-5.6618,-0.5765,0.0693,-0.5890,-1.3552,rough,14.0,1,4.626
480,15.36,3.1018,-5.8188,-0.4723,0.0669,-0.7783,-1.4650,rough,14.0,1,4.579
490,15.68,3.1401,-5.9808,-0.3711,-0.0612,-0.6876,-1.5091,rough,14.0,1,4.524
500,16.00,3.1776,-6.1943,-0.2351,-0.1749,-0.6121,-1.5268,rough,14.0,1,4.448
510,16.32,3.2034,-6.3900,-0.1016,-0.3133,-0.7662,-1.4630,rough,14.0,1,4.380
520,16.64,3.2444,-6.5860,0.0056,-0.4115,-0.5869,-1.5151,rough,14.0,1,4.333
530,16.96,3.2662,-6.8103,0.1367,-0.4713,-0.5936,-1.5095,rough,14.0,1,4.267
540,17.28,3.2915,-7.0381,0.2583,-0.5499,-0.5511,-1.4965,rough,14.0,1,4.214
550,17.60,3.3229,-7.2860,0.3873,-0.5160,-0.5653,-1.6050,rough,14.0,1,4.173
560,17.92,3.3153,-7.5099,0.5358,-0.5223,-0.5918,-1.5898,rough,14.0,1,4.114
570,18.24,3.3186,-7.7143,0.6710,-0.5025,-0.6467,-1.5990,rough,14.0,1,4.081
580,18.56,3.3170,-7.9064,0.8116,-0.2444,-0.7495,-1.9305,rough,14.0,1,4.054
590,18.88,3.2597,-8.0741,0.9716,-0.3644,-0.7170,-1.7854,rough,14.0,1,3.981
600,19.20,3.2483,-8.2225,1.0941,-0.4812,-0.6840,-1.6001,rough,14.0,1,3.962
610,19.52,3.3210,-8.3013,1.1069,-0.6491,-0.5548,-1.2995,rough,14.0,1,4.033
620,19.84,3.4670,-8.2916,1.0060,-0.6094,-0.5181,-1.2662,rough,14.0,1,4.179
630,20.16,3.6407,-8.2678,0.8837,-0.5714,-0.5369,-1.3590,rough,14.0,1,4.353
640,20.48,3.7418,-8.2409,0.8060,-0.6067,-0.4755,-1.2680,rough,14.0,1,4.455
650,20.80,3.8286,-8.2539,0.7794,-0.5596,-0.4805,-1.2518,rough,14.0,1,4.542
660,21.12,3.9181,-8.3255,0.7622,-0.5395,-0.3647,-1.2873,rough,14.0,1,4.630
670,21.44,3.9913,-8.4451,0.7823,-0.4939,-0.3404,-1.3683,rough,14.0,1,4.704
680,21.76,4.0410,-8.6074,0.8286,-0.5092,-0.3219,-1.4949,rough,14.0,1,4.760
690,22.08,4.1009,-8.8054,0.8523,-0.5065,-0.4291,-1.7173,rough,14.0,1,4.834
700,22.40,4.1013,-9.0584,0.9438,-0.4846,-0.5455,-1.9080,rough,14.0,1,4.864
710,22.72,4.0970,-9.3152,1.0354,-0.5832,-0.7280,-2.0346,rough,14.0,1,4.904
720,23.04,4.1535,-9.5098,1.0351,-0.6014,-0.6392,-1.9243,rough,14.0,1,5.001
730,23.36,4.3104,-9.6358,0.9391,-0.4507,-0.7683,-2.1221,rough,14.0,1,5.183
740,23.68,4.4129,-9.7402,0.9039,0.2071,-0.8719,-2.7907,rough,14.0,1,5.309
750,24.00,4.4377,-9.8046,0.9133,0.4970,-0.6341,2.9752,rough,14.0,1,5.350
760,24.32,4.3324,-9.6950,0.9314,0.6063,-0.5676,2.5545,rough,14.0,1,5.220
770,24.64,4.1641,-9.4670,1.0137,0.6462,-0.6038,2.5429,rough,14.0,1,5.001
780,24.96,4.0995,-9.2421,1.0083,0.5421,-0.5772,2.6070,rough,14.0,1,4.893
790,25.28,4.0976,-9.0590,0.9532,0.4677,-0.6038,2.6894,rough,14.0,1,4.861
800,25.60,4.0010,-8.9527,0.9938,0.5656,-0.5337,2.6923,rough,14.0,1,4.751
810,25.92,3.8884,-8.7693,1.0158,0.6008,-0.4421,2.5148,rough,14.0,1,4.619
820,26.24,3.7377,-8.4785,0.9683,0.8446,-0.2410,2.5498,rough,14.0,1,4.451
830,26.56,3.5245,-8.1592,0.8727,0.7452,-0.2069,2.8183,rough,14.0,1,4.241
840,26.88,3.2874,-7.8452,0.7883,0.7104,-0.5694,2.9343,rough,14.0,1,4.031
850,27.20,3.1868,-7.5573,0.6455,0.6153,-0.5447,2.8770,rough,14.0,1,3.979
860,27.52,3.1995,-7.2307,0.4323,0.5100,-0.6215,3.0139,rough,14.0,1,4.069
870,27.84,3.2281,-6.9280,0.2224,0.5717,-0.6092,2.9667,rough,14.0,1,4.190
880,28.16,3.1327,-6.6435,0.0962,0.6843,-0.2516,2.7869,rough,14.0,1,4.208
890,28.48,2.9144,-6.3559,-0.0443,0.7973,-0.1191,2.9937,rough,14.0,1,4.140
900,28.80,2.6750,-6.0371,-0.2232,0.8198,-0.5562,3.0854,rough,14.0,1,4.103
910,29.12,2.5399,-5.6788,-0.4788,0.5267,-0.5375,-3.0869,rough,14.0,1,4.210
920,29.44,2.4098,-5.3452,-0.6129,0.4202,-0.6844,-2.8703,rough,14.0,1,4.335
930,29.76,2.3129,-5.2207,-0.6396,0.1086,-0.8142,-2.5844,rough,14.0,1,4.355
940,30.08,2.2199,-5.1785,-0.6257,-0.0607,-0.7334,-2.5233,rough,14.0,1,4.321
950,30.40,2.1362,-5.2054,-0.5487,-0.1367,-0.7776,-2.4639,rough,14.0,1,4.245
960,30.72,2.0239,-5.3366,-0.3961,-0.0547,-0.7661,-2.4985,rough,14.0,1,4.072
970,31.04,1.8328,-5.4850,-0.1807,-0.0144,-0.7679,-2.4445,rough,14.0,1,3.834
980,31.36,1.5363,-5.6842,0.0322,0.1525,-0.5714,-2.3362,rough,14.0,1,3.490
990,31.68,1.3626,-5.8422,0.2138,0.1747,-0.7754,-2.3690,rough,14.0,1,3.257
1000,32.00,1.2165,-5.9182,0.3225,0.3510,-0.7148,-2.7857,rough,14.0,1,3.106
1010,32.32,1.1202,-5.8559,0.3454,0.1647,-0.8607,-2.4723,rough,14.0,1,3.097
1020,32.64,1.1026,-5.8780,0.3727,-0.1188,-0.8607,-1.9861,rough,14.0,1,3.069
1030,32.96,1.1345,-5.9043,0.3614,0.0883,-0.8507,-2.3642,rough,14.0,1,3.067
1040,33.28,1.1442,-5.9023,0.3520,0.0786,-0.8488,-2.3622,rough,14.0,1,3.074
1050,33.60,1.1388,-5.9076,0.3613,0.0667,-0.8523,-2.3394,rough,14.0,1,3.067
1060,33.92,1.1451,-5.9056,0.3551,0.1005,-0.8512,-2.3960,rough,14.0,1,3.072
1070,34.24,1.1524,-5.8998,0.3467,0.0013,-0.8678,-2.2364,rough,14.0,1,3.081
1080,34.56,1.1462,-5.9091,0.3567,0.0865,-0.8757,-2.3500,rough,14.0,1,3.070
1090,34.88,1.1441,-5.9028,0.3542,0.0345,-0.8584,-2.2901,rough,14.0,1,3.074
1100,35.20,1.1387,-5.9029,0.3564,0.0661,-0.8519,-2.3385,rough,14.0,1,3.071
1110,35.52,1.1441,-5.9072,0.3562,0.0761,-0.8480,-2.3603,rough,14.0,1,3.070
1120,35.84,1.1313,-5.9024,0.3616,0.0829,-0.8488,-2.3496,rough,14.0,1,3.066
1130,36.16,1.1479,-5.9055,0.3516,0.0709,-0.8474,-2.3536,rough,14.0,1,3.074
1140,36.48,1.1406,-5.9032,0.3568,0.0556,-0.8545,-2.3195,rough,14.0,1,3.071
1150,36.80,1.1423,-5.9033,0.3554,0.0623,-0.8536,-2.3315,rough,14.0,1,3.072
1160,37.12,1.1430,-5.8894,0.3449,0.0089,-0.8504,-2.2562,rough,14.0,1,3.084
1170,37.44,1.1437,-5.9112,0.3603,0.0805,-0.8638,-2.3546,rough,14.0,1,3.067
1180,37.76,1.1482,-5.9000,0.3465,0.0172,-0.8579,-2.2761,rough,14.0,1,3.079
1190,38.08,1.1467,-5.8798,0.3345,-0.0130,-0.8370,-2.2276,rough,14.0,1,3.094
1200,38.40,1.1443,-5.9220,0.3695,0.0513,-0.8528,-2.3384,rough,14.0,1,3.059
1210,38.72,1.1507,-5.9431,0.3827,0.0367,-0.8505,-2.3499,rough,14.0,1,3.046
1220,39.04,1.1340,-5.9071,0.3645,0.0591,-0.8532,-2.3215,rough,14.0,1,3.064
1230,39.36,1.1464,-5.9104,0.3564,0.0685,-0.8477,-2.3499,rough,14.0,1,3.069
1240,39.68,1.1475,-5.9051,0.3526,0.0720,-0.8536,-2.3515,rough,14.0,1,3.074
1250,40.00,1.1444,-5.9091,0.3582,0.0710,-0.8502,-2.3545,rough,14.0,1,3.069
1260,40.32,1.1464,-5.8939,0.3446,0.0690,-0.8485,-2.3429,rough,14.0,1,3.082
1270,40.64,1.1439,-5.9124,0.3614,0.0786,-0.8499,-2.3698,rough,14.0,1,3.066
1280,40.96,1.1455,-5.8993,0.3500,0.0517,-0.8518,-2.3197,rough,14.0,1,3.077
1290,41.28,1.1456,-5.9026,0.3517,0.0660,-0.8502,-2.3413,rough,14.0,1,3.075
1300,41.60,1.1401,-5.9105,0.3612,0.0697,-0.8461,-2.3466,rough,14.0,1,3.065
1310,41.92,1.1427,-5.9010,0.3520,0.0452,-0.8465,-2.3064,rough,14.0,1,3.074
1320,42.24,1.1463,-5.9090,0.3556,0.0914,-0.8463,-2.3857,rough,14.0,1,3.070
1330,42.56,1.1365,-5.9019,0.3568,0.1006,-0.8433,-2.3849,rough,14.0,1,3.070
1340,42.88,1.1387,-5.9187,0.3701,0.0614,-0.8486,-2.3436,rough,14.0,1,3.058
1350,43.20,1.1465,-5.8993,0.3487,0.0603,-0.8486,-2.3346,rough,14.0,1,3.078
1360,43.52,1.1474,-5.9092,0.3560,0.0897,-0.8484,-2.3873,rough,14.0,1,3.071
1370,43.84,1.1349,-5.9075,0.3639,0.0913,-0.8497,-2.3730,rough,14.0,1,3.065
1380,44.16,1.1486,-5.9008,0.3496,0.0657,-0.8537,-2.3468,rough,14.0,1,3.078
1390,44.48,1.1444,-5.9075,0.3566,0.0864,-0.8492,-2.3756,rough,14.0,1,3.070
1400,44.80,1.1476,-5.9039,0.3513,0.0563,-0.8493,-2.3315,rough,14.0,1,3.075
1410,45.12,1.1455,-5.9053,0.3526,0.1087,-0.8417,-2.4100,rough,14.0,1,3.073
1420,45.44,1.1428,-5.9011,0.3521,0.0815,-0.8485,-2.3593,rough,14.0,1,3.074
1430,45.76,1.1424,-5.9115,0.3601,0.0938,-0.8426,-2.3897,rough,14.0,1,3.066
1440,46.08,1.1492,-5.9195,0.3623,0.0833,-0.8435,-2.3923,rough,14.0,1,3.064
1450,46.40,1.1246,-5.8835,0.3522,0.0371,-0.8453,-2.2628,rough,14.0,1,3.078
1460,46.72,1.1524,-5.9018,0.3527,0.0937,-0.8821,-2.4046,rough,14.0,1,3.080
1470,47.04,1.1356,-5.9023,0.3592,0.0492,-0.8560,-2.3004,rough,14.0,1,3.069
1480,47.36,1.1496,-5.9036,0.3503,0.0427,-0.8556,-2.3099,rough,14.0,1,3.077
1490,47.68,1.1380,-5.8993,0.3546,0.0714,-0.8470,-2.3411,rough,14.0,1,3.073
1500,48.00,1.1474,-5.9254,0.3689,0.0683,-0.8447,-2.3741,rough,14.0,1,3.058
1510,48.32,1.1423,-5.8927,0.3476,0.0348,-0.8490,-2.2900,rough,14.0,1,3.081
1520,48.64,1.1399,-5.9065,0.3568,0.0756,-0.8371,-2.3564,rough,14.0,1,3.068
1530,48.96,1.1470,-5.9008,0.3492,0.0892,-0.8456,-2.3808,rough,14.0,1,3.077
1540,49.28,1.1476,-5.9016,0.3491,0.0743,-0.8488,-2.3540,rough,14.0,1,3.077
1550,49.60,1.1454,-5.9087,0.3573,0.0769,-0.8524,-2.3632,rough,14.0,1,3.070
1560,49.92,1.1465,-5.9014,0.3489,0.0744,-0.8414,-2.3583,rough,14.0,1,3.077
1570,50.24,1.1307,-5.9126,0.3704,0.0938,-0.8492,-2.3734,rough,14.0,1,3.058
1580,50.56,1.1356,-5.9068,0.3629,0.0735,-0.8521,-2.3449,rough,14.0,1,3.066
1590,50.88,1.1458,-5.8928,0.3463,0.0097,-0.8538,-2.2546,rough,14.0,1,3.083
1600,51.20,1.1423,-5.9161,0.3649,0.0783,-0.8467,-2.3713,rough,14.0,1,3.062
1610,51.52,1.1463,-5.9098,0.3564,0.0925,-0.8447,-2.3911,rough,14.0,1,3.070
1620,51.84,1.1452,-5.8999,0.3488,0.0675,-0.8427,-2.3453,rough,14.0,1,3.077
1630,52.16,1.1484,-5.9204,0.3645,0.0805,-0.8505,-2.3835,rough,14.0,1,3.063
1640,52.48,1.1408,-5.9011,0.3537,0.0816,-0.8500,-2.3569,rough,14.0,1,3.073
1650,52.80,1.1385,-5.9036,0.3581,0.0669,-0.8531,-2.3348,rough,14.0,1,3.070
1660,53.12,1.1329,-5.9054,0.3637,0.0783,-0.8515,-2.3476,rough,14.0,1,3.065
1670,53.44,1.1463,-5.9000,0.3486,0.0432,-0.8457,-2.3075,rough,14.0,1,3.077
1680,53.76,1.1363,-5.9030,0.3596,0.0563,-0.8577,-2.3160,rough,14.0,1,3.069
1690,54.08,1.1179,-5.9099,0.3783,0.0940,-0.8497,-2.3590,rough,14.0,1,3.052
1700,54.40,1.1310,-5.8939,0.3526,0.1020,-0.8346,-2.3732,rough,14.0,1,3.073
1710,54.72,1.1408,-5.8886,0.3372,-0.0239,-0.8459,-2.2531,rough,14.0,1,3.083
1720,55.04,1.1193,-5.9122,0.3790,0.0752,-0.8522,-2.3377,rough,14.0,1,3.051
1730,55.36,1.1081,-5.8991,0.3765,0.1021,-0.8514,-2.3475,rough,14.0,1,3.055
1740,55.68,1.1332,-5.9087,0.3662,0.0801,-0.8512,-2.3538,rough,14.0,1,3.063
1750,56.00,1.1468,-5.8989,0.3477,0.0433,-0.8460,-2.3086,rough,14.0,1,3.079
1760,56.32,1.1450,-5.9150,0.3624,0.0707,-0.8481,-2.3614,rough,14.0,1,3.065
1770,56.64,1.1397,-5.8875,0.3433,0.0137,-0.8399,-2.2655,rough,14.0,1,3.084
1780,56.96,1.1478,-5.8902,0.3416,0.0243,-0.8442,-2.2823,rough,14.0,1,3.086
1790,57.28,1.1475,-5.9393,0.3822,0.0367,-0.8523,-2.3413,rough,14.0,1,3.047
1800,57.60,1.1506,-5.9479,0.3857,0.0139,-0.8455,-2.3195,rough,14.0,1,3.042
1810,57.92,1.1368,-5.9126,0.3664,0.0669,-0.8493,-2.3435,rough,14.0,1,3.062
1820,58.24,1.1447,-5.8948,0.3462,0.0579,-0.8425,-2.3312,rough,14.0,1,3.081
1830,58.56,1.1430,-5.9142,0.3631,0.0779,-0.8547,-2.3599,rough,14.0,1,3.064
1840,58.88,1.1385,-5.9039,0.3579,0.0817,-0.8514,-2.3560,rough,14.0,1,3.070
1850,59.20,1.1465,-5.9015,0.3509,0.0511,-0.8533,-2.3190,rough,14.0,1,3.076
1860,59.52,1.1403,-5.9198,0.3701,0.0658,-0.8494,-2.3539,rough,14.0,1,3.058
1870,59.84,1.1463,-5.9032,0.3486,0.0928,-0.8354,-2.3840,rough,14.0,1,3.075
1880,60.16,1.1449,-5.9055,0.3546,0.0811,-0.8499,-2.3661,rough,14.0,1,3.072
1890,60.48,1.1472,-5.9035,0.3516,0.0855,-0.8507,-2.3738,rough,14.0,1,3.075
1900,60.80,1.1475,-5.9037,0.3519,0.0824,-0.8532,-2.3690,rough,14.0,1,3.075
1910,61.12,1.1449,-5.8980,0.3501,0.0205,-0.8610,-2.2616,rough,14.0,1,3.078
1920,61.44,1.1429,-5.8887,0.3437,0.0068,-0.8466,-2.2533,rough,14.0,1,3.084
1930,61.76,1.1442,-5.9168,0.3643,0.0699,-0.8479,-2.3613,rough,14.0,1,3.063
1940,62.08,1.1458,-5.9030,0.3516,0.0713,-0.8495,-2.3491,rough,14.0,1,3.075
1950,62.40,1.1490,-5.9121,0.3572,0.0615,-0.8509,-2.3482,rough,14.0,1,3.069
1960,62.72,1.1477,-5.9267,0.3710,0.0546,-0.8505,-2.3543,rough,14.0,1,3.057
1970,63.04,1.1380,-5.9002,0.3574,0.0326,-0.8559,-2.2827,rough,14.0,1,3.072
1980,63.36,1.1596,-5.8650,0.3211,-0.1875,-0.8446,-1.9608,rough,14.0,1,3.113
1990,63.68,1.1743,-5.8468,0.3082,-0.3791,-0.8087,-1.6349,rough,14.0,1,3.137
2000,64.00,1.2357,-5.8745,0.3115,-0.5994,-0.7141,-1.2578,rough,14.0,1,3.152
2010,64.32,1.3994,-5.9161,0.2434,-0.5969,-0.4218,-1.1640,rough,14.0,1,3.224
2020,64.64,1.5461,-6.0136,0.2266,-0.4314,-0.4342,-1.2342,rough,14.0,1,3.251
2030,64.96,1.6504,-6.2330,0.3284,-0.4698,-0.5178,-1.2767,rough,14.0,1,3.174
2040,65.28,1.7363,-6.4702,0.4686,-0.4852,-0.6081,-1.3048,rough,14.0,1,3.089
2050,65.60,1.8358,-6.6360,0.5883,-0.5744,-0.6741,-1.1347,rough,14.0,1,3.072
2060,65.92,1.9878,-6.7308,0.6217,-0.5530,-0.6178,-0.9076,rough,14.0,1,3.150
2070,66.24,2.1342,-6.7264,0.5917,-0.4495,-0.6668,-0.9924,rough,14.0,1,3.278
2080,66.56,2.2750,-6.6522,0.4866,-0.4050,-0.7060,-1.1808,rough,14.0,1,3.437
2090,66.88,2.4481,-6.5163,0.3001,-0.2625,-0.7824,-1.6422,rough,14.0,1,3.655
2100,67.20,2.6315,-6.3670,0.0775,-0.7107,-0.4716,-0.9291,rough,14.0,1,3.889
2110,67.52,2.8570,-6.1435,-0.2084,-0.6877,-0.4392,-0.7993,rough,14.0,1,4.198
2120,67.84,3.0310,-5.8771,-0.4443,-0.4947,-0.5230,-0.8312,rough,14.0,1,4.488
2130,68.16,3.0515,-5.7143,-0.5292,-0.0408,-0.7862,-1.0916,rough,14.0,1,4.596
2140,68.48,3.1094,-5.6879,-0.5494,0.0733,-0.6381,-1.3963,rough,14.0,1,4.659
2150,68.80,3.1324,-5.7854,-0.4909,0.1416,-0.7217,-1.5435,rough,14.0,1,4.623
2160,69.12,3.1454,-5.8832,-0.4335,0.0665,-0.7506,-1.6021,rough,14.0,1,4.580
2170,69.44,3.1527,-5.9794,-0.3724,-0.0082,-0.6806,-1.5986,rough,14.0,1,4.535
2180,69.76,3.1640,-6.0942,-0.3036,-0.1036,-0.5912,-1.5805,rough,14.0,1,4.486
2190,70.08,3.1708,-6.1810,-0.2438,-0.1571,-0.6051,-1.5639,rough,14.0,1,4.449
2200,70.40,3.1739,-6.2646,-0.1828,-0.1848,-0.6775,-1.5414,rough,14.0,1,4.411
2210,70.72,3.1832,-6.3399,-0.1356,-0.2508,-0.7673,-1.5079,rough,14.0,1,4.385
2220,71.04,3.1945,-6.3981,-0.0956,-0.2909,-0.7551,-1.5028,rough,14.0,1,4.368
2230,71.36,3.2083,-6.4813,-0.0464,-0.3446,-0.6894,-1.5077,rough,14.0,1,4.344
2240,71.68,3.2239,-6.5981,0.0216,-0.4069,-0.6060,-1.5421,rough,14.0,1,4.309
2250,72.00,3.2337,-6.7099,0.0871,-0.4514,-0.5581,-1.5627,rough,14.0,1,4.274
2260,72.32,3.2445,-6.8051,0.1254,-0.5581,-0.5838,-1.5291,rough,14.0,1,4.248
2270,72.64,3.2461,-6.9005,0.2023,-0.4929,-0.6502,-1.5425,rough,14.0,1,4.216
2280,72.96,3.2516,-6.9920,0.2569,-0.5366,-0.6087,-1.5253,rough,14.0,1,4.191
2290,73.28,3.2572,-7.0999,0.3167,-0.5666,-0.5649,-1.5460,rough,14.0,1,4.162
2300,73.60,3.2668,-7.2018,0.3697,-0.5720,-0.5413,-1.5799,rough,14.0,1,4.142
2310,73.92,3.2703,-7.2977,0.4276,-0.5682,-0.5708,-1.5945,rough,14.0,1,4.120
2320,74.24,3.2651,-7.3905,0.4875,-0.5642,-0.5803,-1.5851,rough,14.0,1,4.092
2330,74.56,3.2650,-7.4790,0.5455,-0.5767,-0.5807,-1.5671,rough,14.0,1,4.072
2340,74.88,3.2652,-7.5732,0.6056,-0.5810,-0.5760,-1.5674,rough,14.0,1,4.053
2350,75.20,3.2914,-7.6367,0.6369,-0.6283,-0.5600,-1.4612,rough,14.0,1,4.067
2360,75.52,3.3408,-7.7804,0.7051,-0.3696,-0.7125,-1.7810,rough,14.0,1,4.093
2370,75.84,3.3296,-7.9264,0.8226,-0.0953,-0.7930,-2.0994,rough,14.0,1,4.064
2380,76.16,3.2616,-8.0585,0.9588,-0.3404,-0.7241,-1.8178,rough,14.0,1,3.984
2390,76.48,3.2625,-8.1832,1.0508,-0.5430,-0.6221,-1.5052,rough,14.0,1,3.978
2400,76.80,3.3536,-8.2290,1.0301,-0.6153,-0.5002,-1.2903,rough,14.0,1,4.067
2410,77.12,3.4718,-8.2098,0.9431,-0.6189,-0.4398,-1.2356,rough,14.0,1,4.186
2420,77.44,3.5879,-8.1895,0.8609,-0.6313,-0.4002,-1.2052,rough,14.0,1,4.303
2430,77.76,3.7073,-8.1894,0.7903,-0.6426,-0.3812,-1.2039,rough,14.0,1,4.422
2440,78.08,3.8098,-8.2101,0.7546,-0.5904,-0.4266,-1.2100,rough,14.0,1,4.524
2450,78.40,3.8954,-8.2800,0.7555,-0.5423,-0.4272,-1.2613,rough,14.0,1,4.608
2460,78.72,3.9710,-8.3967,0.7707,-0.4829,-0.3890,-1.3397,rough,14.0,1,4.683
2470,79.04,4.0260,-8.5642,0.8240,-0.4891,-0.3114,-1.4921,rough,14.0,1,4.742
2480,79.36,4.0789,-8.7505,0.8495,-0.5102,-0.3512,-1.6758,rough,14.0,1,4.807
2490,79.68,4.0977,-9.0007,0.9251,-0.4752,-0.5078,-1.9271,rough,14.0,1,4.853
2500,80.00,4.0990,-9.2646,1.0093,-0.5524,-0.6637,-2.0281,rough,14.0,1,4.896
2510,80.32,4.1457,-9.4719,1.0528,-0.6741,-0.6783,-1.9092,rough,14.0,1,4.985
2520,80.64,4.2984,-9.6182,0.9415,-0.5014,-0.7201,-2.0297,rough,14.0,1,5.167
2530,80.96,4.3899,-9.7574,0.9269,-0.1048,-0.8235,-2.4191,rough,14.0,1,5.291
2540,81.28,4.4003,-9.8542,0.9706,0.4503,-0.8568,-3.0887,rough,14.0,1,5.328
2550,81.60,4.3010,-9.8051,1.0052,0.7326,-0.6057,2.4995,rough,14.0,1,5.219
2560,81.92,4.2190,-9.5120,0.9710,0.7403,-0.4752,2.3678,rough,14.0,1,5.065
2570,82.24,4.2749,-9.2025,0.8298,0.6764,-0.5013,2.3327,rough,14.0,1,5.058
2580,82.56,4.3627,-8.9493,0.7096,0.5740,-0.4154,2.4859,rough,14.0,1,5.109
2590,82.88,4.3597,-8.8207,0.6689,0.4387,-0.6128,2.6123,rough,14.0,1,5.093
2600,83.20,4.3201,-8.6849,0.6633,0.3821,-0.5492,2.7546,rough,14.0,1,5.043
2610,83.52,4.2910,-8.6322,0.6760,0.3151,-0.5550,2.8856,rough,14.0,1,5.011
2620,83.84,4.2471,-8.6011,0.6946,0.3167,-0.5372,2.9383,rough,14.0,1,4.965
2630,84.16,4.1568,-8.5815,0.7608,0.2611,-0.5766,2.9654,rough,14.0,1,4.874
2640,84.48,4.0202,-8.5318,0.8016,0.3434,-0.4969,3.0804,rough,14.0,1,4.735
2650,84.80,3.8540,-8.4599,0.8688,0.3285,-0.6867,-2.8790,rough,14.0,1,4.567
2660,85.12,3.7439,-8.4195,0.9102,0.1815,-0.7687,-2.6697,rough,14.0,1,4.456
2670,85.44,3.6780,-8.4535,0.9717,-0.0801,-0.8116,-2.2675,rough,14.0,1,4.391
2680,85.76,3.6707,-8.4730,0.9882,-0.0330,-0.8016,-2.3622,rough,14.0,1,4.384
2690,86.08,3.7062,-8.4832,0.9712,-0.0104,-0.8022,-2.4285,rough,14.0,1,4.420
2700,86.40,3.6898,-8.5159,1.0045,-0.0811,-0.8022,-2.3454,rough,14.0,1,4.405
2710,86.72,3.6830,-8.5606,1.0405,-0.1135,-0.8026,-2.3360,rough,14.0,1,4.400
2720,87.04,3.6907,-8.6076,1.0676,-0.1570,-0.8081,-2.3272,rough,14.0,1,4.410
2730,87.36,3.6980,-8.6175,1.0694,-0.1943,-0.8101,-2.2864,rough,14.0,1,4.418
2740,87.68,3.7064,-8.5945,1.0442,-0.1428,-0.7997,-2.3531,rough,14.0,1,4.425
2750,88.00,3.7029,-8.5674,1.0299,-0.1090,-0.8064,-2.3735,rough,14.0,1,4.420
2760,88.32,3.6942,-8.5472,1.0231,-0.0899,-0.8064,-2.3718,rough,14.0,1,4.410
2770,88.64,3.6893,-8.5318,1.0165,-0.0761,-0.8067,-2.3710,rough,14.0,1,4.405
2780,88.96,3.6905,-8.5183,1.0065,-0.0656,-0.8072,-2.3741,rough,14.0,1,4.405
2790,89.28,3.6935,-8.5109,0.9989,-0.0634,-0.8065,-2.3730,rough,14.0,1,4.408
2800,89.60,3.6984,-8.5092,0.9939,-0.0623,-0.8069,-2.3788,rough,14.0,1,4.413
2810,89.92,3.6846,-8.5081,1.0033,-0.0687,-0.8032,-2.3520,rough,14.0,1,4.399
2820,90.24,3.6750,-8.5131,1.0142,-0.0598,-0.8029,-2.3610,rough,14.0,1,4.390
2830,90.56,3.6696,-8.5229,1.0255,-0.0636,-0.8048,-2.3591,rough,14.0,1,4.385
2840,90.88,3.6651,-8.5362,1.0379,-0.0713,-0.8037,-2.3569,rough,14.0,1,4.381
2850,91.20,3.6641,-8.5523,1.0497,-0.0874,-0.8034,-2.3479,rough,14.0,1,4.380
2860,91.52,3.6674,-8.5705,1.0597,-0.0969,-0.8046,-2.3561,rough,14.0,1,4.385
2870,91.84,3.6784,-8.5920,1.0654,-0.1247,-0.8032,-2.3477,rough,14.0,1,4.397
2880,92.16,3.7002,-8.5885,1.0459,-0.1298,-0.8040,-2.3600,rough,14.0,1,4.418
2890,92.48,3.6981,-8.5672,1.0317,-0.1310,-0.8016,-2.3382,rough,14.0,1,4.415
2900,92.80,3.6893,-8.5419,1.0227,-0.0951,-0.8037,-2.3525,rough,14.0,1,4.405
2910,93.12,3.6916,-8.5256,1.0100,-0.0846,-0.8040,-2.3530,rough,14.0,1,4.407
2920,93.44,3.6993,-8.5117,0.9944,-0.0898,-0.8032,-2.3379,rough,14.0,1,4.414
2930,93.76,3.6866,-8.4974,0.9937,-0.0728,-0.7991,-2.3353,rough,14.0,1,4.401
2940,94.08,3.7030,-8.4621,0.9592,-0.0420,-0.8025,-2.3521,rough,14.0,1,4.416
2950,94.40,3.6939,-8.4642,0.9660,-0.0470,-0.8027,-2.3474,rough,14.0,1,4.407
2960,94.72,3.6832,-8.5054,1.0028,-0.0600,-0.8045,-2.3610,rough,14.0,1,4.398
2970,95.04,3.6934,-8.5554,1.0295,-0.1131,-0.8059,-2.3425,rough,14.0,1,4.410
2980,95.36,3.7071,-8.5966,1.0470,-0.1384,-0.8089,-2.3632,rough,14.0,1,4.426
2990,95.68,3.7017,-8.5816,1.0392,-0.1246,-0.8007,-2.3631,rough,14.0,1,4.419
3000,96.00,3.7038,-8.5724,1.0321,-0.1147,-0.8039,-2.3712,rough,14.0,1,4.421
3010,96.32,3.6964,-8.5658,1.0335,-0.1088,-0.8037,-2.3646,rough,14.0,1,4.413
3020,96.64,3.6999,-8.5711,1.0338,-0.1162,-0.8014,-2.3627,rough,14.0,1,4.417
3030,96.96,3.7005,-8.5846,1.0426,-0.1272,-0.8019,-2.3608,rough,14.0,1,4.418
3040,97.28,3.6927,-8.5910,1.0535,-0.1354,-0.8032,-2.3454,rough,14.0,1,4.411
3050,97.60,3.6940,-8.5916,1.0529,-0.1264,-0.8037,-2.3626,rough,14.0,1,4.412
3060,97.92,3.7054,-8.5869,1.0414,-0.1164,-0.8081,-2.3863,rough,14.0,1,4.423
3070,98.24,3.7026,-8.5804,1.0382,-0.1376,-0.8019,-2.3415,rough,14.0,1,4.420
3080,98.56,3.7021,-8.5861,1.0421,-0.1536,-0.7990,-2.3211,rough,14.0,1,4.420
3090,98.88,3.6922,-8.5929,1.0558,-0.1260,-0.8066,-2.3622,rough,14.0,1,4.410
3100,99.20,3.6918,-8.5912,1.0548,-0.1213,-0.8059,-2.3674,rough,14.0,1,4.410
3110,99.52,3.7017,-8.5906,1.0468,-0.1292,-0.8071,-2.3653,rough,14.0,1,4.420
3120,99.84,3.7010,-8.5769,1.0365,-0.1503,-0.7977,-2.3146,rough,14.0,1,4.418
3130,100.16,3.7022,-8.5743,1.0351,-0.1154,-0.8063,-2.3696,rough,14.0,1,4.419
3140,100.48,3.6967,-8.5738,1.0384,-0.1240,-0.8021,-2.3494,rough,14.0,1,4.414
3150,100.80,3.6930,-8.5842,1.0491,-0.1187,-0.8057,-2.3651,rough,14.0,1,4.411
3160,101.12,3.6982,-8.5955,1.0532,-0.1325,-0.8084,-2.3614,rough,14.0,1,4.417
3170,101.44,3.7059,-8.5879,1.0408,-0.1435,-0.8022,-2.3435,rough,14.0,1,4.424
3180,101.76,3.6883,-8.5768,1.0475,-0.1124,-0.8046,-2.3615,rough,14.0,1,4.406
3190,102.08,3.6851,-8.5758,1.0497,-0.1066,-0.8061,-2.3665,rough,14.0,1,4.403
3200,102.40,3.6920,-8.5832,1.0484,-0.1118,-0.8028,-2.3746,rough,14.0,1,4.410
3210,102.72,3.7071,-8.5900,1.0419,-0.1351,-0.8064,-2.3608,rough,14.0,1,4.425
3220,103.04,3.6897,-8.5799,1.0474,-0.1106,-0.8000,-2.3704,rough,14.0,1,4.407
3230,103.36,3.6815,-8.5854,1.0582,-0.1080,-0.8026,-2.3716,rough,14.0,1,4.399
3240,103.68,3.6850,-8.5941,1.0621,-0.1270,-0.8055,-2.3538,rough,14.0,1,4.403
3250,104.00,3.6924,-8.5918,1.0541,-0.1252,-0.8033,-2.3628,rough,14.0,1,4.411
3260,104.32,3.7065,-8.5865,1.0412,-0.1087,-0.8123,-2.3991,rough,14.0,1,4.424
3270,104.64,3.6909,-8.5523,1.0288,-0.1034,-0.8042,-2.3521,rough,14.0,1,4.407
3280,104.96,3.6883,-8.5174,1.0066,-0.0800,-0.8024,-2.3477,rough,14.0,1,4.403
3290,105.28,3.7069,-8.4919,0.9763,-0.0365,-0.7981,-2.3942,rough,14.0,1,4.421
3300,105.60,3.7089,-8.4691,0.9598,0.0136,-0.7973,-2.4468,rough,14.0,1,4.422
3310,105.92,3.6969,-8.4938,0.9842,-0.0638,-0.8049,-2.3572,rough,14.0,1,4.411
3320,106.24,3.7004,-8.5407,1.0134,-0.0936,-0.8044,-2.3653,rough,14.0,1,4.416
3330,106.56,3.7006,-8.5923,1.0486,-0.1239,-0.8068,-2.3746,rough,14.0,1,4.419
3340,106.88,3.7114,-8.6149,1.0572,-0.1992,-0.8036,-2.2908,rough,14.0,1,4.431
3350,107.20,3.7018,-8.5524,1.0197,-0.1006,-0.8049,-2.3682,rough,14.0,1,4.418
3360,107.52,3.6951,-8.4823,0.9780,-0.0608,-0.8060,-2.3470,rough,14.0,1,4.409
3370,107.84,3.6914,-8.4447,0.9542,-0.0212,-0.8045,-2.3625,rough,14.0,1,4.404
3380,108.16,3.6853,-8.4777,0.9810,-0.0348,-0.8006,-2.3719,rough,14.0,1,4.399
3390,108.48,3.6743,-8.4995,1.0058,-0.0486,-0.8054,-2.3624,rough,14.0,1,4.389
3400,108.80,3.7022,-8.5031,0.9871,-0.0495,-0.8051,-2.3918,rough,14.0,1,4.416
3410,109.12,3.6895,-8.4627,0.9691,0.0033,-0.8122,-2.4283,rough,14.0,1,4.403
3420,109.44,3.6952,-8.4310,0.9450,-0.1576,-0.8044,-2.1703,rough,14.0,1,4.408
3430,109.76,3.6939,-8.4483,0.9559,-0.0222,-0.8054,-2.3773,rough,14.0,1,4.407
3440,110.08,3.6777,-8.4879,0.9944,-0.0305,-0.8046,-2.3791,rough,14.0,1,4.392
3450,110.40,3.7023,-8.4730,0.9669,-0.0520,-0.8045,-2.3516,rough,14.0,1,4.416
3460,110.72,3.6947,-8.4573,0.9609,-0.0361,-0.8021,-2.3569,rough,14.0,1,4.408
3470,111.04,3.6962,-8.4891,0.9820,-0.0497,-0.8079,-2.3744,rough,14.0,1,4.410
3480,111.36,3.6985,-8.5229,1.0029,-0.0738,-0.8055,-2.3754,rough,14.0,1,4.414
3490,111.68,3.7020,-8.5520,1.0203,-0.0948,-0.8067,-2.3781,rough,14.0,1,4.418
3500,112.00,3.7001,-8.5386,1.0104,-0.1166,-0.8104,-2.3452,rough,14.0,1,4.416
3510,112.32,3.6855,-8.5012,0.9975,-0.0606,-0.8033,-2.3604,rough,14.0,1,4.400
3520,112.64,3.6846,-8.4748,0.9809,-0.0375,-0.8061,-2.3650,rough,14.0,1,4.398
3530,112.96,3.6888,-8.4587,0.9665,-0.0418,-0.8047,-2.3448,rough,14.0,1,4.402
3540,113.28,3.6963,-8.4692,0.9635,-0.0834,-0.7877,-2.3048,rough,14.0,1,4.410
3550,113.60,3.6971,-8.4341,0.9450,-0.0188,-0.8012,-2.3826,rough,14.0,1,4.410
3560,113.92,3.6897,-8.4665,0.9710,-0.0354,-0.8056,-2.3634,rough,14.0,1,4.403
3570,114.24,3.6895,-8.5216,1.0095,-0.0656,-0.8073,-2.3768,rough,14.0,1,4.405
3580,114.56,3.6999,-8.5755,1.0371,-0.1236,-0.8027,-2.3555,rough,14.0,1,4.417
3590,114.88,3.7079,-8.6062,1.0528,-0.1755,-0.8068,-2.3153,rough,14.0,1,4.427
3600,115.20,3.7041,-8.5859,1.0414,-0.1231,-0.8059,-2.3726,rough,14.0,1,4.422
3610,115.52,3.7017,-8.5406,1.0129,-0.0898,-0.8075,-2.3733,rough,14.0,1,4.417
3620,115.84,3.6948,-8.5068,0.9944,-0.0640,-0.8035,-2.3694,rough,14.0,1,4.409
3630,116.16,3.6893,-8.4809,0.9812,-0.0487,-0.8042,-2.3585,rough,14.0,1,4.403
3640,116.48,3.6923,-8.4614,0.9647,-0.0306,-0.8015,-2.3698,rough,14.0,1,4.405
3650,116.80,3.7139,-8.4565,0.9487,0.0429,-0.7962,-2.4760,rough,14.0,1,4.427
3660,117.12,3.6950,-8.4778,0.9749,-0.0433,-0.8050,-2.3687,rough,14.0,1,4.409
3670,117.44,3.6947,-8.5178,1.0026,-0.0743,-0.8074,-2.3663,rough,14.0,1,4.410
3680,117.76,3.7021,-8.5621,1.0268,-0.1121,-0.8054,-2.3617,rough,14.0,1,4.419
3690,118.08,3.6972,-8.6026,1.0585,-0.1642,-0.8046,-2.3167,rough,14.0,1,4.416
3700,118.40,3.7094,-8.6134,1.0561,-0.1649,-0.8180,-2.3229,rough,14.0,1,4.429
3710,118.72,3.7041,-8.5910,1.0432,-0.1191,-0.8005,-2.3831,rough,14.0,1,4.422
3720,119.04,3.6953,-8.5788,1.0433,-0.1236,-0.8042,-2.3539,rough,14.0,1,4.413
3730,119.36,3.6942,-8.5751,1.0416,-0.1173,-0.8043,-2.3592,rough,14.0,1,4.412
3740,119.68,3.7070,-8.5815,1.0363,-0.1403,-0.8059,-2.3431,rough,14.0,1,4.425
3750,120.00,3.6913,-8.5716,1.0417,-0.1208,-0.8044,-2.3462,rough,14.0,1,4.408
3760,120.32,3.6833,-8.5656,1.0438,-0.1089,-0.8035,-2.3492,rough,14.0,1,4.400
3770,120.64,3.6837,-8.5647,1.0427,-0.1099,-0.8031,-2.3470,rough,14.0,1,4.401
3780,120.96,3.6931,-8.5687,1.0380,-0.1192,-0.8030,-2.3469,rough,14.0,1,4.410
3790,121.28,3.7054,-8.5745,1.0338,-0.0968,-0.8116,-2.4035,rough,14.0,1,4.423
3800,121.60,3.7011,-8.5809,1.0402,-0.1276,-0.8047,-2.3565,rough,14.0,1,4.419
3810,121.92,3.7029,-8.5866,1.0429,-0.1391,-0.8056,-2.3465,rough,14.0,1,4.421
3820,122.24,3.6977,-8.5910,1.0495,-0.1293,-0.8035,-2.3613,rough,14.0,1,4.416
3830,122.56,3.7018,-8.5911,1.0465,-0.1409,-0.8040,-2.3468,rough,14.0,1,4.420
3840,122.88,3.7004,-8.5808,1.0400,-0.1230,-0.8017,-2.3626,rough,14.0,1,4.418
3850,123.20,3.6879,-8.5727,1.0452,-0.1080,-0.8055,-2.3637,rough,14.0,1,4.405
3860,123.52,3.6857,-8.5728,1.0471,-0.0970,-0.8065,-2.3795,rough,14.0,1,4.403
3870,123.84,3.6916,-8.5843,1.0501,-0.1158,-0.8055,-2.3686,rough,14.0,1,4.409
3880,124.16,3.6998,-8.5857,1.0434,-0.1223,-0.8000,-2.3690,rough,14.0,1,4.418
3890,124.48,3.7058,-8.5776,1.0351,-0.1073,-0.8095,-2.3911,rough,14.0,1,4.423
3900,124.80,3.6924,-8.5733,1.0416,-0.1118,-0.8035,-2.3640,rough,14.0,1,4.410
3910,125.12,3.6940,-8.5846,1.0485,-0.1212,-0.8055,-2.3628,rough,14.0,1,4.412
3920,125.44,3.6987,-8.5914,1.0486,-0.1351,-0.8016,-2.3536,rough,14.0,1,4.417
3930,125.76,3.7069,-8.5893,1.0414,-0.1445,-0.8047,-2.3450,rough,14.0,1,4.425
3940,126.08,3.7012,-8.5809,1.0405,-0.1198,-0.8069,-2.3696,rough,14.0,1,4.419
3950,126.40,3.7014,-8.5810,1.0404,-0.1201,-0.8067,-2.3688,rough,14.0,1,4.419
3960,126.72,3.6955,-8.5819,1.0454,-0.1225,-0.8050,-2.3590,rough,14.0,1,4.413
3970,127.04,3.7021,-8.5902,1.0461,-0.1296,-0.8069,-2.3646,rough,14.0,1,4.420
3980,127.36,3.7028,-8.5822,1.0401,-0.1167,-0.8068,-2.3775,rough,14.0,1,4.420
3990,127.68,3.7014,-8.5841,1.0424,-0.1228,-0.8062,-2.3679,rough,14.0,1,4.419
4000,128.00,3.7006,-8.5871,1.0453,-0.1201,-0.8071,-2.3745,rough,14.0,1,4.419
4010,128.32,3.6900,-8.5866,1.0531,-0.1127,-0.8063,-2.3743,rough,14.0,1,4.408
4020,128.64,3.6897,-8.5914,1.0556,-0.1146,-0.8019,-2.3764,rough,14.0,1,4.408
4030,128.96,3.6981,-8.5901,1.0487,-0.1283,-0.8043,-2.3621,rough,14.0,1,4.416
4040,129.28,3.7026,-8.5832,1.0401,-0.1306,-0.8024,-2.3561,rough,14.0,1,4.420
4050,129.60,3.7032,-8.5805,1.0385,-0.1217,-0.8060,-2.3676,rough,14.0,1,4.421
4060,129.92,3.6969,-8.5792,1.0427,-0.1161,-0.8064,-2.3680,rough,14.0,1,4.414
4070,130.24,3.6948,-8.5832,1.0463,-0.1144,-0.8031,-2.3735,rough,14.0,1,4.413
4080,130.56,3.7040,-8.5902,1.0444,-0.1386,-0.8049,-2.3519,rough,14.0,1,4.422
4090,130.88,3.6939,-8.5807,1.0454,-0.1185,-0.8034,-2.3633,rough,14.0,1,4.412
4100,131.20,3.6824,-8.5789,1.0538,-0.1168,-0.8051,-2.3508,rough,14.0,1,4.400
4110,131.52,3.6835,-8.5874,1.0582,-0.1254,-0.8030,-2.3473,rough,14.0,1,4.402
4120,131.84,3.6906,-8.5930,1.0567,-0.1486,-0.8030,-2.3243,rough,14.0,1,4.409
4130,132.16,3.6985,-8.5894,1.0481,-0.1363,-0.8044,-2.3494,rough,14.0,1,4.417
4140,132.48,3.7025,-8.5834,1.0402,-0.1348,-0.8014,-2.3493,rough,14.0,1,4.420
4150,132.80,3.7036,-8.5781,1.0366,-0.1227,-0.8063,-2.3646,rough,14.0,1,4.421
4160,133.12,3.6972,-8.5810,1.0431,-0.1252,-0.8037,-2.3560,rough,14.0,1,4.415
4170,133.44,3.7013,-8.5923,1.0478,-0.1376,-0.8048,-2.3535,rough,14.0,1,4.420
4180,133.76,3.7046,-8.5870,1.0418,-0.1473,-0.8049,-2.3355,rough,14.0,1,4.423
4190,134.08,3.7002,-8.5841,1.0435,-0.1385,-0.8057,-2.3415,rough,14.0,1,4.418
4200,134.40,3.7048,-8.5882,1.0421,-0.1401,-0.8035,-2.3482,rough,14.0,1,4.423
4210,134.72,3.6972,-8.5823,1.0442,-0.1280,-0.8041,-2.3528,rough,14.0,1,4.415
4220,135.04,3.6967,-8.5837,1.0455,-0.1257,-0.8045,-2.3580,rough,14.0,1,4.414
4230,135.36,3.7035,-8.5890,1.0437,-0.1390,-0.8040,-2.3496,rough,14.0,1,4.422
4240,135.68,3.6986,-8.5817,1.0424,-0.1347,-0.8024,-2.3426,rough,14.0,1,4.416
4250,136.00,3.7059,-8.5848,1.0393,-0.1284,-0.8049,-2.3639,rough,14.0,1,4.424
4260,136.32,3.6911,-8.5870,1.0522,-0.1258,-0.8042,-2.3546,rough,14.0,1,4.409
4270,136.64,3.6878,-8.5959,1.0613,-0.1344,-0.8058,-2.3472,rough,14.0,1,4.406
4280,136.96,3.6931,-8.5920,1.0539,-0.1288,-0.8040,-2.3577,rough,14.0,1,4.411
4290,137.28,3.7087,-8.5891,1.0402,-0.1334,-0.8033,-2.3606,rough,14.0,1,4.427
4300,137.60,3.6997,-8.5825,1.0415,-0.1368,-0.8023,-2.3444,rough,14.0,1,4.417
4310,137.92,3.7025,-8.5888,1.0442,-0.1372,-0.8036,-2.3516,rough,14.0,1,4.421
4320,138.24,3.7012,-8.5934,1.0488,-0.1405,-0.8056,-2.3499,rough,14.0,1,4.420
4330,138.56,3.7031,-8.5863,1.0420,-0.1322,-0.8035,-2.3573,rough,14.0,1,4.421
4340,138.88,3.6867,-8.5763,1.0488,-0.1050,-0.8065,-2.3717,rough,14.0,1,4.404
4350,139.20,3.6814,-8.5754,1.0517,-0.1041,-0.8037,-2.3662,rough,14.0,1,4.399
4360,139.52,3.6861,-8.5839,1.0543,-0.1152,-0.8059,-2.3629,rough,14.0,1,4.404
4370,139.84,3.6960,-8.5888,1.0485,-0.1147,-0.8003,-2.3806,rough,14.0,1,4.414
4380,140.16,3.7055,-8.5872,1.0409,-0.1384,-0.8041,-2.3511,rough,14.0,1,4.423
4390,140.48,3.6962,-8.5877,1.0484,-0.1153,-0.8044,-2.3789,rough,14.0,1,4.414
4400,140.80,3.6956,-8.5940,1.0527,-0.1590,-0.7990,-2.3142,rough,14.0,1,4.414
4410,141.12,3.6981,-8.5898,1.0483,-0.1285,-0.8037,-2.3619,rough,14.0,1,4.416
4420,141.44,3.7016,-8.5825,1.0410,-0.1215,-0.8056,-2.3688,rough,14.0,1,4.419
4430,141.76,3.7034,-8.5726,1.0328,-0.1227,-0.8046,-2.3572,rough,14.0,1,4.421
4440,142.08,3.6942,-8.5543,1.0270,-0.1011,-0.8020,-2.3620,rough,14.0,1,4.411
4450,142.40,3.6837,-8.5384,1.0244,-0.0887,-0.8012,-2.3522,rough,14.0,1,4.399
4460,142.72,3.6820,-8.5352,1.0244,-0.0757,-0.8057,-2.3672,rough,14.0,1,4.398
4470,143.04,3.6870,-8.5340,1.0199,-0.0753,-0.8069,-2.3720,rough,14.0,1,4.402
4480,143.36,3.6989,-8.5344,1.0108,-0.0833,-0.8071,-2.3728,rough,14.0,1,4.414
4490,143.68,3.6956,-8.5171,1.0006,-0.0932,-0.8038,-2.3384,rough,14.0,1,4.410
4500,144.00,3.6814,-8.4730,0.9820,-0.0407,-0.8047,-2.3545,rough,14.0,1,4.395
4510,144.32,3.6897,-8.4536,0.9624,-0.0309,-0.8044,-2.3591,rough,14.0,1,4.403
4520,144.64,3.6983,-8.4696,0.9663,-0.0520,-0.8007,-2.3472,rough,14.0,1,4.412
4530,144.96,3.6890,-8.5031,0.9971,-0.0525,-0.8067,-2.3770,rough,14.0,1,4.403
4540,145.28,3.6990,-8.5516,1.0221,-0.1028,-0.8051,-2.3608,rough,14.0,1,4.415
4550,145.60,3.7069,-8.5908,1.0431,-0.1347,-0.8084,-2.3623,rough,14.0,1,4.425
4560,145.92,3.7084,-8.6053,1.0521,-0.1691,-0.8082,-2.3243,rough,14.0,1,4.427
4570,146.24,3.7097,-8.5855,1.0365,-0.0862,-0.8035,-2.4250,rough,14.0,1,4.428
4580,146.56,3.7027,-8.5478,1.0163,-0.0973,-0.8047,-2.3700,rough,14.0,1,4.419
4590,146.88,3.6990,-8.5150,0.9972,-0.0734,-0.8060,-2.3680,rough,14.0,1,4.414
4600,147.20,3.6907,-8.4892,0.9855,-0.0569,-0.8034,-2.3561,rough,14.0,1,4.405
4610,147.52,3.7092,-8.4465,0.9450,-0.0215,-0.7931,-2.3698,rough,14.0,1,4.422
4620,147.84,3.6892,-8.4733,0.9748,-0.0569,-0.8025,-2.3432,rough,14.0,1,4.403
4630,148.16,3.6814,-8.5124,1.0092,-0.0648,-0.8057,-2.3593,rough,14.0,1,4.396
4640,148.48,3.6881,-8.5650,1.0399,-0.1160,-0.8046,-2.3430,rough,14.0,1,4.405
4650,148.80,3.7017,-8.6086,1.0597,-0.1781,-0.8078,-2.3067,rough,14.0,1,4.421
4660,149.12,3.7093,-8.6287,1.0686,-0.2214,-0.8113,-2.2679,rough,14.0,1,4.430
4670,149.44,3.7132,-8.6379,1.0723,-0.2437,-0.8117,-2.2460,rough,14.0,1,4.434
4680,149.76,3.7093,-8.6308,1.0678,-0.2165,-0.8016,-2.2782,rough,14.0,1,4.430
4690,150.08,3.7079,-8.6027,1.0505,-0.1696,-0.8070,-2.3204,rough,14.0,1,4.427
4700,150.40,3.7023,-8.5702,1.0321,-0.1211,-0.8048,-2.3563,rough,14.0,1,4.419
4710,150.72,3.7005,-8.5550,1.0232,-0.1182,-0.8044,-2.3420,rough,14.0,1,4.417
4720,151.04,3.6971,-8.5516,1.0235,-0.1059,-0.8043,-2.3544,rough,14.0,1,4.413
4730,151.36,3.6930,-8.5536,1.0277,-0.1098,-0.8028,-2.3451,rough,14.0,1,4.409
4740,151.68,3.6973,-8.5603,1.0290,-0.1159,-0.8031,-2.3474,rough,14.0,1,4.414
4750,152.00,3.7002,-8.5686,1.0326,-0.1381,-0.8031,-2.3246,rough,14.0,1,4.417
4760,152.32,3.6957,-8.5825,1.0457,-0.1284,-0.8050,-2.3510,rough,14.0,1,4.413
4770,152.64,3.6953,-8.5987,1.0562,-0.1336,-0.8023,-2.3605,rough,14.0,1,4.414
4780,152.96,3.6995,-8.5938,1.0503,-0.1360,-0.8050,-2.3557,rough,14.0,1,4.418
4790,153.28,3.7058,-8.5770,1.0324,-0.1274,-0.7965,-2.3554,rough,14.0,1,4.423
4800,153.60,3.6777,-8.5584,1.0436,-0.0891,-0.8066,-2.3673,rough,14.0,1,4.394
4810,153.92,3.6598,-8.5446,1.0485,-0.0627,-0.8073,-2.3739,rough,14.0,1,4.376
4820,154.24,3.6509,-8.5393,1.0517,-0.0549,-0.8068,-2.3707,rough,14.0,1,4.367
4830,154.56,3.6461,-8.5387,1.0548,-0.0487,-0.8057,-2.3749,rough,14.0,1,4.362
4840,154.88,3.6443,-8.5421,1.0577,-0.0669,-0.8013,-2.3474,rough,14.0,1,4.360
4850,155.20,3.6446,-8.5516,1.0651,-0.0552,-0.8073,-2.3769,rough,14.0,1,4.361
4860,155.52,3.6460,-8.5644,1.0726,-0.0680,-0.8059,-2.3724,rough,14.0,1,4.363
4870,155.84,3.6535,-8.5812,1.0782,-0.0867,-0.8064,-2.3691,rough,14.0,1,4.371
4880,156.16,3.6703,-8.5925,1.0717,-0.1124,-0.8012,-2.3592,rough,14.0,1,4.389
4890,156.48,3.7032,-8.5914,1.0459,-0.1374,-0.8057,-2.3550,rough,14.0,1,4.421
4900,156.80,3.7050,-8.5684,1.0294,-0.1044,-0.8089,-2.3843,rough,14.0,1,4.422
4910,157.12,3.6922,-8.5315,1.0135,-0.0875,-0.8041,-2.3561,rough,14.0,1,4.408
4920,157.44,3.6916,-8.4946,0.9893,-0.0495,-0.8069,-2.3751,rough,14.0,1,4.406
4930,157.76,3.7075,-8.4355,0.9388,0.0141,-0.7970,-2.4148,rough,14.0,1,4.420
4940,158.08,3.6915,-8.4600,0.9659,-0.0431,-0.8211,-2.3557,rough,14.0,1,4.405
4950,158.40,3.6906,-8.4948,0.9900,-0.0570,-0.8070,-2.3635,rough,14.0,1,4.405
4960,158.72,3.7010,-8.5237,1.0018,-0.0800,-0.8069,-2.3690,rough,14.0,1,4.416
4970,159.04,3.7010,-8.5598,1.0264,-0.1030,-0.8067,-2.3720,rough,14.0,1,4.418
4980,159.36,3.6996,-8.5347,1.0090,-0.1029,-0.8066,-2.3448,rough,14.0,1,4.415
4990,159.68,3.6771,-8.4792,0.9895,-0.0415,-0.8050,-2.3552,rough,14.0,1,4.391
5000,160.00,3.6844,-8.4344,0.9539,-0.0360,-0.8019,-2.3294,rough,14.0,1,4.397
5010,160.32,3.6935,-8.4657,0.9678,-0.0289,-0.8041,-2.3760,rough,14.0,1,4.407
5020,160.64,3.6944,-8.5086,0.9960,-0.0735,-0.8034,-2.3559,rough,14.0,1,4.409
5030,160.96,3.6983,-8.4707,0.9662,-0.0513,-0.8039,-2.3465,rough,14.0,1,4.412
5040,161.28,3.6820,-8.4581,0.9715,-0.0333,-0.8049,-2.3499,rough,14.0,1,4.395
5050,161.60,3.6597,-8.4872,1.0079,-0.0453,-0.8006,-2.3380,rough,14.0,1,4.374
5060,161.92,3.6376,-8.5152,1.0451,-0.0350,-0.8046,-2.3612,rough,14.0,1,4.352
5070,162.24,3.6126,-8.5405,1.0820,-0.0402,-0.8045,-2.3535,rough,14.0,1,4.328
5080,162.56,3.5896,-8.5648,1.1169,-0.0473,-0.8056,-2.3433,rough,14.0,1,4.307
5090,162.88,3.5677,-8.5886,1.1496,-0.0497,-0.8022,-2.3415,rough,14.0,1,4.286
5100,163.20,3.5527,-8.5966,1.1679,-0.0325,-0.8081,-2.3614,rough,14.0,1,4.271
5110,163.52,3.5574,-8.5853,1.1558,-0.0199,-0.8049,-2.3742,rough,14.0,1,4.275
5120,163.84,3.5664,-8.5675,1.1365,-0.0240,-0.8045,-2.3582,rough,14.0,1,4.283
5130,164.16,3.5757,-8.5491,1.1163,-0.0166,-0.8035,-2.3597,rough,14.0,1,4.292
5140,164.48,3.5825,-8.5300,1.0978,-0.0177,-0.8027,-2.3442,rough,14.0,1,4.298
5150,164.80,3.5859,-8.5074,1.0795,0.0039,-0.8040,-2.3577,rough,14.0,1,4.300
5160,165.12,3.5873,-8.4828,1.0614,0.0227,-0.8042,-2.3619,rough,14.0,1,4.301
5170,165.44,3.5869,-8.4549,1.0425,0.0324,-0.8053,-2.3461,rough,14.0,1,4.300
5180,165.76,3.6192,-8.4505,1.0141,0.0437,-0.8353,-2.3566,rough,14.0,1,4.332
5190,166.08,3.7071,-8.4649,0.9582,-0.0094,-0.7957,-2.3970,rough,14.0,1,4.420
5200,166.40,3.7015,-8.4618,0.9594,-0.0177,-0.8044,-2.3959,rough,14.0,1,4.415
5210,166.72,3.6895,-8.4949,0.9907,-0.0618,-0.8046,-2.3541,rough,14.0,1,4.404
5220,167.04,3.6929,-8.5388,1.0174,-0.1025,-0.8007,-2.3404,rough,14.0,1,4.409
5230,167.36,3.7075,-8.5664,1.0285,-0.1227,-0.8234,-2.3492,rough,14.0,1,4.424
5240,167.68,3.6951,-8.5336,1.0126,-0.0954,-0.8040,-2.3487,rough,14.0,1,4.411
5250,168.00,3.6899,-8.5174,1.0056,-0.0784,-0.8035,-2.3519,rough,14.0,1,4.405
5260,168.32,3.6900,-8.5021,0.9952,-0.0894,-0.8028,-2.3172,rough,14.0,1,4.404
5270,168.64,3.6918,-8.4936,0.9881,-0.0579,-0.8048,-2.3605,rough,14.0,1,4.406
5280,168.96,3.7012,-8.4820,0.9722,-0.0603,-0.7949,-2.3449,rough,14.0,1,4.415
5290,169.28,3.7014,-8.4552,0.9538,0.0127,-0.8346,-2.3909,rough,14.0,1,4.414
5300,169.60,3.6954,-8.4699,0.9689,-0.0452,-0.8062,-2.3559,rough,14.0,1,4.409
5310,169.92,3.6983,-8.5120,0.9955,-0.0682,-0.8051,-2.3717,rough,14.0,1,4.413
5320,170.24,3.6998,-8.5553,1.0243,-0.0987,-0.8070,-2.3726,rough,14.0,1,4.416
5330,170.56,3.6942,-8.5853,1.0485,-0.1301,-0.8034,-2.3493,rough,14.0,1,4.412
5340,170.88,3.7009,-8.5787,1.0393,-0.1184,-0.8065,-2.3683,rough,14.0,1,4.418
5350,171.20,3.6985,-8.5759,1.0391,-0.1171,-0.8060,-2.3649,rough,14.0,1,4.416
5360,171.52,3.6988,-8.5811,1.0422,-0.1250,-0.8048,-2.3579,rough,14.0,1,4.417
5370,171.84,3.7068,-8.5913,1.0432,-0.1317,-0.8075,-2.3678,rough,14.0,1,4.425
5380,172.16,3.6941,-8.5876,1.0505,-0.1189,-0.8060,-2.3699,rough,14.0,1,4.412
5390,172.48,3.6921,-8.5933,1.0563,-0.1225,-0.8076,-2.3685,rough,14.0,1,4.410
5400,172.80,3.6922,-8.5872,1.0513,-0.1260,-0.8036,-2.3563,rough,14.0,1,4.410
5410,173.12,3.7061,-8.5896,1.0426,-0.1294,-0.8073,-2.3687,rough,14.0,1,4.424
5420,173.44,3.6998,-8.5629,1.0287,-0.1088,-0.8032,-2.3656,rough,14.0,1,4.417
5430,173.76,3.6992,-8.5368,1.0112,-0.1095,-0.8011,-2.3339,rough,14.0,1,4.415
5440,174.08,3.6930,-8.5213,1.0062,-0.0732,-0.8052,-2.3684,rough,14.0,1,4.408
5450,174.40,3.6977,-8.5133,0.9958,-0.1028,-0.7977,-2.3169,rough,14.0,1,4.412
5460,174.72,3.6913,-8.5075,0.9981,-0.0614,-0.8060,-2.3699,rough,14.0,1,4.406
5470,175.04,3.6828,-8.5010,0.9994,-0.0644,-0.8013,-2.3486,rough,14.0,1,4.397
5480,175.36,3.6766,-8.5012,1.0040,-0.0800,-0.7975,-2.3161,rough,14.0,1,4.391
5490,175.68,3.6709,-8.5062,1.0133,-0.0435,-0.8066,-2.3744,rough,14.0,1,4.385
5500,176.00,3.6668,-8.5142,1.0218,-0.0469,-0.8056,-2.3736,rough,14.0,1,4.381
5510,176.32,3.6652,-8.5254,1.0299,-0.0678,-0.8013,-2.3507,rough,14.0,1,4.380
5520,176.64,3.6655,-8.5424,1.0424,-0.0660,-0.8066,-2.3725,rough,14.0,1,4.381
5530,176.96,3.6718,-8.5601,1.0496,-0.0823,-0.8070,-2.3730,rough,14.0,1,4.388
5540,177.28,3.6839,-8.5809,1.0540,-0.1116,-0.8055,-2.3625,rough,14.0,1,4.402
5550,177.60,3.6973,-8.5967,1.0542,-0.1480,-0.8050,-2.3369,rough,14.0,1,4.416
5560,177.92,3.7048,-8.5876,1.0421,-0.1450,-0.8054,-2.3401,rough,14.0,1,4.423
5570,178.24,3.7013,-8.5805,1.0400,-0.1392,-0.8044,-2.3377,rough,14.0,1,4.419
5580,178.56,3.7030,-8.5855,1.0416,-0.1379,-0.8032,-2.3471,rough,14.0,1,4.421
5590,178.88,3.6828,-8.5863,1.0587,-0.1095,-0.8068,-2.3710,rough,14.0,1,4.401
5600,179.20,3.6735,-8.5954,1.0716,-0.1126,-0.8038,-2.3659,rough,14.0,1,4.392
5610,179.52,3.6783,-8.5944,1.0669,-0.1099,-0.8027,-2.3745,rough,14.0,1,4.397
5620,179.84,3.6963,-8.5903,1.0503,-0.1322,-0.8043,-2.3536,rough,14.0,1,4.414
5630,180.16,3.7040,-8.5808,1.0388,-0.1499,-0.8077,-2.3238,rough,14.0,1,4.422
5640,180.48,3.6965,-8.5796,1.0431,-0.1271,-0.8050,-2.3512,rough,14.0,1,4.414
5650,180.80,3.7033,-8.5914,1.0455,-0.1461,-0.8036,-2.3405,rough,14.0,1,4.421
5660,181.12,3.7005,-8.5860,1.0439,-0.1200,-0.8044,-2.3739,rough,14.0,1,4.418
5670,181.44,3.6964,-8.5889,1.0496,-0.1236,-0.8060,-2.3664,rough,14.0,1,4.415
5680,181.76,3.7019,-8.5932,1.0485,-0.1303,-0.8078,-2.3668,rough,14.0,1,4.420
5690,182.08,3.7044,-8.5818,1.0390,-0.1087,-0.8097,-2.3919,rough,14.0,1,4.422
5700,182.40,3.6989,-8.5746,1.0377,-0.1136,-0.8052,-2.3696,rough,14.0,1,4.416
5710,182.72,3.6861,-8.5701,1.0451,-0.0997,-0.8067,-2.3728,rough,14.0,1,4.403
5720,183.04,3.6858,-8.5740,1.0478,-0.1087,-0.8053,-2.3617,rough,14.0,1,4.403
5730,183.36,3.6954,-8.5858,1.0471,-0.1475,-0.7983,-2.3231,rough,14.0,1,4.413
5740,183.68,3.7033,-8.5897,1.0432,-0.1237,-0.7999,-2.3754,rough,14.0,1,4.421
5750,184.00,3.7007,-8.5839,1.0421,-0.1382,-0.8024,-2.3427,rough,14.0,1,4.419
5760,184.32,3.6894,-8.5846,1.0514,-0.1302,-0.8016,-2.3434,rough,14.0,1,4.407
5770,184.64,3.6863,-8.5929,1.0601,-0.1275,-0.8049,-2.3532,rough,14.0,1,4.405
5780,184.96,3.6926,-8.5911,1.0539,-0.1276,-0.8049,-2.3578,rough,14.0,1,4.411
5790,185.28,3.7062,-8.5870,1.0407,-0.1253,-0.8069,-2.3729,rough,14.0,1,4.424
5800,185.60,3.6975,-8.5748,1.0386,-0.1232,-0.8034,-2.3524,rough,14.0,1,4.415
5810,185.92,3.7032,-8.5754,1.0352,-0.1158,-0.8066,-2.3717,rough,14.0,1,4.421
5820,186.24,3.6965,-8.5706,1.0367,-0.1150,-0.8033,-2.3602,rough,14.0,1,4.414
5830,186.56,3.7007,-8.5642,1.0284,-0.1119,-0.8014,-2.3629,rough,14.0,1,4.418
5840,186.88,3.6963,-8.5644,1.0331,-0.1039,-0.8062,-2.3708,rough,14.0,1,4.413
5850,187.20,3.6929,-8.5717,1.0399,-0.1051,-0.8028,-2.3735,rough,14.0,1,4.410
5860,187.52,3.6991,-8.5866,1.0460,-0.1212,-0.8067,-2.3708,rough,14.0,1,4.417
5870,187.84,3.7031,-8.5864,1.0425,-0.1421,-0.8048,-2.3418,rough,14.0,1,4.421
5880,188.16,3.7005,-8.5873,1.0454,-0.1392,-0.8059,-2.3444,rough,14.0,1,4.418
5890,188.48,3.7019,-8.5895,1.0449,-0.1470,-0.8014,-2.3353,rough,14.0,1,4.420
5900,188.80,3.7003,-8.5813,1.0386,-0.1157,-0.7935,-2.3758,rough,14.0,1,4.418
5910,189.12,3.6959,-8.5587,1.0282,-0.1328,-0.7976,-2.3172,rough,14.0,1,4.412
5920,189.44,3.7012,-8.5485,1.0185,-0.0963,-0.8063,-2.3706,rough,14.0,1,4.417
5930,189.76,3.6917,-8.5388,1.0191,-0.0814,-0.8056,-2.3729,rough,14.0,1,4.407
5940,190.08,3.6813,-8.5322,1.0229,-0.0737,-0.8059,-2.3664,rough,14.0,1,4.397
5950,190.40,3.6762,-8.5274,1.0227,-0.0789,-0.8014,-2.3473,rough,14.0,1,4.391
5960,190.72,3.6750,-8.5303,1.0268,-0.0620,-0.8072,-2.3760,rough,14.0,1,4.390
5970,191.04,3.6764,-8.5389,1.0314,-0.0713,-0.8064,-2.3724,rough,14.0,1,4.392
5980,191.36,3.6820,-8.5516,1.0345,-0.0864,-0.8013,-2.3689,rough,14.0,1,4.398
5990,191.68,3.6931,-8.5720,1.0405,-0.1138,-0.8047,-2.3594,rough,14.0,1,4.410
6000,192.00,3.7060,-8.5890,1.0414,-0.1421,-0.8019,-2.3476,rough,14.0,1,4.424
6010,192.32,3.6890,-8.5913,1.0569,-0.1285,-0.8046,-2.3533,rough,14.0,1,4.407
6020,192.64,3.6834,-8.5931,1.0625,-0.1281,-0.8044,-2.3497,rough,14.0,1,4.402
6030,192.96,3.6894,-8.5904,1.0557,-0.1414,-0.8025,-2.3315,rough,14.0,1,4.408
6040,193.28,3.7015,-8.5897,1.0455,-0.1429,-0.8023,-2.3417,rough,14.0,1,4.420
6050,193.60,3.6989,-8.5732,1.0346,-0.1230,-0.7943,-2.3526,rough,14.0,1,4.416
6060,193.92,3.6865,-8.5365,1.0215,-0.0871,-0.8042,-2.3558,rough,14.0,1,4.402
6070,194.24,3.6967,-8.4974,0.9869,-0.0666,-0.8048,-2.3565,rough,14.0,1,4.411
6080,194.56,3.6895,-8.4485,0.9589,-0.0416,-0.7988,-2.3415,rough,14.0,1,4.402
6090,194.88,3.6826,-8.4697,0.9768,0.0219,-0.8091,-2.4358,rough,14.0,1,4.396
6100,195.20,3.7001,-8.4807,0.9720,-0.0797,-0.8002,-2.3172,rough,14.0,1,4.414
6110,195.52,3.6969,-8.4731,0.9696,-0.0542,-0.8025,-2.3489,rough,14.0,1,4.410
6120,195.84,3.6953,-8.4841,0.9790,-0.0493,-0.8060,-2.3678,rough,14.0,1,4.409
6130,196.16,3.6975,-8.4986,0.9875,-0.0559,-0.8075,-2.3757,rough,14.0,1,4.412
6140,196.48,3.7003,-8.5271,1.0032,-0.0772,-0.8001,-2.3766,rough,14.0,1,4.415
6150,196.80,3.7011,-8.5286,1.0051,-0.0601,-0.8132,-2.3986,rough,14.0,1,4.416
6160,197.12,3.6887,-8.4709,0.9749,-0.0464,-0.8057,-2.3505,rough,14.0,1,4.402
6170,197.44,3.6987,-8.4494,0.9547,-0.0665,-0.8165,-2.3013,rough,14.0,1,4.411
6180,197.76,3.6912,-8.4653,0.9679,-0.0672,-0.8068,-2.3223,rough,14.0,1,4.404
6190,198.08,3.6495,-8.4940,1.0208,-0.0358,-0.8031,-2.3500,rough,14.0,1,4.364
6200,198.40,3.6146,-8.5261,1.0704,-0.0468,-0.8033,-2.3287,rough,14.0,1,4.330
6210,198.72,3.5799,-8.5580,1.1194,-0.0278,-0.8044,-2.3559,rough,14.0,1,4.297
6220,199.04,3.5454,-8.5866,1.1658,-0.0268,-0.8035,-2.3511,rough,14.0,1,4.264
6230,199.36,3.5195,-8.5981,1.1953,-0.0073,-0.8108,-2.3665,rough,14.0,1,4.238
6240,199.68,3.5136,-8.5900,1.1932,-0.0092,-0.8055,-2.3480,rough,14.0,1,4.232
6250,200.00,3.5193,-8.5605,1.1682,0.0186,-0.8055,-2.3661,rough,14.0,1,4.236
6260,200.32,3.5249,-8.5243,1.1384,0.0190,-0.8039,-2.3326,rough,14.0,1,4.240
6270,200.64,3.5329,-8.4832,1.1034,0.0462,-0.8040,-2.3392,rough,14.0,1,4.247
6280,200.96,3.5449,-8.4413,1.0638,0.0281,-0.7909,-2.2836,rough,14.0,1,4.258
6290,201.28,3.5866,-8.4565,1.0437,0.0356,-0.8044,-2.3532,rough,14.0,1,4.300
6300,201.60,3.6320,-8.4556,1.0115,0.0187,-0.8327,-2.3909,rough,14.0,1,4.345
6310,201.92,3.7125,-8.4408,0.9429,0.0349,-0.8166,-2.4687,rough,14.0,1,4.425
6320,202.24,3.7104,-8.4617,0.9480,0.0598,-0.7954,-2.4698,rough,14.0,1,4.424
6330,202.56,3.6992,-8.5011,0.9862,-0.0946,-0.8020,-2.3182,rough,14.0,1,4.413
6340,202.88,3.6983,-8.5432,1.0159,-0.1210,-0.7987,-2.3212,rough,14.0,1,4.414
6350,203.20,3.7056,-8.5818,1.0361,-0.1585,-0.7969,-2.3123,rough,14.0,1,4.423
6360,203.52,3.6992,-8.5830,1.0428,-0.1242,-0.8030,-2.3626,rough,14.0,1,4.417
6370,203.84,3.7054,-8.5887,1.0422,-0.1336,-0.8054,-2.3599,rough,14.0,1,4.423
6380,204.16,3.6953,-8.5763,1.0410,-0.1250,-0.8014,-2.3491,rough,14.0,1,4.413
6390,204.48,3.6943,-8.5791,1.0445,-0.1187,-0.8049,-2.3609,rough,14.0,1,4.412
6400,204.80,3.7041,-8.5879,1.0430,-0.1255,-0.8070,-2.3709,rough,14.0,1,4.422
6410,205.12,3.6918,-8.5799,1.0465,-0.1242,-0.8032,-2.3513,rough,14.0,1,4.409
6420,205.44,3.6918,-8.5704,1.0408,-0.1061,-0.8066,-2.3689,rough,14.0,1,4.409
6430,205.76,3.7025,-8.5687,1.0306,-0.1136,-0.8039,-2.3669,rough,14.0,1,4.420
6440,206.08,3.6975,-8.5709,1.0367,-0.1088,-0.8067,-2.3714,rough,14.0,1,4.415
6450,206.40,3.7009,-8.5815,1.0408,-0.1262,-0.8049,-2.3586,rough,14.0,1,4.419
6460,206.72,3.6980,-8.5785,1.0406,-0.1217,-0.8026,-2.3601,rough,14.0,1,4.416
6470,207.04,3.6985,-8.5766,1.0396,-0.1185,-0.8055,-2.3632,rough,14.0,1,4.416
6480,207.36,3.7042,-8.5817,1.0379,-0.1417,-0.8019,-2.3383,rough,14.0,1,4.422
6490,207.68,3.6981,-8.5925,1.0505,-0.1432,-0.8045,-2.3412,rough,14.0,1,4.416
6500,208.00,3.6942,-8.5903,1.0519,-0.1341,-0.8035,-2.3485,rough,14.0,1,4.412
6510,208.32,3.7042,-8.5870,1.0422,-0.1242,-0.8065,-2.3722,rough,14.0,1,4.422
6520,208.64,3.6995,-8.5845,1.0443,-0.1202,-0.8069,-2.3704,rough,14.0,1,4.417
6530,208.96,3.7033,-8.5909,1.0451,-0.1330,-0.8040,-2.3613,rough,14.0,1,4.421
6540,209.28,3.6938,-8.5916,1.0536,-0.1274,-0.8076,-2.3616,rough,14.0,1,4.412
6550,209.60,3.6864,-8.5865,1.0560,-0.1121,-0.8068,-2.3715,rough,14.0,1,4.404
6560,209.92,3.6925,-8.5907,1.0534,-0.1235,-0.8040,-2.3644,rough,14.0,1,4.411
6570,210.24,3.7027,-8.5879,1.0429,-0.1461,-0.7999,-2.3362,rough,14.0,1,4.421
6580,210.56,3.6972,-8.5780,1.0417,-0.1161,-0.8068,-2.3675,rough,14.0,1,4.415
6590,210.88,3.6875,-8.5768,1.0483,-0.1071,-0.8056,-2.3698,rough,14.0,1,4.405
6600,211.20,3.6890,-8.5875,1.0542,-0.1231,-0.8045,-2.3572,rough,14.0,1,4.407
6610,211.52,3.7062,-8.5898,1.0421,-0.1356,-0.8044,-2.3594,rough,14.0,1,4.424
6620,211.84,3.7036,-8.5757,1.0347,-0.1193,-0.8047,-2.3674,rough,14.0,1,4.421
6630,212.16,3.6972,-8.5648,1.0327,-0.1223,-0.8053,-2.3425,rough,14.0,1,4.414
6640,212.48,3.7048,-8.5648,1.0263,-0.1217,-0.8038,-2.3518,rough,14.0,1,4.422
6650,212.80,3.6942,-8.5640,1.0341,-0.1128,-0.8042,-2.3534,rough,14.0,1,4.411
6660,213.12,3.6934,-8.5710,1.0393,-0.1226,-0.8026,-2.3443,rough,14.0,1,4.411
6670,213.44,3.7031,-8.5854,1.0416,-0.1498,-0.8027,-2.3280,rough,14.0,1,4.421
6680,213.76,3.6992,-8.5847,1.0444,-0.1283,-0.8047,-2.3570,rough,14.0,1,4.417
6690,214.08,3.6877,-8.5790,1.0497,-0.1202,-0.8052,-2.3513,rough,14.0,1,4.405
6700,214.40,3.6894,-8.5846,1.0517,-0.1277,-0.8029,-2.3470,rough,14.0,1,4.407
6710,214.72,3.6999,-8.5942,1.0505,-0.1383,-0.8060,-2.3528,rough,14.0,1,4.418
6720,215.04,3.7063,-8.5862,1.0396,-0.1411,-0.8040,-2.3467,rough,14.0,1,4.424
6730,215.36,3.7018,-8.5833,1.0417,-0.1368,-0.8060,-2.3450,rough,14.0,1,4.420
6740,215.68,3.7015,-8.5881,1.0450,-0.1525,-0.8041,-2.3249,rough,14.0,1,4.420
6750,216.00,3.6936,-8.5930,1.0539,-0.1460,-0.8015,-2.3316,rough,14.0,1,4.412
6760,216.32,3.6981,-8.5851,1.0451,-0.1363,-0.8025,-2.3433,rough,14.0,1,4.416
6770,216.64,3.7016,-8.5782,1.0386,-0.1415,-0.8062,-2.3317,rough,14.0,1,4.419
6780,216.96,3.6889,-8.5801,1.0495,-0.1226,-0.8051,-2.3505,rough,14.0,1,4.407
6790,217.28,3.6906,-8.5936,1.0571,-0.1378,-0.8036,-2.3420,rough,14.0,1,4.409
6800,217.60,3.6995,-8.5909,1.0480,-0.1413,-0.8031,-2.3435,rough,14.0,1,4.418
6810,217.92,3.7005,-8.5802,1.0401,-0.1342,-0.8035,-2.3445,rough,14.0,1,4.418
6820,218.24,3.7008,-8.5826,1.0420,-0.1353,-0.8060,-2.3455,rough,14.0,1,4.419
6830,218.56,3.6979,-8.5849,1.0452,-0.1266,-0.8031,-2.3590,rough,14.0,1,4.416
6840,218.88,3.6814,-8.5816,1.0565,-0.1069,-0.8062,-2.3683,rough,14.0,1,4.399
6850,219.20,3.6743,-8.5861,1.0643,-0.1014,-0.8027,-2.3748,rough,14.0,1,4.392
6860,219.52,3.6787,-8.5958,1.0684,-0.1213,-0.8063,-2.3579,rough,14.0,1,4.397
6870,219.84,3.6913,-8.5901,1.0544,-0.1235,-0.8055,-2.3619,rough,14.0,1,4.409
6880,220.16,3.7046,-8.5850,1.0398,-0.1444,-0.8018,-2.3379,rough,14.0,1,4.422
6890,220.48,3.6985,-8.5864,1.0459,-0.1286,-0.8041,-2.3581,rough,14.0,1,4.416
6900,220.80,3.7018,-8.5896,1.0446,-0.1311,-0.8006,-2.3617,rough,14.0,1,4.420
6910,221.12,3.7028,-8.5862,1.0426,-0.1288,-0.8059,-2.3626,rough,14.0,1,4.421
6920,221.44,3.7012,-8.5890,1.0460,-0.1243,-0.8071,-2.3711,rough,14.0,1,4.419
6930,221.76,3.7026,-8.5840,1.0409,-0.1253,-0.8040,-2.3656,rough,14.0,1,4.420
6940,222.08,3.6992,-8.5807,1.0416,-0.1241,-0.8049,-2.3594,rough,14.0,1,4.417
6950,222.40,3.7061,-8.5868,1.0408,-0.1252,-0.8076,-2.3729,rough,14.0,1,4.424
6960,222.72,3.6951,-8.5956,1.0545,-0.1431,-0.8021,-2.3412,rough,14.0,1,4.414
6970,223.04,3.6931,-8.5969,1.0577,-0.1471,-0.8049,-2.3337,rough,14.0,1,4.412
6980,223.36,3.7019,-8.5885,1.0451,-0.1272,-0.8067,-2.3668,rough,14.0,1,4.420
6990,223.68,3.7003,-8.5783,1.0381,-0.1373,-0.7996,-2.3370,rough,14.0,1,4.418
7000,224.00,3.6989,-8.5797,1.0410,-0.1266,-0.8038,-2.3541,rough,14.0,1,4.417
7010,224.32,3.7037,-8.5876,1.0426,-0.1363,-0.8043,-2.3531,rough,14.0,1,4.422
7020,224.64,3.6993,-8.5910,1.0485,-0.1341,-0.8048,-2.3551,rough,14.0,1,4.417
7030,224.96,3.7054,-8.5883,1.0419,-0.1401,-0.8046,-2.3496,rough,14.0,1,4.423
7040,225.28,3.6950,-8.5857,1.0475,-0.1304,-0.8012,-2.3506,rough,14.0,1,4.413
7050,225.60,3.6898,-8.5954,1.0592,-0.1311,-0.8057,-2.3546,rough,14.0,1,4.408
7060,225.92,3.6865,-8.5932,1.0605,-0.1202,-0.8069,-2.3659,rough,14.0,1,4.405
7070,226.24,3.6966,-8.5913,1.0504,-0.1230,-0.8031,-2.3708,rough,14.0,1,4.415
7080,226.56,3.7052,-8.5794,1.0362,-0.1379,-0.8049,-2.3428,rough,14.0,1,4.423
7090,226.88,3.6932,-8.5622,1.0341,-0.0998,-0.8067,-2.3719,rough,14.0,1,4.410
7100,227.20,3.6855,-8.5599,1.0383,-0.0946,-0.8052,-2.3686,rough,14.0,1,4.402
7110,227.52,3.6879,-8.5660,1.0410,-0.0977,-0.8072,-2.3732,rough,14.0,1,4.405
7120,227.84,3.6977,-8.5805,1.0427,-0.1171,-0.8056,-2.3689,rough,14.0,1,4.415
7130,228.16,3.7059,-8.5912,1.0425,-0.1611,-0.7986,-2.3189,rough,14.0,1,4.424
7140,228.48,3.6946,-8.5942,1.0549,-0.1286,-0.8077,-2.3628,rough,14.0,1,4.413
7150,228.80,3.6975,-8.5941,1.0513,-0.1349,-0.8014,-2.3555,rough,14.0,1,4.416
7160,229.12,3.7060,-8.5863,1.0408,-0.1106,-0.8097,-2.3952,rough,14.0,1,4.424
7170,229.44,3.6912,-8.5701,1.0409,-0.1019,-0.8063,-2.3750,rough,14.0,1,4.408
7180,229.76,3.6860,-8.5647,1.0413,-0.1024,-0.8053,-2.3617,rough,14.0,1,4.403
7190,230.08,3.6898,-8.5659,1.0384,-0.1176,-0.8017,-2.3431,rough,14.0,1,4.407
7200,230.40,3.7033,-8.5802,1.0383,-0.1210,-0.8063,-2.3685,rough,14.0,1,4.421
7210,230.72,3.6935,-8.5914,1.0519,-0.1149,-0.7995,-2.3809,rough,14.0,1,4.412
7220,231.04,3.6845,-8.5938,1.0620,-0.1260,-0.8042,-2.3549,rough,14.0,1,4.403
7230,231.36,3.6903,-8.5927,1.0567,-0.1294,-0.8045,-2.3551,rough,14.0,1,4.409
7240,231.68,3.6995,-8.5818,1.0414,-0.1397,-0.8006,-2.3360,rough,14.0,1,4.417
7250,232.00,3.7004,-8.5730,1.0352,-0.1154,-0.8041,-2.3667,rough,14.0,1,4.418
7260,232.32,3.6981,-8.5763,1.0398,-0.1127,-0.8065,-2.3718,rough,14.0,1,4.416
7270,232.64,3.7045,-8.5857,1.0405,-0.1229,-0.8040,-2.3734,rough,14.0,1,4.422
7280,232.96,3.6974,-8.5904,1.0492,-0.1259,-0.8034,-2.3659,rough,14.0,1,4.416
7290,233.28,3.7020,-8.5900,1.0450,-0.1218,-0.8020,-2.3771,rough,14.0,1,4.420
7300,233.60,3.6976,-8.5818,1.0436,-0.1155,-0.8050,-2.3727,rough,14.0,1,4.415
7310,233.92,3.6891,-8.5794,1.0482,-0.1080,-0.8031,-2.3731,rough,14.0,1,4.407
7320,234.24,3.6943,-8.5874,1.0500,-0.1272,-0.8044,-2.3564,rough,14.0,1,4.412
7330,234.56,3.7030,-8.5888,1.0430,-0.1270,-0.8004,-2.3687,rough,14.0,1,4.421
7340,234.88,3.7034,-8.5782,1.0364,-0.1386,-0.8035,-2.3384,rough,14.0,1,4.421
7350,235.20,3.6972,-8.5741,1.0390,-0.1107,-0.8069,-2.3719,rough,14.0,1,4.415
7360,235.52,3.6903,-8.5728,1.0432,-0.1142,-0.8046,-2.3566,rough,14.0,1,4.408
7370,235.84,3.6941,-8.5805,1.0448,-0.1252,-0.8012,-2.3523,rough,14.0,1,4.412
7380,236.16,3.7024,-8.5872,1.0423,-0.1139,-0.7999,-2.3873,rough,14.0,1,4.420
7390,236.48,3.7057,-8.5841,1.0391,-0.1267,-0.8064,-2.3668,rough,14.0,1,4.423
7400,236.80,3.6927,-8.5847,1.0496,-0.1307,-0.8050,-2.3466,rough,14.0,1,4.411
7410,237.12,3.6888,-8.5900,1.0558,-0.1204,-0.8034,-2.3646,rough,14.0,1,4.407
7420,237.44,3.6897,-8.5924,1.0571,-0.1314,-0.8047,-2.3505,rough,14.0,1,4.408
7430,237.76,3.7013,-8.5873,1.0444,-0.1364,-0.8046,-2.3500,rough,14.0,1,4.419
7440,238.08,3.6904,-8.5822,1.0493,-0.1225,-0.8038,-2.3550,rough,14.0,1,4.408
7450,238.40,3.6701,-8.5826,1.0662,-0.0982,-0.8068,-2.3708,rough,14.0,1,4.388
7460,238.72,3.6583,-8.5889,1.0795,-0.1007,-0.8052,-2.3604,rough,14.0,1,4.376
7470,239.04,3.6561,-8.5937,1.0840,-0.1233,-0.8013,-2.3268,rough,14.0,1,4.374
7480,239.36,3.6599,-8.5893,1.0785,-0.1089,-0.8050,-2.3504,rough,14.0,1,4.378
7490,239.68,3.6763,-8.5934,1.0683,-0.1201,-0.8050,-2.3545,rough,14.0,1,4.395
7500,240.00,3.7002,-8.5935,1.0497,-0.1391,-0.8056,-2.3509,rough,14.0,1,4.419
7510,240.32,3.6998,-8.5712,1.0347,-0.1232,-0.8048,-2.3516,rough,14.0,1,4.417
7520,240.64,3.6955,-8.5669,1.0347,-0.1065,-0.8032,-2.3691,rough,14.0,1,4.412
7530,240.96,3.7048,-8.5732,1.0321,-0.1246,-0.8046,-2.3563,rough,14.0,1,4.422
7540,241.28,3.7021,-8.5617,1.0254,-0.1226,-0.7994,-2.3441,rough,14.0,1,4.419
7550,241.60,3.6993,-8.5379,1.0125,-0.1254,-0.8028,-2.3100,rough,14.0,1,4.415
7560,241.92,3.7004,-8.5356,1.0098,-0.0958,-0.8037,-2.3568,rough,14.0,1,4.416
7570,242.24,3.6918,-8.5347,1.0159,-0.1011,-0.8030,-2.3373,rough,14.0,1,4.407
7580,242.56,3.6806,-8.5446,1.0316,-0.0882,-0.8040,-2.3565,rough,14.0,1,4.397
7590,242.88,3.6759,-8.5596,1.0452,-0.0953,-0.8028,-2.3567,rough,14.0,1,4.393
7600,243.20,3.6783,-8.5827,1.0591,-0.1187,-0.8028,-2.3468,rough,14.0,1,4.396
7610,243.52,3.6836,-8.5971,1.0646,-0.1162,-0.8030,-2.3736,rough,14.0,1,4.402
7620,243.84,3.6946,-8.5858,1.0487,-0.1282,-0.8044,-2.3539,rough,14.0,1,4.412
7630,244.16,3.7003,-8.5694,1.0332,-0.1306,-0.8043,-2.3377,rough,14.0,1,4.417
7640,244.48,3.6986,-8.5718,1.0364,-0.1127,-0.8068,-2.3678,rough,14.0,1,4.416
7650,244.80,3.7023,-8.5811,1.0398,-0.1183,-0.8073,-2.3729,rough,14.0,1,4.420
7660,245.12,3.6949,-8.5915,1.0526,-0.1267,-0.8065,-2.3626,rough,14.0,1,4.413
7670,245.44,3.6956,-8.5914,1.0519,-0.1268,-0.8058,-2.3629,rough,14.0,1,4.414
7680,245.76,3.7052,-8.5886,1.0423,-0.1302,-0.8056,-2.3650,rough,14.0,1,4.423
7690,246.08,3.7009,-8.5811,1.0408,-0.1209,-0.8062,-2.3668,rough,14.0,1,4.419
7700,246.40,3.7059,-8.5827,1.0380,-0.1237,-0.8068,-2.3702,rough,14.0,1,4.424
7710,246.72,3.6912,-8.5842,1.0506,-0.1141,-0.8064,-2.3706,rough,14.0,1,4.409
7720,247.04,3.6845,-8.5934,1.0614,-0.1172,-0.8035,-2.3688,rough,14.0,1,4.403
7730,247.36,3.6826,-8.5931,1.0633,-0.1363,-0.8046,-2.3355,rough,14.0,1,4.401
7740,247.68,3.6901,-8.5898,1.0552,-0.1331,-0.8053,-2.3453,rough,14.0,1,4.408
7750,248.00,3.7072,-8.5910,1.0432,-0.1274,-0.8099,-2.3747,rough,14.0,1,4.425
7760,248.32,3.6920,-8.5743,1.0427,-0.1159,-0.8038,-2.3583,rough,14.0,1,4.409
7770,248.64,3.6842,-8.5722,1.0473,-0.1109,-0.8031,-2.3548,rough,14.0,1,4.401
7780,248.96,3.6868,-8.5801,1.0510,-0.1185,-0.8049,-2.3543,rough,14.0,1,4.404
7790,249.28,3.6973,-8.5913,1.0501,-0.1412,-0.8030,-2.3415,rough,14.0,1,4.415
7800,249.60,3.7031,-8.5842,1.0407,-0.1335,-0.8032,-2.3521,rough,14.0,1,4.421
7810,249.92,3.6838,-8.5709,1.0474,-0.0985,-0.8067,-2.3726,rough,14.0,1,4.401
7820,250.24,3.6753,-8.5660,1.0505,-0.0957,-0.8054,-2.3619,rough,14.0,1,4.392
7830,250.56,3.6743,-8.5653,1.0510,-0.0922,-0.8060,-2.3656,rough,14.0,1,4.391
7840,250.88,3.6821,-8.5682,1.0469,-0.0988,-0.8062,-2.3670,rough,14.0,1,4.399
7850,251.20,3.6979,-8.5763,1.0396,-0.1210,-0.8048,-2.3578,rough,14.0,1,4.415
7860,251.52,3.7017,-8.5790,1.0400,-0.1297,-0.8114,-2.3520,rough,14.0,1,4.419
