step,time_s,x,y,z,roll,pitch,yaw,terrain,speed,target_idx,dist_to_target
10,0.32,-0.0791,1.3679,0.3183,0.1949,-0.0888,0.2147,rough,14.0,0,4.240
20,0.64,0.1371,1.4063,0.3393,0.1517,-0.1532,0.4708,rough,14.0,0,4.265
30,0.96,0.3836,1.5234,0.3672,0.1362,-0.1313,0.7133,rough,14.0,0,4.238
40,1.28,0.6324,1.7590,0.3938,0.1052,-0.0134,0.9371,rough,14.0,0,4.123
50,1.60,0.8803,2.0643,0.3552,0.2676,0.2125,1.1915,rough,14.0,0,3.974
60,1.92,1.0145,2.4218,0.2680,0.2687,0.2545,1.4530,rough,14.0,0,3.750
70,2.24,1.1168,2.6151,0.1923,0.3576,0.0261,2.1879,rough,14.0,0,3.658
80,2.56,1.1898,2.6552,0.1658,0.3163,0.0560,2.1361,rough,14.0,0,3.674
90,2.88,1.2657,2.6980,0.1442,0.2872,0.0226,2.1367,rough,14.0,0,3.691
100,3.20,1.3523,2.7534,0.1078,0.2489,0.0481,2.1428,rough,14.0,0,3.708
110,3.52,1.4218,2.7965,0.0862,0.2291,0.0375,2.1390,rough,14.0,0,3.725
120,3.84,1.4883,2.8422,0.0605,0.2348,0.0838,2.1474,rough,14.0,0,3.740
130,4.16,1.5624,2.9148,0.0374,0.2874,-0.0351,2.3547,rough,14.0,0,3.743
140,4.48,1.6892,3.0720,-0.0413,0.4153,-0.0967,2.5875,rough,14.0,0,3.734
150,4.80,1.7740,3.2053,-0.1151,0.4044,-0.2296,2.8748,rough,14.0,0,3.717
160,5.12,1.6831,3.2751,-0.1110,0.3262,-0.2648,-3.0840,rough,14.0,0,3.603
170,5.44,1.6714,3.3767,-0.0976,0.3405,-0.6725,-2.8655,rough,14.0,0,3.533
180,5.76,1.6121,3.4663,-0.1573,0.3056,-0.5230,-2.6460,rough,14.0,0,3.432
190,6.08,1.5735,3.5326,-0.1539,0.3546,-0.5985,-2.7777,rough,14.0,0,3.362
200,6.40,1.4911,3.6114,-0.1315,0.4192,-0.8494,-2.9425,rough,14.0,0,3.250
210,6.72,1.4014,3.6753,-0.1132,2.1997,-1.2327,1.4423,rough,14.0,0,3.139
220,7.04,1.3829,3.7320,-0.4724,2.8911,0.8243,0.5855,rough,14.0,0,3.092
230,7.36,1.3806,3.9590,-0.5259,2.4354,0.4437,0.0146,rough,14.0,0,2.969
240,7.68,1.1807,4.1550,-0.6408,2.4677,-0.1019,-0.4219,rough,14.0,0,2.698
250,8.00,0.9433,4.3577,-0.7622,2.6019,-0.3292,-0.6785,rough,14.0,0,2.393
260,8.32,0.7843,4.5861,-0.8591,2.7548,-0.3743,-1.2741,rough,14.0,0,2.151
270,8.64,0.7468,4.9162,-1.0080,2.7495,-0.4336,-1.4109,rough,14.0,0,2.003
280,8.96,0.7325,5.2269,-1.1508,2.7790,-0.3889,-1.5302,rough,14.0,0,1.927
290,9.28,0.8311,5.5106,-1.3169,2.9980,-0.5197,-1.9745,rough,14.0,0,2.011
300,9.60,1.0457,5.7358,-1.4729,2.9885,-0.6127,-2.5203,rough,14.0,0,2.242
310,9.92,1.1497,5.9296,-1.5260,3.1289,-0.2766,2.9343,rough,14.0,0,2.376
320,10.24,1.1697,5.9505,-1.5351,-3.0794,-0.0906,2.8635,rough,14.0,0,2.399
330,10.56,1.1620,5.9505,-1.5330,-3.1231,-0.1557,2.8635,rough,14.0,0,2.392
340,10.88,1.1203,5.9557,-1.5353,-3.0290,-0.1345,2.8538,rough,14.0,0,2.352
350,11.20,1.0524,5.9572,-1.5354,-2.9631,-0.1862,2.8749,rough,14.0,0,2.286
360,11.52,1.0662,5.9412,-1.5345,-2.9759,-0.2318,2.8316,rough,14.0,0,2.296
370,11.84,1.0555,5.9457,-1.5424,-2.9509,-0.2016,2.8287,rough,14.0,0,2.287
380,12.16,1.0546,5.9443,-1.5354,-2.9387,-0.2044,2.8413,rough,14.0,0,2.286
390,12.48,1.0654,5.9411,-1.5336,-2.9763,-0.2356,2.8573,rough,14.0,0,2.295
400,12.80,1.0614,5.9414,-1.5335,-2.9638,-0.2218,2.8376,rough,14.0,0,2.292
410,13.12,1.0611,5.9366,-1.5329,-2.9506,-0.2217,2.8616,rough,14.0,0,2.290
420,13.44,1.0574,5.9345,-1.5327,-2.9333,-0.2065,2.8388,rough,14.0,0,2.286
430,13.76,1.1463,5.9297,-1.5299,-3.0363,-0.1326,2.8703,rough,14.0,0,2.372
440,14.08,1.1819,5.9278,-1.5295,-2.9979,-0.0120,2.8932,rough,14.0,0,2.407
450,14.40,1.1334,5.9325,-1.5314,-2.9642,-0.0746,2.8828,rough,14.0,0,2.360
460,14.72,1.0395,5.9468,-1.5291,-2.9374,-0.1985,2.8533,rough,14.0,0,2.271
470,15.04,1.1121,5.9377,-1.5339,-3.0617,-0.2140,2.8497,rough,14.0,0,2.341
480,15.36,1.1725,5.9342,-1.5308,-3.0438,-0.0702,2.8763,rough,14.0,0,2.399
490,15.68,1.1764,5.9373,-1.5316,-2.9875,0.0093,2.8743,rough,14.0,0,2.403
500,16.00,1.1246,5.9423,-1.5333,-2.9829,-0.0945,2.8579,rough,14.0,0,2.354
510,16.32,1.0481,5.9541,-1.5295,-2.9398,-0.1682,2.8854,rough,14.0,0,2.281
520,16.64,1.0771,5.9455,-1.5360,-2.9884,-0.2105,2.8538,rough,14.0,0,2.308
530,16.96,1.0579,5.9477,-1.5354,-2.9379,-0.1865,2.8416,rough,14.0,0,2.290
540,17.28,1.1515,5.9423,-1.5325,-3.0441,-0.1081,2.8743,rough,14.0,0,2.380
550,17.60,1.1941,5.9388,-1.5316,-3.0251,0.0151,2.8500,rough,14.0,0,2.421
560,17.92,1.1582,5.9428,-1.5330,-3.0016,-0.0324,2.8434,rough,14.0,0,2.387
570,18.24,1.0593,5.9527,-1.5368,-2.9322,-0.1744,2.8619,rough,14.0,0,2.292
580,18.56,1.1090,5.9521,-1.5352,-2.9993,-0.1266,2.8262,rough,14.0,0,2.340
590,18.88,1.1577,5.9466,-1.5336,-3.0203,-0.0488,2.8447,rough,14.0,0,2.387
600,19.20,1.1317,5.9494,-1.5344,-3.0081,-0.0896,2.8382,rough,14.0,0,2.362
610,19.52,1.0542,5.9585,-1.5357,-2.9319,-0.1811,2.8169,rough,14.0,0,2.288
620,19.84,1.0602,5.9447,-1.5360,-2.9535,-0.2025,2.8518,rough,14.0,0,2.291
630,20.16,1.0592,5.9443,-1.5348,-2.9429,-0.1979,2.8457,rough,14.0,0,2.290
640,20.48,1.0719,5.9442,-1.5344,-2.9573,-0.1858,2.8470,rough,14.0,0,2.302
650,20.80,1.0574,5.9396,-1.5340,-2.9337,-0.1992,2.8399,rough,14.0,0,2.287
660,21.12,1.0604,5.9345,-1.5327,-2.9545,-0.2327,2.8512,rough,14.0,0,2.289
670,21.44,1.0564,5.9356,-1.5323,-2.9447,-0.2175,2.8192,rough,14.0,0,2.286
680,21.76,1.0619,5.9342,-1.5332,-2.9454,-0.2123,2.8349,rough,14.0,0,2.291
690,22.08,1.0647,5.9316,-1.5321,-2.9462,-0.2177,2.8633,rough,14.0,0,2.293
700,22.40,1.0771,5.9319,-1.5317,-2.9606,-0.2012,2.8519,rough,14.0,0,2.305
710,22.72,1.0576,5.9336,-1.5336,-2.9541,-0.2472,2.8476,rough,14.0,0,2.286
720,23.04,1.0592,5.9327,-1.5339,-2.9247,-0.2005,2.8281,rough,14.0,0,2.288
730,23.36,1.0699,5.9270,-1.5314,-2.9416,-0.2056,2.8514,rough,14.0,0,2.297
740,23.68,1.0804,5.9274,-1.5318,-2.9622,-0.2055,2.8301,rough,14.0,0,2.307
750,24.00,1.1483,5.9193,-1.5280,-3.0140,-0.1143,2.8494,rough,14.0,0,2.372
760,24.32,1.1388,5.9214,-1.5293,-2.9594,-0.0707,2.8569,rough,14.0,0,2.363
770,24.64,1.0430,5.9334,-1.5289,-2.9225,-0.2055,2.8326,rough,14.0,0,2.272
780,24.96,1.0663,5.9439,-1.5347,-2.9522,-0.1900,2.8276,rough,14.0,0,2.297
790,25.28,1.0790,5.9493,-1.5350,-2.9693,-0.1723,2.8452,rough,14.0,0,2.311
800,25.60,1.1068,5.9460,-1.5337,-3.0008,-0.1505,2.8523,rough,14.0,0,2.337
810,25.92,1.0661,5.9517,-1.5362,-2.9485,-0.1749,2.8435,rough,14.0,0,2.298
820,26.24,1.0743,5.9475,-1.5375,-2.9522,-0.1746,2.8246,rough,14.0,0,2.306
830,26.56,1.0603,5.9455,-1.5353,-2.9393,-0.1932,2.8548,rough,14.0,0,2.291
840,26.88,1.0652,5.9409,-1.5337,-2.9796,-0.2421,2.8579,rough,14.0,0,2.295
850,27.20,1.0583,5.9417,-1.5343,-2.9483,-0.2124,2.8379,rough,14.0,0,2.289
860,27.52,1.0555,5.9418,-1.5337,-2.9389,-0.2022,2.8371,rough,14.0,0,2.286
870,27.84,1.0612,5.9364,-1.5331,-2.9505,-0.2223,2.8535,rough,14.0,0,2.290
880,28.16,1.0592,5.9315,-1.5342,-2.9320,-0.2124,2.8048,rough,14.0,0,2.287
890,28.48,1.0551,5.9307,-1.5319,-2.9249,-0.2073,2.8377,rough,14.0,0,2.283
900,28.80,1.0643,5.9294,-1.5319,-2.9386,-0.2158,2.8680,rough,14.0,0,2.292
910,29.12,1.0963,5.9290,-1.5319,-2.9835,-0.1968,2.8566,rough,14.0,0,2.323
920,29.44,1.1949,5.9209,-1.5280,-3.0188,-0.0154,2.8819,rough,14.0,0,2.418
930,29.76,1.2010,5.9199,-1.5274,-3.0462,-0.0344,2.8824,rough,14.0,0,2.424
940,30.08,1.1967,5.9203,-1.5275,-3.0443,-0.0414,2.8821,rough,14.0,0,2.420
950,30.40,1.1905,5.9207,-1.5276,-3.0478,-0.0588,2.8805,rough,14.0,0,2.414
960,30.72,1.1615,5.9247,-1.5295,-2.9596,-0.0179,2.8834,rough,14.0,0,2.386
970,31.04,1.0542,5.9356,-1.5338,-2.9151,-0.1959,2.8504,rough,14.0,0,2.283
980,31.36,1.0719,5.9456,-1.5342,-2.9804,-0.2124,2.8479,rough,14.0,0,2.303
990,31.68,1.1159,5.9410,-1.5323,-3.0187,-0.1611,2.8638,rough,14.0,0,2.345
1000,32.00,1.0625,5.9472,-1.5354,-2.9428,-0.1880,2.8542,rough,14.0,0,2.294
1010,32.32,1.0994,5.9528,-1.5357,-2.9922,-0.1407,2.8244,rough,14.0,0,2.331
1020,32.64,1.1687,5.9448,-1.5330,-3.0342,-0.0432,2.8482,rough,14.0,0,2.397
1030,32.96,1.1670,5.9448,-1.5329,-3.0399,-0.0541,2.8480,rough,14.0,0,2.396
1040,33.28,1.1124,5.9511,-1.5351,-2.9942,-0.1158,2.8351,rough,14.0,0,2.344
1050,33.60,1.0534,5.9529,-1.5373,-2.9583,-0.2005,2.8150,rough,14.0,0,2.286
1060,33.92,1.0632,5.9421,-1.5344,-2.9564,-0.2152,2.8630,rough,14.0,0,2.294
1070,34.24,1.0577,5.9372,-1.5328,-2.9702,-0.2467,2.8262,rough,14.0,0,2.287
1080,34.56,1.0823,5.9352,-1.5323,-2.9675,-0.1858,2.8324,rough,14.0,0,2.311
1090,34.88,1.0506,5.9390,-1.5328,-2.9304,-0.2032,2.8273,rough,14.0,0,2.281
1100,35.20,1.1214,5.9396,-1.5324,-3.0352,-0.1697,2.8445,rough,14.0,0,2.350
1110,35.52,1.1481,5.9369,-1.5315,-3.0267,-0.1000,2.8577,rough,14.0,0,2.376
1120,35.84,1.1118,5.9412,-1.5330,-2.9906,-0.1345,2.8499,rough,14.0,0,2.341
1130,36.16,1.0532,5.9547,-1.5368,-2.9393,-0.1915,2.8161,rough,14.0,0,2.286
1140,36.48,1.0689,5.9504,-1.5359,-2.9541,-0.1780,2.8518,rough,14.0,0,2.301
1150,36.80,1.0603,5.9521,-1.5370,-2.9485,-0.1879,2.8275,rough,14.0,0,2.293
1160,37.12,1.0750,5.9489,-1.5352,-2.9646,-0.1825,2.8651,rough,14.0,0,2.307
1170,37.44,1.0579,5.9493,-1.5367,-2.9270,-0.1701,2.8240,rough,14.0,0,2.290
1180,37.76,1.0835,5.9448,-1.5346,-2.9665,-0.1703,2.8549,rough,14.0,0,2.314
1190,38.08,1.0560,5.9484,-1.5359,-2.9369,-0.1946,2.8519,rough,14.0,0,2.288
1200,38.40,1.1325,5.9475,-1.5334,-3.0285,-0.1220,2.8690,rough,14.0,0,2.363
1210,38.72,1.1994,5.9403,-1.5318,-3.0284,0.0282,2.8461,rough,14.0,0,2.427
1220,39.04,1.1864,5.9430,-1.5326,-3.0063,0.0262,2.8528,rough,14.0,0,2.414
1230,39.36,1.1016,5.9521,-1.5358,-2.9718,-0.1116,2.8294,rough,14.0,0,2.333
1240,39.68,1.0632,5.9481,-1.5344,-2.9635,-0.1992,2.8588,rough,14.0,0,2.295
1250,40.00,1.0748,5.9511,-1.5361,-2.9609,-0.1695,2.8387,rough,14.0,0,2.307
1260,40.32,1.0666,5.9510,-1.5362,-2.9733,-0.2076,2.8389,rough,14.0,0,2.299
1270,40.64,1.0555,5.9491,-1.5364,-2.9303,-0.1794,2.8223,rough,14.0,0,2.287
1280,40.96,1.1385,5.9450,-1.5332,-3.0416,-0.1242,2.8444,rough,14.0,0,2.368
1290,41.28,1.1911,5.9406,-1.5319,-3.0178,0.0145,2.8696,rough,14.0,0,2.419
1300,41.60,1.1641,5.9431,-1.5328,-3.0012,-0.0227,2.8654,rough,14.0,0,2.393
1310,41.92,1.0777,5.9526,-1.5362,-2.9539,-0.1505,2.8411,rough,14.0,0,2.310
1320,42.24,1.0857,5.9535,-1.5354,-3.0017,-0.1844,2.8492,rough,14.0,0,2.318
1330,42.56,1.1825,5.9432,-1.5319,-3.0838,-0.0787,2.8805,rough,14.0,0,2.411
1340,42.88,1.2526,5.9351,-1.5302,-3.0735,0.0867,2.8572,rough,14.0,0,2.478
1350,43.20,1.3117,5.9289,-1.5281,-3.0798,0.1998,2.8748,rough,14.0,0,2.535
1360,43.52,1.3911,5.9063,-1.5413,2.9952,0.0344,2.9095,rough,14.0,0,2.609
1370,43.84,1.4855,5.8926,-1.5514,2.9989,0.2330,2.8748,rough,14.0,0,2.700
1380,44.16,1.4821,5.9060,-1.5502,2.9813,0.2167,2.9035,rough,14.0,0,2.698
1390,44.48,1.4473,5.9017,-1.5613,2.9990,0.2706,2.8927,rough,14.0,0,2.663
1400,44.80,1.4524,5.9011,-1.5518,2.9875,0.1885,2.9016,rough,14.0,0,2.668
1410,45.12,1.5042,5.8980,-1.5478,2.9905,0.2187,2.8863,rough,14.0,0,2.719
1420,45.44,1.4810,5.9105,-1.5501,2.9797,0.2241,2.9015,rough,14.0,0,2.698
1430,45.76,1.4893,5.9172,-1.5473,2.9833,0.2412,2.9205,rough,14.0,0,2.707
1440,46.08,1.4740,5.9250,-1.5519,2.9664,0.2475,2.9120,rough,14.0,0,2.694
1450,46.40,1.4482,5.9226,-1.5590,2.9666,0.2507,2.8571,rough,14.0,0,2.668
1460,46.72,1.4747,5.9282,-1.5493,2.9686,0.2426,2.9213,rough,14.0,0,2.695
1470,47.04,1.4799,5.9351,-1.5486,2.9581,0.2441,2.9134,rough,14.0,0,2.701
1480,47.36,1.4955,5.9439,-1.5469,2.9485,0.2569,2.9086,rough,14.0,0,2.718
1490,47.68,1.4886,5.9477,-1.5499,2.9398,0.2540,2.8512,rough,14.0,0,2.712
1500,48.00,1.4048,5.9567,-1.5501,2.9036,0.1203,2.8623,rough,14.0,0,2.631
1510,48.32,1.4359,5.9562,-1.5487,2.9271,0.1846,2.8755,rough,14.0,0,2.662
1520,48.64,1.5281,5.9501,-1.5406,2.9296,0.2370,2.9117,rough,14.0,0,2.751
1530,48.96,1.4869,5.9498,-1.5473,2.9293,0.2353,2.9156,rough,14.0,0,2.711
1540,49.28,1.4726,5.9675,-1.5525,2.8870,0.2197,2.8550,rough,14.0,0,2.700
1550,49.60,1.4721,5.9736,-1.5500,2.8935,0.2280,2.8634,rough,14.0,0,2.701
1560,49.92,1.4733,5.9752,-1.5502,2.8796,0.2217,2.9007,rough,14.0,0,2.702
1570,50.24,1.4728,5.9765,-1.5487,2.8818,0.2095,2.8698,rough,14.0,0,2.702
1580,50.56,1.4691,5.9779,-1.5497,2.8765,0.2142,2.8946,rough,14.0,0,2.698
1590,50.88,1.4733,5.9741,-1.5501,2.8937,0.2429,2.9105,rough,14.0,0,2.702
1600,51.20,1.4772,5.9705,-1.5507,2.8900,0.2261,2.8598,rough,14.0,0,2.705
1610,51.52,1.4551,5.9702,-1.5494,2.8957,0.2051,2.8961,rough,14.0,0,2.683
1620,51.84,1.4866,5.9648,-1.5482,2.9066,0.2399,2.8970,rough,14.0,0,2.713
1630,52.16,1.4884,5.9613,-1.5467,2.9090,0.2291,2.9144,rough,14.0,0,2.714
1640,52.48,1.4652,5.9669,-1.5524,2.9045,0.2363,2.8561,rough,14.0,0,2.692
1650,52.80,1.4743,5.9723,-1.5515,2.8773,0.2198,2.8898,rough,14.0,0,2.702
1660,53.12,1.4418,5.9739,-1.5476,2.8855,0.1685,2.8948,rough,14.0,0,2.671
1670,53.44,1.4929,5.9704,-1.5481,2.8916,0.2385,2.8998,rough,14.0,0,2.720
1680,53.76,1.4754,5.9603,-1.5491,2.9157,0.2389,2.9099,rough,14.0,0,2.701
1690,54.08,1.4402,5.9643,-1.5485,2.8996,0.1727,2.9019,rough,14.0,0,2.667
1700,54.40,1.4550,5.9559,-1.5507,2.9236,0.2175,2.8780,rough,14.0,0,2.680
1710,54.72,1.4963,5.9626,-1.5467,2.8940,0.2151,2.8956,rough,14.0,0,2.722
1720,55.04,1.4709,5.9707,-1.5512,2.9068,0.2596,2.8963,rough,14.0,0,2.699
1730,55.36,1.4733,5.9710,-1.5534,2.8861,0.2358,2.8548,rough,14.0,0,2.701
1740,55.68,1.4643,5.9717,-1.5493,2.8948,0.2083,2.8578,rough,14.0,0,2.693
1750,56.00,1.4866,5.9717,-1.5489,2.8941,0.2463,2.9108,rough,14.0,0,2.714
1760,56.32,1.4777,5.9708,-1.5505,2.8830,0.2212,2.8900,rough,14.0,0,2.705
1770,56.64,1.4781,5.9703,-1.5472,2.9033,0.2328,2.9139,rough,14.0,0,2.706
1780,56.96,1.4771,5.9717,-1.5555,2.8705,0.2402,2.8834,rough,14.0,0,2.705
1790,57.28,1.4687,5.9744,-1.5512,2.8790,0.2180,2.8904,rough,14.0,0,2.697
1800,57.60,1.4198,5.9714,-1.5449,2.8939,0.1205,2.8594,rough,14.0,0,2.649
1810,57.92,1.4662,5.9731,-1.5500,2.8852,0.2150,2.9007,rough,14.0,0,2.695
1820,58.24,1.5147,5.9644,-1.5438,2.8906,0.2143,2.8921,rough,14.0,0,2.741
1830,58.56,1.4606,5.9606,-1.5488,2.9274,0.2284,2.8786,rough,14.0,0,2.687
1840,58.88,1.4485,5.9619,-1.5490,2.9038,0.1865,2.8977,rough,14.0,0,2.675
1850,59.20,1.4920,5.9569,-1.5465,2.9145,0.2302,2.9137,rough,14.0,0,2.717
1860,59.52,1.4637,5.9616,-1.5507,2.9108,0.2344,2.9228,rough,14.0,0,2.690
1870,59.84,1.3577,5.9695,-1.5448,2.9138,0.0216,2.8846,rough,14.0,0,2.588
1880,60.16,1.3429,5.9615,-1.5500,2.9640,-0.0138,2.8462,rough,14.0,0,2.571
1890,60.48,1.4746,5.9438,-1.5516,2.9497,0.2477,2.9002,rough,14.0,0,2.698
1900,60.80,1.5011,5.9439,-1.5477,2.9306,0.2330,2.8766,rough,14.0,0,2.724
1910,61.12,1.4737,5.9536,-1.5506,2.9421,0.2613,2.8610,rough,14.0,0,2.698
1920,61.44,1.4622,5.9578,-1.5502,2.9114,0.2115,2.8868,rough,14.0,0,2.688
1930,61.76,1.4793,5.9532,-1.5490,2.9229,0.2354,2.9131,rough,14.0,0,2.704
1940,62.08,1.4623,5.9514,-1.5489,2.9157,0.1951,2.9004,rough,14.0,0,2.687
1950,62.40,1.4818,5.9523,-1.5478,2.9421,0.2594,2.9125,rough,14.0,0,2.706
1960,62.72,1.4516,5.9507,-1.5553,2.8994,0.1963,2.8759,rough,14.0,0,2.676
1970,63.04,1.5001,5.9548,-1.5476,2.9114,0.2276,2.8656,rough,14.0,0,2.725
1980,63.36,1.4383,5.9631,-1.5506,2.9068,0.1866,2.8743,rough,14.0,0,2.665
1990,63.68,1.3730,5.9634,-1.5432,2.9046,0.0625,2.8944,rough,14.0,0,2.601
2000,64.00,1.3193,5.9622,-1.5400,3.0314,0.0733,2.8615,rough,14.0,0,2.548
2010,64.32,1.2472,5.9662,-1.5371,3.0768,-0.0243,2.8590,rough,14.0,0,2.479
2020,64.64,1.1360,5.9730,-1.5355,3.0713,-0.2717,2.8424,rough,14.0,0,2.371
2030,64.96,1.0936,5.9662,-1.5433,-3.0744,-0.1944,2.8661,rough,14.0,0,2.328
2040,65.28,1.0819,5.9695,-1.5348,-3.0301,-0.2124,2.8095,rough,14.0,0,2.318
2050,65.60,1.0916,5.9613,-1.5364,-3.0439,-0.2045,2.8374,rough,14.0,0,2.325
2060,65.92,1.0843,5.9617,-1.5372,-2.9895,-0.1657,2.8663,rough,14.0,0,2.318
2070,66.24,1.0588,5.9633,-1.5378,-2.9724,-0.1961,2.8252,rough,14.0,0,2.294
2080,66.56,1.0613,5.9660,-1.5380,-2.9575,-0.1745,2.8323,rough,14.0,0,2.297
2090,66.88,1.0701,5.9542,-1.5361,-2.9812,-0.1998,2.8498,rough,14.0,0,2.303
2100,67.20,1.0628,5.9512,-1.5372,-2.9762,-0.2247,2.8245,rough,14.0,0,2.295
2110,67.52,1.0648,5.9513,-1.5363,-2.9497,-0.1792,2.8340,rough,14.0,0,2.297
2120,67.84,1.0980,5.9498,-1.5355,-2.9866,-0.1569,2.8711,rough,14.0,0,2.329
2130,68.16,1.1627,5.9435,-1.5329,-3.0241,-0.0479,2.8464,rough,14.0,0,2.391
2140,68.48,1.1524,5.9444,-1.5331,-3.0249,-0.0705,2.8437,rough,14.0,0,2.381
2150,68.80,1.0863,5.9521,-1.5358,-2.9719,-0.1491,2.8277,rough,14.0,0,2.318
2160,69.12,1.0733,5.9560,-1.5387,-2.9637,-0.1729,2.8420,rough,14.0,0,2.306
2170,69.44,1.0994,5.9514,-1.5357,-2.9900,-0.1464,2.8627,rough,14.0,0,2.331
2180,69.76,1.0676,5.9551,-1.5369,-2.9509,-0.1706,2.8565,rough,14.0,0,2.301
2190,70.08,1.0948,5.9533,-1.5363,-2.9787,-0.1390,2.8665,rough,14.0,0,2.327
2200,70.40,1.1417,5.9483,-1.5335,-3.0443,-0.1192,2.8774,rough,14.0,0,2.372
2210,70.72,1.1231,5.9505,-1.5346,-3.0123,-0.1110,2.8294,rough,14.0,0,2.354
2220,71.04,1.0463,5.9580,-1.5323,-2.9165,-0.1706,2.7920,rough,14.0,0,2.280
2230,71.36,1.0803,5.9498,-1.5368,-2.9784,-0.1781,2.8347,rough,14.0,0,2.312
2240,71.68,1.0556,5.9534,-1.5410,-2.9319,-0.2017,2.8435,rough,14.0,0,2.289
2250,72.00,1.0758,5.9531,-1.5364,-2.9630,-0.1633,2.8330,rough,14.0,0,2.308
2260,72.32,1.0723,5.9564,-1.5369,-2.9592,-0.1616,2.8374,rough,14.0,0,2.305
2270,72.64,1.0607,5.9571,-1.5375,-2.9421,-0.1696,2.8422,rough,14.0,0,2.294
2280,72.96,1.0655,5.9520,-1.5367,-2.9511,-0.1790,2.8363,rough,14.0,0,2.298
2290,73.28,1.0655,5.9508,-1.5360,-2.9513,-0.1779,2.8303,rough,14.0,0,2.298
2300,73.60,1.0675,5.9538,-1.5373,-2.9506,-0.1798,2.8688,rough,14.0,0,2.300
2310,73.92,1.0623,5.9527,-1.5359,-2.9418,-0.1820,2.8619,rough,14.0,0,2.295
2320,74.24,1.0916,5.9480,-1.5351,-2.9838,-0.1568,2.8391,rough,14.0,0,2.323
2330,74.56,1.0570,5.9477,-1.5374,-2.9226,-0.1793,2.8398,rough,14.0,0,2.289
2340,74.88,1.0554,5.9462,-1.5355,-2.9322,-0.1880,2.8295,rough,14.0,0,2.287
2350,75.20,1.0898,5.9437,-1.5340,-2.9802,-0.1682,2.8325,rough,14.0,0,2.320
2360,75.52,1.0720,5.9463,-1.5350,-2.9556,-0.1765,2.8327,rough,14.0,0,2.303
2370,75.84,1.0639,5.9497,-1.5357,-2.9526,-0.1878,2.8420,rough,14.0,0,2.296
2380,76.16,1.0647,5.9484,-1.5355,-2.9477,-0.1813,2.8366,rough,14.0,0,2.296
2390,76.48,1.0657,5.9472,-1.5354,-2.9460,-0.1778,2.8313,rough,14.0,0,2.297
2400,76.80,1.0701,5.9440,-1.5344,-2.9529,-0.1899,2.8670,rough,14.0,0,2.301
2410,77.12,1.0598,5.9422,-1.5343,-2.9431,-0.2014,2.8452,rough,14.0,0,2.290
2420,77.44,1.0606,5.9408,-1.5341,-2.9428,-0.2006,2.8372,rough,14.0,0,2.291
2430,77.76,1.1198,5.9375,-1.5321,-3.0163,-0.1527,2.8396,rough,14.0,0,2.348
2440,78.08,1.1813,5.9303,-1.5296,-3.0581,-0.0701,2.8590,rough,14.0,0,2.407
2450,78.40,1.2026,5.9314,-1.5300,-3.0226,0.0231,2.8583,rough,14.0,0,2.428
2460,78.72,1.1731,5.9351,-1.5313,-2.9840,0.0066,2.8559,rough,14.0,0,2.400
2470,79.04,1.0837,5.9447,-1.5347,-2.9532,-0.1468,2.8294,rough,14.0,0,2.314
2480,79.36,1.0748,5.9477,-1.5371,-2.9705,-0.1920,2.8090,rough,14.0,0,2.306
2490,79.68,1.1095,5.9426,-1.5332,-3.0022,-0.1568,2.8677,rough,14.0,0,2.339
2500,80.00,1.0798,5.9460,-1.5345,-2.9660,-0.1777,2.8621,rough,14.0,0,2.311
2510,80.32,1.0601,5.9463,-1.5351,-2.9596,-0.2157,2.8462,rough,14.0,0,2.291
2520,80.64,1.0641,5.9404,-1.5344,-2.9464,-0.1985,2.8351,rough,14.0,0,2.294
2530,80.96,1.0580,5.9396,-1.5321,-2.9340,-0.1934,2.8656,rough,14.0,0,2.288
2540,81.28,1.0596,5.9425,-1.5343,-2.9474,-0.2103,2.8581,rough,14.0,0,2.290
2550,81.60,1.0626,5.9426,-1.5344,-2.9443,-0.2000,2.8630,rough,14.0,0,2.293
2560,81.92,1.1121,5.9397,-1.5330,-3.0050,-0.1602,2.8595,rough,14.0,0,2.341
2570,82.24,1.1792,5.9324,-1.5300,-3.0606,-0.0794,2.8795,rough,14.0,0,2.405
2580,82.56,1.2057,5.9328,-1.5301,-3.0273,0.0214,2.8807,rough,14.0,0,2.431
2590,82.88,1.1829,5.9354,-1.5310,-2.9972,0.0086,2.8790,rough,14.0,0,2.409
2600,83.20,1.1040,5.9433,-1.5339,-2.9684,-0.1243,2.8561,rough,14.0,0,2.334
2610,83.52,1.0503,5.9486,-1.5334,-2.9352,-0.1921,2.7998,rough,14.0,0,2.282
2620,83.84,1.0874,5.9447,-1.5346,-2.9777,-0.1709,2.8479,rough,14.0,0,2.318
2630,84.16,1.0603,5.9464,-1.5367,-2.9132,-0.1574,2.8347,rough,14.0,0,2.292
2640,84.48,1.0941,5.9448,-1.5339,-2.9833,-0.1592,2.8402,rough,14.0,0,2.324
2650,84.80,1.0654,5.9487,-1.5356,-2.9500,-0.1827,2.8377,rough,14.0,0,2.297
2660,85.12,1.0665,5.9426,-1.5344,-2.9585,-0.2030,2.8360,rough,14.0,0,2.297
2670,85.44,1.0620,5.9429,-1.5338,-2.9520,-0.2109,2.8780,rough,14.0,0,2.293
2680,85.76,1.1565,5.9345,-1.5310,-3.0401,-0.0989,2.8482,rough,14.0,0,2.383
2690,86.08,1.1860,5.9332,-1.5306,-3.0050,0.0049,2.8703,rough,14.0,0,2.412
2700,86.40,1.1367,5.9385,-1.5325,-2.9787,-0.0676,2.8588,rough,14.0,0,2.365
2710,86.72,1.0415,5.9469,-1.5311,-2.9161,-0.1653,2.8127,rough,14.0,0,2.273
2720,87.04,1.0681,5.9380,-1.5349,-2.9501,-0.2029,2.8388,rough,14.0,0,2.297
2730,87.36,1.0630,5.9375,-1.5335,-2.9421,-0.1984,2.8327,rough,14.0,0,2.292
2740,87.68,1.0633,5.9367,-1.5370,-2.9310,-0.2035,2.8159,rough,14.0,0,2.293
2750,88.00,1.0638,5.9342,-1.5332,-2.9321,-0.1950,2.8460,rough,14.0,0,2.292
2760,88.32,1.0617,5.9279,-1.5319,-2.9574,-0.2434,2.8273,rough,14.0,0,2.289
2770,88.64,1.0760,5.9401,-1.5338,-2.9627,-0.1901,2.8376,rough,14.0,0,2.306
2780,88.96,1.0586,5.9396,-1.5334,-2.9553,-0.2254,2.8486,rough,14.0,0,2.289
2790,89.28,1.0627,5.9399,-1.5339,-2.9446,-0.2039,2.8558,rough,14.0,0,2.293
2800,89.60,1.1151,5.9417,-1.5332,-3.0042,-0.1475,2.8595,rough,14.0,0,2.344
2810,89.92,1.1949,5.9340,-1.5306,-3.0016,0.0253,2.8898,rough,14.0,0,2.421
2820,90.24,1.1847,5.9357,-1.5310,-3.0009,0.0058,2.8908,rough,14.0,0,2.411
2830,90.56,1.1144,5.9427,-1.5334,-2.9794,-0.1167,2.8699,rough,14.0,0,2.344
2840,90.88,1.0510,5.9536,-1.5366,-2.9595,-0.1904,2.8466,rough,14.0,0,2.284
2850,91.20,1.0710,5.9476,-1.5353,-2.9587,-0.1859,2.8566,rough,14.0,0,2.302
2860,91.52,1.0948,5.9517,-1.5359,-2.9758,-0.1448,2.8604,rough,14.0,0,2.326
2870,91.84,1.1831,5.9420,-1.5318,-3.0696,-0.0647,2.8835,rough,14.0,0,2.411
2880,92.16,1.2103,5.9394,-1.5315,-3.0472,0.0276,2.8533,rough,14.0,0,2.437
2890,92.48,1.1690,5.9446,-1.5332,-2.9958,0.0014,2.8482,rough,14.0,0,2.398
2900,92.80,1.0659,5.9537,-1.5368,-2.9375,-0.1633,2.8648,rough,14.0,0,2.299
2910,93.12,1.0805,5.9528,-1.5360,-2.9725,-0.1633,2.8385,rough,14.0,0,2.313
2920,93.44,1.0984,5.9507,-1.5350,-2.9907,-0.1480,2.8437,rough,14.0,0,2.330
2930,93.76,1.0545,5.9619,-1.5413,-2.9509,-0.2094,2.8527,rough,14.0,0,2.289
2940,94.08,1.0631,5.9640,-1.5386,-2.9976,-0.2153,2.8630,rough,14.0,0,2.298
2950,94.40,1.0974,5.9582,-1.5381,-3.0334,-0.1746,2.8563,rough,14.0,0,2.330
2960,94.72,1.1136,5.9580,-1.5363,-3.0110,-0.1185,2.8324,rough,14.0,0,2.346
2970,95.04,1.0817,5.9605,-1.5369,-3.0506,-0.2365,2.8570,rough,14.0,0,2.316
2980,95.36,1.0612,5.9550,-1.5388,-2.9745,-0.1993,2.8686,rough,14.0,0,2.294
2990,95.68,1.0989,5.9520,-1.5351,-3.0006,-0.1584,2.8566,rough,14.0,0,2.331
3000,96.00,1.0905,5.9531,-1.5357,-2.9772,-0.1500,2.8575,rough,14.0,0,2.323
3010,96.32,1.0574,5.9643,-1.5389,-3.0057,-0.2412,2.8719,rough,14.0,0,2.293
3020,96.64,1.1084,5.9593,-1.5363,-3.0127,-0.1355,2.8527,rough,14.0,0,2.341
3030,96.96,1.1209,5.9608,-1.5366,-3.0202,-0.1113,2.8483,rough,14.0,0,2.354
3040,97.28,1.0864,5.9616,-1.5374,-3.0022,-0.1731,2.8679,rough,14.0,0,2.320
3050,97.60,1.0557,5.9630,-1.5371,-2.9829,-0.2179,2.8070,rough,14.0,0,2.291
3060,97.92,1.0918,5.9608,-1.5370,-2.9928,-0.1462,2.8433,rough,14.0,0,2.325
3070,98.24,1.0987,5.9657,-1.5364,-3.0727,-0.2113,2.8170,rough,14.0,0,2.333
3080,98.56,1.0969,5.9647,-1.5370,-3.0232,-0.1614,2.8159,rough,14.0,0,2.331
3090,98.88,1.0903,5.9613,-1.5370,-3.0021,-0.1666,2.8673,rough,14.0,0,2.324
3100,99.20,1.0582,5.9659,-1.5377,-2.9561,-0.1805,2.8347,rough,14.0,0,2.294
3110,99.52,1.0977,5.9590,-1.5361,-3.0425,-0.1919,2.8425,rough,14.0,0,2.331
3120,99.84,1.1210,5.9584,-1.5361,-3.0195,-0.1146,2.8502,rough,14.0,0,2.354
3130,100.16,1.0965,5.9614,-1.5372,-2.9899,-0.1328,2.8460,rough,14.0,0,2.330
3140,100.48,1.0581,5.9586,-1.5386,-2.9952,-0.2241,2.8774,rough,14.0,0,2.292
3150,100.80,1.1198,5.9523,-1.5352,-3.0198,-0.1256,2.8330,rough,14.0,0,2.351
3160,101.12,1.0956,5.9554,-1.5361,-2.9894,-0.1415,2.8295,rough,14.0,0,2.328
3170,101.44,1.0636,5.9510,-1.5415,-3.0109,-0.2205,2.8478,rough,14.0,0,2.296
3180,101.76,1.0596,5.9532,-1.5409,-2.9478,-0.2084,2.8337,rough,14.0,0,2.292
3190,102.08,1.0739,5.9498,-1.5358,-2.9648,-0.1762,2.8274,rough,14.0,0,2.306
3200,102.40,1.0580,5.9502,-1.5371,-2.9384,-0.1893,2.8397,rough,14.0,0,2.290
3210,102.72,1.0593,5.9504,-1.5370,-2.9369,-0.1800,2.8288,rough,14.0,0,2.292
3220,103.04,1.0567,5.9496,-1.5362,-2.9399,-0.1875,2.8238,rough,14.0,0,2.289
3230,103.36,1.0618,5.9464,-1.5350,-2.9488,-0.1993,2.8615,rough,14.0,0,2.293
3240,103.68,1.0597,5.9471,-1.5354,-2.9411,-0.1952,2.8641,rough,14.0,0,2.291
3250,104.00,1.0601,5.9443,-1.5347,-2.9447,-0.1999,2.8498,rough,14.0,0,2.291
3260,104.32,1.0660,5.9427,-1.5342,-2.9508,-0.1948,2.8464,rough,14.0,0,2.296
3270,104.64,1.0631,5.9421,-1.5345,-2.9372,-0.1847,2.8366,rough,14.0,0,2.293
3280,104.96,1.0616,5.9391,-1.5338,-2.9393,-0.2037,2.8665,rough,14.0,0,2.291
3290,105.28,1.0659,5.9353,-1.5328,-2.9457,-0.2040,2.8496,rough,14.0,0,2.295
3300,105.60,1.1040,5.9324,-1.5318,-2.9946,-0.1768,2.8375,rough,14.0,0,2.331
3310,105.92,1.1812,5.9245,-1.5290,-2.9996,-0.0149,2.8678,rough,14.0,0,2.406
3320,106.24,1.1712,5.9267,-1.5297,-2.9744,-0.0069,2.8755,rough,14.0,0,2.396
3330,106.56,1.0923,5.9347,-1.5325,-2.9553,-0.1514,2.8495,rough,14.0,0,2.321
3340,106.88,1.0594,5.9461,-1.5371,-2.9480,-0.2160,2.7916,rough,14.0,0,2.291
3350,107.20,1.1129,5.9438,-1.5334,-3.0076,-0.1511,2.8741,rough,14.0,0,2.343
3360,107.52,1.0946,5.9460,-1.5341,-2.9847,-0.1651,2.8696,rough,14.0,0,2.325
3370,107.84,1.0603,5.9521,-1.5374,-2.9333,-0.1707,2.8333,rough,14.0,0,2.293
3380,108.16,1.0625,5.9503,-1.5395,-2.9444,-0.1947,2.8123,rough,14.0,0,2.295
3390,108.48,1.0880,5.9495,-1.5351,-2.9786,-0.1650,2.8560,rough,14.0,0,2.319
3400,108.80,1.0777,5.9508,-1.5356,-2.9640,-0.1696,2.8558,rough,14.0,0,2.310
3410,109.12,1.0671,5.9560,-1.5425,-3.0029,-0.2203,2.8890,rough,14.0,0,2.300
3420,109.44,1.1416,5.9499,-1.5342,-3.0472,-0.1103,2.8405,rough,14.0,0,2.372
3430,109.76,1.1693,5.9470,-1.5333,-3.0450,-0.0515,2.8525,rough,14.0,0,2.398
3440,110.08,1.1340,5.9512,-1.5347,-3.0097,-0.0847,2.8452,rough,14.0,0,2.365
3450,110.40,1.0503,5.9608,-1.5339,-2.9411,-0.1784,2.8327,rough,14.0,0,2.285
3460,110.72,1.0668,5.9506,-1.5362,-2.9528,-0.1827,2.8565,rough,14.0,0,2.299
3470,111.04,1.0622,5.9484,-1.5368,-2.9273,-0.1737,2.8623,rough,14.0,0,2.294
3480,111.36,1.0559,5.9452,-1.5352,-2.9415,-0.2039,2.8392,rough,14.0,0,2.287
3490,111.68,1.0512,5.9455,-1.5322,-2.9618,-0.2267,2.8488,rough,14.0,0,2.282
3500,112.00,1.0609,5.9363,-1.5331,-2.9678,-0.2419,2.8321,rough,14.0,0,2.290
3510,112.32,1.0741,5.9318,-1.5319,-2.9572,-0.2096,2.8699,rough,14.0,0,2.302
3520,112.64,1.0651,5.9364,-1.5368,-2.9274,-0.1945,2.8199,rough,14.0,0,2.294
3530,112.96,1.0530,5.9313,-1.5329,-2.9668,-0.2768,2.8308,rough,14.0,0,2.281
3540,113.28,1.0781,5.9336,-1.5327,-2.9611,-0.2042,2.8679,rough,14.0,0,2.306
3550,113.60,1.0560,5.9379,-1.5374,-2.9396,-0.2384,2.8355,rough,14.0,0,2.286
3560,113.92,1.0647,5.9418,-1.5351,-2.9558,-0.2152,2.8562,rough,14.0,0,2.295
3570,114.24,1.1124,5.9412,-1.5332,-3.0030,-0.1551,2.8655,rough,14.0,0,2.342
3580,114.56,1.1725,5.9352,-1.5310,-3.0188,-0.0438,2.8869,rough,14.0,0,2.399
3590,114.88,1.1540,5.9376,-1.5320,-3.0007,-0.0502,2.8418,rough,14.0,0,2.382
3600,115.20,1.0664,5.9464,-1.5353,-2.9389,-0.1771,2.8629,rough,14.0,0,2.298
3610,115.52,1.0673,5.9390,-1.5375,-2.9492,-0.2094,2.8257,rough,14.0,0,2.297
3620,115.84,1.0612,5.9362,-1.5333,-2.9469,-0.2199,2.8615,rough,14.0,0,2.290
3630,116.16,1.0644,5.9346,-1.5326,-2.9478,-0.2132,2.8557,rough,14.0,0,2.293
3640,116.48,1.0698,5.9329,-1.5322,-2.9516,-0.2064,2.8513,rough,14.0,0,2.298
3650,116.80,1.0583,5.9314,-1.5325,-2.9280,-0.2036,2.8280,rough,14.0,0,2.287
3660,117.12,1.1365,5.9280,-1.5297,-3.0306,-0.1473,2.8460,rough,14.0,0,2.362
3670,117.44,1.1756,5.9258,-1.5294,-2.9861,-0.0117,2.8737,rough,14.0,0,2.400
3680,117.76,1.1223,5.9312,-1.5314,-2.9606,-0.0940,2.8604,rough,14.0,0,2.349
3690,118.08,1.0384,5.9424,-1.5258,-2.9229,-0.1767,2.8617,rough,14.0,0,2.269
3700,118.40,1.1078,5.9510,-1.5346,-3.0017,-0.1421,2.8659,rough,14.0,0,2.339
3710,118.72,1.1389,5.9475,-1.5333,-3.0414,-0.1235,2.8745,rough,14.0,0,2.369
3720,119.04,1.1115,5.9506,-1.5346,-3.0061,-0.1411,2.8688,rough,14.0,0,2.343
3730,119.36,1.0553,5.9535,-1.5363,-2.9578,-0.1955,2.8386,rough,14.0,0,2.288
3740,119.68,1.1882,5.9473,-1.5328,-3.1114,-0.0844,2.8691,rough,14.0,0,2.417
3750,120.00,1.2992,5.9349,-1.5303,3.0808,0.0358,2.9035,rough,14.0,0,2.523
3760,120.32,1.4191,5.9127,-1.5422,3.0242,0.1213,2.9154,rough,14.0,0,2.637
3770,120.64,1.5460,5.8963,-1.5403,2.9467,0.1500,2.9197,rough,14.0,0,2.760
3780,120.96,1.5931,5.8928,-1.5328,2.9648,0.1258,2.9336,rough,14.0,0,2.806
3790,121.28,1.5229,5.8868,-1.5389,3.0075,0.1895,2.8819,rough,14.0,0,2.736
3800,121.60,1.4927,5.9199,-1.5491,2.9700,0.2343,2.8797,rough,14.0,0,2.711
3810,121.92,1.4672,5.9339,-1.5526,2.9512,0.2346,2.8742,rough,14.0,0,2.688
3820,122.24,1.4699,5.9472,-1.5527,2.9125,0.2099,2.8684,rough,14.0,0,2.694
3830,122.56,1.4733,5.9553,-1.5518,2.9006,0.2110,2.8782,rough,14.0,0,2.698
3840,122.88,1.4795,5.9718,-1.5498,2.8906,0.2335,2.8926,rough,14.0,0,2.708
3850,123.20,1.4803,5.9771,-1.5486,2.8870,0.2376,2.9098,rough,14.0,0,2.709
3860,123.52,1.4588,5.9722,-1.5486,2.8895,0.1904,2.8633,rough,14.0,0,2.687
3870,123.84,1.4876,5.9707,-1.5484,2.8895,0.2217,2.8630,rough,14.0,0,2.715
3880,124.16,1.4656,5.9777,-1.5484,2.8744,0.1865,2.8542,rough,14.0,0,2.695
3890,124.48,1.4704,5.9757,-1.5514,2.8746,0.2174,2.8848,rough,14.0,0,2.699
3900,124.80,1.4702,5.9779,-1.5497,2.8836,0.2225,2.8768,rough,14.0,0,2.700
3910,125.12,1.4669,5.9790,-1.5495,2.8764,0.2008,2.8499,rough,14.0,0,2.697
3920,125.44,1.4709,5.9809,-1.5524,2.8602,0.2254,2.9271,rough,14.0,0,2.701
3930,125.76,1.4793,5.9748,-1.5501,2.9066,0.2618,2.8554,rough,14.0,0,2.708
3940,126.08,1.4731,5.9763,-1.5491,2.8803,0.2063,2.8547,rough,14.0,0,2.702
3950,126.40,1.4709,5.9748,-1.5519,2.8770,0.2261,2.8967,rough,14.0,0,2.700
3960,126.72,1.4704,5.9770,-1.5502,2.8706,0.2032,2.8798,rough,14.0,0,2.700
3970,127.04,1.4685,5.9828,-1.5480,2.8711,0.2046,2.8952,rough,14.0,0,2.699
3980,127.36,1.4782,5.9764,-1.5495,2.9129,0.2718,2.8628,rough,14.0,0,2.707
3990,127.68,1.4767,5.9757,-1.5491,2.8852,0.2158,2.8504,rough,14.0,0,2.705
4000,128.00,1.4769,5.9820,-1.5490,2.8719,0.2186,2.8827,rough,14.0,0,2.707
4010,128.32,1.4660,5.9763,-1.5562,2.8568,0.2310,2.9280,rough,14.0,0,2.695
4020,128.64,1.4756,5.9761,-1.5490,2.8818,0.2137,2.8644,rough,14.0,0,2.705
4030,128.96,1.4767,5.9755,-1.5492,2.8788,0.2183,2.9008,rough,14.0,0,2.705
4040,129.28,1.4819,5.9771,-1.5485,2.8741,0.2106,2.8773,rough,14.0,0,2.711
4050,129.60,1.4684,5.9782,-1.5487,2.8802,0.2011,2.8513,rough,14.0,0,2.698
4060,129.92,1.4688,5.9876,-1.5470,2.8687,0.2000,2.8694,rough,14.0,0,2.700
4070,130.24,1.4564,5.9876,-1.5456,2.8656,0.1659,2.8596,rough,14.0,0,2.688
4080,130.56,1.4778,5.9870,-1.5476,2.8637,0.2011,2.8517,rough,14.0,0,2.709
4090,130.88,1.4899,5.9851,-1.5449,2.9027,0.2582,2.8626,rough,14.0,0,2.720
4100,131.20,1.4227,5.9861,-1.5431,2.8717,0.1125,2.8582,rough,14.0,0,2.654
4110,131.52,1.4825,5.9872,-1.5489,2.8629,0.2253,2.8902,rough,14.0,0,2.713
4120,131.84,1.5427,5.9752,-1.5369,2.8790,0.2143,2.9212,rough,14.0,0,2.770
4130,132.16,1.4814,5.9716,-1.5480,2.9052,0.2429,2.8809,rough,14.0,0,2.709
4140,132.48,1.4740,5.9678,-1.5523,2.8773,0.2165,2.9097,rough,14.0,0,2.701
4150,132.80,1.4663,5.9631,-1.5539,2.8739,0.1936,2.8759,rough,14.0,0,2.693
4160,133.12,1.4787,5.9704,-1.5510,2.8917,0.2348,2.8643,rough,14.0,0,2.706
4170,133.44,1.4763,5.9766,-1.5488,2.8842,0.2211,2.8776,rough,14.0,0,2.705
4180,133.76,1.4820,5.9697,-1.5502,2.8954,0.2351,2.8610,rough,14.0,0,2.710
4190,134.08,1.4688,5.9775,-1.5503,2.8885,0.2306,2.8702,rough,14.0,0,2.698
4200,134.40,1.4727,5.9757,-1.5499,2.8799,0.2172,2.8833,rough,14.0,0,2.702
4210,134.72,1.4753,5.9756,-1.5498,2.8823,0.2221,2.8812,rough,14.0,0,2.704
4220,135.04,1.4624,5.9697,-1.5508,2.8772,0.1856,2.8659,rough,14.0,0,2.690
4230,135.36,1.4780,5.9714,-1.5507,2.8907,0.2379,2.8910,rough,14.0,0,2.706
4240,135.68,1.4502,5.9730,-1.5487,2.8832,0.1797,2.8930,rough,14.0,0,2.679
4250,136.00,1.4985,5.9719,-1.5449,2.9018,0.2365,2.8777,rough,14.0,0,2.726
4260,136.32,1.4628,5.9819,-1.5457,2.9257,0.2586,2.8652,rough,14.0,0,2.693
4270,136.64,1.4685,5.9912,-1.5461,2.8969,0.2511,2.8881,rough,14.0,0,2.700
4280,136.96,1.4822,5.9687,-1.5499,2.8927,0.2338,2.8955,rough,14.0,0,2.710
4290,137.28,1.4732,5.9796,-1.5477,2.9238,0.2820,2.8765,rough,14.0,0,2.703
4300,137.60,1.4552,5.9778,-1.5473,2.8785,0.1713,2.8562,rough,14.0,0,2.685
4310,137.92,1.4882,5.9717,-1.5474,2.8879,0.2163,2.8684,rough,14.0,0,2.716
4320,138.24,1.4710,5.9790,-1.5488,2.8699,0.1909,2.8571,rough,14.0,0,2.700
4330,138.56,1.4695,5.9721,-1.5506,2.8903,0.2289,2.8976,rough,14.0,0,2.698
4340,138.88,1.4777,5.9742,-1.5509,2.8999,0.2577,2.8743,rough,14.0,0,2.706
4350,139.20,1.4636,5.9763,-1.5485,2.8876,0.2068,2.8766,rough,14.0,0,2.693
4360,139.52,1.4762,5.9770,-1.5491,2.8906,0.2365,2.8858,rough,14.0,0,2.705
4370,139.84,1.4756,5.9741,-1.5497,2.8853,0.2238,2.8840,rough,14.0,0,2.704
4380,140.16,1.4753,5.9743,-1.5504,2.8790,0.2195,2.8854,rough,14.0,0,2.704
4390,140.48,1.4749,5.9717,-1.5512,2.8838,0.2287,2.9028,rough,14.0,0,2.703
4400,140.80,1.4742,5.9708,-1.5530,2.8920,0.2385,2.8340,rough,14.0,0,2.702
4410,141.12,1.4505,5.9666,-1.5499,2.8888,0.1838,2.9029,rough,14.0,0,2.678
4420,141.44,1.4956,5.9578,-1.5470,2.9123,0.2300,2.8863,rough,14.0,0,2.721
4430,141.76,1.4730,5.9596,-1.5494,2.9261,0.2498,2.9055,rough,14.0,0,2.699
4440,142.08,1.4709,5.9691,-1.5513,2.8912,0.2229,2.8713,rough,14.0,0,2.698
4450,142.40,1.4771,5.9746,-1.5499,2.8804,0.2195,2.8813,rough,14.0,0,2.706
4460,142.72,1.4619,5.9721,-1.5495,2.8861,0.2019,2.8868,rough,14.0,0,2.690
4470,143.04,1.5071,5.9647,-1.5461,2.8960,0.2247,2.8650,rough,14.0,0,2.733
4480,143.36,1.5049,5.9674,-1.5454,2.8938,0.2218,2.8700,rough,14.0,0,2.732
4490,143.68,1.4391,5.9663,-1.5496,2.8957,0.1680,2.8643,rough,14.0,0,2.667
4500,144.00,1.4464,5.9660,-1.5490,2.8912,0.1668,2.8670,rough,14.0,0,2.674
4510,144.32,1.5419,5.9619,-1.5403,2.8908,0.2202,2.9017,rough,14.0,0,2.767
4520,144.64,1.4944,5.9635,-1.5486,2.8953,0.2226,2.8604,rough,14.0,0,2.721
4530,144.96,1.4786,5.9700,-1.5467,2.9083,0.2376,2.9126,rough,14.0,0,2.706
4540,145.28,1.4749,5.9752,-1.5504,2.8826,0.2291,2.8924,rough,14.0,0,2.704
4550,145.60,1.4386,5.9751,-1.5473,2.8817,0.1609,2.9007,rough,14.0,0,2.668
4560,145.92,1.4551,5.9749,-1.5486,2.8797,0.1856,2.8954,rough,14.0,0,2.684
4570,146.24,1.4795,5.9705,-1.5497,2.8985,0.2335,2.8519,rough,14.0,0,2.707
4580,146.56,1.4737,5.9769,-1.5498,2.8796,0.2217,2.8889,rough,14.0,0,2.703
4590,146.88,1.4574,5.9749,-1.5486,2.8835,0.1947,2.8933,rough,14.0,0,2.686
4600,147.20,1.4740,5.9719,-1.5526,2.8879,0.2328,2.8392,rough,14.0,0,2.702
4610,147.52,1.4725,5.9767,-1.5496,2.8723,0.2007,2.8686,rough,14.0,0,2.702
4620,147.84,1.4530,5.9719,-1.5484,2.8886,0.1796,2.8628,rough,14.0,0,2.681
4630,148.16,1.4740,5.9721,-1.5504,2.8993,0.2515,2.9146,rough,14.0,0,2.702
4640,148.48,1.3865,5.9696,-1.5428,2.8934,0.0746,2.9024,rough,14.0,0,2.616
4650,148.80,1.3747,5.9774,-1.5473,3.0127,0.1371,2.8793,rough,14.0,0,2.606
4660,149.12,1.4537,5.9717,-1.5481,2.9756,0.2682,2.8455,rough,14.0,0,2.682
4670,149.44,1.5075,5.9655,-1.5454,2.9048,0.2341,2.8754,rough,14.0,0,2.734
4680,149.76,1.4689,5.9641,-1.5542,2.8890,0.2252,2.8659,rough,14.0,0,2.696
4690,150.08,1.4758,5.9723,-1.5521,2.8790,0.2211,2.8607,rough,14.0,0,2.704
4700,150.40,1.4756,5.9717,-1.5494,2.8867,0.2112,2.8588,rough,14.0,0,2.704
4710,150.72,1.4827,5.9703,-1.5487,2.9104,0.2615,2.9102,rough,14.0,0,2.710
4720,151.04,1.4812,5.9738,-1.5509,2.8791,0.2273,2.8782,rough,14.0,0,2.710
4730,151.36,1.4699,5.9757,-1.5506,2.8844,0.2233,2.8768,rough,14.0,0,2.699
4740,151.68,1.4768,5.9752,-1.5498,2.8735,0.2098,2.8831,rough,14.0,0,2.706
4750,152.00,1.4721,5.9855,-1.5486,2.8674,0.2134,2.8919,rough,14.0,0,2.703
4760,152.32,1.4713,5.9782,-1.5486,2.8800,0.2111,2.8779,rough,14.0,0,2.701
4770,152.64,1.4616,5.9764,-1.5485,2.8822,0.1918,2.8583,rough,14.0,0,2.691
4780,152.96,1.4735,5.9721,-1.5514,2.8823,0.2220,2.8773,rough,14.0,0,2.702
4790,153.28,1.4728,5.9743,-1.5496,2.8803,0.2074,2.8655,rough,14.0,0,2.701
4800,153.60,1.4620,5.9756,-1.5485,2.8799,0.1874,2.8626,rough,14.0,0,2.691
4810,153.92,1.4798,5.9751,-1.5487,2.8826,0.2134,2.8584,rough,14.0,0,2.708
4820,154.24,1.4626,5.9763,-1.5493,2.8866,0.2145,2.8920,rough,14.0,0,2.692
4830,154.56,1.4821,5.9712,-1.5500,2.8972,0.2471,2.8863,rough,14.0,0,2.710
4840,154.88,1.4805,5.9747,-1.5503,2.8813,0.2243,2.8607,rough,14.0,0,2.709
4850,155.20,1.4371,5.9750,-1.5467,2.8830,0.1500,2.8762,rough,14.0,0,2.666
4860,155.52,1.4834,5.9734,-1.5483,2.8901,0.2261,2.8702,rough,14.0,0,2.712
4870,155.84,1.4760,5.9723,-1.5503,2.9294,0.2911,2.8581,rough,14.0,0,2.704
4880,156.16,1.4665,5.9830,-1.5475,2.9011,0.2435,2.8792,rough,14.0,0,2.697
4890,156.48,1.4465,5.9807,-1.5464,2.8762,0.1669,2.8906,rough,14.0,0,2.677
4900,156.80,1.4455,5.9809,-1.5463,2.8759,0.1661,2.8931,rough,14.0,0,2.676
4910,157.12,1.4886,5.9693,-1.5477,2.8878,0.2074,2.8460,rough,14.0,0,2.716
4920,157.44,1.4435,5.9739,-1.5470,2.8973,0.1812,2.8806,rough,14.0,0,2.673
4930,157.76,1.4365,5.9730,-1.5467,2.8872,0.1544,2.8847,rough,14.0,0,2.666
4940,158.08,1.5000,5.9709,-1.5453,2.8834,0.2097,2.8777,rough,14.0,0,2.727
4950,158.40,1.4755,5.9754,-1.5496,2.9013,0.2467,2.8614,rough,14.0,0,2.704
4960,158.72,1.4731,5.9741,-1.5506,2.8820,0.2280,2.9102,rough,14.0,0,2.702
4970,159.04,1.4856,5.9704,-1.5505,2.8783,0.2159,2.8592,rough,14.0,0,2.713
4980,159.36,1.4412,5.9699,-1.5477,2.8878,0.1555,2.8719,rough,14.0,0,2.670
4990,159.68,1.4525,5.9696,-1.5488,2.8853,0.1730,2.8686,rough,14.0,0,2.681
5000,160.00,1.5486,5.9613,-1.5381,2.9012,0.2241,2.8982,rough,14.0,0,2.773
5010,160.32,1.5714,5.9472,-1.5354,2.8967,0.1882,2.9159,rough,14.0,0,2.793
5020,160.64,1.4971,5.9522,-1.5478,2.9336,0.2528,2.8622,rough,14.0,0,2.721
5030,160.96,1.3853,5.9624,-1.5469,2.9033,0.0849,2.8497,rough,14.0,0,2.613
5040,161.28,1.3270,5.9679,-1.5407,2.9304,-0.0120,2.8965,rough,14.0,0,2.557
5050,161.60,1.3827,5.9574,-1.5469,2.9496,0.0830,2.8910,rough,14.0,0,2.610
5060,161.92,1.4958,5.9419,-1.5472,2.9308,0.2246,2.9249,rough,14.0,0,2.718
5070,162.24,1.4755,5.9542,-1.5511,2.9094,0.2258,2.8999,rough,14.0,0,2.700
5080,162.56,1.4841,5.9628,-1.5495,2.8939,0.2177,2.8895,rough,14.0,0,2.710
5090,162.88,1.4622,5.9741,-1.5510,2.8895,0.2252,2.8924,rough,14.0,0,2.691
5100,163.20,1.4790,5.9690,-1.5543,2.8892,0.2553,2.8771,rough,14.0,0,2.707
5110,163.52,1.4639,5.9770,-1.5489,2.8831,0.2100,2.8954,rough,14.0,0,2.693
5120,163.84,1.4798,5.9741,-1.5491,2.8801,0.2191,2.8966,rough,14.0,0,2.708
5130,164.16,1.4713,5.9697,-1.5509,2.8902,0.2222,2.8776,rough,14.0,0,2.699
5140,164.48,1.4626,5.9718,-1.5492,2.8901,0.1993,2.8623,rough,14.0,0,2.691
5150,164.80,1.4693,5.9708,-1.5528,2.8856,0.2282,2.8657,rough,14.0,0,2.697
5160,165.12,1.4778,5.9768,-1.5489,2.8820,0.2238,2.8884,rough,14.0,0,2.707
5170,165.44,1.4653,5.9759,-1.5490,2.8801,0.2022,2.8865,rough,14.0,0,2.694
5180,165.76,1.4742,5.9756,-1.5503,2.8853,0.2336,2.8966,rough,14.0,0,2.703
5190,166.08,1.4698,5.9745,-1.5513,2.8786,0.2186,2.8849,rough,14.0,0,2.699
5200,166.40,1.4620,5.9741,-1.5493,2.8832,0.2017,2.8904,rough,14.0,0,2.691
5210,166.72,1.4927,5.9673,-1.5482,2.9184,0.2730,2.8970,rough,14.0,0,2.720
5220,167.04,1.4693,5.9648,-1.5516,2.8981,0.2237,2.8726,rough,14.0,0,2.696
5230,167.36,1.4731,5.9738,-1.5504,2.8835,0.2190,2.8711,rough,14.0,0,2.702
5240,167.68,1.4726,5.9777,-1.5500,2.8793,0.2266,2.9079,rough,14.0,0,2.702
5250,168.00,1.4780,5.9745,-1.5494,2.8837,0.2144,2.8495,rough,14.0,0,2.707
5260,168.32,1.4662,5.9806,-1.5484,2.8737,0.2018,2.8872,rough,14.0,0,2.696
5270,168.64,1.4696,5.9806,-1.5485,2.8759,0.2094,2.8857,rough,14.0,0,2.699
5280,168.96,1.4627,5.9777,-1.5518,2.8807,0.2288,2.9027,rough,14.0,0,2.692
5290,169.28,1.4431,5.9743,-1.5472,2.8861,0.1625,2.8693,rough,14.0,0,2.672
5300,169.60,1.4902,5.9702,-1.5478,2.8920,0.2353,2.9114,rough,14.0,0,2.718
5310,169.92,1.4755,5.9783,-1.5507,2.8646,0.2024,2.8658,rough,14.0,0,2.705
5320,170.24,1.4550,5.9706,-1.5488,2.8912,0.1905,2.8808,rough,14.0,0,2.683
5330,170.56,1.4512,5.9705,-1.5488,2.8865,0.1799,2.8852,rough,14.0,0,2.679
5340,170.88,1.5057,5.9613,-1.5464,2.9025,0.2267,2.8623,rough,14.0,0,2.731
5350,171.20,1.4732,5.9672,-1.5531,2.8916,0.2379,2.8803,rough,14.0,0,2.700
5360,171.52,1.4786,5.9709,-1.5521,2.8763,0.2153,2.8538,rough,14.0,0,2.706
5370,171.84,1.4623,5.9708,-1.5532,2.8849,0.2185,2.8616,rough,14.0,0,2.690
5380,172.16,1.4756,5.9690,-1.5521,2.8840,0.2201,2.8559,rough,14.0,0,2.703
5390,172.48,1.4624,5.9758,-1.5494,2.8800,0.2048,2.9006,rough,14.0,0,2.691
5400,172.80,1.4827,5.9728,-1.5493,2.9110,0.2634,2.8614,rough,14.0,0,2.711
5410,173.12,1.4749,5.9707,-1.5480,2.9002,0.2318,2.9129,rough,14.0,0,2.703
5420,173.44,1.4741,5.9754,-1.5502,2.8820,0.2275,2.8990,rough,14.0,0,2.703
5430,173.76,1.4820,5.9755,-1.5489,2.8834,0.2245,2.8795,rough,14.0,0,2.711
5440,174.08,1.4744,5.9706,-1.5511,2.8813,0.2127,2.8649,rough,14.0,0,2.702
5450,174.40,1.4724,5.9752,-1.5492,2.8820,0.2101,2.8703,rough,14.0,0,2.701
5460,174.72,1.4715,5.9776,-1.5498,2.8744,0.2126,2.8883,rough,14.0,0,2.701
5470,175.04,1.4703,5.9772,-1.5500,2.8770,0.2113,2.8754,rough,14.0,0,2.699
5480,175.36,1.4634,5.9767,-1.5489,2.8783,0.1926,2.8680,rough,14.0,0,2.693
5490,175.68,1.4742,5.9739,-1.5514,2.9023,0.2625,2.8826,rough,14.0,0,2.703
5500,176.00,1.4134,5.9712,-1.5444,2.8942,0.1114,2.8654,rough,14.0,0,2.642
5510,176.32,1.4755,5.9725,-1.5509,2.8852,0.2320,2.8990,rough,14.0,0,2.704
5520,176.64,1.5502,5.9529,-1.5386,2.9172,0.2369,2.9098,rough,14.0,0,2.774
5530,176.96,1.4839,5.9579,-1.5471,2.9362,0.2610,2.9136,rough,14.0,0,2.709
5540,177.28,1.3737,5.9613,-1.5438,2.9067,0.0623,2.8845,rough,14.0,0,2.602
5550,177.60,1.2413,5.9698,-1.5384,3.0184,-0.0960,2.8932,rough,14.0,0,2.473
5560,177.92,1.1364,5.9705,-1.5373,3.1030,-0.2382,2.8767,rough,14.0,0,2.371
5570,178.24,1.0888,5.9672,-1.5377,-3.0172,-0.1792,2.8744,rough,14.0,0,2.324
5580,178.56,1.0674,5.9655,-1.5366,-3.0140,-0.2294,2.8478,rough,14.0,0,2.303
5590,178.88,1.0778,5.9628,-1.5367,-2.9692,-0.1590,2.8496,rough,14.0,0,2.312
5600,179.20,1.0943,5.9594,-1.5355,-3.0554,-0.2139,2.8243,rough,14.0,0,2.328
5610,179.52,1.0877,5.9597,-1.5373,-2.9701,-0.1319,2.8397,rough,14.0,0,2.321
5620,179.84,1.0743,5.9583,-1.5374,-2.9740,-0.1694,2.8413,rough,14.0,0,2.308
5630,180.16,1.0699,5.9597,-1.5376,-3.0027,-0.2071,2.8316,rough,14.0,0,2.304
5640,180.48,1.0574,5.9548,-1.5367,-2.9515,-0.1928,2.8383,rough,14.0,0,2.291
5650,180.80,1.0668,5.9539,-1.5366,-2.9496,-0.1706,2.8446,rough,14.0,0,2.300
5660,181.12,1.0660,5.9709,-1.5359,-2.9179,-0.1371,2.8571,rough,14.0,0,2.302
5670,181.44,1.0848,5.9608,-1.5369,-3.0257,-0.2024,2.8540,rough,14.0,0,2.319
5680,181.76,1.0911,5.9614,-1.5384,-3.0107,-0.1622,2.8511,rough,14.0,0,2.325
5690,182.08,1.0938,5.9590,-1.5370,-2.9925,-0.1452,2.8525,rough,14.0,0,2.327
5700,182.40,1.0879,5.9568,-1.5387,-3.0112,-0.1666,2.8236,rough,14.0,0,2.321
5710,182.72,1.0750,5.9583,-1.5370,-2.9845,-0.1785,2.8245,rough,14.0,0,2.309
5720,183.04,1.0618,5.9559,-1.5371,-2.9565,-0.1849,2.8207,rough,14.0,0,2.295
5730,183.36,1.0999,5.9506,-1.5358,-2.9881,-0.1416,2.8369,rough,14.0,0,2.331
5740,183.68,1.1478,5.9450,-1.5331,-3.0329,-0.0912,2.8499,rough,14.0,0,2.377
5750,184.00,1.1255,5.9477,-1.5340,-3.0084,-0.1098,2.8457,rough,14.0,0,2.356
5760,184.32,1.0462,5.9571,-1.5345,-2.9341,-0.1752,2.8367,rough,14.0,0,2.280
5770,184.64,1.0650,5.9460,-1.5356,-2.9560,-0.1957,2.8596,rough,14.0,0,2.296
5780,184.96,1.0700,5.9458,-1.5387,-2.9402,-0.1892,2.8552,rough,14.0,0,2.301
5790,185.28,1.1586,5.9387,-1.5314,-3.0559,-0.1098,2.8711,rough,14.0,0,2.386
5800,185.60,1.1846,5.9371,-1.5312,-3.0195,-0.0124,2.8866,rough,14.0,0,2.411
5810,185.92,1.1416,5.9416,-1.5328,-2.9940,-0.0729,2.8761,rough,14.0,0,2.370
5820,186.24,1.0537,5.9528,-1.5362,-2.9225,-0.1649,2.8385,rough,14.0,0,2.287
5830,186.56,1.0833,5.9533,-1.5360,-2.9976,-0.1972,2.8589,rough,14.0,0,2.316
5840,186.88,1.0579,5.9535,-1.5367,-2.9390,-0.1731,2.8396,rough,14.0,0,2.291
5850,187.20,1.1340,5.9517,-1.5346,-3.0514,-0.1302,2.8402,rough,14.0,0,2.365
5860,187.52,1.1885,5.9455,-1.5326,-3.0753,-0.0463,2.8598,rough,14.0,0,2.417
5870,187.84,1.2052,5.9447,-1.5325,-3.0194,0.0521,2.8728,rough,14.0,0,2.433
5880,188.16,1.1472,5.9505,-1.5346,-2.9962,-0.0419,2.8593,rough,14.0,0,2.378
5890,188.48,1.0447,5.9608,-1.5333,-2.9261,-0.1680,2.8474,rough,14.0,0,2.279
5900,188.80,1.0648,5.9509,-1.5368,-2.9686,-0.2042,2.8473,rough,14.0,0,2.297
5910,189.12,1.0821,5.9553,-1.5371,-2.9732,-0.1681,2.8631,rough,14.0,0,2.315
5920,189.44,1.0768,5.9560,-1.5368,-2.9632,-0.1634,2.8644,rough,14.0,0,2.310
5930,189.76,1.0643,5.9512,-1.5428,-2.9887,-0.1937,2.8579,rough,14.0,0,2.297
5940,190.08,1.0657,5.9477,-1.5356,-2.9526,-0.1863,2.8452,rough,14.0,0,2.297
5950,190.40,1.0620,5.9491,-1.5360,-2.9387,-0.1782,2.8462,rough,14.0,0,2.294
5960,190.72,1.0815,5.9478,-1.5351,-2.9685,-0.1756,2.8658,rough,14.0,0,2.313
5970,191.04,1.0594,5.9518,-1.5365,-2.9399,-0.1853,2.8628,rough,14.0,0,2.292
5980,191.36,1.0622,5.9505,-1.5361,-2.9443,-0.1847,2.8586,rough,14.0,0,2.294
5990,191.68,1.0606,5.9502,-1.5360,-2.9383,-0.1781,2.8473,rough,14.0,0,2.293
6000,192.00,1.0861,5.9476,-1.5345,-2.9788,-0.1697,2.8451,rough,14.0,0,2.317
6010,192.32,1.0759,5.9490,-1.5353,-2.9629,-0.1732,2.8446,rough,14.0,0,2.307
6020,192.64,1.0636,5.9533,-1.5366,-2.9469,-0.1792,2.8573,rough,14.0,0,2.296
6030,192.96,1.0690,5.9524,-1.5362,-2.9525,-0.1707,2.8440,rough,14.0,0,2.301
6040,193.28,1.0622,5.9533,-1.5357,-2.9507,-0.1884,2.8815,rough,14.0,0,2.295
6050,193.60,1.1506,5.9451,-1.5329,-3.0522,-0.1075,2.8480,rough,14.0,0,2.380
6060,193.92,1.1813,5.9420,-1.5322,-3.0448,-0.0342,2.8606,rough,14.0,0,2.409
6070,194.24,1.1614,5.9444,-1.5329,-3.0244,-0.0522,2.8570,rough,14.0,0,2.390
6080,194.56,1.0838,5.9533,-1.5361,-2.9647,-0.1466,2.8380,rough,14.0,0,2.316
6090,194.88,1.0564,5.9459,-1.5353,-2.9563,-0.2212,2.8313,rough,14.0,0,2.288
6100,195.20,1.0694,5.9446,-1.5347,-2.9526,-0.1850,2.8409,rough,14.0,0,2.300
6110,195.52,1.0799,5.9462,-1.5357,-2.9650,-0.1737,2.8264,rough,14.0,0,2.311
6120,195.84,1.1589,5.9368,-1.5312,-3.0463,-0.0953,2.8472,rough,14.0,0,2.386
6130,196.16,1.1693,5.9372,-1.5316,-3.0048,-0.0247,2.8608,rough,14.0,0,2.396
6140,196.48,1.1049,5.9441,-1.5339,-2.9797,-0.1311,2.8418,rough,14.0,0,2.335
6150,196.80,1.0489,5.9562,-1.5417,-2.9676,-0.2133,2.7426,rough,14.0,0,2.283
6160,197.12,1.1077,5.9488,-1.5348,-3.0028,-0.1436,2.8414,rough,14.0,0,2.338
6170,197.44,1.1251,5.9467,-1.5336,-3.0240,-0.1312,2.8462,rough,14.0,0,2.355
6180,197.76,1.0685,5.9537,-1.5365,-2.9537,-0.1698,2.8363,rough,14.0,0,2.301
6190,198.08,1.0696,5.9619,-1.5402,-2.9839,-0.1939,2.8413,rough,14.0,0,2.304
6200,198.40,1.0671,5.9581,-1.5402,-2.9646,-0.1598,2.8251,rough,14.0,0,2.301
6210,198.72,1.0625,5.9545,-1.5365,-2.9485,-0.1788,2.8391,rough,14.0,0,2.295
6220,199.04,1.0731,5.9553,-1.5368,-2.9604,-0.1626,2.8345,rough,14.0,0,2.306
6230,199.36,1.0631,5.9554,-1.5370,-2.9474,-0.1728,2.8402,rough,14.0,0,2.296
6240,199.68,1.0648,5.9507,-1.5363,-2.9591,-0.1916,2.8294,rough,14.0,0,2.297
6250,200.00,1.0601,5.9468,-1.5351,-2.9495,-0.2028,2.8576,rough,14.0,0,2.292
6260,200.32,1.0563,5.9477,-1.5357,-2.9371,-0.1967,2.8600,rough,14.0,0,2.288
6270,200.64,1.0716,5.9416,-1.5346,-2.9458,-0.1758,2.8317,rough,14.0,0,2.302
6280,200.96,1.0658,5.9407,-1.5349,-2.9489,-0.1999,2.8340,rough,14.0,0,2.296
6290,201.28,1.0694,5.9373,-1.5331,-2.9541,-0.2065,2.8678,rough,14.0,0,2.299
6300,201.60,1.0694,5.9368,-1.5364,-2.9379,-0.2046,2.8591,rough,14.0,0,2.298
6310,201.92,1.1579,5.9300,-1.5300,-3.0267,-0.0944,2.8770,rough,14.0,0,2.384
6320,202.24,1.1997,5.9260,-1.5288,-3.0231,-0.0028,2.8924,rough,14.0,0,2.424
6330,202.56,1.1845,5.9284,-1.5294,-3.0285,-0.0376,2.8830,rough,14.0,0,2.410
6340,202.88,1.1273,5.9346,-1.5318,-2.9740,-0.0945,2.8713,rough,14.0,0,2.355
6350,203.20,1.0417,5.9449,-1.5296,-2.9226,-0.1715,2.8170,rough,14.0,0,2.273
6360,203.52,1.1041,5.9522,-1.5358,-2.9995,-0.1455,2.8651,rough,14.0,0,2.336
6370,203.84,1.1370,5.9487,-1.5337,-3.0387,-0.1226,2.8741,rough,14.0,0,2.367
6380,204.16,1.1003,5.9528,-1.5353,-2.9926,-0.1474,2.8662,rough,14.0,0,2.332
6390,204.48,1.0763,5.9564,-1.5429,-3.0249,-0.1859,2.8815,rough,14.0,0,2.309
6400,204.80,1.0866,5.9561,-1.5376,-2.9788,-0.1536,2.8304,rough,14.0,0,2.319
6410,205.12,1.0606,5.9562,-1.5373,-2.9794,-0.2102,2.8250,rough,14.0,0,2.294
6420,205.44,1.0681,5.9499,-1.5359,-2.9490,-0.1781,2.8644,rough,14.0,0,2.300
6430,205.76,1.0597,5.9494,-1.5357,-2.9441,-0.1914,2.8552,rough,14.0,0,2.292
6440,206.08,1.0569,5.9478,-1.5355,-2.9359,-0.1855,2.8346,rough,14.0,0,2.289
6450,206.40,1.1464,5.9429,-1.5325,-3.0509,-0.1251,2.8669,rough,14.0,0,2.375
6460,206.72,1.1918,5.9393,-1.5316,-3.0250,0.0012,2.8881,rough,14.0,0,2.419
6470,207.04,1.1621,5.9423,-1.5326,-3.0103,-0.0434,2.8808,rough,14.0,0,2.390
6480,207.36,1.0813,5.9507,-1.5357,-2.9586,-0.1552,2.8590,rough,14.0,0,2.313
6490,207.68,1.0598,5.9490,-1.5353,-2.9627,-0.2137,2.8549,rough,14.0,0,2.292
6500,208.00,1.0645,5.9476,-1.5353,-2.9478,-0.1874,2.8539,rough,14.0,0,2.296
6510,208.32,1.0625,5.9464,-1.5370,-2.9443,-0.1930,2.8202,rough,14.0,0,2.294
6520,208.64,1.0669,5.9510,-1.5362,-2.9462,-0.1679,2.8306,rough,14.0,0,2.299
6530,208.96,1.0696,5.9500,-1.5366,-2.9430,-0.1630,2.8347,rough,14.0,0,2.301
6540,209.28,1.1100,5.9535,-1.5361,-3.0018,-0.1303,2.8319,rough,14.0,0,2.342
6550,209.60,1.2096,5.9421,-1.5320,-3.0556,0.0183,2.8635,rough,14.0,0,2.437
6560,209.92,1.2348,5.9393,-1.5311,-3.0984,0.0199,2.8738,rough,14.0,0,2.461
6570,210.24,1.2416,5.9388,-1.5309,-3.0760,0.0593,2.8784,rough,14.0,0,2.468
6580,210.56,1.2538,5.9373,-1.5305,-3.0850,0.0737,2.8821,rough,14.0,0,2.479
6590,210.88,1.2574,5.9367,-1.5304,-3.0893,0.0757,2.8837,rough,14.0,0,2.483
6600,211.20,1.2584,5.9365,-1.5304,-3.0864,0.0805,2.8850,rough,14.0,0,2.484
6610,211.52,1.2590,5.9364,-1.5303,-3.0827,0.0855,2.8864,rough,14.0,0,2.484
6620,211.84,1.2595,5.9362,-1.5302,-3.0857,0.0827,2.8872,rough,14.0,0,2.485
6630,212.16,1.2573,5.9362,-1.5303,-3.0888,0.0741,2.8873,rough,14.0,0,2.483
6640,212.48,1.2522,5.9366,-1.5304,-3.0856,0.0667,2.8870,rough,14.0,0,2.478
6650,212.80,1.2293,5.9387,-1.5310,-3.0806,0.0249,2.8817,rough,14.0,0,2.456
6660,213.12,1.2056,5.9410,-1.5316,-3.0740,-0.0170,2.8762,rough,14.0,0,2.433
6670,213.44,1.1550,5.9469,-1.5337,-3.0020,-0.0392,2.8683,rough,14.0,0,2.384
6680,213.76,1.0575,5.9554,-1.5373,-2.9333,-0.1711,2.8435,rough,14.0,0,2.291
6690,214.08,1.0697,5.9550,-1.5393,-2.9955,-0.2121,2.8562,rough,14.0,0,2.303
6700,214.40,1.0675,5.9532,-1.5367,-2.9533,-0.1709,2.8407,rough,14.0,0,2.300
6710,214.72,1.0661,5.9522,-1.5364,-2.9475,-0.1697,2.8353,rough,14.0,0,2.299
6720,215.04,1.0620,5.9517,-1.5364,-2.9452,-0.1770,2.8288,rough,14.0,0,2.294
6730,215.36,1.0701,5.9482,-1.5353,-2.9535,-0.1827,2.8664,rough,14.0,0,2.302
6740,215.68,1.0634,5.9448,-1.5347,-2.9663,-0.2155,2.8334,rough,14.0,0,2.294
6750,216.00,1.0596,5.9411,-1.5341,-2.9418,-0.2054,2.8599,rough,14.0,0,2.290
6760,216.32,1.0564,5.9402,-1.5341,-2.9384,-0.2106,2.8523,rough,14.0,0,2.286
6770,216.64,1.1301,5.9362,-1.5315,-3.0286,-0.1501,2.8640,rough,14.0,0,2.358
6780,216.96,1.1849,5.9324,-1.5306,-3.0003,0.0114,2.8469,rough,14.0,0,2.411
6790,217.28,1.1548,5.9358,-1.5319,-2.9739,-0.0207,2.8437,rough,14.0,0,2.382
6800,217.60,1.0595,5.9448,-1.5353,-2.9277,-0.1826,2.8595,rough,14.0,0,2.290
6810,217.92,1.0644,5.9488,-1.5391,-2.9713,-0.2132,2.8383,rough,14.0,0,2.296
6820,218.24,1.0603,5.9463,-1.5381,-2.9466,-0.2078,2.8169,rough,14.0,0,2.292
6830,218.56,1.0508,5.9418,-1.5335,-2.9290,-0.1915,2.8128,rough,14.0,0,2.281
6840,218.88,1.0676,5.9537,-1.5366,-2.9521,-0.1703,2.8380,rough,14.0,0,2.300
6850,219.20,1.0655,5.9528,-1.5364,-2.9509,-0.1738,2.8299,rough,14.0,0,2.298
6860,219.52,1.0653,5.9489,-1.5357,-2.9456,-0.1800,2.8525,rough,14.0,0,2.297
6870,219.84,1.0577,5.9481,-1.5356,-2.9364,-0.1825,2.8299,rough,14.0,0,2.289
6880,220.16,1.1440,5.9437,-1.5327,-3.0483,-0.1252,2.8626,rough,14.0,0,2.373
6890,220.48,1.1856,5.9408,-1.5320,-3.0148,0.0022,2.8844,rough,14.0,0,2.413
6900,220.80,1.1481,5.9445,-1.5332,-3.0059,-0.0655,2.8736,rough,14.0,0,2.377
6910,221.12,1.0563,5.9534,-1.5369,-2.9317,-0.1784,2.8531,rough,14.0,0,2.289
6920,221.44,1.0589,5.9474,-1.5354,-2.9426,-0.1938,2.8488,rough,14.0,0,2.290
6930,221.76,1.0607,5.9455,-1.5342,-2.9728,-0.2347,2.8676,rough,14.0,0,2.292
6940,222.08,1.0659,5.9471,-1.5353,-2.9497,-0.1829,2.8349,rough,14.0,0,2.297
6950,222.40,1.0638,5.9382,-1.5326,-2.9917,-0.2661,2.8617,rough,14.0,0,2.293
6960,222.72,1.0646,5.9410,-1.5320,-2.9824,-0.2292,2.8245,rough,14.0,0,2.295
6970,223.04,1.0642,5.9334,-1.5313,-2.9939,-0.2749,2.8532,rough,14.0,0,2.293
6980,223.36,1.0629,5.9313,-1.5327,-2.9668,-0.2549,2.8524,rough,14.0,0,2.291
6990,223.68,1.0704,5.9313,-1.5342,-2.9898,-0.2420,2.8684,rough,14.0,0,2.298
7000,224.00,1.0609,5.9351,-1.5333,-2.9420,-0.2142,2.8645,rough,14.0,0,2.290
7010,224.32,1.0595,5.9358,-1.5333,-2.9400,-0.2088,2.8304,rough,14.0,0,2.289
7020,224.64,1.1162,5.9323,-1.5312,-3.0083,-0.1709,2.8778,rough,14.0,0,2.343
7030,224.96,1.1690,5.9285,-1.5301,-2.9843,-0.0179,2.8636,rough,14.0,0,2.394
7040,225.28,1.1280,5.9324,-1.5312,-2.9865,-0.1065,2.8491,rough,14.0,0,2.355
7050,225.60,1.0427,5.9406,-1.5303,-2.9187,-0.1816,2.8129,rough,14.0,0,2.273
7060,225.92,1.0640,5.9445,-1.5342,-2.9749,-0.2288,2.8495,rough,14.0,0,2.295
7070,226.24,1.0575,5.9469,-1.5346,-2.9379,-0.1859,2.8433,rough,14.0,0,2.289
7080,226.56,1.1544,5.9413,-1.5320,-3.0470,-0.1052,2.8740,rough,14.0,0,2.383
7090,226.88,1.2028,5.9365,-1.5310,-3.0437,0.0102,2.8481,rough,14.0,0,2.429
7100,227.20,1.1764,5.9401,-1.5323,-2.9912,0.0162,2.8488,rough,14.0,0,2.404
7110,227.52,1.0846,5.9489,-1.5353,-2.9552,-0.1480,2.8666,rough,14.0,0,2.316
7120,227.84,1.0824,5.9488,-1.5371,-2.9842,-0.1936,2.8271,rough,14.0,0,2.314
7130,228.16,1.0612,5.9527,-1.5370,-2.9393,-0.1710,2.8259,rough,14.0,0,2.294
7140,228.48,1.0861,5.9547,-1.5367,-3.0043,-0.1790,2.8386,rough,14.0,0,2.319
7150,228.80,1.0972,5.9541,-1.5359,-2.9870,-0.1404,2.8481,rough,14.0,0,2.329
7160,229.12,1.0593,5.9542,-1.5367,-2.9649,-0.2101,2.8367,rough,14.0,0,2.292
7170,229.44,1.0796,5.9621,-1.5391,-3.0084,-0.1799,2.8453,rough,14.0,0,2.314
7180,229.76,1.0897,5.9647,-1.5345,-2.9754,-0.1409,2.8135,rough,14.0,0,2.324
7190,230.08,1.0702,5.9658,-1.5376,-2.9995,-0.2006,2.8469,rough,14.0,0,2.305
7200,230.40,1.0720,5.9619,-1.5369,-3.0085,-0.2151,2.8584,rough,14.0,0,2.306
7210,230.72,1.0843,5.9653,-1.5379,-2.9946,-0.1551,2.8279,rough,14.0,0,2.319
7220,231.04,1.1071,5.9626,-1.5345,-3.0141,-0.1413,2.8109,rough,14.0,0,2.341
7230,231.36,1.0920,5.9664,-1.5360,-3.0887,-0.2502,2.8412,rough,14.0,0,2.327
7240,231.68,1.0696,5.9684,-1.5353,-2.9632,-0.1744,2.8337,rough,14.0,0,2.305
7250,232.00,1.0748,5.9592,-1.5383,-3.0059,-0.2001,2.8676,rough,14.0,0,2.308
7260,232.32,1.0937,5.9692,-1.5392,-3.0018,-0.1281,2.8069,rough,14.0,0,2.329
7270,232.64,1.0792,5.9665,-1.5364,-3.0330,-0.2194,2.8363,rough,14.0,0,2.314
7280,232.96,1.1055,5.9628,-1.5357,-2.9850,-0.1120,2.8432,rough,14.0,0,2.339
7290,233.28,1.1119,5.9605,-1.5366,-3.0048,-0.1198,2.8690,rough,14.0,0,2.345
7300,233.60,1.0804,5.9615,-1.5442,-2.9861,-0.1242,2.8426,rough,14.0,0,2.314
7310,233.92,1.0739,5.9604,-1.5377,-2.9735,-0.1673,2.8471,rough,14.0,0,2.308
7320,234.24,1.0645,5.9592,-1.5371,-2.9702,-0.1936,2.8540,rough,14.0,0,2.298
7330,234.56,1.0651,5.9426,-1.5360,-2.9673,-0.2159,2.8433,rough,14.0,0,2.296
7340,234.88,1.0642,5.9419,-1.5344,-2.9487,-0.1956,2.8345,rough,14.0,0,2.294
7350,235.20,1.0652,5.9408,-1.5341,-2.9450,-0.1895,2.8296,rough,14.0,0,2.295
7360,235.52,1.0697,5.9377,-1.5331,-2.9521,-0.2015,2.8654,rough,14.0,0,2.299
7370,235.84,1.0625,5.9378,-1.5334,-2.9412,-0.2027,2.8533,rough,14.0,0,2.292
7380,236.16,1.0553,5.9381,-1.5312,-2.9674,-0.2469,2.8748,rough,14.0,0,2.285
7390,236.48,1.0551,5.9326,-1.5338,-2.9782,-0.2810,2.7949,rough,14.0,0,2.284
7400,236.80,1.0744,5.9271,-1.5311,-2.9520,-0.2060,2.8446,rough,14.0,0,2.301
7410,237.12,1.0641,5.9256,-1.5300,-2.9963,-0.2919,2.8341,rough,14.0,0,2.291
7420,237.44,1.0775,5.9298,-1.5319,-2.9606,-0.2036,2.8332,rough,14.0,0,2.305
7430,237.76,1.1444,5.9224,-1.5287,-3.0107,-0.1156,2.8543,rough,14.0,0,2.369
7440,238.08,1.1588,5.9219,-1.5291,-2.9604,-0.0266,2.8691,rough,14.0,0,2.383
7450,238.40,1.0782,5.9303,-1.5319,-2.9415,-0.1763,2.8424,rough,14.0,0,2.306
7460,238.72,1.0575,5.9398,-1.5327,-2.9263,-0.1766,2.8295,rough,14.0,0,2.287
7470,239.04,1.0690,5.9363,-1.5330,-2.9528,-0.2022,2.8437,rough,14.0,0,2.298
7480,239.36,1.0654,5.9349,-1.5337,-2.9476,-0.2136,2.8460,rough,14.0,0,2.294
7490,239.68,1.0647,5.9304,-1.5318,-2.9440,-0.2174,2.8632,rough,14.0,0,2.293
7500,240.00,1.0932,5.9291,-1.5318,-2.9795,-0.1979,2.8543,rough,14.0,0,2.320
7510,240.32,1.1708,5.9216,-1.5288,-2.9614,-0.0055,2.8880,rough,14.0,0,2.395
7520,240.64,1.1483,5.9245,-1.5295,-2.9725,-0.0642,2.8851,rough,14.0,0,2.373
7530,240.96,1.0655,5.9331,-1.5327,-2.9334,-0.1969,2.8599,rough,14.0,0,2.294
7540,241.28,1.0550,5.9412,-1.5371,-2.9289,-0.2153,2.8483,rough,14.0,0,2.285
7550,241.60,1.0675,5.9380,-1.5335,-2.9454,-0.1988,2.8650,rough,14.0,0,2.297
7560,241.92,1.0631,5.9372,-1.5333,-2.9424,-0.2052,2.8577,rough,14.0,0,2.292
7570,242.24,1.0574,5.9368,-1.5334,-2.9365,-0.2121,2.8513,rough,14.0,0,2.287
7580,242.56,1.0688,5.9344,-1.5325,-2.9523,-0.2063,2.8477,rough,14.0,0,2.297
7590,242.88,1.0598,5.9319,-1.5322,-2.9886,-0.2890,2.8541,rough,14.0,0,2.288
7600,243.20,1.1030,5.9291,-1.5303,-2.9967,-0.1902,2.8681,rough,14.0,0,2.330
7610,243.52,1.0747,5.9324,-1.5319,-2.9581,-0.2064,2.8632,rough,14.0,0,2.303
7620,243.84,1.0651,5.9288,-1.5313,-2.9579,-0.2376,2.8644,rough,14.0,0,2.293
7630,244.16,1.0699,5.9290,-1.5353,-2.9318,-0.2136,2.8606,rough,14.0,0,2.297
7640,244.48,1.1802,5.9205,-1.5281,-3.0119,-0.0440,2.8855,rough,14.0,0,2.404
7650,244.80,1.1957,5.9202,-1.5275,-3.0477,-0.0474,2.8803,rough,14.0,0,2.419
7660,245.12,1.1799,5.9223,-1.5284,-3.0026,-0.0286,2.8810,rough,14.0,0,2.404
7670,245.44,1.1068,5.9300,-1.5314,-2.9516,-0.1235,2.8635,rough,14.0,0,2.334
7680,245.76,1.0357,5.9446,-1.5254,-2.9097,-0.1535,2.8549,rough,14.0,0,2.267
7690,246.08,1.0905,5.9462,-1.5367,-2.9845,-0.1702,2.8643,rough,14.0,0,2.321
7700,246.40,1.0694,5.9495,-1.5358,-2.9545,-0.1816,2.8593,rough,14.0,0,2.301
7710,246.72,1.0594,5.9493,-1.5417,-2.9391,-0.2154,2.8242,rough,14.0,0,2.291
7720,247.04,1.0698,5.9470,-1.5357,-2.9560,-0.1879,2.8647,rough,14.0,0,2.301
7730,247.36,1.0637,5.9468,-1.5344,-2.9792,-0.2367,2.8820,rough,14.0,0,2.295
7740,247.68,1.1008,5.9447,-1.5336,-2.9947,-0.1614,2.8575,rough,14.0,0,2.331
7750,248.00,1.0553,5.9499,-1.5362,-2.9352,-0.1906,2.8501,rough,14.0,0,2.287
7760,248.32,1.0836,5.9534,-1.5359,-2.9694,-0.1577,2.8634,rough,14.0,0,2.316
7770,248.64,1.0606,5.9560,-1.5372,-2.9432,-0.1783,2.8627,rough,14.0,0,2.294
7780,248.96,1.0581,5.9459,-1.5359,-2.9364,-0.1974,2.8554,rough,14.0,0,2.289
7790,249.28,1.0617,5.9443,-1.5349,-2.9438,-0.1959,2.8507,rough,14.0,0,2.293
7800,249.60,1.0956,5.9477,-1.5366,-2.9747,-0.1603,2.8701,rough,14.0,0,2.326
7810,249.92,1.1177,5.9452,-1.5335,-3.0125,-0.1463,2.8749,rough,14.0,0,2.347
7820,250.24,1.0731,5.9501,-1.5356,-2.9581,-0.1776,2.8656,rough,14.0,0,2.305
7830,250.56,1.0958,5.9624,-1.5355,-2.9769,-0.1200,2.8003,rough,14.0,0,2.330
7840,250.88,1.1360,5.9534,-1.5353,-3.0496,-0.1173,2.8424,rough,14.0,0,2.367
7850,251.20,1.1251,5.9552,-1.5355,-3.0213,-0.1108,2.8420,rough,14.0,0,2.357
7860,251.52,1.0593,5.9596,-1.5343,-2.9423,-0.1640,2.8574,rough,14.0,0,2.294
7870,251.84,1.0821,5.9557,-1.5388,-2.9963,-0.1760,2.8698,rough,14.0,0,2.315
7880,252.16,1.0776,5.9672,-1.5394,-2.9783,-0.1425,2.8061,rough,14.0,0,2.313
7890,252.48,1.0844,5.9541,-1.5390,-2.9750,-0.1632,2.8313,rough,14.0,0,2.317
7900,252.80,1.1050,5.9501,-1.5354,-2.9999,-0.1450,2.8569,rough,14.0,0,2.336
7910,253.12,1.0514,5.9560,-1.5376,-2.9329,-0.1850,2.8466,rough,14.0,0,2.285
7920,253.44,1.0649,5.9406,-1.5337,-2.9736,-0.2329,2.8589,rough,14.0,0,2.295
7930,253.76,1.0566,5.9401,-1.5341,-2.9397,-0.2122,2.8532,rough,14.0,0,2.287
7940,254.08,1.1299,5.9358,-1.5314,-3.0285,-0.1512,2.8645,rough,14.0,0,2.358
7950,254.40,1.1846,5.9321,-1.5305,-2.9994,0.0110,2.8478,rough,14.0,0,2.410
7960,254.72,1.1506,5.9356,-1.5319,-2.9798,-0.0370,2.8419,rough,14.0,0,2.378
7970,255.04,1.0455,5.9471,-1.5307,-2.9298,-0.1817,2.8523,rough,14.0,0,2.277
7980,255.36,1.0584,5.9539,-1.5388,-2.9706,-0.2116,2.8205,rough,14.0,0,2.291
7990,255.68,1.0726,5.9450,-1.5347,-2.9565,-0.1850,2.8630,rough,14.0,0,2.303
8000,256.00,1.0620,5.9445,-1.5363,-2.9479,-0.2121,2.8625,rough,14.0,0,2.293
8010,256.32,1.0590,5.9439,-1.5348,-2.9370,-0.1934,2.8478,rough,14.0,0,2.290
