step,time_s,x,y,z,roll,pitch,yaw,terrain,speed,target_idx,dist_to_target
10,0.32,-1.4580,0.8361,0.1825,0.1563,-0.1791,-0.1832,slope,18.0,0,6.032
20,0.64,-1.6601,0.8156,0.1364,0.0628,-0.2652,0.1333,slope,18.0,0,5.877
30,0.96,-1.8162,0.7999,0.0972,-0.0495,-0.2290,0.6528,slope,18.0,0,5.759
40,1.28,-1.7935,0.7621,0.1024,-0.1940,-0.1292,1.4091,slope,18.0,0,5.800
50,1.60,-1.8707,0.8158,0.0928,-0.2162,-0.0164,1.9123,slope,18.0,0,5.706
60,1.92,-2.0109,0.9803,0.0785,-0.2369,-0.0058,2.2002,rough,14.0,0,5.496
70,2.24,-2.2658,1.2426,0.0853,-0.2571,-0.0512,2.3671,rough,14.0,0,5.136
80,2.56,-2.5792,1.4902,0.1188,-0.2708,-0.1221,2.5069,slope,18.0,0,4.737
90,2.88,-2.9946,1.7355,0.1246,-0.3212,0.0960,2.5808,rough,14.0,0,4.256
100,3.20,-3.3399,1.9074,0.0699,-0.3654,0.1160,2.6801,rough,14.0,0,3.876
110,3.52,-3.6512,2.0431,0.0311,-0.2993,0.0943,2.7843,rough,14.0,0,3.545
120,3.84,-3.8063,2.0876,0.0514,-0.2938,-0.2179,3.0099,rough,14.0,0,3.395
130,4.16,-3.9608,1.9911,0.0312,-0.2975,-0.2207,-2.6688,rough,14.0,0,3.338
140,4.48,-4.0987,1.7865,0.0567,-0.3995,-0.1829,-2.2404,rough,14.0,0,3.378
150,4.80,-4.2843,1.5071,0.1021,-0.3687,-0.1621,-2.1358,rough,14.0,0,3.462
160,5.12,-4.5534,1.1833,0.0986,-0.1848,0.0216,-2.3009,rough,14.0,0,3.567
170,5.44,-4.7689,0.8809,0.1200,-0.3724,0.0054,-2.4292,rough,14.0,0,3.722
180,5.76,-4.9315,0.7107,0.1823,-0.3550,-0.5499,-2.3745,rough,14.0,0,3.806
190,6.08,-5.1688,0.5343,0.3291,-0.1026,-0.5988,-2.4079,rough,14.0,0,3.882
200,6.40,-5.3938,0.3200,0.5306,-0.1002,-0.6165,-2.4948,rough,14.0,0,4.018
210,6.72,-5.6660,0.0888,0.6972,-0.3013,-0.5116,-2.6286,rough,14.0,0,4.180
220,7.04,-6.0857,-0.0961,0.7331,-0.2783,0.0631,-2.9877,slope,18.0,0,4.304
230,7.36,-6.3862,-0.1738,0.7497,-0.3160,-0.2246,-2.9588,rough,14.0,0,4.366
240,7.68,-6.6851,-0.2240,0.8164,-0.1722,-0.2855,2.9250,rough,14.0,0,4.420
250,8.00,-6.9207,-0.1252,0.8777,0.0095,-0.2305,2.5094,rough,14.0,0,4.339
260,8.32,-7.1205,0.1053,0.9143,0.1135,-0.0963,2.2694,rough,14.0,0,4.137
270,8.64,-7.3210,0.3151,0.9209,0.0339,-0.0822,2.0614,rough,14.0,0,3.968
280,8.96,-7.4832,0.5632,0.9134,-0.1540,-0.1492,1.8457,rough,14.0,0,3.766
290,9.28,-7.4922,0.8836,0.9747,0.0405,-0.2524,1.6467,rough,14.0,0,3.461
300,9.60,-7.4765,1.1609,1.0590,0.1158,-0.3188,1.5362,rough,14.0,0,3.192
310,9.92,-7.4458,1.4309,1.1361,0.2234,-0.3799,1.4884,rough,14.0,0,2.927
320,10.24,-7.4076,1.7256,1.2293,0.2578,-0.2836,1.4830,rough,14.0,0,2.637
330,10.56,-7.3560,2.0398,1.2935,0.2978,-0.1862,1.4450,rough,14.0,0,2.326
340,10.88,-7.2348,2.4058,1.3266,0.3048,-0.0641,1.2403,rough,14.0,0,1.941
350,11.20,-7.1022,2.7740,1.3065,0.1593,0.0275,1.1410,rough,14.0,0,1.551
360,11.52,-6.9310,3.1033,1.2870,0.1498,0.0760,1.0891,rough,14.0,0,1.181
370,11.84,-6.7539,3.4044,1.2689,0.2107,0.0776,1.0724,rough,14.0,1,7.738
380,12.16,-6.5414,3.7363,1.2202,0.2079,0.1419,0.9913,rough,14.0,1,7.464
390,12.48,-6.3510,4.0809,1.1807,0.0196,0.1414,0.9848,rough,14.0,1,7.221
400,12.80,-6.1632,4.4217,1.1412,-0.1261,0.0299,0.9580,rough,14.0,1,6.994
410,13.12,-5.9350,4.7475,1.1460,-0.1533,-0.0674,0.8976,rough,14.0,1,6.743
420,13.44,-5.6598,5.0608,1.1778,-0.0879,-0.0833,0.8436,rough,14.0,1,6.460
430,13.76,-5.4097,5.3616,1.2217,-0.1648,-0.1611,0.8061,rough,14.0,1,6.216
440,14.08,-5.1451,5.6906,1.2443,-0.3120,-0.1124,0.7905,rough,14.0,1,5.976
450,14.40,-4.8355,6.0252,1.2405,-0.3818,0.1544,0.6973,rough,14.0,1,5.714
460,14.72,-4.4609,6.3113,1.0693,-0.2777,0.4137,0.6033,rough,14.0,1,5.402
470,15.04,-4.1462,6.5488,0.9002,-0.2984,0.3882,0.5643,rough,14.0,1,5.159
480,15.36,-3.8086,6.7426,0.7510,-0.2644,0.4093,0.4059,rough,14.0,1,4.898
490,15.68,-3.4771,6.9306,0.5409,-0.5886,0.3765,-0.1216,rough,14.0,1,4.659
500,16.00,-3.1847,7.1474,0.2112,-0.8456,0.2282,-0.5554,rough,14.0,1,4.488
510,16.32,-2.7426,7.2950,-0.2791,-0.9707,-0.0583,-0.9273,rough,14.0,1,4.176
520,16.64,-2.2615,7.3468,-0.6172,-0.5523,-0.2091,-0.9544,rough,14.0,1,3.807
530,16.96,-1.9923,7.1760,-0.7011,-0.3660,-0.0383,-0.7572,rough,14.0,1,3.490
540,17.28,-1.6669,6.9464,-0.6980,-0.5736,0.0576,-0.7633,rough,14.0,1,3.091
550,17.60,-1.3188,6.7481,-0.7362,-0.5859,0.0672,-0.6588,rough,14.0,1,2.695
560,17.92,-0.8763,6.5019,-0.8931,-0.7357,0.2804,-0.8201,rough,14.0,1,2.196
570,18.24,-0.4935,6.2262,-1.0865,-0.5644,0.2893,-0.7420,rough,14.0,1,1.726
580,18.56,-0.2121,6.0373,-1.1528,-0.5574,0.0181,-0.5512,rough,14.0,1,1.391
590,18.88,0.0511,5.8932,-1.1453,-0.4637,-0.1747,-0.4811,rough,14.0,1,1.103
600,19.20,0.4118,5.6968,-1.1020,-0.4909,-0.1315,-0.5993,rough,14.0,2,10.185
610,19.52,0.7992,5.4364,-1.0687,-0.5627,-0.0207,-0.6739,rough,14.0,2,9.719
620,19.84,1.2137,5.1887,-1.1481,-0.5991,0.0400,-0.8230,rough,14.0,2,9.240
630,20.16,1.4777,5.1276,-1.2178,-0.5753,-0.1824,-0.5217,rough,14.0,2,8.996
640,20.48,1.7233,5.0463,-1.1815,-0.5632,-0.4116,-0.2875,rough,14.0,2,8.755
650,20.80,1.9582,4.9291,-1.1047,-0.3193,-0.4429,-0.2365,rough,14.0,2,8.500
660,21.12,2.2483,4.8946,-1.0163,-0.2581,-0.3174,-0.2825,rough,14.0,2,8.258
670,21.44,2.5605,4.7623,-0.9164,-0.0899,-0.3596,-0.4507,slope,18.0,2,7.936
680,21.76,3.0353,4.5466,-0.9079,-0.1687,0.1259,-0.4675,slope,18.0,2,7.441
690,22.08,3.4530,4.3487,-0.9200,-0.2324,-0.0875,-0.5734,slope,18.0,2,7.003
700,22.40,3.7605,4.1482,-0.8516,-0.2370,-0.3290,-0.6141,rough,14.0,2,6.644
710,22.72,4.0549,3.8761,-0.7499,-0.0645,-0.2483,-0.7081,rough,14.0,2,6.243
720,23.04,4.4122,3.5656,-0.7381,-0.1610,0.2249,-0.8519,rough,14.0,2,5.771
730,23.36,4.6452,3.2993,-0.7623,-0.1435,0.0094,-0.9556,rough,14.0,2,5.418
740,23.68,4.8856,2.9942,-0.7760,-0.2208,0.0741,-1.0769,rough,14.0,2,5.032
750,24.00,4.9931,2.8805,-0.7674,-0.3291,-0.3812,-1.1377,rough,14.0,2,4.876
760,24.32,5.0277,2.6299,-0.7255,-0.0180,-0.2336,-1.4543,rough,14.0,2,4.677
770,24.64,4.8974,2.3477,-0.7020,0.2016,-0.0232,-1.9715,rough,14.0,2,4.589
780,24.96,4.7389,2.1756,-0.6835,0.1751,-0.1472,-2.4257,rough,14.0,2,4.609
790,25.28,4.5206,2.0287,-0.6443,0.1397,-0.3019,-2.6894,slope,18.0,2,4.704
800,25.60,4.2263,1.9291,-0.5161,0.2408,-0.5394,-2.8439,rough,14.0,2,4.901
810,25.92,4.0158,1.8302,-0.3817,0.1141,-0.5439,-2.7702,rough,14.0,2,5.036
820,26.24,3.8773,1.7524,-0.2900,-0.0599,-0.4950,-2.5197,slope,18.0,2,5.123
830,26.56,3.6187,1.5784,-0.1785,-0.0262,-0.2497,-2.3376,slope,18.0,2,5.282
840,26.88,3.4095,1.2664,-0.0897,-0.0883,-0.2151,-2.0335,slope,18.0,2,5.360
850,27.20,3.3584,0.8550,-0.0373,-0.1837,-0.1282,-1.6170,slope,18.0,2,5.283
860,27.52,3.4610,0.4292,-0.0168,-0.1739,0.0102,-1.2168,rough,14.0,2,5.085
870,27.84,3.6534,0.0801,-0.0372,-0.3693,0.2080,-1.0568,rough,14.0,2,4.838
880,28.16,3.8481,-0.2161,-0.1022,-0.1706,0.3516,-0.8564,rough,14.0,2,4.614
890,28.48,4.0957,-0.4378,-0.2170,-0.0641,0.2548,-0.6326,rough,14.0,2,4.355
900,28.80,4.3598,-0.6197,-0.2928,-0.0262,0.1573,-0.4416,slope,18.0,2,4.090
910,29.12,4.7162,-0.7565,-0.2607,-0.0380,-0.1971,-0.2957,slope,18.0,2,3.738
920,29.44,5.2286,-0.8695,-0.2100,-0.0604,-0.1081,-0.0972,rough,14.0,2,3.235
930,29.76,5.7290,-0.9012,-0.2345,-0.0244,0.1065,-0.0558,rough,14.0,2,2.742
940,30.08,6.0905,-0.9033,-0.2159,-0.0466,-0.1763,0.0193,rough,14.0,2,2.384
950,30.40,6.5087,-0.8422,-0.1587,-0.2596,-0.1376,-0.0141,rough,14.0,2,1.961
960,30.72,6.8819,-0.8109,-0.0922,-0.3691,-0.2469,-0.0711,rough,14.0,2,1.587
970,31.04,7.1859,-0.8266,0.0064,-0.3655,-0.4188,-0.0994,rough,14.0,2,1.291
980,31.36,7.4054,-0.8637,0.1303,-0.3367,-0.6682,-0.0087,rough,14.0,2,1.087
990,31.68,7.7056,-0.8694,0.3173,-0.2782,-0.5373,0.0530,rough,14.0,3,5.316
1000,32.00,8.0419,-0.8525,0.4688,-0.2476,-0.4006,0.0588,rough,14.0,3,5.579
1010,32.32,8.3631,-0.7777,0.5094,-0.3691,-0.0449,0.0986,rough,14.0,3,5.873
1020,32.64,8.7101,-0.6016,0.3004,-0.5540,0.4813,0.0909,rough,14.0,3,6.254
1030,32.96,8.8716,-0.3370,0.0437,-0.6297,0.5203,0.1656,rough,14.0,3,6.546
1040,33.28,8.9888,-0.0985,-0.1698,-0.4171,0.4361,0.4600,rough,14.0,3,6.788
1050,33.60,9.0962,0.0868,-0.3082,-0.3663,0.4351,0.7968,rough,14.0,3,6.990
1060,33.92,9.1898,0.2320,-0.4027,-0.3063,0.4280,0.9646,rough,14.0,3,7.156
1070,34.24,9.2779,0.3870,-0.4817,-0.1735,0.5735,1.0745,rough,14.0,3,7.325
1080,34.56,9.3395,0.5324,-0.5701,-0.0396,0.6312,1.2150,rough,14.0,3,7.468
1090,34.88,9.3672,0.6587,-0.6590,0.0121,0.6050,1.3095,rough,14.0,3,7.574
1100,35.20,9.3855,0.7879,-0.7518,0.0210,0.6007,1.3725,rough,14.0,3,7.675
1110,35.52,9.4035,0.9288,-0.8481,-0.0111,0.6212,1.3463,rough,14.0,3,7.786
1120,35.84,9.4263,1.0637,-0.9478,0.0190,0.6530,1.3855,rough,14.0,3,7.896
1130,36.16,9.4474,1.1924,-1.0391,0.0932,0.6927,1.4458,rough,14.0,3,8.002
1140,36.48,9.4552,1.3133,-1.1338,0.0801,0.6262,1.4660,rough,14.0,3,8.094
1150,36.80,9.4397,1.4540,-1.2075,-0.0800,0.6319,1.4313,rough,14.0,3,8.185
1160,37.12,9.4428,1.6001,-1.3063,-0.1634,0.6333,1.3679,rough,14.0,3,8.293
1170,37.44,9.4715,1.7370,-1.3963,-0.1440,0.5997,1.3195,rough,14.0,3,8.414
1180,37.76,9.4595,1.8181,-1.4224,-0.1925,0.4060,1.3950,rough,14.0,3,8.466
1190,38.08,9.4325,1.9375,-1.4486,-0.4112,0.3411,1.3990,rough,14.0,3,8.537
1200,38.40,9.4346,2.0019,-1.4735,-0.4578,0.3084,1.4348,rough,14.0,3,8.587
1210,38.72,9.4568,2.0711,-1.4966,-0.3338,0.2517,1.7187,rough,14.0,3,8.654
1220,39.04,9.4212,2.1324,-1.5016,-0.3833,0.2177,1.8183,rough,14.0,3,8.677
1230,39.36,9.3775,2.1890,-1.4989,-0.4221,0.1493,1.9288,rough,14.0,3,8.693
1240,39.68,9.3842,2.2483,-1.5122,-0.2739,-0.0298,2.1058,rough,14.0,3,8.742
1250,40.00,9.3374,2.3010,-1.5008,-0.2764,-0.1530,2.2255,rough,14.0,3,8.753
1260,40.32,9.2668,2.3466,-1.4762,-0.4101,-0.3312,2.3875,rough,14.0,3,8.745
1270,40.64,9.1780,2.4903,-1.4844,-0.1916,-0.1819,2.3778,rough,14.0,3,8.803
1280,40.96,9.1034,2.5744,-1.4525,-0.0836,-0.2889,2.4493,rough,14.0,3,8.825
1290,41.28,8.9662,2.6656,-1.4495,-0.1907,-0.2263,2.5183,rough,14.0,3,8.817
1300,41.60,8.7630,2.7839,-1.4176,-0.2863,-0.0122,2.5094,rough,14.0,3,8.797
1310,41.92,8.5904,2.9257,-1.4335,-0.1546,0.0103,2.5556,rough,14.0,3,8.820
1320,42.24,8.3271,3.1036,-1.4689,-0.1019,0.2811,2.5442,rough,14.0,3,8.832
1330,42.56,8.0367,3.2426,-1.5278,-0.2753,0.2640,2.5652,rough,14.0,3,8.809
1340,42.88,7.7842,3.3960,-1.5486,-0.2475,-0.0958,2.6633,rough,14.0,3,8.827
1350,43.20,7.4887,3.5818,-1.4850,-0.0821,-0.2222,2.7173,rough,14.0,3,8.867
1360,43.52,7.2479,3.6991,-1.3993,0.0049,-0.4213,2.6917,rough,14.0,3,8.878
1370,43.84,7.0972,3.7743,-1.3367,-0.0026,-0.3690,2.9212,rough,14.0,3,8.890
1380,44.16,7.0918,3.7789,-1.3223,-0.1797,-0.4340,-3.1392,rough,14.0,3,8.892
1390,44.48,6.8971,3.7817,-1.2622,-0.1608,-0.2799,-3.1209,rough,14.0,3,8.825
1400,44.80,6.5365,3.8241,-1.2104,0.0301,-0.1999,3.0923,rough,14.0,3,8.745
1410,45.12,6.0513,3.8441,-1.2197,-0.0415,0.3230,3.0669,rough,14.0,3,8.626
1420,45.44,5.7729,3.8589,-1.2432,-0.0429,-0.1881,3.1048,rough,14.0,3,8.572
1430,45.76,5.4272,3.8849,-1.1646,0.0587,-0.2343,3.1151,rough,14.0,3,8.525
1440,46.08,5.1719,3.8890,-1.0419,0.0167,-0.6330,-3.1147,rough,14.0,3,8.484
1450,46.40,4.8914,3.8827,-0.8834,0.0649,-0.4593,-3.1159,rough,14.0,3,8.437
1460,46.72,4.5176,3.8723,-0.7783,0.0974,-0.2384,-3.0620,rough,14.0,3,8.387
1470,47.04,4.0854,3.8448,-0.7340,0.1587,-0.0020,-2.9912,rough,14.0,3,8.334
1480,47.36,3.7566,3.8451,-0.7744,0.2962,-0.0892,-2.7496,rough,14.0,3,8.330
1490,47.68,3.5126,3.7437,-0.7341,0.2364,-0.2977,-2.4500,slope,18.0,3,8.234
1500,48.00,3.2061,3.4983,-0.6260,0.2931,-0.3103,-2.3560,slope,18.0,3,8.006
1510,48.32,2.9352,3.2338,-0.4889,0.3043,-0.4104,-2.3370,slope,18.0,3,7.768
1520,48.64,2.7218,2.9983,-0.3322,0.2413,-0.5186,-2.3312,slope,18.0,3,7.562
1530,48.96,2.5278,2.7441,-0.1764,0.1152,-0.4914,-2.2997,slope,18.0,3,7.341
1540,49.28,2.3137,2.5026,-0.0178,0.1164,-0.4571,-2.2804,slope,18.0,3,7.145
1550,49.60,2.0868,2.2154,0.1213,0.0599,-0.3065,-2.0829,slope,18.0,3,6.918
1560,49.92,1.8726,1.8248,0.2410,0.0277,-0.2116,-2.0273,slope,18.0,3,6.600
1570,50.24,1.6704,1.3971,0.3181,0.0096,-0.1373,-1.9814,slope,18.0,3,6.258
1580,50.56,1.5093,0.9492,0.3479,-0.0210,-0.0126,-1.7794,slope,18.0,3,5.900
1590,50.88,1.4360,0.4780,0.3227,0.0092,0.0532,-1.4065,slope,18.0,3,5.500
1600,51.20,1.5564,-0.0063,0.2760,0.0413,0.1341,-1.1177,slope,18.0,3,5.013
1610,51.52,1.8012,-0.4616,0.2126,0.0509,0.1186,-0.9843,slope,18.0,3,4.496
1620,51.84,2.1138,-0.9165,0.1521,0.0698,0.1095,-0.9334,slope,18.0,3,3.950
1630,52.16,2.4549,-1.4020,0.0526,0.1214,0.2697,-0.9222,slope,18.0,3,3.367
1640,52.48,2.7645,-1.8740,-0.1556,0.1111,0.4354,-1.0414,rough,14.0,3,2.812
1650,52.80,2.9358,-2.2556,-0.3239,0.1928,0.3836,-1.1017,rough,14.0,3,2.394
1660,53.12,3.1001,-2.6304,-0.4286,0.2028,0.1942,-1.1337,rough,14.0,3,1.985
1670,53.44,3.2749,-3.0525,-0.4713,0.2354,0.0874,-1.1659,slope,18.0,3,1.528
1680,53.76,3.4717,-3.5392,-0.5831,0.0889,0.2097,-1.0311,rough,14.0,3,1.004
1690,54.08,3.6290,-3.8531,-0.6650,0.0864,0.1708,-1.0869,rough,14.0,0,12.912
1700,54.40,3.7033,-4.0380,-0.6846,0.0819,0.1453,-1.5134,rough,14.0,0,13.086
1710,54.72,3.6779,-4.2112,-0.7042,0.0019,0.1132,-2.1397,rough,14.0,0,13.176
1720,55.04,3.4529,-4.4534,-0.7386,-0.0691,0.0390,-2.4381,rough,14.0,0,13.161
1730,55.36,3.0832,-4.7087,-0.7964,0.0495,0.2054,-2.5110,rough,14.0,0,13.057
1740,55.68,2.7484,-4.9390,-0.8608,0.0193,0.1089,-2.5790,rough,14.0,0,12.975
1750,56.00,2.4759,-5.0832,-0.7903,0.0840,-0.4286,-2.6774,rough,14.0,0,12.886
1760,56.32,2.2625,-5.1720,-0.6410,0.2166,-0.8068,-2.8503,rough,14.0,0,12.804
1770,56.64,2.0295,-5.1862,-0.4745,0.4145,-0.6439,2.9980,rough,14.0,0,12.657
1780,56.96,1.6684,-5.0880,-0.3566,0.5899,-0.2113,3.0327,rough,14.0,0,12.343
1790,57.28,1.2936,-4.9866,-0.2956,0.5683,-0.1488,2.8882,rough,14.0,0,12.022
1800,57.60,0.8977,-4.8433,-0.2913,0.5409,-0.1156,2.8268,rough,14.0,0,11.658
1810,57.92,0.6261,-4.6762,-0.2262,0.6213,-0.3830,2.5777,rough,14.0,0,11.358
1820,58.24,0.3615,-4.4742,-0.1299,0.5463,-0.4462,2.5571,rough,14.0,0,11.035
1830,58.56,0.0984,-4.2262,-0.0062,0.6429,-0.4719,2.5051,rough,14.0,0,10.677
1840,58.88,-0.1844,-3.9801,0.0552,0.5868,-0.2130,2.5937,rough,14.0,0,10.310
1850,59.20,-0.5333,-3.7442,0.1281,0.6048,-0.2256,2.5593,rough,14.0,0,9.911
1860,59.52,-0.9118,-3.5280,0.2122,0.4766,-0.1895,2.5569,rough,14.0,0,9.513
1870,59.84,-1.2115,-3.2965,0.2972,0.4838,-0.3164,2.4494,rough,14.0,0,9.150
1880,60.16,-1.5015,-2.9970,0.3363,0.4422,-0.0360,2.4319,rough,14.0,0,8.739
1890,60.48,-1.7614,-2.6470,0.2991,0.4439,0.0573,2.4840,rough,14.0,0,8.303
1900,60.80,-2.0735,-2.3291,0.2726,0.5364,0.1518,2.4988,rough,14.0,0,7.865
1910,61.12,-2.3398,-2.0348,0.2561,0.5698,-0.0818,2.3685,rough,14.0,0,7.472
1920,61.44,-2.6373,-1.7264,0.2816,0.5393,-0.0854,2.3578,rough,14.0,0,7.051
1930,61.76,-2.9218,-1.3878,0.2592,0.5657,0.0273,2.3498,rough,14.0,0,6.612
1940,62.08,-3.2289,-1.0441,0.2075,0.4427,0.1914,2.3473,rough,14.0,0,6.158
1950,62.40,-3.5088,-0.7182,0.1235,0.4231,0.0270,2.3065,rough,14.0,0,5.734
1960,62.72,-3.7953,-0.4080,0.1179,0.3344,-0.0628,2.2679,rough,14.0,0,5.321
1970,63.04,-4.0747,-0.0745,0.1443,0.2758,-0.0705,2.2417,rough,14.0,0,4.893
1980,63.36,-4.3407,0.2936,0.1520,0.2695,-0.0085,2.2945,rough,14.0,0,4.442
1990,63.68,-4.6255,0.6399,0.1099,0.1722,0.1234,2.2723,rough,14.0,0,4.002
2000,64.00,-4.8072,0.8938,0.1251,0.2252,-0.2352,2.1936,rough,14.0,0,3.693
2010,64.32,-4.9698,1.1562,0.2216,0.3059,-0.4155,2.1192,rough,14.0,0,3.386
2020,64.64,-5.1573,1.4418,0.3533,0.0868,-0.5085,2.1085,rough,14.0,0,3.047
2030,64.96,-5.2917,1.7595,0.4695,0.1567,-0.3426,2.1710,rough,14.0,0,2.702
2040,65.28,-5.5299,2.0780,0.5690,0.1321,-0.1973,2.2056,rough,14.0,0,2.313
2050,65.60,-5.7496,2.3522,0.6501,-0.0039,-0.3770,2.1847,rough,14.0,0,1.975
2060,65.92,-5.9003,2.6884,0.7551,0.2532,-0.3342,2.0877,rough,14.0,0,1.607
2070,66.24,-6.0088,2.9179,0.8674,0.3010,-0.4820,1.9399,rough,14.0,0,1.354
2080,66.56,-6.1097,3.1687,0.9870,0.2804,-0.4069,1.8797,rough,14.0,0,1.084
2090,66.88,-6.1746,3.3834,1.0780,0.3179,-0.3400,1.7903,rough,14.0,1,7.179
2100,67.20,-6.2721,3.6894,1.1606,0.2076,-0.1520,1.7648,rough,14.0,1,7.208
2110,67.52,-6.3480,4.0117,1.1761,0.1545,0.0273,1.7623,rough,14.0,1,7.228
2120,67.84,-6.4248,4.4149,1.1406,0.1132,0.1248,1.7084,rough,14.0,1,7.255
2130,68.16,-6.4755,4.8299,1.0818,0.0885,0.1075,1.6602,rough,14.0,1,7.280
2140,68.48,-6.5046,5.2249,1.0560,0.0413,0.0361,1.5563,rough,14.0,1,7.306
2150,68.80,-6.5000,5.5896,1.0820,-0.0221,-0.1539,1.4898,rough,14.0,1,7.317
2160,69.12,-6.4936,6.0131,1.0997,-0.1966,-0.0638,1.4342,rough,14.0,1,7.353
2170,69.44,-6.4114,6.4634,1.0846,-0.1915,0.1930,1.2827,rough,14.0,1,7.342
2180,69.76,-6.2660,6.8660,0.9718,-0.1350,0.3538,1.1506,rough,14.0,1,7.287
2190,70.08,-6.1101,7.2752,0.7472,-0.3025,0.5025,0.9119,rough,14.0,1,7.249
2200,70.40,-5.9163,7.5922,0.5653,-0.4596,0.4133,0.7646,rough,14.0,1,7.170
2210,70.72,-5.6808,7.8734,0.4250,-0.5877,0.3503,0.7654,rough,14.0,1,7.056
2220,71.04,-5.4441,8.1540,0.2744,-0.6169,0.3057,0.7192,rough,14.0,1,6.958
2230,71.36,-5.1612,8.4036,0.0341,-0.4362,0.6295,0.6144,rough,14.0,1,6.824
2240,71.68,-4.8899,8.7771,-0.4198,-0.4539,0.7515,0.5883,rough,14.0,1,6.784
2250,72.00,-4.6881,9.3110,-0.9527,-0.6434,0.6615,0.6421,rough,14.0,1,6.928
2260,72.32,-4.6000,9.8621,-1.3624,-0.3051,0.4486,1.0657,rough,14.0,1,7.211
2270,72.64,-4.5624,10.1145,-1.4620,-0.1886,0.3248,0.9292,rough,14.0,1,7.353
2280,72.96,-4.5346,10.1766,-1.4895,-0.2279,0.2542,0.7557,rough,14.0,1,7.376
2290,73.28,-4.4771,10.2152,-1.5034,-0.3002,0.2464,0.5775,rough,14.0,1,7.361
2300,73.60,-4.3997,10.2434,-1.5165,-0.3618,0.2324,0.4395,rough,14.0,1,7.326
2310,73.92,-4.3234,10.2618,-1.5271,-0.3933,0.1937,0.3406,rough,14.0,1,7.285
2320,74.24,-4.2497,10.2695,-1.5351,-0.3906,0.1276,0.2761,rough,14.0,1,7.239
2330,74.56,-4.2036,10.2957,-1.5468,-0.3933,0.0516,0.1201,rough,14.0,1,7.225
2340,74.88,-4.1612,10.3247,-1.5592,-0.3940,-0.0382,-0.0616,rough,14.0,1,7.217
2350,75.20,-4.1088,10.3431,-1.5616,-0.3790,-0.0557,-0.2264,rough,14.0,1,7.195
2360,75.52,-4.0650,10.3483,-1.5612,-0.3606,-0.0966,-0.3452,rough,14.0,1,7.169
2370,75.84,-4.0192,10.3467,-1.5590,-0.3531,-0.1100,-0.4471,rough,14.0,1,7.137
2380,76.16,-3.9955,10.3378,-1.5552,-0.2907,-0.2012,-0.5052,rough,14.0,1,7.114
2390,76.48,-3.9744,10.3288,-1.5457,-0.2806,-0.2710,-0.5444,rough,14.0,1,7.093
2400,76.80,-3.9578,10.3155,-1.5340,-0.2895,-0.3331,-0.5760,rough,14.0,1,7.072
2410,77.12,-3.9411,10.3007,-1.5225,-0.2983,-0.3955,-0.6079,rough,14.0,1,7.050
2420,77.44,-3.9243,10.2848,-1.5112,-0.3091,-0.4582,-0.6400,rough,14.0,1,7.027
2430,77.76,-3.9072,10.2676,-1.4999,-0.3223,-0.5212,-0.6718,rough,14.0,1,7.003
2440,78.08,-3.8898,10.2482,-1.4877,-0.3319,-0.5783,-0.7061,rough,14.0,1,6.977
2450,78.40,-3.8713,10.2217,-1.4728,-0.2827,-0.5933,-0.7598,rough,14.0,1,6.945
2460,78.72,-3.8535,10.1903,-1.4541,-0.2274,-0.5896,-0.8149,rough,14.0,1,6.909
2470,79.04,-3.8127,10.1339,-1.4485,-0.1301,-0.3322,-0.8495,rough,14.0,1,6.840
2480,79.36,-3.8109,10.1306,-1.4267,-0.1507,-0.5178,-0.8880,rough,14.0,1,6.836
2490,79.68,-3.7876,10.0792,-1.4116,-0.0940,-0.4331,-0.9359,rough,14.0,1,6.783
2500,80.00,-3.7645,10.0275,-1.3980,-0.0465,-0.3487,-0.9731,rough,14.0,1,6.729
2510,80.32,-3.7447,10.0004,-1.3836,-0.0086,-0.3406,-0.9865,rough,14.0,1,6.696
2520,80.64,-3.7284,9.9709,-1.3650,0.0264,-0.3504,-1.0053,rough,14.0,1,6.663
2530,80.96,-3.7137,9.9419,-1.3465,0.0617,-0.3660,-1.0241,rough,14.0,1,6.632
2540,81.28,-3.6843,9.9519,-1.3705,-0.1783,-0.4997,-0.9745,rough,14.0,1,6.619
2550,81.60,-3.6771,9.9402,-1.3708,-0.1478,-0.4515,-0.9953,rough,14.0,1,6.606
2560,81.92,-3.6693,9.8896,-1.3269,-0.0130,-0.3314,-1.0234,rough,14.0,1,6.563
2570,82.24,-3.6565,9.8658,-1.3150,0.0187,-0.3720,-1.0457,rough,14.0,1,6.537
2580,82.56,-3.6478,9.8457,-1.3077,0.0611,-0.4608,-1.0607,rough,14.0,1,6.517
2590,82.88,-3.6114,9.8134,-1.2953,0.0015,-0.4090,-1.0650,rough,14.0,1,6.468
2600,83.20,-3.5906,9.7840,-1.2853,-0.0084,-0.4309,-1.0771,rough,14.0,1,6.432
2610,83.52,-3.5233,9.7200,-1.2823,-0.1492,-0.1567,-1.1052,rough,14.0,1,6.340
2620,83.84,-3.5028,9.6805,-1.2653,-0.1382,-0.1920,-1.1005,rough,14.0,1,6.297
2630,84.16,-3.4932,9.6360,-1.2529,-0.0574,-0.2333,-1.1032,rough,14.0,2,15.702
2640,84.48,-3.4531,9.6007,-1.2551,-0.2156,-0.2722,-1.1146,rough,14.0,2,15.648
2650,84.80,-3.4071,9.5207,-1.2384,-0.2096,-0.1326,-1.1615,rough,14.0,2,15.562
2660,85.12,-3.3618,9.4435,-1.2203,-0.2579,-0.1310,-1.1646,rough,14.0,2,15.477
2670,85.44,-3.3243,9.3533,-1.2099,-0.2198,-0.1480,-1.1441,rough,14.0,2,15.390
2680,85.76,-3.2758,9.2504,-1.1909,-0.2190,-0.1879,-1.1383,rough,14.0,2,15.287
2690,86.08,-3.2233,9.1330,-1.1671,-0.1970,-0.2391,-1.1482,rough,14.0,2,15.171
2700,86.40,-3.1631,8.9907,-1.1335,-0.1660,-0.2691,-1.1542,rough,14.0,2,15.034
2710,86.72,-3.1134,8.8395,-1.0922,-0.0761,-0.3743,-1.1505,rough,14.0,2,14.900
2720,87.04,-3.0345,8.6707,-1.0201,-0.0803,-0.4274,-1.1486,rough,14.0,2,14.733
2730,87.36,-2.9385,8.4955,-0.9150,-0.1574,-0.5330,-1.1314,rough,14.0,2,14.548
2740,87.68,-2.8257,8.3084,-0.8262,-0.1927,-0.4899,-1.1611,rough,14.0,2,14.344
2750,88.00,-2.6932,8.0811,-0.7265,-0.2395,-0.3068,-1.2313,rough,14.0,2,14.099
2760,88.32,-2.5784,7.8523,-0.6606,-0.2002,-0.3698,-1.1634,rough,14.0,2,13.869
2770,88.64,-2.3659,7.5004,-0.6060,-0.4924,-0.0402,-1.2033,rough,14.0,2,13.488
2780,88.96,-2.1485,7.2248,-0.6372,-0.5337,-0.2032,-1.2533,rough,14.0,2,13.149
2790,89.28,-2.0408,6.9381,-0.5851,-0.3509,-0.3746,-1.3053,rough,14.0,2,12.893
2800,89.60,-1.9222,6.6222,-0.4545,-0.3787,-0.4262,-1.2140,rough,14.0,2,12.615
2810,89.92,-1.7475,6.3050,-0.3444,-0.5931,-0.3468,-1.2125,rough,14.0,2,12.291
