step,time_s,x,y,z,roll,pitch,yaw,terrain,speed,target_idx,dist_to_target
10,0.32,-0.1307,1.4507,0.1840,0.0002,-0.0124,0.0052,rough,14.0,0,4.147
20,0.64,0.0942,1.4452,0.1794,-0.0002,0.0015,0.2959,rough,14.0,0,4.215
30,0.96,0.3506,1.5356,0.1798,0.0000,-0.0002,0.5447,rough,14.0,0,4.215
40,1.28,0.5883,1.7119,0.1798,0.0000,-0.0003,0.7755,rough,14.0,0,4.147
50,1.60,0.8004,1.9606,0.1798,0.0001,0.0001,0.9769,rough,14.0,0,4.023
60,1.92,0.9826,2.2672,0.1798,0.0001,-0.0000,1.1892,rough,14.0,0,3.858
70,2.24,1.1092,2.6224,0.1798,-0.0001,0.0003,1.3937,rough,14.0,0,3.648
80,2.56,1.1696,3.0101,0.1799,0.0000,0.0001,1.5987,rough,14.0,0,3.396
90,2.88,1.1502,3.4118,0.1799,-0.0001,-0.0001,1.7718,rough,14.0,0,3.104
100,3.20,1.0584,3.8097,0.1799,-0.0001,0.0001,1.9197,rough,14.0,0,2.782
110,3.52,0.9059,4.2102,0.1803,-0.0009,-0.0025,1.9945,rough,14.0,0,2.433
120,3.84,0.7213,4.5906,0.1785,-0.0132,0.0057,2.1022,rough,14.0,0,2.091
130,4.16,0.5035,4.8935,0.2133,-0.0870,-0.1148,2.1968,rough,14.0,0,1.777
140,4.48,0.2448,5.1834,0.2451,-0.1514,-0.1043,2.3187,rough,14.0,0,1.452
150,4.80,-0.0377,5.4106,0.2999,-0.2661,-0.2126,2.4677,rough,14.0,0,1.143
160,5.12,-0.3574,5.5904,0.3652,-0.3551,-0.2165,2.6325,rough,14.0,0,0.832
170,5.44,-0.6866,5.7450,0.4373,-0.3476,-0.2591,2.5414,rough,14.0,1,1.659
180,5.76,-0.9943,5.9520,0.5242,-0.3468,-0.2811,2.3880,rough,14.0,1,1.418
190,6.08,-1.2577,6.1945,0.6115,-0.3499,-0.3034,2.2318,rough,14.0,1,1.199
200,6.40,-1.4619,6.4518,0.7116,-0.2911,-0.3386,2.0854,rough,14.0,1,1.019
210,6.72,-1.6144,6.7157,0.8148,-0.2434,-0.3782,1.9081,rough,14.0,1,0.884
220,7.04,-1.7262,6.9732,0.9239,-0.1541,-0.4424,1.7092,rough,14.0,1,0.811
230,7.36,-1.7672,7.1772,1.0171,0.0026,-0.4597,1.3850,rough,14.0,2,8.530
240,7.68,-1.7452,7.3414,1.0956,0.0915,-0.4213,1.1943,rough,14.0,2,8.586
250,8.00,-1.6537,7.4831,1.1641,0.1649,-0.3887,1.0032,rough,14.0,2,8.574
260,8.32,-1.5090,7.6493,1.2463,0.2410,-0.3336,0.7881,rough,14.0,2,8.532
270,8.64,-1.3310,7.8364,1.3312,0.2641,-0.2970,0.5980,rough,14.0,2,8.478
280,8.96,-1.0866,8.0050,1.4054,0.2396,-0.2228,0.4290,rough,14.0,2,8.366
290,9.28,-0.7649,8.0887,1.4772,0.2982,-0.2375,0.2358,rough,14.0,2,8.152
300,9.60,-0.4172,8.1360,1.5493,0.3490,-0.2232,0.0895,rough,14.0,2,7.902
310,9.92,-0.0411,8.1151,1.6300,0.3721,-0.2271,-0.0780,rough,14.0,2,7.595
320,10.24,0.3565,8.0416,1.7078,0.4094,-0.1916,-0.2007,rough,14.0,2,7.244
330,10.56,0.7675,7.9203,1.7671,0.4315,-0.1101,-0.2912,rough,14.0,2,6.856
340,10.88,1.1714,7.7691,1.7899,0.5196,-0.0200,-0.3066,rough,14.0,2,6.458
350,11.20,1.5608,7.6104,1.7834,0.5960,0.0068,-0.3337,rough,14.0,2,6.069
360,11.52,1.9570,7.4373,1.7546,0.5640,0.0319,-0.4016,rough,14.0,2,5.670
370,11.84,2.3398,7.2424,1.7327,0.6011,0.0349,-0.4456,rough,14.0,2,5.268
380,12.16,2.6989,7.0107,1.7059,0.6110,-0.0305,-0.5019,rough,14.0,2,4.858
390,12.48,3.0782,6.7641,1.6776,0.6304,0.0486,-0.5271,rough,14.0,2,4.427
400,12.80,3.4531,6.5139,1.6284,0.6581,0.1267,-0.5455,rough,14.0,2,4.001
410,13.12,3.8167,6.2612,1.5490,0.6649,0.1850,-0.5669,rough,14.0,2,3.584
420,13.44,4.1586,5.9838,1.4387,0.6745,0.1534,-0.6229,rough,14.0,2,3.166
430,13.76,4.4917,5.7067,1.3570,0.6821,0.1614,-0.6786,rough,14.0,2,2.758
440,14.08,4.8085,5.4146,1.2783,0.6653,0.1511,-0.7443,rough,14.0,2,2.353
450,14.40,5.1125,5.0973,1.1871,0.6667,0.2010,-0.7780,rough,14.0,2,1.940
460,14.72,5.4092,4.7824,1.0729,0.6577,0.2834,-0.8015,rough,14.0,2,1.546
470,15.04,5.5126,4.5641,0.9459,0.7018,0.0789,-0.5364,rough,14.0,2,1.309
480,15.36,5.4238,4.4002,0.7932,0.7177,-0.1595,-0.3000,rough,14.0,2,1.178
490,15.68,5.4725,4.1607,0.6248,0.5743,-0.4800,0.1271,rough,14.0,2,0.937
500,16.00,5.5949,3.8740,0.4774,0.4062,-0.5166,0.2902,rough,14.0,3,3.109
510,16.32,5.8177,3.7838,0.5245,0.5196,-0.3105,-0.1468,rough,14.0,3,2.884
520,16.64,6.1578,3.6537,0.5957,0.5915,-0.3067,-0.2963,rough,14.0,3,2.551
530,16.96,6.5289,3.5006,0.7010,0.6111,-0.2716,-0.4104,rough,14.0,3,2.190
540,17.28,6.9073,3.3059,0.7731,0.5891,-0.1580,-0.4835,rough,14.0,3,1.807
550,17.60,7.2568,3.0771,0.8046,0.5790,-0.1085,-0.5952,rough,14.0,3,1.430
560,17.92,7.6072,2.8291,0.7826,0.4535,0.0119,-0.6797,rough,14.0,3,1.066
570,18.24,7.8834,2.5439,0.7629,0.3950,0.0231,-0.8680,rough,14.0,0,9.521
580,18.56,7.9873,2.2924,0.7305,0.3365,0.1451,-1.2109,rough,14.0,0,9.700
590,18.88,7.9442,2.0712,0.6701,0.3062,0.2529,-1.6361,rough,14.0,0,9.734
600,19.20,7.8319,1.8137,0.5735,0.3473,0.3948,-1.9160,rough,14.0,0,9.722
610,19.52,7.7126,1.5336,0.4631,0.3491,0.4073,-2.0960,rough,14.0,0,9.722
620,19.84,7.5285,1.2801,0.3306,0.3264,0.4655,-2.3021,rough,14.0,0,9.660
630,20.16,7.3290,1.0683,0.2432,0.1651,0.2571,-2.5652,rough,14.0,0,9.576
640,20.48,7.0554,0.8981,0.1804,0.0011,0.0030,-2.6995,rough,14.0,0,9.416
650,20.80,6.7039,0.7523,0.1798,0.0003,-0.0005,-2.8512,rough,14.0,0,9.184
660,21.12,6.3189,0.6470,0.1799,-0.0001,-0.0001,-3.0148,rough,14.0,0,8.912
670,21.44,5.9102,0.6023,0.1799,0.0001,-0.0001,3.1182,rough,14.0,0,8.596
680,21.76,5.4903,0.6185,0.1799,-0.0001,-0.0000,2.9953,rough,14.0,0,8.243
690,22.08,5.0685,0.6875,0.1799,-0.0001,0.0001,2.9008,rough,14.0,0,7.864
700,22.40,4.6512,0.7967,0.1799,-0.0001,0.0001,2.8295,rough,14.0,0,7.468
710,22.72,4.2406,0.9341,0.1799,-0.0002,0.0000,2.7693,rough,14.0,0,7.063
720,23.04,3.8386,1.0970,0.1799,-0.0002,-0.0000,2.7150,rough,14.0,0,6.651
730,23.36,3.4445,1.2819,0.1799,-0.0001,-0.0000,2.6687,rough,14.0,0,6.234
740,23.68,3.0580,1.4852,0.1799,-0.0001,-0.0000,2.6283,rough,14.0,0,5.812
750,24.00,2.6791,1.7043,0.1799,-0.0001,-0.0000,2.5924,rough,14.0,0,5.387
760,24.32,2.3078,1.9372,0.1799,-0.0001,-0.0000,2.5606,rough,14.0,0,4.959
770,24.64,1.9438,2.1821,0.1799,-0.0001,-0.0000,2.5322,rough,14.0,0,4.530
780,24.96,1.5865,2.4374,0.1799,-0.0001,-0.0000,2.5053,rough,14.0,0,4.099
790,25.28,1.2359,2.7024,0.1799,-0.0001,-0.0000,2.4794,rough,14.0,0,3.668
800,25.60,0.8924,2.9765,0.1799,-0.0001,-0.0000,2.4538,rough,14.0,0,3.236
810,25.92,0.5561,3.2595,0.1799,-0.0001,-0.0000,2.4280,rough,14.0,0,2.805
820,26.24,0.2257,3.5510,0.1804,0.0017,-0.0020,2.4017,rough,14.0,0,2.373
830,26.56,-0.0945,3.8489,0.1787,0.0028,-0.0110,2.3705,rough,14.0,0,1.945
840,26.88,-0.4064,4.1605,0.1787,-0.0047,-0.0020,2.3365,rough,14.0,0,1.514
850,27.20,-0.7013,4.4807,0.1797,-0.0006,-0.0002,2.2940,rough,14.0,0,1.092
860,27.52,-0.9726,4.7904,0.1918,-0.0671,0.0049,2.1986,rough,14.0,1,2.580
870,27.84,-1.1740,5.1003,0.2290,-0.0195,-0.1912,2.0903,rough,14.0,1,2.275
880,28.16,-1.3535,5.4021,0.3206,-0.0519,-0.2998,1.9999,rough,14.0,1,1.996
890,28.48,-1.5066,5.7139,0.4258,-0.0732,-0.3421,1.9301,rough,14.0,1,1.726
900,28.80,-1.6491,6.0383,0.5239,-0.1675,-0.3301,1.8593,rough,14.0,1,1.473
910,29.12,-1.7411,6.3399,0.6411,-0.1414,-0.3934,1.7882,rough,14.0,1,1.258
920,29.44,-1.8129,6.6305,0.7550,-0.1462,-0.4012,1.7124,rough,14.0,1,1.085
930,29.76,-1.8602,6.8767,0.8639,-0.1319,-0.4456,1.6616,rough,14.0,1,0.975
940,30.08,-1.8901,7.0657,0.9526,-0.1340,-0.4533,1.6865,rough,14.0,1,0.922
950,30.40,-1.9353,7.1822,1.0043,-0.1756,-0.4269,1.7848,rough,14.0,1,0.935
960,30.72,-2.0074,7.2811,1.0457,-0.1896,-0.4114,1.8237,rough,14.0,1,0.992
970,31.04,-2.0895,7.3944,1.0869,-0.1444,-0.3954,1.7799,rough,14.0,1,1.070
980,31.36,-2.1282,7.5189,1.1414,-0.1245,-0.4050,1.6738,rough,14.0,1,1.119
990,31.68,-2.1441,7.6344,1.1912,-0.0990,-0.4098,1.6142,rough,14.0,1,1.155
1000,32.00,-2.1507,7.7467,1.2310,-0.0877,-0.3597,1.5825,rough,14.0,1,1.192
1010,32.32,-2.1525,7.8538,1.2689,-0.0822,-0.3089,1.5669,rough,14.0,1,1.232
1020,32.64,-2.1541,7.9534,1.2980,-0.0943,-0.2807,1.5642,rough,14.0,1,1.276
1030,32.96,-2.1617,8.0602,1.3241,-0.1099,-0.2409,1.5304,rough,14.0,1,1.335
1040,33.28,-2.1673,8.1833,1.3521,-0.0920,-0.2477,1.4271,rough,14.0,1,1.407
1050,33.60,-2.1575,8.3608,1.3865,-0.0741,-0.2098,1.1791,rough,14.0,1,1.509
1060,33.92,-2.0905,8.5689,1.4263,-0.0314,-0.1925,0.8138,rough,14.0,1,1.608
1070,34.24,-1.9088,8.6987,1.4730,0.0389,-0.2155,0.4975,rough,14.0,1,1.599
1080,34.56,-1.6662,8.7384,1.5237,0.1127,-0.2310,0.1857,rough,14.0,1,1.514
1090,34.88,-1.3479,8.7068,1.5646,0.2158,-0.1192,-0.1178,rough,14.0,1,1.377
1100,35.20,-1.0548,8.6012,1.5854,0.2852,-0.0487,-0.3279,rough,14.0,1,1.232
1110,35.52,-0.8178,8.4711,1.5897,0.3333,0.0115,-0.4800,rough,14.0,1,1.119
1120,35.84,-0.6173,8.2985,1.5735,0.3500,0.0680,-0.6761,rough,14.0,1,1.012
1130,36.16,-0.4329,8.0735,1.5289,0.3585,0.1792,-0.9276,rough,14.0,1,0.916
1140,36.48,-0.3269,7.8088,1.4496,0.3146,0.2996,-1.2088,rough,14.0,1,0.820
1150,36.80,-0.2400,7.4674,1.3145,0.2960,0.3553,-1.2000,rough,14.0,2,7.364
1160,37.12,-0.0843,7.0903,1.1533,0.3057,0.3773,-1.1006,rough,14.0,2,7.026
1170,37.44,0.1199,6.7317,0.9706,0.2877,0.4447,-1.0060,rough,14.0,2,6.663
1180,37.76,0.3356,6.3937,0.7766,0.3434,0.4305,-0.8946,rough,14.0,2,6.306
1190,38.08,0.5825,6.0825,0.6065,0.3300,0.3528,-0.8556,rough,14.0,2,5.940
1200,38.40,0.8418,5.7877,0.4786,0.3314,0.2630,-0.8038,rough,14.0,2,5.574
1210,38.72,1.1302,5.4950,0.3841,0.3045,0.1870,-0.7666,rough,14.0,2,5.187
1220,39.04,1.4423,5.2006,0.3150,0.2937,0.1531,-0.7092,rough,14.0,2,4.782
1230,39.36,1.7766,4.9353,0.2332,0.2060,0.1146,-0.6743,rough,14.0,2,4.371
1240,39.68,2.1122,4.6863,0.2044,0.1202,0.0095,-0.6435,rough,14.0,2,3.967
1250,40.00,2.4806,4.4501,0.1781,-0.0121,0.0015,-0.5945,rough,14.0,2,3.541
1260,40.32,2.8418,4.2074,0.1793,-0.0015,0.0063,-0.5567,rough,14.0,2,3.122
1270,40.64,3.2139,3.9809,0.1789,0.0019,-0.0007,-0.5211,rough,14.0,2,2.702
1280,40.96,3.5968,3.7682,0.1798,0.0003,-0.0001,-0.4738,rough,14.0,2,2.280
1290,41.28,3.9847,3.5792,0.1785,-0.0051,0.0010,-0.4306,rough,14.0,2,1.864
1300,41.60,4.3841,3.4026,0.1797,-0.0005,0.0002,-0.3857,rough,14.0,2,1.447
1310,41.92,4.7801,3.2478,0.1798,0.0019,0.0011,-0.3270,rough,14.0,2,1.048
1320,42.24,5.1824,3.1139,0.1809,0.0084,0.0000,-0.2898,rough,14.0,3,3.033
1330,42.56,5.6046,2.9850,0.1799,-0.0001,0.0002,-0.3146,rough,14.0,3,2.597
1340,42.88,5.9201,2.8531,0.2389,0.0887,-0.2591,-0.3108,rough,14.0,3,2.256
1350,43.20,6.2738,2.7205,0.2389,0.2593,-0.2279,-0.2730,rough,14.0,3,1.882
1360,43.52,6.6372,2.5805,0.3386,0.3251,-0.1656,-0.3490,rough,14.0,3,1.497
1370,43.84,6.9946,2.4019,0.3704,0.5226,-0.3037,-0.4475,rough,14.0,3,1.099
1380,44.16,7.3134,2.2055,0.4465,0.4560,-0.1196,-0.5259,rough,14.0,0,9.096
1390,44.48,7.3395,2.0871,0.3976,0.6911,-0.1277,-1.0894,rough,14.0,0,9.164
1400,44.80,7.3611,1.8216,0.3472,0.4606,0.1790,-1.5097,rough,14.0,0,9.285
1410,45.12,7.3308,1.5978,0.3018,0.3231,0.1978,-1.8882,rough,14.0,0,9.347
1420,45.44,7.2142,1.3671,0.2410,0.0765,0.2085,-2.1608,rough,14.0,0,9.340
1430,45.76,7.0650,1.1521,0.1907,-0.0717,-0.0182,-2.3779,rough,14.0,0,9.303
1440,46.08,6.7996,0.9363,0.1798,-0.0006,-0.0009,-2.5718,rough,14.0,0,9.174
1450,46.40,6.4850,0.7597,0.1799,0.0000,-0.0001,-2.7560,rough,14.0,0,8.992
1460,46.72,6.1237,0.6272,0.1798,-0.0002,0.0000,-2.9330,rough,14.0,0,8.759
1470,47.04,5.7287,0.5518,0.1798,-0.0000,-0.0002,-3.0953,rough,14.0,0,8.476
1480,47.36,5.3153,0.5398,0.1799,-0.0003,0.0000,3.0456,rough,14.0,0,8.150
1490,47.68,4.8962,0.5871,0.1799,-0.0002,-0.0001,2.9298,rough,14.0,0,7.790
1500,48.00,4.4782,0.6838,0.1799,-0.0001,0.0000,2.8462,rough,14.0,0,7.406
1510,48.32,4.0689,0.8148,0.1799,-0.0002,-0.0000,2.7726,rough,14.0,0,7.011
1520,48.64,3.6682,0.9763,0.1799,-0.0002,-0.0000,2.7117,rough,14.0,0,6.605
1530,48.96,3.2757,1.1625,0.1799,-0.0002,-0.0000,2.6621,rough,14.0,0,6.192
1540,49.28,2.8917,1.3682,0.1799,-0.0001,-0.0000,2.6182,rough,14.0,0,5.774
1550,49.60,2.5165,1.5911,0.1799,-0.0001,-0.0000,2.5780,rough,14.0,0,5.353
1560,49.92,2.1496,1.8292,0.1799,-0.0001,-0.0000,2.5418,rough,14.0,0,4.928
1570,50.24,1.7911,2.0809,0.1799,-0.0001,-0.0000,2.5094,rough,14.0,0,4.501
1580,50.56,1.4408,2.3443,0.1799,-0.0001,-0.0000,2.4801,rough,14.0,0,4.073
1590,50.88,1.0980,2.6181,0.1799,-0.0001,-0.0000,2.4519,rough,14.0,0,3.644
1600,51.20,0.7630,2.9015,0.1799,-0.0001,-0.0000,2.4241,rough,14.0,0,3.215
1610,51.52,0.4359,3.1943,0.1799,-0.0001,-0.0000,2.3950,rough,14.0,0,2.785
1620,51.84,0.1155,3.4962,0.1806,0.0025,-0.0030,2.3660,rough,14.0,0,2.355
1630,52.16,-0.1956,3.8058,0.1794,-0.0098,0.0054,2.3333,rough,14.0,0,1.927
1640,52.48,-0.4904,4.1259,0.1790,-0.0045,-0.0011,2.2958,rough,14.0,0,1.504
1650,52.80,-0.7705,4.4576,0.1798,-0.0006,-0.0001,2.2498,rough,14.0,0,1.085
1660,53.12,-1.0232,4.7788,0.1911,-0.0515,-0.0102,2.1551,rough,14.0,1,2.591
1670,53.44,-1.2100,5.0961,0.2321,-0.0186,-0.1990,2.0525,rough,14.0,1,2.282
1680,53.76,-1.3785,5.3973,0.3216,-0.0377,-0.3054,1.9779,rough,14.0,1,2.005
1690,54.08,-1.5275,5.7156,0.4268,-0.0639,-0.3328,1.9127,rough,14.0,1,1.731
1700,54.40,-1.6590,6.0333,0.5256,-0.1408,-0.3348,1.8618,rough,14.0,1,1.482
1710,54.72,-1.7551,6.3349,0.6286,-0.1432,-0.3889,1.7919,rough,14.0,1,1.270
1720,55.04,-1.8297,6.6227,0.7501,-0.1447,-0.4007,1.7137,rough,14.0,1,1.102
1730,55.36,-1.8758,6.8691,0.8577,-0.1361,-0.4439,1.6646,rough,14.0,1,0.992
1740,55.68,-1.9049,7.0602,0.9472,-0.1169,-0.4559,1.6608,rough,14.0,1,0.938
1750,56.00,-1.9377,7.1959,1.0107,-0.1494,-0.4341,1.7273,rough,14.0,1,0.935
1760,56.32,-1.9949,7.2960,1.0536,-0.1702,-0.4147,1.7790,rough,14.0,1,0.978
1770,56.64,-2.0639,7.3996,1.0936,-0.1469,-0.3987,1.7595,rough,14.0,1,1.045
1780,56.96,-2.0975,7.5240,1.1464,-0.1198,-0.4061,1.6622,rough,14.0,1,1.089
1790,57.28,-2.1115,7.6380,1.1957,-0.0967,-0.4105,1.6090,rough,14.0,1,1.124
1800,57.60,-2.1178,7.7512,1.2356,-0.0847,-0.3575,1.5760,rough,14.0,1,1.163
1810,57.92,-2.1186,7.8563,1.2729,-0.0807,-0.3079,1.5648,rough,14.0,1,1.202
1820,58.24,-2.1219,7.9624,1.2920,-0.1034,-0.2748,1.5556,rough,14.0,1,1.252
1830,58.56,-2.1205,8.0925,1.3373,-0.0711,-0.2719,1.4191,rough,14.0,1,1.317
1840,58.88,-2.1110,8.3031,1.3842,-0.0155,-0.2252,1.0590,rough,14.0,1,1.436
1850,59.20,-2.0210,8.4977,1.4272,0.0136,-0.2083,0.7409,rough,14.0,1,1.508
1860,59.52,-1.8283,8.6344,1.4730,0.0644,-0.1776,0.4291,rough,14.0,1,1.501
1870,59.84,-1.5713,8.6694,1.5271,0.1320,-0.1982,0.1034,rough,14.0,1,1.412
1880,60.16,-1.2596,8.5995,1.5571,0.2350,-0.1124,-0.2142,rough,14.0,1,1.253
1890,60.48,-0.9819,8.4824,1.5663,0.2977,-0.0138,-0.3729,rough,14.0,1,1.113
1900,60.80,-0.7655,8.3335,1.5609,0.3633,0.0607,-0.5363,rough,14.0,1,0.996
1910,61.12,-0.5733,8.1517,1.5250,0.3499,0.1042,-0.7595,rough,14.0,1,0.900
1920,61.44,-0.4141,7.9005,1.4701,0.3448,0.2407,-1.0331,rough,14.0,1,0.805
1930,61.76,-0.2379,7.5473,1.3604,0.4160,0.2946,-0.9606,rough,14.0,2,7.408
1940,62.08,0.0165,7.1999,1.2271,0.3850,0.3138,-0.8803,rough,14.0,2,7.002
1950,62.40,0.2866,6.8632,1.0534,0.4113,0.3724,-0.7953,rough,14.0,2,6.591
1960,62.72,0.5766,6.5481,0.8825,0.4487,0.3959,-0.7326,rough,14.0,2,6.177
1970,63.04,0.8723,6.2546,0.7201,0.4477,0.2962,-0.7087,rough,14.0,2,5.772
1980,63.36,1.1841,5.9770,0.6044,0.4733,0.2641,-0.6843,rough,14.0,2,5.363
1990,63.68,1.4835,5.7017,0.5141,0.4457,0.1126,-0.7060,rough,14.0,2,4.967
2000,64.00,1.8311,5.4075,0.4272,0.4849,0.2282,-0.6261,rough,14.0,2,4.521
2010,64.32,2.1926,5.1201,0.3047,0.3592,0.2436,-0.5729,rough,14.0,2,4.068
2020,64.64,2.5278,4.8723,0.2511,0.3249,0.1306,-0.5997,rough,14.0,2,3.658
2030,64.96,2.8813,4.6515,0.2224,0.1872,0.0055,-0.6032,rough,14.0,2,3.244
2040,65.28,3.2326,4.4411,0.2147,0.0669,-0.1400,-0.5824,rough,14.0,2,2.837
2050,65.60,3.6435,4.1860,0.1949,0.0199,0.0844,-0.4978,rough,14.0,2,2.359
2060,65.92,4.0153,3.9741,0.1907,0.0569,-0.0068,-0.4699,rough,14.0,2,1.935
2070,66.24,4.3848,3.7766,0.2036,0.0871,-0.0521,-0.4550,rough,14.0,2,1.521
2080,66.56,4.7978,3.5939,0.1927,0.0295,0.0108,-0.3714,rough,14.0,2,1.072
2090,66.88,5.1817,3.4196,0.2084,0.1456,0.0038,-0.3910,rough,14.0,3,3.177
2100,67.20,5.5565,3.2366,0.2259,0.2359,0.0495,-0.3216,rough,14.0,3,2.761
2110,67.52,5.8731,3.1024,0.2467,0.1798,-0.2672,-0.3797,rough,14.0,3,2.421
2120,67.84,6.2380,2.8868,0.2966,0.4662,-0.1103,-0.3659,rough,14.0,3,1.998
2130,68.16,6.4902,2.7422,0.3557,0.5542,-0.4512,-0.4116,rough,14.0,3,1.707
2140,68.48,6.8216,2.5753,0.3986,0.4808,-0.1028,-0.3685,rough,14.0,3,1.339
2150,68.80,7.1540,2.3858,0.4395,0.5687,-0.3133,-0.5027,rough,14.0,3,0.959
2160,69.12,7.3787,2.2173,0.4644,0.5228,-0.0270,-0.8376,rough,14.0,0,9.153
2170,69.44,7.4166,1.9979,0.4179,0.5301,0.1846,-1.2328,rough,14.0,0,9.268
2180,69.76,7.3944,1.7784,0.3517,0.4332,0.2842,-1.6388,rough,14.0,0,9.332
2190,70.08,7.3051,1.5698,0.2962,0.2272,0.2348,-2.0094,rough,14.0,0,9.335
2200,70.40,7.1638,1.3186,0.2173,-0.0449,0.2448,-2.2308,rough,14.0,0,9.316
2210,70.72,6.9821,1.1173,0.1888,-0.0284,0.0215,-2.4167,rough,14.0,0,9.246
2220,71.04,6.7134,0.9072,0.1780,0.0084,-0.0011,-2.6124,rough,14.0,0,9.113
2230,71.36,6.3861,0.7417,0.1798,-0.0001,0.0006,-2.7757,rough,14.0,0,8.918
2240,71.68,6.0197,0.6175,0.1799,0.0001,0.0002,-2.9559,rough,14.0,0,8.678
2250,72.00,5.6227,0.5513,0.1799,-0.0001,-0.0003,-3.1193,rough,14.0,0,8.390
2260,72.32,5.2079,0.5494,0.1798,-0.0001,0.0000,3.0246,rough,14.0,0,8.059
2270,72.64,4.7891,0.6057,0.1799,-0.0001,-0.0000,2.9117,rough,14.0,0,7.695
2280,72.96,4.3740,0.7102,0.1799,-0.0000,0.0001,2.8258,rough,14.0,0,7.309
2290,73.28,3.9639,0.8490,0.1799,-0.0002,0.0000,2.7658,rough,14.0,0,6.910
2300,73.60,3.5641,1.0132,0.1799,-0.0002,-0.0000,2.7061,rough,14.0,0,6.504
2310,73.92,3.1725,1.2017,0.1799,-0.0001,-0.0000,2.6572,rough,14.0,0,6.091
2320,74.24,2.7895,1.4094,0.1799,-0.0001,-0.0000,2.6135,rough,14.0,0,5.673
2330,74.56,2.4155,1.6340,0.1799,-0.0001,-0.0000,2.5731,rough,14.0,0,5.252
2340,74.88,2.0500,1.8739,0.1799,-0.0001,-0.0000,2.5363,rough,14.0,0,4.828
2350,75.20,1.6930,2.1275,0.1799,-0.0001,-0.0000,2.5029,rough,14.0,0,4.402
2360,75.52,1.3446,2.3932,0.1799,-0.0001,-0.0000,2.4731,rough,14.0,0,3.974
2370,75.84,1.0040,2.6694,0.1799,-0.0001,-0.0000,2.4443,rough,14.0,0,3.545
2380,76.16,0.6714,2.9554,0.1799,-0.0001,-0.0000,2.4155,rough,14.0,0,3.117
2390,76.48,0.3471,3.2510,0.1800,0.0005,-0.0006,2.3858,rough,14.0,0,2.687
2400,76.80,0.0282,3.5560,0.1804,0.0030,-0.0007,2.3554,rough,14.0,0,2.257
2410,77.12,-0.2767,3.8723,0.1810,-0.0005,0.0176,2.3202,rough,14.0,0,1.829
2420,77.44,-0.5658,4.1938,0.1793,0.0025,-0.0005,2.2792,rough,14.0,0,1.409
2430,77.76,-0.8410,4.5288,0.1798,0.0001,-0.0001,2.2269,rough,14.0,0,0.993
2440,78.08,-1.0730,4.8433,0.1937,-0.0213,-0.0685,2.1247,rough,14.0,1,2.527
2450,78.40,-1.2550,5.1592,0.2564,-0.0178,-0.2512,2.0194,rough,14.0,1,2.223
2460,78.72,-1.4213,5.4809,0.3403,-0.0574,-0.2868,1.9501,rough,14.0,1,1.931
2470,79.04,-1.5609,5.7942,0.4516,-0.0979,-0.3394,1.8898,rough,14.0,1,1.666
2480,79.36,-1.6828,6.1199,0.5544,-0.1616,-0.3262,1.8211,rough,14.0,1,1.415
2490,79.68,-1.7637,6.4142,0.6625,-0.1517,-0.4032,1.7653,rough,14.0,1,1.211
2500,80.00,-1.8233,6.6987,0.7849,-0.1364,-0.4055,1.6908,rough,14.0,1,1.047
2510,80.32,-1.8660,6.9343,0.8899,-0.1287,-0.4540,1.6491,rough,14.0,1,0.952
2520,80.64,-1.8896,7.1088,0.9732,-0.1264,-0.4548,1.6802,rough,14.0,1,0.909
2530,80.96,-1.9302,7.2246,1.0254,-0.1636,-0.4277,1.7618,rough,14.0,1,0.922
2540,81.28,-1.9987,7.3232,1.0661,-0.1763,-0.4078,1.7946,rough,14.0,1,0.980
2550,81.60,-2.0641,7.4364,1.1058,-0.1707,-0.3995,1.7369,rough,14.0,1,1.047
2560,81.92,-2.0879,7.5582,1.1626,-0.1109,-0.4077,1.6429,rough,14.0,1,1.085
2570,82.24,-2.0996,7.6703,1.2077,-0.0925,-0.3908,1.5971,rough,14.0,1,1.121
2580,82.56,-2.1031,7.7804,1.2475,-0.0839,-0.3445,1.5744,rough,14.0,1,1.159
2590,82.88,-2.1038,7.8841,1.2841,-0.0799,-0.2941,1.5636,rough,14.0,1,1.200
2600,83.20,-2.1085,7.9847,1.3135,-0.1126,-0.2417,1.5620,rough,14.0,1,1.251
2610,83.52,-2.1051,8.0692,1.3341,-0.0938,-0.2570,1.5618,rough,14.0,1,1.291
2620,83.84,-2.1077,8.1590,1.3550,-0.1188,-0.2338,1.5650,rough,14.0,1,1.344
2630,84.16,-2.1081,8.2455,1.3715,-0.1221,-0.2081,1.5644,rough,14.0,1,1.397
2640,84.48,-2.1081,8.3305,1.3883,-0.1262,-0.1867,1.5623,rough,14.0,1,1.452
2650,84.80,-2.1074,8.4129,1.4042,-0.1255,-0.1674,1.5597,rough,14.0,1,1.507
2660,85.12,-2.1072,8.4930,1.4184,-0.1284,-0.1507,1.5570,rough,14.0,1,1.563
2670,85.44,-2.1187,8.5909,1.4263,-0.1589,-0.1242,1.5016,rough,14.0,1,1.643
2680,85.76,-2.1187,8.8014,1.4521,-0.1232,-0.1900,1.1347,rough,14.0,1,1.805
2690,86.08,-2.0007,8.9911,1.4952,-0.0539,-0.2302,0.8153,rough,14.0,1,1.895
2700,86.40,-1.8757,9.1456,1.5444,0.0009,-0.2560,0.5370,rough,14.0,1,1.971
2710,86.72,-1.7027,9.2211,1.5969,0.0748,-0.2956,0.2696,rough,14.0,1,1.973
2720,87.04,-1.4347,9.2058,1.6622,0.1712,-0.2414,-0.0658,rough,14.0,1,1.882
2730,87.36,-1.1447,9.0971,1.6984,0.3066,-0.1199,-0.3028,rough,14.0,1,1.732
2740,87.68,-0.8911,8.9752,1.7141,0.3279,-0.0576,-0.4500,rough,14.0,1,1.610
2750,88.00,-0.6212,8.7800,1.7111,0.3305,0.0441,-0.6647,rough,14.0,1,1.465
2760,88.32,-0.3945,8.5458,1.6868,0.3186,0.0907,-0.8815,rough,14.0,1,1.332
2770,88.64,-0.2462,8.2513,1.6316,0.3640,0.2016,-1.0999,rough,14.0,1,1.172
2780,88.96,-0.1592,7.9108,1.5256,0.3039,0.3170,-1.3154,rough,14.0,1,1.016
2790,89.28,-0.1218,7.5375,1.3726,0.2082,0.4619,-1.4654,rough,14.0,1,0.913
2800,89.60,-0.0931,7.1659,1.1891,0.1518,0.4600,-1.5150,rough,14.0,1,0.949
2810,89.92,-0.0707,6.7664,0.9766,0.0674,0.5175,-1.5423,rough,14.0,1,1.124
2820,90.24,-0.0543,6.3820,0.7689,-0.0140,0.5319,-1.5641,rough,14.0,1,1.381
2830,90.56,-0.0527,5.9988,0.5595,-0.0012,0.4840,-1.5603,rough,14.0,1,1.678
2840,90.88,-0.0538,5.6402,0.3866,0.0295,0.4125,-1.5243,rough,14.0,1,1.981
2850,91.20,-0.0660,5.3549,0.2705,0.0552,0.3007,-1.4581,rough,14.0,1,2.229
2860,91.52,-0.0647,5.1050,0.2189,0.0402,0.1075,-1.5718,rough,14.0,1,2.458
2870,91.84,-0.0891,4.8524,0.1885,-0.0361,0.0764,-1.9100,rough,14.0,1,2.684
2880,92.16,-0.1999,4.6232,0.1820,-0.0123,0.0052,-2.1914,rough,14.0,1,2.866
2890,92.48,-0.3741,4.4195,0.1798,-0.0002,-0.0000,-2.5364,rough,14.0,1,3.020
2900,92.80,-0.5904,4.2907,0.1798,-0.0000,-0.0000,-2.8648,rough,14.0,1,3.109
2910,93.12,-0.8398,4.2150,0.1797,-0.0001,-0.0001,3.0691,rough,14.0,1,3.160
2920,93.44,-1.1268,4.2383,0.1798,0.0003,-0.0001,2.7805,rough,14.0,1,3.133
2930,93.76,-1.4332,4.3715,0.1824,0.0004,-0.0172,2.5910,rough,14.0,1,3.027
2940,94.08,-1.6901,4.5282,0.2029,0.0033,-0.1226,2.3865,rough,14.0,1,2.920
2950,94.40,-1.9197,4.7438,0.2444,-0.0039,-0.1612,2.2024,rough,14.0,1,2.776
2960,94.72,-2.1086,5.0231,0.2986,0.0091,-0.1513,2.0514,rough,14.0,1,2.587
2970,95.04,-2.2657,5.3044,0.3488,-0.0154,-0.1612,1.9363,rough,14.0,1,2.412
2980,95.36,-2.3853,5.6126,0.3980,-0.0228,-0.1540,1.8032,rough,14.0,1,2.226
2990,95.68,-2.4549,5.8901,0.4582,-0.0116,-0.2600,1.7329,rough,14.0,1,2.062
3000,96.00,-2.5033,6.1702,0.5299,-0.0045,-0.2748,1.6688,rough,14.0,1,1.908
3010,96.32,-2.5330,6.4077,0.6136,-0.0193,-0.4035,1.6320,rough,14.0,1,1.794
3020,96.64,-2.5542,6.6439,0.7075,-0.0428,-0.3791,1.6044,rough,14.0,1,1.698
3030,96.96,-2.5642,6.8414,0.7944,-0.0506,-0.4449,1.5919,rough,14.0,1,1.633
3040,97.28,-2.5708,7.0218,0.8746,-0.0628,-0.4451,1.5876,rough,14.0,1,1.590
3050,97.60,-2.5785,7.1861,0.9509,-0.0848,-0.4332,1.5779,rough,14.0,1,1.570
3060,97.92,-2.5821,7.3317,1.0147,-0.0972,-0.4143,1.5726,rough,14.0,1,1.563
3070,98.24,-2.5826,7.4547,1.0686,-0.0979,-0.4124,1.5712,rough,14.0,1,1.565
3080,98.56,-2.5867,7.5697,1.1133,-0.1229,-0.4028,1.5723,rough,14.0,1,1.580
3090,98.88,-2.5917,7.6846,1.1521,-0.1430,-0.3534,1.5703,rough,14.0,1,1.603
3100,99.20,-2.5938,7.8048,1.1896,-0.1562,-0.2930,1.5600,rough,14.0,1,1.633
3110,99.52,-2.5926,7.9186,1.2240,-0.1541,-0.2448,1.5519,rough,14.0,1,1.666
3120,99.84,-2.6034,8.0682,1.2549,-0.1340,-0.2497,1.3970,rough,14.0,1,1.731
3130,100.16,-2.5822,8.2911,1.3016,-0.0809,-0.2746,1.0281,rough,14.0,1,1.814
3140,100.48,-2.4648,8.5024,1.3530,-0.0441,-0.2223,0.7360,rough,14.0,1,1.836
3150,100.80,-2.2406,8.6416,1.4128,0.0035,-0.2182,0.4656,rough,14.0,1,1.763
3160,101.12,-1.9498,8.6912,1.4684,0.0823,-0.1964,0.1756,rough,14.0,1,1.616
3170,101.44,-1.6130,8.6486,1.5140,0.1846,-0.1323,-0.1282,rough,14.0,1,1.410
3180,101.76,-1.2739,8.5415,1.5411,0.2692,-0.0638,-0.3008,rough,14.0,1,1.199
3190,102.08,-0.9785,8.4092,1.5461,0.3085,0.0125,-0.4517,rough,14.0,1,1.040
3200,102.40,-0.7277,8.2237,1.5317,0.3754,0.1171,-0.6424,rough,14.0,1,0.902
3210,102.72,-0.5440,8.0073,1.4828,0.3561,0.1674,-0.8982,rough,14.0,2,7.925
3220,103.04,-0.2876,7.6577,1.3984,0.4371,0.2264,-0.8246,rough,14.0,2,7.512
3230,103.36,0.0023,7.3286,1.2908,0.4498,0.2653,-0.7704,rough,14.0,2,7.086
3240,103.68,0.3083,7.0076,1.1578,0.5356,0.3254,-0.6875,rough,14.0,2,6.652
3250,104.00,0.6362,6.7204,0.9964,0.4944,0.3242,-0.6531,rough,14.0,2,6.220
3260,104.32,0.9611,6.4483,0.8473,0.5303,0.2987,-0.6382,rough,14.0,2,5.799
3270,104.64,1.2908,6.1924,0.7349,0.5160,0.2132,-0.6506,rough,14.0,2,5.383
3280,104.96,1.6241,5.9174,0.6450,0.5616,0.2272,-0.6283,rough,14.0,2,4.955
3290,105.28,1.9581,5.6397,0.5598,0.5043,0.1232,-0.6410,rough,14.0,2,4.525
3300,105.60,2.3040,5.3464,0.4387,0.5183,0.1985,-0.5993,rough,14.0,2,4.078
3310,105.92,2.6620,5.0946,0.3394,0.4523,0.2214,-0.5939,rough,14.0,2,3.642
3320,106.24,2.9876,4.8144,0.2706,0.3903,0.1245,-0.6249,rough,14.0,2,3.221
3330,106.56,3.3110,4.5988,0.2279,0.2212,-0.0683,-0.6760,rough,14.0,2,2.834
3340,106.88,3.6576,4.3113,0.2291,0.2492,0.0459,-0.6150,rough,14.0,2,2.396
3350,107.20,4.0226,4.0765,0.2063,0.1214,0.0105,-0.5756,rough,14.0,2,1.967
3360,107.52,4.3600,3.8438,0.2184,0.1253,-0.0986,-0.5631,rough,14.0,2,1.567
3370,107.84,4.7624,3.6188,0.1971,0.0331,0.0832,-0.4771,rough,14.0,2,1.113
3380,108.16,5.1157,3.4248,0.2023,0.1115,0.0116,-0.4817,rough,14.0,3,3.236
3390,108.48,5.4887,3.1999,0.2137,0.1377,0.1665,-0.4000,rough,14.0,3,2.801
3400,108.80,5.7902,3.0619,0.2269,0.1200,-0.2016,-0.3687,rough,14.0,3,2.471
3410,109.12,6.0853,2.9117,0.2756,0.2213,-0.2037,-0.3366,rough,14.0,3,2.140
3420,109.44,6.3912,2.7638,0.2865,0.3668,-0.3858,-0.3513,rough,14.0,3,1.802
3430,109.76,6.7459,2.5861,0.3857,0.3528,-0.1519,-0.4107,rough,14.0,3,1.408
3440,110.08,7.0798,2.3801,0.4044,0.5745,-0.3484,-0.4987,rough,14.0,3,1.016
3450,110.40,7.3952,2.1915,0.4640,0.4635,-0.1912,-0.5157,rough,14.0,0,9.178
3460,110.72,7.4225,2.0959,0.4511,0.6448,-0.0633,-1.0738,rough,14.0,0,9.238
3470,111.04,7.4524,1.8560,0.3894,0.5265,0.2207,-1.3941,rough,14.0,0,9.355
3480,111.36,7.4042,1.6398,0.3257,0.3945,0.2456,-1.8140,rough,14.0,0,9.397
3490,111.68,7.3091,1.4271,0.2746,0.2360,0.2099,-2.1229,rough,14.0,0,9.399
3500,112.00,7.1418,1.1931,0.1956,0.0121,0.1460,-2.3118,rough,14.0,0,9.353
3510,112.32,6.9215,0.9969,0.1796,-0.0077,0.0109,-2.5129,rough,14.0,0,9.251
3520,112.64,6.6153,0.8165,0.1798,-0.0001,0.0002,-2.6595,rough,14.0,0,9.075
3530,112.96,6.2768,0.6589,0.1798,0.0001,0.0002,-2.8458,rough,14.0,0,8.870
3540,113.28,5.8973,0.5541,0.1799,-0.0000,0.0001,-3.0243,rough,14.0,0,8.613
3550,113.60,5.4914,0.5134,0.1799,0.0001,-0.0002,3.1038,rough,14.0,0,8.306
3560,113.92,5.0743,0.5360,0.1799,-0.0001,-0.0000,2.9756,rough,14.0,0,7.961
3570,114.24,4.6552,0.6126,0.1799,0.0000,-0.0001,2.8778,rough,14.0,0,7.587
3580,114.56,4.2434,0.7306,0.1799,-0.0001,-0.0000,2.7964,rough,14.0,0,7.197
3590,114.88,3.8398,0.8824,0.1799,-0.0002,-0.0000,2.7312,rough,14.0,0,6.795
3600,115.20,3.4445,1.0608,0.1799,-0.0002,-0.0000,2.6782,rough,14.0,0,6.384
3610,115.52,3.0576,1.2603,0.1799,-0.0001,-0.0000,2.6327,rough,14.0,0,5.968
3620,115.84,2.6795,1.4775,0.1799,-0.0001,-0.0000,2.5912,rough,14.0,0,5.547
3630,116.16,2.3097,1.7106,0.1799,-0.0001,-0.0000,2.5539,rough,14.0,0,5.124
3640,116.48,1.9482,1.9578,0.1799,-0.0001,-0.0000,2.5200,rough,14.0,0,4.698
3650,116.80,1.5952,2.2174,0.1799,-0.0001,-0.0000,2.4903,rough,14.0,0,4.270
3660,117.12,1.2496,2.4876,0.1799,-0.0001,-0.0000,2.4620,rough,14.0,0,3.841
3670,117.44,0.9118,2.7677,0.1799,-0.0001,-0.0000,2.4344,rough,14.0,0,3.411
3680,117.76,0.5816,3.0571,0.1799,-0.0001,-0.0000,2.4061,rough,14.0,0,2.981
3690,118.08,0.2591,3.3554,0.1804,0.0008,-0.0031,2.3774,rough,14.0,0,2.552
3700,118.40,-0.0552,3.6635,0.1807,0.0072,-0.0035,2.3468,rough,14.0,0,2.122
3710,118.72,-0.3569,3.9804,0.1812,-0.0005,0.0119,2.3139,rough,14.0,0,1.695
3720,119.04,-0.6442,4.3046,0.1793,0.0000,-0.0036,2.2696,rough,14.0,0,1.276
3730,119.36,-0.9157,4.6412,0.1776,0.0042,0.0075,2.2156,rough,14.0,0,0.863
3740,119.68,-1.1255,4.9431,0.2035,-0.0154,-0.1450,2.0890,rough,14.0,1,2.429
3750,120.00,-1.2930,5.2526,0.2789,0.0023,-0.2888,2.0120,rough,14.0,1,2.135
3760,120.32,-1.4614,5.5814,0.3768,-0.0577,-0.2775,1.9375,rough,14.0,1,1.842
3770,120.64,-1.5930,5.8889,0.4816,-0.1059,-0.3949,1.8820,rough,14.0,1,1.588
3780,120.96,-1.7127,6.2082,0.5875,-0.1640,-0.3293,1.8191,rough,14.0,1,1.353
3790,121.28,-1.7929,6.5002,0.6989,-0.1632,-0.3966,1.7512,rough,14.0,1,1.164
3800,121.60,-1.8477,6.7690,0.8081,-0.1631,-0.4071,1.6949,rough,14.0,1,1.023
3810,121.92,-1.8848,6.9884,0.9143,-0.1205,-0.4544,1.6524,rough,14.0,1,0.946
3820,122.24,-1.9177,7.1278,0.9811,-0.1706,-0.4429,1.7725,rough,14.0,1,0.930
3830,122.56,-1.9639,7.2182,1.0197,-0.2099,-0.4171,1.8610,rough,14.0,1,0.957
3840,122.88,-2.0338,7.3116,1.0581,-0.2157,-0.3966,1.8876,rough,14.0,1,1.016
3850,123.20,-2.1168,7.4389,1.1082,-0.1498,-0.3990,1.7606,rough,14.0,1,1.100
3860,123.52,-2.1486,7.5625,1.1594,-0.1151,-0.4059,1.6568,rough,14.0,1,1.146
3870,123.84,-2.1629,7.6769,1.2040,-0.0984,-0.3841,1.6047,rough,14.0,1,1.184
3880,124.16,-2.1674,7.7881,1.2442,-0.0866,-0.3401,1.5769,rough,14.0,1,1.222
3890,124.48,-2.1686,7.8936,1.2813,-0.0820,-0.2891,1.5638,rough,14.0,1,1.263
3900,124.80,-2.1763,7.9988,1.3053,-0.0946,-0.2639,1.5322,rough,14.0,1,1.317
3910,125.12,-2.1858,8.1335,1.3376,-0.0851,-0.2547,1.4047,rough,14.0,1,1.394
3920,125.44,-2.1688,8.3347,1.3814,-0.0239,-0.2433,1.0540,rough,14.0,1,1.501
3930,125.76,-2.0727,8.5361,1.4249,-0.0052,-0.2059,0.7247,rough,14.0,1,1.571
3940,126.08,-1.8590,8.6444,1.4739,0.0654,-0.2025,0.4047,rough,14.0,1,1.526
3950,126.40,-1.5915,8.6780,1.5217,0.1508,-0.1925,0.1078,rough,14.0,1,1.428
3960,126.72,-1.2841,8.6136,1.5572,0.2405,-0.1028,-0.1764,rough,14.0,1,1.271
3970,127.04,-1.0282,8.5182,1.5696,0.2805,-0.0457,-0.3248,rough,14.0,1,1.148
3980,127.36,-0.7805,8.3797,1.5710,0.3530,0.0363,-0.4921,rough,14.0,1,1.038
3990,127.68,-0.5881,8.2074,1.5458,0.3800,0.0786,-0.6994,rough,14.0,1,0.942
4000,128.00,-0.4394,7.9893,1.4977,0.3629,0.2035,-0.9463,rough,14.0,1,0.849
4010,128.32,-0.3180,7.6835,1.3997,0.3611,0.3088,-1.0643,rough,14.0,2,7.552
4020,128.64,-0.1150,7.3106,1.2604,0.3718,0.3286,-0.9624,rough,14.0,2,7.173
4030,128.96,0.1340,6.9616,1.1065,0.4045,0.3910,-0.8790,rough,14.0,2,6.772
4040,129.28,0.3999,6.6221,0.9201,0.4007,0.3947,-0.8088,rough,14.0,2,6.367
4050,129.60,0.6760,6.3157,0.7410,0.4112,0.3701,-0.7571,rough,14.0,2,5.972
4060,129.92,0.9698,6.0315,0.6012,0.3975,0.2724,-0.7390,rough,14.0,2,5.576
4070,130.24,1.2719,5.7502,0.4984,0.3997,0.1879,-0.7211,rough,14.0,2,5.175
4080,130.56,1.5999,5.4603,0.4126,0.3861,0.2120,-0.6793,rough,14.0,2,4.750
4090,130.88,1.9229,5.1873,0.3393,0.3858,0.1602,-0.6602,rough,14.0,2,4.339
4100,131.20,2.2753,4.9313,0.2502,0.2890,0.1576,-0.6310,rough,14.0,2,3.911
4110,131.52,2.6130,4.6939,0.2148,0.1981,0.0031,-0.6205,rough,14.0,2,3.506
4120,131.84,2.9915,4.4714,0.1857,0.0404,-0.0111,-0.5803,rough,14.0,2,3.071
4130,132.16,3.3519,4.2248,0.1881,0.0749,0.0354,-0.5542,rough,14.0,2,2.645
4140,132.48,3.7207,4.0086,0.1851,0.0087,-0.0336,-0.4941,rough,14.0,2,2.225
4150,132.80,4.1101,3.7950,0.1866,0.0347,0.0075,-0.4667,rough,14.0,2,1.789
4160,133.12,4.4975,3.5973,0.1885,0.0094,0.0498,-0.4216,rough,14.0,2,1.364
4170,133.44,4.8731,3.4284,0.1902,0.0251,-0.0491,-0.3908,rough,14.0,2,0.964
4180,133.76,5.2335,3.2725,0.2132,0.0425,-0.1773,-0.4055,rough,14.0,3,3.059
4190,134.08,5.6733,3.0862,0.1872,0.0459,0.0130,-0.3032,rough,14.0,3,2.584
4200,134.40,5.9572,2.9613,0.2724,0.2020,-0.4611,-0.3397,rough,14.0,3,2.276
4210,134.72,6.2455,2.8190,0.2798,0.3452,-0.3583,-0.3690,rough,14.0,3,1.955
4220,135.04,6.5711,2.6619,0.3508,0.3993,-0.3688,-0.5102,rough,14.0,3,1.596
4230,135.36,6.9156,2.3878,0.3470,0.5708,-0.0240,-0.5259,rough,14.0,3,1.159
4240,135.68,7.1510,2.1727,0.3684,0.5263,-0.1823,-0.7405,rough,14.0,3,0.851
4250,136.00,7.3251,1.9508,0.3626,0.4962,0.0907,-1.0678,rough,14.0,0,9.201
4260,136.32,7.3574,1.7269,0.3268,0.4723,0.2021,-1.3851,rough,14.0,0,9.319
4270,136.64,7.3018,1.5274,0.2821,0.3201,0.1380,-1.8304,rough,14.0,0,9.350
4280,136.96,7.1974,1.2857,0.2223,0.0468,0.2156,-2.1083,rough,14.0,0,9.361
4290,137.28,7.0557,1.0740,0.1836,-0.0218,0.0028,-2.3206,rough,14.0,0,9.332
4300,137.60,6.8180,0.8611,0.1793,0.0002,-0.0037,-2.5246,rough,14.0,0,9.227
4310,137.92,6.5147,0.6800,0.1799,-0.0000,0.0002,-2.6992,rough,14.0,0,9.060
4320,138.24,6.1687,0.5347,0.1798,-0.0001,-0.0000,-2.8798,rough,14.0,0,8.848
4330,138.56,5.7841,0.4415,0.1799,-0.0001,-0.0001,-3.0564,rough,14.0,0,8.585
4340,138.88,5.3762,0.4140,0.1799,-0.0001,-0.0000,3.0723,rough,14.0,0,8.275
4350,139.20,4.9591,0.4500,0.1798,-0.0001,-0.0000,2.9491,rough,14.0,0,7.925
4360,139.52,4.5433,0.5382,0.1799,0.0001,-0.0000,2.8491,rough,14.0,0,7.550
4370,139.84,4.1345,0.6681,0.1799,-0.0002,-0.0000,2.7723,rough,14.0,0,7.157
4380,140.16,3.7344,0.8298,0.1799,-0.0002,-0.0000,2.7095,rough,14.0,0,6.754
4390,140.48,3.3425,1.0169,0.1799,-0.0002,-0.0000,2.6596,rough,14.0,0,6.341
4400,140.80,2.9591,1.2237,0.1799,-0.0001,-0.0000,2.6156,rough,14.0,0,5.924
4410,141.12,2.5846,1.4475,0.1799,-0.0001,-0.0000,2.5749,rough,14.0,0,5.504
4420,141.44,2.2188,1.6867,0.1799,-0.0001,-0.0000,2.5379,rough,14.0,0,5.080
4430,141.76,1.8613,1.9397,0.1799,-0.0001,-0.0000,2.5045,rough,14.0,0,4.654
4440,142.08,1.5124,2.2049,0.1799,-0.0001,-0.0000,2.4748,rough,14.0,0,4.226
4450,142.40,1.1712,2.4805,0.1799,-0.0001,-0.0000,2.4465,rough,14.0,0,3.797
4460,142.72,0.8378,2.7658,0.1799,-0.0001,-0.0000,2.4184,rough,14.0,0,3.368
4470,143.04,0.5123,3.0605,0.1799,-0.0001,-0.0000,2.3895,rough,14.0,0,2.938
4480,143.36,0.1945,3.3639,0.1805,0.0007,-0.0040,2.3606,rough,14.0,0,2.509
4490,143.68,-0.1149,3.6750,0.1798,-0.0030,-0.0097,2.3319,rough,14.0,0,2.081
4500,144.00,-0.4109,3.9966,0.1796,-0.0123,0.0019,2.2978,rough,14.0,0,1.655
4510,144.32,-0.6917,4.3283,0.1796,0.0003,-0.0002,2.2554,rough,14.0,0,1.235
4520,144.64,-0.9557,4.6624,0.1824,-0.0055,-0.0112,2.2024,rough,14.0,0,0.831
4530,144.96,-1.1567,4.9672,0.2111,-0.0299,-0.1698,2.0735,rough,14.0,1,2.407
4540,145.28,-1.3153,5.2906,0.2920,0.0041,-0.3105,1.9857,rough,14.0,1,2.100
4550,145.60,-1.4687,5.6164,0.3926,-0.0450,-0.2989,1.9190,rough,14.0,1,1.810
4560,145.92,-1.6038,5.9337,0.4963,-0.1359,-0.3760,1.8638,rough,14.0,1,1.551
4570,146.24,-1.7083,6.2543,0.6088,-0.1509,-0.3620,1.7981,rough,14.0,1,1.311
4580,146.56,-1.7876,6.5601,0.7256,-0.1419,-0.4068,1.6960,rough,14.0,1,1.116
4590,146.88,-1.8261,6.8247,0.8416,-0.1341,-0.4331,1.6523,rough,14.0,1,0.974
4600,147.20,-1.8552,7.0298,0.9379,-0.1244,-0.4543,1.6612,rough,14.0,1,0.902
4610,147.52,-1.8828,7.1879,1.0110,-0.1249,-0.4397,1.6736,rough,14.0,1,0.882
4620,147.84,-1.9205,7.2966,1.0601,-0.1499,-0.4199,1.7328,rough,14.0,1,0.904
4630,148.16,-1.9822,7.3802,1.0943,-0.1824,-0.3949,1.8114,rough,14.0,1,0.963
4640,148.48,-2.0271,7.4981,1.1409,-0.1368,-0.4025,1.6994,rough,14.0,1,1.016
4650,148.80,-2.0466,7.6140,1.1909,-0.1032,-0.4092,1.6256,rough,14.0,1,1.056
4660,149.12,-2.0548,7.7250,1.2319,-0.0870,-0.3711,1.5874,rough,14.0,1,1.095
4670,149.44,-2.0573,7.8315,1.2697,-0.0815,-0.3200,1.5693,rough,14.0,1,1.136
4680,149.76,-2.0576,7.9316,1.3049,-0.0786,-0.2705,1.5606,rough,14.0,1,1.180
4690,150.08,-2.0577,8.0239,1.3293,-0.0853,-0.2650,1.5563,rough,14.0,1,1.227
4700,150.40,-2.0629,8.1160,1.3505,-0.1133,-0.2349,1.5506,rough,14.0,1,1.283
4710,150.72,-2.0676,8.2261,1.3723,-0.0885,-0.2314,1.4734,rough,14.0,1,1.353
4720,151.04,-2.0711,8.3827,1.4053,-0.0554,-0.2149,1.2671,rough,14.0,1,1.460
4730,151.36,-2.0291,8.5982,1.4396,-0.0367,-0.1971,0.8903,rough,14.0,1,1.590
4740,151.68,-1.8695,8.7320,1.4846,0.0235,-0.2184,0.5702,rough,14.0,1,1.606
4750,152.00,-1.6435,8.7742,1.5347,0.1121,-0.2354,0.2289,rough,14.0,1,1.537
4760,152.32,-1.3520,8.7447,1.5780,0.2155,-0.1685,-0.0967,rough,14.0,1,1.414
4770,152.64,-1.0529,8.6283,1.5961,0.2987,-0.0569,-0.3420,rough,14.0,1,1.259
4780,152.96,-0.8065,8.4925,1.5970,0.3298,0.0116,-0.5031,rough,14.0,1,1.143
4790,153.28,-0.6052,8.3106,1.5764,0.3447,0.0855,-0.6964,rough,14.0,1,1.028
4800,153.60,-0.4342,8.0793,1.5306,0.3540,0.1881,-0.9455,rough,14.0,1,0.920
4810,153.92,-0.3333,7.8081,1.4465,0.2932,0.2994,-1.2353,rough,14.0,1,0.814
4820,154.24,-0.2366,7.4462,1.3061,0.3067,0.3515,-1.1711,rough,14.0,2,7.349
4830,154.56,-0.0649,7.0684,1.1456,0.3135,0.3722,-1.0781,rough,14.0,2,6.998
4840,154.88,0.1484,6.7132,0.9614,0.2923,0.4367,-0.9863,rough,14.0,2,6.629
4850,155.20,0.3733,6.3845,0.7712,0.3497,0.4143,-0.8689,rough,14.0,2,6.269
4860,155.52,0.6284,6.0710,0.6017,0.3653,0.3578,-0.8134,rough,14.0,2,5.894
4870,155.84,0.9004,5.7815,0.4836,0.3511,0.2387,-0.7775,rough,14.0,2,5.519
4880,156.16,1.2022,5.4851,0.3881,0.3281,0.1961,-0.7393,rough,14.0,2,5.118
4890,156.48,1.5132,5.1961,0.3146,0.2857,0.1398,-0.7059,rough,14.0,2,4.715
4900,156.80,1.8549,4.9381,0.2339,0.2069,0.1222,-0.6646,rough,14.0,2,4.299
4910,157.12,2.1865,4.6902,0.2073,0.1483,-0.0036,-0.6409,rough,14.0,2,3.899
4920,157.44,2.5501,4.4547,0.1764,0.0179,-0.0046,-0.6029,rough,14.0,2,3.477
4930,157.76,2.9142,4.2170,0.1766,-0.0105,-0.0066,-0.5670,rough,14.0,2,3.056
4940,158.08,3.2866,3.9853,0.1798,0.0003,-0.0005,-0.5240,rough,14.0,2,2.633
4950,158.40,3.6638,3.7723,0.1836,0.0080,-0.0154,-0.4813,rough,14.0,2,2.216
4960,158.72,4.0501,3.5774,0.1794,-0.0011,-0.0019,-0.4390,rough,14.0,2,1.800
4970,159.04,4.4466,3.3984,0.1798,-0.0000,0.0001,-0.3808,rough,14.0,2,1.385
4980,159.36,4.8376,3.2454,0.1832,0.0070,-0.0151,-0.3322,rough,14.0,2,0.991
4990,159.68,5.2367,3.1117,0.1820,0.0099,0.0029,-0.3038,rough,14.0,3,2.983
5000,160.00,5.6413,2.9746,0.1929,0.0310,-0.0571,-0.3261,rough,14.0,3,2.560
5010,160.32,5.9650,2.8366,0.2504,0.1797,-0.2796,-0.2886,rough,14.0,3,2.209
5020,160.64,6.3213,2.6801,0.2478,0.2062,-0.2584,-0.2358,rough,14.0,3,1.821
5030,160.96,6.6648,2.5535,0.3375,0.3079,-0.2408,-0.3138,rough,14.0,3,1.459
5040,161.28,6.9835,2.3434,0.3535,0.6260,-0.4459,-0.4561,rough,14.0,3,1.078
5050,161.60,7.2812,2.1467,0.4173,0.4555,-0.0931,-0.4992,rough,14.0,0,9.087
5060,161.92,7.3694,2.0275,0.4114,0.6497,-0.0187,-1.0217,rough,14.0,0,9.213
5070,162.24,7.3976,1.7997,0.3571,0.5224,0.2241,-1.3614,rough,14.0,0,9.327
5080,162.56,7.3462,1.5992,0.3051,0.3445,0.1903,-1.8161,rough,14.0,0,9.360
5090,162.88,7.2353,1.3848,0.2452,0.1516,0.1416,-2.1199,rough,14.0,0,9.351
5100,163.20,7.0712,1.1537,0.1890,-0.0103,0.0761,-2.3384,rough,14.0,0,9.308
5110,163.52,6.8402,0.9354,0.1788,0.0039,0.0038,-2.5226,rough,14.0,0,9.210
5120,163.84,6.5416,0.7487,0.1798,0.0003,-0.0000,-2.7150,rough,14.0,0,9.046
5130,164.16,6.1910,0.6045,0.1798,-0.0001,-0.0001,-2.8960,rough,14.0,0,8.828
5140,164.48,5.8024,0.5165,0.1799,-0.0001,-0.0001,-3.0680,rough,14.0,0,8.557
5150,164.80,5.3921,0.4934,0.1799,-0.0002,-0.0000,3.0672,rough,14.0,0,8.239
5160,165.12,4.9741,0.5315,0.1799,0.0001,-0.0000,2.9447,rough,14.0,0,7.886
5170,165.44,4.5560,0.6218,0.1799,-0.0001,0.0000,2.8547,rough,14.0,0,7.505
5180,165.76,4.1436,0.7506,0.1799,-0.0001,0.0000,2.7893,rough,14.0,0,7.109
5190,166.08,3.7396,0.9049,0.1799,-0.0002,0.0000,2.7293,rough,14.0,0,6.706
5200,166.40,3.3445,1.0840,0.1799,-0.0002,-0.0000,2.6768,rough,14.0,0,6.296
5210,166.72,2.9579,1.2840,0.1799,-0.0001,-0.0000,2.6315,rough,14.0,0,5.880
5220,167.04,2.5801,1.5016,0.1799,-0.0001,-0.0000,2.5896,rough,14.0,0,5.461
5230,167.36,2.2112,1.7353,0.1799,-0.0001,-0.0000,2.5509,rough,14.0,0,5.039
5240,167.68,1.8509,1.9835,0.1799,-0.0001,-0.0000,2.5155,rough,14.0,0,4.614
5250,168.00,1.4993,2.2447,0.1799,-0.0001,-0.0000,2.4838,rough,14.0,0,4.187
5260,168.32,1.1560,2.5171,0.1799,-0.0001,-0.0000,2.4544,rough,14.0,0,3.759
5270,168.64,0.8207,2.7997,0.1799,-0.0001,-0.0000,2.4256,rough,14.0,0,3.330
5280,168.96,0.4934,3.0920,0.1799,-0.0001,-0.0000,2.3958,rough,14.0,0,2.902
5290,169.28,0.1737,3.3933,0.1805,0.0007,-0.0043,2.3660,rough,14.0,0,2.473
5300,169.60,-0.1354,3.7026,0.1809,0.0002,-0.0121,2.3367,rough,14.0,0,2.046
5310,169.92,-0.4306,4.0248,0.1757,0.0113,-0.0038,2.3009,rough,14.0,0,1.621
5320,170.24,-0.7145,4.3534,0.1796,0.0002,-0.0002,2.2565,rough,14.0,0,1.203
5330,170.56,-0.9766,4.6835,0.1858,-0.0128,-0.0242,2.1969,rough,14.0,0,0.805
5340,170.88,-1.1784,4.9880,0.2138,-0.0355,-0.1897,2.0775,rough,14.0,1,2.387
5350,171.20,-1.3396,5.3087,0.2965,0.0079,-0.3200,1.9873,rough,14.0,1,2.086
5360,171.52,-1.5002,5.6391,0.4032,-0.0525,-0.2912,1.9168,rough,14.0,1,1.796
5370,171.84,-1.6313,5.9549,0.4964,-0.1284,-0.3525,1.8611,rough,14.0,1,1.542
5380,172.16,-1.7330,6.2686,0.6134,-0.1447,-0.3689,1.7972,rough,14.0,1,1.312
5390,172.48,-1.8094,6.5606,0.7237,-0.1511,-0.4038,1.7240,rough,14.0,1,1.131
5400,172.80,-1.8584,6.8213,0.8368,-0.1282,-0.4258,1.6596,rough,14.0,1,1.002
5410,173.12,-1.8875,7.0300,0.9351,-0.1177,-0.4559,1.6482,rough,14.0,1,0.932
5420,173.44,-1.9219,7.1651,0.9933,-0.1831,-0.4312,1.7539,rough,14.0,1,0.925
5430,173.76,-1.9591,7.2573,1.0388,-0.1978,-0.4139,1.8403,rough,14.0,1,0.946
5440,174.08,-2.0471,7.3495,1.0746,-0.2064,-0.3924,1.8674,rough,14.0,1,1.028
5450,174.40,-2.1141,7.4712,1.1206,-0.1605,-0.3967,1.7510,rough,14.0,1,1.099
5460,174.72,-2.1419,7.5928,1.1730,-0.1142,-0.4063,1.6513,rough,14.0,1,1.144
5470,175.04,-2.1544,7.7075,1.2162,-0.0941,-0.3749,1.5998,rough,14.0,1,1.184
5480,175.36,-2.1587,7.8178,1.2556,-0.0852,-0.3257,1.5741,rough,14.0,1,1.224
5490,175.68,-2.1598,7.9219,1.2917,-0.0832,-0.2749,1.5626,rough,14.0,1,1.267
5500,176.00,-2.1739,8.0454,1.3186,-0.0861,-0.2618,1.4674,rough,14.0,1,1.338
5510,176.32,-2.1790,8.2349,1.3617,-0.0392,-0.2533,1.1587,rough,14.0,1,1.447
5520,176.64,-2.1058,8.4456,1.4074,-0.0014,-0.2036,0.8015,rough,14.0,1,1.529
5530,176.96,-1.9298,8.5697,1.4508,0.0546,-0.2053,0.5096,rough,14.0,1,1.506
5540,177.28,-1.7006,8.6633,1.5035,0.1097,-0.2102,0.2430,rough,14.0,1,1.462
5550,177.60,-1.3996,8.6386,1.5447,0.2011,-0.1405,-0.0838,rough,14.0,1,1.324
5560,177.92,-1.0870,8.5177,1.5592,0.2791,-0.0425,-0.3487,rough,14.0,1,1.150
5570,178.24,-0.8275,8.3678,1.5602,0.3557,0.0567,-0.5052,rough,14.0,1,1.016
5580,178.56,-0.6254,8.1855,1.5330,0.3779,0.0943,-0.7180,rough,14.0,1,0.906
5590,178.88,-0.4492,7.9423,1.4779,0.3530,0.2225,-0.9875,rough,14.0,1,0.808
5600,179.20,-0.2599,7.6019,1.3775,0.4134,0.2607,-0.9237,rough,14.0,2,7.457
5610,179.52,-0.0027,7.2620,1.2500,0.3969,0.2686,-0.8762,rough,14.0,2,7.052
5620,179.84,0.2674,6.9187,1.0948,0.4575,0.3757,-0.7901,rough,14.0,2,6.637
5630,180.16,0.5623,6.5954,0.9070,0.4515,0.3636,-0.7435,rough,14.0,2,6.215
5640,180.48,0.8586,6.3141,0.7521,0.4580,0.3121,-0.7028,rough,14.0,2,5.815
5650,180.80,1.1676,6.0430,0.6312,0.4475,0.2564,-0.7093,rough,14.0,2,5.410
5660,181.12,1.4752,5.7510,0.5358,0.4571,0.1666,-0.6910,rough,14.0,2,4.998
5670,181.44,1.8131,5.4618,0.4498,0.4803,0.2189,-0.6278,rough,14.0,2,4.562
5680,181.76,2.1528,5.1781,0.3418,0.3985,0.1684,-0.6141,rough,14.0,2,4.129
5690,182.08,2.5127,4.9251,0.2614,0.3294,0.1835,-0.6080,rough,14.0,2,3.694
5700,182.40,2.8440,4.6962,0.2273,0.2522,-0.0107,-0.6306,rough,14.0,2,3.296
5710,182.72,3.1988,4.4727,0.2106,0.0622,-0.0930,-0.6370,rough,14.0,2,2.881
5720,183.04,3.5763,4.1942,0.2062,0.0509,0.1567,-0.5652,rough,14.0,2,2.424
5730,183.36,3.9119,3.9814,0.1902,0.0196,-0.0426,-0.5480,rough,14.0,2,2.035
5740,183.68,4.2635,3.7482,0.1937,0.0644,-0.0162,-0.5279,rough,14.0,2,1.628
5750,184.00,4.6471,3.5459,0.1801,-0.0015,0.0079,-0.4438,rough,14.0,2,1.207
5760,184.32,5.0248,3.3583,0.1873,0.0527,0.0121,-0.4067,rough,14.0,2,0.805
5770,184.64,5.4010,3.1660,0.1902,0.0999,0.0592,-0.4128,rough,14.0,3,2.861
5780,184.96,5.7217,3.0286,0.2109,0.0322,-0.2422,-0.3776,rough,14.0,3,2.514
5790,185.28,6.0519,2.8532,0.2535,0.2516,-0.2048,-0.3180,rough,14.0,3,2.140
5800,185.60,6.3903,2.6959,0.2749,0.3249,-0.3023,-0.3719,rough,14.0,3,1.768
5810,185.92,6.6960,2.5118,0.3338,0.3277,-0.0956,-0.4648,rough,14.0,3,1.411
5820,186.24,6.9831,2.3019,0.3426,0.6214,-0.3848,-0.5905,rough,14.0,3,1.059
5830,186.56,7.2312,2.0767,0.3758,0.4550,0.0282,-0.7186,rough,14.0,0,9.067
5840,186.88,7.3122,1.8984,0.3470,0.4678,0.1292,-1.1658,rough,14.0,0,9.210
5850,187.20,7.3313,1.6865,0.3102,0.3679,0.1604,-1.5652,rough,14.0,0,9.311
5860,187.52,7.2515,1.4753,0.2642,0.2641,0.1004,-1.9418,rough,14.0,0,9.326
5870,187.84,7.1360,1.2240,0.1961,-0.0072,0.1589,-2.1862,rough,14.0,0,9.334
5880,188.16,6.9595,1.0100,0.1799,0.0025,0.0033,-2.3958,rough,14.0,0,9.278
5890,188.48,6.6989,0.8024,0.1795,0.0012,-0.0015,-2.5912,rough,14.0,0,9.154
5900,188.80,6.3695,0.6352,0.1799,-0.0000,0.0000,-2.7357,rough,14.0,0,8.961
5910,189.12,6.0163,0.5011,0.1798,0.0000,0.0000,-2.9166,rough,14.0,0,8.741
5920,189.44,5.6273,0.4202,0.1799,-0.0001,-0.0000,-3.0906,rough,14.0,0,8.471
5930,189.76,5.2174,0.4066,0.1799,-0.0001,-0.0000,3.0413,rough,14.0,0,8.154
5940,190.08,4.8000,0.4554,0.1799,-0.0001,-0.0000,2.9227,rough,14.0,0,7.799
5950,190.40,4.3861,0.5548,0.1799,-0.0000,-0.0000,2.8279,rough,14.0,0,7.421
5960,190.72,3.9761,0.6938,0.1799,-0.0001,0.0000,2.7677,rough,14.0,0,7.023
5970,191.04,3.5755,0.8573,0.1799,-0.0002,-0.0000,2.7096,rough,14.0,0,6.620
5980,191.36,3.1832,1.0442,0.1799,-0.0001,-0.0000,2.6605,rough,14.0,0,6.209
5990,191.68,2.7996,1.2506,0.1799,-0.0001,-0.0000,2.6166,rough,14.0,0,5.794
6000,192.00,2.4249,1.4740,0.1799,-0.0001,-0.0000,2.5757,rough,14.0,0,5.376
6010,192.32,2.0593,1.7128,0.1799,-0.0001,-0.0000,2.5375,rough,14.0,0,4.955
6020,192.64,1.7026,1.9659,0.1799,-0.0001,-0.0000,2.5015,rough,14.0,0,4.532
6030,192.96,1.3550,2.2319,0.1799,-0.0001,-0.0000,2.4675,rough,14.0,0,4.106
6040,193.28,1.0168,2.5099,0.1799,-0.0001,-0.0000,2.4364,rough,14.0,0,3.680
6050,193.60,0.6873,2.7984,0.1799,-0.0001,-0.0000,2.4050,rough,14.0,0,3.253
6060,193.92,0.3668,3.0973,0.1799,-0.0001,-0.0000,2.3729,rough,14.0,0,2.826
6070,194.24,0.0537,3.4058,0.1808,0.0022,-0.0046,2.3406,rough,14.0,0,2.398
6080,194.56,-0.2427,3.7239,0.1818,0.0086,-0.0012,2.3074,rough,14.0,0,1.975
6090,194.88,-0.5308,4.0485,0.1794,-0.0026,-0.0024,2.2692,rough,14.0,0,1.556
6100,195.20,-0.8022,4.3873,0.1798,-0.0004,-0.0002,2.2185,rough,14.0,0,1.140
6110,195.52,-1.0475,4.7222,0.1874,-0.0401,-0.0001,2.1201,rough,14.0,1,2.648
6120,195.84,-1.2309,5.0456,0.2255,-0.0145,-0.1948,2.0345,rough,14.0,1,2.334
6130,196.16,-1.3915,5.3521,0.3077,-0.0227,-0.2993,1.9674,rough,14.0,1,2.052
6140,196.48,-1.5407,5.6772,0.4126,-0.0687,-0.3075,1.9034,rough,14.0,1,1.771
6150,196.80,-1.6646,5.9964,0.5145,-0.1334,-0.3496,1.8366,rough,14.0,1,1.518
6160,197.12,-1.7541,6.2989,0.6239,-0.1377,-0.3762,1.7797,rough,14.0,1,1.299
6170,197.44,-1.8253,6.5916,0.7364,-0.1463,-0.3992,1.7142,rough,14.0,1,1.120
6180,197.76,-1.8727,6.8458,0.8470,-0.1250,-0.4332,1.6511,rough,14.0,1,1.001
6190,198.08,-1.8992,7.0472,0.9426,-0.1190,-0.4563,1.6519,rough,14.0,1,0.937
6200,198.40,-1.9294,7.1820,1.0038,-0.1628,-0.4364,1.7371,rough,14.0,1,0.929
6210,198.72,-1.9752,7.2652,1.0413,-0.2026,-0.4106,1.8535,rough,14.0,1,0.962
6220,199.04,-2.0719,7.3622,1.0782,-0.2043,-0.3900,1.8623,rough,14.0,1,1.053
6230,199.36,-2.1319,7.4873,1.1270,-0.1495,-0.3971,1.7355,rough,14.0,1,1.119
6240,199.68,-2.1579,7.6099,1.1792,-0.1111,-0.4068,1.6435,rough,14.0,1,1.163
6250,200.00,-2.1693,7.7248,1.2212,-0.0937,-0.3678,1.5955,rough,14.0,1,1.203
6260,200.32,-2.1729,7.8346,1.2601,-0.0851,-0.3177,1.5719,rough,14.0,1,1.244
6270,200.64,-2.1747,7.9386,1.2951,-0.0899,-0.2664,1.5623,rough,14.0,1,1.288
6280,200.96,-2.1803,8.0408,1.3173,-0.1008,-0.2565,1.5342,rough,14.0,1,1.341
6290,201.28,-2.1849,8.1549,1.3430,-0.1020,-0.2456,1.4689,rough,14.0,1,1.405
6300,201.60,-2.1819,8.3065,1.3744,-0.0684,-0.2269,1.2808,rough,14.0,1,1.493
6310,201.92,-2.1410,8.5248,1.4121,-0.0548,-0.1949,0.9166,rough,14.0,1,1.610
6320,202.24,-1.9958,8.6721,1.4559,0.0078,-0.2108,0.6080,rough,14.0,1,1.628
6330,202.56,-1.7683,8.7292,1.5054,0.0958,-0.2270,0.2820,rough,14.0,1,1.552
6340,202.88,-1.4721,8.7159,1.5497,0.1954,-0.1496,-0.0404,rough,14.0,1,1.420
6350,203.20,-1.1762,8.6254,1.5696,0.2481,-0.0647,-0.2710,rough,14.0,1,1.265
6360,203.52,-0.9226,8.4931,1.5809,0.3153,0.0102,-0.4406,rough,14.0,1,1.127
6370,203.84,-0.7010,8.3253,1.5663,0.3533,0.0638,-0.6332,rough,14.0,1,1.007
6380,204.16,-0.5197,8.1126,1.5197,0.3517,0.1249,-0.8766,rough,14.0,1,0.895
6390,204.48,-0.3830,7.8433,1.4546,0.3231,0.2806,-1.1445,rough,14.0,2,7.698
6400,204.80,-0.2231,7.4806,1.3268,0.3713,0.3153,-1.0209,rough,14.0,2,7.358
6410,205.12,0.0007,7.1304,1.1870,0.3772,0.3041,-0.9410,rough,14.0,2,6.976
6420,205.44,0.2625,6.7783,1.0044,0.4089,0.4000,-0.8329,rough,14.0,2,6.566
6430,205.76,0.5425,6.4655,0.8246,0.4207,0.3915,-0.7657,rough,14.0,2,6.163
6440,206.08,0.8239,6.1806,0.6756,0.4285,0.3069,-0.7436,rough,14.0,2,5.776
6450,206.40,1.1236,5.9018,0.5572,0.4202,0.2487,-0.7265,rough,14.0,2,5.378
6460,206.72,1.4315,5.6214,0.4676,0.3961,0.1443,-0.7167,rough,14.0,2,4.974
6470,207.04,1.7623,5.3350,0.3732,0.3788,0.1836,-0.6740,rough,14.0,2,4.549
6480,207.36,2.1110,5.0721,0.2888,0.3108,0.1891,-0.6375,rough,14.0,2,4.120
6490,207.68,2.4337,4.8124,0.2341,0.2726,0.0495,-0.6428,rough,14.0,2,3.718
6500,208.00,2.8052,4.5923,0.1941,0.0551,0.0024,-0.6045,rough,14.0,2,3.289
6510,208.32,3.1592,4.3476,0.1995,0.0761,-0.0522,-0.5815,rough,14.0,2,2.869
6520,208.64,3.5477,4.1071,0.1917,0.0148,0.0772,-0.5167,rough,14.0,2,2.420
6530,208.96,3.9089,3.8989,0.1877,0.0254,-0.0302,-0.4937,rough,14.0,2,2.012
6540,209.28,4.2899,3.6910,0.1863,0.0345,-0.0118,-0.4719,rough,14.0,2,1.588
6550,209.60,4.6824,3.5044,0.1828,0.0234,-0.0097,-0.4044,rough,14.0,2,1.164
6560,209.92,5.0751,3.3420,0.1875,0.0295,-0.0098,-0.4004,rough,14.0,3,3.232
6570,210.24,5.4540,3.1530,0.1990,0.0799,0.0536,-0.3962,rough,14.0,3,2.808
6580,210.56,5.7902,3.0035,0.2293,0.0917,-0.2710,-0.4013,rough,14.0,3,2.442
6590,210.88,6.1408,2.8100,0.2555,0.3722,-0.1159,-0.3127,rough,14.0,3,2.041
6600,211.20,6.4562,2.6440,0.2661,0.3807,-0.1658,-0.4757,rough,14.0,3,1.685
6610,211.52,6.7857,2.3451,0.2799,0.6310,0.1391,-0.3813,rough,14.0,3,1.255
6620,211.84,7.0059,2.2063,0.3379,0.4704,-0.4159,-0.6390,rough,14.0,3,0.997
6630,212.16,7.2805,1.9204,0.3514,0.5422,0.0821,-0.6290,rough,14.0,0,9.172
6640,212.48,7.3313,1.7699,0.3270,0.4958,0.1249,-1.0733,rough,14.0,0,9.278
6650,212.80,7.3343,1.5775,0.2878,0.3824,0.1080,-1.5308,rough,14.0,0,9.358
6660,213.12,7.2738,1.3258,0.2464,0.1895,0.2268,-1.8702,rough,14.0,0,9.411
6670,213.44,7.1587,1.0997,0.2028,0.0007,0.1608,-2.1413,rough,14.0,0,9.411
6680,213.76,6.9801,0.9030,0.1788,0.0009,-0.0072,-2.3663,rough,14.0,0,9.347
6690,214.08,6.7275,0.6974,0.1798,0.0001,-0.0004,-2.5608,rough,14.0,0,9.232
6700,214.40,6.4203,0.5192,0.1799,0.0000,0.0001,-2.7570,rough,14.0,0,9.066
6710,214.72,6.0626,0.3869,0.1798,-0.0001,0.0000,-2.9423,rough,14.0,0,8.844
6720,215.04,5.6696,0.3161,0.1798,-0.0000,0.0002,-3.1113,rough,14.0,0,8.567
6730,215.36,5.2575,0.3110,0.1799,-0.0001,0.0000,3.0266,rough,14.0,0,8.245
6740,215.68,4.8405,0.3660,0.1799,0.0002,-0.0000,2.9086,rough,14.0,0,7.888
6750,216.00,4.4275,0.4709,0.1799,-0.0001,-0.0000,2.8176,rough,14.0,0,7.507
6760,216.32,4.0182,0.6137,0.1799,-0.0001,0.0000,2.7597,rough,14.0,0,7.108
6770,216.64,3.6187,0.7805,0.1799,-0.0002,-0.0000,2.7030,rough,14.0,0,6.704
6780,216.96,3.2275,0.9701,0.1799,-0.0001,-0.0000,2.6548,rough,14.0,0,6.293
6790,217.28,2.8450,1.1787,0.1799,-0.0001,-0.0000,2.6113,rough,14.0,0,5.878
6800,217.60,2.4714,1.4041,0.1799,-0.0001,-0.0000,2.5708,rough,14.0,0,5.459
6810,217.92,2.1069,1.6448,0.1799,-0.0001,-0.0000,2.5329,rough,14.0,0,5.038
6820,218.24,1.7513,1.8995,0.1799,-0.0001,-0.0000,2.4972,rough,14.0,0,4.614
6830,218.56,1.4048,2.1670,0.1799,-0.0001,-0.0000,2.4635,rough,14.0,0,4.188
6840,218.88,1.0676,2.4464,0.1799,-0.0001,-0.0000,2.4331,rough,14.0,0,3.761
6850,219.20,0.7387,2.7361,0.1799,-0.0001,-0.0000,2.4024,rough,14.0,0,3.334
6860,219.52,0.4187,3.0360,0.1799,-0.0001,-0.0000,2.3713,rough,14.0,0,2.906
6870,219.84,0.1066,3.3449,0.1807,0.0008,-0.0055,2.3400,rough,14.0,0,2.478
6880,220.16,-0.1910,3.6660,0.1846,0.0198,-0.0025,2.3068,rough,14.0,0,2.051
6890,220.48,-0.4770,3.9920,0.1766,0.0157,0.0007,2.2680,rough,14.0,0,1.630
6900,220.80,-0.7505,4.3292,0.1797,0.0005,0.0001,2.2229,rough,14.0,0,1.212
6910,221.12,-1.0032,4.6712,0.1826,-0.0072,-0.0100,2.1642,rough,14.0,0,0.811
6920,221.44,-1.1926,4.9826,0.2155,-0.0356,-0.1978,2.0423,rough,14.0,1,2.394
6930,221.76,-1.3435,5.3057,0.2889,-0.0028,-0.3369,1.9672,rough,14.0,1,2.090
6940,222.08,-1.4925,5.6299,0.3985,-0.0264,-0.3087,1.9126,rough,14.0,1,1.803
6950,222.40,-1.6234,5.9420,0.4920,-0.1015,-0.3842,1.8679,rough,14.0,1,1.550
6960,222.72,-1.7339,6.2559,0.6079,-0.1524,-0.3579,1.8025,rough,14.0,1,1.323
6970,223.04,-1.8135,6.5574,0.7206,-0.1499,-0.4014,1.7035,rough,14.0,1,1.136
6980,223.36,-1.8541,6.8222,0.8376,-0.1202,-0.4269,1.6405,rough,14.0,1,0.998
6990,223.68,-1.8743,7.0313,0.9324,-0.0835,-0.4576,1.6290,rough,14.0,1,0.920
7000,224.00,-1.8977,7.1923,1.0118,-0.1147,-0.4410,1.6500,rough,14.0,1,0.896
7010,224.32,-1.9284,7.2959,1.0592,-0.1524,-0.4198,1.7381,rough,14.0,1,0.912
7020,224.64,-1.9950,7.3725,1.0897,-0.1937,-0.3927,1.8382,rough,14.0,1,0.976
7030,224.96,-2.0928,7.4533,1.1163,-0.2084,-0.3755,1.8920,rough,14.0,1,1.077
7040,225.28,-2.1656,7.5725,1.1621,-0.1543,-0.3933,1.7567,rough,14.0,1,1.164
7050,225.60,-2.2008,7.6970,1.2059,-0.1329,-0.3672,1.6505,rough,14.0,1,1.226
7060,225.92,-2.2101,7.8130,1.2484,-0.0963,-0.3252,1.5931,rough,14.0,1,1.270
7070,226.24,-2.2161,7.9223,1.2830,-0.1032,-0.2731,1.5699,rough,14.0,1,1.318
7080,226.56,-2.2297,8.0576,1.3130,-0.0999,-0.2531,1.4514,rough,14.0,1,1.392
7090,226.88,-2.2266,8.2427,1.3563,-0.0398,-0.2560,1.1472,rough,14.0,1,1.490
7100,227.20,-2.1553,8.4460,1.3991,0.0020,-0.2181,0.8086,rough,14.0,1,1.565
7110,227.52,-1.9739,8.6075,1.4496,0.0417,-0.2014,0.4941,rough,14.0,1,1.563
7120,227.84,-1.7127,8.6582,1.5010,0.1203,-0.2020,0.1749,rough,14.0,1,1.463
7130,228.16,-1.3925,8.6173,1.5360,0.2009,-0.1001,-0.1339,rough,14.0,1,1.302
7140,228.48,-1.0688,8.5161,1.5590,0.2692,-0.0502,-0.3281,rough,14.0,1,1.147
7150,228.80,-0.8066,8.3724,1.5644,0.3551,0.0421,-0.4887,rough,14.0,1,1.025
7160,229.12,-0.6120,8.1975,1.5413,0.3708,0.0976,-0.6971,rough,14.0,1,0.922
7170,229.44,-0.4516,7.9715,1.4875,0.3403,0.2000,-0.9760,rough,14.0,1,0.827
7180,229.76,-0.2921,7.6409,1.3873,0.3951,0.2660,-0.9611,rough,14.0,2,7.506
7190,230.08,-0.0482,7.2821,1.2592,0.4120,0.2917,-0.8719,rough,14.0,2,7.101
7200,230.40,0.2261,6.9452,1.1139,0.4604,0.3954,-0.7977,rough,14.0,2,6.686
7210,230.72,0.5209,6.6242,0.9264,0.4143,0.3642,-0.7486,rough,14.0,2,6.265
7220,231.04,0.8298,6.3203,0.7535,0.4638,0.3099,-0.6873,rough,14.0,2,5.842
7230,231.36,1.1463,6.0473,0.6328,0.4573,0.2465,-0.6813,rough,14.0,2,5.431
7240,231.68,1.4598,5.7562,0.5360,0.4352,0.1605,-0.6693,rough,14.0,2,5.014
7250,232.00,1.7918,5.4681,0.4472,0.4761,0.2189,-0.6354,rough,14.0,2,4.584
7260,232.32,2.1381,5.2038,0.3502,0.3808,0.1738,-0.6199,rough,14.0,2,4.154
7270,232.64,2.4984,4.9526,0.2657,0.3375,0.1643,-0.5826,rough,14.0,2,3.719
7280,232.96,2.8386,4.7266,0.2334,0.2811,-0.0046,-0.5987,rough,14.0,2,3.314
7290,233.28,3.2140,4.5139,0.2090,0.0883,-0.0386,-0.6091,rough,14.0,2,2.884
7300,233.60,3.5793,4.2481,0.2192,0.1288,0.1043,-0.5307,rough,14.0,2,2.442
7310,233.92,3.9360,4.0356,0.1980,0.1040,0.0020,-0.5179,rough,14.0,2,2.032
7320,234.24,4.2784,3.8120,0.2089,0.1418,-0.0223,-0.5116,rough,14.0,2,1.633
7330,234.56,4.6736,3.6112,0.1939,0.0481,0.0354,-0.4277,rough,14.0,2,1.197
7340,234.88,5.0596,3.4381,0.1917,0.0401,-0.0079,-0.4040,rough,14.0,3,3.292
7350,235.20,5.4002,3.2484,0.2218,0.1715,-0.0722,-0.4125,rough,14.0,3,2.902
7360,235.52,5.7455,3.1256,0.2152,0.1505,-0.0961,-0.2662,rough,14.0,3,2.542
7370,235.84,6.0610,3.0081,0.2822,0.1820,-0.2452,-0.3763,rough,14.0,3,2.212
7380,236.16,6.3829,2.7952,0.2873,0.4343,-0.4008,-0.4279,rough,14.0,3,1.826
7390,236.48,6.6573,2.6255,0.3694,0.3455,-0.2613,-0.4447,rough,14.0,3,1.504
7400,236.80,6.9770,2.3990,0.3709,0.5546,-0.2003,-0.5546,rough,14.0,3,1.112
7410,237.12,7.2609,2.1720,0.3914,0.4458,-0.0369,-0.5491,rough,14.0,0,9.059
7420,237.44,7.2878,2.0497,0.3826,0.4715,0.1223,-1.1166,rough,14.0,0,9.129
7430,237.76,7.2951,1.8228,0.3260,0.3654,0.2405,-1.5053,rough,14.0,0,9.223
7440,238.08,7.2262,1.6048,0.2713,0.1640,0.2190,-1.9001,rough,14.0,0,9.249
7450,238.40,7.1072,1.3913,0.2019,-0.0315,0.1167,-2.1738,rough,14.0,0,9.233
7460,238.72,6.9124,1.2110,0.1856,-0.0160,0.0293,-2.3906,rough,14.0,0,9.141
7470,239.04,6.6534,1.0200,0.1797,-0.0004,-0.0006,-2.5914,rough,14.0,0,9.005
7480,239.36,6.3320,0.8532,0.1799,0.0001,-0.0000,-2.7615,rough,14.0,0,8.813
7490,239.68,5.9707,0.7215,0.1798,0.0001,-0.0003,-2.9415,rough,14.0,0,8.579
7500,240.00,5.5755,0.6497,0.1798,-0.0001,0.0002,-3.1048,rough,14.0,0,8.294
7510,240.32,5.1610,0.6418,0.1799,0.0002,0.0001,3.0348,rough,14.0,0,7.965
7520,240.64,4.7416,0.6937,0.1799,-0.0001,-0.0002,2.9245,rough,14.0,0,7.603
7530,240.96,4.3237,0.7919,0.1799,-0.0001,0.0000,2.8422,rough,14.0,0,7.218
7540,241.28,3.9152,0.9248,0.1799,-0.0002,-0.0000,2.7682,rough,14.0,0,6.823
7550,241.60,3.5152,1.0881,0.1799,-0.0002,-0.0000,2.7076,rough,14.0,0,6.417
7560,241.92,3.1234,1.2759,0.1799,-0.0001,-0.0000,2.6585,rough,14.0,0,6.004
7570,242.24,2.7401,1.4831,0.1799,-0.0001,-0.0000,2.6148,rough,14.0,0,5.586
7580,242.56,2.3658,1.7072,0.1799,-0.0001,-0.0000,2.5744,rough,14.0,0,5.165
7590,242.88,1.9999,1.9466,0.1799,-0.0001,-0.0000,2.5378,rough,14.0,0,4.740
7600,243.20,1.6425,2.1997,0.1799,-0.0001,-0.0000,2.5043,rough,14.0,0,4.314
7610,243.52,1.2937,2.4649,0.1799,-0.0001,-0.0000,2.4745,rough,14.0,0,3.886
7620,243.84,0.9528,2.7406,0.1799,-0.0001,-0.0000,2.4456,rough,14.0,0,3.458
7630,244.16,0.6199,3.0261,0.1799,-0.0001,-0.0000,2.4166,rough,14.0,0,3.029
7640,244.48,0.2949,3.3210,0.1803,0.0003,-0.0028,2.3868,rough,14.0,0,2.600
7650,244.80,-0.0236,3.6262,0.1806,0.0026,0.0016,2.3558,rough,14.0,0,2.170
7660,245.12,-0.3249,3.9377,0.1818,0.0052,0.0073,2.3212,rough,14.0,0,1.748
7670,245.44,-0.6149,4.2593,0.1787,-0.0036,-0.0037,2.2795,rough,14.0,0,1.329
7680,245.76,-0.8882,4.5930,0.1822,-0.0093,-0.0059,2.2264,rough,14.0,0,0.917
7690,246.08,-1.1034,4.9001,0.1939,0.0156,-0.1206,2.1258,rough,14.0,1,2.471
7700,246.40,-1.2942,5.2052,0.2627,0.0024,-0.2424,2.0328,rough,14.0,1,2.182
7710,246.72,-1.4604,5.5138,0.3533,-0.0375,-0.2969,1.9639,rough,14.0,1,1.908
7720,247.04,-1.6094,5.8266,0.4609,-0.1158,-0.3426,1.8966,rough,14.0,1,1.652
7730,247.36,-1.7200,6.1599,0.5646,-0.1440,-0.3123,1.7826,rough,14.0,1,1.398
7740,247.68,-1.7925,6.4550,0.6807,-0.1434,-0.4102,1.7225,rough,14.0,1,1.198
7750,248.00,-1.8364,6.7428,0.8039,-0.1206,-0.4187,1.6472,rough,14.0,1,1.030
7760,248.32,-1.8641,6.9702,0.9079,-0.1118,-0.4549,1.6281,rough,14.0,1,0.934
7770,248.64,-1.8861,7.1332,0.9866,-0.1369,-0.4537,1.6945,rough,14.0,1,0.898
7780,248.96,-1.9278,7.2472,1.0364,-0.1631,-0.4250,1.7605,rough,14.0,1,0.917
7790,249.28,-1.9974,7.3406,1.0744,-0.1809,-0.4031,1.8061,rough,14.0,1,0.978
7800,249.60,-2.0613,7.4543,1.1172,-0.1577,-0.3994,1.7367,rough,14.0,1,1.045
7810,249.92,-2.0863,7.5747,1.1700,-0.1112,-0.4075,1.6442,rough,14.0,1,1.086
7820,250.24,-2.0975,7.6868,1.2141,-0.0909,-0.3874,1.6003,rough,14.0,1,1.124
7830,250.56,-2.1019,7.7967,1.2534,-0.0838,-0.3367,1.5749,rough,14.0,1,1.164
7840,250.88,-2.1028,7.8999,1.2897,-0.0799,-0.2861,1.5633,rough,14.0,1,1.206
7850,251.20,-2.1074,7.9996,1.3174,-0.1028,-0.2517,1.5543,rough,14.0,1,1.257
7860,251.52,-2.1072,8.0942,1.3382,-0.0948,-0.2420,1.5356,rough,14.0,1,1.307
7870,251.84,-2.1080,8.1870,1.3612,-0.1095,-0.2373,1.5233,rough,14.0,1,1.361
7880,252.16,-2.1076,8.2880,1.3809,-0.1116,-0.2069,1.4873,rough,14.0,1,1.424
7890,252.48,-2.1055,8.3984,1.4027,-0.0972,-0.1864,1.4092,rough,14.0,1,1.496
7900,252.80,-2.1043,8.5727,1.4257,-0.0861,-0.1910,1.1376,rough,14.0,1,1.620
7910,253.12,-2.0110,8.7524,1.4647,-0.0382,-0.2167,0.7897,rough,14.0,1,1.701
7920,253.44,-1.8252,8.8300,1.5082,0.0414,-0.2321,0.4732,rough,14.0,1,1.668
7930,253.76,-1.5835,8.8574,1.5561,0.1236,-0.2212,0.1318,rough,14.0,1,1.591
7940,254.08,-1.2866,8.8051,1.6063,0.2267,-0.1617,-0.1992,rough,14.0,1,1.460
7950,254.40,-0.9746,8.6611,1.6154,0.3006,-0.0184,-0.4391,rough,14.0,1,1.292
7960,254.72,-0.7360,8.4974,1.6086,0.3104,0.0271,-0.6184,rough,14.0,1,1.163
7970,255.04,-0.5444,8.2711,1.5770,0.3552,0.1207,-0.8106,rough,14.0,1,1.019
7980,255.36,-0.3948,8.0121,1.5155,0.3454,0.2285,-1.0468,rough,14.0,1,0.896
7990,255.68,-0.3037,7.7086,1.4125,0.2807,0.3378,-1.3071,rough,14.0,2,7.555
8000,256.00,-0.1982,7.3314,1.2551,0.3262,0.4022,-1.1707,rough,14.0,2,7.253
8010,256.32,-0.0277,6.9578,1.0872,0.3133,0.4336,-1.0586,rough,14.0,2,6.907
8020,256.64,0.1766,6.6111,0.9018,0.3167,0.4414,-0.9733,rough,14.0,2,6.552
8030,256.96,0.4065,6.2777,0.7162,0.3290,0.4345,-0.8780,rough,14.0,2,6.188
8040,257.28,0.6529,5.9714,0.5529,0.3385,0.3460,-0.8417,rough,14.0,2,5.826
