step,time_s,x,y,z,roll,pitch,yaw,terrain,speed,target_idx,dist_to_target
10,0.32,-0.1596,1.4500,0.1733,-0.0000,-0.0140,0.0000,flat,18.0,0,4.140
20,0.64,0.0828,1.4507,0.1793,-0.0000,0.0029,0.0799,flat,18.0,0,4.206
30,0.96,0.4023,1.4964,0.1798,-0.0013,-0.0002,0.4966,flat,18.0,0,4.270
40,1.28,0.7449,1.7419,0.1799,0.0000,-0.0001,0.8346,flat,18.0,0,4.189
50,1.60,1.0119,2.1114,0.1799,-0.0000,-0.0000,1.1655,flat,18.0,0,4.004
60,1.92,1.1687,2.5642,0.1799,0.0001,-0.0001,1.5413,flat,18.0,0,3.730
70,2.24,1.1508,3.0463,0.1799,0.0002,-0.0001,1.8858,flat,18.0,0,3.357
80,2.56,0.9643,3.5136,0.1793,0.0025,0.0001,2.0856,flat,18.0,0,2.897
90,2.88,0.6887,3.9549,0.1798,0.0001,0.0001,2.2154,transition,15.0,0,2.401
100,3.20,0.4275,4.2656,0.1799,-0.0000,0.0001,2.3478,transition,15.0,0,2.004
110,3.52,0.1227,4.5439,0.1799,0.0001,-0.0001,2.4458,rough,14.0,0,1.594
120,3.84,-0.1584,4.7604,0.1889,-0.0458,-0.0007,2.5112,rough,14.0,0,1.239
130,4.16,-0.4047,4.9230,0.1971,-0.0598,-0.0377,2.5711,rough,14.0,1,2.523
140,4.48,-0.6415,5.0624,0.2094,-0.0711,-0.0962,2.3788,rough,14.0,1,2.338
150,4.80,-0.8174,5.2075,0.2476,-0.0726,-0.2455,2.1991,rough,14.0,1,2.172
160,5.12,-0.9656,5.3882,0.3021,-0.0874,-0.3772,2.0663,slope,18.0,1,1.982
170,5.44,-1.1359,5.6837,0.4123,-0.1408,-0.3579,1.9603,slope,18.0,1,1.690
180,5.76,-1.2989,6.0585,0.5586,-0.1783,-0.3630,1.8873,slope,18.0,1,1.341
190,6.08,-1.4111,6.3743,0.6830,-0.1963,-0.4036,1.8470,slope,18.0,1,1.070
200,6.40,-1.5236,6.7556,0.8422,-0.1893,-0.3975,1.7741,slope,18.0,2,8.125
210,6.72,-1.6107,7.1600,1.0229,-0.1527,-0.4366,1.7471,slope,18.0,2,8.383
220,7.04,-1.6797,7.5201,1.1760,-0.0661,-0.4065,1.5782,slope,18.0,2,8.615
230,7.36,-1.6706,7.8789,1.3204,-0.0384,-0.3252,1.5280,slope,18.0,2,8.789
240,7.68,-1.6643,8.3049,1.4393,-0.0636,-0.2522,1.4565,slope,18.0,2,9.013
250,8.00,-1.6355,8.6507,1.5122,-0.0886,-0.2279,1.2597,slope,18.0,2,9.186
260,8.32,-1.5518,8.8957,1.5698,-0.0855,-0.2556,1.1134,slope,18.0,2,9.265
270,8.64,-1.4612,9.0805,1.6245,-0.0258,-0.2936,0.9180,slope,18.0,2,9.306
280,8.96,-1.3760,9.2217,1.6713,0.0051,-0.3054,0.7182,slope,18.0,2,9.329
290,9.28,-1.2497,9.2850,1.7143,0.0691,-0.3168,0.5071,slope,18.0,2,9.272
300,9.60,-1.1102,9.3155,1.7545,0.1416,-0.2837,0.2872,slope,18.0,2,9.186
310,9.92,-0.9591,9.3057,1.7888,0.2075,-0.2428,0.0475,slope,18.0,2,9.066
320,10.24,-0.7969,9.2634,1.8121,0.2591,-0.1597,-0.1559,slope,18.0,2,8.917
330,10.56,-0.6498,9.2218,1.8289,0.3018,-0.1215,-0.1990,slope,18.0,2,8.780
340,10.88,-0.5018,9.1846,1.8457,0.3046,-0.1180,-0.2337,slope,18.0,2,8.646
350,11.20,-0.3184,9.1116,1.8571,0.3125,-0.0656,-0.3511,slope,18.0,2,8.463
360,11.52,-0.1235,9.0145,1.8652,0.3003,-0.0426,-0.4518,slope,18.0,2,8.255
370,11.84,0.0392,8.9127,1.8681,0.2946,-0.0360,-0.5507,rough,14.0,2,8.067
380,12.16,0.1979,8.7964,1.8762,0.2930,-0.0466,-0.6252,rough,14.0,2,7.872
390,12.48,0.3722,8.6544,1.8803,0.2913,-0.0346,-0.6746,rough,14.0,2,7.648
400,12.80,0.5548,8.4867,1.8935,0.3059,-0.0669,-0.7328,rough,14.0,2,7.400
410,13.12,0.7603,8.2745,1.9038,0.3578,0.0131,-0.7424,rough,14.0,2,7.105
420,13.44,0.9933,8.0307,1.8637,0.4039,0.0878,-0.7443,rough,14.0,2,6.768
430,13.76,1.2669,7.7322,1.8043,0.5951,0.2529,-0.6689,rough,14.0,2,6.364
440,14.08,1.6170,7.4115,1.6647,0.5595,0.2032,-0.6775,slope,18.0,2,5.889
450,14.40,2.0347,7.0305,1.5117,0.6200,0.2552,-0.7124,slope,18.0,2,5.324
460,14.72,2.4195,6.6294,1.3612,0.6357,0.2475,-0.7643,slope,18.0,2,4.769
470,15.04,2.8047,6.2071,1.1915,0.6663,0.2950,-0.7674,slope,18.0,2,4.198
480,15.36,3.1570,5.7922,0.9679,0.6493,0.3143,-0.7399,rough,14.0,2,3.657
490,15.68,3.4625,5.3883,0.7313,0.6746,0.3039,-0.7410,rough,14.0,2,3.159
500,16.00,3.7404,5.0129,0.5502,0.6549,0.2890,-0.8185,rough,14.0,2,2.704
510,16.32,3.9623,4.6907,0.4390,0.5394,0.2058,-0.9925,rough,14.0,2,2.330
520,16.64,4.1587,4.3838,0.3273,0.4390,0.3143,-0.9264,rough,14.0,2,1.993
530,16.96,4.3729,4.1029,0.2621,0.3131,0.0488,-1.0032,rough,14.0,2,1.664
540,17.28,4.5908,3.8001,0.2371,0.2465,0.1207,-0.9156,rough,14.0,2,1.336
550,17.60,4.7915,3.5801,0.1955,0.0710,0.0130,-0.8608,rough,14.0,2,1.075
560,17.92,5.0067,3.3074,0.1902,0.0421,0.0127,-0.8906,rough,14.0,3,3.276
570,18.24,5.2883,2.9742,0.1771,0.0015,0.0174,-0.8747,slope,18.0,3,2.878
580,18.56,5.5840,2.6326,0.1797,0.0003,0.0009,-0.8333,transition,15.0,3,2.477
590,18.88,5.8997,2.3351,0.1799,-0.0002,-0.0002,-0.6650,slope,18.0,3,2.088
600,19.20,6.2803,2.0723,0.1799,-0.0001,0.0001,-0.5222,rough,14.0,3,1.661
610,19.52,6.6004,1.9027,0.1799,0.0001,0.0001,-0.4446,rough,14.0,3,1.323
620,19.84,6.8141,1.7677,0.2124,0.0855,-0.1120,-0.3999,rough,14.0,3,1.107
630,20.16,7.1240,1.6157,0.2334,0.1711,-0.0457,-0.3138,rough,14.0,0,9.151
640,20.48,7.2566,1.5138,0.2536,0.1660,-0.1975,-0.1198,slope,18.0,0,9.315
650,20.80,7.2712,1.4917,0.2515,0.1038,-0.3219,0.2155,slope,18.0,0,9.337
660,21.12,7.1158,1.5009,0.2179,0.0230,-0.2041,0.7863,slope,18.0,0,9.193
670,21.44,7.0342,1.5746,0.2121,-0.1424,-0.0007,1.7089,rough,14.0,0,9.088
680,21.76,6.9593,1.6377,0.2214,-0.1361,-0.0645,2.0735,rough,14.0,0,8.993
690,22.08,6.7235,1.8789,0.2170,-0.1295,0.0852,2.3147,rough,14.0,0,8.678
700,22.40,6.4903,2.1295,0.2089,-0.0573,-0.1383,2.2911,rough,14.0,0,8.363
710,22.72,6.2288,2.3985,0.2079,-0.1204,0.0562,2.1356,rough,14.0,0,8.017
720,23.04,6.0467,2.6721,0.2149,-0.0822,-0.1425,2.0614,rough,14.0,0,7.746
730,23.36,5.8958,2.9238,0.2293,-0.1474,-0.1510,1.9538,rough,14.0,0,7.517
740,23.68,5.7384,3.2393,0.2464,-0.2917,-0.1187,1.9734,rough,14.0,0,7.267
750,24.00,5.5687,3.5089,0.2912,-0.3420,-0.1584,2.1396,rough,14.0,0,7.025
760,24.32,5.3166,3.7612,0.3118,-0.5991,-0.0461,2.2514,rough,14.0,0,6.715
770,24.64,5.0912,3.9033,0.3280,-0.6322,-0.2553,2.6302,rough,14.0,0,6.462
780,24.96,4.7638,4.0556,0.3535,-0.5339,-0.1733,2.6375,rough,14.0,0,6.108
790,25.28,4.4104,4.1964,0.3128,-0.4374,0.2207,2.6571,rough,14.0,0,5.732
800,25.60,4.2550,4.2365,0.2860,-0.3998,0.1142,2.8825,rough,14.0,0,5.571
810,25.92,4.1436,4.2064,0.2564,-0.2905,0.0522,-3.0470,rough,14.0,0,5.469
820,26.24,3.9394,4.0909,0.2107,-0.1074,0.0451,-2.6119,rough,14.0,0,5.300
830,26.56,3.6536,3.8876,0.1799,0.0061,0.0109,-2.4085,flat,18.0,0,5.083
840,26.88,3.3203,3.5829,0.1798,0.0000,0.0005,-2.4450,flat,18.0,0,4.877
850,27.20,2.9008,3.2709,0.1799,-0.0000,-0.0001,-2.5760,flat,18.0,0,4.632
860,27.52,2.4424,3.0103,0.1798,0.0001,0.0002,-2.7202,flat,18.0,0,4.374
870,27.84,1.9488,2.8120,0.1799,-0.0001,-0.0001,-2.8766,flat,18.0,0,4.100
880,28.16,1.4335,2.6908,0.1799,-0.0001,-0.0000,-3.0590,flat,18.0,0,3.809
890,28.48,0.9100,2.6666,0.1799,-0.0001,-0.0000,3.0218,flat,18.0,0,3.491
900,28.80,0.3966,2.7465,0.1799,-0.0001,-0.0001,2.8446,flat,18.0,0,3.140
910,29.12,-0.0858,2.9218,0.1792,0.0108,-0.0059,2.7019,flat,18.0,0,2.766
920,29.44,-0.5374,3.1518,0.1919,0.0074,-0.0444,2.5734,flat,18.0,0,2.398
930,29.76,-0.9504,3.4565,0.1889,-0.0028,0.0456,2.4065,flat,18.0,0,2.019
940,30.08,-1.2817,3.7989,0.1805,-0.0022,0.0071,2.2172,flat,18.0,0,1.667
950,30.40,-1.5052,4.1270,0.1820,0.0004,-0.0154,1.9988,slope,18.0,0,1.375
960,30.72,-1.6551,4.4766,0.2005,0.0301,-0.0956,1.6605,slope,18.0,0,1.095
970,31.04,-1.6414,4.9506,0.2463,0.1261,-0.1373,1.3628,slope,18.0,1,2.498
980,31.36,-1.5214,5.4574,0.3461,0.1274,-0.2859,1.3667,slope,18.0,1,1.977
990,31.68,-1.4374,5.9326,0.4943,0.0566,-0.3813,1.3721,slope,18.0,1,1.497
1000,32.00,-1.3717,6.3395,0.6696,-0.0117,-0.4498,1.4026,slope,18.0,1,1.089
1010,32.32,-1.3013,6.7674,0.8713,-0.0250,-0.4377,1.3664,slope,18.0,2,7.930
1020,32.64,-1.1896,7.1784,1.0707,0.0281,-0.4403,1.2932,slope,18.0,2,8.020
1030,32.96,-1.0501,7.6497,1.2814,0.0256,-0.4004,1.2764,slope,18.0,2,8.141
1040,33.28,-0.9199,8.0871,1.4570,0.0233,-0.3762,1.2260,slope,18.0,2,8.276
1050,33.60,-0.8021,8.4486,1.5844,-0.0104,-0.3295,1.1071,slope,18.0,2,8.398
1060,33.92,-0.6721,8.7193,1.6849,0.0233,-0.3309,0.9561,slope,18.0,2,8.466
1070,34.24,-0.5238,8.9209,1.7668,0.0515,-0.3252,0.8085,slope,18.0,2,8.485
1080,34.56,-0.3594,9.0465,1.8338,0.1033,-0.3096,0.6514,slope,18.0,2,8.448
1090,34.88,-0.1931,9.1421,1.8863,0.1667,-0.2724,0.4852,slope,18.0,2,8.393
1100,35.20,-0.0614,9.2214,1.9276,0.1779,-0.2560,0.3806,slope,18.0,2,8.355
1110,35.52,0.0619,9.2780,1.9605,0.2073,-0.2335,0.2855,slope,18.0,2,8.310
1120,35.84,0.1805,9.3251,1.9869,0.1944,-0.2001,0.2141,slope,18.0,2,8.262
1130,36.16,0.2918,9.3586,2.0080,0.1843,-0.1672,0.1569,slope,18.0,2,8.211
1140,36.48,0.3926,9.3804,2.0255,0.1840,-0.1494,0.1114,slope,18.0,2,8.160
1150,36.80,0.4936,9.3870,2.0402,0.1846,-0.1456,0.0295,slope,18.0,2,8.098
1160,37.12,0.6305,9.3489,2.0534,0.1981,-0.1182,-0.1811,slope,18.0,2,7.979
1170,37.44,0.7758,9.2828,2.0659,0.2165,-0.1280,-0.3596,slope,18.0,2,7.835
1180,37.76,0.9352,9.1974,2.0813,0.2026,-0.1040,-0.4813,slope,18.0,2,7.667
1190,38.08,1.1011,9.0856,2.0967,0.2010,-0.1078,-0.5852,slope,18.0,2,7.475
1200,38.40,1.2651,8.9582,2.1152,0.2025,-0.0964,-0.6498,slope,18.0,2,7.273
1210,38.72,1.4603,8.7887,2.1308,0.2069,-0.0664,-0.7065,slope,18.0,2,7.019
1220,39.04,1.6573,8.5989,2.1437,0.2295,-0.0103,-0.7498,rough,14.0,2,6.748
1230,39.36,1.8496,8.4018,2.1354,0.2498,0.0679,-0.7801,rough,14.0,2,6.474
1240,39.68,2.0594,8.1682,2.0967,0.3010,0.1512,-0.7975,rough,14.0,2,6.161
1250,40.00,2.2883,7.9048,2.0413,0.3293,0.1789,-0.8209,rough,14.0,2,5.813
1260,40.32,2.5355,7.5642,1.9439,0.4472,0.1749,-0.7886,rough,14.0,2,5.392
1270,40.64,2.8131,7.2266,1.8674,0.5504,0.2394,-0.7998,rough,14.0,2,4.955
1280,40.96,3.0990,6.8797,1.7468,0.5600,0.1807,-0.8358,slope,18.0,2,4.506
1290,41.28,3.4668,6.4204,1.5529,0.5854,0.3122,-0.7848,slope,18.0,2,3.918
1300,41.60,3.8082,5.9875,1.3270,0.6203,0.3419,-0.7855,slope,18.0,2,3.366
1310,41.92,4.0916,5.5694,1.0963,0.6406,0.3477,-0.8832,slope,18.0,2,2.862
1320,42.24,4.2912,5.1759,0.8904,0.5995,0.4089,-1.0538,rough,14.0,2,2.429
1330,42.56,4.4799,4.8068,0.7062,0.6056,0.3870,-1.0511,rough,14.0,2,2.026
1340,42.88,4.6664,4.4682,0.5361,0.5792,0.4305,-1.0566,rough,14.0,2,1.651
1350,43.20,4.8250,4.1130,0.3752,0.5128,0.2552,-1.1355,rough,14.0,2,1.294
1360,43.52,4.9981,3.7726,0.2598,0.1450,0.5394,-1.2795,rough,14.0,3,3.520
1370,43.84,5.0646,3.5572,0.1919,0.0947,-0.0049,-1.2579,rough,14.0,3,3.348
1380,44.16,5.1772,3.2301,0.1860,0.0062,0.0321,-1.2177,transition,15.0,3,3.089
1390,44.48,5.3031,2.8922,0.1796,-0.0011,-0.0002,-1.1515,transition,15.0,3,2.832
1400,44.80,5.4645,2.5419,0.1798,0.0001,0.0001,-1.0210,flat,18.0,3,2.563
1410,45.12,5.7394,2.1934,0.1778,0.0107,0.0001,-0.7342,flat,18.0,3,2.215
1420,45.44,6.0996,1.9303,0.1799,-0.0000,-0.0000,-0.4966,rough,14.0,3,1.825
1430,45.76,6.4360,1.7625,0.1799,0.0001,-0.0000,-0.3760,rough,14.0,3,1.485
1440,46.08,6.7209,1.6388,0.1887,0.0459,0.0000,-0.2754,rough,14.0,3,1.212
1450,46.40,7.0173,1.5423,0.2092,0.1092,-0.0663,-0.2026,rough,14.0,0,9.086
1460,46.72,7.2521,1.4495,0.2317,0.1089,-0.2031,0.0299,slope,18.0,0,9.338
1470,47.04,7.2862,1.4518,0.2524,0.1449,-0.3478,0.1309,slope,18.0,0,9.368
1480,47.36,7.1862,1.4726,0.2349,0.0741,-0.2948,0.5345,slope,18.0,0,9.269
1490,47.68,7.0524,1.5162,0.2106,-0.0891,-0.0904,1.4577,rough,14.0,0,9.129
1500,48.00,6.9424,1.5860,0.2094,-0.1338,0.0050,2.0807,rough,14.0,0,9.000
1510,48.32,6.7546,1.7451,0.1993,-0.0708,0.0591,2.4295,rough,14.0,0,8.762
1520,48.64,6.4587,1.9813,0.1788,0.0064,-0.0008,2.4758,rough,14.0,0,8.394
1530,48.96,6.1224,2.2264,0.1789,0.0018,-0.0099,2.4453,slope,18.0,0,7.987
1540,49.28,5.7341,2.5679,0.1795,0.0001,0.0009,2.3694,slope,18.0,0,7.495
1550,49.60,5.4228,2.8850,0.1799,0.0000,0.0001,2.3624,rough,14.0,0,7.088
1560,49.92,5.1225,3.1614,0.1848,-0.0100,-0.0201,2.4505,rough,14.0,0,6.709
1570,50.24,4.7839,3.4176,0.1875,-0.0057,0.0492,2.5331,rough,14.0,0,6.305
1580,50.56,4.4648,3.6125,0.1970,-0.0762,-0.0348,2.5767,rough,14.0,0,5.940
1590,50.88,4.1402,3.7754,0.1977,-0.0911,0.0001,2.6904,rough,14.0,0,5.581
1600,51.20,3.8080,3.9306,0.1833,0.0003,0.0240,2.8102,rough,14.0,0,5.218
1610,51.52,3.4228,4.0220,0.1790,0.0006,0.0054,3.0539,transition,15.0,0,4.823
1620,51.84,2.9285,4.0473,0.1799,0.0001,0.0000,3.1227,flat,18.0,0,4.345
1630,52.16,2.3612,4.0601,0.1799,-0.0001,0.0000,3.1043,flat,18.0,0,3.809
1640,52.48,1.8172,4.0845,0.1799,-0.0001,0.0000,3.0826,flat,18.0,0,3.299
1650,52.80,1.3090,4.1239,0.1760,0.0249,-0.0002,3.0520,flat,18.0,0,2.826
1660,53.12,0.8136,4.1631,0.1798,0.0003,0.0002,3.0374,flat,18.0,0,2.379
1670,53.44,0.3323,4.2151,0.1799,0.0001,-0.0001,2.9719,flat,18.0,0,1.960
1680,53.76,-0.1005,4.3017,0.1799,-0.0000,0.0000,2.8020,flat,18.0,0,1.585
1690,54.08,-0.4444,4.4288,0.1799,-0.0001,0.0001,2.7219,transition,15.0,0,1.269
1700,54.40,-0.7590,4.5785,0.1810,-0.0008,-0.0080,2.5475,slope,18.0,1,0.979
1710,54.72,-1.0560,4.7681,0.1906,-0.0551,-0.0045,2.2838,rough,14.0,1,2.602
1720,55.04,-1.2414,5.0188,0.2232,-0.0289,-0.2029,2.0800,slope,18.0,1,2.362
1730,55.36,-1.3951,5.3348,0.3071,0.0230,-0.3317,1.9285,rough,14.0,1,2.070
1740,55.68,-1.5176,5.6236,0.3926,-0.0445,-0.3123,1.8358,slope,18.0,1,1.816
1750,56.00,-1.6249,5.9840,0.5110,-0.0943,-0.3604,1.7739,slope,18.0,1,1.512
1760,56.32,-1.7045,6.3087,0.6305,-0.1224,-0.3885,1.7099,slope,18.0,1,1.263
1770,56.64,-1.7601,6.6062,0.7493,-0.1479,-0.4055,1.7006,slope,18.0,1,1.064
1780,56.96,-1.8130,6.9776,0.9169,-0.1303,-0.4531,1.6590,slope,18.0,2,8.482
1790,57.28,-1.8528,7.4179,1.1217,-0.1045,-0.4080,1.6375,slope,18.0,2,8.717
1800,57.60,-1.8808,7.9122,1.3134,-0.0938,-0.2756,1.6048,slope,18.0,2,8.986
1810,57.92,-1.8979,8.3343,1.4157,-0.1063,-0.2169,1.5179,slope,18.0,2,9.224
1820,58.24,-1.8904,8.6884,1.4784,-0.1351,-0.1412,1.3153,slope,18.0,2,9.416
1830,58.56,-1.8411,8.9299,1.5225,-0.0930,-0.2382,1.0819,slope,18.0,2,9.517
1840,58.88,-1.7609,9.1101,1.5686,-0.0600,-0.2736,0.8802,slope,18.0,2,9.561
1850,59.20,-1.6707,9.2425,1.6088,-0.0381,-0.2937,0.6966,slope,18.0,2,9.571
1860,59.52,-1.5469,9.2989,1.6512,0.0112,-0.3176,0.5048,slope,18.0,2,9.510
1870,59.84,-1.4091,9.3218,1.6868,0.1052,-0.2938,0.2959,slope,18.0,2,9.418
1880,60.16,-1.2651,9.3145,1.7204,0.1732,-0.2630,0.0787,slope,18.0,2,9.303
1890,60.48,-1.1087,9.2760,1.7467,0.2453,-0.2065,-0.1218,slope,18.0,2,9.159
1900,60.80,-0.9691,9.2451,1.7730,0.2577,-0.1921,-0.1759,slope,18.0,2,9.034
1910,61.12,-0.8113,9.2031,1.7923,0.2999,-0.1395,-0.2154,slope,18.0,2,8.888
1920,61.44,-0.6532,9.1602,1.8111,0.3102,-0.1122,-0.2417,slope,18.0,2,8.741
1930,61.76,-0.4648,9.0795,1.8236,0.3229,-0.0806,-0.3632,slope,18.0,2,8.548
1940,62.08,-0.2610,8.9762,1.8320,0.3197,-0.0369,-0.4609,slope,18.0,2,8.328
1950,62.40,-0.0853,8.8640,1.8333,0.3099,-0.0287,-0.5481,rough,14.0,2,8.123
1960,62.72,0.0744,8.7542,1.8359,0.3031,-0.0632,-0.6083,rough,14.0,2,7.932
1970,63.04,0.2599,8.6014,1.8462,0.3142,-0.0457,-0.6747,rough,14.0,2,7.692
1980,63.36,0.4527,8.4244,1.8558,0.3280,-0.0508,-0.7314,rough,14.0,2,7.430
1990,63.68,0.6598,8.2074,1.8539,0.3903,0.0188,-0.7439,rough,14.0,2,7.131
2000,64.00,0.9202,7.9561,1.8141,0.4427,0.1044,-0.7231,rough,14.0,2,6.769
2010,64.32,1.2119,7.6592,1.7413,0.5552,0.2227,-0.6665,slope,18.0,2,6.353
2020,64.64,1.6062,7.3401,1.6117,0.5688,0.2537,-0.6714,slope,18.0,2,5.847
2030,64.96,2.0151,6.9522,1.4518,0.6229,0.2379,-0.7180,slope,18.0,2,5.284
2040,65.28,2.4183,6.5487,1.3036,0.6523,0.2318,-0.7436,slope,18.0,2,4.713
2050,65.60,2.8200,6.1539,1.1566,0.6724,0.2862,-0.7324,slope,18.0,2,4.150
2060,65.92,3.1694,5.7442,0.9337,0.6652,0.2740,-0.7129,rough,14.0,2,3.615
2070,66.24,3.4863,5.3279,0.6906,0.6623,0.2718,-0.7323,rough,14.0,2,3.101
2080,66.56,3.7820,4.9339,0.5094,0.6788,0.2567,-0.7425,rough,14.0,2,2.622
2090,66.88,3.9740,4.6454,0.4214,0.5942,0.0829,-1.0002,rough,14.0,2,2.294
2100,67.20,4.2405,4.3094,0.3088,0.4156,0.2381,-0.8378,rough,14.0,2,1.884
2110,67.52,4.4519,4.0393,0.2560,0.3199,-0.0036,-0.9650,rough,14.0,2,1.564
2120,67.84,4.7350,3.7431,0.2231,0.0518,0.2417,-0.8769,rough,14.0,2,1.181
2130,68.16,4.9073,3.5268,0.1871,0.0164,-0.0040,-0.9114,rough,14.0,3,3.468
2140,68.48,5.1437,3.2231,0.1846,0.0100,0.0228,-0.8880,rough,14.0,3,3.116
2150,68.80,5.4227,2.8904,0.1791,-0.0001,-0.0056,-0.8618,slope,18.0,3,2.721
2160,69.12,5.7507,2.5245,0.1798,0.0001,-0.0004,-0.7717,slope,18.0,3,2.284
2170,69.44,6.1032,2.2206,0.1902,0.0377,-0.0195,-0.5799,rough,14.0,3,1.863
2180,69.76,6.4072,2.0202,0.1793,-0.0011,-0.0030,-0.4880,rough,14.0,3,1.528
2190,70.08,6.6796,1.8605,0.2030,0.0782,-0.0544,-0.4229,rough,14.0,3,1.242
2200,70.40,6.9296,1.7336,0.2246,0.1005,-0.1792,-0.3850,rough,14.0,0,0.994
2210,70.72,7.2003,1.5894,0.2550,0.2722,0.0162,-0.2585,rough,14.0,0,9.232
2220,71.04,7.2893,1.5143,0.2466,0.1748,-0.2993,0.1093,slope,18.0,0,9.344
2230,71.36,7.2476,1.5262,0.2586,0.0808,-0.4092,0.5082,slope,18.0,0,9.301
2240,71.68,7.1199,1.5744,0.2255,-0.0097,-0.1784,1.4101,rough,14.0,0,9.165
2250,72.00,7.0283,1.6763,0.2332,-0.2195,-0.0101,1.8206,rough,14.0,0,9.039
2260,72.32,6.9367,1.8258,0.2419,-0.2001,-0.1709,2.1133,rough,14.0,0,8.894
2270,72.64,6.7105,2.1679,0.2144,-0.1335,0.0742,2.1343,rough,14.0,0,8.550
2280,72.96,6.5490,2.3715,0.2463,-0.2096,-0.2127,2.2023,rough,14.0,0,8.324
2290,73.28,6.2993,2.6473,0.2455,-0.4134,0.0069,2.1387,rough,14.0,0,7.991
2300,73.60,6.1503,2.8743,0.2625,-0.3005,-0.2300,2.1994,rough,14.0,0,7.774
2310,73.92,5.9341,3.1420,0.2795,-0.4390,0.0576,2.1639,rough,14.0,0,7.483
2320,74.24,5.7221,3.3282,0.2678,-0.4518,-0.1541,2.4621,rough,14.0,0,7.224
2330,74.56,5.3888,3.5199,0.2739,-0.4477,0.0554,2.5810,rough,14.0,0,6.850
2340,74.88,5.1068,3.6869,0.2551,-0.3401,-0.0586,2.6598,rough,14.0,0,6.532
2350,75.20,4.7422,3.8214,0.2484,-0.3631,0.0492,2.7143,rough,14.0,0,6.145
2360,75.52,4.4198,3.9508,0.2418,-0.3724,-0.0384,2.7401,rough,14.0,0,5.800
2370,75.84,4.1040,4.1176,0.2137,-0.1289,-0.0408,2.7084,rough,14.0,0,5.452
2380,76.16,3.7485,4.2439,0.2141,-0.1873,0.0653,2.7532,rough,14.0,0,5.077
2390,76.48,3.3962,4.3427,0.2137,-0.1590,0.0496,2.8781,rough,14.0,0,4.711
2400,76.80,3.0339,4.4490,0.1884,-0.0127,0.0376,2.9567,rough,14.0,0,4.334
2410,77.12,2.6580,4.5213,0.1803,-0.0045,0.0072,2.9587,rough,14.0,0,3.951
2420,77.44,2.2777,4.5918,0.1816,-0.0015,-0.0103,2.9646,slope,18.0,0,3.565
2430,77.76,1.8339,4.6657,0.1929,-0.0253,-0.0567,2.9322,slope,18.0,0,3.117
2440,78.08,1.4058,4.6673,0.1940,-0.0390,0.0448,-3.0018,rough,14.0,0,2.705
2450,78.40,1.0810,4.5559,0.1804,0.0030,0.0068,-2.7032,transition,15.0,0,2.436
2460,78.72,0.7066,4.4042,0.1798,-0.0015,-0.0005,-2.8966,flat,18.0,0,2.163
2470,79.04,0.2659,4.3066,0.1797,-0.0004,0.0000,3.1052,flat,18.0,0,1.851
2480,79.36,-0.1299,4.3395,0.1799,-0.0002,-0.0001,2.8372,flat,18.0,0,1.537
2490,79.68,-0.4746,4.4558,0.1799,-0.0001,0.0001,2.7398,slope,18.0,0,1.229
2500,80.00,-0.7938,4.6013,0.1822,-0.0108,-0.0041,2.5267,slope,18.0,1,2.778
2510,80.32,-1.0781,4.7936,0.1919,-0.0617,-0.0044,2.2753,rough,14.0,1,2.577
2520,80.64,-1.2642,5.0590,0.2290,-0.0099,-0.1933,2.0653,slope,18.0,1,2.324
2530,80.96,-1.4246,5.3633,0.3167,-0.0194,-0.2897,1.9254,rough,14.0,1,2.047
2540,81.28,-1.5371,5.6497,0.4034,-0.0418,-0.3187,1.8442,slope,18.0,1,1.797
2550,81.60,-1.6507,6.0118,0.5117,-0.1170,-0.3168,1.7674,slope,18.0,1,1.498
2560,81.92,-1.7157,6.3346,0.6378,-0.1098,-0.3986,1.6637,slope,18.0,1,1.248
2570,82.24,-1.7486,6.6586,0.7744,-0.1170,-0.4134,1.6242,slope,18.0,1,1.019
2580,82.56,-1.7722,7.0483,0.9548,-0.1110,-0.4546,1.6294,slope,18.0,2,8.476
2590,82.88,-1.7968,7.4912,1.1557,-0.0829,-0.4115,1.6173,slope,18.0,2,8.703
2600,83.20,-1.8266,7.9787,1.3348,-0.1075,-0.2654,1.6036,slope,18.0,2,8.974
2610,83.52,-1.8410,8.3929,1.4398,-0.0839,-0.2324,1.4526,slope,18.0,2,9.209
2620,83.84,-1.8116,8.7326,1.4973,-0.1166,-0.1676,1.2507,slope,18.0,2,9.377
2630,84.16,-1.7495,8.9582,1.5441,-0.0725,-0.2650,1.0307,slope,18.0,2,9.460
2640,84.48,-1.6644,9.1318,1.5907,-0.0530,-0.2823,0.8316,slope,18.0,2,9.498
2650,84.80,-1.5532,9.2344,1.6355,-0.0294,-0.3129,0.6520,slope,18.0,2,9.474
2660,85.12,-1.4172,9.2819,1.6775,0.0472,-0.3120,0.4560,slope,18.0,2,9.399
2670,85.44,-1.2715,9.2974,1.7142,0.1331,-0.2905,0.2395,slope,18.0,2,9.297
2680,85.76,-1.1133,9.2819,1.7468,0.2116,-0.2412,0.0212,slope,18.0,2,9.167
2690,86.08,-0.9445,9.2409,1.7718,0.2383,-0.1739,-0.1746,slope,18.0,2,9.012
2700,86.40,-0.7794,9.1874,1.7940,0.3105,-0.1241,-0.2381,slope,18.0,2,8.853
2710,86.72,-0.6101,9.1311,1.8115,0.3189,-0.0946,-0.3009,slope,18.0,2,8.690
2720,87.04,-0.4150,9.0396,1.8218,0.3252,-0.0609,-0.4190,slope,18.0,2,8.484
2730,87.36,-0.2248,8.9295,1.8274,0.3256,-0.0333,-0.5136,rough,14.0,2,8.270
2740,87.68,-0.0620,8.8179,1.8274,0.3213,-0.0179,-0.5782,rough,14.0,2,8.075
2750,88.00,0.1036,8.6925,1.8316,0.3171,-0.0535,-0.6408,rough,14.0,2,7.868
2760,88.32,0.2954,8.5349,1.8403,0.2972,-0.0634,-0.6966,rough,14.0,2,7.620
2770,88.64,0.4968,8.3209,1.8503,0.4292,0.0321,-0.7030,rough,14.0,2,7.327
2780,88.96,0.7303,8.1035,1.8343,0.4469,0.0592,-0.7111,rough,14.0,2,7.008
2790,89.28,1.0034,7.8409,1.7896,0.5353,0.1557,-0.6803,rough,14.0,2,6.629
2800,89.60,1.3253,7.5320,1.6823,0.5721,0.2277,-0.6438,slope,18.0,2,6.183
2810,89.92,1.7454,7.1747,1.5424,0.6522,0.2479,-0.6367,slope,18.0,2,5.632
