step,time_s,x,y,z,roll,pitch,yaw,terrain,speed,target_idx,dist_to_target
10,0.32,-1.3173,0.8842,0.1842,-0.0007,-0.0242,0.0122,rough,14.0,0,6.124
20,0.64,-1.1028,0.8843,0.1797,0.0004,-0.0003,0.3731,rough,14.0,0,6.305
30,0.96,-0.8902,0.9843,0.1797,0.0001,0.0000,0.7288,rough,14.0,0,6.437
40,1.28,-0.7257,1.1712,0.1798,0.0001,0.0000,1.0122,rough,14.0,0,6.491
50,1.60,-0.5928,1.4098,0.1798,-0.0000,0.0003,1.2992,rough,14.0,0,6.503
60,1.92,-0.5172,1.7140,0.1798,-0.0002,-0.0001,1.5753,rough,14.0,0,6.449
70,2.24,-0.5248,2.0581,0.1799,-0.0002,0.0002,1.8142,rough,14.0,0,6.317
80,2.56,-0.6176,2.4082,0.1822,0.0056,-0.0100,2.0093,rough,14.0,0,6.119
90,2.88,-0.7942,2.7543,0.1907,-0.0019,-0.0290,2.1462,rough,14.0,0,5.856
100,3.20,-1.0403,3.0897,0.1891,-0.0454,0.0118,2.2562,rough,14.0,0,5.542
110,3.52,-1.3033,3.3963,0.1821,-0.0003,0.0054,2.3678,rough,14.0,0,5.229
120,3.84,-1.6149,3.6691,0.1794,0.0014,0.0022,2.4710,rough,14.0,0,4.884
130,4.16,-1.9546,3.9147,0.1847,-0.0155,-0.0125,2.5622,rough,14.0,0,4.525
140,4.48,-2.3086,4.1181,0.2005,-0.0333,-0.0671,2.6457,rough,14.0,0,4.163
150,4.80,-2.6930,4.2842,0.2196,-0.1161,-0.0787,2.7326,rough,14.0,0,3.780
160,5.12,-3.1055,4.4380,0.2341,-0.1143,0.0081,2.7914,rough,14.0,0,3.375
170,5.44,-3.5184,4.5740,0.2225,-0.1127,0.0257,2.8411,rough,14.0,0,2.978
180,5.76,-3.9382,4.6897,0.1991,-0.0998,0.0052,2.8836,rough,14.0,0,2.582
190,6.08,-4.3522,4.7724,0.1969,-0.0842,0.0159,2.9833,rough,14.0,0,2.198
200,6.40,-4.7762,4.8158,0.1970,-0.0592,0.0314,3.0868,rough,14.0,0,1.807
210,6.72,-5.1897,4.8195,0.1972,-0.0586,-0.0179,-3.0785,rough,14.0,0,1.428
220,7.04,-5.5871,4.7819,0.2079,-0.0235,-0.0757,-3.0022,rough,14.0,0,1.064
230,7.36,-5.9603,4.7143,0.2277,-0.0507,0.0203,-2.7763,rough,14.0,1,6.770
240,7.68,-6.1592,4.6118,0.2240,-0.0348,0.0290,-2.3421,rough,14.0,1,6.975
250,8.00,-6.3092,4.4109,0.2130,0.0038,0.0495,-2.0254,rough,14.0,1,7.141
260,8.32,-6.4075,4.1656,0.2040,-0.0001,0.0536,-1.6710,rough,14.0,1,7.266
270,8.64,-6.4307,3.9076,0.1891,0.0147,0.0495,-1.3499,rough,14.0,1,7.325
280,8.96,-6.3525,3.5903,0.1799,-0.0009,0.0023,-1.2266,rough,14.0,1,7.306
290,9.28,-6.2327,3.2971,0.1798,0.0000,0.0004,-1.0051,rough,14.0,1,7.256
300,9.60,-6.0339,3.0238,0.1798,0.0000,-0.0002,-0.8236,rough,14.0,1,7.137
310,9.92,-5.7695,2.7633,0.1808,-0.0023,-0.0038,-0.6579,rough,14.0,1,6.967
320,10.24,-5.4530,2.5407,0.1831,0.0035,-0.0003,-0.5181,rough,14.0,1,6.750
330,10.56,-5.1320,2.3655,0.1856,0.0170,0.0010,-0.4078,rough,14.0,1,6.525
340,10.88,-4.7640,2.2315,0.1835,0.0126,0.0083,-0.2825,rough,14.0,1,6.252
350,11.20,-4.3687,2.1253,0.1826,0.0151,0.0016,-0.1340,rough,14.0,1,5.955
360,11.52,-3.9509,2.0782,0.1800,0.0010,-0.0001,0.0105,rough,14.0,1,5.621
370,11.84,-3.5292,2.0904,0.1800,0.0000,-0.0055,0.1250,rough,14.0,1,5.263
380,12.16,-3.0973,2.1549,0.1865,-0.0265,-0.0106,0.1653,rough,14.0,1,4.875
390,12.48,-2.6771,2.2442,0.1881,-0.0563,0.0109,0.2279,rough,14.0,1,4.489
400,12.80,-2.2678,2.3487,0.1859,-0.0242,0.0117,0.3229,rough,14.0,1,4.109
410,13.12,-1.8700,2.4938,0.1808,-0.0009,0.0064,0.4089,rough,14.0,1,3.719
420,13.44,-1.4860,2.6713,0.1804,0.0030,-0.0007,0.4960,rough,14.0,1,3.323
430,13.76,-1.1250,2.8743,0.1840,0.0102,-0.0288,0.5672,rough,14.0,1,2.930
440,14.08,-0.7824,3.0994,0.1987,0.0030,-0.0305,0.6695,rough,14.0,1,2.537
450,14.40,-0.4545,3.3690,0.1893,0.0215,0.0211,0.7826,rough,14.0,1,2.124
460,14.72,-0.1827,3.6673,0.1833,0.0053,0.0143,0.9542,rough,14.0,1,1.723
470,15.04,0.0257,3.9859,0.1775,0.0090,0.0012,1.2882,rough,14.0,1,1.343
480,15.36,0.1154,4.2996,0.1797,-0.0011,0.0001,1.8976,rough,14.0,1,1.040
490,15.68,0.0158,4.5282,0.1798,-0.0005,0.0000,2.3616,rough,14.0,1,0.960
500,16.00,-0.1796,4.6772,0.1817,0.0119,-0.0260,2.8203,rough,14.0,1,1.060
510,16.32,-0.4274,4.7508,0.1870,-0.0269,0.0155,-2.9287,rough,14.0,1,1.271
520,16.64,-0.6577,4.7192,0.1875,0.0005,0.0528,-2.5160,rough,14.0,1,1.502
530,16.96,-0.8245,4.6074,0.1818,-0.0006,0.0137,-2.1977,rough,14.0,1,1.693
540,17.28,-0.9465,4.4012,0.1797,-0.0004,0.0002,-1.8390,rough,14.0,1,1.875
550,17.60,-1.0200,4.1525,0.1798,-0.0006,-0.0000,-1.3831,rough,14.0,1,2.044
560,17.92,-0.9612,3.8969,0.1803,-0.0006,-0.0034,-1.0393,rough,14.0,1,2.123
570,18.24,-0.8092,3.6418,0.1877,-0.0055,-0.0471,-0.7322,rough,14.0,1,2.160
580,18.56,-0.5924,3.4726,0.1923,-0.0239,0.0177,-0.4395,rough,14.0,1,2.129
590,18.88,-0.3457,3.3841,0.1859,-0.0110,0.0481,-0.1805,rough,14.0,1,2.049
600,19.20,-0.0951,3.3382,0.1812,0.0030,0.0047,0.2609,rough,14.0,1,1.961
610,19.52,0.1570,3.4239,0.1804,0.0019,0.0028,0.5604,rough,14.0,1,1.779
620,19.84,0.4025,3.5946,0.1799,0.0008,0.0011,0.8559,rough,14.0,1,1.540
630,20.16,0.5646,3.8163,0.1798,-0.0004,0.0000,1.2006,rough,14.0,1,1.288
640,20.48,0.6687,4.0862,0.1798,-0.0006,-0.0000,1.5948,rough,14.0,1,1.005
650,20.80,0.6660,4.3744,0.1800,0.0000,-0.0005,1.8690,rough,14.0,2,9.215
660,21.12,0.6079,4.6265,0.1800,-0.0011,-0.0007,1.4194,rough,14.0,2,9.401
670,21.44,0.6503,4.7971,0.2001,0.0002,-0.1397,1.2301,rough,14.0,2,9.461
680,21.76,0.7095,4.8726,0.2092,0.0087,-0.1911,1.2145,rough,14.0,2,9.455
690,22.08,0.7066,4.9204,0.2066,0.0082,-0.1705,1.3783,rough,14.0,2,9.485
700,22.40,0.7342,4.9363,0.2144,0.0053,-0.2257,1.5119,rough,14.0,2,9.472
710,22.72,0.7420,4.9371,0.2143,-0.0006,-0.2263,1.5508,rough,14.0,2,9.466
720,23.04,0.7445,4.9381,0.2149,-0.0056,-0.2263,1.5646,rough,14.0,2,9.464
730,23.36,0.7454,4.9383,0.2150,-0.0068,-0.2263,1.5689,rough,14.0,2,9.464
740,23.68,0.7457,4.9383,0.2150,-0.0072,-0.2262,1.5704,rough,14.0,2,9.464
750,24.00,0.7458,4.9383,0.2150,-0.0073,-0.2262,1.5708,rough,14.0,2,9.463
760,24.32,0.7458,4.9383,0.2150,-0.0074,-0.2262,1.5710,rough,14.0,2,9.463
770,24.64,0.7458,4.9383,0.2150,-0.0074,-0.2262,1.5710,rough,14.0,2,9.463
780,24.96,0.7458,4.9383,0.2150,-0.0074,-0.2262,1.5711,rough,14.0,2,9.463
790,25.28,0.7458,4.9383,0.2150,-0.0074,-0.2262,1.5711,rough,14.0,2,9.463
800,25.60,0.7458,4.9383,0.2150,-0.0074,-0.2262,1.5711,rough,14.0,2,9.463
810,25.92,0.7457,4.9383,0.2150,-0.0074,-0.2262,1.5711,rough,14.0,2,9.464
820,26.24,0.7457,4.9383,0.2150,-0.0074,-0.2262,1.5711,rough,14.0,2,9.464
830,26.56,0.7457,4.9383,0.2150,-0.0074,-0.2262,1.5711,rough,14.0,2,9.464
840,26.88,0.7457,4.9383,0.2150,-0.0074,-0.2262,1.5711,rough,14.0,2,9.464
850,27.20,0.7457,4.9383,0.2150,-0.0074,-0.2262,1.5711,rough,14.0,2,9.464
860,27.52,0.7457,4.9383,0.2150,-0.0074,-0.2262,1.5711,rough,14.0,2,9.464
870,27.84,0.7456,4.9383,0.2150,-0.0074,-0.2262,1.5711,rough,14.0,2,9.464
880,28.16,0.7456,4.9383,0.2150,-0.0074,-0.2262,1.5711,rough,14.0,2,9.464
890,28.48,0.7456,4.9383,0.2150,-0.0074,-0.2262,1.5711,rough,14.0,2,9.464
900,28.80,0.7456,4.9383,0.2150,-0.0074,-0.2262,1.5711,rough,14.0,2,9.464
910,29.12,0.7456,4.9383,0.2150,-0.0074,-0.2262,1.5711,rough,14.0,2,9.464
920,29.44,0.7455,4.9383,0.2150,-0.0074,-0.2261,1.5711,rough,14.0,2,9.464
930,29.76,0.7455,4.9383,0.2150,-0.0074,-0.2261,1.5711,rough,14.0,2,9.464
940,30.08,0.7455,4.9383,0.2150,-0.0074,-0.2261,1.5711,rough,14.0,2,9.464
950,30.40,0.7455,4.9383,0.2150,-0.0074,-0.2261,1.5711,rough,14.0,2,9.464
960,30.72,0.7455,4.9383,0.2150,-0.0074,-0.2261,1.5711,rough,14.0,2,9.464
970,31.04,0.7455,4.9383,0.2150,-0.0074,-0.2261,1.5711,rough,14.0,2,9.464
980,31.36,0.7454,4.9383,0.2150,-0.0074,-0.2261,1.5711,rough,14.0,2,9.464
990,31.68,0.7454,4.9383,0.2150,-0.0074,-0.2261,1.5711,rough,14.0,2,9.464
1000,32.00,0.7454,4.9383,0.2150,-0.0074,-0.2261,1.5711,rough,14.0,2,9.464
1010,32.32,0.7454,4.9383,0.2150,-0.0074,-0.2261,1.5711,rough,14.0,2,9.464
1020,32.64,0.7454,4.9383,0.2150,-0.0074,-0.2261,1.5711,rough,14.0,2,9.464
1030,32.96,0.7453,4.9383,0.2150,-0.0074,-0.2261,1.5711,rough,14.0,2,9.464
1040,33.28,0.7453,4.9383,0.2150,-0.0074,-0.2261,1.5711,rough,14.0,2,9.464
1050,33.60,0.7453,4.9383,0.2150,-0.0074,-0.2261,1.5711,rough,14.0,2,9.464
1060,33.92,0.7453,4.9383,0.2150,-0.0074,-0.2261,1.5711,rough,14.0,2,9.464
1070,34.24,0.7453,4.9383,0.2150,-0.0074,-0.2261,1.5711,rough,14.0,2,9.464
1080,34.56,0.7453,4.9383,0.2150,-0.0074,-0.2261,1.5711,rough,14.0,2,9.464
1090,34.88,0.7452,4.9383,0.2150,-0.0074,-0.2261,1.5711,rough,14.0,2,9.464
1100,35.20,0.7452,4.9383,0.2150,-0.0074,-0.2261,1.5711,rough,14.0,2,9.464
1110,35.52,0.7452,4.9383,0.2150,-0.0074,-0.2261,1.5711,rough,14.0,2,9.464
1120,35.84,0.7452,4.9383,0.2150,-0.0074,-0.2261,1.5711,rough,14.0,2,9.464
1130,36.16,0.7452,4.9383,0.2150,-0.0074,-0.2261,1.5711,rough,14.0,2,9.464
1140,36.48,0.7451,4.9383,0.2150,-0.0074,-0.2261,1.5711,rough,14.0,2,9.464
1150,36.80,0.7451,4.9383,0.2150,-0.0074,-0.2261,1.5711,rough,14.0,2,9.464
1160,37.12,0.7451,4.9383,0.2150,-0.0074,-0.2261,1.5711,rough,14.0,2,9.464
1170,37.44,0.7451,4.9383,0.2150,-0.0074,-0.2261,1.5711,rough,14.0,2,9.464
1180,37.76,0.7451,4.9383,0.2150,-0.0074,-0.2261,1.5711,rough,14.0,2,9.464
1190,38.08,0.7451,4.9383,0.2150,-0.0074,-0.2261,1.5711,rough,14.0,2,9.464
1200,38.40,0.7450,4.9383,0.2150,-0.0074,-0.2261,1.5711,rough,14.0,2,9.464
1210,38.72,0.7450,4.9383,0.2149,-0.0074,-0.2261,1.5711,rough,14.0,2,9.464
1220,39.04,0.7450,4.9383,0.2149,-0.0074,-0.2261,1.5711,rough,14.0,2,9.464
1230,39.36,0.7450,4.9383,0.2149,-0.0074,-0.2261,1.5711,rough,14.0,2,9.464
1240,39.68,0.7450,4.9383,0.2149,-0.0074,-0.2261,1.5711,rough,14.0,2,9.464
1250,40.00,0.7450,4.9383,0.2149,-0.0074,-0.2261,1.5711,rough,14.0,2,9.464
1260,40.32,0.7449,4.9383,0.2149,-0.0074,-0.2261,1.5711,rough,14.0,2,9.464
1270,40.64,0.7449,4.9383,0.2149,-0.0074,-0.2261,1.5711,rough,14.0,2,9.464
1280,40.96,0.7449,4.9383,0.2149,-0.0074,-0.2260,1.5711,rough,14.0,2,9.464
1290,41.28,0.7449,4.9383,0.2149,-0.0074,-0.2260,1.5711,rough,14.0,2,9.464
1300,41.60,0.7449,4.9383,0.2149,-0.0074,-0.2260,1.5711,rough,14.0,2,9.464
1310,41.92,0.7448,4.9383,0.2149,-0.0074,-0.2260,1.5711,rough,14.0,2,9.464
1320,42.24,0.7448,4.9383,0.2149,-0.0074,-0.2260,1.5711,rough,14.0,2,9.464
1330,42.56,0.7448,4.9383,0.2149,-0.0074,-0.2260,1.5711,rough,14.0,2,9.464
1340,42.88,0.7448,4.9383,0.2149,-0.0074,-0.2260,1.5711,rough,14.0,2,9.464
1350,43.20,0.7448,4.9383,0.2149,-0.0074,-0.2260,1.5711,rough,14.0,2,9.464
1360,43.52,0.7448,4.9383,0.2149,-0.0074,-0.2260,1.5711,rough,14.0,2,9.464
1370,43.84,0.7447,4.9383,0.2149,-0.0074,-0.2260,1.5711,rough,14.0,2,9.464
1380,44.16,0.7447,4.9383,0.2149,-0.0074,-0.2260,1.5711,rough,14.0,2,9.464
1390,44.48,0.7447,4.9383,0.2149,-0.0074,-0.2260,1.5711,rough,14.0,2,9.464
1400,44.80,0.7447,4.9383,0.2149,-0.0074,-0.2260,1.5711,rough,14.0,2,9.464
1410,45.12,0.7447,4.9383,0.2149,-0.0074,-0.2260,1.5711,rough,14.0,2,9.464
1420,45.44,0.7447,4.9383,0.2149,-0.0074,-0.2260,1.5711,rough,14.0,2,9.464
1430,45.76,0.7446,4.9383,0.2149,-0.0074,-0.2260,1.5711,rough,14.0,2,9.464
1440,46.08,0.7446,4.9383,0.2149,-0.0074,-0.2260,1.5711,rough,14.0,2,9.464
1450,46.40,0.7446,4.9383,0.2149,-0.0074,-0.2260,1.5711,rough,14.0,2,9.464
1460,46.72,0.7446,4.9383,0.2149,-0.0074,-0.2260,1.5711,rough,14.0,2,9.464
1470,47.04,0.7446,4.9383,0.2149,-0.0074,-0.2260,1.5711,rough,14.0,2,9.464
1480,47.36,0.7446,4.9383,0.2149,-0.0074,-0.2260,1.5711,rough,14.0,2,9.464
1490,47.68,0.7445,4.9383,0.2149,-0.0074,-0.2260,1.5711,rough,14.0,2,9.464
1500,48.00,0.7445,4.9383,0.2149,-0.0074,-0.2260,1.5711,rough,14.0,2,9.465
1510,48.32,0.7445,4.9383,0.2149,-0.0074,-0.2260,1.5711,rough,14.0,2,9.465
1520,48.64,0.7445,4.9383,0.2149,-0.0074,-0.2260,1.5711,rough,14.0,2,9.465
1530,48.96,0.7445,4.9383,0.2149,-0.0074,-0.2260,1.5711,rough,14.0,2,9.465
1540,49.28,0.7444,4.9383,0.2149,-0.0074,-0.2260,1.5711,rough,14.0,2,9.465
1550,49.60,0.7444,4.9383,0.2149,-0.0074,-0.2260,1.5711,rough,14.0,2,9.465
1560,49.92,0.7444,4.9383,0.2149,-0.0074,-0.2260,1.5711,rough,14.0,2,9.465
1570,50.24,0.7444,4.9383,0.2149,-0.0074,-0.2260,1.5711,rough,14.0,2,9.465
1580,50.56,0.7444,4.9383,0.2149,-0.0074,-0.2260,1.5711,rough,14.0,2,9.465
1590,50.88,0.7444,4.9383,0.2149,-0.0074,-0.2260,1.5711,rough,14.0,2,9.465
1600,51.20,0.7443,4.9383,0.2149,-0.0074,-0.2260,1.5711,rough,14.0,2,9.465
1610,51.52,0.7443,4.9383,0.2149,-0.0074,-0.2260,1.5711,rough,14.0,2,9.465
1620,51.84,0.7443,4.9383,0.2149,-0.0073,-0.2260,1.5711,rough,14.0,2,9.465
1630,52.16,0.7443,4.9383,0.2149,-0.0073,-0.2260,1.5711,rough,14.0,2,9.465
1640,52.48,0.7443,4.9383,0.2149,-0.0073,-0.2259,1.5711,rough,14.0,2,9.465
1650,52.80,0.7443,4.9383,0.2149,-0.0073,-0.2259,1.5711,rough,14.0,2,9.465
1660,53.12,0.7442,4.9383,0.2149,-0.0073,-0.2259,1.5711,rough,14.0,2,9.465
1670,53.44,0.7442,4.9383,0.2149,-0.0073,-0.2259,1.5711,rough,14.0,2,9.465
1680,53.76,0.7442,4.9383,0.2149,-0.0073,-0.2259,1.5711,rough,14.0,2,9.465
1690,54.08,0.7442,4.9383,0.2149,-0.0073,-0.2259,1.5711,rough,14.0,2,9.465
1700,54.40,0.7442,4.9383,0.2149,-0.0073,-0.2259,1.5711,rough,14.0,2,9.465
1710,54.72,0.7442,4.9383,0.2149,-0.0073,-0.2259,1.5711,rough,14.0,2,9.465
1720,55.04,0.7441,4.9383,0.2149,-0.0073,-0.2259,1.5711,rough,14.0,2,9.465
1730,55.36,0.7441,4.9383,0.2149,-0.0073,-0.2259,1.5711,rough,14.0,2,9.465
1740,55.68,0.7441,4.9383,0.2149,-0.0073,-0.2259,1.5711,rough,14.0,2,9.465
1750,56.00,0.7441,4.9383,0.2149,-0.0073,-0.2259,1.5711,rough,14.0,2,9.465
1760,56.32,0.7441,4.9383,0.2149,-0.0073,-0.2259,1.5711,rough,14.0,2,9.465
1770,56.64,0.7441,4.9383,0.2149,-0.0073,-0.2259,1.5711,rough,14.0,2,9.465
1780,56.96,0.7440,4.9383,0.2149,-0.0073,-0.2259,1.5711,rough,14.0,2,9.465
1790,57.28,0.7440,4.9383,0.2149,-0.0073,-0.2259,1.5711,rough,14.0,2,9.465
1800,57.60,0.7440,4.9383,0.2149,-0.0073,-0.2259,1.5711,rough,14.0,2,9.465
1810,57.92,0.7440,4.9383,0.2149,-0.0073,-0.2259,1.5711,rough,14.0,2,9.465
1820,58.24,0.7440,4.9383,0.2149,-0.0073,-0.2259,1.5711,rough,14.0,2,9.465
1830,58.56,0.7440,4.9383,0.2149,-0.0073,-0.2259,1.5711,rough,14.0,2,9.465
1840,58.88,0.7439,4.9383,0.2149,-0.0073,-0.2259,1.5711,rough,14.0,2,9.465
1850,59.20,0.7439,4.9383,0.2149,-0.0073,-0.2259,1.5711,rough,14.0,2,9.465
1860,59.52,0.7439,4.9383,0.2149,-0.0073,-0.2259,1.5711,rough,14.0,2,9.465
1870,59.84,0.7439,4.9383,0.2149,-0.0073,-0.2259,1.5711,rough,14.0,2,9.465
1880,60.16,0.7439,4.9383,0.2149,-0.0073,-0.2259,1.5711,rough,14.0,2,9.465
1890,60.48,0.7439,4.9383,0.2149,-0.0073,-0.2259,1.5711,rough,14.0,2,9.465
1900,60.80,0.7438,4.9383,0.2149,-0.0073,-0.2259,1.5711,rough,14.0,2,9.465
1910,61.12,0.7438,4.9383,0.2149,-0.0073,-0.2259,1.5711,rough,14.0,2,9.465
1920,61.44,0.7438,4.9383,0.2149,-0.0073,-0.2259,1.5711,rough,14.0,2,9.465
1930,61.76,0.7438,4.9383,0.2149,-0.0073,-0.2259,1.5711,rough,14.0,2,9.465
1940,62.08,0.7438,4.9383,0.2149,-0.0073,-0.2259,1.5711,rough,14.0,2,9.465
1950,62.40,0.7438,4.9383,0.2149,-0.0073,-0.2259,1.5711,rough,14.0,2,9.465
1960,62.72,0.7437,4.9383,0.2149,-0.0073,-0.2259,1.5711,rough,14.0,2,9.465
1970,63.04,0.7437,4.9383,0.2149,-0.0073,-0.2259,1.5711,rough,14.0,2,9.465
1980,63.36,0.7437,4.9383,0.2149,-0.0073,-0.2259,1.5711,rough,14.0,2,9.465
1990,63.68,0.7437,4.9383,0.2149,-0.0073,-0.2259,1.5711,rough,14.0,2,9.465
2000,64.00,0.7437,4.9383,0.2149,-0.0073,-0.2259,1.5711,rough,14.0,2,9.465
2010,64.32,0.7437,4.9383,0.2149,-0.0073,-0.2259,1.5711,rough,14.0,2,9.465
2020,64.64,0.7436,4.9383,0.2149,-0.0073,-0.2259,1.5711,rough,14.0,2,9.465
2030,64.96,0.7436,4.9383,0.2149,-0.0073,-0.2258,1.5711,rough,14.0,2,9.465
2040,65.28,0.7436,4.9383,0.2149,-0.0073,-0.2258,1.5711,rough,14.0,2,9.465
2050,65.60,0.7436,4.9383,0.2149,-0.0073,-0.2258,1.5711,rough,14.0,2,9.465
2060,65.92,0.7436,4.9383,0.2149,-0.0073,-0.2258,1.5711,rough,14.0,2,9.465
2070,66.24,0.7436,4.9383,0.2149,-0.0073,-0.2258,1.5711,rough,14.0,2,9.465
2080,66.56,0.7435,4.9383,0.2149,-0.0073,-0.2258,1.5711,rough,14.0,2,9.465
2090,66.88,0.7435,4.9383,0.2149,-0.0073,-0.2258,1.5711,rough,14.0,2,9.465
2100,67.20,0.7435,4.9383,0.2149,-0.0073,-0.2258,1.5711,rough,14.0,2,9.465
2110,67.52,0.7435,4.9383,0.2149,-0.0073,-0.2258,1.5711,rough,14.0,2,9.465
2120,67.84,0.7435,4.9383,0.2149,-0.0073,-0.2258,1.5711,rough,14.0,2,9.465
2130,68.16,0.7435,4.9383,0.2149,-0.0073,-0.2258,1.5711,rough,14.0,2,9.465
2140,68.48,0.7435,4.9383,0.2149,-0.0073,-0.2258,1.5711,rough,14.0,2,9.465
2150,68.80,0.7434,4.9383,0.2149,-0.0073,-0.2258,1.5711,rough,14.0,2,9.465
2160,69.12,0.7434,4.9383,0.2149,-0.0073,-0.2258,1.5711,rough,14.0,2,9.465
2170,69.44,0.7434,4.9383,0.2149,-0.0073,-0.2258,1.5711,rough,14.0,2,9.465
2180,69.76,0.7434,4.9383,0.2149,-0.0073,-0.2258,1.5711,rough,14.0,2,9.465
2190,70.08,0.7434,4.9383,0.2149,-0.0073,-0.2258,1.5711,rough,14.0,2,9.465
2200,70.40,0.7434,4.9383,0.2149,-0.0073,-0.2258,1.5711,rough,14.0,2,9.465
2210,70.72,0.7433,4.9383,0.2149,-0.0073,-0.2258,1.5711,rough,14.0,2,9.465
2220,71.04,0.7433,4.9383,0.2149,-0.0073,-0.2258,1.5711,rough,14.0,2,9.465
2230,71.36,0.7433,4.9383,0.2149,-0.0073,-0.2258,1.5711,rough,14.0,2,9.465
2240,71.68,0.7433,4.9383,0.2149,-0.0073,-0.2258,1.5711,rough,14.0,2,9.466
2250,72.00,0.7433,4.9383,0.2149,-0.0073,-0.2258,1.5711,rough,14.0,2,9.466
2260,72.32,0.7433,4.9383,0.2149,-0.0073,-0.2258,1.5711,rough,14.0,2,9.466
2270,72.64,0.7432,4.9383,0.2149,-0.0073,-0.2258,1.5711,rough,14.0,2,9.466
2280,72.96,0.7432,4.9383,0.2149,-0.0073,-0.2258,1.5711,rough,14.0,2,9.466
2290,73.28,0.7432,4.9383,0.2149,-0.0073,-0.2258,1.5711,rough,14.0,2,9.466
2300,73.60,0.7432,4.9383,0.2149,-0.0073,-0.2258,1.5711,rough,14.0,2,9.466
2310,73.92,0.7432,4.9383,0.2149,-0.0073,-0.2258,1.5711,rough,14.0,2,9.466
2320,74.24,0.7432,4.9383,0.2149,-0.0073,-0.2258,1.5711,rough,14.0,2,9.466
2330,74.56,0.7432,4.9383,0.2149,-0.0073,-0.2258,1.5711,rough,14.0,2,9.466
2340,74.88,0.7431,4.9383,0.2149,-0.0073,-0.2258,1.5711,rough,14.0,2,9.466
2350,75.20,0.7431,4.9383,0.2149,-0.0073,-0.2258,1.5711,rough,14.0,2,9.466
2360,75.52,0.7431,4.9383,0.2149,-0.0073,-0.2258,1.5711,rough,14.0,2,9.466
2370,75.84,0.7431,4.9383,0.2149,-0.0073,-0.2258,1.5711,rough,14.0,2,9.466
2380,76.16,0.7431,4.9383,0.2149,-0.0073,-0.2258,1.5711,rough,14.0,2,9.466
2390,76.48,0.7431,4.9383,0.2149,-0.0073,-0.2258,1.5711,rough,14.0,2,9.466
2400,76.80,0.7430,4.9383,0.2149,-0.0073,-0.2258,1.5711,rough,14.0,2,9.466
2410,77.12,0.7430,4.9383,0.2149,-0.0073,-0.2258,1.5711,rough,14.0,2,9.466
2420,77.44,0.7430,4.9383,0.2149,-0.0073,-0.2257,1.5711,rough,14.0,2,9.466
2430,77.76,0.7430,4.9383,0.2149,-0.0073,-0.2257,1.5711,rough,14.0,2,9.466
2440,78.08,0.7430,4.9383,0.2149,-0.0073,-0.2257,1.5711,rough,14.0,2,9.466
2450,78.40,0.7430,4.9383,0.2149,-0.0073,-0.2257,1.5711,rough,14.0,2,9.466
2460,78.72,0.7429,4.9383,0.2149,-0.0073,-0.2257,1.5710,rough,14.0,2,9.466
2470,79.04,0.7429,4.9383,0.2149,-0.0073,-0.2257,1.5710,rough,14.0,2,9.466
2480,79.36,0.7429,4.9383,0.2149,-0.0073,-0.2257,1.5710,rough,14.0,2,9.466
2490,79.68,0.7429,4.9383,0.2149,-0.0073,-0.2257,1.5710,rough,14.0,2,9.466
2500,80.00,0.7429,4.9383,0.2149,-0.0073,-0.2257,1.5710,rough,14.0,2,9.466
2510,80.32,0.7429,4.9383,0.2149,-0.0073,-0.2257,1.5710,rough,14.0,2,9.466
2520,80.64,0.7429,4.9383,0.2149,-0.0073,-0.2257,1.5710,rough,14.0,2,9.466
2530,80.96,0.7428,4.9383,0.2149,-0.0073,-0.2257,1.5710,rough,14.0,2,9.466
2540,81.28,0.7428,4.9383,0.2149,-0.0073,-0.2257,1.5710,rough,14.0,2,9.466
2550,81.60,0.7428,4.9383,0.2149,-0.0073,-0.2257,1.5710,rough,14.0,2,9.466
2560,81.92,0.7428,4.9383,0.2149,-0.0073,-0.2257,1.5710,rough,14.0,2,9.466
2570,82.24,0.7428,4.9383,0.2149,-0.0073,-0.2257,1.5710,rough,14.0,2,9.466
2580,82.56,0.7428,4.9383,0.2149,-0.0073,-0.2257,1.5710,rough,14.0,2,9.466
2590,82.88,0.7427,4.9383,0.2149,-0.0073,-0.2257,1.5710,rough,14.0,2,9.466
2600,83.20,0.7427,4.9383,0.2149,-0.0073,-0.2257,1.5710,rough,14.0,2,9.466
2610,83.52,0.7427,4.9383,0.2149,-0.0073,-0.2257,1.5710,rough,14.0,2,9.466
2620,83.84,0.7427,4.9383,0.2149,-0.0073,-0.2257,1.5710,rough,14.0,2,9.466
2630,84.16,0.7427,4.9383,0.2149,-0.0073,-0.2257,1.5710,rough,14.0,2,9.466
2640,84.48,0.7427,4.9383,0.2149,-0.0073,-0.2257,1.5710,rough,14.0,2,9.466
2650,84.80,0.7427,4.9383,0.2149,-0.0073,-0.2257,1.5710,rough,14.0,2,9.466
2660,85.12,0.7426,4.9383,0.2149,-0.0073,-0.2257,1.5710,rough,14.0,2,9.466
2670,85.44,0.7426,4.9383,0.2149,-0.0073,-0.2257,1.5710,rough,14.0,2,9.466
2680,85.76,0.7426,4.9383,0.2149,-0.0073,-0.2257,1.5710,rough,14.0,2,9.466
2690,86.08,0.7426,4.9383,0.2149,-0.0073,-0.2257,1.5710,rough,14.0,2,9.466
2700,86.40,0.7426,4.9383,0.2149,-0.0073,-0.2257,1.5710,rough,14.0,2,9.466
2710,86.72,0.7426,4.9383,0.2149,-0.0073,-0.2257,1.5710,rough,14.0,2,9.466
2720,87.04,0.7425,4.9383,0.2149,-0.0073,-0.2257,1.5710,rough,14.0,2,9.466
2730,87.36,0.7425,4.9383,0.2149,-0.0073,-0.2257,1.5710,rough,14.0,2,9.466
2740,87.68,0.7425,4.9383,0.2149,-0.0073,-0.2257,1.5710,rough,14.0,2,9.466
2750,88.00,0.7425,4.9383,0.2149,-0.0073,-0.2257,1.5710,rough,14.0,2,9.466
2760,88.32,0.7425,4.9383,0.2149,-0.0073,-0.2257,1.5710,rough,14.0,2,9.466
2770,88.64,0.7425,4.9383,0.2149,-0.0073,-0.2257,1.5710,rough,14.0,2,9.466
2780,88.96,0.7425,4.9383,0.2149,-0.0073,-0.2257,1.5710,rough,14.0,2,9.466
2790,89.28,0.7424,4.9383,0.2149,-0.0073,-0.2257,1.5710,rough,14.0,2,9.466
2800,89.60,0.7424,4.9383,0.2149,-0.0073,-0.2257,1.5710,rough,14.0,2,9.466
2810,89.92,0.7424,4.9383,0.2149,-0.0073,-0.2257,1.5710,rough,14.0,2,9.466
2820,90.24,0.7424,4.9383,0.2149,-0.0073,-0.2257,1.5710,rough,14.0,2,9.466
2830,90.56,0.7424,4.9383,0.2149,-0.0073,-0.2257,1.5710,rough,14.0,2,9.466
2840,90.88,0.7424,4.9383,0.2149,-0.0073,-0.2256,1.5710,rough,14.0,2,9.466
2850,91.20,0.7424,4.9383,0.2149,-0.0073,-0.2256,1.5710,rough,14.0,2,9.466
2860,91.52,0.7423,4.9383,0.2149,-0.0073,-0.2256,1.5710,rough,14.0,2,9.466
2870,91.84,0.7423,4.9383,0.2149,-0.0073,-0.2256,1.5710,rough,14.0,2,9.466
2880,92.16,0.7423,4.9383,0.2149,-0.0073,-0.2256,1.5710,rough,14.0,2,9.466
2890,92.48,0.7423,4.9383,0.2149,-0.0073,-0.2256,1.5710,rough,14.0,2,9.466
2900,92.80,0.7423,4.9383,0.2149,-0.0073,-0.2256,1.5710,rough,14.0,2,9.466
2910,93.12,0.7423,4.9383,0.2149,-0.0073,-0.2256,1.5710,rough,14.0,2,9.466
2920,93.44,0.7422,4.9383,0.2149,-0.0073,-0.2256,1.5710,rough,14.0,2,9.466
2930,93.76,0.7422,4.9383,0.2149,-0.0073,-0.2256,1.5710,rough,14.0,2,9.466
2940,94.08,0.7422,4.9383,0.2149,-0.0073,-0.2256,1.5710,rough,14.0,2,9.466
2950,94.40,0.7422,4.9383,0.2149,-0.0073,-0.2256,1.5710,rough,14.0,2,9.466
2960,94.72,0.7422,4.9383,0.2149,-0.0073,-0.2256,1.5710,rough,14.0,2,9.466
2970,95.04,0.7422,4.9383,0.2149,-0.0073,-0.2256,1.5710,rough,14.0,2,9.466
2980,95.36,0.7422,4.9383,0.2149,-0.0073,-0.2256,1.5710,rough,14.0,2,9.466
2990,95.68,0.7421,4.9383,0.2149,-0.0073,-0.2256,1.5710,rough,14.0,2,9.466
3000,96.00,0.7421,4.9383,0.2149,-0.0073,-0.2256,1.5710,rough,14.0,2,9.466
3010,96.32,0.7421,4.9383,0.2149,-0.0073,-0.2256,1.5710,rough,14.0,2,9.466
3020,96.64,0.7421,4.9383,0.2149,-0.0073,-0.2256,1.5710,rough,14.0,2,9.466
3030,96.96,0.7421,4.9383,0.2149,-0.0073,-0.2256,1.5710,rough,14.0,2,9.467
3040,97.28,0.7421,4.9383,0.2149,-0.0073,-0.2256,1.5710,rough,14.0,2,9.467
3050,97.60,0.7421,4.9383,0.2149,-0.0073,-0.2256,1.5710,rough,14.0,2,9.467
3060,97.92,0.7420,4.9384,0.2149,-0.0073,-0.2256,1.5710,rough,14.0,2,9.467
3070,98.24,0.7420,4.9384,0.2149,-0.0073,-0.2256,1.5710,rough,14.0,2,9.467
3080,98.56,0.7420,4.9384,0.2149,-0.0073,-0.2256,1.5710,rough,14.0,2,9.467
3090,98.88,0.7420,4.9384,0.2149,-0.0073,-0.2256,1.5710,rough,14.0,2,9.467
3100,99.20,0.7420,4.9384,0.2149,-0.0073,-0.2256,1.5710,rough,14.0,2,9.467
3110,99.52,0.7420,4.9384,0.2149,-0.0073,-0.2256,1.5710,rough,14.0,2,9.467
3120,99.84,0.7420,4.9384,0.2149,-0.0073,-0.2256,1.5710,rough,14.0,2,9.467
3130,100.16,0.7419,4.9384,0.2149,-0.0073,-0.2256,1.5710,rough,14.0,2,9.467
3140,100.48,0.7419,4.9384,0.2149,-0.0073,-0.2256,1.5710,rough,14.0,2,9.467
3150,100.80,0.7419,4.9384,0.2149,-0.0073,-0.2256,1.5710,rough,14.0,2,9.467
3160,101.12,0.7419,4.9384,0.2149,-0.0073,-0.2256,1.5710,rough,14.0,2,9.467
3170,101.44,0.7419,4.9384,0.2149,-0.0073,-0.2256,1.5710,rough,14.0,2,9.467
3180,101.76,0.7419,4.9384,0.2149,-0.0073,-0.2256,1.5710,rough,14.0,2,9.467
3190,102.08,0.7419,4.9384,0.2149,-0.0073,-0.2256,1.5710,rough,14.0,2,9.467
3200,102.40,0.7418,4.9384,0.2149,-0.0073,-0.2256,1.5710,rough,14.0,2,9.467
3210,102.72,0.7418,4.9384,0.2149,-0.0073,-0.2256,1.5710,rough,14.0,2,9.467
3220,103.04,0.7418,4.9384,0.2149,-0.0073,-0.2256,1.5710,rough,14.0,2,9.467
3230,103.36,0.7418,4.9384,0.2149,-0.0073,-0.2256,1.5710,rough,14.0,2,9.467
3240,103.68,0.7418,4.9384,0.2149,-0.0073,-0.2256,1.5710,rough,14.0,2,9.467
3250,104.00,0.7418,4.9384,0.2149,-0.0073,-0.2256,1.5710,rough,14.0,2,9.467
3260,104.32,0.7418,4.9384,0.2149,-0.0073,-0.2256,1.5710,rough,14.0,2,9.467
3270,104.64,0.7417,4.9384,0.2149,-0.0073,-0.2256,1.5710,rough,14.0,2,9.467
3280,104.96,0.7417,4.9384,0.2149,-0.0073,-0.2255,1.5710,rough,14.0,2,9.467
3290,105.28,0.7417,4.9384,0.2149,-0.0073,-0.2255,1.5710,rough,14.0,2,9.467
3300,105.60,0.7417,4.9384,0.2149,-0.0073,-0.2255,1.5710,rough,14.0,2,9.467
3310,105.92,0.7417,4.9384,0.2149,-0.0073,-0.2255,1.5710,rough,14.0,2,9.467
3320,106.24,0.7417,4.9384,0.2149,-0.0073,-0.2255,1.5710,rough,14.0,2,9.467
3330,106.56,0.7417,4.9384,0.2149,-0.0073,-0.2255,1.5710,rough,14.0,2,9.467
3340,106.88,0.7416,4.9384,0.2149,-0.0073,-0.2255,1.5710,rough,14.0,2,9.467
3350,107.20,0.7416,4.9384,0.2149,-0.0073,-0.2255,1.5710,rough,14.0,2,9.467
3360,107.52,0.7416,4.9384,0.2149,-0.0073,-0.2255,1.5710,rough,14.0,2,9.467
3370,107.84,0.7416,4.9384,0.2149,-0.0073,-0.2255,1.5710,rough,14.0,2,9.467
3380,108.16,0.7416,4.9384,0.2149,-0.0073,-0.2255,1.5710,rough,14.0,2,9.467
3390,108.48,0.7416,4.9384,0.2149,-0.0073,-0.2255,1.5710,rough,14.0,2,9.467
3400,108.80,0.7416,4.9384,0.2149,-0.0073,-0.2255,1.5710,rough,14.0,2,9.467
3410,109.12,0.7415,4.9384,0.2149,-0.0073,-0.2255,1.5710,rough,14.0,2,9.467
3420,109.44,0.7415,4.9384,0.2149,-0.0073,-0.2255,1.5710,rough,14.0,2,9.467
3430,109.76,0.7415,4.9384,0.2149,-0.0073,-0.2255,1.5710,rough,14.0,2,9.467
3440,110.08,0.7415,4.9384,0.2149,-0.0073,-0.2255,1.5710,rough,14.0,2,9.467
3450,110.40,0.7415,4.9384,0.2149,-0.0073,-0.2255,1.5710,rough,14.0,2,9.467
3460,110.72,0.7415,4.9384,0.2149,-0.0073,-0.2255,1.5710,rough,14.0,2,9.467
3470,111.04,0.7415,4.9384,0.2149,-0.0073,-0.2255,1.5710,rough,14.0,2,9.467
3480,111.36,0.7414,4.9384,0.2149,-0.0073,-0.2255,1.5710,rough,14.0,2,9.467
3490,111.68,0.7414,4.9384,0.2149,-0.0073,-0.2255,1.5710,rough,14.0,2,9.467
3500,112.00,0.7414,4.9384,0.2149,-0.0073,-0.2255,1.5710,rough,14.0,2,9.467
3510,112.32,0.7414,4.9384,0.2149,-0.0073,-0.2255,1.5710,rough,14.0,2,9.467
3520,112.64,0.7414,4.9384,0.2149,-0.0073,-0.2255,1.5710,rough,14.0,2,9.467
3530,112.96,0.7414,4.9384,0.2149,-0.0073,-0.2255,1.5710,rough,14.0,2,9.467
3540,113.28,0.7414,4.9384,0.2149,-0.0073,-0.2255,1.5710,rough,14.0,2,9.467
3550,113.60,0.7413,4.9384,0.2149,-0.0073,-0.2255,1.5710,rough,14.0,2,9.467
3560,113.92,0.7413,4.9384,0.2149,-0.0073,-0.2255,1.5710,rough,14.0,2,9.467
3570,114.24,0.7413,4.9384,0.2149,-0.0073,-0.2255,1.5710,rough,14.0,2,9.467
3580,114.56,0.7413,4.9384,0.2149,-0.0073,-0.2255,1.5710,rough,14.0,2,9.467
3590,114.88,0.7413,4.9384,0.2149,-0.0073,-0.2255,1.5710,rough,14.0,2,9.467
3600,115.20,0.7413,4.9384,0.2149,-0.0073,-0.2255,1.5710,rough,14.0,2,9.467
3610,115.52,0.7413,4.9384,0.2148,-0.0073,-0.2255,1.5710,rough,14.0,2,9.467
3620,115.84,0.7412,4.9384,0.2148,-0.0073,-0.2255,1.5710,rough,14.0,2,9.467
3630,116.16,0.7412,4.9384,0.2148,-0.0073,-0.2255,1.5710,rough,14.0,2,9.467
3640,116.48,0.7412,4.9384,0.2148,-0.0073,-0.2255,1.5710,rough,14.0,2,9.467
3650,116.80,0.7412,4.9384,0.2148,-0.0073,-0.2255,1.5710,rough,14.0,2,9.467
3660,117.12,0.7412,4.9384,0.2148,-0.0073,-0.2255,1.5710,rough,14.0,2,9.467
3670,117.44,0.7412,4.9384,0.2148,-0.0073,-0.2255,1.5710,rough,14.0,2,9.467
3680,117.76,0.7412,4.9384,0.2148,-0.0073,-0.2255,1.5710,rough,14.0,2,9.467
3690,118.08,0.7412,4.9384,0.2148,-0.0073,-0.2255,1.5710,rough,14.0,2,9.467
3700,118.40,0.7411,4.9384,0.2148,-0.0073,-0.2255,1.5710,rough,14.0,2,9.467
3710,118.72,0.7411,4.9384,0.2148,-0.0073,-0.2255,1.5710,rough,14.0,2,9.467
3720,119.04,0.7411,4.9384,0.2148,-0.0073,-0.2255,1.5710,rough,14.0,2,9.467
3730,119.36,0.7411,4.9384,0.2148,-0.0073,-0.2254,1.5710,rough,14.0,2,9.467
3740,119.68,0.7411,4.9384,0.2148,-0.0073,-0.2254,1.5710,rough,14.0,2,9.467
3750,120.00,0.7411,4.9384,0.2148,-0.0073,-0.2254,1.5710,rough,14.0,2,9.467
3760,120.32,0.7411,4.9384,0.2148,-0.0073,-0.2254,1.5710,rough,14.0,2,9.467
3770,120.64,0.7410,4.9384,0.2148,-0.0073,-0.2254,1.5710,rough,14.0,2,9.467
3780,120.96,0.7410,4.9384,0.2148,-0.0073,-0.2254,1.5710,rough,14.0,2,9.467
3790,121.28,0.7410,4.9384,0.2148,-0.0073,-0.2254,1.5710,rough,14.0,2,9.467
3800,121.60,0.7410,4.9384,0.2148,-0.0073,-0.2254,1.5710,rough,14.0,2,9.467
3810,121.92,0.7410,4.9384,0.2148,-0.0073,-0.2254,1.5710,rough,14.0,2,9.467
3820,122.24,0.7410,4.9384,0.2148,-0.0073,-0.2254,1.5710,rough,14.0,2,9.467
3830,122.56,0.7410,4.9384,0.2148,-0.0073,-0.2254,1.5710,rough,14.0,2,9.467
3840,122.88,0.7410,4.9384,0.2148,-0.0073,-0.2254,1.5710,rough,14.0,2,9.467
3850,123.20,0.7409,4.9384,0.2148,-0.0073,-0.2254,1.5710,rough,14.0,2,9.467
3860,123.52,0.7409,4.9384,0.2148,-0.0073,-0.2254,1.5710,rough,14.0,2,9.467
3870,123.84,0.7409,4.9384,0.2148,-0.0073,-0.2254,1.5710,rough,14.0,2,9.467
3880,124.16,0.7409,4.9384,0.2148,-0.0073,-0.2254,1.5710,rough,14.0,2,9.467
3890,124.48,0.7409,4.9384,0.2148,-0.0073,-0.2254,1.5710,rough,14.0,2,9.467
3900,124.80,0.7409,4.9384,0.2148,-0.0073,-0.2254,1.5710,rough,14.0,2,9.467
3910,125.12,0.7409,4.9384,0.2148,-0.0073,-0.2254,1.5710,rough,14.0,2,9.468
3920,125.44,0.7408,4.9384,0.2148,-0.0073,-0.2254,1.5710,rough,14.0,2,9.468
3930,125.76,0.7408,4.9384,0.2148,-0.0073,-0.2254,1.5710,rough,14.0,2,9.468
3940,126.08,0.7408,4.9384,0.2148,-0.0073,-0.2254,1.5710,rough,14.0,2,9.468
3950,126.40,0.7408,4.9384,0.2148,-0.0073,-0.2254,1.5710,rough,14.0,2,9.468
3960,126.72,0.7408,4.9384,0.2148,-0.0073,-0.2254,1.5710,rough,14.0,2,9.468
3970,127.04,0.7408,4.9384,0.2148,-0.0073,-0.2254,1.5710,rough,14.0,2,9.468
3980,127.36,0.7408,4.9384,0.2148,-0.0073,-0.2254,1.5710,rough,14.0,2,9.468
3990,127.68,0.7408,4.9384,0.2148,-0.0073,-0.2254,1.5710,rough,14.0,2,9.468
4000,128.00,0.7407,4.9384,0.2148,-0.0073,-0.2254,1.5710,rough,14.0,2,9.468
4010,128.32,0.7407,4.9384,0.2148,-0.0073,-0.2254,1.5710,rough,14.0,2,9.468
4020,128.64,0.7407,4.9384,0.2148,-0.0073,-0.2254,1.5710,rough,14.0,2,9.468
4030,128.96,0.7407,4.9384,0.2148,-0.0073,-0.2254,1.5710,rough,14.0,2,9.468
4040,129.28,0.7407,4.9384,0.2148,-0.0073,-0.2254,1.5710,rough,14.0,2,9.468
4050,129.60,0.7407,4.9384,0.2148,-0.0073,-0.2254,1.5710,rough,14.0,2,9.468
4060,129.92,0.7407,4.9384,0.2148,-0.0073,-0.2254,1.5710,rough,14.0,2,9.468
4070,130.24,0.7406,4.9384,0.2148,-0.0073,-0.2254,1.5710,rough,14.0,2,9.468
4080,130.56,0.7406,4.9384,0.2148,-0.0073,-0.2254,1.5710,rough,14.0,2,9.468
4090,130.88,0.7406,4.9384,0.2148,-0.0073,-0.2254,1.5710,rough,14.0,2,9.468
4100,131.20,0.7406,4.9384,0.2148,-0.0073,-0.2254,1.5710,rough,14.0,2,9.468
4110,131.52,0.7406,4.9384,0.2148,-0.0073,-0.2254,1.5710,rough,14.0,2,9.468
4120,131.84,0.7406,4.9384,0.2148,-0.0073,-0.2254,1.5710,rough,14.0,2,9.468
4130,132.16,0.7406,4.9384,0.2148,-0.0073,-0.2254,1.5710,rough,14.0,2,9.468
4140,132.48,0.7406,4.9384,0.2148,-0.0073,-0.2254,1.5710,rough,14.0,2,9.468
4150,132.80,0.7405,4.9384,0.2148,-0.0073,-0.2254,1.5710,rough,14.0,2,9.468
4160,133.12,0.7405,4.9384,0.2148,-0.0073,-0.2254,1.5710,rough,14.0,2,9.468
4170,133.44,0.7405,4.9384,0.2148,-0.0073,-0.2254,1.5710,rough,14.0,2,9.468
4180,133.76,0.7405,4.9384,0.2148,-0.0073,-0.2254,1.5710,rough,14.0,2,9.468
4190,134.08,0.7405,4.9384,0.2148,-0.0073,-0.2254,1.5710,rough,14.0,2,9.468
4200,134.40,0.7405,4.9384,0.2148,-0.0073,-0.2254,1.5710,rough,14.0,2,9.468
4210,134.72,0.7405,4.9384,0.2148,-0.0073,-0.2253,1.5710,rough,14.0,2,9.468
4220,135.04,0.7404,4.9384,0.2148,-0.0073,-0.2253,1.5710,rough,14.0,2,9.468
4230,135.36,0.7404,4.9384,0.2148,-0.0073,-0.2253,1.5710,rough,14.0,2,9.468
4240,135.68,0.7404,4.9384,0.2148,-0.0073,-0.2253,1.5710,rough,14.0,2,9.468
4250,136.00,0.7404,4.9384,0.2148,-0.0073,-0.2253,1.5710,rough,14.0,2,9.468
4260,136.32,0.7404,4.9384,0.2148,-0.0073,-0.2253,1.5710,rough,14.0,2,9.468
4270,136.64,0.7404,4.9384,0.2148,-0.0073,-0.2253,1.5710,rough,14.0,2,9.468
4280,136.96,0.7404,4.9384,0.2148,-0.0072,-0.2253,1.5710,rough,14.0,2,9.468
4290,137.28,0.7404,4.9384,0.2148,-0.0072,-0.2253,1.5710,rough,14.0,2,9.468
4300,137.60,0.7403,4.9384,0.2148,-0.0072,-0.2253,1.5710,rough,14.0,2,9.468
4310,137.92,0.7403,4.9384,0.2148,-0.0072,-0.2253,1.5710,rough,14.0,2,9.468
4320,138.24,0.7403,4.9384,0.2148,-0.0072,-0.2253,1.5710,rough,14.0,2,9.468
4330,138.56,0.7403,4.9384,0.2148,-0.0072,-0.2253,1.5710,rough,14.0,2,9.468
4340,138.88,0.7403,4.9384,0.2148,-0.0072,-0.2253,1.5710,rough,14.0,2,9.468
4350,139.20,0.7403,4.9384,0.2148,-0.0072,-0.2253,1.5710,rough,14.0,2,9.468
4360,139.52,0.7403,4.9384,0.2148,-0.0072,-0.2253,1.5710,rough,14.0,2,9.468
4370,139.84,0.7403,4.9384,0.2148,-0.0072,-0.2253,1.5710,rough,14.0,2,9.468
4380,140.16,0.7402,4.9384,0.2148,-0.0072,-0.2253,1.5710,rough,14.0,2,9.468
4390,140.48,0.7402,4.9384,0.2148,-0.0072,-0.2253,1.5710,rough,14.0,2,9.468
4400,140.80,0.7402,4.9384,0.2148,-0.0072,-0.2253,1.5710,rough,14.0,2,9.468
4410,141.12,0.7402,4.9384,0.2148,-0.0072,-0.2253,1.5710,rough,14.0,2,9.468
4420,141.44,0.7402,4.9384,0.2148,-0.0072,-0.2253,1.5710,rough,14.0,2,9.468
4430,141.76,0.7402,4.9384,0.2148,-0.0072,-0.2253,1.5710,rough,14.0,2,9.468
4440,142.08,0.7402,4.9384,0.2148,-0.0072,-0.2253,1.5710,rough,14.0,2,9.468
4450,142.40,0.7402,4.9384,0.2148,-0.0072,-0.2253,1.5710,rough,14.0,2,9.468
4460,142.72,0.7401,4.9384,0.2148,-0.0072,-0.2253,1.5710,rough,14.0,2,9.468
4470,143.04,0.7401,4.9384,0.2148,-0.0072,-0.2253,1.5710,rough,14.0,2,9.468
4480,143.36,0.7401,4.9384,0.2148,-0.0072,-0.2253,1.5710,rough,14.0,2,9.468
4490,143.68,0.7401,4.9384,0.2148,-0.0072,-0.2253,1.5710,rough,14.0,2,9.468
4500,144.00,0.7401,4.9384,0.2148,-0.0072,-0.2253,1.5710,rough,14.0,2,9.468
4510,144.32,0.7401,4.9384,0.2148,-0.0072,-0.2253,1.5710,rough,14.0,2,9.468
4520,144.64,0.7401,4.9384,0.2148,-0.0072,-0.2253,1.5710,rough,14.0,2,9.468
4530,144.96,0.7401,4.9384,0.2148,-0.0072,-0.2253,1.5710,rough,14.0,2,9.468
4540,145.28,0.7400,4.9384,0.2148,-0.0072,-0.2253,1.5710,rough,14.0,2,9.468
4550,145.60,0.7400,4.9384,0.2148,-0.0072,-0.2253,1.5710,rough,14.0,2,9.468
4560,145.92,0.7400,4.9384,0.2148,-0.0072,-0.2253,1.5710,rough,14.0,2,9.468
4570,146.24,0.7400,4.9384,0.2148,-0.0072,-0.2253,1.5710,rough,14.0,2,9.468
4580,146.56,0.7400,4.9384,0.2148,-0.0072,-0.2253,1.5710,rough,14.0,2,9.468
4590,146.88,0.7400,4.9384,0.2148,-0.0072,-0.2253,1.5710,rough,14.0,2,9.468
4600,147.20,0.7400,4.9384,0.2148,-0.0072,-0.2253,1.5710,rough,14.0,2,9.468
4610,147.52,0.7400,4.9384,0.2148,-0.0072,-0.2253,1.5710,rough,14.0,2,9.468
4620,147.84,0.7399,4.9384,0.2148,-0.0072,-0.2253,1.5710,rough,14.0,2,9.468
4630,148.16,0.7399,4.9384,0.2148,-0.0072,-0.2253,1.5710,rough,14.0,2,9.468
4640,148.48,0.7399,4.9384,0.2148,-0.0072,-0.2253,1.5710,rough,14.0,2,9.468
4650,148.80,0.7399,4.9384,0.2148,-0.0072,-0.2253,1.5710,rough,14.0,2,9.468
4660,149.12,0.7399,4.9384,0.2148,-0.0072,-0.2253,1.5710,rough,14.0,2,9.468
4670,149.44,0.7399,4.9384,0.2148,-0.0072,-0.2253,1.5710,rough,14.0,2,9.468
4680,149.76,0.7399,4.9384,0.2148,-0.0072,-0.2253,1.5710,rough,14.0,2,9.468
4690,150.08,0.7399,4.9384,0.2148,-0.0072,-0.2253,1.5710,rough,14.0,2,9.468
4700,150.40,0.7398,4.9384,0.2148,-0.0072,-0.2253,1.5710,rough,14.0,2,9.468
4710,150.72,0.7398,4.9384,0.2148,-0.0072,-0.2252,1.5710,rough,14.0,2,9.468
4720,151.04,0.7398,4.9384,0.2148,-0.0072,-0.2252,1.5710,rough,14.0,2,9.468
4730,151.36,0.7398,4.9384,0.2148,-0.0072,-0.2252,1.5710,rough,14.0,2,9.468
4740,151.68,0.7398,4.9384,0.2148,-0.0072,-0.2252,1.5710,rough,14.0,2,9.468
4750,152.00,0.7398,4.9384,0.2148,-0.0072,-0.2252,1.5710,rough,14.0,2,9.468
4760,152.32,0.7398,4.9384,0.2148,-0.0072,-0.2252,1.5710,rough,14.0,2,9.468
4770,152.64,0.7398,4.9384,0.2148,-0.0072,-0.2252,1.5710,rough,14.0,2,9.468
4780,152.96,0.7397,4.9384,0.2148,-0.0072,-0.2252,1.5710,rough,14.0,2,9.468
4790,153.28,0.7397,4.9384,0.2148,-0.0072,-0.2252,1.5710,rough,14.0,2,9.468
4800,153.60,0.7397,4.9384,0.2148,-0.0072,-0.2252,1.5710,rough,14.0,2,9.468
4810,153.92,0.7397,4.9384,0.2148,-0.0072,-0.2252,1.5710,rough,14.0,2,9.468
4820,154.24,0.7397,4.9384,0.2148,-0.0072,-0.2252,1.5710,rough,14.0,2,9.468
4830,154.56,0.7397,4.9384,0.2148,-0.0072,-0.2252,1.5710,rough,14.0,2,9.468
4840,154.88,0.7397,4.9384,0.2148,-0.0072,-0.2252,1.5710,rough,14.0,2,9.468
4850,155.20,0.7397,4.9384,0.2148,-0.0072,-0.2252,1.5710,rough,14.0,2,9.468
4860,155.52,0.7396,4.9384,0.2148,-0.0072,-0.2252,1.5710,rough,14.0,2,9.468
4870,155.84,0.7396,4.9384,0.2148,-0.0072,-0.2252,1.5710,rough,14.0,2,9.469
4880,156.16,0.7396,4.9384,0.2148,-0.0072,-0.2252,1.5710,rough,14.0,2,9.469
4890,156.48,0.7396,4.9384,0.2148,-0.0072,-0.2252,1.5710,rough,14.0,2,9.469
4900,156.80,0.7396,4.9384,0.2148,-0.0072,-0.2252,1.5710,rough,14.0,2,9.469
4910,157.12,0.7396,4.9384,0.2148,-0.0072,-0.2252,1.5710,rough,14.0,2,9.469
4920,157.44,0.7396,4.9384,0.2148,-0.0072,-0.2252,1.5710,rough,14.0,2,9.469
4930,157.76,0.7396,4.9384,0.2148,-0.0072,-0.2252,1.5710,rough,14.0,2,9.469
4940,158.08,0.7396,4.9384,0.2148,-0.0072,-0.2252,1.5710,rough,14.0,2,9.469
4950,158.40,0.7395,4.9384,0.2148,-0.0072,-0.2252,1.5710,rough,14.0,2,9.469
4960,158.72,0.7395,4.9384,0.2148,-0.0072,-0.2252,1.5710,rough,14.0,2,9.469
4970,159.04,0.7395,4.9384,0.2148,-0.0072,-0.2252,1.5710,rough,14.0,2,9.469
4980,159.36,0.7395,4.9384,0.2148,-0.0072,-0.2252,1.5710,rough,14.0,2,9.469
4990,159.68,0.7395,4.9384,0.2148,-0.0072,-0.2252,1.5710,rough,14.0,2,9.469
5000,160.00,0.7395,4.9384,0.2148,-0.0072,-0.2252,1.5710,rough,14.0,2,9.469
5010,160.32,0.7395,4.9384,0.2148,-0.0072,-0.2252,1.5710,rough,14.0,2,9.469
5020,160.64,0.7395,4.9384,0.2148,-0.0072,-0.2252,1.5710,rough,14.0,2,9.469
5030,160.96,0.7394,4.9384,0.2148,-0.0072,-0.2252,1.5710,rough,14.0,2,9.469
5040,161.28,0.7394,4.9384,0.2148,-0.0072,-0.2252,1.5710,rough,14.0,2,9.469
5050,161.60,0.7394,4.9384,0.2148,-0.0072,-0.2252,1.5710,rough,14.0,2,9.469
5060,161.92,0.7394,4.9384,0.2148,-0.0072,-0.2252,1.5710,rough,14.0,2,9.469
5070,162.24,0.7394,4.9384,0.2148,-0.0072,-0.2252,1.5710,rough,14.0,2,9.469
5080,162.56,0.7394,4.9384,0.2148,-0.0072,-0.2252,1.5710,rough,14.0,2,9.469
5090,162.88,0.7394,4.9384,0.2148,-0.0072,-0.2252,1.5710,rough,14.0,2,9.469
5100,163.20,0.7394,4.9384,0.2148,-0.0072,-0.2252,1.5710,rough,14.0,2,9.469
5110,163.52,0.7394,4.9384,0.2148,-0.0072,-0.2252,1.5710,rough,14.0,2,9.469
5120,163.84,0.7393,4.9384,0.2148,-0.0072,-0.2252,1.5710,rough,14.0,2,9.469
5130,164.16,0.7393,4.9384,0.2148,-0.0072,-0.2252,1.5710,rough,14.0,2,9.469
5140,164.48,0.7393,4.9384,0.2148,-0.0072,-0.2252,1.5710,rough,14.0,2,9.469
5150,164.80,0.7393,4.9384,0.2148,-0.0072,-0.2252,1.5710,rough,14.0,2,9.469
5160,165.12,0.7393,4.9384,0.2148,-0.0072,-0.2252,1.5710,rough,14.0,2,9.469
5170,165.44,0.7393,4.9384,0.2148,-0.0072,-0.2252,1.5710,rough,14.0,2,9.469
5180,165.76,0.7393,4.9384,0.2148,-0.0072,-0.2252,1.5710,rough,14.0,2,9.469
5190,166.08,0.7393,4.9384,0.2148,-0.0072,-0.2252,1.5710,rough,14.0,2,9.469
5200,166.40,0.7392,4.9384,0.2148,-0.0072,-0.2252,1.5710,rough,14.0,2,9.469
5210,166.72,0.7392,4.9384,0.2148,-0.0072,-0.2252,1.5710,rough,14.0,2,9.469
5220,167.04,0.7392,4.9384,0.2148,-0.0072,-0.2252,1.5710,rough,14.0,2,9.469
5230,167.36,0.7392,4.9384,0.2148,-0.0072,-0.2252,1.5710,rough,14.0,2,9.469
5240,167.68,0.7392,4.9384,0.2148,-0.0072,-0.2252,1.5710,rough,14.0,2,9.469
5250,168.00,0.7392,4.9384,0.2148,-0.0072,-0.2251,1.5710,rough,14.0,2,9.469
5260,168.32,0.7392,4.9384,0.2148,-0.0072,-0.2251,1.5710,rough,14.0,2,9.469
5270,168.64,0.7392,4.9384,0.2148,-0.0072,-0.2251,1.5710,rough,14.0,2,9.469
5280,168.96,0.7392,4.9384,0.2148,-0.0072,-0.2251,1.5710,rough,14.0,2,9.469
5290,169.28,0.7391,4.9384,0.2148,-0.0072,-0.2251,1.5710,rough,14.0,2,9.469
5300,169.60,0.7391,4.9384,0.2148,-0.0072,-0.2251,1.5710,rough,14.0,2,9.469
5310,169.92,0.7391,4.9384,0.2148,-0.0072,-0.2251,1.5710,rough,14.0,2,9.469
5320,170.24,0.7391,4.9384,0.2148,-0.0072,-0.2251,1.5710,rough,14.0,2,9.469
5330,170.56,0.7391,4.9384,0.2148,-0.0072,-0.2251,1.5710,rough,14.0,2,9.469
5340,170.88,0.7391,4.9384,0.2148,-0.0072,-0.2251,1.5710,rough,14.0,2,9.469
5350,171.20,0.7391,4.9384,0.2148,-0.0072,-0.2251,1.5710,rough,14.0,2,9.469
5360,171.52,0.7391,4.9384,0.2148,-0.0072,-0.2251,1.5710,rough,14.0,2,9.469
5370,171.84,0.7390,4.9384,0.2148,-0.0072,-0.2251,1.5710,rough,14.0,2,9.469
5380,172.16,0.7390,4.9384,0.2148,-0.0072,-0.2251,1.5710,rough,14.0,2,9.469
5390,172.48,0.7390,4.9384,0.2148,-0.0072,-0.2251,1.5710,rough,14.0,2,9.469
5400,172.80,0.7390,4.9384,0.2148,-0.0072,-0.2251,1.5710,rough,14.0,2,9.469
5410,173.12,0.7390,4.9384,0.2148,-0.0072,-0.2251,1.5710,rough,14.0,2,9.469
5420,173.44,0.7390,4.9384,0.2148,-0.0072,-0.2251,1.5710,rough,14.0,2,9.469
5430,173.76,0.7390,4.9384,0.2148,-0.0072,-0.2251,1.5710,rough,14.0,2,9.469
5440,174.08,0.7390,4.9384,0.2148,-0.0072,-0.2251,1.5710,rough,14.0,2,9.469
5450,174.40,0.7390,4.9384,0.2148,-0.0072,-0.2251,1.5710,rough,14.0,2,9.469
5460,174.72,0.7389,4.9384,0.2148,-0.0072,-0.2251,1.5710,rough,14.0,2,9.469
5470,175.04,0.7389,4.9384,0.2148,-0.0072,-0.2251,1.5710,rough,14.0,2,9.469
5480,175.36,0.7389,4.9384,0.2148,-0.0072,-0.2251,1.5710,rough,14.0,2,9.469
5490,175.68,0.7389,4.9384,0.2148,-0.0072,-0.2251,1.5710,rough,14.0,2,9.469
5500,176.00,0.7389,4.9384,0.2148,-0.0072,-0.2251,1.5710,rough,14.0,2,9.469
5510,176.32,0.7389,4.9384,0.2148,-0.0072,-0.2251,1.5710,rough,14.0,2,9.469
5520,176.64,0.7389,4.9384,0.2148,-0.0072,-0.2251,1.5710,rough,14.0,2,9.469
5530,176.96,0.7389,4.9384,0.2148,-0.0072,-0.2251,1.5710,rough,14.0,2,9.469
5540,177.28,0.7389,4.9384,0.2148,-0.0072,-0.2251,1.5710,rough,14.0,2,9.469
5550,177.60,0.7388,4.9384,0.2148,-0.0072,-0.2251,1.5710,rough,14.0,2,9.469
5560,177.92,0.7388,4.9384,0.2148,-0.0072,-0.2251,1.5710,rough,14.0,2,9.469
5570,178.24,0.7388,4.9384,0.2148,-0.0072,-0.2251,1.5710,rough,14.0,2,9.469
5580,178.56,0.7388,4.9384,0.2148,-0.0072,-0.2251,1.5710,rough,14.0,2,9.469
5590,178.88,0.7388,4.9384,0.2148,-0.0072,-0.2251,1.5710,rough,14.0,2,9.469
5600,179.20,0.7388,4.9384,0.2148,-0.0072,-0.2251,1.5710,rough,14.0,2,9.469
5610,179.52,0.7388,4.9384,0.2148,-0.0072,-0.2251,1.5710,rough,14.0,2,9.469
5620,179.84,0.7388,4.9384,0.2148,-0.0072,-0.2251,1.5710,rough,14.0,2,9.469
5630,180.16,0.7388,4.9384,0.2148,-0.0072,-0.2251,1.5710,rough,14.0,2,9.469
5640,180.48,0.7387,4.9384,0.2148,-0.0072,-0.2251,1.5710,rough,14.0,2,9.469
5650,180.80,0.7387,4.9384,0.2148,-0.0072,-0.2251,1.5710,rough,14.0,2,9.469
5660,181.12,0.7387,4.9384,0.2148,-0.0072,-0.2251,1.5710,rough,14.0,2,9.469
5670,181.44,0.7387,4.9384,0.2148,-0.0072,-0.2251,1.5710,rough,14.0,2,9.469
5680,181.76,0.7387,4.9384,0.2148,-0.0072,-0.2251,1.5710,rough,14.0,2,9.469
5690,182.08,0.7387,4.9384,0.2148,-0.0072,-0.2251,1.5710,rough,14.0,2,9.469
5700,182.40,0.7387,4.9384,0.2148,-0.0072,-0.2251,1.5710,rough,14.0,2,9.469
5710,182.72,0.7387,4.9384,0.2148,-0.0072,-0.2251,1.5710,rough,14.0,2,9.469
5720,183.04,0.7387,4.9384,0.2148,-0.0072,-0.2251,1.5710,rough,14.0,2,9.469
5730,183.36,0.7386,4.9384,0.2148,-0.0072,-0.2251,1.5710,rough,14.0,2,9.469
5740,183.68,0.7386,4.9384,0.2148,-0.0072,-0.2251,1.5710,rough,14.0,2,9.469
5750,184.00,0.7386,4.9384,0.2148,-0.0072,-0.2251,1.5710,rough,14.0,2,9.469
5760,184.32,0.7386,4.9384,0.2148,-0.0072,-0.2251,1.5710,rough,14.0,2,9.469
5770,184.64,0.7386,4.9384,0.2148,-0.0072,-0.2251,1.5710,rough,14.0,2,9.469
5780,184.96,0.7386,4.9384,0.2148,-0.0072,-0.2251,1.5710,rough,14.0,2,9.469
5790,185.28,0.7386,4.9384,0.2148,-0.0072,-0.2251,1.5710,rough,14.0,2,9.469
5800,185.60,0.7386,4.9384,0.2148,-0.0072,-0.2251,1.5710,rough,14.0,2,9.469
5810,185.92,0.7386,4.9384,0.2148,-0.0072,-0.2250,1.5710,rough,14.0,2,9.469
5820,186.24,0.7385,4.9384,0.2148,-0.0072,-0.2250,1.5710,rough,14.0,2,9.469
5830,186.56,0.7385,4.9384,0.2148,-0.0072,-0.2250,1.5710,rough,14.0,2,9.469
5840,186.88,0.7385,4.9384,0.2148,-0.0072,-0.2250,1.5710,rough,14.0,2,9.469
5850,187.20,0.7385,4.9384,0.2148,-0.0072,-0.2250,1.5710,rough,14.0,2,9.469
5860,187.52,0.7385,4.9384,0.2148,-0.0072,-0.2250,1.5710,rough,14.0,2,9.469
5870,187.84,0.7385,4.9384,0.2148,-0.0072,-0.2250,1.5710,rough,14.0,2,9.469
5880,188.16,0.7385,4.9384,0.2148,-0.0072,-0.2250,1.5710,rough,14.0,2,9.469
5890,188.48,0.7385,4.9384,0.2148,-0.0072,-0.2250,1.5710,rough,14.0,2,9.469
5900,188.80,0.7385,4.9384,0.2148,-0.0072,-0.2250,1.5710,rough,14.0,2,9.469
5910,189.12,0.7384,4.9384,0.2148,-0.0072,-0.2250,1.5710,rough,14.0,2,9.469
5920,189.44,0.7384,4.9384,0.2148,-0.0072,-0.2250,1.5710,rough,14.0,2,9.469
5930,189.76,0.7384,4.9384,0.2148,-0.0072,-0.2250,1.5710,rough,14.0,2,9.470
5940,190.08,0.7384,4.9384,0.2148,-0.0072,-0.2250,1.5710,rough,14.0,2,9.470
5950,190.40,0.7384,4.9384,0.2148,-0.0072,-0.2250,1.5710,rough,14.0,2,9.470
5960,190.72,0.7384,4.9384,0.2148,-0.0072,-0.2250,1.5710,rough,14.0,2,9.470
5970,191.04,0.7384,4.9384,0.2148,-0.0072,-0.2250,1.5710,rough,14.0,2,9.470
5980,191.36,0.7384,4.9384,0.2148,-0.0072,-0.2250,1.5710,rough,14.0,2,9.470
5990,191.68,0.7384,4.9384,0.2148,-0.0072,-0.2250,1.5710,rough,14.0,2,9.470
6000,192.00,0.7384,4.9384,0.2148,-0.0072,-0.2250,1.5710,rough,14.0,2,9.470
6010,192.32,0.7383,4.9384,0.2148,-0.0072,-0.2250,1.5710,rough,14.0,2,9.470
6020,192.64,0.7383,4.9384,0.2148,-0.0072,-0.2250,1.5710,rough,14.0,2,9.470
6030,192.96,0.7383,4.9384,0.2148,-0.0072,-0.2250,1.5710,rough,14.0,2,9.470
6040,193.28,0.7383,4.9384,0.2148,-0.0072,-0.2250,1.5710,rough,14.0,2,9.470
6050,193.60,0.7383,4.9384,0.2148,-0.0072,-0.2250,1.5710,rough,14.0,2,9.470
6060,193.92,0.7383,4.9384,0.2148,-0.0072,-0.2250,1.5710,rough,14.0,2,9.470
6070,194.24,0.7383,4.9384,0.2148,-0.0072,-0.2250,1.5710,rough,14.0,2,9.470
6080,194.56,0.7383,4.9384,0.2148,-0.0072,-0.2250,1.5710,rough,14.0,2,9.470
6090,194.88,0.7383,4.9384,0.2148,-0.0072,-0.2250,1.5710,rough,14.0,2,9.470
6100,195.20,0.7382,4.9384,0.2148,-0.0072,-0.2250,1.5710,rough,14.0,2,9.470
6110,195.52,0.7382,4.9384,0.2148,-0.0072,-0.2250,1.5710,rough,14.0,2,9.470
6120,195.84,0.7382,4.9384,0.2148,-0.0072,-0.2250,1.5710,rough,14.0,2,9.470
6130,196.16,0.7382,4.9384,0.2148,-0.0072,-0.2250,1.5710,rough,14.0,2,9.470
6140,196.48,0.7382,4.9384,0.2148,-0.0072,-0.2250,1.5710,rough,14.0,2,9.470
6150,196.80,0.7382,4.9384,0.2148,-0.0072,-0.2250,1.5710,rough,14.0,2,9.470
6160,197.12,0.7382,4.9384,0.2148,-0.0072,-0.2250,1.5710,rough,14.0,2,9.470
6170,197.44,0.7382,4.9384,0.2148,-0.0072,-0.2250,1.5710,rough,14.0,2,9.470
6180,197.76,0.7382,4.9384,0.2148,-0.0072,-0.2250,1.5710,rough,14.0,2,9.470
6190,198.08,0.7381,4.9384,0.2148,-0.0072,-0.2250,1.5710,rough,14.0,2,9.470
6200,198.40,0.7381,4.9384,0.2148,-0.0072,-0.2250,1.5710,rough,14.0,2,9.470
6210,198.72,0.7381,4.9384,0.2148,-0.0072,-0.2250,1.5710,rough,14.0,2,9.470
6220,199.04,0.7381,4.9384,0.2148,-0.0072,-0.2250,1.5710,rough,14.0,2,9.470
6230,199.36,0.7381,4.9384,0.2148,-0.0072,-0.2250,1.5710,rough,14.0,2,9.470
6240,199.68,0.7381,4.9384,0.2148,-0.0072,-0.2250,1.5710,rough,14.0,2,9.470
6250,200.00,0.7381,4.9384,0.2148,-0.0072,-0.2250,1.5710,rough,14.0,2,9.470
6260,200.32,0.7381,4.9384,0.2148,-0.0072,-0.2250,1.5710,rough,14.0,2,9.470
6270,200.64,0.7381,4.9384,0.2148,-0.0072,-0.2250,1.5710,rough,14.0,2,9.470
6280,200.96,0.7381,4.9384,0.2148,-0.0072,-0.2250,1.5710,rough,14.0,2,9.470
6290,201.28,0.7380,4.9384,0.2148,-0.0072,-0.2250,1.5710,rough,14.0,2,9.470
6300,201.60,0.7380,4.9384,0.2148,-0.0072,-0.2250,1.5710,rough,14.0,2,9.470
6310,201.92,0.7380,4.9384,0.2148,-0.0072,-0.2250,1.5710,rough,14.0,2,9.470
6320,202.24,0.7380,4.9384,0.2148,-0.0072,-0.2250,1.5710,rough,14.0,2,9.470
6330,202.56,0.7380,4.9384,0.2148,-0.0072,-0.2250,1.5710,rough,14.0,2,9.470
6340,202.88,0.7380,4.9384,0.2148,-0.0072,-0.2250,1.5710,rough,14.0,2,9.470
6350,203.20,0.7380,4.9384,0.2148,-0.0072,-0.2250,1.5710,rough,14.0,2,9.470
6360,203.52,0.7380,4.9384,0.2148,-0.0072,-0.2250,1.5710,rough,14.0,2,9.470
6370,203.84,0.7380,4.9384,0.2148,-0.0072,-0.2250,1.5710,rough,14.0,2,9.470
6380,204.16,0.7380,4.9384,0.2148,-0.0072,-0.2250,1.5710,rough,14.0,2,9.470
6390,204.48,0.7379,4.9384,0.2148,-0.0072,-0.2250,1.5710,rough,14.0,2,9.470
6400,204.80,0.7379,4.9384,0.2148,-0.0072,-0.2250,1.5710,rough,14.0,2,9.470
6410,205.12,0.7379,4.9384,0.2148,-0.0072,-0.2249,1.5710,rough,14.0,2,9.470
6420,205.44,0.7379,4.9384,0.2148,-0.0072,-0.2249,1.5710,rough,14.0,2,9.470
6430,205.76,0.7379,4.9384,0.2148,-0.0072,-0.2249,1.5710,rough,14.0,2,9.470
6440,206.08,0.7379,4.9384,0.2148,-0.0072,-0.2249,1.5710,rough,14.0,2,9.470
6450,206.40,0.7379,4.9384,0.2148,-0.0072,-0.2249,1.5710,rough,14.0,2,9.470
6460,206.72,0.7379,4.9384,0.2148,-0.0072,-0.2249,1.5710,rough,14.0,2,9.470
6470,207.04,0.7379,4.9384,0.2148,-0.0072,-0.2249,1.5710,rough,14.0,2,9.470
6480,207.36,0.7378,4.9384,0.2148,-0.0072,-0.2249,1.5710,rough,14.0,2,9.470
6490,207.68,0.7378,4.9384,0.2148,-0.0072,-0.2249,1.5710,rough,14.0,2,9.470
6500,208.00,0.7378,4.9384,0.2148,-0.0072,-0.2249,1.5710,rough,14.0,2,9.470
6510,208.32,0.7378,4.9384,0.2148,-0.0072,-0.2249,1.5710,rough,14.0,2,9.470
6520,208.64,0.7378,4.9384,0.2148,-0.0072,-0.2249,1.5710,rough,14.0,2,9.470
6530,208.96,0.7378,4.9384,0.2148,-0.0072,-0.2249,1.5710,rough,14.0,2,9.470
6540,209.28,0.7378,4.9384,0.2148,-0.0072,-0.2249,1.5710,rough,14.0,2,9.470
6550,209.60,0.7378,4.9384,0.2148,-0.0072,-0.2249,1.5710,rough,14.0,2,9.470
6560,209.92,0.7378,4.9384,0.2148,-0.0072,-0.2249,1.5710,rough,14.0,2,9.470
6570,210.24,0.7378,4.9384,0.2148,-0.0072,-0.2249,1.5710,rough,14.0,2,9.470
6580,210.56,0.7377,4.9384,0.2148,-0.0072,-0.2249,1.5710,rough,14.0,2,9.470
6590,210.88,0.7377,4.9384,0.2148,-0.0072,-0.2249,1.5710,rough,14.0,2,9.470
6600,211.20,0.7377,4.9384,0.2148,-0.0072,-0.2249,1.5710,rough,14.0,2,9.470
6610,211.52,0.7377,4.9384,0.2148,-0.0072,-0.2249,1.5710,rough,14.0,2,9.470
6620,211.84,0.7377,4.9384,0.2148,-0.0072,-0.2249,1.5710,rough,14.0,2,9.470
6630,212.16,0.7377,4.9384,0.2148,-0.0072,-0.2249,1.5710,rough,14.0,2,9.470
6640,212.48,0.7377,4.9384,0.2148,-0.0072,-0.2249,1.5710,rough,14.0,2,9.470
6650,212.80,0.7377,4.9384,0.2148,-0.0072,-0.2249,1.5710,rough,14.0,2,9.470
6660,213.12,0.7377,4.9384,0.2148,-0.0072,-0.2249,1.5710,rough,14.0,2,9.470
6670,213.44,0.7377,4.9384,0.2148,-0.0072,-0.2249,1.5710,rough,14.0,2,9.470
6680,213.76,0.7376,4.9384,0.2148,-0.0072,-0.2249,1.5710,rough,14.0,2,9.470
6690,214.08,0.7376,4.9384,0.2148,-0.0072,-0.2249,1.5710,rough,14.0,2,9.470
6700,214.40,0.7376,4.9384,0.2148,-0.0072,-0.2249,1.5710,rough,14.0,2,9.470
6710,214.72,0.7376,4.9384,0.2148,-0.0072,-0.2249,1.5710,rough,14.0,2,9.470
6720,215.04,0.7376,4.9384,0.2148,-0.0072,-0.2249,1.5710,rough,14.0,2,9.470
6730,215.36,0.7376,4.9384,0.2148,-0.0072,-0.2249,1.5710,rough,14.0,2,9.470
6740,215.68,0.7376,4.9384,0.2148,-0.0072,-0.2249,1.5710,rough,14.0,2,9.470
6750,216.00,0.7376,4.9384,0.2148,-0.0072,-0.2249,1.5710,rough,14.0,2,9.470
6760,216.32,0.7376,4.9384,0.2148,-0.0072,-0.2249,1.5710,rough,14.0,2,9.470
6770,216.64,0.7376,4.9384,0.2148,-0.0072,-0.2249,1.5710,rough,14.0,2,9.470
6780,216.96,0.7375,4.9384,0.2148,-0.0072,-0.2249,1.5710,rough,14.0,2,9.470
6790,217.28,0.7375,4.9384,0.2148,-0.0072,-0.2249,1.5710,rough,14.0,2,9.470
6800,217.60,0.7375,4.9384,0.2148,-0.0072,-0.2249,1.5710,rough,14.0,2,9.470
6810,217.92,0.7375,4.9384,0.2148,-0.0072,-0.2249,1.5710,rough,14.0,2,9.470
6820,218.24,0.7375,4.9384,0.2148,-0.0072,-0.2249,1.5710,rough,14.0,2,9.470
6830,218.56,0.7375,4.9384,0.2148,-0.0072,-0.2249,1.5710,rough,14.0,2,9.470
6840,218.88,0.7375,4.9384,0.2147,-0.0072,-0.2249,1.5710,rough,14.0,2,9.470
6850,219.20,0.7375,4.9384,0.2147,-0.0072,-0.2249,1.5710,rough,14.0,2,9.470
6860,219.52,0.7375,4.9384,0.2147,-0.0072,-0.2249,1.5710,rough,14.0,2,9.470
6870,219.84,0.7375,4.9384,0.2147,-0.0072,-0.2249,1.5710,rough,14.0,2,9.470
6880,220.16,0.7374,4.9384,0.2147,-0.0072,-0.2249,1.5710,rough,14.0,2,9.470
6890,220.48,0.7374,4.9384,0.2147,-0.0072,-0.2249,1.5710,rough,14.0,2,9.470
6900,220.80,0.7374,4.9384,0.2147,-0.0072,-0.2249,1.5710,rough,14.0,2,9.470
6910,221.12,0.7374,4.9384,0.2147,-0.0072,-0.2249,1.5710,rough,14.0,2,9.470
6920,221.44,0.7374,4.9384,0.2147,-0.0072,-0.2249,1.5710,rough,14.0,2,9.470
6930,221.76,0.7374,4.9384,0.2147,-0.0072,-0.2249,1.5710,rough,14.0,2,9.470
6940,222.08,0.7374,4.9384,0.2147,-0.0072,-0.2249,1.5710,rough,14.0,2,9.470
6950,222.40,0.7374,4.9384,0.2147,-0.0072,-0.2249,1.5710,rough,14.0,2,9.470
6960,222.72,0.7374,4.9384,0.2147,-0.0072,-0.2249,1.5710,rough,14.0,2,9.470
6970,223.04,0.7374,4.9384,0.2147,-0.0072,-0.2249,1.5710,rough,14.0,2,9.470
6980,223.36,0.7374,4.9384,0.2147,-0.0072,-0.2249,1.5710,rough,14.0,2,9.470
6990,223.68,0.7373,4.9384,0.2147,-0.0072,-0.2249,1.5710,rough,14.0,2,9.470
7000,224.00,0.7373,4.9384,0.2147,-0.0072,-0.2249,1.5710,rough,14.0,2,9.470
7010,224.32,0.7373,4.9384,0.2147,-0.0072,-0.2249,1.5710,rough,14.0,2,9.470
7020,224.64,0.7373,4.9384,0.2147,-0.0072,-0.2249,1.5710,rough,14.0,2,9.470
7030,224.96,0.7373,4.9384,0.2147,-0.0072,-0.2249,1.5710,rough,14.0,2,9.470
7040,225.28,0.7373,4.9384,0.2147,-0.0072,-0.2249,1.5710,rough,14.0,2,9.470
7050,225.60,0.7373,4.9384,0.2147,-0.0072,-0.2248,1.5710,rough,14.0,2,9.470
7060,225.92,0.7373,4.9384,0.2147,-0.0072,-0.2248,1.5710,rough,14.0,2,9.470
7070,226.24,0.7373,4.9384,0.2147,-0.0072,-0.2248,1.5710,rough,14.0,2,9.470
7080,226.56,0.7373,4.9384,0.2147,-0.0072,-0.2248,1.5710,rough,14.0,2,9.470
7090,226.88,0.7372,4.9384,0.2147,-0.0072,-0.2248,1.5710,rough,14.0,2,9.470
7100,227.20,0.7372,4.9384,0.2147,-0.0072,-0.2248,1.5710,rough,14.0,2,9.470
7110,227.52,0.7372,4.9384,0.2147,-0.0072,-0.2248,1.5710,rough,14.0,2,9.470
7120,227.84,0.7372,4.9384,0.2147,-0.0072,-0.2248,1.5710,rough,14.0,2,9.470
7130,228.16,0.7372,4.9384,0.2147,-0.0072,-0.2248,1.5710,rough,14.0,2,9.471
7140,228.48,0.7372,4.9384,0.2147,-0.0072,-0.2248,1.5710,rough,14.0,2,9.471
7150,228.80,0.7372,4.9384,0.2147,-0.0072,-0.2248,1.5710,rough,14.0,2,9.471
7160,229.12,0.7372,4.9384,0.2147,-0.0072,-0.2248,1.5710,rough,14.0,2,9.471
7170,229.44,0.7372,4.9384,0.2147,-0.0072,-0.2248,1.5710,rough,14.0,2,9.471
7180,229.76,0.7372,4.9384,0.2147,-0.0072,-0.2248,1.5710,rough,14.0,2,9.471
7190,230.08,0.7372,4.9384,0.2147,-0.0072,-0.2248,1.5710,rough,14.0,2,9.471
7200,230.40,0.7371,4.9384,0.2147,-0.0072,-0.2248,1.5710,rough,14.0,2,9.471
7210,230.72,0.7371,4.9384,0.2147,-0.0072,-0.2248,1.5710,rough,14.0,2,9.471
7220,231.04,0.7371,4.9384,0.2147,-0.0072,-0.2248,1.5710,rough,14.0,2,9.471
7230,231.36,0.7371,4.9384,0.2147,-0.0072,-0.2248,1.5710,rough,14.0,2,9.471
7240,231.68,0.7371,4.9384,0.2147,-0.0072,-0.2248,1.5710,rough,14.0,2,9.471
7250,232.00,0.7371,4.9384,0.2147,-0.0072,-0.2248,1.5710,rough,14.0,2,9.471
7260,232.32,0.7371,4.9384,0.2147,-0.0072,-0.2248,1.5710,rough,14.0,2,9.471
7270,232.64,0.7371,4.9384,0.2147,-0.0072,-0.2248,1.5710,rough,14.0,2,9.471
7280,232.96,0.7371,4.9384,0.2147,-0.0072,-0.2248,1.5710,rough,14.0,2,9.471
7290,233.28,0.7371,4.9384,0.2147,-0.0072,-0.2248,1.5710,rough,14.0,2,9.471
7300,233.60,0.7370,4.9384,0.2147,-0.0072,-0.2248,1.5710,rough,14.0,2,9.471
7310,233.92,0.7370,4.9384,0.2147,-0.0072,-0.2248,1.5710,rough,14.0,2,9.471
7320,234.24,0.7370,4.9384,0.2147,-0.0072,-0.2248,1.5710,rough,14.0,2,9.471
7330,234.56,0.7370,4.9384,0.2147,-0.0072,-0.2248,1.5710,rough,14.0,2,9.471
7340,234.88,0.7370,4.9384,0.2147,-0.0072,-0.2248,1.5710,rough,14.0,2,9.471
7350,235.20,0.7370,4.9384,0.2147,-0.0072,-0.2248,1.5710,rough,14.0,2,9.471
7360,235.52,0.7370,4.9384,0.2147,-0.0072,-0.2248,1.5710,rough,14.0,2,9.471
7370,235.84,0.7370,4.9384,0.2147,-0.0072,-0.2248,1.5710,rough,14.0,2,9.471
7380,236.16,0.7370,4.9384,0.2147,-0.0072,-0.2248,1.5710,rough,14.0,2,9.471
7390,236.48,0.7370,4.9384,0.2147,-0.0072,-0.2248,1.5710,rough,14.0,2,9.471
7400,236.80,0.7370,4.9384,0.2147,-0.0072,-0.2248,1.5710,rough,14.0,2,9.471
7410,237.12,0.7369,4.9384,0.2147,-0.0072,-0.2248,1.5710,rough,14.0,2,9.471
7420,237.44,0.7369,4.9384,0.2147,-0.0072,-0.2248,1.5710,rough,14.0,2,9.471
7430,237.76,0.7369,4.9384,0.2147,-0.0072,-0.2248,1.5710,rough,14.0,2,9.471
7440,238.08,0.7369,4.9384,0.2147,-0.0072,-0.2248,1.5710,rough,14.0,2,9.471
7450,238.40,0.7369,4.9384,0.2147,-0.0072,-0.2248,1.5710,rough,14.0,2,9.471
7460,238.72,0.7369,4.9384,0.2147,-0.0072,-0.2248,1.5710,rough,14.0,2,9.471
7470,239.04,0.7369,4.9384,0.2147,-0.0072,-0.2248,1.5710,rough,14.0,2,9.471
7480,239.36,0.7369,4.9384,0.2147,-0.0072,-0.2248,1.5710,rough,14.0,2,9.471
7490,239.68,0.7369,4.9384,0.2147,-0.0072,-0.2248,1.5710,rough,14.0,2,9.471
7500,240.00,0.7369,4.9384,0.2147,-0.0072,-0.2248,1.5710,rough,14.0,2,9.471
7510,240.32,0.7369,4.9384,0.2147,-0.0072,-0.2248,1.5710,rough,14.0,2,9.471
7520,240.64,0.7368,4.9384,0.2147,-0.0072,-0.2248,1.5710,rough,14.0,2,9.471
7530,240.96,0.7368,4.9384,0.2147,-0.0072,-0.2248,1.5710,rough,14.0,2,9.471
7540,241.28,0.7368,4.9384,0.2147,-0.0072,-0.2248,1.5710,rough,14.0,2,9.471
7550,241.60,0.7368,4.9384,0.2147,-0.0072,-0.2248,1.5710,rough,14.0,2,9.471
7560,241.92,0.7368,4.9384,0.2147,-0.0072,-0.2248,1.5710,rough,14.0,2,9.471
7570,242.24,0.7368,4.9384,0.2147,-0.0072,-0.2248,1.5710,rough,14.0,2,9.471
7580,242.56,0.7368,4.9384,0.2147,-0.0072,-0.2248,1.5710,rough,14.0,2,9.471
7590,242.88,0.7368,4.9384,0.2147,-0.0072,-0.2248,1.5710,rough,14.0,2,9.471
7600,243.20,0.7368,4.9384,0.2147,-0.0072,-0.2248,1.5710,rough,14.0,2,9.471
7610,243.52,0.7368,4.9384,0.2147,-0.0072,-0.2248,1.5710,rough,14.0,2,9.471
7620,243.84,0.7368,4.9384,0.2147,-0.0072,-0.2248,1.5710,rough,14.0,2,9.471
7630,244.16,0.7367,4.9384,0.2147,-0.0072,-0.2248,1.5710,rough,14.0,2,9.471
7640,244.48,0.7367,4.9384,0.2147,-0.0072,-0.2248,1.5710,rough,14.0,2,9.471
7650,244.80,0.7367,4.9384,0.2147,-0.0072,-0.2248,1.5710,rough,14.0,2,9.471
7660,245.12,0.7367,4.9384,0.2147,-0.0072,-0.2248,1.5710,rough,14.0,2,9.471
7670,245.44,0.7367,4.9384,0.2147,-0.0072,-0.2248,1.5710,rough,14.0,2,9.471
7680,245.76,0.7367,4.9384,0.2147,-0.0072,-0.2248,1.5710,rough,14.0,2,9.471
7690,246.08,0.7367,4.9384,0.2147,-0.0072,-0.2248,1.5710,rough,14.0,2,9.471
7700,246.40,0.7367,4.9384,0.2147,-0.0072,-0.2248,1.5710,rough,14.0,2,9.471
7710,246.72,0.7367,4.9384,0.2147,-0.0072,-0.2248,1.5710,rough,14.0,2,9.471
7720,247.04,0.7367,4.9384,0.2147,-0.0072,-0.2248,1.5710,rough,14.0,2,9.471
7730,247.36,0.7367,4.9384,0.2147,-0.0072,-0.2248,1.5710,rough,14.0,2,9.471
7740,247.68,0.7366,4.9384,0.2147,-0.0072,-0.2247,1.5710,rough,14.0,2,9.471
7750,248.00,0.7366,4.9384,0.2147,-0.0072,-0.2247,1.5710,rough,14.0,2,9.471
7760,248.32,0.7366,4.9384,0.2147,-0.0072,-0.2247,1.5710,rough,14.0,2,9.471
7770,248.64,0.7366,4.9384,0.2147,-0.0072,-0.2247,1.5710,rough,14.0,2,9.471
7780,248.96,0.7366,4.9384,0.2147,-0.0072,-0.2247,1.5710,rough,14.0,2,9.471
7790,249.28,0.7366,4.9384,0.2147,-0.0072,-0.2247,1.5710,rough,14.0,2,9.471
7800,249.60,0.7366,4.9384,0.2147,-0.0072,-0.2247,1.5710,rough,14.0,2,9.471
7810,249.92,0.7366,4.9384,0.2147,-0.0072,-0.2247,1.5710,rough,14.0,2,9.471
7820,250.24,0.7366,4.9384,0.2147,-0.0072,-0.2247,1.5710,rough,14.0,2,9.471
7830,250.56,0.7366,4.9384,0.2147,-0.0072,-0.2247,1.5710,rough,14.0,2,9.471
7840,250.88,0.7366,4.9384,0.2147,-0.0072,-0.2247,1.5710,rough,14.0,2,9.471
7850,251.20,0.7365,4.9384,0.2147,-0.0072,-0.2247,1.5710,rough,14.0,2,9.471
7860,251.52,0.7365,4.9384,0.2147,-0.0072,-0.2247,1.5710,rough,14.0,2,9.471
7870,251.84,0.7365,4.9384,0.2147,-0.0072,-0.2247,1.5710,rough,14.0,2,9.471
7880,252.16,0.7365,4.9384,0.2147,-0.0072,-0.2247,1.5710,rough,14.0,2,9.471
7890,252.48,0.7365,4.9384,0.2147,-0.0072,-0.2247,1.5710,rough,14.0,2,9.471
7900,252.80,0.7365,4.9384,0.2147,-0.0072,-0.2247,1.5710,rough,14.0,2,9.471
7910,253.12,0.7365,4.9384,0.2147,-0.0072,-0.2247,1.5710,rough,14.0,2,9.471
7920,253.44,0.7365,4.9384,0.2147,-0.0072,-0.2247,1.5710,rough,14.0,2,9.471
7930,253.76,0.7365,4.9384,0.2147,-0.0072,-0.2247,1.5710,rough,14.0,2,9.471
7940,254.08,0.7365,4.9384,0.2147,-0.0072,-0.2247,1.5710,rough,14.0,2,9.471
7950,254.40,0.7365,4.9384,0.2147,-0.0072,-0.2247,1.5710,rough,14.0,2,9.471
7960,254.72,0.7365,4.9384,0.2147,-0.0072,-0.2247,1.5710,rough,14.0,2,9.471
7970,255.04,0.7364,4.9384,0.2147,-0.0072,-0.2247,1.5710,rough,14.0,2,9.471
7980,255.36,0.7364,4.9384,0.2147,-0.0072,-0.2247,1.5710,rough,14.0,2,9.471
7990,255.68,0.7364,4.9384,0.2147,-0.0071,-0.2247,1.5710,rough,14.0,2,9.471
8000,256.00,0.7364,4.9384,0.2147,-0.0071,-0.2247,1.5710,rough,14.0,2,9.471
8010,256.32,0.7364,4.9384,0.2147,-0.0071,-0.2247,1.5710,rough,14.0,2,9.471
8020,256.64,0.7364,4.9384,0.2147,-0.0071,-0.2247,1.5710,rough,14.0,2,9.471
8030,256.96,0.7364,4.9384,0.2147,-0.0071,-0.2247,1.5710,rough,14.0,2,9.471
8040,257.28,0.7364,4.9384,0.2147,-0.0071,-0.2247,1.5710,rough,14.0,2,9.471
