step,time_s,x,y,z,roll,pitch,yaw,terrain,speed,target_idx,dist_to_target
10,0.32,-0.1505,1.4415,0.2259,0.0402,-0.1091,0.0005,rough,14.0,0,4.151
20,0.64,0.0207,1.4326,0.2429,0.0116,-0.0872,0.1800,rough,14.0,0,4.205
30,0.96,0.2376,1.4802,0.2716,0.0043,-0.1615,0.4261,rough,14.0,0,4.227
40,1.28,0.3944,1.6128,0.3005,-0.0632,-0.1780,0.6278,rough,14.0,0,4.159
50,1.60,0.5777,1.7861,0.3459,-0.1176,-0.1943,0.8629,rough,14.0,0,4.075
60,1.92,0.7100,2.0382,0.3961,-0.1669,-0.1931,1.0832,rough,14.0,0,3.911
70,2.24,0.7986,2.3542,0.4336,-0.2390,-0.1411,1.3011,rough,14.0,0,3.685
80,2.56,0.8250,2.7207,0.4557,-0.2927,-0.0461,1.5017,rough,14.0,0,3.397
90,2.88,0.7959,3.1084,0.4507,-0.3057,0.0299,1.6976,rough,14.0,0,3.073
100,3.20,0.6822,3.5026,0.4121,-0.2946,0.1096,1.8754,rough,14.0,0,2.703
110,3.52,0.5297,3.8972,0.3502,-0.2795,0.1713,1.9900,rough,14.0,0,2.318
120,3.84,0.3480,4.2647,0.2783,-0.2677,0.1699,2.0422,rough,14.0,0,1.941
130,4.16,0.1385,4.6179,0.2095,-0.1806,0.1497,2.1605,rough,14.0,0,1.566
140,4.48,-0.1007,4.9510,0.1419,-0.0641,0.1476,2.2791,rough,14.0,0,1.194
150,4.80,-0.3794,5.2408,0.1055,0.0312,0.0948,2.4158,rough,14.0,0,0.830
160,5.12,-0.6776,5.5132,0.0879,0.0377,0.0177,2.3393,rough,14.0,1,1.888
170,5.44,-0.9585,5.8289,0.0816,0.0334,0.0129,2.2551,rough,14.0,1,1.542
180,5.76,-1.2072,6.1659,0.0774,0.0319,0.0086,2.1485,rough,14.0,1,1.219
190,6.08,-1.4123,6.5222,0.0751,0.0316,0.0037,2.0132,rough,14.0,1,0.934
200,6.40,-1.5429,6.8767,0.0739,0.0308,0.0035,1.7959,rough,14.0,2,8.195
210,6.72,-1.5822,7.1709,0.0725,0.0288,0.0100,1.4530,rough,14.0,2,8.363
220,7.04,-1.5389,7.4435,0.0707,0.0275,0.0103,1.1949,rough,14.0,2,8.455
230,7.36,-1.4267,7.6823,0.0676,0.0252,0.0151,0.9222,rough,14.0,2,8.478
240,7.68,-1.2491,7.8858,0.0637,0.0228,0.0161,0.6869,rough,14.0,2,8.436
250,8.00,-1.0010,8.0765,0.0592,0.0207,0.0166,0.4408,rough,14.0,2,8.337
260,8.32,-0.6853,8.1965,0.0539,0.0187,0.0143,0.2683,rough,14.0,2,8.152
270,8.64,-0.3468,8.2825,0.0508,0.0212,-0.0005,0.0292,rough,14.0,2,7.938
280,8.96,-0.0145,8.2733,0.0895,0.0430,-0.1660,-0.1236,rough,14.0,2,7.676
290,9.28,0.2966,8.2199,0.1668,0.0521,-0.3295,-0.2058,rough,14.0,2,7.406
300,9.60,0.6136,8.1323,0.2718,0.1025,-0.3306,-0.2666,rough,14.0,2,7.113
310,9.92,0.9379,8.0224,0.3881,0.1340,-0.3271,-0.3602,rough,14.0,2,6.802
320,10.24,1.2835,7.8730,0.5135,0.1776,-0.3117,-0.5043,rough,14.0,2,6.451
330,10.56,1.6133,7.6828,0.6346,0.2081,-0.2934,-0.6225,rough,14.0,2,6.085
340,10.88,1.9169,7.4370,0.7483,0.2369,-0.2796,-0.7212,rough,14.0,2,5.697
350,11.20,2.2089,7.1669,0.8596,0.2559,-0.2629,-0.8090,rough,14.0,2,5.300
360,11.52,2.4698,6.8638,0.9632,0.2770,-0.2505,-0.8888,rough,14.0,2,4.901
370,11.84,2.7125,6.5442,1.0613,0.2890,-0.2320,-0.9638,rough,14.0,2,4.502
380,12.16,2.9330,6.2005,1.1536,0.3039,-0.2170,-1.0310,rough,14.0,2,4.102
390,12.48,3.1313,5.8489,1.2390,0.3146,-0.1994,-1.0961,rough,14.0,2,3.714
400,12.80,3.3142,5.4859,1.3188,0.3058,-0.2110,-1.0541,rough,14.0,2,3.335
410,13.12,3.5203,5.1178,1.4097,0.3024,-0.2145,-1.0502,rough,14.0,2,2.941
420,13.44,3.7337,4.7489,1.5005,0.2857,-0.2203,-1.0209,rough,14.0,2,2.550
430,13.76,3.9535,4.3944,1.5960,0.2795,-0.2373,-0.9542,rough,14.0,2,2.173
440,14.08,4.1957,4.0612,1.6965,0.2638,-0.2524,-0.8873,rough,14.0,2,1.803
450,14.40,4.4598,3.7493,1.8029,0.2505,-0.2716,-0.8145,rough,14.0,2,1.441
460,14.72,4.7490,3.4652,1.9160,0.2213,-0.2823,-0.7220,rough,14.0,2,1.092
470,15.04,5.0426,3.2180,2.0275,0.1850,-0.3028,-0.5968,rough,14.0,3,0.788
480,15.36,5.3737,2.9789,2.1478,0.1811,-0.2829,-0.6159,rough,14.0,3,2.802
490,15.68,5.7174,2.7344,2.2752,0.1868,-0.2873,-0.6013,rough,14.0,3,2.389
500,16.00,6.0663,2.4974,2.3982,0.1813,-0.2799,-0.5795,rough,14.0,3,1.978
510,16.32,6.4166,2.2684,2.5185,0.1726,-0.2793,-0.5562,rough,14.0,3,1.572
520,16.64,6.7711,2.0505,2.6389,0.1687,-0.2787,-0.5234,rough,14.0,3,1.174
530,16.96,7.1263,1.8468,2.7577,0.1607,-0.2881,-0.4729,rough,14.0,0,0.795
540,17.28,7.2661,1.7636,2.8041,0.2698,-0.1907,-0.9585,rough,14.0,0,9.220
550,17.60,7.3487,1.5330,2.8278,0.3158,-0.0719,-1.3090,rough,14.0,0,9.390
560,17.92,7.3096,1.2907,2.8115,0.3171,0.0559,-1.7023,rough,14.0,0,9.459
570,18.24,7.1944,1.0475,2.7704,0.2833,0.1471,-2.0078,rough,14.0,0,9.467
580,18.56,7.0297,0.7985,2.7142,0.2482,0.2012,-2.2150,rough,14.0,0,9.442
590,18.88,6.8137,0.5433,2.6419,0.2083,0.2392,-2.3993,rough,14.0,0,9.386
600,19.20,6.5305,0.3233,2.5488,0.1652,0.2709,-2.5765,rough,14.0,0,9.266
610,19.52,6.2096,0.1299,2.4435,0.1181,0.2983,-2.7565,rough,14.0,0,9.113
620,19.84,5.8490,-0.0072,2.3242,0.0692,0.3164,-2.9305,rough,14.0,0,8.906
630,20.16,5.4411,-0.0731,2.1849,0.0481,0.3280,-2.9920,rough,14.0,0,8.630
640,20.48,5.0227,-0.1251,2.0354,0.0459,0.3380,-3.0149,rough,14.0,0,8.348
650,20.80,4.6004,-0.1679,1.8781,0.0418,0.3796,-3.0342,rough,14.0,0,8.069
660,21.12,4.1821,-0.2017,1.7098,0.0481,0.4019,-3.0480,rough,14.0,0,7.800
670,21.44,3.7681,-0.2371,1.5261,0.0252,0.4244,-3.0676,rough,14.0,0,7.548
680,21.76,3.3588,-0.2560,1.3389,0.0405,0.4443,-3.0836,rough,14.0,0,7.301
690,22.08,2.9494,-0.2762,1.1375,0.0448,0.4626,-3.0774,rough,14.0,0,7.070
700,22.40,2.5501,-0.2946,0.9425,0.0668,0.4549,-3.0618,rough,14.0,0,6.860
710,22.72,2.1539,-0.3256,0.7521,0.0718,0.4210,-3.0358,rough,14.0,0,6.680
720,23.04,1.7678,-0.3490,0.5850,0.0906,0.3867,-3.0420,rough,14.0,0,6.516
730,23.36,1.3960,-0.3691,0.4526,0.0667,0.3260,-3.0812,rough,14.0,0,6.375
740,23.68,1.0295,-0.3808,0.3505,0.0493,0.2282,-3.1262,rough,14.0,0,6.247
750,24.00,0.6608,-0.3777,0.2782,0.0264,0.1534,3.0936,rough,14.0,0,6.123
760,24.32,0.3462,-0.3523,0.2385,-0.0064,0.0993,2.8577,rough,14.0,0,6.012
770,24.64,0.0234,-0.2370,0.2083,0.0206,0.0399,2.6964,rough,14.0,0,5.825
780,24.96,-0.2884,-0.0762,0.2076,-0.0128,-0.0081,2.5603,rough,14.0,0,5.610
790,25.28,-0.5891,0.1458,0.2057,0.0170,-0.0103,2.3945,rough,14.0,0,5.350
800,25.60,-0.8485,0.4175,0.2131,0.0079,-0.0169,2.2249,rough,14.0,0,5.056
810,25.92,-1.0938,0.7409,0.2197,0.0055,-0.0134,2.1643,rough,14.0,0,4.722
820,26.24,-1.3148,1.1030,0.2230,0.0038,0.0040,2.0768,rough,14.0,0,4.362
830,26.56,-1.5036,1.4836,0.2256,0.0021,-0.0062,2.0017,rough,14.0,0,3.992
840,26.88,-1.6711,1.8814,0.2241,0.0006,0.0120,1.9197,rough,14.0,0,3.615
850,27.20,-1.8083,2.2908,0.2168,-0.0010,0.0177,1.8346,rough,14.0,0,3.234
860,27.52,-1.9118,2.7119,0.2071,-0.0019,0.0251,1.7533,rough,14.0,0,2.846
870,27.84,-1.9746,3.1355,0.1937,-0.0042,0.0316,1.6580,rough,14.0,0,2.459
880,28.16,-2.0018,3.5619,0.1770,0.0088,0.0266,1.5532,rough,14.0,0,2.071
890,28.48,-1.9897,3.9921,0.1643,-0.0006,0.0357,1.4555,rough,14.0,0,1.679
900,28.80,-1.9351,4.4293,0.1477,0.0043,0.0376,1.4201,rough,14.0,0,1.280
910,29.12,-1.8671,4.8601,0.1314,0.0070,0.0375,1.3617,rough,14.0,0,0.914
920,29.44,-1.7763,5.2819,0.1157,0.0136,0.0372,1.3391,rough,14.0,1,2.221
930,29.76,-1.6730,5.7162,0.1002,0.0168,0.0327,1.3369,rough,14.0,1,1.778
940,30.08,-1.5687,6.1500,0.0867,0.0201,0.0291,1.3340,rough,14.0,1,1.338
950,30.40,-1.4629,6.5816,0.0755,0.0230,0.0217,1.3274,rough,14.0,1,0.905
960,30.72,-1.3758,6.9259,0.0685,0.0227,0.0199,1.1464,rough,14.0,2,8.067
970,31.04,-1.2600,7.1425,0.0633,0.0153,0.0212,0.8492,rough,14.0,2,8.065
980,31.36,-1.0538,7.3417,0.0576,0.0105,0.0202,0.6145,rough,14.0,2,7.983
990,31.68,-0.7784,7.5185,0.0506,0.0099,0.0208,0.4081,rough,14.0,2,7.841
1000,32.00,-0.4510,7.6366,0.0441,0.0064,0.0176,0.2278,rough,14.0,2,7.634
1010,32.32,-0.1517,7.7063,0.0630,0.0027,-0.1502,0.0079,rough,14.0,2,7.431
1020,32.64,0.1854,7.6933,0.1304,0.0318,-0.2516,-0.1581,rough,14.0,2,7.154
1030,32.96,0.4737,7.6271,0.2144,0.0806,-0.3485,-0.2292,rough,14.0,2,6.888
1040,33.28,0.7785,7.5333,0.3263,0.1061,-0.3349,-0.3113,rough,14.0,2,6.593
1050,33.60,1.1116,7.4071,0.4479,0.1614,-0.3128,-0.4854,rough,14.0,2,6.258
1060,33.92,1.4270,7.2235,0.5655,0.2020,-0.2984,-0.6255,rough,14.0,2,5.900
1070,34.24,1.7152,6.9870,0.6745,0.2331,-0.2732,-0.7512,rough,14.0,2,5.527
1080,34.56,1.9847,6.7145,0.7804,0.2647,-0.2516,-0.8739,rough,14.0,2,5.145
1090,34.88,2.2131,6.3983,0.8695,0.2884,-0.2033,-0.9840,rough,14.0,2,4.764
1100,35.20,2.4117,6.0545,0.9568,0.2938,-0.2220,-1.0117,rough,14.0,2,4.392
1110,35.52,2.6417,5.6973,1.0549,0.2833,-0.2340,-0.9800,rough,14.0,2,3.991
1120,35.84,2.8605,5.4140,1.1457,0.2878,-0.2192,-0.9945,rough,14.0,2,3.647
1130,36.16,3.0895,5.0852,1.2457,0.2736,-0.2472,-0.9589,rough,14.0,2,3.272
1140,36.48,3.3305,4.7442,1.3476,0.2625,-0.2531,-0.9085,rough,14.0,2,2.887
1150,36.80,3.5897,4.4194,1.4570,0.2543,-0.2640,-0.8554,rough,14.0,2,2.505
1160,37.12,3.8656,4.1149,1.5656,0.2142,-0.2765,-0.7989,rough,14.0,2,2.127
1170,37.44,4.1461,3.8229,1.6829,0.2245,-0.2845,-0.7383,rough,14.0,2,1.762
1180,37.76,4.4551,3.5600,1.7996,0.1778,-0.2920,-0.6654,rough,14.0,2,1.398
1190,38.08,4.7583,3.3205,1.9213,0.1811,-0.3064,-0.5871,rough,14.0,2,1.069
1200,38.40,5.0776,3.1212,2.0420,0.1714,-0.2983,-0.5105,rough,14.0,3,3.131
1210,38.72,5.4346,2.9133,2.1732,0.1620,-0.3066,-0.5198,rough,14.0,3,2.720
1220,39.04,5.8035,2.7023,2.3057,0.1598,-0.2993,-0.5136,rough,14.0,3,2.297
1230,39.36,6.1733,2.4931,2.4360,0.1618,-0.2936,-0.5066,rough,14.0,3,1.876
1240,39.68,6.5456,2.2861,2.5647,0.1637,-0.2920,-0.4983,rough,14.0,3,1.455
1250,40.00,6.9157,2.0826,2.6873,0.1725,-0.2897,-0.4872,rough,14.0,3,1.041
1260,40.32,7.2175,1.9259,2.7889,0.1952,-0.2707,-0.5952,rough,14.0,0,9.112
1270,40.64,7.3308,1.8218,2.8266,0.2936,-0.1506,-1.0626,rough,14.0,0,9.257
1280,40.96,7.4244,1.6435,2.8550,0.3176,-0.0769,-1.2948,rough,14.0,0,9.414
1290,41.28,7.4485,1.4468,2.8600,0.3258,0.0009,-1.5316,rough,14.0,0,9.517
1300,41.60,7.3668,1.1989,2.8291,0.3014,0.1085,-1.8712,rough,14.0,0,9.551
1310,41.92,7.2127,0.9454,2.7754,0.2622,0.1815,-2.1269,rough,14.0,0,9.531
1320,42.24,7.0211,0.6898,2.7107,0.2280,0.2238,-2.3123,rough,14.0,0,9.489
1330,42.56,6.7640,0.4443,2.6252,0.1865,0.2563,-2.4870,rough,14.0,0,9.396
1340,42.88,6.4647,0.2345,2.5273,0.1398,0.2850,-2.6717,rough,14.0,0,9.261
1350,43.20,6.1215,0.0686,2.4143,0.0912,0.3068,-2.8480,rough,14.0,0,9.078
1360,43.52,5.7450,-0.0377,2.2889,0.0448,0.3233,-3.0038,rough,14.0,0,8.843
1370,43.84,5.3343,-0.0817,2.1482,0.0285,0.3423,-3.0796,rough,14.0,0,8.554
1380,44.16,4.9105,-0.1070,1.9959,0.0277,0.3495,-3.0697,rough,14.0,0,8.253
1390,44.48,4.4867,-0.1328,1.8333,0.0351,0.3768,-3.0589,rough,14.0,0,7.963
1400,44.80,4.0670,-0.1618,1.6569,0.0377,0.3921,-3.0630,rough,14.0,0,7.692
1410,45.12,3.6527,-0.1835,1.4751,0.0267,0.4371,-3.0892,rough,14.0,0,7.432
1420,45.44,3.2430,-0.1999,1.2820,0.0392,0.4541,-3.0923,rough,14.0,0,7.185
1430,45.76,2.8355,-0.2205,1.0811,0.0544,0.4629,-3.0631,rough,14.0,0,6.958
1440,46.08,2.4285,-0.2520,0.8818,0.0885,0.4522,-3.0046,rough,14.0,0,6.758
1450,46.40,2.0443,-0.2974,0.7034,0.0880,0.4105,-3.0110,rough,14.0,0,6.601
1460,46.72,1.6695,-0.3348,0.5429,0.0464,0.3555,-3.0530,rough,14.0,0,6.460
1470,47.04,1.2894,-0.3484,0.4189,0.0528,0.3064,-3.1003,rough,14.0,0,6.314
1480,47.36,0.9019,-0.3581,0.3195,0.0334,0.2172,-3.1248,rough,14.0,0,6.182
1490,47.68,0.5433,-0.3476,0.2600,0.0108,0.1302,3.0338,rough,14.0,0,6.060
1500,48.00,0.1966,-0.2891,0.2251,-0.0107,0.0646,2.8675,rough,14.0,0,5.914
1510,48.32,-0.1488,-0.1731,0.2089,-0.0017,0.0230,2.7453,rough,14.0,0,5.729
1520,48.64,-0.4954,-0.0135,0.2057,0.0098,-0.0102,2.6321,rough,14.0,0,5.519
1530,48.96,-0.8191,0.1870,0.2113,0.0084,-0.0151,2.4829,rough,14.0,0,5.288
1540,49.28,-1.1127,0.4316,0.2175,0.0086,-0.0165,2.3415,rough,14.0,0,5.031
1550,49.60,-1.3763,0.7332,0.2216,0.0165,-0.0104,2.2130,rough,14.0,0,4.733
1560,49.92,-1.6059,1.0794,0.2270,0.0061,-0.0031,2.1049,rough,14.0,0,4.404
1570,50.24,-1.7995,1.4510,0.2229,0.0015,-0.0228,2.0101,rough,14.0,0,4.059
1580,50.56,-1.9539,1.8448,0.2229,-0.0018,0.0146,1.8802,rough,14.0,0,3.700
1590,50.88,-2.0667,2.2575,0.2141,-0.0147,0.0243,1.7791,rough,14.0,0,3.326
1600,51.20,-2.1348,2.6764,0.2062,-0.0041,0.0257,1.6920,rough,14.0,0,2.945
1610,51.52,-2.1798,3.1035,0.1941,-0.0048,0.0291,1.5792,rough,14.0,0,2.562
1620,51.84,-2.1714,3.5354,0.1766,0.0219,0.0320,1.4820,rough,14.0,0,2.167
1630,52.16,-2.1224,3.9694,0.1658,0.0000,0.0353,1.4212,rough,14.0,0,1.766
1640,52.48,-2.0542,4.4048,0.1498,0.0052,0.0369,1.3855,rough,14.0,0,1.373
1650,52.80,-1.9714,4.8309,0.1340,0.0062,0.0367,1.3185,rough,14.0,0,1.013
1660,53.12,-1.8654,5.2354,0.1190,-0.0017,0.0226,1.2520,rough,14.0,1,2.296
1670,53.44,-1.7228,5.6612,0.1029,0.0138,0.0342,1.2550,rough,14.0,1,1.848
1680,53.76,-1.5843,6.0856,0.0886,0.0174,0.0303,1.2576,rough,14.0,1,1.403
1690,54.08,-1.4474,6.5096,0.0763,0.0208,0.0236,1.2621,rough,14.0,1,0.961
1700,54.40,-1.3403,6.8685,0.0684,0.0197,0.0207,1.1441,rough,14.0,2,8.010
1710,54.72,-1.2196,7.1077,0.0628,0.0145,0.0241,0.8872,rough,14.0,2,8.013
1720,55.04,-1.0267,7.2973,0.0570,0.0100,0.0197,0.6488,rough,14.0,2,7.938
1730,55.36,-0.7604,7.4740,0.0502,0.0098,0.0203,0.4295,rough,14.0,2,7.802
1740,55.68,-0.4413,7.6012,0.0438,0.0062,0.0180,0.2133,rough,14.0,2,7.606
1750,56.00,-0.1428,7.6682,0.0640,-0.0004,-0.1569,0.0620,rough,14.0,2,7.401
1760,56.32,0.1748,7.6865,0.1264,0.0119,-0.2375,-0.0471,rough,14.0,2,7.159
1770,56.64,0.4587,7.6696,0.2073,0.0012,-0.3432,-0.0642,rough,14.0,2,6.926
1780,56.96,0.7504,7.6373,0.3163,0.0362,-0.3462,-0.1034,rough,14.0,2,6.681
1790,57.28,1.0440,7.5940,0.4232,0.0534,-0.3462,-0.1499,rough,14.0,2,6.432
1800,57.60,1.3386,7.5326,0.5316,0.0756,-0.3487,-0.2140,rough,14.0,2,6.174
1810,57.92,1.6719,7.4671,0.6559,0.0592,-0.3540,-0.1677,rough,14.0,2,5.889
1820,58.24,2.0308,7.3980,0.7914,0.0789,-0.3542,-0.2285,rough,14.0,2,5.591
1830,58.56,2.4039,7.3029,0.9340,0.1227,-0.3484,-0.3578,rough,14.0,2,5.272
1840,58.88,2.7461,7.1501,1.0665,0.1608,-0.3355,-0.4793,rough,14.0,2,4.936
1850,59.20,3.0804,6.9570,1.1977,0.1912,-0.3195,-0.5699,rough,14.0,2,4.579
1860,59.52,3.4044,6.7340,1.3281,0.2185,-0.3136,-0.6557,rough,14.0,2,4.208
1870,59.84,3.7092,6.4815,1.4510,0.2360,-0.2935,-0.7286,rough,14.0,2,3.827
1880,60.16,4.0015,6.2086,1.5717,0.2572,-0.2840,-0.7982,rough,14.0,2,3.439
1890,60.48,4.2730,5.9100,1.6841,0.2717,-0.2657,-0.8609,rough,14.0,2,3.043
1900,60.80,4.5261,5.5884,1.7889,0.2876,-0.2510,-0.9255,rough,14.0,2,2.638
1910,61.12,4.7675,5.2526,1.8903,0.2977,-0.2286,-0.9796,rough,14.0,2,2.227
1920,61.44,4.9882,4.9026,1.9818,0.3053,-0.2214,-1.0030,rough,14.0,2,1.814
1930,61.76,5.2163,4.5392,2.0735,0.3036,-0.1959,-1.0229,rough,14.0,2,1.387
1940,62.08,5.4323,4.1764,2.1607,0.3060,-0.1975,-1.0493,rough,14.0,2,0.967
1950,62.40,5.6387,3.8094,2.2415,0.2973,-0.2057,-1.0076,rough,14.0,3,3.034
1960,62.72,5.8719,3.4467,2.3272,0.2888,-0.2145,-0.9793,rough,14.0,3,2.622
1970,63.04,6.1165,3.0886,2.4160,0.2772,-0.2010,-0.9403,rough,14.0,3,2.211
1980,63.36,6.3690,2.7482,2.5059,0.2690,-0.2110,-0.9031,rough,14.0,3,1.813
1990,63.68,6.6383,2.4159,2.5977,0.2558,-0.2158,-0.8556,rough,14.0,3,1.418
2000,64.00,6.9160,2.1080,2.6852,0.2414,-0.2573,-0.7945,rough,14.0,3,1.048
2010,64.32,7.1913,1.8451,2.7792,0.2286,-0.2364,-0.7355,rough,14.0,0,9.119
2020,64.64,7.3378,1.6760,2.8266,0.2947,-0.1429,-1.0834,rough,14.0,0,9.321
2030,64.96,7.3718,1.4522,2.8338,0.3234,-0.0127,-1.4783,rough,14.0,0,9.445
2040,65.28,7.2999,1.2050,2.8070,0.3054,0.0964,-1.8332,rough,14.0,0,9.488
2050,65.60,7.1531,0.9560,2.7558,0.2663,0.1746,-2.1042,rough,14.0,0,9.473
2060,65.92,6.9660,0.7043,2.6927,0.2312,0.2202,-2.2980,rough,14.0,0,9.434
2070,66.24,6.7221,0.4617,2.6116,0.1904,0.2534,-2.4738,rough,14.0,0,9.351
2080,66.56,6.4276,0.2497,2.5152,0.1453,0.2834,-2.6560,rough,14.0,0,9.222
2090,66.88,6.0889,0.0791,2.4036,0.0966,0.3059,-2.8306,rough,14.0,0,9.045
2100,67.20,5.7121,-0.0276,2.2757,0.0410,0.3237,-2.9780,rough,14.0,0,8.811
2110,67.52,5.2958,-0.0811,2.1347,0.0450,0.3353,-3.0144,rough,14.0,0,8.524
2120,67.84,4.8807,-0.1233,1.9844,0.0312,0.3455,-3.0613,rough,14.0,0,8.242
2130,68.16,4.4633,-0.1449,1.8235,0.0221,0.3813,-3.0923,rough,14.0,0,7.955
2140,68.48,4.0427,-0.1593,1.6495,0.0201,0.4131,-3.1011,rough,14.0,0,7.673
2150,68.80,3.6293,-0.1713,1.4658,0.0286,0.4398,-3.1015,rough,14.0,0,7.407
2160,69.12,3.2215,-0.1869,1.2688,0.0171,0.4520,-3.1055,rough,14.0,0,7.162
2170,69.44,2.8162,-0.1947,1.0701,0.0289,0.4631,-3.1132,rough,14.0,0,6.926
2180,69.76,2.4152,-0.2053,0.8735,0.0408,0.4555,-3.0979,rough,14.0,0,6.712
2190,70.08,2.0228,-0.2187,0.6917,0.0483,0.4152,-3.0899,rough,14.0,0,6.522
2200,70.40,1.6383,-0.2316,0.5339,0.0388,0.3494,-3.1096,rough,14.0,0,6.353
2210,70.72,1.2580,-0.2313,0.4070,0.0221,0.2929,3.1247,rough,14.0,0,6.194
2220,71.04,0.8639,-0.2204,0.3075,0.0055,0.2126,3.0941,rough,14.0,0,6.039
2230,71.36,0.5091,-0.1977,0.2527,-0.0131,0.1177,2.9585,rough,14.0,0,5.907
2240,71.68,0.1423,-0.1137,0.2197,-0.0230,0.0404,2.8328,rough,14.0,0,5.731
2250,72.00,-0.2240,0.0189,0.2071,-0.0066,0.0043,2.7188,rough,14.0,0,5.527
2260,72.32,-0.5734,0.1921,0.2057,0.0135,-0.0110,2.5780,rough,14.0,0,5.305
2270,72.64,-0.8925,0.4155,0.2137,0.0057,-0.0182,2.4408,rough,14.0,0,5.055
2280,72.96,-1.1806,0.6860,0.2206,0.0044,-0.0144,2.3091,rough,14.0,0,4.777
2290,73.28,-1.4401,1.0005,0.2251,0.0052,-0.0096,2.1796,rough,14.0,0,4.470
2300,73.60,-1.6572,1.3571,0.2256,-0.0022,-0.0038,2.0734,rough,14.0,0,4.133
2310,73.92,-1.8389,1.7330,0.2249,0.0005,0.0092,1.9566,rough,14.0,0,3.787
2320,74.24,-1.9780,2.1312,0.2192,-0.0025,0.0172,1.8628,rough,14.0,0,3.426
2330,74.56,-2.0780,2.5401,0.2094,-0.0049,0.0247,1.7434,rough,14.0,0,3.057
2340,74.88,-2.1406,2.9653,0.1987,-0.0045,0.0301,1.6324,rough,14.0,0,2.676
2350,75.20,-2.1550,3.3959,0.1842,-0.0036,0.0387,1.5410,rough,14.0,0,2.285
2360,75.52,-2.1293,3.8280,0.1700,0.0005,0.0315,1.4710,rough,14.0,0,1.890
2370,75.84,-2.0835,4.2684,0.1549,0.0052,0.0354,1.4435,rough,14.0,0,1.498
2380,76.16,-2.0255,4.7021,0.1393,0.0072,0.0353,1.3943,rough,14.0,0,1.137
2390,76.48,-1.9478,5.1207,0.1243,0.0072,0.0335,1.2840,rough,14.0,0,0.841
2400,76.80,-1.8277,5.5361,0.1090,0.0144,0.0347,1.2728,rough,14.0,1,2.004
2410,77.12,-1.6957,5.9623,0.0945,0.0177,0.0309,1.2703,rough,14.0,1,1.562
2420,77.44,-1.5626,6.3875,0.0817,0.0209,0.0257,1.2665,rough,14.0,1,1.123
2430,77.76,-1.4394,6.8055,0.0712,0.0125,0.0535,1.1603,rough,14.0,2,8.071
2440,78.08,-1.3255,7.0361,0.0662,0.0162,0.0240,0.8900,rough,14.0,2,8.073
2450,78.40,-1.1352,7.2322,0.0599,0.0105,0.0223,0.6549,rough,14.0,2,7.999
2460,78.72,-0.8665,7.4207,0.0527,0.0083,0.0228,0.4240,rough,14.0,2,7.864
2470,79.04,-0.5374,7.5532,0.0455,0.0052,0.0175,0.2068,rough,14.0,2,7.658
2480,79.36,-0.2049,7.6255,0.0586,-0.0007,-0.1223,0.0051,rough,14.0,2,7.426
2490,79.68,0.1277,7.6174,0.1154,0.0131,-0.2268,-0.1006,rough,14.0,2,7.154
2500,80.00,0.4265,7.5715,0.1977,0.0632,-0.3386,-0.1508,rough,14.0,2,6.890
2510,80.32,0.7439,7.5120,0.3140,0.0701,-0.3421,-0.2023,rough,14.0,2,6.606
2520,80.64,1.0808,7.4299,0.4371,0.1143,-0.3403,-0.3258,rough,14.0,2,6.296
2530,80.96,1.4309,7.3048,0.5668,0.1592,-0.3247,-0.4762,rough,14.0,2,5.951
2540,81.28,1.7581,7.1199,0.6898,0.1883,-0.3089,-0.5890,rough,14.0,2,5.585
2550,81.60,2.0662,6.8870,0.8083,0.2234,-0.2938,-0.6930,rough,14.0,2,5.202
2560,81.92,2.3544,6.6260,0.9221,0.2433,-0.2763,-0.7868,rough,14.0,2,4.813
2570,82.24,2.6217,6.3277,1.0303,0.2683,-0.2578,-0.8777,rough,14.0,2,4.414
2580,82.56,2.8591,6.0067,1.1295,0.2860,-0.2362,-0.9638,rough,14.0,2,4.021
2590,82.88,3.0756,5.6719,1.2224,0.2790,-0.2229,-0.9811,rough,14.0,2,3.637
2600,83.20,3.3009,5.3219,1.3189,0.2820,-0.2406,-0.9591,rough,14.0,2,3.240
2610,83.52,3.5393,4.9719,1.4214,0.2806,-0.2402,-0.9574,rough,14.0,2,2.837
2620,83.84,3.7869,4.6242,1.5264,0.2759,-0.2442,-0.9370,rough,14.0,2,2.436
2630,84.16,4.0387,4.2959,1.6313,0.2699,-0.2655,-0.8815,rough,14.0,2,2.050
2640,84.48,4.3128,3.9774,1.7388,0.2467,-0.2444,-0.8184,rough,14.0,2,1.662
2650,84.80,4.5941,3.6838,1.8541,0.2309,-0.2755,-0.7593,rough,14.0,2,1.293
2660,85.12,4.8853,3.4147,1.9671,0.2085,-0.2891,-0.6785,rough,14.0,2,0.950
2670,85.44,5.1887,3.1667,2.0795,0.2123,-0.2884,-0.6555,rough,14.0,3,3.050
2680,85.76,5.5264,2.9115,2.2062,0.1985,-0.2839,-0.6384,rough,14.0,3,2.635
2690,86.08,5.8673,2.6613,2.3283,0.1923,-0.2780,-0.6161,rough,14.0,3,2.223
2700,86.40,6.2098,2.4168,2.4466,0.2036,-0.2805,-0.5958,rough,14.0,3,1.815
2710,86.72,6.5611,2.1837,2.5686,0.1801,-0.2796,-0.5613,rough,14.0,3,1.410
2720,87.04,6.9093,1.9642,2.6846,0.1775,-0.2826,-0.5264,rough,14.0,3,1.023
2730,87.36,7.2075,1.7905,2.7776,0.2215,-0.2653,-0.5862,rough,14.0,0,9.156
2740,87.68,7.2455,1.6651,2.7950,0.3083,-0.1120,-1.1916,rough,14.0,0,9.241
2750,88.00,7.2477,1.4405,2.7922,0.3192,0.0169,-1.5779,rough,14.0,0,9.338
2760,88.32,7.1570,1.1912,2.7594,0.2967,0.1190,-1.9067,rough,14.0,0,9.367
2770,88.64,7.0032,0.9378,2.7063,0.2593,0.1862,-2.1540,rough,14.0,0,9.351
2780,88.96,6.8072,0.6754,2.6403,0.2226,0.2275,-2.3389,rough,14.0,0,9.312
2790,89.28,6.5527,0.4342,2.5562,0.1785,0.2624,-2.5249,rough,14.0,0,9.224
2800,89.60,6.2448,0.2269,2.4552,0.1321,0.2919,-2.7069,rough,14.0,0,9.085
2810,89.92,5.8955,0.0780,2.3396,0.0784,0.3127,-2.8957,rough,14.0,0,8.891
2820,90.24,5.4998,0.0000,2.2051,0.0484,0.3258,-2.9973,rough,14.0,0,8.629
2830,90.56,5.0813,-0.0473,2.0578,0.0342,0.3513,-3.0407,rough,14.0,0,8.340
2840,90.88,4.6621,-0.0797,1.9008,0.0242,0.3730,-3.0723,rough,14.0,0,8.053
2850,91.20,4.2459,-0.1006,1.7320,0.0163,0.4058,-3.0976,rough,14.0,0,7.771
2860,91.52,3.8337,-0.1114,1.5568,0.0163,0.4074,-3.1145,rough,14.0,0,7.497
2870,91.84,3.4202,-0.1218,1.3659,0.0227,0.4445,-3.1091,rough,14.0,0,7.235
2880,92.16,3.0136,-0.1328,1.1651,0.0302,0.4465,-3.1019,rough,14.0,0,6.992
2890,92.48,2.6105,-0.1455,0.9679,0.0354,0.4569,-3.0972,rough,14.0,0,6.769
2900,92.80,2.2155,-0.1595,0.7767,0.0426,0.4389,-3.1002,rough,14.0,0,6.568
2910,93.12,1.8171,-0.1764,0.6002,0.0475,0.4105,-3.0764,rough,14.0,0,6.386
2920,93.44,1.4364,-0.1899,0.4603,0.0299,0.3262,-3.1113,rough,14.0,0,6.229
2930,93.76,1.0610,-0.1892,0.3507,0.0143,0.2132,3.1274,rough,14.0,0,6.080
2940,94.08,0.6912,-0.1627,0.2786,-0.0054,0.1593,3.0143,rough,14.0,0,5.928
2950,94.40,0.3345,-0.1088,0.2338,-0.0242,0.0856,2.8689,rough,14.0,0,5.773
2960,94.72,-0.0291,0.0045,0.2046,0.0161,0.0304,2.7429,rough,14.0,0,5.578
2970,95.04,-0.3659,0.1581,0.2062,-0.0006,-0.0045,2.6214,rough,14.0,0,5.367
2980,95.36,-0.6817,0.3563,0.2098,0.0034,-0.0151,2.4583,rough,14.0,0,5.131
2990,95.68,-0.9699,0.6180,0.2158,0.0091,-0.0153,2.3089,rough,14.0,0,4.849
3000,96.00,-1.2150,0.9239,0.2223,0.0061,-0.0132,2.1753,rough,14.0,0,4.539
3010,96.32,-1.4362,1.2660,0.2262,0.0051,-0.0034,2.1048,rough,14.0,0,4.204
3020,96.64,-1.6345,1.6377,0.2224,0.0028,-0.0196,2.0224,rough,14.0,0,3.852
3030,96.96,-1.8036,2.0345,0.2216,-0.0007,0.0149,1.9367,rough,14.0,0,3.484
3040,97.28,-1.9452,2.4356,0.2121,-0.0090,0.0254,1.8244,rough,14.0,0,3.122
3050,97.60,-2.0442,2.8527,0.2022,-0.0032,0.0293,1.7102,rough,14.0,0,2.749
3060,97.92,-2.0968,3.2775,0.1891,-0.0020,0.0314,1.5937,rough,14.0,0,2.370
3070,98.24,-2.0943,3.7045,0.1741,0.0016,0.0347,1.4792,rough,14.0,0,1.982
3080,98.56,-2.0488,4.1411,0.1593,0.0016,0.0351,1.4371,rough,14.0,0,1.582
3090,98.88,-1.9874,4.5768,0.1432,0.0073,0.0377,1.3975,rough,14.0,0,1.199
3100,99.20,-1.9107,5.0001,0.1274,0.0075,0.0355,1.3133,rough,14.0,0,0.865
3110,99.52,-1.8013,5.4158,0.1120,0.0124,0.0354,1.2928,rough,14.0,1,2.105
3120,99.84,-1.6776,5.8451,0.0970,0.0173,0.0321,1.2914,rough,14.0,1,1.661
3130,100.16,-1.5535,6.2743,0.0837,0.0213,0.0290,1.2898,rough,14.0,1,1.219
3140,100.48,-1.4288,6.7017,0.0728,0.0230,0.0222,1.2859,rough,14.0,2,0.784
3150,100.80,-1.3366,7.0015,0.0668,0.0202,0.0206,1.0702,rough,14.0,2,8.066
3160,101.12,-1.1999,7.2071,0.0616,0.0145,0.0223,0.7997,rough,14.0,2,8.043
3170,101.44,-0.9774,7.4055,0.0556,0.0106,0.0201,0.5656,rough,14.0,2,7.950
3180,101.76,-0.6830,7.5653,0.0487,0.0090,0.0195,0.3837,rough,14.0,2,7.787
3190,102.08,-0.3627,7.6820,0.0489,-0.0186,0.0053,0.1930,rough,14.0,2,7.588
3200,102.40,-0.0535,7.7312,0.0741,-0.0148,-0.1672,0.0200,rough,14.0,2,7.367
3210,102.72,0.2531,7.7191,0.1481,0.0242,-0.2927,-0.1127,rough,14.0,2,7.117
3220,103.04,0.5307,7.6708,0.2368,0.0576,-0.3425,-0.1653,rough,14.0,2,6.871
3230,103.36,0.8160,7.6037,0.3401,0.0818,-0.3405,-0.2359,rough,14.0,2,6.610
3240,103.68,1.1157,7.5128,0.4495,0.1203,-0.3319,-0.3512,rough,14.0,2,6.324
3250,104.00,1.4332,7.3775,0.5673,0.1758,-0.3146,-0.5260,rough,14.0,2,5.999
3260,104.32,1.7376,7.1910,0.6815,0.2167,-0.2882,-0.6805,rough,14.0,2,5.649
3270,104.64,2.0024,6.9352,0.7840,0.2533,-0.2657,-0.8111,rough,14.0,2,5.281
3280,104.96,2.2541,6.6568,0.8831,0.2802,-0.2372,-0.9323,rough,14.0,2,4.907
3290,105.28,2.4580,6.3260,0.9628,0.2847,-0.2039,-1.0630,rough,14.0,2,4.533
3300,105.60,2.6372,5.9614,1.0455,0.3002,-0.2124,-1.0466,rough,14.0,2,4.158
3310,105.92,2.8516,5.5980,1.1383,0.2921,-0.2264,-1.0101,rough,14.0,2,3.763
3320,106.24,3.0810,5.2437,1.2373,0.2844,-0.2403,-0.9731,rough,14.0,2,3.368
3330,106.56,3.3171,4.8992,1.3377,0.2685,-0.2482,-0.9279,rough,14.0,2,2.980
3340,106.88,3.5719,4.5669,1.4458,0.2603,-0.2597,-0.8820,rough,14.0,2,2.590
3350,107.20,3.8363,4.2499,1.5554,0.2488,-0.2689,-0.8314,rough,14.0,2,2.209
3360,107.52,4.1198,3.9497,1.6704,0.2346,-0.2787,-0.7758,rough,14.0,2,1.829
3370,107.84,4.4141,3.6688,1.7873,0.2173,-0.2894,-0.7106,rough,14.0,2,1.462
3380,108.16,4.7163,3.4142,1.9046,0.1964,-0.2999,-0.6367,rough,14.0,2,1.117
3390,108.48,5.0276,3.1904,2.0224,0.1634,-0.3140,-0.5250,rough,14.0,2,0.806
3400,108.80,5.3661,2.9827,2.1483,0.1712,-0.3054,-0.5481,rough,14.0,3,2.811
3410,109.12,5.7286,2.7619,2.2793,0.1695,-0.2991,-0.5402,rough,14.0,3,2.390
3420,109.44,6.0935,2.5435,2.4078,0.1668,-0.2896,-0.5302,rough,14.0,3,1.969
3430,109.76,6.4597,2.3278,2.5346,0.1700,-0.2909,-0.5203,rough,14.0,3,1.550
3440,110.08,6.8257,2.1182,2.6578,0.1602,-0.2835,-0.5060,rough,14.0,3,1.137
3450,110.40,7.1790,1.9195,2.7742,0.1795,-0.2840,-0.4909,rough,14.0,0,9.079
3460,110.72,7.3339,1.8536,2.8279,0.2821,-0.1721,-0.9854,rough,14.0,0,9.247
3470,111.04,7.4402,1.7074,2.8616,0.3157,-0.0926,-1.2474,rough,14.0,0,9.402
3480,111.36,7.4906,1.5336,2.8754,0.3246,-0.0281,-1.4450,rough,14.0,0,9.519
3490,111.68,7.4390,1.3011,2.8544,0.3119,0.0798,-1.7706,rough,14.0,0,9.571
3500,112.00,7.3110,1.0498,2.8090,0.2760,0.1610,-2.0491,rough,14.0,0,9.569
3510,112.32,7.1236,0.7926,2.7450,0.2387,0.2122,-2.2580,rough,14.0,0,9.526
3520,112.64,6.8940,0.5272,2.6680,0.1979,0.2471,-2.4407,rough,14.0,0,9.463
3530,112.96,6.5978,0.3124,2.5701,0.1543,0.2724,-2.6157,rough,14.0,0,9.328
3540,113.28,6.2649,0.1281,2.4617,0.1075,0.3009,-2.7914,rough,14.0,0,9.159
3550,113.60,5.8975,0.0030,2.3401,0.0585,0.3146,-2.9563,rough,14.0,0,8.938
3560,113.92,5.4879,-0.0534,2.2006,0.0394,0.3315,-3.0175,rough,14.0,0,8.653
3570,114.24,5.0677,-0.0952,2.0499,0.0422,0.3274,-3.0246,rough,14.0,0,8.362
3580,114.56,4.6441,-0.1318,1.8941,0.0328,0.3727,-3.0470,rough,14.0,0,8.076
3590,114.88,4.2267,-0.1587,1.7275,0.0390,0.3952,-3.0691,rough,14.0,0,7.799
3600,115.20,3.8056,-0.1888,1.5467,0.0613,0.4229,-3.0357,rough,14.0,0,7.536
3610,115.52,3.3946,-0.2253,1.3549,0.0576,0.4394,-3.0407,rough,14.0,0,7.299
3620,115.84,2.9829,-0.2618,1.1535,0.0713,0.4592,-3.0109,rough,14.0,0,7.078
3630,116.16,2.5915,-0.2976,0.9628,0.0883,0.4534,-3.0102,rough,14.0,0,6.885
3640,116.48,2.1911,-0.3513,0.7694,0.1093,0.4153,-2.9553,rough,14.0,0,6.720
3650,116.80,1.8138,-0.3994,0.6063,0.1132,0.3867,-2.9525,rough,14.0,0,6.582
3660,117.12,1.4612,-0.4406,0.4767,0.0858,0.3201,-3.0490,rough,14.0,0,6.467
3670,117.44,1.0879,-0.4659,0.3682,0.0626,0.2308,-3.0879,rough,14.0,0,6.347
3680,117.76,0.7045,-0.4781,0.2898,0.0436,0.1707,-3.1288,rough,14.0,0,6.232
3690,118.08,0.3593,-0.4655,0.2408,0.0209,0.1128,2.9822,rough,14.0,0,6.125
3700,118.40,0.0277,-0.4008,0.2139,-0.0084,0.0398,2.8284,rough,14.0,0,5.986
3710,118.72,-0.3053,-0.2709,0.2073,0.0015,-0.0039,2.6790,rough,14.0,0,5.800
3720,119.04,-0.6322,-0.0937,0.2083,0.0123,-0.0118,2.5297,rough,14.0,0,5.583
3730,119.36,-0.9443,0.1453,0.2137,0.0110,-0.0136,2.3982,rough,14.0,0,5.323
3740,119.68,-1.2219,0.4274,0.2194,0.0100,-0.0145,2.2718,rough,14.0,0,5.035
3750,120.00,-1.4681,0.7551,0.2249,0.0070,-0.0073,2.1533,rough,14.0,0,4.716
3760,120.32,-1.6788,1.1152,0.2275,0.0040,-0.0013,2.0590,rough,14.0,0,4.376
3770,120.64,-1.8592,1.4938,0.2262,0.0036,0.0063,1.9490,rough,14.0,0,4.027
3780,120.96,-2.0033,1.8923,0.2209,-0.0126,0.0153,1.8429,rough,14.0,0,3.664
3790,121.28,-2.1050,2.3027,0.2149,-0.0053,0.0213,1.7330,rough,14.0,0,3.293
3800,121.60,-2.1581,2.7309,0.2006,-0.0063,0.0522,1.6209,rough,14.0,0,2.902
3810,121.92,-2.1718,3.1585,0.1925,-0.0058,0.0294,1.5246,rough,14.0,0,2.509
3820,122.24,-2.1444,3.5978,0.1785,-0.0030,0.0330,1.4781,rough,14.0,0,2.100
3830,122.56,-2.0995,4.0365,0.1634,0.0005,0.0348,1.4460,rough,14.0,0,1.697
3840,122.88,-2.0420,4.4734,0.1475,0.0062,0.0368,1.4101,rough,14.0,0,1.312
3850,123.20,-1.9700,4.9003,0.1317,0.0074,0.0352,1.3388,rough,14.0,0,0.970
3860,123.52,-1.8688,5.3110,0.1166,0.0079,0.0322,1.2787,rough,14.0,1,2.227
3870,123.84,-1.7384,5.7389,0.1013,0.0161,0.0332,1.2775,rough,14.0,1,1.783
3880,124.16,-1.6086,6.1663,0.0873,0.0189,0.0298,1.2756,rough,14.0,1,1.340
3890,124.48,-1.4779,6.5921,0.0757,0.0220,0.0232,1.2719,rough,14.0,1,0.903
3900,124.80,-1.3776,6.9246,0.0684,0.0178,0.0246,1.0327,rough,14.0,2,8.068
3910,125.12,-1.2290,7.1307,0.0628,0.0128,0.0249,0.7769,rough,14.0,2,8.032
3920,125.44,-0.9993,7.3231,0.0563,0.0081,0.0207,0.5450,rough,14.0,2,7.927
3930,125.76,-0.7058,7.4884,0.0468,0.0202,0.0183,0.3313,rough,14.0,2,7.764
3940,126.08,-0.3689,7.6012,0.0441,0.0059,0.0047,0.1092,rough,14.0,2,7.546
3950,126.40,-0.0304,7.6307,0.0799,0.0099,-0.1661,-0.0637,rough,14.0,2,7.288
3960,126.72,0.2914,7.5957,0.1581,0.0272,-0.3236,-0.1485,rough,14.0,2,7.011
3970,127.04,0.6091,7.5285,0.2651,0.0687,-0.3402,-0.2012,rough,14.0,2,6.720
3980,127.36,0.9390,7.4455,0.3852,0.0986,-0.3388,-0.2898,rough,14.0,2,6.413
3990,127.68,1.2833,7.3225,0.5111,0.1335,-0.3257,-0.4054,rough,14.0,2,6.073
4000,128.00,1.6236,7.1607,0.6355,0.1715,-0.2932,-0.5336,rough,14.0,2,5.712
4010,128.32,1.9667,6.9521,0.7667,0.1715,-0.3033,-0.5311,rough,14.0,2,5.319
4020,128.64,2.2994,6.7344,0.8991,0.1989,-0.3181,-0.5986,rough,14.0,2,4.928
4030,128.96,2.6286,6.4997,1.0295,0.1994,-0.3121,-0.6337,rough,14.0,2,4.529
4040,129.28,2.9551,6.2535,1.1610,0.2124,-0.3081,-0.6757,rough,14.0,2,4.124
4050,129.60,3.2692,5.9891,1.2884,0.2221,-0.2988,-0.7156,rough,14.0,2,3.716
4060,129.92,3.5781,5.7165,1.4157,0.2333,-0.2922,-0.7547,rough,14.0,2,3.306
4070,130.24,3.8720,5.4265,1.5375,0.2441,-0.2853,-0.7898,rough,14.0,2,2.893
4080,130.56,4.1557,5.1246,1.6543,0.2478,-0.2753,-0.8256,rough,14.0,2,2.479
4090,130.88,4.4303,4.8220,1.7641,0.2460,-0.2552,-0.8080,rough,14.0,2,2.071
4100,131.20,4.7180,4.5127,1.8851,0.2516,-0.2694,-0.8244,rough,14.0,2,1.648
4110,131.52,5.0064,4.1998,1.9980,0.2430,-0.2629,-0.8341,rough,14.0,2,1.223
4120,131.84,5.2885,3.8786,2.1101,0.2572,-0.2503,-0.8480,rough,14.0,3,0.795
4130,132.16,5.5751,3.5672,2.2192,0.2437,-0.2587,-0.7923,rough,14.0,3,2.931
4140,132.48,5.8781,3.2611,2.3308,0.2402,-0.2487,-0.7794,rough,14.0,3,2.505
4150,132.80,6.1843,2.9596,2.4416,0.2373,-0.2475,-0.7679,rough,14.0,3,2.082
4160,133.12,6.4933,2.6624,2.5486,0.2345,-0.2470,-0.7524,rough,14.0,3,1.662
4170,133.44,6.8079,2.3693,2.6522,0.2279,-0.2244,-0.7274,rough,14.0,3,1.245
4180,133.76,7.1219,2.0895,2.7587,0.2162,-0.2451,-0.7022,rough,14.0,3,0.846
4190,134.08,7.3060,1.8928,2.8190,0.2728,-0.1868,-0.9411,rough,14.0,0,9.206
4200,134.40,7.4213,1.6658,2.8545,0.3120,-0.1019,-1.2190,rough,14.0,0,9.402
4210,134.72,7.4720,1.4265,2.8675,0.3244,-0.0281,-1.4431,rough,14.0,0,9.547
4220,135.04,7.4105,1.1778,2.8432,0.3089,0.0857,-1.7990,rough,14.0,0,9.599
4230,135.36,7.2734,0.9270,2.7952,0.2720,0.1671,-2.0715,rough,14.0,0,9.593
4240,135.68,7.0928,0.6637,2.7338,0.2366,0.2129,-2.2685,rough,14.0,0,9.564
4250,136.00,6.8540,0.4166,2.6545,0.1959,0.2483,-2.4495,rough,14.0,0,9.487
4260,136.32,6.5678,0.1939,2.5607,0.1502,0.2785,-2.6325,rough,14.0,0,9.369
4270,136.64,6.2337,0.0223,2.4495,0.1018,0.2910,-2.8119,rough,14.0,0,9.195
4280,136.96,5.8429,-0.0870,2.3221,0.0809,0.3154,-2.8981,rough,14.0,0,8.951
4290,137.28,5.4371,-0.1633,2.1837,0.0584,0.3263,-2.9603,rough,14.0,0,8.685
4300,137.60,5.0251,-0.2266,2.0367,0.0495,0.3381,-3.0080,rough,14.0,0,8.418
4310,137.92,4.6025,-0.2694,1.8796,0.0449,0.3779,-3.0281,rough,14.0,0,8.142
4320,138.24,4.1848,-0.3034,1.7118,0.0500,0.4015,-3.0466,rough,14.0,0,7.876
4330,138.56,3.7626,-0.3460,1.5242,0.0525,0.4207,-3.0045,rough,14.0,0,7.627
4340,138.88,3.3456,-0.3919,1.3345,0.1016,0.4340,-2.9578,rough,14.0,0,7.400
4350,139.20,2.9294,-0.4554,1.1336,0.1699,0.4373,-2.8324,rough,14.0,0,7.205
4360,139.52,2.5613,-0.5449,0.9559,0.1657,0.4239,-2.8540,rough,14.0,0,7.077
4370,139.84,2.2238,-0.5971,0.7987,0.1350,0.4197,-2.9489,rough,14.0,0,6.950
4380,140.16,1.8606,-0.6357,0.6404,0.1252,0.3958,-2.9871,rough,14.0,0,6.814
4390,140.48,1.5072,-0.6727,0.5085,0.0996,0.3205,-3.0488,rough,14.0,0,6.698
4400,140.80,1.1506,-0.6838,0.3984,0.0683,0.2582,-3.1249,rough,14.0,0,6.573
4410,141.12,0.8138,-0.6498,0.3176,0.0257,0.2163,2.9883,rough,14.0,0,6.429
4420,141.44,0.4605,-0.5698,0.2546,0.0072,0.1376,2.8361,rough,14.0,0,6.251
4430,141.76,0.1049,-0.4432,0.2210,-0.0096,0.0517,2.7214,rough,14.0,0,6.044
4440,142.08,-0.2419,-0.2703,0.2089,-0.0052,0.0067,2.5932,rough,14.0,0,5.809
4450,142.40,-0.5786,-0.0502,0.2073,0.0107,-0.0096,2.4767,rough,14.0,0,5.545
4460,142.72,-0.8810,0.2100,0.2126,0.0099,-0.0135,2.3533,rough,14.0,0,5.261
4470,143.04,-1.1514,0.5046,0.2176,0.0149,-0.0145,2.2363,rough,14.0,0,4.958
4480,143.36,-1.3919,0.8418,0.2242,0.0081,-0.0097,2.1358,rough,14.0,0,4.626
4490,143.68,-1.6003,1.2041,0.2271,0.0043,-0.0020,2.0522,rough,14.0,0,4.279
4500,144.00,-1.7792,1.5871,0.2260,-0.0001,0.0076,1.9566,rough,14.0,0,3.922
4510,144.32,-1.9243,1.9890,0.2218,-0.0032,0.0160,1.8679,rough,14.0,0,3.553
4520,144.64,-2.0419,2.3999,0.2128,-0.0017,0.0258,1.7721,rough,14.0,0,3.182
4530,144.96,-2.1167,2.8201,0.2010,-0.0046,0.0388,1.6494,rough,14.0,0,2.804
4540,145.28,-2.1414,3.2459,0.1898,-0.0043,0.0301,1.5533,rough,14.0,0,2.416
4550,145.60,-2.1255,3.6787,0.1758,-0.0024,0.0323,1.4691,rough,14.0,0,2.019
4560,145.92,-2.0754,4.1147,0.1604,0.0009,0.0346,1.4273,rough,14.0,0,1.618
4570,146.24,-2.0099,4.5496,0.1445,0.0056,0.0366,1.3869,rough,14.0,0,1.234
4580,146.56,-1.9283,4.9728,0.1286,0.0072,0.0362,1.3045,rough,14.0,0,0.895
4590,146.88,-1.8136,5.3839,0.1133,0.0108,0.0354,1.2689,rough,14.0,1,2.139
4600,147.20,-1.6799,5.8103,0.0979,0.0166,0.0331,1.2702,rough,14.0,1,1.694
4610,147.52,-1.5474,6.2370,0.0843,0.0198,0.0295,1.2715,rough,14.0,1,1.250
4620,147.84,-1.4158,6.6631,0.0729,0.0218,0.0230,1.2743,rough,14.0,1,0.810
4630,148.16,-1.3194,6.9726,0.0667,0.0193,0.0210,1.0718,rough,14.0,2,8.038
4640,148.48,-1.1838,7.1766,0.0614,0.0142,0.0231,0.7987,rough,14.0,2,8.014
4650,148.80,-0.9616,7.3697,0.0552,0.0096,0.0201,0.5653,rough,14.0,2,7.918
4660,149.12,-0.6697,7.5310,0.0483,0.0094,0.0186,0.3766,rough,14.0,2,7.757
4670,149.44,-0.3508,7.6477,0.0488,-0.0073,-0.0115,0.1651,rough,14.0,2,7.558
4680,149.76,-0.0381,7.6953,0.0798,0.0050,-0.1694,0.0060,rough,14.0,2,7.333
4690,150.08,0.2739,7.6874,0.1527,0.0164,-0.3056,-0.0825,rough,14.0,2,7.081
4700,150.40,0.5779,7.6499,0.2533,0.0507,-0.3456,-0.1382,rough,14.0,2,6.821
4710,150.72,0.8854,7.5924,0.3653,0.0680,-0.3447,-0.1916,rough,14.0,2,6.550
4720,151.04,1.1956,7.5135,0.4789,0.0903,-0.3425,-0.2593,rough,14.0,2,6.266
4730,151.36,1.5337,7.4104,0.6012,0.1371,-0.3119,-0.3999,rough,14.0,2,5.948
4740,151.68,1.8563,7.2563,0.7259,0.1789,-0.3235,-0.5295,rough,14.0,2,5.610
4750,152.00,2.1683,7.0556,0.8454,0.2090,-0.3007,-0.6497,rough,14.0,2,5.248
4760,152.32,2.4582,6.8036,0.9590,0.2444,-0.2811,-0.7626,rough,14.0,2,4.865
4770,152.64,2.7241,6.5210,1.0655,0.2656,-0.2550,-0.8667,rough,14.0,2,4.477
4780,152.96,2.9687,6.2074,1.1673,0.2905,-0.2408,-0.9599,rough,14.0,2,4.082
4790,153.28,3.1820,5.8684,1.2575,0.3061,-0.2094,-1.0509,rough,14.0,2,3.691
4800,153.60,3.3696,5.5060,1.3406,0.3055,-0.2149,-1.0536,rough,14.0,2,3.307
4810,153.92,3.5708,5.1342,1.4284,0.3033,-0.2116,-1.0512,rough,14.0,2,2.912
4820,154.24,3.7845,4.7647,1.5197,0.2876,-0.2200,-1.0248,rough,14.0,2,2.517
4830,154.56,4.0046,4.4089,1.6153,0.2796,-0.2370,-0.9532,rough,14.0,2,2.137
4840,154.88,4.2487,4.0751,1.7163,0.2654,-0.2508,-0.8915,rough,14.0,2,1.761
4850,155.20,4.5119,3.7643,1.8168,0.2462,-0.2925,-0.8176,rough,14.0,2,1.397
4860,155.52,4.7998,3.4757,1.9344,0.2227,-0.2831,-0.7270,rough,14.0,2,1.043
4870,155.84,5.1001,3.2347,2.0492,0.1841,-0.3125,-0.6584,rough,14.0,3,3.160
4880,156.16,5.4365,2.9730,2.1735,0.1962,-0.2873,-0.6330,rough,14.0,3,2.743
4890,156.48,5.7768,2.7240,2.2951,0.1870,-0.2798,-0.6153,rough,14.0,3,2.330
4900,156.80,6.1218,2.4817,2.4173,0.1858,-0.2749,-0.5920,rough,14.0,3,1.920
4910,157.12,6.4724,2.2478,2.5391,0.1813,-0.2803,-0.5665,rough,14.0,3,1.513
4920,157.44,6.8217,2.0277,2.6532,0.1843,-0.2904,-0.5361,rough,14.0,3,1.120
4930,157.76,7.1736,1.8263,2.7736,0.1435,-0.2598,-0.4858,rough,14.0,0,9.110
4940,158.08,7.2406,1.6611,2.7926,0.2974,-0.1462,-1.0696,rough,14.0,0,9.239
4950,158.40,7.2653,1.4233,2.7982,0.3213,-0.0196,-1.4682,rough,14.0,0,9.361
4960,158.72,7.1943,1.1758,2.7716,0.3055,0.0940,-1.8287,rough,14.0,0,9.407
4970,159.04,7.0557,0.9279,2.7234,0.2686,0.1711,-2.0981,rough,14.0,0,9.401
4980,159.36,6.8821,0.6729,2.6649,0.2346,0.2147,-2.2814,rough,14.0,0,9.377
4990,159.68,6.6450,0.4398,2.5864,0.1934,0.2510,-2.4632,rough,14.0,0,9.298
5000,160.00,6.3549,0.2213,2.4913,0.1483,0.2832,-2.6483,rough,14.0,0,9.178
5010,160.32,6.0195,0.0541,2.3806,0.0934,0.3065,-2.8418,rough,14.0,0,9.004
5020,160.64,5.6387,-0.0440,2.2516,0.0459,0.3263,-2.9789,rough,14.0,0,8.764
5030,160.96,5.2218,-0.0977,2.1085,0.0479,0.3443,-3.0147,rough,14.0,0,8.479
5040,161.28,4.8028,-0.1466,1.9514,0.0181,0.3555,-3.0369,rough,14.0,0,8.201
5050,161.60,4.3848,-0.1759,1.7923,0.0335,0.3733,-3.0615,rough,14.0,0,7.922
5060,161.92,3.9643,-0.2048,1.6156,0.0315,0.4159,-3.0685,rough,14.0,0,7.654
5070,162.24,3.5507,-0.2272,1.4294,0.0533,0.4427,-3.0589,rough,14.0,0,7.399
5080,162.56,3.1389,-0.2598,1.2313,0.0617,0.4573,-3.0333,rough,14.0,0,7.169
5090,162.88,2.7412,-0.2941,1.0362,0.0748,0.4578,-3.0348,rough,14.0,0,6.965
5100,163.20,2.3407,-0.3352,0.8395,0.0883,0.4536,-3.0071,rough,14.0,0,6.783
5110,163.52,1.9702,-0.3662,0.6717,0.0826,0.4029,-3.0532,rough,14.0,0,6.625
5120,163.84,1.5942,-0.3899,0.5203,0.0687,0.3417,-3.0817,rough,14.0,0,6.477
5130,164.16,1.2176,-0.4001,0.3984,0.0512,0.2615,-3.1281,rough,14.0,0,6.334
5140,164.48,0.8365,-0.3905,0.3077,0.0443,0.2040,3.1024,rough,14.0,0,6.191
5150,164.80,0.5042,-0.3627,0.2564,-0.0079,0.1314,2.8940,rough,14.0,0,6.064
5160,165.12,0.1793,-0.2666,0.2228,-0.0210,0.0449,2.7465,rough,14.0,0,5.888
5170,165.44,-0.1527,-0.1039,0.2036,0.0150,0.0136,2.5954,rough,14.0,0,5.660
5180,165.76,-0.4700,0.1084,0.2057,0.0078,-0.0092,2.4693,rough,14.0,0,5.401
5190,166.08,-0.7589,0.3663,0.2105,0.0089,-0.0160,2.3258,rough,14.0,0,5.114
5200,166.40,-1.0190,0.6692,0.2142,0.0038,-0.0140,2.1950,rough,14.0,0,4.796
5210,166.72,-1.2533,1.0013,0.2233,0.0043,-0.0129,2.1210,rough,14.0,0,4.462
5220,167.04,-1.4613,1.3733,0.2234,-0.0070,-0.0108,2.0350,rough,14.0,0,4.099
5230,167.36,-1.6391,1.7597,0.2252,-0.0004,0.0069,1.9510,rough,14.0,0,3.731
5240,167.68,-1.7911,2.1637,0.2195,-0.0011,0.0152,1.8727,rough,14.0,0,3.355
5250,168.00,-1.9090,2.5765,0.2086,-0.0024,0.0125,1.7676,rough,14.0,0,2.977
5260,168.32,-1.9793,3.0026,0.1976,-0.0024,0.0355,1.6710,rough,14.0,0,2.587
5270,168.64,-2.0163,3.4301,0.1843,-0.0023,0.0351,1.5663,rough,14.0,0,2.198
5280,168.96,-2.0087,3.8593,0.1690,-0.0013,0.0358,1.4683,rough,14.0,0,1.805
5290,169.28,-1.9579,4.2954,0.1528,0.0021,0.0374,1.4249,rough,14.0,0,1.403
5300,169.60,-1.8916,4.7286,0.1365,0.0066,0.0374,1.3785,rough,14.0,0,1.023
5310,169.92,-1.8075,5.1470,0.1207,0.0110,0.0364,1.3336,rough,14.0,1,2.359
5320,170.24,-1.7016,5.5814,0.1047,0.0157,0.0353,1.3323,rough,14.0,1,1.914
5330,170.56,-1.5953,6.0146,0.0905,0.0192,0.0294,1.3301,rough,14.0,1,1.473
5340,170.88,-1.4881,6.4470,0.0785,0.0222,0.0233,1.3269,rough,14.0,1,1.035
5350,171.20,-1.3941,6.8390,0.0700,0.0297,0.0268,1.2079,rough,14.0,2,8.045
5360,171.52,-1.2880,7.0824,0.0648,0.0170,0.0229,0.9510,rough,14.0,2,8.061
5370,171.84,-1.1175,7.2805,0.0593,0.0118,0.0203,0.7058,rough,14.0,2,8.008
5380,172.16,-0.8663,7.4747,0.0526,0.0107,0.0222,0.4724,rough,14.0,2,7.892
5390,172.48,-0.5606,7.6044,0.0461,0.0080,0.0174,0.3148,rough,14.0,2,7.706
5400,172.80,-0.2524,7.7047,0.0576,-0.0069,-0.0826,0.1049,rough,14.0,2,7.511
5410,173.12,0.0787,7.7277,0.0997,0.0207,-0.1676,-0.1043,rough,14.0,2,7.260
5420,173.44,0.3667,7.6775,0.1794,0.0733,-0.3274,-0.1960,rough,14.0,2,7.002
5430,173.76,0.6610,7.6005,0.2839,0.0883,-0.3361,-0.2593,rough,14.0,2,6.726
5440,174.08,0.9717,7.4980,0.3970,0.1301,-0.3288,-0.3825,rough,14.0,2,6.423
5450,174.40,1.2943,7.3469,0.5156,0.1757,-0.3087,-0.5365,rough,14.0,2,6.081
5460,174.72,1.6008,7.1531,0.6307,0.2155,-0.2885,-0.6809,rough,14.0,2,5.723
5470,175.04,1.8779,6.8934,0.7374,0.2512,-0.2658,-0.8088,rough,14.0,2,5.344
5480,175.36,2.1294,6.6042,0.8370,0.2749,-0.2406,-0.9266,rough,14.0,2,4.963
5490,175.68,2.3414,6.2772,0.9247,0.3034,-0.2152,-1.0373,rough,14.0,2,4.588
5500,176.00,2.5501,5.9282,1.0131,0.2862,-0.2322,-0.9803,rough,14.0,2,4.205
5510,176.32,2.7877,5.5785,1.1146,0.2778,-0.2430,-0.9481,rough,14.0,2,3.802
5520,176.64,3.0377,5.2398,1.2209,0.2689,-0.2541,-0.9161,rough,14.0,2,3.401
5530,176.96,3.2952,4.9082,1.3298,0.2599,-0.2615,-0.8792,rough,14.0,2,3.003
5540,177.28,3.5668,4.5878,1.4433,0.2501,-0.2697,-0.8423,rough,14.0,2,2.605
5550,177.60,3.8432,4.2798,1.5557,0.2352,-0.2722,-0.8000,rough,14.0,2,2.216
5560,177.92,4.1319,3.9857,1.6740,0.2281,-0.2837,-0.7551,rough,14.0,2,1.831
5570,178.24,4.4329,3.7089,1.7936,0.2147,-0.2915,-0.6998,rough,14.0,2,1.455
5580,178.56,4.7379,3.4538,1.9113,0.1977,-0.3002,-0.6368,rough,14.0,2,1.101
5590,178.88,5.0557,3.2286,2.0324,0.1649,-0.3115,-0.5307,rough,14.0,3,0.774
5600,179.20,5.4035,3.0121,2.1612,0.1717,-0.3029,-0.5505,rough,14.0,3,2.789
5610,179.52,5.7665,2.7897,2.2915,0.1680,-0.2952,-0.5444,rough,14.0,3,2.366
5620,179.84,6.1307,2.5691,2.4204,0.1672,-0.2887,-0.5362,rough,14.0,3,1.944
5630,180.16,6.4963,2.3508,2.5479,0.1714,-0.2875,-0.5286,rough,14.0,3,1.523
5640,180.48,6.8605,2.1371,2.6709,0.1767,-0.2927,-0.5173,rough,14.0,3,1.109
5650,180.80,7.2035,1.9438,2.7891,0.2025,-0.2272,-0.5600,rough,14.0,0,9.092
5660,181.12,7.3153,1.8165,2.8210,0.2996,-0.1472,-1.0823,rough,14.0,0,9.244
5670,181.44,7.3573,1.5848,2.8312,0.3223,-0.0298,-1.4415,rough,14.0,0,9.376
5680,181.76,7.2918,1.3361,2.8061,0.3096,0.0910,-1.8036,rough,14.0,0,9.423
5690,182.08,7.1542,1.0844,2.7574,0.2721,0.1679,-2.0789,rough,14.0,0,9.414
5700,182.40,6.9617,0.8310,2.6920,0.2339,0.2173,-2.2842,rough,14.0,0,9.367
5710,182.72,6.7231,0.5714,2.6124,0.1926,0.2526,-2.4668,rough,14.0,0,9.294
5720,183.04,6.4284,0.3616,2.5155,0.1491,0.2813,-2.6400,rough,14.0,0,9.160
5730,183.36,6.0915,0.1857,2.4045,0.1009,0.3044,-2.8150,rough,14.0,0,8.984
5740,183.68,5.7156,0.0727,2.2769,0.0471,0.3226,-2.9645,rough,14.0,0,8.752
5750,184.00,5.2983,0.0152,2.1353,0.0591,0.3517,-3.0076,rough,14.0,0,8.464
5760,184.32,4.8868,-0.0326,1.9863,0.0327,0.3456,-3.0567,rough,14.0,0,8.185
5770,184.64,4.4651,-0.0581,1.8238,0.0259,0.3779,-3.0755,rough,14.0,0,7.896
5780,184.96,4.0473,-0.0765,1.6476,0.0218,0.3946,-3.0906,rough,14.0,0,7.616
5790,185.28,3.6310,-0.0907,1.4650,0.0268,0.4387,-3.0950,rough,14.0,0,7.347
5800,185.60,3.2193,-0.1091,1.2677,0.0259,0.4584,-3.0885,rough,14.0,0,7.099
5810,185.92,2.8204,-0.1230,1.0700,0.0265,0.4585,-3.1055,rough,14.0,0,6.870
5820,186.24,2.4198,-0.1370,0.8739,0.0349,0.4561,-3.0953,rough,14.0,0,6.657
5830,186.56,2.0279,-0.1512,0.6912,0.0398,0.4135,-3.0930,rough,14.0,0,6.465
5840,186.88,1.6357,-0.1688,0.5293,0.0297,0.3465,-3.0937,rough,14.0,0,6.296
5850,187.20,1.2457,-0.1776,0.4016,0.0240,0.2912,-3.1197,rough,14.0,0,6.140
5860,187.52,0.8617,-0.1748,0.3075,0.0100,0.2176,3.1134,rough,14.0,0,5.996
5870,187.84,0.4979,-0.1522,0.2500,-0.0087,0.1179,2.9938,rough,14.0,0,5.860
5880,188.16,0.1594,-0.0824,0.2208,-0.0249,0.0403,2.8560,rough,14.0,0,5.704
5890,188.48,-0.2129,0.0371,0.2078,-0.0101,0.0054,2.7470,rough,14.0,0,5.511
5900,188.80,-0.5702,0.1959,0.2073,0.0033,-0.0137,2.6175,rough,14.0,0,5.302
5910,189.12,-0.8898,0.4032,0.2136,0.0046,-0.0180,2.4714,rough,14.0,0,5.068
5920,189.44,-1.1908,0.6674,0.2199,0.0075,-0.0148,2.3328,rough,14.0,0,4.795
5930,189.76,-1.4500,0.9709,0.2252,0.0048,-0.0095,2.2058,rough,14.0,0,4.500
5940,190.08,-1.6726,1.3220,0.2220,0.0318,0.0064,2.0969,rough,14.0,0,4.170
5950,190.40,-1.8635,1.6875,0.2253,0.0009,0.0093,1.9808,rough,14.0,0,3.837
5960,190.72,-2.0086,2.0806,0.2191,-0.0024,0.0118,1.8782,rough,14.0,0,3.482
5970,191.04,-2.1193,2.4882,0.2088,-0.0045,0.0412,1.7483,rough,14.0,0,3.119
5980,191.36,-2.1824,2.9101,0.1993,-0.0052,0.0278,1.6399,rough,14.0,0,2.742
5990,191.68,-2.2057,3.3385,0.1868,-0.0051,0.0299,1.5218,rough,14.0,0,2.359
6000,192.00,-2.1770,3.7732,0.1725,-0.0016,0.0319,1.4528,rough,14.0,0,1.962
6010,192.32,-2.1222,4.2129,0.1572,0.0058,0.0375,1.4252,rough,14.0,0,1.565
6020,192.64,-2.0567,4.6449,0.1418,0.0059,0.0347,1.3754,rough,14.0,0,1.199
6030,192.96,-1.9708,5.0628,0.1265,0.0067,0.0343,1.2711,rough,14.0,0,0.886
6040,193.28,-1.8426,5.4671,0.1113,0.0117,0.0360,1.2292,rough,14.0,1,2.073
6050,193.60,-1.6930,5.8877,0.0963,0.0158,0.0324,1.2317,rough,14.0,1,1.628
6060,193.92,-1.5446,6.3086,0.0828,0.0196,0.0287,1.2347,rough,14.0,1,1.184
6070,194.24,-1.4033,6.7252,0.0719,0.0222,0.0241,1.2131,rough,14.0,2,8.003
6080,194.56,-1.2960,7.0019,0.0657,0.0177,0.0225,0.9917,rough,14.0,2,8.031
6090,194.88,-1.1389,7.2007,0.0601,0.0127,0.0226,0.7413,rough,14.0,2,7.987
6100,195.20,-0.8985,7.3905,0.0536,0.0090,0.0211,0.5093,rough,14.0,2,7.875
6110,195.52,-0.5941,7.5388,0.0467,0.0071,0.0182,0.2922,rough,14.0,2,7.698
6120,195.84,-0.2626,7.6364,0.0557,-0.0054,-0.0750,0.0636,rough,14.0,2,7.480
6130,196.16,0.0858,7.6509,0.1044,0.0298,-0.2031,-0.1073,rough,14.0,2,7.208
6140,196.48,0.3911,7.6049,0.1844,0.0463,-0.3702,-0.1599,rough,14.0,2,6.938
6150,196.80,0.7135,7.5356,0.3028,0.0738,-0.3415,-0.2135,rough,14.0,2,6.644
6160,197.12,1.0524,7.4486,0.4266,0.1128,-0.3344,-0.3332,rough,14.0,2,6.329
6170,197.44,1.3975,7.3141,0.5538,0.1529,-0.3217,-0.4612,rough,14.0,2,5.982
6180,197.76,1.7316,7.1323,0.6763,0.1867,-0.2897,-0.5816,rough,14.0,2,5.613
6190,198.08,2.0411,6.9049,0.7989,0.2197,-0.2943,-0.6882,rough,14.0,2,5.232
6200,198.40,2.3360,6.6510,0.9146,0.2430,-0.2762,-0.7845,rough,14.0,2,4.844
6210,198.72,2.6277,6.3688,1.0315,0.2381,-0.2875,-0.7712,rough,14.0,2,4.438
6220,199.04,2.9274,6.0699,1.1535,0.2412,-0.2791,-0.7868,rough,14.0,2,4.014
6230,199.36,3.2242,5.7688,1.2767,0.2446,-0.2798,-0.8035,rough,14.0,2,3.592
6240,199.68,3.5153,5.4607,1.3982,0.2492,-0.2776,-0.8190,rough,14.0,2,3.169
6250,200.00,3.8010,5.1489,1.5168,0.2495,-0.2731,-0.8332,rough,14.0,2,2.747
6260,200.32,4.0840,4.8323,1.6347,0.2564,-0.2686,-0.8487,rough,14.0,2,2.325
6270,200.64,4.3686,4.5198,1.7452,0.2258,-0.2559,-0.8070,rough,14.0,2,1.905
6280,200.96,4.6592,4.2094,1.8684,0.2442,-0.2715,-0.8032,rough,14.0,2,1.484
6290,201.28,4.9569,3.9015,1.9854,0.2407,-0.2624,-0.7891,rough,14.0,2,1.062
6300,201.60,5.2583,3.6013,2.1025,0.2360,-0.2662,-0.7723,rough,14.0,3,3.209
6310,201.92,5.5639,3.3045,2.2172,0.2373,-0.2671,-0.7570,rough,14.0,3,2.791
6320,202.24,5.8770,3.0130,2.3316,0.2270,-0.2622,-0.7400,rough,14.0,3,2.371
6330,202.56,6.1944,2.7250,2.4428,0.2221,-0.2494,-0.7169,rough,14.0,3,1.954
6340,202.88,6.5100,2.4472,2.5523,0.2160,-0.2556,-0.6981,rough,14.0,3,1.548
6350,203.20,6.8335,2.1772,2.6614,0.2085,-0.2514,-0.6634,rough,14.0,3,1.147
6360,203.52,7.1553,1.9246,2.7685,0.1981,-0.2613,-0.6178,rough,14.0,0,0.774
6370,203.84,7.3246,1.7991,2.8238,0.2776,-0.1799,-0.9666,rough,14.0,0,9.260
6380,204.16,7.4349,1.6236,2.8582,0.3113,-0.0955,-1.2355,rough,14.0,0,9.431
6390,204.48,7.4861,1.4360,2.8724,0.3238,-0.0282,-1.4401,rough,14.0,0,9.556
6400,204.80,7.4287,1.1972,2.8495,0.3097,0.0828,-1.7856,rough,14.0,0,9.607
6410,205.12,7.2947,0.9468,2.8024,0.2733,0.1647,-2.0624,rough,14.0,0,9.602
6420,205.44,7.1116,0.6876,2.7401,0.2377,0.2125,-2.2640,rough,14.0,0,9.568
6430,205.76,6.8739,0.4347,2.6609,0.1975,0.2468,-2.4420,rough,14.0,0,9.494
6440,206.08,6.5885,0.2143,2.5676,0.1523,0.2781,-2.6259,rough,14.0,0,9.375
6450,206.40,6.2560,0.0354,2.4587,0.1042,0.3017,-2.8023,rough,14.0,0,9.206
6460,206.72,5.8869,-0.0853,2.3368,0.0559,0.3168,-2.9688,rough,14.0,0,8.984
6470,207.04,5.4766,-0.1379,2.1971,0.0346,0.3297,-3.0320,rough,14.0,0,8.699
6480,207.36,5.0560,-0.1755,2.0461,0.0383,0.3290,-3.0403,rough,14.0,0,8.407
6490,207.68,4.6336,-0.2078,1.8900,0.0303,0.3812,-3.0667,rough,14.0,0,8.121
6500,208.00,4.2125,-0.2326,1.7225,0.0396,0.3964,-3.0662,rough,14.0,0,7.843
6510,208.32,3.7947,-0.2604,1.5363,0.0363,0.4478,-3.0785,rough,14.0,0,7.583
6520,208.64,3.3850,-0.2812,1.3517,0.0517,0.4444,-3.0606,rough,14.0,0,7.337
6530,208.96,2.9718,-0.3160,1.1454,0.0502,0.4568,-3.0351,rough,14.0,0,7.115
6540,209.28,2.5733,-0.3448,0.9549,0.0897,0.4528,-3.0164,rough,14.0,0,6.915
6550,209.60,2.1762,-0.3927,0.7648,0.1155,0.4133,-2.9722,rough,14.0,0,6.749
6560,209.92,1.7951,-0.4464,0.5997,0.1198,0.3778,-2.9400,rough,14.0,0,6.616
6570,210.24,1.4466,-0.4918,0.4744,0.0949,0.3155,-3.0212,rough,14.0,0,6.508
6580,210.56,1.0875,-0.5222,0.3709,0.0695,0.2296,-3.0707,rough,14.0,0,6.400
6590,210.88,0.7125,-0.5388,0.2916,0.0584,0.1766,-3.1012,rough,14.0,0,6.293
6600,211.20,0.3513,-0.5433,0.2417,0.0351,0.1127,3.1242,rough,14.0,0,6.198
6610,211.52,0.0101,-0.5314,0.2177,0.0140,0.0396,2.9741,rough,14.0,0,6.111
6620,211.84,-0.3025,-0.4603,0.2094,0.0116,0.0021,2.7882,rough,14.0,0,5.987
6630,212.16,-0.6366,-0.3240,0.2100,0.0147,-0.0074,2.6306,rough,14.0,0,5.812
6640,212.48,-0.9484,-0.1289,0.2139,0.0148,-0.0127,2.4605,rough,14.0,0,5.596
6650,212.80,-1.2366,0.1315,0.2193,0.0120,-0.0108,2.3229,rough,14.0,0,5.331
6660,213.12,-1.4935,0.4402,0.2239,0.0105,-0.0119,2.2039,rough,14.0,0,5.032
6670,213.44,-1.7192,0.7848,0.2277,0.0048,-0.0024,2.1009,rough,14.0,0,4.709
6680,213.76,-1.9120,1.1607,0.2281,0.0011,0.0028,2.0115,rough,14.0,0,4.364
6690,214.08,-2.0732,1.5431,0.2246,-0.0048,0.0051,1.9240,rough,14.0,0,4.020
6700,214.40,-2.2014,1.9515,0.2202,-0.0048,0.0175,1.8252,rough,14.0,0,3.657
6710,214.72,-2.2936,2.3685,0.2096,-0.0153,0.0283,1.7190,rough,14.0,0,3.289
6720,215.04,-2.3476,2.7899,0.2014,-0.0093,0.0256,1.5735,rough,14.0,0,2.917
6730,215.36,-2.3358,3.2213,0.1853,-0.0095,0.0566,1.4702,rough,14.0,0,2.522
6740,215.68,-2.2857,3.6522,0.1766,-0.0037,0.0312,1.4265,rough,14.0,0,2.122
6750,216.00,-2.2194,4.0897,0.1622,0.0022,0.0362,1.3964,rough,14.0,0,1.722
6760,216.32,-2.1411,4.5200,0.1472,0.0034,0.0344,1.3468,rough,14.0,0,1.346
6770,216.64,-2.0418,4.9377,0.1317,0.0066,0.0353,1.2547,rough,14.0,0,1.009
6780,216.96,-1.9102,5.3279,0.1172,0.0040,0.0332,1.1470,rough,14.0,1,2.228
6790,217.28,-1.7290,5.7337,0.1012,0.0123,0.0352,1.1581,rough,14.0,1,1.784
6800,217.60,-1.5538,6.1415,0.0865,0.0151,0.0317,1.1717,rough,14.0,1,1.340
6810,217.92,-1.3858,6.5500,0.0739,0.0189,0.0246,1.1945,rough,14.0,1,0.898
6820,218.24,-1.2646,6.8818,0.0662,0.0163,0.0217,1.0565,rough,14.0,2,7.948
6830,218.56,-1.1196,7.0961,0.0602,0.0126,0.0235,0.8059,rough,14.0,2,7.919
6840,218.88,-0.9013,7.2907,0.0540,0.0081,0.0210,0.5752,rough,14.0,2,7.826
6850,219.20,-0.6129,7.4716,0.0472,0.0065,0.0186,0.3403,rough,14.0,2,7.677
6860,219.52,-0.2935,7.5852,0.0534,0.0032,-0.0634,0.1240,rough,14.0,2,7.475
6870,219.84,0.0196,7.6222,0.0882,-0.0009,-0.1726,0.0167,rough,14.0,2,7.243
6880,220.16,0.3161,7.6221,0.1636,0.0145,-0.3333,-0.0645,rough,14.0,2,7.008
6890,220.48,0.6104,7.5952,0.2654,0.0304,-0.3443,-0.0884,rough,14.0,2,6.761
6900,220.80,0.9046,7.5576,0.3722,0.0459,-0.3475,-0.1275,rough,14.0,2,6.513
6910,221.12,1.2007,7.5050,0.4808,0.0641,-0.3481,-0.1823,rough,14.0,2,6.256
6920,221.44,1.5074,7.4314,0.5948,0.1009,-0.3504,-0.2799,rough,14.0,2,5.982
6930,221.76,1.8432,7.3189,0.7194,0.1504,-0.3213,-0.4489,rough,14.0,2,5.663
6940,222.08,2.1591,7.1492,0.8411,0.1920,-0.3110,-0.5892,rough,14.0,2,5.322
6950,222.40,2.4508,6.9228,0.9551,0.2289,-0.2942,-0.7071,rough,14.0,2,4.957
6960,222.72,2.7330,6.6647,1.0641,0.2554,-0.2504,-0.8217,rough,14.0,2,4.576
6970,223.04,2.9790,6.3608,1.1682,0.2860,-0.2480,-0.9292,rough,14.0,2,4.186
6980,223.36,3.1987,6.0389,1.2604,0.3021,-0.2187,-1.0279,rough,14.0,2,3.801
6990,223.68,3.3811,5.6938,1.3382,0.3043,-0.2079,-1.0805,rough,14.0,2,3.427
7000,224.00,3.5760,5.3184,1.4256,0.3093,-0.2212,-1.0512,rough,14.0,2,3.028
7010,224.32,3.7829,4.9462,1.5127,0.2913,-0.2053,-1.0427,rough,14.0,2,2.629
7020,224.64,3.9934,4.5817,1.6063,0.2931,-0.2314,-0.9944,rough,14.0,2,2.241
7030,224.96,4.2304,4.2328,1.7055,0.2772,-0.2384,-0.9405,rough,14.0,2,1.852
7040,225.28,4.4819,3.9028,1.8070,0.2611,-0.2448,-0.8743,rough,14.0,2,1.477
7050,225.60,4.7542,3.5964,1.9151,0.2403,-0.2703,-0.7937,rough,14.0,2,1.115
7060,225.92,5.0454,3.3239,2.0277,0.2108,-0.2853,-0.6838,rough,14.0,3,0.782
7070,226.24,5.3494,3.0507,2.1409,0.2199,-0.2758,-0.7070,rough,14.0,3,2.855
7080,226.56,5.6738,2.7803,2.2577,0.1985,-0.2737,-0.6785,rough,14.0,3,2.447
7090,226.88,6.0058,2.5156,2.3735,0.2002,-0.2507,-0.6412,rough,14.0,3,2.041
7100,227.20,6.3374,2.2688,2.4923,0.1915,-0.2739,-0.6098,rough,14.0,3,1.648
7110,227.52,6.6754,2.0332,2.6058,0.1771,-0.2728,-0.5685,rough,14.0,3,1.265
7120,227.84,7.0168,1.8168,2.7204,0.1660,-0.2838,-0.5011,rough,14.0,3,0.904
7130,228.16,7.2107,1.7034,2.7830,0.2476,-0.2052,-0.8604,rough,14.0,0,9.194
7140,228.48,7.3014,1.5029,2.8089,0.2932,-0.0976,-1.2336,rough,14.0,0,9.360
7150,228.80,7.3013,1.2637,2.8085,0.3196,0.0169,-1.5804,rough,14.0,0,9.464
7160,229.12,7.2085,1.0163,2.7748,0.2943,0.1206,-1.9139,rough,14.0,0,9.494
7170,229.44,7.0693,0.7642,2.7250,0.2514,0.1801,-2.1345,rough,14.0,0,9.493
7180,229.76,6.8650,0.5172,2.6584,0.2229,0.2252,-2.3335,rough,14.0,0,9.443
7190,230.08,6.6030,0.2850,2.5724,0.1798,0.2611,-2.5203,rough,14.0,0,9.348
7200,230.40,6.2981,0.0834,2.4711,0.1323,0.2816,-2.7072,rough,14.0,0,9.212
7210,230.72,5.9324,-0.0521,2.3517,0.0982,0.3043,-2.8261,rough,14.0,0,9.000
7220,231.04,5.5466,-0.1476,2.2212,0.0659,0.3262,-2.9283,rough,14.0,0,8.759
7230,231.36,5.1422,-0.2208,2.0807,0.0544,0.3455,-2.9923,rough,14.0,0,8.501
7240,231.68,4.7286,-0.2693,1.9253,0.0364,0.3754,-3.0421,rough,14.0,0,8.232
7250,232.00,4.3106,-0.3038,1.7632,0.0407,0.3827,-3.0571,rough,14.0,0,7.962
7260,232.32,3.8887,-0.3364,1.5848,0.0612,0.4093,-3.0228,rough,14.0,0,7.702
7270,232.64,3.4683,-0.3787,1.3921,0.0859,0.4330,-2.9904,rough,14.0,0,7.465
7280,232.96,3.0601,-0.4285,1.1977,0.1229,0.4530,-2.9376,rough,14.0,0,7.258
7290,233.28,2.6575,-0.5085,1.0006,0.1606,0.4247,-2.8558,rough,14.0,0,7.098
7300,233.60,2.3076,-0.5740,0.8353,0.1408,0.4274,-2.9153,rough,14.0,0,6.972
7310,233.92,1.9567,-0.6215,0.6812,0.1214,0.4007,-2.9911,rough,14.0,0,6.845
7320,234.24,1.5973,-0.6547,0.5395,0.1010,0.3286,-3.0393,rough,14.0,0,6.718
7330,234.56,1.2238,-0.6766,0.4198,0.0772,0.2857,-3.0875,rough,14.0,0,6.593
7340,234.88,0.8542,-0.6815,0.3272,0.0566,0.2245,3.1350,rough,14.0,0,6.472
7350,235.20,0.5037,-0.6569,0.2648,0.0207,0.1346,3.0037,rough,14.0,0,6.347
7360,235.52,0.1812,-0.5810,0.2309,-0.0026,0.0656,2.8237,rough,14.0,0,6.195
7370,235.84,-0.1532,-0.4493,0.2075,0.0299,0.0278,2.6694,rough,14.0,0,6.000
7380,236.16,-0.4753,-0.2701,0.2079,0.0114,-0.0020,2.5345,rough,14.0,0,5.776
7390,236.48,-0.7711,-0.0396,0.2106,0.0110,-0.0131,2.3784,rough,14.0,0,5.517
7400,236.80,-1.0389,0.2365,0.2135,0.0102,-0.0138,2.2475,rough,14.0,0,5.228
7410,237.12,-1.2865,0.5527,0.2210,0.0102,-0.0126,2.1611,rough,14.0,0,4.911
7420,237.44,-1.5071,0.9072,0.2255,0.0072,-0.0085,2.0658,rough,14.0,0,4.567
7430,237.76,-1.6941,1.2871,0.2276,0.0013,0.0017,1.9917,rough,14.0,0,4.207
7440,238.08,-1.8506,1.6807,0.2235,-0.0010,0.0120,1.9059,rough,14.0,0,3.841
7450,238.40,-1.9769,2.0958,0.2197,-0.0030,0.0169,1.8317,rough,14.0,0,3.460
7460,238.72,-2.0762,2.5116,0.2099,-0.0078,0.0248,1.7252,rough,14.0,0,3.084
7470,239.04,-2.1356,2.9381,0.1994,-0.0067,0.0282,1.6155,rough,14.0,0,2.699
7480,239.36,-2.1483,3.3685,0.1861,-0.0048,0.0310,1.5107,rough,14.0,0,2.307
7490,239.68,-2.1146,3.8005,0.1711,-0.0025,0.0356,1.4359,rough,14.0,0,1.907
7500,240.00,-2.0469,4.2270,0.1547,0.0045,0.0309,1.3617,rough,14.0,0,1.510
7510,240.32,-1.9487,4.6452,0.1403,0.0015,0.0357,1.2748,rough,14.0,0,1.122
7520,240.64,-1.8212,5.0528,0.1240,0.0163,0.0535,1.2184,rough,14.0,1,2.452
7530,240.96,-1.6716,5.4655,0.1077,0.0102,0.0370,1.2248,rough,14.0,1,2.013
7540,241.28,-1.5236,5.8848,0.0921,0.0144,0.0329,1.2359,rough,14.0,1,1.568
7550,241.60,-1.3817,6.3052,0.0786,0.0185,0.0290,1.2515,rough,14.0,1,1.125
7560,241.92,-1.2596,6.7068,0.0684,0.0208,0.0236,1.2413,rough,14.0,2,7.866
7570,242.24,-1.1589,6.9910,0.0622,0.0169,0.0210,1.0385,rough,14.0,2,7.904
7580,242.56,-1.0075,7.1939,0.0569,0.0119,0.0205,0.7821,rough,14.0,2,7.869
7590,242.88,-0.7822,7.3936,0.0507,0.0096,0.0209,0.5474,rough,14.0,2,7.778
7600,243.20,-0.4889,7.5690,0.0447,0.0075,0.0172,0.3067,rough,14.0,2,7.627
7610,243.52,-0.2227,7.6524,0.0603,-0.0250,-0.0834,0.1880,rough,14.0,2,7.457
7620,243.84,0.0496,7.7092,0.0948,-0.0060,-0.1718,0.0525,rough,14.0,2,7.272
7630,244.16,0.3216,7.7169,0.1649,0.0126,-0.3339,-0.0522,rough,14.0,2,7.062
7640,244.48,0.5764,7.6974,0.2539,0.0260,-0.3438,-0.0634,rough,14.0,2,6.853
7650,244.80,0.8291,7.6728,0.3451,0.0364,-0.3478,-0.0985,rough,14.0,2,6.645
7660,245.12,1.0801,7.6359,0.4366,0.0534,-0.3466,-0.1485,rough,14.0,2,6.434
7670,245.44,1.3335,7.5781,0.5298,0.0799,-0.3470,-0.2255,rough,14.0,2,6.209
7680,245.76,1.6193,7.4914,0.6344,0.1357,-0.3223,-0.3908,rough,14.0,2,5.944
7690,246.08,1.9026,7.3466,0.7420,0.1797,-0.3157,-0.5485,rough,14.0,2,5.642
7700,246.40,2.1801,7.1463,0.8491,0.2297,-0.2852,-0.7196,rough,14.0,2,5.305
7710,246.72,2.4195,6.8885,0.9437,0.2771,-0.2613,-0.8686,rough,14.0,2,4.953
7720,247.04,2.6421,6.6001,1.0331,0.2972,-0.2202,-1.0049,rough,14.0,2,4.591
7730,247.36,2.8144,6.2544,1.1059,0.3266,-0.1751,-1.1458,rough,14.0,2,4.224
7740,247.68,2.9607,5.8846,1.1722,0.3229,-0.1860,-1.1362,rough,14.0,2,3.864
7750,248.00,3.1452,5.5031,1.2495,0.2854,-0.2004,-1.0931,rough,14.0,2,3.475
7760,248.32,3.3377,5.1296,1.3392,0.2979,-0.2190,-1.0352,rough,14.0,2,3.093
7770,248.64,3.5589,4.7711,1.4348,0.2890,-0.2350,-0.9870,rough,14.0,2,2.707
7780,248.96,3.7924,4.4260,1.5339,0.2732,-0.2457,-0.9283,rough,14.0,2,2.329
7790,249.28,4.0446,4.0987,1.6372,0.2516,-0.2590,-0.8651,rough,14.0,2,1.956
7800,249.60,4.3106,3.7920,1.7458,0.2396,-0.2716,-0.7942,rough,14.0,2,1.596
7810,249.92,4.5961,3.5117,1.8582,0.2176,-0.2858,-0.7115,rough,14.0,2,1.250
7820,250.24,4.8921,3.2654,1.9719,0.1881,-0.3009,-0.6081,rough,14.0,2,0.936
7830,250.56,5.1996,3.0518,2.0864,0.1793,-0.2981,-0.5884,rough,14.0,3,2.991
7840,250.88,5.5529,2.8174,2.2166,0.1801,-0.2952,-0.5749,rough,14.0,3,2.573
7850,251.20,5.9101,2.5900,2.3438,0.1722,-0.2938,-0.5533,rough,14.0,3,2.156
7860,251.52,6.2685,2.3684,2.4659,0.1674,-0.2912,-0.5354,rough,14.0,3,1.744
7870,251.84,6.6345,2.1522,2.5900,0.1646,-0.2644,-0.5070,rough,14.0,3,1.331
7880,252.16,6.9917,1.9519,2.7132,0.1620,-0.2860,-0.4860,rough,14.0,3,0.940
7890,252.48,7.2431,1.8324,2.7951,0.2293,-0.2351,-0.7217,rough,14.0,0,9.172
7900,252.80,7.3320,1.6963,2.8250,0.3068,-0.1202,-1.1618,rough,14.0,0,9.308
7910,253.12,7.3711,1.4883,2.8346,0.3235,-0.0140,-1.4843,rough,14.0,0,9.429
7920,253.44,7.2969,1.2410,2.8066,0.3056,0.0992,-1.8399,rough,14.0,0,9.470
7930,253.76,7.1498,0.9912,2.7550,0.2654,0.1765,-2.1104,rough,14.0,0,9.454
7940,254.08,6.9617,0.7369,2.6915,0.2305,0.2211,-2.3012,rough,14.0,0,9.413
7950,254.40,6.7119,0.4920,2.6084,0.1895,0.2542,-2.4781,rough,14.0,0,9.326
7960,254.72,6.4157,0.2827,2.5113,0.1451,0.2837,-2.6555,rough,14.0,0,9.194
7970,255.04,6.0757,0.1123,2.3992,0.0960,0.3061,-2.8332,rough,14.0,0,9.015
7980,255.36,5.6955,0.0087,2.2704,0.0450,0.3244,-2.9754,rough,14.0,0,8.776
7990,255.68,5.2777,-0.0463,2.1280,0.0485,0.3366,-3.0026,rough,14.0,0,8.488
8000,256.00,4.8597,-0.0939,1.9767,0.0466,0.3482,-3.0243,rough,14.0,0,8.207
8010,256.32,4.4423,-0.1298,1.8145,0.0342,0.3725,-3.0578,rough,14.0,0,7.930
8020,256.64,4.0204,-0.1605,1.6403,0.0481,0.4107,-3.0425,rough,14.0,0,7.659
8030,256.96,3.5997,-0.1997,1.4524,0.0664,0.4415,-3.0111,rough,14.0,0,7.410
8040,257.28,3.1803,-0.2526,1.2534,0.1213,0.4496,-2.9173,rough,14.0,0,7.188
8050,257.60,2.7933,-0.3215,1.0616,0.1150,0.4537,-2.9339,rough,14.0,0,7.017
8060,257.92,2.4105,-0.3885,0.8772,0.1442,0.4452,-2.9120,rough,14.0,0,6.865
8070,258.24,2.0473,-0.4540,0.7096,0.1253,0.4008,-2.9498,rough,14.0,0,6.739
