step,time_s,x,y,z,roll,pitch,yaw,terrain,speed,target_idx,dist_to_target
10,0.32,-0.1482,1.4415,0.2260,0.0404,-0.1085,0.0004,rough,14.0,0,4.151
20,0.64,0.0275,1.4322,0.2433,0.0126,-0.0871,0.1788,rough,14.0,0,4.207
30,0.96,0.2415,1.4818,0.2719,0.0057,-0.1615,0.3981,rough,14.0,0,4.227
40,1.28,0.4102,1.6115,0.3019,-0.0610,-0.1806,0.5844,rough,14.0,0,4.166
50,1.60,0.6157,1.7826,0.3461,-0.1346,-0.2285,0.8266,rough,14.0,0,4.095
60,1.92,0.7710,2.0346,0.4104,-0.1676,-0.2087,1.0295,rough,14.0,0,3.944
70,2.24,0.8842,2.3510,0.4569,-0.2394,-0.1540,1.2238,rough,14.0,0,3.734
80,2.56,0.9400,2.7141,0.4875,-0.2908,-0.0758,1.4223,rough,14.0,0,3.471
90,2.88,0.9368,3.1094,0.4947,-0.3211,-0.0109,1.6025,rough,14.0,0,3.165
100,3.20,0.8696,3.5232,0.4733,-0.3144,0.0765,1.7504,rough,14.0,0,2.821
110,3.52,0.7455,3.9280,0.4219,-0.3060,0.1401,1.8919,rough,14.0,0,2.462
120,3.84,0.5826,4.3171,0.3506,-0.2837,0.1784,2.0012,rough,14.0,0,2.102
130,4.16,0.3833,4.6882,0.2632,-0.2713,0.2110,2.0955,rough,14.0,0,1.744
140,4.48,0.1544,5.0243,0.1938,-0.1660,0.1771,2.2250,rough,14.0,0,1.404
150,4.80,-0.1017,5.3307,0.1225,-0.0802,0.1178,2.3724,rough,14.0,0,1.086
160,5.12,-0.3902,5.5942,0.0907,0.0312,0.0693,2.5178,rough,14.0,0,0.800
170,5.44,-0.7009,5.8323,0.0769,0.0354,0.0117,2.4026,rough,14.0,1,1.570
180,5.76,-0.9847,6.1225,0.0737,0.0327,0.0069,2.2656,rough,14.0,1,1.248
190,6.08,-1.2181,6.4494,0.0716,0.0308,0.0036,2.1134,rough,14.0,1,0.942
200,6.40,-1.3987,6.7562,0.0703,0.0374,0.0078,1.7893,rough,14.0,2,8.013
210,6.72,-1.4646,7.0079,0.0701,0.0268,0.0133,1.3580,rough,14.0,2,8.183
220,7.04,-1.4069,7.2472,0.0673,0.0231,0.0174,1.0643,rough,14.0,2,8.244
230,7.36,-1.2572,7.4923,0.0625,0.0202,0.0183,0.8545,rough,14.0,2,8.235
240,7.68,-1.0420,7.7000,0.0574,0.0168,0.0161,0.6436,rough,14.0,2,8.161
250,8.00,-0.7568,7.8948,0.0520,0.0165,0.0159,0.4366,rough,14.0,2,8.032
260,8.32,-0.4194,8.0492,0.0513,-0.0026,0.0093,0.2444,rough,14.0,2,7.851
270,8.64,-0.1046,8.1302,0.0726,-0.0143,-0.1576,0.1250,rough,14.0,2,7.654
280,8.96,0.2398,8.1643,0.1482,0.0144,-0.2798,0.0035,rough,14.0,2,7.412
290,9.28,0.5545,8.1654,0.2508,0.0145,-0.3452,-0.0010,rough,14.0,2,7.179
300,9.60,0.8699,8.1650,0.3650,0.0153,-0.3502,-0.0038,rough,14.0,2,6.950
310,9.92,1.1792,8.1638,0.4782,0.0160,-0.3521,-0.0057,rough,14.0,2,6.732
320,10.24,1.4813,8.1620,0.5899,0.0163,-0.3560,-0.0072,rough,14.0,2,6.526
330,10.56,1.7760,8.1599,0.7000,0.0162,-0.3599,-0.0082,rough,14.0,2,6.332
340,10.88,2.0633,8.1576,0.8082,0.0161,-0.3616,-0.0087,rough,14.0,2,6.150
350,11.20,2.3420,8.1552,0.9143,0.0158,-0.3662,-0.0092,rough,14.0,2,5.982
360,11.52,2.6129,8.1526,1.0183,0.0155,-0.3672,-0.0097,rough,14.0,2,5.826
370,11.84,2.8753,8.1496,1.1197,0.0157,-0.3715,-0.0120,rough,14.0,2,5.683
380,12.16,3.1290,8.1463,1.2185,0.0152,-0.3720,-0.0123,rough,14.0,2,5.552
390,12.48,3.3750,8.1421,1.3149,0.0164,-0.3758,-0.0177,rough,14.0,2,5.433
400,12.80,3.6102,8.1374,1.4077,0.0144,-0.3762,-0.0140,rough,14.0,2,5.327
410,13.12,3.8389,8.1326,1.4983,0.0164,-0.3789,-0.0214,rough,14.0,2,5.231
420,13.44,4.0559,8.1267,1.5848,0.0138,-0.3799,-0.0160,rough,14.0,2,5.147
430,13.76,4.2654,8.1222,1.6685,0.0151,-0.3813,-0.0214,rough,14.0,2,5.075
440,14.08,4.4657,8.1154,1.7489,0.0142,-0.3828,-0.0204,rough,14.0,2,5.010
450,14.40,4.6540,8.1113,1.8247,0.0113,-0.3832,-0.0148,rough,14.0,2,4.958
460,14.72,4.8382,8.1063,1.8990,0.0140,-0.3846,-0.0243,rough,14.0,2,4.913
470,15.04,5.0088,8.1010,1.9681,0.0099,-0.3855,-0.0146,rough,14.0,2,4.876
480,15.36,5.1710,8.0983,2.0338,0.0081,-0.3857,-0.0116,rough,14.0,2,4.849
490,15.68,5.3294,8.0946,2.0982,0.0108,-0.3866,-0.0211,rough,14.0,2,4.827
500,16.00,5.4765,8.0898,2.1580,0.0078,-0.3872,-0.0137,rough,14.0,2,4.809
510,16.32,5.6148,8.0875,2.2143,0.0052,-0.3873,-0.0085,rough,14.0,2,4.798
520,16.64,5.7498,8.0849,2.2694,0.0075,-0.3878,-0.0163,rough,14.0,2,4.792
530,16.96,5.8791,8.0798,2.3222,0.0083,-0.3883,-0.0195,rough,14.0,2,4.786
540,17.28,5.9983,8.0768,2.3709,0.0041,-0.3888,-0.0093,rough,14.0,2,4.786
550,17.60,6.1170,8.0754,2.4195,0.0019,-0.3888,-0.0050,rough,14.0,2,4.790
560,17.92,6.2368,8.0738,2.4686,0.0034,-0.3894,-0.0104,rough,14.0,2,4.798
570,18.24,6.3548,8.0703,2.5170,0.0039,-0.3901,-0.0130,rough,14.0,2,4.806
580,18.56,6.4680,8.0682,2.5635,0.0009,-0.3907,-0.0056,rough,14.0,2,4.817
590,18.88,6.5808,8.0674,2.6099,-0.0010,-0.3907,-0.0025,rough,14.0,2,4.833
600,19.20,6.6930,8.0668,2.6561,-0.0011,-0.3913,-0.0037,rough,14.0,2,4.851
610,19.52,6.8052,8.0654,2.7025,0.0005,-0.3925,-0.0096,rough,14.0,2,4.871
620,19.84,6.9137,8.0633,2.7474,-0.0010,-0.3936,-0.0059,rough,14.0,2,4.892
630,20.16,7.0205,8.0624,2.7916,-0.0030,-0.3937,-0.0018,rough,14.0,2,4.916
640,20.48,7.1265,8.0621,2.8356,-0.0040,-0.3938,-0.0006,rough,14.0,2,4.942
650,20.80,7.2321,8.0615,2.8798,-0.0032,-0.3961,-0.0041,rough,14.0,2,4.970
660,21.12,7.3372,8.0597,2.9239,-0.0016,-0.3986,-0.0094,rough,14.0,2,4.999
670,21.44,7.4378,8.0581,2.9661,-0.0043,-0.4006,-0.0026,rough,14.0,2,5.029
680,21.76,7.5382,8.0577,3.0086,-0.0059,-0.4006,0.0001,rough,14.0,2,5.062
690,22.08,7.6378,8.0577,3.0507,-0.0068,-0.4007,0.0010,rough,14.0,2,5.096
700,22.40,7.7470,8.0572,3.0881,-0.0045,-0.3473,-0.0052,rough,14.0,2,5.136
710,22.72,7.8606,8.0542,3.1265,0.0006,-0.2905,-0.0180,rough,14.0,2,5.177
720,23.04,7.9815,8.0475,3.1612,0.0180,-0.2633,-0.0646,rough,14.0,2,5.219
730,23.36,8.1730,7.9573,3.1603,0.3302,-0.0012,-0.1397,rough,14.0,2,5.220
740,23.68,8.2969,7.8184,3.1451,0.5893,0.1428,-0.4109,rough,14.0,2,5.155
750,24.00,8.4228,7.6841,3.1540,0.6308,-0.0115,-0.6788,rough,14.0,2,5.100
760,24.32,8.5893,7.4429,3.0865,0.6687,0.0977,-0.8069,rough,14.0,2,4.984
770,24.64,8.7711,7.1413,3.0166,0.6760,0.2061,-0.9773,rough,14.0,2,4.845
780,24.96,8.9211,6.7688,2.8682,0.6148,0.3383,-0.9583,rough,14.0,2,4.653
790,25.28,9.0340,6.4299,2.7378,0.6372,0.2740,-1.1561,rough,14.0,2,4.485
800,25.60,9.1687,6.1027,2.6394,0.3319,0.1790,-1.3583,rough,14.0,2,4.365
810,25.92,9.2284,5.7316,2.5698,0.1640,0.1462,-1.4737,rough,14.0,2,4.185
820,26.24,9.2378,5.3954,2.5252,-0.1083,0.1067,-1.6306,rough,14.0,2,4.006
830,26.56,9.2501,5.0690,2.5266,-0.4092,-0.1250,-1.5811,rough,14.0,2,3.856
840,26.88,9.2538,4.7833,2.6069,-0.4417,-0.3842,-1.6077,rough,14.0,2,3.736
850,27.20,9.2530,4.5135,2.7236,-0.4345,-0.4815,-1.6463,rough,14.0,2,3.636
860,27.52,9.2598,4.2795,2.8345,-0.4817,-0.5557,-1.6392,rough,14.0,2,3.571
870,27.84,9.2412,4.0395,2.9812,-0.4482,-0.5756,-1.6624,rough,14.0,2,3.495
880,28.16,9.2202,3.8087,3.1253,-0.4496,-0.5733,-1.6903,rough,14.0,2,3.432
890,28.48,9.1852,3.5910,3.2700,-0.3992,-0.6035,-1.7440,rough,14.0,2,3.371
900,28.80,9.1383,3.3613,3.4162,-0.3479,-0.5445,-1.8095,rough,14.0,2,3.312
910,29.12,9.1038,3.1489,3.5371,-0.3680,-0.5530,-1.8949,rough,14.0,2,3.280
920,29.44,8.9773,2.9037,3.6698,-0.1953,-0.4013,-2.0915,rough,14.0,2,3.174
930,29.76,8.7237,2.6702,3.7316,0.1186,-0.1324,-2.2922,rough,14.0,2,2.963
940,30.08,8.3464,2.3096,3.5490,0.3431,0.6055,-2.1687,rough,14.0,2,2.705
950,30.40,7.8505,1.9392,3.1690,1.7353,1.2611,-0.8162,rough,14.0,2,2.435
960,30.72,7.3016,1.4801,2.6581,3.0041,-0.2791,0.5779,rough,14.0,2,2.337
970,31.04,6.7050,1.1313,2.4598,2.8741,-0.3493,0.7184,rough,14.0,2,2.334
980,31.36,6.3340,0.8742,2.3147,2.9524,-0.2691,0.6013,rough,14.0,2,2.472
990,31.68,6.0414,0.6684,2.2191,3.1135,-0.3200,0.0901,rough,14.0,2,2.634
1000,32.00,5.7813,0.6043,2.1321,-2.9416,-0.2654,-0.6601,rough,14.0,2,2.690
1010,32.32,5.6618,0.6285,2.0908,-2.8139,-0.0566,-1.4093,rough,14.0,2,2.670
1020,32.64,5.6129,0.6625,2.0742,-2.8105,-0.0314,-1.4836,rough,14.0,2,2.640
1030,32.96,5.6038,0.6974,2.0710,-2.8107,-0.0324,-1.4805,rough,14.0,2,2.606
1040,33.28,5.6038,0.7335,2.0709,-2.8107,-0.0324,-1.4804,rough,14.0,2,2.570
1050,33.60,5.6037,0.7711,2.0708,-2.8106,-0.0324,-1.4804,rough,14.0,2,2.533
1060,33.92,5.6037,0.8102,2.0707,-2.8105,-0.0325,-1.4803,rough,14.0,2,2.494
1070,34.24,5.6036,0.8509,2.0706,-2.8103,-0.0325,-1.4802,rough,14.0,2,2.453
1080,34.56,5.6036,0.8931,2.0706,-2.8102,-0.0326,-1.4801,rough,14.0,2,2.411
1090,34.88,5.6035,0.9368,2.0705,-2.8101,-0.0327,-1.4801,rough,14.0,2,2.367
1100,35.20,5.6035,0.9818,2.0704,-2.8100,-0.0328,-1.4800,rough,14.0,2,2.323
1110,35.52,5.5921,1.0278,2.0665,-2.8096,-0.0301,-1.4883,rough,14.0,2,2.278
1120,35.84,5.5896,1.0751,2.0655,-2.8099,-0.0348,-1.4749,rough,14.0,2,2.231
1130,36.16,5.5896,1.1246,2.0654,-2.8098,-0.0349,-1.4747,rough,14.0,2,2.182
1140,36.48,5.5895,1.1758,2.0653,-2.8097,-0.0349,-1.4746,rough,14.0,2,2.131
1150,36.80,5.5894,1.2287,2.0652,-2.8096,-0.0350,-1.4745,rough,14.0,2,2.079
1160,37.12,5.5894,1.2834,2.0651,-2.8093,-0.0351,-1.4744,rough,14.0,2,2.024
1170,37.44,5.5893,1.3402,2.0649,-2.8091,-0.0353,-1.4743,rough,14.0,2,1.968
1180,37.76,5.5836,1.3989,2.0628,-2.8089,-0.0355,-1.4741,rough,14.0,2,1.910
1190,38.08,5.5730,1.4595,2.0590,-2.8106,-0.0514,-1.4281,rough,14.0,2,1.852
1200,38.40,5.5729,1.5217,2.0589,-2.8105,-0.0516,-1.4282,rough,14.0,2,1.790
1210,38.72,5.5728,1.5861,2.0587,-2.8104,-0.0520,-1.4280,rough,14.0,2,1.726
1220,39.04,5.5686,1.6536,2.0571,-2.8113,-0.0593,-1.4071,rough,14.0,2,1.660
1230,39.36,5.5497,1.7236,2.0503,-2.8099,-0.0537,-1.4241,rough,14.0,2,1.594
1240,39.68,5.5493,1.7967,2.0500,-2.8094,-0.0541,-1.4240,rough,14.0,2,1.523
1250,40.00,5.5399,1.8728,2.0464,-2.8134,-0.0777,-1.3557,rough,14.0,2,1.450
1260,40.32,5.5392,1.9518,2.0460,-2.8131,-0.0789,-1.3533,rough,14.0,2,1.373
1270,40.64,5.5346,2.0339,2.0441,-2.8146,-0.0864,-1.3340,rough,14.0,2,1.293
1280,40.96,5.5219,2.1206,2.0392,-2.8140,-0.0865,-1.3351,rough,14.0,2,1.212
1290,41.28,5.5048,2.2119,2.0327,-2.8207,-0.1132,-1.2577,rough,14.0,2,1.129
1300,41.60,5.4826,2.3078,2.0245,-2.8186,-0.1125,-1.2640,rough,14.0,2,1.044
1310,41.92,5.4597,2.4084,2.0157,-2.8320,-0.1492,-1.1548,rough,14.0,2,0.959
1320,42.24,5.4414,2.5152,2.0086,-2.8267,-0.1399,-1.1890,rough,14.0,2,0.869
1330,42.56,5.3904,2.6286,1.9897,-2.8512,-0.1894,-1.0308,rough,14.0,3,2.659
1340,42.88,5.1881,2.7820,1.9134,-3.0197,-0.3257,-0.4240,rough,14.0,3,2.900
1350,43.20,4.8391,2.8391,1.7855,-3.0923,-0.3574,-0.1400,rough,14.0,3,3.249
1360,43.52,4.5539,2.8632,1.6808,-3.1228,-0.3571,-0.0831,rough,14.0,3,3.528
1370,43.84,4.2719,2.8611,1.5736,3.1333,-0.3723,-0.0065,rough,14.0,3,3.797
1380,44.16,3.9767,2.8604,1.4621,-3.1412,-0.3666,-0.0195,rough,14.0,3,4.081
1390,44.48,3.6683,2.8597,1.3425,-3.0965,-0.3748,-0.1330,rough,14.0,3,4.380
1400,44.80,3.3850,2.8592,1.2312,-3.1051,-0.3744,-0.0778,rough,14.0,3,4.655
1410,45.12,3.0942,2.8534,1.1151,-3.1113,-0.3799,-0.0578,rough,14.0,3,4.938
1420,45.44,2.7913,2.8569,0.9952,-3.0677,-0.3767,-0.1395,rough,14.0,3,5.235
1430,45.76,2.5056,2.8555,0.8822,-3.0841,-0.3705,-0.0868,rough,14.0,3,5.515
1440,46.08,2.2101,2.8574,0.7678,-3.0784,-0.3595,-0.0936,rough,14.0,3,5.806
1450,46.40,1.9202,2.8634,0.6587,-3.0833,-0.3550,-0.0695,rough,14.0,3,6.092
1460,46.72,1.6313,2.8696,0.5546,-3.0970,-0.3332,-0.0287,rough,14.0,3,6.378
1470,47.04,1.3357,2.8757,0.4542,-3.1101,-0.3304,-0.0201,rough,14.0,3,6.670
1480,47.36,1.0393,2.8793,0.3570,-3.1140,-0.3056,-0.0122,rough,14.0,3,6.964
1490,47.68,0.7424,2.8822,0.2637,-3.1310,-0.2959,0.0063,rough,14.0,3,7.258
1500,48.00,0.4409,2.8836,0.1773,3.1301,-0.2973,0.0046,rough,14.0,3,7.556
1510,48.32,0.1374,2.8830,0.1073,3.1201,-0.1592,0.0031,rough,14.0,3,7.857
1520,48.64,-0.1496,2.8833,0.0665,3.1015,-0.1220,0.1145,rough,14.0,3,8.141
1530,48.96,-0.4124,2.8821,0.0477,3.1087,-0.0060,0.1183,rough,14.0,3,8.402
1540,49.28,-0.6687,2.8819,0.0464,3.1079,0.0005,0.1159,rough,14.0,3,8.656
1550,49.60,-0.9276,2.8818,0.0458,3.1085,0.0000,0.1156,rough,14.0,3,8.913
1560,49.92,-1.1865,2.8818,0.0450,3.1088,-0.0002,0.1156,rough,14.0,3,9.170
1570,50.24,-1.4401,2.8819,0.0441,3.1095,-0.0016,0.1051,rough,14.0,3,9.422
1580,50.56,-1.6837,2.8820,0.0430,3.1102,-0.0018,0.1059,rough,14.0,3,9.664
1590,50.88,-1.9339,2.8817,0.0418,3.1115,-0.0036,0.1051,rough,14.0,3,9.913
1600,51.20,-2.1977,2.8817,0.0402,3.1128,-0.0034,0.1056,rough,14.0,3,10.175
1610,51.52,-2.4642,2.8823,0.0384,3.1152,-0.0065,0.0996,rough,14.0,3,10.440
1620,51.84,-2.7234,2.8823,0.0362,3.1178,-0.0071,0.1003,rough,14.0,3,10.698
1630,52.16,-2.9841,2.8826,0.0340,3.1196,-0.0077,0.0967,rough,14.0,3,10.957
1640,52.48,-3.2507,2.8827,0.0312,3.1248,-0.0101,0.0899,rough,14.0,3,11.223
1650,52.80,-3.5265,2.8826,0.0284,3.1283,-0.0098,0.0902,rough,14.0,3,11.497
1660,53.12,-3.8045,2.8825,0.0252,3.1334,-0.0137,0.0904,rough,14.0,3,11.774
1670,53.44,-4.0796,2.8824,0.0222,3.1378,-0.0112,0.0859,rough,14.0,3,12.048
1680,53.76,-4.3573,2.8824,0.0187,3.1411,-0.0140,0.0861,rough,14.0,3,12.325
1690,54.08,-4.6351,2.8817,0.0158,-3.1354,-0.0125,0.0826,rough,14.0,3,12.601
1700,54.40,-4.9133,2.8817,0.0122,-3.1324,-0.0150,0.0827,rough,14.0,3,12.879
1710,54.72,-5.1905,2.8812,0.0093,-3.1265,-0.0129,0.0787,rough,14.0,3,13.155
1720,55.04,-5.4716,2.8811,0.0060,-3.1226,-0.0152,0.0788,rough,14.0,3,13.435
1730,55.36,-5.7526,2.8806,0.0029,-3.1174,-0.0142,0.0777,rough,14.0,3,13.715
1740,55.68,-6.0320,2.8801,-0.0002,-3.1136,-0.0138,0.0750,rough,14.0,3,13.993
1750,56.00,-6.3128,2.8801,-0.0031,-3.1090,-0.0145,0.0751,rough,14.0,3,14.274
1760,56.32,-6.5911,2.8792,-0.0058,-3.1055,-0.0117,0.0736,rough,14.0,3,14.551
1770,56.64,-6.8738,2.8785,-0.0084,-3.1024,-0.0128,0.0723,rough,14.0,3,14.833
1780,56.96,-7.1506,2.8777,-0.0106,-3.0985,-0.0106,0.0698,rough,14.0,3,15.109
1790,57.28,-7.4260,2.8773,-0.0127,-3.0962,-0.0107,0.0610,rough,14.0,3,15.384
1800,57.60,-7.6997,2.8768,-0.0145,-3.0929,-0.0091,0.0674,rough,14.0,3,15.657
1810,57.92,-7.9744,2.8758,-0.0162,-3.0910,-0.0094,0.0650,rough,14.0,3,15.931
1820,58.24,-8.2463,2.8753,-0.0176,-3.0892,-0.0078,0.0597,rough,14.0,3,16.202
1830,58.56,-8.5232,2.8753,-0.0186,-3.0872,-0.0070,0.0600,rough,14.0,3,16.478
1840,58.88,-8.8041,2.8753,-0.0195,-3.0859,-0.0058,0.0601,rough,14.0,3,16.759
1850,59.20,-9.0872,2.8753,-0.0200,-3.0849,-0.0048,0.0603,rough,14.0,3,17.041
1860,59.52,-9.3718,2.8753,-0.0203,-3.0844,-0.0038,0.0604,rough,14.0,3,17.325
1870,59.84,-9.6565,2.8753,-0.0203,-3.0843,-0.0031,0.0606,rough,14.0,3,17.609
1880,60.16,-9.9235,2.8736,-0.0200,-3.0845,-0.0005,0.0436,rough,14.0,3,17.876
1890,60.48,-10.1835,2.8730,-0.0196,-3.0852,-0.0014,0.0568,rough,14.0,3,18.135
1900,60.80,-10.4412,2.8730,-0.0188,-3.0861,0.0011,0.0571,rough,14.0,3,18.392
1910,61.12,-10.6951,2.8673,-0.0182,-3.0876,0.0007,0.0489,rough,14.0,3,18.646
1920,61.44,-10.9440,2.8455,-0.0180,-3.0892,0.0045,0.0298,rough,14.0,3,18.893
1930,61.76,-11.1788,2.8322,-0.0174,-3.0912,0.0003,0.0958,rough,14.0,3,19.127
1940,62.08,-11.3909,2.8161,-0.0167,-3.0935,0.0069,0.0062,rough,14.0,3,19.338
1950,62.40,-11.5891,2.8101,-0.0157,-3.0946,0.0057,0.0686,rough,14.0,3,19.535
1960,62.72,-11.7794,2.7974,-0.0146,-3.0968,0.0060,0.0215,rough,14.0,3,19.725
1970,63.04,-11.9619,2.7839,-0.0134,-3.0996,0.0074,0.0598,rough,14.0,3,19.906
1980,63.36,-12.1272,2.7687,-0.0127,-3.1007,0.0085,0.0573,rough,14.0,3,20.071
1990,63.68,-12.2779,2.7509,-0.0118,-3.1027,0.0066,0.0594,rough,14.0,3,20.220
2000,64.00,-12.4148,2.7304,-0.0108,-3.1036,0.0108,0.0468,rough,14.0,3,20.356
2010,64.32,-12.5544,2.7197,-0.0098,-3.1063,0.0124,0.0696,rough,14.0,3,20.495
2020,64.64,-12.6867,2.7101,-0.0087,-3.1088,0.0117,0.0095,rough,14.0,3,20.627
2030,64.96,-12.8022,2.7033,-0.0074,-3.1093,0.0086,0.0834,rough,14.0,3,20.742
2040,65.28,-12.8976,2.6953,-0.0062,-3.1105,0.0105,0.0745,rough,14.0,3,20.837
2050,65.60,-12.9841,2.6874,-0.0053,-3.1115,0.0145,0.0485,rough,14.0,3,20.923
2060,65.92,-13.0518,2.6746,-0.0048,-3.1129,0.0172,0.0194,rough,14.0,3,20.990
2070,66.24,-13.1146,2.6667,-0.0043,-3.1142,0.0152,0.0498,rough,14.0,3,21.053
2080,66.56,-13.1633,2.6557,-0.0040,-3.1147,0.0147,0.0543,rough,14.0,3,21.101
2090,66.88,-13.1996,2.6398,-0.0040,-3.1157,0.0150,0.0266,rough,14.0,3,21.136
2100,67.20,-13.2298,2.6242,-0.0040,-3.1159,0.0140,0.0537,rough,14.0,3,21.166
2110,67.52,-13.2506,2.6075,-0.0041,-3.1168,0.0145,0.0257,rough,14.0,3,21.186
2120,67.84,-13.2559,2.5910,-0.0045,-3.1168,0.0143,0.0382,rough,14.0,3,21.191
2130,68.16,-13.2494,2.5732,-0.0049,-3.1182,0.0133,0.0265,rough,14.0,3,21.184
2140,68.48,-13.2311,2.5570,-0.0055,-3.1182,0.0129,0.0397,rough,14.0,3,21.165
2150,68.80,-13.2006,2.5441,-0.0062,-3.1176,0.0139,0.0241,rough,14.0,3,21.134
2160,69.12,-13.1586,2.5308,-0.0071,-3.1146,0.0162,0.0349,rough,14.0,3,21.091
2170,69.44,-13.0985,2.5135,-0.0087,-3.1127,0.0173,0.0383,rough,14.0,3,21.031
2180,69.76,-13.0189,2.4942,-0.0106,-3.1126,0.0166,0.0350,rough,14.0,3,20.951
2190,70.08,-12.9262,2.4797,-0.0125,-3.1120,0.0153,0.0247,rough,14.0,3,20.857
2200,70.40,-12.8135,2.4676,-0.0145,-3.1112,0.0136,0.0156,rough,14.0,3,20.744
2210,70.72,-12.6963,2.4566,-0.0166,-3.1097,0.0119,0.0360,rough,14.0,3,20.627
2220,71.04,-12.5672,2.4425,-0.0193,-3.1063,0.0158,0.0467,rough,14.0,3,20.497
2230,71.36,-12.4192,2.4330,-0.0217,-3.1055,0.0148,0.0232,rough,14.0,3,20.349
2240,71.68,-12.2493,2.4195,-0.0247,-3.1045,0.0098,0.0350,rough,14.0,3,20.179
2250,72.00,-12.0640,2.4054,-0.0280,-3.1011,0.0156,0.0160,rough,14.0,3,19.993
2260,72.32,-11.8746,2.3912,-0.0308,-3.1006,0.0119,0.0214,rough,14.0,3,19.804
2270,72.64,-11.6732,2.3771,-0.0340,-3.0987,0.0087,0.0419,rough,14.0,3,19.602
2280,72.96,-11.4540,2.3689,-0.0369,-3.0965,0.0112,0.0253,rough,14.0,3,19.383
2290,73.28,-11.2201,2.3565,-0.0400,-3.0949,0.0061,0.0445,rough,14.0,3,19.148
2300,73.60,-10.9765,2.3468,-0.0427,-3.0933,0.0098,0.0078,rough,14.0,3,18.905
2310,73.92,-10.7244,2.3369,-0.0454,-3.0919,0.0043,0.0311,rough,14.0,3,18.652
2320,74.24,-10.4742,2.3303,-0.0473,-3.0908,0.0060,0.0242,rough,14.0,3,18.402
2330,74.56,-10.2181,2.3257,-0.0490,-3.0899,0.0017,0.0275,rough,14.0,3,18.146
2340,74.88,-9.9578,2.3213,-0.0501,-3.0894,0.0023,0.0255,rough,14.0,3,17.886
2350,75.20,-9.6944,2.3168,-0.0509,-3.0893,-0.0009,0.0242,rough,14.0,3,17.622
2360,75.52,-9.4302,2.3121,-0.0512,-3.0894,-0.0013,0.0230,rough,14.0,3,17.358
2370,75.84,-9.1665,2.3077,-0.0511,-3.0898,-0.0037,0.0236,rough,14.0,3,17.094
2380,76.16,-8.9050,2.3035,-0.0505,-3.0906,-0.0050,0.0235,rough,14.0,3,16.833
2390,76.48,-8.6473,2.3005,-0.0495,-3.0915,-0.0068,0.0242,rough,14.0,3,16.575
2400,76.80,-8.3961,2.2977,-0.0480,-3.0928,-0.0086,0.0266,rough,14.0,3,16.324
2410,77.12,-8.1526,2.2972,-0.0461,-3.0941,-0.0096,0.0266,rough,14.0,3,16.081
2420,77.44,-7.9147,2.2956,-0.0440,-3.0957,-0.0119,0.0284,rough,14.0,3,15.843
2430,77.76,-7.6830,2.2955,-0.0415,-3.0974,-0.0120,0.0286,rough,14.0,3,15.611
2440,78.08,-7.4593,2.2950,-0.0389,-3.1000,-0.0145,0.0286,rough,14.0,3,15.387
2450,78.40,-7.2456,2.2949,-0.0360,-3.1012,-0.0148,0.0287,rough,14.0,3,15.174
2460,78.72,-7.0487,2.2947,-0.0334,-3.1039,-0.0164,0.0292,rough,14.0,3,14.977
2470,79.04,-6.8655,2.2946,-0.0305,-3.1056,-0.0174,0.0292,rough,14.0,3,14.794
2480,79.36,-6.6981,2.2946,-0.0278,-3.1070,-0.0169,0.0292,rough,14.0,3,14.627
2490,79.68,-6.5484,2.2945,-0.0255,-3.1095,-0.0187,0.0292,rough,14.0,3,14.477
2500,80.00,-6.4178,2.2945,-0.0232,-3.1117,-0.0192,0.0292,rough,14.0,3,14.347
2510,80.32,-6.3096,2.2944,-0.0212,-3.1116,-0.0198,0.0292,rough,14.0,3,14.238
2520,80.64,-6.2202,2.2944,-0.0196,-3.1128,-0.0189,0.0293,rough,14.0,3,14.149
2530,80.96,-6.1511,2.2944,-0.0184,-3.1138,-0.0187,0.0293,rough,14.0,3,14.080
2540,81.28,-6.1020,2.2944,-0.0175,-3.1150,-0.0190,0.0293,rough,14.0,3,14.031
2550,81.60,-6.0728,2.2944,-0.0170,-3.1153,-0.0199,0.0293,rough,14.0,3,14.002
2560,81.92,-6.0636,2.2944,-0.0168,-3.1157,-0.0199,0.0293,rough,14.0,3,13.992
2570,82.24,-6.0726,2.2944,-0.0170,-3.1156,-0.0196,0.0293,rough,14.0,3,14.002
2580,82.56,-6.0999,2.2944,-0.0175,-3.1151,-0.0190,0.0294,rough,14.0,3,14.029
2590,82.88,-6.1460,2.2944,-0.0183,-3.1139,-0.0187,0.0294,rough,14.0,3,14.075
2600,83.20,-6.2076,2.2944,-0.0193,-3.1130,-0.0187,0.0293,rough,14.0,3,14.136
2610,83.52,-6.2875,2.2944,-0.0208,-3.1119,-0.0196,0.0293,rough,14.0,3,14.216
2620,83.84,-6.3858,2.2944,-0.0226,-3.1116,-0.0194,0.0293,rough,14.0,3,14.314
2630,84.16,-6.5019,2.2944,-0.0246,-3.1098,-0.0202,0.0290,rough,14.0,3,14.431
2640,84.48,-6.6364,2.2944,-0.0269,-3.1081,-0.0170,0.0291,rough,14.0,3,14.565
2650,84.80,-6.7830,2.2945,-0.0292,-3.1060,-0.0174,0.0291,rough,14.0,3,14.712
2660,85.12,-6.9440,2.2946,-0.0317,-3.1052,-0.0171,0.0291,rough,14.0,3,14.872
2670,85.44,-7.1179,2.2945,-0.0344,-3.1031,-0.0150,0.0291,rough,14.0,3,15.046
2680,85.76,-7.3083,2.2945,-0.0369,-3.1007,-0.0149,0.0291,rough,14.0,3,15.237
2690,86.08,-7.5119,2.2945,-0.0396,-3.0995,-0.0143,0.0293,rough,14.0,3,15.440
2700,86.40,-7.7285,2.2944,-0.0421,-3.0972,-0.0120,0.0302,rough,14.0,3,15.657
2710,86.72,-7.9593,2.2944,-0.0445,-3.0956,-0.0116,0.0299,rough,14.0,3,15.887
2720,87.04,-8.2011,2.2935,-0.0467,-3.0939,-0.0093,0.0307,rough,14.0,3,16.129
2730,87.36,-8.4618,2.2914,-0.0487,-3.0926,-0.0081,0.0227,rough,14.0,3,16.389
2740,87.68,-8.7303,2.2874,-0.0506,-3.0913,-0.0064,0.0238,rough,14.0,3,16.658
2750,88.00,-9.0016,2.2834,-0.0519,-3.0906,-0.0042,0.0220,rough,14.0,3,16.929
2760,88.32,-9.2758,2.2787,-0.0528,-3.0900,-0.0029,0.0214,rough,14.0,3,17.203
2770,88.64,-9.5515,2.2731,-0.0533,-3.0899,-0.0004,0.0204,rough,14.0,3,17.478
2780,88.96,-9.8270,2.2670,-0.0532,-3.0902,0.0008,0.0187,rough,14.0,3,17.753
2790,89.28,-10.1002,2.2600,-0.0528,-3.0906,0.0033,0.0170,rough,14.0,3,18.026
2800,89.60,-10.3683,2.2510,-0.0519,-3.0917,0.0043,0.0259,rough,14.0,3,18.294
2810,89.92,-10.6177,2.2413,-0.0508,-3.0928,0.0060,0.0355,rough,14.0,3,18.543
2820,90.24,-10.8586,2.2317,-0.0492,-3.0944,0.0080,0.0093,rough,14.0,3,18.784
2830,90.56,-11.0893,2.2191,-0.0476,-3.0959,0.0111,0.0142,rough,14.0,3,19.014
2840,90.88,-11.3126,2.2098,-0.0456,-3.0981,0.0102,0.0049,rough,14.0,3,19.237
2850,91.20,-11.5393,2.1994,-0.0446,-3.1066,0.0152,0.0251,rough,14.0,3,19.464
2860,91.52,-11.7527,2.1888,-0.0410,-3.1026,0.0125,0.0116,rough,14.0,3,19.677
2870,91.84,-11.9462,2.1748,-0.0381,-3.1032,0.0163,0.0167,rough,14.0,3,19.870
2880,92.16,-12.1259,2.1620,-0.0359,-3.1056,0.0181,0.0093,rough,14.0,3,20.049
2890,92.48,-12.2888,2.1531,-0.0335,-3.1076,0.0161,0.0168,rough,14.0,3,20.212
2900,92.80,-12.4261,2.1443,-0.0311,-3.1094,0.0194,-0.0043,rough,14.0,3,20.349
2910,93.12,-12.5441,2.1392,-0.0292,-3.1097,0.0213,0.0308,rough,14.0,3,20.467
2920,93.44,-12.6460,2.1349,-0.0274,-3.1117,0.0208,0.0146,rough,14.0,3,20.569
2930,93.76,-12.7293,2.1281,-0.0261,-3.1133,0.0198,-0.0032,rough,14.0,3,20.652
2940,94.08,-12.7978,2.1227,-0.0249,-3.1137,0.0190,0.0228,rough,14.0,3,20.721
2950,94.40,-12.8535,2.1143,-0.0239,-3.1152,0.0201,0.0040,rough,14.0,3,20.776
2960,94.72,-12.8879,2.1063,-0.0234,-3.1156,0.0202,0.0157,rough,14.0,3,20.811
2970,95.04,-12.8997,2.0971,-0.0234,-3.1156,0.0205,0.0220,rough,14.0,3,20.822
2980,95.36,-12.8939,2.0868,-0.0238,-3.1159,0.0212,0.0033,rough,14.0,3,20.816
2990,95.68,-12.8663,2.0774,-0.0247,-3.1159,0.0207,-0.0008,rough,14.0,3,20.789
3000,96.00,-12.8160,2.0697,-0.0260,-3.1146,0.0195,0.0250,rough,14.0,3,20.738
3010,96.32,-12.7413,2.0625,-0.0278,-3.1145,0.0190,0.0083,rough,14.0,3,20.663
3020,96.64,-12.6450,2.0545,-0.0297,-3.1123,0.0210,0.0149,rough,14.0,3,20.567
3030,96.96,-12.5227,2.0458,-0.0326,-3.1102,0.0212,0.0249,rough,14.0,3,20.445
3040,97.28,-12.3804,2.0387,-0.0357,-3.1095,0.0187,0.0142,rough,14.0,3,20.302
3050,97.60,-12.2181,2.0301,-0.0390,-3.1086,0.0165,0.0111,rough,14.0,3,20.140
3060,97.92,-12.0371,2.0202,-0.0427,-3.1051,0.0195,0.0099,rough,14.0,3,19.959
3070,98.24,-11.8365,2.0099,-0.0465,-3.1035,0.0158,0.0123,rough,14.0,3,19.758
3080,98.56,-11.6206,2.0003,-0.0502,-3.1012,0.0162,-0.0032,rough,14.0,3,19.542
3090,98.88,-11.3838,1.9927,-0.0541,-3.0996,0.0136,0.0116,rough,14.0,3,19.305
3100,99.20,-11.1309,1.9827,-0.0578,-3.0973,0.0122,0.0104,rough,14.0,3,19.052
3110,99.52,-10.8620,1.9763,-0.0612,-3.0960,0.0101,0.0116,rough,14.0,3,18.783
3120,99.84,-10.5800,1.9675,-0.0643,-3.0950,0.0089,-0.0034,rough,14.0,3,18.501
3130,100.16,-10.2958,1.9613,-0.0666,-3.0939,0.0050,0.0156,rough,14.0,3,18.217
3140,100.48,-10.0119,1.9527,-0.0685,-3.0936,0.0043,0.0111,rough,14.0,3,17.933
3150,100.80,-9.7225,1.9425,-0.0697,-3.0935,0.0002,0.0113,rough,14.0,3,17.644
3160,101.12,-9.4335,1.9317,-0.0703,-3.0937,-0.0006,0.0096,rough,14.0,3,17.354
3170,101.44,-9.1442,1.9210,-0.0703,-3.0942,-0.0037,0.0098,rough,14.0,3,17.065
3180,101.76,-8.8578,1.9102,-0.0695,-3.0952,-0.0059,0.0105,rough,14.0,3,16.779
3190,102.08,-8.5755,1.9009,-0.0681,-3.0962,-0.0080,0.0128,rough,14.0,3,16.496
3200,102.40,-8.3004,1.8914,-0.0660,-3.0977,-0.0092,-0.0131,rough,14.0,3,16.221
3210,102.72,-8.0339,1.8854,-0.0634,-3.0992,-0.0113,-0.0088,rough,14.0,3,15.955
3220,103.04,-7.7776,1.8814,-0.0602,-3.1016,-0.0142,0.0167,rough,14.0,3,15.698
3230,103.36,-7.5362,1.8780,-0.0568,-3.1029,-0.0155,-0.0005,rough,14.0,3,15.457
3240,103.68,-7.3080,1.8752,-0.0532,-3.1056,-0.0175,0.0147,rough,14.0,3,15.229
3250,104.00,-7.0906,1.8706,-0.0495,-3.1069,-0.0184,0.0018,rough,14.0,3,15.011
3260,104.32,-6.8935,1.8665,-0.0459,-3.1092,-0.0202,-0.0016,rough,14.0,3,14.814
3270,104.64,-6.7168,1.8626,-0.0422,-3.1102,-0.0213,-0.0008,rough,14.0,3,14.637
3280,104.96,-6.5633,1.8544,-0.0393,-3.1126,-0.0218,0.0018,rough,14.0,3,14.484
3290,105.28,-6.4329,1.8452,-0.0367,-3.1144,-0.0239,0.0020,rough,14.0,3,14.353
3300,105.60,-6.3271,1.8388,-0.0343,-3.1152,-0.0241,0.0023,rough,14.0,3,14.248
3310,105.92,-6.2462,1.8333,-0.0325,-3.1156,-0.0245,0.0053,rough,14.0,3,14.167
3320,106.24,-6.1906,1.8295,-0.0312,-3.1161,-0.0242,0.0001,rough,14.0,3,14.111
3330,106.56,-6.1597,1.8267,-0.0306,-3.1168,-0.0244,0.0099,rough,14.0,3,14.080
3340,106.88,-6.1527,1.8236,-0.0305,-3.1167,-0.0242,-0.0012,rough,14.0,3,14.073
3350,107.20,-6.1700,1.8201,-0.0310,-3.1166,-0.0244,0.0070,rough,14.0,3,14.090
3360,107.52,-6.2113,1.8164,-0.0320,-3.1160,-0.0243,-0.0015,rough,14.0,3,14.132
3370,107.84,-6.2773,1.8124,-0.0337,-3.1156,-0.0242,-0.0017,rough,14.0,3,14.198
3380,108.16,-6.3672,1.8075,-0.0361,-3.1155,-0.0238,0.0037,rough,14.0,3,14.288
3390,108.48,-6.4798,1.7992,-0.0390,-3.1142,-0.0246,0.0088,rough,14.0,3,14.400
3400,108.80,-6.6128,1.7967,-0.0421,-3.1124,-0.0217,-0.0065,rough,14.0,3,14.533
3410,109.12,-6.7713,1.7913,-0.0456,-3.1109,-0.0218,0.0099,rough,14.0,3,14.692
3420,109.44,-6.9535,1.7862,-0.0496,-3.1100,-0.0200,-0.0066,rough,14.0,3,14.874
3430,109.76,-7.1523,1.7828,-0.0537,-3.1077,-0.0189,0.0129,rough,14.0,3,15.073
3440,110.08,-7.3818,1.7773,-0.0580,-3.1056,-0.0176,-0.0052,rough,14.0,3,15.302
3450,110.40,-7.6304,1.7725,-0.0623,-3.1039,-0.0162,0.0118,rough,14.0,3,15.551
3460,110.72,-7.8908,1.7663,-0.0664,-3.1020,-0.0134,-0.0106,rough,14.0,3,15.811
3470,111.04,-8.1640,1.7623,-0.0700,-3.1007,-0.0121,0.0098,rough,14.0,3,16.085
3480,111.36,-8.4454,1.7571,-0.0732,-3.0993,-0.0090,-0.0055,rough,14.0,3,16.366
3490,111.68,-8.7257,1.7525,-0.0757,-3.0984,-0.0078,0.0081,rough,14.0,3,16.646
3500,112.00,-9.0057,1.7481,-0.0775,-3.0977,-0.0037,-0.0060,rough,14.0,3,16.926
3510,112.32,-9.2852,1.7438,-0.0785,-3.0973,-0.0027,0.0080,rough,14.0,3,17.206
3520,112.64,-9.5641,1.7397,-0.0790,-3.0973,0.0014,-0.0070,rough,14.0,3,17.485
3530,112.96,-9.8419,1.7356,-0.0786,-3.0976,0.0024,0.0065,rough,14.0,3,17.763
3540,113.28,-10.1167,1.7316,-0.0777,-3.0983,0.0059,-0.0089,rough,14.0,3,18.037
3550,113.60,-10.3873,1.7273,-0.0761,-3.0991,0.0072,0.0084,rough,14.0,3,18.308
3560,113.92,-10.6519,1.7234,-0.0740,-3.1002,0.0104,-0.0096,rough,14.0,3,18.573
3570,114.24,-10.9054,1.7192,-0.0712,-3.1013,0.0122,0.0019,rough,14.0,3,18.826
3580,114.56,-11.1500,1.7151,-0.0683,-3.1029,0.0148,-0.0097,rough,14.0,3,19.071
3590,114.88,-11.3817,1.7110,-0.0648,-3.1043,0.0156,0.0052,rough,14.0,3,19.302
3600,115.20,-11.5981,1.7069,-0.0615,-3.1062,0.0194,-0.0109,rough,14.0,3,19.519
3610,115.52,-11.7975,1.7032,-0.0580,-3.1079,0.0172,0.0049,rough,14.0,3,19.718
3620,115.84,-11.9808,1.6986,-0.0543,-3.1091,0.0224,-0.0058,rough,14.0,3,19.902
3630,116.16,-12.1442,1.6941,-0.0513,-3.1106,0.0220,0.0086,rough,14.0,3,20.065
3640,116.48,-12.2891,1.6898,-0.0482,-3.1123,0.0208,0.0058,rough,14.0,3,20.210
3650,116.80,-12.4136,1.6860,-0.0452,-3.1130,0.0237,0.0036,rough,14.0,3,20.334
3660,117.12,-12.5145,1.6821,-0.0430,-3.1141,0.0265,-0.0019,rough,14.0,3,20.435
3670,117.44,-12.5967,1.6734,-0.0415,-3.1155,0.0267,-0.0056,rough,14.0,3,20.518
3680,117.76,-12.6539,1.6671,-0.0403,-3.1163,0.0259,-0.0077,rough,14.0,3,20.575
3690,118.08,-12.6824,1.6642,-0.0396,-3.1165,0.0253,0.0017,rough,14.0,3,20.603
3700,118.40,-12.6911,1.6613,-0.0395,-3.1169,0.0256,-0.0130,rough,14.0,3,20.612
3710,118.72,-12.6756,1.6590,-0.0399,-3.1164,0.0255,0.0006,rough,14.0,3,20.597
3720,119.04,-12.6389,1.6565,-0.0409,-3.1165,0.0264,-0.0155,rough,14.0,3,20.560
3730,119.36,-12.5719,1.6547,-0.0426,-3.1154,0.0271,-0.0023,rough,14.0,3,20.493
3740,119.68,-12.4815,1.6531,-0.0446,-3.1143,0.0261,-0.0110,rough,14.0,3,20.403
3750,120.00,-12.3692,1.6504,-0.0475,-3.1139,0.0227,0.0015,rough,14.0,3,20.290
3760,120.32,-12.2340,1.6473,-0.0509,-3.1128,0.0219,-0.0103,rough,14.0,3,20.155
3770,120.64,-12.0796,1.6439,-0.0542,-3.1109,0.0234,0.0057,rough,14.0,3,20.001
3780,120.96,-11.9150,1.6398,-0.0577,-3.1099,0.0207,-0.0038,rough,14.0,3,19.836
3790,121.28,-11.7322,1.6372,-0.0617,-3.1089,0.0183,-0.0185,rough,14.0,3,19.654
3800,121.60,-11.5313,1.6345,-0.0654,-3.1069,0.0201,-0.0045,rough,14.0,3,19.453
3810,121.92,-11.3076,1.6318,-0.0692,-3.1060,0.0160,-0.0207,rough,14.0,3,19.229
3820,122.24,-11.0689,1.6293,-0.0729,-3.1041,0.0155,0.0007,rough,14.0,3,18.990
3830,122.56,-10.8193,1.6235,-0.0763,-3.1029,0.0109,0.0106,rough,14.0,3,18.741
3840,122.88,-10.5626,1.6200,-0.0793,-3.1019,0.0110,-0.0049,rough,14.0,3,18.484
3850,123.20,-10.3014,1.6161,-0.0816,-3.1012,0.0071,-0.0107,rough,14.0,3,18.223
3860,123.52,-10.0318,1.6118,-0.0835,-3.1005,0.0064,-0.0101,rough,14.0,3,17.953
3870,123.84,-9.7676,1.6089,-0.0845,-3.1000,0.0025,-0.0189,rough,14.0,3,17.689
3880,124.16,-9.5012,1.6053,-0.0850,-3.0999,0.0016,-0.0153,rough,14.0,3,17.423
3890,124.48,-9.2320,1.6000,-0.0849,-3.1001,-0.0020,-0.0347,rough,14.0,3,17.154
3900,124.80,-8.9722,1.5977,-0.0839,-3.1007,-0.0044,-0.0017,rough,14.0,3,16.894
3910,125.12,-8.7174,1.5942,-0.0824,-3.1012,-0.0077,-0.0143,rough,14.0,3,16.639
3920,125.44,-8.4725,1.5899,-0.0805,-3.1022,-0.0091,-0.0015,rough,14.0,3,16.395
3930,125.76,-8.2422,1.5827,-0.0782,-3.1031,-0.0119,-0.0119,rough,14.0,3,16.164
3940,126.08,-8.0204,1.5726,-0.0758,-3.1041,-0.0129,-0.0212,rough,14.0,3,15.943
3950,126.40,-7.8117,1.5671,-0.0729,-3.1057,-0.0158,0.0019,rough,14.0,3,15.734
3960,126.72,-7.6157,1.5614,-0.0698,-3.1065,-0.0168,-0.0248,rough,14.0,3,15.538
3970,127.04,-7.4272,1.5512,-0.0668,-3.1076,-0.0176,-0.0262,rough,14.0,3,15.350
3980,127.36,-7.2588,1.5451,-0.0637,-3.1096,-0.0205,-0.0036,rough,14.0,3,15.182
3990,127.68,-7.1165,1.5396,-0.0608,-3.1106,-0.0213,-0.0072,rough,14.0,3,15.039
4000,128.00,-7.0054,1.5335,-0.0586,-3.1107,-0.0213,-0.0386,rough,14.0,3,14.928
4010,128.32,-6.9203,1.5259,-0.0569,-3.1122,-0.0226,-0.0040,rough,14.0,3,14.844
4020,128.64,-6.8556,1.5213,-0.0556,-3.1121,-0.0220,-0.0458,rough,14.0,3,14.779
4030,128.96,-6.8149,1.5152,-0.0548,-3.1134,-0.0235,-0.0106,rough,14.0,3,14.738
4040,129.28,-6.7981,1.5087,-0.0546,-3.1140,-0.0242,0.0037,rough,14.0,3,14.722
4050,129.60,-6.8050,1.5040,-0.0548,-3.1129,-0.0229,-0.0433,rough,14.0,3,14.729
4060,129.92,-6.8358,1.4983,-0.0557,-3.1134,-0.0236,-0.0099,rough,14.0,3,14.760
4070,130.24,-6.8903,1.4915,-0.0572,-3.1132,-0.0235,0.0060,rough,14.0,3,14.814
4080,130.56,-6.9687,1.4862,-0.0592,-3.1114,-0.0214,-0.0395,rough,14.0,3,14.893
4090,130.88,-7.0593,1.4807,-0.0613,-3.1109,-0.0217,-0.0273,rough,14.0,3,14.983
4100,131.20,-7.1695,1.4686,-0.0641,-3.1104,-0.0206,-0.0304,rough,14.0,3,15.094
4110,131.52,-7.3050,1.4571,-0.0674,-3.1096,-0.0200,-0.0277,rough,14.0,3,15.230
4120,131.84,-7.4592,1.4503,-0.0707,-3.1084,-0.0182,-0.0255,rough,14.0,3,15.384
4130,132.16,-7.6334,1.4390,-0.0743,-3.1069,-0.0172,-0.0372,rough,14.0,3,15.558
4140,132.48,-7.8337,1.4337,-0.0779,-3.1064,-0.0155,-0.0323,rough,14.0,3,15.759
4150,132.80,-8.0560,1.4282,-0.0815,-3.1054,-0.0135,-0.0069,rough,14.0,3,15.981
4160,133.12,-8.2930,1.4231,-0.0848,-3.1045,-0.0122,-0.0105,rough,14.0,3,16.218
4170,133.44,-8.5440,1.4209,-0.0877,-3.1035,-0.0090,-0.0033,rough,14.0,3,16.469
4180,133.76,-8.7989,1.4167,-0.0899,-3.1030,-0.0074,-0.0086,rough,14.0,3,16.724
4190,134.08,-9.0584,1.4144,-0.0916,-3.1024,-0.0030,-0.0319,rough,14.0,3,16.984
4200,134.40,-9.3222,1.4096,-0.0926,-3.1022,-0.0012,-0.0304,rough,14.0,3,17.247
4210,134.72,-9.5872,1.4049,-0.0930,-3.1021,0.0022,-0.0292,rough,14.0,3,17.512
4220,135.04,-9.8516,1.3998,-0.0926,-3.1025,0.0043,-0.0274,rough,14.0,3,17.777
4230,135.36,-10.1121,1.3948,-0.0916,-3.1031,0.0071,-0.0267,rough,14.0,3,18.037
4240,135.68,-10.3637,1.3902,-0.0899,-3.1039,0.0094,-0.0256,rough,14.0,3,18.289
4250,136.00,-10.6052,1.3849,-0.0878,-3.1050,0.0119,-0.0255,rough,14.0,3,18.531
4260,136.32,-10.8357,1.3810,-0.0850,-3.1060,0.0136,-0.0259,rough,14.0,3,18.761
4270,136.64,-11.0512,1.3762,-0.0824,-3.1070,0.0175,-0.0257,rough,14.0,3,18.977
4280,136.96,-11.2505,1.3720,-0.0792,-3.1081,0.0159,-0.0256,rough,14.0,3,19.176
4290,137.28,-11.4280,1.3692,-0.0760,-3.1092,0.0199,-0.0257,rough,14.0,3,19.354
4300,137.60,-11.5907,1.3658,-0.0731,-3.1107,0.0214,-0.0291,rough,14.0,3,19.516
4310,137.92,-11.7353,1.3632,-0.0702,-3.1116,0.0200,-0.0258,rough,14.0,3,19.661
4320,138.24,-11.8604,1.3616,-0.0674,-3.1127,0.0224,-0.0268,rough,14.0,3,19.786
4330,138.56,-11.9584,1.3598,-0.0653,-3.1131,0.0246,-0.0277,rough,14.0,3,19.884
4340,138.88,-12.0327,1.3580,-0.0637,-3.1139,0.0256,-0.0282,rough,14.0,3,19.958
4350,139.20,-12.0823,1.3555,-0.0626,-3.1145,0.0254,-0.0262,rough,14.0,3,20.008
4360,139.52,-12.1007,1.3521,-0.0623,-3.1147,0.0252,-0.0234,rough,14.0,3,20.026
4370,139.84,-12.0867,1.3498,-0.0627,-3.1144,0.0252,-0.0156,rough,14.0,3,20.012
4380,140.16,-12.0472,1.3485,-0.0637,-3.1142,0.0259,-0.0217,rough,14.0,3,19.973
4390,140.48,-11.9849,1.3464,-0.0651,-3.1135,0.0251,-0.0205,rough,14.0,3,19.911
4400,140.80,-11.9037,1.3448,-0.0669,-3.1131,0.0234,-0.0218,rough,14.0,3,19.830
4410,141.12,-11.7984,1.3440,-0.0693,-3.1123,0.0210,-0.0235,rough,14.0,3,19.724
4420,141.44,-11.6710,1.3417,-0.0721,-3.1117,0.0205,-0.0230,rough,14.0,3,19.597
4430,141.76,-11.5227,1.3390,-0.0753,-3.1104,0.0220,-0.0243,rough,14.0,3,19.449
4440,142.08,-11.3605,1.3378,-0.0781,-3.1095,0.0184,-0.0125,rough,14.0,3,19.287
4450,142.40,-11.1750,1.3347,-0.0816,-3.1087,0.0161,-0.0198,rough,14.0,3,19.101
4460,142.72,-10.9718,1.3305,-0.0849,-3.1074,0.0166,-0.0197,rough,14.0,3,18.898
4470,143.04,-10.7535,1.3273,-0.0880,-3.1067,0.0118,-0.0201,rough,14.0,3,18.680
4480,143.36,-10.5219,1.3232,-0.0909,-3.1062,0.0132,-0.0418,rough,14.0,3,18.449
4490,143.68,-10.2801,1.3215,-0.0930,-3.1054,0.0081,-0.0343,rough,14.0,3,18.207
4500,144.00,-10.0307,1.3179,-0.0949,-3.1047,0.0076,-0.0319,rough,14.0,3,17.958
4510,144.32,-9.7764,1.3144,-0.0959,-3.1045,0.0032,-0.0330,rough,14.0,3,17.704
4520,144.64,-9.5197,1.3098,-0.0965,-3.1044,0.0020,-0.0298,rough,14.0,3,17.447
4530,144.96,-9.2635,1.3047,-0.0963,-3.1047,-0.0022,-0.0298,rough,14.0,3,17.191
4540,145.28,-9.0103,1.3007,-0.0955,-3.1050,-0.0034,-0.0362,rough,14.0,3,16.939
4550,145.60,-8.7629,1.2986,-0.0939,-3.1056,-0.0071,-0.0293,rough,14.0,3,16.691
4560,145.92,-8.5233,1.2952,-0.0918,-3.1062,-0.0089,-0.0286,rough,14.0,3,16.452
4570,146.24,-8.2943,1.2908,-0.0893,-3.1072,-0.0117,-0.0266,rough,14.0,3,16.223
4580,146.56,-8.0780,1.2863,-0.0865,-3.1081,-0.0139,-0.0256,rough,14.0,3,16.007
4590,146.88,-7.8765,1.2799,-0.0836,-3.1089,-0.0150,-0.0484,rough,14.0,3,15.806
4600,147.20,-7.6921,1.2690,-0.0807,-3.1097,-0.0168,-0.0561,rough,14.0,3,15.622
4610,147.52,-7.5261,1.2596,-0.0777,-3.1116,-0.0194,-0.0263,rough,14.0,3,15.456
4620,147.84,-7.3802,1.2537,-0.0749,-3.1121,-0.0205,-0.0385,rough,14.0,3,15.311
4630,148.16,-7.2562,1.2488,-0.0724,-3.1128,-0.0207,-0.0527,rough,14.0,3,15.187
4640,148.48,-7.1544,1.2399,-0.0702,-3.1146,-0.0232,-0.0053,rough,14.0,3,15.086
4650,148.80,-7.0761,1.2347,-0.0685,-3.1148,-0.0234,-0.0349,rough,14.0,3,15.008
4660,149.12,-7.0214,1.2323,-0.0673,-3.1153,-0.0242,-0.0335,rough,14.0,3,14.953
4670,149.44,-6.9914,1.2292,-0.0666,-3.1155,-0.0244,-0.0307,rough,14.0,3,14.923
4680,149.76,-6.9867,1.2230,-0.0667,-3.1162,-0.0251,-0.0092,rough,14.0,3,14.919
4690,150.08,-7.0074,1.2138,-0.0674,-3.1153,-0.0240,-0.0455,rough,14.0,3,14.940
4700,150.40,-7.0535,1.2073,-0.0687,-3.1154,-0.0240,-0.0397,rough,14.0,3,14.986
4710,150.72,-7.1240,1.2059,-0.0704,-3.1148,-0.0231,-0.0380,rough,14.0,3,15.057
4720,151.04,-7.2181,1.2037,-0.0727,-3.1141,-0.0220,-0.0356,rough,14.0,3,15.151
4730,151.36,-7.3373,1.1980,-0.0756,-3.1136,-0.0208,-0.0363,rough,14.0,3,15.270
4740,151.68,-7.4833,1.1866,-0.0791,-3.1128,-0.0199,-0.0378,rough,14.0,3,15.416
4750,152.00,-7.6514,1.1849,-0.0825,-3.1120,-0.0187,-0.0351,rough,14.0,3,15.584
4760,152.32,-7.8382,1.1826,-0.0860,-3.1112,-0.0162,-0.0335,rough,14.0,3,15.771
4770,152.64,-8.0398,1.1793,-0.0894,-3.1104,-0.0145,-0.0338,rough,14.0,3,15.973
4780,152.96,-8.2575,1.1767,-0.0927,-3.1095,-0.0127,-0.0307,rough,14.0,3,16.190
4790,153.28,-8.4876,1.1734,-0.0956,-3.1089,-0.0095,-0.0299,rough,14.0,3,16.420
4800,153.60,-8.7278,1.1698,-0.0981,-3.1081,-0.0075,-0.0576,rough,14.0,3,16.661
4810,153.92,-8.9767,1.1683,-0.0999,-3.1080,-0.0036,-0.0439,rough,14.0,3,16.909
4820,154.24,-9.2315,1.1671,-0.1012,-3.1078,-0.0029,-0.0421,rough,14.0,3,17.164
4830,154.56,-9.4895,1.1656,-0.1017,-3.1078,0.0020,-0.0415,rough,14.0,3,17.422
4840,154.88,-9.7480,1.1640,-0.1015,-3.1082,0.0027,-0.0391,rough,14.0,3,17.680
4850,155.20,-10.0042,1.1626,-0.1005,-3.1084,0.0079,-0.0391,rough,14.0,3,17.936
4860,155.52,-10.2551,1.1609,-0.0990,-3.1092,0.0080,-0.0372,rough,14.0,3,18.187
4870,155.84,-10.4990,1.1601,-0.0966,-3.1098,0.0131,-0.0370,rough,14.0,3,18.431
4880,156.16,-10.7335,1.1581,-0.0940,-3.1106,0.0129,-0.0354,rough,14.0,3,18.665
4890,156.48,-10.9573,1.1577,-0.0907,-3.1117,0.0171,-0.0350,rough,14.0,3,18.889
4900,156.80,-11.1688,1.1558,-0.0874,-3.1127,0.0188,-0.0465,rough,14.0,3,19.101
4910,157.12,-11.3629,1.1541,-0.0838,-3.1137,0.0191,-0.0228,rough,14.0,3,19.295
4920,157.44,-11.5347,1.1530,-0.0805,-3.1147,0.0235,-0.0312,rough,14.0,3,19.466
4930,157.76,-11.6855,1.1524,-0.0773,-3.1155,0.0228,-0.0305,rough,14.0,3,19.617
4940,158.08,-11.8150,1.1522,-0.0743,-3.1167,0.0230,-0.0304,rough,14.0,3,19.746
4950,158.40,-11.9218,1.1521,-0.0717,-3.1173,0.0252,-0.0305,rough,14.0,3,19.853
4960,158.72,-12.0050,1.1520,-0.0697,-3.1177,0.0272,-0.0305,rough,14.0,3,19.936
4970,159.04,-12.0693,1.1520,-0.0682,-3.1184,0.0279,-0.0304,rough,14.0,3,20.001
4980,159.36,-12.1161,1.1519,-0.0670,-3.1186,0.0275,-0.0305,rough,14.0,3,20.047
4990,159.68,-12.1459,1.1517,-0.0663,-3.1187,0.0273,-0.0297,rough,14.0,3,20.077
5000,160.00,-12.1552,1.1511,-0.0660,-3.1187,0.0272,-0.0279,rough,14.0,3,20.087
5010,160.32,-12.1448,1.1501,-0.0663,-3.1185,0.0271,-0.0214,rough,14.0,3,20.076
5020,160.64,-12.1112,1.1488,-0.0672,-3.1188,0.0277,-0.0378,rough,14.0,3,20.043
5030,160.96,-12.0524,1.1488,-0.0688,-3.1187,0.0281,-0.0399,rough,14.0,3,19.984
5040,161.28,-11.9717,1.1488,-0.0706,-3.1177,0.0267,-0.0401,rough,14.0,3,19.903
5050,161.60,-11.8692,1.1489,-0.0731,-3.1175,0.0243,-0.0401,rough,14.0,3,19.801
5060,161.92,-11.7443,1.1489,-0.0762,-3.1165,0.0223,-0.0401,rough,14.0,3,19.676
5070,162.24,-11.5980,1.1487,-0.0793,-3.1154,0.0236,-0.0387,rough,14.0,3,19.530
5080,162.56,-11.4324,1.1486,-0.0826,-3.1143,0.0216,-0.0417,rough,14.0,3,19.364
5090,162.88,-11.2473,1.1487,-0.0863,-3.1135,0.0181,-0.0418,rough,14.0,3,19.179
5100,163.20,-11.0464,1.1483,-0.0897,-3.1124,0.0189,-0.0388,rough,14.0,3,18.978
5110,163.52,-10.8314,1.1480,-0.0929,-3.1116,0.0147,-0.0395,rough,14.0,3,18.764
5120,163.84,-10.6026,1.1467,-0.0960,-3.1104,0.0135,-0.0364,rough,14.0,3,18.535
5130,164.16,-10.3666,1.1453,-0.0984,-3.1097,0.0104,-0.0359,rough,14.0,3,18.299
5140,164.48,-10.1238,1.1441,-0.1004,-3.1090,0.0079,-0.0309,rough,14.0,3,18.057
5150,164.80,-9.8743,1.1425,-0.1018,-3.1086,0.0051,-0.0294,rough,14.0,3,17.807
5160,165.12,-9.6207,1.1397,-0.1026,-3.1084,0.0015,-0.0177,rough,14.0,3,17.554
5170,165.44,-9.3664,1.1389,-0.1024,-3.1085,0.0000,-0.0453,rough,14.0,3,17.300
5180,165.76,-9.1140,1.1378,-0.1018,-3.1086,-0.0033,-0.0428,rough,14.0,3,17.048
5190,166.08,-8.8665,1.1361,-0.1003,-3.1088,-0.0054,-0.0418,rough,14.0,3,16.801
5200,166.40,-8.6256,1.1337,-0.0984,-3.1094,-0.0089,-0.0402,rough,14.0,3,16.560
5210,166.72,-8.3947,1.1266,-0.0961,-3.1103,-0.0108,-0.0244,rough,14.0,3,16.330
5220,167.04,-8.1761,1.1250,-0.0932,-3.1108,-0.0137,-0.0464,rough,14.0,3,16.111
5230,167.36,-7.9719,1.1228,-0.0901,-3.1116,-0.0146,-0.0431,rough,14.0,3,15.907
5240,167.68,-7.7908,1.1210,-0.0870,-3.1123,-0.0171,-0.0389,rough,14.0,3,15.726
5250,168.00,-7.6282,1.1197,-0.0840,-3.1134,-0.0194,-0.0384,rough,14.0,3,15.564
5260,168.32,-7.4856,1.1140,-0.0812,-3.1140,-0.0199,-0.0451,rough,14.0,3,15.422
5270,168.64,-7.3611,1.1099,-0.0785,-3.1146,-0.0209,-0.0444,rough,14.0,3,15.298
5280,168.96,-7.2576,1.1098,-0.0762,-3.1153,-0.0223,-0.0443,rough,14.0,3,15.194
5290,169.28,-7.1775,1.1095,-0.0743,-3.1159,-0.0235,-0.0431,rough,14.0,3,15.114
5300,169.60,-7.1204,1.1091,-0.0729,-3.1163,-0.0241,-0.0418,rough,14.0,3,15.057
5310,169.92,-7.0802,1.1082,-0.0719,-3.1165,-0.0244,-0.0411,rough,14.0,3,15.017
5320,170.24,-7.0669,1.1064,-0.0716,-3.1165,-0.0244,-0.0460,rough,14.0,3,15.004
5330,170.56,-7.0740,1.0992,-0.0721,-3.1157,-0.0233,-0.0834,rough,14.0,3,15.011
5340,170.88,-7.1058,1.0913,-0.0730,-3.1155,-0.0229,-0.0905,rough,14.0,3,15.043
5350,171.20,-7.1627,1.0865,-0.0745,-3.1161,-0.0236,-0.0542,rough,14.0,3,15.101
5360,171.52,-7.2442,1.0859,-0.0765,-3.1156,-0.0225,-0.0523,rough,14.0,3,15.182
5370,171.84,-7.3491,1.0857,-0.0789,-3.1149,-0.0210,-0.0511,rough,14.0,3,15.287
5380,172.16,-7.4739,1.0829,-0.0818,-3.1150,-0.0206,-0.0274,rough,14.0,3,15.412
5390,172.48,-7.6202,1.0688,-0.0853,-3.1134,-0.0185,-0.0792,rough,14.0,3,15.558
5400,172.80,-7.7874,1.0623,-0.0887,-3.1134,-0.0176,-0.0475,rough,14.0,3,15.726
5410,173.12,-7.9729,1.0616,-0.0920,-3.1127,-0.0149,-0.0412,rough,14.0,3,15.911
5420,173.44,-8.1728,1.0612,-0.0952,-3.1121,-0.0143,-0.0425,rough,14.0,3,16.111
5430,173.76,-8.3841,1.0612,-0.0981,-3.1113,-0.0109,-0.0425,rough,14.0,3,16.322
5440,174.08,-8.6063,1.0613,-0.1007,-3.1109,-0.0090,-0.0425,rough,14.0,3,16.544
5450,174.40,-8.8313,1.0613,-0.1026,-3.1105,-0.0066,-0.0424,rough,14.0,3,16.769
5460,174.72,-9.0644,1.0614,-0.1042,-3.1104,-0.0032,-0.0423,rough,14.0,3,17.001
5470,175.04,-9.3079,1.0614,-0.1051,-3.1103,-0.0015,-0.0423,rough,14.0,3,17.245
5480,175.36,-9.5542,1.0614,-0.1055,-3.1102,0.0026,-0.0422,rough,14.0,3,17.491
5490,175.68,-9.7979,1.0614,-0.1050,-3.1106,0.0038,-0.0421,rough,14.0,3,17.734
5500,176.00,-10.0390,1.0607,-0.1040,-3.1110,0.0083,-0.0393,rough,14.0,3,17.975
5510,176.32,-10.2690,1.0606,-0.1023,-3.1114,0.0087,-0.0398,rough,14.0,3,18.205
5520,176.64,-10.4933,1.0605,-0.1001,-3.1120,0.0131,-0.0396,rough,14.0,3,18.429
5530,176.96,-10.7029,1.0605,-0.0977,-3.1126,0.0135,-0.0396,rough,14.0,3,18.639
5540,177.28,-10.9042,1.0604,-0.0947,-3.1137,0.0164,-0.0395,rough,14.0,3,18.840
5550,177.60,-11.0945,1.0603,-0.0917,-3.1145,0.0191,-0.0394,rough,14.0,3,19.030
5560,177.92,-11.2686,1.0591,-0.0887,-3.1152,0.0188,-0.0383,rough,14.0,3,19.204
5570,178.24,-11.4231,1.0591,-0.0856,-3.1163,0.0215,-0.0386,rough,14.0,3,19.358
5580,178.56,-11.5588,1.0587,-0.0828,-3.1167,0.0241,-0.0329,rough,14.0,3,19.494
5590,178.88,-11.6753,1.0584,-0.0802,-3.1176,0.0233,-0.0357,rough,14.0,3,19.610
5600,179.20,-11.7716,1.0584,-0.0781,-3.1181,0.0233,-0.0357,rough,14.0,3,19.706
5610,179.52,-11.8450,1.0584,-0.0762,-3.1187,0.0245,-0.0357,rough,14.0,3,19.780
5620,179.84,-11.8949,1.0583,-0.0750,-3.1191,0.0252,-0.0356,rough,14.0,3,19.830
5630,180.16,-11.9215,1.0583,-0.0743,-3.1193,0.0256,-0.0356,rough,14.0,3,19.856
5640,180.48,-11.9250,1.0583,-0.0742,-3.1194,0.0257,-0.0356,rough,14.0,3,19.860
5650,180.80,-11.9052,1.0583,-0.0747,-3.1192,0.0254,-0.0355,rough,14.0,3,19.840
5660,181.12,-11.8622,1.0583,-0.0758,-3.1189,0.0247,-0.0355,rough,14.0,3,19.797
5670,181.44,-11.7953,1.0584,-0.0775,-3.1183,0.0237,-0.0355,rough,14.0,3,19.730
5680,181.76,-11.7053,1.0584,-0.0796,-3.1176,0.0231,-0.0355,rough,14.0,3,19.640
5690,182.08,-11.5945,1.0584,-0.0820,-3.1170,0.0238,-0.0355,rough,14.0,3,19.530
5700,182.40,-11.4599,1.0585,-0.0848,-3.1164,0.0221,-0.0355,rough,14.0,3,19.395
5710,182.72,-11.3058,1.0586,-0.0879,-3.1155,0.0194,-0.0355,rough,14.0,3,19.241
5720,183.04,-11.1330,1.0586,-0.0911,-3.1145,0.0186,-0.0355,rough,14.0,3,19.068
5730,183.36,-10.9481,1.0587,-0.0941,-3.1138,0.0171,-0.0355,rough,14.0,3,18.884
5740,183.68,-10.7502,1.0588,-0.0971,-3.1129,0.0135,-0.0356,rough,14.0,3,18.686
5750,184.00,-10.5420,1.0588,-0.0997,-3.1122,0.0136,-0.0356,rough,14.0,3,18.478
5760,184.32,-10.3253,1.0589,-0.1018,-3.1116,0.0097,-0.0357,rough,14.0,3,18.261
5770,184.64,-10.1011,1.0588,-0.1036,-3.1110,0.0081,-0.0364,rough,14.0,3,18.037
5780,184.96,-9.8712,1.0588,-0.1047,-3.1106,0.0052,-0.0364,rough,14.0,3,17.808
5790,185.28,-9.6311,1.0585,-0.1054,-3.1104,0.0022,-0.0378,rough,14.0,3,17.568
5800,185.60,-9.3853,1.0585,-0.1053,-3.1103,-0.0002,-0.0379,rough,14.0,3,17.322
5810,185.92,-9.1413,1.0584,-0.1047,-3.1103,-0.0036,-0.0373,rough,14.0,3,17.078
5820,186.24,-8.9011,1.0583,-0.1033,-3.1104,-0.0054,-0.0375,rough,14.0,3,16.838
5830,186.56,-8.6643,1.0568,-0.1014,-3.1106,-0.0083,-0.0631,rough,14.0,3,16.602
5840,186.88,-8.4314,1.0556,-0.0989,-3.1111,-0.0099,-0.0501,rough,14.0,3,16.369
5850,187.20,-8.2106,1.0556,-0.0960,-3.1120,-0.0138,-0.0506,rough,14.0,3,16.149
5860,187.52,-8.0062,1.0529,-0.0928,-3.1126,-0.0144,-0.0516,rough,14.0,3,15.945
5870,187.84,-7.8181,1.0523,-0.0895,-3.1134,-0.0173,-0.0446,rough,14.0,3,15.757
5880,188.16,-7.6497,1.0514,-0.0863,-3.1143,-0.0195,-0.0407,rough,14.0,3,15.589
5890,188.48,-7.5035,1.0361,-0.0837,-3.1149,-0.0198,-0.0512,rough,14.0,3,15.443
5900,188.80,-7.3841,1.0359,-0.0810,-3.1153,-0.0211,-0.0514,rough,14.0,3,15.324
5910,189.12,-7.2890,1.0358,-0.0788,-3.1160,-0.0225,-0.0517,rough,14.0,3,15.229
5920,189.44,-7.2188,1.0358,-0.0772,-3.1164,-0.0235,-0.0518,rough,14.0,3,15.159
5930,189.76,-7.1782,1.0348,-0.0762,-3.1164,-0.0238,-0.0558,rough,14.0,3,15.119
5940,190.08,-7.1545,1.0263,-0.0758,-3.1166,-0.0240,-0.0538,rough,14.0,3,15.095
5950,190.40,-7.1489,1.0209,-0.0758,-3.1166,-0.0240,-0.0575,rough,14.0,3,15.090
5960,190.72,-7.1659,1.0156,-0.0763,-3.1170,-0.0242,-0.0408,rough,14.0,3,15.107
5970,191.04,-7.2047,1.0057,-0.0775,-3.1166,-0.0237,-0.0539,rough,14.0,3,15.147
5980,191.36,-7.2578,1.0001,-0.0790,-3.1159,-0.0227,-0.0745,rough,14.0,3,15.200
5990,191.68,-7.3322,0.9936,-0.0809,-3.1162,-0.0226,-0.0394,rough,14.0,3,15.275
6000,192.00,-7.4300,0.9916,-0.0832,-3.1150,-0.0205,-0.0630,rough,14.0,3,15.372
6010,192.32,-7.5535,0.9896,-0.0859,-3.1149,-0.0199,-0.0489,rough,14.0,3,15.496
6020,192.64,-7.6982,0.9794,-0.0892,-3.1140,-0.0192,-0.0563,rough,14.0,3,15.641
6030,192.96,-7.8592,0.9753,-0.0924,-3.1133,-0.0167,-0.0612,rough,14.0,3,15.802
6040,193.28,-8.0383,0.9753,-0.0956,-3.1126,-0.0142,-0.0624,rough,14.0,3,15.981
6050,193.60,-8.2398,0.9754,-0.0987,-3.1120,-0.0133,-0.0625,rough,14.0,3,16.182
6060,193.92,-8.4545,0.9749,-0.1015,-3.1113,-0.0099,-0.0526,rough,14.0,3,16.396
6070,194.24,-8.6782,0.9749,-0.1040,-3.1108,-0.0087,-0.0534,rough,14.0,3,16.620
6080,194.56,-8.9083,0.9749,-0.1059,-3.1105,-0.0051,-0.0533,rough,14.0,3,16.849
6090,194.88,-9.1448,0.9750,-0.1073,-3.1104,-0.0031,-0.0532,rough,14.0,3,17.086
6100,195.20,-9.3830,0.9750,-0.1079,-3.1104,0.0001,-0.0531,rough,14.0,3,17.324
6110,195.52,-9.6194,0.9750,-0.1081,-3.1105,0.0027,-0.0530,rough,14.0,3,17.560
6120,195.84,-9.8529,0.9749,-0.1075,-3.1107,0.0053,-0.0530,rough,14.0,3,17.793
6130,196.16,-10.0869,0.9749,-0.1063,-3.1111,0.0086,-0.0527,rough,14.0,3,18.027
6140,196.48,-10.3107,0.9749,-0.1045,-3.1115,0.0101,-0.0527,rough,14.0,3,18.250
6150,196.80,-10.5225,0.9748,-0.1024,-3.1122,0.0142,-0.0525,rough,14.0,3,18.462
6160,197.12,-10.7166,0.9747,-0.1000,-3.1128,0.0139,-0.0526,rough,14.0,3,18.656
6170,197.44,-10.8981,0.9746,-0.0973,-3.1135,0.0170,-0.0524,rough,14.0,3,18.837
6180,197.76,-11.0697,0.9746,-0.0946,-3.1145,0.0196,-0.0524,rough,14.0,3,19.009
6190,198.08,-11.2218,0.9745,-0.0918,-3.1150,0.0190,-0.0523,rough,14.0,3,19.161
6200,198.40,-11.3552,0.9744,-0.0892,-3.1156,0.0213,-0.0522,rough,14.0,3,19.294
6210,198.72,-11.4667,0.9744,-0.0869,-3.1163,0.0232,-0.0521,rough,14.0,3,19.405
6220,199.04,-11.5586,0.9743,-0.0850,-3.1170,0.0247,-0.0520,rough,14.0,3,19.497
6230,199.36,-11.6301,0.9743,-0.0833,-3.1171,0.0244,-0.0520,rough,14.0,3,19.568
6240,199.68,-11.6764,0.9743,-0.0822,-3.1173,0.0243,-0.0519,rough,14.0,3,19.615
6250,200.00,-11.6989,0.9743,-0.0817,-3.1177,0.0238,-0.0519,rough,14.0,3,19.637
6260,200.32,-11.7034,0.9743,-0.0816,-3.1178,0.0238,-0.0519,rough,14.0,3,19.642
6270,200.64,-11.6890,0.9743,-0.0820,-3.1176,0.0240,-0.0519,rough,14.0,3,19.627
6280,200.96,-11.6485,0.9743,-0.0829,-3.1172,0.0243,-0.0519,rough,14.0,3,19.587
6290,201.28,-11.5812,0.9743,-0.0845,-3.1171,0.0244,-0.0518,rough,14.0,3,19.520
6300,201.60,-11.4927,0.9743,-0.0864,-3.1165,0.0237,-0.0518,rough,14.0,3,19.431
6310,201.92,-11.3842,0.9744,-0.0886,-3.1158,0.0217,-0.0518,rough,14.0,3,19.323
6320,202.24,-11.2538,0.9744,-0.0912,-3.1153,0.0190,-0.0518,rough,14.0,3,19.192
6330,202.56,-11.1025,0.9745,-0.0940,-3.1146,0.0193,-0.0518,rough,14.0,3,19.041
6340,202.88,-10.9346,0.9745,-0.0967,-3.1137,0.0177,-0.0517,rough,14.0,3,18.874
6350,203.20,-10.7474,0.9746,-0.0996,-3.1130,0.0140,-0.0517,rough,14.0,3,18.687
6360,203.52,-10.5439,0.9747,-0.1022,-3.1124,0.0143,-0.0517,rough,14.0,3,18.483
6370,203.84,-10.3340,0.9747,-0.1043,-3.1116,0.0106,-0.0517,rough,14.0,3,18.274
6380,204.16,-10.1157,0.9747,-0.1061,-3.1111,0.0085,-0.0517,rough,14.0,3,18.056
6390,204.48,-9.8919,0.9748,-0.1073,-3.1107,0.0061,-0.0517,rough,14.0,3,17.832
6400,204.80,-9.6652,0.9748,-0.1081,-3.1106,0.0025,-0.0518,rough,14.0,3,17.606
6410,205.12,-9.4373,0.9748,-0.1080,-3.1103,0.0011,-0.0519,rough,14.0,3,17.378
6420,205.44,-9.2105,0.9748,-0.1076,-3.1105,-0.0032,-0.0520,rough,14.0,3,17.151
6430,205.76,-8.9923,0.9747,-0.1065,-3.1103,-0.0034,-0.0522,rough,14.0,3,16.933
6440,206.08,-8.7826,0.9747,-0.1049,-3.1108,-0.0074,-0.0522,rough,14.0,3,16.724
6450,206.40,-8.5877,0.9743,-0.1031,-3.1111,-0.0087,-0.0572,rough,14.0,3,16.529
6460,206.72,-8.4096,0.9742,-0.1010,-3.1114,-0.0105,-0.0571,rough,14.0,3,16.352
6470,207.04,-8.2443,0.9741,-0.0988,-3.1120,-0.0134,-0.0571,rough,14.0,3,16.186
6480,207.36,-8.0985,0.9699,-0.0967,-3.1127,-0.0146,-0.0421,rough,14.0,3,16.041
6490,207.68,-7.9690,0.9681,-0.0946,-3.1126,-0.0147,-0.0617,rough,14.0,3,15.912
6500,208.00,-7.8571,0.9680,-0.0925,-3.1133,-0.0167,-0.0640,rough,14.0,3,15.800
6510,208.32,-7.7627,0.9680,-0.0908,-3.1138,-0.0182,-0.0643,rough,14.0,3,15.706
6520,208.64,-7.6824,0.9664,-0.0892,-3.1144,-0.0196,-0.0455,rough,14.0,3,15.626
6530,208.96,-7.6245,0.9499,-0.0884,-3.1153,-0.0199,-0.0328,rough,14.0,3,15.569
6540,209.28,-7.5945,0.9444,-0.0879,-3.1153,-0.0200,-0.0404,rough,14.0,3,15.539
6550,209.60,-7.5966,0.9399,-0.0881,-3.1153,-0.0199,-0.0420,rough,14.0,3,15.542
6560,209.92,-7.6298,0.9338,-0.0889,-3.1147,-0.0191,-0.0764,rough,14.0,3,15.575
6570,210.24,-7.6944,0.9257,-0.0905,-3.1142,-0.0185,-0.0974,rough,14.0,3,15.640
6580,210.56,-7.7793,0.9146,-0.0924,-3.1151,-0.0188,-0.0477,rough,14.0,3,15.725
6590,210.88,-7.8836,0.9108,-0.0944,-3.1142,-0.0165,-0.0801,rough,14.0,3,15.830
6600,211.20,-8.0066,0.9093,-0.0967,-3.1138,-0.0148,-0.0664,rough,14.0,3,15.953
6610,211.52,-8.1467,0.9093,-0.0990,-3.1134,-0.0142,-0.0680,rough,14.0,3,16.092
6620,211.84,-8.3025,0.9086,-0.1012,-3.1132,-0.0129,-0.0592,rough,14.0,3,16.248
6630,212.16,-8.4719,0.9086,-0.1035,-3.1126,-0.0099,-0.0596,rough,14.0,3,16.417
6640,212.48,-8.6536,0.9087,-0.1055,-3.1123,-0.0089,-0.0597,rough,14.0,3,16.599
6650,212.80,-8.8453,0.9087,-0.1072,-3.1120,-0.0065,-0.0597,rough,14.0,3,16.790
6660,213.12,-9.0449,0.9087,-0.1086,-3.1118,-0.0032,-0.0597,rough,14.0,3,16.989
6670,213.44,-9.2498,0.9087,-0.1095,-3.1118,-0.0026,-0.0597,rough,14.0,3,17.194
6680,213.76,-9.4575,0.9088,-0.1099,-3.1118,0.0014,-0.0597,rough,14.0,3,17.401
6690,214.08,-9.6662,0.9088,-0.1098,-3.1119,0.0026,-0.0598,rough,14.0,3,17.610
6700,214.40,-9.8735,0.9087,-0.1091,-3.1121,0.0057,-0.0598,rough,14.0,3,17.817
6710,214.72,-10.0768,0.9087,-0.1082,-3.1125,0.0086,-0.0599,rough,14.0,3,18.020
6720,215.04,-10.2735,0.9087,-0.1067,-3.1130,0.0091,-0.0600,rough,14.0,3,18.216
6730,215.36,-10.4610,0.9081,-0.1048,-3.1133,0.0129,-0.0516,rough,14.0,3,18.404
6740,215.68,-10.6377,0.9081,-0.1027,-3.1139,0.0139,-0.0528,rough,14.0,3,18.580
6750,216.00,-10.8009,0.9081,-0.1005,-3.1146,0.0150,-0.0529,rough,14.0,3,18.743
6760,216.32,-10.9487,0.9080,-0.0982,-3.1150,0.0180,-0.0531,rough,14.0,3,18.891
6770,216.64,-11.0809,0.9080,-0.0960,-3.1158,0.0194,-0.0532,rough,14.0,3,19.023
6780,216.96,-11.1951,0.9079,-0.0939,-3.1161,0.0189,-0.0535,rough,14.0,3,19.137
6790,217.28,-11.2888,0.9079,-0.0921,-3.1167,0.0197,-0.0535,rough,14.0,3,19.230
6800,217.60,-11.3559,0.9079,-0.0907,-3.1169,0.0213,-0.0536,rough,14.0,3,19.298
6810,217.92,-11.3999,0.9078,-0.0898,-3.1170,0.0223,-0.0538,rough,14.0,3,19.342
6820,218.24,-11.4227,0.9078,-0.0893,-3.1172,0.0227,-0.0538,rough,14.0,3,19.364
6830,218.56,-11.4252,0.9078,-0.0893,-3.1172,0.0227,-0.0539,rough,14.0,3,19.367
6840,218.88,-11.4074,0.9078,-0.0897,-3.1171,0.0224,-0.0540,rough,14.0,3,19.349
6850,219.20,-11.3683,0.9078,-0.0905,-3.1169,0.0216,-0.0540,rough,14.0,3,19.310
6860,219.52,-11.3024,0.9079,-0.0918,-3.1167,0.0201,-0.0542,rough,14.0,3,19.244
6870,219.84,-11.2076,0.9079,-0.0937,-3.1161,0.0187,-0.0542,rough,14.0,3,19.149
6880,220.16,-11.0897,0.9077,-0.0959,-3.1159,0.0193,-0.0537,rough,14.0,3,19.032
6890,220.48,-10.9520,0.9077,-0.0981,-3.1151,0.0181,-0.0537,rough,14.0,3,18.894
6900,220.80,-10.7977,0.9078,-0.1005,-3.1146,0.0151,-0.0538,rough,14.0,3,18.740
6910,221.12,-10.6217,0.9078,-0.1029,-3.1139,0.0138,-0.0539,rough,14.0,3,18.564
6920,221.44,-10.4318,0.9078,-0.1051,-3.1132,0.0125,-0.0540,rough,14.0,3,18.374
6930,221.76,-10.2313,0.9079,-0.1071,-3.1129,0.0083,-0.0541,rough,14.0,3,18.174
6940,222.08,-10.0229,0.9079,-0.1086,-3.1124,0.0085,-0.0542,rough,14.0,3,17.966
6950,222.40,-9.8090,0.9079,-0.1094,-3.1121,0.0043,-0.0543,rough,14.0,3,17.752
6960,222.72,-9.5916,0.9078,-0.1099,-3.1119,0.0023,-0.0537,rough,14.0,3,17.535
6970,223.04,-9.3734,0.9078,-0.1097,-3.1118,-0.0004,-0.0538,rough,14.0,3,17.317
6980,223.36,-9.1570,0.9078,-0.1092,-3.1118,-0.0034,-0.0540,rough,14.0,3,17.101
6990,223.68,-8.9448,0.9077,-0.1080,-3.1119,-0.0046,-0.0542,rough,14.0,3,16.889
7000,224.00,-8.7394,0.9077,-0.1064,-3.1123,-0.0085,-0.0544,rough,14.0,3,16.684
7010,224.32,-8.5449,0.9076,-0.1044,-3.1125,-0.0093,-0.0548,rough,14.0,3,16.490
7020,224.64,-8.3622,0.9066,-0.1021,-3.1134,-0.0125,-0.0356,rough,14.0,3,16.308
7030,224.96,-8.1930,0.9059,-0.0998,-3.1136,-0.0146,-0.0523,rough,14.0,3,16.139
7040,225.28,-8.0412,0.9058,-0.0973,-3.1140,-0.0149,-0.0539,rough,14.0,3,15.987
7050,225.60,-7.9065,0.9058,-0.0949,-3.1146,-0.0167,-0.0540,rough,14.0,3,15.853
7060,225.92,-7.7904,0.9057,-0.0928,-3.1151,-0.0185,-0.0542,rough,14.0,3,15.737
7070,226.24,-7.6991,0.9039,-0.0911,-3.1152,-0.0192,-0.0679,rough,14.0,3,15.646
7080,226.56,-7.6394,0.8986,-0.0899,-3.1156,-0.0195,-0.0671,rough,14.0,3,15.587
7090,226.88,-7.6031,0.8927,-0.0893,-3.1158,-0.0197,-0.0665,rough,14.0,3,15.551
7100,227.20,-7.5880,0.8875,-0.0891,-3.1165,-0.0204,-0.0418,rough,14.0,3,15.536
7110,227.52,-7.5942,0.8827,-0.0893,-3.1154,-0.0190,-0.1011,rough,14.0,3,15.542
7120,227.84,-7.6215,0.8764,-0.0900,-3.1160,-0.0197,-0.0701,rough,14.0,3,15.570
7130,228.16,-7.6700,0.8731,-0.0911,-3.1150,-0.0184,-0.1158,rough,14.0,3,15.619
7140,228.48,-7.7396,0.8661,-0.0927,-3.1162,-0.0190,-0.0600,rough,14.0,3,15.688
7150,228.80,-7.8291,0.8611,-0.0945,-3.1157,-0.0177,-0.0680,rough,14.0,3,15.778
7160,229.12,-7.9380,0.8611,-0.0966,-3.1153,-0.0161,-0.0682,rough,14.0,3,15.887
7170,229.44,-8.0650,0.8612,-0.0988,-3.1148,-0.0147,-0.0682,rough,14.0,3,16.014
7180,229.76,-8.2086,0.8612,-0.1011,-3.1143,-0.0141,-0.0687,rough,14.0,3,16.157
7190,230.08,-8.3671,0.8612,-0.1033,-3.1141,-0.0116,-0.0686,rough,14.0,3,16.315
7200,230.40,-8.5389,0.8612,-0.1055,-3.1136,-0.0090,-0.0686,rough,14.0,3,16.487
7210,230.72,-8.7221,0.8613,-0.1074,-3.1134,-0.0084,-0.0687,rough,14.0,3,16.670
7220,231.04,-8.9145,0.8608,-0.1089,-3.1132,-0.0053,-0.0584,rough,14.0,3,16.862
7230,231.36,-9.1142,0.8608,-0.1101,-3.1130,-0.0032,-0.0601,rough,14.0,3,17.061
7240,231.68,-9.3188,0.8608,-0.1108,-3.1131,-0.0012,-0.0603,rough,14.0,3,17.265
7250,232.00,-9.5260,0.8608,-0.1112,-3.1130,0.0027,-0.0602,rough,14.0,3,17.472
7260,232.32,-9.7330,0.8608,-0.1110,-3.1132,0.0026,-0.0604,rough,14.0,3,17.679
7270,232.64,-9.9372,0.8608,-0.1101,-3.1134,0.0071,-0.0604,rough,14.0,3,17.883
7280,232.96,-10.1364,0.8608,-0.1089,-3.1139,0.0086,-0.0606,rough,14.0,3,18.082
7290,233.28,-10.3281,0.8607,-0.1073,-3.1144,0.0105,-0.0607,rough,14.0,3,18.273
7300,233.60,-10.5101,0.8607,-0.1055,-3.1147,0.0142,-0.0608,rough,14.0,3,18.455
7310,233.92,-10.6809,0.8607,-0.1033,-3.1154,0.0141,-0.0610,rough,14.0,3,18.626
7320,234.24,-10.8378,0.8606,-0.1010,-3.1160,0.0161,-0.0611,rough,14.0,3,18.782
7330,234.56,-10.9792,0.8606,-0.0988,-3.1164,0.0190,-0.0612,rough,14.0,3,18.924
7340,234.88,-11.1045,0.8601,-0.0967,-3.1171,0.0195,-0.0546,rough,14.0,3,19.049
7350,235.20,-11.2114,0.8600,-0.0947,-3.1174,0.0190,-0.0551,rough,14.0,3,19.155
7360,235.52,-11.2990,0.8600,-0.0930,-3.1179,0.0202,-0.0552,rough,14.0,3,19.243
7370,235.84,-11.3655,0.8600,-0.0916,-3.1182,0.0217,-0.0553,rough,14.0,3,19.309
7380,236.16,-11.4111,0.8599,-0.0906,-3.1183,0.0227,-0.0554,rough,14.0,3,19.355
7390,236.48,-11.4360,0.8599,-0.0901,-3.1184,0.0232,-0.0555,rough,14.0,3,19.380
7400,236.80,-11.4401,0.8599,-0.0900,-3.1184,0.0233,-0.0556,rough,14.0,3,19.384
7410,237.12,-11.4234,0.8599,-0.0903,-3.1183,0.0230,-0.0556,rough,14.0,3,19.367
7420,237.44,-11.3859,0.8599,-0.0911,-3.1182,0.0222,-0.0557,rough,14.0,3,19.330
7430,237.76,-11.3278,0.8599,-0.0923,-3.1181,0.0209,-0.0558,rough,14.0,3,19.272
7440,238.08,-11.2486,0.8600,-0.0940,-3.1177,0.0190,-0.0558,rough,14.0,3,19.193
7450,238.40,-11.1494,0.8600,-0.0959,-3.1173,0.0193,-0.0559,rough,14.0,3,19.094
7460,238.72,-11.0317,0.8600,-0.0980,-3.1166,0.0197,-0.0559,rough,14.0,3,18.976
7470,239.04,-10.8973,0.8601,-0.1001,-3.1160,0.0174,-0.0559,rough,14.0,3,18.842
7480,239.36,-10.7474,0.8601,-0.1024,-3.1157,0.0140,-0.0560,rough,14.0,3,18.692
7490,239.68,-10.5833,0.8602,-0.1046,-3.1151,0.0142,-0.0561,rough,14.0,3,18.528
7500,240.00,-10.4067,0.8602,-0.1065,-3.1144,0.0122,-0.0561,rough,14.0,3,18.352
7510,240.32,-10.2198,0.8602,-0.1084,-3.1140,0.0084,-0.0562,rough,14.0,3,18.165
7520,240.64,-10.0248,0.8602,-0.1098,-3.1137,0.0087,-0.0561,rough,14.0,3,17.970
7530,240.96,-9.8242,0.8602,-0.1106,-3.1134,0.0047,-0.0563,rough,14.0,3,17.770
7540,241.28,-9.6200,0.8602,-0.1111,-3.1132,0.0024,-0.0564,rough,14.0,3,17.566
7550,241.60,-9.4146,0.8602,-0.1110,-3.1130,0.0006,-0.0565,rough,14.0,3,17.361
7560,241.92,-9.2104,0.8602,-0.1106,-3.1131,-0.0034,-0.0567,rough,14.0,3,17.157
7570,242.24,-9.0103,0.8601,-0.1097,-3.1131,-0.0036,-0.0565,rough,14.0,3,16.957
7580,242.56,-8.8165,0.8601,-0.1082,-3.1134,-0.0071,-0.0566,rough,14.0,3,16.764
7590,242.88,-8.6310,0.8585,-0.1065,-3.1136,-0.0092,-0.0603,rough,14.0,3,16.579
7600,243.20,-8.4560,0.8584,-0.1045,-3.1140,-0.0103,-0.0609,rough,14.0,3,16.404
7610,243.52,-8.2937,0.8584,-0.1024,-3.1144,-0.0130,-0.0611,rough,14.0,3,16.242
7620,243.84,-8.1454,0.8583,-0.1002,-3.1147,-0.0146,-0.0614,rough,14.0,3,16.094
7630,244.16,-8.0132,0.8583,-0.0980,-3.1151,-0.0152,-0.0616,rough,14.0,3,15.962
7640,244.48,-7.8981,0.8582,-0.0959,-3.1157,-0.0169,-0.0617,rough,14.0,3,15.847
7650,244.80,-7.8021,0.8582,-0.0941,-3.1160,-0.0182,-0.0619,rough,14.0,3,15.751
7660,245.12,-7.7256,0.8582,-0.0926,-3.1163,-0.0192,-0.0620,rough,14.0,3,15.675
7670,245.44,-7.6691,0.8581,-0.0915,-3.1164,-0.0197,-0.0622,rough,14.0,3,15.619
7680,245.76,-7.6338,0.8581,-0.0907,-3.1165,-0.0199,-0.0623,rough,14.0,3,15.583
7690,246.08,-7.6197,0.8581,-0.0904,-3.1166,-0.0199,-0.0624,rough,14.0,3,15.569
7700,246.40,-7.6269,0.8581,-0.0906,-3.1165,-0.0199,-0.0625,rough,14.0,3,15.577
7710,246.72,-7.6553,0.8581,-0.0912,-3.1164,-0.0198,-0.0626,rough,14.0,3,15.605
7720,247.04,-7.7049,0.8578,-0.0922,-3.1163,-0.0194,-0.0647,rough,14.0,3,15.654
7730,247.36,-7.7748,0.8578,-0.0936,-3.1161,-0.0185,-0.0646,rough,14.0,3,15.724
7740,247.68,-7.8642,0.8579,-0.0953,-3.1157,-0.0173,-0.0646,rough,14.0,3,15.813
7750,248.00,-7.9727,0.8579,-0.0973,-3.1152,-0.0156,-0.0646,rough,14.0,3,15.922
