step,time_s,x,y,z,roll,pitch,yaw,terrain,speed,target_idx,dist_to_target
10,0.32,0.0822,-0.0578,0.2075,0.0000,-0.0801,-0.0002,rough,14.0,0,5.334
20,0.64,0.4605,-0.0604,0.2445,0.0119,-0.1150,-0.1109,rough,14.0,0,5.044
30,0.96,0.8327,-0.1138,0.3017,0.0197,-0.2102,-0.1880,rough,14.0,0,4.734
40,1.28,1.2046,-0.1988,0.3908,0.0369,-0.2721,-0.2629,rough,14.0,0,4.412
50,1.60,1.5593,-0.3152,0.5051,0.0862,-0.3230,-0.3483,rough,14.0,0,4.088
60,1.92,1.8901,-0.4554,0.6416,0.1101,-0.3986,-0.4105,rough,14.0,0,3.769
70,2.24,2.2153,-0.6173,0.7969,0.1370,-0.4281,-0.4733,rough,14.0,0,3.443
80,2.56,2.5412,-0.7979,0.9616,0.1780,-0.4179,-0.5461,rough,14.0,0,3.110
90,2.88,2.8523,-1.0071,1.1229,0.2036,-0.4097,-0.6194,rough,14.0,0,2.769
100,3.20,3.1532,-1.2416,1.2749,0.2330,-0.3735,-0.6886,rough,14.0,0,2.420
110,3.52,3.4468,-1.5018,1.4187,0.2510,-0.3309,-0.7595,rough,14.0,0,2.061
120,3.84,3.7271,-1.7850,1.5474,0.2678,-0.2937,-0.8273,rough,14.0,0,1.699
130,4.16,3.9920,-2.0872,1.6586,0.2836,-0.2407,-0.9049,rough,14.0,0,1.341
140,4.48,4.2260,-2.4122,1.7507,0.2984,-0.2075,-0.9938,rough,14.0,0,0.994
150,4.80,4.3992,-2.7316,1.8139,0.3355,-0.1545,-1.1644,rough,14.0,1,7.598
160,5.12,4.4798,-3.0461,1.8412,0.3422,-0.0643,-1.3645,rough,14.0,1,7.424
170,5.44,4.4923,-3.4122,1.8410,0.3480,0.0124,-1.5594,rough,14.0,1,7.176
180,5.76,4.4391,-3.8039,1.8146,0.3414,0.0768,-1.7275,rough,14.0,1,6.872
190,6.08,4.3290,-4.2038,1.7657,0.3297,0.1294,-1.8660,rough,14.0,1,6.529
200,6.40,4.1934,-4.6142,1.7050,0.3250,0.1562,-1.9297,rough,14.0,1,6.168
210,6.72,4.0187,-4.9998,1.6279,0.3075,0.1902,-2.0234,rough,14.0,1,5.799
220,7.04,3.8138,-5.3722,1.5389,0.2962,0.2158,-2.1002,rough,14.0,1,5.419
230,7.36,3.5948,-5.7382,1.4437,0.2855,0.2337,-2.1547,rough,14.0,1,5.038
240,7.68,3.3514,-6.0790,1.3394,0.2713,0.2517,-2.2173,rough,14.0,1,4.656
250,8.00,3.0920,-6.4072,1.2294,0.2605,0.2678,-2.2733,rough,14.0,1,4.273
260,8.32,2.8164,-6.7204,1.1142,0.2446,0.2777,-2.3309,rough,14.0,1,3.888
270,8.64,2.5234,-7.0200,0.9941,0.2302,0.2878,-2.3884,rough,14.0,1,3.499
280,8.96,2.2137,-7.2959,0.8698,0.2152,0.2953,-2.4446,rough,14.0,1,3.111
290,9.28,1.8909,-7.5601,0.7430,0.2006,0.3037,-2.5057,rough,14.0,1,2.721
300,9.60,1.5499,-7.7989,0.6126,0.1850,0.3087,-2.5632,rough,14.0,1,2.329
310,9.92,1.1997,-8.0192,0.4810,0.1667,0.3139,-2.6285,rough,14.0,1,1.940
320,10.24,0.8361,-8.2123,0.3476,0.1457,0.3186,-2.7008,rough,14.0,1,1.554
330,10.56,0.4621,-8.3763,0.2133,0.1270,0.3292,-2.7831,rough,14.0,1,1.174
340,10.88,0.0914,-8.5023,0.1080,0.0549,0.2023,-2.8744,rough,14.0,1,0.817
350,11.20,-0.2670,-8.5695,0.0573,0.0154,0.0810,-2.9988,rough,14.0,2,5.527
360,11.52,-0.6264,-8.6090,0.0488,0.0093,-0.0185,3.1024,rough,14.0,2,5.373
370,11.84,-1.0111,-8.5852,0.0573,0.0130,-0.0220,2.9087,rough,14.0,2,5.173
380,12.16,-1.3945,-8.4841,0.0671,0.0150,-0.0253,2.7495,rough,14.0,2,4.923
390,12.48,-1.7642,-8.3192,0.0778,0.0171,-0.0266,2.6109,rough,14.0,2,4.637
400,12.80,-2.1122,-8.0980,0.0896,0.0195,-0.0293,2.5009,rough,14.0,2,4.322
410,13.12,-2.4259,-7.8388,0.1018,0.0199,-0.0281,2.3653,rough,14.0,2,3.994
420,13.44,-2.7073,-7.5336,0.1147,0.0245,-0.0300,2.2626,rough,14.0,2,3.642
430,13.76,-2.9602,-7.1984,0.1272,0.0253,-0.0293,2.1768,rough,14.0,2,3.277
440,14.08,-3.1869,-6.8407,0.1392,0.0233,-0.0264,2.1009,rough,14.0,2,2.905
450,14.40,-3.3828,-6.4678,0.1439,0.0461,-0.0059,2.0221,rough,14.0,2,2.533
460,14.72,-3.5560,-6.0815,0.1587,0.0231,-0.0188,1.9581,rough,14.0,2,2.162
470,15.04,-3.7020,-5.6821,0.1668,0.0189,-0.0174,1.8965,rough,14.0,2,1.795
480,15.36,-3.8186,-5.2809,0.1723,0.0147,-0.0073,1.8172,rough,14.0,2,1.447
490,15.68,-3.8947,-4.8642,0.1761,0.0055,-0.0008,1.7218,rough,14.0,2,1.112
500,16.00,-3.9455,-4.4378,0.1798,0.0010,-0.0016,1.6599,rough,14.0,2,0.832
510,16.32,-3.9751,-4.0114,0.1823,-0.0032,-0.0054,1.6009,rough,14.0,3,10.495
520,16.64,-3.9846,-3.5748,0.1842,-0.0130,-0.0040,1.5378,rough,14.0,3,10.080
530,16.96,-3.9683,-3.1376,0.1865,-0.0190,-0.0070,1.4870,rough,14.0,3,9.659
540,17.28,-3.9301,-2.7005,0.1895,-0.0247,-0.0081,1.4455,rough,14.0,3,9.233
550,17.60,-3.8740,-2.2641,0.1932,-0.0294,-0.0086,1.4106,rough,14.0,3,8.802
560,17.92,-3.8024,-1.8293,0.1972,-0.0317,-0.0088,1.3812,rough,14.0,3,8.368
570,18.24,-3.7175,-1.3955,0.2014,-0.0329,-0.0104,1.3545,rough,14.0,3,7.932
580,18.56,-3.6207,-0.9630,0.2058,-0.0328,-0.0099,1.3321,rough,14.0,3,7.493
590,18.88,-3.5139,-0.5324,0.2098,-0.0331,-0.0084,1.3139,rough,14.0,3,7.052
600,19.20,-3.3989,-0.1037,0.2131,-0.0307,-0.0049,1.3029,rough,14.0,3,6.611
610,19.52,-3.2795,0.3229,0.2152,-0.0268,-0.0040,1.2949,rough,14.0,3,6.171
620,19.84,-3.1566,0.7516,0.2167,-0.0234,-0.0020,1.2867,rough,14.0,3,5.728
630,20.16,-3.0307,1.1776,0.2168,-0.0229,0.0008,1.2708,rough,14.0,3,5.286
640,20.48,-2.8972,1.6023,0.2156,-0.0208,0.0050,1.2579,rough,14.0,3,4.843
650,20.80,-2.7584,2.0251,0.2122,-0.0187,0.0101,1.2491,rough,14.0,3,4.401
660,21.12,-2.6160,2.4465,0.2069,-0.0166,0.0163,1.2366,rough,14.0,3,3.958
670,21.44,-2.4691,2.8655,0.1984,-0.0144,0.0223,1.2219,rough,14.0,3,3.516
680,21.76,-2.3156,3.2849,0.1881,-0.0138,0.0272,1.2121,rough,14.0,3,3.072
690,22.08,-2.1570,3.7013,0.1731,-0.0052,0.0262,1.1973,rough,14.0,3,2.629
700,22.40,-1.9929,4.1157,0.1597,-0.0067,0.0361,1.1820,rough,14.0,3,2.185
710,22.72,-1.8225,4.5268,0.1429,-0.0037,0.0404,1.1685,rough,14.0,3,1.743
720,23.04,-1.6469,4.9349,0.1253,-0.0003,0.0400,1.1516,rough,14.0,3,1.303
730,23.36,-1.4647,5.3388,0.1076,0.0029,0.0405,1.1289,rough,14.0,3,0.866
740,23.68,-1.3246,5.6204,0.0953,-0.0063,0.0376,0.8630,rough,14.0,0,10.601
750,24.00,-1.1354,5.7861,0.0863,-0.0177,0.0325,0.5133,rough,14.0,0,10.646
760,24.32,-0.8992,5.9080,0.0781,-0.0270,0.0237,0.1758,rough,14.0,0,10.636
770,24.64,-0.6260,5.9602,0.0718,-0.0340,0.0131,-0.1302,rough,14.0,0,10.553
780,24.96,-0.3421,5.9146,0.0768,-0.0383,-0.0670,-0.3594,rough,14.0,0,10.384
790,25.28,-0.0927,5.7807,0.1055,0.0326,-0.1584,-0.4863,rough,14.0,0,10.155
800,25.60,0.1405,5.6152,0.1621,0.0680,-0.2537,-0.6370,rough,14.0,0,9.907
810,25.92,0.4167,5.3825,0.2449,0.1697,-0.3012,-0.6685,rough,14.0,0,9.582
820,26.24,0.7130,5.1205,0.3623,0.1970,-0.2872,-0.7411,rough,14.0,0,9.226
830,26.56,0.9992,4.8332,0.4763,0.2189,-0.2665,-0.8076,rough,14.0,0,8.852
840,26.88,1.2653,4.5266,0.5854,0.2359,-0.2583,-0.8655,rough,14.0,0,8.471
850,27.20,1.5184,4.1992,0.6822,0.2576,-0.2366,-0.9164,rough,14.0,0,8.076
860,27.52,1.7582,3.8579,0.7818,0.2722,-0.2236,-0.9626,rough,14.0,0,7.675
870,27.84,1.9901,3.5046,0.8674,0.3035,-0.2072,-0.9979,rough,14.0,0,7.266
880,28.16,2.2082,3.1394,0.9441,0.3224,-0.1784,-1.0354,rough,14.0,0,6.852
890,28.48,2.4166,2.7643,1.0178,0.3315,-0.1695,-1.0667,rough,14.0,0,6.433
900,28.80,2.6134,2.3778,1.0796,0.3648,-0.1493,-1.0960,rough,14.0,0,6.007
910,29.12,2.7979,1.9839,1.1359,0.3904,-0.1391,-1.1227,rough,14.0,0,5.579
920,29.44,2.9698,1.5863,1.1922,0.4116,-0.1342,-1.1459,rough,14.0,0,5.151
930,29.76,3.1358,1.1877,1.2499,0.4111,-0.1367,-1.1753,rough,14.0,0,4.724
940,30.08,3.2945,0.7822,1.3122,0.4170,-0.1515,-1.2054,rough,14.0,0,4.293
950,30.40,3.4425,0.3720,1.3754,0.4181,-0.1457,-1.2293,rough,14.0,0,3.861
960,30.72,3.5780,-0.0404,1.4395,0.4205,-0.1510,-1.2614,rough,14.0,0,3.430
970,31.04,3.6998,-0.4568,1.4994,0.4093,-0.1544,-1.2930,rough,14.0,0,2.998
980,31.36,3.8162,-0.8797,1.5627,0.3970,-0.1438,-1.3162,rough,14.0,0,2.561
990,31.68,3.9229,-1.3082,1.6167,0.3775,-0.1207,-1.3294,rough,14.0,0,2.121
1000,32.00,4.0220,-1.7392,1.6662,0.3708,-0.1005,-1.3497,rough,14.0,0,1.681
1010,32.32,4.1107,-2.1724,1.7055,0.3636,-0.0825,-1.3665,rough,14.0,0,1.240
1020,32.64,4.1941,-2.6079,1.7392,0.3518,-0.0652,-1.3916,rough,14.0,1,0.800
1030,32.96,4.2097,-2.9962,1.7421,0.3497,0.0042,-1.5623,rough,14.0,1,7.275
1040,33.28,4.1589,-3.4000,1.7196,0.3466,0.0688,-1.7164,rough,14.0,1,6.947
1050,33.60,4.0570,-3.8085,1.6743,0.3332,0.1158,-1.8353,rough,14.0,1,6.588
1060,33.92,3.9158,-4.2114,1.6118,0.3205,0.1469,-1.9296,rough,14.0,1,6.210
1070,34.24,3.7454,-4.6079,1.5381,0.3117,0.1810,-1.9955,rough,14.0,1,5.822
1080,34.56,3.5501,-4.9875,1.4519,0.2962,0.2068,-2.0664,rough,14.0,1,5.431
1090,34.88,3.3334,-5.3550,1.3576,0.2862,0.2268,-2.1254,rough,14.0,1,5.035
1100,35.20,3.1040,-5.7157,1.2573,0.2771,0.2404,-2.1708,rough,14.0,1,4.639
1110,35.52,2.8574,-6.0560,1.1511,0.2653,0.2538,-2.2222,rough,14.0,1,4.245
1120,35.84,2.5962,-6.3873,1.0402,0.2551,0.2647,-2.2691,rough,14.0,1,3.848
1130,36.16,2.3190,-6.7021,0.9248,0.2432,0.2733,-2.3179,rough,14.0,1,3.451
1140,36.48,2.0293,-7.0079,0.8066,0.2315,0.2807,-2.3680,rough,14.0,1,3.053
1150,36.80,1.7253,-7.2923,0.6856,0.2190,0.2862,-2.4177,rough,14.0,1,2.658
1160,37.12,1.4080,-7.5658,0.5624,0.2058,0.2928,-2.4742,rough,14.0,1,2.261
1170,37.44,1.0728,-7.8152,0.4361,0.1920,0.2977,-2.5302,rough,14.0,1,1.864
1180,37.76,0.7301,-8.0481,0.3095,0.1729,0.3057,-2.6007,rough,14.0,1,1.474
1190,38.08,0.3780,-8.2533,0.1830,0.1255,0.2839,-2.6920,rough,14.0,1,1.094
1200,38.40,0.0215,-8.4024,0.0909,0.0614,0.1638,-2.7966,rough,14.0,2,5.554
1210,38.72,-0.3071,-8.4957,0.0551,0.0045,0.0754,-2.9173,rough,14.0,2,5.443
1220,39.04,-0.6625,-8.5536,0.0488,0.0019,-0.0184,-3.0139,rough,14.0,2,5.307
1230,39.36,-1.0520,-8.5906,0.0582,0.0065,-0.0247,-3.1072,rough,14.0,2,5.160
1240,39.68,-1.4231,-8.5995,0.0683,0.0118,-0.0281,2.9713,rough,14.0,2,5.019
1250,40.00,-1.7922,-8.5227,0.0793,0.0163,-0.0292,2.7820,rough,14.0,2,4.821
1260,40.32,-2.1516,-8.3742,0.0912,0.0184,-0.0287,2.6157,rough,14.0,2,4.579
1270,40.64,-2.4913,-8.1567,0.1035,0.0224,-0.0314,2.4869,rough,14.0,2,4.293
1280,40.96,-2.8021,-7.8936,0.1163,0.0253,-0.0310,2.3634,rough,14.0,2,3.985
1290,41.28,-3.0786,-7.5908,0.1287,0.0281,-0.0290,2.2460,rough,14.0,2,3.659
1300,41.60,-3.3216,-7.2545,0.1390,0.0371,-0.0275,2.1356,rough,14.0,2,3.318
1310,41.92,-3.5314,-6.8888,0.1513,0.0293,-0.0214,2.0477,rough,14.0,2,2.962
1320,42.24,-3.7074,-6.5072,0.1602,0.0288,-0.0191,1.9573,rough,14.0,2,2.605
1330,42.56,-3.8568,-6.1223,0.1668,0.0292,-0.0139,1.8676,rough,14.0,2,2.260
1340,42.88,-3.9669,-5.7098,0.1709,0.0172,-0.0160,1.7921,rough,14.0,2,1.901
1350,43.20,-4.0462,-5.3032,0.1746,0.0210,-0.0023,1.7364,rough,14.0,2,1.566
1360,43.52,-4.1045,-4.8939,0.1783,0.0095,-0.0031,1.6887,rough,14.0,2,1.262
1370,43.84,-4.1441,-4.4823,0.1798,0.0018,-0.0012,1.5988,rough,14.0,2,1.021
1380,44.16,-4.1484,-4.1136,0.1808,-0.0051,-0.0018,1.2972,rough,14.0,2,0.885
1390,44.48,-4.0233,-3.7536,0.1799,-0.0115,-0.0089,1.1058,rough,14.0,3,10.263
1400,44.80,-3.8297,-3.3564,0.1873,-0.0107,-0.0130,1.1258,rough,14.0,3,9.826
1410,45.12,-3.6452,-2.9547,0.1944,-0.0157,-0.0176,1.1437,rough,14.0,3,9.388
1420,45.44,-3.4663,-2.5491,0.2018,-0.0191,-0.0149,1.1589,rough,14.0,3,8.948
1430,45.76,-3.2928,-2.1407,0.2103,-0.0210,-0.0184,1.1712,rough,14.0,3,8.508
1440,46.08,-3.1228,-1.7306,0.2180,-0.0217,-0.0154,1.1829,rough,14.0,3,8.067
1450,46.40,-2.9573,-1.3185,0.2231,-0.0221,-0.0191,1.1955,rough,14.0,3,7.626
1460,46.72,-2.7940,-0.9027,0.2281,-0.0172,-0.0088,1.2021,rough,14.0,3,7.182
1470,47.04,-2.6338,-0.4892,0.2303,-0.0114,-0.0035,1.2087,rough,14.0,3,6.741
1480,47.36,-2.4779,-0.0722,0.2307,-0.0086,-0.0000,1.2188,rough,14.0,3,6.299
1490,47.68,-2.3249,0.3479,0.2300,-0.0043,0.0020,1.2249,rough,14.0,3,5.855
1500,48.00,-2.1747,0.7673,0.2291,-0.0008,0.0022,1.2327,rough,14.0,3,5.412
1510,48.32,-2.0282,1.1884,0.2280,-0.0023,0.0030,1.2452,rough,14.0,3,4.969
1520,48.64,-1.8868,1.6118,0.2259,-0.0049,0.0059,1.2567,rough,14.0,3,4.525
1530,48.96,-1.7509,2.0374,0.2218,-0.0088,0.0117,1.2675,rough,14.0,3,4.081
1540,49.28,-1.6198,2.4651,0.2146,-0.0121,0.0219,1.2770,rough,14.0,3,3.636
1550,49.60,-1.4918,2.8945,0.2024,-0.0116,0.0350,1.2865,rough,14.0,3,3.191
1560,49.92,-1.3683,3.3236,0.1889,-0.0122,0.0374,1.2936,rough,14.0,3,2.748
1570,50.24,-1.2465,3.7537,0.1699,-0.0052,0.0376,1.2995,rough,14.0,3,2.305
1580,50.56,-1.1285,4.1838,0.1512,-0.0059,0.0453,1.3051,rough,14.0,3,1.865
1590,50.88,-1.0130,4.6147,0.1307,-0.0020,0.0477,1.3127,rough,14.0,3,1.427
1600,51.20,-0.9014,5.0458,0.1101,0.0017,0.0445,1.3210,rough,14.0,3,0.996
1610,51.52,-0.8122,5.4337,0.0930,-0.0005,0.0409,1.2147,rough,14.0,0,10.179
1620,51.84,-0.7004,5.7212,0.0808,-0.0078,0.0374,0.9620,rough,14.0,0,10.376
1630,52.16,-0.5314,5.9590,0.0703,-0.0151,0.0320,0.6795,rough,14.0,0,10.508
1640,52.48,-0.3608,6.1116,0.0734,-0.0587,0.0055,0.4595,rough,14.0,0,10.569
1650,52.80,-0.1973,6.2065,0.0822,-0.0758,-0.0774,0.3108,rough,14.0,0,10.585
1660,53.12,0.0090,6.2818,0.1038,-0.0558,-0.1640,0.1603,rough,14.0,0,10.570
1670,53.44,0.2796,6.3299,0.1698,-0.0117,-0.3133,-0.0743,rough,14.0,0,10.509
1680,53.76,0.5389,6.2975,0.2554,0.0222,-0.3410,-0.1428,rough,14.0,0,10.384
1690,54.08,0.8083,6.2412,0.3552,0.0444,-0.3466,-0.2102,rough,14.0,0,10.238
1700,54.40,1.1023,6.1649,0.4645,0.0843,-0.3415,-0.3299,rough,14.0,0,10.071
1710,54.72,1.3908,6.0356,0.5742,0.1191,-0.3357,-0.4294,rough,14.0,0,9.861
1720,55.04,1.7024,5.8747,0.6943,0.1615,-0.3182,-0.5705,rough,14.0,0,9.620
1730,55.36,2.0059,5.6645,0.8154,0.2018,-0.3008,-0.6957,rough,14.0,0,9.341
1740,55.68,2.2768,5.4005,0.9263,0.2310,-0.2813,-0.7952,rough,14.0,0,9.022
1750,56.00,2.3630,5.2717,0.9645,0.2254,-0.2940,-0.7746,rough,14.0,0,8.878
1760,56.32,2.2814,5.1587,0.9391,0.1433,-0.3495,-0.5168,rough,14.0,0,8.785
1770,56.64,2.2740,5.0839,0.9358,0.0600,-0.3530,-0.2694,rough,14.0,0,8.714
1780,56.96,2.2687,5.0437,0.9357,0.0229,-0.3602,-0.1626,rough,14.0,0,8.676
1790,57.28,2.2679,5.0194,0.9368,-0.0012,-0.3635,-0.0940,rough,14.0,0,8.652
1800,57.60,2.2687,5.0055,0.9350,-0.0165,-0.3473,-0.0504,rough,14.0,0,8.639
1810,57.92,2.2692,4.9967,0.9367,-0.0257,-0.3544,-0.0242,rough,14.0,0,8.630
1820,58.24,2.2695,4.9919,0.9377,-0.0308,-0.3582,-0.0096,rough,14.0,0,8.625
1830,58.56,2.2697,4.9886,0.9379,-0.0335,-0.3580,-0.0019,rough,14.0,0,8.622
1840,58.88,2.2701,4.9866,0.9372,-0.0356,-0.3526,0.0043,rough,14.0,0,8.620
1850,59.20,2.2701,4.9855,0.9386,-0.0366,-0.3603,0.0071,rough,14.0,0,8.619
1860,59.52,2.2697,4.9838,0.9385,-0.0359,-0.3605,0.0052,rough,14.0,0,8.617
1870,59.84,2.2696,4.9825,0.9385,-0.0366,-0.3605,0.0071,rough,14.0,0,8.616
1880,60.16,2.2697,4.9818,0.9385,-0.0374,-0.3604,0.0094,rough,14.0,0,8.615
1890,60.48,2.2697,4.9813,0.9386,-0.0379,-0.3603,0.0109,rough,14.0,0,8.615
1900,60.80,2.2698,4.9810,0.9386,-0.0382,-0.3603,0.0119,rough,14.0,0,8.615
1910,61.12,2.2698,4.9808,0.9386,-0.0385,-0.3603,0.0126,rough,14.0,0,8.614
1920,61.44,2.2698,4.9807,0.9386,-0.0386,-0.3602,0.0130,rough,14.0,0,8.614
1930,61.76,2.2698,4.9806,0.9386,-0.0387,-0.3602,0.0133,rough,14.0,0,8.614
1940,62.08,2.2698,4.9806,0.9386,-0.0388,-0.3602,0.0136,rough,14.0,0,8.614
1950,62.40,2.2699,4.9806,0.9387,-0.0390,-0.3602,0.0141,rough,14.0,0,8.614
1960,62.72,2.2701,4.9809,0.9387,-0.0393,-0.3602,0.0149,rough,14.0,0,8.614
1970,63.04,2.2703,4.9814,0.9388,-0.0397,-0.3601,0.0162,rough,14.0,0,8.615
1980,63.36,2.2707,4.9824,0.9389,-0.0406,-0.3600,0.0187,rough,14.0,0,8.616
1990,63.68,2.2716,4.9843,0.9392,-0.0421,-0.3599,0.0229,rough,14.0,0,8.617
2000,64.00,2.2722,4.9877,0.9393,-0.0448,-0.3596,0.0307,rough,14.0,0,8.621
2010,64.32,2.2725,4.9939,0.9391,-0.0501,-0.3588,0.0459,rough,14.0,0,8.627
2020,64.64,2.2721,5.0058,0.9386,-0.0609,-0.3570,0.0771,rough,14.0,0,8.638
2030,64.96,2.2695,5.0246,0.9372,-0.0674,-0.3579,0.0959,rough,14.0,0,8.657
2040,65.28,2.2688,5.0381,0.9362,-0.0592,-0.3575,0.0715,rough,14.0,0,8.670
2050,65.60,2.2686,5.0451,0.9359,-0.0542,-0.3583,0.0572,rough,14.0,0,8.677
2060,65.92,2.2687,5.0500,0.9357,-0.0499,-0.3590,0.0447,rough,14.0,0,8.682
2070,66.24,2.2691,5.0534,0.9357,-0.0466,-0.3594,0.0353,rough,14.0,0,8.685
2080,66.56,2.2689,5.0560,0.9356,-0.0446,-0.3597,0.0294,rough,14.0,0,8.688
2090,66.88,2.2691,5.0577,0.9356,-0.0429,-0.3599,0.0245,rough,14.0,0,8.689
2100,67.20,2.2693,5.0590,0.9356,-0.0417,-0.3600,0.0211,rough,14.0,0,8.691
2110,67.52,2.2694,5.0598,0.9356,-0.0409,-0.3601,0.0187,rough,14.0,0,8.691
2120,67.84,2.2695,5.0604,0.9356,-0.0403,-0.3602,0.0171,rough,14.0,0,8.692
2130,68.16,2.2695,5.0608,0.9356,-0.0399,-0.3603,0.0160,rough,14.0,0,8.692
2140,68.48,2.2696,5.0610,0.9356,-0.0396,-0.3603,0.0152,rough,14.0,0,8.693
2150,68.80,2.2696,5.0612,0.9356,-0.0395,-0.3603,0.0147,rough,14.0,0,8.693
2160,69.12,2.2696,5.0614,0.9356,-0.0393,-0.3603,0.0143,rough,14.0,0,8.693
2170,69.44,2.2696,5.0614,0.9356,-0.0392,-0.3603,0.0141,rough,14.0,0,8.693
2180,69.76,2.2697,5.0615,0.9357,-0.0391,-0.3603,0.0138,rough,14.0,0,8.693
2190,70.08,2.2697,5.0614,0.9357,-0.0390,-0.3604,0.0133,rough,14.0,0,8.693
2200,70.40,2.2698,5.0612,0.9357,-0.0387,-0.3604,0.0124,rough,14.0,0,8.693
2210,70.72,2.2699,5.0606,0.9358,-0.0382,-0.3605,0.0109,rough,14.0,0,8.692
2220,71.04,2.2705,5.0595,0.9360,-0.0372,-0.3606,0.0082,rough,14.0,0,8.691
2230,71.36,2.2714,5.0575,0.9364,-0.0355,-0.3608,0.0034,rough,14.0,0,8.689
2240,71.68,2.2723,5.0537,0.9369,-0.0326,-0.3611,-0.0049,rough,14.0,0,8.685
2250,72.00,2.2724,5.0469,0.9372,-0.0275,-0.3615,-0.0195,rough,14.0,0,8.678
2260,72.32,2.2721,5.0347,0.9376,-0.0190,-0.3620,-0.0438,rough,14.0,0,8.666
2270,72.64,2.2700,5.0163,0.9359,-0.0116,-0.3524,-0.0648,rough,14.0,0,8.649
2280,72.96,2.2691,5.0036,0.9377,-0.0200,-0.3626,-0.0407,rough,14.0,0,8.637
2290,73.28,2.2693,4.9961,0.9355,-0.0267,-0.3460,-0.0213,rough,14.0,0,8.629
2300,73.60,2.2697,4.9914,0.9370,-0.0318,-0.3534,-0.0066,rough,14.0,0,8.625
2310,73.92,2.2699,4.9884,0.9372,-0.0341,-0.3530,-0.0002,rough,14.0,0,8.622
2320,74.24,2.2701,4.9866,0.9359,-0.0357,-0.3439,0.0045,rough,14.0,0,8.620
2330,74.56,2.2701,4.9854,0.9380,-0.0368,-0.3566,0.0078,rough,14.0,0,8.619
2340,74.88,2.2702,4.9847,0.9385,-0.0377,-0.3596,0.0102,rough,14.0,0,8.618
2350,75.20,2.2699,4.9836,0.9386,-0.0370,-0.3604,0.0083,rough,14.0,0,8.617
2360,75.52,2.2696,4.9823,0.9385,-0.0367,-0.3605,0.0075,rough,14.0,0,8.616
2370,75.84,2.2697,4.9817,0.9385,-0.0375,-0.3604,0.0098,rough,14.0,0,8.615
2380,76.16,2.2697,4.9812,0.9386,-0.0380,-0.3603,0.0111,rough,14.0,0,8.615
2390,76.48,2.2698,4.9810,0.9386,-0.0383,-0.3603,0.0121,rough,14.0,0,8.615
2400,76.80,2.2698,4.9808,0.9386,-0.0385,-0.3603,0.0127,rough,14.0,0,8.614
2410,77.12,2.2698,4.9807,0.9386,-0.0386,-0.3602,0.0131,rough,14.0,0,8.614
2420,77.44,2.2698,4.9806,0.9386,-0.0387,-0.3602,0.0133,rough,14.0,0,8.614
2430,77.76,2.2699,4.9806,0.9387,-0.0389,-0.3602,0.0137,rough,14.0,0,8.614
2440,78.08,2.2700,4.9807,0.9387,-0.0390,-0.3602,0.0142,rough,14.0,0,8.614
2450,78.40,2.2702,4.9810,0.9387,-0.0393,-0.3602,0.0151,rough,14.0,0,8.614
2460,78.72,2.2704,4.9816,0.9388,-0.0399,-0.3601,0.0167,rough,14.0,0,8.615
2470,79.04,2.2709,4.9828,0.9390,-0.0408,-0.3600,0.0194,rough,14.0,0,8.616
2480,79.36,2.2717,4.9849,0.9392,-0.0425,-0.3598,0.0243,rough,14.0,0,8.618
2490,79.68,2.2723,4.9888,0.9393,-0.0457,-0.3594,0.0333,rough,14.0,0,8.622
2500,80.00,2.2725,4.9960,0.9391,-0.0519,-0.3586,0.0510,rough,14.0,0,8.629
2510,80.32,2.2718,5.0097,0.9383,-0.0648,-0.3564,0.0883,rough,14.0,0,8.642
2520,80.64,2.2692,5.0295,0.9357,-0.0645,-0.3504,0.0873,rough,14.0,0,8.662
2530,80.96,2.2688,5.0425,0.9360,-0.0559,-0.3579,0.0620,rough,14.0,0,8.675
2540,81.28,2.2686,5.0483,0.9357,-0.0516,-0.3587,0.0495,rough,14.0,0,8.680
2550,81.60,2.2690,5.0522,0.9357,-0.0478,-0.3592,0.0386,rough,14.0,0,8.684
2560,81.92,2.2690,5.0551,0.9356,-0.0454,-0.3596,0.0317,rough,14.0,0,8.687
2570,82.24,2.2691,5.0571,0.9356,-0.0435,-0.3598,0.0262,rough,14.0,0,8.689
2580,82.56,2.2692,5.0585,0.9356,-0.0421,-0.3600,0.0223,rough,14.0,0,8.690
2590,82.88,2.2694,5.0595,0.9356,-0.0412,-0.3601,0.0196,rough,14.0,0,8.691
2600,83.20,2.2695,5.0602,0.9356,-0.0405,-0.3602,0.0177,rough,14.0,0,8.692
2610,83.52,2.2695,5.0606,0.9356,-0.0401,-0.3602,0.0164,rough,14.0,0,8.692
2620,83.84,2.2696,5.0609,0.9356,-0.0397,-0.3603,0.0155,rough,14.0,0,8.692
2630,84.16,2.2696,5.0612,0.9356,-0.0395,-0.3603,0.0149,rough,14.0,0,8.693
2640,84.48,2.2696,5.0613,0.9356,-0.0394,-0.3603,0.0145,rough,14.0,0,8.693
2650,84.80,2.2696,5.0614,0.9356,-0.0393,-0.3603,0.0142,rough,14.0,0,8.693
2660,85.12,2.2697,5.0615,0.9357,-0.0392,-0.3603,0.0139,rough,14.0,0,8.693
2670,85.44,2.2697,5.0615,0.9357,-0.0391,-0.3604,0.0135,rough,14.0,0,8.693
2680,85.76,2.2697,5.0613,0.9357,-0.0388,-0.3604,0.0128,rough,14.0,0,8.693
2690,86.08,2.2699,5.0609,0.9358,-0.0384,-0.3605,0.0116,rough,14.0,0,8.692
2700,86.40,2.2702,5.0601,0.9359,-0.0377,-0.3605,0.0094,rough,14.0,0,8.691
2710,86.72,2.2709,5.0585,0.9363,-0.0363,-0.3607,0.0056,rough,14.0,0,8.690
2720,87.04,2.2721,5.0555,0.9368,-0.0340,-0.3610,-0.0010,rough,14.0,0,8.687
2730,87.36,2.2724,5.0501,0.9371,-0.0299,-0.3613,-0.0127,rough,14.0,0,8.681
2740,87.68,2.2723,5.0404,0.9375,-0.0229,-0.3618,-0.0327,rough,14.0,0,8.672
2750,88.00,2.2712,5.0234,0.9376,-0.0117,-0.3624,-0.0648,rough,14.0,0,8.656
2760,88.32,2.2692,5.0079,0.9376,-0.0170,-0.3631,-0.0492,rough,14.0,0,8.641
2770,88.64,2.2694,4.9985,0.9367,-0.0252,-0.3541,-0.0258,rough,14.0,0,8.632
2780,88.96,2.2695,4.9928,0.9370,-0.0300,-0.3541,-0.0119,rough,14.0,0,8.626
2790,89.28,2.2697,4.9895,0.9378,-0.0331,-0.3577,-0.0028,rough,14.0,0,8.623
2800,89.60,2.2700,4.9872,0.9379,-0.0351,-0.3572,0.0030,rough,14.0,0,8.621
2810,89.92,2.2700,4.9856,0.9385,-0.0358,-0.3605,0.0049,rough,14.0,0,8.619
2820,90.24,2.2702,4.9849,0.9359,-0.0373,-0.3431,0.0092,rough,14.0,0,8.618
2830,90.56,2.2701,4.9841,0.9386,-0.0372,-0.3603,0.0088,rough,14.0,0,8.617
2840,90.88,2.2697,4.9827,0.9385,-0.0364,-0.3605,0.0067,rough,14.0,0,8.616
2850,91.20,2.2696,4.9819,0.9385,-0.0372,-0.3604,0.0090,rough,14.0,0,8.615
2860,91.52,2.2697,4.9814,0.9386,-0.0378,-0.3603,0.0107,rough,14.0,0,8.615
2870,91.84,2.2698,4.9811,0.9386,-0.0382,-0.3603,0.0117,rough,14.0,0,8.615
2880,92.16,2.2698,4.9808,0.9386,-0.0384,-0.3603,0.0125,rough,14.0,0,8.614
2890,92.48,2.2698,4.9807,0.9386,-0.0386,-0.3602,0.0129,rough,14.0,0,8.614
2900,92.80,2.2698,4.9806,0.9386,-0.0387,-0.3602,0.0132,rough,14.0,0,8.614
2910,93.12,2.2698,4.9806,0.9386,-0.0388,-0.3602,0.0135,rough,14.0,0,8.614
2920,93.44,2.2699,4.9806,0.9387,-0.0390,-0.3602,0.0140,rough,14.0,0,8.614
2930,93.76,2.2701,4.9808,0.9387,-0.0392,-0.3602,0.0147,rough,14.0,0,8.614
2940,94.08,2.2704,4.9813,0.9388,-0.0396,-0.3601,0.0159,rough,14.0,0,8.615
2950,94.40,2.2706,4.9822,0.9389,-0.0404,-0.3600,0.0181,rough,14.0,0,8.616
2960,94.72,2.2714,4.9839,0.9391,-0.0417,-0.3599,0.0220,rough,14.0,0,8.617
2970,95.04,2.2722,4.9869,0.9393,-0.0442,-0.3596,0.0289,rough,14.0,0,8.620
2980,95.36,2.2725,4.9925,0.9392,-0.0489,-0.3590,0.0424,rough,14.0,0,8.625
2990,95.68,2.2723,5.0031,0.9387,-0.0584,-0.3575,0.0697,rough,14.0,0,8.636
3000,96.00,2.2695,5.0211,0.9357,-0.0719,-0.3464,0.1088,rough,14.0,0,8.654
3010,96.32,2.2692,5.0394,0.9362,-0.0570,-0.3574,0.0651,rough,14.0,0,8.672
3020,96.64,2.2686,5.0462,0.9358,-0.0533,-0.3584,0.0545,rough,14.0,0,8.678
3030,96.96,2.2688,5.0508,0.9357,-0.0492,-0.3591,0.0426,rough,14.0,0,8.683
3040,97.28,2.2692,5.0540,0.9357,-0.0461,-0.3595,0.0338,rough,14.0,0,8.686
3050,97.60,2.2690,5.0564,0.9356,-0.0442,-0.3597,0.0283,rough,14.0,0,8.688
3060,97.92,2.2692,5.0580,0.9356,-0.0426,-0.3599,0.0237,rough,14.0,0,8.690
3070,98.24,2.2693,5.0591,0.9356,-0.0415,-0.3601,0.0206,rough,14.0,0,8.691
3080,98.56,2.2694,5.0599,0.9356,-0.0407,-0.3602,0.0184,rough,14.0,0,8.692
3090,98.88,2.2695,5.0605,0.9356,-0.0402,-0.3602,0.0169,rough,14.0,0,8.692
3100,99.20,2.2696,5.0608,0.9356,-0.0398,-0.3603,0.0158,rough,14.0,0,8.692
3110,99.52,2.2696,5.0611,0.9356,-0.0396,-0.3603,0.0151,rough,14.0,0,8.693
3120,99.84,2.2696,5.0613,0.9356,-0.0394,-0.3603,0.0146,rough,14.0,0,8.693
3130,100.16,2.2696,5.0614,0.9356,-0.0393,-0.3603,0.0143,rough,14.0,0,8.693
3140,100.48,2.2696,5.0615,0.9356,-0.0392,-0.3603,0.0141,rough,14.0,0,8.693
3150,100.80,2.2697,5.0615,0.9357,-0.0391,-0.3603,0.0137,rough,14.0,0,8.693
3160,101.12,2.2697,5.0614,0.9357,-0.0389,-0.3604,0.0132,rough,14.0,0,8.693
3170,101.44,2.2698,5.0611,0.9357,-0.0386,-0.3604,0.0122,rough,14.0,0,8.693
3180,101.76,2.2699,5.0605,0.9358,-0.0380,-0.3605,0.0105,rough,14.0,0,8.692
3190,102.08,2.2706,5.0592,0.9361,-0.0370,-0.3606,0.0074,rough,14.0,0,8.691
3200,102.40,2.2716,5.0569,0.9366,-0.0351,-0.3608,0.0021,rough,14.0,0,8.688
3210,102.72,2.2723,5.0526,0.9370,-0.0318,-0.3612,-0.0072,rough,14.0,0,8.684
3220,103.04,2.2724,5.0450,0.9373,-0.0262,-0.3616,-0.0234,rough,14.0,0,8.676
3230,103.36,2.2719,5.0314,0.9376,-0.0168,-0.3622,-0.0502,rough,14.0,0,8.663
3240,103.68,2.2697,5.0130,0.9376,-0.0137,-0.3634,-0.0587,rough,14.0,0,8.646
3250,104.00,2.2693,5.0016,0.9367,-0.0225,-0.3550,-0.0335,rough,14.0,0,8.635
3260,104.32,2.2693,4.9948,0.9376,-0.0277,-0.3588,-0.0183,rough,14.0,0,8.628
3270,104.64,2.2696,4.9908,0.9381,-0.0319,-0.3602,-0.0062,rough,14.0,0,8.624
3280,104.96,2.2698,4.9880,0.9382,-0.0342,-0.3598,0.0003,rough,14.0,0,8.621
3290,105.28,2.2701,4.9863,0.9380,-0.0361,-0.3568,0.0057,rough,14.0,0,8.620
3300,105.60,2.2697,4.9846,0.9385,-0.0358,-0.3606,0.0049,rough,14.0,0,8.618
3310,105.92,2.2702,4.9842,0.9374,-0.0381,-0.3522,0.0115,rough,14.0,0,8.618
3320,106.24,2.2703,4.9838,0.9387,-0.0379,-0.3603,0.0110,rough,14.0,0,8.617
3330,106.56,2.2699,4.9829,0.9386,-0.0374,-0.3604,0.0094,rough,14.0,0,8.616
3340,106.88,2.2704,4.9833,0.9374,-0.0393,-0.3518,0.0149,rough,14.0,0,8.617
3350,107.20,2.2708,4.9839,0.9389,-0.0398,-0.3599,0.0164,rough,14.0,0,8.617
3360,107.52,2.2713,4.9850,0.9390,-0.0406,-0.3600,0.0187,rough,14.0,0,8.618
3370,107.84,2.2719,4.9868,0.9392,-0.0421,-0.3599,0.0228,rough,14.0,0,8.620
3380,108.16,2.2723,4.9902,0.9392,-0.0447,-0.3596,0.0305,rough,14.0,0,8.623
3390,108.48,2.2724,4.9963,0.9390,-0.0500,-0.3588,0.0456,rough,14.0,0,8.629
3400,108.80,2.2720,5.0081,0.9384,-0.0607,-0.3571,0.0764,rough,14.0,0,8.640
3410,109.12,2.2693,5.0268,0.9370,-0.0673,-0.3574,0.0953,rough,14.0,0,8.659
3420,109.44,2.2690,5.0414,0.9361,-0.0559,-0.3578,0.0619,rough,14.0,0,8.674
3430,109.76,2.2686,5.0476,0.9357,-0.0521,-0.3586,0.0510,rough,14.0,0,8.680
3440,110.08,2.2689,5.0518,0.9357,-0.0482,-0.3592,0.0399,rough,14.0,0,8.684
3450,110.40,2.2690,5.0547,0.9357,-0.0456,-0.3596,0.0324,rough,14.0,0,8.687
3460,110.72,2.2690,5.0569,0.9356,-0.0437,-0.3598,0.0269,rough,14.0,0,8.689
3470,111.04,2.2692,5.0584,0.9356,-0.0423,-0.3600,0.0227,rough,14.0,0,8.690
3480,111.36,2.2694,5.0594,0.9356,-0.0413,-0.3601,0.0199,rough,14.0,0,8.691
3490,111.68,2.2695,5.0601,0.9356,-0.0406,-0.3602,0.0179,rough,14.0,0,8.692
3500,112.00,2.2695,5.0606,0.9356,-0.0401,-0.3602,0.0166,rough,14.0,0,8.692
3510,112.32,2.2696,5.0609,0.9356,-0.0398,-0.3603,0.0156,rough,14.0,0,8.692
3520,112.64,2.2696,5.0611,0.9356,-0.0395,-0.3603,0.0150,rough,14.0,0,8.693
3530,112.96,2.2696,5.0613,0.9356,-0.0394,-0.3603,0.0145,rough,14.0,0,8.693
3540,113.28,2.2696,5.0614,0.9356,-0.0393,-0.3603,0.0142,rough,14.0,0,8.693
3550,113.60,2.2696,5.0615,0.9357,-0.0392,-0.3603,0.0140,rough,14.0,0,8.693
3560,113.92,2.2697,5.0615,0.9357,-0.0391,-0.3604,0.0136,rough,14.0,0,8.693
3570,114.24,2.2697,5.0613,0.9357,-0.0389,-0.3604,0.0130,rough,14.0,0,8.693
3580,114.56,2.2698,5.0610,0.9357,-0.0385,-0.3604,0.0118,rough,14.0,0,8.692
3590,114.88,2.2701,5.0602,0.9359,-0.0378,-0.3605,0.0098,rough,14.0,0,8.692
3600,115.20,2.2708,5.0587,0.9362,-0.0366,-0.3607,0.0063,rough,14.0,0,8.690
3610,115.52,2.2720,5.0560,0.9367,-0.0344,-0.3609,0.0002,rough,14.0,0,8.687
3620,115.84,2.2724,5.0510,0.9371,-0.0306,-0.3613,-0.0107,rough,14.0,0,8.682
3630,116.16,2.2724,5.0421,0.9374,-0.0241,-0.3618,-0.0293,rough,14.0,0,8.673
3640,116.48,2.2715,5.0264,0.9376,-0.0135,-0.3623,-0.0595,rough,14.0,0,8.658
3650,116.80,2.2696,5.0095,0.9375,-0.0163,-0.3617,-0.0512,rough,14.0,0,8.642
3660,117.12,2.2693,4.9997,0.9354,-0.0238,-0.3466,-0.0296,rough,14.0,0,8.633
3670,117.44,2.2694,4.9936,0.9356,-0.0291,-0.3460,-0.0144,rough,14.0,0,8.627
3680,117.76,2.2698,4.9898,0.9371,-0.0329,-0.3530,-0.0035,rough,14.0,0,8.623
3690,118.08,2.2700,4.9874,0.9372,-0.0350,-0.3527,0.0026,rough,14.0,0,8.621
3700,118.40,2.2700,4.9859,0.9385,-0.0359,-0.3604,0.0053,rough,14.0,0,8.619
3710,118.72,2.2700,4.9847,0.9385,-0.0364,-0.3604,0.0065,rough,14.0,0,8.618
3720,119.04,2.2695,4.9831,0.9385,-0.0359,-0.3605,0.0051,rough,14.0,0,8.617
3730,119.36,2.2696,4.9822,0.9385,-0.0369,-0.3604,0.0081,rough,14.0,0,8.616
3740,119.68,2.2697,4.9816,0.9386,-0.0376,-0.3603,0.0101,rough,14.0,0,8.615
3750,120.00,2.2697,4.9812,0.9386,-0.0381,-0.3603,0.0114,rough,14.0,0,8.615
3760,120.32,2.2698,4.9809,0.9386,-0.0383,-0.3603,0.0122,rough,14.0,0,8.615
3770,120.64,2.2698,4.9808,0.9386,-0.0385,-0.3602,0.0128,rough,14.0,0,8.614
3780,120.96,2.2698,4.9806,0.9386,-0.0387,-0.3602,0.0131,rough,14.0,0,8.614
3790,121.28,2.2698,4.9806,0.9386,-0.0388,-0.3602,0.0134,rough,14.0,0,8.614
3800,121.60,2.2699,4.9806,0.9387,-0.0389,-0.3602,0.0138,rough,14.0,0,8.614
3810,121.92,2.2700,4.9807,0.9387,-0.0391,-0.3602,0.0144,rough,14.0,0,8.614
3820,122.24,2.2702,4.9811,0.9388,-0.0394,-0.3601,0.0153,rough,14.0,0,8.615
3830,122.56,2.2704,4.9818,0.9388,-0.0400,-0.3601,0.0171,rough,14.0,0,8.615
3840,122.88,2.2710,4.9831,0.9390,-0.0411,-0.3600,0.0201,rough,14.0,0,8.616
3850,123.20,2.2719,4.9855,0.9392,-0.0430,-0.3598,0.0256,rough,14.0,0,8.618
3860,123.52,2.2724,4.9898,0.9392,-0.0466,-0.3593,0.0358,rough,14.0,0,8.623
3870,123.84,2.2725,4.9980,0.9390,-0.0536,-0.3583,0.0562,rough,14.0,0,8.631
3880,124.16,2.2714,5.0136,0.9380,-0.0687,-0.3555,0.0998,rough,14.0,0,8.646
3890,124.48,2.2694,5.0323,0.9365,-0.0611,-0.3562,0.0771,rough,14.0,0,8.665
3900,124.80,2.2686,5.0422,0.9359,-0.0566,-0.3579,0.0641,rough,14.0,0,8.674
3910,125.12,2.2686,5.0480,0.9357,-0.0518,-0.3587,0.0503,rough,14.0,0,8.680
3920,125.44,2.2689,5.0520,0.9357,-0.0480,-0.3592,0.0392,rough,14.0,0,8.684
3930,125.76,2.2690,5.0549,0.9356,-0.0455,-0.3596,0.0320,rough,14.0,0,8.687
3940,126.08,2.2691,5.0570,0.9356,-0.0436,-0.3598,0.0265,rough,14.0,0,8.689
3950,126.40,2.2692,5.0585,0.9356,-0.0422,-0.3600,0.0225,rough,14.0,0,8.690
3960,126.72,2.2694,5.0594,0.9356,-0.0412,-0.3601,0.0197,rough,14.0,0,8.691
3970,127.04,2.2695,5.0601,0.9356,-0.0405,-0.3602,0.0178,rough,14.0,0,8.692
3980,127.36,2.2695,5.0606,0.9356,-0.0401,-0.3602,0.0165,rough,14.0,0,8.692
3990,127.68,2.2696,5.0609,0.9356,-0.0398,-0.3603,0.0155,rough,14.0,0,8.692
4000,128.00,2.2696,5.0611,0.9356,-0.0395,-0.3603,0.0149,rough,14.0,0,8.693
4010,128.32,2.2696,5.0613,0.9356,-0.0394,-0.3603,0.0145,rough,14.0,0,8.693
4020,128.64,2.2696,5.0614,0.9356,-0.0393,-0.3603,0.0142,rough,14.0,0,8.693
4030,128.96,2.2697,5.0615,0.9357,-0.0392,-0.3603,0.0140,rough,14.0,0,8.693
4040,129.28,2.2697,5.0615,0.9357,-0.0391,-0.3604,0.0136,rough,14.0,0,8.693
4050,129.60,2.2697,5.0613,0.9357,-0.0388,-0.3604,0.0129,rough,14.0,0,8.693
4060,129.92,2.2698,5.0609,0.9357,-0.0384,-0.3604,0.0117,rough,14.0,0,8.692
4070,130.24,2.2701,5.0601,0.9359,-0.0377,-0.3605,0.0096,rough,14.0,0,8.692
4080,130.56,2.2708,5.0586,0.9362,-0.0364,-0.3607,0.0060,rough,14.0,0,8.690
4090,130.88,2.2720,5.0558,0.9368,-0.0342,-0.3609,-0.0004,rough,14.0,0,8.687
4100,131.20,2.2724,5.0506,0.9371,-0.0303,-0.3613,-0.0117,rough,14.0,0,8.682
4110,131.52,2.2724,5.0412,0.9374,-0.0235,-0.3618,-0.0310,rough,14.0,0,8.673
4120,131.84,2.2713,5.0249,0.9376,-0.0126,-0.3623,-0.0621,rough,14.0,0,8.657
4130,132.16,2.2691,5.0073,0.9365,-0.0162,-0.3558,-0.0516,rough,14.0,0,8.640
4140,132.48,2.2689,4.9980,0.9376,-0.0236,-0.3613,-0.0300,rough,14.0,0,8.631
4150,132.80,2.2693,4.9927,0.9380,-0.0296,-0.3612,-0.0129,rough,14.0,0,8.626
4160,133.12,2.2695,4.9891,0.9383,-0.0324,-0.3614,-0.0050,rough,14.0,0,8.623
4170,133.44,2.2699,4.9870,0.9384,-0.0349,-0.3604,0.0024,rough,14.0,0,8.620
4180,133.76,2.2702,4.9858,0.9380,-0.0367,-0.3567,0.0075,rough,14.0,0,8.619
4190,134.08,2.2698,4.9843,0.9385,-0.0362,-0.3605,0.0059,rough,14.0,0,8.618
4200,134.40,2.2695,4.9828,0.9385,-0.0362,-0.3605,0.0060,rough,14.0,0,8.616
4210,134.72,2.2696,4.9820,0.9385,-0.0372,-0.3604,0.0088,rough,14.0,0,8.616
4220,135.04,2.2697,4.9814,0.9386,-0.0378,-0.3603,0.0105,rough,14.0,0,8.615
4230,135.36,2.2697,4.9811,0.9386,-0.0381,-0.3603,0.0116,rough,14.0,0,8.615
4240,135.68,2.2698,4.9809,0.9386,-0.0384,-0.3603,0.0124,rough,14.0,0,8.614
4250,136.00,2.2698,4.9807,0.9386,-0.0386,-0.3602,0.0129,rough,14.0,0,8.614
4260,136.32,2.2698,4.9806,0.9386,-0.0387,-0.3602,0.0132,rough,14.0,0,8.614
4270,136.64,2.2698,4.9806,0.9386,-0.0388,-0.3602,0.0135,rough,14.0,0,8.614
4280,136.96,2.2699,4.9806,0.9387,-0.0389,-0.3602,0.0139,rough,14.0,0,8.614
4290,137.28,2.2700,4.9808,0.9387,-0.0392,-0.3602,0.0146,rough,14.0,0,8.614
4300,137.60,2.2703,4.9812,0.9388,-0.0395,-0.3601,0.0157,rough,14.0,0,8.615
4310,137.92,2.2705,4.9821,0.9389,-0.0403,-0.3601,0.0178,rough,14.0,0,8.615
4320,138.24,2.2712,4.9836,0.9390,-0.0415,-0.3599,0.0214,rough,14.0,0,8.617
4330,138.56,2.2721,4.9865,0.9393,-0.0438,-0.3597,0.0278,rough,14.0,0,8.619
4340,138.88,2.2724,4.9916,0.9392,-0.0481,-0.3591,0.0401,rough,14.0,0,8.624
4350,139.20,2.2724,5.0013,0.9388,-0.0567,-0.3578,0.0650,rough,14.0,0,8.634
4360,139.52,2.2700,5.0189,0.9382,-0.0724,-0.3610,0.1103,rough,14.0,0,8.651
4370,139.84,2.2692,5.0346,0.9364,-0.0607,-0.3572,0.0760,rough,14.0,0,8.667
4380,140.16,2.2685,5.0428,0.9359,-0.0563,-0.3579,0.0632,rough,14.0,0,8.675
4390,140.48,2.2686,5.0484,0.9357,-0.0514,-0.3587,0.0492,rough,14.0,0,8.680
4400,140.80,2.2690,5.0523,0.9357,-0.0477,-0.3593,0.0384,rough,14.0,0,8.684
4410,141.12,2.2690,5.0551,0.9356,-0.0453,-0.3596,0.0316,rough,14.0,0,8.687
4420,141.44,2.2691,5.0572,0.9356,-0.0435,-0.3598,0.0261,rough,14.0,0,8.689
4430,141.76,2.2693,5.0586,0.9356,-0.0421,-0.3600,0.0222,rough,14.0,0,8.690
4440,142.08,2.2694,5.0595,0.9356,-0.0411,-0.3601,0.0195,rough,14.0,0,8.691
4450,142.40,2.2695,5.0602,0.9356,-0.0405,-0.3602,0.0177,rough,14.0,0,8.692
4460,142.72,2.2695,5.0606,0.9356,-0.0400,-0.3602,0.0164,rough,14.0,0,8.692
4470,143.04,2.2696,5.0609,0.9356,-0.0397,-0.3603,0.0155,rough,14.0,0,8.692
4480,143.36,2.2696,5.0612,0.9356,-0.0395,-0.3603,0.0149,rough,14.0,0,8.693
4490,143.68,2.2696,5.0613,0.9356,-0.0394,-0.3603,0.0145,rough,14.0,0,8.693
4500,144.00,2.2696,5.0614,0.9356,-0.0393,-0.3603,0.0142,rough,14.0,0,8.693
4510,144.32,2.2697,5.0615,0.9357,-0.0392,-0.3603,0.0139,rough,14.0,0,8.693
4520,144.64,2.2697,5.0615,0.9357,-0.0391,-0.3604,0.0135,rough,14.0,0,8.693
4530,144.96,2.2697,5.0613,0.9357,-0.0388,-0.3604,0.0128,rough,14.0,0,8.693
4540,145.28,2.2699,5.0609,0.9358,-0.0384,-0.3605,0.0116,rough,14.0,0,8.692
4550,145.60,2.2702,5.0600,0.9359,-0.0376,-0.3606,0.0094,rough,14.0,0,8.691
4560,145.92,2.2710,5.0584,0.9363,-0.0363,-0.3607,0.0055,rough,14.0,0,8.690
4570,146.24,2.2721,5.0554,0.9368,-0.0340,-0.3610,-0.0012,rough,14.0,0,8.687
4580,146.56,2.2724,5.0499,0.9371,-0.0298,-0.3613,-0.0130,rough,14.0,0,8.681
4590,146.88,2.2723,5.0401,0.9375,-0.0227,-0.3618,-0.0332,rough,14.0,0,8.672
4600,147.20,2.2711,5.0230,0.9376,-0.0114,-0.3624,-0.0656,rough,14.0,0,8.655
4610,147.52,2.2691,5.0074,0.9376,-0.0169,-0.3632,-0.0496,rough,14.0,0,8.640
4620,147.84,2.2693,4.9980,0.9367,-0.0253,-0.3540,-0.0254,rough,14.0,0,8.631
4630,148.16,2.2695,4.9926,0.9370,-0.0302,-0.3539,-0.0112,rough,14.0,0,8.626
4640,148.48,2.2697,4.9891,0.9372,-0.0332,-0.3537,-0.0027,rough,14.0,0,8.622
4650,148.80,2.2700,4.9869,0.9372,-0.0354,-0.3527,0.0037,rough,14.0,0,8.620
4660,149.12,2.2701,4.9856,0.9385,-0.0363,-0.3603,0.0064,rough,14.0,0,8.619
4670,149.44,2.2697,4.9839,0.9385,-0.0358,-0.3606,0.0048,rough,14.0,0,8.617
4680,149.76,2.2702,4.9840,0.9384,-0.0384,-0.3589,0.0124,rough,14.0,0,8.617
4690,150.08,2.2703,4.9837,0.9387,-0.0382,-0.3603,0.0117,rough,14.0,0,8.617
4700,150.40,2.2700,4.9830,0.9386,-0.0377,-0.3604,0.0104,rough,14.0,0,8.616
4710,150.72,2.2701,4.9828,0.9386,-0.0386,-0.3599,0.0130,rough,14.0,0,8.616
4720,151.04,2.2708,4.9837,0.9388,-0.0399,-0.3597,0.0166,rough,14.0,0,8.617
4730,151.36,2.2713,4.9849,0.9390,-0.0408,-0.3600,0.0192,rough,14.0,0,8.618
4740,151.68,2.2720,4.9869,0.9392,-0.0424,-0.3599,0.0237,rough,14.0,0,8.620
4750,152.00,2.2723,4.9906,0.9392,-0.0453,-0.3595,0.0322,rough,14.0,0,8.623
4760,152.32,2.2724,4.9973,0.9390,-0.0511,-0.3587,0.0489,rough,14.0,0,8.630
4770,152.64,2.2718,5.0103,0.9383,-0.0631,-0.3566,0.0836,rough,14.0,0,8.643
4780,152.96,2.2699,5.0284,0.9362,-0.0621,-0.3521,0.0802,rough,14.0,0,8.661
4790,153.28,2.2699,5.0423,0.9364,-0.0519,-0.3581,0.0505,rough,14.0,0,8.674
4800,153.60,2.2687,5.0485,0.9358,-0.0510,-0.3587,0.0480,rough,14.0,0,8.681
4810,153.92,2.2690,5.0524,0.9357,-0.0476,-0.3593,0.0380,rough,14.0,0,8.684
4820,154.24,2.2689,5.0553,0.9356,-0.0453,-0.3596,0.0313,rough,14.0,0,8.687
4830,154.56,2.2691,5.0572,0.9356,-0.0434,-0.3598,0.0259,rough,14.0,0,8.689
4840,154.88,2.2693,5.0586,0.9356,-0.0420,-0.3600,0.0221,rough,14.0,0,8.690
4850,155.20,2.2694,5.0595,0.9356,-0.0411,-0.3601,0.0194,rough,14.0,0,8.691
4860,155.52,2.2695,5.0602,0.9356,-0.0405,-0.3602,0.0176,rough,14.0,0,8.692
4870,155.84,2.2695,5.0606,0.9356,-0.0400,-0.3602,0.0163,rough,14.0,0,8.692
4880,156.16,2.2696,5.0610,0.9356,-0.0397,-0.3603,0.0154,rough,14.0,0,8.692
4890,156.48,2.2696,5.0612,0.9356,-0.0395,-0.3603,0.0149,rough,14.0,0,8.693
4900,156.80,2.2696,5.0613,0.9356,-0.0394,-0.3603,0.0145,rough,14.0,0,8.693
4910,157.12,2.2696,5.0614,0.9356,-0.0393,-0.3603,0.0142,rough,14.0,0,8.693
4920,157.44,2.2697,5.0615,0.9357,-0.0392,-0.3603,0.0139,rough,14.0,0,8.693
4930,157.76,2.2697,5.0615,0.9357,-0.0390,-0.3604,0.0135,rough,14.0,0,8.693
4940,158.08,2.2698,5.0613,0.9357,-0.0388,-0.3604,0.0128,rough,14.0,0,8.693
4950,158.40,2.2699,5.0609,0.9358,-0.0384,-0.3605,0.0115,rough,14.0,0,8.692
4960,158.72,2.2703,5.0600,0.9359,-0.0376,-0.3606,0.0092,rough,14.0,0,8.691
4970,159.04,2.2711,5.0583,0.9363,-0.0362,-0.3607,0.0053,rough,14.0,0,8.690
4980,159.36,2.2721,5.0552,0.9368,-0.0338,-0.3610,-0.0016,rough,14.0,0,8.686
4990,159.68,2.2724,5.0496,0.9371,-0.0295,-0.3614,-0.0138,rough,14.0,0,8.681
5000,160.00,2.2723,5.0395,0.9375,-0.0223,-0.3619,-0.0345,rough,14.0,0,8.671
5010,160.32,2.2710,5.0219,0.9376,-0.0107,-0.3624,-0.0676,rough,14.0,0,8.654
5020,160.64,2.2689,5.0066,0.9376,-0.0167,-0.3634,-0.0502,rough,14.0,0,8.640
5030,160.96,2.2693,4.9975,0.9367,-0.0254,-0.3540,-0.0249,rough,14.0,0,8.631
5040,161.28,2.2696,4.9923,0.9370,-0.0305,-0.3539,-0.0104,rough,14.0,0,8.626
5050,161.60,2.2698,4.9889,0.9372,-0.0333,-0.3536,-0.0022,rough,14.0,0,8.622
5060,161.92,2.2700,4.9869,0.9372,-0.0355,-0.3526,0.0041,rough,14.0,0,8.620
5070,162.24,2.2701,4.9856,0.9385,-0.0364,-0.3602,0.0067,rough,14.0,0,8.619
5080,162.56,2.2697,4.9838,0.9385,-0.0358,-0.3605,0.0048,rough,14.0,0,8.617
5090,162.88,2.2696,4.9825,0.9385,-0.0365,-0.3605,0.0069,rough,14.0,0,8.616
5100,163.20,2.2697,4.9818,0.9385,-0.0373,-0.3604,0.0093,rough,14.0,0,8.615
5110,163.52,2.2697,4.9813,0.9386,-0.0379,-0.3603,0.0108,rough,14.0,0,8.615
5120,163.84,2.2698,4.9810,0.9386,-0.0382,-0.3603,0.0119,rough,14.0,0,8.615
5130,164.16,2.2698,4.9808,0.9386,-0.0385,-0.3603,0.0125,rough,14.0,0,8.614
5140,164.48,2.2698,4.9807,0.9386,-0.0386,-0.3602,0.0130,rough,14.0,0,8.614
5150,164.80,2.2698,4.9806,0.9386,-0.0387,-0.3602,0.0133,rough,14.0,0,8.614
5160,165.12,2.2698,4.9806,0.9386,-0.0388,-0.3602,0.0136,rough,14.0,0,8.614
5170,165.44,2.2699,4.9806,0.9387,-0.0390,-0.3602,0.0141,rough,14.0,0,8.614
5180,165.76,2.2701,4.9809,0.9387,-0.0392,-0.3602,0.0148,rough,14.0,0,8.614
5190,166.08,2.2704,4.9814,0.9388,-0.0397,-0.3601,0.0161,rough,14.0,0,8.615
5200,166.40,2.2707,4.9824,0.9389,-0.0405,-0.3600,0.0185,rough,14.0,0,8.616
5210,166.72,2.2715,4.9842,0.9391,-0.0420,-0.3599,0.0226,rough,14.0,0,8.617
5220,167.04,2.2722,4.9874,0.9393,-0.0446,-0.3596,0.0301,rough,14.0,0,8.620
5230,167.36,2.2725,4.9935,0.9391,-0.0497,-0.3589,0.0447,rough,14.0,0,8.626
5240,167.68,2.2722,5.0049,0.9386,-0.0601,-0.3572,0.0747,rough,14.0,0,8.637
5250,168.00,2.2693,5.0237,0.9367,-0.0702,-0.3546,0.1040,rough,14.0,0,8.656
5260,168.32,2.2688,5.0400,0.9361,-0.0576,-0.3575,0.0670,rough,14.0,0,8.672
5270,168.64,2.2685,5.0465,0.9358,-0.0531,-0.3584,0.0539,rough,14.0,0,8.679
5280,168.96,2.2688,5.0510,0.9357,-0.0489,-0.3591,0.0419,rough,14.0,0,8.683
5290,169.28,2.2692,5.0541,0.9357,-0.0459,-0.3595,0.0334,rough,14.0,0,8.686
5300,169.60,2.2690,5.0565,0.9356,-0.0441,-0.3597,0.0280,rough,14.0,0,8.688
5310,169.92,2.2692,5.0581,0.9356,-0.0425,-0.3599,0.0235,rough,14.0,0,8.690
5320,170.24,2.2693,5.0592,0.9356,-0.0415,-0.3601,0.0204,rough,14.0,0,8.691
5330,170.56,2.2694,5.0600,0.9356,-0.0407,-0.3602,0.0183,rough,14.0,0,8.692
5340,170.88,2.2695,5.0605,0.9356,-0.0402,-0.3602,0.0168,rough,14.0,0,8.692
5350,171.20,2.2696,5.0608,0.9356,-0.0398,-0.3603,0.0158,rough,14.0,0,8.692
5360,171.52,2.2696,5.0611,0.9356,-0.0396,-0.3603,0.0151,rough,14.0,0,8.693
5370,171.84,2.2696,5.0613,0.9356,-0.0394,-0.3603,0.0146,rough,14.0,0,8.693
5380,172.16,2.2696,5.0614,0.9356,-0.0393,-0.3603,0.0143,rough,14.0,0,8.693
5390,172.48,2.2696,5.0615,0.9356,-0.0392,-0.3603,0.0140,rough,14.0,0,8.693
5400,172.80,2.2697,5.0615,0.9357,-0.0391,-0.3604,0.0137,rough,14.0,0,8.693
5410,173.12,2.2697,5.0614,0.9357,-0.0389,-0.3604,0.0131,rough,14.0,0,8.693
5420,173.44,2.2698,5.0611,0.9357,-0.0386,-0.3604,0.0121,rough,14.0,0,8.693
5430,173.76,2.2700,5.0604,0.9358,-0.0380,-0.3605,0.0103,rough,14.0,0,8.692
5440,174.08,2.2706,5.0591,0.9361,-0.0369,-0.3606,0.0072,rough,14.0,0,8.690
5450,174.40,2.2717,5.0567,0.9366,-0.0350,-0.3609,0.0018,rough,14.0,0,8.688
5460,174.72,2.2723,5.0524,0.9370,-0.0316,-0.3612,-0.0079,rough,14.0,0,8.683
5470,175.04,2.2724,5.0444,0.9373,-0.0258,-0.3616,-0.0245,rough,14.0,0,8.676
5480,175.36,2.2718,5.0305,0.9376,-0.0162,-0.3623,-0.0518,rough,14.0,0,8.662
5490,175.68,2.2693,5.0113,0.9374,-0.0125,-0.3625,-0.0622,rough,14.0,0,8.644
5500,176.00,2.2690,5.0004,0.9352,-0.0217,-0.3464,-0.0354,rough,14.0,0,8.634
5510,176.32,2.2694,4.9938,0.9369,-0.0289,-0.3538,-0.0151,rough,14.0,0,8.627
5520,176.64,2.2697,4.9898,0.9371,-0.0323,-0.3538,-0.0051,rough,14.0,0,8.623
5530,176.96,2.2699,4.9874,0.9372,-0.0349,-0.3528,0.0022,rough,14.0,0,8.621
5540,177.28,2.2700,4.9858,0.9385,-0.0359,-0.3606,0.0052,rough,14.0,0,8.619
5550,177.60,2.2700,4.9847,0.9385,-0.0363,-0.3604,0.0062,rough,14.0,0,8.618
5560,177.92,2.2695,4.9830,0.9384,-0.0359,-0.3605,0.0051,rough,14.0,0,8.617
5570,178.24,2.2696,4.9821,0.9385,-0.0370,-0.3604,0.0082,rough,14.0,0,8.616
5580,178.56,2.2697,4.9816,0.9386,-0.0376,-0.3603,0.0101,rough,14.0,0,8.615
5590,178.88,2.2697,4.9812,0.9386,-0.0381,-0.3603,0.0114,rough,14.0,0,8.615
5600,179.20,2.2698,4.9809,0.9386,-0.0384,-0.3603,0.0122,rough,14.0,0,8.615
5610,179.52,2.2698,4.9807,0.9386,-0.0385,-0.3602,0.0128,rough,14.0,0,8.614
5620,179.84,2.2698,4.9806,0.9386,-0.0387,-0.3602,0.0131,rough,14.0,0,8.614
5630,180.16,2.2698,4.9806,0.9386,-0.0388,-0.3602,0.0134,rough,14.0,0,8.614
5640,180.48,2.2699,4.9806,0.9387,-0.0389,-0.3602,0.0138,rough,14.0,0,8.614
5650,180.80,2.2700,4.9807,0.9387,-0.0391,-0.3602,0.0144,rough,14.0,0,8.614
5660,181.12,2.2702,4.9811,0.9388,-0.0394,-0.3601,0.0154,rough,14.0,0,8.615
5670,181.44,2.2704,4.9818,0.9388,-0.0401,-0.3601,0.0171,rough,14.0,0,8.615
5680,181.76,2.2710,4.9831,0.9390,-0.0411,-0.3600,0.0202,rough,14.0,0,8.616
5690,182.08,2.2719,4.9855,0.9392,-0.0430,-0.3598,0.0257,rough,14.0,0,8.619
5700,182.40,2.2724,4.9900,0.9392,-0.0467,-0.3593,0.0361,rough,14.0,0,8.623
5710,182.72,2.2725,4.9982,0.9390,-0.0538,-0.3583,0.0567,rough,14.0,0,8.631
5720,183.04,2.2713,5.0140,0.9379,-0.0692,-0.3555,0.1010,rough,14.0,0,8.646
5730,183.36,2.2691,5.0334,0.9362,-0.0619,-0.3555,0.0795,rough,14.0,0,8.666
5740,183.68,2.2687,5.0440,0.9359,-0.0550,-0.3581,0.0593,rough,14.0,0,8.676
5750,184.00,2.2687,5.0493,0.9357,-0.0506,-0.3588,0.0467,rough,14.0,0,8.681
5760,184.32,2.2691,5.0529,0.9357,-0.0471,-0.3593,0.0366,rough,14.0,0,8.685
5770,184.64,2.2689,5.0556,0.9356,-0.0450,-0.3596,0.0305,rough,14.0,0,8.687
5780,184.96,2.2691,5.0575,0.9356,-0.0431,-0.3599,0.0252,rough,14.0,0,8.689
5790,185.28,2.2693,5.0588,0.9356,-0.0419,-0.3600,0.0216,rough,14.0,0,8.690
5800,185.60,2.2694,5.0597,0.9356,-0.0410,-0.3601,0.0191,rough,14.0,0,8.691
5810,185.92,2.2695,5.0603,0.9356,-0.0404,-0.3602,0.0174,rough,14.0,0,8.692
5820,186.24,2.2695,5.0607,0.9356,-0.0400,-0.3603,0.0162,rough,14.0,0,8.692
5830,186.56,2.2696,5.0610,0.9356,-0.0397,-0.3603,0.0153,rough,14.0,0,8.693
5840,186.88,2.2696,5.0612,0.9356,-0.0395,-0.3603,0.0148,rough,14.0,0,8.693
5850,187.20,2.2696,5.0613,0.9356,-0.0394,-0.3603,0.0144,rough,14.0,0,8.693
5860,187.52,2.2696,5.0614,0.9356,-0.0393,-0.3603,0.0141,rough,14.0,0,8.693
5870,187.84,2.2697,5.0615,0.9357,-0.0392,-0.3603,0.0139,rough,14.0,0,8.693
5880,188.16,2.2697,5.0614,0.9357,-0.0390,-0.3604,0.0134,rough,14.0,0,8.693
5890,188.48,2.2698,5.0612,0.9357,-0.0387,-0.3604,0.0126,rough,14.0,0,8.693
5900,188.80,2.2699,5.0608,0.9358,-0.0383,-0.3605,0.0112,rough,14.0,0,8.692
5910,189.12,2.2704,5.0598,0.9360,-0.0374,-0.3606,0.0088,rough,14.0,0,8.691
5920,189.44,2.2712,5.0579,0.9364,-0.0359,-0.3608,0.0045,rough,14.0,0,8.689
5930,189.76,2.2722,5.0546,0.9369,-0.0333,-0.3610,-0.0031,rough,14.0,0,8.686
5940,190.08,2.2724,5.0484,0.9372,-0.0287,-0.3614,-0.0163,rough,14.0,0,8.680
5950,190.40,2.2722,5.0374,0.9375,-0.0209,-0.3620,-0.0385,rough,14.0,0,8.669
5960,190.72,2.2706,5.0183,0.9376,-0.0085,-0.3625,-0.0739,rough,14.0,0,8.651
5970,191.04,2.2694,5.0049,0.9366,-0.0197,-0.3554,-0.0416,rough,14.0,0,8.638
5980,191.36,2.2691,4.9967,0.9377,-0.0254,-0.3609,-0.0250,rough,14.0,0,8.630
5990,191.68,2.2694,4.9918,0.9381,-0.0306,-0.3609,-0.0102,rough,14.0,0,8.625
6000,192.00,2.2696,4.9885,0.9382,-0.0333,-0.3603,-0.0024,rough,14.0,0,8.622
6010,192.32,2.2699,4.9866,0.9383,-0.0355,-0.3593,0.0041,rough,14.0,0,8.620
6020,192.64,2.2700,4.9852,0.9385,-0.0360,-0.3605,0.0055,rough,14.0,0,8.619
6030,192.96,2.2700,4.9840,0.9372,-0.0370,-0.3516,0.0082,rough,14.0,0,8.617
6040,193.28,2.2703,4.9840,0.9386,-0.0384,-0.3600,0.0124,rough,14.0,0,8.617
6050,193.60,2.2703,4.9835,0.9387,-0.0381,-0.3603,0.0114,rough,14.0,0,8.617
6060,193.92,2.2700,4.9828,0.9386,-0.0377,-0.3604,0.0102,rough,14.0,0,8.616
6070,194.24,2.2704,4.9831,0.9361,-0.0393,-0.3434,0.0150,rough,14.0,0,8.616
6080,194.56,2.2708,4.9839,0.9389,-0.0400,-0.3598,0.0171,rough,14.0,0,8.617
6090,194.88,2.2714,4.9852,0.9391,-0.0410,-0.3600,0.0199,rough,14.0,0,8.618
6100,195.20,2.2721,4.9875,0.9392,-0.0428,-0.3598,0.0250,rough,14.0,0,8.620
6110,195.52,2.2723,4.9916,0.9392,-0.0462,-0.3594,0.0347,rough,14.0,0,8.624
6120,195.84,2.2724,4.9993,0.9389,-0.0529,-0.3584,0.0539,rough,14.0,0,8.632
6130,196.16,2.2714,5.0141,0.9380,-0.0670,-0.3559,0.0946,rough,14.0,0,8.646
6140,196.48,2.2697,5.0323,0.9369,-0.0609,-0.3586,0.0765,rough,14.0,0,8.665
6150,196.80,2.2695,5.0438,0.9362,-0.0524,-0.3583,0.0518,rough,14.0,0,8.676
6160,197.12,2.2687,5.0495,0.9357,-0.0503,-0.3588,0.0460,rough,14.0,0,8.681
6170,197.44,2.2691,5.0531,0.9357,-0.0470,-0.3594,0.0363,rough,14.0,0,8.685
6180,197.76,2.2689,5.0557,0.9356,-0.0449,-0.3597,0.0302,rough,14.0,0,8.688
6190,198.08,2.2691,5.0576,0.9356,-0.0431,-0.3599,0.0250,rough,14.0,0,8.689
6200,198.40,2.2693,5.0588,0.9356,-0.0418,-0.3600,0.0215,rough,14.0,0,8.690
6210,198.72,2.2694,5.0597,0.9356,-0.0410,-0.3601,0.0190,rough,14.0,0,8.691
6220,199.04,2.2695,5.0603,0.9356,-0.0404,-0.3602,0.0173,rough,14.0,0,8.692
6230,199.36,2.2695,5.0607,0.9356,-0.0400,-0.3603,0.0161,rough,14.0,0,8.692
6240,199.68,2.2696,5.0610,0.9356,-0.0397,-0.3603,0.0153,rough,14.0,0,8.693
6250,200.00,2.2696,5.0612,0.9356,-0.0395,-0.3603,0.0148,rough,14.0,0,8.693
6260,200.32,2.2696,5.0613,0.9356,-0.0393,-0.3603,0.0144,rough,14.0,0,8.693
6270,200.64,2.2696,5.0614,0.9356,-0.0393,-0.3603,0.0141,rough,14.0,0,8.693
6280,200.96,2.2697,5.0615,0.9357,-0.0392,-0.3603,0.0139,rough,14.0,0,8.693
6290,201.28,2.2697,5.0614,0.9357,-0.0390,-0.3604,0.0134,rough,14.0,0,8.693
6300,201.60,2.2698,5.0612,0.9357,-0.0387,-0.3604,0.0126,rough,14.0,0,8.693
6310,201.92,2.2699,5.0607,0.9358,-0.0382,-0.3605,0.0111,rough,14.0,0,8.692
6320,202.24,2.2704,5.0597,0.9360,-0.0374,-0.3606,0.0086,rough,14.0,0,8.691
6330,202.56,2.2713,5.0578,0.9364,-0.0358,-0.3608,0.0042,rough,14.0,0,8.689
6340,202.88,2.2722,5.0543,0.9369,-0.0331,-0.3611,-0.0036,rough,14.0,0,8.685
6350,203.20,2.2724,5.0480,0.9372,-0.0284,-0.3615,-0.0171,rough,14.0,0,8.679
6360,203.52,2.2722,5.0367,0.9375,-0.0204,-0.3620,-0.0399,rough,14.0,0,8.668
6370,203.84,2.2701,5.0179,0.9378,-0.0096,-0.3648,-0.0705,rough,14.0,0,8.650
6380,204.16,2.2691,5.0042,0.9366,-0.0195,-0.3558,-0.0419,rough,14.0,0,8.637
6390,204.48,2.2691,4.9962,0.9377,-0.0257,-0.3610,-0.0241,rough,14.0,0,8.630
6400,204.80,2.2694,4.9916,0.9381,-0.0308,-0.3609,-0.0094,rough,14.0,0,8.625
6410,205.12,2.2697,4.9884,0.9382,-0.0335,-0.3602,-0.0018,rough,14.0,0,8.622
6420,205.44,2.2700,4.9866,0.9383,-0.0356,-0.3592,0.0044,rough,14.0,0,8.620
6430,205.76,2.2700,4.9852,0.9385,-0.0361,-0.3604,0.0058,rough,14.0,0,8.619
6440,206.08,2.2695,4.9834,0.9384,-0.0356,-0.3606,0.0042,rough,14.0,0,8.617
6450,206.40,2.2696,4.9824,0.9385,-0.0367,-0.3604,0.0075,rough,14.0,0,8.616
6460,206.72,2.2697,4.9817,0.9385,-0.0375,-0.3604,0.0096,rough,14.0,0,8.615
6470,207.04,2.2697,4.9813,0.9386,-0.0380,-0.3603,0.0111,rough,14.0,0,8.615
6480,207.36,2.2698,4.9810,0.9386,-0.0383,-0.3603,0.0120,rough,14.0,0,8.615
6490,207.68,2.2698,4.9808,0.9386,-0.0385,-0.3603,0.0126,rough,14.0,0,8.614
6500,208.00,2.2698,4.9807,0.9386,-0.0386,-0.3602,0.0130,rough,14.0,0,8.614
6510,208.32,2.2698,4.9806,0.9386,-0.0387,-0.3602,0.0133,rough,14.0,0,8.614
6520,208.64,2.2698,4.9806,0.9387,-0.0389,-0.3602,0.0137,rough,14.0,0,8.614
6530,208.96,2.2699,4.9807,0.9387,-0.0390,-0.3602,0.0142,rough,14.0,0,8.614
6540,209.28,2.2701,4.9810,0.9387,-0.0393,-0.3602,0.0150,rough,14.0,0,8.614
6550,209.60,2.2704,4.9815,0.9388,-0.0398,-0.3601,0.0165,rough,14.0,0,8.615
6560,209.92,2.2709,4.9827,0.9390,-0.0407,-0.3600,0.0191,rough,14.0,0,8.616
6570,210.24,2.2717,4.9847,0.9392,-0.0424,-0.3598,0.0238,rough,14.0,0,8.618
6580,210.56,2.2723,4.9884,0.9393,-0.0454,-0.3595,0.0324,rough,14.0,0,8.621
6590,210.88,2.2725,4.9953,0.9391,-0.0513,-0.3586,0.0493,rough,14.0,0,8.628
6600,211.20,2.2719,5.0084,0.9384,-0.0635,-0.3566,0.0845,rough,14.0,0,8.641
6610,211.52,2.2692,5.0282,0.9346,-0.0660,-0.3433,0.0915,rough,14.0,0,8.661
6620,211.84,2.2687,5.0423,0.9360,-0.0561,-0.3579,0.0626,rough,14.0,0,8.675
6630,212.16,2.2686,5.0481,0.9357,-0.0517,-0.3587,0.0499,rough,14.0,0,8.680
6640,212.48,2.2690,5.0521,0.9357,-0.0479,-0.3592,0.0389,rough,14.0,0,8.684
6650,212.80,2.2690,5.0550,0.9356,-0.0454,-0.3596,0.0318,rough,14.0,0,8.687
6660,213.12,2.2691,5.0571,0.9356,-0.0435,-0.3598,0.0264,rough,14.0,0,8.689
6670,213.44,2.2692,5.0585,0.9356,-0.0421,-0.3600,0.0224,rough,14.0,0,8.690
6680,213.76,2.2694,5.0595,0.9356,-0.0412,-0.3601,0.0196,rough,14.0,0,8.691
6690,214.08,2.2695,5.0601,0.9356,-0.0405,-0.3602,0.0178,rough,14.0,0,8.692
6700,214.40,2.2695,5.0606,0.9356,-0.0401,-0.3602,0.0164,rough,14.0,0,8.692
6710,214.72,2.2696,5.0609,0.9356,-0.0397,-0.3603,0.0155,rough,14.0,0,8.692
6720,215.04,2.2696,5.0612,0.9356,-0.0395,-0.3603,0.0149,rough,14.0,0,8.693
6730,215.36,2.2696,5.0613,0.9356,-0.0394,-0.3603,0.0145,rough,14.0,0,8.693
6740,215.68,2.2696,5.0614,0.9356,-0.0393,-0.3603,0.0142,rough,14.0,0,8.693
6750,216.00,2.2697,5.0615,0.9357,-0.0392,-0.3603,0.0139,rough,14.0,0,8.693
6760,216.32,2.2697,5.0615,0.9357,-0.0391,-0.3604,0.0136,rough,14.0,0,8.693
6770,216.64,2.2697,5.0613,0.9357,-0.0388,-0.3604,0.0129,rough,14.0,0,8.693
6780,216.96,2.2699,5.0609,0.9358,-0.0384,-0.3604,0.0117,rough,14.0,0,8.692
6790,217.28,2.2702,5.0601,0.9359,-0.0377,-0.3605,0.0095,rough,14.0,0,8.692
6800,217.60,2.2709,5.0585,0.9362,-0.0364,-0.3607,0.0058,rough,14.0,0,8.690
6810,217.92,2.2720,5.0556,0.9368,-0.0341,-0.3610,-0.0008,rough,14.0,0,8.687
6820,218.24,2.2724,5.0503,0.9371,-0.0301,-0.3613,-0.0123,rough,14.0,0,8.681
6830,218.56,2.2724,5.0407,0.9374,-0.0232,-0.3618,-0.0319,rough,14.0,0,8.672
6840,218.88,2.2712,5.0240,0.9376,-0.0121,-0.3624,-0.0637,rough,14.0,0,8.656
6850,219.20,2.2692,5.0083,0.9376,-0.0168,-0.3626,-0.0499,rough,14.0,0,8.641
6860,219.52,2.2691,4.9988,0.9354,-0.0238,-0.3471,-0.0295,rough,14.0,0,8.632
6870,219.84,2.2695,4.9929,0.9369,-0.0299,-0.3538,-0.0120,rough,14.0,0,8.626
6880,220.16,2.2697,4.9892,0.9372,-0.0330,-0.3537,-0.0033,rough,14.0,0,8.623
6890,220.48,2.2700,4.9870,0.9372,-0.0353,-0.3527,0.0034,rough,14.0,0,8.620
6900,220.80,2.2701,4.9857,0.9385,-0.0362,-0.3604,0.0061,rough,14.0,0,8.619
6910,221.12,2.2697,4.9839,0.9385,-0.0357,-0.3606,0.0047,rough,14.0,0,8.617
6920,221.44,2.2702,4.9841,0.9384,-0.0384,-0.3589,0.0123,rough,14.0,0,8.617
6930,221.76,2.2703,4.9837,0.9387,-0.0381,-0.3603,0.0115,rough,14.0,0,8.617
6940,222.08,2.2700,4.9829,0.9386,-0.0377,-0.3604,0.0103,rough,14.0,0,8.616
6950,222.40,2.2701,4.9828,0.9387,-0.0386,-0.3603,0.0129,rough,14.0,0,8.616
6960,222.72,2.2708,4.9838,0.9388,-0.0399,-0.3598,0.0167,rough,14.0,0,8.617
6970,223.04,2.2714,4.9850,0.9391,-0.0408,-0.3600,0.0193,rough,14.0,0,8.618
6980,223.36,2.2720,4.9870,0.9392,-0.0424,-0.3599,0.0239,rough,14.0,0,8.620
6990,223.68,2.2723,4.9908,0.9392,-0.0455,-0.3595,0.0326,rough,14.0,0,8.624
7000,224.00,2.2724,4.9977,0.9390,-0.0514,-0.3586,0.0497,rough,14.0,0,8.630
7010,224.32,2.2718,5.0110,0.9382,-0.0638,-0.3565,0.0854,rough,14.0,0,8.643
7020,224.64,2.2693,5.0300,0.9357,-0.0634,-0.3504,0.0840,rough,14.0,0,8.662
7030,224.96,2.2690,5.0430,0.9360,-0.0548,-0.3581,0.0587,rough,14.0,0,8.675
7040,225.28,2.2686,5.0487,0.9357,-0.0511,-0.3587,0.0482,rough,14.0,0,8.681
7050,225.60,2.2690,5.0525,0.9357,-0.0475,-0.3593,0.0378,rough,14.0,0,8.684
7060,225.92,2.2689,5.0553,0.9356,-0.0452,-0.3596,0.0311,rough,14.0,0,8.687
7070,226.24,2.2691,5.0573,0.9356,-0.0433,-0.3598,0.0258,rough,14.0,0,8.689
7080,226.56,2.2693,5.0586,0.9356,-0.0420,-0.3600,0.0220,rough,14.0,0,8.690
7090,226.88,2.2694,5.0596,0.9356,-0.0411,-0.3601,0.0194,rough,14.0,0,8.691
7100,227.20,2.2695,5.0602,0.9356,-0.0405,-0.3602,0.0176,rough,14.0,0,8.692
7110,227.52,2.2695,5.0607,0.9356,-0.0400,-0.3602,0.0163,rough,14.0,0,8.692
7120,227.84,2.2696,5.0610,0.9356,-0.0397,-0.3603,0.0154,rough,14.0,0,8.693
7130,228.16,2.2696,5.0612,0.9356,-0.0395,-0.3603,0.0148,rough,14.0,0,8.693
7140,228.48,2.2696,5.0613,0.9356,-0.0394,-0.3603,0.0144,rough,14.0,0,8.693
7150,228.80,2.2696,5.0614,0.9356,-0.0393,-0.3603,0.0142,rough,14.0,0,8.693
7160,229.12,2.2697,5.0615,0.9357,-0.0392,-0.3603,0.0139,rough,14.0,0,8.693
7170,229.44,2.2697,5.0615,0.9357,-0.0390,-0.3604,0.0135,rough,14.0,0,8.693
7180,229.76,2.2698,5.0613,0.9357,-0.0388,-0.3604,0.0128,rough,14.0,0,8.693
7190,230.08,2.2699,5.0609,0.9358,-0.0383,-0.3605,0.0115,rough,14.0,0,8.692
7200,230.40,2.2703,5.0600,0.9359,-0.0376,-0.3606,0.0092,rough,14.0,0,8.691
7210,230.72,2.2711,5.0583,0.9363,-0.0362,-0.3607,0.0052,rough,14.0,0,8.690
7220,231.04,2.2721,5.0551,0.9368,-0.0337,-0.3610,-0.0018,rough,14.0,0,8.686
7230,231.36,2.2724,5.0494,0.9371,-0.0294,-0.3614,-0.0142,rough,14.0,0,8.681
7240,231.68,2.2723,5.0392,0.9375,-0.0221,-0.3619,-0.0350,rough,14.0,0,8.671
7250,232.00,2.2709,5.0214,0.9376,-0.0104,-0.3624,-0.0685,rough,14.0,0,8.654
7260,232.32,2.2694,5.0072,0.9354,-0.0182,-0.3483,-0.0458,rough,14.0,0,8.640
7270,232.64,2.2693,4.9980,0.9374,-0.0253,-0.3587,-0.0253,rough,14.0,0,8.631
7280,232.96,2.2694,4.9925,0.9377,-0.0301,-0.3587,-0.0115,rough,14.0,0,8.626
7290,233.28,2.2696,4.9893,0.9382,-0.0331,-0.3601,-0.0028,rough,14.0,0,8.623
7300,233.60,2.2699,4.9871,0.9383,-0.0352,-0.3593,0.0030,rough,14.0,0,8.620
7310,233.92,2.2699,4.9854,0.9385,-0.0356,-0.3606,0.0043,rough,14.0,0,8.619
7320,234.24,2.2695,4.9835,0.9384,-0.0354,-0.3606,0.0037,rough,14.0,0,8.617
7330,234.56,2.2696,4.9825,0.9385,-0.0366,-0.3604,0.0071,rough,14.0,0,8.616
7340,234.88,2.2697,4.9818,0.9385,-0.0374,-0.3604,0.0094,rough,14.0,0,8.615
7350,235.20,2.2697,4.9813,0.9386,-0.0379,-0.3603,0.0109,rough,14.0,0,8.615
7360,235.52,2.2698,4.9810,0.9386,-0.0382,-0.3603,0.0119,rough,14.0,0,8.615
7370,235.84,2.2698,4.9808,0.9386,-0.0385,-0.3603,0.0126,rough,14.0,0,8.614
7380,236.16,2.2698,4.9807,0.9386,-0.0386,-0.3602,0.0130,rough,14.0,0,8.614
7390,236.48,2.2698,4.9806,0.9386,-0.0387,-0.3602,0.0133,rough,14.0,0,8.614
7400,236.80,2.2698,4.9806,0.9386,-0.0388,-0.3602,0.0136,rough,14.0,0,8.614
7410,237.12,2.2699,4.9807,0.9387,-0.0390,-0.3602,0.0141,rough,14.0,0,8.614
7420,237.44,2.2701,4.9809,0.9387,-0.0393,-0.3602,0.0149,rough,14.0,0,8.614
7430,237.76,2.2704,4.9814,0.9388,-0.0397,-0.3601,0.0162,rough,14.0,0,8.615
7440,238.08,2.2708,4.9825,0.9389,-0.0406,-0.3600,0.0187,rough,14.0,0,8.616
7450,238.40,2.2715,4.9844,0.9391,-0.0421,-0.3599,0.0230,rough,14.0,0,8.617
7460,238.72,2.2722,4.9878,0.9393,-0.0449,-0.3595,0.0309,rough,14.0,0,8.621
7470,239.04,2.2725,4.9941,0.9391,-0.0502,-0.3588,0.0463,rough,14.0,0,8.627
7480,239.36,2.2721,5.0061,0.9385,-0.0612,-0.3570,0.0780,rough,14.0,0,8.638
7490,239.68,2.2694,5.0252,0.9372,-0.0679,-0.3579,0.0973,rough,14.0,0,8.658
7500,240.00,2.2689,5.0392,0.9361,-0.0582,-0.3576,0.0686,rough,14.0,0,8.671
7510,240.32,2.2687,5.0459,0.9358,-0.0535,-0.3584,0.0551,rough,14.0,0,8.678
7520,240.64,2.2688,5.0506,0.9357,-0.0493,-0.3590,0.0431,rough,14.0,0,8.683
7530,240.96,2.2692,5.0538,0.9357,-0.0462,-0.3595,0.0342,rough,14.0,0,8.686
7540,241.28,2.2690,5.0563,0.9356,-0.0443,-0.3597,0.0286,rough,14.0,0,8.688
7550,241.60,2.2692,5.0580,0.9356,-0.0427,-0.3599,0.0239,rough,14.0,0,8.690
7560,241.92,2.2693,5.0591,0.9356,-0.0416,-0.3601,0.0207,rough,14.0,0,8.691
7570,242.24,2.2694,5.0599,0.9356,-0.0408,-0.3602,0.0185,rough,14.0,0,8.691
7580,242.56,2.2695,5.0604,0.9356,-0.0402,-0.3602,0.0169,rough,14.0,0,8.692
7590,242.88,2.2696,5.0608,0.9356,-0.0399,-0.3603,0.0159,rough,14.0,0,8.692
7600,243.20,2.2696,5.0611,0.9356,-0.0396,-0.3603,0.0151,rough,14.0,0,8.693
7610,243.52,2.2696,5.0612,0.9356,-0.0394,-0.3603,0.0146,rough,14.0,0,8.693
7620,243.84,2.2696,5.0614,0.9356,-0.0393,-0.3603,0.0143,rough,14.0,0,8.693
7630,244.16,2.2696,5.0615,0.9356,-0.0392,-0.3603,0.0141,rough,14.0,0,8.693
7640,244.48,2.2697,5.0615,0.9357,-0.0391,-0.3603,0.0138,rough,14.0,0,8.693
7650,244.80,2.2697,5.0614,0.9357,-0.0389,-0.3604,0.0132,rough,14.0,0,8.693
7660,245.12,2.2698,5.0611,0.9357,-0.0386,-0.3604,0.0123,rough,14.0,0,8.693
7670,245.44,2.2699,5.0605,0.9358,-0.0381,-0.3605,0.0106,rough,14.0,0,8.692
7680,245.76,2.2706,5.0593,0.9361,-0.0370,-0.3606,0.0076,rough,14.0,0,8.691
7690,246.08,2.2716,5.0571,0.9366,-0.0352,-0.3608,0.0025,rough,14.0,0,8.688
7700,246.40,2.2723,5.0530,0.9370,-0.0321,-0.3611,-0.0066,rough,14.0,0,8.684
7710,246.72,2.2724,5.0455,0.9373,-0.0266,-0.3616,-0.0223,rough,14.0,0,8.677
7720,247.04,2.2719,5.0323,0.9376,-0.0174,-0.3621,-0.0483,rough,14.0,0,8.664
7730,247.36,2.2696,5.0127,0.9367,-0.0123,-0.3578,-0.0628,rough,14.0,0,8.645
7740,247.68,2.2688,5.0013,0.9376,-0.0207,-0.3624,-0.0386,rough,14.0,0,8.635
7750,248.00,2.2694,4.9946,0.9355,-0.0279,-0.3457,-0.0176,rough,14.0,0,8.628
7760,248.32,2.2696,4.9903,0.9358,-0.0317,-0.3458,-0.0069,rough,14.0,0,8.624
7770,248.64,2.2699,4.9876,0.9359,-0.0344,-0.3447,0.0010,rough,14.0,0,8.621
7780,248.96,2.2700,4.9860,0.9385,-0.0361,-0.3602,0.0056,rough,14.0,0,8.619
7790,249.28,2.2700,4.9849,0.9386,-0.0364,-0.3603,0.0066,rough,14.0,0,8.618
7800,249.60,2.2695,4.9832,0.9384,-0.0358,-0.3605,0.0049,rough,14.0,0,8.617
7810,249.92,2.2696,4.9822,0.9385,-0.0369,-0.3604,0.0080,rough,14.0,0,8.616
7820,250.24,2.2697,4.9816,0.9386,-0.0376,-0.3603,0.0100,rough,14.0,0,8.615
7830,250.56,2.2697,4.9812,0.9386,-0.0380,-0.3603,0.0113,rough,14.0,0,8.615
7840,250.88,2.2698,4.9809,0.9386,-0.0383,-0.3603,0.0122,rough,14.0,0,8.615
7850,251.20,2.2698,4.9808,0.9386,-0.0385,-0.3603,0.0127,rough,14.0,0,8.614
7860,251.52,2.2698,4.9806,0.9386,-0.0387,-0.3602,0.0131,rough,14.0,0,8.614
7870,251.84,2.2698,4.9806,0.9386,-0.0388,-0.3602,0.0134,rough,14.0,0,8.614
7880,252.16,2.2699,4.9806,0.9387,-0.0389,-0.3602,0.0138,rough,14.0,0,8.614
7890,252.48,2.2700,4.9807,0.9387,-0.0391,-0.3602,0.0143,rough,14.0,0,8.614
7900,252.80,2.2702,4.9810,0.9388,-0.0394,-0.3602,0.0152,rough,14.0,0,8.615
7910,253.12,2.2704,4.9817,0.9388,-0.0400,-0.3601,0.0169,rough,14.0,0,8.615
7920,253.44,2.2710,4.9829,0.9390,-0.0410,-0.3600,0.0198,rough,14.0,0,8.616
7930,253.76,2.2718,4.9852,0.9392,-0.0428,-0.3598,0.0250,rough,14.0,0,8.618
7940,254.08,2.2724,4.9894,0.9393,-0.0462,-0.3594,0.0347,rough,14.0,0,8.622
7950,254.40,2.2725,4.9971,0.9390,-0.0529,-0.3584,0.0539,rough,14.0,0,8.630
7960,254.72,2.2716,5.0119,0.9381,-0.0670,-0.3559,0.0948,rough,14.0,0,8.644
7970,255.04,2.2691,5.0317,0.9361,-0.0632,-0.3543,0.0835,rough,14.0,0,8.664
7980,255.36,2.2687,5.0434,0.9359,-0.0554,-0.3580,0.0605,rough,14.0,0,8.676
7990,255.68,2.2686,5.0488,0.9357,-0.0510,-0.3588,0.0478,rough,14.0,0,8.681
8000,256.00,2.2690,5.0526,0.9357,-0.0474,-0.3593,0.0375,rough,14.0,0,8.685
8010,256.32,2.2689,5.0554,0.9356,-0.0451,-0.3596,0.0310,rough,14.0,0,8.687
