step,time_s,x,y,z,roll,pitch,yaw,terrain,speed,target_idx,dist_to_target
10,0.32,1.8901,0.4978,0.6427,0.0359,-0.4005,-0.0121,slope,18.0,0,6.527
20,0.64,1.9348,0.4959,0.6572,0.0484,-0.4141,-0.0148,slope,18.0,0,6.484
30,0.96,2.2747,0.4915,0.8101,0.0452,-0.4441,-0.0167,slope,18.0,0,6.155
40,1.28,2.6203,0.4866,0.9762,0.0394,-0.4563,-0.0181,slope,18.0,0,5.823
50,1.60,2.9448,0.4802,1.1360,0.0355,-0.4632,-0.0250,slope,18.0,0,5.512
60,1.92,3.2559,0.4707,1.2868,0.0312,-0.4460,-0.0352,slope,18.0,0,5.217
70,2.24,3.5528,0.4531,1.4289,0.0404,-0.4447,-0.0660,slope,18.0,0,4.941
80,2.56,3.8416,0.4216,1.5606,0.0529,-0.4123,-0.1089,slope,18.0,0,4.679
90,2.88,4.1438,0.3818,1.6878,0.0264,-0.3883,-0.0683,slope,18.0,0,4.411
100,3.20,4.4494,0.3547,1.8137,0.0182,-0.3902,-0.0696,slope,18.0,0,4.140
110,3.52,4.7754,0.3324,1.9432,0.0099,-0.3631,-0.0349,slope,18.0,0,3.854
120,3.84,5.1071,0.3217,2.0655,0.0014,-0.3572,-0.0099,slope,18.0,0,3.565
130,4.16,5.4437,0.3189,2.1853,-0.0008,-0.3302,-0.0021,slope,18.0,0,3.275
140,4.48,5.7837,0.3181,2.3017,-0.0005,-0.3260,-0.0005,slope,18.0,0,2.991
150,4.80,6.1296,0.3178,2.4171,0.0006,-0.3203,0.0002,slope,18.0,0,2.715
160,5.12,6.4798,0.3181,2.5323,-0.0008,-0.3191,0.0005,slope,18.0,0,2.454
170,5.44,6.8170,0.3169,2.6421,0.0010,-0.3150,0.0078,rough,14.0,0,2.226
180,5.76,7.0236,0.3182,2.7092,-0.0098,-0.3140,0.0469,rough,14.0,0,2.100
190,6.08,7.2044,0.3362,2.7679,-0.0226,-0.3128,0.0918,rough,14.0,0,1.986
200,6.40,7.3763,0.3606,2.8240,-0.0264,-0.3144,0.1063,rough,14.0,0,1.880
210,6.72,7.5485,0.3801,2.8802,-0.0225,-0.3150,0.0967,rough,14.0,0,1.790
220,7.04,7.8738,0.4125,2.9223,-0.0140,0.0617,0.0713,rough,14.0,0,1.661
230,7.36,8.3229,0.3400,2.7215,0.5676,0.8409,0.1850,rough,14.0,0,1.697
240,7.68,8.5173,-0.0638,2.5848,2.0738,0.8194,0.7136,rough,14.0,0,2.117
250,8.00,8.5884,-0.5188,2.1837,3.0618,-0.2539,1.5473,rough,14.0,0,2.578
260,8.32,8.7230,-0.8652,2.0978,3.0444,0.0323,2.0851,rough,14.0,0,2.941
270,8.64,8.7826,-1.0322,2.0773,3.1404,-0.0483,2.0362,rough,14.0,0,3.115
280,8.96,8.8304,-1.1598,2.0604,-3.1164,-0.0182,2.1026,rough,14.0,0,3.249
290,9.28,8.9096,-1.2856,2.0424,3.0477,-0.0160,2.1991,rough,14.0,0,3.388
300,9.60,9.0118,-1.3871,2.0541,3.0103,0.0992,2.3030,rough,14.0,0,3.509
310,9.92,9.1049,-1.4752,2.0560,2.9953,0.1885,2.4164,rough,14.0,0,3.616
320,10.24,9.1636,-1.5539,2.0829,3.0772,0.2647,2.5332,rough,14.0,0,3.707
330,10.56,9.2295,-1.6210,2.1104,3.0384,0.2946,2.6579,rough,14.0,0,3.789
340,10.88,9.2896,-1.6655,2.1341,3.0582,0.3943,2.7362,rough,14.0,0,3.848
350,11.20,9.3415,-1.7046,2.1688,-3.1298,0.4718,2.8616,rough,14.0,0,3.900
360,11.52,9.3846,-1.7307,2.1942,-3.0483,0.5402,2.9796,rough,14.0,0,3.937
370,11.84,9.4101,-1.7327,2.1859,3.0840,0.5030,2.9429,rough,14.0,0,3.947
380,12.16,9.4324,-1.7382,2.2022,-3.1192,0.5960,2.9741,rough,14.0,0,3.958
390,12.48,9.4938,-1.7042,2.2119,-3.1085,0.6278,-3.0516,rough,14.0,0,3.945
400,12.80,9.4978,-1.6929,2.2178,-3.0447,0.6625,-2.9852,rough,14.0,0,3.936
410,13.12,9.4948,-1.6939,2.2158,-3.0493,0.6529,-2.9822,rough,14.0,0,3.936
420,13.44,9.4920,-1.6946,2.2137,-3.0532,0.6459,-2.9813,rough,14.0,0,3.936
430,13.76,9.4896,-1.6952,2.2119,-3.0568,0.6400,-2.9812,rough,14.0,0,3.935
440,14.08,9.4874,-1.6956,2.2102,-3.0601,0.6350,-2.9814,rough,14.0,0,3.935
450,14.40,9.4856,-1.6959,2.2088,-3.0630,0.6308,-2.9817,rough,14.0,0,3.935
460,14.72,9.4846,-1.6914,2.2076,-3.0677,0.6272,-2.9808,rough,14.0,0,3.930
470,15.04,9.4838,-1.6774,2.2059,-3.0808,0.6238,-2.9841,rough,14.0,0,3.917
480,15.36,9.4832,-1.6523,2.2033,-3.1047,0.6205,-2.9935,rough,14.0,0,3.893
490,15.68,9.4826,-1.6259,2.2011,-3.1303,0.6206,-3.0054,rough,14.0,0,3.868
500,16.00,9.4822,-1.5986,2.1990,3.1263,0.6216,-3.0181,rough,14.0,0,3.842
510,16.32,9.4828,-1.5888,2.1990,3.1234,0.6211,-3.0121,rough,14.0,0,3.833
520,16.64,9.4830,-1.5904,2.1995,3.1311,0.6186,-2.9995,rough,14.0,0,3.834
530,16.96,9.4825,-1.5914,2.1993,3.1345,0.6159,-2.9924,rough,14.0,0,3.835
540,17.28,9.4816,-1.5921,2.1988,3.1356,0.6134,-2.9886,rough,14.0,0,3.835
550,17.60,9.4855,-1.5834,2.2031,-3.1215,0.6152,-2.9373,rough,14.0,0,3.828
560,17.92,9.5276,-1.5686,2.2308,-3.0784,0.6791,-2.9444,rough,14.0,0,3.828
570,18.24,9.5370,-1.5639,2.2388,-3.0890,0.6847,-2.9523,rough,14.0,0,3.827
580,18.56,9.5251,-1.5644,2.2295,-3.0964,0.6846,-2.9656,rough,14.0,0,3.824
590,18.88,9.5160,-1.5652,2.2225,-3.1041,0.6792,-2.9727,rough,14.0,0,3.821
600,19.20,9.5088,-1.5662,2.2172,-3.1176,0.6650,-2.9771,rough,14.0,0,3.820
610,19.52,9.5029,-1.5670,2.2129,-3.1278,0.6534,-2.9797,rough,14.0,0,3.819
620,19.84,9.4981,-1.5677,2.2094,-3.1359,0.6439,-2.9813,rough,14.0,0,3.818
630,20.16,9.4953,-1.5662,2.2078,-3.1355,0.6374,-2.9701,rough,14.0,0,3.815
640,20.48,9.5253,-1.5474,2.2294,-3.0619,0.6735,-2.9044,rough,14.0,0,3.808
650,20.80,9.5219,-1.5438,2.2285,-3.0791,0.6830,-2.9386,rough,14.0,0,3.803
660,21.12,9.5235,-1.5354,2.2307,-3.0687,0.6819,-2.9223,rough,14.0,0,3.796
670,21.44,9.5221,-1.5281,2.2306,-3.0747,0.6826,-2.9351,rough,14.0,0,3.788
680,21.76,9.5215,-1.5221,2.2309,-3.0767,0.6830,-2.9406,rough,14.0,1,8.824
690,22.08,9.5230,-1.5100,2.2317,-3.0835,0.6831,-2.9407,rough,14.0,1,8.815
700,22.40,9.5083,-1.4926,2.2176,3.0938,0.6857,-3.0800,rough,14.0,1,8.792
710,22.72,9.4962,-1.4856,2.2131,3.0768,0.6795,-3.1395,rough,14.0,1,8.780
720,23.04,9.4927,-1.4820,2.2108,3.0567,0.6752,3.1133,rough,14.0,1,8.775
730,23.36,9.4915,-1.4801,2.2100,3.0473,0.6746,3.0976,rough,14.0,1,8.772
740,23.68,9.4914,-1.4791,2.2099,3.0431,0.6754,3.0891,rough,14.0,1,8.771
750,24.00,9.4917,-1.4785,2.2103,3.0416,0.6766,3.0846,rough,14.0,1,8.771
760,24.32,9.4922,-1.4782,2.2107,3.0412,0.6781,3.0818,rough,14.0,1,8.771
770,24.64,9.4927,-1.4780,2.2111,3.0410,0.6793,3.0801,rough,14.0,1,8.771
780,24.96,9.4933,-1.4780,2.2116,3.0405,0.6791,3.0792,rough,14.0,1,8.772
790,25.28,9.4938,-1.4780,2.2120,3.0403,0.6791,3.0788,rough,14.0,1,8.772
800,25.60,9.4942,-1.4780,2.2124,3.0401,0.6790,3.0786,rough,14.0,1,8.772
810,25.92,9.4946,-1.4780,2.2127,3.0400,0.6790,3.0785,rough,14.0,1,8.772
820,26.24,9.4950,-1.4780,2.2130,3.0400,0.6790,3.0784,rough,14.0,1,8.773
830,26.56,9.4953,-1.4780,2.2132,3.0400,0.6790,3.0784,rough,14.0,1,8.773
840,26.88,9.4955,-1.4780,2.2134,3.0400,0.6790,3.0784,rough,14.0,1,8.773
850,27.20,9.4957,-1.4781,2.2136,3.0400,0.6791,3.0783,rough,14.0,1,8.773
860,27.52,9.4959,-1.4781,2.2137,3.0400,0.6791,3.0783,rough,14.0,1,8.773
870,27.84,9.4961,-1.4781,2.2139,3.0400,0.6791,3.0783,rough,14.0,1,8.773
880,28.16,9.4962,-1.4781,2.2140,3.0400,0.6791,3.0783,rough,14.0,1,8.773
890,28.48,9.4963,-1.4781,2.2140,3.0400,0.6791,3.0783,rough,14.0,1,8.773
900,28.80,9.4964,-1.4781,2.2141,3.0400,0.6791,3.0783,rough,14.0,1,8.774
910,29.12,9.4965,-1.4781,2.2142,3.0400,0.6791,3.0783,rough,14.0,1,8.774
920,29.44,9.4965,-1.4781,2.2142,3.0400,0.6791,3.0783,rough,14.0,1,8.774
930,29.76,9.4966,-1.4781,2.2143,3.0400,0.6791,3.0783,rough,14.0,1,8.774
940,30.08,9.4966,-1.4781,2.2143,3.0400,0.6791,3.0783,rough,14.0,1,8.774
950,30.40,9.4967,-1.4782,2.2143,3.0400,0.6791,3.0783,rough,14.0,1,8.774
960,30.72,9.4967,-1.4782,2.2144,3.0400,0.6791,3.0783,rough,14.0,1,8.774
970,31.04,9.4967,-1.4782,2.2144,3.0400,0.6791,3.0783,rough,14.0,1,8.774
980,31.36,9.4967,-1.4782,2.2144,3.0400,0.6791,3.0783,rough,14.0,1,8.774
990,31.68,9.4968,-1.4782,2.2144,3.0400,0.6791,3.0783,rough,14.0,1,8.774
1000,32.00,9.4968,-1.4782,2.2144,3.0400,0.6791,3.0783,rough,14.0,1,8.774
1010,32.32,9.4968,-1.4782,2.2144,3.0400,0.6791,3.0783,rough,14.0,1,8.774
1020,32.64,9.4968,-1.4782,2.2144,3.0400,0.6791,3.0783,rough,14.0,1,8.774
1030,32.96,9.4968,-1.4782,2.2144,3.0400,0.6791,3.0783,rough,14.0,1,8.774
1040,33.28,9.4968,-1.4782,2.2145,3.0400,0.6791,3.0783,rough,14.0,2,17.061
1050,33.60,9.4968,-1.4782,2.2145,3.0400,0.6791,3.0783,rough,14.0,2,17.061
1060,33.92,9.4968,-1.4782,2.2145,3.0400,0.6791,3.0783,rough,14.0,2,17.061
1070,34.24,9.4968,-1.4782,2.2145,3.0400,0.6791,3.0783,rough,14.0,2,17.061
1080,34.56,9.4968,-1.4782,2.2145,3.0400,0.6791,3.0783,rough,14.0,2,17.061
1090,34.88,9.4968,-1.4782,2.2145,3.0400,0.6791,3.0783,rough,14.0,2,17.061
1100,35.20,9.4968,-1.4782,2.2145,3.0400,0.6791,3.0783,rough,14.0,2,17.061
1110,35.52,9.4968,-1.4782,2.2145,3.0400,0.6791,3.0783,rough,14.0,2,17.061
1120,35.84,9.4968,-1.4782,2.2145,3.0400,0.6791,3.0783,rough,14.0,2,17.061
1130,36.16,9.4968,-1.4782,2.2145,3.0400,0.6791,3.0783,rough,14.0,2,17.061
1140,36.48,9.4968,-1.4782,2.2145,3.0400,0.6791,3.0783,rough,14.0,2,17.061
1150,36.80,9.4968,-1.4782,2.2145,3.0400,0.6791,3.0783,rough,14.0,2,17.062
1160,37.12,9.4968,-1.4783,2.2145,3.0400,0.6792,3.0783,rough,14.0,2,17.062
1170,37.44,9.4968,-1.4783,2.2145,3.0400,0.6792,3.0783,rough,14.0,2,17.062
1180,37.76,9.4968,-1.4783,2.2145,3.0400,0.6792,3.0783,rough,14.0,2,17.062
1190,38.08,9.4968,-1.4783,2.2145,3.0400,0.6792,3.0783,rough,14.0,2,17.062
1200,38.40,9.4968,-1.4783,2.2145,3.0400,0.6792,3.0783,rough,14.0,2,17.062
1210,38.72,9.4968,-1.4783,2.2145,3.0400,0.6792,3.0783,rough,14.0,2,17.062
1220,39.04,9.4968,-1.4783,2.2145,3.0400,0.6792,3.0783,rough,14.0,2,17.062
1230,39.36,9.4968,-1.4783,2.2145,3.0400,0.6792,3.0783,rough,14.0,2,17.062
1240,39.68,9.4968,-1.4783,2.2145,3.0401,0.6792,3.0783,rough,14.0,2,17.062
1250,40.00,9.4968,-1.4783,2.2145,3.0401,0.6792,3.0783,rough,14.0,2,17.062
1260,40.32,9.4968,-1.4783,2.2145,3.0401,0.6792,3.0783,rough,14.0,2,17.062
1270,40.64,9.4968,-1.4783,2.2145,3.0401,0.6792,3.0783,rough,14.0,2,17.062
1280,40.96,9.4969,-1.4783,2.2145,3.0401,0.6792,3.0783,rough,14.0,2,17.062
1290,41.28,9.4969,-1.4783,2.2145,3.0401,0.6792,3.0783,rough,14.0,2,17.062
1300,41.60,9.4969,-1.4783,2.2145,3.0401,0.6792,3.0783,rough,14.0,2,17.062
1310,41.92,9.4969,-1.4783,2.2145,3.0401,0.6792,3.0783,rough,14.0,2,17.062
1320,42.24,9.4969,-1.4783,2.2145,3.0401,0.6792,3.0783,rough,14.0,2,17.062
1330,42.56,9.4969,-1.4783,2.2145,3.0401,0.6792,3.0783,rough,14.0,2,17.062
1340,42.88,9.4969,-1.4783,2.2145,3.0401,0.6792,3.0783,rough,14.0,2,17.062
1350,43.20,9.4969,-1.4783,2.2145,3.0401,0.6792,3.0783,rough,14.0,2,17.062
1360,43.52,9.4969,-1.4783,2.2145,3.0401,0.6792,3.0783,rough,14.0,2,17.062
1370,43.84,9.4969,-1.4783,2.2145,3.0401,0.6792,3.0783,rough,14.0,2,17.062
1380,44.16,9.4969,-1.4783,2.2145,3.0401,0.6792,3.0783,rough,14.0,2,17.062
1390,44.48,9.4969,-1.4783,2.2145,3.0401,0.6792,3.0783,rough,14.0,2,17.062
1400,44.80,9.4969,-1.4783,2.2145,3.0401,0.6792,3.0783,rough,14.0,2,17.062
1410,45.12,9.4969,-1.4784,2.2145,3.0401,0.6792,3.0783,rough,14.0,3,15.161
1420,45.44,9.4969,-1.4784,2.2145,3.0401,0.6792,3.0783,rough,14.0,3,15.161
1430,45.76,9.4969,-1.4784,2.2145,3.0401,0.6792,3.0783,rough,14.0,3,15.161
1440,46.08,9.4969,-1.4784,2.2145,3.0401,0.6792,3.0783,rough,14.0,3,15.161
1450,46.40,9.4969,-1.4784,2.2145,3.0401,0.6792,3.0783,rough,14.0,3,15.161
1460,46.72,9.4969,-1.4784,2.2145,3.0401,0.6792,3.0783,rough,14.0,3,15.161
1470,47.04,9.4969,-1.4784,2.2145,3.0401,0.6792,3.0783,rough,14.0,3,15.161
1480,47.36,9.4969,-1.4784,2.2145,3.0401,0.6792,3.0783,rough,14.0,3,15.161
1490,47.68,9.4969,-1.4784,2.2145,3.0401,0.6792,3.0783,rough,14.0,3,15.161
1500,48.00,9.4969,-1.4784,2.2145,3.0401,0.6792,3.0783,rough,14.0,3,15.161
1510,48.32,9.4969,-1.4784,2.2145,3.0401,0.6792,3.0783,rough,14.0,3,15.161
1520,48.64,9.4969,-1.4784,2.2145,3.0401,0.6792,3.0783,rough,14.0,3,15.161
1530,48.96,9.4969,-1.4784,2.2145,3.0401,0.6792,3.0783,rough,14.0,3,15.161
1540,49.28,9.4969,-1.4784,2.2145,3.0401,0.6792,3.0783,rough,14.0,3,15.161
1550,49.60,9.4969,-1.4784,2.2145,3.0401,0.6792,3.0783,rough,14.0,3,15.161
1560,49.92,9.4969,-1.4784,2.2145,3.0401,0.6792,3.0783,rough,14.0,3,15.161
1570,50.24,9.4969,-1.4784,2.2145,3.0401,0.6792,3.0783,rough,14.0,3,15.161
1580,50.56,9.4969,-1.4784,2.2145,3.0401,0.6792,3.0783,rough,14.0,3,15.161
1590,50.88,9.4969,-1.4784,2.2145,3.0401,0.6792,3.0783,rough,14.0,3,15.161
1600,51.20,9.4969,-1.4784,2.2145,3.0401,0.6792,3.0783,rough,14.0,3,15.161
1610,51.52,9.4969,-1.4784,2.2145,3.0401,0.6792,3.0783,rough,14.0,3,15.161
1620,51.84,9.4969,-1.4784,2.2145,3.0401,0.6792,3.0783,rough,14.0,3,15.161
1630,52.16,9.4969,-1.4784,2.2145,3.0401,0.6792,3.0783,rough,14.0,3,15.161
1640,52.48,9.4969,-1.4784,2.2145,3.0401,0.6793,3.0783,rough,14.0,3,15.161
1650,52.80,9.4969,-1.4784,2.2145,3.0401,0.6793,3.0783,rough,14.0,3,15.161
1660,53.12,9.4969,-1.4785,2.2145,3.0401,0.6793,3.0783,rough,14.0,3,15.161
1670,53.44,9.4969,-1.4785,2.2145,3.0401,0.6793,3.0783,rough,14.0,3,15.161
1680,53.76,9.4969,-1.4785,2.2145,3.0401,0.6793,3.0783,rough,14.0,3,15.161
1690,54.08,9.4969,-1.4785,2.2145,3.0401,0.6793,3.0783,rough,14.0,3,15.161
1700,54.40,9.4969,-1.4785,2.2145,3.0401,0.6793,3.0783,rough,14.0,3,15.161
1710,54.72,9.4969,-1.4785,2.2145,3.0401,0.6793,3.0783,rough,14.0,3,15.161
1720,55.04,9.4969,-1.4785,2.2145,3.0401,0.6793,3.0783,rough,14.0,3,15.161
1730,55.36,9.4969,-1.4785,2.2145,3.0401,0.6793,3.0783,rough,14.0,3,15.161
1740,55.68,9.4969,-1.4785,2.2145,3.0401,0.6793,3.0783,rough,14.0,3,15.161
1750,56.00,9.4969,-1.4785,2.2145,3.0401,0.6793,3.0783,rough,14.0,3,15.161
1760,56.32,9.4969,-1.4785,2.2145,3.0401,0.6793,3.0783,rough,14.0,3,15.161
1770,56.64,9.4969,-1.4785,2.2145,3.0401,0.6793,3.0783,rough,14.0,3,15.161
1780,56.96,9.4969,-1.4785,2.2145,3.0401,0.6793,3.0783,rough,14.0,0,3.733
1790,57.28,9.4969,-1.4785,2.2145,3.0401,0.6793,3.0783,rough,14.0,0,3.733
1800,57.60,9.4969,-1.4785,2.2145,3.0401,0.6793,3.0783,rough,14.0,0,3.733
1810,57.92,9.4969,-1.4785,2.2145,3.0401,0.6793,3.0783,rough,14.0,0,3.733
1820,58.24,9.4969,-1.4785,2.2145,3.0401,0.6793,3.0783,rough,14.0,0,3.733
1830,58.56,9.4969,-1.4785,2.2145,3.0401,0.6793,3.0783,rough,14.0,0,3.733
1840,58.88,9.4969,-1.4785,2.2145,3.0401,0.6793,3.0783,rough,14.0,0,3.733
1850,59.20,9.4969,-1.4785,2.2145,3.0401,0.6793,3.0783,rough,14.0,0,3.733
1860,59.52,9.4969,-1.4785,2.2145,3.0401,0.6793,3.0783,rough,14.0,0,3.733
1870,59.84,9.4969,-1.4785,2.2145,3.0401,0.6793,3.0783,rough,14.0,0,3.733
1880,60.16,9.4969,-1.4785,2.2145,3.0402,0.6793,3.0783,rough,14.0,0,3.733
1890,60.48,9.4969,-1.4785,2.2145,3.0402,0.6793,3.0783,rough,14.0,0,3.733
1900,60.80,9.4969,-1.4786,2.2145,3.0402,0.6793,3.0783,rough,14.0,0,3.733
1910,61.12,9.4969,-1.4786,2.2145,3.0402,0.6793,3.0783,rough,14.0,0,3.733
1920,61.44,9.4969,-1.4786,2.2145,3.0402,0.6793,3.0783,rough,14.0,0,3.733
1930,61.76,9.4969,-1.4786,2.2145,3.0402,0.6793,3.0783,rough,14.0,0,3.733
1940,62.08,9.4969,-1.4786,2.2145,3.0402,0.6793,3.0783,rough,14.0,0,3.733
1950,62.40,9.4969,-1.4786,2.2145,3.0402,0.6793,3.0783,rough,14.0,0,3.733
1960,62.72,9.4969,-1.4786,2.2145,3.0402,0.6793,3.0783,rough,14.0,0,3.733
1970,63.04,9.4969,-1.4786,2.2145,3.0402,0.6793,3.0783,rough,14.0,0,3.733
1980,63.36,9.4969,-1.4786,2.2145,3.0402,0.6793,3.0783,rough,14.0,0,3.733
1990,63.68,9.4969,-1.4786,2.2145,3.0402,0.6793,3.0783,rough,14.0,0,3.733
2000,64.00,9.4969,-1.4786,2.2145,3.0402,0.6793,3.0783,rough,14.0,0,3.733
2010,64.32,9.4969,-1.4786,2.2145,3.0402,0.6793,3.0783,rough,14.0,0,3.733
2020,64.64,9.4969,-1.4786,2.2145,3.0402,0.6793,3.0783,rough,14.0,0,3.733
2030,64.96,9.4969,-1.4786,2.2145,3.0402,0.6793,3.0783,rough,14.0,0,3.733
2040,65.28,9.4969,-1.4786,2.2145,3.0402,0.6793,3.0783,rough,14.0,0,3.733
2050,65.60,9.4969,-1.4786,2.2145,3.0402,0.6793,3.0783,rough,14.0,0,3.733
2060,65.92,9.4969,-1.4786,2.2145,3.0402,0.6793,3.0783,rough,14.0,0,3.733
2070,66.24,9.4969,-1.4786,2.2145,3.0402,0.6793,3.0783,rough,14.0,0,3.733
2080,66.56,9.4969,-1.4786,2.2145,3.0402,0.6793,3.0783,rough,14.0,0,3.733
2090,66.88,9.4969,-1.4786,2.2145,3.0402,0.6793,3.0783,rough,14.0,0,3.733
2100,67.20,9.4969,-1.4786,2.2145,3.0402,0.6793,3.0783,rough,14.0,0,3.733
2110,67.52,9.4969,-1.4786,2.2145,3.0402,0.6793,3.0783,rough,14.0,0,3.733
2120,67.84,9.4969,-1.4786,2.2145,3.0402,0.6793,3.0783,rough,14.0,0,3.733
2130,68.16,9.4969,-1.4786,2.2145,3.0402,0.6794,3.0783,rough,14.0,0,3.733
2140,68.48,9.4969,-1.4786,2.2145,3.0402,0.6794,3.0783,rough,14.0,1,8.774
2150,68.80,9.4969,-1.4786,2.2145,3.0402,0.6794,3.0783,rough,14.0,1,8.774
2160,69.12,9.4969,-1.4787,2.2145,3.0402,0.6794,3.0783,rough,14.0,1,8.774
2170,69.44,9.4969,-1.4787,2.2145,3.0402,0.6794,3.0783,rough,14.0,1,8.774
2180,69.76,9.4969,-1.4787,2.2145,3.0402,0.6794,3.0783,rough,14.0,1,8.774
2190,70.08,9.4969,-1.4787,2.2145,3.0402,0.6794,3.0783,rough,14.0,1,8.774
2200,70.40,9.4969,-1.4787,2.2145,3.0402,0.6794,3.0783,rough,14.0,1,8.774
2210,70.72,9.4969,-1.4787,2.2145,3.0402,0.6794,3.0783,rough,14.0,1,8.774
2220,71.04,9.4969,-1.4787,2.2145,3.0402,0.6794,3.0783,rough,14.0,1,8.774
2230,71.36,9.4969,-1.4787,2.2145,3.0402,0.6794,3.0783,rough,14.0,1,8.774
2240,71.68,9.4969,-1.4787,2.2145,3.0402,0.6794,3.0783,rough,14.0,1,8.774
2250,72.00,9.4969,-1.4787,2.2145,3.0402,0.6794,3.0783,rough,14.0,1,8.774
2260,72.32,9.4969,-1.4787,2.2145,3.0402,0.6794,3.0783,rough,14.0,1,8.774
2270,72.64,9.4969,-1.4787,2.2145,3.0402,0.6794,3.0783,rough,14.0,1,8.774
2280,72.96,9.4969,-1.4787,2.2145,3.0402,0.6794,3.0783,rough,14.0,1,8.774
2290,73.28,9.4969,-1.4787,2.2145,3.0402,0.6794,3.0783,rough,14.0,1,8.774
2300,73.60,9.4969,-1.4787,2.2145,3.0402,0.6794,3.0783,rough,14.0,1,8.774
2310,73.92,9.4969,-1.4787,2.2145,3.0402,0.6794,3.0783,rough,14.0,1,8.774
2320,74.24,9.4969,-1.4787,2.2145,3.0402,0.6794,3.0783,rough,14.0,1,8.774
2330,74.56,9.4969,-1.4787,2.2144,3.0402,0.6794,3.0783,rough,14.0,1,8.774
2340,74.88,9.4969,-1.4787,2.2144,3.0402,0.6794,3.0783,rough,14.0,1,8.774
2350,75.20,9.4969,-1.4787,2.2144,3.0402,0.6794,3.0783,rough,14.0,1,8.774
2360,75.52,9.4969,-1.4787,2.2144,3.0402,0.6794,3.0783,rough,14.0,1,8.774
2370,75.84,9.4969,-1.4787,2.2144,3.0402,0.6794,3.0783,rough,14.0,1,8.774
2380,76.16,9.4969,-1.4787,2.2144,3.0402,0.6794,3.0783,rough,14.0,1,8.774
2390,76.48,9.4969,-1.4787,2.2144,3.0402,0.6794,3.0783,rough,14.0,1,8.774
2400,76.80,9.4969,-1.4787,2.2144,3.0402,0.6794,3.0783,rough,14.0,1,8.774
2410,77.12,9.4969,-1.4788,2.2144,3.0402,0.6794,3.0783,rough,14.0,1,8.774
2420,77.44,9.4969,-1.4788,2.2144,3.0402,0.6794,3.0783,rough,14.0,1,8.774
2430,77.76,9.4969,-1.4788,2.2144,3.0402,0.6794,3.0783,rough,14.0,1,8.774
2440,78.08,9.4969,-1.4788,2.2144,3.0402,0.6794,3.0783,rough,14.0,1,8.774
2450,78.40,9.4969,-1.4788,2.2144,3.0402,0.6794,3.0783,rough,14.0,1,8.774
2460,78.72,9.4969,-1.4788,2.2144,3.0402,0.6794,3.0783,rough,14.0,1,8.774
2470,79.04,9.4969,-1.4788,2.2144,3.0402,0.6794,3.0783,rough,14.0,1,8.774
2480,79.36,9.4969,-1.4788,2.2144,3.0402,0.6794,3.0783,rough,14.0,1,8.774
2490,79.68,9.4969,-1.4788,2.2144,3.0402,0.6794,3.0783,rough,14.0,1,8.774
2500,80.00,9.4969,-1.4788,2.2144,3.0402,0.6794,3.0783,rough,14.0,1,8.774
2510,80.32,9.4969,-1.4788,2.2144,3.0402,0.6794,3.0783,rough,14.0,2,17.062
2520,80.64,9.4969,-1.4788,2.2144,3.0402,0.6794,3.0783,rough,14.0,2,17.062
2530,80.96,9.4969,-1.4788,2.2144,3.0402,0.6794,3.0783,rough,14.0,2,17.062
2540,81.28,9.4969,-1.4788,2.2144,3.0403,0.6794,3.0783,rough,14.0,2,17.062
2550,81.60,9.4969,-1.4788,2.2144,3.0403,0.6794,3.0783,rough,14.0,2,17.062
2560,81.92,9.4969,-1.4788,2.2144,3.0403,0.6794,3.0783,rough,14.0,2,17.062
2570,82.24,9.4969,-1.4788,2.2144,3.0403,0.6794,3.0783,rough,14.0,2,17.062
2580,82.56,9.4969,-1.4788,2.2144,3.0403,0.6794,3.0783,rough,14.0,2,17.062
2590,82.88,9.4969,-1.4788,2.2144,3.0403,0.6794,3.0783,rough,14.0,2,17.062
2600,83.20,9.4969,-1.4788,2.2144,3.0403,0.6794,3.0783,rough,14.0,2,17.062
2610,83.52,9.4969,-1.4788,2.2144,3.0403,0.6794,3.0783,rough,14.0,2,17.062
2620,83.84,9.4969,-1.4788,2.2144,3.0403,0.6795,3.0783,rough,14.0,2,17.062
2630,84.16,9.4969,-1.4788,2.2144,3.0403,0.6795,3.0783,rough,14.0,2,17.062
2640,84.48,9.4969,-1.4788,2.2144,3.0403,0.6795,3.0783,rough,14.0,2,17.062
2650,84.80,9.4969,-1.4788,2.2144,3.0403,0.6795,3.0783,rough,14.0,2,17.062
2660,85.12,9.4969,-1.4789,2.2144,3.0403,0.6795,3.0783,rough,14.0,2,17.062
2670,85.44,9.4969,-1.4789,2.2144,3.0403,0.6795,3.0783,rough,14.0,2,17.062
2680,85.76,9.4969,-1.4789,2.2144,3.0403,0.6795,3.0783,rough,14.0,2,17.062
2690,86.08,9.4969,-1.4789,2.2144,3.0403,0.6795,3.0783,rough,14.0,2,17.062
2700,86.40,9.4969,-1.4789,2.2144,3.0403,0.6795,3.0783,rough,14.0,2,17.062
2710,86.72,9.4969,-1.4789,2.2144,3.0403,0.6795,3.0783,rough,14.0,2,17.062
2720,87.04,9.4969,-1.4789,2.2144,3.0403,0.6795,3.0783,rough,14.0,2,17.062
2730,87.36,9.4969,-1.4789,2.2144,3.0403,0.6795,3.0783,rough,14.0,2,17.062
2740,87.68,9.4969,-1.4789,2.2144,3.0403,0.6795,3.0783,rough,14.0,2,17.062
2750,88.00,9.4969,-1.4789,2.2144,3.0403,0.6795,3.0783,rough,14.0,2,17.062
2760,88.32,9.4969,-1.4789,2.2144,3.0403,0.6795,3.0783,rough,14.0,2,17.062
2770,88.64,9.4969,-1.4789,2.2144,3.0403,0.6795,3.0783,rough,14.0,2,17.062
2780,88.96,9.4969,-1.4789,2.2144,3.0403,0.6795,3.0783,rough,14.0,2,17.062
2790,89.28,9.4969,-1.4789,2.2144,3.0403,0.6795,3.0783,rough,14.0,2,17.062
2800,89.60,9.4969,-1.4789,2.2144,3.0403,0.6795,3.0783,rough,14.0,2,17.062
2810,89.92,9.4969,-1.4789,2.2144,3.0403,0.6795,3.0783,rough,14.0,2,17.062
