step,time_s,x,y,z,roll,pitch,yaw,terrain,speed,target_idx,dist_to_target
10,0.32,-1.3200,0.8844,0.2281,0.0010,-0.0260,0.0050,rough,14.0,0,6.121
20,0.64,-1.1220,0.8815,0.2204,0.0115,0.0119,0.3445,rough,14.0,0,6.290
30,0.96,-0.9085,0.9632,0.2189,0.0175,0.0013,0.6934,rough,14.0,0,6.431
40,1.28,-0.7277,1.1432,0.2195,0.0157,-0.0080,0.9922,rough,14.0,0,6.502
50,1.60,-0.5688,1.3807,0.2210,0.0085,-0.0105,1.2806,rough,14.0,0,6.537
60,1.92,-0.4796,1.6818,0.2231,0.0001,-0.0050,1.5676,rough,14.0,0,6.496
70,2.24,-0.4855,2.0249,0.2237,0.0016,0.0032,1.8009,rough,14.0,0,6.366
80,2.56,-0.5814,2.3781,0.2171,0.0125,0.0201,1.9533,rough,14.0,0,6.163
90,2.88,-0.7340,2.7304,0.2114,0.0150,0.0271,2.1038,rough,14.0,0,5.920
100,3.20,-0.9505,3.0611,0.1956,-0.0074,0.0299,2.2390,rough,14.0,0,5.635
110,3.52,-1.2012,3.3699,0.1872,0.0294,0.0306,2.3544,rough,14.0,0,5.334
120,3.84,-1.5105,3.6590,0.1718,0.0087,0.0273,2.4620,rough,14.0,0,4.989
130,4.16,-1.8442,3.9185,0.1659,0.0352,0.0171,2.5622,rough,14.0,0,4.635
140,4.48,-2.2066,4.1472,0.1598,0.0333,0.0086,2.6545,rough,14.0,0,4.265
150,4.80,-2.5891,4.3406,0.1574,0.0313,0.0019,2.7345,rough,14.0,0,3.885
160,5.12,-2.9858,4.5025,0.1591,0.0260,-0.0083,2.8192,rough,14.0,0,3.499
170,5.44,-3.3977,4.6347,0.1638,0.0200,-0.0156,2.9041,rough,14.0,0,3.106
180,5.76,-3.8163,4.7320,0.1699,0.0097,-0.0201,2.9791,rough,14.0,0,2.710
190,6.08,-4.2437,4.7973,0.1788,0.0041,-0.0249,3.0640,rough,14.0,0,2.309
200,6.40,-4.6745,4.8249,0.1880,-0.0068,-0.0239,-3.1299,rough,14.0,0,1.905
210,6.72,-5.1038,4.8153,0.1969,-0.0127,-0.0231,-3.0366,rough,14.0,0,1.503
220,7.04,-5.5212,4.7652,0.2048,-0.0201,-0.0156,-3.0083,rough,14.0,0,1.110
230,7.36,-5.9325,4.6873,0.2110,-0.0695,0.0362,-2.8845,rough,14.0,1,6.744
240,7.68,-6.1175,4.6509,0.2127,-0.0296,0.0083,-2.3259,rough,14.0,1,6.931
250,8.00,-6.2610,4.4513,0.2079,-0.0245,0.0228,-2.0214,rough,14.0,1,7.089
260,8.32,-6.3455,4.1632,0.2003,-0.0152,0.0338,-1.8083,rough,14.0,1,7.204
270,8.64,-6.3890,3.8217,0.1889,-0.0061,0.0348,-1.6845,rough,14.0,1,7.299
280,8.96,-6.4120,3.4679,0.1765,0.0017,0.0361,-1.5942,rough,14.0,1,7.390
290,9.28,-6.4314,3.1924,0.1667,0.0163,0.0353,-1.2977,rough,14.0,1,7.474
300,9.60,-6.3437,2.9340,0.1537,0.0244,0.0547,-1.0619,rough,14.0,1,7.460
310,9.92,-6.1837,2.6881,0.1518,0.0286,0.0142,-0.8410,rough,14.0,1,7.383
320,10.24,-5.9408,2.4536,0.1493,0.0315,-0.0001,-0.6500,rough,14.0,1,7.235
330,10.56,-5.6388,2.2338,0.1501,0.0288,-0.0088,-0.4737,rough,14.0,1,7.041
340,10.88,-5.2936,2.0732,0.1552,0.0231,-0.0186,-0.3090,rough,14.0,1,6.796
350,11.20,-4.9075,1.9578,0.1639,0.0135,-0.0273,-0.1468,rough,14.0,1,6.507
360,11.52,-4.4973,1.9053,0.1744,0.0034,-0.0283,0.0061,rough,14.0,1,6.177
370,11.84,-4.0760,1.9157,0.1857,-0.0046,-0.0273,0.1323,rough,14.0,1,5.814
380,12.16,-3.6507,1.9793,0.1956,-0.0122,-0.0211,0.1882,rough,14.0,1,5.426
390,12.48,-3.2305,2.0665,0.2024,-0.0165,-0.0075,0.2493,rough,14.0,1,5.034
400,12.80,-2.8240,2.1805,0.2087,-0.0197,-0.0095,0.3009,rough,14.0,1,4.643
410,13.12,-2.4214,2.3169,0.2115,-0.0225,-0.0044,0.3790,rough,14.0,1,4.246
420,13.44,-2.0260,2.4834,0.2118,-0.0241,0.0039,0.4508,rough,14.0,1,3.840
430,13.76,-1.6516,2.6838,0.2090,-0.0244,0.0076,0.5492,rough,14.0,1,3.430
440,14.08,-1.2818,2.9149,0.1966,-0.0064,0.0405,0.6307,rough,14.0,1,3.006
450,14.40,-0.9579,3.1774,0.1954,-0.0281,0.0237,0.7241,rough,14.0,1,2.592
460,14.72,-0.6386,3.4594,0.1842,-0.0360,0.0333,0.7538,rough,14.0,1,2.169
470,15.04,-0.3334,3.7609,0.1833,-0.0644,-0.0261,0.7760,rough,14.0,1,1.741
480,15.36,-0.1279,3.8812,0.1935,-0.1279,-0.0438,1.0708,rough,14.0,1,1.518
490,15.68,-0.0884,3.9897,0.1882,-0.1587,0.0574,1.6088,rough,14.0,1,1.409
500,16.00,-0.1055,3.9942,0.1872,-0.1529,0.0529,1.6289,rough,14.0,1,1.416
510,16.32,-0.1215,3.9921,0.1859,-0.1459,0.0527,1.6125,rough,14.0,1,1.428
520,16.64,-0.1329,3.9921,0.1851,-0.1410,0.0511,1.5977,rough,14.0,1,1.435
530,16.96,-0.1395,3.9920,0.1847,-0.1380,0.0494,1.5863,rough,14.0,1,1.440
540,17.28,-0.1439,3.9924,0.1844,-0.1359,0.0483,1.5814,rough,14.0,1,1.442
550,17.60,-0.1465,3.9921,0.1843,-0.1348,0.0477,1.5774,rough,14.0,1,1.444
560,17.92,-0.1483,3.9927,0.1842,-0.1339,0.0473,1.5756,rough,14.0,1,1.445
570,18.24,-0.1493,3.9927,0.1841,-0.1335,0.0472,1.5740,rough,14.0,1,1.446
580,18.56,-0.1500,3.9928,0.1840,-0.1332,0.0471,1.5731,rough,14.0,1,1.446
590,18.88,-0.1504,3.9928,0.1840,-0.1331,0.0471,1.5724,rough,14.0,1,1.446
600,19.20,-0.1506,3.9929,0.1840,-0.1331,0.0471,1.5719,rough,14.0,1,1.446
610,19.52,-0.1506,3.9929,0.1839,-0.1333,0.0472,1.5717,rough,14.0,1,1.446
620,19.84,-0.1507,3.9929,0.1839,-0.1334,0.0473,1.5716,rough,14.0,1,1.446
630,20.16,-0.1507,3.9929,0.1839,-0.1335,0.0473,1.5715,rough,14.0,1,1.446
640,20.48,-0.1507,3.9929,0.1839,-0.1335,0.0474,1.5715,rough,14.0,1,1.446
650,20.80,-0.1507,3.9929,0.1839,-0.1336,0.0474,1.5715,rough,14.0,1,1.446
660,21.12,-0.1506,3.9929,0.1839,-0.1336,0.0475,1.5715,rough,14.0,1,1.446
670,21.44,-0.1506,3.9929,0.1839,-0.1336,0.0475,1.5715,rough,14.0,1,1.446
680,21.76,-0.1506,3.9929,0.1839,-0.1336,0.0475,1.5715,rough,14.0,1,1.446
690,22.08,-0.1506,3.9929,0.1839,-0.1337,0.0476,1.5715,rough,14.0,1,1.446
700,22.40,-0.1506,3.9929,0.1839,-0.1337,0.0476,1.5715,rough,14.0,1,1.446
710,22.72,-0.1506,3.9929,0.1839,-0.1337,0.0476,1.5715,rough,14.0,1,1.446
720,23.04,-0.1506,3.9929,0.1839,-0.1337,0.0476,1.5715,rough,14.0,1,1.446
730,23.36,-0.1506,3.9929,0.1839,-0.1337,0.0476,1.5715,rough,14.0,1,1.446
740,23.68,-0.1506,3.9929,0.1839,-0.1337,0.0477,1.5715,rough,14.0,1,1.446
750,24.00,-0.1505,3.9929,0.1839,-0.1337,0.0477,1.5715,rough,14.0,1,1.446
760,24.32,-0.1505,3.9929,0.1839,-0.1337,0.0477,1.5715,rough,14.0,1,1.446
770,24.64,-0.1505,3.9929,0.1839,-0.1337,0.0477,1.5715,rough,14.0,1,1.446
780,24.96,-0.1505,3.9929,0.1839,-0.1337,0.0477,1.5715,rough,14.0,1,1.446
790,25.28,-0.1505,3.9929,0.1839,-0.1338,0.0477,1.5715,rough,14.0,1,1.446
800,25.60,-0.1505,3.9929,0.1839,-0.1338,0.0477,1.5715,rough,14.0,1,1.446
810,25.92,-0.1505,3.9929,0.1839,-0.1338,0.0477,1.5715,rough,14.0,1,1.446
820,26.24,-0.1505,3.9929,0.1839,-0.1338,0.0477,1.5715,rough,14.0,1,1.446
830,26.56,-0.1505,3.9929,0.1839,-0.1338,0.0477,1.5715,rough,14.0,1,1.446
840,26.88,-0.1505,3.9929,0.1839,-0.1338,0.0477,1.5715,rough,14.0,1,1.446
850,27.20,-0.1504,3.9929,0.1839,-0.1338,0.0477,1.5715,rough,14.0,1,1.446
860,27.52,-0.1504,3.9929,0.1839,-0.1338,0.0477,1.5715,rough,14.0,1,1.446
870,27.84,-0.1504,3.9929,0.1839,-0.1338,0.0477,1.5715,rough,14.0,1,1.446
880,28.16,-0.1504,3.9929,0.1839,-0.1338,0.0477,1.5715,rough,14.0,1,1.446
890,28.48,-0.1504,3.9929,0.1839,-0.1338,0.0477,1.5715,rough,14.0,1,1.446
900,28.80,-0.1504,3.9929,0.1839,-0.1338,0.0477,1.5715,rough,14.0,1,1.446
910,29.12,-0.1504,3.9929,0.1839,-0.1338,0.0477,1.5715,rough,14.0,1,1.446
920,29.44,-0.1504,3.9929,0.1839,-0.1338,0.0477,1.5715,rough,14.0,1,1.446
930,29.76,-0.1504,3.9929,0.1839,-0.1338,0.0477,1.5715,rough,14.0,1,1.446
940,30.08,-0.1504,3.9929,0.1839,-0.1338,0.0477,1.5715,rough,14.0,1,1.446
950,30.40,-0.1503,3.9929,0.1839,-0.1338,0.0477,1.5715,rough,14.0,1,1.446
960,30.72,-0.1503,3.9929,0.1839,-0.1338,0.0477,1.5715,rough,14.0,1,1.446
970,31.04,-0.1503,3.9929,0.1839,-0.1338,0.0477,1.5715,rough,14.0,1,1.446
980,31.36,-0.1503,3.9929,0.1839,-0.1338,0.0477,1.5715,rough,14.0,1,1.446
990,31.68,-0.1503,3.9929,0.1839,-0.1339,0.0477,1.5715,rough,14.0,1,1.446
1000,32.00,-0.1503,3.9929,0.1839,-0.1339,0.0477,1.5715,rough,14.0,1,1.446
1010,32.32,-0.1503,3.9929,0.1839,-0.1339,0.0477,1.5715,rough,14.0,1,1.446
1020,32.64,-0.1503,3.9929,0.1839,-0.1339,0.0477,1.5715,rough,14.0,1,1.446
1030,32.96,-0.1503,3.9929,0.1839,-0.1339,0.0477,1.5715,rough,14.0,1,1.446
1040,33.28,-0.1503,3.9929,0.1839,-0.1339,0.0477,1.5715,rough,14.0,1,1.446
1050,33.60,-0.1502,3.9929,0.1839,-0.1339,0.0477,1.5715,rough,14.0,1,1.446
1060,33.92,-0.1502,3.9929,0.1839,-0.1339,0.0477,1.5715,rough,14.0,1,1.446
1070,34.24,-0.1502,3.9929,0.1839,-0.1339,0.0477,1.5715,rough,14.0,1,1.446
1080,34.56,-0.1502,3.9929,0.1839,-0.1339,0.0477,1.5715,rough,14.0,1,1.446
1090,34.88,-0.1502,3.9929,0.1839,-0.1339,0.0477,1.5715,rough,14.0,1,1.446
1100,35.20,-0.1502,3.9929,0.1839,-0.1339,0.0477,1.5715,rough,14.0,1,1.446
1110,35.52,-0.1502,3.9929,0.1839,-0.1339,0.0477,1.5715,rough,14.0,1,1.446
1120,35.84,-0.1502,3.9929,0.1839,-0.1339,0.0477,1.5715,rough,14.0,1,1.446
1130,36.16,-0.1502,3.9929,0.1839,-0.1339,0.0477,1.5715,rough,14.0,1,1.446
1140,36.48,-0.1502,3.9929,0.1839,-0.1339,0.0477,1.5715,rough,14.0,1,1.446
1150,36.80,-0.1501,3.9929,0.1839,-0.1339,0.0477,1.5715,rough,14.0,1,1.446
1160,37.12,-0.1501,3.9929,0.1839,-0.1339,0.0477,1.5715,rough,14.0,1,1.446
1170,37.44,-0.1501,3.9929,0.1839,-0.1339,0.0477,1.5715,rough,14.0,1,1.446
1180,37.76,-0.1501,3.9929,0.1839,-0.1339,0.0477,1.5715,rough,14.0,1,1.446
1190,38.08,-0.1501,3.9929,0.1839,-0.1339,0.0477,1.5715,rough,14.0,1,1.446
1200,38.40,-0.1501,3.9929,0.1839,-0.1339,0.0477,1.5715,rough,14.0,1,1.446
1210,38.72,-0.1501,3.9929,0.1839,-0.1339,0.0477,1.5715,rough,14.0,1,1.446
1220,39.04,-0.1501,3.9929,0.1839,-0.1339,0.0477,1.5715,rough,14.0,1,1.446
1230,39.36,-0.1501,3.9929,0.1839,-0.1340,0.0477,1.5715,rough,14.0,1,1.446
1240,39.68,-0.1501,3.9929,0.1839,-0.1340,0.0477,1.5715,rough,14.0,1,1.446
1250,40.00,-0.1501,3.9929,0.1839,-0.1340,0.0477,1.5715,rough,14.0,1,1.446
1260,40.32,-0.1500,3.9929,0.1839,-0.1340,0.0477,1.5715,rough,14.0,1,1.446
1270,40.64,-0.1500,3.9929,0.1839,-0.1340,0.0477,1.5715,rough,14.0,1,1.446
1280,40.96,-0.1500,3.9929,0.1839,-0.1340,0.0477,1.5715,rough,14.0,1,1.446
1290,41.28,-0.1500,3.9929,0.1839,-0.1340,0.0477,1.5715,rough,14.0,1,1.446
1300,41.60,-0.1500,3.9929,0.1839,-0.1340,0.0477,1.5715,rough,14.0,1,1.446
1310,41.92,-0.1500,3.9929,0.1839,-0.1340,0.0477,1.5715,rough,14.0,1,1.446
1320,42.24,-0.1500,3.9929,0.1839,-0.1340,0.0477,1.5715,rough,14.0,1,1.446
1330,42.56,-0.1500,3.9929,0.1839,-0.1340,0.0477,1.5715,rough,14.0,1,1.446
1340,42.88,-0.1500,3.9929,0.1839,-0.1340,0.0477,1.5715,rough,14.0,1,1.446
1350,43.20,-0.1500,3.9929,0.1839,-0.1340,0.0477,1.5715,rough,14.0,1,1.446
1360,43.52,-0.1500,3.9929,0.1839,-0.1340,0.0477,1.5715,rough,14.0,1,1.446
1370,43.84,-0.1499,3.9929,0.1839,-0.1340,0.0477,1.5715,rough,14.0,1,1.446
1380,44.16,-0.1499,3.9929,0.1839,-0.1340,0.0477,1.5715,rough,14.0,1,1.446
1390,44.48,-0.1499,3.9929,0.1839,-0.1340,0.0477,1.5715,rough,14.0,1,1.446
1400,44.80,-0.1499,3.9929,0.1839,-0.1340,0.0477,1.5715,rough,14.0,1,1.446
1410,45.12,-0.1499,3.9929,0.1839,-0.1340,0.0477,1.5715,rough,14.0,1,1.446
1420,45.44,-0.1499,3.9929,0.1839,-0.1340,0.0477,1.5715,rough,14.0,1,1.446
1430,45.76,-0.1499,3.9929,0.1839,-0.1340,0.0477,1.5715,rough,14.0,1,1.446
1440,46.08,-0.1499,3.9929,0.1839,-0.1340,0.0477,1.5715,rough,14.0,1,1.446
1450,46.40,-0.1499,3.9929,0.1839,-0.1340,0.0477,1.5715,rough,14.0,1,1.446
1460,46.72,-0.1499,3.9929,0.1839,-0.1340,0.0477,1.5715,rough,14.0,1,1.446
1470,47.04,-0.1498,3.9929,0.1839,-0.1340,0.0477,1.5715,rough,14.0,1,1.446
1480,47.36,-0.1498,3.9929,0.1839,-0.1340,0.0477,1.5715,rough,14.0,1,1.446
1490,47.68,-0.1498,3.9929,0.1839,-0.1341,0.0477,1.5715,rough,14.0,1,1.446
1500,48.00,-0.1498,3.9929,0.1839,-0.1341,0.0477,1.5715,rough,14.0,1,1.446
1510,48.32,-0.1498,3.9929,0.1839,-0.1341,0.0477,1.5715,rough,14.0,1,1.446
1520,48.64,-0.1498,3.9929,0.1839,-0.1341,0.0477,1.5715,rough,14.0,1,1.446
1530,48.96,-0.1498,3.9929,0.1839,-0.1341,0.0477,1.5715,rough,14.0,1,1.446
1540,49.28,-0.1498,3.9929,0.1839,-0.1341,0.0477,1.5715,rough,14.0,1,1.446
1550,49.60,-0.1498,3.9929,0.1839,-0.1341,0.0477,1.5715,rough,14.0,1,1.446
1560,49.92,-0.1498,3.9929,0.1839,-0.1341,0.0477,1.5715,rough,14.0,1,1.446
1570,50.24,-0.1498,3.9929,0.1839,-0.1341,0.0477,1.5715,rough,14.0,1,1.446
1580,50.56,-0.1497,3.9929,0.1839,-0.1341,0.0477,1.5715,rough,14.0,1,1.446
1590,50.88,-0.1497,3.9929,0.1839,-0.1341,0.0477,1.5715,rough,14.0,1,1.446
1600,51.20,-0.1497,3.9929,0.1839,-0.1341,0.0477,1.5715,rough,14.0,1,1.446
1610,51.52,-0.1497,3.9929,0.1839,-0.1341,0.0477,1.5715,rough,14.0,1,1.446
1620,51.84,-0.1497,3.9929,0.1839,-0.1341,0.0477,1.5715,rough,14.0,1,1.446
1630,52.16,-0.1497,3.9929,0.1839,-0.1341,0.0477,1.5715,rough,14.0,1,1.446
1640,52.48,-0.1497,3.9929,0.1839,-0.1341,0.0477,1.5715,rough,14.0,1,1.446
1650,52.80,-0.1497,3.9929,0.1839,-0.1341,0.0477,1.5715,rough,14.0,1,1.446
1660,53.12,-0.1497,3.9929,0.1839,-0.1341,0.0477,1.5715,rough,14.0,1,1.446
1670,53.44,-0.1497,3.9929,0.1839,-0.1341,0.0477,1.5715,rough,14.0,1,1.446
1680,53.76,-0.1497,3.9929,0.1839,-0.1341,0.0477,1.5715,rough,14.0,1,1.446
1690,54.08,-0.1497,3.9929,0.1839,-0.1341,0.0477,1.5715,rough,14.0,1,1.446
1700,54.40,-0.1496,3.9929,0.1839,-0.1341,0.0477,1.5715,rough,14.0,1,1.446
1710,54.72,-0.1496,3.9929,0.1839,-0.1341,0.0477,1.5715,rough,14.0,1,1.446
1720,55.04,-0.1496,3.9929,0.1839,-0.1341,0.0477,1.5715,rough,14.0,1,1.446
1730,55.36,-0.1496,3.9929,0.1839,-0.1341,0.0477,1.5715,rough,14.0,1,1.446
1740,55.68,-0.1496,3.9929,0.1839,-0.1341,0.0477,1.5715,rough,14.0,1,1.446
1750,56.00,-0.1496,3.9929,0.1839,-0.1342,0.0477,1.5715,rough,14.0,1,1.446
1760,56.32,-0.1496,3.9929,0.1839,-0.1342,0.0477,1.5715,rough,14.0,1,1.446
1770,56.64,-0.1496,3.9929,0.1839,-0.1342,0.0477,1.5715,rough,14.0,1,1.446
1780,56.96,-0.1496,3.9929,0.1839,-0.1342,0.0477,1.5715,rough,14.0,1,1.446
1790,57.28,-0.1496,3.9929,0.1839,-0.1342,0.0477,1.5715,rough,14.0,1,1.446
1800,57.60,-0.1496,3.9929,0.1839,-0.1342,0.0477,1.5715,rough,14.0,1,1.446
1810,57.92,-0.1495,3.9929,0.1839,-0.1342,0.0477,1.5715,rough,14.0,1,1.446
1820,58.24,-0.1495,3.9929,0.1839,-0.1342,0.0477,1.5715,rough,14.0,1,1.445
1830,58.56,-0.1495,3.9929,0.1839,-0.1342,0.0477,1.5715,rough,14.0,1,1.445
1840,58.88,-0.1495,3.9929,0.1839,-0.1342,0.0477,1.5715,rough,14.0,1,1.445
1850,59.20,-0.1495,3.9929,0.1839,-0.1342,0.0477,1.5715,rough,14.0,1,1.445
1860,59.52,-0.1495,3.9929,0.1839,-0.1342,0.0477,1.5715,rough,14.0,1,1.445
1870,59.84,-0.1495,3.9929,0.1839,-0.1342,0.0477,1.5715,rough,14.0,1,1.445
1880,60.16,-0.1495,3.9929,0.1839,-0.1342,0.0477,1.5715,rough,14.0,1,1.445
1890,60.48,-0.1495,3.9929,0.1839,-0.1342,0.0477,1.5715,rough,14.0,1,1.445
1900,60.80,-0.1495,3.9929,0.1840,-0.1342,0.0477,1.5715,rough,14.0,1,1.445
1910,61.12,-0.1495,3.9929,0.1840,-0.1342,0.0477,1.5715,rough,14.0,1,1.445
1920,61.44,-0.1494,3.9929,0.1840,-0.1342,0.0477,1.5715,rough,14.0,1,1.445
1930,61.76,-0.1494,3.9929,0.1840,-0.1342,0.0477,1.5715,rough,14.0,1,1.445
1940,62.08,-0.1494,3.9929,0.1840,-0.1342,0.0477,1.5715,rough,14.0,1,1.445
1950,62.40,-0.1494,3.9929,0.1840,-0.1342,0.0477,1.5715,rough,14.0,1,1.445
1960,62.72,-0.1494,3.9929,0.1840,-0.1342,0.0477,1.5715,rough,14.0,1,1.445
1970,63.04,-0.1494,3.9929,0.1840,-0.1342,0.0477,1.5715,rough,14.0,1,1.445
1980,63.36,-0.1494,3.9929,0.1840,-0.1342,0.0477,1.5715,rough,14.0,1,1.445
1990,63.68,-0.1494,3.9929,0.1840,-0.1342,0.0477,1.5715,rough,14.0,1,1.445
2000,64.00,-0.1494,3.9929,0.1840,-0.1342,0.0477,1.5715,rough,14.0,1,1.445
2010,64.32,-0.1494,3.9929,0.1840,-0.1342,0.0477,1.5715,rough,14.0,1,1.445
2020,64.64,-0.1494,3.9929,0.1840,-0.1343,0.0477,1.5715,rough,14.0,1,1.445
2030,64.96,-0.1494,3.9929,0.1840,-0.1343,0.0477,1.5715,rough,14.0,1,1.445
2040,65.28,-0.1493,3.9929,0.1840,-0.1343,0.0477,1.5715,rough,14.0,1,1.445
2050,65.60,-0.1493,3.9929,0.1840,-0.1343,0.0477,1.5715,rough,14.0,1,1.445
2060,65.92,-0.1493,3.9929,0.1840,-0.1343,0.0477,1.5715,rough,14.0,1,1.445
2070,66.24,-0.1493,3.9929,0.1840,-0.1343,0.0477,1.5715,rough,14.0,1,1.445
2080,66.56,-0.1493,3.9929,0.1840,-0.1343,0.0477,1.5715,rough,14.0,1,1.445
2090,66.88,-0.1493,3.9929,0.1840,-0.1343,0.0477,1.5715,rough,14.0,1,1.445
2100,67.20,-0.1493,3.9929,0.1840,-0.1343,0.0477,1.5715,rough,14.0,1,1.445
2110,67.52,-0.1493,3.9929,0.1840,-0.1343,0.0477,1.5715,rough,14.0,1,1.445
2120,67.84,-0.1493,3.9929,0.1840,-0.1343,0.0477,1.5715,rough,14.0,1,1.445
2130,68.16,-0.1493,3.9929,0.1840,-0.1343,0.0477,1.5715,rough,14.0,1,1.445
2140,68.48,-0.1493,3.9929,0.1840,-0.1343,0.0477,1.5715,rough,14.0,1,1.445
2150,68.80,-0.1493,3.9929,0.1840,-0.1343,0.0477,1.5715,rough,14.0,1,1.445
2160,69.12,-0.1492,3.9929,0.1840,-0.1343,0.0477,1.5715,rough,14.0,1,1.445
2170,69.44,-0.1492,3.9929,0.1840,-0.1343,0.0477,1.5715,rough,14.0,1,1.445
2180,69.76,-0.1492,3.9929,0.1840,-0.1343,0.0477,1.5715,rough,14.0,1,1.445
2190,70.08,-0.1492,3.9929,0.1840,-0.1343,0.0477,1.5715,rough,14.0,1,1.445
2200,70.40,-0.1492,3.9929,0.1840,-0.1343,0.0477,1.5715,rough,14.0,1,1.445
2210,70.72,-0.1492,3.9929,0.1840,-0.1343,0.0477,1.5715,rough,14.0,1,1.445
2220,71.04,-0.1492,3.9929,0.1840,-0.1343,0.0477,1.5715,rough,14.0,1,1.445
2230,71.36,-0.1492,3.9929,0.1840,-0.1343,0.0477,1.5715,rough,14.0,1,1.445
2240,71.68,-0.1492,3.9929,0.1840,-0.1343,0.0477,1.5715,rough,14.0,1,1.445
2250,72.00,-0.1492,3.9929,0.1840,-0.1343,0.0477,1.5715,rough,14.0,1,1.445
2260,72.32,-0.1492,3.9929,0.1840,-0.1343,0.0477,1.5715,rough,14.0,1,1.445
2270,72.64,-0.1492,3.9929,0.1840,-0.1343,0.0477,1.5715,rough,14.0,1,1.445
2280,72.96,-0.1491,3.9929,0.1840,-0.1343,0.0477,1.5715,rough,14.0,1,1.445
2290,73.28,-0.1491,3.9929,0.1840,-0.1343,0.0477,1.5715,rough,14.0,1,1.445
2300,73.60,-0.1491,3.9929,0.1840,-0.1344,0.0477,1.5715,rough,14.0,1,1.445
2310,73.92,-0.1491,3.9929,0.1840,-0.1344,0.0477,1.5715,rough,14.0,1,1.445
2320,74.24,-0.1491,3.9929,0.1840,-0.1344,0.0477,1.5715,rough,14.0,1,1.445
2330,74.56,-0.1491,3.9929,0.1840,-0.1344,0.0477,1.5715,rough,14.0,1,1.445
2340,74.88,-0.1491,3.9929,0.1840,-0.1344,0.0477,1.5715,rough,14.0,1,1.445
2350,75.20,-0.1491,3.9929,0.1840,-0.1344,0.0477,1.5715,rough,14.0,1,1.445
2360,75.52,-0.1491,3.9929,0.1840,-0.1344,0.0477,1.5715,rough,14.0,1,1.445
2370,75.84,-0.1491,3.9929,0.1840,-0.1344,0.0477,1.5715,rough,14.0,1,1.445
2380,76.16,-0.1491,3.9929,0.1840,-0.1344,0.0477,1.5715,rough,14.0,1,1.445
2390,76.48,-0.1491,3.9929,0.1840,-0.1344,0.0477,1.5715,rough,14.0,1,1.445
2400,76.80,-0.1490,3.9929,0.1840,-0.1344,0.0477,1.5715,rough,14.0,1,1.445
2410,77.12,-0.1490,3.9929,0.1840,-0.1344,0.0477,1.5715,rough,14.0,1,1.445
2420,77.44,-0.1490,3.9929,0.1840,-0.1344,0.0477,1.5715,rough,14.0,1,1.445
2430,77.76,-0.1490,3.9929,0.1840,-0.1344,0.0477,1.5715,rough,14.0,1,1.445
2440,78.08,-0.1490,3.9929,0.1840,-0.1344,0.0477,1.5715,rough,14.0,1,1.445
2450,78.40,-0.1490,3.9929,0.1840,-0.1344,0.0477,1.5715,rough,14.0,1,1.445
2460,78.72,-0.1490,3.9929,0.1840,-0.1344,0.0477,1.5715,rough,14.0,1,1.445
2470,79.04,-0.1490,3.9929,0.1840,-0.1344,0.0477,1.5715,rough,14.0,1,1.445
2480,79.36,-0.1490,3.9929,0.1840,-0.1344,0.0477,1.5715,rough,14.0,1,1.445
2490,79.68,-0.1490,3.9929,0.1840,-0.1344,0.0477,1.5715,rough,14.0,1,1.445
2500,80.00,-0.1490,3.9929,0.1840,-0.1344,0.0477,1.5715,rough,14.0,1,1.445
2510,80.32,-0.1490,3.9929,0.1840,-0.1344,0.0477,1.5715,rough,14.0,1,1.445
2520,80.64,-0.1490,3.9929,0.1840,-0.1344,0.0477,1.5715,rough,14.0,1,1.445
2530,80.96,-0.1489,3.9929,0.1840,-0.1344,0.0477,1.5715,rough,14.0,1,1.445
2540,81.28,-0.1489,3.9929,0.1840,-0.1344,0.0477,1.5715,rough,14.0,1,1.445
2550,81.60,-0.1489,3.9929,0.1840,-0.1344,0.0477,1.5715,rough,14.0,1,1.445
2560,81.92,-0.1489,3.9929,0.1840,-0.1344,0.0477,1.5715,rough,14.0,1,1.445
2570,82.24,-0.1489,3.9929,0.1840,-0.1344,0.0477,1.5715,rough,14.0,1,1.445
2580,82.56,-0.1489,3.9929,0.1840,-0.1344,0.0477,1.5715,rough,14.0,1,1.445
2590,82.88,-0.1489,3.9929,0.1840,-0.1345,0.0477,1.5715,rough,14.0,1,1.445
2600,83.20,-0.1489,3.9929,0.1840,-0.1345,0.0477,1.5715,rough,14.0,1,1.445
2610,83.52,-0.1489,3.9929,0.1840,-0.1345,0.0477,1.5715,rough,14.0,1,1.445
2620,83.84,-0.1489,3.9929,0.1840,-0.1345,0.0477,1.5715,rough,14.0,1,1.445
2630,84.16,-0.1489,3.9929,0.1840,-0.1345,0.0477,1.5715,rough,14.0,1,1.445
2640,84.48,-0.1489,3.9929,0.1840,-0.1345,0.0477,1.5715,rough,14.0,1,1.445
2650,84.80,-0.1489,3.9929,0.1840,-0.1345,0.0477,1.5715,rough,14.0,1,1.445
2660,85.12,-0.1488,3.9929,0.1840,-0.1345,0.0477,1.5715,rough,14.0,1,1.445
2670,85.44,-0.1488,3.9929,0.1840,-0.1345,0.0477,1.5715,rough,14.0,1,1.445
2680,85.76,-0.1488,3.9929,0.1840,-0.1345,0.0477,1.5715,rough,14.0,1,1.445
2690,86.08,-0.1488,3.9929,0.1840,-0.1345,0.0477,1.5715,rough,14.0,1,1.445
2700,86.40,-0.1488,3.9929,0.1840,-0.1345,0.0477,1.5715,rough,14.0,1,1.445
2710,86.72,-0.1488,3.9929,0.1840,-0.1345,0.0477,1.5715,rough,14.0,1,1.445
2720,87.04,-0.1488,3.9929,0.1840,-0.1345,0.0477,1.5715,rough,14.0,1,1.445
2730,87.36,-0.1488,3.9929,0.1840,-0.1345,0.0477,1.5715,rough,14.0,1,1.445
2740,87.68,-0.1488,3.9929,0.1840,-0.1345,0.0477,1.5715,rough,14.0,1,1.445
2750,88.00,-0.1488,3.9929,0.1840,-0.1345,0.0477,1.5715,rough,14.0,1,1.445
2760,88.32,-0.1488,3.9929,0.1840,-0.1345,0.0477,1.5715,rough,14.0,1,1.445
2770,88.64,-0.1488,3.9929,0.1840,-0.1345,0.0477,1.5715,rough,14.0,1,1.445
2780,88.96,-0.1488,3.9929,0.1840,-0.1345,0.0477,1.5715,rough,14.0,1,1.445
2790,89.28,-0.1487,3.9929,0.1840,-0.1345,0.0477,1.5715,rough,14.0,1,1.445
2800,89.60,-0.1487,3.9929,0.1840,-0.1345,0.0477,1.5715,rough,14.0,1,1.445
2810,89.92,-0.1487,3.9929,0.1840,-0.1345,0.0477,1.5715,rough,14.0,1,1.445
2820,90.24,-0.1487,3.9929,0.1840,-0.1345,0.0477,1.5715,rough,14.0,1,1.445
2830,90.56,-0.1487,3.9929,0.1840,-0.1345,0.0477,1.5715,rough,14.0,1,1.445
2840,90.88,-0.1487,3.9929,0.1840,-0.1345,0.0477,1.5715,rough,14.0,1,1.445
2850,91.20,-0.1487,3.9929,0.1840,-0.1345,0.0477,1.5715,rough,14.0,1,1.445
2860,91.52,-0.1487,3.9929,0.1840,-0.1345,0.0477,1.5715,rough,14.0,1,1.445
2870,91.84,-0.1487,3.9929,0.1840,-0.1345,0.0477,1.5715,rough,14.0,1,1.445
2880,92.16,-0.1487,3.9929,0.1840,-0.1345,0.0477,1.5715,rough,14.0,1,1.445
2890,92.48,-0.1487,3.9929,0.1840,-0.1345,0.0477,1.5715,rough,14.0,1,1.445
2900,92.80,-0.1487,3.9929,0.1840,-0.1346,0.0477,1.5715,rough,14.0,1,1.445
2910,93.12,-0.1487,3.9929,0.1840,-0.1346,0.0477,1.5715,rough,14.0,1,1.445
2920,93.44,-0.1486,3.9929,0.1840,-0.1346,0.0477,1.5715,rough,14.0,1,1.445
2930,93.76,-0.1486,3.9929,0.1840,-0.1346,0.0477,1.5715,rough,14.0,1,1.445
2940,94.08,-0.1486,3.9929,0.1840,-0.1346,0.0477,1.5715,rough,14.0,1,1.445
2950,94.40,-0.1486,3.9929,0.1840,-0.1346,0.0477,1.5715,rough,14.0,1,1.445
2960,94.72,-0.1486,3.9929,0.1840,-0.1346,0.0477,1.5715,rough,14.0,1,1.445
2970,95.04,-0.1486,3.9929,0.1840,-0.1346,0.0477,1.5715,rough,14.0,1,1.445
2980,95.36,-0.1486,3.9929,0.1840,-0.1346,0.0477,1.5715,rough,14.0,1,1.445
2990,95.68,-0.1486,3.9929,0.1840,-0.1346,0.0477,1.5715,rough,14.0,1,1.445
3000,96.00,-0.1486,3.9929,0.1840,-0.1346,0.0477,1.5715,rough,14.0,1,1.445
3010,96.32,-0.1486,3.9929,0.1840,-0.1346,0.0477,1.5715,rough,14.0,1,1.445
3020,96.64,-0.1486,3.9929,0.1840,-0.1346,0.0477,1.5715,rough,14.0,1,1.445
3030,96.96,-0.1486,3.9929,0.1840,-0.1346,0.0477,1.5715,rough,14.0,1,1.445
3040,97.28,-0.1486,3.9929,0.1840,-0.1346,0.0477,1.5715,rough,14.0,1,1.445
3050,97.60,-0.1485,3.9929,0.1840,-0.1346,0.0477,1.5715,rough,14.0,1,1.445
3060,97.92,-0.1485,3.9929,0.1840,-0.1346,0.0477,1.5715,rough,14.0,1,1.445
3070,98.24,-0.1485,3.9929,0.1840,-0.1346,0.0477,1.5715,rough,14.0,1,1.445
3080,98.56,-0.1485,3.9929,0.1840,-0.1346,0.0477,1.5715,rough,14.0,1,1.445
3090,98.88,-0.1485,3.9929,0.1840,-0.1346,0.0477,1.5715,rough,14.0,1,1.445
3100,99.20,-0.1485,3.9929,0.1840,-0.1346,0.0477,1.5715,rough,14.0,1,1.445
3110,99.52,-0.1485,3.9929,0.1840,-0.1346,0.0477,1.5715,rough,14.0,1,1.445
3120,99.84,-0.1485,3.9929,0.1840,-0.1346,0.0477,1.5715,rough,14.0,1,1.445
3130,100.16,-0.1485,3.9929,0.1840,-0.1346,0.0477,1.5715,rough,14.0,1,1.445
3140,100.48,-0.1485,3.9929,0.1840,-0.1346,0.0477,1.5715,rough,14.0,1,1.445
3150,100.80,-0.1485,3.9929,0.1840,-0.1346,0.0477,1.5715,rough,14.0,1,1.445
3160,101.12,-0.1485,3.9929,0.1840,-0.1346,0.0477,1.5715,rough,14.0,1,1.445
3170,101.44,-0.1485,3.9929,0.1840,-0.1346,0.0477,1.5715,rough,14.0,1,1.445
3180,101.76,-0.1485,3.9929,0.1840,-0.1346,0.0477,1.5715,rough,14.0,1,1.445
3190,102.08,-0.1484,3.9929,0.1840,-0.1346,0.0477,1.5715,rough,14.0,1,1.445
3200,102.40,-0.1484,3.9929,0.1840,-0.1346,0.0477,1.5715,rough,14.0,1,1.445
3210,102.72,-0.1484,3.9929,0.1840,-0.1347,0.0477,1.5715,rough,14.0,1,1.445
3220,103.04,-0.1484,3.9929,0.1840,-0.1347,0.0477,1.5715,rough,14.0,1,1.445
3230,103.36,-0.1484,3.9929,0.1840,-0.1347,0.0477,1.5715,rough,14.0,1,1.445
3240,103.68,-0.1484,3.9929,0.1840,-0.1347,0.0477,1.5715,rough,14.0,1,1.445
3250,104.00,-0.1484,3.9929,0.1840,-0.1347,0.0477,1.5715,rough,14.0,1,1.445
3260,104.32,-0.1484,3.9929,0.1840,-0.1347,0.0477,1.5715,rough,14.0,1,1.445
3270,104.64,-0.1484,3.9929,0.1840,-0.1347,0.0477,1.5715,rough,14.0,1,1.445
3280,104.96,-0.1484,3.9929,0.1840,-0.1347,0.0477,1.5715,rough,14.0,1,1.445
3290,105.28,-0.1484,3.9929,0.1840,-0.1347,0.0477,1.5715,rough,14.0,1,1.445
3300,105.60,-0.1484,3.9929,0.1840,-0.1347,0.0477,1.5715,rough,14.0,1,1.445
3310,105.92,-0.1484,3.9929,0.1840,-0.1347,0.0477,1.5715,rough,14.0,1,1.445
3320,106.24,-0.1484,3.9929,0.1840,-0.1347,0.0477,1.5715,rough,14.0,1,1.445
3330,106.56,-0.1483,3.9929,0.1840,-0.1347,0.0477,1.5715,rough,14.0,1,1.445
3340,106.88,-0.1483,3.9929,0.1840,-0.1347,0.0477,1.5715,rough,14.0,1,1.445
3350,107.20,-0.1483,3.9929,0.1840,-0.1347,0.0477,1.5715,rough,14.0,1,1.445
3360,107.52,-0.1483,3.9929,0.1840,-0.1347,0.0477,1.5715,rough,14.0,1,1.445
3370,107.84,-0.1483,3.9929,0.1840,-0.1347,0.0477,1.5715,rough,14.0,1,1.445
3380,108.16,-0.1483,3.9929,0.1840,-0.1347,0.0477,1.5715,rough,14.0,1,1.445
3390,108.48,-0.1483,3.9929,0.1840,-0.1347,0.0477,1.5715,rough,14.0,1,1.445
3400,108.80,-0.1483,3.9929,0.1840,-0.1347,0.0477,1.5715,rough,14.0,1,1.445
3410,109.12,-0.1483,3.9929,0.1840,-0.1347,0.0477,1.5715,rough,14.0,1,1.445
3420,109.44,-0.1483,3.9929,0.1840,-0.1347,0.0477,1.5715,rough,14.0,1,1.445
3430,109.76,-0.1483,3.9929,0.1840,-0.1347,0.0477,1.5715,rough,14.0,1,1.445
3440,110.08,-0.1483,3.9929,0.1840,-0.1347,0.0477,1.5715,rough,14.0,1,1.445
3450,110.40,-0.1483,3.9929,0.1840,-0.1347,0.0477,1.5715,rough,14.0,1,1.445
3460,110.72,-0.1483,3.9929,0.1840,-0.1347,0.0477,1.5715,rough,14.0,1,1.445
3470,111.04,-0.1482,3.9929,0.1840,-0.1347,0.0477,1.5715,rough,14.0,1,1.445
3480,111.36,-0.1482,3.9929,0.1840,-0.1347,0.0477,1.5715,rough,14.0,1,1.445
3490,111.68,-0.1482,3.9929,0.1840,-0.1347,0.0477,1.5715,rough,14.0,1,1.445
3500,112.00,-0.1482,3.9929,0.1840,-0.1347,0.0477,1.5715,rough,14.0,1,1.445
3510,112.32,-0.1482,3.9929,0.1840,-0.1347,0.0477,1.5715,rough,14.0,1,1.445
3520,112.64,-0.1482,3.9929,0.1841,-0.1347,0.0477,1.5715,rough,14.0,1,1.445
3530,112.96,-0.1482,3.9929,0.1841,-0.1347,0.0477,1.5715,rough,14.0,1,1.445
3540,113.28,-0.1482,3.9929,0.1841,-0.1347,0.0477,1.5715,rough,14.0,1,1.445
3550,113.60,-0.1482,3.9929,0.1841,-0.1348,0.0477,1.5715,rough,14.0,1,1.445
3560,113.92,-0.1482,3.9929,0.1841,-0.1348,0.0477,1.5715,rough,14.0,1,1.445
3570,114.24,-0.1482,3.9929,0.1841,-0.1348,0.0477,1.5715,rough,14.0,1,1.445
3580,114.56,-0.1482,3.9929,0.1841,-0.1348,0.0477,1.5715,rough,14.0,1,1.445
3590,114.88,-0.1482,3.9929,0.1841,-0.1348,0.0477,1.5715,rough,14.0,1,1.445
3600,115.20,-0.1482,3.9929,0.1841,-0.1348,0.0477,1.5715,rough,14.0,1,1.445
3610,115.52,-0.1482,3.9929,0.1841,-0.1348,0.0477,1.5715,rough,14.0,1,1.445
3620,115.84,-0.1481,3.9929,0.1841,-0.1348,0.0477,1.5715,rough,14.0,1,1.445
3630,116.16,-0.1481,3.9929,0.1841,-0.1348,0.0477,1.5715,rough,14.0,1,1.445
3640,116.48,-0.1481,3.9929,0.1841,-0.1348,0.0477,1.5715,rough,14.0,1,1.445
3650,116.80,-0.1481,3.9929,0.1841,-0.1348,0.0477,1.5715,rough,14.0,1,1.445
3660,117.12,-0.1481,3.9929,0.1841,-0.1348,0.0477,1.5715,rough,14.0,1,1.445
3670,117.44,-0.1481,3.9929,0.1841,-0.1348,0.0477,1.5715,rough,14.0,1,1.445
3680,117.76,-0.1481,3.9929,0.1841,-0.1348,0.0477,1.5715,rough,14.0,1,1.445
3690,118.08,-0.1481,3.9929,0.1841,-0.1348,0.0477,1.5715,rough,14.0,1,1.445
3700,118.40,-0.1481,3.9929,0.1841,-0.1348,0.0477,1.5715,rough,14.0,1,1.445
3710,118.72,-0.1481,3.9929,0.1841,-0.1348,0.0477,1.5715,rough,14.0,1,1.445
3720,119.04,-0.1481,3.9929,0.1841,-0.1348,0.0477,1.5715,rough,14.0,1,1.445
3730,119.36,-0.1481,3.9929,0.1841,-0.1348,0.0477,1.5715,rough,14.0,1,1.445
3740,119.68,-0.1481,3.9929,0.1841,-0.1348,0.0477,1.5715,rough,14.0,1,1.445
3750,120.00,-0.1481,3.9929,0.1841,-0.1348,0.0477,1.5715,rough,14.0,1,1.445
3760,120.32,-0.1480,3.9929,0.1841,-0.1348,0.0477,1.5715,rough,14.0,1,1.445
3770,120.64,-0.1480,3.9929,0.1841,-0.1348,0.0477,1.5715,rough,14.0,1,1.445
3780,120.96,-0.1480,3.9929,0.1841,-0.1348,0.0477,1.5715,rough,14.0,1,1.445
3790,121.28,-0.1480,3.9929,0.1841,-0.1348,0.0477,1.5715,rough,14.0,1,1.445
3800,121.60,-0.1480,3.9929,0.1841,-0.1348,0.0477,1.5715,rough,14.0,1,1.444
3810,121.92,-0.1480,3.9929,0.1841,-0.1348,0.0477,1.5715,rough,14.0,1,1.444
3820,122.24,-0.1480,3.9929,0.1841,-0.1348,0.0477,1.5715,rough,14.0,1,1.444
3830,122.56,-0.1480,3.9929,0.1841,-0.1348,0.0477,1.5715,rough,14.0,1,1.444
3840,122.88,-0.1480,3.9929,0.1841,-0.1348,0.0477,1.5715,rough,14.0,1,1.444
3850,123.20,-0.1480,3.9929,0.1841,-0.1348,0.0477,1.5715,rough,14.0,1,1.444
3860,123.52,-0.1480,3.9929,0.1841,-0.1348,0.0477,1.5715,rough,14.0,1,1.444
3870,123.84,-0.1480,3.9929,0.1841,-0.1348,0.0477,1.5715,rough,14.0,1,1.444
3880,124.16,-0.1480,3.9929,0.1841,-0.1348,0.0477,1.5715,rough,14.0,1,1.444
3890,124.48,-0.1480,3.9929,0.1841,-0.1348,0.0477,1.5715,rough,14.0,1,1.444
3900,124.80,-0.1480,3.9929,0.1841,-0.1349,0.0477,1.5715,rough,14.0,1,1.444
3910,125.12,-0.1479,3.9929,0.1841,-0.1349,0.0477,1.5715,rough,14.0,1,1.444
3920,125.44,-0.1479,3.9929,0.1841,-0.1349,0.0477,1.5715,rough,14.0,1,1.444
3930,125.76,-0.1479,3.9929,0.1841,-0.1349,0.0477,1.5715,rough,14.0,1,1.444
3940,126.08,-0.1479,3.9929,0.1841,-0.1349,0.0477,1.5715,rough,14.0,1,1.444
3950,126.40,-0.1479,3.9929,0.1841,-0.1349,0.0477,1.5715,rough,14.0,1,1.444
3960,126.72,-0.1479,3.9929,0.1841,-0.1349,0.0477,1.5715,rough,14.0,1,1.444
3970,127.04,-0.1479,3.9929,0.1841,-0.1349,0.0477,1.5715,rough,14.0,1,1.444
3980,127.36,-0.1479,3.9929,0.1841,-0.1349,0.0477,1.5715,rough,14.0,1,1.444
3990,127.68,-0.1479,3.9929,0.1841,-0.1349,0.0477,1.5715,rough,14.0,1,1.444
4000,128.00,-0.1479,3.9929,0.1841,-0.1349,0.0477,1.5715,rough,14.0,1,1.444
4010,128.32,-0.1479,3.9929,0.1841,-0.1349,0.0477,1.5715,rough,14.0,1,1.444
4020,128.64,-0.1479,3.9929,0.1841,-0.1349,0.0477,1.5715,rough,14.0,1,1.444
4030,128.96,-0.1479,3.9929,0.1841,-0.1349,0.0477,1.5715,rough,14.0,1,1.444
4040,129.28,-0.1479,3.9929,0.1841,-0.1349,0.0477,1.5715,rough,14.0,1,1.444
4050,129.60,-0.1479,3.9929,0.1841,-0.1349,0.0477,1.5715,rough,14.0,1,1.444
4060,129.92,-0.1479,3.9929,0.1841,-0.1349,0.0477,1.5715,rough,14.0,1,1.444
4070,130.24,-0.1478,3.9929,0.1841,-0.1349,0.0477,1.5715,rough,14.0,1,1.444
4080,130.56,-0.1478,3.9929,0.1841,-0.1349,0.0477,1.5715,rough,14.0,1,1.444
4090,130.88,-0.1478,3.9929,0.1841,-0.1349,0.0477,1.5715,rough,14.0,1,1.444
4100,131.20,-0.1478,3.9929,0.1841,-0.1349,0.0477,1.5715,rough,14.0,1,1.444
4110,131.52,-0.1478,3.9929,0.1841,-0.1349,0.0477,1.5715,rough,14.0,1,1.444
4120,131.84,-0.1478,3.9929,0.1841,-0.1349,0.0477,1.5715,rough,14.0,1,1.444
4130,132.16,-0.1478,3.9929,0.1841,-0.1349,0.0477,1.5715,rough,14.0,1,1.444
4140,132.48,-0.1478,3.9929,0.1841,-0.1349,0.0477,1.5715,rough,14.0,1,1.444
4150,132.80,-0.1478,3.9929,0.1841,-0.1349,0.0477,1.5715,rough,14.0,1,1.444
4160,133.12,-0.1478,3.9929,0.1841,-0.1349,0.0477,1.5715,rough,14.0,1,1.444
4170,133.44,-0.1478,3.9929,0.1841,-0.1349,0.0477,1.5715,rough,14.0,1,1.444
4180,133.76,-0.1478,3.9929,0.1841,-0.1349,0.0477,1.5715,rough,14.0,1,1.444
4190,134.08,-0.1478,3.9929,0.1841,-0.1349,0.0477,1.5715,rough,14.0,1,1.444
4200,134.40,-0.1478,3.9929,0.1841,-0.1349,0.0477,1.5715,rough,14.0,1,1.444
4210,134.72,-0.1478,3.9929,0.1841,-0.1349,0.0477,1.5715,rough,14.0,1,1.444
4220,135.04,-0.1477,3.9929,0.1841,-0.1349,0.0477,1.5715,rough,14.0,1,1.444
4230,135.36,-0.1477,3.9929,0.1841,-0.1349,0.0477,1.5715,rough,14.0,1,1.444
4240,135.68,-0.1477,3.9929,0.1841,-0.1349,0.0477,1.5715,rough,14.0,1,1.444
4250,136.00,-0.1477,3.9929,0.1841,-0.1349,0.0477,1.5715,rough,14.0,1,1.444
4260,136.32,-0.1477,3.9929,0.1841,-0.1350,0.0477,1.5715,rough,14.0,1,1.444
4270,136.64,-0.1477,3.9929,0.1841,-0.1350,0.0477,1.5715,rough,14.0,1,1.444
4280,136.96,-0.1477,3.9929,0.1841,-0.1350,0.0477,1.5715,rough,14.0,1,1.444
4290,137.28,-0.1477,3.9929,0.1841,-0.1350,0.0477,1.5715,rough,14.0,1,1.444
4300,137.60,-0.1477,3.9929,0.1841,-0.1350,0.0477,1.5715,rough,14.0,1,1.444
4310,137.92,-0.1477,3.9929,0.1841,-0.1350,0.0477,1.5715,rough,14.0,1,1.444
4320,138.24,-0.1477,3.9929,0.1841,-0.1350,0.0477,1.5715,rough,14.0,1,1.444
4330,138.56,-0.1477,3.9929,0.1841,-0.1350,0.0477,1.5715,rough,14.0,1,1.444
4340,138.88,-0.1477,3.9929,0.1841,-0.1350,0.0477,1.5715,rough,14.0,1,1.444
4350,139.20,-0.1477,3.9929,0.1841,-0.1350,0.0477,1.5715,rough,14.0,1,1.444
4360,139.52,-0.1477,3.9929,0.1841,-0.1350,0.0477,1.5715,rough,14.0,1,1.444
4370,139.84,-0.1477,3.9929,0.1841,-0.1350,0.0477,1.5715,rough,14.0,1,1.444
4380,140.16,-0.1476,3.9929,0.1841,-0.1350,0.0477,1.5715,rough,14.0,1,1.444
4390,140.48,-0.1476,3.9929,0.1841,-0.1350,0.0477,1.5715,rough,14.0,1,1.444
4400,140.80,-0.1476,3.9929,0.1841,-0.1350,0.0477,1.5715,rough,14.0,1,1.444
4410,141.12,-0.1476,3.9929,0.1841,-0.1350,0.0477,1.5715,rough,14.0,1,1.444
4420,141.44,-0.1476,3.9929,0.1841,-0.1350,0.0477,1.5715,rough,14.0,1,1.444
4430,141.76,-0.1476,3.9929,0.1841,-0.1350,0.0477,1.5715,rough,14.0,1,1.444
4440,142.08,-0.1476,3.9929,0.1841,-0.1350,0.0477,1.5715,rough,14.0,1,1.444
4450,142.40,-0.1476,3.9929,0.1841,-0.1350,0.0477,1.5715,rough,14.0,1,1.444
4460,142.72,-0.1476,3.9929,0.1841,-0.1350,0.0477,1.5715,rough,14.0,1,1.444
4470,143.04,-0.1476,3.9929,0.1841,-0.1350,0.0477,1.5715,rough,14.0,1,1.444
4480,143.36,-0.1476,3.9929,0.1841,-0.1350,0.0477,1.5715,rough,14.0,1,1.444
4490,143.68,-0.1476,3.9929,0.1841,-0.1350,0.0477,1.5715,rough,14.0,1,1.444
4500,144.00,-0.1476,3.9929,0.1841,-0.1350,0.0477,1.5715,rough,14.0,1,1.444
4510,144.32,-0.1476,3.9929,0.1841,-0.1350,0.0477,1.5715,rough,14.0,1,1.444
4520,144.64,-0.1476,3.9929,0.1841,-0.1350,0.0477,1.5715,rough,14.0,1,1.444
4530,144.96,-0.1476,3.9929,0.1841,-0.1350,0.0477,1.5715,rough,14.0,1,1.444
4540,145.28,-0.1476,3.9929,0.1841,-0.1350,0.0477,1.5715,rough,14.0,1,1.444
4550,145.60,-0.1475,3.9929,0.1841,-0.1350,0.0477,1.5715,rough,14.0,1,1.444
4560,145.92,-0.1475,3.9929,0.1841,-0.1350,0.0477,1.5715,rough,14.0,1,1.444
4570,146.24,-0.1475,3.9929,0.1841,-0.1350,0.0477,1.5715,rough,14.0,1,1.444
4580,146.56,-0.1475,3.9929,0.1841,-0.1350,0.0477,1.5715,rough,14.0,1,1.444
4590,146.88,-0.1475,3.9929,0.1841,-0.1350,0.0477,1.5715,rough,14.0,1,1.444
4600,147.20,-0.1475,3.9929,0.1841,-0.1350,0.0477,1.5715,rough,14.0,1,1.444
4610,147.52,-0.1475,3.9929,0.1841,-0.1350,0.0476,1.5715,rough,14.0,1,1.444
4620,147.84,-0.1475,3.9929,0.1841,-0.1350,0.0477,1.5715,rough,14.0,1,1.444
4630,148.16,-0.1475,3.9929,0.1841,-0.1350,0.0477,1.5715,rough,14.0,1,1.444
4640,148.48,-0.1475,3.9929,0.1841,-0.1350,0.0477,1.5715,rough,14.0,1,1.444
4650,148.80,-0.1475,3.9929,0.1841,-0.1351,0.0477,1.5715,rough,14.0,1,1.444
4660,149.12,-0.1475,3.9929,0.1841,-0.1351,0.0477,1.5715,rough,14.0,1,1.444
4670,149.44,-0.1475,3.9929,0.1841,-0.1351,0.0477,1.5715,rough,14.0,1,1.444
4680,149.76,-0.1475,3.9929,0.1841,-0.1351,0.0477,1.5715,rough,14.0,1,1.444
4690,150.08,-0.1475,3.9929,0.1841,-0.1351,0.0477,1.5715,rough,14.0,1,1.444
4700,150.40,-0.1475,3.9929,0.1841,-0.1351,0.0477,1.5715,rough,14.0,1,1.444
4710,150.72,-0.1474,3.9929,0.1841,-0.1351,0.0477,1.5715,rough,14.0,1,1.444
4720,151.04,-0.1474,3.9929,0.1841,-0.1351,0.0477,1.5715,rough,14.0,1,1.444
4730,151.36,-0.1474,3.9929,0.1841,-0.1351,0.0477,1.5715,rough,14.0,1,1.444
4740,151.68,-0.1474,3.9929,0.1841,-0.1351,0.0477,1.5715,rough,14.0,1,1.444
4750,152.00,-0.1474,3.9929,0.1841,-0.1351,0.0477,1.5715,rough,14.0,1,1.444
4760,152.32,-0.1474,3.9929,0.1841,-0.1351,0.0476,1.5715,rough,14.0,1,1.444
4770,152.64,-0.1474,3.9929,0.1841,-0.1351,0.0477,1.5715,rough,14.0,1,1.444
4780,152.96,-0.1474,3.9929,0.1841,-0.1351,0.0476,1.5715,rough,14.0,1,1.444
4790,153.28,-0.1474,3.9929,0.1841,-0.1351,0.0476,1.5715,rough,14.0,1,1.444
4800,153.60,-0.1474,3.9929,0.1841,-0.1351,0.0476,1.5715,rough,14.0,1,1.444
4810,153.92,-0.1474,3.9929,0.1841,-0.1351,0.0476,1.5715,rough,14.0,1,1.444
4820,154.24,-0.1474,3.9929,0.1841,-0.1351,0.0476,1.5715,rough,14.0,1,1.444
4830,154.56,-0.1474,3.9929,0.1841,-0.1351,0.0476,1.5715,rough,14.0,1,1.444
4840,154.88,-0.1474,3.9929,0.1841,-0.1351,0.0476,1.5715,rough,14.0,1,1.444
4850,155.20,-0.1474,3.9929,0.1841,-0.1351,0.0476,1.5715,rough,14.0,1,1.444
4860,155.52,-0.1474,3.9929,0.1841,-0.1351,0.0476,1.5715,rough,14.0,1,1.444
4870,155.84,-0.1474,3.9929,0.1841,-0.1351,0.0476,1.5715,rough,14.0,1,1.444
4880,156.16,-0.1474,3.9929,0.1841,-0.1351,0.0476,1.5715,rough,14.0,1,1.444
4890,156.48,-0.1473,3.9929,0.1841,-0.1351,0.0476,1.5715,rough,14.0,1,1.444
4900,156.80,-0.1473,3.9929,0.1841,-0.1351,0.0476,1.5715,rough,14.0,1,1.444
4910,157.12,-0.1473,3.9929,0.1841,-0.1351,0.0476,1.5715,rough,14.0,1,1.444
4920,157.44,-0.1473,3.9929,0.1841,-0.1351,0.0476,1.5715,rough,14.0,1,1.444
4930,157.76,-0.1473,3.9929,0.1841,-0.1351,0.0476,1.5715,rough,14.0,1,1.444
4940,158.08,-0.1473,3.9929,0.1841,-0.1351,0.0476,1.5715,rough,14.0,1,1.444
4950,158.40,-0.1473,3.9929,0.1841,-0.1351,0.0476,1.5715,rough,14.0,1,1.444
4960,158.72,-0.1473,3.9929,0.1841,-0.1351,0.0476,1.5715,rough,14.0,1,1.444
4970,159.04,-0.1473,3.9929,0.1841,-0.1351,0.0476,1.5715,rough,14.0,1,1.444
4980,159.36,-0.1473,3.9929,0.1841,-0.1351,0.0476,1.5715,rough,14.0,1,1.444
4990,159.68,-0.1473,3.9929,0.1841,-0.1351,0.0476,1.5715,rough,14.0,1,1.444
5000,160.00,-0.1473,3.9929,0.1841,-0.1351,0.0476,1.5715,rough,14.0,1,1.444
5010,160.32,-0.1473,3.9929,0.1841,-0.1351,0.0476,1.5715,rough,14.0,1,1.444
5020,160.64,-0.1473,3.9929,0.1841,-0.1351,0.0476,1.5715,rough,14.0,1,1.444
5030,160.96,-0.1473,3.9929,0.1841,-0.1351,0.0476,1.5715,rough,14.0,1,1.444
5040,161.28,-0.1473,3.9929,0.1841,-0.1351,0.0476,1.5715,rough,14.0,1,1.444
5050,161.60,-0.1473,3.9929,0.1841,-0.1352,0.0476,1.5715,rough,14.0,1,1.444
5060,161.92,-0.1472,3.9929,0.1841,-0.1352,0.0476,1.5715,rough,14.0,1,1.444
5070,162.24,-0.1472,3.9929,0.1841,-0.1352,0.0476,1.5715,rough,14.0,1,1.444
5080,162.56,-0.1472,3.9929,0.1841,-0.1352,0.0476,1.5715,rough,14.0,1,1.444
5090,162.88,-0.1472,3.9929,0.1841,-0.1352,0.0476,1.5715,rough,14.0,1,1.444
5100,163.20,-0.1472,3.9929,0.1841,-0.1352,0.0476,1.5715,rough,14.0,1,1.444
5110,163.52,-0.1472,3.9929,0.1841,-0.1352,0.0476,1.5715,rough,14.0,1,1.444
5120,163.84,-0.1472,3.9929,0.1841,-0.1352,0.0476,1.5715,rough,14.0,1,1.444
5130,164.16,-0.1472,3.9929,0.1841,-0.1352,0.0476,1.5715,rough,14.0,1,1.444
5140,164.48,-0.1472,3.9929,0.1841,-0.1352,0.0476,1.5715,rough,14.0,1,1.444
5150,164.80,-0.1472,3.9929,0.1841,-0.1352,0.0476,1.5715,rough,14.0,1,1.444
5160,165.12,-0.1472,3.9929,0.1841,-0.1352,0.0476,1.5715,rough,14.0,1,1.444
5170,165.44,-0.1472,3.9929,0.1841,-0.1352,0.0476,1.5715,rough,14.0,1,1.444
5180,165.76,-0.1472,3.9929,0.1841,-0.1352,0.0476,1.5715,rough,14.0,1,1.444
5190,166.08,-0.1472,3.9929,0.1841,-0.1352,0.0476,1.5715,rough,14.0,1,1.444
5200,166.40,-0.1472,3.9929,0.1841,-0.1352,0.0476,1.5715,rough,14.0,1,1.444
5210,166.72,-0.1472,3.9929,0.1841,-0.1352,0.0476,1.5715,rough,14.0,1,1.444
5220,167.04,-0.1472,3.9929,0.1841,-0.1352,0.0476,1.5715,rough,14.0,1,1.444
5230,167.36,-0.1472,3.9929,0.1841,-0.1352,0.0476,1.5715,rough,14.0,1,1.444
5240,167.68,-0.1471,3.9929,0.1841,-0.1352,0.0476,1.5715,rough,14.0,1,1.444
5250,168.00,-0.1471,3.9929,0.1841,-0.1352,0.0476,1.5715,rough,14.0,1,1.444
5260,168.32,-0.1471,3.9929,0.1841,-0.1352,0.0476,1.5715,rough,14.0,1,1.444
5270,168.64,-0.1471,3.9929,0.1841,-0.1352,0.0476,1.5715,rough,14.0,1,1.444
5280,168.96,-0.1471,3.9929,0.1841,-0.1352,0.0476,1.5715,rough,14.0,1,1.444
5290,169.28,-0.1471,3.9929,0.1841,-0.1352,0.0476,1.5715,rough,14.0,1,1.444
5300,169.60,-0.1471,3.9929,0.1841,-0.1352,0.0476,1.5715,rough,14.0,1,1.444
5310,169.92,-0.1471,3.9929,0.1841,-0.1352,0.0476,1.5715,rough,14.0,1,1.444
5320,170.24,-0.1471,3.9929,0.1841,-0.1352,0.0476,1.5715,rough,14.0,1,1.444
5330,170.56,-0.1471,3.9929,0.1841,-0.1352,0.0476,1.5715,rough,14.0,1,1.444
5340,170.88,-0.1471,3.9929,0.1841,-0.1352,0.0476,1.5715,rough,14.0,1,1.444
5350,171.20,-0.1471,3.9929,0.1841,-0.1352,0.0476,1.5715,rough,14.0,1,1.444
5360,171.52,-0.1471,3.9929,0.1841,-0.1352,0.0476,1.5715,rough,14.0,1,1.444
5370,171.84,-0.1471,3.9929,0.1841,-0.1352,0.0476,1.5715,rough,14.0,1,1.444
5380,172.16,-0.1471,3.9929,0.1841,-0.1352,0.0476,1.5715,rough,14.0,1,1.444
5390,172.48,-0.1471,3.9929,0.1841,-0.1352,0.0476,1.5715,rough,14.0,1,1.444
5400,172.80,-0.1471,3.9929,0.1841,-0.1352,0.0476,1.5715,rough,14.0,1,1.444
5410,173.12,-0.1471,3.9929,0.1841,-0.1352,0.0476,1.5715,rough,14.0,1,1.444
5420,173.44,-0.1471,3.9929,0.1841,-0.1352,0.0476,1.5715,rough,14.0,1,1.444
5430,173.76,-0.1470,3.9929,0.1841,-0.1352,0.0476,1.5715,rough,14.0,1,1.444
5440,174.08,-0.1470,3.9929,0.1841,-0.1352,0.0476,1.5715,rough,14.0,1,1.444
5450,174.40,-0.1470,3.9929,0.1841,-0.1352,0.0476,1.5715,rough,14.0,1,1.444
5460,174.72,-0.1470,3.9929,0.1841,-0.1352,0.0476,1.5715,rough,14.0,1,1.444
5470,175.04,-0.1470,3.9929,0.1841,-0.1352,0.0476,1.5715,rough,14.0,1,1.444
5480,175.36,-0.1470,3.9929,0.1841,-0.1353,0.0476,1.5715,rough,14.0,1,1.444
5490,175.68,-0.1470,3.9929,0.1841,-0.1353,0.0476,1.5715,rough,14.0,1,1.444
5500,176.00,-0.1470,3.9929,0.1841,-0.1353,0.0476,1.5715,rough,14.0,1,1.444
5510,176.32,-0.1470,3.9929,0.1841,-0.1353,0.0476,1.5715,rough,14.0,1,1.444
5520,176.64,-0.1470,3.9929,0.1841,-0.1353,0.0476,1.5715,rough,14.0,1,1.444
5530,176.96,-0.1470,3.9929,0.1841,-0.1353,0.0476,1.5715,rough,14.0,1,1.444
5540,177.28,-0.1470,3.9929,0.1841,-0.1353,0.0476,1.5715,rough,14.0,1,1.444
5550,177.60,-0.1470,3.9929,0.1841,-0.1353,0.0476,1.5715,rough,14.0,1,1.444
5560,177.92,-0.1470,3.9929,0.1841,-0.1353,0.0476,1.5715,rough,14.0,1,1.444
5570,178.24,-0.1470,3.9929,0.1841,-0.1353,0.0476,1.5715,rough,14.0,1,1.444
5580,178.56,-0.1470,3.9929,0.1841,-0.1353,0.0476,1.5715,rough,14.0,1,1.444
5590,178.88,-0.1470,3.9929,0.1841,-0.1353,0.0476,1.5715,rough,14.0,1,1.444
5600,179.20,-0.1470,3.9929,0.1842,-0.1353,0.0476,1.5715,rough,14.0,1,1.444
5610,179.52,-0.1470,3.9929,0.1842,-0.1353,0.0476,1.5715,rough,14.0,1,1.444
5620,179.84,-0.1469,3.9929,0.1842,-0.1353,0.0476,1.5715,rough,14.0,1,1.444
5630,180.16,-0.1469,3.9929,0.1842,-0.1353,0.0476,1.5715,rough,14.0,1,1.444
5640,180.48,-0.1469,3.9929,0.1842,-0.1353,0.0476,1.5715,rough,14.0,1,1.444
5650,180.80,-0.1469,3.9929,0.1842,-0.1353,0.0476,1.5715,rough,14.0,1,1.444
5660,181.12,-0.1469,3.9929,0.1842,-0.1353,0.0476,1.5715,rough,14.0,1,1.444
5670,181.44,-0.1469,3.9929,0.1842,-0.1353,0.0476,1.5715,rough,14.0,1,1.444
5680,181.76,-0.1469,3.9929,0.1842,-0.1353,0.0476,1.5715,rough,14.0,1,1.444
5690,182.08,-0.1469,3.9929,0.1842,-0.1353,0.0476,1.5715,rough,14.0,1,1.444
5700,182.40,-0.1469,3.9929,0.1842,-0.1353,0.0476,1.5715,rough,14.0,1,1.444
5710,182.72,-0.1469,3.9929,0.1842,-0.1353,0.0476,1.5715,rough,14.0,1,1.444
5720,183.04,-0.1469,3.9929,0.1842,-0.1353,0.0476,1.5715,rough,14.0,1,1.444
5730,183.36,-0.1469,3.9929,0.1842,-0.1353,0.0476,1.5715,rough,14.0,1,1.444
5740,183.68,-0.1469,3.9929,0.1842,-0.1353,0.0476,1.5715,rough,14.0,1,1.444
5750,184.00,-0.1469,3.9929,0.1842,-0.1353,0.0476,1.5715,rough,14.0,1,1.444
5760,184.32,-0.1469,3.9929,0.1842,-0.1353,0.0476,1.5715,rough,14.0,1,1.444
5770,184.64,-0.1469,3.9929,0.1842,-0.1353,0.0476,1.5715,rough,14.0,1,1.444
5780,184.96,-0.1469,3.9929,0.1842,-0.1353,0.0476,1.5715,rough,14.0,1,1.444
5790,185.28,-0.1469,3.9929,0.1842,-0.1353,0.0476,1.5715,rough,14.0,1,1.444
5800,185.60,-0.1469,3.9929,0.1842,-0.1353,0.0476,1.5715,rough,14.0,1,1.444
5810,185.92,-0.1468,3.9929,0.1842,-0.1353,0.0476,1.5715,rough,14.0,1,1.444
5820,186.24,-0.1468,3.9929,0.1842,-0.1353,0.0476,1.5715,rough,14.0,1,1.444
5830,186.56,-0.1468,3.9929,0.1842,-0.1353,0.0476,1.5715,rough,14.0,1,1.444
5840,186.88,-0.1468,3.9929,0.1842,-0.1353,0.0476,1.5715,rough,14.0,1,1.444
5850,187.20,-0.1468,3.9929,0.1842,-0.1353,0.0476,1.5715,rough,14.0,1,1.444
5860,187.52,-0.1468,3.9929,0.1842,-0.1353,0.0476,1.5715,rough,14.0,1,1.444
5870,187.84,-0.1468,3.9929,0.1842,-0.1353,0.0476,1.5715,rough,14.0,1,1.444
5880,188.16,-0.1468,3.9929,0.1842,-0.1353,0.0476,1.5715,rough,14.0,1,1.444
5890,188.48,-0.1468,3.9929,0.1842,-0.1353,0.0476,1.5715,rough,14.0,1,1.444
5900,188.80,-0.1468,3.9929,0.1842,-0.1353,0.0476,1.5715,rough,14.0,1,1.444
5910,189.12,-0.1468,3.9929,0.1842,-0.1353,0.0476,1.5715,rough,14.0,1,1.444
5920,189.44,-0.1468,3.9929,0.1842,-0.1353,0.0476,1.5715,rough,14.0,1,1.444
5930,189.76,-0.1468,3.9929,0.1842,-0.1353,0.0476,1.5715,rough,14.0,1,1.444
5940,190.08,-0.1468,3.9929,0.1842,-0.1354,0.0476,1.5715,rough,14.0,1,1.444
5950,190.40,-0.1468,3.9929,0.1842,-0.1354,0.0476,1.5715,rough,14.0,1,1.444
5960,190.72,-0.1468,3.9929,0.1842,-0.1354,0.0476,1.5715,rough,14.0,1,1.444
5970,191.04,-0.1468,3.9929,0.1842,-0.1354,0.0476,1.5715,rough,14.0,1,1.444
5980,191.36,-0.1468,3.9929,0.1842,-0.1354,0.0476,1.5715,rough,14.0,1,1.444
5990,191.68,-0.1468,3.9929,0.1842,-0.1354,0.0476,1.5715,rough,14.0,1,1.444
6000,192.00,-0.1468,3.9929,0.1842,-0.1354,0.0476,1.5715,rough,14.0,1,1.444
6010,192.32,-0.1467,3.9929,0.1842,-0.1354,0.0476,1.5715,rough,14.0,1,1.444
6020,192.64,-0.1467,3.9929,0.1842,-0.1354,0.0476,1.5715,rough,14.0,1,1.444
6030,192.96,-0.1467,3.9929,0.1842,-0.1354,0.0476,1.5715,rough,14.0,1,1.444
6040,193.28,-0.1467,3.9929,0.1842,-0.1354,0.0476,1.5715,rough,14.0,1,1.444
6050,193.60,-0.1467,3.9929,0.1842,-0.1354,0.0476,1.5715,rough,14.0,1,1.444
6060,193.92,-0.1467,3.9929,0.1842,-0.1354,0.0476,1.5715,rough,14.0,1,1.444
6070,194.24,-0.1467,3.9929,0.1842,-0.1354,0.0476,1.5715,rough,14.0,1,1.444
6080,194.56,-0.1467,3.9929,0.1842,-0.1354,0.0476,1.5715,rough,14.0,1,1.444
6090,194.88,-0.1467,3.9929,0.1842,-0.1354,0.0476,1.5715,rough,14.0,1,1.444
6100,195.20,-0.1467,3.9929,0.1842,-0.1354,0.0476,1.5715,rough,14.0,1,1.444
6110,195.52,-0.1467,3.9929,0.1842,-0.1354,0.0476,1.5715,rough,14.0,1,1.444
6120,195.84,-0.1467,3.9929,0.1842,-0.1354,0.0476,1.5715,rough,14.0,1,1.444
6130,196.16,-0.1467,3.9929,0.1842,-0.1354,0.0476,1.5715,rough,14.0,1,1.444
6140,196.48,-0.1467,3.9929,0.1842,-0.1354,0.0476,1.5715,rough,14.0,1,1.444
6150,196.80,-0.1467,3.9929,0.1842,-0.1354,0.0476,1.5715,rough,14.0,1,1.444
6160,197.12,-0.1467,3.9929,0.1842,-0.1354,0.0476,1.5715,rough,14.0,1,1.444
6170,197.44,-0.1467,3.9929,0.1842,-0.1354,0.0476,1.5715,rough,14.0,1,1.444
6180,197.76,-0.1467,3.9929,0.1842,-0.1354,0.0476,1.5715,rough,14.0,1,1.444
6190,198.08,-0.1467,3.9929,0.1842,-0.1354,0.0476,1.5715,rough,14.0,1,1.444
6200,198.40,-0.1467,3.9929,0.1842,-0.1354,0.0476,1.5715,rough,14.0,1,1.444
6210,198.72,-0.1467,3.9929,0.1842,-0.1354,0.0476,1.5715,rough,14.0,1,1.444
6220,199.04,-0.1466,3.9929,0.1842,-0.1354,0.0476,1.5715,rough,14.0,1,1.444
6230,199.36,-0.1466,3.9929,0.1842,-0.1354,0.0476,1.5715,rough,14.0,1,1.444
6240,199.68,-0.1466,3.9929,0.1842,-0.1354,0.0476,1.5715,rough,14.0,1,1.444
6250,200.00,-0.1466,3.9929,0.1842,-0.1354,0.0476,1.5715,rough,14.0,1,1.444
6260,200.32,-0.1466,3.9929,0.1842,-0.1354,0.0476,1.5715,rough,14.0,1,1.444
6270,200.64,-0.1466,3.9929,0.1842,-0.1354,0.0476,1.5715,rough,14.0,1,1.444
6280,200.96,-0.1466,3.9929,0.1842,-0.1354,0.0476,1.5715,rough,14.0,1,1.444
6290,201.28,-0.1466,3.9929,0.1842,-0.1354,0.0476,1.5715,rough,14.0,1,1.444
6300,201.60,-0.1466,3.9929,0.1842,-0.1354,0.0476,1.5715,rough,14.0,1,1.444
6310,201.92,-0.1466,3.9929,0.1842,-0.1354,0.0476,1.5715,rough,14.0,1,1.444
6320,202.24,-0.1466,3.9929,0.1842,-0.1354,0.0476,1.5715,rough,14.0,1,1.444
6330,202.56,-0.1466,3.9929,0.1842,-0.1354,0.0476,1.5715,rough,14.0,1,1.444
6340,202.88,-0.1466,3.9929,0.1842,-0.1354,0.0476,1.5715,rough,14.0,1,1.444
6350,203.20,-0.1466,3.9929,0.1842,-0.1354,0.0476,1.5715,rough,14.0,1,1.444
6360,203.52,-0.1466,3.9929,0.1842,-0.1354,0.0476,1.5715,rough,14.0,1,1.444
6370,203.84,-0.1466,3.9929,0.1842,-0.1354,0.0476,1.5715,rough,14.0,1,1.444
6380,204.16,-0.1466,3.9929,0.1842,-0.1354,0.0476,1.5715,rough,14.0,1,1.444
6390,204.48,-0.1466,3.9929,0.1842,-0.1354,0.0476,1.5715,rough,14.0,1,1.444
6400,204.80,-0.1466,3.9929,0.1842,-0.1354,0.0476,1.5715,rough,14.0,1,1.444
6410,205.12,-0.1466,3.9929,0.1842,-0.1354,0.0476,1.5715,rough,14.0,1,1.444
6420,205.44,-0.1466,3.9929,0.1842,-0.1355,0.0476,1.5715,rough,14.0,1,1.444
6430,205.76,-0.1465,3.9929,0.1842,-0.1355,0.0476,1.5715,rough,14.0,1,1.444
6440,206.08,-0.1465,3.9929,0.1842,-0.1355,0.0476,1.5715,rough,14.0,1,1.444
6450,206.40,-0.1465,3.9929,0.1842,-0.1355,0.0476,1.5715,rough,14.0,1,1.444
6460,206.72,-0.1465,3.9929,0.1842,-0.1355,0.0476,1.5715,rough,14.0,1,1.444
6470,207.04,-0.1465,3.9929,0.1842,-0.1355,0.0476,1.5715,rough,14.0,1,1.444
6480,207.36,-0.1465,3.9929,0.1842,-0.1355,0.0476,1.5715,rough,14.0,1,1.444
6490,207.68,-0.1465,3.9929,0.1842,-0.1355,0.0476,1.5715,rough,14.0,1,1.444
6500,208.00,-0.1465,3.9929,0.1842,-0.1355,0.0476,1.5715,rough,14.0,1,1.444
6510,208.32,-0.1465,3.9929,0.1842,-0.1355,0.0476,1.5715,rough,14.0,1,1.444
6520,208.64,-0.1465,3.9929,0.1842,-0.1355,0.0476,1.5715,rough,14.0,1,1.443
6530,208.96,-0.1465,3.9929,0.1842,-0.1355,0.0476,1.5715,rough,14.0,1,1.443
6540,209.28,-0.1465,3.9929,0.1842,-0.1355,0.0476,1.5715,rough,14.0,1,1.443
6550,209.60,-0.1465,3.9929,0.1842,-0.1355,0.0476,1.5715,rough,14.0,1,1.443
6560,209.92,-0.1465,3.9929,0.1842,-0.1355,0.0476,1.5715,rough,14.0,1,1.443
6570,210.24,-0.1465,3.9929,0.1842,-0.1355,0.0476,1.5715,rough,14.0,1,1.443
6580,210.56,-0.1465,3.9929,0.1842,-0.1355,0.0476,1.5715,rough,14.0,1,1.443
6590,210.88,-0.1465,3.9929,0.1842,-0.1355,0.0476,1.5715,rough,14.0,1,1.443
6600,211.20,-0.1465,3.9929,0.1842,-0.1355,0.0476,1.5715,rough,14.0,1,1.443
6610,211.52,-0.1465,3.9929,0.1842,-0.1355,0.0476,1.5715,rough,14.0,1,1.443
6620,211.84,-0.1465,3.9929,0.1842,-0.1355,0.0476,1.5715,rough,14.0,1,1.443
6630,212.16,-0.1465,3.9929,0.1842,-0.1355,0.0476,1.5715,rough,14.0,1,1.443
6640,212.48,-0.1464,3.9929,0.1842,-0.1355,0.0476,1.5715,rough,14.0,1,1.443
6650,212.80,-0.1464,3.9929,0.1842,-0.1355,0.0476,1.5715,rough,14.0,1,1.443
6660,213.12,-0.1464,3.9929,0.1842,-0.1355,0.0476,1.5715,rough,14.0,1,1.443
6670,213.44,-0.1464,3.9929,0.1842,-0.1355,0.0476,1.5715,rough,14.0,1,1.443
6680,213.76,-0.1464,3.9929,0.1842,-0.1355,0.0476,1.5715,rough,14.0,1,1.443
6690,214.08,-0.1464,3.9929,0.1842,-0.1355,0.0476,1.5715,rough,14.0,1,1.443
6700,214.40,-0.1464,3.9929,0.1842,-0.1355,0.0476,1.5715,rough,14.0,1,1.443
6710,214.72,-0.1464,3.9929,0.1842,-0.1355,0.0476,1.5715,rough,14.0,1,1.443
6720,215.04,-0.1464,3.9929,0.1842,-0.1355,0.0476,1.5715,rough,14.0,1,1.443
6730,215.36,-0.1464,3.9929,0.1842,-0.1355,0.0476,1.5715,rough,14.0,1,1.443
6740,215.68,-0.1464,3.9929,0.1842,-0.1355,0.0476,1.5715,rough,14.0,1,1.443
6750,216.00,-0.1464,3.9929,0.1842,-0.1355,0.0476,1.5715,rough,14.0,1,1.443
6760,216.32,-0.1464,3.9929,0.1842,-0.1355,0.0476,1.5715,rough,14.0,1,1.443
6770,216.64,-0.1464,3.9929,0.1842,-0.1355,0.0476,1.5715,rough,14.0,1,1.443
6780,216.96,-0.1464,3.9929,0.1842,-0.1355,0.0476,1.5715,rough,14.0,1,1.443
6790,217.28,-0.1464,3.9929,0.1842,-0.1355,0.0476,1.5715,rough,14.0,1,1.443
6800,217.60,-0.1464,3.9929,0.1842,-0.1355,0.0476,1.5715,rough,14.0,1,1.443
6810,217.92,-0.1464,3.9929,0.1842,-0.1355,0.0476,1.5715,rough,14.0,1,1.443
6820,218.24,-0.1464,3.9929,0.1842,-0.1355,0.0476,1.5715,rough,14.0,1,1.443
6830,218.56,-0.1464,3.9929,0.1842,-0.1355,0.0476,1.5715,rough,14.0,1,1.443
6840,218.88,-0.1464,3.9929,0.1842,-0.1355,0.0476,1.5715,rough,14.0,1,1.443
6850,219.20,-0.1464,3.9929,0.1842,-0.1355,0.0476,1.5715,rough,14.0,1,1.443
6860,219.52,-0.1464,3.9929,0.1842,-0.1355,0.0476,1.5715,rough,14.0,1,1.443
6870,219.84,-0.1463,3.9929,0.1842,-0.1355,0.0476,1.5715,rough,14.0,1,1.443
6880,220.16,-0.1463,3.9929,0.1842,-0.1355,0.0476,1.5715,rough,14.0,1,1.443
6890,220.48,-0.1463,3.9929,0.1842,-0.1355,0.0476,1.5715,rough,14.0,1,1.443
6900,220.80,-0.1463,3.9929,0.1842,-0.1355,0.0476,1.5715,rough,14.0,1,1.443
6910,221.12,-0.1463,3.9929,0.1842,-0.1355,0.0476,1.5715,rough,14.0,1,1.443
6920,221.44,-0.1463,3.9929,0.1842,-0.1355,0.0476,1.5715,rough,14.0,1,1.443
6930,221.76,-0.1463,3.9929,0.1842,-0.1355,0.0476,1.5715,rough,14.0,1,1.443
6940,222.08,-0.1463,3.9929,0.1842,-0.1356,0.0476,1.5715,rough,14.0,1,1.443
6950,222.40,-0.1463,3.9929,0.1842,-0.1356,0.0476,1.5715,rough,14.0,1,1.443
6960,222.72,-0.1463,3.9929,0.1842,-0.1356,0.0476,1.5715,rough,14.0,1,1.443
6970,223.04,-0.1463,3.9929,0.1842,-0.1356,0.0476,1.5715,rough,14.0,1,1.443
6980,223.36,-0.1463,3.9929,0.1842,-0.1356,0.0476,1.5715,rough,14.0,1,1.443
6990,223.68,-0.1463,3.9929,0.1842,-0.1356,0.0476,1.5715,rough,14.0,1,1.443
7000,224.00,-0.1463,3.9929,0.1842,-0.1356,0.0476,1.5715,rough,14.0,1,1.443
7010,224.32,-0.1463,3.9929,0.1842,-0.1356,0.0476,1.5715,rough,14.0,1,1.443
7020,224.64,-0.1463,3.9929,0.1842,-0.1356,0.0476,1.5715,rough,14.0,1,1.443
7030,224.96,-0.1463,3.9929,0.1842,-0.1356,0.0476,1.5715,rough,14.0,1,1.443
7040,225.28,-0.1463,3.9929,0.1842,-0.1356,0.0476,1.5715,rough,14.0,1,1.443
7050,225.60,-0.1463,3.9929,0.1842,-0.1356,0.0476,1.5715,rough,14.0,1,1.443
7060,225.92,-0.1463,3.9929,0.1842,-0.1356,0.0476,1.5715,rough,14.0,1,1.443
7070,226.24,-0.1463,3.9929,0.1842,-0.1356,0.0476,1.5715,rough,14.0,1,1.443
7080,226.56,-0.1463,3.9929,0.1842,-0.1356,0.0476,1.5715,rough,14.0,1,1.443
7090,226.88,-0.1463,3.9929,0.1842,-0.1356,0.0476,1.5715,rough,14.0,1,1.443
7100,227.20,-0.1462,3.9929,0.1842,-0.1356,0.0476,1.5715,rough,14.0,1,1.443
7110,227.52,-0.1462,3.9929,0.1842,-0.1356,0.0476,1.5715,rough,14.0,1,1.443
7120,227.84,-0.1462,3.9929,0.1842,-0.1356,0.0476,1.5715,rough,14.0,1,1.443
7130,228.16,-0.1462,3.9929,0.1842,-0.1356,0.0476,1.5715,rough,14.0,1,1.443
7140,228.48,-0.1462,3.9929,0.1842,-0.1356,0.0476,1.5715,rough,14.0,1,1.443
7150,228.80,-0.1462,3.9929,0.1842,-0.1356,0.0476,1.5715,rough,14.0,1,1.443
7160,229.12,-0.1462,3.9929,0.1842,-0.1356,0.0476,1.5715,rough,14.0,1,1.443
7170,229.44,-0.1462,3.9929,0.1842,-0.1356,0.0476,1.5715,rough,14.0,1,1.443
7180,229.76,-0.1462,3.9929,0.1842,-0.1356,0.0476,1.5715,rough,14.0,1,1.443
7190,230.08,-0.1462,3.9929,0.1842,-0.1356,0.0476,1.5715,rough,14.0,1,1.443
7200,230.40,-0.1462,3.9929,0.1842,-0.1356,0.0476,1.5715,rough,14.0,1,1.443
7210,230.72,-0.1462,3.9929,0.1842,-0.1356,0.0476,1.5715,rough,14.0,1,1.443
7220,231.04,-0.1462,3.9929,0.1842,-0.1356,0.0476,1.5715,rough,14.0,1,1.443
7230,231.36,-0.1462,3.9929,0.1842,-0.1356,0.0476,1.5715,rough,14.0,1,1.443
7240,231.68,-0.1462,3.9929,0.1842,-0.1356,0.0476,1.5715,rough,14.0,1,1.443
7250,232.00,-0.1462,3.9929,0.1842,-0.1356,0.0476,1.5715,rough,14.0,1,1.443
7260,232.32,-0.1462,3.9929,0.1842,-0.1356,0.0476,1.5715,rough,14.0,1,1.443
7270,232.64,-0.1462,3.9929,0.1842,-0.1356,0.0476,1.5715,rough,14.0,1,1.443
7280,232.96,-0.1462,3.9929,0.1842,-0.1356,0.0476,1.5715,rough,14.0,1,1.443
7290,233.28,-0.1462,3.9929,0.1842,-0.1356,0.0476,1.5715,rough,14.0,1,1.443
7300,233.60,-0.1462,3.9929,0.1842,-0.1356,0.0476,1.5715,rough,14.0,1,1.443
7310,233.92,-0.1462,3.9929,0.1842,-0.1356,0.0476,1.5715,rough,14.0,1,1.443
7320,234.24,-0.1462,3.9929,0.1842,-0.1356,0.0476,1.5715,rough,14.0,1,1.443
7330,234.56,-0.1461,3.9929,0.1842,-0.1356,0.0476,1.5715,rough,14.0,1,1.443
7340,234.88,-0.1461,3.9929,0.1842,-0.1356,0.0476,1.5715,rough,14.0,1,1.443
7350,235.20,-0.1461,3.9929,0.1842,-0.1356,0.0476,1.5715,rough,14.0,1,1.443
7360,235.52,-0.1461,3.9929,0.1842,-0.1356,0.0476,1.5715,rough,14.0,1,1.443
7370,235.84,-0.1461,3.9929,0.1842,-0.1356,0.0476,1.5715,rough,14.0,1,1.443
7380,236.16,-0.1461,3.9929,0.1842,-0.1356,0.0476,1.5715,rough,14.0,1,1.443
7390,236.48,-0.1461,3.9929,0.1842,-0.1356,0.0476,1.5715,rough,14.0,1,1.443
7400,236.80,-0.1461,3.9929,0.1842,-0.1356,0.0476,1.5715,rough,14.0,1,1.443
7410,237.12,-0.1461,3.9929,0.1842,-0.1356,0.0476,1.5715,rough,14.0,1,1.443
7420,237.44,-0.1461,3.9929,0.1842,-0.1356,0.0476,1.5715,rough,14.0,1,1.443
7430,237.76,-0.1461,3.9929,0.1842,-0.1356,0.0476,1.5715,rough,14.0,1,1.443
7440,238.08,-0.1461,3.9929,0.1842,-0.1356,0.0476,1.5715,rough,14.0,1,1.443
7450,238.40,-0.1461,3.9929,0.1842,-0.1356,0.0476,1.5715,rough,14.0,1,1.443
7460,238.72,-0.1461,3.9929,0.1842,-0.1356,0.0476,1.5715,rough,14.0,1,1.443
7470,239.04,-0.1461,3.9929,0.1842,-0.1356,0.0476,1.5715,rough,14.0,1,1.443
7480,239.36,-0.1461,3.9929,0.1842,-0.1356,0.0476,1.5715,rough,14.0,1,1.443
7490,239.68,-0.1461,3.9929,0.1842,-0.1356,0.0476,1.5715,rough,14.0,1,1.443
7500,240.00,-0.1461,3.9929,0.1842,-0.1357,0.0476,1.5715,rough,14.0,1,1.443
7510,240.32,-0.1461,3.9929,0.1842,-0.1357,0.0476,1.5715,rough,14.0,1,1.443
7520,240.64,-0.1461,3.9929,0.1842,-0.1357,0.0476,1.5715,rough,14.0,1,1.443
7530,240.96,-0.1461,3.9929,0.1842,-0.1357,0.0476,1.5715,rough,14.0,1,1.443
7540,241.28,-0.1461,3.9929,0.1842,-0.1357,0.0476,1.5715,rough,14.0,1,1.443
7550,241.60,-0.1461,3.9929,0.1842,-0.1357,0.0476,1.5715,rough,14.0,1,1.443
7560,241.92,-0.1461,3.9929,0.1842,-0.1357,0.0476,1.5715,rough,14.0,1,1.443
7570,242.24,-0.1461,3.9929,0.1842,-0.1357,0.0476,1.5715,rough,14.0,1,1.443
7580,242.56,-0.1460,3.9929,0.1842,-0.1357,0.0476,1.5715,rough,14.0,1,1.443
7590,242.88,-0.1460,3.9929,0.1842,-0.1357,0.0476,1.5715,rough,14.0,1,1.443
7600,243.20,-0.1460,3.9929,0.1842,-0.1357,0.0476,1.5715,rough,14.0,1,1.443
7610,243.52,-0.1460,3.9929,0.1842,-0.1357,0.0476,1.5715,rough,14.0,1,1.443
7620,243.84,-0.1460,3.9929,0.1842,-0.1357,0.0476,1.5715,rough,14.0,1,1.443
7630,244.16,-0.1460,3.9929,0.1842,-0.1357,0.0476,1.5715,rough,14.0,1,1.443
7640,244.48,-0.1460,3.9929,0.1842,-0.1357,0.0476,1.5715,rough,14.0,1,1.443
7650,244.80,-0.1460,3.9929,0.1842,-0.1357,0.0476,1.5715,rough,14.0,1,1.443
7660,245.12,-0.1460,3.9929,0.1842,-0.1357,0.0476,1.5715,rough,14.0,1,1.443
7670,245.44,-0.1460,3.9929,0.1842,-0.1357,0.0476,1.5715,rough,14.0,1,1.443
7680,245.76,-0.1460,3.9929,0.1842,-0.1357,0.0476,1.5715,rough,14.0,1,1.443
7690,246.08,-0.1460,3.9929,0.1842,-0.1357,0.0476,1.5715,rough,14.0,1,1.443
7700,246.40,-0.1460,3.9929,0.1842,-0.1357,0.0476,1.5715,rough,14.0,1,1.443
7710,246.72,-0.1460,3.9929,0.1842,-0.1357,0.0476,1.5715,rough,14.0,1,1.443
7720,247.04,-0.1460,3.9929,0.1842,-0.1357,0.0476,1.5715,rough,14.0,1,1.443
7730,247.36,-0.1460,3.9929,0.1842,-0.1357,0.0476,1.5715,rough,14.0,1,1.443
7740,247.68,-0.1460,3.9929,0.1842,-0.1357,0.0476,1.5715,rough,14.0,1,1.443
7750,248.00,-0.1460,3.9929,0.1842,-0.1357,0.0476,1.5715,rough,14.0,1,1.443
7760,248.32,-0.1460,3.9929,0.1842,-0.1357,0.0476,1.5715,rough,14.0,1,1.443
7770,248.64,-0.1460,3.9929,0.1842,-0.1357,0.0476,1.5715,rough,14.0,1,1.443
7780,248.96,-0.1460,3.9929,0.1842,-0.1357,0.0476,1.5715,rough,14.0,1,1.443
7790,249.28,-0.1460,3.9929,0.1842,-0.1357,0.0476,1.5715,rough,14.0,1,1.443
7800,249.60,-0.1460,3.9929,0.1842,-0.1357,0.0476,1.5715,rough,14.0,1,1.443
7810,249.92,-0.1460,3.9929,0.1842,-0.1357,0.0476,1.5715,rough,14.0,1,1.443
7820,250.24,-0.1460,3.9929,0.1842,-0.1357,0.0476,1.5715,rough,14.0,1,1.443
7830,250.56,-0.1459,3.9929,0.1842,-0.1357,0.0476,1.5715,rough,14.0,1,1.443
7840,250.88,-0.1459,3.9929,0.1842,-0.1357,0.0476,1.5715,rough,14.0,1,1.443
7850,251.20,-0.1459,3.9929,0.1842,-0.1357,0.0476,1.5715,rough,14.0,1,1.443
7860,251.52,-0.1459,3.9929,0.1842,-0.1357,0.0476,1.5715,rough,14.0,1,1.443
7870,251.84,-0.1459,3.9929,0.1842,-0.1357,0.0476,1.5715,rough,14.0,1,1.443
7880,252.16,-0.1459,3.9929,0.1842,-0.1357,0.0476,1.5715,rough,14.0,1,1.443
7890,252.48,-0.1459,3.9929,0.1842,-0.1357,0.0476,1.5715,rough,14.0,1,1.443
7900,252.80,-0.1459,3.9929,0.1842,-0.1357,0.0476,1.5715,rough,14.0,1,1.443
7910,253.12,-0.1459,3.9929,0.1842,-0.1357,0.0476,1.5715,rough,14.0,1,1.443
7920,253.44,-0.1459,3.9929,0.1842,-0.1357,0.0476,1.5715,rough,14.0,1,1.443
7930,253.76,-0.1459,3.9929,0.1842,-0.1357,0.0476,1.5715,rough,14.0,1,1.443
7940,254.08,-0.1459,3.9929,0.1842,-0.1357,0.0476,1.5715,rough,14.0,1,1.443
7950,254.40,-0.1459,3.9929,0.1842,-0.1357,0.0476,1.5715,rough,14.0,1,1.443
7960,254.72,-0.1459,3.9929,0.1842,-0.1357,0.0476,1.5715,rough,14.0,1,1.443
7970,255.04,-0.1459,3.9929,0.1842,-0.1357,0.0476,1.5715,rough,14.0,1,1.443
7980,255.36,-0.1459,3.9929,0.1842,-0.1357,0.0476,1.5715,rough,14.0,1,1.443
7990,255.68,-0.1459,3.9929,0.1842,-0.1357,0.0476,1.5715,rough,14.0,1,1.443
8000,256.00,-0.1459,3.9929,0.1842,-0.1357,0.0476,1.5715,rough,14.0,1,1.443
8010,256.32,-0.1459,3.9929,0.1842,-0.1357,0.0476,1.5715,rough,14.0,1,1.443
8020,256.64,-0.1459,3.9929,0.1842,-0.1357,0.0476,1.5715,rough,14.0,1,1.443
8030,256.96,-0.1459,3.9929,0.1842,-0.1357,0.0476,1.5715,rough,14.0,1,1.443
8040,257.28,-0.1459,3.9929,0.1842,-0.1357,0.0476,1.5715,rough,14.0,1,1.443
