step,time_s,x,y,z,roll,pitch,yaw,terrain,speed,target_idx,dist_to_target
10,0.32,-1.4580,0.8361,0.1825,0.1563,-0.1791,-0.1832,slope,18.0,0,6.032
20,0.64,-1.6601,0.8156,0.1364,0.0628,-0.2652,0.1333,slope,18.0,0,5.877
30,0.96,-1.8162,0.7999,0.0972,-0.0495,-0.2290,0.6528,slope,18.0,0,5.759
40,1.28,-1.7935,0.7621,0.1024,-0.1940,-0.1292,1.4091,slope,18.0,0,5.800
50,1.60,-1.8707,0.8158,0.0928,-0.2162,-0.0164,1.9123,slope,18.0,0,5.706
60,1.92,-2.0435,0.9786,0.0712,-0.2283,0.0239,2.3047,slope,18.0,0,5.470
70,2.24,-2.3927,1.2113,0.0660,-0.2368,-0.0282,2.6349,slope,18.0,0,5.051
80,2.56,-2.8044,1.3839,0.0702,-0.3081,0.0311,2.7010,rough,14.0,0,4.618
90,2.88,-3.1773,1.5515,0.0404,-0.2786,0.1166,2.6947,rough,14.0,0,4.221
100,3.20,-3.5159,1.7210,0.0027,-0.1954,0.1073,2.7244,rough,14.0,0,3.852
110,3.52,-3.8071,1.8611,0.0094,-0.0804,-0.0152,2.7824,rough,14.0,0,3.539
120,3.84,-4.0137,1.9221,0.0430,-0.1241,-0.3965,3.0055,rough,14.0,0,3.345
130,4.16,-4.1370,1.9102,0.0859,-0.1992,-0.3685,-3.0597,rough,14.0,0,3.264
140,4.48,-4.3535,1.8925,0.1825,-0.1732,-0.4778,-3.0336,rough,14.0,0,3.125
150,4.80,-4.6500,1.8450,0.3261,-0.2724,-0.5243,-3.0104,rough,14.0,0,2.970
160,5.12,-5.0150,1.7687,0.3901,-0.3159,-0.1638,-3.0970,rough,14.0,0,2.826
170,5.44,-5.2788,1.7473,0.4793,-0.3155,-0.5061,-2.9773,rough,14.0,0,2.719
180,5.76,-5.5922,1.7308,0.5930,-0.1134,-0.4077,-2.9538,rough,14.0,0,2.612
190,6.08,-5.8970,1.7117,0.7135,0.0677,-0.5659,-2.9818,rough,14.0,0,2.545
200,6.40,-6.1748,1.6627,0.8718,0.0751,-0.5195,-3.0323,rough,14.0,0,2.545
210,6.72,-6.4876,1.6359,0.9818,0.0777,-0.3129,-3.0629,rough,14.0,0,2.555
220,7.04,-6.8470,1.5988,1.0443,-0.1578,-0.2789,3.0463,rough,14.0,0,2.619
230,7.36,-7.1936,1.6171,1.1336,-0.2163,-0.3435,2.8407,rough,14.0,0,2.673
240,7.68,-7.5032,1.7211,1.2553,-0.2031,-0.4065,2.7032,rough,14.0,0,2.677
250,8.00,-7.8557,1.9077,1.3847,-0.1116,-0.2179,2.6455,rough,14.0,0,2.670
260,8.32,-8.2925,2.0459,1.2957,-0.4367,0.3066,2.3942,rough,14.0,0,2.814
270,8.64,-8.5861,2.1583,1.1492,-0.6745,0.0522,1.9126,rough,14.0,0,2.933
280,8.96,-8.7550,2.3110,1.0807,-0.6652,-0.1910,1.8602,rough,14.0,0,2.958
290,9.28,-8.8152,2.4532,1.1098,-0.6579,-0.4086,1.8674,rough,14.0,0,2.918
300,9.60,-8.8398,2.6511,1.1658,-0.4485,-0.3660,1.7381,rough,14.0,0,2.825
310,9.92,-8.8867,2.7826,1.2206,-0.4693,-0.4498,1.7464,rough,14.0,0,2.796
320,10.24,-8.9234,2.9008,1.2548,-0.4063,-0.4792,1.7336,rough,14.0,0,2.771
330,10.56,-8.9390,3.0132,1.3139,-0.3355,-0.5595,1.7754,rough,14.0,0,2.734
340,10.88,-8.9812,3.1618,1.3621,-0.3614,-0.3732,1.6752,rough,14.0,0,2.713
350,11.20,-9.0237,3.3091,1.4047,-0.4361,-0.3659,1.5237,rough,14.0,0,2.700
360,11.52,-9.0355,3.4255,1.4442,-0.4350,-0.4077,1.4693,rough,14.0,0,2.676
370,11.84,-9.0081,3.5390,1.4980,-0.3975,-0.4310,1.4568,rough,14.0,0,2.619
380,12.16,-8.9763,3.6995,1.5358,-0.3452,-0.2586,1.4356,rough,14.0,0,2.553
390,12.48,-8.9134,3.8852,1.5786,-0.2163,-0.0491,1.3166,rough,14.0,0,2.461
400,12.80,-8.8636,4.0369,1.5626,-0.1416,-0.0159,1.2262,rough,14.0,0,2.397
410,13.12,-8.7690,4.2299,1.5630,-0.0033,0.0589,1.2416,rough,14.0,0,2.298
420,13.44,-8.6558,4.4946,1.4873,0.0964,0.3021,1.2301,rough,14.0,0,2.205
430,13.76,-8.5489,4.7193,1.4071,0.0601,0.3345,1.1116,rough,14.0,0,2.144
440,14.08,-8.4746,4.9324,1.3733,-0.0886,0.1762,1.0054,rough,14.0,0,2.136
450,14.40,-8.3688,5.1898,1.3442,-0.3169,0.1869,0.9087,rough,14.0,0,2.144
460,14.72,-8.2215,5.4102,1.3212,-0.3602,0.0252,0.8970,rough,14.0,0,2.133
470,15.04,-8.0064,5.6685,1.3090,-0.3417,0.0388,0.8423,rough,14.0,0,2.131
480,15.36,-7.6367,5.9611,1.1202,-0.1562,0.5101,0.7209,rough,14.0,0,2.119
490,15.68,-7.4081,6.2918,0.9241,-0.4782,0.5311,0.6338,rough,14.0,0,2.300
500,16.00,-7.2549,6.4846,0.8392,-0.4461,0.0662,0.6656,rough,14.0,0,2.424
510,16.32,-7.1722,6.5852,0.8125,-0.4118,-0.3289,0.5171,rough,14.0,0,2.495
520,16.64,-7.1550,6.6779,0.8077,-0.4119,-0.4187,0.3260,rough,14.0,0,2.579
530,16.96,-7.0856,6.7490,0.8210,-0.4444,-0.3625,0.4399,rough,14.0,0,2.631
540,17.28,-7.0954,6.8356,0.7898,-0.3747,-0.4651,0.1991,rough,14.0,0,2.717
550,17.60,-7.0057,6.8588,0.8126,-0.3749,-0.3377,0.1754,rough,14.0,0,2.721
560,17.92,-6.7327,6.8969,0.9146,-0.2831,-0.2039,0.1229,rough,14.0,0,2.719
570,18.24,-6.4190,6.9798,0.9118,-0.5025,-0.0917,0.0747,rough,14.0,0,2.789
580,18.56,-6.0578,7.0389,0.8901,-0.5283,0.1243,0.0143,rough,14.0,0,2.878
590,18.88,-5.7566,7.0486,0.8430,-0.4114,0.0678,0.1157,rough,14.0,0,2.946
600,19.20,-5.5240,7.0787,0.8226,-0.3814,-0.0020,0.1133,rough,14.0,0,3.039
610,19.52,-5.2762,7.1013,0.7906,-0.3748,0.0868,-0.2022,rough,14.0,0,3.146
620,19.84,-4.9734,7.0598,0.7624,-0.4489,0.0098,-0.3336,rough,14.0,0,3.236
630,20.16,-4.6683,6.9928,0.7499,-0.5802,0.0534,-0.4640,rough,14.0,0,3.332
640,20.48,-4.4077,6.8955,0.7406,-0.5841,-0.1261,-0.4377,rough,14.0,0,3.402
650,20.80,-4.2639,6.8398,0.7602,-0.5656,-0.2401,-0.4601,rough,14.0,0,3.448
660,21.12,-4.1804,6.8282,0.7560,-0.4719,-0.3949,-0.7056,rough,14.0,0,3.493
670,21.44,-4.1015,6.8104,0.7530,-0.3448,-0.4377,-1.0134,rough,14.0,0,3.532
680,21.76,-4.0238,6.7102,0.8127,-0.2848,-0.4533,-1.0751,rough,14.0,0,3.513
690,22.08,-3.8491,6.4456,0.8898,-0.3896,-0.2285,-1.2420,rough,14.0,0,3.458
700,22.40,-3.8019,6.4258,0.8697,-0.3734,-0.1235,-1.0476,rough,14.0,0,3.482
710,22.72,-3.6854,6.4196,0.8527,-0.4483,-0.0949,-0.7838,rough,14.0,0,3.568
720,23.04,-3.5707,6.4985,0.7902,-0.4863,-0.2869,-1.0386,rough,14.0,0,3.707
730,23.36,-3.4726,6.5222,0.7516,-0.4144,-0.3835,-1.2659,rough,14.0,0,3.798
740,23.68,-3.4135,6.5309,0.6930,-0.3458,-0.2273,-1.4536,rough,14.0,0,3.851
750,24.00,-3.3694,6.5222,0.6537,-0.3388,-0.1430,-1.5509,rough,14.0,0,3.880
760,24.32,-3.2494,6.4689,0.6623,-0.3729,-0.6234,-1.9020,rough,14.0,0,3.946
770,24.64,-3.1458,6.4471,0.6108,-0.4941,-0.5607,-1.8752,rough,14.0,0,4.019
780,24.96,-3.0721,6.4544,0.5546,-0.7656,-0.4234,-1.4694,rough,14.0,0,4.084
790,25.28,-2.9716,6.3001,0.5682,-0.7815,-0.2645,-1.2940,rough,14.0,0,4.086
800,25.60,-2.8778,6.1900,0.5566,-0.6457,-0.5600,-1.3712,rough,14.0,0,4.112
810,25.92,-2.7535,6.0038,0.5418,-0.5504,-0.1926,-1.0451,rough,14.0,0,4.136
820,26.24,-2.5335,5.8069,0.5467,-0.7483,-0.3037,-1.2882,rough,14.0,0,4.257
830,26.56,-2.4044,5.7029,0.5363,-0.8014,-0.4106,-1.1511,rough,14.0,0,4.339
840,26.88,-2.2041,5.4879,0.5004,-0.7547,-0.0505,-0.9467,rough,14.0,0,4.460
850,27.20,-1.9105,5.2184,0.4009,-0.8779,0.1006,-1.0912,rough,14.0,0,4.675
860,27.52,-1.6076,4.9932,0.2224,-0.7583,-0.1059,-1.0864,rough,14.0,0,4.929
870,27.84,-1.3977,4.7459,0.1908,-0.6679,-0.2230,-1.1228,rough,14.0,0,5.104
880,28.16,-1.2920,4.5192,0.2433,-0.5769,-0.3352,-1.0455,rough,14.0,0,5.190
890,28.48,-1.1971,4.3716,0.2835,-0.4686,-0.4119,-1.2606,rough,14.0,0,5.277
900,28.80,-1.1572,4.2558,0.3184,-0.2311,-0.3978,-1.6571,rough,14.0,0,5.315
910,29.12,-1.1858,4.0653,0.3973,-0.1730,-0.4271,-1.7103,rough,14.0,0,5.287
920,29.44,-1.2259,3.7589,0.4891,-0.1515,-0.1861,-1.6975,rough,14.0,0,5.263
930,29.76,-1.2432,3.4868,0.5252,-0.1831,-0.1061,-1.6608,rough,14.0,0,5.275
940,30.08,-1.2377,3.3159,0.5296,-0.1775,-0.0563,-1.9086,slope,18.0,0,5.306
950,30.40,-1.3334,3.0403,0.5305,-0.2281,-0.0163,-2.1860,slope,18.0,0,5.265
960,30.72,-1.5705,2.6790,0.5122,-0.2996,0.0444,-2.4654,slope,18.0,0,5.129
970,31.04,-1.9904,2.3947,0.4469,-0.2058,0.1909,-2.8492,slope,18.0,0,4.828
980,31.36,-2.4356,2.2608,0.3611,-0.2814,0.0499,2.9928,rough,14.0,0,4.474
990,31.68,-2.8377,2.3476,0.3296,-0.3020,0.1139,2.7158,rough,14.0,0,4.074
1000,32.00,-3.1773,2.4501,0.3056,-0.4486,-0.0354,2.6753,rough,14.0,0,3.726
1010,32.32,-3.5163,2.5794,0.2989,-0.5937,-0.0191,2.6058,rough,14.0,0,3.366
1020,32.64,-3.6867,2.6500,0.3201,-0.5722,-0.2389,2.6988,rough,14.0,0,3.183
1030,32.96,-3.8549,2.7288,0.3500,-0.5171,-0.3263,2.5738,rough,14.0,0,2.997
1040,33.28,-4.0028,2.7974,0.3988,-0.4657,-0.4243,2.5675,rough,14.0,0,2.835
1050,33.60,-4.1968,2.9507,0.4755,-0.3589,-0.4442,2.1806,rough,14.0,0,2.591
1060,33.92,-4.2868,3.1163,0.5537,-0.2221,-0.3440,1.8978,rough,14.0,0,2.435
1070,34.24,-4.3638,3.3025,0.6184,-0.1861,-0.3670,1.8482,rough,14.0,0,2.287
1080,34.56,-4.4284,3.5377,0.7108,-0.1503,-0.4057,1.7454,rough,14.0,0,2.145
1090,34.88,-4.5216,3.8052,0.7851,-0.3489,-0.2754,1.8270,rough,14.0,0,1.988
1100,35.20,-4.6069,3.9828,0.8372,-0.4093,-0.3226,1.9972,rough,14.0,0,1.876
1110,35.52,-4.6947,4.1298,0.9060,-0.4546,-0.4259,2.0987,rough,14.0,0,1.778
1120,35.84,-4.7662,4.2932,0.9893,-0.3954,-0.5120,2.1734,rough,14.0,0,1.708
1130,36.16,-4.8953,4.5200,1.0951,-0.3435,-0.4310,2.4195,rough,14.0,0,1.610
1140,36.48,-5.1096,4.7353,1.1792,-0.2768,-0.1655,2.5693,rough,14.0,0,1.467
1150,36.80,-5.3206,4.8487,1.2085,-0.3062,-0.1066,2.7331,rough,14.0,0,1.326
1160,37.12,-5.5204,4.9411,1.1926,-0.0873,0.0138,2.9211,rough,14.0,0,1.211
1170,37.44,-5.7719,4.9619,1.1715,-0.0268,0.0780,-3.0967,rough,14.0,0,1.041
1180,37.76,-6.0508,4.9754,1.1195,0.2059,0.1653,-2.4861,rough,14.0,1,6.851
1190,38.08,-6.1343,4.9748,1.1007,0.2408,0.0674,-2.0163,rough,14.0,1,6.935
1200,38.40,-6.2043,4.8587,1.0948,0.2296,-0.0664,-1.7826,rough,14.0,1,7.008
1210,38.72,-6.2486,4.5466,1.1275,0.0816,-0.1189,-1.3649,rough,14.0,1,7.069
1220,39.04,-6.1722,4.2585,1.1523,0.0257,-0.0291,-0.9850,rough,14.0,1,7.021
1230,39.36,-5.9289,3.9763,1.1245,0.0045,0.2523,-0.7137,slope,18.0,1,6.819
1240,39.68,-5.5482,3.7202,0.9738,0.2159,0.5509,-0.2707,rough,14.0,1,6.493
1250,40.00,-5.2242,3.6501,0.8246,0.3041,0.3191,0.1329,rough,14.0,1,6.192
1260,40.32,-4.9419,3.6731,0.7373,0.4051,0.1478,0.5789,rough,14.0,1,5.912
1270,40.64,-4.7297,3.7966,0.7611,0.3660,-0.3412,0.5528,rough,14.0,1,5.677
1280,40.96,-4.4616,3.9769,0.8645,0.2678,-0.4773,0.6029,rough,14.0,1,5.376
1290,41.28,-4.1646,4.1831,1.0356,0.2397,-0.3988,0.6752,rough,14.0,1,5.045
1300,41.60,-3.8799,4.4914,1.0933,-0.1074,-0.0103,0.7141,rough,14.0,1,4.717
1310,41.92,-3.4736,4.7315,0.9881,0.0730,0.3342,0.5317,rough,14.0,1,4.288
1320,42.24,-3.1731,4.9369,0.9331,-0.0817,0.0985,0.4786,rough,14.0,1,3.976
1330,42.56,-2.8169,5.1090,0.9210,-0.0886,-0.0081,0.4193,rough,14.0,1,3.617
1340,42.88,-2.3170,5.3821,0.6791,-0.1965,0.7226,0.6608,rough,14.0,1,3.131
1350,43.20,-1.8796,5.7523,0.0747,0.7127,0.4732,1.5851,rough,14.0,1,2.762
1360,43.52,-1.6938,6.3129,-0.3616,0.3986,0.5829,1.5488,rough,14.0,1,2.780
1370,43.84,-1.6158,6.8085,-0.6562,0.2954,0.4439,1.5360,rough,14.0,1,2.969
1380,44.16,-1.5763,7.1691,-0.8226,0.4605,0.4498,1.6096,rough,14.0,1,3.162
1390,44.48,-1.5502,7.4630,-0.9503,0.5749,0.2967,1.7343,rough,14.0,1,3.345
1400,44.80,-1.5174,7.6351,-1.0331,0.6033,-0.0808,2.1755,rough,14.0,1,3.447
1410,45.12,-1.6254,7.8508,-1.0143,0.5874,-0.3602,2.3546,rough,14.0,1,3.680
1420,45.44,-1.8658,8.0841,-0.9546,0.3911,-0.2384,2.4749,rough,14.0,1,4.014
1430,45.76,-2.0980,8.2846,-0.8764,0.3981,-0.3007,2.5287,rough,14.0,1,4.318
1440,46.08,-2.4272,8.4676,-0.8872,0.3205,0.2065,2.8185,rough,14.0,1,4.677
1450,46.40,-2.6896,8.5593,-0.9488,0.3609,0.1902,3.0029,rough,14.0,1,4.926
1460,46.72,-2.9275,8.6100,-0.9869,0.4034,0.0651,-3.1329,rough,14.0,1,5.132
1470,47.04,-3.1526,8.6215,-1.0037,0.3867,-0.0809,-2.9985,rough,14.0,1,5.305
1480,47.36,-3.3075,8.6465,-0.9705,0.5054,-0.4296,-3.0870,rough,14.0,1,5.438
1490,47.68,-3.4489,8.6499,-0.9317,0.3989,-0.4818,3.1180,rough,14.0,1,5.548
1500,48.00,-3.6554,8.6815,-0.8450,0.4242,-0.5166,-3.0353,rough,14.0,1,5.727
1510,48.32,-3.8357,8.6903,-0.7614,0.3827,-0.5820,-2.8647,rough,14.0,1,5.874
1520,48.64,-4.0093,8.6650,-0.6588,0.3229,-0.6273,-2.7526,rough,14.0,1,5.997
1530,48.96,-4.1876,8.6024,-0.5315,0.2803,-0.6603,-2.6363,rough,14.0,1,6.104
1540,49.28,-4.3583,8.5172,-0.3857,0.2472,-0.6995,-2.5453,rough,14.0,1,6.197
1550,49.60,-4.5308,8.4058,-0.2212,0.2203,-0.7118,-2.4621,rough,14.0,1,6.281
1560,49.92,-4.7035,8.2873,-0.0531,0.2206,-0.7200,-2.4161,rough,14.0,1,6.368
1570,50.24,-4.8791,8.1615,0.1227,0.2151,-0.7110,-2.3856,rough,14.0,1,6.460
1580,50.56,-5.0550,8.0456,0.2857,0.1438,-0.7078,-2.2826,rough,14.0,1,6.562
1590,50.88,-5.1992,7.9349,0.3990,0.0895,-0.5811,-2.2024,rough,14.0,1,6.642
1600,51.20,-5.4263,7.7925,0.5000,0.3348,-0.4522,-2.2839,rough,14.0,1,6.790
1610,51.52,-5.6644,7.5939,0.5790,0.4041,-0.3919,-2.1503,rough,14.0,1,6.935
1620,51.84,-5.8487,7.3113,0.7283,0.3366,-0.5065,-2.2043,rough,14.0,1,7.012
1630,52.16,-5.9802,7.1177,0.8394,0.1334,-0.5738,-2.0327,rough,14.0,1,7.079
1640,52.48,-6.0279,7.0528,0.8747,-0.0962,-0.5621,-1.6487,rough,14.0,1,7.106
1650,52.80,-6.0000,7.1397,0.8273,-0.2080,-0.5293,-1.3256,rough,14.0,1,7.104
1660,53.12,-5.9327,7.0946,0.8401,-0.3350,-0.4353,-1.0776,rough,14.0,1,7.027
1670,53.44,-5.8290,6.9308,0.8996,-0.2911,-0.3044,-1.1603,rough,14.0,1,6.882
1680,53.76,-5.6847,6.6540,0.9703,-0.2607,-0.1970,-0.9737,rough,14.0,1,6.672
1690,54.08,-5.4626,6.4156,1.0195,-0.2423,-0.1727,-0.7342,rough,14.0,1,6.403
1700,54.40,-5.2670,6.2675,1.0597,-0.1971,-0.2927,-0.4898,rough,14.0,1,6.181
1710,54.72,-5.0416,6.1967,1.1269,-0.2994,-0.3284,-0.2847,rough,14.0,1,5.947
1720,55.04,-4.7658,6.1856,1.1591,-0.3810,-0.0408,-0.0654,rough,14.0,1,5.674
1730,55.36,-4.3399,6.2066,1.0962,-0.3840,0.1818,0.0382,rough,14.0,1,5.261
1740,55.68,-3.9230,6.2512,0.9855,-0.3132,0.3219,0.1226,rough,14.0,1,4.865
1750,56.00,-3.8179,6.3077,0.9218,-0.3551,0.2186,-0.1533,rough,14.0,1,4.777
1760,56.32,-3.7036,6.3950,0.8655,-0.4406,-0.0489,-0.7215,rough,14.0,1,4.691
1770,56.64,-3.5777,6.4955,0.7933,-0.4809,-0.2676,-1.0372,rough,14.0,1,4.600
1780,56.96,-3.4887,6.5183,0.7575,-0.4130,-0.3819,-1.2787,rough,14.0,1,4.522
1790,57.28,-3.4312,6.5222,0.7198,-0.3544,-0.3199,-1.4000,rough,14.0,1,4.469
1800,57.60,-3.3782,6.5403,0.6823,-0.3379,-0.2748,-1.4696,rough,14.0,1,4.425
1810,57.92,-3.2899,6.5373,0.6453,-0.4122,-0.4800,-1.5968,rough,14.0,1,4.341
1820,58.24,-3.2009,6.4938,0.6209,-0.5341,-0.5617,-1.6771,rough,14.0,1,4.242
1830,58.56,-3.1374,6.5307,0.5638,-0.7050,-0.3948,-1.3443,rough,14.0,1,4.195
1840,58.88,-2.9917,6.4849,0.4422,-0.8989,-0.0509,-1.2080,rough,14.0,1,4.042
1850,59.20,-2.7739,6.3724,0.3607,-0.8663,0.0099,-0.8828,rough,14.0,1,3.799
1860,59.52,-2.4942,6.3228,0.1177,-0.8862,0.1253,-0.7733,rough,14.0,1,3.520
1870,59.84,-2.1337,6.4017,-0.2277,-0.7731,0.1123,-0.4404,rough,14.0,1,3.216
1880,60.16,-1.8014,6.5028,-0.4447,-0.5382,0.2954,-0.2236,rough,14.0,1,2.964
1890,60.48,-1.4644,6.4828,-0.5626,-0.4831,0.2188,-0.2576,rough,14.0,1,2.662
1900,60.80,-1.0465,6.3606,-0.7296,-0.5640,0.4482,-0.5876,rough,14.0,1,2.245
1910,61.12,-0.6526,6.1392,-0.9565,-0.5639,0.3539,-0.6305,rough,14.0,1,1.796
1920,61.44,-0.3467,5.9674,-1.0727,-0.6045,0.2664,-0.5631,slope,18.0,1,1.448
1930,61.76,-0.0635,5.8354,-1.1031,-0.5074,-0.0970,-0.3803,rough,14.0,1,1.145
1940,62.08,0.2898,5.6976,-1.0723,-0.5103,-0.0984,-0.4967,rough,14.0,2,10.282
1950,62.40,0.6957,5.4821,-1.0632,-0.5318,-0.0212,-0.5961,rough,14.0,2,9.829
1960,62.72,1.1437,5.2458,-1.1460,-0.6896,0.1984,-0.8282,rough,14.0,2,9.331
1970,63.04,1.4033,5.1595,-1.2079,-0.6473,-0.2500,-0.6103,rough,14.0,2,9.074
1980,63.36,1.6575,5.0372,-1.1791,-0.5314,-0.3264,-0.5723,rough,14.0,2,8.800
1990,63.68,1.8989,4.8658,-1.0944,-0.3675,-0.3805,-0.4649,rough,14.0,2,8.505
2000,64.00,2.2124,4.7364,-0.9735,-0.2525,-0.2998,-0.6003,rough,14.0,2,8.181
2010,64.32,2.4924,4.5165,-0.9004,-0.0400,-0.2100,-0.7055,rough,14.0,2,7.826
2020,64.64,2.7892,4.2932,-0.8437,-0.1099,-0.1357,-0.8189,slope,18.0,2,7.455
2030,64.96,3.1064,3.9526,-0.8053,-0.2129,-0.2450,-0.9065,slope,18.0,2,6.993
2040,65.28,3.3988,3.6007,-0.6752,-0.2530,-0.3254,-0.8929,rough,14.0,2,6.543
2050,65.60,3.7069,3.2496,-0.6014,-0.3663,-0.1053,-0.9381,rough,14.0,2,6.082
2060,65.92,4.0015,2.8718,-0.6003,-0.4102,0.1643,-1.0434,rough,14.0,2,5.617
2070,66.24,4.2664,2.5551,-0.6750,-0.4464,0.0288,-0.9741,rough,14.0,2,5.214
2080,66.56,4.4588,2.2391,-0.6744,-0.2328,-0.1114,-0.9330,rough,14.0,2,4.873
2090,66.88,4.7199,1.9049,-0.6263,-0.2439,-0.0519,-0.9521,rough,14.0,2,4.469
2100,67.20,4.9402,1.6242,-0.5771,-0.2397,-0.2005,-0.9526,rough,14.0,2,4.132
2110,67.52,5.2235,1.2557,-0.6234,-0.1463,0.1186,-0.8597,rough,14.0,2,3.701
2120,67.84,5.4415,0.9494,-0.6532,0.0511,0.2007,-0.8810,rough,14.0,2,3.364
2130,68.16,5.5435,0.8638,-0.6703,0.0275,-0.1493,-0.8020,rough,14.0,2,3.235
2140,68.48,5.6458,0.8243,-0.6520,-0.0485,-0.2538,-0.5242,slope,18.0,2,3.126
2150,68.80,5.9482,0.7589,-0.5955,-0.1760,-0.2319,-0.2473,rough,14.0,2,2.827
2160,69.12,6.2688,0.7001,-0.5154,-0.1969,-0.3547,-0.3829,rough,14.0,2,2.518
2170,69.44,6.6506,0.5566,-0.4669,-0.2880,-0.0797,-0.5300,rough,14.0,2,2.116
2180,69.76,6.9595,0.3716,-0.4019,-0.2559,-0.2092,-0.5863,rough,14.0,2,1.756
2190,70.08,7.2342,0.1541,-0.3303,-0.1296,-0.2579,-0.6919,rough,14.0,2,1.408
2200,70.40,7.4182,0.0254,-0.2400,-0.0909,-0.5000,-0.8604,rough,14.0,2,1.185
2210,70.72,7.4728,-0.0934,-0.1504,0.0095,-0.8151,-1.0607,rough,14.0,2,1.081
2220,71.04,7.5372,-0.2336,-0.0578,0.0209,-0.7530,-0.8150,rough,14.0,3,5.655
2230,71.36,7.6513,-0.3815,0.0853,-0.0452,-0.7305,-0.4623,rough,14.0,3,5.622
2240,71.68,7.8271,-0.4638,0.2178,-0.2924,-0.5279,-0.1618,rough,14.0,3,5.685
2250,72.00,8.1538,-0.4204,0.2771,-0.6625,-0.2148,-0.0114,rough,14.0,3,5.950
2260,72.32,8.5320,-0.3628,0.2080,-0.7298,0.2878,-0.1754,rough,14.0,3,6.270
2270,72.64,8.8129,-0.2256,-0.0252,-0.7227,-0.0837,-0.5263,slope,18.0,3,6.572
2280,72.96,8.9443,-0.0917,-0.1572,-0.6273,-0.3213,-0.6821,slope,18.0,3,6.759
2290,73.28,9.0523,-0.0832,-0.1780,-0.4022,-0.3664,-0.8632,slope,18.0,3,6.847
2300,73.60,9.1412,-0.0789,-0.1741,-0.4954,-0.5604,-0.7313,rough,14.0,3,6.918
2310,73.92,9.2516,-0.1033,-0.1955,-0.4144,-0.3397,-1.0060,slope,18.0,3,6.988
2320,74.24,9.3136,-0.1883,-0.1609,-0.3468,-0.4806,-1.0687,slope,18.0,3,6.984
2330,74.56,9.3769,-0.2822,-0.1284,-0.3506,-0.4989,-1.1742,slope,18.0,3,6.977
2340,74.88,9.4204,-0.3531,-0.0899,-0.3167,-0.5024,-1.2668,slope,18.0,3,6.969
2350,75.20,9.4655,-0.3914,-0.0611,-0.3523,-0.5368,-1.2057,slope,18.0,3,6.983
2360,75.52,9.5098,-0.4141,-0.0513,-0.3731,-0.5502,-1.1132,slope,18.0,3,7.006
2370,75.84,9.5618,-0.4348,-0.0442,-0.3603,-0.5864,-1.0859,rough,14.0,3,7.036
2380,76.16,9.6076,-0.4422,-0.0470,-0.3388,-0.6139,-1.0694,rough,14.0,3,7.070
2390,76.48,9.6525,-0.4314,-0.0616,-0.3422,-0.5956,-1.0145,rough,14.0,3,7.113
2400,76.80,9.7132,-0.4087,-0.0902,-0.3692,-0.5129,-0.9599,rough,14.0,3,7.175
2410,77.12,9.7370,-0.3993,-0.0951,-0.2883,-0.5368,-1.0958,rough,14.0,3,7.200
2420,77.44,9.7485,-0.3897,-0.1043,-0.2573,-0.5458,-1.1776,rough,14.0,3,7.215
2430,77.76,9.7611,-0.3838,-0.1074,-0.1893,-0.5564,-1.2916,rough,14.0,3,7.229
2440,78.08,9.7759,-0.3492,-0.1359,-0.2578,-0.5457,-1.2174,rough,14.0,3,7.261
2450,78.40,9.8057,-0.3065,-0.1721,-0.2857,-0.5314,-1.2287,rough,14.0,3,7.310
2460,78.72,9.8356,-0.2803,-0.1979,-0.3480,-0.5230,-1.1838,rough,14.0,3,7.349
2470,79.04,9.8727,-0.2731,-0.2137,-0.3440,-0.5236,-1.2530,rough,14.0,3,7.384
2480,79.36,9.8998,-0.2494,-0.2362,-0.3279,-0.5842,-1.3042,rough,14.0,3,7.420
2490,79.68,9.9240,-0.2260,-0.2579,-0.3979,-0.5629,-1.2627,rough,14.0,3,7.453
2500,80.00,9.9501,-0.2060,-0.2796,-0.4362,-0.5646,-1.2456,rough,14.0,3,7.486
2510,80.32,9.9830,-0.1982,-0.2939,-0.4425,-0.5845,-1.2913,rough,14.0,3,7.517
2520,80.64,10.0095,-0.1886,-0.3078,-0.4607,-0.5951,-1.3028,rough,14.0,3,7.544
2530,80.96,10.0338,-0.1819,-0.3193,-0.4672,-0.6085,-1.3319,rough,14.0,3,7.568
2540,81.28,10.0524,-0.1702,-0.3349,-0.4814,-0.6054,-1.3381,rough,14.0,3,7.590
2550,81.60,10.0646,-0.1395,-0.3625,-0.5789,-0.5614,-1.1801,rough,14.0,3,7.618
2560,81.92,10.0974,-0.0708,-0.4305,-0.7452,-0.3944,-0.8793,rough,14.0,3,7.684
2570,82.24,10.1859,-0.0393,-0.4924,-0.7670,-0.4090,-0.8712,rough,14.0,3,7.774
2580,82.56,10.2533,0.0100,-0.5615,-0.7997,-0.3723,-0.7447,rough,14.0,3,7.858
2590,82.88,10.3191,0.0786,-0.6428,-0.8096,-0.4479,-0.7348,rough,14.0,3,7.951
2600,83.20,10.3724,0.1648,-0.7343,-0.8235,-0.5383,-0.7671,rough,14.0,3,8.044
2610,83.52,10.4251,0.2567,-0.8347,-0.8570,-0.4331,-0.5941,rough,14.0,3,8.141
2620,83.84,10.5051,0.3113,-0.9152,-0.6470,-0.2074,-0.5985,rough,14.0,3,8.237
2630,84.16,10.5431,0.3338,-0.9367,-0.5723,-0.3411,-0.8091,rough,14.0,3,8.281
2640,84.48,10.5732,0.3443,-0.9344,-0.4558,-0.3485,-0.9965,rough,14.0,3,8.312
2650,84.80,10.5727,0.3542,-0.9381,-0.3291,-0.4580,-1.0854,rough,14.0,3,8.317
2660,85.12,10.5740,0.3692,-0.9509,-0.2285,-0.5349,-1.1725,rough,14.0,3,8.327
2670,85.44,10.5820,0.3753,-0.9579,-0.1640,-0.5755,-1.2610,rough,14.0,3,8.337
2680,85.76,10.5880,0.3811,-0.9642,-0.1060,-0.6045,-1.3353,rough,14.0,3,8.345
2690,86.08,10.5940,0.3859,-0.9695,-0.0646,-0.6168,-1.3961,rough,14.0,0,17.484
2700,86.40,10.6022,0.3878,-0.9730,-0.0513,-0.6030,-1.4432,rough,14.0,0,17.492
2710,86.72,10.6078,0.3907,-0.9763,-0.0397,-0.5918,-1.4776,rough,14.0,0,17.497
2720,87.04,10.6116,0.3942,-0.9797,-0.0299,-0.5820,-1.5027,rough,14.0,0,17.500
2730,87.36,10.6141,0.3984,-0.9831,-0.0214,-0.5732,-1.5212,rough,14.0,0,17.501
2740,87.68,10.6157,0.4030,-0.9864,-0.0139,-0.5653,-1.5349,rough,14.0,0,17.502
2750,88.00,10.6167,0.4079,-0.9898,-0.0071,-0.5580,-1.5451,rough,14.0,0,17.502
2760,88.32,10.6172,0.4132,-0.9933,-0.0008,-0.5512,-1.5527,rough,14.0,0,17.501
2770,88.64,10.6174,0.4187,-0.9967,0.0052,-0.5447,-1.5585,rough,14.0,0,17.500
2780,88.96,10.6173,0.4243,-1.0002,0.0110,-0.5385,-1.5630,rough,14.0,0,17.499
2790,89.28,10.6170,0.4300,-1.0037,0.0166,-0.5325,-1.5665,rough,14.0,0,17.497
2800,89.60,10.6167,0.4359,-1.0073,0.0221,-0.5266,-1.5693,rough,14.0,0,17.496
2810,89.92,10.6162,0.4418,-1.0108,0.0275,-0.5208,-1.5715,rough,14.0,0,17.494
