step,time_s,x,y,z,roll,pitch,yaw,terrain,speed,target_idx,dist_to_target
10,0.32,0.9574,-0.7750,0.1733,-0.0000,-0.0140,0.0000,flat,18.0,0,5.769
20,0.64,1.2173,-0.7761,0.1793,0.0000,0.0029,-0.0300,flat,18.0,0,5.573
30,0.96,1.5916,-0.8027,0.1797,-0.0002,-0.0001,-0.3460,flat,18.0,0,5.283
40,1.28,1.9955,-0.9961,0.1799,-0.0004,0.0003,-0.6608,flat,18.0,0,4.862
50,1.60,2.3587,-1.3316,0.1799,-0.0003,0.0000,-0.8479,flat,18.0,0,4.369
60,1.92,2.6885,-1.7475,0.1799,-0.0001,-0.0000,-0.9638,flat,18.0,0,3.840
70,2.24,2.9976,-2.2152,0.1799,-0.0001,0.0000,-1.0098,flat,18.0,0,3.290
80,2.56,3.3020,-2.6959,0.1799,0.0000,0.0000,-0.9943,flat,18.0,0,2.739
90,2.88,3.6107,-3.1566,0.1799,0.0002,0.0000,-0.9504,flat,18.0,0,2.206
100,3.20,3.9170,-3.5660,0.1799,0.0001,0.0000,-0.8888,flat,18.0,0,1.717
110,3.52,4.2006,-3.9005,0.1799,0.0001,0.0001,-0.8384,flat,18.0,0,1.301
120,3.84,4.4464,-4.1626,0.1799,0.0001,0.0001,-0.7816,flat,18.0,1,12.165
130,4.16,4.6508,-4.3359,0.1801,0.0021,-0.0002,-0.5268,transition,15.0,1,12.390
140,4.48,4.8056,-4.3972,0.1814,-0.0003,-0.0125,-0.1944,slope,18.0,1,12.495
150,4.80,4.9563,-4.4200,0.1875,-0.0022,-0.0505,0.2976,slope,18.0,1,12.563
160,5.12,5.1871,-4.2630,0.1989,-0.0378,-0.0756,0.5851,slope,18.0,1,12.489
170,5.44,5.4287,-3.9876,0.2098,-0.1138,-0.0572,0.9042,slope,18.0,1,12.314
180,5.76,5.6087,-3.6074,0.2128,-0.1370,0.0238,1.2235,slope,18.0,1,12.027
190,6.08,5.7301,-3.1581,0.2041,-0.1123,0.0176,1.3683,slope,18.0,1,11.662
200,6.40,5.7704,-2.6790,0.1892,-0.0508,0.0394,1.6337,slope,18.0,1,11.242
210,6.72,5.7129,-2.2432,0.1752,-0.0253,0.0008,1.8843,flat,18.0,1,10.824
220,7.04,5.5348,-1.7265,0.1796,-0.0013,0.0001,1.9483,flat,18.0,1,10.281
230,7.36,5.3219,-1.2042,0.1798,-0.0000,0.0000,1.9812,flat,18.0,1,9.719
240,7.68,5.0915,-0.6848,0.1799,0.0001,-0.0000,2.0015,flat,18.0,1,9.151
250,8.00,4.8506,-0.1659,0.1799,0.0000,-0.0000,2.0111,flat,18.0,1,8.579
260,8.32,4.6049,0.3539,0.1799,0.0000,-0.0000,2.0133,flat,18.0,1,8.004
270,8.64,4.3589,0.8738,0.1799,-0.0000,0.0000,2.0111,flat,18.0,1,7.429
280,8.96,4.1149,1.3937,0.1799,-0.0000,0.0000,2.0063,flat,18.0,1,6.855
290,9.28,3.8737,1.9146,0.1799,-0.0000,-0.0000,2.0010,flat,18.0,1,6.281
300,9.60,3.6349,2.4371,0.1799,-0.0000,-0.0000,1.9965,flat,18.0,1,5.708
310,9.92,3.3982,2.9609,0.1799,-0.0000,-0.0000,1.9932,flat,18.0,1,5.134
320,10.24,3.1627,3.4858,0.1799,-0.0000,-0.0000,1.9914,transition,15.0,1,4.559
330,10.56,2.9671,3.9213,0.1799,0.0000,0.0001,2.0022,rough,14.0,1,4.083
340,10.88,2.7940,4.2932,0.1790,0.0174,-0.0126,2.0247,rough,14.0,1,3.674
350,11.20,2.6021,4.6307,0.1975,-0.0633,-0.0843,2.0532,rough,14.0,1,3.286
360,11.52,2.4520,4.8694,0.2510,-0.1015,-0.4046,2.1257,rough,14.0,1,3.004
370,11.84,2.2398,5.1198,0.3206,-0.2848,-0.2907,2.1922,rough,14.0,1,2.684
380,12.16,2.0781,5.3113,0.4006,-0.3458,-0.3565,2.2596,rough,14.0,1,2.440
390,12.48,1.8663,5.5559,0.4885,-0.3786,-0.2910,2.1625,rough,14.0,1,2.130
400,12.80,1.6848,5.7829,0.5860,-0.3589,-0.3431,2.0752,slope,18.0,1,1.851
410,13.12,1.4935,6.0887,0.7162,-0.3884,-0.3767,2.0675,slope,18.0,1,1.498
420,13.44,1.3129,6.3565,0.8433,-0.4755,-0.4527,2.1841,slope,18.0,1,1.190
430,13.76,1.1021,6.5963,0.9709,-0.4947,-0.3809,2.3095,slope,18.0,2,14.609
440,14.08,0.8043,6.8273,1.0912,-0.5714,-0.3256,2.5084,slope,18.0,2,14.613
450,14.40,0.3508,7.0589,1.1946,-0.5809,-0.1693,2.6698,slope,18.0,2,14.538
460,14.72,-0.1467,7.2574,1.2316,-0.5016,-0.0412,2.7541,slope,18.0,2,14.428
470,15.04,-0.6659,7.4273,1.2357,-0.4234,-0.0111,2.8424,slope,18.0,2,14.303
480,15.36,-1.2009,7.5715,1.2358,-0.3962,-0.0138,2.8984,slope,18.0,2,14.167
490,15.68,-1.7308,7.6846,1.2430,-0.4037,-0.0310,2.9264,slope,18.0,2,14.026
500,16.00,-2.2456,7.7922,1.2395,-0.3595,0.0183,2.9664,slope,18.0,2,13.906
510,16.32,-2.7556,7.8847,1.1811,-0.2679,0.1635,2.9977,slope,18.0,2,13.792
520,16.64,-3.2388,7.9508,1.0868,-0.2056,0.2208,3.0265,slope,18.0,2,13.682
530,16.96,-3.7031,7.9982,0.9683,-0.2015,0.2493,3.0467,slope,18.0,2,13.576
540,17.28,-4.1483,8.0213,0.8662,-0.1881,0.2151,3.1060,slope,18.0,2,13.467
550,17.60,-4.5869,8.0159,0.7829,-0.1765,0.1384,-3.1078,slope,18.0,2,13.347
560,17.92,-5.0413,7.9796,0.7206,-0.1731,0.1174,-3.0424,slope,18.0,2,13.206
570,18.24,-5.5160,7.9112,0.6561,-0.1788,0.1567,-2.9965,slope,18.0,2,13.044
580,18.56,-6.0095,7.8286,0.5694,-0.1938,0.2146,-2.9844,slope,18.0,2,12.882
590,18.88,-6.5094,7.7402,0.4552,-0.1853,0.2475,-2.9632,slope,18.0,2,12.730
600,19.20,-6.9679,7.6565,0.3293,-0.1174,0.2910,-2.9377,rough,14.0,2,12.605
610,19.52,-7.3830,7.5544,0.2276,-0.0971,0.1675,-2.8956,slope,18.0,2,12.479
620,19.84,-7.8863,7.4335,0.1881,0.0153,0.0077,-2.8600,slope,18.0,2,12.348
630,20.16,-8.3083,7.3133,0.1893,0.0489,-0.0014,-2.7864,flat,18.0,2,12.235
640,20.48,-8.6455,7.1816,0.1877,0.0344,0.0076,-2.7229,flat,18.0,2,12.119
650,20.80,-8.9229,7.0558,0.1834,0.0150,-0.0005,-2.6466,flat,18.0,2,12.014
660,21.12,-9.1437,6.9382,0.1821,0.0010,0.0044,-2.5465,flat,18.0,2,11.918
670,21.44,-9.3073,6.8306,0.1811,0.0010,0.0057,-2.4175,flat,18.0,2,11.830
680,21.76,-9.4121,6.7239,0.1805,0.0006,0.0042,-2.2693,flat,18.0,2,11.737
690,22.08,-9.4991,6.6184,0.1801,0.0011,0.0013,-2.1053,flat,18.0,2,11.644
700,22.40,-9.5648,6.5204,0.1799,0.0004,0.0004,-1.9407,flat,18.0,2,11.556
710,22.72,-9.6109,6.4294,0.1798,0.0000,-0.0000,-1.7772,flat,18.0,2,11.473
720,23.04,-9.6444,6.3441,0.1799,0.0000,0.0000,-1.6143,flat,18.0,2,11.394
730,23.36,-9.6640,6.2647,0.1799,0.0000,0.0000,-1.4635,flat,18.0,2,11.318
740,23.68,-9.6674,6.1890,0.1799,0.0000,0.0000,-1.3431,flat,18.0,2,11.244
750,24.00,-9.6579,6.1146,0.1799,0.0000,-0.0000,-1.2452,flat,18.0,2,11.169
760,24.32,-9.6371,6.0392,0.1799,0.0000,-0.0000,-1.1642,flat,18.0,2,11.091
770,24.64,-9.6012,5.9724,0.1821,-0.0051,-0.0097,-1.1287,flat,18.0,2,11.020
780,24.96,-9.5602,5.9010,0.1846,-0.0048,-0.0269,-1.0937,flat,18.0,2,10.943
790,25.28,-9.5118,5.8213,0.1873,-0.0042,-0.0463,-1.0596,flat,18.0,2,10.857
800,25.60,-9.4509,5.7292,0.1890,-0.0131,-0.0448,-1.0267,flat,18.0,2,10.757
810,25.92,-9.3765,5.6237,0.1915,-0.0303,-0.0353,-0.9941,flat,18.0,2,10.642
820,26.24,-9.2911,5.4984,0.1936,-0.0386,-0.0166,-0.9588,flat,18.0,2,10.506
830,26.56,-9.1895,5.3624,0.1979,-0.0315,-0.0063,-0.9317,flat,18.0,2,10.358
840,26.88,-9.0638,5.2025,0.1919,-0.0417,0.0240,-0.9050,flat,18.0,2,10.184
850,27.20,-8.9137,5.0270,0.1921,-0.0560,0.0095,-0.8777,slope,18.0,2,9.994
860,27.52,-8.7412,4.8207,0.1845,-0.0235,0.0015,-0.8568,flat,18.0,2,9.772
870,27.84,-8.5391,4.5855,0.1798,-0.0003,-0.0004,-0.8382,flat,18.0,2,9.522
880,28.16,-8.2986,4.3229,0.1835,-0.0007,-0.0244,-0.8238,flat,18.0,2,9.246
890,28.48,-8.0090,4.0210,0.1899,-0.0214,-0.0302,-0.8134,flat,18.0,2,8.936
900,28.80,-7.6674,3.6741,0.2026,-0.0595,-0.0422,-0.8063,flat,18.0,2,8.591
910,29.12,-7.2797,3.2674,0.2008,-0.0415,0.0513,-0.8328,slope,18.0,2,8.205
920,29.44,-6.9847,2.9013,0.1876,-0.0366,0.0101,-1.0999,flat,18.0,2,7.868
930,29.76,-6.7956,2.4716,0.1810,0.0010,-0.0071,-1.4433,flat,18.0,2,7.467
940,30.08,-6.7633,1.9923,0.1967,0.0162,-0.0703,-1.7706,flat,18.0,2,6.999
950,30.40,-6.8878,1.4652,0.1996,0.0518,0.0011,-1.7526,flat,18.0,2,6.459
960,30.72,-6.9749,0.9044,0.1861,0.0153,0.0369,-1.6982,flat,18.0,2,5.891
970,31.04,-7.0343,0.3459,0.1879,-0.0278,-0.0092,-1.6798,flat,18.0,2,5.330
980,31.36,-7.0932,-0.2291,0.1877,-0.0541,0.0173,-1.6866,slope,18.0,2,4.753
990,31.68,-7.1705,-0.7834,0.1866,-0.0303,0.0123,-1.7210,flat,18.0,2,4.194
1000,32.00,-7.2648,-1.3379,0.1838,0.0088,0.0003,-1.7330,flat,18.0,2,3.631
1010,32.32,-7.3646,-1.9029,0.1839,0.0264,-0.0011,-1.7396,flat,18.0,2,3.058
1020,32.64,-7.4552,-2.4642,0.1848,0.0003,-0.0296,-1.7304,flat,18.0,2,2.489
1030,32.96,-7.5379,-3.0181,0.2069,-0.0204,-0.0759,-1.7209,flat,18.0,2,1.929
1040,33.28,-7.6151,-3.5854,0.2175,-0.0516,0.0006,-1.7155,slope,18.0,2,1.358
1050,33.60,-7.6972,-4.1341,0.1957,-0.0359,0.0638,-1.7102,slope,18.0,3,1.045
1060,33.92,-7.7748,-4.6394,0.1781,0.0087,-0.0016,-1.6910,flat,18.0,0,13.120
1070,34.24,-7.8303,-5.1448,0.1797,0.0010,-0.0001,-1.6399,flat,18.0,0,13.190
1080,34.56,-7.8599,-5.6421,0.1799,0.0003,-0.0000,-1.5768,flat,18.0,0,13.252
1090,34.88,-7.8590,-6.1178,0.1997,0.0101,-0.0873,-1.5175,slope,18.0,0,13.300
1100,35.20,-7.8174,-6.6204,0.2243,-0.0298,-0.0295,-1.4837,flat,18.0,0,13.329
1110,35.52,-7.7664,-7.1400,0.2127,-0.0367,0.0522,-1.4630,flat,18.0,0,13.370
1120,35.84,-7.7080,-7.6572,0.1892,0.0006,0.0534,-1.4200,slope,18.0,0,13.424
1130,36.16,-7.6237,-8.1322,0.1789,-0.0051,-0.0051,-1.3725,flat,18.0,0,13.462
1140,36.48,-7.5431,-8.5214,0.1805,0.0035,-0.0008,-1.2973,flat,18.0,0,13.495
1150,36.80,-7.4604,-8.8115,0.1820,0.0005,-0.0130,-1.1564,flat,18.0,0,13.505
1160,37.12,-7.3559,-9.0413,0.1864,0.0083,-0.0085,-1.0384,flat,18.0,0,13.481
1170,37.44,-7.2475,-9.2177,0.1864,-0.0076,-0.0033,-0.8969,flat,18.0,0,13.440
1180,37.76,-7.1326,-9.3694,0.1913,-0.0262,0.0248,-0.7678,flat,18.0,0,13.386
1190,38.08,-7.0315,-9.4688,0.1865,-0.0160,0.0215,-0.6136,flat,18.0,0,13.329
1200,38.40,-6.9285,-9.5368,0.1866,-0.0084,0.0363,-0.5019,flat,18.0,0,13.259
1210,38.72,-6.8221,-9.5813,0.1847,-0.0054,0.0273,-0.4142,flat,18.0,0,13.177
1220,39.04,-6.7094,-9.6138,0.1816,-0.0057,0.0063,-0.3405,flat,18.0,0,13.086
1230,39.36,-6.6165,-9.6408,0.1799,-0.0000,0.0003,-0.2524,flat,18.0,0,13.011
1240,39.68,-6.5376,-9.6660,0.1799,0.0000,0.0000,-0.0880,flat,18.0,0,12.949
1250,40.00,-6.4632,-9.6889,0.1799,0.0000,0.0000,0.0696,flat,18.0,0,12.890
1260,40.32,-6.3933,-9.6972,0.1799,0.0000,0.0000,0.1974,flat,18.0,0,12.829
1270,40.64,-6.3255,-9.6926,0.1799,0.0000,-0.0000,0.3005,flat,18.0,0,12.765
1280,40.96,-6.2575,-9.6773,0.1799,0.0000,-0.0000,0.3854,flat,18.0,0,12.697
1290,41.28,-6.1875,-9.6521,0.1799,0.0000,-0.0000,0.4563,flat,18.0,0,12.622
1300,41.60,-6.1136,-9.6175,0.1799,0.0004,-0.0002,0.5161,flat,18.0,0,12.541
1310,41.92,-6.0346,-9.5797,0.1810,0.0059,-0.0017,0.5671,flat,18.0,0,12.453
1320,42.24,-5.9513,-9.5323,0.1826,0.0075,-0.0108,0.6108,flat,18.0,0,12.358
1330,42.56,-5.8616,-9.4738,0.1847,0.0068,-0.0253,0.6485,flat,18.0,0,12.252
1340,42.88,-5.7616,-9.4016,0.1857,0.0065,-0.0330,0.6813,flat,18.0,0,12.132
1350,43.20,-5.6446,-9.3127,0.1858,0.0210,-0.0141,0.7100,flat,18.0,0,11.989
1360,43.52,-5.5144,-9.2045,0.1843,0.0231,0.0000,0.7336,flat,18.0,0,11.826
1370,43.84,-5.3691,-9.0743,0.1862,0.0286,-0.0004,0.7545,flat,18.0,0,11.641
1380,44.16,-5.2006,-8.9159,0.1867,0.0310,0.0018,0.7724,flat,18.0,0,11.425
1390,44.48,-5.0114,-8.7245,0.1828,0.0128,0.0043,0.7885,flat,18.0,0,11.177
1400,44.80,-4.7932,-8.4985,0.1815,0.0091,0.0009,0.8012,flat,18.0,0,10.890
1410,45.12,-4.5341,-8.2251,0.1764,0.0002,0.0236,0.8124,flat,18.0,0,10.551
1420,45.44,-4.2387,-7.9120,0.1845,0.0019,-0.0295,0.8192,flat,18.0,0,10.166
1430,45.76,-3.8801,-7.5366,0.1925,0.0348,-0.0254,0.8211,flat,18.0,0,9.705
1440,46.08,-3.4849,-7.1274,0.1919,0.0388,0.0306,0.7861,flat,18.0,0,9.206
1450,46.40,-3.0856,-6.7393,0.1792,0.0036,-0.0085,0.7516,flat,18.0,0,8.717
1460,46.72,-2.6721,-6.3626,0.1820,0.0010,-0.0143,0.7083,flat,18.0,0,8.226
1470,47.04,-2.2376,-6.0058,0.1865,0.0195,-0.0052,0.6588,flat,18.0,0,7.726
1480,47.36,-1.7889,-5.6753,0.1904,0.0333,0.0001,0.6223,flat,18.0,0,7.227
1490,47.68,-1.3303,-5.3560,0.1842,0.0083,0.0330,0.5817,flat,18.0,0,6.727
1500,48.00,-0.8658,-5.0628,0.1797,-0.0001,-0.0015,0.5368,flat,18.0,0,6.234
1510,48.32,-0.3817,-4.7877,0.1799,-0.0002,-0.0001,0.4722,flat,18.0,0,5.733
1520,48.64,0.1211,-4.5460,0.1799,-0.0001,-0.0000,0.4190,flat,18.0,0,5.224
1530,48.96,0.6209,-4.3275,0.1828,-0.0152,-0.0021,0.3788,flat,18.0,0,4.728
1540,49.28,1.1359,-4.1357,0.1808,-0.0056,0.0005,0.3050,flat,18.0,0,4.226
1550,49.60,1.6632,-3.9809,0.1783,-0.0017,0.0000,0.2263,flat,18.0,0,3.721
1560,49.92,2.2012,-3.8694,0.1799,-0.0003,0.0000,0.1144,flat,18.0,0,3.210
1570,50.24,2.7440,-3.8199,0.1799,-0.0002,-0.0000,-0.0137,flat,18.0,0,2.693
1580,50.56,3.2829,-3.8406,0.1799,-0.0001,0.0000,-0.1430,flat,18.0,0,2.171
1590,50.88,3.7771,-3.9237,0.1799,-0.0000,-0.0001,-0.2434,flat,18.0,0,1.677
1600,51.20,4.1951,-4.0294,0.1799,-0.0001,0.0001,-0.2826,flat,18.0,0,1.250
1610,51.52,4.5223,-4.1265,0.1799,-0.0001,0.0001,-0.3255,transition,15.0,1,12.152
1620,51.84,4.7945,-4.2219,0.1814,-0.0004,-0.0117,-0.0371,slope,18.0,1,12.324
1630,52.16,5.1607,-4.2105,0.1937,-0.0353,-0.0465,0.4272,slope,18.0,1,12.431
1640,52.48,5.4612,-3.9974,0.2148,-0.1060,-0.0951,0.6973,slope,18.0,1,12.335
1650,52.80,5.6759,-3.6824,0.2303,-0.1848,-0.0777,1.0084,slope,18.0,1,12.122
1660,53.12,5.8042,-3.2759,0.2238,-0.2127,0.0104,1.3189,slope,18.0,1,11.800
1670,53.44,5.8987,-2.8327,0.2025,-0.1159,0.0024,1.4569,slope,18.0,1,11.436
1680,53.76,5.9054,-2.3593,0.1781,-0.0001,0.0154,1.7511,slope,18.0,1,11.013
1690,54.08,5.7823,-1.8714,0.1796,0.0006,0.0002,1.9407,flat,18.0,1,10.521
1700,54.40,5.5698,-1.3684,0.1799,0.0001,0.0000,2.0180,flat,18.0,1,9.977
1710,54.72,5.3213,-0.8704,0.1799,0.0002,-0.0000,2.0669,flat,18.0,1,9.420
1720,55.04,5.0461,-0.3730,0.1799,0.0001,-0.0000,2.0859,flat,18.0,1,8.852
1730,55.36,4.7641,0.1262,0.1799,-0.0000,0.0000,2.0797,flat,18.0,1,8.279
1740,55.68,4.4900,0.6246,0.1799,-0.0001,0.0000,2.0601,flat,18.0,1,7.711
1750,56.00,4.2275,1.1274,0.1799,-0.0001,0.0000,2.0358,flat,18.0,1,7.144
1760,56.32,3.9772,1.6367,0.1799,-0.0001,0.0000,2.0104,flat,18.0,1,6.576
1770,56.64,3.7514,2.1489,0.1799,-0.0002,0.0000,1.9394,flat,18.0,1,6.017
1780,56.96,3.5578,2.6673,0.1799,-0.0002,0.0000,1.8999,flat,18.0,1,5.468
1790,57.28,3.3867,3.1807,0.1799,-0.0001,0.0000,1.8764,flat,18.0,1,4.934
1800,57.60,3.2482,3.6242,0.1799,-0.0000,0.0001,1.8704,rough,14.0,1,4.480
1810,57.92,3.1281,4.0205,0.1799,-0.0001,0.0000,1.8472,rough,14.0,1,4.077
1820,58.24,3.0203,4.3960,0.1867,-0.0045,-0.0420,1.8499,rough,14.0,1,3.702
1830,58.56,2.8856,4.7048,0.2317,-0.1602,-0.1744,1.9134,rough,14.0,1,3.369
1840,58.88,2.7507,4.9609,0.3003,-0.2808,-0.4335,1.9804,rough,14.0,1,3.082
1850,59.20,2.6224,5.1979,0.4029,-0.2760,-0.4889,2.0315,rough,14.0,1,2.814
1860,59.52,2.4576,5.4878,0.5571,-0.3627,-0.5068,2.0138,rough,14.0,1,2.482
1870,59.84,2.3000,5.7932,0.7274,-0.4030,-0.5092,2.0086,slope,18.0,1,2.142
1880,60.16,2.1313,6.1038,0.8920,-0.4129,-0.4801,1.9294,slope,18.0,1,1.793
1890,60.48,1.9984,6.4288,1.0655,-0.4737,-0.5358,1.9226,slope,18.0,1,1.459
1900,60.80,1.8912,6.7135,1.2469,-0.4440,-0.5499,1.8938,slope,18.0,1,1.181
1910,61.12,1.8026,6.9257,1.3732,-0.4316,-0.5555,1.9299,rough,14.0,2,15.304
1920,61.44,1.7218,7.1295,1.5007,-0.3359,-0.6027,1.8172,rough,14.0,2,15.412
1930,61.76,1.6663,7.2888,1.5980,-0.3061,-0.5563,1.7621,rough,14.0,2,15.502
1940,62.08,1.6059,7.2915,1.5860,-0.3289,-0.5463,1.8077,rough,14.0,2,15.467
1950,62.40,1.5354,7.1498,1.4719,-0.4007,-0.5686,1.9331,rough,14.0,2,15.312
1960,62.72,1.4923,6.9542,1.3127,-0.2862,-0.6314,1.7190,slope,18.0,2,15.132
1970,63.04,1.4893,6.7186,1.1330,-0.2230,-0.6262,1.6012,slope,18.0,2,14.946
1980,63.36,1.4887,6.5405,1.0074,-0.2266,-0.6153,1.6336,slope,18.0,2,14.807
1990,63.68,1.4748,6.4375,0.9281,-0.2711,-0.6000,1.6986,slope,18.0,2,14.719
2000,64.00,1.4428,6.4108,0.9044,-0.2726,-0.5976,1.7228,slope,18.0,2,14.678
2010,64.32,1.4027,6.4581,0.9283,-0.2763,-0.5916,1.7282,slope,18.0,2,14.689
2020,64.64,1.3597,6.5737,1.0021,-0.2717,-0.5881,1.7257,slope,18.0,2,14.752
2030,64.96,1.3157,6.7618,1.1290,-0.2529,-0.6066,1.7210,slope,18.0,2,14.871
2040,65.28,1.2897,6.8875,1.2187,-0.2388,-0.6470,1.6834,slope,18.0,2,14.954
2050,65.60,1.2835,6.8525,1.1911,-0.1986,-0.6544,1.6165,slope,18.0,2,14.923
2060,65.92,1.2835,6.7592,1.1225,-0.1762,-0.6339,1.5863,slope,18.0,2,14.849
2070,66.24,1.2829,6.6665,1.0524,-0.1917,-0.6101,1.6018,slope,18.0,2,14.776
2080,66.56,1.2811,6.5789,0.9919,-0.2211,-0.5911,1.6742,slope,18.0,2,14.707
2090,66.88,1.2629,6.5402,0.9614,-0.2440,-0.5802,1.7264,slope,18.0,2,14.665
2100,67.20,1.2241,6.6004,0.9960,-0.2676,-0.5612,1.7824,slope,18.0,2,14.688
2110,67.52,1.1651,6.7513,1.0926,-0.2653,-0.5875,1.7891,slope,18.0,2,14.770
2120,67.84,1.1172,6.9029,1.1936,-0.2735,-0.6101,1.7990,slope,18.0,2,14.861
2130,68.16,1.0863,6.9224,1.2026,-0.3745,-0.5582,1.9855,slope,18.0,2,14.858
2140,68.48,0.9907,6.9314,1.1918,-0.4856,-0.4590,2.2265,slope,18.0,2,14.808
2150,68.80,0.8300,6.9823,1.2092,-0.5326,-0.4834,2.2758,slope,18.0,2,14.753
2160,69.12,0.6319,7.0888,1.2468,-0.4605,-0.3993,2.2546,slope,18.0,2,14.723
2170,69.44,0.3701,7.2844,1.3284,-0.4685,-0.3544,2.2610,slope,18.0,2,14.735
2180,69.76,0.0174,7.6313,1.4437,-0.4403,-0.2111,2.2792,slope,18.0,2,14.832
2190,70.08,-0.3169,8.0066,1.5323,-0.4008,-0.1709,2.2959,slope,18.0,2,14.979
2200,70.40,-0.6160,8.3237,1.5798,-0.3735,-0.0978,2.3635,slope,18.0,2,15.107
2210,70.72,-0.8898,8.5743,1.6082,-0.3112,-0.0762,2.4472,slope,18.0,2,15.199
2220,71.04,-1.1443,8.7572,1.6088,-0.2754,-0.0136,2.5537,slope,18.0,2,15.247
2230,71.36,-1.4096,8.8979,1.5934,-0.2702,0.0411,2.6463,slope,18.0,2,15.259
2240,71.68,-1.6629,8.9996,1.5694,-0.2481,0.1358,2.7508,slope,18.0,2,15.246
2250,72.00,-1.9018,9.0820,1.5320,-0.1999,0.1384,2.8272,slope,18.0,2,15.225
2260,72.32,-2.1396,9.1469,1.4865,-0.1611,0.1800,2.8862,slope,18.0,2,15.193
2270,72.64,-2.3479,9.1785,1.4476,-0.1261,0.1883,3.0068,slope,18.0,2,15.145
2280,72.96,-2.5349,9.1482,1.4067,-0.0806,0.1977,-3.0421,slope,18.0,2,15.049
2290,73.28,-2.7553,9.1108,1.3620,-0.0626,0.1990,-2.9525,slope,18.0,2,14.937
2300,73.60,-2.9888,9.0600,1.3197,-0.0932,0.2133,-2.9055,slope,18.0,2,14.810
2310,73.92,-3.2242,8.9991,1.2690,-0.1059,0.2289,-2.8539,slope,18.0,2,14.676
2320,74.24,-3.4731,8.9176,1.2082,-0.1339,0.2676,-2.7982,slope,18.0,2,14.521
2330,74.56,-3.7256,8.8192,1.1371,-0.1354,0.2765,-2.7232,slope,18.0,2,14.352
2340,74.88,-3.9914,8.6969,1.0552,-0.1351,0.2971,-2.6598,slope,18.0,2,14.160
2350,75.20,-4.2692,8.5454,0.9619,-0.1421,0.3077,-2.5996,slope,18.0,2,13.939
2360,75.52,-4.5607,8.3660,0.8672,-0.0931,0.2718,-2.5336,slope,18.0,2,13.692
2370,75.84,-4.8647,8.1318,0.7723,-0.0796,0.2225,-2.4741,slope,18.0,2,13.393
2380,76.16,-5.2151,7.8498,0.6781,-0.0771,0.2020,-2.4410,slope,18.0,2,13.042
2390,76.48,-5.6131,7.5041,0.5497,-0.0998,0.2556,-2.4305,slope,18.0,2,12.626
2400,76.80,-5.9984,7.1610,0.3973,-0.0561,0.3176,-2.3439,slope,18.0,2,12.223
2410,77.12,-6.2642,6.8010,0.2641,0.1000,0.2890,-2.0692,slope,18.0,2,11.828
2420,77.44,-6.4257,6.3885,0.1995,0.0311,0.1264,-1.8134,slope,18.0,2,11.398
2430,77.76,-6.5119,5.9230,0.1825,0.0217,0.0039,-1.5447,flat,18.0,2,10.925
2440,78.08,-6.4960,5.3755,0.2017,0.0238,-0.0646,-1.5390,slope,18.0,2,10.384
2450,78.40,-6.4870,4.7933,0.2215,0.0585,-0.0065,-1.5501,slope,18.0,2,9.809
2460,78.72,-6.4788,4.2179,0.2053,0.0337,0.0355,-1.5701,flat,18.0,2,9.241
2470,79.04,-6.4767,3.6528,0.1800,0.0021,0.0053,-1.5911,flat,18.0,2,8.684
2480,79.36,-6.4932,3.0893,0.1798,0.0000,-0.0004,-1.6349,flat,18.0,2,8.125
2490,79.68,-6.5359,2.5290,0.1817,0.0029,-0.0077,-1.6800,flat,18.0,2,7.566
2500,80.00,-6.6067,1.9835,0.2025,0.0323,-0.0666,-1.6961,slope,18.0,2,7.017
2510,80.32,-6.6922,1.4228,0.2079,0.0641,-0.0016,-1.7307,slope,18.0,2,6.450
2520,80.64,-6.7851,0.8550,0.1875,-0.0000,0.0374,-1.7536,flat,18.0,2,5.875
2530,80.96,-6.8840,0.2941,0.1867,-0.0280,0.0089,-1.7568,flat,18.0,2,5.306
2540,81.28,-6.9858,-0.2716,0.1878,-0.0468,0.0073,-1.7542,flat,18.0,2,4.731
2550,81.60,-7.0939,-0.8353,0.1847,-0.0177,0.0037,-1.7519,flat,18.0,2,4.157
2560,81.92,-7.2035,-1.3969,0.1849,0.0225,0.0022,-1.7482,flat,18.0,2,3.585
2570,82.24,-7.3052,-1.9580,0.1851,0.0271,0.0021,-1.7397,flat,18.0,2,3.014
2580,82.56,-7.3997,-2.5187,0.1817,0.0388,-0.0199,-1.7318,flat,18.0,2,2.446
2590,82.88,-7.4742,-3.0625,0.2062,-0.0320,-0.0715,-1.7273,slope,18.0,2,1.899
2600,83.20,-7.5571,-3.6097,0.2116,-0.0539,0.0096,-1.7300,flat,18.0,2,1.348
2610,83.52,-7.6514,-4.1675,0.1918,-0.0203,0.0716,-1.7300,slope,18.0,3,1.054
2620,83.84,-7.7352,-4.6823,0.1795,0.0030,0.0008,-1.7175,flat,18.0,0,13.081
2630,84.16,-7.8059,-5.1932,0.1798,0.0004,0.0000,-1.6754,flat,18.0,0,13.168
2640,84.48,-7.8540,-5.6930,0.1799,0.0002,0.0000,-1.6160,flat,18.0,0,13.251
2650,84.80,-7.8723,-6.1686,0.2042,0.0102,-0.0839,-1.5547,slope,18.0,0,13.319
2660,85.12,-7.8529,-6.6643,0.2269,-0.0108,-0.0389,-1.5001,flat,18.0,0,13.371
2670,85.44,-7.8091,-7.1800,0.2119,-0.0174,0.0602,-1.4730,slope,18.0,0,13.420
2680,85.76,-7.7514,-7.6829,0.1869,-0.0121,0.0390,-1.4308,flat,18.0,0,13.473
2690,86.08,-7.6806,-8.1525,0.1782,-0.0002,-0.0103,-1.3796,flat,18.0,0,13.522
2700,86.40,-7.6021,-8.5498,0.1797,0.0001,-0.0010,-1.3456,flat,18.0,0,13.559
2710,86.72,-7.5288,-8.8678,0.1822,-0.0035,-0.0126,-1.2924,flat,18.0,0,13.588
2720,87.04,-7.4589,-9.1140,0.1857,-0.0030,-0.0142,-1.1839,flat,18.0,0,13.603
2730,87.36,-7.3852,-9.2754,0.1907,-0.0145,-0.0371,-1.0430,flat,18.0,0,13.589
2740,87.68,-7.2932,-9.4302,0.1923,-0.0327,0.0070,-0.9103,flat,18.0,0,13.558
2750,88.00,-7.2091,-9.5317,0.1913,-0.0340,-0.0028,-0.7567,flat,18.0,0,13.517
2760,88.32,-7.1083,-9.5964,0.1894,-0.0340,0.0080,-0.6231,flat,18.0,0,13.448
2770,88.64,-7.0016,-9.6467,0.1891,-0.0243,0.0313,-0.5107,flat,18.0,0,13.368
2780,88.96,-6.9078,-9.6835,0.1861,-0.0054,0.0366,-0.4144,flat,18.0,0,13.296
2790,89.28,-6.8133,-9.7080,0.1842,-0.0053,0.0237,-0.3376,flat,18.0,0,13.218
2800,89.60,-6.7224,-9.7265,0.1817,-0.0049,0.0077,-0.2728,flat,18.0,0,13.142
2810,89.92,-6.6400,-9.7411,0.1798,-0.0006,-0.0003,-0.2090,flat,18.0,0,13.072
