step,time_s,x,y,z,roll,pitch,yaw,terrain,speed,target_idx,dist_to_target
10,0.32,-1.2082,0.8822,0.2271,0.0078,-0.0276,-0.0035,rough,14.0,0,8.493
20,0.64,-0.7998,0.8712,0.2167,0.0094,0.0133,-0.1343,rough,14.0,0,8.175
30,0.96,-0.3780,0.8052,0.2119,0.0260,-0.0020,-0.2179,rough,14.0,0,7.817
40,1.28,0.0028,0.7079,0.2207,0.0359,-0.0359,-0.2552,rough,14.0,0,7.475
50,1.60,0.3787,0.5861,0.2484,0.0605,-0.1020,-0.3152,rough,14.0,0,7.123
60,1.92,0.7479,0.4466,0.2967,0.0882,-0.1611,-0.3739,rough,14.0,0,6.768
70,2.24,1.1101,0.2828,0.3652,0.1408,-0.2144,-0.4411,rough,14.0,0,6.403
80,2.56,1.4519,0.1013,0.4632,0.1746,-0.2980,-0.5031,rough,14.0,0,6.043
90,2.88,1.7856,-0.0973,0.5886,0.1826,-0.3551,-0.5652,rough,14.0,0,5.677
100,3.20,2.1115,-0.3209,0.7333,0.2133,-0.3623,-0.6285,rough,14.0,0,5.300
110,3.52,2.4125,-0.5643,0.8845,0.2434,-0.3873,-0.6822,rough,14.0,0,4.924
120,3.84,2.7069,-0.8181,1.0410,0.2440,-0.3808,-0.7267,rough,14.0,0,4.546
130,4.16,2.9962,-1.0967,1.1935,0.2625,-0.3477,-0.7647,rough,14.0,0,4.152
140,4.48,3.2841,-1.3777,1.3428,0.2637,-0.3302,-0.7998,rough,14.0,0,3.758
150,4.80,3.5654,-1.6774,1.4787,0.2779,-0.3030,-0.8333,rough,14.0,0,3.354
160,5.12,3.8432,-1.9877,1.5994,0.2732,-0.2715,-0.8630,rough,14.0,0,2.944
170,5.44,4.1121,-2.3134,1.7063,0.2803,-0.2504,-0.8958,rough,14.0,0,2.528
180,5.76,4.3760,-2.6426,1.8061,0.2808,-0.2156,-0.9252,rough,14.0,0,2.113
190,6.08,4.6227,-2.9845,1.8919,0.2953,-0.2014,-0.9638,rough,14.0,0,1.697
200,6.40,4.8578,-3.3365,1.9735,0.2952,-0.1786,-1.0072,rough,14.0,0,1.280
210,6.72,5.0648,-3.7020,2.0430,0.3074,-0.1621,-1.0699,rough,14.0,0,0.865
220,7.04,5.1153,-3.9132,2.0577,0.3473,0.0011,-1.5246,rough,14.0,1,12.135
230,7.36,4.9915,-4.1688,2.0083,0.3089,0.1618,-1.9967,rough,14.0,1,12.336
240,7.68,4.7913,-4.4084,1.9317,0.2432,0.2611,-2.3227,rough,14.0,1,12.501
250,8.00,4.5760,-4.6332,1.8413,0.1301,0.3210,-2.6059,rough,14.0,1,12.653
260,8.32,4.2540,-4.7583,1.7234,0.0991,0.3464,-2.7803,rough,14.0,1,12.688
270,8.64,3.8987,-4.8504,1.5876,0.0512,0.3567,-2.9073,rough,14.0,1,12.691
280,8.96,3.5209,-4.9102,1.4441,0.0163,0.3618,-2.9992,rough,14.0,1,12.670
290,9.28,3.1307,-4.9461,1.2965,-0.0087,0.3613,-3.0608,rough,14.0,1,12.634
300,9.60,2.7324,-4.9652,1.1470,-0.0236,0.3583,-3.1001,rough,14.0,1,12.592
310,9.92,2.3298,-4.9738,0.9968,-0.0339,0.3566,-3.1249,rough,14.0,1,12.552
320,10.24,1.9262,-4.9756,0.8476,-0.0409,0.3538,-3.1401,rough,14.0,1,12.518
330,10.56,1.5222,-4.9737,0.6996,-0.0460,0.3503,3.1345,rough,14.0,1,12.494
340,10.88,1.1188,-4.9700,0.5533,-0.0491,0.3468,3.1309,rough,14.0,1,12.480
350,11.20,0.7173,-4.9654,0.4091,-0.0522,0.3436,3.1284,rough,14.0,1,12.479
360,11.52,0.3182,-4.9599,0.2672,-0.0553,0.3408,3.1263,rough,14.0,1,12.489
370,11.84,-0.0548,-4.9529,0.1823,-0.0588,0.1737,3.1034,rough,14.0,1,12.509
380,12.16,-0.4138,-4.9336,0.1476,-0.0657,-0.0192,3.0432,rough,14.0,1,12.526
390,12.48,-0.7686,-4.8815,0.1505,-0.0461,-0.0236,2.8366,rough,14.0,1,12.520
400,12.80,-1.1158,-4.7554,0.1573,-0.0343,-0.0235,2.6928,rough,14.0,1,12.450
410,13.12,-1.4642,-4.5751,0.1679,-0.0352,-0.0288,2.5565,rough,14.0,1,12.337
420,13.44,-1.7854,-4.3417,0.1782,-0.0288,-0.0268,2.4117,rough,14.0,1,12.179
430,13.76,-2.0705,-4.0646,0.1871,-0.0252,-0.0317,2.2699,rough,14.0,1,11.980
440,14.08,-2.3207,-3.7371,0.1975,-0.0212,-0.0193,2.1474,rough,14.0,1,11.732
450,14.40,-2.5296,-3.3760,0.2050,-0.0212,-0.0116,2.0550,rough,14.0,1,11.450
460,14.72,-2.7100,-2.9896,0.2112,-0.0223,-0.0141,1.9698,rough,14.0,1,11.142
470,15.04,-2.8630,-2.5935,0.2153,-0.0236,-0.0077,1.9090,rough,14.0,1,10.823
480,15.36,-2.9955,-2.1812,0.2175,-0.0260,-0.0029,1.8477,rough,14.0,1,10.490
490,15.68,-3.1066,-1.7600,0.2183,-0.0265,-0.0010,1.7820,rough,14.0,1,10.146
500,16.00,-3.1883,-1.3292,0.2181,-0.0268,0.0011,1.7264,rough,14.0,1,9.789
510,16.32,-3.2524,-0.8969,0.2173,-0.0296,0.0030,1.6566,rough,14.0,1,9.430
520,16.64,-3.2859,-0.4627,0.2165,-0.0277,0.0005,1.5787,rough,14.0,1,9.060
530,16.96,-3.2853,-0.0259,0.2160,-0.0279,-0.0000,1.5076,rough,14.0,1,8.678
540,17.28,-3.2529,0.4122,0.2156,-0.0259,0.0013,1.4567,rough,14.0,1,8.284
550,17.60,-3.2012,0.8555,0.2149,-0.0242,0.0028,1.4462,rough,14.0,1,7.880
560,17.92,-3.1448,1.2967,0.2133,-0.0223,0.0049,1.4274,rough,14.0,1,7.479
570,18.24,-3.0756,1.7334,0.2053,0.0075,0.0121,1.3935,rough,14.0,1,7.080
580,18.56,-3.0001,2.1658,0.2061,-0.0191,0.0100,1.3630,rough,14.0,1,6.687
590,18.88,-2.9042,2.5947,0.2007,-0.0171,0.0147,1.3225,rough,14.0,1,6.289
600,19.20,-2.7902,3.0186,0.1923,-0.0154,0.0233,1.2884,rough,14.0,1,5.889
610,19.52,-2.6631,3.4377,0.1828,-0.0089,0.0239,1.2521,rough,14.0,1,5.490
620,19.84,-2.5218,3.8489,0.1699,-0.0112,0.0320,1.2036,rough,14.0,1,5.093
630,20.16,-2.3591,4.2470,0.1570,0.0022,0.0311,1.1667,rough,14.0,1,4.696
640,20.48,-2.1832,4.6497,0.1432,-0.0004,0.0344,1.1266,rough,14.0,1,4.293
650,20.80,-1.9910,5.0410,0.1276,0.0010,0.0366,1.0836,rough,14.0,1,3.893
660,21.12,-1.7821,5.4276,0.1112,0.0028,0.0372,1.0406,rough,14.0,1,3.490
670,21.44,-1.5576,5.8035,0.0951,0.0040,0.0348,0.9959,rough,14.0,1,3.090
680,21.76,-1.3149,6.1628,0.0801,0.0051,0.0333,0.9420,rough,14.0,1,2.695
690,22.08,-1.0544,6.5124,0.0665,0.0059,0.0292,0.8884,rough,14.0,1,2.301
700,22.40,-0.7753,6.8427,0.0550,0.0063,0.0241,0.8275,rough,14.0,1,1.914
710,22.72,-0.4779,7.1513,0.0458,0.0075,0.0190,0.7617,rough,14.0,1,1.539
720,23.04,-0.2029,7.4225,0.0666,-0.0359,-0.1169,0.6959,rough,14.0,1,1.225
730,23.36,0.0881,7.6825,0.1092,-0.1108,-0.1942,0.6068,rough,14.0,1,0.947
740,23.68,0.3453,7.8697,0.1811,-0.0928,-0.3177,0.4343,rough,14.0,2,15.209
750,24.00,0.5453,7.9799,0.2451,-0.0436,-0.3409,0.1640,rough,14.0,2,15.411
760,24.32,0.7227,8.0162,0.3097,0.0135,-0.3475,-0.0017,rough,14.0,2,15.539
770,24.64,0.8580,8.0152,0.3586,0.0183,-0.3502,-0.0160,rough,14.0,2,15.613
780,24.96,0.9936,8.0097,0.4081,0.0240,-0.3498,-0.0331,rough,14.0,2,15.685
790,25.28,1.1366,7.9971,0.4604,0.0375,-0.3502,-0.0730,rough,14.0,2,15.756
800,25.60,1.2944,7.9688,0.5182,0.0643,-0.3496,-0.1543,rough,14.0,2,15.824
810,25.92,1.4853,7.9111,0.5887,0.1278,-0.3407,-0.3341,rough,14.0,2,15.889
820,26.24,1.7094,7.7924,0.6704,0.2097,-0.2899,-0.6154,rough,14.0,2,15.928
830,26.56,1.8691,7.6032,0.7300,0.2718,-0.2405,-0.8569,rough,14.0,2,15.875
840,26.88,2.0352,7.3586,0.7933,0.3162,-0.1866,-1.0669,rough,14.0,2,15.787
850,27.20,2.1630,7.0794,0.8430,0.3418,-0.1289,-1.2512,rough,14.0,2,15.652
860,27.52,2.2000,6.7360,0.8614,0.3618,-0.0456,-1.4982,rough,14.0,2,15.415
870,27.84,2.1565,6.3542,0.8524,0.3613,0.0316,-1.7138,rough,14.0,2,15.100
880,28.16,2.0409,5.9666,0.8189,0.3499,0.0911,-1.8914,rough,14.0,2,14.734
890,28.48,1.8733,5.5909,0.7678,0.3324,0.1340,-2.0294,rough,14.0,2,14.344
900,28.80,1.6484,5.2358,0.6976,0.3125,0.1721,-2.1583,rough,14.0,2,13.932
910,29.12,1.3894,4.9080,0.6153,0.2906,0.2022,-2.2687,rough,14.0,2,13.515
920,29.44,1.0937,4.6089,0.5202,0.2636,0.2268,-2.3723,rough,14.0,2,13.095
930,29.76,0.7760,4.3412,0.4175,0.2339,0.2465,-2.4754,rough,14.0,2,12.682
940,30.08,0.4411,4.0819,0.3108,0.2391,0.2229,-2.4540,rough,14.0,2,12.264
950,30.40,0.1175,3.7974,0.2427,0.1370,0.1795,-2.4491,rough,14.0,2,11.836
960,30.72,-0.2007,3.5314,0.2041,0.1139,0.0411,-2.4544,rough,14.0,2,11.425
970,31.04,-0.5227,3.2503,0.1923,0.0462,-0.0538,-2.4443,rough,14.0,2,11.000
980,31.36,-0.8629,2.9565,0.2024,0.0238,-0.0215,-2.4309,rough,14.0,2,10.554
990,31.68,-1.1999,2.6643,0.2116,0.0223,-0.0159,-2.4175,rough,14.0,2,10.112
1000,32.00,-1.5319,2.3669,0.2167,0.0158,-0.0117,-2.4059,rough,14.0,2,9.669
1010,32.32,-1.8616,2.0665,0.2208,0.0149,-0.0058,-2.3933,rough,14.0,2,9.226
1020,32.64,-2.1871,1.7619,0.2228,0.0143,-0.0024,-2.3816,rough,14.0,2,8.783
1030,32.96,-2.5083,1.4541,0.2229,0.0154,0.0022,-2.3702,rough,14.0,2,8.341
1040,33.28,-2.8276,1.1430,0.2212,0.0225,0.0116,-2.3592,rough,14.0,2,7.897
1050,33.60,-3.1407,0.8285,0.2159,0.0195,0.0061,-2.3487,rough,14.0,2,7.455
1060,33.92,-3.4532,0.5088,0.2081,0.0159,0.0205,-2.3397,rough,14.0,2,7.010
1070,34.24,-3.7637,0.1895,0.2004,0.0263,0.0229,-2.3306,rough,14.0,2,6.566
1080,34.56,-4.0700,-0.1342,0.1890,0.0298,0.0272,-2.3217,rough,14.0,2,6.122
1090,34.88,-4.3728,-0.4606,0.1765,0.0313,0.0285,-2.3133,rough,14.0,2,5.678
1100,35.20,-4.6726,-0.7895,0.1638,0.0330,0.0280,-2.3050,rough,14.0,2,5.234
1110,35.52,-4.9702,-1.1209,0.1520,0.0337,0.0253,-2.2967,rough,14.0,2,4.790
1120,35.84,-5.2645,-1.4538,0.1420,0.0343,0.0203,-2.2887,rough,14.0,2,4.346
1130,36.16,-5.5559,-1.7887,0.1343,0.0335,0.0129,-2.2806,rough,14.0,2,3.904
1140,36.48,-5.8450,-2.1254,0.1288,0.0384,0.0089,-2.2722,rough,14.0,2,3.461
1150,36.80,-6.1292,-2.4644,0.1283,0.0343,-0.0013,-2.2636,rough,14.0,2,3.020
1160,37.12,-6.4113,-2.8065,0.1307,0.0337,-0.0093,-2.2539,rough,14.0,2,2.577
1170,37.44,-6.6895,-3.1512,0.1370,0.0339,-0.0182,-2.2428,rough,14.0,2,2.136
1180,37.76,-6.9641,-3.4983,0.1469,0.0334,-0.0276,-2.2297,rough,14.0,2,1.694
1190,38.08,-7.2331,-3.8497,0.1594,0.0288,-0.0320,-2.2139,rough,14.0,2,1.253
1200,38.40,-7.4953,-4.2023,0.1760,0.0286,-0.0385,-2.1849,rough,14.0,2,0.816
1210,38.72,-7.7492,-4.5339,0.1923,0.0318,-0.0413,-2.2402,rough,14.0,0,13.094
1220,39.04,-7.9496,-4.7889,0.2064,0.0105,-0.0510,-1.8524,rough,14.0,0,13.297
1230,39.36,-8.0380,-5.0802,0.2217,-0.0097,-0.0511,-1.4889,rough,14.0,0,13.394
1240,39.68,-8.0017,-5.3880,0.2369,-0.0246,-0.0434,-1.2175,rough,14.0,0,13.375
1250,40.00,-7.8640,-5.7112,0.2504,-0.0319,-0.0330,-1.0541,rough,14.0,0,13.262
1260,40.32,-7.6601,-6.0210,0.2605,-0.0362,-0.0208,-0.8870,rough,14.0,0,13.091
1270,40.64,-7.3978,-6.3062,0.2663,-0.0362,-0.0066,-0.7403,rough,14.0,0,12.867
1280,40.96,-7.0826,-6.5582,0.2665,-0.0338,0.0022,-0.6052,rough,14.0,0,12.593
1290,41.28,-6.7217,-6.7774,0.2632,-0.0304,0.0168,-0.5096,rough,14.0,0,12.276
1300,41.60,-6.3338,-6.9668,0.2552,-0.0279,0.0227,-0.4338,rough,14.0,0,11.932
1310,41.92,-5.9327,-7.1303,0.2439,-0.0242,0.0291,-0.3682,rough,14.0,0,11.575
1320,42.24,-5.5178,-7.2720,0.2298,-0.0196,0.0346,-0.3168,rough,14.0,0,11.206
1330,42.56,-5.0961,-7.3953,0.2137,-0.0151,0.0384,-0.2734,rough,14.0,0,10.829
1340,42.88,-4.6704,-7.5014,0.1962,-0.0117,0.0408,-0.2307,rough,14.0,0,10.449
1350,43.20,-4.2398,-7.5910,0.1778,-0.0081,0.0424,-0.1958,rough,14.0,0,10.064
1360,43.52,-3.8054,-7.6682,0.1590,-0.0048,0.0430,-0.1668,rough,14.0,0,9.676
1370,43.84,-3.3736,-7.7343,0.1403,-0.0008,0.0429,-0.1168,rough,14.0,0,9.292
1380,44.16,-2.9384,-7.7806,0.1222,0.0018,0.0413,-0.0704,rough,14.0,0,8.902
1390,44.48,-2.5071,-7.8067,0.1052,0.0061,0.0381,0.0076,rough,14.0,0,8.512
1400,44.80,-2.0742,-7.7998,0.0896,0.0096,0.0335,0.0726,rough,14.0,0,8.111
1410,45.12,-1.6602,-7.7622,0.0762,0.0160,0.0284,0.2187,rough,14.0,0,7.719
1420,45.44,-1.2529,-7.6628,0.0654,0.0197,0.0217,0.3183,rough,14.0,0,7.308
1430,45.76,-0.8543,-7.5251,0.0573,0.0212,0.0145,0.4181,rough,14.0,0,6.889
1440,46.08,-0.4781,-7.3513,0.0531,0.0273,0.0085,0.5220,rough,14.0,0,6.475
1450,46.40,-0.1666,-7.1427,0.0816,-0.0160,-0.1477,0.5913,rough,14.0,0,6.103
1460,46.72,0.1466,-6.9134,0.1424,-0.1006,-0.2301,0.5556,rough,14.0,0,5.723
1470,47.04,0.4852,-6.6895,0.2434,-0.1506,-0.3321,0.5553,rough,14.0,0,5.322
1480,47.36,0.8425,-6.4706,0.3845,-0.1460,-0.3224,0.5386,rough,14.0,0,4.906
1490,47.68,1.2042,-6.2611,0.5248,-0.1384,-0.3261,0.5212,rough,14.0,0,4.492
1500,48.00,1.5656,-6.0550,0.6664,-0.1341,-0.3310,0.5080,rough,14.0,0,4.079
1510,48.32,1.9283,-5.8541,0.8094,-0.1308,-0.3352,0.4946,rough,14.0,0,3.668
1520,48.64,2.2923,-5.6586,0.9537,-0.1267,-0.3383,0.4801,rough,14.0,0,3.258
1530,48.96,2.6576,-5.4689,1.0985,-0.1228,-0.3404,0.4642,rough,14.0,0,2.850
1540,49.28,3.0241,-5.2860,1.2435,-0.1193,-0.3431,0.4466,rough,14.0,0,2.444
1550,49.60,3.3916,-5.1106,1.3885,-0.1150,-0.3438,0.4261,rough,14.0,0,2.040
1560,49.92,3.7593,-4.9446,1.5323,-0.1086,-0.3440,0.4016,rough,14.0,0,1.641
1570,50.24,4.1239,-4.7902,1.6739,-0.1015,-0.3480,0.3706,rough,14.0,0,1.250
1580,50.56,4.4809,-4.6524,1.8114,-0.0901,-0.3486,0.3262,rough,14.0,0,0.874
1590,50.88,4.7661,-4.5560,1.9184,-0.1598,-0.3153,0.5262,rough,14.0,1,12.634
1600,51.20,4.9539,-4.3902,1.9920,-0.2275,-0.2735,0.7605,rough,14.0,1,12.534
1610,51.52,5.1196,-4.1532,2.0566,-0.2825,-0.2142,0.9771,rough,14.0,1,12.363
1620,51.84,5.2787,-3.8660,2.1160,-0.3143,-0.1563,1.1608,rough,14.0,1,12.147
1630,52.16,5.3929,-3.5089,2.1627,-0.3276,-0.1043,1.3021,rough,14.0,1,11.855
1640,52.48,5.4361,-3.1236,2.1773,-0.3364,-0.0091,1.4940,rough,14.0,1,11.514
1650,52.80,5.4085,-2.7188,2.1732,-0.3330,0.0272,1.6627,rough,14.0,1,11.131
1660,53.12,5.3264,-2.3001,2.1460,-0.3230,0.0715,1.7888,rough,14.0,1,10.714
1670,53.44,5.2075,-1.8826,2.1065,-0.3231,0.1007,1.8648,rough,14.0,1,10.284
1680,53.76,5.0773,-1.4635,2.0607,-0.3225,0.1182,1.9046,rough,14.0,1,9.848
1690,54.08,4.9312,-1.0524,2.0073,-0.3199,0.1352,1.9451,rough,14.0,1,9.414
1700,54.40,4.7669,-0.6549,1.9444,-0.3304,0.1545,1.9813,rough,14.0,1,8.984
1710,54.72,4.5860,-0.2631,1.8690,-0.3277,0.1608,2.0361,rough,14.0,1,8.552
1720,55.04,4.3733,0.1143,1.7871,-0.3325,0.2065,2.0885,rough,14.0,1,8.121
1730,55.36,4.1540,0.4841,1.6920,-0.3242,0.2229,2.1263,rough,14.0,1,7.693
1740,55.68,3.9052,0.8343,1.5899,-0.3294,0.2305,2.1851,rough,14.0,1,7.273
1750,56.00,3.6457,1.1792,1.4826,-0.3434,0.2541,2.2248,rough,14.0,1,6.854
1760,56.32,3.3742,1.5058,1.3693,-0.3420,0.2535,2.2670,rough,14.0,1,6.449
1770,56.64,3.0900,1.8267,1.2512,-0.3282,0.2835,2.3095,rough,14.0,1,6.049
1780,56.96,2.7962,2.1246,1.1421,-0.3145,0.2535,2.3605,rough,14.0,1,5.671
1790,57.28,2.4846,2.4172,1.0266,-0.2906,0.2680,2.4043,rough,14.0,1,5.299
1800,57.60,2.1629,2.6918,0.9157,-0.2730,0.2555,2.4437,rough,14.0,1,4.952
1810,57.92,1.8578,2.9693,0.8094,-0.2843,0.2244,2.3134,rough,14.0,1,4.617
1820,58.24,1.5786,3.2825,0.7192,-0.2891,0.1898,2.2150,rough,14.0,1,4.264
1830,58.56,1.3346,3.6252,0.6307,-0.2847,0.1830,2.1208,rough,14.0,1,3.897
1840,58.88,1.1179,3.9926,0.5502,-0.2930,0.1720,2.0194,rough,14.0,1,3.519
1850,59.20,0.9425,4.3851,0.4690,-0.3081,0.1831,1.9224,rough,14.0,1,3.126
1860,59.52,0.7968,4.7827,0.4066,-0.3213,0.1349,1.8324,rough,14.0,1,2.736
1870,59.84,0.6890,5.1969,0.3490,-0.3303,0.0990,1.7433,rough,14.0,1,2.336
1880,60.16,0.6198,5.6241,0.3079,-0.3410,0.0670,1.6469,rough,14.0,1,1.927
1890,60.48,0.5910,6.0542,0.2822,-0.3455,0.0258,1.5573,rough,14.0,1,1.517
1900,60.80,0.5961,6.4809,0.2687,-0.3558,-0.0133,1.4755,rough,14.0,1,1.112
1910,61.12,0.6308,6.8827,0.2776,-0.3454,-0.0389,1.4179,rough,14.0,2,14.555
1920,61.44,0.5465,7.1557,0.2437,-0.3272,0.1087,1.8517,rough,14.0,2,14.729
1930,61.76,0.4118,7.4328,0.1951,-0.2755,0.1864,2.1590,rough,14.0,2,14.881
1940,62.08,0.1813,7.6597,0.1354,-0.1015,0.2663,2.4621,rough,14.0,2,14.944
1950,62.40,-0.0922,7.7963,0.0746,-0.0741,0.1291,2.7106,rough,14.0,2,14.914
1960,62.72,-0.3654,7.8956,0.0525,-0.0070,0.0370,2.8901,rough,14.0,2,14.859
1970,63.04,-0.6775,7.9543,0.0508,-0.0106,-0.0198,-3.1385,rough,14.0,2,14.754
1980,63.36,-1.0059,7.9493,0.0583,-0.0153,-0.0197,-2.8394,rough,14.0,2,14.592
1990,63.68,-1.3302,7.8329,0.0651,-0.0217,-0.0214,-2.6227,rough,14.0,2,14.338
2000,64.00,-1.6382,7.6334,0.0739,-0.0216,-0.0228,-2.4270,rough,14.0,2,14.021
2010,64.32,-1.9565,7.3694,0.0822,-0.0095,-0.0276,-2.4131,rough,14.0,2,13.644
2020,64.64,-2.2689,7.0744,0.0961,-0.0201,-0.0311,-2.3639,rough,14.0,2,13.243
2030,64.96,-2.5717,6.7633,0.1095,-0.0215,-0.0313,-2.3203,rough,14.0,2,12.833
2040,65.28,-2.8624,6.4389,0.1234,-0.0212,-0.0320,-2.2818,rough,14.0,2,12.418
2050,65.60,-3.1423,6.1031,0.1371,-0.0206,-0.0303,-2.2482,rough,14.0,2,11.999
2060,65.92,-3.4120,5.7572,0.1500,-0.0203,-0.0283,-2.2179,rough,14.0,2,11.575
2070,66.24,-3.6725,5.4046,0.1614,-0.0194,-0.0234,-2.1915,rough,14.0,2,11.149
2080,66.56,-3.9242,5.0468,0.1709,-0.0173,-0.0184,-2.1672,rough,14.0,2,10.723
2090,66.88,-4.1678,4.6825,0.1757,-0.0107,-0.0078,-2.1447,rough,14.0,2,10.295
2100,67.20,-4.4030,4.3102,0.1812,-0.0113,-0.0064,-2.1241,rough,14.0,2,9.863
2110,67.52,-4.6318,3.9320,0.1821,-0.0103,0.0003,-2.1057,rough,14.0,2,9.429
2120,67.84,-4.8551,3.5515,0.1799,-0.0042,0.0106,-2.0876,rough,14.0,2,8.995
2130,68.16,-5.0709,3.1646,0.1743,-0.0001,0.0150,-2.0700,rough,14.0,2,8.558
2140,68.48,-5.2810,2.7731,0.1664,0.0051,0.0231,-2.0550,rough,14.0,2,8.120
2150,68.80,-5.4849,2.3770,0.1560,0.0104,0.0264,-2.0408,rough,14.0,2,7.679
2160,69.12,-5.6830,1.9790,0.1446,0.0142,0.0293,-2.0267,rough,14.0,2,7.239
2170,69.44,-5.8757,1.5776,0.1316,0.0182,0.0306,-2.0133,rough,14.0,2,6.799
2180,69.76,-6.0629,1.1740,0.1185,0.0219,0.0282,-2.0009,rough,14.0,2,6.358
2190,70.08,-6.2454,0.7686,0.1062,0.0259,0.0279,-1.9884,rough,14.0,2,5.917
2200,70.40,-6.4227,0.3617,0.0951,0.0281,0.0235,-1.9736,rough,14.0,2,5.477
2210,70.72,-6.5940,-0.0474,0.0860,0.0300,0.0179,-1.9587,rough,14.0,2,5.038
2220,71.04,-6.7589,-0.4579,0.0800,0.0314,0.0105,-1.9449,rough,14.0,2,4.599
2230,71.36,-6.9188,-0.8693,0.0761,0.0274,0.0026,-1.9268,rough,14.0,2,4.161
2240,71.68,-7.0713,-1.2818,0.0774,0.0321,-0.0051,-1.9109,rough,14.0,2,3.725
2250,72.00,-7.2173,-1.6959,0.0813,0.0328,-0.0140,-1.8919,rough,14.0,2,3.289
2260,72.32,-7.3548,-2.1156,0.0900,0.0294,-0.0219,-1.8682,rough,14.0,2,2.850
2270,72.64,-7.4817,-2.5376,0.1012,0.0233,-0.0336,-1.8428,rough,14.0,2,2.412
2280,72.96,-7.5975,-2.9588,0.1169,0.0234,-0.0399,-1.8251,rough,14.0,2,1.978
2290,73.28,-7.7053,-3.3840,0.1350,0.0191,-0.0461,-1.7918,rough,14.0,2,1.542
2300,73.60,-7.7988,-3.8112,0.1557,0.0137,-0.0507,-1.7439,rough,14.0,2,1.107
2310,73.92,-7.8706,-4.2338,0.1774,0.0103,-0.0530,-1.7117,rough,14.0,3,0.855
2320,74.24,-7.9394,-4.5751,0.1951,-0.0037,-0.0528,-1.5344,rough,14.0,0,13.284
2330,74.56,-7.9179,-4.8845,0.2113,-0.0195,-0.0478,-1.2579,rough,14.0,0,13.268
2340,74.88,-7.7929,-5.2136,0.2257,-0.0281,-0.0394,-1.0872,rough,14.0,0,13.156
2350,75.20,-7.5995,-5.5433,0.2399,-0.0352,-0.0285,-0.9364,rough,14.0,0,12.985
2360,75.52,-7.3544,-5.8403,0.2488,-0.0379,-0.0153,-0.7842,rough,14.0,0,12.768
2370,75.84,-7.0535,-6.1060,0.2529,-0.0385,-0.0041,-0.6585,rough,14.0,0,12.499
2380,76.16,-6.7076,-6.3417,0.2523,-0.0355,0.0074,-0.5560,rough,14.0,0,12.189
2390,76.48,-6.3343,-6.5471,0.2473,-0.0321,0.0160,-0.4748,rough,14.0,0,11.854
2400,76.80,-5.9415,-6.7263,0.2368,-0.0267,0.0112,-0.4015,rough,14.0,0,11.500
2410,77.12,-5.5547,-6.8564,0.2272,-0.0202,0.0313,-0.2789,rough,14.0,0,11.147
2420,77.44,-5.1333,-6.9571,0.2126,-0.0144,0.0360,-0.2181,rough,14.0,0,10.758
2430,77.76,-4.7027,-7.0347,0.1964,-0.0101,0.0380,-0.1663,rough,14.0,0,10.357
2440,78.08,-4.2676,-7.0931,0.1792,-0.0045,0.0400,-0.1228,rough,14.0,0,9.951
2450,78.40,-3.8294,-7.1350,0.1615,0.0005,0.0410,-0.0845,rough,14.0,0,9.539
2460,78.72,-3.3894,-7.1629,0.1438,0.0056,0.0407,-0.0509,rough,14.0,0,9.125
2470,79.04,-2.9792,-7.1833,0.1278,0.0154,0.0374,0.1101,rough,14.0,0,8.740
2480,79.36,-2.5857,-7.1308,0.1140,0.0234,0.0301,0.3120,rough,14.0,0,8.349
2490,79.68,-2.2034,-6.9944,0.1032,0.0289,0.0199,0.4555,rough,14.0,0,7.943
2500,80.00,-1.8489,-6.8092,0.0962,0.0354,0.0130,0.6041,rough,14.0,0,7.549
2510,80.32,-1.5156,-6.5654,0.0927,0.0360,-0.0006,0.6301,rough,14.0,0,7.159
2520,80.64,-1.1601,-6.3208,0.0933,0.0378,-0.0039,0.5794,rough,14.0,0,6.749
2530,80.96,-0.7863,-6.0958,0.0931,0.0406,0.0085,0.5296,rough,14.0,0,6.330
2540,81.28,-0.4117,-5.8909,0.0995,0.0325,-0.0244,0.4865,rough,14.0,0,5.917
2550,81.60,-0.0595,-5.6987,0.1460,-0.0042,-0.1631,0.4548,rough,14.0,0,5.531
2560,81.92,0.2776,-5.5249,0.2348,-0.0326,-0.3513,0.4500,rough,14.0,0,5.166
2570,82.24,0.6389,-5.3383,0.3619,-0.0945,-0.3340,0.4207,rough,14.0,0,4.776
2580,82.56,1.0073,-5.1743,0.5030,-0.0889,-0.3385,0.3956,rough,14.0,0,4.386
2590,82.88,1.3784,-5.0201,0.6451,-0.0830,-0.3428,0.3711,rough,14.0,0,3.998
2600,83.20,1.7513,-4.8757,0.7877,-0.0775,-0.3461,0.3455,rough,14.0,0,3.611
2610,83.52,2.1255,-4.7412,0.9306,-0.0741,-0.3492,0.3196,rough,14.0,0,3.227
2620,83.84,2.5012,-4.6174,1.0742,-0.0689,-0.3506,0.2935,rough,14.0,0,2.845
2630,84.16,2.8767,-4.5050,1.2177,-0.0601,-0.3533,0.2663,rough,14.0,0,2.468
2640,84.48,3.2493,-4.4041,1.3596,-0.0520,-0.3536,0.2364,rough,14.0,0,2.099
2650,84.80,3.6168,-4.3162,1.4990,-0.0431,-0.3557,0.2044,rough,14.0,0,1.740
2660,85.12,3.9755,-4.2423,1.6339,-0.0334,-0.3540,0.1688,rough,14.0,0,1.397
2670,85.44,4.3178,-4.1842,1.7620,-0.0220,-0.3542,0.1294,rough,14.0,0,1.081
2680,85.76,4.6314,-4.1429,1.8782,-0.0113,-0.3535,0.0872,rough,14.0,0,0.807
2690,86.08,4.8335,-4.1066,1.9529,-0.0566,-0.3474,0.2150,rough,14.0,1,12.227
2700,86.40,5.0132,-4.0273,2.0199,-0.1141,-0.3324,0.3859,rough,14.0,1,12.209
2710,86.72,5.1952,-3.8969,2.0876,-0.1814,-0.2974,0.5958,rough,14.0,1,12.147
2720,87.04,5.3657,-3.7124,2.1510,-0.2446,-0.2459,0.8249,rough,14.0,1,12.035
2730,87.36,5.5547,-3.4779,2.2203,-0.2873,-0.1877,1.0253,rough,14.0,1,11.887
2740,87.68,5.7117,-3.2177,2.2723,-0.2817,-0.1383,1.1698,rough,14.0,1,11.709
2750,88.00,5.8259,-2.9135,2.3169,-0.3182,-0.1002,1.2894,rough,14.0,1,11.478
2760,88.32,5.9038,-2.5876,2.3445,-0.3256,-0.0563,1.4093,rough,14.0,1,11.217
2770,88.64,5.9028,-2.2027,2.3439,-0.3259,0.0107,1.6048,rough,14.0,1,10.871
2780,88.96,5.8349,-1.7968,2.3205,-0.3175,0.0652,1.7646,rough,14.0,1,10.479
2790,89.28,5.7205,-1.3833,2.2821,-0.3116,0.0979,1.8639,rough,14.0,1,10.059
2800,89.60,5.5909,-0.9661,2.2379,-0.3084,0.1150,1.9140,rough,14.0,1,9.630
2810,89.92,5.4427,-0.5579,2.1867,-0.3085,0.1190,1.9219,rough,14.0,1,9.201
2820,90.24,5.2878,-0.1431,2.1322,-0.3172,0.1314,1.9360,rough,14.0,1,8.763
2830,90.56,5.1275,0.2682,2.0741,-0.3232,0.1376,1.9527,rough,14.0,1,8.326
2840,90.88,4.9575,0.6724,2.0105,-0.3200,0.1416,1.9780,rough,14.0,1,7.891
2850,91.20,4.7775,1.0760,1.9442,-0.3313,0.1608,1.9933,rough,14.0,1,7.451
2860,91.52,4.5946,1.4729,1.8740,-0.3319,0.1650,2.0127,rough,14.0,1,7.016
2870,91.84,4.3967,1.8630,1.7980,-0.3249,0.1721,2.0390,rough,14.0,1,6.580
2880,92.16,4.1929,2.2486,1.7194,-0.3252,0.1799,2.0585,rough,14.0,1,6.145
2890,92.48,3.9811,2.6304,1.6371,-0.3214,0.1864,2.0815,rough,14.0,1,5.708
2900,92.80,3.7586,3.0090,1.5490,-0.3143,0.2041,2.1012,rough,14.0,1,5.269
2910,93.12,3.5336,3.3806,1.4559,-0.3178,0.2201,2.1205,rough,14.0,1,4.835
2920,93.44,3.3064,3.7473,1.3655,-0.2951,0.2201,2.1447,rough,14.0,1,4.403
2930,93.76,3.0639,4.1044,1.2618,-0.2834,0.2142,2.1743,rough,14.0,1,3.972
2940,94.08,2.8108,4.4568,1.1597,-0.2720,0.2429,2.2002,rough,14.0,1,3.540
2950,94.40,2.6117,4.6130,1.0788,-0.3584,0.0624,1.6382,rough,14.0,1,3.306
2960,94.72,2.5329,4.6617,1.0495,-0.3434,-0.0912,1.3061,rough,14.0,1,3.226
2970,95.04,2.5446,4.6609,1.0527,-0.3564,-0.0561,1.3423,rough,14.0,1,3.232
2980,95.36,2.5937,4.6497,1.0715,-0.3609,-0.0137,1.4470,rough,14.0,1,3.265
2990,95.68,2.6231,4.6494,1.0828,-0.3616,0.0116,1.5170,rough,14.0,1,3.280
3000,96.00,2.6365,4.6485,1.0879,-0.3617,0.0184,1.5355,rough,14.0,1,3.287
3010,96.32,2.6439,4.6480,1.0907,-0.3612,0.0266,1.5572,rough,14.0,1,3.291
3020,96.64,2.6482,4.6477,1.0923,-0.3612,0.0277,1.5600,rough,14.0,1,3.293
3030,96.96,2.6503,4.6476,1.0931,-0.3610,0.0303,1.5669,rough,14.0,1,3.295
3040,97.28,2.6510,4.6475,1.0934,-0.3610,0.0311,1.5690,rough,14.0,1,3.295
3050,97.60,2.6516,4.6475,1.0936,-0.3610,0.0314,1.5698,rough,14.0,1,3.295
3060,97.92,2.6518,4.6474,1.0937,-0.3610,0.0316,1.5705,rough,14.0,1,3.295
3070,98.24,2.6519,4.6474,1.0937,-0.3610,0.0317,1.5707,rough,14.0,1,3.295
3080,98.56,2.6520,4.6474,1.0938,-0.3610,0.0317,1.5708,rough,14.0,1,3.296
3090,98.88,2.6520,4.6474,1.0938,-0.3609,0.0317,1.5709,rough,14.0,1,3.296
3100,99.20,2.6520,4.6474,1.0938,-0.3609,0.0317,1.5709,rough,14.0,1,3.296
3110,99.52,2.6520,4.6474,1.0938,-0.3609,0.0317,1.5709,rough,14.0,1,3.296
3120,99.84,2.6521,4.6474,1.0938,-0.3609,0.0317,1.5709,rough,14.0,1,3.296
3130,100.16,2.6521,4.6474,1.0938,-0.3609,0.0317,1.5709,rough,14.0,1,3.296
3140,100.48,2.6521,4.6474,1.0938,-0.3609,0.0317,1.5709,rough,14.0,1,3.296
3150,100.80,2.6521,4.6474,1.0938,-0.3609,0.0317,1.5709,rough,14.0,1,3.296
3160,101.12,2.6521,4.6474,1.0938,-0.3609,0.0317,1.5709,rough,14.0,1,3.296
3170,101.44,2.6521,4.6474,1.0938,-0.3609,0.0317,1.5709,rough,14.0,1,3.296
3180,101.76,2.6521,4.6474,1.0938,-0.3609,0.0317,1.5709,rough,14.0,1,3.296
3190,102.08,2.6521,4.6474,1.0938,-0.3609,0.0317,1.5709,rough,14.0,1,3.296
3200,102.40,2.6521,4.6474,1.0938,-0.3609,0.0317,1.5709,rough,14.0,1,3.296
3210,102.72,2.6522,4.6474,1.0938,-0.3609,0.0317,1.5709,rough,14.0,1,3.296
3220,103.04,2.6522,4.6474,1.0938,-0.3609,0.0317,1.5709,rough,14.0,1,3.296
3230,103.36,2.6522,4.6474,1.0938,-0.3609,0.0317,1.5709,rough,14.0,1,3.296
3240,103.68,2.6522,4.6474,1.0938,-0.3609,0.0317,1.5709,rough,14.0,1,3.296
3250,104.00,2.6522,4.6474,1.0939,-0.3609,0.0317,1.5709,rough,14.0,1,3.296
3260,104.32,2.6522,4.6474,1.0939,-0.3609,0.0317,1.5709,rough,14.0,1,3.296
3270,104.64,2.6522,4.6474,1.0939,-0.3609,0.0317,1.5709,rough,14.0,1,3.296
3280,104.96,2.6522,4.6474,1.0939,-0.3609,0.0317,1.5709,rough,14.0,1,3.296
3290,105.28,2.6522,4.6474,1.0939,-0.3609,0.0317,1.5709,rough,14.0,1,3.296
3300,105.60,2.6522,4.6474,1.0939,-0.3609,0.0317,1.5709,rough,14.0,1,3.296
3310,105.92,2.6523,4.6474,1.0939,-0.3609,0.0317,1.5709,rough,14.0,1,3.296
3320,106.24,2.6523,4.6474,1.0939,-0.3609,0.0317,1.5709,rough,14.0,1,3.296
3330,106.56,2.6523,4.6474,1.0939,-0.3609,0.0317,1.5709,rough,14.0,1,3.296
3340,106.88,2.6523,4.6474,1.0939,-0.3609,0.0317,1.5709,rough,14.0,1,3.296
3350,107.20,2.6523,4.6474,1.0939,-0.3609,0.0317,1.5709,rough,14.0,1,3.296
3360,107.52,2.6523,4.6474,1.0939,-0.3609,0.0317,1.5709,rough,14.0,1,3.296
3370,107.84,2.6523,4.6474,1.0939,-0.3609,0.0317,1.5709,rough,14.0,1,3.296
3380,108.16,2.6523,4.6474,1.0939,-0.3609,0.0317,1.5709,rough,14.0,1,3.296
3390,108.48,2.6523,4.6474,1.0939,-0.3609,0.0317,1.5709,rough,14.0,1,3.296
3400,108.80,2.6523,4.6474,1.0939,-0.3609,0.0317,1.5709,rough,14.0,1,3.296
3410,109.12,2.6524,4.6474,1.0939,-0.3609,0.0317,1.5709,rough,14.0,1,3.296
3420,109.44,2.6524,4.6474,1.0939,-0.3609,0.0317,1.5709,rough,14.0,1,3.296
3430,109.76,2.6524,4.6474,1.0939,-0.3609,0.0317,1.5709,rough,14.0,1,3.296
3440,110.08,2.6524,4.6474,1.0939,-0.3609,0.0317,1.5709,rough,14.0,1,3.296
3450,110.40,2.6524,4.6474,1.0939,-0.3609,0.0317,1.5709,rough,14.0,1,3.296
3460,110.72,2.6524,4.6474,1.0939,-0.3609,0.0317,1.5709,rough,14.0,1,3.296
3470,111.04,2.6524,4.6474,1.0939,-0.3609,0.0317,1.5709,rough,14.0,1,3.296
3480,111.36,2.6524,4.6474,1.0939,-0.3609,0.0317,1.5709,rough,14.0,1,3.296
3490,111.68,2.6524,4.6474,1.0939,-0.3609,0.0317,1.5709,rough,14.0,1,3.296
3500,112.00,2.6524,4.6474,1.0939,-0.3609,0.0317,1.5709,rough,14.0,1,3.296
3510,112.32,2.6525,4.6474,1.0940,-0.3609,0.0317,1.5709,rough,14.0,1,3.296
3520,112.64,2.6525,4.6474,1.0940,-0.3609,0.0317,1.5709,rough,14.0,1,3.296
3530,112.96,2.6525,4.6474,1.0940,-0.3609,0.0317,1.5709,rough,14.0,1,3.296
3540,113.28,2.6525,4.6474,1.0940,-0.3609,0.0317,1.5709,rough,14.0,1,3.296
3550,113.60,2.6525,4.6474,1.0940,-0.3609,0.0317,1.5709,rough,14.0,1,3.296
3560,113.92,2.6525,4.6474,1.0940,-0.3609,0.0317,1.5709,rough,14.0,1,3.296
3570,114.24,2.6525,4.6474,1.0940,-0.3609,0.0317,1.5709,rough,14.0,1,3.296
3580,114.56,2.6525,4.6474,1.0940,-0.3609,0.0317,1.5709,rough,14.0,1,3.296
3590,114.88,2.6525,4.6474,1.0940,-0.3609,0.0317,1.5709,rough,14.0,1,3.296
3600,115.20,2.6525,4.6474,1.0940,-0.3609,0.0317,1.5709,rough,14.0,1,3.296
3610,115.52,2.6526,4.6474,1.0940,-0.3609,0.0317,1.5709,rough,14.0,1,3.296
3620,115.84,2.6526,4.6474,1.0940,-0.3609,0.0317,1.5709,rough,14.0,1,3.296
3630,116.16,2.6526,4.6474,1.0940,-0.3609,0.0317,1.5709,rough,14.0,1,3.296
3640,116.48,2.6526,4.6474,1.0940,-0.3609,0.0317,1.5709,rough,14.0,1,3.296
3650,116.80,2.6526,4.6474,1.0940,-0.3609,0.0317,1.5709,rough,14.0,1,3.296
3660,117.12,2.6526,4.6474,1.0940,-0.3609,0.0317,1.5709,rough,14.0,1,3.296
3670,117.44,2.6526,4.6474,1.0940,-0.3609,0.0317,1.5709,rough,14.0,1,3.296
3680,117.76,2.6526,4.6474,1.0940,-0.3609,0.0317,1.5709,rough,14.0,1,3.296
3690,118.08,2.6526,4.6474,1.0940,-0.3609,0.0317,1.5709,rough,14.0,1,3.296
3700,118.40,2.6526,4.6474,1.0940,-0.3609,0.0317,1.5709,rough,14.0,1,3.296
3710,118.72,2.6527,4.6474,1.0940,-0.3609,0.0317,1.5709,rough,14.0,1,3.296
3720,119.04,2.6527,4.6474,1.0940,-0.3609,0.0317,1.5709,rough,14.0,1,3.296
3730,119.36,2.6527,4.6474,1.0940,-0.3609,0.0317,1.5709,rough,14.0,1,3.296
3740,119.68,2.6527,4.6474,1.0940,-0.3609,0.0317,1.5709,rough,14.0,1,3.296
3750,120.00,2.6527,4.6474,1.0940,-0.3609,0.0317,1.5709,rough,14.0,1,3.296
3760,120.32,2.6527,4.6474,1.0940,-0.3609,0.0317,1.5709,rough,14.0,1,3.296
3770,120.64,2.6527,4.6474,1.0941,-0.3609,0.0317,1.5709,rough,14.0,1,3.296
3780,120.96,2.6527,4.6474,1.0941,-0.3609,0.0317,1.5709,rough,14.0,1,3.296
3790,121.28,2.6527,4.6474,1.0941,-0.3609,0.0317,1.5709,rough,14.0,1,3.296
3800,121.60,2.6527,4.6474,1.0941,-0.3609,0.0317,1.5709,rough,14.0,1,3.296
3810,121.92,2.6528,4.6474,1.0941,-0.3609,0.0317,1.5709,rough,14.0,1,3.296
3820,122.24,2.6528,4.6474,1.0941,-0.3609,0.0317,1.5709,rough,14.0,1,3.296
3830,122.56,2.6528,4.6474,1.0941,-0.3609,0.0317,1.5709,rough,14.0,1,3.296
3840,122.88,2.6528,4.6474,1.0941,-0.3609,0.0317,1.5709,rough,14.0,1,3.296
3850,123.20,2.6528,4.6474,1.0941,-0.3609,0.0317,1.5709,rough,14.0,1,3.296
3860,123.52,2.6528,4.6474,1.0941,-0.3609,0.0317,1.5709,rough,14.0,1,3.296
3870,123.84,2.6528,4.6474,1.0941,-0.3609,0.0317,1.5709,rough,14.0,1,3.296
3880,124.16,2.6528,4.6474,1.0941,-0.3609,0.0317,1.5709,rough,14.0,1,3.296
3890,124.48,2.6528,4.6474,1.0941,-0.3609,0.0317,1.5709,rough,14.0,1,3.296
3900,124.80,2.6528,4.6474,1.0941,-0.3609,0.0317,1.5709,rough,14.0,1,3.296
3910,125.12,2.6529,4.6474,1.0941,-0.3609,0.0317,1.5709,rough,14.0,1,3.296
3920,125.44,2.6529,4.6474,1.0941,-0.3609,0.0317,1.5709,rough,14.0,1,3.296
3930,125.76,2.6529,4.6474,1.0941,-0.3609,0.0317,1.5709,rough,14.0,1,3.296
3940,126.08,2.6529,4.6474,1.0941,-0.3609,0.0317,1.5709,rough,14.0,1,3.296
3950,126.40,2.6529,4.6474,1.0941,-0.3609,0.0317,1.5709,rough,14.0,1,3.296
3960,126.72,2.6529,4.6474,1.0941,-0.3609,0.0317,1.5709,rough,14.0,1,3.296
3970,127.04,2.6529,4.6474,1.0941,-0.3609,0.0317,1.5709,rough,14.0,1,3.296
3980,127.36,2.6529,4.6474,1.0941,-0.3609,0.0317,1.5709,rough,14.0,1,3.296
3990,127.68,2.6529,4.6474,1.0941,-0.3609,0.0317,1.5709,rough,14.0,1,3.296
4000,128.00,2.6529,4.6474,1.0941,-0.3609,0.0317,1.5709,rough,14.0,1,3.296
4010,128.32,2.6530,4.6474,1.0941,-0.3609,0.0317,1.5709,rough,14.0,1,3.296
4020,128.64,2.6530,4.6474,1.0941,-0.3609,0.0317,1.5709,rough,14.0,1,3.296
4030,128.96,2.6530,4.6474,1.0941,-0.3609,0.0317,1.5709,rough,14.0,1,3.296
4040,129.28,2.6530,4.6474,1.0942,-0.3609,0.0317,1.5709,rough,14.0,1,3.296
4050,129.60,2.6530,4.6474,1.0942,-0.3609,0.0317,1.5709,rough,14.0,1,3.296
4060,129.92,2.6530,4.6474,1.0942,-0.3609,0.0317,1.5709,rough,14.0,1,3.296
4070,130.24,2.6530,4.6474,1.0942,-0.3609,0.0317,1.5709,rough,14.0,1,3.296
4080,130.56,2.6530,4.6474,1.0942,-0.3609,0.0317,1.5709,rough,14.0,1,3.296
4090,130.88,2.6530,4.6474,1.0942,-0.3609,0.0317,1.5709,rough,14.0,1,3.296
4100,131.20,2.6530,4.6474,1.0942,-0.3609,0.0317,1.5709,rough,14.0,1,3.296
4110,131.52,2.6531,4.6474,1.0942,-0.3609,0.0317,1.5709,rough,14.0,1,3.296
4120,131.84,2.6531,4.6474,1.0942,-0.3609,0.0317,1.5709,rough,14.0,1,3.296
4130,132.16,2.6531,4.6474,1.0942,-0.3609,0.0317,1.5709,rough,14.0,1,3.296
4140,132.48,2.6531,4.6474,1.0942,-0.3609,0.0317,1.5709,rough,14.0,1,3.296
4150,132.80,2.6531,4.6474,1.0942,-0.3609,0.0317,1.5709,rough,14.0,1,3.296
4160,133.12,2.6531,4.6474,1.0942,-0.3609,0.0317,1.5709,rough,14.0,1,3.296
4170,133.44,2.6531,4.6474,1.0942,-0.3609,0.0317,1.5709,rough,14.0,1,3.296
4180,133.76,2.6531,4.6474,1.0942,-0.3609,0.0317,1.5709,rough,14.0,1,3.296
4190,134.08,2.6531,4.6474,1.0942,-0.3609,0.0317,1.5709,rough,14.0,1,3.296
4200,134.40,2.6531,4.6474,1.0942,-0.3609,0.0317,1.5709,rough,14.0,1,3.296
4210,134.72,2.6531,4.6474,1.0942,-0.3609,0.0317,1.5709,rough,14.0,1,3.296
4220,135.04,2.6532,4.6474,1.0942,-0.3609,0.0317,1.5709,rough,14.0,1,3.296
4230,135.36,2.6532,4.6474,1.0942,-0.3609,0.0317,1.5709,rough,14.0,1,3.296
4240,135.68,2.6532,4.6474,1.0942,-0.3609,0.0317,1.5709,rough,14.0,1,3.296
4250,136.00,2.6532,4.6474,1.0942,-0.3609,0.0317,1.5709,rough,14.0,1,3.296
4260,136.32,2.6532,4.6474,1.0942,-0.3609,0.0317,1.5709,rough,14.0,1,3.296
4270,136.64,2.6532,4.6474,1.0942,-0.3609,0.0317,1.5709,rough,14.0,1,3.296
4280,136.96,2.6532,4.6474,1.0942,-0.3609,0.0317,1.5709,rough,14.0,1,3.296
4290,137.28,2.6532,4.6474,1.0942,-0.3609,0.0317,1.5709,rough,14.0,1,3.296
4300,137.60,2.6532,4.6474,1.0942,-0.3609,0.0317,1.5709,rough,14.0,1,3.296
4310,137.92,2.6532,4.6474,1.0943,-0.3609,0.0317,1.5709,rough,14.0,1,3.296
4320,138.24,2.6533,4.6474,1.0943,-0.3609,0.0317,1.5709,rough,14.0,1,3.296
4330,138.56,2.6533,4.6474,1.0943,-0.3609,0.0317,1.5709,rough,14.0,1,3.296
4340,138.88,2.6533,4.6474,1.0943,-0.3609,0.0317,1.5709,rough,14.0,1,3.296
4350,139.20,2.6533,4.6474,1.0943,-0.3609,0.0317,1.5709,rough,14.0,1,3.296
4360,139.52,2.6533,4.6474,1.0943,-0.3609,0.0317,1.5709,rough,14.0,1,3.296
4370,139.84,2.6533,4.6474,1.0943,-0.3609,0.0317,1.5709,rough,14.0,1,3.296
4380,140.16,2.6533,4.6474,1.0943,-0.3609,0.0317,1.5709,rough,14.0,1,3.296
4390,140.48,2.6533,4.6474,1.0943,-0.3609,0.0317,1.5709,rough,14.0,1,3.296
4400,140.80,2.6533,4.6474,1.0943,-0.3609,0.0317,1.5709,rough,14.0,1,3.296
4410,141.12,2.6533,4.6474,1.0943,-0.3609,0.0317,1.5709,rough,14.0,1,3.296
4420,141.44,2.6534,4.6474,1.0943,-0.3609,0.0317,1.5709,rough,14.0,1,3.296
4430,141.76,2.6534,4.6474,1.0943,-0.3609,0.0317,1.5709,rough,14.0,1,3.296
4440,142.08,2.6534,4.6474,1.0943,-0.3609,0.0317,1.5709,rough,14.0,1,3.296
4450,142.40,2.6534,4.6474,1.0943,-0.3609,0.0317,1.5709,rough,14.0,1,3.296
4460,142.72,2.6534,4.6474,1.0943,-0.3609,0.0317,1.5709,rough,14.0,1,3.296
4470,143.04,2.6534,4.6474,1.0943,-0.3609,0.0317,1.5709,rough,14.0,1,3.296
4480,143.36,2.6534,4.6474,1.0943,-0.3609,0.0317,1.5709,rough,14.0,1,3.296
4490,143.68,2.6534,4.6474,1.0943,-0.3609,0.0317,1.5709,rough,14.0,1,3.296
4500,144.00,2.6534,4.6474,1.0943,-0.3609,0.0317,1.5709,rough,14.0,1,3.296
4510,144.32,2.6534,4.6474,1.0943,-0.3609,0.0317,1.5709,rough,14.0,1,3.296
4520,144.64,2.6534,4.6474,1.0943,-0.3609,0.0317,1.5709,rough,14.0,1,3.296
4530,144.96,2.6535,4.6474,1.0943,-0.3609,0.0317,1.5709,rough,14.0,1,3.296
4540,145.28,2.6535,4.6474,1.0943,-0.3609,0.0317,1.5709,rough,14.0,1,3.296
4550,145.60,2.6535,4.6474,1.0943,-0.3609,0.0317,1.5709,rough,14.0,1,3.296
4560,145.92,2.6535,4.6474,1.0943,-0.3609,0.0317,1.5709,rough,14.0,1,3.296
4570,146.24,2.6535,4.6474,1.0943,-0.3609,0.0317,1.5709,rough,14.0,1,3.296
4580,146.56,2.6535,4.6474,1.0943,-0.3609,0.0317,1.5709,rough,14.0,1,3.296
4590,146.88,2.6535,4.6474,1.0944,-0.3609,0.0317,1.5709,rough,14.0,1,3.296
4600,147.20,2.6535,4.6474,1.0944,-0.3609,0.0317,1.5709,rough,14.0,1,3.296
4610,147.52,2.6535,4.6474,1.0944,-0.3609,0.0317,1.5709,rough,14.0,1,3.296
4620,147.84,2.6535,4.6474,1.0944,-0.3609,0.0317,1.5709,rough,14.0,1,3.296
4630,148.16,2.6535,4.6474,1.0944,-0.3609,0.0317,1.5709,rough,14.0,1,3.296
4640,148.48,2.6536,4.6474,1.0944,-0.3609,0.0317,1.5709,rough,14.0,1,3.296
4650,148.80,2.6536,4.6474,1.0944,-0.3609,0.0317,1.5709,rough,14.0,1,3.296
4660,149.12,2.6536,4.6474,1.0944,-0.3609,0.0317,1.5709,rough,14.0,1,3.296
4670,149.44,2.6536,4.6474,1.0944,-0.3609,0.0317,1.5709,rough,14.0,1,3.296
4680,149.76,2.6536,4.6474,1.0944,-0.3609,0.0317,1.5709,rough,14.0,1,3.296
4690,150.08,2.6536,4.6474,1.0944,-0.3609,0.0317,1.5709,rough,14.0,1,3.296
4700,150.40,2.6536,4.6474,1.0944,-0.3609,0.0317,1.5709,rough,14.0,1,3.296
4710,150.72,2.6536,4.6474,1.0944,-0.3609,0.0317,1.5709,rough,14.0,1,3.296
4720,151.04,2.6536,4.6474,1.0944,-0.3609,0.0317,1.5709,rough,14.0,1,3.296
4730,151.36,2.6536,4.6474,1.0944,-0.3609,0.0317,1.5709,rough,14.0,1,3.296
4740,151.68,2.6537,4.6474,1.0944,-0.3609,0.0317,1.5709,rough,14.0,1,3.296
4750,152.00,2.6537,4.6474,1.0944,-0.3609,0.0317,1.5709,rough,14.0,1,3.296
4760,152.32,2.6537,4.6474,1.0944,-0.3609,0.0317,1.5709,rough,14.0,1,3.296
4770,152.64,2.6537,4.6474,1.0944,-0.3609,0.0317,1.5709,rough,14.0,1,3.296
4780,152.96,2.6537,4.6474,1.0944,-0.3609,0.0317,1.5709,rough,14.0,1,3.296
4790,153.28,2.6537,4.6474,1.0944,-0.3609,0.0317,1.5709,rough,14.0,1,3.296
4800,153.60,2.6537,4.6474,1.0944,-0.3609,0.0317,1.5709,rough,14.0,1,3.296
4810,153.92,2.6537,4.6474,1.0944,-0.3609,0.0317,1.5709,rough,14.0,1,3.296
4820,154.24,2.6537,4.6474,1.0944,-0.3609,0.0317,1.5709,rough,14.0,1,3.296
4830,154.56,2.6537,4.6474,1.0944,-0.3609,0.0317,1.5709,rough,14.0,1,3.296
4840,154.88,2.6537,4.6474,1.0944,-0.3609,0.0317,1.5709,rough,14.0,1,3.296
4850,155.20,2.6538,4.6474,1.0944,-0.3609,0.0317,1.5709,rough,14.0,1,3.296
4860,155.52,2.6538,4.6474,1.0944,-0.3609,0.0317,1.5709,rough,14.0,1,3.296
4870,155.84,2.6538,4.6474,1.0945,-0.3609,0.0317,1.5709,rough,14.0,1,3.296
4880,156.16,2.6538,4.6474,1.0945,-0.3609,0.0317,1.5709,rough,14.0,1,3.296
4890,156.48,2.6538,4.6474,1.0945,-0.3609,0.0317,1.5709,rough,14.0,1,3.296
4900,156.80,2.6538,4.6474,1.0945,-0.3609,0.0317,1.5709,rough,14.0,1,3.296
4910,157.12,2.6538,4.6474,1.0945,-0.3609,0.0317,1.5709,rough,14.0,1,3.296
4920,157.44,2.6538,4.6474,1.0945,-0.3609,0.0317,1.5709,rough,14.0,1,3.296
4930,157.76,2.6538,4.6474,1.0945,-0.3609,0.0317,1.5709,rough,14.0,1,3.296
4940,158.08,2.6538,4.6474,1.0945,-0.3609,0.0317,1.5709,rough,14.0,1,3.296
4950,158.40,2.6538,4.6474,1.0945,-0.3609,0.0317,1.5709,rough,14.0,1,3.296
4960,158.72,2.6539,4.6474,1.0945,-0.3609,0.0317,1.5709,rough,14.0,1,3.296
4970,159.04,2.6539,4.6474,1.0945,-0.3609,0.0317,1.5709,rough,14.0,1,3.296
4980,159.36,2.6539,4.6474,1.0945,-0.3609,0.0317,1.5709,rough,14.0,1,3.296
4990,159.68,2.6539,4.6474,1.0945,-0.3609,0.0317,1.5709,rough,14.0,1,3.296
5000,160.00,2.6539,4.6474,1.0945,-0.3609,0.0317,1.5709,rough,14.0,1,3.296
5010,160.32,2.6539,4.6474,1.0945,-0.3609,0.0317,1.5709,rough,14.0,1,3.296
5020,160.64,2.6539,4.6474,1.0945,-0.3609,0.0317,1.5709,rough,14.0,1,3.296
5030,160.96,2.6539,4.6474,1.0945,-0.3609,0.0317,1.5709,rough,14.0,1,3.296
5040,161.28,2.6539,4.6474,1.0945,-0.3609,0.0317,1.5709,rough,14.0,1,3.296
5050,161.60,2.6539,4.6474,1.0945,-0.3609,0.0317,1.5709,rough,14.0,1,3.296
5060,161.92,2.6540,4.6474,1.0945,-0.3609,0.0317,1.5709,rough,14.0,1,3.296
5070,162.24,2.6540,4.6474,1.0945,-0.3609,0.0317,1.5709,rough,14.0,1,3.296
5080,162.56,2.6540,4.6474,1.0945,-0.3609,0.0317,1.5709,rough,14.0,1,3.296
5090,162.88,2.6540,4.6474,1.0945,-0.3609,0.0317,1.5709,rough,14.0,1,3.296
5100,163.20,2.6540,4.6474,1.0945,-0.3609,0.0317,1.5709,rough,14.0,1,3.296
5110,163.52,2.6540,4.6474,1.0945,-0.3609,0.0317,1.5709,rough,14.0,1,3.297
5120,163.84,2.6540,4.6474,1.0945,-0.3609,0.0317,1.5709,rough,14.0,1,3.297
5130,164.16,2.6540,4.6474,1.0945,-0.3609,0.0317,1.5709,rough,14.0,1,3.297
5140,164.48,2.6540,4.6474,1.0945,-0.3609,0.0317,1.5709,rough,14.0,1,3.297
5150,164.80,2.6540,4.6474,1.0945,-0.3609,0.0317,1.5709,rough,14.0,1,3.297
5160,165.12,2.6540,4.6474,1.0946,-0.3609,0.0317,1.5709,rough,14.0,1,3.297
5170,165.44,2.6541,4.6474,1.0946,-0.3609,0.0317,1.5709,rough,14.0,1,3.297
5180,165.76,2.6541,4.6474,1.0946,-0.3609,0.0317,1.5709,rough,14.0,1,3.297
5190,166.08,2.6541,4.6474,1.0946,-0.3609,0.0317,1.5709,rough,14.0,1,3.297
5200,166.40,2.6541,4.6474,1.0946,-0.3609,0.0317,1.5709,rough,14.0,1,3.297
5210,166.72,2.6541,4.6474,1.0946,-0.3609,0.0317,1.5709,rough,14.0,1,3.297
5220,167.04,2.6541,4.6474,1.0946,-0.3609,0.0317,1.5709,rough,14.0,1,3.297
5230,167.36,2.6541,4.6474,1.0946,-0.3609,0.0317,1.5709,rough,14.0,1,3.297
5240,167.68,2.6541,4.6474,1.0946,-0.3609,0.0317,1.5709,rough,14.0,1,3.297
5250,168.00,2.6541,4.6474,1.0946,-0.3609,0.0317,1.5709,rough,14.0,1,3.297
5260,168.32,2.6541,4.6474,1.0946,-0.3609,0.0317,1.5709,rough,14.0,1,3.297
5270,168.64,2.6541,4.6474,1.0946,-0.3609,0.0317,1.5709,rough,14.0,1,3.297
5280,168.96,2.6542,4.6474,1.0946,-0.3609,0.0317,1.5709,rough,14.0,1,3.297
5290,169.28,2.6542,4.6474,1.0946,-0.3609,0.0317,1.5709,rough,14.0,1,3.297
5300,169.60,2.6542,4.6474,1.0946,-0.3609,0.0317,1.5709,rough,14.0,1,3.297
5310,169.92,2.6542,4.6474,1.0946,-0.3609,0.0317,1.5709,rough,14.0,1,3.297
5320,170.24,2.6542,4.6474,1.0946,-0.3609,0.0317,1.5709,rough,14.0,1,3.297
5330,170.56,2.6542,4.6474,1.0946,-0.3609,0.0317,1.5709,rough,14.0,1,3.297
5340,170.88,2.6542,4.6474,1.0946,-0.3609,0.0317,1.5709,rough,14.0,1,3.297
5350,171.20,2.6542,4.6474,1.0946,-0.3609,0.0317,1.5709,rough,14.0,1,3.297
5360,171.52,2.6542,4.6474,1.0946,-0.3609,0.0317,1.5709,rough,14.0,1,3.297
5370,171.84,2.6542,4.6474,1.0946,-0.3609,0.0317,1.5709,rough,14.0,1,3.297
5380,172.16,2.6542,4.6474,1.0946,-0.3609,0.0317,1.5709,rough,14.0,1,3.297
5390,172.48,2.6543,4.6474,1.0946,-0.3609,0.0317,1.5709,rough,14.0,1,3.297
5400,172.80,2.6543,4.6474,1.0946,-0.3609,0.0317,1.5709,rough,14.0,1,3.297
5410,173.12,2.6543,4.6474,1.0946,-0.3609,0.0317,1.5709,rough,14.0,1,3.297
5420,173.44,2.6543,4.6474,1.0946,-0.3609,0.0317,1.5709,rough,14.0,1,3.297
5430,173.76,2.6543,4.6474,1.0946,-0.3609,0.0317,1.5709,rough,14.0,1,3.297
5440,174.08,2.6543,4.6474,1.0946,-0.3609,0.0317,1.5709,rough,14.0,1,3.297
5450,174.40,2.6543,4.6474,1.0947,-0.3609,0.0317,1.5709,rough,14.0,1,3.297
5460,174.72,2.6543,4.6474,1.0947,-0.3609,0.0317,1.5709,rough,14.0,1,3.297
5470,175.04,2.6543,4.6474,1.0947,-0.3609,0.0317,1.5709,rough,14.0,1,3.297
5480,175.36,2.6543,4.6474,1.0947,-0.3609,0.0317,1.5709,rough,14.0,1,3.297
5490,175.68,2.6543,4.6474,1.0947,-0.3609,0.0317,1.5709,rough,14.0,1,3.297
5500,176.00,2.6543,4.6474,1.0947,-0.3609,0.0317,1.5709,rough,14.0,1,3.297
5510,176.32,2.6544,4.6474,1.0947,-0.3609,0.0317,1.5709,rough,14.0,1,3.297
5520,176.64,2.6544,4.6474,1.0947,-0.3609,0.0317,1.5709,rough,14.0,1,3.297
5530,176.96,2.6544,4.6474,1.0947,-0.3609,0.0317,1.5709,rough,14.0,1,3.297
5540,177.28,2.6544,4.6474,1.0947,-0.3609,0.0317,1.5709,rough,14.0,1,3.297
5550,177.60,2.6544,4.6474,1.0947,-0.3609,0.0317,1.5709,rough,14.0,1,3.297
5560,177.92,2.6544,4.6474,1.0947,-0.3609,0.0317,1.5709,rough,14.0,1,3.297
5570,178.24,2.6544,4.6474,1.0947,-0.3609,0.0317,1.5709,rough,14.0,1,3.297
5580,178.56,2.6544,4.6474,1.0947,-0.3609,0.0317,1.5709,rough,14.0,1,3.297
5590,178.88,2.6544,4.6474,1.0947,-0.3609,0.0317,1.5709,rough,14.0,1,3.297
5600,179.20,2.6544,4.6474,1.0947,-0.3609,0.0317,1.5709,rough,14.0,1,3.297
5610,179.52,2.6544,4.6474,1.0947,-0.3609,0.0317,1.5709,rough,14.0,1,3.297
5620,179.84,2.6544,4.6474,1.0947,-0.3609,0.0317,1.5709,rough,14.0,1,3.297
5630,180.16,2.6545,4.6474,1.0947,-0.3609,0.0317,1.5709,rough,14.0,1,3.297
5640,180.48,2.6545,4.6474,1.0947,-0.3609,0.0317,1.5709,rough,14.0,1,3.297
5650,180.80,2.6545,4.6474,1.0947,-0.3609,0.0317,1.5709,rough,14.0,1,3.297
5660,181.12,2.6545,4.6474,1.0947,-0.3609,0.0317,1.5709,rough,14.0,1,3.297
5670,181.44,2.6545,4.6474,1.0947,-0.3609,0.0317,1.5709,rough,14.0,1,3.297
5680,181.76,2.6545,4.6474,1.0947,-0.3609,0.0317,1.5709,rough,14.0,1,3.297
5690,182.08,2.6545,4.6474,1.0947,-0.3609,0.0317,1.5709,rough,14.0,1,3.297
5700,182.40,2.6545,4.6474,1.0947,-0.3609,0.0317,1.5709,rough,14.0,1,3.297
5710,182.72,2.6545,4.6474,1.0947,-0.3609,0.0317,1.5709,rough,14.0,1,3.297
5720,183.04,2.6545,4.6474,1.0947,-0.3609,0.0317,1.5709,rough,14.0,1,3.297
5730,183.36,2.6545,4.6474,1.0947,-0.3609,0.0317,1.5709,rough,14.0,1,3.297
5740,183.68,2.6545,4.6474,1.0947,-0.3609,0.0317,1.5709,rough,14.0,1,3.297
5750,184.00,2.6545,4.6474,1.0947,-0.3609,0.0317,1.5709,rough,14.0,1,3.297
5760,184.32,2.6545,4.6474,1.0947,-0.3609,0.0317,1.5709,rough,14.0,1,3.297
5770,184.64,2.6546,4.6474,1.0947,-0.3609,0.0317,1.5709,rough,14.0,1,3.297
5780,184.96,2.6546,4.6474,1.0947,-0.3609,0.0317,1.5709,rough,14.0,1,3.297
5790,185.28,2.6546,4.6474,1.0948,-0.3609,0.0317,1.5709,rough,14.0,1,3.297
5800,185.60,2.6546,4.6474,1.0948,-0.3609,0.0317,1.5709,rough,14.0,1,3.297
5810,185.92,2.6546,4.6474,1.0948,-0.3609,0.0317,1.5709,rough,14.0,1,3.297
5820,186.24,2.6546,4.6474,1.0948,-0.3609,0.0317,1.5709,rough,14.0,1,3.297
5830,186.56,2.6546,4.6474,1.0948,-0.3609,0.0317,1.5709,rough,14.0,1,3.297
5840,186.88,2.6546,4.6474,1.0948,-0.3609,0.0317,1.5709,rough,14.0,1,3.297
5850,187.20,2.6546,4.6474,1.0948,-0.3609,0.0317,1.5709,rough,14.0,1,3.297
5860,187.52,2.6546,4.6474,1.0948,-0.3609,0.0317,1.5709,rough,14.0,1,3.297
5870,187.84,2.6546,4.6474,1.0948,-0.3609,0.0317,1.5709,rough,14.0,1,3.297
5880,188.16,2.6546,4.6474,1.0948,-0.3609,0.0317,1.5709,rough,14.0,1,3.297
5890,188.48,2.6546,4.6474,1.0948,-0.3609,0.0317,1.5709,rough,14.0,1,3.297
5900,188.80,2.6546,4.6473,1.0948,-0.3609,0.0317,1.5709,rough,14.0,1,3.297
5910,189.12,2.6546,4.6473,1.0948,-0.3609,0.0317,1.5709,rough,14.0,1,3.297
5920,189.44,2.6547,4.6473,1.0948,-0.3609,0.0317,1.5709,rough,14.0,1,3.297
5930,189.76,2.6547,4.6473,1.0948,-0.3609,0.0317,1.5709,rough,14.0,1,3.297
5940,190.08,2.6547,4.6473,1.0948,-0.3609,0.0317,1.5709,rough,14.0,1,3.297
5950,190.40,2.6547,4.6473,1.0948,-0.3609,0.0317,1.5709,rough,14.0,1,3.297
5960,190.72,2.6547,4.6473,1.0948,-0.3609,0.0317,1.5709,rough,14.0,1,3.297
5970,191.04,2.6547,4.6473,1.0948,-0.3609,0.0317,1.5709,rough,14.0,1,3.297
5980,191.36,2.6547,4.6473,1.0948,-0.3609,0.0317,1.5709,rough,14.0,1,3.297
5990,191.68,2.6547,4.6473,1.0948,-0.3609,0.0317,1.5709,rough,14.0,1,3.297
6000,192.00,2.6547,4.6473,1.0948,-0.3609,0.0317,1.5709,rough,14.0,1,3.297
6010,192.32,2.6547,4.6473,1.0948,-0.3609,0.0317,1.5709,rough,14.0,1,3.297
6020,192.64,2.6547,4.6473,1.0948,-0.3609,0.0317,1.5709,rough,14.0,1,3.297
6030,192.96,2.6547,4.6473,1.0948,-0.3609,0.0317,1.5709,rough,14.0,1,3.297
6040,193.28,2.6547,4.6473,1.0948,-0.3609,0.0317,1.5709,rough,14.0,1,3.297
6050,193.60,2.6547,4.6473,1.0948,-0.3609,0.0317,1.5709,rough,14.0,1,3.297
6060,193.92,2.6547,4.6473,1.0948,-0.3609,0.0317,1.5709,rough,14.0,1,3.297
6070,194.24,2.6547,4.6473,1.0948,-0.3609,0.0317,1.5709,rough,14.0,1,3.297
6080,194.56,2.6547,4.6473,1.0948,-0.3609,0.0317,1.5709,rough,14.0,1,3.297
6090,194.88,2.6547,4.6473,1.0948,-0.3609,0.0317,1.5709,rough,14.0,1,3.297
6100,195.20,2.6548,4.6473,1.0948,-0.3609,0.0317,1.5709,rough,14.0,1,3.297
6110,195.52,2.6548,4.6473,1.0948,-0.3609,0.0317,1.5709,rough,14.0,1,3.297
6120,195.84,2.6548,4.6473,1.0948,-0.3609,0.0317,1.5709,rough,14.0,1,3.297
6130,196.16,2.6548,4.6473,1.0948,-0.3609,0.0317,1.5709,rough,14.0,1,3.297
6140,196.48,2.6548,4.6473,1.0948,-0.3609,0.0317,1.5709,rough,14.0,1,3.297
6150,196.80,2.6548,4.6473,1.0948,-0.3609,0.0317,1.5709,rough,14.0,1,3.297
6160,197.12,2.6548,4.6473,1.0948,-0.3609,0.0317,1.5709,rough,14.0,1,3.297
6170,197.44,2.6548,4.6473,1.0948,-0.3609,0.0317,1.5709,rough,14.0,1,3.297
6180,197.76,2.6548,4.6473,1.0948,-0.3609,0.0317,1.5709,rough,14.0,1,3.297
6190,198.08,2.6548,4.6473,1.0948,-0.3609,0.0317,1.5709,rough,14.0,1,3.297
6200,198.40,2.6548,4.6473,1.0948,-0.3609,0.0317,1.5709,rough,14.0,1,3.297
6210,198.72,2.6548,4.6473,1.0948,-0.3609,0.0317,1.5709,rough,14.0,1,3.297
6220,199.04,2.6548,4.6473,1.0948,-0.3609,0.0317,1.5709,rough,14.0,1,3.297
6230,199.36,2.6548,4.6473,1.0948,-0.3609,0.0317,1.5709,rough,14.0,1,3.297
6240,199.68,2.6548,4.6473,1.0948,-0.3609,0.0317,1.5709,rough,14.0,1,3.297
6250,200.00,2.6548,4.6473,1.0949,-0.3609,0.0317,1.5709,rough,14.0,1,3.297
6260,200.32,2.6548,4.6473,1.0949,-0.3609,0.0317,1.5709,rough,14.0,1,3.297
6270,200.64,2.6548,4.6473,1.0949,-0.3609,0.0317,1.5709,rough,14.0,1,3.297
6280,200.96,2.6548,4.6473,1.0949,-0.3609,0.0317,1.5709,rough,14.0,1,3.297
6290,201.28,2.6548,4.6473,1.0949,-0.3609,0.0317,1.5709,rough,14.0,1,3.297
6300,201.60,2.6548,4.6473,1.0949,-0.3609,0.0317,1.5709,rough,14.0,1,3.297
6310,201.92,2.6549,4.6473,1.0949,-0.3609,0.0317,1.5709,rough,14.0,1,3.297
6320,202.24,2.6549,4.6473,1.0949,-0.3609,0.0317,1.5709,rough,14.0,1,3.297
6330,202.56,2.6549,4.6473,1.0949,-0.3609,0.0317,1.5709,rough,14.0,1,3.297
6340,202.88,2.6549,4.6473,1.0949,-0.3609,0.0317,1.5709,rough,14.0,1,3.297
6350,203.20,2.6549,4.6473,1.0949,-0.3609,0.0317,1.5709,rough,14.0,1,3.297
6360,203.52,2.6549,4.6473,1.0949,-0.3609,0.0317,1.5709,rough,14.0,1,3.297
6370,203.84,2.6549,4.6473,1.0949,-0.3609,0.0317,1.5709,rough,14.0,1,3.297
6380,204.16,2.6549,4.6473,1.0949,-0.3609,0.0317,1.5709,rough,14.0,1,3.297
6390,204.48,2.6549,4.6473,1.0949,-0.3609,0.0317,1.5709,rough,14.0,1,3.297
6400,204.80,2.6549,4.6473,1.0949,-0.3609,0.0317,1.5709,rough,14.0,1,3.297
6410,205.12,2.6549,4.6473,1.0949,-0.3609,0.0317,1.5709,rough,14.0,1,3.297
6420,205.44,2.6549,4.6473,1.0949,-0.3609,0.0317,1.5709,rough,14.0,1,3.297
6430,205.76,2.6549,4.6473,1.0949,-0.3609,0.0317,1.5709,rough,14.0,1,3.297
6440,206.08,2.6549,4.6473,1.0949,-0.3609,0.0317,1.5709,rough,14.0,1,3.297
6450,206.40,2.6549,4.6473,1.0949,-0.3609,0.0317,1.5709,rough,14.0,1,3.297
6460,206.72,2.6549,4.6473,1.0949,-0.3609,0.0317,1.5709,rough,14.0,1,3.297
6470,207.04,2.6549,4.6473,1.0949,-0.3609,0.0317,1.5709,rough,14.0,1,3.297
6480,207.36,2.6549,4.6473,1.0949,-0.3609,0.0317,1.5709,rough,14.0,1,3.297
6490,207.68,2.6549,4.6473,1.0949,-0.3609,0.0317,1.5709,rough,14.0,1,3.297
6500,208.00,2.6549,4.6473,1.0949,-0.3609,0.0317,1.5709,rough,14.0,1,3.297
6510,208.32,2.6549,4.6473,1.0949,-0.3609,0.0317,1.5709,rough,14.0,1,3.297
6520,208.64,2.6549,4.6473,1.0949,-0.3609,0.0317,1.5709,rough,14.0,1,3.297
6530,208.96,2.6549,4.6473,1.0949,-0.3609,0.0317,1.5709,rough,14.0,1,3.297
6540,209.28,2.6549,4.6473,1.0949,-0.3609,0.0317,1.5709,rough,14.0,1,3.297
6550,209.60,2.6549,4.6473,1.0949,-0.3609,0.0317,1.5709,rough,14.0,1,3.297
6560,209.92,2.6550,4.6473,1.0949,-0.3609,0.0317,1.5709,rough,14.0,1,3.297
6570,210.24,2.6550,4.6473,1.0949,-0.3609,0.0317,1.5709,rough,14.0,1,3.297
6580,210.56,2.6550,4.6473,1.0949,-0.3609,0.0317,1.5709,rough,14.0,1,3.297
6590,210.88,2.6550,4.6473,1.0949,-0.3609,0.0317,1.5709,rough,14.0,1,3.297
6600,211.20,2.6550,4.6473,1.0949,-0.3609,0.0317,1.5709,rough,14.0,1,3.297
6610,211.52,2.6550,4.6473,1.0949,-0.3609,0.0317,1.5709,rough,14.0,1,3.297
6620,211.84,2.6550,4.6473,1.0949,-0.3609,0.0317,1.5709,rough,14.0,1,3.297
6630,212.16,2.6550,4.6473,1.0949,-0.3609,0.0317,1.5709,rough,14.0,1,3.297
6640,212.48,2.6550,4.6473,1.0949,-0.3609,0.0317,1.5709,rough,14.0,1,3.297
6650,212.80,2.6550,4.6473,1.0949,-0.3609,0.0317,1.5709,rough,14.0,1,3.297
6660,213.12,2.6550,4.6473,1.0949,-0.3609,0.0317,1.5709,rough,14.0,1,3.297
6670,213.44,2.6550,4.6473,1.0949,-0.3609,0.0317,1.5709,rough,14.0,1,3.297
6680,213.76,2.6550,4.6473,1.0949,-0.3609,0.0317,1.5709,rough,14.0,1,3.297
6690,214.08,2.6550,4.6473,1.0949,-0.3609,0.0317,1.5709,rough,14.0,1,3.297
6700,214.40,2.6550,4.6473,1.0949,-0.3609,0.0317,1.5709,rough,14.0,1,3.297
6710,214.72,2.6550,4.6473,1.0949,-0.3609,0.0317,1.5709,rough,14.0,1,3.297
6720,215.04,2.6550,4.6473,1.0949,-0.3609,0.0317,1.5709,rough,14.0,1,3.297
6730,215.36,2.6550,4.6473,1.0949,-0.3609,0.0317,1.5709,rough,14.0,1,3.297
6740,215.68,2.6550,4.6473,1.0949,-0.3609,0.0317,1.5709,rough,14.0,1,3.297
6750,216.00,2.6550,4.6473,1.0949,-0.3609,0.0317,1.5709,rough,14.0,1,3.297
6760,216.32,2.6550,4.6473,1.0949,-0.3609,0.0317,1.5709,rough,14.0,1,3.297
6770,216.64,2.6550,4.6473,1.0949,-0.3609,0.0317,1.5709,rough,14.0,1,3.297
6780,216.96,2.6550,4.6473,1.0949,-0.3609,0.0317,1.5709,rough,14.0,1,3.297
6790,217.28,2.6550,4.6473,1.0949,-0.3609,0.0317,1.5709,rough,14.0,1,3.297
6800,217.60,2.6550,4.6473,1.0949,-0.3609,0.0317,1.5709,rough,14.0,1,3.297
6810,217.92,2.6550,4.6473,1.0949,-0.3609,0.0317,1.5709,rough,14.0,1,3.297
6820,218.24,2.6550,4.6473,1.0949,-0.3609,0.0317,1.5709,rough,14.0,1,3.297
6830,218.56,2.6550,4.6473,1.0949,-0.3609,0.0317,1.5709,rough,14.0,1,3.297
6840,218.88,2.6550,4.6473,1.0949,-0.3609,0.0317,1.5709,rough,14.0,1,3.297
6850,219.20,2.6550,4.6473,1.0949,-0.3609,0.0317,1.5709,rough,14.0,1,3.297
6860,219.52,2.6550,4.6473,1.0949,-0.3609,0.0317,1.5709,rough,14.0,1,3.297
6870,219.84,2.6550,4.6473,1.0949,-0.3609,0.0317,1.5709,rough,14.0,1,3.297
6880,220.16,2.6551,4.6473,1.0949,-0.3609,0.0317,1.5709,rough,14.0,1,3.297
6890,220.48,2.6551,4.6473,1.0949,-0.3609,0.0317,1.5709,rough,14.0,1,3.297
6900,220.80,2.6551,4.6473,1.0949,-0.3609,0.0317,1.5709,rough,14.0,1,3.297
6910,221.12,2.6551,4.6473,1.0949,-0.3609,0.0317,1.5709,rough,14.0,1,3.297
6920,221.44,2.6551,4.6473,1.0949,-0.3609,0.0317,1.5709,rough,14.0,1,3.297
6930,221.76,2.6551,4.6472,1.0949,-0.3609,0.0317,1.5709,rough,14.0,1,3.297
6940,222.08,2.6551,4.6472,1.0949,-0.3609,0.0317,1.5709,rough,14.0,1,3.297
6950,222.40,2.6551,4.6472,1.0949,-0.3609,0.0317,1.5709,rough,14.0,1,3.297
6960,222.72,2.6551,4.6472,1.0949,-0.3609,0.0317,1.5709,rough,14.0,1,3.297
6970,223.04,2.6551,4.6472,1.0949,-0.3609,0.0317,1.5709,rough,14.0,1,3.297
6980,223.36,2.6551,4.6472,1.0949,-0.3609,0.0317,1.5709,rough,14.0,1,3.297
6990,223.68,2.6551,4.6472,1.0949,-0.3609,0.0317,1.5709,rough,14.0,1,3.297
7000,224.00,2.6551,4.6472,1.0950,-0.3609,0.0317,1.5709,rough,14.0,1,3.297
7010,224.32,2.6551,4.6472,1.0950,-0.3609,0.0317,1.5709,rough,14.0,1,3.297
7020,224.64,2.6551,4.6472,1.0950,-0.3609,0.0317,1.5709,rough,14.0,1,3.297
7030,224.96,2.6551,4.6472,1.0950,-0.3609,0.0317,1.5709,rough,14.0,1,3.297
7040,225.28,2.6551,4.6472,1.0950,-0.3609,0.0317,1.5709,rough,14.0,1,3.297
7050,225.60,2.6551,4.6472,1.0950,-0.3609,0.0317,1.5709,rough,14.0,1,3.297
7060,225.92,2.6551,4.6472,1.0950,-0.3609,0.0317,1.5709,rough,14.0,1,3.297
7070,226.24,2.6551,4.6472,1.0950,-0.3609,0.0317,1.5709,rough,14.0,1,3.297
7080,226.56,2.6551,4.6472,1.0950,-0.3609,0.0317,1.5709,rough,14.0,1,3.297
7090,226.88,2.6551,4.6472,1.0950,-0.3609,0.0317,1.5709,rough,14.0,1,3.297
7100,227.20,2.6551,4.6472,1.0950,-0.3609,0.0317,1.5709,rough,14.0,1,3.297
7110,227.52,2.6551,4.6472,1.0950,-0.3609,0.0317,1.5709,rough,14.0,1,3.297
7120,227.84,2.6551,4.6472,1.0950,-0.3609,0.0317,1.5709,rough,14.0,1,3.297
7130,228.16,2.6551,4.6472,1.0950,-0.3609,0.0317,1.5709,rough,14.0,1,3.297
7140,228.48,2.6551,4.6472,1.0950,-0.3609,0.0317,1.5709,rough,14.0,1,3.297
7150,228.80,2.6551,4.6472,1.0950,-0.3609,0.0317,1.5709,rough,14.0,1,3.297
7160,229.12,2.6551,4.6472,1.0950,-0.3609,0.0317,1.5709,rough,14.0,1,3.297
7170,229.44,2.6551,4.6472,1.0950,-0.3609,0.0317,1.5709,rough,14.0,1,3.297
7180,229.76,2.6551,4.6472,1.0950,-0.3609,0.0317,1.5709,rough,14.0,1,3.297
7190,230.08,2.6551,4.6472,1.0950,-0.3609,0.0317,1.5709,rough,14.0,1,3.297
7200,230.40,2.6551,4.6472,1.0950,-0.3609,0.0317,1.5709,rough,14.0,1,3.297
7210,230.72,2.6551,4.6472,1.0950,-0.3609,0.0317,1.5709,rough,14.0,1,3.297
7220,231.04,2.6551,4.6472,1.0950,-0.3609,0.0317,1.5709,rough,14.0,1,3.297
7230,231.36,2.6551,4.6472,1.0950,-0.3609,0.0317,1.5709,rough,14.0,1,3.297
7240,231.68,2.6551,4.6472,1.0950,-0.3609,0.0317,1.5709,rough,14.0,1,3.297
7250,232.00,2.6551,4.6472,1.0950,-0.3609,0.0317,1.5709,rough,14.0,1,3.297
7260,232.32,2.6551,4.6472,1.0950,-0.3609,0.0317,1.5709,rough,14.0,1,3.297
7270,232.64,2.6551,4.6472,1.0950,-0.3609,0.0317,1.5709,rough,14.0,1,3.297
7280,232.96,2.6551,4.6472,1.0950,-0.3609,0.0317,1.5709,rough,14.0,1,3.297
7290,233.28,2.6551,4.6472,1.0950,-0.3609,0.0317,1.5709,rough,14.0,1,3.297
7300,233.60,2.6551,4.6472,1.0950,-0.3609,0.0317,1.5709,rough,14.0,1,3.297
7310,233.92,2.6552,4.6472,1.0950,-0.3609,0.0317,1.5709,rough,14.0,1,3.297
7320,234.24,2.6552,4.6472,1.0950,-0.3609,0.0317,1.5709,rough,14.0,1,3.297
7330,234.56,2.6552,4.6472,1.0950,-0.3609,0.0317,1.5709,rough,14.0,1,3.297
7340,234.88,2.6552,4.6472,1.0950,-0.3609,0.0317,1.5709,rough,14.0,1,3.297
7350,235.20,2.6552,4.6472,1.0950,-0.3609,0.0317,1.5709,rough,14.0,1,3.297
7360,235.52,2.6552,4.6472,1.0950,-0.3609,0.0317,1.5709,rough,14.0,1,3.297
7370,235.84,2.6552,4.6472,1.0950,-0.3609,0.0317,1.5709,rough,14.0,1,3.297
7380,236.16,2.6552,4.6472,1.0950,-0.3609,0.0317,1.5709,rough,14.0,1,3.297
7390,236.48,2.6552,4.6472,1.0950,-0.3609,0.0317,1.5709,rough,14.0,1,3.297
7400,236.80,2.6552,4.6472,1.0950,-0.3609,0.0317,1.5709,rough,14.0,1,3.297
7410,237.12,2.6552,4.6472,1.0950,-0.3609,0.0317,1.5709,rough,14.0,1,3.297
7420,237.44,2.6552,4.6472,1.0950,-0.3609,0.0317,1.5709,rough,14.0,1,3.297
7430,237.76,2.6552,4.6472,1.0950,-0.3609,0.0317,1.5709,rough,14.0,1,3.297
7440,238.08,2.6552,4.6472,1.0950,-0.3609,0.0317,1.5709,rough,14.0,1,3.297
7450,238.40,2.6552,4.6472,1.0950,-0.3609,0.0317,1.5709,rough,14.0,1,3.297
7460,238.72,2.6552,4.6472,1.0950,-0.3609,0.0317,1.5709,rough,14.0,1,3.297
7470,239.04,2.6552,4.6472,1.0950,-0.3609,0.0317,1.5709,rough,14.0,1,3.297
7480,239.36,2.6552,4.6472,1.0950,-0.3609,0.0317,1.5709,rough,14.0,1,3.297
7490,239.68,2.6552,4.6472,1.0950,-0.3609,0.0317,1.5709,rough,14.0,1,3.297
7500,240.00,2.6552,4.6472,1.0950,-0.3609,0.0317,1.5709,rough,14.0,1,3.297
7510,240.32,2.6552,4.6472,1.0950,-0.3609,0.0317,1.5709,rough,14.0,1,3.297
7520,240.64,2.6552,4.6472,1.0950,-0.3609,0.0317,1.5709,rough,14.0,1,3.297
7530,240.96,2.6552,4.6472,1.0950,-0.3609,0.0317,1.5709,rough,14.0,1,3.297
7540,241.28,2.6552,4.6472,1.0950,-0.3609,0.0317,1.5709,rough,14.0,1,3.297
7550,241.60,2.6552,4.6472,1.0950,-0.3609,0.0317,1.5709,rough,14.0,1,3.297
7560,241.92,2.6552,4.6472,1.0950,-0.3609,0.0317,1.5709,rough,14.0,1,3.297
7570,242.24,2.6552,4.6472,1.0950,-0.3609,0.0317,1.5709,rough,14.0,1,3.297
7580,242.56,2.6552,4.6472,1.0950,-0.3609,0.0317,1.5709,rough,14.0,1,3.297
7590,242.88,2.6552,4.6472,1.0950,-0.3609,0.0317,1.5709,rough,14.0,1,3.297
7600,243.20,2.6552,4.6472,1.0950,-0.3609,0.0317,1.5709,rough,14.0,1,3.297
7610,243.52,2.6552,4.6472,1.0950,-0.3609,0.0317,1.5709,rough,14.0,1,3.297
7620,243.84,2.6552,4.6472,1.0950,-0.3609,0.0317,1.5709,rough,14.0,1,3.297
7630,244.16,2.6552,4.6472,1.0950,-0.3609,0.0317,1.5709,rough,14.0,1,3.297
7640,244.48,2.6552,4.6472,1.0950,-0.3609,0.0317,1.5709,rough,14.0,1,3.297
7650,244.80,2.6552,4.6472,1.0950,-0.3609,0.0317,1.5709,rough,14.0,1,3.297
7660,245.12,2.6552,4.6472,1.0950,-0.3609,0.0317,1.5709,rough,14.0,1,3.297
7670,245.44,2.6552,4.6472,1.0950,-0.3609,0.0317,1.5709,rough,14.0,1,3.297
7680,245.76,2.6552,4.6472,1.0950,-0.3609,0.0317,1.5709,rough,14.0,1,3.297
7690,246.08,2.6552,4.6472,1.0950,-0.3609,0.0317,1.5709,rough,14.0,1,3.297
7700,246.40,2.6552,4.6472,1.0950,-0.3609,0.0317,1.5709,rough,14.0,1,3.297
7710,246.72,2.6552,4.6472,1.0950,-0.3609,0.0317,1.5709,rough,14.0,1,3.297
7720,247.04,2.6552,4.6472,1.0950,-0.3609,0.0317,1.5709,rough,14.0,1,3.297
7730,247.36,2.6552,4.6472,1.0950,-0.3609,0.0317,1.5709,rough,14.0,1,3.297
7740,247.68,2.6552,4.6472,1.0950,-0.3609,0.0317,1.5709,rough,14.0,1,3.297
7750,248.00,2.6552,4.6472,1.0950,-0.3609,0.0317,1.5709,rough,14.0,1,3.297
7760,248.32,2.6552,4.6472,1.0950,-0.3609,0.0317,1.5709,rough,14.0,1,3.297
7770,248.64,2.6552,4.6472,1.0950,-0.3609,0.0317,1.5709,rough,14.0,1,3.297
7780,248.96,2.6552,4.6472,1.0950,-0.3609,0.0317,1.5709,rough,14.0,1,3.297
7790,249.28,2.6552,4.6472,1.0950,-0.3609,0.0317,1.5709,rough,14.0,1,3.297
7800,249.60,2.6552,4.6472,1.0950,-0.3609,0.0317,1.5709,rough,14.0,1,3.297
7810,249.92,2.6552,4.6472,1.0950,-0.3609,0.0317,1.5709,rough,14.0,1,3.297
7820,250.24,2.6552,4.6472,1.0950,-0.3609,0.0317,1.5709,rough,14.0,1,3.297
7830,250.56,2.6552,4.6472,1.0950,-0.3609,0.0317,1.5709,rough,14.0,1,3.297
7840,250.88,2.6552,4.6472,1.0950,-0.3609,0.0317,1.5709,rough,14.0,1,3.297
7850,251.20,2.6552,4.6472,1.0950,-0.3609,0.0317,1.5709,rough,14.0,1,3.297
7860,251.52,2.6552,4.6472,1.0950,-0.3609,0.0317,1.5709,rough,14.0,1,3.297
7870,251.84,2.6552,4.6472,1.0950,-0.3609,0.0317,1.5709,rough,14.0,1,3.297
7880,252.16,2.6552,4.6472,1.0950,-0.3609,0.0317,1.5709,rough,14.0,1,3.297
7890,252.48,2.6552,4.6472,1.0950,-0.3609,0.0317,1.5709,rough,14.0,1,3.297
7900,252.80,2.6552,4.6472,1.0950,-0.3609,0.0317,1.5709,rough,14.0,1,3.297
7910,253.12,2.6552,4.6472,1.0950,-0.3609,0.0317,1.5709,rough,14.0,1,3.297
7920,253.44,2.6552,4.6472,1.0950,-0.3609,0.0317,1.5709,rough,14.0,1,3.297
7930,253.76,2.6552,4.6472,1.0950,-0.3609,0.0317,1.5709,rough,14.0,1,3.297
7940,254.08,2.6552,4.6472,1.0950,-0.3609,0.0317,1.5709,rough,14.0,1,3.297
7950,254.40,2.6552,4.6472,1.0950,-0.3609,0.0317,1.5709,rough,14.0,1,3.297
7960,254.72,2.6552,4.6472,1.0950,-0.3609,0.0317,1.5709,rough,14.0,1,3.297
7970,255.04,2.6552,4.6472,1.0950,-0.3609,0.0317,1.5709,rough,14.0,1,3.297
7980,255.36,2.6553,4.6472,1.0950,-0.3609,0.0317,1.5709,rough,14.0,1,3.297
7990,255.68,2.6553,4.6472,1.0950,-0.3609,0.0317,1.5709,rough,14.0,1,3.297
8000,256.00,2.6553,4.6472,1.0950,-0.3609,0.0317,1.5709,rough,14.0,1,3.297
8010,256.32,2.6553,4.6472,1.0950,-0.3609,0.0317,1.5709,rough,14.0,1,3.297
8020,256.64,2.6553,4.6472,1.0950,-0.3609,0.0317,1.5709,rough,14.0,1,3.297
8030,256.96,2.6553,4.6472,1.0950,-0.3609,0.0317,1.5709,rough,14.0,1,3.297
8040,257.28,2.6553,4.6472,1.0950,-0.3609,0.0317,1.5709,rough,14.0,1,3.297
8050,257.60,2.6553,4.6472,1.0950,-0.3609,0.0317,1.5709,rough,14.0,1,3.297
8060,257.92,2.6553,4.6472,1.0950,-0.3609,0.0317,1.5709,rough,14.0,1,3.297
8070,258.24,2.6553,4.6472,1.0950,-0.3609,0.0317,1.5709,rough,14.0,1,3.297
