step,time_s,x,y,z,roll,pitch,yaw,terrain,speed,target_idx,dist_to_target
10,0.32,0.1071,-0.0580,0.1854,-0.0000,-0.0470,-0.0000,rough,15.5,0,5.315
20,0.64,0.5700,-0.0712,0.1791,-0.0002,0.0040,-0.1180,flat,18.0,0,4.955
30,0.96,1.1000,-0.1550,0.1799,-0.0001,0.0002,-0.2904,flat,18.0,0,4.516
40,1.28,1.6144,-0.3283,0.1799,-0.0003,-0.0000,-0.4210,flat,18.0,0,4.042
50,1.60,2.1060,-0.5678,0.1798,-0.0004,-0.0000,-0.5261,flat,18.0,0,3.548
60,1.92,2.5743,-0.8594,0.1798,-0.0004,-0.0000,-0.6093,flat,18.0,0,3.040
70,2.24,3.0199,-1.1887,0.1798,-0.0003,0.0000,-0.6821,flat,18.0,0,2.529
80,2.56,3.4358,-1.5501,0.1798,-0.0003,0.0000,-0.7640,flat,18.0,0,2.021
90,2.88,3.8147,-1.9446,0.1798,-0.0004,0.0000,-0.8625,flat,18.0,0,1.521
100,3.20,4.1478,-2.3731,0.1799,-0.0002,0.0000,-1.0003,flat,18.0,0,1.037
110,3.52,4.3949,-2.8113,0.1799,0.0000,0.0000,-1.2588,flat,18.0,1,7.536
120,3.84,4.5154,-3.2708,0.1799,-0.0001,0.0000,-1.5409,flat,18.0,1,7.291
130,4.16,4.5161,-3.7289,0.1799,-0.0002,-0.0000,-1.7258,flat,18.0,1,6.980
140,4.48,4.4157,-4.2360,0.1799,-0.0001,-0.0000,-1.9081,flat,18.0,1,6.576
150,4.80,4.2168,-4.7342,0.1799,-0.0001,-0.0000,-2.0546,flat,18.0,1,6.115
160,5.12,3.9456,-5.2064,0.1798,-0.0004,-0.0000,-2.1635,flat,18.0,1,5.621
170,5.44,3.6228,-5.6551,0.1798,-0.0003,-0.0000,-2.2411,flat,18.0,1,5.106
180,5.76,3.2656,-6.0800,0.1797,-0.0002,-0.0000,-2.3100,flat,18.0,1,4.581
190,6.08,2.8792,-6.4792,0.1797,-0.0002,-0.0000,-2.3765,flat,18.0,1,4.051
200,6.40,2.4662,-6.8540,0.1797,-0.0002,-0.0000,-2.4412,flat,18.0,1,3.514
210,6.72,2.0291,-7.2037,0.1797,-0.0002,-0.0000,-2.5058,flat,18.0,1,2.972
220,7.04,1.5698,-7.5260,0.1797,-0.0002,-0.0000,-2.5722,flat,18.0,1,2.427
230,7.36,1.0902,-7.8177,0.1797,-0.0003,-0.0000,-2.6438,flat,18.0,1,1.880
240,7.68,0.5918,-8.0736,0.1798,-0.0004,0.0000,-2.7280,flat,18.0,1,1.333
250,8.00,0.0773,-8.2840,0.1798,-0.0003,0.0000,-2.8457,flat,18.0,2,0.792
260,8.32,-0.3744,-8.3921,0.1799,0.0000,-0.0000,3.1385,flat,18.0,2,5.319
270,8.64,-0.8476,-8.3653,0.1799,-0.0001,-0.0000,2.8583,flat,18.0,2,5.053
280,8.96,-1.2942,-8.2176,0.1798,-0.0002,-0.0001,2.7164,flat,18.0,2,4.719
290,9.28,-1.7479,-7.9770,0.1799,-0.0001,-0.0000,2.5260,flat,18.0,2,4.321
300,9.60,-2.1623,-7.6438,0.1799,-0.0002,-0.0000,2.3813,flat,18.0,2,3.872
310,9.92,-2.5328,-7.2509,0.1799,-0.0003,-0.0000,2.2578,flat,18.0,2,3.397
320,10.24,-2.8604,-6.8122,0.1799,-0.0003,-0.0000,2.1376,flat,18.0,2,2.906
330,10.56,-3.1392,-6.3353,0.1799,-0.0003,-0.0000,2.0189,flat,18.0,2,2.402
340,10.88,-3.3635,-5.8279,0.1799,-0.0003,-0.0000,1.8977,flat,18.0,2,1.893
350,11.20,-3.5266,-5.2977,0.1799,-0.0002,-0.0000,1.7659,flat,18.0,2,1.383
360,11.52,-3.6185,-4.7545,0.1799,-0.0001,0.0000,1.6059,flat,18.0,2,0.884
370,11.84,-3.6203,-4.1989,0.1798,-0.0002,-0.0001,1.5277,flat,18.0,3,10.580
380,12.16,-3.5900,-3.6570,0.1797,-0.0002,-0.0001,1.4894,flat,18.0,3,10.048
390,12.48,-3.5372,-3.0931,0.1797,-0.0001,-0.0000,1.4464,flat,18.0,3,9.491
400,12.80,-3.4624,-2.5303,0.1797,-0.0001,-0.0000,1.4128,flat,18.0,3,8.929
410,13.12,-3.3691,-1.9691,0.1797,-0.0001,-0.0000,1.3847,flat,18.0,3,8.365
420,13.44,-3.2604,-1.4098,0.1797,-0.0001,-0.0000,1.3609,flat,18.0,3,7.798
430,13.76,-3.1386,-0.8524,0.1797,-0.0001,-0.0000,1.3403,flat,18.0,3,7.230
440,14.08,-3.0056,-0.2970,0.1797,-0.0001,-0.0000,1.3223,flat,18.0,3,6.660
450,14.40,-2.8627,0.2565,0.1797,-0.0001,-0.0000,1.3064,flat,18.0,3,6.090
460,14.72,-2.7111,0.8080,0.1797,-0.0001,-0.0000,1.2922,flat,18.0,3,5.518
470,15.04,-2.5518,1.3578,0.1797,-0.0000,-0.0000,1.2792,flat,18.0,3,4.947
480,15.36,-2.3854,1.9057,0.1797,-0.0000,-0.0000,1.2673,flat,18.0,3,4.374
490,15.68,-2.2125,2.4517,0.1797,-0.0000,-0.0000,1.2561,flat,18.0,3,3.802
500,16.00,-2.0335,2.9959,0.1797,-0.0000,-0.0000,1.2453,flat,18.0,3,3.229
510,16.32,-1.8487,3.5382,0.1797,-0.0000,-0.0000,1.2346,flat,18.0,3,2.656
520,16.64,-1.6580,4.0783,0.1797,-0.0000,0.0000,1.2236,flat,18.0,3,2.083
530,16.96,-1.4614,4.6159,0.1797,-0.0000,0.0000,1.2115,flat,18.0,3,1.511
540,17.28,-1.2583,5.1501,0.1797,-0.0001,0.0000,1.1966,flat,18.0,3,0.940
550,17.60,-1.0862,5.5849,0.1798,0.0003,0.0002,0.9561,flat,18.0,0,10.448
560,17.92,-0.8592,5.8222,0.1798,0.0003,-0.0000,0.5656,flat,18.0,0,10.541
570,18.24,-0.5359,5.9933,0.1799,0.0001,-0.0001,0.1907,flat,18.0,0,10.541
580,18.56,-0.1102,6.0531,0.1799,0.0000,-0.0000,-0.1442,flat,18.0,0,10.410
590,18.88,0.3557,5.9608,0.1799,0.0000,-0.0000,-0.3912,flat,18.0,0,10.139
600,19.20,0.8136,5.7412,0.1799,-0.0001,-0.0000,-0.5743,flat,18.0,0,9.766
610,19.52,1.2434,5.4277,0.1799,-0.0002,-0.0000,-0.7130,flat,18.0,0,9.327
620,19.84,1.6384,5.0529,0.1798,-0.0004,-0.0000,-0.8158,flat,18.0,0,8.849
630,20.16,2.0004,4.6368,0.1798,-0.0004,-0.0000,-0.9060,flat,18.0,0,8.348
640,20.48,2.3307,4.1877,0.1798,-0.0003,-0.0000,-0.9851,flat,18.0,0,7.829
650,20.80,2.6297,3.7124,0.1797,-0.0003,-0.0000,-1.0542,flat,18.0,0,7.298
660,21.12,2.8988,3.2164,0.1797,-0.0002,-0.0000,-1.1148,flat,18.0,0,6.756
670,21.44,3.1393,2.7041,0.1797,-0.0002,-0.0000,-1.1681,flat,18.0,0,6.208
680,21.76,3.3539,2.1792,0.1797,-0.0002,0.0000,-1.2148,flat,18.0,0,5.655
690,22.08,3.5454,1.6454,0.1797,-0.0001,-0.0000,-1.2549,flat,18.0,0,5.099
700,22.40,3.7165,1.1039,0.1797,-0.0001,-0.0000,-1.2919,flat,18.0,0,4.540
710,22.72,3.8681,0.5559,0.1797,-0.0001,-0.0000,-1.3267,flat,18.0,0,3.979
720,23.04,4.0012,0.0027,0.1797,-0.0001,-0.0000,-1.3600,flat,18.0,0,3.417
730,23.36,4.1160,-0.5547,0.1797,-0.0001,-0.0000,-1.3931,flat,18.0,0,2.854
740,23.68,4.2124,-1.1153,0.1797,-0.0001,0.0000,-1.4273,flat,18.0,0,2.291
750,24.00,4.2894,-1.6782,0.1797,-0.0001,0.0000,-1.4654,flat,18.0,0,1.729
760,24.32,4.3442,-2.2420,0.1797,-0.0002,0.0000,-1.5156,flat,18.0,0,1.170
770,24.64,4.3691,-2.8003,0.1798,-0.0001,0.0000,-1.6175,flat,18.0,1,7.527
780,24.96,4.3263,-3.3286,0.1799,-0.0000,-0.0000,-1.8046,flat,18.0,1,7.115
790,25.28,4.1848,-3.8366,0.1799,-0.0002,0.0003,-1.9354,flat,18.0,1,6.661
800,25.60,3.9748,-4.3353,0.1799,-0.0003,-0.0000,-2.0459,flat,18.0,1,6.173
810,25.92,3.7083,-4.8166,0.1798,-0.0004,-0.0000,-2.1364,flat,18.0,1,5.661
820,26.24,3.3983,-5.2784,0.1797,-0.0003,-0.0000,-2.2035,flat,18.0,1,5.133
830,26.56,3.0579,-5.7207,0.1797,-0.0002,-0.0000,-2.2626,flat,18.0,1,4.598
840,26.88,2.6912,-6.1420,0.1797,-0.0002,-0.0000,-2.3201,flat,18.0,1,4.058
850,27.20,2.3002,-6.5420,0.1797,-0.0002,-0.0000,-2.3743,flat,18.0,1,3.515
860,27.52,1.8877,-6.9205,0.1797,-0.0002,-0.0000,-2.4277,flat,18.0,1,2.968
870,27.84,1.4551,-7.2768,0.1797,-0.0002,-0.0000,-2.4835,flat,18.0,1,2.420
880,28.16,1.0032,-7.6092,0.1797,-0.0002,-0.0000,-2.5446,flat,18.0,1,1.869
890,28.48,0.5324,-7.9132,0.1797,-0.0003,0.0000,-2.6180,flat,18.0,1,1.320
900,28.80,0.0435,-8.1779,0.1798,-0.0004,0.0000,-2.7235,flat,18.0,2,0.775
910,29.12,-0.3730,-8.3281,0.1799,0.0001,-0.0000,-3.0428,flat,18.0,2,5.267
920,29.44,-0.8321,-8.3484,0.1799,-0.0002,0.0000,2.9303,flat,18.0,2,5.045
930,29.76,-1.2893,-8.2266,0.1799,-0.0001,-0.0000,2.7133,flat,18.0,2,4.729
940,30.08,-1.7427,-7.9851,0.1799,-0.0001,-0.0000,2.5250,flat,18.0,2,4.330
950,30.40,-2.1568,-7.6515,0.1799,-0.0002,-0.0000,2.3804,flat,18.0,2,3.881
960,30.72,-2.5271,-7.2582,0.1799,-0.0003,-0.0000,2.2574,flat,18.0,2,3.406
970,31.04,-2.8548,-6.8192,0.1799,-0.0003,-0.0000,2.1377,flat,18.0,2,2.913
980,31.36,-3.1338,-6.3423,0.1799,-0.0003,-0.0000,2.0196,flat,18.0,2,2.410
990,31.68,-3.3585,-5.8351,0.1799,-0.0003,-0.0000,1.8990,flat,18.0,2,1.900
1000,32.00,-3.5224,-5.3050,0.1799,-0.0002,-0.0000,1.7681,flat,18.0,2,1.389
1010,32.32,-3.6155,-4.7618,0.1799,-0.0001,0.0000,1.6092,flat,18.0,2,0.890
1020,32.64,-3.6195,-4.2062,0.1798,-0.0002,-0.0001,1.5308,flat,18.0,3,10.587
1030,32.96,-3.5925,-3.6786,0.1798,-0.0001,0.0001,1.4908,rough,15.5,3,10.070
1040,33.28,-3.5436,-3.1311,0.1797,-0.0001,-0.0000,1.4524,flat,18.0,3,9.529
1050,33.60,-3.4721,-2.5680,0.1797,-0.0001,-0.0000,1.4174,flat,18.0,3,8.968
1060,33.92,-3.3813,-2.0067,0.1797,-0.0001,-0.0000,1.3884,flat,18.0,3,8.404
1070,34.24,-3.2746,-1.4472,0.1797,-0.0001,-0.0000,1.3637,flat,18.0,3,7.838
1080,34.56,-3.1544,-0.8896,0.1797,-0.0001,-0.0000,1.3425,flat,18.0,3,7.270
1090,34.88,-3.0225,-0.3341,0.1797,-0.0001,-0.0000,1.3240,flat,18.0,3,6.701
1100,35.20,-2.8805,0.2195,0.1797,-0.0001,-0.0000,1.3076,flat,18.0,3,6.130
1110,35.52,-2.7296,0.7712,0.1797,-0.0001,-0.0000,1.2930,flat,18.0,3,5.559
1120,35.84,-2.5707,1.3209,0.1797,-0.0000,-0.0000,1.2797,flat,18.0,3,4.988
1130,36.16,-2.4045,1.8688,0.1797,-0.0000,-0.0000,1.2675,flat,18.0,3,4.415
1140,36.48,-2.2318,2.4148,0.1797,-0.0000,-0.0000,1.2560,flat,18.0,3,3.843
1150,36.80,-2.0527,2.9590,0.1797,-0.0000,-0.0000,1.2450,flat,18.0,3,3.270
1160,37.12,-1.8678,3.5011,0.1797,-0.0000,-0.0000,1.2342,flat,18.0,3,2.698
1170,37.44,-1.6769,4.0411,0.1797,-0.0000,0.0000,1.2230,flat,18.0,3,2.125
1180,37.76,-1.4800,4.5785,0.1797,-0.0000,0.0000,1.2109,flat,18.0,3,1.552
1190,38.08,-1.2765,5.1127,0.1797,-0.0001,0.0000,1.1961,flat,18.0,3,0.981
1200,38.40,-1.1001,5.5696,0.1798,0.0002,0.0003,0.9921,flat,18.0,0,10.442
1210,38.72,-0.8818,5.8160,0.1798,0.0003,-0.0000,0.6012,flat,18.0,0,10.547
1220,39.04,-0.5688,5.9937,0.1799,0.0001,-0.0001,0.2241,flat,18.0,0,10.556
1230,39.36,-0.1503,6.0666,0.1799,-0.0000,-0.0000,-0.1164,flat,18.0,0,10.439
1240,39.68,0.3142,5.9874,0.1799,-0.0001,-0.0000,-0.3692,flat,18.0,0,10.179
1250,40.00,0.7740,5.7783,0.1799,-0.0001,-0.0000,-0.5591,flat,18.0,0,9.815
1260,40.32,1.2066,5.4721,0.1799,-0.0001,-0.0000,-0.7029,flat,18.0,0,9.381
1270,40.64,1.6048,5.1015,0.1798,-0.0003,-0.0000,-0.8073,flat,18.0,0,8.905
1280,40.96,1.9695,4.6888,0.1798,-0.0004,-0.0000,-0.8987,flat,18.0,0,8.406
1290,41.28,2.3026,4.2422,0.1798,-0.0004,-0.0000,-0.9788,flat,18.0,0,7.889
1300,41.60,2.6042,3.7689,0.1797,-0.0003,-0.0000,-1.0487,flat,18.0,0,7.358
1310,41.92,2.8757,3.2745,0.1797,-0.0002,-0.0000,-1.1100,flat,18.0,0,6.818
1320,42.24,3.1185,2.7634,0.1797,-0.0002,-0.0000,-1.1640,flat,18.0,0,6.270
1330,42.56,3.3352,2.2393,0.1797,-0.0002,0.0000,-1.2113,flat,18.0,0,5.717
1340,42.88,3.5285,1.7063,0.1797,-0.0001,-0.0000,-1.2517,flat,18.0,0,5.161
1350,43.20,3.7011,1.1653,0.1797,-0.0001,-0.0000,-1.2890,flat,18.0,0,4.603
1360,43.52,3.8543,0.6178,0.1797,-0.0001,-0.0000,-1.3239,flat,18.0,0,4.042
1370,43.84,3.9889,0.0650,0.1797,-0.0001,-0.0000,-1.3573,flat,18.0,0,3.480
1380,44.16,4.1053,-0.4921,0.1797,-0.0001,-0.0000,-1.3902,flat,18.0,0,2.917
1390,44.48,4.2034,-1.0525,0.1797,-0.0001,-0.0000,-1.4240,flat,18.0,0,2.354
1400,44.80,4.2823,-1.6153,0.1797,-0.0001,0.0000,-1.4614,flat,18.0,0,1.792
1410,45.12,4.3394,-2.1791,0.1797,-0.0002,0.0000,-1.5094,flat,18.0,0,1.232
1420,45.44,4.3683,-2.7391,0.1798,-0.0002,0.0000,-1.6008,flat,18.0,1,7.571
1430,45.76,4.3359,-3.2699,0.1799,-0.0001,-0.0000,-1.7855,flat,18.0,1,7.164
1440,46.08,4.2016,-3.7903,0.1799,-0.0001,-0.0000,-1.9392,flat,18.0,1,6.705
1450,46.40,3.9883,-4.2924,0.1799,-0.0004,-0.0000,-2.0523,flat,18.0,1,6.211
1460,46.72,3.7187,-4.7730,0.1798,-0.0004,-0.0000,-2.1394,flat,18.0,1,5.696
1470,47.04,3.4074,-5.2346,0.1797,-0.0002,-0.0000,-2.2044,flat,18.0,1,5.167
1480,47.36,3.0665,-5.6772,0.1797,-0.0002,-0.0000,-2.2620,flat,18.0,1,4.630
1490,47.68,2.7001,-6.0993,0.1797,-0.0002,-0.0000,-2.3180,flat,18.0,1,4.089
1500,48.00,2.3099,-6.5008,0.1797,-0.0002,-0.0000,-2.3707,flat,18.0,1,3.544
1510,48.32,1.8988,-6.8812,0.1797,-0.0002,-0.0000,-2.4225,flat,18.0,1,2.997
1520,48.64,1.4696,-7.2397,0.1797,-0.0002,-0.0000,-2.4742,flat,18.0,1,2.449
1530,48.96,1.0209,-7.5763,0.1797,-0.0002,-0.0000,-2.5339,flat,18.0,1,1.899
1540,49.28,0.5533,-7.8854,0.1797,-0.0003,0.0000,-2.6055,flat,18.0,1,1.349
1550,49.60,0.0675,-8.1566,0.1798,-0.0004,0.0000,-2.7071,flat,18.0,1,0.804
1560,49.92,-0.3539,-8.3214,0.1799,0.0001,-0.0000,-3.0083,flat,18.0,2,5.272
1570,50.24,-0.8073,-8.3577,0.1799,-0.0000,-0.0000,2.9533,flat,18.0,2,5.066
1580,50.56,-1.2606,-8.2504,0.1799,-0.0001,-0.0001,2.7454,flat,18.0,2,4.763
1590,50.88,-1.7172,-8.0252,0.1799,-0.0001,-0.0000,2.5477,flat,18.0,2,4.377
1600,51.20,-2.1361,-7.7019,0.1799,-0.0001,-0.0000,2.3950,flat,18.0,2,3.935
1610,51.52,-2.5107,-7.3145,0.1799,-0.0003,-0.0000,2.2695,flat,18.0,2,3.464
1620,51.84,-2.8424,-6.8799,0.1799,-0.0003,-0.0000,2.1479,flat,18.0,2,2.975
1630,52.16,-3.1254,-6.4061,0.1799,-0.0003,-0.0000,2.0282,flat,18.0,2,2.474
1640,52.48,-3.3540,-5.9008,0.1799,-0.0003,-0.0000,1.9069,flat,18.0,2,1.965
1650,52.80,-3.5219,-5.3720,0.1799,-0.0002,-0.0000,1.7767,flat,18.0,2,1.455
1660,53.12,-3.6199,-4.8290,0.1799,-0.0001,0.0000,1.6219,flat,18.0,2,0.954
1670,53.44,-3.6250,-4.2768,0.1798,-0.0002,-0.0001,1.5211,flat,18.0,3,10.657
1680,53.76,-3.5910,-3.7116,0.1798,-0.0002,-0.0000,1.4734,flat,18.0,3,10.101
1690,54.08,-3.5311,-3.1476,0.1797,-0.0001,-0.0000,1.4362,flat,18.0,3,9.542
1700,54.40,-3.4508,-2.5849,0.1797,-0.0001,-0.0000,1.4056,flat,18.0,3,8.979
1710,54.72,-3.3536,-2.0239,0.1797,-0.0001,-0.0000,1.3798,flat,18.0,3,8.413
1720,55.04,-3.2423,-1.4646,0.1797,-0.0001,-0.0000,1.3578,flat,18.0,3,7.845
1730,55.36,-3.1190,-0.9071,0.1797,-0.0001,-0.0000,1.3388,flat,18.0,3,7.276
1740,55.68,-2.9852,-0.3516,0.1797,-0.0001,-0.0000,1.3221,flat,18.0,3,6.706
1750,56.00,-2.8423,0.2022,0.1797,-0.0001,-0.0000,1.3074,flat,18.0,3,6.135
1760,56.32,-2.6913,0.7543,0.1797,-0.0000,-0.0000,1.2941,flat,18.0,3,5.563
1770,56.64,-2.5331,1.3046,0.1797,-0.0000,-0.0000,1.2821,flat,18.0,3,4.991
1780,56.96,-2.3683,1.8532,0.1797,-0.0000,-0.0000,1.2709,flat,18.0,3,4.419
1790,57.28,-2.1974,2.4002,0.1797,-0.0000,-0.0000,1.2605,flat,18.0,3,3.846
1800,57.60,-2.0209,2.9454,0.1797,-0.0000,-0.0000,1.2504,flat,18.0,3,3.273
1810,57.92,-1.8389,3.4889,0.1797,-0.0000,-0.0000,1.2405,flat,18.0,3,2.700
1820,58.24,-1.6515,4.0304,0.1797,-0.0000,0.0000,1.2303,flat,18.0,3,2.127
1830,58.56,-1.4586,4.5696,0.1797,-0.0000,0.0000,1.2192,flat,18.0,3,1.554
1840,58.88,-1.2597,5.1059,0.1797,-0.0000,0.0000,1.2056,flat,18.0,3,0.982
1850,59.20,-1.0874,5.5651,0.1798,0.0002,0.0003,1.0032,flat,18.0,0,10.431
1860,59.52,-0.8718,5.8146,0.1798,0.0003,-0.0000,0.6120,flat,18.0,0,10.541
1870,59.84,-0.5621,5.9941,0.1799,0.0001,-0.0001,0.2340,flat,18.0,0,10.554
1880,60.16,-0.1462,6.0708,0.1799,-0.0000,-0.0000,-0.1089,flat,18.0,0,10.441
1890,60.48,0.3173,5.9956,0.1799,-0.0001,-0.0000,-0.3645,flat,18.0,0,10.185
1900,60.80,0.7773,5.7890,0.1799,-0.0001,-0.0000,-0.5558,flat,18.0,0,9.824
1910,61.12,1.2103,5.4846,0.1799,-0.0001,-0.0000,-0.7010,flat,18.0,0,9.391
1920,61.44,1.6091,5.1147,0.1798,-0.0003,-0.0000,-0.8059,flat,18.0,0,8.917
1930,61.76,1.9741,4.7025,0.1798,-0.0004,-0.0000,-0.8978,flat,18.0,0,8.418
1940,62.08,2.3074,4.2563,0.1798,-0.0004,-0.0000,-0.9783,flat,18.0,0,7.901
1950,62.40,2.6091,3.7832,0.1797,-0.0003,-0.0000,-1.0486,flat,18.0,0,7.371
1960,62.72,2.8806,3.2888,0.1797,-0.0002,-0.0000,-1.1102,flat,18.0,0,6.831
1970,63.04,3.1232,2.7776,0.1797,-0.0002,-0.0000,-1.1644,flat,18.0,0,6.283
1980,63.36,3.3397,2.2534,0.1797,-0.0002,-0.0000,-1.2121,flat,18.0,0,5.730
1990,63.68,3.5326,1.7203,0.1797,-0.0001,-0.0000,-1.2526,flat,18.0,0,5.175
2000,64.00,3.7048,1.1792,0.1797,-0.0001,-0.0000,-1.2899,flat,18.0,0,4.616
2010,64.32,3.8575,0.6316,0.1797,-0.0001,-0.0000,-1.3248,flat,18.0,0,4.056
2020,64.64,3.9915,0.0786,0.1797,-0.0001,-0.0000,-1.3583,flat,18.0,0,3.494
2030,64.96,4.1073,-0.4786,0.1797,-0.0001,-0.0000,-1.3911,flat,18.0,0,2.931
2040,65.28,4.2049,-1.0391,0.1797,-0.0001,-0.0000,-1.4250,flat,18.0,0,2.368
2050,65.60,4.2832,-1.6020,0.1797,-0.0001,0.0000,-1.4622,flat,18.0,0,1.805
2060,65.92,4.3400,-2.1660,0.1797,-0.0002,0.0000,-1.5097,flat,18.0,0,1.245
2070,66.24,4.3691,-2.7270,0.1798,-0.0002,0.0001,-1.5977,flat,18.0,1,7.581
2080,66.56,4.3391,-3.2589,0.1799,-0.0000,-0.0000,-1.7803,flat,18.0,1,7.174
2090,66.88,4.2079,-3.7795,0.1799,-0.0001,-0.0000,-1.9350,flat,18.0,1,6.717
2100,67.20,3.9966,-4.2823,0.1799,-0.0003,-0.0000,-2.0493,flat,18.0,1,6.224
2110,67.52,3.7284,-4.7634,0.1798,-0.0004,-0.0000,-2.1374,flat,18.0,1,5.710
2120,67.84,3.4181,-5.2254,0.1797,-0.0002,-0.0000,-2.2030,flat,18.0,1,5.181
2130,68.16,3.0779,-5.6685,0.1797,-0.0002,-0.0000,-2.2607,flat,18.0,1,4.644
2140,68.48,2.7120,-6.0910,0.1797,-0.0002,-0.0000,-2.3168,flat,18.0,1,4.104
2150,68.80,2.3223,-6.4929,0.1797,-0.0002,-0.0000,-2.3698,flat,18.0,1,3.559
2160,69.12,1.9116,-6.8736,0.1797,-0.0002,-0.0000,-2.4217,flat,18.0,1,3.012
2170,69.44,1.4826,-7.2324,0.1797,-0.0002,-0.0000,-2.4734,flat,18.0,1,2.464
2180,69.76,1.0342,-7.5693,0.1797,-0.0002,-0.0000,-2.5330,flat,18.0,1,1.914
2190,70.08,0.5669,-7.8789,0.1797,-0.0003,0.0000,-2.6042,flat,18.0,1,1.364
2200,70.40,0.0812,-8.1508,0.1798,-0.0004,0.0000,-2.7046,flat,18.0,1,0.818
2210,70.72,-0.3400,-8.3166,0.1799,0.0001,-0.0000,-3.0046,flat,18.0,2,5.275
2220,71.04,-0.7932,-8.3547,0.1799,0.0000,-0.0000,2.9559,flat,18.0,2,5.070
2230,71.36,-1.2585,-8.2430,0.1799,-0.0001,-0.0000,2.7400,flat,18.0,2,4.757
2240,71.68,-1.7149,-8.0150,0.1799,-0.0001,-0.0000,2.5445,flat,18.0,2,4.368
2250,72.00,-2.1333,-7.6902,0.1799,-0.0001,-0.0000,2.3934,flat,18.0,2,3.925
2260,72.32,-2.5076,-7.3021,0.1799,-0.0003,-0.0000,2.2686,flat,18.0,2,3.453
2270,72.64,-2.8391,-6.8671,0.1799,-0.0003,-0.0000,2.1475,flat,18.0,2,2.963
2280,72.96,-3.1221,-6.3932,0.1799,-0.0003,-0.0000,2.0284,flat,18.0,2,2.461
2290,73.28,-3.3508,-5.8879,0.1799,-0.0003,-0.0000,1.9073,flat,18.0,2,1.952
2300,73.60,-3.5190,-5.3592,0.1799,-0.0002,-0.0000,1.7771,flat,18.0,2,1.442
2310,73.92,-3.6171,-4.8163,0.1799,-0.0001,0.0000,1.6216,flat,18.0,2,0.941
2320,74.24,-3.6245,-4.2624,0.1798,-0.0002,-0.0001,1.5314,flat,18.0,3,10.642
2330,74.56,-3.5959,-3.6970,0.1797,-0.0002,-0.0000,1.4802,flat,18.0,3,10.089
2340,74.88,-3.5396,-3.1331,0.1797,-0.0001,-0.0000,1.4412,flat,18.0,3,9.530
2350,75.20,-3.4620,-2.5703,0.1797,-0.0001,-0.0000,1.4091,flat,18.0,3,8.968
2360,75.52,-3.3668,-2.0092,0.1797,-0.0001,-0.0000,1.3822,flat,18.0,3,8.403
2370,75.84,-3.2568,-1.4499,0.1797,-0.0001,-0.0000,1.3592,flat,18.0,3,7.835
2380,76.16,-3.1341,-0.8925,0.1797,-0.0001,-0.0000,1.3394,flat,18.0,3,7.267
2390,76.48,-3.0007,-0.3371,0.1797,-0.0001,-0.0000,1.3221,flat,18.0,3,6.697
2400,76.80,-2.8577,0.2166,0.1797,-0.0001,-0.0000,1.3068,flat,18.0,3,6.126
2410,77.12,-2.7064,0.7684,0.1797,-0.0000,-0.0000,1.2931,flat,18.0,3,5.555
2420,77.44,-2.5476,1.3184,0.1797,-0.0000,-0.0000,1.2806,flat,18.0,3,4.983
2430,77.76,-2.3819,1.8666,0.1797,-0.0000,-0.0000,1.2690,flat,18.0,3,4.410
2440,78.08,-2.2100,2.4131,0.1797,-0.0000,-0.0000,1.2582,flat,18.0,3,3.837
2450,78.40,-2.0322,2.9578,0.1797,-0.0000,-0.0000,1.2478,flat,18.0,3,3.265
2460,78.72,-1.8488,3.5007,0.1797,-0.0000,-0.0000,1.2375,flat,18.0,3,2.692
2470,79.04,-1.6598,4.0415,0.1797,-0.0000,0.0000,1.2270,flat,18.0,3,2.119
2480,79.36,-1.4650,4.5800,0.1797,-0.0000,0.0000,1.2154,flat,18.0,3,1.546
2490,79.68,-1.2640,5.1153,0.1797,-0.0000,0.0000,1.2013,flat,18.0,3,0.975
2500,80.00,-1.0899,5.5735,0.1798,0.0002,0.0003,0.9982,flat,18.0,0,10.440
2510,80.32,-0.8731,5.8216,0.1798,0.0003,-0.0000,0.6070,flat,18.0,0,10.547
2520,80.64,-0.5619,6.0002,0.1799,0.0001,-0.0001,0.2293,flat,18.0,0,10.559
2530,80.96,-0.1449,6.0751,0.1799,-0.0000,-0.0000,-0.1126,flat,18.0,0,10.444
2540,81.28,0.3190,5.9979,0.1799,-0.0001,-0.0000,-0.3668,flat,18.0,0,10.187
2550,81.60,0.7788,5.7901,0.1799,-0.0001,-0.0000,-0.5576,flat,18.0,0,9.824
2560,81.92,1.2116,5.4847,0.1799,-0.0001,-0.0000,-0.7022,flat,18.0,0,9.391
2570,82.24,1.6099,5.1144,0.1798,-0.0003,-0.0000,-0.8069,flat,18.0,0,8.916
2580,82.56,1.9747,4.7018,0.1798,-0.0004,-0.0000,-0.8986,flat,18.0,0,8.417
2590,82.88,2.3077,4.2553,0.1798,-0.0004,-0.0000,-0.9790,flat,18.0,0,7.900
2600,83.20,2.6091,3.7819,0.1797,-0.0003,-0.0000,-1.0491,flat,18.0,0,7.370
2610,83.52,2.8804,3.2874,0.1797,-0.0002,-0.0000,-1.1106,flat,18.0,0,6.830
2620,83.84,3.1229,2.7762,0.1797,-0.0002,-0.0000,-1.1647,flat,18.0,0,6.282
2630,84.16,3.3392,2.2519,0.1797,-0.0002,-0.0000,-1.2122,flat,18.0,0,5.729
2640,84.48,3.5320,1.7187,0.1797,-0.0001,-0.0000,-1.2527,flat,18.0,0,5.173
2650,84.80,3.7042,1.1776,0.1797,-0.0001,-0.0000,-1.2899,flat,18.0,0,4.615
2660,85.12,3.8569,0.6300,0.1797,-0.0001,-0.0000,-1.3248,flat,18.0,0,4.054
2670,85.44,3.9909,0.0770,0.1797,-0.0001,-0.0000,-1.3582,flat,18.0,0,3.492
2680,85.76,4.1068,-0.4802,0.1797,-0.0001,-0.0000,-1.3911,flat,18.0,0,2.929
2690,86.08,4.2044,-1.0407,0.1797,-0.0001,-0.0000,-1.4248,flat,18.0,0,2.366
2700,86.40,4.2828,-1.6036,0.1797,-0.0001,0.0000,-1.4621,flat,18.0,0,1.804
2710,86.72,4.3397,-2.1675,0.1797,-0.0002,0.0000,-1.5096,flat,18.0,0,1.243
2720,87.04,4.3685,-2.7277,0.1798,-0.0002,0.0000,-1.5996,flat,18.0,1,7.580
2730,87.36,4.3370,-3.2589,0.1799,-0.0000,-0.0000,-1.7841,flat,18.0,1,7.172
2740,87.68,4.2037,-3.7795,0.1799,-0.0001,-0.0000,-1.9376,flat,18.0,1,6.714
2750,88.00,3.9911,-4.2819,0.1799,-0.0004,-0.0000,-2.0509,flat,18.0,1,6.220
2760,88.32,3.7222,-4.7629,0.1798,-0.0004,-0.0000,-2.1383,flat,18.0,1,5.705
2770,88.64,3.4114,-5.2248,0.1797,-0.0002,-0.0000,-2.2034,flat,18.0,1,5.176
2780,88.96,3.0710,-5.6677,0.1797,-0.0002,-0.0000,-2.2609,flat,18.0,1,4.639
2790,89.28,2.7050,-6.0903,0.1797,-0.0002,-0.0000,-2.3168,flat,18.0,1,4.098
2800,89.60,2.3153,-6.4922,0.1797,-0.0002,-0.0000,-2.3696,flat,18.0,1,3.553
2810,89.92,1.9047,-6.8732,0.1797,-0.0002,-0.0000,-2.4212,flat,18.0,1,3.006
2820,90.24,1.4759,-7.2322,0.1797,-0.0002,-0.0000,-2.4728,flat,18.0,1,2.458
2830,90.56,1.0277,-7.5693,0.1797,-0.0002,-0.0000,-2.5322,flat,18.0,1,1.908
2840,90.88,0.5606,-7.8793,0.1797,-0.0003,0.0000,-2.6034,flat,18.0,1,1.358
2850,91.20,0.0753,-8.1516,0.1798,-0.0004,0.0000,-2.7040,flat,18.0,1,0.812
2860,91.52,-0.3455,-8.3175,0.1799,0.0001,-0.0000,-3.0047,flat,18.0,2,5.273
2870,91.84,-0.7985,-8.3555,0.1799,-0.0000,-0.0000,2.9561,flat,18.0,2,5.068
2880,92.16,-1.2729,-8.2396,0.1799,-0.0000,-0.0000,2.7137,flat,18.0,2,4.748
2890,92.48,-1.7267,-7.9985,0.1799,-0.0000,-0.0000,2.5261,flat,18.0,2,4.349
2900,92.80,-2.1414,-7.6655,0.1799,-0.0002,-0.0000,2.3820,flat,18.0,2,3.899
2910,93.12,-2.5125,-7.2728,0.1799,-0.0003,-0.0000,2.2595,flat,18.0,2,3.423
2920,93.44,-2.8411,-6.8346,0.1799,-0.0003,-0.0000,2.1405,flat,18.0,2,2.931
2930,93.76,-3.1215,-6.3584,0.1799,-0.0003,-0.0000,2.0231,flat,18.0,2,2.427
2940,94.08,-3.3480,-5.8519,0.1799,-0.0003,-0.0000,1.9034,flat,18.0,2,1.916
2950,94.40,-3.5143,-5.3224,0.1799,-0.0002,-0.0000,1.7736,flat,18.0,2,1.405
2960,94.72,-3.6106,-4.7794,0.1799,-0.0001,0.0000,1.6168,flat,18.0,2,0.904
2970,95.04,-3.6148,-4.2256,0.1798,-0.0002,-0.0001,1.5263,flat,18.0,3,10.604
2980,95.36,-3.5835,-3.6762,0.1798,-0.0002,-0.0000,1.4875,flat,18.0,3,10.065
2990,95.68,-3.5301,-3.1125,0.1797,-0.0001,-0.0000,1.4458,flat,18.0,3,9.508
3000,96.00,-3.4549,-2.5497,0.1797,-0.0001,-0.0000,1.4126,flat,18.0,3,8.946
3010,96.32,-3.3616,-1.9884,0.1797,-0.0001,-0.0000,1.3849,flat,18.0,3,8.381
3020,96.64,-3.2530,-1.4290,0.1797,-0.0001,-0.0000,1.3613,flat,18.0,3,7.814
3030,96.96,-3.1315,-0.8715,0.1797,-0.0001,-0.0000,1.3410,flat,18.0,3,7.246
3040,97.28,-2.9989,-0.3159,0.1797,-0.0001,-0.0000,1.3232,flat,18.0,3,6.676
3050,97.60,-2.8565,0.2377,0.1797,-0.0001,-0.0000,1.3075,flat,18.0,3,6.106
3060,97.92,-2.7056,0.7895,0.1797,-0.0001,-0.0000,1.2934,flat,18.0,3,5.534
3070,98.24,-2.5469,1.3395,0.1797,-0.0000,-0.0000,1.2806,flat,18.0,3,4.962
3080,98.56,-2.3813,1.8877,0.1797,-0.0000,-0.0000,1.2688,flat,18.0,3,4.390
3090,98.88,-2.2093,2.4340,0.1797,-0.0000,-0.0000,1.2577,flat,18.0,3,3.817
3100,99.20,-2.0312,2.9786,0.1797,-0.0000,-0.0000,1.2471,flat,18.0,3,3.245
3110,99.52,-1.8473,3.5212,0.1797,-0.0000,-0.0000,1.2365,flat,18.0,3,2.672
3120,99.84,-1.6578,4.0618,0.1797,-0.0000,0.0000,1.2257,flat,18.0,3,2.099
3130,100.16,-1.4623,4.5998,0.1797,-0.0000,0.0000,1.2138,flat,18.0,3,1.527
3140,100.48,-1.2604,5.1347,0.1797,-0.0001,0.0000,1.1992,flat,18.0,3,0.955
3150,100.80,-1.0894,5.5701,0.1798,0.0003,0.0002,0.9593,flat,18.0,0,10.437
3160,101.12,-0.8632,5.8082,0.1798,0.0003,-0.0000,0.5689,flat,18.0,0,10.531
3170,101.44,-0.5407,5.9800,0.1799,0.0001,-0.0001,0.1939,flat,18.0,0,10.531
3180,101.76,-0.1156,6.0410,0.1799,-0.0000,-0.0000,-0.1413,flat,18.0,0,10.401
3190,102.08,0.3502,5.9501,0.1799,0.0000,-0.0000,-0.3892,flat,18.0,0,10.131
3200,102.40,0.8084,5.7316,0.1799,-0.0001,-0.0000,-0.5728,flat,18.0,0,9.759
3210,102.72,1.2385,5.4188,0.1799,-0.0002,-0.0000,-0.7118,flat,18.0,0,9.320
3220,103.04,1.6340,5.0444,0.1798,-0.0004,-0.0000,-0.8146,flat,18.0,0,8.842
3230,103.36,1.9964,4.6288,0.1798,-0.0004,-0.0000,-0.9049,flat,18.0,0,8.341
3240,103.68,2.3272,4.1801,0.1798,-0.0003,-0.0000,-0.9840,flat,18.0,0,7.823
3250,104.00,2.6266,3.7051,0.1797,-0.0003,-0.0000,-1.0532,flat,18.0,0,7.291
3260,104.32,2.8962,3.2094,0.1797,-0.0002,-0.0000,-1.1138,flat,18.0,0,6.750
3270,104.64,3.1371,2.6973,0.1797,-0.0002,-0.0000,-1.1673,flat,18.0,0,6.202
3280,104.96,3.3522,2.1726,0.1797,-0.0002,0.0000,-1.2140,flat,18.0,0,5.648
3290,105.28,3.5441,1.6390,0.1797,-0.0001,-0.0000,-1.2542,flat,18.0,0,5.093
3300,105.60,3.7155,1.0976,0.1797,-0.0001,-0.0000,-1.2913,flat,18.0,0,4.534
3310,105.92,3.8675,0.5498,0.1797,-0.0001,-0.0000,-1.3261,flat,18.0,0,3.973
3320,106.24,4.0009,-0.0033,0.1797,-0.0001,-0.0000,-1.3595,flat,18.0,0,3.411
3330,106.56,4.1160,-0.5606,0.1797,-0.0001,-0.0000,-1.3926,flat,18.0,0,2.848
3340,106.88,4.2126,-1.1212,0.1797,-0.0001,0.0000,-1.4270,flat,18.0,0,2.285
3350,107.20,4.2898,-1.6841,0.1797,-0.0001,0.0000,-1.4653,flat,18.0,0,1.723
3360,107.52,4.3446,-2.2478,0.1797,-0.0002,0.0000,-1.5158,flat,18.0,0,1.164
3370,107.84,4.3693,-2.8060,0.1798,-0.0001,0.0000,-1.6187,flat,18.0,1,7.523
3380,108.16,4.3258,-3.3340,0.1799,-0.0001,-0.0000,-1.8060,flat,18.0,1,7.111
3390,108.48,4.1836,-3.8420,0.1799,-0.0002,0.0003,-1.9364,flat,18.0,1,6.657
3400,108.80,3.9730,-4.3405,0.1799,-0.0003,-0.0000,-2.0468,flat,18.0,1,6.168
3410,109.12,3.7061,-4.8216,0.1798,-0.0004,-0.0000,-2.1371,flat,18.0,1,5.656
3420,109.44,3.3958,-5.2832,0.1797,-0.0003,-0.0000,-2.2041,flat,18.0,1,5.128
3430,109.76,3.0551,-5.7253,0.1797,-0.0002,-0.0000,-2.2632,flat,18.0,1,4.593
3440,110.08,2.6882,-6.1463,0.1797,-0.0002,-0.0000,-2.3207,flat,18.0,1,4.053
3450,110.40,2.2969,-6.5461,0.1797,-0.0002,-0.0000,-2.3749,flat,18.0,1,3.510
3460,110.72,1.8842,-6.9243,0.1797,-0.0002,-0.0000,-2.4284,flat,18.0,1,2.963
3470,111.04,1.4514,-7.2804,0.1797,-0.0002,-0.0000,-2.4841,flat,18.0,1,2.415
3480,111.36,0.9992,-7.6125,0.1797,-0.0002,-0.0000,-2.5453,flat,18.0,1,1.864
3490,111.68,0.5282,-7.9161,0.1797,-0.0003,0.0000,-2.6190,flat,18.0,1,1.315
3500,112.00,0.0391,-8.1803,0.1798,-0.0004,0.0000,-2.7250,flat,18.0,2,0.771
3510,112.32,-0.3776,-8.3300,0.1799,0.0001,-0.0000,-3.0446,flat,18.0,2,5.266
3520,112.64,-0.8368,-8.3495,0.1799,-0.0002,-0.0000,2.9286,flat,18.0,2,5.044
3530,112.96,-1.2938,-8.2268,0.1799,-0.0001,-0.0000,2.7116,flat,18.0,2,4.728
3540,113.28,-1.7469,-7.9844,0.1799,-0.0001,-0.0000,2.5236,flat,18.0,2,4.328
3550,113.60,-2.1606,-7.6502,0.1799,-0.0002,-0.0000,2.3792,flat,18.0,2,3.878
3560,113.92,-2.5305,-7.2564,0.1799,-0.0003,-0.0000,2.2562,flat,18.0,2,3.403
3570,114.24,-2.8577,-6.8171,0.1799,-0.0003,-0.0000,2.1366,flat,18.0,2,2.911
3580,114.56,-3.1362,-6.3399,0.1799,-0.0003,-0.0000,2.0185,flat,18.0,2,2.407
3590,114.88,-3.3603,-5.8323,0.1799,-0.0003,-0.0000,1.8978,flat,18.0,2,1.897
3600,115.20,-3.5236,-5.3021,0.1799,-0.0002,-0.0000,1.7668,flat,18.0,2,1.386
3610,115.52,-3.6161,-4.7588,0.1799,-0.0001,0.0000,1.6078,flat,18.0,2,0.887
3620,115.84,-3.6192,-4.2031,0.1798,-0.0002,-0.0001,1.5295,flat,18.0,3,10.584
3630,116.16,-3.5916,-3.6755,0.1798,-0.0001,0.0001,1.4897,rough,15.5,3,10.067
3640,116.48,-3.5413,-3.1203,0.1797,-0.0001,-0.0000,1.4505,flat,18.0,3,9.518
3650,116.80,-3.4687,-2.5573,0.1797,-0.0001,-0.0000,1.4161,flat,18.0,3,8.957
3660,117.12,-3.3772,-1.9960,0.1797,-0.0001,-0.0000,1.3873,flat,18.0,3,8.393
3670,117.44,-3.2699,-1.4366,0.1797,-0.0001,-0.0000,1.3629,flat,18.0,3,7.826
3680,117.76,-3.1492,-0.8791,0.1797,-0.0001,-0.0000,1.3419,flat,18.0,3,7.258
3690,118.08,-3.0170,-0.3236,0.1797,-0.0001,-0.0000,1.3235,flat,18.0,3,6.689
3700,118.40,-2.8748,0.2300,0.1797,-0.0001,-0.0000,1.3073,flat,18.0,3,6.119
3710,118.72,-2.7237,0.7816,0.1797,-0.0001,-0.0000,1.2928,flat,18.0,3,5.547
3720,119.04,-2.5647,1.3314,0.1797,-0.0000,-0.0000,1.2797,flat,18.0,3,4.976
3730,119.36,-2.3985,1.8793,0.1797,-0.0000,-0.0000,1.2675,flat,18.0,3,4.404
3740,119.68,-2.2257,2.4253,0.1797,-0.0000,-0.0000,1.2561,flat,18.0,3,3.831
3750,120.00,-2.0468,2.9695,0.1797,-0.0000,-0.0000,1.2452,flat,18.0,3,3.258
3760,120.32,-1.8619,3.5117,0.1797,-0.0000,-0.0000,1.2344,flat,18.0,3,2.686
3770,120.64,-1.6711,4.0517,0.1797,-0.0000,0.0000,1.2233,flat,18.0,3,2.113
3780,120.96,-1.4744,4.5893,0.1797,-0.0000,0.0000,1.2111,flat,18.0,3,1.540
3790,121.28,-1.2711,5.1234,0.1797,-0.0001,0.0000,1.1963,flat,18.0,3,0.969
3800,121.60,-1.0989,5.5581,0.1798,0.0003,0.0002,0.9561,flat,18.0,0,10.431
3810,121.92,-0.8719,5.7955,0.1798,0.0003,-0.0000,0.5661,flat,18.0,0,10.524
3820,122.24,-0.5484,5.9669,0.1799,0.0001,-0.0001,0.1917,flat,18.0,0,10.523
3830,122.56,-0.1225,6.0270,0.1799,-0.0000,-0.0000,-0.1429,flat,18.0,0,10.391
3840,122.88,0.3437,5.9353,0.1799,0.0000,-0.0000,-0.3899,flat,18.0,0,10.120
3850,123.20,0.8020,5.7163,0.1799,-0.0001,-0.0000,-0.5730,flat,18.0,0,9.747
3860,123.52,1.2323,5.4034,0.1799,-0.0002,-0.0000,-0.7117,flat,18.0,0,9.307
3870,123.84,1.6279,5.0291,0.1798,-0.0004,-0.0000,-0.8142,flat,18.0,0,8.829
3880,124.16,1.9906,4.6137,0.1798,-0.0004,-0.0000,-0.9043,flat,18.0,0,8.328
3890,124.48,2.3216,4.1651,0.1798,-0.0003,-0.0000,-0.9833,flat,18.0,0,7.810
3900,124.80,2.6214,3.6904,0.1797,-0.0003,-0.0000,-1.0523,flat,18.0,0,7.278
3910,125.12,2.8915,3.1949,0.1797,-0.0002,-0.0000,-1.1129,flat,18.0,0,6.737
3920,125.44,3.1328,2.6831,0.1797,-0.0002,-0.0000,-1.1662,flat,18.0,0,6.188
3930,125.76,3.3484,2.1586,0.1797,-0.0002,0.0000,-1.2129,flat,18.0,0,5.635
3940,126.08,3.5409,1.6252,0.1797,-0.0001,-0.0000,-1.2531,flat,18.0,0,5.079
3950,126.40,3.7129,1.0840,0.1797,-0.0001,-0.0000,-1.2902,flat,18.0,0,4.521
3960,126.72,3.8655,0.5363,0.1797,-0.0001,-0.0000,-1.3251,flat,18.0,0,3.960
3970,127.04,3.9994,-0.0166,0.1797,-0.0001,-0.0000,-1.3586,flat,18.0,0,3.398
3980,127.36,4.1150,-0.5738,0.1797,-0.0001,-0.0000,-1.3918,flat,18.0,0,2.835
3990,127.68,4.2122,-1.1343,0.1797,-0.0001,0.0000,-1.4262,flat,18.0,0,2.272
4000,128.00,4.2897,-1.6970,0.1797,-0.0001,0.0000,-1.4648,flat,18.0,0,1.710
4010,128.32,4.3448,-2.2606,0.1797,-0.0002,0.0000,-1.5159,flat,18.0,0,1.151
4020,128.64,4.3692,-2.8185,0.1798,-0.0001,0.0000,-1.6209,flat,18.0,1,7.513
4030,128.96,4.3244,-3.3461,0.1799,-0.0001,-0.0000,-1.8086,flat,18.0,1,7.102
4040,129.28,4.1809,-3.8512,0.1799,-0.0002,0.0000,-1.9333,flat,18.0,1,6.649
4050,129.60,3.9707,-4.3521,0.1799,-0.0004,-0.0000,-2.0482,flat,18.0,1,6.159
4060,129.92,3.7031,-4.8328,0.1798,-0.0004,-0.0000,-2.1385,flat,18.0,1,5.647
4070,130.24,3.3921,-5.2940,0.1797,-0.0003,-0.0000,-2.2053,flat,18.0,1,5.119
4080,130.56,3.0509,-5.7357,0.1797,-0.0002,-0.0000,-2.2645,flat,18.0,1,4.584
4090,130.88,2.6834,-6.1562,0.1797,-0.0002,-0.0000,-2.3221,flat,18.0,1,4.044
4100,131.20,2.2916,-6.5555,0.1797,-0.0002,-0.0000,-2.3763,flat,18.0,1,3.500
4110,131.52,1.8784,-6.9330,0.1797,-0.0002,-0.0000,-2.4299,flat,18.0,1,2.954
4120,131.84,1.4450,-7.2884,0.1797,-0.0002,-0.0000,-2.4859,flat,18.0,1,2.405
4130,132.16,0.9923,-7.6198,0.1797,-0.0002,-0.0000,-2.5473,flat,18.0,1,1.855
4140,132.48,0.5207,-7.9224,0.1798,-0.0003,0.0000,-2.6214,flat,18.0,1,1.306
4150,132.80,0.0310,-8.1853,0.1798,-0.0004,0.0000,-2.7285,flat,18.0,2,0.762
4160,133.12,-0.3863,-8.3339,0.1799,0.0001,-0.0000,-3.0486,flat,18.0,2,5.264
4170,133.44,-0.8456,-8.3516,0.1799,-0.0002,-0.0000,2.9251,flat,18.0,2,5.042
4180,133.76,-1.2858,-8.2333,0.1799,-0.0002,-0.0003,2.7260,flat,18.0,2,4.737
4190,134.08,-1.7398,-7.9978,0.1799,-0.0001,-0.0000,2.5332,flat,18.0,2,4.343
4200,134.40,-2.1558,-7.6677,0.1799,-0.0001,-0.0000,2.3861,flat,18.0,2,3.897
4210,134.72,-2.5276,-7.2767,0.1799,-0.0003,-0.0000,2.2617,flat,18.0,2,3.424
4220,135.04,-2.8566,-6.8394,0.1799,-0.0003,-0.0000,2.1408,flat,18.0,2,2.933
4230,135.36,-3.1366,-6.3634,0.1799,-0.0003,-0.0000,2.0216,flat,18.0,2,2.431
4240,135.68,-3.3621,-5.8567,0.1799,-0.0003,-0.0000,1.9002,flat,18.0,2,1.921
4250,136.00,-3.5266,-5.3269,0.1799,-0.0002,-0.0000,1.7691,flat,18.0,2,1.411
4260,136.32,-3.6203,-4.7836,0.1799,-0.0001,0.0000,1.6111,flat,18.0,2,0.912
4270,136.64,-3.6212,-4.2296,0.1798,-0.0002,-0.0001,1.5214,flat,18.0,3,10.610
4280,136.96,-3.5873,-3.6713,0.1798,-0.0002,0.0002,1.4770,rough,15.5,3,10.062
4290,137.28,-3.5307,-3.1163,0.1797,-0.0001,-0.0000,1.4423,flat,18.0,3,9.511
4300,137.60,-3.4537,-2.5535,0.1797,-0.0001,-0.0000,1.4100,flat,18.0,3,8.949
4310,137.92,-3.3589,-1.9923,0.1797,-0.0001,-0.0000,1.3829,flat,18.0,3,8.384
4320,138.24,-3.2493,-1.4330,0.1797,-0.0001,-0.0000,1.3599,flat,18.0,3,7.817
4330,138.56,-3.1270,-0.8756,0.1797,-0.0001,-0.0000,1.3400,flat,18.0,3,7.248
4340,138.88,-2.9939,-0.3200,0.1797,-0.0001,-0.0000,1.3226,flat,18.0,3,6.679
4350,139.20,-2.8512,0.2336,0.1797,-0.0001,-0.0000,1.3072,flat,18.0,3,6.108
4360,139.52,-2.7001,0.7855,0.1797,-0.0000,-0.0000,1.2934,flat,18.0,3,5.536
4370,139.84,-2.5414,1.3355,0.1797,-0.0000,-0.0000,1.2808,flat,18.0,3,4.964
4380,140.16,-2.3759,1.8838,0.1797,-0.0000,-0.0000,1.2692,flat,18.0,3,4.392
4390,140.48,-2.2041,2.4303,0.1797,-0.0000,-0.0000,1.2583,flat,18.0,3,3.819
4400,140.80,-2.0264,2.9750,0.1797,-0.0000,-0.0000,1.2479,flat,18.0,3,3.246
4410,141.12,-1.8430,3.5178,0.1797,-0.0000,-0.0000,1.2375,flat,18.0,3,2.673
4420,141.44,-1.6539,4.0586,0.1797,-0.0000,0.0000,1.2269,flat,18.0,3,2.101
4430,141.76,-1.4591,4.5970,0.1797,-0.0000,0.0000,1.2152,flat,18.0,3,1.528
4440,142.08,-1.2580,5.1322,0.1797,-0.0000,0.0000,1.2009,flat,18.0,3,0.957
4450,142.40,-1.0876,5.5680,0.1798,0.0003,0.0002,0.9612,flat,18.0,0,10.434
4460,142.72,-0.8619,5.8066,0.1798,0.0003,-0.0000,0.5708,flat,18.0,0,10.529
4470,143.04,-0.5400,5.9788,0.1799,0.0001,-0.0001,0.1957,flat,18.0,0,10.530
4480,143.36,-0.1153,6.0405,0.1799,-0.0000,-0.0000,-0.1399,flat,18.0,0,10.400
4490,143.68,0.3503,5.9504,0.1799,-0.0000,-0.0000,-0.3885,flat,18.0,0,10.131
4500,144.00,0.8086,5.7322,0.1799,-0.0001,-0.0000,-0.5722,flat,18.0,0,9.760
4510,144.32,1.2389,5.4197,0.1799,-0.0002,-0.0000,-0.7115,flat,18.0,0,9.321
4520,144.64,1.6344,5.0455,0.1798,-0.0004,-0.0000,-0.8143,flat,18.0,0,8.843
4530,144.96,1.9969,4.6300,0.1798,-0.0004,-0.0000,-0.9047,flat,18.0,0,8.342
4540,145.28,2.3278,4.1814,0.1798,-0.0003,-0.0000,-0.9839,flat,18.0,0,7.824
4550,145.60,2.6272,3.7064,0.1797,-0.0003,-0.0000,-1.0531,flat,18.0,0,7.292
4560,145.92,2.8968,3.2107,0.1797,-0.0002,-0.0000,-1.1138,flat,18.0,0,6.751
4570,146.24,3.1377,2.6986,0.1797,-0.0002,-0.0000,-1.1673,flat,18.0,0,6.203
4580,146.56,3.3528,2.1739,0.1797,-0.0002,0.0000,-1.2140,flat,18.0,0,5.650
4590,146.88,3.5447,1.6404,0.1797,-0.0001,-0.0000,-1.2542,flat,18.0,0,5.094
4600,147.20,3.7161,1.0989,0.1797,-0.0001,-0.0000,-1.2913,flat,18.0,0,4.535
4610,147.52,3.8680,0.5511,0.1797,-0.0001,-0.0000,-1.3262,flat,18.0,0,3.975
4620,147.84,4.0013,-0.0020,0.1797,-0.0001,-0.0000,-1.3596,flat,18.0,0,3.413
4630,148.16,4.1164,-0.5593,0.1797,-0.0001,-0.0000,-1.3928,flat,18.0,0,2.850
4640,148.48,4.2130,-1.1199,0.1797,-0.0001,0.0000,-1.4271,flat,18.0,0,2.287
4650,148.80,4.2900,-1.6828,0.1797,-0.0001,0.0000,-1.4654,flat,18.0,0,1.725
4660,149.12,4.3448,-2.2465,0.1797,-0.0002,0.0000,-1.5159,flat,18.0,0,1.165
4670,149.44,4.3694,-2.8047,0.1798,-0.0001,0.0000,-1.6187,flat,18.0,1,7.524
4680,149.76,4.3259,-3.3328,0.1799,-0.0001,-0.0000,-1.8059,flat,18.0,1,7.112
4690,150.08,4.1838,-3.8408,0.1799,-0.0002,0.0003,-1.9363,flat,18.0,1,6.658
4700,150.40,3.9733,-4.3393,0.1799,-0.0003,-0.0000,-2.0467,flat,18.0,1,6.169
4710,150.72,3.7065,-4.8205,0.1798,-0.0004,-0.0000,-2.1370,flat,18.0,1,5.657
4720,151.04,3.3962,-5.2821,0.1797,-0.0003,-0.0000,-2.2040,flat,18.0,1,5.129
4730,151.36,3.0555,-5.7242,0.1797,-0.0002,-0.0000,-2.2631,flat,18.0,1,4.594
4740,151.68,2.6886,-6.1453,0.1797,-0.0002,-0.0000,-2.3206,flat,18.0,1,4.054
4750,152.00,2.2974,-6.5452,0.1797,-0.0002,-0.0000,-2.3747,flat,18.0,1,3.511
4760,152.32,1.8847,-6.9234,0.1797,-0.0002,-0.0000,-2.4282,flat,18.0,1,2.964
4770,152.64,1.4520,-7.2795,0.1797,-0.0002,-0.0000,-2.4840,flat,18.0,1,2.415
4780,152.96,0.9999,-7.6117,0.1797,-0.0002,-0.0000,-2.5451,flat,18.0,1,1.865
4790,153.28,0.5289,-7.9154,0.1797,-0.0003,0.0000,-2.6187,flat,18.0,1,1.316
4800,153.60,0.0399,-8.1797,0.1798,-0.0004,0.0000,-2.7246,flat,18.0,2,0.771
4810,153.92,-0.3768,-8.3296,0.1799,0.0001,-0.0000,-3.0442,flat,18.0,2,5.266
4820,154.24,-0.8359,-8.3493,0.1799,-0.0002,-0.0000,2.9290,flat,18.0,2,5.044
4830,154.56,-1.2930,-8.2267,0.1799,-0.0001,-0.0000,2.7120,flat,18.0,2,4.728
4840,154.88,-1.7462,-7.9845,0.1799,-0.0001,-0.0000,2.5239,flat,18.0,2,4.329
4850,155.20,-2.1599,-7.6504,0.1799,-0.0002,-0.0000,2.3795,flat,18.0,2,3.879
4860,155.52,-2.5299,-7.2568,0.1799,-0.0003,-0.0000,2.2564,flat,18.0,2,3.404
4870,155.84,-2.8572,-6.8175,0.1799,-0.0003,-0.0000,2.1368,flat,18.0,2,2.911
4880,156.16,-3.1358,-6.3404,0.1799,-0.0003,-0.0000,2.0187,flat,18.0,2,2.408
4890,156.48,-3.3600,-5.8329,0.1799,-0.0003,-0.0000,1.8981,flat,18.0,2,1.897
4900,156.80,-3.5234,-5.3027,0.1799,-0.0002,-0.0000,1.7671,flat,18.0,2,1.387
4910,157.12,-3.6160,-4.7594,0.1799,-0.0001,0.0000,1.6080,flat,18.0,2,0.888
4920,157.44,-3.6193,-4.2037,0.1798,-0.0002,-0.0001,1.5298,flat,18.0,3,10.584
4930,157.76,-3.5918,-3.6761,0.1798,-0.0001,0.0001,1.4899,rough,15.5,3,10.067
4940,158.08,-3.5416,-3.1209,0.1797,-0.0001,-0.0000,1.4506,flat,18.0,3,9.519
4950,158.40,-3.4691,-2.5579,0.1797,-0.0001,-0.0000,1.4162,flat,18.0,3,8.958
4960,158.72,-3.3776,-1.9966,0.1797,-0.0001,-0.0000,1.3874,flat,18.0,3,8.394
4970,159.04,-3.2704,-1.4372,0.1797,-0.0001,-0.0000,1.3629,flat,18.0,3,7.827
4980,159.36,-3.1497,-0.8797,0.1797,-0.0001,-0.0000,1.3419,flat,18.0,3,7.259
4990,159.68,-3.0175,-0.3242,0.1797,-0.0001,-0.0000,1.3236,flat,18.0,3,6.690
5000,160.00,-2.8753,0.2294,0.1797,-0.0001,-0.0000,1.3073,flat,18.0,3,6.119
5010,160.32,-2.7242,0.7810,0.1797,-0.0001,-0.0000,1.2928,flat,18.0,3,5.548
5020,160.64,-2.5652,1.3308,0.1797,-0.0000,-0.0000,1.2796,flat,18.0,3,4.977
5030,160.96,-2.3990,1.8787,0.1797,-0.0000,-0.0000,1.2675,flat,18.0,3,4.404
5040,161.28,-2.2263,2.4247,0.1797,-0.0000,-0.0000,1.2561,flat,18.0,3,3.832
5050,161.60,-2.0473,2.9689,0.1797,-0.0000,-0.0000,1.2452,flat,18.0,3,3.259
5060,161.92,-1.8624,3.5111,0.1797,-0.0000,-0.0000,1.2344,flat,18.0,3,2.686
5070,162.24,-1.6716,4.0511,0.1797,-0.0000,0.0000,1.2232,flat,18.0,3,2.114
5080,162.56,-1.4748,4.5886,0.1797,-0.0000,0.0000,1.2111,flat,18.0,3,1.541
5090,162.88,-1.2715,5.1228,0.1797,-0.0001,0.0000,1.1963,flat,18.0,3,0.970
5100,163.20,-1.0993,5.5575,0.1798,0.0003,0.0002,0.9561,flat,18.0,0,10.431
5110,163.52,-0.8723,5.7948,0.1798,0.0003,-0.0000,0.5661,flat,18.0,0,10.524
5120,163.84,-0.5488,5.9662,0.1799,0.0001,-0.0001,0.1916,flat,18.0,0,10.523
5130,164.16,-0.1228,6.0264,0.1799,-0.0000,-0.0000,-0.1429,flat,18.0,0,10.391
5140,164.48,0.3433,5.9346,0.1799,0.0000,-0.0000,-0.3899,flat,18.0,0,10.119
5150,164.80,0.8017,5.7157,0.1799,-0.0001,-0.0000,-0.5730,flat,18.0,0,9.747
5160,165.12,1.2320,5.4027,0.1799,-0.0002,-0.0000,-0.7116,flat,18.0,0,9.307
5170,165.44,1.6276,5.0284,0.1798,-0.0004,-0.0000,-0.8142,flat,18.0,0,8.829
5180,165.76,1.9903,4.6130,0.1798,-0.0004,-0.0000,-0.9043,flat,18.0,0,8.328
5190,166.08,2.3214,4.1645,0.1798,-0.0003,-0.0000,-0.9832,flat,18.0,0,7.809
5200,166.40,2.6212,3.6898,0.1797,-0.0003,-0.0000,-1.0523,flat,18.0,0,7.277
5210,166.72,2.8913,3.1943,0.1797,-0.0002,-0.0000,-1.1128,flat,18.0,0,6.736
5220,167.04,3.1327,2.6825,0.1797,-0.0002,-0.0000,-1.1662,flat,18.0,0,6.188
5230,167.36,3.3483,2.1580,0.1797,-0.0002,0.0000,-1.2128,flat,18.0,0,5.635
5240,167.68,3.5408,1.6247,0.1797,-0.0001,-0.0000,-1.2530,flat,18.0,0,5.079
5250,168.00,3.7129,1.0835,0.1797,-0.0001,-0.0000,-1.2901,flat,18.0,0,4.520
5260,168.32,3.8655,0.5358,0.1797,-0.0001,-0.0000,-1.3250,flat,18.0,0,3.960
5270,168.64,3.9994,-0.0171,0.1797,-0.0001,-0.0000,-1.3585,flat,18.0,0,3.398
5280,168.96,4.1150,-0.5743,0.1797,-0.0001,-0.0000,-1.3917,flat,18.0,0,2.835
5290,169.28,4.2122,-1.1348,0.1797,-0.0001,0.0000,-1.4262,flat,18.0,0,2.272
5300,169.60,4.2898,-1.6975,0.1797,-0.0001,0.0000,-1.4648,flat,18.0,0,1.710
5310,169.92,4.3448,-2.2611,0.1797,-0.0002,0.0000,-1.5159,flat,18.0,0,1.151
5320,170.24,4.3693,-2.8189,0.1798,-0.0001,0.0000,-1.6210,flat,18.0,1,7.513
5330,170.56,4.3244,-3.3466,0.1799,-0.0001,-0.0000,-1.8087,flat,18.0,1,7.101
5340,170.88,4.1808,-3.8517,0.1799,-0.0002,0.0000,-1.9334,flat,18.0,1,6.648
5350,171.20,3.9706,-4.3526,0.1799,-0.0004,-0.0000,-2.0483,flat,18.0,1,6.159
5360,171.52,3.7029,-4.8332,0.1798,-0.0004,-0.0000,-2.1386,flat,18.0,1,5.646
5370,171.84,3.3919,-5.2944,0.1797,-0.0003,-0.0000,-2.2053,flat,18.0,1,5.118
5380,172.16,3.0506,-5.7361,0.1797,-0.0002,-0.0000,-2.2646,flat,18.0,1,4.583
5390,172.48,2.6831,-6.1565,0.1797,-0.0002,-0.0000,-2.3222,flat,18.0,1,4.044
5400,172.80,2.2913,-6.5558,0.1797,-0.0002,-0.0000,-2.3763,flat,18.0,1,3.500
5410,173.12,1.8780,-6.9333,0.1797,-0.0002,-0.0000,-2.4300,flat,18.0,1,2.953
5420,173.44,1.4446,-7.2887,0.1797,-0.0002,-0.0000,-2.4859,flat,18.0,1,2.405
5430,173.76,0.9919,-7.6201,0.1797,-0.0002,-0.0000,-2.5474,flat,18.0,1,1.855
5440,174.08,0.5203,-7.9227,0.1798,-0.0003,0.0000,-2.6215,flat,18.0,1,1.305
5450,174.40,0.0306,-8.1855,0.1798,-0.0004,0.0000,-2.7286,flat,18.0,2,0.761
5460,174.72,-0.3868,-8.3341,0.1799,0.0001,-0.0000,-3.0488,flat,18.0,2,5.264
5470,175.04,-0.8461,-8.3518,0.1799,-0.0002,-0.0000,2.9249,flat,18.0,2,5.042
5480,175.36,-1.2862,-8.2333,0.1799,-0.0002,-0.0003,2.7259,flat,18.0,2,4.737
5490,175.68,-1.7403,-7.9978,0.1799,-0.0001,-0.0000,2.5331,flat,18.0,2,4.343
5500,176.00,-2.1562,-7.6677,0.1799,-0.0001,-0.0000,2.3860,flat,18.0,2,3.896
5510,176.32,-2.5280,-7.2766,0.1799,-0.0003,-0.0000,2.2615,flat,18.0,2,3.423
5520,176.64,-2.8569,-6.8392,0.1799,-0.0003,-0.0000,2.1407,flat,18.0,2,2.933
5530,176.96,-3.1369,-6.3633,0.1799,-0.0003,-0.0000,2.0215,flat,18.0,2,2.430
5540,177.28,-3.3623,-5.8565,0.1799,-0.0003,-0.0000,1.9001,flat,18.0,2,1.921
5550,177.60,-3.5267,-5.3266,0.1799,-0.0002,-0.0000,1.7689,flat,18.0,2,1.411
5560,177.92,-3.6203,-4.7834,0.1799,-0.0001,0.0000,1.6110,flat,18.0,2,0.912
5570,178.24,-3.6212,-4.2293,0.1798,-0.0002,-0.0001,1.5212,flat,18.0,3,10.610
5580,178.56,-3.5872,-3.6711,0.1798,-0.0002,0.0002,1.4769,rough,15.5,3,10.061
5590,178.88,-3.5305,-3.1161,0.1797,-0.0001,-0.0000,1.4422,flat,18.0,3,9.511
5600,179.20,-3.4535,-2.5533,0.1797,-0.0001,-0.0000,1.4100,flat,18.0,3,8.949
5610,179.52,-3.3587,-1.9921,0.1797,-0.0001,-0.0000,1.3829,flat,18.0,3,8.384
5620,179.84,-3.2491,-1.4328,0.1797,-0.0001,-0.0000,1.3599,flat,18.0,3,7.817
5630,180.16,-3.1268,-0.8753,0.1797,-0.0001,-0.0000,1.3400,flat,18.0,3,7.248
5640,180.48,-2.9936,-0.3198,0.1797,-0.0001,-0.0000,1.3226,flat,18.0,3,6.678
5650,180.80,-2.8509,0.2339,0.1797,-0.0001,-0.0000,1.3072,flat,18.0,3,6.108
5660,181.12,-2.6998,0.7857,0.1797,-0.0000,-0.0000,1.2934,flat,18.0,3,5.536
5670,181.44,-2.5412,1.3357,0.1797,-0.0000,-0.0000,1.2808,flat,18.0,3,4.964
5680,181.76,-2.3757,1.8840,0.1797,-0.0000,-0.0000,1.2692,flat,18.0,3,4.392
5690,182.08,-2.2039,2.4305,0.1797,-0.0000,-0.0000,1.2584,flat,18.0,3,3.819
5700,182.40,-2.0261,2.9752,0.1797,-0.0000,-0.0000,1.2479,flat,18.0,3,3.246
5710,182.72,-1.8427,3.5181,0.1797,-0.0000,-0.0000,1.2375,flat,18.0,3,2.673
5720,183.04,-1.6537,4.0589,0.1797,-0.0000,0.0000,1.2269,flat,18.0,3,2.100
5730,183.36,-1.4589,4.5973,0.1797,-0.0000,0.0000,1.2152,flat,18.0,3,1.528
5740,183.68,-1.2578,5.1325,0.1797,-0.0000,0.0000,1.2009,flat,18.0,3,0.956
5750,184.00,-1.0875,5.5683,0.1798,0.0003,0.0002,0.9612,flat,18.0,0,10.434
5760,184.32,-0.8617,5.8069,0.1798,0.0003,-0.0000,0.5708,flat,18.0,0,10.529
5770,184.64,-0.5399,5.9791,0.1799,0.0001,-0.0001,0.1957,flat,18.0,0,10.530
5780,184.96,-0.1151,6.0408,0.1799,-0.0000,-0.0000,-0.1399,flat,18.0,0,10.401
5790,185.28,0.3505,5.9507,0.1799,-0.0000,-0.0000,-0.3885,flat,18.0,0,10.131
5800,185.60,0.8087,5.7325,0.1799,-0.0001,-0.0000,-0.5722,flat,18.0,0,9.760
5810,185.92,1.2390,5.4200,0.1799,-0.0002,-0.0000,-0.7115,flat,18.0,0,9.321
5820,186.24,1.6346,5.0458,0.1798,-0.0004,-0.0000,-0.8143,flat,18.0,0,8.843
5830,186.56,1.9970,4.6303,0.1798,-0.0004,-0.0000,-0.9047,flat,18.0,0,8.343
5840,186.88,2.3279,4.1817,0.1798,-0.0003,-0.0000,-0.9839,flat,18.0,0,7.824
5850,187.20,2.6273,3.7067,0.1797,-0.0003,-0.0000,-1.0532,flat,18.0,0,7.293
5860,187.52,2.8969,3.2110,0.1797,-0.0002,-0.0000,-1.1138,flat,18.0,0,6.751
5870,187.84,3.1378,2.6989,0.1797,-0.0002,-0.0000,-1.1673,flat,18.0,0,6.203
5880,188.16,3.3528,2.1742,0.1797,-0.0002,0.0000,-1.2140,flat,18.0,0,5.650
5890,188.48,3.5448,1.6406,0.1797,-0.0001,-0.0000,-1.2542,flat,18.0,0,5.094
5900,188.80,3.7161,1.0992,0.1797,-0.0001,-0.0000,-1.2914,flat,18.0,0,4.535
5910,189.12,3.8680,0.5513,0.1797,-0.0001,-0.0000,-1.3262,flat,18.0,0,3.975
5920,189.44,4.0013,-0.0018,0.1797,-0.0001,-0.0000,-1.3597,flat,18.0,0,3.413
5930,189.76,4.1164,-0.5591,0.1797,-0.0001,-0.0000,-1.3928,flat,18.0,0,2.850
5940,190.08,4.2129,-1.1197,0.1797,-0.0001,0.0000,-1.4271,flat,18.0,0,2.287
5950,190.40,4.2900,-1.6826,0.1797,-0.0001,0.0000,-1.4654,flat,18.0,0,1.725
5960,190.72,4.3447,-2.2463,0.1797,-0.0002,0.0000,-1.5159,flat,18.0,0,1.165
5970,191.04,4.3694,-2.8045,0.1798,-0.0001,0.0000,-1.6187,flat,18.0,1,7.524
5980,191.36,4.3259,-3.3326,0.1799,-0.0001,-0.0000,-1.8058,flat,18.0,1,7.112
5990,191.68,4.1838,-3.8406,0.1799,-0.0002,0.0003,-1.9363,flat,18.0,1,6.658
6000,192.00,3.9734,-4.3391,0.1799,-0.0003,-0.0000,-2.0466,flat,18.0,1,6.170
6010,192.32,3.7065,-4.8203,0.1798,-0.0004,-0.0000,-2.1370,flat,18.0,1,5.657
6020,192.64,3.3963,-5.2819,0.1797,-0.0003,-0.0000,-2.2040,flat,18.0,1,5.129
6030,192.96,3.0556,-5.7240,0.1797,-0.0002,-0.0000,-2.2631,flat,18.0,1,4.594
6040,193.28,2.6887,-6.1451,0.1797,-0.0002,-0.0000,-2.3206,flat,18.0,1,4.055
6050,193.60,2.2975,-6.5450,0.1797,-0.0002,-0.0000,-2.3747,flat,18.0,1,3.511
6060,193.92,1.8848,-6.9232,0.1797,-0.0002,-0.0000,-2.4282,flat,18.0,1,2.964
6070,194.24,1.4521,-7.2794,0.1797,-0.0002,-0.0000,-2.4840,flat,18.0,1,2.416
6080,194.56,1.0000,-7.6116,0.1797,-0.0002,-0.0000,-2.5451,flat,18.0,1,1.866
6090,194.88,0.5291,-7.9153,0.1797,-0.0003,0.0000,-2.6187,flat,18.0,1,1.316
6100,195.20,0.0400,-8.1796,0.1798,-0.0004,0.0000,-2.7246,flat,18.0,2,0.772
6110,195.52,-0.3766,-8.3295,0.1799,0.0001,-0.0000,-3.0441,flat,18.0,2,5.266
6120,195.84,-0.8357,-8.3492,0.1799,-0.0002,-0.0000,2.9291,flat,18.0,2,5.044
6130,196.16,-1.2928,-8.2267,0.1799,-0.0001,-0.0000,2.7120,flat,18.0,2,4.728
6140,196.48,-1.7460,-7.9846,0.1799,-0.0001,-0.0000,2.5239,flat,18.0,2,4.329
6150,196.80,-2.1597,-7.6505,0.1799,-0.0002,-0.0000,2.3795,flat,18.0,2,3.879
6160,197.12,-2.5298,-7.2568,0.1799,-0.0003,-0.0000,2.2564,flat,18.0,2,3.404
6170,197.44,-2.8571,-6.8176,0.1799,-0.0003,-0.0000,2.1368,flat,18.0,2,2.911
6180,197.76,-3.1357,-6.3404,0.1799,-0.0003,-0.0000,2.0187,flat,18.0,2,2.408
6190,198.08,-3.3599,-5.8329,0.1799,-0.0003,-0.0000,1.8981,flat,18.0,2,1.897
6200,198.40,-3.5234,-5.3028,0.1799,-0.0002,-0.0000,1.7671,flat,18.0,2,1.387
6210,198.72,-3.6160,-4.7595,0.1799,-0.0001,0.0000,1.6081,flat,18.0,2,0.888
6220,199.04,-3.6193,-4.2038,0.1798,-0.0002,-0.0001,1.5298,flat,18.0,3,10.584
6230,199.36,-3.5918,-3.6762,0.1798,-0.0001,0.0001,1.4900,rough,15.5,3,10.067
6240,199.68,-3.5416,-3.1210,0.1797,-0.0001,-0.0000,1.4506,flat,18.0,3,9.519
6250,200.00,-3.4691,-2.5580,0.1797,-0.0001,-0.0000,1.4162,flat,18.0,3,8.958
6260,200.32,-3.3777,-1.9967,0.1797,-0.0001,-0.0000,1.3874,flat,18.0,3,8.394
6270,200.64,-3.2705,-1.4373,0.1797,-0.0001,-0.0000,1.3629,flat,18.0,3,7.827
6280,200.96,-3.1498,-0.8798,0.1797,-0.0001,-0.0000,1.3419,flat,18.0,3,7.259
6290,201.28,-3.0176,-0.3243,0.1797,-0.0001,-0.0000,1.3236,flat,18.0,3,6.690
6300,201.60,-2.8754,0.2293,0.1797,-0.0001,-0.0000,1.3073,flat,18.0,3,6.119
6310,201.92,-2.7243,0.7809,0.1797,-0.0001,-0.0000,1.2928,flat,18.0,3,5.548
6320,202.24,-2.5653,1.3307,0.1797,-0.0000,-0.0000,1.2796,flat,18.0,3,4.977
6330,202.56,-2.3992,1.8786,0.1797,-0.0000,-0.0000,1.2675,flat,18.0,3,4.404
6340,202.88,-2.2264,2.4246,0.1797,-0.0000,-0.0000,1.2561,flat,18.0,3,3.832
6350,203.20,-2.0474,2.9688,0.1797,-0.0000,-0.0000,1.2451,flat,18.0,3,3.259
6360,203.52,-1.8625,3.5110,0.1797,-0.0000,-0.0000,1.2343,flat,18.0,3,2.686
6370,203.84,-1.6717,4.0510,0.1797,-0.0000,0.0000,1.2232,flat,18.0,3,2.114
6380,204.16,-1.4749,4.5885,0.1797,-0.0000,0.0000,1.2111,flat,18.0,3,1.541
6390,204.48,-1.2715,5.1227,0.1797,-0.0001,0.0000,1.1963,flat,18.0,3,0.970
6400,204.80,-1.0993,5.5574,0.1798,0.0003,0.0002,0.9561,flat,18.0,0,10.431
6410,205.12,-0.8724,5.7947,0.1798,0.0003,-0.0000,0.5661,flat,18.0,0,10.523
6420,205.44,-0.5489,5.9661,0.1799,0.0001,-0.0001,0.1916,flat,18.0,0,10.523
6430,205.76,-0.1229,6.0263,0.1799,-0.0000,-0.0000,-0.1429,flat,18.0,0,10.391
6440,206.08,0.3433,5.9345,0.1799,0.0000,-0.0000,-0.3899,flat,18.0,0,10.119
6450,206.40,0.8016,5.7156,0.1799,-0.0001,-0.0000,-0.5730,flat,18.0,0,9.747
6460,206.72,1.2319,5.4026,0.1799,-0.0002,-0.0000,-0.7116,flat,18.0,0,9.307
6470,207.04,1.6276,5.0283,0.1798,-0.0004,-0.0000,-0.8142,flat,18.0,0,8.829
6480,207.36,1.9902,4.6129,0.1798,-0.0004,-0.0000,-0.9043,flat,18.0,0,8.328
6490,207.68,2.3213,4.1644,0.1798,-0.0003,-0.0000,-0.9832,flat,18.0,0,7.809
6500,208.00,2.6212,3.6897,0.1797,-0.0003,-0.0000,-1.0523,flat,18.0,0,7.277
6510,208.32,2.8912,3.1942,0.1797,-0.0002,-0.0000,-1.1128,flat,18.0,0,6.736
6520,208.64,3.1326,2.6824,0.1797,-0.0002,-0.0000,-1.1662,flat,18.0,0,6.188
6530,208.96,3.3482,2.1579,0.1797,-0.0002,0.0000,-1.2128,flat,18.0,0,5.635
6540,209.28,3.5408,1.6246,0.1797,-0.0001,-0.0000,-1.2530,flat,18.0,0,5.079
6550,209.60,3.7128,1.0833,0.1797,-0.0001,-0.0000,-1.2901,flat,18.0,0,4.520
6560,209.92,3.8654,0.5357,0.1797,-0.0001,-0.0000,-1.3250,flat,18.0,0,3.959
6570,210.24,3.9993,-0.0173,0.1797,-0.0001,-0.0000,-1.3585,flat,18.0,0,3.397
6580,210.56,4.1150,-0.5744,0.1797,-0.0001,-0.0000,-1.3917,flat,18.0,0,2.835
6590,210.88,4.2121,-1.1349,0.1797,-0.0001,0.0000,-1.4262,flat,18.0,0,2.272
6600,211.20,4.2897,-1.6977,0.1797,-0.0001,0.0000,-1.4648,flat,18.0,0,1.710
6610,211.52,4.3447,-2.2613,0.1797,-0.0002,0.0000,-1.5159,flat,18.0,0,1.151
6620,211.84,4.3692,-2.8191,0.1798,-0.0001,0.0000,-1.6209,flat,18.0,1,7.513
6630,212.16,4.3244,-3.3467,0.1799,-0.0001,-0.0000,-1.8087,flat,18.0,1,7.101
6640,212.48,4.1807,-3.8518,0.1799,-0.0002,0.0000,-1.9334,flat,18.0,1,6.648
6650,212.80,3.9705,-4.3527,0.1799,-0.0004,-0.0000,-2.0483,flat,18.0,1,6.159
6660,213.12,3.7029,-4.8334,0.1798,-0.0004,-0.0000,-2.1386,flat,18.0,1,5.646
6670,213.44,3.3919,-5.2945,0.1797,-0.0003,-0.0000,-2.2053,flat,18.0,1,5.118
6680,213.76,3.0506,-5.7362,0.1797,-0.0002,-0.0000,-2.2646,flat,18.0,1,4.583
6690,214.08,2.6831,-6.1567,0.1797,-0.0002,-0.0000,-2.3222,flat,18.0,1,4.044
6700,214.40,2.2913,-6.5559,0.1797,-0.0002,-0.0000,-2.3763,flat,18.0,1,3.500
6710,214.72,1.8780,-6.9334,0.1797,-0.0002,-0.0000,-2.4300,flat,18.0,1,2.953
6720,215.04,1.4446,-7.2888,0.1797,-0.0002,-0.0000,-2.4859,flat,18.0,1,2.405
6730,215.36,0.9919,-7.6201,0.1797,-0.0002,-0.0000,-2.5474,flat,18.0,1,1.855
6740,215.68,0.5202,-7.9227,0.1798,-0.0003,0.0000,-2.6215,flat,18.0,1,1.305
6750,216.00,0.0306,-8.1855,0.1798,-0.0004,0.0000,-2.7287,flat,18.0,2,0.761
6760,216.32,-0.3868,-8.3341,0.1799,0.0001,-0.0000,-3.0488,flat,18.0,2,5.264
6770,216.64,-0.8462,-8.3518,0.1799,-0.0002,-0.0000,2.9249,flat,18.0,2,5.042
6780,216.96,-1.2863,-8.2333,0.1799,-0.0002,-0.0003,2.7259,flat,18.0,2,4.737
6790,217.28,-1.7403,-7.9978,0.1799,-0.0001,-0.0000,2.5331,flat,18.0,2,4.343
6800,217.60,-2.1562,-7.6677,0.1799,-0.0001,-0.0000,2.3860,flat,18.0,2,3.896
6810,217.92,-2.5281,-7.2766,0.1799,-0.0003,-0.0000,2.2615,flat,18.0,2,3.423
6820,218.24,-2.8569,-6.8392,0.1799,-0.0003,-0.0000,2.1406,flat,18.0,2,2.933
6830,218.56,-3.1369,-6.3632,0.1799,-0.0003,-0.0000,2.0215,flat,18.0,2,2.430
6840,218.88,-3.3624,-5.8564,0.1799,-0.0003,-0.0000,1.9001,flat,18.0,2,1.921
6850,219.20,-3.5267,-5.3266,0.1799,-0.0002,-0.0000,1.7689,flat,18.0,2,1.411
6860,219.52,-3.6203,-4.7833,0.1799,-0.0001,0.0000,1.6109,flat,18.0,2,0.912
6870,219.84,-3.6212,-4.2293,0.1798,-0.0002,-0.0001,1.5212,flat,18.0,3,10.610
6880,220.16,-3.5872,-3.6710,0.1798,-0.0002,0.0002,1.4769,rough,15.5,3,10.061
6890,220.48,-3.5305,-3.1161,0.1797,-0.0001,-0.0000,1.4422,flat,18.0,3,9.511
6900,220.80,-3.4535,-2.5533,0.1797,-0.0001,-0.0000,1.4099,flat,18.0,3,8.949
6910,221.12,-3.3587,-1.9921,0.1797,-0.0001,-0.0000,1.3829,flat,18.0,3,8.384
6920,221.44,-3.2491,-1.4328,0.1797,-0.0001,-0.0000,1.3599,flat,18.0,3,7.817
6930,221.76,-3.1268,-0.8753,0.1797,-0.0001,-0.0000,1.3400,flat,18.0,3,7.248
6940,222.08,-2.9936,-0.3198,0.1797,-0.0001,-0.0000,1.3226,flat,18.0,3,6.678
6950,222.40,-2.8509,0.2339,0.1797,-0.0001,-0.0000,1.3072,flat,18.0,3,6.107
6960,222.72,-2.6998,0.7857,0.1797,-0.0000,-0.0000,1.2934,flat,18.0,3,5.536
6970,223.04,-2.5411,1.3358,0.1797,-0.0000,-0.0000,1.2808,flat,18.0,3,4.964
6980,223.36,-2.3756,1.8841,0.1797,-0.0000,-0.0000,1.2692,flat,18.0,3,4.392
6990,223.68,-2.2038,2.4306,0.1797,-0.0000,-0.0000,1.2584,flat,18.0,3,3.819
7000,224.00,-2.0261,2.9753,0.1797,-0.0000,-0.0000,1.2479,flat,18.0,3,3.246
7010,224.32,-1.8427,3.5181,0.1797,-0.0000,-0.0000,1.2375,flat,18.0,3,2.673
7020,224.64,-1.6537,4.0589,0.1797,-0.0000,0.0000,1.2269,flat,18.0,3,2.100
7030,224.96,-1.4589,4.5973,0.1797,-0.0000,0.0000,1.2152,flat,18.0,3,1.528
7040,225.28,-1.2578,5.1325,0.1797,-0.0000,0.0000,1.2009,flat,18.0,3,0.956
7050,225.60,-1.0874,5.5684,0.1798,0.0003,0.0002,0.9613,flat,18.0,0,10.434
7060,225.92,-0.8617,5.8070,0.1798,0.0003,-0.0000,0.5708,flat,18.0,0,10.529
7070,226.24,-0.5398,5.9791,0.1799,0.0001,-0.0001,0.1957,flat,18.0,0,10.530
7080,226.56,-0.1151,6.0409,0.1799,-0.0000,-0.0000,-0.1399,flat,18.0,0,10.401
7090,226.88,0.3505,5.9507,0.1799,-0.0000,-0.0000,-0.3885,flat,18.0,0,10.131
7100,227.20,0.8088,5.7326,0.1799,-0.0001,-0.0000,-0.5722,flat,18.0,0,9.760
7110,227.52,1.2390,5.4201,0.1799,-0.0002,-0.0000,-0.7115,flat,18.0,0,9.321
7120,227.84,1.6346,5.0459,0.1798,-0.0004,-0.0000,-0.8143,flat,18.0,0,8.843
7130,228.16,1.9971,4.6304,0.1798,-0.0004,-0.0000,-0.9047,flat,18.0,0,8.343
7140,228.48,2.3279,4.1817,0.1798,-0.0003,-0.0000,-0.9839,flat,18.0,0,7.824
7150,228.80,2.6273,3.7068,0.1797,-0.0003,-0.0000,-1.0532,flat,18.0,0,7.293
7160,229.12,2.8969,3.2111,0.1797,-0.0002,-0.0000,-1.1138,flat,18.0,0,6.751
7170,229.44,3.1378,2.6990,0.1797,-0.0002,-0.0000,-1.1673,flat,18.0,0,6.203
7180,229.76,3.3529,2.1742,0.1797,-0.0002,0.0000,-1.2141,flat,18.0,0,5.650
7190,230.08,3.5448,1.6407,0.1797,-0.0001,-0.0000,-1.2543,flat,18.0,0,5.094
7200,230.40,3.7161,1.0992,0.1797,-0.0001,-0.0000,-1.2914,flat,18.0,0,4.535
7210,230.72,3.8680,0.5514,0.1797,-0.0001,-0.0000,-1.3262,flat,18.0,0,3.975
7220,231.04,4.0013,-0.0018,0.1797,-0.0001,-0.0000,-1.3597,flat,18.0,0,3.413
7230,231.36,4.1163,-0.5591,0.1797,-0.0001,-0.0000,-1.3928,flat,18.0,0,2.850
7240,231.68,4.2129,-1.1197,0.1797,-0.0001,0.0000,-1.4271,flat,18.0,0,2.287
7250,232.00,4.2900,-1.6826,0.1797,-0.0001,0.0000,-1.4654,flat,18.0,0,1.725
7260,232.32,4.3447,-2.2463,0.1797,-0.0002,0.0000,-1.5159,flat,18.0,0,1.165
7270,232.64,4.3694,-2.8045,0.1798,-0.0001,0.0000,-1.6186,flat,18.0,1,7.524
7280,232.96,4.3259,-3.3326,0.1799,-0.0001,-0.0000,-1.8058,flat,18.0,1,7.112
7290,233.28,4.1838,-3.8406,0.1799,-0.0002,0.0003,-1.9363,flat,18.0,1,6.658
7300,233.60,3.9734,-4.3391,0.1799,-0.0003,-0.0000,-2.0466,flat,18.0,1,6.170
7310,233.92,3.7065,-4.8203,0.1798,-0.0004,-0.0000,-2.1370,flat,18.0,1,5.657
7320,234.24,3.3963,-5.2819,0.1797,-0.0003,-0.0000,-2.2040,flat,18.0,1,5.129
7330,234.56,3.0556,-5.7240,0.1797,-0.0002,-0.0000,-2.2631,flat,18.0,1,4.594
7340,234.88,2.6888,-6.1451,0.1797,-0.0002,-0.0000,-2.3206,flat,18.0,1,4.055
7350,235.20,2.2976,-6.5450,0.1797,-0.0002,-0.0000,-2.3747,flat,18.0,1,3.511
7360,235.52,1.8849,-6.9233,0.1797,-0.0002,-0.0000,-2.4282,flat,18.0,1,2.964
7370,235.84,1.4522,-7.2794,0.1797,-0.0002,-0.0000,-2.4840,flat,18.0,1,2.416
7380,236.16,1.0001,-7.6116,0.1797,-0.0002,-0.0000,-2.5451,flat,18.0,1,1.866
7390,236.48,0.5291,-7.9153,0.1797,-0.0003,0.0000,-2.6187,flat,18.0,1,1.316
7400,236.80,0.0401,-8.1797,0.1798,-0.0004,0.0000,-2.7246,flat,18.0,2,0.772
7410,237.12,-0.3766,-8.3295,0.1799,0.0001,-0.0000,-3.0441,flat,18.0,2,5.266
7420,237.44,-0.8357,-8.3492,0.1799,-0.0002,-0.0000,2.9290,flat,18.0,2,5.044
7430,237.76,-1.2928,-8.2267,0.1799,-0.0001,-0.0000,2.7120,flat,18.0,2,4.728
7440,238.08,-1.7460,-7.9846,0.1799,-0.0001,-0.0000,2.5239,flat,18.0,2,4.329
7450,238.40,-2.1597,-7.6505,0.1799,-0.0002,-0.0000,2.3795,flat,18.0,2,3.879
7460,238.72,-2.5297,-7.2568,0.1799,-0.0003,-0.0000,2.2564,flat,18.0,2,3.404
7470,239.04,-2.8570,-6.8176,0.1799,-0.0003,-0.0000,2.1368,flat,18.0,2,2.911
7480,239.36,-3.1356,-6.3404,0.1799,-0.0003,-0.0000,2.0187,flat,18.0,2,2.408
7490,239.68,-3.3599,-5.8329,0.1799,-0.0003,-0.0000,1.8981,flat,18.0,2,1.897
7500,240.00,-3.5233,-5.3028,0.1799,-0.0002,-0.0000,1.7671,flat,18.0,2,1.387
7510,240.32,-3.6159,-4.7595,0.1799,-0.0001,0.0000,1.6081,flat,18.0,2,0.888
7520,240.64,-3.6193,-4.2038,0.1798,-0.0002,-0.0001,1.5298,flat,18.0,3,10.584
7530,240.96,-3.5918,-3.6762,0.1798,-0.0001,0.0001,1.4900,rough,15.5,3,10.067
7540,241.28,-3.5416,-3.1210,0.1797,-0.0001,-0.0000,1.4506,flat,18.0,3,9.519
7550,241.60,-3.4691,-2.5580,0.1797,-0.0001,-0.0000,1.4162,flat,18.0,3,8.958
7560,241.92,-3.3777,-1.9967,0.1797,-0.0001,-0.0000,1.3874,flat,18.0,3,8.394
7570,242.24,-3.2705,-1.4373,0.1797,-0.0001,-0.0000,1.3630,flat,18.0,3,7.827
7580,242.56,-3.1498,-0.8798,0.1797,-0.0001,-0.0000,1.3419,flat,18.0,3,7.259
7590,242.88,-3.0177,-0.3242,0.1797,-0.0001,-0.0000,1.3236,flat,18.0,3,6.690
7600,243.20,-2.8754,0.2293,0.1797,-0.0001,-0.0000,1.3073,flat,18.0,3,6.119
7610,243.52,-2.7244,0.7810,0.1797,-0.0001,-0.0000,1.2928,flat,18.0,3,5.548
7620,243.84,-2.5653,1.3307,0.1797,-0.0000,-0.0000,1.2796,flat,18.0,3,4.977
7630,244.16,-2.3992,1.8786,0.1797,-0.0000,-0.0000,1.2675,flat,18.0,3,4.404
7640,244.48,-2.2264,2.4246,0.1797,-0.0000,-0.0000,1.2561,flat,18.0,3,3.832
7650,244.80,-2.0474,2.9688,0.1797,-0.0000,-0.0000,1.2451,flat,18.0,3,3.259
7660,245.12,-1.8625,3.5110,0.1797,-0.0000,-0.0000,1.2343,flat,18.0,3,2.686
7670,245.44,-1.6717,4.0510,0.1797,-0.0000,0.0000,1.2232,flat,18.0,3,2.114
7680,245.76,-1.4749,4.5885,0.1797,-0.0000,0.0000,1.2111,flat,18.0,3,1.541
7690,246.08,-1.2715,5.1227,0.1797,-0.0001,0.0000,1.1963,flat,18.0,3,0.970
7700,246.40,-1.0993,5.5574,0.1798,0.0003,0.0002,0.9561,flat,18.0,0,10.431
7710,246.72,-0.8724,5.7947,0.1798,0.0003,-0.0000,0.5661,flat,18.0,0,10.523
7720,247.04,-0.5489,5.9661,0.1799,0.0001,-0.0001,0.1916,flat,18.0,0,10.523
7730,247.36,-0.1229,6.0263,0.1799,-0.0000,-0.0000,-0.1430,flat,18.0,0,10.391
7740,247.68,0.3433,5.9345,0.1799,0.0000,-0.0000,-0.3899,flat,18.0,0,10.119
7750,248.00,0.8016,5.7156,0.1799,-0.0001,-0.0000,-0.5730,flat,18.0,0,9.747
7760,248.32,1.2319,5.4026,0.1799,-0.0002,-0.0000,-0.7116,flat,18.0,0,9.307
7770,248.64,1.6276,5.0283,0.1798,-0.0004,-0.0000,-0.8142,flat,18.0,0,8.829
7780,248.96,1.9902,4.6129,0.1798,-0.0004,-0.0000,-0.9043,flat,18.0,0,8.328
7790,249.28,2.3213,4.1644,0.1798,-0.0003,-0.0000,-0.9832,flat,18.0,0,7.809
7800,249.60,2.6211,3.6897,0.1797,-0.0003,-0.0000,-1.0523,flat,18.0,0,7.277
7810,249.92,2.8912,3.1942,0.1797,-0.0002,-0.0000,-1.1128,flat,18.0,0,6.736
7820,250.24,3.1326,2.6824,0.1797,-0.0002,-0.0000,-1.1662,flat,18.0,0,6.188
7830,250.56,3.3482,2.1579,0.1797,-0.0002,0.0000,-1.2129,flat,18.0,0,5.635
7840,250.88,3.5407,1.6245,0.1797,-0.0001,-0.0000,-1.2530,flat,18.0,0,5.079
7850,251.20,3.7128,1.0833,0.1797,-0.0001,-0.0000,-1.2902,flat,18.0,0,4.520
7860,251.52,3.8653,0.5356,0.1797,-0.0001,-0.0000,-1.3250,flat,18.0,0,3.959
7870,251.84,3.9993,-0.0173,0.1797,-0.0001,-0.0000,-1.3585,flat,18.0,0,3.397
7880,252.16,4.1149,-0.5745,0.1797,-0.0001,-0.0000,-1.3917,flat,18.0,0,2.835
7890,252.48,4.2121,-1.1350,0.1797,-0.0001,0.0000,-1.4262,flat,18.0,0,2.272
7900,252.80,4.2896,-1.6977,0.1797,-0.0001,0.0000,-1.4648,flat,18.0,0,1.710
7910,253.12,4.3447,-2.2613,0.1797,-0.0002,0.0000,-1.5159,flat,18.0,0,1.150
7920,253.44,4.3692,-2.8191,0.1798,-0.0001,0.0000,-1.6209,flat,18.0,1,7.513
7930,253.76,4.3243,-3.3468,0.1799,-0.0001,-0.0000,-1.8087,flat,18.0,1,7.101
7940,254.08,4.1807,-3.8518,0.1799,-0.0002,0.0000,-1.9334,flat,18.0,1,6.648
7950,254.40,3.9706,-4.3527,0.1799,-0.0004,-0.0000,-2.0483,flat,18.0,1,6.159
7960,254.72,3.7029,-4.8334,0.1798,-0.0004,-0.0000,-2.1385,flat,18.0,1,5.646
7970,255.04,3.3919,-5.2946,0.1797,-0.0003,-0.0000,-2.2053,flat,18.0,1,5.118
7980,255.36,3.0506,-5.7362,0.1797,-0.0002,-0.0000,-2.2645,flat,18.0,1,4.583
7990,255.68,2.6832,-6.1567,0.1797,-0.0002,-0.0000,-2.3222,flat,18.0,1,4.044
8000,256.00,2.2913,-6.5560,0.1797,-0.0002,-0.0000,-2.3763,flat,18.0,1,3.500
