step,time_s,x,y,z,roll,pitch,yaw,terrain,speed,target_idx,dist_to_target
10,0.32,-1.2958,0.8846,0.1835,0.0003,-0.0337,0.0047,rough,15.5,0,6.142
20,0.64,-1.0321,0.8841,0.1798,-0.0008,-0.0000,0.4300,flat,18.0,0,6.366
30,0.96,-0.7757,1.0530,0.1798,-0.0003,-0.0000,0.8784,flat,18.0,0,6.503
40,1.28,-0.5841,1.3400,0.1798,-0.0002,-0.0001,1.2743,flat,18.0,0,6.541
50,1.60,-0.4863,1.7328,0.1799,0.0000,-0.0001,1.6489,flat,18.0,0,6.470
60,1.92,-0.5460,2.1819,0.1799,-0.0000,-0.0000,1.9390,flat,18.0,0,6.257
70,2.24,-0.7515,2.6267,0.1799,0.0000,-0.0000,2.1562,flat,18.0,0,5.930
80,2.56,-1.0669,3.0383,0.1799,0.0001,-0.0000,2.3251,flat,18.0,0,5.526
90,2.88,-1.4573,3.4062,0.1799,0.0002,-0.0000,2.4613,flat,18.0,0,5.075
100,3.20,-1.8984,3.7299,0.1799,0.0003,-0.0000,2.5851,flat,18.0,0,4.596
110,3.52,-2.3789,4.0052,0.1798,0.0004,-0.0000,2.6976,flat,18.0,0,4.097
120,3.84,-2.8893,4.2303,0.1798,0.0004,-0.0000,2.8010,flat,18.0,0,3.582
130,4.16,-3.4215,4.4051,0.1798,0.0004,-0.0000,2.8976,flat,18.0,0,3.057
140,4.48,-3.9688,4.5298,0.1798,0.0004,-0.0000,2.9905,flat,18.0,0,2.525
150,4.80,-4.5253,4.6043,0.1798,0.0004,-0.0000,3.0839,flat,18.0,0,1.989
160,5.12,-5.0851,4.6263,0.1798,0.0004,-0.0000,-3.0991,flat,18.0,0,1.453
170,5.44,-5.6389,4.5920,0.1798,0.0004,0.0000,-2.9840,flat,18.0,0,0.924
180,5.76,-6.0304,4.5528,0.1797,0.0002,-0.0003,-2.6111,flat,18.0,1,6.851
190,6.08,-6.2330,4.3946,0.1798,0.0006,0.0007,-2.0827,flat,18.0,1,7.066
200,6.40,-6.3695,4.0895,0.1798,-0.0002,0.0000,-1.5524,flat,18.0,1,7.238
210,6.72,-6.3532,3.7690,0.1799,-0.0000,-0.0001,-1.1748,flat,18.0,1,7.273
220,7.04,-6.1677,3.4232,0.1799,0.0000,-0.0000,-0.8685,flat,18.0,1,7.163
230,7.36,-5.8379,3.1072,0.1799,0.0000,-0.0000,-0.6299,flat,18.0,1,6.926
240,7.68,-5.4128,2.8423,0.1799,0.0000,-0.0000,-0.4084,flat,18.0,1,6.604
250,8.00,-4.9186,2.6568,0.1799,0.0001,-0.0000,-0.2074,flat,18.0,1,6.212
260,8.32,-4.3827,2.5646,0.1799,0.0001,-0.0000,-0.0314,flat,18.0,1,5.762
270,8.64,-3.8307,2.5642,0.1799,0.0002,-0.0000,0.1106,flat,18.0,1,5.271
280,8.96,-3.2808,2.6380,0.1798,0.0004,-0.0000,0.2149,flat,18.0,1,4.757
290,9.28,-2.7391,2.7675,0.1798,0.0004,-0.0000,0.2980,flat,18.0,1,4.229
300,9.60,-2.2081,2.9410,0.1797,0.0003,-0.0000,0.3678,flat,18.0,1,3.693
310,9.92,-1.6892,3.1512,0.1797,0.0002,-0.0000,0.4293,flat,18.0,1,3.151
320,10.24,-1.1838,3.3930,0.1797,0.0002,-0.0000,0.4864,flat,18.0,1,2.606
330,10.56,-0.6935,3.6636,0.1797,0.0002,0.0000,0.5427,flat,18.0,1,2.060
340,10.88,-0.2208,3.9617,0.1797,0.0002,-0.0000,0.6012,flat,18.0,1,1.516
350,11.20,0.2311,4.2868,0.1797,0.0002,0.0000,0.6657,flat,18.0,1,0.978
360,11.52,0.6131,4.5852,0.1798,0.0003,-0.0000,0.5404,flat,18.0,2,9.373
370,11.84,1.0300,4.7961,0.1799,-0.0001,-0.0000,0.2730,flat,18.0,2,9.150
380,12.16,1.5225,4.9083,0.1799,-0.0001,0.0000,0.0367,flat,18.0,2,8.824
390,12.48,2.0514,4.9063,0.1799,-0.0001,0.0000,-0.1564,flat,18.0,2,8.414
400,12.80,2.5840,4.8037,0.1799,-0.0002,-0.0000,-0.3017,flat,18.0,2,7.947
410,13.12,3.1037,4.6257,0.1798,-0.0004,-0.0000,-0.4067,flat,18.0,2,7.446
420,13.44,3.6070,4.3941,0.1798,-0.0004,-0.0000,-0.4874,flat,18.0,2,6.926
430,13.76,4.0937,4.1223,0.1797,-0.0002,-0.0000,-0.5524,flat,18.0,2,6.394
440,14.08,4.5646,3.8190,0.1797,-0.0002,-0.0000,-0.6067,flat,18.0,2,5.853
450,14.40,5.0203,3.4902,0.1797,-0.0002,-0.0000,-0.6528,flat,18.0,2,5.306
460,14.72,5.4615,3.1404,0.1797,-0.0001,-0.0000,-0.6919,flat,18.0,2,4.755
470,15.04,5.8899,2.7734,0.1797,-0.0001,-0.0000,-0.7284,flat,18.0,2,4.201
480,15.36,6.3056,2.3907,0.1797,-0.0001,-0.0000,-0.7640,flat,18.0,2,3.646
490,15.68,6.7078,1.9932,0.1797,-0.0001,-0.0000,-0.7984,flat,18.0,2,3.089
500,16.00,7.0955,1.5820,0.1797,-0.0001,0.0000,-0.8339,flat,18.0,2,2.533
510,16.32,7.4671,1.1578,0.1797,-0.0001,0.0000,-0.8719,flat,18.0,2,1.978
520,16.64,7.8203,0.7211,0.1797,-0.0002,0.0000,-0.9162,flat,18.0,2,1.426
530,16.96,8.1507,0.2695,0.1797,-0.0002,0.0000,-0.9817,flat,18.0,2,0.880
540,17.28,8.3843,-0.1326,0.1799,0.0002,-0.0000,-1.2356,flat,18.0,3,6.316
550,17.60,8.5108,-0.5758,0.1799,-0.0001,-0.0000,-1.5426,flat,18.0,3,6.115
560,17.92,8.5003,-1.0714,0.1799,-0.0001,-0.0000,-1.7945,flat,18.0,3,5.803
570,18.24,8.3612,-1.5707,0.1799,-0.0001,-0.0000,-1.9882,flat,18.0,3,5.406
580,18.56,8.1217,-2.0476,0.1799,-0.0001,-0.0000,-2.1370,flat,18.0,3,4.955
590,18.88,7.8106,-2.4934,0.1798,-0.0003,-0.0000,-2.2454,flat,18.0,3,4.471
600,19.20,7.4520,-2.9093,0.1798,-0.0004,-0.0000,-2.3333,flat,18.0,3,3.970
610,19.52,7.0568,-3.2925,0.1798,-0.0004,-0.0000,-2.4191,flat,18.0,3,3.461
620,19.84,6.6288,-3.6443,0.1798,-0.0004,-0.0000,-2.5045,flat,18.0,3,2.943
630,20.16,6.1714,-3.9613,0.1798,-0.0004,-0.0000,-2.5918,flat,18.0,3,2.421
640,20.48,5.6877,-4.2389,0.1798,-0.0004,-0.0000,-2.6851,flat,18.0,3,1.896
650,20.80,5.1813,-4.4704,0.1798,-0.0004,-0.0000,-2.7929,flat,18.0,3,1.373
660,21.12,4.6573,-4.6442,0.1799,-0.0001,0.0000,-2.9400,flat,18.0,3,0.864
670,21.44,4.1451,-4.7241,0.1799,-0.0001,-0.0000,3.1278,flat,18.0,0,13.863
680,21.76,3.6218,-4.6963,0.1799,-0.0001,0.0003,2.9610,flat,18.0,0,13.448
690,22.08,3.1059,-4.5900,0.1799,-0.0002,-0.0000,2.8486,flat,18.0,0,12.993
700,22.40,2.5840,-4.4165,0.1798,-0.0004,-0.0000,2.7450,flat,18.0,0,12.493
710,22.72,2.0770,-4.1901,0.1798,-0.0003,-0.0000,2.6681,flat,18.0,0,11.971
720,23.04,1.5846,-3.9253,0.1797,-0.0002,-0.0000,2.6082,flat,18.0,0,11.436
730,23.36,1.1057,-3.6313,0.1797,-0.0002,-0.0000,2.5602,flat,18.0,0,10.890
740,23.68,0.6395,-3.3144,0.1797,-0.0001,-0.0000,2.5227,flat,18.0,0,10.339
750,24.00,0.1835,-2.9800,0.1797,-0.0001,-0.0000,2.4907,flat,18.0,0,9.783
760,24.32,-0.2631,-2.6310,0.1797,-0.0001,-0.0000,2.4630,flat,18.0,0,9.224
770,24.64,-0.7012,-2.2696,0.1797,-0.0001,-0.0000,2.4387,flat,18.0,0,8.662
780,24.96,-1.1314,-1.8975,0.1797,-0.0001,-0.0000,2.4168,flat,18.0,0,8.098
790,25.28,-1.5545,-1.5159,0.1797,-0.0001,-0.0000,2.3966,flat,18.0,0,7.533
800,25.60,-1.9706,-1.1258,0.1797,-0.0001,-0.0000,2.3782,flat,18.0,0,6.966
810,25.92,-2.3800,-0.7280,0.1797,-0.0001,-0.0000,2.3615,flat,18.0,0,6.398
820,26.24,-2.7831,-0.3233,0.1797,-0.0001,-0.0000,2.3460,flat,18.0,0,5.829
830,26.56,-3.1803,0.0876,0.1797,-0.0001,-0.0000,2.3313,flat,18.0,0,5.260
840,26.88,-3.5716,0.5044,0.1797,-0.0000,-0.0000,2.3172,flat,18.0,0,4.690
850,27.20,-3.9571,0.9267,0.1797,-0.0000,-0.0000,2.3035,flat,18.0,0,4.120
860,27.52,-4.3368,1.3540,0.1797,-0.0000,0.0000,2.2901,flat,18.0,0,3.550
870,27.84,-4.7108,1.7863,0.1797,-0.0000,0.0000,2.2767,flat,18.0,0,2.980
880,28.16,-5.0787,2.2234,0.1797,-0.0000,0.0000,2.2625,flat,18.0,0,2.410
890,28.48,-5.4397,2.6655,0.1797,-0.0001,0.0000,2.2466,flat,18.0,0,1.841
900,28.80,-5.7923,3.1129,0.1797,-0.0001,0.0000,2.2266,flat,18.0,0,1.274
910,29.12,-6.1301,3.5627,0.1797,-0.0001,0.0002,2.1794,flat,18.0,1,7.095
920,29.44,-6.3152,3.8845,0.1798,0.0003,0.0000,1.7764,flat,18.0,1,7.215
930,29.76,-6.3741,4.2396,0.1799,0.0001,-0.0001,1.3603,flat,18.0,1,7.223
940,30.08,-6.2600,4.6433,0.1799,0.0001,-0.0001,1.0566,flat,18.0,1,7.073
950,30.40,-5.9952,5.0313,0.1799,-0.0000,-0.0000,0.8309,flat,18.0,1,6.795
960,30.72,-5.6237,5.3779,0.1799,-0.0000,-0.0000,0.6478,flat,18.0,1,6.430
970,31.04,-5.1793,5.6742,0.1799,-0.0000,-0.0000,0.4780,flat,18.0,1,6.008
980,31.36,-4.6817,5.9054,0.1799,-0.0001,-0.0000,0.3273,flat,18.0,1,5.543
990,31.68,-4.1507,6.0676,0.1799,-0.0003,-0.0000,0.1992,flat,18.0,1,5.048
1000,32.00,-3.6004,6.1653,0.1798,-0.0004,-0.0000,0.0898,flat,18.0,1,4.531
1010,32.32,-3.0405,6.2049,0.1798,-0.0004,-0.0000,-0.0049,flat,18.0,1,4.001
1020,32.64,-2.4780,6.1928,0.1798,-0.0004,-0.0000,-0.0846,flat,18.0,1,3.461
1030,32.96,-1.9178,6.1373,0.1797,-0.0003,-0.0000,-0.1529,flat,18.0,1,2.915
1040,33.28,-1.3626,6.0442,0.1797,-0.0002,-0.0000,-0.2153,flat,18.0,1,2.366
1050,33.60,-0.8151,5.9168,0.1797,-0.0002,0.0000,-0.2766,flat,18.0,1,1.818
1060,33.92,-0.2791,5.7558,0.1797,-0.0002,0.0000,-0.3438,flat,18.0,1,1.272
1070,34.24,0.2379,5.5578,0.1798,-0.0004,0.0000,-0.4133,flat,18.0,2,10.239
1080,34.56,0.7498,5.3247,0.1797,-0.0002,-0.0000,-0.4565,flat,18.0,2,9.690
1090,34.88,1.2071,5.0948,0.1797,-0.0001,0.0001,-0.4838,flat,18.0,2,9.187
1100,35.20,1.7042,4.8260,0.1797,-0.0001,-0.0000,-0.5148,flat,18.0,2,8.631
1110,35.52,2.1949,4.5416,0.1797,-0.0001,-0.0000,-0.5423,flat,18.0,2,8.070
1120,35.84,2.6787,4.2438,0.1797,-0.0001,-0.0000,-0.5665,flat,18.0,2,7.507
1130,36.16,3.1561,3.9343,0.1797,-0.0001,-0.0000,-0.5881,flat,18.0,2,6.943
1140,36.48,3.6276,3.6146,0.1797,-0.0001,-0.0000,-0.6075,flat,18.0,2,6.377
1150,36.80,4.0933,3.2856,0.1797,-0.0001,-0.0000,-0.6252,flat,18.0,2,5.810
1160,37.12,4.5536,2.9485,0.1797,-0.0001,-0.0000,-0.6416,flat,18.0,2,5.242
1170,37.44,5.0087,2.6037,0.1797,-0.0001,-0.0000,-0.6570,flat,18.0,2,4.673
1180,37.76,5.4586,2.2520,0.1797,-0.0001,-0.0000,-0.6718,flat,18.0,2,4.104
1190,38.08,5.9034,1.8936,0.1797,-0.0001,-0.0000,-0.6863,flat,18.0,2,3.535
1200,38.40,6.3429,1.5288,0.1797,-0.0001,0.0000,-0.7009,flat,18.0,2,2.965
1210,38.72,6.7766,1.1576,0.1797,-0.0001,0.0000,-0.7163,flat,18.0,2,2.396
1220,39.04,7.2040,0.7798,0.1797,-0.0001,0.0000,-0.7338,flat,18.0,2,1.828
1230,39.36,7.6232,0.3948,0.1797,-0.0001,0.0000,-0.7558,flat,18.0,2,1.261
1240,39.68,8.0274,0.0046,0.1797,-0.0001,0.0003,-0.8046,flat,18.0,3,6.161
1250,40.00,8.2727,-0.3039,0.1799,0.0002,-0.0000,-1.1230,flat,18.0,3,6.117
1260,40.32,8.4360,-0.7111,0.1799,-0.0000,-0.0000,-1.4484,flat,18.0,3,5.972
1270,40.64,8.4696,-1.1899,0.1799,-0.0002,0.0000,-1.7319,flat,18.0,3,5.709
1280,40.96,8.3636,-1.6865,0.1799,-0.0001,-0.0000,-1.9479,flat,18.0,3,5.347
1290,41.28,8.1446,-2.1657,0.1799,-0.0001,-0.0000,-2.1162,flat,18.0,3,4.918
1300,41.60,7.8433,-2.6123,0.1799,-0.0003,-0.0000,-2.2413,flat,18.0,3,4.449
1310,41.92,7.4867,-3.0267,0.1798,-0.0004,-0.0000,-2.3371,flat,18.0,3,3.957
1320,42.24,7.0902,-3.4057,0.1798,-0.0004,-0.0000,-2.4304,flat,18.0,3,3.455
1330,42.56,6.6585,-3.7510,0.1798,-0.0004,-0.0000,-2.5229,flat,18.0,3,2.944
1340,42.88,6.1956,-4.0584,0.1798,-0.0004,-0.0000,-2.6169,flat,18.0,3,2.425
1350,43.20,5.7055,-4.3231,0.1798,-0.0004,-0.0000,-2.7167,flat,18.0,3,1.905
1360,43.52,5.1925,-4.5381,0.1798,-0.0004,-0.0000,-2.8312,flat,18.0,3,1.386
1370,43.84,4.6630,-4.6916,0.1799,-0.0001,0.0000,-2.9854,flat,18.0,3,0.880
1380,44.16,4.1433,-4.7482,0.1799,-0.0000,-0.0000,3.0902,flat,18.0,0,13.877
1390,44.48,3.6271,-4.7026,0.1799,-0.0003,0.0003,2.9618,flat,18.0,0,13.456
1400,44.80,3.1036,-4.5918,0.1799,-0.0002,-0.0000,2.8372,flat,18.0,0,12.993
1410,45.12,2.5829,-4.4125,0.1798,-0.0004,-0.0000,2.7373,flat,18.0,0,12.490
1420,45.44,2.0772,-4.1822,0.1798,-0.0003,-0.0000,2.6626,flat,18.0,0,11.966
1430,45.76,1.5858,-3.9147,0.1797,-0.0002,-0.0000,2.6043,flat,18.0,0,11.429
1440,46.08,1.1078,-3.6187,0.1797,-0.0002,-0.0000,2.5577,flat,18.0,0,10.883
1450,46.40,0.6421,-3.3007,0.1797,-0.0001,-0.0000,2.5208,flat,18.0,0,10.331
1460,46.72,0.1866,-2.9655,0.1797,-0.0001,-0.0000,2.4894,flat,18.0,0,9.775
1470,47.04,-0.2598,-2.6159,0.1797,-0.0001,-0.0000,2.4622,flat,18.0,0,9.215
1480,47.36,-0.6978,-2.2541,0.1797,-0.0001,-0.0000,2.4382,flat,18.0,0,8.653
1490,47.68,-1.1280,-1.8818,0.1797,-0.0001,-0.0000,2.4167,flat,18.0,0,8.089
1500,48.00,-1.5512,-1.5002,0.1797,-0.0001,-0.0000,2.3968,flat,18.0,0,7.523
1510,48.32,-1.9674,-1.1102,0.1797,-0.0001,-0.0000,2.3786,flat,18.0,0,6.956
1520,48.64,-2.3771,-0.7125,0.1797,-0.0001,-0.0000,2.3621,flat,18.0,0,6.388
1530,48.96,-2.7806,-0.3081,0.1797,-0.0001,-0.0000,2.3469,flat,18.0,0,5.819
1540,49.28,-3.1782,0.1024,0.1797,-0.0001,-0.0000,2.3324,flat,18.0,0,5.250
1550,49.60,-3.5700,0.5188,0.1797,-0.0000,-0.0000,2.3185,flat,18.0,0,4.680
1560,49.92,-3.9561,0.9406,0.1797,-0.0000,-0.0000,2.3049,flat,18.0,0,4.110
1570,50.24,-4.3366,1.3674,0.1797,-0.0000,0.0000,2.2917,flat,18.0,0,3.540
1580,50.56,-4.7113,1.7992,0.1797,-0.0000,0.0000,2.2784,flat,18.0,0,2.970
1590,50.88,-5.0799,2.2357,0.1797,-0.0000,0.0000,2.2643,flat,18.0,0,2.400
1600,51.20,-5.4417,2.6771,0.1797,-0.0001,0.0000,2.2485,flat,18.0,0,1.831
1610,51.52,-5.7953,3.1239,0.1797,-0.0001,0.0000,2.2286,flat,18.0,0,1.263
1620,51.84,-6.1340,3.5729,0.1797,-0.0001,0.0002,2.1815,flat,18.0,1,7.096
1630,52.16,-6.3196,3.8942,0.1798,0.0003,0.0000,1.7778,flat,18.0,1,7.218
1640,52.48,-6.3789,4.2488,0.1799,0.0001,-0.0001,1.3612,flat,18.0,1,7.227
1650,52.80,-6.2654,4.6521,0.1799,0.0001,-0.0001,1.0566,flat,18.0,1,7.078
1660,53.12,-6.0007,5.0399,0.1799,-0.0000,-0.0000,0.8307,flat,18.0,1,6.801
1670,53.44,-5.6292,5.3863,0.1799,-0.0000,-0.0000,0.6473,flat,18.0,1,6.436
1680,53.76,-5.1848,5.6822,0.1799,-0.0000,-0.0000,0.4774,flat,18.0,1,6.015
1690,54.08,-4.6870,5.9131,0.1799,-0.0001,-0.0000,0.3265,flat,18.0,1,5.549
1700,54.40,-4.1559,6.0749,0.1799,-0.0003,-0.0000,0.1981,flat,18.0,1,5.054
1710,54.72,-3.6055,6.1720,0.1798,-0.0004,-0.0000,0.0887,flat,18.0,1,4.538
1720,55.04,-3.0455,6.2109,0.1798,-0.0004,-0.0000,-0.0060,flat,18.0,1,4.007
1730,55.36,-2.4831,6.1983,0.1798,-0.0004,-0.0000,-0.0857,flat,18.0,1,3.467
1740,55.68,-1.9229,6.1422,0.1797,-0.0003,-0.0000,-0.1539,flat,18.0,1,2.922
1750,56.00,-1.3678,6.0485,0.1797,-0.0002,-0.0000,-0.2161,flat,18.0,1,2.373
1760,56.32,-0.8204,5.9206,0.1797,-0.0002,0.0000,-0.2773,flat,18.0,1,1.824
1770,56.64,-0.2844,5.7593,0.1797,-0.0002,0.0000,-0.3443,flat,18.0,1,1.278
1780,56.96,0.2325,5.5610,0.1798,-0.0004,0.0000,-0.4134,flat,18.0,2,10.245
1790,57.28,0.7444,5.3278,0.1797,-0.0002,-0.0000,-0.4566,flat,18.0,2,9.696
1800,57.60,1.2280,5.0833,0.1797,-0.0001,-0.0001,-0.4868,flat,18.0,2,9.164
1810,57.92,1.7252,4.8128,0.1797,-0.0001,-0.0000,-0.5180,flat,18.0,2,8.606
1820,58.24,2.2152,4.5269,0.1797,-0.0001,-0.0000,-0.5450,flat,18.0,2,8.045
1830,58.56,2.6984,4.2278,0.1797,-0.0001,-0.0000,-0.5687,flat,18.0,2,7.482
1840,58.88,3.1753,3.9173,0.1797,-0.0001,-0.0000,-0.5898,flat,18.0,2,6.917
1850,59.20,3.6463,3.5967,0.1797,-0.0001,-0.0000,-0.6089,flat,18.0,2,6.351
1860,59.52,4.1117,3.2671,0.1797,-0.0001,-0.0000,-0.6263,flat,18.0,2,5.784
1870,59.84,4.5717,2.9294,0.1797,-0.0001,-0.0000,-0.6424,flat,18.0,2,5.215
1880,60.16,5.0266,2.5843,0.1797,-0.0001,-0.0000,-0.6577,flat,18.0,2,4.647
1890,60.48,5.4764,2.2323,0.1797,-0.0001,-0.0000,-0.6723,flat,18.0,2,4.078
1900,60.80,5.9211,1.8736,0.1797,-0.0001,-0.0000,-0.6866,flat,18.0,2,3.508
1910,61.12,6.3605,1.5087,0.1797,-0.0001,0.0000,-0.7010,flat,18.0,2,2.939
1920,61.44,6.7942,1.1374,0.1797,-0.0001,0.0000,-0.7164,flat,18.0,2,2.370
1930,61.76,7.2216,0.7597,0.1797,-0.0001,0.0000,-0.7338,flat,18.0,2,1.801
1940,62.08,7.6408,0.3746,0.1797,-0.0001,0.0000,-0.7559,flat,18.0,2,1.235
1950,62.40,8.0380,-0.0087,0.1797,-0.0001,0.0003,-0.8224,flat,18.0,3,6.159
1960,62.72,8.2720,-0.3195,0.1799,0.0002,-0.0000,-1.1523,flat,18.0,3,6.106
1970,63.04,8.4265,-0.7357,0.1799,0.0000,-0.0000,-1.4753,flat,18.0,3,5.949
1980,63.36,8.4483,-1.2190,0.1799,0.0000,-0.0000,-1.7547,flat,18.0,3,5.674
1990,63.68,8.3318,-1.7155,0.1799,-0.0000,-0.0000,-1.9639,flat,18.0,3,5.304
2000,64.00,8.1053,-2.1928,0.1799,-0.0001,-0.0000,-2.1262,flat,18.0,3,4.870
2010,64.32,7.7992,-2.6375,0.1799,-0.0003,-0.0000,-2.2474,flat,18.0,3,4.398
2020,64.64,7.4400,-3.0500,0.1798,-0.0004,-0.0000,-2.3423,flat,18.0,3,3.905
2030,64.96,7.0415,-3.4274,0.1798,-0.0004,-0.0000,-2.4350,flat,18.0,3,3.402
2040,65.28,6.6081,-3.7709,0.1798,-0.0004,-0.0000,-2.5273,flat,18.0,3,2.890
2050,65.60,6.1438,-4.0765,0.1798,-0.0004,-0.0000,-2.6215,flat,18.0,3,2.371
2060,65.92,5.6526,-4.3389,0.1798,-0.0004,-0.0000,-2.7221,flat,18.0,3,1.850
2070,66.24,5.1387,-4.5509,0.1799,-0.0004,0.0000,-2.8391,flat,18.0,3,1.332
2080,66.56,4.6090,-4.6997,0.1799,-0.0001,0.0000,-3.0003,flat,18.0,3,0.829
2090,66.88,4.0909,-4.7473,0.1799,-0.0001,-0.0000,3.0774,flat,18.0,0,13.837
2100,67.20,3.5693,-4.6937,0.1799,-0.0002,0.0003,2.9364,rough,15.5,0,13.407
2110,67.52,3.0583,-4.5779,0.1799,-0.0002,-0.0001,2.8384,flat,18.0,0,12.950
2120,67.84,2.5377,-4.3991,0.1798,-0.0004,-0.0000,2.7375,flat,18.0,0,12.448
2130,68.16,2.0320,-4.1690,0.1798,-0.0003,-0.0000,2.6623,flat,18.0,0,11.925
2140,68.48,1.5409,-3.9013,0.1797,-0.0002,-0.0000,2.6036,flat,18.0,0,11.388
2150,68.80,1.0631,-3.6050,0.1797,-0.0002,-0.0000,2.5567,flat,18.0,0,10.842
2160,69.12,0.5979,-3.2865,0.1797,-0.0001,-0.0000,2.5196,flat,18.0,0,10.290
2170,69.44,0.1428,-2.9507,0.1797,-0.0001,-0.0000,2.4880,flat,18.0,0,9.734
2180,69.76,-0.3030,-2.6005,0.1797,-0.0001,-0.0000,2.4606,flat,18.0,0,9.174
2190,70.08,-0.7403,-2.2380,0.1797,-0.0001,-0.0000,2.4366,flat,18.0,0,8.612
2200,70.40,-1.1699,-1.8650,0.1797,-0.0001,-0.0000,2.4148,flat,18.0,0,8.049
2210,70.72,-1.5923,-1.4826,0.1797,-0.0001,-0.0000,2.3948,flat,18.0,0,7.483
2220,71.04,-2.0078,-1.0918,0.1797,-0.0001,-0.0000,2.3765,flat,18.0,0,6.916
2230,71.36,-2.4166,-0.6932,0.1797,-0.0001,-0.0000,2.3599,flat,18.0,0,6.348
2240,71.68,-2.8191,-0.2879,0.1797,-0.0001,-0.0000,2.3445,flat,18.0,0,5.779
2250,72.00,-3.2157,0.1235,0.1797,-0.0001,-0.0000,2.3299,flat,18.0,0,5.210
2260,72.32,-3.6064,0.5409,0.1797,-0.0000,-0.0000,2.3158,flat,18.0,0,4.640
2270,72.64,-3.9914,0.9636,0.1797,-0.0000,-0.0000,2.3022,flat,18.0,0,4.070
2280,72.96,-4.3706,1.3915,0.1797,-0.0000,0.0000,2.2888,flat,18.0,0,3.500
2290,73.28,-4.7439,1.8243,0.1797,-0.0000,0.0000,2.2753,flat,18.0,0,2.930
2300,73.60,-5.1112,2.2619,0.1797,-0.0001,0.0000,2.2611,flat,18.0,0,2.360
2310,73.92,-5.4714,2.7045,0.1797,-0.0001,0.0000,2.2449,flat,18.0,0,1.791
2320,74.24,-5.8231,3.1525,0.1797,-0.0001,0.0000,2.2243,flat,18.0,0,1.224
2330,74.56,-6.1531,3.5961,0.1797,-0.0001,0.0003,2.1577,flat,18.0,1,7.110
2340,74.88,-6.3239,3.9105,0.1798,0.0003,0.0000,1.7327,flat,18.0,1,7.220
2350,75.20,-6.3667,4.2736,0.1799,-0.0000,-0.0001,1.3284,flat,18.0,1,7.212
2360,75.52,-6.2361,4.6780,0.1799,-0.0001,-0.0000,1.0344,flat,18.0,1,7.048
2370,75.84,-5.9590,5.0627,0.1799,-0.0001,-0.0000,0.8126,flat,18.0,1,6.759
2380,76.16,-5.5793,5.4051,0.1799,-0.0001,-0.0000,0.6310,flat,18.0,1,6.387
2390,76.48,-5.1288,5.6956,0.1799,-0.0001,-0.0000,0.4629,flat,18.0,1,5.960
2400,76.80,-4.6271,5.9203,0.1799,-0.0001,-0.0000,0.3143,flat,18.0,1,5.491
2410,77.12,-4.0938,6.0761,0.1799,-0.0003,-0.0000,0.1882,flat,18.0,1,4.993
2420,77.44,-3.5422,6.1681,0.1798,-0.0004,-0.0000,0.0805,flat,18.0,1,4.476
2430,77.76,-2.9818,6.2026,0.1798,-0.0004,-0.0000,-0.0129,flat,18.0,1,3.944
2440,78.08,-2.4194,6.1863,0.1798,-0.0004,-0.0000,-0.0912,flat,18.0,1,3.403
2450,78.40,-1.8595,6.1271,0.1797,-0.0003,-0.0000,-0.1588,flat,18.0,1,2.857
2460,78.72,-1.3049,6.0308,0.1797,-0.0002,-0.0000,-0.2209,flat,18.0,1,2.308
2470,79.04,-0.7583,5.9003,0.1797,-0.0002,0.0000,-0.2825,flat,18.0,1,1.760
2480,79.36,-0.2237,5.7362,0.1797,-0.0002,0.0000,-0.3510,flat,18.0,1,1.214
2490,79.68,0.2914,5.5340,0.1798,-0.0004,-0.0000,-0.4176,flat,18.0,2,10.182
2500,80.00,0.8033,5.2986,0.1797,-0.0002,-0.0000,-0.4605,flat,18.0,2,9.632
2510,80.32,1.2861,5.0525,0.1797,-0.0001,-0.0001,-0.4901,flat,18.0,2,9.099
2520,80.64,1.7826,4.7804,0.1797,-0.0001,-0.0000,-0.5208,flat,18.0,2,8.541
2530,80.96,2.2719,4.4931,0.1797,-0.0001,-0.0000,-0.5475,flat,18.0,2,7.980
2540,81.28,2.7545,4.1928,0.1797,-0.0001,-0.0000,-0.5709,flat,18.0,2,7.417
2550,81.60,3.2307,3.8812,0.1797,-0.0001,-0.0000,-0.5919,flat,18.0,2,6.851
2560,81.92,3.7011,3.5596,0.1797,-0.0001,-0.0000,-0.6108,flat,18.0,2,6.285
2570,82.24,4.1659,3.2291,0.1797,-0.0001,-0.0000,-0.6281,flat,18.0,2,5.718
2580,82.56,4.6253,2.8906,0.1797,-0.0001,-0.0000,-0.6442,flat,18.0,2,5.150
2590,82.88,5.0796,2.5447,0.1797,-0.0001,-0.0000,-0.6594,flat,18.0,2,4.581
2600,83.20,5.5288,2.1918,0.1797,-0.0001,-0.0000,-0.6739,flat,18.0,2,4.012
2610,83.52,5.9728,1.8325,0.1797,-0.0001,-0.0000,-0.6883,flat,18.0,2,3.442
2620,83.84,6.4116,1.4668,0.1797,-0.0001,0.0000,-0.7029,flat,18.0,2,2.873
2630,84.16,6.8446,1.0947,0.1797,-0.0001,0.0000,-0.7184,flat,18.0,2,2.304
2640,84.48,7.2710,0.7161,0.1797,-0.0001,0.0000,-0.7363,flat,18.0,2,1.736
2650,84.80,7.6890,0.3300,0.1797,-0.0001,0.0000,-0.7592,flat,18.0,2,1.169
2660,85.12,8.0738,-0.0442,0.1797,-0.0001,0.0004,-0.8474,flat,18.0,3,6.158
2670,85.44,8.2980,-0.3627,0.1799,0.0001,-0.0000,-1.1864,flat,18.0,3,6.095
2680,85.76,8.4408,-0.7881,0.1799,-0.0000,-0.0000,-1.5067,flat,18.0,3,5.927
2690,86.08,8.4470,-1.2747,0.1799,-0.0001,0.0000,-1.7763,flat,18.0,3,5.641
2700,86.40,8.3177,-1.7702,0.1799,-0.0001,-0.0000,-1.9818,flat,18.0,3,5.264
2710,86.72,8.0815,-2.2443,0.1799,-0.0001,-0.0000,-2.1414,flat,18.0,3,4.825
2720,87.04,7.7683,-2.6855,0.1799,-0.0003,-0.0000,-2.2580,flat,18.0,3,4.350
2730,87.36,7.4044,-3.0939,0.1798,-0.0004,-0.0000,-2.3529,flat,18.0,3,3.856
2740,87.68,7.0018,-3.4675,0.1798,-0.0004,-0.0000,-2.4456,flat,18.0,3,3.352
2750,88.00,6.5646,-3.8069,0.1798,-0.0004,-0.0000,-2.5380,flat,18.0,3,2.839
2760,88.32,6.0970,-4.1077,0.1798,-0.0004,-0.0000,-2.6326,flat,18.0,3,2.320
2770,88.64,5.6030,-4.3648,0.1798,-0.0004,-0.0000,-2.7344,flat,18.0,3,1.799
2780,88.96,5.0868,-4.5705,0.1799,-0.0003,0.0000,-2.8540,flat,18.0,3,1.282
2790,89.28,4.5560,-4.7110,0.1799,-0.0001,0.0000,-3.0227,flat,18.0,0,14.172
2800,89.60,4.0379,-4.7470,0.1799,-0.0000,-0.0000,3.0555,flat,18.0,0,13.796
2810,89.92,3.5214,-4.6839,0.1799,-0.0002,0.0002,2.9320,rough,15.5,0,13.365
2820,90.24,3.0057,-4.5622,0.1799,-0.0002,-0.0000,2.8261,flat,18.0,0,12.901
2830,90.56,2.4865,-4.3771,0.1798,-0.0004,-0.0000,2.7287,flat,18.0,0,12.396
2840,90.88,1.9824,-4.1426,0.1798,-0.0003,-0.0000,2.6556,flat,18.0,0,11.871
2850,91.20,1.4927,-3.8716,0.1797,-0.0002,-0.0000,2.5983,flat,18.0,0,11.333
2860,91.52,1.0163,-3.5727,0.1797,-0.0002,-0.0000,2.5526,flat,18.0,0,10.786
2870,91.84,0.5522,-3.2523,0.1797,-0.0001,-0.0000,2.5162,flat,18.0,0,10.234
2880,92.16,0.0981,-2.9149,0.1797,-0.0001,-0.0000,2.4851,flat,18.0,0,9.677
2890,92.48,-0.3469,-2.5634,0.1797,-0.0001,-0.0000,2.4581,flat,18.0,0,9.118
2900,92.80,-0.7834,-2.1998,0.1797,-0.0001,-0.0000,2.4344,flat,18.0,0,8.555
2910,93.12,-1.2123,-1.8258,0.1797,-0.0001,-0.0000,2.4128,flat,18.0,0,7.991
2920,93.44,-1.6340,-1.4426,0.1797,-0.0001,-0.0000,2.3929,flat,18.0,0,7.425
2930,93.76,-2.0488,-1.0509,0.1797,-0.0001,-0.0000,2.3749,flat,18.0,0,6.858
2940,94.08,-2.4570,-0.6517,0.1797,-0.0001,-0.0000,2.3584,flat,18.0,0,6.290
2950,94.40,-2.8590,-0.2458,0.1797,-0.0001,-0.0000,2.3432,flat,18.0,0,5.721
2960,94.72,-3.2550,0.1662,0.1797,-0.0001,-0.0000,2.3286,flat,18.0,0,5.152
2970,95.04,-3.6452,0.5841,0.1797,-0.0000,-0.0000,2.3146,flat,18.0,0,4.582
2980,95.36,-4.0296,1.0073,0.1797,-0.0000,-0.0000,2.3009,flat,18.0,0,4.012
2990,95.68,-4.4083,1.4356,0.1797,-0.0000,0.0000,2.2876,flat,18.0,0,3.442
3000,96.00,-4.7811,1.8688,0.1797,-0.0000,0.0000,2.2741,flat,18.0,0,2.872
3010,96.32,-5.1478,2.3069,0.1797,-0.0001,0.0000,2.2597,flat,18.0,0,2.302
3020,96.64,-5.5073,2.7500,0.1797,-0.0001,0.0000,2.2432,flat,18.0,0,1.734
3030,96.96,-5.8580,3.1985,0.1797,-0.0001,0.0000,2.2219,flat,18.0,0,1.167
3040,97.28,-6.1765,3.6329,0.1798,-0.0001,0.0004,2.1302,flat,18.0,1,7.125
3050,97.60,-6.3357,3.9432,0.1798,0.0003,0.0000,1.6875,flat,18.0,1,7.226
3060,97.92,-6.3623,4.3143,0.1799,0.0001,-0.0001,1.2918,flat,18.0,1,7.203
3070,98.24,-6.2149,4.7189,0.1799,0.0001,-0.0001,1.0068,flat,18.0,1,7.024
3080,98.56,-5.9253,5.0997,0.1799,-0.0000,-0.0000,0.7930,flat,18.0,1,6.725
3090,98.88,-5.5375,5.4375,0.1799,-0.0000,-0.0000,0.6132,flat,18.0,1,6.347
3100,99.20,-5.0810,5.7219,0.1799,-0.0001,-0.0000,0.4467,flat,18.0,1,5.915
3110,99.52,-4.5754,5.9395,0.1799,-0.0001,-0.0000,0.3006,flat,18.0,1,5.443
3120,99.84,-4.0397,6.0887,0.1799,-0.0003,-0.0000,0.1766,flat,18.0,1,4.943
3130,100.16,-3.4869,6.1746,0.1798,-0.0004,-0.0000,0.0705,flat,18.0,1,4.424
3140,100.48,-2.9259,6.2036,0.1798,-0.0004,-0.0000,-0.0215,flat,18.0,1,3.891
3150,100.80,-2.3636,6.1826,0.1798,-0.0004,-0.0000,-0.0985,flat,18.0,1,3.349
3160,101.12,-1.8042,6.1195,0.1797,-0.0003,-0.0000,-0.1652,flat,18.0,1,2.803
3170,101.44,-1.2503,6.0196,0.1797,-0.0002,-0.0000,-0.2270,flat,18.0,1,2.254
3180,101.76,-0.7047,5.8857,0.1797,-0.0002,0.0000,-0.2889,flat,18.0,1,1.705
3190,102.08,-0.1716,5.7181,0.1797,-0.0003,0.0000,-0.3588,flat,18.0,1,1.161
3200,102.40,0.3425,5.5118,0.1798,-0.0003,-0.0000,-0.4221,flat,18.0,2,10.128
3210,102.72,0.8535,5.2740,0.1797,-0.0002,-0.0000,-0.4642,flat,18.0,2,9.577
3220,103.04,1.3357,5.0263,0.1797,-0.0001,-0.0001,-0.4934,flat,18.0,2,9.044
3230,103.36,1.8315,4.7525,0.1797,-0.0001,-0.0000,-0.5236,flat,18.0,2,8.485
3240,103.68,2.3200,4.4639,0.1797,-0.0001,-0.0000,-0.5499,flat,18.0,2,7.924
3250,104.00,2.8019,4.1624,0.1797,-0.0001,-0.0000,-0.5731,flat,18.0,2,7.361
3260,104.32,3.2776,3.8497,0.1797,-0.0001,-0.0000,-0.5938,flat,18.0,2,6.795
3270,104.64,3.7474,3.5272,0.1797,-0.0001,-0.0000,-0.6126,flat,18.0,2,6.229
3280,104.96,4.2116,3.1959,0.1797,-0.0001,-0.0000,-0.6298,flat,18.0,2,5.661
3290,105.28,4.6706,2.8566,0.1797,-0.0001,-0.0000,-0.6457,flat,18.0,2,5.093
3300,105.60,5.1243,2.5100,0.1797,-0.0001,-0.0000,-0.6608,flat,18.0,2,4.524
3310,105.92,5.5730,2.1565,0.1797,-0.0001,-0.0000,-0.6754,flat,18.0,2,3.955
3320,106.24,6.0165,1.7965,0.1797,-0.0001,-0.0000,-0.6897,flat,18.0,2,3.386
3330,106.56,6.4547,1.4301,0.1797,-0.0001,0.0000,-0.7043,flat,18.0,2,2.816
3340,106.88,6.8871,1.0575,0.1797,-0.0001,0.0000,-0.7200,flat,18.0,2,2.248
3350,107.20,7.3129,0.6781,0.1797,-0.0001,0.0000,-0.7383,flat,18.0,2,1.679
3360,107.52,7.7298,0.2913,0.1797,-0.0001,0.0000,-0.7619,flat,18.0,2,1.113
3370,107.84,8.0994,-0.0712,0.1798,-0.0000,0.0005,-0.8837,flat,18.0,3,6.156
3380,108.16,8.3168,-0.4006,0.1799,0.0001,-0.0001,-1.2198,flat,18.0,3,6.084
3390,108.48,8.4480,-0.8346,0.1799,0.0000,-0.0000,-1.5382,flat,18.0,3,5.904
3400,108.80,8.4398,-1.3245,0.1799,0.0000,-0.0000,-1.8022,flat,18.0,3,5.607
3410,109.12,8.2983,-1.8186,0.1799,-0.0001,-0.0000,-2.0011,flat,18.0,3,5.222
3420,109.44,8.0530,-2.2896,0.1799,-0.0001,-0.0000,-2.1549,flat,18.0,3,4.779
3430,109.76,7.7336,-2.7277,0.1798,-0.0003,-0.0000,-2.2675,flat,18.0,3,4.301
3440,110.08,7.3657,-3.1325,0.1798,-0.0004,-0.0000,-2.3622,flat,18.0,3,3.806
3450,110.40,6.9594,-3.5028,0.1798,-0.0004,-0.0000,-2.4547,flat,18.0,3,3.301
3460,110.72,6.5191,-3.8386,0.1798,-0.0004,-0.0000,-2.5472,flat,18.0,3,2.787
3470,111.04,6.0487,-4.1353,0.1798,-0.0004,-0.0000,-2.6423,flat,18.0,3,2.268
3480,111.36,5.5522,-4.3877,0.1798,-0.0004,-0.0000,-2.7452,flat,18.0,3,1.747
3490,111.68,5.0341,-4.5878,0.1799,-0.0003,0.0000,-2.8677,flat,18.0,3,1.231
3500,112.00,4.5051,-4.7183,0.1799,-0.0000,0.0002,-3.0583,flat,18.0,0,14.137
3510,112.32,3.9851,-4.7448,0.1799,-0.0001,0.0000,3.0398,flat,18.0,0,13.754
3520,112.64,3.4739,-4.6744,0.1798,-0.0002,0.0002,2.9280,flat,18.0,0,13.323
3530,112.96,2.9530,-4.5465,0.1799,-0.0003,-0.0000,2.8149,flat,18.0,0,12.851
3540,113.28,2.4354,-4.3557,0.1798,-0.0004,-0.0000,2.7205,flat,18.0,0,12.344
3550,113.60,1.9328,-4.1170,0.1798,-0.0003,-0.0000,2.6492,flat,18.0,0,11.817
3560,113.92,1.4444,-3.8429,0.1797,-0.0002,-0.0000,2.5932,flat,18.0,0,11.278
3570,114.24,0.9694,-3.5415,0.1797,-0.0002,-0.0000,2.5487,flat,18.0,0,10.731
3580,114.56,0.5063,-3.2193,0.1797,-0.0001,-0.0000,2.5129,flat,18.0,0,10.178
3590,114.88,0.0531,-2.8804,0.1797,-0.0001,-0.0000,2.4822,flat,18.0,0,9.621
3600,115.20,-0.3909,-2.5276,0.1797,-0.0001,-0.0000,2.4556,flat,18.0,0,9.061
3610,115.52,-0.8267,-2.1629,0.1797,-0.0001,-0.0000,2.4321,flat,18.0,0,8.499
3620,115.84,-1.2548,-1.7879,0.1797,-0.0001,-0.0000,2.4107,flat,18.0,0,7.935
3630,116.16,-1.6758,-1.4038,0.1797,-0.0001,-0.0000,2.3910,flat,18.0,0,7.369
3640,116.48,-2.0899,-1.0114,0.1797,-0.0001,-0.0000,2.3732,flat,18.0,0,6.801
3650,116.80,-2.4975,-0.6115,0.1797,-0.0001,-0.0000,2.3569,flat,18.0,0,6.233
3660,117.12,-2.8989,-0.2049,0.1797,-0.0001,-0.0000,2.3417,flat,18.0,0,5.664
3670,117.44,-3.2943,0.2077,0.1797,-0.0001,-0.0000,2.3272,flat,18.0,0,5.095
3680,117.76,-3.6839,0.6261,0.1797,-0.0000,-0.0000,2.3132,flat,18.0,0,4.525
3690,118.08,-4.0677,1.0499,0.1797,-0.0000,-0.0000,2.2996,flat,18.0,0,3.955
3700,118.40,-4.4459,1.4787,0.1797,-0.0000,0.0000,2.2863,flat,18.0,0,3.385
3710,118.72,-4.8181,1.9124,0.1797,-0.0000,0.0000,2.2727,flat,18.0,0,2.815
3720,119.04,-5.1841,2.3510,0.1797,-0.0001,0.0000,2.2582,flat,18.0,0,2.246
3730,119.36,-5.5428,2.7946,0.1797,-0.0001,0.0000,2.2413,flat,18.0,0,1.677
3740,119.68,-5.8925,3.2436,0.1797,-0.0001,0.0000,2.2193,flat,18.0,0,1.110
3750,120.00,-6.1963,3.6663,0.1798,-0.0000,0.0005,2.0927,flat,18.0,1,7.138
3760,120.32,-6.3456,3.9763,0.1798,0.0002,-0.0000,1.6441,flat,18.0,1,7.231
3770,120.64,-6.3547,4.3545,0.1799,-0.0001,-0.0001,1.2622,flat,18.0,1,7.192
3780,120.96,-6.1915,4.7584,0.1799,-0.0001,-0.0000,0.9850,flat,18.0,1,6.999
3790,121.28,-5.8902,5.1354,0.1799,-0.0001,-0.0000,0.7749,flat,18.0,1,6.690
3800,121.60,-5.4947,5.4686,0.1799,-0.0001,-0.0000,0.5961,flat,18.0,1,6.306
3810,121.92,-5.0323,5.7468,0.1799,-0.0001,-0.0000,0.4311,flat,18.0,1,5.870
3820,122.24,-4.5230,5.9575,0.1799,-0.0001,-0.0000,0.2873,flat,18.0,1,5.394
3830,122.56,-3.9850,6.1001,0.1799,-0.0003,-0.0000,0.1652,flat,18.0,1,4.892
3840,122.88,-3.4310,6.1800,0.1798,-0.0004,-0.0000,0.0607,flat,18.0,1,4.371
3850,123.20,-2.8697,6.2037,0.1798,-0.0004,-0.0000,-0.0298,flat,18.0,1,3.837
3860,123.52,-2.3075,6.1781,0.1798,-0.0003,-0.0000,-0.1055,flat,18.0,1,3.295
3870,123.84,-1.7485,6.1111,0.1797,-0.0002,-0.0000,-0.1716,flat,18.0,1,2.748
3880,124.16,-1.1953,6.0077,0.1797,-0.0002,-0.0000,-0.2331,flat,18.0,1,2.199
3890,124.48,-0.6507,5.8705,0.1797,-0.0002,0.0000,-0.2954,flat,18.0,1,1.651
3900,124.80,-0.1192,5.6995,0.1797,-0.0003,0.0000,-0.3668,flat,18.0,1,1.107
3910,125.12,0.3939,5.4891,0.1798,-0.0002,-0.0000,-0.4265,flat,18.0,2,10.073
3920,125.44,0.9041,5.2490,0.1797,-0.0002,-0.0000,-0.4678,flat,18.0,2,9.521
3930,125.76,1.3856,4.9997,0.1797,-0.0001,-0.0000,-0.4966,flat,18.0,2,8.988
3940,126.08,1.8806,4.7243,0.1797,-0.0001,-0.0000,-0.5264,flat,18.0,2,8.429
3950,126.40,2.3685,4.4343,0.1797,-0.0001,-0.0000,-0.5524,flat,18.0,2,7.868
3960,126.72,2.8498,4.1316,0.1797,-0.0001,-0.0000,-0.5753,flat,18.0,2,7.304
3970,127.04,3.3248,3.8179,0.1797,-0.0001,-0.0000,-0.5958,flat,18.0,2,6.739
3980,127.36,3.7941,3.4945,0.1797,-0.0001,-0.0000,-0.6144,flat,18.0,2,6.172
3990,127.68,4.2578,3.1623,0.1797,-0.0001,-0.0000,-0.6314,flat,18.0,2,5.605
4000,128.00,4.7162,2.8223,0.1797,-0.0001,-0.0000,-0.6473,flat,18.0,2,5.036
4010,128.32,5.1694,2.4749,0.1797,-0.0001,-0.0000,-0.6623,flat,18.0,2,4.468
4020,128.64,5.6176,2.1208,0.1797,-0.0001,-0.0000,-0.6768,flat,18.0,2,3.898
4030,128.96,6.0606,1.7602,0.1797,-0.0001,-0.0000,-0.6912,flat,18.0,2,3.329
4040,129.28,6.4982,1.3932,0.1797,-0.0001,0.0000,-0.7058,flat,18.0,2,2.760
4050,129.60,6.9300,1.0199,0.1797,-0.0001,0.0000,-0.7217,flat,18.0,2,2.191
4060,129.92,7.3550,0.6398,0.1797,-0.0001,0.0000,-0.7403,flat,18.0,2,1.623
4070,130.24,7.7708,0.2522,0.1797,-0.0001,0.0000,-0.7648,flat,18.0,2,1.057
4080,130.56,8.1229,-0.0986,0.1798,0.0000,0.0004,-0.9167,flat,18.0,3,6.153
4090,130.88,8.3349,-0.4399,0.1799,0.0000,-0.0000,-1.2523,flat,18.0,3,6.071
4100,131.20,8.4537,-0.8819,0.1799,-0.0001,-0.0000,-1.5672,flat,18.0,3,5.879
4110,131.52,8.4308,-1.3741,0.1799,-0.0001,0.0000,-1.8216,flat,18.0,3,5.572
4120,131.84,8.2778,-1.8670,0.1799,-0.0001,-0.0000,-2.0172,flat,18.0,3,5.180
4130,132.16,8.0240,-2.3348,0.1799,-0.0001,-0.0000,-2.1682,flat,18.0,3,4.733
4140,132.48,7.6986,-2.7698,0.1798,-0.0003,-0.0000,-2.2771,flat,18.0,3,4.252
4150,132.80,7.3267,-3.1709,0.1798,-0.0004,-0.0000,-2.3715,flat,18.0,3,3.756
4160,133.12,6.9168,-3.5380,0.1798,-0.0004,-0.0000,-2.4640,flat,18.0,3,3.250
4170,133.44,6.4733,-3.8701,0.1798,-0.0004,-0.0000,-2.5565,flat,18.0,3,2.735
4180,133.76,6.0001,-4.1627,0.1798,-0.0004,-0.0000,-2.6521,flat,18.0,3,2.216
4190,134.08,5.5012,-4.4102,0.1798,-0.0004,-0.0000,-2.7562,flat,18.0,3,1.695
4200,134.40,4.9813,-4.6044,0.1799,-0.0003,0.0000,-2.8820,flat,18.0,3,1.180
4210,134.72,4.4548,-4.7237,0.1799,-0.0002,-0.0000,-3.0670,flat,18.0,0,14.101
4220,135.04,3.9318,-4.7423,0.1799,-0.0001,-0.0000,3.0198,flat,18.0,0,13.712
4230,135.36,3.4245,-4.6634,0.1798,-0.0002,0.0001,2.9216,flat,18.0,0,13.279
4240,135.68,2.9006,-4.5300,0.1799,-0.0003,-0.0000,2.8040,flat,18.0,0,12.802
4250,136.00,2.3844,-4.3337,0.1798,-0.0004,-0.0000,2.7125,flat,18.0,0,12.292
4260,136.32,1.8833,-4.0910,0.1798,-0.0003,-0.0000,2.6430,flat,18.0,0,11.764
4270,136.64,1.3963,-3.8139,0.1797,-0.0002,-0.0000,2.5883,flat,18.0,0,11.224
4280,136.96,0.9226,-3.5102,0.1797,-0.0002,-0.0000,2.5448,flat,18.0,0,10.676
4290,137.28,0.4605,-3.1861,0.1797,-0.0001,-0.0000,2.5096,flat,18.0,0,10.123
4300,137.60,0.0083,-2.8457,0.1797,-0.0001,-0.0000,2.4794,flat,18.0,0,9.566
4310,137.92,-0.4349,-2.4916,0.1797,-0.0001,-0.0000,2.4531,flat,18.0,0,9.005
4320,138.24,-0.8698,-2.1258,0.1797,-0.0001,-0.0000,2.4299,flat,18.0,0,8.443
4330,138.56,-1.2973,-1.7499,0.1797,-0.0001,-0.0000,2.4087,flat,18.0,0,7.878
4340,138.88,-1.7176,-1.3649,0.1797,-0.0001,-0.0000,2.3892,flat,18.0,0,7.312
4350,139.20,-2.1310,-0.9716,0.1797,-0.0001,-0.0000,2.3715,flat,18.0,0,6.745
4360,139.52,-2.5379,-0.5710,0.1797,-0.0001,-0.0000,2.3553,flat,18.0,0,6.176
4370,139.84,-2.9387,-0.1639,0.1797,-0.0001,-0.0000,2.3402,flat,18.0,0,5.607
4380,140.16,-3.3336,0.2494,0.1797,-0.0001,-0.0000,2.3257,flat,18.0,0,5.038
4390,140.48,-3.7226,0.6683,0.1797,-0.0000,-0.0000,2.3118,flat,18.0,0,4.468
4400,140.80,-4.1058,1.0926,0.1797,-0.0000,-0.0000,2.2983,flat,18.0,0,3.898
4410,141.12,-4.4834,1.5219,0.1797,-0.0000,0.0000,2.2849,flat,18.0,0,3.328
4420,141.44,-4.8550,1.9561,0.1797,-0.0000,0.0000,2.2713,flat,18.0,0,2.758
4430,141.76,-5.2203,2.3952,0.1797,-0.0001,0.0000,2.2566,flat,18.0,0,2.189
4440,142.08,-5.5783,2.8393,0.1797,-0.0001,0.0000,2.2395,flat,18.0,0,1.620
4450,142.40,-5.9268,3.2889,0.1797,-0.0001,0.0000,2.2166,flat,18.0,0,1.054
4460,142.72,-6.2145,3.6975,0.1798,0.0001,0.0004,2.0510,flat,18.0,1,7.150
4470,143.04,-6.3545,4.0107,0.1798,0.0002,-0.0001,1.5993,flat,18.0,1,7.234
4480,143.36,-6.3463,4.3950,0.1799,0.0001,-0.0000,1.2271,flat,18.0,1,7.179
4490,143.68,-6.1670,4.7980,0.1799,0.0000,-0.0001,0.9593,flat,18.0,1,6.973
4500,144.00,-5.8542,5.1707,0.1799,-0.0000,-0.0000,0.7562,flat,18.0,1,6.655
4510,144.32,-5.4513,5.4993,0.1799,-0.0000,-0.0000,0.5787,flat,18.0,1,6.265
4520,144.64,-4.9832,5.7711,0.1799,-0.0001,-0.0000,0.4156,flat,18.0,1,5.824
4530,144.96,-4.4703,5.9748,0.1799,-0.0001,-0.0000,0.2742,flat,18.0,1,5.345
4540,145.28,-3.9302,6.1108,0.1799,-0.0003,-0.0000,0.1541,flat,18.0,1,4.840
4550,145.60,-3.3752,6.1848,0.1798,-0.0004,-0.0000,0.0510,flat,18.0,1,4.318
4560,145.92,-2.8135,6.2032,0.1798,-0.0004,-0.0000,-0.0380,flat,18.0,1,3.783
4570,146.24,-2.2515,6.1732,0.1798,-0.0003,-0.0000,-0.1125,flat,18.0,1,3.240
4580,146.56,-1.6930,6.1024,0.1797,-0.0002,-0.0000,-0.1778,flat,18.0,1,2.693
4590,146.88,-1.1405,5.9956,0.1797,-0.0002,-0.0000,-0.2392,flat,18.0,1,2.144
4600,147.20,-0.5969,5.8550,0.1797,-0.0002,0.0000,-0.3019,flat,18.0,1,1.596
4610,147.52,-0.0672,5.6804,0.1798,-0.0003,0.0000,-0.3750,flat,18.0,1,1.053
4620,147.84,0.4452,5.4662,0.1798,-0.0002,-0.0000,-0.4308,flat,18.0,2,10.018
4630,148.16,0.9545,5.2238,0.1797,-0.0002,-0.0000,-0.4714,rough,15.5,2,9.466
4640,148.48,1.4354,4.9729,0.1797,-0.0001,-0.0000,-0.4998,flat,18.0,2,8.933
4650,148.80,1.9297,4.6960,0.1797,-0.0001,-0.0000,-0.5292,flat,18.0,2,8.373
4660,149.12,2.4169,4.4046,0.1797,-0.0001,-0.0000,-0.5548,flat,18.0,2,7.812
4670,149.44,2.8975,4.1008,0.1797,-0.0001,-0.0000,-0.5775,flat,18.0,2,7.248
4680,149.76,3.3720,3.7860,0.1797,-0.0001,-0.0000,-0.5977,flat,18.0,2,6.682
4690,150.08,3.8406,3.4617,0.1797,-0.0001,-0.0000,-0.6161,flat,18.0,2,6.116
4700,150.40,4.3038,3.1287,0.1797,-0.0001,-0.0000,-0.6330,flat,18.0,2,5.548
4710,150.72,4.7617,2.7879,0.1797,-0.0001,-0.0000,-0.6488,flat,18.0,2,4.980
4720,151.04,5.2144,2.4399,0.1797,-0.0001,-0.0000,-0.6638,flat,18.0,2,4.411
4730,151.36,5.6621,2.0851,0.1797,-0.0001,-0.0000,-0.6782,flat,18.0,2,3.841
4740,151.68,6.1046,1.7238,0.1797,-0.0001,-0.0000,-0.6926,flat,18.0,2,3.272
4750,152.00,6.5416,1.3562,0.1797,-0.0001,0.0000,-0.7074,flat,18.0,2,2.703
4760,152.32,6.9728,0.9822,0.1797,-0.0001,0.0000,-0.7234,flat,18.0,2,2.134
4770,152.64,7.3970,0.6015,0.1797,-0.0001,0.0000,-0.7424,flat,18.0,2,1.566
4780,152.96,7.8117,0.2130,0.1797,-0.0001,0.0000,-0.7678,flat,18.0,2,1.001
4790,153.28,8.1460,-0.1272,0.1798,0.0001,0.0002,-0.9518,flat,18.0,3,6.149
4800,153.60,8.3522,-0.4802,0.1799,0.0000,-0.0001,-1.2854,flat,18.0,3,6.057
4810,153.92,8.4583,-0.9298,0.1799,0.0000,-0.0000,-1.5985,flat,18.0,3,5.854
4820,154.24,8.4212,-1.4241,0.1799,-0.0000,-0.0000,-1.8461,flat,18.0,3,5.536
4830,154.56,8.2565,-1.9152,0.1799,-0.0001,-0.0000,-2.0351,flat,18.0,3,5.137
4840,154.88,7.9942,-2.3797,0.1799,-0.0001,-0.0000,-2.1810,flat,18.0,3,4.686
4850,155.20,7.6633,-2.8115,0.1798,-0.0003,-0.0000,-2.2866,flat,18.0,3,4.203
4860,155.52,7.2873,-3.2091,0.1798,-0.0004,-0.0000,-2.3808,flat,18.0,3,3.706
4870,155.84,6.8739,-3.5728,0.1798,-0.0004,-0.0000,-2.4732,flat,18.0,3,3.199
4880,156.16,6.4272,-3.9012,0.1798,-0.0004,-0.0000,-2.5659,flat,18.0,3,2.684
4890,156.48,5.9513,-4.1895,0.1798,-0.0004,-0.0000,-2.6620,flat,18.0,3,2.164
4900,156.80,5.4501,-4.4322,0.1798,-0.0004,-0.0000,-2.7675,flat,18.0,3,1.643
4910,157.12,4.9284,-4.6204,0.1799,-0.0002,0.0000,-2.8969,flat,18.0,3,1.129
4920,157.44,4.4033,-4.7290,0.1799,0.0000,-0.0001,-3.0826,flat,18.0,0,14.065
4930,157.76,3.8787,-4.7379,0.1799,-0.0001,0.0000,3.0050,flat,18.0,0,13.669
4940,158.08,3.3742,-4.6523,0.1798,-0.0002,0.0000,2.9133,flat,18.0,0,13.234
4950,158.40,2.8483,-4.5130,0.1799,-0.0004,-0.0000,2.7936,flat,18.0,0,12.752
4960,158.72,2.3337,-4.3113,0.1798,-0.0004,-0.0000,2.7047,flat,18.0,0,12.240
4970,159.04,1.8340,-4.0647,0.1797,-0.0003,-0.0000,2.6370,flat,18.0,0,11.710
4980,159.36,1.3483,-3.7847,0.1797,-0.0002,-0.0000,2.5834,flat,18.0,0,11.169
4990,159.68,0.8759,-3.4786,0.1797,-0.0002,-0.0000,2.5410,flat,18.0,0,10.621
5000,160.00,0.4149,-3.1528,0.1797,-0.0001,-0.0000,2.5064,flat,18.0,0,10.067
5010,160.32,-0.0364,-2.8109,0.1797,-0.0001,-0.0000,2.4766,flat,18.0,0,9.510
5020,160.64,-0.4787,-2.4555,0.1797,-0.0001,-0.0000,2.4507,flat,18.0,0,8.949
5030,160.96,-0.9129,-2.0887,0.1797,-0.0001,-0.0000,2.4277,flat,18.0,0,8.386
5040,161.28,-1.3396,-1.7118,0.1797,-0.0001,-0.0000,2.4067,flat,18.0,0,7.822
5050,161.60,-1.7592,-1.3260,0.1797,-0.0001,-0.0000,2.3873,flat,18.0,0,7.255
5060,161.92,-2.1719,-0.9319,0.1797,-0.0001,-0.0000,2.3698,flat,18.0,0,6.688
5070,162.24,-2.5782,-0.5306,0.1797,-0.0001,-0.0000,2.3537,flat,18.0,0,6.120
5080,162.56,-2.9785,-0.1229,0.1797,-0.0001,-0.0000,2.3387,flat,18.0,0,5.551
5090,162.88,-3.3727,0.2910,0.1797,-0.0001,-0.0000,2.3243,flat,18.0,0,4.981
5100,163.20,-3.7611,0.7105,0.1797,-0.0000,-0.0000,2.3104,flat,18.0,0,4.411
5110,163.52,-4.1438,1.1353,0.1797,-0.0000,-0.0000,2.2969,flat,18.0,0,3.841
5120,163.84,-4.5208,1.5651,0.1797,-0.0000,0.0000,2.2836,flat,18.0,0,3.271
5130,164.16,-4.8918,1.9998,0.1797,-0.0000,0.0000,2.2699,flat,18.0,0,2.701
5140,164.48,-5.2564,2.4393,0.1797,-0.0001,0.0000,2.2550,flat,18.0,0,2.132
5150,164.80,-5.6136,2.8840,0.1797,-0.0001,0.0000,2.2375,flat,18.0,0,1.563
5160,165.12,-5.9610,3.3341,0.1797,-0.0001,0.0000,2.2137,flat,18.0,0,0.997
5170,165.44,-6.2322,3.7276,0.1798,0.0002,0.0003,2.0057,flat,18.0,1,7.161
5180,165.76,-6.3614,4.0459,0.1798,0.0001,-0.0001,1.5568,flat,18.0,1,7.236
5190,166.08,-6.3352,4.4354,0.1799,-0.0001,-0.0001,1.2002,flat,18.0,1,7.164
5200,166.40,-6.1410,4.8370,0.1799,-0.0001,-0.0000,0.9383,flat,18.0,1,6.945
5210,166.72,-5.8173,5.2055,0.1799,-0.0001,-0.0000,0.7383,flat,18.0,1,6.618
5220,167.04,-5.4071,5.5292,0.1799,-0.0001,-0.0000,0.5619,flat,18.0,1,6.223
5230,167.36,-4.9335,5.7946,0.1799,-0.0001,-0.0000,0.4005,flat,18.0,1,5.777
5240,167.68,-4.4172,5.9913,0.1799,-0.0002,-0.0000,0.2613,flat,18.0,1,5.296
5250,168.00,-3.8752,6.1209,0.1799,-0.0003,-0.0000,0.1431,flat,18.0,1,4.789
5260,168.32,-3.3192,6.1891,0.1798,-0.0004,-0.0000,0.0415,flat,18.0,1,4.265
5270,168.64,-2.7572,6.2022,0.1798,-0.0004,-0.0000,-0.0460,flat,18.0,1,3.729
5280,168.96,-2.1954,6.1679,0.1798,-0.0003,-0.0000,-0.1193,flat,18.0,1,3.186
5290,169.28,-1.6374,6.0933,0.1797,-0.0002,-0.0000,-0.1841,flat,18.0,1,2.638
5300,169.60,-1.0856,5.9830,0.1797,-0.0002,-0.0000,-0.2453,flat,18.0,1,2.089
5310,169.92,-0.5432,5.8391,0.1797,-0.0002,0.0000,-0.3085,flat,18.0,1,1.541
5320,170.24,-0.0153,5.6609,0.1798,-0.0003,0.0000,-0.3834,flat,18.0,1,0.999
5330,170.56,0.4964,5.4430,0.1797,-0.0002,-0.0000,-0.4351,flat,18.0,2,9.963
5340,170.88,0.9987,5.2015,0.1797,-0.0001,0.0002,-0.4728,rough,15.5,2,9.417
5350,171.20,1.4851,4.9459,0.1797,-0.0001,-0.0000,-0.5029,flat,18.0,2,8.877
5360,171.52,1.9787,4.6675,0.1797,-0.0001,-0.0000,-0.5319,flat,18.0,2,8.317
5370,171.84,2.4652,4.3747,0.1797,-0.0001,-0.0000,-0.5572,flat,18.0,2,7.755
5380,172.16,2.9452,4.0697,0.1797,-0.0001,-0.0000,-0.5796,flat,18.0,2,7.191
5390,172.48,3.4191,3.7540,0.1797,-0.0001,-0.0000,-0.5997,flat,18.0,2,6.626
5400,172.80,3.8872,3.4287,0.1797,-0.0001,-0.0000,-0.6179,flat,18.0,2,6.059
5410,173.12,4.3498,3.0950,0.1797,-0.0001,-0.0000,-0.6347,flat,18.0,2,5.491
5420,173.44,4.8072,2.7534,0.1797,-0.0001,-0.0000,-0.6503,flat,18.0,2,4.923
5430,173.76,5.2594,2.4047,0.1797,-0.0001,-0.0000,-0.6652,flat,18.0,2,4.354
5440,174.08,5.7066,2.0492,0.1797,-0.0001,-0.0000,-0.6797,flat,18.0,2,3.784
5450,174.40,6.1485,1.6873,0.1797,-0.0001,-0.0000,-0.6940,flat,18.0,2,3.215
5460,174.72,6.5850,1.3191,0.1797,-0.0001,0.0000,-0.7089,flat,18.0,2,2.646
5470,175.04,7.0156,0.9445,0.1797,-0.0001,0.0000,-0.7251,flat,18.0,2,2.077
5480,175.36,7.4390,0.5630,0.1797,-0.0001,0.0000,-0.7446,flat,18.0,2,1.509
5490,175.68,7.8524,0.1736,0.1797,-0.0001,0.0000,-0.7710,flat,18.0,2,0.945
5500,176.00,8.1690,-0.1571,0.1798,0.0002,0.0001,-0.9851,flat,18.0,3,6.144
5510,176.32,8.3684,-0.5216,0.1799,-0.0000,-0.0000,-1.3174,flat,18.0,3,6.042
5520,176.64,8.4608,-0.9781,0.1799,-0.0001,-0.0000,-1.6245,flat,18.0,3,5.826
5530,176.96,8.4097,-1.4737,0.1799,-0.0001,-0.0000,-1.8647,flat,18.0,3,5.499
5540,177.28,8.2341,-1.9631,0.1799,-0.0001,-0.0000,-2.0510,flat,18.0,3,5.094
5550,177.60,7.9639,-2.4242,0.1799,-0.0002,-0.0000,-2.1935,flat,18.0,3,4.639
5560,177.92,7.6275,-2.8529,0.1798,-0.0004,-0.0000,-2.2961,flat,18.0,3,4.154
5570,178.24,7.2476,-3.2469,0.1798,-0.0004,-0.0000,-2.3901,flat,18.0,3,3.656
5580,178.56,6.8307,-3.6074,0.1798,-0.0004,-0.0000,-2.4824,flat,18.0,3,3.148
5590,178.88,6.3809,-3.9319,0.1798,-0.0004,-0.0000,-2.5753,flat,18.0,3,2.632
5600,179.20,5.9023,-4.2160,0.1798,-0.0004,-0.0000,-2.6720,flat,18.0,3,2.112
5610,179.52,5.3988,-4.4537,0.1798,-0.0004,-0.0000,-2.7790,flat,18.0,3,1.591
5620,179.84,4.8754,-4.6356,0.1799,-0.0002,0.0000,-2.9123,flat,18.0,3,1.078
5630,180.16,4.3509,-4.7343,0.1799,0.0001,-0.0000,-3.1048,flat,18.0,0,14.028
5640,180.48,3.8253,-4.7333,0.1799,-0.0001,-0.0000,2.9863,flat,18.0,0,13.626
5650,180.80,3.3230,-4.6412,0.1798,-0.0001,0.0000,2.9025,flat,18.0,0,13.188
5660,181.12,2.7962,-4.4953,0.1799,-0.0004,-0.0000,2.7835,flat,18.0,0,12.702
5670,181.44,2.2831,-4.2885,0.1798,-0.0004,-0.0000,2.6971,flat,18.0,0,12.188
5680,181.76,1.7848,-4.0381,0.1797,-0.0003,-0.0000,2.6311,flat,18.0,0,11.657
5690,182.08,1.3005,-3.7551,0.1797,-0.0002,-0.0000,2.5786,flat,18.0,0,11.115
5700,182.40,0.8294,-3.4469,0.1797,-0.0001,-0.0000,2.5373,flat,18.0,0,10.566
5710,182.72,0.3693,-3.1193,0.1797,-0.0001,-0.0000,2.5032,flat,18.0,0,10.012
5720,183.04,-0.0810,-2.7760,0.1797,-0.0001,-0.0000,2.4739,flat,18.0,0,9.454
5730,183.36,-0.5225,-2.4194,0.1797,-0.0001,-0.0000,2.4483,flat,18.0,0,8.893
5740,183.68,-0.9559,-2.0515,0.1797,-0.0001,-0.0000,2.4255,flat,18.0,0,8.330
5750,184.00,-1.3819,-1.6737,0.1797,-0.0001,-0.0000,2.4046,flat,18.0,0,7.765
5760,184.32,-1.8008,-1.2870,0.1797,-0.0001,-0.0000,2.3855,flat,18.0,0,7.199
5770,184.64,-2.2128,-0.8922,0.1797,-0.0001,-0.0000,2.3681,flat,18.0,0,6.631
5780,184.96,-2.6185,-0.4902,0.1797,-0.0001,-0.0000,2.3522,flat,18.0,0,6.063
5790,185.28,-3.0181,-0.0818,0.1797,-0.0001,-0.0000,2.3372,flat,18.0,0,5.494
5800,185.60,-3.4118,0.3326,0.1797,-0.0001,-0.0000,2.3229,flat,18.0,0,4.924
5810,185.92,-3.7997,0.7527,0.1797,-0.0000,-0.0000,2.3090,flat,18.0,0,4.354
5820,186.24,-4.1818,1.1780,0.1797,-0.0000,-0.0000,2.2956,flat,18.0,0,3.784
5830,186.56,-4.5581,1.6083,0.1797,-0.0000,0.0000,2.2822,flat,18.0,0,3.214
5840,186.88,-4.9286,2.0434,0.1797,-0.0000,0.0000,2.2685,flat,18.0,0,2.644
5850,187.20,-5.2925,2.4835,0.1797,-0.0001,0.0000,2.2534,flat,18.0,0,2.075
5860,187.52,-5.6488,2.9287,0.1797,-0.0001,0.0000,2.2355,flat,18.0,0,1.507
5870,187.84,-5.9949,3.3794,0.1797,-0.0001,0.0000,2.2106,flat,18.0,0,0.941
5880,188.16,-6.2498,3.7570,0.1798,0.0002,0.0002,1.9589,flat,18.0,1,7.173
5890,188.48,-6.3670,4.0822,0.1799,0.0001,-0.0001,1.5139,flat,18.0,1,7.236
5900,188.80,-6.3233,4.4762,0.1799,0.0001,-0.0000,1.1664,flat,18.0,1,7.149
5910,189.12,-6.1137,4.8758,0.1799,0.0000,-0.0000,0.9144,flat,18.0,1,6.917
5920,189.44,-5.7795,5.2400,0.1799,-0.0000,-0.0000,0.7198,flat,18.0,1,6.581
5930,189.76,-5.3622,5.5586,0.1799,-0.0000,-0.0000,0.5447,flat,18.0,1,6.180
5940,190.08,-4.8834,5.8173,0.1799,-0.0001,-0.0000,0.3855,flat,18.0,1,5.731
5950,190.40,-4.3639,6.0072,0.1799,-0.0002,-0.0000,0.2486,flat,18.0,1,5.246
5960,190.72,-3.8200,6.1303,0.1799,-0.0004,-0.0000,0.1322,flat,18.0,1,4.737
5970,191.04,-3.2631,6.1927,0.1798,-0.0004,-0.0000,0.0321,flat,18.0,1,4.212
5980,191.36,-2.7009,6.2007,0.1798,-0.0004,-0.0000,-0.0539,flat,18.0,1,3.675
5990,191.68,-2.1394,6.1621,0.1798,-0.0003,-0.0000,-0.1261,flat,18.0,1,3.131
6000,192.00,-1.5818,6.0837,0.1797,-0.0002,-0.0000,-0.1903,flat,18.0,1,2.583
6010,192.32,-1.0308,5.9701,0.1797,-0.0002,-0.0000,-0.2514,flat,18.0,1,2.034
6020,192.64,-0.4896,5.8228,0.1797,-0.0002,0.0000,-0.3152,flat,18.0,1,1.487
6030,192.96,0.0365,5.6410,0.1798,-0.0003,0.0000,-0.3920,flat,18.0,1,0.946
6040,193.28,0.5477,5.4195,0.1797,-0.0002,-0.0000,-0.4394,flat,18.0,2,9.908
6050,193.60,1.0424,5.1792,0.1797,-0.0001,0.0002,-0.4746,rough,15.5,2,9.369
6060,193.92,1.5349,4.9187,0.1797,-0.0001,-0.0000,-0.5060,flat,18.0,2,8.821
6070,194.24,2.0277,4.6387,0.1797,-0.0001,-0.0000,-0.5346,flat,18.0,2,8.261
6080,194.56,2.5136,4.3447,0.1797,-0.0001,-0.0000,-0.5596,flat,18.0,2,7.699
6090,194.88,2.9929,4.0386,0.1797,-0.0001,-0.0000,-0.5817,flat,18.0,2,7.135
6100,195.20,3.4662,3.7218,0.1797,-0.0001,-0.0000,-0.6016,flat,18.0,2,6.569
6110,195.52,3.9337,3.3957,0.1797,-0.0001,-0.0000,-0.6196,flat,18.0,2,6.002
6120,195.84,4.3958,3.0611,0.1797,-0.0001,-0.0000,-0.6363,flat,18.0,2,5.434
6130,196.16,4.8527,2.7188,0.1797,-0.0001,-0.0000,-0.6519,flat,18.0,2,4.866
6140,196.48,5.3044,2.3694,0.1797,-0.0001,-0.0000,-0.6667,flat,18.0,2,4.297
6150,196.80,5.7510,2.0132,0.1797,-0.0001,-0.0000,-0.6811,flat,18.0,2,3.727
6160,197.12,6.1925,1.6507,0.1797,-0.0001,0.0000,-0.6955,flat,18.0,2,3.158
6170,197.44,6.6284,1.2818,0.1797,-0.0001,0.0000,-0.7104,flat,18.0,2,2.589
6180,197.76,7.0583,0.9066,0.1797,-0.0001,0.0000,-0.7269,flat,18.0,2,2.020
6190,198.08,7.4809,0.5244,0.1797,-0.0001,0.0000,-0.7468,flat,18.0,2,1.453
6200,198.40,7.8930,0.1342,0.1797,-0.0001,0.0000,-0.7744,flat,18.0,2,0.888
6210,198.72,8.1918,-0.1883,0.1798,0.0003,-0.0000,-1.0195,flat,18.0,3,6.138
6220,199.04,8.3836,-0.5640,0.1799,-0.0000,-0.0000,-1.3501,flat,18.0,3,6.026
6230,199.36,8.4626,-1.0269,0.1799,0.0000,-0.0000,-1.6552,flat,18.0,3,5.799
6240,199.68,8.3976,-1.5236,0.1799,-0.0000,-0.0000,-1.8877,flat,18.0,3,5.462
6250,200.00,8.2109,-2.0108,0.1799,-0.0001,-0.0000,-2.0675,flat,18.0,3,5.050
6260,200.32,7.9328,-2.4685,0.1799,-0.0002,-0.0000,-2.2055,flat,18.0,3,4.591
6270,200.64,7.5914,-2.8940,0.1798,-0.0004,-0.0000,-2.3057,flat,18.0,3,4.104
6280,200.96,7.2075,-3.2845,0.1798,-0.0004,-0.0000,-2.3993,flat,18.0,3,3.605
6290,201.28,6.7872,-3.6415,0.1798,-0.0004,-0.0000,-2.4916,flat,18.0,3,3.096
6300,201.60,6.3343,-3.9622,0.1798,-0.0004,-0.0000,-2.5847,flat,18.0,3,2.580
6310,201.92,5.8530,-4.2420,0.1798,-0.0004,-0.0000,-2.6821,flat,18.0,3,2.059
6320,202.24,5.3473,-4.4746,0.1798,-0.0004,-0.0000,-2.7907,flat,18.0,3,1.539
6330,202.56,4.8223,-4.6502,0.1799,-0.0002,0.0000,-2.9285,flat,18.0,3,1.028
6340,202.88,4.2997,-4.7393,0.1799,-0.0000,0.0001,-3.1259,flat,18.0,0,13.992
6350,203.20,3.7721,-4.7270,0.1799,-0.0001,-0.0000,2.9723,flat,18.0,0,13.582
6360,203.52,3.2704,-4.6300,0.1798,-0.0001,-0.0000,2.8887,flat,18.0,0,13.142
6370,203.84,2.7442,-4.4770,0.1798,-0.0004,-0.0000,2.7737,flat,18.0,0,12.651
6380,204.16,2.2326,-4.2652,0.1798,-0.0004,-0.0000,2.6898,flat,18.0,0,12.135
6390,204.48,1.7358,-4.0111,0.1797,-0.0002,-0.0000,2.6253,flat,18.0,0,11.603
6400,204.80,1.2528,-3.7254,0.1797,-0.0002,-0.0000,2.5740,flat,18.0,0,11.060
6410,205.12,0.7829,-3.4149,0.1797,-0.0001,-0.0000,2.5337,flat,18.0,0,10.511
6420,205.44,0.3239,-3.0856,0.1797,-0.0001,-0.0000,2.5001,flat,18.0,0,9.956
6430,205.76,-0.1255,-2.7409,0.1797,-0.0001,-0.0000,2.4712,flat,18.0,0,9.398
6440,206.08,-0.5662,-2.3831,0.1797,-0.0001,-0.0000,2.4459,flat,18.0,0,8.837
6450,206.40,-0.9988,-2.0141,0.1797,-0.0001,-0.0000,2.4234,flat,18.0,0,8.274
6460,206.72,-1.4241,-1.6354,0.1797,-0.0001,-0.0000,2.4027,flat,18.0,0,7.708
6470,207.04,-1.8423,-1.2479,0.1797,-0.0001,-0.0000,2.3837,flat,18.0,0,7.142
6480,207.36,-2.2537,-0.8523,0.1797,-0.0001,-0.0000,2.3665,flat,18.0,0,6.574
6490,207.68,-2.6588,-0.4497,0.1797,-0.0001,-0.0000,2.3507,flat,18.0,0,6.006
6500,208.00,-3.0578,-0.0406,0.1797,-0.0001,-0.0000,2.3358,flat,18.0,0,5.437
6510,208.32,-3.4509,0.3744,0.1797,-0.0001,-0.0000,2.3215,flat,18.0,0,4.867
6520,208.64,-3.8381,0.7950,0.1797,-0.0000,-0.0000,2.3077,flat,18.0,0,4.297
6530,208.96,-4.2197,1.2208,0.1797,-0.0000,-0.0000,2.2943,flat,18.0,0,3.727
6540,209.28,-4.5955,1.6516,0.1797,-0.0000,0.0000,2.2809,flat,18.0,0,3.157
6550,209.60,-4.9653,2.0872,0.1797,-0.0000,0.0000,2.2670,flat,18.0,0,2.587
6560,209.92,-5.3285,2.5277,0.1797,-0.0001,0.0000,2.2518,flat,18.0,0,2.018
6570,210.24,-5.6840,2.9735,0.1797,-0.0001,0.0000,2.2334,flat,18.0,0,1.450
6580,210.56,-6.0288,3.4248,0.1797,-0.0001,0.0000,2.2073,flat,18.0,0,0.885
6590,210.88,-6.2667,3.7869,0.1798,0.0003,0.0001,1.9137,flat,18.0,1,7.184
6600,211.20,-6.3703,4.1193,0.1799,0.0001,-0.0001,1.4750,flat,18.0,1,7.235
6610,211.52,-6.3087,4.5167,0.1799,-0.0001,-0.0001,1.1417,flat,18.0,1,7.131
6620,211.84,-6.0852,4.9141,0.1799,-0.0001,-0.0000,0.8941,flat,18.0,1,6.887
6630,212.16,-5.7411,5.2740,0.1799,-0.0001,-0.0000,0.7021,flat,18.0,1,6.544
6640,212.48,-5.3168,5.5873,0.1799,-0.0001,-0.0000,0.5282,flat,18.0,1,6.137
6650,212.80,-4.8330,5.8394,0.1799,-0.0001,-0.0000,0.3708,flat,18.0,1,5.683
6660,213.12,-4.3104,6.0224,0.1799,-0.0002,-0.0000,0.2361,flat,18.0,1,5.196
6670,213.44,-3.7647,6.1391,0.1799,-0.0004,-0.0000,0.1216,flat,18.0,1,4.685
6680,213.76,-3.2069,6.1958,0.1798,-0.0004,-0.0000,0.0228,flat,18.0,1,4.158
6690,214.08,-2.6446,6.1988,0.1798,-0.0004,-0.0000,-0.0616,flat,18.0,1,3.621
6700,214.40,-2.0833,6.1559,0.1798,-0.0003,-0.0000,-0.1328,flat,18.0,1,3.076
6710,214.72,-1.5263,6.0739,0.1797,-0.0002,-0.0000,-0.1964,flat,18.0,1,2.528
6720,215.04,-0.9762,5.9568,0.1797,-0.0002,-0.0000,-0.2576,flat,18.0,1,1.979
6730,215.36,-0.4361,5.8062,0.1797,-0.0002,0.0000,-0.3221,flat,18.0,1,1.432
6740,215.68,0.0880,5.6207,0.1798,-0.0003,0.0000,-0.4007,flat,18.0,1,0.892
6750,216.00,0.5989,5.3958,0.1797,-0.0002,-0.0000,-0.4438,flat,18.0,2,9.853
6760,216.32,1.0859,5.1570,0.1797,-0.0001,0.0002,-0.4773,flat,18.0,2,9.321
6770,216.64,1.5845,4.8914,0.1797,-0.0001,-0.0000,-0.5090,flat,18.0,2,8.765
6780,216.96,2.0766,4.6099,0.1797,-0.0001,-0.0000,-0.5372,flat,18.0,2,8.205
6790,217.28,2.5618,4.3146,0.1797,-0.0001,-0.0000,-0.5619,flat,18.0,2,7.643
6800,217.60,3.0405,4.0073,0.1797,-0.0001,-0.0000,-0.5838,flat,18.0,2,7.078
6810,217.92,3.5132,3.6896,0.1797,-0.0001,-0.0000,-0.6034,flat,18.0,2,6.512
6820,218.24,3.9802,3.3626,0.1797,-0.0001,-0.0000,-0.6213,flat,18.0,2,5.945
6830,218.56,4.4418,3.0272,0.1797,-0.0001,-0.0000,-0.6379,flat,18.0,2,5.377
6840,218.88,4.8981,2.6841,0.1797,-0.0001,-0.0000,-0.6534,flat,18.0,2,4.809
6850,219.20,5.3493,2.3340,0.1797,-0.0001,-0.0000,-0.6681,flat,18.0,2,4.240
6860,219.52,5.7954,1.9773,0.1797,-0.0001,-0.0000,-0.6825,flat,18.0,2,3.670
6870,219.84,6.2364,1.6141,0.1797,-0.0001,0.0000,-0.6969,flat,18.0,2,3.101
6880,220.16,6.6717,1.2446,0.1797,-0.0001,0.0000,-0.7120,flat,18.0,2,2.532
6890,220.48,7.1010,0.8687,0.1797,-0.0001,0.0000,-0.7287,flat,18.0,2,1.963
6900,220.80,7.5227,0.4857,0.1797,-0.0001,0.0000,-0.7491,flat,18.0,2,1.396
6910,221.12,7.9334,0.0946,0.1797,-0.0001,0.0000,-0.7780,flat,18.0,2,0.832
6920,221.44,8.2141,-0.2207,0.1798,0.0003,-0.0000,-1.0527,flat,18.0,3,6.132
6930,221.76,8.3975,-0.6072,0.1799,-0.0000,-0.0000,-1.3816,flat,18.0,3,6.008
6940,222.08,8.4618,-1.0758,0.1799,-0.0001,-0.0000,-1.6780,flat,18.0,3,5.769
6950,222.40,8.3837,-1.5731,0.1799,-0.0001,-0.0000,-1.9056,flat,18.0,3,5.424
6960,222.72,8.1867,-2.0582,0.1799,-0.0001,-0.0000,-2.0831,flat,18.0,3,5.006
6970,223.04,7.9011,-2.5124,0.1799,-0.0002,-0.0000,-2.2170,flat,18.0,3,4.544
6980,223.36,7.5547,-2.9347,0.1798,-0.0004,-0.0000,-2.3151,flat,18.0,3,4.055
6990,223.68,7.1671,-3.3217,0.1798,-0.0004,-0.0000,-2.4086,flat,18.0,3,3.555
7000,224.00,6.7433,-3.6753,0.1798,-0.0004,-0.0000,-2.5009,flat,18.0,3,3.045
7010,224.32,6.2874,-3.9922,0.1798,-0.0004,-0.0000,-2.5942,flat,18.0,3,2.528
7020,224.64,5.8034,-4.2675,0.1798,-0.0004,-0.0000,-2.6923,flat,18.0,3,2.007
7030,224.96,5.2955,-4.4950,0.1798,-0.0004,-0.0000,-2.8027,flat,18.0,3,1.488
7040,225.28,4.7691,-4.6640,0.1799,-0.0001,0.0000,-2.9454,flat,18.0,3,0.978
7050,225.60,4.2478,-4.7434,0.1799,0.0000,0.0000,3.1344,flat,18.0,0,13.954
7060,225.92,3.7186,-4.7203,0.1799,-0.0001,-0.0000,2.9548,flat,18.0,0,13.537
7070,226.24,3.2173,-4.6180,0.1798,-0.0002,-0.0001,2.8753,flat,18.0,0,13.094
7080,226.56,2.6924,-4.4581,0.1798,-0.0004,-0.0000,2.7641,flat,18.0,0,12.601
7090,226.88,2.1823,-4.2414,0.1798,-0.0004,-0.0000,2.6826,flat,18.0,0,12.083
7100,227.20,1.6869,-3.9838,0.1797,-0.0002,-0.0000,2.6196,flat,18.0,0,11.549
7110,227.52,1.2052,-3.6953,0.1797,-0.0002,-0.0000,2.5694,flat,18.0,0,11.006
7120,227.84,0.7365,-3.3827,0.1797,-0.0001,-0.0000,2.5301,flat,18.0,0,10.455
7130,228.16,0.2785,-3.0517,0.1797,-0.0001,-0.0000,2.4970,flat,18.0,0,9.900
7140,228.48,-0.1700,-2.7056,0.1797,-0.0001,-0.0000,2.4685,flat,18.0,0,9.342
7150,228.80,-0.6098,-2.3466,0.1797,-0.0001,-0.0000,2.4435,flat,18.0,0,8.780
7160,229.12,-1.0417,-1.9766,0.1797,-0.0001,-0.0000,2.4212,flat,18.0,0,8.217
7170,229.44,-1.4662,-1.5970,0.1797,-0.0001,-0.0000,2.4007,flat,18.0,0,7.652
7180,229.76,-1.8837,-1.2086,0.1797,-0.0001,-0.0000,2.3819,flat,18.0,0,7.085
7190,230.08,-2.2945,-0.8123,0.1797,-0.0001,-0.0000,2.3648,flat,18.0,0,6.518
7200,230.40,-2.6989,-0.4090,0.1797,-0.0001,-0.0000,2.3491,flat,18.0,0,5.949
7210,230.72,-3.0974,0.0006,0.1797,-0.0001,-0.0000,2.3343,flat,18.0,0,5.380
7220,231.04,-3.4899,0.4162,0.1797,-0.0001,-0.0000,2.3201,flat,18.0,0,4.810
7230,231.36,-3.8765,0.8374,0.1797,-0.0000,-0.0000,2.3063,flat,18.0,0,4.240
7240,231.68,-4.2575,1.2637,0.1797,-0.0000,0.0000,2.2929,flat,18.0,0,3.670
7250,232.00,-4.6327,1.6950,0.1797,-0.0000,0.0000,2.2795,flat,18.0,0,3.100
7260,232.32,-5.0019,2.1311,0.1797,-0.0000,0.0000,2.2656,flat,18.0,0,2.530
7270,232.64,-5.3644,2.5721,0.1797,-0.0001,0.0000,2.2502,flat,18.0,0,1.961
7280,232.96,-5.7190,3.0184,0.1797,-0.0001,0.0000,2.2313,flat,18.0,0,1.393
7290,233.28,-6.0625,3.4702,0.1797,-0.0001,0.0000,2.2038,flat,18.0,0,0.829
7300,233.60,-6.2830,3.8174,0.1798,0.0003,0.0001,1.8675,flat,18.0,1,7.195
7310,233.92,-6.3724,4.1572,0.1799,0.0001,-0.0001,1.4347,flat,18.0,1,7.232
7320,234.24,-6.2933,4.5577,0.1799,0.0001,-0.0001,1.1102,flat,18.0,1,7.113
7330,234.56,-6.0555,4.9522,0.1799,0.0000,-0.0000,0.8718,flat,18.0,1,6.857
7340,234.88,-5.7019,5.3078,0.1799,-0.0000,-0.0000,0.6838,flat,18.0,1,6.506
7350,235.20,-5.2708,5.6156,0.1799,-0.0000,-0.0000,0.5113,flat,18.0,1,6.094
7360,235.52,-4.7822,5.8609,0.1799,-0.0001,-0.0000,0.3562,flat,18.0,1,5.636
7370,235.84,-4.2567,6.0370,0.1799,-0.0002,-0.0000,0.2238,flat,18.0,1,5.146
7380,236.16,-3.7094,6.1474,0.1799,-0.0004,-0.0000,0.1111,flat,18.0,1,4.633
7390,236.48,-3.1508,6.1985,0.1798,-0.0004,-0.0000,0.0137,flat,18.0,1,4.105
7400,236.80,-2.5884,6.1965,0.1798,-0.0004,-0.0000,-0.0693,flat,18.0,1,3.567
7410,237.12,-2.0274,6.1494,0.1798,-0.0003,-0.0000,-0.1394,flat,18.0,1,3.022
7420,237.44,-1.4710,6.0637,0.1797,-0.0002,-0.0000,-0.2026,flat,18.0,1,2.474
7430,237.76,-0.9217,5.9433,0.1797,-0.0002,-0.0000,-0.2638,flat,18.0,1,1.925
7440,238.08,-0.3829,5.7893,0.1797,-0.0002,0.0000,-0.3291,flat,18.0,1,1.378
7450,238.40,0.1392,5.6000,0.1798,-0.0003,0.0000,-0.4096,flat,18.0,1,0.839
7460,238.72,0.6500,5.3719,0.1797,-0.0002,-0.0000,-0.4481,flat,18.0,2,9.798
7470,239.04,1.1353,5.1311,0.1797,-0.0001,-0.0001,-0.4795,flat,18.0,2,9.266
7480,239.36,1.6340,4.8640,0.1797,-0.0001,-0.0000,-0.5120,flat,18.0,2,8.709
7490,239.68,2.1254,4.5810,0.1797,-0.0001,-0.0000,-0.5398,flat,18.0,2,8.149
7500,240.00,2.6100,4.2844,0.1797,-0.0001,-0.0000,-0.5642,flat,18.0,2,7.586
7510,240.32,3.0881,3.9760,0.1797,-0.0001,-0.0000,-0.5858,flat,18.0,2,7.022
7520,240.64,3.5602,3.6573,0.1797,-0.0001,-0.0000,-0.6053,flat,18.0,2,6.456
7530,240.96,4.0266,3.3294,0.1797,-0.0001,-0.0000,-0.6231,flat,18.0,2,5.889
7540,241.28,4.4876,2.9932,0.1797,-0.0001,-0.0000,-0.6395,flat,18.0,2,5.321
7550,241.60,4.9434,2.6495,0.1797,-0.0001,-0.0000,-0.6549,flat,18.0,2,4.752
7560,241.92,5.3941,2.2987,0.1797,-0.0001,-0.0000,-0.6696,flat,18.0,2,4.183
7570,242.24,5.8398,1.9413,0.1797,-0.0001,-0.0000,-0.6840,flat,18.0,2,3.614
7580,242.56,6.2801,1.5774,0.1797,-0.0001,0.0000,-0.6984,flat,18.0,2,3.044
7590,242.88,6.7149,1.2073,0.1797,-0.0001,0.0000,-0.7135,flat,18.0,2,2.475
7600,243.20,7.1435,0.8307,0.1797,-0.0001,0.0000,-0.7305,flat,18.0,2,1.907
7610,243.52,7.5643,0.4470,0.1797,-0.0001,0.0000,-0.7515,flat,18.0,2,1.339
7620,243.84,7.9736,0.0551,0.1797,-0.0001,0.0000,-0.7819,flat,18.0,3,6.161
7630,244.16,8.2359,-0.2543,0.1799,0.0003,-0.0000,-1.0867,flat,18.0,3,6.124
7640,244.48,8.4103,-0.6512,0.1799,-0.0000,-0.0000,-1.4139,flat,18.0,3,5.990
7650,244.80,8.4606,-1.1255,0.1799,0.0001,-0.0001,-1.7069,flat,18.0,3,5.739
7660,245.12,8.3691,-1.6227,0.1799,-0.0000,-0.0000,-1.9274,flat,18.0,3,5.385
7670,245.44,8.1615,-2.1052,0.1799,-0.0001,-0.0000,-2.0983,flat,18.0,3,4.962
7680,245.76,7.8687,-2.5560,0.1799,-0.0002,-0.0000,-2.2280,flat,18.0,3,4.496
7690,246.08,7.5177,-2.9750,0.1798,-0.0004,-0.0000,-2.3246,flat,18.0,3,4.005
7700,246.40,7.1262,-3.3586,0.1798,-0.0004,-0.0000,-2.4178,flat,18.0,3,3.504
7710,246.72,6.6990,-3.7087,0.1798,-0.0004,-0.0000,-2.5101,flat,18.0,3,2.993
7720,247.04,6.2402,-4.0216,0.1798,-0.0004,-0.0000,-2.6037,flat,18.0,3,2.476
7730,247.36,5.7536,-4.2925,0.1798,-0.0004,-0.0000,-2.7026,flat,18.0,3,1.955
7740,247.68,5.2435,-4.5147,0.1798,-0.0004,-0.0000,-2.8149,flat,18.0,3,1.436
7750,248.00,4.7158,-4.6770,0.1799,-0.0001,0.0000,-2.9632,flat,18.0,3,0.928
7760,248.32,4.1958,-4.7457,0.1799,-0.0001,-0.0000,3.1155,flat,18.0,0,13.916
7770,248.64,3.6653,-4.7121,0.1799,-0.0001,-0.0000,2.9413,rough,15.5,0,13.491
7780,248.96,3.1642,-4.6051,0.1798,-0.0002,-0.0001,2.8624,flat,18.0,0,13.047
7790,249.28,2.6406,-4.4387,0.1798,-0.0004,-0.0000,2.7549,flat,18.0,0,12.550
7800,249.60,2.1320,-4.2173,0.1798,-0.0003,-0.0000,2.6756,flat,18.0,0,12.030
7810,249.92,1.6381,-3.9562,0.1797,-0.0002,-0.0000,2.6141,flat,18.0,0,11.495
7820,250.24,1.1577,-3.6650,0.1797,-0.0002,-0.0000,2.5649,flat,18.0,0,10.951
7830,250.56,0.6903,-3.3503,0.1797,-0.0001,-0.0000,2.5265,flat,18.0,0,10.400
7840,250.88,0.2332,-3.0177,0.1797,-0.0001,-0.0000,2.4940,flat,18.0,0,9.845
7850,251.20,-0.2144,-2.6702,0.1797,-0.0001,-0.0000,2.4658,flat,18.0,0,9.286
7860,251.52,-0.6534,-2.3100,0.1797,-0.0001,-0.0000,2.4412,flat,18.0,0,8.724
7870,251.84,-1.0844,-1.9391,0.1797,-0.0001,-0.0000,2.4191,flat,18.0,0,8.161
7880,252.16,-1.5083,-1.5585,0.1797,-0.0001,-0.0000,2.3987,flat,18.0,0,7.595
7890,252.48,-1.9251,-1.1693,0.1797,-0.0001,-0.0000,2.3801,flat,18.0,0,7.028
7900,252.80,-2.3352,-0.7722,0.1797,-0.0001,-0.0000,2.3632,flat,18.0,0,6.461
7910,253.12,-2.7391,-0.3683,0.1797,-0.0001,-0.0000,2.3476,flat,18.0,0,5.892
7920,253.44,-3.1369,0.0420,0.1797,-0.0001,-0.0000,2.3329,flat,18.0,0,5.323
7930,253.76,-3.5288,0.4581,0.1797,-0.0001,-0.0000,2.3187,flat,18.0,0,4.753
7940,254.08,-3.9149,0.8798,0.1797,-0.0000,-0.0000,2.3050,flat,18.0,0,4.183
7950,254.40,-4.2953,1.3067,0.1797,-0.0000,0.0000,2.2916,flat,18.0,0,3.613
7960,254.72,-4.6699,1.7384,0.1797,-0.0000,0.0000,2.2782,flat,18.0,0,3.043
7970,255.04,-5.0385,2.1750,0.1797,-0.0000,0.0000,2.2641,flat,18.0,0,2.473
7980,255.36,-5.4003,2.6165,0.1797,-0.0001,0.0000,2.2485,flat,18.0,0,1.904
7990,255.68,-5.7540,3.0634,0.1797,-0.0001,0.0000,2.2291,flat,18.0,0,1.336
8000,256.00,-6.0959,3.5158,0.1797,-0.0001,0.0000,2.2001,flat,18.0,1,7.072
8010,256.32,-6.2980,3.8484,0.1798,0.0003,0.0000,1.8227,flat,18.0,1,7.204
8020,256.64,-6.3723,4.1958,0.1799,0.0000,-0.0001,1.3992,flat,18.0,1,7.227
8030,256.96,-6.2758,4.5981,0.1799,-0.0001,-0.0000,1.0865,flat,18.0,1,7.092
