step,time_s,x,y,z,roll,pitch,yaw,terrain,speed,target_idx,dist_to_target
10,0.32,2.1844,0.5010,0.1860,0.0000,-0.0568,0.0000,rough,15.5,0,6.240
20,0.64,2.6872,0.5084,0.1796,0.0001,-0.0008,0.0423,flat,18.0,0,5.752
30,0.96,3.2503,0.5405,0.1797,0.0002,-0.0001,0.1089,flat,18.0,0,5.202
40,1.28,3.8111,0.6084,0.1797,0.0002,-0.0000,0.1632,flat,18.0,0,4.647
50,1.60,4.3688,0.7062,0.1797,0.0002,-0.0000,0.2099,flat,18.0,0,4.087
60,1.92,4.9213,0.8295,0.1797,0.0001,-0.0000,0.2492,flat,18.0,0,3.525
70,2.24,5.4685,0.9741,0.1797,0.0001,-0.0000,0.2850,flat,18.0,0,2.961
80,2.56,6.0102,1.1383,0.1797,0.0001,-0.0000,0.3199,flat,18.0,0,2.397
90,2.88,6.5452,1.3213,0.1797,0.0001,0.0000,0.3560,flat,18.0,0,1.833
100,3.20,7.0713,1.5238,0.1797,0.0001,0.0000,0.3969,flat,18.0,0,1.269
110,3.52,7.5822,1.7446,0.1797,0.0001,0.0003,0.4697,flat,18.0,1,5.040
120,3.84,7.8902,1.9327,0.1798,-0.0003,-0.0000,0.7912,flat,18.0,1,5.090
130,4.16,8.1132,2.2154,0.1799,-0.0000,-0.0000,1.0687,rough,15.5,1,5.038
140,4.48,8.2852,2.5701,0.1799,-0.0000,-0.0001,1.3265,flat,18.0,1,4.927
150,4.80,8.3742,3.0307,0.1799,0.0000,-0.0000,1.6404,flat,18.0,1,4.715
160,5.12,8.3152,3.5256,0.1799,-0.0000,-0.0000,1.8884,flat,18.0,1,4.397
170,5.44,8.1276,4.0088,0.1799,0.0000,-0.0000,2.0811,flat,18.0,1,4.004
180,5.76,7.8432,4.4573,0.1799,0.0001,-0.0000,2.2322,flat,18.0,1,3.564
190,6.08,7.4907,4.8668,0.1799,0.0003,-0.0000,2.3489,flat,18.0,1,3.098
200,6.40,7.0909,5.2332,0.1799,0.0003,-0.0000,2.4673,flat,18.0,1,2.621
210,6.72,6.6488,5.5545,0.1799,0.0002,-0.0000,2.5951,flat,18.0,1,2.137
220,7.04,6.1691,5.8193,0.1799,0.0001,-0.0000,2.7420,flat,18.0,1,1.650
230,7.36,5.6605,6.0109,0.1799,0.0000,0.0000,2.9322,flat,18.0,1,1.170
240,7.68,5.1447,6.0963,0.1799,0.0003,0.0001,-3.0781,flat,18.0,2,12.925
250,8.00,4.5838,6.0546,0.1798,0.0001,-0.0000,-3.0311,flat,18.0,2,12.378
260,8.32,4.0212,5.9867,0.1797,0.0001,-0.0000,-2.9894,flat,18.0,2,11.823
270,8.64,3.4608,5.8962,0.1797,0.0001,-0.0000,-2.9563,flat,18.0,2,11.264
280,8.96,2.9024,5.7877,0.1797,0.0001,-0.0000,-2.9290,flat,18.0,2,10.701
290,9.28,2.3461,5.6642,0.1797,0.0001,-0.0000,-2.9059,flat,18.0,2,10.136
300,9.60,1.7919,5.5281,0.1797,0.0001,-0.0000,-2.8863,flat,18.0,2,9.569
310,9.92,1.2398,5.3814,0.1797,0.0001,-0.0000,-2.8694,flat,18.0,2,9.001
320,10.24,0.6896,5.2254,0.1797,0.0001,-0.0000,-2.8547,flat,18.0,2,8.432
330,10.56,0.1412,5.0615,0.1797,0.0000,-0.0000,-2.8418,flat,18.0,2,7.861
340,10.88,-0.4054,4.8906,0.1797,0.0000,-0.0000,-2.8304,flat,18.0,2,7.290
350,11.20,-0.9504,4.7135,0.1797,0.0000,-0.0000,-2.8201,flat,18.0,2,6.719
360,11.52,-1.4939,4.5309,0.1797,0.0000,-0.0000,-2.8108,flat,18.0,2,6.147
370,11.84,-2.0358,4.3433,0.1797,0.0000,-0.0000,-2.8023,flat,18.0,2,5.574
380,12.16,-2.5764,4.1512,0.1797,0.0000,-0.0000,-2.7945,flat,18.0,2,5.002
390,12.48,-3.1155,3.9548,0.1797,0.0000,-0.0000,-2.7871,flat,18.0,2,4.429
400,12.80,-3.6533,3.7544,0.1797,0.0000,-0.0000,-2.7800,flat,18.0,2,3.856
410,13.12,-4.1897,3.5503,0.1797,0.0000,-0.0000,-2.7731,flat,18.0,2,3.283
420,13.44,-4.7247,3.3425,0.1797,0.0000,0.0000,-2.7662,flat,18.0,2,2.711
430,13.76,-5.2580,3.1309,0.1797,0.0000,0.0000,-2.7588,flat,18.0,2,2.139
440,14.08,-5.7894,2.9154,0.1797,0.0000,0.0000,-2.7503,flat,18.0,2,1.568
450,14.40,-6.3181,2.6954,0.1797,0.0000,0.0000,-2.7393,flat,18.0,2,1.000
460,14.72,-6.7743,2.4986,0.1798,-0.0002,0.0001,-2.5985,flat,18.0,3,10.704
470,15.04,-7.1131,2.2463,0.1799,0.0000,-0.0000,-2.3423,flat,18.0,3,10.546
480,15.36,-7.4104,1.8787,0.1799,0.0000,-0.0000,-2.1160,flat,18.0,3,10.281
490,15.68,-7.6489,1.4257,0.1799,0.0000,-0.0000,-1.9100,flat,18.0,3,9.930
500,16.00,-7.8059,0.9134,0.1799,0.0001,-0.0000,-1.7300,flat,18.0,3,9.509
510,16.32,-7.8759,0.3678,0.1799,0.0001,-0.0000,-1.5779,flat,18.0,3,9.033
520,16.64,-7.8659,-0.1887,0.1799,0.0004,-0.0000,-1.4636,flat,18.0,3,8.523
530,16.96,-7.7959,-0.7437,0.1798,0.0004,-0.0000,-1.3803,flat,18.0,3,7.992
540,17.28,-7.6811,-1.2937,0.1797,0.0002,-0.0000,-1.3159,flat,18.0,3,7.450
550,17.60,-7.5320,-1.8373,0.1797,0.0002,-0.0000,-1.2640,flat,18.0,3,6.900
560,17.92,-7.3551,-2.3739,0.1797,0.0002,-0.0000,-1.2221,flat,18.0,3,6.345
570,18.24,-7.1563,-2.9034,0.1797,0.0001,-0.0000,-1.1873,flat,18.0,3,5.787
580,18.56,-6.9392,-3.4268,0.1797,0.0001,-0.0000,-1.1565,flat,18.0,3,5.226
590,18.88,-6.7062,-3.9441,0.1797,0.0001,-0.0000,-1.1286,flat,18.0,3,4.663
600,19.20,-6.4587,-4.4552,0.1797,0.0001,-0.0000,-1.1027,flat,18.0,3,4.099
610,19.52,-6.1980,-4.9601,0.1797,0.0001,-0.0000,-1.0780,flat,18.0,3,3.534
620,19.84,-5.9249,-5.4584,0.1797,0.0001,-0.0000,-1.0538,flat,18.0,3,2.968
630,20.16,-5.6397,-5.9495,0.1797,0.0001,0.0000,-1.0288,flat,18.0,3,2.402
640,20.48,-5.3423,-6.4324,0.1797,0.0001,0.0000,-1.0013,flat,18.0,3,1.837
650,20.80,-5.0318,-6.9043,0.1797,0.0001,0.0000,-0.9675,flat,18.0,3,1.274
660,21.12,-4.7091,-7.3573,0.1797,0.0001,0.0003,-0.9014,flat,18.0,0,15.991
670,21.44,-4.4419,-7.6280,0.1799,-0.0002,-0.0000,-0.6108,flat,18.0,0,15.938
680,21.76,-4.0643,-7.8482,0.1799,0.0000,-0.0000,-0.3264,flat,18.0,0,15.777
690,22.08,-3.5960,-7.9805,0.1799,0.0001,-0.0000,-0.0742,flat,18.0,0,15.499
700,22.40,-3.0787,-7.9972,0.1799,0.0001,0.0000,0.1310,flat,18.0,0,15.119
710,22.72,-2.5483,-7.9084,0.1799,0.0001,-0.0000,0.2835,flat,18.0,0,14.666
720,23.04,-2.0263,-7.7395,0.1798,0.0004,-0.0000,0.3930,flat,18.0,0,14.170
730,23.36,-1.5194,-7.5149,0.1798,0.0004,-0.0000,0.4730,flat,18.0,0,13.649
740,23.68,-1.0275,-7.2503,0.1797,0.0002,-0.0000,0.5346,flat,18.0,0,13.114
750,24.00,-0.5492,-6.9556,0.1797,0.0002,-0.0000,0.5835,flat,18.0,0,12.568
760,24.32,-0.0838,-6.6377,0.1797,0.0001,-0.0000,0.6214,flat,18.0,0,12.016
770,24.64,0.3713,-6.3022,0.1797,0.0001,-0.0000,0.6534,flat,18.0,0,11.459
780,24.96,0.8171,-5.9520,0.1797,0.0001,-0.0000,0.6808,flat,18.0,0,10.899
790,25.28,1.2546,-5.5896,0.1797,0.0001,-0.0000,0.7046,flat,18.0,0,10.336
800,25.60,1.6846,-5.2168,0.1797,0.0001,-0.0000,0.7258,flat,18.0,0,9.771
810,25.92,2.1076,-4.8348,0.1797,0.0001,-0.0000,0.7451,flat,18.0,0,9.204
820,26.24,2.5241,-4.4446,0.1797,0.0001,-0.0000,0.7624,flat,18.0,0,8.636
830,26.56,2.9344,-4.0471,0.1797,0.0001,-0.0000,0.7779,flat,18.0,0,8.066
840,26.88,3.3390,-3.6433,0.1797,0.0000,-0.0000,0.7919,flat,18.0,0,7.496
850,27.20,3.7384,-3.2338,0.1797,0.0000,-0.0000,0.8049,flat,18.0,0,6.925
860,27.52,4.1327,-2.8191,0.1797,0.0000,-0.0000,0.8170,flat,18.0,0,6.354
870,27.84,4.5222,-2.3995,0.1797,0.0000,-0.0000,0.8284,flat,18.0,0,5.782
880,28.16,4.9072,-1.9756,0.1797,0.0000,-0.0000,0.8391,flat,18.0,0,5.210
890,28.48,5.2879,-1.5477,0.1797,0.0000,-0.0000,0.8492,flat,18.0,0,4.638
900,28.80,5.6644,-1.1159,0.1797,0.0000,-0.0000,0.8589,flat,18.0,0,4.065
910,29.12,6.0367,-0.6806,0.1797,0.0000,-0.0000,0.8685,flat,18.0,0,3.492
920,29.44,6.4047,-0.2417,0.1797,0.0000,0.0000,0.8783,flat,18.0,0,2.920
930,29.76,6.7682,0.2007,0.1797,0.0000,0.0000,0.8886,flat,18.0,0,2.347
940,30.08,7.1268,0.6466,0.1797,0.0000,0.0000,0.9001,flat,18.0,0,1.775
950,30.40,7.4795,1.0965,0.1797,0.0000,0.0000,0.9141,flat,18.0,0,1.203
960,30.72,7.8142,1.5404,0.1797,0.0001,0.0003,0.9693,flat,18.0,1,5.343
970,31.04,8.0302,1.9296,0.1799,0.0001,-0.0000,1.2712,flat,18.0,1,5.186
980,31.36,8.1425,2.3525,0.1799,0.0001,-0.0000,1.5081,rough,15.5,1,4.965
990,31.68,8.1540,2.8438,0.1799,0.0001,-0.0000,1.7462,flat,18.0,1,4.651
1000,32.00,8.0394,3.3531,0.1799,0.0001,-0.0000,1.9450,flat,18.0,1,4.256
1010,32.32,7.8216,3.8402,0.1799,0.0001,-0.0000,2.0988,flat,18.0,1,3.813
1020,32.64,7.5288,4.2948,0.1799,0.0003,-0.0000,2.2182,flat,18.0,1,3.341
1030,32.96,7.1825,4.7178,0.1798,0.0004,-0.0000,2.3145,flat,18.0,1,2.854
1040,33.28,6.7958,5.1020,0.1798,0.0004,-0.0000,2.4174,flat,18.0,1,2.365
1050,33.60,6.3706,5.4456,0.1798,0.0004,-0.0000,2.5336,flat,18.0,1,1.875
1060,33.92,5.9090,5.7373,0.1799,0.0001,0.0000,2.6784,flat,18.0,1,1.388
1070,34.24,5.4180,5.9558,0.1799,0.0000,0.0000,2.8945,flat,18.0,1,0.921
1080,34.56,4.8977,6.0552,0.1799,0.0001,0.0001,3.0506,flat,18.0,2,12.677
1090,34.88,4.3387,6.0939,0.1798,0.0004,-0.0000,-3.1312,flat,18.0,2,12.158
1100,35.20,3.7757,6.0788,0.1798,0.0003,-0.0000,-3.0560,flat,18.0,2,11.622
1110,35.52,3.2134,6.0235,0.1797,0.0002,-0.0000,-2.9997,flat,18.0,2,11.074
1120,35.84,2.6532,5.9377,0.1797,0.0002,-0.0000,-2.9559,flat,18.0,2,10.520
1130,36.16,2.0966,5.8283,0.1797,0.0001,-0.0000,-2.9223,flat,18.0,2,9.962
1140,36.48,1.5427,5.7006,0.1797,0.0001,-0.0000,-2.8942,flat,18.0,2,9.400
1150,36.80,0.9915,5.5577,0.1797,0.0001,-0.0000,-2.8703,flat,18.0,2,8.836
1160,37.12,0.4430,5.4019,0.1797,0.0001,-0.0000,-2.8498,flat,18.0,2,8.270
1170,37.44,-0.1030,5.2350,0.1797,0.0001,-0.0000,-2.8320,flat,18.0,2,7.702
1180,37.76,-0.6465,5.0584,0.1797,0.0001,-0.0000,-2.8162,flat,18.0,2,7.133
1190,38.08,-1.1876,4.8734,0.1797,0.0001,-0.0000,-2.8022,flat,18.0,2,6.564
1200,38.40,-1.7265,4.6809,0.1797,0.0000,-0.0000,-2.7896,flat,18.0,2,5.994
1210,38.72,-2.2633,4.4816,0.1797,0.0000,-0.0000,-2.7781,flat,18.0,2,5.423
1220,39.04,-2.7980,4.2762,0.1797,0.0000,-0.0000,-2.7674,flat,18.0,2,4.852
1230,39.36,-3.3307,4.0652,0.1797,0.0000,-0.0000,-2.7574,flat,18.0,2,4.280
1240,39.68,-3.8614,3.8488,0.1797,0.0000,-0.0000,-2.7478,flat,18.0,2,3.709
1250,40.00,-4.3900,3.6273,0.1797,0.0000,-0.0000,-2.7383,flat,18.0,2,3.138
1260,40.32,-4.9164,3.4008,0.1797,0.0000,0.0000,-2.7287,flat,18.0,2,2.567
1270,40.64,-5.4403,3.1693,0.1797,0.0000,0.0000,-2.7183,flat,18.0,2,1.996
1280,40.96,-5.9612,2.9323,0.1797,0.0000,0.0000,-2.7062,flat,18.0,2,1.428
1290,41.28,-6.4776,2.6891,0.1797,0.0001,0.0000,-2.6896,flat,18.0,2,0.864
1300,41.60,-6.8919,2.4726,0.1799,-0.0003,0.0000,-2.4970,flat,18.0,3,10.707
1310,41.92,-7.2133,2.1720,0.1799,0.0000,-0.0000,-2.2530,flat,18.0,3,10.503
1320,42.24,-7.4922,1.7682,0.1799,0.0000,-0.0000,-2.0343,flat,18.0,3,10.202
1330,42.56,-7.7014,1.2888,0.1799,0.0000,-0.0000,-1.8387,flat,18.0,3,9.820
1340,42.88,-7.8257,0.7608,0.1799,0.0001,-0.0000,-1.6696,flat,18.0,3,9.375
1350,43.20,-7.8645,0.2086,0.1799,0.0002,-0.0000,-1.5321,flat,18.0,3,8.883
1360,43.52,-7.8309,-0.3483,0.1798,0.0004,-0.0000,-1.4322,flat,18.0,3,8.363
1370,43.84,-7.7440,-0.9020,0.1798,0.0003,-0.0000,-1.3573,flat,18.0,3,7.828
1380,44.16,-7.6171,-1.4502,0.1797,0.0002,-0.0000,-1.2985,flat,18.0,3,7.282
1390,44.48,-7.4587,-1.9921,0.1797,0.0002,-0.0000,-1.2506,flat,18.0,3,6.729
1400,44.80,-7.2750,-2.5265,0.1797,0.0001,-0.0000,-1.2125,flat,18.0,3,6.173
1410,45.12,-7.0712,-3.0547,0.1797,0.0001,-0.0000,-1.1796,flat,18.0,3,5.613
1420,45.44,-6.8501,-3.5768,0.1797,0.0001,-0.0000,-1.1502,flat,18.0,3,5.052
1430,45.76,-6.6137,-4.0929,0.1797,0.0001,-0.0000,-1.1233,flat,18.0,3,4.488
1440,46.08,-6.3636,-4.6030,0.1797,0.0001,-0.0000,-1.0982,flat,18.0,3,3.923
1450,46.40,-6.1007,-5.1069,0.1797,0.0001,-0.0000,-1.0741,flat,18.0,3,3.358
1460,46.72,-5.8256,-5.6042,0.1797,0.0001,0.0000,-1.0500,flat,18.0,3,2.792
1470,47.04,-5.5385,-6.0941,0.1797,0.0001,0.0000,-1.0248,flat,18.0,3,2.226
1480,47.36,-5.2392,-6.5754,0.1797,0.0001,0.0000,-0.9963,flat,18.0,3,1.661
1490,47.68,-4.9264,-7.0445,0.1797,0.0001,0.0000,-0.9592,flat,18.0,3,1.099
1500,48.00,-4.6282,-7.4555,0.1798,0.0000,0.0005,-0.8261,flat,18.0,0,15.984
1510,48.32,-4.3349,-7.7034,0.1799,-0.0001,-0.0001,-0.5270,flat,18.0,0,15.899
1520,48.64,-3.9349,-7.8998,0.1799,0.0000,-0.0001,-0.2632,flat,18.0,0,15.708
1530,48.96,-3.4553,-8.0057,0.1799,0.0002,-0.0000,-0.0255,flat,18.0,0,15.409
1540,49.28,-2.9319,-7.9980,0.1799,0.0001,0.0000,0.1673,flat,18.0,0,15.010
1550,49.60,-2.4022,-7.8899,0.1799,0.0002,-0.0000,0.3108,flat,18.0,0,14.547
1560,49.92,-1.8836,-7.7071,0.1798,0.0004,-0.0000,0.4130,flat,18.0,0,14.045
1570,50.24,-1.3803,-7.4723,0.1798,0.0003,-0.0000,0.4887,flat,18.0,0,13.520
1580,50.56,-0.8919,-7.2000,0.1797,0.0002,-0.0000,0.5474,flat,18.0,0,12.982
1590,50.88,-0.4169,-6.8991,0.1797,0.0002,-0.0000,0.5939,flat,18.0,0,12.435
1600,51.20,0.0455,-6.5763,0.1797,0.0001,-0.0000,0.6304,flat,18.0,0,11.882
1610,51.52,0.4979,-6.2366,0.1797,0.0001,-0.0000,0.6614,flat,18.0,0,11.325
1620,51.84,0.9412,-5.8829,0.1797,0.0001,-0.0000,0.6881,flat,18.0,0,10.764
1630,52.16,1.3763,-5.5173,0.1797,0.0001,-0.0000,0.7113,flat,18.0,0,10.200
1640,52.48,1.8040,-5.1415,0.1797,0.0001,-0.0000,0.7322,flat,18.0,0,9.635
1650,52.80,2.2248,-4.7568,0.1797,0.0001,-0.0000,0.7512,flat,18.0,0,9.068
1660,53.12,2.6390,-4.3640,0.1797,0.0001,-0.0000,0.7681,flat,18.0,0,8.499
1670,53.44,3.0471,-3.9642,0.1797,0.0001,-0.0000,0.7833,flat,18.0,0,7.930
1680,53.76,3.4496,-3.5582,0.1797,0.0000,-0.0000,0.7972,flat,18.0,0,7.360
1690,54.08,3.8468,-3.1466,0.1797,0.0000,-0.0000,0.8100,flat,18.0,0,6.789
1700,54.40,4.2391,-2.7298,0.1797,0.0000,-0.0000,0.8220,flat,18.0,0,6.217
1710,54.72,4.6265,-2.3084,0.1797,0.0000,-0.0000,0.8333,flat,18.0,0,5.645
1720,55.04,5.0095,-1.8826,0.1797,0.0000,-0.0000,0.8439,flat,18.0,0,5.073
1730,55.36,5.3881,-1.4529,0.1797,0.0000,-0.0000,0.8539,flat,18.0,0,4.501
1740,55.68,5.7625,-1.0194,0.1797,0.0000,-0.0000,0.8636,flat,18.0,0,3.928
1750,56.00,6.1327,-0.5823,0.1797,0.0000,0.0000,0.8733,flat,18.0,0,3.356
1760,56.32,6.4986,-0.1417,0.1797,0.0000,0.0000,0.8832,flat,18.0,0,2.783
1770,56.64,6.8599,0.3025,0.1797,0.0000,0.0000,0.8938,flat,18.0,0,2.210
1780,56.96,7.2160,0.7503,0.1797,0.0000,0.0000,0.9058,flat,18.0,0,1.638
1790,57.28,7.5657,1.2020,0.1797,0.0001,0.0000,0.9210,flat,18.0,0,1.067
1800,57.60,7.8656,1.6195,0.1798,-0.0002,0.0002,1.0607,flat,18.0,1,5.313
1810,57.92,8.0608,2.0360,0.1799,0.0000,-0.0001,1.3614,flat,18.0,1,5.129
1820,58.24,8.1393,2.4775,0.1799,0.0000,-0.0001,1.5796,flat,18.0,1,4.878
1830,58.56,8.1111,2.9869,0.1799,0.0001,-0.0000,1.8161,flat,18.0,1,4.529
1840,58.88,7.9601,3.4923,0.1799,0.0001,-0.0000,1.9968,flat,18.0,1,4.113
1850,59.20,7.7168,3.9703,0.1799,0.0002,-0.0000,2.1371,flat,18.0,1,3.657
1860,59.52,7.4059,4.4166,0.1798,0.0004,-0.0000,2.2443,flat,18.0,1,3.178
1870,59.84,7.0483,4.8298,0.1798,0.0004,-0.0000,2.3411,flat,18.0,1,2.689
1880,60.16,6.6512,5.2036,0.1798,0.0004,-0.0000,2.4463,flat,18.0,1,2.199
1890,60.48,6.2161,5.5349,0.1799,0.0003,-0.0000,2.5685,flat,18.0,1,1.709
1900,60.80,5.7459,5.8093,0.1799,0.0001,0.0000,2.7284,flat,18.0,1,1.227
1910,61.12,5.2516,6.0006,0.1799,0.0000,0.0000,2.9938,flat,18.0,2,0.773
1920,61.44,4.7148,6.0712,0.1799,0.0002,-0.0000,3.0846,flat,18.0,2,12.508
1930,61.76,4.1537,6.0920,0.1798,0.0004,-0.0000,-3.1056,flat,18.0,2,11.983
1940,62.08,3.5905,6.0633,0.1798,0.0003,-0.0000,-3.0369,flat,18.0,2,11.442
1950,62.40,3.0288,5.9978,0.1797,0.0002,-0.0000,-2.9850,flat,18.0,2,10.893
1960,62.72,2.4697,5.9039,0.1797,0.0001,-0.0000,-2.9447,flat,18.0,2,10.337
1970,63.04,1.9140,5.7884,0.1797,0.0001,-0.0000,-2.9130,flat,18.0,2,9.777
1980,63.36,1.3609,5.6557,0.1797,0.0001,-0.0000,-2.8863,flat,18.0,2,9.215
1990,63.68,0.8106,5.5085,0.1797,0.0001,-0.0000,-2.8635,flat,18.0,2,8.650
2000,64.00,0.2629,5.3490,0.1797,0.0001,-0.0000,-2.8439,flat,18.0,2,8.083
2010,64.32,-0.2822,5.1789,0.1797,0.0001,-0.0000,-2.8267,flat,18.0,2,7.515
2020,64.64,-0.8250,4.9995,0.1797,0.0001,-0.0000,-2.8116,flat,18.0,2,6.946
2030,64.96,-1.3654,4.8120,0.1797,0.0000,-0.0000,-2.7980,flat,18.0,2,6.377
2040,65.28,-1.9036,4.6172,0.1797,0.0000,-0.0000,-2.7857,flat,18.0,2,5.806
2050,65.60,-2.4397,4.4158,0.1797,0.0000,-0.0000,-2.7744,flat,18.0,2,5.235
2060,65.92,-2.9737,4.2085,0.1797,0.0000,-0.0000,-2.7640,flat,18.0,2,4.664
2070,66.24,-3.5057,3.9956,0.1797,0.0000,-0.0000,-2.7541,flat,18.0,2,4.093
2080,66.56,-4.0356,3.7775,0.1797,0.0000,-0.0000,-2.7445,flat,18.0,2,3.521
2090,66.88,-4.5635,3.5543,0.1797,0.0000,0.0000,-2.7350,flat,18.0,2,2.950
2100,67.20,-5.0891,3.3261,0.1797,0.0000,0.0000,-2.7252,flat,18.0,2,2.379
2110,67.52,-5.6120,3.0927,0.1797,0.0000,0.0000,-2.7144,flat,18.0,2,1.810
2120,67.84,-6.1316,2.8537,0.1797,0.0000,0.0000,-2.7013,flat,18.0,2,1.242
2130,68.16,-6.6350,2.6175,0.1797,0.0000,0.0003,-2.6468,flat,18.0,3,10.787
2140,68.48,-6.9897,2.3863,0.1799,-0.0000,-0.0000,-2.3949,flat,18.0,3,10.648
2150,68.80,-7.2969,2.0403,0.1799,0.0000,-0.0000,-2.1658,flat,18.0,3,10.401
2160,69.12,-7.5521,1.6036,0.1799,0.0000,-0.0000,-1.9561,flat,18.0,3,10.065
2170,69.44,-7.7298,1.1020,0.1799,0.0000,-0.0000,-1.7712,flat,18.0,3,9.656
2180,69.76,-7.8211,0.5618,0.1799,0.0001,-0.0000,-1.6145,flat,18.0,3,9.190
2190,70.08,-7.8307,0.0059,0.1799,0.0003,-0.0000,-1.4920,flat,18.0,3,8.684
2200,70.40,-7.7759,-0.5505,0.1798,0.0004,-0.0000,-1.4035,flat,18.0,3,8.157
2210,70.72,-7.6738,-1.1026,0.1798,0.0003,-0.0000,-1.3359,flat,18.0,3,7.617
2220,71.04,-7.5354,-1.6489,0.1797,0.0002,-0.0000,-1.2819,flat,18.0,3,7.068
2230,71.36,-7.3682,-2.1886,0.1797,0.0002,-0.0000,-1.2381,flat,18.0,3,6.513
2240,71.68,-7.1779,-2.7211,0.1797,0.0001,-0.0000,-1.2026,flat,18.0,3,5.956
2250,72.00,-6.9689,-3.2476,0.1797,0.0001,-0.0000,-1.1712,flat,18.0,3,5.395
2260,72.32,-6.7435,-3.7683,0.1797,0.0001,-0.0000,-1.1430,flat,18.0,3,4.833
2270,72.64,-6.5035,-4.2830,0.1797,0.0001,-0.0000,-1.1170,flat,18.0,3,4.268
2280,72.96,-6.2501,-4.7916,0.1797,0.0001,-0.0000,-1.0924,flat,18.0,3,3.703
2290,73.28,-5.9842,-5.2940,0.1797,0.0001,-0.0000,-1.0685,flat,18.0,3,3.137
2300,73.60,-5.7064,-5.7896,0.1797,0.0001,0.0000,-1.0443,flat,18.0,3,2.571
2310,73.92,-5.4165,-6.2776,0.1797,0.0001,0.0000,-1.0182,flat,18.0,3,2.006
2320,74.24,-5.1141,-6.7560,0.1797,0.0001,0.0000,-0.9874,flat,18.0,3,1.441
2330,74.56,-4.7973,-7.2201,0.1797,0.0001,0.0000,-0.9439,flat,18.0,3,0.881
2340,74.88,-4.5284,-7.5502,0.1798,-0.0003,0.0000,-0.7096,flat,18.0,0,15.960
2350,75.20,-4.1886,-7.7872,0.1799,0.0000,-0.0001,-0.4176,flat,18.0,0,15.836
2360,75.52,-3.7461,-7.9533,0.1799,0.0000,-0.0000,-0.1533,flat,18.0,0,15.597
2370,75.84,-3.2405,-8.0092,0.1799,0.0000,-0.0000,0.0722,flat,18.0,0,15.249
2380,76.16,-2.7115,-7.9524,0.1799,0.0001,-0.0000,0.2397,flat,18.0,0,14.816
2390,76.48,-2.1854,-7.8065,0.1799,0.0003,-0.0000,0.3614,flat,18.0,0,14.332
2400,76.80,-1.6736,-7.5979,0.1798,0.0004,-0.0000,0.4496,flat,18.0,0,13.818
2410,77.12,-1.1771,-7.3449,0.1797,0.0003,-0.0000,0.5165,flat,18.0,0,13.286
2420,77.44,-0.6946,-7.0590,0.1797,0.0002,-0.0000,0.5691,flat,18.0,0,12.744
2430,77.76,-0.2254,-6.7477,0.1797,0.0001,-0.0000,0.6103,flat,18.0,0,12.193
2440,78.08,0.2327,-6.4173,0.1797,0.0001,-0.0000,0.6440,flat,18.0,0,11.638
2450,78.40,0.6813,-6.0714,0.1797,0.0001,-0.0000,0.6729,flat,18.0,0,11.079
2460,78.72,1.1212,-5.7125,0.1797,0.0001,-0.0000,0.6978,flat,18.0,0,10.517
2470,79.04,1.5533,-5.3427,0.1797,0.0001,-0.0000,0.7197,flat,18.0,0,9.952
2480,79.36,1.9783,-4.9633,0.1797,0.0001,-0.0000,0.7397,flat,18.0,0,9.386
2490,79.68,2.3966,-4.5754,0.1797,0.0001,-0.0000,0.7577,flat,18.0,0,8.818
2500,80.00,2.8086,-4.1799,0.1797,0.0001,-0.0000,0.7738,flat,18.0,0,8.249
2510,80.32,3.2147,-3.7778,0.1797,0.0001,-0.0000,0.7882,flat,18.0,0,7.679
2520,80.64,3.6155,-3.3697,0.1797,0.0000,-0.0000,0.8015,flat,18.0,0,7.108
2530,80.96,4.0111,-2.9564,0.1797,0.0000,-0.0000,0.8139,flat,18.0,0,6.537
2540,81.28,4.4018,-2.5381,0.1797,0.0000,-0.0000,0.8256,flat,18.0,0,5.966
2550,81.60,4.7879,-2.1152,0.1797,0.0000,-0.0000,0.8365,flat,18.0,0,5.394
2560,81.92,5.1696,-1.6882,0.1797,0.0000,-0.0000,0.8468,flat,18.0,0,4.821
2570,82.24,5.5471,-1.2574,0.1797,0.0000,-0.0000,0.8566,flat,18.0,0,4.249
2580,82.56,5.9204,-0.8229,0.1797,0.0000,-0.0000,0.8663,flat,18.0,0,3.676
2590,82.88,6.2894,-0.3849,0.1797,0.0000,0.0000,0.8760,flat,18.0,0,3.104
2600,83.20,6.6541,0.0567,0.1797,0.0000,0.0000,0.8860,flat,18.0,0,2.531
2610,83.52,7.0140,0.5018,0.1797,0.0000,0.0000,0.8971,flat,18.0,0,1.959
2620,83.84,7.3683,0.9506,0.1797,0.0000,0.0000,0.9101,flat,18.0,0,1.387
2630,84.16,7.7152,1.4035,0.1797,0.0001,0.0000,0.9278,flat,18.0,0,0.816
2640,84.48,7.9664,1.7936,0.1799,-0.0002,-0.0000,1.1821,flat,18.0,1,5.245
2650,84.80,8.1133,2.2151,0.1799,0.0001,-0.0000,1.4419,rough,15.5,1,5.039
2660,85.12,8.1579,2.6814,0.1799,0.0000,-0.0000,1.6753,flat,18.0,1,4.757
2670,85.44,8.0808,3.1929,0.1799,0.0000,-0.0000,1.8904,flat,18.0,1,4.382
2680,85.76,7.8912,3.6889,0.1799,0.0001,-0.0000,2.0552,flat,18.0,1,3.950
2690,86.08,7.6194,4.1537,0.1799,0.0002,-0.0000,2.1845,flat,18.0,1,3.485
2700,86.40,7.2875,4.5875,0.1798,0.0004,-0.0000,2.2831,flat,18.0,1,3.000
2710,86.72,6.9135,4.9844,0.1798,0.0004,-0.0000,2.3833,flat,18.0,1,2.512
2720,87.04,6.5005,5.3419,0.1798,0.0004,-0.0000,2.4941,flat,18.0,1,2.021
2730,87.36,6.0503,5.6520,0.1799,0.0002,0.0000,2.6273,flat,18.0,1,1.533
2740,87.68,5.5674,5.8969,0.1799,0.0000,0.0000,2.8132,flat,18.0,1,1.057
2750,88.00,5.0629,6.0321,0.1800,0.0003,-0.0001,3.0137,flat,18.0,2,12.827
2760,88.32,4.5081,6.0893,0.1799,0.0003,-0.0000,3.1219,flat,18.0,2,12.317
2770,88.64,3.9456,6.0902,0.1798,0.0004,-0.0000,-3.0779,flat,18.0,2,11.786
2780,88.96,3.3828,6.0466,0.1797,0.0002,-0.0000,-3.0162,flat,18.0,2,11.241
2790,89.28,2.8218,5.9698,0.1797,0.0002,-0.0000,-2.9684,flat,18.0,2,10.689
2800,89.60,2.2642,5.8671,0.1797,0.0001,-0.0000,-2.9322,flat,18.0,2,10.132
2810,89.92,1.7095,5.7448,0.1797,0.0001,-0.0000,-2.9024,flat,18.0,2,9.571
2820,90.24,1.1575,5.6064,0.1797,0.0001,-0.0000,-2.8773,flat,18.0,2,9.008
2830,90.56,0.6082,5.4543,0.1797,0.0001,-0.0000,-2.8557,flat,18.0,2,8.442
2840,90.88,0.0615,5.2905,0.1797,0.0001,-0.0000,-2.8370,flat,18.0,2,7.875
2850,91.20,-0.4827,5.1167,0.1797,0.0001,-0.0000,-2.8206,flat,18.0,2,7.307
2860,91.52,-1.0245,4.9340,0.1797,0.0001,-0.0000,-2.8061,flat,18.0,2,6.737
2870,91.84,-1.5640,4.7436,0.1797,0.0000,-0.0000,-2.7930,flat,18.0,2,6.167
2880,92.16,-2.1014,4.5461,0.1797,0.0000,-0.0000,-2.7811,flat,18.0,2,5.597
2890,92.48,-2.6366,4.3423,0.1797,0.0000,-0.0000,-2.7702,flat,18.0,2,5.026
2900,92.80,-3.1698,4.1327,0.1797,0.0000,-0.0000,-2.7599,flat,18.0,2,4.455
2910,93.12,-3.7010,3.9177,0.1797,0.0000,-0.0000,-2.7502,flat,18.0,2,3.883
2920,93.44,-4.2301,3.6975,0.1797,0.0000,-0.0000,-2.7407,flat,18.0,2,3.312
2930,93.76,-4.7571,3.4723,0.1797,0.0000,0.0000,-2.7311,flat,18.0,2,2.741
2940,94.08,-5.2817,3.2420,0.1797,0.0000,0.0000,-2.7210,flat,18.0,2,2.170
2950,94.40,-5.8034,3.0064,0.1797,0.0000,0.0000,-2.7096,flat,18.0,2,1.601
2960,94.72,-6.3213,2.7649,0.1797,0.0001,0.0000,-2.6948,flat,18.0,2,1.035
2970,95.04,-6.7825,2.5422,0.1798,-0.0001,0.0002,-2.5715,flat,18.0,3,10.748
2980,95.36,-7.1183,2.2763,0.1799,0.0000,-0.0000,-2.3216,flat,18.0,3,10.576
2990,95.68,-7.4123,1.8997,0.1799,0.0000,-0.0000,-2.0975,flat,18.0,3,10.301
3000,96.00,-7.6448,1.4400,0.1799,0.0001,-0.0000,-1.8946,flat,18.0,3,9.942
3010,96.32,-7.7949,0.9237,0.1799,0.0001,0.0000,-1.7183,flat,18.0,3,9.514
3020,96.64,-7.8588,0.3763,0.1799,0.0001,-0.0000,-1.5695,flat,18.0,3,9.034
3030,96.96,-7.8447,-0.1805,0.1798,0.0004,-0.0000,-1.4590,flat,18.0,3,8.521
3040,97.28,-7.7723,-0.7356,0.1798,0.0004,-0.0000,-1.3779,flat,18.0,3,7.989
3050,97.60,-7.6564,-1.2856,0.1797,0.0002,-0.0000,-1.3150,flat,18.0,3,7.446
3060,97.92,-7.5068,-1.8295,0.1797,0.0002,-0.0000,-1.2643,flat,18.0,3,6.895
3070,98.24,-7.3302,-2.3662,0.1797,0.0001,-0.0000,-1.2235,flat,18.0,3,6.340
3080,98.56,-7.1321,-2.8962,0.1797,0.0001,-0.0000,-1.1893,flat,18.0,3,5.781
3090,98.88,-6.9162,-3.4202,0.1797,0.0001,-0.0000,-1.1590,flat,18.0,3,5.220
3100,99.20,-6.6844,-3.9382,0.1797,0.0001,-0.0000,-1.1314,flat,18.0,3,4.657
3110,99.52,-6.4384,-4.4502,0.1797,0.0001,-0.0000,-1.1059,flat,18.0,3,4.092
3120,99.84,-6.1794,-4.9560,0.1797,0.0001,-0.0000,-1.0816,flat,18.0,3,3.527
3130,100.16,-5.9080,-5.4554,0.1797,0.0001,-0.0000,-1.0576,flat,18.0,3,2.961
3140,100.48,-5.6248,-5.9478,0.1797,0.0001,0.0000,-1.0329,flat,18.0,3,2.395
3150,100.80,-5.3294,-6.4320,0.1797,0.0001,0.0000,-1.0058,flat,18.0,3,1.830
3160,101.12,-5.0210,-6.9055,0.1797,0.0001,0.0000,-0.9722,flat,18.0,3,1.266
3170,101.44,-4.7005,-7.3601,0.1797,0.0001,0.0003,-0.9062,flat,18.0,0,15.986
3180,101.76,-4.4355,-7.6312,0.1799,-0.0002,-0.0000,-0.6155,flat,18.0,0,15.935
3190,102.08,-4.0598,-7.8523,0.1799,0.0000,-0.0000,-0.3305,flat,18.0,0,15.776
3200,102.40,-3.6058,-7.9864,0.1799,-0.0000,-0.0000,-0.0918,flat,18.0,0,15.511
3210,102.72,-3.0903,-8.0129,0.1799,0.0000,-0.0000,0.1178,flat,18.0,0,15.139
3220,103.04,-2.5603,-7.9322,0.1799,0.0001,-0.0000,0.2728,flat,18.0,0,14.691
3230,103.36,-2.0374,-7.7689,0.1799,0.0004,-0.0000,0.3856,flat,18.0,0,14.198
3240,103.68,-1.5295,-7.5480,0.1798,0.0004,-0.0000,0.4680,flat,18.0,0,13.680
3250,104.00,-1.0367,-7.2858,0.1797,0.0002,-0.0000,0.5312,flat,18.0,0,13.145
3260,104.32,-0.5578,-6.9927,0.1797,0.0002,-0.0000,0.5812,flat,18.0,0,12.601
3270,104.64,-0.0919,-6.6759,0.1797,0.0001,-0.0000,0.6202,flat,18.0,0,12.049
3280,104.96,0.3634,-6.3409,0.1797,0.0001,-0.0000,0.6527,flat,18.0,0,11.493
3290,105.28,0.8093,-5.9910,0.1797,0.0001,-0.0000,0.6805,flat,18.0,0,10.933
3300,105.60,1.2468,-5.6288,0.1797,0.0001,-0.0000,0.7047,flat,18.0,0,10.370
3310,105.92,1.6766,-5.2559,0.1797,0.0001,-0.0000,0.7262,flat,18.0,0,9.805
3320,106.24,2.0994,-4.8738,0.1797,0.0001,-0.0000,0.7458,flat,18.0,0,9.238
3330,106.56,2.5154,-4.4833,0.1797,0.0001,-0.0000,0.7633,flat,18.0,0,8.670
3340,106.88,2.9253,-4.0855,0.1797,0.0001,-0.0000,0.7790,flat,18.0,0,8.101
3350,107.20,3.3295,-3.6812,0.1797,0.0001,-0.0000,0.7932,flat,18.0,0,7.531
3360,107.52,3.7282,-3.2712,0.1797,0.0000,-0.0000,0.8063,flat,18.0,0,6.960
3370,107.84,4.1219,-2.8559,0.1797,0.0000,-0.0000,0.8186,flat,18.0,0,6.389
3380,108.16,4.5108,-2.4358,0.1797,0.0000,-0.0000,0.8301,flat,18.0,0,5.817
3390,108.48,4.8950,-2.0113,0.1797,0.0000,-0.0000,0.8408,flat,18.0,0,5.245
3400,108.80,5.2749,-1.5827,0.1797,0.0000,-0.0000,0.8510,flat,18.0,0,4.673
3410,109.12,5.6506,-1.1503,0.1797,0.0000,-0.0000,0.8608,flat,18.0,0,4.100
3420,109.44,6.0220,-0.7143,0.1797,0.0000,-0.0000,0.8705,flat,18.0,0,3.528
3430,109.76,6.3892,-0.2747,0.1797,0.0000,0.0000,0.8803,flat,18.0,0,2.955
3440,110.08,6.7519,0.1684,0.1797,0.0000,0.0000,0.8906,flat,18.0,0,2.383
3450,110.40,7.1096,0.6151,0.1797,0.0000,0.0000,0.9020,flat,18.0,0,1.810
3460,110.72,7.4614,1.0657,0.1797,0.0000,0.0000,0.9159,flat,18.0,0,1.239
3470,111.04,7.7954,1.5104,0.1797,0.0001,0.0003,0.9707,flat,18.0,1,5.356
3480,111.36,8.0118,1.9011,0.1799,0.0001,-0.0000,1.2708,flat,18.0,1,5.195
3490,111.68,8.1257,2.3396,0.1799,0.0001,-0.0000,1.5170,rough,15.5,1,4.961
3500,112.00,8.1332,2.8325,0.1799,0.0001,-0.0000,1.7505,flat,18.0,1,4.642
3510,112.32,8.0162,3.3426,0.1799,0.0001,-0.0000,1.9469,flat,18.0,1,4.243
3520,112.64,7.7976,3.8300,0.1799,0.0001,-0.0000,2.0983,flat,18.0,1,3.797
3530,112.96,7.5050,4.2854,0.1799,0.0003,-0.0000,2.2161,flat,18.0,1,3.324
3540,113.28,7.1596,4.7096,0.1798,0.0004,-0.0000,2.3113,flat,18.0,1,2.836
3550,113.60,6.7742,5.0953,0.1798,0.0004,-0.0000,2.4134,flat,18.0,1,2.346
3560,113.92,6.3504,5.4406,0.1798,0.0004,-0.0000,2.5291,flat,18.0,1,1.855
3570,114.24,5.8903,5.7341,0.1799,0.0001,0.0000,2.6742,flat,18.0,1,1.370
3580,114.56,5.4007,5.9542,0.1799,0.0000,0.0000,2.8933,flat,18.0,1,0.904
3590,114.88,4.8814,6.0534,0.1799,0.0001,0.0000,3.0513,flat,18.0,2,12.661
3600,115.20,4.3225,6.0917,0.1798,0.0004,-0.0000,-3.1307,flat,18.0,2,12.142
3610,115.52,3.7594,6.0764,0.1798,0.0003,-0.0000,-3.0555,flat,18.0,2,11.606
3620,115.84,3.1971,6.0208,0.1797,0.0002,-0.0000,-2.9993,flat,18.0,2,11.058
3630,116.16,2.6370,5.9347,0.1797,0.0002,-0.0000,-2.9555,flat,18.0,2,10.504
3640,116.48,2.0804,5.8252,0.1797,0.0001,-0.0000,-2.9219,flat,18.0,2,9.945
3650,116.80,1.5266,5.6973,0.1797,0.0001,-0.0000,-2.8939,flat,18.0,2,9.384
3660,117.12,0.9754,5.5542,0.1797,0.0001,-0.0000,-2.8700,flat,18.0,2,8.820
3670,117.44,0.4270,5.3982,0.1797,0.0001,-0.0000,-2.8495,flat,18.0,2,8.253
3680,117.76,-0.1189,5.2311,0.1797,0.0001,-0.0000,-2.8317,flat,18.0,2,7.686
3690,118.08,-0.6624,5.0544,0.1797,0.0001,-0.0000,-2.8159,flat,18.0,2,7.117
3700,118.40,-1.2035,4.8692,0.1797,0.0001,-0.0000,-2.8019,flat,18.0,2,6.548
3710,118.72,-1.7423,4.6765,0.1797,0.0000,-0.0000,-2.7893,flat,18.0,2,5.977
3720,119.04,-2.2790,4.4770,0.1797,0.0000,-0.0000,-2.7777,flat,18.0,2,5.407
3730,119.36,-2.8137,4.2715,0.1797,0.0000,-0.0000,-2.7670,flat,18.0,2,4.836
3740,119.68,-3.3463,4.0602,0.1797,0.0000,-0.0000,-2.7570,flat,18.0,2,4.264
3750,120.00,-3.8769,3.8436,0.1797,0.0000,-0.0000,-2.7473,flat,18.0,2,3.693
3760,120.32,-4.4053,3.6219,0.1797,0.0000,-0.0000,-2.7379,flat,18.0,2,3.122
3770,120.64,-4.9316,3.3952,0.1797,0.0000,0.0000,-2.7282,flat,18.0,2,2.551
3780,120.96,-5.4554,3.1634,0.1797,0.0000,0.0000,-2.7178,flat,18.0,2,1.980
3790,121.28,-5.9761,2.9261,0.1797,0.0000,0.0000,-2.7056,flat,18.0,2,1.412
3800,121.60,-6.4923,2.6825,0.1797,0.0001,0.0000,-2.6886,flat,18.0,2,0.848
3810,121.92,-6.8904,2.4667,0.1799,-0.0002,0.0000,-2.4726,flat,18.0,3,10.701
3820,122.24,-7.2086,2.1548,0.1799,0.0000,-0.0000,-2.2328,flat,18.0,3,10.485
3830,122.56,-7.4827,1.7427,0.1799,0.0000,-0.0000,-2.0166,flat,18.0,3,10.174
3840,122.88,-7.6853,1.2578,0.1799,0.0001,-0.0000,-1.8243,flat,18.0,3,9.785
3850,123.20,-7.8025,0.7265,0.1799,0.0001,0.0000,-1.6593,flat,18.0,3,9.334
3860,123.52,-7.8355,0.1731,0.1799,0.0002,-0.0000,-1.5243,flat,18.0,3,8.839
3870,123.84,-7.7979,-0.3838,0.1798,0.0004,-0.0000,-1.4274,flat,18.0,3,8.317
3880,124.16,-7.7086,-0.9375,0.1798,0.0003,-0.0000,-1.3545,flat,18.0,3,7.780
3890,124.48,-7.5802,-1.4856,0.1797,0.0002,-0.0000,-1.2970,flat,18.0,3,7.233
3900,124.80,-7.4210,-2.0275,0.1797,0.0002,-0.0000,-1.2500,flat,18.0,3,6.680
3910,125.12,-7.2370,-2.5619,0.1797,0.0001,-0.0000,-1.2128,flat,18.0,3,6.123
3920,125.44,-7.0334,-3.0903,0.1797,0.0001,-0.0000,-1.1803,flat,18.0,3,5.564
3930,125.76,-6.8127,-3.6127,0.1797,0.0001,-0.0000,-1.1512,flat,18.0,3,5.002
3940,126.08,-6.5769,-4.1292,0.1797,0.0001,-0.0000,-1.1246,flat,18.0,3,4.438
3950,126.40,-6.3275,-4.6396,0.1797,0.0001,-0.0000,-1.0997,flat,18.0,3,3.873
3960,126.72,-6.0653,-5.1439,0.1797,0.0001,-0.0000,-1.0757,flat,18.0,3,3.307
3970,127.04,-5.7910,-5.6417,0.1797,0.0001,0.0000,-1.0516,flat,18.0,3,2.741
3980,127.36,-5.5048,-6.1321,0.1797,0.0001,0.0000,-1.0264,flat,18.0,3,2.175
3990,127.68,-5.2062,-6.6137,0.1797,0.0001,0.0000,-0.9975,flat,18.0,3,1.611
4000,128.00,-4.8940,-7.0827,0.1797,0.0001,0.0000,-0.9592,flat,18.0,3,1.049
4010,128.32,-4.6065,-7.4747,0.1798,0.0000,0.0004,-0.8014,flat,18.0,0,15.978
4020,128.64,-4.3029,-7.7208,0.1799,-0.0000,-0.0001,-0.5031,flat,18.0,0,15.885
4030,128.96,-3.8875,-7.9139,0.1799,0.0000,-0.0000,-0.2290,flat,18.0,0,15.681
4040,129.28,-3.3963,-8.0049,0.1799,0.0001,-0.0000,0.0093,flat,18.0,0,15.364
4050,129.60,-2.8709,-7.9797,0.1799,0.0001,-0.0000,0.1929,flat,18.0,0,14.953
4060,129.92,-2.3420,-7.8580,0.1799,0.0002,-0.0000,0.3291,flat,18.0,0,14.481
4070,130.24,-1.8256,-7.6658,0.1798,0.0004,-0.0000,0.4258,flat,18.0,0,13.974
4080,130.56,-1.3245,-7.4247,0.1798,0.0003,-0.0000,0.4981,flat,18.0,0,13.447
4090,130.88,-0.8380,-7.1477,0.1797,0.0002,-0.0000,0.5545,flat,18.0,0,12.907
4100,131.20,-0.3649,-6.8434,0.1797,0.0002,-0.0000,0.5990,flat,18.0,0,12.359
4110,131.52,0.0963,-6.5182,0.1797,0.0001,-0.0000,0.6345,flat,18.0,0,11.805
4120,131.84,0.5477,-6.1767,0.1797,0.0001,-0.0000,0.6647,flat,18.0,0,11.247
4130,132.16,0.9901,-5.8215,0.1797,0.0001,-0.0000,0.6906,flat,18.0,0,10.686
4140,132.48,1.4244,-5.4547,0.1797,0.0001,-0.0000,0.7134,flat,18.0,0,10.122
4150,132.80,1.8515,-5.0781,0.1797,0.0001,-0.0000,0.7339,flat,18.0,0,9.556
4160,133.12,2.2718,-4.6926,0.1797,0.0001,-0.0000,0.7525,flat,18.0,0,8.989
4170,133.44,2.6856,-4.2993,0.1797,0.0001,-0.0000,0.7691,flat,18.0,0,8.420
4180,133.76,3.0934,-3.8991,0.1797,0.0001,-0.0000,0.7840,flat,18.0,0,7.850
4190,134.08,3.4958,-3.4928,0.1797,0.0000,-0.0000,0.7976,flat,18.0,0,7.280
4200,134.40,3.8929,-3.0810,0.1797,0.0000,-0.0000,0.8103,flat,18.0,0,6.709
4210,134.72,4.2851,-2.6641,0.1797,0.0000,-0.0000,0.8222,flat,18.0,0,6.137
4220,135.04,4.6725,-2.2426,0.1797,0.0000,-0.0000,0.8333,flat,18.0,0,5.565
4230,135.36,5.0555,-1.8168,0.1797,0.0000,-0.0000,0.8437,flat,18.0,0,4.993
4240,135.68,5.4343,-1.3871,0.1797,0.0000,-0.0000,0.8537,flat,18.0,0,4.421
4250,136.00,5.8088,-0.9537,0.1797,0.0000,-0.0000,0.8634,flat,18.0,0,3.848
4260,136.32,6.1791,-0.5167,0.1797,0.0000,0.0000,0.8730,flat,18.0,0,3.275
4270,136.64,6.5451,-0.0762,0.1797,0.0000,0.0000,0.8830,flat,18.0,0,2.703
4280,136.96,6.9065,0.3678,0.1797,0.0000,0.0000,0.8936,flat,18.0,0,2.130
4290,137.28,7.2626,0.8155,0.1797,0.0000,0.0000,0.9059,flat,18.0,0,1.558
4300,137.60,7.6121,1.2672,0.1797,0.0001,0.0000,0.9216,flat,18.0,0,0.987
4310,137.92,7.9007,1.6758,0.1798,-0.0002,0.0000,1.0897,flat,18.0,1,5.292
4320,138.24,8.0824,2.0903,0.1799,0.0001,-0.0000,1.3759,rough,15.5,1,5.105
4330,138.56,8.1550,2.5296,0.1799,0.0000,-0.0001,1.5984,flat,18.0,1,4.855
4340,138.88,8.1169,3.0396,0.1799,0.0001,-0.0000,1.8301,flat,18.0,1,4.502
4350,139.20,7.9579,3.5430,0.1799,0.0001,-0.0000,2.0101,flat,18.0,1,4.084
4360,139.52,7.7081,4.0177,0.1799,0.0002,-0.0000,2.1489,flat,18.0,1,3.627
4370,139.84,7.3918,4.4608,0.1798,0.0004,-0.0000,2.2544,flat,18.0,1,3.146
4380,140.16,7.0299,4.8696,0.1798,0.0004,-0.0000,2.3525,flat,18.0,1,2.659
4390,140.48,6.6284,5.2390,0.1798,0.0004,-0.0000,2.4592,flat,18.0,1,2.168
4400,140.80,6.1891,5.5647,0.1799,0.0003,-0.0000,2.5838,flat,18.0,1,1.679
4410,141.12,5.7151,5.8318,0.1799,0.0001,0.0000,2.7483,flat,18.0,1,1.197
4420,141.44,5.2193,6.0085,0.1799,0.0003,0.0001,2.9884,flat,18.0,2,12.970
4430,141.76,4.6760,6.0782,0.1799,0.0002,-0.0000,3.0917,flat,18.0,2,12.473
4440,142.08,4.1146,6.0952,0.1798,0.0004,-0.0000,-3.1002,flat,18.0,2,11.947
4450,142.40,3.5515,6.0636,0.1798,0.0003,-0.0000,-3.0328,flat,18.0,2,11.406
4460,142.72,2.9899,5.9958,0.1797,0.0002,-0.0000,-2.9816,flat,18.0,2,10.855
4470,143.04,2.4312,5.9002,0.1797,0.0001,-0.0000,-2.9422,flat,18.0,2,10.299
4480,143.36,1.8756,5.7834,0.1797,0.0001,-0.0000,-2.9108,flat,18.0,2,9.740
4490,143.68,1.3228,5.6494,0.1797,0.0001,-0.0000,-2.8844,flat,18.0,2,9.177
4500,144.00,0.7727,5.5012,0.1797,0.0001,-0.0000,-2.8618,flat,18.0,2,8.612
4510,144.32,0.2252,5.3407,0.1797,0.0001,-0.0000,-2.8424,flat,18.0,2,8.045
4520,144.64,-0.3197,5.1698,0.1797,0.0001,-0.0000,-2.8253,flat,18.0,2,7.477
4530,144.96,-0.8622,4.9897,0.1797,0.0001,-0.0000,-2.8103,flat,18.0,2,6.908
4540,145.28,-1.4024,4.8014,0.1797,0.0000,-0.0000,-2.7968,flat,18.0,2,6.339
4550,145.60,-1.9404,4.6060,0.1797,0.0000,-0.0000,-2.7846,flat,18.0,2,5.768
4560,145.92,-2.4763,4.4041,0.1797,0.0000,-0.0000,-2.7734,flat,18.0,2,5.197
4570,146.24,-3.0101,4.1962,0.1797,0.0000,-0.0000,-2.7629,flat,18.0,2,4.626
4580,146.56,-3.5419,3.9827,0.1797,0.0000,-0.0000,-2.7531,flat,18.0,2,4.055
4590,146.88,-4.0716,3.7640,0.1797,0.0000,-0.0000,-2.7435,flat,18.0,2,3.483
4600,147.20,-4.5992,3.5403,0.1797,0.0000,0.0000,-2.7340,flat,18.0,2,2.912
4610,147.52,-5.1245,3.3116,0.1797,0.0000,0.0000,-2.7241,flat,18.0,2,2.341
4620,147.84,-5.6472,3.0776,0.1797,0.0000,0.0000,-2.7132,flat,18.0,2,1.772
4630,148.16,-6.1664,2.8380,0.1797,0.0000,0.0000,-2.6998,flat,18.0,2,1.204
4640,148.48,-6.6692,2.6011,0.1797,0.0000,0.0003,-2.6447,flat,18.0,3,10.779
4650,148.80,-7.0229,2.3692,0.1799,-0.0001,-0.0000,-2.3922,flat,18.0,3,10.640
4660,149.12,-7.3292,2.0225,0.1799,0.0000,-0.0000,-2.1628,flat,18.0,3,10.393
4670,149.44,-7.5831,1.5851,0.1799,0.0000,-0.0000,-1.9527,flat,18.0,3,10.058
4680,149.76,-7.7592,1.0829,0.1799,0.0000,-0.0000,-1.7675,flat,18.0,3,9.649
4690,150.08,-7.8485,0.5425,0.1799,0.0001,-0.0000,-1.6106,flat,18.0,3,9.183
4700,150.40,-7.8559,-0.0134,0.1799,0.0003,-0.0000,-1.4883,flat,18.0,3,8.677
4710,150.72,-7.7991,-0.5695,0.1798,0.0004,-0.0000,-1.4000,flat,18.0,3,8.150
4720,151.04,-7.6951,-1.1212,0.1798,0.0003,-0.0000,-1.3324,flat,18.0,3,7.610
4730,151.36,-7.5548,-1.6670,0.1797,0.0002,-0.0000,-1.2785,flat,18.0,3,7.061
4740,151.68,-7.3857,-2.2060,0.1797,0.0002,-0.0000,-1.2347,flat,18.0,3,6.507
4750,152.00,-7.1936,-2.7379,0.1797,0.0001,-0.0000,-1.1991,flat,18.0,3,5.949
4760,152.32,-6.9827,-3.2637,0.1797,0.0001,-0.0000,-1.1677,flat,18.0,3,5.388
4770,152.64,-6.7555,-3.7835,0.1797,0.0001,-0.0000,-1.1394,flat,18.0,3,4.826
4780,152.96,-6.5136,-4.2973,0.1797,0.0001,-0.0000,-1.1134,flat,18.0,3,4.262
4790,153.28,-6.2584,-4.8050,0.1797,0.0001,-0.0000,-1.0888,flat,18.0,3,3.697
4800,153.60,-5.9907,-5.3063,0.1797,0.0001,-0.0000,-1.0648,flat,18.0,3,3.131
4810,153.92,-5.7110,-5.8009,0.1797,0.0001,0.0000,-1.0405,flat,18.0,3,2.565
4820,154.24,-5.4193,-6.2877,0.1797,0.0001,0.0000,-1.0143,flat,18.0,3,1.999
4830,154.56,-5.1150,-6.7648,0.1797,0.0001,0.0000,-0.9834,flat,18.0,3,1.435
4840,154.88,-4.7963,-7.2275,0.1797,0.0001,0.0000,-0.9396,flat,18.0,3,0.875
4850,155.20,-4.5254,-7.5567,0.1798,-0.0003,-0.0000,-0.7049,flat,18.0,0,15.962
4860,155.52,-4.1838,-7.7930,0.1799,0.0000,-0.0001,-0.4131,flat,18.0,0,15.836
4870,155.84,-3.7519,-7.9552,0.1799,0.0001,-0.0000,-0.1664,flat,18.0,0,15.603
4880,156.16,-3.2482,-8.0167,0.1799,0.0001,-0.0000,0.0585,flat,18.0,0,15.260
4890,156.48,-2.7194,-7.9661,0.1799,0.0001,-0.0000,0.2297,flat,18.0,0,14.832
4900,156.80,-2.1927,-7.8249,0.1799,0.0003,-0.0000,0.3557,flat,18.0,0,14.350
4910,157.12,-1.6802,-7.6192,0.1798,0.0004,-0.0000,0.4457,flat,18.0,0,13.837
4920,157.44,-1.1830,-7.3680,0.1798,0.0003,-0.0000,0.5138,flat,18.0,0,13.307
4930,157.76,-0.7001,-7.0834,0.1797,0.0002,-0.0000,0.5673,flat,18.0,0,12.765
4940,158.08,-0.2305,-6.7730,0.1797,0.0002,-0.0000,0.6093,flat,18.0,0,12.215
4950,158.40,0.2278,-6.4430,0.1797,0.0001,-0.0000,0.6435,flat,18.0,0,11.660
4960,158.72,0.6765,-6.0974,0.1797,0.0001,-0.0000,0.6726,flat,18.0,0,11.101
4970,159.04,1.1164,-5.7386,0.1797,0.0001,-0.0000,0.6977,flat,18.0,0,10.539
4980,159.36,1.5484,-5.3688,0.1797,0.0001,-0.0000,0.7200,flat,18.0,0,9.975
4990,159.68,1.9732,-4.9893,0.1797,0.0001,-0.0000,0.7401,flat,18.0,0,9.409
5000,160.00,2.3913,-4.6012,0.1797,0.0001,-0.0000,0.7582,flat,18.0,0,8.841
5010,160.32,2.8030,-4.2055,0.1797,0.0001,-0.0000,0.7744,flat,18.0,0,8.272
5020,160.64,3.2088,-3.8031,0.1797,0.0001,-0.0000,0.7890,flat,18.0,0,7.702
5030,160.96,3.6092,-3.3948,0.1797,0.0000,-0.0000,0.8025,flat,18.0,0,7.132
5040,161.28,4.0044,-2.9810,0.1797,0.0000,-0.0000,0.8150,flat,18.0,0,6.560
5050,161.60,4.3946,-2.5623,0.1797,0.0000,-0.0000,0.8267,flat,18.0,0,5.989
5060,161.92,4.7802,-2.1391,0.1797,0.0000,-0.0000,0.8377,flat,18.0,0,5.417
5070,162.24,5.1614,-1.7117,0.1797,0.0000,-0.0000,0.8480,flat,18.0,0,4.845
5080,162.56,5.5383,-1.2804,0.1797,0.0000,-0.0000,0.8579,flat,18.0,0,4.272
5090,162.88,5.9110,-0.8454,0.1797,0.0000,-0.0000,0.8676,flat,18.0,0,3.700
5100,163.20,6.2795,-0.4069,0.1797,0.0000,0.0000,0.8773,flat,18.0,0,3.127
5110,163.52,6.6436,0.0351,0.1797,0.0000,0.0000,0.8874,flat,18.0,0,2.554
5120,163.84,7.0029,0.4807,0.1797,0.0000,0.0000,0.8984,flat,18.0,0,1.982
5130,164.16,7.3566,0.9301,0.1797,0.0000,0.0000,0.9114,flat,18.0,0,1.410
5140,164.48,7.7030,1.3835,0.1797,0.0001,0.0000,0.9289,flat,18.0,0,0.840
5150,164.80,7.9542,1.7744,0.1799,-0.0002,-0.0000,1.1822,flat,18.0,1,5.252
5160,165.12,8.1036,2.2110,0.1799,0.0001,0.0003,1.4506,rough,15.5,1,5.035
5170,165.44,8.1441,2.6789,0.1799,0.0000,-0.0000,1.6819,flat,18.0,1,4.749
5180,165.76,8.0636,3.1910,0.1799,0.0000,-0.0000,1.8942,flat,18.0,1,4.369
5190,166.08,7.8720,3.6871,0.1799,0.0001,-0.0000,2.0569,flat,18.0,1,3.934
5200,166.40,7.5994,4.1520,0.1799,0.0003,-0.0000,2.1846,flat,18.0,1,3.468
5210,166.72,7.2675,4.5862,0.1798,0.0004,-0.0000,2.2821,flat,18.0,1,2.983
5220,167.04,6.8940,4.9837,0.1798,0.0004,-0.0000,2.3818,flat,18.0,1,2.493
5230,167.36,6.4815,5.3417,0.1798,0.0004,-0.0000,2.4923,flat,18.0,1,2.003
5240,167.68,6.0320,5.6525,0.1799,0.0002,0.0000,2.6259,flat,18.0,1,1.514
5250,168.00,5.5497,5.8978,0.1799,0.0000,0.0000,2.8138,flat,18.0,1,1.040
5260,168.32,5.0462,6.0314,0.1800,0.0002,-0.0002,3.0175,flat,18.0,2,12.811
5270,168.64,4.4910,6.0864,0.1799,0.0003,-0.0000,3.1249,flat,18.0,2,12.300
5280,168.96,3.9284,6.0857,0.1798,0.0004,-0.0000,-3.0758,flat,18.0,2,11.768
5290,169.28,3.3656,6.0410,0.1797,0.0002,-0.0000,-3.0146,flat,18.0,2,11.223
5300,169.60,2.8046,5.9634,0.1797,0.0002,-0.0000,-2.9673,flat,18.0,2,10.671
5310,169.92,2.2471,5.8601,0.1797,0.0001,-0.0000,-2.9313,flat,18.0,2,10.113
5320,170.24,1.6925,5.7374,0.1797,0.0001,-0.0000,-2.9018,flat,18.0,2,9.553
5330,170.56,1.1405,5.5986,0.1797,0.0001,-0.0000,-2.8768,flat,18.0,2,8.989
5340,170.88,0.5912,5.4463,0.1797,0.0001,-0.0000,-2.8554,flat,18.0,2,8.423
5350,171.20,0.0446,5.2823,0.1797,0.0001,-0.0000,-2.8368,flat,18.0,2,7.856
5360,171.52,-0.4996,5.1083,0.1797,0.0001,-0.0000,-2.8204,flat,18.0,2,7.288
5370,171.84,-1.0414,4.9256,0.1797,0.0001,-0.0000,-2.8059,flat,18.0,2,6.719
5380,172.16,-1.5809,4.7350,0.1797,0.0000,-0.0000,-2.7929,flat,18.0,2,6.149
5390,172.48,-2.1182,4.5376,0.1797,0.0000,-0.0000,-2.7811,flat,18.0,2,5.578
5400,172.80,-2.6535,4.3337,0.1797,0.0000,-0.0000,-2.7702,flat,18.0,2,5.007
5410,173.12,-3.1867,4.1241,0.1797,0.0000,-0.0000,-2.7600,flat,18.0,2,4.436
5420,173.44,-3.7179,3.9091,0.1797,0.0000,-0.0000,-2.7502,flat,18.0,2,3.864
5430,173.76,-4.2470,3.6889,0.1797,0.0000,-0.0000,-2.7407,flat,18.0,2,3.293
5440,174.08,-4.7740,3.4637,0.1797,0.0000,0.0000,-2.7311,flat,18.0,2,2.722
5450,174.40,-5.2986,3.2335,0.1797,0.0000,0.0000,-2.7210,flat,18.0,2,2.151
5460,174.72,-5.8203,2.9979,0.1797,0.0000,0.0000,-2.7095,flat,18.0,2,1.582
5470,175.04,-6.3381,2.7563,0.1797,0.0001,0.0000,-2.6946,flat,18.0,2,1.017
5480,175.36,-6.7850,2.5371,0.1798,-0.0002,0.0001,-2.5495,flat,18.0,3,10.744
5490,175.68,-7.1166,2.2605,0.1799,0.0000,-0.0000,-2.3010,flat,18.0,3,10.561
5500,176.00,-7.4069,1.8752,0.1799,0.0000,-0.0000,-2.0792,flat,18.0,3,10.276
5510,176.32,-7.6332,1.4093,0.1799,0.0000,-0.0000,-1.8790,flat,18.0,3,9.909
5520,176.64,-7.7766,0.8892,0.1799,0.0001,-0.0000,-1.7048,flat,18.0,3,9.475
5530,176.96,-7.8340,0.3401,0.1799,0.0001,-0.0000,-1.5604,flat,18.0,3,8.991
5540,177.28,-7.8153,-0.2169,0.1798,0.0004,-0.0000,-1.4534,flat,18.0,3,8.475
5550,177.60,-7.7399,-0.7719,0.1798,0.0004,-0.0000,-1.3745,flat,18.0,3,7.942
5560,177.92,-7.6222,-1.3218,0.1797,0.0002,-0.0000,-1.3129,flat,18.0,3,7.398
5570,178.24,-7.4716,-1.8656,0.1797,0.0002,-0.0000,-1.2632,flat,18.0,3,6.847
5580,178.56,-7.2944,-2.4022,0.1797,0.0001,-0.0000,-1.2233,flat,18.0,3,6.291
5590,178.88,-7.0964,-2.9324,0.1797,0.0001,-0.0000,-1.1896,flat,18.0,3,5.732
5600,179.20,-6.8806,-3.4566,0.1797,0.0001,-0.0000,-1.1596,flat,18.0,3,5.170
5610,179.52,-6.6491,-3.9748,0.1797,0.0001,-0.0000,-1.1324,flat,18.0,3,4.607
5620,179.84,-6.4036,-4.4871,0.1797,0.0001,-0.0000,-1.1070,flat,18.0,3,4.042
5630,180.16,-6.1452,-4.9933,0.1797,0.0001,-0.0000,-1.0828,flat,18.0,3,3.477
5640,180.48,-5.8745,-5.4931,0.1797,0.0001,-0.0000,-1.0589,flat,18.0,3,2.911
5650,180.80,-5.5919,-5.9858,0.1797,0.0001,0.0000,-1.0342,flat,18.0,3,2.345
5660,181.12,-5.2971,-6.4703,0.1797,0.0001,0.0000,-1.0067,flat,18.0,3,1.780
5670,181.44,-4.9892,-6.9437,0.1797,0.0001,0.0000,-0.9724,flat,18.0,3,1.217
5680,181.76,-4.6756,-7.3887,0.1797,0.0001,0.0004,-0.8910,flat,18.0,0,15.983
5690,182.08,-4.4068,-7.6494,0.1799,-0.0002,-0.0000,-0.5906,flat,18.0,0,15.923
5700,182.40,-4.0220,-7.8652,0.1799,0.0000,-0.0000,-0.3078,flat,18.0,0,15.754
5710,182.72,-3.5490,-7.9899,0.1799,0.0000,-0.0000,-0.0577,flat,18.0,0,15.470
5720,183.04,-3.0298,-7.9989,0.1799,0.0001,-0.0000,0.1457,flat,18.0,0,15.084
5730,183.36,-2.4998,-7.9032,0.1799,0.0002,-0.0000,0.2931,flat,18.0,0,14.627
5740,183.68,-1.9789,-7.7294,0.1798,0.0004,-0.0000,0.3998,flat,18.0,0,14.129
5750,184.00,-1.4733,-7.5013,0.1798,0.0003,-0.0000,0.4784,flat,18.0,0,13.607
5760,184.32,-0.9825,-7.2340,0.1797,0.0002,-0.0000,0.5389,flat,18.0,0,13.070
5770,184.64,-0.5053,-6.9372,0.1797,0.0002,-0.0000,0.5871,flat,18.0,0,12.524
5780,184.96,-0.0410,-6.6177,0.1797,0.0001,-0.0000,0.6245,flat,18.0,0,11.972
5790,185.28,0.4132,-6.2807,0.1797,0.0001,-0.0000,0.6561,flat,18.0,0,11.415
5800,185.60,0.8583,-5.9293,0.1797,0.0001,-0.0000,0.6832,flat,18.0,0,10.854
5810,185.92,1.2949,-5.5658,0.1797,0.0001,-0.0000,0.7068,flat,18.0,0,10.291
5820,186.24,1.7241,-5.1920,0.1797,0.0001,-0.0000,0.7279,flat,18.0,0,9.726
5830,186.56,2.1464,-4.8091,0.1797,0.0001,-0.0000,0.7471,flat,18.0,0,9.159
5840,186.88,2.5621,-4.4181,0.1797,0.0001,-0.0000,0.7643,flat,18.0,0,8.591
5850,187.20,2.9717,-4.0198,0.1797,0.0001,-0.0000,0.7797,flat,18.0,0,8.021
5860,187.52,3.3756,-3.6153,0.1797,0.0000,-0.0000,0.7937,flat,18.0,0,7.451
5870,187.84,3.7743,-3.2050,0.1797,0.0000,-0.0000,0.8066,flat,18.0,0,6.880
5880,188.16,4.1679,-2.7896,0.1797,0.0000,-0.0000,0.8187,flat,18.0,0,6.309
5890,188.48,4.5568,-2.3695,0.1797,0.0000,-0.0000,0.8300,flat,18.0,0,5.737
5900,188.80,4.9411,-1.9449,0.1797,0.0000,-0.0000,0.8407,flat,18.0,0,5.165
5910,189.12,5.3211,-1.5164,0.1797,0.0000,-0.0000,0.8508,flat,18.0,0,4.592
5920,189.44,5.6969,-1.0841,0.1797,0.0000,-0.0000,0.8605,flat,18.0,0,4.020
5930,189.76,6.0685,-0.6482,0.1797,0.0000,-0.0000,0.8701,flat,18.0,0,3.447
5940,190.08,6.4358,-0.2087,0.1797,0.0000,0.0000,0.8799,flat,18.0,0,2.875
5950,190.40,6.7986,0.2342,0.1797,0.0000,0.0000,0.8903,flat,18.0,0,2.302
5960,190.72,7.1564,0.6808,0.1797,0.0000,0.0000,0.9019,flat,18.0,0,1.730
5970,191.04,7.5081,1.1313,0.1797,0.0000,0.0000,0.9163,flat,18.0,0,1.158
5980,191.36,7.8311,1.5667,0.1797,0.0001,0.0004,0.9985,flat,18.0,1,5.333
5990,191.68,8.0414,1.9640,0.1799,-0.0000,-0.0001,1.3028,flat,18.0,1,5.169
6000,192.00,8.1422,2.3863,0.1799,0.0001,-0.0000,1.5291,flat,18.0,1,4.941
6010,192.32,8.1424,2.8860,0.1799,-0.0000,-0.0000,1.7681,flat,18.0,1,4.616
6020,192.64,8.0166,3.3944,0.1799,0.0001,-0.0000,1.9614,flat,18.0,1,4.214
6030,192.96,7.7909,3.8788,0.1799,0.0001,-0.0000,2.1105,flat,18.0,1,3.767
6040,193.28,7.4924,4.3309,0.1799,0.0003,-0.0000,2.2262,flat,18.0,1,3.292
6050,193.60,7.1427,4.7511,0.1798,0.0004,-0.0000,2.3223,flat,18.0,1,2.805
6060,193.92,6.7529,5.1323,0.1798,0.0004,-0.0000,2.4258,flat,18.0,1,2.316
6070,194.24,6.3247,5.4724,0.1799,0.0003,-0.0000,2.5436,flat,18.0,1,1.825
6080,194.56,5.8605,5.7592,0.1799,0.0001,0.0000,2.6925,flat,18.0,1,1.340
6090,194.88,5.3682,5.9700,0.1799,0.0000,0.0000,2.9209,flat,18.0,1,0.876
6100,195.20,4.8430,6.0617,0.1798,0.0001,0.0000,3.0593,flat,18.0,2,12.627
6110,195.52,4.2834,6.0959,0.1798,0.0004,-0.0000,-3.1247,flat,18.0,2,12.107
6120,195.84,3.7204,6.0774,0.1798,0.0003,-0.0000,-3.0510,flat,18.0,2,11.569
6130,196.16,3.1582,6.0194,0.1797,0.0002,-0.0000,-2.9958,flat,18.0,2,11.021
6140,196.48,2.5983,5.9314,0.1797,0.0002,-0.0000,-2.9528,flat,18.0,2,10.467
6150,196.80,2.0420,5.8203,0.1797,0.0001,-0.0000,-2.9196,flat,18.0,2,9.908
6160,197.12,1.4883,5.6912,0.1797,0.0001,-0.0000,-2.8919,flat,18.0,2,9.346
6170,197.44,0.9374,5.5470,0.1797,0.0001,-0.0000,-2.8683,flat,18.0,2,8.782
6180,197.76,0.3892,5.3901,0.1797,0.0001,-0.0000,-2.8479,flat,18.0,2,8.215
6190,198.08,-0.1565,5.2221,0.1797,0.0001,-0.0000,-2.8302,flat,18.0,2,7.648
6200,198.40,-0.6997,5.0446,0.1797,0.0001,-0.0000,-2.8146,flat,18.0,2,7.079
6210,198.72,-1.2406,4.8587,0.1797,0.0000,-0.0000,-2.8007,flat,18.0,2,6.510
6220,199.04,-1.7792,4.6654,0.1797,0.0000,-0.0000,-2.7881,flat,18.0,2,5.939
6230,199.36,-2.3157,4.4653,0.1797,0.0000,-0.0000,-2.7766,flat,18.0,2,5.369
6240,199.68,-2.8502,4.2592,0.1797,0.0000,-0.0000,-2.7660,flat,18.0,2,4.797
6250,200.00,-3.3826,4.0473,0.1797,0.0000,-0.0000,-2.7560,flat,18.0,2,4.226
6260,200.32,-3.9129,3.8302,0.1797,0.0000,-0.0000,-2.7464,flat,18.0,2,3.655
6270,200.64,-4.4412,3.6080,0.1797,0.0000,-0.0000,-2.7369,flat,18.0,2,3.083
6280,200.96,-4.9672,3.3807,0.1797,0.0000,0.0000,-2.7271,flat,18.0,2,2.512
6290,201.28,-5.4907,3.1484,0.1797,0.0000,0.0000,-2.7166,flat,18.0,2,1.942
6300,201.60,-6.0111,2.9105,0.1797,0.0000,0.0000,-2.7043,flat,18.0,2,1.374
6310,201.92,-6.5267,2.6663,0.1797,0.0001,0.0000,-2.6868,flat,18.0,2,0.811
6320,202.24,-6.9239,2.4498,0.1799,-0.0002,0.0000,-2.4700,flat,18.0,3,10.693
6330,202.56,-7.2412,2.1371,0.1799,0.0000,-0.0000,-2.2299,flat,18.0,3,10.477
6340,202.88,-7.5143,1.7243,0.1799,0.0000,-0.0000,-2.0134,flat,18.0,3,10.167
6350,203.20,-7.7153,1.2388,0.1799,0.0001,-0.0000,-1.8207,flat,18.0,3,9.778
6360,203.52,-7.8306,0.7072,0.1799,0.0001,0.0000,-1.6556,flat,18.0,3,9.327
6370,203.84,-7.8615,0.1537,0.1799,0.0002,-0.0000,-1.5205,flat,18.0,3,8.832
6380,204.16,-7.8218,-0.4030,0.1798,0.0004,-0.0000,-1.4239,flat,18.0,3,8.310
6390,204.48,-7.7305,-0.9563,0.1798,0.0003,-0.0000,-1.3510,flat,18.0,3,7.773
6400,204.80,-7.6002,-1.5039,0.1797,0.0002,-0.0000,-1.2935,flat,18.0,3,7.226
6410,205.12,-7.4392,-2.0452,0.1797,0.0002,-0.0000,-1.2465,flat,18.0,3,6.673
6420,205.44,-7.2533,-2.5789,0.1797,0.0001,-0.0000,-1.2093,flat,18.0,3,6.117
6430,205.76,-7.0478,-3.1065,0.1797,0.0001,-0.0000,-1.1768,flat,18.0,3,5.557
6440,206.08,-6.8253,-3.6281,0.1797,0.0001,-0.0000,-1.1477,flat,18.0,3,4.995
6450,206.40,-6.5877,-4.1437,0.1797,0.0001,-0.0000,-1.1210,flat,18.0,3,4.431
6460,206.72,-6.3363,-4.6533,0.1797,0.0001,-0.0000,-1.0961,flat,18.0,3,3.866
6470,207.04,-6.0723,-5.1566,0.1797,0.0001,-0.0000,-1.0720,flat,18.0,3,3.301
6480,207.36,-5.7962,-5.6533,0.1797,0.0001,0.0000,-1.0479,flat,18.0,3,2.735
6490,207.68,-5.5082,-6.1426,0.1797,0.0001,0.0000,-1.0225,flat,18.0,3,2.169
6500,208.00,-5.2077,-6.6229,0.1797,0.0001,0.0000,-0.9935,flat,18.0,3,1.604
6510,208.32,-4.8936,-7.0906,0.1797,0.0001,0.0000,-0.9549,flat,18.0,3,1.042
6520,208.64,-4.6042,-7.4813,0.1798,0.0000,0.0004,-0.7965,flat,18.0,0,15.980
6530,208.96,-4.2986,-7.7268,0.1799,-0.0000,-0.0001,-0.4985,flat,18.0,0,15.885
6540,209.28,-3.8912,-7.9147,0.1799,-0.0000,-0.0000,-0.2410,flat,18.0,0,15.684
6550,209.60,-3.4035,-8.0111,0.1799,0.0000,-0.0001,-0.0011,flat,18.0,0,15.373
6560,209.92,-2.8786,-7.9922,0.1799,0.0001,-0.0000,0.1854,flat,18.0,0,14.967
6570,210.24,-2.3495,-7.8752,0.1799,0.0002,-0.0000,0.3226,flat,18.0,0,14.498
6580,210.56,-1.8324,-7.6863,0.1798,0.0004,-0.0000,0.4215,flat,18.0,0,13.993
6590,210.88,-1.3307,-7.4473,0.1798,0.0003,-0.0000,0.4952,flat,18.0,0,13.468
6600,211.20,-0.8436,-7.1718,0.1797,0.0002,-0.0000,0.5525,flat,18.0,0,12.929
6610,211.52,-0.3701,-6.8684,0.1797,0.0002,-0.0000,0.5978,flat,18.0,0,12.381
6620,211.84,0.0913,-6.5438,0.1797,0.0001,-0.0000,0.6338,flat,18.0,0,11.827
6630,212.16,0.5428,-6.2026,0.1797,0.0001,-0.0000,0.6643,flat,18.0,0,11.269
6640,212.48,0.9852,-5.8475,0.1797,0.0001,-0.0000,0.6905,flat,18.0,0,10.708
6650,212.80,1.4195,-5.4808,0.1797,0.0001,-0.0000,0.7135,flat,18.0,0,10.144
6660,213.12,1.8465,-5.1041,0.1797,0.0001,-0.0000,0.7342,flat,18.0,0,9.579
6670,213.44,2.2666,-4.7185,0.1797,0.0001,-0.0000,0.7530,flat,18.0,0,9.011
6680,213.76,2.6801,-4.3250,0.1797,0.0001,-0.0000,0.7698,flat,18.0,0,8.443
6690,214.08,3.0876,-3.9245,0.1797,0.0001,-0.0000,0.7848,flat,18.0,0,7.873
6700,214.40,3.4896,-3.5179,0.1797,0.0000,-0.0000,0.7985,flat,18.0,0,7.303
6710,214.72,3.8863,-3.1057,0.1797,0.0000,-0.0000,0.8113,flat,18.0,0,6.732
6720,215.04,4.2780,-2.6885,0.1797,0.0000,-0.0000,0.8232,flat,18.0,0,6.160
6730,215.36,4.6650,-2.2665,0.1797,0.0000,-0.0000,0.8344,flat,18.0,0,5.589
6740,215.68,5.0475,-1.8403,0.1797,0.0000,-0.0000,0.8450,flat,18.0,0,5.016
6750,216.00,5.4257,-1.4102,0.1797,0.0000,-0.0000,0.8550,flat,18.0,0,4.444
6760,216.32,5.7997,-0.9764,0.1797,0.0000,-0.0000,0.8647,flat,18.0,0,3.871
6770,216.64,6.1694,-0.5389,0.1797,0.0000,0.0000,0.8744,flat,18.0,0,3.299
6780,216.96,6.5348,-0.0979,0.1797,0.0000,0.0000,0.8843,flat,18.0,0,2.726
6790,217.28,6.8956,0.3466,0.1797,0.0000,0.0000,0.8950,flat,18.0,0,2.154
6800,217.60,7.2511,0.7948,0.1797,0.0000,0.0000,0.9072,flat,18.0,0,1.582
6810,217.92,7.6000,1.2470,0.1797,0.0001,0.0000,0.9228,flat,18.0,0,1.011
6820,218.24,7.8885,1.6564,0.1798,-0.0002,0.0000,1.0902,flat,18.0,1,5.299
6830,218.56,8.0739,2.0819,0.1799,0.0001,-0.0000,1.3876,rough,15.5,1,5.105
6840,218.88,8.1425,2.5267,0.1799,0.0000,-0.0001,1.6059,flat,18.0,1,4.847
6850,219.20,8.1006,3.0378,0.1799,0.0001,-0.0000,1.8346,flat,18.0,1,4.490
6860,219.52,7.9392,3.5412,0.1799,0.0001,-0.0000,2.0123,flat,18.0,1,4.069
6870,219.84,7.6883,4.0159,0.1799,0.0002,-0.0000,2.1494,flat,18.0,1,3.610
6880,220.16,7.3718,4.4593,0.1798,0.0004,-0.0000,2.2536,flat,18.0,1,3.129
6890,220.48,7.0102,4.8687,0.1798,0.0004,0.0000,2.3511,flat,18.0,1,2.640
6900,220.80,6.6092,5.2387,0.1798,0.0004,-0.0000,2.4574,flat,18.0,1,2.150
6910,221.12,6.1706,5.5651,0.1799,0.0003,-0.0000,2.5821,flat,18.0,1,1.660
6920,221.44,5.6972,5.8326,0.1799,0.0001,0.0000,2.7480,flat,18.0,1,1.180
6930,221.76,5.2025,6.0088,0.1799,0.0004,0.0001,2.9935,flat,18.0,2,12.954
6940,222.08,4.6590,6.0759,0.1799,0.0002,-0.0000,3.0950,flat,18.0,2,12.456
6950,222.40,4.0974,6.0912,0.1798,0.0004,-0.0000,-3.0979,flat,18.0,2,11.929
6960,222.72,3.5343,6.0584,0.1798,0.0003,-0.0000,-3.0311,flat,18.0,2,11.388
6970,223.04,2.9727,5.9897,0.1797,0.0002,-0.0000,-2.9804,flat,18.0,2,10.837
6980,223.36,2.4141,5.8934,0.1797,0.0001,-0.0000,-2.9413,flat,18.0,2,10.281
6990,223.68,1.8586,5.7761,0.1797,0.0001,-0.0000,-2.9101,flat,18.0,2,9.721
7000,224.00,1.3058,5.6418,0.1797,0.0001,-0.0000,-2.8839,flat,18.0,2,9.158
7010,224.32,0.7557,5.4933,0.1797,0.0001,-0.0000,-2.8615,flat,18.0,2,8.593
7020,224.64,0.2083,5.3326,0.1797,0.0001,-0.0000,-2.8421,flat,18.0,2,8.027
7030,224.96,-0.3366,5.1615,0.1797,0.0001,-0.0000,-2.8251,flat,18.0,2,7.459
7040,225.28,-0.8791,4.9813,0.1797,0.0001,-0.0000,-2.8101,flat,18.0,2,6.889
7050,225.60,-1.4193,4.7930,0.1797,0.0000,-0.0000,-2.7967,flat,18.0,2,6.320
7060,225.92,-1.9572,4.5975,0.1797,0.0000,-0.0000,-2.7845,flat,18.0,2,5.749
7070,226.24,-2.4931,4.3955,0.1797,0.0000,-0.0000,-2.7734,flat,18.0,2,5.178
7080,226.56,-3.0269,4.1876,0.1797,0.0000,-0.0000,-2.7630,flat,18.0,2,4.607
7090,226.88,-3.5587,3.9742,0.1797,0.0000,-0.0000,-2.7531,flat,18.0,2,4.036
7100,227.20,-4.0885,3.7555,0.1797,0.0000,-0.0000,-2.7436,flat,18.0,2,3.464
7110,227.52,-4.6161,3.5318,0.1797,0.0000,0.0000,-2.7340,flat,18.0,2,2.893
7120,227.84,-5.1414,3.3031,0.1797,0.0000,0.0000,-2.7241,flat,18.0,2,2.322
7130,228.16,-5.6641,3.0691,0.1797,0.0000,0.0000,-2.7132,flat,18.0,2,1.753
7140,228.48,-6.1833,2.8295,0.1797,0.0000,0.0000,-2.6997,flat,18.0,2,1.186
7150,228.80,-6.6742,2.5989,0.1797,0.0001,0.0004,-2.6224,flat,18.0,3,10.778
7160,229.12,-7.0219,2.3568,0.1799,-0.0000,-0.0000,-2.3708,flat,18.0,3,10.628
7170,229.44,-7.3252,2.0004,0.1799,0.0000,-0.0000,-2.1439,flat,18.0,3,10.371
7180,229.76,-7.5735,1.5560,0.1799,0.0001,-0.0000,-1.9365,flat,18.0,3,10.027
7190,230.08,-7.7426,1.0494,0.1799,0.0001,0.0000,-1.7551,flat,18.0,3,9.612
7200,230.40,-7.8254,0.5066,0.1799,0.0001,-0.0000,-1.6008,flat,18.0,3,9.140
7210,230.72,-7.8276,-0.0498,0.1799,0.0003,-0.0000,-1.4819,flat,18.0,3,8.632
7220,231.04,-7.7675,-0.6059,0.1798,0.0004,-0.0000,-1.3960,flat,18.0,3,8.104
7230,231.36,-7.6613,-1.1575,0.1797,0.0003,-0.0000,-1.3300,flat,18.0,3,7.562
7240,231.68,-7.5198,-1.7032,0.1797,0.0002,-0.0000,-1.2771,flat,18.0,3,7.013
7250,232.00,-7.3500,-2.2421,0.1797,0.0002,-0.0000,-1.2343,flat,18.0,3,6.458
7260,232.32,-7.1577,-2.7740,0.1797,0.0001,-0.0000,-1.1993,flat,18.0,3,5.900
7270,232.64,-6.9470,-3.3000,0.1797,0.0001,-0.0000,-1.1683,flat,18.0,3,5.339
7280,232.96,-6.7201,-3.8200,0.1797,0.0001,-0.0000,-1.1403,flat,18.0,3,4.776
7290,233.28,-6.4786,-4.3341,0.1797,0.0001,-0.0000,-1.1145,flat,18.0,3,4.212
7300,233.60,-6.2240,-4.8421,0.1797,0.0001,-0.0000,-1.0900,flat,18.0,3,3.647
7310,233.92,-5.9569,-5.3439,0.1797,0.0001,-0.0000,-1.0661,flat,18.0,3,3.081
7320,234.24,-5.6779,-5.8388,0.1797,0.0001,0.0000,-1.0418,flat,18.0,3,2.515
7330,234.56,-5.3868,-6.3259,0.1797,0.0001,0.0000,-1.0154,flat,18.0,3,1.949
7340,234.88,-5.0830,-6.8032,0.1797,0.0001,0.0000,-0.9839,flat,18.0,3,1.385
7350,235.20,-4.7646,-7.2656,0.1797,0.0002,0.0000,-0.9385,flat,18.0,3,0.825
7360,235.52,-4.4998,-7.5752,0.1798,-0.0003,-0.0000,-0.6798,flat,18.0,0,15.952
7370,235.84,-4.1484,-7.8079,0.1799,0.0000,-0.0000,-0.3897,flat,18.0,0,15.817
7380,236.16,-3.6977,-7.9642,0.1799,0.0000,-0.0000,-0.1290,flat,18.0,0,15.567
7390,236.48,-3.1882,-8.0080,0.1799,0.0001,-0.0000,0.0896,flat,18.0,0,15.209
7400,236.80,-2.6585,-7.9412,0.1799,0.0001,-0.0000,0.2526,flat,18.0,0,14.770
7410,237.12,-2.1335,-7.7882,0.1799,0.0003,-0.0000,0.3715,flat,18.0,0,14.281
7420,237.44,-1.6233,-7.5744,0.1798,0.0004,-0.0000,0.4571,flat,18.0,0,13.765
7430,237.76,-1.1282,-7.3176,0.1797,0.0002,-0.0000,0.5223,flat,18.0,0,13.233
7440,238.08,-0.6471,-7.0289,0.1797,0.0002,-0.0000,0.5738,flat,18.0,0,12.689
7450,238.40,-0.1791,-6.7155,0.1797,0.0001,-0.0000,0.6139,flat,18.0,0,12.138
7460,238.72,0.2780,-6.3834,0.1797,0.0001,-0.0000,0.6471,flat,18.0,0,11.582
7470,239.04,0.7257,-6.0361,0.1797,0.0001,-0.0000,0.6755,flat,18.0,0,11.023
7480,239.36,1.1648,-5.6760,0.1797,0.0001,-0.0000,0.7001,flat,18.0,0,10.460
7490,239.68,1.5961,-5.3052,0.1797,0.0001,-0.0000,0.7218,flat,18.0,0,9.896
7500,240.00,2.0205,-4.9249,0.1797,0.0001,-0.0000,0.7416,flat,18.0,0,9.329
7510,240.32,2.4381,-4.5362,0.1797,0.0001,-0.0000,0.7594,flat,18.0,0,8.761
7520,240.64,2.8495,-4.1400,0.1797,0.0001,-0.0000,0.7753,flat,18.0,0,8.192
7530,240.96,3.2550,-3.7372,0.1797,0.0001,-0.0000,0.7896,flat,18.0,0,7.622
7540,241.28,3.6553,-3.3287,0.1797,0.0000,-0.0000,0.8028,flat,18.0,0,7.051
7550,241.60,4.0504,-2.9148,0.1797,0.0000,-0.0000,0.8151,flat,18.0,0,6.480
7560,241.92,4.4406,-2.4960,0.1797,0.0000,-0.0000,0.8267,flat,18.0,0,5.908
7570,242.24,4.8263,-2.0727,0.1797,0.0000,-0.0000,0.8376,flat,18.0,0,5.336
7580,242.56,5.2076,-1.6454,0.1797,0.0000,-0.0000,0.8478,flat,18.0,0,4.764
7590,242.88,5.5846,-1.2142,0.1797,0.0000,-0.0000,0.8576,flat,18.0,0,4.192
7600,243.20,5.9575,-0.7793,0.1797,0.0000,-0.0000,0.8672,flat,18.0,0,3.619
7610,243.52,6.3261,-0.3409,0.1797,0.0000,0.0000,0.8769,flat,18.0,0,3.046
7620,243.84,6.6903,0.1010,0.1797,0.0000,0.0000,0.8871,flat,18.0,0,2.474
7630,244.16,7.0497,0.5465,0.1797,0.0000,0.0000,0.8982,flat,18.0,0,1.901
7640,244.48,7.4033,0.9957,0.1797,0.0000,0.0000,0.9116,flat,18.0,0,1.330
7650,244.80,7.7493,1.4490,0.1797,0.0001,0.0000,0.9300,flat,18.0,1,0.760
7660,245.12,7.9864,1.8347,0.1799,-0.0001,-0.0000,1.2114,flat,18.0,1,5.227
7670,245.44,8.1219,2.2575,0.1799,0.0001,-0.0000,1.4639,rough,15.5,1,5.015
7680,245.76,8.1559,2.7324,0.1799,0.0000,-0.0000,1.6990,flat,18.0,1,4.723
7690,246.08,8.0662,3.2435,0.1799,0.0001,-0.0000,1.9075,flat,18.0,1,4.341
7700,246.40,7.8672,3.7369,0.1799,0.0001,-0.0000,2.0696,flat,18.0,1,3.904
7710,246.72,7.5885,4.1984,0.1799,0.0003,-0.0000,2.1956,flat,18.0,1,3.437
7720,247.04,7.2519,4.6290,0.1798,0.0004,-0.0000,2.2928,flat,18.0,1,2.952
7730,247.36,6.8739,5.0220,0.1798,0.0004,-0.0000,2.3937,flat,18.0,1,2.463
7740,247.68,6.4571,5.3752,0.1798,0.0004,-0.0000,2.5061,flat,18.0,1,1.972
7750,248.00,6.0033,5.6798,0.1799,0.0002,0.0000,2.6428,flat,18.0,1,1.484
7760,248.32,5.5177,5.9167,0.1799,0.0000,0.0000,2.8374,flat,18.0,1,1.011
7770,248.64,5.0081,6.0398,0.1799,0.0001,0.0001,3.0256,flat,18.0,2,12.777
7780,248.96,4.4520,6.0918,0.1799,0.0004,-0.0000,3.1314,flat,18.0,2,12.265
7790,249.28,3.8893,6.0876,0.1798,0.0004,-0.0000,-3.0709,flat,18.0,2,11.732
7800,249.60,3.3266,6.0403,0.1797,0.0002,-0.0000,-3.0109,flat,18.0,2,11.186
7810,249.92,2.7658,5.9606,0.1797,0.0002,-0.0000,-2.9642,flat,18.0,2,10.633
7820,250.24,2.2086,5.8557,0.1797,0.0001,-0.0000,-2.9290,flat,18.0,2,10.076
7830,250.56,1.6542,5.7317,0.1797,0.0001,-0.0000,-2.8997,flat,18.0,2,9.515
7840,250.88,1.1024,5.5918,0.1797,0.0001,-0.0000,-2.8750,flat,18.0,2,8.951
7850,251.20,0.5534,5.4384,0.1797,0.0001,-0.0000,-2.8537,flat,18.0,2,8.385
7860,251.52,0.0069,5.2736,0.1797,0.0001,-0.0000,-2.8353,flat,18.0,2,7.818
7870,251.84,-0.5370,5.0988,0.1797,0.0001,-0.0000,-2.8191,flat,18.0,2,7.250
7880,252.16,-1.0786,4.9153,0.1797,0.0001,-0.0000,-2.8047,flat,18.0,2,6.680
7890,252.48,-1.6179,4.7241,0.1797,0.0000,-0.0000,-2.7918,flat,18.0,2,6.110
7900,252.80,-2.1550,4.5260,0.1797,0.0000,-0.0000,-2.7800,flat,18.0,2,5.540
7910,253.12,-2.6901,4.3216,0.1797,0.0000,-0.0000,-2.7691,flat,18.0,2,4.969
7920,253.44,-3.2231,4.1115,0.1797,0.0000,-0.0000,-2.7589,flat,18.0,2,4.398
7930,253.76,-3.7540,3.8959,0.1797,0.0000,-0.0000,-2.7492,flat,18.0,2,3.826
7940,254.08,-4.2829,3.6752,0.1797,0.0000,-0.0000,-2.7397,flat,18.0,2,3.255
7950,254.40,-4.8096,3.4495,0.1797,0.0000,0.0000,-2.7301,flat,18.0,2,2.684
7960,254.72,-5.3340,3.2187,0.1797,0.0000,0.0000,-2.7199,flat,18.0,2,2.113
7970,255.04,-5.8554,2.9825,0.1797,0.0000,0.0000,-2.7083,flat,18.0,2,1.544
7980,255.36,-6.3727,2.7403,0.1797,0.0001,0.0000,-2.6930,flat,18.0,2,0.979
7990,255.68,-6.8189,2.5204,0.1798,-0.0002,0.0001,-2.5471,flat,18.0,3,10.736
8000,256.00,-7.1495,2.2430,0.1799,0.0000,-0.0000,-2.2983,flat,18.0,3,10.553
8010,256.32,-7.4388,1.8570,0.1799,0.0000,-0.0000,-2.0760,flat,18.0,3,10.269
8020,256.64,-7.6637,1.3905,0.1799,0.0000,-0.0000,-1.8755,flat,18.0,3,9.902
8030,256.96,-7.8054,0.8700,0.1799,0.0001,-0.0000,-1.7010,flat,18.0,3,9.468
8040,257.28,-7.8606,0.3207,0.1799,0.0001,-0.0000,-1.5566,flat,18.0,3,8.984
8050,257.60,-7.8398,-0.2362,0.1798,0.0004,-0.0000,-1.4498,flat,18.0,3,8.468
8060,257.92,-7.7625,-0.7908,0.1798,0.0004,-0.0000,-1.3710,flat,18.0,3,7.935
8070,258.24,-7.6428,-1.3403,0.1797,0.0002,-0.0000,-1.3095,flat,18.0,3,7.391
8080,258.56,-7.4903,-1.8835,0.1797,0.0002,-0.0000,-1.2597,flat,18.0,3,6.840
8090,258.88,-7.3112,-2.4195,0.1797,0.0001,-0.0000,-1.2199,flat,18.0,3,6.284
