step,time_s,x,y,z,roll,pitch,yaw,terrain,speed,target_idx,dist_to_target
10,0.32,2.1845,0.5010,0.1860,0.0000,-0.0575,0.0000,rough,15.5,0,6.240
20,0.64,2.6895,0.5082,0.1797,0.0001,-0.0011,0.0360,flat,18.0,0,5.750
30,0.96,3.2541,0.5360,0.1797,0.0002,-0.0001,0.0940,flat,18.0,0,5.200
40,1.28,3.8172,0.5950,0.1797,0.0002,-0.0000,0.1423,flat,18.0,0,4.645
50,1.60,4.3776,0.6807,0.1797,0.0001,-0.0000,0.1835,flat,18.0,0,4.087
60,1.92,4.9338,0.7888,0.1797,0.0001,-0.0000,0.2191,flat,18.0,0,3.527
70,2.24,5.4862,0.9165,0.1797,0.0001,-0.0000,0.2525,flat,18.0,0,2.966
80,2.56,6.0339,1.0627,0.1797,0.0001,-0.0000,0.2854,flat,18.0,0,2.405
90,2.88,6.5758,1.2269,0.1797,0.0001,0.0000,0.3198,flat,18.0,0,1.844
100,3.20,7.1096,1.4098,0.1797,0.0001,0.0000,0.3597,flat,18.0,0,1.286
110,3.52,7.6286,1.6111,0.1797,0.0001,0.0003,0.4339,flat,18.0,1,5.174
120,3.84,7.9455,1.7868,0.1798,-0.0003,0.0000,0.7608,flat,18.0,1,5.236
130,4.16,8.1687,2.0598,0.1799,-0.0000,-0.0001,1.0575,flat,18.0,1,5.188
140,4.48,8.3508,2.4458,0.1799,-0.0000,-0.0000,1.3806,flat,18.0,1,5.057
150,4.80,8.4157,2.9155,0.1799,0.0001,-0.0000,1.6839,flat,18.0,1,4.816
160,5.12,8.3342,3.4107,0.1799,0.0001,-0.0000,1.9179,flat,18.0,1,4.473
170,5.44,8.1305,3.8912,0.1799,0.0001,-0.0000,2.1021,flat,18.0,1,4.059
180,5.76,7.8359,4.3367,0.1799,0.0002,-0.0000,2.2427,flat,18.0,1,3.603
190,6.08,7.4790,4.7454,0.1798,0.0003,-0.0000,2.3519,flat,18.0,1,3.124
200,6.40,7.0777,5.1134,0.1798,0.0004,-0.0000,2.4624,flat,18.0,1,2.635
210,6.72,6.6363,5.4397,0.1799,0.0004,-0.0000,2.5784,flat,18.0,1,2.138
220,7.04,6.1596,5.7153,0.1799,0.0002,-0.0000,2.7069,flat,18.0,1,1.639
230,7.36,5.6535,5.9282,0.1799,0.0001,0.0000,2.8636,flat,18.0,1,1.147
240,7.68,5.1312,6.0519,0.1799,0.0002,-0.0000,3.0354,flat,18.0,2,12.898
250,8.00,4.5767,6.0965,0.1799,0.0003,-0.0000,3.1376,flat,18.0,2,12.385
260,8.32,4.0141,6.0889,0.1798,0.0004,-0.0000,-3.0652,flat,18.0,2,11.850
270,8.64,3.4517,6.0384,0.1797,0.0002,-0.0000,-3.0056,flat,18.0,2,11.303
280,8.96,2.8913,5.9557,0.1797,0.0002,-0.0000,-2.9590,flat,18.0,2,10.749
290,9.28,2.3347,5.8479,0.1797,0.0001,-0.0000,-2.9239,flat,18.0,2,10.191
300,9.60,1.7809,5.7211,0.1797,0.0001,-0.0000,-2.8948,flat,18.0,2,9.629
310,9.92,1.2298,5.5785,0.1797,0.0001,-0.0000,-2.8702,flat,18.0,2,9.064
320,10.24,0.6815,5.4225,0.1797,0.0001,-0.0000,-2.8490,flat,18.0,2,8.498
330,10.56,0.1359,5.2551,0.1797,0.0001,-0.0000,-2.8306,flat,18.0,2,7.930
340,10.88,-0.4072,5.0778,0.1797,0.0001,-0.0000,-2.8145,flat,18.0,2,7.360
350,11.20,-0.9480,4.8918,0.1797,0.0001,-0.0000,-2.8002,flat,18.0,2,6.790
360,11.52,-1.4864,4.6982,0.1797,0.0000,-0.0000,-2.7873,flat,18.0,2,6.220
370,11.84,-2.0226,4.4977,0.1797,0.0000,-0.0000,-2.7756,flat,18.0,2,5.648
380,12.16,-2.5568,4.2909,0.1797,0.0000,-0.0000,-2.7648,flat,18.0,2,5.076
390,12.48,-3.0889,4.0784,0.1797,0.0000,-0.0000,-2.7547,flat,18.0,2,4.504
400,12.80,-3.6190,3.8606,0.1797,0.0000,-0.0000,-2.7450,flat,18.0,2,3.932
410,13.12,-4.1470,3.6377,0.1797,0.0000,-0.0000,-2.7357,flat,18.0,2,3.359
420,13.44,-4.6728,3.4098,0.1797,0.0000,0.0000,-2.7262,flat,18.0,2,2.787
430,13.76,-5.1963,3.1770,0.1797,0.0000,0.0000,-2.7162,flat,18.0,2,2.215
440,14.08,-5.7170,2.9389,0.1797,0.0000,0.0000,-2.7050,flat,18.0,2,1.643
450,14.40,-6.2338,2.6950,0.1797,0.0000,0.0000,-2.6905,flat,18.0,2,1.072
460,14.72,-6.6948,2.4698,0.1798,-0.0001,0.0002,-2.5678,flat,18.0,3,10.657
470,15.04,-7.0316,2.2012,0.1799,0.0000,-0.0000,-2.3200,flat,18.0,3,10.481
480,15.36,-7.3109,1.8497,0.1799,0.0001,0.0000,-2.1264,rough,15.5,3,10.223
490,15.68,-7.5499,1.4109,0.1799,0.0000,-0.0000,-1.9328,flat,18.0,3,9.883
500,16.00,-7.7175,0.9032,0.1799,0.0001,-0.0000,-1.7523,flat,18.0,3,9.466
510,16.32,-7.7991,0.3598,0.1799,0.0001,-0.0000,-1.5990,flat,18.0,3,8.995
520,16.64,-7.8005,-0.1968,0.1799,0.0003,-0.0000,-1.4813,flat,18.0,3,8.488
530,16.96,-7.7401,-0.7530,0.1798,0.0004,-0.0000,-1.3961,flat,18.0,3,7.959
540,17.28,-7.6340,-1.3047,0.1797,0.0003,-0.0000,-1.3305,flat,18.0,3,7.419
550,17.60,-7.4928,-1.8505,0.1797,0.0002,-0.0000,-1.2780,flat,18.0,3,6.870
560,17.92,-7.3235,-2.3896,0.1797,0.0002,-0.0000,-1.2356,flat,18.0,3,6.316
570,18.24,-7.1319,-2.9219,0.1797,0.0001,-0.0000,-1.2007,flat,18.0,3,5.759
580,18.56,-6.9219,-3.4482,0.1797,0.0001,-0.0000,-1.1698,flat,18.0,3,5.199
590,18.88,-6.6958,-3.9686,0.1797,0.0001,-0.0000,-1.1420,flat,18.0,3,4.637
600,19.20,-6.4552,-4.4832,0.1797,0.0001,-0.0000,-1.1162,flat,18.0,3,4.074
610,19.52,-6.2015,-4.9917,0.1797,0.0001,-0.0000,-1.0919,flat,18.0,3,3.510
620,19.84,-5.9354,-5.4940,0.1797,0.0001,-0.0000,-1.0681,flat,18.0,3,2.945
630,20.16,-5.6573,-5.9895,0.1797,0.0001,0.0000,-1.0438,flat,18.0,3,2.381
640,20.48,-5.3672,-6.4773,0.1797,0.0001,0.0000,-1.0175,flat,18.0,3,1.817
650,20.80,-5.0645,-6.9552,0.1797,0.0001,0.0000,-0.9860,flat,18.0,3,1.256
660,21.12,-4.7504,-7.4159,0.1797,0.0001,0.0003,-0.9246,flat,18.0,0,16.059
670,21.44,-4.4924,-7.6902,0.1799,-0.0002,-0.0000,-0.6351,flat,18.0,0,16.016
680,21.76,-4.1228,-7.9161,0.1799,0.0000,-0.0000,-0.3501,flat,18.0,0,15.865
690,22.08,-3.6597,-8.0581,0.1799,0.0001,-0.0000,-0.0962,flat,18.0,0,15.598
700,22.40,-3.1443,-8.0859,0.1799,0.0001,0.0000,0.1127,flat,18.0,0,15.227
710,22.72,-2.6131,-8.0069,0.1799,0.0001,-0.0000,0.2684,flat,18.0,0,14.781
720,23.04,-2.0890,-7.8458,0.1798,0.0004,-0.0000,0.3807,flat,18.0,0,14.289
730,23.36,-1.5797,-7.6274,0.1798,0.0004,-0.0000,0.4624,flat,18.0,0,13.771
740,23.68,-1.0852,-7.3681,0.1797,0.0002,-0.0000,0.5250,flat,18.0,0,13.238
750,24.00,-0.6042,-7.0782,0.1797,0.0002,-0.0000,0.5746,flat,18.0,0,12.694
760,24.32,-0.1361,-6.7644,0.1797,0.0001,-0.0000,0.6132,flat,18.0,0,12.144
770,24.64,0.3217,-6.4327,0.1797,0.0001,-0.0000,0.6455,flat,18.0,0,11.588
780,24.96,0.7702,-6.0861,0.1797,0.0001,-0.0000,0.6732,flat,18.0,0,11.029
790,25.28,1.2104,-5.7271,0.1797,0.0001,-0.0000,0.6972,flat,18.0,0,10.467
800,25.60,1.6430,-5.3575,0.1797,0.0001,-0.0000,0.7184,flat,18.0,0,9.903
810,25.92,2.0688,-4.9787,0.1797,0.0001,-0.0000,0.7376,flat,18.0,0,9.337
820,26.24,2.4881,-4.5916,0.1797,0.0001,-0.0000,0.7551,flat,18.0,0,8.770
830,26.56,2.9012,-4.1972,0.1797,0.0001,-0.0000,0.7708,flat,18.0,0,8.202
840,26.88,3.3087,-3.7962,0.1797,0.0001,-0.0000,0.7849,flat,18.0,0,7.632
850,27.20,3.7109,-3.3896,0.1797,0.0000,-0.0000,0.7979,flat,18.0,0,7.062
860,27.52,4.1081,-2.9776,0.1797,0.0000,-0.0000,0.8101,flat,18.0,0,6.491
870,27.84,4.5006,-2.5608,0.1797,0.0000,-0.0000,0.8215,flat,18.0,0,5.920
880,28.16,4.8885,-2.1395,0.1797,0.0000,-0.0000,0.8323,flat,18.0,0,5.349
890,28.48,5.2720,-1.7141,0.1797,0.0000,-0.0000,0.8426,flat,18.0,0,4.777
900,28.80,5.6513,-1.2849,0.1797,0.0000,-0.0000,0.8524,flat,18.0,0,4.205
910,29.12,6.0263,-0.8520,0.1797,0.0000,0.0000,0.8621,flat,18.0,0,3.634
920,29.44,6.3971,-0.4155,0.1797,0.0000,0.0000,0.8720,flat,18.0,0,3.062
930,29.76,6.7634,0.0246,0.1797,0.0000,0.0000,0.8824,flat,18.0,0,2.490
940,30.08,7.1246,0.4683,0.1797,0.0000,0.0000,0.8941,flat,18.0,0,1.919
950,30.40,7.4798,0.9160,0.1797,0.0000,0.0000,0.9084,flat,18.0,0,1.349
960,30.72,7.8262,1.3678,0.1797,0.0001,0.0000,0.9299,flat,18.0,1,5.487
970,31.04,8.0601,1.7486,0.1799,-0.0001,-0.0000,1.2158,flat,18.0,1,5.341
980,31.36,8.1985,2.2014,0.1799,0.0001,-0.0000,1.5113,flat,18.0,1,5.109
990,31.68,8.2086,2.6901,0.1799,0.0000,-0.0000,1.7445,flat,18.0,1,4.791
1000,32.00,8.0952,3.1975,0.1799,0.0001,-0.0000,1.9448,flat,18.0,1,4.391
1010,32.32,7.8774,3.6842,0.1799,0.0001,-0.0000,2.0996,flat,18.0,1,3.940
1020,32.64,7.5842,4.1388,0.1799,0.0003,-0.0000,2.2181,flat,18.0,1,3.460
1030,32.96,7.2378,4.5629,0.1798,0.0004,-0.0000,2.3116,flat,18.0,1,2.964
1040,33.28,6.8519,4.9502,0.1798,0.0004,-0.0000,2.4086,flat,18.0,1,2.464
1050,33.60,6.4291,5.3003,0.1798,0.0004,-0.0000,2.5135,flat,18.0,1,1.960
1060,33.92,5.9716,5.6053,0.1799,0.0003,-0.0000,2.6349,flat,18.0,1,1.458
1070,34.24,5.4833,5.8512,0.1799,0.0001,0.0000,2.7946,flat,18.0,1,0.968
1080,34.56,4.9662,6.0031,0.1799,-0.0002,0.0003,2.9648,flat,18.0,2,12.726
1090,34.88,4.4165,6.0860,0.1799,0.0003,-0.0000,3.0901,flat,18.0,2,12.229
1100,35.20,3.8560,6.1032,0.1798,0.0004,-0.0000,-3.0965,flat,18.0,2,11.706
1110,35.52,3.2938,6.0691,0.1798,0.0003,-0.0000,-3.0256,flat,18.0,2,11.166
1120,35.84,2.7332,5.9970,0.1797,0.0002,-0.0000,-2.9717,flat,18.0,2,10.616
1130,36.16,2.1758,5.8955,0.1797,0.0002,-0.0000,-2.9299,flat,18.0,2,10.060
1140,36.48,1.6222,5.7717,0.1797,0.0001,-0.0000,-2.8972,flat,18.0,2,9.500
1150,36.80,1.0717,5.6302,0.1797,0.0001,-0.0000,-2.8697,flat,18.0,2,8.938
1160,37.12,0.5242,5.4738,0.1797,0.0001,-0.0000,-2.8461,flat,18.0,2,8.373
1170,37.44,-0.0203,5.3046,0.1797,0.0001,-0.0000,-2.8258,flat,18.0,2,7.806
1180,37.76,-0.5619,5.1246,0.1797,0.0001,-0.0000,-2.8079,flat,18.0,2,7.237
1190,38.08,-1.1009,4.9349,0.1797,0.0001,-0.0000,-2.7921,flat,18.0,2,6.668
1200,38.40,-1.6373,4.7369,0.1797,0.0001,-0.0000,-2.7778,flat,18.0,2,6.098
1210,38.72,-2.1711,4.5312,0.1797,0.0000,-0.0000,-2.7649,flat,18.0,2,5.527
1220,39.04,-2.7026,4.3187,0.1797,0.0000,-0.0000,-2.7529,flat,18.0,2,4.956
1230,39.36,-3.2318,4.0999,0.1797,0.0000,-0.0000,-2.7417,flat,18.0,2,4.385
1240,39.68,-3.7585,3.8751,0.1797,0.0000,-0.0000,-2.7310,flat,18.0,2,3.813
1250,40.00,-4.2830,3.6448,0.1797,0.0000,-0.0000,-2.7206,flat,18.0,2,3.241
1260,40.32,-4.8049,3.4089,0.1797,0.0000,0.0000,-2.7099,flat,18.0,2,2.669
1270,40.64,-5.3240,3.1675,0.1797,0.0000,0.0000,-2.6986,flat,18.0,2,2.097
1280,40.96,-5.8397,2.9202,0.1797,0.0000,0.0000,-2.6855,flat,18.0,2,1.526
1290,41.28,-6.3505,2.6663,0.1797,0.0001,0.0000,-2.6681,flat,18.0,2,0.957
1300,41.60,-6.7770,2.4365,0.1798,-0.0003,0.0000,-2.4985,flat,18.0,3,10.644
1310,41.92,-7.1013,2.1354,0.1799,0.0000,-0.0000,-2.2575,flat,18.0,3,10.436
1320,42.24,-7.3827,1.7318,0.1799,0.0000,-0.0000,-2.0411,flat,18.0,3,10.133
1330,42.56,-7.5955,1.2531,0.1799,0.0001,-0.0000,-1.8476,flat,18.0,3,9.750
1340,42.88,-7.7246,0.7255,0.1799,0.0001,-0.0000,-1.6805,flat,18.0,3,9.304
1350,43.20,-7.7694,0.1732,0.1799,0.0002,-0.0000,-1.5437,flat,18.0,3,8.812
1360,43.52,-7.7422,-0.3844,0.1798,0.0004,-0.0000,-1.4441,flat,18.0,3,8.293
1370,43.84,-7.6620,-0.9395,0.1798,0.0003,-0.0000,-1.3696,flat,18.0,3,7.758
1380,44.16,-7.5419,-1.4895,0.1797,0.0002,-0.0000,-1.3111,flat,18.0,3,7.212
1390,44.48,-7.3905,-2.0336,0.1797,0.0002,-0.0000,-1.2636,flat,18.0,3,6.660
1400,44.80,-7.2138,-2.5706,0.1797,0.0001,-0.0000,-1.2260,flat,18.0,3,6.104
1410,45.12,-7.0172,-3.1017,0.1797,0.0001,-0.0000,-1.1934,flat,18.0,3,5.546
1420,45.44,-6.8034,-3.6270,0.1797,0.0001,-0.0000,-1.1643,flat,18.0,3,4.984
1430,45.76,-6.5745,-4.1467,0.1797,0.0001,-0.0000,-1.1378,flat,18.0,3,4.422
1440,46.08,-6.3318,-4.6606,0.1797,0.0001,-0.0000,-1.1132,flat,18.0,3,3.858
1450,46.40,-6.0765,-5.1686,0.1797,0.0001,-0.0000,-1.0895,flat,18.0,3,3.293
1460,46.72,-5.8093,-5.6704,0.1797,0.0001,0.0000,-1.0661,flat,18.0,3,2.728
1470,47.04,-5.5302,-6.1653,0.1797,0.0001,0.0000,-1.0417,flat,18.0,3,2.164
1480,47.36,-5.2392,-6.6521,0.1797,0.0001,0.0000,-1.0144,flat,18.0,3,1.600
1490,47.68,-4.9350,-7.1278,0.1797,0.0001,0.0000,-0.9796,flat,18.0,3,1.041
1500,48.00,-4.6568,-7.5264,0.1798,0.0000,0.0004,-0.8259,flat,18.0,0,16.049
1510,48.32,-4.3621,-7.7756,0.1799,-0.0001,-0.0001,-0.5275,flat,18.0,0,15.965
1520,48.64,-3.9538,-7.9763,0.1799,0.0000,-0.0000,-0.2525,flat,18.0,0,15.772
1530,48.96,-3.4665,-8.0780,0.1799,0.0001,-0.0000,-0.0123,flat,18.0,0,15.464
1540,49.28,-2.9418,-8.0638,0.1799,0.0001,-0.0000,0.1754,flat,18.0,0,15.062
1550,49.60,-2.4114,-7.9515,0.1799,0.0002,-0.0000,0.3147,flat,18.0,0,14.596
1560,49.92,-1.8926,-7.7668,0.1798,0.0004,-0.0000,0.4136,flat,18.0,0,14.093
1570,50.24,-1.3889,-7.5318,0.1798,0.0003,-0.0000,0.4873,flat,18.0,0,13.568
1580,50.56,-0.8995,-7.2601,0.1797,0.0002,-0.0000,0.5446,flat,18.0,0,13.031
1590,50.88,-0.4235,-6.9606,0.1797,0.0002,-0.0000,0.5899,flat,18.0,0,12.484
1600,51.20,0.0406,-6.6397,0.1797,0.0001,-0.0000,0.6258,flat,18.0,0,11.932
1610,51.52,0.4948,-6.3021,0.1797,0.0001,-0.0000,0.6563,flat,18.0,0,11.375
1620,51.84,0.9401,-5.9506,0.1797,0.0001,-0.0000,0.6825,flat,18.0,0,10.815
1630,52.16,1.3774,-5.5875,0.1797,0.0001,-0.0000,0.7054,flat,18.0,0,10.252
1640,52.48,1.8074,-5.2143,0.1797,0.0001,-0.0000,0.7258,flat,18.0,0,9.687
1650,52.80,2.2306,-4.8323,0.1797,0.0001,-0.0000,0.7445,flat,18.0,0,9.121
1660,53.12,2.6475,-4.4423,0.1797,0.0001,-0.0000,0.7613,flat,18.0,0,8.553
1670,53.44,3.0585,-4.0453,0.1797,0.0001,-0.0000,0.7763,flat,18.0,0,7.984
1680,53.76,3.4639,-3.6421,0.1797,0.0000,-0.0000,0.7900,flat,18.0,0,7.414
1690,54.08,3.8642,-3.2334,0.1797,0.0000,-0.0000,0.8027,flat,18.0,0,6.844
1700,54.40,4.2595,-2.8195,0.1797,0.0000,-0.0000,0.8146,flat,18.0,0,6.273
1710,54.72,4.6502,-2.4010,0.1797,0.0000,-0.0000,0.8258,flat,18.0,0,5.702
1720,55.04,5.0363,-1.9780,0.1797,0.0000,-0.0000,0.8364,flat,18.0,0,5.130
1730,55.36,5.4181,-1.5511,0.1797,0.0000,-0.0000,0.8465,flat,18.0,0,4.559
1740,55.68,5.7958,-1.1204,0.1797,0.0000,-0.0000,0.8563,flat,18.0,0,3.987
1750,56.00,6.1692,-0.6861,0.1797,0.0000,0.0000,0.8660,flat,18.0,0,3.415
1760,56.32,6.5382,-0.2482,0.1797,0.0000,0.0000,0.8760,flat,18.0,0,2.843
1770,56.64,6.9025,0.1934,0.1797,0.0000,0.0000,0.8868,flat,18.0,0,2.272
1780,56.96,7.2615,0.6386,0.1797,0.0000,0.0000,0.8993,flat,18.0,0,1.701
1790,57.28,7.6137,1.0879,0.1797,0.0001,0.0000,0.9156,flat,18.0,0,1.131
1800,57.60,7.9249,1.5121,0.1798,-0.0000,0.0003,1.0281,flat,18.0,1,5.434
1810,57.92,8.1241,1.9124,0.1799,0.0001,-0.0000,1.3362,flat,18.0,1,5.263
1820,58.24,8.2102,2.3809,0.1799,0.0000,-0.0000,1.6004,rough,15.5,1,4.995
1830,58.56,8.1757,2.8774,0.1799,-0.0000,-0.0000,1.8229,flat,18.0,1,4.648
1840,58.88,8.0212,3.3800,0.1799,0.0000,-0.0000,2.0058,flat,18.0,1,4.226
1850,59.20,7.7734,3.8553,0.1799,0.0002,-0.0000,2.1462,flat,18.0,1,3.763
1860,59.52,7.4582,4.2992,0.1798,0.0004,-0.0000,2.2517,flat,18.0,1,3.275
1870,59.84,7.0972,4.7104,0.1798,0.0004,-0.0000,2.3461,flat,18.0,1,2.778
1880,60.16,6.6978,5.0844,0.1798,0.0004,-0.0000,2.4454,flat,18.0,1,2.276
1890,60.48,6.2621,5.4192,0.1798,0.0004,-0.0000,2.5552,flat,18.0,1,1.772
1900,60.80,5.7928,5.7047,0.1799,0.0002,0.0000,2.6872,flat,18.0,1,1.273
1910,61.12,5.2955,5.9232,0.1799,0.0000,0.0000,2.8739,flat,18.0,2,13.017
1920,61.44,4.7640,6.0426,0.1799,0.0002,0.0000,3.0139,flat,18.0,2,12.546
1930,61.76,4.2088,6.1000,0.1799,0.0004,-0.0000,3.1289,flat,18.0,2,12.037
1940,62.08,3.6470,6.0966,0.1798,0.0004,-0.0000,-3.0680,flat,18.0,2,11.507
1950,62.40,3.0852,6.0473,0.1797,0.0002,-0.0000,-3.0042,flat,18.0,2,10.963
1960,62.72,2.5255,5.9635,0.1797,0.0002,-0.0000,-2.9548,flat,18.0,2,10.410
1970,63.04,1.9697,5.8530,0.1797,0.0001,-0.0000,-2.9171,flat,18.0,2,9.853
1980,63.36,1.4173,5.7223,0.1797,0.0001,-0.0000,-2.8865,flat,18.0,2,9.292
1990,63.68,0.8679,5.5749,0.1797,0.0001,-0.0000,-2.8605,flat,18.0,2,8.728
2000,64.00,0.3216,5.4136,0.1797,0.0001,-0.0000,-2.8382,flat,18.0,2,8.163
2010,64.32,-0.2218,5.2402,0.1797,0.0001,-0.0000,-2.8188,flat,18.0,2,7.595
2020,64.64,-0.7625,5.0564,0.1797,0.0001,-0.0000,-2.8017,flat,18.0,2,7.027
2030,64.96,-1.3004,4.8634,0.1797,0.0001,-0.0000,-2.7865,flat,18.0,2,6.457
2040,65.28,-1.8358,4.6624,0.1797,0.0000,-0.0000,-2.7728,flat,18.0,2,5.887
2050,65.60,-2.3688,4.4541,0.1797,0.0000,-0.0000,-2.7602,flat,18.0,2,5.316
2060,65.92,-2.8994,4.2391,0.1797,0.0000,-0.0000,-2.7486,flat,18.0,2,4.744
2070,66.24,-3.4276,4.0179,0.1797,0.0000,-0.0000,-2.7376,flat,18.0,2,4.173
2080,66.56,-3.9535,3.7910,0.1797,0.0000,-0.0000,-2.7270,flat,18.0,2,3.601
2090,66.88,-4.4770,3.5586,0.1797,0.0000,-0.0000,-2.7165,flat,18.0,2,3.029
2100,67.20,-4.9978,3.3206,0.1797,0.0000,0.0000,-2.7057,flat,18.0,2,2.457
2110,67.52,-5.5157,3.0770,0.1797,0.0000,0.0000,-2.6939,flat,18.0,2,1.885
2120,67.84,-6.0298,2.8272,0.1797,0.0000,0.0000,-2.6797,flat,18.0,2,1.315
2130,68.16,-6.5380,2.5703,0.1797,0.0001,0.0000,-2.6587,flat,18.0,3,10.720
2140,68.48,-6.9135,2.3403,0.1799,-0.0001,-0.0000,-2.4183,flat,18.0,3,10.584
2150,68.80,-7.2250,2.0039,0.1799,0.0000,-0.0000,-2.1875,flat,18.0,3,10.345
2160,69.12,-7.4872,1.5744,0.1799,0.0000,-0.0000,-1.9769,flat,18.0,3,10.016
2170,69.44,-7.6740,1.0777,0.1799,0.0001,-0.0000,-1.7911,flat,18.0,3,9.613
2180,69.76,-7.7753,0.5400,0.1799,0.0001,-0.0000,-1.6325,flat,18.0,3,9.152
2190,70.08,-7.7944,-0.0155,0.1799,0.0003,-0.0000,-1.5064,flat,18.0,3,8.650
2200,70.40,-7.7475,-0.5725,0.1798,0.0004,-0.0000,-1.4159,flat,18.0,3,8.125
2210,70.72,-7.6521,-1.1258,0.1798,0.0003,-0.0000,-1.3470,flat,18.0,3,7.586
2220,71.04,-7.5198,-1.6736,0.1797,0.0002,-0.0000,-1.2923,flat,18.0,3,7.039
2230,71.36,-7.3582,-2.2150,0.1797,0.0002,-0.0000,-1.2479,flat,18.0,3,6.485
2240,71.68,-7.1731,-2.7494,0.1797,0.0001,-0.0000,-1.2121,flat,18.0,3,5.929
2250,72.00,-6.9692,-3.2780,0.1797,0.0001,-0.0000,-1.1807,flat,18.0,3,5.369
2260,72.32,-6.7488,-3.8008,0.1797,0.0001,-0.0000,-1.1524,flat,18.0,3,4.808
2270,72.64,-6.5136,-4.3178,0.1797,0.0001,-0.0000,-1.1265,flat,18.0,3,4.244
2280,72.96,-6.2652,-4.8290,0.1797,0.0001,-0.0000,-1.1022,flat,18.0,3,3.680
2290,73.28,-6.0043,-5.3341,0.1797,0.0001,-0.0000,-1.0786,flat,18.0,3,3.116
2300,73.60,-5.7315,-5.8328,0.1797,0.0001,0.0000,-1.0550,flat,18.0,3,2.551
2310,73.92,-5.4470,-6.3243,0.1797,0.0001,0.0000,-1.0299,flat,18.0,3,1.987
2320,74.24,-5.1502,-6.8069,0.1797,0.0001,0.0000,-1.0008,flat,18.0,3,1.424
2330,74.56,-4.8396,-7.2766,0.1797,0.0001,0.0000,-0.9614,flat,18.0,3,0.867
2340,74.88,-4.5782,-7.6111,0.1798,-0.0003,0.0000,-0.7289,flat,18.0,0,16.037
2350,75.20,-4.2451,-7.8517,0.1799,0.0000,-0.0001,-0.4373,flat,18.0,0,15.920
2360,75.52,-3.8073,-8.0250,0.1799,0.0000,-0.0000,-0.1724,flat,18.0,0,15.690
2370,75.84,-3.3039,-8.0903,0.1799,0.0000,-0.0000,0.0555,flat,18.0,0,15.350
2380,76.16,-2.7746,-8.0423,0.1799,0.0001,-0.0000,0.2255,flat,18.0,0,14.924
2390,76.48,-2.2469,-7.9040,0.1799,0.0003,-0.0000,0.3495,flat,18.0,0,14.443
2400,76.80,-1.7328,-7.7015,0.1798,0.0004,-0.0000,0.4392,flat,18.0,0,13.932
2410,77.12,-1.2338,-7.4537,0.1797,0.0003,-0.0000,0.5070,flat,18.0,0,13.403
2420,77.44,-0.7488,-7.1724,0.1797,0.0002,-0.0000,0.5603,flat,18.0,0,12.863
2430,77.76,-0.2769,-6.8653,0.1797,0.0001,-0.0000,0.6021,flat,18.0,0,12.314
2440,78.08,0.1839,-6.5388,0.1797,0.0001,-0.0000,0.6361,flat,18.0,0,11.760
2450,78.40,0.6352,-6.1965,0.1797,0.0001,-0.0000,0.6651,flat,18.0,0,11.202
2460,78.72,1.0778,-5.8411,0.1797,0.0001,-0.0000,0.6902,flat,18.0,0,10.641
2470,79.04,1.5127,-5.4745,0.1797,0.0001,-0.0000,0.7122,flat,18.0,0,10.077
2480,79.36,1.9404,-5.0984,0.1797,0.0001,-0.0000,0.7321,flat,18.0,0,9.512
2490,79.68,2.3616,-4.7137,0.1797,0.0001,-0.0000,0.7501,flat,18.0,0,8.945
2500,80.00,2.7765,-4.3214,0.1797,0.0001,-0.0000,0.7663,flat,18.0,0,8.377
2510,80.32,3.1856,-3.9223,0.1797,0.0001,-0.0000,0.7809,flat,18.0,0,7.808
2520,80.64,3.5893,-3.5172,0.1797,0.0000,-0.0000,0.7943,flat,18.0,0,7.238
2530,80.96,3.9879,-3.1067,0.1797,0.0000,-0.0000,0.8067,flat,18.0,0,6.668
2540,81.28,4.3817,-2.6913,0.1797,0.0000,-0.0000,0.8183,flat,18.0,0,6.097
2550,81.60,4.7709,-2.2713,0.1797,0.0000,-0.0000,0.8293,flat,18.0,0,5.525
2560,81.92,5.1556,-1.8470,0.1797,0.0000,-0.0000,0.8398,flat,18.0,0,4.954
2570,82.24,5.5360,-1.4188,0.1797,0.0000,-0.0000,0.8497,flat,18.0,0,4.382
2580,82.56,5.9122,-0.9869,0.1797,0.0000,-0.0000,0.8595,flat,18.0,0,3.810
2590,82.88,6.2842,-0.5514,0.1797,0.0000,0.0000,0.8693,flat,18.0,0,3.238
2600,83.20,6.6518,-0.1123,0.1797,0.0000,0.0000,0.8795,flat,18.0,0,2.666
2610,83.52,7.0145,0.3305,0.1797,0.0000,0.0000,0.8906,flat,18.0,0,2.095
2620,83.84,7.3715,0.7770,0.1797,0.0000,0.0000,0.9040,flat,18.0,0,1.524
2630,84.16,7.7209,1.2276,0.1797,0.0001,0.0000,0.9224,flat,18.0,0,0.956
2640,84.48,7.9956,1.6258,0.1798,-0.0003,-0.0000,1.1238,flat,18.0,1,5.392
2650,84.80,8.1678,2.0542,0.1799,-0.0000,-0.0000,1.4280,flat,18.0,1,5.191
2660,85.12,8.2154,2.5339,0.1799,0.0001,-0.0001,1.6732,flat,18.0,1,4.897
2670,85.44,8.1396,3.0428,0.1799,0.0001,-0.0000,1.8903,flat,18.0,1,4.518
2680,85.76,7.9499,3.5380,0.1799,0.0001,-0.0000,2.0570,flat,18.0,1,4.080
2690,86.08,7.6772,4.0024,0.1799,0.0002,-0.0000,2.1858,flat,18.0,1,3.607
2700,86.40,7.3446,4.4364,0.1798,0.0004,-0.0000,2.2826,flat,18.0,1,3.114
2710,86.72,6.9706,4.8352,0.1798,0.0004,-0.0000,2.3781,flat,18.0,1,2.614
2720,87.04,6.5589,5.1972,0.1798,0.0004,-0.0000,2.4798,flat,18.0,1,2.111
2730,87.36,6.1119,5.5173,0.1798,0.0004,-0.0000,2.5947,flat,18.0,1,1.608
2740,87.68,5.6325,5.7835,0.1799,0.0001,0.0000,2.7390,flat,18.0,1,1.112
2750,88.00,5.1282,5.9663,0.1799,0.0001,-0.0002,2.9221,flat,18.0,2,12.870
2760,88.32,4.5835,6.0681,0.1799,0.0002,-0.0000,3.0548,flat,18.0,2,12.382
2770,88.64,4.0250,6.1041,0.1798,0.0004,-0.0000,-3.1229,flat,18.0,2,11.865
2780,88.96,3.4628,6.0841,0.1798,0.0003,-0.0000,-3.0451,flat,18.0,2,11.329
2790,89.28,2.9015,6.0225,0.1797,0.0002,-0.0000,-2.9868,flat,18.0,2,10.782
2800,89.60,2.3428,5.9293,0.1797,0.0002,-0.0000,-2.9411,flat,18.0,2,10.228
2810,89.92,1.7883,5.8116,0.1797,0.0001,-0.0000,-2.9065,flat,18.0,2,9.669
2820,90.24,1.2369,5.6751,0.1797,0.0001,-0.0000,-2.8775,flat,18.0,2,9.107
2830,90.56,0.6885,5.5229,0.1797,0.0001,-0.0000,-2.8529,flat,18.0,2,8.543
2840,90.88,0.1432,5.3574,0.1797,0.0001,-0.0000,-2.8316,flat,18.0,2,7.977
2850,91.20,-0.3994,5.1805,0.1797,0.0001,-0.0000,-2.8131,flat,18.0,2,7.409
2860,91.52,-0.9391,4.9936,0.1797,0.0001,-0.0000,-2.7966,flat,18.0,2,6.840
2870,91.84,-1.4762,4.7980,0.1797,0.0001,-0.0000,-2.7819,flat,18.0,2,6.270
2880,92.16,-2.0108,4.5945,0.1797,0.0000,-0.0000,-2.7686,flat,18.0,2,5.699
2890,92.48,-2.5430,4.3839,0.1797,0.0000,-0.0000,-2.7564,flat,18.0,2,5.128
2900,92.80,-3.0728,4.1669,0.1797,0.0000,-0.0000,-2.7450,flat,18.0,2,4.557
2910,93.12,-3.6003,3.9439,0.1797,0.0000,-0.0000,-2.7341,flat,18.0,2,3.985
2920,93.44,-4.1254,3.7152,0.1797,0.0000,-0.0000,-2.7236,flat,18.0,2,3.413
2930,93.76,-4.6481,3.4809,0.1797,0.0000,0.0000,-2.7131,flat,18.0,2,2.841
2940,94.08,-5.1680,3.2411,0.1797,0.0000,0.0000,-2.7020,flat,18.0,2,2.269
2950,94.40,-5.6848,2.9956,0.1797,0.0000,0.0000,-2.6896,flat,18.0,2,1.698
2960,94.72,-6.1974,2.7438,0.1797,0.0001,0.0000,-2.6740,flat,18.0,2,1.128
2970,95.04,-6.6684,2.5057,0.1798,0.0000,0.0003,-2.5719,flat,18.0,3,10.686
2980,95.36,-7.0073,2.2386,0.1799,0.0000,-0.0000,-2.3257,flat,18.0,3,10.510
2990,95.68,-7.3037,1.8623,0.1799,0.0000,-0.0000,-2.1039,flat,18.0,3,10.233
3000,96.00,-7.5395,1.4034,0.1799,0.0001,-0.0000,-1.9030,flat,18.0,3,9.872
3010,96.32,-7.6942,0.8878,0.1799,0.0001,-0.0000,-1.7282,flat,18.0,3,9.443
3020,96.64,-7.7637,0.3404,0.1799,0.0001,-0.0000,-1.5810,flat,18.0,3,8.963
3030,96.96,-7.7560,-0.2169,0.1798,0.0004,-0.0000,-1.4707,flat,18.0,3,8.451
3040,97.28,-7.6902,-0.7731,0.1798,0.0004,-0.0000,-1.3900,flat,18.0,3,7.919
3050,97.60,-7.5810,-1.3248,0.1797,0.0002,-0.0000,-1.3274,flat,18.0,3,7.377
3060,97.92,-7.4383,-1.8708,0.1797,0.0002,-0.0000,-1.2770,flat,18.0,3,6.826
3070,98.24,-7.2685,-2.4099,0.1797,0.0001,-0.0000,-1.2366,flat,18.0,3,6.271
3080,98.56,-7.0776,-2.9427,0.1797,0.0001,-0.0000,-1.2028,flat,18.0,3,5.713
3090,98.88,-6.8688,-3.4698,0.1797,0.0001,-0.0000,-1.1728,flat,18.0,3,5.153
3100,99.20,-6.6442,-3.9912,0.1797,0.0001,-0.0000,-1.1456,flat,18.0,3,4.591
3110,99.52,-6.4056,-4.5068,0.1797,0.0001,-0.0000,-1.1205,flat,18.0,3,4.027
3120,99.84,-6.1541,-5.0167,0.1797,0.0001,-0.0000,-1.0966,flat,18.0,3,3.462
3130,100.16,-5.8904,-5.5204,0.1797,0.0001,-0.0000,-1.0732,flat,18.0,3,2.898
3140,100.48,-5.6149,-6.0175,0.1797,0.0001,0.0000,-1.0493,flat,18.0,3,2.333
3150,100.80,-5.3276,-6.5070,0.1797,0.0001,0.0000,-1.0232,flat,18.0,3,1.769
3160,101.12,-5.0276,-6.9865,0.1797,0.0001,0.0000,-0.9915,flat,18.0,3,1.208
3170,101.44,-4.7230,-7.4389,0.1797,0.0001,0.0004,-0.9159,flat,18.0,0,16.050
3180,101.76,-4.4635,-7.7029,0.1799,-0.0002,-0.0000,-0.6152,flat,18.0,0,16.001
3190,102.08,-4.0864,-7.9248,0.1799,0.0000,-0.0000,-0.3318,flat,18.0,0,15.842
3200,102.40,-3.6185,-8.0596,0.1799,0.0000,-0.0000,-0.0802,flat,18.0,0,15.568
3210,102.72,-3.1008,-8.0799,0.1799,0.0001,-0.0000,0.1271,flat,18.0,0,15.191
3220,103.04,-2.5698,-7.9942,0.1799,0.0001,-0.0000,0.2778,flat,18.0,0,14.741
3230,103.36,-2.0467,-7.8284,0.1798,0.0004,-0.0000,0.3871,flat,18.0,0,14.246
3240,103.68,-1.5385,-7.6068,0.1798,0.0004,-0.0000,0.4672,flat,18.0,0,13.727
3250,104.00,-1.0449,-7.3450,0.1797,0.0002,-0.0000,0.5288,flat,18.0,0,13.193
3260,104.32,-0.5649,-7.0532,0.1797,0.0002,-0.0000,0.5778,flat,18.0,0,12.649
3270,104.64,-0.0976,-6.7380,0.1797,0.0001,-0.0000,0.6157,flat,18.0,0,12.098
3280,104.96,0.3594,-6.4051,0.1797,0.0001,-0.0000,0.6477,flat,18.0,0,11.542
3290,105.28,0.8073,-6.0576,0.1797,0.0001,-0.0000,0.6750,flat,18.0,0,10.983
3300,105.60,1.2470,-5.6977,0.1797,0.0001,-0.0000,0.6988,flat,18.0,0,10.421
3310,105.92,1.6790,-5.3274,0.1797,0.0001,-0.0000,0.7199,flat,18.0,0,9.857
3320,106.24,2.1043,-4.9479,0.1797,0.0001,-0.0000,0.7391,flat,18.0,0,9.291
3330,106.56,2.5231,-4.5603,0.1797,0.0001,-0.0000,0.7564,flat,18.0,0,8.723
3340,106.88,2.9357,-4.1653,0.1797,0.0001,-0.0000,0.7720,flat,18.0,0,8.155
3350,107.20,3.3428,-3.7639,0.1797,0.0001,-0.0000,0.7861,flat,18.0,0,7.585
3360,107.52,3.7445,-3.3567,0.1797,0.0000,-0.0000,0.7990,flat,18.0,0,7.015
3370,107.84,4.1413,-2.9444,0.1797,0.0000,-0.0000,0.8111,flat,18.0,0,6.445
3380,108.16,4.5334,-2.5272,0.1797,0.0000,-0.0000,0.8225,flat,18.0,0,5.874
3390,108.48,4.9209,-2.1055,0.1797,0.0000,-0.0000,0.8333,flat,18.0,0,5.302
3400,108.80,5.3040,-1.6797,0.1797,0.0000,-0.0000,0.8435,flat,18.0,0,4.730
3410,109.12,5.6828,-1.2501,0.1797,0.0000,-0.0000,0.8534,flat,18.0,0,4.159
3420,109.44,6.0575,-0.8169,0.1797,0.0000,0.0000,0.8631,flat,18.0,0,3.587
3430,109.76,6.4279,-0.3800,0.1797,0.0000,0.0000,0.8730,flat,18.0,0,3.015
3440,110.08,6.7937,0.0604,0.1797,0.0000,0.0000,0.8835,flat,18.0,0,2.443
3450,110.40,7.1544,0.5045,0.1797,0.0000,0.0000,0.8953,flat,18.0,0,1.872
3460,110.72,7.5089,0.9525,0.1797,0.0001,0.0000,0.9101,flat,18.0,0,1.302
3470,111.04,7.8516,1.4015,0.1797,0.0001,0.0002,0.9487,flat,18.0,1,5.476
3480,111.36,8.0735,1.7820,0.1799,-0.0001,-0.0000,1.2468,flat,18.0,1,5.325
3490,111.68,8.2005,2.2425,0.1799,-0.0001,-0.0001,1.5415,flat,18.0,1,5.082
3500,112.00,8.1991,2.7242,0.1799,0.0000,-0.0000,1.7579,flat,18.0,1,4.762
3510,112.32,8.0787,3.2311,0.1799,0.0001,-0.0000,1.9554,flat,18.0,1,4.358
3520,112.64,7.8556,3.7160,0.1799,0.0001,-0.0000,2.1076,flat,18.0,1,3.905
3530,112.96,7.5586,4.1688,0.1799,0.0003,-0.0000,2.2239,flat,18.0,1,3.424
3540,113.28,7.2097,4.5908,0.1798,0.0004,-0.0000,2.3173,flat,18.0,1,2.927
3550,113.60,6.8215,4.9758,0.1798,0.0004,-0.0000,2.4148,flat,18.0,1,2.427
3560,113.92,6.3964,5.3233,0.1798,0.0004,-0.0000,2.5206,flat,18.0,1,1.923
3570,114.24,5.9369,5.6250,0.1799,0.0003,-0.0000,2.6439,flat,18.0,1,1.422
3580,114.56,5.4469,5.8661,0.1799,0.0001,0.0000,2.8082,flat,18.0,1,0.934
3590,114.88,4.9275,6.0115,0.1799,-0.0000,0.0001,2.9731,flat,18.0,2,12.692
3600,115.20,4.3765,6.0898,0.1799,0.0003,-0.0000,3.0974,flat,18.0,2,12.193
3610,115.52,3.8158,6.1031,0.1798,0.0004,-0.0000,-3.0911,flat,18.0,2,11.668
3620,115.84,3.2536,6.0662,0.1798,0.0003,-0.0000,-3.0215,flat,18.0,2,11.127
3630,116.16,2.6932,5.9918,0.1797,0.0002,-0.0000,-2.9684,flat,18.0,2,10.577
3640,116.48,2.1361,5.8886,0.1797,0.0001,-0.0000,-2.9275,flat,18.0,2,10.021
3650,116.80,1.5827,5.7635,0.1797,0.0001,-0.0000,-2.8951,flat,18.0,2,9.461
3660,117.12,1.0325,5.6208,0.1797,0.0001,-0.0000,-2.8679,flat,18.0,2,8.898
3670,117.44,0.4852,5.4634,0.1797,0.0001,-0.0000,-2.8446,flat,18.0,2,8.333
3680,117.76,-0.0591,5.2934,0.1797,0.0001,-0.0000,-2.8244,flat,18.0,2,7.766
3690,118.08,-0.6005,5.1126,0.1797,0.0001,-0.0000,-2.8067,flat,18.0,2,7.197
3700,118.40,-1.1393,4.9223,0.1797,0.0001,-0.0000,-2.7909,flat,18.0,2,6.628
3710,118.72,-1.6754,4.7236,0.1797,0.0001,-0.0000,-2.7768,flat,18.0,2,6.058
3720,119.04,-2.2091,4.5174,0.1797,0.0000,-0.0000,-2.7639,flat,18.0,2,5.487
3730,119.36,-2.7404,4.3043,0.1797,0.0000,-0.0000,-2.7520,flat,18.0,2,4.916
3740,119.68,-3.2693,4.0850,0.1797,0.0000,-0.0000,-2.7408,flat,18.0,2,4.344
3750,120.00,-3.7959,3.8598,0.1797,0.0000,-0.0000,-2.7301,flat,18.0,2,3.772
3760,120.32,-4.3201,3.6290,0.1797,0.0000,-0.0000,-2.7196,flat,18.0,2,3.201
3770,120.64,-4.8418,3.3926,0.1797,0.0000,0.0000,-2.7090,flat,18.0,2,2.629
3780,120.96,-5.3606,3.1507,0.1797,0.0000,0.0000,-2.6976,flat,18.0,2,2.057
3790,121.28,-5.8760,2.9029,0.1797,0.0000,0.0000,-2.6843,flat,18.0,2,1.486
3800,121.60,-6.3864,2.6483,0.1797,0.0001,0.0000,-2.6663,flat,18.0,2,0.917
3810,121.92,-6.8119,2.4179,0.1798,-0.0003,0.0000,-2.4959,flat,18.0,3,10.634
3820,122.24,-7.1352,2.1159,0.1799,0.0000,-0.0000,-2.2546,flat,18.0,3,10.427
3830,122.56,-7.4155,1.7116,0.1799,0.0000,-0.0000,-2.0377,flat,18.0,3,10.124
3840,122.88,-7.6267,1.2322,0.1799,0.0001,-0.0000,-1.8439,flat,18.0,3,9.741
3850,123.20,-7.7539,0.7042,0.1799,0.0001,-0.0000,-1.6765,flat,18.0,3,9.295
3860,123.52,-7.7965,0.1518,0.1799,0.0002,-0.0000,-1.5397,flat,18.0,3,8.803
3870,123.84,-7.7672,-0.4056,0.1798,0.0004,-0.0000,-1.4403,flat,18.0,3,8.284
3880,124.16,-7.6849,-0.9603,0.1798,0.0003,-0.0000,-1.3659,flat,18.0,3,7.749
3890,124.48,-7.5628,-1.5099,0.1797,0.0002,-0.0000,-1.3075,flat,18.0,3,7.204
3900,124.80,-7.4093,-2.0534,0.1797,0.0002,-0.0000,-1.2600,flat,18.0,3,6.652
3910,125.12,-7.2307,-2.5897,0.1797,0.0001,-0.0000,-1.2223,flat,18.0,3,6.096
3920,125.44,-7.0321,-3.1200,0.1797,0.0001,-0.0000,-1.1897,flat,18.0,3,5.537
3930,125.76,-6.8164,-3.6445,0.1797,0.0001,-0.0000,-1.1606,flat,18.0,3,4.976
3940,126.08,-6.5855,-4.1633,0.1797,0.0001,-0.0000,-1.1341,flat,18.0,3,4.413
3950,126.40,-6.3409,-4.6762,0.1797,0.0001,-0.0000,-1.1094,flat,18.0,3,3.850
3960,126.72,-6.0837,-5.1832,0.1797,0.0001,-0.0000,-1.0857,flat,18.0,3,3.285
3970,127.04,-5.8145,-5.6839,0.1797,0.0001,0.0000,-1.0622,flat,18.0,3,2.720
3980,127.36,-5.5335,-6.1777,0.1797,0.0001,0.0000,-1.0377,flat,18.0,3,2.156
3990,127.68,-5.2405,-6.6632,0.1797,0.0001,0.0000,-1.0102,flat,18.0,3,1.593
4000,128.00,-4.9343,-7.1375,0.1797,0.0001,0.0000,-0.9751,flat,18.0,3,1.033
4010,128.32,-4.6540,-7.5349,0.1798,0.0000,0.0004,-0.8210,flat,18.0,0,16.052
4020,128.64,-4.3574,-7.7838,0.1799,-0.0000,-0.0001,-0.5229,flat,18.0,0,15.966
4030,128.96,-3.9475,-7.9832,0.1799,0.0000,-0.0000,-0.2484,flat,18.0,0,15.771
4040,129.28,-3.4594,-8.0831,0.1799,0.0001,-0.0000,-0.0088,flat,18.0,0,15.462
4050,129.60,-2.9342,-8.0672,0.1799,0.0001,-0.0000,0.1779,flat,18.0,0,15.059
4060,129.92,-2.4040,-7.9535,0.1799,0.0002,-0.0000,0.3166,flat,18.0,0,14.592
4070,130.24,-1.8854,-7.7678,0.1798,0.0004,-0.0000,0.4150,flat,18.0,0,14.088
4080,130.56,-1.3820,-7.5321,0.1798,0.0003,-0.0000,0.4885,flat,18.0,0,13.564
4090,130.88,-0.8929,-7.2599,0.1797,0.0002,-0.0000,0.5456,flat,18.0,0,13.026
4100,131.20,-0.4171,-6.9599,0.1797,0.0002,-0.0000,0.5907,flat,18.0,0,12.479
4110,131.52,0.0468,-6.6386,0.1797,0.0001,-0.0000,0.6265,flat,18.0,0,11.927
4120,131.84,0.5008,-6.3007,0.1797,0.0001,-0.0000,0.6569,flat,18.0,0,11.370
4130,132.16,0.9459,-5.9490,0.1797,0.0001,-0.0000,0.6831,flat,18.0,0,10.809
4140,132.48,1.3830,-5.5856,0.1797,0.0001,-0.0000,0.7059,flat,18.0,0,10.247
4150,132.80,1.8128,-5.2122,0.1797,0.0001,-0.0000,0.7263,flat,18.0,0,9.682
4160,133.12,2.2359,-4.8300,0.1797,0.0001,-0.0000,0.7449,flat,18.0,0,9.115
4170,133.44,2.6527,-4.4399,0.1797,0.0001,-0.0000,0.7617,flat,18.0,0,8.548
4180,133.76,3.0635,-4.0427,0.1797,0.0001,-0.0000,0.7767,flat,18.0,0,7.979
4190,134.08,3.4687,-3.6393,0.1797,0.0000,-0.0000,0.7904,flat,18.0,0,7.409
4200,134.40,3.8689,-3.2304,0.1797,0.0000,-0.0000,0.8030,flat,18.0,0,6.839
4210,134.72,4.2641,-2.8165,0.1797,0.0000,-0.0000,0.8149,flat,18.0,0,6.268
4220,135.04,4.6546,-2.3978,0.1797,0.0000,-0.0000,0.8261,flat,18.0,0,5.697
4230,135.36,5.0406,-1.9747,0.1797,0.0000,-0.0000,0.8367,flat,18.0,0,5.125
4240,135.68,5.4223,-1.5477,0.1797,0.0000,-0.0000,0.8468,flat,18.0,0,4.553
4250,136.00,5.7998,-1.1168,0.1797,0.0000,-0.0000,0.8566,flat,18.0,0,3.982
4260,136.32,6.1731,-0.6824,0.1797,0.0000,0.0000,0.8663,flat,18.0,0,3.410
4270,136.64,6.5420,-0.2444,0.1797,0.0000,0.0000,0.8763,flat,18.0,0,2.838
4280,136.96,6.9062,0.1972,0.1797,0.0000,0.0000,0.8871,flat,18.0,0,2.266
4290,137.28,7.2651,0.6426,0.1797,0.0000,0.0000,0.8996,flat,18.0,0,1.696
4300,137.60,7.6171,1.0920,0.1797,0.0001,0.0000,0.9159,flat,18.0,0,1.126
4310,137.92,7.9280,1.5163,0.1798,-0.0000,0.0003,1.0285,flat,18.0,1,5.433
4320,138.24,8.1271,1.9166,0.1799,0.0001,-0.0000,1.3368,flat,18.0,1,5.262
4330,138.56,8.2126,2.3865,0.1799,-0.0000,-0.0002,1.6001,flat,18.0,1,4.993
4340,138.88,8.1755,2.8903,0.1799,0.0001,-0.0000,1.8301,flat,18.0,1,4.639
4350,139.20,8.0168,3.3923,0.1799,0.0001,-0.0000,2.0115,flat,18.0,1,4.216
4360,139.52,7.7662,3.8665,0.1799,0.0002,-0.0000,2.1505,flat,18.0,1,3.751
4370,139.84,7.4491,4.3095,0.1798,0.0004,-0.0000,2.2547,flat,18.0,1,3.263
4380,140.16,7.0868,4.7196,0.1798,0.0004,-0.0000,2.3490,flat,18.0,1,2.765
4390,140.48,6.6862,5.0925,0.1798,0.0004,-0.0000,2.4483,flat,18.0,1,2.263
4400,140.80,6.2495,5.4263,0.1798,0.0004,-0.0000,2.5582,flat,18.0,1,1.759
4410,141.12,5.7794,5.7103,0.1799,0.0002,0.0000,2.6909,flat,18.0,1,1.259
4420,141.44,5.2816,5.9268,0.1799,0.0000,0.0000,2.8797,flat,18.0,2,13.005
4430,141.76,4.7488,6.0443,0.1799,0.0002,0.0000,3.0174,flat,18.0,2,12.532
4440,142.08,4.1933,6.0999,0.1799,0.0004,-0.0000,3.1316,flat,18.0,2,12.023
4450,142.40,3.6314,6.0950,0.1798,0.0004,-0.0000,-3.0660,flat,18.0,2,11.492
4460,142.72,3.0696,6.0446,0.1797,0.0002,-0.0000,-3.0027,flat,18.0,2,10.947
4470,143.04,2.5101,5.9601,0.1797,0.0002,-0.0000,-2.9536,flat,18.0,2,10.395
4480,143.36,1.9544,5.8490,0.1797,0.0001,-0.0000,-2.9163,flat,18.0,2,9.837
4490,143.68,1.4020,5.7178,0.1797,0.0001,-0.0000,-2.8857,flat,18.0,2,9.276
4500,144.00,0.8527,5.5701,0.1797,0.0001,-0.0000,-2.8599,flat,18.0,2,8.712
4510,144.32,0.3065,5.4084,0.1797,0.0001,-0.0000,-2.8377,flat,18.0,2,8.147
4520,144.64,-0.2369,5.2347,0.1797,0.0001,-0.0000,-2.8184,flat,18.0,2,7.579
4530,144.96,-0.7775,5.0507,0.1797,0.0001,-0.0000,-2.8014,flat,18.0,2,7.011
4540,145.28,-1.3154,4.8575,0.1797,0.0001,-0.0000,-2.7862,flat,18.0,2,6.441
4550,145.60,-1.8507,4.6563,0.1797,0.0000,-0.0000,-2.7725,flat,18.0,2,5.871
4560,145.92,-2.3836,4.4478,0.1797,0.0000,-0.0000,-2.7600,flat,18.0,2,5.300
4570,146.24,-2.9141,4.2327,0.1797,0.0000,-0.0000,-2.7483,flat,18.0,2,4.728
4580,146.56,-3.4423,4.0114,0.1797,0.0000,-0.0000,-2.7374,flat,18.0,2,4.157
4590,146.88,-3.9682,3.7844,0.1797,0.0000,-0.0000,-2.7268,flat,18.0,2,3.585
4600,147.20,-4.4916,3.5518,0.1797,0.0000,-0.0000,-2.7163,flat,18.0,2,3.013
4610,147.52,-5.0124,3.3137,0.1797,0.0000,0.0000,-2.7054,flat,18.0,2,2.441
4620,147.84,-5.5302,3.0699,0.1797,0.0000,0.0000,-2.6936,flat,18.0,2,1.869
4630,148.16,-6.0442,2.8201,0.1797,0.0000,0.0000,-2.6793,flat,18.0,2,1.299
4640,148.48,-6.5495,2.5663,0.1797,0.0000,0.0002,-2.6417,flat,18.0,3,10.719
4650,148.80,-6.9111,2.3314,0.1799,-0.0001,-0.0000,-2.3961,flat,18.0,3,10.575
4660,149.12,-7.2198,1.9849,0.1799,0.0000,-0.0000,-2.1685,flat,18.0,3,10.325
4670,149.44,-7.4767,1.5482,0.1799,0.0000,-0.0000,-1.9606,flat,18.0,3,9.988
4680,149.76,-7.6568,1.0468,0.1799,0.0001,-0.0000,-1.7775,flat,18.0,3,9.578
4690,150.08,-7.7516,0.5066,0.1799,0.0001,-0.0000,-1.6218,flat,18.0,3,9.112
4700,150.40,-7.7653,-0.0496,0.1799,0.0003,-0.0000,-1.4999,flat,18.0,3,8.607
4710,150.72,-7.7151,-0.6067,0.1798,0.0004,-0.0000,-1.4119,flat,18.0,3,8.080
4720,151.04,-7.6177,-1.1599,0.1797,0.0003,-0.0000,-1.3447,flat,18.0,3,7.540
4730,151.36,-7.4842,-1.7076,0.1797,0.0002,-0.0000,-1.2911,flat,18.0,3,6.992
4740,151.68,-7.3219,-2.2489,0.1797,0.0002,-0.0000,-1.2477,flat,18.0,3,6.438
4750,152.00,-7.1369,-2.7835,0.1797,0.0001,-0.0000,-1.2125,flat,18.0,3,5.881
4760,152.32,-6.9332,-3.3123,0.1797,0.0001,-0.0000,-1.1815,flat,18.0,3,5.321
4770,152.64,-6.7132,-3.8354,0.1797,0.0001,-0.0000,-1.1535,flat,18.0,3,4.759
4780,152.96,-6.4786,-4.3527,0.1797,0.0001,-0.0000,-1.1279,flat,18.0,3,4.196
4790,153.28,-6.2309,-4.8643,0.1797,0.0001,-0.0000,-1.1037,flat,18.0,3,3.632
4800,153.60,-5.9708,-5.3699,0.1797,0.0001,-0.0000,-1.0803,flat,18.0,3,3.067
4810,153.92,-5.6988,-5.8691,0.1797,0.0001,0.0000,-1.0566,flat,18.0,3,2.502
4820,154.24,-5.4151,-6.3610,0.1797,0.0001,0.0000,-1.0314,flat,18.0,3,1.938
4830,154.56,-5.1190,-6.8439,0.1797,0.0001,0.0000,-1.0019,flat,18.0,3,1.376
4840,154.88,-4.8091,-7.3135,0.1797,0.0001,0.0000,-0.9612,flat,18.0,3,0.819
4850,155.20,-4.5539,-7.6278,0.1798,-0.0003,-0.0000,-0.7042,flat,18.0,0,16.027
4860,155.52,-4.2108,-7.8652,0.1799,0.0000,-0.0000,-0.4140,flat,18.0,0,15.902
4870,155.84,-3.7660,-8.0305,0.1799,0.0000,-0.0000,-0.1519,flat,18.0,0,15.662
4880,156.16,-3.2591,-8.0857,0.1799,0.0001,-0.0000,0.0698,flat,18.0,0,15.313
4890,156.48,-2.7290,-8.0293,0.1799,0.0001,-0.0000,0.2363,flat,18.0,0,14.881
4900,156.80,-2.2021,-7.8849,0.1799,0.0003,-0.0000,0.3581,flat,18.0,0,14.398
4910,157.12,-1.6893,-7.6780,0.1798,0.0004,-0.0000,0.4455,flat,18.0,0,13.885
4920,157.44,-1.1915,-7.4270,0.1797,0.0003,-0.0000,0.5119,flat,18.0,0,13.355
4930,157.76,-0.7075,-7.1434,0.1797,0.0002,-0.0000,0.5642,flat,18.0,0,12.813
4940,158.08,-0.2366,-6.8345,0.1797,0.0001,-0.0000,0.6050,flat,18.0,0,12.264
4950,158.40,0.2233,-6.5066,0.1797,0.0001,-0.0000,0.6386,flat,18.0,0,11.709
4960,158.72,0.6739,-6.1631,0.1797,0.0001,-0.0000,0.6672,flat,18.0,0,11.151
4970,159.04,1.1159,-5.8068,0.1797,0.0001,-0.0000,0.6920,flat,18.0,0,10.590
4980,159.36,1.5502,-5.4394,0.1797,0.0001,-0.0000,0.7138,flat,18.0,0,10.026
4990,159.68,1.9774,-5.0626,0.1797,0.0001,-0.0000,0.7335,flat,18.0,0,9.461
5000,160.00,2.3981,-4.6773,0.1797,0.0001,-0.0000,0.7514,flat,18.0,0,8.894
5010,160.32,2.8126,-4.2844,0.1797,0.0001,-0.0000,0.7675,flat,18.0,0,8.325
5020,160.64,3.2212,-3.8849,0.1797,0.0001,-0.0000,0.7820,flat,18.0,0,7.756
5030,160.96,3.6246,-3.4794,0.1797,0.0000,-0.0000,0.7952,flat,18.0,0,7.186
5040,161.28,4.0228,-3.0685,0.1797,0.0000,-0.0000,0.8075,flat,18.0,0,6.616
5050,161.60,4.4163,-2.6527,0.1797,0.0000,-0.0000,0.8191,flat,18.0,0,6.045
5060,161.92,4.8051,-2.2324,0.1797,0.0000,-0.0000,0.8301,flat,18.0,0,5.473
5070,162.24,5.1895,-1.8078,0.1797,0.0000,-0.0000,0.8405,flat,18.0,0,4.902
5080,162.56,5.5697,-1.3793,0.1797,0.0000,-0.0000,0.8504,flat,18.0,0,4.330
5090,162.88,5.9456,-0.9472,0.1797,0.0000,-0.0000,0.8602,flat,18.0,0,3.758
5100,163.20,6.3173,-0.5114,0.1797,0.0000,0.0000,0.8700,flat,18.0,0,3.186
5110,163.52,6.6845,-0.0721,0.1797,0.0000,0.0000,0.8802,flat,18.0,0,2.615
5120,163.84,7.0468,0.3709,0.1797,0.0000,0.0000,0.8915,flat,18.0,0,2.043
5130,164.16,7.4033,0.8177,0.1797,0.0000,0.0000,0.9052,flat,18.0,0,1.473
5140,164.48,7.7519,1.2687,0.1797,0.0001,0.0000,0.9244,flat,18.0,0,0.904
5150,164.80,8.0139,1.6601,0.1799,-0.0002,-0.0000,1.1536,flat,18.0,1,5.377
5160,165.12,8.1754,2.0971,0.1799,0.0001,-0.0000,1.4536,flat,18.0,1,5.166
5170,165.44,8.2108,2.5717,0.1799,0.0001,-0.0001,1.6881,flat,18.0,1,4.869
5180,165.76,8.1272,3.0805,0.1799,0.0001,-0.0000,1.9018,flat,18.0,1,4.486
5190,166.08,7.9314,3.5739,0.1799,0.0001,-0.0000,2.0662,flat,18.0,1,4.045
5200,166.40,7.6543,4.0362,0.1799,0.0003,-0.0000,2.1931,flat,18.0,1,3.571
5210,166.72,7.3186,4.4680,0.1798,0.0004,-0.0000,2.2890,flat,18.0,1,3.077
5220,167.04,6.9419,4.8642,0.1798,0.0004,-0.0000,2.3850,flat,18.0,1,2.578
5230,167.36,6.5277,5.2234,0.1798,0.0004,-0.0000,2.4876,flat,18.0,1,2.074
5240,167.68,6.0782,5.5401,0.1799,0.0004,-0.0000,2.6042,flat,18.0,1,1.571
5250,168.00,5.5966,5.8015,0.1799,0.0001,0.0000,2.7521,flat,18.0,1,1.077
5260,168.32,5.0891,5.9753,0.1800,0.0001,-0.0002,2.9310,flat,18.0,2,12.835
5270,168.64,4.5434,6.0738,0.1799,0.0002,-0.0000,3.0635,flat,18.0,2,12.346
5280,168.96,3.9844,6.1051,0.1798,0.0004,-0.0000,-3.1164,flat,18.0,2,11.827
5290,169.28,3.4221,6.0817,0.1798,0.0003,-0.0000,-3.0403,flat,18.0,2,11.290
5300,169.60,2.8610,6.0174,0.1797,0.0002,-0.0000,-2.9831,flat,18.0,2,10.743
5310,169.92,2.3026,5.9222,0.1797,0.0002,-0.0000,-2.9383,flat,18.0,2,10.188
5320,170.24,1.7484,5.8030,0.1797,0.0001,-0.0000,-2.9042,flat,18.0,2,9.629
5330,170.56,1.1972,5.6652,0.1797,0.0001,-0.0000,-2.8756,flat,18.0,2,9.067
5340,170.88,0.6490,5.5120,0.1797,0.0001,-0.0000,-2.8512,flat,18.0,2,8.502
5350,171.20,0.1039,5.3456,0.1797,0.0001,-0.0000,-2.8301,flat,18.0,2,7.936
5360,171.52,-0.4384,5.1678,0.1797,0.0001,-0.0000,-2.8117,flat,18.0,2,7.368
5370,171.84,-0.9780,4.9802,0.1797,0.0001,-0.0000,-2.7955,flat,18.0,2,6.799
5380,172.16,-1.5149,4.7840,0.1797,0.0001,-0.0000,-2.7809,flat,18.0,2,6.229
5390,172.48,-2.0493,4.5799,0.1797,0.0000,-0.0000,-2.7676,flat,18.0,2,5.658
5400,172.80,-2.5813,4.3688,0.1797,0.0000,-0.0000,-2.7555,flat,18.0,2,5.087
5410,173.12,-3.1109,4.1514,0.1797,0.0000,-0.0000,-2.7441,flat,18.0,2,4.516
5420,173.44,-3.6382,3.9279,0.1797,0.0000,-0.0000,-2.7333,flat,18.0,2,3.944
5430,173.76,-4.1632,3.6987,0.1797,0.0000,-0.0000,-2.7228,flat,18.0,2,3.372
5440,174.08,-4.6856,3.4640,0.1797,0.0000,0.0000,-2.7122,flat,18.0,2,2.800
5450,174.40,-5.2054,3.2238,0.1797,0.0000,0.0000,-2.7011,flat,18.0,2,2.228
5460,174.72,-5.7219,2.9779,0.1797,0.0000,0.0000,-2.6886,flat,18.0,2,1.657
5470,175.04,-6.2340,2.7254,0.1797,0.0001,0.0000,-2.6726,flat,18.0,2,1.087
5480,175.36,-6.7042,2.4868,0.1798,0.0000,0.0003,-2.5696,flat,18.0,3,10.676
5490,175.68,-7.0422,2.2189,0.1799,0.0000,-0.0000,-2.3230,flat,18.0,3,10.501
5500,176.00,-7.3376,1.8419,0.1799,0.0000,-0.0000,-2.1007,flat,18.0,3,10.223
5510,176.32,-7.5719,1.3823,0.1799,0.0001,-0.0000,-1.8994,flat,18.0,3,9.863
5520,176.64,-7.7248,0.8662,0.1799,0.0001,-0.0000,-1.7244,flat,18.0,3,9.435
5530,176.96,-7.7922,0.3187,0.1799,0.0001,-0.0000,-1.5770,flat,18.0,3,8.955
5540,177.28,-7.7824,-0.2385,0.1798,0.0004,-0.0000,-1.4669,flat,18.0,3,8.442
5550,177.60,-7.7144,-0.7944,0.1798,0.0004,-0.0000,-1.3862,flat,18.0,3,7.911
5560,177.92,-7.6031,-1.3456,0.1797,0.0002,-0.0000,-1.3237,flat,18.0,3,7.368
5570,178.24,-7.4583,-1.8910,0.1797,0.0002,-0.0000,-1.2733,flat,18.0,3,6.818
5580,178.56,-7.2866,-2.4294,0.1797,0.0001,-0.0000,-1.2330,flat,18.0,3,6.263
5590,178.88,-7.0937,-2.9615,0.1797,0.0001,-0.0000,-1.1991,flat,18.0,3,5.705
5600,179.20,-6.8829,-3.4878,0.1797,0.0001,-0.0000,-1.1690,flat,18.0,3,5.145
5610,179.52,-6.6564,-4.0083,0.1797,0.0001,-0.0000,-1.1418,flat,18.0,3,4.582
5620,179.84,-6.4158,-4.5230,0.1797,0.0001,-0.0000,-1.1166,flat,18.0,3,4.019
5630,180.16,-6.1623,-5.0318,0.1797,0.0001,-0.0000,-1.0927,flat,18.0,3,3.454
5640,180.48,-5.8966,-5.5344,0.1797,0.0001,-0.0000,-1.0692,flat,18.0,3,2.890
5650,180.80,-5.6191,-6.0303,0.1797,0.0001,0.0000,-1.0452,flat,18.0,3,2.325
5660,181.12,-5.3298,-6.5185,0.1797,0.0001,0.0000,-1.0189,flat,18.0,3,1.761
5670,181.44,-5.0277,-6.9967,0.1797,0.0001,0.0000,-0.9870,flat,18.0,3,1.200
5680,181.76,-4.7210,-7.4477,0.1797,0.0001,0.0004,-0.9108,flat,18.0,0,16.054
5690,182.08,-4.4594,-7.7113,0.1799,-0.0002,-0.0000,-0.6104,flat,18.0,0,16.003
5700,182.40,-4.0806,-7.9322,0.1799,0.0000,-0.0000,-0.3274,flat,18.0,0,15.842
5710,182.72,-3.6115,-8.0652,0.1799,0.0000,-0.0000,-0.0763,flat,18.0,0,15.566
5720,183.04,-3.0933,-8.0836,0.1799,0.0001,-0.0000,0.1298,flat,18.0,0,15.188
5730,183.36,-2.5624,-7.9964,0.1799,0.0001,-0.0000,0.2799,flat,18.0,0,14.737
5740,183.68,-2.0394,-7.8294,0.1798,0.0004,-0.0000,0.3887,flat,18.0,0,14.242
5750,184.00,-1.5315,-7.6070,0.1798,0.0004,-0.0000,0.4684,flat,18.0,0,13.723
5760,184.32,-1.0382,-7.3447,0.1797,0.0002,-0.0000,0.5298,flat,18.0,0,13.188
5770,184.64,-0.5584,-7.0524,0.1797,0.0002,-0.0000,0.5786,flat,18.0,0,12.644
5780,184.96,-0.0914,-6.7368,0.1797,0.0001,-0.0000,0.6164,flat,18.0,0,12.093
5790,185.28,0.3655,-6.4036,0.1797,0.0001,-0.0000,0.6482,flat,18.0,0,11.537
5800,185.60,0.8132,-6.0558,0.1797,0.0001,-0.0000,0.6756,flat,18.0,0,10.978
5810,185.92,1.2527,-5.6957,0.1797,0.0001,-0.0000,0.6993,flat,18.0,0,10.416
5820,186.24,1.6846,-5.3252,0.1797,0.0001,-0.0000,0.7204,flat,18.0,0,9.851
5830,186.56,2.1097,-4.9455,0.1797,0.0001,-0.0000,0.7395,flat,18.0,0,9.285
5840,186.88,2.5283,-4.5577,0.1797,0.0001,-0.0000,0.7568,flat,18.0,0,8.718
5850,187.20,2.9408,-4.1625,0.1797,0.0001,-0.0000,0.7724,flat,18.0,0,8.149
5860,187.52,3.3477,-3.7610,0.1797,0.0000,-0.0000,0.7864,flat,18.0,0,7.580
5870,187.84,3.7494,-3.3537,0.1797,0.0000,-0.0000,0.7993,flat,18.0,0,7.010
5880,188.16,4.1460,-2.9412,0.1797,0.0000,-0.0000,0.8114,flat,18.0,0,6.439
5890,188.48,4.5379,-2.5238,0.1797,0.0000,-0.0000,0.8228,flat,18.0,0,5.868
5900,188.80,4.9253,-2.1021,0.1797,0.0000,-0.0000,0.8336,flat,18.0,0,5.297
5910,189.12,5.3082,-1.6762,0.1797,0.0000,-0.0000,0.8438,flat,18.0,0,4.725
5920,189.44,5.6870,-1.2465,0.1797,0.0000,-0.0000,0.8536,flat,18.0,0,4.153
5930,189.76,6.0616,-0.8131,0.1797,0.0000,0.0000,0.8634,flat,18.0,0,3.581
5940,190.08,6.4318,-0.3762,0.1797,0.0000,0.0000,0.8733,flat,18.0,0,3.009
5950,190.40,6.7975,0.0644,0.1797,0.0000,0.0000,0.8838,flat,18.0,0,2.438
5960,190.72,7.1580,0.5086,0.1797,0.0000,0.0000,0.8956,flat,18.0,0,1.867
5970,191.04,7.5124,0.9567,0.1797,0.0001,0.0000,0.9104,flat,18.0,0,1.297
5980,191.36,7.8549,1.4058,0.1797,0.0001,0.0002,0.9491,flat,18.0,1,5.475
5990,191.68,8.0766,1.7864,0.1799,-0.0001,-0.0000,1.2475,flat,18.0,1,5.324
6000,192.00,8.2033,2.2468,0.1799,-0.0001,-0.0001,1.5422,flat,18.0,1,5.081
6010,192.32,8.2005,2.7373,0.1799,0.0000,-0.0000,1.7669,flat,18.0,1,4.755
6020,192.64,8.0756,3.2439,0.1799,0.0000,-0.0000,1.9623,flat,18.0,1,4.348
6030,192.96,7.8492,3.7277,0.1799,0.0001,-0.0000,2.1123,flat,18.0,1,3.894
6040,193.28,7.5499,4.1795,0.1799,0.0003,-0.0000,2.2271,flat,18.0,1,3.411
6050,193.60,7.1996,4.6005,0.1798,0.0004,-0.0000,2.3203,flat,18.0,1,2.914
6060,193.92,6.8103,4.9844,0.1798,0.0004,-0.0000,2.4177,flat,18.0,1,2.414
6070,194.24,6.3842,5.3308,0.1798,0.0004,-0.0000,2.5236,flat,18.0,1,1.910
6080,194.56,5.9237,5.6311,0.1799,0.0003,-0.0000,2.6474,flat,18.0,1,1.408
6090,194.88,5.4331,5.8705,0.1799,0.0001,0.0000,2.8131,flat,18.0,1,0.921
6100,195.20,4.9124,6.0138,0.1798,-0.0000,0.0001,2.9769,flat,18.0,2,12.678
6110,195.52,4.3611,6.0902,0.1799,0.0003,-0.0000,3.1004,flat,18.0,2,12.178
6120,195.84,3.8002,6.1019,0.1798,0.0004,-0.0000,-3.0889,flat,18.0,2,11.653
6130,196.16,3.2380,6.0638,0.1798,0.0003,-0.0000,-3.0199,flat,18.0,2,11.112
6140,196.48,2.6777,5.9885,0.1797,0.0002,-0.0000,-2.9672,flat,18.0,2,10.561
6150,196.80,2.1207,5.8847,0.1797,0.0001,-0.0000,-2.9265,flat,18.0,2,10.005
6160,197.12,1.5674,5.7590,0.1797,0.0001,-0.0000,-2.8943,flat,18.0,2,9.445
6170,197.44,1.0172,5.6159,0.1797,0.0001,-0.0000,-2.8672,flat,18.0,2,8.882
6180,197.76,0.4700,5.4582,0.1797,0.0001,-0.0000,-2.8440,flat,18.0,2,8.317
6190,198.08,-0.0742,5.2879,0.1797,0.0001,-0.0000,-2.8239,flat,18.0,2,7.750
6200,198.40,-0.6156,5.1069,0.1797,0.0001,-0.0000,-2.8063,flat,18.0,2,7.181
6210,198.72,-1.1543,4.9163,0.1797,0.0001,-0.0000,-2.7906,flat,18.0,2,6.612
6220,199.04,-1.6904,4.7175,0.1797,0.0001,-0.0000,-2.7765,flat,18.0,2,6.042
6230,199.36,-2.2240,4.5111,0.1797,0.0000,-0.0000,-2.7636,flat,18.0,2,5.471
6240,199.68,-2.7552,4.2979,0.1797,0.0000,-0.0000,-2.7517,flat,18.0,2,4.900
6250,200.00,-3.2841,4.0784,0.1797,0.0000,-0.0000,-2.7406,flat,18.0,2,4.328
6260,200.32,-3.8107,3.8531,0.1797,0.0000,-0.0000,-2.7299,flat,18.0,2,3.756
6270,200.64,-4.3348,3.6221,0.1797,0.0000,-0.0000,-2.7194,flat,18.0,2,3.184
6280,200.96,-4.8564,3.3857,0.1797,0.0000,0.0000,-2.7087,flat,18.0,2,2.612
6290,201.28,-5.3752,3.1437,0.1797,0.0000,0.0000,-2.6973,flat,18.0,2,2.041
6300,201.60,-5.8905,2.8957,0.1797,0.0000,0.0000,-2.6840,flat,18.0,2,1.470
6310,201.92,-6.4006,2.6409,0.1797,0.0001,0.0000,-2.6657,flat,18.0,2,0.901
6320,202.24,-6.8112,2.4122,0.1799,-0.0002,0.0000,-2.4728,flat,18.0,3,10.629
6330,202.56,-7.1311,2.0995,0.1799,0.0000,-0.0000,-2.2350,flat,18.0,3,10.410
6340,202.88,-7.4068,1.6872,0.1799,0.0000,-0.0000,-2.0206,flat,18.0,3,10.098
6350,203.20,-7.6116,1.2024,0.1799,0.0001,-0.0000,-1.8298,flat,18.0,3,9.708
6360,203.52,-7.7320,0.6713,0.1799,0.0001,-0.0000,-1.6660,flat,18.0,3,9.257
6370,203.84,-7.7689,0.1177,0.1799,0.0002,-0.0000,-1.5322,flat,18.0,3,8.761
6380,204.16,-7.7357,-0.4398,0.1798,0.0004,-0.0000,-1.4357,flat,18.0,3,8.240
6390,204.48,-7.6511,-0.9945,0.1798,0.0003,-0.0000,-1.3632,flat,18.0,3,7.703
6400,204.80,-7.5275,-1.5439,0.1797,0.0002,-0.0000,-1.3060,flat,18.0,3,7.157
6410,205.12,-7.3733,-2.0874,0.1797,0.0002,-0.0000,-1.2594,flat,18.0,3,6.605
6420,205.44,-7.1945,-2.6237,0.1797,0.0001,-0.0000,-1.2226,flat,18.0,3,6.049
6430,205.76,-6.9961,-3.1542,0.1797,0.0001,-0.0000,-1.1904,flat,18.0,3,5.489
6440,206.08,-6.7807,-3.6790,0.1797,0.0001,-0.0000,-1.1616,flat,18.0,3,4.928
6450,206.40,-6.5504,-4.1981,0.1797,0.0001,-0.0000,-1.1354,flat,18.0,3,4.365
6460,206.72,-6.3065,-4.7115,0.1797,0.0001,-0.0000,-1.1108,flat,18.0,3,3.801
6470,207.04,-6.0500,-5.2189,0.1797,0.0001,-0.0000,-1.0873,flat,18.0,3,3.237
6480,207.36,-5.7816,-5.7201,0.1797,0.0001,0.0000,-1.0638,flat,18.0,3,2.672
6490,207.68,-5.5015,-6.2143,0.1797,0.0001,0.0000,-1.0392,flat,18.0,3,2.107
6500,208.00,-5.2092,-6.7002,0.1797,0.0001,0.0000,-1.0115,flat,18.0,3,1.544
6510,208.32,-4.9037,-7.1745,0.1797,0.0001,0.0000,-0.9754,flat,18.0,3,0.985
6520,208.64,-4.6331,-7.5520,0.1798,-0.0001,0.0002,-0.7939,flat,18.0,0,16.045
6530,208.96,-4.3260,-7.7989,0.1799,-0.0000,-0.0001,-0.4988,flat,18.0,0,15.951
6540,209.28,-3.9079,-7.9915,0.1799,0.0000,-0.0000,-0.2268,flat,18.0,0,15.746
6550,209.60,-3.4151,-8.0819,0.1799,0.0000,-0.0000,0.0102,flat,18.0,0,15.428
6560,209.92,-2.8885,-8.0570,0.1799,0.0001,-0.0000,0.1930,flat,18.0,0,15.018
6570,210.24,-2.3589,-7.9359,0.1799,0.0002,-0.0000,0.3261,flat,18.0,0,14.547
6580,210.56,-1.8416,-7.7454,0.1798,0.0004,-0.0000,0.4219,flat,18.0,0,14.041
6590,210.88,-1.3393,-7.5062,0.1798,0.0003,-0.0000,0.4937,flat,18.0,0,13.515
6600,211.20,-0.8514,-7.2315,0.1797,0.0002,-0.0000,0.5497,flat,18.0,0,12.977
6610,211.52,-0.3766,-6.9295,0.1797,0.0002,-0.0000,0.5938,flat,18.0,0,12.429
6620,211.84,0.0864,-6.6068,0.1797,0.0001,-0.0000,0.6291,flat,18.0,0,11.876
6630,212.16,0.5397,-6.2677,0.1797,0.0001,-0.0000,0.6591,flat,18.0,0,11.319
6640,212.48,0.9841,-5.9150,0.1797,0.0001,-0.0000,0.6849,flat,18.0,0,10.759
6650,212.80,1.4206,-5.5507,0.1797,0.0001,-0.0000,0.7075,flat,18.0,0,10.196
6660,213.12,1.8499,-5.1766,0.1797,0.0001,-0.0000,0.7278,flat,18.0,0,9.631
6670,213.44,2.2726,-4.7938,0.1797,0.0001,-0.0000,0.7462,flat,18.0,0,9.064
6680,213.76,2.6888,-4.4031,0.1797,0.0001,-0.0000,0.7629,flat,18.0,0,8.496
6690,214.08,3.0992,-4.0055,0.1797,0.0001,-0.0000,0.7778,flat,18.0,0,7.927
6700,214.40,3.5041,-3.6017,0.1797,0.0000,-0.0000,0.7913,flat,18.0,0,7.357
6710,214.72,3.9039,-3.1924,0.1797,0.0000,-0.0000,0.8039,flat,18.0,0,6.787
6720,215.04,4.2987,-2.7780,0.1797,0.0000,-0.0000,0.8157,flat,18.0,0,6.216
6730,215.36,4.6889,-2.3590,0.1797,0.0000,-0.0000,0.8269,flat,18.0,0,5.645
6740,215.68,5.0746,-1.9357,0.1797,0.0000,-0.0000,0.8374,flat,18.0,0,5.073
6750,216.00,5.4560,-1.5084,0.1797,0.0000,-0.0000,0.8475,flat,18.0,0,4.502
6760,216.32,5.8332,-1.0773,0.1797,0.0000,-0.0000,0.8572,flat,18.0,0,3.930
6770,216.64,6.2062,-0.6426,0.1797,0.0000,0.0000,0.8670,flat,18.0,0,3.358
6780,216.96,6.5748,-0.2043,0.1797,0.0000,0.0000,0.8771,flat,18.0,0,2.786
6790,217.28,6.9386,0.2376,0.1797,0.0000,0.0000,0.8880,flat,18.0,0,2.215
6800,217.60,7.2970,0.6832,0.1797,0.0000,0.0000,0.9007,flat,18.0,0,1.644
6810,217.92,7.6484,1.1329,0.1797,0.0001,0.0000,0.9176,flat,18.0,0,1.075
6820,218.24,7.9474,1.5474,0.1798,-0.0001,0.0002,1.0610,flat,18.0,1,5.421
6830,218.56,8.1391,1.9575,0.1799,0.0000,-0.0000,1.3680,flat,18.0,1,5.240
6840,218.88,8.2119,2.4251,0.1799,0.0001,-0.0000,1.6211,flat,18.0,1,4.967
6850,219.20,8.1652,2.9281,0.1799,0.0001,-0.0000,1.8427,flat,18.0,1,4.608
6860,219.52,8.0000,3.4288,0.1799,0.0001,-0.0000,2.0214,flat,18.0,1,4.181
6870,219.84,7.7445,3.9009,0.1799,0.0002,-0.0000,2.1585,flat,18.0,1,3.716
6880,220.16,7.4239,4.3418,0.1798,0.0004,-0.0000,2.2609,flat,18.0,1,3.226
6890,220.48,7.0590,4.7493,0.1798,0.0004,-0.0000,2.3558,flat,18.0,1,2.728
6900,220.80,6.6558,5.1197,0.1798,0.0004,-0.0000,2.4558,flat,18.0,1,2.226
6910,221.12,6.2166,5.4501,0.1798,0.0004,-0.0000,2.5670,flat,18.0,1,1.722
6920,221.44,5.7441,5.7299,0.1799,0.0002,0.0000,2.7025,flat,18.0,1,1.224
6930,221.76,5.2470,5.9381,0.1799,0.0000,0.0002,2.9096,flat,18.0,2,12.975
6940,222.08,4.7091,6.0515,0.1799,0.0002,-0.0000,3.0266,flat,18.0,2,12.496
6950,222.40,4.1528,6.1022,0.1798,0.0004,-0.0000,3.1388,flat,18.0,2,11.985
6960,222.72,3.5908,6.0935,0.1798,0.0004,-0.0000,-3.0608,flat,18.0,2,11.453
6970,223.04,3.0291,6.0403,0.1797,0.0002,-0.0000,-2.9987,flat,18.0,2,10.908
6980,223.36,2.4698,5.9536,0.1797,0.0002,-0.0000,-2.9504,flat,18.0,2,10.355
6990,223.68,1.9144,5.8408,0.1797,0.0001,-0.0000,-2.9138,flat,18.0,2,9.797
7000,224.00,1.3623,5.7083,0.1797,0.0001,-0.0000,-2.8837,flat,18.0,2,9.236
7010,224.32,0.8132,5.5595,0.1797,0.0001,-0.0000,-2.8581,flat,18.0,2,8.672
7020,224.64,0.2671,5.3968,0.1797,0.0001,-0.0000,-2.8362,flat,18.0,2,8.106
7030,224.96,-0.2760,5.2223,0.1797,0.0001,-0.0000,-2.8170,flat,18.0,2,7.538
7040,225.28,-0.8163,5.0376,0.1797,0.0001,-0.0000,-2.8002,flat,18.0,2,6.970
7050,225.60,-1.3541,4.8438,0.1797,0.0001,-0.0000,-2.7851,flat,18.0,2,6.400
7060,225.92,-1.8892,4.6420,0.1797,0.0000,-0.0000,-2.7715,flat,18.0,2,5.830
7070,226.24,-2.4219,4.4330,0.1797,0.0000,-0.0000,-2.7590,flat,18.0,2,5.259
7080,226.56,-2.9523,4.2173,0.1797,0.0000,-0.0000,-2.7475,flat,18.0,2,4.687
7090,226.88,-3.4803,3.9956,0.1797,0.0000,-0.0000,-2.7365,flat,18.0,2,4.116
7100,227.20,-4.0059,3.7681,0.1797,0.0000,-0.0000,-2.7259,flat,18.0,2,3.544
7110,227.52,-4.5291,3.5351,0.1797,0.0000,0.0000,-2.7154,flat,18.0,2,2.972
7120,227.84,-5.0497,3.2966,0.1797,0.0000,0.0000,-2.7045,flat,18.0,2,2.400
7130,228.16,-5.5673,3.0524,0.1797,0.0000,0.0000,-2.6926,flat,18.0,2,1.828
7140,228.48,-6.0809,2.8020,0.1797,0.0001,0.0000,-2.6780,flat,18.0,2,1.258
7150,228.80,-6.5855,2.5476,0.1797,0.0000,0.0002,-2.6395,flat,18.0,3,10.708
7160,229.12,-6.9462,2.3120,0.1799,-0.0001,-0.0000,-2.3935,flat,18.0,3,10.565
7170,229.44,-7.2539,1.9648,0.1799,0.0000,-0.0000,-2.1655,flat,18.0,3,10.316
7180,229.76,-7.5095,1.5273,0.1799,0.0000,-0.0000,-1.9571,flat,18.0,3,9.979
7190,230.08,-7.6880,1.0254,0.1799,0.0001,-0.0000,-1.7737,flat,18.0,3,9.569
7200,230.40,-7.7807,0.4849,0.1799,0.0001,-0.0000,-1.6178,flat,18.0,3,9.103
7210,230.72,-7.7922,-0.0712,0.1799,0.0003,-0.0000,-1.4961,flat,18.0,3,8.598
7220,231.04,-7.7398,-0.6280,0.1798,0.0004,-0.0000,-1.4082,flat,18.0,3,8.072
7230,231.36,-7.6403,-1.1808,0.1797,0.0003,-0.0000,-1.3410,flat,18.0,3,7.532
7240,231.68,-7.5048,-1.7280,0.1797,0.0002,-0.0000,-1.2874,flat,18.0,3,6.984
7250,232.00,-7.3405,-2.2687,0.1797,0.0002,-0.0000,-1.2440,flat,18.0,3,6.430
7260,232.32,-7.1535,-2.8025,0.1797,0.0001,-0.0000,-1.2088,flat,18.0,3,5.873
7270,232.64,-6.9478,-3.3305,0.1797,0.0001,-0.0000,-1.1777,flat,18.0,3,5.313
7280,232.96,-6.7258,-3.8527,0.1797,0.0001,-0.0000,-1.1497,flat,18.0,3,4.751
7290,233.28,-6.4893,-4.3692,0.1797,0.0001,-0.0000,-1.1240,flat,18.0,3,4.188
7300,233.60,-6.2395,-4.8798,0.1797,0.0001,-0.0000,-1.0998,flat,18.0,3,3.624
7310,233.92,-5.9774,-5.3843,0.1797,0.0001,-0.0000,-1.0763,flat,18.0,3,3.059
7320,234.24,-5.7035,-5.8823,0.1797,0.0001,0.0000,-1.0526,flat,18.0,3,2.494
7330,234.56,-5.4178,-6.3730,0.1797,0.0001,0.0000,-1.0272,flat,18.0,3,1.930
7340,234.88,-5.1197,-6.8546,0.1797,0.0001,0.0000,-0.9976,flat,18.0,3,1.368
7350,235.20,-4.8076,-7.3226,0.1797,0.0001,0.0000,-0.9565,flat,18.0,3,0.812
7360,235.52,-4.5503,-7.6363,0.1798,-0.0003,-0.0000,-0.6995,flat,18.0,0,16.030
7370,235.84,-4.2054,-7.8730,0.1799,0.0000,-0.0000,-0.4095,flat,18.0,0,15.902
7380,236.16,-3.7592,-8.0368,0.1799,0.0000,-0.0000,-0.1479,flat,18.0,0,15.661
7390,236.48,-3.2517,-8.0900,0.1799,0.0001,-0.0000,0.0728,flat,18.0,0,15.311
7400,236.80,-2.7215,-8.0320,0.1799,0.0001,-0.0000,0.2386,flat,18.0,0,14.878
7410,237.12,-2.1947,-7.8863,0.1799,0.0003,-0.0000,0.3598,flat,18.0,0,14.393
7420,237.44,-1.6822,-7.6786,0.1798,0.0004,-0.0000,0.4468,flat,18.0,0,13.880
7430,237.76,-1.1847,-7.4270,0.1797,0.0003,-0.0000,0.5129,flat,18.0,0,13.350
7440,238.08,-0.7010,-7.1428,0.1797,0.0002,-0.0000,0.5650,flat,18.0,0,12.808
7450,238.40,-0.2303,-6.8336,0.1797,0.0001,-0.0000,0.6058,flat,18.0,0,12.259
7460,238.72,0.2295,-6.5053,0.1797,0.0001,-0.0000,0.6392,flat,18.0,0,11.704
7470,239.04,0.6798,-6.1616,0.1797,0.0001,-0.0000,0.6678,flat,18.0,0,11.146
7480,239.36,1.1217,-5.8049,0.1797,0.0001,-0.0000,0.6925,flat,18.0,0,10.585
7490,239.68,1.5557,-5.4373,0.1797,0.0001,-0.0000,0.7143,flat,18.0,0,10.021
7500,240.00,1.9829,-5.0603,0.1797,0.0001,-0.0000,0.7340,flat,18.0,0,9.455
7510,240.32,2.4034,-4.6748,0.1797,0.0001,-0.0000,0.7518,flat,18.0,0,8.888
7520,240.64,2.8177,-4.2818,0.1797,0.0001,-0.0000,0.7679,flat,18.0,0,8.320
7530,240.96,3.2262,-3.8820,0.1797,0.0001,-0.0000,0.7823,flat,18.0,0,7.751
7540,241.28,3.6294,-3.4764,0.1797,0.0000,-0.0000,0.7956,flat,18.0,0,7.181
7550,241.60,4.0275,-3.0654,0.1797,0.0000,-0.0000,0.8079,flat,18.0,0,6.610
7560,241.92,4.4208,-2.6495,0.1797,0.0000,-0.0000,0.8195,flat,18.0,0,6.039
7570,242.24,4.8095,-2.2290,0.1797,0.0000,-0.0000,0.8304,flat,18.0,0,5.468
7580,242.56,5.1938,-1.8043,0.1797,0.0000,-0.0000,0.8408,flat,18.0,0,4.896
7590,242.88,5.5738,-1.3758,0.1797,0.0000,-0.0000,0.8507,flat,18.0,0,4.325
7600,243.20,5.9496,-0.9435,0.1797,0.0000,-0.0000,0.8604,flat,18.0,0,3.753
7610,243.52,6.3212,-0.5076,0.1797,0.0000,0.0000,0.8703,flat,18.0,0,3.181
7620,243.84,6.6883,-0.0681,0.1797,0.0000,0.0000,0.8805,flat,18.0,0,2.609
7630,244.16,7.0504,0.3749,0.1797,0.0000,0.0000,0.8918,flat,18.0,0,2.038
7640,244.48,7.4068,0.8219,0.1797,0.0000,0.0000,0.9055,flat,18.0,0,1.467
7650,244.80,7.7553,1.2730,0.1797,0.0001,0.0000,0.9248,flat,18.0,0,0.899
7660,245.12,8.0170,1.6644,0.1799,-0.0002,-0.0000,1.1541,flat,18.0,1,5.376
7670,245.44,8.1782,2.1014,0.1799,0.0001,-0.0000,1.4543,flat,18.0,1,5.165
7680,245.76,8.2137,2.5846,0.1799,0.0001,-0.0000,1.6974,flat,18.0,1,4.863
7690,246.08,8.1251,3.0933,0.1799,0.0001,-0.0000,1.9080,flat,18.0,1,4.477
7700,246.40,7.9259,3.5859,0.1799,0.0001,-0.0000,2.0714,flat,18.0,1,4.034
7710,246.72,7.6462,4.0471,0.1799,0.0003,-0.0000,2.1968,flat,18.0,1,3.558
7720,247.04,7.3089,4.4779,0.1798,0.0004,-0.0000,2.2919,flat,18.0,1,3.064
7730,247.36,6.9311,4.8730,0.1798,0.0004,-0.0000,2.3879,flat,18.0,1,2.564
7740,247.68,6.5158,5.2312,0.1798,0.0004,-0.0000,2.4905,flat,18.0,1,2.061
7750,248.00,6.0653,5.5466,0.1799,0.0004,-0.0000,2.6074,flat,18.0,1,1.558
7760,248.32,5.5829,5.8064,0.1799,0.0001,0.0000,2.7564,flat,18.0,1,1.064
7770,248.64,5.0744,5.9784,0.1800,0.0001,-0.0002,2.9353,flat,18.0,2,12.822
7780,248.96,4.5280,6.0747,0.1799,0.0002,-0.0000,3.0667,flat,18.0,2,12.332
7790,249.28,3.9688,6.1044,0.1798,0.0004,-0.0000,-3.1140,flat,18.0,2,11.812
7800,249.60,3.4065,6.0796,0.1798,0.0003,-0.0000,-3.0386,flat,18.0,2,11.275
7810,249.92,2.8455,6.0144,0.1797,0.0002,-0.0000,-2.9817,flat,18.0,2,10.727
7820,250.24,2.2872,5.9184,0.1797,0.0002,-0.0000,-2.9374,flat,18.0,2,10.172
7830,250.56,1.7331,5.7987,0.1797,0.0001,-0.0000,-2.9034,flat,18.0,2,9.613
7840,250.88,1.1819,5.6605,0.1797,0.0001,-0.0000,-2.8749,flat,18.0,2,9.051
7850,251.20,0.6339,5.5069,0.1797,0.0001,-0.0000,-2.8506,flat,18.0,2,8.486
7860,251.52,0.0888,5.3402,0.1797,0.0001,-0.0000,-2.8297,flat,18.0,2,7.920
7870,251.84,-0.4534,5.1622,0.1797,0.0001,-0.0000,-2.8113,flat,18.0,2,7.352
7880,252.16,-0.9929,4.9744,0.1797,0.0001,-0.0000,-2.7951,flat,18.0,2,6.783
7890,252.48,-1.5298,4.7779,0.1797,0.0001,-0.0000,-2.7805,flat,18.0,2,6.213
7900,252.80,-2.0642,4.5737,0.1797,0.0000,-0.0000,-2.7674,flat,18.0,2,5.642
7910,253.12,-2.5961,4.3625,0.1797,0.0000,-0.0000,-2.7552,flat,18.0,2,5.071
7920,253.44,-3.1257,4.1449,0.1797,0.0000,-0.0000,-2.7439,flat,18.0,2,4.500
7930,253.76,-3.6529,3.9213,0.1797,0.0000,-0.0000,-2.7331,flat,18.0,2,3.928
7940,254.08,-4.1778,3.6920,0.1797,0.0000,-0.0000,-2.7226,flat,18.0,2,3.356
7950,254.40,-4.7002,3.4572,0.1797,0.0000,0.0000,-2.7120,flat,18.0,2,2.784
7960,254.72,-5.2199,3.2169,0.1797,0.0000,0.0000,-2.7009,flat,18.0,2,2.212
7970,255.04,-5.7363,2.9708,0.1797,0.0000,0.0000,-2.6883,flat,18.0,2,1.641
7980,255.36,-6.2483,2.7182,0.1797,0.0001,0.0000,-2.6721,flat,18.0,2,1.071
7990,255.68,-6.7049,2.4838,0.1798,-0.0001,0.0002,-2.5476,flat,18.0,3,10.673
8000,256.00,-7.0387,2.2053,0.1799,0.0000,-0.0000,-2.3028,flat,18.0,3,10.487
8010,256.32,-7.3305,1.8197,0.1799,0.0000,-0.0000,-2.0827,flat,18.0,3,10.200
8020,256.64,-7.5588,1.3539,0.1799,0.0001,-0.0000,-1.8842,flat,18.0,3,9.832
8030,256.96,-7.7050,0.8340,0.1799,0.0001,-0.0000,-1.7118,flat,18.0,3,9.397
8040,257.28,-7.7662,0.2848,0.1799,0.0001,-0.0000,-1.5681,flat,18.0,3,8.913
8050,257.60,-7.7518,-0.2727,0.1798,0.0004,-0.0000,-1.4616,flat,18.0,3,8.398
8060,257.92,-7.6810,-0.8285,0.1798,0.0004,-0.0000,-1.3830,flat,18.0,3,7.866
8070,258.24,-7.5681,-1.3797,0.1797,0.0002,-0.0000,-1.3219,flat,18.0,3,7.322
8080,258.56,-7.4224,-1.9250,0.1797,0.0002,-0.0000,-1.2725,flat,18.0,3,6.771
8090,258.88,-7.2503,-2.4634,0.1797,0.0001,-0.0000,-1.2331,flat,18.0,3,6.216
