step,time_s,x,y,z,roll,pitch,yaw,terrain,speed,target_idx,dist_to_target
10,0.32,1.0706,-0.7750,0.1852,-0.0000,-0.0436,-0.0000,rough,15.5,0,5.683
20,0.64,1.5328,-0.7863,0.1799,-0.0000,-0.0004,-0.1586,flat,18.0,0,5.336
30,0.96,2.0499,-0.8918,0.1799,-0.0001,-0.0000,-0.3441,flat,18.0,0,4.901
40,1.28,2.5493,-1.0937,0.1799,-0.0002,-0.0000,-0.4838,flat,18.0,0,4.422
50,1.60,3.0218,-1.3648,0.1798,-0.0004,-0.0000,-0.5921,flat,18.0,0,3.918
60,1.92,3.4700,-1.6872,0.1798,-0.0003,-0.0000,-0.6720,flat,18.0,0,3.397
70,2.24,3.8914,-2.0447,0.1798,-0.0003,-0.0000,-0.7488,flat,18.0,0,2.871
80,2.56,4.2820,-2.4344,0.1798,-0.0003,-0.0000,-0.8286,flat,18.0,0,2.341
90,2.88,4.6413,-2.8548,0.1798,-0.0004,-0.0000,-0.9151,flat,18.0,0,1.808
100,3.20,4.9630,-3.3048,0.1798,-0.0004,-0.0000,-1.0155,flat,18.0,0,1.274
110,3.52,5.2307,-3.7749,0.1813,-0.0003,0.0105,-1.1409,flat,18.0,1,12.045
120,3.84,5.3145,-3.9815,0.1799,0.0005,-0.0012,-0.5256,flat,18.0,1,12.268
130,4.16,5.5411,-4.1138,0.1784,-0.0034,-0.0040,-0.1098,flat,18.0,1,12.472
140,4.48,5.8601,-4.1420,0.1798,-0.0004,-0.0001,0.3749,flat,18.0,1,12.618
150,4.80,6.1678,-3.9852,0.1799,-0.0001,-0.0001,0.7108,flat,18.0,1,12.595
160,5.12,6.4584,-3.6724,0.1799,-0.0000,-0.0000,0.9681,flat,18.0,1,12.435
170,5.44,6.7026,-3.2555,0.1799,0.0000,-0.0000,1.2035,flat,18.0,1,12.174
180,5.76,6.8651,-2.7643,0.1799,0.0000,-0.0000,1.4109,flat,18.0,1,11.821
190,6.08,6.9320,-2.2298,0.1799,0.0001,-0.0000,1.5871,flat,18.0,1,11.394
200,6.40,6.9077,-1.6796,0.1799,0.0002,-0.0000,1.7190,flat,18.0,1,10.914
210,6.72,6.8136,-1.1317,0.1798,0.0004,-0.0000,1.8136,flat,18.0,1,10.405
220,7.04,6.6695,-0.5913,0.1798,0.0003,-0.0000,1.8846,flat,18.0,1,9.877
230,7.36,6.4880,-0.0593,0.1797,0.0002,-0.0000,1.9402,flat,18.0,1,9.338
240,7.68,6.2775,0.4640,0.1797,0.0002,-0.0000,1.9844,flat,18.0,1,8.792
250,8.00,6.0444,0.9788,0.1797,0.0001,-0.0000,2.0196,flat,18.0,1,8.241
260,8.32,5.7933,1.4865,0.1797,0.0001,-0.0000,2.0498,flat,18.0,1,7.686
270,8.64,5.5269,1.9877,0.1797,0.0001,-0.0000,2.0762,flat,18.0,1,7.129
280,8.96,5.2474,2.4828,0.1797,0.0001,-0.0000,2.0996,flat,18.0,1,6.569
290,9.28,4.9563,2.9719,0.1797,0.0001,-0.0000,2.1206,flat,18.0,1,6.008
300,9.60,4.6549,3.4555,0.1797,0.0001,-0.0000,2.1397,flat,18.0,1,5.446
310,9.92,4.3444,3.9337,0.1797,0.0001,-0.0000,2.1575,flat,18.0,1,4.883
320,10.24,4.0253,4.4066,0.1797,0.0001,-0.0000,2.1742,flat,18.0,1,4.321
330,10.56,3.6983,4.8744,0.1797,0.0001,-0.0000,2.1903,flat,18.0,1,3.758
340,10.88,3.3638,5.3369,0.1797,0.0001,-0.0000,2.2062,flat,18.0,1,3.197
350,11.20,3.0220,5.7938,0.1797,0.0001,0.0000,2.2224,flat,18.0,1,2.638
360,11.52,2.6728,6.2446,0.1797,0.0001,0.0000,2.2398,flat,18.0,1,2.082
370,11.84,2.3159,6.6881,0.1797,0.0001,0.0000,2.2601,flat,18.0,1,1.535
380,12.16,1.9503,7.1214,0.1797,0.0001,0.0000,2.2876,flat,18.0,1,1.009
390,12.48,1.6215,7.4868,0.1798,-0.0000,0.0004,2.4486,flat,18.0,2,15.631
400,12.80,1.3184,7.6887,0.1799,-0.0001,-0.0001,2.7969,flat,18.0,2,15.611
410,13.12,0.9016,7.8128,0.1799,0.0000,-0.0000,3.1148,flat,18.0,2,15.471
420,13.44,0.4210,7.8024,0.1799,0.0001,-0.0000,-2.9154,flat,18.0,2,15.194
430,13.76,-0.0727,7.6645,0.1799,0.0001,-0.0000,-2.7299,flat,18.0,2,14.812
440,14.08,-0.5524,7.4291,0.1799,0.0002,-0.0000,-2.5906,flat,18.0,2,14.362
450,14.40,-1.0068,7.1252,0.1798,0.0004,-0.0000,-2.4916,flat,18.0,2,13.870
460,14.72,-1.4388,6.7769,0.1798,0.0003,-0.0000,-2.4221,flat,18.0,2,13.355
470,15.04,-1.8476,6.3983,0.1797,0.0002,-0.0000,-2.3606,flat,18.0,2,12.827
480,15.36,-2.2355,5.9943,0.1797,0.0002,-0.0000,-2.3086,flat,18.0,2,12.289
490,15.68,-2.6045,5.5705,0.1797,0.0002,-0.0000,-2.2643,flat,18.0,2,11.744
500,16.00,-2.9574,5.1308,0.1797,0.0001,-0.0000,-2.2263,flat,18.0,2,11.193
510,16.32,-3.2956,4.6773,0.1797,0.0001,-0.0000,-2.1925,flat,18.0,2,10.637
520,16.64,-3.6202,4.2121,0.1797,0.0001,-0.0000,-2.1626,flat,18.0,2,10.078
530,16.96,-3.9323,3.7369,0.1797,0.0001,-0.0000,-2.1359,flat,18.0,2,9.515
540,17.28,-4.2327,3.2531,0.1797,0.0001,-0.0000,-2.1120,flat,18.0,2,8.951
550,17.60,-4.5226,2.7619,0.1797,0.0001,-0.0000,-2.0905,flat,18.0,2,8.384
560,17.92,-4.8026,2.2643,0.1797,0.0001,-0.0000,-2.0711,flat,18.0,2,7.816
570,18.24,-5.0736,1.7612,0.1797,0.0001,-0.0000,-2.0535,flat,18.0,2,7.247
580,18.56,-5.3362,1.2531,0.1797,0.0001,-0.0000,-2.0373,flat,18.0,2,6.677
590,18.88,-5.5910,0.7406,0.1797,0.0001,-0.0000,-2.0224,flat,18.0,2,6.106
600,19.20,-5.8385,0.2242,0.1797,0.0000,-0.0000,-2.0086,flat,18.0,2,5.535
610,19.52,-6.0792,-0.2957,0.1797,0.0000,-0.0000,-1.9955,flat,18.0,2,4.963
620,19.84,-6.3132,-0.8187,0.1797,0.0000,-0.0000,-1.9830,flat,18.0,2,4.390
630,20.16,-6.5408,-1.3447,0.1797,0.0000,-0.0000,-1.9709,flat,18.0,2,3.818
640,20.48,-6.7621,-1.8734,0.1797,0.0000,-0.0000,-1.9587,flat,18.0,2,3.245
650,20.80,-6.9769,-2.4048,0.1797,0.0000,0.0000,-1.9462,flat,18.0,2,2.672
660,21.12,-7.1848,-2.9385,0.1797,0.0000,0.0000,-1.9324,flat,18.0,2,2.099
670,21.44,-7.3849,-3.4747,0.1797,0.0001,0.0000,-1.9157,flat,18.0,2,1.527
680,21.76,-7.5747,-4.0127,0.1797,0.0001,0.0000,-1.8909,flat,18.0,2,0.957
690,22.08,-7.7459,-4.5207,0.1799,0.0002,0.0000,-2.0174,flat,18.0,0,0.768
700,22.40,-7.8695,-4.8577,0.1798,-0.0003,0.0001,-1.7074,flat,18.0,0,13.219
710,22.72,-7.9046,-5.1947,0.1799,-0.0002,-0.0001,-1.2829,flat,18.0,0,13.266
720,23.04,-7.7822,-5.5429,0.1799,0.0001,-0.0000,-1.0387,flat,18.0,0,13.167
730,23.36,-7.5176,-5.9084,0.1799,0.0001,-0.0000,-0.8045,flat,18.0,0,12.937
740,23.68,-7.1437,-6.2385,0.1799,0.0000,-0.0000,-0.6170,flat,18.0,0,12.606
750,24.00,-6.6951,-6.5195,0.1799,0.0001,-0.0000,-0.4489,flat,18.0,0,12.205
760,24.32,-6.1921,-6.7373,0.1799,0.0001,-0.0000,-0.3034,flat,18.0,0,11.748
770,24.64,-5.6559,-6.8885,0.1799,0.0003,-0.0000,-0.1857,flat,18.0,0,11.253
780,24.96,-5.1021,-6.9807,0.1798,0.0004,-0.0000,-0.0922,flat,18.0,0,10.733
790,25.28,-4.5394,-7.0237,0.1798,0.0003,-0.0000,-0.0174,flat,18.0,0,10.196
800,25.60,-3.9733,-7.0263,0.1797,0.0002,-0.0000,0.0407,flat,18.0,0,9.649
810,25.92,-3.4072,-6.9978,0.1797,0.0002,-0.0000,0.0851,flat,18.0,0,9.096
820,26.24,-2.8419,-6.9451,0.1797,0.0001,-0.0000,0.1204,flat,18.0,0,8.538
830,26.56,-2.2777,-6.8729,0.1797,0.0001,-0.0000,0.1499,flat,18.0,0,7.977
840,26.88,-1.7150,-6.7845,0.1797,0.0001,-0.0000,0.1750,flat,18.0,0,7.414
850,27.20,-1.1538,-6.6822,0.1797,0.0001,-0.0000,0.1968,flat,18.0,0,6.849
860,27.52,-0.5944,-6.5680,0.1797,0.0001,-0.0000,0.2158,flat,18.0,0,6.282
870,27.84,-0.0367,-6.4432,0.1797,0.0001,-0.0000,0.2328,flat,18.0,0,5.715
880,28.16,0.5192,-6.3091,0.1797,0.0001,-0.0000,0.2482,flat,18.0,0,5.146
890,28.48,1.0732,-6.1665,0.1797,0.0001,-0.0000,0.2624,flat,18.0,0,4.578
900,28.80,1.6254,-6.0161,0.1797,0.0000,-0.0000,0.2757,flat,18.0,0,4.009
910,29.12,2.1756,-5.8584,0.1797,0.0000,-0.0000,0.2886,flat,18.0,0,3.440
920,29.44,2.7238,-5.6937,0.1797,0.0000,0.0000,0.3014,flat,18.0,0,2.872
930,29.76,3.2695,-5.5219,0.1797,0.0000,0.0000,0.3148,flat,18.0,0,2.304
940,30.08,3.8124,-5.3428,0.1797,0.0001,0.0000,0.3300,flat,18.0,0,1.739
950,30.40,4.3508,-5.1554,0.1797,0.0001,0.0000,0.3498,flat,18.0,0,1.179
960,30.72,4.8545,-4.9722,0.1798,0.0001,0.0004,0.4359,flat,18.0,1,13.058
970,31.04,5.2072,-4.7755,0.1799,-0.0001,-0.0000,0.6962,flat,18.0,1,12.980
980,31.36,5.5142,-4.4575,0.1799,0.0000,-0.0000,0.9381,flat,18.0,1,12.784
990,31.68,5.7763,-4.0398,0.1799,0.0000,-0.0000,1.1565,flat,18.0,1,12.491
1000,32.00,5.9642,-3.5499,0.1799,0.0001,-0.0000,1.3486,flat,18.0,1,12.115
1010,32.32,6.0655,-3.0157,0.1799,0.0001,-0.0000,1.5115,flat,18.0,1,11.673
1020,32.64,6.0828,-2.4613,0.1799,0.0003,-0.0000,1.6412,flat,18.0,1,11.183
1030,32.96,6.0323,-1.9050,0.1798,0.0004,-0.0000,1.7326,flat,18.0,1,10.666
1040,33.28,5.9332,-1.3523,0.1798,0.0003,-0.0000,1.8008,flat,18.0,1,10.133
1050,33.60,5.7975,-0.8050,0.1797,0.0002,-0.0000,1.8539,flat,18.0,1,9.590
1060,33.92,5.6334,-0.2641,0.1797,0.0002,-0.0000,1.8954,flat,18.0,1,9.040
1070,34.24,5.4476,0.2707,0.1797,0.0001,-0.0000,1.9288,flat,18.0,1,8.486
1080,34.56,5.2441,0.8005,0.1797,0.0001,-0.0000,1.9572,flat,18.0,1,7.929
1090,34.88,5.0258,1.3253,0.1797,0.0001,-0.0000,1.9819,flat,18.0,1,7.369
1100,35.20,4.7946,1.8456,0.1797,0.0001,-0.0000,2.0036,flat,18.0,1,6.807
1110,35.52,4.5522,2.3614,0.1797,0.0001,-0.0000,2.0230,flat,18.0,1,6.244
1120,35.84,4.2998,2.8731,0.1797,0.0001,-0.0000,2.0405,flat,18.0,1,5.680
1130,36.16,4.0386,3.3807,0.1797,0.0001,-0.0000,2.0565,flat,18.0,1,5.115
1140,36.48,3.7692,3.8845,0.1797,0.0001,-0.0000,2.0715,flat,18.0,1,4.551
1150,36.80,3.4923,4.3844,0.1797,0.0001,-0.0000,2.0857,flat,18.0,1,3.986
1160,37.12,3.2083,4.8804,0.1797,0.0000,-0.0000,2.0995,flat,18.0,1,3.422
1170,37.44,2.9175,5.3724,0.1797,0.0000,0.0000,2.1133,flat,18.0,1,2.859
1180,37.76,2.6200,5.8601,0.1797,0.0001,0.0000,2.1277,flat,18.0,1,2.299
1190,38.08,2.3154,6.3428,0.1797,0.0001,0.0000,2.1437,flat,18.0,1,1.744
1200,38.40,2.0031,6.8191,0.1797,0.0001,0.0000,2.1636,flat,18.0,1,1.202
1210,38.72,1.6922,7.2750,0.1797,0.0001,0.0004,2.2269,flat,18.0,2,15.507
1220,39.04,1.4527,7.5254,0.1798,-0.0003,-0.0000,2.5823,flat,18.0,2,15.560
1230,39.36,1.1036,7.7072,0.1799,-0.0000,-0.0001,2.9211,flat,18.0,2,15.500
1240,39.68,0.6562,7.7840,0.1799,0.0000,-0.0000,-3.0612,flat,18.0,2,15.309
1250,40.00,0.1662,7.7221,0.1799,0.0000,-0.0000,-2.8357,flat,18.0,2,14.988
1260,40.32,-0.3236,7.5432,0.1799,0.0001,-0.0000,-2.6707,flat,18.0,2,14.578
1270,40.64,-0.7937,7.2780,0.1799,0.0003,-0.0000,-2.5471,flat,18.0,2,14.109
1280,40.96,-1.2389,6.9538,0.1798,0.0003,-0.0000,-2.4628,flat,18.0,2,13.607
1290,41.28,-1.6614,6.5928,0.1797,0.0002,-0.0000,-2.3962,flat,18.0,2,13.087
1300,41.60,-2.0612,6.2032,0.1797,0.0002,-0.0000,-2.3381,flat,18.0,2,12.555
1310,41.92,-2.4408,5.7904,0.1797,0.0002,-0.0000,-2.2886,flat,18.0,2,12.014
1320,42.24,-2.8024,5.3596,0.1797,0.0001,-0.0000,-2.2470,flat,18.0,2,11.467
1330,42.56,-3.1485,4.9136,0.1797,0.0001,-0.0000,-2.2104,flat,18.0,2,10.914
1340,42.88,-3.4802,4.4546,0.1797,0.0001,-0.0000,-2.1780,flat,18.0,2,10.357
1350,43.20,-3.7986,3.9845,0.1797,0.0001,-0.0000,-2.1492,flat,18.0,2,9.796
1360,43.52,-4.1048,3.5050,0.1797,0.0001,-0.0000,-2.1234,flat,18.0,2,9.233
1370,43.84,-4.3996,3.0174,0.1797,0.0001,-0.0000,-2.1004,flat,18.0,2,8.668
1380,44.16,-4.6840,2.5228,0.1797,0.0001,-0.0000,-2.0796,flat,18.0,2,8.100
1390,44.48,-4.9588,2.0221,0.1797,0.0001,-0.0000,-2.0607,flat,18.0,2,7.532
1400,44.80,-5.2247,1.5160,0.1797,0.0001,-0.0000,-2.0436,flat,18.0,2,6.962
1410,45.12,-5.4825,1.0053,0.1797,0.0001,-0.0000,-2.0278,flat,18.0,2,6.392
1420,45.44,-5.7325,0.4904,0.1797,0.0001,-0.0000,-2.0132,flat,18.0,2,5.821
1430,45.76,-5.9754,-0.0283,0.1797,0.0000,-0.0000,-1.9995,flat,18.0,2,5.249
1440,46.08,-6.2114,-0.5503,0.1797,0.0000,-0.0000,-1.9866,flat,18.0,2,4.677
1450,46.40,-6.4408,-1.0755,0.1797,0.0000,-0.0000,-1.9741,flat,18.0,2,4.105
1460,46.72,-6.6637,-1.6035,0.1797,0.0000,-0.0000,-1.9618,flat,18.0,2,3.532
1470,47.04,-6.8802,-2.1341,0.1797,0.0000,0.0000,-1.9493,flat,18.0,2,2.959
1480,47.36,-7.0899,-2.6674,0.1797,0.0000,0.0000,-1.9361,flat,18.0,2,2.387
1490,47.68,-7.2922,-3.2030,0.1797,0.0001,0.0000,-1.9210,flat,18.0,2,1.814
1500,48.00,-7.4856,-3.7409,0.1797,0.0001,0.0000,-1.9012,flat,18.0,2,1.243
1510,48.32,-7.6607,-4.2734,0.1797,0.0001,0.0001,-1.9093,flat,18.0,3,0.977
1520,48.64,-7.8138,-4.7075,0.1798,-0.0002,0.0003,-1.8748,rough,15.5,0,13.160
1530,48.96,-7.9043,-5.0213,0.1798,-0.0001,-0.0001,-1.4758,flat,18.0,0,13.259
1540,49.28,-7.8588,-5.3598,0.1799,0.0000,-0.0000,-1.1774,rough,15.5,0,13.230
1550,49.60,-7.6819,-5.7169,0.1799,-0.0000,-0.0001,-0.9346,flat,18.0,0,13.081
1560,49.92,-7.3675,-6.0695,0.1799,0.0000,-0.0000,-0.7261,flat,18.0,0,12.806
1570,50.24,-6.9611,-6.3818,0.1799,0.0000,-0.0000,-0.5457,flat,18.0,0,12.446
1580,50.56,-6.4880,-6.6380,0.1799,0.0001,-0.0000,-0.3861,flat,18.0,0,12.021
1590,50.88,-5.9689,-6.8280,0.1799,0.0002,-0.0000,-0.2511,flat,18.0,0,11.547
1600,51.20,-5.4242,-6.9534,0.1798,0.0004,-0.0000,-0.1437,flat,18.0,0,11.040
1610,51.52,-4.8659,-7.0237,0.1798,0.0004,-0.0000,-0.0581,flat,18.0,0,10.513
1620,51.84,-4.3011,-7.0483,0.1798,0.0003,-0.0000,0.0104,flat,18.0,0,9.972
1630,52.16,-3.7350,-7.0361,0.1797,0.0002,-0.0000,0.0618,flat,18.0,0,9.422
1640,52.48,-3.1692,-6.9960,0.1797,0.0001,-0.0000,0.1022,flat,18.0,0,8.867
1650,52.80,-2.6045,-6.9338,0.1797,0.0001,-0.0000,0.1349,flat,18.0,0,8.307
1660,53.12,-2.0410,-6.8537,0.1797,0.0001,-0.0000,0.1626,flat,18.0,0,7.745
1670,53.44,-1.4791,-6.7582,0.1797,0.0001,-0.0000,0.1862,flat,18.0,0,7.181
1680,53.76,-0.9188,-6.6498,0.1797,0.0001,-0.0000,0.2068,flat,18.0,0,6.616
1690,54.08,-0.3604,-6.5300,0.1797,0.0001,-0.0000,0.2250,flat,18.0,0,6.049
1700,54.40,0.1963,-6.4001,0.1797,0.0001,-0.0000,0.2413,flat,18.0,0,5.481
1710,54.72,0.7511,-6.2613,0.1797,0.0001,-0.0000,0.2562,flat,18.0,0,4.912
1720,55.04,1.3041,-6.1143,0.1797,0.0000,-0.0000,0.2700,flat,18.0,0,4.344
1730,55.36,1.8552,-5.9598,0.1797,0.0000,-0.0000,0.2831,flat,18.0,0,3.775
1740,55.68,2.4042,-5.7980,0.1797,0.0000,-0.0000,0.2959,flat,18.0,0,3.206
1750,56.00,2.9510,-5.6292,0.1797,0.0000,0.0000,0.3089,flat,18.0,0,2.638
1760,56.32,3.4953,-5.4533,0.1797,0.0000,0.0000,0.3229,flat,18.0,0,2.071
1770,56.64,4.0361,-5.2697,0.1797,0.0001,0.0000,0.3395,flat,18.0,0,1.508
1780,56.96,4.5714,-5.0772,0.1797,0.0001,0.0000,0.3637,flat,18.0,0,0.953
1790,57.28,5.0095,-4.9033,0.1798,-0.0003,0.0001,0.5364,flat,18.0,1,13.039
1800,57.60,5.3398,-4.6594,0.1799,-0.0000,-0.0000,0.8005,flat,18.0,1,12.914
1810,57.92,5.6319,-4.2963,0.1799,0.0000,-0.0000,1.0309,flat,18.0,1,12.675
1820,58.24,5.8661,-3.8455,0.1799,0.0001,-0.0000,1.2392,flat,18.0,1,12.347
1830,58.56,6.0187,-3.3342,0.1799,0.0001,-0.0000,1.4192,flat,18.0,1,11.941
1840,58.88,6.0844,-2.7890,0.1799,0.0001,-0.0000,1.5698,flat,18.0,1,11.477
1850,59.20,6.0712,-2.2324,0.1798,0.0004,-0.0000,1.6823,flat,18.0,1,10.974
1860,59.52,5.9989,-1.6772,0.1798,0.0004,-0.0000,1.7629,flat,18.0,1,10.450
1870,59.84,5.8835,-1.1267,0.1797,0.0002,-0.0000,1.8243,flat,18.0,1,9.912
1880,60.16,5.7353,-0.5819,0.1797,0.0002,-0.0000,1.8727,flat,18.0,1,9.366
1890,60.48,5.5614,-0.0438,0.1797,0.0001,-0.0000,1.9100,flat,18.0,1,8.814
1900,60.80,5.3679,0.4889,0.1797,0.0001,-0.0000,1.9411,flat,18.0,1,8.259
1910,61.12,5.1580,1.0166,0.1797,0.0001,-0.0000,1.9679,flat,18.0,1,7.700
1920,61.44,4.9340,1.5395,0.1797,0.0001,-0.0000,1.9913,flat,18.0,1,7.140
1930,61.76,4.6979,2.0579,0.1797,0.0001,-0.0000,2.0120,flat,18.0,1,6.577
1940,62.08,4.4512,2.5719,0.1797,0.0001,-0.0000,2.0305,flat,18.0,1,6.014
1950,62.40,4.1950,3.0819,0.1797,0.0001,-0.0000,2.0474,flat,18.0,1,5.449
1960,62.72,3.9302,3.5879,0.1797,0.0001,-0.0000,2.0630,flat,18.0,1,4.884
1970,63.04,3.6576,4.0900,0.1797,0.0001,-0.0000,2.0776,flat,18.0,1,4.320
1980,63.36,3.3777,4.5882,0.1797,0.0000,-0.0000,2.0916,flat,18.0,1,3.755
1990,63.68,3.0908,5.0826,0.1797,0.0000,-0.0000,2.1053,flat,18.0,1,3.191
2000,64.00,2.7971,5.5728,0.1797,0.0000,0.0000,2.1193,flat,18.0,1,2.629
2010,64.32,2.4966,6.0585,0.1797,0.0001,0.0000,2.1342,flat,18.0,1,2.071
2020,64.64,2.1889,6.5388,0.1797,0.0001,0.0000,2.1514,flat,18.0,1,1.520
2030,64.96,1.8731,7.0115,0.1797,0.0001,0.0000,2.1743,flat,18.0,1,0.989
2040,65.28,1.6017,7.3994,0.1798,-0.0001,0.0003,2.3692,flat,18.0,2,15.550
2050,65.60,1.3247,7.6101,0.1798,-0.0001,-0.0001,2.7216,flat,18.0,2,15.552
2060,65.92,0.9416,7.7551,0.1799,0.0000,-0.0001,3.0294,flat,18.0,2,15.446
2070,66.24,0.4730,7.7847,0.1799,0.0000,-0.0001,-2.9760,flat,18.0,2,15.208
2080,66.56,-0.0204,7.6799,0.1799,0.0001,-0.0000,-2.7751,flat,18.0,2,14.853
2090,66.88,-0.5050,7.4689,0.1799,0.0001,-0.0000,-2.6246,flat,18.0,2,14.420
2100,67.20,-0.9661,7.1812,0.1798,0.0004,-0.0000,-2.5136,flat,18.0,2,13.939
2110,67.52,-1.4035,6.8423,0.1798,0.0003,-0.0000,-2.4386,flat,18.0,2,13.429
2120,67.84,-1.8178,6.4709,0.1797,0.0002,-0.0000,-2.3745,flat,18.0,2,12.905
2130,68.16,-2.2103,6.0725,0.1797,0.0002,-0.0000,-2.3197,flat,18.0,2,12.370
2140,68.48,-2.5830,5.6528,0.1797,0.0002,-0.0000,-2.2728,flat,18.0,2,11.827
2150,68.80,-2.9387,5.2163,0.1797,0.0001,-0.0000,-2.2330,flat,18.0,2,11.278
2160,69.12,-3.2793,4.7653,0.1797,0.0001,-0.0000,-2.1978,flat,18.0,2,10.723
2170,69.44,-3.6058,4.3019,0.1797,0.0001,-0.0000,-2.1665,flat,18.0,2,10.165
2180,69.76,-3.9193,3.8281,0.1797,0.0001,-0.0000,-2.1387,flat,18.0,2,9.604
2190,70.08,-4.2208,3.3452,0.1797,0.0001,-0.0000,-2.1138,flat,18.0,2,9.040
2200,70.40,-4.5112,2.8547,0.1797,0.0001,-0.0000,-2.0915,flat,18.0,2,8.474
2210,70.72,-4.7915,2.3575,0.1797,0.0001,-0.0000,-2.0714,flat,18.0,2,7.906
2220,71.04,-5.0624,1.8544,0.1797,0.0001,-0.0000,-2.0531,flat,18.0,2,7.337
2230,71.36,-5.3247,1.3463,0.1797,0.0001,-0.0000,-2.0364,flat,18.0,2,6.767
2240,71.68,-5.5789,0.8336,0.1797,0.0001,-0.0000,-2.0210,flat,18.0,2,6.197
2250,72.00,-5.8255,0.3170,0.1797,0.0001,-0.0000,-2.0067,flat,18.0,2,5.626
2260,72.32,-6.0651,-0.2033,0.1797,0.0000,-0.0000,-1.9933,flat,18.0,2,5.054
2270,72.64,-6.2979,-0.7268,0.1797,0.0000,-0.0000,-1.9805,flat,18.0,2,4.481
2280,72.96,-6.5241,-1.2534,0.1797,0.0000,-0.0000,-1.9681,flat,18.0,2,3.909
2290,73.28,-6.7439,-1.7827,0.1797,0.0000,-0.0000,-1.9558,flat,18.0,2,3.336
2300,73.60,-6.9571,-2.3146,0.1797,0.0000,0.0000,-1.9431,flat,18.0,2,2.763
2310,73.92,-7.1634,-2.8491,0.1797,0.0000,0.0000,-1.9294,flat,18.0,2,2.191
2320,74.24,-7.3620,-3.3859,0.1797,0.0001,0.0000,-1.9131,flat,18.0,2,1.619
2330,74.56,-7.5507,-3.9247,0.1797,0.0001,0.0000,-1.8901,flat,18.0,2,1.048
2340,74.88,-7.7171,-4.4451,0.1798,0.0002,0.0000,-1.9670,flat,18.0,3,0.831
2350,75.20,-7.8395,-4.8189,0.1799,-0.0005,0.0000,-1.6975,rough,15.5,0,13.188
2360,75.52,-7.8750,-5.1362,0.1799,-0.0001,-0.0000,-1.3402,rough,15.5,0,13.234
2370,75.84,-7.7763,-5.4803,0.1799,0.0000,-0.0000,-1.0814,rough,15.5,0,13.156
2380,76.16,-7.5420,-5.8429,0.1799,0.0000,-0.0000,-0.8462,flat,18.0,0,12.954
2390,76.48,-7.1865,-6.1810,0.1799,0.0000,-0.0000,-0.6532,flat,18.0,0,12.641
2400,76.80,-6.7514,-6.4733,0.1799,0.0001,-0.0000,-0.4808,flat,18.0,0,12.253
2410,77.12,-6.2577,-6.7042,0.1799,0.0001,-0.0000,-0.3302,flat,18.0,0,11.806
2420,77.44,-5.7265,-6.8682,0.1799,0.0003,-0.0000,-0.2065,flat,18.0,0,11.317
2430,77.76,-5.1754,-6.9711,0.1798,0.0004,-0.0000,-0.1085,flat,18.0,0,10.802
2440,78.08,-4.6139,-7.0227,0.1798,0.0004,-0.0000,-0.0301,flat,18.0,0,10.268
2450,78.40,-4.0480,-7.0321,0.1797,0.0002,-0.0000,0.0317,flat,18.0,0,9.723
2460,78.72,-3.4821,-7.0085,0.1797,0.0002,-0.0000,0.0782,flat,18.0,0,9.171
2470,79.04,-2.9166,-6.9595,0.1797,0.0001,-0.0000,0.1151,flat,18.0,0,8.614
2480,79.36,-2.3523,-6.8903,0.1797,0.0001,-0.0000,0.1457,flat,18.0,0,8.054
2490,79.68,-1.7893,-6.8042,0.1797,0.0001,-0.0000,0.1716,flat,18.0,0,7.491
2500,80.00,-1.2280,-6.7038,0.1797,0.0001,-0.0000,0.1940,flat,18.0,0,6.926
2510,80.32,-0.6684,-6.5911,0.1797,0.0001,-0.0000,0.2136,flat,18.0,0,6.360
2520,80.64,-0.1106,-6.4675,0.1797,0.0001,-0.0000,0.2311,flat,18.0,0,5.792
2530,80.96,0.4454,-6.3343,0.1797,0.0001,-0.0000,0.2468,flat,18.0,0,5.224
2540,81.28,0.9996,-6.1925,0.1797,0.0001,-0.0000,0.2613,flat,18.0,0,4.656
2550,81.60,1.5519,-6.0427,0.1797,0.0000,-0.0000,0.2748,flat,18.0,0,4.087
2560,81.92,2.1022,-5.8855,0.1797,0.0000,-0.0000,0.2878,flat,18.0,0,3.518
2570,82.24,2.6504,-5.7211,0.1797,0.0000,0.0000,0.3007,flat,18.0,0,2.950
2580,82.56,3.1963,-5.5497,0.1797,0.0000,0.0000,0.3141,flat,18.0,0,2.382
2590,82.88,3.7393,-5.3709,0.1797,0.0001,0.0000,0.3291,flat,18.0,0,1.817
2600,83.20,4.2782,-5.1839,0.1797,0.0001,0.0000,0.3482,flat,18.0,0,1.256
2610,83.52,4.8065,-4.9900,0.1797,0.0000,0.0002,0.3976,flat,18.0,1,13.061
2620,83.84,5.1741,-4.8097,0.1799,-0.0002,0.0000,0.6464,flat,18.0,1,13.001
2630,84.16,5.4863,-4.5143,0.1799,0.0000,-0.0000,0.8971,flat,18.0,1,12.827
2640,84.48,5.7586,-4.1125,0.1799,0.0000,-0.0000,1.1200,flat,18.0,1,12.552
2650,84.80,5.9607,-3.6335,0.1799,0.0001,-0.0000,1.3174,flat,18.0,1,12.190
2660,85.12,6.0770,-3.1054,0.1799,0.0001,-0.0000,1.4855,flat,18.0,1,11.759
2670,85.44,6.1079,-2.5531,0.1799,0.0002,-0.0000,1.6226,flat,18.0,1,11.277
2680,85.76,6.0672,-1.9965,0.1798,0.0004,-0.0000,1.7197,flat,18.0,1,10.764
2690,86.08,5.9749,-1.4432,0.1798,0.0003,-0.0000,1.7915,flat,18.0,1,10.233
2700,86.40,5.8441,-0.8952,0.1797,0.0002,-0.0000,1.8470,flat,18.0,1,9.692
2710,86.72,5.6837,-0.3533,0.1797,0.0002,-0.0000,1.8907,flat,18.0,1,9.143
2720,87.04,5.5004,0.1821,0.1797,0.0001,-0.0000,1.9251,flat,18.0,1,8.590
2730,87.36,5.2989,0.7123,0.1797,0.0001,-0.0000,1.9544,flat,18.0,1,8.033
2740,87.68,5.0820,1.2376,0.1797,0.0001,-0.0000,1.9797,flat,18.0,1,7.473
2750,88.00,4.8519,1.7582,0.1797,0.0001,-0.0000,2.0019,flat,18.0,1,6.912
2760,88.32,4.6104,2.2743,0.1797,0.0001,-0.0000,2.0217,flat,18.0,1,6.349
2770,88.64,4.3587,2.7862,0.1797,0.0001,-0.0000,2.0395,flat,18.0,1,5.785
2780,88.96,4.0979,3.2940,0.1797,0.0001,-0.0000,2.0558,flat,18.0,1,5.221
2790,89.28,3.8289,3.7978,0.1797,0.0001,-0.0000,2.0710,flat,18.0,1,4.656
2800,89.60,3.5523,4.2978,0.1797,0.0001,-0.0000,2.0853,flat,18.0,1,4.091
2810,89.92,3.2685,4.7939,0.1797,0.0000,-0.0000,2.0992,flat,18.0,1,3.527
2820,90.24,2.9778,5.2860,0.1797,0.0000,0.0000,2.1130,flat,18.0,1,2.964
2830,90.56,2.6804,5.7739,0.1797,0.0001,0.0000,2.1272,flat,18.0,1,2.403
2840,90.88,2.3760,6.2569,0.1797,0.0001,0.0000,2.1429,flat,18.0,1,1.847
2850,91.20,2.0642,6.7338,0.1797,0.0001,0.0000,2.1618,flat,18.0,1,1.302
2860,91.52,1.7436,7.2013,0.1797,0.0001,0.0000,2.1897,flat,18.0,2,0.788
2870,91.84,1.5029,7.4910,0.1798,-0.0003,0.0000,2.5149,flat,18.0,2,15.563
2880,92.16,1.1776,7.6841,0.1799,-0.0001,-0.0001,2.8586,flat,18.0,2,15.525
2890,92.48,0.7767,7.7851,0.1799,0.0001,-0.0001,3.1234,flat,18.0,2,15.377
2900,92.80,0.2955,7.7710,0.1799,0.0000,-0.0000,-2.9060,flat,18.0,2,15.099
2910,93.12,-0.1972,7.6295,0.1799,0.0001,-0.0000,-2.7229,flat,18.0,2,14.717
2920,93.44,-0.6753,7.3910,0.1799,0.0002,-0.0000,-2.5849,flat,18.0,2,14.267
2930,93.76,-1.1280,7.0844,0.1798,0.0004,-0.0000,-2.4863,flat,18.0,2,13.775
2940,94.08,-1.5581,6.7337,0.1798,0.0003,-0.0000,-2.4170,flat,18.0,2,13.260
2950,94.40,-1.9648,6.3530,0.1797,0.0002,-0.0000,-2.3553,flat,18.0,2,12.732
2960,94.72,-2.3504,5.9469,0.1797,0.0002,-0.0000,-2.3028,flat,18.0,2,12.194
2970,95.04,-2.7169,5.5212,0.1797,0.0002,-0.0000,-2.2585,flat,18.0,2,11.649
2980,95.36,-3.0671,5.0794,0.1797,0.0001,-0.0000,-2.2201,flat,18.0,2,11.099
2990,95.68,-3.4025,4.6239,0.1797,0.0001,-0.0000,-2.1861,flat,18.0,2,10.543
3000,96.00,-3.7241,4.1565,0.1797,0.0001,-0.0000,-2.1559,flat,18.0,2,9.984
3010,96.32,-4.0330,3.6792,0.1797,0.0001,-0.0000,-2.1289,flat,18.0,2,9.421
3020,96.64,-4.3301,3.1934,0.1797,0.0001,-0.0000,-2.1049,flat,18.0,2,8.857
3030,96.96,-4.6164,2.7002,0.1797,0.0001,-0.0000,-2.0832,flat,18.0,2,8.290
3040,97.28,-4.8928,2.2005,0.1797,0.0001,-0.0000,-2.0636,flat,18.0,2,7.722
3050,97.60,-5.1600,1.6954,0.1797,0.0001,-0.0000,-2.0458,flat,18.0,2,7.153
3060,97.92,-5.4188,1.1853,0.1797,0.0001,-0.0000,-2.0296,flat,18.0,2,6.583
3070,98.24,-5.6696,0.6708,0.1797,0.0001,-0.0000,-2.0145,flat,18.0,2,6.012
3080,98.56,-5.9130,0.1525,0.1797,0.0000,-0.0000,-2.0005,flat,18.0,2,5.440
3090,98.88,-6.1494,-0.3693,0.1797,0.0000,-0.0000,-1.9873,flat,18.0,2,4.869
3100,99.20,-6.3791,-0.8942,0.1797,0.0000,-0.0000,-1.9746,flat,18.0,2,4.296
3110,99.52,-6.6023,-1.4221,0.1797,0.0000,-0.0000,-1.9623,flat,18.0,2,3.724
3120,99.84,-6.8190,-1.9527,0.1797,0.0000,-0.0000,-1.9499,flat,18.0,2,3.151
3130,100.16,-7.0290,-2.4858,0.1797,0.0000,0.0000,-1.9369,flat,18.0,2,2.578
3140,100.48,-7.2319,-3.0214,0.1797,0.0001,0.0000,-1.9226,flat,18.0,2,2.005
3150,100.80,-7.4266,-3.5593,0.1797,0.0001,0.0000,-1.9048,flat,18.0,2,1.433
3160,101.12,-7.6101,-4.0988,0.1797,0.0001,0.0000,-1.8770,flat,18.0,2,0.864
3170,101.44,-7.7697,-4.5932,0.1800,-0.0005,0.0004,-1.9297,flat,18.0,0,13.115
3180,101.76,-7.8667,-4.9164,0.1798,-0.0002,0.0000,-1.6196,flat,18.0,0,13.217
3190,102.08,-7.8734,-5.2491,0.1799,-0.0000,-0.0001,-1.2543,flat,18.0,0,13.238
3200,102.40,-7.7320,-5.6072,0.1799,0.0001,-0.0001,-0.9955,flat,18.0,0,13.122
3210,102.72,-7.4468,-5.9684,0.1799,0.0001,-0.0000,-0.7730,flat,18.0,0,12.873
3220,103.04,-7.0595,-6.2918,0.1799,0.0000,-0.0000,-0.5885,flat,18.0,0,12.530
3230,103.36,-6.6008,-6.5633,0.1799,0.0001,-0.0000,-0.4238,flat,18.0,0,12.119
3240,103.68,-6.0910,-6.7701,0.1799,0.0001,-0.0000,-0.2822,flat,18.0,0,11.655
3250,104.00,-5.5512,-6.9110,0.1799,0.0004,-0.0000,-0.1687,flat,18.0,0,11.155
3260,104.32,-4.9955,-6.9944,0.1798,0.0004,-0.0000,-0.0785,flat,18.0,0,10.632
3270,104.64,-4.4318,-7.0300,0.1798,0.0003,-0.0000,-0.0062,flat,18.0,0,10.093
3280,104.96,-3.8657,-7.0266,0.1797,0.0002,-0.0000,0.0492,flat,18.0,0,9.545
3290,105.28,-3.2997,-6.9934,0.1797,0.0002,-0.0000,0.0920,flat,18.0,0,8.991
3300,105.60,-2.7346,-6.9369,0.1797,0.0001,-0.0000,0.1262,flat,18.0,0,8.433
3310,105.92,-2.1706,-6.8615,0.1797,0.0001,-0.0000,0.1549,flat,18.0,0,7.872
3320,106.24,-1.6082,-6.7704,0.1797,0.0001,-0.0000,0.1795,flat,18.0,0,7.308
3330,106.56,-1.0474,-6.6656,0.1797,0.0001,-0.0000,0.2008,flat,18.0,0,6.742
3340,106.88,-0.4883,-6.5492,0.1797,0.0001,-0.0000,0.2195,flat,18.0,0,6.176
3350,107.20,0.0689,-6.4224,0.1797,0.0001,-0.0000,0.2362,flat,18.0,0,5.608
3360,107.52,0.6244,-6.2864,0.1797,0.0001,-0.0000,0.2514,flat,18.0,0,5.040
3370,107.84,1.1780,-6.1420,0.1797,0.0001,-0.0000,0.2655,flat,18.0,0,4.471
3380,108.16,1.7297,-5.9900,0.1797,0.0000,-0.0000,0.2787,flat,18.0,0,3.902
3390,108.48,2.2795,-5.8306,0.1797,0.0000,-0.0000,0.2916,flat,18.0,0,3.333
3400,108.80,2.8271,-5.6642,0.1797,0.0000,0.0000,0.3045,flat,18.0,0,2.765
3410,109.12,3.3722,-5.4907,0.1797,0.0000,0.0000,0.3182,flat,18.0,0,2.198
3420,109.44,3.9142,-5.3098,0.1797,0.0001,0.0000,0.3340,flat,18.0,0,1.634
3430,109.76,4.4514,-5.1202,0.1797,0.0001,0.0000,0.3556,flat,18.0,0,1.076
3440,110.08,4.9376,-4.9395,0.1798,0.0000,0.0004,0.4652,flat,18.0,1,13.051
3450,110.40,5.2833,-4.7295,0.1799,-0.0000,-0.0000,0.7292,flat,18.0,1,12.961
3460,110.72,5.5857,-4.3975,0.1799,0.0000,-0.0000,0.9669,flat,18.0,1,12.753
3470,111.04,5.8394,-3.9695,0.1799,0.0000,-0.0000,1.1830,flat,18.0,1,12.450
3480,111.36,6.0162,-3.4728,0.1799,0.0001,-0.0000,1.3722,flat,18.0,1,12.066
3490,111.68,6.1059,-2.9349,0.1799,0.0001,-0.0000,1.5323,flat,18.0,1,11.618
3500,112.00,6.1124,-2.3798,0.1799,0.0003,-0.0000,1.6562,flat,18.0,1,11.124
3510,112.32,6.0539,-1.8239,0.1798,0.0004,-0.0000,1.7444,flat,18.0,1,10.605
3520,112.64,5.9484,-1.2722,0.1797,0.0003,-0.0000,1.8106,flat,18.0,1,10.071
3530,112.96,5.8075,-0.7261,0.1797,0.0002,-0.0000,1.8623,flat,18.0,1,9.527
3540,113.28,5.6389,-0.1865,0.1797,0.0001,-0.0000,1.9026,flat,18.0,1,8.977
3550,113.60,5.4493,0.3472,0.1797,0.0001,-0.0000,1.9353,flat,18.0,1,8.422
3560,113.92,5.2424,0.8757,0.1797,0.0001,-0.0000,1.9633,flat,18.0,1,7.864
3570,114.24,5.0208,1.3993,0.1797,0.0001,-0.0000,1.9877,flat,18.0,1,7.304
3580,114.56,4.7866,1.9183,0.1797,0.0001,-0.0000,2.0091,flat,18.0,1,6.742
3590,114.88,4.5414,2.4328,0.1797,0.0001,-0.0000,2.0282,flat,18.0,1,6.179
3600,115.20,4.2863,2.9432,0.1797,0.0001,-0.0000,2.0456,flat,18.0,1,5.615
3610,115.52,4.0225,3.4495,0.1797,0.0001,-0.0000,2.0615,flat,18.0,1,5.051
3620,115.84,3.7506,3.9519,0.1797,0.0001,-0.0000,2.0764,flat,18.0,1,4.486
3630,116.16,3.4712,4.4504,0.1797,0.0001,-0.0000,2.0906,flat,18.0,1,3.921
3640,116.48,3.1848,4.9451,0.1797,0.0000,-0.0000,2.1044,flat,18.0,1,3.357
3650,116.80,2.8916,5.4356,0.1797,0.0000,0.0000,2.1183,flat,18.0,1,2.795
3660,117.12,2.5915,5.9217,0.1797,0.0001,0.0000,2.1328,flat,18.0,1,2.235
3670,117.44,2.2845,6.4027,0.1797,0.0001,0.0000,2.1492,flat,18.0,1,1.681
3680,117.76,1.9696,6.8770,0.1797,0.0001,0.0000,2.1699,flat,18.0,1,1.142
3690,118.08,1.6653,7.3190,0.1798,0.0000,0.0004,2.2608,flat,18.0,2,15.526
3700,118.40,1.4187,7.5547,0.1798,-0.0003,-0.0001,2.6215,flat,18.0,2,15.563
3710,118.72,1.0563,7.7283,0.1799,-0.0000,-0.0001,2.9572,flat,18.0,2,15.490
3720,119.04,0.6178,7.7926,0.1799,-0.0000,-0.0000,-3.0510,flat,18.0,2,15.295
3730,119.36,0.1270,7.7261,0.1799,0.0000,-0.0000,-2.8298,flat,18.0,2,14.971
3740,119.68,-0.3623,7.5440,0.1799,0.0001,-0.0000,-2.6660,flat,18.0,2,14.558
3750,120.00,-0.8313,7.2766,0.1799,0.0003,-0.0000,-2.5432,flat,18.0,2,14.089
3760,120.32,-1.2755,6.9506,0.1798,0.0003,-0.0000,-2.4597,flat,18.0,2,13.586
3770,120.64,-1.6969,6.5883,0.1797,0.0002,-0.0000,-2.3932,flat,18.0,2,13.066
3780,120.96,-2.0956,6.1975,0.1797,0.0002,-0.0000,-2.3353,flat,18.0,2,12.534
3790,121.28,-2.4740,5.7836,0.1797,0.0002,-0.0000,-2.2859,flat,18.0,2,11.993
3800,121.60,-2.8345,5.3519,0.1797,0.0001,-0.0000,-2.2444,flat,18.0,2,11.445
3810,121.92,-3.1795,4.9050,0.1797,0.0001,-0.0000,-2.2078,flat,18.0,2,10.893
3820,122.24,-3.5101,4.4451,0.1797,0.0001,-0.0000,-2.1754,flat,18.0,2,10.335
3830,122.56,-3.8273,3.9742,0.1797,0.0001,-0.0000,-2.1466,flat,18.0,2,9.775
3840,122.88,-4.1323,3.4939,0.1797,0.0001,-0.0000,-2.1209,flat,18.0,2,9.211
3850,123.20,-4.4259,3.0055,0.1797,0.0001,-0.0000,-2.0978,flat,18.0,2,8.646
3860,123.52,-4.7090,2.5102,0.1797,0.0001,-0.0000,-2.0770,flat,18.0,2,8.079
3870,123.84,-4.9826,2.0088,0.1797,0.0001,-0.0000,-2.0582,flat,18.0,2,7.510
3880,124.16,-5.2473,1.5020,0.1797,0.0001,-0.0000,-2.0411,flat,18.0,2,6.941
3890,124.48,-5.5038,0.9906,0.1797,0.0001,-0.0000,-2.0253,flat,18.0,2,6.371
3900,124.80,-5.7525,0.4751,0.1797,0.0001,-0.0000,-2.0107,flat,18.0,2,5.799
3910,125.12,-5.9941,-0.0442,0.1797,0.0000,-0.0000,-1.9970,flat,18.0,2,5.228
3920,125.44,-6.2288,-0.5668,0.1797,0.0000,-0.0000,-1.9841,flat,18.0,2,4.656
3930,125.76,-6.4569,-1.0925,0.1797,0.0000,-0.0000,-1.9716,flat,18.0,2,4.083
3940,126.08,-6.6785,-1.6211,0.1797,0.0000,-0.0000,-1.9593,flat,18.0,2,3.511
3950,126.40,-6.8936,-2.1523,0.1797,0.0000,0.0000,-1.9468,flat,18.0,2,2.938
3960,126.72,-7.1019,-2.6860,0.1797,0.0000,0.0000,-1.9335,flat,18.0,2,2.365
3970,127.04,-7.3028,-3.2222,0.1797,0.0001,0.0000,-1.9182,flat,18.0,2,1.793
3980,127.36,-7.4947,-3.7605,0.1797,0.0001,0.0000,-1.8981,flat,18.0,2,1.221
3990,127.68,-7.6679,-4.2934,0.1797,0.0001,0.0001,-1.9056,flat,18.0,3,0.959
4000,128.00,-7.8095,-4.7220,0.1798,-0.0002,0.0004,-1.8066,flat,18.0,0,13.156
4010,128.32,-7.8781,-5.0360,0.1798,-0.0000,0.0000,-1.4325,rough,15.5,0,13.233
4020,128.64,-7.8176,-5.3757,0.1799,-0.0000,-0.0000,-1.1479,rough,15.5,0,13.190
4030,128.96,-7.6269,-5.7321,0.1799,-0.0000,-0.0001,-0.9125,flat,18.0,0,13.028
4040,129.28,-7.3019,-6.0814,0.1799,0.0000,-0.0000,-0.7086,flat,18.0,0,12.743
4050,129.60,-6.8884,-6.3895,0.1799,0.0000,-0.0000,-0.5302,flat,18.0,0,12.375
4060,129.92,-6.4101,-6.6399,0.1799,0.0001,-0.0000,-0.3729,flat,18.0,0,11.944
4070,130.24,-5.8879,-6.8239,0.1799,0.0002,-0.0000,-0.2407,flat,18.0,0,11.466
4080,130.56,-5.3416,-6.9441,0.1798,0.0004,-0.0000,-0.1357,flat,18.0,0,10.958
4090,130.88,-4.7825,-7.0102,0.1798,0.0004,-0.0000,-0.0520,flat,18.0,0,10.429
4100,131.20,-4.2174,-7.0316,0.1797,0.0003,-0.0000,0.0151,flat,18.0,0,9.886
4110,131.52,-3.6513,-7.0169,0.1797,0.0002,-0.0000,0.0651,flat,18.0,0,9.336
4120,131.84,-3.0855,-6.9750,0.1797,0.0001,-0.0000,0.1047,flat,18.0,0,8.780
4130,132.16,-2.5208,-6.9115,0.1797,0.0001,-0.0000,0.1369,flat,18.0,0,8.221
4140,132.48,-1.9574,-6.8303,0.1797,0.0001,-0.0000,0.1641,flat,18.0,0,7.659
4150,132.80,-1.3956,-6.7340,0.1797,0.0001,-0.0000,0.1875,flat,18.0,0,7.094
4160,133.12,-0.8354,-6.6248,0.1797,0.0001,-0.0000,0.2079,flat,18.0,0,6.529
4170,133.44,-0.2770,-6.5044,0.1797,0.0001,-0.0000,0.2259,flat,18.0,0,5.962
4180,133.76,0.2795,-6.3741,0.1797,0.0001,-0.0000,0.2421,flat,18.0,0,5.394
4190,134.08,0.8343,-6.2349,0.1797,0.0001,-0.0000,0.2569,flat,18.0,0,4.825
4200,134.40,1.3872,-6.0875,0.1797,0.0000,-0.0000,0.2707,flat,18.0,0,4.257
4210,134.72,1.9381,-5.9326,0.1797,0.0000,-0.0000,0.2838,flat,18.0,0,3.688
4220,135.04,2.4870,-5.7704,0.1797,0.0000,-0.0000,0.2967,flat,18.0,0,3.119
4230,135.36,3.0336,-5.6012,0.1797,0.0000,0.0000,0.3099,flat,18.0,0,2.551
4240,135.68,3.5776,-5.4247,0.1797,0.0001,0.0000,0.3242,flat,18.0,0,1.985
4250,136.00,4.1180,-5.2404,0.1797,0.0001,0.0000,0.3416,flat,18.0,0,1.422
4260,136.32,4.6521,-5.0468,0.1797,0.0001,0.0000,0.3683,flat,18.0,0,0.870
4270,136.64,5.0722,-4.8729,0.1798,-0.0003,0.0000,0.5643,flat,18.0,1,13.029
4280,136.96,5.3966,-4.6157,0.1799,-0.0000,-0.0000,0.8266,flat,18.0,1,12.892
4290,137.28,5.6839,-4.2421,0.1799,0.0000,-0.0000,1.0555,flat,18.0,1,12.644
4300,137.60,5.9097,-3.7833,0.1799,0.0000,-0.0000,1.2612,flat,18.0,1,12.307
4310,137.92,6.0523,-3.2670,0.1799,0.0001,-0.0000,1.4388,flat,18.0,1,11.894
4320,138.24,6.1081,-2.7196,0.1799,0.0001,-0.0000,1.5860,flat,18.0,1,11.425
4330,138.56,6.0865,-2.1630,0.1798,0.0004,-0.0000,1.6939,flat,18.0,1,10.920
4340,138.88,6.0079,-1.6084,0.1798,0.0004,-0.0000,1.7720,flat,18.0,1,10.394
4350,139.20,5.8876,-1.0587,0.1797,0.0002,-0.0000,1.8318,flat,18.0,1,9.855
4360,139.52,5.7354,-0.5148,0.1797,0.0002,-0.0000,1.8791,flat,18.0,1,9.308
4370,139.84,5.5582,0.0222,0.1797,0.0001,-0.0000,1.9154,flat,18.0,1,8.756
4380,140.16,5.3618,0.5540,0.1797,0.0001,-0.0000,1.9461,flat,18.0,1,8.200
4390,140.48,5.1492,1.0807,0.1797,0.0001,-0.0000,1.9725,flat,18.0,1,7.642
4400,140.80,4.9229,1.6027,0.1797,0.0001,-0.0000,1.9956,flat,18.0,1,7.081
4410,141.12,4.6846,2.1201,0.1797,0.0001,-0.0000,2.0160,flat,18.0,1,6.518
4420,141.44,4.4358,2.6332,0.1797,0.0001,-0.0000,2.0344,flat,18.0,1,5.955
4430,141.76,4.1776,3.1422,0.1797,0.0001,-0.0000,2.0511,flat,18.0,1,5.390
4440,142.08,3.9109,3.6472,0.1797,0.0001,-0.0000,2.0666,flat,18.0,1,4.825
4450,142.40,3.6365,4.1483,0.1797,0.0001,-0.0000,2.0812,flat,18.0,1,4.260
4460,142.72,3.3548,4.6456,0.1797,0.0000,-0.0000,2.0951,flat,18.0,1,3.696
4470,143.04,3.0661,5.1389,0.1797,0.0000,-0.0000,2.1089,flat,18.0,1,3.133
4480,143.36,2.7707,5.6280,0.1797,0.0000,0.0000,2.1229,flat,18.0,1,2.571
4490,143.68,2.4684,6.1125,0.1797,0.0001,0.0000,2.1380,flat,18.0,1,2.013
4500,144.00,2.1588,6.5914,0.1797,0.0001,0.0000,2.1556,flat,18.0,1,1.464
4510,144.32,1.8410,7.0624,0.1797,0.0001,0.0000,2.1797,flat,18.0,1,0.936
4520,144.64,1.5775,7.4256,0.1798,-0.0001,0.0002,2.4078,flat,18.0,2,15.556
4530,144.96,1.2885,7.6321,0.1799,-0.0001,-0.0001,2.7581,flat,18.0,2,15.548
4540,145.28,0.9086,7.7624,0.1799,0.0000,-0.0001,3.0364,flat,18.0,2,15.433
4550,145.60,0.4434,7.7892,0.1799,0.0002,-0.0000,-2.9762,flat,18.0,2,15.195
4560,145.92,-0.0500,7.6830,0.1799,0.0001,-0.0000,-2.7741,flat,18.0,2,14.840
4570,146.24,-0.5342,7.4708,0.1799,0.0001,-0.0000,-2.6222,flat,18.0,2,14.407
4580,146.56,-0.9946,7.1819,0.1798,0.0004,-0.0000,-2.5115,flat,18.0,2,13.926
4590,146.88,-1.4314,6.8421,0.1798,0.0003,-0.0000,-2.4368,flat,18.0,2,13.416
4600,147.20,-1.8450,6.4699,0.1797,0.0002,-0.0000,-2.3727,flat,18.0,2,12.892
4610,147.52,-2.2367,6.0708,0.1797,0.0002,-0.0000,-2.3178,flat,18.0,2,12.356
4620,147.84,-2.6087,5.6505,0.1797,0.0002,-0.0000,-2.2710,flat,18.0,2,11.813
4630,148.16,-2.9636,5.2133,0.1797,0.0001,-0.0000,-2.2311,flat,18.0,2,11.264
4640,148.48,-3.3033,4.7616,0.1797,0.0001,-0.0000,-2.1958,flat,18.0,2,10.710
4650,148.80,-3.6290,4.2976,0.1797,0.0001,-0.0000,-2.1646,flat,18.0,2,10.152
4660,149.12,-3.9415,3.8232,0.1797,0.0001,-0.0000,-2.1367,flat,18.0,2,9.590
4670,149.44,-4.2421,3.3398,0.1797,0.0001,-0.0000,-2.1118,flat,18.0,2,9.026
4680,149.76,-4.5316,2.8486,0.1797,0.0001,-0.0000,-2.0895,flat,18.0,2,8.460
4690,150.08,-4.8108,2.3508,0.1797,0.0001,-0.0000,-2.0693,flat,18.0,2,7.892
4700,150.40,-5.0807,1.8472,0.1797,0.0001,-0.0000,-2.0510,flat,18.0,2,7.324
4710,150.72,-5.3420,1.3386,0.1797,0.0001,-0.0000,-2.0343,flat,18.0,2,6.754
4720,151.04,-5.5951,0.8254,0.1797,0.0001,-0.0000,-2.0189,flat,18.0,2,6.183
4730,151.36,-5.8407,0.3082,0.1797,0.0001,-0.0000,-2.0046,flat,18.0,2,5.612
4740,151.68,-6.0792,-0.2126,0.1797,0.0000,-0.0000,-1.9912,flat,18.0,2,5.040
4750,152.00,-6.3109,-0.7366,0.1797,0.0000,-0.0000,-1.9784,flat,18.0,2,4.468
4760,152.32,-6.5360,-1.2636,0.1797,0.0000,-0.0000,-1.9660,flat,18.0,2,3.895
4770,152.64,-6.7547,-1.7934,0.1797,0.0000,-0.0000,-1.9536,flat,18.0,2,3.323
4780,152.96,-6.9668,-2.3258,0.1797,0.0000,0.0000,-1.9409,flat,18.0,2,2.750
4790,153.28,-7.1719,-2.8607,0.1797,0.0000,0.0000,-1.9271,flat,18.0,2,2.177
4800,153.60,-7.3692,-3.3979,0.1797,0.0001,0.0000,-1.9108,flat,18.0,2,1.605
4810,153.92,-7.5566,-3.9371,0.1797,0.0001,0.0000,-1.8874,flat,18.0,2,1.034
4820,154.24,-7.7213,-4.4577,0.1798,0.0002,0.0000,-1.9647,flat,18.0,3,0.821
4830,154.56,-7.8406,-4.8256,0.1798,-0.0003,0.0001,-1.7304,rough,15.5,0,13.189
4840,154.88,-7.8863,-5.1412,0.1799,-0.0002,-0.0000,-1.3629,flat,18.0,0,13.246
4850,155.20,-7.7903,-5.4941,0.1799,-0.0000,-0.0002,-1.0758,flat,18.0,0,13.171
4860,155.52,-7.5455,-5.8640,0.1799,-0.0000,-0.0000,-0.8326,flat,18.0,0,12.960
4870,155.84,-7.1841,-6.1996,0.1799,0.0000,-0.0000,-0.6419,flat,18.0,0,12.641
4880,156.16,-6.7448,-6.4885,0.1799,0.0001,-0.0000,-0.4707,flat,18.0,0,12.249
4890,156.48,-6.2481,-6.7153,0.1799,0.0001,-0.0000,-0.3218,flat,18.0,0,11.799
4900,156.80,-5.7153,-6.8754,0.1799,0.0003,-0.0000,-0.2000,flat,18.0,0,11.308
4910,157.12,-5.1633,-6.9750,0.1798,0.0004,-0.0000,-0.1035,flat,18.0,0,10.791
4920,157.44,-4.6015,-7.0240,0.1798,0.0004,-0.0000,-0.0262,flat,18.0,0,10.256
4930,157.76,-4.0355,-7.0313,0.1797,0.0002,-0.0000,0.0345,flat,18.0,0,9.710
4940,158.08,-3.4694,-7.0062,0.1797,0.0002,-0.0000,0.0803,flat,18.0,0,9.158
4950,158.40,-2.9041,-6.9561,0.1797,0.0001,-0.0000,0.1166,flat,18.0,0,8.601
4960,158.72,-2.3397,-6.8861,0.1797,0.0001,-0.0000,0.1468,flat,18.0,0,8.040
4970,159.04,-1.7768,-6.7994,0.1797,0.0001,-0.0000,0.1725,flat,18.0,0,7.477
4980,159.36,-1.2155,-6.6985,0.1797,0.0001,-0.0000,0.1947,flat,18.0,0,6.912
4990,159.68,-0.6559,-6.5854,0.1797,0.0001,-0.0000,0.2141,flat,18.0,0,6.346
5000,160.00,-0.0981,-6.4615,0.1797,0.0001,-0.0000,0.2314,flat,18.0,0,5.779
5010,160.32,0.4579,-6.3282,0.1797,0.0001,-0.0000,0.2470,flat,18.0,0,5.210
5020,160.64,1.0121,-6.1863,0.1797,0.0001,-0.0000,0.2614,flat,18.0,0,4.642
5030,160.96,1.5644,-6.0365,0.1797,0.0000,-0.0000,0.2748,flat,18.0,0,4.073
5040,161.28,2.1147,-5.8793,0.1797,0.0000,-0.0000,0.2877,flat,18.0,0,3.504
5050,161.60,2.6630,-5.7150,0.1797,0.0000,0.0000,0.3006,flat,18.0,0,2.936
5060,161.92,3.2089,-5.5436,0.1797,0.0000,0.0000,0.3139,flat,18.0,0,2.368
5070,162.24,3.7519,-5.3650,0.1797,0.0001,0.0000,0.3289,flat,18.0,0,1.803
5080,162.56,4.2909,-5.1781,0.1797,0.0001,0.0000,0.3480,flat,18.0,0,1.242
5090,162.88,4.8190,-4.9843,0.1797,0.0000,0.0002,0.3979,flat,18.0,1,13.059
5100,163.20,5.1863,-4.8040,0.1799,-0.0002,0.0000,0.6470,flat,18.0,1,13.000
5110,163.52,5.4983,-4.5085,0.1799,0.0000,-0.0000,0.8977,flat,18.0,1,12.826
5120,163.84,5.7703,-4.1065,0.1799,0.0000,-0.0000,1.1207,flat,18.0,1,12.551
5130,164.16,5.9721,-3.6274,0.1799,0.0001,-0.0000,1.3183,flat,18.0,1,12.189
5140,164.48,6.0879,-3.0992,0.1799,0.0001,-0.0000,1.4865,flat,18.0,1,11.758
5150,164.80,6.1183,-2.5469,0.1799,0.0002,-0.0000,1.6236,flat,18.0,1,11.276
5160,165.12,6.0770,-1.9904,0.1798,0.0004,-0.0000,1.7207,flat,18.0,1,10.763
5170,165.44,5.9841,-1.4372,0.1798,0.0003,-0.0000,1.7925,flat,18.0,1,10.232
5180,165.76,5.8529,-0.8893,0.1797,0.0002,-0.0000,1.8480,flat,18.0,1,9.691
5190,166.08,5.6919,-0.3476,0.1797,0.0002,-0.0000,1.8916,flat,18.0,1,9.142
5200,166.40,5.5081,0.1876,0.1797,0.0001,-0.0000,1.9260,flat,18.0,1,8.589
5210,166.72,5.3060,0.7176,0.1797,0.0001,-0.0000,1.9553,flat,18.0,1,8.032
5220,167.04,5.0886,1.2427,0.1797,0.0001,-0.0000,1.9807,flat,18.0,1,7.473
5230,167.36,4.8581,1.7630,0.1797,0.0001,-0.0000,2.0029,flat,18.0,1,6.911
5240,167.68,4.6160,2.2789,0.1797,0.0001,-0.0000,2.0227,flat,18.0,1,6.348
5250,168.00,4.3638,2.7905,0.1797,0.0001,-0.0000,2.0405,flat,18.0,1,5.785
5260,168.32,4.1025,3.2980,0.1797,0.0001,-0.0000,2.0569,flat,18.0,1,5.220
5270,168.64,3.8329,3.8016,0.1797,0.0001,-0.0000,2.0720,flat,18.0,1,4.655
5280,168.96,3.5558,4.3013,0.1797,0.0001,-0.0000,2.0864,flat,18.0,1,4.090
5290,169.28,3.2714,4.7971,0.1797,0.0000,-0.0000,2.1002,flat,18.0,1,3.526
5300,169.60,2.9803,5.2889,0.1797,0.0000,0.0000,2.1141,flat,18.0,1,2.963
5310,169.92,2.6823,5.7764,0.1797,0.0001,0.0000,2.1283,flat,18.0,1,2.402
5320,170.24,2.3774,6.2590,0.1797,0.0001,0.0000,2.1440,flat,18.0,1,1.847
5330,170.56,2.0650,6.7356,0.1797,0.0001,0.0000,2.1629,flat,18.0,1,1.301
5340,170.88,1.7439,7.2027,0.1797,0.0001,0.0000,2.1909,flat,18.0,2,0.787
5350,171.20,1.5028,7.4921,0.1798,-0.0003,0.0000,2.5161,flat,18.0,2,15.564
5360,171.52,1.1771,7.6850,0.1799,-0.0001,-0.0001,2.8597,flat,18.0,2,15.525
5370,171.84,0.7597,7.7854,0.1799,0.0001,-0.0001,-3.1356,flat,18.0,2,15.368
5380,172.16,0.2756,7.7592,0.1799,0.0001,-0.0000,-2.8918,flat,18.0,2,15.079
5390,172.48,-0.2170,7.6089,0.1799,0.0001,-0.0000,-2.7113,flat,18.0,2,14.689
5400,172.80,-0.6934,7.3640,0.1799,0.0002,-0.0000,-2.5759,flat,18.0,2,14.234
5410,173.12,-1.1444,7.0532,0.1798,0.0004,-0.0000,-2.4810,flat,18.0,2,13.740
5420,173.44,-1.5729,6.7001,0.1797,0.0003,-0.0000,-2.4126,flat,18.0,2,13.223
5430,173.76,-1.9781,6.3174,0.1797,0.0002,-0.0000,-2.3516,flat,18.0,2,12.695
5440,174.08,-2.3625,5.9099,0.1797,0.0002,-0.0000,-2.2999,flat,18.0,2,12.156
5450,174.40,-2.7281,5.4832,0.1797,0.0002,-0.0000,-2.2563,flat,18.0,2,11.610
5460,174.72,-3.0776,5.0406,0.1797,0.0001,-0.0000,-2.2183,flat,18.0,2,11.059
5470,175.04,-3.4124,4.5843,0.1797,0.0001,-0.0000,-2.1847,flat,18.0,2,10.503
5480,175.36,-3.7335,4.1166,0.1797,0.0001,-0.0000,-2.1549,flat,18.0,2,9.943
5490,175.68,-4.0420,3.6389,0.1797,0.0001,-0.0000,-2.1283,flat,18.0,2,9.381
5500,176.00,-4.3389,3.1529,0.1797,0.0001,-0.0000,-2.1045,flat,18.0,2,8.816
5510,176.32,-4.6251,2.6595,0.1797,0.0001,-0.0000,-2.0831,flat,18.0,2,8.249
5520,176.64,-4.9015,2.1598,0.1797,0.0001,-0.0000,-2.0637,flat,18.0,2,7.681
5530,176.96,-5.1688,1.6546,0.1797,0.0001,-0.0000,-2.0461,flat,18.0,2,7.112
5540,177.28,-5.4276,1.1446,0.1797,0.0001,-0.0000,-2.0299,flat,18.0,2,6.542
5550,177.60,-5.6787,0.6302,0.1797,0.0001,-0.0000,-2.0150,flat,18.0,2,5.971
5560,177.92,-5.9224,0.1120,0.1797,0.0000,-0.0000,-2.0011,flat,18.0,2,5.399
5570,178.24,-6.1591,-0.4097,0.1797,0.0000,-0.0000,-1.9879,flat,18.0,2,4.827
5580,178.56,-6.3891,-0.9345,0.1797,0.0000,-0.0000,-1.9753,flat,18.0,2,4.255
5590,178.88,-6.6127,-1.4622,0.1797,0.0000,-0.0000,-1.9630,flat,18.0,2,3.682
5600,179.20,-6.8298,-1.9926,0.1797,0.0000,-0.0000,-1.9506,flat,18.0,2,3.110
5610,179.52,-7.0402,-2.5256,0.1797,0.0000,0.0000,-1.9376,flat,18.0,2,2.537
5620,179.84,-7.2434,-3.0611,0.1797,0.0001,0.0000,-1.9231,flat,18.0,2,1.964
5630,180.16,-7.4383,-3.5988,0.1797,0.0001,0.0000,-1.9050,flat,18.0,2,1.392
5640,180.48,-7.6217,-4.1380,0.1797,0.0001,0.0000,-1.8757,flat,18.0,2,0.823
5650,180.80,-7.7768,-4.6164,0.1799,-0.0005,0.0004,-1.9021,flat,18.0,0,13.122
5660,181.12,-7.8685,-4.9382,0.1798,-0.0003,-0.0000,-1.5470,flat,18.0,0,13.220
5670,181.44,-7.8494,-5.2732,0.1799,0.0001,0.0001,-1.2216,rough,15.5,0,13.216
5680,181.76,-7.7003,-5.6206,0.1799,0.0000,-0.0001,-0.9863,flat,18.0,0,13.091
5690,182.08,-7.4105,-5.9805,0.1799,0.0001,-0.0000,-0.7659,flat,18.0,0,12.838
5700,182.40,-7.0202,-6.3023,0.1799,0.0001,-0.0000,-0.5819,flat,18.0,0,12.493
5710,182.72,-6.5592,-6.5714,0.1799,0.0001,-0.0000,-0.4179,flat,18.0,0,12.079
5720,183.04,-6.0478,-6.7757,0.1799,0.0002,-0.0000,-0.2773,flat,18.0,0,11.614
5730,183.36,-5.5072,-6.9142,0.1799,0.0004,-0.0000,-0.1647,flat,18.0,0,11.113
5740,183.68,-4.9511,-6.9955,0.1798,0.0004,-0.0000,-0.0752,flat,18.0,0,10.589
5750,184.00,-4.3872,-7.0293,0.1798,0.0003,-0.0000,-0.0034,flat,18.0,0,10.050
5760,184.32,-3.8211,-7.0244,0.1797,0.0002,-0.0000,0.0513,flat,18.0,0,9.502
5770,184.64,-3.2551,-6.9901,0.1797,0.0002,-0.0000,0.0937,flat,18.0,0,8.947
5780,184.96,-2.6901,-6.9326,0.1797,0.0001,-0.0000,0.1278,flat,18.0,0,8.389
5790,185.28,-2.1263,-6.8564,0.1797,0.0001,-0.0000,0.1564,flat,18.0,0,7.828
5800,185.60,-1.5639,-6.7644,0.1797,0.0001,-0.0000,0.1808,flat,18.0,0,7.264
5810,185.92,-1.0033,-6.6589,0.1797,0.0001,-0.0000,0.2020,flat,18.0,0,6.699
5820,186.24,-0.4444,-6.5417,0.1797,0.0001,-0.0000,0.2207,flat,18.0,0,6.132
5830,186.56,0.1128,-6.4143,0.1797,0.0001,-0.0000,0.2374,flat,18.0,0,5.564
5840,186.88,0.6680,-6.2776,0.1797,0.0001,-0.0000,0.2526,flat,18.0,0,4.996
5850,187.20,1.2215,-6.1326,0.1797,0.0001,-0.0000,0.2666,flat,18.0,0,4.427
5860,187.52,1.7730,-5.9799,0.1797,0.0000,-0.0000,0.2799,flat,18.0,0,3.858
5870,187.84,2.3226,-5.8199,0.1797,0.0000,-0.0000,0.2928,flat,18.0,0,3.290
5880,188.16,2.8699,-5.6527,0.1797,0.0000,0.0000,0.3059,flat,18.0,0,2.722
5890,188.48,3.4147,-5.4785,0.1797,0.0000,0.0000,0.3197,flat,18.0,0,2.155
5900,188.80,3.9563,-5.2967,0.1797,0.0001,0.0000,0.3359,flat,18.0,0,1.591
5910,189.12,4.4928,-5.1060,0.1797,0.0001,0.0000,0.3584,flat,18.0,0,1.034
5920,189.44,4.9632,-4.9284,0.1798,-0.0001,0.0002,0.4894,flat,18.0,1,13.049
5930,189.76,5.3036,-4.7072,0.1799,-0.0000,-0.0000,0.7539,flat,18.0,1,12.947
5940,190.08,5.6027,-4.3643,0.1799,0.0000,-0.0000,0.9888,flat,18.0,1,12.728
5950,190.40,5.8500,-3.9283,0.1799,0.0000,-0.0000,1.2023,flat,18.0,1,12.417
5960,190.72,6.0187,-3.4263,0.1799,0.0001,-0.0000,1.3883,flat,18.0,1,12.025
5970,191.04,6.1000,-2.8857,0.1799,0.0001,-0.0000,1.5446,flat,18.0,1,11.571
5980,191.36,6.0998,-2.3300,0.1799,0.0003,-0.0000,1.6654,flat,18.0,1,11.074
5990,191.68,6.0364,-1.7743,0.1798,0.0004,-0.0000,1.7509,flat,18.0,1,10.553
6000,192.00,5.9274,-1.2230,0.1797,0.0002,-0.0000,1.8154,flat,18.0,1,10.018
6010,192.32,5.7839,-0.6774,0.1797,0.0002,-0.0000,1.8660,flat,18.0,1,9.473
6020,192.64,5.6135,-0.1383,0.1797,0.0001,-0.0000,1.9052,flat,18.0,1,8.922
6030,192.96,5.4225,0.3950,0.1797,0.0001,-0.0000,1.9374,flat,18.0,1,8.367
6040,193.28,5.2145,0.9232,0.1797,0.0001,-0.0000,1.9650,flat,18.0,1,7.809
6050,193.60,4.9920,1.4466,0.1797,0.0001,-0.0000,1.9890,flat,18.0,1,7.249
6060,193.92,4.7572,1.9653,0.1797,0.0001,-0.0000,2.0102,flat,18.0,1,6.687
6070,194.24,4.5114,2.4797,0.1797,0.0001,-0.0000,2.0291,flat,18.0,1,6.124
6080,194.56,4.2559,2.9899,0.1797,0.0001,-0.0000,2.0463,flat,18.0,1,5.559
6090,194.88,3.9917,3.4961,0.1797,0.0001,-0.0000,2.0621,flat,18.0,1,4.995
6100,195.20,3.7195,3.9984,0.1797,0.0001,-0.0000,2.0769,flat,18.0,1,4.430
6110,195.52,3.4400,4.4968,0.1797,0.0000,-0.0000,2.0910,flat,18.0,1,3.865
6120,195.84,3.1534,4.9913,0.1797,0.0000,-0.0000,2.1047,flat,18.0,1,3.301
6130,196.16,2.8599,5.4818,0.1797,0.0000,0.0000,2.1187,flat,18.0,1,2.739
6140,196.48,2.5597,5.9677,0.1797,0.0001,0.0000,2.1333,flat,18.0,1,2.180
6150,196.80,2.2524,6.4485,0.1797,0.0001,0.0000,2.1499,flat,18.0,1,1.627
6160,197.12,1.9372,6.9222,0.1797,0.0001,0.0000,2.1713,flat,18.0,1,1.090
6170,197.44,1.6445,7.3491,0.1798,-0.0000,0.0005,2.2995,flat,18.0,2,15.536
6180,197.76,1.3883,7.5739,0.1798,-0.0002,-0.0001,2.6552,flat,18.0,2,15.560
6190,198.08,1.0265,7.7344,0.1799,0.0000,0.0001,2.9647,flat,18.0,2,15.478
6200,198.40,0.5886,7.7964,0.1799,-0.0000,-0.0000,-3.0473,flat,18.0,2,15.281
6210,198.72,0.0978,7.7278,0.1799,0.0000,-0.0000,-2.8263,flat,18.0,2,14.956
6220,199.04,-0.3910,7.5439,0.1799,0.0001,-0.0000,-2.6630,flat,18.0,2,14.543
6230,199.36,-0.8593,7.2750,0.1799,0.0003,-0.0000,-2.5407,flat,18.0,2,14.074
6240,199.68,-1.3028,6.9479,0.1798,0.0003,-0.0000,-2.4577,flat,18.0,2,13.571
6250,200.00,-1.7234,6.5847,0.1797,0.0002,-0.0000,-2.3913,flat,18.0,2,13.050
6260,200.32,-2.1214,6.1931,0.1797,0.0002,-0.0000,-2.3334,flat,18.0,2,12.518
6270,200.64,-2.4990,5.7785,0.1797,0.0002,-0.0000,-2.2841,flat,18.0,2,11.977
6280,200.96,-2.8588,5.3461,0.1797,0.0001,-0.0000,-2.2426,flat,18.0,2,11.430
6290,201.28,-3.2030,4.8986,0.1797,0.0001,-0.0000,-2.2060,flat,18.0,2,10.877
6300,201.60,-3.5327,4.4381,0.1797,0.0001,-0.0000,-2.1736,flat,18.0,2,10.319
6310,201.92,-3.8491,3.9666,0.1797,0.0001,-0.0000,-2.1447,flat,18.0,2,9.759
6320,202.24,-4.1531,3.4857,0.1797,0.0001,-0.0000,-2.1190,flat,18.0,2,9.195
6330,202.56,-4.4458,2.9968,0.1797,0.0001,-0.0000,-2.0959,flat,18.0,2,8.630
6340,202.88,-4.7281,2.5009,0.1797,0.0001,-0.0000,-2.0752,flat,18.0,2,8.063
6350,203.20,-5.0007,1.9989,0.1797,0.0001,-0.0000,-2.0563,flat,18.0,2,7.494
6360,203.52,-5.2645,1.4917,0.1797,0.0001,-0.0000,-2.0392,flat,18.0,2,6.925
6370,203.84,-5.5200,0.9798,0.1797,0.0001,-0.0000,-2.0234,flat,18.0,2,6.354
6380,204.16,-5.7678,0.4638,0.1797,0.0001,-0.0000,-2.0088,flat,18.0,2,5.783
6390,204.48,-6.0084,-0.0559,0.1797,0.0000,-0.0000,-1.9951,flat,18.0,2,5.212
6400,204.80,-6.2421,-0.5790,0.1797,0.0000,-0.0000,-1.9822,flat,18.0,2,4.639
6410,205.12,-6.4692,-1.1052,0.1797,0.0000,-0.0000,-1.9697,flat,18.0,2,4.067
6420,205.44,-6.6898,-1.6341,0.1797,0.0000,-0.0000,-1.9573,flat,18.0,2,3.494
6430,205.76,-6.9038,-2.1658,0.1797,0.0000,0.0000,-1.9448,flat,18.0,2,2.922
6440,206.08,-7.1111,-2.6999,0.1797,0.0000,0.0000,-1.9314,flat,18.0,2,2.349
6450,206.40,-7.3109,-3.2365,0.1797,0.0001,0.0000,-1.9161,flat,18.0,2,1.776
6460,206.72,-7.5016,-3.7752,0.1797,0.0001,0.0000,-1.8957,flat,18.0,2,1.205
6470,207.04,-7.6733,-4.3083,0.1797,0.0001,0.0001,-1.9027,flat,18.0,3,0.945
6480,207.36,-7.8109,-4.7308,0.1798,-0.0002,0.0003,-1.8276,rough,15.5,0,13.157
6490,207.68,-7.8871,-5.0442,0.1798,-0.0000,0.0000,-1.4578,rough,15.5,0,13.242
6500,208.00,-7.8335,-5.3889,0.1799,-0.0000,-0.0000,-1.1514,rough,15.5,0,13.207
6510,208.32,-7.6334,-5.7557,0.1799,-0.0000,-0.0000,-0.8984,flat,18.0,0,13.037
6520,208.64,-7.3017,-6.1028,0.1799,0.0000,-0.0000,-0.6971,flat,18.0,0,12.745
6530,208.96,-6.8835,-6.4077,0.1799,0.0001,-0.0000,-0.5199,flat,18.0,0,12.373
6540,209.28,-6.4019,-6.6542,0.1799,0.0001,-0.0000,-0.3641,flat,18.0,0,11.939
6550,209.60,-5.8777,-6.8341,0.1799,0.0002,-0.0000,-0.2336,flat,18.0,0,11.458
6560,209.92,-5.3303,-6.9508,0.1798,0.0004,-0.0000,-0.1302,flat,18.0,0,10.948
6570,210.24,-4.7707,-7.0140,0.1798,0.0004,-0.0000,-0.0476,flat,18.0,0,10.418
6580,210.56,-4.2053,-7.0330,0.1797,0.0003,-0.0000,0.0184,flat,18.0,0,9.875
6590,210.88,-3.6393,-7.0166,0.1797,0.0002,-0.0000,0.0675,flat,18.0,0,9.324
6600,211.20,-3.0735,-6.9734,0.1797,0.0001,-0.0000,0.1064,flat,18.0,0,8.768
6610,211.52,-2.5089,-6.9089,0.1797,0.0001,-0.0000,0.1383,flat,18.0,0,8.209
6620,211.84,-1.9455,-6.8269,0.1797,0.0001,-0.0000,0.1652,flat,18.0,0,7.646
6630,212.16,-1.3837,-6.7301,0.1797,0.0001,-0.0000,0.1883,flat,18.0,0,7.082
6640,212.48,-0.8236,-6.6204,0.1797,0.0001,-0.0000,0.2085,flat,18.0,0,6.516
6650,212.80,-0.2652,-6.4997,0.1797,0.0001,-0.0000,0.2264,flat,18.0,0,5.949
6660,213.12,0.2913,-6.3691,0.1797,0.0001,-0.0000,0.2425,flat,18.0,0,5.381
6670,213.44,0.8460,-6.2297,0.1797,0.0001,-0.0000,0.2572,flat,18.0,0,4.812
6680,213.76,1.3989,-6.0822,0.1797,0.0000,-0.0000,0.2708,flat,18.0,0,4.244
6690,214.08,1.9499,-5.9272,0.1797,0.0000,-0.0000,0.2839,flat,18.0,0,3.675
6700,214.40,2.4988,-5.7650,0.1797,0.0000,-0.0000,0.2967,flat,18.0,0,3.106
6710,214.72,3.0454,-5.5958,0.1797,0.0000,0.0000,0.3098,flat,18.0,0,2.538
6720,215.04,3.5894,-5.4193,0.1797,0.0000,0.0000,0.3241,flat,18.0,0,1.972
6730,215.36,4.1298,-5.2351,0.1797,0.0001,0.0000,0.3415,flat,18.0,0,1.410
6740,215.68,4.6638,-5.0415,0.1797,0.0001,0.0000,0.3684,flat,18.0,0,0.857
6750,216.00,5.0837,-4.8676,0.1798,-0.0003,0.0000,0.5649,flat,18.0,1,13.028
6760,216.32,5.4079,-4.6102,0.1799,-0.0000,-0.0000,0.8272,flat,18.0,1,12.890
6770,216.64,5.6949,-4.2364,0.1799,0.0000,-0.0000,1.0563,flat,18.0,1,12.643
6780,216.96,5.9203,-3.7775,0.1799,0.0000,-0.0000,1.2621,flat,18.0,1,12.306
6790,217.28,6.0625,-3.2611,0.1799,0.0001,-0.0000,1.4398,flat,18.0,1,11.893
6800,217.60,6.1177,-2.7137,0.1799,0.0001,-0.0000,1.5870,flat,18.0,1,11.424
6810,217.92,6.0956,-2.1571,0.1798,0.0004,-0.0000,1.6948,flat,18.0,1,10.919
6820,218.24,6.0165,-1.6026,0.1798,0.0004,-0.0000,1.7730,flat,18.0,1,10.393
6830,218.56,5.8957,-1.0530,0.1797,0.0002,-0.0000,1.8327,flat,18.0,1,9.854
6840,218.88,5.7430,-0.5093,0.1797,0.0002,-0.0000,1.8800,flat,18.0,1,9.307
6850,219.20,5.5653,0.0276,0.1797,0.0001,-0.0000,1.9163,flat,18.0,1,8.755
6860,219.52,5.3684,0.5592,0.1797,0.0001,-0.0000,1.9470,flat,18.0,1,8.199
6870,219.84,5.1553,1.0857,0.1797,0.0001,-0.0000,1.9735,flat,18.0,1,7.641
6880,220.16,4.9285,1.6074,0.1797,0.0001,-0.0000,1.9965,flat,18.0,1,7.080
6890,220.48,4.6897,2.1246,0.1797,0.0001,-0.0000,2.0170,flat,18.0,1,6.517
6900,220.80,4.4404,2.6375,0.1797,0.0001,-0.0000,2.0354,flat,18.0,1,5.954
6910,221.12,4.1817,3.1462,0.1797,0.0001,-0.0000,2.0521,flat,18.0,1,5.389
6920,221.44,3.9146,3.6509,0.1797,0.0001,-0.0000,2.0676,flat,18.0,1,4.825
6930,221.76,3.6396,4.1518,0.1797,0.0001,-0.0000,2.0821,flat,18.0,1,4.260
6940,222.08,3.3574,4.6488,0.1797,0.0000,-0.0000,2.0961,flat,18.0,1,3.695
6950,222.40,3.0683,5.1418,0.1797,0.0000,-0.0000,2.1099,flat,18.0,1,3.132
6960,222.72,2.7723,5.6306,0.1797,0.0000,0.0000,2.1240,flat,18.0,1,2.570
6970,223.04,2.4696,6.1148,0.1797,0.0001,0.0000,2.1391,flat,18.0,1,2.013
6980,223.36,2.1595,6.5934,0.1797,0.0001,0.0000,2.1567,flat,18.0,1,1.463
6990,223.68,1.8412,7.0640,0.1797,0.0001,0.0000,2.1808,flat,18.0,1,0.935
7000,224.00,1.5773,7.4268,0.1798,-0.0001,0.0002,2.4089,flat,18.0,2,15.557
7010,224.32,1.2880,7.6332,0.1799,-0.0001,-0.0001,2.7592,flat,18.0,2,15.548
7020,224.64,0.8941,7.7660,0.1799,-0.0000,-0.0002,3.0606,flat,18.0,2,15.428
7030,224.96,0.4232,7.7818,0.1799,0.0000,-0.0001,-2.9541,flat,18.0,2,15.178
7040,225.28,-0.0703,7.6654,0.1799,0.0001,-0.0000,-2.7587,flat,18.0,2,14.814
7050,225.60,-0.5531,7.4457,0.1799,0.0001,-0.0000,-2.6121,flat,18.0,2,14.376
7060,225.92,-1.0115,7.1520,0.1798,0.0004,-0.0000,-2.5049,flat,18.0,2,13.891
7070,226.24,-1.4469,6.8094,0.1798,0.0003,-0.0000,-2.4321,flat,18.0,2,13.380
7080,226.56,-1.8589,6.4352,0.1797,0.0002,-0.0000,-2.3687,flat,18.0,2,12.854
7090,226.88,-2.2493,6.0345,0.1797,0.0002,-0.0000,-2.3147,flat,18.0,2,12.318
7100,227.20,-2.6202,5.6129,0.1797,0.0002,-0.0000,-2.2686,flat,18.0,2,11.775
7110,227.52,-2.9743,5.1749,0.1797,0.0001,-0.0000,-2.2292,flat,18.0,2,11.225
7120,227.84,-3.3134,4.7225,0.1797,0.0001,-0.0000,-2.1944,flat,18.0,2,10.670
7130,228.16,-3.6386,4.2580,0.1797,0.0001,-0.0000,-2.1635,flat,18.0,2,10.112
7140,228.48,-3.9507,3.7832,0.1797,0.0001,-0.0000,-2.1360,flat,18.0,2,9.550
7150,228.80,-4.2510,3.2995,0.1797,0.0001,-0.0000,-2.1114,flat,18.0,2,8.986
7160,229.12,-4.5403,2.8082,0.1797,0.0001,-0.0000,-2.0892,flat,18.0,2,8.419
7170,229.44,-4.8196,2.3103,0.1797,0.0001,-0.0000,-2.0693,flat,18.0,2,7.852
7180,229.76,-5.0895,1.8067,0.1797,0.0001,-0.0000,-2.0512,flat,18.0,2,7.283
7190,230.08,-5.3508,1.2980,0.1797,0.0001,-0.0000,-2.0346,flat,18.0,2,6.713
7200,230.40,-5.6042,0.7849,0.1797,0.0001,-0.0000,-2.0193,flat,18.0,2,6.142
7210,230.72,-5.8500,0.2678,0.1797,0.0001,-0.0000,-2.0051,flat,18.0,2,5.571
7220,231.04,-6.0888,-0.2528,0.1797,0.0000,-0.0000,-1.9918,flat,18.0,2,4.999
7230,231.36,-6.3208,-0.7767,0.1797,0.0000,-0.0000,-1.9791,flat,18.0,2,4.427
7240,231.68,-6.5463,-1.3036,0.1797,0.0000,-0.0000,-1.9667,flat,18.0,2,3.854
7250,232.00,-6.7653,-1.8332,0.1797,0.0000,-0.0000,-1.9543,flat,18.0,2,3.281
7260,232.32,-6.9778,-2.3655,0.1797,0.0000,0.0000,-1.9416,flat,18.0,2,2.709
7270,232.64,-7.1833,-2.9002,0.1797,0.0000,0.0000,-1.9277,flat,18.0,2,2.136
7280,232.96,-7.3808,-3.4373,0.1797,0.0001,0.0000,-1.9111,flat,18.0,2,1.564
7290,233.28,-7.5682,-3.9762,0.1797,0.0001,0.0000,-1.8868,flat,18.0,2,0.993
7300,233.60,-7.7344,-4.4913,0.1799,0.0003,0.0000,-1.9887,flat,18.0,0,0.792
7310,233.92,-7.8473,-4.8465,0.1798,-0.0003,0.0001,-1.6635,rough,15.5,0,13.196
7320,234.24,-7.8703,-5.1672,0.1799,-0.0001,-0.0000,-1.3131,flat,18.0,0,13.231
7330,234.56,-7.7595,-5.5121,0.1799,0.0000,-0.0000,-1.0601,rough,15.5,0,13.142
7340,234.88,-7.5103,-5.8764,0.1799,-0.0000,-0.0000,-0.8248,flat,18.0,0,12.926
7350,235.20,-7.1456,-6.2105,0.1799,0.0000,-0.0000,-0.6350,flat,18.0,0,12.604
7360,235.52,-6.7037,-6.4972,0.1799,0.0000,-0.0000,-0.4645,flat,18.0,0,12.210
7370,235.84,-6.2052,-6.7216,0.1799,0.0001,-0.0000,-0.3166,flat,18.0,0,11.758
7380,236.16,-5.6715,-6.8791,0.1799,0.0003,-0.0000,-0.1958,flat,18.0,0,11.266
7390,236.48,-5.1190,-6.9765,0.1798,0.0004,-0.0000,-0.1000,flat,18.0,0,10.748
7400,236.80,-4.5569,-7.0236,0.1798,0.0003,-0.0000,-0.0233,flat,18.0,0,10.213
7410,237.12,-3.9909,-7.0294,0.1797,0.0002,-0.0000,0.0368,flat,18.0,0,9.667
7420,237.44,-3.4248,-7.0031,0.1797,0.0002,-0.0000,0.0822,flat,18.0,0,9.114
7430,237.76,-2.8595,-6.9519,0.1797,0.0001,-0.0000,0.1183,flat,18.0,0,8.557
7440,238.08,-2.2953,-6.8809,0.1797,0.0001,-0.0000,0.1483,flat,18.0,0,7.996
7450,238.40,-1.7325,-6.7934,0.1797,0.0001,-0.0000,0.1739,flat,18.0,0,7.433
7460,238.72,-1.1713,-6.6917,0.1797,0.0001,-0.0000,0.1960,flat,18.0,0,6.868
7470,239.04,-0.6118,-6.5779,0.1797,0.0001,-0.0000,0.2153,flat,18.0,0,6.302
7480,239.36,-0.0542,-6.4534,0.1797,0.0001,-0.0000,0.2326,flat,18.0,0,5.734
7490,239.68,0.5017,-6.3194,0.1797,0.0001,-0.0000,0.2482,flat,18.0,0,5.166
7500,240.00,1.0557,-6.1768,0.1797,0.0001,-0.0000,0.2625,flat,18.0,0,4.598
7510,240.32,1.6078,-6.0264,0.1797,0.0000,-0.0000,0.2760,flat,18.0,0,4.029
7520,240.64,2.1579,-5.8685,0.1797,0.0000,-0.0000,0.2890,flat,18.0,0,3.460
7530,240.96,2.7060,-5.7035,0.1797,0.0000,0.0000,0.3019,flat,18.0,0,2.892
7540,241.28,3.2516,-5.5315,0.1797,0.0000,0.0000,0.3154,flat,18.0,0,2.325
7550,241.60,3.7943,-5.3520,0.1797,0.0001,0.0000,0.3306,flat,18.0,0,1.759
7560,241.92,4.3327,-5.1642,0.1797,0.0001,0.0000,0.3504,flat,18.0,0,1.199
7570,242.24,4.8496,-4.9748,0.1797,0.0001,0.0004,0.4161,flat,18.0,1,13.059
7580,242.56,5.2076,-4.7861,0.1799,-0.0001,0.0000,0.6750,flat,18.0,1,12.990
7590,242.88,5.5167,-4.4780,0.1799,0.0000,-0.0000,0.9203,flat,18.0,1,12.804
7600,243.20,5.7833,-4.0673,0.1799,0.0000,-0.0000,1.1410,flat,18.0,1,12.519
7610,243.52,5.9772,-3.5821,0.1799,0.0001,-0.0000,1.3357,flat,18.0,1,12.150
7620,243.84,6.0849,-3.0505,0.1799,0.0001,-0.0000,1.5017,flat,18.0,1,11.713
7630,244.16,6.1076,-2.4971,0.1799,0.0002,-0.0000,1.6339,flat,18.0,1,11.226
7640,244.48,6.0609,-1.9407,0.1798,0.0004,-0.0000,1.7279,flat,18.0,1,10.711
7650,244.80,5.9642,-1.3879,0.1798,0.0003,-0.0000,1.7977,flat,18.0,1,10.180
7660,245.12,5.8301,-0.8404,0.1797,0.0002,-0.0000,1.8519,flat,18.0,1,9.637
7670,245.44,5.6671,-0.2993,0.1797,0.0002,-0.0000,1.8945,flat,18.0,1,9.088
7680,245.76,5.4817,0.2356,0.1797,0.0001,-0.0000,1.9283,flat,18.0,1,8.534
7690,246.08,5.2785,0.7653,0.1797,0.0001,-0.0000,1.9571,flat,18.0,1,7.977
7700,246.40,5.0602,1.2901,0.1797,0.0001,-0.0000,1.9821,flat,18.0,1,7.417
7710,246.72,4.8289,1.8102,0.1797,0.0001,-0.0000,2.0041,flat,18.0,1,6.856
7720,247.04,4.5862,2.3259,0.1797,0.0001,-0.0000,2.0236,flat,18.0,1,6.293
7730,247.36,4.3336,2.8373,0.1797,0.0001,-0.0000,2.0413,flat,18.0,1,5.729
7740,247.68,4.0719,3.3447,0.1797,0.0001,-0.0000,2.0575,flat,18.0,1,5.164
7750,248.00,3.8020,3.8481,0.1797,0.0001,-0.0000,2.0725,flat,18.0,1,4.599
7760,248.32,3.5246,4.3477,0.1797,0.0001,-0.0000,2.0868,flat,18.0,1,4.035
7770,248.64,3.2401,4.8434,0.1797,0.0000,-0.0000,2.1006,flat,18.0,1,3.470
7780,248.96,2.9487,5.3351,0.1797,0.0000,0.0000,2.1144,flat,18.0,1,2.908
7790,249.28,2.6506,5.8224,0.1797,0.0001,0.0000,2.1288,flat,18.0,1,2.347
7800,249.60,2.3454,6.3049,0.1797,0.0001,0.0000,2.1446,flat,18.0,1,1.792
7810,249.92,2.0327,6.7810,0.1797,0.0001,0.0000,2.1641,flat,18.0,1,1.249
7820,250.24,1.7146,7.2447,0.1797,0.0001,0.0003,2.2098,flat,18.0,2,15.498
7830,250.56,1.4764,7.5119,0.1798,-0.0003,-0.0000,2.5503,flat,18.0,2,15.563
7840,250.88,1.1385,7.6995,0.1799,-0.0000,-0.0001,2.8915,rough,15.5,2,15.515
7850,251.20,0.7305,7.7899,0.1799,0.0001,-0.0001,-3.1310,flat,18.0,2,15.355
7860,251.52,0.2464,7.7615,0.1799,0.0001,-0.0000,-2.8880,flat,18.0,2,15.065
7870,251.84,-0.2458,7.6092,0.1799,0.0001,-0.0000,-2.7081,flat,18.0,2,14.674
7880,252.16,-0.7216,7.3627,0.1799,0.0002,-0.0000,-2.5733,flat,18.0,2,14.219
7890,252.48,-1.1720,7.0507,0.1798,0.0004,-0.0000,-2.4789,flat,18.0,2,13.724
7900,252.80,-1.5997,6.6967,0.1797,0.0003,-0.0000,-2.4106,flat,18.0,2,13.207
7910,253.12,-2.0042,6.3132,0.1797,0.0002,-0.0000,-2.3497,flat,18.0,2,12.679
7920,253.44,-2.3877,5.9049,0.1797,0.0002,-0.0000,-2.2980,flat,18.0,2,12.140
7930,253.76,-2.7525,5.4775,0.1797,0.0002,-0.0000,-2.2544,flat,18.0,2,11.594
7940,254.08,-3.1013,5.0342,0.1797,0.0001,-0.0000,-2.2165,flat,18.0,2,11.043
7950,254.40,-3.4352,4.5774,0.1797,0.0001,-0.0000,-2.1829,flat,18.0,2,10.487
7960,254.72,-3.7555,4.1090,0.1797,0.0001,-0.0000,-2.1530,flat,18.0,2,9.927
7970,255.04,-4.0632,3.6308,0.1797,0.0001,-0.0000,-2.1264,flat,18.0,2,9.365
7980,255.36,-4.3592,3.1442,0.1797,0.0001,-0.0000,-2.1026,flat,18.0,2,8.800
7990,255.68,-4.6444,2.6503,0.1797,0.0001,-0.0000,-2.0812,flat,18.0,2,8.233
8000,256.00,-4.9199,2.1501,0.1797,0.0001,-0.0000,-2.0618,flat,18.0,2,7.665
8010,256.32,-5.1862,1.6443,0.1797,0.0001,-0.0000,-2.0442,flat,18.0,2,7.096
8020,256.64,-5.4442,1.1338,0.1797,0.0001,-0.0000,-2.0280,flat,18.0,2,6.526
8030,256.96,-5.6942,0.6190,0.1797,0.0001,-0.0000,-2.0131,flat,18.0,2,5.955
8040,257.28,-5.9369,0.1003,0.1797,0.0000,-0.0000,-1.9992,flat,18.0,2,5.383
8050,257.60,-6.1727,-0.4218,0.1797,0.0000,-0.0000,-1.9860,flat,18.0,2,4.811
8060,257.92,-6.4017,-0.9471,0.1797,0.0000,-0.0000,-1.9734,flat,18.0,2,4.239
