step,time_s,x,y,z,roll,pitch,yaw,terrain,speed,target_idx,dist_to_target
10,0.32,-1.2947,0.8846,0.1834,0.0003,-0.0333,0.0047,rough,15.5,0,6.142
20,0.64,-1.0297,0.8842,0.1798,-0.0008,-0.0000,0.4285,flat,18.0,0,6.368
30,0.96,-0.7728,1.0521,0.1798,-0.0003,-0.0000,0.8729,flat,18.0,0,6.506
40,1.28,-0.5793,1.3393,0.1798,-0.0002,-0.0001,1.2643,flat,18.0,0,6.546
50,1.60,-0.4772,1.7341,0.1799,0.0000,-0.0001,1.6359,flat,18.0,0,6.478
60,1.92,-0.5315,2.1860,0.1799,0.0001,-0.0000,1.9250,flat,18.0,0,6.269
70,2.24,-0.7312,2.6347,0.1799,0.0001,-0.0000,2.1430,flat,18.0,0,5.947
80,2.56,-1.0415,3.0508,0.1799,0.0001,-0.0000,2.3135,flat,18.0,0,5.548
90,2.88,-1.4273,3.4233,0.1799,0.0002,-0.0000,2.4482,flat,18.0,0,5.102
100,3.20,-1.8639,3.7522,0.1799,0.0003,-0.0000,2.5715,flat,18.0,0,4.628
110,3.52,-2.3404,4.0334,0.1798,0.0004,-0.0000,2.6845,flat,18.0,0,4.134
120,3.84,-2.8476,4.2646,0.1798,0.0004,-0.0000,2.7894,flat,18.0,0,3.625
130,4.16,-3.3774,4.4449,0.1798,0.0004,-0.0000,2.8886,flat,18.0,0,3.104
140,4.48,-3.9230,4.5740,0.1798,0.0004,-0.0000,2.9854,flat,18.0,0,2.577
150,4.80,-4.4782,4.6506,0.1798,0.0004,-0.0000,3.0849,flat,18.0,0,2.045
160,5.12,-5.0364,4.6712,0.1798,0.0004,0.0000,-3.0879,flat,18.0,0,1.513
170,5.44,-5.5851,4.6296,0.1799,0.0002,0.0000,-2.9525,flat,18.0,0,0.989
180,5.76,-5.9933,4.5701,0.1797,0.0001,-0.0007,-2.5826,flat,18.0,1,6.812
190,6.08,-6.2003,4.4089,0.1779,0.0128,-0.0002,-2.0347,flat,18.0,1,7.032
200,6.40,-6.3274,4.1126,0.1798,-0.0001,0.0001,-1.5887,rough,15.5,1,7.193
210,6.72,-6.3302,3.8096,0.1799,-0.0000,-0.0000,-1.2427,rough,15.5,1,7.243
220,7.04,-6.1822,3.4727,0.1799,-0.0001,-0.0001,-0.9181,flat,18.0,1,7.165
230,7.36,-5.8779,3.1541,0.1799,-0.0000,-0.0000,-0.6676,flat,18.0,1,6.951
240,7.68,-5.4699,2.8818,0.1799,0.0000,-0.0000,-0.4374,flat,18.0,1,6.645
250,8.00,-4.9867,2.6862,0.1799,0.0000,-0.0000,-0.2266,flat,18.0,1,6.263
260,8.32,-4.4566,2.5852,0.1799,0.0001,-0.0000,-0.0401,flat,18.0,1,5.820
270,8.64,-3.9071,2.5805,0.1799,0.0001,-0.0000,0.1104,flat,18.0,1,5.331
280,8.96,-3.3588,2.6548,0.1798,0.0004,-0.0000,0.2216,flat,18.0,1,4.816
290,9.28,-2.8193,2.7883,0.1798,0.0004,-0.0000,0.3090,flat,18.0,1,4.285
300,9.60,-2.2913,2.9680,0.1798,0.0003,-0.0000,0.3818,flat,18.0,1,3.745
310,9.92,-1.7763,3.1856,0.1797,0.0002,-0.0000,0.4454,flat,18.0,1,3.199
320,10.24,-1.2756,3.4357,0.1797,0.0002,-0.0000,0.5039,flat,18.0,1,2.650
330,10.56,-0.7905,3.7150,0.1797,0.0002,-0.0000,0.5607,flat,18.0,1,2.098
340,10.88,-0.3233,4.0219,0.1797,0.0002,-0.0000,0.6184,flat,18.0,1,1.545
350,11.20,0.1232,4.3550,0.1797,0.0002,0.0000,0.6813,flat,18.0,1,0.994
360,11.52,0.4988,4.6577,0.1798,0.0003,0.0000,0.5506,flat,18.0,2,9.509
370,11.84,0.9030,4.8665,0.1799,-0.0001,0.0003,0.2811,rough,15.5,2,9.294
380,12.16,1.3422,4.9778,0.1799,-0.0000,-0.0001,0.0793,flat,18.0,2,9.009
390,12.48,1.8619,4.9976,0.1799,-0.0001,-0.0000,-0.1324,flat,18.0,2,8.618
400,12.80,2.3915,4.9083,0.1799,-0.0001,-0.0000,-0.2906,flat,18.0,2,8.160
410,13.12,2.9100,4.7354,0.1799,-0.0003,-0.0000,-0.4071,flat,18.0,2,7.662
420,13.44,3.4107,4.5032,0.1798,-0.0004,-0.0000,-0.4950,flat,18.0,2,7.142
430,13.76,3.8935,4.2275,0.1798,-0.0003,-0.0000,-0.5650,flat,18.0,2,6.608
440,14.08,4.3591,3.9182,0.1797,-0.0002,-0.0000,-0.6227,flat,18.0,2,6.064
450,14.40,4.8085,3.5821,0.1797,-0.0002,-0.0000,-0.6719,flat,18.0,2,5.514
460,14.72,5.2421,3.2237,0.1797,-0.0001,-0.0000,-0.7132,flat,18.0,2,4.959
470,15.04,5.6622,2.8475,0.1797,-0.0001,-0.0000,-0.7520,flat,18.0,2,4.401
480,15.36,6.0683,2.4549,0.1797,-0.0001,-0.0000,-0.7883,flat,18.0,2,3.840
490,15.68,6.4602,2.0477,0.1797,-0.0001,-0.0000,-0.8237,flat,18.0,2,3.278
500,16.00,6.8370,1.6269,0.1797,-0.0001,0.0000,-0.8594,flat,18.0,2,2.716
510,16.32,7.1982,1.1937,0.1797,-0.0001,0.0000,-0.8963,flat,18.0,2,2.153
520,16.64,7.5419,0.7480,0.1797,-0.0001,0.0000,-0.9386,flat,18.0,2,1.591
530,16.96,7.8642,0.2886,0.1797,-0.0002,0.0000,-0.9950,flat,18.0,2,1.030
540,17.28,8.1209,-0.1481,0.1798,0.0002,0.0002,-1.1704,flat,18.0,3,6.116
550,17.60,8.2686,-0.5707,0.1799,-0.0001,-0.0000,-1.4903,flat,18.0,3,5.935
560,17.92,8.2827,-1.0566,0.1799,-0.0001,-0.0000,-1.7624,flat,18.0,3,5.637
570,18.24,8.1607,-1.5534,0.1799,-0.0001,-0.0000,-1.9707,flat,18.0,3,5.248
580,18.56,7.9300,-2.0296,0.1799,-0.0001,-0.0000,-2.1327,flat,18.0,3,4.798
590,18.88,7.6209,-2.4729,0.1799,-0.0003,-0.0000,-2.2518,flat,18.0,3,4.311
600,19.20,7.2597,-2.8834,0.1798,-0.0004,-0.0000,-2.3473,flat,18.0,3,3.805
610,19.52,6.8593,-3.2586,0.1798,-0.0004,-0.0000,-2.4411,flat,18.0,3,3.289
620,19.84,6.4239,-3.5993,0.1798,-0.0004,-0.0000,-2.5352,flat,18.0,3,2.762
630,20.16,5.9573,-3.9007,0.1798,-0.0004,-0.0000,-2.6324,flat,18.0,3,2.227
640,20.48,5.4637,-4.1571,0.1798,-0.0004,-0.0000,-2.7381,flat,18.0,3,1.688
650,20.80,4.9476,-4.3600,0.1799,-0.0003,0.0000,-2.8651,flat,18.0,3,1.147
660,21.12,4.4264,-4.4864,0.1799,0.0001,-0.0001,-3.0499,flat,18.0,0,13.930
670,21.44,3.9071,-4.5120,0.1799,-0.0001,-0.0000,3.0268,flat,18.0,0,13.544
680,21.76,3.3743,-4.4321,0.1799,-0.0001,-0.0000,2.8739,flat,18.0,0,13.088
690,22.08,2.8493,-4.2717,0.1798,-0.0004,-0.0000,2.7642,flat,18.0,0,12.589
700,22.40,2.3389,-4.0551,0.1798,-0.0004,-0.0000,2.6836,flat,18.0,0,12.067
710,22.72,1.8430,-3.7980,0.1797,-0.0002,-0.0000,2.6212,flat,18.0,0,11.530
720,23.04,1.3607,-3.5103,0.1797,-0.0002,-0.0000,2.5714,flat,18.0,0,10.984
730,23.36,0.8913,-3.1987,0.1797,-0.0001,-0.0000,2.5324,flat,18.0,0,10.431
740,23.68,0.4324,-2.8688,0.1797,-0.0001,-0.0000,2.4995,flat,18.0,0,9.874
750,24.00,-0.0170,-2.5238,0.1797,-0.0001,-0.0000,2.4711,flat,18.0,0,9.314
760,24.32,-0.4578,-2.1659,0.1797,-0.0001,-0.0000,2.4462,flat,18.0,0,8.751
770,24.64,-0.8906,-1.7971,0.1797,-0.0001,-0.0000,2.4240,flat,18.0,0,8.185
780,24.96,-1.3162,-1.4187,0.1797,-0.0001,-0.0000,2.4036,flat,18.0,0,7.619
790,25.28,-1.7349,-1.0315,0.1797,-0.0001,-0.0000,2.3848,flat,18.0,0,7.050
800,25.60,-2.1468,-0.6364,0.1797,-0.0001,-0.0000,2.3677,flat,18.0,0,6.481
810,25.92,-2.5523,-0.2342,0.1797,-0.0001,-0.0000,2.3519,flat,18.0,0,5.911
820,26.24,-2.9518,0.1743,0.1797,-0.0001,-0.0000,2.3370,flat,18.0,0,5.340
830,26.56,-3.3454,0.5888,0.1797,-0.0001,-0.0000,2.3227,flat,18.0,0,4.769
840,26.88,-3.7331,1.0089,0.1797,-0.0000,-0.0000,2.3087,flat,18.0,0,4.198
850,27.20,-4.1150,1.4344,0.1797,-0.0000,0.0000,2.2951,flat,18.0,0,3.626
860,27.52,-4.4910,1.8648,0.1797,-0.0000,0.0000,2.2813,flat,18.0,0,3.055
870,27.84,-4.8608,2.3002,0.1797,-0.0001,0.0000,2.2669,flat,18.0,0,2.484
880,28.16,-5.2236,2.7407,0.1797,-0.0001,0.0000,2.2506,flat,18.0,0,1.913
890,28.48,-5.5778,3.1866,0.1797,-0.0001,0.0000,2.2302,flat,18.0,0,1.344
900,28.80,-5.9193,3.6383,0.1797,-0.0001,0.0000,2.1981,flat,18.0,1,0.781
910,29.12,-6.1206,3.9709,0.1798,0.0003,0.0000,1.8216,flat,18.0,1,7.009
920,29.44,-6.1946,4.3204,0.1799,0.0000,-0.0001,1.3999,flat,18.0,1,7.036
930,29.76,-6.0980,4.7246,0.1799,-0.0001,-0.0000,1.0882,flat,18.0,1,6.907
940,30.08,-5.8471,5.1177,0.1799,-0.0001,-0.0000,0.8542,flat,18.0,1,6.647
950,30.40,-5.4847,5.4700,0.1799,-0.0001,-0.0000,0.6684,flat,18.0,1,6.296
960,30.72,-5.0474,5.7732,0.1799,-0.0001,-0.0000,0.4970,flat,18.0,1,5.888
970,31.04,-4.5546,6.0124,0.1799,-0.0001,-0.0000,0.3433,flat,18.0,1,5.435
980,31.36,-4.0267,6.1822,0.1799,-0.0002,-0.0000,0.2119,flat,18.0,1,4.950
990,31.68,-3.4782,6.2863,0.1799,-0.0004,-0.0000,0.0992,flat,18.0,1,4.444
1000,32.00,-2.9192,6.3308,0.1798,-0.0004,-0.0000,0.0010,flat,18.0,1,3.923
1010,32.32,-2.3572,6.3216,0.1798,-0.0004,-0.0000,-0.0825,flat,18.0,1,3.391
1020,32.64,-1.7976,6.2670,0.1798,-0.0003,-0.0000,-0.1545,flat,18.0,1,2.855
1030,32.96,-1.2435,6.1727,0.1797,-0.0002,-0.0000,-0.2208,flat,18.0,1,2.316
1040,33.28,-0.6981,6.0420,0.1797,-0.0002,0.0000,-0.2874,flat,18.0,1,1.779
1050,33.60,-0.1664,5.8750,0.1798,-0.0003,0.0000,-0.3632,flat,18.0,1,1.249
1060,33.92,0.3428,5.6678,0.1798,-0.0004,0.0001,-0.4338,flat,18.0,2,10.222
1070,34.24,0.8473,5.4236,0.1797,-0.0002,-0.0000,-0.4823,flat,18.0,2,9.673
1080,34.56,1.3432,5.1551,0.1797,-0.0001,-0.0000,-0.5208,flat,18.0,2,9.118
1090,34.88,1.8301,4.8677,0.1797,-0.0001,-0.0000,-0.5535,flat,18.0,2,8.559
1100,35.20,2.3088,4.5643,0.1797,-0.0001,-0.0000,-0.5818,flat,18.0,2,7.997
1110,35.52,2.7800,4.2475,0.1797,-0.0001,-0.0000,-0.6068,flat,18.0,2,7.432
1120,35.84,3.2441,3.9188,0.1797,-0.0001,-0.0000,-0.6290,flat,18.0,2,6.866
1130,36.16,3.7016,3.5799,0.1797,-0.0001,-0.0000,-0.6491,flat,18.0,2,6.298
1140,36.48,4.1528,3.2317,0.1797,-0.0001,-0.0000,-0.6675,flat,18.0,2,5.729
1150,36.80,4.5980,2.8752,0.1797,-0.0001,-0.0000,-0.6846,flat,18.0,2,5.160
1160,37.12,5.0374,2.5111,0.1797,-0.0001,-0.0000,-0.7007,flat,18.0,2,4.589
1170,37.44,5.4710,2.1400,0.1797,-0.0001,-0.0000,-0.7164,flat,18.0,2,4.019
1180,37.76,5.8990,1.7620,0.1797,-0.0001,-0.0000,-0.7322,flat,18.0,2,3.448
1190,38.08,6.3209,1.3773,0.1797,-0.0001,0.0000,-0.7484,flat,18.0,2,2.877
1200,38.40,6.7362,0.9859,0.1797,-0.0001,0.0000,-0.7656,flat,18.0,2,2.306
1210,38.72,7.1439,0.5873,0.1797,-0.0001,0.0000,-0.7847,flat,18.0,2,1.737
1220,39.04,7.5420,0.1814,0.1797,-0.0001,0.0000,-0.8090,flat,18.0,2,1.171
1230,39.36,7.9058,-0.2126,0.1798,-0.0001,0.0004,-0.8994,flat,18.0,3,5.920
1240,39.68,8.1188,-0.5457,0.1799,0.0001,-0.0000,-1.2440,flat,18.0,3,5.840
1250,40.00,8.2391,-0.9803,0.1799,-0.0000,-0.0000,-1.5693,flat,18.0,3,5.650
1260,40.32,8.2149,-1.4667,0.1799,-0.0001,-0.0000,-1.8328,flat,18.0,3,5.341
1270,40.64,8.0564,-1.9535,0.1799,-0.0001,-0.0000,-2.0353,flat,18.0,3,4.945
1280,40.96,7.7938,-2.4134,0.1799,-0.0001,-0.0000,-2.1928,flat,18.0,3,4.492
1290,41.28,7.4576,-2.8376,0.1798,-0.0003,-0.0000,-2.3071,flat,18.0,3,4.004
1300,41.60,7.0736,-3.2240,0.1798,-0.0004,-0.0000,-2.4104,flat,18.0,3,3.501
1310,41.92,6.6496,-3.5739,0.1798,-0.0004,-0.0000,-2.5125,flat,18.0,3,2.984
1320,42.24,6.1906,-3.8832,0.1798,-0.0004,-0.0000,-2.6158,flat,18.0,3,2.458
1330,42.56,5.7016,-4.1464,0.1798,-0.0004,-0.0000,-2.7245,flat,18.0,3,1.924
1340,42.88,5.1877,-4.3560,0.1799,-0.0003,-0.0000,-2.8475,flat,18.0,3,1.386
1350,43.20,4.6565,-4.5001,0.1799,-0.0001,0.0000,-3.0074,flat,18.0,3,0.849
1360,43.52,4.1372,-4.5450,0.1799,-0.0001,-0.0000,3.0699,flat,18.0,0,13.742
1370,43.84,3.6049,-4.4880,0.1799,-0.0001,-0.0000,2.9068,flat,18.0,0,13.299
1380,44.16,3.0763,-4.3446,0.1799,-0.0003,-0.0000,2.7886,flat,18.0,0,12.807
1390,44.48,2.5618,-4.1406,0.1798,-0.0004,-0.0000,2.7030,flat,18.0,0,12.289
1400,44.80,2.0619,-3.8931,0.1797,-0.0003,-0.0000,2.6374,flat,18.0,0,11.754
1410,45.12,1.5756,-3.6133,0.1797,-0.0002,-0.0000,2.5853,flat,18.0,0,11.210
1420,45.44,1.1022,-3.3082,0.1797,-0.0001,-0.0000,2.5443,flat,18.0,0,10.658
1430,45.76,0.6398,-2.9839,0.1797,-0.0001,-0.0000,2.5104,flat,18.0,0,10.102
1440,46.08,0.1869,-2.6439,0.1797,-0.0001,-0.0000,2.4812,flat,18.0,0,9.542
1450,46.40,-0.2573,-2.2906,0.1797,-0.0001,-0.0000,2.4558,flat,18.0,0,8.979
1460,46.72,-0.6936,-1.9260,0.1797,-0.0001,-0.0000,2.4333,flat,18.0,0,8.414
1470,47.04,-1.1225,-1.5515,0.1797,-0.0001,-0.0000,2.4127,flat,18.0,0,7.848
1480,47.36,-1.5445,-1.1683,0.1797,-0.0001,-0.0000,2.3938,flat,18.0,0,7.280
1490,47.68,-1.9599,-0.7769,0.1797,-0.0001,-0.0000,2.3764,flat,18.0,0,6.711
1500,48.00,-2.3690,-0.3784,0.1797,-0.0001,-0.0000,2.3606,flat,18.0,0,6.141
1510,48.32,-2.7721,0.0267,0.1797,-0.0001,-0.0000,2.3458,flat,18.0,0,5.570
1520,48.64,-3.1694,0.4377,0.1797,-0.0001,-0.0000,2.3316,flat,18.0,0,4.999
1530,48.96,-3.5609,0.8543,0.1797,-0.0000,-0.0000,2.3179,flat,18.0,0,4.428
1540,49.28,-3.9468,1.2763,0.1797,-0.0000,-0.0000,2.3044,flat,18.0,0,3.856
1550,49.60,-4.3270,1.7034,0.1797,-0.0000,0.0000,2.2910,flat,18.0,0,3.284
1560,49.92,-4.7012,2.1353,0.1797,-0.0000,0.0000,2.2772,flat,18.0,0,2.713
1570,50.24,-5.0690,2.5721,0.1797,-0.0001,0.0000,2.2622,flat,18.0,0,2.142
1580,50.56,-5.4291,3.0141,0.1797,-0.0001,0.0000,2.2444,flat,18.0,0,1.572
1590,50.88,-5.7791,3.4617,0.1797,-0.0001,0.0000,2.2193,flat,18.0,0,1.005
1600,51.20,-6.0520,3.8528,0.1798,0.0002,0.0003,2.0087,flat,18.0,1,6.961
1610,51.52,-6.1821,4.1715,0.1798,0.0001,-0.0001,1.5614,flat,18.0,1,7.041
1620,51.84,-6.1598,4.5537,0.1799,-0.0001,-0.0001,1.2200,flat,18.0,1,6.980
1630,52.16,-5.9751,4.9570,0.1799,-0.0001,-0.0000,0.9534,flat,18.0,1,6.776
1640,52.48,-5.6582,5.3289,0.1799,-0.0001,-0.0000,0.7505,flat,18.0,1,6.463
1650,52.80,-5.2526,5.6560,0.1799,-0.0001,-0.0000,0.5729,flat,18.0,1,6.079
1660,53.12,-4.7824,5.9255,0.1799,-0.0001,-0.0000,0.4094,flat,18.0,1,5.645
1670,53.44,-4.2682,6.1262,0.1799,-0.0001,-0.0000,0.2676,flat,18.0,1,5.174
1680,53.76,-3.7275,6.2586,0.1799,-0.0003,-0.0000,0.1465,flat,18.0,1,4.677
1690,54.08,-3.1721,6.3283,0.1798,-0.0004,-0.0000,0.0419,flat,18.0,1,4.163
1700,54.40,-2.6106,6.3414,0.1798,-0.0004,-0.0000,-0.0488,flat,18.0,1,3.635
1710,54.72,-2.0496,6.3051,0.1798,-0.0003,-0.0000,-0.1252,flat,18.0,1,3.101
1720,55.04,-1.4929,6.2270,0.1797,-0.0003,-0.0000,-0.1934,flat,18.0,1,2.562
1730,55.36,-0.9434,6.1113,0.1797,-0.0002,-0.0000,-0.2591,flat,18.0,1,2.024
1740,55.68,-0.4051,5.9596,0.1797,-0.0003,0.0000,-0.3292,flat,18.0,1,1.490
1750,56.00,0.1154,5.7699,0.1798,-0.0004,0.0000,-0.4148,flat,18.0,1,0.970
1760,56.32,0.6158,5.5402,0.1798,-0.0002,-0.0000,-0.4624,flat,18.0,2,9.928
1770,56.64,1.1161,5.2815,0.1797,-0.0002,-0.0000,-0.5051,flat,18.0,2,9.374
1780,56.96,1.6068,5.0018,0.1797,-0.0001,-0.0000,-0.5400,flat,18.0,2,8.817
1790,57.28,2.0890,4.7050,0.1797,-0.0001,-0.0000,-0.5700,flat,18.0,2,8.256
1800,57.60,2.5634,4.3938,0.1797,-0.0001,-0.0000,-0.5962,flat,18.0,2,7.692
1810,57.92,3.0306,4.0701,0.1797,-0.0001,-0.0000,-0.6195,flat,18.0,2,7.126
1820,58.24,3.4910,3.7355,0.1797,-0.0001,-0.0000,-0.6404,flat,18.0,2,6.559
1830,58.56,3.9450,3.3913,0.1797,-0.0001,-0.0000,-0.6594,flat,18.0,2,5.991
1840,58.88,4.3929,3.0385,0.1797,-0.0001,-0.0000,-0.6769,flat,18.0,2,5.421
1850,59.20,4.8349,2.6778,0.1797,-0.0001,-0.0000,-0.6934,flat,18.0,2,4.851
1860,59.52,5.2713,2.3098,0.1797,-0.0001,-0.0000,-0.7092,flat,18.0,2,4.281
1870,59.84,5.7019,1.9350,0.1797,-0.0001,-0.0000,-0.7248,flat,18.0,2,3.710
1880,60.16,6.1267,1.5535,0.1797,-0.0001,-0.0000,-0.7407,flat,18.0,2,3.139
1890,60.48,6.5453,1.1652,0.1797,-0.0001,0.0000,-0.7573,flat,18.0,2,2.568
1900,60.80,6.9568,0.7701,0.1797,-0.0001,0.0000,-0.7752,flat,18.0,2,1.998
1910,61.12,7.3599,0.3678,0.1797,-0.0001,0.0000,-0.7964,flat,18.0,2,1.430
1920,61.44,7.7510,-0.0424,0.1797,-0.0001,0.0000,-0.8265,flat,18.0,2,0.868
1930,61.76,8.0340,-0.3827,0.1798,0.0003,-0.0000,-1.0756,flat,18.0,3,5.890
1940,62.08,8.2085,-0.7704,0.1799,-0.0000,-0.0000,-1.4126,rough,15.5,3,5.759
1950,62.40,8.2622,-1.2203,0.1799,-0.0001,-0.0000,-1.6931,flat,18.0,3,5.522
1960,62.72,8.1766,-1.7106,0.1799,-0.0001,-0.0000,-1.9281,flat,18.0,3,5.175
1970,63.04,7.9685,-2.1870,0.1799,-0.0001,-0.0000,-2.1119,flat,18.0,3,4.753
1980,63.36,7.6692,-2.6298,0.1799,-0.0002,-0.0000,-2.2508,flat,18.0,3,4.284
1990,63.68,7.3086,-3.0364,0.1798,-0.0003,-0.0000,-2.3570,flat,18.0,3,3.789
2000,64.00,6.9048,-3.4049,0.1798,-0.0004,-0.0000,-2.4606,flat,18.0,3,3.280
2010,64.32,6.4631,-3.7352,0.1798,-0.0004,-0.0000,-2.5638,flat,18.0,3,2.759
2020,64.64,5.9885,-4.0220,0.1798,-0.0004,-0.0000,-2.6696,flat,18.0,3,2.229
2030,64.96,5.4862,-4.2594,0.1798,-0.0004,-0.0000,-2.7835,flat,18.0,3,1.693
2040,65.28,4.9621,-4.4383,0.1799,-0.0002,0.0000,-2.9188,flat,18.0,3,1.155
2050,65.60,4.4336,-4.5359,0.1799,0.0000,-0.0001,-3.1023,flat,18.0,0,13.967
2060,65.92,3.9071,-4.5349,0.1799,-0.0001,0.0000,2.9897,flat,18.0,0,13.559
2070,66.24,3.3857,-4.4367,0.1799,-0.0002,0.0003,2.8665,flat,18.0,0,13.099
2080,66.56,2.8669,-4.2747,0.1799,-0.0003,-0.0000,2.7673,flat,18.0,0,12.604
2090,66.88,2.3560,-4.0597,0.1798,-0.0004,-0.0000,2.6860,flat,18.0,0,12.083
2100,67.20,1.8597,-3.8038,0.1797,-0.0002,-0.0000,2.6232,flat,18.0,0,11.546
2110,67.52,1.3769,-3.5170,0.1797,-0.0002,-0.0000,2.5730,flat,18.0,0,11.000
2120,67.84,0.9070,-3.2062,0.1797,-0.0001,-0.0000,2.5337,flat,18.0,0,10.448
2130,68.16,0.4478,-2.8769,0.1797,-0.0001,-0.0000,2.5007,flat,18.0,0,9.891
2140,68.48,-0.0020,-2.5324,0.1797,-0.0001,-0.0000,2.4721,flat,18.0,0,9.330
2150,68.80,-0.4431,-2.1750,0.1797,-0.0001,-0.0000,2.4472,flat,18.0,0,8.767
2160,69.12,-0.8763,-1.8067,0.1797,-0.0001,-0.0000,2.4249,flat,18.0,0,8.202
2170,69.44,-1.3022,-1.4286,0.1797,-0.0001,-0.0000,2.4044,flat,18.0,0,7.635
2180,69.76,-1.7212,-1.0418,0.1797,-0.0001,-0.0000,2.3856,flat,18.0,0,7.067
2190,70.08,-2.1334,-0.6470,0.1797,-0.0001,-0.0000,2.3684,flat,18.0,0,6.498
2200,70.40,-2.5392,-0.2452,0.1797,-0.0001,-0.0000,2.3526,flat,18.0,0,5.928
2210,70.72,-2.9390,0.1631,0.1797,-0.0001,-0.0000,2.3377,flat,18.0,0,5.357
2220,71.04,-3.3329,0.5773,0.1797,-0.0001,-0.0000,2.3234,flat,18.0,0,4.786
2230,71.36,-3.7209,0.9972,0.1797,-0.0000,-0.0000,2.3094,flat,18.0,0,4.215
2240,71.68,-4.1031,1.4223,0.1797,-0.0000,0.0000,2.2957,flat,18.0,0,3.643
2250,72.00,-4.4794,1.8525,0.1797,-0.0000,0.0000,2.2820,flat,18.0,0,3.072
2260,72.32,-4.8495,2.2877,0.1797,-0.0001,0.0000,2.2676,flat,18.0,0,2.501
2270,72.64,-5.2126,2.7279,0.1797,-0.0001,0.0000,2.2514,flat,18.0,0,1.930
2280,72.96,-5.5672,3.1736,0.1797,-0.0001,0.0000,2.2312,flat,18.0,0,1.361
2290,73.28,-5.9093,3.6250,0.1797,-0.0001,0.0000,2.1997,flat,18.0,1,0.798
2300,73.60,-6.1111,3.9572,0.1798,0.0003,0.0000,1.8235,flat,18.0,1,7.002
2310,73.92,-6.1858,4.3068,0.1799,0.0000,-0.0001,1.4019,flat,18.0,1,7.029
2320,74.24,-6.0901,4.7112,0.1799,-0.0001,-0.0000,1.0900,flat,18.0,1,6.900
2330,74.56,-5.8399,5.1048,0.1799,-0.0001,-0.0000,0.8559,flat,18.0,1,6.640
2340,74.88,-5.4781,5.4578,0.1799,-0.0001,-0.0000,0.6701,flat,18.0,1,6.289
2350,75.20,-5.0413,5.7616,0.1799,-0.0001,-0.0000,0.4989,flat,18.0,1,5.880
2360,75.52,-4.5490,6.0017,0.1799,-0.0001,-0.0000,0.3453,flat,18.0,1,5.427
2370,75.84,-4.0214,6.1725,0.1799,-0.0002,-0.0000,0.2139,flat,18.0,1,4.943
2380,76.16,-3.4731,6.2777,0.1799,-0.0004,-0.0000,0.1012,flat,18.0,1,4.437
2390,76.48,-2.9142,6.3232,0.1798,-0.0004,-0.0000,0.0029,flat,18.0,1,3.916
2400,76.80,-2.3522,6.3152,0.1798,-0.0004,-0.0000,-0.0809,flat,18.0,1,3.384
2410,77.12,-1.7925,6.2614,0.1798,-0.0003,-0.0000,-0.1530,flat,18.0,1,2.848
2420,77.44,-1.2383,6.1680,0.1797,-0.0002,-0.0000,-0.2196,flat,18.0,1,2.309
2430,77.76,-0.6928,6.0379,0.1797,-0.0002,0.0000,-0.2864,flat,18.0,1,1.772
2440,78.08,-0.1610,5.8715,0.1798,-0.0003,0.0000,-0.3625,flat,18.0,1,1.243
2450,78.40,0.3481,5.6647,0.1798,-0.0004,0.0001,-0.4334,flat,18.0,2,10.215
2460,78.72,0.8526,5.4207,0.1797,-0.0002,-0.0000,-0.4820,flat,18.0,2,9.667
2470,79.04,1.3485,5.1524,0.1797,-0.0001,-0.0000,-0.5206,flat,18.0,2,9.112
2480,79.36,1.8354,4.8651,0.1797,-0.0001,-0.0000,-0.5534,flat,18.0,2,8.553
2490,79.68,2.3142,4.5618,0.1797,-0.0001,-0.0000,-0.5818,flat,18.0,2,7.991
2500,80.00,2.7854,4.2449,0.1797,-0.0001,-0.0000,-0.6067,flat,18.0,2,7.426
2510,80.32,3.2494,3.9163,0.1797,-0.0001,-0.0000,-0.6290,flat,18.0,2,6.860
2520,80.64,3.7069,3.5773,0.1797,-0.0001,-0.0000,-0.6492,flat,18.0,2,6.292
2530,80.96,4.1581,3.2291,0.1797,-0.0001,-0.0000,-0.6676,flat,18.0,2,5.724
2540,81.28,4.6032,2.8726,0.1797,-0.0001,-0.0000,-0.6847,flat,18.0,2,5.154
2550,81.60,5.0425,2.5084,0.1797,-0.0001,-0.0000,-0.7009,flat,18.0,2,4.584
2560,81.92,5.4761,2.1372,0.1797,-0.0001,-0.0000,-0.7167,flat,18.0,2,4.013
2570,82.24,5.9039,1.7591,0.1797,-0.0001,-0.0000,-0.7325,flat,18.0,2,3.442
2580,82.56,6.3257,1.3743,0.1797,-0.0001,0.0000,-0.7488,flat,18.0,2,2.871
2590,82.88,6.7409,0.9827,0.1797,-0.0001,0.0000,-0.7660,flat,18.0,2,2.301
2600,83.20,7.1484,0.5841,0.1797,-0.0001,0.0000,-0.7852,flat,18.0,2,1.731
2610,83.52,7.5463,0.1779,0.1797,-0.0001,0.0000,-0.8096,flat,18.0,2,1.165
2620,83.84,7.9097,-0.2163,0.1798,-0.0001,0.0004,-0.9003,flat,18.0,3,5.920
2630,84.16,8.1224,-0.5495,0.1799,0.0001,-0.0000,-1.2450,flat,18.0,3,5.840
2640,84.48,8.2424,-0.9843,0.1799,-0.0000,-0.0000,-1.5703,flat,18.0,3,5.650
2650,84.80,8.2176,-1.4706,0.1799,-0.0001,-0.0000,-1.8338,flat,18.0,3,5.342
2660,85.12,8.0587,-1.9573,0.1799,-0.0001,-0.0000,-2.0362,flat,18.0,3,4.945
2670,85.44,7.7956,-2.4169,0.1799,-0.0001,-0.0000,-2.1937,flat,18.0,3,4.492
2680,85.76,7.4591,-2.8409,0.1798,-0.0003,-0.0000,-2.3079,flat,18.0,3,4.004
2690,86.08,7.0747,-3.2269,0.1798,-0.0004,-0.0000,-2.4112,flat,18.0,3,3.501
2700,86.40,6.6504,-3.5765,0.1798,-0.0004,-0.0000,-2.5134,flat,18.0,3,2.984
2710,86.72,6.1912,-3.8854,0.1798,-0.0004,-0.0000,-2.6168,flat,18.0,3,2.458
2720,87.04,5.7019,-4.1481,0.1798,-0.0004,-0.0000,-2.7255,flat,18.0,3,1.924
2730,87.36,5.1878,-4.3573,0.1799,-0.0003,-0.0000,-2.8485,flat,18.0,3,1.386
2740,87.68,4.6564,-4.5009,0.1799,-0.0001,0.0000,-3.0085,flat,18.0,3,0.849
2750,88.00,4.1369,-4.5452,0.1799,-0.0001,-0.0000,3.0692,flat,18.0,0,13.742
2760,88.32,3.6046,-4.4879,0.1799,-0.0001,-0.0000,2.9063,flat,18.0,0,13.298
2770,88.64,3.0761,-4.3442,0.1799,-0.0003,-0.0000,2.7883,flat,18.0,0,12.806
2780,88.96,2.5616,-4.1399,0.1798,-0.0004,-0.0000,2.7027,flat,18.0,0,12.288
2790,89.28,2.0617,-3.8924,0.1797,-0.0003,-0.0000,2.6372,flat,18.0,0,11.754
2800,89.60,1.5755,-3.6125,0.1797,-0.0002,-0.0000,2.5852,flat,18.0,0,11.209
2810,89.92,1.1021,-3.3074,0.1797,-0.0001,-0.0000,2.5442,flat,18.0,0,10.657
2820,90.24,0.6397,-2.9830,0.1797,-0.0001,-0.0000,2.5103,flat,18.0,0,10.101
2830,90.56,0.1868,-2.6430,0.1797,-0.0001,-0.0000,2.4812,flat,18.0,0,9.541
2840,90.88,-0.2574,-2.2897,0.1797,-0.0001,-0.0000,2.4558,flat,18.0,0,8.978
2850,91.20,-0.6936,-1.9250,0.1797,-0.0001,-0.0000,2.4333,flat,18.0,0,8.413
2860,91.52,-1.1225,-1.5506,0.1797,-0.0001,-0.0000,2.4128,flat,18.0,0,7.847
2870,91.84,-1.5446,-1.1673,0.1797,-0.0001,-0.0000,2.3938,flat,18.0,0,7.279
2880,92.16,-1.9600,-0.7760,0.1797,-0.0001,-0.0000,2.3765,flat,18.0,0,6.710
2890,92.48,-2.3691,-0.3775,0.1797,-0.0001,-0.0000,2.3606,flat,18.0,0,6.140
2900,92.80,-2.7722,0.0276,0.1797,-0.0001,-0.0000,2.3458,flat,18.0,0,5.569
2910,93.12,-3.1695,0.4386,0.1797,-0.0001,-0.0000,2.3317,flat,18.0,0,4.998
2920,93.44,-3.5611,0.8552,0.1797,-0.0000,-0.0000,2.3180,flat,18.0,0,4.427
2930,93.76,-3.9470,1.2772,0.1797,-0.0000,-0.0000,2.3045,flat,18.0,0,3.855
2940,94.08,-4.3272,1.7042,0.1797,-0.0000,0.0000,2.2911,flat,18.0,0,3.283
2950,94.40,-4.7014,2.1361,0.1797,-0.0000,0.0000,2.2773,flat,18.0,0,2.712
2960,94.72,-5.0693,2.5729,0.1797,-0.0001,0.0000,2.2623,flat,18.0,0,2.141
2970,95.04,-5.4295,3.0149,0.1797,-0.0001,0.0000,2.2444,flat,18.0,0,1.571
2980,95.36,-5.7794,3.4624,0.1797,-0.0001,0.0000,2.2193,flat,18.0,0,1.005
2990,95.68,-6.0524,3.8534,0.1798,0.0002,0.0003,2.0087,flat,18.0,1,6.962
3000,96.00,-6.1825,4.1722,0.1798,0.0001,-0.0001,1.5614,flat,18.0,1,7.041
3010,96.32,-6.1602,4.5543,0.1799,-0.0001,-0.0001,1.2200,flat,18.0,1,6.980
3020,96.64,-5.9755,4.9577,0.1799,-0.0001,-0.0000,0.9534,flat,18.0,1,6.777
3030,96.96,-5.6586,5.3295,0.1799,-0.0001,-0.0000,0.7505,flat,18.0,1,6.463
3040,97.28,-5.2530,5.6566,0.1799,-0.0001,-0.0000,0.5728,flat,18.0,1,6.080
3050,97.60,-4.7828,5.9261,0.1799,-0.0001,-0.0000,0.4094,flat,18.0,1,5.646
3060,97.92,-4.2686,6.1267,0.1799,-0.0001,-0.0000,0.2675,flat,18.0,1,5.175
3070,98.24,-3.7278,6.2591,0.1799,-0.0003,-0.0000,0.1464,flat,18.0,1,4.678
3080,98.56,-3.1724,6.3288,0.1798,-0.0004,-0.0000,0.0418,flat,18.0,1,4.163
3090,98.88,-2.6110,6.3418,0.1798,-0.0004,-0.0000,-0.0489,flat,18.0,1,3.636
3100,99.20,-2.0500,6.3055,0.1798,-0.0003,-0.0000,-0.1253,flat,18.0,1,3.101
3110,99.52,-1.4932,6.2273,0.1797,-0.0003,-0.0000,-0.1935,flat,18.0,1,2.563
3120,99.84,-0.9438,6.1116,0.1797,-0.0002,-0.0000,-0.2592,flat,18.0,1,2.024
3130,100.16,-0.4055,5.9598,0.1797,-0.0003,0.0000,-0.3292,flat,18.0,1,1.491
3140,100.48,0.1150,5.7702,0.1798,-0.0004,0.0000,-0.4148,flat,18.0,1,0.970
3150,100.80,0.6154,5.5405,0.1798,-0.0002,-0.0000,-0.4624,flat,18.0,2,9.928
3160,101.12,1.1158,5.2817,0.1797,-0.0002,-0.0000,-0.5052,flat,18.0,2,9.375
3170,101.44,1.6064,5.0020,0.1797,-0.0001,-0.0000,-0.5400,flat,18.0,2,8.817
3180,101.76,2.0886,4.7052,0.1797,-0.0001,-0.0000,-0.5700,flat,18.0,2,8.256
3190,102.08,2.5631,4.3939,0.1797,-0.0001,-0.0000,-0.5962,flat,18.0,2,7.692
3200,102.40,3.0302,4.0703,0.1797,-0.0001,-0.0000,-0.6195,flat,18.0,2,7.127
3210,102.72,3.4906,3.7357,0.1797,-0.0001,-0.0000,-0.6404,flat,18.0,2,6.560
3220,103.04,3.9446,3.3915,0.1797,-0.0001,-0.0000,-0.6594,flat,18.0,2,5.991
3230,103.36,4.3925,3.0387,0.1797,-0.0001,-0.0000,-0.6769,flat,18.0,2,5.422
3240,103.68,4.8346,2.6780,0.1797,-0.0001,-0.0000,-0.6934,flat,18.0,2,4.852
3250,104.00,5.2709,2.3100,0.1797,-0.0001,-0.0000,-0.7092,flat,18.0,2,4.281
3260,104.32,5.7015,1.9352,0.1797,-0.0001,-0.0000,-0.7247,flat,18.0,2,3.711
3270,104.64,6.1264,1.5537,0.1797,-0.0001,-0.0000,-0.7406,flat,18.0,2,3.140
3280,104.96,6.5449,1.1654,0.1797,-0.0001,0.0000,-0.7572,flat,18.0,2,2.569
3290,105.28,6.9565,0.7703,0.1797,-0.0001,0.0000,-0.7752,flat,18.0,2,1.999
3300,105.60,7.3596,0.3680,0.1797,-0.0001,0.0000,-0.7964,flat,18.0,2,1.430
3310,105.92,7.7507,-0.0422,0.1797,-0.0001,0.0000,-0.8264,flat,18.0,2,0.869
3320,106.24,8.0337,-0.3824,0.1798,0.0003,-0.0000,-1.0756,flat,18.0,3,5.890
3330,106.56,8.2083,-0.7702,0.1799,-0.0000,-0.0000,-1.4125,rough,15.5,3,5.759
3340,106.88,8.2620,-1.2201,0.1799,-0.0001,-0.0000,-1.6930,flat,18.0,3,5.522
3350,107.20,8.1764,-1.7103,0.1799,-0.0001,-0.0000,-1.9280,flat,18.0,3,5.175
3360,107.52,7.9684,-2.1867,0.1799,-0.0001,-0.0000,-2.1118,flat,18.0,3,4.753
3370,107.84,7.6690,-2.6295,0.1799,-0.0002,-0.0000,-2.2508,flat,18.0,3,4.284
3380,108.16,7.3085,-3.0362,0.1798,-0.0003,-0.0000,-2.3570,flat,18.0,3,3.789
3390,108.48,6.9047,-3.4047,0.1798,-0.0004,-0.0000,-2.4605,flat,18.0,3,3.280
3400,108.80,6.4630,-3.7350,0.1798,-0.0004,-0.0000,-2.5638,flat,18.0,3,2.759
3410,109.12,5.9885,-4.0219,0.1798,-0.0004,-0.0000,-2.6695,flat,18.0,3,2.229
3420,109.44,5.4862,-4.2592,0.1798,-0.0004,-0.0000,-2.7835,flat,18.0,3,1.693
3430,109.76,4.9621,-4.4382,0.1799,-0.0002,0.0000,-2.9187,flat,18.0,3,1.155
3440,110.08,4.4336,-4.5359,0.1799,0.0000,-0.0001,-3.1023,flat,18.0,0,13.967
3450,110.40,3.9071,-4.5349,0.1799,-0.0001,0.0000,2.9898,flat,18.0,0,13.559
3460,110.72,3.3858,-4.4367,0.1799,-0.0002,0.0003,2.8665,flat,18.0,0,13.100
3470,111.04,2.8669,-4.2747,0.1799,-0.0003,-0.0000,2.7673,flat,18.0,0,12.604
3480,111.36,2.3560,-4.0597,0.1798,-0.0004,-0.0000,2.6860,flat,18.0,0,12.083
3490,111.68,1.8597,-3.8038,0.1797,-0.0002,-0.0000,2.6232,flat,18.0,0,11.546
3500,112.00,1.3769,-3.5171,0.1797,-0.0002,-0.0000,2.5730,flat,18.0,0,11.000
3510,112.32,0.9071,-3.2062,0.1797,-0.0001,-0.0000,2.5337,flat,18.0,0,10.448
3520,112.64,0.4478,-2.8769,0.1797,-0.0001,-0.0000,2.5007,flat,18.0,0,9.891
3530,112.96,-0.0020,-2.5324,0.1797,-0.0001,-0.0000,2.4721,flat,18.0,0,9.330
3540,113.28,-0.4431,-2.1751,0.1797,-0.0001,-0.0000,2.4472,flat,18.0,0,8.767
3550,113.60,-0.8763,-1.8067,0.1797,-0.0001,-0.0000,2.4249,flat,18.0,0,8.202
3560,113.92,-1.3022,-1.4286,0.1797,-0.0001,-0.0000,2.4044,flat,18.0,0,7.635
3570,114.24,-1.7212,-1.0418,0.1797,-0.0001,-0.0000,2.3856,flat,18.0,0,7.067
3580,114.56,-2.1333,-0.6470,0.1797,-0.0001,-0.0000,2.3684,flat,18.0,0,6.498
3590,114.88,-2.5392,-0.2452,0.1797,-0.0001,-0.0000,2.3526,flat,18.0,0,5.928
3600,115.20,-2.9390,0.1631,0.1797,-0.0001,-0.0000,2.3377,flat,18.0,0,5.357
3610,115.52,-3.3329,0.5773,0.1797,-0.0001,-0.0000,2.3234,flat,18.0,0,4.786
3620,115.84,-3.7209,0.9971,0.1797,-0.0000,-0.0000,2.3094,flat,18.0,0,4.215
3630,116.16,-4.1031,1.4223,0.1797,-0.0000,0.0000,2.2957,flat,18.0,0,3.643
3640,116.48,-4.4794,1.8525,0.1797,-0.0000,0.0000,2.2820,flat,18.0,0,3.072
3650,116.80,-4.8494,2.2877,0.1797,-0.0001,0.0000,2.2676,flat,18.0,0,2.501
3660,117.12,-5.2126,2.7279,0.1797,-0.0001,0.0000,2.2514,flat,18.0,0,1.930
3670,117.44,-5.5672,3.1736,0.1797,-0.0001,0.0000,2.2312,flat,18.0,0,1.361
3680,117.76,-5.9093,3.6250,0.1797,-0.0001,0.0000,2.1997,flat,18.0,1,0.798
3690,118.08,-6.1111,3.9572,0.1798,0.0003,0.0000,1.8235,flat,18.0,1,7.002
3700,118.40,-6.1858,4.3067,0.1799,0.0000,-0.0001,1.4019,flat,18.0,1,7.029
3710,118.72,-6.0901,4.7112,0.1799,-0.0001,-0.0000,1.0900,flat,18.0,1,6.900
3720,119.04,-5.8399,5.1048,0.1799,-0.0001,-0.0000,0.8559,flat,18.0,1,6.640
3730,119.36,-5.4781,5.4577,0.1799,-0.0001,-0.0000,0.6701,flat,18.0,1,6.289
3740,119.68,-5.0413,5.7616,0.1799,-0.0001,-0.0000,0.4989,flat,18.0,1,5.880
3750,120.00,-4.5490,6.0017,0.1799,-0.0001,-0.0000,0.3453,flat,18.0,1,5.427
3760,120.32,-4.0214,6.1725,0.1799,-0.0002,-0.0000,0.2139,flat,18.0,1,4.943
3770,120.64,-3.4731,6.2777,0.1799,-0.0004,-0.0000,0.1012,flat,18.0,1,4.437
3780,120.96,-2.9142,6.3232,0.1798,-0.0004,-0.0000,0.0029,flat,18.0,1,3.916
3790,121.28,-2.3522,6.3152,0.1798,-0.0004,-0.0000,-0.0809,flat,18.0,1,3.384
3800,121.60,-1.7925,6.2614,0.1798,-0.0003,-0.0000,-0.1530,flat,18.0,1,2.848
3810,121.92,-1.2383,6.1680,0.1797,-0.0002,-0.0000,-0.2196,flat,18.0,1,2.309
3820,122.24,-0.6928,6.0379,0.1797,-0.0002,0.0000,-0.2864,flat,18.0,1,1.772
3830,122.56,-0.1610,5.8715,0.1798,-0.0003,0.0000,-0.3625,flat,18.0,1,1.243
3840,122.88,0.3481,5.6647,0.1798,-0.0004,0.0001,-0.4334,flat,18.0,2,10.215
3850,123.20,0.8526,5.4207,0.1797,-0.0002,-0.0000,-0.4820,flat,18.0,2,9.667
3860,123.52,1.3485,5.1524,0.1797,-0.0001,-0.0000,-0.5206,flat,18.0,2,9.112
3870,123.84,1.8354,4.8651,0.1797,-0.0001,-0.0000,-0.5534,flat,18.0,2,8.553
3880,124.16,2.3142,4.5618,0.1797,-0.0001,-0.0000,-0.5818,flat,18.0,2,7.991
3890,124.48,2.7854,4.2449,0.1797,-0.0001,-0.0000,-0.6067,flat,18.0,2,7.426
3900,124.80,3.2494,3.9163,0.1797,-0.0001,-0.0000,-0.6290,flat,18.0,2,6.860
3910,125.12,3.7069,3.5773,0.1797,-0.0001,-0.0000,-0.6492,flat,18.0,2,6.292
3920,125.44,4.1581,3.2291,0.1797,-0.0001,-0.0000,-0.6676,flat,18.0,2,5.724
3930,125.76,4.6032,2.8726,0.1797,-0.0001,-0.0000,-0.6847,flat,18.0,2,5.154
3940,126.08,5.0425,2.5084,0.1797,-0.0001,-0.0000,-0.7009,flat,18.0,2,4.584
3950,126.40,5.4761,2.1372,0.1797,-0.0001,-0.0000,-0.7167,flat,18.0,2,4.013
3960,126.72,5.9039,1.7591,0.1797,-0.0001,-0.0000,-0.7325,flat,18.0,2,3.442
3970,127.04,6.3257,1.3743,0.1797,-0.0001,0.0000,-0.7488,flat,18.0,2,2.871
3980,127.36,6.7409,0.9827,0.1797,-0.0001,0.0000,-0.7660,flat,18.0,2,2.301
3990,127.68,7.1484,0.5841,0.1797,-0.0001,0.0000,-0.7852,flat,18.0,2,1.731
4000,128.00,7.5463,0.1779,0.1797,-0.0001,0.0000,-0.8096,flat,18.0,2,1.165
4010,128.32,7.9097,-0.2163,0.1798,-0.0001,0.0004,-0.9003,flat,18.0,3,5.920
4020,128.64,8.1224,-0.5495,0.1799,0.0001,-0.0000,-1.2450,flat,18.0,3,5.840
4030,128.96,8.2424,-0.9843,0.1799,-0.0000,-0.0000,-1.5703,flat,18.0,3,5.650
4040,129.28,8.2176,-1.4706,0.1799,-0.0001,-0.0000,-1.8338,flat,18.0,3,5.342
4050,129.60,8.0587,-1.9573,0.1799,-0.0001,-0.0000,-2.0362,flat,18.0,3,4.945
4060,129.92,7.7956,-2.4169,0.1799,-0.0001,-0.0000,-2.1937,flat,18.0,3,4.492
4070,130.24,7.4591,-2.8409,0.1798,-0.0003,-0.0000,-2.3079,flat,18.0,3,4.004
4080,130.56,7.0747,-3.2269,0.1798,-0.0004,-0.0000,-2.4112,flat,18.0,3,3.501
4090,130.88,6.6504,-3.5765,0.1798,-0.0004,-0.0000,-2.5134,flat,18.0,3,2.984
4100,131.20,6.1912,-3.8854,0.1798,-0.0004,-0.0000,-2.6168,flat,18.0,3,2.458
4110,131.52,5.7019,-4.1481,0.1798,-0.0004,-0.0000,-2.7255,flat,18.0,3,1.924
4120,131.84,5.1878,-4.3573,0.1799,-0.0003,-0.0000,-2.8485,flat,18.0,3,1.386
4130,132.16,4.6564,-4.5009,0.1799,-0.0001,0.0000,-3.0085,flat,18.0,3,0.849
4140,132.48,4.1369,-4.5452,0.1799,-0.0001,-0.0000,3.0692,flat,18.0,0,13.742
4150,132.80,3.6046,-4.4879,0.1799,-0.0001,-0.0000,2.9063,flat,18.0,0,13.298
4160,133.12,3.0761,-4.3442,0.1799,-0.0003,-0.0000,2.7883,flat,18.0,0,12.806
4170,133.44,2.5616,-4.1399,0.1798,-0.0004,-0.0000,2.7027,flat,18.0,0,12.288
4180,133.76,2.0617,-3.8924,0.1797,-0.0003,-0.0000,2.6372,flat,18.0,0,11.754
4190,134.08,1.5755,-3.6125,0.1797,-0.0002,-0.0000,2.5852,flat,18.0,0,11.209
4200,134.40,1.1021,-3.3074,0.1797,-0.0001,-0.0000,2.5442,flat,18.0,0,10.657
4210,134.72,0.6397,-2.9830,0.1797,-0.0001,-0.0000,2.5103,flat,18.0,0,10.101
4220,135.04,0.1868,-2.6429,0.1797,-0.0001,-0.0000,2.4812,flat,18.0,0,9.541
4230,135.36,-0.2574,-2.2896,0.1797,-0.0001,-0.0000,2.4558,flat,18.0,0,8.978
4240,135.68,-0.6936,-1.9250,0.1797,-0.0001,-0.0000,2.4333,flat,18.0,0,8.413
4250,136.00,-1.1225,-1.5506,0.1797,-0.0001,-0.0000,2.4128,flat,18.0,0,7.847
4260,136.32,-1.5446,-1.1673,0.1797,-0.0001,-0.0000,2.3938,flat,18.0,0,7.279
4270,136.64,-1.9600,-0.7760,0.1797,-0.0001,-0.0000,2.3765,flat,18.0,0,6.710
4280,136.96,-2.3691,-0.3775,0.1797,-0.0001,-0.0000,2.3606,flat,18.0,0,6.140
4290,137.28,-2.7722,0.0276,0.1797,-0.0001,-0.0000,2.3458,flat,18.0,0,5.569
4300,137.60,-3.1695,0.4386,0.1797,-0.0001,-0.0000,2.3317,flat,18.0,0,4.998
4310,137.92,-3.5611,0.8552,0.1797,-0.0000,-0.0000,2.3180,flat,18.0,0,4.427
4320,138.24,-3.9470,1.2772,0.1797,-0.0000,-0.0000,2.3045,flat,18.0,0,3.855
4330,138.56,-4.3272,1.7042,0.1797,-0.0000,0.0000,2.2911,flat,18.0,0,3.283
4340,138.88,-4.7014,2.1361,0.1797,-0.0000,0.0000,2.2773,flat,18.0,0,2.712
4350,139.20,-5.0692,2.5729,0.1797,-0.0001,0.0000,2.2623,flat,18.0,0,2.141
4360,139.52,-5.4295,3.0149,0.1797,-0.0001,0.0000,2.2444,flat,18.0,0,1.571
4370,139.84,-5.7794,3.4624,0.1797,-0.0001,0.0000,2.2193,flat,18.0,0,1.005
4380,140.16,-6.0524,3.8534,0.1798,0.0002,0.0003,2.0087,flat,18.0,1,6.962
4390,140.48,-6.1825,4.1722,0.1798,0.0001,-0.0001,1.5614,flat,18.0,1,7.041
4400,140.80,-6.1602,4.5543,0.1799,-0.0001,-0.0001,1.2200,flat,18.0,1,6.980
4410,141.12,-5.9755,4.9577,0.1799,-0.0001,-0.0000,0.9534,flat,18.0,1,6.777
4420,141.44,-5.6586,5.3295,0.1799,-0.0001,-0.0000,0.7505,flat,18.0,1,6.463
4430,141.76,-5.2530,5.6566,0.1799,-0.0001,-0.0000,0.5728,flat,18.0,1,6.080
4440,142.08,-4.7828,5.9261,0.1799,-0.0001,-0.0000,0.4094,flat,18.0,1,5.646
4450,142.40,-4.2686,6.1267,0.1799,-0.0001,-0.0000,0.2675,flat,18.0,1,5.175
4460,142.72,-3.7278,6.2591,0.1799,-0.0003,-0.0000,0.1464,flat,18.0,1,4.678
4470,143.04,-3.1724,6.3288,0.1798,-0.0004,-0.0000,0.0418,flat,18.0,1,4.163
4480,143.36,-2.6110,6.3418,0.1798,-0.0004,-0.0000,-0.0489,flat,18.0,1,3.636
4490,143.68,-2.0500,6.3055,0.1798,-0.0003,-0.0000,-0.1253,flat,18.0,1,3.101
4500,144.00,-1.4932,6.2273,0.1797,-0.0003,-0.0000,-0.1935,flat,18.0,1,2.563
4510,144.32,-0.9438,6.1116,0.1797,-0.0002,-0.0000,-0.2592,flat,18.0,1,2.024
4520,144.64,-0.4055,5.9598,0.1797,-0.0003,0.0000,-0.3292,flat,18.0,1,1.491
4530,144.96,0.1150,5.7702,0.1798,-0.0004,0.0000,-0.4148,flat,18.0,1,0.970
4540,145.28,0.6154,5.5405,0.1798,-0.0002,-0.0000,-0.4624,flat,18.0,2,9.928
4550,145.60,1.1158,5.2817,0.1797,-0.0002,-0.0000,-0.5052,flat,18.0,2,9.375
4560,145.92,1.6064,5.0020,0.1797,-0.0001,-0.0000,-0.5400,flat,18.0,2,8.817
4570,146.24,2.0886,4.7052,0.1797,-0.0001,-0.0000,-0.5700,flat,18.0,2,8.256
4580,146.56,2.5631,4.3939,0.1797,-0.0001,-0.0000,-0.5962,flat,18.0,2,7.692
4590,146.88,3.0302,4.0703,0.1797,-0.0001,-0.0000,-0.6195,flat,18.0,2,7.127
4600,147.20,3.4906,3.7357,0.1797,-0.0001,-0.0000,-0.6404,flat,18.0,2,6.560
4610,147.52,3.9446,3.3915,0.1797,-0.0001,-0.0000,-0.6594,flat,18.0,2,5.991
4620,147.84,4.3925,3.0387,0.1797,-0.0001,-0.0000,-0.6769,flat,18.0,2,5.422
4630,148.16,4.8346,2.6780,0.1797,-0.0001,-0.0000,-0.6934,flat,18.0,2,4.852
4640,148.48,5.2709,2.3100,0.1797,-0.0001,-0.0000,-0.7092,flat,18.0,2,4.281
4650,148.80,5.7015,1.9352,0.1797,-0.0001,-0.0000,-0.7247,flat,18.0,2,3.711
4660,149.12,6.1264,1.5537,0.1797,-0.0001,-0.0000,-0.7406,flat,18.0,2,3.140
4670,149.44,6.5449,1.1654,0.1797,-0.0001,0.0000,-0.7572,flat,18.0,2,2.569
4680,149.76,6.9565,0.7703,0.1797,-0.0001,0.0000,-0.7752,flat,18.0,2,1.999
4690,150.08,7.3596,0.3680,0.1797,-0.0001,0.0000,-0.7964,flat,18.0,2,1.430
4700,150.40,7.7507,-0.0421,0.1797,-0.0001,0.0000,-0.8264,flat,18.0,2,0.869
4710,150.72,8.0337,-0.3824,0.1798,0.0003,-0.0000,-1.0756,flat,18.0,3,5.890
4720,151.04,8.2083,-0.7702,0.1799,-0.0000,-0.0000,-1.4125,rough,15.5,3,5.759
4730,151.36,8.2620,-1.2201,0.1799,-0.0001,-0.0000,-1.6930,flat,18.0,3,5.522
4740,151.68,8.1764,-1.7103,0.1799,-0.0001,-0.0000,-1.9280,flat,18.0,3,5.175
4750,152.00,7.9684,-2.1867,0.1799,-0.0001,-0.0000,-2.1118,flat,18.0,3,4.753
4760,152.32,7.6690,-2.6295,0.1799,-0.0002,-0.0000,-2.2508,flat,18.0,3,4.284
4770,152.64,7.3085,-3.0362,0.1798,-0.0003,-0.0000,-2.3570,flat,18.0,3,3.789
4780,152.96,6.9047,-3.4047,0.1798,-0.0004,-0.0000,-2.4605,flat,18.0,3,3.280
4790,153.28,6.4630,-3.7350,0.1798,-0.0004,-0.0000,-2.5638,flat,18.0,3,2.759
4800,153.60,5.9885,-4.0219,0.1798,-0.0004,-0.0000,-2.6695,flat,18.0,3,2.229
4810,153.92,5.4862,-4.2592,0.1798,-0.0004,-0.0000,-2.7835,flat,18.0,3,1.693
4820,154.24,4.9621,-4.4382,0.1799,-0.0002,0.0000,-2.9187,flat,18.0,3,1.155
4830,154.56,4.4336,-4.5359,0.1799,0.0000,-0.0001,-3.1023,flat,18.0,0,13.967
4840,154.88,3.9071,-4.5349,0.1799,-0.0001,0.0000,2.9898,flat,18.0,0,13.559
4850,155.20,3.3858,-4.4367,0.1799,-0.0002,0.0003,2.8665,flat,18.0,0,13.100
4860,155.52,2.8669,-4.2747,0.1799,-0.0003,-0.0000,2.7673,flat,18.0,0,12.604
4870,155.84,2.3560,-4.0597,0.1798,-0.0004,-0.0000,2.6859,flat,18.0,0,12.083
4880,156.16,1.8597,-3.8038,0.1797,-0.0002,-0.0000,2.6232,flat,18.0,0,11.546
4890,156.48,1.3769,-3.5170,0.1797,-0.0002,-0.0000,2.5730,flat,18.0,0,11.000
4900,156.80,0.9071,-3.2061,0.1797,-0.0001,-0.0000,2.5337,flat,18.0,0,10.448
4910,157.12,0.4478,-2.8769,0.1797,-0.0001,-0.0000,2.5007,flat,18.0,0,9.891
4920,157.44,-0.0020,-2.5324,0.1797,-0.0001,-0.0000,2.4721,flat,18.0,0,9.330
4930,157.76,-0.4431,-2.1750,0.1797,-0.0001,-0.0000,2.4472,flat,18.0,0,8.767
4940,158.08,-0.8763,-1.8066,0.1797,-0.0001,-0.0000,2.4249,flat,18.0,0,8.202
4950,158.40,-1.3022,-1.4286,0.1797,-0.0001,-0.0000,2.4044,flat,18.0,0,7.635
4960,158.72,-1.7211,-1.0417,0.1797,-0.0001,-0.0000,2.3856,flat,18.0,0,7.067
4970,159.04,-2.1333,-0.6470,0.1797,-0.0001,-0.0000,2.3684,flat,18.0,0,6.498
4980,159.36,-2.5392,-0.2451,0.1797,-0.0001,-0.0000,2.3526,flat,18.0,0,5.928
4990,159.68,-2.9390,0.1631,0.1797,-0.0001,-0.0000,2.3377,flat,18.0,0,5.357
5000,160.00,-3.3329,0.5773,0.1797,-0.0001,-0.0000,2.3234,flat,18.0,0,4.786
5010,160.32,-3.7209,0.9972,0.1797,-0.0000,-0.0000,2.3094,flat,18.0,0,4.215
5020,160.64,-4.1031,1.4224,0.1797,-0.0000,0.0000,2.2957,flat,18.0,0,3.643
5030,160.96,-4.4794,1.8526,0.1797,-0.0000,0.0000,2.2820,flat,18.0,0,3.072
5040,161.28,-4.8494,2.2877,0.1797,-0.0001,0.0000,2.2676,flat,18.0,0,2.501
5050,161.60,-5.2126,2.7280,0.1797,-0.0001,0.0000,2.2514,flat,18.0,0,1.930
5060,161.92,-5.5672,3.1736,0.1797,-0.0001,0.0000,2.2312,flat,18.0,0,1.361
5070,162.24,-5.9093,3.6250,0.1797,-0.0001,0.0000,2.1997,flat,18.0,1,0.798
5080,162.56,-6.1111,3.9572,0.1798,0.0003,0.0000,1.8235,flat,18.0,1,7.002
5090,162.88,-6.1858,4.3068,0.1799,0.0000,-0.0001,1.4019,flat,18.0,1,7.029
5100,163.20,-6.0901,4.7112,0.1799,-0.0001,-0.0000,1.0900,flat,18.0,1,6.900
5110,163.52,-5.8400,5.1048,0.1799,-0.0001,-0.0000,0.8559,flat,18.0,1,6.640
5120,163.84,-5.4781,5.4578,0.1799,-0.0001,-0.0000,0.6701,flat,18.0,1,6.289
5130,164.16,-5.0413,5.7616,0.1799,-0.0001,-0.0000,0.4989,flat,18.0,1,5.880
5140,164.48,-4.5490,6.0017,0.1799,-0.0001,-0.0000,0.3453,flat,18.0,1,5.427
5150,164.80,-4.0214,6.1725,0.1799,-0.0002,-0.0000,0.2139,flat,18.0,1,4.943
5160,165.12,-3.4731,6.2777,0.1799,-0.0004,-0.0000,0.1012,flat,18.0,1,4.437
5170,165.44,-2.9142,6.3232,0.1798,-0.0004,-0.0000,0.0029,flat,18.0,1,3.916
5180,165.76,-2.3522,6.3152,0.1798,-0.0004,-0.0000,-0.0809,flat,18.0,1,3.384
5190,166.08,-1.7925,6.2614,0.1798,-0.0003,-0.0000,-0.1530,flat,18.0,1,2.848
5200,166.40,-1.2383,6.1680,0.1797,-0.0002,-0.0000,-0.2196,flat,18.0,1,2.309
5210,166.72,-0.6928,6.0379,0.1797,-0.0002,0.0000,-0.2864,flat,18.0,1,1.772
5220,167.04,-0.1610,5.8715,0.1798,-0.0003,0.0000,-0.3625,flat,18.0,1,1.243
5230,167.36,0.3481,5.6647,0.1798,-0.0004,0.0001,-0.4334,flat,18.0,2,10.215
5240,167.68,0.8526,5.4207,0.1797,-0.0002,-0.0000,-0.4820,flat,18.0,2,9.667
5250,168.00,1.3485,5.1524,0.1797,-0.0001,-0.0000,-0.5206,flat,18.0,2,9.112
5260,168.32,1.8354,4.8651,0.1797,-0.0001,-0.0000,-0.5534,flat,18.0,2,8.553
5270,168.64,2.3142,4.5618,0.1797,-0.0001,-0.0000,-0.5818,flat,18.0,2,7.991
5280,168.96,2.7853,4.2449,0.1797,-0.0001,-0.0000,-0.6067,flat,18.0,2,7.426
5290,169.28,3.2494,3.9163,0.1797,-0.0001,-0.0000,-0.6290,flat,18.0,2,6.860
5300,169.60,3.7069,3.5773,0.1797,-0.0001,-0.0000,-0.6492,flat,18.0,2,6.292
5310,169.92,4.1580,3.2291,0.1797,-0.0001,-0.0000,-0.6676,flat,18.0,2,5.724
5320,170.24,4.6032,2.8726,0.1797,-0.0001,-0.0000,-0.6847,flat,18.0,2,5.154
5330,170.56,5.0425,2.5084,0.1797,-0.0001,-0.0000,-0.7009,flat,18.0,2,4.584
5340,170.88,5.4761,2.1372,0.1797,-0.0001,-0.0000,-0.7167,flat,18.0,2,4.013
5350,171.20,5.9039,1.7591,0.1797,-0.0001,-0.0000,-0.7325,flat,18.0,2,3.442
5360,171.52,6.3257,1.3743,0.1797,-0.0001,0.0000,-0.7488,flat,18.0,2,2.871
5370,171.84,6.7409,0.9827,0.1797,-0.0001,0.0000,-0.7660,flat,18.0,2,2.301
5380,172.16,7.1484,0.5841,0.1797,-0.0001,0.0000,-0.7852,flat,18.0,2,1.731
5390,172.48,7.5462,0.1779,0.1797,-0.0001,0.0000,-0.8096,flat,18.0,2,1.165
5400,172.80,7.9097,-0.2163,0.1798,-0.0001,0.0004,-0.9003,flat,18.0,3,5.920
5410,173.12,8.1224,-0.5495,0.1799,0.0001,-0.0000,-1.2450,flat,18.0,3,5.840
5420,173.44,8.2424,-0.9843,0.1799,-0.0000,-0.0000,-1.5703,flat,18.0,3,5.650
5430,173.76,8.2176,-1.4706,0.1799,-0.0001,-0.0000,-1.8338,flat,18.0,3,5.342
5440,174.08,8.0587,-1.9572,0.1799,-0.0001,-0.0000,-2.0362,flat,18.0,3,4.945
5450,174.40,7.7956,-2.4168,0.1799,-0.0001,-0.0000,-2.1937,flat,18.0,3,4.492
5460,174.72,7.4591,-2.8409,0.1798,-0.0003,-0.0000,-2.3079,flat,18.0,3,4.004
5470,175.04,7.0747,-3.2269,0.1798,-0.0004,-0.0000,-2.4112,flat,18.0,3,3.501
5480,175.36,6.6504,-3.5764,0.1798,-0.0004,-0.0000,-2.5134,flat,18.0,3,2.984
5490,175.68,6.1912,-3.8854,0.1798,-0.0004,-0.0000,-2.6168,flat,18.0,3,2.458
5500,176.00,5.7019,-4.1481,0.1798,-0.0004,-0.0000,-2.7255,flat,18.0,3,1.924
5510,176.32,5.1878,-4.3573,0.1799,-0.0003,-0.0000,-2.8485,flat,18.0,3,1.386
5520,176.64,4.6564,-4.5009,0.1799,-0.0001,0.0000,-3.0084,flat,18.0,3,0.849
5530,176.96,4.1369,-4.5452,0.1799,-0.0001,-0.0000,3.0692,flat,18.0,0,13.742
5540,177.28,3.6046,-4.4879,0.1799,-0.0001,-0.0000,2.9063,flat,18.0,0,13.298
5550,177.60,3.0761,-4.3442,0.1799,-0.0003,-0.0000,2.7883,flat,18.0,0,12.806
5560,177.92,2.5616,-4.1399,0.1798,-0.0004,-0.0000,2.7027,flat,18.0,0,12.288
5570,178.24,2.0617,-3.8924,0.1797,-0.0003,-0.0000,2.6372,flat,18.0,0,11.754
5580,178.56,1.5755,-3.6125,0.1797,-0.0002,-0.0000,2.5852,flat,18.0,0,11.209
5590,178.88,1.1021,-3.3074,0.1797,-0.0001,-0.0000,2.5442,flat,18.0,0,10.657
5600,179.20,0.6397,-2.9830,0.1797,-0.0001,-0.0000,2.5103,flat,18.0,0,10.101
5610,179.52,0.1868,-2.6430,0.1797,-0.0001,-0.0000,2.4812,flat,18.0,0,9.541
5620,179.84,-0.2574,-2.2897,0.1797,-0.0001,-0.0000,2.4558,flat,18.0,0,8.978
5630,180.16,-0.6936,-1.9250,0.1797,-0.0001,-0.0000,2.4333,flat,18.0,0,8.413
5640,180.48,-1.1225,-1.5506,0.1797,-0.0001,-0.0000,2.4128,flat,18.0,0,7.847
5650,180.80,-1.5446,-1.1673,0.1797,-0.0001,-0.0000,2.3938,flat,18.0,0,7.279
5660,181.12,-1.9600,-0.7760,0.1797,-0.0001,-0.0000,2.3765,flat,18.0,0,6.710
5670,181.44,-2.3691,-0.3775,0.1797,-0.0001,-0.0000,2.3606,flat,18.0,0,6.140
5680,181.76,-2.7722,0.0276,0.1797,-0.0001,-0.0000,2.3458,flat,18.0,0,5.569
5690,182.08,-3.1695,0.4386,0.1797,-0.0001,-0.0000,2.3317,flat,18.0,0,4.998
5700,182.40,-3.5611,0.8552,0.1797,-0.0000,-0.0000,2.3180,flat,18.0,0,4.427
5710,182.72,-3.9470,1.2772,0.1797,-0.0000,-0.0000,2.3045,flat,18.0,0,3.855
5720,183.04,-4.3272,1.7042,0.1797,-0.0000,0.0000,2.2911,flat,18.0,0,3.283
5730,183.36,-4.7014,2.1361,0.1797,-0.0000,0.0000,2.2773,flat,18.0,0,2.712
5740,183.68,-5.0692,2.5729,0.1797,-0.0001,0.0000,2.2623,flat,18.0,0,2.141
5750,184.00,-5.4295,3.0149,0.1797,-0.0001,0.0000,2.2444,flat,18.0,0,1.571
5760,184.32,-5.7794,3.4624,0.1797,-0.0001,0.0000,2.2193,flat,18.0,0,1.005
5770,184.64,-6.0524,3.8534,0.1798,0.0002,0.0003,2.0087,flat,18.0,1,6.962
5780,184.96,-6.1825,4.1722,0.1798,0.0001,-0.0001,1.5614,flat,18.0,1,7.041
5790,185.28,-6.1602,4.5543,0.1799,-0.0001,-0.0001,1.2200,flat,18.0,1,6.980
5800,185.60,-5.9755,4.9577,0.1799,-0.0001,-0.0000,0.9534,flat,18.0,1,6.777
5810,185.92,-5.6586,5.3295,0.1799,-0.0001,-0.0000,0.7505,flat,18.0,1,6.463
5820,186.24,-5.2529,5.6566,0.1799,-0.0001,-0.0000,0.5728,flat,18.0,1,6.080
5830,186.56,-4.7828,5.9260,0.1799,-0.0001,-0.0000,0.4094,flat,18.0,1,5.646
5840,186.88,-4.2686,6.1267,0.1799,-0.0001,-0.0000,0.2675,flat,18.0,1,5.175
5850,187.20,-3.7278,6.2591,0.1799,-0.0003,-0.0000,0.1464,flat,18.0,1,4.678
5860,187.52,-3.1724,6.3287,0.1798,-0.0004,-0.0000,0.0418,flat,18.0,1,4.163
5870,187.84,-2.6110,6.3417,0.1798,-0.0004,-0.0000,-0.0489,flat,18.0,1,3.636
5880,188.16,-2.0500,6.3055,0.1798,-0.0003,-0.0000,-0.1253,flat,18.0,1,3.101
5890,188.48,-1.4932,6.2273,0.1797,-0.0003,-0.0000,-0.1935,flat,18.0,1,2.563
5900,188.80,-0.9438,6.1116,0.1797,-0.0002,-0.0000,-0.2592,flat,18.0,1,2.024
5910,189.12,-0.4055,5.9598,0.1797,-0.0003,0.0000,-0.3292,flat,18.0,1,1.491
5920,189.44,0.1150,5.7702,0.1798,-0.0004,0.0000,-0.4148,flat,18.0,1,0.970
5930,189.76,0.6154,5.5405,0.1798,-0.0002,-0.0000,-0.4624,flat,18.0,2,9.928
5940,190.08,1.1158,5.2817,0.1797,-0.0002,-0.0000,-0.5052,flat,18.0,2,9.375
5950,190.40,1.6064,5.0020,0.1797,-0.0001,-0.0000,-0.5400,flat,18.0,2,8.817
5960,190.72,2.0886,4.7052,0.1797,-0.0001,-0.0000,-0.5700,flat,18.0,2,8.256
5970,191.04,2.5631,4.3939,0.1797,-0.0001,-0.0000,-0.5962,flat,18.0,2,7.692
5980,191.36,3.0302,4.0703,0.1797,-0.0001,-0.0000,-0.6195,flat,18.0,2,7.127
5990,191.68,3.4906,3.7357,0.1797,-0.0001,-0.0000,-0.6404,flat,18.0,2,6.560
6000,192.00,3.9446,3.3915,0.1797,-0.0001,-0.0000,-0.6594,flat,18.0,2,5.991
6010,192.32,4.3925,3.0387,0.1797,-0.0001,-0.0000,-0.6769,flat,18.0,2,5.422
6020,192.64,4.8346,2.6780,0.1797,-0.0001,-0.0000,-0.6934,flat,18.0,2,4.852
6030,192.96,5.2709,2.3100,0.1797,-0.0001,-0.0000,-0.7092,flat,18.0,2,4.281
6040,193.28,5.7016,1.9352,0.1797,-0.0001,-0.0000,-0.7247,flat,18.0,2,3.711
6050,193.60,6.1264,1.5537,0.1797,-0.0001,-0.0000,-0.7406,flat,18.0,2,3.140
6060,193.92,6.5450,1.1654,0.1797,-0.0001,0.0000,-0.7572,flat,18.0,2,2.569
6070,194.24,6.9565,0.7703,0.1797,-0.0001,0.0000,-0.7752,flat,18.0,2,1.998
6080,194.56,7.3596,0.3680,0.1797,-0.0001,0.0000,-0.7964,flat,18.0,2,1.430
6090,194.88,7.7507,-0.0422,0.1797,-0.0001,0.0000,-0.8264,flat,18.0,2,0.869
6100,195.20,8.0337,-0.3824,0.1798,0.0003,-0.0000,-1.0756,flat,18.0,3,5.890
6110,195.52,8.2083,-0.7702,0.1799,-0.0000,-0.0000,-1.4125,rough,15.5,3,5.759
6120,195.84,8.2620,-1.2201,0.1799,-0.0001,-0.0000,-1.6930,flat,18.0,3,5.522
6130,196.16,8.1764,-1.7103,0.1799,-0.0001,-0.0000,-1.9280,flat,18.0,3,5.175
6140,196.48,7.9684,-2.1867,0.1799,-0.0001,-0.0000,-2.1118,flat,18.0,3,4.753
6150,196.80,7.6690,-2.6295,0.1799,-0.0002,-0.0000,-2.2508,flat,18.0,3,4.284
6160,197.12,7.3085,-3.0362,0.1798,-0.0003,-0.0000,-2.3570,flat,18.0,3,3.789
6170,197.44,6.9047,-3.4047,0.1798,-0.0004,-0.0000,-2.4605,flat,18.0,3,3.280
6180,197.76,6.4630,-3.7350,0.1798,-0.0004,-0.0000,-2.5638,flat,18.0,3,2.759
6190,198.08,5.9885,-4.0219,0.1798,-0.0004,-0.0000,-2.6695,flat,18.0,3,2.229
6200,198.40,5.4862,-4.2593,0.1798,-0.0004,-0.0000,-2.7835,flat,18.0,3,1.693
6210,198.72,4.9621,-4.4382,0.1799,-0.0002,0.0000,-2.9187,flat,18.0,3,1.155
6220,199.04,4.4336,-4.5359,0.1799,0.0000,-0.0001,-3.1023,flat,18.0,0,13.967
6230,199.36,3.9071,-4.5349,0.1799,-0.0001,0.0000,2.9898,flat,18.0,0,13.559
6240,199.68,3.3858,-4.4367,0.1799,-0.0002,0.0003,2.8665,flat,18.0,0,13.100
6250,200.00,2.8670,-4.2747,0.1799,-0.0003,-0.0000,2.7673,flat,18.0,0,12.604
6260,200.32,2.3560,-4.0598,0.1798,-0.0004,-0.0000,2.6860,flat,18.0,0,12.083
6270,200.64,1.8597,-3.8039,0.1797,-0.0002,-0.0000,2.6232,flat,18.0,0,11.547
6280,200.96,1.3769,-3.5171,0.1797,-0.0002,-0.0000,2.5730,flat,18.0,0,11.000
6290,201.28,0.9070,-3.2062,0.1797,-0.0001,-0.0000,2.5337,flat,18.0,0,10.448
6300,201.60,0.4478,-2.8770,0.1797,-0.0001,-0.0000,2.5007,flat,18.0,0,9.891
6310,201.92,-0.0020,-2.5325,0.1797,-0.0001,-0.0000,2.4721,flat,18.0,0,9.330
6320,202.24,-0.4431,-2.1751,0.1797,-0.0001,-0.0000,2.4472,flat,18.0,0,8.767
6330,202.56,-0.8763,-1.8067,0.1797,-0.0001,-0.0000,2.4249,flat,18.0,0,8.202
6340,202.88,-1.3022,-1.4287,0.1797,-0.0001,-0.0000,2.4044,flat,18.0,0,7.635
6350,203.20,-1.7212,-1.0419,0.1797,-0.0001,-0.0000,2.3856,flat,18.0,0,7.067
6360,203.52,-2.1334,-0.6471,0.1797,-0.0001,-0.0000,2.3684,flat,18.0,0,6.498
6370,203.84,-2.5392,-0.2452,0.1797,-0.0001,-0.0000,2.3526,flat,18.0,0,5.928
6380,204.16,-2.9390,0.1630,0.1797,-0.0001,-0.0000,2.3377,flat,18.0,0,5.357
6390,204.48,-3.3329,0.5772,0.1797,-0.0001,-0.0000,2.3234,flat,18.0,0,4.786
6400,204.80,-3.7209,0.9971,0.1797,-0.0000,-0.0000,2.3094,flat,18.0,0,4.215
6410,205.12,-4.1031,1.4223,0.1797,-0.0000,0.0000,2.2957,flat,18.0,0,3.643
6420,205.44,-4.4794,1.8525,0.1797,-0.0000,0.0000,2.2820,flat,18.0,0,3.072
6430,205.76,-4.8494,2.2876,0.1797,-0.0001,0.0000,2.2676,flat,18.0,0,2.501
6440,206.08,-5.2125,2.7279,0.1797,-0.0001,0.0000,2.2514,flat,18.0,0,1.930
6450,206.40,-5.5672,3.1735,0.1797,-0.0001,0.0000,2.2312,flat,18.0,0,1.361
6460,206.72,-5.9093,3.6249,0.1797,-0.0001,0.0000,2.1997,flat,18.0,1,0.798
6470,207.04,-6.1111,3.9572,0.1798,0.0003,0.0000,1.8235,flat,18.0,1,7.002
6480,207.36,-6.1858,4.3067,0.1799,0.0000,-0.0001,1.4019,flat,18.0,1,7.029
6490,207.68,-6.0901,4.7112,0.1799,-0.0001,-0.0000,1.0900,flat,18.0,1,6.900
6500,208.00,-5.8399,5.1048,0.1799,-0.0001,-0.0000,0.8559,flat,18.0,1,6.640
6510,208.32,-5.4781,5.4577,0.1799,-0.0001,-0.0000,0.6701,flat,18.0,1,6.289
6520,208.64,-5.0412,5.7616,0.1799,-0.0001,-0.0000,0.4989,flat,18.0,1,5.880
6530,208.96,-4.5490,6.0017,0.1799,-0.0001,-0.0000,0.3453,flat,18.0,1,5.427
6540,209.28,-4.0214,6.1725,0.1799,-0.0002,-0.0000,0.2139,flat,18.0,1,4.943
6550,209.60,-3.4731,6.2777,0.1799,-0.0004,-0.0000,0.1012,flat,18.0,1,4.437
6560,209.92,-2.9141,6.3232,0.1798,-0.0004,-0.0000,0.0030,flat,18.0,1,3.916
6570,210.24,-2.3522,6.3151,0.1798,-0.0004,-0.0000,-0.0809,flat,18.0,1,3.384
6580,210.56,-1.7924,6.2614,0.1798,-0.0003,-0.0000,-0.1530,flat,18.0,1,2.848
6590,210.88,-1.2382,6.1680,0.1797,-0.0002,-0.0000,-0.2196,flat,18.0,1,2.309
6600,211.20,-0.6928,6.0379,0.1797,-0.0002,0.0000,-0.2864,flat,18.0,1,1.772
6610,211.52,-0.1609,5.8715,0.1798,-0.0003,0.0000,-0.3625,flat,18.0,1,1.243
6620,211.84,0.3481,5.6647,0.1798,-0.0004,0.0001,-0.4334,flat,18.0,2,10.215
6630,212.16,0.8526,5.4207,0.1797,-0.0002,-0.0000,-0.4820,flat,18.0,2,9.667
6640,212.48,1.3485,5.1524,0.1797,-0.0001,-0.0000,-0.5206,flat,18.0,2,9.112
6650,212.80,1.8354,4.8650,0.1797,-0.0001,-0.0000,-0.5534,flat,18.0,2,8.553
6660,213.12,2.3142,4.5618,0.1797,-0.0001,-0.0000,-0.5818,flat,18.0,2,7.991
6670,213.44,2.7854,4.2449,0.1797,-0.0001,-0.0000,-0.6067,flat,18.0,2,7.426
6680,213.76,3.2495,3.9163,0.1797,-0.0001,-0.0000,-0.6290,flat,18.0,2,6.860
6690,214.08,3.7069,3.5773,0.1797,-0.0001,-0.0000,-0.6492,flat,18.0,2,6.292
6700,214.40,4.1581,3.2291,0.1797,-0.0001,-0.0000,-0.6676,flat,18.0,2,5.724
6710,214.72,4.6032,2.8726,0.1797,-0.0001,-0.0000,-0.6847,flat,18.0,2,5.154
6720,215.04,5.0425,2.5084,0.1797,-0.0001,-0.0000,-0.7009,flat,18.0,2,4.584
6730,215.36,5.4761,2.1372,0.1797,-0.0001,-0.0000,-0.7167,flat,18.0,2,4.013
6740,215.68,5.9040,1.7591,0.1797,-0.0001,-0.0000,-0.7325,flat,18.0,2,3.442
6750,216.00,6.3258,1.3743,0.1797,-0.0001,0.0000,-0.7488,flat,18.0,2,2.871
6760,216.32,6.7409,0.9827,0.1797,-0.0001,0.0000,-0.7660,flat,18.0,2,2.301
6770,216.64,7.1484,0.5840,0.1797,-0.0001,0.0000,-0.7852,flat,18.0,2,1.731
6780,216.96,7.5463,0.1779,0.1797,-0.0001,0.0000,-0.8096,flat,18.0,2,1.165
6790,217.28,7.9097,-0.2163,0.1798,-0.0001,0.0004,-0.9003,flat,18.0,3,5.920
6800,217.60,8.1224,-0.5496,0.1799,0.0001,-0.0000,-1.2450,flat,18.0,3,5.840
6810,217.92,8.2424,-0.9843,0.1799,-0.0000,-0.0000,-1.5703,flat,18.0,3,5.650
6820,218.24,8.2176,-1.4706,0.1799,-0.0001,-0.0000,-1.8338,flat,18.0,3,5.342
6830,218.56,8.0587,-1.9573,0.1799,-0.0001,-0.0000,-2.0362,flat,18.0,3,4.945
6840,218.88,7.7956,-2.4169,0.1799,-0.0001,-0.0000,-2.1937,flat,18.0,3,4.492
6850,219.20,7.4591,-2.8409,0.1798,-0.0003,-0.0000,-2.3079,flat,18.0,3,4.004
6860,219.52,7.0747,-3.2270,0.1798,-0.0004,-0.0000,-2.4112,flat,18.0,3,3.501
6870,219.84,6.6504,-3.5765,0.1798,-0.0004,-0.0000,-2.5134,flat,18.0,3,2.984
6880,220.16,6.1912,-3.8854,0.1798,-0.0004,-0.0000,-2.6168,flat,18.0,3,2.458
6890,220.48,5.7019,-4.1481,0.1798,-0.0004,-0.0000,-2.7255,flat,18.0,3,1.924
6900,220.80,5.1878,-4.3573,0.1799,-0.0003,-0.0000,-2.8485,flat,18.0,3,1.386
6910,221.12,4.6564,-4.5009,0.1799,-0.0001,0.0000,-3.0085,flat,18.0,3,0.849
6920,221.44,4.1369,-4.5452,0.1799,-0.0001,-0.0000,3.0692,flat,18.0,0,13.742
6930,221.76,3.6046,-4.4879,0.1799,-0.0001,-0.0000,2.9063,flat,18.0,0,13.298
6940,222.08,3.0761,-4.3442,0.1799,-0.0003,-0.0000,2.7883,flat,18.0,0,12.806
6950,222.40,2.5616,-4.1399,0.1798,-0.0004,-0.0000,2.7027,flat,18.0,0,12.288
6960,222.72,2.0617,-3.8924,0.1797,-0.0003,-0.0000,2.6372,flat,18.0,0,11.754
6970,223.04,1.5755,-3.6125,0.1797,-0.0002,-0.0000,2.5852,flat,18.0,0,11.209
6980,223.36,1.1021,-3.3074,0.1797,-0.0001,-0.0000,2.5442,flat,18.0,0,10.657
6990,223.68,0.6397,-2.9830,0.1797,-0.0001,-0.0000,2.5103,flat,18.0,0,10.101
7000,224.00,0.1868,-2.6430,0.1797,-0.0001,-0.0000,2.4812,flat,18.0,0,9.541
7010,224.32,-0.2574,-2.2897,0.1797,-0.0001,-0.0000,2.4558,flat,18.0,0,8.978
7020,224.64,-0.6936,-1.9250,0.1797,-0.0001,-0.0000,2.4333,flat,18.0,0,8.413
7030,224.96,-1.1225,-1.5506,0.1797,-0.0001,-0.0000,2.4128,flat,18.0,0,7.847
7040,225.28,-1.5446,-1.1673,0.1797,-0.0001,-0.0000,2.3938,flat,18.0,0,7.279
7050,225.60,-1.9600,-0.7760,0.1797,-0.0001,-0.0000,2.3765,flat,18.0,0,6.710
7060,225.92,-2.3691,-0.3775,0.1797,-0.0001,-0.0000,2.3606,flat,18.0,0,6.140
7070,226.24,-2.7722,0.0276,0.1797,-0.0001,-0.0000,2.3458,flat,18.0,0,5.569
7080,226.56,-3.1695,0.4386,0.1797,-0.0001,-0.0000,2.3317,flat,18.0,0,4.998
7090,226.88,-3.5611,0.8552,0.1797,-0.0000,-0.0000,2.3180,flat,18.0,0,4.427
7100,227.20,-3.9470,1.2772,0.1797,-0.0000,-0.0000,2.3045,flat,18.0,0,3.855
7110,227.52,-4.3272,1.7042,0.1797,-0.0000,0.0000,2.2911,flat,18.0,0,3.283
7120,227.84,-4.7015,2.1361,0.1797,-0.0000,0.0000,2.2773,flat,18.0,0,2.712
7130,228.16,-5.0693,2.5729,0.1797,-0.0001,0.0000,2.2623,flat,18.0,0,2.141
7140,228.48,-5.4295,3.0149,0.1797,-0.0001,0.0000,2.2444,flat,18.0,0,1.571
7150,228.80,-5.7794,3.4624,0.1797,-0.0001,0.0000,2.2193,flat,18.0,0,1.005
7160,229.12,-6.0524,3.8534,0.1798,0.0002,0.0003,2.0087,flat,18.0,1,6.962
7170,229.44,-6.1825,4.1722,0.1798,0.0001,-0.0001,1.5614,flat,18.0,1,7.041
7180,229.76,-6.1602,4.5543,0.1799,-0.0001,-0.0001,1.2200,flat,18.0,1,6.980
7190,230.08,-5.9755,4.9577,0.1799,-0.0001,-0.0000,0.9534,flat,18.0,1,6.777
7200,230.40,-5.6586,5.3295,0.1799,-0.0001,-0.0000,0.7505,flat,18.0,1,6.463
7210,230.72,-5.2529,5.6566,0.1799,-0.0001,-0.0000,0.5728,flat,18.0,1,6.080
7220,231.04,-4.7828,5.9261,0.1799,-0.0001,-0.0000,0.4094,flat,18.0,1,5.646
7230,231.36,-4.2686,6.1267,0.1799,-0.0001,-0.0000,0.2675,flat,18.0,1,5.175
7240,231.68,-3.7278,6.2591,0.1799,-0.0003,-0.0000,0.1464,flat,18.0,1,4.678
7250,232.00,-3.1724,6.3288,0.1798,-0.0004,-0.0000,0.0418,flat,18.0,1,4.163
7260,232.32,-2.6110,6.3418,0.1798,-0.0004,-0.0000,-0.0489,flat,18.0,1,3.636
7270,232.64,-2.0500,6.3055,0.1798,-0.0003,-0.0000,-0.1253,flat,18.0,1,3.101
7280,232.96,-1.4932,6.2273,0.1797,-0.0003,-0.0000,-0.1935,flat,18.0,1,2.563
7290,233.28,-0.9438,6.1116,0.1797,-0.0002,-0.0000,-0.2592,flat,18.0,1,2.024
7300,233.60,-0.4055,5.9598,0.1797,-0.0003,0.0000,-0.3292,flat,18.0,1,1.491
7310,233.92,0.1150,5.7702,0.1798,-0.0004,0.0000,-0.4148,flat,18.0,1,0.970
7320,234.24,0.6154,5.5405,0.1798,-0.0002,-0.0000,-0.4624,flat,18.0,2,9.928
7330,234.56,1.1158,5.2817,0.1797,-0.0002,-0.0000,-0.5052,flat,18.0,2,9.375
7340,234.88,1.6064,5.0020,0.1797,-0.0001,-0.0000,-0.5400,flat,18.0,2,8.817
7350,235.20,2.0886,4.7052,0.1797,-0.0001,-0.0000,-0.5700,flat,18.0,2,8.256
7360,235.52,2.5631,4.3939,0.1797,-0.0001,-0.0000,-0.5962,flat,18.0,2,7.692
7370,235.84,3.0302,4.0703,0.1797,-0.0001,-0.0000,-0.6195,flat,18.0,2,7.127
7380,236.16,3.4906,3.7357,0.1797,-0.0001,-0.0000,-0.6404,flat,18.0,2,6.560
7390,236.48,3.9446,3.3915,0.1797,-0.0001,-0.0000,-0.6594,flat,18.0,2,5.991
7400,236.80,4.3925,3.0387,0.1797,-0.0001,-0.0000,-0.6769,flat,18.0,2,5.422
7410,237.12,4.8346,2.6780,0.1797,-0.0001,-0.0000,-0.6934,flat,18.0,2,4.852
7420,237.44,5.2709,2.3100,0.1797,-0.0001,-0.0000,-0.7092,flat,18.0,2,4.281
7430,237.76,5.7015,1.9352,0.1797,-0.0001,-0.0000,-0.7247,flat,18.0,2,3.711
7440,238.08,6.1264,1.5537,0.1797,-0.0001,-0.0000,-0.7406,flat,18.0,2,3.140
7450,238.40,6.5449,1.1654,0.1797,-0.0001,0.0000,-0.7572,flat,18.0,2,2.569
7460,238.72,6.9565,0.7703,0.1797,-0.0001,0.0000,-0.7752,flat,18.0,2,1.998
7470,239.04,7.3596,0.3680,0.1797,-0.0001,0.0000,-0.7964,flat,18.0,2,1.430
7480,239.36,7.7507,-0.0422,0.1797,-0.0001,0.0000,-0.8264,flat,18.0,2,0.869
7490,239.68,8.0337,-0.3824,0.1798,0.0003,-0.0000,-1.0756,flat,18.0,3,5.890
7500,240.00,8.2083,-0.7702,0.1799,-0.0000,-0.0000,-1.4125,rough,15.5,3,5.759
7510,240.32,8.2620,-1.2201,0.1799,-0.0001,-0.0000,-1.6930,flat,18.0,3,5.522
7520,240.64,8.1764,-1.7103,0.1799,-0.0001,-0.0000,-1.9280,flat,18.0,3,5.175
7530,240.96,7.9684,-2.1867,0.1799,-0.0001,-0.0000,-2.1118,flat,18.0,3,4.753
7540,241.28,7.6690,-2.6295,0.1799,-0.0002,-0.0000,-2.2508,flat,18.0,3,4.284
7550,241.60,7.3085,-3.0362,0.1798,-0.0003,-0.0000,-2.3570,flat,18.0,3,3.789
7560,241.92,6.9047,-3.4047,0.1798,-0.0004,-0.0000,-2.4605,flat,18.0,3,3.280
7570,242.24,6.4630,-3.7350,0.1798,-0.0004,-0.0000,-2.5638,flat,18.0,3,2.759
7580,242.56,5.9885,-4.0219,0.1798,-0.0004,-0.0000,-2.6695,flat,18.0,3,2.229
7590,242.88,5.4862,-4.2593,0.1798,-0.0004,-0.0000,-2.7835,flat,18.0,3,1.693
7600,243.20,4.9621,-4.4383,0.1799,-0.0002,0.0000,-2.9187,flat,18.0,3,1.155
7610,243.52,4.4336,-4.5359,0.1799,0.0000,-0.0001,-3.1023,flat,18.0,0,13.967
7620,243.84,3.9071,-4.5349,0.1799,-0.0001,0.0000,2.9898,flat,18.0,0,13.559
7630,244.16,3.3858,-4.4367,0.1799,-0.0002,0.0003,2.8665,flat,18.0,0,13.100
7640,244.48,2.8669,-4.2747,0.1799,-0.0003,-0.0000,2.7673,flat,18.0,0,12.604
7650,244.80,2.3560,-4.0597,0.1798,-0.0004,-0.0000,2.6860,flat,18.0,0,12.083
7660,245.12,1.8597,-3.8038,0.1797,-0.0002,-0.0000,2.6232,flat,18.0,0,11.546
7670,245.44,1.3769,-3.5171,0.1797,-0.0002,-0.0000,2.5730,flat,18.0,0,11.000
7680,245.76,0.9070,-3.2062,0.1797,-0.0001,-0.0000,2.5337,flat,18.0,0,10.448
7690,246.08,0.4478,-2.8769,0.1797,-0.0001,-0.0000,2.5007,flat,18.0,0,9.891
7700,246.40,-0.0020,-2.5325,0.1797,-0.0001,-0.0000,2.4721,flat,18.0,0,9.330
7710,246.72,-0.4431,-2.1751,0.1797,-0.0001,-0.0000,2.4472,flat,18.0,0,8.767
7720,247.04,-0.8763,-1.8067,0.1797,-0.0001,-0.0000,2.4249,flat,18.0,0,8.202
7730,247.36,-1.3022,-1.4287,0.1797,-0.0001,-0.0000,2.4044,flat,18.0,0,7.635
7740,247.68,-1.7212,-1.0418,0.1797,-0.0001,-0.0000,2.3856,flat,18.0,0,7.067
7750,248.00,-2.1334,-0.6471,0.1797,-0.0001,-0.0000,2.3684,flat,18.0,0,6.498
7760,248.32,-2.5392,-0.2452,0.1797,-0.0001,-0.0000,2.3526,flat,18.0,0,5.928
7770,248.64,-2.9390,0.1630,0.1797,-0.0001,-0.0000,2.3377,flat,18.0,0,5.357
7780,248.96,-3.3329,0.5772,0.1797,-0.0001,-0.0000,2.3234,flat,18.0,0,4.786
7790,249.28,-3.7209,0.9971,0.1797,-0.0000,-0.0000,2.3094,flat,18.0,0,4.215
7800,249.60,-4.1031,1.4223,0.1797,-0.0000,0.0000,2.2957,flat,18.0,0,3.643
7810,249.92,-4.4794,1.8525,0.1797,-0.0000,0.0000,2.2820,flat,18.0,0,3.072
7820,250.24,-4.8494,2.2876,0.1797,-0.0001,0.0000,2.2676,flat,18.0,0,2.501
7830,250.56,-5.2125,2.7279,0.1797,-0.0001,0.0000,2.2514,flat,18.0,0,1.930
7840,250.88,-5.5672,3.1735,0.1797,-0.0001,0.0000,2.2312,flat,18.0,0,1.361
7850,251.20,-5.9093,3.6249,0.1797,-0.0001,0.0000,2.1997,flat,18.0,1,0.798
7860,251.52,-6.1111,3.9572,0.1798,0.0003,0.0000,1.8235,flat,18.0,1,7.002
7870,251.84,-6.1858,4.3067,0.1799,0.0000,-0.0001,1.4019,flat,18.0,1,7.029
7880,252.16,-6.0901,4.7112,0.1799,-0.0001,-0.0000,1.0900,flat,18.0,1,6.900
7890,252.48,-5.8399,5.1048,0.1799,-0.0001,-0.0000,0.8559,flat,18.0,1,6.640
7900,252.80,-5.4781,5.4577,0.1799,-0.0001,-0.0000,0.6701,flat,18.0,1,6.289
7910,253.12,-5.0413,5.7616,0.1799,-0.0001,-0.0000,0.4989,flat,18.0,1,5.880
7920,253.44,-4.5490,6.0017,0.1799,-0.0001,-0.0000,0.3453,flat,18.0,1,5.427
7930,253.76,-4.0214,6.1725,0.1799,-0.0002,-0.0000,0.2139,flat,18.0,1,4.943
7940,254.08,-3.4731,6.2777,0.1799,-0.0004,-0.0000,0.1012,flat,18.0,1,4.437
7950,254.40,-2.9142,6.3232,0.1798,-0.0004,-0.0000,0.0030,flat,18.0,1,3.916
7960,254.72,-2.3522,6.3152,0.1798,-0.0004,-0.0000,-0.0809,flat,18.0,1,3.384
7970,255.04,-1.7925,6.2614,0.1798,-0.0003,-0.0000,-0.1530,flat,18.0,1,2.848
7980,255.36,-1.2383,6.1680,0.1797,-0.0002,-0.0000,-0.2196,flat,18.0,1,2.309
7990,255.68,-0.6928,6.0379,0.1797,-0.0002,0.0000,-0.2864,flat,18.0,1,1.772
8000,256.00,-0.1610,5.8715,0.1798,-0.0003,0.0000,-0.3625,flat,18.0,1,1.243
8010,256.32,0.3481,5.6647,0.1798,-0.0004,0.0001,-0.4334,flat,18.0,2,10.215
8020,256.64,0.8526,5.4207,0.1797,-0.0002,-0.0000,-0.4820,flat,18.0,2,9.667
8030,256.96,1.3485,5.1524,0.1797,-0.0001,-0.0000,-0.5206,flat,18.0,2,9.112
