step,time_s,x,y,z,roll,pitch,yaw,terrain,speed,target_idx,dist_to_target
10,0.32,0.1070,-0.0580,0.1854,-0.0000,-0.0462,-0.0000,rough,15.5,0,5.315
20,0.64,0.5765,-0.0695,0.1798,-0.0000,-0.0006,-0.1395,flat,18.0,0,4.951
30,0.96,1.1035,-0.1648,0.1799,-0.0001,-0.0000,-0.3131,flat,18.0,0,4.507
40,1.28,1.6132,-0.3500,0.1799,-0.0002,-0.0000,-0.4431,flat,18.0,0,4.027
50,1.60,2.0990,-0.6006,0.1798,-0.0004,-0.0000,-0.5473,flat,18.0,0,3.526
60,1.92,2.5618,-0.9024,0.1798,-0.0003,-0.0000,-0.6272,flat,18.0,0,3.011
70,2.24,3.0006,-1.2399,0.1798,-0.0003,0.0000,-0.7012,flat,18.0,0,2.493
80,2.56,3.4091,-1.6096,0.1798,-0.0003,0.0000,-0.7832,flat,18.0,0,1.977
90,2.88,3.7818,-2.0118,0.1798,-0.0004,0.0000,-0.8796,flat,18.0,0,1.466
100,3.20,4.1104,-2.4470,0.1799,-0.0002,0.0000,-1.0094,flat,18.0,0,0.967
110,3.52,4.3486,-2.8755,0.1799,0.0001,-0.0000,-1.2663,flat,18.0,1,7.457
120,3.84,4.4671,-3.3392,0.1799,-0.0001,0.0000,-1.5451,rough,15.5,1,7.208
130,4.16,4.4664,-3.7880,0.1799,-0.0001,-0.0003,-1.7214,flat,18.0,1,6.903
140,4.48,4.3662,-4.2996,0.1799,-0.0001,-0.0000,-1.9092,flat,18.0,1,6.498
150,4.80,4.1673,-4.7991,0.1799,-0.0002,-0.0000,-2.0507,flat,18.0,1,6.036
160,5.12,3.8981,-5.2734,0.1798,-0.0004,-0.0000,-2.1572,flat,18.0,1,5.544
170,5.44,3.5782,-5.7247,0.1798,-0.0003,-0.0000,-2.2337,flat,18.0,1,5.031
180,5.76,3.2242,-6.1527,0.1797,-0.0002,-0.0000,-2.3014,flat,18.0,1,4.509
190,6.08,2.8413,-6.5560,0.1797,-0.0002,-0.0000,-2.3665,flat,18.0,1,3.982
200,6.40,2.4322,-6.9349,0.1797,-0.0002,-0.0000,-2.4299,flat,18.0,1,3.449
210,6.72,1.9992,-7.2895,0.1797,-0.0002,-0.0000,-2.4936,flat,18.0,1,2.912
220,7.04,1.5440,-7.6171,0.1797,-0.0002,-0.0000,-2.5595,flat,18.0,1,2.373
230,7.36,1.0683,-7.9145,0.1797,-0.0003,-0.0000,-2.6313,flat,18.0,1,1.833
240,7.68,0.5733,-8.1762,0.1798,-0.0004,0.0000,-2.7170,flat,18.0,1,1.297
250,8.00,0.0619,-8.3912,0.1799,-0.0003,0.0000,-2.8405,flat,18.0,2,5.569
260,8.32,-0.3879,-8.5012,0.1799,0.0000,-0.0000,3.1369,flat,18.0,2,5.404
270,8.64,-0.8633,-8.4737,0.1799,-0.0001,-0.0000,2.8594,flat,18.0,2,5.141
280,8.96,-1.3266,-8.3184,0.1799,-0.0001,-0.0000,2.6791,flat,18.0,2,4.797
290,9.28,-1.7772,-8.0585,0.1799,-0.0001,-0.0000,2.5020,flat,18.0,2,4.387
300,9.60,-2.1878,-7.7148,0.1799,-0.0002,-0.0000,2.3695,flat,18.0,2,3.933
310,9.92,-2.5558,-7.3171,0.1799,-0.0003,-0.0000,2.2506,flat,18.0,2,3.457
320,10.24,-2.8817,-6.8757,0.1799,-0.0004,-0.0000,2.1341,flat,18.0,2,2.966
330,10.56,-3.1596,-6.3977,0.1799,-0.0004,-0.0000,2.0177,flat,18.0,2,2.464
340,10.88,-3.3834,-5.8900,0.1799,-0.0003,-0.0000,1.8969,flat,18.0,2,1.956
350,11.20,-3.5459,-5.3601,0.1799,-0.0002,-0.0000,1.7621,flat,18.0,2,1.447
360,11.52,-3.6349,-4.8184,0.1799,-0.0001,0.0000,1.5908,flat,18.0,2,0.950
370,11.84,-3.6260,-4.2701,0.1798,-0.0001,-0.0001,1.4945,flat,18.0,3,10.650
380,12.16,-3.5784,-3.7113,0.1798,-0.0001,0.0002,1.4603,rough,15.5,3,10.098
390,12.48,-3.5125,-3.1554,0.1797,-0.0001,-0.0000,1.4321,flat,18.0,3,9.544
400,12.80,-3.4303,-2.5919,0.1797,-0.0001,-0.0000,1.4060,flat,18.0,3,8.980
410,13.12,-3.3337,-2.0298,0.1797,-0.0001,-0.0000,1.3838,flat,18.0,3,8.413
420,13.44,-3.2249,-1.4692,0.1797,-0.0001,-0.0000,1.3647,flat,18.0,3,7.845
430,13.76,-3.1056,-0.9102,0.1797,-0.0001,-0.0000,1.3481,flat,18.0,3,7.275
440,14.08,-2.9771,-0.3527,0.1797,-0.0001,-0.0000,1.3334,flat,18.0,3,6.705
450,14.40,-2.8406,0.2032,0.1797,-0.0000,-0.0000,1.3204,flat,18.0,3,6.134
460,14.72,-2.6970,0.7576,0.1797,-0.0000,-0.0000,1.3086,flat,18.0,3,5.562
470,15.04,-2.5468,1.3106,0.1797,-0.0000,-0.0000,1.2977,flat,18.0,3,4.990
480,15.36,-2.3908,1.8621,0.1797,-0.0000,-0.0000,1.2877,flat,18.0,3,4.417
490,15.68,-2.2292,2.4122,0.1797,-0.0000,-0.0000,1.2782,flat,18.0,3,3.845
500,16.00,-2.0624,2.9608,0.1797,-0.0000,-0.0000,1.2689,flat,18.0,3,3.272
510,16.32,-1.8906,3.5077,0.1797,-0.0000,0.0000,1.2596,flat,18.0,3,2.699
520,16.64,-1.7137,4.0529,0.1797,-0.0000,0.0000,1.2498,flat,18.0,3,2.127
530,16.96,-1.5313,4.5959,0.1797,-0.0000,0.0000,1.2386,flat,18.0,3,1.554
540,17.28,-1.3429,5.1356,0.1797,-0.0001,0.0000,1.2239,flat,18.0,3,0.983
550,17.60,-1.1785,5.5982,0.1798,0.0002,0.0003,1.0206,flat,18.0,0,10.506
560,17.92,-0.9672,5.8528,0.1798,0.0003,-0.0000,0.6292,flat,18.0,0,10.620
570,18.24,-0.6627,6.0350,0.1799,0.0001,-0.0001,0.2499,flat,18.0,0,10.636
580,18.56,-0.2510,6.1178,0.1799,-0.0000,-0.0000,-0.0965,flat,18.0,0,10.528
590,18.88,0.2116,6.0492,0.1799,0.0000,-0.0000,-0.3576,flat,18.0,0,10.276
600,19.20,0.6721,5.8473,0.1799,-0.0001,-0.0000,-0.5493,flat,18.0,0,9.916
610,19.52,1.1064,5.5464,0.1799,-0.0001,-0.0000,-0.6957,flat,18.0,0,9.484
620,19.84,1.5067,5.1788,0.1798,-0.0003,-0.0000,-0.8015,flat,18.0,0,9.008
630,20.16,1.8733,4.7682,0.1798,-0.0004,-0.0000,-0.8936,flat,18.0,0,8.509
640,20.48,2.2083,4.3235,0.1798,-0.0004,-0.0000,-0.9741,flat,18.0,0,7.991
650,20.80,2.5119,3.8516,0.1797,-0.0003,-0.0000,-1.0442,flat,18.0,0,7.460
660,21.12,2.7855,3.3584,0.1797,-0.0002,-0.0000,-1.1055,flat,18.0,0,6.918
670,21.44,3.0305,2.8484,0.1797,-0.0002,-0.0000,-1.1593,flat,18.0,0,6.370
680,21.76,3.2496,2.3255,0.1797,-0.0002,0.0000,-1.2061,flat,18.0,0,5.816
690,22.08,3.4456,1.7934,0.1797,-0.0001,-0.0000,-1.2461,flat,18.0,0,5.259
700,22.40,3.6214,1.2533,0.1797,-0.0001,-0.0000,-1.2828,flat,18.0,0,4.700
710,22.72,3.7781,0.7066,0.1797,-0.0001,-0.0000,-1.3169,flat,18.0,0,4.138
720,23.04,3.9166,0.1546,0.1797,-0.0001,-0.0000,-1.3492,flat,18.0,0,3.575
730,23.36,4.0377,-0.4018,0.1797,-0.0001,-0.0000,-1.3806,flat,18.0,0,3.011
740,23.68,4.1414,-0.9617,0.1797,-0.0001,-0.0000,-1.4122,flat,18.0,0,2.447
750,24.00,4.2273,-1.5242,0.1797,-0.0001,0.0000,-1.4460,flat,18.0,0,1.882
760,24.32,4.2938,-2.0881,0.1797,-0.0001,0.0000,-1.4857,flat,18.0,0,1.320
770,24.64,4.3369,-2.6518,0.1797,-0.0002,0.0000,-1.5452,flat,18.0,1,7.615
780,24.96,4.3336,-3.1904,0.1799,-0.0001,-0.0000,-1.7186,flat,18.0,1,7.219
790,25.28,4.2349,-3.7144,0.1799,-0.0001,-0.0000,-1.8881,rough,15.5,1,6.781
800,25.60,4.0590,-4.2113,0.1799,-0.0003,-0.0000,-1.9918,flat,18.0,1,6.318
810,25.92,3.8193,-4.7039,0.1798,-0.0004,-0.0000,-2.0934,flat,18.0,1,5.818
820,26.24,3.5296,-5.1754,0.1798,-0.0003,-0.0000,-2.1711,flat,18.0,1,5.300
830,26.56,3.2039,-5.6283,0.1797,-0.0002,-0.0000,-2.2315,flat,18.0,1,4.770
840,26.88,2.8509,-6.0611,0.1797,-0.0002,-0.0000,-2.2894,flat,18.0,1,4.236
850,27.20,2.4727,-6.4725,0.1797,-0.0002,-0.0000,-2.3454,flat,18.0,1,3.698
860,27.52,2.0715,-6.8629,0.1797,-0.0002,-0.0000,-2.3986,flat,18.0,1,3.157
870,27.84,1.6497,-7.2311,0.1797,-0.0002,-0.0000,-2.4533,flat,18.0,1,2.615
880,28.16,1.2081,-7.5762,0.1797,-0.0002,-0.0000,-2.5118,flat,18.0,1,2.071
890,28.48,0.7473,-7.8958,0.1797,-0.0002,0.0000,-2.5796,flat,18.0,1,1.529
900,28.80,0.2675,-8.1808,0.1798,-0.0004,0.0000,-2.6689,flat,18.0,1,0.994
910,29.12,-0.1801,-8.3842,0.1798,0.0002,0.0001,-2.8992,flat,18.0,2,5.421
920,29.44,-0.6185,-8.4679,0.1799,-0.0000,-0.0000,3.0470,flat,18.0,2,5.255
930,29.76,-1.0861,-8.3997,0.1799,-0.0001,0.0001,2.8037,rough,15.5,2,4.973
940,30.08,-1.5460,-8.2084,0.1799,-0.0001,-0.0000,2.6062,flat,18.0,2,4.610
950,30.40,-1.9808,-7.9124,0.1799,-0.0001,-0.0000,2.4430,flat,18.0,2,4.183
960,30.72,-2.3732,-7.5443,0.1799,-0.0003,-0.0000,2.3187,flat,18.0,2,3.720
970,31.04,-2.7234,-7.1273,0.1799,-0.0003,-0.0000,2.1991,flat,18.0,2,3.239
980,31.36,-3.0285,-6.6690,0.1799,-0.0003,-0.0000,2.0812,flat,18.0,2,2.744
990,31.68,-3.2821,-6.1768,0.1799,-0.0003,-0.0000,1.9618,flat,18.0,2,2.240
1000,32.00,-3.4779,-5.6578,0.1799,-0.0003,-0.0000,1.8347,flat,18.0,2,1.732
1010,32.32,-3.6069,-5.1205,0.1799,-0.0001,0.0000,1.6861,flat,18.0,2,1.227
1020,32.64,-3.6506,-4.5799,0.1799,-0.0002,0.0001,1.5173,flat,18.0,3,10.957
1030,32.96,-3.6152,-4.0170,0.1798,-0.0001,-0.0000,1.4785,flat,18.0,3,10.403
1040,33.28,-3.5597,-3.4676,0.1797,-0.0001,-0.0001,1.4499,flat,18.0,3,9.858
1050,33.60,-3.4874,-2.9033,0.1797,-0.0001,-0.0000,1.4207,flat,18.0,3,9.295
1060,33.92,-3.3989,-2.3404,0.1797,-0.0001,-0.0000,1.3961,flat,18.0,3,8.729
1070,34.24,-3.2968,-1.7791,0.1797,-0.0001,-0.0000,1.3750,flat,18.0,3,8.162
1080,34.56,-3.1832,-1.2193,0.1797,-0.0001,-0.0000,1.3568,flat,18.0,3,7.593
1090,34.88,-3.0596,-0.6610,0.1797,-0.0001,-0.0000,1.3409,flat,18.0,3,7.023
1100,35.20,-2.9272,-0.1044,0.1797,-0.0001,-0.0000,1.3268,flat,18.0,3,6.453
1110,35.52,-2.7870,0.4507,0.1797,-0.0000,-0.0000,1.3142,flat,18.0,3,5.882
1120,35.84,-2.6400,1.0044,0.1797,-0.0000,-0.0000,1.3027,flat,18.0,3,5.310
1130,36.16,-2.4866,1.5565,0.1797,-0.0000,-0.0000,1.2921,flat,18.0,3,4.738
1140,36.48,-2.3275,2.1072,0.1797,-0.0000,-0.0000,1.2822,flat,18.0,3,4.165
1150,36.80,-2.1629,2.6563,0.1797,-0.0000,-0.0000,1.2727,flat,18.0,3,3.592
1160,37.12,-1.9931,3.2040,0.1797,-0.0000,-0.0000,1.2634,flat,18.0,3,3.020
1170,37.44,-1.8182,3.7499,0.1797,-0.0000,0.0000,1.2538,flat,18.0,3,2.447
1180,37.76,-1.6381,4.2938,0.1797,-0.0000,0.0000,1.2434,flat,18.0,3,1.875
1190,38.08,-1.4523,4.8352,0.1797,-0.0000,0.0000,1.2309,flat,18.0,3,1.303
1200,38.40,-1.2630,5.3697,0.1797,-0.0000,0.0002,1.1954,flat,18.0,0,10.356
1210,38.72,-1.0991,5.7092,0.1798,0.0003,0.0001,0.8242,flat,18.0,0,10.562
1220,39.04,-0.8425,5.9201,0.1798,0.0002,-0.0001,0.4374,flat,18.0,0,10.619
1230,39.36,-0.4808,6.0628,0.1799,0.0000,-0.0001,0.0708,flat,18.0,0,10.578
1240,39.68,-0.0348,6.0713,0.1799,-0.0001,-0.0000,-0.2348,flat,18.0,0,10.395
1250,40.00,0.4316,5.9322,0.1799,-0.0001,-0.0000,-0.4571,flat,18.0,0,10.083
1260,40.32,0.8813,5.6777,0.1799,-0.0001,-0.0000,-0.6260,flat,18.0,0,9.683
1270,40.64,1.3000,5.3396,0.1799,-0.0003,-0.0000,-0.7491,flat,18.0,0,9.225
1280,40.96,1.6832,4.9498,0.1798,-0.0004,-0.0000,-0.8473,flat,18.0,0,8.737
1290,41.28,2.0348,4.5218,0.1798,-0.0004,-0.0000,-0.9333,flat,18.0,0,8.228
1300,41.60,2.3548,4.0633,0.1798,-0.0003,-0.0000,-1.0084,flat,18.0,0,7.703
1310,41.92,2.6441,3.5808,0.1797,-0.0002,-0.0000,-1.0739,flat,18.0,0,7.166
1320,42.24,2.9043,3.0792,0.1797,-0.0002,-0.0000,-1.1313,flat,18.0,0,6.621
1330,42.56,3.1370,2.5627,0.1797,-0.0002,-0.0000,-1.1818,flat,18.0,0,6.069
1340,42.88,3.3451,2.0354,0.1797,-0.0002,-0.0000,-1.2246,flat,18.0,0,5.514
1350,43.20,3.5318,1.4995,0.1797,-0.0001,-0.0000,-1.2629,flat,18.0,0,4.956
1360,43.52,3.6989,0.9563,0.1797,-0.0001,-0.0000,-1.2983,flat,18.0,0,4.396
1370,43.84,3.8474,0.4071,0.1797,-0.0001,-0.0000,-1.3315,flat,18.0,0,3.833
1380,44.16,3.9781,-0.1470,0.1797,-0.0001,-0.0000,-1.3634,flat,18.0,0,3.270
1390,44.48,4.0913,-0.7050,0.1797,-0.0001,-0.0000,-1.3950,flat,18.0,0,2.705
1400,44.80,4.1869,-1.2661,0.1797,-0.0001,0.0000,-1.4277,flat,18.0,0,2.141
1410,45.12,4.2639,-1.8294,0.1797,-0.0001,0.0000,-1.4642,flat,18.0,0,1.577
1420,45.44,4.3197,-2.3934,0.1797,-0.0002,0.0000,-1.5118,flat,18.0,0,1.017
1430,45.76,4.3416,-2.9460,0.1799,0.0000,0.0000,-1.6339,flat,18.0,1,7.401
1440,46.08,4.2882,-3.4718,0.1799,-0.0001,0.0000,-1.8209,flat,18.0,1,6.988
1450,46.40,4.1413,-3.9753,0.1798,-0.0002,-0.0000,-1.9388,flat,18.0,1,6.536
1460,46.72,3.9282,-4.4775,0.1798,-0.0004,-0.0000,-2.0520,flat,18.0,1,6.046
1470,47.04,3.6587,-4.9580,0.1798,-0.0004,-0.0000,-2.1396,flat,18.0,1,5.534
1480,47.36,3.3473,-5.4195,0.1797,-0.0002,-0.0000,-2.2048,flat,18.0,1,5.008
1490,47.68,3.0063,-5.8617,0.1797,-0.0002,-0.0000,-2.2630,flat,18.0,1,4.476
1500,48.00,2.6395,-6.2831,0.1797,-0.0002,-0.0000,-2.3197,flat,18.0,1,3.939
1510,48.32,2.2486,-6.6835,0.1797,-0.0002,-0.0000,-2.3734,flat,18.0,1,3.399
1520,48.64,1.8364,-7.0624,0.1797,-0.0002,-0.0000,-2.4268,flat,18.0,1,2.857
1530,48.96,1.4042,-7.4190,0.1797,-0.0002,-0.0000,-2.4829,flat,18.0,1,2.313
1540,49.28,0.9526,-7.7515,0.1797,-0.0002,-0.0000,-2.5452,flat,18.0,1,1.770
1550,49.60,0.4820,-8.0545,0.1798,-0.0003,0.0000,-2.6220,flat,18.0,1,1.231
1560,49.92,-0.0041,-8.3133,0.1798,-0.0003,0.0003,-2.7516,flat,18.0,2,5.467
1570,50.24,-0.4184,-8.4522,0.1799,0.0000,-0.0000,-3.0788,flat,18.0,2,5.346
1580,50.56,-0.8846,-8.4561,0.1799,-0.0002,0.0000,2.9055,flat,18.0,2,5.115
1590,50.88,-1.3417,-8.3228,0.1799,0.0000,-0.0000,2.6951,flat,18.0,2,4.795
1600,51.20,-1.7936,-8.0715,0.1799,-0.0001,-0.0000,2.5125,flat,18.0,2,4.394
1610,51.52,-2.2055,-7.7324,0.1799,-0.0002,-0.0000,2.3738,flat,18.0,2,3.945
1620,51.84,-2.5741,-7.3364,0.1799,-0.0003,-0.0000,2.2523,flat,18.0,2,3.472
1630,52.16,-2.9001,-6.8958,0.1799,-0.0003,-0.0000,2.1336,flat,18.0,2,2.983
1640,52.48,-3.1773,-6.4177,0.1799,-0.0003,-0.0000,2.0152,flat,18.0,2,2.483
1650,52.80,-3.3996,-5.9096,0.1799,-0.0003,-0.0000,1.8927,flat,18.0,2,1.976
1660,53.12,-3.5597,-5.3792,0.1799,-0.0002,-0.0000,1.7569,flat,18.0,2,1.469
1670,53.44,-3.6460,-4.8369,0.1799,-0.0001,0.0000,1.5861,flat,18.0,2,0.971
1680,53.76,-3.6352,-4.2882,0.1798,-0.0001,-0.0001,1.4924,flat,18.0,3,10.670
1690,54.08,-3.5870,-3.7373,0.1798,-0.0001,0.0002,1.4599,rough,15.5,3,10.125
1700,54.40,-3.5209,-3.1814,0.1797,-0.0001,-0.0000,1.4316,flat,18.0,3,9.571
1710,54.72,-3.4384,-2.6178,0.1797,-0.0001,-0.0000,1.4056,flat,18.0,3,9.007
1720,55.04,-3.3416,-2.0557,0.1797,-0.0001,-0.0000,1.3835,flat,18.0,3,8.440
1730,55.36,-3.2327,-1.4952,0.1797,-0.0001,-0.0000,1.3644,flat,18.0,3,7.872
1740,55.68,-3.1132,-0.9362,0.1797,-0.0001,-0.0000,1.3479,flat,18.0,3,7.302
1750,56.00,-2.9847,-0.3787,0.1797,-0.0001,-0.0000,1.3333,flat,18.0,3,6.732
1760,56.32,-2.8481,0.1772,0.1797,-0.0000,-0.0000,1.3203,flat,18.0,3,6.161
1770,56.64,-2.7044,0.7316,0.1797,-0.0000,-0.0000,1.3085,flat,18.0,3,5.589
1780,56.96,-2.5543,1.2846,0.1797,-0.0000,-0.0000,1.2978,flat,18.0,3,5.017
1790,57.28,-2.3982,1.8362,0.1797,-0.0000,-0.0000,1.2878,flat,18.0,3,4.444
1800,57.60,-2.2367,2.3863,0.1797,-0.0000,-0.0000,1.2783,flat,18.0,3,3.872
1810,57.92,-2.0701,2.9349,0.1797,-0.0000,-0.0000,1.2691,flat,18.0,3,3.299
1820,58.24,-1.8983,3.4819,0.1797,-0.0000,0.0000,1.2599,flat,18.0,3,2.726
1830,58.56,-1.7216,4.0272,0.1797,-0.0000,0.0000,1.2502,flat,18.0,3,2.153
1840,58.88,-1.5395,4.5703,0.1797,-0.0000,0.0000,1.2392,flat,18.0,3,1.581
1850,59.20,-1.3514,5.1103,0.1797,-0.0000,0.0000,1.2249,flat,18.0,3,1.010
1860,59.52,-1.1874,5.5732,0.1798,0.0002,0.0003,1.0223,flat,18.0,0,10.490
1870,59.84,-0.9766,5.8283,0.1798,0.0003,-0.0000,0.6313,flat,18.0,0,10.604
1880,60.16,-0.6725,6.0110,0.1799,0.0001,-0.0001,0.2522,flat,18.0,0,10.619
1890,60.48,-0.2610,6.0947,0.1799,-0.0000,-0.0000,-0.0943,flat,18.0,0,10.511
1900,60.80,0.2018,6.0271,0.1799,0.0000,-0.0000,-0.3557,flat,18.0,0,10.259
1910,61.12,0.6627,5.8262,0.1799,-0.0001,-0.0000,-0.5475,flat,18.0,0,9.900
1920,61.44,1.0975,5.5262,0.1799,-0.0001,-0.0000,-0.6941,flat,18.0,0,9.468
1930,61.76,1.4985,5.1592,0.1798,-0.0003,-0.0000,-0.7999,flat,18.0,0,8.992
1940,62.08,1.8656,4.7493,0.1798,-0.0004,-0.0000,-0.8919,flat,18.0,0,8.493
1950,62.40,2.2013,4.3051,0.1798,-0.0004,-0.0000,-0.9724,flat,18.0,0,7.975
1960,62.72,2.5056,3.8338,0.1797,-0.0003,-0.0000,-1.0426,flat,18.0,0,7.444
1970,63.04,2.7801,3.3411,0.1797,-0.0002,-0.0000,-1.1039,flat,18.0,0,6.903
1980,63.36,3.0258,2.8315,0.1797,-0.0002,-0.0000,-1.1578,flat,18.0,0,6.354
1990,63.68,3.2457,2.3089,0.1797,-0.0002,0.0000,-1.2046,flat,18.0,0,5.800
2000,64.00,3.4425,1.7772,0.1797,-0.0001,-0.0000,-1.2447,flat,18.0,0,5.244
2010,64.32,3.6190,1.2373,0.1797,-0.0001,-0.0000,-1.2815,flat,18.0,0,4.684
2020,64.64,3.7764,0.6909,0.1797,-0.0001,-0.0000,-1.3157,flat,18.0,0,4.123
2030,64.96,3.9156,0.1391,0.1797,-0.0001,-0.0000,-1.3481,flat,18.0,0,3.560
2040,65.28,4.0373,-0.4172,0.1797,-0.0001,-0.0000,-1.3796,flat,18.0,0,2.996
2050,65.60,4.1415,-0.9769,0.1797,-0.0001,-0.0000,-1.4114,flat,18.0,0,2.431
2060,65.92,4.2278,-1.5393,0.1797,-0.0001,0.0000,-1.4455,flat,18.0,0,1.867
2070,66.24,4.2945,-2.1031,0.1797,-0.0001,0.0000,-1.4856,flat,18.0,0,1.305
2080,66.56,4.3376,-2.6667,0.1797,-0.0002,0.0000,-1.5466,flat,18.0,1,7.605
2090,66.88,4.3338,-3.2049,0.1799,-0.0001,-0.0000,-1.7210,flat,18.0,1,7.209
2100,67.20,4.2338,-3.7287,0.1799,-0.0001,-0.0000,-1.8900,rough,15.5,1,6.771
2110,67.52,4.0569,-4.2253,0.1799,-0.0003,-0.0000,-1.9937,flat,18.0,1,6.307
2120,67.84,3.8163,-4.7175,0.1798,-0.0004,-0.0000,-2.0951,flat,18.0,1,5.807
2130,68.16,3.5258,-5.1885,0.1798,-0.0003,-0.0000,-2.1725,flat,18.0,1,5.289
2140,68.48,3.1994,-5.6410,0.1797,-0.0002,-0.0000,-2.2329,flat,18.0,1,4.760
2150,68.80,2.8458,-6.0732,0.1797,-0.0002,-0.0000,-2.2910,flat,18.0,1,4.225
2160,69.12,2.4669,-6.4840,0.1797,-0.0002,-0.0000,-2.3471,flat,18.0,1,3.688
2170,69.44,2.0651,-6.8736,0.1797,-0.0002,-0.0000,-2.4004,flat,18.0,1,3.146
2180,69.76,1.6427,-7.2411,0.1797,-0.0002,-0.0000,-2.4552,flat,18.0,1,2.604
2190,70.08,1.2004,-7.5854,0.1797,-0.0002,-0.0000,-2.5141,flat,18.0,1,2.061
2200,70.40,0.7388,-7.9039,0.1797,-0.0002,0.0000,-2.5822,flat,18.0,1,1.519
2210,70.72,0.2584,-8.1876,0.1798,-0.0004,0.0000,-2.6725,flat,18.0,1,0.984
2220,71.04,-0.1899,-8.3896,0.1798,0.0002,0.0001,-2.9040,flat,18.0,2,5.420
2230,71.36,-0.6290,-8.4713,0.1799,0.0000,-0.0000,3.0424,flat,18.0,2,5.253
2240,71.68,-1.0950,-8.4005,0.1799,-0.0001,0.0001,2.8211,flat,18.0,2,4.970
2250,72.00,-1.5601,-8.2136,0.1799,-0.0001,-0.0000,2.6118,flat,18.0,2,4.610
2260,72.32,-1.9954,-7.9206,0.1799,-0.0001,-0.0000,2.4459,flat,18.0,2,4.186
2270,72.64,-2.3876,-7.5536,0.1799,-0.0002,-0.0000,2.3188,flat,18.0,2,3.725
2280,72.96,-2.7375,-7.1367,0.1799,-0.0003,-0.0000,2.1979,flat,18.0,2,3.245
2290,73.28,-3.0417,-6.6781,0.1799,-0.0003,-0.0000,2.0788,flat,18.0,2,2.751
2300,73.60,-3.2940,-6.1853,0.1799,-0.0003,-0.0000,1.9585,flat,18.0,2,2.248
2310,73.92,-3.4880,-5.6657,0.1799,-0.0003,-0.0000,1.8306,flat,18.0,2,1.741
2320,74.24,-3.6148,-5.1279,0.1799,-0.0001,0.0000,1.6817,flat,18.0,2,1.237
2330,74.56,-3.6562,-4.5871,0.1799,-0.0002,0.0001,1.5143,flat,18.0,3,10.965
2340,74.88,-3.6194,-4.0242,0.1798,-0.0001,-0.0000,1.4764,flat,18.0,3,10.411
2350,75.20,-3.5615,-3.4589,0.1797,-0.0001,-0.0000,1.4427,flat,18.0,3,9.850
2360,75.52,-3.4852,-2.8948,0.1797,-0.0001,-0.0000,1.4150,flat,18.0,3,9.286
2370,75.84,-3.3937,-2.3321,0.1797,-0.0001,-0.0000,1.3916,flat,18.0,3,8.720
2380,76.16,-3.2892,-1.7710,0.1797,-0.0001,-0.0000,1.3716,flat,18.0,3,8.152
2390,76.48,-3.1737,-1.2113,0.1797,-0.0001,-0.0000,1.3543,flat,18.0,3,7.583
2400,76.80,-3.0487,-0.6532,0.1797,-0.0001,-0.0000,1.3391,flat,18.0,3,7.013
2410,77.12,-2.9153,-0.0966,0.1797,-0.0000,-0.0000,1.3256,flat,18.0,3,6.442
2420,77.44,-2.7745,0.4585,0.1797,-0.0000,-0.0000,1.3135,flat,18.0,3,5.870
2430,77.76,-2.6271,1.0121,0.1797,-0.0000,-0.0000,1.3025,flat,18.0,3,5.298
2440,78.08,-2.4736,1.5644,0.1797,-0.0000,-0.0000,1.2923,flat,18.0,3,4.726
2450,78.40,-2.3146,2.1152,0.1797,-0.0000,-0.0000,1.2828,flat,18.0,3,4.153
2460,78.72,-2.1504,2.6646,0.1797,-0.0000,-0.0000,1.2736,flat,18.0,3,3.580
2470,79.04,-1.9811,3.2124,0.1797,-0.0000,-0.0000,1.2646,flat,18.0,3,3.008
2480,79.36,-1.8069,3.7587,0.1797,-0.0000,0.0000,1.2554,flat,18.0,3,2.435
2490,79.68,-1.6277,4.3030,0.1797,-0.0000,0.0000,1.2453,flat,18.0,3,1.862
2500,80.00,-1.4429,4.8449,0.1797,-0.0000,0.0000,1.2332,flat,18.0,3,1.290
2510,80.32,-1.2549,5.3800,0.1797,-0.0000,0.0002,1.1981,flat,18.0,0,10.360
2520,80.64,-1.0918,5.7205,0.1798,0.0003,0.0001,0.8271,flat,18.0,0,10.568
2530,80.96,-0.8359,5.9318,0.1798,0.0002,-0.0000,0.4398,flat,18.0,0,10.626
2540,81.28,-0.4751,6.0751,0.1799,0.0000,-0.0001,0.0728,flat,18.0,0,10.587
2550,81.60,-0.0298,6.0844,0.1799,-0.0001,-0.0000,-0.2335,flat,18.0,0,10.405
2560,81.92,0.4366,5.9460,0.1799,-0.0001,-0.0000,-0.4564,flat,18.0,0,10.094
2570,82.24,0.8862,5.6919,0.1799,-0.0001,-0.0000,-0.6257,flat,18.0,0,9.695
2580,82.56,1.3048,5.3540,0.1799,-0.0003,-0.0000,-0.7492,flat,18.0,0,9.237
2590,82.88,1.6879,4.9642,0.1798,-0.0004,-0.0000,-0.8476,flat,18.0,0,8.750
2600,83.20,2.0393,4.5361,0.1798,-0.0004,-0.0000,-0.9338,flat,18.0,0,8.240
2610,83.52,2.3591,4.0775,0.1798,-0.0003,-0.0000,-1.0090,flat,18.0,0,7.715
2620,83.84,2.6481,3.5947,0.1797,-0.0002,-0.0000,-1.0746,flat,18.0,0,7.179
2630,84.16,2.9079,3.0930,0.1797,-0.0002,-0.0000,-1.1320,flat,18.0,0,6.634
2640,84.48,3.1402,2.5763,0.1797,-0.0002,-0.0000,-1.1826,flat,18.0,0,6.082
2650,84.80,3.3479,2.0488,0.1797,-0.0002,-0.0000,-1.2255,flat,18.0,0,5.527
2660,85.12,3.5342,1.5127,0.1797,-0.0001,-0.0000,-1.2638,flat,18.0,0,4.969
2670,85.44,3.7008,0.9694,0.1797,-0.0001,-0.0000,-1.2992,flat,18.0,0,4.408
2680,85.76,3.8488,0.4200,0.1797,-0.0001,-0.0000,-1.3324,flat,18.0,0,3.846
2690,86.08,3.9790,-0.1342,0.1797,-0.0001,-0.0000,-1.3642,flat,18.0,0,3.282
2700,86.40,4.0918,-0.6923,0.1797,-0.0001,-0.0000,-1.3957,flat,18.0,0,2.718
2710,86.72,4.1870,-1.2535,0.1797,-0.0001,0.0000,-1.4282,flat,18.0,0,2.154
2720,87.04,4.2637,-1.8169,0.1797,-0.0001,0.0000,-1.4645,flat,18.0,0,1.590
2730,87.36,4.3193,-2.3810,0.1797,-0.0002,0.0000,-1.5116,flat,18.0,0,1.029
2740,87.68,4.3434,-2.9363,0.1798,-0.0000,0.0000,-1.6226,flat,18.0,1,7.409
2750,88.00,4.2969,-3.4633,0.1799,-0.0001,-0.0000,-1.8111,flat,18.0,1,7.000
2760,88.32,4.1539,-3.9672,0.1798,-0.0002,-0.0000,-1.9312,flat,18.0,1,6.551
2770,88.64,3.9445,-4.4703,0.1799,-0.0004,-0.0000,-2.0471,flat,18.0,1,6.063
2780,88.96,3.6774,-4.9516,0.1798,-0.0004,-0.0000,-2.1366,flat,18.0,1,5.553
2790,89.28,3.3673,-5.4135,0.1797,-0.0003,-0.0000,-2.2030,flat,18.0,1,5.028
2800,89.60,3.0271,-5.8562,0.1797,-0.0002,-0.0000,-2.2617,flat,18.0,1,4.496
2810,89.92,2.6609,-6.2779,0.1797,-0.0002,-0.0000,-2.3191,flat,18.0,1,3.960
2820,90.24,2.2703,-6.6784,0.1797,-0.0002,-0.0000,-2.3732,flat,18.0,1,3.420
2830,90.56,1.8582,-7.0571,0.1797,-0.0002,-0.0000,-2.4270,flat,18.0,1,2.878
2840,90.88,1.4260,-7.4136,0.1797,-0.0002,-0.0000,-2.4833,flat,18.0,1,2.335
2850,91.20,0.9742,-7.7459,0.1797,-0.0002,-0.0000,-2.5458,flat,18.0,1,1.792
2860,91.52,0.5033,-8.0487,0.1798,-0.0003,0.0000,-2.6222,flat,18.0,1,1.253
2870,91.84,0.0169,-8.3077,0.1798,-0.0003,0.0003,-2.7498,flat,18.0,2,5.475
2880,92.16,-0.3978,-8.4473,0.1799,0.0000,-0.0000,-3.0756,flat,18.0,2,5.353
2890,92.48,-0.8637,-8.4528,0.1799,-0.0002,0.0000,2.9081,flat,18.0,2,5.122
2900,92.80,-1.3261,-8.3217,0.1799,-0.0000,-0.0000,2.7113,flat,18.0,2,4.801
2910,93.12,-1.7802,-8.0786,0.1799,-0.0001,-0.0000,2.5240,flat,18.0,2,4.405
2920,93.44,-2.1945,-7.7446,0.1799,-0.0002,-0.0000,2.3809,flat,18.0,2,3.959
2930,93.76,-2.5653,-7.3514,0.1799,-0.0003,-0.0000,2.2585,flat,18.0,2,3.489
2940,94.08,-2.8934,-6.9129,0.1799,-0.0003,-0.0000,2.1388,flat,18.0,2,3.001
2950,94.40,-3.1727,-6.4365,0.1799,-0.0003,-0.0000,2.0198,flat,18.0,2,2.502
2960,94.72,-3.3971,-5.9295,0.1799,-0.0003,-0.0000,1.8968,flat,18.0,2,1.996
2970,95.04,-3.5593,-5.3997,0.1799,-0.0002,-0.0000,1.7610,flat,18.0,2,1.489
2980,95.36,-3.6478,-4.8576,0.1799,-0.0001,0.0000,1.5916,flat,18.0,2,0.991
2990,95.68,-3.6398,-4.3084,0.1798,-0.0001,-0.0001,1.4973,flat,18.0,3,10.691
3000,96.00,-3.5933,-3.7425,0.1798,-0.0001,-0.0000,1.4592,flat,18.0,3,10.132
3010,96.32,-3.5260,-3.1779,0.1797,-0.0001,-0.0000,1.4287,flat,18.0,3,9.569
3020,96.64,-3.4419,-2.6145,0.1797,-0.0001,-0.0000,1.4032,flat,18.0,3,9.004
3030,96.96,-3.3438,-2.0525,0.1797,-0.0001,-0.0000,1.3815,flat,18.0,3,8.437
3040,97.28,-3.2338,-1.4921,0.1797,-0.0001,-0.0000,1.3628,flat,18.0,3,7.869
3050,97.60,-3.1135,-0.9332,0.1797,-0.0001,-0.0000,1.3466,flat,18.0,3,7.299
3060,97.92,-2.9842,-0.3759,0.1797,-0.0001,-0.0000,1.3322,flat,18.0,3,6.729
3070,98.24,-2.8471,0.1800,0.1797,-0.0000,-0.0000,1.3194,flat,18.0,3,6.158
3080,98.56,-2.7029,0.7343,0.1797,-0.0000,-0.0000,1.3078,flat,18.0,3,5.586
3090,98.88,-2.5524,1.2873,0.1797,-0.0000,-0.0000,1.2973,flat,18.0,3,5.014
3100,99.20,-2.3961,1.8388,0.1797,-0.0000,-0.0000,1.2874,flat,18.0,3,4.441
3110,99.52,-2.2344,2.3889,0.1797,-0.0000,-0.0000,1.2781,flat,18.0,3,3.868
3120,99.84,-2.0675,2.9375,0.1797,-0.0000,-0.0000,1.2690,flat,18.0,3,3.296
3130,100.16,-1.8958,3.4845,0.1797,-0.0000,0.0000,1.2599,flat,18.0,3,2.723
3140,100.48,-1.7190,4.0298,0.1797,-0.0000,0.0000,1.2504,flat,18.0,3,2.150
3150,100.80,-1.5370,4.5730,0.1797,-0.0000,0.0000,1.2395,flat,18.0,3,1.578
3160,101.12,-1.3491,5.1131,0.1797,-0.0000,0.0000,1.2253,flat,18.0,3,1.007
3170,101.44,-1.1853,5.5761,0.1798,0.0002,0.0003,1.0229,flat,18.0,0,10.491
3180,101.76,-0.9746,5.8314,0.1798,0.0003,-0.0000,0.6318,flat,18.0,0,10.605
3190,102.08,-0.6706,6.0142,0.1799,0.0001,-0.0001,0.2526,flat,18.0,0,10.621
3200,102.40,-0.2593,6.0980,0.1799,-0.0000,-0.0001,-0.0940,flat,18.0,0,10.513
3210,102.72,0.2034,6.0306,0.1799,0.0000,-0.0000,-0.3556,flat,18.0,0,10.262
3220,103.04,0.6642,5.8298,0.1799,-0.0001,-0.0000,-0.5475,flat,18.0,0,9.902
3230,103.36,1.0991,5.5298,0.1799,-0.0001,-0.0000,-0.6941,flat,18.0,0,9.470
3240,103.68,1.5000,5.1628,0.1798,-0.0003,-0.0000,-0.8000,flat,18.0,0,8.995
3250,104.00,1.8671,4.7528,0.1798,-0.0004,-0.0000,-0.8921,flat,18.0,0,8.496
3260,104.32,2.2027,4.3086,0.1798,-0.0004,-0.0000,-0.9726,flat,18.0,0,7.978
3270,104.64,2.5069,3.8372,0.1797,-0.0003,-0.0000,-1.0428,flat,18.0,0,7.447
3280,104.96,2.7813,3.3444,0.1797,-0.0002,-0.0000,-1.1042,flat,18.0,0,6.906
3290,105.28,3.0269,2.8348,0.1797,-0.0002,-0.0000,-1.1580,flat,18.0,0,6.357
3300,105.60,3.2466,2.3121,0.1797,-0.0002,0.0000,-1.2048,flat,18.0,0,5.803
3310,105.92,3.4433,1.7803,0.1797,-0.0001,-0.0000,-1.2449,flat,18.0,0,5.247
3320,106.24,3.6197,1.2405,0.1797,-0.0001,-0.0000,-1.2817,flat,18.0,0,4.687
3330,106.56,3.7770,0.6940,0.1797,-0.0001,-0.0000,-1.3159,flat,18.0,0,4.126
3340,106.88,3.9161,0.1421,0.1797,-0.0001,-0.0000,-1.3483,flat,18.0,0,3.563
3350,107.20,4.0376,-0.4141,0.1797,-0.0001,-0.0000,-1.3798,flat,18.0,0,2.999
3360,107.52,4.1417,-0.9739,0.1797,-0.0001,-0.0000,-1.4116,flat,18.0,0,2.434
3370,107.84,4.2279,-1.5363,0.1797,-0.0001,0.0000,-1.4456,flat,18.0,0,1.870
3380,108.16,4.2945,-2.1002,0.1797,-0.0001,0.0000,-1.4857,flat,18.0,0,1.308
3390,108.48,4.3376,-2.6638,0.1797,-0.0002,0.0000,-1.5464,flat,18.0,1,7.607
3400,108.80,4.3338,-3.2021,0.1799,-0.0001,-0.0000,-1.7205,flat,18.0,1,7.211
3410,109.12,4.2341,-3.7259,0.1799,-0.0001,-0.0000,-1.8897,rough,15.5,1,6.773
3420,109.44,4.0574,-4.2226,0.1799,-0.0003,-0.0000,-1.9933,flat,18.0,1,6.309
3430,109.76,3.8169,-4.7148,0.1798,-0.0004,-0.0000,-2.0948,flat,18.0,1,5.809
3440,110.08,3.5265,-5.1859,0.1798,-0.0003,-0.0000,-2.1723,flat,18.0,1,5.291
3450,110.40,3.2003,-5.6385,0.1797,-0.0002,-0.0000,-2.2327,flat,18.0,1,4.762
3460,110.72,2.8468,-6.0708,0.1797,-0.0002,-0.0000,-2.2907,flat,18.0,1,4.228
3470,111.04,2.4681,-6.4817,0.1797,-0.0002,-0.0000,-2.3467,flat,18.0,1,3.690
3480,111.36,2.0664,-6.8715,0.1797,-0.0002,-0.0000,-2.4001,flat,18.0,1,3.149
3490,111.68,1.6441,-7.2391,0.1797,-0.0002,-0.0000,-2.4548,flat,18.0,1,2.606
3500,112.00,1.2019,-7.5836,0.1797,-0.0002,-0.0000,-2.5136,flat,18.0,1,2.063
3510,112.32,0.7405,-7.9023,0.1797,-0.0002,0.0000,-2.5817,flat,18.0,1,1.521
3520,112.64,0.2602,-8.1862,0.1798,-0.0004,0.0000,-2.6718,flat,18.0,1,0.986
3530,112.96,-0.1880,-8.3886,0.1798,0.0002,0.0001,-2.9031,flat,18.0,2,5.421
3540,113.28,-0.6270,-8.4707,0.1799,-0.0000,-0.0000,3.0433,flat,18.0,2,5.253
3550,113.60,-1.0929,-8.4002,0.1799,-0.0001,0.0001,2.8216,flat,18.0,2,4.971
3560,113.92,-1.5581,-8.2137,0.1799,-0.0001,-0.0000,2.6123,flat,18.0,2,4.611
3570,114.24,-1.9935,-7.9209,0.1799,-0.0001,-0.0000,2.4463,flat,18.0,2,4.187
3580,114.56,-2.3857,-7.5540,0.1799,-0.0002,-0.0000,2.3190,flat,18.0,2,3.726
3590,114.88,-2.7357,-7.1372,0.1799,-0.0003,-0.0000,2.1983,flat,18.0,2,3.246
3600,115.20,-3.0401,-6.6787,0.1799,-0.0003,-0.0000,2.0793,flat,18.0,2,2.752
3610,115.52,-3.2927,-6.1860,0.1799,-0.0003,-0.0000,1.9590,flat,18.0,2,2.249
3620,115.84,-3.4869,-5.6665,0.1799,-0.0003,-0.0000,1.8312,flat,18.0,2,1.742
3630,116.16,-3.6141,-5.1288,0.1799,-0.0001,0.0000,1.6824,flat,18.0,2,1.237
3640,116.48,-3.6558,-4.5879,0.1799,-0.0002,0.0001,1.5150,flat,18.0,3,10.966
3650,116.80,-3.6194,-4.0250,0.1798,-0.0001,-0.0000,1.4769,flat,18.0,3,10.412
3660,117.12,-3.5618,-3.4597,0.1797,-0.0001,-0.0000,1.4431,flat,18.0,3,9.851
3670,117.44,-3.4857,-2.8957,0.1797,-0.0001,-0.0000,1.4153,flat,18.0,3,9.287
3680,117.76,-3.3943,-2.3330,0.1797,-0.0001,-0.0000,1.3919,flat,18.0,3,8.721
3690,118.08,-3.2900,-1.7718,0.1797,-0.0001,-0.0000,1.3718,flat,18.0,3,8.153
3700,118.40,-3.1746,-1.2121,0.1797,-0.0001,-0.0000,1.3544,flat,18.0,3,7.584
3710,118.72,-3.0497,-0.6540,0.1797,-0.0001,-0.0000,1.3391,flat,18.0,3,7.014
3720,119.04,-2.9163,-0.0974,0.1797,-0.0000,-0.0000,1.3256,flat,18.0,3,6.443
3730,119.36,-2.7756,0.4577,0.1797,-0.0000,-0.0000,1.3135,flat,18.0,3,5.871
3740,119.68,-2.6282,1.0113,0.1797,-0.0000,-0.0000,1.3024,flat,18.0,3,5.299
3750,120.00,-2.4747,1.5636,0.1797,-0.0000,-0.0000,1.2923,flat,18.0,3,4.727
3760,120.32,-2.3156,2.1144,0.1797,-0.0000,-0.0000,1.2827,flat,18.0,3,4.154
3770,120.64,-2.1514,2.6637,0.1797,-0.0000,-0.0000,1.2735,flat,18.0,3,3.582
3780,120.96,-1.9821,3.2116,0.1797,-0.0000,-0.0000,1.2645,flat,18.0,3,3.009
3790,121.28,-1.8078,3.7578,0.1797,-0.0000,0.0000,1.2553,flat,18.0,3,2.436
3800,121.60,-1.6285,4.3021,0.1797,-0.0000,0.0000,1.2452,flat,18.0,3,1.863
3810,121.92,-1.4437,4.8439,0.1797,-0.0000,0.0000,1.2331,flat,18.0,3,1.292
3820,122.24,-1.2556,5.3790,0.1797,-0.0000,0.0002,1.1979,flat,18.0,0,10.360
3830,122.56,-1.0924,5.7194,0.1798,0.0003,0.0001,0.8269,flat,18.0,0,10.567
3840,122.88,-0.8365,5.9307,0.1798,0.0002,-0.0000,0.4397,flat,18.0,0,10.625
3850,123.20,-0.4756,6.0739,0.1799,0.0000,-0.0001,0.0727,flat,18.0,0,10.586
3860,123.52,-0.0302,6.0832,0.1799,-0.0001,-0.0000,-0.2336,flat,18.0,0,10.404
3870,123.84,0.4361,5.9448,0.1799,-0.0001,-0.0000,-0.4564,flat,18.0,0,10.093
3880,124.16,0.8858,5.6906,0.1799,-0.0001,-0.0000,-0.6257,flat,18.0,0,9.694
3890,124.48,1.3044,5.3527,0.1799,-0.0003,-0.0000,-0.7492,flat,18.0,0,9.236
3900,124.80,1.6875,4.9629,0.1798,-0.0004,-0.0000,-0.8475,flat,18.0,0,8.748
3910,125.12,2.0390,4.5349,0.1798,-0.0004,-0.0000,-0.9337,flat,18.0,0,8.239
3920,125.44,2.3588,4.0763,0.1798,-0.0003,-0.0000,-1.0089,flat,18.0,0,7.714
3930,125.76,2.6478,3.5935,0.1797,-0.0002,-0.0000,-1.0745,flat,18.0,0,7.178
3940,126.08,2.9077,3.0918,0.1797,-0.0002,-0.0000,-1.1320,flat,18.0,0,6.632
3950,126.40,3.1400,2.5751,0.1797,-0.0002,-0.0000,-1.1826,flat,18.0,0,6.081
3960,126.72,3.3477,2.0477,0.1797,-0.0002,-0.0000,-1.2254,flat,18.0,0,5.526
3970,127.04,3.5340,1.5116,0.1797,-0.0001,-0.0000,-1.2638,flat,18.0,0,4.968
3980,127.36,3.7007,0.9683,0.1797,-0.0001,-0.0000,-1.2991,flat,18.0,0,4.407
3990,127.68,3.8487,0.4189,0.1797,-0.0001,-0.0000,-1.3323,flat,18.0,0,3.845
4000,128.00,3.9790,-0.1352,0.1797,-0.0001,-0.0000,-1.3641,flat,18.0,0,3.281
4010,128.32,4.0918,-0.6934,0.1797,-0.0001,-0.0000,-1.3956,flat,18.0,0,2.717
4020,128.64,4.1871,-1.2546,0.1797,-0.0001,0.0000,-1.4282,flat,18.0,0,2.152
4030,128.96,4.2638,-1.8179,0.1797,-0.0001,0.0000,-1.4645,flat,18.0,0,1.589
4040,129.28,4.3194,-2.3820,0.1797,-0.0002,0.0000,-1.5116,flat,18.0,0,1.028
4050,129.60,4.3434,-2.9374,0.1798,-0.0000,0.0000,-1.6228,flat,18.0,1,7.409
4060,129.92,4.2969,-3.4643,0.1799,-0.0001,-0.0000,-1.8113,flat,18.0,1,6.999
4070,130.24,4.1538,-3.9682,0.1798,-0.0002,-0.0000,-1.9313,flat,18.0,1,6.550
4080,130.56,3.9443,-4.4713,0.1799,-0.0004,-0.0000,-2.0472,flat,18.0,1,6.062
4090,130.88,3.6771,-4.9525,0.1798,-0.0004,-0.0000,-2.1367,flat,18.0,1,5.552
4100,131.20,3.3670,-5.4144,0.1797,-0.0003,-0.0000,-2.2031,flat,18.0,1,5.027
4110,131.52,3.0268,-5.8571,0.1797,-0.0002,-0.0000,-2.2618,flat,18.0,1,4.495
4120,131.84,2.6605,-6.2787,0.1797,-0.0002,-0.0000,-2.3192,flat,18.0,1,3.959
4130,132.16,2.2699,-6.6791,0.1797,-0.0002,-0.0000,-2.3734,flat,18.0,1,3.419
4140,132.48,1.8578,-7.0579,0.1797,-0.0002,-0.0000,-2.4271,flat,18.0,1,2.878
4150,132.80,1.4255,-7.4143,0.1797,-0.0002,-0.0000,-2.4835,flat,18.0,1,2.334
4160,133.12,0.9737,-7.7465,0.1797,-0.0002,-0.0000,-2.5460,flat,18.0,1,1.791
4170,133.44,0.5027,-8.0492,0.1798,-0.0003,0.0000,-2.6224,flat,18.0,1,1.252
4180,133.76,0.0163,-8.3081,0.1798,-0.0003,0.0003,-2.7501,flat,18.0,2,5.475
4190,134.08,-0.3985,-8.4476,0.1799,0.0000,-0.0000,-3.0759,flat,18.0,2,5.353
4200,134.40,-0.8644,-8.4530,0.1799,-0.0002,0.0000,2.9078,flat,18.0,2,5.122
4210,134.72,-1.3269,-8.3218,0.1799,-0.0000,-0.0000,2.7111,flat,18.0,2,4.800
4220,135.04,-1.7809,-8.0786,0.1799,-0.0001,-0.0000,2.5239,flat,18.0,2,4.405
4230,135.36,-2.1952,-7.7445,0.1799,-0.0002,-0.0000,2.3808,flat,18.0,2,3.959
4240,135.68,-2.5659,-7.3513,0.1799,-0.0003,-0.0000,2.2584,flat,18.0,2,3.488
4250,136.00,-2.8940,-6.9127,0.1799,-0.0003,-0.0000,2.1387,flat,18.0,2,3.001
4260,136.32,-3.1732,-6.4362,0.1799,-0.0003,-0.0000,2.0196,flat,18.0,2,2.501
4270,136.64,-3.3975,-5.9292,0.1799,-0.0003,-0.0000,1.8966,flat,18.0,2,1.995
4280,136.96,-3.5596,-5.3994,0.1799,-0.0002,-0.0000,1.7608,flat,18.0,2,1.489
4290,137.28,-3.6480,-4.8572,0.1799,-0.0001,0.0000,1.5913,flat,18.0,2,0.991
4300,137.60,-3.6399,-4.3081,0.1798,-0.0001,-0.0001,1.4971,flat,18.0,3,10.691
4310,137.92,-3.5932,-3.7422,0.1798,-0.0001,-0.0000,1.4590,flat,18.0,3,10.132
4320,138.24,-3.5258,-3.1776,0.1797,-0.0001,-0.0000,1.4286,flat,18.0,3,9.569
4330,138.56,-3.4417,-2.6142,0.1797,-0.0001,-0.0000,1.4031,flat,18.0,3,9.004
4340,138.88,-3.3436,-2.0522,0.1797,-0.0001,-0.0000,1.3814,flat,18.0,3,8.437
4350,139.20,-3.2335,-1.4918,0.1797,-0.0001,-0.0000,1.3628,flat,18.0,3,7.869
4360,139.52,-3.1132,-0.9329,0.1797,-0.0001,-0.0000,1.3465,flat,18.0,3,7.299
4370,139.84,-2.9839,-0.3756,0.1797,-0.0001,-0.0000,1.3322,flat,18.0,3,6.728
4380,140.16,-2.8467,0.1803,0.1797,-0.0000,-0.0000,1.3194,flat,18.0,3,6.157
4390,140.48,-2.7025,0.7346,0.1797,-0.0000,-0.0000,1.3078,flat,18.0,3,5.585
4400,140.80,-2.5520,1.2876,0.1797,-0.0000,-0.0000,1.2973,flat,18.0,3,5.013
4410,141.12,-2.3957,1.8391,0.1797,-0.0000,-0.0000,1.2874,flat,18.0,3,4.441
4420,141.44,-2.2340,2.3892,0.1797,-0.0000,-0.0000,1.2781,flat,18.0,3,3.868
4430,141.76,-2.0672,2.9378,0.1797,-0.0000,-0.0000,1.2690,flat,18.0,3,3.295
4440,142.08,-1.8955,3.4849,0.1797,-0.0000,0.0000,1.2600,flat,18.0,3,2.722
4450,142.40,-1.7187,4.0302,0.1797,-0.0000,0.0000,1.2504,flat,18.0,3,2.150
4460,142.72,-1.5367,4.5734,0.1797,-0.0000,0.0000,1.2395,flat,18.0,3,1.577
4470,143.04,-1.3488,5.1134,0.1797,-0.0000,0.0000,1.2253,flat,18.0,3,1.006
4480,143.36,-1.1851,5.5765,0.1798,0.0002,0.0003,1.0229,flat,18.0,0,10.491
4490,143.68,-0.9744,5.8318,0.1798,0.0003,-0.0000,0.6319,flat,18.0,0,10.606
4500,144.00,-0.6705,6.0146,0.1799,0.0001,-0.0001,0.2526,flat,18.0,0,10.621
4510,144.32,-0.2591,6.0984,0.1799,-0.0000,-0.0001,-0.0940,flat,18.0,0,10.514
4520,144.64,0.2035,6.0310,0.1799,0.0000,-0.0000,-0.3556,flat,18.0,0,10.262
4530,144.96,0.6644,5.8302,0.1799,-0.0001,-0.0000,-0.5475,flat,18.0,0,9.903
4540,145.28,1.0992,5.5302,0.1799,-0.0001,-0.0000,-0.6941,flat,18.0,0,9.471
4550,145.60,1.5001,5.1632,0.1798,-0.0003,-0.0000,-0.8000,flat,18.0,0,8.995
4560,145.92,1.8672,4.7533,0.1798,-0.0004,-0.0000,-0.8921,flat,18.0,0,8.496
4570,146.24,2.2028,4.3090,0.1798,-0.0004,-0.0000,-0.9726,flat,18.0,0,7.979
4580,146.56,2.5070,3.8376,0.1797,-0.0003,-0.0000,-1.0428,flat,18.0,0,7.447
4590,146.88,2.7814,3.3449,0.1797,-0.0002,-0.0000,-1.1042,flat,18.0,0,6.906
4600,147.20,3.0270,2.8352,0.1797,-0.0002,-0.0000,-1.1580,flat,18.0,0,6.357
4610,147.52,3.2467,2.3125,0.1797,-0.0002,0.0000,-1.2049,flat,18.0,0,5.804
4620,147.84,3.4434,1.7807,0.1797,-0.0001,-0.0000,-1.2450,flat,18.0,0,5.247
4630,148.16,3.6197,1.2408,0.1797,-0.0001,-0.0000,-1.2818,flat,18.0,0,4.688
4640,148.48,3.7770,0.6943,0.1797,-0.0001,-0.0000,-1.3159,flat,18.0,0,4.126
4650,148.80,3.9160,0.1425,0.1797,-0.0001,-0.0000,-1.3483,flat,18.0,0,3.563
4660,149.12,4.0375,-0.4138,0.1797,-0.0001,-0.0000,-1.3799,flat,18.0,0,2.999
4670,149.44,4.1416,-0.9736,0.1797,-0.0001,-0.0000,-1.4117,flat,18.0,0,2.435
4680,149.76,4.2278,-1.5360,0.1797,-0.0001,0.0000,-1.4456,flat,18.0,0,1.871
4690,150.08,4.2945,-2.0998,0.1797,-0.0001,0.0000,-1.4857,flat,18.0,0,1.308
4700,150.40,4.3375,-2.6634,0.1797,-0.0002,0.0000,-1.5463,flat,18.0,1,7.607
4710,150.72,4.3338,-3.2018,0.1799,-0.0001,-0.0000,-1.7205,flat,18.0,1,7.211
4720,151.04,4.2341,-3.7256,0.1799,-0.0001,-0.0000,-1.8896,rough,15.5,1,6.773
4730,151.36,4.0574,-4.2222,0.1799,-0.0003,-0.0000,-1.9933,flat,18.0,1,6.310
4740,151.68,3.8169,-4.7145,0.1798,-0.0004,-0.0000,-2.0947,flat,18.0,1,5.809
4750,152.00,3.5266,-5.1856,0.1798,-0.0003,-0.0000,-2.1722,flat,18.0,1,5.291
4760,152.32,3.2003,-5.6383,0.1797,-0.0002,-0.0000,-2.2327,flat,18.0,1,4.762
4770,152.64,2.8468,-6.0705,0.1797,-0.0002,-0.0000,-2.2907,flat,18.0,1,4.228
4780,152.96,2.4681,-6.4815,0.1797,-0.0002,-0.0000,-2.3467,flat,18.0,1,3.690
4790,153.28,2.0665,-6.8712,0.1797,-0.0002,-0.0000,-2.4000,flat,18.0,1,3.149
4800,153.60,1.6441,-7.2389,0.1797,-0.0002,-0.0000,-2.4548,flat,18.0,1,2.606
4810,153.92,1.2020,-7.5834,0.1797,-0.0002,-0.0000,-2.5136,flat,18.0,1,2.063
4820,154.24,0.7406,-7.9021,0.1797,-0.0002,0.0000,-2.5816,flat,18.0,1,1.521
4830,154.56,0.2603,-8.1861,0.1798,-0.0004,0.0000,-2.6717,flat,18.0,1,0.986
4840,154.88,-0.1878,-8.3884,0.1798,0.0002,0.0001,-2.9029,flat,18.0,2,5.421
4850,155.20,-0.6268,-8.4706,0.1799,-0.0000,-0.0000,3.0435,flat,18.0,2,5.253
4860,155.52,-1.0927,-8.4002,0.1799,-0.0001,0.0001,2.8217,flat,18.0,2,4.971
4870,155.84,-1.5579,-8.2137,0.1799,-0.0001,-0.0000,2.6123,flat,18.0,2,4.611
4880,156.16,-1.9933,-7.9209,0.1799,-0.0001,-0.0000,2.4463,flat,18.0,2,4.187
4890,156.48,-2.3856,-7.5540,0.1799,-0.0002,-0.0000,2.3191,flat,18.0,2,3.726
4900,156.80,-2.7356,-7.1372,0.1799,-0.0003,-0.0000,2.1983,flat,18.0,2,3.246
4910,157.12,-3.0400,-6.6788,0.1799,-0.0003,-0.0000,2.0793,flat,18.0,2,2.752
4920,157.44,-3.2926,-6.1861,0.1799,-0.0003,-0.0000,1.9590,flat,18.0,2,2.249
4930,157.76,-3.4868,-5.6666,0.1799,-0.0003,-0.0000,1.8312,flat,18.0,2,1.742
4940,158.08,-3.6140,-5.1289,0.1799,-0.0001,0.0000,1.6824,flat,18.0,2,1.237
4950,158.40,-3.6558,-4.5880,0.1799,-0.0002,0.0001,1.5150,flat,18.0,3,10.966
4960,158.72,-3.6194,-4.0251,0.1798,-0.0001,-0.0000,1.4769,flat,18.0,3,10.412
4970,159.04,-3.5618,-3.4598,0.1797,-0.0001,-0.0000,1.4431,flat,18.0,3,9.851
4980,159.36,-3.4858,-2.8957,0.1797,-0.0001,-0.0000,1.4153,flat,18.0,3,9.287
4990,159.68,-3.3943,-2.3330,0.1797,-0.0001,-0.0000,1.3919,flat,18.0,3,8.721
5000,160.00,-3.2900,-1.7718,0.1797,-0.0001,-0.0000,1.3718,flat,18.0,3,8.153
5010,160.32,-3.1746,-1.2122,0.1797,-0.0001,-0.0000,1.3544,flat,18.0,3,7.584
5020,160.64,-3.0497,-0.6541,0.1797,-0.0001,-0.0000,1.3391,flat,18.0,3,7.014
5030,160.96,-2.9163,-0.0975,0.1797,-0.0000,-0.0000,1.3256,flat,18.0,3,6.443
5040,161.28,-2.7756,0.4576,0.1797,-0.0000,-0.0000,1.3135,flat,18.0,3,5.871
5050,161.60,-2.6282,1.0112,0.1797,-0.0000,-0.0000,1.3024,flat,18.0,3,5.299
5060,161.92,-2.4747,1.5635,0.1797,-0.0000,-0.0000,1.2923,flat,18.0,3,4.727
5070,162.24,-2.3156,2.1143,0.1797,-0.0000,-0.0000,1.2827,flat,18.0,3,4.154
5080,162.56,-2.1514,2.6636,0.1797,-0.0000,-0.0000,1.2735,flat,18.0,3,3.582
5090,162.88,-1.9821,3.2115,0.1797,-0.0000,-0.0000,1.2645,flat,18.0,3,3.009
5100,163.20,-1.8078,3.7577,0.1797,-0.0000,0.0000,1.2553,flat,18.0,3,2.436
5110,163.52,-1.6285,4.3020,0.1797,-0.0000,0.0000,1.2452,flat,18.0,3,1.863
5120,163.84,-1.4437,4.8438,0.1797,-0.0000,0.0000,1.2331,flat,18.0,3,1.292
5130,164.16,-1.2556,5.3789,0.1797,-0.0000,0.0002,1.1980,flat,18.0,0,10.360
5140,164.48,-1.0925,5.7193,0.1798,0.0003,0.0001,0.8269,flat,18.0,0,10.567
5150,164.80,-0.8365,5.9306,0.1798,0.0002,-0.0000,0.4397,flat,18.0,0,10.625
5160,165.12,-0.4756,6.0739,0.1799,0.0000,-0.0001,0.0727,flat,18.0,0,10.586
5170,165.44,-0.0302,6.0831,0.1799,-0.0001,-0.0000,-0.2336,flat,18.0,0,10.404
5180,165.76,0.4361,5.9447,0.1799,-0.0001,-0.0000,-0.4564,flat,18.0,0,10.093
5190,166.08,0.8858,5.6906,0.1799,-0.0001,-0.0000,-0.6257,flat,18.0,0,9.694
5200,166.40,1.3044,5.3526,0.1799,-0.0003,-0.0000,-0.7492,flat,18.0,0,9.236
5210,166.72,1.6875,4.9629,0.1798,-0.0004,-0.0000,-0.8475,flat,18.0,0,8.748
5220,167.04,2.0389,4.5348,0.1798,-0.0004,-0.0000,-0.9337,flat,18.0,0,8.239
5230,167.36,2.3587,4.0762,0.1798,-0.0003,-0.0000,-1.0089,flat,18.0,0,7.714
5240,167.68,2.6478,3.5935,0.1797,-0.0002,-0.0000,-1.0745,flat,18.0,0,7.178
5250,168.00,2.9076,3.0918,0.1797,-0.0002,-0.0000,-1.1320,flat,18.0,0,6.632
5260,168.32,3.1400,2.5750,0.1797,-0.0002,-0.0000,-1.1826,flat,18.0,0,6.081
5270,168.64,3.3477,2.0476,0.1797,-0.0002,-0.0000,-1.2254,flat,18.0,0,5.526
5280,168.96,3.5341,1.5116,0.1797,-0.0001,-0.0000,-1.2637,flat,18.0,0,4.968
5290,169.28,3.7007,0.9683,0.1797,-0.0001,-0.0000,-1.2991,flat,18.0,0,4.407
5300,169.60,3.8488,0.4190,0.1797,-0.0001,-0.0000,-1.3323,flat,18.0,0,3.845
5310,169.92,3.9790,-0.1352,0.1797,-0.0001,-0.0000,-1.3641,flat,18.0,0,3.281
5320,170.24,4.0919,-0.6934,0.1797,-0.0001,-0.0000,-1.3956,flat,18.0,0,2.717
5330,170.56,4.1871,-1.2546,0.1797,-0.0001,0.0000,-1.4282,flat,18.0,0,2.152
5340,170.88,4.2639,-1.8179,0.1797,-0.0001,0.0000,-1.4645,flat,18.0,0,1.589
5350,171.20,4.3195,-2.3820,0.1797,-0.0002,0.0000,-1.5117,flat,18.0,0,1.028
5360,171.52,4.3435,-2.9373,0.1798,0.0000,0.0000,-1.6228,flat,18.0,1,7.409
5370,171.84,4.2969,-3.4643,0.1799,-0.0001,-0.0000,-1.8113,flat,18.0,1,6.999
5380,172.16,4.1538,-3.9682,0.1798,-0.0002,-0.0000,-1.9313,flat,18.0,1,6.550
5390,172.48,3.9443,-4.4712,0.1799,-0.0004,-0.0000,-2.0472,flat,18.0,1,6.062
5400,172.80,3.6772,-4.9525,0.1798,-0.0004,-0.0000,-2.1367,flat,18.0,1,5.552
5410,173.12,3.3671,-5.4144,0.1797,-0.0003,-0.0000,-2.2031,flat,18.0,1,5.027
5420,173.44,3.0269,-5.8571,0.1797,-0.0002,-0.0000,-2.2618,flat,18.0,1,4.495
5430,173.76,2.6606,-6.2787,0.1797,-0.0002,-0.0000,-2.3192,flat,18.0,1,3.959
5440,174.08,2.2700,-6.6791,0.1797,-0.0002,-0.0000,-2.3734,flat,18.0,1,3.420
5450,174.40,1.8579,-7.0578,0.1797,-0.0002,-0.0000,-2.4271,flat,18.0,1,2.878
5460,174.72,1.4256,-7.4142,0.1797,-0.0002,-0.0000,-2.4835,flat,18.0,1,2.334
5470,175.04,0.9737,-7.7465,0.1797,-0.0002,-0.0000,-2.5460,flat,18.0,1,1.791
5480,175.36,0.5028,-8.0492,0.1798,-0.0003,0.0000,-2.6224,flat,18.0,1,1.252
5490,175.68,0.0163,-8.3081,0.1798,-0.0003,0.0003,-2.7501,flat,18.0,2,5.475
5500,176.00,-0.3984,-8.4476,0.1799,0.0000,-0.0000,-3.0759,flat,18.0,2,5.353
5510,176.32,-0.8644,-8.4529,0.1799,-0.0002,0.0000,2.9078,flat,18.0,2,5.122
5520,176.64,-1.3268,-8.3218,0.1799,-0.0000,-0.0000,2.7111,flat,18.0,2,4.800
5530,176.96,-1.7809,-8.0786,0.1799,-0.0001,-0.0000,2.5239,flat,18.0,2,4.405
5540,177.28,-2.1951,-7.7445,0.1799,-0.0002,-0.0000,2.3808,flat,18.0,2,3.959
5550,177.60,-2.5658,-7.3513,0.1799,-0.0003,-0.0000,2.2584,flat,18.0,2,3.488
5560,177.92,-2.8939,-6.9127,0.1799,-0.0003,-0.0000,2.1387,flat,18.0,2,3.001
5570,178.24,-3.1731,-6.4363,0.1799,-0.0003,-0.0000,2.0196,flat,18.0,2,2.501
5580,178.56,-3.3974,-5.9292,0.1799,-0.0003,-0.0000,1.8966,flat,18.0,2,1.995
5590,178.88,-3.5596,-5.3994,0.1799,-0.0002,-0.0000,1.7608,flat,18.0,2,1.489
5600,179.20,-3.6480,-4.8572,0.1799,-0.0001,0.0000,1.5914,flat,18.0,2,0.991
5610,179.52,-3.6399,-4.3081,0.1798,-0.0001,-0.0001,1.4971,flat,18.0,3,10.691
5620,179.84,-3.5932,-3.7423,0.1798,-0.0001,-0.0000,1.4591,flat,18.0,3,10.132
5630,180.16,-3.5259,-3.1776,0.1797,-0.0001,-0.0000,1.4287,flat,18.0,3,9.569
5640,180.48,-3.4418,-2.6142,0.1797,-0.0001,-0.0000,1.4031,flat,18.0,3,9.004
5650,180.80,-3.3437,-2.0523,0.1797,-0.0001,-0.0000,1.3815,flat,18.0,3,8.437
5660,181.12,-3.2337,-1.4918,0.1797,-0.0001,-0.0000,1.3628,flat,18.0,3,7.869
5670,181.44,-3.1133,-0.9330,0.1797,-0.0001,-0.0000,1.3465,flat,18.0,3,7.299
5680,181.76,-2.9840,-0.3756,0.1797,-0.0001,-0.0000,1.3322,flat,18.0,3,6.729
5690,182.08,-2.8469,0.1802,0.1797,-0.0000,-0.0000,1.3194,flat,18.0,3,6.157
5700,182.40,-2.7027,0.7346,0.1797,-0.0000,-0.0000,1.3078,flat,18.0,3,5.586
5710,182.72,-2.5522,1.2875,0.1797,-0.0000,-0.0000,1.2973,flat,18.0,3,5.013
5720,183.04,-2.3959,1.8390,0.1797,-0.0000,-0.0000,1.2874,flat,18.0,3,4.441
5730,183.36,-2.2342,2.3891,0.1797,-0.0000,-0.0000,1.2781,flat,18.0,3,3.868
5740,183.68,-2.0674,2.9377,0.1797,-0.0000,-0.0000,1.2690,flat,18.0,3,3.295
5750,184.00,-1.8956,3.4848,0.1797,-0.0000,0.0000,1.2599,flat,18.0,3,2.722
5760,184.32,-1.7188,4.0301,0.1797,-0.0000,0.0000,1.2504,flat,18.0,3,2.150
5770,184.64,-1.5369,4.5733,0.1797,-0.0000,0.0000,1.2395,flat,18.0,3,1.577
5780,184.96,-1.3489,5.1134,0.1797,-0.0000,0.0000,1.2253,flat,18.0,3,1.006
5790,185.28,-1.1852,5.5764,0.1798,0.0002,0.0003,1.0229,flat,18.0,0,10.491
5800,185.60,-0.9745,5.8317,0.1798,0.0003,-0.0000,0.6318,flat,18.0,0,10.606
5810,185.92,-0.6705,6.0144,0.1799,0.0001,-0.0001,0.2526,flat,18.0,0,10.621
5820,186.24,-0.2592,6.0983,0.1799,-0.0000,-0.0001,-0.0940,flat,18.0,0,10.514
5830,186.56,0.2035,6.0309,0.1799,0.0000,-0.0000,-0.3556,flat,18.0,0,10.262
5840,186.88,0.6643,5.8300,0.1799,-0.0001,-0.0000,-0.5475,flat,18.0,0,9.903
5850,187.20,1.0992,5.5301,0.1799,-0.0001,-0.0000,-0.6942,flat,18.0,0,9.471
5860,187.52,1.5001,5.1631,0.1798,-0.0003,-0.0000,-0.8000,flat,18.0,0,8.995
5870,187.84,1.8672,4.7531,0.1798,-0.0004,-0.0000,-0.8921,flat,18.0,0,8.496
5880,188.16,2.2028,4.3089,0.1798,-0.0004,-0.0000,-0.9726,flat,18.0,0,7.978
5890,188.48,2.5070,3.8375,0.1797,-0.0003,-0.0000,-1.0428,flat,18.0,0,7.447
5900,188.80,2.7813,3.3447,0.1797,-0.0002,-0.0000,-1.1042,flat,18.0,0,6.906
5910,189.12,3.0270,2.8350,0.1797,-0.0002,-0.0000,-1.1580,flat,18.0,0,6.357
5920,189.44,3.2467,2.3124,0.1797,-0.0002,0.0000,-1.2049,flat,18.0,0,5.804
5930,189.76,3.4434,1.7806,0.1797,-0.0001,-0.0000,-1.2450,flat,18.0,0,5.247
5940,190.08,3.6197,1.2407,0.1797,-0.0001,-0.0000,-1.2818,flat,18.0,0,4.688
5950,190.40,3.7769,0.6942,0.1797,-0.0001,-0.0000,-1.3159,flat,18.0,0,4.126
5960,190.72,3.9160,0.1423,0.1797,-0.0001,-0.0000,-1.3483,flat,18.0,0,3.563
5970,191.04,4.0375,-0.4139,0.1797,-0.0001,-0.0000,-1.3798,flat,18.0,0,2.999
5980,191.36,4.1416,-0.9737,0.1797,-0.0001,-0.0000,-1.4116,flat,18.0,0,2.435
5990,191.68,4.2278,-1.5361,0.1797,-0.0001,0.0000,-1.4456,flat,18.0,0,1.870
6000,192.00,4.2945,-2.1000,0.1797,-0.0001,0.0000,-1.4857,flat,18.0,0,1.308
6010,192.32,4.3375,-2.6636,0.1797,-0.0002,0.0000,-1.5464,flat,18.0,1,7.607
6020,192.64,4.3338,-3.2019,0.1799,-0.0001,-0.0000,-1.7205,flat,18.0,1,7.211
6030,192.96,4.2341,-3.7257,0.1799,-0.0001,-0.0000,-1.8896,rough,15.5,1,6.773
6040,193.28,4.0573,-4.2224,0.1799,-0.0003,-0.0000,-1.9933,flat,18.0,1,6.309
6050,193.60,3.8169,-4.7146,0.1798,-0.0004,-0.0000,-2.0947,flat,18.0,1,5.809
6060,193.92,3.5265,-5.1858,0.1798,-0.0003,-0.0000,-2.1722,flat,18.0,1,5.291
6070,194.24,3.2003,-5.6384,0.1797,-0.0002,-0.0000,-2.2327,flat,18.0,1,4.762
6080,194.56,2.8468,-6.0706,0.1797,-0.0002,-0.0000,-2.2907,flat,18.0,1,4.228
6090,194.88,2.4680,-6.4816,0.1797,-0.0002,-0.0000,-2.3467,flat,18.0,1,3.690
6100,195.20,2.0664,-6.8713,0.1797,-0.0002,-0.0000,-2.4000,flat,18.0,1,3.149
6110,195.52,1.6440,-7.2390,0.1797,-0.0002,-0.0000,-2.4548,flat,18.0,1,2.606
6120,195.84,1.2019,-7.5834,0.1797,-0.0002,-0.0000,-2.5136,flat,18.0,1,2.063
6130,196.16,0.7405,-7.9022,0.1797,-0.0002,0.0000,-2.5816,flat,18.0,1,1.521
6140,196.48,0.2602,-8.1861,0.1798,-0.0004,0.0000,-2.6717,flat,18.0,1,0.986
6150,196.80,-0.1879,-8.3885,0.1798,0.0002,0.0001,-2.9030,flat,18.0,2,5.421
6160,197.12,-0.6269,-8.4706,0.1799,-0.0000,-0.0000,3.0434,flat,18.0,2,5.253
6170,197.44,-1.0928,-8.4002,0.1799,-0.0001,0.0001,2.8217,flat,18.0,2,4.971
6180,197.76,-1.5580,-8.2137,0.1799,-0.0001,-0.0000,2.6123,flat,18.0,2,4.611
6190,198.08,-1.9934,-7.9209,0.1799,-0.0001,-0.0000,2.4463,flat,18.0,2,4.187
6200,198.40,-2.3857,-7.5540,0.1799,-0.0002,-0.0000,2.3191,flat,18.0,2,3.726
6210,198.72,-2.7357,-7.1372,0.1799,-0.0003,-0.0000,2.1983,flat,18.0,2,3.246
6220,199.04,-3.0401,-6.6788,0.1799,-0.0003,-0.0000,2.0793,flat,18.0,2,2.752
6230,199.36,-3.2926,-6.1861,0.1799,-0.0003,-0.0000,1.9590,flat,18.0,2,2.249
6240,199.68,-3.4869,-5.6666,0.1799,-0.0003,-0.0000,1.8312,flat,18.0,2,1.742
6250,200.00,-3.6141,-5.1289,0.1799,-0.0001,0.0000,1.6824,flat,18.0,2,1.237
6260,200.32,-3.6558,-4.5880,0.1799,-0.0002,0.0001,1.5150,flat,18.0,3,10.966
6270,200.64,-3.6194,-4.0251,0.1798,-0.0001,-0.0000,1.4769,flat,18.0,3,10.412
6280,200.96,-3.5618,-3.4597,0.1797,-0.0001,-0.0000,1.4431,flat,18.0,3,9.851
6290,201.28,-3.4857,-2.8957,0.1797,-0.0001,-0.0000,1.4153,flat,18.0,3,9.287
6300,201.60,-3.3943,-2.3330,0.1797,-0.0001,-0.0000,1.3918,flat,18.0,3,8.721
6310,201.92,-3.2899,-1.7718,0.1797,-0.0001,-0.0000,1.3718,flat,18.0,3,8.153
6320,202.24,-3.1745,-1.2122,0.1797,-0.0001,-0.0000,1.3544,flat,18.0,3,7.584
6330,202.56,-3.0495,-0.6541,0.1797,-0.0001,-0.0000,1.3391,flat,18.0,3,7.014
6340,202.88,-2.9162,-0.0975,0.1797,-0.0000,-0.0000,1.3256,flat,18.0,3,6.443
6350,203.20,-2.7754,0.4576,0.1797,-0.0000,-0.0000,1.3135,flat,18.0,3,5.871
6360,203.52,-2.6280,1.0113,0.1797,-0.0000,-0.0000,1.3024,flat,18.0,3,5.299
6370,203.84,-2.4745,1.5635,0.1797,-0.0000,-0.0000,1.2923,flat,18.0,3,4.727
6380,204.16,-2.3155,2.1143,0.1797,-0.0000,-0.0000,1.2827,flat,18.0,3,4.154
6390,204.48,-2.1512,2.6637,0.1797,-0.0000,-0.0000,1.2736,flat,18.0,3,3.582
6400,204.80,-1.9819,3.2116,0.1797,-0.0000,-0.0000,1.2645,flat,18.0,3,3.009
6410,205.12,-1.8077,3.7578,0.1797,-0.0000,0.0000,1.2553,flat,18.0,3,2.436
6420,205.44,-1.6284,4.3021,0.1797,-0.0000,0.0000,1.2452,flat,18.0,3,1.863
6430,205.76,-1.4436,4.8439,0.1797,-0.0000,0.0000,1.2331,flat,18.0,3,1.291
6440,206.08,-1.2555,5.3790,0.1797,-0.0000,0.0002,1.1980,flat,18.0,0,10.360
6450,206.40,-1.0924,5.7194,0.1798,0.0003,0.0001,0.8270,flat,18.0,0,10.567
6460,206.72,-0.8364,5.9307,0.1798,0.0002,-0.0000,0.4397,flat,18.0,0,10.625
6470,207.04,-0.4756,6.0740,0.1799,0.0000,-0.0001,0.0728,flat,18.0,0,10.586
6480,207.36,-0.0302,6.0833,0.1799,-0.0001,-0.0000,-0.2336,flat,18.0,0,10.404
6490,207.68,0.4361,5.9449,0.1799,-0.0001,-0.0000,-0.4564,flat,18.0,0,10.093
6500,208.00,0.8858,5.6907,0.1799,-0.0001,-0.0000,-0.6257,flat,18.0,0,9.694
6510,208.32,1.3044,5.3528,0.1799,-0.0003,-0.0000,-0.7491,flat,18.0,0,9.236
6520,208.64,1.6875,4.9630,0.1798,-0.0004,-0.0000,-0.8475,flat,18.0,0,8.749
6530,208.96,2.0390,4.5350,0.1798,-0.0004,-0.0000,-0.9337,flat,18.0,0,8.239
6540,209.28,2.3588,4.0764,0.1798,-0.0003,-0.0000,-1.0089,flat,18.0,0,7.714
6550,209.60,2.6478,3.5936,0.1797,-0.0002,-0.0000,-1.0745,flat,18.0,0,7.178
6560,209.92,2.9077,3.0919,0.1797,-0.0002,-0.0000,-1.1320,flat,18.0,0,6.633
6570,210.24,3.1400,2.5752,0.1797,-0.0002,-0.0000,-1.1826,flat,18.0,0,6.081
6580,210.56,3.3477,2.0478,0.1797,-0.0002,-0.0000,-1.2254,flat,18.0,0,5.526
6590,210.88,3.5340,1.5117,0.1797,-0.0001,-0.0000,-1.2637,flat,18.0,0,4.968
6600,211.20,3.7007,0.9684,0.1797,-0.0001,-0.0000,-1.2991,flat,18.0,0,4.407
6610,211.52,3.8488,0.4191,0.1797,-0.0001,-0.0000,-1.3323,flat,18.0,0,3.845
6620,211.84,3.9790,-0.1351,0.1797,-0.0001,-0.0000,-1.3641,flat,18.0,0,3.281
6630,212.16,4.0918,-0.6932,0.1797,-0.0001,-0.0000,-1.3956,flat,18.0,0,2.717
6640,212.48,4.1871,-1.2545,0.1797,-0.0001,0.0000,-1.4282,flat,18.0,0,2.153
6650,212.80,4.2638,-1.8178,0.1797,-0.0001,0.0000,-1.4645,flat,18.0,0,1.589
6660,213.12,4.3194,-2.3819,0.1797,-0.0002,0.0000,-1.5116,flat,18.0,0,1.028
6670,213.44,4.3435,-2.9372,0.1798,-0.0000,0.0000,-1.6228,flat,18.0,1,7.409
6680,213.76,4.2969,-3.4642,0.1799,-0.0001,-0.0000,-1.8113,flat,18.0,1,6.999
6690,214.08,4.1538,-3.9681,0.1798,-0.0002,-0.0000,-1.9313,flat,18.0,1,6.550
6700,214.40,3.9444,-4.4711,0.1799,-0.0004,-0.0000,-2.0472,flat,18.0,1,6.062
6710,214.72,3.6772,-4.9524,0.1798,-0.0004,-0.0000,-2.1367,flat,18.0,1,5.552
6720,215.04,3.3671,-5.4143,0.1797,-0.0003,-0.0000,-2.2031,flat,18.0,1,5.027
6730,215.36,3.0269,-5.8570,0.1797,-0.0002,-0.0000,-2.2618,flat,18.0,1,4.495
6740,215.68,2.6606,-6.2786,0.1797,-0.0002,-0.0000,-2.3192,flat,18.0,1,3.959
6750,216.00,2.2700,-6.6790,0.1797,-0.0002,-0.0000,-2.3733,flat,18.0,1,3.420
6760,216.32,1.8579,-7.0577,0.1797,-0.0002,-0.0000,-2.4271,flat,18.0,1,2.878
6770,216.64,1.4256,-7.4142,0.1797,-0.0002,-0.0000,-2.4834,flat,18.0,1,2.335
6780,216.96,0.9738,-7.7464,0.1797,-0.0002,-0.0000,-2.5459,flat,18.0,1,1.791
6790,217.28,0.5029,-8.0491,0.1798,-0.0003,0.0000,-2.6224,flat,18.0,1,1.252
6800,217.60,0.0164,-8.3080,0.1798,-0.0003,0.0003,-2.7501,flat,18.0,2,5.475
6810,217.92,-0.3983,-8.4475,0.1799,0.0000,-0.0000,-3.0759,flat,18.0,2,5.353
6820,218.24,-0.8643,-8.4529,0.1799,-0.0002,0.0000,2.9079,flat,18.0,2,5.122
6830,218.56,-1.3267,-8.3218,0.1799,-0.0000,-0.0000,2.7111,flat,18.0,2,4.800
6840,218.88,-1.7808,-8.0786,0.1799,-0.0001,-0.0000,2.5239,flat,18.0,2,4.405
6850,219.20,-2.1951,-7.7445,0.1799,-0.0002,-0.0000,2.3808,flat,18.0,2,3.959
6860,219.52,-2.5658,-7.3513,0.1799,-0.0003,-0.0000,2.2584,flat,18.0,2,3.488
6870,219.84,-2.8938,-6.9128,0.1799,-0.0003,-0.0000,2.1387,flat,18.0,2,3.001
6880,220.16,-3.1731,-6.4363,0.1799,-0.0003,-0.0000,2.0196,flat,18.0,2,2.501
6890,220.48,-3.3974,-5.9293,0.1799,-0.0003,-0.0000,1.8967,flat,18.0,2,1.996
6900,220.80,-3.5595,-5.3995,0.1799,-0.0002,-0.0000,1.7609,flat,18.0,2,1.489
6910,221.12,-3.6479,-4.8573,0.1799,-0.0001,0.0000,1.5914,flat,18.0,2,0.991
6920,221.44,-3.6399,-4.3081,0.1798,-0.0001,-0.0001,1.4971,flat,18.0,3,10.691
6930,221.76,-3.5932,-3.7423,0.1798,-0.0001,-0.0000,1.4592,flat,18.0,3,10.132
6940,222.08,-3.5259,-3.1777,0.1797,-0.0001,-0.0000,1.4287,flat,18.0,3,9.569
6950,222.40,-3.4419,-2.6143,0.1797,-0.0001,-0.0000,1.4032,flat,18.0,3,9.004
6960,222.72,-3.3437,-2.0523,0.1797,-0.0001,-0.0000,1.3815,flat,18.0,3,8.437
6970,223.04,-3.2337,-1.4919,0.1797,-0.0001,-0.0000,1.3628,flat,18.0,3,7.869
6980,223.36,-3.1134,-0.9330,0.1797,-0.0001,-0.0000,1.3465,flat,18.0,3,7.299
6990,223.68,-2.9841,-0.3757,0.1797,-0.0001,-0.0000,1.3322,flat,18.0,3,6.729
7000,224.00,-2.8469,0.1802,0.1797,-0.0000,-0.0000,1.3194,flat,18.0,3,6.157
7010,224.32,-2.7028,0.7345,0.1797,-0.0000,-0.0000,1.3078,flat,18.0,3,5.586
7020,224.64,-2.5522,1.2875,0.1797,-0.0000,-0.0000,1.2973,flat,18.0,3,5.013
7030,224.96,-2.3959,1.8390,0.1797,-0.0000,-0.0000,1.2874,flat,18.0,3,4.441
7040,225.28,-2.2342,2.3891,0.1797,-0.0000,-0.0000,1.2781,flat,18.0,3,3.868
7050,225.60,-2.0674,2.9377,0.1797,-0.0000,-0.0000,1.2690,flat,18.0,3,3.295
7060,225.92,-1.8956,3.4848,0.1797,-0.0000,0.0000,1.2599,flat,18.0,3,2.722
7070,226.24,-1.7189,4.0301,0.1797,-0.0000,0.0000,1.2504,flat,18.0,3,2.150
7080,226.56,-1.5369,4.5732,0.1797,-0.0000,0.0000,1.2395,flat,18.0,3,1.577
7090,226.88,-1.3490,5.1133,0.1797,-0.0000,0.0000,1.2253,flat,18.0,3,1.006
7100,227.20,-1.1852,5.5763,0.1798,0.0002,0.0003,1.0229,flat,18.0,0,10.491
7110,227.52,-0.9745,5.8316,0.1798,0.0003,-0.0000,0.6318,flat,18.0,0,10.606
7120,227.84,-0.6705,6.0144,0.1799,0.0001,-0.0001,0.2526,flat,18.0,0,10.621
7130,228.16,-0.2592,6.0982,0.1799,-0.0000,-0.0000,-0.0940,flat,18.0,0,10.514
7140,228.48,0.2035,6.0308,0.1799,0.0000,-0.0000,-0.3556,flat,18.0,0,10.262
7150,228.80,0.6643,5.8300,0.1799,-0.0001,-0.0000,-0.5475,flat,18.0,0,9.902
7160,229.12,1.0991,5.5300,0.1799,-0.0001,-0.0000,-0.6942,flat,18.0,0,9.471
7170,229.44,1.5001,5.1630,0.1798,-0.0003,-0.0000,-0.8000,flat,18.0,0,8.995
7180,229.76,1.8671,4.7530,0.1798,-0.0004,-0.0000,-0.8921,flat,18.0,0,8.496
7190,230.08,2.2027,4.3088,0.1798,-0.0004,-0.0000,-0.9726,flat,18.0,0,7.978
7200,230.40,2.5070,3.8374,0.1797,-0.0003,-0.0000,-1.0428,flat,18.0,0,7.447
7210,230.72,2.7813,3.3446,0.1797,-0.0002,-0.0000,-1.1042,flat,18.0,0,6.906
7220,231.04,3.0270,2.8350,0.1797,-0.0002,-0.0000,-1.1580,flat,18.0,0,6.357
7230,231.36,3.2467,2.3123,0.1797,-0.0002,0.0000,-1.2048,flat,18.0,0,5.804
7240,231.68,3.4434,1.7805,0.1797,-0.0001,-0.0000,-1.2450,flat,18.0,0,5.247
7250,232.00,3.6197,1.2406,0.1797,-0.0001,-0.0000,-1.2817,flat,18.0,0,4.688
7260,232.32,3.7770,0.6942,0.1797,-0.0001,-0.0000,-1.3159,flat,18.0,0,4.126
7270,232.64,3.9161,0.1423,0.1797,-0.0001,-0.0000,-1.3483,flat,18.0,0,3.563
7280,232.96,4.0376,-0.4140,0.1797,-0.0001,-0.0000,-1.3798,flat,18.0,0,2.999
7290,233.28,4.1417,-0.9737,0.1797,-0.0001,-0.0000,-1.4116,flat,18.0,0,2.435
7300,233.60,4.2279,-1.5361,0.1797,-0.0001,0.0000,-1.4456,flat,18.0,0,1.870
7310,233.92,4.2945,-2.1000,0.1797,-0.0001,0.0000,-1.4857,flat,18.0,0,1.308
7320,234.24,4.3375,-2.6636,0.1797,-0.0002,0.0000,-1.5464,flat,18.0,1,7.607
7330,234.56,4.3338,-3.2019,0.1799,-0.0001,-0.0000,-1.7205,flat,18.0,1,7.211
7340,234.88,4.2341,-3.7258,0.1799,-0.0001,-0.0000,-1.8896,rough,15.5,1,6.773
7350,235.20,4.0574,-4.2224,0.1799,-0.0003,-0.0000,-1.9933,flat,18.0,1,6.309
7360,235.52,3.8169,-4.7147,0.1798,-0.0004,-0.0000,-2.0947,flat,18.0,1,5.809
7370,235.84,3.5266,-5.1858,0.1798,-0.0003,-0.0000,-2.1722,flat,18.0,1,5.291
7380,236.16,3.2003,-5.6384,0.1797,-0.0002,-0.0000,-2.2326,flat,18.0,1,4.762
7390,236.48,2.8468,-6.0707,0.1797,-0.0002,-0.0000,-2.2907,flat,18.0,1,4.228
7400,236.80,2.4681,-6.4816,0.1797,-0.0002,-0.0000,-2.3467,flat,18.0,1,3.690
7410,237.12,2.0664,-6.8714,0.1797,-0.0002,-0.0000,-2.4000,flat,18.0,1,3.149
7420,237.44,1.6441,-7.2390,0.1797,-0.0002,-0.0000,-2.4548,flat,18.0,1,2.606
7430,237.76,1.2020,-7.5835,0.1797,-0.0002,-0.0000,-2.5136,flat,18.0,1,2.063
7440,238.08,0.7406,-7.9022,0.1797,-0.0002,0.0000,-2.5816,flat,18.0,1,1.521
7450,238.40,0.2602,-8.1862,0.1798,-0.0004,0.0000,-2.6717,flat,18.0,1,0.986
7460,238.72,-0.1879,-8.3885,0.1798,0.0002,0.0001,-2.9030,flat,18.0,2,5.421
7470,239.04,-0.6268,-8.4706,0.1799,-0.0000,-0.0000,3.0434,flat,18.0,2,5.253
7480,239.36,-1.0928,-8.4002,0.1799,-0.0001,0.0001,2.8217,flat,18.0,2,4.971
7490,239.68,-1.5580,-8.2137,0.1799,-0.0001,-0.0000,2.6123,flat,18.0,2,4.611
7500,240.00,-1.9934,-7.9209,0.1799,-0.0001,-0.0000,2.4463,flat,18.0,2,4.187
7510,240.32,-2.3856,-7.5540,0.1799,-0.0002,-0.0000,2.3191,flat,18.0,2,3.726
7520,240.64,-2.7357,-7.1372,0.1799,-0.0003,-0.0000,2.1983,flat,18.0,2,3.246
7530,240.96,-3.0401,-6.6788,0.1799,-0.0003,-0.0000,2.0793,flat,18.0,2,2.752
7540,241.28,-3.2926,-6.1861,0.1799,-0.0003,-0.0000,1.9590,flat,18.0,2,2.249
7550,241.60,-3.4869,-5.6666,0.1799,-0.0003,-0.0000,1.8312,flat,18.0,2,1.742
7560,241.92,-3.6140,-5.1289,0.1799,-0.0001,0.0000,1.6824,flat,18.0,2,1.237
7570,242.24,-3.6558,-4.5880,0.1799,-0.0002,0.0001,1.5150,flat,18.0,3,10.966
7580,242.56,-3.6194,-4.0251,0.1798,-0.0001,-0.0000,1.4769,flat,18.0,3,10.412
7590,242.88,-3.5618,-3.4598,0.1797,-0.0001,-0.0000,1.4431,flat,18.0,3,9.851
7600,243.20,-3.4857,-2.8957,0.1797,-0.0001,-0.0000,1.4153,flat,18.0,3,9.287
7610,243.52,-3.3943,-2.3330,0.1797,-0.0001,-0.0000,1.3919,flat,18.0,3,8.721
7620,243.84,-3.2900,-1.7718,0.1797,-0.0001,-0.0000,1.3718,flat,18.0,3,8.153
7630,244.16,-3.1746,-1.2122,0.1797,-0.0001,-0.0000,1.3544,flat,18.0,3,7.584
7640,244.48,-3.0496,-0.6541,0.1797,-0.0001,-0.0000,1.3391,flat,18.0,3,7.014
7650,244.80,-2.9163,-0.0975,0.1797,-0.0000,-0.0000,1.3256,flat,18.0,3,6.443
7660,245.12,-2.7755,0.4576,0.1797,-0.0000,-0.0000,1.3135,flat,18.0,3,5.871
7670,245.44,-2.6281,1.0113,0.1797,-0.0000,-0.0000,1.3024,flat,18.0,3,5.299
7680,245.76,-2.4746,1.5635,0.1797,-0.0000,-0.0000,1.2923,flat,18.0,3,4.727
7690,246.08,-2.3156,2.1143,0.1797,-0.0000,-0.0000,1.2827,flat,18.0,3,4.154
7700,246.40,-2.1513,2.6637,0.1797,-0.0000,-0.0000,1.2735,flat,18.0,3,3.582
7710,246.72,-1.9820,3.2115,0.1797,-0.0000,-0.0000,1.2645,flat,18.0,3,3.009
7720,247.04,-1.8078,3.7577,0.1797,-0.0000,0.0000,1.2553,flat,18.0,3,2.436
7730,247.36,-1.6285,4.3021,0.1797,-0.0000,0.0000,1.2452,flat,18.0,3,1.863
7740,247.68,-1.4436,4.8439,0.1797,-0.0000,0.0000,1.2331,flat,18.0,3,1.292
7750,248.00,-1.2556,5.3789,0.1797,-0.0000,0.0002,1.1980,flat,18.0,0,10.360
7760,248.32,-1.0924,5.7194,0.1798,0.0003,0.0001,0.8270,flat,18.0,0,10.567
7770,248.64,-0.8365,5.9307,0.1798,0.0002,-0.0000,0.4397,flat,18.0,0,10.625
7780,248.96,-0.4756,6.0739,0.1799,0.0000,-0.0001,0.0727,flat,18.0,0,10.586
7790,249.28,-0.0302,6.0832,0.1799,-0.0001,-0.0000,-0.2336,flat,18.0,0,10.404
7800,249.60,0.4361,5.9448,0.1799,-0.0001,-0.0000,-0.4564,flat,18.0,0,10.093
7810,249.92,0.8858,5.6907,0.1799,-0.0001,-0.0000,-0.6257,flat,18.0,0,9.694
7820,250.24,1.3044,5.3527,0.1799,-0.0003,-0.0000,-0.7492,flat,18.0,0,9.236
7830,250.56,1.6875,4.9630,0.1798,-0.0004,-0.0000,-0.8475,flat,18.0,0,8.748
7840,250.88,2.0390,4.5349,0.1798,-0.0004,-0.0000,-0.9337,flat,18.0,0,8.239
7850,251.20,2.3588,4.0763,0.1798,-0.0003,-0.0000,-1.0089,flat,18.0,0,7.714
7860,251.52,2.6478,3.5935,0.1797,-0.0002,-0.0000,-1.0745,flat,18.0,0,7.178
7870,251.84,2.9076,3.0918,0.1797,-0.0002,-0.0000,-1.1320,flat,18.0,0,6.632
7880,252.16,3.1400,2.5751,0.1797,-0.0002,-0.0000,-1.1826,flat,18.0,0,6.081
7890,252.48,3.3477,2.0477,0.1797,-0.0002,-0.0000,-1.2254,flat,18.0,0,5.526
7900,252.80,3.5340,1.5116,0.1797,-0.0001,-0.0000,-1.2638,flat,18.0,0,4.968
7910,253.12,3.7006,0.9683,0.1797,-0.0001,-0.0000,-1.2991,flat,18.0,0,4.407
7920,253.44,3.8487,0.4189,0.1797,-0.0001,-0.0000,-1.3323,flat,18.0,0,3.845
7930,253.76,3.9789,-0.1353,0.1797,-0.0001,-0.0000,-1.3641,flat,18.0,0,3.281
7940,254.08,4.0917,-0.6934,0.1797,-0.0001,-0.0000,-1.3956,flat,18.0,0,2.717
7950,254.40,4.1870,-1.2546,0.1797,-0.0001,0.0000,-1.4282,flat,18.0,0,2.152
7960,254.72,4.2637,-1.8179,0.1797,-0.0001,0.0000,-1.4645,flat,18.0,0,1.589
7970,255.04,4.3194,-2.3820,0.1797,-0.0002,0.0000,-1.5116,flat,18.0,0,1.028
7980,255.36,4.3434,-2.9374,0.1798,-0.0000,0.0000,-1.6228,flat,18.0,1,7.409
7990,255.68,4.2968,-3.4643,0.1799,-0.0001,-0.0000,-1.8113,flat,18.0,1,6.999
8000,256.00,4.1538,-3.9682,0.1798,-0.0002,-0.0000,-1.9313,flat,18.0,1,6.550
