step,time_s,x,y,z,roll,pitch,yaw,terrain,speed,target_idx,dist_to_target
10,0.32,-0.1494,1.4500,0.1723,-0.0000,-0.0182,0.0000,flat,18.0,0,4.143
20,0.64,0.1297,1.4485,0.1791,-0.0000,0.0026,0.1154,flat,18.0,0,4.222
30,0.96,0.5114,1.5238,0.1799,-0.0001,-0.0000,0.5457,flat,18.0,0,4.286
40,1.28,0.8450,1.7960,0.1799,-0.0000,-0.0000,0.8790,flat,18.0,0,4.188
50,1.60,1.1049,2.1837,0.1799,-0.0000,-0.0000,1.2080,flat,18.0,0,3.996
60,1.92,1.2461,2.6414,0.1799,0.0000,-0.0000,1.5917,flat,18.0,0,3.721
70,2.24,1.2051,3.1157,0.1799,0.0001,-0.0000,1.9210,flat,18.0,0,3.346
80,2.56,1.0067,3.5636,0.1799,0.0001,-0.0000,2.1449,flat,18.0,0,2.896
90,2.88,0.7023,3.9750,0.1799,0.0001,-0.0000,2.2985,flat,18.0,0,2.399
100,3.20,0.3298,4.3564,0.1798,0.0004,-0.0000,2.3942,flat,18.0,0,1.871
110,3.52,-0.0423,4.6801,0.1797,0.0002,0.0001,2.4755,flat,18.0,0,1.381
120,3.84,-0.3843,4.9311,0.1797,0.0002,0.0001,2.5664,flat,18.0,1,2.520
130,4.16,-0.7268,5.1928,0.1799,0.0002,-0.0000,2.3476,flat,18.0,1,2.197
140,4.48,-1.0278,5.5642,0.1799,0.0000,0.0000,2.1044,flat,18.0,1,1.806
150,4.80,-1.2484,5.9814,0.1799,-0.0001,0.0001,1.9285,flat,18.0,1,1.407
160,5.12,-1.3882,6.3866,0.1799,-0.0000,-0.0002,1.7026,flat,18.0,1,1.050
170,5.44,-1.4324,6.8056,0.1799,0.0001,0.0001,1.3962,flat,18.0,2,8.064
180,5.76,-1.3325,7.1867,0.1799,0.0001,-0.0000,1.0122,flat,18.0,2,8.150
190,6.08,-1.0475,7.5437,0.1799,0.0000,-0.0001,0.7351,flat,18.0,2,8.082
200,6.40,-0.6550,7.8638,0.1798,-0.0002,0.0001,0.6518,flat,18.0,2,7.931
210,6.72,-0.2809,8.1386,0.1797,-0.0001,0.0001,0.5981,flat,18.0,2,7.796
220,7.04,0.0637,8.3608,0.1797,-0.0002,0.0001,0.5102,flat,18.0,2,7.674
230,7.36,0.3878,8.5329,0.1797,-0.0002,0.0001,0.3933,flat,18.0,2,7.552
240,7.68,0.6977,8.6568,0.1797,-0.0002,0.0000,0.2509,flat,18.0,2,7.421
250,8.00,0.9974,8.7336,0.1797,-0.0002,0.0000,0.0870,flat,18.0,2,7.275
260,8.32,1.2894,8.7609,0.1797,-0.0003,0.0000,-0.0883,flat,18.0,2,7.105
270,8.64,1.5763,8.7361,0.1797,-0.0002,-0.0000,-0.2362,flat,18.0,2,6.906
280,8.96,1.8640,8.6646,0.1797,-0.0002,-0.0000,-0.3570,flat,18.0,2,6.675
290,9.28,2.1592,8.5492,0.1797,-0.0002,-0.0000,-0.4548,flat,18.0,2,6.409
300,9.60,2.4684,8.3896,0.1797,-0.0002,-0.0001,-0.5286,flat,18.0,2,6.103
310,9.92,2.8008,8.1860,0.1797,-0.0001,-0.0001,-0.5832,flat,18.0,2,5.753
320,10.24,3.1657,7.9365,0.1797,-0.0001,-0.0001,-0.6211,flat,18.0,2,5.351
330,10.56,3.5735,7.6384,0.1797,-0.0001,-0.0001,-0.6411,flat,18.0,2,4.894
340,10.88,4.0065,7.3129,0.1797,-0.0001,0.0001,-0.6774,flat,18.0,2,4.412
350,11.20,4.3503,6.9805,0.1799,-0.0000,-0.0000,-0.9006,flat,18.0,2,3.972
360,11.52,4.6293,6.5652,0.1799,-0.0000,-0.0000,-1.1278,flat,18.0,2,3.484
370,11.84,4.8299,6.0789,0.1799,-0.0001,-0.0000,-1.3134,flat,18.0,2,2.958
380,12.16,4.9548,5.5400,0.1798,-0.0003,-0.0001,-1.4076,flat,18.0,2,2.410
390,12.48,5.0464,4.9808,0.1797,0.0000,0.0000,-1.3934,flat,18.0,2,1.859
400,12.80,5.1380,4.4817,0.1797,0.0001,0.0001,-1.3662,flat,18.0,2,1.373
410,13.12,5.2282,4.0567,0.1797,0.0001,0.0001,-1.3161,flat,18.0,3,0.970
420,13.44,5.3709,3.6317,0.1799,-0.0000,-0.0000,-1.0206,flat,18.0,3,3.134
430,13.76,5.6609,3.2391,0.1799,0.0000,-0.0000,-0.8137,flat,18.0,3,2.674
440,14.08,6.0324,2.8894,0.1798,0.0003,0.0000,-0.7048,flat,18.0,3,2.175
450,14.40,6.4496,2.5496,0.1798,0.0002,0.0001,-0.6575,flat,18.0,3,1.646
460,14.72,6.8311,2.2654,0.1797,0.0001,0.0001,-0.6138,flat,18.0,3,1.181
470,15.04,7.1827,2.0186,0.1797,-0.0000,0.0002,-0.6322,flat,18.0,0,9.044
480,15.36,7.4215,1.8145,0.1798,0.0001,0.0001,-0.9315,flat,18.0,0,9.343
490,15.68,7.5660,1.6169,0.1798,0.0003,-0.0001,-1.7587,flat,18.0,0,9.554
500,16.00,7.4828,1.3333,0.1799,0.0006,-0.0002,-2.4015,flat,18.0,0,9.596
510,16.32,7.1138,1.0585,0.1799,-0.0000,0.0000,-2.7076,flat,18.0,0,9.390
520,16.64,6.6724,0.8886,0.1799,-0.0000,-0.0000,-3.1014,flat,18.0,0,9.087
530,16.96,6.2078,0.9035,0.1799,-0.0000,-0.0000,2.8027,flat,18.0,0,8.681
540,17.28,5.7685,1.0959,0.1799,-0.0000,-0.0000,2.5537,flat,18.0,0,8.206
550,17.60,5.3687,1.4051,0.1799,-0.0001,-0.0000,2.3868,flat,18.0,0,7.704
560,17.92,5.0007,1.7880,0.1798,-0.0003,-0.0001,2.2807,flat,18.0,0,7.190
570,18.24,4.6501,2.2194,0.1798,-0.0002,-0.0001,2.2302,flat,18.0,0,6.671
580,18.56,4.3017,2.6655,0.1797,0.0000,0.0000,2.2494,flat,18.0,0,6.154
590,18.88,3.9493,3.0794,0.1797,0.0003,0.0000,2.3230,flat,18.0,0,5.656
600,19.20,3.5714,3.4459,0.1798,0.0003,0.0000,2.4405,flat,18.0,0,5.161
610,19.52,3.1522,3.7635,0.1799,0.0002,-0.0000,2.5831,flat,18.0,0,4.653
620,19.84,2.6862,4.0268,0.1799,0.0002,-0.0000,2.7205,flat,18.0,0,4.124
630,20.16,2.1792,4.2356,0.1798,0.0004,-0.0000,2.8246,flat,18.0,0,3.576
640,20.48,1.6426,4.4011,0.1798,0.0002,-0.0000,2.8810,flat,18.0,0,3.015
650,20.80,1.0891,4.5452,0.1797,0.0001,-0.0000,2.8937,flat,18.0,0,2.447
660,21.12,0.5360,4.6864,0.1797,-0.0000,0.0000,2.8822,flat,18.0,0,1.883
670,21.44,0.0353,4.8239,0.1797,-0.0001,0.0001,2.8650,flat,18.0,0,1.373
680,21.76,-0.3977,4.9536,0.1797,-0.0001,0.0001,2.8208,flat,18.0,1,2.495
690,22.08,-0.8004,5.1221,0.1799,0.0001,-0.0000,2.4928,flat,18.0,1,2.259
700,22.40,-1.1216,5.4379,0.1799,-0.0000,-0.0000,2.1992,flat,18.0,1,1.935
710,22.72,-1.3622,5.8288,0.1799,-0.0001,0.0002,1.9723,rough,15.5,1,1.579
720,23.04,-1.5142,6.2217,0.1799,0.0000,0.0000,1.7500,flat,18.0,1,1.250
730,23.36,-1.5717,6.6630,0.1799,0.0000,-0.0001,1.3951,flat,18.0,2,8.130
740,23.68,-1.4717,7.0799,0.1799,0.0001,0.0001,1.0097,flat,18.0,2,8.222
750,24.00,-1.2007,7.3894,0.1799,0.0000,-0.0000,0.6285,flat,18.0,2,8.134
760,24.32,-0.7896,7.6206,0.1800,0.0001,-0.0001,0.2821,flat,18.0,2,7.906
770,24.64,-0.3147,7.7453,0.1793,-0.0030,-0.0001,0.2301,flat,18.0,2,7.585
780,24.96,0.1812,7.8577,0.1797,-0.0004,0.0000,0.1958,flat,18.0,2,7.260
790,25.28,0.6575,7.9483,0.1797,-0.0002,0.0000,0.1480,flat,18.0,2,6.956
800,25.60,1.1204,8.0131,0.1797,-0.0002,0.0000,0.0844,flat,18.0,2,6.665
810,25.92,1.5739,8.0473,0.1797,-0.0002,0.0000,0.0134,flat,18.0,2,6.379
820,26.24,2.0231,8.0491,0.1797,-0.0002,-0.0000,-0.0595,flat,18.0,2,6.090
830,26.56,2.4743,8.0177,0.1797,-0.0002,-0.0000,-0.1298,flat,18.0,2,5.793
840,26.88,2.9326,7.9529,0.1797,-0.0002,-0.0000,-0.1932,flat,18.0,2,5.485
850,27.20,3.4030,7.8556,0.1797,-0.0001,-0.0000,-0.2415,flat,18.0,2,5.166
860,27.52,3.8928,7.7304,0.1797,-0.0001,-0.0000,-0.2744,flat,18.0,2,4.840
870,27.84,4.4092,7.5817,0.1797,-0.0001,-0.0001,-0.2924,flat,18.0,2,4.516
880,28.16,4.9404,7.4211,0.1797,-0.0000,0.0001,-0.3078,flat,18.0,2,4.222
890,28.48,5.4250,7.2535,0.1799,-0.0001,0.0000,-0.4383,flat,18.0,2,3.980
900,28.80,5.8265,7.0335,0.1799,0.0001,0.0000,-0.6859,flat,18.0,2,3.740
910,29.12,6.1277,6.7136,0.1799,0.0001,-0.0000,-1.0147,flat,18.0,2,3.433
920,29.44,6.3411,6.2915,0.1799,0.0000,-0.0000,-1.3714,flat,18.0,2,3.041
930,29.76,6.4075,5.8017,0.1799,-0.0000,-0.0000,-1.6963,flat,18.0,2,2.574
940,30.08,6.3187,5.2837,0.1799,-0.0002,-0.0000,-1.8616,flat,18.0,2,2.050
950,30.40,6.1575,4.7764,0.1798,-0.0001,0.0001,-1.8914,flat,18.0,2,1.519
960,30.72,6.0130,4.3321,0.1797,0.0001,0.0001,-1.8632,flat,18.0,2,1.055
970,31.04,5.8910,3.9047,0.1798,-0.0002,0.0000,-1.5996,flat,18.0,3,2.917
980,31.36,5.9149,3.4577,0.1799,0.0001,-0.0000,-1.1775,rough,15.5,3,2.596
990,31.68,6.1108,3.0483,0.1786,0.0002,0.0083,-1.0224,rough,15.5,3,2.193
1000,32.00,6.3746,2.6657,0.1798,0.0002,0.0007,-0.8761,flat,18.0,3,1.767
1010,32.32,6.6894,2.3158,0.1798,0.0002,0.0002,-0.7792,flat,18.0,3,1.331
1020,32.64,7.0069,2.0384,0.1798,0.0002,-0.0001,-0.6315,flat,18.0,0,8.874
1030,32.96,7.3139,1.8134,0.1798,0.0000,0.0002,-0.7083,flat,18.0,0,9.244
1040,33.28,7.4978,1.6164,0.1798,0.0002,0.0001,-1.2302,flat,18.0,0,9.492
1050,33.60,7.5810,1.3691,0.1799,0.0004,-0.0001,-2.0746,flat,18.0,0,9.670
1060,33.92,7.3367,1.0450,0.1798,-0.0008,0.0005,-2.4609,flat,18.0,0,9.594
1070,34.24,6.9338,0.7694,0.1799,0.0000,-0.0000,-2.7167,flat,18.0,0,9.373
1080,34.56,6.4757,0.5946,0.1799,-0.0000,-0.0000,-3.0431,flat,18.0,0,9.072
1090,34.88,6.0005,0.5768,0.1799,-0.0000,-0.0000,2.8724,flat,18.0,0,8.685
1100,35.20,5.5508,0.7357,0.1799,-0.0000,-0.0000,2.6056,flat,18.0,0,8.225
1110,35.52,5.1427,1.0203,0.1799,-0.0001,-0.0000,2.4179,flat,18.0,0,7.727
1120,35.84,4.7749,1.3877,0.1799,-0.0002,-0.0000,2.2863,flat,18.0,0,7.215
1130,36.16,4.4371,1.8106,0.1798,-0.0004,-0.0001,2.1922,flat,18.0,0,6.700
1140,36.48,4.1173,2.2754,0.1797,-0.0001,-0.0000,2.1607,flat,18.0,0,6.182
1150,36.80,3.8004,2.7381,0.1797,0.0001,0.0000,2.1951,flat,18.0,0,5.677
1160,37.12,3.4732,3.1659,0.1798,0.0003,0.0000,2.2793,flat,18.0,0,5.189
1170,37.44,3.1145,3.5420,0.1799,0.0003,0.0000,2.4087,flat,18.0,0,4.704
1180,37.76,2.7081,3.8661,0.1799,0.0001,-0.0000,2.5627,flat,18.0,0,4.203
1190,38.08,2.2495,4.1353,0.1799,0.0001,-0.0000,2.7090,flat,18.0,0,3.677
1200,38.40,1.7458,4.3483,0.1798,0.0004,-0.0000,2.8179,flat,18.0,0,3.131
1210,38.72,1.2105,4.5171,0.1798,0.0002,-0.0000,2.8749,flat,18.0,0,2.570
1220,39.04,0.6575,4.6649,0.1797,0.0001,-0.0000,2.8853,flat,18.0,0,2.003
1230,39.36,0.1395,4.8048,0.1797,-0.0000,0.0001,2.8714,flat,18.0,0,1.474
1240,39.68,-0.3059,4.9346,0.1797,-0.0001,0.0001,2.8517,flat,18.0,0,1.021
1250,40.00,-0.7215,5.0824,0.1799,0.0001,0.0000,2.5715,flat,18.0,1,2.307
1260,40.32,-1.0567,5.3674,0.1799,-0.0000,-0.0000,2.2593,flat,18.0,1,2.003
1270,40.64,-1.3190,5.7513,0.1799,-0.0001,0.0000,2.0143,rough,15.5,1,1.646
1280,40.96,-1.4836,6.1320,0.1799,-0.0000,0.0000,1.8102,flat,18.0,1,1.322
1290,41.28,-1.5728,6.5452,0.1799,0.0000,-0.0002,1.4747,flat,18.0,2,0.993
1300,41.60,-1.5089,6.9416,0.1799,0.0001,-0.0000,0.9900,flat,18.0,2,8.193
1310,41.92,-1.2343,7.2394,0.1799,0.0001,-0.0000,0.5897,flat,18.0,2,8.089
1320,42.24,-0.8385,7.4514,0.1799,0.0001,-0.0000,0.1527,rough,15.5,2,7.856
1330,42.56,-0.4384,7.4926,0.1799,-0.0000,-0.0001,-0.2578,flat,18.0,2,7.542
1340,42.88,0.0095,7.3369,0.1799,-0.0001,-0.0000,-0.5323,flat,18.0,2,7.085
1350,43.20,0.4359,7.0493,0.1799,-0.0002,-0.0000,-0.6823,flat,18.0,2,6.570
1360,43.52,0.8485,6.6901,0.1798,-0.0002,-0.0001,-0.7504,flat,18.0,2,6.027
1370,43.84,1.2618,6.2978,0.1797,-0.0001,-0.0000,-0.7615,flat,18.0,2,5.465
1380,44.16,1.6744,5.9123,0.1797,0.0001,0.0000,-0.7353,flat,18.0,2,4.909
1390,44.48,2.0940,5.5479,0.1797,0.0001,0.0000,-0.6901,flat,18.0,2,4.361
1400,44.80,2.5285,5.2052,0.1797,0.0002,-0.0000,-0.6388,flat,18.0,2,3.813
1410,45.12,2.9815,4.8829,0.1797,0.0002,-0.0000,-0.5907,flat,18.0,2,3.259
1420,45.44,3.4524,4.5777,0.1797,0.0001,-0.0000,-0.5533,flat,18.0,2,2.700
1430,45.76,3.9377,4.2846,0.1797,0.0001,-0.0000,-0.5296,flat,18.0,2,2.134
1440,46.08,4.4156,4.0078,0.1797,0.0000,0.0001,-0.5212,flat,18.0,2,1.582
1450,46.40,4.8346,3.7676,0.1797,0.0000,0.0001,-0.5192,flat,18.0,2,1.100
1460,46.72,5.2608,3.5310,0.1797,0.0001,-0.0001,-0.5105,flat,18.0,3,3.168
1470,47.04,5.7301,3.2510,0.1798,-0.0002,-0.0000,-0.5844,flat,18.0,3,2.622
1480,47.36,6.1900,2.9344,0.1797,-0.0002,-0.0000,-0.6264,flat,18.0,3,2.064
1490,47.68,6.6278,2.6130,0.1797,-0.0000,0.0001,-0.6380,flat,18.0,3,1.522
1500,48.00,7.0087,2.3284,0.1797,-0.0000,0.0000,-0.6448,flat,18.0,3,1.049
1510,48.32,7.3315,2.0833,0.1797,-0.0001,0.0002,-0.7073,flat,18.0,0,9.158
1520,48.64,7.5269,1.8763,0.1798,0.0002,0.0000,-1.1557,flat,18.0,0,9.416
1530,48.96,7.6359,1.5601,0.1799,0.0001,-0.0001,-1.6845,rough,15.5,0,9.641
1540,49.28,7.5566,1.0829,0.1798,-0.0002,-0.0001,-1.8150,flat,18.0,0,9.773
1550,49.60,7.4272,0.5647,0.1797,-0.0000,0.0003,-1.8156,flat,18.0,0,9.903
1560,49.92,7.3333,0.1912,0.1797,-0.0001,0.0001,-1.8951,flat,18.0,0,10.013
1570,50.24,7.2359,-0.0829,0.1798,0.0001,0.0002,-2.2866,flat,18.0,0,10.078
1580,50.56,7.0881,-0.1787,0.1798,0.0004,-0.0001,-3.0974,flat,18.0,0,10.009
1590,50.88,6.7804,-0.1622,0.1799,0.0003,-0.0001,2.5537,flat,18.0,0,9.747
1600,51.20,6.4169,0.1477,0.1789,-0.0054,0.0000,2.3292,flat,18.0,0,9.271
1610,51.52,6.0765,0.5508,0.1798,-0.0009,-0.0000,2.2054,flat,18.0,0,8.762
1620,51.84,5.7643,1.0051,0.1798,-0.0003,-0.0001,2.1318,flat,18.0,0,8.252
1630,52.16,5.4637,1.4878,0.1797,-0.0000,0.0000,2.1341,flat,18.0,0,7.742
1640,52.48,5.1617,1.9486,0.1797,0.0002,0.0000,2.1899,flat,18.0,0,7.250
1650,52.80,4.8387,2.3694,0.1798,0.0003,0.0000,2.2918,flat,18.0,0,6.767
1660,53.12,4.4755,2.7368,0.1799,0.0002,-0.0000,2.4303,flat,18.0,0,6.278
1670,53.44,4.0602,3.0553,0.1799,0.0001,-0.0000,2.5784,flat,18.0,0,5.766
1680,53.76,3.5935,3.3229,0.1799,0.0003,-0.0000,2.7053,flat,18.0,0,5.231
1690,54.08,3.0860,3.5432,0.1798,0.0003,-0.0000,2.7893,flat,18.0,0,4.678
1700,54.40,2.5521,3.7315,0.1797,0.0001,-0.0000,2.8234,flat,18.0,0,4.114
1710,54.72,2.0070,3.9104,0.1797,0.0000,0.0000,2.8218,flat,18.0,0,3.545
1720,55.04,1.4687,4.0915,0.1797,-0.0001,0.0000,2.8012,flat,18.0,0,2.982
1730,55.36,0.9374,4.2842,0.1797,-0.0001,0.0000,2.7740,flat,18.0,0,2.423
1740,55.68,0.4124,4.4912,0.1797,-0.0001,0.0000,2.7491,flat,18.0,0,1.865
1750,56.00,-0.0642,4.6929,0.1797,-0.0001,0.0001,2.7346,flat,18.0,0,1.355
1760,56.32,-0.4795,4.8757,0.1797,-0.0000,0.0000,2.6774,flat,18.0,1,2.552
1770,56.64,-0.8540,5.1127,0.1799,0.0000,-0.0000,2.3727,flat,18.0,1,2.263
1780,56.96,-1.1532,5.4735,0.1799,0.0000,-0.0000,2.0999,flat,18.0,1,1.901
1790,57.28,-1.3585,5.8716,0.1799,-0.0002,0.0001,1.9025,rough,15.5,1,1.536
1800,57.60,-1.4846,6.2676,0.1799,-0.0000,0.0000,1.6969,flat,18.0,1,1.197
1810,57.92,-1.5234,6.7086,0.1799,0.0000,0.0001,1.3236,flat,18.0,2,8.105
1820,58.24,-1.3861,7.0675,0.1799,0.0001,-0.0000,0.8457,flat,18.0,2,8.141
1830,58.56,-1.0608,7.3421,0.1799,0.0001,-0.0000,0.4586,flat,18.0,2,7.990
1840,58.88,-0.6576,7.5072,0.1799,0.0001,0.0000,0.0145,rough,15.5,2,7.733
1850,59.20,-0.1749,7.4760,0.1799,0.0001,0.0004,-0.2451,flat,18.0,2,7.315
1860,59.52,0.3327,7.3390,0.1798,-0.0002,-0.0001,-0.3539,flat,18.0,2,6.823
1870,59.84,0.8051,7.1439,0.1799,-0.0001,-0.0000,-0.5085,flat,18.0,2,6.328
1880,60.16,1.2353,6.8697,0.1799,-0.0001,-0.0000,-0.6686,flat,18.0,2,5.820
1890,60.48,1.6438,6.5182,0.1798,-0.0003,-0.0001,-0.7560,flat,18.0,2,5.282
1900,60.80,2.0465,6.1248,0.1797,-0.0001,-0.0000,-0.7862,flat,18.0,2,4.723
1910,61.12,2.4508,5.7214,0.1797,0.0000,0.0000,-0.7764,flat,18.0,2,4.159
1920,61.44,2.8570,5.3337,0.1797,0.0001,0.0000,-0.7428,flat,18.0,2,3.603
1930,61.76,3.2746,4.9654,0.1797,0.0001,0.0000,-0.6996,flat,18.0,2,3.051
1940,62.08,3.7075,4.6150,0.1797,0.0001,-0.0000,-0.6573,flat,18.0,2,2.498
1950,62.40,4.1567,4.2797,0.1797,0.0001,-0.0000,-0.6213,flat,18.0,2,1.940
1960,62.72,4.5859,3.9784,0.1797,0.0001,0.0001,-0.6012,flat,18.0,2,1.418
1970,63.04,4.9630,3.7236,0.1797,0.0001,0.0001,-0.5754,flat,18.0,3,0.965
1980,63.36,5.4057,3.4507,0.1798,-0.0000,-0.0001,-0.5696,flat,18.0,3,3.003
1990,63.68,5.8689,3.1414,0.1797,-0.0001,-0.0000,-0.6144,flat,18.0,3,2.446
2000,64.00,6.3274,2.8105,0.1797,-0.0001,0.0000,-0.6357,flat,18.0,3,1.881
2010,64.32,6.7483,2.4994,0.1797,-0.0000,0.0001,-0.6376,flat,18.0,3,1.360
2020,64.64,7.1253,2.2196,0.1797,-0.0000,0.0001,-0.6397,flat,18.0,0,8.916
2030,64.96,7.4100,1.9967,0.1798,-0.0000,0.0002,-0.7803,flat,18.0,0,9.263
2040,65.28,7.5812,1.7699,0.1798,0.0004,-0.0001,-1.2594,rough,15.5,0,9.507
2050,65.60,7.6747,1.3777,0.1800,-0.0002,-0.0002,-1.5465,flat,18.0,0,9.751
2060,65.92,7.6805,0.8486,0.1798,-0.0001,-0.0000,-1.5830,flat,18.0,0,9.990
2070,66.24,7.6721,0.3136,0.1797,-0.0001,-0.0000,-1.6020,flat,18.0,0,10.240
2080,66.56,7.6534,-0.2240,0.1797,-0.0001,-0.0000,-1.6201,flat,18.0,0,10.505
2090,66.88,7.6248,-0.7666,0.1797,-0.0001,-0.0000,-1.6360,flat,18.0,0,10.785
2100,67.20,7.5873,-1.3162,0.1797,-0.0000,-0.0000,-1.6486,flat,18.0,0,11.082
2110,67.52,7.5426,-1.8747,0.1797,-0.0000,-0.0000,-1.6566,flat,18.0,0,11.398
2120,67.84,7.4934,-2.4411,0.1797,-0.0000,0.0001,-1.6590,flat,18.0,0,11.734
2130,68.16,7.4558,-2.8711,0.1797,-0.0000,0.0002,-1.6881,flat,18.0,0,12.001
2140,68.48,7.4108,-3.2563,0.1798,0.0001,-0.0000,-1.9712,flat,18.0,0,12.240
2150,68.80,7.2023,-3.6035,0.1799,-0.0000,-0.0000,-2.3735,flat,18.0,0,12.347
2160,69.12,6.8480,-3.8709,0.1799,0.0001,-0.0000,-2.7419,flat,18.0,0,12.311
2170,69.44,6.4195,-4.0185,0.1799,-0.0000,-0.0000,3.0602,flat,18.0,0,12.151
2180,69.76,5.9881,-3.9470,0.1799,-0.0000,-0.0000,2.6517,flat,18.0,0,11.829
2190,70.08,5.6072,-3.6898,0.1799,-0.0000,-0.0000,2.3785,flat,18.0,0,11.394
2200,70.40,5.2842,-3.3204,0.1799,-0.0000,-0.0000,2.1655,flat,18.0,0,10.905
2210,70.72,5.0229,-2.8757,0.1799,-0.0001,-0.0000,1.9700,flat,18.0,0,10.392
2220,71.04,4.8338,-2.3705,0.1799,-0.0002,-0.0000,1.8294,flat,18.0,0,9.875
2230,71.36,4.6995,-1.8218,0.1798,-0.0002,-0.0000,1.7866,flat,18.0,0,9.361
2240,71.68,4.5756,-1.2763,0.1797,0.0001,0.0000,1.8368,flat,18.0,0,8.862
2250,72.00,4.4228,-0.7570,0.1798,0.0004,0.0000,1.9349,flat,18.0,0,8.371
2260,72.32,4.2192,-0.2682,0.1798,0.0003,0.0000,2.0534,flat,18.0,0,7.873
2270,72.64,3.9569,0.1888,0.1798,0.0003,-0.0000,2.1689,flat,18.0,0,7.362
2280,72.96,3.6412,0.6166,0.1798,0.0004,-0.0000,2.2677,flat,18.0,0,6.836
2290,73.28,3.2802,1.0152,0.1798,0.0004,-0.0000,2.3547,flat,18.0,0,6.298
2300,73.60,2.8802,1.3927,0.1797,0.0002,-0.0000,2.4149,flat,18.0,0,5.749
2310,73.92,2.4534,1.7604,0.1797,0.0001,-0.0000,2.4432,flat,18.0,0,5.187
2320,74.24,2.0130,2.1277,0.1797,0.0000,-0.0000,2.4464,flat,18.0,0,4.617
2330,74.56,1.5769,2.4950,0.1797,-0.0000,0.0000,2.4337,flat,18.0,0,4.050
2340,74.88,1.1497,2.8672,0.1797,-0.0001,0.0000,2.4129,flat,18.0,0,3.487
2350,75.20,0.7312,3.2484,0.1797,-0.0001,-0.0000,2.3900,flat,18.0,0,2.925
2360,75.52,0.3202,3.6396,0.1797,-0.0001,-0.0000,2.3702,flat,18.0,0,2.361
2370,75.84,-0.0830,4.0372,0.1797,-0.0001,0.0000,2.3568,flat,18.0,0,1.798
2380,76.16,-0.4427,4.3988,0.1797,-0.0000,0.0001,2.3492,flat,18.0,0,1.294
2390,76.48,-0.7704,4.7436,0.1798,-0.0001,0.0000,2.2624,flat,18.0,1,2.638
2400,76.80,-1.0547,5.1498,0.1799,-0.0000,-0.0000,2.0263,flat,18.0,1,2.220
2410,77.12,-1.2525,5.6227,0.1799,-0.0001,-0.0000,1.8184,flat,18.0,1,1.763
2420,77.44,-1.3504,6.0551,0.1798,-0.0002,0.0002,1.7389,flat,18.0,1,1.356
2430,77.76,-1.4153,6.4965,0.1799,0.0000,-0.0002,1.5330,flat,18.0,2,0.959
2440,78.08,-1.3764,6.9467,0.1799,0.0000,-0.0000,1.1499,flat,18.0,2,8.077
2450,78.40,-1.1613,7.3180,0.1799,-0.0000,0.0000,0.8270,flat,18.0,2,8.064
2460,78.72,-0.8302,7.5842,0.1799,0.0001,-0.0001,0.4347,rough,15.5,2,7.920
2470,79.04,-0.3635,7.7729,0.1798,-0.0000,0.0001,0.3438,flat,18.0,2,7.641
2480,79.36,0.1062,7.9366,0.1798,-0.0001,0.0001,0.3029,flat,18.0,2,7.368
2490,79.68,0.5504,8.0703,0.1797,-0.0002,0.0000,0.2407,flat,18.0,2,7.118
2500,80.00,0.9769,8.1700,0.1797,-0.0002,0.0000,0.1568,flat,18.0,2,6.878
2510,80.32,1.3911,8.2313,0.1797,-0.0002,0.0000,0.0571,flat,18.0,2,6.638
2520,80.64,1.7984,8.2503,0.1797,-0.0003,0.0000,-0.0523,flat,18.0,2,6.387
2530,80.96,2.2037,8.2247,0.1797,-0.0002,-0.0000,-0.1517,flat,18.0,2,6.119
2540,81.28,2.6133,8.1570,0.1797,-0.0002,-0.0000,-0.2366,flat,18.0,2,5.829
2550,81.60,3.0342,8.0498,0.1797,-0.0002,-0.0000,-0.3057,flat,18.0,2,5.516
2560,81.92,3.4731,7.9049,0.1797,-0.0001,-0.0001,-0.3546,flat,18.0,2,5.177
2570,82.24,3.9398,7.7268,0.1797,-0.0001,-0.0001,-0.3858,flat,18.0,2,4.818
2580,82.56,4.4429,7.5192,0.1797,-0.0000,-0.0001,-0.3987,flat,18.0,2,4.446
2590,82.88,4.9232,7.3133,0.1798,-0.0000,0.0001,-0.4858,flat,18.0,2,4.120
2600,83.20,5.3432,7.0591,0.1799,-0.0000,0.0000,-0.6711,flat,18.0,2,3.796
2610,83.52,5.6942,6.7263,0.1799,-0.0000,-0.0000,-0.8814,flat,18.0,2,3.435
2620,83.84,5.9807,6.3177,0.1799,-0.0000,-0.0000,-1.1074,flat,18.0,2,3.028
2630,84.16,6.1843,5.8455,0.1799,-0.0000,-0.0000,-1.3340,flat,18.0,2,2.577
2640,84.48,6.2864,5.3275,0.1799,-0.0001,-0.0000,-1.5332,flat,18.0,2,2.085
2650,84.80,6.2922,4.8074,0.1799,-0.0003,0.0001,-1.6730,flat,18.0,2,1.583
2660,85.12,6.2377,4.3541,0.1798,-0.0003,0.0001,-1.7750,flat,18.0,2,1.137
2670,85.44,6.1524,3.9606,0.1798,-0.0001,-0.0000,-1.6994,flat,18.0,3,2.784
2680,85.76,6.1295,3.5186,0.1800,-0.0001,-0.0000,-1.2647,flat,18.0,3,2.475
2690,86.08,6.3077,3.0787,0.1799,-0.0000,-0.0000,-0.9999,flat,18.0,3,2.052
2700,86.40,6.6024,2.6717,0.1798,0.0002,0.0000,-0.8818,flat,18.0,3,1.575
2710,86.72,6.9005,2.3314,0.1798,0.0002,0.0001,-0.8046,flat,18.0,3,1.146
2720,87.04,7.2113,2.0421,0.1798,0.0002,0.0002,-0.7214,flat,18.0,0,9.061
2730,87.36,7.4389,1.8119,0.1798,0.0002,0.0001,-1.0085,flat,18.0,0,9.360
2740,87.68,7.5778,1.5660,0.1798,0.0003,-0.0002,-1.7536,flat,18.0,0,9.585
2750,88.00,7.4491,1.1892,0.1800,0.0001,-0.0000,-2.2404,flat,18.0,0,9.629
2760,88.32,7.1220,0.8580,0.1795,-0.0018,0.0000,-2.4986,flat,18.0,0,9.493
2770,88.64,6.7128,0.6040,0.1799,-0.0000,0.0000,-2.8024,flat,18.0,0,9.268
2780,88.96,6.2480,0.4706,0.1799,-0.0000,-0.0000,3.1122,flat,18.0,0,8.949
2790,89.28,5.7556,0.5146,0.1783,-0.0094,0.0001,2.8422,flat,18.0,0,8.519
2800,89.60,5.2763,0.6921,0.1798,-0.0008,0.0000,2.6592,flat,18.0,0,8.027
2810,89.92,4.8158,0.9579,0.1798,-0.0004,-0.0000,2.5469,flat,18.0,0,7.499
