step,time_s,x,y,z,roll,pitch,yaw,terrain,speed,target_idx,dist_to_target
10,0.32,-0.1056,1.4505,0.1829,0.0002,-0.0220,0.0042,rough,15.5,0,4.153
20,0.64,0.1915,1.4517,0.1796,-0.0007,0.0014,0.3810,flat,18.0,0,4.239
30,0.96,0.5035,1.6168,0.1799,-0.0001,-0.0001,0.7319,flat,18.0,0,4.198
40,1.28,0.7850,1.9378,0.1799,-0.0000,-0.0000,1.0211,flat,18.0,0,4.035
50,1.60,1.0029,2.3625,0.1799,0.0000,-0.0000,1.3071,flat,18.0,0,3.791
60,1.92,1.1095,2.8569,0.1799,0.0000,-0.0000,1.5804,flat,18.0,0,3.468
70,2.24,1.0807,3.3782,0.1799,0.0000,-0.0000,1.8104,flat,18.0,0,3.075
80,2.56,0.9322,3.8873,0.1799,0.0001,-0.0000,1.9899,flat,18.0,0,2.635
90,2.88,0.6928,4.3644,0.1799,0.0001,-0.0000,2.1388,flat,18.0,0,2.171
100,3.20,0.3815,4.8038,0.1799,0.0003,-0.0000,2.2641,flat,18.0,0,1.694
110,3.52,0.0177,5.1941,0.1799,0.0001,0.0000,2.4030,flat,18.0,0,1.227
120,3.84,-0.3944,5.5205,0.1799,0.0000,0.0000,2.6045,flat,18.0,1,1.952
130,4.16,-0.8029,5.8130,0.1778,-0.0126,0.0003,2.3973,flat,18.0,1,1.572
140,4.48,-1.1451,6.1949,0.1798,-0.0005,0.0000,2.1678,flat,18.0,1,1.182
150,4.80,-1.3995,6.6409,0.1799,0.0000,0.0000,1.8550,flat,18.0,1,0.822
160,5.12,-1.4936,7.0077,0.1798,0.0002,0.0000,1.3436,flat,18.0,2,8.209
170,5.44,-1.4036,7.3033,0.1799,0.0001,-0.0001,0.9364,flat,18.0,2,8.268
180,5.76,-1.1513,7.5729,0.1799,-0.0000,-0.0001,0.6623,flat,18.0,2,8.186
190,6.08,-0.8065,7.8024,0.1799,-0.0000,-0.0001,0.4275,flat,18.0,2,8.021
200,6.40,-0.3538,7.9769,0.1799,-0.0001,-0.0000,0.1668,flat,18.0,2,7.755
210,6.72,0.1572,8.0396,0.1799,-0.0001,-0.0000,-0.0600,flat,18.0,2,7.394
220,7.04,0.6890,7.9874,0.1799,-0.0001,-0.0000,-0.2358,flat,18.0,2,6.959
230,7.36,1.2141,7.8427,0.1799,-0.0003,-0.0000,-0.3661,flat,18.0,2,6.479
240,7.68,1.7219,7.6314,0.1798,-0.0004,-0.0000,-0.4634,flat,18.0,2,5.972
250,8.00,2.2111,7.3713,0.1798,-0.0003,-0.0000,-0.5410,flat,18.0,2,5.450
260,8.32,2.6819,7.0734,0.1797,-0.0002,-0.0000,-0.6055,flat,18.0,2,4.917
270,8.64,3.1348,6.7452,0.1797,-0.0002,-0.0000,-0.6612,flat,18.0,2,4.377
280,8.96,3.5704,6.3917,0.1797,-0.0002,-0.0000,-0.7108,flat,18.0,2,3.833
290,9.28,3.9889,6.0167,0.1797,-0.0002,-0.0000,-0.7568,flat,18.0,2,3.285
300,9.60,4.3897,5.6225,0.1797,-0.0002,-0.0000,-0.8018,flat,18.0,2,2.737
310,9.92,4.7712,5.2106,0.1797,-0.0002,0.0000,-0.8491,flat,18.0,2,2.188
320,10.24,5.1310,4.7823,0.1797,-0.0002,-0.0000,-0.9016,flat,18.0,2,1.643
330,10.56,5.4665,4.3352,0.1797,-0.0003,0.0000,-0.9723,flat,18.0,2,1.102
340,10.88,5.7643,3.8700,0.1798,-0.0002,-0.0001,-1.0035,flat,18.0,3,2.982
350,11.20,6.0658,3.4149,0.1798,0.0001,0.0002,-0.9559,rough,15.5,3,2.453
360,11.52,6.3593,3.0145,0.1797,0.0001,-0.0002,-0.9118,flat,18.0,3,1.972
370,11.84,6.7109,2.5827,0.1797,0.0002,-0.0000,-0.8484,flat,18.0,3,1.435
380,12.16,7.0885,2.1830,0.1798,0.0003,0.0000,-0.7630,flat,18.0,3,0.912
390,12.48,7.3576,1.9335,0.1793,-0.0001,-0.0029,-1.0014,flat,18.0,0,9.238
400,12.80,7.4859,1.7009,0.1789,-0.0058,0.0001,-1.4535,flat,18.0,0,9.447
410,13.12,7.5144,1.3903,0.1798,0.0001,0.0000,-1.9556,flat,18.0,0,9.601
420,13.44,7.3576,1.0961,0.1799,0.0000,-0.0001,-2.3065,flat,18.0,0,9.589
430,13.76,7.0434,0.8208,0.1799,0.0000,-0.0001,-2.5811,flat,18.0,0,9.443
440,14.08,6.6234,0.5974,0.1799,-0.0000,-0.0000,-2.8364,flat,18.0,0,9.196
450,14.40,6.1294,0.4672,0.1799,-0.0001,-0.0000,-3.0633,flat,18.0,0,8.853
460,14.72,5.5971,0.4463,0.1799,-0.0001,0.0000,3.0318,flat,18.0,0,8.431
470,15.04,5.0569,0.5234,0.1799,-0.0002,-0.0000,2.8909,flat,18.0,0,7.956
480,15.36,4.5262,0.6739,0.1798,-0.0004,-0.0000,2.7894,flat,18.0,0,7.449
490,15.68,4.0091,0.8771,0.1798,-0.0003,-0.0000,2.7113,flat,18.0,0,6.925
500,16.00,3.5060,1.1200,0.1797,-0.0002,-0.0000,2.6485,flat,18.0,0,6.389
510,16.32,3.0165,1.3942,0.1797,-0.0002,-0.0000,2.5961,flat,18.0,0,5.845
520,16.64,2.5404,1.6940,0.1797,-0.0002,-0.0000,2.5522,flat,18.0,0,5.295
530,16.96,2.0769,2.0146,0.1797,-0.0001,-0.0000,2.5144,flat,18.0,0,4.743
540,17.28,1.6248,2.3527,0.1797,-0.0001,-0.0000,2.4798,flat,18.0,0,4.188
550,17.60,1.1840,2.7065,0.1797,-0.0001,-0.0000,2.4472,flat,18.0,0,3.631
560,17.92,0.7547,3.0746,0.1797,-0.0001,-0.0000,2.4151,flat,18.0,0,3.073
570,18.24,0.3374,3.4564,0.1797,-0.0001,-0.0000,2.3815,flat,18.0,0,2.515
580,18.56,-0.0660,3.8522,0.1797,-0.0001,0.0000,2.3459,flat,18.0,0,1.958
590,18.88,-0.4523,4.2618,0.1797,-0.0001,0.0000,2.3036,flat,18.0,0,1.404
600,19.20,-0.8160,4.6859,0.1797,-0.0002,0.0000,2.2440,flat,18.0,0,0.858
610,19.52,-1.1269,5.1246,0.1799,-0.0000,-0.0000,2.0874,flat,18.0,1,2.248
620,19.84,-1.3597,5.5839,0.1799,-0.0002,0.0001,1.9208,rough,15.5,1,1.818
630,20.16,-1.5096,6.0378,0.1799,-0.0002,-0.0002,1.7750,flat,18.0,1,1.419
640,20.48,-1.5940,6.5620,0.1799,-0.0001,0.0000,1.5146,flat,18.0,1,0.991
650,20.80,-1.5467,7.0328,0.1799,0.0003,0.0001,1.2389,flat,18.0,2,8.268
660,21.12,-1.4071,7.3784,0.1798,0.0002,0.0000,0.9591,flat,18.0,2,8.308
670,21.44,-1.1733,7.6423,0.1799,0.0000,-0.0000,0.7059,rough,15.5,2,8.241
680,21.76,-0.8609,7.8705,0.1799,0.0000,-0.0001,0.4898,flat,18.0,2,8.104
690,22.08,-0.4339,8.0638,0.1799,-0.0000,-0.0000,0.2247,flat,18.0,2,7.871
700,22.40,0.0654,8.1539,0.1799,0.0000,-0.0001,-0.0165,flat,18.0,2,7.538
710,22.72,0.5938,8.1254,0.1799,-0.0001,-0.0000,-0.2054,flat,18.0,2,7.123
720,23.04,1.1202,7.9969,0.1799,-0.0002,-0.0000,-0.3468,flat,18.0,2,6.654
730,23.36,1.6300,7.7952,0.1798,-0.0004,-0.0000,-0.4519,flat,18.0,2,6.155
740,23.68,2.1207,7.5406,0.1798,-0.0004,-0.0000,-0.5345,flat,18.0,2,5.637
750,24.00,2.5925,7.2457,0.1797,-0.0003,-0.0000,-0.6016,flat,18.0,2,5.107
760,24.32,3.0464,6.9193,0.1797,-0.0002,-0.0000,-0.6581,flat,18.0,2,4.569
770,24.64,3.4830,6.5672,0.1797,-0.0002,-0.0000,-0.7081,flat,18.0,2,4.026
780,24.96,3.9019,6.1934,0.1797,-0.0002,-0.0000,-0.7558,flat,18.0,2,3.481
790,25.28,4.3026,5.7996,0.1797,-0.0002,-0.0000,-0.8020,flat,18.0,2,2.933
800,25.60,4.6839,5.3876,0.1797,-0.0002,0.0000,-0.8497,flat,18.0,2,2.386
810,25.92,5.0437,4.9591,0.1797,-0.0002,0.0000,-0.9006,flat,18.0,2,1.840
820,26.24,5.3806,4.5119,0.1797,-0.0002,0.0000,-0.9661,flat,18.0,2,1.297
830,26.56,5.6832,4.0460,0.1798,-0.0003,0.0000,-1.0628,flat,18.0,3,3.163
840,26.88,5.9661,3.5682,0.1798,0.0001,-0.0000,-0.9980,flat,18.0,3,2.629
850,27.20,6.2383,3.1605,0.1797,0.0001,0.0000,-0.9538,rough,15.5,3,2.157
860,27.52,6.5613,2.7287,0.1797,0.0002,-0.0001,-0.8910,flat,18.0,3,1.641
870,27.84,6.9212,2.3114,0.1798,0.0003,0.0000,-0.8093,flat,18.0,3,1.118
880,28.16,7.2771,1.9700,0.1805,0.0002,0.0054,-0.7477,flat,18.0,0,9.150
890,28.48,7.4213,1.7830,0.1772,-0.0168,0.0000,-1.2703,flat,18.0,0,9.355
900,28.80,7.5063,1.4902,0.1798,0.0001,0.0001,-1.7858,flat,18.0,0,9.551
910,29.12,7.4197,1.1900,0.1799,0.0000,-0.0001,-2.1865,flat,18.0,0,9.602
920,29.44,7.1579,0.9051,0.1799,0.0000,-0.0001,-2.4791,flat,18.0,0,9.502
930,29.76,6.7749,0.6565,0.1799,-0.0000,-0.0000,-2.7432,flat,18.0,0,9.294
940,30.08,6.3049,0.4881,0.1799,-0.0001,-0.0000,-2.9823,flat,18.0,0,8.987
950,30.40,5.7833,0.4263,0.1799,-0.0001,-0.0000,3.0954,flat,18.0,0,8.594
960,30.72,5.2433,0.4698,0.1799,-0.0001,-0.0000,2.9366,flat,18.0,0,8.135
970,31.04,4.7085,0.5965,0.1799,-0.0004,-0.0000,2.8224,flat,18.0,0,7.639
980,31.36,4.1866,0.7827,0.1798,-0.0004,-0.0000,2.7366,flat,18.0,0,7.120
990,31.68,3.6787,1.0128,0.1797,-0.0003,-0.0000,2.6686,flat,18.0,0,6.588
1000,32.00,3.1848,1.2771,0.1797,-0.0002,-0.0000,2.6126,flat,18.0,0,6.047
1010,32.32,2.7043,1.5689,0.1797,-0.0002,-0.0000,2.5651,flat,18.0,0,5.500
1020,32.64,2.2371,1.8834,0.1797,-0.0001,-0.0000,2.5257,flat,18.0,0,4.948
1030,32.96,1.7816,2.2163,0.1797,-0.0001,-0.0000,2.4900,flat,18.0,0,4.394
1040,33.28,1.3375,2.5655,0.1797,-0.0001,-0.0000,2.4567,flat,18.0,0,3.838
1050,33.60,0.9049,2.9295,0.1797,-0.0001,-0.0000,2.4245,flat,18.0,0,3.281
1060,33.92,0.4840,3.3074,0.1797,-0.0001,-0.0000,2.3914,flat,18.0,0,2.723
1070,34.24,0.0763,3.6991,0.1797,-0.0001,0.0000,2.3567,flat,18.0,0,2.165
1080,34.56,-0.3157,4.1046,0.1797,-0.0001,0.0000,2.3176,flat,18.0,0,1.610
1090,34.88,-0.6871,4.5242,0.1797,-0.0002,0.0000,2.2668,flat,18.0,0,1.060
1100,35.20,-1.0183,4.9555,0.1799,0.0000,-0.0000,2.1444,flat,18.0,1,2.414
1110,35.52,-1.2870,5.4247,0.1799,-0.0000,-0.0000,1.9671,rough,15.5,1,1.964
1120,35.84,-1.4570,5.8671,0.1798,-0.0003,0.0000,1.8229,rough,15.5,1,1.565
1130,36.16,-1.5700,6.3697,0.1799,-0.0000,-0.0000,1.6183,flat,18.0,1,1.142
1140,36.48,-1.5722,6.8869,0.1799,0.0001,0.0003,1.3166,flat,18.0,2,8.226
1150,36.80,-1.4606,7.2642,0.1798,0.0001,0.0001,1.0644,flat,18.0,2,8.299
1160,37.12,-1.2560,7.5553,0.1799,0.0001,0.0001,0.7680,rough,15.5,2,8.266
1170,37.44,-0.9672,7.7914,0.1799,-0.0000,-0.0000,0.5543,rough,15.5,2,8.148
1180,37.76,-0.5739,8.0004,0.1799,-0.0000,-0.0000,0.3023,flat,18.0,2,7.945
1190,38.08,-0.0910,8.1245,0.1799,-0.0001,-0.0000,0.0531,flat,18.0,2,7.639
1200,38.40,0.4334,8.1302,0.1799,-0.0001,0.0000,-0.1521,flat,18.0,2,7.245
1210,38.72,0.9629,8.0293,0.1799,-0.0001,-0.0000,-0.3085,flat,18.0,2,6.789
1220,39.04,1.4784,7.8471,0.1799,-0.0004,-0.0000,-0.4226,flat,18.0,2,6.296
1230,39.36,1.9751,7.6072,0.1798,-0.0004,-0.0000,-0.5106,flat,18.0,2,5.783
1240,39.68,2.4528,7.3238,0.1798,-0.0003,-0.0000,-0.5819,flat,18.0,2,5.256
1250,40.00,2.9123,7.0065,0.1797,-0.0002,-0.0000,-0.6411,flat,18.0,2,4.720
1260,40.32,3.3543,6.6621,0.1797,-0.0002,-0.0000,-0.6928,flat,18.0,2,4.179
1270,40.64,3.7790,6.2948,0.1797,-0.0002,-0.0000,-0.7406,flat,18.0,2,3.633
1280,40.96,4.1857,5.9072,0.1797,-0.0002,-0.0000,-0.7871,flat,18.0,2,3.086
1290,41.28,4.5735,5.5010,0.1797,-0.0002,0.0000,-0.8339,flat,18.0,2,2.538
1300,41.60,4.9405,5.0777,0.1797,-0.0002,0.0000,-0.8833,flat,18.0,2,1.992
1310,41.92,5.2852,4.6369,0.1797,-0.0002,-0.0000,-0.9432,flat,18.0,2,1.448
1320,42.24,5.6004,4.1770,0.1798,-0.0003,0.0000,-1.0272,flat,18.0,2,0.912
1330,42.56,5.8808,3.7005,0.1798,-0.0000,-0.0000,-1.0131,flat,18.0,3,2.781
1340,42.88,6.1646,3.2632,0.1798,0.0001,0.0001,-0.9651,rough,15.5,3,2.279
1350,43.20,6.4730,2.8390,0.1797,0.0002,-0.0001,-0.9069,flat,18.0,3,1.776
1360,43.52,6.8263,2.4135,0.1798,0.0003,0.0000,-0.8314,flat,18.0,3,1.250
1370,43.84,7.2021,2.0363,0.1815,0.0003,0.0116,-0.7284,flat,18.0,0,9.055
1380,44.16,7.3882,1.8367,0.1798,0.0009,-0.0003,-1.1502,flat,18.0,0,9.304
1390,44.48,7.4945,1.5327,0.1794,0.0005,-0.0028,-1.6612,flat,18.0,0,9.523
1400,44.80,7.4539,1.2244,0.1799,0.0001,-0.0001,-2.1033,flat,18.0,0,9.618
1410,45.12,7.2308,0.9357,0.1799,0.0001,-0.0001,-2.4134,flat,18.0,0,9.551
1420,45.44,6.8738,0.6751,0.1799,0.0000,-0.0000,-2.6822,flat,18.0,0,9.369
1430,45.76,6.4220,0.4845,0.1799,-0.0000,-0.0000,-2.9289,flat,18.0,0,9.087
1440,46.08,5.9097,0.3965,0.1799,-0.0000,-0.0000,3.1377,flat,18.0,0,8.713
1450,46.40,5.3717,0.4174,0.1799,-0.0001,-0.0000,2.9681,flat,18.0,0,8.269
1460,46.72,4.8348,0.5278,0.1799,-0.0003,-0.0000,2.8444,flat,18.0,0,7.780
1470,47.04,4.3101,0.7026,0.1798,-0.0004,-0.0000,2.7529,flat,18.0,0,7.266
1480,47.36,3.7995,0.9245,0.1798,-0.0003,-0.0000,2.6811,flat,18.0,0,6.737
1490,47.68,3.3030,1.1826,0.1797,-0.0002,-0.0000,2.6225,flat,18.0,0,6.198
1500,48.00,2.8201,1.4695,0.1797,-0.0002,-0.0000,2.5731,flat,18.0,0,5.652
1510,48.32,2.3507,1.7803,0.1797,-0.0001,-0.0000,2.5321,flat,18.0,0,5.101
1520,48.64,1.8933,2.1102,0.1797,-0.0001,-0.0000,2.4956,flat,18.0,0,4.548
1530,48.96,1.4475,2.4569,0.1797,-0.0001,-0.0000,2.4618,flat,18.0,0,3.992
1540,49.28,1.0131,2.8187,0.1797,-0.0001,-0.0000,2.4295,flat,18.0,0,3.435
1550,49.60,0.5902,3.1944,0.1797,-0.0001,-0.0000,2.3967,flat,18.0,0,2.877
1560,49.92,0.1802,3.5840,0.1797,-0.0001,0.0000,2.3626,flat,18.0,0,2.319
1570,50.24,-0.2149,3.9872,0.1797,-0.0001,0.0000,2.3253,flat,18.0,0,1.763
1580,50.56,-0.5909,4.4043,0.1797,-0.0002,0.0000,2.2789,flat,18.0,0,1.211
1590,50.88,-0.9361,4.8331,0.1798,-0.0002,0.0000,2.1872,flat,18.0,1,2.538
1600,51.20,-1.2221,5.2902,0.1799,-0.0001,0.0000,2.0157,flat,18.0,1,2.090
1610,51.52,-1.4159,5.7381,0.1798,-0.0003,0.0000,1.8662,rough,15.5,1,1.679
1620,51.84,-1.5461,6.2171,0.1799,-0.0001,-0.0000,1.6936,flat,18.0,1,1.267
1630,52.16,-1.5869,6.7420,0.1799,-0.0001,0.0000,1.4152,flat,18.0,1,0.846
1640,52.48,-1.5023,7.1644,0.1798,0.0001,0.0001,1.1428,flat,18.0,2,8.289
1650,52.80,-1.3282,7.4773,0.1798,0.0002,-0.0001,0.8407,flat,18.0,2,8.289
1660,53.12,-1.0617,7.7236,0.1799,-0.0001,-0.0000,0.6208,rough,15.5,2,8.190
1670,53.44,-0.7002,7.9458,0.1799,0.0000,-0.0001,0.3768,flat,18.0,2,8.016
1680,53.76,-0.2356,8.1004,0.1799,-0.0001,-0.0000,0.1186,flat,18.0,2,7.737
1690,54.08,0.2811,8.1389,0.1799,-0.0001,0.0000,-0.1008,flat,18.0,2,7.364
1700,54.40,0.8119,8.0652,0.1799,-0.0001,-0.0000,-0.2699,flat,18.0,2,6.922
1710,54.72,1.3323,7.9028,0.1799,-0.0003,-0.0000,-0.3939,flat,18.0,2,6.438
1720,55.04,1.8344,7.6772,0.1798,-0.0004,-0.0000,-0.4878,flat,18.0,2,5.929
1730,55.36,2.3174,7.4050,0.1798,-0.0003,-0.0000,-0.5632,flat,18.0,2,5.406
1740,55.68,2.7821,7.0965,0.1797,-0.0002,-0.0000,-0.6251,flat,18.0,2,4.872
1750,56.00,3.2290,6.7593,0.1797,-0.0002,-0.0000,-0.6787,flat,18.0,2,4.331
1760,56.32,3.6588,6.3982,0.1797,-0.0002,-0.0000,-0.7269,flat,18.0,2,3.787
1770,56.64,4.0706,6.0163,0.1797,-0.0002,-0.0000,-0.7738,flat,18.0,2,3.240
1780,56.96,4.4642,5.6153,0.1797,-0.0002,0.0000,-0.8199,flat,18.0,2,2.692
1790,57.28,4.8375,5.1967,0.1797,-0.0002,0.0000,-0.8684,flat,18.0,2,2.145
1800,57.60,5.1889,4.7614,0.1797,-0.0002,-0.0000,-0.9238,flat,18.0,2,1.601
1810,57.92,5.5144,4.3071,0.1798,-0.0003,0.0000,-0.9986,flat,18.0,2,1.061
1820,58.24,5.8019,3.8351,0.1798,-0.0002,-0.0001,-1.0150,flat,18.0,3,2.931
1830,58.56,6.0980,3.3776,0.1798,0.0001,0.0002,-0.9645,rough,15.5,3,2.404
1840,58.88,6.3924,2.9695,0.1797,0.0001,-0.0001,-0.9162,flat,18.0,3,1.918
1850,59.20,6.7418,2.5373,0.1797,0.0002,-0.0000,-0.8496,flat,18.0,3,1.385
1860,59.52,7.1185,2.1400,0.1798,0.0003,0.0000,-0.7563,flat,18.0,3,0.867
1870,59.84,7.3700,1.9027,0.1794,0.0004,-0.0032,-1.0188,flat,18.0,0,9.261
1880,60.16,7.5074,1.6592,0.1792,-0.0041,-0.0000,-1.4918,flat,18.0,0,9.483
1890,60.48,7.5232,1.3439,0.1799,0.0003,0.0000,-1.9909,flat,18.0,0,9.628
1900,60.80,7.3521,1.0510,0.1799,0.0001,-0.0001,-2.3299,flat,18.0,0,9.605
1910,61.12,7.0286,0.7784,0.1799,0.0000,-0.0001,-2.6021,flat,18.0,0,9.451
1920,61.44,6.6017,0.5613,0.1799,-0.0000,-0.0000,-2.8556,flat,18.0,0,9.196
1930,61.76,6.1035,0.4395,0.1799,-0.0000,-0.0000,-3.0808,flat,18.0,0,8.847
1940,62.08,5.5694,0.4270,0.1799,-0.0001,-0.0000,3.0170,flat,18.0,0,8.421
1950,62.40,5.0298,0.5113,0.1799,-0.0002,-0.0000,2.8814,flat,18.0,0,7.942
1960,62.72,4.5002,0.6668,0.1798,-0.0004,-0.0000,2.7821,flat,18.0,0,7.434
1970,63.04,3.9844,0.8737,0.1798,-0.0003,-0.0000,2.7054,flat,18.0,0,6.908
1980,63.36,3.4825,1.1196,0.1797,-0.0002,-0.0000,2.6435,flat,18.0,0,6.372
1990,63.68,2.9942,1.3963,0.1797,-0.0002,-0.0000,2.5918,flat,18.0,0,5.827
2000,64.00,2.5193,1.6982,0.1797,-0.0002,-0.0000,2.5485,flat,18.0,0,5.278
2010,64.32,2.0569,2.0205,0.1797,-0.0001,-0.0000,2.5111,flat,18.0,0,4.725
2020,64.64,1.6058,2.3601,0.1797,-0.0001,-0.0000,2.4768,flat,18.0,0,4.169
2030,64.96,1.1661,2.7153,0.1797,-0.0001,-0.0000,2.4443,flat,18.0,0,3.613
2040,65.28,0.7377,3.0846,0.1797,-0.0001,-0.0000,2.4123,flat,18.0,0,3.055
2050,65.60,0.3215,3.4677,0.1797,-0.0001,0.0000,2.3788,flat,18.0,0,2.497
2060,65.92,-0.0808,3.8645,0.1797,-0.0001,0.0000,2.3432,flat,18.0,0,1.939
2070,66.24,-0.4659,4.2752,0.1797,-0.0001,0.0000,2.3007,flat,18.0,0,1.385
2080,66.56,-0.8282,4.7003,0.1797,-0.0002,0.0000,2.2402,flat,18.0,0,0.839
2090,66.88,-1.1346,5.1408,0.1799,-0.0000,-0.0000,2.0759,flat,18.0,1,2.232
2100,67.20,-1.3603,5.5964,0.1799,-0.0002,0.0001,1.9156,rough,15.5,1,1.806
2110,67.52,-1.5081,6.0512,0.1799,-0.0002,-0.0002,1.7703,flat,18.0,1,1.406
2120,67.84,-1.5900,6.5756,0.1799,-0.0000,0.0000,1.5094,flat,18.0,1,0.978
2130,68.16,-1.5405,7.0443,0.1799,0.0003,0.0001,1.2308,flat,18.0,2,8.267
2140,68.48,-1.3981,7.3868,0.1798,0.0002,0.0000,0.9486,flat,18.0,2,8.304
2150,68.80,-1.1568,7.6506,0.1799,0.0000,-0.0000,0.6868,rough,15.5,2,8.232
2160,69.12,-0.8314,7.8794,0.1799,0.0000,-0.0001,0.4607,flat,18.0,2,8.085
2170,69.44,-0.3909,8.0644,0.1799,-0.0000,-0.0000,0.1940,flat,18.0,2,7.837
2180,69.76,0.1143,8.1402,0.1799,-0.0000,-0.0001,-0.0419,flat,18.0,2,7.492
2190,70.08,0.6440,8.0985,0.1799,-0.0001,-0.0000,-0.2238,flat,18.0,2,7.068
2200,70.40,1.1692,7.9603,0.1799,-0.0002,-0.0000,-0.3596,flat,18.0,2,6.593
2210,70.72,1.6773,7.7522,0.1798,-0.0004,-0.0000,-0.4610,flat,18.0,2,6.091
2220,71.04,2.1662,7.4931,0.1798,-0.0004,-0.0000,-0.5412,flat,18.0,2,5.571
2230,71.36,2.6365,7.1950,0.1797,-0.0002,-0.0000,-0.6068,flat,18.0,2,5.040
2240,71.68,3.0889,6.8662,0.1797,-0.0002,-0.0000,-0.6626,flat,18.0,2,4.501
2250,72.00,3.5241,6.5121,0.1797,-0.0002,-0.0000,-0.7121,flat,18.0,2,3.958
2260,72.32,3.9416,6.1366,0.1797,-0.0002,-0.0000,-0.7592,flat,18.0,2,3.411
2270,72.64,4.3412,5.7414,0.1797,-0.0002,-0.0000,-0.8050,flat,18.0,2,2.863
2280,72.96,4.7212,5.3282,0.1797,-0.0002,0.0000,-0.8526,flat,18.0,2,2.316
2290,73.28,5.0797,4.8987,0.1797,-0.0002,0.0000,-0.9040,flat,18.0,2,1.770
2300,73.60,5.4149,4.4505,0.1797,-0.0002,0.0000,-0.9714,flat,18.0,2,1.228
2310,73.92,5.7101,3.9854,0.1798,-0.0005,0.0002,-1.0429,flat,18.0,3,3.101
2320,74.24,6.0001,3.5072,0.1798,0.0002,-0.0000,-0.9896,rough,15.5,3,2.563
2330,74.56,6.2710,3.1080,0.1797,0.0001,0.0000,-0.9465,flat,18.0,3,2.099
2340,74.88,6.6071,2.6674,0.1797,0.0002,-0.0000,-0.8791,flat,18.0,3,1.569
2350,75.20,6.9719,2.2562,0.1798,0.0003,0.0000,-0.7932,flat,18.0,3,1.048
2360,75.52,7.2913,1.9566,0.1787,0.0001,-0.0068,-0.8466,flat,18.0,0,9.168
2370,75.84,7.4331,1.7319,0.1777,-0.0003,-0.0148,-1.3438,flat,18.0,0,9.386
2380,76.16,7.4969,1.4055,0.1798,0.0005,-0.0001,-1.8610,flat,18.0,0,9.578
2390,76.48,7.3811,1.1089,0.1799,0.0001,-0.0001,-2.2395,flat,18.0,0,9.604
2400,76.80,7.0968,0.8284,0.1799,0.0000,-0.0001,-2.5230,flat,18.0,0,9.486
2410,77.12,6.6982,0.5902,0.1799,-0.0000,-0.0000,-2.7845,flat,18.0,0,9.263
2420,77.44,6.2177,0.4385,0.1799,-0.0000,-0.0000,-3.0196,flat,18.0,0,8.942
2430,77.76,5.6912,0.3949,0.1799,-0.0001,-0.0000,3.0625,flat,18.0,0,8.538
2440,78.08,5.1512,0.4550,0.1799,-0.0001,-0.0000,2.9135,flat,18.0,0,8.072
2450,78.40,4.6187,0.5939,0.1798,-0.0004,-0.0000,2.8047,flat,18.0,0,7.571
2460,78.72,4.0996,0.7893,0.1798,-0.0004,-0.0000,2.7221,flat,18.0,0,7.051
2470,79.04,3.5947,1.0268,0.1797,-0.0003,-0.0000,2.6562,flat,18.0,0,6.517
2480,79.36,3.1038,1.2973,0.1797,-0.0002,-0.0000,2.6017,flat,18.0,0,5.975
2490,79.68,2.6263,1.5944,0.1797,-0.0002,-0.0000,2.5556,flat,18.0,0,5.427
2500,80.00,2.1620,1.9133,0.1797,-0.0001,-0.0000,2.5169,flat,18.0,0,4.875
2510,80.32,1.7093,2.2503,0.1797,-0.0001,-0.0000,2.4816,flat,18.0,0,4.320
2520,80.64,1.2681,2.6033,0.1797,-0.0001,-0.0000,2.4486,flat,18.0,0,3.764
2530,80.96,0.8384,2.9708,0.1797,-0.0001,-0.0000,2.4163,flat,18.0,0,3.207
2540,81.28,0.4206,3.3521,0.1797,-0.0001,-0.0000,2.3830,flat,18.0,0,2.649
2550,81.60,0.0164,3.7473,0.1797,-0.0001,0.0000,2.3480,flat,18.0,0,2.091
2560,81.92,-0.3716,4.1562,0.1797,-0.0001,0.0000,2.3077,flat,18.0,0,1.536
2570,82.24,-0.7381,4.5792,0.1797,-0.0002,0.0000,2.2541,flat,18.0,0,0.988
2580,82.56,-1.0608,5.0146,0.1799,0.0000,-0.0000,2.1203,flat,18.0,1,2.356
2590,82.88,-1.3137,5.4789,0.1799,-0.0001,0.0001,1.9487,rough,15.5,1,1.914
2600,83.20,-1.4759,5.9224,0.1799,-0.0003,0.0000,1.8041,rough,15.5,1,1.518
2610,83.52,-1.5799,6.4327,0.1799,-0.0000,-0.0000,1.5855,flat,18.0,1,1.092
2620,83.84,-1.5654,6.9360,0.1799,-0.0001,0.0003,1.2909,flat,18.0,2,8.241
2630,84.16,-1.4432,7.3017,0.1798,0.0001,0.0000,1.0249,flat,18.0,2,8.302
2640,84.48,-1.2293,7.5798,0.1799,0.0001,-0.0000,0.7529,rough,15.5,2,8.256
2650,84.80,-0.9358,7.8139,0.1799,0.0000,-0.0000,0.5399,flat,18.0,2,8.135
2660,85.12,-0.5321,8.0204,0.1799,0.0000,-0.0000,0.2810,flat,18.0,2,7.924
2670,85.44,-0.0446,8.1360,0.1799,0.0000,-0.0000,0.0312,flat,18.0,2,7.611
2680,85.76,0.4812,8.1320,0.1799,-0.0001,-0.0000,-0.1688,flat,18.0,2,7.210
2690,86.08,1.0098,8.0230,0.1799,-0.0001,-0.0000,-0.3195,flat,18.0,2,6.751
2700,86.40,1.5237,7.8351,0.1798,-0.0004,-0.0000,-0.4311,flat,18.0,2,6.257
2710,86.72,2.0187,7.5909,0.1798,-0.0004,-0.0000,-0.5177,flat,18.0,2,5.742
2720,87.04,2.4946,7.3041,0.1798,-0.0003,-0.0000,-0.5878,flat,18.0,2,5.214
2730,87.36,2.9525,6.9841,0.1797,-0.0002,-0.0000,-0.6462,flat,18.0,2,4.678
2740,87.68,3.3929,6.6373,0.1797,-0.0002,-0.0000,-0.6974,flat,18.0,2,4.136
2750,88.00,3.8158,6.2682,0.1797,-0.0002,-0.0000,-0.7452,flat,18.0,2,3.591
2760,88.32,4.2207,5.8787,0.1797,-0.0002,-0.0000,-0.7917,flat,18.0,2,3.043
2770,88.64,4.6065,5.4706,0.1797,-0.0002,0.0000,-0.8388,flat,18.0,2,2.496
2780,88.96,4.9712,5.0457,0.1797,-0.0002,0.0000,-0.8886,flat,18.0,2,1.950
2790,89.28,5.3136,4.6029,0.1797,-0.0002,-0.0000,-0.9502,flat,18.0,2,1.406
2800,89.60,5.6250,4.1411,0.1798,-0.0003,0.0000,-1.0375,flat,18.0,2,0.871
2810,89.92,5.9060,3.6638,0.1798,0.0001,-0.0000,-1.0076,flat,18.0,3,2.738
2820,90.24,6.1832,3.2405,0.1797,0.0001,0.0001,-0.9621,rough,15.5,3,2.250
2830,90.56,6.4928,2.8173,0.1797,0.0002,-0.0001,-0.9038,flat,18.0,3,1.747
2840,90.88,6.8474,2.3931,0.1798,0.0003,0.0000,-0.8278,flat,18.0,3,1.221
2850,91.20,7.2244,2.0182,0.1814,0.0003,0.0114,-0.7221,flat,18.0,0,9.083
2860,91.52,7.3950,1.8275,0.1799,0.0007,-0.0002,-1.1802,flat,18.0,0,9.313
2870,91.84,7.5021,1.5555,0.1797,-0.0009,0.0000,-1.6845,flat,18.0,0,9.520
2880,92.16,7.4528,1.2502,0.1798,0.0001,-0.0001,-2.1168,flat,18.0,0,9.605
2890,92.48,7.2223,0.9613,0.1799,0.0001,-0.0001,-2.4242,flat,18.0,0,9.532
2900,92.80,6.8605,0.7021,0.1799,0.0000,-0.0000,-2.6919,flat,18.0,0,9.344
2910,93.12,6.4052,0.5147,0.1799,-0.0000,-0.0000,-2.9367,flat,18.0,0,9.056
2920,93.44,5.8911,0.4304,0.1799,-0.0001,-0.0000,3.1329,flat,18.0,0,8.679
2930,93.76,5.3525,0.4543,0.1799,-0.0001,-0.0000,2.9650,flat,18.0,0,8.231
2940,94.08,4.8155,0.5664,0.1799,-0.0003,-0.0000,2.8427,flat,18.0,0,7.740
2950,94.40,4.2908,0.7421,0.1798,-0.0004,-0.0000,2.7522,flat,18.0,0,7.226
2960,94.72,3.7801,0.9643,0.1798,-0.0003,-0.0000,2.6812,flat,18.0,0,6.696
2970,95.04,3.2834,1.2223,0.1797,-0.0002,-0.0000,2.6231,flat,18.0,0,6.156
2980,95.36,2.8002,1.5089,0.1797,-0.0002,-0.0000,2.5741,flat,18.0,0,5.610
2990,95.68,2.3305,1.8192,0.1797,-0.0001,-0.0000,2.5334,flat,18.0,0,5.059
3000,96.00,1.8726,2.1485,0.1797,-0.0001,-0.0000,2.4971,flat,18.0,0,4.505
3010,96.32,1.4262,2.4945,0.1797,-0.0001,-0.0000,2.4633,flat,18.0,0,3.950
3020,96.64,0.9912,2.8556,0.1797,-0.0001,-0.0000,2.4311,flat,18.0,0,3.392
3030,96.96,0.5678,3.2307,0.1797,-0.0001,-0.0000,2.3983,flat,18.0,0,2.835
3040,97.28,0.1572,3.6196,0.1797,-0.0001,0.0000,2.3640,flat,18.0,0,2.277
3050,97.60,-0.2383,4.0223,0.1797,-0.0001,0.0000,2.3262,flat,18.0,0,1.721
3060,97.92,-0.6143,4.4389,0.1797,-0.0002,0.0000,2.2789,flat,18.0,0,1.169
3070,98.24,-0.9565,4.8671,0.1798,-0.0001,-0.0000,2.1780,flat,18.0,1,2.504
3080,98.56,-1.2390,5.3268,0.1799,-0.0001,-0.0000,2.0037,flat,18.0,1,2.055
3090,98.88,-1.4277,5.7769,0.1798,-0.0003,0.0000,1.8531,rough,15.5,1,1.645
3100,99.20,-1.5533,6.2638,0.1799,-0.0001,-0.0000,1.6708,flat,18.0,1,1.228
3110,99.52,-1.5819,6.7876,0.1799,-0.0000,0.0000,1.3889,flat,18.0,1,0.810
3120,99.84,-1.4892,7.1961,0.1798,0.0001,0.0001,1.1212,flat,18.0,2,8.292
3130,100.16,-1.3067,7.5029,0.1798,0.0002,-0.0001,0.8158,flat,18.0,2,8.283
3140,100.48,-1.0312,7.7464,0.1799,-0.0001,-0.0000,0.5973,rough,15.5,2,8.177
3150,100.80,-0.6626,7.9627,0.1799,0.0000,-0.0001,0.3561,flat,18.0,2,7.995
3160,101.12,-0.1927,8.1091,0.1799,-0.0001,-0.0000,0.1004,flat,18.0,2,7.709
3170,101.44,0.3266,8.1385,0.1799,-0.0001,0.0000,-0.1152,flat,18.0,2,7.330
3180,101.76,0.8570,8.0572,0.1799,-0.0001,-0.0000,-0.2809,flat,18.0,2,6.884
3190,102.08,1.3761,7.8891,0.1799,-0.0003,-0.0000,-0.4021,flat,18.0,2,6.398
3200,102.40,1.8767,7.6594,0.1798,-0.0004,-0.0000,-0.4945,flat,18.0,2,5.888
3210,102.72,2.3581,7.3839,0.1798,-0.0003,-0.0000,-0.5687,flat,18.0,2,5.363
3220,103.04,2.8212,7.0728,0.1797,-0.0002,-0.0000,-0.6299,flat,18.0,2,4.829
3230,103.36,3.2667,6.7335,0.1797,-0.0002,-0.0000,-0.6829,flat,18.0,2,4.288
3240,103.68,3.6950,6.3705,0.1797,-0.0002,-0.0000,-0.7310,flat,18.0,2,3.743
3250,104.00,4.1053,5.9869,0.1797,-0.0002,-0.0000,-0.7779,flat,18.0,2,3.197
3260,104.32,4.4971,5.5843,0.1797,-0.0002,0.0000,-0.8242,flat,18.0,2,2.649
3270,104.64,4.8684,5.1643,0.1797,-0.0002,0.0000,-0.8731,flat,18.0,2,2.102
3280,104.96,5.2177,4.7273,0.1797,-0.0002,-0.0000,-0.9298,flat,18.0,2,1.558
3290,105.28,5.5401,4.2712,0.1798,-0.0003,0.0000,-1.0071,flat,18.0,2,1.019
3300,105.60,5.8227,3.7971,0.1798,-0.0002,-0.0001,-1.0245,flat,18.0,3,2.890
3310,105.92,6.1058,3.3496,0.1798,0.0001,0.0001,-0.9754,rough,15.5,3,2.380
3320,106.24,6.4002,2.9342,0.1797,0.0002,-0.0001,-0.9206,flat,18.0,3,1.891
3330,106.56,6.7476,2.5020,0.1797,0.0003,-0.0000,-0.8497,flat,18.0,3,1.362
3340,106.88,7.1238,2.1076,0.1798,0.0003,0.0000,-0.7483,flat,18.0,3,0.850
3350,107.20,7.3645,1.8815,0.1794,-0.0002,-0.0034,-1.0531,flat,18.0,0,9.264
3360,107.52,7.4927,1.6410,0.1791,-0.0043,0.0001,-1.5120,flat,18.0,0,9.477
3370,107.84,7.5015,1.3280,0.1799,0.0003,0.0000,-2.0049,flat,18.0,0,9.616
3380,108.16,7.3243,1.0357,0.1799,0.0001,-0.0001,-2.3401,flat,18.0,0,9.587
3390,108.48,6.9968,0.7645,0.1799,0.0000,-0.0000,-2.6118,flat,18.0,0,9.430
3400,108.80,6.5667,0.5505,0.1799,-0.0000,-0.0000,-2.8648,flat,18.0,0,9.173
3410,109.12,6.0668,0.4329,0.1799,-0.0000,-0.0000,-3.0891,flat,18.0,0,8.821
3420,109.44,5.5324,0.4248,0.1799,-0.0001,-0.0000,3.0100,flat,18.0,0,8.392
3430,109.76,4.9930,0.5129,0.1799,-0.0002,-0.0000,2.8758,flat,18.0,0,7.912
3440,110.08,4.4643,0.6713,0.1798,-0.0004,-0.0000,2.7775,flat,18.0,0,7.403
3450,110.40,3.9492,0.8806,0.1798,-0.0003,-0.0000,2.7014,flat,18.0,0,6.878
3460,110.72,3.4483,1.1285,0.1797,-0.0002,-0.0000,2.6399,flat,18.0,0,6.340
3470,111.04,2.9609,1.4070,0.1797,-0.0002,-0.0000,2.5885,flat,18.0,0,5.796
3480,111.36,2.4871,1.7105,0.1797,-0.0002,-0.0000,2.5454,flat,18.0,0,5.246
3490,111.68,2.0256,2.0342,0.1797,-0.0001,-0.0000,2.5081,flat,18.0,0,4.693
3500,112.00,1.5755,2.3752,0.1797,-0.0001,-0.0000,2.4738,flat,18.0,0,4.138
3510,112.32,1.1369,2.7317,0.1797,-0.0001,-0.0000,2.4413,flat,18.0,0,3.581
3520,112.64,0.7097,3.1023,0.1797,-0.0001,-0.0000,2.4091,flat,18.0,0,3.023
3530,112.96,0.2947,3.4867,0.1797,-0.0001,0.0000,2.3754,flat,18.0,0,2.465
3540,113.28,-0.1061,3.8849,0.1797,-0.0001,0.0000,2.3395,flat,18.0,0,1.908
3550,113.60,-0.4894,4.2970,0.1797,-0.0001,0.0000,2.2962,flat,18.0,0,1.355
3560,113.92,-0.8494,4.7236,0.1797,-0.0002,0.0000,2.2336,flat,18.0,0,0.809
3570,114.24,-1.1526,5.1661,0.1799,-0.0000,-0.0000,2.0681,flat,18.0,1,2.208
3580,114.56,-1.3773,5.6298,0.1799,-0.0002,0.0001,1.9014,rough,15.5,1,1.777
3590,114.88,-1.5189,6.0866,0.1799,-0.0002,-0.0002,1.7539,flat,18.0,1,1.377
3600,115.20,-1.5920,6.6113,0.1799,-0.0000,0.0000,1.4891,flat,18.0,1,0.950
3610,115.52,-1.5346,7.0698,0.1798,0.0001,0.0001,1.2190,flat,18.0,2,8.274
3620,115.84,-1.3878,7.4083,0.1798,0.0002,0.0000,0.9335,flat,18.0,2,8.306
3630,116.16,-1.1442,7.6684,0.1799,-0.0000,-0.0000,0.6810,rough,15.5,2,8.230
3640,116.48,-0.8172,7.8958,0.1799,0.0000,-0.0001,0.4553,flat,18.0,2,8.083
3650,116.80,-0.3755,8.0789,0.1799,-0.0000,-0.0000,0.1888,flat,18.0,2,7.834
3660,117.12,0.1305,8.1522,0.1799,-0.0000,-0.0001,-0.0466,flat,18.0,2,7.487
3670,117.44,0.6602,8.1081,0.1799,-0.0001,-0.0000,-0.2276,flat,18.0,2,7.062
3680,117.76,1.1849,7.9679,0.1799,-0.0002,-0.0000,-0.3629,flat,18.0,2,6.588
3690,118.08,1.6923,7.7580,0.1798,-0.0004,-0.0000,-0.4639,flat,18.0,2,6.085
3700,118.40,2.1805,7.4975,0.1798,-0.0004,-0.0000,-0.5439,flat,18.0,2,5.565
3710,118.72,2.6500,7.1981,0.1797,-0.0002,-0.0000,-0.6092,flat,18.0,2,5.034
3720,119.04,3.1017,6.8682,0.1797,-0.0002,-0.0000,-0.6647,flat,18.0,2,4.495
3730,119.36,3.5362,6.5132,0.1797,-0.0002,-0.0000,-0.7141,flat,18.0,2,3.951
3740,119.68,3.9529,6.1368,0.1797,-0.0002,-0.0000,-0.7614,flat,18.0,2,3.405
3750,120.00,4.3515,5.7407,0.1797,-0.0002,-0.0000,-0.8073,flat,18.0,2,2.858
3760,120.32,4.7305,5.3267,0.1797,-0.0002,0.0000,-0.8551,flat,18.0,2,2.310
3770,120.64,5.0879,4.8963,0.1797,-0.0002,-0.0000,-0.9069,flat,18.0,2,1.765
3780,120.96,5.4218,4.4471,0.1797,-0.0002,0.0000,-0.9748,flat,18.0,2,1.223
3790,121.28,5.7169,3.9801,0.1798,-0.0003,-0.0001,-1.0344,flat,18.0,3,3.093
3800,121.60,6.0122,3.5055,0.1798,0.0001,-0.0000,-0.9784,flat,18.0,3,2.553
3810,121.92,6.2926,3.1025,0.1797,0.0001,0.0000,-0.9368,flat,18.0,3,2.079
3820,122.24,6.6330,2.6641,0.1797,0.0002,-0.0000,-0.8723,flat,18.0,3,1.545
3830,122.56,7.0009,2.2541,0.1798,0.0003,0.0000,-0.7897,flat,18.0,3,1.021
3840,122.88,7.3217,1.9547,0.1787,0.0001,-0.0066,-0.8436,flat,18.0,0,9.197
3850,123.20,7.4702,1.7434,0.1783,-0.0099,-0.0001,-1.3355,flat,18.0,0,9.416
3860,123.52,7.5363,1.4351,0.1798,0.0001,0.0001,-1.8599,flat,18.0,0,9.601
3870,123.84,7.4200,1.1377,0.1799,0.0000,-0.0001,-2.2385,flat,18.0,0,9.626
3880,124.16,7.1352,0.8563,0.1799,0.0000,-0.0001,-2.5220,flat,18.0,0,9.505
3890,124.48,6.7362,0.6175,0.1799,-0.0000,-0.0000,-2.7826,flat,18.0,0,9.281
3900,124.80,6.2555,0.4647,0.1799,-0.0001,-0.0000,-3.0166,flat,18.0,0,8.959
3910,125.12,5.7288,0.4200,0.1799,-0.0001,0.0000,3.0687,flat,18.0,0,8.553
3920,125.44,5.1882,0.4776,0.1799,-0.0001,-0.0000,2.9173,flat,18.0,0,8.087
3930,125.76,4.6549,0.6144,0.1798,-0.0004,-0.0000,2.8087,flat,18.0,0,7.586
3940,126.08,4.1349,0.8076,0.1798,-0.0004,-0.0000,2.7263,flat,18.0,0,7.065
3950,126.40,3.6289,1.0429,0.1797,-0.0002,-0.0000,2.6606,flat,18.0,0,6.531
3960,126.72,3.1367,1.3112,0.1797,-0.0002,-0.0000,2.6062,flat,18.0,0,5.989
3970,127.04,2.6578,1.6061,0.1797,-0.0002,-0.0000,2.5603,flat,18.0,0,5.440
3980,127.36,2.1919,1.9229,0.1797,-0.0001,-0.0000,2.5218,flat,18.0,0,4.889
3990,127.68,1.7375,2.2576,0.1797,-0.0001,-0.0000,2.4866,flat,18.0,0,4.334
4000,128.00,1.2945,2.6083,0.1797,-0.0001,-0.0000,2.4537,flat,18.0,0,3.777
4010,128.32,0.8628,2.9736,0.1797,-0.0001,-0.0000,2.4218,flat,18.0,0,3.220
4020,128.64,0.4428,3.3526,0.1797,-0.0001,-0.0000,2.3887,flat,18.0,0,2.662
4030,128.96,0.0363,3.7455,0.1797,-0.0001,0.0000,2.3540,flat,18.0,0,2.104
4040,129.28,-0.3544,4.1520,0.1797,-0.0001,0.0000,2.3142,flat,18.0,0,1.549
4050,129.60,-0.7239,4.5728,0.1797,-0.0002,0.0000,2.2615,flat,18.0,0,1.000
4060,129.92,-1.0498,5.0055,0.1799,0.0000,-0.0000,2.1280,flat,18.0,1,2.365
4070,130.24,-1.3059,5.4679,0.1799,-0.0001,0.0001,1.9561,rough,15.5,1,1.924
4080,130.56,-1.4711,5.9101,0.1799,-0.0003,0.0000,1.8115,rough,15.5,1,1.528
4090,130.88,-1.5788,6.4196,0.1799,-0.0000,-0.0000,1.5938,flat,18.0,1,1.103
4100,131.20,-1.5680,6.9244,0.1799,-0.0001,0.0003,1.3013,flat,18.0,2,8.238
4110,131.52,-1.4494,7.2947,0.1798,0.0001,0.0001,1.0384,flat,18.0,2,8.304
4120,131.84,-1.2359,7.5785,0.1799,0.0002,0.0001,0.7482,rough,15.5,2,8.261
4130,132.16,-0.9408,7.8122,0.1799,-0.0000,-0.0000,0.5357,flat,18.0,2,8.138
4140,132.48,-0.5357,8.0176,0.1799,0.0000,-0.0000,0.2777,flat,18.0,2,7.925
4150,132.80,-0.0472,8.1318,0.1799,0.0001,-0.0000,0.0286,flat,18.0,2,7.610
4160,133.12,0.4789,8.1266,0.1799,-0.0001,-0.0000,-0.1703,flat,18.0,2,7.208
4170,133.44,1.0075,8.0168,0.1799,-0.0001,-0.0000,-0.3203,flat,18.0,2,6.748
4180,133.76,1.5214,7.8286,0.1798,-0.0004,-0.0000,-0.4314,flat,18.0,2,6.253
4190,134.08,2.0164,7.5842,0.1798,-0.0004,-0.0000,-0.5176,flat,18.0,2,5.739
4200,134.40,2.4924,7.2975,0.1797,-0.0003,-0.0000,-0.5875,flat,18.0,2,5.211
4210,134.72,2.9504,6.9776,0.1797,-0.0002,-0.0000,-0.6459,flat,18.0,2,4.674
4220,135.04,3.3909,6.6309,0.1797,-0.0002,-0.0000,-0.6971,flat,18.0,2,4.132
4230,135.36,3.8140,6.2618,0.1797,-0.0002,-0.0000,-0.7448,flat,18.0,2,3.586
4240,135.68,4.2191,5.8725,0.1797,-0.0002,-0.0000,-0.7911,flat,18.0,2,3.039
4250,136.00,4.6052,5.4647,0.1797,-0.0002,0.0000,-0.8380,flat,18.0,2,2.491
4260,136.32,4.9704,5.0401,0.1797,-0.0002,0.0000,-0.8877,flat,18.0,2,1.945
4270,136.64,5.3132,4.5976,0.1797,-0.0002,-0.0000,-0.9490,flat,18.0,2,1.402
4280,136.96,5.6251,4.1362,0.1798,-0.0003,0.0000,-1.0363,flat,18.0,2,0.866
4290,137.28,5.9067,3.6593,0.1798,0.0001,-0.0000,-1.0064,flat,18.0,3,2.734
4300,137.60,6.1890,3.2303,0.1797,0.0001,0.0001,-0.9597,rough,15.5,3,2.240
4310,137.92,6.4997,2.8078,0.1797,0.0002,-0.0001,-0.9015,flat,18.0,3,1.736
4320,138.24,6.8553,2.3846,0.1798,0.0003,0.0000,-0.8251,flat,18.0,3,1.210
4330,138.56,7.2333,2.0110,0.1814,0.0003,0.0113,-0.7184,flat,18.0,0,9.094
4340,138.88,7.4047,1.8215,0.1799,0.0008,-0.0003,-1.1775,flat,18.0,0,9.325
4350,139.20,7.5126,1.5498,0.1797,-0.0009,0.0000,-1.6823,flat,18.0,0,9.532
4360,139.52,7.4639,1.2443,0.1798,0.0001,-0.0001,-2.1153,flat,18.0,0,9.618
4370,139.84,7.2342,0.9555,0.1799,0.0001,-0.0001,-2.4231,flat,18.0,0,9.545
4380,140.16,6.8729,0.6961,0.1799,0.0000,-0.0000,-2.6908,flat,18.0,0,9.358
4390,140.48,6.4179,0.5082,0.1799,-0.0000,-0.0000,-2.9357,flat,18.0,0,9.070
4400,140.80,5.9040,0.4235,0.1799,-0.0001,-0.0000,3.1337,flat,18.0,0,8.693
4410,141.12,5.3654,0.4470,0.1799,-0.0001,-0.0000,2.9656,flat,18.0,0,8.246
4420,141.44,4.8284,0.5587,0.1799,-0.0003,-0.0000,2.8432,flat,18.0,0,7.755
4430,141.76,4.3036,0.7341,0.1798,-0.0004,-0.0000,2.7527,flat,18.0,0,7.240
4440,142.08,3.7928,0.9561,0.1798,-0.0003,-0.0000,2.6816,flat,18.0,0,6.711
4450,142.40,3.2960,1.2139,0.1797,-0.0002,-0.0000,2.6236,flat,18.0,0,6.171
4460,142.72,2.8127,1.5003,0.1797,-0.0002,-0.0000,2.5746,flat,18.0,0,5.625
4470,143.04,2.3428,1.8104,0.1797,-0.0001,-0.0000,2.5339,flat,18.0,0,5.074
4480,143.36,1.8847,2.1395,0.1797,-0.0001,-0.0000,2.4975,flat,18.0,0,4.520
4490,143.68,1.4381,2.4853,0.1797,-0.0001,-0.0000,2.4639,flat,18.0,0,3.964
4500,144.00,1.0029,2.8462,0.1797,-0.0001,-0.0000,2.4317,flat,18.0,0,3.407
4510,144.32,0.5793,3.2210,0.1797,-0.0001,-0.0000,2.3990,flat,18.0,0,2.849
4520,144.64,0.1684,3.6096,0.1797,-0.0001,0.0000,2.3648,flat,18.0,0,2.291
4530,144.96,-0.2276,4.0119,0.1797,-0.0001,0.0000,2.3273,flat,18.0,0,1.735
4540,145.28,-0.6043,4.4282,0.1797,-0.0002,0.0000,2.2804,flat,18.0,0,1.184
4550,145.60,-0.9497,4.8565,0.1798,-0.0002,0.0000,2.1868,flat,18.0,1,2.514
4560,145.92,-1.2349,5.3134,0.1799,-0.0001,0.0000,2.0129,flat,18.0,1,2.068
4570,146.24,-1.4272,5.7616,0.1798,-0.0003,0.0000,1.8611,rough,15.5,1,1.659
4580,146.56,-1.5564,6.2473,0.1799,-0.0001,-0.0000,1.6782,flat,18.0,1,1.245
4590,146.88,-1.5889,6.7713,0.1799,-0.0000,0.0000,1.3964,flat,18.0,1,0.826
4600,147.20,-1.4990,7.1839,0.1798,0.0001,0.0001,1.1329,flat,18.0,2,8.295
4610,147.52,-1.3212,7.4936,0.1798,0.0002,-0.0001,0.8288,flat,18.0,2,8.291
4620,147.84,-1.0505,7.7386,0.1799,-0.0001,-0.0000,0.6095,rough,15.5,2,8.189
4630,148.16,-0.6796,7.9603,0.1799,0.0000,-0.0001,0.3581,flat,18.0,2,8.007
4640,148.48,-0.2101,8.1079,0.1799,-0.0000,-0.0000,0.1014,flat,18.0,2,7.722
4650,148.80,0.3088,8.1385,0.1799,-0.0000,-0.0000,-0.1164,flat,18.0,2,7.343
4660,149.12,0.8393,8.0575,0.1799,-0.0001,-0.0000,-0.2796,flat,18.0,2,6.897
4670,149.44,1.3587,7.8902,0.1799,-0.0003,-0.0000,-0.4007,flat,18.0,2,6.411
4680,149.76,1.8597,7.6612,0.1798,-0.0004,-0.0000,-0.4929,flat,18.0,2,5.901
4690,150.08,2.3415,7.3865,0.1798,-0.0003,-0.0000,-0.5672,flat,18.0,2,5.376
4700,150.40,2.8051,7.0761,0.1797,-0.0002,-0.0000,-0.6285,flat,18.0,2,4.841
4710,150.72,3.2511,6.7374,0.1797,-0.0002,-0.0000,-0.6816,flat,18.0,2,4.301
4720,151.04,3.6798,6.3750,0.1797,-0.0002,-0.0000,-0.7296,flat,18.0,2,3.756
4730,151.36,4.0907,5.9920,0.1797,-0.0002,-0.0000,-0.7762,flat,18.0,2,3.209
4740,151.68,4.4834,5.5900,0.1797,-0.0002,0.0000,-0.8222,flat,18.0,2,2.661
4750,152.00,4.8557,5.1706,0.1797,-0.0002,0.0000,-0.8707,flat,18.0,2,2.113
4760,152.32,5.2061,4.7346,0.1797,-0.0002,-0.0000,-0.9265,flat,18.0,2,1.569
4770,152.64,5.5302,4.2795,0.1798,-0.0003,0.0000,-1.0027,flat,18.0,2,1.030
4780,152.96,5.8153,3.8065,0.1798,-0.0002,-0.0001,-1.0199,flat,18.0,3,2.901
4790,153.28,6.1049,3.3539,0.1798,0.0001,0.0002,-0.9704,rough,15.5,3,2.383
4800,153.60,6.3967,2.9454,0.1797,0.0002,-0.0002,-0.9189,flat,18.0,3,1.900
4810,153.92,6.7449,2.5132,0.1797,0.0002,-0.0000,-0.8495,flat,18.0,3,1.370
4820,154.24,7.1214,2.1180,0.1798,0.0003,0.0000,-0.7507,flat,18.0,3,0.856
4830,154.56,7.3618,1.8905,0.1794,-0.0001,-0.0033,-1.0547,flat,18.0,0,9.258
4840,154.88,7.4896,1.6495,0.1791,-0.0043,0.0001,-1.5127,flat,18.0,0,9.471
4850,155.20,7.4983,1.3366,0.1799,0.0003,0.0000,-2.0051,flat,18.0,0,9.609
4860,155.52,7.3208,1.0442,0.1799,0.0001,-0.0001,-2.3402,flat,18.0,0,9.580
4870,155.84,6.9932,0.7729,0.1799,0.0000,-0.0000,-2.6118,flat,18.0,0,9.423
4880,156.16,6.5631,0.5589,0.1799,-0.0000,-0.0000,-2.8647,flat,18.0,0,9.165
4890,156.48,6.0630,0.4412,0.1799,-0.0000,-0.0000,-3.0888,flat,18.0,0,8.813
4900,156.80,5.5286,0.4330,0.1799,-0.0001,-0.0000,3.0102,flat,18.0,0,8.384
4910,157.12,4.9892,0.5209,0.1799,-0.0002,-0.0000,2.8761,flat,18.0,0,7.904
4920,157.44,4.4604,0.6791,0.1798,-0.0004,-0.0000,2.7778,flat,18.0,0,7.395
4930,157.76,3.9453,0.8882,0.1798,-0.0003,-0.0000,2.7017,flat,18.0,0,6.869
4940,158.08,3.4442,1.1360,0.1797,-0.0002,-0.0000,2.6403,flat,18.0,0,6.332
4950,158.40,2.9568,1.4143,0.1797,-0.0002,-0.0000,2.5888,flat,18.0,0,5.788
4960,158.72,2.4828,1.7176,0.1797,-0.0002,-0.0000,2.5458,flat,18.0,0,5.238
4970,159.04,2.0212,2.0412,0.1797,-0.0001,-0.0000,2.5084,flat,18.0,0,4.685
4980,159.36,1.5711,2.3820,0.1797,-0.0001,-0.0000,2.4741,flat,18.0,0,4.130
4990,159.68,1.1323,2.7383,0.1797,-0.0001,-0.0000,2.4416,flat,18.0,0,3.573
5000,160.00,0.7050,3.1088,0.1797,-0.0001,-0.0000,2.4093,flat,18.0,0,3.015
5010,160.32,0.2900,3.4932,0.1797,-0.0001,0.0000,2.3756,flat,18.0,0,2.457
5020,160.64,-0.1109,3.8913,0.1797,-0.0001,0.0000,2.3396,flat,18.0,0,1.900
5030,160.96,-0.4941,4.3032,0.1797,-0.0001,0.0000,2.2962,flat,18.0,0,1.347
5040,161.28,-0.8540,4.7299,0.1797,-0.0002,0.0000,2.2330,flat,18.0,0,0.802
5050,161.60,-1.1568,5.1725,0.1799,-0.0000,-0.0000,2.0669,flat,18.0,1,2.202
5060,161.92,-1.3809,5.6364,0.1799,-0.0002,0.0001,1.8997,rough,15.5,1,1.771
5070,162.24,-1.5228,6.0986,0.1799,-0.0001,-0.0002,1.7469,flat,18.0,1,1.367
5080,162.56,-1.5925,6.6247,0.1799,-0.0001,0.0000,1.4798,flat,18.0,1,0.940
5090,162.88,-1.5313,7.0795,0.1798,0.0001,0.0001,1.2058,flat,18.0,2,8.275
5100,163.20,-1.3801,7.4131,0.1798,0.0002,0.0000,0.9162,flat,18.0,2,8.301
5110,163.52,-1.1335,7.6700,0.1799,-0.0000,-0.0000,0.6743,rough,15.5,2,8.222
5120,163.84,-0.7996,7.8988,0.1799,0.0000,-0.0001,0.4412,flat,18.0,2,8.070
5130,164.16,-0.3530,8.0771,0.1799,-0.0001,-0.0000,0.1763,flat,18.0,2,7.815
5140,164.48,0.1548,8.1438,0.1799,-0.0001,0.0000,-0.0547,flat,18.0,2,7.463
5150,164.80,0.6852,8.0943,0.1799,-0.0001,-0.0000,-0.2345,flat,18.0,2,7.035
5160,165.12,1.2093,7.9501,0.1799,-0.0002,-0.0000,-0.3684,flat,18.0,2,6.558
5170,165.44,1.7159,7.7374,0.1798,-0.0004,-0.0000,-0.4679,flat,18.0,2,6.054
5180,165.76,2.2033,7.4749,0.1798,-0.0004,-0.0000,-0.5469,flat,18.0,2,5.533
5190,166.08,2.6721,7.1741,0.1797,-0.0002,-0.0000,-0.6116,flat,18.0,2,5.001
5200,166.40,3.1231,6.8431,0.1797,-0.0002,-0.0000,-0.6668,flat,18.0,2,4.462
5210,166.72,3.5569,6.4872,0.1797,-0.0002,-0.0000,-0.7159,flat,18.0,2,3.918
5220,167.04,3.9730,6.1100,0.1797,-0.0002,-0.0000,-0.7630,flat,18.0,2,3.372
5230,167.36,4.3710,5.7133,0.1797,-0.0002,-0.0000,-0.8088,flat,18.0,2,2.824
5240,167.68,4.7493,5.2987,0.1797,-0.0002,0.0000,-0.8567,flat,18.0,2,2.276
5250,168.00,5.1060,4.8678,0.1797,-0.0002,-0.0000,-0.9090,flat,18.0,2,1.731
5260,168.32,5.4388,4.4179,0.1797,-0.0002,0.0000,-0.9779,flat,18.0,2,1.189
5270,168.64,5.7317,3.9502,0.1798,-0.0003,-0.0001,-1.0394,flat,18.0,3,3.061
5280,168.96,6.0247,3.4746,0.1798,0.0001,-0.0000,-0.9821,rough,15.5,3,2.523
5290,169.28,6.2986,3.0770,0.1797,0.0001,0.0000,-0.9402,flat,18.0,3,2.058
5300,169.60,6.6376,2.6385,0.1797,0.0002,-0.0000,-0.8730,flat,18.0,3,1.527
5310,169.92,7.0049,2.2301,0.1798,0.0003,0.0000,-0.7858,flat,18.0,3,1.007
5320,170.24,7.3265,1.9338,0.1786,0.0001,-0.0071,-0.8378,flat,18.0,0,9.209
5330,170.56,7.4560,1.7313,0.1782,-0.0100,0.0001,-1.3602,flat,18.0,0,9.407
5340,170.88,7.5147,1.4263,0.1798,0.0002,0.0001,-1.8757,flat,18.0,0,9.586
5350,171.20,7.3919,1.1296,0.1799,0.0000,-0.0001,-2.2499,flat,18.0,0,9.605
5360,171.52,7.1023,0.8493,0.1799,0.0000,-0.0001,-2.5319,flat,18.0,0,9.480
5370,171.84,6.6999,0.6130,0.1799,-0.0000,-0.0000,-2.7919,flat,18.0,0,9.252
5380,172.16,6.2169,0.4641,0.1799,-0.0001,-0.0000,-3.0250,flat,18.0,0,8.927
5390,172.48,5.6894,0.4237,0.1799,-0.0001,0.0000,3.0612,flat,18.0,0,8.519
5400,172.80,5.1490,0.4852,0.1799,-0.0001,-0.0000,2.9116,flat,18.0,0,8.051
5410,173.12,4.6164,0.6250,0.1798,-0.0004,-0.0000,2.8043,flat,18.0,0,7.550
5420,173.44,4.0971,0.8205,0.1798,-0.0004,-0.0000,2.7226,flat,18.0,0,7.028
5430,173.76,3.5919,1.0577,0.1797,-0.0002,-0.0000,2.6573,flat,18.0,0,6.494
5440,174.08,3.1005,1.3276,0.1797,-0.0002,-0.0000,2.6032,flat,18.0,0,5.951
5450,174.40,2.6224,1.6240,0.1797,-0.0002,-0.0000,2.5576,flat,18.0,0,5.403
5460,174.72,2.1574,1.9420,0.1797,-0.0001,-0.0000,2.5191,flat,18.0,0,4.851
5470,175.04,1.7039,2.2779,0.1797,-0.0001,-0.0000,2.4840,flat,18.0,0,4.296
5480,175.36,1.2618,2.6298,0.1797,-0.0001,-0.0000,2.4511,flat,18.0,0,3.740
5490,175.68,0.8311,2.9963,0.1797,-0.0001,-0.0000,2.4190,flat,18.0,0,3.182
5500,176.00,0.4123,3.3765,0.1797,-0.0001,-0.0000,2.3857,flat,18.0,0,2.624
5510,176.32,0.0070,3.7706,0.1797,-0.0001,0.0000,2.3507,flat,18.0,0,2.067
5520,176.64,-0.3820,4.1784,0.1797,-0.0001,0.0000,2.3102,flat,18.0,0,1.512
5530,176.96,-0.7493,4.6005,0.1797,-0.0002,0.0000,2.2557,flat,18.0,0,0.964
5540,177.28,-1.0720,5.0352,0.1799,0.0000,-0.0000,2.1199,flat,18.0,1,2.335
5550,177.60,-1.3244,5.4994,0.1799,-0.0001,0.0001,1.9460,rough,15.5,1,1.895
5560,177.92,-1.4851,5.9430,0.1799,-0.0002,0.0000,1.7990,rough,15.5,1,1.501
5570,178.24,-1.5864,6.4532,0.1799,-0.0000,-0.0000,1.5758,flat,18.0,1,1.078
5580,178.56,-1.5663,6.9490,0.1799,0.0002,0.0001,1.2904,flat,18.0,2,8.248
5590,178.88,-1.4444,7.3154,0.1798,0.0002,0.0000,1.0259,flat,18.0,2,8.310
5600,179.20,-1.2346,7.5912,0.1799,0.0001,-0.0000,0.7600,rough,15.5,2,8.267
5610,179.52,-0.9402,7.8279,0.1799,0.0000,-0.0001,0.5405,flat,18.0,2,8.146
5620,179.84,-0.5284,8.0368,0.1799,-0.0000,-0.0000,0.2703,flat,18.0,2,7.930
5630,180.16,-0.0386,8.1474,0.1799,-0.0000,-0.0000,0.0232,flat,18.0,2,7.614
5640,180.48,0.4872,8.1384,0.1799,-0.0001,-0.0000,-0.1776,flat,18.0,2,7.210
5650,180.80,1.0154,8.0248,0.1799,-0.0001,-0.0000,-0.3255,flat,18.0,2,6.748
5660,181.12,1.5286,7.8339,0.1798,-0.0004,-0.0000,-0.4353,flat,18.0,2,6.252
5670,181.44,2.0229,7.5876,0.1798,-0.0004,-0.0000,-0.5207,flat,18.0,2,5.737
5680,181.76,2.4981,7.2994,0.1797,-0.0003,-0.0000,-0.5901,flat,18.0,2,5.208
5690,182.08,2.9554,6.9783,0.1797,-0.0002,-0.0000,-0.6481,flat,18.0,2,4.672
5700,182.40,3.3952,6.6307,0.1797,-0.0002,-0.0000,-0.6991,flat,18.0,2,4.129
5710,182.72,3.8176,6.2607,0.1797,-0.0002,-0.0000,-0.7465,flat,18.0,2,3.584
5720,183.04,4.2221,5.8707,0.1797,-0.0002,-0.0000,-0.7925,flat,18.0,2,3.036
5730,183.36,4.6078,5.4623,0.1797,-0.0002,0.0000,-0.8393,flat,18.0,2,2.488
5740,183.68,4.9724,5.0372,0.1797,-0.0002,0.0000,-0.8887,flat,18.0,2,1.942
5750,184.00,5.3148,4.5944,0.1797,-0.0002,-0.0000,-0.9500,flat,18.0,2,1.398
5760,184.32,5.6264,4.1327,0.1798,-0.0003,0.0000,-1.0372,flat,18.0,2,0.863
5770,184.64,5.9075,3.6556,0.1798,0.0001,-0.0000,-1.0071,flat,18.0,3,2.731
5780,184.96,6.1895,3.2265,0.1797,0.0001,0.0001,-0.9601,rough,15.5,3,2.237
5790,185.28,6.5049,2.7980,0.1797,0.0002,-0.0001,-0.9002,flat,18.0,3,1.726
5800,185.60,6.8611,2.3759,0.1798,0.0003,0.0000,-0.8225,flat,18.0,3,1.201
5810,185.92,7.2286,2.0136,0.1797,0.0003,0.0001,-0.7292,flat,18.0,0,9.088
5820,186.24,7.3998,1.8164,0.1799,-0.0022,0.0038,-1.1886,flat,18.0,0,9.322
5830,186.56,7.4968,1.5023,0.1795,0.0005,-0.0018,-1.7159,flat,18.0,0,9.538
5840,186.88,7.4366,1.1975,0.1799,0.0001,-0.0001,-2.1394,flat,18.0,0,9.614
5850,187.20,7.1968,0.9105,0.1799,0.0000,-0.0001,-2.4415,flat,18.0,0,9.533
5860,187.52,6.8287,0.6548,0.1799,-0.0000,-0.0000,-2.7087,flat,18.0,0,9.341
5870,187.84,6.3689,0.4737,0.1799,-0.0000,-0.0000,-2.9525,flat,18.0,0,9.048
5880,188.16,5.8525,0.3972,0.1799,-0.0001,-0.0000,3.1190,flat,18.0,0,8.667
5890,188.48,5.3136,0.4284,0.1799,-0.0001,-0.0000,2.9538,flat,18.0,0,8.216
5900,188.80,4.7777,0.5464,0.1799,-0.0003,-0.0000,2.8339,flat,18.0,0,7.724
5910,189.12,4.2544,0.7266,0.1798,-0.0004,-0.0000,2.7448,flat,18.0,0,7.208
5920,189.44,3.7452,0.9526,0.1798,-0.0003,-0.0000,2.6746,flat,18.0,0,6.678
5930,189.76,3.2501,1.2140,0.1797,-0.0002,-0.0000,2.6171,flat,18.0,0,6.138
5940,190.08,2.7686,1.5035,0.1797,-0.0002,-0.0000,2.5685,flat,18.0,0,5.591
5950,190.40,2.3005,1.8165,0.1797,-0.0001,-0.0000,2.5282,flat,18.0,0,5.040
5960,190.72,1.8443,2.1482,0.1797,-0.0001,-0.0000,2.4920,flat,18.0,0,4.487
5970,191.04,1.3996,2.4965,0.1797,-0.0001,-0.0000,2.4584,flat,18.0,0,3.931
5980,191.36,0.9664,2.8597,0.1797,-0.0001,-0.0000,2.4262,flat,18.0,0,3.374
5990,191.68,0.5448,3.2369,0.1797,-0.0001,-0.0000,2.3932,flat,18.0,0,2.816
6000,192.00,0.1363,3.6279,0.1797,-0.0001,0.0000,2.3590,flat,18.0,0,2.258
6010,192.32,-0.2571,4.0325,0.1797,-0.0001,0.0000,2.3209,flat,18.0,0,1.702
6020,192.64,-0.6307,4.4511,0.1797,-0.0002,0.0000,2.2731,flat,18.0,0,1.151
6030,192.96,-0.9701,4.8813,0.1798,-0.0001,-0.0000,2.1710,flat,18.0,1,2.489
6040,193.28,-1.2497,5.3431,0.1799,-0.0001,-0.0000,1.9964,flat,18.0,1,2.040
6050,193.60,-1.4336,5.7876,0.1798,-0.0003,0.0000,1.8500,rough,15.5,1,1.636
6060,193.92,-1.5577,6.2746,0.1799,-0.0001,-0.0000,1.6659,flat,18.0,1,1.220
6070,194.24,-1.5835,6.7979,0.1799,-0.0000,0.0000,1.3821,flat,18.0,1,0.803
6080,194.56,-1.4882,7.2026,0.1798,0.0001,0.0001,1.1104,flat,18.0,2,8.294
6090,194.88,-1.3028,7.5047,0.1798,0.0001,0.0001,0.8176,rough,15.5,2,8.281
6100,195.20,-1.0313,7.7469,0.1799,-0.0000,-0.0000,0.6035,rough,15.5,2,8.177
6110,195.52,-0.6648,7.9647,0.1799,0.0000,-0.0001,0.3614,flat,18.0,2,7.998
6120,195.84,-0.1965,8.1131,0.1799,-0.0001,-0.0000,0.1047,flat,18.0,2,7.714
6130,196.16,0.3221,8.1446,0.1799,-0.0001,0.0000,-0.1121,flat,18.0,2,7.337
6140,196.48,0.8525,8.0650,0.1799,-0.0001,-0.0000,-0.2789,flat,18.0,2,6.893
6150,196.80,1.3717,7.8979,0.1799,-0.0003,-0.0000,-0.4009,flat,18.0,2,6.407
6160,197.12,1.8725,7.6688,0.1798,-0.0004,-0.0000,-0.4937,flat,18.0,2,5.898
6170,197.44,2.3540,7.3937,0.1798,-0.0003,-0.0000,-0.5683,flat,18.0,2,5.373
6180,197.76,2.8172,7.0828,0.1797,-0.0002,-0.0000,-0.6295,flat,18.0,2,4.839
6190,198.08,3.2628,6.7436,0.1797,-0.0002,-0.0000,-0.6826,flat,18.0,2,4.299
6200,198.40,3.6911,6.3807,0.1797,-0.0002,-0.0000,-0.7309,flat,18.0,2,3.754
6210,198.72,4.1014,5.9972,0.1797,-0.0002,-0.0000,-0.7779,flat,18.0,2,3.207
6220,199.04,4.4931,5.5946,0.1797,-0.0002,0.0000,-0.8244,flat,18.0,2,2.660
6230,199.36,4.8643,5.1745,0.1797,-0.0002,0.0000,-0.8733,flat,18.0,2,2.113
6240,199.68,5.2135,4.7374,0.1797,-0.0002,-0.0000,-0.9299,flat,18.0,2,1.569
6250,200.00,5.5360,4.2812,0.1798,-0.0003,0.0000,-1.0068,flat,18.0,2,1.030
6260,200.32,5.8190,3.8071,0.1798,-0.0002,-0.0001,-1.0242,flat,18.0,3,2.899
6270,200.64,6.1022,3.3595,0.1798,0.0001,0.0001,-0.9757,rough,15.5,3,2.389
6280,200.96,6.3918,2.9499,0.1797,0.0002,-0.0002,-0.9230,flat,18.0,3,1.907
6290,201.28,6.7382,2.5165,0.1797,0.0002,-0.0000,-0.8532,flat,18.0,3,1.377
6300,201.60,7.1131,2.1201,0.1798,0.0003,0.0000,-0.7536,flat,18.0,3,0.865
6310,201.92,7.3524,1.8920,0.1794,-0.0001,-0.0034,-1.0580,flat,18.0,0,9.249
6320,202.24,7.4796,1.6505,0.1791,-0.0043,0.0001,-1.5157,flat,18.0,0,9.461
6330,202.56,7.4872,1.3376,0.1799,0.0003,0.0000,-2.0074,flat,18.0,0,9.598
6340,202.88,7.3088,1.0453,0.1799,0.0001,-0.0001,-2.3419,flat,18.0,0,9.569
6350,203.20,6.9805,0.7742,0.1799,0.0000,-0.0000,-2.6134,flat,18.0,0,9.411
6360,203.52,6.5499,0.5607,0.1799,-0.0000,-0.0000,-2.8663,flat,18.0,0,9.153
6370,203.84,6.0495,0.4437,0.1799,-0.0000,-0.0000,-3.0903,flat,18.0,0,8.801
6380,204.16,5.5150,0.4363,0.1799,-0.0001,-0.0000,3.0090,flat,18.0,0,8.372
6390,204.48,4.9757,0.5248,0.1799,-0.0002,-0.0000,2.8751,flat,18.0,0,7.891
6400,204.80,4.4470,0.6836,0.1798,-0.0004,-0.0000,2.7769,flat,18.0,0,7.382
6410,205.12,3.9321,0.8932,0.1798,-0.0003,-0.0000,2.7009,flat,18.0,0,6.856
6420,205.44,3.4313,1.1413,0.1797,-0.0002,-0.0000,2.6395,flat,18.0,0,6.319
6430,205.76,2.9440,1.4200,0.1797,-0.0002,-0.0000,2.5881,flat,18.0,0,5.775
6440,206.08,2.4703,1.7237,0.1797,-0.0002,-0.0000,2.5450,flat,18.0,0,5.225
6450,206.40,2.0090,2.0476,0.1797,-0.0001,-0.0000,2.5076,flat,18.0,0,4.672
6460,206.72,1.5591,2.3888,0.1797,-0.0001,-0.0000,2.4732,flat,18.0,0,4.117
6470,207.04,1.1207,2.7456,0.1797,-0.0001,-0.0000,2.4407,flat,18.0,0,3.560
6480,207.36,0.6938,3.1165,0.1797,-0.0001,-0.0000,2.4083,flat,18.0,0,3.002
6490,207.68,0.2792,3.5012,0.1797,-0.0001,0.0000,2.3745,flat,18.0,0,2.444
6500,208.00,-0.1211,3.8998,0.1797,-0.0001,0.0000,2.3383,flat,18.0,0,1.888
6510,208.32,-0.5037,4.3122,0.1797,-0.0001,0.0000,2.2945,flat,18.0,0,1.334
6520,208.64,-0.8627,4.7394,0.1797,-0.0002,0.0000,2.2304,flat,18.0,1,2.635
6530,208.96,-1.1613,5.1836,0.1799,-0.0001,0.0000,2.0574,flat,18.0,1,2.191
6540,209.28,-1.3792,5.6433,0.1799,-0.0002,0.0001,1.8964,rough,15.5,1,1.764
6550,209.60,-1.5197,6.1061,0.1799,-0.0001,-0.0002,1.7444,flat,18.0,1,1.359
6560,209.92,-1.5882,6.6324,0.1799,-0.0001,0.0000,1.4776,flat,18.0,1,0.931
6570,210.24,-1.5260,7.0862,0.1798,0.0001,0.0001,1.2021,flat,18.0,2,8.274
6580,210.56,-1.3735,7.4185,0.1798,0.0002,0.0000,0.9118,flat,18.0,2,8.298
6590,210.88,-1.1181,7.6791,0.1799,0.0000,-0.0000,0.6548,rough,15.5,2,8.214
6600,211.20,-0.7606,7.9120,0.1799,0.0000,-0.0000,0.3979,flat,18.0,2,8.045
6610,211.52,-0.3011,8.0749,0.1799,-0.0001,-0.0000,0.1384,flat,18.0,2,7.773
6620,211.84,0.2135,8.1233,0.1799,-0.0001,0.0000,-0.0842,flat,18.0,2,7.405
6630,212.16,0.7446,8.0584,0.1799,-0.0001,-0.0000,-0.2561,flat,18.0,2,6.967
6640,212.48,1.2670,7.9032,0.1799,-0.0003,-0.0000,-0.3828,flat,18.0,2,6.484
6650,212.80,1.7714,7.6832,0.1798,-0.0004,-0.0000,-0.4782,flat,18.0,2,5.976
6660,213.12,2.2568,7.4158,0.1798,-0.0003,-0.0000,-0.5545,flat,18.0,2,5.453
6670,213.44,2.7238,7.1114,0.1797,-0.0002,-0.0000,-0.6175,flat,18.0,2,4.920
6680,213.76,3.1731,6.7776,0.1797,-0.0002,-0.0000,-0.6719,flat,18.0,2,4.380
6690,214.08,3.6052,6.4194,0.1797,-0.0002,-0.0000,-0.7204,flat,18.0,2,3.835
6700,214.40,4.0198,6.0403,0.1797,-0.0002,-0.0000,-0.7668,flat,18.0,2,3.288
6710,214.72,4.4165,5.6420,0.1797,-0.0002,-0.0000,-0.8122,flat,18.0,2,2.739
6720,215.04,4.7934,5.2262,0.1797,-0.0002,0.0000,-0.8599,flat,18.0,2,2.192
6730,215.36,5.1487,4.7941,0.1797,-0.0002,-0.0000,-0.9132,flat,18.0,2,1.647
6740,215.68,5.4792,4.3431,0.1797,-0.0003,0.0000,-0.9848,flat,18.0,2,1.106
6750,216.00,5.7713,3.8741,0.1798,-0.0002,-0.0001,-1.0158,flat,18.0,3,2.980
6760,216.32,6.0672,3.4162,0.1798,0.0001,0.0002,-0.9656,rough,15.5,3,2.453
6770,216.64,6.3612,3.0076,0.1797,0.0001,-0.0002,-0.9180,flat,18.0,3,1.966
6780,216.96,6.7099,2.5741,0.1797,0.0002,-0.0000,-0.8531,flat,18.0,3,1.432
6790,217.28,7.0854,2.1739,0.1798,0.0003,0.0000,-0.7643,flat,18.0,3,0.911
6800,217.60,7.3542,1.9265,0.1792,-0.0002,-0.0034,-1.0047,flat,18.0,0,9.237
6810,217.92,7.4829,1.6942,0.1789,-0.0058,0.0001,-1.4579,flat,18.0,0,9.447
6820,218.24,7.5097,1.3827,0.1798,0.0001,0.0000,-1.9591,flat,18.0,0,9.599
6830,218.56,7.3512,1.0885,0.1799,0.0001,-0.0001,-2.3091,flat,18.0,0,9.587
6840,218.88,7.0360,0.8136,0.1799,0.0000,-0.0001,-2.5836,flat,18.0,0,9.440
6850,219.20,6.6152,0.5910,0.1799,-0.0000,-0.0000,-2.8388,flat,18.0,0,9.192
6860,219.52,6.1207,0.4619,0.1799,-0.0001,-0.0000,-3.0657,flat,18.0,0,8.849
6870,219.84,5.5883,0.4422,0.1799,-0.0001,0.0000,3.0298,flat,18.0,0,8.427
6880,220.16,5.0482,0.5203,0.1799,-0.0002,-0.0000,2.8892,flat,18.0,0,7.951
6890,220.48,4.5178,0.6717,0.1798,-0.0004,-0.0000,2.7880,flat,18.0,0,7.444
6900,220.80,4.0010,0.8756,0.1798,-0.0003,-0.0000,2.7101,flat,18.0,0,6.920
6910,221.12,3.4981,1.1191,0.1797,-0.0002,-0.0000,2.6474,flat,18.0,0,6.383
6920,221.44,3.0089,1.3939,0.1797,-0.0002,-0.0000,2.5951,flat,18.0,0,5.839
6930,221.76,2.5331,1.6942,0.1797,-0.0002,-0.0000,2.5512,flat,18.0,0,5.290
6940,222.08,2.0699,2.0153,0.1797,-0.0001,-0.0000,2.5135,flat,18.0,0,4.738
6950,222.40,1.6182,2.3538,0.1797,-0.0001,-0.0000,2.4788,flat,18.0,0,4.182
6960,222.72,1.1778,2.7080,0.1797,-0.0001,-0.0000,2.4462,flat,18.0,0,3.626
6970,223.04,0.7488,3.0766,0.1797,-0.0001,-0.0000,2.4141,flat,18.0,0,3.068
6980,223.36,0.3319,3.4589,0.1797,-0.0001,0.0000,2.3805,flat,18.0,0,2.510
6990,223.68,-0.0710,3.8550,0.1797,-0.0001,0.0000,2.3448,flat,18.0,0,1.953
7000,224.00,-0.4569,4.2650,0.1797,-0.0001,0.0000,2.3024,flat,18.0,0,1.399
7010,224.32,-0.8200,4.6896,0.1797,-0.0002,0.0000,2.2424,flat,18.0,0,0.853
7020,224.64,-1.1275,5.1293,0.1799,-0.0000,-0.0000,2.0788,flat,18.0,1,2.243
7030,224.96,-1.3597,5.5973,0.1799,-0.0001,0.0001,1.9098,rough,15.5,1,1.805
7040,225.28,-1.5052,6.0533,0.1799,-0.0002,-0.0002,1.7662,flat,18.0,1,1.403
7050,225.60,-1.5852,6.5784,0.1799,-0.0000,0.0000,1.5074,flat,18.0,1,0.973
7060,225.92,-1.5349,7.0469,0.1799,0.0003,0.0001,1.2292,flat,18.0,2,8.264
7070,226.24,-1.3920,7.3889,0.1798,0.0002,0.0000,0.9467,flat,18.0,2,8.300
7080,226.56,-1.1473,7.6554,0.1799,0.0000,0.0000,0.6794,rough,15.5,2,8.226
7090,226.88,-0.8194,7.8827,0.1799,0.0000,-0.0001,0.4539,flat,18.0,2,8.077
7100,227.20,-0.3769,8.0654,0.1799,-0.0000,-0.0000,0.1879,flat,18.0,2,7.827
7110,227.52,0.1294,8.1384,0.1799,-0.0000,-0.0001,-0.0469,flat,18.0,2,7.479
7120,227.84,0.6593,8.0941,0.1799,-0.0001,-0.0000,-0.2276,flat,18.0,2,7.053
7130,228.16,1.1841,7.9539,0.1799,-0.0002,-0.0000,-0.3624,flat,18.0,2,6.578
7140,228.48,1.6917,7.7443,0.1798,-0.0004,-0.0000,-0.4632,flat,18.0,2,6.075
7150,228.80,2.1802,7.4841,0.1798,-0.0004,-0.0000,-0.5430,flat,18.0,2,5.555
7160,229.12,2.6500,7.1852,0.1797,-0.0002,-0.0000,-0.6083,flat,18.0,2,5.024
7170,229.44,3.1020,6.8557,0.1797,-0.0002,-0.0000,-0.6639,flat,18.0,2,4.485
7180,229.76,3.5367,6.5010,0.1797,-0.0002,-0.0000,-0.7133,flat,18.0,2,3.941
7190,230.08,3.9538,6.1249,0.1797,-0.0002,-0.0000,-0.7604,flat,18.0,2,3.395
7200,230.40,4.3529,5.7292,0.1797,-0.0002,-0.0000,-0.8063,flat,18.0,2,2.847
7210,230.72,4.7323,5.3156,0.1797,-0.0002,0.0000,-0.8540,flat,18.0,2,2.299
7220,231.04,5.0902,4.8857,0.1797,-0.0002,-0.0000,-0.9058,flat,18.0,2,1.754
7230,231.36,5.4245,4.4369,0.1797,-0.0002,0.0000,-0.9737,flat,18.0,2,1.212
7240,231.68,5.7199,3.9702,0.1798,-0.0003,-0.0001,-1.0339,flat,18.0,3,3.084
7250,232.00,6.0155,3.4959,0.1798,0.0001,-0.0000,-0.9777,rough,15.5,3,2.544
7260,232.32,6.2913,3.0990,0.1797,0.0001,0.0000,-0.9374,flat,18.0,3,2.077
7270,232.64,6.6315,2.6606,0.1797,0.0002,-0.0000,-0.8722,flat,18.0,3,1.544
7280,232.96,6.9994,2.2510,0.1798,0.0003,0.0000,-0.7889,flat,18.0,3,1.021
7290,233.28,7.3204,1.9521,0.1787,0.0001,-0.0067,-0.8425,flat,18.0,0,9.196
7300,233.60,7.4692,1.7409,0.1783,-0.0099,-0.0001,-1.3348,flat,18.0,0,9.416
7310,233.92,7.5354,1.4325,0.1798,0.0001,0.0001,-1.8596,flat,18.0,0,9.602
7320,234.24,7.4193,1.1352,0.1799,0.0000,-0.0001,-2.2383,flat,18.0,0,9.626
7330,234.56,7.1346,0.8538,0.1799,0.0000,-0.0001,-2.5219,flat,18.0,0,9.506
7340,234.88,6.7357,0.6150,0.1799,-0.0000,-0.0000,-2.7825,flat,18.0,0,9.282
7350,235.20,6.2551,0.4622,0.1799,-0.0001,-0.0000,-3.0166,flat,18.0,0,8.960
7360,235.52,5.7284,0.4175,0.1799,-0.0001,0.0000,3.0686,flat,18.0,0,8.554
7370,235.84,5.1878,0.4752,0.1799,-0.0001,-0.0000,2.9172,flat,18.0,0,8.088
7380,236.16,4.6546,0.6120,0.1798,-0.0004,-0.0000,2.8086,flat,18.0,0,7.587
7390,236.48,4.1347,0.8053,0.1798,-0.0004,-0.0000,2.7261,flat,18.0,0,7.066
7400,236.80,3.6287,1.0408,0.1797,-0.0002,-0.0000,2.6604,flat,18.0,0,6.532
7410,237.12,3.1365,1.3091,0.1797,-0.0002,-0.0000,2.6060,flat,18.0,0,5.990
7420,237.44,2.6577,1.6041,0.1797,-0.0002,-0.0000,2.5601,flat,18.0,0,5.442
7430,237.76,2.1919,1.9210,0.1797,-0.0001,-0.0000,2.5215,flat,18.0,0,4.890
7440,238.08,1.7376,2.2558,0.1797,-0.0001,-0.0000,2.4864,flat,18.0,0,4.335
7450,238.40,1.2946,2.6066,0.1797,-0.0001,-0.0000,2.4535,flat,18.0,0,3.779
7460,238.72,0.8630,2.9720,0.1797,-0.0001,-0.0000,2.4215,flat,18.0,0,3.221
7470,239.04,0.4432,3.3512,0.1797,-0.0001,-0.0000,2.3885,flat,18.0,0,2.663
7480,239.36,0.0367,3.7441,0.1797,-0.0001,0.0000,2.3537,flat,18.0,0,2.105
7490,239.68,-0.3539,4.1508,0.1797,-0.0001,0.0000,2.3140,flat,18.0,0,1.550
7500,240.00,-0.7233,4.5716,0.1797,-0.0002,0.0000,2.2613,flat,18.0,0,1.001
7510,240.32,-1.0492,5.0044,0.1799,0.0000,-0.0000,2.1279,flat,18.0,1,2.366
7520,240.64,-1.3053,5.4668,0.1799,-0.0001,0.0001,1.9561,rough,15.5,1,1.925
7530,240.96,-1.4705,5.9090,0.1798,-0.0003,0.0000,1.8118,rough,15.5,1,1.529
7540,241.28,-1.5784,6.4185,0.1799,-0.0000,-0.0000,1.5943,flat,18.0,1,1.103
7550,241.60,-1.5678,6.9235,0.1799,-0.0001,0.0003,1.3021,flat,18.0,2,8.238
7560,241.92,-1.4495,7.2942,0.1798,0.0002,0.0001,1.0394,flat,18.0,2,8.304
7570,242.24,-1.2390,7.5763,0.1799,0.0002,-0.0000,0.7584,rough,15.5,2,8.263
7580,242.56,-0.9461,7.8118,0.1799,0.0000,-0.0001,0.5431,flat,18.0,2,8.142
7590,242.88,-0.5385,8.0206,0.1799,-0.0000,-0.0000,0.2779,flat,18.0,2,7.929
7600,243.20,-0.0502,8.1344,0.1799,-0.0001,-0.0000,0.0312,flat,18.0,2,7.614
7610,243.52,0.4757,8.1289,0.1799,-0.0001,0.0000,-0.1690,flat,18.0,2,7.212
7620,243.84,1.0045,8.0190,0.1799,-0.0001,-0.0000,-0.3208,flat,18.0,2,6.752
7630,244.16,1.5183,7.8306,0.1798,-0.0004,-0.0000,-0.4317,flat,18.0,2,6.257
7640,244.48,2.0133,7.5861,0.1798,-0.0004,-0.0000,-0.5178,flat,18.0,2,5.742
7650,244.80,2.4893,7.2993,0.1797,-0.0003,-0.0000,-0.5876,flat,18.0,2,5.214
7660,245.12,2.9473,6.9793,0.1797,-0.0002,-0.0000,-0.6459,flat,18.0,2,4.677
7670,245.44,3.3878,6.6327,0.1797,-0.0002,-0.0000,-0.6971,flat,18.0,2,4.135
7680,245.76,3.8109,6.2636,0.1797,-0.0002,-0.0000,-0.7447,flat,18.0,2,3.590
7690,246.08,4.2161,5.8743,0.1797,-0.0002,-0.0000,-0.7909,flat,18.0,2,3.042
7700,246.40,4.6023,5.4666,0.1797,-0.0002,0.0000,-0.8377,flat,18.0,2,2.494
7710,246.72,4.9676,5.0420,0.1797,-0.0002,0.0000,-0.8873,flat,18.0,2,1.948
7720,247.04,5.3106,4.5997,0.1797,-0.0002,-0.0000,-0.9484,flat,18.0,2,1.404
7730,247.36,5.6229,4.1385,0.1798,-0.0003,0.0000,-1.0353,flat,18.0,2,0.869
7740,247.68,5.9050,3.6618,0.1798,0.0001,-0.0000,-1.0056,flat,18.0,3,2.737
7750,248.00,6.1877,3.2329,0.1797,0.0001,0.0001,-0.9591,rough,15.5,3,2.242
7760,248.32,6.4986,2.8106,0.1797,0.0002,-0.0001,-0.9012,flat,18.0,3,1.739
7770,248.64,6.8544,2.3874,0.1798,0.0003,0.0000,-0.8251,flat,18.0,3,1.212
7780,248.96,7.2324,2.0134,0.1814,0.0003,0.0113,-0.7191,flat,18.0,0,9.092
7790,249.28,7.4038,1.8236,0.1799,0.0007,-0.0002,-1.1777,flat,18.0,0,9.323
7800,249.60,7.5116,1.5520,0.1797,-0.0009,0.0000,-1.6823,flat,18.0,0,9.531
7810,249.92,7.4630,1.2465,0.1798,0.0001,-0.0001,-2.1152,flat,18.0,0,9.616
7820,250.24,7.2333,0.9576,0.1799,0.0001,-0.0001,-2.4231,flat,18.0,0,9.543
7830,250.56,6.8719,0.6982,0.1799,0.0000,-0.0000,-2.6907,flat,18.0,0,9.356
7840,250.88,6.4169,0.5103,0.1799,-0.0000,-0.0000,-2.9356,flat,18.0,0,9.068
7850,251.20,5.9030,0.4256,0.1799,-0.0001,-0.0000,3.1338,flat,18.0,0,8.691
7860,251.52,5.3645,0.4490,0.1799,-0.0001,-0.0000,2.9657,flat,18.0,0,8.244
7870,251.84,4.8274,0.5607,0.1799,-0.0003,-0.0000,2.8433,flat,18.0,0,7.753
7880,252.16,4.3026,0.7360,0.1798,-0.0004,-0.0000,2.7528,flat,18.0,0,7.239
7890,252.48,3.7918,0.9579,0.1798,-0.0003,-0.0000,2.6817,flat,18.0,0,6.709
7900,252.80,3.2950,1.2157,0.1797,-0.0002,-0.0000,2.6236,flat,18.0,0,6.169
7910,253.12,2.8116,1.5021,0.1797,-0.0002,-0.0000,2.5746,flat,18.0,0,5.623
7920,253.44,2.3417,1.8121,0.1797,-0.0001,-0.0000,2.5340,flat,18.0,0,5.072
7930,253.76,1.8836,2.1412,0.1797,-0.0001,-0.0000,2.4976,flat,18.0,0,4.518
7940,254.08,1.4370,2.4869,0.1797,-0.0001,-0.0000,2.4639,flat,18.0,0,3.962
7950,254.40,1.0017,2.8478,0.1797,-0.0001,-0.0000,2.4318,flat,18.0,0,3.405
7960,254.72,0.5781,3.2225,0.1797,-0.0001,-0.0000,2.3991,flat,18.0,0,2.847
7970,255.04,0.1672,3.6111,0.1797,-0.0001,0.0000,2.3649,flat,18.0,0,2.290
7980,255.36,-0.2288,4.0134,0.1797,-0.0001,0.0000,2.3273,flat,18.0,0,1.733
7990,255.68,-0.6055,4.4297,0.1797,-0.0002,0.0000,2.2804,flat,18.0,0,1.182
8000,256.00,-0.9508,4.8580,0.1798,-0.0002,0.0000,2.1865,flat,18.0,1,2.513
8010,256.32,-1.2359,5.3150,0.1799,-0.0001,0.0000,2.0126,flat,18.0,1,2.066
8020,256.64,-1.4280,5.7633,0.1798,-0.0003,0.0000,1.8606,rough,15.5,1,1.658
8030,256.96,-1.5555,6.2424,0.1799,-0.0001,-0.0000,1.6839,flat,18.0,1,1.249
8040,257.28,-1.5907,6.7662,0.1799,-0.0001,0.0000,1.4007,flat,18.0,1,0.831
8050,257.60,-1.5025,7.1810,0.1798,0.0001,0.0001,1.1392,flat,18.0,2,8.297
8060,257.92,-1.3287,7.4905,0.1798,0.0001,0.0001,0.8487,rough,15.5,2,8.296
8070,258.24,-1.0688,7.7354,0.1799,-0.0000,-0.0000,0.6318,rough,15.5,2,8.203
8080,258.56,-0.7051,7.9623,0.1799,0.0000,-0.0001,0.3772,flat,18.0,2,8.029
8090,258.88,-0.2409,8.1171,0.1799,-0.0000,-0.0000,0.1183,flat,18.0,2,7.752
8100,259.20,0.2751,8.1560,0.1799,-0.0000,-0.0000,-0.1051,flat,18.0,2,7.380
8110,259.52,0.8054,8.0810,0.1799,-0.0001,-0.0000,-0.2715,flat,18.0,2,6.938
8120,259.84,1.3256,7.9178,0.1799,-0.0003,-0.0000,-0.3951,flat,18.0,2,6.453
8130,260.16,1.8275,7.6917,0.1798,-0.0004,-0.0000,-0.4888,flat,18.0,2,5.945
