step,time_s,x,y,z,roll,pitch,yaw,terrain,speed,target_idx,dist_to_target
10,0.32,1.0708,-0.7750,0.1853,-0.0000,-0.0449,-0.0000,rough,15.5,0,5.683
20,0.64,1.5367,-0.7860,0.1798,-0.0000,-0.0005,-0.1476,flat,18.0,0,5.334
30,0.96,2.0595,-0.8855,0.1799,-0.0001,-0.0000,-0.3261,flat,18.0,0,4.900
40,1.28,2.5650,-1.0778,0.1799,-0.0002,-0.0000,-0.4597,flat,18.0,0,4.425
50,1.60,3.0458,-1.3368,0.1798,-0.0004,-0.0000,-0.5647,flat,18.0,0,3.927
60,1.92,3.5036,-1.6466,0.1798,-0.0003,-0.0000,-0.6431,flat,18.0,0,3.413
70,2.24,3.9372,-1.9914,0.1797,-0.0003,-0.0000,-0.7159,flat,18.0,0,2.894
80,2.56,4.3417,-2.3676,0.1798,-0.0003,0.0000,-0.7930,flat,18.0,0,2.375
90,2.88,4.7145,-2.7744,0.1798,-0.0004,-0.0000,-0.8780,flat,18.0,0,1.856
100,3.20,5.0506,-3.2114,0.1798,-0.0004,0.0000,-0.9803,flat,18.0,0,1.342
110,3.52,5.3364,-3.6777,0.1799,-0.0001,0.0000,-1.1244,flat,18.0,0,0.843
120,3.84,5.4337,-3.9481,0.1796,0.0004,-0.0015,-0.6438,flat,18.0,1,12.279
130,4.16,5.6352,-4.0765,0.1790,0.0050,0.0001,-0.1762,flat,18.0,1,12.472
140,4.48,5.9474,-4.1252,0.1799,-0.0004,0.0000,0.3310,flat,18.0,1,12.636
150,4.80,6.2491,-3.9907,0.1799,-0.0001,-0.0001,0.6856,flat,18.0,1,12.634
160,5.12,6.5368,-3.6933,0.1799,-0.0000,-0.0001,0.9528,flat,18.0,1,12.488
170,5.44,6.7814,-3.2866,0.1799,0.0000,-0.0000,1.1969,flat,18.0,1,12.238
180,5.76,6.9446,-2.8014,0.1799,0.0000,-0.0000,1.4132,flat,18.0,1,11.893
190,6.08,7.0092,-2.2703,0.1799,0.0001,-0.0000,1.5966,flat,18.0,1,11.469
200,6.40,6.9792,-1.7226,0.1799,0.0002,-0.0000,1.7345,flat,18.0,1,10.989
210,6.72,6.8761,-1.1778,0.1798,0.0004,-0.0000,1.8336,flat,18.0,1,10.478
220,7.04,6.7210,-0.6416,0.1798,0.0003,-0.0000,1.9075,flat,18.0,1,9.948
230,7.36,6.5271,-0.1149,0.1797,0.0002,-0.0000,1.9653,flat,18.0,1,9.406
240,7.68,6.3033,0.4023,0.1797,0.0002,-0.0000,2.0116,flat,18.0,1,8.857
250,8.00,6.0561,0.9098,0.1797,0.0001,-0.0000,2.0481,flat,18.0,1,8.303
260,8.32,5.7904,1.4096,0.1797,0.0001,-0.0000,2.0794,flat,18.0,1,7.745
270,8.64,5.5092,1.9021,0.1797,0.0001,-0.0000,2.1067,flat,18.0,1,7.184
280,8.96,5.2145,2.3879,0.1797,0.0001,-0.0000,2.1309,flat,18.0,1,6.621
290,9.28,4.9081,2.8672,0.1797,0.0001,-0.0000,2.1527,flat,18.0,1,6.056
300,9.60,4.5913,3.3404,0.1797,0.0001,-0.0000,2.1726,flat,18.0,1,5.491
310,9.92,4.2650,3.8078,0.1797,0.0001,-0.0000,2.1910,flat,18.0,1,4.924
320,10.24,3.9302,4.2694,0.1797,0.0001,-0.0000,2.2084,flat,18.0,1,4.356
330,10.56,3.5873,4.7253,0.1797,0.0001,-0.0000,2.2251,flat,18.0,1,3.788
340,10.88,3.2368,5.1755,0.1797,0.0001,-0.0000,2.2416,flat,18.0,1,3.220
350,11.20,2.8789,5.6197,0.1797,0.0001,0.0000,2.2585,flat,18.0,1,2.652
360,11.52,2.5136,6.0571,0.1797,0.0001,0.0000,2.2767,flat,18.0,1,2.084
370,11.84,2.1404,6.4867,0.1797,0.0001,0.0000,2.2982,flat,18.0,1,1.518
380,12.16,1.7585,6.9055,0.1797,0.0001,0.0000,2.3279,flat,18.0,1,0.955
390,12.48,1.4412,7.2196,0.1798,-0.0002,0.0002,2.5475,flat,18.0,2,15.310
400,12.80,1.1023,7.4075,0.1799,-0.0000,-0.0001,2.8868,flat,18.0,2,15.257
410,13.12,0.6608,7.4987,0.1799,0.0000,-0.0000,-3.0919,flat,18.0,2,15.076
420,13.44,0.1713,7.4520,0.1799,0.0000,-0.0000,-2.8602,flat,18.0,2,14.764
430,13.76,-0.3215,7.2859,0.1799,0.0001,-0.0000,-2.6911,flat,18.0,2,14.359
440,14.08,-0.7961,7.0308,0.1799,0.0003,-0.0000,-2.5643,flat,18.0,2,13.895
450,14.40,-1.2459,6.7146,0.1798,0.0004,-0.0000,-2.4766,flat,18.0,2,13.395
460,14.72,-1.6734,6.3595,0.1797,0.0002,-0.0000,-2.4099,flat,18.0,2,12.876
470,15.04,-2.0783,5.9756,0.1797,0.0002,-0.0000,-2.3511,flat,18.0,2,12.346
480,15.36,-2.4633,5.5678,0.1797,0.0002,-0.0000,-2.3015,flat,18.0,2,11.806
490,15.68,-2.8302,5.1415,0.1797,0.0001,-0.0000,-2.2595,flat,18.0,2,11.259
500,16.00,-3.1816,4.6999,0.1797,0.0001,-0.0000,-2.2229,flat,18.0,2,10.707
510,16.32,-3.5189,4.2451,0.1797,0.0001,-0.0000,-2.1905,flat,18.0,2,10.151
520,16.64,-3.8429,3.7791,0.1797,0.0001,-0.0000,-2.1616,flat,18.0,2,9.591
530,16.96,-4.1548,3.3035,0.1797,0.0001,-0.0000,-2.1358,flat,18.0,2,9.029
540,17.28,-4.4555,2.8196,0.1797,0.0001,-0.0000,-2.1127,flat,18.0,2,8.464
550,17.60,-4.7459,2.3286,0.1797,0.0001,-0.0000,-2.0918,flat,18.0,2,7.898
560,17.92,-5.0266,1.8313,0.1797,0.0001,-0.0000,-2.0728,flat,18.0,2,7.330
570,18.24,-5.2986,1.3285,0.1797,0.0001,-0.0000,-2.0556,flat,18.0,2,6.761
580,18.56,-5.5623,0.8209,0.1797,0.0001,-0.0000,-2.0397,flat,18.0,2,6.191
590,18.88,-5.8184,0.3091,0.1797,0.0001,-0.0000,-2.0250,flat,18.0,2,5.621
600,19.20,-6.0673,-0.2067,0.1797,0.0000,-0.0000,-2.0112,flat,18.0,2,5.050
610,19.52,-6.3093,-0.7259,0.1797,0.0000,-0.0000,-1.9981,flat,18.0,2,4.478
620,19.84,-6.5446,-1.2483,0.1797,0.0000,-0.0000,-1.9855,flat,18.0,2,3.907
630,20.16,-6.7735,-1.7737,0.1797,0.0000,-0.0000,-1.9731,flat,18.0,2,3.335
640,20.48,-6.9958,-2.3019,0.1797,0.0000,0.0000,-1.9605,flat,18.0,2,2.763
650,20.80,-7.2114,-2.8327,0.1797,0.0000,0.0000,-1.9471,flat,18.0,2,2.191
660,21.12,-7.4195,-3.3660,0.1797,0.0001,0.0000,-1.9318,flat,18.0,2,1.619
670,21.44,-7.6187,-3.9017,0.1797,0.0001,0.0000,-1.9118,flat,18.0,2,1.049
680,21.76,-7.7988,-4.4201,0.1798,0.0002,0.0001,-1.9881,flat,18.0,0,13.144
690,22.08,-7.9104,-4.7730,0.1798,-0.0003,0.0001,-1.7023,flat,18.0,0,13.257
700,22.40,-7.9474,-5.0846,0.1799,-0.0001,-0.0000,-1.3560,rough,15.5,0,13.304
710,22.72,-7.8512,-5.4327,0.1799,0.0000,-0.0000,-1.0767,rough,15.5,0,13.227
720,23.04,-7.6198,-5.7894,0.1799,-0.0001,-0.0000,-0.8452,flat,18.0,0,13.026
730,23.36,-7.2654,-6.1255,0.1799,0.0000,-0.0000,-0.6503,flat,18.0,0,12.712
740,23.68,-6.8304,-6.4157,0.1799,0.0001,-0.0000,-0.4758,flat,18.0,0,12.322
750,24.00,-6.3362,-6.6438,0.1799,0.0001,-0.0000,-0.3236,flat,18.0,0,11.872
760,24.32,-5.8043,-6.8042,0.1799,0.0003,-0.0000,-0.1981,flat,18.0,0,11.380
770,24.64,-5.2525,-6.9024,0.1798,0.0004,-0.0000,-0.0990,flat,18.0,0,10.862
780,24.96,-4.6906,-6.9486,0.1798,0.0004,-0.0000,-0.0199,flat,18.0,0,10.325
790,25.28,-4.1248,-6.9522,0.1797,0.0002,-0.0000,0.0419,flat,18.0,0,9.777
800,25.60,-3.5591,-6.9228,0.1797,0.0002,-0.0000,0.0884,flat,18.0,0,9.222
810,25.92,-2.9942,-6.8681,0.1797,0.0001,-0.0000,0.1251,flat,18.0,0,8.663
820,26.24,-2.4306,-6.7932,0.1797,0.0001,-0.0000,0.1555,flat,18.0,0,8.101
830,26.56,-1.8686,-6.7016,0.1797,0.0001,-0.0000,0.1813,flat,18.0,0,7.536
840,26.88,-1.3082,-6.5957,0.1797,0.0001,-0.0000,0.2035,flat,18.0,0,6.969
850,27.20,-0.7497,-6.4777,0.1797,0.0001,-0.0000,0.2229,flat,18.0,0,6.401
860,27.52,-0.1931,-6.3489,0.1797,0.0001,-0.0000,0.2402,flat,18.0,0,5.832
870,27.84,0.3617,-6.2107,0.1797,0.0001,-0.0000,0.2557,flat,18.0,0,5.262
880,28.16,0.9147,-6.0640,0.1797,0.0001,-0.0000,0.2699,flat,18.0,0,4.691
890,28.48,1.4657,-5.9094,0.1797,0.0000,-0.0000,0.2831,flat,18.0,0,4.120
900,28.80,2.0148,-5.7477,0.1797,0.0000,-0.0000,0.2957,flat,18.0,0,3.549
910,29.12,2.5618,-5.5790,0.1797,0.0000,-0.0000,0.3081,flat,18.0,0,2.977
920,29.44,3.1066,-5.4035,0.1797,0.0000,0.0000,0.3208,flat,18.0,0,2.406
930,29.76,3.6488,-5.2212,0.1797,0.0000,0.0000,0.3345,flat,18.0,0,1.835
940,30.08,4.1875,-5.0313,0.1797,0.0001,0.0000,0.3511,flat,18.0,0,1.265
950,30.40,4.7176,-4.8358,0.1797,0.0000,0.0002,0.3926,flat,18.0,1,12.888
960,30.72,5.0830,-4.6594,0.1799,-0.0002,0.0000,0.6430,flat,18.0,1,12.830
970,31.04,5.3876,-4.3770,0.1799,0.0000,-0.0001,0.8848,flat,18.0,1,12.664
980,31.36,5.6601,-3.9829,0.1799,0.0000,-0.0000,1.1136,flat,18.0,1,12.394
990,31.68,5.8630,-3.5085,0.1799,0.0000,-0.0000,1.3179,flat,18.0,1,12.036
1000,32.00,5.9783,-2.9828,0.1799,0.0001,-0.0000,1.4926,flat,18.0,1,11.606
1010,32.32,6.0053,-2.4323,0.1799,0.0002,-0.0000,1.6331,flat,18.0,1,11.122
1020,32.64,5.9584,-1.8773,0.1798,0.0004,-0.0000,1.7342,flat,18.0,1,10.607
1030,32.96,5.8577,-1.3264,0.1798,0.0003,-0.0000,1.8086,flat,18.0,1,10.074
1040,33.28,5.7174,-0.7815,0.1797,0.0002,-0.0000,1.8662,flat,18.0,1,9.530
1050,33.60,5.5465,-0.2433,0.1797,0.0002,-0.0000,1.9119,flat,18.0,1,8.978
1060,33.92,5.3517,0.2875,0.1797,0.0001,-0.0000,1.9475,flat,18.0,1,8.422
1070,34.24,5.1382,0.8125,0.1797,0.0001,-0.0000,1.9779,flat,18.0,1,7.863
1080,34.56,4.9088,1.3320,0.1797,0.0001,-0.0000,2.0043,flat,18.0,1,7.300
1090,34.88,4.6659,1.8463,0.1797,0.0001,-0.0000,2.0275,flat,18.0,1,6.736
1100,35.20,4.4112,2.3556,0.1797,0.0001,-0.0000,2.0481,flat,18.0,1,6.170
1110,35.52,4.1459,2.8602,0.1797,0.0001,-0.0000,2.0669,flat,18.0,1,5.603
1120,35.84,3.8712,3.3602,0.1797,0.0001,-0.0000,2.0841,flat,18.0,1,5.035
1130,36.16,3.5879,3.8558,0.1797,0.0001,-0.0000,2.1002,flat,18.0,1,4.467
1140,36.48,3.2967,4.3469,0.1797,0.0001,-0.0000,2.1156,flat,18.0,1,3.898
1150,36.80,2.9979,4.8336,0.1797,0.0001,-0.0000,2.1307,flat,18.0,1,3.328
1160,37.12,2.6918,5.3157,0.1797,0.0001,0.0000,2.1458,flat,18.0,1,2.759
1170,37.44,2.3784,5.7927,0.1797,0.0001,0.0000,2.1619,flat,18.0,1,2.190
1180,37.76,2.0574,6.2638,0.1797,0.0001,0.0000,2.1801,flat,18.0,1,1.622
1190,38.08,1.7280,6.7268,0.1797,0.0001,0.0000,2.2037,flat,18.0,1,1.056
1200,38.40,1.4332,7.1246,0.1798,-0.0000,0.0004,2.3634,flat,18.0,2,15.230
1210,38.72,1.1574,7.3377,0.1798,-0.0002,-0.0001,2.7164,flat,18.0,2,15.233
1220,39.04,0.7640,7.4872,0.1799,0.0000,-0.0001,3.0429,flat,18.0,2,15.125
1230,39.36,0.2932,7.5105,0.1799,0.0001,-0.0000,-2.9667,flat,18.0,2,14.880
1240,39.68,-0.2004,7.4000,0.1799,0.0001,-0.0000,-2.7681,flat,18.0,2,14.520
1250,40.00,-0.6846,7.1846,0.1799,0.0001,-0.0000,-2.6190,flat,18.0,2,14.084
1260,40.32,-1.1448,6.8943,0.1798,0.0004,-0.0000,-2.5105,flat,18.0,2,13.601
1270,40.64,-1.5818,6.5542,0.1798,0.0003,-0.0000,-2.4368,flat,18.0,2,13.091
1280,40.96,-1.9956,6.1820,0.1797,0.0002,-0.0000,-2.3733,flat,18.0,2,12.567
1290,41.28,-2.3879,5.7831,0.1797,0.0002,-0.0000,-2.3192,flat,18.0,2,12.031
1300,41.60,-2.7606,5.3632,0.1797,0.0002,-0.0000,-2.2728,flat,18.0,2,11.488
1310,41.92,-3.1164,4.9266,0.1797,0.0001,-0.0000,-2.2334,flat,18.0,2,10.939
1320,42.24,-3.4573,4.4757,0.1797,0.0001,-0.0000,-2.1985,flat,18.0,2,10.386
1330,42.56,-3.7842,4.0126,0.1797,0.0001,-0.0000,-2.1675,flat,18.0,2,9.828
1340,42.88,-4.0982,3.5390,0.1797,0.0001,-0.0000,-2.1399,flat,18.0,2,9.267
1350,43.20,-4.4003,3.0565,0.1797,0.0001,-0.0000,-2.1151,flat,18.0,2,8.703
1360,43.52,-4.6914,2.5663,0.1797,0.0001,-0.0000,-2.0929,flat,18.0,2,8.138
1370,43.84,-4.9724,2.0695,0.1797,0.0001,-0.0000,-2.0728,flat,18.0,2,7.570
1380,44.16,-5.2441,1.5669,0.1797,0.0001,-0.0000,-2.0546,flat,18.0,2,7.002
1390,44.48,-5.5071,1.0591,0.1797,0.0001,-0.0000,-2.0379,flat,18.0,2,6.433
1400,44.80,-5.7620,0.5469,0.1797,0.0001,-0.0000,-2.0225,flat,18.0,2,5.863
1410,45.12,-6.0094,0.0306,0.1797,0.0001,-0.0000,-2.0081,flat,18.0,2,5.292
1420,45.44,-6.2497,-0.4894,0.1797,0.0000,-0.0000,-1.9946,flat,18.0,2,4.721
1430,45.76,-6.4831,-1.0126,0.1797,0.0000,-0.0000,-1.9817,flat,18.0,2,4.149
1440,46.08,-6.7099,-1.5388,0.1797,0.0000,-0.0000,-1.9690,flat,18.0,2,3.577
1450,46.40,-6.9301,-2.0679,0.1797,0.0000,-0.0000,-1.9564,flat,18.0,2,3.005
1460,46.72,-7.1436,-2.5996,0.1797,0.0000,0.0000,-1.9433,flat,18.0,2,2.433
1470,47.04,-7.3499,-3.1339,0.1797,0.0001,0.0000,-1.9289,flat,18.0,2,1.862
1480,47.36,-7.5479,-3.6706,0.1797,0.0001,0.0000,-1.9114,flat,18.0,2,1.291
1490,47.68,-7.7317,-4.2065,0.1797,0.0001,0.0002,-1.9054,flat,18.0,3,0.969
1500,48.00,-7.8718,-4.6375,0.1798,-0.0002,0.0003,-1.8136,rough,15.5,0,13.217
1510,48.32,-7.9444,-4.9503,0.1798,0.0000,0.0000,-1.4549,rough,15.5,0,13.296
1520,48.64,-7.8913,-5.2939,0.1799,0.0001,0.0001,-1.1487,rough,15.5,0,13.259
1530,48.96,-7.7078,-5.6411,0.1799,0.0000,-0.0001,-0.9218,flat,18.0,0,13.101
1540,49.28,-7.3883,-5.9902,0.1799,0.0001,-0.0000,-0.7143,flat,18.0,0,12.818
1550,49.60,-6.9780,-6.2985,0.1799,0.0000,-0.0000,-0.5333,flat,18.0,0,12.450
1560,49.92,-6.5017,-6.5493,0.1799,0.0001,-0.0000,-0.3735,flat,18.0,0,12.019
1570,50.24,-5.9802,-6.7331,0.1799,0.0002,-0.0000,-0.2387,flat,18.0,0,11.539
1580,50.56,-5.4338,-6.8520,0.1798,0.0004,-0.0000,-0.1316,flat,18.0,0,11.028
1590,50.88,-4.8747,-6.9156,0.1798,0.0004,-0.0000,-0.0465,flat,18.0,0,10.496
1600,51.20,-4.3096,-6.9337,0.1798,0.0003,-0.0000,0.0214,flat,18.0,0,9.951
1610,51.52,-3.7437,-6.9154,0.1797,0.0002,-0.0000,0.0719,flat,18.0,0,9.399
1620,51.84,-3.1783,-6.8696,0.1797,0.0001,-0.0000,0.1116,flat,18.0,0,8.841
1630,52.16,-2.6142,-6.8022,0.1797,0.0001,-0.0000,0.1439,flat,18.0,0,8.279
1640,52.48,-2.0514,-6.7169,0.1797,0.0001,-0.0000,0.1712,flat,18.0,0,7.715
1650,52.80,-1.4903,-6.6167,0.1797,0.0001,-0.0000,0.1945,flat,18.0,0,7.149
1660,53.12,-0.9309,-6.5036,0.1797,0.0001,-0.0000,0.2148,flat,18.0,0,6.582
1670,53.44,-0.3734,-6.3793,0.1797,0.0001,-0.0000,0.2327,flat,18.0,0,6.013
1680,53.76,0.1823,-6.2452,0.1797,0.0001,-0.0000,0.2488,flat,18.0,0,5.443
1690,54.08,0.7361,-6.1022,0.1797,0.0001,-0.0000,0.2634,flat,18.0,0,4.872
1700,54.40,1.2881,-5.9512,0.1797,0.0000,-0.0000,0.2770,flat,18.0,0,4.302
1710,54.72,1.8381,-5.7929,0.1797,0.0000,-0.0000,0.2898,flat,18.0,0,3.730
1720,55.04,2.3862,-5.6275,0.1797,0.0000,-0.0000,0.3022,flat,18.0,0,3.159
1730,55.36,2.9321,-5.4553,0.1797,0.0000,0.0000,0.3147,flat,18.0,0,2.587
1740,55.68,3.4755,-5.2762,0.1797,0.0000,0.0000,0.3280,flat,18.0,0,2.016
1750,56.00,4.0158,-5.0899,0.1797,0.0001,0.0000,0.3434,flat,18.0,0,1.446
1760,56.32,4.5513,-4.8953,0.1797,0.0001,0.0000,0.3644,flat,18.0,0,0.878
1770,56.64,4.9714,-4.7249,0.1798,-0.0003,0.0000,0.5575,flat,18.0,1,12.857
1780,56.96,5.2885,-4.4801,0.1799,0.0001,-0.0000,0.8087,flat,18.0,1,12.727
1790,57.28,5.5758,-4.1161,0.1799,0.0000,-0.0000,1.0444,flat,18.0,1,12.487
1800,57.60,5.8032,-3.6637,0.1799,0.0001,-0.0000,1.2566,flat,18.0,1,12.155
1810,57.92,5.9464,-3.1511,0.1799,0.0001,0.0000,1.4396,flat,18.0,1,11.745
1820,58.24,6.0004,-2.6055,0.1799,0.0001,-0.0000,1.5926,flat,18.0,1,11.275
1830,58.56,5.9744,-2.0504,0.1798,0.0004,-0.0000,1.7059,flat,18.0,1,10.768
1840,58.88,5.8889,-1.4978,0.1798,0.0004,-0.0000,1.7873,flat,18.0,1,10.240
1850,59.20,5.7599,-0.9508,0.1797,0.0002,-0.0000,1.8494,flat,18.0,1,9.698
1860,59.52,5.5980,-0.4105,0.1797,0.0002,-0.0000,1.8985,flat,18.0,1,9.149
1870,59.84,5.4101,0.1226,0.1797,0.0001,-0.0000,1.9367,flat,18.0,1,8.594
1880,60.16,5.2022,0.6494,0.1797,0.0001,-0.0000,1.9685,flat,18.0,1,8.035
1890,60.48,4.9778,1.1707,0.1797,0.0001,-0.0000,1.9960,flat,18.0,1,7.474
1900,60.80,4.7391,1.6867,0.1797,0.0001,-0.0000,2.0201,flat,18.0,1,6.910
1910,61.12,4.4881,2.1977,0.1797,0.0001,-0.0000,2.0415,flat,18.0,1,6.345
1920,61.44,4.2261,2.7038,0.1797,0.0001,-0.0000,2.0608,flat,18.0,1,5.778
1930,61.76,3.9545,3.2053,0.1797,0.0001,-0.0000,2.0785,flat,18.0,1,5.210
1940,62.08,3.6741,3.7024,0.1797,0.0001,-0.0000,2.0949,flat,18.0,1,4.642
1950,62.40,3.3855,4.1951,0.1797,0.0001,-0.0000,2.1105,flat,18.0,1,4.073
1960,62.72,3.0892,4.6833,0.1797,0.0001,-0.0000,2.1256,flat,18.0,1,3.504
1970,63.04,2.7856,5.1670,0.1797,0.0001,0.0000,2.1406,flat,18.0,1,2.934
1980,63.36,2.4747,5.6458,0.1797,0.0001,0.0000,2.1563,flat,18.0,1,2.365
1990,63.68,2.1563,6.1190,0.1797,0.0001,0.0000,2.1737,flat,18.0,1,1.797
2000,64.00,1.8298,6.5849,0.1797,0.0001,0.0000,2.1950,flat,18.0,1,1.230
2010,64.32,1.5042,7.0297,0.1797,0.0001,0.0004,2.2600,flat,18.0,2,15.198
2020,64.64,1.2553,7.2741,0.1798,-0.0003,-0.0000,2.6120,flat,18.0,2,15.240
2030,64.96,0.8955,7.4500,0.1799,-0.0000,-0.0001,2.9480,flat,18.0,2,15.170
2040,65.28,0.4419,7.5155,0.1799,0.0000,-0.0000,-3.0402,flat,18.0,2,14.966
2050,65.60,-0.0494,7.4429,0.1799,0.0001,-0.0000,-2.8217,flat,18.0,2,14.637
2060,65.92,-0.5385,7.2560,0.1799,0.0001,-0.0000,-2.6598,flat,18.0,2,14.221
2070,66.24,-1.0068,6.9854,0.1799,0.0003,-0.0000,-2.5395,flat,18.0,2,13.749
2080,66.56,-1.4505,6.6578,0.1798,0.0003,-0.0000,-2.4581,flat,18.0,2,13.245
2090,66.88,-1.8713,6.2947,0.1797,0.0002,-0.0000,-2.3919,flat,18.0,2,12.725
2100,67.20,-2.2699,5.9033,0.1797,0.0002,-0.0000,-2.3348,flat,18.0,2,12.192
2110,67.52,-2.6483,5.4893,0.1797,0.0002,-0.0000,-2.2860,flat,18.0,2,11.651
2120,67.84,-3.0090,5.0575,0.1797,0.0001,-0.0000,-2.2450,flat,18.0,2,11.104
2130,68.16,-3.3544,4.6108,0.1797,0.0001,-0.0000,-2.2088,flat,18.0,2,10.552
2140,68.48,-3.6855,4.1512,0.1797,0.0001,-0.0000,-2.1767,flat,18.0,2,9.995
2150,68.80,-4.0034,3.6806,0.1797,0.0001,-0.0000,-2.1481,flat,18.0,2,9.435
2160,69.12,-4.3091,3.2008,0.1797,0.0001,-0.0000,-2.1225,flat,18.0,2,8.872
2170,69.44,-4.6035,2.7129,0.1797,0.0001,-0.0000,-2.0996,flat,18.0,2,8.307
2180,69.76,-4.8876,2.2180,0.1797,0.0001,-0.0000,-2.0789,flat,18.0,2,7.740
2190,70.08,-5.1621,1.7171,0.1797,0.0001,-0.0000,-2.0601,flat,18.0,2,7.172
2200,70.40,-5.4278,1.2109,0.1797,0.0001,-0.0000,-2.0430,flat,18.0,2,6.603
2210,70.72,-5.6852,0.7000,0.1797,0.0001,-0.0000,-2.0272,flat,18.0,2,6.033
2220,71.04,-5.9349,0.1849,0.1797,0.0001,-0.0000,-2.0126,flat,18.0,2,5.463
2230,71.36,-6.1774,-0.3339,0.1797,0.0000,-0.0000,-1.9988,flat,18.0,2,4.892
2240,71.68,-6.4130,-0.8561,0.1797,0.0000,-0.0000,-1.9857,flat,18.0,2,4.320
2250,72.00,-6.6419,-1.3814,0.1797,0.0000,-0.0000,-1.9731,flat,18.0,2,3.748
2260,72.32,-6.8642,-1.9095,0.1797,0.0000,-0.0000,-1.9605,flat,18.0,2,3.176
2270,72.64,-7.0799,-2.4404,0.1797,0.0000,0.0000,-1.9476,flat,18.0,2,2.605
2280,72.96,-7.2885,-2.9739,0.1797,0.0000,0.0000,-1.9337,flat,18.0,2,2.033
2290,73.28,-7.4893,-3.5099,0.1797,0.0001,0.0000,-1.9174,flat,18.0,2,1.462
2300,73.60,-7.6803,-4.0479,0.1797,0.0001,0.0000,-1.8947,flat,18.0,2,0.892
2310,73.92,-7.8414,-4.5334,0.1799,-0.0005,0.0004,-1.8960,flat,18.0,0,13.186
2320,74.24,-7.9324,-4.8555,0.1798,-0.0002,0.0000,-1.5707,flat,18.0,0,13.281
2330,74.56,-7.9216,-5.1884,0.1799,-0.0000,-0.0002,-1.2276,flat,18.0,0,13.283
2340,74.88,-7.7678,-5.5446,0.1799,0.0001,-0.0001,-0.9736,flat,18.0,0,13.152
2350,75.20,-7.4729,-5.9013,0.1799,0.0000,-0.0000,-0.7550,flat,18.0,0,12.892
2360,75.52,-7.0792,-6.2196,0.1799,0.0000,-0.0000,-0.5705,flat,18.0,0,12.540
2370,75.84,-6.6151,-6.4841,0.1799,0.0001,-0.0000,-0.4062,flat,18.0,0,12.120
2380,76.16,-6.1014,-6.6828,0.1799,0.0002,-0.0000,-0.2659,flat,18.0,0,11.649
2390,76.48,-5.5592,-6.8152,0.1799,0.0004,-0.0000,-0.1536,flat,18.0,0,11.143
2400,76.80,-5.0021,-6.8905,0.1798,0.0004,-0.0000,-0.0644,flat,18.0,0,10.615
2410,77.12,-4.4379,-6.9183,0.1798,0.0003,-0.0000,0.0069,flat,18.0,0,10.072
2420,77.44,-3.8719,-6.9076,0.1797,0.0002,-0.0000,0.0606,flat,18.0,0,9.521
2430,77.76,-3.3062,-6.8680,0.1797,0.0002,-0.0000,0.1024,flat,18.0,0,8.964
2440,78.08,-2.7417,-6.8057,0.1797,0.0001,-0.0000,0.1360,flat,18.0,0,8.403
2450,78.40,-2.1784,-6.7248,0.1797,0.0001,-0.0000,0.1642,flat,18.0,0,7.839
2460,78.72,-1.6168,-6.6285,0.1797,0.0001,-0.0000,0.1883,flat,18.0,0,7.274
2470,79.04,-1.0569,-6.5188,0.1797,0.0001,-0.0000,0.2091,flat,18.0,0,6.706
2480,79.36,-0.4987,-6.3977,0.1797,0.0001,-0.0000,0.2275,flat,18.0,0,6.138
2490,79.68,0.0576,-6.2664,0.1797,0.0001,-0.0000,0.2439,flat,18.0,0,5.568
2500,80.00,0.6120,-6.1262,0.1797,0.0001,-0.0000,0.2588,flat,18.0,0,4.998
2510,80.32,1.1646,-5.9778,0.1797,0.0000,-0.0000,0.2725,flat,18.0,0,4.427
2520,80.64,1.7154,-5.8218,0.1797,0.0000,-0.0000,0.2854,flat,18.0,0,3.856
2530,80.96,2.2641,-5.6588,0.1797,0.0000,-0.0000,0.2979,flat,18.0,0,3.284
2540,81.28,2.8108,-5.4890,0.1797,0.0000,0.0000,0.3103,flat,18.0,0,2.713
2550,81.60,3.3551,-5.3124,0.1797,0.0000,0.0000,0.3233,flat,18.0,0,2.141
2560,81.92,3.8965,-5.1286,0.1797,0.0001,0.0000,0.3380,flat,18.0,0,1.571
2570,82.24,4.4337,-4.9369,0.1797,0.0001,0.0000,0.3571,flat,18.0,0,1.002
2580,82.56,4.8891,-4.7648,0.1798,-0.0002,0.0002,0.5039,flat,18.0,1,12.870
2590,82.88,5.2223,-4.5386,0.1799,-0.0000,-0.0000,0.7730,rough,15.5,1,12.761
2600,83.20,5.5014,-4.2145,0.1799,0.0000,0.0000,0.9803,rough,15.5,1,12.552
2610,83.52,5.7453,-3.7970,0.1799,0.0000,-0.0000,1.1873,flat,18.0,1,12.255
2620,83.84,5.9186,-3.3019,0.1799,0.0001,0.0000,1.3808,flat,18.0,1,11.870
2630,84.16,6.0023,-2.7647,0.1799,0.0001,0.0000,1.5446,flat,18.0,1,11.419
2640,84.48,6.0012,-2.2109,0.1799,0.0003,-0.0000,1.6730,flat,18.0,1,10.923
2650,84.80,5.9331,-1.6570,0.1798,0.0004,-0.0000,1.7635,flat,18.0,1,10.401
2660,85.12,5.8168,-1.1082,0.1798,0.0003,-0.0000,1.8314,flat,18.0,1,9.864
2670,85.44,5.6644,-0.5659,0.1797,0.0002,-0.0000,1.8846,flat,18.0,1,9.317
2680,85.76,5.4837,-0.0306,0.1797,0.0002,-0.0000,1.9264,flat,18.0,1,8.763
2690,86.08,5.2812,0.4978,0.1797,0.0001,-0.0000,1.9601,flat,18.0,1,8.206
2700,86.40,5.0611,1.0205,0.1797,0.0001,-0.0000,1.9891,flat,18.0,1,7.645
2710,86.72,4.8260,1.5378,0.1797,0.0001,-0.0000,2.0143,flat,18.0,1,7.082
2720,87.04,4.5779,2.0498,0.1797,0.0001,-0.0000,2.0366,flat,18.0,1,6.518
2730,87.36,4.3185,2.5570,0.1797,0.0001,-0.0000,2.0566,flat,18.0,1,5.951
2740,87.68,4.0490,3.0595,0.1797,0.0001,-0.0000,2.0749,flat,18.0,1,5.384
2750,88.00,3.7703,3.5574,0.1797,0.0001,-0.0000,2.0918,flat,18.0,1,4.816
2760,88.32,3.4832,4.0508,0.1797,0.0001,-0.0000,2.1077,flat,18.0,1,4.247
2770,88.64,3.1883,4.5398,0.1797,0.0001,-0.0000,2.1230,flat,18.0,1,3.678
2780,88.96,2.8860,5.0243,0.1797,0.0001,-0.0000,2.1381,flat,18.0,1,3.109
2790,89.28,2.5763,5.5039,0.1797,0.0001,0.0000,2.1536,flat,18.0,1,2.540
2800,89.60,2.2592,5.9782,0.1797,0.0001,0.0000,2.1704,flat,18.0,1,1.971
2810,89.92,1.9342,6.4458,0.1797,0.0001,0.0000,2.1902,flat,18.0,1,1.404
2820,90.24,1.6002,6.9038,0.1797,0.0001,0.0000,2.2181,flat,18.0,1,0.840
2830,90.56,1.3422,7.2095,0.1798,-0.0003,0.0001,2.5084,flat,18.0,2,15.241
2840,90.88,1.0185,7.4038,0.1799,-0.0001,-0.0001,2.8521,flat,18.0,2,15.204
2850,91.20,0.5869,7.5081,0.1799,0.0000,-0.0000,-3.1198,flat,18.0,2,15.042
2860,91.52,0.1012,7.4747,0.1799,0.0001,-0.0000,-2.8799,flat,18.0,2,14.745
2870,91.84,-0.3912,7.3184,0.1799,0.0001,-0.0000,-2.7033,flat,18.0,2,14.350
2880,92.16,-0.8670,7.0694,0.1799,0.0002,-0.0000,-2.5711,flat,18.0,2,13.892
2890,92.48,-1.3174,6.7563,0.1798,0.0004,-0.0000,-2.4789,flat,18.0,2,13.396
2900,92.80,-1.7453,6.4023,0.1797,0.0003,-0.0000,-2.4112,flat,18.0,2,12.879
2910,93.12,-2.1502,6.0189,0.1797,0.0002,-0.0000,-2.3508,flat,18.0,2,12.350
2920,93.44,-2.5345,5.6111,0.1797,0.0002,-0.0000,-2.2999,flat,18.0,2,11.812
2930,93.76,-2.9003,5.1843,0.1797,0.0002,-0.0000,-2.2568,flat,18.0,2,11.266
2940,94.08,-3.2502,4.7418,0.1797,0.0001,-0.0000,-2.2193,flat,18.0,2,10.715
2950,94.40,-3.5856,4.2859,0.1797,0.0001,-0.0000,-2.1861,flat,18.0,2,10.159
2960,94.72,-3.9074,3.8185,0.1797,0.0001,-0.0000,-2.1565,flat,18.0,2,9.600
2970,95.04,-4.2168,3.3414,0.1797,0.0001,-0.0000,-2.1302,flat,18.0,2,9.038
2980,95.36,-4.5146,2.8559,0.1797,0.0001,-0.0000,-2.1065,flat,18.0,2,8.473
2990,95.68,-4.8018,2.3631,0.1797,0.0001,-0.0000,-2.0852,flat,18.0,2,7.907
3000,96.00,-5.0793,1.8640,0.1797,0.0001,-0.0000,-2.0659,flat,18.0,2,7.340
3010,96.32,-5.3477,1.3594,0.1797,0.0001,-0.0000,-2.0483,flat,18.0,2,6.771
3020,96.64,-5.6077,0.8499,0.1797,0.0001,-0.0000,-2.0322,flat,18.0,2,6.201
3030,96.96,-5.8599,0.3361,0.1797,0.0001,-0.0000,-2.0172,flat,18.0,2,5.631
3040,97.28,-6.1047,-0.1815,0.1797,0.0000,-0.0000,-2.0032,flat,18.0,2,5.060
3050,97.60,-6.3425,-0.7026,0.1797,0.0000,-0.0000,-1.9900,flat,18.0,2,4.488
3060,97.92,-6.5736,-1.2270,0.1797,0.0000,-0.0000,-1.9772,flat,18.0,2,3.917
3070,98.24,-6.7981,-1.7542,0.1797,0.0000,-0.0000,-1.9646,flat,18.0,2,3.345
3080,98.56,-7.0159,-2.2842,0.1797,0.0000,0.0000,-1.9519,flat,18.0,2,2.773
3090,98.88,-7.2269,-2.8169,0.1797,0.0000,0.0000,-1.9384,flat,18.0,2,2.201
3100,99.20,-7.4304,-3.3520,0.1797,0.0001,0.0000,-1.9230,flat,18.0,2,1.630
3110,99.52,-7.6249,-3.8894,0.1797,0.0001,0.0000,-1.9030,flat,18.0,2,1.060
3120,99.84,-7.8004,-4.4096,0.1798,0.0002,0.0001,-1.9795,flat,18.0,0,13.146
3130,100.16,-7.9107,-4.7675,0.1798,-0.0004,0.0001,-1.6831,rough,15.5,0,13.258
3140,100.48,-7.9424,-5.0892,0.1798,-0.0001,-0.0001,-1.3101,rough,15.5,0,13.299
3150,100.80,-7.8325,-5.4328,0.1799,0.0000,-0.0000,-1.0587,rough,15.5,0,13.209
3160,101.12,-7.5924,-5.7883,0.1799,-0.0001,-0.0000,-0.8320,flat,18.0,0,12.999
3170,101.44,-7.2319,-6.1223,0.1799,0.0000,-0.0000,-0.6392,flat,18.0,0,12.678
3180,101.76,-6.7926,-6.4093,0.1799,0.0001,-0.0000,-0.4662,flat,18.0,0,12.283
3190,102.08,-6.2955,-6.6336,0.1799,0.0001,-0.0000,-0.3158,flat,18.0,0,11.830
3200,102.40,-5.7620,-6.7903,0.1799,0.0003,-0.0000,-0.1925,flat,18.0,0,11.336
3210,102.72,-5.2094,-6.8857,0.1798,0.0004,-0.0000,-0.0949,flat,18.0,0,10.816
3220,103.04,-4.6472,-6.9298,0.1798,0.0004,-0.0000,-0.0171,flat,18.0,0,10.278
3230,103.36,-4.0813,-6.9319,0.1797,0.0002,-0.0000,0.0436,flat,18.0,0,9.730
3240,103.68,-3.5155,-6.9017,0.1797,0.0002,-0.0000,0.0894,flat,18.0,0,9.175
3250,104.00,-2.9507,-6.8465,0.1797,0.0001,-0.0000,0.1255,flat,18.0,0,8.615
3260,104.32,-2.3870,-6.7714,0.1797,0.0001,-0.0000,0.1556,flat,18.0,0,8.053
3270,104.64,-1.8249,-6.6797,0.1797,0.0001,-0.0000,0.1812,flat,18.0,0,7.488
3280,104.96,-1.2645,-6.5739,0.1797,0.0001,-0.0000,0.2032,flat,18.0,0,6.921
3290,105.28,-0.7059,-6.4560,0.1797,0.0001,-0.0000,0.2225,flat,18.0,0,6.353
3300,105.60,-0.1492,-6.3275,0.1797,0.0001,-0.0000,0.2396,flat,18.0,0,5.783
3310,105.92,0.4057,-6.1896,0.1797,0.0001,-0.0000,0.2550,flat,18.0,0,5.213
3320,106.24,0.9588,-6.0433,0.1797,0.0001,-0.0000,0.2692,flat,18.0,0,4.643
3330,106.56,1.5099,-5.8891,0.1797,0.0000,-0.0000,0.2824,flat,18.0,0,4.072
3340,106.88,2.0592,-5.7278,0.1797,0.0000,-0.0000,0.2950,flat,18.0,0,3.500
3350,107.20,2.6063,-5.5595,0.1797,0.0000,-0.0000,0.3074,flat,18.0,0,2.929
3360,107.52,3.1512,-5.3845,0.1797,0.0000,0.0000,0.3201,flat,18.0,0,2.358
3370,107.84,3.6935,-5.2025,0.1797,0.0000,0.0000,0.3340,flat,18.0,0,1.787
3380,108.16,4.2321,-5.0129,0.1797,0.0001,0.0000,0.3510,flat,18.0,0,1.217
3390,108.48,4.7515,-4.8231,0.1797,0.0000,0.0004,0.4077,flat,18.0,1,12.885
3400,108.80,5.1073,-4.6397,0.1799,-0.0001,0.0000,0.6696,flat,18.0,1,12.819
3410,109.12,5.4094,-4.3461,0.1799,0.0000,-0.0000,0.9057,flat,18.0,1,12.643
3420,109.44,5.6769,-3.9436,0.1799,0.0000,-0.0000,1.1328,flat,18.0,1,12.364
3430,109.76,5.8723,-3.4635,0.1799,0.0001,-0.0000,1.3337,flat,18.0,1,11.999
3440,110.08,5.9794,-2.9345,0.1799,0.0001,0.0000,1.5046,flat,18.0,1,11.562
3450,110.40,5.9994,-2.3827,0.1799,0.0002,-0.0000,1.6435,flat,18.0,1,11.076
3460,110.72,5.9469,-1.8279,0.1798,0.0004,-0.0000,1.7415,flat,18.0,1,10.558
3470,111.04,5.8424,-1.2774,0.1798,0.0003,-0.0000,1.8141,flat,18.0,1,10.024
3480,111.36,5.6992,-0.7331,0.1797,0.0002,-0.0000,1.8704,flat,18.0,1,9.479
3490,111.68,5.5260,-0.1956,0.1797,0.0002,-0.0000,1.9150,flat,18.0,1,8.927
3500,112.00,5.3295,0.3348,0.1797,0.0001,-0.0000,1.9501,flat,18.0,1,8.370
3510,112.32,5.1146,0.8593,0.1797,0.0001,-0.0000,1.9801,flat,18.0,1,7.811
3520,112.64,4.8842,1.3785,0.1797,0.0001,-0.0000,2.0061,flat,18.0,1,7.248
3530,112.96,4.6403,1.8924,0.1797,0.0001,-0.0000,2.0291,flat,18.0,1,6.684
3540,113.28,4.3847,2.4013,0.1797,0.0001,-0.0000,2.0496,flat,18.0,1,6.118
3550,113.60,4.1188,2.9056,0.1797,0.0001,-0.0000,2.0681,flat,18.0,1,5.551
3560,113.92,3.8435,3.4053,0.1797,0.0001,-0.0000,2.0853,flat,18.0,1,4.983
3570,114.24,3.5596,3.9006,0.1797,0.0001,-0.0000,2.1013,flat,18.0,1,4.414
3580,114.56,3.2679,4.3915,0.1797,0.0001,-0.0000,2.1166,flat,18.0,1,3.845
3590,114.88,2.9686,4.8779,0.1797,0.0001,-0.0000,2.1316,flat,18.0,1,3.275
3600,115.20,2.6620,5.3597,0.1797,0.0001,0.0000,2.1469,flat,18.0,1,2.706
3610,115.52,2.3481,5.8363,0.1797,0.0001,0.0000,2.1631,flat,18.0,1,2.137
3620,115.84,2.0266,6.3068,0.1797,0.0001,0.0000,2.1816,flat,18.0,1,1.569
3630,116.16,1.6965,6.7690,0.1797,0.0001,0.0000,2.2060,flat,18.0,1,1.004
3640,116.48,1.4122,7.1457,0.1798,-0.0001,0.0003,2.3996,flat,18.0,2,15.233
3650,116.80,1.1255,7.3536,0.1799,-0.0001,-0.0001,2.7498,flat,18.0,2,15.227
3660,117.12,0.7220,7.4931,0.1799,0.0000,-0.0001,3.0730,flat,18.0,2,15.106
3670,117.44,0.2467,7.5025,0.1799,0.0001,-0.0000,-2.9443,flat,18.0,2,14.848
3680,117.76,-0.2470,7.3804,0.1799,0.0001,-0.0000,-2.7512,flat,18.0,2,14.479
3690,118.08,-0.7293,7.1564,0.1799,0.0001,-0.0000,-2.6067,flat,18.0,2,14.037
3700,118.40,-1.1870,6.8602,0.1798,0.0004,-0.0000,-2.5021,flat,18.0,2,13.551
3710,118.72,-1.6218,6.5164,0.1798,0.0003,-0.0000,-2.4305,flat,18.0,2,13.039
3720,119.04,-2.0335,6.1415,0.1797,0.0002,-0.0000,-2.3676,flat,18.0,2,12.513
3730,119.36,-2.4238,5.7403,0.1797,0.0002,-0.0000,-2.3144,flat,18.0,2,11.977
3740,119.68,-2.7948,5.3187,0.1797,0.0002,-0.0000,-2.2688,flat,18.0,2,11.433
3750,120.00,-3.1492,4.8807,0.1797,0.0001,-0.0000,-2.2299,flat,18.0,2,10.884
3760,120.32,-3.4887,4.4285,0.1797,0.0001,-0.0000,-2.1954,flat,18.0,2,10.329
3770,120.64,-3.8144,3.9643,0.1797,0.0001,-0.0000,-2.1648,flat,18.0,2,9.771
3780,120.96,-4.1272,3.4899,0.1797,0.0001,-0.0000,-2.1375,flat,18.0,2,9.210
3790,121.28,-4.4283,3.0066,0.1797,0.0001,-0.0000,-2.1130,flat,18.0,2,8.646
3800,121.60,-4.7185,2.5158,0.1797,0.0001,-0.0000,-2.0910,flat,18.0,2,8.080
3810,121.92,-4.9986,2.0185,0.1797,0.0001,-0.0000,-2.0712,flat,18.0,2,7.513
3820,122.24,-5.2695,1.5153,0.1797,0.0001,-0.0000,-2.0531,flat,18.0,2,6.945
3830,122.56,-5.5318,1.0072,0.1797,0.0001,-0.0000,-2.0365,flat,18.0,2,6.375
3840,122.88,-5.7861,0.4945,0.1797,0.0001,-0.0000,-2.0212,flat,18.0,2,5.805
3850,123.20,-6.0328,-0.0221,0.1797,0.0001,-0.0000,-2.0070,flat,18.0,2,5.234
3860,123.52,-6.2725,-0.5423,0.1797,0.0000,-0.0000,-1.9935,flat,18.0,2,4.663
3870,123.84,-6.5054,-1.0658,0.1797,0.0000,-0.0000,-1.9806,flat,18.0,2,4.092
3880,124.16,-6.7317,-1.5922,0.1797,0.0000,-0.0000,-1.9680,flat,18.0,2,3.520
3890,124.48,-6.9513,-2.1215,0.1797,0.0000,-0.0000,-1.9554,flat,18.0,2,2.948
3900,124.80,-7.1642,-2.6535,0.1797,0.0000,0.0000,-1.9422,flat,18.0,2,2.376
3910,125.12,-7.3699,-3.1880,0.1797,0.0001,0.0000,-1.9276,flat,18.0,2,1.804
3920,125.44,-7.5671,-3.7248,0.1797,0.0001,0.0000,-1.9095,flat,18.0,2,1.234
3930,125.76,-7.7478,-4.2572,0.1797,0.0001,0.0001,-1.9226,flat,18.0,3,0.922
3940,126.08,-7.8816,-4.6703,0.1798,-0.0003,0.0002,-1.7844,rough,15.5,0,13.227
3950,126.40,-7.9458,-4.9848,0.1798,0.0000,0.0000,-1.4143,rough,15.5,0,13.299
3960,126.72,-7.8755,-5.3312,0.1799,-0.0001,0.0000,-1.1192,rough,15.5,0,13.245
3970,127.04,-7.6648,-5.6913,0.1799,-0.0000,-0.0000,-0.8785,flat,18.0,0,13.062
3980,127.36,-7.3251,-6.0338,0.1799,0.0000,-0.0000,-0.6791,flat,18.0,0,12.760
3990,127.68,-6.9008,-6.3328,0.1799,0.0000,-0.0000,-0.5021,flat,18.0,0,12.379
4000,128.00,-6.4143,-6.5717,0.1799,0.0001,-0.0000,-0.3470,flat,18.0,0,11.937
4010,128.32,-5.8869,-6.7432,0.1799,0.0002,-0.0000,-0.2177,flat,18.0,0,11.449
4020,128.64,-5.3375,-6.8515,0.1798,0.0004,-0.0000,-0.1154,flat,18.0,0,10.934
4030,128.96,-4.7769,-6.9067,0.1798,0.0004,-0.0000,-0.0340,flat,18.0,0,10.399
4040,129.28,-4.2112,-6.9180,0.1797,0.0003,-0.0000,0.0308,flat,18.0,0,9.852
4050,129.60,-3.6455,-6.8948,0.1797,0.0002,-0.0000,0.0786,flat,18.0,0,9.298
4060,129.92,-3.0802,-6.8455,0.1797,0.0001,-0.0000,0.1166,flat,18.0,0,8.740
4070,130.24,-2.5161,-6.7753,0.1797,0.0001,-0.0000,0.1478,flat,18.0,0,8.178
4080,130.56,-1.9535,-6.6880,0.1797,0.0001,-0.0000,0.1742,flat,18.0,0,7.613
4090,130.88,-1.3925,-6.5860,0.1797,0.0001,-0.0000,0.1969,flat,18.0,0,7.047
4100,131.20,-0.8333,-6.4716,0.1797,0.0001,-0.0000,0.2167,flat,18.0,0,6.479
4110,131.52,-0.2759,-6.3463,0.1797,0.0001,-0.0000,0.2343,flat,18.0,0,5.910
4120,131.84,0.2796,-6.2113,0.1797,0.0001,-0.0000,0.2500,flat,18.0,0,5.340
4130,132.16,0.8333,-6.0677,0.1797,0.0001,-0.0000,0.2644,flat,18.0,0,4.769
4140,132.48,1.3852,-5.9163,0.1797,0.0000,-0.0000,0.2777,flat,18.0,0,4.198
4150,132.80,1.9352,-5.7574,0.1797,0.0000,-0.0000,0.2904,flat,18.0,0,3.627
4160,133.12,2.4831,-5.5917,0.1797,0.0000,-0.0000,0.3028,flat,18.0,0,3.056
4170,133.44,3.0289,-5.4192,0.1797,0.0000,0.0000,0.3154,flat,18.0,0,2.484
4180,133.76,3.5721,-5.2398,0.1797,0.0000,0.0000,0.3289,flat,18.0,0,1.913
4190,134.08,4.1121,-5.0530,0.1797,0.0001,0.0000,0.3448,flat,18.0,0,1.343
4200,134.40,4.6467,-4.8576,0.1797,0.0001,0.0000,0.3678,flat,18.0,1,12.888
4210,134.72,5.0302,-4.6879,0.1799,-0.0002,0.0000,0.6090,flat,18.0,1,12.840
4220,135.04,5.3376,-4.4199,0.1799,0.0001,-0.0000,0.8553,flat,18.0,1,12.687
4230,135.36,5.6025,-4.0623,0.1799,0.0001,-0.0001,1.0573,flat,18.0,1,12.447
4240,135.68,5.8251,-3.6058,0.1799,0.0001,-0.0000,1.2682,flat,18.0,1,12.110
4250,136.00,5.9629,-3.0905,0.1799,0.0001,0.0000,1.4499,flat,18.0,1,11.697
4260,136.32,6.0115,-2.5439,0.1799,0.0001,-0.0000,1.6015,flat,18.0,1,11.225
4270,136.64,5.9808,-1.9889,0.1798,0.0004,-0.0000,1.7126,flat,18.0,1,10.717
4280,136.96,5.8917,-1.4368,0.1798,0.0004,-0.0000,1.7928,flat,18.0,1,10.188
4290,137.28,5.7597,-0.8905,0.1797,0.0002,-0.0000,1.8541,flat,18.0,1,9.646
4300,137.60,5.5952,-0.3508,0.1797,0.0002,-0.0000,1.9028,flat,18.0,1,9.096
4310,137.92,5.4051,0.1814,0.1797,0.0001,-0.0000,1.9405,flat,18.0,1,8.541
4320,138.24,5.1952,0.7075,0.1797,0.0001,-0.0000,1.9722,flat,18.0,1,7.982
4330,138.56,4.9688,1.2280,0.1797,0.0001,-0.0000,1.9995,flat,18.0,1,7.420
4340,138.88,4.7283,1.7432,0.1797,0.0001,-0.0000,2.0235,flat,18.0,1,6.857
4350,139.20,4.4755,2.2533,0.1797,0.0001,-0.0000,2.0449,flat,18.0,1,6.291
4360,139.52,4.2119,2.7585,0.1797,0.0001,-0.0000,2.0641,flat,18.0,1,5.725
4370,139.84,3.9386,3.2592,0.1797,0.0001,-0.0000,2.0818,flat,18.0,1,5.157
4380,140.16,3.6565,3.7553,0.1797,0.0001,-0.0000,2.0982,flat,18.0,1,4.588
4390,140.48,3.3663,4.2470,0.1797,0.0001,-0.0000,2.1138,flat,18.0,1,4.020
4400,140.80,3.0683,4.7342,0.1797,0.0001,-0.0000,2.1290,flat,18.0,1,3.450
4410,141.12,2.7630,5.2167,0.1797,0.0001,0.0000,2.1442,flat,18.0,1,2.881
4420,141.44,2.4504,5.6943,0.1797,0.0001,0.0000,2.1601,flat,18.0,1,2.312
4430,141.76,2.1302,6.1661,0.1797,0.0001,0.0000,2.1778,flat,18.0,1,1.744
4440,142.08,1.8018,6.6305,0.1797,0.0001,0.0000,2.1999,flat,18.0,1,1.177
4450,142.40,1.4838,7.0619,0.1798,0.0000,0.0005,2.2906,flat,18.0,2,15.211
4460,142.72,1.2282,7.2928,0.1798,-0.0003,-0.0001,2.6487,flat,18.0,2,15.239
4470,143.04,0.8562,7.4603,0.1799,-0.0000,-0.0001,2.9814,flat,18.0,2,15.156
4480,143.36,0.3959,7.5112,0.1799,0.0001,-0.0000,-3.0140,flat,18.0,2,14.937
4490,143.68,-0.0967,7.4251,0.1799,0.0001,-0.0000,-2.8032,flat,18.0,2,14.597
4500,144.00,-0.5843,7.2281,0.1799,0.0001,-0.0000,-2.6455,flat,18.0,2,14.173
4510,144.32,-1.0499,6.9505,0.1799,0.0003,-0.0000,-2.5293,flat,18.0,2,13.697
4520,144.64,-1.4914,6.6184,0.1798,0.0003,-0.0000,-2.4509,flat,18.0,2,13.191
4530,144.96,-1.9099,6.2523,0.1797,0.0002,-0.0000,-2.3856,flat,18.0,2,12.669
4540,145.28,-2.3064,5.8584,0.1797,0.0002,-0.0000,-2.3297,flat,18.0,2,12.136
4550,145.60,-2.6829,5.4423,0.1797,0.0002,-0.0000,-2.2817,flat,18.0,2,11.594
4560,145.92,-3.0421,5.0090,0.1797,0.0001,-0.0000,-2.2413,flat,18.0,2,11.046
4570,146.24,-3.3861,4.5609,0.1797,0.0001,-0.0000,-2.2056,flat,18.0,2,10.493
4580,146.56,-3.7160,4.1002,0.1797,0.0001,-0.0000,-2.1739,flat,18.0,2,9.936
4590,146.88,-4.0327,3.6288,0.1797,0.0001,-0.0000,-2.1456,flat,18.0,2,9.375
4600,147.20,-4.3373,3.1481,0.1797,0.0001,-0.0000,-2.1204,flat,18.0,2,8.812
4610,147.52,-4.6308,2.6596,0.1797,0.0001,-0.0000,-2.0977,flat,18.0,2,8.247
4620,147.84,-4.9140,2.1641,0.1797,0.0001,-0.0000,-2.0773,flat,18.0,2,7.680
4630,148.16,-5.1878,1.6628,0.1797,0.0001,-0.0000,-2.0587,flat,18.0,2,7.112
4640,148.48,-5.4528,1.1561,0.1797,0.0001,-0.0000,-2.0417,flat,18.0,2,6.543
4650,148.80,-5.7096,0.6449,0.1797,0.0001,-0.0000,-2.0260,flat,18.0,2,5.973
4660,149.12,-5.9588,0.1295,0.1797,0.0001,-0.0000,-2.0115,flat,18.0,2,5.402
4670,149.44,-6.2007,-0.3896,0.1797,0.0000,-0.0000,-1.9978,flat,18.0,2,4.831
4680,149.76,-6.4358,-0.9120,0.1797,0.0000,-0.0000,-1.9848,flat,18.0,2,4.260
4690,150.08,-6.6643,-1.4375,0.1797,0.0000,-0.0000,-1.9722,flat,18.0,2,3.688
4700,150.40,-6.8861,-1.9659,0.1797,0.0000,-0.0000,-1.9596,flat,18.0,2,3.116
4710,150.72,-7.1013,-2.4970,0.1797,0.0000,0.0000,-1.9466,flat,18.0,2,2.544
4720,151.04,-7.3093,-3.0306,0.1797,0.0000,0.0000,-1.9326,flat,18.0,2,1.972
4730,151.36,-7.5095,-3.5667,0.1797,0.0001,0.0000,-1.9158,flat,18.0,2,1.401
4740,151.68,-7.6994,-4.1049,0.1797,0.0001,0.0000,-1.8920,flat,18.0,2,0.833
4750,152.00,-7.8533,-4.5743,0.1798,-0.0003,0.0004,-1.8629,rough,15.5,0,13.198
4760,152.32,-7.9381,-4.8893,0.1798,-0.0001,0.0001,-1.5337,flat,18.0,0,13.288
4770,152.64,-7.9133,-5.2259,0.1799,-0.0002,-0.0002,-1.1995,flat,18.0,0,13.277
4780,152.96,-7.7555,-5.5704,0.1799,0.0000,-0.0003,-0.9699,flat,18.0,0,13.142
4790,153.28,-7.4593,-5.9264,0.1799,0.0000,-0.0000,-0.7521,flat,18.0,0,12.881
4800,153.60,-7.0645,-6.2438,0.1799,0.0000,-0.0000,-0.5675,flat,18.0,0,12.528
4810,153.92,-6.5995,-6.5071,0.1799,0.0001,-0.0000,-0.4032,flat,18.0,0,12.108
4820,154.24,-6.0852,-6.7043,0.1799,0.0002,-0.0000,-0.2629,flat,18.0,0,11.637
4830,154.56,-5.5426,-6.8353,0.1799,0.0004,-0.0000,-0.1508,flat,18.0,0,11.131
4840,154.88,-4.9853,-6.9090,0.1798,0.0004,-0.0000,-0.0617,flat,18.0,0,10.603
4850,155.20,-4.4210,-6.9353,0.1798,0.0003,-0.0000,0.0094,flat,18.0,0,10.060
4860,155.52,-3.8550,-6.9232,0.1797,0.0002,-0.0000,0.0630,flat,18.0,0,9.508
4870,155.84,-3.2894,-6.8822,0.1797,0.0002,-0.0000,0.1047,flat,18.0,0,8.951
4880,156.16,-2.7250,-6.8186,0.1797,0.0001,-0.0000,0.1382,flat,18.0,0,8.391
4890,156.48,-2.1620,-6.7365,0.1797,0.0001,-0.0000,0.1663,flat,18.0,0,7.827
4900,156.80,-1.6005,-6.6389,0.1797,0.0001,-0.0000,0.1904,flat,18.0,0,7.261
4910,157.12,-1.0409,-6.5281,0.1797,0.0001,-0.0000,0.2112,flat,18.0,0,6.694
4920,157.44,-0.4830,-6.4058,0.1797,0.0001,-0.0000,0.2296,flat,18.0,0,6.125
4930,157.76,0.0730,-6.2735,0.1797,0.0001,-0.0000,0.2460,flat,18.0,0,5.556
4940,158.08,0.6272,-6.1321,0.1797,0.0001,-0.0000,0.2608,flat,18.0,0,4.985
4950,158.40,1.1795,-5.9825,0.1797,0.0000,-0.0000,0.2745,flat,18.0,0,4.414
4960,158.72,1.7299,-5.8254,0.1797,0.0000,-0.0000,0.2875,flat,18.0,0,3.843
4970,159.04,2.2783,-5.6613,0.1797,0.0000,-0.0000,0.2999,flat,18.0,0,3.272
4980,159.36,2.8246,-5.4903,0.1797,0.0000,0.0000,0.3124,flat,18.0,0,2.700
4990,159.68,3.3685,-5.3125,0.1797,0.0000,0.0000,0.3255,flat,18.0,0,2.129
5000,160.00,3.9095,-5.1276,0.1797,0.0001,0.0000,0.3402,flat,18.0,0,1.558
5010,160.32,4.4461,-4.9347,0.1797,0.0001,0.0000,0.3596,flat,18.0,0,0.989
5020,160.64,4.9010,-4.7614,0.1798,-0.0002,0.0002,0.5069,flat,18.0,1,12.871
5030,160.96,5.2282,-4.5391,0.1799,-0.0000,0.0001,0.7582,flat,18.0,1,12.763
5040,161.28,5.5231,-4.1961,0.1799,-0.0000,-0.0000,0.9992,flat,18.0,1,12.543
5050,161.60,5.7651,-3.7592,0.1799,0.0001,-0.0000,1.2167,flat,18.0,1,12.228
5060,161.92,5.9260,-3.2562,0.1799,0.0001,0.0000,1.4056,flat,18.0,1,11.832
5070,162.24,5.9974,-2.7152,0.1799,0.0001,-0.0000,1.5648,flat,18.0,1,11.373
5080,162.56,5.9858,-2.1605,0.1799,0.0003,-0.0000,1.6867,flat,18.0,1,10.871
5090,162.88,5.9105,-1.6070,0.1798,0.0004,-0.0000,1.7730,flat,18.0,1,10.346
5100,163.20,5.7892,-1.0589,0.1797,0.0003,-0.0000,1.8383,flat,18.0,1,9.807
5110,163.52,5.6331,-0.5172,0.1797,0.0002,-0.0000,1.8896,flat,18.0,1,9.259
5120,163.84,5.4498,0.0173,0.1797,0.0001,-0.0000,1.9298,flat,18.0,1,8.705
5130,164.16,5.2455,0.5453,0.1797,0.0001,-0.0000,1.9627,flat,18.0,1,8.147
5140,164.48,5.0241,1.0677,0.1797,0.0001,-0.0000,1.9910,flat,18.0,1,7.586
5150,164.80,4.7881,1.5847,0.1797,0.0001,-0.0000,2.0156,flat,18.0,1,7.022
5160,165.12,4.5393,2.0966,0.1797,0.0001,-0.0000,2.0375,flat,18.0,1,6.457
5170,165.44,4.2794,2.6036,0.1797,0.0001,-0.0000,2.0572,flat,18.0,1,5.891
5180,165.76,4.0096,3.1060,0.1797,0.0001,-0.0000,2.0751,flat,18.0,1,5.323
5190,166.08,3.7308,3.6040,0.1797,0.0001,-0.0000,2.0918,flat,18.0,1,4.755
5200,166.40,3.4438,4.0975,0.1797,0.0001,-0.0000,2.1075,flat,18.0,1,4.186
5210,166.72,3.1490,4.5866,0.1797,0.0001,-0.0000,2.1226,flat,18.0,1,3.617
5220,167.04,2.8467,5.0712,0.1797,0.0001,-0.0000,2.1377,flat,18.0,1,3.048
5230,167.36,2.5373,5.5510,0.1797,0.0001,0.0000,2.1532,flat,18.0,1,2.478
5240,167.68,2.2204,6.0253,0.1797,0.0001,0.0000,2.1701,flat,18.0,1,1.910
5250,168.00,1.8955,6.4929,0.1797,0.0001,0.0000,2.1903,flat,18.0,1,1.343
5260,168.32,1.5616,6.9504,0.1797,0.0001,0.0000,2.2195,flat,18.0,2,15.172
5270,168.64,1.3118,7.2328,0.1798,-0.0003,0.0000,2.5421,flat,18.0,2,15.242
5280,168.96,0.9763,7.4220,0.1799,-0.0000,-0.0001,2.8833,flat,18.0,2,15.194
5290,169.28,0.5371,7.5142,0.1799,0.0000,-0.0000,-3.0932,flat,18.0,2,15.019
5300,169.60,0.0492,7.4680,0.1799,0.0001,-0.0000,-2.8601,flat,18.0,2,14.711
5310,169.92,-0.4423,7.3014,0.1799,0.0001,-0.0000,-2.6885,flat,18.0,2,14.309
5320,170.24,-0.9156,7.0451,0.1799,0.0003,-0.0000,-2.5604,flat,18.0,2,13.847
5330,170.56,-1.3638,6.7270,0.1798,0.0004,-0.0000,-2.4719,flat,18.0,2,13.348
5340,170.88,-1.7894,6.3699,0.1797,0.0002,-0.0000,-2.4049,flat,18.0,2,12.830
5350,171.20,-2.1921,5.9839,0.1797,0.0002,-0.0000,-2.3454,flat,18.0,2,12.300
5360,171.52,-2.5744,5.5739,0.1797,0.0002,-0.0000,-2.2951,flat,18.0,2,11.760
5370,171.84,-2.9384,5.1454,0.1797,0.0001,-0.0000,-2.2527,flat,18.0,2,11.214
5380,172.16,-3.2868,4.7015,0.1797,0.0001,-0.0000,-2.2156,flat,18.0,2,10.663
5390,172.48,-3.6206,4.2442,0.1797,0.0001,-0.0000,-2.1828,flat,18.0,2,10.107
5400,172.80,-3.9411,3.7758,0.1797,0.0001,-0.0000,-2.1535,flat,18.0,2,9.547
5410,173.12,-4.2491,3.2976,0.1797,0.0001,-0.0000,-2.1274,flat,18.0,2,8.985
5420,173.44,-4.5457,2.8112,0.1797,0.0001,-0.0000,-2.1040,flat,18.0,2,8.420
5430,173.76,-4.8317,2.3177,0.1797,0.0001,-0.0000,-2.0828,flat,18.0,2,7.854
5440,174.08,-5.1081,1.8179,0.1797,0.0001,-0.0000,-2.0637,flat,18.0,2,7.286
5450,174.40,-5.3754,1.3127,0.1797,0.0001,-0.0000,-2.0463,flat,18.0,2,6.717
5460,174.72,-5.6345,0.8027,0.1797,0.0001,-0.0000,-2.0302,flat,18.0,2,6.147
5470,175.04,-5.8857,0.2884,0.1797,0.0001,-0.0000,-2.0154,flat,18.0,2,5.577
5480,175.36,-6.1296,-0.2297,0.1797,0.0000,-0.0000,-2.0015,flat,18.0,2,5.006
5490,175.68,-6.3665,-0.7512,0.1797,0.0000,-0.0000,-1.9883,flat,18.0,2,4.435
5500,176.00,-6.5967,-1.2759,0.1797,0.0000,-0.0000,-1.9755,flat,18.0,2,3.863
5510,176.32,-6.8203,-1.8036,0.1797,0.0000,-0.0000,-1.9630,flat,18.0,2,3.291
5520,176.64,-7.0373,-2.3339,0.1797,0.0000,0.0000,-1.9502,flat,18.0,2,2.719
5530,176.96,-7.2474,-2.8669,0.1797,0.0000,0.0000,-1.9366,flat,18.0,2,2.147
5540,177.28,-7.4499,-3.4024,0.1797,0.0001,0.0000,-1.9209,flat,18.0,2,1.576
5550,177.60,-7.6431,-3.9401,0.1797,0.0001,0.0000,-1.9002,flat,18.0,2,1.006
5560,177.92,-7.8171,-4.4531,0.1799,-0.0000,0.0003,-1.9540,flat,18.0,0,13.162
5570,178.24,-7.9185,-4.7948,0.1798,-0.0003,0.0001,-1.6450,rough,15.5,0,13.266
5580,178.56,-7.9352,-5.1164,0.1799,-0.0001,-0.0000,-1.2967,flat,18.0,0,13.293
5590,178.88,-7.8104,-5.4697,0.1799,-0.0000,-0.0003,-1.0256,flat,18.0,0,13.189
5600,179.20,-7.5414,-5.8329,0.1799,-0.0000,-0.0000,-0.7940,flat,18.0,0,12.953
5610,179.52,-7.1642,-6.1596,0.1799,0.0000,-0.0000,-0.6059,flat,18.0,0,12.616
5620,179.84,-6.7125,-6.4362,0.1799,0.0001,-0.0000,-0.4372,flat,18.0,0,12.208
5630,180.16,-6.2070,-6.6484,0.1799,0.0001,-0.0000,-0.2917,flat,18.0,0,11.746
5640,180.48,-5.6691,-6.7936,0.1799,0.0003,-0.0000,-0.1740,flat,18.0,0,11.246
5650,180.80,-5.1143,-6.8795,0.1798,0.0004,-0.0000,-0.0807,flat,18.0,0,10.722
5660,181.12,-4.5510,-6.9160,0.1798,0.0003,-0.0000,-0.0061,flat,18.0,0,10.182
5670,181.44,-3.9850,-6.9123,0.1797,0.0002,-0.0000,0.0511,flat,18.0,0,9.631
5680,181.76,-3.4192,-6.8779,0.1797,0.0002,-0.0000,0.0949,flat,18.0,0,9.075
5690,182.08,-2.8545,-6.8197,0.1797,0.0001,-0.0000,0.1298,flat,18.0,0,8.515
5700,182.40,-2.2910,-6.7423,0.1797,0.0001,-0.0000,0.1589,flat,18.0,0,7.952
5710,182.72,-1.7290,-6.6488,0.1797,0.0001,-0.0000,0.1837,flat,18.0,0,7.387
5720,183.04,-1.1687,-6.5417,0.1797,0.0001,-0.0000,0.2052,flat,18.0,0,6.820
5730,183.36,-0.6102,-6.4227,0.1797,0.0001,-0.0000,0.2240,flat,18.0,0,6.251
5740,183.68,-0.0536,-6.2934,0.1797,0.0001,-0.0000,0.2408,flat,18.0,0,5.682
5750,184.00,0.5013,-6.1549,0.1797,0.0001,-0.0000,0.2559,flat,18.0,0,5.112
5760,184.32,1.0542,-6.0081,0.1797,0.0000,-0.0000,0.2698,flat,18.0,0,4.541
5770,184.64,1.6054,-5.8536,0.1797,0.0000,-0.0000,0.2829,flat,18.0,0,3.970
5780,184.96,2.1545,-5.6920,0.1797,0.0000,-0.0000,0.2954,flat,18.0,0,3.399
5790,185.28,2.7016,-5.5235,0.1797,0.0000,-0.0000,0.3078,flat,18.0,0,2.827
5800,185.60,3.2465,-5.3482,0.1797,0.0000,0.0000,0.3206,flat,18.0,0,2.256
5810,185.92,3.7885,-5.1660,0.1797,0.0000,0.0000,0.3348,flat,18.0,0,1.685
5820,186.24,4.3267,-4.9760,0.1797,0.0001,0.0000,0.3527,flat,18.0,0,1.115
5830,186.56,4.8156,-4.7974,0.1798,0.0000,0.0004,0.4542,flat,18.0,1,12.880
5840,186.88,5.1597,-4.5943,0.1799,-0.0001,-0.0000,0.7214,flat,18.0,1,12.793
5850,187.20,5.4517,-4.2818,0.1799,0.0001,0.0002,0.9453,rough,15.5,1,12.597
5860,187.52,5.7006,-3.8886,0.1799,0.0000,-0.0000,1.1450,flat,18.0,1,12.322
5870,187.84,5.8910,-3.4051,0.1799,0.0001,0.0000,1.3445,flat,18.0,1,11.953
5880,188.16,5.9927,-2.8742,0.1799,0.0001,0.0000,1.5141,flat,18.0,1,11.514
5890,188.48,6.0076,-2.3220,0.1799,0.0002,-0.0000,1.6511,flat,18.0,1,11.025
5900,188.80,5.9511,-1.7675,0.1798,0.0004,-0.0000,1.7475,flat,18.0,1,10.507
5910,189.12,5.8433,-1.2175,0.1798,0.0003,-0.0000,1.8192,flat,18.0,1,9.972
5920,189.44,5.6974,-0.6738,0.1797,0.0002,-0.0000,1.8749,flat,18.0,1,9.427
5930,189.76,5.5218,-0.1371,0.1797,0.0002,-0.0000,1.9189,flat,18.0,1,8.874
5940,190.08,5.3233,0.3925,0.1797,0.0001,-0.0000,1.9538,flat,18.0,1,8.318
5950,190.40,5.1065,0.9164,0.1797,0.0001,-0.0000,1.9836,flat,18.0,1,7.758
5960,190.72,4.8742,1.4347,0.1797,0.0001,-0.0000,2.0095,flat,18.0,1,7.195
5970,191.04,4.6286,1.9478,0.1797,0.0001,-0.0000,2.0323,flat,18.0,1,6.631
5980,191.36,4.3713,2.4559,0.1797,0.0001,-0.0000,2.0528,flat,18.0,1,6.065
5990,191.68,4.1037,2.9593,0.1797,0.0001,-0.0000,2.0714,flat,18.0,1,5.498
6000,192.00,3.8268,3.4581,0.1797,0.0001,-0.0000,2.0885,flat,18.0,1,4.930
6010,192.32,3.5414,3.9525,0.1797,0.0001,-0.0000,2.1045,flat,18.0,1,4.361
6020,192.64,3.2480,4.4424,0.1797,0.0001,-0.0000,2.1199,flat,18.0,1,3.792
6030,192.96,2.9471,4.9277,0.1797,0.0001,-0.0000,2.1350,flat,18.0,1,3.223
6040,193.28,2.6389,5.4084,0.1797,0.0001,0.0000,2.1504,flat,18.0,1,2.653
6050,193.60,2.3233,5.8838,0.1797,0.0001,0.0000,2.1669,flat,18.0,1,2.085
6060,193.92,1.9999,6.3529,0.1797,0.0001,0.0000,2.1859,flat,18.0,1,1.517
6070,194.24,1.6679,6.8132,0.1797,0.0001,0.0000,2.2113,flat,18.0,1,0.952
6080,194.56,1.3924,7.1661,0.1798,-0.0001,0.0002,2.4370,flat,18.0,2,15.237
6090,194.88,1.0933,7.3696,0.1799,-0.0001,-0.0001,2.7854,flat,18.0,2,15.221
6100,195.20,0.6795,7.4976,0.1799,0.0000,-0.0000,3.1046,flat,18.0,2,15.085
6110,195.52,0.2000,7.4921,0.1799,0.0001,-0.0000,-2.9217,flat,18.0,2,14.813
6120,195.84,-0.2935,7.3579,0.1799,0.0001,-0.0000,-2.7348,flat,18.0,2,14.435
6130,196.16,-0.7738,7.1251,0.1799,0.0002,-0.0000,-2.5942,flat,18.0,2,13.987
6140,196.48,-1.2289,6.8229,0.1798,0.0004,-0.0000,-2.4938,flat,18.0,2,13.498
6150,196.80,-1.6615,6.4755,0.1798,0.0003,-0.0000,-2.4239,flat,18.0,2,12.984
6160,197.12,-2.0708,6.0977,0.1797,0.0002,-0.0000,-2.3619,flat,18.0,2,12.457
6170,197.44,-2.4592,5.6942,0.1797,0.0002,-0.0000,-2.3095,flat,18.0,2,11.920
6180,197.76,-2.8284,5.2708,0.1797,0.0002,-0.0000,-2.2648,flat,18.0,2,11.375
6190,198.08,-3.1814,4.8313,0.1797,0.0001,-0.0000,-2.2265,flat,18.0,2,10.825
6200,198.40,-3.5195,4.3779,0.1797,0.0001,-0.0000,-2.1924,flat,18.0,2,10.271
6210,198.72,-3.8440,3.9127,0.1797,0.0001,-0.0000,-2.1622,flat,18.0,2,9.712
6220,199.04,-4.1558,3.4374,0.1797,0.0001,-0.0000,-2.1352,flat,18.0,2,9.150
6230,199.36,-4.4558,2.9535,0.1797,0.0001,-0.0000,-2.1110,flat,18.0,2,8.586
6240,199.68,-4.7451,2.4620,0.1797,0.0001,-0.0000,-2.0893,flat,18.0,2,8.020
6250,200.00,-5.0245,1.9641,0.1797,0.0001,-0.0000,-2.0696,flat,18.0,2,7.453
6260,200.32,-5.2946,1.4606,0.1797,0.0001,-0.0000,-2.0517,flat,18.0,2,6.885
6270,200.64,-5.5563,0.9520,0.1797,0.0001,-0.0000,-2.0353,flat,18.0,2,6.315
6280,200.96,-5.8100,0.4391,0.1797,0.0001,-0.0000,-2.0201,flat,18.0,2,5.745
6290,201.28,-6.0563,-0.0778,0.1797,0.0001,-0.0000,-2.0060,flat,18.0,2,5.174
6300,201.60,-6.2955,-0.5983,0.1797,0.0000,-0.0000,-1.9926,flat,18.0,2,4.603
6310,201.92,-6.5279,-1.1220,0.1797,0.0000,-0.0000,-1.9797,flat,18.0,2,4.031
6320,202.24,-6.7537,-1.6486,0.1797,0.0000,-0.0000,-1.9672,flat,18.0,2,3.459
6330,202.56,-6.9729,-2.1781,0.1797,0.0000,-0.0000,-1.9545,flat,18.0,2,2.887
6340,202.88,-7.1853,-2.7102,0.1797,0.0000,0.0000,-1.9412,flat,18.0,2,2.315
6350,203.20,-7.3904,-3.2449,0.1797,0.0001,0.0000,-1.9264,flat,18.0,2,1.744
6360,203.52,-7.5868,-3.7819,0.1797,0.0001,0.0000,-1.9077,flat,18.0,2,1.173
6370,203.84,-7.7650,-4.3106,0.1797,0.0000,0.0001,-1.9412,flat,18.0,3,0.873
6380,204.16,-7.8921,-4.7053,0.1798,-0.0004,0.0001,-1.7527,rough,15.5,0,13.238
6390,204.48,-7.9466,-5.0178,0.1798,-0.0002,-0.0002,-1.3858,flat,18.0,0,13.301
6400,204.80,-7.8636,-5.3651,0.1799,0.0000,-0.0000,-1.1022,rough,15.5,0,13.235
6410,205.12,-7.6521,-5.7170,0.1799,-0.0000,-0.0000,-0.8753,flat,18.0,0,13.052
6420,205.44,-7.3111,-6.0587,0.1799,0.0000,-0.0000,-0.6762,flat,18.0,0,12.749
6430,205.76,-6.8858,-6.3566,0.1799,0.0001,-0.0000,-0.4991,flat,18.0,0,12.368
6440,206.08,-6.3986,-6.5942,0.1799,0.0001,-0.0000,-0.3440,flat,18.0,0,11.925
6450,206.40,-5.8706,-6.7643,0.1799,0.0003,-0.0000,-0.2149,flat,18.0,0,11.438
6460,206.72,-5.3209,-6.8711,0.1798,0.0004,-0.0000,-0.1127,flat,18.0,0,10.922
6470,207.04,-4.7601,-6.9247,0.1798,0.0004,-0.0000,-0.0313,flat,18.0,0,10.387
6480,207.36,-4.1944,-6.9345,0.1797,0.0003,-0.0000,0.0333,flat,18.0,0,9.840
6490,207.68,-3.6287,-6.9100,0.1797,0.0002,-0.0000,0.0809,flat,18.0,0,9.286
6500,208.00,-3.0636,-6.8593,0.1797,0.0001,-0.0000,0.1188,flat,18.0,0,8.728
6510,208.32,-2.4997,-6.7879,0.1797,0.0001,-0.0000,0.1500,flat,18.0,0,8.166
6520,208.64,-1.9372,-6.6993,0.1797,0.0001,-0.0000,0.1764,flat,18.0,0,7.601
6530,208.96,-1.3765,-6.5962,0.1797,0.0001,-0.0000,0.1990,flat,18.0,0,7.034
6540,209.28,-0.8175,-6.4806,0.1797,0.0001,-0.0000,0.2188,flat,18.0,0,6.466
6550,209.60,-0.2604,-6.3541,0.1797,0.0001,-0.0000,0.2363,flat,18.0,0,5.897
6560,209.92,0.2949,-6.2180,0.1797,0.0001,-0.0000,0.2521,flat,18.0,0,5.328
6570,210.24,0.8483,-6.0733,0.1797,0.0001,-0.0000,0.2664,flat,18.0,0,4.757
6580,210.56,1.3998,-5.9206,0.1797,0.0000,-0.0000,0.2798,flat,18.0,0,4.186
6590,210.88,1.9495,-5.7607,0.1797,0.0000,-0.0000,0.2925,flat,18.0,0,3.615
6600,211.20,2.4971,-5.5938,0.1797,0.0000,-0.0000,0.3049,flat,18.0,0,3.043
6610,211.52,3.0424,-5.4201,0.1797,0.0000,0.0000,0.3175,flat,18.0,0,2.472
6620,211.84,3.5853,-5.2395,0.1797,0.0000,0.0000,0.3311,flat,18.0,0,1.901
6630,212.16,4.1247,-5.0515,0.1797,0.0001,0.0000,0.3472,flat,18.0,0,1.331
6640,212.48,4.6587,-4.8549,0.1797,0.0001,0.0000,0.3705,flat,18.0,1,12.889
6650,212.80,5.0417,-4.6840,0.1799,-0.0002,0.0000,0.6121,flat,18.0,1,12.840
6660,213.12,5.3501,-4.4150,0.1799,0.0000,-0.0001,0.8577,flat,18.0,1,12.687
6670,213.44,5.6283,-4.0312,0.1799,0.0000,-0.0000,1.0892,flat,18.0,1,12.427
6680,213.76,5.8400,-3.5643,0.1799,0.0001,-0.0000,1.2959,flat,18.0,1,12.078
6690,214.08,5.9651,-3.0429,0.1799,0.0001,0.0000,1.4728,flat,18.0,1,11.654
6700,214.40,6.0019,-2.4938,0.1799,0.0001,-0.0000,1.6194,flat,18.0,1,11.176
6710,214.72,5.9621,-1.9386,0.1798,0.0004,-0.0000,1.7244,flat,18.0,1,10.663
6720,215.04,5.8667,-1.3871,0.1798,0.0003,-0.0000,1.8011,flat,18.0,1,10.132
6730,215.36,5.7304,-0.8414,0.1797,0.0002,-0.0000,1.8602,flat,18.0,1,9.589
6740,215.68,5.5627,-0.3024,0.1797,0.0002,-0.0000,1.9072,flat,18.0,1,9.038
6750,216.00,5.3703,0.2292,0.1797,0.0001,-0.0000,1.9436,flat,18.0,1,8.482
6760,216.32,5.1588,0.7549,0.1797,0.0001,-0.0000,1.9745,flat,18.0,1,7.923
6770,216.64,4.9313,1.2751,0.1797,0.0001,-0.0000,2.0012,flat,18.0,1,7.361
6780,216.96,4.6900,1.7900,0.1797,0.0001,-0.0000,2.0247,flat,18.0,1,6.797
6790,217.28,4.4366,2.3000,0.1797,0.0001,-0.0000,2.0456,flat,18.0,1,6.231
6800,217.60,4.1726,2.8051,0.1797,0.0001,-0.0000,2.0645,flat,18.0,1,5.664
6810,217.92,3.8991,3.3057,0.1797,0.0001,-0.0000,2.0819,flat,18.0,1,5.096
6820,218.24,3.6169,3.8019,0.1797,0.0001,-0.0000,2.0981,flat,18.0,1,4.528
6830,218.56,3.3267,4.2937,0.1797,0.0001,-0.0000,2.1136,flat,18.0,1,3.959
6840,218.88,3.0289,4.7810,0.1797,0.0001,-0.0000,2.1286,flat,18.0,1,3.389
6850,219.20,2.7238,5.2637,0.1797,0.0001,0.0000,2.1438,flat,18.0,1,2.820
6860,219.52,2.4114,5.7414,0.1797,0.0001,0.0000,2.1597,flat,18.0,1,2.251
6870,219.84,2.0914,6.2133,0.1797,0.0001,0.0000,2.1776,flat,18.0,1,1.683
6880,220.16,1.7632,6.6775,0.1797,0.0001,0.0000,2.2003,flat,18.0,1,1.117
6890,220.48,1.4575,7.0941,0.1798,-0.0000,0.0005,2.3279,flat,18.0,2,15.220
6900,220.80,1.1928,7.3151,0.1798,-0.0002,-0.0001,2.6814,flat,18.0,2,15.236
6910,221.12,0.8103,7.4743,0.1799,-0.0000,-0.0001,3.0113,flat,18.0,2,15.141
6920,221.44,0.3446,7.5120,0.1799,0.0000,-0.0000,-2.9907,flat,18.0,2,14.910
6930,221.76,-0.1486,7.4140,0.1799,0.0001,-0.0000,-2.7854,flat,18.0,2,14.560
6940,222.08,-0.6346,7.2080,0.1799,0.0001,-0.0000,-2.6324,flat,18.0,2,14.130
6950,222.40,-1.0975,6.9240,0.1798,0.0003,-0.0000,-2.5199,flat,18.0,2,13.651
6960,222.72,-1.5368,6.5880,0.1798,0.0003,-0.0000,-2.4439,flat,18.0,2,13.142
6970,223.04,-1.9530,6.2188,0.1797,0.0002,-0.0000,-2.3795,flat,18.0,2,12.619
6980,223.36,-2.3474,5.8224,0.1797,0.0002,-0.0000,-2.3245,flat,18.0,2,12.085
6990,223.68,-2.7220,5.4045,0.1797,0.0002,-0.0000,-2.2773,flat,18.0,2,11.543
7000,224.00,-3.0796,4.9696,0.1797,0.0001,-0.0000,-2.2373,flat,18.0,2,10.994
7010,224.32,-3.4220,4.5200,0.1797,0.0001,-0.0000,-2.2020,flat,18.0,2,10.441
7020,224.64,-3.7504,4.0581,0.1797,0.0001,-0.0000,-2.1706,flat,18.0,2,9.883
7030,224.96,-4.0657,3.5856,0.1797,0.0001,-0.0000,-2.1427,flat,18.0,2,9.322
7040,225.28,-4.3691,3.1040,0.1797,0.0001,-0.0000,-2.1177,flat,18.0,2,8.759
7050,225.60,-4.6613,2.6146,0.1797,0.0001,-0.0000,-2.0953,flat,18.0,2,8.194
7060,225.92,-4.9434,2.1185,0.1797,0.0001,-0.0000,-2.0750,flat,18.0,2,7.627
7070,226.24,-5.2161,1.6165,0.1797,0.0001,-0.0000,-2.0566,flat,18.0,2,7.059
7080,226.56,-5.4800,1.1093,0.1797,0.0001,-0.0000,-2.0397,flat,18.0,2,6.489
7090,226.88,-5.7359,0.5975,0.1797,0.0001,-0.0000,-2.0242,flat,18.0,2,5.919
7100,227.20,-5.9841,0.0816,0.1797,0.0001,-0.0000,-2.0097,flat,18.0,2,5.349
7110,227.52,-6.2252,-0.4379,0.1797,0.0000,-0.0000,-1.9961,flat,18.0,2,4.778
7120,227.84,-6.4594,-0.9607,0.1797,0.0000,-0.0000,-1.9831,flat,18.0,2,4.206
7130,228.16,-6.6870,-1.4866,0.1797,0.0000,-0.0000,-1.9705,flat,18.0,2,3.634
7140,228.48,-6.9079,-2.0154,0.1797,0.0000,-0.0000,-1.9579,flat,18.0,2,3.062
7150,228.80,-7.1222,-2.5468,0.1797,0.0000,0.0000,-1.9449,flat,18.0,2,2.490
7160,229.12,-7.3294,-3.0808,0.1797,0.0000,0.0000,-1.9307,flat,18.0,2,1.919
7170,229.44,-7.5284,-3.6172,0.1797,0.0001,0.0000,-1.9136,flat,18.0,2,1.348
7180,229.76,-7.7170,-4.1556,0.1797,0.0001,0.0000,-1.8884,flat,18.0,3,1.016
7190,230.08,-7.8622,-4.6045,0.1798,-0.0002,0.0004,-1.8423,rough,15.5,0,13.207
7200,230.40,-7.9434,-4.9193,0.1798,-0.0002,-0.0001,-1.4817,flat,18.0,0,13.294
7210,230.72,-7.9012,-5.2630,0.1799,0.0000,-0.0001,-1.1627,rough,15.5,0,13.267
7220,231.04,-7.7190,-5.6184,0.1799,0.0000,-0.0001,-0.9247,flat,18.0,0,13.110
7230,231.36,-7.4007,-5.9682,0.1799,0.0000,-0.0000,-0.7167,flat,18.0,0,12.827
7240,231.68,-6.9913,-6.2773,0.1799,0.0000,-0.0000,-0.5359,flat,18.0,0,12.460
7250,232.00,-6.5156,-6.5291,0.1799,0.0001,-0.0000,-0.3761,flat,18.0,0,12.029
7260,232.32,-5.9946,-6.7142,0.1799,0.0002,-0.0000,-0.2412,flat,18.0,0,11.550
7270,232.64,-5.4486,-6.8344,0.1798,0.0004,-0.0000,-0.1341,flat,18.0,0,11.039
7280,232.96,-4.8896,-6.8994,0.1798,0.0004,-0.0000,-0.0488,flat,18.0,0,10.507
7290,233.28,-4.3245,-6.9188,0.1798,0.0003,-0.0000,0.0191,flat,18.0,0,9.962
7300,233.60,-3.7586,-6.9017,0.1797,0.0002,-0.0000,0.0698,flat,18.0,0,9.410
7310,233.92,-3.1931,-6.8571,0.1797,0.0001,-0.0000,0.1097,flat,18.0,0,8.852
7320,234.24,-2.6288,-6.7907,0.1797,0.0001,-0.0000,0.1420,flat,18.0,0,8.290
7330,234.56,-2.0659,-6.7066,0.1797,0.0001,-0.0000,0.1693,flat,18.0,0,7.726
7340,234.88,-1.5046,-6.6074,0.1797,0.0001,-0.0000,0.1927,flat,18.0,0,7.160
7350,235.20,-0.9450,-6.4953,0.1797,0.0001,-0.0000,0.2130,flat,18.0,0,6.592
7360,235.52,-0.3873,-6.3721,0.1797,0.0001,-0.0000,0.2309,flat,18.0,0,6.024
7370,235.84,0.1687,-6.2390,0.1797,0.0001,-0.0000,0.2470,flat,18.0,0,5.454
7380,236.16,0.7228,-6.0970,0.1797,0.0001,-0.0000,0.2616,flat,18.0,0,4.883
7390,236.48,1.2750,-5.9471,0.1797,0.0000,-0.0000,0.2751,flat,18.0,0,4.313
7400,236.80,1.8253,-5.7897,0.1797,0.0000,-0.0000,0.2879,flat,18.0,0,3.741
7410,237.12,2.3737,-5.6253,0.1797,0.0000,-0.0000,0.3003,flat,18.0,0,3.170
7420,237.44,2.9200,-5.4541,0.1797,0.0000,0.0000,0.3128,flat,18.0,0,2.598
7430,237.76,3.4637,-5.2761,0.1797,0.0000,0.0000,0.3260,flat,18.0,0,2.027
7440,238.08,4.0044,-5.0909,0.1797,0.0001,0.0000,0.3413,flat,18.0,0,1.457
7450,238.40,4.5404,-4.8974,0.1797,0.0001,0.0000,0.3621,flat,18.0,0,0.888
7460,238.72,4.9611,-4.7281,0.1798,-0.0003,0.0000,0.5547,flat,18.0,1,12.857
7470,239.04,5.2774,-4.4841,0.1799,-0.0000,0.0001,0.8070,flat,18.0,1,12.728
7480,239.36,5.5515,-4.1421,0.1799,0.0000,-0.0002,1.0159,flat,18.0,1,12.502
7490,239.68,5.7870,-3.7027,0.1799,0.0001,-0.0000,1.2283,flat,18.0,1,12.184
7500,240.00,5.9426,-3.1969,0.1799,0.0001,0.0000,1.4159,flat,18.0,1,11.785
7510,240.32,6.0087,-2.6546,0.1799,0.0001,-0.0000,1.5738,flat,18.0,1,11.323
7520,240.64,5.9923,-2.0998,0.1799,0.0003,-0.0000,1.6935,flat,18.0,1,10.820
7530,240.96,5.9134,-1.5468,0.1798,0.0004,-0.0000,1.7785,flat,18.0,1,10.295
7540,241.28,5.7891,-0.9992,0.1797,0.0002,-0.0000,1.8430,flat,18.0,1,9.755
7550,241.60,5.6304,-0.4582,0.1797,0.0002,-0.0000,1.8939,flat,18.0,1,9.206
7560,241.92,5.4449,0.0755,0.1797,0.0001,-0.0000,1.9336,flat,18.0,1,8.652
7570,242.24,5.2386,0.6028,0.1797,0.0001,-0.0000,1.9663,flat,18.0,1,8.094
7580,242.56,5.0153,1.1244,0.1797,0.0001,-0.0000,1.9944,flat,18.0,1,7.533
7590,242.88,4.7775,1.6406,0.1797,0.0001,-0.0000,2.0190,flat,18.0,1,6.970
7600,243.20,4.5270,2.1517,0.1797,0.0001,-0.0000,2.0408,flat,18.0,1,6.404
7610,243.52,4.2655,2.6579,0.1797,0.0001,-0.0000,2.0604,flat,18.0,1,5.838
7620,243.84,3.9940,3.1594,0.1797,0.0001,-0.0000,2.0784,flat,18.0,1,5.270
7630,244.16,3.7136,3.6564,0.1797,0.0001,-0.0000,2.0950,flat,18.0,1,4.702
7640,244.48,3.4249,4.1490,0.1797,0.0001,-0.0000,2.1108,flat,18.0,1,4.133
7650,244.80,3.1285,4.6371,0.1797,0.0001,-0.0000,2.1260,flat,18.0,1,3.564
7660,245.12,2.8247,5.1206,0.1797,0.0001,0.0000,2.1411,flat,18.0,1,2.995
7670,245.44,2.5135,5.5992,0.1797,0.0001,0.0000,2.1568,flat,18.0,1,2.426
7680,245.76,2.1949,6.0723,0.1797,0.0001,0.0000,2.1740,flat,18.0,1,1.857
7690,246.08,1.8682,6.5383,0.1797,0.0001,0.0000,2.1949,flat,18.0,1,1.290
7700,246.40,1.5357,6.9912,0.1797,0.0001,0.0003,2.2419,flat,18.0,2,15.188
7710,246.72,1.2879,7.2515,0.1798,-0.0003,-0.0000,2.5790,flat,18.0,2,15.242
7720,247.04,0.9394,7.4342,0.1799,-0.0000,-0.0001,2.9175,flat,18.0,2,15.183
7730,247.36,0.4922,7.5125,0.1799,0.0000,-0.0000,-3.0650,flat,18.0,2,14.992
7740,247.68,0.0023,7.4522,0.1799,0.0001,-0.0000,-2.8405,flat,18.0,2,14.673
7750,248.00,-0.4882,7.2750,0.1799,0.0001,-0.0000,-2.6736,flat,18.0,2,14.263
7760,248.32,-0.9590,7.0111,0.1799,0.0003,-0.0000,-2.5495,flat,18.0,2,13.795
7770,248.64,-1.4048,6.6880,0.1798,0.0003,-0.0000,-2.4649,flat,18.0,2,13.294
7780,248.96,-1.8281,6.3278,0.1797,0.0002,-0.0000,-2.3982,flat,18.0,2,12.774
7790,249.28,-2.2287,5.9391,0.1797,0.0002,-0.0000,-2.3401,flat,18.0,2,12.243
7800,249.60,-2.6091,5.5271,0.1797,0.0002,-0.0000,-2.2906,flat,18.0,2,11.703
7810,249.92,-2.9715,5.0970,0.1797,0.0001,-0.0000,-2.2490,flat,18.0,2,11.156
7820,250.24,-3.3185,4.6517,0.1797,0.0001,-0.0000,-2.2124,flat,18.0,2,10.604
7830,250.56,-3.6511,4.1933,0.1797,0.0001,-0.0000,-2.1799,flat,18.0,2,10.048
7840,250.88,-3.9703,3.7239,0.1797,0.0001,-0.0000,-2.1510,flat,18.0,2,9.488
7850,251.20,-4.2773,3.2450,0.1797,0.0001,-0.0000,-2.1252,flat,18.0,2,8.925
7860,251.52,-4.5729,2.7579,0.1797,0.0001,-0.0000,-2.1021,flat,18.0,2,8.360
7870,251.84,-4.8582,2.2638,0.1797,0.0001,-0.0000,-2.0812,flat,18.0,2,7.794
7880,252.16,-5.1337,1.7635,0.1797,0.0001,-0.0000,-2.0623,flat,18.0,2,7.226
7890,252.48,-5.4004,1.2579,0.1797,0.0001,-0.0000,-2.0450,flat,18.0,2,6.657
7900,252.80,-5.6588,0.7475,0.1797,0.0001,-0.0000,-2.0291,flat,18.0,2,6.087
7910,253.12,-5.9095,0.2329,0.1797,0.0001,-0.0000,-2.0143,flat,18.0,2,5.517
7920,253.44,-6.1529,-0.2854,0.1797,0.0000,-0.0000,-2.0005,flat,18.0,2,4.946
7930,253.76,-6.3893,-0.8072,0.1797,0.0000,-0.0000,-1.9874,flat,18.0,2,4.374
7940,254.08,-6.6191,-1.3322,0.1797,0.0000,-0.0000,-1.9747,flat,18.0,2,3.802
7950,254.40,-6.8422,-1.8600,0.1797,0.0000,-0.0000,-1.9621,flat,18.0,2,3.230
7960,254.72,-7.0588,-2.3905,0.1797,0.0000,0.0000,-1.9493,flat,18.0,2,2.659
7970,255.04,-7.2683,-2.9237,0.1797,0.0000,0.0000,-1.9355,flat,18.0,2,2.087
7980,255.36,-7.4701,-3.4593,0.1797,0.0001,0.0000,-1.9195,flat,18.0,2,1.516
7990,255.68,-7.6624,-3.9971,0.1797,0.0001,0.0000,-1.8978,flat,18.0,2,0.946
8000,256.00,-7.8311,-4.4979,0.1799,-0.0005,0.0004,-1.9254,flat,18.0,0,13.176
8010,256.32,-7.9268,-4.8280,0.1798,-0.0002,0.0000,-1.6083,flat,18.0,0,13.275
8020,256.64,-7.9306,-5.1566,0.1799,-0.0002,-0.0000,-1.2580,rough,15.5,0,13.291
8030,256.96,-7.7972,-5.5002,0.1799,0.0001,-0.0000,-1.0176,rough,15.5,0,13.178
8040,257.28,-7.5280,-5.8582,0.1799,-0.0000,-0.0001,-0.7910,flat,18.0,0,12.942
8050,257.60,-7.1497,-6.1841,0.1799,0.0000,-0.0000,-0.6030,flat,18.0,0,12.605
8060,257.92,-6.6971,-6.4595,0.1799,0.0001,-0.0000,-0.4342,flat,18.0,0,12.197
