step,time_s,x,y,z,roll,pitch,yaw,terrain,speed,target_idx,dist_to_target
10,0.32,-0.1066,1.4505,0.1830,0.0002,-0.0224,0.0042,rough,15.5,0,4.153
20,0.64,0.1893,1.4516,0.1796,-0.0008,0.0013,0.3853,flat,18.0,0,4.238
30,0.96,0.4942,1.6159,0.1799,-0.0001,-0.0001,0.7421,flat,18.0,0,4.195
40,1.28,0.7692,1.9366,0.1799,-0.0000,-0.0000,1.0392,flat,18.0,0,4.029
50,1.60,0.9781,2.3616,0.1799,0.0000,-0.0000,1.3345,flat,18.0,0,3.778
60,1.92,1.0701,2.8552,0.1799,0.0001,-0.0000,1.6164,flat,18.0,0,3.444
70,2.24,1.0220,3.3717,0.1799,0.0001,-0.0000,1.8490,flat,18.0,0,3.036
80,2.56,0.8527,3.8712,0.1799,0.0001,-0.0000,2.0337,flat,18.0,0,2.581
90,2.88,0.5916,4.3341,0.1799,0.0001,-0.0000,2.1870,flat,18.0,0,2.100
100,3.20,0.2594,4.7550,0.1799,0.0002,0.0000,2.3180,flat,18.0,0,1.604
110,3.52,-0.1252,5.1198,0.1799,0.0000,0.0000,2.4767,flat,18.0,0,1.109
120,3.84,-0.5521,5.4112,0.1799,0.0003,-0.0002,2.5818,flat,18.0,1,2.014
130,4.16,-0.9693,5.7135,0.1798,-0.0005,0.0002,2.4031,rough,15.5,1,1.657
140,4.48,-1.2944,6.0514,0.1799,-0.0001,-0.0000,2.2329,flat,18.0,1,1.347
150,4.80,-1.5739,6.4797,0.1799,-0.0000,-0.0000,1.9376,flat,18.0,1,1.049
160,5.12,-1.7206,6.9498,0.1799,-0.0000,0.0000,1.4567,flat,18.0,1,0.817
170,5.44,-1.6657,7.2914,0.1798,0.0001,-0.0000,1.0187,flat,18.0,2,8.493
180,5.76,-1.4387,7.5709,0.1799,0.0001,-0.0001,0.7039,flat,18.0,2,8.431
190,6.08,-1.0788,7.8212,0.1799,0.0000,-0.0000,0.4242,flat,18.0,2,8.258
200,6.40,-0.6240,7.9952,0.1799,-0.0000,-0.0000,0.1663,flat,18.0,2,7.983
210,6.72,-0.1116,8.0585,0.1799,0.0000,-0.0000,-0.0601,flat,18.0,2,7.614
220,7.04,0.4212,8.0074,0.1799,-0.0001,-0.0000,-0.2318,flat,18.0,2,7.172
230,7.36,0.9478,7.8653,0.1799,-0.0003,-0.0000,-0.3591,flat,18.0,2,6.686
240,7.68,1.4578,7.6576,0.1798,-0.0004,-0.0000,-0.4547,flat,18.0,2,6.175
250,8.00,1.9500,7.4019,0.1798,-0.0003,-0.0000,-0.5308,flat,18.0,2,5.649
260,8.32,2.4244,7.1089,0.1797,-0.0002,-0.0000,-0.5940,flat,18.0,2,5.112
270,8.64,2.8816,6.7861,0.1797,-0.0002,-0.0000,-0.6485,flat,18.0,2,4.569
280,8.96,3.3223,6.4383,0.1797,-0.0002,-0.0000,-0.6969,flat,18.0,2,4.020
290,9.28,3.7463,6.0691,0.1797,-0.0002,-0.0000,-0.7407,flat,18.0,2,3.469
300,9.60,4.1544,5.6814,0.1797,-0.0001,-0.0000,-0.7836,flat,18.0,2,2.915
310,9.92,4.5450,5.2765,0.1797,-0.0002,0.0000,-0.8273,flat,18.0,2,2.361
320,10.24,4.9155,4.8554,0.1797,-0.0002,0.0000,-0.8750,flat,18.0,2,1.808
330,10.56,5.2637,4.4178,0.1797,-0.0002,0.0000,-0.9346,flat,18.0,2,1.257
340,10.88,5.5773,3.9638,0.1798,-0.0004,0.0002,-0.9962,flat,18.0,3,3.183
350,11.20,5.8883,3.4944,0.1798,0.0001,-0.0000,-0.9597,rough,15.5,3,2.640
360,11.52,6.1717,3.0999,0.1797,0.0001,0.0000,-0.9275,rough,15.5,3,2.173
370,11.84,6.5014,2.6777,0.1797,0.0002,-0.0001,-0.8780,flat,18.0,3,1.663
380,12.16,6.8674,2.2604,0.1797,0.0002,0.0000,-0.8096,flat,18.0,3,1.145
390,12.48,7.2395,1.9012,0.1796,0.0003,-0.0004,-0.7189,flat,18.0,0,9.141
400,12.80,7.4133,1.7060,0.1798,-0.0025,0.0038,-1.1806,flat,18.0,0,9.378
410,13.12,7.5178,1.4225,0.1798,0.0002,-0.0000,-1.6879,flat,18.0,0,9.590
420,13.44,7.4683,1.1173,0.1799,0.0001,-0.0001,-2.1177,flat,18.0,0,9.678
430,13.76,7.2372,0.8263,0.1799,0.0001,-0.0001,-2.4209,flat,18.0,0,9.609
440,14.08,6.8753,0.5649,0.1799,0.0000,-0.0000,-2.6862,flat,18.0,0,9.427
450,14.40,6.4201,0.3746,0.1799,-0.0000,-0.0000,-2.9291,flat,18.0,0,9.146
460,14.72,5.9057,0.2859,0.1799,-0.0000,-0.0000,3.1403,flat,18.0,0,8.775
470,15.04,5.3661,0.3046,0.1799,-0.0001,-0.0000,2.9749,flat,18.0,0,8.334
480,15.36,4.8275,0.4111,0.1799,-0.0003,-0.0000,2.8532,flat,18.0,0,7.849
490,15.68,4.3007,0.5811,0.1798,-0.0004,-0.0000,2.7629,flat,18.0,0,7.339
500,16.00,3.7874,0.7978,0.1798,-0.0003,-0.0000,2.6921,flat,18.0,0,6.814
510,16.32,3.2877,1.0503,0.1797,-0.0002,-0.0000,2.6342,flat,18.0,0,6.279
520,16.64,2.8011,1.3315,0.1797,-0.0002,-0.0000,2.5855,flat,18.0,0,5.737
530,16.96,2.3277,1.6363,0.1797,-0.0001,-0.0000,2.5450,flat,18.0,0,5.191
540,17.28,1.8659,1.9602,0.1797,-0.0001,-0.0000,2.5089,flat,18.0,0,4.641
550,17.60,1.4152,2.3008,0.1797,-0.0001,-0.0000,2.4754,flat,18.0,0,4.090
560,17.92,0.9757,2.6566,0.1797,-0.0001,-0.0000,2.4436,flat,18.0,0,3.538
570,18.24,0.5475,3.0262,0.1797,-0.0001,-0.0000,2.4117,flat,18.0,0,2.987
580,18.56,0.1316,3.4095,0.1797,-0.0001,0.0000,2.3778,flat,18.0,0,2.436
590,18.88,-0.2698,3.8067,0.1797,-0.0001,0.0000,2.3409,flat,18.0,0,1.889
600,19.20,-0.6526,4.2179,0.1797,-0.0002,0.0000,2.2947,flat,18.0,0,1.352
610,19.52,-1.0095,4.6445,0.1798,-0.0003,0.0000,2.2207,flat,18.0,0,0.836
620,19.84,-1.3086,5.0924,0.1799,-0.0001,-0.0000,2.0664,flat,18.0,1,2.296
630,20.16,-1.5297,5.5446,0.1799,-0.0003,0.0001,1.9199,rough,15.5,1,1.895
640,20.48,-1.6872,6.0241,0.1799,-0.0001,-0.0000,1.7587,flat,18.0,1,1.502
650,20.80,-1.7646,6.5501,0.1799,-0.0000,0.0000,1.4941,flat,18.0,1,1.108
660,21.12,-1.7047,7.0399,0.1799,0.0001,0.0003,1.1375,flat,18.0,2,8.412
670,21.44,-1.5319,7.3489,0.1798,0.0001,-0.0001,0.8288,flat,18.0,2,8.402
680,21.76,-1.2207,7.6169,0.1799,0.0000,-0.0001,0.5441,rough,15.5,2,8.268
690,22.08,-0.8532,7.8137,0.1799,-0.0000,-0.0001,0.3416,flat,18.0,2,8.066
700,22.40,-0.3798,7.9556,0.1799,-0.0001,-0.0000,0.0978,flat,18.0,2,7.763
710,22.72,0.1430,7.9843,0.1799,-0.0001,0.0000,-0.1119,flat,18.0,2,7.370
720,23.04,0.6760,7.9050,0.1799,-0.0001,-0.0000,-0.2730,flat,18.0,2,6.914
730,23.36,1.1978,7.7414,0.1799,-0.0003,-0.0000,-0.3904,flat,18.0,2,6.420
740,23.68,1.7022,7.5179,0.1798,-0.0004,-0.0000,-0.4802,flat,18.0,2,5.904
750,24.00,2.1883,7.2495,0.1798,-0.0003,-0.0000,-0.5528,flat,18.0,2,5.375
760,24.32,2.6566,6.9460,0.1797,-0.0002,-0.0000,-0.6139,flat,18.0,2,4.836
770,24.64,3.1076,6.6140,0.1797,-0.0002,-0.0000,-0.6671,flat,18.0,2,4.292
780,24.96,3.5417,6.2579,0.1797,-0.0002,-0.0000,-0.7151,flat,18.0,2,3.743
790,25.28,3.9589,5.8810,0.1797,-0.0002,-0.0000,-0.7596,flat,18.0,2,3.191
800,25.60,4.3591,5.4856,0.1797,-0.0002,-0.0000,-0.8035,flat,18.0,2,2.638
810,25.92,4.7402,5.0731,0.1797,-0.0002,0.0000,-0.8503,flat,18.0,2,2.085
820,26.24,5.0995,4.6444,0.1797,-0.0002,-0.0000,-0.9032,flat,18.0,2,1.534
830,26.56,5.4337,4.1971,0.1797,-0.0003,0.0000,-0.9770,flat,18.0,2,0.985
840,26.88,5.7350,3.7317,0.1798,-0.0001,-0.0001,-0.9836,flat,18.0,3,2.910
850,27.20,6.0317,3.2987,0.1797,0.0001,0.0001,-0.9477,rough,15.5,3,2.405
860,27.52,6.3334,2.8927,0.1797,0.0001,-0.0002,-0.9069,flat,18.0,3,1.921
870,27.84,6.6871,2.4611,0.1797,0.0002,-0.0000,-0.8475,flat,18.0,3,1.395
880,28.16,7.0648,2.0614,0.1798,0.0003,0.0000,-0.7622,flat,18.0,3,0.892
890,28.48,7.3143,1.8218,0.1794,0.0004,-0.0031,-1.0249,flat,18.0,0,9.241
900,28.80,7.4506,1.5760,0.1792,-0.0041,-0.0000,-1.4957,flat,18.0,0,9.465
910,29.12,7.4651,1.2607,0.1799,0.0003,0.0000,-1.9912,flat,18.0,0,9.612
920,29.44,7.2927,0.9654,0.1799,0.0001,-0.0001,-2.3280,flat,18.0,0,9.592
930,29.76,6.9683,0.6907,0.1799,0.0000,-0.0000,-2.5980,flat,18.0,0,9.443
940,30.08,6.5410,0.4713,0.1799,-0.0000,-0.0000,-2.8495,flat,18.0,0,9.194
950,30.40,6.0426,0.3462,0.1799,-0.0000,-0.0000,-3.0729,flat,18.0,0,8.851
960,30.72,5.5078,0.3294,0.1799,-0.0001,-0.0000,3.0259,flat,18.0,0,8.430
970,31.04,4.9670,0.4088,0.1799,-0.0002,-0.0000,2.8904,flat,18.0,0,7.958
980,31.36,4.4357,0.5594,0.1798,-0.0004,-0.0000,2.7913,flat,18.0,0,7.455
990,31.68,3.9177,0.7614,0.1798,-0.0003,-0.0000,2.7148,flat,18.0,0,6.934
1000,32.00,3.4133,1.0025,0.1797,-0.0002,-0.0000,2.6530,flat,18.0,0,6.402
1010,32.32,2.9223,1.2744,0.1797,-0.0002,-0.0000,2.6014,flat,18.0,0,5.862
1020,32.64,2.4444,1.5717,0.1797,-0.0002,-0.0000,2.5582,flat,18.0,0,5.317
1030,32.96,1.9788,1.8894,0.1797,-0.0001,-0.0000,2.5208,flat,18.0,0,4.769
1040,33.28,1.5244,2.2246,0.1797,-0.0001,-0.0000,2.4863,flat,18.0,0,4.219
1050,33.60,1.0813,2.5754,0.1797,-0.0001,-0.0000,2.4538,flat,18.0,0,3.667
1060,33.92,0.6496,2.9406,0.1797,-0.0001,-0.0000,2.4219,flat,18.0,0,3.116
1070,34.24,0.2298,3.3196,0.1797,-0.0001,0.0000,2.3882,flat,18.0,0,2.565
1080,34.56,-0.1760,3.7126,0.1797,-0.0001,0.0000,2.3519,flat,18.0,0,2.017
1090,34.88,-0.5644,4.1197,0.1797,-0.0001,0.0000,2.3084,flat,18.0,0,1.477
1100,35.20,-0.9290,4.5420,0.1797,-0.0002,0.0000,2.2441,flat,18.0,0,0.954
1110,35.52,-1.2433,4.9821,0.1799,-0.0000,-0.0000,2.1085,flat,18.0,1,2.398
1120,35.84,-1.4901,5.4441,0.1799,-0.0001,0.0001,1.9499,rough,15.5,1,1.983
1130,36.16,-1.6570,5.9063,0.1798,-0.0002,-0.0002,1.8070,flat,18.0,1,1.596
1140,36.48,-1.7608,6.4312,0.1799,-0.0001,0.0000,1.5581,flat,18.0,1,1.196
1150,36.80,-1.7300,6.9381,0.1799,-0.0000,0.0000,1.2413,flat,18.0,1,0.832
1160,37.12,-1.5845,7.2828,0.1798,0.0001,0.0000,0.9025,flat,18.0,2,8.417
1170,37.44,-1.3045,7.5573,0.1799,0.0000,-0.0001,0.6099,flat,18.0,2,8.309
1180,37.76,-0.9428,7.7738,0.1799,-0.0001,-0.0001,0.3858,flat,18.0,2,8.118
1190,38.08,-0.4840,7.9329,0.1799,0.0000,-0.0000,0.1394,flat,18.0,2,7.833
1200,38.40,0.0335,7.9835,0.1799,-0.0000,-0.0000,-0.0790,flat,18.0,2,7.454
1210,38.72,0.5665,7.9225,0.1799,-0.0001,-0.0000,-0.2462,flat,18.0,2,7.007
1220,39.04,1.0915,7.7728,0.1799,-0.0003,-0.0000,-0.3703,flat,18.0,2,6.518
1230,39.36,1.5995,7.5594,0.1798,-0.0004,-0.0000,-0.4640,flat,18.0,2,6.006
1240,39.68,2.0894,7.2991,0.1798,-0.0003,-0.0000,-0.5392,flat,18.0,2,5.479
1250,40.00,2.5614,7.0021,0.1797,-0.0002,-0.0000,-0.6019,flat,18.0,2,4.941
1260,40.32,3.0160,6.6755,0.1797,-0.0002,-0.0000,-0.6563,flat,18.0,2,4.398
1270,40.64,3.4537,6.3243,0.1797,-0.0002,-0.0000,-0.7050,flat,18.0,2,3.849
1280,40.96,3.8747,5.9517,0.1797,-0.0002,-0.0000,-0.7497,flat,18.0,2,3.298
1290,41.28,4.2788,5.5603,0.1797,-0.0002,-0.0000,-0.7935,flat,18.0,2,2.745
1300,41.60,4.6644,5.1515,0.1797,-0.0002,0.0000,-0.8394,flat,18.0,2,2.192
1310,41.92,5.0287,4.7266,0.1797,-0.0002,0.0000,-0.8900,flat,18.0,2,1.640
1320,42.24,5.3694,4.2835,0.1797,-0.0002,0.0000,-0.9583,flat,18.0,2,1.091
1330,42.56,5.6740,3.8221,0.1798,-0.0002,-0.0001,-0.9908,flat,18.0,3,3.016
1340,42.88,5.9767,3.3742,0.1797,0.0001,0.0002,-0.9531,rough,15.5,3,2.495
1350,43.20,6.2669,2.9782,0.1797,0.0001,-0.0002,-0.9161,flat,18.0,3,2.025
1360,43.52,6.6167,2.5424,0.1797,0.0002,-0.0000,-0.8598,flat,18.0,3,1.495
1370,43.84,6.9899,2.1353,0.1798,0.0003,0.0000,-0.7822,flat,18.0,3,0.986
1380,44.16,7.2852,1.8588,0.1790,0.0000,-0.0049,-0.9228,flat,18.0,0,9.200
1390,44.48,7.4312,1.6322,0.1786,-0.0076,-0.0001,-1.3876,flat,18.0,0,9.424
1400,44.80,7.4812,1.3194,0.1799,0.0003,0.0000,-1.9082,flat,18.0,0,9.601
1410,45.12,7.3454,1.0219,0.1799,0.0001,-0.0001,-2.2687,flat,18.0,0,9.612
1420,45.44,7.0464,0.7410,0.1799,0.0000,-0.0001,-2.5447,flat,18.0,0,9.485
1430,45.76,6.6375,0.5066,0.1799,-0.0000,-0.0000,-2.8008,flat,18.0,0,9.256
1440,46.08,6.1506,0.3605,0.1799,-0.0000,-0.0000,-3.0303,flat,18.0,0,8.931
1450,46.40,5.6205,0.3220,0.1799,-0.0001,-0.0000,3.0586,flat,18.0,0,8.525
1460,46.72,5.0790,0.3839,0.1799,-0.0002,-0.0000,2.9144,flat,18.0,0,8.060
1470,47.04,4.5453,0.5220,0.1798,-0.0004,-0.0000,2.8092,flat,18.0,0,7.562
1480,47.36,4.0246,0.7149,0.1798,-0.0004,-0.0000,2.7289,flat,18.0,0,7.045
1490,47.68,3.5174,0.9488,0.1797,-0.0002,-0.0000,2.6646,flat,18.0,0,6.514
1500,48.00,3.0237,1.2150,0.1797,-0.0002,-0.0000,2.6112,flat,18.0,0,5.976
1510,48.32,2.5431,1.5075,0.1797,-0.0002,-0.0000,2.5663,flat,18.0,0,5.432
1520,48.64,2.0752,1.8214,0.1797,-0.0001,-0.0000,2.5281,flat,18.0,0,4.884
1530,48.96,1.6185,2.1531,0.1797,-0.0001,-0.0000,2.4932,flat,18.0,0,4.334
1540,49.28,1.1730,2.5009,0.1797,-0.0001,-0.0000,2.4604,flat,18.0,0,3.782
1550,49.60,0.7389,2.8632,0.1797,-0.0001,-0.0000,2.4286,flat,18.0,0,3.231
1560,49.92,0.3166,3.2393,0.1797,-0.0001,-0.0000,2.3954,flat,18.0,0,2.680
1570,50.24,-0.0924,3.6294,0.1797,-0.0001,0.0000,2.3598,flat,18.0,0,2.131
1580,50.56,-0.4849,4.0335,0.1797,-0.0001,0.0000,2.3186,flat,18.0,0,1.589
1590,50.88,-0.8550,4.4525,0.1797,-0.0002,0.0000,2.2609,flat,18.0,0,1.061
1600,51.20,-1.1818,4.8870,0.1798,-0.0000,-0.0001,2.1406,flat,18.0,1,2.488
1610,51.52,-1.4487,5.3534,0.1799,-0.0001,0.0003,1.9765,rough,15.5,1,2.062
1620,51.84,-1.6244,5.8001,0.1798,-0.0003,-0.0002,1.8494,flat,18.0,1,1.682
1630,52.16,-1.7486,6.3211,0.1799,-0.0001,-0.0000,1.6166,flat,18.0,1,1.277
1640,52.48,-1.7484,6.8377,0.1799,-0.0000,0.0000,1.3148,flat,18.0,1,0.903
1650,52.80,-1.6201,7.2290,0.1799,0.0003,0.0000,0.9591,flat,18.0,2,8.423
1660,53.12,-1.3646,7.5078,0.1799,0.0001,-0.0001,0.6578,flat,18.0,2,8.336
1670,53.44,-1.0099,7.7384,0.1799,-0.0000,-0.0000,0.4159,rough,15.5,2,8.155
1680,53.76,-0.5703,7.9079,0.1799,0.0000,-0.0000,0.1812,flat,18.0,2,7.888
1690,54.08,-0.0592,7.9788,0.1799,-0.0000,-0.0000,-0.0455,flat,18.0,2,7.523
1700,54.40,0.4734,7.9356,0.1799,-0.0001,-0.0000,-0.2207,flat,18.0,2,7.086
1710,54.72,1.0009,7.7992,0.1799,-0.0003,-0.0000,-0.3513,flat,18.0,2,6.602
1720,55.04,1.5121,7.5956,0.1798,-0.0004,-0.0000,-0.4491,flat,18.0,2,6.093
1730,55.36,2.0052,7.3426,0.1798,-0.0003,-0.0000,-0.5268,flat,18.0,2,5.568
1740,55.68,2.4803,7.0516,0.1797,-0.0002,-0.0000,-0.5914,flat,18.0,2,5.032
1750,56.00,2.9381,6.7299,0.1797,-0.0002,-0.0000,-0.6469,flat,18.0,2,4.489
1760,56.32,3.3789,6.3829,0.1797,-0.0002,-0.0000,-0.6964,flat,18.0,2,3.942
1770,56.64,3.8029,6.0139,0.1797,-0.0002,-0.0000,-0.7416,flat,18.0,2,3.391
1780,56.96,4.2102,5.6259,0.1797,-0.0002,-0.0000,-0.7855,flat,18.0,2,2.838
1790,57.28,4.5995,5.2203,0.1797,-0.0002,0.0000,-0.8306,flat,18.0,2,2.285
1800,57.60,4.9679,4.7982,0.1797,-0.0002,0.0000,-0.8801,flat,18.0,2,1.733
1810,57.92,5.3133,4.3587,0.1797,-0.0002,0.0000,-0.9441,flat,18.0,2,1.182
1820,58.24,5.6222,3.9011,0.1798,-0.0003,-0.0001,-1.0036,flat,18.0,3,3.107
1830,58.56,5.9283,3.4378,0.1798,0.0001,0.0002,-0.9613,rough,15.5,3,2.573
1840,58.88,6.2111,3.0443,0.1797,0.0001,0.0000,-0.9268,rough,15.5,3,2.108
1850,59.20,6.5511,2.6118,0.1797,0.0002,-0.0000,-0.8718,flat,18.0,3,1.587
1860,59.52,6.9195,2.1987,0.1797,0.0003,0.0000,-0.7982,flat,18.0,3,1.074
1870,59.84,7.2615,1.8771,0.1768,0.0007,-0.0191,-0.7836,flat,18.0,0,9.171
1880,60.16,7.4090,1.6712,0.1799,-0.0010,0.0006,-1.2745,flat,18.0,0,9.388
1890,60.48,7.4887,1.3658,0.1798,0.0003,-0.0000,-1.8115,flat,18.0,0,9.588
1900,60.80,7.3922,1.0657,0.1799,0.0001,-0.0001,-2.2022,flat,18.0,0,9.634
1910,61.12,7.1224,0.7796,0.1799,0.0000,-0.0001,-2.4888,flat,18.0,0,9.532
1920,61.44,6.7341,0.5317,0.1799,-0.0000,-0.0000,-2.7497,flat,18.0,0,9.324
1930,61.76,6.2607,0.3651,0.1799,-0.0000,-0.0000,-2.9855,flat,18.0,0,9.019
1940,62.08,5.7371,0.3041,0.1799,-0.0000,-0.0000,3.0938,flat,18.0,0,8.629
1950,62.40,5.1960,0.3476,0.1799,-0.0001,-0.0000,2.9394,flat,18.0,0,8.174
1960,62.72,4.6602,0.4727,0.1798,-0.0004,-0.0000,2.8273,flat,18.0,0,7.681
1970,63.04,4.1368,0.6562,0.1798,-0.0004,-0.0000,2.7429,flat,18.0,0,7.167
1980,63.36,3.6271,0.8830,0.1797,-0.0003,-0.0000,2.6758,flat,18.0,0,6.639
1990,63.68,3.1310,1.1437,0.1797,-0.0002,-0.0000,2.6205,flat,18.0,0,6.102
2000,64.00,2.6479,1.4316,0.1797,-0.0002,-0.0000,2.5737,flat,18.0,0,5.559
2010,64.32,2.1778,1.7419,0.1797,-0.0001,-0.0000,2.5348,flat,18.0,0,5.012
2020,64.64,1.7191,2.0705,0.1797,-0.0001,-0.0000,2.4994,flat,18.0,0,4.462
2030,64.96,1.2716,2.4155,0.1797,-0.0001,-0.0000,2.4663,flat,18.0,0,3.911
2040,65.28,0.8354,2.7753,0.1797,-0.0001,-0.0000,2.4344,flat,18.0,0,3.359
2050,65.60,0.4107,3.1489,0.1797,-0.0001,-0.0000,2.4018,flat,18.0,0,2.808
2060,65.92,-0.0010,3.5363,0.1797,-0.0001,0.0000,2.3669,flat,18.0,0,2.258
2070,66.24,-0.3971,3.9377,0.1797,-0.0001,0.0000,2.3277,flat,18.0,0,1.714
2080,66.56,-0.7724,4.3536,0.1797,-0.0002,0.0000,2.2756,flat,18.0,0,1.181
2090,66.88,-1.1125,4.7831,0.1798,-0.0002,-0.0000,2.1705,flat,18.0,1,2.589
2100,67.20,-1.3945,5.2461,0.1799,-0.0001,-0.0000,2.0127,flat,18.0,1,2.157
2110,67.52,-1.5864,5.6885,0.1798,-0.0003,0.0000,1.8749,rough,15.5,1,1.774
2120,67.84,-1.7266,6.1930,0.1799,-0.0000,-0.0000,1.6821,flat,18.0,1,1.373
2130,68.16,-1.7617,6.7161,0.1799,-0.0000,0.0000,1.3957,flat,18.0,1,0.989
2140,68.48,-1.6624,7.1501,0.1799,0.0002,0.0000,1.0435,flat,18.0,2,8.424
2150,68.80,-1.4443,7.4391,0.1799,0.0001,-0.0001,0.7321,flat,18.0,2,8.370
2160,69.12,-1.1069,7.6873,0.1799,0.0000,-0.0000,0.4737,rough,15.5,2,8.209
2170,69.44,-0.7064,7.8696,0.1799,-0.0000,-0.0001,0.2596,flat,18.0,2,7.977
2180,69.76,-0.2105,7.9767,0.1799,-0.0000,-0.0001,0.0196,flat,18.0,2,7.641
2190,70.08,0.3191,7.9671,0.1799,-0.0001,-0.0000,-0.1724,flat,18.0,2,7.224
2200,70.40,0.8498,7.8564,0.1799,-0.0002,-0.0000,-0.3161,flat,18.0,2,6.752
2210,70.72,1.3661,7.6707,0.1798,-0.0004,-0.0000,-0.4225,flat,18.0,2,6.250
2220,71.04,1.8645,7.4310,0.1798,-0.0004,-0.0000,-0.5057,flat,18.0,2,5.729
2230,71.36,2.3447,7.1501,0.1797,-0.0003,-0.0000,-0.5739,flat,18.0,2,5.196
2240,71.68,2.8073,6.8367,0.1797,-0.0002,-0.0000,-0.6320,flat,18.0,2,4.655
2250,72.00,3.2528,6.4963,0.1797,-0.0002,-0.0000,-0.6832,flat,18.0,2,4.109
2260,72.32,3.6813,6.1331,0.1797,-0.0002,-0.0000,-0.7296,flat,18.0,2,3.559
2270,72.64,4.0931,5.7501,0.1797,-0.0002,-0.0000,-0.7738,flat,18.0,2,3.007
2280,72.96,4.4874,5.3490,0.1797,-0.0002,0.0000,-0.8182,flat,18.0,2,2.453
2290,73.28,4.8617,4.9311,0.1797,-0.0002,0.0000,-0.8663,flat,18.0,2,1.901
2300,73.60,5.2136,4.4967,0.1797,-0.0002,-0.0000,-0.9242,flat,18.0,2,1.350
2310,73.92,5.5365,4.0433,0.1798,-0.0003,0.0000,-1.0100,flat,18.0,2,0.804
2320,74.24,5.8370,3.5741,0.1798,0.0001,-0.0000,-0.9747,flat,18.0,3,2.730
2330,74.56,6.1191,3.1697,0.1797,0.0001,0.0000,-0.9404,rough,15.5,3,2.257
2340,74.88,6.4383,2.7492,0.1797,0.0002,-0.0001,-0.8922,flat,18.0,3,1.755
2350,75.20,6.7983,2.3258,0.1797,0.0002,0.0000,-0.8259,flat,18.0,3,1.235
2360,75.52,7.1763,1.9478,0.1815,0.0003,0.0117,-0.7294,flat,18.0,0,9.065
2370,75.84,7.3620,1.7473,0.1798,0.0009,-0.0003,-1.1500,flat,18.0,0,9.315
2380,76.16,7.4683,1.4420,0.1794,0.0004,-0.0028,-1.6628,flat,18.0,0,9.537
2390,76.48,7.4270,1.1332,0.1799,0.0001,-0.0001,-2.1018,flat,18.0,0,9.634
2400,76.80,7.2031,0.8418,0.1799,0.0001,-0.0001,-2.4098,flat,18.0,0,9.572
2410,77.12,6.8458,0.5789,0.1799,0.0000,-0.0000,-2.6762,flat,18.0,0,9.395
2420,77.44,6.3939,0.3853,0.1799,-0.0000,-0.0000,-2.9208,flat,18.0,0,9.118
2430,77.76,5.8814,0.2929,0.1799,-0.0000,-0.0000,-3.1354,flat,18.0,0,8.751
2440,78.08,5.3428,0.3085,0.1799,-0.0001,-0.0000,2.9780,flat,18.0,0,8.313
2450,78.40,4.8043,0.4135,0.1799,-0.0003,-0.0000,2.8548,flat,18.0,0,7.830
2460,78.72,4.2774,0.5827,0.1798,-0.0004,-0.0000,2.7635,flat,18.0,0,7.321
2470,79.04,3.7642,0.7990,0.1798,-0.0003,-0.0000,2.6920,flat,18.0,0,6.796
2480,79.36,3.2647,1.0516,0.1797,-0.0002,-0.0000,2.6336,flat,18.0,0,6.262
2490,79.68,2.7784,1.3331,0.1797,-0.0002,-0.0000,2.5844,flat,18.0,0,5.720
2500,80.00,2.3054,1.6384,0.1797,-0.0001,-0.0000,2.5436,flat,18.0,0,5.174
2510,80.32,1.8442,1.9630,0.1797,-0.0001,-0.0000,2.5072,flat,18.0,0,4.625
2520,80.64,1.3942,2.3044,0.1797,-0.0001,-0.0000,2.4734,flat,18.0,0,4.074
2530,80.96,0.9555,2.6611,0.1797,-0.0001,-0.0000,2.4413,flat,18.0,0,3.522
2540,81.28,0.5284,3.0317,0.1797,-0.0001,-0.0000,2.4090,flat,18.0,0,2.971
2550,81.60,0.1136,3.4161,0.1797,-0.0001,0.0000,2.3748,flat,18.0,0,2.421
2560,81.92,-0.2864,3.8145,0.1797,-0.0001,0.0000,2.3374,flat,18.0,0,1.875
2570,82.24,-0.6674,4.2270,0.1797,-0.0002,0.0000,2.2904,flat,18.0,0,1.338
2580,82.56,-1.0221,4.6550,0.1798,-0.0003,0.0000,2.2141,flat,18.0,0,0.823
2590,82.88,-1.3182,5.1051,0.1799,-0.0001,-0.0000,2.0600,flat,18.0,1,2.284
2600,83.20,-1.5391,5.5653,0.1799,-0.0002,0.0001,1.9089,rough,15.5,1,1.878
2610,83.52,-1.6936,6.0535,0.1799,-0.0000,-0.0000,1.7408,flat,18.0,1,1.479
2620,83.84,-1.7615,6.5801,0.1799,-0.0000,0.0000,1.4753,flat,18.0,1,1.084
2630,84.16,-1.6959,7.0568,0.1799,-0.0000,0.0003,1.1285,flat,18.0,2,8.412
2640,84.48,-1.5162,7.3626,0.1798,0.0001,-0.0001,0.8170,flat,18.0,2,8.395
2650,84.80,-1.2002,7.6294,0.1799,0.0000,-0.0001,0.5332,flat,18.0,2,8.257
2660,85.12,-0.8200,7.8259,0.1799,-0.0000,-0.0001,0.3213,flat,18.0,2,8.045
2670,85.44,-0.3390,7.9597,0.1799,0.0000,-0.0000,0.0735,flat,18.0,2,7.733
2680,85.76,0.1864,7.9778,0.1799,-0.0001,-0.0000,-0.1304,flat,18.0,2,7.332
2690,86.08,0.7189,7.8894,0.1799,-0.0001,-0.0000,-0.2848,flat,18.0,2,6.871
2700,86.40,1.2394,7.7198,0.1799,-0.0004,-0.0000,-0.3989,flat,18.0,2,6.375
2710,86.72,1.7423,7.4919,0.1798,-0.0004,-0.0000,-0.4868,flat,18.0,2,5.858
2720,87.04,2.2270,7.2203,0.1798,-0.0003,-0.0000,-0.5581,flat,18.0,2,5.327
2730,87.36,2.6939,6.9143,0.1797,-0.0002,-0.0000,-0.6182,flat,18.0,2,4.788
2740,87.68,3.1437,6.5803,0.1797,-0.0002,-0.0000,-0.6708,flat,18.0,2,4.243
2750,88.00,3.5765,6.2225,0.1797,-0.0002,-0.0000,-0.7183,flat,18.0,2,3.694
2760,88.32,3.9926,5.8443,0.1797,-0.0002,-0.0000,-0.7627,flat,18.0,2,3.142
2770,88.64,4.3915,5.4477,0.1797,-0.0002,0.0000,-0.8066,flat,18.0,2,2.589
2780,88.96,4.7711,5.0340,0.1797,-0.0002,0.0000,-0.8537,flat,18.0,2,2.036
2790,89.28,5.1288,4.6040,0.1797,-0.0002,-0.0000,-0.9077,flat,18.0,2,1.485
2800,89.60,5.4607,4.1554,0.1798,-0.0003,0.0000,-0.9841,flat,18.0,2,0.936
2810,89.92,5.7628,3.6892,0.1798,0.0000,-0.0000,-0.9778,flat,18.0,3,2.861
2820,90.24,6.0622,3.2584,0.1797,0.0001,0.0001,-0.9414,rough,15.5,3,2.356
2830,90.56,6.3666,2.8542,0.1797,0.0001,-0.0002,-0.9008,flat,18.0,3,1.872
2840,90.88,6.7229,2.4252,0.1797,0.0002,-0.0000,-0.8406,flat,18.0,3,1.346
2850,91.20,7.1031,2.0293,0.1798,0.0003,0.0000,-0.7518,flat,18.0,3,0.846
2860,91.52,7.3305,1.8046,0.1796,0.0006,-0.0017,-1.0700,flat,18.0,0,9.263
2870,91.84,7.4593,1.5508,0.1794,-0.0027,-0.0000,-1.5506,flat,18.0,0,9.483
2880,92.16,7.4553,1.2374,0.1798,0.0001,0.0000,-2.0245,flat,18.0,0,9.613
2890,92.48,7.2661,0.9426,0.1799,0.0000,-0.0001,-2.3539,flat,18.0,0,9.579
2900,92.80,6.9307,0.6710,0.1799,0.0000,-0.0000,-2.6226,flat,18.0,0,9.420
2910,93.12,6.4951,0.4592,0.1799,-0.0000,-0.0000,-2.8716,flat,18.0,0,9.162
2920,93.44,5.9919,0.3442,0.1799,-0.0001,-0.0000,-3.0912,flat,18.0,0,8.811
2930,93.76,5.4554,0.3374,0.1799,-0.0001,0.0000,3.0129,flat,18.0,0,8.384
2940,94.08,4.9149,0.4242,0.1799,-0.0002,-0.0000,2.8800,flat,18.0,0,7.908
2950,94.40,4.3848,0.5802,0.1798,-0.0004,-0.0000,2.7835,flat,18.0,0,7.403
2960,94.72,3.8680,0.7863,0.1798,-0.0003,-0.0000,2.7087,flat,18.0,0,6.881
2970,95.04,3.3649,1.0304,0.1797,-0.0002,-0.0000,2.6480,flat,18.0,0,6.348
2980,95.36,2.8750,1.3049,0.1797,-0.0002,-0.0000,2.5972,flat,18.0,0,5.808
2990,95.68,2.3983,1.6041,0.1797,-0.0002,-0.0000,2.5547,flat,18.0,0,5.262
3000,96.00,1.9337,1.9235,0.1797,-0.0001,-0.0000,2.5176,flat,18.0,0,4.714
3010,96.32,1.4803,2.2601,0.1797,-0.0001,-0.0000,2.4834,flat,18.0,0,4.163
3020,96.64,1.0381,2.6123,0.1797,-0.0001,-0.0000,2.4510,flat,18.0,0,3.612
3030,96.96,0.6075,2.9787,0.1797,-0.0001,-0.0000,2.4190,flat,18.0,0,3.060
3040,97.28,0.1888,3.3589,0.1797,-0.0001,0.0000,2.3850,flat,18.0,0,2.510
3050,97.60,-0.2155,3.7532,0.1797,-0.0001,0.0000,2.3484,flat,18.0,0,1.963
3060,97.92,-0.6020,4.1616,0.1797,-0.0002,0.0000,2.3036,flat,18.0,0,1.423
3070,98.24,-0.9637,4.5854,0.1797,-0.0002,0.0000,2.2353,flat,18.0,0,0.903
3080,98.56,-1.2721,5.0283,0.1799,-0.0001,-0.0000,2.0922,flat,18.0,1,2.355
3090,98.88,-1.5091,5.4877,0.1799,-0.0002,0.0001,1.9371,rough,15.5,1,1.945
3100,99.20,-1.6725,5.9584,0.1799,-0.0001,-0.0001,1.7854,flat,18.0,1,1.555
3110,99.52,-1.7645,6.4840,0.1799,-0.0001,0.0000,1.5292,flat,18.0,1,1.158
3120,99.84,-1.7188,6.9848,0.1799,-0.0000,0.0000,1.2038,flat,18.0,2,0.798
3130,100.16,-1.5634,7.3114,0.1798,0.0001,-0.0000,0.8705,flat,18.0,2,8.412
3140,100.48,-1.2697,7.5833,0.1799,0.0000,-0.0001,0.5818,flat,18.0,2,8.293
3150,100.80,-0.9022,7.7923,0.1799,-0.0000,-0.0001,0.3636,flat,18.0,2,8.095
3160,101.12,-0.4342,7.9429,0.1799,-0.0001,-0.0000,0.1178,flat,18.0,2,7.799
3170,101.44,0.0865,7.9816,0.1799,-0.0001,0.0000,-0.0957,flat,18.0,2,7.412
3180,101.76,0.6198,7.9109,0.1799,-0.0001,-0.0000,-0.2605,flat,18.0,2,6.960
3190,102.08,1.1432,7.7538,0.1799,-0.0003,-0.0000,-0.3808,flat,18.0,2,6.468
3200,102.40,1.6493,7.5352,0.1798,-0.0004,-0.0000,-0.4723,flat,18.0,2,5.954
3210,102.72,2.1374,7.2707,0.1798,-0.0003,-0.0000,-0.5459,flat,18.0,2,5.425
3220,103.04,2.6076,6.9705,0.1797,-0.0002,-0.0000,-0.6077,flat,18.0,2,4.887
3230,103.36,3.0606,6.6413,0.1797,-0.0002,-0.0000,-0.6614,flat,18.0,2,4.343
3240,103.68,3.4966,6.2878,0.1797,-0.0002,-0.0000,-0.7096,flat,18.0,2,3.794
3250,104.00,3.9159,5.9132,0.1797,-0.0002,-0.0000,-0.7541,flat,18.0,2,3.243
3260,104.32,4.3183,5.5200,0.1797,-0.0002,-0.0000,-0.7979,flat,18.0,2,2.689
3270,104.64,4.7019,5.1096,0.1797,-0.0002,0.0000,-0.8442,flat,18.0,2,2.136
3280,104.96,5.0640,4.6830,0.1797,-0.0002,0.0000,-0.8958,flat,18.0,2,1.585
3290,105.28,5.4018,4.2380,0.1797,-0.0003,0.0000,-0.9667,flat,18.0,2,1.036
3300,105.60,5.7048,3.7748,0.1798,-0.0002,-0.0001,-0.9864,flat,18.0,3,2.961
3310,105.92,6.0048,3.3344,0.1797,0.0001,0.0001,-0.9498,rough,15.5,3,2.448
3320,106.24,6.3010,2.9336,0.1797,0.0001,-0.0002,-0.9111,flat,18.0,3,1.971
3330,106.56,6.6530,2.5001,0.1797,0.0002,-0.0000,-0.8531,flat,18.0,3,1.443
3340,106.88,7.0286,2.0968,0.1798,0.0003,0.0000,-0.7719,flat,18.0,3,0.937
3350,107.20,7.3000,1.8401,0.1792,0.0000,-0.0042,-0.9806,flat,18.0,0,9.221
3360,107.52,7.4430,1.6038,0.1789,-0.0057,-0.0001,-1.4400,flat,18.0,0,9.447
3370,107.84,7.4755,1.2891,0.1798,0.0001,0.0000,-1.9460,flat,18.0,0,9.609
3380,108.16,7.3218,0.9925,0.1799,0.0000,-0.0001,-2.2976,flat,18.0,0,9.605
3390,108.48,7.0100,0.7145,0.1799,0.0000,-0.0001,-2.5711,flat,18.0,0,9.467
3400,108.80,6.5918,0.4874,0.1799,-0.0000,-0.0000,-2.8250,flat,18.0,0,9.228
3410,109.12,6.0990,0.3517,0.1799,-0.0001,-0.0000,-3.0510,flat,18.0,0,8.894
3420,109.44,5.5666,0.3243,0.1799,-0.0001,0.0000,3.0442,flat,18.0,0,8.480
3430,109.76,5.0252,0.3946,0.1799,-0.0002,-0.0000,2.9022,flat,18.0,0,8.012
3440,110.08,4.4927,0.5391,0.1798,-0.0004,-0.0000,2.8002,flat,18.0,0,7.511
3450,110.40,3.9733,0.7365,0.1798,-0.0003,-0.0000,2.7219,flat,18.0,0,6.992
3460,110.72,3.4675,0.9740,0.1797,-0.0002,-0.0000,2.6588,flat,18.0,0,6.461
3470,111.04,2.9751,1.2431,0.1797,-0.0002,-0.0000,2.6064,flat,18.0,0,5.922
3480,111.36,2.4959,1.5379,0.1797,-0.0002,-0.0000,2.5623,flat,18.0,0,5.377
3490,111.68,2.0290,1.8537,0.1797,-0.0001,-0.0000,2.5245,flat,18.0,0,4.829
3500,112.00,1.5735,2.1872,0.1797,-0.0001,-0.0000,2.4899,flat,18.0,0,4.279
3510,112.32,1.1291,2.5364,0.1797,-0.0001,-0.0000,2.4572,flat,18.0,0,3.727
3520,112.64,0.6962,2.9002,0.1797,-0.0001,-0.0000,2.4253,flat,18.0,0,3.176
3530,112.96,0.2751,3.2777,0.1797,-0.0001,-0.0000,2.3919,flat,18.0,0,2.625
3540,113.28,-0.1324,3.6692,0.1797,-0.0001,0.0000,2.3561,flat,18.0,0,2.077
3550,113.60,-0.5230,4.0747,0.1797,-0.0001,0.0000,2.3138,flat,18.0,0,1.535
3560,113.92,-0.8905,4.4953,0.1797,-0.0002,0.0000,2.2532,flat,18.0,0,1.010
3570,114.24,-1.2113,4.9324,0.1799,-0.0000,-0.0000,2.1257,flat,18.0,1,2.445
3580,114.56,-1.4686,5.3965,0.1799,-0.0001,0.0002,1.9641,rough,15.5,1,2.024
3590,114.88,-1.6399,5.8502,0.1798,-0.0003,-0.0002,1.8300,flat,18.0,1,1.642
3600,115.20,-1.7550,6.3739,0.1799,-0.0001,-0.0000,1.5891,flat,18.0,1,1.238
3610,115.52,-1.7402,6.8863,0.1799,-0.0000,0.0000,1.2803,flat,18.0,1,0.868
3620,115.84,-1.6018,7.2581,0.1798,0.0001,0.0000,0.9261,flat,18.0,2,8.421
3630,116.16,-1.3317,7.5344,0.1799,0.0001,-0.0001,0.6297,flat,18.0,2,8.321
3640,116.48,-0.9725,7.7571,0.1799,-0.0001,-0.0000,0.3956,flat,18.0,2,8.134
3650,116.80,-0.5214,7.9200,0.1799,-0.0001,-0.0000,0.1583,flat,18.0,2,7.855
3660,117.12,-0.0065,7.9789,0.1799,-0.0001,0.0000,-0.0625,flat,18.0,2,7.482
3670,117.44,0.5267,7.9256,0.1799,-0.0001,-0.0000,-0.2351,flat,18.0,2,7.039
3680,117.76,1.0528,7.7815,0.1799,-0.0003,-0.0000,-0.3622,flat,18.0,2,6.553
3690,118.08,1.5622,7.5723,0.1798,-0.0004,-0.0000,-0.4576,flat,18.0,2,6.041
3700,118.40,2.0535,7.3151,0.1798,-0.0003,-0.0000,-0.5338,flat,18.0,2,5.515
3710,118.72,2.5269,7.0207,0.1797,-0.0002,-0.0000,-0.5973,flat,18.0,2,4.978
3720,119.04,2.9829,6.6963,0.1797,-0.0002,-0.0000,-0.6521,flat,18.0,2,4.435
3730,119.36,3.4220,6.3469,0.1797,-0.0002,-0.0000,-0.7011,flat,18.0,2,3.887
3740,119.68,3.8443,5.9760,0.1797,-0.0002,-0.0000,-0.7460,flat,18.0,2,3.336
3750,120.00,4.2500,5.5861,0.1797,-0.0002,-0.0000,-0.7898,flat,18.0,2,2.783
3760,120.32,4.6373,5.1788,0.1797,-0.0002,0.0000,-0.8353,flat,18.0,2,2.229
3770,120.64,5.0034,4.7552,0.1797,-0.0002,0.0000,-0.8854,flat,18.0,2,1.678
3780,120.96,5.3463,4.3137,0.1797,-0.0002,0.0000,-0.9519,flat,18.0,2,1.128
3790,121.28,5.6520,3.8540,0.1798,-0.0003,-0.0001,-0.9980,flat,18.0,3,3.054
3800,121.60,5.9560,3.3979,0.1798,0.0001,0.0002,-0.9583,rough,15.5,3,2.526
3810,121.92,6.2401,3.0056,0.1797,0.0001,0.0000,-0.9231,flat,18.0,3,2.062
3820,122.24,6.5868,2.5692,0.1797,0.0002,-0.0000,-0.8654,flat,18.0,3,1.535
3830,122.56,6.9577,2.1595,0.1798,0.0003,0.0000,-0.7888,flat,18.0,3,1.024
3840,122.88,7.2784,1.8604,0.1786,0.0001,-0.0068,-0.8443,flat,18.0,0,9.193
3850,123.20,7.4206,1.6446,0.1799,-0.0005,0.0004,-1.3266,flat,18.0,0,9.410
3860,123.52,7.4873,1.3346,0.1798,0.0002,-0.0000,-1.8568,flat,18.0,0,9.600
3870,123.84,7.3722,1.0360,0.1799,0.0001,-0.0001,-2.2341,flat,18.0,0,9.630
3880,124.16,7.0882,0.7524,0.1799,0.0000,-0.0001,-2.5157,flat,18.0,0,9.515
3890,124.48,6.6900,0.5108,0.1799,-0.0000,-0.0000,-2.7746,flat,18.0,0,9.298
3900,124.80,6.2099,0.3541,0.1799,-0.0001,-0.0000,-3.0073,flat,18.0,0,8.983
3910,125.12,5.6833,0.3043,0.1799,-0.0001,0.0000,3.0777,flat,18.0,0,8.585
3920,125.44,5.1419,0.3570,0.1799,-0.0001,-0.0000,2.9264,flat,18.0,0,8.126
3930,125.76,4.6072,0.4888,0.1798,-0.0004,-0.0000,2.8179,flat,18.0,0,7.631
3940,126.08,4.0852,0.6772,0.1798,-0.0004,-0.0000,2.7355,flat,18.0,0,7.115
3950,126.40,3.5769,0.9078,0.1797,-0.0002,-0.0000,2.6698,flat,18.0,0,6.586
3960,126.72,3.0820,1.1714,0.1797,-0.0002,-0.0000,2.6155,flat,18.0,0,6.048
3970,127.04,2.6003,1.4618,0.1797,-0.0002,-0.0000,2.5697,flat,18.0,0,5.504
3980,127.36,2.1314,1.7741,0.1797,-0.0001,-0.0000,2.5311,flat,18.0,0,4.957
3990,127.68,1.6738,2.1044,0.1797,-0.0001,-0.0000,2.4960,flat,18.0,0,4.407
4000,128.00,1.2274,2.4509,0.1797,-0.0001,-0.0000,2.4631,flat,18.0,0,3.855
4010,128.32,0.7923,2.8121,0.1797,-0.0001,-0.0000,2.4312,flat,18.0,0,3.304
4020,128.64,0.3689,3.1871,0.1797,-0.0001,-0.0000,2.3984,flat,18.0,0,2.752
4030,128.96,-0.0414,3.5759,0.1797,-0.0001,0.0000,2.3633,flat,18.0,0,2.203
4040,129.28,-0.4358,3.9787,0.1797,-0.0001,0.0000,2.3233,flat,18.0,0,1.660
4050,129.60,-0.8086,4.3962,0.1797,-0.0002,0.0000,2.2690,flat,18.0,0,1.129
4060,129.92,-1.1426,4.8280,0.1798,-0.0001,-0.0000,2.1572,flat,18.0,1,2.545
4070,130.24,-1.4193,5.2948,0.1799,-0.0001,-0.0000,1.9956,rough,15.5,1,2.113
4080,130.56,-1.6022,5.7333,0.1798,-0.0003,0.0000,1.8607,flat,18.0,1,1.737
4090,130.88,-1.7361,6.2458,0.1799,-0.0000,-0.0000,1.6566,flat,18.0,1,1.333
4100,131.20,-1.7573,6.7667,0.1799,-0.0000,0.0000,1.3635,flat,18.0,1,0.953
4110,131.52,-1.6466,7.1818,0.1799,0.0001,0.0001,1.0122,flat,18.0,2,8.425
4120,131.84,-1.4143,7.4663,0.1799,0.0001,-0.0001,0.7038,flat,18.0,2,8.358
4130,132.16,-1.0711,7.7076,0.1799,0.0000,-0.0000,0.4530,rough,15.5,2,8.190
4140,132.48,-0.6593,7.8853,0.1799,-0.0000,-0.0000,0.2349,flat,18.0,2,7.947
4150,132.80,-0.1585,7.9805,0.1799,-0.0001,0.0000,0.0007,flat,18.0,2,7.602
4160,133.12,0.3726,7.9599,0.1799,-0.0001,-0.0000,-0.1871,flat,18.0,2,7.178
4170,133.44,0.9024,7.8407,0.1799,-0.0002,-0.0000,-0.3282,flat,18.0,2,6.703
4180,133.76,1.4169,7.6489,0.1798,-0.0004,-0.0000,-0.4317,flat,18.0,2,6.198
4190,134.08,1.9135,7.4045,0.1798,-0.0004,-0.0000,-0.5131,flat,18.0,2,5.676
4200,134.40,2.3919,7.1201,0.1797,-0.0003,-0.0000,-0.5802,flat,18.0,2,5.142
4210,134.72,2.8527,6.8037,0.1797,-0.0002,-0.0000,-0.6374,flat,18.0,2,4.601
4220,135.04,3.2965,6.4609,0.1797,-0.0002,-0.0000,-0.6881,flat,18.0,2,4.054
4230,135.36,3.7233,6.0956,0.1797,-0.0002,-0.0000,-0.7341,flat,18.0,2,3.504
4240,135.68,4.1335,5.7107,0.1797,-0.0002,-0.0000,-0.7782,flat,18.0,2,2.951
4250,136.00,4.5259,5.3079,0.1797,-0.0002,0.0000,-0.8228,flat,18.0,2,2.398
4260,136.32,4.8980,4.8884,0.1797,-0.0002,0.0000,-0.8714,flat,18.0,2,1.846
4270,136.64,5.2476,4.4521,0.1797,-0.0002,-0.0000,-0.9312,flat,18.0,2,1.295
4280,136.96,5.5665,3.9969,0.1798,-0.0003,0.0000,-1.0216,flat,18.0,3,0.750
4290,137.28,5.8684,3.5275,0.1798,0.0001,-0.0000,-0.9701,rough,15.5,3,2.676
4300,137.60,6.1477,3.1304,0.1797,0.0001,0.0000,-0.9368,rough,15.5,3,2.211
4310,137.92,6.4733,2.7055,0.1797,0.0002,-0.0001,-0.8863,flat,18.0,3,1.702
4320,138.24,6.8357,2.2851,0.1797,0.0002,0.0000,-0.8179,flat,18.0,3,1.184
4330,138.56,7.2049,1.9223,0.1797,0.0003,0.0002,-0.7294,flat,18.0,0,9.101
4340,138.88,7.3759,1.7242,0.1798,-0.0023,0.0036,-1.1879,flat,18.0,0,9.337
4350,139.20,7.4728,1.4091,0.1795,0.0005,-0.0018,-1.7153,flat,18.0,0,9.555
4360,139.52,7.4126,1.1034,0.1799,0.0001,-0.0001,-2.1364,flat,18.0,0,9.635
4370,139.84,7.1724,0.8138,0.1799,0.0000,-0.0001,-2.4370,flat,18.0,0,9.559
4380,140.16,6.8043,0.5556,0.1799,-0.0000,-0.0000,-2.7019,flat,18.0,0,9.371
4390,140.48,6.3447,0.3711,0.1799,-0.0000,-0.0000,-2.9436,flat,18.0,0,9.085
4400,140.80,5.8282,0.2899,0.1799,-0.0001,-0.0000,3.1291,flat,18.0,0,8.710
4410,141.12,5.2885,0.3155,0.1799,-0.0001,-0.0000,2.9641,flat,18.0,0,8.266
4420,141.44,4.7509,0.4278,0.1799,-0.0003,-0.0000,2.8445,flat,18.0,0,7.780
4430,141.76,4.2254,0.6024,0.1798,-0.0004,-0.0000,2.7556,flat,18.0,0,7.269
4440,142.08,3.7136,0.8228,0.1798,-0.0003,-0.0000,2.6856,flat,18.0,0,6.743
4450,142.40,3.2154,1.0786,0.1797,-0.0002,-0.0000,2.6283,flat,18.0,0,6.208
4460,142.72,2.7305,1.3627,0.1797,-0.0002,-0.0000,2.5799,flat,18.0,0,5.666
4470,143.04,2.2588,1.6701,0.1797,-0.0001,-0.0000,2.5398,flat,18.0,0,5.119
4480,143.36,1.7987,1.9965,0.1797,-0.0001,-0.0000,2.5037,flat,18.0,0,4.570
4490,143.68,1.3498,2.3395,0.1797,-0.0001,-0.0000,2.4702,flat,18.0,0,4.019
4500,144.00,0.9123,2.6976,0.1797,-0.0001,-0.0000,2.4381,flat,18.0,0,3.467
4510,144.32,0.4863,3.0696,0.1797,-0.0001,-0.0000,2.4057,flat,18.0,0,2.916
4520,144.64,0.0729,3.4554,0.1797,-0.0001,0.0000,2.3712,flat,18.0,0,2.366
4530,144.96,-0.3255,3.8551,0.1797,-0.0001,0.0000,2.3332,flat,18.0,0,1.820
4540,145.28,-0.7042,4.2691,0.1797,-0.0002,0.0000,2.2846,flat,18.0,0,1.285
4550,145.60,-1.0554,4.6987,0.1798,-0.0003,0.0000,2.2025,flat,18.0,1,0.774
4560,145.92,-1.3450,5.1525,0.1799,-0.0001,-0.0000,2.0433,flat,18.0,1,2.241
4570,146.24,-1.5562,5.6095,0.1799,-0.0003,0.0001,1.8955,rough,15.5,1,1.840
4580,146.56,-1.7058,6.1060,0.1799,-0.0000,-0.0000,1.7175,flat,18.0,1,1.438
4590,146.88,-1.7609,6.6320,0.1799,-0.0000,0.0000,1.4454,flat,18.0,1,1.046
4600,147.20,-1.6826,7.0909,0.1799,-0.0000,0.0001,1.0992,flat,18.0,2,8.415
4610,147.52,-1.4903,7.3905,0.1799,0.0001,-0.0001,0.7874,flat,18.0,2,8.386
4620,147.84,-1.1622,7.6539,0.1799,0.0000,-0.0000,0.5055,rough,15.5,2,8.238
4630,148.16,-0.7756,7.8437,0.1799,-0.0000,-0.0001,0.2964,flat,18.0,2,8.019
4640,148.48,-0.2879,7.9663,0.1799,-0.0002,0.0000,0.0543,flat,18.0,2,7.696
4650,148.80,0.2397,7.9730,0.1799,-0.0001,0.0000,-0.1458,flat,18.0,2,7.288
4660,149.12,0.7717,7.8757,0.1799,-0.0001,-0.0000,-0.2979,flat,18.0,2,6.823
4670,149.44,1.2905,7.6993,0.1798,-0.0004,-0.0000,-0.4087,flat,18.0,2,6.324
4680,149.76,1.7916,7.4665,0.1798,-0.0004,-0.0000,-0.4946,flat,18.0,2,5.805
4690,150.08,2.2745,7.1911,0.1797,-0.0003,-0.0000,-0.5645,flat,18.0,2,5.274
4700,150.40,2.7397,6.8821,0.1797,-0.0002,-0.0000,-0.6238,flat,18.0,2,4.734
4710,150.72,3.1877,6.5455,0.1797,-0.0002,-0.0000,-0.6758,flat,18.0,2,4.188
4720,151.04,3.6189,6.1856,0.1797,-0.0002,-0.0000,-0.7228,flat,18.0,2,3.639
4730,151.36,4.0333,5.8054,0.1797,-0.0002,-0.0000,-0.7671,flat,18.0,2,3.087
4740,151.68,4.4304,5.4070,0.1797,-0.0002,0.0000,-0.8111,flat,18.0,2,2.533
4750,152.00,4.8079,4.9917,0.1797,-0.0002,0.0000,-0.8586,flat,18.0,2,1.980
4760,152.32,5.1633,4.5600,0.1797,-0.0002,-0.0000,-0.9141,flat,18.0,2,1.430
4770,152.64,5.4918,4.1095,0.1798,-0.0003,0.0000,-0.9940,flat,18.0,2,0.882
4780,152.96,5.7942,3.6422,0.1798,0.0001,-0.0000,-0.9741,flat,18.0,3,2.807
4790,153.28,6.0907,3.2191,0.1797,0.0001,0.0001,-0.9381,rough,15.5,3,2.310
4800,153.60,6.4012,2.8102,0.1797,0.0001,-0.0001,-0.8955,flat,18.0,3,1.819
4810,153.92,6.7599,2.3838,0.1797,0.0002,-0.0000,-0.8338,flat,18.0,3,1.295
4820,154.24,7.1425,1.9924,0.1798,0.0003,0.0000,-0.7391,flat,18.0,0,0.799
4830,154.56,7.3462,1.7828,0.1797,0.0006,-0.0006,-1.1115,flat,18.0,0,9.286
4840,154.88,7.4686,1.5183,0.1795,-0.0016,-0.0001,-1.6122,flat,18.0,0,9.505
4850,155.20,7.4452,1.2079,0.1799,0.0002,-0.0000,-2.0661,flat,18.0,0,9.617
4860,155.52,7.2379,0.9142,0.1799,0.0001,-0.0001,-2.3817,flat,18.0,0,9.568
4870,155.84,6.8912,0.6464,0.1799,0.0000,-0.0000,-2.6487,flat,18.0,0,9.399
4880,156.16,6.4473,0.4430,0.1799,-0.0000,-0.0000,-2.8952,flat,18.0,0,9.131
4890,156.48,5.9392,0.3384,0.1799,-0.0000,-0.0000,-3.1128,flat,18.0,0,8.771
4900,156.80,5.4012,0.3420,0.1799,-0.0001,-0.0000,2.9965,flat,18.0,0,8.338
4910,157.12,4.8614,0.4371,0.1799,-0.0003,-0.0000,2.8691,flat,18.0,0,7.858
4920,157.44,4.3326,0.5988,0.1798,-0.0004,-0.0000,2.7752,flat,18.0,0,7.351
4930,157.76,3.8171,0.8091,0.1798,-0.0003,-0.0000,2.7020,flat,18.0,0,6.828
4940,158.08,3.3153,1.0566,0.1797,-0.0002,-0.0000,2.6425,flat,18.0,0,6.294
4950,158.40,2.8268,1.3337,0.1797,-0.0002,-0.0000,2.5925,flat,18.0,0,5.753
4960,158.72,2.3514,1.6352,0.1797,-0.0001,-0.0000,2.5509,flat,18.0,0,5.207
4970,159.04,1.8879,1.9564,0.1797,-0.0001,-0.0000,2.5141,flat,18.0,0,4.659
4980,159.36,1.4356,2.2946,0.1797,-0.0001,-0.0000,2.4801,flat,18.0,0,4.108
4990,159.68,0.9946,2.6482,0.1797,-0.0001,-0.0000,2.4478,flat,18.0,0,3.556
5000,160.00,0.5651,3.0161,0.1797,-0.0001,-0.0000,2.4157,flat,18.0,0,3.005
5010,160.32,0.1478,3.3976,0.1797,-0.0001,0.0000,2.3815,flat,18.0,0,2.455
5020,160.64,-0.2551,3.7933,0.1797,-0.0001,0.0000,2.3444,flat,18.0,0,1.908
5030,160.96,-0.6394,4.2032,0.1797,-0.0002,0.0000,2.2983,flat,18.0,0,1.370
5040,161.28,-0.9980,4.6286,0.1797,-0.0003,0.0000,2.2255,flat,18.0,0,0.854
5050,161.60,-1.3001,5.0747,0.1799,-0.0001,-0.0000,2.0756,flat,18.0,1,2.312
5060,161.92,-1.5274,5.5314,0.1799,-0.0002,0.0001,1.9239,rough,15.5,1,1.907
5070,162.24,-1.6868,6.0103,0.1799,-0.0001,-0.0000,1.7629,flat,18.0,1,1.515
5080,162.56,-1.7665,6.5364,0.1799,-0.0000,0.0000,1.5000,flat,18.0,1,1.119
5090,162.88,-1.7096,7.0281,0.1799,0.0001,0.0003,1.1468,flat,18.0,2,8.411
5100,163.20,-1.5405,7.3396,0.1798,0.0001,-0.0001,0.8393,flat,18.0,2,8.406
5110,163.52,-1.2337,7.6087,0.1799,0.0000,-0.0001,0.5539,flat,18.0,2,8.275
5120,163.84,-0.8600,7.8106,0.1799,-0.0000,-0.0001,0.3410,flat,18.0,2,8.070
5130,164.16,-0.3837,7.9526,0.1799,0.0000,-0.0000,0.0913,flat,18.0,2,7.764
5140,164.48,0.1398,7.9796,0.1799,-0.0001,-0.0000,-0.1165,flat,18.0,2,7.369
5150,164.80,0.6727,7.8987,0.1799,-0.0001,-0.0000,-0.2743,flat,18.0,2,6.912
5160,165.12,1.1945,7.7345,0.1799,-0.0003,-0.0000,-0.3909,flat,18.0,2,6.417
5170,165.44,1.6989,7.5106,0.1798,-0.0004,-0.0000,-0.4803,flat,18.0,2,5.901
5180,165.76,2.1851,7.2422,0.1798,-0.0003,-0.0000,-0.5525,flat,18.0,2,5.372
5190,166.08,2.6536,6.9389,0.1797,-0.0002,-0.0000,-0.6134,flat,18.0,2,4.833
5200,166.40,3.1048,6.6071,0.1797,-0.0002,-0.0000,-0.6664,flat,18.0,2,4.288
5210,166.72,3.5392,6.2513,0.1797,-0.0002,-0.0000,-0.7142,flat,18.0,2,3.739
5220,167.04,3.9568,5.8748,0.1797,-0.0002,-0.0000,-0.7585,flat,18.0,2,3.188
5230,167.36,4.3575,5.4799,0.1797,-0.0002,-0.0000,-0.8023,flat,18.0,2,2.634
5240,167.68,4.7391,5.0677,0.1797,-0.0002,0.0000,-0.8490,flat,18.0,2,2.081
5250,168.00,5.0989,4.6395,0.1797,-0.0002,-0.0000,-0.9018,flat,18.0,2,1.530
5260,168.32,5.4337,4.1926,0.1797,-0.0003,0.0000,-0.9756,flat,18.0,2,0.981
5270,168.64,5.7356,3.7277,0.1798,-0.0001,-0.0001,-0.9823,flat,18.0,3,2.907
5280,168.96,6.0329,3.2950,0.1797,0.0001,0.0001,-0.9465,rough,15.5,3,2.402
5290,169.28,6.3351,2.8894,0.1797,0.0001,-0.0002,-0.9058,flat,18.0,3,1.918
5300,169.60,6.6893,2.4583,0.1797,0.0002,-0.0000,-0.8463,flat,18.0,3,1.391
5310,169.92,7.0674,2.0590,0.1798,0.0003,0.0000,-0.7610,flat,18.0,3,0.889
5320,170.24,7.3174,1.8198,0.1794,0.0004,-0.0031,-1.0237,flat,18.0,0,9.245
5330,170.56,7.4539,1.5742,0.1792,-0.0041,-0.0000,-1.4948,flat,18.0,0,9.469
5340,170.88,7.4687,1.2588,0.1799,0.0003,0.0000,-1.9906,flat,18.0,0,9.616
5350,171.20,7.2965,0.9635,0.1799,0.0001,-0.0001,-2.3276,flat,18.0,0,9.596
5360,171.52,6.9724,0.6888,0.1799,0.0000,-0.0000,-2.5976,flat,18.0,0,9.447
5370,171.84,6.5452,0.4693,0.1799,-0.0000,-0.0000,-2.8491,flat,18.0,0,9.198
5380,172.16,6.0469,0.3440,0.1799,-0.0000,-0.0000,-3.0726,flat,18.0,0,8.856
5390,172.48,5.5122,0.3270,0.1799,-0.0001,-0.0000,3.0262,flat,18.0,0,8.435
5400,172.80,4.9713,0.4063,0.1799,-0.0002,-0.0000,2.8906,flat,18.0,0,7.962
5410,173.12,4.4400,0.5568,0.1798,-0.0004,-0.0000,2.7915,flat,18.0,0,7.460
5420,173.44,3.9220,0.7587,0.1798,-0.0003,-0.0000,2.7150,flat,18.0,0,6.939
5430,173.76,3.4176,0.9997,0.1797,-0.0002,-0.0000,2.6532,flat,18.0,0,6.407
5440,174.08,2.9265,1.2716,0.1797,-0.0002,-0.0000,2.6016,flat,18.0,0,5.867
5450,174.40,2.4485,1.5688,0.1797,-0.0002,-0.0000,2.5583,flat,18.0,0,5.322
5460,174.72,1.9829,1.8864,0.1797,-0.0001,-0.0000,2.5209,flat,18.0,0,4.774
5470,175.04,1.5284,2.2215,0.1797,-0.0001,-0.0000,2.4865,flat,18.0,0,4.224
5480,175.36,1.0852,2.5723,0.1797,-0.0001,-0.0000,2.4540,flat,18.0,0,3.672
5490,175.68,0.6534,2.9374,0.1797,-0.0001,-0.0000,2.4221,flat,18.0,0,3.120
5500,176.00,0.2336,3.3163,0.1797,-0.0001,0.0000,2.3884,flat,18.0,0,2.570
5510,176.32,-0.1724,3.7092,0.1797,-0.0001,0.0000,2.3522,flat,18.0,0,2.022
5520,176.64,-0.5610,4.1161,0.1797,-0.0001,0.0000,2.3089,flat,18.0,0,1.482
5530,176.96,-0.9258,4.5383,0.1797,-0.0002,0.0000,2.2449,flat,18.0,0,0.959
5540,177.28,-1.2406,4.9781,0.1799,-0.0000,-0.0000,2.1096,flat,18.0,1,2.402
5550,177.60,-1.4880,5.4398,0.1799,-0.0001,0.0001,1.9512,rough,15.5,1,1.986
5560,177.92,-1.6555,5.9020,0.1798,-0.0002,-0.0002,1.8085,flat,18.0,1,1.600
5570,178.24,-1.7601,6.4268,0.1799,-0.0001,-0.0000,1.5604,flat,18.0,1,1.199
5580,178.56,-1.7306,6.9342,0.1799,-0.0000,0.0000,1.2444,flat,18.0,1,0.834
5590,178.88,-1.5818,7.2869,0.1799,0.0001,-0.0000,0.8922,flat,18.0,2,8.417
5600,179.20,-1.2974,7.5607,0.1799,0.0000,-0.0001,0.6013,flat,18.0,2,8.305
5610,179.52,-0.9328,7.7754,0.1799,-0.0001,-0.0001,0.3779,flat,18.0,2,8.111
5620,179.84,-0.4716,7.9315,0.1799,0.0000,-0.0000,0.1322,flat,18.0,2,7.822
5630,180.16,0.0470,7.9787,0.1799,-0.0000,-0.0000,-0.0845,flat,18.0,2,7.440
5640,180.48,0.5801,7.9148,0.1799,-0.0001,-0.0000,-0.2501,flat,18.0,2,6.992
5650,180.80,1.1047,7.7631,0.1799,-0.0003,-0.0000,-0.3729,flat,18.0,2,6.502
5660,181.12,1.6123,7.5484,0.1798,-0.0004,-0.0000,-0.4660,flat,18.0,2,5.989
5670,181.44,2.1018,7.2870,0.1798,-0.0003,-0.0000,-0.5406,flat,18.0,2,5.461
5680,181.76,2.5734,6.9893,0.1797,-0.0002,-0.0000,-0.6031,flat,18.0,2,4.924
5690,182.08,3.0277,6.6623,0.1797,-0.0002,-0.0000,-0.6572,flat,18.0,2,4.380
5700,182.40,3.4652,6.3106,0.1797,-0.0002,-0.0000,-0.7058,flat,18.0,2,3.832
5710,182.72,3.8858,5.9377,0.1797,-0.0002,-0.0000,-0.7504,flat,18.0,2,3.280
5720,183.04,4.2897,5.5460,0.1797,-0.0002,-0.0000,-0.7942,flat,18.0,2,2.727
5730,183.36,4.6750,5.1370,0.1797,-0.0002,0.0000,-0.8401,flat,18.0,2,2.174
5740,183.68,5.0389,4.7118,0.1797,-0.0002,0.0000,-0.8910,flat,18.0,2,1.622
5750,184.00,5.3790,4.2684,0.1797,-0.0002,0.0000,-0.9601,flat,18.0,2,1.073
5760,184.32,5.6824,3.8065,0.1798,-0.0002,-0.0001,-0.9934,flat,18.0,3,2.999
5770,184.64,5.9839,3.3580,0.1797,0.0001,0.0002,-0.9549,rough,15.5,3,2.479
5780,184.96,6.2734,2.9620,0.1797,0.0001,-0.0002,-0.9168,flat,18.0,3,2.010
5790,185.28,6.6228,2.5265,0.1797,0.0002,-0.0000,-0.8588,flat,18.0,3,1.482
5800,185.60,6.9962,2.1206,0.1798,0.0003,0.0000,-0.7788,flat,18.0,3,0.975
5810,185.92,7.2922,1.8465,0.1789,0.0000,-0.0051,-0.9193,flat,18.0,0,9.211
5820,186.24,7.4322,1.6165,0.1799,-0.0003,0.0002,-1.3807,flat,18.0,0,9.432
5830,186.56,7.4843,1.3035,0.1799,0.0002,-0.0000,-1.9017,flat,18.0,0,9.610
5840,186.88,7.3506,1.0063,0.1799,0.0001,-0.0001,-2.2655,flat,18.0,0,9.624
5850,187.20,7.0530,0.7254,0.1799,0.0000,-0.0001,-2.5425,flat,18.0,0,9.498
5860,187.52,6.6452,0.4906,0.1799,-0.0000,-0.0000,-2.7992,flat,18.0,0,9.271
5870,187.84,6.1588,0.3440,0.1799,-0.0000,-0.0000,-3.0290,flat,18.0,0,8.947
5880,188.16,5.6294,0.3049,0.1799,-0.0001,-0.0000,3.0586,flat,18.0,0,8.542
5890,188.48,5.0880,0.3669,0.1799,-0.0002,-0.0000,2.9139,flat,18.0,0,8.078
5900,188.80,4.5544,0.5053,0.1798,-0.0004,-0.0000,2.8086,flat,18.0,0,7.580
5910,189.12,4.0338,0.6984,0.1798,-0.0004,-0.0000,2.7283,flat,18.0,0,7.062
5920,189.44,3.5268,0.9327,0.1797,-0.0002,-0.0000,2.6639,flat,18.0,0,6.532
5930,189.76,3.0333,1.1992,0.1797,-0.0002,-0.0000,2.6106,flat,18.0,0,5.994
5940,190.08,2.5529,1.4920,0.1797,-0.0002,-0.0000,2.5656,flat,18.0,0,5.450
5950,190.40,2.0852,1.8062,0.1797,-0.0001,-0.0000,2.5275,flat,18.0,0,4.902
5960,190.72,1.6287,2.1383,0.1797,-0.0001,-0.0000,2.4926,flat,18.0,0,4.352
5970,191.04,1.1834,2.4863,0.1797,-0.0001,-0.0000,2.4598,flat,18.0,0,3.800
5980,191.36,0.7495,2.8490,0.1797,-0.0001,-0.0000,2.4280,flat,18.0,0,3.249
5990,191.68,0.3273,3.2253,0.1797,-0.0001,-0.0000,2.3949,flat,18.0,0,2.698
6000,192.00,-0.0815,3.6155,0.1797,-0.0001,0.0000,2.3596,flat,18.0,0,2.149
6010,192.32,-0.4741,4.0198,0.1797,-0.0001,0.0000,2.3187,flat,18.0,0,1.606
6020,192.64,-0.8445,4.4388,0.1797,-0.0002,0.0000,2.2619,flat,18.0,0,1.077
6030,192.96,-1.1724,4.8730,0.1798,-0.0000,-0.0000,2.1434,flat,18.0,1,2.502
6040,193.28,-1.4407,5.3387,0.1799,-0.0001,0.0003,1.9800,rough,15.5,1,2.074
6050,193.60,-1.6172,5.7809,0.1798,-0.0003,-0.0002,1.8537,flat,18.0,1,1.698
6060,193.92,-1.7444,6.2985,0.1799,-0.0000,-0.0000,1.6304,flat,18.0,1,1.294
6070,194.24,-1.7514,6.8165,0.1799,-0.0000,0.0000,1.3305,flat,18.0,1,0.918
6080,194.56,-1.6298,7.2126,0.1799,0.0003,0.0000,0.9797,flat,18.0,2,8.424
6090,194.88,-1.3833,7.4933,0.1799,0.0001,-0.0001,0.6754,flat,18.0,2,8.344
6100,195.20,-1.0348,7.7273,0.1799,-0.0000,-0.0000,0.4328,rough,15.5,2,8.170
6110,195.52,-0.6117,7.9000,0.1799,0.0000,-0.0000,0.2091,flat,18.0,2,7.917
6120,195.84,-0.1059,7.9840,0.1799,-0.0000,-0.0000,-0.0236,flat,18.0,2,7.563
6130,196.16,0.4259,7.9523,0.1799,-0.0001,-0.0000,-0.2046,flat,18.0,2,7.133
6140,196.48,0.9545,7.8244,0.1799,-0.0002,-0.0000,-0.3399,flat,18.0,2,6.654
6150,196.80,1.4673,7.6266,0.1798,-0.0004,-0.0000,-0.4407,flat,18.0,2,6.147
6160,197.12,1.9620,7.3778,0.1798,-0.0004,-0.0000,-0.5204,flat,18.0,2,5.623
6170,197.44,2.4387,7.0898,0.1797,-0.0002,-0.0000,-0.5862,flat,18.0,2,5.088
6180,197.76,2.8978,6.7706,0.1797,-0.0002,-0.0000,-0.6427,flat,18.0,2,4.546
6190,198.08,3.3399,6.4254,0.1797,-0.0002,-0.0000,-0.6929,flat,18.0,2,3.999
6200,198.40,3.7650,6.0580,0.1797,-0.0002,-0.0000,-0.7385,flat,18.0,2,3.449
6210,198.72,4.1735,5.6712,0.1797,-0.0002,-0.0000,-0.7825,flat,18.0,2,2.896
6220,199.04,4.5640,5.2667,0.1797,-0.0002,0.0000,-0.8275,flat,18.0,2,2.343
6230,199.36,4.9339,4.8457,0.1797,-0.0002,0.0000,-0.8765,flat,18.0,2,1.791
6240,199.68,5.2811,4.4075,0.1797,-0.0002,0.0000,-0.9384,flat,18.0,2,1.240
6250,200.00,5.5922,3.9525,0.1798,-0.0004,0.0002,-1.0031,flat,18.0,3,3.164
6260,200.32,5.8959,3.4867,0.1798,0.0001,0.0002,-0.9677,rough,15.5,3,2.629
6270,200.64,6.1762,3.0915,0.1797,0.0001,0.0000,-0.9331,rough,15.5,3,2.164
6280,200.96,6.5084,2.6623,0.1797,0.0002,-0.0000,-0.8803,flat,18.0,3,1.649
6290,201.28,6.8733,2.2449,0.1797,0.0002,0.0000,-0.8095,flat,18.0,3,1.134
6300,201.60,7.2293,1.9003,0.1806,0.0002,0.0059,-0.7546,flat,18.0,0,9.132
6310,201.92,7.3901,1.7027,0.1739,0.0006,-0.0375,-1.2460,flat,18.0,0,9.358
6320,202.24,7.4752,1.3767,0.1796,0.0005,-0.0011,-1.7660,flat,18.0,0,9.571
6330,202.56,7.3963,1.0737,0.1799,0.0001,-0.0001,-2.1715,flat,18.0,0,9.634
6340,202.88,7.1406,0.7861,0.1799,0.0000,-0.0001,-2.4641,flat,18.0,0,9.544
6350,203.20,6.7620,0.5332,0.1799,-0.0000,-0.0000,-2.7273,flat,18.0,0,9.347
6360,203.52,6.2951,0.3581,0.1799,-0.0000,-0.0000,-2.9662,flat,18.0,0,9.051
6370,203.84,5.7749,0.2876,0.1799,-0.0000,-0.0000,3.1091,flat,18.0,0,8.669
6380,204.16,5.2345,0.3232,0.1799,-0.0001,-0.0000,2.9501,flat,18.0,0,8.219
6390,204.48,4.6979,0.4428,0.1799,-0.0004,-0.0000,2.8345,flat,18.0,0,7.729
6400,204.80,4.1737,0.6225,0.1798,-0.0004,-0.0000,2.7479,flat,18.0,0,7.217
6410,205.12,3.6633,0.8469,0.1797,-0.0003,-0.0000,2.6794,flat,18.0,0,6.690
6420,205.44,3.1665,1.1057,0.1797,-0.0002,-0.0000,2.6231,flat,18.0,0,6.154
6430,205.76,2.6828,1.3923,0.1797,-0.0002,-0.0000,2.5755,flat,18.0,0,5.611
6440,206.08,2.2123,1.7019,0.1797,-0.0001,-0.0000,2.5360,flat,18.0,0,5.064
6450,206.40,1.7534,2.0300,0.1797,-0.0001,-0.0000,2.5002,flat,18.0,0,4.515
6460,206.72,1.3056,2.3745,0.1797,-0.0001,-0.0000,2.4669,flat,18.0,0,3.964
6470,207.04,0.8693,2.7341,0.1797,-0.0001,-0.0000,2.4349,flat,18.0,0,3.412
6480,207.36,0.4444,3.1074,0.1797,-0.0001,-0.0000,2.4023,flat,18.0,0,2.861
6490,207.68,0.0325,3.4946,0.1797,-0.0001,0.0000,2.3676,flat,18.0,0,2.311
6500,208.00,-0.3642,3.8958,0.1797,-0.0001,0.0000,2.3290,flat,18.0,0,1.766
6510,208.32,-0.7406,4.3113,0.1797,-0.0002,0.0000,2.2787,flat,18.0,0,1.232
6520,208.64,-1.0855,4.7399,0.1798,-0.0002,0.0003,2.1777,flat,18.0,1,2.631
6530,208.96,-1.3709,5.2003,0.1799,-0.0001,-0.0000,2.0266,flat,18.0,1,2.198
6540,209.28,-1.5728,5.6538,0.1798,-0.0003,0.0000,1.8820,rough,15.5,1,1.803
6550,209.60,-1.7169,6.1585,0.1799,-0.0000,-0.0000,1.6937,flat,18.0,1,1.398
6560,209.92,-1.7588,6.6834,0.1799,-0.0000,0.0000,1.4150,flat,18.0,1,1.009
6570,210.24,-1.6683,7.1240,0.1799,0.0002,0.0001,1.0711,flat,18.0,2,8.417
6580,210.56,-1.4629,7.4179,0.1799,0.0001,-0.0001,0.7590,flat,18.0,2,8.376
6590,210.88,-1.1270,7.6751,0.1799,-0.0000,0.0002,0.4858,rough,15.5,2,8.219
6600,211.20,-0.7298,7.8610,0.1799,-0.0000,-0.0001,0.2701,flat,18.0,2,7.991
6610,211.52,-0.2360,7.9727,0.1799,-0.0000,-0.0001,0.0291,flat,18.0,2,7.659
6620,211.84,0.2931,7.9680,0.1799,-0.0001,-0.0000,-0.1651,flat,18.0,2,7.244
6630,212.16,0.8242,7.8612,0.1799,-0.0002,-0.0000,-0.3105,flat,18.0,2,6.774
6640,212.48,1.3413,7.6784,0.1798,-0.0004,-0.0000,-0.4182,flat,18.0,2,6.273
6650,212.80,1.8405,7.4409,0.1798,-0.0004,-0.0000,-0.5021,flat,18.0,2,5.753
6660,213.12,2.3217,7.1617,0.1797,-0.0003,-0.0000,-0.5708,flat,18.0,2,5.220
6670,213.44,2.7851,6.8497,0.1797,-0.0002,-0.0000,-0.6293,flat,18.0,2,4.680
6680,213.76,3.2315,6.5106,0.1797,-0.0002,-0.0000,-0.6807,flat,18.0,2,4.134
6690,214.08,3.6609,6.1485,0.1797,-0.0002,-0.0000,-0.7272,flat,18.0,2,3.584
6700,214.40,4.0737,5.7665,0.1797,-0.0002,-0.0000,-0.7714,flat,18.0,2,3.031
6710,214.72,4.4690,5.3664,0.1797,-0.0002,0.0000,-0.8156,flat,18.0,2,2.478
6720,215.04,4.8444,4.9494,0.1797,-0.0002,0.0000,-0.8636,flat,18.0,2,1.925
6730,215.36,5.1975,4.5160,0.1797,-0.0002,-0.0000,-0.9206,flat,18.0,2,1.375
6740,215.68,5.5224,4.0636,0.1798,-0.0003,0.0000,-1.0044,flat,18.0,2,0.828
6750,216.00,5.8257,3.5958,0.1798,0.0001,-0.0000,-0.9702,flat,18.0,3,2.753
6760,216.32,6.1193,3.1802,0.1797,0.0001,0.0001,-0.9347,rough,15.5,3,2.263
6770,216.64,6.4360,2.7666,0.1797,0.0001,-0.0001,-0.8901,flat,18.0,3,1.766
6780,216.96,6.7970,2.3429,0.1797,0.0002,-0.0000,-0.8266,flat,18.0,3,1.243
6790,217.28,7.1750,1.9629,0.1815,0.0003,0.0120,-0.7347,flat,18.0,0,9.058
6800,217.60,7.3599,1.7602,0.1798,0.0009,-0.0001,-1.1525,flat,18.0,0,9.308
6810,217.92,7.4739,1.4860,0.1797,-0.0008,-0.0000,-1.6633,flat,18.0,0,9.524
6820,218.24,7.4320,1.1785,0.1798,0.0001,-0.0001,-2.0992,flat,18.0,0,9.618
6830,218.56,7.2080,0.8862,0.1799,0.0000,-0.0001,-2.4084,flat,18.0,0,9.555
6840,218.88,6.8505,0.6225,0.1799,0.0000,-0.0000,-2.6743,flat,18.0,0,9.376
6850,219.20,6.3986,0.4279,0.1799,-0.0000,-0.0000,-2.9180,flat,18.0,0,9.098
6860,219.52,5.8861,0.3344,0.1799,-0.0001,-0.0000,-3.1308,flat,18.0,0,8.731
6870,219.84,5.3468,0.3480,0.1799,-0.0001,-0.0000,2.9826,flat,18.0,0,8.292
6880,220.16,4.8078,0.4507,0.1799,-0.0003,-0.0000,2.8585,flat,18.0,0,7.808
6890,220.48,4.2802,0.6179,0.1798,-0.0004,-0.0000,2.7672,flat,18.0,0,7.299
6900,220.80,3.7662,0.8324,0.1798,-0.0003,-0.0000,2.6956,flat,18.0,0,6.775
6910,221.12,3.2657,1.0831,0.1797,-0.0002,-0.0000,2.6372,flat,18.0,0,6.240
6920,221.44,2.7784,1.3629,0.1797,-0.0002,-0.0000,2.5879,flat,18.0,0,5.699
6930,221.76,2.3043,1.6665,0.1797,-0.0001,-0.0000,2.5470,flat,18.0,0,5.153
6940,222.08,1.8420,1.9895,0.1797,-0.0001,-0.0000,2.5106,flat,18.0,0,4.604
6950,222.40,1.3908,2.3293,0.1797,-0.0001,-0.0000,2.4768,flat,18.0,0,4.053
6960,222.72,0.9509,2.6845,0.1797,-0.0001,-0.0000,2.4446,flat,18.0,0,3.501
6970,223.04,0.5226,3.0537,0.1797,-0.0001,-0.0000,2.4124,flat,18.0,0,2.950
6980,223.36,0.1066,3.4366,0.1797,-0.0001,0.0000,2.3780,flat,18.0,0,2.400
6990,223.68,-0.2946,3.8337,0.1797,-0.0001,0.0000,2.3403,flat,18.0,0,1.854
7000,224.00,-0.6766,4.2451,0.1797,-0.0002,0.0000,2.2928,flat,18.0,0,1.317
7010,224.32,-1.0319,4.6720,0.1798,-0.0003,0.0000,2.2146,flat,18.0,0,0.804
7020,224.64,-1.3276,5.1218,0.1799,-0.0001,-0.0000,2.0588,flat,18.0,1,2.269
7030,224.96,-1.5452,5.5754,0.1799,-0.0003,0.0001,1.9105,rough,15.5,1,1.870
7040,225.28,-1.7001,6.0627,0.1799,-0.0000,-0.0000,1.7398,flat,18.0,1,1.474
7050,225.60,-1.7671,6.5886,0.1799,-0.0000,0.0000,1.4704,flat,18.0,1,1.081
7060,225.92,-1.6988,7.0635,0.1799,-0.0000,0.0003,1.1209,flat,18.0,2,8.417
7070,226.24,-1.5158,7.3678,0.1798,0.0001,-0.0001,0.8092,flat,18.0,2,8.397
7080,226.56,-1.1965,7.6338,0.1799,0.0000,-0.0001,0.5261,rough,15.5,2,8.256
7090,226.88,-0.8162,7.8291,0.1799,-0.0000,-0.0001,0.3160,flat,18.0,2,8.044
7100,227.20,-0.3329,7.9601,0.1799,-0.0002,0.0000,0.0717,flat,18.0,2,7.728
7110,227.52,0.1931,7.9757,0.1799,-0.0001,0.0000,-0.1322,flat,18.0,2,7.326
7120,227.84,0.7257,7.8855,0.1799,-0.0001,-0.0000,-0.2878,flat,18.0,2,6.864
7130,228.16,1.2459,7.7144,0.1799,-0.0004,-0.0000,-0.4009,flat,18.0,2,6.366
7140,228.48,1.7484,7.4856,0.1798,-0.0004,-0.0000,-0.4882,flat,18.0,2,5.849
7150,228.80,2.2329,7.2133,0.1798,-0.0003,-0.0000,-0.5591,flat,18.0,2,5.318
7160,229.12,2.6996,6.9068,0.1797,-0.0002,-0.0000,-0.6190,flat,18.0,2,4.779
7170,229.44,3.1492,6.5724,0.1797,-0.0002,-0.0000,-0.6714,flat,18.0,2,4.233
7180,229.76,3.5819,6.2145,0.1797,-0.0002,-0.0000,-0.7187,flat,18.0,2,3.684
7190,230.08,3.9978,5.8360,0.1797,-0.0002,-0.0000,-0.7630,flat,18.0,2,3.132
7200,230.40,4.3966,5.4393,0.1797,-0.0002,0.0000,-0.8068,flat,18.0,2,2.579
7210,230.72,4.7762,5.0255,0.1797,-0.0002,0.0000,-0.8539,flat,18.0,2,2.026
7220,231.04,5.1337,4.5955,0.1797,-0.0002,-0.0000,-0.9081,flat,18.0,2,1.475
7230,231.36,5.4653,4.1468,0.1798,-0.0003,0.0000,-0.9850,flat,18.0,2,0.927
7240,231.68,5.7669,3.6804,0.1798,0.0000,-0.0001,-0.9786,flat,18.0,3,2.852
7250,232.00,6.0613,3.2555,0.1797,0.0001,0.0001,-0.9432,rough,15.5,3,2.355
7260,232.32,6.3696,2.8451,0.1797,0.0001,-0.0001,-0.9006,flat,18.0,3,1.865
7270,232.64,6.7261,2.4164,0.1797,0.0002,-0.0000,-0.8397,flat,18.0,3,1.340
7280,232.96,7.1066,2.0216,0.1798,0.0003,0.0000,-0.7490,flat,18.0,3,0.841
7290,233.28,7.3345,1.7986,0.1796,0.0006,-0.0019,-1.0680,flat,18.0,0,9.269
7300,233.60,7.4643,1.5430,0.1794,-0.0027,-0.0000,-1.5528,flat,18.0,0,9.491
7310,233.92,7.4596,1.2295,0.1798,0.0001,0.0000,-2.0259,flat,18.0,0,9.621
7320,234.24,7.2698,0.9347,0.1799,0.0000,-0.0001,-2.3550,flat,18.0,0,9.586
7330,234.56,6.9340,0.6634,0.1799,0.0000,-0.0000,-2.6237,flat,18.0,0,9.427
7340,234.88,6.4981,0.4520,0.1799,-0.0000,-0.0000,-2.8727,flat,18.0,0,9.168
7350,235.20,5.9947,0.3374,0.1799,-0.0001,-0.0000,-3.0922,flat,18.0,0,8.817
7360,235.52,5.4582,0.3311,0.1799,-0.0001,0.0000,3.0121,flat,18.0,0,8.390
7370,235.84,4.9177,0.4184,0.1799,-0.0002,-0.0000,2.8793,flat,18.0,0,7.913
7380,236.16,4.3877,0.5748,0.1798,-0.0004,-0.0000,2.7830,flat,18.0,0,7.409
7390,236.48,3.8710,0.7811,0.1798,-0.0003,-0.0000,2.7082,flat,18.0,0,6.887
7400,236.80,3.3680,1.0255,0.1797,-0.0002,-0.0000,2.6476,flat,18.0,0,6.354
7410,237.12,2.8782,1.3001,0.1797,-0.0002,-0.0000,2.5968,flat,18.0,0,5.813
7420,237.44,2.4016,1.5995,0.1797,-0.0002,-0.0000,2.5544,flat,18.0,0,5.268
7430,237.76,1.9370,1.9190,0.1797,-0.0001,-0.0000,2.5174,flat,18.0,0,4.719
7440,238.08,1.4837,2.2557,0.1797,-0.0001,-0.0000,2.4832,flat,18.0,0,4.169
7450,238.40,1.0416,2.6080,0.1797,-0.0001,-0.0000,2.4508,flat,18.0,0,3.617
7460,238.72,0.6110,2.9745,0.1797,-0.0001,-0.0000,2.4188,flat,18.0,0,3.065
7470,239.04,0.1924,3.3548,0.1797,-0.0001,0.0000,2.3850,flat,18.0,0,2.515
7480,239.36,-0.2120,3.7491,0.1797,-0.0001,0.0000,2.3484,flat,18.0,0,1.968
7490,239.68,-0.5985,4.1575,0.1797,-0.0002,0.0000,2.3038,flat,18.0,0,1.429
7500,240.00,-0.9604,4.5812,0.1797,-0.0002,0.0000,2.2360,flat,18.0,0,0.908
7510,240.32,-1.2693,5.0239,0.1799,-0.0001,-0.0000,2.0932,flat,18.0,1,2.359
7520,240.64,-1.5068,5.4831,0.1799,-0.0002,0.0001,1.9384,rough,15.5,1,1.949
7530,240.96,-1.6708,5.9537,0.1799,-0.0001,-0.0001,1.7870,flat,18.0,1,1.559
7540,241.28,-1.7637,6.4793,0.1799,-0.0001,0.0000,1.5317,flat,18.0,1,1.161
7550,241.60,-1.7194,6.9807,0.1799,-0.0000,0.0000,1.2073,flat,18.0,1,0.801
7560,241.92,-1.5601,7.3152,0.1798,0.0001,-0.0000,0.8613,flat,18.0,2,8.411
7570,242.24,-1.2623,7.5864,0.1799,0.0000,-0.0001,0.5736,flat,18.0,2,8.288
7580,242.56,-0.8921,7.7935,0.1799,-0.0000,-0.0001,0.3559,flat,18.0,2,8.087
7590,242.88,-0.4219,7.9411,0.1799,-0.0001,-0.0000,0.1112,flat,18.0,2,7.788
7600,243.20,0.0997,7.9766,0.1799,-0.0001,0.0000,-0.1007,flat,18.0,2,7.398
7610,243.52,0.6330,7.9032,0.1799,-0.0001,-0.0000,-0.2642,flat,18.0,2,6.945
7620,243.84,1.1560,7.7442,0.1799,-0.0003,-0.0000,-0.3833,flat,18.0,2,6.452
7630,244.16,1.6618,7.5243,0.1798,-0.0004,-0.0000,-0.4741,flat,18.0,2,5.937
7640,244.48,2.1495,7.2589,0.1798,-0.0003,-0.0000,-0.5473,flat,18.0,2,5.408
7650,244.80,2.6194,6.9581,0.1797,-0.0002,-0.0000,-0.6088,flat,18.0,2,4.870
7660,245.12,3.0720,6.6284,0.1797,-0.0002,-0.0000,-0.6623,flat,18.0,2,4.326
7670,245.44,3.5078,6.2744,0.1797,-0.0002,-0.0000,-0.7104,flat,18.0,2,3.777
7680,245.76,3.9268,5.8996,0.1797,-0.0002,-0.0000,-0.7548,flat,18.0,2,3.225
7690,246.08,4.3289,5.5061,0.1797,-0.0002,-0.0000,-0.7986,flat,18.0,2,2.672
7700,246.40,4.7122,5.0954,0.1797,-0.0002,0.0000,-0.8449,flat,18.0,2,2.119
7710,246.72,5.0739,4.6686,0.1797,-0.0002,0.0000,-0.8969,flat,18.0,2,1.568
7720,247.04,5.4111,4.2233,0.1797,-0.0003,0.0000,-0.9686,flat,18.0,2,1.018
7730,247.36,5.7128,3.7595,0.1798,-0.0002,-0.0001,-0.9888,flat,18.0,3,2.945
7740,247.68,6.0117,3.3187,0.1797,0.0001,0.0001,-0.9515,rough,15.5,3,2.433
7750,248.00,6.3119,2.9118,0.1797,0.0001,-0.0002,-0.9101,flat,18.0,3,1.950
7760,248.32,6.6642,2.4791,0.1797,0.0002,-0.0000,-0.8506,flat,18.0,3,1.423
7770,248.64,7.0406,2.0778,0.1798,0.0003,0.0000,-0.7665,flat,18.0,3,0.920
7780,248.96,7.3132,1.8239,0.1792,0.0000,-0.0044,-0.9754,flat,18.0,0,9.240
7790,249.28,7.4503,1.5897,0.1798,0.0001,-0.0000,-1.4027,flat,18.0,0,9.459
7800,249.60,7.4973,1.2793,0.1799,0.0003,-0.0000,-1.9120,flat,18.0,0,9.633
7810,249.92,7.3600,0.9824,0.1799,0.0001,-0.0001,-2.2720,flat,18.0,0,9.644
7820,250.24,7.0599,0.7022,0.1799,0.0000,-0.0001,-2.5480,flat,18.0,0,9.516
7830,250.56,6.6502,0.4689,0.1799,-0.0000,-0.0000,-2.8044,flat,18.0,0,9.287
7840,250.88,6.1627,0.3245,0.1799,-0.0000,-0.0000,-3.0338,flat,18.0,0,8.962
7850,251.20,5.6325,0.2879,0.1799,-0.0001,-0.0000,3.0554,flat,18.0,0,8.555
7860,251.52,5.0912,0.3516,0.1799,-0.0002,-0.0000,2.9115,flat,18.0,0,8.090
7870,251.84,4.5579,0.4913,0.1798,-0.0004,-0.0000,2.8067,flat,18.0,0,7.592
7880,252.16,4.0376,0.6854,0.1798,-0.0004,-0.0000,2.7266,flat,18.0,0,7.074
7890,252.48,3.5310,0.9206,0.1797,-0.0002,-0.0000,2.6625,flat,18.0,0,6.544
7900,252.80,3.0379,1.1878,0.1797,-0.0002,-0.0000,2.6093,flat,18.0,0,6.005
7910,253.12,2.5578,1.4813,0.1797,-0.0002,-0.0000,2.5645,flat,18.0,0,5.461
7920,253.44,2.0904,1.7960,0.1797,-0.0001,-0.0000,2.5265,flat,18.0,0,4.913
7930,253.76,1.6342,2.1285,0.1797,-0.0001,-0.0000,2.4917,flat,18.0,0,4.363
7940,254.08,1.1892,2.4769,0.1797,-0.0001,-0.0000,2.4590,flat,18.0,0,3.811
7950,254.40,0.7556,2.8399,0.1797,-0.0001,-0.0000,2.4273,flat,18.0,0,3.259
7960,254.72,0.3336,3.2166,0.1797,-0.0001,-0.0000,2.3943,flat,18.0,0,2.708
7970,255.04,-0.0751,3.6071,0.1797,-0.0001,0.0000,2.3592,flat,18.0,0,2.159
7980,255.36,-0.4676,4.0115,0.1797,-0.0001,0.0000,2.3185,flat,18.0,0,1.616
7990,255.68,-0.8381,4.4306,0.1797,-0.0002,0.0000,2.2624,flat,18.0,0,1.087
8000,256.00,-1.1666,4.8647,0.1798,-0.0000,-0.0000,2.1450,flat,18.0,1,2.510
8010,256.32,-1.4357,5.3300,0.1799,-0.0001,0.0003,1.9821,rough,15.5,1,2.082
8020,256.64,-1.6132,5.7719,0.1798,-0.0003,-0.0002,1.8564,flat,18.0,1,1.705
8030,256.96,-1.7418,6.2895,0.1799,-0.0000,-0.0000,1.6346,flat,18.0,1,1.300
8040,257.28,-1.7512,6.8081,0.1799,-0.0000,0.0000,1.3364,flat,18.0,1,0.923
8050,257.60,-1.6320,7.2063,0.1799,0.0003,0.0000,0.9879,flat,18.0,2,8.423
8060,257.92,-1.3891,7.4879,0.1799,0.0001,-0.0001,0.6827,flat,18.0,2,8.347
8070,258.24,-1.0432,7.7231,0.1799,-0.0000,-0.0000,0.4398,rough,15.5,2,8.174
8080,258.56,-0.6107,7.9004,0.1799,0.0000,-0.0000,0.2031,flat,18.0,2,7.916
8090,258.88,-0.1035,7.9816,0.1799,0.0000,-0.0000,-0.0282,flat,18.0,2,7.560
8100,259.20,0.4285,7.9475,0.1799,-0.0001,-0.0000,-0.2077,flat,18.0,2,7.128
8110,259.52,0.9570,7.8180,0.1799,-0.0002,-0.0000,-0.3419,flat,18.0,2,6.647
8120,259.84,1.4696,7.6192,0.1798,-0.0004,-0.0000,-0.4419,flat,18.0,2,6.140
