step,time_s,x,y,z,roll,pitch,yaw,terrain,speed,target_idx,dist_to_target
10,0.32,-0.0560,1.3666,0.3150,0.1996,-0.1244,0.2145,rough,15.5,0,4.247
20,0.64,0.2353,1.4255,0.3478,0.1716,-0.1244,0.5126,rough,15.5,0,4.278
30,0.96,0.5158,1.6061,0.3867,0.1418,-0.1210,0.7513,rough,15.5,0,4.213
40,1.28,0.7814,1.9017,0.3791,0.1194,0.1230,0.9978,rough,15.5,0,4.065
50,1.60,1.0152,2.2349,0.2911,0.2288,0.2020,1.2131,rough,15.5,0,3.903
60,1.92,1.1845,2.5449,0.2080,0.3067,0.0867,1.5178,rough,15.5,0,3.755
70,2.24,1.3996,2.7440,0.0977,0.2316,0.1146,1.9687,rough,15.5,0,3.747
80,2.56,1.4929,2.8289,0.0812,0.2742,-0.0630,2.1185,rough,15.5,0,3.752
90,2.88,1.5696,2.9034,0.0759,0.2851,-0.2827,2.2508,rough,15.5,0,3.756
100,3.20,1.7050,3.0473,0.0228,0.4421,-0.4988,2.3746,rough,15.5,0,3.762
110,3.52,1.8627,3.2475,-0.1430,0.4865,-0.2820,2.5619,rough,15.5,0,3.763
120,3.84,1.7959,3.4425,-0.2157,0.5405,-0.1423,2.7097,rough,15.5,0,3.597
130,4.16,1.5283,3.6717,-0.1976,0.6198,-0.2986,2.7577,rough,15.5,0,3.247
140,4.48,1.2863,4.0118,-0.3751,0.6469,0.0158,2.7876,rough,15.5,0,2.861
150,4.80,0.8526,4.3012,-0.5326,0.5634,0.0631,2.7517,rough,15.5,0,2.341
160,5.12,0.4900,4.5668,-0.5927,0.4732,0.0289,2.5718,rough,15.5,0,1.895
170,5.44,0.1708,4.8588,-0.6262,0.6025,-0.1193,2.5786,rough,15.5,0,1.479
180,5.76,-0.2319,5.1826,-0.6266,0.7144,0.0884,2.7725,rough,15.5,0,0.988
190,6.08,-0.5129,5.4566,-0.7056,0.7028,-0.0863,2.5161,rough,15.5,1,1.979
200,6.40,-0.8218,5.7476,-0.6890,0.6746,-0.1598,2.3186,rough,15.5,1,1.634
210,6.72,-1.0848,6.1084,-0.6182,0.6899,-0.1979,2.1673,rough,15.5,1,1.263
220,7.04,-1.3563,6.5296,-0.6201,0.5479,0.1158,2.1736,rough,15.5,1,0.905
230,7.36,-1.5735,6.9562,-0.7456,0.4965,0.2289,2.1113,rough,15.5,2,8.257
240,7.68,-1.6483,7.2755,-0.8489,0.4707,0.2404,1.7842,rough,15.5,2,8.470
250,8.00,-1.6124,7.6132,-0.9733,0.5205,0.3665,1.5333,rough,15.5,2,8.603
260,8.32,-1.5303,7.9267,-1.0987,0.4707,0.3366,1.2484,rough,15.5,2,8.695
270,8.64,-1.3855,8.1643,-1.1921,0.3420,0.2791,0.9003,rough,15.5,2,8.703
280,8.96,-1.2521,8.3266,-1.1911,0.2687,-0.1131,0.6195,rough,15.5,2,8.686
290,9.28,-1.1587,8.3437,-1.1900,0.0524,-0.3559,0.8909,rough,15.5,2,8.620
300,9.60,-1.1461,8.3805,-1.1795,-0.1368,-0.4367,1.1819,rough,15.5,2,8.632
310,9.92,-1.1152,8.3774,-1.1763,-0.3380,-0.5638,1.3868,rough,15.5,2,8.605
320,10.24,-1.0854,8.3627,-1.1709,-0.3658,-0.5415,1.4584,rough,15.5,2,8.572
330,10.56,-1.0725,8.3594,-1.1710,-0.3383,-0.5396,1.4618,rough,15.5,2,8.560
340,10.88,-1.0694,8.3597,-1.1732,-0.3158,-0.5457,1.4495,rough,15.5,2,8.557
350,11.20,-1.0467,8.3560,-1.1651,-0.3216,-0.5357,1.4746,rough,15.5,2,8.537
360,11.52,-1.0260,8.3499,-1.1595,-0.3183,-0.5173,1.5004,rough,15.5,2,8.517
370,11.84,-1.0072,8.3422,-1.1581,-0.2952,-0.4951,1.5191,rough,15.5,2,8.497
380,12.16,-0.9920,8.3368,-1.1568,-0.2760,-0.4802,1.5319,rough,15.5,2,8.481
390,12.48,-0.9912,8.3365,-1.1565,-0.2795,-0.4752,1.5433,rough,15.5,2,8.481
400,12.80,-0.9933,8.3372,-1.1566,-0.2830,-0.4750,1.5453,rough,15.5,2,8.483
410,13.12,-0.9955,8.3380,-1.1573,-0.2833,-0.4764,1.5436,rough,15.5,2,8.485
420,13.44,-0.9962,8.3383,-1.1574,-0.2835,-0.4768,1.5437,rough,15.5,2,8.486
430,13.76,-0.9959,8.3384,-1.1572,-0.2840,-0.4766,1.5448,rough,15.5,2,8.485
440,14.08,-0.9961,8.3385,-1.1573,-0.2842,-0.4765,1.5449,rough,15.5,2,8.486
450,14.40,-0.9964,8.3385,-1.1574,-0.2841,-0.4767,1.5444,rough,15.5,2,8.486
460,14.72,-0.9967,8.3386,-1.1575,-0.2840,-0.4769,1.5439,rough,15.5,2,8.486
470,15.04,-0.9965,8.3386,-1.1574,-0.2839,-0.4770,1.5440,rough,15.5,2,8.486
480,15.36,-0.9963,8.3385,-1.1574,-0.2841,-0.4768,1.5445,rough,15.5,2,8.486
490,15.68,-0.9960,8.3385,-1.1573,-0.2841,-0.4766,1.5448,rough,15.5,2,8.486
500,16.00,-0.9965,8.3386,-1.1574,-0.2841,-0.4768,1.5444,rough,15.5,2,8.486
510,16.32,-0.9965,8.3386,-1.1574,-0.2842,-0.4767,1.5445,rough,15.5,2,8.486
520,16.64,-0.9960,8.3385,-1.1573,-0.2842,-0.4766,1.5450,rough,15.5,2,8.486
530,16.96,-0.9963,8.3385,-1.1574,-0.2841,-0.4766,1.5447,rough,15.5,2,8.486
540,17.28,-0.9962,8.3385,-1.1573,-0.2842,-0.4765,1.5449,rough,15.5,2,8.486
550,17.60,-0.9964,8.3386,-1.1574,-0.2841,-0.4768,1.5445,rough,15.5,2,8.486
560,17.92,-0.9964,8.3386,-1.1574,-0.2841,-0.4767,1.5446,rough,15.5,2,8.486
570,18.24,-0.9960,8.3385,-1.1573,-0.2841,-0.4766,1.5449,rough,15.5,2,8.486
580,18.56,-0.9965,8.3386,-1.1574,-0.2841,-0.4768,1.5444,rough,15.5,2,8.486
590,18.88,-0.9965,8.3386,-1.1574,-0.2842,-0.4767,1.5445,rough,15.5,2,8.486
600,19.20,-0.9960,8.3385,-1.1573,-0.2842,-0.4766,1.5450,rough,15.5,2,8.486
610,19.52,-0.9963,8.3385,-1.1574,-0.2841,-0.4766,1.5447,rough,15.5,2,8.486
620,19.84,-0.9962,8.3385,-1.1573,-0.2842,-0.4765,1.5449,rough,15.5,2,8.486
630,20.16,-0.9964,8.3386,-1.1574,-0.2841,-0.4768,1.5445,rough,15.5,2,8.486
640,20.48,-0.9964,8.3386,-1.1574,-0.2841,-0.4767,1.5446,rough,15.5,2,8.486
650,20.80,-0.9960,8.3385,-1.1573,-0.2841,-0.4766,1.5449,rough,15.5,2,8.486
660,21.12,-0.9965,8.3386,-1.1574,-0.2841,-0.4768,1.5444,rough,15.5,2,8.486
670,21.44,-0.9965,8.3386,-1.1574,-0.2842,-0.4767,1.5445,rough,15.5,2,8.486
680,21.76,-0.9965,8.3386,-1.1574,-0.2842,-0.4767,1.5445,rough,15.5,2,8.486
690,22.08,-0.9963,8.3385,-1.1574,-0.2841,-0.4767,1.5445,rough,15.5,2,8.486
700,22.40,-0.9962,8.3385,-1.1573,-0.2843,-0.4765,1.5450,rough,15.5,2,8.486
710,22.72,-0.9964,8.3386,-1.1574,-0.2841,-0.4768,1.5445,rough,15.5,2,8.486
720,23.04,-0.9964,8.3386,-1.1574,-0.2841,-0.4767,1.5446,rough,15.5,2,8.486
730,23.36,-0.9960,8.3385,-1.1573,-0.2841,-0.4766,1.5448,rough,15.5,2,8.486
740,23.68,-0.9965,8.3386,-1.1574,-0.2841,-0.4768,1.5444,rough,15.5,2,8.486
750,24.00,-0.9965,8.3386,-1.1574,-0.2842,-0.4767,1.5445,rough,15.5,2,8.486
760,24.32,-0.9965,8.3386,-1.1574,-0.2842,-0.4767,1.5445,rough,15.5,2,8.486
770,24.64,-0.9963,8.3385,-1.1574,-0.2841,-0.4767,1.5445,rough,15.5,2,8.486
780,24.96,-0.9962,8.3385,-1.1573,-0.2843,-0.4765,1.5450,rough,15.5,2,8.486
790,25.28,-0.9964,8.3386,-1.1574,-0.2841,-0.4768,1.5445,rough,15.5,2,8.486
800,25.60,-0.9961,8.3385,-1.1573,-0.2840,-0.4767,1.5446,rough,15.5,2,8.486
810,25.92,-0.9960,8.3385,-1.1573,-0.2841,-0.4766,1.5450,rough,15.5,2,8.486
820,26.24,-0.9966,8.3386,-1.1574,-0.2841,-0.4768,1.5444,rough,15.5,2,8.486
830,26.56,-0.9965,8.3386,-1.1574,-0.2842,-0.4767,1.5445,rough,15.5,2,8.486
840,26.88,-0.9964,8.3385,-1.1574,-0.2840,-0.4768,1.5444,rough,15.5,2,8.486
850,27.20,-0.9963,8.3385,-1.1574,-0.2841,-0.4767,1.5446,rough,15.5,2,8.486
860,27.52,-0.9962,8.3385,-1.1573,-0.2843,-0.4765,1.5450,rough,15.5,2,8.486
870,27.84,-0.9962,8.3385,-1.1573,-0.2843,-0.4765,1.5450,rough,15.5,2,8.486
880,28.16,-0.9965,8.3385,-1.1574,-0.2841,-0.4767,1.5444,rough,15.5,2,8.486
890,28.48,-0.9960,8.3385,-1.1573,-0.2842,-0.4766,1.5450,rough,15.5,2,8.486
900,28.80,-0.9966,8.3386,-1.1574,-0.2841,-0.4768,1.5444,rough,15.5,2,8.486
910,29.12,-0.9965,8.3386,-1.1575,-0.2840,-0.4770,1.5441,rough,15.5,2,8.486
920,29.44,-0.9964,8.3386,-1.1574,-0.2841,-0.4768,1.5445,rough,15.5,2,8.486
930,29.76,-0.9963,8.3386,-1.1574,-0.2841,-0.4767,1.5446,rough,15.5,2,8.486
940,30.08,-0.9962,8.3385,-1.1573,-0.2843,-0.4765,1.5450,rough,15.5,2,8.486
950,30.40,-0.9966,8.3386,-1.1574,-0.2841,-0.4768,1.5442,rough,15.5,2,8.486
960,30.72,-0.9965,8.3386,-1.1574,-0.2841,-0.4767,1.5445,rough,15.5,2,8.486
970,31.04,-0.9960,8.3385,-1.1573,-0.2842,-0.4766,1.5450,rough,15.5,2,8.486
980,31.36,-0.9960,8.3385,-1.1572,-0.2842,-0.4765,1.5450,rough,15.5,2,8.486
990,31.68,-0.9962,8.3385,-1.1573,-0.2842,-0.4765,1.5449,rough,15.5,2,8.486
1000,32.00,-0.9964,8.3386,-1.1574,-0.2841,-0.4768,1.5445,rough,15.5,2,8.486
1010,32.32,-0.9963,8.3386,-1.1574,-0.2841,-0.4767,1.5446,rough,15.5,2,8.486
1020,32.64,-0.9967,8.3386,-1.1575,-0.2840,-0.4769,1.5440,rough,15.5,2,8.486
1030,32.96,-0.9965,8.3386,-1.1574,-0.2841,-0.4768,1.5444,rough,15.5,2,8.486
1040,33.28,-0.9965,8.3386,-1.1574,-0.2842,-0.4767,1.5445,rough,15.5,2,8.486
1050,33.60,-0.9960,8.3385,-1.1573,-0.2842,-0.4766,1.5450,rough,15.5,2,8.486
1060,33.92,-0.9963,8.3385,-1.1574,-0.2841,-0.4766,1.5447,rough,15.5,2,8.486
1070,34.24,-0.9962,8.3385,-1.1573,-0.2842,-0.4765,1.5449,rough,15.5,2,8.486
1080,34.56,-0.9964,8.3386,-1.1574,-0.2841,-0.4768,1.5445,rough,15.5,2,8.486
1090,34.88,-0.9964,8.3386,-1.1574,-0.2841,-0.4767,1.5446,rough,15.5,2,8.486
1100,35.20,-0.9960,8.3385,-1.1573,-0.2841,-0.4766,1.5449,rough,15.5,2,8.486
1110,35.52,-0.9965,8.3386,-1.1574,-0.2841,-0.4768,1.5444,rough,15.5,2,8.486
1120,35.84,-0.9965,8.3386,-1.1574,-0.2842,-0.4767,1.5445,rough,15.5,2,8.486
1130,36.16,-0.9965,8.3386,-1.1574,-0.2842,-0.4767,1.5445,rough,15.5,2,8.486
1140,36.48,-0.9963,8.3385,-1.1574,-0.2841,-0.4767,1.5445,rough,15.5,2,8.486
1150,36.80,-0.9962,8.3385,-1.1573,-0.2843,-0.4765,1.5450,rough,15.5,2,8.486
1160,37.12,-0.9964,8.3386,-1.1574,-0.2841,-0.4768,1.5445,rough,15.5,2,8.486
1170,37.44,-0.9961,8.3385,-1.1573,-0.2840,-0.4767,1.5446,rough,15.5,2,8.486
1180,37.76,-0.9960,8.3385,-1.1573,-0.2841,-0.4766,1.5450,rough,15.5,2,8.486
1190,38.08,-0.9966,8.3386,-1.1574,-0.2841,-0.4768,1.5444,rough,15.5,2,8.486
1200,38.40,-0.9965,8.3386,-1.1574,-0.2842,-0.4767,1.5445,rough,15.5,2,8.486
1210,38.72,-0.9964,8.3385,-1.1574,-0.2840,-0.4768,1.5444,rough,15.5,2,8.486
1220,39.04,-0.9963,8.3385,-1.1574,-0.2841,-0.4767,1.5446,rough,15.5,2,8.486
1230,39.36,-0.9962,8.3385,-1.1573,-0.2843,-0.4765,1.5450,rough,15.5,2,8.486
1240,39.68,-0.9962,8.3385,-1.1573,-0.2843,-0.4765,1.5450,rough,15.5,2,8.486
1250,40.00,-0.9965,8.3385,-1.1574,-0.2841,-0.4767,1.5444,rough,15.5,2,8.486
1260,40.32,-0.9960,8.3385,-1.1573,-0.2842,-0.4766,1.5450,rough,15.5,2,8.486
1270,40.64,-0.9966,8.3386,-1.1574,-0.2841,-0.4768,1.5444,rough,15.5,2,8.486
1280,40.96,-0.9965,8.3386,-1.1575,-0.2840,-0.4770,1.5441,rough,15.5,2,8.486
1290,41.28,-0.9964,8.3386,-1.1574,-0.2841,-0.4768,1.5445,rough,15.5,2,8.486
1300,41.60,-0.9963,8.3386,-1.1574,-0.2841,-0.4767,1.5446,rough,15.5,2,8.486
1310,41.92,-0.9962,8.3385,-1.1573,-0.2843,-0.4765,1.5450,rough,15.5,2,8.486
1320,42.24,-0.9966,8.3386,-1.1574,-0.2841,-0.4768,1.5442,rough,15.5,2,8.486
1330,42.56,-0.9965,8.3386,-1.1574,-0.2841,-0.4767,1.5445,rough,15.5,2,8.486
1340,42.88,-0.9960,8.3385,-1.1573,-0.2842,-0.4766,1.5450,rough,15.5,2,8.486
1350,43.20,-0.9960,8.3385,-1.1572,-0.2842,-0.4765,1.5450,rough,15.5,2,8.486
1360,43.52,-0.9962,8.3385,-1.1573,-0.2842,-0.4765,1.5449,rough,15.5,2,8.486
1370,43.84,-0.9964,8.3386,-1.1574,-0.2841,-0.4768,1.5445,rough,15.5,2,8.486
1380,44.16,-0.9963,8.3386,-1.1574,-0.2841,-0.4767,1.5446,rough,15.5,2,8.486
1390,44.48,-0.9967,8.3386,-1.1575,-0.2840,-0.4769,1.5440,rough,15.5,2,8.486
1400,44.80,-0.9965,8.3386,-1.1574,-0.2841,-0.4768,1.5444,rough,15.5,2,8.486
1410,45.12,-0.9965,8.3386,-1.1574,-0.2842,-0.4767,1.5445,rough,15.5,2,8.486
1420,45.44,-0.9960,8.3385,-1.1573,-0.2842,-0.4766,1.5450,rough,15.5,2,8.486
1430,45.76,-0.9963,8.3385,-1.1574,-0.2841,-0.4766,1.5447,rough,15.5,2,8.486
1440,46.08,-0.9962,8.3385,-1.1573,-0.2842,-0.4765,1.5449,rough,15.5,2,8.486
1450,46.40,-0.9964,8.3386,-1.1574,-0.2841,-0.4768,1.5445,rough,15.5,2,8.486
1460,46.72,-0.9964,8.3386,-1.1574,-0.2841,-0.4767,1.5446,rough,15.5,2,8.486
1470,47.04,-0.9960,8.3385,-1.1573,-0.2841,-0.4766,1.5449,rough,15.5,2,8.486
1480,47.36,-0.9965,8.3386,-1.1574,-0.2841,-0.4768,1.5444,rough,15.5,2,8.486
1490,47.68,-0.9965,8.3386,-1.1574,-0.2842,-0.4767,1.5445,rough,15.5,2,8.486
1500,48.00,-0.9965,8.3386,-1.1574,-0.2842,-0.4767,1.5445,rough,15.5,2,8.486
1510,48.32,-0.9963,8.3385,-1.1574,-0.2841,-0.4767,1.5445,rough,15.5,2,8.486
1520,48.64,-0.9962,8.3385,-1.1573,-0.2843,-0.4765,1.5450,rough,15.5,2,8.486
1530,48.96,-0.9964,8.3386,-1.1574,-0.2841,-0.4768,1.5445,rough,15.5,2,8.486
1540,49.28,-0.9964,8.3386,-1.1574,-0.2841,-0.4767,1.5446,rough,15.5,2,8.486
1550,49.60,-0.9960,8.3385,-1.1573,-0.2841,-0.4766,1.5448,rough,15.5,2,8.486
1560,49.92,-0.9965,8.3386,-1.1574,-0.2841,-0.4768,1.5444,rough,15.5,2,8.486
1570,50.24,-0.9965,8.3386,-1.1574,-0.2842,-0.4767,1.5445,rough,15.5,2,8.486
1580,50.56,-0.9965,8.3386,-1.1574,-0.2842,-0.4767,1.5445,rough,15.5,2,8.486
1590,50.88,-0.9963,8.3385,-1.1574,-0.2841,-0.4767,1.5445,rough,15.5,2,8.486
1600,51.20,-0.9962,8.3385,-1.1573,-0.2843,-0.4765,1.5450,rough,15.5,2,8.486
1610,51.52,-0.9964,8.3386,-1.1574,-0.2841,-0.4768,1.5445,rough,15.5,2,8.486
1620,51.84,-0.9961,8.3385,-1.1573,-0.2840,-0.4767,1.5446,rough,15.5,2,8.486
1630,52.16,-0.9960,8.3385,-1.1573,-0.2841,-0.4766,1.5450,rough,15.5,2,8.486
1640,52.48,-0.9966,8.3386,-1.1574,-0.2841,-0.4768,1.5444,rough,15.5,2,8.486
1650,52.80,-0.9965,8.3386,-1.1574,-0.2842,-0.4767,1.5445,rough,15.5,2,8.486
1660,53.12,-0.9964,8.3385,-1.1574,-0.2840,-0.4768,1.5444,rough,15.5,2,8.486
1670,53.44,-0.9963,8.3385,-1.1574,-0.2841,-0.4767,1.5446,rough,15.5,2,8.486
1680,53.76,-0.9962,8.3385,-1.1573,-0.2843,-0.4765,1.5450,rough,15.5,2,8.486
1690,54.08,-0.9962,8.3385,-1.1573,-0.2843,-0.4765,1.5450,rough,15.5,2,8.486
1700,54.40,-0.9965,8.3385,-1.1574,-0.2841,-0.4767,1.5444,rough,15.5,2,8.486
1710,54.72,-0.9960,8.3385,-1.1573,-0.2842,-0.4766,1.5450,rough,15.5,2,8.486
1720,55.04,-0.9966,8.3386,-1.1574,-0.2841,-0.4768,1.5444,rough,15.5,2,8.486
1730,55.36,-0.9965,8.3386,-1.1575,-0.2840,-0.4770,1.5441,rough,15.5,2,8.486
1740,55.68,-0.9964,8.3386,-1.1574,-0.2841,-0.4768,1.5445,rough,15.5,2,8.486
1750,56.00,-0.9963,8.3386,-1.1574,-0.2841,-0.4767,1.5446,rough,15.5,2,8.486
1760,56.32,-0.9962,8.3385,-1.1573,-0.2843,-0.4765,1.5450,rough,15.5,2,8.486
1770,56.64,-0.9966,8.3386,-1.1574,-0.2841,-0.4768,1.5442,rough,15.5,2,8.486
1780,56.96,-0.9965,8.3386,-1.1574,-0.2841,-0.4767,1.5445,rough,15.5,2,8.486
1790,57.28,-0.9960,8.3385,-1.1573,-0.2842,-0.4766,1.5450,rough,15.5,2,8.486
1800,57.60,-0.9960,8.3385,-1.1572,-0.2842,-0.4765,1.5450,rough,15.5,2,8.486
1810,57.92,-0.9962,8.3385,-1.1573,-0.2842,-0.4765,1.5449,rough,15.5,2,8.486
1820,58.24,-0.9964,8.3386,-1.1574,-0.2841,-0.4768,1.5445,rough,15.5,2,8.486
1830,58.56,-0.9963,8.3386,-1.1574,-0.2841,-0.4767,1.5446,rough,15.5,2,8.486
1840,58.88,-0.9967,8.3386,-1.1575,-0.2840,-0.4769,1.5440,rough,15.5,2,8.486
1850,59.20,-0.9965,8.3386,-1.1574,-0.2841,-0.4768,1.5444,rough,15.5,2,8.486
1860,59.52,-0.9965,8.3386,-1.1574,-0.2842,-0.4767,1.5445,rough,15.5,2,8.486
1870,59.84,-0.9960,8.3385,-1.1573,-0.2842,-0.4766,1.5450,rough,15.5,2,8.486
1880,60.16,-0.9963,8.3385,-1.1574,-0.2841,-0.4766,1.5447,rough,15.5,2,8.486
1890,60.48,-0.9962,8.3385,-1.1573,-0.2842,-0.4765,1.5449,rough,15.5,2,8.486
1900,60.80,-0.9964,8.3386,-1.1574,-0.2841,-0.4768,1.5445,rough,15.5,2,8.486
1910,61.12,-0.9964,8.3386,-1.1574,-0.2841,-0.4767,1.5446,rough,15.5,2,8.486
1920,61.44,-0.9960,8.3385,-1.1573,-0.2841,-0.4766,1.5449,rough,15.5,2,8.486
1930,61.76,-0.9965,8.3386,-1.1574,-0.2841,-0.4768,1.5444,rough,15.5,2,8.486
1940,62.08,-0.9965,8.3386,-1.1574,-0.2842,-0.4767,1.5445,rough,15.5,2,8.486
1950,62.40,-0.9965,8.3386,-1.1574,-0.2842,-0.4767,1.5445,rough,15.5,2,8.486
1960,62.72,-0.9963,8.3385,-1.1574,-0.2841,-0.4767,1.5445,rough,15.5,2,8.486
1970,63.04,-0.9962,8.3385,-1.1573,-0.2843,-0.4765,1.5450,rough,15.5,2,8.486
1980,63.36,-0.9964,8.3386,-1.1574,-0.2841,-0.4768,1.5445,rough,15.5,2,8.486
1990,63.68,-0.9964,8.3386,-1.1574,-0.2841,-0.4767,1.5446,rough,15.5,2,8.486
2000,64.00,-0.9960,8.3385,-1.1573,-0.2841,-0.4766,1.5448,rough,15.5,2,8.486
2010,64.32,-0.9965,8.3386,-1.1574,-0.2841,-0.4768,1.5444,rough,15.5,2,8.486
2020,64.64,-0.9965,8.3386,-1.1574,-0.2842,-0.4767,1.5445,rough,15.5,2,8.486
2030,64.96,-0.9965,8.3386,-1.1574,-0.2842,-0.4767,1.5445,rough,15.5,2,8.486
2040,65.28,-0.9963,8.3385,-1.1574,-0.2841,-0.4767,1.5445,rough,15.5,2,8.486
2050,65.60,-0.9962,8.3385,-1.1573,-0.2843,-0.4765,1.5450,rough,15.5,2,8.486
2060,65.92,-0.9964,8.3386,-1.1574,-0.2841,-0.4768,1.5445,rough,15.5,2,8.486
2070,66.24,-0.9961,8.3385,-1.1573,-0.2840,-0.4767,1.5446,rough,15.5,2,8.486
2080,66.56,-0.9960,8.3385,-1.1573,-0.2841,-0.4766,1.5450,rough,15.5,2,8.486
2090,66.88,-0.9966,8.3386,-1.1574,-0.2841,-0.4768,1.5444,rough,15.5,2,8.486
2100,67.20,-0.9965,8.3386,-1.1574,-0.2842,-0.4767,1.5445,rough,15.5,2,8.486
2110,67.52,-0.9964,8.3385,-1.1574,-0.2840,-0.4768,1.5444,rough,15.5,2,8.486
2120,67.84,-0.9963,8.3385,-1.1574,-0.2841,-0.4767,1.5446,rough,15.5,2,8.486
2130,68.16,-0.9962,8.3385,-1.1573,-0.2843,-0.4765,1.5450,rough,15.5,2,8.486
2140,68.48,-0.9962,8.3385,-1.1573,-0.2843,-0.4765,1.5450,rough,15.5,2,8.486
2150,68.80,-0.9965,8.3385,-1.1574,-0.2841,-0.4767,1.5444,rough,15.5,2,8.486
2160,69.12,-0.9960,8.3385,-1.1573,-0.2842,-0.4766,1.5450,rough,15.5,2,8.486
2170,69.44,-0.9966,8.3386,-1.1574,-0.2841,-0.4768,1.5444,rough,15.5,2,8.486
2180,69.76,-0.9965,8.3386,-1.1575,-0.2840,-0.4770,1.5441,rough,15.5,2,8.486
2190,70.08,-0.9964,8.3386,-1.1574,-0.2841,-0.4768,1.5445,rough,15.5,2,8.486
2200,70.40,-0.9963,8.3386,-1.1574,-0.2841,-0.4767,1.5446,rough,15.5,2,8.486
2210,70.72,-0.9962,8.3385,-1.1573,-0.2843,-0.4765,1.5450,rough,15.5,2,8.486
2220,71.04,-0.9966,8.3386,-1.1574,-0.2841,-0.4768,1.5442,rough,15.5,2,8.486
2230,71.36,-0.9965,8.3386,-1.1574,-0.2841,-0.4767,1.5445,rough,15.5,2,8.486
2240,71.68,-0.9960,8.3385,-1.1573,-0.2842,-0.4766,1.5450,rough,15.5,2,8.486
2250,72.00,-0.9960,8.3385,-1.1572,-0.2842,-0.4765,1.5450,rough,15.5,2,8.486
2260,72.32,-0.9962,8.3385,-1.1573,-0.2842,-0.4765,1.5449,rough,15.5,2,8.486
2270,72.64,-0.9964,8.3386,-1.1574,-0.2841,-0.4768,1.5445,rough,15.5,2,8.486
2280,72.96,-0.9963,8.3386,-1.1574,-0.2841,-0.4767,1.5446,rough,15.5,2,8.486
2290,73.28,-0.9967,8.3386,-1.1575,-0.2840,-0.4769,1.5440,rough,15.5,2,8.486
2300,73.60,-0.9965,8.3386,-1.1574,-0.2841,-0.4768,1.5444,rough,15.5,2,8.486
2310,73.92,-0.9965,8.3386,-1.1574,-0.2842,-0.4767,1.5445,rough,15.5,2,8.486
2320,74.24,-0.9960,8.3385,-1.1573,-0.2842,-0.4766,1.5450,rough,15.5,2,8.486
2330,74.56,-0.9963,8.3385,-1.1574,-0.2841,-0.4766,1.5447,rough,15.5,2,8.486
2340,74.88,-0.9962,8.3385,-1.1573,-0.2842,-0.4765,1.5449,rough,15.5,2,8.486
2350,75.20,-0.9964,8.3386,-1.1574,-0.2841,-0.4768,1.5445,rough,15.5,2,8.486
2360,75.52,-0.9964,8.3386,-1.1574,-0.2841,-0.4767,1.5446,rough,15.5,2,8.486
2370,75.84,-0.9967,8.3386,-1.1575,-0.2840,-0.4769,1.5440,rough,15.5,2,8.486
2380,76.16,-0.9965,8.3386,-1.1574,-0.2841,-0.4768,1.5443,rough,15.5,2,8.486
2390,76.48,-0.9965,8.3386,-1.1574,-0.2842,-0.4767,1.5445,rough,15.5,2,8.486
2400,76.80,-0.9960,8.3385,-1.1573,-0.2842,-0.4766,1.5450,rough,15.5,2,8.486
2410,77.12,-0.9963,8.3385,-1.1574,-0.2841,-0.4766,1.5447,rough,15.5,2,8.486
2420,77.44,-0.9962,8.3385,-1.1573,-0.2842,-0.4765,1.5449,rough,15.5,2,8.486
2430,77.76,-0.9964,8.3386,-1.1574,-0.2841,-0.4768,1.5445,rough,15.5,2,8.486
2440,78.08,-0.9964,8.3386,-1.1574,-0.2841,-0.4767,1.5446,rough,15.5,2,8.486
2450,78.40,-0.9960,8.3385,-1.1573,-0.2841,-0.4766,1.5449,rough,15.5,2,8.486
2460,78.72,-0.9965,8.3386,-1.1574,-0.2841,-0.4768,1.5444,rough,15.5,2,8.486
2470,79.04,-0.9965,8.3386,-1.1574,-0.2842,-0.4767,1.5445,rough,15.5,2,8.486
2480,79.36,-0.9960,8.3385,-1.1573,-0.2842,-0.4766,1.5450,rough,15.5,2,8.486
2490,79.68,-0.9963,8.3385,-1.1574,-0.2841,-0.4766,1.5447,rough,15.5,2,8.486
2500,80.00,-0.9962,8.3385,-1.1573,-0.2842,-0.4765,1.5449,rough,15.5,2,8.486
2510,80.32,-0.9964,8.3386,-1.1574,-0.2841,-0.4768,1.5445,rough,15.5,2,8.486
2520,80.64,-0.9964,8.3386,-1.1574,-0.2841,-0.4767,1.5446,rough,15.5,2,8.486
2530,80.96,-0.9960,8.3385,-1.1573,-0.2841,-0.4766,1.5449,rough,15.5,2,8.486
2540,81.28,-0.9965,8.3386,-1.1574,-0.2841,-0.4768,1.5444,rough,15.5,2,8.486
2550,81.60,-0.9965,8.3386,-1.1574,-0.2842,-0.4767,1.5445,rough,15.5,2,8.486
2560,81.92,-0.9965,8.3386,-1.1574,-0.2842,-0.4767,1.5445,rough,15.5,2,8.486
2570,82.24,-0.9963,8.3385,-1.1574,-0.2841,-0.4767,1.5445,rough,15.5,2,8.486
2580,82.56,-0.9962,8.3385,-1.1573,-0.2843,-0.4765,1.5450,rough,15.5,2,8.486
2590,82.88,-0.9964,8.3386,-1.1574,-0.2841,-0.4768,1.5445,rough,15.5,2,8.486
2600,83.20,-0.9961,8.3385,-1.1573,-0.2840,-0.4767,1.5446,rough,15.5,2,8.486
2610,83.52,-0.9960,8.3385,-1.1573,-0.2841,-0.4766,1.5450,rough,15.5,2,8.486
2620,83.84,-0.9966,8.3386,-1.1574,-0.2841,-0.4768,1.5444,rough,15.5,2,8.486
2630,84.16,-0.9965,8.3386,-1.1574,-0.2842,-0.4767,1.5445,rough,15.5,2,8.486
2640,84.48,-0.9964,8.3385,-1.1574,-0.2840,-0.4768,1.5444,rough,15.5,2,8.486
2650,84.80,-0.9963,8.3385,-1.1574,-0.2841,-0.4767,1.5446,rough,15.5,2,8.486
2660,85.12,-0.9962,8.3385,-1.1573,-0.2843,-0.4765,1.5450,rough,15.5,2,8.486
2670,85.44,-0.9962,8.3385,-1.1573,-0.2843,-0.4765,1.5450,rough,15.5,2,8.486
2680,85.76,-0.9965,8.3385,-1.1574,-0.2841,-0.4767,1.5444,rough,15.5,2,8.486
2690,86.08,-0.9960,8.3385,-1.1573,-0.2842,-0.4766,1.5450,rough,15.5,2,8.486
2700,86.40,-0.9966,8.3386,-1.1574,-0.2841,-0.4768,1.5444,rough,15.5,2,8.486
2710,86.72,-0.9965,8.3386,-1.1575,-0.2839,-0.4770,1.5441,rough,15.5,2,8.486
2720,87.04,-0.9964,8.3386,-1.1574,-0.2841,-0.4768,1.5445,rough,15.5,2,8.486
2730,87.36,-0.9963,8.3386,-1.1574,-0.2841,-0.4767,1.5446,rough,15.5,2,8.486
2740,87.68,-0.9962,8.3385,-1.1573,-0.2843,-0.4765,1.5450,rough,15.5,2,8.486
2750,88.00,-0.9966,8.3386,-1.1574,-0.2841,-0.4768,1.5442,rough,15.5,2,8.486
2760,88.32,-0.9965,8.3386,-1.1574,-0.2841,-0.4767,1.5445,rough,15.5,2,8.486
2770,88.64,-0.9960,8.3385,-1.1573,-0.2842,-0.4766,1.5450,rough,15.5,2,8.486
2780,88.96,-0.9960,8.3385,-1.1572,-0.2842,-0.4765,1.5450,rough,15.5,2,8.486
2790,89.28,-0.9962,8.3385,-1.1573,-0.2842,-0.4765,1.5449,rough,15.5,2,8.486
2800,89.60,-0.9964,8.3386,-1.1574,-0.2841,-0.4768,1.5445,rough,15.5,2,8.486
2810,89.92,-0.9963,8.3386,-1.1574,-0.2841,-0.4767,1.5446,rough,15.5,2,8.486
2820,90.24,-0.9967,8.3386,-1.1575,-0.2840,-0.4769,1.5440,rough,15.5,2,8.486
2830,90.56,-0.9965,8.3386,-1.1574,-0.2841,-0.4768,1.5444,rough,15.5,2,8.486
2840,90.88,-0.9965,8.3386,-1.1574,-0.2842,-0.4767,1.5445,rough,15.5,2,8.486
2850,91.20,-0.9960,8.3385,-1.1573,-0.2842,-0.4766,1.5450,rough,15.5,2,8.486
2860,91.52,-0.9960,8.3385,-1.1572,-0.2842,-0.4765,1.5450,rough,15.5,2,8.486
2870,91.84,-0.9962,8.3385,-1.1573,-0.2842,-0.4765,1.5449,rough,15.5,2,8.486
2880,92.16,-0.9964,8.3386,-1.1574,-0.2841,-0.4768,1.5445,rough,15.5,2,8.486
2890,92.48,-0.9963,8.3386,-1.1574,-0.2841,-0.4767,1.5446,rough,15.5,2,8.486
2900,92.80,-0.9967,8.3386,-1.1575,-0.2840,-0.4769,1.5440,rough,15.5,2,8.486
2910,93.12,-0.9965,8.3386,-1.1574,-0.2841,-0.4768,1.5444,rough,15.5,2,8.486
2920,93.44,-0.9965,8.3386,-1.1574,-0.2842,-0.4767,1.5445,rough,15.5,2,8.486
2930,93.76,-0.9960,8.3385,-1.1573,-0.2842,-0.4766,1.5450,rough,15.5,2,8.486
2940,94.08,-0.9963,8.3385,-1.1574,-0.2841,-0.4766,1.5447,rough,15.5,2,8.486
2950,94.40,-0.9962,8.3385,-1.1573,-0.2842,-0.4765,1.5449,rough,15.5,2,8.486
2960,94.72,-0.9964,8.3386,-1.1574,-0.2841,-0.4768,1.5445,rough,15.5,2,8.486
2970,95.04,-0.9964,8.3386,-1.1574,-0.2841,-0.4767,1.5446,rough,15.5,2,8.486
2980,95.36,-0.9960,8.3385,-1.1573,-0.2841,-0.4766,1.5449,rough,15.5,2,8.486
2990,95.68,-0.9965,8.3386,-1.1574,-0.2841,-0.4768,1.5444,rough,15.5,2,8.486
3000,96.00,-0.9965,8.3386,-1.1574,-0.2842,-0.4767,1.5445,rough,15.5,2,8.486
3010,96.32,-0.9965,8.3386,-1.1574,-0.2842,-0.4767,1.5445,rough,15.5,2,8.486
3020,96.64,-0.9963,8.3385,-1.1574,-0.2841,-0.4767,1.5445,rough,15.5,2,8.486
3030,96.96,-0.9962,8.3385,-1.1573,-0.2843,-0.4765,1.5450,rough,15.5,2,8.486
3040,97.28,-0.9964,8.3386,-1.1574,-0.2841,-0.4768,1.5445,rough,15.5,2,8.486
3050,97.60,-0.9961,8.3385,-1.1573,-0.2840,-0.4767,1.5446,rough,15.5,2,8.486
3060,97.92,-0.9960,8.3385,-1.1573,-0.2841,-0.4766,1.5450,rough,15.5,2,8.486
3070,98.24,-0.9966,8.3386,-1.1574,-0.2841,-0.4768,1.5444,rough,15.5,2,8.486
3080,98.56,-0.9965,8.3386,-1.1574,-0.2842,-0.4767,1.5445,rough,15.5,2,8.486
3090,98.88,-0.9964,8.3385,-1.1574,-0.2840,-0.4768,1.5444,rough,15.5,2,8.486
3100,99.20,-0.9963,8.3385,-1.1574,-0.2841,-0.4767,1.5446,rough,15.5,2,8.486
3110,99.52,-0.9962,8.3385,-1.1573,-0.2843,-0.4765,1.5450,rough,15.5,2,8.486
3120,99.84,-0.9962,8.3385,-1.1573,-0.2843,-0.4765,1.5450,rough,15.5,2,8.486
3130,100.16,-0.9965,8.3385,-1.1574,-0.2841,-0.4767,1.5444,rough,15.5,2,8.486
3140,100.48,-0.9960,8.3385,-1.1573,-0.2842,-0.4766,1.5450,rough,15.5,2,8.486
3150,100.80,-0.9966,8.3386,-1.1574,-0.2841,-0.4768,1.5444,rough,15.5,2,8.486
3160,101.12,-0.9965,8.3386,-1.1575,-0.2839,-0.4770,1.5441,rough,15.5,2,8.486
3170,101.44,-0.9964,8.3386,-1.1574,-0.2841,-0.4768,1.5445,rough,15.5,2,8.486
3180,101.76,-0.9963,8.3386,-1.1574,-0.2841,-0.4767,1.5446,rough,15.5,2,8.486
3190,102.08,-0.9962,8.3385,-1.1573,-0.2843,-0.4765,1.5450,rough,15.5,2,8.486
3200,102.40,-0.9966,8.3386,-1.1574,-0.2841,-0.4768,1.5442,rough,15.5,2,8.486
3210,102.72,-0.9965,8.3386,-1.1574,-0.2841,-0.4767,1.5445,rough,15.5,2,8.486
3220,103.04,-0.9960,8.3385,-1.1573,-0.2842,-0.4766,1.5450,rough,15.5,2,8.486
3230,103.36,-0.9960,8.3385,-1.1572,-0.2842,-0.4765,1.5450,rough,15.5,2,8.486
3240,103.68,-0.9962,8.3385,-1.1573,-0.2842,-0.4765,1.5449,rough,15.5,2,8.486
3250,104.00,-0.9964,8.3386,-1.1574,-0.2841,-0.4768,1.5445,rough,15.5,2,8.486
3260,104.32,-0.9963,8.3386,-1.1574,-0.2841,-0.4767,1.5446,rough,15.5,2,8.486
3270,104.64,-0.9967,8.3386,-1.1575,-0.2840,-0.4769,1.5440,rough,15.5,2,8.486
3280,104.96,-0.9965,8.3386,-1.1574,-0.2841,-0.4768,1.5444,rough,15.5,2,8.486
3290,105.28,-0.9965,8.3386,-1.1574,-0.2842,-0.4767,1.5445,rough,15.5,2,8.486
3300,105.60,-0.9960,8.3385,-1.1573,-0.2842,-0.4766,1.5450,rough,15.5,2,8.486
3310,105.92,-0.9963,8.3385,-1.1574,-0.2841,-0.4766,1.5447,rough,15.5,2,8.486
3320,106.24,-0.9962,8.3385,-1.1573,-0.2842,-0.4765,1.5449,rough,15.5,2,8.486
3330,106.56,-0.9964,8.3386,-1.1574,-0.2841,-0.4768,1.5445,rough,15.5,2,8.486
3340,106.88,-0.9964,8.3386,-1.1574,-0.2841,-0.4767,1.5446,rough,15.5,2,8.486
3350,107.20,-0.9960,8.3385,-1.1573,-0.2841,-0.4766,1.5449,rough,15.5,2,8.486
3360,107.52,-0.9965,8.3386,-1.1574,-0.2841,-0.4768,1.5444,rough,15.5,2,8.486
3370,107.84,-0.9965,8.3386,-1.1574,-0.2842,-0.4767,1.5445,rough,15.5,2,8.486
3380,108.16,-0.9965,8.3386,-1.1574,-0.2842,-0.4767,1.5445,rough,15.5,2,8.486
3390,108.48,-0.9963,8.3385,-1.1574,-0.2841,-0.4767,1.5445,rough,15.5,2,8.486
3400,108.80,-0.9962,8.3385,-1.1573,-0.2843,-0.4765,1.5450,rough,15.5,2,8.486
3410,109.12,-0.9964,8.3386,-1.1574,-0.2841,-0.4768,1.5445,rough,15.5,2,8.486
3420,109.44,-0.9961,8.3385,-1.1573,-0.2840,-0.4767,1.5446,rough,15.5,2,8.486
3430,109.76,-0.9960,8.3385,-1.1573,-0.2841,-0.4766,1.5450,rough,15.5,2,8.486
3440,110.08,-0.9966,8.3386,-1.1574,-0.2841,-0.4768,1.5444,rough,15.5,2,8.486
3450,110.40,-0.9965,8.3386,-1.1574,-0.2842,-0.4767,1.5445,rough,15.5,2,8.486
3460,110.72,-0.9964,8.3385,-1.1574,-0.2840,-0.4768,1.5444,rough,15.5,2,8.486
3470,111.04,-0.9963,8.3385,-1.1574,-0.2841,-0.4767,1.5446,rough,15.5,2,8.486
3480,111.36,-0.9962,8.3385,-1.1573,-0.2843,-0.4765,1.5450,rough,15.5,2,8.486
3490,111.68,-0.9962,8.3385,-1.1573,-0.2843,-0.4765,1.5450,rough,15.5,2,8.486
3500,112.00,-0.9965,8.3385,-1.1574,-0.2841,-0.4767,1.5444,rough,15.5,2,8.486
3510,112.32,-0.9960,8.3385,-1.1573,-0.2842,-0.4766,1.5450,rough,15.5,2,8.486
3520,112.64,-0.9966,8.3386,-1.1574,-0.2841,-0.4768,1.5444,rough,15.5,2,8.486
3530,112.96,-0.9965,8.3386,-1.1575,-0.2840,-0.4770,1.5441,rough,15.5,2,8.486
3540,113.28,-0.9964,8.3386,-1.1574,-0.2841,-0.4768,1.5445,rough,15.5,2,8.486
3550,113.60,-0.9963,8.3386,-1.1574,-0.2841,-0.4767,1.5446,rough,15.5,2,8.486
3560,113.92,-0.9962,8.3385,-1.1573,-0.2843,-0.4765,1.5450,rough,15.5,2,8.486
3570,114.24,-0.9966,8.3386,-1.1574,-0.2841,-0.4768,1.5442,rough,15.5,2,8.486
3580,114.56,-0.9965,8.3386,-1.1574,-0.2841,-0.4767,1.5445,rough,15.5,2,8.486
3590,114.88,-0.9960,8.3385,-1.1573,-0.2842,-0.4766,1.5450,rough,15.5,2,8.486
3600,115.20,-0.9960,8.3385,-1.1572,-0.2842,-0.4765,1.5450,rough,15.5,2,8.486
3610,115.52,-0.9962,8.3385,-1.1573,-0.2842,-0.4765,1.5449,rough,15.5,2,8.486
3620,115.84,-0.9964,8.3386,-1.1574,-0.2841,-0.4768,1.5445,rough,15.5,2,8.486
3630,116.16,-0.9963,8.3386,-1.1574,-0.2841,-0.4767,1.5446,rough,15.5,2,8.486
3640,116.48,-0.9967,8.3386,-1.1575,-0.2840,-0.4769,1.5440,rough,15.5,2,8.486
3650,116.80,-0.9965,8.3386,-1.1574,-0.2841,-0.4768,1.5444,rough,15.5,2,8.486
3660,117.12,-0.9965,8.3386,-1.1574,-0.2842,-0.4767,1.5445,rough,15.5,2,8.486
3670,117.44,-0.9960,8.3385,-1.1573,-0.2842,-0.4766,1.5450,rough,15.5,2,8.486
3680,117.76,-0.9963,8.3385,-1.1574,-0.2841,-0.4766,1.5447,rough,15.5,2,8.486
3690,118.08,-0.9962,8.3385,-1.1573,-0.2842,-0.4765,1.5449,rough,15.5,2,8.486
3700,118.40,-0.9964,8.3386,-1.1574,-0.2841,-0.4768,1.5445,rough,15.5,2,8.486
3710,118.72,-0.9964,8.3386,-1.1574,-0.2841,-0.4767,1.5446,rough,15.5,2,8.486
3720,119.04,-0.9960,8.3385,-1.1573,-0.2841,-0.4766,1.5449,rough,15.5,2,8.486
3730,119.36,-0.9965,8.3386,-1.1574,-0.2841,-0.4768,1.5444,rough,15.5,2,8.486
3740,119.68,-0.9965,8.3386,-1.1574,-0.2842,-0.4767,1.5445,rough,15.5,2,8.486
3750,120.00,-0.9960,8.3385,-1.1573,-0.2842,-0.4766,1.5450,rough,15.5,2,8.486
3760,120.32,-0.9963,8.3385,-1.1574,-0.2841,-0.4766,1.5447,rough,15.5,2,8.486
3770,120.64,-0.9962,8.3385,-1.1573,-0.2842,-0.4765,1.5449,rough,15.5,2,8.486
3780,120.96,-0.9964,8.3386,-1.1574,-0.2841,-0.4768,1.5445,rough,15.5,2,8.486
3790,121.28,-0.9964,8.3386,-1.1574,-0.2841,-0.4767,1.5446,rough,15.5,2,8.486
3800,121.60,-0.9960,8.3385,-1.1573,-0.2841,-0.4766,1.5449,rough,15.5,2,8.486
3810,121.92,-0.9965,8.3386,-1.1574,-0.2841,-0.4768,1.5444,rough,15.5,2,8.486
3820,122.24,-0.9965,8.3386,-1.1574,-0.2842,-0.4767,1.5445,rough,15.5,2,8.486
3830,122.56,-0.9965,8.3386,-1.1574,-0.2842,-0.4767,1.5445,rough,15.5,2,8.486
3840,122.88,-0.9963,8.3385,-1.1574,-0.2841,-0.4767,1.5445,rough,15.5,2,8.486
3850,123.20,-0.9962,8.3385,-1.1573,-0.2843,-0.4765,1.5450,rough,15.5,2,8.486
3860,123.52,-0.9964,8.3386,-1.1574,-0.2841,-0.4768,1.5445,rough,15.5,2,8.486
3870,123.84,-0.9961,8.3385,-1.1573,-0.2840,-0.4767,1.5446,rough,15.5,2,8.486
3880,124.16,-0.9960,8.3385,-1.1573,-0.2841,-0.4766,1.5450,rough,15.5,2,8.486
3890,124.48,-0.9966,8.3386,-1.1574,-0.2841,-0.4768,1.5444,rough,15.5,2,8.486
3900,124.80,-0.9965,8.3386,-1.1574,-0.2842,-0.4767,1.5445,rough,15.5,2,8.486
3910,125.12,-0.9964,8.3385,-1.1574,-0.2840,-0.4768,1.5444,rough,15.5,2,8.486
3920,125.44,-0.9963,8.3385,-1.1574,-0.2841,-0.4767,1.5446,rough,15.5,2,8.486
3930,125.76,-0.9962,8.3385,-1.1573,-0.2843,-0.4765,1.5450,rough,15.5,2,8.486
3940,126.08,-0.9962,8.3385,-1.1573,-0.2843,-0.4765,1.5450,rough,15.5,2,8.486
3950,126.40,-0.9965,8.3385,-1.1574,-0.2841,-0.4767,1.5444,rough,15.5,2,8.486
3960,126.72,-0.9960,8.3385,-1.1573,-0.2842,-0.4766,1.5450,rough,15.5,2,8.486
3970,127.04,-0.9966,8.3386,-1.1574,-0.2841,-0.4768,1.5444,rough,15.5,2,8.486
3980,127.36,-0.9965,8.3386,-1.1575,-0.2840,-0.4770,1.5441,rough,15.5,2,8.486
3990,127.68,-0.9964,8.3386,-1.1574,-0.2841,-0.4768,1.5445,rough,15.5,2,8.486
4000,128.00,-0.9963,8.3386,-1.1574,-0.2841,-0.4767,1.5446,rough,15.5,2,8.486
4010,128.32,-0.9962,8.3385,-1.1573,-0.2843,-0.4765,1.5450,rough,15.5,2,8.486
4020,128.64,-0.9966,8.3386,-1.1574,-0.2841,-0.4768,1.5442,rough,15.5,2,8.486
4030,128.96,-0.9965,8.3386,-1.1574,-0.2841,-0.4767,1.5445,rough,15.5,2,8.486
4040,129.28,-0.9960,8.3385,-1.1573,-0.2842,-0.4766,1.5450,rough,15.5,2,8.486
4050,129.60,-0.9960,8.3385,-1.1572,-0.2842,-0.4765,1.5450,rough,15.5,2,8.486
4060,129.92,-0.9962,8.3385,-1.1573,-0.2842,-0.4765,1.5449,rough,15.5,2,8.486
4070,130.24,-0.9964,8.3386,-1.1574,-0.2841,-0.4768,1.5445,rough,15.5,2,8.486
4080,130.56,-0.9963,8.3386,-1.1574,-0.2841,-0.4767,1.5446,rough,15.5,2,8.486
4090,130.88,-0.9967,8.3386,-1.1575,-0.2840,-0.4769,1.5440,rough,15.5,2,8.486
4100,131.20,-0.9965,8.3386,-1.1574,-0.2841,-0.4768,1.5444,rough,15.5,2,8.486
4110,131.52,-0.9965,8.3386,-1.1574,-0.2842,-0.4767,1.5445,rough,15.5,2,8.486
4120,131.84,-0.9960,8.3385,-1.1573,-0.2842,-0.4766,1.5450,rough,15.5,2,8.486
4130,132.16,-0.9960,8.3385,-1.1572,-0.2842,-0.4765,1.5450,rough,15.5,2,8.486
4140,132.48,-0.9962,8.3385,-1.1573,-0.2842,-0.4765,1.5449,rough,15.5,2,8.486
4150,132.80,-0.9964,8.3386,-1.1574,-0.2841,-0.4768,1.5445,rough,15.5,2,8.486
4160,133.12,-0.9963,8.3386,-1.1574,-0.2841,-0.4767,1.5446,rough,15.5,2,8.486
4170,133.44,-0.9967,8.3386,-1.1575,-0.2840,-0.4769,1.5440,rough,15.5,2,8.486
4180,133.76,-0.9965,8.3386,-1.1574,-0.2841,-0.4768,1.5444,rough,15.5,2,8.486
4190,134.08,-0.9965,8.3386,-1.1574,-0.2842,-0.4767,1.5445,rough,15.5,2,8.486
4200,134.40,-0.9960,8.3385,-1.1573,-0.2842,-0.4766,1.5450,rough,15.5,2,8.486
4210,134.72,-0.9963,8.3385,-1.1574,-0.2841,-0.4766,1.5447,rough,15.5,2,8.486
4220,135.04,-0.9962,8.3385,-1.1573,-0.2842,-0.4765,1.5449,rough,15.5,2,8.486
4230,135.36,-0.9964,8.3386,-1.1574,-0.2841,-0.4768,1.5445,rough,15.5,2,8.486
4240,135.68,-0.9964,8.3386,-1.1574,-0.2841,-0.4767,1.5446,rough,15.5,2,8.486
4250,136.00,-0.9967,8.3386,-1.1575,-0.2840,-0.4769,1.5440,rough,15.5,2,8.486
4260,136.32,-0.9965,8.3386,-1.1574,-0.2841,-0.4768,1.5443,rough,15.5,2,8.486
4270,136.64,-0.9965,8.3386,-1.1574,-0.2842,-0.4767,1.5445,rough,15.5,2,8.486
4280,136.96,-0.9960,8.3385,-1.1573,-0.2842,-0.4766,1.5450,rough,15.5,2,8.486
4290,137.28,-0.9963,8.3385,-1.1574,-0.2841,-0.4766,1.5447,rough,15.5,2,8.486
4300,137.60,-0.9962,8.3385,-1.1573,-0.2842,-0.4765,1.5449,rough,15.5,2,8.486
4310,137.92,-0.9964,8.3386,-1.1574,-0.2841,-0.4768,1.5445,rough,15.5,2,8.486
4320,138.24,-0.9964,8.3386,-1.1574,-0.2841,-0.4767,1.5446,rough,15.5,2,8.486
4330,138.56,-0.9960,8.3385,-1.1573,-0.2841,-0.4766,1.5449,rough,15.5,2,8.486
4340,138.88,-0.9965,8.3386,-1.1574,-0.2841,-0.4768,1.5444,rough,15.5,2,8.486
4350,139.20,-0.9965,8.3386,-1.1574,-0.2842,-0.4767,1.5445,rough,15.5,2,8.486
4360,139.52,-0.9965,8.3386,-1.1574,-0.2842,-0.4767,1.5445,rough,15.5,2,8.486
4370,139.84,-0.9963,8.3385,-1.1574,-0.2841,-0.4767,1.5445,rough,15.5,2,8.486
4380,140.16,-0.9962,8.3385,-1.1573,-0.2843,-0.4765,1.5450,rough,15.5,2,8.486
4390,140.48,-0.9964,8.3386,-1.1574,-0.2841,-0.4768,1.5445,rough,15.5,2,8.486
4400,140.80,-0.9961,8.3385,-1.1573,-0.2840,-0.4767,1.5446,rough,15.5,2,8.486
4410,141.12,-0.9960,8.3385,-1.1573,-0.2841,-0.4766,1.5450,rough,15.5,2,8.486
4420,141.44,-0.9966,8.3386,-1.1574,-0.2841,-0.4768,1.5444,rough,15.5,2,8.486
4430,141.76,-0.9965,8.3386,-1.1574,-0.2842,-0.4767,1.5445,rough,15.5,2,8.486
4440,142.08,-0.9964,8.3385,-1.1574,-0.2840,-0.4768,1.5444,rough,15.5,2,8.486
4450,142.40,-0.9963,8.3385,-1.1574,-0.2841,-0.4767,1.5446,rough,15.5,2,8.486
4460,142.72,-0.9962,8.3385,-1.1573,-0.2843,-0.4765,1.5450,rough,15.5,2,8.486
4470,143.04,-0.9962,8.3385,-1.1573,-0.2843,-0.4765,1.5450,rough,15.5,2,8.486
4480,143.36,-0.9965,8.3385,-1.1574,-0.2841,-0.4767,1.5444,rough,15.5,2,8.486
4490,143.68,-0.9960,8.3385,-1.1573,-0.2842,-0.4766,1.5450,rough,15.5,2,8.486
4500,144.00,-0.9966,8.3386,-1.1574,-0.2841,-0.4768,1.5444,rough,15.5,2,8.486
4510,144.32,-0.9965,8.3386,-1.1575,-0.2840,-0.4770,1.5441,rough,15.5,2,8.486
4520,144.64,-0.9964,8.3386,-1.1574,-0.2841,-0.4768,1.5445,rough,15.5,2,8.486
4530,144.96,-0.9963,8.3386,-1.1574,-0.2841,-0.4767,1.5446,rough,15.5,2,8.486
4540,145.28,-0.9962,8.3385,-1.1573,-0.2843,-0.4765,1.5450,rough,15.5,2,8.486
4550,145.60,-0.9966,8.3386,-1.1574,-0.2841,-0.4768,1.5442,rough,15.5,2,8.486
4560,145.92,-0.9965,8.3386,-1.1574,-0.2841,-0.4767,1.5445,rough,15.5,2,8.486
4570,146.24,-0.9960,8.3385,-1.1573,-0.2842,-0.4766,1.5450,rough,15.5,2,8.486
4580,146.56,-0.9960,8.3385,-1.1572,-0.2842,-0.4765,1.5450,rough,15.5,2,8.486
4590,146.88,-0.9962,8.3385,-1.1573,-0.2842,-0.4765,1.5449,rough,15.5,2,8.486
4600,147.20,-0.9964,8.3386,-1.1574,-0.2841,-0.4768,1.5445,rough,15.5,2,8.486
4610,147.52,-0.9963,8.3386,-1.1574,-0.2841,-0.4767,1.5446,rough,15.5,2,8.486
4620,147.84,-0.9963,8.3385,-1.1573,-0.2843,-0.4765,1.5449,rough,15.5,2,8.486
4630,148.16,-0.9966,8.3386,-1.1574,-0.2841,-0.4768,1.5442,rough,15.5,2,8.486
4640,148.48,-0.9965,8.3386,-1.1574,-0.2841,-0.4767,1.5445,rough,15.5,2,8.486
4650,148.80,-0.9960,8.3385,-1.1573,-0.2842,-0.4766,1.5450,rough,15.5,2,8.486
4660,149.12,-0.9960,8.3385,-1.1572,-0.2842,-0.4765,1.5450,rough,15.5,2,8.486
4670,149.44,-0.9962,8.3385,-1.1573,-0.2842,-0.4765,1.5449,rough,15.5,2,8.486
4680,149.76,-0.9964,8.3386,-1.1574,-0.2841,-0.4768,1.5445,rough,15.5,2,8.486
4690,150.08,-0.9963,8.3386,-1.1574,-0.2841,-0.4767,1.5446,rough,15.5,2,8.486
4700,150.40,-0.9967,8.3386,-1.1575,-0.2840,-0.4769,1.5440,rough,15.5,2,8.486
4710,150.72,-0.9965,8.3386,-1.1574,-0.2841,-0.4768,1.5444,rough,15.5,2,8.486
4720,151.04,-0.9965,8.3386,-1.1574,-0.2842,-0.4767,1.5445,rough,15.5,2,8.486
4730,151.36,-0.9960,8.3385,-1.1573,-0.2842,-0.4766,1.5450,rough,15.5,2,8.486
4740,151.68,-0.9960,8.3385,-1.1572,-0.2842,-0.4765,1.5450,rough,15.5,2,8.486
4750,152.00,-0.9962,8.3385,-1.1573,-0.2842,-0.4765,1.5449,rough,15.5,2,8.486
4760,152.32,-0.9964,8.3386,-1.1574,-0.2841,-0.4768,1.5445,rough,15.5,2,8.486
4770,152.64,-0.9963,8.3386,-1.1574,-0.2841,-0.4767,1.5446,rough,15.5,2,8.486
4780,152.96,-0.9967,8.3386,-1.1575,-0.2840,-0.4769,1.5440,rough,15.5,2,8.486
4790,153.28,-0.9965,8.3386,-1.1574,-0.2841,-0.4768,1.5444,rough,15.5,2,8.486
4800,153.60,-0.9965,8.3386,-1.1574,-0.2842,-0.4767,1.5445,rough,15.5,2,8.486
4810,153.92,-0.9960,8.3385,-1.1573,-0.2842,-0.4766,1.5450,rough,15.5,2,8.486
4820,154.24,-0.9963,8.3385,-1.1574,-0.2841,-0.4766,1.5447,rough,15.5,2,8.486
4830,154.56,-0.9962,8.3385,-1.1573,-0.2842,-0.4765,1.5449,rough,15.5,2,8.486
4840,154.88,-0.9964,8.3386,-1.1574,-0.2841,-0.4768,1.5445,rough,15.5,2,8.486
4850,155.20,-0.9964,8.3386,-1.1574,-0.2841,-0.4767,1.5446,rough,15.5,2,8.486
4860,155.52,-0.9960,8.3385,-1.1573,-0.2841,-0.4766,1.5449,rough,15.5,2,8.486
4870,155.84,-0.9965,8.3386,-1.1574,-0.2841,-0.4768,1.5444,rough,15.5,2,8.486
4880,156.16,-0.9965,8.3386,-1.1574,-0.2842,-0.4767,1.5445,rough,15.5,2,8.486
4890,156.48,-0.9965,8.3386,-1.1574,-0.2842,-0.4767,1.5445,rough,15.5,2,8.486
4900,156.80,-0.9963,8.3385,-1.1574,-0.2841,-0.4767,1.5445,rough,15.5,2,8.486
4910,157.12,-0.9962,8.3385,-1.1573,-0.2843,-0.4765,1.5450,rough,15.5,2,8.486
4920,157.44,-0.9964,8.3386,-1.1574,-0.2841,-0.4768,1.5445,rough,15.5,2,8.486
4930,157.76,-0.9961,8.3385,-1.1573,-0.2840,-0.4767,1.5446,rough,15.5,2,8.486
4940,158.08,-0.9960,8.3385,-1.1573,-0.2841,-0.4766,1.5450,rough,15.5,2,8.486
4950,158.40,-0.9966,8.3386,-1.1574,-0.2841,-0.4768,1.5444,rough,15.5,2,8.486
4960,158.72,-0.9965,8.3386,-1.1574,-0.2842,-0.4767,1.5445,rough,15.5,2,8.486
4970,159.04,-0.9964,8.3385,-1.1574,-0.2840,-0.4768,1.5444,rough,15.5,2,8.486
4980,159.36,-0.9963,8.3385,-1.1574,-0.2841,-0.4767,1.5446,rough,15.5,2,8.486
4990,159.68,-0.9962,8.3385,-1.1573,-0.2843,-0.4765,1.5450,rough,15.5,2,8.486
5000,160.00,-0.9962,8.3385,-1.1573,-0.2843,-0.4765,1.5450,rough,15.5,2,8.486
5010,160.32,-0.9965,8.3385,-1.1574,-0.2841,-0.4767,1.5444,rough,15.5,2,8.486
5020,160.64,-0.9960,8.3385,-1.1573,-0.2842,-0.4766,1.5450,rough,15.5,2,8.486
5030,160.96,-0.9966,8.3386,-1.1574,-0.2841,-0.4768,1.5444,rough,15.5,2,8.486
5040,161.28,-0.9965,8.3386,-1.1575,-0.2840,-0.4770,1.5441,rough,15.5,2,8.486
5050,161.60,-0.9964,8.3386,-1.1574,-0.2841,-0.4768,1.5445,rough,15.5,2,8.486
5060,161.92,-0.9963,8.3386,-1.1574,-0.2841,-0.4767,1.5446,rough,15.5,2,8.486
5070,162.24,-0.9962,8.3385,-1.1573,-0.2843,-0.4765,1.5450,rough,15.5,2,8.486
5080,162.56,-0.9966,8.3386,-1.1574,-0.2841,-0.4768,1.5442,rough,15.5,2,8.486
5090,162.88,-0.9965,8.3386,-1.1574,-0.2841,-0.4767,1.5445,rough,15.5,2,8.486
5100,163.20,-0.9960,8.3385,-1.1573,-0.2842,-0.4766,1.5450,rough,15.5,2,8.486
5110,163.52,-0.9960,8.3385,-1.1572,-0.2842,-0.4765,1.5450,rough,15.5,2,8.486
5120,163.84,-0.9962,8.3385,-1.1573,-0.2842,-0.4765,1.5449,rough,15.5,2,8.486
5130,164.16,-0.9964,8.3386,-1.1574,-0.2841,-0.4768,1.5445,rough,15.5,2,8.486
5140,164.48,-0.9963,8.3386,-1.1574,-0.2841,-0.4767,1.5446,rough,15.5,2,8.486
5150,164.80,-0.9967,8.3386,-1.1575,-0.2840,-0.4769,1.5440,rough,15.5,2,8.486
5160,165.12,-0.9965,8.3386,-1.1574,-0.2841,-0.4768,1.5444,rough,15.5,2,8.486
5170,165.44,-0.9965,8.3386,-1.1574,-0.2842,-0.4767,1.5445,rough,15.5,2,8.486
5180,165.76,-0.9960,8.3385,-1.1573,-0.2842,-0.4766,1.5450,rough,15.5,2,8.486
5190,166.08,-0.9963,8.3385,-1.1574,-0.2841,-0.4766,1.5447,rough,15.5,2,8.486
5200,166.40,-0.9962,8.3385,-1.1573,-0.2842,-0.4765,1.5449,rough,15.5,2,8.486
5210,166.72,-0.9964,8.3386,-1.1574,-0.2841,-0.4768,1.5445,rough,15.5,2,8.486
5220,167.04,-0.9964,8.3386,-1.1574,-0.2841,-0.4767,1.5446,rough,15.5,2,8.486
5230,167.36,-0.9960,8.3385,-1.1573,-0.2841,-0.4766,1.5449,rough,15.5,2,8.486
5240,167.68,-0.9965,8.3386,-1.1574,-0.2841,-0.4768,1.5444,rough,15.5,2,8.486
5250,168.00,-0.9965,8.3386,-1.1574,-0.2842,-0.4767,1.5445,rough,15.5,2,8.486
5260,168.32,-0.9965,8.3386,-1.1574,-0.2842,-0.4767,1.5445,rough,15.5,2,8.486
5270,168.64,-0.9963,8.3385,-1.1574,-0.2841,-0.4767,1.5445,rough,15.5,2,8.486
5280,168.96,-0.9962,8.3385,-1.1573,-0.2843,-0.4765,1.5450,rough,15.5,2,8.486
5290,169.28,-0.9964,8.3386,-1.1574,-0.2841,-0.4768,1.5445,rough,15.5,2,8.486
5300,169.60,-0.9961,8.3385,-1.1573,-0.2840,-0.4767,1.5446,rough,15.5,2,8.486
5310,169.92,-0.9960,8.3385,-1.1573,-0.2841,-0.4766,1.5450,rough,15.5,2,8.486
5320,170.24,-0.9966,8.3386,-1.1574,-0.2841,-0.4768,1.5444,rough,15.5,2,8.486
5330,170.56,-0.9965,8.3386,-1.1574,-0.2842,-0.4767,1.5445,rough,15.5,2,8.486
5340,170.88,-0.9964,8.3385,-1.1574,-0.2840,-0.4768,1.5444,rough,15.5,2,8.486
5350,171.20,-0.9963,8.3385,-1.1574,-0.2841,-0.4767,1.5446,rough,15.5,2,8.486
5360,171.52,-0.9962,8.3385,-1.1573,-0.2843,-0.4765,1.5450,rough,15.5,2,8.486
5370,171.84,-0.9962,8.3385,-1.1573,-0.2843,-0.4765,1.5450,rough,15.5,2,8.486
5380,172.16,-0.9965,8.3385,-1.1574,-0.2841,-0.4767,1.5444,rough,15.5,2,8.486
5390,172.48,-0.9960,8.3385,-1.1573,-0.2842,-0.4766,1.5450,rough,15.5,2,8.486
5400,172.80,-0.9966,8.3386,-1.1574,-0.2841,-0.4768,1.5444,rough,15.5,2,8.486
5410,173.12,-0.9965,8.3386,-1.1575,-0.2840,-0.4770,1.5441,rough,15.5,2,8.486
5420,173.44,-0.9964,8.3386,-1.1574,-0.2841,-0.4768,1.5445,rough,15.5,2,8.486
5430,173.76,-0.9963,8.3386,-1.1574,-0.2841,-0.4767,1.5446,rough,15.5,2,8.486
5440,174.08,-0.9962,8.3385,-1.1573,-0.2843,-0.4765,1.5450,rough,15.5,2,8.486
5450,174.40,-0.9966,8.3386,-1.1574,-0.2841,-0.4768,1.5442,rough,15.5,2,8.486
5460,174.72,-0.9965,8.3386,-1.1574,-0.2841,-0.4767,1.5445,rough,15.5,2,8.486
5470,175.04,-0.9960,8.3385,-1.1573,-0.2842,-0.4766,1.5450,rough,15.5,2,8.486
5480,175.36,-0.9960,8.3385,-1.1572,-0.2842,-0.4765,1.5450,rough,15.5,2,8.486
5490,175.68,-0.9962,8.3385,-1.1573,-0.2842,-0.4765,1.5449,rough,15.5,2,8.486
5500,176.00,-0.9964,8.3386,-1.1574,-0.2841,-0.4768,1.5445,rough,15.5,2,8.486
5510,176.32,-0.9963,8.3386,-1.1574,-0.2841,-0.4767,1.5446,rough,15.5,2,8.486
5520,176.64,-0.9967,8.3386,-1.1575,-0.2840,-0.4769,1.5440,rough,15.5,2,8.486
5530,176.96,-0.9965,8.3386,-1.1574,-0.2841,-0.4768,1.5444,rough,15.5,2,8.486
5540,177.28,-0.9965,8.3386,-1.1574,-0.2842,-0.4767,1.5445,rough,15.5,2,8.486
5550,177.60,-0.9960,8.3385,-1.1573,-0.2842,-0.4766,1.5450,rough,15.5,2,8.486
5560,177.92,-0.9960,8.3385,-1.1572,-0.2842,-0.4765,1.5450,rough,15.5,2,8.486
5570,178.24,-0.9962,8.3385,-1.1573,-0.2842,-0.4765,1.5449,rough,15.5,2,8.486
5580,178.56,-0.9964,8.3386,-1.1574,-0.2841,-0.4768,1.5445,rough,15.5,2,8.486
5590,178.88,-0.9963,8.3386,-1.1574,-0.2841,-0.4767,1.5446,rough,15.5,2,8.486
5600,179.20,-0.9967,8.3386,-1.1575,-0.2840,-0.4769,1.5440,rough,15.5,2,8.486
5610,179.52,-0.9965,8.3386,-1.1574,-0.2841,-0.4768,1.5444,rough,15.5,2,8.486
5620,179.84,-0.9965,8.3386,-1.1574,-0.2842,-0.4767,1.5445,rough,15.5,2,8.486
5630,180.16,-0.9960,8.3385,-1.1573,-0.2842,-0.4766,1.5450,rough,15.5,2,8.486
5640,180.48,-0.9963,8.3385,-1.1574,-0.2841,-0.4766,1.5447,rough,15.5,2,8.486
5650,180.80,-0.9962,8.3385,-1.1573,-0.2842,-0.4765,1.5449,rough,15.5,2,8.486
5660,181.12,-0.9964,8.3386,-1.1574,-0.2841,-0.4768,1.5445,rough,15.5,2,8.486
5670,181.44,-0.9964,8.3386,-1.1574,-0.2841,-0.4767,1.5446,rough,15.5,2,8.486
5680,181.76,-0.9967,8.3386,-1.1575,-0.2840,-0.4769,1.5440,rough,15.5,2,8.486
5690,182.08,-0.9965,8.3386,-1.1574,-0.2841,-0.4768,1.5443,rough,15.5,2,8.486
5700,182.40,-0.9965,8.3386,-1.1574,-0.2842,-0.4767,1.5445,rough,15.5,2,8.486
5710,182.72,-0.9960,8.3385,-1.1573,-0.2842,-0.4766,1.5450,rough,15.5,2,8.486
5720,183.04,-0.9963,8.3385,-1.1574,-0.2841,-0.4766,1.5447,rough,15.5,2,8.486
5730,183.36,-0.9962,8.3385,-1.1573,-0.2842,-0.4765,1.5449,rough,15.5,2,8.486
5740,183.68,-0.9964,8.3386,-1.1574,-0.2841,-0.4768,1.5445,rough,15.5,2,8.486
5750,184.00,-0.9964,8.3386,-1.1574,-0.2841,-0.4767,1.5446,rough,15.5,2,8.486
5760,184.32,-0.9960,8.3385,-1.1573,-0.2841,-0.4766,1.5449,rough,15.5,2,8.486
5770,184.64,-0.9965,8.3386,-1.1574,-0.2841,-0.4768,1.5444,rough,15.5,2,8.486
5780,184.96,-0.9965,8.3386,-1.1574,-0.2842,-0.4767,1.5445,rough,15.5,2,8.486
5790,185.28,-0.9965,8.3386,-1.1574,-0.2842,-0.4767,1.5445,rough,15.5,2,8.486
5800,185.60,-0.9963,8.3385,-1.1574,-0.2841,-0.4767,1.5445,rough,15.5,2,8.486
5810,185.92,-0.9962,8.3385,-1.1573,-0.2843,-0.4765,1.5450,rough,15.5,2,8.486
5820,186.24,-0.9964,8.3386,-1.1574,-0.2841,-0.4768,1.5445,rough,15.5,2,8.486
5830,186.56,-0.9961,8.3385,-1.1573,-0.2840,-0.4767,1.5446,rough,15.5,2,8.486
5840,186.88,-0.9960,8.3385,-1.1573,-0.2841,-0.4766,1.5450,rough,15.5,2,8.486
5850,187.20,-0.9966,8.3386,-1.1574,-0.2841,-0.4768,1.5444,rough,15.5,2,8.486
5860,187.52,-0.9965,8.3386,-1.1574,-0.2842,-0.4767,1.5445,rough,15.5,2,8.486
5870,187.84,-0.9964,8.3385,-1.1574,-0.2840,-0.4768,1.5444,rough,15.5,2,8.486
5880,188.16,-0.9963,8.3385,-1.1574,-0.2841,-0.4767,1.5446,rough,15.5,2,8.486
5890,188.48,-0.9962,8.3385,-1.1573,-0.2843,-0.4765,1.5450,rough,15.5,2,8.486
5900,188.80,-0.9962,8.3385,-1.1573,-0.2843,-0.4765,1.5450,rough,15.5,2,8.486
5910,189.12,-0.9965,8.3385,-1.1574,-0.2841,-0.4767,1.5444,rough,15.5,2,8.486
5920,189.44,-0.9960,8.3385,-1.1573,-0.2842,-0.4766,1.5450,rough,15.5,2,8.486
5930,189.76,-0.9966,8.3386,-1.1574,-0.2841,-0.4768,1.5444,rough,15.5,2,8.486
5940,190.08,-0.9965,8.3386,-1.1575,-0.2840,-0.4770,1.5441,rough,15.5,2,8.486
5950,190.40,-0.9964,8.3386,-1.1574,-0.2841,-0.4768,1.5445,rough,15.5,2,8.486
5960,190.72,-0.9963,8.3386,-1.1574,-0.2841,-0.4767,1.5446,rough,15.5,2,8.486
5970,191.04,-0.9962,8.3385,-1.1573,-0.2843,-0.4765,1.5450,rough,15.5,2,8.486
5980,191.36,-0.9966,8.3386,-1.1574,-0.2841,-0.4768,1.5442,rough,15.5,2,8.486
5990,191.68,-0.9965,8.3386,-1.1574,-0.2841,-0.4767,1.5445,rough,15.5,2,8.486
6000,192.00,-0.9960,8.3385,-1.1573,-0.2842,-0.4766,1.5450,rough,15.5,2,8.486
6010,192.32,-0.9960,8.3385,-1.1572,-0.2842,-0.4765,1.5450,rough,15.5,2,8.486
6020,192.64,-0.9962,8.3385,-1.1573,-0.2842,-0.4765,1.5449,rough,15.5,2,8.486
6030,192.96,-0.9964,8.3386,-1.1574,-0.2841,-0.4768,1.5445,rough,15.5,2,8.486
6040,193.28,-0.9963,8.3386,-1.1574,-0.2841,-0.4767,1.5446,rough,15.5,2,8.486
6050,193.60,-0.9963,8.3385,-1.1573,-0.2843,-0.4765,1.5449,rough,15.5,2,8.486
6060,193.92,-0.9966,8.3386,-1.1574,-0.2841,-0.4768,1.5442,rough,15.5,2,8.486
6070,194.24,-0.9965,8.3386,-1.1574,-0.2841,-0.4767,1.5445,rough,15.5,2,8.486
6080,194.56,-0.9960,8.3385,-1.1573,-0.2842,-0.4766,1.5450,rough,15.5,2,8.486
6090,194.88,-0.9960,8.3385,-1.1572,-0.2842,-0.4765,1.5450,rough,15.5,2,8.486
6100,195.20,-0.9962,8.3385,-1.1573,-0.2842,-0.4765,1.5449,rough,15.5,2,8.486
6110,195.52,-0.9964,8.3386,-1.1574,-0.2841,-0.4768,1.5445,rough,15.5,2,8.486
6120,195.84,-0.9963,8.3386,-1.1574,-0.2841,-0.4767,1.5446,rough,15.5,2,8.486
6130,196.16,-0.9967,8.3386,-1.1575,-0.2840,-0.4769,1.5440,rough,15.5,2,8.486
6140,196.48,-0.9965,8.3386,-1.1574,-0.2841,-0.4768,1.5444,rough,15.5,2,8.486
6150,196.80,-0.9965,8.3386,-1.1574,-0.2842,-0.4767,1.5445,rough,15.5,2,8.486
6160,197.12,-0.9960,8.3385,-1.1573,-0.2842,-0.4766,1.5450,rough,15.5,2,8.486
6170,197.44,-0.9960,8.3385,-1.1572,-0.2842,-0.4765,1.5450,rough,15.5,2,8.486
6180,197.76,-0.9962,8.3385,-1.1573,-0.2842,-0.4765,1.5449,rough,15.5,2,8.486
6190,198.08,-0.9964,8.3386,-1.1574,-0.2841,-0.4768,1.5445,rough,15.5,2,8.486
6200,198.40,-0.9963,8.3386,-1.1574,-0.2841,-0.4767,1.5446,rough,15.5,2,8.486
6210,198.72,-0.9967,8.3386,-1.1575,-0.2840,-0.4769,1.5440,rough,15.5,2,8.486
6220,199.04,-0.9965,8.3386,-1.1574,-0.2841,-0.4768,1.5444,rough,15.5,2,8.486
6230,199.36,-0.9965,8.3386,-1.1574,-0.2842,-0.4767,1.5445,rough,15.5,2,8.486
6240,199.68,-0.9960,8.3385,-1.1573,-0.2842,-0.4766,1.5450,rough,15.5,2,8.486
6250,200.00,-0.9963,8.3385,-1.1574,-0.2841,-0.4766,1.5447,rough,15.5,2,8.486
6260,200.32,-0.9962,8.3385,-1.1573,-0.2842,-0.4765,1.5449,rough,15.5,2,8.486
6270,200.64,-0.9964,8.3386,-1.1574,-0.2841,-0.4768,1.5445,rough,15.5,2,8.486
6280,200.96,-0.9964,8.3386,-1.1574,-0.2841,-0.4767,1.5446,rough,15.5,2,8.486
6290,201.28,-0.9960,8.3385,-1.1573,-0.2841,-0.4766,1.5449,rough,15.5,2,8.486
6300,201.60,-0.9965,8.3386,-1.1574,-0.2841,-0.4768,1.5444,rough,15.5,2,8.486
6310,201.92,-0.9965,8.3386,-1.1574,-0.2842,-0.4767,1.5445,rough,15.5,2,8.486
6320,202.24,-0.9965,8.3386,-1.1574,-0.2842,-0.4767,1.5445,rough,15.5,2,8.486
6330,202.56,-0.9963,8.3385,-1.1574,-0.2841,-0.4767,1.5445,rough,15.5,2,8.486
6340,202.88,-0.9962,8.3385,-1.1573,-0.2843,-0.4765,1.5450,rough,15.5,2,8.486
6350,203.20,-0.9964,8.3386,-1.1574,-0.2841,-0.4768,1.5445,rough,15.5,2,8.486
6360,203.52,-0.9961,8.3385,-1.1573,-0.2840,-0.4767,1.5446,rough,15.5,2,8.486
6370,203.84,-0.9960,8.3385,-1.1573,-0.2841,-0.4766,1.5450,rough,15.5,2,8.486
6380,204.16,-0.9966,8.3386,-1.1574,-0.2841,-0.4768,1.5444,rough,15.5,2,8.486
6390,204.48,-0.9965,8.3386,-1.1574,-0.2842,-0.4767,1.5445,rough,15.5,2,8.486
6400,204.80,-0.9964,8.3385,-1.1574,-0.2840,-0.4768,1.5444,rough,15.5,2,8.486
6410,205.12,-0.9963,8.3385,-1.1574,-0.2841,-0.4767,1.5446,rough,15.5,2,8.486
6420,205.44,-0.9962,8.3385,-1.1573,-0.2843,-0.4765,1.5450,rough,15.5,2,8.486
6430,205.76,-0.9962,8.3385,-1.1573,-0.2843,-0.4765,1.5450,rough,15.5,2,8.486
6440,206.08,-0.9965,8.3385,-1.1574,-0.2841,-0.4767,1.5444,rough,15.5,2,8.486
6450,206.40,-0.9960,8.3385,-1.1573,-0.2842,-0.4766,1.5450,rough,15.5,2,8.486
6460,206.72,-0.9966,8.3386,-1.1574,-0.2841,-0.4768,1.5444,rough,15.5,2,8.486
6470,207.04,-0.9965,8.3386,-1.1575,-0.2840,-0.4770,1.5441,rough,15.5,2,8.486
6480,207.36,-0.9964,8.3386,-1.1574,-0.2841,-0.4768,1.5445,rough,15.5,2,8.486
6490,207.68,-0.9963,8.3386,-1.1574,-0.2841,-0.4767,1.5446,rough,15.5,2,8.486
6500,208.00,-0.9962,8.3385,-1.1573,-0.2843,-0.4765,1.5450,rough,15.5,2,8.486
6510,208.32,-0.9966,8.3386,-1.1574,-0.2841,-0.4768,1.5442,rough,15.5,2,8.486
6520,208.64,-0.9965,8.3386,-1.1574,-0.2841,-0.4767,1.5445,rough,15.5,2,8.486
6530,208.96,-0.9960,8.3385,-1.1573,-0.2842,-0.4766,1.5450,rough,15.5,2,8.486
6540,209.28,-0.9966,8.3386,-1.1574,-0.2841,-0.4768,1.5444,rough,15.5,2,8.486
6550,209.60,-0.9965,8.3386,-1.1575,-0.2839,-0.4770,1.5441,rough,15.5,2,8.486
6560,209.92,-0.9964,8.3386,-1.1574,-0.2841,-0.4768,1.5445,rough,15.5,2,8.486
6570,210.24,-0.9963,8.3386,-1.1574,-0.2841,-0.4767,1.5446,rough,15.5,2,8.486
6580,210.56,-0.9962,8.3385,-1.1573,-0.2843,-0.4765,1.5450,rough,15.5,2,8.486
6590,210.88,-0.9966,8.3386,-1.1574,-0.2841,-0.4768,1.5442,rough,15.5,2,8.486
6600,211.20,-0.9965,8.3386,-1.1574,-0.2841,-0.4767,1.5445,rough,15.5,2,8.486
6610,211.52,-0.9960,8.3385,-1.1573,-0.2842,-0.4766,1.5450,rough,15.5,2,8.486
6620,211.84,-0.9960,8.3385,-1.1572,-0.2842,-0.4765,1.5450,rough,15.5,2,8.486
6630,212.16,-0.9962,8.3385,-1.1573,-0.2842,-0.4765,1.5449,rough,15.5,2,8.486
6640,212.48,-0.9964,8.3386,-1.1574,-0.2841,-0.4768,1.5445,rough,15.5,2,8.486
6650,212.80,-0.9963,8.3386,-1.1574,-0.2841,-0.4767,1.5446,rough,15.5,2,8.486
6660,213.12,-0.9967,8.3386,-1.1575,-0.2840,-0.4769,1.5440,rough,15.5,2,8.486
6670,213.44,-0.9965,8.3386,-1.1574,-0.2841,-0.4768,1.5444,rough,15.5,2,8.486
6680,213.76,-0.9965,8.3386,-1.1574,-0.2842,-0.4767,1.5445,rough,15.5,2,8.486
6690,214.08,-0.9960,8.3385,-1.1573,-0.2842,-0.4766,1.5450,rough,15.5,2,8.486
6700,214.40,-0.9963,8.3385,-1.1574,-0.2841,-0.4766,1.5447,rough,15.5,2,8.486
6710,214.72,-0.9962,8.3385,-1.1573,-0.2842,-0.4765,1.5449,rough,15.5,2,8.486
6720,215.04,-0.9964,8.3386,-1.1574,-0.2841,-0.4768,1.5445,rough,15.5,2,8.486
6730,215.36,-0.9964,8.3386,-1.1574,-0.2841,-0.4767,1.5446,rough,15.5,2,8.486
6740,215.68,-0.9960,8.3385,-1.1573,-0.2841,-0.4766,1.5449,rough,15.5,2,8.486
6750,216.00,-0.9965,8.3386,-1.1574,-0.2841,-0.4768,1.5444,rough,15.5,2,8.486
6760,216.32,-0.9965,8.3386,-1.1574,-0.2842,-0.4767,1.5445,rough,15.5,2,8.486
6770,216.64,-0.9965,8.3386,-1.1574,-0.2842,-0.4767,1.5445,rough,15.5,2,8.486
6780,216.96,-0.9963,8.3385,-1.1574,-0.2841,-0.4767,1.5445,rough,15.5,2,8.486
6790,217.28,-0.9962,8.3385,-1.1573,-0.2843,-0.4765,1.5450,rough,15.5,2,8.486
6800,217.60,-0.9964,8.3386,-1.1574,-0.2841,-0.4768,1.5445,rough,15.5,2,8.486
6810,217.92,-0.9961,8.3385,-1.1573,-0.2840,-0.4767,1.5446,rough,15.5,2,8.486
6820,218.24,-0.9960,8.3385,-1.1573,-0.2841,-0.4766,1.5450,rough,15.5,2,8.486
6830,218.56,-0.9966,8.3386,-1.1574,-0.2841,-0.4768,1.5444,rough,15.5,2,8.486
6840,218.88,-0.9965,8.3386,-1.1574,-0.2842,-0.4767,1.5445,rough,15.5,2,8.486
6850,219.20,-0.9964,8.3385,-1.1574,-0.2840,-0.4768,1.5444,rough,15.5,2,8.486
6860,219.52,-0.9963,8.3385,-1.1574,-0.2841,-0.4767,1.5446,rough,15.5,2,8.486
6870,219.84,-0.9962,8.3385,-1.1573,-0.2843,-0.4765,1.5450,rough,15.5,2,8.486
6880,220.16,-0.9962,8.3385,-1.1573,-0.2843,-0.4765,1.5450,rough,15.5,2,8.486
6890,220.48,-0.9965,8.3385,-1.1574,-0.2841,-0.4767,1.5444,rough,15.5,2,8.486
6900,220.80,-0.9960,8.3385,-1.1573,-0.2842,-0.4766,1.5450,rough,15.5,2,8.486
6910,221.12,-0.9966,8.3386,-1.1574,-0.2841,-0.4768,1.5444,rough,15.5,2,8.486
6920,221.44,-0.9965,8.3386,-1.1575,-0.2840,-0.4770,1.5441,rough,15.5,2,8.486
6930,221.76,-0.9964,8.3386,-1.1574,-0.2841,-0.4768,1.5445,rough,15.5,2,8.486
6940,222.08,-0.9963,8.3386,-1.1574,-0.2841,-0.4767,1.5446,rough,15.5,2,8.486
6950,222.40,-0.9962,8.3385,-1.1573,-0.2843,-0.4765,1.5450,rough,15.5,2,8.486
6960,222.72,-0.9966,8.3386,-1.1574,-0.2841,-0.4768,1.5442,rough,15.5,2,8.486
6970,223.04,-0.9965,8.3386,-1.1574,-0.2841,-0.4767,1.5445,rough,15.5,2,8.486
6980,223.36,-0.9960,8.3385,-1.1573,-0.2842,-0.4766,1.5450,rough,15.5,2,8.486
6990,223.68,-0.9960,8.3385,-1.1572,-0.2842,-0.4765,1.5450,rough,15.5,2,8.486
7000,224.00,-0.9962,8.3385,-1.1573,-0.2842,-0.4765,1.5449,rough,15.5,2,8.486
7010,224.32,-0.9964,8.3386,-1.1574,-0.2841,-0.4768,1.5445,rough,15.5,2,8.486
7020,224.64,-0.9963,8.3386,-1.1574,-0.2841,-0.4767,1.5446,rough,15.5,2,8.486
7030,224.96,-0.9967,8.3386,-1.1575,-0.2840,-0.4769,1.5440,rough,15.5,2,8.486
7040,225.28,-0.9965,8.3386,-1.1574,-0.2841,-0.4768,1.5444,rough,15.5,2,8.486
7050,225.60,-0.9965,8.3386,-1.1574,-0.2842,-0.4767,1.5445,rough,15.5,2,8.486
7060,225.92,-0.9960,8.3385,-1.1573,-0.2842,-0.4766,1.5450,rough,15.5,2,8.486
7070,226.24,-0.9963,8.3385,-1.1574,-0.2841,-0.4766,1.5447,rough,15.5,2,8.486
7080,226.56,-0.9962,8.3385,-1.1573,-0.2842,-0.4765,1.5449,rough,15.5,2,8.486
7090,226.88,-0.9964,8.3386,-1.1574,-0.2841,-0.4768,1.5445,rough,15.5,2,8.486
7100,227.20,-0.9964,8.3386,-1.1574,-0.2841,-0.4767,1.5446,rough,15.5,2,8.486
7110,227.52,-0.9960,8.3385,-1.1573,-0.2841,-0.4766,1.5449,rough,15.5,2,8.486
7120,227.84,-0.9965,8.3386,-1.1574,-0.2841,-0.4768,1.5444,rough,15.5,2,8.486
7130,228.16,-0.9965,8.3386,-1.1574,-0.2842,-0.4767,1.5445,rough,15.5,2,8.486
7140,228.48,-0.9965,8.3386,-1.1574,-0.2842,-0.4767,1.5445,rough,15.5,2,8.486
7150,228.80,-0.9963,8.3385,-1.1574,-0.2841,-0.4767,1.5445,rough,15.5,2,8.486
7160,229.12,-0.9962,8.3385,-1.1573,-0.2843,-0.4765,1.5450,rough,15.5,2,8.486
7170,229.44,-0.9964,8.3386,-1.1574,-0.2841,-0.4768,1.5445,rough,15.5,2,8.486
7180,229.76,-0.9961,8.3385,-1.1573,-0.2840,-0.4767,1.5446,rough,15.5,2,8.486
7190,230.08,-0.9960,8.3385,-1.1573,-0.2841,-0.4766,1.5450,rough,15.5,2,8.486
7200,230.40,-0.9966,8.3386,-1.1574,-0.2841,-0.4768,1.5444,rough,15.5,2,8.486
7210,230.72,-0.9965,8.3386,-1.1574,-0.2842,-0.4767,1.5445,rough,15.5,2,8.486
7220,231.04,-0.9964,8.3385,-1.1574,-0.2840,-0.4768,1.5444,rough,15.5,2,8.486
7230,231.36,-0.9963,8.3385,-1.1574,-0.2841,-0.4767,1.5446,rough,15.5,2,8.486
7240,231.68,-0.9962,8.3385,-1.1573,-0.2843,-0.4765,1.5450,rough,15.5,2,8.486
7250,232.00,-0.9962,8.3385,-1.1573,-0.2843,-0.4765,1.5450,rough,15.5,2,8.486
7260,232.32,-0.9965,8.3385,-1.1574,-0.2841,-0.4767,1.5444,rough,15.5,2,8.486
7270,232.64,-0.9960,8.3385,-1.1573,-0.2842,-0.4766,1.5450,rough,15.5,2,8.486
7280,232.96,-0.9966,8.3386,-1.1574,-0.2841,-0.4768,1.5444,rough,15.5,2,8.486
7290,233.28,-0.9965,8.3386,-1.1575,-0.2840,-0.4770,1.5441,rough,15.5,2,8.486
7300,233.60,-0.9964,8.3386,-1.1574,-0.2841,-0.4768,1.5445,rough,15.5,2,8.486
7310,233.92,-0.9963,8.3386,-1.1574,-0.2841,-0.4767,1.5446,rough,15.5,2,8.486
7320,234.24,-0.9962,8.3385,-1.1573,-0.2843,-0.4765,1.5450,rough,15.5,2,8.486
7330,234.56,-0.9966,8.3386,-1.1574,-0.2841,-0.4768,1.5442,rough,15.5,2,8.486
7340,234.88,-0.9965,8.3386,-1.1574,-0.2841,-0.4767,1.5445,rough,15.5,2,8.486
7350,235.20,-0.9960,8.3385,-1.1573,-0.2842,-0.4766,1.5450,rough,15.5,2,8.486
7360,235.52,-0.9960,8.3385,-1.1572,-0.2842,-0.4765,1.5450,rough,15.5,2,8.486
7370,235.84,-0.9962,8.3385,-1.1573,-0.2842,-0.4765,1.5449,rough,15.5,2,8.486
7380,236.16,-0.9964,8.3386,-1.1574,-0.2841,-0.4768,1.5445,rough,15.5,2,8.486
7390,236.48,-0.9963,8.3386,-1.1574,-0.2841,-0.4767,1.5446,rough,15.5,2,8.486
7400,236.80,-0.9967,8.3386,-1.1575,-0.2840,-0.4769,1.5440,rough,15.5,2,8.486
7410,237.12,-0.9965,8.3386,-1.1574,-0.2841,-0.4768,1.5444,rough,15.5,2,8.486
7420,237.44,-0.9965,8.3386,-1.1574,-0.2842,-0.4767,1.5445,rough,15.5,2,8.486
7430,237.76,-0.9960,8.3385,-1.1573,-0.2842,-0.4766,1.5450,rough,15.5,2,8.486
7440,238.08,-0.9960,8.3385,-1.1572,-0.2842,-0.4765,1.5450,rough,15.5,2,8.486
7450,238.40,-0.9962,8.3385,-1.1573,-0.2842,-0.4765,1.5449,rough,15.5,2,8.486
7460,238.72,-0.9964,8.3386,-1.1574,-0.2841,-0.4768,1.5445,rough,15.5,2,8.486
7470,239.04,-0.9963,8.3386,-1.1574,-0.2841,-0.4767,1.5446,rough,15.5,2,8.486
7480,239.36,-0.9967,8.3386,-1.1575,-0.2840,-0.4769,1.5440,rough,15.5,2,8.486
7490,239.68,-0.9965,8.3386,-1.1574,-0.2841,-0.4768,1.5444,rough,15.5,2,8.486
7500,240.00,-0.9965,8.3386,-1.1574,-0.2842,-0.4767,1.5445,rough,15.5,2,8.486
7510,240.32,-0.9960,8.3385,-1.1573,-0.2842,-0.4766,1.5450,rough,15.5,2,8.486
7520,240.64,-0.9963,8.3385,-1.1574,-0.2841,-0.4766,1.5447,rough,15.5,2,8.486
7530,240.96,-0.9962,8.3385,-1.1573,-0.2842,-0.4765,1.5449,rough,15.5,2,8.486
7540,241.28,-0.9964,8.3386,-1.1574,-0.2841,-0.4768,1.5445,rough,15.5,2,8.486
7550,241.60,-0.9964,8.3386,-1.1574,-0.2841,-0.4767,1.5446,rough,15.5,2,8.486
7560,241.92,-0.9960,8.3385,-1.1573,-0.2841,-0.4766,1.5449,rough,15.5,2,8.486
7570,242.24,-0.9965,8.3386,-1.1574,-0.2841,-0.4768,1.5444,rough,15.5,2,8.486
7580,242.56,-0.9965,8.3386,-1.1574,-0.2842,-0.4767,1.5445,rough,15.5,2,8.486
7590,242.88,-0.9965,8.3386,-1.1574,-0.2842,-0.4767,1.5445,rough,15.5,2,8.486
7600,243.20,-0.9963,8.3385,-1.1574,-0.2841,-0.4767,1.5445,rough,15.5,2,8.486
7610,243.52,-0.9962,8.3385,-1.1573,-0.2843,-0.4765,1.5450,rough,15.5,2,8.486
7620,243.84,-0.9964,8.3386,-1.1574,-0.2841,-0.4768,1.5445,rough,15.5,2,8.486
7630,244.16,-0.9961,8.3385,-1.1573,-0.2840,-0.4767,1.5446,rough,15.5,2,8.486
7640,244.48,-0.9960,8.3385,-1.1573,-0.2841,-0.4766,1.5450,rough,15.5,2,8.486
7650,244.80,-0.9966,8.3386,-1.1574,-0.2841,-0.4768,1.5444,rough,15.5,2,8.486
7660,245.12,-0.9965,8.3386,-1.1574,-0.2842,-0.4767,1.5445,rough,15.5,2,8.486
7670,245.44,-0.9964,8.3385,-1.1574,-0.2840,-0.4768,1.5444,rough,15.5,2,8.486
7680,245.76,-0.9963,8.3385,-1.1574,-0.2841,-0.4767,1.5446,rough,15.5,2,8.486
7690,246.08,-0.9962,8.3385,-1.1573,-0.2843,-0.4765,1.5450,rough,15.5,2,8.486
7700,246.40,-0.9962,8.3385,-1.1573,-0.2843,-0.4765,1.5450,rough,15.5,2,8.486
7710,246.72,-0.9965,8.3385,-1.1574,-0.2841,-0.4767,1.5444,rough,15.5,2,8.486
7720,247.04,-0.9960,8.3385,-1.1573,-0.2842,-0.4766,1.5450,rough,15.5,2,8.486
7730,247.36,-0.9966,8.3386,-1.1574,-0.2841,-0.4768,1.5444,rough,15.5,2,8.486
7740,247.68,-0.9965,8.3386,-1.1575,-0.2840,-0.4770,1.5441,rough,15.5,2,8.486
7750,248.00,-0.9964,8.3386,-1.1574,-0.2841,-0.4768,1.5445,rough,15.5,2,8.486
7760,248.32,-0.9963,8.3386,-1.1574,-0.2841,-0.4767,1.5446,rough,15.5,2,8.486
7770,248.64,-0.9962,8.3385,-1.1573,-0.2843,-0.4765,1.5450,rough,15.5,2,8.486
7780,248.96,-0.9966,8.3386,-1.1574,-0.2841,-0.4768,1.5442,rough,15.5,2,8.486
7790,249.28,-0.9965,8.3386,-1.1574,-0.2841,-0.4767,1.5445,rough,15.5,2,8.486
7800,249.60,-0.9960,8.3385,-1.1573,-0.2842,-0.4766,1.5450,rough,15.5,2,8.486
7810,249.92,-0.9966,8.3386,-1.1574,-0.2841,-0.4768,1.5444,rough,15.5,2,8.486
7820,250.24,-0.9965,8.3386,-1.1575,-0.2839,-0.4770,1.5441,rough,15.5,2,8.486
7830,250.56,-0.9964,8.3386,-1.1574,-0.2841,-0.4768,1.5445,rough,15.5,2,8.486
7840,250.88,-0.9963,8.3386,-1.1574,-0.2841,-0.4767,1.5446,rough,15.5,2,8.486
7850,251.20,-0.9962,8.3385,-1.1573,-0.2843,-0.4765,1.5450,rough,15.5,2,8.486
