step,time_s,x,y,z,roll,pitch,yaw,terrain,speed,target_idx,dist_to_target
10,0.32,2.2030,0.4962,0.3144,0.0789,-0.0690,0.2255,rough,15.5,0,6.224
20,0.64,2.7480,0.6758,0.1903,-0.0274,0.3696,0.2876,rough,15.5,0,5.651
30,0.96,3.2140,0.8315,-0.0058,0.0289,0.3316,0.3342,rough,15.5,0,5.162
40,1.28,3.6263,1.0013,-0.0966,-0.0959,0.1322,0.3443,rough,15.5,0,4.722
50,1.60,4.1193,1.2136,-0.2055,-0.2148,0.3821,0.3432,rough,15.5,0,4.195
60,1.92,4.6203,1.4659,-0.4547,-0.0275,0.7089,0.4225,rough,15.5,0,3.658
70,2.24,4.9912,1.7530,-0.6226,-0.1845,0.0372,0.5140,rough,15.5,0,3.254
80,2.56,5.4210,1.9840,-0.6384,-0.0621,0.0802,0.4611,rough,15.5,0,2.813
90,2.88,5.9531,2.2690,-0.8894,0.1161,0.5940,0.5418,rough,15.5,0,2.292
100,3.20,6.3375,2.4673,-1.1479,0.0987,0.5437,0.4400,rough,15.5,0,1.945
110,3.52,6.6983,2.6147,-1.2781,-0.0158,0.1831,0.2916,rough,15.5,0,1.641
120,3.84,7.1909,2.7425,-1.4101,-0.1175,0.4237,0.1886,rough,15.5,0,1.260
130,4.16,7.6039,2.8183,-1.5324,-0.2041,0.1596,0.0484,rough,15.5,0,1.005
140,4.48,7.9304,2.8508,-1.5336,-0.2094,-0.3001,-0.1456,rough,15.5,0,0.871
150,4.80,8.2160,2.8043,-1.4665,-0.0675,-0.1372,-0.0412,rough,15.5,1,4.725
160,5.12,8.3830,2.8577,-1.4371,-0.1438,-0.2714,0.2225,rough,15.5,1,4.824
170,5.44,8.6542,2.9660,-1.4203,0.0743,-0.2368,0.6241,rough,15.5,1,4.983
180,5.76,8.7491,3.0601,-1.3476,0.0958,-0.6356,0.8833,rough,15.5,1,5.011
190,6.08,8.7842,3.2483,-1.2821,-0.2481,-0.6389,1.1348,rough,15.5,1,4.942
200,6.40,8.8133,3.3484,-1.1819,-0.3613,-0.8348,1.4180,rough,15.5,1,4.918
210,6.72,8.7870,3.4813,-1.1152,-0.5405,-0.6337,1.5838,rough,15.5,1,4.831
220,7.04,8.6708,3.6783,-1.0952,-0.6437,-0.2854,1.9143,rough,15.5,1,4.638
230,7.36,8.4578,3.9468,-1.0548,-0.7959,-0.2577,2.1843,rough,15.5,1,4.330
240,7.68,8.1743,4.1987,-0.9827,-0.7863,-0.2758,2.4072,rough,15.5,1,3.969
250,8.00,7.9436,4.3593,-0.9343,-0.8172,-0.1753,2.5704,rough,15.5,1,3.694
260,8.32,7.9280,4.3884,-0.9102,-0.8373,-0.0729,2.6762,rough,15.5,1,3.669
270,8.64,7.9116,4.4116,-0.8912,-0.8335,0.0253,2.7380,rough,15.5,1,3.645
280,8.96,7.9088,4.4163,-0.8885,-0.8311,0.0410,2.7526,rough,15.5,1,3.640
290,9.28,7.9106,4.4143,-0.8886,-0.8527,0.0233,2.7686,rough,15.5,1,3.643
300,9.60,7.9134,4.4127,-0.8911,-0.8540,0.0088,2.7683,rough,15.5,1,3.646
310,9.92,7.9109,4.4139,-0.8889,-0.8537,0.0219,2.7681,rough,15.5,1,3.643
320,10.24,7.9153,4.4169,-0.8925,-0.8551,-0.0036,2.7994,rough,15.5,1,3.646
330,10.56,7.9111,4.4139,-0.8892,-0.8538,0.0211,2.7694,rough,15.5,1,3.643
340,10.88,7.9095,4.4153,-0.8878,-0.8535,0.0290,2.7732,rough,15.5,1,3.641
350,11.20,7.9111,4.4142,-0.8894,-0.8538,0.0204,2.7726,rough,15.5,1,3.643
360,11.52,7.9104,4.4142,-0.8887,-0.8543,0.0243,2.7704,rough,15.5,1,3.643
370,11.84,7.9133,4.4124,-0.8914,-0.8556,0.0090,2.7707,rough,15.5,1,3.646
380,12.16,7.9105,4.4140,-0.8890,-0.8543,0.0238,2.7707,rough,15.5,1,3.643
390,12.48,7.9132,4.4145,-0.8913,-0.8553,0.0083,2.7837,rough,15.5,1,3.645
400,12.80,7.9106,4.4139,-0.8892,-0.8541,0.0233,2.7714,rough,15.5,1,3.643
410,13.12,7.9092,4.4151,-0.8881,-0.8535,0.0302,2.7744,rough,15.5,1,3.641
420,13.44,7.9106,4.4142,-0.8894,-0.8535,0.0231,2.7733,rough,15.5,1,3.643
430,13.76,7.9100,4.4141,-0.8889,-0.8540,0.0263,2.7718,rough,15.5,1,3.642
440,14.08,7.9125,4.4126,-0.8911,-0.8551,0.0133,2.7717,rough,15.5,1,3.645
450,14.40,7.9110,4.4129,-0.8898,-0.8547,0.0217,2.7687,rough,15.5,1,3.644
460,14.72,7.9132,4.4142,-0.8917,-0.8554,0.0087,2.7843,rough,15.5,1,3.645
470,15.04,7.9106,4.4135,-0.8896,-0.8542,0.0234,2.7718,rough,15.5,1,3.643
480,15.36,7.9153,4.4160,-0.8935,-0.8558,-0.0033,2.8014,rough,15.5,1,3.647
490,15.68,7.9111,4.4129,-0.8902,-0.8542,0.0213,2.7705,rough,15.5,1,3.644
500,16.00,7.9091,4.4148,-0.8885,-0.8536,0.0312,2.7759,rough,15.5,1,3.641
510,16.32,7.9108,4.4135,-0.8900,-0.8538,0.0231,2.7738,rough,15.5,1,3.643
520,16.64,7.9104,4.4133,-0.8896,-0.8544,0.0253,2.7716,rough,15.5,1,3.643
530,16.96,7.9124,4.4133,-0.8914,-0.8554,0.0141,2.7794,rough,15.5,1,3.645
540,17.28,7.9106,4.4131,-0.8899,-0.8546,0.0244,2.7722,rough,15.5,1,3.643
550,17.60,7.9090,4.4147,-0.8886,-0.8541,0.0320,2.7772,rough,15.5,1,3.641
560,17.92,7.9113,4.4132,-0.8893,-0.8521,0.0281,2.7711,rough,15.5,1,3.644
570,18.24,7.9098,4.4148,-0.8882,-0.8521,0.0348,2.7771,rough,15.5,1,3.642
580,18.56,7.9125,4.4126,-0.8905,-0.8547,0.0208,2.7746,rough,15.5,1,3.645
590,18.88,7.9112,4.4131,-0.8894,-0.8544,0.0275,2.7744,rough,15.5,1,3.644
600,19.20,7.9100,4.4144,-0.8884,-0.8544,0.0334,2.7790,rough,15.5,1,3.642
610,19.52,7.9130,4.4121,-0.8898,-0.8529,0.0256,2.7707,rough,15.5,1,3.646
620,19.84,7.9113,4.4140,-0.8884,-0.8526,0.0338,2.7776,rough,15.5,1,3.644
630,20.16,7.9111,4.4141,-0.8883,-0.8543,0.0340,2.7800,rough,15.5,1,3.643
640,20.48,7.9111,4.4141,-0.8882,-0.8549,0.0345,2.7802,rough,15.5,1,3.643
650,20.80,7.9111,4.4141,-0.8882,-0.8552,0.0346,2.7802,rough,15.5,1,3.643
660,21.12,7.9111,4.4141,-0.8882,-0.8553,0.0347,2.7803,rough,15.5,1,3.643
670,21.44,7.9112,4.4141,-0.8882,-0.8554,0.0347,2.7803,rough,15.5,1,3.644
680,21.76,7.9112,4.4141,-0.8882,-0.8555,0.0347,2.7803,rough,15.5,1,3.644
690,22.08,7.9113,4.4141,-0.8882,-0.8555,0.0347,2.7803,rough,15.5,1,3.644
700,22.40,7.9113,4.4140,-0.8882,-0.8555,0.0347,2.7803,rough,15.5,1,3.644
710,22.72,7.9113,4.4140,-0.8882,-0.8555,0.0347,2.7803,rough,15.5,1,3.644
720,23.04,7.9114,4.4140,-0.8882,-0.8555,0.0347,2.7803,rough,15.5,1,3.644
730,23.36,7.9114,4.4140,-0.8882,-0.8555,0.0347,2.7803,rough,15.5,1,3.644
740,23.68,7.9114,4.4140,-0.8882,-0.8555,0.0347,2.7803,rough,15.5,1,3.644
750,24.00,7.9115,4.4140,-0.8882,-0.8555,0.0347,2.7803,rough,15.5,1,3.644
760,24.32,7.9115,4.4139,-0.8882,-0.8555,0.0347,2.7803,rough,15.5,1,3.644
770,24.64,7.9116,4.4139,-0.8882,-0.8555,0.0347,2.7804,rough,15.5,1,3.644
780,24.96,7.9116,4.4139,-0.8882,-0.8555,0.0347,2.7804,rough,15.5,1,3.644
790,25.28,7.9116,4.4139,-0.8882,-0.8555,0.0346,2.7804,rough,15.5,1,3.644
800,25.60,7.9117,4.4139,-0.8882,-0.8555,0.0346,2.7804,rough,15.5,1,3.644
810,25.92,7.9117,4.4138,-0.8882,-0.8555,0.0346,2.7804,rough,15.5,1,3.644
820,26.24,7.9118,4.4138,-0.8882,-0.8555,0.0346,2.7804,rough,15.5,1,3.644
830,26.56,7.9118,4.4138,-0.8882,-0.8555,0.0346,2.7804,rough,15.5,1,3.644
840,26.88,7.9118,4.4138,-0.8883,-0.8555,0.0346,2.7804,rough,15.5,1,3.644
850,27.20,7.9119,4.4138,-0.8883,-0.8555,0.0346,2.7804,rough,15.5,1,3.644
860,27.52,7.9119,4.4137,-0.8883,-0.8555,0.0346,2.7804,rough,15.5,1,3.644
870,27.84,7.9120,4.4137,-0.8883,-0.8555,0.0346,2.7804,rough,15.5,1,3.644
880,28.16,7.9120,4.4137,-0.8883,-0.8555,0.0346,2.7805,rough,15.5,1,3.644
890,28.48,7.9120,4.4137,-0.8883,-0.8555,0.0346,2.7805,rough,15.5,1,3.644
900,28.80,7.9121,4.4137,-0.8883,-0.8555,0.0346,2.7805,rough,15.5,1,3.645
910,29.12,7.9121,4.4136,-0.8883,-0.8555,0.0346,2.7805,rough,15.5,1,3.645
920,29.44,7.9122,4.4136,-0.8883,-0.8555,0.0345,2.7805,rough,15.5,1,3.645
930,29.76,7.9122,4.4136,-0.8883,-0.8555,0.0345,2.7805,rough,15.5,1,3.645
940,30.08,7.9122,4.4136,-0.8883,-0.8555,0.0345,2.7805,rough,15.5,1,3.645
950,30.40,7.9123,4.4136,-0.8883,-0.8555,0.0345,2.7805,rough,15.5,1,3.645
960,30.72,7.9123,4.4135,-0.8883,-0.8555,0.0345,2.7805,rough,15.5,1,3.645
970,31.04,7.9124,4.4135,-0.8883,-0.8555,0.0345,2.7805,rough,15.5,1,3.645
980,31.36,7.9124,4.4135,-0.8883,-0.8555,0.0345,2.7805,rough,15.5,1,3.645
990,31.68,7.9124,4.4135,-0.8883,-0.8555,0.0345,2.7806,rough,15.5,1,3.645
1000,32.00,7.9125,4.4135,-0.8883,-0.8555,0.0345,2.7806,rough,15.5,1,3.645
1010,32.32,7.9125,4.4134,-0.8883,-0.8555,0.0345,2.7806,rough,15.5,1,3.645
1020,32.64,7.9125,4.4134,-0.8883,-0.8555,0.0345,2.7806,rough,15.5,1,3.645
1030,32.96,7.9126,4.4134,-0.8884,-0.8555,0.0345,2.7806,rough,15.5,1,3.645
1040,33.28,7.9126,4.4134,-0.8884,-0.8555,0.0345,2.7806,rough,15.5,1,3.645
1050,33.60,7.9126,4.4134,-0.8884,-0.8555,0.0345,2.7806,rough,15.5,1,3.645
1060,33.92,7.9127,4.4133,-0.8884,-0.8555,0.0344,2.7806,rough,15.5,1,3.645
1070,34.24,7.9127,4.4133,-0.8884,-0.8555,0.0344,2.7806,rough,15.5,1,3.645
1080,34.56,7.9128,4.4133,-0.8884,-0.8555,0.0344,2.7806,rough,15.5,1,3.645
1090,34.88,7.9128,4.4133,-0.8884,-0.8555,0.0344,2.7806,rough,15.5,1,3.645
1100,35.20,7.9128,4.4133,-0.8884,-0.8555,0.0344,2.7806,rough,15.5,1,3.645
1110,35.52,7.9129,4.4132,-0.8884,-0.8555,0.0344,2.7807,rough,15.5,1,3.645
1120,35.84,7.9129,4.4132,-0.8884,-0.8555,0.0344,2.7807,rough,15.5,1,3.645
1130,36.16,7.9129,4.4132,-0.8884,-0.8555,0.0344,2.7807,rough,15.5,1,3.645
1140,36.48,7.9130,4.4132,-0.8884,-0.8555,0.0344,2.7807,rough,15.5,1,3.645
1150,36.80,7.9130,4.4132,-0.8884,-0.8555,0.0344,2.7807,rough,15.5,1,3.646
1160,37.12,7.9130,4.4131,-0.8884,-0.8555,0.0344,2.7807,rough,15.5,1,3.646
1170,37.44,7.9131,4.4131,-0.8884,-0.8555,0.0344,2.7807,rough,15.5,1,3.646
1180,37.76,7.9131,4.4131,-0.8885,-0.8555,0.0344,2.7807,rough,15.5,1,3.646
1190,38.08,7.9131,4.4131,-0.8885,-0.8555,0.0344,2.7807,rough,15.5,1,3.646
1200,38.40,7.9132,4.4131,-0.8885,-0.8555,0.0343,2.7807,rough,15.5,1,3.646
1210,38.72,7.9132,4.4130,-0.8885,-0.8555,0.0343,2.7807,rough,15.5,1,3.646
1220,39.04,7.9132,4.4130,-0.8885,-0.8555,0.0343,2.7807,rough,15.5,1,3.646
1230,39.36,7.9133,4.4130,-0.8885,-0.8555,0.0343,2.7807,rough,15.5,1,3.646
1240,39.68,7.9133,4.4130,-0.8885,-0.8555,0.0343,2.7808,rough,15.5,1,3.646
1250,40.00,7.9133,4.4130,-0.8885,-0.8555,0.0343,2.7808,rough,15.5,1,3.646
1260,40.32,7.9134,4.4129,-0.8885,-0.8555,0.0343,2.7808,rough,15.5,1,3.646
1270,40.64,7.9134,4.4129,-0.8885,-0.8555,0.0343,2.7808,rough,15.5,1,3.646
1280,40.96,7.9134,4.4129,-0.8885,-0.8555,0.0343,2.7808,rough,15.5,1,3.646
1290,41.28,7.9135,4.4129,-0.8885,-0.8555,0.0343,2.7808,rough,15.5,1,3.646
1300,41.60,7.9135,4.4129,-0.8886,-0.8555,0.0343,2.7808,rough,15.5,1,3.646
1310,41.92,7.9135,4.4128,-0.8886,-0.8555,0.0343,2.7808,rough,15.5,1,3.646
1320,42.24,7.9135,4.4128,-0.8886,-0.8555,0.0343,2.7808,rough,15.5,1,3.646
1330,42.56,7.9136,4.4128,-0.8886,-0.8555,0.0343,2.7808,rough,15.5,1,3.646
1340,42.88,7.9136,4.4128,-0.8886,-0.8555,0.0343,2.7808,rough,15.5,1,3.646
1350,43.20,7.9136,4.4128,-0.8886,-0.8555,0.0342,2.7808,rough,15.5,1,3.646
1360,43.52,7.9137,4.4127,-0.8886,-0.8555,0.0342,2.7809,rough,15.5,1,3.646
1370,43.84,7.9137,4.4127,-0.8886,-0.8555,0.0342,2.7809,rough,15.5,1,3.646
1380,44.16,7.9137,4.4127,-0.8886,-0.8555,0.0342,2.7809,rough,15.5,1,3.646
1390,44.48,7.9138,4.4127,-0.8886,-0.8555,0.0342,2.7809,rough,15.5,1,3.646
1400,44.80,7.9138,4.4127,-0.8886,-0.8555,0.0342,2.7809,rough,15.5,1,3.646
1410,45.12,7.9138,4.4126,-0.8886,-0.8555,0.0342,2.7809,rough,15.5,1,3.647
1420,45.44,7.9139,4.4126,-0.8887,-0.8555,0.0342,2.7809,rough,15.5,1,3.647
1430,45.76,7.9139,4.4126,-0.8887,-0.8555,0.0342,2.7809,rough,15.5,1,3.647
1440,46.08,7.9139,4.4126,-0.8887,-0.8555,0.0342,2.7809,rough,15.5,1,3.647
1450,46.40,7.9139,4.4126,-0.8887,-0.8555,0.0342,2.7809,rough,15.5,1,3.647
1460,46.72,7.9140,4.4125,-0.8887,-0.8555,0.0342,2.7809,rough,15.5,1,3.647
1470,47.04,7.9140,4.4125,-0.8887,-0.8555,0.0342,2.7809,rough,15.5,1,3.647
1480,47.36,7.9140,4.4125,-0.8887,-0.8555,0.0342,2.7809,rough,15.5,1,3.647
1490,47.68,7.9141,4.4125,-0.8887,-0.8555,0.0342,2.7810,rough,15.5,1,3.647
1500,48.00,7.9141,4.4125,-0.8887,-0.8555,0.0342,2.7810,rough,15.5,1,3.647
1510,48.32,7.9141,4.4124,-0.8887,-0.8555,0.0341,2.7810,rough,15.5,1,3.647
1520,48.64,7.9142,4.4124,-0.8887,-0.8555,0.0341,2.7810,rough,15.5,1,3.647
1530,48.96,7.9142,4.4124,-0.8888,-0.8555,0.0341,2.7810,rough,15.5,1,3.647
1540,49.28,7.9142,4.4124,-0.8888,-0.8555,0.0341,2.7810,rough,15.5,1,3.647
1550,49.60,7.9142,4.4123,-0.8888,-0.8555,0.0341,2.7810,rough,15.5,1,3.647
1560,49.92,7.9143,4.4123,-0.8888,-0.8555,0.0341,2.7810,rough,15.5,1,3.647
1570,50.24,7.9143,4.4123,-0.8888,-0.8555,0.0341,2.7810,rough,15.5,1,3.647
1580,50.56,7.9143,4.4123,-0.8888,-0.8555,0.0341,2.7810,rough,15.5,1,3.647
1590,50.88,7.9144,4.4123,-0.8888,-0.8555,0.0341,2.7810,rough,15.5,1,3.647
1600,51.20,7.9144,4.4122,-0.8888,-0.8555,0.0341,2.7810,rough,15.5,1,3.647
1610,51.52,7.9144,4.4122,-0.8888,-0.8555,0.0341,2.7810,rough,15.5,1,3.647
1620,51.84,7.9144,4.4122,-0.8888,-0.8555,0.0341,2.7810,rough,15.5,1,3.647
1630,52.16,7.9145,4.4122,-0.8889,-0.8555,0.0341,2.7811,rough,15.5,1,3.647
1640,52.48,7.9145,4.4122,-0.8889,-0.8555,0.0341,2.7811,rough,15.5,1,3.647
1650,52.80,7.9145,4.4121,-0.8889,-0.8555,0.0341,2.7811,rough,15.5,1,3.647
1660,53.12,7.9145,4.4121,-0.8889,-0.8555,0.0341,2.7811,rough,15.5,1,3.647
1670,53.44,7.9146,4.4121,-0.8889,-0.8555,0.0340,2.7811,rough,15.5,1,3.647
1680,53.76,7.9146,4.4121,-0.8889,-0.8555,0.0340,2.7811,rough,15.5,1,3.647
1690,54.08,7.9146,4.4121,-0.8889,-0.8555,0.0340,2.7811,rough,15.5,1,3.647
1700,54.40,7.9147,4.4120,-0.8889,-0.8555,0.0340,2.7811,rough,15.5,1,3.647
1710,54.72,7.9147,4.4120,-0.8889,-0.8555,0.0340,2.7811,rough,15.5,1,3.648
1720,55.04,7.9147,4.4120,-0.8890,-0.8555,0.0340,2.7811,rough,15.5,1,3.648
1730,55.36,7.9147,4.4120,-0.8890,-0.8555,0.0340,2.7811,rough,15.5,1,3.648
1740,55.68,7.9148,4.4120,-0.8890,-0.8555,0.0340,2.7811,rough,15.5,1,3.648
1750,56.00,7.9148,4.4119,-0.8890,-0.8555,0.0340,2.7811,rough,15.5,1,3.648
1760,56.32,7.9148,4.4119,-0.8890,-0.8555,0.0340,2.7811,rough,15.5,1,3.648
1770,56.64,7.9148,4.4119,-0.8890,-0.8555,0.0340,2.7812,rough,15.5,1,3.648
1780,56.96,7.9149,4.4119,-0.8890,-0.8555,0.0340,2.7812,rough,15.5,1,3.648
1790,57.28,7.9149,4.4119,-0.8890,-0.8555,0.0340,2.7812,rough,15.5,1,3.648
1800,57.60,7.9149,4.4118,-0.8890,-0.8555,0.0340,2.7812,rough,15.5,1,3.648
1810,57.92,7.9149,4.4118,-0.8890,-0.8555,0.0340,2.7812,rough,15.5,1,3.648
1820,58.24,7.9150,4.4118,-0.8891,-0.8555,0.0340,2.7812,rough,15.5,1,3.648
1830,58.56,7.9150,4.4118,-0.8891,-0.8555,0.0339,2.7812,rough,15.5,1,3.648
1840,58.88,7.9150,4.4117,-0.8891,-0.8555,0.0339,2.7812,rough,15.5,1,3.648
1850,59.20,7.9150,4.4117,-0.8891,-0.8555,0.0339,2.7812,rough,15.5,1,3.648
1860,59.52,7.9151,4.4117,-0.8891,-0.8555,0.0339,2.7812,rough,15.5,1,3.648
1870,59.84,7.9151,4.4117,-0.8891,-0.8555,0.0339,2.7812,rough,15.5,1,3.648
1880,60.16,7.9151,4.4117,-0.8891,-0.8555,0.0339,2.7812,rough,15.5,1,3.648
1890,60.48,7.9151,4.4116,-0.8891,-0.8555,0.0339,2.7812,rough,15.5,1,3.648
1900,60.80,7.9152,4.4116,-0.8891,-0.8555,0.0339,2.7812,rough,15.5,1,3.648
1910,61.12,7.9152,4.4116,-0.8892,-0.8555,0.0339,2.7813,rough,15.5,1,3.648
1920,61.44,7.9152,4.4116,-0.8892,-0.8555,0.0339,2.7813,rough,15.5,1,3.648
1930,61.76,7.9152,4.4116,-0.8892,-0.8555,0.0339,2.7813,rough,15.5,1,3.648
1940,62.08,7.9153,4.4115,-0.8892,-0.8555,0.0339,2.7813,rough,15.5,1,3.648
1950,62.40,7.9153,4.4115,-0.8892,-0.8555,0.0339,2.7813,rough,15.5,1,3.648
1960,62.72,7.9153,4.4115,-0.8892,-0.8555,0.0339,2.7813,rough,15.5,1,3.648
1970,63.04,7.9153,4.4115,-0.8892,-0.8555,0.0339,2.7813,rough,15.5,1,3.648
1980,63.36,7.9154,4.4115,-0.8892,-0.8555,0.0339,2.7813,rough,15.5,1,3.648
1990,63.68,7.9154,4.4114,-0.8893,-0.8555,0.0339,2.7813,rough,15.5,1,3.648
2000,64.00,7.9154,4.4114,-0.8893,-0.8555,0.0339,2.7813,rough,15.5,1,3.648
2010,64.32,7.9154,4.4114,-0.8893,-0.8555,0.0338,2.7813,rough,15.5,1,3.648
2020,64.64,7.9155,4.4114,-0.8893,-0.8555,0.0338,2.7813,rough,15.5,1,3.648
2030,64.96,7.9155,4.4114,-0.8893,-0.8555,0.0338,2.7813,rough,15.5,1,3.649
2040,65.28,7.9155,4.4113,-0.8893,-0.8555,0.0338,2.7813,rough,15.5,1,3.649
2050,65.60,7.9155,4.4113,-0.8893,-0.8555,0.0338,2.7813,rough,15.5,1,3.649
2060,65.92,7.9156,4.4113,-0.8893,-0.8555,0.0338,2.7814,rough,15.5,1,3.649
2070,66.24,7.9156,4.4113,-0.8893,-0.8555,0.0338,2.7814,rough,15.5,1,3.649
2080,66.56,7.9156,4.4113,-0.8894,-0.8555,0.0338,2.7814,rough,15.5,1,3.649
2090,66.88,7.9156,4.4112,-0.8894,-0.8555,0.0338,2.7814,rough,15.5,1,3.649
2100,67.20,7.9157,4.4112,-0.8894,-0.8555,0.0338,2.7814,rough,15.5,1,3.649
2110,67.52,7.9157,4.4112,-0.8894,-0.8555,0.0338,2.7814,rough,15.5,1,3.649
2120,67.84,7.9157,4.4112,-0.8894,-0.8555,0.0338,2.7814,rough,15.5,1,3.649
2130,68.16,7.9157,4.4111,-0.8894,-0.8555,0.0338,2.7814,rough,15.5,1,3.649
2140,68.48,7.9158,4.4111,-0.8894,-0.8555,0.0338,2.7814,rough,15.5,1,3.649
2150,68.80,7.9158,4.4111,-0.8894,-0.8555,0.0338,2.7814,rough,15.5,1,3.649
2160,69.12,7.9158,4.4111,-0.8895,-0.8556,0.0338,2.7814,rough,15.5,1,3.649
2170,69.44,7.9158,4.4111,-0.8895,-0.8556,0.0337,2.7814,rough,15.5,1,3.649
2180,69.76,7.9159,4.4110,-0.8895,-0.8556,0.0337,2.7815,rough,15.5,1,3.649
2190,70.08,7.9159,4.4110,-0.8895,-0.8556,0.0337,2.7815,rough,15.5,1,3.649
2200,70.40,7.9159,4.4110,-0.8895,-0.8556,0.0337,2.7815,rough,15.5,1,3.649
2210,70.72,7.9159,4.4110,-0.8895,-0.8556,0.0337,2.7815,rough,15.5,1,3.649
2220,71.04,7.9160,4.4109,-0.8895,-0.8556,0.0337,2.7815,rough,15.5,1,3.649
2230,71.36,7.9160,4.4109,-0.8896,-0.8556,0.0337,2.7815,rough,15.5,1,3.649
2240,71.68,7.9160,4.4109,-0.8896,-0.8556,0.0337,2.7815,rough,15.5,1,3.649
2250,72.00,7.9160,4.4109,-0.8896,-0.8556,0.0337,2.7815,rough,15.5,1,3.649
2260,72.32,7.9161,4.4108,-0.8896,-0.8556,0.0337,2.7815,rough,15.5,1,3.649
2270,72.64,7.9161,4.4108,-0.8896,-0.8556,0.0337,2.7815,rough,15.5,1,3.649
2280,72.96,7.9161,4.4108,-0.8896,-0.8556,0.0337,2.7815,rough,15.5,1,3.649
2290,73.28,7.9162,4.4108,-0.8896,-0.8556,0.0337,2.7815,rough,15.5,1,3.649
2300,73.60,7.9162,4.4107,-0.8897,-0.8556,0.0337,2.7816,rough,15.5,1,3.649
2310,73.92,7.9162,4.4107,-0.8897,-0.8556,0.0337,2.7816,rough,15.5,1,3.649
2320,74.24,7.9162,4.4107,-0.8897,-0.8556,0.0336,2.7816,rough,15.5,1,3.649
2330,74.56,7.9163,4.4107,-0.8897,-0.8556,0.0336,2.7816,rough,15.5,1,3.649
2340,74.88,7.9163,4.4106,-0.8897,-0.8556,0.0336,2.7816,rough,15.5,1,3.650
2350,75.20,7.9163,4.4106,-0.8897,-0.8556,0.0336,2.7816,rough,15.5,1,3.650
2360,75.52,7.9163,4.4106,-0.8898,-0.8556,0.0336,2.7816,rough,15.5,1,3.650
2370,75.84,7.9164,4.4106,-0.8898,-0.8556,0.0336,2.7816,rough,15.5,1,3.650
2380,76.16,7.9164,4.4105,-0.8898,-0.8556,0.0336,2.7816,rough,15.5,1,3.650
2390,76.48,7.9164,4.4105,-0.8898,-0.8556,0.0336,2.7816,rough,15.5,1,3.650
2400,76.80,7.9164,4.4105,-0.8898,-0.8556,0.0336,2.7816,rough,15.5,1,3.650
2410,77.12,7.9165,4.4105,-0.8898,-0.8556,0.0336,2.7816,rough,15.5,1,3.650
2420,77.44,7.9165,4.4104,-0.8898,-0.8556,0.0336,2.7816,rough,15.5,1,3.650
2430,77.76,7.9165,4.4104,-0.8899,-0.8556,0.0336,2.7817,rough,15.5,1,3.650
2440,78.08,7.9165,4.4104,-0.8899,-0.8556,0.0336,2.7817,rough,15.5,1,3.650
2450,78.40,7.9166,4.4104,-0.8899,-0.8556,0.0336,2.7817,rough,15.5,1,3.650
2460,78.72,7.9166,4.4103,-0.8899,-0.8556,0.0336,2.7817,rough,15.5,1,3.650
2470,79.04,7.9166,4.4103,-0.8899,-0.8556,0.0335,2.7817,rough,15.5,1,3.650
2480,79.36,7.9166,4.4103,-0.8899,-0.8556,0.0335,2.7817,rough,15.5,1,3.650
2490,79.68,7.9167,4.4103,-0.8900,-0.8556,0.0335,2.7817,rough,15.5,1,3.650
2500,80.00,7.9167,4.4102,-0.8900,-0.8556,0.0335,2.7817,rough,15.5,1,3.650
2510,80.32,7.9167,4.4102,-0.8900,-0.8556,0.0335,2.7817,rough,15.5,1,3.650
2520,80.64,7.9167,4.4102,-0.8900,-0.8556,0.0335,2.7817,rough,15.5,1,3.650
2530,80.96,7.9168,4.4102,-0.8900,-0.8556,0.0335,2.7817,rough,15.5,1,3.650
2540,81.28,7.9168,4.4101,-0.8900,-0.8556,0.0335,2.7817,rough,15.5,1,3.650
2550,81.60,7.9168,4.4101,-0.8900,-0.8556,0.0335,2.7817,rough,15.5,1,3.650
2560,81.92,7.9168,4.4101,-0.8901,-0.8556,0.0335,2.7817,rough,15.5,1,3.650
2570,82.24,7.9169,4.4101,-0.8901,-0.8556,0.0335,2.7818,rough,15.5,1,3.650
2580,82.56,7.9169,4.4100,-0.8901,-0.8556,0.0335,2.7818,rough,15.5,1,3.650
2590,82.88,7.9169,4.4100,-0.8901,-0.8556,0.0335,2.7818,rough,15.5,1,3.650
2600,83.20,7.9169,4.4100,-0.8901,-0.8556,0.0335,2.7818,rough,15.5,1,3.650
2610,83.52,7.9170,4.4100,-0.8901,-0.8556,0.0335,2.7818,rough,15.5,1,3.650
2620,83.84,7.9170,4.4099,-0.8902,-0.8556,0.0334,2.7818,rough,15.5,1,3.650
2630,84.16,7.9170,4.4099,-0.8902,-0.8556,0.0334,2.7818,rough,15.5,1,3.650
2640,84.48,7.9170,4.4099,-0.8902,-0.8556,0.0334,2.7818,rough,15.5,1,3.651
2650,84.80,7.9171,4.4099,-0.8902,-0.8556,0.0334,2.7818,rough,15.5,1,3.651
2660,85.12,7.9171,4.4098,-0.8902,-0.8556,0.0334,2.7818,rough,15.5,1,3.651
2670,85.44,7.9171,4.4098,-0.8902,-0.8556,0.0334,2.7818,rough,15.5,1,3.651
2680,85.76,7.9171,4.4098,-0.8903,-0.8556,0.0334,2.7818,rough,15.5,1,3.651
2690,86.08,7.9172,4.4098,-0.8903,-0.8556,0.0334,2.7818,rough,15.5,1,3.651
2700,86.40,7.9172,4.4097,-0.8903,-0.8556,0.0334,2.7819,rough,15.5,1,3.651
2710,86.72,7.9172,4.4097,-0.8903,-0.8556,0.0334,2.7819,rough,15.5,1,3.651
2720,87.04,7.9172,4.4097,-0.8903,-0.8556,0.0334,2.7819,rough,15.5,1,3.651
2730,87.36,7.9173,4.4097,-0.8903,-0.8556,0.0334,2.7819,rough,15.5,1,3.651
2740,87.68,7.9173,4.4096,-0.8903,-0.8556,0.0334,2.7819,rough,15.5,1,3.651
2750,88.00,7.9173,4.4096,-0.8904,-0.8556,0.0334,2.7819,rough,15.5,1,3.651
2760,88.32,7.9173,4.4096,-0.8904,-0.8556,0.0334,2.7819,rough,15.5,1,3.651
2770,88.64,7.9174,4.4096,-0.8904,-0.8556,0.0334,2.7819,rough,15.5,1,3.651
2780,88.96,7.9174,4.4095,-0.8904,-0.8556,0.0333,2.7819,rough,15.5,1,3.651
2790,89.28,7.9174,4.4095,-0.8904,-0.8556,0.0333,2.7819,rough,15.5,1,3.651
2800,89.60,7.9174,4.4095,-0.8904,-0.8556,0.0333,2.7819,rough,15.5,1,3.651
2810,89.92,7.9174,4.4095,-0.8905,-0.8556,0.0333,2.7819,rough,15.5,1,3.651
2820,90.24,7.9175,4.4094,-0.8905,-0.8556,0.0333,2.7819,rough,15.5,1,3.651
2830,90.56,7.9175,4.4094,-0.8905,-0.8556,0.0333,2.7819,rough,15.5,1,3.651
2840,90.88,7.9175,4.4094,-0.8905,-0.8556,0.0333,2.7820,rough,15.5,1,3.651
2850,91.20,7.9175,4.4094,-0.8905,-0.8556,0.0333,2.7820,rough,15.5,1,3.651
2860,91.52,7.9176,4.4093,-0.8905,-0.8556,0.0333,2.7820,rough,15.5,1,3.651
2870,91.84,7.9176,4.4093,-0.8906,-0.8556,0.0333,2.7820,rough,15.5,1,3.651
2880,92.16,7.9176,4.4093,-0.8906,-0.8556,0.0333,2.7820,rough,15.5,1,3.651
2890,92.48,7.9176,4.4093,-0.8906,-0.8556,0.0333,2.7820,rough,15.5,1,3.651
2900,92.80,7.9177,4.4092,-0.8906,-0.8556,0.0333,2.7820,rough,15.5,1,3.651
2910,93.12,7.9177,4.4092,-0.8906,-0.8556,0.0333,2.7820,rough,15.5,1,3.651
2920,93.44,7.9177,4.4092,-0.8906,-0.8556,0.0333,2.7820,rough,15.5,1,3.651
2930,93.76,7.9177,4.4092,-0.8907,-0.8556,0.0333,2.7820,rough,15.5,1,3.651
2940,94.08,7.9177,4.4091,-0.8907,-0.8556,0.0332,2.7820,rough,15.5,1,3.651
2950,94.40,7.9178,4.4091,-0.8907,-0.8556,0.0332,2.7820,rough,15.5,1,3.651
2960,94.72,7.9178,4.4091,-0.8907,-0.8556,0.0332,2.7820,rough,15.5,1,3.651
2970,95.04,7.9178,4.4091,-0.8907,-0.8556,0.0332,2.7820,rough,15.5,1,3.652
2980,95.36,7.9178,4.4091,-0.8907,-0.8556,0.0332,2.7821,rough,15.5,1,3.652
2990,95.68,7.9179,4.4090,-0.8908,-0.8556,0.0332,2.7821,rough,15.5,1,3.652
3000,96.00,7.9179,4.4090,-0.8908,-0.8556,0.0332,2.7821,rough,15.5,1,3.652
3010,96.32,7.9179,4.4090,-0.8908,-0.8556,0.0332,2.7821,rough,15.5,1,3.652
3020,96.64,7.9179,4.4090,-0.8908,-0.8556,0.0332,2.7821,rough,15.5,1,3.652
3030,96.96,7.9180,4.4089,-0.8908,-0.8556,0.0332,2.7821,rough,15.5,1,3.652
3040,97.28,7.9180,4.4089,-0.8908,-0.8556,0.0332,2.7821,rough,15.5,1,3.652
3050,97.60,7.9180,4.4089,-0.8909,-0.8556,0.0332,2.7821,rough,15.5,1,3.652
3060,97.92,7.9180,4.4089,-0.8909,-0.8556,0.0332,2.7821,rough,15.5,1,3.652
3070,98.24,7.9180,4.4088,-0.8909,-0.8556,0.0332,2.7821,rough,15.5,1,3.652
3080,98.56,7.9181,4.4088,-0.8909,-0.8556,0.0332,2.7821,rough,15.5,1,3.652
3090,98.88,7.9181,4.4088,-0.8909,-0.8556,0.0332,2.7821,rough,15.5,1,3.652
3100,99.20,7.9181,4.4088,-0.8909,-0.8556,0.0331,2.7821,rough,15.5,1,3.652
3110,99.52,7.9181,4.4087,-0.8910,-0.8556,0.0331,2.7822,rough,15.5,1,3.652
3120,99.84,7.9182,4.4087,-0.8910,-0.8556,0.0331,2.7822,rough,15.5,1,3.652
3130,100.16,7.9182,4.4087,-0.8910,-0.8556,0.0331,2.7822,rough,15.5,1,3.652
3140,100.48,7.9182,4.4086,-0.8910,-0.8556,0.0331,2.7822,rough,15.5,1,3.652
3150,100.80,7.9182,4.4086,-0.8910,-0.8556,0.0331,2.7822,rough,15.5,1,3.652
3160,101.12,7.9183,4.4086,-0.8910,-0.8556,0.0331,2.7822,rough,15.5,1,3.652
3170,101.44,7.9183,4.4086,-0.8911,-0.8556,0.0331,2.7822,rough,15.5,1,3.652
3180,101.76,7.9183,4.4085,-0.8911,-0.8556,0.0331,2.7822,rough,15.5,1,3.652
3190,102.08,7.9183,4.4085,-0.8911,-0.8556,0.0331,2.7822,rough,15.5,1,3.652
3200,102.40,7.9184,4.4085,-0.8911,-0.8556,0.0331,2.7822,rough,15.5,1,3.652
3210,102.72,7.9184,4.4085,-0.8911,-0.8556,0.0331,2.7822,rough,15.5,1,3.652
3220,103.04,7.9184,4.4084,-0.8912,-0.8556,0.0331,2.7822,rough,15.5,1,3.652
3230,103.36,7.9184,4.4084,-0.8912,-0.8556,0.0331,2.7823,rough,15.5,1,3.652
3240,103.68,7.9184,4.4084,-0.8912,-0.8556,0.0331,2.7823,rough,15.5,1,3.652
3250,104.00,7.9185,4.4084,-0.8912,-0.8556,0.0330,2.7823,rough,15.5,1,3.652
3260,104.32,7.9185,4.4083,-0.8912,-0.8556,0.0330,2.7823,rough,15.5,1,3.652
3270,104.64,7.9185,4.4083,-0.8912,-0.8556,0.0330,2.7823,rough,15.5,1,3.652
3280,104.96,7.9185,4.4083,-0.8913,-0.8556,0.0330,2.7823,rough,15.5,1,3.652
3290,105.28,7.9186,4.4082,-0.8913,-0.8556,0.0330,2.7823,rough,15.5,1,3.653
3300,105.60,7.9186,4.4082,-0.8913,-0.8556,0.0330,2.7823,rough,15.5,1,3.653
3310,105.92,7.9186,4.4082,-0.8913,-0.8556,0.0330,2.7823,rough,15.5,1,3.653
3320,106.24,7.9186,4.4082,-0.8913,-0.8556,0.0330,2.7823,rough,15.5,1,3.653
3330,106.56,7.9187,4.4081,-0.8913,-0.8556,0.0330,2.7823,rough,15.5,1,3.653
3340,106.88,7.9187,4.4081,-0.8914,-0.8556,0.0330,2.7823,rough,15.5,1,3.653
3350,107.20,7.9187,4.4081,-0.8914,-0.8556,0.0330,2.7823,rough,15.5,1,3.653
3360,107.52,7.9187,4.4081,-0.8914,-0.8556,0.0330,2.7824,rough,15.5,1,3.653
3370,107.84,7.9188,4.4080,-0.8914,-0.8556,0.0330,2.7824,rough,15.5,1,3.653
3380,108.16,7.9188,4.4080,-0.8914,-0.8556,0.0330,2.7824,rough,15.5,1,3.653
3390,108.48,7.9188,4.4080,-0.8915,-0.8556,0.0330,2.7824,rough,15.5,1,3.653
3400,108.80,7.9188,4.4080,-0.8915,-0.8556,0.0329,2.7824,rough,15.5,1,3.653
3410,109.12,7.9189,4.4079,-0.8915,-0.8556,0.0329,2.7824,rough,15.5,1,3.653
3420,109.44,7.9189,4.4079,-0.8915,-0.8556,0.0329,2.7824,rough,15.5,1,3.653
3430,109.76,7.9189,4.4079,-0.8915,-0.8556,0.0329,2.7824,rough,15.5,1,3.653
3440,110.08,7.9189,4.4078,-0.8916,-0.8556,0.0329,2.7824,rough,15.5,1,3.653
3450,110.40,7.9189,4.4078,-0.8916,-0.8556,0.0329,2.7824,rough,15.5,1,3.653
3460,110.72,7.9190,4.4078,-0.8916,-0.8556,0.0329,2.7824,rough,15.5,1,3.653
3470,111.04,7.9190,4.4078,-0.8916,-0.8556,0.0329,2.7824,rough,15.5,1,3.653
3480,111.36,7.9190,4.4077,-0.8916,-0.8556,0.0329,2.7824,rough,15.5,1,3.653
3490,111.68,7.9190,4.4077,-0.8916,-0.8556,0.0329,2.7824,rough,15.5,1,3.653
3500,112.00,7.9191,4.4077,-0.8917,-0.8556,0.0329,2.7825,rough,15.5,1,3.653
3510,112.32,7.9191,4.4077,-0.8917,-0.8556,0.0329,2.7825,rough,15.5,1,3.653
3520,112.64,7.9191,4.4076,-0.8917,-0.8556,0.0329,2.7825,rough,15.5,1,3.653
3530,112.96,7.9191,4.4076,-0.8917,-0.8556,0.0329,2.7825,rough,15.5,1,3.653
3540,113.28,7.9192,4.4076,-0.8917,-0.8556,0.0329,2.7825,rough,15.5,1,3.653
3550,113.60,7.9192,4.4076,-0.8918,-0.8556,0.0328,2.7825,rough,15.5,1,3.653
3560,113.92,7.9192,4.4075,-0.8918,-0.8556,0.0328,2.7825,rough,15.5,1,3.653
3570,114.24,7.9192,4.4075,-0.8918,-0.8556,0.0328,2.7825,rough,15.5,1,3.653
3580,114.56,7.9192,4.4075,-0.8918,-0.8556,0.0328,2.7825,rough,15.5,1,3.653
3590,114.88,7.9193,4.4074,-0.8918,-0.8556,0.0328,2.7825,rough,15.5,1,3.653
3600,115.20,7.9193,4.4074,-0.8918,-0.8556,0.0328,2.7825,rough,15.5,1,3.654
3610,115.52,7.9193,4.4074,-0.8919,-0.8556,0.0328,2.7825,rough,15.5,1,3.654
3620,115.84,7.9193,4.4074,-0.8919,-0.8556,0.0328,2.7825,rough,15.5,1,3.654
3630,116.16,7.9194,4.4073,-0.8919,-0.8556,0.0328,2.7826,rough,15.5,1,3.654
3640,116.48,7.9194,4.4073,-0.8919,-0.8556,0.0328,2.7826,rough,15.5,1,3.654
3650,116.80,7.9194,4.4073,-0.8919,-0.8556,0.0328,2.7826,rough,15.5,1,3.654
3660,117.12,7.9194,4.4073,-0.8920,-0.8556,0.0328,2.7826,rough,15.5,1,3.654
3670,117.44,7.9194,4.4072,-0.8920,-0.8556,0.0328,2.7826,rough,15.5,1,3.654
3680,117.76,7.9195,4.4072,-0.8920,-0.8556,0.0328,2.7826,rough,15.5,1,3.654
3690,118.08,7.9195,4.4072,-0.8920,-0.8556,0.0328,2.7826,rough,15.5,1,3.654
3700,118.40,7.9195,4.4072,-0.8920,-0.8556,0.0327,2.7826,rough,15.5,1,3.654
3710,118.72,7.9195,4.4071,-0.8920,-0.8556,0.0327,2.7826,rough,15.5,1,3.654
3720,119.04,7.9196,4.4071,-0.8921,-0.8556,0.0327,2.7826,rough,15.5,1,3.654
3730,119.36,7.9196,4.4071,-0.8921,-0.8556,0.0327,2.7826,rough,15.5,1,3.654
3740,119.68,7.9196,4.4070,-0.8921,-0.8556,0.0327,2.7826,rough,15.5,1,3.654
3750,120.00,7.9196,4.4070,-0.8921,-0.8556,0.0327,2.7826,rough,15.5,1,3.654
3760,120.32,7.9196,4.4070,-0.8921,-0.8556,0.0327,2.7827,rough,15.5,1,3.654
3770,120.64,7.9197,4.4070,-0.8922,-0.8556,0.0327,2.7827,rough,15.5,1,3.654
3780,120.96,7.9197,4.4069,-0.8922,-0.8556,0.0327,2.7827,rough,15.5,1,3.654
3790,121.28,7.9197,4.4069,-0.8922,-0.8556,0.0327,2.7827,rough,15.5,1,3.654
3800,121.60,7.9197,4.4069,-0.8922,-0.8556,0.0327,2.7827,rough,15.5,1,3.654
3810,121.92,7.9198,4.4069,-0.8922,-0.8556,0.0327,2.7827,rough,15.5,1,3.654
3820,122.24,7.9198,4.4068,-0.8923,-0.8556,0.0327,2.7827,rough,15.5,1,3.654
3830,122.56,7.9198,4.4068,-0.8923,-0.8556,0.0327,2.7827,rough,15.5,1,3.654
3840,122.88,7.9198,4.4068,-0.8923,-0.8556,0.0327,2.7827,rough,15.5,1,3.654
3850,123.20,7.9198,4.4068,-0.8923,-0.8556,0.0327,2.7827,rough,15.5,1,3.654
3860,123.52,7.9199,4.4067,-0.8923,-0.8556,0.0326,2.7827,rough,15.5,1,3.654
3870,123.84,7.9199,4.4067,-0.8923,-0.8556,0.0326,2.7827,rough,15.5,1,3.654
3880,124.16,7.9199,4.4067,-0.8924,-0.8556,0.0326,2.7827,rough,15.5,1,3.654
3890,124.48,7.9199,4.4066,-0.8924,-0.8556,0.0326,2.7827,rough,15.5,1,3.654
3900,124.80,7.9200,4.4066,-0.8924,-0.8556,0.0326,2.7828,rough,15.5,1,3.654
3910,125.12,7.9200,4.4066,-0.8924,-0.8556,0.0326,2.7828,rough,15.5,1,3.654
3920,125.44,7.9200,4.4066,-0.8924,-0.8556,0.0326,2.7828,rough,15.5,1,3.654
3930,125.76,7.9200,4.4065,-0.8925,-0.8556,0.0326,2.7828,rough,15.5,1,3.655
3940,126.08,7.9200,4.4065,-0.8925,-0.8556,0.0326,2.7828,rough,15.5,1,3.655
3950,126.40,7.9201,4.4065,-0.8925,-0.8556,0.0326,2.7828,rough,15.5,1,3.655
3960,126.72,7.9201,4.4065,-0.8925,-0.8556,0.0326,2.7828,rough,15.5,1,3.655
3970,127.04,7.9201,4.4064,-0.8925,-0.8556,0.0326,2.7828,rough,15.5,1,3.655
3980,127.36,7.9201,4.4064,-0.8926,-0.8556,0.0326,2.7828,rough,15.5,1,3.655
3990,127.68,7.9202,4.4064,-0.8926,-0.8556,0.0326,2.7828,rough,15.5,1,3.655
4000,128.00,7.9202,4.4064,-0.8926,-0.8556,0.0326,2.7828,rough,15.5,1,3.655
4010,128.32,7.9202,4.4063,-0.8926,-0.8556,0.0326,2.7828,rough,15.5,1,3.655
4020,128.64,7.9202,4.4063,-0.8926,-0.8556,0.0325,2.7828,rough,15.5,1,3.655
4030,128.96,7.9202,4.4063,-0.8926,-0.8556,0.0325,2.7828,rough,15.5,1,3.655
4040,129.28,7.9203,4.4063,-0.8927,-0.8556,0.0325,2.7829,rough,15.5,1,3.655
4050,129.60,7.9203,4.4062,-0.8927,-0.8556,0.0325,2.7829,rough,15.5,1,3.655
4060,129.92,7.9203,4.4062,-0.8927,-0.8556,0.0325,2.7829,rough,15.5,1,3.655
4070,130.24,7.9203,4.4062,-0.8927,-0.8556,0.0325,2.7829,rough,15.5,1,3.655
4080,130.56,7.9203,4.4061,-0.8927,-0.8556,0.0325,2.7829,rough,15.5,1,3.655
4090,130.88,7.9204,4.4061,-0.8928,-0.8556,0.0325,2.7829,rough,15.5,1,3.655
4100,131.20,7.9204,4.4061,-0.8928,-0.8556,0.0325,2.7829,rough,15.5,1,3.655
4110,131.52,7.9204,4.4061,-0.8928,-0.8556,0.0325,2.7829,rough,15.5,1,3.655
4120,131.84,7.9204,4.4060,-0.8928,-0.8556,0.0325,2.7829,rough,15.5,1,3.655
4130,132.16,7.9205,4.4060,-0.8928,-0.8556,0.0325,2.7829,rough,15.5,1,3.655
4140,132.48,7.9205,4.4060,-0.8929,-0.8556,0.0325,2.7829,rough,15.5,1,3.655
4150,132.80,7.9205,4.4060,-0.8929,-0.8556,0.0325,2.7829,rough,15.5,1,3.655
4160,133.12,7.9205,4.4059,-0.8929,-0.8556,0.0325,2.7829,rough,15.5,1,3.655
4170,133.44,7.9205,4.4059,-0.8929,-0.8556,0.0324,2.7830,rough,15.5,1,3.655
4180,133.76,7.9206,4.4059,-0.8929,-0.8556,0.0324,2.7830,rough,15.5,1,3.655
4190,134.08,7.9206,4.4059,-0.8929,-0.8556,0.0324,2.7830,rough,15.5,1,3.655
4200,134.40,7.9206,4.4058,-0.8930,-0.8556,0.0324,2.7830,rough,15.5,1,3.655
4210,134.72,7.9206,4.4058,-0.8930,-0.8556,0.0324,2.7830,rough,15.5,1,3.655
4220,135.04,7.9206,4.4058,-0.8930,-0.8556,0.0324,2.7830,rough,15.5,1,3.655
4230,135.36,7.9207,4.4058,-0.8930,-0.8556,0.0324,2.7830,rough,15.5,1,3.655
4240,135.68,7.9207,4.4057,-0.8930,-0.8556,0.0324,2.7830,rough,15.5,1,3.655
4250,136.00,7.9207,4.4057,-0.8931,-0.8556,0.0324,2.7830,rough,15.5,1,3.655
4260,136.32,7.9207,4.4057,-0.8931,-0.8556,0.0324,2.7830,rough,15.5,1,3.655
4270,136.64,7.9207,4.4057,-0.8931,-0.8556,0.0324,2.7830,rough,15.5,1,3.656
4280,136.96,7.9208,4.4056,-0.8931,-0.8556,0.0324,2.7830,rough,15.5,1,3.656
4290,137.28,7.9208,4.4056,-0.8931,-0.8556,0.0324,2.7830,rough,15.5,1,3.656
4300,137.60,7.9208,4.4056,-0.8931,-0.8556,0.0324,2.7830,rough,15.5,1,3.656
4310,137.92,7.9208,4.4056,-0.8932,-0.8556,0.0324,2.7830,rough,15.5,1,3.656
4320,138.24,7.9208,4.4055,-0.8932,-0.8556,0.0324,2.7830,rough,15.5,1,3.656
4330,138.56,7.9209,4.4055,-0.8932,-0.8556,0.0324,2.7831,rough,15.5,1,3.656
4340,138.88,7.9209,4.4055,-0.8932,-0.8556,0.0323,2.7831,rough,15.5,1,3.656
4350,139.20,7.9209,4.4055,-0.8932,-0.8556,0.0323,2.7831,rough,15.5,1,3.656
4360,139.52,7.9209,4.4054,-0.8933,-0.8556,0.0323,2.7831,rough,15.5,1,3.656
4370,139.84,7.9209,4.4054,-0.8933,-0.8556,0.0323,2.7831,rough,15.5,1,3.656
4380,140.16,7.9210,4.4054,-0.8933,-0.8556,0.0323,2.7831,rough,15.5,1,3.656
4390,140.48,7.9210,4.4054,-0.8933,-0.8556,0.0323,2.7831,rough,15.5,1,3.656
4400,140.80,7.9210,4.4053,-0.8933,-0.8556,0.0323,2.7831,rough,15.5,1,3.656
4410,141.12,7.9210,4.4053,-0.8933,-0.8556,0.0323,2.7831,rough,15.5,1,3.656
4420,141.44,7.9210,4.4053,-0.8934,-0.8556,0.0323,2.7831,rough,15.5,1,3.656
4430,141.76,7.9211,4.4053,-0.8934,-0.8556,0.0323,2.7831,rough,15.5,1,3.656
4440,142.08,7.9211,4.4052,-0.8934,-0.8556,0.0323,2.7831,rough,15.5,1,3.656
4450,142.40,7.9211,4.4052,-0.8934,-0.8556,0.0323,2.7831,rough,15.5,1,3.656
4460,142.72,7.9211,4.4052,-0.8934,-0.8556,0.0323,2.7831,rough,15.5,1,3.656
4470,143.04,7.9211,4.4052,-0.8935,-0.8556,0.0323,2.7832,rough,15.5,1,3.656
4480,143.36,7.9212,4.4051,-0.8935,-0.8556,0.0323,2.7832,rough,15.5,1,3.656
4490,143.68,7.9212,4.4051,-0.8935,-0.8556,0.0323,2.7832,rough,15.5,1,3.656
4500,144.00,7.9212,4.4051,-0.8935,-0.8556,0.0323,2.7832,rough,15.5,1,3.656
4510,144.32,7.9212,4.4051,-0.8935,-0.8556,0.0322,2.7832,rough,15.5,1,3.656
4520,144.64,7.9212,4.4050,-0.8935,-0.8556,0.0322,2.7832,rough,15.5,1,3.656
4530,144.96,7.9213,4.4050,-0.8936,-0.8556,0.0322,2.7832,rough,15.5,1,3.656
4540,145.28,7.9213,4.4050,-0.8936,-0.8556,0.0322,2.7832,rough,15.5,1,3.656
4550,145.60,7.9213,4.4050,-0.8936,-0.8556,0.0322,2.7832,rough,15.5,1,3.656
4560,145.92,7.9213,4.4049,-0.8936,-0.8556,0.0322,2.7832,rough,15.5,1,3.656
4570,146.24,7.9213,4.4049,-0.8936,-0.8556,0.0322,2.7832,rough,15.5,1,3.656
4580,146.56,7.9214,4.4049,-0.8937,-0.8556,0.0322,2.7832,rough,15.5,1,3.656
4590,146.88,7.9214,4.4048,-0.8937,-0.8556,0.0322,2.7832,rough,15.5,1,3.656
4600,147.20,7.9214,4.4048,-0.8937,-0.8556,0.0322,2.7832,rough,15.5,1,3.656
4610,147.52,7.9214,4.4048,-0.8937,-0.8556,0.0322,2.7832,rough,15.5,1,3.656
4620,147.84,7.9214,4.4048,-0.8937,-0.8556,0.0322,2.7833,rough,15.5,1,3.656
4630,148.16,7.9215,4.4047,-0.8937,-0.8556,0.0322,2.7833,rough,15.5,1,3.656
4640,148.48,7.9215,4.4047,-0.8938,-0.8556,0.0322,2.7833,rough,15.5,1,3.657
4650,148.80,7.9215,4.4047,-0.8938,-0.8556,0.0322,2.7833,rough,15.5,1,3.657
4660,149.12,7.9215,4.4047,-0.8938,-0.8556,0.0322,2.7833,rough,15.5,1,3.657
4670,149.44,7.9215,4.4046,-0.8938,-0.8556,0.0322,2.7833,rough,15.5,1,3.657
4680,149.76,7.9216,4.4046,-0.8938,-0.8556,0.0321,2.7833,rough,15.5,1,3.657
4690,150.08,7.9216,4.4046,-0.8939,-0.8556,0.0321,2.7833,rough,15.5,1,3.657
4700,150.40,7.9216,4.4046,-0.8939,-0.8556,0.0321,2.7833,rough,15.5,1,3.657
4710,150.72,7.9216,4.4045,-0.8939,-0.8556,0.0321,2.7833,rough,15.5,1,3.657
4720,151.04,7.9216,4.4045,-0.8939,-0.8556,0.0321,2.7833,rough,15.5,1,3.657
4730,151.36,7.9216,4.4045,-0.8939,-0.8556,0.0321,2.7833,rough,15.5,1,3.657
4740,151.68,7.9217,4.4045,-0.8939,-0.8556,0.0321,2.7833,rough,15.5,1,3.657
4750,152.00,7.9217,4.4044,-0.8940,-0.8556,0.0321,2.7833,rough,15.5,1,3.657
4760,152.32,7.9217,4.4044,-0.8940,-0.8556,0.0321,2.7833,rough,15.5,1,3.657
4770,152.64,7.9217,4.4044,-0.8940,-0.8556,0.0321,2.7834,rough,15.5,1,3.657
4780,152.96,7.9217,4.4043,-0.8940,-0.8559,0.0320,2.7834,rough,15.5,1,3.657
4790,153.28,7.9217,4.4042,-0.8940,-0.8560,0.0320,2.7834,rough,15.5,1,3.657
4800,153.60,7.9218,4.4042,-0.8940,-0.8560,0.0320,2.7834,rough,15.5,1,3.657
4810,153.92,7.9218,4.4042,-0.8941,-0.8561,0.0320,2.7834,rough,15.5,1,3.657
4820,154.24,7.9218,4.4042,-0.8941,-0.8561,0.0320,2.7834,rough,15.5,1,3.657
4830,154.56,7.9218,4.4041,-0.8941,-0.8561,0.0320,2.7834,rough,15.5,1,3.657
4840,154.88,7.9218,4.4041,-0.8941,-0.8561,0.0320,2.7834,rough,15.5,1,3.657
4850,155.20,7.9219,4.4041,-0.8942,-0.8561,0.0320,2.7834,rough,15.5,1,3.657
4860,155.52,7.9219,4.4040,-0.8942,-0.8561,0.0320,2.7834,rough,15.5,1,3.657
4870,155.84,7.9219,4.4040,-0.8942,-0.8561,0.0320,2.7834,rough,15.5,1,3.657
4880,156.16,7.9219,4.4040,-0.8942,-0.8561,0.0320,2.7835,rough,15.5,1,3.657
4890,156.48,7.9220,4.4040,-0.8942,-0.8561,0.0320,2.7835,rough,15.5,1,3.657
4900,156.80,7.9220,4.4039,-0.8943,-0.8561,0.0320,2.7835,rough,15.5,1,3.657
4910,157.12,7.9220,4.4039,-0.8943,-0.8561,0.0320,2.7835,rough,15.5,1,3.657
4920,157.44,7.9220,4.4039,-0.8943,-0.8561,0.0320,2.7835,rough,15.5,1,3.657
4930,157.76,7.9220,4.4038,-0.8943,-0.8561,0.0320,2.7835,rough,15.5,1,3.657
4940,158.08,7.9221,4.4038,-0.8943,-0.8561,0.0320,2.7835,rough,15.5,1,3.657
4950,158.40,7.9221,4.4038,-0.8944,-0.8561,0.0320,2.7835,rough,15.5,1,3.657
4960,158.72,7.9221,4.4038,-0.8944,-0.8561,0.0319,2.7835,rough,15.5,1,3.657
4970,159.04,7.9221,4.4037,-0.8944,-0.8561,0.0319,2.7835,rough,15.5,1,3.658
4980,159.36,7.9222,4.4037,-0.8944,-0.8561,0.0319,2.7835,rough,15.5,1,3.658
4990,159.68,7.9222,4.4037,-0.8944,-0.8561,0.0319,2.7835,rough,15.5,1,3.658
5000,160.00,7.9222,4.4036,-0.8945,-0.8561,0.0319,2.7836,rough,15.5,1,3.658
5010,160.32,7.9222,4.4036,-0.8945,-0.8561,0.0319,2.7836,rough,15.5,1,3.658
5020,160.64,7.9222,4.4036,-0.8945,-0.8561,0.0319,2.7836,rough,15.5,1,3.658
5030,160.96,7.9223,4.4036,-0.8945,-0.8561,0.0319,2.7836,rough,15.5,1,3.658
5040,161.28,7.9223,4.4035,-0.8946,-0.8561,0.0319,2.7836,rough,15.5,1,3.658
5050,161.60,7.9223,4.4035,-0.8946,-0.8561,0.0319,2.7836,rough,15.5,1,3.658
5060,161.92,7.9223,4.4035,-0.8946,-0.8561,0.0319,2.7836,rough,15.5,1,3.658
5070,162.24,7.9223,4.4034,-0.8946,-0.8561,0.0319,2.7836,rough,15.5,1,3.658
5080,162.56,7.9224,4.4034,-0.8946,-0.8561,0.0319,2.7836,rough,15.5,1,3.658
5090,162.88,7.9224,4.4034,-0.8947,-0.8561,0.0319,2.7836,rough,15.5,1,3.658
5100,163.20,7.9224,4.4034,-0.8947,-0.8561,0.0319,2.7836,rough,15.5,1,3.658
5110,163.52,7.9224,4.4033,-0.8947,-0.8561,0.0318,2.7836,rough,15.5,1,3.658
5120,163.84,7.9225,4.4033,-0.8947,-0.8561,0.0318,2.7836,rough,15.5,1,3.658
5130,164.16,7.9225,4.4033,-0.8947,-0.8561,0.0318,2.7837,rough,15.5,1,3.658
5140,164.48,7.9225,4.4032,-0.8948,-0.8561,0.0318,2.7837,rough,15.5,1,3.658
5150,164.80,7.9225,4.4032,-0.8948,-0.8561,0.0318,2.7837,rough,15.5,1,3.658
5160,165.12,7.9225,4.4032,-0.8948,-0.8561,0.0318,2.7837,rough,15.5,1,3.658
5170,165.44,7.9226,4.4031,-0.8948,-0.8561,0.0318,2.7837,rough,15.5,1,3.658
5180,165.76,7.9226,4.4031,-0.8948,-0.8561,0.0318,2.7837,rough,15.5,1,3.658
5190,166.08,7.9226,4.4031,-0.8949,-0.8561,0.0318,2.7837,rough,15.5,1,3.658
5200,166.40,7.9226,4.4031,-0.8949,-0.8561,0.0318,2.7837,rough,15.5,1,3.658
5210,166.72,7.9227,4.4030,-0.8949,-0.8561,0.0318,2.7837,rough,15.5,1,3.658
5220,167.04,7.9227,4.4030,-0.8949,-0.8561,0.0318,2.7837,rough,15.5,1,3.658
5230,167.36,7.9227,4.4030,-0.8950,-0.8561,0.0318,2.7837,rough,15.5,1,3.658
5240,167.68,7.9227,4.4029,-0.8950,-0.8561,0.0318,2.7837,rough,15.5,1,3.658
5250,168.00,7.9227,4.4029,-0.8950,-0.8561,0.0318,2.7837,rough,15.5,1,3.658
5260,168.32,7.9228,4.4029,-0.8950,-0.8561,0.0317,2.7838,rough,15.5,1,3.658
5270,168.64,7.9228,4.4029,-0.8950,-0.8561,0.0317,2.7838,rough,15.5,1,3.658
5280,168.96,7.9228,4.4028,-0.8951,-0.8561,0.0317,2.7838,rough,15.5,1,3.658
5290,169.28,7.9228,4.4028,-0.8951,-0.8561,0.0317,2.7838,rough,15.5,1,3.658
5300,169.60,7.9228,4.4028,-0.8951,-0.8561,0.0317,2.7838,rough,15.5,1,3.659
5310,169.92,7.9229,4.4027,-0.8951,-0.8561,0.0317,2.7838,rough,15.5,1,3.659
5320,170.24,7.9229,4.4027,-0.8951,-0.8560,0.0317,2.7838,rough,15.5,1,3.659
5330,170.56,7.9229,4.4027,-0.8952,-0.8560,0.0317,2.7838,rough,15.5,1,3.659
5340,170.88,7.9229,4.4027,-0.8952,-0.8560,0.0317,2.7838,rough,15.5,1,3.659
5350,171.20,7.9230,4.4026,-0.8952,-0.8560,0.0317,2.7838,rough,15.5,1,3.659
5360,171.52,7.9230,4.4026,-0.8952,-0.8560,0.0317,2.7838,rough,15.5,1,3.659
5370,171.84,7.9230,4.4026,-0.8952,-0.8560,0.0317,2.7838,rough,15.5,1,3.659
5380,172.16,7.9230,4.4025,-0.8953,-0.8560,0.0317,2.7838,rough,15.5,1,3.659
5390,172.48,7.9230,4.4025,-0.8953,-0.8560,0.0317,2.7839,rough,15.5,1,3.659
5400,172.80,7.9231,4.4025,-0.8953,-0.8560,0.0317,2.7839,rough,15.5,1,3.659
5410,173.12,7.9231,4.4025,-0.8953,-0.8560,0.0316,2.7839,rough,15.5,1,3.659
5420,173.44,7.9231,4.4024,-0.8954,-0.8560,0.0316,2.7839,rough,15.5,1,3.659
5430,173.76,7.9231,4.4024,-0.8954,-0.8560,0.0316,2.7839,rough,15.5,1,3.659
5440,174.08,7.9231,4.4024,-0.8954,-0.8560,0.0316,2.7839,rough,15.5,1,3.659
5450,174.40,7.9232,4.4023,-0.8954,-0.8560,0.0316,2.7839,rough,15.5,1,3.659
5460,174.72,7.9232,4.4023,-0.8954,-0.8560,0.0316,2.7839,rough,15.5,1,3.659
5470,175.04,7.9232,4.4023,-0.8955,-0.8560,0.0316,2.7839,rough,15.5,1,3.659
5480,175.36,7.9232,4.4023,-0.8955,-0.8560,0.0316,2.7839,rough,15.5,1,3.659
5490,175.68,7.9233,4.4022,-0.8955,-0.8560,0.0316,2.7839,rough,15.5,1,3.659
5500,176.00,7.9233,4.4022,-0.8955,-0.8560,0.0316,2.7839,rough,15.5,1,3.659
5510,176.32,7.9233,4.4022,-0.8955,-0.8560,0.0316,2.7839,rough,15.5,1,3.659
5520,176.64,7.9233,4.4021,-0.8956,-0.8560,0.0316,2.7839,rough,15.5,1,3.659
5530,176.96,7.9233,4.4021,-0.8956,-0.8560,0.0316,2.7840,rough,15.5,1,3.659
5540,177.28,7.9234,4.4021,-0.8956,-0.8560,0.0316,2.7840,rough,15.5,1,3.659
5550,177.60,7.9234,4.4021,-0.8956,-0.8560,0.0316,2.7840,rough,15.5,1,3.659
5560,177.92,7.9234,4.4020,-0.8957,-0.8560,0.0315,2.7840,rough,15.5,1,3.659
5570,178.24,7.9234,4.4020,-0.8957,-0.8561,0.0315,2.7840,rough,15.5,1,3.659
5580,178.56,7.9235,4.4020,-0.8957,-0.8561,0.0315,2.7840,rough,15.5,1,3.659
5590,178.88,7.9235,4.4019,-0.8957,-0.8561,0.0315,2.7840,rough,15.5,1,3.659
5600,179.20,7.9235,4.4019,-0.8957,-0.8561,0.0315,2.7840,rough,15.5,1,3.659
5610,179.52,7.9235,4.4019,-0.8958,-0.8561,0.0315,2.7841,rough,15.5,1,3.659
5620,179.84,7.9236,4.4018,-0.8958,-0.8561,0.0315,2.7841,rough,15.5,1,3.660
5630,180.16,7.9236,4.4018,-0.8958,-0.8561,0.0315,2.7841,rough,15.5,1,3.660
5640,180.48,7.9236,4.4018,-0.8958,-0.8561,0.0315,2.7841,rough,15.5,1,3.660
5650,180.80,7.9236,4.4017,-0.8959,-0.8561,0.0315,2.7841,rough,15.5,1,3.660
5660,181.12,7.9237,4.4017,-0.8959,-0.8561,0.0315,2.7841,rough,15.5,1,3.660
5670,181.44,7.9237,4.4017,-0.8959,-0.8561,0.0315,2.7841,rough,15.5,1,3.660
5680,181.76,7.9237,4.4016,-0.8959,-0.8561,0.0314,2.7841,rough,15.5,1,3.660
5690,182.08,7.9237,4.4016,-0.8960,-0.8561,0.0314,2.7841,rough,15.5,1,3.660
5700,182.40,7.9238,4.4016,-0.8960,-0.8561,0.0314,2.7841,rough,15.5,1,3.660
5710,182.72,7.9238,4.4015,-0.8960,-0.8561,0.0314,2.7841,rough,15.5,1,3.660
5720,183.04,7.9238,4.4015,-0.8960,-0.8561,0.0314,2.7842,rough,15.5,1,3.660
5730,183.36,7.9238,4.4015,-0.8961,-0.8561,0.0314,2.7842,rough,15.5,1,3.660
5740,183.68,7.9239,4.4014,-0.8961,-0.8561,0.0314,2.7842,rough,15.5,1,3.660
5750,184.00,7.9239,4.4014,-0.8961,-0.8561,0.0314,2.7842,rough,15.5,1,3.660
5760,184.32,7.9239,4.4014,-0.8961,-0.8561,0.0314,2.7842,rough,15.5,1,3.660
5770,184.64,7.9240,4.4013,-0.8962,-0.8561,0.0314,2.7842,rough,15.5,1,3.660
5780,184.96,7.9240,4.4013,-0.8962,-0.8561,0.0314,2.7842,rough,15.5,1,3.660
5790,185.28,7.9240,4.4013,-0.8962,-0.8561,0.0314,2.7842,rough,15.5,1,3.660
5800,185.60,7.9240,4.4012,-0.8962,-0.8561,0.0313,2.7842,rough,15.5,1,3.660
5810,185.92,7.9241,4.4012,-0.8963,-0.8561,0.0313,2.7842,rough,15.5,1,3.660
5820,186.24,7.9241,4.4012,-0.8963,-0.8561,0.0313,2.7842,rough,15.5,1,3.660
5830,186.56,7.9241,4.4011,-0.8963,-0.8561,0.0313,2.7843,rough,15.5,1,3.660
5840,186.88,7.9241,4.4011,-0.8963,-0.8561,0.0313,2.7843,rough,15.5,1,3.660
5850,187.20,7.9242,4.4011,-0.8964,-0.8561,0.0313,2.7843,rough,15.5,1,3.660
5860,187.52,7.9242,4.4010,-0.8964,-0.8561,0.0313,2.7843,rough,15.5,1,3.660
5870,187.84,7.9242,4.4010,-0.8964,-0.8561,0.0313,2.7843,rough,15.5,1,3.660
5880,188.16,7.9242,4.4010,-0.8964,-0.8561,0.0313,2.7843,rough,15.5,1,3.660
5890,188.48,7.9243,4.4009,-0.8965,-0.8561,0.0313,2.7843,rough,15.5,1,3.661
5900,188.80,7.9243,4.4009,-0.8965,-0.8561,0.0313,2.7843,rough,15.5,1,3.661
5910,189.12,7.9243,4.4009,-0.8965,-0.8561,0.0313,2.7843,rough,15.5,1,3.661
5920,189.44,7.9243,4.4008,-0.8965,-0.8561,0.0313,2.7843,rough,15.5,1,3.661
5930,189.76,7.9244,4.4008,-0.8966,-0.8561,0.0312,2.7843,rough,15.5,1,3.661
5940,190.08,7.9244,4.4008,-0.8966,-0.8561,0.0312,2.7844,rough,15.5,1,3.661
5950,190.40,7.9244,4.4007,-0.8966,-0.8561,0.0312,2.7844,rough,15.5,1,3.661
5960,190.72,7.9244,4.4007,-0.8966,-0.8561,0.0312,2.7844,rough,15.5,1,3.661
5970,191.04,7.9245,4.4007,-0.8966,-0.8561,0.0312,2.7844,rough,15.5,1,3.661
5980,191.36,7.9245,4.4006,-0.8967,-0.8561,0.0312,2.7844,rough,15.5,1,3.661
5990,191.68,7.9245,4.4006,-0.8967,-0.8561,0.0312,2.7844,rough,15.5,1,3.661
6000,192.00,7.9245,4.4006,-0.8967,-0.8561,0.0312,2.7844,rough,15.5,1,3.661
6010,192.32,7.9246,4.4005,-0.8967,-0.8561,0.0312,2.7844,rough,15.5,1,3.661
6020,192.64,7.9246,4.4005,-0.8968,-0.8561,0.0312,2.7844,rough,15.5,1,3.661
6030,192.96,7.9246,4.4005,-0.8968,-0.8561,0.0312,2.7844,rough,15.5,1,3.661
6040,193.28,7.9246,4.4004,-0.8968,-0.8560,0.0312,2.7844,rough,15.5,1,3.661
6050,193.60,7.9247,4.4004,-0.8968,-0.8560,0.0311,2.7845,rough,15.5,1,3.661
6060,193.92,7.9247,4.4004,-0.8969,-0.8560,0.0311,2.7845,rough,15.5,1,3.661
6070,194.24,7.9247,4.4003,-0.8969,-0.8560,0.0311,2.7845,rough,15.5,1,3.661
6080,194.56,7.9247,4.4003,-0.8969,-0.8560,0.0311,2.7845,rough,15.5,1,3.661
6090,194.88,7.9248,4.4003,-0.8969,-0.8560,0.0311,2.7845,rough,15.5,1,3.661
6100,195.20,7.9248,4.4002,-0.8970,-0.8560,0.0311,2.7845,rough,15.5,1,3.661
6110,195.52,7.9248,4.4002,-0.8970,-0.8560,0.0311,2.7845,rough,15.5,1,3.661
6120,195.84,7.9248,4.4002,-0.8970,-0.8560,0.0311,2.7845,rough,15.5,1,3.661
6130,196.16,7.9249,4.4001,-0.8970,-0.8560,0.0311,2.7845,rough,15.5,1,3.661
6140,196.48,7.9249,4.4001,-0.8971,-0.8560,0.0311,2.7845,rough,15.5,1,3.661
6150,196.80,7.9249,4.4001,-0.8971,-0.8560,0.0311,2.7845,rough,15.5,1,3.661
6160,197.12,7.9249,4.4000,-0.8971,-0.8560,0.0311,2.7846,rough,15.5,1,3.661
6170,197.44,7.9250,4.4000,-0.8971,-0.8560,0.0311,2.7846,rough,15.5,1,3.662
6180,197.76,7.9250,4.3999,-0.8972,-0.8560,0.0310,2.7846,rough,15.5,1,3.662
6190,198.08,7.9250,4.3999,-0.8972,-0.8560,0.0310,2.7846,rough,15.5,1,3.662
6200,198.40,7.9250,4.3999,-0.8972,-0.8560,0.0310,2.7846,rough,15.5,1,3.662
6210,198.72,7.9251,4.3998,-0.8972,-0.8560,0.0310,2.7846,rough,15.5,1,3.662
6220,199.04,7.9251,4.3998,-0.8973,-0.8560,0.0310,2.7846,rough,15.5,1,3.662
6230,199.36,7.9251,4.3998,-0.8973,-0.8560,0.0310,2.7846,rough,15.5,1,3.662
6240,199.68,7.9251,4.3997,-0.8973,-0.8560,0.0310,2.7846,rough,15.5,1,3.662
6250,200.00,7.9252,4.3997,-0.8973,-0.8560,0.0310,2.7846,rough,15.5,1,3.662
6260,200.32,7.9252,4.3997,-0.8974,-0.8560,0.0310,2.7846,rough,15.5,1,3.662
6270,200.64,7.9252,4.3996,-0.8974,-0.8560,0.0310,2.7847,rough,15.5,1,3.662
6280,200.96,7.9252,4.3996,-0.8974,-0.8560,0.0310,2.7847,rough,15.5,1,3.662
6290,201.28,7.9253,4.3996,-0.8974,-0.8560,0.0310,2.7847,rough,15.5,1,3.662
6300,201.60,7.9253,4.3995,-0.8975,-0.8560,0.0310,2.7847,rough,15.5,1,3.662
6310,201.92,7.9253,4.3995,-0.8975,-0.8560,0.0309,2.7847,rough,15.5,1,3.662
6320,202.24,7.9253,4.3995,-0.8975,-0.8560,0.0309,2.7847,rough,15.5,1,3.662
6330,202.56,7.9254,4.3994,-0.8975,-0.8560,0.0309,2.7847,rough,15.5,1,3.662
6340,202.88,7.9254,4.3994,-0.8976,-0.8560,0.0309,2.7847,rough,15.5,1,3.662
6350,203.20,7.9254,4.3994,-0.8976,-0.8560,0.0309,2.7847,rough,15.5,1,3.662
6360,203.52,7.9254,4.3993,-0.8976,-0.8560,0.0309,2.7847,rough,15.5,1,3.662
6370,203.84,7.9255,4.3993,-0.8976,-0.8560,0.0309,2.7847,rough,15.5,1,3.662
6380,204.16,7.9255,4.3993,-0.8977,-0.8560,0.0309,2.7848,rough,15.5,1,3.662
6390,204.48,7.9255,4.3992,-0.8977,-0.8560,0.0309,2.7848,rough,15.5,1,3.662
6400,204.80,7.9255,4.3992,-0.8977,-0.8560,0.0309,2.7848,rough,15.5,1,3.662
6410,205.12,7.9256,4.3992,-0.8977,-0.8560,0.0309,2.7848,rough,15.5,1,3.662
6420,205.44,7.9256,4.3991,-0.8978,-0.8560,0.0309,2.7848,rough,15.5,1,3.662
6430,205.76,7.9256,4.3991,-0.8978,-0.8560,0.0308,2.7848,rough,15.5,1,3.662
6440,206.08,7.9256,4.3991,-0.8978,-0.8560,0.0308,2.7848,rough,15.5,1,3.662
6450,206.40,7.9257,4.3990,-0.8978,-0.8560,0.0308,2.7848,rough,15.5,1,3.663
6460,206.72,7.9257,4.3990,-0.8979,-0.8560,0.0308,2.7848,rough,15.5,1,3.663
6470,207.04,7.9257,4.3990,-0.8979,-0.8560,0.0308,2.7848,rough,15.5,1,3.663
6480,207.36,7.9257,4.3989,-0.8979,-0.8560,0.0308,2.7848,rough,15.5,1,3.663
6490,207.68,7.9258,4.3989,-0.8979,-0.8560,0.0308,2.7849,rough,15.5,1,3.663
6500,208.00,7.9258,4.3989,-0.8980,-0.8560,0.0308,2.7849,rough,15.5,1,3.663
6510,208.32,7.9258,4.3988,-0.8980,-0.8560,0.0308,2.7849,rough,15.5,1,3.663
6520,208.64,7.9258,4.3988,-0.8980,-0.8560,0.0308,2.7849,rough,15.5,1,3.663
6530,208.96,7.9259,4.3988,-0.8980,-0.8560,0.0308,2.7849,rough,15.5,1,3.663
6540,209.28,7.9259,4.3987,-0.8981,-0.8560,0.0308,2.7849,rough,15.5,1,3.663
6550,209.60,7.9259,4.3987,-0.8981,-0.8560,0.0308,2.7849,rough,15.5,1,3.663
6560,209.92,7.9259,4.3987,-0.8981,-0.8560,0.0307,2.7849,rough,15.5,1,3.663
6570,210.24,7.9260,4.3986,-0.8981,-0.8560,0.0307,2.7849,rough,15.5,1,3.663
6580,210.56,7.9260,4.3986,-0.8982,-0.8560,0.0307,2.7849,rough,15.5,1,3.663
6590,210.88,7.9260,4.3986,-0.8982,-0.8560,0.0307,2.7849,rough,15.5,1,3.663
6600,211.20,7.9260,4.3986,-0.8982,-0.8560,0.0307,2.7850,rough,15.5,1,3.663
6610,211.52,7.9261,4.3985,-0.8982,-0.8560,0.0307,2.7850,rough,15.5,1,3.663
6620,211.84,7.9261,4.3985,-0.8982,-0.8560,0.0307,2.7850,rough,15.5,1,3.663
6630,212.16,7.9261,4.3985,-0.8983,-0.8560,0.0307,2.7850,rough,15.5,1,3.663
6640,212.48,7.9261,4.3984,-0.8983,-0.8560,0.0307,2.7850,rough,15.5,1,3.663
6650,212.80,7.9262,4.3984,-0.8983,-0.8560,0.0307,2.7850,rough,15.5,1,3.663
6660,213.12,7.9262,4.3984,-0.8983,-0.8560,0.0307,2.7850,rough,15.5,1,3.663
6670,213.44,7.9262,4.3983,-0.8984,-0.8560,0.0307,2.7850,rough,15.5,1,3.663
6680,213.76,7.9262,4.3983,-0.8984,-0.8560,0.0307,2.7850,rough,15.5,1,3.663
6690,214.08,7.9263,4.3982,-0.8984,-0.8560,0.0306,2.7850,rough,15.5,1,3.663
6700,214.40,7.9263,4.3982,-0.8985,-0.8560,0.0306,2.7851,rough,15.5,1,3.663
6710,214.72,7.9263,4.3982,-0.8985,-0.8560,0.0306,2.7851,rough,15.5,1,3.663
6720,215.04,7.9263,4.3981,-0.8985,-0.8560,0.0306,2.7851,rough,15.5,1,3.663
6730,215.36,7.9264,4.3981,-0.8985,-0.8560,0.0306,2.7851,rough,15.5,1,3.664
6740,215.68,7.9264,4.3981,-0.8986,-0.8560,0.0306,2.7851,rough,15.5,1,3.664
6750,216.00,7.9264,4.3980,-0.8986,-0.8560,0.0306,2.7851,rough,15.5,1,3.664
6760,216.32,7.9264,4.3980,-0.8986,-0.8560,0.0306,2.7851,rough,15.5,1,3.664
6770,216.64,7.9265,4.3980,-0.8986,-0.8560,0.0306,2.7851,rough,15.5,1,3.664
6780,216.96,7.9265,4.3979,-0.8987,-0.8560,0.0306,2.7851,rough,15.5,1,3.664
6790,217.28,7.9265,4.3979,-0.8987,-0.8560,0.0306,2.7851,rough,15.5,1,3.664
6800,217.60,7.9265,4.3979,-0.8987,-0.8560,0.0306,2.7852,rough,15.5,1,3.664
6810,217.92,7.9266,4.3978,-0.8987,-0.8560,0.0305,2.7852,rough,15.5,1,3.664
6820,218.24,7.9266,4.3978,-0.8988,-0.8560,0.0305,2.7852,rough,15.5,1,3.664
6830,218.56,7.9266,4.3977,-0.8988,-0.8560,0.0305,2.7852,rough,15.5,1,3.664
6840,218.88,7.9266,4.3977,-0.8988,-0.8560,0.0305,2.7852,rough,15.5,1,3.664
6850,219.20,7.9267,4.3977,-0.8988,-0.8560,0.0305,2.7852,rough,15.5,1,3.664
6860,219.52,7.9267,4.3976,-0.8989,-0.8560,0.0305,2.7852,rough,15.5,1,3.664
6870,219.84,7.9267,4.3976,-0.8989,-0.8560,0.0305,2.7852,rough,15.5,1,3.664
6880,220.16,7.9268,4.3976,-0.8989,-0.8560,0.0305,2.7852,rough,15.5,1,3.664
6890,220.48,7.9268,4.3975,-0.8989,-0.8560,0.0305,2.7852,rough,15.5,1,3.664
6900,220.80,7.9268,4.3975,-0.8990,-0.8560,0.0305,2.7852,rough,15.5,1,3.664
6910,221.12,7.9268,4.3975,-0.8990,-0.8560,0.0305,2.7853,rough,15.5,1,3.664
6920,221.44,7.9269,4.3974,-0.8990,-0.8560,0.0305,2.7853,rough,15.5,1,3.664
6930,221.76,7.9269,4.3974,-0.8991,-0.8560,0.0304,2.7853,rough,15.5,1,3.664
6940,222.08,7.9269,4.3974,-0.8991,-0.8560,0.0304,2.7853,rough,15.5,1,3.664
6950,222.40,7.9269,4.3973,-0.8991,-0.8560,0.0304,2.7853,rough,15.5,1,3.664
6960,222.72,7.9270,4.3973,-0.8991,-0.8560,0.0304,2.7853,rough,15.5,1,3.664
6970,223.04,7.9270,4.3973,-0.8992,-0.8560,0.0304,2.7853,rough,15.5,1,3.664
6980,223.36,7.9270,4.3972,-0.8992,-0.8560,0.0304,2.7853,rough,15.5,1,3.664
6990,223.68,7.9270,4.3972,-0.8992,-0.8560,0.0304,2.7853,rough,15.5,1,3.664
7000,224.00,7.9271,4.3971,-0.8992,-0.8560,0.0304,2.7853,rough,15.5,1,3.665
7010,224.32,7.9271,4.3971,-0.8993,-0.8560,0.0304,2.7854,rough,15.5,1,3.665
7020,224.64,7.9271,4.3971,-0.8993,-0.8560,0.0304,2.7854,rough,15.5,1,3.665
7030,224.96,7.9271,4.3970,-0.8993,-0.8560,0.0304,2.7854,rough,15.5,1,3.665
7040,225.28,7.9272,4.3970,-0.8993,-0.8560,0.0304,2.7854,rough,15.5,1,3.665
7050,225.60,7.9272,4.3970,-0.8994,-0.8560,0.0303,2.7854,rough,15.5,1,3.665
7060,225.92,7.9272,4.3969,-0.8994,-0.8560,0.0303,2.7854,rough,15.5,1,3.665
7070,226.24,7.9272,4.3969,-0.8994,-0.8560,0.0303,2.7854,rough,15.5,1,3.665
7080,226.56,7.9273,4.3969,-0.8994,-0.8560,0.0303,2.7854,rough,15.5,1,3.665
7090,226.88,7.9273,4.3968,-0.8995,-0.8560,0.0303,2.7854,rough,15.5,1,3.665
7100,227.20,7.9273,4.3968,-0.8995,-0.8560,0.0303,2.7854,rough,15.5,1,3.665
7110,227.52,7.9273,4.3968,-0.8995,-0.8560,0.0303,2.7854,rough,15.5,1,3.665
7120,227.84,7.9274,4.3967,-0.8996,-0.8560,0.0303,2.7855,rough,15.5,1,3.665
7130,228.16,7.9274,4.3967,-0.8996,-0.8560,0.0303,2.7855,rough,15.5,1,3.665
7140,228.48,7.9274,4.3967,-0.8996,-0.8560,0.0303,2.7855,rough,15.5,1,3.665
7150,228.80,7.9274,4.3966,-0.8996,-0.8560,0.0303,2.7855,rough,15.5,1,3.665
7160,229.12,7.9275,4.3966,-0.8997,-0.8560,0.0303,2.7855,rough,15.5,1,3.665
7170,229.44,7.9275,4.3965,-0.8997,-0.8560,0.0302,2.7855,rough,15.5,1,3.665
7180,229.76,7.9275,4.3965,-0.8997,-0.8560,0.0302,2.7855,rough,15.5,1,3.665
7190,230.08,7.9275,4.3965,-0.8997,-0.8560,0.0302,2.7855,rough,15.5,1,3.665
7200,230.40,7.9276,4.3964,-0.8998,-0.8560,0.0302,2.7855,rough,15.5,1,3.665
7210,230.72,7.9276,4.3964,-0.8998,-0.8560,0.0302,2.7855,rough,15.5,1,3.665
7220,231.04,7.9276,4.3964,-0.8998,-0.8560,0.0302,2.7856,rough,15.5,1,3.665
7230,231.36,7.9276,4.3963,-0.8998,-0.8560,0.0302,2.7856,rough,15.5,1,3.665
7240,231.68,7.9277,4.3963,-0.8999,-0.8560,0.0302,2.7856,rough,15.5,1,3.665
7250,232.00,7.9277,4.3963,-0.8999,-0.8560,0.0302,2.7856,rough,15.5,1,3.665
7260,232.32,7.9277,4.3962,-0.8999,-0.8560,0.0302,2.7856,rough,15.5,1,3.665
7270,232.64,7.9277,4.3962,-0.8999,-0.8560,0.0302,2.7856,rough,15.5,1,3.665
7280,232.96,7.9278,4.3962,-0.9000,-0.8560,0.0302,2.7856,rough,15.5,1,3.666
7290,233.28,7.9278,4.3961,-0.9000,-0.8560,0.0301,2.7856,rough,15.5,1,3.666
7300,233.60,7.9278,4.3961,-0.9000,-0.8560,0.0301,2.7856,rough,15.5,1,3.666
7310,233.92,7.9278,4.3961,-0.9001,-0.8560,0.0301,2.7856,rough,15.5,1,3.666
7320,234.24,7.9279,4.3960,-0.9001,-0.8560,0.0301,2.7856,rough,15.5,1,3.666
7330,234.56,7.9279,4.3960,-0.9001,-0.8560,0.0301,2.7857,rough,15.5,1,3.666
7340,234.88,7.9279,4.3960,-0.9001,-0.8560,0.0301,2.7857,rough,15.5,1,3.666
7350,235.20,7.9279,4.3959,-0.9002,-0.8560,0.0301,2.7857,rough,15.5,1,3.666
7360,235.52,7.9280,4.3959,-0.9002,-0.8560,0.0301,2.7857,rough,15.5,1,3.666
7370,235.84,7.9280,4.3958,-0.9002,-0.8560,0.0301,2.7857,rough,15.5,1,3.666
7380,236.16,7.9280,4.3958,-0.9002,-0.8560,0.0301,2.7857,rough,15.5,1,3.666
7390,236.48,7.9280,4.3958,-0.9003,-0.8560,0.0301,2.7857,rough,15.5,1,3.666
7400,236.80,7.9281,4.3957,-0.9003,-0.8560,0.0301,2.7857,rough,15.5,1,3.666
7410,237.12,7.9281,4.3957,-0.9003,-0.8560,0.0300,2.7857,rough,15.5,1,3.666
7420,237.44,7.9281,4.3957,-0.9003,-0.8560,0.0300,2.7857,rough,15.5,1,3.666
7430,237.76,7.9281,4.3956,-0.9004,-0.8560,0.0300,2.7857,rough,15.5,1,3.666
7440,238.08,7.9282,4.3956,-0.9004,-0.8560,0.0300,2.7858,rough,15.5,1,3.666
7450,238.40,7.9282,4.3956,-0.9004,-0.8560,0.0300,2.7858,rough,15.5,1,3.666
7460,238.72,7.9282,4.3955,-0.9004,-0.8560,0.0300,2.7858,rough,15.5,1,3.666
7470,239.04,7.9282,4.3955,-0.9005,-0.8560,0.0300,2.7858,rough,15.5,1,3.666
7480,239.36,7.9283,4.3955,-0.9005,-0.8560,0.0300,2.7858,rough,15.5,1,3.666
7490,239.68,7.9283,4.3954,-0.9005,-0.8560,0.0300,2.7858,rough,15.5,1,3.666
7500,240.00,7.9283,4.3954,-0.9006,-0.8560,0.0300,2.7858,rough,15.5,1,3.666
7510,240.32,7.9283,4.3954,-0.9006,-0.8560,0.0300,2.7858,rough,15.5,1,3.666
7520,240.64,7.9284,4.3953,-0.9006,-0.8560,0.0300,2.7858,rough,15.5,1,3.666
7530,240.96,7.9284,4.3953,-0.9006,-0.8560,0.0299,2.7858,rough,15.5,1,3.666
7540,241.28,7.9284,4.3952,-0.9007,-0.8560,0.0299,2.7859,rough,15.5,1,3.666
7550,241.60,7.9284,4.3952,-0.9007,-0.8560,0.0299,2.7859,rough,15.5,1,3.667
7560,241.92,7.9285,4.3952,-0.9007,-0.8560,0.0299,2.7859,rough,15.5,1,3.667
7570,242.24,7.9285,4.3951,-0.9007,-0.8560,0.0299,2.7859,rough,15.5,1,3.667
7580,242.56,7.9285,4.3951,-0.9008,-0.8560,0.0299,2.7859,rough,15.5,1,3.667
7590,242.88,7.9285,4.3951,-0.9008,-0.8560,0.0299,2.7859,rough,15.5,1,3.667
7600,243.20,7.9286,4.3950,-0.9008,-0.8560,0.0299,2.7859,rough,15.5,1,3.667
7610,243.52,7.9286,4.3950,-0.9008,-0.8560,0.0299,2.7859,rough,15.5,1,3.667
7620,243.84,7.9286,4.3950,-0.9009,-0.8560,0.0299,2.7859,rough,15.5,1,3.667
7630,244.16,7.9286,4.3949,-0.9009,-0.8560,0.0299,2.7859,rough,15.5,1,3.667
7640,244.48,7.9287,4.3949,-0.9009,-0.8560,0.0299,2.7859,rough,15.5,1,3.667
7650,244.80,7.9287,4.3949,-0.9010,-0.8560,0.0299,2.7860,rough,15.5,1,3.667
7660,245.12,7.9287,4.3948,-0.9010,-0.8560,0.0298,2.7860,rough,15.5,1,3.667
7670,245.44,7.9287,4.3948,-0.9010,-0.8560,0.0298,2.7860,rough,15.5,1,3.667
7680,245.76,7.9288,4.3948,-0.9010,-0.8560,0.0298,2.7860,rough,15.5,1,3.667
7690,246.08,7.9288,4.3947,-0.9011,-0.8560,0.0298,2.7860,rough,15.5,1,3.667
7700,246.40,7.9288,4.3947,-0.9011,-0.8560,0.0298,2.7860,rough,15.5,1,3.667
7710,246.72,7.9288,4.3947,-0.9011,-0.8560,0.0298,2.7860,rough,15.5,1,3.667
7720,247.04,7.9289,4.3946,-0.9011,-0.8560,0.0298,2.7860,rough,15.5,1,3.667
7730,247.36,7.9289,4.3946,-0.9012,-0.8560,0.0298,2.7860,rough,15.5,1,3.667
7740,247.68,7.9289,4.3945,-0.9012,-0.8560,0.0298,2.7860,rough,15.5,1,3.667
7750,248.00,7.9289,4.3945,-0.9012,-0.8560,0.0298,2.7861,rough,15.5,1,3.667
7760,248.32,7.9290,4.3945,-0.9012,-0.8560,0.0298,2.7861,rough,15.5,1,3.667
7770,248.64,7.9290,4.3944,-0.9013,-0.8560,0.0298,2.7861,rough,15.5,1,3.667
7780,248.96,7.9290,4.3944,-0.9013,-0.8560,0.0297,2.7861,rough,15.5,1,3.667
7790,249.28,7.9290,4.3944,-0.9013,-0.8560,0.0297,2.7861,rough,15.5,1,3.667
7800,249.60,7.9291,4.3943,-0.9013,-0.8560,0.0297,2.7861,rough,15.5,1,3.667
7810,249.92,7.9291,4.3943,-0.9014,-0.8560,0.0297,2.7861,rough,15.5,1,3.667
7820,250.24,7.9291,4.3943,-0.9014,-0.8560,0.0297,2.7861,rough,15.5,1,3.667
7830,250.56,7.9291,4.3942,-0.9014,-0.8560,0.0297,2.7861,rough,15.5,1,3.668
7840,250.88,7.9292,4.3942,-0.9015,-0.8560,0.0297,2.7861,rough,15.5,1,3.668
7850,251.20,7.9292,4.3942,-0.9015,-0.8560,0.0297,2.7861,rough,15.5,1,3.668
7860,251.52,7.9292,4.3941,-0.9015,-0.8560,0.0297,2.7862,rough,15.5,1,3.668
7870,251.84,7.9292,4.3941,-0.9015,-0.8560,0.0297,2.7862,rough,15.5,1,3.668
7880,252.16,7.9292,4.3941,-0.9016,-0.8560,0.0297,2.7862,rough,15.5,1,3.668
7890,252.48,7.9293,4.3940,-0.9016,-0.8560,0.0297,2.7862,rough,15.5,1,3.668
7900,252.80,7.9293,4.3940,-0.9016,-0.8560,0.0296,2.7862,rough,15.5,1,3.668
7910,253.12,7.9293,4.3940,-0.9016,-0.8560,0.0296,2.7862,rough,15.5,1,3.668
7920,253.44,7.9293,4.3939,-0.9017,-0.8560,0.0296,2.7862,rough,15.5,1,3.668
7930,253.76,7.9294,4.3939,-0.9017,-0.8560,0.0296,2.7862,rough,15.5,1,3.668
7940,254.08,7.9294,4.3938,-0.9017,-0.8560,0.0296,2.7862,rough,15.5,1,3.668
7950,254.40,7.9294,4.3938,-0.9017,-0.8560,0.0296,2.7862,rough,15.5,1,3.668
7960,254.72,7.9294,4.3938,-0.9018,-0.8560,0.0296,2.7862,rough,15.5,1,3.668
7970,255.04,7.9295,4.3937,-0.9018,-0.8560,0.0296,2.7863,rough,15.5,1,3.668
7980,255.36,7.9295,4.3937,-0.9018,-0.8560,0.0296,2.7863,rough,15.5,1,3.668
7990,255.68,7.9295,4.3937,-0.9019,-0.8560,0.0296,2.7863,rough,15.5,1,3.668
8000,256.00,7.9295,4.3936,-0.9019,-0.8560,0.0296,2.7863,rough,15.5,1,3.668
8010,256.32,7.9296,4.3936,-0.9019,-0.8560,0.0296,2.7863,rough,15.5,1,3.668
8020,256.64,7.9296,4.3936,-0.9019,-0.8560,0.0296,2.7863,rough,15.5,1,3.668
8030,256.96,7.9296,4.3935,-0.9020,-0.8560,0.0295,2.7863,rough,15.5,1,3.668
8040,257.28,7.9296,4.3935,-0.9020,-0.8560,0.0295,2.7863,rough,15.5,1,3.668
