step,time_s,x,y,z,roll,pitch,yaw,terrain,speed,target_idx,dist_to_target
10,0.32,2.2018,0.4960,0.3149,0.0788,-0.0718,0.2236,rough,15.5,0,6.225
20,0.64,2.7437,0.6697,0.1955,-0.0484,0.3904,0.2681,rough,15.5,0,5.657
30,0.96,3.2274,0.8099,-0.0004,-0.0182,0.3592,0.2771,rough,15.5,0,5.154
40,1.28,3.6462,0.9453,-0.0957,-0.1027,0.0930,0.2910,rough,15.5,0,4.715
50,1.60,4.1473,1.1155,-0.1797,-0.2248,0.3004,0.2567,rough,15.5,0,4.188
60,1.92,4.6893,1.2472,-0.4243,-0.1263,0.7857,0.1537,rough,15.5,0,3.631
70,2.24,5.1096,1.3629,-0.5857,-0.0688,0.1240,0.1751,rough,15.5,0,3.195
80,2.56,5.6016,1.4781,-0.6624,-0.0134,0.1444,0.2419,rough,15.5,0,2.690
90,2.88,6.1103,1.6378,-0.8080,-0.1950,0.5536,0.2041,rough,15.5,0,2.160
100,3.20,6.5159,1.7969,-1.0162,-0.3807,0.3558,0.1985,rough,15.5,0,1.734
110,3.52,6.9512,1.9214,-1.1321,-0.4692,0.1988,0.1991,rough,15.5,0,1.287
120,3.84,7.4139,2.0398,-1.2196,-0.4850,0.1466,0.1666,rough,15.5,0,0.820
130,4.16,7.8081,2.1271,-1.3369,-0.3012,0.2882,0.3208,rough,15.5,1,4.891
140,4.48,8.0339,2.2466,-1.3736,-0.2434,0.1440,0.6044,rough,15.5,1,4.960
150,4.80,8.2611,2.4824,-1.4269,-0.1154,0.1153,0.8782,rough,15.5,1,4.965
160,5.12,8.4350,2.7838,-1.4547,-0.0252,0.0848,1.1069,rough,15.5,1,4.910
170,5.44,8.4929,3.0386,-1.4167,-0.1191,-0.3157,1.3684,rough,15.5,1,4.808
180,5.76,8.4701,3.3332,-1.3779,-0.3715,-0.4117,1.5878,rough,15.5,1,4.629
190,6.08,8.4373,3.5963,-1.2961,-0.4759,-0.3857,1.6086,rough,15.5,1,4.469
200,6.40,8.3715,3.8140,-1.2040,-0.6123,-0.5927,1.8505,rough,15.5,1,4.309
210,6.72,8.2802,4.0470,-1.0591,-0.6369,-0.5274,1.9347,rough,15.5,1,4.126
220,7.04,8.1267,4.2549,-0.9657,-0.6663,-0.4650,2.2224,rough,15.5,1,3.903
230,7.36,7.8374,4.4258,-0.9115,-0.7704,-0.3661,2.3764,rough,15.5,1,3.571
240,7.68,7.6859,4.5095,-0.9101,-0.8197,-0.0502,2.6246,rough,15.5,1,3.399
250,8.00,7.6754,4.5147,-0.9096,-0.8166,-0.0190,2.6531,rough,15.5,1,3.387
260,8.32,7.6747,4.5151,-0.9094,-0.8166,-0.0168,2.6551,rough,15.5,1,3.386
270,8.64,7.6694,4.5182,-0.9095,-0.8160,-0.0030,2.6640,rough,15.5,1,3.380
280,8.96,7.6686,4.5187,-0.9096,-0.8153,-0.0009,2.6645,rough,15.5,1,3.379
290,9.28,7.6683,4.5189,-0.9097,-0.8150,-0.0003,2.6647,rough,15.5,1,3.379
300,9.60,7.6681,4.5190,-0.9097,-0.8149,0.0003,2.6649,rough,15.5,1,3.379
310,9.92,7.6679,4.5191,-0.9097,-0.8147,0.0008,2.6653,rough,15.5,1,3.379
320,10.24,7.6677,4.5192,-0.9097,-0.8147,0.0014,2.6656,rough,15.5,1,3.378
330,10.56,7.6674,4.5194,-0.9097,-0.8146,0.0020,2.6660,rough,15.5,1,3.378
340,10.88,7.6672,4.5195,-0.9097,-0.8145,0.0025,2.6663,rough,15.5,1,3.378
350,11.20,7.6670,4.5196,-0.9097,-0.8145,0.0031,2.6667,rough,15.5,1,3.378
360,11.52,7.6667,4.5198,-0.9098,-0.8144,0.0037,2.6670,rough,15.5,1,3.377
370,11.84,7.6664,4.5199,-0.9098,-0.8144,0.0044,2.6674,rough,15.5,1,3.377
380,12.16,7.6661,4.5201,-0.9098,-0.8144,0.0051,2.6677,rough,15.5,1,3.377
390,12.48,7.6658,4.5203,-0.9098,-0.8143,0.0058,2.6681,rough,15.5,1,3.376
400,12.80,7.6655,4.5205,-0.9098,-0.8143,0.0065,2.6685,rough,15.5,1,3.376
410,13.12,7.6651,4.5207,-0.9099,-0.8142,0.0073,2.6689,rough,15.5,1,3.376
420,13.44,7.6648,4.5209,-0.9099,-0.8142,0.0080,2.6692,rough,15.5,1,3.375
430,13.76,7.6644,4.5211,-0.9099,-0.8142,0.0088,2.6696,rough,15.5,1,3.375
440,14.08,7.6640,4.5213,-0.9099,-0.8141,0.0096,2.6700,rough,15.5,1,3.374
450,14.40,7.6637,4.5214,-0.9100,-0.8141,0.0103,2.6705,rough,15.5,1,3.374
460,14.72,7.6636,4.5216,-0.9100,-0.8141,0.0109,2.6709,rough,15.5,1,3.374
470,15.04,7.6633,4.5217,-0.9100,-0.8141,0.0115,2.6714,rough,15.5,1,3.374
480,15.36,7.6631,4.5218,-0.9100,-0.8141,0.0120,2.6719,rough,15.5,1,3.373
490,15.68,7.6629,4.5219,-0.9100,-0.8141,0.0126,2.6723,rough,15.5,1,3.373
500,16.00,7.6627,4.5220,-0.9100,-0.8141,0.0132,2.6728,rough,15.5,1,3.373
510,16.32,7.6625,4.5221,-0.9100,-0.8140,0.0138,2.6732,rough,15.5,1,3.373
520,16.64,7.6623,4.5222,-0.9100,-0.8140,0.0144,2.6736,rough,15.5,1,3.372
530,16.96,7.6621,4.5223,-0.9101,-0.8140,0.0150,2.6741,rough,15.5,1,3.372
540,17.28,7.6619,4.5224,-0.9101,-0.8140,0.0156,2.6745,rough,15.5,1,3.372
550,17.60,7.6617,4.5225,-0.9101,-0.8140,0.0162,2.6750,rough,15.5,1,3.372
560,17.92,7.6615,4.5227,-0.9101,-0.8140,0.0168,2.6754,rough,15.5,1,3.371
570,18.24,7.6613,4.5228,-0.9101,-0.8140,0.0173,2.6759,rough,15.5,1,3.371
580,18.56,7.6611,4.5229,-0.9101,-0.8140,0.0179,2.6764,rough,15.5,1,3.371
590,18.88,7.6609,4.5230,-0.9101,-0.8139,0.0184,2.6769,rough,15.5,1,3.371
600,19.20,7.6607,4.5231,-0.9101,-0.8139,0.0190,2.6774,rough,15.5,1,3.371
610,19.52,7.6605,4.5232,-0.9101,-0.8139,0.0196,2.6779,rough,15.5,1,3.370
620,19.84,7.6603,4.5233,-0.9101,-0.8139,0.0201,2.6783,rough,15.5,1,3.370
630,20.16,7.6601,4.5234,-0.9101,-0.8139,0.0207,2.6788,rough,15.5,1,3.370
640,20.48,7.6600,4.5235,-0.9101,-0.8139,0.0213,2.6793,rough,15.5,1,3.370
650,20.80,7.6598,4.5236,-0.9101,-0.8139,0.0218,2.6798,rough,15.5,1,3.369
660,21.12,7.6596,4.5237,-0.9101,-0.8138,0.0224,2.6802,rough,15.5,1,3.369
670,21.44,7.6594,4.5238,-0.9101,-0.8138,0.0230,2.6807,rough,15.5,1,3.369
680,21.76,7.6592,4.5239,-0.9102,-0.8138,0.0236,2.6812,rough,15.5,1,3.369
690,22.08,7.6590,4.5240,-0.9102,-0.8138,0.0242,2.6817,rough,15.5,1,3.369
700,22.40,7.6588,4.5241,-0.9102,-0.8138,0.0247,2.6821,rough,15.5,1,3.368
710,22.72,7.6586,4.5242,-0.9102,-0.8138,0.0253,2.6826,rough,15.5,1,3.368
720,23.04,7.6584,4.5243,-0.9102,-0.8138,0.0259,2.6831,rough,15.5,1,3.368
730,23.36,7.6582,4.5244,-0.9102,-0.8137,0.0265,2.6835,rough,15.5,1,3.368
740,23.68,7.6580,4.5245,-0.9102,-0.8137,0.0271,2.6840,rough,15.5,1,3.367
750,24.00,7.6577,4.5246,-0.9102,-0.8137,0.0278,2.6845,rough,15.5,1,3.367
760,24.32,7.6575,4.5247,-0.9102,-0.8137,0.0284,2.6849,rough,15.5,1,3.367
770,24.64,7.6573,4.5248,-0.9103,-0.8137,0.0290,2.6854,rough,15.5,1,3.367
780,24.96,7.6571,4.5249,-0.9103,-0.8137,0.0296,2.6859,rough,15.5,1,3.366
790,25.28,7.6568,4.5251,-0.9103,-0.8136,0.0302,2.6864,rough,15.5,1,3.366
800,25.60,7.6566,4.5252,-0.9103,-0.8136,0.0308,2.6870,rough,15.5,1,3.366
810,25.92,7.6564,4.5253,-0.9103,-0.8136,0.0314,2.6875,rough,15.5,1,3.366
820,26.24,7.6561,4.5254,-0.9103,-0.8136,0.0321,2.6880,rough,15.5,1,3.365
830,26.56,7.6559,4.5255,-0.9104,-0.8135,0.0328,2.6884,rough,15.5,1,3.365
840,26.88,7.6556,4.5256,-0.9104,-0.8135,0.0335,2.6889,rough,15.5,1,3.365
850,27.20,7.6554,4.5258,-0.9104,-0.8135,0.0341,2.6894,rough,15.5,1,3.365
860,27.52,7.6552,4.5259,-0.9104,-0.8135,0.0348,2.6899,rough,15.5,1,3.364
870,27.84,7.6549,4.5260,-0.9104,-0.8134,0.0354,2.6904,rough,15.5,1,3.364
880,28.16,7.6547,4.5261,-0.9105,-0.8134,0.0360,2.6910,rough,15.5,1,3.364
890,28.48,7.6544,4.5262,-0.9105,-0.8134,0.0367,2.6915,rough,15.5,1,3.364
900,28.80,7.6542,4.5263,-0.9105,-0.8134,0.0373,2.6921,rough,15.5,1,3.363
910,29.12,7.6539,4.5265,-0.9105,-0.8133,0.0380,2.6926,rough,15.5,1,3.363
920,29.44,7.6536,4.5266,-0.9105,-0.8133,0.0387,2.6931,rough,15.5,1,3.363
930,29.76,7.6534,4.5267,-0.9106,-0.8133,0.0394,2.6936,rough,15.5,1,3.362
940,30.08,7.6532,4.5268,-0.9106,-0.8132,0.0401,2.6941,rough,15.5,1,3.362
950,30.40,7.6529,4.5269,-0.9106,-0.8132,0.0407,2.6947,rough,15.5,1,3.362
960,30.72,7.6527,4.5271,-0.9106,-0.8132,0.0414,2.6952,rough,15.5,1,3.362
970,31.04,7.6524,4.5272,-0.9107,-0.8132,0.0421,2.6957,rough,15.5,1,3.361
980,31.36,7.6521,4.5273,-0.9107,-0.8131,0.0428,2.6962,rough,15.5,1,3.361
990,31.68,7.6519,4.5274,-0.9107,-0.8131,0.0435,2.6967,rough,15.5,1,3.361
1000,32.00,7.6516,4.5276,-0.9108,-0.8130,0.0442,2.6971,rough,15.5,1,3.360
1010,32.32,7.6514,4.5277,-0.9108,-0.8130,0.0449,2.6977,rough,15.5,1,3.360
1020,32.64,7.6511,4.5278,-0.9108,-0.8130,0.0455,2.6982,rough,15.5,1,3.360
1030,32.96,7.6509,4.5279,-0.9108,-0.8129,0.0462,2.6987,rough,15.5,1,3.360
1040,33.28,7.6507,4.5280,-0.9109,-0.8129,0.0468,2.6992,rough,15.5,1,3.359
1050,33.60,7.6504,4.5281,-0.9109,-0.8129,0.0475,2.6997,rough,15.5,1,3.359
1060,33.92,7.6502,4.5282,-0.9109,-0.8128,0.0482,2.7002,rough,15.5,1,3.359
1070,34.24,7.6499,4.5283,-0.9109,-0.8128,0.0488,2.7007,rough,15.5,1,3.359
1080,34.56,7.6497,4.5285,-0.9110,-0.8128,0.0495,2.7013,rough,15.5,1,3.358
1090,34.88,7.6494,4.5286,-0.9110,-0.8127,0.0501,2.7018,rough,15.5,1,3.358
1100,35.20,7.6492,4.5287,-0.9110,-0.8127,0.0508,2.7024,rough,15.5,1,3.358
1110,35.52,7.6489,4.5288,-0.9110,-0.8127,0.0514,2.7029,rough,15.5,1,3.357
1120,35.84,7.6487,4.5289,-0.9111,-0.8126,0.0521,2.7034,rough,15.5,1,3.357
1130,36.16,7.6485,4.5290,-0.9111,-0.8125,0.0528,2.7039,rough,15.5,1,3.357
1140,36.48,7.6482,4.5291,-0.9111,-0.8125,0.0534,2.7044,rough,15.5,1,3.357
1150,36.80,7.6480,4.5292,-0.9111,-0.8125,0.0540,2.7049,rough,15.5,1,3.356
1160,37.12,7.6478,4.5293,-0.9112,-0.8125,0.0547,2.7055,rough,15.5,1,3.356
1170,37.44,7.6476,4.5294,-0.9112,-0.8124,0.0553,2.7060,rough,15.5,1,3.356
1180,37.76,7.6473,4.5296,-0.9112,-0.8124,0.0560,2.7065,rough,15.5,1,3.356
1190,38.08,7.6471,4.5297,-0.9112,-0.8124,0.0567,2.7070,rough,15.5,1,3.355
1200,38.40,7.6468,4.5298,-0.9113,-0.8123,0.0573,2.7075,rough,15.5,1,3.355
1210,38.72,7.6466,4.5299,-0.9113,-0.8123,0.0579,2.7080,rough,15.5,1,3.355
1220,39.04,7.6464,4.5300,-0.9113,-0.8122,0.0586,2.7086,rough,15.5,1,3.355
1230,39.36,7.6461,4.5301,-0.9113,-0.8122,0.0592,2.7091,rough,15.5,1,3.354
1240,39.68,7.6459,4.5302,-0.9114,-0.8122,0.0599,2.7096,rough,15.5,1,3.354
1250,40.00,7.6457,4.5303,-0.9114,-0.8121,0.0605,2.7101,rough,15.5,1,3.354
1260,40.32,7.6454,4.5304,-0.9114,-0.8121,0.0612,2.7106,rough,15.5,1,3.354
1270,40.64,7.6452,4.5305,-0.9114,-0.8120,0.0618,2.7111,rough,15.5,1,3.353
1280,40.96,7.6449,4.5306,-0.9115,-0.8120,0.0625,2.7116,rough,15.5,1,3.353
1290,41.28,7.6447,4.5307,-0.9115,-0.8120,0.0631,2.7121,rough,15.5,1,3.353
1300,41.60,7.6444,4.5308,-0.9115,-0.8119,0.0638,2.7126,rough,15.5,1,3.353
1310,41.92,7.6442,4.5309,-0.9116,-0.8119,0.0644,2.7131,rough,15.5,1,3.352
1320,42.24,7.6440,4.5310,-0.9116,-0.8118,0.0650,2.7137,rough,15.5,1,3.352
1330,42.56,7.6438,4.5311,-0.9116,-0.8118,0.0656,2.7142,rough,15.5,1,3.352
1340,42.88,7.6436,4.5312,-0.9116,-0.8117,0.0662,2.7147,rough,15.5,1,3.352
1350,43.20,7.6433,4.5313,-0.9117,-0.8117,0.0669,2.7152,rough,15.5,1,3.351
1360,43.52,7.6431,4.5314,-0.9117,-0.8117,0.0675,2.7158,rough,15.5,1,3.351
1370,43.84,7.6429,4.5315,-0.9117,-0.8116,0.0681,2.7163,rough,15.5,1,3.351
1380,44.16,7.6426,4.5316,-0.9117,-0.8116,0.0688,2.7168,rough,15.5,1,3.351
1390,44.48,7.6424,4.5317,-0.9118,-0.8115,0.0694,2.7173,rough,15.5,1,3.350
1400,44.80,7.6422,4.5318,-0.9118,-0.8115,0.0701,2.7178,rough,15.5,1,3.350
1410,45.12,7.6419,4.5319,-0.9118,-0.8115,0.0707,2.7183,rough,15.5,1,3.350
1420,45.44,7.6417,4.5320,-0.9119,-0.8114,0.0713,2.7188,rough,15.5,1,3.350
1430,45.76,7.6414,4.5321,-0.9119,-0.8114,0.0720,2.7193,rough,15.5,1,3.349
1440,46.08,7.6412,4.5322,-0.9119,-0.8113,0.0726,2.7198,rough,15.5,1,3.349
1450,46.40,7.6409,4.5323,-0.9120,-0.8113,0.0732,2.7203,rough,15.5,1,3.349
1460,46.72,7.6407,4.5324,-0.9120,-0.8112,0.0738,2.7209,rough,15.5,1,3.348
1470,47.04,7.6404,4.5325,-0.9120,-0.8112,0.0745,2.7214,rough,15.5,1,3.348
1480,47.36,7.6402,4.5326,-0.9121,-0.8111,0.0751,2.7219,rough,15.5,1,3.348
1490,47.68,7.6399,4.5327,-0.9121,-0.8111,0.0758,2.7225,rough,15.5,1,3.348
1500,48.00,7.6397,4.5328,-0.9121,-0.8111,0.0764,2.7230,rough,15.5,1,3.347
1510,48.32,7.6394,4.5329,-0.9122,-0.8110,0.0771,2.7236,rough,15.5,1,3.347
1520,48.64,7.6391,4.5330,-0.9122,-0.8109,0.0779,2.7243,rough,15.5,1,3.347
1530,48.96,7.6388,4.5332,-0.9123,-0.8108,0.0786,2.7250,rough,15.5,1,3.346
1540,49.28,7.6386,4.5333,-0.9123,-0.8108,0.0794,2.7254,rough,15.5,1,3.346
1550,49.60,7.6383,4.5334,-0.9124,-0.8107,0.0801,2.7258,rough,15.5,1,3.346
1560,49.92,7.6381,4.5335,-0.9124,-0.8107,0.0808,2.7263,rough,15.5,1,3.346
1570,50.24,7.6378,4.5336,-0.9124,-0.8106,0.0814,2.7268,rough,15.5,1,3.345
1580,50.56,7.6376,4.5337,-0.9125,-0.8106,0.0821,2.7272,rough,15.5,1,3.345
1590,50.88,7.6373,4.5338,-0.9125,-0.8106,0.0827,2.7277,rough,15.5,1,3.345
1600,51.20,7.6371,4.5339,-0.9126,-0.8105,0.0834,2.7282,rough,15.5,1,3.345
1610,51.52,7.6368,4.5340,-0.9126,-0.8105,0.0840,2.7287,rough,15.5,1,3.344
1620,51.84,7.6366,4.5341,-0.9126,-0.8104,0.0846,2.7293,rough,15.5,1,3.344
1630,52.16,7.6363,4.5342,-0.9127,-0.8104,0.0852,2.7298,rough,15.5,1,3.344
1640,52.48,7.6361,4.5343,-0.9127,-0.8103,0.0859,2.7303,rough,15.5,1,3.344
1650,52.80,7.6359,4.5344,-0.9128,-0.8102,0.0865,2.7308,rough,15.5,1,3.343
1660,53.12,7.6357,4.5345,-0.9128,-0.8102,0.0871,2.7314,rough,15.5,1,3.343
1670,53.44,7.6355,4.5345,-0.9128,-0.8101,0.0877,2.7319,rough,15.5,1,3.343
1680,53.76,7.6352,4.5346,-0.9128,-0.8101,0.0883,2.7324,rough,15.5,1,3.343
1690,54.08,7.6350,4.5347,-0.9129,-0.8100,0.0889,2.7329,rough,15.5,1,3.342
1700,54.40,7.6348,4.5348,-0.9129,-0.8100,0.0895,2.7334,rough,15.5,1,3.342
1710,54.72,7.6346,4.5349,-0.9129,-0.8099,0.0901,2.7339,rough,15.5,1,3.342
1720,55.04,7.6344,4.5350,-0.9130,-0.8099,0.0907,2.7344,rough,15.5,1,3.342
1730,55.36,7.6342,4.5351,-0.9130,-0.8098,0.0913,2.7349,rough,15.5,1,3.341
1740,55.68,7.6339,4.5352,-0.9130,-0.8098,0.0919,2.7354,rough,15.5,1,3.341
1750,56.00,7.6337,4.5352,-0.9131,-0.8097,0.0925,2.7359,rough,15.5,1,3.341
1760,56.32,7.6335,4.5353,-0.9131,-0.8097,0.0931,2.7365,rough,15.5,1,3.341
1770,56.64,7.6333,4.5354,-0.9131,-0.8096,0.0937,2.7370,rough,15.5,1,3.341
1780,56.96,7.6331,4.5355,-0.9131,-0.8096,0.0943,2.7375,rough,15.5,1,3.340
1790,57.28,7.6329,4.5356,-0.9132,-0.8095,0.0948,2.7380,rough,15.5,1,3.340
1800,57.60,7.6327,4.5357,-0.9132,-0.8095,0.0954,2.7385,rough,15.5,1,3.340
1810,57.92,7.6325,4.5357,-0.9132,-0.8094,0.0960,2.7390,rough,15.5,1,3.340
1820,58.24,7.6323,4.5358,-0.9132,-0.8094,0.0966,2.7395,rough,15.5,1,3.339
1830,58.56,7.6321,4.5359,-0.9133,-0.8093,0.0972,2.7400,rough,15.5,1,3.339
1840,58.88,7.6319,4.5360,-0.9133,-0.8093,0.0978,2.7405,rough,15.5,1,3.339
1850,59.20,7.6317,4.5361,-0.9133,-0.8092,0.0984,2.7410,rough,15.5,1,3.339
1860,59.52,7.6315,4.5362,-0.9133,-0.8092,0.0990,2.7415,rough,15.5,1,3.339
1870,59.84,7.6312,4.5362,-0.9134,-0.8091,0.0995,2.7421,rough,15.5,1,3.338
1880,60.16,7.6310,4.5363,-0.9134,-0.8091,0.1001,2.7426,rough,15.5,1,3.338
1890,60.48,7.6308,4.5364,-0.9134,-0.8090,0.1007,2.7431,rough,15.5,1,3.338
1900,60.80,7.6306,4.5365,-0.9135,-0.8089,0.1013,2.7436,rough,15.5,1,3.338
1910,61.12,7.6304,4.5366,-0.9135,-0.8089,0.1019,2.7440,rough,15.5,1,3.337
1920,61.44,7.6302,4.5366,-0.9135,-0.8088,0.1024,2.7445,rough,15.5,1,3.337
1930,61.76,7.6300,4.5367,-0.9136,-0.8088,0.1030,2.7450,rough,15.5,1,3.337
1940,62.08,7.6298,4.5368,-0.9136,-0.8087,0.1036,2.7455,rough,15.5,1,3.337
1950,62.40,7.6296,4.5369,-0.9136,-0.8087,0.1042,2.7460,rough,15.5,1,3.337
1960,62.72,7.6293,4.5370,-0.9137,-0.8086,0.1048,2.7465,rough,15.5,1,3.336
1970,63.04,7.6291,4.5371,-0.9137,-0.8086,0.1054,2.7469,rough,15.5,1,3.336
1980,63.36,7.6289,4.5371,-0.9137,-0.8085,0.1060,2.7474,rough,15.5,1,3.336
1990,63.68,7.6287,4.5372,-0.9138,-0.8085,0.1066,2.7479,rough,15.5,1,3.336
2000,64.00,7.6284,4.5373,-0.9138,-0.8084,0.1072,2.7483,rough,15.5,1,3.335
2010,64.32,7.6282,4.5374,-0.9139,-0.8084,0.1078,2.7488,rough,15.5,1,3.335
2020,64.64,7.6280,4.5375,-0.9139,-0.8083,0.1084,2.7493,rough,15.5,1,3.335
2030,64.96,7.6277,4.5376,-0.9139,-0.8082,0.1090,2.7498,rough,15.5,1,3.335
2040,65.28,7.6275,4.5377,-0.9140,-0.8082,0.1096,2.7502,rough,15.5,1,3.334
2050,65.60,7.6273,4.5378,-0.9140,-0.8081,0.1102,2.7507,rough,15.5,1,3.334
2060,65.92,7.6270,4.5379,-0.9141,-0.8081,0.1108,2.7512,rough,15.5,1,3.334
2070,66.24,7.6268,4.5380,-0.9141,-0.8080,0.1114,2.7517,rough,15.5,1,3.334
2080,66.56,7.6265,4.5380,-0.9141,-0.8080,0.1120,2.7521,rough,15.5,1,3.333
2090,66.88,7.6263,4.5381,-0.9142,-0.8079,0.1125,2.7526,rough,15.5,1,3.333
2100,67.20,7.6260,4.5382,-0.9142,-0.8078,0.1131,2.7531,rough,15.5,1,3.333
2110,67.52,7.6258,4.5383,-0.9143,-0.8077,0.1138,2.7536,rough,15.5,1,3.333
2120,67.84,7.6256,4.5384,-0.9143,-0.8077,0.1144,2.7541,rough,15.5,1,3.332
2130,68.16,7.6254,4.5385,-0.9144,-0.8076,0.1150,2.7545,rough,15.5,1,3.332
2140,68.48,7.6251,4.5386,-0.9144,-0.8076,0.1156,2.7550,rough,15.5,1,3.332
2150,68.80,7.6249,4.5386,-0.9144,-0.8075,0.1162,2.7555,rough,15.5,1,3.332
2160,69.12,7.6246,4.5387,-0.9145,-0.8074,0.1168,2.7559,rough,15.5,1,3.331
2170,69.44,7.6244,4.5388,-0.9145,-0.8074,0.1174,2.7564,rough,15.5,1,3.331
2180,69.76,7.6242,4.5389,-0.9146,-0.8073,0.1180,2.7569,rough,15.5,1,3.331
2190,70.08,7.6239,4.5390,-0.9146,-0.8073,0.1186,2.7574,rough,15.5,1,3.330
2200,70.40,7.6237,4.5391,-0.9147,-0.8072,0.1192,2.7578,rough,15.5,1,3.330
2210,70.72,7.6234,4.5392,-0.9147,-0.8071,0.1198,2.7583,rough,15.5,1,3.330
2220,71.04,7.6232,4.5393,-0.9148,-0.8071,0.1204,2.7588,rough,15.5,1,3.330
2230,71.36,7.6229,4.5393,-0.9148,-0.8070,0.1210,2.7593,rough,15.5,1,3.329
2240,71.68,7.6227,4.5394,-0.9149,-0.8069,0.1216,2.7598,rough,15.5,1,3.329
2250,72.00,7.6224,4.5395,-0.9149,-0.8069,0.1223,2.7603,rough,15.5,1,3.329
2260,72.32,7.6222,4.5396,-0.9150,-0.8068,0.1228,2.7607,rough,15.5,1,3.329
2270,72.64,7.6219,4.5397,-0.9150,-0.8068,0.1234,2.7612,rough,15.5,1,3.328
2280,72.96,7.6217,4.5398,-0.9151,-0.8067,0.1240,2.7616,rough,15.5,1,3.328
2290,73.28,7.6215,4.5398,-0.9151,-0.8067,0.1245,2.7622,rough,15.5,1,3.328
2300,73.60,7.6213,4.5399,-0.9151,-0.8066,0.1251,2.7627,rough,15.5,1,3.328
2310,73.92,7.6211,4.5399,-0.9152,-0.8066,0.1256,2.7632,rough,15.5,1,3.328
2320,74.24,7.6209,4.5400,-0.9152,-0.8066,0.1262,2.7636,rough,15.5,1,3.327
2330,74.56,7.6207,4.5401,-0.9152,-0.8065,0.1267,2.7641,rough,15.5,1,3.327
2340,74.88,7.6205,4.5401,-0.9153,-0.8065,0.1272,2.7646,rough,15.5,1,3.327
2350,75.20,7.6203,4.5402,-0.9153,-0.8064,0.1278,2.7650,rough,15.5,1,3.327
2360,75.52,7.6201,4.5403,-0.9153,-0.8064,0.1283,2.7655,rough,15.5,1,3.326
2370,75.84,7.6199,4.5403,-0.9154,-0.8064,0.1288,2.7659,rough,15.5,1,3.326
2380,76.16,7.6197,4.5404,-0.9154,-0.8063,0.1294,2.7664,rough,15.5,1,3.326
2390,76.48,7.6195,4.5405,-0.9154,-0.8063,0.1299,2.7668,rough,15.5,1,3.326
2400,76.80,7.6194,4.5405,-0.9155,-0.8063,0.1304,2.7673,rough,15.5,1,3.326
2410,77.12,7.6192,4.5406,-0.9155,-0.8063,0.1309,2.7677,rough,15.5,1,3.325
2420,77.44,7.6190,4.5406,-0.9155,-0.8063,0.1314,2.7681,rough,15.5,1,3.325
2430,77.76,7.6188,4.5407,-0.9155,-0.8063,0.1319,2.7686,rough,15.5,1,3.325
2440,78.08,7.6186,4.5407,-0.9156,-0.8063,0.1324,2.7690,rough,15.5,1,3.325
2450,78.40,7.6184,4.5408,-0.9156,-0.8063,0.1329,2.7694,rough,15.5,1,3.325
2460,78.72,7.6182,4.5409,-0.9156,-0.8063,0.1334,2.7698,rough,15.5,1,3.324
2470,79.04,7.6180,4.5409,-0.9157,-0.8062,0.1339,2.7702,rough,15.5,1,3.324
2480,79.36,7.6178,4.5410,-0.9157,-0.8062,0.1344,2.7706,rough,15.5,1,3.324
2490,79.68,7.6176,4.5411,-0.9157,-0.8062,0.1349,2.7710,rough,15.5,1,3.324
2500,80.00,7.6174,4.5411,-0.9158,-0.8062,0.1354,2.7714,rough,15.5,1,3.324
2510,80.32,7.6172,4.5412,-0.9158,-0.8061,0.1359,2.7718,rough,15.5,1,3.323
2520,80.64,7.6170,4.5413,-0.9158,-0.8061,0.1364,2.7722,rough,15.5,1,3.323
2530,80.96,7.6168,4.5413,-0.9159,-0.8061,0.1369,2.7726,rough,15.5,1,3.323
2540,81.28,7.6166,4.5414,-0.9159,-0.8061,0.1374,2.7730,rough,15.5,1,3.323
2550,81.60,7.6164,4.5415,-0.9159,-0.8060,0.1379,2.7734,rough,15.5,1,3.323
2560,81.92,7.6162,4.5415,-0.9160,-0.8060,0.1384,2.7738,rough,15.5,1,3.322
2570,82.24,7.6160,4.5416,-0.9160,-0.8060,0.1389,2.7742,rough,15.5,1,3.322
2580,82.56,7.6158,4.5416,-0.9160,-0.8060,0.1394,2.7746,rough,15.5,1,3.322
2590,82.88,7.6156,4.5417,-0.9161,-0.8060,0.1399,2.7750,rough,15.5,1,3.322
2600,83.20,7.6154,4.5418,-0.9161,-0.8059,0.1404,2.7754,rough,15.5,1,3.322
2610,83.52,7.6152,4.5418,-0.9161,-0.8059,0.1409,2.7758,rough,15.5,1,3.321
2620,83.84,7.6150,4.5419,-0.9162,-0.8059,0.1414,2.7762,rough,15.5,1,3.321
2630,84.16,7.6148,4.5420,-0.9162,-0.8058,0.1419,2.7766,rough,15.5,1,3.321
2640,84.48,7.6146,4.5420,-0.9162,-0.8058,0.1424,2.7770,rough,15.5,1,3.321
2650,84.80,7.6144,4.5421,-0.9163,-0.8058,0.1429,2.7774,rough,15.5,1,3.321
2660,85.12,7.6142,4.5422,-0.9163,-0.8058,0.1434,2.7778,rough,15.5,1,3.320
2670,85.44,7.6140,4.5422,-0.9164,-0.8058,0.1439,2.7782,rough,15.5,1,3.320
2680,85.76,7.6138,4.5423,-0.9164,-0.8058,0.1444,2.7786,rough,15.5,1,3.320
2690,86.08,7.6136,4.5423,-0.9164,-0.8058,0.1449,2.7790,rough,15.5,1,3.320
2700,86.40,7.6133,4.5424,-0.9165,-0.8058,0.1454,2.7794,rough,15.5,1,3.319
2710,86.72,7.6131,4.5425,-0.9165,-0.8058,0.1459,2.7798,rough,15.5,1,3.319
2720,87.04,7.6129,4.5425,-0.9166,-0.8058,0.1465,2.7802,rough,15.5,1,3.319
2730,87.36,7.6127,4.5426,-0.9166,-0.8058,0.1470,2.7806,rough,15.5,1,3.319
2740,87.68,7.6124,4.5427,-0.9167,-0.8058,0.1475,2.7810,rough,15.5,1,3.318
2750,88.00,7.6122,4.5427,-0.9167,-0.8058,0.1480,2.7814,rough,15.5,1,3.318
2760,88.32,7.6120,4.5428,-0.9167,-0.8058,0.1486,2.7818,rough,15.5,1,3.318
2770,88.64,7.6117,4.5429,-0.9168,-0.8058,0.1491,2.7822,rough,15.5,1,3.318
2780,88.96,7.6115,4.5429,-0.9168,-0.8058,0.1496,2.7827,rough,15.5,1,3.317
2790,89.28,7.6113,4.5430,-0.9169,-0.8058,0.1501,2.7831,rough,15.5,1,3.317
2800,89.60,7.6110,4.5431,-0.9169,-0.8058,0.1506,2.7835,rough,15.5,1,3.317
2810,89.92,7.6108,4.5431,-0.9169,-0.8058,0.1512,2.7840,rough,15.5,1,3.317
2820,90.24,7.6106,4.5432,-0.9170,-0.8058,0.1517,2.7844,rough,15.5,1,3.317
2830,90.56,7.6103,4.5433,-0.9170,-0.8058,0.1522,2.7848,rough,15.5,1,3.316
2840,90.88,7.6101,4.5433,-0.9171,-0.8058,0.1528,2.7853,rough,15.5,1,3.316
2850,91.20,7.6099,4.5434,-0.9171,-0.8057,0.1534,2.7857,rough,15.5,1,3.316
2860,91.52,7.6096,4.5435,-0.9172,-0.8057,0.1540,2.7861,rough,15.5,1,3.316
2870,91.84,7.6094,4.5435,-0.9172,-0.8057,0.1545,2.7865,rough,15.5,1,3.315
2880,92.16,7.6092,4.5436,-0.9173,-0.8057,0.1551,2.7869,rough,15.5,1,3.315
2890,92.48,7.6090,4.5437,-0.9173,-0.8057,0.1556,2.7874,rough,15.5,1,3.315
2900,92.80,7.6088,4.5437,-0.9173,-0.8057,0.1561,2.7878,rough,15.5,1,3.315
2910,93.12,7.6085,4.5438,-0.9174,-0.8057,0.1567,2.7882,rough,15.5,1,3.314
2920,93.44,7.6083,4.5438,-0.9174,-0.8057,0.1572,2.7887,rough,15.5,1,3.314
2930,93.76,7.6081,4.5439,-0.9175,-0.8057,0.1578,2.7891,rough,15.5,1,3.314
2940,94.08,7.6078,4.5440,-0.9175,-0.8057,0.1583,2.7895,rough,15.5,1,3.314
2950,94.40,7.6076,4.5440,-0.9176,-0.8057,0.1589,2.7900,rough,15.5,1,3.313
2960,94.72,7.6074,4.5441,-0.9176,-0.8057,0.1594,2.7904,rough,15.5,1,3.313
2970,95.04,7.6071,4.5442,-0.9177,-0.8057,0.1599,2.7909,rough,15.5,1,3.313
2980,95.36,7.6069,4.5442,-0.9177,-0.8057,0.1605,2.7913,rough,15.5,1,3.313
2990,95.68,7.6067,4.5443,-0.9177,-0.8056,0.1611,2.7918,rough,15.5,1,3.313
3000,96.00,7.6065,4.5444,-0.9178,-0.8056,0.1616,2.7922,rough,15.5,1,3.312
3010,96.32,7.6062,4.5444,-0.9178,-0.8056,0.1622,2.7927,rough,15.5,1,3.312
3020,96.64,7.6060,4.5445,-0.9179,-0.8056,0.1627,2.7931,rough,15.5,1,3.312
3030,96.96,7.6058,4.5446,-0.9179,-0.8056,0.1633,2.7936,rough,15.5,1,3.312
3040,97.28,7.6055,4.5446,-0.9180,-0.8056,0.1639,2.7941,rough,15.5,1,3.311
3050,97.60,7.6053,4.5447,-0.9180,-0.8056,0.1644,2.7946,rough,15.5,1,3.311
3060,97.92,7.6050,4.5447,-0.9180,-0.8056,0.1650,2.7951,rough,15.5,1,3.311
3070,98.24,7.6048,4.5448,-0.9181,-0.8056,0.1656,2.7957,rough,15.5,1,3.311
3080,98.56,7.6045,4.5449,-0.9181,-0.8056,0.1662,2.7963,rough,15.5,1,3.310
3090,98.88,7.6043,4.5450,-0.9182,-0.8056,0.1669,2.7969,rough,15.5,1,3.310
3100,99.20,7.6041,4.5450,-0.9182,-0.8055,0.1675,2.7973,rough,15.5,1,3.310
3110,99.52,7.6039,4.5451,-0.9182,-0.8055,0.1681,2.7978,rough,15.5,1,3.310
3120,99.84,7.6036,4.5452,-0.9183,-0.8055,0.1687,2.7984,rough,15.5,1,3.309
3130,100.16,7.6034,4.5452,-0.9183,-0.8055,0.1693,2.7989,rough,15.5,1,3.309
3140,100.48,7.6032,4.5453,-0.9183,-0.8054,0.1698,2.7994,rough,15.5,1,3.309
3150,100.80,7.6031,4.5453,-0.9183,-0.8054,0.1704,2.7999,rough,15.5,1,3.309
3160,101.12,7.6029,4.5454,-0.9184,-0.8054,0.1709,2.8003,rough,15.5,1,3.309
3170,101.44,7.6027,4.5454,-0.9184,-0.8053,0.1714,2.8008,rough,15.5,1,3.308
3180,101.76,7.6025,4.5455,-0.9184,-0.8053,0.1719,2.8013,rough,15.5,1,3.308
3190,102.08,7.6023,4.5455,-0.9185,-0.8053,0.1724,2.8018,rough,15.5,1,3.308
3200,102.40,7.6021,4.5456,-0.9185,-0.8053,0.1730,2.8022,rough,15.5,1,3.308
3210,102.72,7.6019,4.5456,-0.9185,-0.8053,0.1735,2.8027,rough,15.5,1,3.308
3220,103.04,7.6017,4.5457,-0.9186,-0.8052,0.1740,2.8033,rough,15.5,1,3.307
3230,103.36,7.6015,4.5457,-0.9186,-0.8052,0.1746,2.8037,rough,15.5,1,3.307
3240,103.68,7.6013,4.5458,-0.9186,-0.8052,0.1751,2.8042,rough,15.5,1,3.307
3250,104.00,7.6011,4.5458,-0.9187,-0.8052,0.1756,2.8047,rough,15.5,1,3.307
3260,104.32,7.6009,4.5459,-0.9187,-0.8051,0.1761,2.8052,rough,15.5,1,3.307
3270,104.64,7.6007,4.5460,-0.9187,-0.8051,0.1767,2.8057,rough,15.5,1,3.306
3280,104.96,7.6005,4.5460,-0.9187,-0.8051,0.1772,2.8062,rough,15.5,1,3.306
3290,105.28,7.6003,4.5461,-0.9188,-0.8051,0.1778,2.8067,rough,15.5,1,3.306
3300,105.60,7.6001,4.5461,-0.9188,-0.8051,0.1783,2.8072,rough,15.5,1,3.306
3310,105.92,7.5999,4.5462,-0.9188,-0.8050,0.1789,2.8077,rough,15.5,1,3.306
3320,106.24,7.5997,4.5462,-0.9189,-0.8050,0.1795,2.8082,rough,15.5,1,3.305
3330,106.56,7.5995,4.5463,-0.9189,-0.8050,0.1801,2.8088,rough,15.5,1,3.305
3340,106.88,7.5993,4.5464,-0.9189,-0.8050,0.1807,2.8093,rough,15.5,1,3.305
3350,107.20,7.5990,4.5464,-0.9190,-0.8050,0.1812,2.8098,rough,15.5,1,3.305
3360,107.52,7.5988,4.5465,-0.9190,-0.8049,0.1818,2.8103,rough,15.5,1,3.304
3370,107.84,7.5986,4.5466,-0.9190,-0.8049,0.1825,2.8109,rough,15.5,1,3.304
3380,108.16,7.5983,4.5466,-0.9191,-0.8049,0.1831,2.8114,rough,15.5,1,3.304
3390,108.48,7.5981,4.5467,-0.9191,-0.8049,0.1837,2.8120,rough,15.5,1,3.304
3400,108.80,7.5978,4.5468,-0.9192,-0.8048,0.1843,2.8125,rough,15.5,1,3.303
3410,109.12,7.5976,4.5468,-0.9192,-0.8048,0.1849,2.8130,rough,15.5,1,3.303
3420,109.44,7.5973,4.5469,-0.9192,-0.8048,0.1856,2.8136,rough,15.5,1,3.303
3430,109.76,7.5971,4.5470,-0.9193,-0.8048,0.1862,2.8142,rough,15.5,1,3.303
3440,110.08,7.5968,4.5470,-0.9193,-0.8047,0.1869,2.8147,rough,15.5,1,3.302
3450,110.40,7.5966,4.5471,-0.9194,-0.8047,0.1875,2.8153,rough,15.5,1,3.302
3460,110.72,7.5963,4.5472,-0.9194,-0.8047,0.1882,2.8160,rough,15.5,1,3.302
3470,111.04,7.5960,4.5473,-0.9195,-0.8046,0.1889,2.8165,rough,15.5,1,3.302
3480,111.36,7.5958,4.5473,-0.9195,-0.8046,0.1895,2.8169,rough,15.5,1,3.301
3490,111.68,7.5956,4.5474,-0.9196,-0.8046,0.1901,2.8174,rough,15.5,1,3.301
3500,112.00,7.5953,4.5475,-0.9196,-0.8045,0.1907,2.8180,rough,15.5,1,3.301
3510,112.32,7.5950,4.5475,-0.9197,-0.8045,0.1913,2.8185,rough,15.5,1,3.300
3520,112.64,7.5948,4.5476,-0.9197,-0.8045,0.1920,2.8190,rough,15.5,1,3.300
3530,112.96,7.5945,4.5477,-0.9198,-0.8045,0.1926,2.8196,rough,15.5,1,3.300
3540,113.28,7.5943,4.5477,-0.9198,-0.8044,0.1932,2.8201,rough,15.5,1,3.300
3550,113.60,7.5940,4.5478,-0.9199,-0.8044,0.1939,2.8207,rough,15.5,1,3.299
3560,113.92,7.5938,4.5479,-0.9199,-0.8044,0.1945,2.8212,rough,15.5,1,3.299
3570,114.24,7.5935,4.5479,-0.9199,-0.8043,0.1951,2.8219,rough,15.5,1,3.299
3580,114.56,7.5933,4.5480,-0.9200,-0.8043,0.1958,2.8225,rough,15.5,1,3.299
3590,114.88,7.5930,4.5481,-0.9200,-0.8043,0.1965,2.8231,rough,15.5,1,3.298
3600,115.20,7.5928,4.5481,-0.9201,-0.8042,0.1971,2.8237,rough,15.5,1,3.298
3610,115.52,7.5925,4.5482,-0.9201,-0.8042,0.1978,2.8243,rough,15.5,1,3.298
3620,115.84,7.5922,4.5483,-0.9202,-0.8042,0.1985,2.8249,rough,15.5,1,3.298
3630,116.16,7.5919,4.5483,-0.9202,-0.8041,0.1992,2.8255,rough,15.5,1,3.297
3640,116.48,7.5917,4.5484,-0.9203,-0.8041,0.1999,2.8261,rough,15.5,1,3.297
3650,116.80,7.5914,4.5486,-0.9203,-0.8037,0.2005,2.8268,rough,15.5,1,3.297
3660,117.12,7.5912,4.5487,-0.9204,-0.8034,0.2012,2.8272,rough,15.5,1,3.296
3670,117.44,7.5909,4.5488,-0.9205,-0.8032,0.2018,2.8277,rough,15.5,1,3.296
3680,117.76,7.5907,4.5489,-0.9205,-0.8031,0.2025,2.8283,rough,15.5,1,3.296
3690,118.08,7.5904,4.5489,-0.9206,-0.8030,0.2032,2.8288,rough,15.5,1,3.296
3700,118.40,7.5902,4.5490,-0.9206,-0.8029,0.2038,2.8293,rough,15.5,1,3.295
3710,118.72,7.5899,4.5491,-0.9207,-0.8029,0.2044,2.8299,rough,15.5,1,3.295
3720,119.04,7.5897,4.5491,-0.9207,-0.8028,0.2050,2.8305,rough,15.5,1,3.295
3730,119.36,7.5895,4.5492,-0.9207,-0.8027,0.2057,2.8312,rough,15.5,1,3.295
3740,119.68,7.5892,4.5492,-0.9208,-0.8027,0.2063,2.8319,rough,15.5,1,3.294
3750,120.00,7.5890,4.5493,-0.9208,-0.8027,0.2070,2.8325,rough,15.5,1,3.294
3760,120.32,7.5888,4.5493,-0.9208,-0.8026,0.2076,2.8331,rough,15.5,1,3.294
3770,120.64,7.5885,4.5494,-0.9209,-0.8026,0.2083,2.8338,rough,15.5,1,3.294
3780,120.96,7.5883,4.5495,-0.9209,-0.8025,0.2090,2.8344,rough,15.5,1,3.293
3790,121.28,7.5880,4.5495,-0.9210,-0.8025,0.2097,2.8351,rough,15.5,1,3.293
3800,121.60,7.5878,4.5496,-0.9210,-0.8024,0.2103,2.8357,rough,15.5,1,3.293
3810,121.92,7.5875,4.5497,-0.9210,-0.8024,0.2110,2.8363,rough,15.5,1,3.293
3820,122.24,7.5873,4.5497,-0.9211,-0.8023,0.2117,2.8370,rough,15.5,1,3.292
3830,122.56,7.5870,4.5498,-0.9211,-0.8023,0.2124,2.8376,rough,15.5,1,3.292
3840,122.88,7.5867,4.5499,-0.9212,-0.8023,0.2131,2.8383,rough,15.5,1,3.292
3850,123.20,7.5865,4.5499,-0.9212,-0.8022,0.2138,2.8389,rough,15.5,1,3.292
3860,123.52,7.5862,4.5500,-0.9213,-0.8022,0.2145,2.8396,rough,15.5,1,3.291
3870,123.84,7.5859,4.5501,-0.9213,-0.8021,0.2153,2.8402,rough,15.5,1,3.291
3880,124.16,7.5857,4.5501,-0.9213,-0.8020,0.2160,2.8409,rough,15.5,1,3.291
3890,124.48,7.5854,4.5502,-0.9214,-0.8020,0.2166,2.8415,rough,15.5,1,3.291
3900,124.80,7.5852,4.5503,-0.9214,-0.8019,0.2173,2.8422,rough,15.5,1,3.290
3910,125.12,7.5850,4.5503,-0.9215,-0.8018,0.2180,2.8429,rough,15.5,1,3.290
3920,125.44,7.5847,4.5504,-0.9215,-0.8018,0.2187,2.8436,rough,15.5,1,3.290
3930,125.76,7.5845,4.5504,-0.9215,-0.8017,0.2193,2.8442,rough,15.5,1,3.290
3940,126.08,7.5842,4.5505,-0.9216,-0.8017,0.2200,2.8448,rough,15.5,1,3.289
3950,126.40,7.5840,4.5506,-0.9216,-0.8016,0.2207,2.8454,rough,15.5,1,3.289
3960,126.72,7.5837,4.5506,-0.9217,-0.8015,0.2214,2.8461,rough,15.5,1,3.289
3970,127.04,7.5835,4.5507,-0.9217,-0.8015,0.2221,2.8467,rough,15.5,1,3.289
3980,127.36,7.5832,4.5508,-0.9218,-0.8014,0.2227,2.8473,rough,15.5,1,3.288
3990,127.68,7.5829,4.5508,-0.9218,-0.8014,0.2234,2.8479,rough,15.5,1,3.288
4000,128.00,7.5827,4.5509,-0.9219,-0.8013,0.2241,2.8486,rough,15.5,1,3.288
4010,128.32,7.5824,4.5509,-0.9219,-0.8013,0.2248,2.8492,rough,15.5,1,3.287
4020,128.64,7.5822,4.5510,-0.9220,-0.8012,0.2254,2.8498,rough,15.5,1,3.287
4030,128.96,7.5819,4.5511,-0.9220,-0.8011,0.2261,2.8505,rough,15.5,1,3.287
4040,129.28,7.5816,4.5511,-0.9221,-0.8011,0.2268,2.8511,rough,15.5,1,3.287
4050,129.60,7.5813,4.5512,-0.9221,-0.8010,0.2275,2.8518,rough,15.5,1,3.286
4060,129.92,7.5810,4.5513,-0.9222,-0.8010,0.2283,2.8524,rough,15.5,1,3.286
4070,130.24,7.5808,4.5513,-0.9222,-0.8009,0.2290,2.8531,rough,15.5,1,3.286
4080,130.56,7.5805,4.5514,-0.9223,-0.8009,0.2297,2.8537,rough,15.5,1,3.285
4090,130.88,7.5802,4.5515,-0.9223,-0.8008,0.2305,2.8544,rough,15.5,1,3.285
4100,131.20,7.5799,4.5515,-0.9224,-0.8008,0.2312,2.8552,rough,15.5,1,3.285
4110,131.52,7.5796,4.5516,-0.9224,-0.8007,0.2320,2.8559,rough,15.5,1,3.285
4120,131.84,7.5793,4.5517,-0.9225,-0.8007,0.2327,2.8566,rough,15.5,1,3.284
4130,132.16,7.5790,4.5518,-0.9225,-0.8006,0.2335,2.8573,rough,15.5,1,3.284
4140,132.48,7.5787,4.5518,-0.9226,-0.8005,0.2342,2.8580,rough,15.5,1,3.284
4150,132.80,7.5785,4.5519,-0.9227,-0.8004,0.2349,2.8585,rough,15.5,1,3.283
4160,133.12,7.5782,4.5520,-0.9227,-0.8003,0.2356,2.8592,rough,15.5,1,3.283
4170,133.44,7.5779,4.5520,-0.9228,-0.8003,0.2363,2.8598,rough,15.5,1,3.283
4180,133.76,7.5779,4.5529,-0.9232,-0.7970,0.2373,2.8610,rough,15.5,1,3.283
4190,134.08,7.5778,4.5539,-0.9237,-0.7917,0.2388,2.8629,rough,15.5,1,3.282
4200,134.40,7.5777,4.5547,-0.9241,-0.7872,0.2404,2.8648,rough,15.5,1,3.282
4210,134.72,7.5776,4.5553,-0.9243,-0.7841,0.2412,2.8654,rough,15.5,1,3.281
4220,135.04,7.5775,4.5559,-0.9246,-0.7804,0.2424,2.8670,rough,15.5,1,3.281
4230,135.36,7.5775,4.5564,-0.9248,-0.7777,0.2431,2.8675,rough,15.5,1,3.281
4240,135.68,7.5774,4.5569,-0.9251,-0.7744,0.2441,2.8689,rough,15.5,1,3.281
4250,136.00,7.5773,4.5574,-0.9254,-0.7711,0.2452,2.8703,rough,15.5,1,3.280
4260,136.32,7.5596,4.5662,-0.9316,-0.7313,0.2991,2.9233,rough,15.5,1,3.261
4270,136.64,7.5387,4.5722,-0.9379,-0.6935,0.3641,2.9940,rough,15.5,1,3.239
4280,136.96,7.5382,4.5719,-0.9379,-0.6947,0.3657,2.9958,rough,15.5,1,3.239
4290,137.28,7.5378,4.5720,-0.9381,-0.6945,0.3664,2.9968,rough,15.5,1,3.238
4300,137.60,7.5375,4.5721,-0.9382,-0.6940,0.3671,2.9976,rough,15.5,1,3.238
4310,137.92,7.5372,4.5723,-0.9383,-0.6935,0.3677,2.9984,rough,15.5,1,3.238
4320,138.24,7.5370,4.5724,-0.9385,-0.6929,0.3683,2.9991,rough,15.5,1,3.237
4330,138.56,7.5367,4.5725,-0.9386,-0.6923,0.3689,2.9997,rough,15.5,1,3.237
4340,138.88,7.5364,4.5727,-0.9387,-0.6916,0.3697,3.0002,rough,15.5,1,3.237
4350,139.20,7.5361,4.5729,-0.9388,-0.6910,0.3704,3.0009,rough,15.5,1,3.236
4360,139.52,7.5358,4.5731,-0.9390,-0.6902,0.3711,3.0014,rough,15.5,1,3.236
4370,139.84,7.5355,4.5732,-0.9391,-0.6895,0.3718,3.0020,rough,15.5,1,3.236
4380,140.16,7.5350,4.5734,-0.9394,-0.6882,0.3731,3.0030,rough,15.5,1,3.235
4390,140.48,7.5342,4.5738,-0.9398,-0.6860,0.3752,3.0045,rough,15.5,1,3.234
4400,140.80,7.5339,4.5740,-0.9399,-0.6853,0.3758,3.0053,rough,15.5,1,3.234
4410,141.12,7.5336,4.5741,-0.9401,-0.6846,0.3765,3.0061,rough,15.5,1,3.234
4420,141.44,7.5333,4.5743,-0.9402,-0.6839,0.3771,3.0068,rough,15.5,1,3.233
4430,141.76,7.5330,4.5744,-0.9403,-0.6832,0.3779,3.0075,rough,15.5,1,3.233
4440,142.08,7.5327,4.5746,-0.9405,-0.6824,0.3787,3.0081,rough,15.5,1,3.233
4450,142.40,7.5324,4.5748,-0.9406,-0.6817,0.3793,3.0088,rough,15.5,1,3.232
4460,142.72,7.5317,4.5750,-0.9411,-0.6796,0.3814,3.0108,rough,15.5,1,3.232
4470,143.04,7.5314,4.5751,-0.9412,-0.6785,0.3823,3.0120,rough,15.5,1,3.231
4480,143.36,7.5311,4.5753,-0.9414,-0.6778,0.3830,3.0129,rough,15.5,1,3.231
4490,143.68,7.5308,4.5754,-0.9415,-0.6772,0.3836,3.0136,rough,15.5,1,3.231
4500,144.00,7.5306,4.5755,-0.9416,-0.6765,0.3843,3.0144,rough,15.5,1,3.230
4510,144.32,7.5303,4.5757,-0.9417,-0.6758,0.3850,3.0151,rough,15.5,1,3.230
4520,144.64,7.5299,4.5759,-0.9419,-0.6747,0.3860,3.0158,rough,15.5,1,3.230
4530,144.96,7.5297,4.5760,-0.9420,-0.6739,0.3867,3.0165,rough,15.5,1,3.229
4540,145.28,7.5294,4.5761,-0.9422,-0.6732,0.3874,3.0173,rough,15.5,1,3.229
4550,145.60,7.5291,4.5763,-0.9423,-0.6725,0.3881,3.0180,rough,15.5,1,3.229
4560,145.92,7.5289,4.5764,-0.9424,-0.6718,0.3888,3.0187,rough,15.5,1,3.228
4570,146.24,7.5286,4.5765,-0.9425,-0.6710,0.3895,3.0195,rough,15.5,1,3.228
4580,146.56,7.5283,4.5767,-0.9427,-0.6703,0.3902,3.0202,rough,15.5,1,3.228
4590,146.88,7.5280,4.5768,-0.9428,-0.6692,0.3911,3.0212,rough,15.5,1,3.227
4600,147.20,7.5277,4.5769,-0.9430,-0.6684,0.3919,3.0221,rough,15.5,1,3.227
4610,147.52,7.5274,4.5771,-0.9431,-0.6675,0.3927,3.0229,rough,15.5,1,3.227
4620,147.84,7.5263,4.5773,-0.9440,-0.6634,0.3964,3.0269,rough,15.5,1,3.226
4630,148.16,7.5252,4.5774,-0.9447,-0.6600,0.3994,3.0310,rough,15.5,1,3.225
4640,148.48,7.5249,4.5776,-0.9449,-0.6592,0.4002,3.0319,rough,15.5,1,3.224
4650,148.80,7.5245,4.5777,-0.9451,-0.6582,0.4011,3.0329,rough,15.5,1,3.224
4660,149.12,7.5239,4.5779,-0.9455,-0.6563,0.4029,3.0350,rough,15.5,1,3.223
4670,149.44,7.5197,4.5779,-0.9489,-0.6403,0.4171,3.0541,rough,15.5,1,3.219
4680,149.76,7.5188,4.5782,-0.9495,-0.6378,0.4192,3.0565,rough,15.5,1,3.218
4690,150.08,7.5172,4.5785,-0.9505,-0.6332,0.4233,3.0614,rough,15.5,1,3.217
4700,150.40,7.5148,4.5787,-0.9523,-0.6252,0.4297,3.0713,rough,15.5,1,3.214
4710,150.72,7.5146,4.5788,-0.9524,-0.6245,0.4300,3.0727,rough,15.5,1,3.214
4720,151.04,7.5143,4.5789,-0.9525,-0.6238,0.4305,3.0737,rough,15.5,1,3.214
4730,151.36,7.4758,4.5873,-0.9731,-0.5160,0.5288,-3.0741,rough,15.5,1,3.175
4740,151.68,7.3576,4.5690,-1.0630,-0.1138,0.7556,-2.5618,rough,15.5,1,3.072
4750,152.00,7.2118,4.4931,-1.1496,0.0101,0.3777,-2.3959,rough,15.5,1,2.969
4760,152.32,6.9568,4.3201,-1.2500,-0.0318,0.1988,-2.5245,rough,15.5,1,2.824
4770,152.64,6.7302,4.1854,-1.2562,-0.0022,-0.2438,-2.6054,rough,15.5,1,2.706
4780,152.96,6.4237,4.0094,-1.1995,-0.0067,-0.1603,-2.7797,rough,15.5,1,2.578
4790,153.28,5.9871,3.8843,-1.2350,-0.0229,0.2177,-3.0465,rough,15.5,1,2.371
4800,153.60,5.7091,3.8374,-1.2386,-0.0734,-0.3183,3.0741,rough,15.5,1,2.250
4810,153.92,5.3745,3.9000,-1.1440,0.0797,-0.3111,2.9702,rough,15.5,1,2.036
4820,154.24,5.1227,3.9804,-1.0131,0.2018,-0.5923,2.8193,rough,15.5,1,1.867
4830,154.56,4.8231,4.1424,-0.8992,0.3271,-0.2677,2.8017,rough,15.5,1,1.634
4840,154.88,4.5179,4.2844,-0.8519,0.2856,-0.1201,2.7508,rough,15.5,1,1.464
4850,155.20,4.1355,4.5126,-0.9097,0.1283,0.3660,2.5114,rough,15.5,1,1.294
4860,155.52,3.8535,4.7386,-1.0045,0.0974,0.2204,2.2269,rough,15.5,1,1.210
4870,155.84,3.6692,5.0226,-1.0458,0.0886,0.0378,1.9370,rough,15.5,1,1.118
4880,156.16,3.5492,5.3657,-1.0450,-0.0354,0.0082,1.7796,rough,15.5,1,1.044
4890,156.48,3.4665,5.6742,-1.0619,-0.1334,-0.0186,1.5931,rough,15.5,1,1.057
4900,156.80,3.4119,5.9901,-1.0655,-0.3356,-0.0819,1.1736,rough,15.5,1,1.135
4910,157.12,3.5101,6.2600,-1.0275,-0.2933,-0.3236,0.8941,rough,15.5,1,1.133
4920,157.44,3.7369,6.4281,-0.9095,-0.1717,-0.4198,0.6162,rough,15.5,1,1.038
4930,157.76,4.0925,6.5564,-0.8807,0.1666,0.0425,0.3284,rough,15.5,1,0.915
4940,158.08,4.3953,6.6032,-0.8728,0.1656,-0.0705,-0.0553,rough,15.5,1,0.864
4950,158.40,4.7339,6.4776,-0.8940,0.3192,0.1482,-0.3553,rough,15.5,2,12.658
4960,158.72,4.9662,6.3384,-0.9200,0.2930,0.0368,-0.6902,rough,15.5,2,12.831
4970,159.04,5.1193,6.1297,-0.9265,0.2861,-0.0213,-1.0343,rough,15.5,2,12.911
4980,159.36,5.1845,5.8635,-0.9323,0.3362,-0.0384,-1.3394,rough,15.5,2,12.894
4990,159.68,5.1838,5.5280,-0.9635,0.2783,0.1006,-1.6300,rough,15.5,2,12.801
5000,160.00,5.0932,5.1584,-0.9998,0.1589,0.0942,-1.8868,rough,15.5,2,12.621
5010,160.32,4.9497,4.8183,-1.0274,0.0507,-0.1496,-2.0752,rough,15.5,2,12.405
5020,160.64,4.7827,4.4962,-0.9484,-0.0217,-0.2876,-2.1493,rough,15.5,2,12.176
5030,160.96,4.5654,4.1599,-0.8322,-0.0344,-0.2955,-2.2419,rough,15.5,2,11.902
5040,161.28,4.2631,3.8321,-0.7397,0.0556,-0.1288,-2.3460,rough,15.5,2,11.553
5050,161.60,3.9250,3.5455,-0.7002,0.1262,-0.1310,-2.4579,rough,15.5,2,11.179
5060,161.92,3.6307,3.3087,-0.5998,0.0794,-0.4454,-2.5570,rough,15.5,2,10.860
5070,162.24,3.2210,3.1082,-0.4515,0.3091,-0.3172,-2.6333,rough,15.5,2,10.433
5080,162.56,2.8275,2.9334,-0.3245,0.3866,-0.3759,-2.7309,rough,15.5,2,10.026
5090,162.88,2.4333,2.7717,-0.1584,0.3310,-0.4194,-2.8063,rough,15.5,2,9.622
5100,163.20,2.0161,2.6111,0.0207,0.2309,-0.3730,-2.8240,rough,15.5,2,9.196
5110,163.52,1.5624,2.4443,0.1347,0.1700,-0.2107,-2.8309,rough,15.5,2,8.736
5120,163.84,1.1489,2.3023,0.2515,0.0989,-0.3499,-2.8717,rough,15.5,2,8.320
5130,164.16,0.7102,2.1613,0.3856,-0.0022,-0.2553,-2.8972,rough,15.5,2,7.880
5140,164.48,0.2089,2.0226,0.4412,-0.1322,0.0382,-2.9458,rough,15.5,2,7.380
5150,164.80,-0.2841,1.9323,0.3879,-0.1217,0.0986,-2.9867,rough,15.5,2,6.890
5160,165.12,-0.7616,1.8698,0.3482,-0.0651,0.0583,-3.0133,rough,15.5,2,6.415
5170,165.44,-1.2318,1.8046,0.3418,-0.0905,0.0034,-3.0306,rough,15.5,2,5.949
5180,165.76,-1.7368,1.6986,0.2686,-0.2733,0.1012,-3.0909,rough,15.5,2,5.453
5190,166.08,-2.2263,1.6699,0.2039,-0.2940,0.1097,-3.1120,rough,15.5,2,4.969
5200,166.40,-2.7140,1.6568,0.1572,-0.2938,0.1041,-3.1346,rough,15.5,2,4.485
5210,166.72,-3.2404,1.6894,0.0541,-0.1276,0.3024,3.0955,rough,15.5,2,3.959
5220,167.04,-3.7160,1.7185,-0.0493,-0.0896,0.2626,3.0870,rough,15.5,2,3.483
5230,167.36,-4.0487,1.7133,0.0332,-0.1003,-0.3912,-3.1357,rough,15.5,2,3.154
5240,167.68,-4.4652,1.7003,0.1848,-0.1905,-0.4526,-3.1162,rough,15.5,2,2.745
5250,168.00,-4.8843,1.6509,0.3200,-0.2737,-0.2822,-3.1407,rough,15.5,2,2.344
5260,168.32,-5.2230,1.6439,0.4348,-0.2591,-0.5424,3.0416,rough,15.5,2,2.017
5270,168.64,-5.4996,1.6941,0.5467,-0.0844,-0.5131,-3.1383,rough,15.5,2,1.737
5280,168.96,-5.8926,1.7288,0.6927,0.1626,-0.4945,3.1172,rough,15.5,2,1.352
5290,169.28,-6.2733,1.7389,0.8973,0.1561,-0.4100,3.1028,rough,15.5,2,0.995
5300,169.60,-6.6178,1.7091,1.0110,-0.1038,-0.3201,-3.0820,rough,15.5,3,9.900
5310,169.92,-6.8274,1.6607,1.0561,-0.1812,-0.3023,-2.9507,rough,15.5,3,9.905
5320,170.24,-7.0409,1.5825,1.0991,-0.3003,-0.1968,-2.8661,rough,15.5,3,9.888
5330,170.56,-7.2665,1.4804,1.1153,-0.3653,-0.0998,-2.7607,rough,15.5,3,9.857
5340,170.88,-7.5139,1.3305,1.1177,-0.4069,0.0110,-2.6331,rough,15.5,3,9.795
5350,171.20,-7.7731,1.1176,1.0783,-0.4086,0.1203,-2.4794,rough,15.5,3,9.686
5360,171.52,-8.0983,0.8503,0.9467,-0.1271,0.3424,-2.3076,rough,15.5,3,9.564
5370,171.84,-8.3101,0.5339,0.8480,-0.1995,0.2753,-2.1527,rough,15.5,3,9.366
5380,172.16,-8.4963,0.1862,0.7613,-0.2163,0.2026,-1.9724,rough,15.5,3,9.139
5390,172.48,-8.6489,-0.2309,0.6828,-0.1500,0.1635,-1.8773,rough,15.5,3,8.848
5400,172.80,-8.7703,-0.6292,0.6382,-0.0740,-0.0001,-1.7950,rough,15.5,3,8.568
5410,173.12,-8.8534,-1.0055,0.6607,-0.0695,-0.1522,-1.6941,rough,15.5,3,8.297
5420,173.44,-8.8727,-1.3799,0.7567,-0.0962,-0.3926,-1.5652,rough,15.5,3,8.000
5430,173.76,-8.8406,-1.7947,0.8948,-0.1932,-0.3477,-1.4780,rough,15.5,3,7.646
5440,174.08,-8.7563,-2.2530,0.9816,-0.2994,-0.1461,-1.4138,rough,15.5,3,7.233
5450,174.40,-8.6415,-2.7364,0.9767,-0.3273,0.0244,-1.3579,rough,15.5,3,6.787
5460,174.72,-8.5118,-3.1844,0.9611,-0.2965,0.0062,-1.2485,rough,15.5,3,6.365
5470,175.04,-8.3697,-3.5550,1.0454,-0.2657,-0.3093,-1.0819,rough,15.5,3,5.996
5480,175.36,-8.1902,-3.9602,1.1646,-0.0699,-0.3485,-1.0589,rough,15.5,3,5.581
5490,175.68,-7.9315,-4.3429,1.2720,-0.2000,-0.3031,-0.9878,rough,15.5,3,5.128
5500,176.00,-7.6492,-4.7752,1.2560,-0.0793,-0.0935,-1.1199,rough,15.5,3,4.627
5510,176.32,-7.4444,-5.1507,1.3056,-0.1386,-0.1557,-1.1076,rough,15.5,3,4.224
5520,176.64,-7.2604,-5.4992,1.4273,-0.1068,-0.3761,-1.0195,rough,15.5,3,3.861
5530,176.96,-7.1178,-5.7897,1.5255,-0.0351,-0.4539,-0.8797,rough,15.5,3,3.571
5540,177.28,-6.8200,-6.1353,1.5206,-0.1595,0.1272,-0.7882,rough,15.5,3,3.128
5550,177.60,-6.4593,-6.4946,1.3862,-0.1486,0.2971,-0.8036,rough,15.5,3,2.629
5560,177.92,-6.1131,-6.8135,1.2416,-0.2384,0.2958,-0.7746,rough,15.5,3,2.168
5570,178.24,-5.7809,-7.1171,1.1469,-0.1860,0.1345,-0.7020,rough,15.5,3,1.731
5580,178.56,-5.3511,-7.4910,0.9587,-0.1275,0.4586,-0.5786,rough,15.5,3,1.187
5590,178.88,-4.9464,-7.9122,0.5265,0.1360,0.6241,-0.4947,rough,15.5,0,16.512
5600,179.20,-4.5907,-8.3528,0.2658,0.5143,0.1207,-0.3453,rough,15.5,0,16.503
5610,179.52,-4.2247,-8.6118,0.1548,0.5287,0.3403,-0.2770,rough,15.5,0,16.387
5620,179.84,-3.8720,-8.7755,0.0439,0.4957,0.0876,-0.1267,rough,15.5,0,16.230
5630,180.16,-3.3988,-8.8349,-0.0792,0.5093,0.1980,0.0798,rough,15.5,0,15.920
5640,180.48,-2.9651,-8.8191,-0.1515,0.5103,0.0537,0.1638,rough,15.5,0,15.595
5650,180.80,-2.6910,-8.8211,-0.0879,0.5469,-0.4997,-0.0394,rough,15.5,0,15.401
5660,181.12,-2.3466,-8.8164,0.0765,0.3252,-0.5381,0.1154,rough,15.5,0,15.155
5670,181.44,-1.9930,-8.7756,0.3010,0.2856,-0.6070,0.2106,rough,15.5,0,14.881
5680,181.76,-1.6775,-8.7216,0.5366,0.2668,-0.7575,0.2803,rough,15.5,0,14.626
5690,182.08,-1.3634,-8.7020,0.7835,0.4207,-0.8800,0.3582,rough,15.5,0,14.400
5700,182.40,-1.1869,-8.7041,0.9118,0.4645,-0.8296,0.1351,rough,15.5,0,14.285
5710,182.72,-1.0944,-8.8555,0.8668,0.4244,-0.8135,0.1847,rough,15.5,0,14.339
5720,183.04,-1.1374,-9.0976,0.6274,0.3646,-0.8344,0.2450,rough,15.5,0,14.551
5730,183.36,-1.2084,-9.4537,0.2846,0.1524,-0.7691,0.5980,rough,15.5,0,14.870
5740,183.68,-1.2408,-9.7244,0.1059,-0.4289,-0.6598,1.6092,rough,15.5,0,15.101
5750,184.00,-1.3153,-9.8728,-0.0188,-0.4560,-0.4441,1.7803,rough,15.5,0,15.263
5760,184.32,-1.4186,-9.7587,0.0103,-0.5182,-0.4080,2.0049,rough,15.5,0,15.239
5770,184.64,-1.5658,-9.5183,0.0921,-0.3617,-0.4446,1.9891,rough,15.5,0,15.149
5780,184.96,-1.7046,-9.2707,0.2123,-0.3835,-0.5175,1.9280,rough,15.5,0,15.052
5790,185.28,-1.8831,-8.9266,0.3116,-0.6175,-0.3135,1.7439,rough,15.5,0,14.916
5800,185.60,-1.9792,-8.5468,0.4308,-0.5295,-0.4594,1.5973,rough,15.5,0,14.706
5810,185.92,-2.0009,-8.1826,0.6414,-0.5266,-0.6466,1.6099,rough,15.5,0,14.461
5820,186.24,-1.9884,-7.8354,0.8755,-0.3131,-0.6834,1.4353,rough,15.5,0,14.209
5830,186.56,-1.9164,-7.5688,1.0900,-0.1458,-0.6982,1.3089,rough,15.5,0,13.973
5840,186.88,-1.8200,-7.3128,1.2789,-0.1335,-0.5374,1.3015,rough,15.5,0,13.727
5850,187.20,-1.6864,-6.9696,1.4646,0.0003,-0.4890,1.2631,rough,15.5,0,13.397
5860,187.52,-1.5490,-6.5709,1.6299,0.0532,-0.3215,1.2043,rough,15.5,0,13.029
5870,187.84,-1.3029,-6.0836,1.6681,0.2864,0.2105,1.2128,rough,15.5,0,12.524
5880,188.16,-1.0202,-5.6357,1.4938,0.4705,0.4594,1.2493,rough,15.5,0,12.019
5890,188.48,-0.7315,-5.1801,1.1262,0.4807,0.5879,1.4194,rough,15.5,0,11.507
5900,188.80,-0.5544,-4.7615,0.7412,0.5720,0.5393,1.6177,rough,15.5,0,11.109
5910,189.12,-0.5252,-4.3558,0.4547,0.4295,0.6292,1.5421,rough,15.5,0,10.842
5920,189.44,-0.4475,-3.9493,0.1777,0.2937,0.5947,1.3640,rough,15.5,0,10.543
5930,189.76,-0.3181,-3.5742,-0.0406,0.2576,0.4323,1.2160,rough,15.5,0,10.227
5940,190.08,-0.1388,-3.1977,-0.2040,0.1685,0.2607,1.0680,rough,15.5,0,9.873
5950,190.40,0.1083,-2.8510,-0.2618,0.1895,0.0436,0.9451,rough,15.5,0,9.481
5960,190.72,0.3897,-2.5245,-0.2415,0.2322,-0.1766,0.8511,rough,15.5,0,9.072
5970,191.04,0.7031,-2.1858,-0.1617,0.2250,-0.2163,0.7955,rough,15.5,0,8.632
5980,191.36,1.0301,-1.8556,-0.0557,0.2053,-0.2349,0.7523,rough,15.5,0,8.187
5990,191.68,1.3665,-1.5210,0.0431,0.1372,-0.1919,0.7270,rough,15.5,0,7.733
6000,192.00,1.7333,-1.1912,0.1123,0.0899,-0.0835,0.7000,rough,15.5,0,7.256
6010,192.32,2.1082,-0.8918,0.1494,0.1054,-0.0902,0.6644,rough,15.5,0,6.788
6020,192.64,2.4721,-0.5970,0.2113,0.0421,-0.1518,0.6351,rough,15.5,0,6.334
6030,192.96,2.9050,-0.2845,0.2277,0.0202,0.1462,0.6108,rough,15.5,0,5.811
6040,193.28,3.3349,0.0075,0.0810,0.0095,0.3241,0.6054,rough,15.5,0,5.301
6050,193.60,3.7284,0.2374,-0.0597,0.0754,0.1899,0.5708,rough,15.5,0,4.850
6060,193.92,4.1199,0.4786,-0.1177,0.0643,0.0418,0.5389,rough,15.5,0,4.398
6070,194.24,4.6230,0.7636,-0.2880,0.1836,0.6202,0.6594,rough,15.5,0,3.828
6080,194.56,5.0527,1.0720,-0.5806,0.1719,0.3031,0.8982,rough,15.5,0,3.323
6090,194.88,5.3410,1.3475,-0.6518,0.2196,-0.0248,0.7720,rough,15.5,0,2.973
6100,195.20,5.7056,1.6857,-0.6913,0.1577,0.1631,0.7084,rough,15.5,0,2.552
6110,195.52,6.1293,2.0165,-0.9407,0.0066,0.6052,0.5143,rough,15.5,0,2.104
6120,195.84,6.4903,2.2320,-1.1566,-0.0691,0.4417,0.4697,rough,15.5,0,1.754
6130,196.16,6.8704,2.4051,-1.2957,-0.0979,0.2439,0.3393,rough,15.5,0,1.413
6140,196.48,7.3180,2.5717,-1.4231,-0.2816,0.3054,0.2129,rough,15.5,0,1.062
6150,196.80,7.7255,2.6606,-1.5114,-0.3285,0.1110,0.0202,rough,15.5,0,0.806
6160,197.12,7.9742,2.7291,-1.5102,-0.2394,-0.1288,0.3027,rough,15.5,1,4.587
6170,197.44,8.2011,2.9015,-1.4845,-0.2662,-0.1594,0.6773,rough,15.5,1,4.653
6180,197.76,8.4069,3.0891,-1.4452,-0.1964,-0.2224,0.9632,rough,15.5,1,4.709
6190,198.08,8.5124,3.2297,-1.3821,-0.2972,-0.4266,1.2298,rough,15.5,1,4.720
6200,198.40,8.5861,3.4151,-1.3018,-0.2803,-0.5190,1.4916,rough,15.5,1,4.687
6210,198.72,8.5820,3.6169,-1.2036,-0.3673,-0.5414,1.4929,rough,15.5,1,4.587
6220,199.04,8.5543,3.7798,-1.1138,-0.5778,-0.6715,1.6465,rough,15.5,1,4.488
6230,199.36,8.4739,3.9302,-1.0469,-0.6190,-0.6101,1.8391,rough,15.5,1,4.351
6240,199.68,8.2589,4.0675,-1.0608,-0.5518,-0.5552,1.8624,rough,15.5,1,4.099
6250,200.00,8.0333,4.1596,-1.0785,-0.6436,-0.4395,2.2606,rough,15.5,1,3.855
6260,200.32,8.0022,4.0393,-1.0904,-1.0764,-0.9581,2.9147,rough,15.5,1,3.878
6270,200.64,7.9260,3.8108,-1.3268,-2.6657,-0.5034,-1.6861,rough,15.5,1,3.918
6280,200.96,7.8801,3.5475,-1.6478,-3.0515,0.1465,-1.7452,rough,15.5,1,4.016
6290,201.28,7.8925,3.4906,-1.6867,-3.0665,0.3229,-1.6681,rough,15.5,1,4.058
6300,201.60,7.9089,3.6233,-1.6446,-3.0094,0.3015,-1.6016,rough,15.5,1,3.999
6310,201.92,7.9112,3.7588,-1.5802,-2.9871,0.4449,-1.5570,slope,18.0,1,3.931
6320,202.24,7.9016,3.9448,-1.4881,-2.9576,0.6366,-1.5369,rough,15.5,1,3.832
6330,202.56,7.8798,3.9770,-1.4358,-2.8856,0.7945,-1.4210,rough,15.5,1,3.797
6340,202.88,7.8356,3.9401,-1.5038,-2.8826,0.6299,-1.3591,rough,15.5,1,3.776
6350,203.20,7.7653,3.9460,-1.5096,-2.8673,0.5804,-1.2606,rough,15.5,1,3.711
6360,203.52,7.6923,3.9414,-1.5297,-2.9593,0.5507,-1.3208,rough,15.5,1,3.650
6370,203.84,7.6542,3.9383,-1.5356,-3.0545,0.6081,-1.4324,rough,15.5,1,3.619
6380,204.16,7.6330,3.9353,-1.5389,-3.1044,0.6318,-1.4996,rough,15.5,1,3.602
6390,204.48,7.6219,3.9316,-1.5419,-3.1310,0.6323,-1.5418,rough,15.5,1,3.594
6400,204.80,7.6173,3.9306,-1.5422,-3.1415,0.6336,-1.5605,rough,15.5,1,3.591
6410,205.12,7.6157,3.9303,-1.5424,3.1378,0.6338,-1.5671,rough,15.5,1,3.589
6420,205.44,7.6152,3.9302,-1.5425,3.1364,0.6338,-1.5695,rough,15.5,1,3.589
6430,205.76,7.6150,3.9302,-1.5425,3.1359,0.6338,-1.5703,rough,15.5,1,3.589
6440,206.08,7.6149,3.9301,-1.5425,3.1357,0.6338,-1.5706,rough,15.5,1,3.589
6450,206.40,7.6149,3.9301,-1.5425,3.1357,0.6338,-1.5707,rough,15.5,1,3.589
6460,206.72,7.6148,3.9301,-1.5425,3.1356,0.6338,-1.5707,rough,15.5,1,3.589
6470,207.04,7.6148,3.9301,-1.5425,3.1356,0.6338,-1.5707,rough,15.5,1,3.589
6480,207.36,7.6148,3.9301,-1.5425,3.1356,0.6338,-1.5708,rough,15.5,1,3.589
6490,207.68,7.6148,3.9301,-1.5425,3.1356,0.6338,-1.5708,rough,15.5,1,3.589
6500,208.00,7.6148,3.9301,-1.5425,3.1356,0.6338,-1.5708,rough,15.5,1,3.589
6510,208.32,7.6148,3.9301,-1.5425,3.1356,0.6338,-1.5708,rough,15.5,1,3.589
6520,208.64,7.6148,3.9301,-1.5425,3.1356,0.6338,-1.5708,rough,15.5,1,3.589
6530,208.96,7.6148,3.9301,-1.5425,3.1356,0.6338,-1.5708,rough,15.5,1,3.589
6540,209.28,7.6148,3.9301,-1.5425,3.1356,0.6338,-1.5708,rough,15.5,1,3.589
6550,209.60,7.6148,3.9301,-1.5425,3.1356,0.6338,-1.5708,rough,15.5,1,3.589
6560,209.92,7.6147,3.9301,-1.5425,3.1356,0.6338,-1.5708,rough,15.5,1,3.589
6570,210.24,7.6147,3.9301,-1.5425,3.1356,0.6338,-1.5708,rough,15.5,1,3.589
6580,210.56,7.6147,3.9301,-1.5425,3.1356,0.6338,-1.5708,rough,15.5,1,3.589
6590,210.88,7.6147,3.9301,-1.5425,3.1356,0.6338,-1.5708,rough,15.5,1,3.589
6600,211.20,7.6147,3.9301,-1.5425,3.1356,0.6338,-1.5708,rough,15.5,1,3.589
6610,211.52,7.6147,3.9301,-1.5425,3.1356,0.6338,-1.5708,rough,15.5,1,3.589
6620,211.84,7.6147,3.9301,-1.5425,3.1356,0.6338,-1.5708,rough,15.5,1,3.589
6630,212.16,7.6147,3.9301,-1.5425,3.1356,0.6338,-1.5708,rough,15.5,1,3.589
6640,212.48,7.6147,3.9301,-1.5425,3.1356,0.6338,-1.5708,rough,15.5,1,3.589
6650,212.80,7.6147,3.9301,-1.5425,3.1356,0.6338,-1.5708,rough,15.5,1,3.589
6660,213.12,7.6147,3.9301,-1.5425,3.1356,0.6338,-1.5708,rough,15.5,1,3.589
6670,213.44,7.6147,3.9301,-1.5425,3.1356,0.6338,-1.5708,rough,15.5,1,3.589
6680,213.76,7.6146,3.9301,-1.5425,3.1356,0.6338,-1.5708,rough,15.5,1,3.589
6690,214.08,7.6146,3.9301,-1.5425,3.1356,0.6338,-1.5708,rough,15.5,1,3.589
6700,214.40,7.6146,3.9301,-1.5425,3.1356,0.6338,-1.5708,rough,15.5,1,3.589
6710,214.72,7.6146,3.9301,-1.5425,3.1356,0.6338,-1.5708,rough,15.5,1,3.589
6720,215.04,7.6146,3.9301,-1.5425,3.1356,0.6338,-1.5708,rough,15.5,1,3.589
6730,215.36,7.6146,3.9301,-1.5425,3.1356,0.6338,-1.5708,rough,15.5,1,3.588
6740,215.68,7.6146,3.9301,-1.5425,3.1356,0.6338,-1.5708,rough,15.5,1,3.588
6750,216.00,7.6146,3.9301,-1.5425,3.1356,0.6338,-1.5708,rough,15.5,1,3.588
6760,216.32,7.6146,3.9301,-1.5425,3.1356,0.6338,-1.5708,rough,15.5,1,3.588
6770,216.64,7.6146,3.9301,-1.5425,3.1356,0.6338,-1.5708,rough,15.5,1,3.588
6780,216.96,7.6146,3.9301,-1.5425,3.1356,0.6338,-1.5708,rough,15.5,1,3.588
6790,217.28,7.6146,3.9301,-1.5425,3.1356,0.6338,-1.5708,rough,15.5,1,3.588
6800,217.60,7.6145,3.9301,-1.5425,3.1356,0.6338,-1.5708,rough,15.5,1,3.588
6810,217.92,7.6145,3.9301,-1.5425,3.1356,0.6338,-1.5708,rough,15.5,1,3.588
6820,218.24,7.6145,3.9301,-1.5425,3.1356,0.6338,-1.5708,rough,15.5,1,3.588
6830,218.56,7.6145,3.9301,-1.5425,3.1356,0.6338,-1.5708,rough,15.5,1,3.588
6840,218.88,7.6145,3.9301,-1.5425,3.1356,0.6338,-1.5708,rough,15.5,1,3.588
6850,219.20,7.6145,3.9301,-1.5425,3.1356,0.6338,-1.5708,rough,15.5,1,3.588
6860,219.52,7.6145,3.9301,-1.5425,3.1356,0.6338,-1.5708,rough,15.5,1,3.588
6870,219.84,7.6145,3.9301,-1.5425,3.1356,0.6338,-1.5708,rough,15.5,1,3.588
6880,220.16,7.6145,3.9301,-1.5425,3.1356,0.6338,-1.5708,rough,15.5,1,3.588
6890,220.48,7.6145,3.9301,-1.5425,3.1356,0.6338,-1.5708,rough,15.5,1,3.588
6900,220.80,7.6145,3.9301,-1.5425,3.1356,0.6338,-1.5708,rough,15.5,1,3.588
6910,221.12,7.6144,3.9301,-1.5425,3.1356,0.6338,-1.5708,rough,15.5,1,3.588
6920,221.44,7.6144,3.9301,-1.5425,3.1356,0.6338,-1.5708,rough,15.5,1,3.588
6930,221.76,7.6144,3.9301,-1.5425,3.1356,0.6338,-1.5708,rough,15.5,1,3.588
6940,222.08,7.6144,3.9301,-1.5425,3.1356,0.6338,-1.5708,rough,15.5,1,3.588
6950,222.40,7.6144,3.9301,-1.5425,3.1356,0.6338,-1.5708,rough,15.5,1,3.588
6960,222.72,7.6144,3.9301,-1.5425,3.1356,0.6338,-1.5708,rough,15.5,1,3.588
6970,223.04,7.6144,3.9301,-1.5425,3.1356,0.6338,-1.5708,rough,15.5,1,3.588
6980,223.36,7.6144,3.9301,-1.5425,3.1356,0.6338,-1.5708,rough,15.5,1,3.588
6990,223.68,7.6144,3.9301,-1.5425,3.1356,0.6338,-1.5708,rough,15.5,1,3.588
7000,224.00,7.6144,3.9301,-1.5425,3.1356,0.6338,-1.5708,rough,15.5,1,3.588
7010,224.32,7.6144,3.9301,-1.5425,3.1356,0.6338,-1.5708,rough,15.5,1,3.588
7020,224.64,7.6144,3.9301,-1.5425,3.1356,0.6338,-1.5708,rough,15.5,1,3.588
7030,224.96,7.6143,3.9301,-1.5425,3.1356,0.6338,-1.5708,rough,15.5,1,3.588
7040,225.28,7.6143,3.9301,-1.5425,3.1356,0.6338,-1.5708,rough,15.5,1,3.588
7050,225.60,7.6143,3.9301,-1.5425,3.1356,0.6338,-1.5708,rough,15.5,1,3.588
7060,225.92,7.6143,3.9301,-1.5425,3.1356,0.6338,-1.5708,rough,15.5,1,3.588
7070,226.24,7.6143,3.9301,-1.5425,3.1356,0.6338,-1.5708,rough,15.5,1,3.588
7080,226.56,7.6143,3.9301,-1.5425,3.1356,0.6338,-1.5708,rough,15.5,1,3.588
7090,226.88,7.6143,3.9301,-1.5425,3.1356,0.6338,-1.5708,rough,15.5,1,3.588
7100,227.20,7.6143,3.9301,-1.5425,3.1356,0.6338,-1.5708,rough,15.5,1,3.588
7110,227.52,7.6143,3.9301,-1.5425,3.1356,0.6338,-1.5708,rough,15.5,1,3.588
7120,227.84,7.6143,3.9301,-1.5425,3.1356,0.6338,-1.5708,rough,15.5,1,3.588
7130,228.16,7.6143,3.9301,-1.5425,3.1356,0.6338,-1.5708,rough,15.5,1,3.588
7140,228.48,7.6143,3.9301,-1.5425,3.1356,0.6338,-1.5708,rough,15.5,1,3.588
7150,228.80,7.6142,3.9301,-1.5425,3.1356,0.6338,-1.5708,rough,15.5,1,3.588
7160,229.12,7.6142,3.9301,-1.5425,3.1356,0.6338,-1.5708,rough,15.5,1,3.588
7170,229.44,7.6142,3.9301,-1.5425,3.1356,0.6338,-1.5708,rough,15.5,1,3.588
7180,229.76,7.6142,3.9301,-1.5425,3.1356,0.6338,-1.5708,rough,15.5,1,3.588
7190,230.08,7.6142,3.9301,-1.5425,3.1356,0.6338,-1.5708,rough,15.5,1,3.588
7200,230.40,7.6142,3.9301,-1.5425,3.1356,0.6338,-1.5708,rough,15.5,1,3.588
7210,230.72,7.6142,3.9301,-1.5425,3.1356,0.6338,-1.5708,rough,15.5,1,3.588
7220,231.04,7.6142,3.9301,-1.5425,3.1356,0.6338,-1.5708,rough,15.5,1,3.588
7230,231.36,7.6142,3.9301,-1.5425,3.1356,0.6338,-1.5708,rough,15.5,1,3.588
7240,231.68,7.6142,3.9301,-1.5425,3.1356,0.6338,-1.5708,rough,15.5,1,3.588
7250,232.00,7.6142,3.9301,-1.5425,3.1356,0.6338,-1.5708,rough,15.5,1,3.588
7260,232.32,7.6141,3.9301,-1.5425,3.1356,0.6338,-1.5708,rough,15.5,1,3.588
7270,232.64,7.6141,3.9301,-1.5425,3.1356,0.6338,-1.5708,rough,15.5,1,3.588
7280,232.96,7.6141,3.9301,-1.5425,3.1356,0.6338,-1.5708,rough,15.5,1,3.588
7290,233.28,7.6141,3.9301,-1.5425,3.1356,0.6338,-1.5708,rough,15.5,1,3.588
7300,233.60,7.6141,3.9301,-1.5425,3.1356,0.6338,-1.5708,rough,15.5,1,3.588
7310,233.92,7.6141,3.9301,-1.5425,3.1356,0.6338,-1.5708,rough,15.5,1,3.588
7320,234.24,7.6141,3.9301,-1.5425,3.1356,0.6338,-1.5708,rough,15.5,1,3.588
7330,234.56,7.6141,3.9301,-1.5425,3.1356,0.6338,-1.5708,rough,15.5,1,3.588
7340,234.88,7.6141,3.9301,-1.5425,3.1356,0.6338,-1.5708,rough,15.5,1,3.588
7350,235.20,7.6141,3.9301,-1.5425,3.1356,0.6338,-1.5708,rough,15.5,1,3.588
7360,235.52,7.6141,3.9301,-1.5425,3.1356,0.6338,-1.5708,rough,15.5,1,3.588
7370,235.84,7.6141,3.9301,-1.5425,3.1356,0.6338,-1.5708,rough,15.5,1,3.588
7380,236.16,7.6140,3.9301,-1.5425,3.1356,0.6338,-1.5708,rough,15.5,1,3.588
7390,236.48,7.6140,3.9301,-1.5425,3.1356,0.6338,-1.5708,rough,15.5,1,3.588
7400,236.80,7.6140,3.9301,-1.5425,3.1356,0.6338,-1.5708,rough,15.5,1,3.588
7410,237.12,7.6140,3.9301,-1.5425,3.1356,0.6338,-1.5708,rough,15.5,1,3.588
7420,237.44,7.6140,3.9301,-1.5425,3.1356,0.6338,-1.5708,rough,15.5,1,3.588
7430,237.76,7.6140,3.9301,-1.5425,3.1356,0.6338,-1.5708,rough,15.5,1,3.588
7440,238.08,7.6140,3.9301,-1.5425,3.1356,0.6338,-1.5708,rough,15.5,1,3.588
7450,238.40,7.6140,3.9301,-1.5425,3.1356,0.6338,-1.5708,rough,15.5,1,3.588
7460,238.72,7.6140,3.9301,-1.5425,3.1356,0.6338,-1.5708,rough,15.5,1,3.588
7470,239.04,7.6140,3.9301,-1.5425,3.1356,0.6338,-1.5708,rough,15.5,1,3.588
7480,239.36,7.6140,3.9301,-1.5425,3.1356,0.6338,-1.5708,rough,15.5,1,3.588
7490,239.68,7.6140,3.9301,-1.5425,3.1356,0.6338,-1.5708,rough,15.5,1,3.588
7500,240.00,7.6139,3.9301,-1.5425,3.1356,0.6338,-1.5708,rough,15.5,1,3.588
7510,240.32,7.6139,3.9301,-1.5425,3.1356,0.6338,-1.5708,rough,15.5,1,3.588
7520,240.64,7.6139,3.9301,-1.5425,3.1356,0.6338,-1.5708,rough,15.5,1,3.588
7530,240.96,7.6139,3.9301,-1.5425,3.1356,0.6338,-1.5708,rough,15.5,1,3.588
7540,241.28,7.6139,3.9301,-1.5425,3.1356,0.6338,-1.5708,rough,15.5,1,3.588
7550,241.60,7.6139,3.9301,-1.5425,3.1356,0.6338,-1.5708,rough,15.5,1,3.588
7560,241.92,7.6139,3.9301,-1.5425,3.1356,0.6338,-1.5708,rough,15.5,1,3.588
7570,242.24,7.6139,3.9301,-1.5425,3.1356,0.6338,-1.5708,rough,15.5,1,3.588
7580,242.56,7.6139,3.9301,-1.5425,3.1356,0.6338,-1.5708,rough,15.5,1,3.588
7590,242.88,7.6139,3.9301,-1.5425,3.1356,0.6338,-1.5708,rough,15.5,1,3.588
7600,243.20,7.6139,3.9301,-1.5425,3.1356,0.6338,-1.5708,rough,15.5,1,3.588
7610,243.52,7.6138,3.9301,-1.5425,3.1356,0.6338,-1.5708,rough,15.5,1,3.588
7620,243.84,7.6138,3.9301,-1.5425,3.1356,0.6338,-1.5708,rough,15.5,1,3.588
7630,244.16,7.6138,3.9301,-1.5425,3.1356,0.6338,-1.5708,rough,15.5,1,3.588
7640,244.48,7.6138,3.9301,-1.5425,3.1356,0.6338,-1.5708,rough,15.5,1,3.588
7650,244.80,7.6138,3.9301,-1.5425,3.1356,0.6338,-1.5708,rough,15.5,1,3.588
7660,245.12,7.6138,3.9301,-1.5425,3.1356,0.6338,-1.5708,rough,15.5,1,3.588
7670,245.44,7.6138,3.9301,-1.5425,3.1356,0.6338,-1.5708,rough,15.5,1,3.588
7680,245.76,7.6138,3.9301,-1.5425,3.1356,0.6338,-1.5708,rough,15.5,1,3.588
7690,246.08,7.6138,3.9301,-1.5425,3.1356,0.6338,-1.5708,rough,15.5,1,3.588
7700,246.40,7.6138,3.9301,-1.5425,3.1356,0.6338,-1.5708,rough,15.5,1,3.588
7710,246.72,7.6138,3.9301,-1.5425,3.1356,0.6338,-1.5708,rough,15.5,1,3.588
7720,247.04,7.6138,3.9301,-1.5425,3.1356,0.6338,-1.5708,rough,15.5,1,3.588
7730,247.36,7.6137,3.9301,-1.5425,3.1356,0.6338,-1.5708,rough,15.5,1,3.588
7740,247.68,7.6137,3.9301,-1.5425,3.1356,0.6338,-1.5708,rough,15.5,1,3.588
7750,248.00,7.6137,3.9301,-1.5425,3.1356,0.6338,-1.5708,rough,15.5,1,3.588
7760,248.32,7.6137,3.9301,-1.5425,3.1356,0.6338,-1.5708,rough,15.5,1,3.588
7770,248.64,7.6137,3.9301,-1.5425,3.1356,0.6338,-1.5708,rough,15.5,1,3.588
7780,248.96,7.6137,3.9301,-1.5425,3.1356,0.6338,-1.5708,rough,15.5,1,3.588
7790,249.28,7.6137,3.9301,-1.5425,3.1356,0.6338,-1.5708,rough,15.5,1,3.588
7800,249.60,7.6137,3.9301,-1.5425,3.1356,0.6338,-1.5708,rough,15.5,1,3.588
7810,249.92,7.6137,3.9301,-1.5425,3.1356,0.6338,-1.5708,rough,15.5,1,3.588
7820,250.24,7.6137,3.9301,-1.5425,3.1356,0.6338,-1.5708,rough,15.5,1,3.588
7830,250.56,7.6137,3.9301,-1.5425,3.1356,0.6338,-1.5708,rough,15.5,1,3.588
7840,250.88,7.6137,3.9301,-1.5425,3.1356,0.6338,-1.5708,rough,15.5,1,3.588
7850,251.20,7.6136,3.9301,-1.5425,3.1356,0.6338,-1.5708,rough,15.5,1,3.588
7860,251.52,7.6136,3.9301,-1.5425,3.1356,0.6338,-1.5708,rough,15.5,1,3.588
7870,251.84,7.6136,3.9301,-1.5425,3.1356,0.6338,-1.5708,rough,15.5,1,3.588
7880,252.16,7.6136,3.9301,-1.5425,3.1356,0.6338,-1.5708,rough,15.5,1,3.588
7890,252.48,7.6136,3.9301,-1.5425,3.1356,0.6338,-1.5708,rough,15.5,1,3.588
7900,252.80,7.6136,3.9301,-1.5425,3.1356,0.6338,-1.5708,rough,15.5,1,3.588
7910,253.12,7.6136,3.9301,-1.5425,3.1356,0.6338,-1.5708,rough,15.5,1,3.588
7920,253.44,7.6136,3.9301,-1.5425,3.1356,0.6338,-1.5708,rough,15.5,1,3.588
7930,253.76,7.6136,3.9301,-1.5425,3.1356,0.6338,-1.5708,rough,15.5,1,3.588
7940,254.08,7.6136,3.9301,-1.5425,3.1356,0.6338,-1.5708,rough,15.5,1,3.588
7950,254.40,7.6136,3.9301,-1.5425,3.1356,0.6338,-1.5708,rough,15.5,1,3.588
7960,254.72,7.6136,3.9301,-1.5425,3.1356,0.6338,-1.5708,rough,15.5,1,3.588
7970,255.04,7.6135,3.9301,-1.5425,3.1356,0.6338,-1.5708,rough,15.5,1,3.588
7980,255.36,7.6135,3.9301,-1.5425,3.1356,0.6338,-1.5708,rough,15.5,1,3.588
7990,255.68,7.6135,3.9301,-1.5425,3.1356,0.6338,-1.5708,rough,15.5,1,3.588
8000,256.00,7.6135,3.9301,-1.5425,3.1356,0.6338,-1.5708,rough,15.5,1,3.588
8010,256.32,7.6135,3.9301,-1.5425,3.1356,0.6338,-1.5708,rough,15.5,1,3.588
