step,time_s,x,y,z,roll,pitch,yaw,terrain,speed,target_idx,dist_to_target
10,0.32,0.9938,-0.8075,0.1866,0.1248,-0.1843,0.2452,rough,15.5,0,5.720
20,0.64,1.3683,-0.7341,0.1810,0.1499,-0.0097,0.1480,rough,15.5,0,5.491
30,0.96,1.8002,-0.7151,0.1786,0.1352,0.0076,-0.0191,rough,15.5,0,5.200
40,1.28,2.2438,-0.7730,0.1697,0.1247,0.0196,-0.1640,rough,15.5,0,4.864
50,1.60,2.6519,-0.8845,0.1822,0.2169,-0.0421,-0.2485,rough,15.5,0,4.524
60,1.92,3.1261,-1.0187,0.1286,0.2004,0.1372,-0.2957,rough,15.5,0,4.145
70,2.24,3.5874,-1.1923,-0.0311,-0.0892,0.4796,-0.5177,rough,15.5,0,3.764
80,2.56,3.9546,-1.4150,-0.1537,-0.1711,0.1037,-0.6949,rough,15.5,0,3.402
90,2.88,4.2992,-1.6606,-0.1902,-0.2899,-0.1533,-0.7383,rough,15.5,0,3.045
100,3.20,4.6444,-2.0563,-0.2189,-0.1170,0.1485,-0.8421,rough,15.5,0,2.562
110,3.52,4.9244,-2.4446,-0.2816,0.0857,0.1846,-0.9381,rough,15.5,0,2.118
120,3.84,5.1348,-2.7869,-0.2682,0.1490,-0.1133,-1.0344,rough,15.5,0,1.746
130,4.16,5.3065,-3.1663,-0.1922,0.2393,-0.2812,-1.1721,rough,15.5,0,1.355
140,4.48,5.4390,-3.6381,-0.1412,0.3821,-0.0791,-1.2103,rough,15.5,0,0.887
150,4.80,5.4955,-3.9962,-0.1591,0.3302,0.1954,-1.4287,rough,15.5,1,12.346
160,5.12,5.4370,-4.2786,-0.2479,0.1130,0.3106,-1.8748,rough,15.5,1,12.589
170,5.44,5.3463,-4.5700,-0.3207,-0.2177,0.3384,-2.3004,rough,15.5,1,12.832
180,5.76,5.2271,-4.7413,-0.3778,-0.2523,0.0215,-2.5996,rough,15.5,1,12.954
190,6.08,4.9927,-4.8733,-0.3636,-0.2262,-0.1545,-2.8638,rough,15.5,1,13.005
200,6.40,4.6056,-4.9160,-0.3909,-0.0657,0.2229,3.1133,rough,15.5,1,12.933
210,6.72,4.1890,-4.8458,-0.5110,0.0521,0.3807,2.9403,rough,15.5,1,12.756
220,7.04,3.7900,-4.7490,-0.6656,0.0586,0.3650,2.8391,rough,15.5,1,12.568
230,7.36,3.4512,-4.6470,-0.7337,-0.0413,0.0893,2.6736,rough,15.5,1,12.398
240,7.68,3.0862,-4.5086,-0.7656,-0.2292,-0.0007,2.5331,rough,15.5,1,12.195
250,8.00,2.7432,-4.3234,-0.7412,-0.3004,-0.1042,2.4172,rough,15.5,1,11.958
260,8.32,2.3877,-4.0176,-0.7820,-0.3443,0.0583,2.2662,rough,15.5,1,11.608
270,8.64,2.0614,-3.7007,-0.7789,-0.4521,0.0772,2.1984,rough,15.5,1,11.259
280,8.96,1.8271,-3.4568,-0.7450,-0.4420,-0.4626,2.2298,rough,15.5,1,10.996
290,9.28,1.6374,-3.1746,-0.6171,-0.2423,-0.5200,2.2422,rough,15.5,1,10.702
300,9.60,1.3838,-2.8536,-0.4284,-0.2368,-0.4119,2.1669,rough,15.5,1,10.370
310,9.92,1.1662,-2.5110,-0.2674,-0.1820,-0.3577,2.1229,rough,15.5,1,10.022
320,10.24,0.9366,-2.1386,-0.1499,-0.1643,-0.2774,2.0697,rough,15.5,1,9.649
330,10.56,0.7399,-1.7394,-0.0217,-0.1222,-0.2924,1.9836,rough,15.5,1,9.253
340,10.88,0.5828,-1.2976,0.0952,-0.0409,-0.2404,1.8933,rough,15.5,1,8.818
350,11.20,0.4419,-0.8387,0.1675,-0.0154,-0.1151,1.8456,rough,15.5,1,8.368
360,11.52,0.3066,-0.3795,0.1977,-0.0436,-0.0215,1.8140,rough,15.5,1,7.921
370,11.84,0.1930,0.0781,0.2105,-0.0531,-0.0148,1.7768,rough,15.5,1,7.477
380,12.16,0.1037,0.5420,0.2215,-0.0098,-0.0522,1.7258,rough,15.5,1,7.028
390,12.48,0.0312,0.9891,0.2678,-0.0323,-0.1292,1.7083,rough,15.5,1,6.595
400,12.80,-0.0407,1.4282,0.3327,-0.0846,-0.2095,1.6994,rough,15.5,1,6.173
410,13.12,-0.0975,1.8292,0.3920,-0.0962,-0.1446,1.4862,rough,15.5,1,5.789
420,13.44,-0.0548,2.2421,0.4483,-0.0779,-0.1346,1.3116,rough,15.5,1,5.376
430,13.76,0.1056,2.6990,0.4273,-0.0506,0.1218,1.1677,rough,15.5,1,4.897
440,14.08,0.3183,3.1628,0.2557,-0.0913,0.7574,0.8944,rough,15.5,1,4.403
450,14.40,0.2960,3.2315,0.1957,-0.2504,0.4467,0.4396,rough,15.5,1,4.339
460,14.72,0.2913,3.2439,0.1965,-0.2361,0.4525,0.4379,rough,15.5,1,4.327
470,15.04,0.2913,3.2442,0.1968,-0.2348,0.4522,0.4375,rough,15.5,1,4.327
480,15.36,0.2648,3.2843,0.1790,-0.2290,0.4255,0.4333,rough,15.5,1,4.292
490,15.68,0.2347,3.3485,0.1562,-0.2799,0.3009,0.2401,rough,15.5,1,4.235
500,16.00,0.2070,3.4036,0.1297,-0.3864,0.2749,0.0688,rough,15.5,1,4.186
510,16.32,0.2074,3.4388,0.1073,-0.4599,0.3003,0.0375,rough,15.5,1,4.151
520,16.64,0.2070,3.4494,0.1049,-0.4791,0.2985,-0.0189,rough,15.5,1,4.141
530,16.96,0.2051,3.4555,0.1028,-0.4944,0.2986,-0.0488,rough,15.5,1,4.135
540,17.28,0.2050,3.4587,0.1009,-0.5032,0.2997,-0.0636,rough,15.5,1,4.132
550,17.60,0.2060,3.4608,0.0994,-0.5078,0.2995,-0.0696,rough,15.5,1,4.130
560,17.92,0.2068,3.4619,0.0988,-0.5111,0.2966,-0.0741,rough,15.5,1,4.129
570,18.24,0.2062,3.4625,0.0988,-0.5125,0.2970,-0.0771,rough,15.5,1,4.128
580,18.56,0.2070,3.4628,0.0984,-0.5135,0.2955,-0.0778,rough,15.5,1,4.128
590,18.88,0.2063,3.4631,0.0984,-0.5138,0.2967,-0.0789,rough,15.5,1,4.127
600,19.20,0.2061,3.4633,0.0984,-0.5140,0.2975,-0.0795,rough,15.5,1,4.127
610,19.52,0.2068,3.4634,0.0981,-0.5145,0.2965,-0.0792,rough,15.5,1,4.127
620,19.84,0.2063,3.4636,0.0981,-0.5144,0.2977,-0.0798,rough,15.5,1,4.127
630,20.16,0.2068,3.4637,0.0979,-0.5148,0.2972,-0.0796,rough,15.5,1,4.127
640,20.48,0.2075,3.4639,0.0976,-0.5151,0.2965,-0.0792,rough,15.5,1,4.126
650,20.80,0.2065,3.4640,0.0978,-0.5149,0.2984,-0.0800,rough,15.5,1,4.127
660,21.12,0.2069,3.4642,0.0976,-0.5152,0.2981,-0.0799,rough,15.5,1,4.126
670,21.44,0.2071,3.4643,0.0974,-0.5154,0.2981,-0.0799,rough,15.5,1,4.126
680,21.76,0.2073,3.4644,0.0973,-0.5156,0.2981,-0.0799,rough,15.5,1,4.126
690,22.08,0.2073,3.4646,0.0971,-0.5157,0.2984,-0.0800,rough,15.5,1,4.126
700,22.40,0.2074,3.4647,0.0970,-0.5157,0.2987,-0.0799,rough,15.5,1,4.126
710,22.72,0.2071,3.4649,0.0970,-0.5157,0.2995,-0.0803,rough,15.5,1,4.126
720,23.04,0.2083,3.4650,0.0966,-0.5163,0.2977,-0.0795,rough,15.5,1,4.125
730,23.36,0.2079,3.4652,0.0966,-0.5164,0.2987,-0.0800,rough,15.5,1,4.125
740,23.68,0.2089,3.4653,0.0962,-0.5166,0.2974,-0.0793,rough,15.5,1,4.125
750,24.00,0.2081,3.4655,0.0964,-0.5167,0.2991,-0.0801,rough,15.5,1,4.125
760,24.32,0.2090,3.4656,0.0960,-0.5169,0.2980,-0.0795,rough,15.5,1,4.124
770,24.64,0.2081,3.4658,0.0962,-0.5166,0.2998,-0.0802,rough,15.5,1,4.124
780,24.96,0.2085,3.4660,0.0960,-0.5171,0.2994,-0.0802,rough,15.5,1,4.124
790,25.28,0.2089,3.4661,0.0957,-0.5173,0.2991,-0.0799,rough,15.5,1,4.124
800,25.60,0.2090,3.4663,0.0956,-0.5174,0.2992,-0.0800,rough,15.5,1,4.124
810,25.92,0.2090,3.4664,0.0955,-0.5175,0.2995,-0.0801,rough,15.5,1,4.124
820,26.24,0.2090,3.4666,0.0954,-0.5177,0.2998,-0.0802,rough,15.5,1,4.123
830,26.56,0.2087,3.4668,0.0954,-0.5173,0.3009,-0.0804,rough,15.5,1,4.123
840,26.88,0.2099,3.4670,0.0950,-0.5179,0.2991,-0.0795,rough,15.5,1,4.123
850,27.20,0.2093,3.4672,0.0950,-0.5180,0.3003,-0.0801,rough,15.5,1,4.123
860,27.52,0.2087,3.4674,0.0951,-0.5177,0.3017,-0.0805,rough,15.5,1,4.123
870,27.84,0.2097,3.4677,0.0947,-0.5182,0.3003,-0.0799,rough,15.5,1,4.122
880,28.16,0.2089,3.4679,0.0948,-0.5180,0.3020,-0.0806,rough,15.5,1,4.122
890,28.48,0.2097,3.4682,0.0944,-0.5185,0.3008,-0.0800,rough,15.5,1,4.122
900,28.80,0.2089,3.4684,0.0946,-0.5183,0.3025,-0.0808,rough,15.5,1,4.122
910,29.12,0.2097,3.4687,0.0942,-0.5188,0.3013,-0.0802,rough,15.5,1,4.121
920,29.44,0.2104,3.4689,0.0939,-0.5190,0.3005,-0.0798,rough,15.5,1,4.121
930,29.76,0.2094,3.4692,0.0941,-0.5191,0.3023,-0.0807,rough,15.5,1,4.121
940,30.08,0.2102,3.4694,0.0937,-0.5194,0.3013,-0.0802,rough,15.5,1,4.120
950,30.40,0.2091,3.4697,0.0939,-0.5195,0.3033,-0.0812,rough,15.5,1,4.120
960,30.72,0.2100,3.4699,0.0936,-0.5197,0.3021,-0.0807,rough,15.5,1,4.120
970,31.04,0.2104,3.4702,0.0933,-0.5198,0.3018,-0.0804,rough,15.5,1,4.120
980,31.36,0.2092,3.4705,0.0936,-0.5199,0.3039,-0.0814,rough,15.5,1,4.120
990,31.68,0.2097,3.4707,0.0933,-0.5201,0.3033,-0.0810,rough,15.5,1,4.119
1000,32.00,0.2102,3.4710,0.0930,-0.5203,0.3028,-0.0808,rough,15.5,1,4.119
1010,32.32,0.2105,3.4712,0.0928,-0.5205,0.3026,-0.0807,rough,15.5,1,4.119
1020,32.64,0.2092,3.4716,0.0931,-0.5206,0.3050,-0.0819,rough,15.5,1,4.119
1030,32.96,0.2097,3.4718,0.0928,-0.5208,0.3043,-0.0816,rough,15.5,1,4.118
1040,33.28,0.2100,3.4720,0.0926,-0.5209,0.3041,-0.0814,rough,15.5,1,4.118
1050,33.60,0.2102,3.4723,0.0924,-0.5211,0.3041,-0.0814,rough,15.5,1,4.118
1060,33.92,0.2104,3.4725,0.0923,-0.5213,0.3041,-0.0814,rough,15.5,1,4.117
1070,34.24,0.2105,3.4728,0.0921,-0.5214,0.3042,-0.0814,rough,15.5,1,4.117
1080,34.56,0.2106,3.4730,0.0920,-0.5216,0.3043,-0.0815,rough,15.5,1,4.117
1090,34.88,0.2106,3.4733,0.0918,-0.5217,0.3045,-0.0815,rough,15.5,1,4.117
1100,35.20,0.2106,3.4736,0.0917,-0.5219,0.3048,-0.0817,rough,15.5,1,4.116
1110,35.52,0.2105,3.4738,0.0916,-0.5221,0.3052,-0.0818,rough,15.5,1,4.116
1120,35.84,0.2104,3.4741,0.0915,-0.5222,0.3057,-0.0820,rough,15.5,1,4.116
1130,36.16,0.2099,3.4744,0.0916,-0.5223,0.3068,-0.0825,rough,15.5,1,4.116
1140,36.48,0.2108,3.4746,0.0912,-0.5226,0.3056,-0.0820,rough,15.5,1,4.115
1150,36.80,0.2110,3.4748,0.0910,-0.5228,0.3057,-0.0821,rough,15.5,1,4.115
1160,37.12,0.2111,3.4750,0.0909,-0.5230,0.3059,-0.0822,rough,15.5,1,4.115
1170,37.44,0.2112,3.4752,0.0907,-0.5232,0.3061,-0.0823,rough,15.5,1,4.115
1180,37.76,0.2113,3.4753,0.0906,-0.5234,0.3063,-0.0824,rough,15.5,1,4.114
1190,38.08,0.2113,3.4755,0.0904,-0.5236,0.3065,-0.0825,rough,15.5,1,4.114
1200,38.40,0.2114,3.4757,0.0903,-0.5238,0.3067,-0.0825,rough,15.5,1,4.114
1210,38.72,0.2115,3.4759,0.0902,-0.5240,0.3069,-0.0826,rough,15.5,1,4.114
1220,39.04,0.2116,3.4761,0.0901,-0.5242,0.3071,-0.0827,rough,15.5,1,4.114
1230,39.36,0.2116,3.4763,0.0899,-0.5244,0.3073,-0.0828,rough,15.5,1,4.113
1240,39.68,0.2117,3.4765,0.0898,-0.5246,0.3075,-0.0828,rough,15.5,1,4.113
1250,40.00,0.2117,3.4767,0.0897,-0.5247,0.3077,-0.0829,rough,15.5,1,4.113
1260,40.32,0.2118,3.4769,0.0896,-0.5249,0.3079,-0.0830,rough,15.5,1,4.113
1270,40.64,0.2119,3.4770,0.0895,-0.5251,0.3081,-0.0831,rough,15.5,1,4.113
1280,40.96,0.2119,3.4772,0.0893,-0.5252,0.3083,-0.0831,rough,15.5,1,4.112
1290,41.28,0.2119,3.4774,0.0892,-0.5254,0.3085,-0.0832,rough,15.5,1,4.112
1300,41.60,0.2120,3.4776,0.0891,-0.5256,0.3087,-0.0833,rough,15.5,1,4.112
1310,41.92,0.2120,3.4778,0.0890,-0.5257,0.3089,-0.0834,rough,15.5,1,4.112
1320,42.24,0.2121,3.4780,0.0889,-0.5259,0.3091,-0.0835,rough,15.5,1,4.112
1330,42.56,0.2121,3.4782,0.0888,-0.5260,0.3093,-0.0835,rough,15.5,1,4.112
1340,42.88,0.2121,3.4784,0.0887,-0.5262,0.3095,-0.0836,rough,15.5,1,4.111
1350,43.20,0.2122,3.4786,0.0886,-0.5263,0.3097,-0.0837,rough,15.5,1,4.111
1360,43.52,0.2122,3.4788,0.0885,-0.5265,0.3099,-0.0838,rough,15.5,1,4.111
1370,43.84,0.2122,3.4790,0.0884,-0.5266,0.3100,-0.0838,rough,15.5,1,4.111
1380,44.16,0.2123,3.4792,0.0883,-0.5268,0.3102,-0.0839,rough,15.5,1,4.111
1390,44.48,0.2123,3.4794,0.0882,-0.5269,0.3104,-0.0840,rough,15.5,1,4.110
1400,44.80,0.2123,3.4795,0.0881,-0.5271,0.3106,-0.0841,rough,15.5,1,4.110
1410,45.12,0.2123,3.4797,0.0880,-0.5272,0.3108,-0.0842,rough,15.5,1,4.110
1420,45.44,0.2124,3.4799,0.0879,-0.5274,0.3110,-0.0843,rough,15.5,1,4.110
1430,45.76,0.2124,3.4801,0.0878,-0.5275,0.3112,-0.0843,rough,15.5,1,4.110
1440,46.08,0.2124,3.4803,0.0877,-0.5276,0.3114,-0.0844,rough,15.5,1,4.109
1450,46.40,0.2124,3.4805,0.0876,-0.5278,0.3116,-0.0845,rough,15.5,1,4.109
1460,46.72,0.2124,3.4807,0.0875,-0.5279,0.3117,-0.0846,rough,15.5,1,4.109
1470,47.04,0.2124,3.4809,0.0874,-0.5281,0.3119,-0.0847,rough,15.5,1,4.109
1480,47.36,0.2125,3.4811,0.0873,-0.5282,0.3121,-0.0847,rough,15.5,1,4.109
1490,47.68,0.2125,3.4813,0.0872,-0.5283,0.3123,-0.0848,rough,15.5,1,4.108
1500,48.00,0.2125,3.4815,0.0871,-0.5285,0.3125,-0.0849,rough,15.5,1,4.108
1510,48.32,0.2125,3.4817,0.0870,-0.5286,0.3127,-0.0850,rough,15.5,1,4.108
1520,48.64,0.2125,3.4819,0.0869,-0.5287,0.3128,-0.0851,rough,15.5,1,4.108
1530,48.96,0.2125,3.4820,0.0868,-0.5289,0.3130,-0.0852,rough,15.5,1,4.108
1540,49.28,0.2125,3.4822,0.0867,-0.5290,0.3132,-0.0852,rough,15.5,1,4.107
1550,49.60,0.2125,3.4824,0.0867,-0.5291,0.3134,-0.0853,rough,15.5,1,4.107
1560,49.92,0.2125,3.4826,0.0866,-0.5292,0.3136,-0.0854,rough,15.5,1,4.107
1570,50.24,0.2125,3.4828,0.0865,-0.5294,0.3138,-0.0855,rough,15.5,1,4.107
1580,50.56,0.2126,3.4830,0.0864,-0.5295,0.3139,-0.0856,rough,15.5,1,4.107
1590,50.88,0.2126,3.4832,0.0863,-0.5296,0.3141,-0.0856,rough,15.5,1,4.107
1600,51.20,0.2126,3.4834,0.0862,-0.5298,0.3143,-0.0857,rough,15.5,1,4.106
1610,51.52,0.2126,3.4836,0.0861,-0.5299,0.3145,-0.0858,rough,15.5,1,4.106
1620,51.84,0.2126,3.4838,0.0860,-0.5300,0.3147,-0.0859,rough,15.5,1,4.106
1630,52.16,0.2126,3.4840,0.0859,-0.5301,0.3148,-0.0860,rough,15.5,1,4.106
1640,52.48,0.2126,3.4841,0.0859,-0.5303,0.3150,-0.0861,rough,15.5,1,4.106
1650,52.80,0.2126,3.4843,0.0858,-0.5304,0.3152,-0.0861,rough,15.5,1,4.105
1660,53.12,0.2126,3.4845,0.0857,-0.5305,0.3154,-0.0862,rough,15.5,1,4.105
1670,53.44,0.2126,3.4847,0.0856,-0.5306,0.3156,-0.0863,rough,15.5,1,4.105
1680,53.76,0.2126,3.4849,0.0855,-0.5308,0.3157,-0.0864,rough,15.5,1,4.105
1690,54.08,0.2126,3.4851,0.0854,-0.5309,0.3159,-0.0865,rough,15.5,1,4.105
1700,54.40,0.2126,3.4853,0.0853,-0.5310,0.3161,-0.0866,rough,15.5,1,4.104
1710,54.72,0.2126,3.4855,0.0853,-0.5311,0.3163,-0.0866,rough,15.5,1,4.104
1720,55.04,0.2126,3.4857,0.0852,-0.5312,0.3164,-0.0867,rough,15.5,1,4.104
1730,55.36,0.2126,3.4859,0.0851,-0.5314,0.3166,-0.0868,rough,15.5,1,4.104
1740,55.68,0.2126,3.4860,0.0850,-0.5315,0.3168,-0.0869,rough,15.5,1,4.104
1750,56.00,0.2126,3.4862,0.0849,-0.5316,0.3170,-0.0870,rough,15.5,1,4.104
1760,56.32,0.2126,3.4864,0.0848,-0.5317,0.3171,-0.0871,rough,15.5,1,4.103
1770,56.64,0.2126,3.4866,0.0847,-0.5319,0.3173,-0.0871,rough,15.5,1,4.103
1780,56.96,0.2126,3.4868,0.0847,-0.5320,0.3175,-0.0872,rough,15.5,1,4.103
1790,57.28,0.2126,3.4870,0.0846,-0.5321,0.3177,-0.0873,rough,15.5,1,4.103
1800,57.60,0.2126,3.4872,0.0845,-0.5322,0.3178,-0.0874,rough,15.5,1,4.103
1810,57.92,0.2126,3.4874,0.0844,-0.5323,0.3180,-0.0875,rough,15.5,1,4.102
1820,58.24,0.2126,3.4875,0.0843,-0.5325,0.3182,-0.0876,rough,15.5,1,4.102
1830,58.56,0.2126,3.4877,0.0842,-0.5326,0.3184,-0.0876,rough,15.5,1,4.102
1840,58.88,0.2126,3.4879,0.0842,-0.5327,0.3185,-0.0877,rough,15.5,1,4.102
1850,59.20,0.2126,3.4881,0.0841,-0.5328,0.3187,-0.0878,rough,15.5,1,4.102
1860,59.52,0.2126,3.4883,0.0840,-0.5329,0.3189,-0.0879,rough,15.5,1,4.102
1870,59.84,0.2126,3.4885,0.0839,-0.5330,0.3191,-0.0880,rough,15.5,1,4.101
1880,60.16,0.2126,3.4887,0.0838,-0.5332,0.3192,-0.0881,rough,15.5,1,4.101
1890,60.48,0.2126,3.4888,0.0838,-0.5333,0.3194,-0.0881,rough,15.5,1,4.101
1900,60.80,0.2126,3.4890,0.0837,-0.5334,0.3196,-0.0882,rough,15.5,1,4.101
1910,61.12,0.2126,3.4892,0.0836,-0.5335,0.3198,-0.0883,rough,15.5,1,4.101
1920,61.44,0.2126,3.4894,0.0835,-0.5336,0.3199,-0.0884,rough,15.5,1,4.100
1930,61.76,0.2126,3.4896,0.0834,-0.5337,0.3201,-0.0885,rough,15.5,1,4.100
1940,62.08,0.2126,3.4898,0.0833,-0.5339,0.3203,-0.0885,rough,15.5,1,4.100
1950,62.40,0.2126,3.4900,0.0833,-0.5340,0.3204,-0.0886,rough,15.5,1,4.100
1960,62.72,0.2126,3.4901,0.0832,-0.5341,0.3206,-0.0887,rough,15.5,1,4.100
1970,63.04,0.2126,3.4903,0.0831,-0.5342,0.3208,-0.0888,rough,15.5,1,4.100
1980,63.36,0.2126,3.4905,0.0830,-0.5343,0.3210,-0.0889,rough,15.5,1,4.099
1990,63.68,0.2126,3.4907,0.0829,-0.5344,0.3211,-0.0890,rough,15.5,1,4.099
2000,64.00,0.2126,3.4909,0.0829,-0.5346,0.3213,-0.0890,rough,15.5,1,4.099
2010,64.32,0.2126,3.4911,0.0828,-0.5347,0.3215,-0.0891,rough,15.5,1,4.099
2020,64.64,0.2125,3.4912,0.0827,-0.5348,0.3216,-0.0892,rough,15.5,1,4.099
2030,64.96,0.2125,3.4914,0.0826,-0.5349,0.3218,-0.0893,rough,15.5,1,4.098
2040,65.28,0.2125,3.4916,0.0825,-0.5350,0.3220,-0.0894,rough,15.5,1,4.098
2050,65.60,0.2125,3.4918,0.0825,-0.5351,0.3221,-0.0894,rough,15.5,1,4.098
2060,65.92,0.2125,3.4920,0.0824,-0.5352,0.3223,-0.0895,rough,15.5,1,4.098
2070,66.24,0.2125,3.4922,0.0823,-0.5354,0.3225,-0.0896,rough,15.5,1,4.098
2080,66.56,0.2125,3.4923,0.0822,-0.5355,0.3226,-0.0897,rough,15.5,1,4.098
2090,66.88,0.2125,3.4925,0.0821,-0.5356,0.3228,-0.0898,rough,15.5,1,4.097
2100,67.20,0.2125,3.4927,0.0821,-0.5357,0.3230,-0.0899,rough,15.5,1,4.097
2110,67.52,0.2125,3.4929,0.0820,-0.5358,0.3232,-0.0899,rough,15.5,1,4.097
2120,67.84,0.2125,3.4931,0.0819,-0.5359,0.3233,-0.0900,rough,15.5,1,4.097
2130,68.16,0.2125,3.4932,0.0818,-0.5360,0.3235,-0.0901,rough,15.5,1,4.097
2140,68.48,0.2125,3.4934,0.0818,-0.5362,0.3237,-0.0902,rough,15.5,1,4.097
2150,68.80,0.2125,3.4936,0.0817,-0.5363,0.3238,-0.0903,rough,15.5,1,4.096
2160,69.12,0.2125,3.4938,0.0816,-0.5364,0.3240,-0.0903,rough,15.5,1,4.096
2170,69.44,0.2125,3.4940,0.0815,-0.5365,0.3242,-0.0904,rough,15.5,1,4.096
2180,69.76,0.2125,3.4941,0.0814,-0.5366,0.3243,-0.0905,rough,15.5,1,4.096
2190,70.08,0.2125,3.4943,0.0814,-0.5367,0.3245,-0.0906,rough,15.5,1,4.096
2200,70.40,0.2125,3.4945,0.0813,-0.5368,0.3247,-0.0907,rough,15.5,1,4.095
2210,70.72,0.2125,3.4947,0.0812,-0.5370,0.3248,-0.0908,rough,15.5,1,4.095
2220,71.04,0.2125,3.4949,0.0811,-0.5371,0.3250,-0.0908,rough,15.5,1,4.095
2230,71.36,0.2125,3.4950,0.0811,-0.5372,0.3251,-0.0909,rough,15.5,1,4.095
2240,71.68,0.2125,3.4952,0.0810,-0.5373,0.3253,-0.0910,rough,15.5,1,4.095
2250,72.00,0.2125,3.4954,0.0809,-0.5374,0.3255,-0.0911,rough,15.5,1,4.095
2260,72.32,0.2125,3.4956,0.0808,-0.5375,0.3256,-0.0912,rough,15.5,1,4.094
2270,72.64,0.2124,3.4957,0.0807,-0.5376,0.3258,-0.0912,rough,15.5,1,4.094
2280,72.96,0.2124,3.4959,0.0807,-0.5377,0.3260,-0.0913,rough,15.5,1,4.094
2290,73.28,0.2124,3.4961,0.0806,-0.5379,0.3261,-0.0914,rough,15.5,1,4.094
2300,73.60,0.2124,3.4963,0.0805,-0.5380,0.3263,-0.0915,rough,15.5,1,4.094
2310,73.92,0.2124,3.4965,0.0804,-0.5381,0.3265,-0.0916,rough,15.5,1,4.094
2320,74.24,0.2124,3.4966,0.0804,-0.5382,0.3266,-0.0916,rough,15.5,1,4.093
2330,74.56,0.2124,3.4968,0.0803,-0.5383,0.3268,-0.0917,rough,15.5,1,4.093
2340,74.88,0.2124,3.4970,0.0802,-0.5384,0.3270,-0.0918,rough,15.5,1,4.093
2350,75.20,0.2124,3.4972,0.0801,-0.5385,0.3271,-0.0919,rough,15.5,1,4.093
2360,75.52,0.2124,3.4973,0.0801,-0.5386,0.3273,-0.0920,rough,15.5,1,4.093
2370,75.84,0.2124,3.4975,0.0800,-0.5387,0.3274,-0.0920,rough,15.5,1,4.093
2380,76.16,0.2124,3.4977,0.0799,-0.5388,0.3276,-0.0921,rough,15.5,1,4.092
2390,76.48,0.2124,3.4979,0.0798,-0.5390,0.3278,-0.0922,rough,15.5,1,4.092
2400,76.80,0.2124,3.4980,0.0798,-0.5391,0.3279,-0.0923,rough,15.5,1,4.092
2410,77.12,0.2124,3.4982,0.0797,-0.5392,0.3281,-0.0924,rough,15.5,1,4.092
2420,77.44,0.2124,3.4984,0.0796,-0.5393,0.3282,-0.0924,rough,15.5,1,4.092
2430,77.76,0.2126,3.4985,0.0794,-0.5387,0.3276,-0.0920,rough,15.5,1,4.092
2440,78.08,0.2134,3.4983,0.0789,-0.5352,0.3248,-0.0893,rough,15.5,1,4.092
2450,78.40,0.2136,3.4984,0.0786,-0.5341,0.3236,-0.0887,rough,15.5,1,4.091
2460,78.72,0.2140,3.4985,0.0783,-0.5327,0.3220,-0.0879,rough,15.5,1,4.091
2470,79.04,0.2143,3.4987,0.0780,-0.5315,0.3204,-0.0874,rough,15.5,1,4.091
2480,79.36,0.2151,3.4987,0.0776,-0.5291,0.3173,-0.0857,rough,15.5,1,4.091
2490,79.68,0.2154,3.4991,0.0774,-0.5294,0.3161,-0.0863,rough,15.5,1,4.090
2500,80.00,0.2122,3.5002,0.0787,-0.5368,0.3240,-0.0940,rough,15.5,1,4.090
2510,80.32,0.2115,3.5004,0.0790,-0.5384,0.3265,-0.0947,rough,15.5,1,4.090
2520,80.64,0.2115,3.5004,0.0790,-0.5383,0.3271,-0.0940,rough,15.5,1,4.090
2530,80.96,0.2115,3.5005,0.0790,-0.5381,0.3274,-0.0935,rough,15.5,1,4.090
2540,81.28,0.2116,3.5006,0.0789,-0.5380,0.3275,-0.0932,rough,15.5,1,4.090
2550,81.60,0.2116,3.5008,0.0788,-0.5379,0.3276,-0.0931,rough,15.5,1,4.089
2560,81.92,0.2116,3.5009,0.0787,-0.5378,0.3276,-0.0930,rough,15.5,1,4.089
2570,82.24,0.2117,3.5011,0.0786,-0.5377,0.3275,-0.0929,rough,15.5,1,4.089
2580,82.56,0.2117,3.5013,0.0785,-0.5376,0.3275,-0.0929,rough,15.5,1,4.089
2590,82.88,0.2117,3.5014,0.0784,-0.5375,0.3275,-0.0929,rough,15.5,1,4.089
2600,83.20,0.2117,3.5016,0.0783,-0.5375,0.3274,-0.0929,rough,15.5,1,4.089
2610,83.52,0.2117,3.5018,0.0783,-0.5374,0.3274,-0.0928,rough,15.5,1,4.088
2620,83.84,0.2118,3.5019,0.0782,-0.5373,0.3273,-0.0928,rough,15.5,1,4.088
2630,84.16,0.2118,3.5021,0.0781,-0.5372,0.3273,-0.0928,rough,15.5,1,4.088
2640,84.48,0.2118,3.5023,0.0780,-0.5371,0.3272,-0.0928,rough,15.5,1,4.088
2650,84.80,0.2118,3.5024,0.0779,-0.5370,0.3272,-0.0928,rough,15.5,1,4.088
2660,85.12,0.2118,3.5026,0.0778,-0.5369,0.3271,-0.0928,rough,15.5,1,4.088
2670,85.44,0.2118,3.5028,0.0777,-0.5368,0.3271,-0.0928,rough,15.5,1,4.087
2680,85.76,0.2118,3.5029,0.0776,-0.5367,0.3270,-0.0928,rough,15.5,1,4.087
2690,86.08,0.2118,3.5031,0.0776,-0.5366,0.3270,-0.0928,rough,15.5,1,4.087
2700,86.40,0.2118,3.5033,0.0775,-0.5365,0.3269,-0.0928,rough,15.5,1,4.087
2710,86.72,0.2118,3.5035,0.0774,-0.5364,0.3268,-0.0928,rough,15.5,1,4.087
2720,87.04,0.2118,3.5036,0.0773,-0.5363,0.3268,-0.0928,rough,15.5,1,4.087
2730,87.36,0.2118,3.5038,0.0772,-0.5362,0.3267,-0.0928,rough,15.5,1,4.086
2740,87.68,0.2118,3.5040,0.0772,-0.5361,0.3267,-0.0928,rough,15.5,1,4.086
2750,88.00,0.2118,3.5041,0.0771,-0.5360,0.3266,-0.0928,rough,15.5,1,4.086
2760,88.32,0.2118,3.5043,0.0770,-0.5359,0.3265,-0.0927,rough,15.5,1,4.086
2770,88.64,0.2117,3.5045,0.0769,-0.5358,0.3265,-0.0927,rough,15.5,1,4.086
2780,88.96,0.2117,3.5046,0.0769,-0.5356,0.3264,-0.0927,rough,15.5,1,4.086
2790,89.28,0.2117,3.5048,0.0768,-0.5355,0.3264,-0.0927,rough,15.5,1,4.085
2800,89.60,0.2117,3.5050,0.0767,-0.5354,0.3263,-0.0927,rough,15.5,1,4.085
2810,89.92,0.2117,3.5052,0.0766,-0.5353,0.3262,-0.0927,rough,15.5,1,4.085
2820,90.24,0.2117,3.5053,0.0766,-0.5352,0.3262,-0.0927,rough,15.5,1,4.085
2830,90.56,0.2117,3.5055,0.0765,-0.5351,0.3261,-0.0927,rough,15.5,1,4.085
2840,90.88,0.2117,3.5057,0.0764,-0.5349,0.3260,-0.0927,rough,15.5,1,4.085
2850,91.20,0.2116,3.5058,0.0763,-0.5348,0.3260,-0.0927,rough,15.5,1,4.085
2860,91.52,0.2116,3.5060,0.0763,-0.5347,0.3259,-0.0927,rough,15.5,1,4.084
2870,91.84,0.2116,3.5062,0.0762,-0.5346,0.3258,-0.0927,rough,15.5,1,4.084
2880,92.16,0.2116,3.5063,0.0761,-0.5345,0.3258,-0.0927,rough,15.5,1,4.084
2890,92.48,0.2116,3.5065,0.0760,-0.5344,0.3257,-0.0927,rough,15.5,1,4.084
2900,92.80,0.2115,3.5067,0.0760,-0.5342,0.3257,-0.0927,rough,15.5,1,4.084
2910,93.12,0.2115,3.5068,0.0759,-0.5341,0.3256,-0.0927,rough,15.5,1,4.084
2920,93.44,0.2115,3.5070,0.0758,-0.5340,0.3255,-0.0927,rough,15.5,1,4.083
2930,93.76,0.2115,3.5072,0.0758,-0.5339,0.3255,-0.0927,rough,15.5,1,4.083
2940,94.08,0.2115,3.5073,0.0757,-0.5337,0.3254,-0.0927,rough,15.5,1,4.083
2950,94.40,0.2114,3.5075,0.0756,-0.5336,0.3253,-0.0927,rough,15.5,1,4.083
2960,94.72,0.2114,3.5077,0.0756,-0.5335,0.3253,-0.0927,rough,15.5,1,4.083
2970,95.04,0.2114,3.5078,0.0755,-0.5334,0.3252,-0.0926,rough,15.5,1,4.083
2980,95.36,0.2114,3.5080,0.0754,-0.5333,0.3251,-0.0926,rough,15.5,1,4.082
2990,95.68,0.2114,3.5082,0.0754,-0.5331,0.3251,-0.0926,rough,15.5,1,4.082
3000,96.00,0.2113,3.5083,0.0753,-0.5330,0.3250,-0.0926,rough,15.5,1,4.082
3010,96.32,0.2113,3.5085,0.0752,-0.5329,0.3249,-0.0926,rough,15.5,1,4.082
3020,96.64,0.2113,3.5087,0.0752,-0.5328,0.3248,-0.0926,rough,15.5,1,4.082
3030,96.96,0.2113,3.5088,0.0751,-0.5326,0.3248,-0.0926,rough,15.5,1,4.082
3040,97.28,0.2112,3.5090,0.0750,-0.5325,0.3247,-0.0926,rough,15.5,1,4.081
3050,97.60,0.2112,3.5092,0.0750,-0.5324,0.3246,-0.0926,rough,15.5,1,4.081
3060,97.92,0.2112,3.5093,0.0749,-0.5323,0.3246,-0.0926,rough,15.5,1,4.081
3070,98.24,0.2112,3.5095,0.0748,-0.5322,0.3245,-0.0926,rough,15.5,1,4.081
3080,98.56,0.2111,3.5097,0.0748,-0.5320,0.3244,-0.0926,rough,15.5,1,4.081
3090,98.88,0.2111,3.5098,0.0747,-0.5319,0.3244,-0.0926,rough,15.5,1,4.081
3100,99.20,0.2111,3.5100,0.0746,-0.5318,0.3243,-0.0926,rough,15.5,1,4.081
3110,99.52,0.2111,3.5102,0.0746,-0.5317,0.3242,-0.0926,rough,15.5,1,4.080
3120,99.84,0.2110,3.5103,0.0745,-0.5315,0.3242,-0.0926,rough,15.5,1,4.080
3130,100.16,0.2110,3.5105,0.0744,-0.5314,0.3241,-0.0926,rough,15.5,1,4.080
3140,100.48,0.2110,3.5107,0.0744,-0.5313,0.3240,-0.0926,rough,15.5,1,4.080
3150,100.80,0.2110,3.5108,0.0743,-0.5312,0.3240,-0.0926,rough,15.5,1,4.080
3160,101.12,0.2109,3.5110,0.0742,-0.5310,0.3239,-0.0926,rough,15.5,1,4.080
3170,101.44,0.2109,3.5112,0.0742,-0.5309,0.3238,-0.0926,rough,15.5,1,4.079
3180,101.76,0.2109,3.5113,0.0741,-0.5308,0.3238,-0.0926,rough,15.5,1,4.079
3190,102.08,0.2109,3.5115,0.0740,-0.5307,0.3237,-0.0926,rough,15.5,1,4.079
3200,102.40,0.2108,3.5116,0.0740,-0.5305,0.3236,-0.0926,rough,15.5,1,4.079
3210,102.72,0.2108,3.5118,0.0739,-0.5304,0.3236,-0.0926,rough,15.5,1,4.079
3220,103.04,0.2108,3.5120,0.0738,-0.5303,0.3235,-0.0926,rough,15.5,1,4.079
3230,103.36,0.2108,3.5121,0.0738,-0.5302,0.3234,-0.0926,rough,15.5,1,4.079
3240,103.68,0.2107,3.5123,0.0737,-0.5300,0.3234,-0.0926,rough,15.5,1,4.078
3250,104.00,0.2107,3.5125,0.0737,-0.5299,0.3233,-0.0925,rough,15.5,1,4.078
3260,104.32,0.2107,3.5126,0.0736,-0.5298,0.3232,-0.0925,rough,15.5,1,4.078
3270,104.64,0.2107,3.5128,0.0735,-0.5297,0.3231,-0.0925,rough,15.5,1,4.078
3280,104.96,0.2106,3.5129,0.0735,-0.5296,0.3231,-0.0925,rough,15.5,1,4.078
3290,105.28,0.2106,3.5131,0.0734,-0.5294,0.3230,-0.0925,rough,15.5,1,4.078
3300,105.60,0.2106,3.5133,0.0733,-0.5293,0.3229,-0.0925,rough,15.5,1,4.077
3310,105.92,0.2106,3.5134,0.0733,-0.5292,0.3229,-0.0925,rough,15.5,1,4.077
3320,106.24,0.2105,3.5136,0.0732,-0.5291,0.3228,-0.0925,rough,15.5,1,4.077
3330,106.56,0.2105,3.5137,0.0732,-0.5289,0.3227,-0.0925,rough,15.5,1,4.077
3340,106.88,0.2105,3.5139,0.0731,-0.5288,0.3227,-0.0925,rough,15.5,1,4.077
3350,107.20,0.2104,3.5141,0.0730,-0.5287,0.3226,-0.0925,rough,15.5,1,4.077
3360,107.52,0.2104,3.5142,0.0730,-0.5286,0.3225,-0.0925,rough,15.5,1,4.077
3370,107.84,0.2104,3.5144,0.0729,-0.5285,0.3225,-0.0925,rough,15.5,1,4.076
3380,108.16,0.2104,3.5145,0.0728,-0.5283,0.3224,-0.0925,rough,15.5,1,4.076
3390,108.48,0.2103,3.5147,0.0728,-0.5282,0.3223,-0.0925,rough,15.5,1,4.076
3400,108.80,0.2103,3.5149,0.0727,-0.5281,0.3223,-0.0925,rough,15.5,1,4.076
3410,109.12,0.2103,3.5150,0.0727,-0.5280,0.3222,-0.0925,rough,15.5,1,4.076
3420,109.44,0.2103,3.5152,0.0726,-0.5279,0.3221,-0.0925,rough,15.5,1,4.076
3430,109.76,0.2102,3.5153,0.0725,-0.5277,0.3221,-0.0925,rough,15.5,1,4.075
3440,110.08,0.2102,3.5155,0.0725,-0.5276,0.3220,-0.0925,rough,15.5,1,4.075
3450,110.40,0.2102,3.5157,0.0724,-0.5275,0.3219,-0.0925,rough,15.5,1,4.075
3460,110.72,0.2102,3.5158,0.0723,-0.5274,0.3219,-0.0925,rough,15.5,1,4.075
3470,111.04,0.2101,3.5160,0.0723,-0.5273,0.3218,-0.0925,rough,15.5,1,4.075
3480,111.36,0.2101,3.5161,0.0722,-0.5271,0.3217,-0.0925,rough,15.5,1,4.075
3490,111.68,0.2101,3.5163,0.0722,-0.5270,0.3217,-0.0925,rough,15.5,1,4.075
3500,112.00,0.2101,3.5164,0.0721,-0.5269,0.3216,-0.0925,rough,15.5,1,4.074
3510,112.32,0.2100,3.5166,0.0720,-0.5268,0.3215,-0.0925,rough,15.5,1,4.074
3520,112.64,0.2100,3.5168,0.0720,-0.5267,0.3215,-0.0925,rough,15.5,1,4.074
3530,112.96,0.2100,3.5169,0.0719,-0.5265,0.3214,-0.0925,rough,15.5,1,4.074
3540,113.28,0.2100,3.5171,0.0718,-0.5264,0.3213,-0.0925,rough,15.5,1,4.074
3550,113.60,0.2099,3.5172,0.0718,-0.5263,0.3213,-0.0924,rough,15.5,1,4.074
3560,113.92,0.2099,3.5174,0.0717,-0.5262,0.3212,-0.0924,rough,15.5,1,4.074
3570,114.24,0.2099,3.5175,0.0717,-0.5261,0.3211,-0.0924,rough,15.5,1,4.073
3580,114.56,0.2099,3.5177,0.0716,-0.5259,0.3211,-0.0924,rough,15.5,1,4.073
3590,114.88,0.2098,3.5178,0.0715,-0.5258,0.3210,-0.0924,rough,15.5,1,4.073
3600,115.20,0.2098,3.5180,0.0715,-0.5257,0.3209,-0.0924,rough,15.5,1,4.073
3610,115.52,0.2098,3.5182,0.0714,-0.5256,0.3209,-0.0924,rough,15.5,1,4.073
3620,115.84,0.2098,3.5183,0.0714,-0.5255,0.3208,-0.0924,rough,15.5,1,4.073
3630,116.16,0.2098,3.5185,0.0713,-0.5254,0.3207,-0.0924,rough,15.5,1,4.073
3640,116.48,0.2097,3.5186,0.0712,-0.5252,0.3207,-0.0924,rough,15.5,1,4.072
3650,116.80,0.2097,3.5188,0.0712,-0.5251,0.3206,-0.0924,rough,15.5,1,4.072
3660,117.12,0.2097,3.5189,0.0711,-0.5250,0.3205,-0.0924,rough,15.5,1,4.072
3670,117.44,0.2097,3.5191,0.0711,-0.5249,0.3205,-0.0924,rough,15.5,1,4.072
3680,117.76,0.2096,3.5192,0.0710,-0.5248,0.3204,-0.0924,rough,15.5,1,4.072
3690,118.08,0.2096,3.5194,0.0709,-0.5247,0.3203,-0.0924,rough,15.5,1,4.072
3700,118.40,0.2096,3.5195,0.0709,-0.5245,0.3203,-0.0924,rough,15.5,1,4.071
3710,118.72,0.2096,3.5197,0.0708,-0.5244,0.3202,-0.0924,rough,15.5,1,4.071
3720,119.04,0.2095,3.5198,0.0708,-0.5243,0.3202,-0.0924,rough,15.5,1,4.071
3730,119.36,0.2095,3.5200,0.0707,-0.5242,0.3201,-0.0924,rough,15.5,1,4.071
3740,119.68,0.2095,3.5201,0.0706,-0.5241,0.3200,-0.0924,rough,15.5,1,4.071
3750,120.00,0.2095,3.5203,0.0706,-0.5240,0.3200,-0.0924,rough,15.5,1,4.071
3760,120.32,0.2094,3.5204,0.0705,-0.5239,0.3199,-0.0924,rough,15.5,1,4.071
3770,120.64,0.2094,3.5206,0.0705,-0.5237,0.3198,-0.0924,rough,15.5,1,4.070
3780,120.96,0.2094,3.5207,0.0704,-0.5236,0.3198,-0.0924,rough,15.5,1,4.070
3790,121.28,0.2094,3.5209,0.0703,-0.5235,0.3197,-0.0924,rough,15.5,1,4.070
3800,121.60,0.2093,3.5210,0.0703,-0.5234,0.3196,-0.0924,rough,15.5,1,4.070
3810,121.92,0.2093,3.5212,0.0702,-0.5233,0.3196,-0.0924,rough,15.5,1,4.070
3820,122.24,0.2093,3.5213,0.0702,-0.5232,0.3195,-0.0924,rough,15.5,1,4.070
3830,122.56,0.2093,3.5215,0.0701,-0.5231,0.3194,-0.0924,rough,15.5,1,4.070
3840,122.88,0.2093,3.5216,0.0700,-0.5229,0.3194,-0.0924,rough,15.5,1,4.069
3850,123.20,0.2092,3.5218,0.0700,-0.5228,0.3193,-0.0924,rough,15.5,1,4.069
3860,123.52,0.2092,3.5219,0.0699,-0.5227,0.3193,-0.0924,rough,15.5,1,4.069
3870,123.84,0.2092,3.5221,0.0699,-0.5226,0.3192,-0.0924,rough,15.5,1,4.069
3880,124.16,0.2092,3.5222,0.0698,-0.5225,0.3191,-0.0924,rough,15.5,1,4.069
3890,124.48,0.2091,3.5224,0.0697,-0.5224,0.3191,-0.0923,rough,15.5,1,4.069
3900,124.80,0.2091,3.5226,0.0697,-0.5223,0.3188,-0.0926,rough,15.5,1,4.069
3910,125.12,0.2091,3.5234,0.0692,-0.5232,0.3165,-0.0964,rough,15.5,1,4.068
3920,125.44,0.2074,3.5288,0.0664,-0.5306,0.3029,-0.1260,rough,15.5,1,4.063
3930,125.76,0.2091,3.5273,0.0669,-0.5279,0.3049,-0.1158,rough,15.5,1,4.064
3940,126.08,0.2092,3.5277,0.0666,-0.5281,0.3035,-0.1173,rough,15.5,1,4.064
3950,126.40,0.2091,3.5276,0.0667,-0.5276,0.3043,-0.1158,rough,15.5,1,4.064
3960,126.72,0.2091,3.5276,0.0667,-0.5272,0.3047,-0.1150,rough,15.5,1,4.064
3970,127.04,0.2090,3.5277,0.0667,-0.5270,0.3049,-0.1146,rough,15.5,1,4.064
3980,127.36,0.2090,3.5279,0.0667,-0.5269,0.3048,-0.1146,rough,15.5,1,4.063
3990,127.68,0.2090,3.5276,0.0669,-0.5261,0.3061,-0.1123,rough,15.5,1,4.064
4000,128.00,0.2089,3.5277,0.0668,-0.5260,0.3062,-0.1122,rough,15.5,1,4.064
4010,128.32,0.2089,3.5279,0.0667,-0.5259,0.3058,-0.1126,rough,15.5,1,4.063
4020,128.64,0.2089,3.5282,0.0666,-0.5260,0.3054,-0.1133,rough,15.5,1,4.063
4030,128.96,0.2088,3.5280,0.0668,-0.5254,0.3065,-0.1112,rough,15.5,1,4.063
4040,129.28,0.2088,3.5279,0.0669,-0.5249,0.3072,-0.1099,rough,15.5,1,4.063
4050,129.60,0.2088,3.5283,0.0667,-0.5251,0.3064,-0.1113,rough,15.5,1,4.063
4060,129.92,0.2087,3.5283,0.0667,-0.5248,0.3069,-0.1103,rough,15.5,1,4.063
4070,130.24,0.2087,3.5282,0.0668,-0.5243,0.3077,-0.1090,rough,15.5,1,4.063
4080,130.56,0.2087,3.5281,0.0669,-0.5239,0.3082,-0.1080,rough,15.5,1,4.063
4090,130.88,0.2086,3.5286,0.0666,-0.5244,0.3070,-0.1101,rough,15.5,1,4.063
4100,131.20,0.2086,3.5287,0.0666,-0.5241,0.3072,-0.1096,rough,15.5,1,4.063
4110,131.52,0.2086,3.5283,0.0669,-0.5232,0.3089,-0.1066,rough,15.5,1,4.063
4120,131.84,0.2086,3.5285,0.0668,-0.5232,0.3088,-0.1067,rough,15.5,1,4.063
4130,132.16,0.2086,3.5287,0.0667,-0.5232,0.3085,-0.1071,rough,15.5,1,4.063
4140,132.48,0.2085,3.5289,0.0666,-0.5232,0.3082,-0.1076,rough,15.5,1,4.063
4150,132.80,0.2085,3.5287,0.0667,-0.5226,0.3093,-0.1057,rough,15.5,1,4.063
4160,133.12,0.2085,3.5290,0.0665,-0.5227,0.3087,-0.1067,rough,15.5,1,4.062
4170,133.44,0.2085,3.5289,0.0666,-0.5223,0.3094,-0.1053,rough,15.5,1,4.063
4180,133.76,0.2084,3.5288,0.0667,-0.5218,0.3102,-0.1039,rough,15.5,1,4.063
4190,134.08,0.2084,3.5293,0.0665,-0.5222,0.3091,-0.1058,rough,15.5,1,4.062
4200,134.40,0.2084,3.5293,0.0665,-0.5219,0.3093,-0.1052,rough,15.5,1,4.062
4210,134.72,0.2084,3.5294,0.0665,-0.5217,0.3096,-0.1046,rough,15.5,1,4.062
4220,135.04,0.2084,3.5294,0.0665,-0.5215,0.3098,-0.1042,rough,15.5,1,4.062
4230,135.36,0.2084,3.5295,0.0664,-0.5213,0.3099,-0.1040,rough,15.5,1,4.062
4240,135.68,0.2084,3.5296,0.0664,-0.5212,0.3100,-0.1039,rough,15.5,1,4.062
4250,136.00,0.2083,3.5293,0.0666,-0.5204,0.3115,-0.1012,rough,15.5,1,4.062
4260,136.32,0.2083,3.5296,0.0665,-0.5205,0.3111,-0.1018,rough,15.5,1,4.062
4270,136.64,0.2083,3.5298,0.0664,-0.5205,0.3107,-0.1025,rough,15.5,1,4.062
4280,136.96,0.2083,3.5296,0.0665,-0.5199,0.3119,-0.1003,rough,15.5,1,4.062
4290,137.28,0.2083,3.5299,0.0663,-0.5201,0.3112,-0.1015,rough,15.5,1,4.062
4300,137.60,0.2083,3.5297,0.0665,-0.5196,0.3123,-0.0996,rough,15.5,1,4.062
4310,137.92,0.2083,3.5301,0.0663,-0.5198,0.3114,-0.1010,rough,15.5,1,4.061
4320,138.24,0.2082,3.5300,0.0664,-0.5194,0.3123,-0.0995,rough,15.5,1,4.062
4330,138.56,0.2082,3.5299,0.0665,-0.5189,0.3129,-0.0983,rough,15.5,1,4.062
4340,138.88,0.2082,3.5299,0.0665,-0.5186,0.3134,-0.0975,rough,15.5,1,4.062
4350,139.20,0.2082,3.5299,0.0665,-0.5184,0.3137,-0.0969,rough,15.5,1,4.062
4360,139.52,0.2082,3.5300,0.0665,-0.5182,0.3139,-0.0965,rough,15.5,1,4.062
4370,139.84,0.2082,3.5301,0.0664,-0.5180,0.3140,-0.0962,rough,15.5,1,4.061
4380,140.16,0.2082,3.5302,0.0664,-0.5179,0.3141,-0.0961,rough,15.5,1,4.061
4390,140.48,0.2082,3.5303,0.0663,-0.5179,0.3140,-0.0963,rough,15.5,1,4.061
4400,140.80,0.2082,3.5306,0.0662,-0.5181,0.3137,-0.0969,rough,15.5,1,4.061
4410,141.12,0.2082,3.5303,0.0664,-0.5173,0.3148,-0.0947,rough,15.5,1,4.061
4420,141.44,0.2081,3.5306,0.0662,-0.5176,0.3144,-0.0956,rough,15.5,1,4.061
4430,141.76,0.2081,3.5305,0.0663,-0.5169,0.3151,-0.0940,rough,15.5,1,4.061
4440,142.08,0.2081,3.5305,0.0663,-0.5166,0.3155,-0.0932,rough,15.5,1,4.061
4450,142.40,0.2081,3.5305,0.0663,-0.5164,0.3157,-0.0928,rough,15.5,1,4.061
4460,142.72,0.2081,3.5306,0.0663,-0.5163,0.3158,-0.0926,rough,15.5,1,4.061
4470,143.04,0.2081,3.5307,0.0662,-0.5162,0.3159,-0.0925,rough,15.5,1,4.061
4480,143.36,0.2081,3.5309,0.0662,-0.5162,0.3160,-0.0925,rough,15.5,1,4.061
4490,143.68,0.2081,3.5310,0.0661,-0.5162,0.3160,-0.0924,rough,15.5,1,4.061
4500,144.00,0.2081,3.5311,0.0661,-0.5162,0.3161,-0.0924,rough,15.5,1,4.060
4510,144.32,0.2081,3.5312,0.0660,-0.5162,0.3161,-0.0924,rough,15.5,1,4.060
4520,144.64,0.2081,3.5314,0.0660,-0.5162,0.3162,-0.0924,rough,15.5,1,4.060
4530,144.96,0.2081,3.5315,0.0659,-0.5162,0.3162,-0.0925,rough,15.5,1,4.060
4540,145.28,0.2081,3.5316,0.0658,-0.5162,0.3163,-0.0925,rough,15.5,1,4.060
4550,145.60,0.2081,3.5317,0.0658,-0.5162,0.3163,-0.0925,rough,15.5,1,4.060
4560,145.92,0.2081,3.5319,0.0657,-0.5162,0.3163,-0.0925,rough,15.5,1,4.060
4570,146.24,0.2081,3.5320,0.0656,-0.5162,0.3164,-0.0925,rough,15.5,1,4.060
4580,146.56,0.2081,3.5321,0.0656,-0.5162,0.3164,-0.0925,rough,15.5,1,4.059
4590,146.88,0.2082,3.5322,0.0655,-0.5162,0.3165,-0.0925,rough,15.5,1,4.059
4600,147.20,0.2082,3.5323,0.0654,-0.5162,0.3165,-0.0925,rough,15.5,1,4.059
4610,147.52,0.2082,3.5325,0.0654,-0.5163,0.3166,-0.0925,rough,15.5,1,4.059
4620,147.84,0.2082,3.5326,0.0653,-0.5163,0.3166,-0.0925,rough,15.5,1,4.059
4630,148.16,0.2082,3.5327,0.0653,-0.5163,0.3166,-0.0925,rough,15.5,1,4.059
4640,148.48,0.2083,3.5328,0.0652,-0.5163,0.3167,-0.0925,rough,15.5,1,4.059
4650,148.80,0.2083,3.5329,0.0651,-0.5163,0.3167,-0.0925,rough,15.5,1,4.059
4660,149.12,0.2083,3.5331,0.0651,-0.5164,0.3168,-0.0926,rough,15.5,1,4.058
4670,149.44,0.2083,3.5332,0.0650,-0.5165,0.3169,-0.0926,rough,15.5,1,4.058
4680,149.76,0.2083,3.5333,0.0649,-0.5165,0.3171,-0.0927,rough,15.5,1,4.058
4690,150.08,0.2083,3.5334,0.0649,-0.5166,0.3172,-0.0928,rough,15.5,1,4.058
4700,150.40,0.2083,3.5336,0.0648,-0.5167,0.3173,-0.0928,rough,15.5,1,4.058
4710,150.72,0.2083,3.5337,0.0648,-0.5168,0.3174,-0.0929,rough,15.5,1,4.058
4720,151.04,0.2083,3.5338,0.0647,-0.5168,0.3175,-0.0929,rough,15.5,1,4.058
4730,151.36,0.2083,3.5339,0.0647,-0.5169,0.3177,-0.0930,rough,15.5,1,4.058
4740,151.68,0.2083,3.5340,0.0646,-0.5170,0.3178,-0.0931,rough,15.5,1,4.058
4750,152.00,0.2083,3.5342,0.0646,-0.5170,0.3179,-0.0931,rough,15.5,1,4.057
4760,152.32,0.2083,3.5343,0.0645,-0.5171,0.3180,-0.0932,rough,15.5,1,4.057
4770,152.64,0.2083,3.5344,0.0644,-0.5172,0.3181,-0.0932,rough,15.5,1,4.057
4780,152.96,0.2082,3.5345,0.0644,-0.5173,0.3182,-0.0933,rough,15.5,1,4.057
4790,153.28,0.2082,3.5347,0.0643,-0.5173,0.3184,-0.0933,rough,15.5,1,4.057
4800,153.60,0.2082,3.5348,0.0643,-0.5174,0.3185,-0.0934,rough,15.5,1,4.057
4810,153.92,0.2082,3.5349,0.0642,-0.5175,0.3186,-0.0935,rough,15.5,1,4.057
4820,154.24,0.2082,3.5350,0.0642,-0.5175,0.3187,-0.0935,rough,15.5,1,4.057
4830,154.56,0.2082,3.5351,0.0641,-0.5176,0.3188,-0.0936,rough,15.5,1,4.056
4840,154.88,0.2082,3.5353,0.0641,-0.5177,0.3190,-0.0936,rough,15.5,1,4.056
4850,155.20,0.2082,3.5354,0.0640,-0.5177,0.3191,-0.0937,rough,15.5,1,4.056
4860,155.52,0.2082,3.5355,0.0640,-0.5178,0.3192,-0.0937,rough,15.5,1,4.056
4870,155.84,0.2082,3.5356,0.0639,-0.5179,0.3193,-0.0938,rough,15.5,1,4.056
4880,156.16,0.2082,3.5357,0.0639,-0.5180,0.3194,-0.0939,rough,15.5,1,4.056
4890,156.48,0.2082,3.5359,0.0638,-0.5180,0.3195,-0.0939,rough,15.5,1,4.056
4900,156.80,0.2082,3.5360,0.0637,-0.5181,0.3197,-0.0940,rough,15.5,1,4.056
4910,157.12,0.2082,3.5361,0.0637,-0.5182,0.3198,-0.0940,rough,15.5,1,4.056
4920,157.44,0.2082,3.5362,0.0636,-0.5182,0.3199,-0.0941,rough,15.5,1,4.055
4930,157.76,0.2082,3.5363,0.0636,-0.5183,0.3200,-0.0941,rough,15.5,1,4.055
4940,158.08,0.2082,3.5365,0.0635,-0.5184,0.3201,-0.0942,rough,15.5,1,4.055
4950,158.40,0.2082,3.5366,0.0635,-0.5184,0.3202,-0.0943,rough,15.5,1,4.055
4960,158.72,0.2082,3.5367,0.0634,-0.5185,0.3203,-0.0943,rough,15.5,1,4.055
4970,159.04,0.2082,3.5368,0.0634,-0.5186,0.3205,-0.0944,rough,15.5,1,4.055
4980,159.36,0.2082,3.5369,0.0633,-0.5186,0.3206,-0.0944,rough,15.5,1,4.055
4990,159.68,0.2082,3.5371,0.0633,-0.5187,0.3207,-0.0945,rough,15.5,1,4.055
5000,160.00,0.2082,3.5372,0.0632,-0.5188,0.3208,-0.0945,rough,15.5,1,4.054
5010,160.32,0.2082,3.5373,0.0632,-0.5188,0.3209,-0.0946,rough,15.5,1,4.054
5020,160.64,0.2082,3.5374,0.0631,-0.5189,0.3210,-0.0946,rough,15.5,1,4.054
5030,160.96,0.2081,3.5375,0.0631,-0.5190,0.3212,-0.0947,rough,15.5,1,4.054
5040,161.28,0.2081,3.5377,0.0630,-0.5190,0.3213,-0.0948,rough,15.5,1,4.054
5050,161.60,0.2081,3.5378,0.0629,-0.5191,0.3214,-0.0948,rough,15.5,1,4.054
5060,161.92,0.2081,3.5379,0.0629,-0.5192,0.3215,-0.0949,rough,15.5,1,4.054
5070,162.24,0.2081,3.5380,0.0628,-0.5192,0.3216,-0.0949,rough,15.5,1,4.054
5080,162.56,0.2081,3.5381,0.0628,-0.5193,0.3217,-0.0950,rough,15.5,1,4.054
5090,162.88,0.2081,3.5383,0.0627,-0.5194,0.3218,-0.0950,rough,15.5,1,4.053
5100,163.20,0.2081,3.5384,0.0627,-0.5195,0.3219,-0.0951,rough,15.5,1,4.053
5110,163.52,0.2081,3.5385,0.0626,-0.5195,0.3221,-0.0951,rough,15.5,1,4.053
5120,163.84,0.2081,3.5386,0.0626,-0.5196,0.3222,-0.0952,rough,15.5,1,4.053
5130,164.16,0.2081,3.5387,0.0625,-0.5197,0.3223,-0.0953,rough,15.5,1,4.053
5140,164.48,0.2081,3.5388,0.0625,-0.5197,0.3224,-0.0953,rough,15.5,1,4.053
5150,164.80,0.2081,3.5390,0.0624,-0.5198,0.3225,-0.0954,rough,15.5,1,4.053
5160,165.12,0.2081,3.5391,0.0624,-0.5199,0.3226,-0.0954,rough,15.5,1,4.053
5170,165.44,0.2081,3.5392,0.0623,-0.5199,0.3227,-0.0955,rough,15.5,1,4.053
5180,165.76,0.2081,3.5393,0.0623,-0.5200,0.3229,-0.0955,rough,15.5,1,4.052
5190,166.08,0.2081,3.5394,0.0622,-0.5201,0.3230,-0.0956,rough,15.5,1,4.052
5200,166.40,0.2081,3.5395,0.0622,-0.5201,0.3231,-0.0956,rough,15.5,1,4.052
5210,166.72,0.2081,3.5397,0.0621,-0.5202,0.3232,-0.0957,rough,15.5,1,4.052
5220,167.04,0.2081,3.5398,0.0621,-0.5203,0.3233,-0.0958,rough,15.5,1,4.052
5230,167.36,0.2081,3.5399,0.0620,-0.5203,0.3234,-0.0958,rough,15.5,1,4.052
5240,167.68,0.2081,3.5400,0.0620,-0.5204,0.3235,-0.0959,rough,15.5,1,4.052
5250,168.00,0.2081,3.5401,0.0619,-0.5205,0.3236,-0.0959,rough,15.5,1,4.052
5260,168.32,0.2115,3.5669,0.0433,-0.5545,0.2230,-0.2430,rough,15.5,1,4.025
5270,168.64,0.2366,3.6159,-0.0037,-0.6174,0.0084,-0.5244,rough,15.5,1,3.972
5280,168.96,0.2890,3.6878,-0.0626,-0.6513,-0.1486,-0.6258,rough,15.5,1,3.891
5290,169.28,0.3388,3.7779,-0.1268,-0.7502,-0.3360,-0.7326,rough,15.5,1,3.793
5300,169.60,0.4462,3.8648,-0.1772,-0.6565,-0.3627,-0.5944,rough,15.5,1,3.690
5310,169.92,0.6380,4.0199,-0.3530,-0.5079,-0.1078,-0.4982,rough,15.5,1,3.511
5320,170.24,0.9110,4.0675,-0.4009,-0.5901,0.0233,-0.1187,rough,15.5,1,3.444
5330,170.56,1.2198,4.1347,-0.4579,-0.5982,0.1805,0.1664,rough,15.5,1,3.381
5340,170.88,1.5717,4.2915,-0.6608,-0.4632,0.5288,0.3412,rough,15.5,1,3.265
5350,171.20,1.8512,4.5000,-0.8721,-0.4470,0.6151,0.6360,rough,15.5,1,3.123
5360,171.52,2.0727,4.7413,-1.0193,-0.3733,0.2670,0.8665,rough,15.5,1,2.962
5370,171.84,2.2707,5.0751,-1.0724,-0.3487,0.0231,1.1033,rough,15.5,1,2.738
5380,172.16,2.4383,5.5067,-1.1066,-0.3151,0.0846,1.2301,rough,15.5,1,2.455
5390,172.48,2.6085,5.9639,-1.2044,-0.0893,0.2343,1.3012,rough,15.5,1,2.217
5400,172.80,2.7040,6.3477,-1.2601,-0.0479,0.0664,1.3563,rough,15.5,1,2.047
5410,173.12,2.7322,6.7079,-1.2472,-0.0352,-0.1383,1.5953,rough,15.5,1,1.892
5420,173.44,2.6534,7.0464,-1.1511,-0.0841,-0.3750,1.8445,rough,15.5,1,1.699
5430,173.76,2.5380,7.3183,-1.0345,-0.1841,-0.5641,1.9738,rough,15.5,1,1.531
5440,174.08,2.3582,7.5636,-0.9535,-0.4667,-0.3888,2.0668,rough,15.5,1,1.340
5450,174.40,2.2326,7.8184,-0.8892,-0.3929,-0.2057,2.0793,rough,15.5,1,1.252
5460,174.72,2.0078,8.0772,-0.8524,-0.4208,-0.1077,2.3878,rough,15.5,1,1.140
5470,175.04,1.7506,8.2394,-0.8125,-0.4482,-0.2067,2.6912,rough,15.5,1,1.033
5480,175.36,1.4461,8.2802,-0.7683,-0.5317,-0.2507,3.0887,rough,15.5,1,0.881
5490,175.68,1.0178,8.1816,-0.7913,-0.6112,0.2254,-3.0458,rough,15.5,2,15.841
5500,176.00,0.6003,8.0547,-0.8908,-0.5869,0.1804,-2.8746,rough,15.5,2,15.503
5510,176.32,0.1669,7.9222,-1.0099,-0.4133,0.2146,-2.7558,rough,15.5,2,15.158
5520,176.64,-0.2535,7.7269,-1.1138,-0.2903,0.2236,-2.6525,rough,15.5,2,14.771
5530,176.96,-0.6300,7.5357,-1.2221,-0.0528,0.1304,-2.5905,rough,15.5,2,14.414
5540,177.28,-0.8569,7.3552,-1.1831,-0.0596,-0.5343,-2.5238,rough,15.5,2,14.144
5550,177.60,-1.1337,7.1301,-1.0042,0.0394,-0.5610,-2.3187,rough,15.5,2,13.812
5560,177.92,-1.3946,6.8437,-0.7585,0.0183,-0.5565,-2.2607,rough,15.5,2,13.435
5570,178.24,-1.6494,6.5231,-0.5126,-0.0002,-0.5588,-2.2171,rough,15.5,2,13.031
5580,178.56,-1.8546,6.2418,-0.2651,-0.0178,-0.7656,-2.2059,rough,15.5,2,12.686
5590,178.88,-2.0232,6.0277,-0.0140,-0.0429,-0.7873,-2.2636,rough,15.5,2,12.418
5600,179.20,-2.1481,5.8532,0.2227,-0.1211,-0.8823,-2.1755,rough,15.5,2,12.205
5610,179.52,-2.1723,5.7201,0.3355,-0.1763,-0.8172,-2.1254,rough,15.5,2,12.076
5620,179.84,-2.1019,5.6450,0.3298,-0.3729,-0.7401,-1.8256,rough,15.5,2,12.044
5630,180.16,-1.8884,5.4990,0.2370,-0.7272,-0.4724,-1.4422,rough,15.5,2,12.021
5640,180.48,-1.5347,5.2066,0.0574,-0.5232,-0.5473,-1.7363,rough,15.5,2,11.953
5650,180.80,-1.2989,4.8955,0.0569,-0.1146,-0.6900,-2.2168,rough,15.5,2,11.821
5660,181.12,-1.2876,4.6108,0.1904,-0.1298,-0.6034,-2.0655,rough,15.5,2,11.592
5670,181.44,-1.4527,4.3029,0.3975,-0.1216,-0.5389,-2.0694,rough,15.5,2,11.245
5680,181.76,-1.6711,3.9081,0.5635,-0.1588,-0.2386,-2.0711,rough,15.5,2,10.796
5690,182.08,-1.9915,3.4759,0.6149,0.1333,0.1350,-2.1197,rough,15.5,2,10.259
5700,182.40,-2.2394,3.0536,0.5409,0.0327,0.1788,-2.1425,rough,15.5,2,9.771
5710,182.72,-2.5069,2.6443,0.4409,-0.0332,0.2212,-2.1790,rough,15.5,2,9.282
5720,183.04,-2.7978,2.2430,0.3128,-0.0082,0.3170,-2.2121,rough,15.5,2,8.786
5730,183.36,-3.1071,1.8760,0.1311,0.0793,0.4088,-2.2414,rough,15.5,2,8.308
5740,183.68,-3.3833,1.5475,0.0017,0.0447,0.1717,-2.2982,rough,15.5,2,7.881
5750,184.00,-3.6665,1.2360,-0.0296,-0.0169,-0.1251,-2.3258,rough,15.5,2,7.463
5760,184.32,-3.9808,0.8900,0.0350,-0.0318,-0.1447,-2.3538,rough,15.5,2,7.000
5770,184.64,-4.3189,0.5558,0.0953,0.0070,-0.1346,-2.3432,rough,15.5,2,6.535
5780,184.96,-4.6187,0.2816,0.1847,0.0756,-0.4104,-2.3244,rough,15.5,2,6.142
5790,185.28,-4.8530,0.0359,0.3629,0.1168,-0.6479,-2.3704,rough,15.5,2,5.810
5800,185.60,-5.1008,-0.2752,0.6038,-0.1058,-0.5992,-2.2842,rough,15.5,2,5.415
5810,185.92,-5.3831,-0.5410,0.7727,0.1786,-0.4994,-2.3375,rough,15.5,2,5.043
5820,186.24,-5.7311,-0.9012,0.7577,0.3956,-0.1039,-2.0362,rough,15.5,2,4.559
5830,186.56,-5.9196,-1.3098,0.7910,0.2180,-0.1945,-2.1044,rough,15.5,2,4.110
5840,186.88,-6.1363,-1.7007,0.8969,0.0843,-0.3008,-2.1393,rough,15.5,2,3.663
5850,187.20,-6.4319,-2.0830,0.9656,0.3146,-0.2028,-2.1641,rough,15.5,2,3.187
5860,187.52,-6.7958,-2.5284,0.8113,0.4779,0.1957,-1.8855,rough,15.5,2,2.627
5870,187.84,-6.9410,-2.8751,0.7927,0.3620,-0.3247,-2.0818,rough,15.5,2,2.251
5880,188.16,-7.0796,-3.2324,0.8513,-0.1374,-0.4557,-2.0912,rough,15.5,2,1.869
5890,188.48,-7.2998,-3.5928,1.0447,-0.0259,-0.4189,-2.0355,rough,15.5,2,1.449
5900,188.80,-7.5283,-4.0299,1.2007,0.0168,-0.1545,-2.0306,rough,15.5,2,0.957
5910,189.12,-7.7201,-4.4246,1.2571,-0.0011,-0.1929,-2.1136,rough,15.5,3,0.840
5920,189.44,-7.8237,-4.7343,1.2998,-0.2311,-0.1708,-1.8314,rough,15.5,0,13.170
5930,189.76,-7.8155,-4.9332,1.3252,-0.2973,-0.2708,-1.5120,rough,15.5,0,13.167
5940,190.08,-7.7101,-5.2274,1.3608,-0.2929,-0.1028,-1.1769,rough,15.5,0,13.074
5950,190.40,-7.5642,-5.4117,1.3881,-0.3202,-0.2083,-0.8938,rough,15.5,0,12.940
5960,190.72,-7.3932,-5.5840,1.4548,-0.4034,-0.3489,-0.6598,rough,15.5,0,12.782
5970,191.04,-7.1473,-5.8281,1.5218,-0.1835,-0.2279,-0.5196,rough,15.5,0,12.560
5980,191.36,-6.8506,-6.0280,1.5340,-0.2338,0.1475,-0.5565,rough,15.5,0,12.288
5990,191.68,-6.5108,-6.2235,1.4335,-0.0035,0.3287,-0.3826,rough,15.5,0,11.977
6000,192.00,-6.1193,-6.3375,1.2784,0.0075,0.4359,-0.2143,rough,15.5,0,11.607
6010,192.32,-5.7302,-6.4364,1.1543,0.0316,0.1068,-0.1303,rough,15.5,0,11.239
6020,192.64,-5.3031,-6.5386,1.1481,0.2413,-0.0279,-0.1330,rough,15.5,0,10.837
6030,192.96,-4.8352,-6.6303,1.1535,0.3256,0.0536,-0.0826,rough,15.5,0,10.396
6040,193.28,-4.3108,-6.6702,1.0298,0.3457,0.2230,0.0529,rough,15.5,0,9.892
6050,193.60,-3.8837,-6.7203,0.9366,0.5228,0.1221,0.0227,rough,15.5,0,9.487
6060,193.92,-3.6308,-6.8344,0.8696,0.6630,-0.3600,-0.3441,rough,15.5,0,9.269
6070,194.24,-3.2997,-7.0193,0.9282,0.6805,-0.2277,-0.3316,rough,15.5,0,8.998
6080,194.56,-3.0085,-7.2253,0.9504,0.7519,-0.3918,-0.3230,rough,15.5,0,8.780
6090,194.88,-2.6529,-7.4836,0.9235,0.7452,-0.2015,-0.1951,rough,15.5,0,8.529
6100,195.20,-2.2400,-7.7560,0.8398,0.7340,-0.2464,-0.1583,rough,15.5,0,8.246
6110,195.52,-1.8902,-7.9839,0.8342,0.6854,-0.6076,-0.2000,rough,15.5,0,8.021
6120,195.84,-1.6460,-8.1534,0.8984,0.5616,-0.6078,-0.1943,rough,15.5,0,7.878
6130,196.16,-1.4956,-8.3535,0.9109,0.4703,-0.6651,-0.0812,rough,15.5,0,7.841
6140,196.48,-1.3523,-8.5572,0.8853,0.5070,-0.7426,0.0443,rough,15.5,0,7.820
6150,196.80,-1.2543,-8.7765,0.7980,0.6449,-0.7505,-0.0451,rough,15.5,0,7.852
6160,197.12,-1.2057,-9.1188,0.5468,0.6521,-0.6484,-0.1621,rough,15.5,0,8.003
6170,197.44,-1.2138,-9.5383,0.2230,0.6364,-0.5746,-0.2957,rough,15.5,0,8.258
6180,197.76,-1.1680,-9.8699,0.0636,0.4327,-0.5078,-0.0472,rough,15.5,0,8.428
6190,198.08,-1.0776,-9.9572,0.0645,0.3682,-0.4925,-0.0410,rough,15.5,0,8.415
6200,198.40,-0.8688,-10.0150,0.1857,0.4969,-0.7624,-0.1757,rough,15.5,0,8.295
6210,198.72,-0.7467,-10.1138,0.2359,0.4599,-0.8297,-0.2491,rough,15.5,0,8.270
6220,199.04,-0.8018,-10.2322,0.1274,0.5755,-0.7421,-0.4607,rough,15.5,0,8.391
6230,199.36,-0.7854,-10.3473,0.1093,0.6137,-0.7083,-0.5946,rough,15.5,0,8.458
6240,199.68,-0.6832,-10.5133,0.1298,0.6254,-0.5587,-0.5371,rough,15.5,0,8.500
6250,200.00,-0.6527,-10.6749,0.0834,0.5809,-0.3360,-0.3222,rough,15.5,0,8.593
6260,200.32,-0.6781,-10.7350,0.0456,0.4078,-0.5534,-0.3303,rough,15.5,0,8.654
6270,200.64,-0.6481,-10.8208,0.0157,0.3851,-0.4123,-0.3429,rough,15.5,0,8.695
6280,200.96,-0.3543,-11.0214,0.0557,0.7870,-0.1851,-0.1368,rough,15.5,0,8.645
6290,201.28,-0.1219,-11.2094,-0.0027,0.7620,-0.2797,-0.2788,rough,15.5,0,8.639
6300,201.60,0.0878,-11.3786,-0.0128,0.7859,-0.3675,-0.2972,rough,15.5,0,8.641
6310,201.92,0.2610,-11.5601,-0.0160,0.5963,-0.6980,-0.1836,rough,15.5,0,8.683
6320,202.24,0.3724,-11.7194,-0.0282,0.4585,-0.7277,-0.1602,rough,15.5,0,8.749
6330,202.56,0.4392,-11.8901,-0.0632,0.4157,-0.6969,-0.0369,rough,15.5,0,8.853
6340,202.88,0.5053,-11.9904,-0.0775,0.5481,-0.4223,-0.3029,rough,15.5,0,8.901
6350,203.20,0.5939,-12.1335,-0.1056,0.5078,-0.2597,-0.4491,rough,15.5,0,8.974
6360,203.52,0.8411,-12.3315,-0.1405,0.7680,-0.1406,-0.1779,rough,15.5,0,9.016
6370,203.84,1.2227,-12.4956,-0.1740,0.7502,-0.1652,0.0700,rough,15.5,0,8.977
6380,204.16,1.5750,-12.6367,-0.2382,0.5467,-0.4848,0.2588,rough,15.5,0,8.949
6390,204.48,1.7718,-12.7787,-0.2642,0.4976,-0.8028,0.3856,rough,15.5,0,8.998
6400,204.80,1.8858,-12.9013,-0.3181,0.6597,-0.5607,0.0631,rough,15.5,0,9.067
6410,205.12,1.9704,-12.9319,-0.2971,0.7031,-0.4345,-0.2041,rough,15.5,0,9.063
6420,205.44,2.1183,-13.0234,-0.2671,0.7494,-0.2677,-0.2166,rough,15.5,0,9.095
6430,205.76,2.2728,-13.1303,-0.2397,0.7702,-0.6666,-0.2407,rough,15.5,0,9.142
6440,206.08,2.3372,-13.3191,-0.3711,0.6839,-0.6894,-0.1692,rough,15.5,0,9.299
6450,206.40,2.4136,-13.6373,-0.6052,0.5561,-0.4878,-0.0777,rough,15.5,0,9.576
6460,206.72,2.5748,-13.9707,-0.7887,0.7119,-0.3387,0.1265,rough,15.5,0,9.848
6470,207.04,2.6393,-14.1627,-0.9201,0.3379,-0.6757,0.6861,rough,15.5,0,10.015
6480,207.36,2.6950,-14.2511,-0.9118,0.6517,-0.8361,0.7878,rough,15.5,0,10.085
6490,207.68,2.6590,-14.2462,-0.9475,0.3575,-0.7447,1.1400,rough,15.5,0,10.090
6500,208.00,2.6451,-14.0560,-0.8664,0.1967,-0.7681,1.0774,rough,15.5,0,9.910
6510,208.32,2.7381,-13.8421,-0.6283,0.0946,-0.8923,1.1193,rough,15.5,0,9.679
6520,208.64,2.7595,-13.7179,-0.4952,-0.2843,-0.8251,1.5450,rough,15.5,0,9.554
6530,208.96,2.6531,-13.6871,-0.5166,-0.4241,-0.6938,1.8741,rough,15.5,0,9.554
6540,209.28,2.4984,-13.7588,-0.6607,-0.6593,-0.3770,2.0940,rough,15.5,0,9.667
6550,209.60,2.3912,-13.8823,-0.7915,-0.5380,-0.5141,2.1516,rough,15.5,0,9.817
6560,209.92,2.3073,-13.8412,-0.7715,-0.3146,-0.5652,1.9573,rough,15.5,0,9.803
6570,210.24,2.2004,-13.7444,-0.7205,-0.1857,-0.3776,1.8047,rough,15.5,0,9.745
6580,210.56,2.1375,-13.5539,-0.6212,-0.0963,-0.5172,1.7991,rough,15.5,0,9.586
6590,210.88,2.0186,-13.2871,-0.5008,-0.3457,-0.5345,1.8070,rough,15.5,0,9.376
6600,211.20,1.9173,-13.0536,-0.4135,-0.4901,-0.4850,1.7151,rough,15.5,0,9.196
6610,211.52,1.7794,-12.8039,-0.2928,-0.6233,-0.6291,1.9106,rough,15.5,0,9.018
6620,211.84,1.6804,-12.5654,-0.1270,-0.2027,-0.7721,1.4412,rough,15.5,0,8.840
6630,212.16,1.6719,-12.4719,-0.0453,0.1277,-0.8738,1.0566,rough,15.5,0,8.759
6640,212.48,1.6785,-12.4743,-0.0464,0.0133,-0.8557,1.1772,rough,15.5,0,8.758
6650,212.80,1.6365,-12.5064,-0.1013,0.1152,-0.8501,1.0991,rough,15.5,0,8.805
6660,213.12,1.5861,-12.5494,-0.1646,0.0038,-0.7935,1.3429,rough,15.5,0,8.865
6670,213.44,1.5432,-12.5651,-0.1951,-0.1560,-0.7251,1.6462,rough,15.5,0,8.898
6680,213.76,1.4750,-12.5805,-0.2172,-0.2462,-0.6890,1.7897,rough,15.5,0,8.941
6690,214.08,1.3628,-12.5988,-0.2472,-0.3017,-0.6494,1.8853,rough,15.5,0,9.006
6700,214.40,1.2281,-12.6210,-0.2825,-0.3017,-0.6151,1.9327,rough,15.5,0,9.087
6710,214.72,1.0706,-12.6273,-0.3187,-0.3542,-0.5238,1.9975,rough,15.5,0,9.165
6720,215.04,0.9265,-12.5797,-0.3051,-0.3310,-0.5610,1.9551,rough,15.5,0,9.191
6730,215.36,0.8087,-12.4565,-0.2189,-0.2766,-0.6734,1.9400,rough,15.5,0,9.141
6740,215.68,0.6499,-12.2383,-0.1497,-0.4379,-0.4675,1.8430,rough,15.5,0,9.034
6750,216.00,0.5270,-11.9529,-0.0442,-0.5741,-0.4709,1.8949,rough,15.5,0,8.857
6760,216.32,0.3008,-11.5936,-0.0248,-0.7781,-0.2896,1.7634,rough,15.5,0,8.687
6770,216.64,0.0820,-11.3873,0.0696,-1.2186,-0.5881,2.0142,rough,15.5,0,8.652
6780,216.96,-0.1912,-11.2767,0.0142,-1.4186,-0.4819,1.7518,rough,15.5,0,8.735
6790,217.28,-0.4650,-11.3427,-0.2561,-2.7179,-0.1918,1.4240,rough,15.5,0,8.961
6800,217.60,-0.6478,-11.7165,-0.4624,-3.0093,-0.2477,1.0308,rough,15.5,0,9.365
6810,217.92,-0.8570,-12.0554,-0.5484,-2.9485,-0.1290,0.6699,rough,15.5,0,9.759
6820,218.24,-1.1118,-12.2563,-0.5823,-3.0661,-0.0697,-0.2079,rough,15.5,0,10.076
6830,218.56,-1.2576,-12.2744,-0.5474,3.0763,0.2533,-0.8224,rough,15.5,0,10.184
6840,218.88,-1.1732,-12.3306,-0.5844,3.0798,0.1255,-0.8490,rough,15.5,0,10.173
6850,219.20,-1.1460,-12.4046,-0.5848,3.0222,0.0794,-0.8307,rough,15.5,0,10.212
6860,219.52,-1.1798,-12.3841,-0.5867,3.0246,0.0991,-0.8995,slope,18.0,0,10.218
6870,219.84,-1.1691,-12.3828,-0.5893,3.0609,0.0670,-0.8546,rough,15.5,0,10.210
6880,220.16,-1.1591,-12.3711,-0.5869,3.0841,0.0650,-0.9101,slope,18.0,0,10.195
6890,220.48,-1.1628,-12.3737,-0.5877,3.0662,0.0591,-0.7996,slope,18.0,0,10.199
6900,220.80,-1.1610,-12.3519,-0.5879,3.0722,0.0974,-0.9138,slope,18.0,0,10.181
6910,221.12,-1.1462,-12.3343,-0.5886,3.1035,0.0919,-0.9008,rough,15.5,0,10.158
6920,221.44,-1.1354,-12.3214,-0.5878,3.1203,0.1001,-0.9490,rough,15.5,0,10.141
6930,221.76,-1.1328,-12.3215,-0.5884,3.1167,0.0724,-0.7914,rough,15.5,0,10.140
6940,222.08,-1.1363,-12.2986,-0.5877,3.1332,0.1236,-0.9453,rough,15.5,0,10.124
6950,222.40,-1.1080,-12.2996,-0.5879,-3.1242,0.0554,-0.7963,rough,15.5,0,10.107
6960,222.72,-1.1127,-12.2972,-0.5881,-3.1301,0.0703,-0.8150,rough,15.5,0,10.108
6970,223.04,-1.1194,-12.3023,-0.5911,-3.1344,0.1093,-0.9027,rough,15.5,0,10.116
6980,223.36,-1.1184,-12.3010,-0.5875,-3.1265,0.0770,-0.8131,rough,15.5,0,10.115
6990,223.68,-1.1259,-12.3029,-0.5926,-3.1380,0.1251,-0.9915,rough,15.5,0,10.121
7000,224.00,-1.1280,-12.3341,-0.5875,3.1126,0.0556,-0.7811,rough,15.5,0,10.146
7010,224.32,-1.1263,-12.3356,-0.5861,3.1355,0.0552,-0.8912,rough,15.5,0,10.147
7020,224.64,-1.1315,-12.3460,-0.5857,3.1237,0.0595,-0.9176,rough,15.5,0,10.158
7030,224.96,-1.1433,-12.3028,-0.5869,3.1413,0.1390,-0.9326,rough,15.5,0,10.132
7040,225.28,-1.1226,-12.3144,-0.5872,3.1378,0.0836,-0.9201,rough,15.5,0,10.128
7050,225.60,-1.1148,-12.3034,-0.5884,-3.1266,0.0611,-0.8716,rough,15.5,0,10.114
7060,225.92,-1.1248,-12.2948,-0.5896,-3.1231,0.0595,-0.8346,rough,15.5,0,10.114
7070,226.24,-1.0668,-12.2538,-0.5876,-3.0417,0.0594,-0.9425,rough,15.5,0,10.046
7080,226.56,-1.0739,-12.2402,-0.5872,-3.0546,0.0577,-0.8008,rough,15.5,0,10.040
7090,226.88,-1.0843,-12.2384,-0.5895,-3.0578,0.0866,-0.9115,rough,15.5,0,10.045
7100,227.20,-1.0669,-12.2305,-0.5901,-3.0445,0.1087,-0.9441,rough,15.5,0,10.028
7110,227.52,-1.0466,-12.1970,-0.5891,-3.0001,0.0814,-0.8938,rough,15.5,0,9.989
7120,227.84,-1.0379,-12.1899,-0.5888,-2.9787,0.0524,-0.8470,rough,15.5,0,9.978
7130,228.16,-1.0235,-12.1841,-0.5885,-2.9652,0.0474,-0.8337,rough,15.5,0,9.964
7140,228.48,-1.0272,-12.1813,-0.5884,-2.9647,0.0542,-0.8752,rough,15.5,0,9.964
7150,228.80,-1.0402,-12.1899,-0.5899,-2.9944,0.0566,-0.8217,rough,15.5,0,9.979
7160,229.12,-1.0524,-12.2391,-0.5866,-3.0162,0.0327,-0.8544,rough,15.5,0,10.025
7170,229.44,-1.0679,-12.2370,-0.5894,-3.0517,0.0575,-0.8298,rough,15.5,0,10.033
7180,229.76,-1.0584,-12.2280,-0.5880,-3.0264,0.0706,-0.9293,rough,15.5,0,10.020
7190,230.08,-1.0747,-12.2420,-0.5881,-3.0545,0.0612,-0.8248,rough,15.5,0,10.042
7200,230.40,-1.0824,-12.2528,-0.5943,-3.0850,0.0883,-0.8530,rough,15.5,0,10.055
7210,230.72,-1.0866,-12.2546,-0.5884,-3.0760,0.0710,-0.8531,rough,15.5,0,10.059
7220,231.04,-1.0863,-12.2620,-0.5881,-3.0754,0.0734,-0.8823,rough,15.5,0,10.064
7230,231.36,-1.0924,-12.2644,-0.5879,-3.0882,0.0735,-0.8518,rough,15.5,0,10.070
7240,231.68,-1.0958,-12.2761,-0.5873,-3.0958,0.0705,-0.8682,rough,15.5,0,10.081
7250,232.00,-1.0967,-12.2639,-0.5892,-3.0756,0.0407,-0.7875,rough,15.5,0,10.072
7260,232.32,-1.0823,-12.2743,-0.5867,-3.0727,0.0455,-0.8396,rough,15.5,0,10.071
7270,232.64,-1.1021,-12.2721,-0.5857,-3.0946,0.0699,-0.7783,rough,15.5,0,10.082
7280,232.96,-1.0885,-12.2815,-0.5866,-3.0841,0.0604,-0.9213,rough,15.5,0,10.081
7290,233.28,-1.0962,-12.2711,-0.5887,-3.0937,0.0814,-0.8773,rough,15.5,0,10.078
7300,233.60,-1.0738,-12.2388,-0.5879,-3.0529,0.0669,-0.8373,rough,15.5,0,10.038
7310,233.92,-1.0744,-12.2560,-0.5885,-3.0669,0.0731,-0.9355,rough,15.5,0,10.052
7320,234.24,-1.0820,-12.2518,-0.5883,-3.0688,0.0664,-0.8353,rough,15.5,0,10.054
7330,234.56,-1.0817,-12.2650,-0.5870,-3.0663,0.0635,-0.9038,rough,15.5,0,10.064
7340,234.88,-1.0917,-12.2609,-0.5881,-3.0857,0.0775,-0.8616,rough,15.5,0,10.067
7350,235.20,-1.0944,-12.2740,-0.5873,-3.0922,0.0731,-0.8840,rough,15.5,0,10.079
7360,235.52,-1.0999,-12.2764,-0.5895,-3.0997,0.0884,-0.8790,rough,15.5,0,10.084
7370,235.84,-1.1089,-12.2812,-0.5881,-3.1143,0.0940,-0.9226,rough,15.5,0,10.094
7380,236.16,-1.1000,-12.2827,-0.5886,-3.1059,0.0643,-0.8115,rough,15.5,0,10.089
7390,236.48,-1.1088,-12.2788,-0.5862,-3.1026,0.0686,-0.7847,rough,15.5,0,10.092
7400,236.80,-1.1010,-12.2874,-0.5882,-3.1117,0.0538,-0.7867,rough,15.5,0,10.093
7410,237.12,-1.1065,-12.2853,-0.5883,-3.1145,0.0802,-0.8606,rough,15.5,0,10.095
7420,237.44,-1.1108,-12.2987,-0.5872,-3.1239,0.0720,-0.8701,rough,15.5,0,10.108
7430,237.76,-1.1074,-12.2889,-0.5875,-3.1206,0.0825,-0.8740,rough,15.5,0,10.099
7440,238.08,-1.1066,-12.2894,-0.5879,-3.1166,0.0599,-0.8016,rough,15.5,0,10.098
7450,238.40,-1.1172,-12.2759,-0.5904,-3.1240,0.0785,-0.7788,rough,15.5,0,10.095
7460,238.72,-1.1059,-12.2879,-0.5883,-3.1168,0.0713,-0.8450,rough,15.5,0,10.097
7470,239.04,-1.1005,-12.2886,-0.5932,-3.1142,0.0655,-1.0077,rough,15.5,0,10.094
7480,239.36,-1.1122,-12.2795,-0.5896,-3.1146,0.1076,-0.9665,rough,15.5,0,10.094
7490,239.68,-1.0970,-12.2792,-0.5876,-3.0973,0.0688,-0.8601,rough,15.5,0,10.084
7500,240.00,-1.0855,-12.2650,-0.5872,-3.0735,0.0708,-0.9233,rough,15.5,0,10.066
7510,240.32,-1.0779,-12.2510,-0.5881,-3.0650,0.0591,-0.8218,rough,15.5,0,10.051
7520,240.64,-1.0759,-12.2486,-0.5885,-3.0610,0.0784,-0.8754,rough,15.5,0,10.047
7530,240.96,-1.0752,-12.2441,-0.5879,-3.0570,0.0775,-0.8803,rough,15.5,0,10.043
7540,241.28,-1.0761,-12.2490,-0.5894,-3.0601,0.0648,-0.8061,rough,15.5,0,10.048
7550,241.60,-1.0864,-12.2546,-0.5883,-3.0746,0.0682,-0.8382,rough,15.5,0,10.059
7560,241.92,-1.0862,-12.2630,-0.5882,-3.0757,0.0706,-0.8692,rough,15.5,0,10.065
7570,242.24,-1.0840,-12.2603,-0.5870,-3.0730,0.0834,-0.9392,rough,15.5,0,10.062
7580,242.56,-1.0844,-12.2513,-0.5891,-3.0654,0.0499,-0.7716,rough,15.5,0,10.055
7590,242.88,-1.0839,-12.2602,-0.5883,-3.0698,0.0701,-0.8753,rough,15.5,0,10.061
7600,243.20,-1.0892,-12.2511,-0.5881,-3.0759,0.0963,-0.9441,rough,15.5,0,10.058
7610,243.52,-1.0741,-12.2383,-0.5886,-3.0549,0.0665,-0.8331,rough,15.5,0,10.038
7620,243.84,-1.0764,-12.2414,-0.5882,-3.0544,0.0818,-0.9167,rough,15.5,0,10.042
7630,244.16,-1.0786,-12.2433,-0.5877,-3.0628,0.0665,-0.8217,rough,15.5,0,10.045
7640,244.48,-1.0777,-12.2464,-0.5882,-3.0632,0.0815,-0.8756,rough,15.5,0,10.047
7650,244.80,-1.0799,-12.2458,-0.5881,-3.0643,0.0734,-0.8564,rough,15.5,0,10.048
7660,245.12,-1.0828,-12.2575,-0.5875,-3.0710,0.0709,-0.8770,rough,15.5,0,10.059
7670,245.44,-1.0874,-12.2608,-0.5899,-3.0768,0.0853,-0.8716,rough,15.5,0,10.064
7680,245.76,-1.0883,-12.2654,-0.5874,-3.0797,0.0677,-0.8698,rough,15.5,0,10.068
7690,246.08,-1.0861,-12.2599,-0.5870,-3.0749,0.0851,-0.9412,rough,15.5,0,10.063
7700,246.40,-1.0862,-12.2578,-0.5924,-3.0721,0.1046,-0.8831,rough,15.5,0,10.061
7710,246.72,-1.0971,-12.2629,-0.5885,-3.0909,0.0876,-0.8957,rough,15.5,0,10.072
7720,247.04,-1.1018,-12.2781,-0.5884,-3.1085,0.0703,-0.8081,rough,15.5,0,10.087
7730,247.36,-1.0926,-12.2719,-0.5890,-3.0927,0.0681,-0.8073,rough,15.5,0,10.076
7740,247.68,-1.0846,-12.2713,-0.5884,-3.0978,0.0611,-0.8150,rough,15.5,0,10.070
7750,248.00,-1.1006,-12.2881,-0.5872,-3.1072,0.0647,-0.8509,rough,15.5,0,10.094
7760,248.32,-1.1034,-12.2903,-0.5928,-3.0997,0.1112,-0.9351,rough,15.5,0,10.097
7770,248.64,-1.1083,-12.3035,-0.5875,-3.1145,0.0499,-0.8308,rough,15.5,0,10.110
7780,248.96,-1.1006,-12.2918,-0.5922,-3.1290,0.0746,-0.9795,rough,15.5,0,10.096
7790,249.28,-1.1140,-12.3006,-0.5875,-3.1308,0.0615,-0.8015,rough,15.5,0,10.112
7800,249.60,-1.1172,-12.3119,-0.5879,-3.1343,0.0491,-0.7951,rough,15.5,0,10.122
7810,249.92,-1.1131,-12.2968,-0.5875,-3.1273,0.0733,-0.8419,rough,15.5,0,10.108
7820,250.24,-1.1114,-12.2864,-0.5894,-3.1146,0.0975,-0.9255,rough,15.5,0,10.099
7830,250.56,-1.1100,-12.2902,-0.5884,-3.1178,0.0690,-0.8342,rough,15.5,0,10.101
7840,250.88,-1.1083,-12.2986,-0.5871,-3.1161,0.0740,-0.9088,rough,15.5,0,10.107
7850,251.20,-1.1188,-12.2929,-0.5935,-3.1012,0.0762,-0.8596,rough,15.5,0,10.109
7860,251.52,-1.1230,-12.3117,-0.5879,3.1367,0.0686,-0.8192,rough,15.5,0,10.126
7870,251.84,-1.1301,-12.3072,-0.5881,3.1323,0.1012,-0.9401,rough,15.5,0,10.127
7880,252.16,-1.1274,-12.3142,-0.5872,3.1345,0.0887,-0.9317,rough,15.5,0,10.131
7890,252.48,-1.1229,-12.3097,-0.5892,3.1347,0.0697,-0.8478,rough,15.5,0,10.124
7900,252.80,-1.1231,-12.3064,-0.5873,3.1366,0.0888,-0.9069,rough,15.5,0,10.122
7910,253.12,-1.1120,-12.3087,-0.5878,3.1365,0.0661,-0.7847,rough,15.5,0,10.117
7920,253.44,-1.1087,-12.3021,-0.5870,-3.1172,0.0600,-0.8656,rough,15.5,0,10.110
