step,time_s,x,y,z,roll,pitch,yaw,terrain,speed,target_idx,dist_to_target
10,0.32,0.0979,-0.0672,0.2012,0.0413,-0.0632,0.0023,rough,15.5,0,5.316
20,0.64,0.5250,-0.0863,0.2143,0.0634,-0.0693,-0.0999,rough,15.5,0,4.978
30,0.96,0.9869,-0.1632,0.2440,0.1103,-0.0350,-0.1758,rough,15.5,0,4.590
40,1.28,1.4542,-0.2767,0.2449,0.1269,0.0608,-0.2787,rough,15.5,0,4.186
50,1.60,1.8993,-0.4362,0.2151,0.1129,0.0665,-0.3853,rough,15.5,0,3.778
60,1.92,2.3217,-0.6342,0.1941,0.1334,0.0264,-0.4660,rough,15.5,0,3.368
70,2.24,2.7354,-0.8728,0.1805,0.1799,0.0972,-0.5319,rough,15.5,0,2.944
80,2.56,3.1374,-1.1255,0.0879,0.1550,0.1174,-0.6399,rough,15.5,0,2.531
90,2.88,3.5848,-1.4307,-0.0521,-0.0822,0.4928,-0.7672,rough,15.5,0,2.080
100,3.20,3.8507,-1.6172,-0.1011,-0.1806,0.0442,-0.8344,rough,15.5,0,1.830
110,3.52,4.1397,-1.9603,-0.1508,-0.1554,0.0424,-0.9549,rough,15.5,0,1.449
120,3.84,4.4033,-2.3580,-0.1826,-0.1488,0.2073,-1.0853,rough,15.5,0,1.062
130,4.16,4.6014,-2.7676,-0.2766,-0.1701,0.2177,-1.3601,rough,15.5,1,7.709
140,4.48,4.6540,-3.1486,-0.3250,-0.0047,0.0390,-1.5413,rough,15.5,1,7.475
150,4.80,4.5653,-3.6005,-0.3897,0.2724,0.1832,-1.6852,rough,15.5,1,7.102
160,5.12,4.4608,-4.0153,-0.4568,0.3316,0.0978,-1.8222,rough,15.5,1,6.751
170,5.44,4.3114,-4.4319,-0.5062,0.3912,0.0768,-1.9208,rough,15.5,1,6.372
180,5.76,4.1241,-4.8515,-0.5398,0.3468,0.0461,-2.0380,rough,15.5,1,5.971
190,6.08,3.8973,-5.2576,-0.5642,0.2671,-0.0118,-2.1384,rough,15.5,1,5.552
200,6.40,3.6311,-5.6222,-0.5274,0.2402,-0.1215,-2.2366,rough,15.5,1,5.130
210,6.72,3.3544,-5.8864,-0.4254,0.3974,-0.4235,-2.3385,rough,15.5,1,4.756
220,7.04,3.0875,-6.1091,-0.2776,0.3289,-0.5461,-2.4413,rough,15.5,1,4.413
230,7.36,2.8172,-6.2236,-0.1142,0.4839,-0.7777,-2.6018,rough,15.5,1,4.122
240,7.68,2.5713,-6.2414,-0.0160,0.5131,-0.6656,-2.7793,rough,15.5,1,3.904
250,8.00,2.3319,-6.1694,0.0338,0.4898,-0.6742,-2.7644,rough,15.5,1,3.746
260,8.32,2.0758,-6.0484,0.0357,0.2856,-0.7233,-2.5135,rough,15.5,1,3.617
270,8.64,1.8494,-5.9683,0.0766,-0.0600,-0.7200,-2.3630,rough,15.5,1,3.500
280,8.96,1.5647,-5.9182,0.1544,0.1774,-0.6077,-2.3583,rough,15.5,1,3.333
290,9.28,1.4222,-6.0258,0.3090,-0.2161,-0.6986,-1.8118,rough,15.5,1,3.158
300,9.60,1.4416,-6.2463,0.4414,-0.4451,-0.6529,-1.5085,rough,15.5,1,3.013
310,9.92,1.4853,-6.5118,0.6177,-0.4412,-0.6576,-1.4611,rough,15.5,1,2.867
320,10.24,1.5418,-6.7014,0.7480,-0.4562,-0.6857,-1.4021,rough,15.5,1,2.794
330,10.56,1.6691,-6.8522,0.8327,-0.5749,-0.7378,-1.2512,rough,15.5,1,2.815
340,10.88,1.7751,-6.8868,0.8353,-0.3654,-0.7823,-1.4168,rough,15.5,1,2.887
350,11.20,1.8625,-6.8577,0.7771,-0.2882,-0.7698,-1.4219,rough,15.5,1,2.977
360,11.52,1.9469,-6.7931,0.6865,-0.2049,-0.7717,-1.4453,rough,15.5,1,3.083
370,11.84,1.9962,-6.6915,0.5868,-0.3037,-0.7472,-1.3170,rough,15.5,1,3.177
380,12.16,2.1199,-6.5586,0.4284,-0.6230,-0.4707,-0.7343,rough,15.5,1,3.352
390,12.48,2.3173,-6.3818,0.2310,-0.6351,-0.5015,-0.8106,rough,15.5,1,3.614
400,12.80,2.6393,-6.1999,-0.0831,-0.6083,-0.6035,-1.1666,rough,15.5,1,3.983
410,13.12,2.8202,-5.9173,-0.3873,-0.2564,-0.6895,-1.4060,rough,15.5,1,4.290
420,13.44,2.8765,-5.6808,-0.5708,-0.1035,-0.5210,-1.3320,rough,15.5,1,4.474
430,13.76,2.9537,-5.6530,-0.5948,0.0857,-0.5931,-1.3529,rough,15.5,1,4.553
440,14.08,3.0183,-5.8212,-0.4838,0.0521,-0.7795,-1.4715,rough,15.5,1,4.508
450,14.40,3.0493,-5.9868,-0.3561,-0.0017,-0.7368,-1.5285,rough,15.5,1,4.444
460,14.72,3.0898,-6.1764,-0.2358,-0.1656,-0.6436,-1.5446,rough,15.5,1,4.381
470,15.04,3.1075,-6.3968,-0.0663,-0.2331,-0.7403,-1.4983,rough,15.5,1,4.291
480,15.36,3.1511,-6.5926,0.0539,-0.3989,-0.6575,-1.5071,rough,15.5,1,4.245
490,15.68,3.1798,-6.8389,0.1995,-0.5117,-0.6076,-1.5278,rough,15.5,1,4.176
500,16.00,3.2102,-7.0980,0.3457,-0.5812,-0.5914,-1.5371,rough,15.5,1,4.118
510,16.32,3.2420,-7.3794,0.4969,-0.5628,-0.6317,-1.6336,rough,15.5,1,4.072
520,16.64,3.2434,-7.6257,0.6542,-0.5881,-0.5965,-1.5859,rough,15.5,1,4.022
530,16.96,3.2510,-7.8716,0.8276,-0.4643,-0.7253,-1.7301,rough,15.5,1,3.992
540,17.28,3.2159,-8.0894,1.0108,-0.4105,-0.7226,-1.7708,rough,15.5,1,3.937
550,17.60,3.2628,-8.2367,1.0961,-0.6334,-0.5848,-1.3502,rough,15.5,1,3.976
560,17.92,3.3880,-8.2846,1.0486,-0.6509,-0.4462,-1.2004,rough,15.5,1,4.100
570,18.24,3.5601,-8.2980,0.9554,-0.6181,-0.5070,-1.2514,rough,15.5,1,4.272
580,18.56,3.6849,-8.3095,0.8912,-0.6421,-0.4833,-1.1824,rough,15.5,1,4.397
590,18.88,3.8139,-8.3482,0.8376,-0.6071,-0.4078,-1.1706,rough,15.5,1,4.526
600,19.20,3.9736,-8.4515,0.7921,-0.5431,-0.2778,-1.2902,rough,15.5,1,4.686
610,19.52,4.0780,-8.6606,0.8293,-0.6054,-0.1613,-1.4767,rough,15.5,1,4.800
620,19.84,4.1365,-8.9338,0.8775,-0.5799,-0.3869,-1.7252,rough,15.5,1,4.883
630,20.16,4.1583,-9.2445,0.9529,-0.6324,-0.5793,-1.9266,rough,15.5,1,4.951
640,20.48,4.2557,-9.4744,0.9175,-0.6457,-0.6074,-1.9125,rough,15.5,1,5.092
650,20.80,4.3536,-9.6698,0.9207,-0.3080,-0.7712,-2.2299,rough,15.5,1,5.234
660,21.12,4.3529,-9.8413,0.9990,0.1304,-0.8693,-2.7397,rough,15.5,1,5.279
670,21.44,4.2739,-9.8869,1.0697,0.5429,-0.7858,2.8347,rough,15.5,1,5.216
680,21.76,4.1891,-9.6609,1.0603,0.7937,-0.4180,2.2896,rough,15.5,1,5.072
690,22.08,4.2171,-9.2973,0.9255,0.7619,-0.5293,2.2813,rough,15.5,1,5.018
700,22.40,4.3520,-8.9502,0.7172,0.6012,-0.3928,2.4344,rough,15.5,1,5.099
710,22.72,4.4290,-8.7930,0.6092,0.4725,-0.5636,2.6382,rough,15.5,1,5.160
720,23.04,4.3972,-8.6507,0.6079,0.4747,-0.5802,2.6791,rough,15.5,1,5.118
730,23.36,4.3096,-8.5257,0.6381,0.3914,-0.5199,2.7640,rough,15.5,1,5.024
740,23.68,4.1896,-8.4042,0.6724,0.3978,-0.4234,2.7897,rough,15.5,1,4.902
750,24.00,3.8619,-8.2154,0.7472,0.6659,-0.2897,2.9198,rough,15.5,1,4.576
760,24.32,3.4908,-7.9978,0.7685,0.6657,-0.3874,2.9262,rough,15.5,1,4.218
770,24.64,3.1829,-7.7943,0.8204,0.6563,-0.5705,2.8834,rough,15.5,1,3.935
780,24.96,2.9826,-7.5470,0.8128,0.6016,-0.5924,2.9317,rough,15.5,1,3.781
790,25.28,2.7913,-7.2595,0.7561,0.6489,-0.4291,2.8726,rough,15.5,1,3.670
800,25.60,2.4811,-6.9553,0.6902,0.7673,-0.2371,2.8865,rough,15.5,1,3.485
810,25.92,2.1016,-6.5836,0.4679,0.7564,-0.0367,3.0488,rough,15.5,1,3.324
820,26.24,1.7773,-6.1897,0.2606,0.6019,-0.4035,3.0846,rough,15.5,1,3.298
830,26.56,1.4252,-5.8914,0.1889,0.5325,-0.3623,-3.1044,rough,15.5,1,3.260
840,26.88,1.1782,-5.7917,0.2720,0.3110,-0.8158,-2.7813,rough,15.5,1,3.183
850,27.20,0.9962,-5.7714,0.3657,0.1240,-0.8361,-2.3017,rough,15.5,1,3.096
860,27.52,0.9577,-5.7844,0.3709,-0.1965,-0.8489,-1.8234,rough,15.5,1,3.064
870,27.84,1.0151,-5.7278,0.2986,-0.4504,-0.6982,-1.3673,rough,15.5,1,3.142
880,28.16,1.1965,-5.7066,0.2030,-0.6403,-0.4336,-1.1107,rough,15.5,1,3.263
890,28.48,1.4132,-5.7461,0.1143,-0.5733,-0.2751,-0.9253,rough,15.5,1,3.363
900,28.80,1.6327,-5.8857,0.1184,-0.5321,-0.2982,-1.0162,rough,15.5,1,3.404
910,29.12,1.8150,-6.1371,0.1902,-0.5114,-0.4463,-1.1568,rough,15.5,1,3.361
920,29.44,1.9787,-6.3465,0.2844,-0.5105,-0.5377,-1.0554,rough,15.5,1,3.356
930,29.76,2.1654,-6.4863,0.3531,-0.5191,-0.5495,-0.9829,rough,15.5,1,3.430
940,30.08,2.3183,-6.5556,0.3807,-0.4147,-0.7043,-1.2096,rough,15.5,1,3.523
950,30.40,2.4616,-6.5564,0.3316,-0.3597,-0.7546,-1.5089,rough,15.5,1,3.647
960,30.72,2.6385,-6.4941,0.1926,-0.4080,-0.7339,-1.4602,rough,15.5,1,3.832
970,31.04,2.8068,-6.3536,-0.0035,-0.2399,-0.7702,-1.6063,rough,15.5,1,4.047
980,31.36,2.9374,-6.2050,-0.1713,-0.1642,-0.7439,-1.5204,rough,15.5,1,4.235
990,31.68,2.9989,-6.1289,-0.2462,-0.1565,-0.7020,-1.3590,rough,15.5,1,4.326
1000,32.00,3.0602,-6.1323,-0.2575,-0.1721,-0.6607,-1.4191,rough,15.5,1,4.377
1010,32.32,3.1225,-6.2131,-0.2147,-0.2682,-0.6088,-1.4477,rough,15.5,1,4.391
1020,32.64,3.1596,-6.3794,-0.0967,-0.2743,-0.7297,-1.4343,rough,15.5,1,4.346
1030,32.96,3.2260,-6.5981,0.0141,-0.4691,-0.5552,-1.4537,rough,15.5,1,4.311
1040,33.28,3.2719,-6.8549,0.1595,-0.5333,-0.5900,-1.4578,rough,15.5,1,4.256
1050,33.60,3.3132,-7.1389,0.3036,-0.5698,-0.5012,-1.5294,rough,15.5,1,4.204
1060,33.92,3.3316,-7.4321,0.4777,-0.4510,-0.6366,-1.6809,rough,15.5,1,4.147
1070,34.24,3.3066,-7.6969,0.6686,-0.4921,-0.6554,-1.6610,rough,15.5,1,4.072
1080,34.56,3.2792,-7.9395,0.8576,-0.3442,-0.7217,-1.8230,rough,15.5,1,4.012
1090,34.88,3.2302,-8.1647,1.0612,-0.4270,-0.7168,-1.7118,rough,15.5,1,3.946
1100,35.20,3.2810,-8.3022,1.1397,-0.6685,-0.6056,-1.3132,rough,15.5,1,3.993
1110,35.52,3.4594,-8.3867,1.0889,-0.5673,-0.6449,-1.3941,rough,15.5,1,4.171
1120,35.84,3.6843,-8.3645,0.9253,-0.4673,-0.6797,-1.5733,rough,15.5,1,4.396
1130,36.16,3.8382,-8.3047,0.8060,-0.4352,-0.6223,-1.5168,rough,15.5,1,4.550
1140,36.48,3.9118,-8.3205,0.7711,-0.5010,-0.4658,-1.3104,rough,15.5,1,4.624
1150,36.80,4.0199,-8.4382,0.7614,-0.4877,-0.3120,-1.3426,rough,15.5,1,4.732
1160,37.12,4.0754,-8.6175,0.8197,-0.4449,-0.3500,-1.4346,rough,15.5,1,4.794
1170,37.44,4.1551,-8.9068,0.8492,-0.6052,-0.3793,-1.7272,rough,15.5,1,4.898
1180,37.76,4.1703,-9.2249,0.9311,-0.6225,-0.5539,-1.9179,rough,15.5,1,4.959
1190,38.08,4.2362,-9.4930,0.9454,-0.6300,-0.6224,-1.9269,rough,15.5,1,5.078
1200,38.40,4.3003,-9.7166,0.9778,-0.4349,-0.7722,-2.1812,rough,15.5,1,5.194
1210,38.72,4.2667,-9.8960,1.0842,-0.1903,-0.8263,-2.4669,rough,15.5,1,5.212
1220,39.04,4.1843,-10.0043,1.2198,-0.1158,-0.8627,-2.5626,rough,15.5,1,5.167
1230,39.36,4.2056,-10.0503,1.2191,-0.2355,-0.8358,-2.3767,rough,15.5,1,5.202
1240,39.68,4.3080,-10.1033,1.1646,0.0568,-0.8671,-2.5601,rough,15.5,1,5.316
1250,40.00,4.3761,-10.1503,1.1164,0.3107,-0.8277,-2.8931,rough,15.5,1,5.396
1260,40.32,4.3902,-10.1294,1.0986,0.5956,-0.4752,2.6699,rough,15.5,1,5.402
1270,40.64,4.2610,-9.8693,1.0775,0.8368,-0.5106,2.3355,rough,15.5,1,5.199
1280,40.96,4.2022,-9.4982,0.9832,0.7368,-0.4661,2.3537,rough,15.5,1,5.046
1290,41.28,4.2961,-9.1531,0.7942,0.6402,-0.4610,2.3002,rough,15.5,1,5.071
1300,41.60,4.4340,-8.8665,0.6343,0.5646,-0.4059,2.4328,rough,15.5,1,5.171
1310,41.92,4.5120,-8.6778,0.5270,0.5886,-0.5593,2.5228,rough,15.5,1,5.234
1320,42.24,4.5476,-8.4654,0.4265,0.6856,-0.4127,2.2827,rough,15.5,1,5.261
1330,42.56,4.5547,-8.1521,0.3065,0.6572,-0.4352,2.5482,rough,15.5,1,5.270
1340,42.88,4.5497,-7.8004,0.1483,0.6110,-0.5443,2.7179,rough,15.5,1,5.290
1350,43.20,4.5652,-7.4799,-0.0526,0.6953,-0.1947,2.5671,rough,15.5,1,5.349
1360,43.52,4.5119,-7.2021,-0.2034,0.6708,-0.0399,2.5217,rough,15.5,1,5.349
1370,43.84,4.2130,-6.9187,-0.2559,0.5873,-0.0765,2.6434,rough,15.5,1,5.129
1380,44.16,3.9699,-6.6368,-0.2827,0.5077,-0.1886,2.6452,rough,15.5,1,4.986
1390,44.48,3.5968,-6.4244,-0.2256,0.5383,-0.0813,2.8328,rough,15.5,1,4.721
1400,44.80,3.2152,-6.2423,-0.1972,0.6922,0.0151,2.9556,rough,15.5,1,4.458
1410,45.12,2.7912,-6.0607,-0.2188,0.7777,0.0567,3.1310,rough,15.5,1,4.186
1420,45.44,2.5979,-5.8024,-0.3291,1.0513,-0.5875,2.8621,rough,15.5,1,4.179
1430,45.76,2.4621,-5.4364,-0.6052,0.5813,-0.4882,-3.0974,rough,15.5,1,4.311
1440,46.08,2.3828,-5.2659,-0.6654,0.4386,-0.3119,3.0178,rough,15.5,1,4.371
1450,46.40,2.1969,-5.1899,-0.5980,0.4766,-0.6248,2.9068,rough,15.5,1,4.297
1460,46.72,2.0197,-5.1073,-0.5114,0.5144,-0.5619,2.8533,rough,15.5,1,4.242
1470,47.04,1.7362,-5.0075,-0.4376,0.5838,-0.2594,2.9647,rough,15.5,1,4.146
1480,47.36,1.3618,-4.9151,-0.3610,0.4826,-0.3202,-3.0750,rough,15.5,1,4.015
1490,47.68,0.9587,-4.9512,-0.2556,0.4078,-0.3384,-2.8754,rough,15.5,1,3.790
1500,48.00,0.7301,-4.9818,-0.1310,0.3780,-0.7131,-2.8837,rough,15.5,1,3.667
1510,48.32,0.5330,-4.9801,-0.0299,0.3199,-0.6926,-2.8717,rough,15.5,1,3.595
1520,48.64,0.3439,-4.9721,0.1332,0.1832,-0.9198,-2.6207,rough,15.5,1,3.542
1530,48.96,0.2807,-4.9839,0.1815,0.3644,-0.8424,-2.9264,rough,15.5,1,3.512
1540,49.28,0.2443,-4.8629,0.1336,0.7247,-0.6571,2.7119,rough,15.5,1,3.619
1550,49.60,0.3039,-4.6576,-0.0276,0.6278,-0.3627,2.4885,rough,15.5,1,3.833
1560,49.92,0.3353,-4.4958,-0.0997,0.6369,-0.3476,2.5428,rough,15.5,1,3.997
1570,50.24,0.2558,-4.3700,-0.0936,0.5956,-0.4861,2.6034,rough,15.5,1,4.099
1580,50.56,0.1328,-4.2588,-0.0309,0.5416,-0.5471,2.6803,rough,15.5,1,4.181
1590,50.88,0.0279,-4.1740,0.0174,0.4108,-0.5309,2.8531,rough,15.5,1,4.244
1600,51.20,-0.1349,-4.1142,0.0952,0.4052,-0.5132,2.9288,rough,15.5,1,4.278
1610,51.52,-0.3586,-4.0519,0.1804,0.4349,-0.4879,3.1168,rough,15.5,1,4.316
1620,51.84,-0.6241,-4.0362,0.3146,0.3196,-0.5834,-2.8750,rough,15.5,1,4.318
1630,52.16,-0.8915,-4.1005,0.4919,0.2381,-0.6931,-2.6457,rough,15.5,1,4.257
1640,52.48,-1.1102,-4.2062,0.6929,0.1358,-0.8171,-2.4309,rough,15.5,1,4.166
1650,52.80,-1.2242,-4.3397,0.8662,0.0158,-0.8050,-2.3156,rough,15.5,1,4.046
1660,53.12,-1.3222,-4.4993,1.0433,-0.0567,-0.7771,-2.2279,rough,15.5,1,3.902
1670,53.44,-1.4070,-4.6671,1.2168,-0.0295,-0.7765,-2.2306,rough,15.5,1,3.751
1680,53.76,-1.4967,-4.8317,1.3610,-0.0821,-0.7177,-2.2553,rough,15.5,1,3.608
1690,54.08,-1.6209,-4.9599,1.4879,-0.0680,-0.6103,-2.3839,rough,15.5,1,3.513
1700,54.40,-1.7914,-5.0854,1.5849,0.0842,-0.4716,-2.4621,rough,15.5,1,3.441
1710,54.72,-2.0943,-5.3186,1.6248,0.2965,-0.1114,-2.1124,rough,15.5,1,3.335
1720,55.04,-2.2462,-5.7159,1.6496,0.1147,-0.0502,-1.9037,rough,15.5,1,3.051
1730,55.36,-2.3777,-6.1597,1.6223,0.1073,0.0455,-1.7347,rough,15.5,1,2.754
1740,55.68,-2.4537,-6.6760,1.5130,0.2836,0.5368,-1.5739,rough,15.5,1,2.418
1750,56.00,-2.4653,-7.1871,1.2327,0.4102,0.6499,-1.2231,rough,15.5,1,2.106
1760,56.32,-2.3477,-7.7493,0.8048,0.6561,0.3849,-0.6823,rough,15.5,1,1.744
1770,56.64,-2.1482,-8.3706,0.4234,0.6959,-0.0929,-0.7138,rough,15.5,1,1.436
1780,56.96,-1.8988,-8.9426,0.2860,0.6421,-0.3262,-0.3764,rough,15.5,1,1.325
1790,57.28,-1.5491,-9.3748,0.1917,0.5591,-0.3451,0.0977,rough,15.5,1,1.321
1800,57.60,-1.3756,-9.6404,0.1438,0.6349,-0.8658,0.2561,rough,15.5,1,1.448
1810,57.92,-1.4464,-9.8369,0.0364,2.1474,-1.3291,-1.4791,rough,15.5,1,1.656
1820,58.24,-1.5014,-10.0018,-0.3340,3.0292,0.5554,-2.4245,rough,15.5,1,1.828
1830,58.56,-1.6354,-10.1259,-0.3887,3.0246,0.5618,-2.4564,rough,15.5,1,1.999
1840,58.88,-1.5575,-10.0887,-0.3581,-3.0741,0.4788,-2.1261,rough,15.5,1,1.931
1850,59.20,-1.4611,-9.9758,-0.2824,-2.8944,0.4787,-1.7334,rough,15.5,1,1.787
1860,59.52,-1.4309,-9.8576,-0.2296,-2.8614,0.4679,-1.5478,rough,15.5,1,1.667
1870,59.84,-1.5079,-9.8084,-0.2477,-2.7279,0.3064,-0.9088,rough,15.5,1,1.659
1880,60.16,-1.6442,-10.0274,-0.3767,-2.7220,0.2434,-0.9731,rough,15.5,1,1.916
1890,60.48,-1.7853,-10.2605,-0.5146,-2.6552,0.1677,-0.9698,rough,15.5,1,2.189
1900,60.80,-1.9091,-10.4884,-0.6363,-2.6757,0.0538,-1.0020,rough,15.5,1,2.448
1910,61.12,-2.0087,-10.7103,-0.7292,-2.7364,-0.0397,-0.9590,rough,15.5,1,2.690
1920,61.44,-2.0535,-10.8182,-0.7485,-2.7931,-0.1016,-1.1199,rough,15.5,1,2.807
1930,61.76,-2.0625,-10.9658,-0.7526,-2.8067,-0.2691,-1.1882,rough,15.5,1,2.941
1940,62.08,-2.0718,-11.0232,-0.7573,-2.9074,-0.2562,-1.1458,rough,15.5,1,2.996
1950,62.40,-2.1205,-11.0219,-0.7716,-3.0053,-0.1430,-1.1257,rough,15.5,1,3.018
1960,62.72,-2.1267,-11.0355,-0.7738,-3.0647,-0.1176,-1.0747,rough,15.5,1,3.033
1970,63.04,-2.1308,-11.0499,-0.7769,-3.0843,-0.1020,-1.0919,rough,15.5,1,3.047
1980,63.36,-2.1358,-11.0435,-0.7742,-3.0839,-0.1021,-1.0510,rough,15.5,1,3.044
1990,63.68,-2.1322,-11.0461,-0.7724,-3.0877,-0.1224,-1.0402,rough,15.5,1,3.045
2000,64.00,-2.1368,-11.0535,-0.7747,-3.0842,-0.1088,-1.1025,rough,15.5,1,3.053
2010,64.32,-2.1424,-11.0177,-0.7786,-3.0208,-0.0963,-1.1817,rough,15.5,1,3.024
2020,64.64,-2.1757,-10.9608,-0.7810,-3.0426,-0.0234,-1.0807,rough,15.5,1,2.990
2030,64.96,-2.1756,-10.8876,-0.7842,-3.0293,0.0518,-0.9786,rough,15.5,1,2.927
2040,65.28,-2.1662,-10.9359,-0.7822,-3.0224,-0.0172,-1.0907,rough,15.5,1,2.964
2050,65.60,-2.1574,-10.9654,-0.7841,-3.0316,-0.0486,-1.1612,rough,15.5,1,2.986
2060,65.92,-2.1894,-10.8879,-0.7817,-3.0059,0.0685,-1.1740,rough,15.5,1,2.934
2070,66.24,-2.1816,-10.9015,-0.7825,-3.0284,0.0465,-0.9891,rough,15.5,1,2.942
2080,66.56,-2.1893,-10.9324,-0.7850,-3.0156,-0.0006,-1.0848,rough,15.5,1,2.972
2090,66.88,-2.1805,-10.9050,-0.7795,-3.0199,0.0468,-1.0859,rough,15.5,1,2.944
2100,67.20,-2.1920,-10.8257,-0.7769,-3.0282,0.1616,-1.0879,rough,15.5,1,2.882
2110,67.52,-2.1837,-10.8581,-0.7828,-3.0285,0.1179,-1.0394,rough,15.5,1,2.905
2120,67.84,-2.1980,-10.9350,-0.7753,-3.0582,0.0034,-1.1313,rough,15.5,1,2.979
2130,68.16,-2.1799,-10.9248,-0.7819,-3.0225,0.0110,-1.0678,rough,15.5,1,2.961
2140,68.48,-2.1544,-10.9760,-0.7777,-3.0336,-0.0569,-1.0677,rough,15.5,1,2.993
2150,68.80,-2.1792,-11.0160,-0.7820,-3.1357,-0.0523,-1.0661,rough,15.5,1,3.040
2160,69.12,-2.1416,-11.0188,-0.7782,-3.0487,-0.0879,-1.1425,rough,15.5,1,3.025
2170,69.44,-2.1382,-11.0120,-0.7782,-3.0479,-0.0900,-1.1277,rough,15.5,1,3.017
2180,69.76,-2.1377,-11.0161,-0.7746,-3.0543,-0.0981,-1.0321,rough,15.5,1,3.021
2190,70.08,-2.1339,-11.0077,-0.7796,-3.0147,-0.0860,-1.1626,rough,15.5,1,3.011
2200,70.40,-2.1599,-10.9996,-0.7793,-3.0447,-0.0821,-1.0612,rough,15.5,1,3.017
2210,70.72,-2.1831,-10.9307,-0.7816,-3.0315,0.0118,-1.0521,rough,15.5,1,2.968
2220,71.04,-2.1863,-10.9103,-0.7778,-3.0256,0.0471,-1.1199,rough,15.5,1,2.952
2230,71.36,-2.1673,-10.9605,-0.7812,-3.0153,-0.0430,-1.1029,rough,15.5,1,2.986
2240,71.68,-2.1647,-10.9784,-0.7809,-3.0393,-0.0368,-1.1143,rough,15.5,1,3.000
2250,72.00,-2.1751,-10.9494,-0.7819,-3.0200,-0.0128,-1.0970,rough,15.5,1,2.980
2260,72.32,-2.2028,-10.8957,-0.7840,-3.0559,0.0591,-0.9530,rough,15.5,1,2.947
2270,72.64,-2.2159,-10.8392,-0.7749,-3.0486,0.1358,-0.9730,rough,15.5,1,2.906
2280,72.96,-2.1844,-10.8974,-0.7801,-3.0143,0.0727,-1.0542,rough,15.5,1,2.940
2290,73.28,-2.1621,-10.9501,-0.7792,-3.0135,-0.0565,-1.0498,rough,15.5,1,2.974
2300,73.60,-2.1647,-10.9506,-0.7827,-3.0023,-0.0220,-1.0512,rough,15.5,1,2.976
2310,73.92,-2.1857,-10.9382,-0.7809,-3.0283,0.0050,-1.0429,rough,15.5,1,2.976
2320,74.24,-2.1774,-10.9332,-0.7789,-3.0373,-0.0155,-1.1108,rough,15.5,1,2.967
2330,74.56,-2.1609,-10.9417,-0.7837,-3.0141,-0.0460,-1.0605,rough,15.5,1,2.966
2340,74.88,-2.1654,-10.9833,-0.7799,-3.0728,-0.0272,-1.0513,rough,15.5,1,3.005
2350,75.20,-2.1590,-11.0078,-0.7782,-3.0973,-0.0414,-1.0038,rough,15.5,1,3.023
2360,75.52,-2.1776,-10.9612,-0.7827,-3.0480,-0.0215,-1.1115,rough,15.5,1,2.992
2370,75.84,-2.1811,-10.9037,-0.7818,-3.0319,0.0479,-1.0439,rough,15.5,1,2.943
2380,76.16,-2.2000,-10.9028,-0.7826,-3.0568,0.0492,-0.9769,rough,15.5,1,2.952
2390,76.48,-2.1655,-10.9525,-0.7815,-3.0079,-0.0343,-1.0921,rough,15.5,1,2.978
2400,76.80,-2.1620,-10.9791,-0.7775,-3.0618,-0.0513,-1.0416,rough,15.5,1,3.000
2410,77.12,-2.1657,-11.0218,-0.7834,-3.0889,-0.0521,-1.1378,rough,15.5,1,3.039
2420,77.44,-2.1204,-11.0604,-0.7747,-3.0695,-0.1288,-1.1518,rough,15.5,1,3.052
2430,77.76,-2.1204,-11.0892,-0.7739,-3.1067,-0.1254,-1.1017,rough,15.5,1,3.077
2440,78.08,-2.1262,-11.0573,-0.7765,-3.0653,-0.1145,-1.1502,rough,15.5,1,3.052
2450,78.40,-2.1317,-11.0114,-0.7805,-3.0303,-0.1075,-1.1782,rough,15.5,1,3.014
2460,78.72,-2.1815,-10.9541,-0.7805,-3.0559,-0.0136,-1.0316,rough,15.5,1,2.987
2470,79.04,-2.2213,-10.8507,-0.7771,-3.0909,0.1162,-1.0589,slope,18.0,1,2.918
2480,79.36,-2.2375,-10.8698,-0.7827,-3.1102,0.1235,-0.9898,rough,15.5,1,2.943
2490,79.68,-2.1697,-10.9572,-0.7805,-3.0100,-0.0313,-1.1062,rough,15.5,1,2.984
2500,80.00,-2.1791,-10.9348,-0.7828,-3.0039,-0.0001,-1.1216,rough,15.5,1,2.969
2510,80.32,-2.1731,-10.9446,-0.7803,-3.0416,-0.0131,-1.0276,rough,15.5,1,2.975
2520,80.64,-2.1758,-10.9378,-0.7847,-2.9931,-0.0008,-1.1002,rough,15.5,1,2.970
2530,80.96,-2.1878,-10.8720,-0.7817,-3.0295,0.0941,-1.0439,rough,15.5,1,2.919
2540,81.28,-2.1960,-10.8827,-0.7828,-3.0541,0.0709,-0.9744,rough,15.5,1,2.933
2550,81.60,-2.1907,-10.9088,-0.7839,-3.0470,0.0280,-0.9800,rough,15.5,1,2.953
2560,81.92,-2.1963,-10.8970,-0.7794,-3.0407,0.0648,-1.0487,rough,15.5,1,2.945
2570,82.24,-2.1822,-10.9083,-0.7836,-3.0295,0.0435,-1.0084,rough,15.5,1,2.948
2580,82.56,-2.1776,-10.9468,-0.7819,-3.0409,-0.0260,-1.0456,rough,15.5,1,2.979
2590,82.88,-2.1776,-10.9480,-0.7808,-3.0147,-0.0156,-1.1195,rough,15.5,1,2.980
2600,83.20,-2.1645,-10.9570,-0.7775,-3.0416,-0.0321,-0.9823,rough,15.5,1,2.982
2610,83.52,-2.1743,-11.0083,-0.7831,-3.0879,-0.0411,-1.0819,rough,15.5,1,3.031
2620,83.84,-2.1707,-10.9680,-0.7812,-3.0306,-0.0409,-1.0685,rough,15.5,1,2.994
2630,84.16,-2.1751,-10.9339,-0.7801,-3.0216,-0.0010,-1.0462,rough,15.5,1,2.967
2640,84.48,-2.1722,-10.9504,-0.7785,-3.0487,-0.0173,-0.9851,rough,15.5,1,2.980
2650,84.80,-2.1747,-10.9388,-0.7817,-3.0199,-0.0068,-1.0715,rough,15.5,1,2.971
2660,85.12,-2.1635,-10.9587,-0.7772,-3.0588,-0.0431,-0.9534,rough,15.5,1,2.983
2670,85.44,-2.1575,-10.9778,-0.7788,-3.0379,-0.0525,-1.0279,rough,15.5,1,2.996
2680,85.76,-2.1855,-10.9200,-0.7831,-3.0423,0.0077,-1.0494,rough,15.5,1,2.960
2690,86.08,-2.2116,-10.8983,-0.7784,-3.0718,0.0588,-1.0376,rough,15.5,1,2.954
2700,86.40,-2.1758,-10.9046,-0.7802,-3.0149,0.0448,-1.0737,rough,15.5,1,2.942
2710,86.72,-2.1894,-10.9322,-0.7821,-3.0324,0.0037,-1.0778,rough,15.5,1,2.972
2720,87.04,-2.1611,-10.9217,-0.7834,-3.0220,-0.0152,-1.0452,rough,15.5,1,2.949
2730,87.36,-2.1724,-10.9071,-0.7809,-3.0213,0.0258,-1.0447,rough,15.5,1,2.942
2740,87.68,-2.1687,-10.9467,-0.7807,-3.0630,-0.0595,-1.0277,rough,15.5,1,2.975
2750,88.00,-2.1505,-11.0000,-0.7777,-3.0698,-0.0499,-1.0836,rough,15.5,1,3.013
2760,88.32,-2.1354,-11.0329,-0.7748,-3.0683,-0.0980,-1.1045,rough,15.5,1,3.034
2770,88.64,-2.1372,-11.0174,-0.7741,-3.0649,-0.1046,-1.0268,rough,15.5,1,3.022
2780,88.96,-2.1594,-10.9779,-0.7786,-3.0352,-0.0502,-1.0746,rough,15.5,1,2.997
2790,89.28,-2.1716,-10.9500,-0.7784,-3.0298,-0.0260,-1.0452,rough,15.5,1,2.979
2800,89.60,-2.1904,-10.9251,-0.7794,-3.0391,0.0178,-1.0717,rough,15.5,1,2.967
2810,89.92,-2.1871,-10.8572,-0.7810,-3.0231,0.1180,-1.0144,rough,15.5,1,2.906
2820,90.24,-2.1729,-10.8553,-0.7781,-3.0207,0.0860,-0.9971,rough,15.5,1,2.897
2830,90.56,-2.2072,-10.8916,-0.7811,-3.0645,0.0717,-1.0225,rough,15.5,1,2.946
2840,90.88,-2.1776,-10.9504,-0.7832,-3.0298,-0.0351,-1.0499,rough,15.5,1,2.982
2850,91.20,-2.1638,-10.9732,-0.7801,-3.0268,-0.0491,-1.0800,rough,15.5,1,2.995
2860,91.52,-2.1801,-10.9605,-0.7793,-3.0385,-0.0205,-1.0748,rough,15.5,1,2.992
2870,91.84,-2.1937,-10.8825,-0.7801,-3.0363,0.0829,-1.0461,rough,15.5,1,2.931
2880,92.16,-2.1900,-10.8567,-0.7779,-3.0298,0.1172,-1.0905,rough,15.5,1,2.907
2890,92.48,-2.1554,-10.9252,-0.7845,-3.0125,-0.0147,-1.0148,rough,15.5,1,2.949
2900,92.80,-2.1496,-10.9833,-0.7783,-3.0175,-0.0665,-1.1325,rough,15.5,1,2.997
2910,93.12,-2.1400,-11.0498,-0.7739,-3.0864,-0.1054,-1.0682,rough,15.5,1,3.051
2920,93.44,-2.1158,-11.0572,-0.7784,-3.0732,-0.0987,-1.1141,rough,15.5,1,3.047
2930,93.76,-2.1281,-11.0743,-0.7793,-3.0877,-0.1495,-1.1376,rough,15.5,1,3.068
2940,94.08,-2.1266,-11.0774,-0.7735,-3.1084,-0.1285,-1.0957,rough,15.5,1,3.070
2950,94.40,-2.1399,-11.0377,-0.7727,-3.0928,-0.1192,-1.0587,rough,15.5,1,3.041
2960,94.72,-2.1407,-10.9797,-0.7747,-3.0079,-0.0840,-1.0985,rough,15.5,1,2.990
2970,95.04,-2.2026,-10.9223,-0.7846,-3.0639,0.0108,-0.9710,rough,15.5,1,2.970
2980,95.36,-2.1960,-10.8958,-0.7765,-3.0300,0.0829,-1.1062,rough,15.5,1,2.944
2990,95.68,-2.1710,-10.9422,-0.7796,-3.0383,-0.0270,-1.0017,rough,15.5,1,2.972
3000,96.00,-2.1690,-10.9775,-0.7744,-3.0882,-0.0614,-0.9411,slope,18.0,1,3.002
3010,96.32,-2.1886,-10.9137,-0.7786,-3.0296,0.0364,-1.0988,rough,15.5,1,2.956
3020,96.64,-2.1848,-10.9150,-0.7860,-3.0593,0.0181,-0.9962,rough,15.5,1,2.955
3030,96.96,-2.1872,-10.9253,-0.7784,-3.0174,0.0297,-1.1489,rough,15.5,1,2.965
3040,97.28,-2.1666,-10.9589,-0.7769,-3.0446,-0.0375,-0.9950,rough,15.5,1,2.984
3050,97.60,-2.1739,-10.9439,-0.7787,-3.0084,-0.0023,-1.1142,rough,15.5,1,2.975
3060,97.92,-2.1753,-10.9336,-0.7835,-3.0468,-0.0237,-1.0188,rough,15.5,1,2.966
3070,98.24,-2.1902,-10.9224,-0.7808,-3.0351,0.0214,-1.0493,rough,15.5,1,2.964
3080,98.56,-2.1887,-10.8862,-0.7814,-3.0428,0.0578,-0.9842,rough,15.5,1,2.932
3090,98.88,-2.1896,-10.9100,-0.7831,-3.0338,0.0351,-1.0398,rough,15.5,1,2.953
3100,99.20,-2.1789,-10.9340,-0.7802,-3.0482,0.0017,-0.9786,rough,15.5,1,2.969
3110,99.52,-2.1925,-10.9045,-0.7812,-3.0505,0.0428,-1.0519,rough,15.5,1,2.950
3120,99.84,-2.2061,-10.8744,-0.7820,-3.0570,0.1000,-1.0142,rough,15.5,1,2.931
3130,100.16,-2.1999,-10.8640,-0.7791,-3.0418,0.1156,-1.0415,rough,15.5,1,2.919
3140,100.48,-2.1738,-10.8838,-0.7793,-3.0155,0.0560,-1.0328,rough,15.5,1,2.923
3150,100.80,-2.2201,-10.9322,-0.7781,-3.0956,0.0216,-0.9968,rough,15.5,1,2.988
3160,101.12,-2.1766,-10.9270,-0.7805,-3.0262,-0.0024,-1.0358,rough,15.5,1,2.961
3170,101.44,-2.1653,-10.9521,-0.7779,-3.0396,-0.0343,-0.9962,rough,15.5,1,2.978
3180,101.76,-2.1652,-10.9610,-0.7850,-2.9914,-0.0506,-1.1280,rough,15.5,1,2.985
3190,102.08,-2.1609,-10.9615,-0.7797,-3.0066,-0.0369,-1.1329,rough,15.5,1,2.984
3200,102.40,-2.1640,-11.0008,-0.7810,-3.0739,-0.0382,-1.0937,rough,15.5,1,3.020
3210,102.72,-2.1757,-10.9892,-0.7815,-3.0820,-0.0251,-1.0678,rough,15.5,1,3.015
3220,103.04,-2.1662,-10.9358,-0.7797,-3.0157,-0.0046,-1.0788,rough,15.5,1,2.964
3230,103.36,-2.1855,-10.9327,-0.7830,-3.0426,0.0045,-1.0203,rough,15.5,1,2.971
3240,103.68,-2.1721,-10.9595,-0.7786,-3.0383,-0.0250,-1.0321,rough,15.5,1,2.987
3250,104.00,-2.1878,-10.9135,-0.7838,-3.0421,0.0356,-1.0056,rough,15.5,1,2.955
3260,104.32,-2.1778,-10.8901,-0.7818,-3.0224,0.0601,-1.0280,rough,15.5,1,2.930
3270,104.64,-2.1908,-10.8729,-0.7827,-3.0423,0.1026,-1.0412,rough,15.5,1,2.922
3280,104.96,-2.1839,-10.8870,-0.7787,-3.0187,0.0790,-1.0918,rough,15.5,1,2.930
3290,105.28,-2.1919,-10.8606,-0.7823,-3.0366,0.1089,-0.9851,rough,15.5,1,2.912
3300,105.60,-2.1995,-10.8361,-0.7752,-3.0148,0.1384,-0.9571,rough,15.5,1,2.894
3310,105.92,-2.2045,-10.8821,-0.7779,-3.0524,0.0912,-1.0597,rough,15.5,1,2.937
3320,106.24,-2.1836,-10.9145,-0.7801,-3.0311,0.0321,-1.0869,rough,15.5,1,2.954
3330,106.56,-2.1803,-10.9202,-0.7793,-3.0384,0.0022,-1.1241,rough,15.5,1,2.957
3340,106.88,-2.1714,-10.8764,-0.7809,-3.0006,0.0677,-1.1038,rough,15.5,1,2.915
3350,107.20,-2.1908,-10.9137,-0.7805,-3.0348,0.0409,-1.0263,rough,15.5,1,2.957
3360,107.52,-2.1464,-11.0013,-0.7749,-3.0612,-0.0785,-1.0083,rough,15.5,1,3.012
3370,107.84,-2.1218,-11.0691,-0.7741,-3.1045,-0.1309,-1.0503,rough,15.5,1,3.060
3380,108.16,-2.0836,-11.1131,-0.7770,-3.0853,-0.1490,-1.1002,rough,15.5,1,3.082
3390,108.48,-2.1021,-11.1033,-0.7794,-3.0867,-0.1527,-1.1749,rough,15.5,1,3.082
3400,108.80,-2.1165,-11.0602,-0.7755,-3.0679,-0.1074,-1.1627,rough,15.5,1,3.050
3410,109.12,-2.1302,-11.0405,-0.7766,-3.0508,-0.1055,-1.1570,rough,15.5,1,3.039
3420,109.44,-2.1357,-11.0462,-0.7774,-3.0715,-0.0832,-1.1012,rough,15.5,1,3.046
3430,109.76,-2.1330,-11.0153,-0.7734,-3.0414,-0.1113,-1.0670,rough,15.5,1,3.018
3440,110.08,-2.2118,-10.8845,-0.7805,-3.0791,0.0676,-1.0385,rough,15.5,1,2.942
3450,110.40,-2.2394,-10.8528,-0.7787,-3.1247,0.1286,-1.0443,slope,18.0,1,2.929
3460,110.72,-2.1953,-10.9240,-0.7796,-3.0564,0.0120,-1.0421,slope,18.0,1,2.968
3470,111.04,-2.1574,-10.9698,-0.7779,-3.0339,-0.0565,-1.0502,rough,15.5,1,2.989
3480,111.36,-2.1737,-10.9417,-0.7793,-3.0316,-0.0146,-1.0134,rough,15.5,1,2.973
3490,111.68,-2.1857,-10.9129,-0.7832,-3.0441,0.0219,-0.9911,rough,15.5,1,2.954
3500,112.00,-2.1886,-10.8747,-0.7803,-3.0094,0.1145,-1.0304,rough,15.5,1,2.922
3510,112.32,-2.2125,-10.8841,-0.7794,-3.0609,0.0896,-1.0264,rough,15.5,1,2.942
3520,112.64,-2.1779,-10.9059,-0.7791,-3.0020,0.0600,-1.1018,rough,15.5,1,2.944
3530,112.96,-2.1815,-10.9037,-0.7801,-3.0390,0.0391,-1.1021,rough,15.5,1,2.944
3540,113.28,-2.1719,-10.9198,-0.7810,-3.0017,0.0312,-1.0593,rough,15.5,1,2.953
3550,113.60,-2.1552,-11.0081,-0.7768,-3.0641,-0.0671,-1.0478,rough,15.5,1,3.022
3560,113.92,-2.1389,-11.0152,-0.7776,-3.0320,-0.0918,-1.1143,rough,15.5,1,3.020
3570,114.24,-2.1364,-11.0362,-0.7733,-3.0732,-0.1033,-1.0572,rough,15.5,1,3.038
3580,114.56,-2.1349,-11.0488,-0.7747,-3.0822,-0.1269,-1.0495,rough,15.5,1,3.048
3590,114.88,-2.1436,-11.0351,-0.7777,-3.0731,-0.0927,-1.1051,rough,15.5,1,3.040
3600,115.20,-2.1493,-10.9875,-0.7755,-3.0524,-0.0547,-1.0555,rough,15.5,1,3.001
3610,115.52,-2.2052,-10.8896,-0.7802,-3.0513,0.0805,-1.0182,rough,15.5,1,2.943
3620,115.84,-2.2185,-10.8591,-0.7807,-3.0978,0.0918,-0.9598,rough,15.5,1,2.924
3630,116.16,-2.1912,-10.8765,-0.7794,-3.0266,0.0780,-1.0746,rough,15.5,1,2.925
3640,116.48,-2.1743,-10.9361,-0.7829,-3.0388,-0.0240,-1.0169,rough,15.5,1,2.968
3650,116.80,-2.1490,-11.0140,-0.7782,-3.0584,-0.0749,-1.1141,rough,15.5,1,3.024
3660,117.12,-2.1347,-11.0413,-0.7745,-3.0734,-0.1098,-1.0888,rough,15.5,1,3.041
3670,117.44,-2.1344,-11.0266,-0.7739,-3.0564,-0.1087,-1.0616,rough,15.5,1,3.028
3680,117.76,-2.1351,-11.0357,-0.7764,-3.0524,-0.1141,-1.1336,rough,15.5,1,3.037
3690,118.08,-2.1365,-11.0275,-0.7755,-3.0546,-0.0986,-1.0961,rough,15.5,1,3.030
3700,118.40,-2.1352,-11.0479,-0.7768,-3.0639,-0.1068,-1.1344,rough,15.5,1,3.048
3710,118.72,-2.1282,-11.0674,-0.7732,-3.1094,-0.1247,-1.0593,rough,15.5,1,3.062
3720,119.04,-2.1100,-11.0985,-0.7737,-3.1144,-0.1392,-1.0633,rough,15.5,1,3.081
3730,119.36,-2.0986,-11.0791,-0.7804,-3.0566,-0.1033,-1.1590,rough,15.5,1,3.058
3740,119.68,-2.1403,-10.9955,-0.7759,-3.0288,-0.0812,-1.0829,rough,15.5,1,3.004
3750,120.00,-2.1941,-10.8901,-0.7822,-3.0486,0.0583,-1.0306,rough,15.5,1,2.938
3760,120.32,-2.1966,-10.8305,-0.7752,-3.0253,0.1446,-1.0277,rough,15.5,1,2.888
3770,120.64,-2.1992,-10.8542,-0.7794,-3.0598,0.1067,-1.0376,rough,15.5,1,2.910
3780,120.96,-2.1881,-10.8941,-0.7792,-3.0265,0.0709,-1.0684,rough,15.5,1,2.939
3790,121.28,-2.2124,-10.9284,-0.7801,-3.0872,0.0101,-1.0245,rough,15.5,1,2.980
3800,121.60,-2.2073,-10.9218,-0.7751,-3.0619,0.0265,-1.1530,rough,15.5,1,2.972
3810,121.92,-2.1818,-10.9043,-0.7833,-3.0339,0.0284,-1.0151,rough,15.5,1,2.944
3820,122.24,-2.1714,-10.9309,-0.7807,-3.0094,0.0072,-1.0670,rough,15.5,1,2.962
3830,122.56,-2.1639,-10.9387,-0.7801,-3.0109,-0.0123,-1.0999,rough,15.5,1,2.965
3840,122.88,-2.1668,-10.9527,-0.7820,-3.0234,-0.0458,-1.1213,rough,15.5,1,2.979
3850,123.20,-2.1604,-10.9904,-0.7794,-3.0775,-0.0191,-1.1076,rough,15.5,1,3.009
3860,123.52,-2.1464,-10.9991,-0.7800,-3.0670,-0.0387,-1.0741,rough,15.5,1,3.010
3870,123.84,-2.1632,-10.9949,-0.7802,-3.0577,-0.0718,-1.0396,rough,15.5,1,3.014
3880,124.16,-2.1843,-10.9384,-0.7856,-3.0587,-0.0259,-0.9763,rough,15.5,1,2.975
3890,124.48,-2.1921,-10.9020,-0.7784,-3.0346,0.0486,-1.1162,rough,15.5,1,2.948
3900,124.80,-2.1475,-10.9159,-0.7810,-3.0003,-0.0095,-1.1174,rough,15.5,1,2.937
3910,125.12,-2.1655,-10.9685,-0.7809,-3.0237,-0.0582,-1.0702,slope,18.0,1,2.992
3920,125.44,-2.1858,-10.9482,-0.7855,-3.0199,-0.0180,-1.0868,rough,15.5,1,2.984
3930,125.76,-2.1939,-10.8757,-0.7776,-3.0387,0.0894,-1.0958,rough,15.5,1,2.926
3940,126.08,-2.1815,-10.8473,-0.7788,-3.0230,0.0971,-0.9744,rough,15.5,1,2.895
3950,126.40,-2.1915,-10.8964,-0.7830,-3.0442,0.0433,-0.9743,rough,15.5,1,2.942
3960,126.72,-2.1661,-10.9655,-0.7773,-3.0236,-0.0415,-1.0888,rough,15.5,1,2.990
3970,127.04,-2.1648,-10.9567,-0.7780,-3.0215,-0.0438,-1.0440,rough,15.5,1,2.982
3980,127.36,-2.1821,-10.9104,-0.7821,-3.0317,0.0291,-1.0364,rough,15.5,1,2.950
3990,127.68,-2.1799,-10.9057,-0.7848,-3.0512,0.0285,-1.0222,rough,15.5,1,2.945
4000,128.00,-2.1723,-10.9479,-0.7806,-3.0190,-0.0218,-1.0757,rough,15.5,1,2.977
4010,128.32,-2.1660,-10.9589,-0.7799,-3.0163,-0.0307,-1.1137,rough,15.5,1,2.984
4020,128.64,-2.1763,-10.9287,-0.7847,-3.0654,-0.0110,-0.9609,rough,15.5,1,2.963
4030,128.96,-2.1850,-10.8882,-0.7856,-3.0375,0.0627,-0.9317,rough,15.5,1,2.932
4040,129.28,-2.1841,-10.9180,-0.7823,-3.0261,0.0201,-1.0219,rough,15.5,1,2.957
4050,129.60,-2.1789,-10.9354,-0.7824,-3.0484,-0.0108,-1.0218,rough,15.5,1,2.970
4060,129.92,-2.1820,-10.9046,-0.7826,-3.0307,0.0397,-1.0087,rough,15.5,1,2.945
4070,130.24,-2.1760,-10.8967,-0.7794,-3.0422,0.0404,-0.9988,rough,15.5,1,2.935
4080,130.56,-2.1529,-10.9854,-0.7815,-3.0413,-0.0572,-1.1085,rough,15.5,1,3.001
4090,130.88,-2.1354,-11.0390,-0.7778,-3.0621,-0.1165,-1.1300,rough,15.5,1,3.040
4100,131.20,-2.1353,-11.0397,-0.7775,-3.0661,-0.1069,-1.1404,rough,15.5,1,3.040
4110,131.52,-2.1462,-11.0114,-0.7758,-3.0562,-0.0913,-1.0494,rough,15.5,1,3.021
4120,131.84,-2.1503,-10.9866,-0.7765,-3.0337,-0.0669,-1.0716,rough,15.5,1,3.001
4130,132.16,-2.1739,-10.9563,-0.7810,-3.0443,-0.0105,-1.0350,rough,15.5,1,2.986
4140,132.48,-2.2116,-10.8878,-0.7775,-3.0649,0.0777,-1.0846,rough,15.5,1,2.945
4150,132.80,-2.1871,-10.8495,-0.7810,-3.0458,0.0765,-0.8984,rough,15.5,1,2.900
4160,133.12,-2.1896,-10.8712,-0.7821,-3.0222,0.1034,-0.9912,rough,15.5,1,2.920
4170,133.44,-2.1872,-10.8433,-0.7790,-3.0248,0.1341,-1.0560,rough,15.5,1,2.894
4180,133.76,-2.1915,-10.8566,-0.7770,-3.0295,0.1140,-1.0608,rough,15.5,1,2.908
4190,134.08,-2.1744,-10.9180,-0.7859,-3.0221,0.0176,-0.9530,rough,15.5,1,2.953
4200,134.40,-2.1790,-10.9265,-0.7844,-3.0567,-0.0147,-1.0120,rough,15.5,1,2.962
4210,134.72,-2.1981,-10.9334,-0.7833,-3.0663,0.0207,-1.0644,rough,15.5,1,2.978
4220,135.04,-2.1735,-10.9202,-0.7829,-3.0257,-0.0050,-1.0951,rough,15.5,1,2.954
4230,135.36,-2.1889,-10.8708,-0.7782,-3.0412,0.1006,-1.1359,rough,15.5,1,2.919
4240,135.68,-2.1811,-10.8845,-0.7796,-3.0215,0.0741,-1.0602,rough,15.5,1,2.927
4250,136.00,-2.1813,-10.9301,-0.7901,-3.0593,0.0111,-1.0682,rough,15.5,1,2.966
4260,136.32,-2.1678,-10.9466,-0.7790,-3.0177,-0.0295,-1.0550,rough,15.5,1,2.974
4270,136.64,-2.1875,-10.8999,-0.7860,-3.0367,0.0459,-0.9334,rough,15.5,1,2.943
4280,136.96,-2.1891,-10.9349,-0.7802,-3.0417,0.0066,-1.0686,rough,15.5,1,2.974
4290,137.28,-2.1536,-10.9606,-0.7788,-3.0172,-0.0529,-1.0363,rough,15.5,1,2.979
4300,137.60,-2.1717,-11.0059,-0.7804,-3.0684,-0.0297,-1.1304,rough,15.5,1,3.028
4310,137.92,-2.1356,-11.0459,-0.7762,-3.0682,-0.1096,-1.1261,rough,15.5,1,3.046
4320,138.24,-2.1327,-11.0541,-0.7761,-3.0766,-0.1085,-1.1521,rough,15.5,1,3.052
4330,138.56,-2.1297,-11.0435,-0.7733,-3.0849,-0.1184,-1.0403,rough,15.5,1,3.041
4340,138.88,-2.1361,-11.0203,-0.7741,-3.0678,-0.0995,-1.0301,rough,15.5,1,3.024
4350,139.20,-2.1519,-10.9915,-0.7764,-3.0426,-0.0734,-1.0521,rough,15.5,1,3.006
4360,139.52,-2.1785,-10.9442,-0.7808,-3.0599,-0.0111,-0.9633,rough,15.5,1,2.977
4370,139.84,-2.1741,-10.9188,-0.7827,-3.0357,0.0010,-1.0327,rough,15.5,1,2.953
4380,140.16,-2.1812,-10.9227,-0.7790,-3.0283,0.0202,-1.1099,rough,15.5,1,2.960
4390,140.48,-2.1657,-10.9585,-0.7776,-3.0458,-0.0343,-0.9918,rough,15.5,1,2.984
4400,140.80,-2.1711,-11.0019,-0.7816,-3.0968,-0.0268,-1.0652,rough,15.5,1,3.024
4410,141.12,-2.1281,-11.0498,-0.7770,-3.0745,-0.1073,-1.1100,rough,15.5,1,3.046
4420,141.44,-2.1308,-11.0594,-0.7733,-3.0893,-0.1188,-1.0823,rough,15.5,1,3.056
4430,141.76,-2.1399,-11.0080,-0.7854,-3.0027,-0.0585,-1.1737,rough,15.5,1,3.015
4440,142.08,-2.1965,-10.9405,-0.7826,-3.0715,0.0235,-0.9730,rough,15.5,1,2.983
4450,142.40,-2.2101,-10.8547,-0.7722,-3.0667,0.1151,-1.1924,slope,18.0,1,2.916
4460,142.72,-2.1851,-10.8961,-0.7792,-3.0162,0.0775,-1.0874,rough,15.5,1,2.939
4470,143.04,-2.1594,-10.9951,-0.7807,-3.0875,-0.0565,-1.0446,rough,15.5,1,3.012
4480,143.36,-2.1452,-11.0136,-0.7760,-3.0723,-0.0858,-1.0477,rough,15.5,1,3.022
4490,143.68,-2.1409,-11.0277,-0.7771,-3.0554,-0.0931,-1.1381,rough,15.5,1,3.032
4500,144.00,-2.1391,-11.0250,-0.7784,-3.1031,-0.0994,-1.0337,rough,15.5,1,3.029
4510,144.32,-2.1336,-11.0393,-0.7760,-3.0619,-0.1113,-1.0711,rough,15.5,1,3.039
4520,144.64,-2.1410,-11.0132,-0.7784,-3.0222,-0.0837,-1.1730,rough,15.5,1,3.020
4530,144.96,-2.1426,-11.0028,-0.7770,-3.0311,-0.0798,-1.1188,rough,15.5,1,3.011
4540,145.28,-2.1356,-11.0205,-0.7735,-3.0664,-0.0988,-1.0246,rough,15.5,1,3.024
4550,145.60,-2.1300,-11.0495,-0.7784,-3.0831,-0.0860,-1.0772,rough,15.5,1,3.047
4560,145.92,-2.1305,-11.0506,-0.7759,-3.0757,-0.1179,-1.1256,rough,15.5,1,3.048
4570,146.24,-2.1340,-11.0300,-0.7762,-3.0627,-0.1056,-1.0800,rough,15.5,1,3.031
4580,146.56,-2.1352,-11.0284,-0.7733,-3.0737,-0.1065,-1.0324,rough,15.5,1,3.030
4590,146.88,-2.1352,-11.0345,-0.7776,-3.0534,-0.1065,-1.1499,rough,15.5,1,3.036
4600,147.20,-2.1376,-11.0376,-0.7744,-3.0925,-0.1064,-1.0375,rough,15.5,1,3.040
4610,147.52,-2.1382,-11.0300,-0.7765,-3.0692,-0.0839,-1.0943,rough,15.5,1,3.033
4620,147.84,-2.1278,-11.0481,-0.7757,-3.0663,-0.1222,-1.1321,rough,15.5,1,3.044
4630,148.16,-2.1306,-11.0596,-0.7743,-3.1055,-0.1175,-1.0526,rough,15.5,1,3.056
4640,148.48,-2.1337,-11.0316,-0.7744,-3.0717,-0.1023,-1.0235,rough,15.5,1,3.032
4650,148.80,-2.1536,-11.0032,-0.7742,-3.0432,-0.0639,-1.0593,rough,15.5,1,3.017
4660,149.12,-2.1617,-10.9319,-0.7776,-2.9965,-0.0131,-1.1076,rough,15.5,1,2.958
4670,149.44,-2.2034,-10.8916,-0.7841,-3.0660,0.0627,-0.9316,rough,15.5,1,2.944
4680,149.76,-2.1822,-10.8966,-0.7821,-3.0133,0.0688,-1.0019,rough,15.5,1,2.938
4690,150.08,-2.1953,-10.8569,-0.7826,-3.0506,0.0998,-0.9802,rough,15.5,1,2.910
4700,150.40,-2.1891,-10.8457,-0.7821,-3.0297,0.1617,-1.0962,rough,15.5,1,2.897
4710,150.72,-2.1707,-10.8974,-0.7797,-3.0127,0.0343,-1.0626,rough,15.5,1,2.933
4720,151.04,-2.1596,-10.9521,-0.7806,-3.0294,-0.0640,-1.1389,rough,15.5,1,2.975
4730,151.36,-2.1543,-11.0118,-0.7802,-3.0482,-0.0764,-1.1333,rough,15.5,1,3.025
4740,151.68,-2.1362,-11.0499,-0.7745,-3.0932,-0.1121,-1.0519,rough,15.5,1,3.050
4750,152.00,-2.1376,-11.0166,-0.7744,-3.0574,-0.0973,-1.0342,rough,15.5,1,3.021
4760,152.32,-2.1393,-11.0114,-0.7757,-3.0448,-0.0839,-1.1160,rough,15.5,1,3.017
4770,152.64,-2.1388,-11.0202,-0.7758,-3.0435,-0.0992,-1.1132,rough,15.5,1,3.025
4780,152.96,-2.1365,-11.0354,-0.7769,-3.0567,-0.0992,-1.1442,rough,15.5,1,3.037
4790,153.28,-2.1370,-11.0441,-0.7782,-3.0736,-0.1047,-1.1560,rough,15.5,1,3.045
4800,153.60,-2.1410,-11.0246,-0.7732,-3.0713,-0.0962,-1.0231,rough,15.5,1,3.030
4810,153.92,-2.1565,-10.9681,-0.7776,-3.0191,-0.0529,-1.0894,rough,15.5,1,2.987
4820,154.24,-2.1981,-10.8876,-0.7790,-3.0406,0.0815,-1.0631,rough,15.5,1,2.938
4830,154.56,-2.1894,-10.8517,-0.7815,-3.0348,0.0997,-0.9694,rough,15.5,1,2.903
4840,154.88,-2.2052,-10.8456,-0.7805,-3.0581,0.1285,-0.9909,rough,15.5,1,2.906
4850,155.20,-2.1793,-10.8874,-0.7834,-3.0081,0.0829,-0.9824,rough,15.5,1,2.928
4860,155.52,-2.1494,-10.9626,-0.7851,-3.0089,-0.0490,-1.1581,rough,15.5,1,2.979
4870,155.84,-2.1611,-10.9927,-0.7802,-3.0616,-0.0457,-1.0847,rough,15.5,1,3.011
4880,156.16,-2.1785,-10.9176,-0.7848,-3.0494,0.0025,-1.0195,rough,15.5,1,2.954
4890,156.48,-2.1807,-10.8441,-0.7805,-3.0263,0.1305,-1.0759,rough,15.5,1,2.892
4900,156.80,-2.2095,-10.9050,-0.7838,-3.0895,0.0350,-0.9597,rough,15.5,1,2.959
4910,157.12,-2.1511,-10.9633,-0.7798,-3.0163,-0.0340,-1.1275,rough,15.5,1,2.981
4920,157.44,-2.1724,-10.9402,-0.7818,-3.0161,-0.0163,-1.0867,rough,15.5,1,2.971
4930,157.76,-2.1793,-10.9268,-0.7843,-3.0480,-0.0084,-0.9866,rough,15.5,1,2.963
4940,158.08,-2.1607,-10.9716,-0.7780,-3.0235,-0.0570,-1.1028,rough,15.5,1,2.993
4950,158.40,-2.1751,-11.0055,-0.7824,-3.1050,-0.0336,-1.0510,rough,15.5,1,3.029
4960,158.72,-2.1715,-11.0058,-0.7784,-3.0617,-0.0339,-1.0610,rough,15.5,1,3.028
4970,159.04,-2.1718,-10.9884,-0.7809,-3.0842,-0.0248,-1.0521,rough,15.5,1,3.013
4980,159.36,-2.1851,-10.9135,-0.7809,-3.0303,0.0343,-1.0702,rough,15.5,1,2.954
4990,159.68,-2.1988,-10.8501,-0.7763,-3.0443,0.1288,-1.0906,rough,15.5,1,2.906
5000,160.00,-2.1914,-10.8678,-0.7751,-3.0356,0.0929,-1.1495,rough,15.5,1,2.918
5010,160.32,-2.1761,-10.9253,-0.7788,-3.0254,0.0032,-1.1029,rough,15.5,1,2.960
5020,160.64,-2.1649,-10.9561,-0.7799,-3.0101,-0.0297,-1.1212,rough,15.5,1,2.981
5030,160.96,-2.1796,-10.9359,-0.7804,-3.0295,-0.0038,-1.0354,rough,15.5,1,2.971
5040,161.28,-2.1966,-10.8668,-0.7785,-3.0444,0.1014,-1.0745,rough,15.5,1,2.919
5050,161.60,-2.2000,-10.8468,-0.7782,-3.0332,0.1202,-0.9497,rough,15.5,1,2.904
5060,161.92,-2.1722,-10.8970,-0.7809,-3.0080,0.0422,-1.1190,rough,15.5,1,2.933
5070,162.24,-2.1454,-11.0211,-0.7777,-3.0587,-0.0960,-1.0951,rough,15.5,1,3.029
5080,162.56,-2.1153,-11.0971,-0.7833,-3.0580,-0.1346,-1.1726,rough,15.5,1,3.082
5090,162.88,-2.0801,-11.0900,-0.7756,-3.0804,-0.1044,-1.1070,rough,15.5,1,3.060
5100,163.20,-2.0718,-11.1615,-0.7640,-3.1237,-0.0766,-1.1300,rough,15.5,1,3.120
5110,163.52,-2.0738,-11.1105,-0.7744,-3.1210,-0.1517,-1.0699,rough,15.5,1,3.075
5120,163.84,-2.1071,-11.0968,-0.7792,-3.0792,-0.1230,-1.1958,rough,15.5,1,3.078
5130,164.16,-2.1192,-11.0805,-0.7794,-3.0680,-0.1189,-1.2384,rough,15.5,1,3.069
5140,164.48,-2.1063,-11.0813,-0.7812,-3.0473,-0.0862,-1.1759,rough,15.5,1,3.064
5150,164.80,-2.1044,-11.0752,-0.7773,-3.0535,-0.1467,-1.0392,rough,15.5,1,3.058
5160,165.12,-2.1116,-11.0840,-0.7779,-3.0822,-0.1171,-1.1234,rough,15.5,1,3.069
5170,165.44,-2.0890,-11.0865,-0.7846,-3.0413,-0.0849,-1.1527,rough,15.5,1,3.061
5180,165.76,-2.0945,-11.0538,-0.7804,-3.0239,-0.1069,-1.0573,rough,15.5,1,3.034
5190,166.08,-2.1256,-11.0687,-0.7743,-3.0858,-0.1132,-1.1038,rough,15.5,1,3.062
5200,166.40,-2.1003,-11.0793,-0.7797,-3.0289,-0.1224,-1.2102,rough,15.5,1,3.059
5210,166.72,-2.1003,-11.0677,-0.7791,-3.0716,-0.1260,-1.0546,rough,15.5,1,3.049
5220,167.04,-2.1256,-11.0374,-0.7740,-3.0585,-0.1141,-1.0739,rough,15.5,1,3.034
5230,167.36,-2.1711,-10.9372,-0.7819,-3.0149,-0.0071,-1.0453,rough,15.5,1,2.968
5240,167.68,-2.1986,-10.8635,-0.7830,-3.0596,0.0963,-0.9525,rough,15.5,1,2.918
5250,168.00,-2.1966,-10.8500,-0.7751,-3.0432,0.1218,-1.1187,rough,15.5,1,2.905
5260,168.32,-2.2054,-10.8459,-0.7799,-3.0514,0.1225,-0.9619,rough,15.5,1,2.906
5270,168.64,-2.1971,-10.8714,-0.7771,-3.0403,0.1011,-1.0900,rough,15.5,1,2.924
5280,168.96,-2.1961,-10.8892,-0.7858,-3.0565,0.0627,-0.9253,slope,18.0,1,2.938
5290,169.28,-2.1520,-10.9015,-0.7772,-3.0274,0.0315,-0.9883,rough,15.5,1,2.927
5300,169.60,-2.1766,-10.9139,-0.7796,-3.0129,0.0348,-1.0995,rough,15.5,1,2.950
5310,169.92,-2.1621,-10.9348,-0.7805,-3.0116,-0.0192,-1.1139,rough,15.5,1,2.961
5320,170.24,-2.1642,-10.9975,-0.7791,-3.0788,-0.0517,-1.0331,rough,15.5,1,3.017
5330,170.56,-2.1415,-11.0323,-0.7739,-3.0815,-0.1051,-1.0242,rough,15.5,1,3.037
5340,170.88,-2.1377,-11.0340,-0.7741,-3.0874,-0.1021,-1.0317,rough,15.5,1,3.036
5350,171.20,-2.1322,-11.0477,-0.7789,-3.0736,-0.0902,-1.1032,rough,15.5,1,3.046
5360,171.52,-2.1460,-11.0273,-0.7764,-3.0517,-0.0906,-1.1306,rough,15.5,1,3.034
5370,171.84,-2.1692,-10.9780,-0.7808,-3.0505,-0.0415,-1.0570,rough,15.5,1,3.002
5380,172.16,-2.1775,-10.8626,-0.7853,-3.0215,0.0893,-0.9549,rough,15.5,1,2.906
5390,172.48,-2.1877,-10.8533,-0.7824,-3.0454,0.1017,-0.9820,rough,15.5,1,2.903
5400,172.80,-2.2157,-10.8812,-0.7787,-3.0897,0.0778,-1.0517,rough,15.5,1,2.942
5410,173.12,-2.2031,-10.9144,-0.7779,-3.0564,0.0398,-1.0764,slope,18.0,1,2.964
5420,173.44,-2.1716,-10.9465,-0.7790,-3.0299,-0.0258,-1.0041,rough,15.5,1,2.976
5430,173.76,-2.1567,-10.9778,-0.7795,-3.0301,-0.0446,-1.0875,rough,15.5,1,2.996
5440,174.08,-2.1554,-11.0165,-0.7797,-3.0850,-0.0852,-1.0447,rough,15.5,1,3.029
5450,174.40,-2.1333,-11.0447,-0.7760,-3.0641,-0.1087,-1.1470,rough,15.5,1,3.044
5460,174.72,-2.1331,-11.0322,-0.7780,-3.0405,-0.1023,-1.1318,rough,15.5,1,3.033
5470,175.04,-2.1362,-11.0327,-0.7744,-3.0646,-0.1072,-1.0812,rough,15.5,1,3.035
5480,175.36,-2.1416,-11.0406,-0.7769,-3.0781,-0.1004,-1.1037,rough,15.5,1,3.044
5490,175.68,-2.1405,-11.0066,-0.7757,-3.0352,-0.0936,-1.0713,rough,15.5,1,3.014
5500,176.00,-2.1756,-10.9586,-0.7807,-3.0332,-0.0213,-1.0787,rough,15.5,1,2.988
5510,176.32,-2.2115,-10.8792,-0.7796,-3.0696,0.0855,-1.0232,rough,15.5,1,2.938
5520,176.64,-2.2225,-10.8614,-0.7787,-3.0975,0.1070,-1.0501,slope,18.0,1,2.928
5530,176.96,-2.1943,-10.9071,-0.7830,-3.0544,0.0356,-0.9693,rough,15.5,1,2.953
5540,177.28,-2.1776,-10.9546,-0.7779,-3.0441,-0.0182,-1.0092,rough,15.5,1,2.986
5550,177.60,-2.1646,-10.9144,-0.7875,-3.0398,-0.0180,-0.9370,rough,15.5,1,2.945
5560,177.92,-2.1774,-10.8834,-0.7804,-3.0110,0.0717,-1.0690,rough,15.5,1,2.924
5570,178.24,-2.1884,-10.8683,-0.7800,-3.0239,0.1054,-1.0336,rough,15.5,1,2.917
5580,178.56,-2.1883,-10.8545,-0.7836,-3.0555,0.0892,-0.9707,rough,15.5,1,2.905
5590,178.88,-2.1797,-10.9019,-0.7810,-3.0284,0.0510,-1.0678,rough,15.5,1,2.941
5600,179.20,-2.1516,-10.9727,-0.7763,-3.0265,-0.0594,-1.0507,rough,15.5,1,2.989
5610,179.52,-2.1310,-11.0483,-0.7738,-3.0845,-0.1094,-1.0771,rough,15.5,1,3.046
5620,179.84,-2.0776,-11.1540,-0.7716,-3.1229,-0.1025,-1.0800,rough,15.5,1,3.116
5630,180.16,-2.0849,-11.0991,-0.7683,-3.1153,-0.1243,-1.0511,rough,15.5,1,3.070
5640,180.48,-2.0933,-11.0687,-0.7810,-3.0491,-0.0881,-1.1202,rough,15.5,1,3.047
5650,180.80,-2.0900,-11.0739,-0.7814,-3.0297,-0.1093,-1.1320,rough,15.5,1,3.050
5660,181.12,-2.1060,-11.0681,-0.7754,-3.0610,-0.1276,-1.0979,rough,15.5,1,3.052
5670,181.44,-2.1296,-11.0503,-0.7739,-3.0790,-0.1171,-1.0858,rough,15.5,1,3.047
5680,181.76,-2.1275,-11.0495,-0.7798,-3.0631,-0.1272,-1.1989,rough,15.5,1,3.045
5690,182.08,-2.1446,-10.9952,-0.7757,-3.0429,-0.0717,-1.0668,rough,15.5,1,3.005
5700,182.40,-2.1973,-10.9158,-0.7816,-3.0412,0.0419,-1.0224,rough,15.5,1,2.962
5710,182.72,-2.2098,-10.8469,-0.7758,-3.0779,0.1112,-1.0927,rough,15.5,1,2.909
5720,183.04,-2.2093,-10.8377,-0.7736,-3.0296,0.1184,-0.9061,rough,15.5,1,2.901
5730,183.36,-2.1550,-10.9464,-0.7815,-3.0200,-0.0534,-1.0787,rough,15.5,1,2.968
5740,183.68,-2.1642,-11.0067,-0.7788,-3.1178,-0.0313,-1.0175,rough,15.5,1,3.025
5750,184.00,-2.1603,-10.9965,-0.7839,-3.0698,-0.0233,-1.1025,rough,15.5,1,3.014
5760,184.32,-2.1755,-10.9888,-0.7852,-3.0866,0.0008,-1.0564,rough,15.5,1,3.015
5770,184.64,-2.1694,-10.9444,-0.7788,-3.0406,-0.0230,-0.9951,rough,15.5,1,2.973
5780,184.96,-2.1815,-10.8907,-0.7778,-3.0097,0.0792,-1.1086,rough,15.5,1,2.932
5790,185.28,-2.1670,-10.9309,-0.7821,-3.0500,-0.0154,-0.9858,rough,15.5,1,2.960
5800,185.60,-2.1364,-11.0475,-0.7766,-3.0791,-0.1090,-1.1217,rough,15.5,1,3.048
5810,185.92,-2.1042,-11.1107,-0.7802,-3.0797,-0.1285,-1.1942,rough,15.5,1,3.089
5820,186.24,-2.0532,-11.1420,-0.7682,-3.1022,-0.0970,-1.0925,rough,15.5,1,3.095
5830,186.56,-2.0691,-11.1089,-0.7666,-3.0515,-0.2041,-1.1365,rough,15.5,1,3.072
5840,186.88,-2.1014,-11.0798,-0.7785,-3.0752,-0.1224,-1.0845,rough,15.5,1,3.060
5850,187.20,-2.1047,-11.0586,-0.7757,-3.0377,-0.1278,-1.1251,rough,15.5,1,3.043
5860,187.52,-2.1134,-11.1039,-0.7798,-3.0767,-0.1218,-1.2470,rough,15.5,1,3.087
5870,187.84,-2.0988,-11.0818,-0.7790,-3.0458,-0.0970,-1.0961,rough,15.5,1,3.061
5880,188.16,-2.1017,-11.0474,-0.7727,-3.0113,-0.1621,-1.0887,rough,15.5,1,3.032
5890,188.48,-2.1557,-10.9534,-0.7778,-3.0332,-0.0261,-1.0131,rough,15.5,1,2.974
5900,188.80,-2.2061,-10.8364,-0.7807,-3.0731,0.1377,-1.0229,rough,15.5,1,2.898
5910,189.12,-2.2046,-10.8574,-0.7830,-3.0498,0.1199,-1.0043,rough,15.5,1,2.915
5920,189.44,-2.1717,-10.9488,-0.7787,-3.0609,-0.0501,-1.0455,rough,15.5,1,2.978
5930,189.76,-2.1406,-11.0332,-0.7755,-3.0707,-0.1044,-1.0675,rough,15.5,1,3.037
5940,190.08,-2.1360,-11.0401,-0.7760,-3.0552,-0.1203,-1.1118,rough,15.5,1,3.041
5950,190.40,-2.1250,-11.0629,-0.7709,-3.1153,-0.1268,-0.9936,rough,15.5,1,3.056
5960,190.72,-2.1276,-11.0507,-0.7757,-3.0652,-0.1089,-1.1509,rough,15.5,1,3.046
5970,191.04,-2.1413,-11.0166,-0.7762,-3.0452,-0.0981,-1.0854,rough,15.5,1,3.023
5980,191.36,-2.1773,-10.9518,-0.7824,-3.0247,-0.0167,-1.1067,rough,15.5,1,2.983
5990,191.68,-2.2060,-10.8531,-0.7770,-3.0590,0.1200,-1.0810,rough,15.5,1,2.912
6000,192.00,-2.2043,-10.8572,-0.7817,-3.0610,0.1117,-0.9848,rough,15.5,1,2.915
6010,192.32,-2.1879,-10.8812,-0.7813,-3.0417,0.0595,-0.9671,rough,15.5,1,2.927
6020,192.64,-2.1703,-10.9446,-0.7831,-3.0552,-0.0278,-1.0060,rough,15.5,1,2.974
6030,192.96,-2.1605,-10.9661,-0.7767,-3.0421,-0.0464,-1.0046,rough,15.5,1,2.988
6040,193.28,-2.1456,-11.0352,-0.7770,-3.0882,-0.0833,-1.0503,rough,15.5,1,3.041
6050,193.60,-2.1347,-11.0545,-0.7767,-3.0698,-0.1221,-1.1389,rough,15.5,1,3.053
6060,193.92,-2.1345,-11.0411,-0.7772,-3.0512,-0.1113,-1.1500,rough,15.5,1,3.041
6070,194.24,-2.1337,-11.0528,-0.7744,-3.0912,-0.1121,-1.0772,rough,15.5,1,3.051
6080,194.56,-2.1382,-11.0339,-0.7755,-3.0642,-0.1016,-1.1041,rough,15.5,1,3.037
6090,194.88,-2.1529,-10.9891,-0.7781,-3.0486,-0.0486,-1.0800,rough,15.5,1,3.004
6100,195.20,-2.1873,-10.9135,-0.7876,-3.0115,0.0330,-1.0190,rough,15.5,1,2.955
6110,195.52,-2.2199,-10.8603,-0.7809,-3.0551,0.1412,-0.9580,rough,15.5,1,2.926
6120,195.84,-2.1954,-10.8938,-0.7792,-3.0363,0.0709,-1.0496,rough,15.5,1,2.942
6130,196.16,-2.1708,-10.9346,-0.7801,-3.0074,-0.0290,-1.0604,rough,15.5,1,2.965
6140,196.48,-2.1736,-10.9436,-0.7820,-3.0458,-0.0332,-1.0281,rough,15.5,1,2.974
6150,196.80,-2.1877,-10.9331,-0.7841,-3.0211,0.0229,-0.9532,rough,15.5,1,2.972
6160,197.12,-2.1750,-10.9065,-0.7776,-3.0112,0.0407,-1.1426,rough,15.5,1,2.943
6170,197.44,-2.1737,-10.9302,-0.7857,-3.0485,-0.0192,-0.9849,rough,15.5,1,2.963
6180,197.76,-2.1758,-10.9978,-0.7828,-3.1022,-0.0142,-1.0731,rough,15.5,1,3.023
6190,198.08,-2.1723,-10.9827,-0.7798,-3.0715,-0.0319,-1.0589,rough,15.5,1,3.008
6200,198.40,-2.1771,-10.9433,-0.7798,-3.0369,-0.0108,-1.0185,rough,15.5,1,2.976
6210,198.72,-2.1833,-10.8879,-0.7821,-3.0331,0.0600,-1.0075,rough,15.5,1,2.931
6220,199.04,-2.1806,-10.9152,-0.7805,-3.0233,0.0320,-1.0641,rough,15.5,1,2.953
6230,199.36,-2.1688,-10.9693,-0.7760,-3.0242,-0.0356,-1.0877,rough,15.5,1,2.994
6240,199.68,-2.1696,-11.0040,-0.7823,-3.0872,-0.0271,-1.1158,rough,15.5,1,3.025
6250,200.00,-2.1407,-11.0262,-0.7756,-3.0678,-0.0963,-1.0780,rough,15.5,1,3.031
6260,200.32,-2.1395,-11.0131,-0.7753,-3.0471,-0.0918,-1.0824,rough,15.5,1,3.019
6270,200.64,-2.1315,-11.0329,-0.7768,-3.0473,-0.0953,-1.1506,rough,15.5,1,3.033
6280,200.96,-2.1250,-11.0835,-0.7723,-3.1192,-0.1326,-1.0721,rough,15.5,1,3.074
6290,201.28,-2.1265,-11.0777,-0.7741,-3.1033,-0.1215,-1.1056,rough,15.5,1,3.070
6300,201.60,-2.1013,-11.1006,-0.7761,-3.0968,-0.1218,-1.0793,rough,15.5,1,3.079
6310,201.92,-2.0670,-11.0538,-0.7792,-2.9680,-0.1389,-1.1295,rough,15.5,1,3.022
6320,202.24,-2.0778,-11.0515,-0.7779,-2.9959,-0.1198,-1.0785,rough,15.5,1,3.024
6330,202.56,-2.0612,-11.0545,-0.7765,-2.9449,-0.1511,-1.1587,rough,15.5,1,3.020
6340,202.88,-2.0803,-11.0543,-0.7748,-2.9939,-0.1443,-1.0946,rough,15.5,1,3.028
6350,203.20,-2.0764,-11.0580,-0.7804,-2.9962,-0.1079,-1.1134,rough,15.5,1,3.029
6360,203.52,-2.0707,-11.0600,-0.7783,-2.9784,-0.1323,-1.1303,rough,15.5,1,3.029
6370,203.84,-2.0859,-11.0603,-0.7794,-3.0095,-0.1174,-1.1064,rough,15.5,1,3.036
6380,204.16,-2.0797,-11.0614,-0.7787,-2.9958,-0.1236,-1.1401,rough,15.5,1,3.034
6390,204.48,-2.0950,-11.0574,-0.7726,-3.0333,-0.1543,-1.0897,rough,15.5,1,3.037
6400,204.80,-2.0901,-11.0681,-0.7818,-3.0333,-0.1040,-1.1205,rough,15.5,1,3.045
6410,205.12,-2.1014,-11.0587,-0.7792,-3.0518,-0.1056,-1.1039,rough,15.5,1,3.041
6420,205.44,-2.1404,-11.0169,-0.7742,-3.0457,-0.0992,-1.0913,rough,15.5,1,3.023
6430,205.76,-2.1841,-10.9105,-0.7852,-3.0550,0.0321,-1.0110,rough,15.5,1,2.951
6440,206.08,-2.1966,-10.8965,-0.7847,-3.0544,0.0441,-0.9808,rough,15.5,1,2.945
6450,206.40,-2.1549,-10.9543,-0.7763,-3.0101,-0.0451,-1.1080,rough,15.5,1,2.975
6460,206.72,-2.1727,-10.9642,-0.7785,-3.0513,-0.0349,-1.0287,rough,15.5,1,2.992
6470,207.04,-2.1621,-10.9724,-0.7794,-3.0349,-0.0420,-1.0803,rough,15.5,1,2.994
6480,207.36,-2.1820,-10.9318,-0.7792,-3.0528,-0.0168,-1.0771,rough,15.5,1,2.968
6490,207.68,-2.1918,-10.8746,-0.7804,-3.0414,0.0865,-1.0246,rough,15.5,1,2.924
6500,208.00,-2.1877,-10.8910,-0.7775,-3.0238,0.0738,-1.0937,rough,15.5,1,2.936
6510,208.32,-2.1670,-10.9538,-0.7820,-3.0082,-0.0390,-1.1158,rough,15.5,1,2.980
6520,208.64,-2.1591,-10.9964,-0.7877,-3.0155,-0.0367,-1.1800,rough,15.5,1,3.013
6530,208.96,-2.1382,-11.0299,-0.7783,-3.0534,-0.1045,-1.1445,rough,15.5,1,3.033
6540,209.28,-2.1312,-11.0455,-0.7743,-3.0777,-0.1104,-1.0737,rough,15.5,1,3.044
6550,209.60,-2.1322,-11.0462,-0.7755,-3.0704,-0.1066,-1.1417,rough,15.5,1,3.045
6560,209.92,-2.1320,-11.0425,-0.7760,-3.0714,-0.1123,-1.1131,rough,15.5,1,3.041
6570,210.24,-2.1388,-11.0246,-0.7773,-3.0445,-0.0944,-1.1258,rough,15.5,1,3.029
6580,210.56,-2.1417,-11.0068,-0.7747,-3.0454,-0.0845,-1.0805,rough,15.5,1,3.014
6590,210.88,-2.1392,-11.0165,-0.7749,-3.0546,-0.0945,-1.0738,rough,15.5,1,3.022
6600,211.20,-2.1360,-11.0362,-0.7740,-3.0721,-0.1053,-1.0611,rough,15.5,1,3.038
6610,211.52,-2.1311,-11.0548,-0.7778,-3.0584,-0.1152,-1.1604,rough,15.5,1,3.052
6620,211.84,-2.1312,-11.0550,-0.7766,-3.0744,-0.1148,-1.1555,rough,15.5,1,3.052
6630,212.16,-2.1379,-11.0490,-0.7733,-3.0879,-0.1104,-1.0516,rough,15.5,1,3.050
6640,212.48,-2.1490,-10.9915,-0.7760,-3.0461,-0.0633,-1.0674,rough,15.5,1,3.004
6650,212.80,-2.2009,-10.9466,-0.7808,-3.0832,0.0054,-1.0036,rough,15.5,1,2.990
6660,213.12,-2.1757,-10.8730,-0.7777,-3.0333,0.0848,-0.9848,rough,15.5,1,2.914
6670,213.44,-2.1966,-10.9262,-0.7798,-3.0438,-0.0015,-1.0940,rough,15.5,1,2.971
6680,213.76,-2.1797,-10.9365,-0.7825,-3.0538,-0.0178,-0.9772,rough,15.5,1,2.971
6690,214.08,-2.1708,-10.9346,-0.7836,-3.0097,-0.0187,-1.0990,rough,15.5,1,2.965
6700,214.40,-2.1603,-10.9355,-0.7842,-2.9882,0.0031,-1.0230,rough,15.5,1,2.961
6710,214.72,-2.1552,-11.0254,-0.7785,-3.0708,-0.0973,-1.0571,rough,15.5,1,3.037
6720,215.04,-2.1132,-11.0781,-0.7734,-3.0976,-0.1441,-1.0915,rough,15.5,1,3.064
6730,215.36,-2.0914,-11.1013,-0.7764,-3.0803,-0.1302,-1.1474,rough,15.5,1,3.075
6740,215.68,-2.0985,-11.1409,-0.7724,-3.1274,-0.1199,-1.0852,rough,15.5,1,3.114
6750,216.00,-2.1120,-11.1125,-0.7759,-3.1163,-0.1444,-1.1660,rough,15.5,1,3.094
6760,216.32,-2.0885,-11.0669,-0.7842,-3.0189,-0.0996,-1.1150,rough,15.5,1,3.043
6770,216.64,-2.0682,-11.0597,-0.7750,-2.9811,-0.1477,-1.1019,rough,15.5,1,3.027
6780,216.96,-2.0643,-11.0662,-0.7779,-2.9630,-0.1495,-1.1378,rough,15.5,1,3.031
6790,217.28,-2.0600,-11.1445,-0.7691,-3.1053,-0.1004,-1.1021,rough,15.5,1,3.100
6800,217.60,-2.0781,-11.1223,-0.7712,-3.0920,-0.1706,-1.0900,rough,15.5,1,3.088
6810,217.92,-2.0895,-11.0649,-0.7732,-3.0871,-0.0881,-1.0467,rough,15.5,1,3.042
6820,218.24,-2.0775,-11.0726,-0.7808,-3.0130,-0.1134,-1.1188,rough,15.5,1,3.043
6830,218.56,-2.1282,-11.0189,-0.7768,-3.0200,-0.1053,-1.1303,rough,15.5,1,3.019
6840,218.88,-2.1701,-10.9643,-0.7792,-3.0461,-0.0314,-1.0447,rough,15.5,1,2.991
6850,219.20,-2.1922,-10.9024,-0.7823,-3.0320,0.0472,-1.0513,rough,15.5,1,2.948
6860,219.52,-2.1918,-10.8386,-0.7797,-3.0323,0.1414,-1.0827,rough,15.5,1,2.893
6870,219.84,-2.2084,-10.8750,-0.7771,-3.0725,0.0807,-1.0713,rough,15.5,1,2.932
6880,220.16,-2.2015,-10.9231,-0.7771,-3.0655,0.0009,-1.1505,rough,15.5,1,2.970
6890,220.48,-2.1626,-10.9655,-0.7773,-3.0358,-0.0477,-1.0306,rough,15.5,1,2.988
6900,220.80,-2.1701,-10.9989,-0.7796,-3.1116,-0.0219,-1.0145,rough,15.5,1,3.021
6910,221.12,-2.1391,-11.0416,-0.7843,-3.0256,-0.1006,-1.2033,rough,15.5,1,3.044
6920,221.44,-2.1377,-11.0504,-0.7778,-3.0980,-0.1103,-1.0885,rough,15.5,1,3.051
6930,221.76,-2.1361,-11.0241,-0.7751,-3.0466,-0.0999,-1.1179,rough,15.5,1,3.027
6940,222.08,-2.1462,-10.9957,-0.7753,-3.0511,-0.0823,-1.0289,rough,15.5,1,3.007
6950,222.40,-2.1427,-11.0037,-0.7746,-3.0573,-0.0823,-1.0130,rough,15.5,1,3.012
6960,222.72,-2.1401,-11.0109,-0.7744,-3.0502,-0.0936,-1.0604,rough,15.5,1,3.017
6970,223.04,-2.1439,-10.9903,-0.7747,-3.0317,-0.0843,-1.0547,rough,15.5,1,3.001
6980,223.36,-2.1736,-10.9446,-0.7877,-3.0679,-0.0544,-0.9343,rough,15.5,1,2.975
6990,223.68,-2.2042,-10.8955,-0.7756,-3.0437,0.0813,-1.1261,rough,15.5,1,2.948
7000,224.00,-2.1679,-10.9233,-0.7795,-3.0313,-0.0125,-1.0128,rough,15.5,1,2.954
7010,224.32,-2.1659,-10.9329,-0.7855,-3.0049,-0.0151,-1.0476,rough,15.5,1,2.961
7020,224.64,-2.1881,-10.9158,-0.7830,-3.0482,0.0188,-0.9830,rough,15.5,1,2.957
7030,224.96,-2.1805,-10.9227,-0.7852,-3.0537,0.0027,-1.0182,rough,15.5,1,2.960
7040,225.28,-2.1819,-10.9307,-0.7831,-3.0489,-0.0126,-1.0184,rough,15.5,1,2.967
7050,225.60,-2.1571,-10.9994,-0.7770,-3.0807,-0.0598,-1.0059,rough,15.5,1,3.015
7060,225.92,-2.1383,-11.0449,-0.7771,-3.0731,-0.0987,-1.1364,rough,15.5,1,3.046
7070,226.24,-2.1328,-11.0356,-0.7779,-3.0982,-0.1158,-1.0602,rough,15.5,1,3.036
7080,226.56,-2.1266,-11.0822,-0.7714,-3.1225,-0.1339,-1.0434,rough,15.5,1,3.074
7090,226.88,-2.1174,-11.0692,-0.7748,-3.0903,-0.1198,-1.0968,rough,15.5,1,3.058
7100,227.20,-2.1141,-11.0916,-0.7777,-3.0946,-0.1165,-1.0990,rough,15.5,1,3.077
7110,227.52,-2.1045,-11.0759,-0.7772,-3.0691,-0.1325,-1.1240,rough,15.5,1,3.058
7120,227.84,-2.1100,-11.0547,-0.7716,-3.0579,-0.1416,-1.0699,rough,15.5,1,3.042
7130,228.16,-2.1280,-11.0916,-0.7778,-3.0912,-0.1260,-1.1799,rough,15.5,1,3.083
7140,228.48,-2.0881,-11.0839,-0.7804,-3.0678,-0.1193,-1.1147,rough,15.5,1,3.058
7150,228.80,-2.1071,-11.0597,-0.7785,-3.0338,-0.1145,-1.1502,rough,15.5,1,3.045
7160,229.12,-2.1272,-11.0460,-0.7741,-3.0709,-0.1213,-1.0937,rough,15.5,1,3.042
7170,229.44,-2.1370,-11.0399,-0.7760,-3.0643,-0.1091,-1.1151,rough,15.5,1,3.041
7180,229.76,-2.1255,-11.0577,-0.7758,-3.0751,-0.1101,-1.1486,rough,15.5,1,3.052
7190,230.08,-2.1151,-11.0844,-0.7771,-3.1030,-0.1415,-1.1456,rough,15.5,1,3.071
7200,230.40,-2.0915,-11.0876,-0.7816,-3.0386,-0.1281,-1.1157,rough,15.5,1,3.063
7210,230.72,-2.0848,-11.0712,-0.7814,-3.0314,-0.1034,-1.0943,rough,15.5,1,3.045
7220,231.04,-2.1192,-11.0381,-0.7734,-3.0288,-0.1420,-1.0945,rough,15.5,1,3.031
7230,231.36,-2.1677,-10.9785,-0.7802,-3.0461,-0.0442,-1.0706,rough,15.5,1,3.002
7240,231.68,-2.1840,-10.8992,-0.7797,-3.0254,0.0553,-1.0874,rough,15.5,1,2.941
7250,232.00,-2.1901,-10.8622,-0.7827,-3.0351,0.1157,-1.0567,rough,15.5,1,2.912
7260,232.32,-2.2050,-10.8653,-0.7870,-3.0881,0.1055,-0.9953,rough,15.5,1,2.922
7270,232.64,-2.1863,-10.8724,-0.7787,-3.0036,0.1196,-1.0743,rough,15.5,1,2.919
7280,232.96,-2.2160,-10.8767,-0.7846,-3.0895,0.0787,-0.9084,rough,15.5,1,2.938
7290,233.28,-2.1816,-10.8953,-0.7801,-3.0309,0.0382,-0.9930,rough,15.5,1,2.936
7300,233.60,-2.1712,-10.9447,-0.7816,-3.0299,-0.0319,-1.0687,rough,15.5,1,2.974
7310,233.92,-2.1669,-10.9616,-0.7772,-3.0459,-0.0352,-0.9957,rough,15.5,1,2.987
7320,234.24,-2.1945,-10.9400,-0.7773,-3.0782,-0.0467,-1.1357,rough,15.5,1,2.982
7330,234.56,-2.1836,-10.9155,-0.7791,-3.0377,0.0317,-1.0202,rough,15.5,1,2.955
7340,234.88,-2.1697,-10.9490,-0.7823,-3.0241,-0.0378,-1.0763,rough,15.5,1,2.977
7350,235.20,-2.1713,-10.9303,-0.7835,-3.0151,-0.0077,-1.0591,rough,15.5,1,2.962
7360,235.52,-2.1952,-10.8686,-0.7804,-3.0528,0.0922,-1.0422,rough,15.5,1,2.920
7370,235.84,-2.2036,-10.8422,-0.7738,-3.0552,0.1269,-1.1171,rough,15.5,1,2.902
7380,236.16,-2.2077,-10.8500,-0.7816,-3.0722,0.1216,-1.0137,rough,15.5,1,2.911
7390,236.48,-2.1890,-10.8736,-0.7828,-3.0231,0.1028,-0.9678,rough,15.5,1,2.921
7400,236.80,-2.1952,-10.9190,-0.7838,-3.0583,0.0214,-1.0114,rough,15.5,1,2.964
7410,237.12,-2.1796,-10.9329,-0.7826,-3.0297,-0.0106,-1.0618,rough,15.5,1,2.968
7420,237.44,-2.1856,-10.8968,-0.7798,-3.0503,0.0314,-1.0956,rough,15.5,1,2.940
7430,237.76,-2.1935,-10.8616,-0.7767,-3.0325,0.1160,-1.1049,rough,15.5,1,2.913
7440,238.08,-2.1756,-10.9006,-0.7800,-3.0104,0.0542,-1.1023,rough,15.5,1,2.938
7450,238.40,-2.1607,-10.9415,-0.7798,-3.0251,-0.0446,-1.0071,rough,15.5,1,2.966
7460,238.72,-2.1648,-10.9623,-0.7801,-3.0103,-0.0388,-1.1271,rough,15.5,1,2.986
7470,239.04,-2.1800,-10.9045,-0.7808,-3.0232,0.0497,-1.0530,rough,15.5,1,2.944
7480,239.36,-2.2230,-10.8340,-0.7770,-3.0750,0.1577,-1.0360,rough,15.5,1,2.905
7490,239.68,-2.1940,-10.8685,-0.7831,-3.0419,0.0989,-0.9534,rough,15.5,1,2.920
7500,240.00,-2.1743,-10.8850,-0.7794,-3.0223,0.0783,-1.0529,rough,15.5,1,2.924
7510,240.32,-2.2077,-10.8876,-0.7790,-3.0514,0.0777,-1.0664,rough,15.5,1,2.943
7520,240.64,-2.1717,-10.9634,-0.7789,-3.0338,-0.0447,-1.0563,rough,15.5,1,2.991
7530,240.96,-2.1422,-11.0244,-0.7741,-3.0714,-0.0948,-1.0437,rough,15.5,1,3.030
7540,241.28,-2.1328,-11.0380,-0.7760,-3.0448,-0.1181,-1.1364,rough,15.5,1,3.038
7550,241.60,-2.1217,-11.0729,-0.7747,-3.0915,-0.1346,-1.1049,rough,15.5,1,3.063
7560,241.92,-2.1002,-11.0834,-0.7842,-3.0326,-0.0746,-1.1989,rough,15.5,1,3.063
7570,242.24,-2.0926,-11.0712,-0.7840,-3.0432,-0.1144,-1.1679,rough,15.5,1,3.049
7580,242.56,-2.1257,-11.0461,-0.7780,-3.0570,-0.0987,-1.1158,rough,15.5,1,3.042
7590,242.88,-2.1355,-11.0280,-0.7748,-3.0561,-0.1036,-1.0885,rough,15.5,1,3.030
7600,243.20,-2.1341,-11.0397,-0.7759,-3.0656,-0.0985,-1.1452,rough,15.5,1,3.040
7610,243.52,-2.1309,-11.0324,-0.7738,-3.0682,-0.1024,-1.0592,rough,15.5,1,3.032
7620,243.84,-2.1296,-11.0642,-0.7747,-3.0937,-0.1239,-1.1024,rough,15.5,1,3.059
7630,244.16,-2.1016,-11.1162,-0.7774,-3.0603,-0.0851,-1.1618,rough,15.5,1,3.093
7640,244.48,-2.0929,-11.1290,-0.7743,-3.1325,-0.1228,-1.0681,rough,15.5,1,3.100
7650,244.80,-2.1207,-11.0956,-0.7733,-3.1179,-0.1283,-1.0885,rough,15.5,1,3.083
