step,time_s,x,y,z,roll,pitch,yaw,terrain,speed,target_idx,dist_to_target
10,0.32,0.0980,-0.0673,0.2012,0.0415,-0.0640,0.0023,rough,15.5,0,5.316
20,0.64,0.5285,-0.0860,0.2146,0.0638,-0.0696,-0.0980,rough,15.5,0,4.976
30,0.96,0.9901,-0.1597,0.2444,0.0957,-0.0557,-0.1797,rough,15.5,0,4.590
40,1.28,1.4596,-0.2757,0.2434,0.1298,0.0520,-0.2552,rough,15.5,0,4.184
50,1.60,1.9104,-0.4153,0.2176,0.1153,0.0580,-0.3408,rough,15.5,0,3.788
60,1.92,2.3322,-0.5831,0.2001,0.1226,-0.0033,-0.4225,rough,15.5,0,3.405
70,2.24,2.7612,-0.8051,0.1908,0.1578,0.1056,-0.5009,rough,15.5,0,2.990
80,2.56,3.1689,-1.0576,0.1211,0.1459,0.1937,-0.6013,rough,15.5,0,2.579
90,2.88,3.5812,-1.3581,-0.0603,-0.1026,0.3728,-0.7560,rough,15.5,0,2.150
100,3.20,3.8625,-1.6242,-0.1175,-0.1605,-0.0262,-0.8777,rough,15.5,0,1.821
110,3.52,4.1467,-1.9935,-0.1466,-0.1522,0.0303,-0.9986,rough,15.5,0,1.416
120,3.84,4.4036,-2.4052,-0.1940,-0.1621,0.2133,-1.1646,rough,15.5,0,1.015
130,4.16,4.5570,-2.8083,-0.2728,-0.1970,0.1335,-1.4241,rough,15.5,1,7.649
140,4.48,4.5442,-3.2513,-0.3491,0.0720,0.2606,-1.6011,rough,15.5,1,7.325
150,4.80,4.4501,-3.6844,-0.4253,0.2782,0.2400,-1.7125,rough,15.5,1,6.960
160,5.12,4.3370,-4.0982,-0.5033,0.3427,0.1198,-1.8418,rough,15.5,1,6.603
170,5.44,4.1686,-4.5115,-0.5559,0.3871,0.0643,-1.9788,rough,15.5,1,6.211
180,5.76,3.9521,-4.9164,-0.5899,0.3837,0.0397,-2.0802,rough,15.5,1,5.793
190,6.08,3.7078,-5.3072,-0.5967,0.3094,-0.0458,-2.1947,rough,15.5,1,5.368
200,6.40,3.4202,-5.6436,-0.5490,0.3343,-0.1755,-2.2900,rough,15.5,1,4.941
210,6.72,3.1245,-5.8930,-0.4500,0.4476,-0.4465,-2.4459,rough,15.5,1,4.557
220,7.04,2.8331,-6.0767,-0.2519,0.6115,-0.7378,-2.6400,rough,15.5,1,4.213
230,7.36,2.5561,-6.1300,-0.1187,0.6106,-0.5510,-2.9574,rough,15.5,1,3.952
240,7.68,2.2661,-6.0133,-0.0894,0.5778,-0.5358,-2.9295,rough,15.5,1,3.787
250,8.00,2.0868,-5.8883,-0.0981,0.1478,-0.6772,-2.4526,rough,15.5,1,3.729
260,8.32,1.9711,-5.7242,-0.1301,-0.2617,-0.6779,-2.0353,rough,15.5,1,3.756
270,8.64,1.9081,-5.5924,-0.1728,-0.4391,-0.6824,-1.7580,rough,15.5,1,3.806
280,8.96,1.9042,-5.5136,-0.2264,-0.5297,-0.5356,-1.5246,rough,15.5,1,3.861
290,9.28,1.9505,-5.5588,-0.2247,-0.6208,-0.4788,-1.3887,rough,15.5,1,3.860
300,9.60,2.0602,-5.7261,-0.1886,-0.7227,-0.3479,-1.1902,rough,15.5,1,3.819
310,9.92,2.2119,-5.8996,-0.1409,-0.7457,-0.5275,-1.0303,rough,15.5,1,3.817
320,10.24,2.3852,-6.0307,-0.1274,-0.5834,-0.5800,-1.1396,rough,15.5,1,3.871
330,10.56,2.5698,-6.0863,-0.1588,-0.5531,-0.7111,-1.3170,rough,15.5,1,3.988
340,10.88,2.7157,-6.0623,-0.2389,-0.3904,-0.6899,-1.4081,rough,15.5,1,4.123
350,11.20,2.8065,-6.0313,-0.2849,-0.3795,-0.6410,-1.2680,rough,15.5,1,4.215
360,11.52,2.9267,-5.9458,-0.3894,-0.2975,-0.5975,-1.1707,rough,15.5,1,4.363
370,11.84,2.9819,-5.8412,-0.4754,-0.0765,-0.7314,-1.3059,rough,15.5,1,4.467
380,12.16,3.0288,-5.8473,-0.4690,0.0160,-0.7552,-1.4503,rough,15.5,1,4.502
390,12.48,3.0462,-5.8669,-0.4494,0.0601,-0.7540,-1.5169,rough,15.5,1,4.506
400,12.80,3.0550,-5.8353,-0.4774,0.0778,-0.7521,-1.5465,rough,15.5,1,4.531
410,13.12,3.0556,-5.8341,-0.4787,0.1273,-0.7466,-1.6159,rough,15.5,1,4.532
420,13.44,3.0506,-5.8318,-0.4812,0.1439,-0.7447,-1.6426,rough,15.5,1,4.529
430,13.76,3.0412,-5.8301,-0.4839,0.1535,-0.7433,-1.6565,rough,15.5,1,4.522
440,14.08,3.0298,-5.8291,-0.4862,0.1588,-0.7425,-1.6640,rough,15.5,1,4.513
450,14.40,3.0173,-5.8286,-0.4883,0.1615,-0.7420,-1.6679,rough,15.5,1,4.503
460,14.72,3.0042,-5.8284,-0.4902,0.1629,-0.7418,-1.6699,rough,15.5,1,4.493
470,15.04,2.9908,-5.8283,-0.4921,0.1636,-0.7417,-1.6709,rough,15.5,1,4.482
480,15.36,2.9799,-5.8318,-0.4902,0.1524,-0.7436,-1.6544,rough,15.5,1,4.471
490,15.68,2.9748,-5.8382,-0.4850,0.1153,-0.7487,-1.5998,rough,15.5,1,4.463
500,16.00,2.9742,-5.8390,-0.4845,0.0949,-0.7501,-1.5696,rough,15.5,1,4.462
510,16.32,2.9754,-5.8339,-0.4889,0.1279,-0.7472,-1.6183,rough,15.5,1,4.466
520,16.64,2.9747,-5.8405,-0.4832,0.1091,-0.7478,-1.5904,rough,15.5,1,4.461
530,16.96,2.9732,-5.8397,-0.4839,0.1113,-0.7492,-1.5947,rough,15.5,1,4.461
540,17.28,2.9742,-5.8460,-0.4778,0.0943,-0.7506,-1.5689,rough,15.5,1,4.458
550,17.60,2.9770,-5.8374,-0.4876,0.0971,-0.7498,-1.5880,rough,15.5,1,4.465
560,17.92,2.9747,-5.8383,-0.4851,0.1172,-0.7486,-1.6039,rough,15.5,1,4.463
570,18.24,2.9759,-5.8362,-0.4869,0.1156,-0.7482,-1.6002,rough,15.5,1,4.465
580,18.56,2.9729,-5.8365,-0.4868,0.1153,-0.7489,-1.5997,rough,15.5,1,4.462
590,18.88,2.9722,-5.8370,-0.4864,0.1070,-0.7497,-1.5872,rough,15.5,1,4.461
600,19.20,2.9727,-5.8395,-0.4841,0.1029,-0.7498,-1.5814,rough,15.5,1,4.460
610,19.52,2.9722,-5.8362,-0.4872,0.1083,-0.7497,-1.5893,rough,15.5,1,4.462
620,19.84,2.9730,-5.8359,-0.4873,0.1117,-0.7494,-1.5943,rough,15.5,1,4.463
630,20.16,2.9732,-5.8367,-0.4865,0.1116,-0.7494,-1.5942,rough,15.5,1,4.462
640,20.48,2.9727,-5.8369,-0.4864,0.1098,-0.7496,-1.5916,rough,15.5,1,4.462
650,20.80,2.9740,-5.8413,-0.4824,0.1044,-0.7489,-1.5836,rough,15.5,1,4.460
660,21.12,2.9744,-5.8365,-0.4866,0.1097,-0.7495,-1.5912,rough,15.5,1,4.463
670,21.44,2.9727,-5.8363,-0.4870,0.1105,-0.7495,-1.5926,rough,15.5,1,4.462
680,21.76,2.9720,-5.8365,-0.4868,0.1092,-0.7502,-1.5906,rough,15.5,1,4.461
690,22.08,2.9730,-5.8371,-0.4861,0.1066,-0.7497,-1.5863,rough,15.5,1,4.462
700,22.40,2.9740,-5.8368,-0.4864,0.1133,-0.7492,-1.5966,rough,15.5,1,4.463
710,22.72,2.9731,-5.8368,-0.4865,0.1118,-0.7494,-1.5945,rough,15.5,1,4.462
720,23.04,2.9739,-5.8374,-0.4858,0.1120,-0.7493,-1.5948,rough,15.5,1,4.462
730,23.36,2.9744,-5.8367,-0.4863,0.1102,-0.7496,-1.5921,rough,15.5,1,4.463
740,23.68,2.9728,-5.8361,-0.4871,0.1112,-0.7494,-1.5937,rough,15.5,1,4.462
750,24.00,2.9721,-5.8366,-0.4867,0.1093,-0.7502,-1.5908,rough,15.5,1,4.461
760,24.32,2.9730,-5.8372,-0.4860,0.1066,-0.7497,-1.5863,rough,15.5,1,4.462
770,24.64,2.9740,-5.8367,-0.4864,0.1134,-0.7492,-1.5968,rough,15.5,1,4.463
780,24.96,2.9746,-5.8372,-0.4859,0.1133,-0.7492,-1.5967,rough,15.5,1,4.463
790,25.28,2.9739,-5.8369,-0.4862,0.1092,-0.7497,-1.5906,rough,15.5,1,4.463
800,25.60,2.9735,-5.8407,-0.4830,0.1077,-0.7490,-1.5885,rough,15.5,1,4.460
810,25.92,2.9724,-5.8364,-0.4869,0.1077,-0.7498,-1.5884,rough,15.5,1,4.462
820,26.24,2.9739,-5.8374,-0.4858,0.1121,-0.7493,-1.5949,rough,15.5,1,4.462
830,26.56,2.9734,-5.8372,-0.4860,0.1082,-0.7498,-1.5892,rough,15.5,1,4.462
840,26.88,2.9738,-5.8371,-0.4861,0.1117,-0.7494,-1.5944,rough,15.5,1,4.463
850,27.20,2.9752,-5.8358,-0.4871,0.1152,-0.7490,-1.5994,rough,15.5,1,4.464
860,27.52,2.9734,-5.8414,-0.4823,0.1067,-0.7489,-1.5870,rough,15.5,1,4.460
870,27.84,2.9727,-5.8380,-0.4853,0.1077,-0.7499,-1.5884,rough,15.5,1,4.461
880,28.16,2.9728,-5.8374,-0.4859,0.1084,-0.7497,-1.5896,rough,15.5,1,4.462
890,28.48,2.9730,-5.8369,-0.4864,0.1089,-0.7497,-1.5903,rough,15.5,1,4.462
900,28.80,2.9734,-5.8374,-0.4859,0.1127,-0.7492,-1.5959,rough,15.5,1,4.462
910,29.12,2.9759,-5.8364,-0.4866,0.1132,-0.7485,-1.5966,rough,15.5,1,4.465
920,29.44,2.9733,-5.8362,-0.4870,0.1162,-0.7487,-1.6009,rough,15.5,1,4.463
930,29.76,2.9720,-5.8376,-0.4859,0.1049,-0.7497,-1.5843,rough,15.5,1,4.461
940,30.08,2.9746,-5.8397,-0.4840,0.0965,-0.7488,-1.5720,rough,15.5,1,4.462
950,30.40,2.9760,-5.8348,-0.4880,0.1226,-0.7477,-1.6106,rough,15.5,1,4.466
960,30.72,2.9743,-5.8364,-0.4878,0.0974,-0.7453,-1.5731,rough,15.5,1,4.463
970,31.04,2.9746,-5.8344,-0.4886,0.1252,-0.7473,-1.6144,rough,15.5,1,4.465
980,31.36,2.9751,-5.8390,-0.4844,0.1014,-0.7489,-1.5791,rough,15.5,1,4.463
990,31.68,2.9770,-5.8354,-0.4873,0.1181,-0.7484,-1.6037,rough,15.5,1,4.466
1000,32.00,2.9725,-5.8371,-0.4862,0.1127,-0.7497,-1.5958,rough,15.5,1,4.461
1010,32.32,2.9754,-5.8369,-0.4861,0.1064,-0.7495,-1.5865,rough,15.5,1,4.464
1020,32.64,2.9748,-5.8372,-0.4858,0.1193,-0.7483,-1.6057,rough,15.5,1,4.463
1030,32.96,2.9729,-5.8410,-0.4828,0.1057,-0.7493,-1.5855,rough,15.5,1,4.460
1040,33.28,2.9740,-5.8463,-0.4781,0.0935,-0.7486,-1.5680,rough,15.5,1,4.458
1050,33.60,2.9744,-5.8362,-0.4869,0.0946,-0.7509,-1.5693,rough,15.5,1,4.464
1060,33.92,2.9760,-5.8371,-0.4867,0.1167,-0.7485,-1.6074,rough,15.5,1,4.464
1070,34.24,2.9747,-5.8377,-0.4863,0.1056,-0.7455,-1.5849,rough,15.5,1,4.463
1080,34.56,2.9727,-5.8363,-0.4870,0.1122,-0.7491,-1.5947,rough,15.5,1,4.462
1090,34.88,2.9742,-5.8371,-0.4860,0.1075,-0.7499,-1.5881,rough,15.5,1,4.463
1100,35.20,2.9729,-5.8355,-0.4877,0.1131,-0.7492,-1.5965,rough,15.5,1,4.463
1110,35.52,2.9737,-5.8416,-0.4821,0.1055,-0.7491,-1.5852,rough,15.5,1,4.460
1120,35.84,2.9731,-5.8369,-0.4863,0.1066,-0.7499,-1.5867,rough,15.5,1,4.462
1130,36.16,2.9742,-5.8372,-0.4859,0.1143,-0.7491,-1.5982,rough,15.5,1,4.463
1140,36.48,2.9751,-5.8372,-0.4860,0.1056,-0.7493,-1.5853,rough,15.5,1,4.464
1150,36.80,2.9748,-5.8373,-0.4858,0.1189,-0.7484,-1.6050,rough,15.5,1,4.463
1160,37.12,2.9728,-5.8407,-0.4830,0.1058,-0.7493,-1.5857,rough,15.5,1,4.460
1170,37.44,2.9745,-5.8466,-0.4777,0.0945,-0.7490,-1.5694,rough,15.5,1,4.458
1180,37.76,2.9750,-5.8369,-0.4856,0.1014,-0.7506,-1.5765,rough,15.5,1,4.464
1190,38.08,2.9755,-5.8359,-0.4873,0.1187,-0.7483,-1.6066,rough,15.5,1,4.465
1200,38.40,2.9747,-5.8375,-0.4865,0.1060,-0.7455,-1.5852,rough,15.5,1,4.463
1210,38.72,2.9719,-5.8369,-0.4865,0.1077,-0.7496,-1.5881,rough,15.5,1,4.461
1220,39.04,2.9731,-5.8369,-0.4864,0.1100,-0.7495,-1.5918,rough,15.5,1,4.462
1230,39.36,2.9734,-5.8373,-0.4860,0.1113,-0.7494,-1.5939,rough,15.5,1,4.462
1240,39.68,2.9744,-5.8406,-0.4831,0.1053,-0.7485,-1.5849,rough,15.5,1,4.461
1250,40.00,2.9729,-5.8359,-0.4873,0.1130,-0.7491,-1.5961,rough,15.5,1,4.462
1260,40.32,2.9733,-5.8371,-0.4862,0.1115,-0.7494,-1.5941,rough,15.5,1,4.462
1270,40.64,2.9745,-5.8399,-0.4837,0.1093,-0.7483,-1.5908,rough,15.5,1,4.462
1280,40.96,2.9734,-5.8376,-0.4856,0.1095,-0.7495,-1.5908,rough,15.5,1,4.462
1290,41.28,2.9743,-5.8366,-0.4865,0.1097,-0.7497,-1.5912,rough,15.5,1,4.463
1300,41.60,2.9727,-5.8364,-0.4869,0.1103,-0.7495,-1.5924,rough,15.5,1,4.462
1310,41.92,2.9723,-5.8360,-0.4873,0.1093,-0.7496,-1.5909,rough,15.5,1,4.462
1320,42.24,2.9739,-5.8356,-0.4875,0.1168,-0.7488,-1.6019,rough,15.5,1,4.463
1330,42.56,2.9744,-5.8402,-0.4834,0.1084,-0.7481,-1.5893,rough,15.5,1,4.461
1340,42.88,2.9737,-5.8378,-0.4854,0.1093,-0.7497,-1.5908,rough,15.5,1,4.462
1350,43.20,2.9738,-5.8377,-0.4856,0.1102,-0.7496,-1.5922,rough,15.5,1,4.462
1360,43.52,2.9730,-5.8376,-0.4858,0.1057,-0.7501,-1.5855,rough,15.5,1,4.462
1370,43.84,2.9739,-5.8366,-0.4866,0.1103,-0.7496,-1.5923,rough,15.5,1,4.463
1380,44.16,2.9754,-5.8375,-0.4857,0.1057,-0.7490,-1.5855,rough,15.5,1,4.464
1390,44.48,2.9750,-5.8373,-0.4858,0.1190,-0.7483,-1.6052,rough,15.5,1,4.463
1400,44.80,2.9728,-5.8404,-0.4833,0.1062,-0.7493,-1.5862,rough,15.5,1,4.460
1410,45.12,2.9738,-5.8384,-0.4861,0.0919,-0.7452,-1.5650,rough,15.5,1,4.462
1420,45.44,2.9762,-5.8359,-0.4870,0.1157,-0.7485,-1.6004,rough,15.5,1,4.465
1430,45.76,2.9733,-5.8366,-0.4866,0.1157,-0.7489,-1.6002,rough,15.5,1,4.462
1440,46.08,2.9750,-5.8354,-0.4876,0.1185,-0.7480,-1.6045,rough,15.5,1,4.465
1450,46.40,2.9756,-5.8391,-0.4845,0.1022,-0.7479,-1.5803,rough,15.5,1,4.463
1460,46.72,2.9755,-5.8348,-0.4880,0.1225,-0.7478,-1.6103,rough,15.5,1,4.465
1470,47.04,2.9739,-5.8366,-0.4865,0.1161,-0.7489,-1.6007,rough,15.5,1,4.463
1480,47.36,2.9744,-5.8373,-0.4859,0.0983,-0.7501,-1.5746,rough,15.5,1,4.463
1490,47.68,2.9768,-5.8362,-0.4865,0.1225,-0.7479,-1.6103,rough,15.5,1,4.465
1500,48.00,2.9737,-5.8417,-0.4821,0.1072,-0.7487,-1.5876,rough,15.5,1,4.460
1510,48.32,2.9719,-5.8425,-0.4813,0.1095,-0.7502,-1.5917,rough,15.5,1,4.458
1520,48.64,2.9743,-5.8420,-0.4815,0.0944,-0.7508,-1.5690,rough,15.5,1,4.460
1530,48.96,2.9766,-5.8376,-0.4867,0.1077,-0.7493,-1.5978,rough,15.5,1,4.465
1540,49.28,2.9731,-5.8369,-0.4865,0.1148,-0.7489,-1.5999,rough,15.5,1,4.462
1550,49.60,2.9721,-5.8368,-0.4867,0.1042,-0.7498,-1.5833,rough,15.5,1,4.461
1560,49.92,2.9732,-5.8371,-0.4862,0.1115,-0.7494,-1.5940,rough,15.5,1,4.462
1570,50.24,2.9743,-5.8368,-0.4863,0.1155,-0.7489,-1.6000,rough,15.5,1,4.463
1580,50.56,2.9745,-5.8408,-0.4829,0.1069,-0.7484,-1.5873,rough,15.5,1,4.461
1590,50.88,2.9739,-5.8371,-0.4860,0.1082,-0.7497,-1.5890,rough,15.5,1,4.463
1600,51.20,2.9728,-5.8358,-0.4874,0.1132,-0.7491,-1.5967,rough,15.5,1,4.462
1610,51.52,2.9749,-5.8383,-0.4851,0.1019,-0.7491,-1.5800,rough,15.5,1,4.463
1620,51.84,2.9767,-5.8363,-0.4865,0.1219,-0.7479,-1.6094,rough,15.5,1,4.465
1630,52.16,2.9736,-5.8414,-0.4823,0.1073,-0.7487,-1.5878,rough,15.5,1,4.460
1640,52.48,2.9744,-5.8434,-0.4815,0.0938,-0.7451,-1.5683,rough,15.5,1,4.459
1650,52.80,2.9746,-5.8408,-0.4826,0.0950,-0.7508,-1.5699,rough,15.5,1,4.461
1660,53.12,2.9768,-5.8372,-0.4861,0.1163,-0.7487,-1.6041,rough,15.5,1,4.465
1670,53.44,2.9730,-5.8365,-0.4868,0.1154,-0.7489,-1.6002,rough,15.5,1,4.462
1680,53.76,2.9721,-5.8375,-0.4860,0.1043,-0.7497,-1.5834,rough,15.5,1,4.461
1690,54.08,2.9743,-5.8371,-0.4860,0.1119,-0.7493,-1.5947,rough,15.5,1,4.463
1700,54.40,2.9738,-5.8367,-0.4864,0.1088,-0.7498,-1.5900,rough,15.5,1,4.463
1710,54.72,2.9743,-5.8380,-0.4861,0.1021,-0.7460,-1.5800,rough,15.5,1,4.462
1720,55.04,2.9732,-5.8368,-0.4864,0.1103,-0.7493,-1.5919,rough,15.5,1,4.462
1730,55.36,2.9746,-5.8371,-0.4859,0.1137,-0.7491,-1.5973,rough,15.5,1,4.463
1740,55.68,2.9748,-5.8373,-0.4866,0.1065,-0.7459,-1.5865,rough,15.5,1,4.463
1750,56.00,2.9736,-5.8370,-0.4862,0.1068,-0.7498,-1.5867,rough,15.5,1,4.463
1760,56.32,2.9726,-5.8362,-0.4871,0.1094,-0.7496,-1.5910,rough,15.5,1,4.462
1770,56.64,2.9739,-5.8375,-0.4857,0.1124,-0.7493,-1.5954,rough,15.5,1,4.462
1780,56.96,2.9734,-5.8372,-0.4861,0.1112,-0.7494,-1.5937,rough,15.5,1,4.462
1790,57.28,2.9736,-5.8366,-0.4866,0.1095,-0.7496,-1.5912,rough,15.5,1,4.463
1800,57.60,2.9745,-5.8374,-0.4866,0.1056,-0.7458,-1.5849,rough,15.5,1,4.463
1810,57.92,2.9720,-5.8361,-0.4872,0.1076,-0.7500,-1.5882,rough,15.5,1,4.462
1820,58.24,2.9721,-5.8366,-0.4868,0.1085,-0.7498,-1.5896,rough,15.5,1,4.461
1830,58.56,2.9721,-5.8369,-0.4865,0.1076,-0.7498,-1.5884,rough,15.5,1,4.461
1840,58.88,2.9733,-5.8367,-0.4865,0.1134,-0.7491,-1.5970,rough,15.5,1,4.462
1850,59.20,2.9752,-5.8384,-0.4851,0.1021,-0.7488,-1.5802,rough,15.5,1,4.463
1860,59.52,2.9769,-5.8363,-0.4864,0.1220,-0.7479,-1.6097,rough,15.5,1,4.466
1870,59.84,2.9736,-5.8412,-0.4825,0.1076,-0.7488,-1.5883,rough,15.5,1,4.460
1880,60.16,2.9723,-5.8380,-0.4854,0.1091,-0.7496,-1.5906,rough,15.5,1,4.461
1890,60.48,2.9760,-5.8370,-0.4860,0.1084,-0.7492,-1.5896,rough,15.5,1,4.464
1900,60.80,2.9748,-5.8371,-0.4860,0.1207,-0.7481,-1.6077,rough,15.5,1,4.463
1910,61.12,2.9749,-5.8364,-0.4867,0.1114,-0.7487,-1.5939,rough,15.5,1,4.464
1920,61.44,2.9752,-5.8374,-0.4870,0.0982,-0.7441,-1.5743,rough,15.5,1,4.464
1930,61.76,2.9757,-5.8359,-0.4870,0.1156,-0.7485,-1.6001,rough,15.5,1,4.465
1940,62.08,2.9727,-5.8352,-0.4880,0.1141,-0.7490,-1.5980,rough,15.5,1,4.463
1950,62.40,2.9746,-5.8399,-0.4836,0.0987,-0.7496,-1.5752,rough,15.5,1,4.462
1960,62.72,2.9752,-5.8340,-0.4889,0.1273,-0.7472,-1.6175,rough,15.5,1,4.465
1970,63.04,2.9747,-5.8405,-0.4832,0.1089,-0.7478,-1.5901,rough,15.5,1,4.461
1980,63.36,2.9732,-5.8396,-0.4840,0.1112,-0.7493,-1.5946,rough,15.5,1,4.461
1990,63.68,2.9743,-5.8459,-0.4779,0.0943,-0.7506,-1.5688,rough,15.5,1,4.458
2000,64.00,2.9770,-5.8373,-0.4877,0.0970,-0.7498,-1.5879,rough,15.5,1,4.465
2010,64.32,2.9748,-5.8383,-0.4851,0.1171,-0.7486,-1.6039,rough,15.5,1,4.463
2020,64.64,2.9728,-5.8398,-0.4838,0.1054,-0.7494,-1.5850,rough,15.5,1,4.460
2030,64.96,2.9736,-5.8365,-0.4866,0.1089,-0.7497,-1.5901,rough,15.5,1,4.463
2040,65.28,2.9751,-5.8363,-0.4867,0.1134,-0.7492,-1.5968,rough,15.5,1,4.464
2050,65.60,2.9746,-5.8382,-0.4859,0.1039,-0.7458,-1.5826,rough,15.5,1,4.463
2060,65.92,2.9723,-5.8369,-0.4865,0.1068,-0.7497,-1.5868,rough,15.5,1,4.461
2070,66.24,2.9742,-5.8369,-0.4862,0.1156,-0.7488,-1.6002,rough,15.5,1,4.463
2080,66.56,2.9755,-5.8386,-0.4849,0.1028,-0.7483,-1.5812,rough,15.5,1,4.463
2090,66.88,2.9751,-5.8341,-0.4888,0.1266,-0.7472,-1.6165,rough,15.5,1,4.465
2100,67.20,2.9746,-5.8403,-0.4833,0.1089,-0.7479,-1.5902,rough,15.5,1,4.461
2110,67.52,2.9731,-5.8391,-0.4844,0.1113,-0.7493,-1.5944,rough,15.5,1,4.461
2120,67.84,2.9746,-5.8451,-0.4786,0.0949,-0.7506,-1.5697,rough,15.5,1,4.459
2130,68.16,2.9770,-5.8375,-0.4860,0.1085,-0.7497,-1.5941,rough,15.5,1,4.465
2140,68.48,2.9747,-5.8377,-0.4855,0.1181,-0.7485,-1.6044,rough,15.5,1,4.463
2150,68.80,2.9728,-5.8403,-0.4833,0.1055,-0.7494,-1.5852,rough,15.5,1,4.460
2160,69.12,2.9727,-5.8360,-0.4872,0.1105,-0.7495,-1.5925,rough,15.5,1,4.462
2170,69.44,2.9732,-5.8369,-0.4863,0.1109,-0.7494,-1.5933,rough,15.5,1,4.462
2180,69.76,2.9725,-5.8368,-0.4865,0.1099,-0.7496,-1.5918,rough,15.5,1,4.462
2190,70.08,2.9725,-5.8373,-0.4861,0.1022,-0.7500,-1.5804,rough,15.5,1,4.461
2200,70.40,2.9729,-5.8359,-0.4873,0.1139,-0.7491,-1.5976,rough,15.5,1,4.462
2210,70.72,2.9734,-5.8362,-0.4870,0.1148,-0.7490,-1.5990,rough,15.5,1,4.463
2220,71.04,2.9719,-5.8365,-0.4869,0.1049,-0.7498,-1.5844,rough,15.5,1,4.461
2230,71.36,2.9737,-5.8374,-0.4858,0.1114,-0.7494,-1.5938,rough,15.5,1,4.462
2240,71.68,2.9744,-5.8367,-0.4864,0.1100,-0.7496,-1.5918,rough,15.5,1,4.463
2250,72.00,2.9738,-5.8365,-0.4866,0.1087,-0.7498,-1.5898,rough,15.5,1,4.463
2260,72.32,2.9737,-5.8374,-0.4859,0.1063,-0.7500,-1.5865,rough,15.5,1,4.462
2270,72.64,2.9729,-5.8361,-0.4871,0.1145,-0.7490,-1.5986,rough,15.5,1,4.462
2280,72.96,2.9719,-5.8380,-0.4856,0.1041,-0.7498,-1.5832,rough,15.5,1,4.461
2290,73.28,2.9732,-5.8372,-0.4861,0.1102,-0.7496,-1.5922,rough,15.5,1,4.462
2300,73.60,2.9731,-5.8376,-0.4857,0.1093,-0.7497,-1.5908,rough,15.5,1,4.462
2310,73.92,2.9748,-5.8369,-0.4861,0.1158,-0.7489,-1.6004,rough,15.5,1,4.463
2320,74.24,2.9749,-5.8378,-0.4858,0.0985,-0.7482,-1.5749,rough,15.5,1,4.463
2330,74.56,2.9753,-5.8342,-0.4887,0.1268,-0.7471,-1.6167,rough,15.5,1,4.465
2340,74.88,2.9746,-5.8401,-0.4835,0.1094,-0.7479,-1.5909,rough,15.5,1,4.462
2350,75.20,2.9734,-5.8377,-0.4856,0.1110,-0.7493,-1.5932,rough,15.5,1,4.462
2360,75.52,2.9751,-5.8380,-0.4852,0.1006,-0.7497,-1.5780,rough,15.5,1,4.463
2370,75.84,2.9768,-5.8360,-0.4867,0.1240,-0.7477,-1.6126,rough,15.5,1,4.466
2380,76.16,2.9752,-5.8374,-0.4859,0.1085,-0.7485,-1.5897,rough,15.5,1,4.464
2390,76.48,2.9741,-5.8367,-0.4865,0.1190,-0.7483,-1.6052,rough,15.5,1,4.463
2400,76.80,2.9754,-5.8369,-0.4862,0.1083,-0.7492,-1.5892,rough,15.5,1,4.464
2410,77.12,2.9742,-5.8371,-0.4860,0.1168,-0.7486,-1.6018,rough,15.5,1,4.463
2420,77.44,2.9749,-5.8406,-0.4831,0.0991,-0.7489,-1.5758,rough,15.5,1,4.462
2430,77.76,2.9758,-5.8350,-0.4878,0.1208,-0.7480,-1.6079,rough,15.5,1,4.465
2440,78.08,2.9748,-5.8375,-0.4864,0.1064,-0.7453,-1.5858,rough,15.5,1,4.463
2450,78.40,2.9720,-5.8359,-0.4873,0.1088,-0.7496,-1.5889,rough,15.5,1,4.462
2460,78.72,2.9742,-5.8479,-0.4762,0.0942,-0.7502,-1.5687,rough,15.5,1,4.457
2470,79.04,2.9761,-5.8369,-0.4858,0.1113,-0.7494,-1.5928,rough,15.5,1,4.465
2480,79.36,2.9767,-5.8378,-0.4854,0.1196,-0.7483,-1.6083,rough,15.5,1,4.465
2490,79.68,2.9736,-5.8410,-0.4827,0.1068,-0.7488,-1.5870,rough,15.5,1,4.460
2500,80.00,2.9731,-5.8369,-0.4864,0.1107,-0.7494,-1.5927,rough,15.5,1,4.462
2510,80.32,2.9737,-5.8363,-0.4868,0.1133,-0.7492,-1.5967,rough,15.5,1,4.463
2520,80.64,2.9728,-5.8368,-0.4865,0.1124,-0.7493,-1.5954,rough,15.5,1,4.462
2530,80.96,2.9723,-5.8376,-0.4859,0.1033,-0.7499,-1.5820,rough,15.5,1,4.461
2540,81.28,2.9750,-5.8361,-0.4868,0.1136,-0.7491,-1.5971,rough,15.5,1,4.464
2550,81.60,2.9742,-5.8374,-0.4870,0.0943,-0.7452,-1.5686,rough,15.5,1,4.463
2560,81.92,2.9756,-5.8351,-0.4878,0.1201,-0.7480,-1.6068,rough,15.5,1,4.465
2570,82.24,2.9748,-5.8374,-0.4865,0.1065,-0.7455,-1.5860,rough,15.5,1,4.463
2580,82.56,2.9720,-5.8355,-0.4876,0.1089,-0.7496,-1.5890,rough,15.5,1,4.462
2590,82.88,2.9746,-5.8475,-0.4765,0.0948,-0.7503,-1.5697,rough,15.5,1,4.457
2600,83.20,2.9768,-5.8371,-0.4868,0.0994,-0.7504,-1.5836,rough,15.5,1,4.465
2610,83.52,2.9766,-5.8369,-0.4860,0.1210,-0.7481,-1.6088,rough,15.5,1,4.465
2620,83.84,2.9736,-5.8412,-0.4825,0.1069,-0.7488,-1.5872,rough,15.5,1,4.460
2630,84.16,2.9729,-5.8372,-0.4862,0.1074,-0.7498,-1.5879,rough,15.5,1,4.462
2640,84.48,2.9745,-5.8370,-0.4861,0.1130,-0.7492,-1.5963,rough,15.5,1,4.463
2650,84.80,2.9737,-5.8371,-0.4861,0.1119,-0.7494,-1.5946,rough,15.5,1,4.462
2660,85.12,2.9731,-5.8403,-0.4833,0.1031,-0.7497,-1.5817,rough,15.5,1,4.460
2670,85.44,2.9733,-5.8369,-0.4864,0.1111,-0.7494,-1.5935,rough,15.5,1,4.462
2680,85.76,2.9729,-5.8369,-0.4864,0.1074,-0.7499,-1.5880,rough,15.5,1,4.462
2690,86.08,2.9727,-5.8396,-0.4840,0.1062,-0.7495,-1.5863,rough,15.5,1,4.460
2700,86.40,2.9741,-5.8368,-0.4863,0.1088,-0.7497,-1.5900,rough,15.5,1,4.463
2710,86.72,2.9727,-5.8363,-0.4870,0.1101,-0.7495,-1.5920,rough,15.5,1,4.462
2720,87.04,2.9732,-5.8367,-0.4866,0.1112,-0.7495,-1.5936,rough,15.5,1,4.462
2730,87.36,2.9726,-5.8367,-0.4866,0.1098,-0.7496,-1.5916,rough,15.5,1,4.462
2740,87.68,2.9744,-5.8369,-0.4862,0.1170,-0.7487,-1.6023,rough,15.5,1,4.463
2750,88.00,2.9726,-5.8406,-0.4831,0.1053,-0.7494,-1.5849,rough,15.5,1,4.460
2760,88.32,2.9719,-5.8364,-0.4870,0.1062,-0.7500,-1.5863,rough,15.5,1,4.461
2770,88.64,2.9727,-5.8366,-0.4867,0.1105,-0.7496,-1.5926,rough,15.5,1,4.462
2780,88.96,2.9733,-5.8358,-0.4873,0.1162,-0.7488,-1.6011,rough,15.5,1,4.463
2790,89.28,2.9722,-5.8367,-0.4866,0.1106,-0.7501,-1.5928,rough,15.5,1,4.461
2800,89.60,2.9758,-5.8352,-0.4877,0.1202,-0.7479,-1.6070,rough,15.5,1,4.465
2810,89.92,2.9748,-5.8373,-0.4866,0.1070,-0.7455,-1.5867,rough,15.5,1,4.463
2820,90.24,2.9721,-5.8359,-0.4874,0.1076,-0.7497,-1.5881,rough,15.5,1,4.462
2830,90.56,2.9745,-5.8392,-0.4843,0.0964,-0.7496,-1.5719,rough,15.5,1,4.462
2840,90.88,2.9754,-5.8337,-0.4891,0.1290,-0.7470,-1.6200,rough,15.5,1,4.466
2850,91.20,2.9754,-5.8374,-0.4860,0.1056,-0.7482,-1.5854,rough,15.5,1,4.464
2860,91.52,2.9760,-5.8362,-0.4867,0.1220,-0.7479,-1.6096,rough,15.5,1,4.465
2870,91.84,2.9754,-5.8380,-0.4853,0.1050,-0.7492,-1.5844,rough,15.5,1,4.463
2880,92.16,2.9760,-5.8372,-0.4858,0.1196,-0.7482,-1.6061,rough,15.5,1,4.464
2890,92.48,2.9752,-5.8393,-0.4845,0.0994,-0.7478,-1.5762,rough,15.5,1,4.462
2900,92.80,2.9758,-5.8360,-0.4869,0.1138,-0.7488,-1.5976,rough,15.5,1,4.465
2910,93.12,2.9731,-5.8363,-0.4869,0.1164,-0.7487,-1.6013,rough,15.5,1,4.462
2920,93.44,2.9721,-5.8383,-0.4852,0.1045,-0.7497,-1.5838,rough,15.5,1,4.460
2930,93.76,2.9741,-5.8480,-0.4762,0.0940,-0.7496,-1.5686,rough,15.5,1,4.457
2940,94.08,2.9753,-5.8349,-0.4875,0.1052,-0.7503,-1.5821,rough,15.5,1,4.465
2950,94.40,2.9752,-5.8360,-0.4875,0.1242,-0.7476,-1.6165,rough,15.5,1,4.464
2960,94.72,2.9745,-5.8402,-0.4835,0.1084,-0.7480,-1.5893,rough,15.5,1,4.461
2970,95.04,2.9743,-5.8372,-0.4859,0.1127,-0.7491,-1.5956,rough,15.5,1,4.463
2980,95.36,2.9741,-5.8372,-0.4859,0.1105,-0.7495,-1.5926,rough,15.5,1,4.463
2990,95.68,2.9742,-5.8369,-0.4863,0.1147,-0.7490,-1.5988,rough,15.5,1,4.463
3000,96.00,2.9730,-5.8405,-0.4831,0.1043,-0.7496,-1.5835,rough,15.5,1,4.460
3010,96.32,2.9736,-5.8361,-0.4871,0.1141,-0.7490,-1.5979,rough,15.5,1,4.463
3020,96.64,2.9729,-5.8373,-0.4861,0.1121,-0.7493,-1.5949,rough,15.5,1,4.462
3030,96.96,2.9756,-5.8362,-0.4868,0.1131,-0.7487,-1.5964,rough,15.5,1,4.465
3040,97.28,2.9732,-5.8363,-0.4869,0.1160,-0.7488,-1.6008,rough,15.5,1,4.462
3050,97.60,2.9721,-5.8380,-0.4856,0.1046,-0.7497,-1.5839,rough,15.5,1,4.461
3060,97.92,2.9745,-5.8480,-0.4762,0.0948,-0.7498,-1.5696,rough,15.5,1,4.457
3070,98.24,2.9764,-5.8358,-0.4887,0.0887,-0.7510,-1.5725,rough,15.5,1,4.465
3080,98.56,2.9750,-5.8349,-0.4882,0.1256,-0.7475,-1.6161,rough,15.5,1,4.465
3090,98.88,2.9745,-5.8402,-0.4834,0.1085,-0.7480,-1.5895,rough,15.5,1,4.461
3100,99.20,2.9738,-5.8377,-0.4855,0.1090,-0.7496,-1.5902,rough,15.5,1,4.462
3110,99.52,2.9728,-5.8358,-0.4874,0.1129,-0.7492,-1.5960,rough,15.5,1,4.462
3120,99.84,2.9723,-5.8360,-0.4873,0.1094,-0.7496,-1.5910,rough,15.5,1,4.462
3130,100.16,2.9737,-5.8414,-0.4823,0.1041,-0.7492,-1.5832,rough,15.5,1,4.460
3140,100.48,2.9745,-5.8371,-0.4860,0.1132,-0.7491,-1.5965,rough,15.5,1,4.463
3150,100.80,2.9739,-5.8369,-0.4862,0.1091,-0.7497,-1.5904,rough,15.5,1,4.463
3160,101.12,2.9735,-5.8407,-0.4830,0.1077,-0.7490,-1.5884,rough,15.5,1,4.460
3170,101.44,2.9725,-5.8364,-0.4869,0.1077,-0.7498,-1.5884,rough,15.5,1,4.462
3180,101.76,2.9739,-5.8374,-0.4858,0.1121,-0.7493,-1.5949,rough,15.5,1,4.462
3190,102.08,2.9734,-5.8372,-0.4860,0.1082,-0.7498,-1.5892,rough,15.5,1,4.462
3200,102.40,2.9738,-5.8371,-0.4861,0.1117,-0.7494,-1.5944,rough,15.5,1,4.463
3210,102.72,2.9752,-5.8358,-0.4871,0.1152,-0.7490,-1.5994,rough,15.5,1,4.464
3220,103.04,2.9734,-5.8414,-0.4823,0.1067,-0.7489,-1.5870,rough,15.5,1,4.460
3230,103.36,2.9727,-5.8380,-0.4853,0.1077,-0.7499,-1.5884,rough,15.5,1,4.461
3240,103.68,2.9728,-5.8374,-0.4859,0.1084,-0.7497,-1.5896,rough,15.5,1,4.462
3250,104.00,2.9730,-5.8369,-0.4864,0.1089,-0.7497,-1.5903,rough,15.5,1,4.462
3260,104.32,2.9734,-5.8374,-0.4859,0.1127,-0.7492,-1.5959,rough,15.5,1,4.462
3270,104.64,2.9759,-5.8364,-0.4867,0.1132,-0.7485,-1.5966,rough,15.5,1,4.465
3280,104.96,2.9733,-5.8362,-0.4870,0.1162,-0.7487,-1.6009,rough,15.5,1,4.463
3290,105.28,2.9720,-5.8376,-0.4859,0.1049,-0.7497,-1.5843,rough,15.5,1,4.461
3300,105.60,2.9746,-5.8397,-0.4840,0.0965,-0.7488,-1.5720,rough,15.5,1,4.462
3310,105.92,2.9760,-5.8348,-0.4880,0.1226,-0.7477,-1.6106,rough,15.5,1,4.466
3320,106.24,2.9743,-5.8364,-0.4878,0.0974,-0.7453,-1.5731,rough,15.5,1,4.463
3330,106.56,2.9746,-5.8344,-0.4886,0.1252,-0.7473,-1.6144,rough,15.5,1,4.465
3340,106.88,2.9751,-5.8390,-0.4844,0.1014,-0.7489,-1.5791,rough,15.5,1,4.463
3350,107.20,2.9770,-5.8354,-0.4873,0.1181,-0.7484,-1.6037,rough,15.5,1,4.466
3360,107.52,2.9725,-5.8371,-0.4862,0.1127,-0.7497,-1.5958,rough,15.5,1,4.462
3370,107.84,2.9754,-5.8369,-0.4861,0.1064,-0.7495,-1.5865,rough,15.5,1,4.464
3380,108.16,2.9748,-5.8372,-0.4858,0.1193,-0.7483,-1.6057,rough,15.5,1,4.463
3390,108.48,2.9729,-5.8410,-0.4828,0.1057,-0.7493,-1.5855,rough,15.5,1,4.460
3400,108.80,2.9740,-5.8463,-0.4781,0.0935,-0.7486,-1.5680,rough,15.5,1,4.458
3410,109.12,2.9744,-5.8362,-0.4869,0.0946,-0.7509,-1.5693,rough,15.5,1,4.464
3420,109.44,2.9760,-5.8371,-0.4867,0.1167,-0.7485,-1.6074,rough,15.5,1,4.464
3430,109.76,2.9747,-5.8377,-0.4863,0.1056,-0.7455,-1.5849,rough,15.5,1,4.463
3440,110.08,2.9727,-5.8363,-0.4870,0.1122,-0.7491,-1.5947,rough,15.5,1,4.462
3450,110.40,2.9742,-5.8371,-0.4860,0.1075,-0.7499,-1.5881,rough,15.5,1,4.463
3460,110.72,2.9729,-5.8355,-0.4877,0.1131,-0.7492,-1.5965,rough,15.5,1,4.463
3470,111.04,2.9737,-5.8416,-0.4821,0.1055,-0.7491,-1.5853,rough,15.5,1,4.460
3480,111.36,2.9731,-5.8369,-0.4863,0.1066,-0.7499,-1.5867,rough,15.5,1,4.462
3490,111.68,2.9742,-5.8372,-0.4859,0.1143,-0.7491,-1.5982,rough,15.5,1,4.463
3500,112.00,2.9751,-5.8372,-0.4860,0.1056,-0.7493,-1.5853,rough,15.5,1,4.464
3510,112.32,2.9748,-5.8373,-0.4858,0.1189,-0.7484,-1.6050,rough,15.5,1,4.463
3520,112.64,2.9728,-5.8407,-0.4830,0.1058,-0.7493,-1.5857,rough,15.5,1,4.460
3530,112.96,2.9745,-5.8466,-0.4777,0.0945,-0.7490,-1.5694,rough,15.5,1,4.458
3540,113.28,2.9750,-5.8369,-0.4856,0.1014,-0.7506,-1.5765,rough,15.5,1,4.464
3550,113.60,2.9755,-5.8359,-0.4873,0.1187,-0.7483,-1.6066,rough,15.5,1,4.465
3560,113.92,2.9747,-5.8375,-0.4865,0.1060,-0.7455,-1.5852,rough,15.5,1,4.463
3570,114.24,2.9719,-5.8369,-0.4865,0.1077,-0.7496,-1.5881,rough,15.5,1,4.461
3580,114.56,2.9731,-5.8369,-0.4864,0.1100,-0.7495,-1.5918,rough,15.5,1,4.462
3590,114.88,2.9734,-5.8373,-0.4860,0.1113,-0.7494,-1.5939,rough,15.5,1,4.462
3600,115.20,2.9744,-5.8406,-0.4831,0.1053,-0.7485,-1.5849,rough,15.5,1,4.461
3610,115.52,2.9729,-5.8359,-0.4873,0.1130,-0.7491,-1.5961,rough,15.5,1,4.462
3620,115.84,2.9733,-5.8371,-0.4862,0.1115,-0.7494,-1.5941,rough,15.5,1,4.462
3630,116.16,2.9745,-5.8399,-0.4837,0.1093,-0.7483,-1.5908,rough,15.5,1,4.462
3640,116.48,2.9734,-5.8376,-0.4856,0.1095,-0.7495,-1.5908,rough,15.5,1,4.462
3650,116.80,2.9743,-5.8366,-0.4865,0.1097,-0.7497,-1.5912,rough,15.5,1,4.463
3660,117.12,2.9727,-5.8364,-0.4869,0.1103,-0.7495,-1.5924,rough,15.5,1,4.462
3670,117.44,2.9723,-5.8360,-0.4873,0.1093,-0.7496,-1.5909,rough,15.5,1,4.462
3680,117.76,2.9739,-5.8356,-0.4875,0.1168,-0.7488,-1.6019,rough,15.5,1,4.463
3690,118.08,2.9744,-5.8402,-0.4834,0.1084,-0.7481,-1.5893,rough,15.5,1,4.461
3700,118.40,2.9737,-5.8378,-0.4854,0.1093,-0.7497,-1.5908,rough,15.5,1,4.462
3710,118.72,2.9738,-5.8377,-0.4856,0.1102,-0.7496,-1.5922,rough,15.5,1,4.462
3720,119.04,2.9730,-5.8376,-0.4858,0.1057,-0.7501,-1.5855,rough,15.5,1,4.462
3730,119.36,2.9739,-5.8366,-0.4866,0.1103,-0.7496,-1.5923,rough,15.5,1,4.463
3740,119.68,2.9754,-5.8375,-0.4857,0.1057,-0.7490,-1.5855,rough,15.5,1,4.464
3750,120.00,2.9750,-5.8373,-0.4858,0.1190,-0.7483,-1.6052,rough,15.5,1,4.463
3760,120.32,2.9728,-5.8404,-0.4833,0.1062,-0.7493,-1.5862,rough,15.5,1,4.460
3770,120.64,2.9738,-5.8384,-0.4861,0.0919,-0.7452,-1.5650,rough,15.5,1,4.462
3780,120.96,2.9762,-5.8359,-0.4870,0.1157,-0.7485,-1.6004,rough,15.5,1,4.465
3790,121.28,2.9733,-5.8366,-0.4866,0.1157,-0.7489,-1.6002,rough,15.5,1,4.462
3800,121.60,2.9750,-5.8354,-0.4876,0.1185,-0.7480,-1.6045,rough,15.5,1,4.465
3810,121.92,2.9756,-5.8391,-0.4845,0.1022,-0.7479,-1.5803,rough,15.5,1,4.463
3820,122.24,2.9755,-5.8348,-0.4880,0.1225,-0.7478,-1.6103,rough,15.5,1,4.465
3830,122.56,2.9739,-5.8366,-0.4865,0.1161,-0.7489,-1.6007,rough,15.5,1,4.463
3840,122.88,2.9744,-5.8373,-0.4859,0.0983,-0.7501,-1.5746,rough,15.5,1,4.463
3850,123.20,2.9768,-5.8362,-0.4865,0.1225,-0.7479,-1.6103,rough,15.5,1,4.465
3860,123.52,2.9737,-5.8417,-0.4821,0.1072,-0.7487,-1.5876,rough,15.5,1,4.460
3870,123.84,2.9719,-5.8425,-0.4813,0.1095,-0.7502,-1.5917,rough,15.5,1,4.458
3880,124.16,2.9743,-5.8420,-0.4815,0.0944,-0.7508,-1.5690,rough,15.5,1,4.460
3890,124.48,2.9766,-5.8376,-0.4867,0.1077,-0.7493,-1.5978,rough,15.5,1,4.465
3900,124.80,2.9731,-5.8369,-0.4865,0.1148,-0.7489,-1.5999,rough,15.5,1,4.462
3910,125.12,2.9721,-5.8368,-0.4867,0.1042,-0.7498,-1.5833,rough,15.5,1,4.461
3920,125.44,2.9732,-5.8371,-0.4862,0.1115,-0.7494,-1.5940,rough,15.5,1,4.462
3930,125.76,2.9743,-5.8368,-0.4863,0.1155,-0.7489,-1.6000,rough,15.5,1,4.463
3940,126.08,2.9745,-5.8408,-0.4829,0.1069,-0.7484,-1.5873,rough,15.5,1,4.461
3950,126.40,2.9739,-5.8371,-0.4860,0.1082,-0.7497,-1.5889,rough,15.5,1,4.463
3960,126.72,2.9728,-5.8358,-0.4874,0.1132,-0.7491,-1.5967,rough,15.5,1,4.462
3970,127.04,2.9749,-5.8383,-0.4851,0.1019,-0.7491,-1.5800,rough,15.5,1,4.463
3980,127.36,2.9767,-5.8363,-0.4865,0.1219,-0.7479,-1.6094,rough,15.5,1,4.465
3990,127.68,2.9736,-5.8415,-0.4823,0.1073,-0.7487,-1.5878,rough,15.5,1,4.460
4000,128.00,2.9744,-5.8434,-0.4815,0.0938,-0.7451,-1.5683,rough,15.5,1,4.459
4010,128.32,2.9746,-5.8408,-0.4826,0.0950,-0.7508,-1.5699,rough,15.5,1,4.461
4020,128.64,2.9768,-5.8372,-0.4861,0.1163,-0.7487,-1.6041,rough,15.5,1,4.465
4030,128.96,2.9730,-5.8365,-0.4868,0.1154,-0.7489,-1.6002,rough,15.5,1,4.462
4040,129.28,2.9721,-5.8375,-0.4860,0.1043,-0.7497,-1.5834,rough,15.5,1,4.461
4050,129.60,2.9743,-5.8371,-0.4860,0.1119,-0.7493,-1.5947,rough,15.5,1,4.463
4060,129.92,2.9738,-5.8367,-0.4864,0.1088,-0.7498,-1.5900,rough,15.5,1,4.463
4070,130.24,2.9743,-5.8380,-0.4861,0.1021,-0.7460,-1.5800,rough,15.5,1,4.462
4080,130.56,2.9732,-5.8368,-0.4864,0.1103,-0.7493,-1.5919,rough,15.5,1,4.462
4090,130.88,2.9746,-5.8371,-0.4859,0.1137,-0.7491,-1.5973,rough,15.5,1,4.463
4100,131.20,2.9748,-5.8373,-0.4866,0.1065,-0.7459,-1.5865,rough,15.5,1,4.463
4110,131.52,2.9736,-5.8370,-0.4862,0.1068,-0.7498,-1.5867,rough,15.5,1,4.463
4120,131.84,2.9726,-5.8362,-0.4871,0.1094,-0.7496,-1.5910,rough,15.5,1,4.462
4130,132.16,2.9739,-5.8375,-0.4857,0.1124,-0.7493,-1.5954,rough,15.5,1,4.462
4140,132.48,2.9734,-5.8372,-0.4861,0.1112,-0.7494,-1.5937,rough,15.5,1,4.462
4150,132.80,2.9736,-5.8366,-0.4866,0.1095,-0.7496,-1.5912,rough,15.5,1,4.463
4160,133.12,2.9745,-5.8374,-0.4866,0.1056,-0.7458,-1.5849,rough,15.5,1,4.463
4170,133.44,2.9720,-5.8361,-0.4872,0.1076,-0.7500,-1.5882,rough,15.5,1,4.462
4180,133.76,2.9721,-5.8366,-0.4868,0.1085,-0.7498,-1.5896,rough,15.5,1,4.461
4190,134.08,2.9721,-5.8369,-0.4865,0.1076,-0.7498,-1.5884,rough,15.5,1,4.461
4200,134.40,2.9733,-5.8367,-0.4865,0.1134,-0.7491,-1.5970,rough,15.5,1,4.462
4210,134.72,2.9752,-5.8384,-0.4851,0.1021,-0.7488,-1.5802,rough,15.5,1,4.463
4220,135.04,2.9769,-5.8363,-0.4864,0.1220,-0.7479,-1.6097,rough,15.5,1,4.466
4230,135.36,2.9736,-5.8412,-0.4825,0.1076,-0.7488,-1.5883,rough,15.5,1,4.460
4240,135.68,2.9723,-5.8380,-0.4854,0.1091,-0.7496,-1.5906,rough,15.5,1,4.461
4250,136.00,2.9760,-5.8370,-0.4860,0.1084,-0.7492,-1.5896,rough,15.5,1,4.464
4260,136.32,2.9748,-5.8371,-0.4860,0.1207,-0.7481,-1.6077,rough,15.5,1,4.463
4270,136.64,2.9749,-5.8364,-0.4867,0.1114,-0.7487,-1.5939,rough,15.5,1,4.464
4280,136.96,2.9752,-5.8374,-0.4870,0.0982,-0.7441,-1.5743,rough,15.5,1,4.464
4290,137.28,2.9757,-5.8359,-0.4870,0.1156,-0.7485,-1.6001,rough,15.5,1,4.465
4300,137.60,2.9727,-5.8352,-0.4880,0.1141,-0.7490,-1.5980,rough,15.5,1,4.463
4310,137.92,2.9746,-5.8399,-0.4836,0.0987,-0.7496,-1.5752,rough,15.5,1,4.462
4320,138.24,2.9752,-5.8340,-0.4889,0.1273,-0.7472,-1.6175,rough,15.5,1,4.465
4330,138.56,2.9747,-5.8405,-0.4832,0.1089,-0.7478,-1.5901,rough,15.5,1,4.461
4340,138.88,2.9732,-5.8396,-0.4840,0.1112,-0.7493,-1.5946,rough,15.5,1,4.461
4350,139.20,2.9743,-5.8459,-0.4779,0.0943,-0.7506,-1.5688,rough,15.5,1,4.458
4360,139.52,2.9770,-5.8373,-0.4877,0.0970,-0.7498,-1.5879,rough,15.5,1,4.465
4370,139.84,2.9748,-5.8383,-0.4851,0.1171,-0.7486,-1.6039,rough,15.5,1,4.463
4380,140.16,2.9728,-5.8398,-0.4838,0.1054,-0.7494,-1.5850,rough,15.5,1,4.460
4390,140.48,2.9736,-5.8365,-0.4866,0.1089,-0.7497,-1.5901,rough,15.5,1,4.463
4400,140.80,2.9751,-5.8363,-0.4867,0.1134,-0.7492,-1.5968,rough,15.5,1,4.464
4410,141.12,2.9746,-5.8382,-0.4859,0.1039,-0.7458,-1.5826,rough,15.5,1,4.463
4420,141.44,2.9723,-5.8369,-0.4865,0.1068,-0.7497,-1.5868,rough,15.5,1,4.461
4430,141.76,2.9742,-5.8369,-0.4862,0.1156,-0.7488,-1.6002,rough,15.5,1,4.463
4440,142.08,2.9755,-5.8386,-0.4849,0.1028,-0.7483,-1.5812,rough,15.5,1,4.463
4450,142.40,2.9751,-5.8341,-0.4888,0.1266,-0.7472,-1.6165,rough,15.5,1,4.465
4460,142.72,2.9746,-5.8403,-0.4833,0.1089,-0.7479,-1.5902,rough,15.5,1,4.461
4470,143.04,2.9731,-5.8391,-0.4844,0.1113,-0.7493,-1.5944,rough,15.5,1,4.461
4480,143.36,2.9746,-5.8451,-0.4786,0.0949,-0.7506,-1.5697,rough,15.5,1,4.459
4490,143.68,2.9770,-5.8375,-0.4860,0.1085,-0.7497,-1.5941,rough,15.5,1,4.465
4500,144.00,2.9747,-5.8377,-0.4855,0.1181,-0.7485,-1.6044,rough,15.5,1,4.463
4510,144.32,2.9728,-5.8403,-0.4833,0.1055,-0.7494,-1.5851,rough,15.5,1,4.460
4520,144.64,2.9727,-5.8360,-0.4872,0.1105,-0.7495,-1.5925,rough,15.5,1,4.462
4530,144.96,2.9732,-5.8369,-0.4863,0.1109,-0.7494,-1.5933,rough,15.5,1,4.462
4540,145.28,2.9725,-5.8368,-0.4865,0.1099,-0.7496,-1.5918,rough,15.5,1,4.462
4550,145.60,2.9725,-5.8373,-0.4861,0.1022,-0.7500,-1.5804,rough,15.5,1,4.461
4560,145.92,2.9729,-5.8359,-0.4873,0.1139,-0.7491,-1.5976,rough,15.5,1,4.462
4570,146.24,2.9734,-5.8362,-0.4870,0.1148,-0.7490,-1.5990,rough,15.5,1,4.463
4580,146.56,2.9719,-5.8365,-0.4869,0.1049,-0.7498,-1.5844,rough,15.5,1,4.461
4590,146.88,2.9737,-5.8374,-0.4858,0.1114,-0.7494,-1.5938,rough,15.5,1,4.462
4600,147.20,2.9744,-5.8367,-0.4864,0.1100,-0.7496,-1.5918,rough,15.5,1,4.463
4610,147.52,2.9738,-5.8365,-0.4866,0.1087,-0.7498,-1.5898,rough,15.5,1,4.463
4620,147.84,2.9737,-5.8374,-0.4859,0.1063,-0.7500,-1.5865,rough,15.5,1,4.462
4630,148.16,2.9729,-5.8361,-0.4871,0.1145,-0.7490,-1.5986,rough,15.5,1,4.462
4640,148.48,2.9719,-5.8380,-0.4856,0.1041,-0.7498,-1.5832,rough,15.5,1,4.461
4650,148.80,2.9732,-5.8372,-0.4861,0.1102,-0.7496,-1.5922,rough,15.5,1,4.462
4660,149.12,2.9731,-5.8376,-0.4857,0.1093,-0.7497,-1.5908,rough,15.5,1,4.462
4670,149.44,2.9748,-5.8369,-0.4861,0.1158,-0.7489,-1.6004,rough,15.5,1,4.463
4680,149.76,2.9749,-5.8378,-0.4858,0.0985,-0.7482,-1.5749,rough,15.5,1,4.463
4690,150.08,2.9753,-5.8342,-0.4887,0.1268,-0.7471,-1.6167,rough,15.5,1,4.465
4700,150.40,2.9746,-5.8401,-0.4835,0.1094,-0.7479,-1.5909,rough,15.5,1,4.462
4710,150.72,2.9734,-5.8377,-0.4856,0.1110,-0.7493,-1.5932,rough,15.5,1,4.462
4720,151.04,2.9751,-5.8380,-0.4852,0.1006,-0.7497,-1.5780,rough,15.5,1,4.463
4730,151.36,2.9768,-5.8360,-0.4867,0.1240,-0.7477,-1.6126,rough,15.5,1,4.466
4740,151.68,2.9752,-5.8374,-0.4859,0.1085,-0.7485,-1.5897,rough,15.5,1,4.464
4750,152.00,2.9741,-5.8367,-0.4865,0.1190,-0.7483,-1.6052,rough,15.5,1,4.463
4760,152.32,2.9754,-5.8369,-0.4862,0.1083,-0.7492,-1.5892,rough,15.5,1,4.464
4770,152.64,2.9742,-5.8371,-0.4860,0.1168,-0.7486,-1.6018,rough,15.5,1,4.463
4780,152.96,2.9749,-5.8405,-0.4831,0.0991,-0.7489,-1.5758,rough,15.5,1,4.462
4790,153.28,2.9758,-5.8350,-0.4879,0.1208,-0.7480,-1.6079,rough,15.5,1,4.465
4800,153.60,2.9748,-5.8375,-0.4864,0.1064,-0.7453,-1.5858,rough,15.5,1,4.463
4810,153.92,2.9720,-5.8359,-0.4873,0.1088,-0.7496,-1.5889,rough,15.5,1,4.462
4820,154.24,2.9742,-5.8479,-0.4762,0.0942,-0.7502,-1.5687,rough,15.5,1,4.457
4830,154.56,2.9761,-5.8370,-0.4857,0.1113,-0.7494,-1.5928,rough,15.5,1,4.465
4840,154.88,2.9767,-5.8378,-0.4854,0.1196,-0.7483,-1.6083,rough,15.5,1,4.465
4850,155.20,2.9736,-5.8409,-0.4827,0.1068,-0.7488,-1.5870,rough,15.5,1,4.460
4860,155.52,2.9731,-5.8369,-0.4864,0.1107,-0.7494,-1.5927,rough,15.5,1,4.462
4870,155.84,2.9737,-5.8363,-0.4868,0.1133,-0.7492,-1.5967,rough,15.5,1,4.463
4880,156.16,2.9728,-5.8368,-0.4865,0.1124,-0.7493,-1.5954,rough,15.5,1,4.462
4890,156.48,2.9723,-5.8376,-0.4859,0.1033,-0.7499,-1.5820,rough,15.5,1,4.461
4900,156.80,2.9750,-5.8361,-0.4868,0.1136,-0.7491,-1.5971,rough,15.5,1,4.464
4910,157.12,2.9742,-5.8374,-0.4870,0.0943,-0.7452,-1.5686,rough,15.5,1,4.463
4920,157.44,2.9756,-5.8351,-0.4878,0.1201,-0.7480,-1.6068,rough,15.5,1,4.465
4930,157.76,2.9748,-5.8374,-0.4865,0.1065,-0.7455,-1.5860,rough,15.5,1,4.463
4940,158.08,2.9720,-5.8355,-0.4876,0.1089,-0.7496,-1.5890,rough,15.5,1,4.462
4950,158.40,2.9746,-5.8475,-0.4765,0.0948,-0.7503,-1.5697,rough,15.5,1,4.457
4960,158.72,2.9768,-5.8371,-0.4868,0.0994,-0.7504,-1.5836,rough,15.5,1,4.465
4970,159.04,2.9766,-5.8369,-0.4860,0.1210,-0.7481,-1.6088,rough,15.5,1,4.465
4980,159.36,2.9736,-5.8412,-0.4825,0.1069,-0.7488,-1.5872,rough,15.5,1,4.460
4990,159.68,2.9729,-5.8372,-0.4862,0.1074,-0.7498,-1.5879,rough,15.5,1,4.462
5000,160.00,2.9745,-5.8370,-0.4861,0.1130,-0.7492,-1.5963,rough,15.5,1,4.463
5010,160.32,2.9737,-5.8371,-0.4861,0.1119,-0.7494,-1.5946,rough,15.5,1,4.462
5020,160.64,2.9731,-5.8403,-0.4833,0.1031,-0.7497,-1.5817,rough,15.5,1,4.460
5030,160.96,2.9733,-5.8369,-0.4864,0.1111,-0.7494,-1.5935,rough,15.5,1,4.462
5040,161.28,2.9729,-5.8369,-0.4864,0.1074,-0.7499,-1.5880,rough,15.5,1,4.462
5050,161.60,2.9727,-5.8396,-0.4840,0.1062,-0.7495,-1.5863,rough,15.5,1,4.460
5060,161.92,2.9741,-5.8368,-0.4863,0.1088,-0.7497,-1.5900,rough,15.5,1,4.463
5070,162.24,2.9727,-5.8363,-0.4870,0.1101,-0.7495,-1.5920,rough,15.5,1,4.462
5080,162.56,2.9732,-5.8367,-0.4866,0.1112,-0.7495,-1.5936,rough,15.5,1,4.462
5090,162.88,2.9726,-5.8367,-0.4866,0.1098,-0.7496,-1.5916,rough,15.5,1,4.462
5100,163.20,2.9744,-5.8369,-0.4862,0.1170,-0.7487,-1.6023,rough,15.5,1,4.463
5110,163.52,2.9726,-5.8406,-0.4831,0.1053,-0.7494,-1.5849,rough,15.5,1,4.460
5120,163.84,2.9719,-5.8364,-0.4870,0.1062,-0.7500,-1.5863,rough,15.5,1,4.461
5130,164.16,2.9727,-5.8366,-0.4867,0.1105,-0.7496,-1.5926,rough,15.5,1,4.462
5140,164.48,2.9733,-5.8358,-0.4873,0.1162,-0.7488,-1.6011,rough,15.5,1,4.463
5150,164.80,2.9722,-5.8367,-0.4866,0.1106,-0.7501,-1.5928,rough,15.5,1,4.461
5160,165.12,2.9758,-5.8352,-0.4877,0.1202,-0.7479,-1.6070,rough,15.5,1,4.465
5170,165.44,2.9748,-5.8373,-0.4866,0.1070,-0.7455,-1.5867,rough,15.5,1,4.463
5180,165.76,2.9721,-5.8359,-0.4874,0.1076,-0.7497,-1.5881,rough,15.5,1,4.462
5190,166.08,2.9745,-5.8392,-0.4843,0.0964,-0.7496,-1.5719,rough,15.5,1,4.462
5200,166.40,2.9754,-5.8337,-0.4891,0.1290,-0.7470,-1.6200,rough,15.5,1,4.466
5210,166.72,2.9754,-5.8374,-0.4860,0.1056,-0.7482,-1.5854,rough,15.5,1,4.464
5220,167.04,2.9760,-5.8362,-0.4867,0.1220,-0.7479,-1.6096,rough,15.5,1,4.465
5230,167.36,2.9754,-5.8380,-0.4853,0.1050,-0.7492,-1.5844,rough,15.5,1,4.463
5240,167.68,2.9760,-5.8372,-0.4858,0.1196,-0.7482,-1.6061,rough,15.5,1,4.464
5250,168.00,2.9752,-5.8393,-0.4845,0.0994,-0.7478,-1.5762,rough,15.5,1,4.462
5260,168.32,2.9758,-5.8360,-0.4869,0.1138,-0.7488,-1.5976,rough,15.5,1,4.465
5270,168.64,2.9731,-5.8363,-0.4869,0.1164,-0.7487,-1.6013,rough,15.5,1,4.462
5280,168.96,2.9721,-5.8383,-0.4852,0.1045,-0.7497,-1.5838,rough,15.5,1,4.460
5290,169.28,2.9741,-5.8480,-0.4762,0.0940,-0.7496,-1.5686,rough,15.5,1,4.457
5300,169.60,2.9753,-5.8349,-0.4875,0.1052,-0.7503,-1.5821,rough,15.5,1,4.465
5310,169.92,2.9752,-5.8360,-0.4875,0.1242,-0.7476,-1.6165,rough,15.5,1,4.464
5320,170.24,2.9745,-5.8402,-0.4835,0.1084,-0.7480,-1.5893,rough,15.5,1,4.461
5330,170.56,2.9743,-5.8372,-0.4859,0.1127,-0.7491,-1.5956,rough,15.5,1,4.463
5340,170.88,2.9741,-5.8372,-0.4859,0.1105,-0.7495,-1.5926,rough,15.5,1,4.463
5350,171.20,2.9742,-5.8369,-0.4863,0.1147,-0.7490,-1.5988,rough,15.5,1,4.463
5360,171.52,2.9730,-5.8405,-0.4831,0.1043,-0.7496,-1.5835,rough,15.5,1,4.460
5370,171.84,2.9736,-5.8360,-0.4871,0.1141,-0.7490,-1.5979,rough,15.5,1,4.463
5380,172.16,2.9729,-5.8373,-0.4861,0.1121,-0.7493,-1.5949,rough,15.5,1,4.462
5390,172.48,2.9756,-5.8362,-0.4868,0.1131,-0.7487,-1.5964,rough,15.5,1,4.465
5400,172.80,2.9732,-5.8363,-0.4869,0.1160,-0.7488,-1.6008,rough,15.5,1,4.462
5410,173.12,2.9721,-5.8380,-0.4856,0.1046,-0.7497,-1.5839,rough,15.5,1,4.461
5420,173.44,2.9745,-5.8480,-0.4762,0.0948,-0.7498,-1.5696,rough,15.5,1,4.457
5430,173.76,2.9764,-5.8358,-0.4887,0.0887,-0.7510,-1.5725,rough,15.5,1,4.465
5440,174.08,2.9750,-5.8349,-0.4882,0.1256,-0.7475,-1.6161,rough,15.5,1,4.465
5450,174.40,2.9745,-5.8402,-0.4834,0.1085,-0.7480,-1.5895,rough,15.5,1,4.461
5460,174.72,2.9738,-5.8377,-0.4855,0.1090,-0.7496,-1.5902,rough,15.5,1,4.462
5470,175.04,2.9728,-5.8358,-0.4874,0.1129,-0.7492,-1.5960,rough,15.5,1,4.462
5480,175.36,2.9723,-5.8360,-0.4873,0.1094,-0.7496,-1.5910,rough,15.5,1,4.462
5490,175.68,2.9737,-5.8414,-0.4823,0.1041,-0.7492,-1.5832,rough,15.5,1,4.460
5500,176.00,2.9745,-5.8371,-0.4860,0.1132,-0.7491,-1.5965,rough,15.5,1,4.463
5510,176.32,2.9739,-5.8369,-0.4862,0.1091,-0.7497,-1.5904,rough,15.5,1,4.463
5520,176.64,2.9735,-5.8407,-0.4830,0.1077,-0.7490,-1.5884,rough,15.5,1,4.460
5530,176.96,2.9725,-5.8364,-0.4869,0.1077,-0.7498,-1.5884,rough,15.5,1,4.462
5540,177.28,2.9739,-5.8374,-0.4858,0.1121,-0.7493,-1.5949,rough,15.5,1,4.462
5550,177.60,2.9734,-5.8372,-0.4860,0.1082,-0.7498,-1.5892,rough,15.5,1,4.462
5560,177.92,2.9738,-5.8371,-0.4861,0.1117,-0.7494,-1.5944,rough,15.5,1,4.463
5570,178.24,2.9752,-5.8358,-0.4871,0.1152,-0.7490,-1.5994,rough,15.5,1,4.464
5580,178.56,2.9734,-5.8414,-0.4823,0.1067,-0.7489,-1.5870,rough,15.5,1,4.460
5590,178.88,2.9727,-5.8380,-0.4853,0.1077,-0.7499,-1.5884,rough,15.5,1,4.461
5600,179.20,2.9728,-5.8374,-0.4859,0.1084,-0.7497,-1.5896,rough,15.5,1,4.462
5610,179.52,2.9730,-5.8369,-0.4864,0.1089,-0.7497,-1.5903,rough,15.5,1,4.462
5620,179.84,2.9734,-5.8374,-0.4859,0.1127,-0.7492,-1.5959,rough,15.5,1,4.462
5630,180.16,2.9759,-5.8364,-0.4867,0.1132,-0.7485,-1.5966,rough,15.5,1,4.465
5640,180.48,2.9733,-5.8362,-0.4870,0.1162,-0.7487,-1.6009,rough,15.5,1,4.463
5650,180.80,2.9720,-5.8376,-0.4859,0.1049,-0.7497,-1.5843,rough,15.5,1,4.461
5660,181.12,2.9746,-5.8397,-0.4840,0.0965,-0.7488,-1.5720,rough,15.5,1,4.462
5670,181.44,2.9760,-5.8348,-0.4880,0.1226,-0.7477,-1.6106,rough,15.5,1,4.466
5680,181.76,2.9743,-5.8364,-0.4878,0.0974,-0.7453,-1.5731,rough,15.5,1,4.463
5690,182.08,2.9746,-5.8344,-0.4886,0.1252,-0.7473,-1.6144,rough,15.5,1,4.465
5700,182.40,2.9751,-5.8390,-0.4844,0.1014,-0.7489,-1.5791,rough,15.5,1,4.463
5710,182.72,2.9770,-5.8354,-0.4873,0.1181,-0.7484,-1.6037,rough,15.5,1,4.466
5720,183.04,2.9725,-5.8371,-0.4862,0.1127,-0.7497,-1.5958,rough,15.5,1,4.462
5730,183.36,2.9754,-5.8369,-0.4861,0.1064,-0.7495,-1.5865,rough,15.5,1,4.464
5740,183.68,2.9748,-5.8372,-0.4858,0.1193,-0.7483,-1.6057,rough,15.5,1,4.463
5750,184.00,2.9729,-5.8410,-0.4828,0.1057,-0.7493,-1.5855,rough,15.5,1,4.460
5760,184.32,2.9740,-5.8463,-0.4781,0.0935,-0.7486,-1.5680,rough,15.5,1,4.458
5770,184.64,2.9744,-5.8362,-0.4869,0.0946,-0.7509,-1.5693,rough,15.5,1,4.464
5780,184.96,2.9760,-5.8371,-0.4867,0.1167,-0.7485,-1.6074,rough,15.5,1,4.464
5790,185.28,2.9747,-5.8377,-0.4863,0.1056,-0.7455,-1.5849,rough,15.5,1,4.463
5800,185.60,2.9727,-5.8362,-0.4870,0.1122,-0.7491,-1.5947,rough,15.5,1,4.462
5810,185.92,2.9742,-5.8371,-0.4860,0.1075,-0.7499,-1.5881,rough,15.5,1,4.463
5820,186.24,2.9729,-5.8355,-0.4877,0.1131,-0.7492,-1.5965,rough,15.5,1,4.463
5830,186.56,2.9737,-5.8416,-0.4821,0.1055,-0.7491,-1.5853,rough,15.5,1,4.460
5840,186.88,2.9731,-5.8369,-0.4863,0.1066,-0.7499,-1.5867,rough,15.5,1,4.462
5850,187.20,2.9742,-5.8372,-0.4859,0.1143,-0.7491,-1.5982,rough,15.5,1,4.463
5860,187.52,2.9751,-5.8372,-0.4860,0.1056,-0.7493,-1.5853,rough,15.5,1,4.464
5870,187.84,2.9748,-5.8373,-0.4858,0.1189,-0.7484,-1.6050,rough,15.5,1,4.463
5880,188.16,2.9728,-5.8407,-0.4830,0.1058,-0.7493,-1.5857,rough,15.5,1,4.460
5890,188.48,2.9745,-5.8466,-0.4777,0.0945,-0.7490,-1.5693,rough,15.5,1,4.458
5900,188.80,2.9750,-5.8369,-0.4856,0.1014,-0.7506,-1.5765,rough,15.5,1,4.464
5910,189.12,2.9755,-5.8359,-0.4873,0.1187,-0.7483,-1.6066,rough,15.5,1,4.465
5920,189.44,2.9747,-5.8375,-0.4865,0.1060,-0.7455,-1.5852,rough,15.5,1,4.463
5930,189.76,2.9719,-5.8369,-0.4865,0.1077,-0.7496,-1.5881,rough,15.5,1,4.461
5940,190.08,2.9731,-5.8369,-0.4864,0.1100,-0.7495,-1.5918,rough,15.5,1,4.462
5950,190.40,2.9734,-5.8373,-0.4860,0.1113,-0.7494,-1.5939,rough,15.5,1,4.462
5960,190.72,2.9744,-5.8406,-0.4831,0.1053,-0.7485,-1.5849,rough,15.5,1,4.461
5970,191.04,2.9729,-5.8359,-0.4873,0.1130,-0.7491,-1.5961,rough,15.5,1,4.462
5980,191.36,2.9733,-5.8371,-0.4862,0.1115,-0.7494,-1.5941,rough,15.5,1,4.462
5990,191.68,2.9745,-5.8399,-0.4837,0.1093,-0.7483,-1.5908,rough,15.5,1,4.462
6000,192.00,2.9734,-5.8376,-0.4856,0.1095,-0.7495,-1.5908,rough,15.5,1,4.462
6010,192.32,2.9743,-5.8366,-0.4865,0.1096,-0.7497,-1.5912,rough,15.5,1,4.463
6020,192.64,2.9727,-5.8364,-0.4869,0.1103,-0.7495,-1.5924,rough,15.5,1,4.462
6030,192.96,2.9723,-5.8360,-0.4873,0.1093,-0.7496,-1.5909,rough,15.5,1,4.462
6040,193.28,2.9739,-5.8356,-0.4875,0.1168,-0.7488,-1.6019,rough,15.5,1,4.463
6050,193.60,2.9744,-5.8402,-0.4834,0.1084,-0.7481,-1.5893,rough,15.5,1,4.461
6060,193.92,2.9737,-5.8378,-0.4854,0.1093,-0.7497,-1.5908,rough,15.5,1,4.462
6070,194.24,2.9738,-5.8377,-0.4856,0.1102,-0.7496,-1.5922,rough,15.5,1,4.462
6080,194.56,2.9730,-5.8376,-0.4858,0.1057,-0.7501,-1.5855,rough,15.5,1,4.462
6090,194.88,2.9739,-5.8366,-0.4866,0.1103,-0.7496,-1.5923,rough,15.5,1,4.463
6100,195.20,2.9754,-5.8375,-0.4857,0.1057,-0.7490,-1.5855,rough,15.5,1,4.464
6110,195.52,2.9750,-5.8373,-0.4858,0.1190,-0.7483,-1.6052,rough,15.5,1,4.463
6120,195.84,2.9728,-5.8404,-0.4833,0.1062,-0.7493,-1.5862,rough,15.5,1,4.460
6130,196.16,2.9738,-5.8384,-0.4861,0.0919,-0.7452,-1.5650,rough,15.5,1,4.462
6140,196.48,2.9762,-5.8359,-0.4870,0.1157,-0.7485,-1.6004,rough,15.5,1,4.465
6150,196.80,2.9733,-5.8366,-0.4866,0.1157,-0.7489,-1.6002,rough,15.5,1,4.462
6160,197.12,2.9750,-5.8354,-0.4876,0.1185,-0.7480,-1.6045,rough,15.5,1,4.465
6170,197.44,2.9756,-5.8391,-0.4845,0.1022,-0.7479,-1.5803,rough,15.5,1,4.463
6180,197.76,2.9755,-5.8348,-0.4880,0.1225,-0.7478,-1.6103,rough,15.5,1,4.465
6190,198.08,2.9739,-5.8366,-0.4865,0.1161,-0.7489,-1.6007,rough,15.5,1,4.463
6200,198.40,2.9744,-5.8373,-0.4859,0.0983,-0.7501,-1.5746,rough,15.5,1,4.463
6210,198.72,2.9768,-5.8362,-0.4865,0.1225,-0.7479,-1.6103,rough,15.5,1,4.465
6220,199.04,2.9737,-5.8417,-0.4821,0.1072,-0.7487,-1.5876,rough,15.5,1,4.460
6230,199.36,2.9719,-5.8425,-0.4813,0.1095,-0.7502,-1.5917,rough,15.5,1,4.458
6240,199.68,2.9743,-5.8420,-0.4815,0.0944,-0.7508,-1.5690,rough,15.5,1,4.460
6250,200.00,2.9766,-5.8376,-0.4867,0.1077,-0.7493,-1.5978,rough,15.5,1,4.465
6260,200.32,2.9731,-5.8369,-0.4865,0.1148,-0.7489,-1.5999,rough,15.5,1,4.462
6270,200.64,2.9721,-5.8368,-0.4867,0.1042,-0.7498,-1.5833,rough,15.5,1,4.461
6280,200.96,2.9732,-5.8371,-0.4862,0.1115,-0.7494,-1.5940,rough,15.5,1,4.462
6290,201.28,2.9743,-5.8368,-0.4863,0.1155,-0.7489,-1.6000,rough,15.5,1,4.463
6300,201.60,2.9745,-5.8408,-0.4829,0.1069,-0.7484,-1.5873,rough,15.5,1,4.461
6310,201.92,2.9739,-5.8371,-0.4860,0.1082,-0.7497,-1.5889,rough,15.5,1,4.463
6320,202.24,2.9728,-5.8358,-0.4874,0.1132,-0.7491,-1.5967,rough,15.5,1,4.462
6330,202.56,2.9749,-5.8383,-0.4851,0.1019,-0.7491,-1.5800,rough,15.5,1,4.463
6340,202.88,2.9767,-5.8363,-0.4865,0.1219,-0.7479,-1.6094,rough,15.5,1,4.465
6350,203.20,2.9736,-5.8415,-0.4823,0.1073,-0.7487,-1.5878,rough,15.5,1,4.460
6360,203.52,2.9744,-5.8434,-0.4815,0.0938,-0.7451,-1.5683,rough,15.5,1,4.459
6370,203.84,2.9746,-5.8408,-0.4826,0.0950,-0.7508,-1.5699,rough,15.5,1,4.461
6380,204.16,2.9768,-5.8372,-0.4861,0.1163,-0.7487,-1.6041,rough,15.5,1,4.465
6390,204.48,2.9730,-5.8365,-0.4868,0.1154,-0.7489,-1.6002,rough,15.5,1,4.462
6400,204.80,2.9721,-5.8375,-0.4860,0.1043,-0.7497,-1.5834,rough,15.5,1,4.461
6410,205.12,2.9743,-5.8371,-0.4860,0.1119,-0.7493,-1.5947,rough,15.5,1,4.463
6420,205.44,2.9738,-5.8367,-0.4864,0.1088,-0.7498,-1.5900,rough,15.5,1,4.463
6430,205.76,2.9743,-5.8380,-0.4861,0.1021,-0.7460,-1.5800,rough,15.5,1,4.462
6440,206.08,2.9732,-5.8368,-0.4864,0.1103,-0.7493,-1.5919,rough,15.5,1,4.462
6450,206.40,2.9746,-5.8371,-0.4859,0.1137,-0.7491,-1.5973,rough,15.5,1,4.463
6460,206.72,2.9748,-5.8373,-0.4866,0.1065,-0.7459,-1.5865,rough,15.5,1,4.463
6470,207.04,2.9736,-5.8370,-0.4862,0.1068,-0.7498,-1.5867,rough,15.5,1,4.463
6480,207.36,2.9726,-5.8362,-0.4871,0.1094,-0.7496,-1.5910,rough,15.5,1,4.462
6490,207.68,2.9739,-5.8375,-0.4857,0.1124,-0.7493,-1.5954,rough,15.5,1,4.462
6500,208.00,2.9734,-5.8372,-0.4861,0.1112,-0.7494,-1.5937,rough,15.5,1,4.462
6510,208.32,2.9736,-5.8366,-0.4866,0.1095,-0.7496,-1.5912,rough,15.5,1,4.463
6520,208.64,2.9745,-5.8374,-0.4866,0.1056,-0.7458,-1.5849,rough,15.5,1,4.463
6530,208.96,2.9720,-5.8361,-0.4872,0.1076,-0.7500,-1.5882,rough,15.5,1,4.462
6540,209.28,2.9721,-5.8366,-0.4868,0.1085,-0.7498,-1.5896,rough,15.5,1,4.461
6550,209.60,2.9721,-5.8369,-0.4865,0.1076,-0.7498,-1.5884,rough,15.5,1,4.461
6560,209.92,2.9733,-5.8367,-0.4865,0.1134,-0.7491,-1.5970,rough,15.5,1,4.462
6570,210.24,2.9752,-5.8384,-0.4851,0.1021,-0.7488,-1.5802,rough,15.5,1,4.463
6580,210.56,2.9769,-5.8363,-0.4864,0.1220,-0.7479,-1.6097,rough,15.5,1,4.466
6590,210.88,2.9736,-5.8412,-0.4825,0.1076,-0.7488,-1.5883,rough,15.5,1,4.460
6600,211.20,2.9723,-5.8380,-0.4854,0.1091,-0.7496,-1.5906,rough,15.5,1,4.461
6610,211.52,2.9760,-5.8370,-0.4860,0.1084,-0.7492,-1.5896,rough,15.5,1,4.464
6620,211.84,2.9748,-5.8371,-0.4860,0.1207,-0.7481,-1.6077,rough,15.5,1,4.463
6630,212.16,2.9749,-5.8364,-0.4867,0.1114,-0.7487,-1.5939,rough,15.5,1,4.464
6640,212.48,2.9752,-5.8374,-0.4870,0.0982,-0.7441,-1.5743,rough,15.5,1,4.464
6650,212.80,2.9757,-5.8359,-0.4870,0.1156,-0.7485,-1.6001,rough,15.5,1,4.465
6660,213.12,2.9727,-5.8352,-0.4880,0.1141,-0.7490,-1.5980,rough,15.5,1,4.463
6670,213.44,2.9746,-5.8399,-0.4836,0.0987,-0.7496,-1.5752,rough,15.5,1,4.462
6680,213.76,2.9752,-5.8340,-0.4889,0.1273,-0.7472,-1.6175,rough,15.5,1,4.465
6690,214.08,2.9747,-5.8405,-0.4832,0.1089,-0.7478,-1.5901,rough,15.5,1,4.461
6700,214.40,2.9732,-5.8396,-0.4840,0.1112,-0.7493,-1.5946,rough,15.5,1,4.461
6710,214.72,2.9743,-5.8459,-0.4779,0.0943,-0.7506,-1.5688,rough,15.5,1,4.458
6720,215.04,2.9770,-5.8373,-0.4877,0.0970,-0.7498,-1.5879,rough,15.5,1,4.465
6730,215.36,2.9748,-5.8383,-0.4851,0.1171,-0.7486,-1.6039,rough,15.5,1,4.463
6740,215.68,2.9728,-5.8398,-0.4838,0.1054,-0.7494,-1.5850,rough,15.5,1,4.460
6750,216.00,2.9736,-5.8365,-0.4866,0.1089,-0.7497,-1.5901,rough,15.5,1,4.463
6760,216.32,2.9751,-5.8363,-0.4867,0.1134,-0.7492,-1.5968,rough,15.5,1,4.464
6770,216.64,2.9746,-5.8382,-0.4859,0.1039,-0.7458,-1.5826,rough,15.5,1,4.463
6780,216.96,2.9723,-5.8369,-0.4865,0.1068,-0.7497,-1.5868,rough,15.5,1,4.461
6790,217.28,2.9742,-5.8369,-0.4862,0.1156,-0.7488,-1.6002,rough,15.5,1,4.463
6800,217.60,2.9755,-5.8386,-0.4849,0.1028,-0.7483,-1.5812,rough,15.5,1,4.463
6810,217.92,2.9751,-5.8341,-0.4888,0.1266,-0.7472,-1.6165,rough,15.5,1,4.465
6820,218.24,2.9746,-5.8403,-0.4833,0.1089,-0.7479,-1.5902,rough,15.5,1,4.461
6830,218.56,2.9731,-5.8391,-0.4844,0.1113,-0.7493,-1.5944,rough,15.5,1,4.461
6840,218.88,2.9746,-5.8451,-0.4786,0.0949,-0.7506,-1.5697,rough,15.5,1,4.459
6850,219.20,2.9770,-5.8375,-0.4860,0.1085,-0.7497,-1.5941,rough,15.5,1,4.465
6860,219.52,2.9747,-5.8377,-0.4855,0.1181,-0.7485,-1.6044,rough,15.5,1,4.463
6870,219.84,2.9728,-5.8403,-0.4833,0.1055,-0.7494,-1.5851,rough,15.5,1,4.460
6880,220.16,2.9727,-5.8360,-0.4872,0.1105,-0.7495,-1.5925,rough,15.5,1,4.462
6890,220.48,2.9732,-5.8369,-0.4863,0.1109,-0.7494,-1.5933,rough,15.5,1,4.462
6900,220.80,2.9725,-5.8368,-0.4865,0.1099,-0.7496,-1.5918,rough,15.5,1,4.462
6910,221.12,2.9725,-5.8373,-0.4861,0.1022,-0.7500,-1.5804,rough,15.5,1,4.461
6920,221.44,2.9729,-5.8359,-0.4873,0.1139,-0.7491,-1.5976,rough,15.5,1,4.462
6930,221.76,2.9734,-5.8362,-0.4870,0.1148,-0.7490,-1.5990,rough,15.5,1,4.463
6940,222.08,2.9719,-5.8365,-0.4869,0.1049,-0.7498,-1.5844,rough,15.5,1,4.461
6950,222.40,2.9737,-5.8374,-0.4858,0.1114,-0.7494,-1.5938,rough,15.5,1,4.462
6960,222.72,2.9744,-5.8367,-0.4864,0.1100,-0.7496,-1.5918,rough,15.5,1,4.463
6970,223.04,2.9738,-5.8365,-0.4866,0.1087,-0.7498,-1.5898,rough,15.5,1,4.463
6980,223.36,2.9737,-5.8374,-0.4859,0.1063,-0.7500,-1.5865,rough,15.5,1,4.462
6990,223.68,2.9729,-5.8361,-0.4871,0.1145,-0.7490,-1.5986,rough,15.5,1,4.462
7000,224.00,2.9719,-5.8380,-0.4856,0.1041,-0.7498,-1.5832,rough,15.5,1,4.461
7010,224.32,2.9732,-5.8372,-0.4861,0.1102,-0.7496,-1.5922,rough,15.5,1,4.462
7020,224.64,2.9731,-5.8376,-0.4857,0.1093,-0.7497,-1.5908,rough,15.5,1,4.462
7030,224.96,2.9748,-5.8369,-0.4861,0.1158,-0.7489,-1.6004,rough,15.5,1,4.463
7040,225.28,2.9749,-5.8378,-0.4858,0.0985,-0.7482,-1.5749,rough,15.5,1,4.463
7050,225.60,2.9753,-5.8342,-0.4887,0.1268,-0.7471,-1.6167,rough,15.5,1,4.465
7060,225.92,2.9746,-5.8401,-0.4835,0.1094,-0.7479,-1.5909,rough,15.5,1,4.462
7070,226.24,2.9734,-5.8377,-0.4856,0.1110,-0.7493,-1.5932,rough,15.5,1,4.462
7080,226.56,2.9751,-5.8380,-0.4852,0.1006,-0.7497,-1.5780,rough,15.5,1,4.463
7090,226.88,2.9768,-5.8360,-0.4867,0.1240,-0.7477,-1.6126,rough,15.5,1,4.466
7100,227.20,2.9752,-5.8374,-0.4859,0.1085,-0.7485,-1.5897,rough,15.5,1,4.464
7110,227.52,2.9741,-5.8367,-0.4865,0.1190,-0.7483,-1.6052,rough,15.5,1,4.463
7120,227.84,2.9754,-5.8369,-0.4862,0.1083,-0.7492,-1.5892,rough,15.5,1,4.464
7130,228.16,2.9742,-5.8371,-0.4860,0.1168,-0.7486,-1.6018,rough,15.5,1,4.463
7140,228.48,2.9749,-5.8405,-0.4831,0.0991,-0.7489,-1.5758,rough,15.5,1,4.462
7150,228.80,2.9758,-5.8350,-0.4879,0.1208,-0.7480,-1.6079,rough,15.5,1,4.465
7160,229.12,2.9748,-5.8375,-0.4864,0.1064,-0.7453,-1.5858,rough,15.5,1,4.463
7170,229.44,2.9720,-5.8359,-0.4873,0.1088,-0.7496,-1.5889,rough,15.5,1,4.462
7180,229.76,2.9742,-5.8479,-0.4762,0.0942,-0.7502,-1.5687,rough,15.5,1,4.457
7190,230.08,2.9761,-5.8369,-0.4858,0.1113,-0.7494,-1.5928,rough,15.5,1,4.465
7200,230.40,2.9767,-5.8378,-0.4854,0.1196,-0.7483,-1.6083,rough,15.5,1,4.465
7210,230.72,2.9736,-5.8410,-0.4827,0.1068,-0.7488,-1.5870,rough,15.5,1,4.460
7220,231.04,2.9731,-5.8369,-0.4864,0.1107,-0.7494,-1.5927,rough,15.5,1,4.462
7230,231.36,2.9737,-5.8363,-0.4868,0.1133,-0.7492,-1.5967,rough,15.5,1,4.463
7240,231.68,2.9728,-5.8368,-0.4865,0.1124,-0.7493,-1.5954,rough,15.5,1,4.462
7250,232.00,2.9723,-5.8376,-0.4859,0.1033,-0.7499,-1.5820,rough,15.5,1,4.461
7260,232.32,2.9750,-5.8361,-0.4868,0.1136,-0.7491,-1.5971,rough,15.5,1,4.464
7270,232.64,2.9742,-5.8374,-0.4870,0.0943,-0.7452,-1.5686,rough,15.5,1,4.463
7280,232.96,2.9756,-5.8351,-0.4878,0.1201,-0.7480,-1.6068,rough,15.5,1,4.465
7290,233.28,2.9748,-5.8374,-0.4865,0.1065,-0.7455,-1.5860,rough,15.5,1,4.463
7300,233.60,2.9720,-5.8355,-0.4876,0.1089,-0.7496,-1.5890,rough,15.5,1,4.462
7310,233.92,2.9746,-5.8475,-0.4765,0.0948,-0.7503,-1.5697,rough,15.5,1,4.457
7320,234.24,2.9768,-5.8371,-0.4868,0.0994,-0.7504,-1.5836,rough,15.5,1,4.465
7330,234.56,2.9766,-5.8369,-0.4860,0.1210,-0.7481,-1.6088,rough,15.5,1,4.465
7340,234.88,2.9736,-5.8412,-0.4825,0.1069,-0.7488,-1.5872,rough,15.5,1,4.460
7350,235.20,2.9729,-5.8372,-0.4862,0.1074,-0.7498,-1.5879,rough,15.5,1,4.462
7360,235.52,2.9745,-5.8370,-0.4861,0.1130,-0.7492,-1.5963,rough,15.5,1,4.463
7370,235.84,2.9737,-5.8371,-0.4861,0.1119,-0.7494,-1.5946,rough,15.5,1,4.462
7380,236.16,2.9731,-5.8403,-0.4833,0.1031,-0.7497,-1.5817,rough,15.5,1,4.460
7390,236.48,2.9733,-5.8369,-0.4864,0.1111,-0.7494,-1.5935,rough,15.5,1,4.462
7400,236.80,2.9729,-5.8369,-0.4864,0.1074,-0.7499,-1.5880,rough,15.5,1,4.462
7410,237.12,2.9727,-5.8396,-0.4840,0.1062,-0.7495,-1.5863,rough,15.5,1,4.460
7420,237.44,2.9741,-5.8368,-0.4863,0.1088,-0.7497,-1.5900,rough,15.5,1,4.463
7430,237.76,2.9727,-5.8363,-0.4870,0.1101,-0.7495,-1.5920,rough,15.5,1,4.462
7440,238.08,2.9732,-5.8366,-0.4866,0.1112,-0.7495,-1.5936,rough,15.5,1,4.462
7450,238.40,2.9726,-5.8367,-0.4866,0.1098,-0.7496,-1.5916,rough,15.5,1,4.462
7460,238.72,2.9744,-5.8369,-0.4862,0.1170,-0.7487,-1.6023,rough,15.5,1,4.463
7470,239.04,2.9726,-5.8406,-0.4831,0.1053,-0.7494,-1.5849,rough,15.5,1,4.460
7480,239.36,2.9719,-5.8364,-0.4870,0.1062,-0.7500,-1.5863,rough,15.5,1,4.461
7490,239.68,2.9727,-5.8366,-0.4867,0.1105,-0.7496,-1.5926,rough,15.5,1,4.462
7500,240.00,2.9733,-5.8358,-0.4873,0.1162,-0.7488,-1.6011,rough,15.5,1,4.463
7510,240.32,2.9722,-5.8367,-0.4866,0.1106,-0.7501,-1.5928,rough,15.5,1,4.461
7520,240.64,2.9758,-5.8352,-0.4877,0.1202,-0.7479,-1.6070,rough,15.5,1,4.465
7530,240.96,2.9748,-5.8373,-0.4866,0.1070,-0.7455,-1.5867,rough,15.5,1,4.463
7540,241.28,2.9721,-5.8359,-0.4874,0.1076,-0.7497,-1.5881,rough,15.5,1,4.462
7550,241.60,2.9745,-5.8392,-0.4843,0.0964,-0.7496,-1.5719,rough,15.5,1,4.462
7560,241.92,2.9754,-5.8337,-0.4891,0.1290,-0.7470,-1.6200,rough,15.5,1,4.466
7570,242.24,2.9754,-5.8374,-0.4860,0.1056,-0.7482,-1.5854,rough,15.5,1,4.464
7580,242.56,2.9760,-5.8362,-0.4867,0.1220,-0.7479,-1.6096,rough,15.5,1,4.465
7590,242.88,2.9754,-5.8380,-0.4853,0.1050,-0.7492,-1.5844,rough,15.5,1,4.463
7600,243.20,2.9760,-5.8372,-0.4858,0.1196,-0.7482,-1.6061,rough,15.5,1,4.464
7610,243.52,2.9752,-5.8393,-0.4845,0.0994,-0.7478,-1.5762,rough,15.5,1,4.462
7620,243.84,2.9758,-5.8360,-0.4869,0.1138,-0.7488,-1.5976,rough,15.5,1,4.465
7630,244.16,2.9731,-5.8363,-0.4869,0.1164,-0.7487,-1.6013,rough,15.5,1,4.462
7640,244.48,2.9721,-5.8383,-0.4852,0.1045,-0.7497,-1.5838,rough,15.5,1,4.460
7650,244.80,2.9741,-5.8480,-0.4762,0.0940,-0.7496,-1.5686,rough,15.5,1,4.457
7660,245.12,2.9753,-5.8349,-0.4875,0.1052,-0.7503,-1.5821,rough,15.5,1,4.465
7670,245.44,2.9752,-5.8360,-0.4875,0.1242,-0.7476,-1.6165,rough,15.5,1,4.464
7680,245.76,2.9745,-5.8402,-0.4835,0.1084,-0.7480,-1.5893,rough,15.5,1,4.461
7690,246.08,2.9743,-5.8372,-0.4859,0.1127,-0.7491,-1.5956,rough,15.5,1,4.463
7700,246.40,2.9741,-5.8372,-0.4859,0.1105,-0.7495,-1.5926,rough,15.5,1,4.463
7710,246.72,2.9742,-5.8369,-0.4863,0.1147,-0.7490,-1.5988,rough,15.5,1,4.463
7720,247.04,2.9730,-5.8405,-0.4831,0.1043,-0.7496,-1.5835,rough,15.5,1,4.460
7730,247.36,2.9736,-5.8360,-0.4871,0.1141,-0.7490,-1.5979,rough,15.5,1,4.463
7740,247.68,2.9729,-5.8373,-0.4861,0.1121,-0.7493,-1.5949,rough,15.5,1,4.462
7750,248.00,2.9756,-5.8362,-0.4868,0.1131,-0.7487,-1.5964,rough,15.5,1,4.465
7760,248.32,2.9732,-5.8363,-0.4869,0.1160,-0.7488,-1.6008,rough,15.5,1,4.462
7770,248.64,2.9721,-5.8380,-0.4856,0.1046,-0.7497,-1.5839,rough,15.5,1,4.461
7780,248.96,2.9745,-5.8480,-0.4762,0.0948,-0.7498,-1.5696,rough,15.5,1,4.457
7790,249.28,2.9764,-5.8358,-0.4887,0.0887,-0.7510,-1.5725,rough,15.5,1,4.465
7800,249.60,2.9750,-5.8349,-0.4882,0.1256,-0.7475,-1.6161,rough,15.5,1,4.465
7810,249.92,2.9745,-5.8402,-0.4834,0.1085,-0.7480,-1.5895,rough,15.5,1,4.461
7820,250.24,2.9738,-5.8377,-0.4855,0.1090,-0.7496,-1.5902,rough,15.5,1,4.462
7830,250.56,2.9728,-5.8358,-0.4874,0.1129,-0.7492,-1.5960,rough,15.5,1,4.462
7840,250.88,2.9723,-5.8360,-0.4873,0.1094,-0.7496,-1.5910,rough,15.5,1,4.462
