step,time_s,x,y,z,roll,pitch,yaw,terrain,speed,target_idx,dist_to_target
10,0.32,0.9962,-0.8083,0.1869,0.1293,-0.1882,0.2510,rough,15.5,0,5.717
20,0.64,1.3751,-0.7276,0.1823,0.1500,-0.0152,0.1746,rough,15.5,0,5.490
30,0.96,1.8096,-0.6917,0.1822,0.1335,0.0121,0.0169,rough,15.5,0,5.211
40,1.28,2.2469,-0.7347,0.1750,0.1190,0.0084,-0.1526,rough,15.5,0,4.892
50,1.60,2.6568,-0.8200,0.1931,0.1491,-0.0711,-0.2342,rough,15.5,0,4.574
60,1.92,3.1322,-0.9547,0.1375,0.1594,0.1403,-0.3310,rough,15.5,0,4.196
70,2.24,3.6162,-1.1083,-0.0095,-0.0266,0.4385,-0.3833,rough,15.5,0,3.825
80,2.56,4.0157,-1.2581,-0.1888,-0.2401,0.2674,-0.5266,rough,15.5,0,3.523
90,2.88,4.3276,-1.4209,-0.2233,-0.2825,-0.2025,-0.5221,rough,15.5,0,3.262
100,3.20,4.6838,-1.6810,-0.2173,-0.0218,0.0578,-0.5976,rough,15.5,0,2.915
110,3.52,5.0328,-1.9725,-0.2509,0.0895,0.0765,-0.7338,rough,15.5,0,2.567
120,3.84,5.3314,-2.2584,-0.2634,0.0605,-0.0345,-0.8713,rough,15.5,0,2.262
130,4.16,5.5485,-2.5799,-0.2024,0.1064,-0.2571,-1.0333,rough,15.5,0,1.951
140,4.48,5.7123,-2.9472,-0.0948,0.2167,-0.2812,-1.1841,rough,15.5,0,1.616
150,4.80,5.8790,-3.3279,-0.0102,0.1259,-0.1127,-1.2540,rough,15.5,0,1.307
160,5.12,6.0417,-3.7151,-0.0377,-0.1374,0.0513,-1.4010,rough,15.5,0,1.065
170,5.44,6.0171,-4.1782,-0.1041,0.1334,0.3232,-1.7180,rough,15.5,1,12.712
180,5.76,5.9076,-4.5757,-0.2514,0.1335,0.3703,-1.8528,rough,15.5,1,13.037
190,6.08,5.7846,-4.9277,-0.3815,-0.0200,0.4384,-2.1267,rough,15.5,1,13.319
200,6.40,5.6356,-5.1404,-0.4685,-0.1721,0.1354,-2.4568,rough,15.5,1,13.466
210,6.72,5.4428,-5.2485,-0.4585,-0.2100,-0.2062,-2.7104,rough,15.5,1,13.504
220,7.04,5.1641,-5.3269,-0.4361,-0.0909,-0.0653,-2.8897,rough,15.5,1,13.489
230,7.36,4.9127,-5.3985,-0.4390,-0.1757,-0.0525,-2.9945,rough,15.5,1,13.483
240,7.68,4.5179,-5.4301,-0.4572,-0.1546,0.1621,2.9525,rough,15.5,1,13.405
250,8.00,4.1596,-5.3445,-0.4869,-0.1482,0.0421,2.8403,rough,15.5,1,13.232
260,8.32,3.7139,-5.1238,-0.6157,0.0572,0.4459,2.6711,rough,15.5,1,12.918
270,8.64,3.3682,-4.9321,-0.7438,-0.0305,0.2219,2.4954,rough,15.5,1,12.662
280,8.96,3.0018,-4.7151,-0.8104,-0.2831,0.1526,2.3770,rough,15.5,1,12.385
290,9.28,2.7265,-4.4511,-0.7884,-0.2212,-0.1534,2.3251,rough,15.5,1,12.082
300,9.60,2.3944,-4.1029,-0.7911,-0.3164,-0.0447,2.2194,rough,15.5,1,11.694
310,9.92,2.0955,-3.7733,-0.7977,-0.4407,0.1517,2.2972,rough,15.5,1,11.334
320,10.24,1.8647,-3.5786,-0.7757,-0.4635,-0.4210,2.3694,rough,15.5,1,11.121
330,10.56,1.6241,-3.3087,-0.6616,-0.1899,-0.3958,2.3210,rough,15.5,1,10.835
340,10.88,1.3985,-3.0695,-0.5146,-0.1676,-0.4921,2.1949,rough,15.5,1,10.586
350,11.20,1.1786,-2.7773,-0.3752,-0.0905,-0.3504,2.1726,rough,15.5,1,10.288
360,11.52,0.9320,-2.4307,-0.2309,-0.0994,-0.2593,2.1045,rough,15.5,1,9.941
370,11.84,0.7036,-2.0610,-0.1228,-0.1464,-0.2768,2.0582,rough,15.5,1,9.576
380,12.16,0.5224,-1.6493,0.0050,-0.0578,-0.2811,1.9580,rough,15.5,1,9.172
390,12.48,0.3561,-1.2032,0.1172,-0.0436,-0.1388,1.8772,rough,15.5,1,8.738
400,12.80,0.2143,-0.7478,0.1723,-0.0506,-0.0788,1.8293,rough,15.5,1,8.297
410,13.12,0.0997,-0.2713,0.1925,-0.0373,-0.0242,1.7728,rough,15.5,1,7.835
420,13.44,0.0132,0.2040,0.2059,-0.0090,-0.0352,1.7152,rough,15.5,1,7.375
430,13.76,-0.0498,0.6784,0.2288,0.0028,-0.0661,1.6618,rough,15.5,1,6.914
440,14.08,-0.0999,1.1429,0.2853,-0.0567,-0.1092,1.6414,rough,15.5,1,6.464
450,14.40,-0.1321,1.6069,0.3578,-0.0851,-0.1571,1.6129,rough,15.5,1,6.014
460,14.72,-0.1551,2.0889,0.4223,-0.1058,-0.1365,1.5843,rough,15.5,1,5.547
470,15.04,-0.1516,2.5919,0.4381,-0.0451,-0.0338,1.5352,rough,15.5,1,5.055
480,15.36,-0.0629,3.1572,0.3435,0.3640,0.3948,1.5800,rough,15.5,1,4.485
490,15.68,0.0149,3.7014,0.0863,0.6046,0.5654,1.6359,rough,15.5,1,3.938
500,16.00,0.1037,4.2195,-0.2678,0.6223,0.3610,1.7974,rough,15.5,1,3.415
510,16.32,0.0752,4.6745,-0.4687,0.6387,0.2827,1.8827,rough,15.5,1,2.988
520,16.64,-0.0799,5.1226,-0.6687,0.4135,0.4182,1.8782,rough,15.5,1,2.628
530,16.96,-0.1899,5.5786,-0.9110,0.4003,0.4722,1.8663,rough,15.5,1,2.278
540,17.28,-0.2587,6.0182,-1.1203,0.5208,0.3812,1.8406,rough,15.5,1,1.964
550,17.60,-0.2774,6.3976,-1.2483,0.4998,0.2287,1.5676,rough,15.5,1,1.708
560,17.92,-0.2015,6.7906,-1.3254,0.3413,0.1156,1.2771,rough,15.5,1,1.416
570,18.24,-0.0291,7.1358,-1.3321,0.2971,-0.1195,1.0167,rough,15.5,1,1.113
580,18.56,0.2141,7.4063,-1.2676,0.4277,-0.2877,0.7946,rough,15.5,1,0.811
590,18.88,0.4370,7.4543,-1.2657,0.5176,-0.0664,0.2142,rough,15.5,2,14.913
600,19.20,0.7046,7.3907,-1.2893,0.5205,0.0056,-0.2446,rough,15.5,2,15.012
610,19.52,0.9141,7.2642,-1.3030,0.5050,-0.1824,-0.6375,rough,15.5,2,15.030
620,19.84,1.1359,7.0184,-1.2751,0.4836,-0.1051,-0.9012,rough,15.5,2,14.964
630,20.16,1.3252,6.6834,-1.2779,0.4782,0.0817,-1.0724,rough,15.5,2,14.816
640,20.48,1.4560,6.3260,-1.3165,0.4433,0.0476,-1.2871,rough,15.5,2,14.621
650,20.80,1.5321,5.9067,-1.3686,0.2322,0.1140,-1.4671,rough,15.5,2,14.351
660,21.12,1.6030,5.4874,-1.3861,-0.0179,-0.0394,-1.5473,rough,15.5,2,14.085
670,21.44,1.6258,5.1866,-1.2720,-0.1590,-0.5647,-1.5573,rough,15.5,2,13.880
680,21.76,1.6310,4.8591,-1.1086,-0.2927,-0.6268,-1.5766,rough,15.5,2,13.647
690,22.08,1.6322,4.5863,-0.9034,-0.2857,-0.6794,-1.5371,rough,15.5,2,13.454
700,22.40,1.6411,4.3283,-0.7051,-0.2770,-0.6351,-1.5630,rough,15.5,2,13.280
710,22.72,1.6440,4.0693,-0.5126,-0.2595,-0.6614,-1.5754,rough,15.5,2,13.103
720,23.04,1.6457,3.8005,-0.3422,-0.2276,-0.5011,-1.5862,rough,15.5,2,12.921
730,23.36,1.6529,3.4913,-0.1657,-0.2300,-0.5536,-1.6633,rough,15.5,2,12.720
740,23.68,1.7317,3.3564,-0.1433,-0.2226,-0.5099,-1.6785,rough,15.5,2,12.691
750,24.00,1.7826,3.2363,-0.1349,-0.3288,-0.2569,-1.4731,rough,15.5,2,12.652
760,24.32,1.8463,2.9848,-0.0658,-0.3546,-0.3599,-1.4158,rough,15.5,2,12.541
770,24.64,1.9047,2.6237,0.0315,-0.2533,-0.2890,-1.5151,rough,15.5,2,12.363
780,24.96,1.9155,2.2632,0.1320,-0.1626,-0.2631,-1.5641,rough,15.5,2,12.155
790,25.28,1.9031,1.9137,0.2166,-0.0980,-0.2528,-1.5945,rough,15.5,2,11.942
800,25.60,1.8769,1.5021,0.2928,-0.0303,-0.1571,-1.7496,rough,15.5,2,11.690
810,25.92,1.7741,1.0535,0.3394,-0.0217,-0.0005,-1.8709,rough,15.5,2,11.362
820,26.24,1.6220,0.6110,0.3315,-0.0581,0.0664,-2.0040,rough,15.5,2,11.004
830,26.56,1.4123,0.1951,0.2993,-0.0454,0.0931,-2.1150,rough,15.5,2,10.617
840,26.88,1.1512,-0.2163,0.2478,-0.0325,0.1143,-2.1857,rough,15.5,2,10.193
850,27.20,0.8676,-0.5978,0.1963,-0.0404,0.1020,-2.2553,rough,15.5,2,9.767
860,27.52,0.5763,-0.9639,0.1496,-0.1202,0.0909,-2.3276,rough,15.5,2,9.346
870,27.84,0.2425,-1.3132,0.0996,-0.1477,0.1498,-2.3885,rough,15.5,2,8.898
880,28.16,-0.1094,-1.6440,0.0151,-0.1758,0.1789,-2.4438,rough,15.5,2,8.444
890,28.48,-0.4407,-1.9337,-0.0325,-0.1962,-0.0191,-2.4459,rough,15.5,2,8.027
900,28.80,-0.7802,-2.2133,0.0014,-0.1424,-0.2182,-2.4609,rough,15.5,2,7.610
910,29.12,-1.1396,-2.4878,0.1251,-0.0882,-0.2923,-2.5036,rough,15.5,2,7.177
920,29.44,-1.4949,-2.7169,0.2751,0.0473,-0.4436,-2.5328,rough,15.5,2,6.766
930,29.76,-1.8182,-2.8866,0.4474,0.2182,-0.7263,-2.6243,rough,15.5,2,6.405
940,30.08,-2.0692,-3.0017,0.6788,0.2277,-0.7939,-2.6365,rough,15.5,2,6.131
950,30.40,-2.3089,-3.0577,0.8627,0.2755,-0.7445,-2.4913,rough,15.5,2,5.886
960,30.72,-2.5151,-3.1157,1.0289,0.1917,-0.7538,-2.4246,rough,15.5,2,5.672
970,31.04,-2.6973,-3.2099,1.1708,0.0633,-0.6216,-2.3310,rough,15.5,2,5.469
980,31.36,-3.0124,-3.3387,1.2682,0.3883,-0.2542,-2.4318,rough,15.5,2,5.130
990,31.68,-3.2244,-3.5406,1.3767,0.2155,-0.4170,-2.2025,rough,15.5,2,4.868
1000,32.00,-3.4509,-3.8758,1.5389,0.1490,-0.4252,-2.3037,rough,15.5,2,4.563
1010,32.32,-3.7532,-4.1780,1.7077,0.1582,-0.3139,-2.3945,rough,15.5,2,4.206
1020,32.64,-4.2027,-4.5297,1.6756,0.3099,0.3399,-2.2808,rough,15.5,2,3.712
1030,32.96,-4.5992,-4.8575,1.4380,0.2010,0.3981,-2.2766,rough,15.5,2,3.296
1040,33.28,-4.8992,-5.1813,1.3138,-0.0988,0.3255,-2.4404,rough,15.5,2,3.007
1050,33.60,-5.2169,-5.4132,1.2506,-0.0868,0.0624,-2.5686,rough,15.5,2,2.723
1060,33.92,-5.5990,-5.6404,1.2216,-0.0866,0.0562,-2.7025,rough,15.5,2,2.407
1070,34.24,-5.8871,-5.8236,1.2603,-0.2337,-0.2497,-2.7573,rough,15.5,2,2.203
1080,34.56,-6.2253,-5.9674,1.3658,-0.2200,-0.3513,-2.8737,rough,15.5,2,1.973
1090,34.88,-6.6094,-6.0607,1.4732,-0.1115,-0.2774,-3.0250,rough,15.5,2,1.722
1100,35.20,-6.9636,-6.0962,1.5610,-0.0321,-0.2712,-3.1040,rough,15.5,2,1.504
1110,35.52,-7.3397,-6.0290,1.5877,0.3810,-0.0893,3.0828,rough,15.5,2,1.245
1120,35.84,-7.6765,-5.9055,1.6009,0.4347,-0.1249,2.8326,rough,15.5,2,1.015
1130,36.16,-8.0056,-5.6871,1.6081,0.5377,-0.1025,2.5951,rough,15.5,3,0.899
1140,36.48,-8.1909,-5.5422,1.6551,0.5317,-0.4139,2.3055,rough,15.5,0,13.574
1150,36.80,-8.3456,-5.2885,1.6172,0.2565,0.0305,1.8898,rough,15.5,0,13.712
1160,37.12,-8.3612,-4.9595,1.5452,0.2655,0.2567,1.6618,rough,15.5,0,13.713
1170,37.44,-8.2875,-4.6689,1.4532,0.2755,0.2622,1.3948,rough,15.5,0,13.633
1180,37.76,-8.2033,-4.2840,1.2667,-0.0411,0.5013,1.1759,rough,15.5,0,13.550
1190,38.08,-8.0995,-3.9949,1.1702,-0.2149,0.1721,0.9561,rough,15.5,0,13.454
1200,38.40,-7.8853,-3.6722,1.1172,-0.2923,0.0360,0.8140,rough,15.5,0,13.257
1210,38.72,-7.5199,-3.3322,0.9862,-0.1932,0.3699,0.7024,rough,15.5,0,12.919
1220,39.04,-7.1993,-3.0353,0.8001,-0.2891,0.2629,0.5559,rough,15.5,0,12.632
1230,39.36,-6.9182,-2.8391,0.7528,-0.2886,-0.1820,0.5582,rough,15.5,0,12.378
1240,39.68,-6.6575,-2.6460,0.8632,-0.2476,-0.4903,0.5991,rough,15.5,0,12.148
1250,40.00,-6.3385,-2.4415,1.0411,-0.1559,-0.3805,0.4844,rough,15.5,0,11.867
1260,40.32,-6.0378,-2.2327,1.0185,-0.0317,0.1218,0.5793,rough,15.5,0,11.610
1270,40.64,-5.6804,-1.9874,0.9315,-0.1701,0.1245,0.4523,rough,15.5,0,11.312
1280,40.96,-5.2798,-1.8233,0.9074,-0.0935,-0.0024,0.3422,rough,15.5,0,10.961
1290,41.28,-4.8650,-1.6702,0.8877,-0.0998,0.0600,0.3117,rough,15.5,0,10.600
1300,41.60,-4.3143,-1.4516,0.7311,-0.4862,0.7135,0.0490,rough,15.5,0,10.135
1310,41.92,-3.8790,-1.2718,0.4699,-0.5276,0.2011,-0.1178,rough,15.5,0,9.779
1320,42.24,-3.3914,-1.2890,0.3662,-0.5292,0.0914,-0.1710,rough,15.5,0,9.315
1330,42.56,-2.8779,-1.3826,0.2568,-0.5048,0.3126,-0.2777,rough,15.5,0,8.801
1340,42.88,-2.4535,-1.4919,0.1640,-0.3682,0.1766,-0.2294,rough,15.5,0,8.366
1350,43.20,-2.0272,-1.6582,0.0878,-0.0841,-0.0113,-0.3450,rough,15.5,0,7.908
1360,43.52,-1.5581,-1.8182,0.0766,-0.1313,-0.0016,-0.3582,rough,15.5,0,7.413
1370,43.84,-1.0675,-1.9949,0.0535,-0.1502,0.1683,-0.3741,rough,15.5,0,6.892
1380,44.16,-0.6101,-2.2001,-0.0335,-0.0600,0.1986,-0.4161,rough,15.5,0,6.391
1390,44.48,-0.1413,-2.4475,-0.1495,0.1351,0.3592,-0.4300,rough,15.5,0,5.865
1400,44.80,0.2698,-2.6545,-0.2613,0.1429,0.1642,-0.4689,rough,15.5,0,5.407
1410,45.12,0.7165,-2.8671,-0.3395,0.0944,0.2100,-0.4550,rough,15.5,0,4.915
1420,45.44,1.1908,-3.1282,-0.4828,0.2805,0.5132,-0.3943,rough,15.5,0,4.381
1430,45.76,1.6067,-3.4245,-0.7214,0.2218,0.2574,-0.5260,rough,15.5,0,3.895
1440,46.08,1.9762,-3.7616,-0.7911,0.1936,0.1564,-0.8868,rough,15.5,0,3.453
1450,46.40,2.1629,-4.0646,-0.8364,0.3237,0.0505,-0.9456,rough,15.5,0,3.214
1460,46.72,2.3797,-4.3833,-0.8270,0.1944,0.0601,-0.8523,rough,15.5,0,2.968
1470,47.04,2.6736,-4.6764,-0.8190,0.1558,0.1382,-0.6965,rough,15.5,0,2.676
1480,47.36,2.9184,-4.8714,-0.8296,0.0637,-0.0885,-0.7304,rough,15.5,0,2.452
1490,47.68,3.1545,-5.0862,-0.7647,0.0594,-0.3555,-0.6692,rough,15.5,0,2.262
1500,48.00,3.4841,-5.2596,-0.6476,-0.1097,-0.3605,-0.4943,rough,15.5,0,2.002
1510,48.32,3.8156,-5.4197,-0.5465,-0.1463,-0.2425,-0.3936,rough,15.5,0,1.774
1520,48.64,4.1561,-5.5861,-0.4938,-0.0268,-0.0433,-0.2931,rough,15.5,0,1.596
1530,48.96,4.4824,-5.7104,-0.5027,0.1364,-0.1649,-0.1248,rough,15.5,0,1.470
1540,49.28,4.8719,-5.7451,-0.4505,0.1100,-0.1322,0.1737,rough,15.5,0,1.313
1550,49.60,5.2585,-5.6190,-0.4521,-0.1043,0.0429,0.4634,rough,15.5,0,1.102
1560,49.92,5.6359,-5.4396,-0.4795,0.0765,0.1319,0.7239,rough,15.5,0,0.964
1570,50.24,5.7942,-5.2534,-0.4441,0.0318,-0.3943,0.9559,rough,15.5,0,0.860
1580,50.56,5.9071,-4.9657,-0.3582,-0.1727,-0.4378,1.1157,rough,15.5,1,13.399
1590,50.88,6.0281,-4.6359,-0.2249,-0.3380,-0.4452,1.2596,rough,15.5,1,13.138
1600,51.20,6.2033,-4.2352,-0.1179,-0.0926,-0.0869,1.2604,rough,15.5,1,12.838
1610,51.52,6.3908,-3.8546,-0.1036,0.1512,-0.0629,1.3243,rough,15.5,1,12.570
1620,51.84,6.4914,-3.4619,-0.0698,0.0982,-0.1427,1.3694,rough,15.5,1,12.261
1630,52.16,6.5652,-3.1317,0.0203,0.0446,-0.4210,1.4124,rough,15.5,1,12.000
1640,52.48,6.5609,-2.7462,0.0857,-0.3613,-0.2769,1.3983,rough,15.5,1,11.658
1650,52.80,6.5576,-2.3133,0.1519,-0.5455,-0.1326,1.4618,rough,15.5,1,11.277
1660,53.12,6.5662,-1.8217,0.1205,-0.6533,0.0696,1.4213,rough,15.5,1,10.856
1670,53.44,6.5926,-1.3599,0.0241,-0.5725,0.1086,1.4957,rough,15.5,1,10.476
1680,53.76,6.6912,-0.8434,-0.1174,-0.2052,0.3533,1.4692,rough,15.5,1,10.097
1690,54.08,6.7371,-0.4027,-0.2336,-0.1284,0.1443,1.5044,rough,15.5,1,9.763
1700,54.40,6.7667,0.0562,-0.3331,0.0229,0.1792,1.6198,rough,15.5,1,9.412
1710,54.72,6.7211,0.5381,-0.4574,0.0714,0.2826,1.7395,rough,15.5,1,9.007
1720,55.04,6.6736,0.7211,-0.5179,0.0840,0.3234,1.7186,rough,15.5,1,8.835
1730,55.36,6.6396,0.7202,-0.5140,0.0454,0.3366,1.6402,rough,15.5,1,8.814
1740,55.68,6.6198,0.7192,-0.5129,0.0317,0.3402,1.6133,rough,15.5,1,8.802
1750,56.00,6.6109,0.7185,-0.5122,0.0226,0.3421,1.5943,rough,15.5,1,8.797
1760,56.32,6.6066,0.7183,-0.5119,0.0172,0.3428,1.5821,rough,15.5,1,8.795
1770,56.64,6.6042,0.7181,-0.5117,0.0149,0.3427,1.5761,rough,15.5,1,8.793
1780,56.96,6.6028,0.7181,-0.5116,0.0143,0.3424,1.5739,rough,15.5,1,8.793
1790,57.28,6.6021,0.7180,-0.5116,0.0142,0.3420,1.5729,rough,15.5,1,8.792
1800,57.60,6.6017,0.7180,-0.5116,0.0143,0.3415,1.5723,rough,15.5,1,8.792
1810,57.92,6.6015,0.7179,-0.5115,0.0145,0.3411,1.5719,rough,15.5,1,8.792
1820,58.24,6.6013,0.7179,-0.5115,0.0148,0.3406,1.5717,rough,15.5,1,8.792
1830,58.56,6.6012,0.7178,-0.5115,0.0152,0.3401,1.5716,rough,15.5,1,8.792
1840,58.88,6.6011,0.7178,-0.5115,0.0156,0.3396,1.5716,rough,15.5,1,8.792
1850,59.20,6.6009,0.7177,-0.5114,0.0159,0.3392,1.5716,rough,15.5,1,8.792
1860,59.52,6.6008,0.7177,-0.5114,0.0163,0.3387,1.5716,rough,15.5,1,8.792
1870,59.84,6.6007,0.7176,-0.5114,0.0167,0.3382,1.5716,rough,15.5,1,8.792
1880,60.16,6.6006,0.7176,-0.5114,0.0171,0.3377,1.5716,rough,15.5,1,8.791
1890,60.48,6.6004,0.7175,-0.5114,0.0175,0.3372,1.5716,rough,15.5,1,8.791
1900,60.80,6.6003,0.7175,-0.5113,0.0179,0.3368,1.5716,rough,15.5,1,8.791
1910,61.12,6.6002,0.7174,-0.5113,0.0182,0.3363,1.5716,rough,15.5,1,8.791
1920,61.44,6.6001,0.7174,-0.5113,0.0186,0.3358,1.5715,rough,15.5,1,8.791
1930,61.76,6.6000,0.7173,-0.5113,0.0190,0.3354,1.5715,rough,15.5,1,8.791
1940,62.08,6.5998,0.7173,-0.5113,0.0194,0.3349,1.5715,rough,15.5,1,8.791
1950,62.40,6.5997,0.7172,-0.5112,0.0197,0.3344,1.5715,rough,15.5,1,8.791
1960,62.72,6.5996,0.7172,-0.5112,0.0201,0.3340,1.5715,rough,15.5,1,8.791
1970,63.04,6.5995,0.7171,-0.5112,0.0205,0.3335,1.5715,rough,15.5,1,8.791
1980,63.36,6.5993,0.7171,-0.5112,0.0208,0.3330,1.5715,rough,15.5,1,8.791
1990,63.68,6.5992,0.7170,-0.5112,0.0212,0.3326,1.5715,rough,15.5,1,8.791
2000,64.00,6.5991,0.7170,-0.5112,0.0216,0.3321,1.5715,rough,15.5,1,8.791
2010,64.32,6.5990,0.7169,-0.5111,0.0219,0.3317,1.5715,rough,15.5,1,8.791
2020,64.64,6.5988,0.7169,-0.5111,0.0223,0.3312,1.5715,rough,15.5,1,8.791
2030,64.96,6.5987,0.7169,-0.5111,0.0227,0.3308,1.5715,rough,15.5,1,8.791
2040,65.28,6.5986,0.7168,-0.5111,0.0230,0.3303,1.5715,rough,15.5,1,8.791
2050,65.60,6.5985,0.7168,-0.5111,0.0234,0.3299,1.5714,rough,15.5,1,8.791
2060,65.92,6.5983,0.7167,-0.5110,0.0237,0.3294,1.5714,rough,15.5,1,8.791
2070,66.24,6.5982,0.7167,-0.5110,0.0241,0.3290,1.5714,rough,15.5,1,8.791
2080,66.56,6.5981,0.7166,-0.5110,0.0242,0.3287,1.5713,rough,15.5,1,8.791
2090,66.88,6.5979,0.7164,-0.5109,0.0242,0.3286,1.5713,rough,15.5,1,8.791
2100,67.20,6.5978,0.7163,-0.5108,0.0243,0.3284,1.5713,rough,15.5,1,8.791
2110,67.52,6.5977,0.7162,-0.5108,0.0243,0.3283,1.5713,rough,15.5,1,8.791
2120,67.84,6.5976,0.7161,-0.5107,0.0244,0.3281,1.5713,rough,15.5,1,8.791
2130,68.16,6.5975,0.7160,-0.5107,0.0245,0.3280,1.5713,rough,15.5,1,8.791
2140,68.48,6.5973,0.7159,-0.5106,0.0245,0.3278,1.5713,rough,15.5,1,8.791
2150,68.80,6.5972,0.7158,-0.5106,0.0246,0.3277,1.5713,rough,15.5,1,8.791
2160,69.12,6.5971,0.7157,-0.5105,0.0247,0.3276,1.5713,rough,15.5,1,8.791
2170,69.44,6.5970,0.7156,-0.5105,0.0247,0.3275,1.5713,rough,15.5,1,8.791
2180,69.76,6.5968,0.7156,-0.5104,0.0248,0.3273,1.5713,rough,15.5,1,8.791
2190,70.08,6.5967,0.7155,-0.5104,0.0248,0.3272,1.5712,rough,15.5,1,8.791
2200,70.40,6.5966,0.7154,-0.5103,0.0249,0.3271,1.5712,rough,15.5,1,8.791
2210,70.72,6.5965,0.7153,-0.5103,0.0249,0.3270,1.5712,rough,15.5,1,8.791
2220,71.04,6.5964,0.7152,-0.5102,0.0250,0.3269,1.5712,rough,15.5,1,8.791
2230,71.36,6.5963,0.7152,-0.5102,0.0250,0.3268,1.5712,rough,15.5,1,8.791
2240,71.68,6.5961,0.7151,-0.5101,0.0251,0.3267,1.5712,rough,15.5,1,8.791
2250,72.00,6.5960,0.7150,-0.5101,0.0251,0.3267,1.5712,rough,15.5,1,8.791
2260,72.32,6.5959,0.7149,-0.5101,0.0251,0.3266,1.5713,rough,15.5,1,8.791
2270,72.64,6.5958,0.7148,-0.5100,0.0251,0.3265,1.5713,rough,15.5,1,8.791
2280,72.96,6.5957,0.7148,-0.5100,0.0252,0.3264,1.5713,rough,15.5,1,8.791
2290,73.28,6.5955,0.7147,-0.5099,0.0252,0.3263,1.5713,rough,15.5,1,8.791
2300,73.60,6.5954,0.7146,-0.5099,0.0253,0.3262,1.5712,rough,15.5,1,8.790
2310,73.92,6.5953,0.7146,-0.5099,0.0253,0.3261,1.5712,rough,15.5,1,8.790
2320,74.24,6.5952,0.7145,-0.5098,0.0253,0.3260,1.5712,rough,15.5,1,8.790
2330,74.56,6.5950,0.7145,-0.5098,0.0254,0.3259,1.5712,rough,15.5,1,8.790
2340,74.88,6.5949,0.7144,-0.5098,0.0254,0.3259,1.5712,rough,15.5,1,8.790
2350,75.20,6.5948,0.7144,-0.5097,0.0254,0.3258,1.5712,rough,15.5,1,8.790
2360,75.52,6.5947,0.7144,-0.5097,0.0255,0.3257,1.5712,rough,15.5,1,8.790
2370,75.84,6.5945,0.7143,-0.5097,0.0255,0.3256,1.5712,rough,15.5,1,8.790
2380,76.16,6.5944,0.7143,-0.5097,0.0255,0.3256,1.5712,rough,15.5,1,8.790
2390,76.48,6.5943,0.7142,-0.5096,0.0255,0.3255,1.5712,rough,15.5,1,8.790
2400,76.80,6.5942,0.7142,-0.5096,0.0256,0.3254,1.5712,rough,15.5,1,8.790
2410,77.12,6.5941,0.7141,-0.5096,0.0256,0.3253,1.5712,rough,15.5,1,8.790
2420,77.44,6.5940,0.7141,-0.5095,0.0256,0.3253,1.5712,rough,15.5,1,8.790
2430,77.76,6.5938,0.7141,-0.5095,0.0256,0.3252,1.5712,rough,15.5,1,8.790
2440,78.08,6.5937,0.7140,-0.5095,0.0256,0.3252,1.5712,rough,15.5,1,8.790
2450,78.40,6.5936,0.7140,-0.5095,0.0257,0.3251,1.5712,rough,15.5,1,8.790
2460,78.72,6.5935,0.7140,-0.5095,0.0257,0.3250,1.5712,rough,15.5,1,8.790
2470,79.04,6.5934,0.7139,-0.5094,0.0257,0.3250,1.5712,rough,15.5,1,8.790
2480,79.36,6.5933,0.7139,-0.5094,0.0257,0.3249,1.5712,rough,15.5,1,8.790
2490,79.68,6.5931,0.7139,-0.5094,0.0257,0.3249,1.5711,rough,15.5,1,8.790
2500,80.00,6.5930,0.7138,-0.5094,0.0258,0.3248,1.5711,rough,15.5,1,8.790
2510,80.32,6.5929,0.7138,-0.5094,0.0258,0.3248,1.5711,rough,15.5,1,8.790
2520,80.64,6.5928,0.7138,-0.5093,0.0258,0.3248,1.5711,rough,15.5,1,8.789
2530,80.96,6.5927,0.7137,-0.5093,0.0258,0.3247,1.5711,rough,15.5,1,8.789
2540,81.28,6.5926,0.7137,-0.5093,0.0258,0.3247,1.5711,rough,15.5,1,8.789
2550,81.60,6.5925,0.7137,-0.5093,0.0258,0.3246,1.5711,rough,15.5,1,8.789
2560,81.92,6.5924,0.7137,-0.5093,0.0258,0.3246,1.5711,rough,15.5,1,8.789
2570,82.24,6.5923,0.7136,-0.5092,0.0259,0.3246,1.5711,rough,15.5,1,8.789
2580,82.56,6.5921,0.7136,-0.5092,0.0259,0.3245,1.5711,rough,15.5,1,8.789
2590,82.88,6.5920,0.7136,-0.5092,0.0259,0.3245,1.5711,rough,15.5,1,8.789
2600,83.20,6.5919,0.7136,-0.5092,0.0259,0.3244,1.5711,rough,15.5,1,8.789
2610,83.52,6.5918,0.7136,-0.5092,0.0259,0.3244,1.5711,rough,15.5,1,8.789
2620,83.84,6.5917,0.7135,-0.5092,0.0259,0.3244,1.5711,rough,15.5,1,8.789
2630,84.16,6.5916,0.7135,-0.5092,0.0259,0.3244,1.5711,rough,15.5,1,8.789
2640,84.48,6.5915,0.7135,-0.5091,0.0259,0.3243,1.5711,rough,15.5,1,8.789
2650,84.80,6.5914,0.7135,-0.5091,0.0259,0.3243,1.5711,rough,15.5,1,8.789
2660,85.12,6.5913,0.7135,-0.5091,0.0259,0.3243,1.5711,rough,15.5,1,8.789
2670,85.44,6.5912,0.7134,-0.5091,0.0259,0.3243,1.5711,rough,15.5,1,8.789
2680,85.76,6.5911,0.7134,-0.5091,0.0259,0.3242,1.5711,rough,15.5,1,8.789
2690,86.08,6.5910,0.7134,-0.5091,0.0259,0.3242,1.5711,rough,15.5,1,8.789
2700,86.40,6.5909,0.7134,-0.5091,0.0259,0.3242,1.5711,rough,15.5,1,8.789
2710,86.72,6.5908,0.7134,-0.5091,0.0259,0.3242,1.5711,rough,15.5,1,8.789
2720,87.04,6.5907,0.7134,-0.5090,0.0260,0.3241,1.5711,rough,15.5,1,8.788
2730,87.36,6.5905,0.7133,-0.5090,0.0260,0.3241,1.5711,rough,15.5,1,8.788
2740,87.68,6.5904,0.7133,-0.5090,0.0260,0.3241,1.5711,rough,15.5,1,8.788
2750,88.00,6.5903,0.7133,-0.5090,0.0260,0.3241,1.5711,rough,15.5,1,8.788
2760,88.32,6.5902,0.7133,-0.5090,0.0260,0.3241,1.5711,rough,15.5,1,8.788
2770,88.64,6.5901,0.7133,-0.5090,0.0260,0.3241,1.5711,rough,15.5,1,8.788
2780,88.96,6.5900,0.7133,-0.5090,0.0260,0.3240,1.5711,rough,15.5,1,8.788
2790,89.28,6.5899,0.7133,-0.5090,0.0260,0.3240,1.5711,rough,15.5,1,8.788
2800,89.60,6.5898,0.7132,-0.5090,0.0260,0.3240,1.5711,rough,15.5,1,8.788
2810,89.92,6.5897,0.7132,-0.5090,0.0260,0.3240,1.5711,rough,15.5,1,8.788
2820,90.24,6.5896,0.7132,-0.5090,0.0260,0.3240,1.5711,rough,15.5,1,8.788
2830,90.56,6.5895,0.7132,-0.5089,0.0260,0.3240,1.5711,rough,15.5,1,8.788
2840,90.88,6.5894,0.7132,-0.5089,0.0260,0.3240,1.5711,rough,15.5,1,8.788
2850,91.20,6.5893,0.7132,-0.5089,0.0260,0.3240,1.5711,rough,15.5,1,8.788
2860,91.52,6.5892,0.7132,-0.5089,0.0260,0.3240,1.5710,rough,15.5,1,8.788
2870,91.84,6.5891,0.7132,-0.5089,0.0260,0.3239,1.5710,rough,15.5,1,8.788
2880,92.16,6.5890,0.7132,-0.5089,0.0260,0.3239,1.5710,rough,15.5,1,8.788
2890,92.48,6.5889,0.7132,-0.5089,0.0260,0.3239,1.5710,rough,15.5,1,8.788
2900,92.80,6.5888,0.7132,-0.5089,0.0259,0.3239,1.5710,rough,15.5,1,8.787
2910,93.12,6.5887,0.7131,-0.5089,0.0259,0.3239,1.5710,rough,15.5,1,8.787
2920,93.44,6.5886,0.7131,-0.5089,0.0259,0.3239,1.5710,rough,15.5,1,8.787
2930,93.76,6.5885,0.7131,-0.5089,0.0259,0.3239,1.5710,rough,15.5,1,8.787
2940,94.08,6.5884,0.7131,-0.5089,0.0259,0.3239,1.5710,rough,15.5,1,8.787
2950,94.40,6.5883,0.7131,-0.5089,0.0259,0.3239,1.5710,rough,15.5,1,8.787
2960,94.72,6.5882,0.7131,-0.5089,0.0259,0.3239,1.5710,rough,15.5,1,8.787
2970,95.04,6.5881,0.7131,-0.5089,0.0259,0.3239,1.5710,rough,15.5,1,8.787
2980,95.36,6.5880,0.7131,-0.5089,0.0259,0.3239,1.5710,rough,15.5,1,8.787
2990,95.68,6.5879,0.7131,-0.5088,0.0259,0.3239,1.5710,rough,15.5,1,8.787
3000,96.00,6.5878,0.7131,-0.5088,0.0259,0.3239,1.5710,rough,15.5,1,8.787
3010,96.32,6.5877,0.7131,-0.5088,0.0259,0.3239,1.5710,rough,15.5,1,8.787
3020,96.64,6.5876,0.7131,-0.5088,0.0259,0.3239,1.5710,rough,15.5,1,8.787
3030,96.96,6.5876,0.7131,-0.5088,0.0259,0.3239,1.5710,rough,15.5,1,8.787
3040,97.28,6.5875,0.7131,-0.5088,0.0259,0.3239,1.5710,rough,15.5,1,8.787
3050,97.60,6.5874,0.7131,-0.5088,0.0259,0.3239,1.5710,rough,15.5,1,8.787
3060,97.92,6.5873,0.7131,-0.5088,0.0259,0.3239,1.5710,rough,15.5,1,8.787
3070,98.24,6.5872,0.7130,-0.5088,0.0259,0.3239,1.5710,rough,15.5,1,8.786
3080,98.56,6.5871,0.7130,-0.5088,0.0259,0.3239,1.5710,rough,15.5,1,8.786
3090,98.88,6.5870,0.7130,-0.5088,0.0259,0.3239,1.5710,rough,15.5,1,8.786
3100,99.20,6.5869,0.7130,-0.5088,0.0259,0.3239,1.5710,rough,15.5,1,8.786
3110,99.52,6.5868,0.7130,-0.5088,0.0258,0.3239,1.5710,rough,15.5,1,8.786
3120,99.84,6.5867,0.7130,-0.5088,0.0258,0.3239,1.5710,rough,15.5,1,8.786
3130,100.16,6.5866,0.7130,-0.5088,0.0258,0.3239,1.5710,rough,15.5,1,8.786
3140,100.48,6.5865,0.7130,-0.5088,0.0258,0.3239,1.5710,rough,15.5,1,8.786
3150,100.80,6.5864,0.7130,-0.5088,0.0258,0.3239,1.5710,rough,15.5,1,8.786
3160,101.12,6.5863,0.7130,-0.5088,0.0258,0.3239,1.5710,rough,15.5,1,8.786
3170,101.44,6.5862,0.7130,-0.5088,0.0258,0.3239,1.5710,rough,15.5,1,8.786
3180,101.76,6.5861,0.7130,-0.5088,0.0258,0.3239,1.5710,rough,15.5,1,8.786
3190,102.08,6.5860,0.7130,-0.5088,0.0258,0.3239,1.5710,rough,15.5,1,8.786
3200,102.40,6.5859,0.7130,-0.5088,0.0258,0.3239,1.5710,rough,15.5,1,8.786
3210,102.72,6.5858,0.7130,-0.5088,0.0258,0.3240,1.5710,rough,15.5,1,8.786
3220,103.04,6.5858,0.7130,-0.5088,0.0258,0.3240,1.5710,rough,15.5,1,8.786
3230,103.36,6.5857,0.7130,-0.5088,0.0258,0.3240,1.5710,rough,15.5,1,8.786
3240,103.68,6.5856,0.7130,-0.5088,0.0258,0.3240,1.5710,rough,15.5,1,8.786
3250,104.00,6.5855,0.7130,-0.5088,0.0257,0.3240,1.5710,rough,15.5,1,8.785
3260,104.32,6.5854,0.7130,-0.5088,0.0257,0.3240,1.5710,rough,15.5,1,8.785
3270,104.64,6.5853,0.7130,-0.5088,0.0257,0.3240,1.5710,rough,15.5,1,8.785
3280,104.96,6.5852,0.7130,-0.5088,0.0257,0.3240,1.5710,rough,15.5,1,8.785
3290,105.28,6.5851,0.7130,-0.5088,0.0257,0.3240,1.5710,rough,15.5,1,8.785
3300,105.60,6.5850,0.7130,-0.5088,0.0257,0.3240,1.5710,rough,15.5,1,8.785
3310,105.92,6.5849,0.7130,-0.5088,0.0257,0.3240,1.5710,rough,15.5,1,8.785
3320,106.24,6.5848,0.7130,-0.5087,0.0257,0.3240,1.5710,rough,15.5,1,8.785
3330,106.56,6.5847,0.7130,-0.5087,0.0257,0.3240,1.5710,rough,15.5,1,8.785
3340,106.88,6.5847,0.7130,-0.5087,0.0257,0.3240,1.5710,rough,15.5,1,8.785
3350,107.20,6.5846,0.7130,-0.5087,0.0257,0.3240,1.5710,rough,15.5,1,8.785
3360,107.52,6.5845,0.7130,-0.5087,0.0256,0.3241,1.5710,rough,15.5,1,8.785
3370,107.84,6.5844,0.7130,-0.5087,0.0256,0.3241,1.5710,rough,15.5,1,8.785
3380,108.16,6.5843,0.7130,-0.5087,0.0256,0.3241,1.5710,rough,15.5,1,8.785
3390,108.48,6.5842,0.7130,-0.5087,0.0256,0.3241,1.5710,rough,15.5,1,8.785
3400,108.80,6.5841,0.7130,-0.5087,0.0256,0.3241,1.5710,rough,15.5,1,8.785
3410,109.12,6.5840,0.7130,-0.5087,0.0256,0.3241,1.5710,rough,15.5,1,8.785
3420,109.44,6.5839,0.7130,-0.5087,0.0256,0.3241,1.5710,rough,15.5,1,8.784
3430,109.76,6.5838,0.7130,-0.5087,0.0256,0.3241,1.5710,rough,15.5,1,8.784
3440,110.08,6.5837,0.7130,-0.5087,0.0256,0.3241,1.5710,rough,15.5,1,8.784
3450,110.40,6.5837,0.7130,-0.5087,0.0256,0.3241,1.5710,rough,15.5,1,8.784
3460,110.72,6.5836,0.7130,-0.5087,0.0256,0.3241,1.5710,rough,15.5,1,8.784
3470,111.04,6.5835,0.7130,-0.5087,0.0255,0.3242,1.5710,rough,15.5,1,8.784
3480,111.36,6.5834,0.7130,-0.5087,0.0255,0.3242,1.5710,rough,15.5,1,8.784
3490,111.68,6.5833,0.7130,-0.5087,0.0255,0.3242,1.5710,rough,15.5,1,8.784
3500,112.00,6.5832,0.7130,-0.5087,0.0255,0.3242,1.5710,rough,15.5,1,8.784
3510,112.32,6.5831,0.7130,-0.5087,0.0255,0.3242,1.5710,rough,15.5,1,8.784
3520,112.64,6.5830,0.7130,-0.5087,0.0255,0.3242,1.5710,rough,15.5,1,8.784
3530,112.96,6.5829,0.7130,-0.5087,0.0255,0.3242,1.5710,rough,15.5,1,8.784
3540,113.28,6.5829,0.7130,-0.5087,0.0255,0.3242,1.5710,rough,15.5,1,8.784
3550,113.60,6.5828,0.7130,-0.5087,0.0255,0.3242,1.5710,rough,15.5,1,8.784
3560,113.92,6.5827,0.7130,-0.5087,0.0255,0.3243,1.5710,rough,15.5,1,8.784
3570,114.24,6.5826,0.7130,-0.5087,0.0255,0.3243,1.5710,rough,15.5,1,8.784
3580,114.56,6.5825,0.7130,-0.5087,0.0254,0.3243,1.5710,rough,15.5,1,8.784
3590,114.88,6.5824,0.7130,-0.5087,0.0254,0.3243,1.5710,rough,15.5,1,8.784
3600,115.20,6.5823,0.7130,-0.5087,0.0254,0.3243,1.5710,rough,15.5,1,8.783
3610,115.52,6.5822,0.7130,-0.5087,0.0254,0.3243,1.5710,rough,15.5,1,8.783
3620,115.84,6.5822,0.7130,-0.5087,0.0254,0.3243,1.5710,rough,15.5,1,8.783
3630,116.16,6.5821,0.7130,-0.5087,0.0254,0.3243,1.5710,rough,15.5,1,8.783
3640,116.48,6.5820,0.7130,-0.5087,0.0254,0.3243,1.5710,rough,15.5,1,8.783
3650,116.80,6.5819,0.7130,-0.5087,0.0254,0.3243,1.5710,rough,15.5,1,8.783
3660,117.12,6.5818,0.7130,-0.5087,0.0254,0.3244,1.5710,rough,15.5,1,8.783
3670,117.44,6.5817,0.7130,-0.5087,0.0254,0.3244,1.5710,rough,15.5,1,8.783
3680,117.76,6.5816,0.7130,-0.5087,0.0253,0.3244,1.5710,rough,15.5,1,8.783
3690,118.08,6.5816,0.7130,-0.5087,0.0253,0.3244,1.5710,rough,15.5,1,8.783
3700,118.40,6.5815,0.7130,-0.5087,0.0253,0.3244,1.5710,rough,15.5,1,8.783
3710,118.72,6.5814,0.7130,-0.5087,0.0253,0.3244,1.5710,rough,15.5,1,8.783
3720,119.04,6.5813,0.7130,-0.5087,0.0253,0.3244,1.5710,rough,15.5,1,8.783
3730,119.36,6.5812,0.7130,-0.5087,0.0253,0.3244,1.5710,rough,15.5,1,8.783
3740,119.68,6.5811,0.7130,-0.5087,0.0253,0.3245,1.5710,rough,15.5,1,8.783
3750,120.00,6.5810,0.7130,-0.5087,0.0253,0.3245,1.5710,rough,15.5,1,8.783
3760,120.32,6.5810,0.7130,-0.5087,0.0253,0.3245,1.5710,rough,15.5,1,8.783
3770,120.64,6.5809,0.7130,-0.5087,0.0253,0.3245,1.5710,rough,15.5,1,8.783
3780,120.96,6.5808,0.7130,-0.5087,0.0252,0.3245,1.5710,rough,15.5,1,8.782
3790,121.28,6.5807,0.7130,-0.5087,0.0252,0.3245,1.5710,rough,15.5,1,8.782
3800,121.60,6.5806,0.7130,-0.5087,0.0252,0.3245,1.5710,rough,15.5,1,8.782
3810,121.92,6.5805,0.7130,-0.5087,0.0252,0.3245,1.5710,rough,15.5,1,8.782
3820,122.24,6.5804,0.7130,-0.5087,0.0252,0.3245,1.5710,rough,15.5,1,8.782
3830,122.56,6.5804,0.7130,-0.5087,0.0252,0.3246,1.5710,rough,15.5,1,8.782
3840,122.88,6.5803,0.7130,-0.5087,0.0252,0.3246,1.5710,rough,15.5,1,8.782
3850,123.20,6.5802,0.7130,-0.5087,0.0252,0.3246,1.5710,rough,15.5,1,8.782
3860,123.52,6.5801,0.7130,-0.5087,0.0252,0.3246,1.5710,rough,15.5,1,8.782
3870,123.84,6.5800,0.7130,-0.5087,0.0252,0.3246,1.5710,rough,15.5,1,8.782
3880,124.16,6.5799,0.7130,-0.5087,0.0251,0.3246,1.5710,rough,15.5,1,8.782
3890,124.48,6.5799,0.7130,-0.5087,0.0251,0.3246,1.5710,rough,15.5,1,8.782
3900,124.80,6.5798,0.7130,-0.5087,0.0251,0.3246,1.5710,rough,15.5,1,8.782
3910,125.12,6.5797,0.7130,-0.5087,0.0251,0.3247,1.5710,rough,15.5,1,8.782
3920,125.44,6.5796,0.7130,-0.5087,0.0251,0.3247,1.5710,rough,15.5,1,8.782
3930,125.76,6.5795,0.7130,-0.5087,0.0251,0.3247,1.5710,rough,15.5,1,8.782
3940,126.08,6.5794,0.7130,-0.5087,0.0251,0.3247,1.5710,rough,15.5,1,8.782
3950,126.40,6.5794,0.7130,-0.5087,0.0251,0.3247,1.5710,rough,15.5,1,8.782
3960,126.72,6.5793,0.7130,-0.5087,0.0251,0.3247,1.5710,rough,15.5,1,8.781
3970,127.04,6.5792,0.7130,-0.5087,0.0251,0.3247,1.5710,rough,15.5,1,8.781
3980,127.36,6.5791,0.7130,-0.5087,0.0250,0.3247,1.5710,rough,15.5,1,8.781
3990,127.68,6.5790,0.7130,-0.5087,0.0250,0.3247,1.5710,rough,15.5,1,8.781
4000,128.00,6.5789,0.7130,-0.5087,0.0250,0.3248,1.5710,rough,15.5,1,8.781
4010,128.32,6.5789,0.7130,-0.5087,0.0250,0.3248,1.5710,rough,15.5,1,8.781
4020,128.64,6.5788,0.7130,-0.5087,0.0250,0.3248,1.5710,rough,15.5,1,8.781
4030,128.96,6.5787,0.7130,-0.5087,0.0250,0.3248,1.5710,rough,15.5,1,8.781
4040,129.28,6.5786,0.7130,-0.5087,0.0250,0.3248,1.5710,rough,15.5,1,8.781
4050,129.60,6.5785,0.7131,-0.5087,0.0250,0.3248,1.5710,rough,15.5,1,8.781
4060,129.92,6.5785,0.7131,-0.5087,0.0250,0.3248,1.5710,rough,15.5,1,8.781
4070,130.24,6.5784,0.7131,-0.5087,0.0250,0.3248,1.5710,rough,15.5,1,8.781
4080,130.56,6.5783,0.7131,-0.5087,0.0249,0.3249,1.5710,rough,15.5,1,8.781
4090,130.88,6.5782,0.7131,-0.5087,0.0249,0.3249,1.5710,rough,15.5,1,8.781
4100,131.20,6.5781,0.7131,-0.5087,0.0249,0.3249,1.5710,rough,15.5,1,8.781
4110,131.52,6.5780,0.7131,-0.5087,0.0249,0.3249,1.5710,rough,15.5,1,8.781
4120,131.84,6.5780,0.7131,-0.5087,0.0249,0.3249,1.5710,rough,15.5,1,8.781
4130,132.16,6.5779,0.7131,-0.5087,0.0249,0.3249,1.5710,rough,15.5,1,8.781
4140,132.48,6.5778,0.7131,-0.5087,0.0249,0.3249,1.5710,rough,15.5,1,8.781
4150,132.80,6.5777,0.7131,-0.5087,0.0249,0.3249,1.5710,rough,15.5,1,8.780
4160,133.12,6.5776,0.7131,-0.5087,0.0249,0.3250,1.5710,rough,15.5,1,8.780
4170,133.44,6.5776,0.7131,-0.5087,0.0249,0.3250,1.5710,rough,15.5,1,8.780
4180,133.76,6.5775,0.7131,-0.5087,0.0248,0.3250,1.5710,rough,15.5,1,8.780
4190,134.08,6.5774,0.7131,-0.5087,0.0248,0.3250,1.5710,rough,15.5,1,8.780
4200,134.40,6.5773,0.7131,-0.5087,0.0248,0.3250,1.5710,rough,15.5,1,8.780
4210,134.72,6.5772,0.7131,-0.5087,0.0248,0.3250,1.5710,rough,15.5,1,8.780
4220,135.04,6.5772,0.7131,-0.5087,0.0248,0.3250,1.5710,rough,15.5,1,8.780
4230,135.36,6.5771,0.7131,-0.5087,0.0248,0.3250,1.5710,rough,15.5,1,8.780
4240,135.68,6.5770,0.7131,-0.5087,0.0248,0.3251,1.5710,rough,15.5,1,8.780
4250,136.00,6.5769,0.7131,-0.5087,0.0248,0.3251,1.5710,rough,15.5,1,8.780
4260,136.32,6.5768,0.7131,-0.5087,0.0248,0.3251,1.5710,rough,15.5,1,8.780
4270,136.64,6.5768,0.7131,-0.5087,0.0248,0.3251,1.5710,rough,15.5,1,8.780
4280,136.96,6.5767,0.7131,-0.5087,0.0247,0.3251,1.5710,rough,15.5,1,8.780
4290,137.28,6.5766,0.7131,-0.5087,0.0247,0.3251,1.5710,rough,15.5,1,8.780
4300,137.60,6.5765,0.7131,-0.5087,0.0247,0.3251,1.5710,rough,15.5,1,8.780
4310,137.92,6.5764,0.7131,-0.5087,0.0247,0.3251,1.5710,rough,15.5,1,8.780
4320,138.24,6.5764,0.7131,-0.5087,0.0247,0.3252,1.5710,rough,15.5,1,8.780
4330,138.56,6.5763,0.7131,-0.5087,0.0247,0.3252,1.5710,rough,15.5,1,8.780
4340,138.88,6.5762,0.7131,-0.5087,0.0247,0.3252,1.5710,rough,15.5,1,8.779
4350,139.20,6.5761,0.7131,-0.5087,0.0247,0.3252,1.5710,rough,15.5,1,8.779
4360,139.52,6.5760,0.7131,-0.5087,0.0247,0.3252,1.5710,rough,15.5,1,8.779
4370,139.84,6.5760,0.7131,-0.5087,0.0247,0.3252,1.5710,rough,15.5,1,8.779
4380,140.16,6.5759,0.7131,-0.5087,0.0247,0.3252,1.5710,rough,15.5,1,8.779
4390,140.48,6.5758,0.7131,-0.5087,0.0246,0.3252,1.5710,rough,15.5,1,8.779
4400,140.80,6.5757,0.7131,-0.5087,0.0246,0.3252,1.5710,rough,15.5,1,8.779
4410,141.12,6.5756,0.7131,-0.5087,0.0246,0.3253,1.5710,rough,15.5,1,8.779
4420,141.44,6.5756,0.7131,-0.5087,0.0246,0.3253,1.5710,rough,15.5,1,8.779
4430,141.76,6.5755,0.7131,-0.5087,0.0246,0.3253,1.5710,rough,15.5,1,8.779
4440,142.08,6.5754,0.7131,-0.5087,0.0246,0.3253,1.5710,rough,15.5,1,8.779
4450,142.40,6.5753,0.7131,-0.5087,0.0246,0.3253,1.5710,rough,15.5,1,8.779
4460,142.72,6.5752,0.7131,-0.5087,0.0246,0.3253,1.5710,rough,15.5,1,8.779
4470,143.04,6.5752,0.7131,-0.5087,0.0246,0.3253,1.5710,rough,15.5,1,8.779
4480,143.36,6.5751,0.7131,-0.5087,0.0246,0.3253,1.5710,rough,15.5,1,8.779
4490,143.68,6.5750,0.7131,-0.5087,0.0245,0.3254,1.5710,rough,15.5,1,8.779
4500,144.00,6.5749,0.7131,-0.5087,0.0245,0.3254,1.5710,rough,15.5,1,8.779
4510,144.32,6.5749,0.7131,-0.5087,0.0245,0.3254,1.5710,rough,15.5,1,8.779
4520,144.64,6.5748,0.7131,-0.5087,0.0245,0.3254,1.5710,rough,15.5,1,8.779
4530,144.96,6.5747,0.7131,-0.5087,0.0245,0.3254,1.5710,rough,15.5,1,8.779
4540,145.28,6.5746,0.7131,-0.5087,0.0245,0.3254,1.5710,rough,15.5,1,8.778
4550,145.60,6.5745,0.7131,-0.5087,0.0245,0.3254,1.5710,rough,15.5,1,8.778
4560,145.92,6.5745,0.7131,-0.5087,0.0245,0.3254,1.5710,rough,15.5,1,8.778
4570,146.24,6.5744,0.7131,-0.5087,0.0245,0.3255,1.5710,rough,15.5,1,8.778
4580,146.56,6.5743,0.7131,-0.5087,0.0245,0.3255,1.5710,rough,15.5,1,8.778
4590,146.88,6.5742,0.7132,-0.5087,0.0244,0.3255,1.5710,rough,15.5,1,8.778
4600,147.20,6.5741,0.7132,-0.5087,0.0244,0.3255,1.5710,rough,15.5,1,8.778
4610,147.52,6.5741,0.7132,-0.5087,0.0244,0.3255,1.5710,rough,15.5,1,8.778
4620,147.84,6.5740,0.7132,-0.5087,0.0244,0.3255,1.5710,rough,15.5,1,8.778
4630,148.16,6.5739,0.7132,-0.5087,0.0244,0.3255,1.5710,rough,15.5,1,8.778
4640,148.48,6.5738,0.7132,-0.5087,0.0244,0.3255,1.5710,rough,15.5,1,8.778
4650,148.80,6.5738,0.7132,-0.5087,0.0244,0.3256,1.5710,rough,15.5,1,8.778
4660,149.12,6.5737,0.7132,-0.5087,0.0244,0.3256,1.5710,rough,15.5,1,8.778
4670,149.44,6.5736,0.7132,-0.5087,0.0244,0.3256,1.5710,rough,15.5,1,8.778
4680,149.76,6.5735,0.7132,-0.5087,0.0244,0.3256,1.5710,rough,15.5,1,8.778
4690,150.08,6.5734,0.7132,-0.5087,0.0244,0.3256,1.5710,rough,15.5,1,8.778
4700,150.40,6.5734,0.7132,-0.5087,0.0243,0.3256,1.5710,rough,15.5,1,8.778
4710,150.72,6.5733,0.7132,-0.5087,0.0243,0.3256,1.5710,rough,15.5,1,8.778
4720,151.04,6.5732,0.7132,-0.5087,0.0243,0.3256,1.5710,rough,15.5,1,8.778
4730,151.36,6.5731,0.7132,-0.5087,0.0243,0.3256,1.5710,rough,15.5,1,8.777
4740,151.68,6.5731,0.7132,-0.5087,0.0243,0.3257,1.5710,rough,15.5,1,8.777
4750,152.00,6.5730,0.7132,-0.5087,0.0243,0.3257,1.5710,rough,15.5,1,8.777
4760,152.32,6.5729,0.7132,-0.5087,0.0243,0.3257,1.5710,rough,15.5,1,8.777
4770,152.64,6.5728,0.7132,-0.5087,0.0243,0.3257,1.5710,rough,15.5,1,8.777
4780,152.96,6.5727,0.7132,-0.5087,0.0243,0.3257,1.5710,rough,15.5,1,8.777
4790,153.28,6.5727,0.7132,-0.5087,0.0243,0.3257,1.5710,rough,15.5,1,8.777
4800,153.60,6.5726,0.7132,-0.5087,0.0242,0.3257,1.5710,rough,15.5,1,8.777
4810,153.92,6.5725,0.7132,-0.5087,0.0242,0.3257,1.5710,rough,15.5,1,8.777
4820,154.24,6.5724,0.7132,-0.5087,0.0242,0.3258,1.5710,rough,15.5,1,8.777
4830,154.56,6.5724,0.7132,-0.5087,0.0242,0.3258,1.5710,rough,15.5,1,8.777
4840,154.88,6.5723,0.7132,-0.5087,0.0242,0.3258,1.5710,rough,15.5,1,8.777
4850,155.20,6.5722,0.7132,-0.5087,0.0242,0.3258,1.5710,rough,15.5,1,8.777
4860,155.52,6.5721,0.7132,-0.5087,0.0242,0.3258,1.5710,rough,15.5,1,8.777
4870,155.84,6.5720,0.7132,-0.5087,0.0242,0.3258,1.5710,rough,15.5,1,8.777
4880,156.16,6.5720,0.7132,-0.5087,0.0242,0.3258,1.5710,rough,15.5,1,8.777
4890,156.48,6.5719,0.7132,-0.5087,0.0242,0.3258,1.5710,rough,15.5,1,8.777
4900,156.80,6.5718,0.7132,-0.5087,0.0242,0.3259,1.5710,rough,15.5,1,8.777
4910,157.12,6.5717,0.7132,-0.5087,0.0241,0.3259,1.5710,rough,15.5,1,8.777
4920,157.44,6.5717,0.7132,-0.5087,0.0241,0.3259,1.5710,rough,15.5,1,8.777
4930,157.76,6.5716,0.7132,-0.5087,0.0241,0.3259,1.5710,rough,15.5,1,8.776
4940,158.08,6.5715,0.7132,-0.5087,0.0241,0.3259,1.5710,rough,15.5,1,8.776
4950,158.40,6.5714,0.7132,-0.5087,0.0241,0.3259,1.5710,rough,15.5,1,8.776
4960,158.72,6.5714,0.7132,-0.5087,0.0241,0.3259,1.5710,rough,15.5,1,8.776
4970,159.04,6.5713,0.7132,-0.5087,0.0241,0.3259,1.5710,rough,15.5,1,8.776
4980,159.36,6.5712,0.7132,-0.5087,0.0241,0.3259,1.5710,rough,15.5,1,8.776
4990,159.68,6.5711,0.7132,-0.5087,0.0241,0.3260,1.5710,rough,15.5,1,8.776
5000,160.00,6.5710,0.7132,-0.5087,0.0241,0.3260,1.5710,rough,15.5,1,8.776
5010,160.32,6.5710,0.7132,-0.5087,0.0240,0.3260,1.5710,rough,15.5,1,8.776
5020,160.64,6.5709,0.7132,-0.5087,0.0240,0.3260,1.5710,rough,15.5,1,8.776
5030,160.96,6.5708,0.7132,-0.5087,0.0240,0.3260,1.5710,rough,15.5,1,8.776
5040,161.28,6.5707,0.7132,-0.5087,0.0240,0.3260,1.5710,rough,15.5,1,8.776
5050,161.60,6.5707,0.7132,-0.5087,0.0240,0.3260,1.5710,rough,15.5,1,8.776
5060,161.92,6.5706,0.7132,-0.5087,0.0240,0.3260,1.5710,rough,15.5,1,8.776
5070,162.24,6.5705,0.7132,-0.5087,0.0240,0.3261,1.5710,rough,15.5,1,8.776
5080,162.56,6.5704,0.7132,-0.5087,0.0240,0.3261,1.5710,rough,15.5,1,8.776
5090,162.88,6.5704,0.7132,-0.5087,0.0240,0.3261,1.5710,rough,15.5,1,8.776
5100,163.20,6.5703,0.7132,-0.5087,0.0240,0.3261,1.5710,rough,15.5,1,8.776
5110,163.52,6.5702,0.7132,-0.5087,0.0240,0.3261,1.5710,rough,15.5,1,8.776
5120,163.84,6.5701,0.7132,-0.5087,0.0239,0.3261,1.5710,rough,15.5,1,8.776
5130,164.16,6.5700,0.7133,-0.5087,0.0239,0.3261,1.5710,rough,15.5,1,8.775
5140,164.48,6.5700,0.7133,-0.5087,0.0239,0.3261,1.5710,rough,15.5,1,8.775
5150,164.80,6.5699,0.7133,-0.5087,0.0239,0.3261,1.5710,rough,15.5,1,8.775
5160,165.12,6.5698,0.7133,-0.5087,0.0239,0.3262,1.5710,rough,15.5,1,8.775
5170,165.44,6.5697,0.7133,-0.5087,0.0239,0.3262,1.5710,rough,15.5,1,8.775
5180,165.76,6.5697,0.7133,-0.5087,0.0239,0.3262,1.5710,rough,15.5,1,8.775
5190,166.08,6.5696,0.7133,-0.5087,0.0239,0.3262,1.5710,rough,15.5,1,8.775
5200,166.40,6.5695,0.7133,-0.5087,0.0239,0.3262,1.5710,rough,15.5,1,8.775
5210,166.72,6.5694,0.7133,-0.5087,0.0239,0.3262,1.5710,rough,15.5,1,8.775
5220,167.04,6.5694,0.7133,-0.5087,0.0238,0.3262,1.5710,rough,15.5,1,8.775
5230,167.36,6.5693,0.7133,-0.5087,0.0238,0.3262,1.5710,rough,15.5,1,8.775
5240,167.68,6.5692,0.7133,-0.5087,0.0238,0.3263,1.5710,rough,15.5,1,8.775
5250,168.00,6.5691,0.7133,-0.5087,0.0238,0.3263,1.5710,rough,15.5,1,8.775
5260,168.32,6.5691,0.7133,-0.5088,0.0238,0.3263,1.5710,rough,15.5,1,8.775
5270,168.64,6.5690,0.7133,-0.5088,0.0238,0.3263,1.5710,rough,15.5,1,8.775
5280,168.96,6.5689,0.7133,-0.5088,0.0238,0.3263,1.5710,rough,15.5,1,8.775
5290,169.28,6.5688,0.7133,-0.5088,0.0238,0.3263,1.5710,rough,15.5,1,8.775
5300,169.60,6.5688,0.7133,-0.5088,0.0238,0.3263,1.5710,rough,15.5,1,8.775
5310,169.92,6.5687,0.7133,-0.5088,0.0238,0.3263,1.5710,rough,15.5,1,8.775
5320,170.24,6.5686,0.7133,-0.5088,0.0238,0.3263,1.5710,rough,15.5,1,8.775
5330,170.56,6.5685,0.7133,-0.5088,0.0237,0.3264,1.5710,rough,15.5,1,8.774
5340,170.88,6.5685,0.7133,-0.5088,0.0237,0.3264,1.5710,rough,15.5,1,8.774
5350,171.20,6.5684,0.7133,-0.5088,0.0237,0.3264,1.5710,rough,15.5,1,8.774
5360,171.52,6.5683,0.7133,-0.5088,0.0237,0.3264,1.5710,rough,15.5,1,8.774
5370,171.84,6.5682,0.7133,-0.5088,0.0237,0.3264,1.5710,rough,15.5,1,8.774
5380,172.16,6.5682,0.7133,-0.5088,0.0237,0.3264,1.5710,rough,15.5,1,8.774
5390,172.48,6.5681,0.7133,-0.5088,0.0237,0.3264,1.5710,rough,15.5,1,8.774
5400,172.80,6.5680,0.7133,-0.5088,0.0237,0.3264,1.5710,rough,15.5,1,8.774
5410,173.12,6.5679,0.7133,-0.5088,0.0237,0.3265,1.5710,rough,15.5,1,8.774
5420,173.44,6.5679,0.7133,-0.5088,0.0237,0.3265,1.5710,rough,15.5,1,8.774
5430,173.76,6.5678,0.7133,-0.5088,0.0237,0.3265,1.5710,rough,15.5,1,8.774
5440,174.08,6.5677,0.7133,-0.5088,0.0236,0.3265,1.5710,rough,15.5,1,8.774
5450,174.40,6.5676,0.7133,-0.5088,0.0236,0.3265,1.5710,rough,15.5,1,8.774
5460,174.72,6.5676,0.7133,-0.5088,0.0236,0.3265,1.5710,rough,15.5,1,8.774
5470,175.04,6.5675,0.7133,-0.5088,0.0236,0.3265,1.5710,rough,15.5,1,8.774
5480,175.36,6.5674,0.7133,-0.5088,0.0236,0.3265,1.5710,rough,15.5,1,8.774
5490,175.68,6.5673,0.7133,-0.5088,0.0236,0.3265,1.5710,rough,15.5,1,8.774
5500,176.00,6.5673,0.7133,-0.5088,0.0236,0.3266,1.5710,rough,15.5,1,8.774
5510,176.32,6.5672,0.7133,-0.5088,0.0236,0.3266,1.5710,rough,15.5,1,8.774
5520,176.64,6.5671,0.7133,-0.5088,0.0236,0.3266,1.5710,rough,15.5,1,8.774
5530,176.96,6.5670,0.7133,-0.5088,0.0236,0.3266,1.5710,rough,15.5,1,8.774
5540,177.28,6.5670,0.7133,-0.5088,0.0236,0.3266,1.5710,rough,15.5,1,8.773
5550,177.60,6.5669,0.7133,-0.5088,0.0235,0.3266,1.5710,rough,15.5,1,8.773
5560,177.92,6.5668,0.7133,-0.5088,0.0235,0.3266,1.5710,rough,15.5,1,8.773
5570,178.24,6.5667,0.7133,-0.5088,0.0235,0.3266,1.5710,rough,15.5,1,8.773
5580,178.56,6.5667,0.7133,-0.5088,0.0235,0.3266,1.5710,rough,15.5,1,8.773
5590,178.88,6.5666,0.7133,-0.5088,0.0235,0.3267,1.5710,rough,15.5,1,8.773
5600,179.20,6.5665,0.7133,-0.5088,0.0235,0.3267,1.5710,rough,15.5,1,8.773
5610,179.52,6.5664,0.7133,-0.5088,0.0235,0.3267,1.5710,rough,15.5,1,8.773
5620,179.84,6.5664,0.7133,-0.5088,0.0235,0.3267,1.5710,rough,15.5,1,8.773
5630,180.16,6.5663,0.7133,-0.5088,0.0235,0.3267,1.5710,rough,15.5,1,8.773
5640,180.48,6.5662,0.7133,-0.5088,0.0235,0.3267,1.5710,rough,15.5,1,8.773
5650,180.80,6.5661,0.7133,-0.5088,0.0235,0.3267,1.5710,rough,15.5,1,8.773
5660,181.12,6.5661,0.7133,-0.5088,0.0234,0.3267,1.5710,rough,15.5,1,8.773
5670,181.44,6.5660,0.7133,-0.5088,0.0234,0.3268,1.5710,rough,15.5,1,8.773
5680,181.76,6.5659,0.7133,-0.5088,0.0234,0.3268,1.5710,rough,15.5,1,8.773
5690,182.08,6.5658,0.7134,-0.5088,0.0234,0.3268,1.5710,rough,15.5,1,8.773
5700,182.40,6.5658,0.7134,-0.5088,0.0234,0.3268,1.5710,rough,15.5,1,8.773
5710,182.72,6.5657,0.7134,-0.5088,0.0234,0.3268,1.5710,rough,15.5,1,8.773
5720,183.04,6.5656,0.7134,-0.5088,0.0234,0.3268,1.5710,rough,15.5,1,8.773
5730,183.36,6.5655,0.7134,-0.5088,0.0234,0.3268,1.5710,rough,15.5,1,8.773
5740,183.68,6.5655,0.7134,-0.5088,0.0234,0.3268,1.5710,rough,15.5,1,8.773
5750,184.00,6.5654,0.7134,-0.5088,0.0234,0.3268,1.5710,rough,15.5,1,8.772
5760,184.32,6.5653,0.7134,-0.5088,0.0234,0.3269,1.5710,rough,15.5,1,8.772
5770,184.64,6.5653,0.7134,-0.5088,0.0233,0.3269,1.5710,rough,15.5,1,8.772
5780,184.96,6.5652,0.7134,-0.5088,0.0233,0.3269,1.5710,rough,15.5,1,8.772
5790,185.28,6.5651,0.7134,-0.5088,0.0233,0.3269,1.5710,rough,15.5,1,8.772
5800,185.60,6.5650,0.7134,-0.5088,0.0233,0.3269,1.5710,rough,15.5,1,8.772
5810,185.92,6.5650,0.7134,-0.5088,0.0233,0.3269,1.5710,rough,15.5,1,8.772
5820,186.24,6.5649,0.7134,-0.5088,0.0233,0.3269,1.5710,rough,15.5,1,8.772
5830,186.56,6.5648,0.7134,-0.5088,0.0233,0.3269,1.5710,rough,15.5,1,8.772
5840,186.88,6.5647,0.7134,-0.5088,0.0233,0.3269,1.5710,rough,15.5,1,8.772
5850,187.20,6.5647,0.7134,-0.5088,0.0233,0.3270,1.5710,rough,15.5,1,8.772
5860,187.52,6.5646,0.7134,-0.5088,0.0233,0.3270,1.5710,rough,15.5,1,8.772
5870,187.84,6.5645,0.7134,-0.5088,0.0233,0.3270,1.5710,rough,15.5,1,8.772
5880,188.16,6.5644,0.7134,-0.5088,0.0232,0.3270,1.5710,rough,15.5,1,8.772
5890,188.48,6.5644,0.7134,-0.5088,0.0232,0.3270,1.5710,rough,15.5,1,8.772
5900,188.80,6.5643,0.7134,-0.5088,0.0232,0.3270,1.5710,rough,15.5,1,8.772
5910,189.12,6.5642,0.7134,-0.5088,0.0232,0.3270,1.5710,rough,15.5,1,8.772
5920,189.44,6.5642,0.7134,-0.5088,0.0232,0.3270,1.5710,rough,15.5,1,8.772
5930,189.76,6.5641,0.7134,-0.5088,0.0232,0.3270,1.5710,rough,15.5,1,8.772
5940,190.08,6.5640,0.7134,-0.5088,0.0232,0.3271,1.5710,rough,15.5,1,8.772
5950,190.40,6.5639,0.7134,-0.5088,0.0232,0.3271,1.5710,rough,15.5,1,8.772
5960,190.72,6.5639,0.7134,-0.5088,0.0232,0.3271,1.5710,rough,15.5,1,8.771
5970,191.04,6.5638,0.7134,-0.5088,0.0232,0.3271,1.5710,rough,15.5,1,8.771
5980,191.36,6.5637,0.7134,-0.5088,0.0232,0.3271,1.5710,rough,15.5,1,8.771
5990,191.68,6.5636,0.7134,-0.5088,0.0231,0.3271,1.5710,rough,15.5,1,8.771
6000,192.00,6.5636,0.7134,-0.5088,0.0231,0.3271,1.5710,rough,15.5,1,8.771
6010,192.32,6.5635,0.7134,-0.5088,0.0231,0.3271,1.5710,rough,15.5,1,8.771
6020,192.64,6.5634,0.7134,-0.5088,0.0231,0.3271,1.5710,rough,15.5,1,8.771
6030,192.96,6.5634,0.7134,-0.5088,0.0231,0.3272,1.5710,rough,15.5,1,8.771
6040,193.28,6.5633,0.7134,-0.5088,0.0231,0.3272,1.5710,rough,15.5,1,8.771
6050,193.60,6.5632,0.7134,-0.5088,0.0231,0.3272,1.5710,rough,15.5,1,8.771
6060,193.92,6.5631,0.7134,-0.5088,0.0231,0.3272,1.5710,rough,15.5,1,8.771
6070,194.24,6.5631,0.7134,-0.5088,0.0231,0.3272,1.5710,rough,15.5,1,8.771
6080,194.56,6.5630,0.7134,-0.5088,0.0231,0.3272,1.5710,rough,15.5,1,8.771
6090,194.88,6.5629,0.7134,-0.5088,0.0231,0.3272,1.5710,rough,15.5,1,8.771
6100,195.20,6.5628,0.7134,-0.5088,0.0230,0.3272,1.5710,rough,15.5,1,8.771
6110,195.52,6.5628,0.7134,-0.5088,0.0230,0.3272,1.5710,rough,15.5,1,8.771
6120,195.84,6.5627,0.7134,-0.5088,0.0230,0.3273,1.5710,rough,15.5,1,8.771
6130,196.16,6.5626,0.7134,-0.5088,0.0230,0.3273,1.5710,rough,15.5,1,8.771
6140,196.48,6.5626,0.7134,-0.5088,0.0230,0.3273,1.5710,rough,15.5,1,8.771
6150,196.80,6.5625,0.7134,-0.5088,0.0230,0.3273,1.5710,rough,15.5,1,8.771
6160,197.12,6.5624,0.7134,-0.5088,0.0230,0.3273,1.5710,rough,15.5,1,8.771
6170,197.44,6.5623,0.7134,-0.5088,0.0230,0.3273,1.5710,rough,15.5,1,8.770
6180,197.76,6.5623,0.7134,-0.5088,0.0230,0.3273,1.5710,rough,15.5,1,8.770
6190,198.08,6.5622,0.7134,-0.5088,0.0230,0.3273,1.5710,rough,15.5,1,8.770
6200,198.40,6.5621,0.7134,-0.5088,0.0230,0.3273,1.5710,rough,15.5,1,8.770
6210,198.72,6.5621,0.7134,-0.5088,0.0229,0.3274,1.5710,rough,15.5,1,8.770
6220,199.04,6.5620,0.7134,-0.5088,0.0229,0.3274,1.5710,rough,15.5,1,8.770
6230,199.36,6.5619,0.7134,-0.5088,0.0229,0.3274,1.5710,rough,15.5,1,8.770
6240,199.68,6.5618,0.7134,-0.5088,0.0229,0.3274,1.5710,rough,15.5,1,8.770
6250,200.00,6.5618,0.7134,-0.5088,0.0229,0.3274,1.5710,rough,15.5,1,8.770
6260,200.32,6.5617,0.7134,-0.5088,0.0229,0.3274,1.5710,rough,15.5,1,8.770
6270,200.64,6.5616,0.7134,-0.5088,0.0229,0.3274,1.5710,rough,15.5,1,8.770
6280,200.96,6.5616,0.7134,-0.5088,0.0229,0.3274,1.5710,rough,15.5,1,8.770
6290,201.28,6.5615,0.7135,-0.5088,0.0229,0.3274,1.5710,rough,15.5,1,8.770
6300,201.60,6.5614,0.7135,-0.5088,0.0229,0.3275,1.5710,rough,15.5,1,8.770
6310,201.92,6.5613,0.7135,-0.5088,0.0229,0.3275,1.5710,rough,15.5,1,8.770
6320,202.24,6.5613,0.7135,-0.5088,0.0229,0.3275,1.5710,rough,15.5,1,8.770
6330,202.56,6.5612,0.7135,-0.5088,0.0228,0.3275,1.5710,rough,15.5,1,8.770
6340,202.88,6.5611,0.7135,-0.5088,0.0228,0.3275,1.5710,rough,15.5,1,8.770
6350,203.20,6.5611,0.7135,-0.5088,0.0228,0.3275,1.5710,rough,15.5,1,8.770
6360,203.52,6.5610,0.7135,-0.5088,0.0228,0.3275,1.5710,rough,15.5,1,8.770
6370,203.84,6.5609,0.7135,-0.5088,0.0228,0.3275,1.5710,rough,15.5,1,8.770
6380,204.16,6.5608,0.7135,-0.5088,0.0228,0.3275,1.5710,rough,15.5,1,8.769
6390,204.48,6.5608,0.7135,-0.5088,0.0228,0.3276,1.5710,rough,15.5,1,8.769
6400,204.80,6.5607,0.7135,-0.5088,0.0228,0.3276,1.5710,rough,15.5,1,8.769
6410,205.12,6.5606,0.7135,-0.5088,0.0228,0.3276,1.5710,rough,15.5,1,8.769
6420,205.44,6.5606,0.7135,-0.5088,0.0228,0.3276,1.5710,rough,15.5,1,8.769
6430,205.76,6.5605,0.7135,-0.5088,0.0228,0.3276,1.5710,rough,15.5,1,8.769
6440,206.08,6.5604,0.7135,-0.5088,0.0227,0.3276,1.5710,rough,15.5,1,8.769
6450,206.40,6.5603,0.7135,-0.5088,0.0227,0.3276,1.5710,rough,15.5,1,8.769
6460,206.72,6.5603,0.7135,-0.5088,0.0227,0.3276,1.5710,rough,15.5,1,8.769
6470,207.04,6.5602,0.7135,-0.5088,0.0227,0.3276,1.5710,rough,15.5,1,8.769
6480,207.36,6.5601,0.7135,-0.5088,0.0227,0.3277,1.5710,rough,15.5,1,8.769
6490,207.68,6.5601,0.7135,-0.5088,0.0227,0.3277,1.5710,rough,15.5,1,8.769
6500,208.00,6.5600,0.7135,-0.5088,0.0227,0.3277,1.5710,rough,15.5,1,8.769
6510,208.32,6.5599,0.7135,-0.5088,0.0227,0.3277,1.5710,rough,15.5,1,8.769
6520,208.64,6.5598,0.7135,-0.5088,0.0227,0.3277,1.5710,rough,15.5,1,8.769
6530,208.96,6.5598,0.7135,-0.5088,0.0227,0.3277,1.5710,rough,15.5,1,8.769
6540,209.28,6.5597,0.7135,-0.5088,0.0227,0.3277,1.5710,rough,15.5,1,8.769
6550,209.60,6.5596,0.7135,-0.5088,0.0226,0.3277,1.5710,rough,15.5,1,8.769
6560,209.92,6.5596,0.7135,-0.5088,0.0226,0.3277,1.5710,rough,15.5,1,8.769
6570,210.24,6.5595,0.7135,-0.5088,0.0226,0.3278,1.5710,rough,15.5,1,8.769
6580,210.56,6.5594,0.7135,-0.5088,0.0226,0.3278,1.5710,rough,15.5,1,8.769
6590,210.88,6.5594,0.7135,-0.5088,0.0226,0.3278,1.5710,rough,15.5,1,8.769
6600,211.20,6.5593,0.7135,-0.5088,0.0226,0.3278,1.5710,rough,15.5,1,8.768
6610,211.52,6.5592,0.7135,-0.5088,0.0226,0.3278,1.5710,rough,15.5,1,8.768
6620,211.84,6.5591,0.7135,-0.5088,0.0226,0.3278,1.5710,rough,15.5,1,8.768
6630,212.16,6.5591,0.7135,-0.5088,0.0226,0.3278,1.5710,rough,15.5,1,8.768
6640,212.48,6.5590,0.7135,-0.5088,0.0226,0.3278,1.5710,rough,15.5,1,8.768
6650,212.80,6.5589,0.7135,-0.5088,0.0226,0.3278,1.5710,rough,15.5,1,8.768
6660,213.12,6.5589,0.7135,-0.5088,0.0226,0.3279,1.5710,rough,15.5,1,8.768
6670,213.44,6.5588,0.7135,-0.5088,0.0225,0.3279,1.5710,rough,15.5,1,8.768
6680,213.76,6.5587,0.7135,-0.5088,0.0225,0.3279,1.5710,rough,15.5,1,8.768
6690,214.08,6.5586,0.7135,-0.5088,0.0225,0.3279,1.5710,rough,15.5,1,8.768
6700,214.40,6.5586,0.7135,-0.5088,0.0225,0.3279,1.5710,rough,15.5,1,8.768
6710,214.72,6.5585,0.7135,-0.5088,0.0225,0.3279,1.5710,rough,15.5,1,8.768
6720,215.04,6.5584,0.7135,-0.5088,0.0225,0.3279,1.5710,rough,15.5,1,8.768
6730,215.36,6.5584,0.7135,-0.5088,0.0225,0.3279,1.5710,rough,15.5,1,8.768
6740,215.68,6.5583,0.7135,-0.5088,0.0225,0.3279,1.5710,rough,15.5,1,8.768
6750,216.00,6.5582,0.7135,-0.5088,0.0225,0.3279,1.5710,rough,15.5,1,8.768
6760,216.32,6.5582,0.7135,-0.5088,0.0225,0.3280,1.5710,rough,15.5,1,8.768
6770,216.64,6.5581,0.7135,-0.5088,0.0225,0.3280,1.5710,rough,15.5,1,8.768
6780,216.96,6.5580,0.7135,-0.5088,0.0225,0.3280,1.5710,rough,15.5,1,8.768
6790,217.28,6.5580,0.7135,-0.5088,0.0224,0.3280,1.5710,rough,15.5,1,8.768
6800,217.60,6.5579,0.7135,-0.5088,0.0224,0.3280,1.5710,rough,15.5,1,8.768
6810,217.92,6.5578,0.7135,-0.5088,0.0224,0.3280,1.5710,rough,15.5,1,8.768
6820,218.24,6.5577,0.7135,-0.5088,0.0224,0.3280,1.5710,rough,15.5,1,8.767
6830,218.56,6.5577,0.7135,-0.5088,0.0224,0.3280,1.5710,rough,15.5,1,8.767
6840,218.88,6.5576,0.7135,-0.5088,0.0224,0.3280,1.5710,rough,15.5,1,8.767
6850,219.20,6.5575,0.7135,-0.5088,0.0224,0.3281,1.5710,rough,15.5,1,8.767
6860,219.52,6.5575,0.7135,-0.5088,0.0224,0.3281,1.5710,rough,15.5,1,8.767
6870,219.84,6.5574,0.7135,-0.5088,0.0224,0.3281,1.5710,rough,15.5,1,8.767
6880,220.16,6.5573,0.7135,-0.5088,0.0224,0.3281,1.5710,rough,15.5,1,8.767
6890,220.48,6.5573,0.7135,-0.5088,0.0224,0.3281,1.5710,rough,15.5,1,8.767
6900,220.80,6.5572,0.7135,-0.5088,0.0223,0.3281,1.5710,rough,15.5,1,8.767
6910,221.12,6.5571,0.7135,-0.5088,0.0223,0.3281,1.5710,rough,15.5,1,8.767
6920,221.44,6.5570,0.7135,-0.5088,0.0223,0.3281,1.5710,rough,15.5,1,8.767
6930,221.76,6.5570,0.7136,-0.5088,0.0223,0.3281,1.5710,rough,15.5,1,8.767
6940,222.08,6.5569,0.7136,-0.5088,0.0223,0.3282,1.5710,rough,15.5,1,8.767
6950,222.40,6.5568,0.7136,-0.5088,0.0223,0.3282,1.5710,rough,15.5,1,8.767
6960,222.72,6.5568,0.7136,-0.5088,0.0223,0.3282,1.5710,rough,15.5,1,8.767
6970,223.04,6.5567,0.7136,-0.5088,0.0223,0.3282,1.5710,rough,15.5,1,8.767
6980,223.36,6.5566,0.7136,-0.5088,0.0223,0.3282,1.5710,rough,15.5,1,8.767
6990,223.68,6.5566,0.7136,-0.5088,0.0223,0.3282,1.5710,rough,15.5,1,8.767
7000,224.00,6.5565,0.7136,-0.5088,0.0223,0.3282,1.5710,rough,15.5,1,8.767
7010,224.32,6.5564,0.7136,-0.5088,0.0223,0.3282,1.5710,rough,15.5,1,8.767
7020,224.64,6.5564,0.7136,-0.5088,0.0222,0.3282,1.5710,rough,15.5,1,8.767
7030,224.96,6.5563,0.7136,-0.5088,0.0222,0.3282,1.5710,rough,15.5,1,8.767
7040,225.28,6.5562,0.7136,-0.5088,0.0222,0.3283,1.5710,rough,15.5,1,8.766
7050,225.60,6.5562,0.7136,-0.5088,0.0222,0.3283,1.5710,rough,15.5,1,8.766
7060,225.92,6.5561,0.7136,-0.5088,0.0222,0.3283,1.5710,rough,15.5,1,8.766
7070,226.24,6.5560,0.7136,-0.5088,0.0222,0.3283,1.5710,rough,15.5,1,8.766
7080,226.56,6.5559,0.7136,-0.5088,0.0222,0.3283,1.5710,rough,15.5,1,8.766
7090,226.88,6.5559,0.7136,-0.5088,0.0222,0.3283,1.5710,rough,15.5,1,8.766
7100,227.20,6.5558,0.7136,-0.5088,0.0222,0.3283,1.5710,rough,15.5,1,8.766
7110,227.52,6.5557,0.7136,-0.5088,0.0222,0.3283,1.5710,rough,15.5,1,8.766
7120,227.84,6.5557,0.7136,-0.5088,0.0222,0.3283,1.5710,rough,15.5,1,8.766
7130,228.16,6.5556,0.7136,-0.5088,0.0222,0.3284,1.5710,rough,15.5,1,8.766
7140,228.48,6.5555,0.7136,-0.5088,0.0221,0.3284,1.5710,rough,15.5,1,8.766
7150,228.80,6.5555,0.7136,-0.5088,0.0221,0.3284,1.5710,rough,15.5,1,8.766
7160,229.12,6.5554,0.7136,-0.5088,0.0221,0.3284,1.5710,rough,15.5,1,8.766
7170,229.44,6.5553,0.7136,-0.5088,0.0221,0.3284,1.5709,rough,15.5,1,8.766
7180,229.76,6.5553,0.7136,-0.5088,0.0221,0.3284,1.5709,rough,15.5,1,8.766
7190,230.08,6.5552,0.7136,-0.5088,0.0221,0.3284,1.5709,rough,15.5,1,8.766
7200,230.40,6.5551,0.7136,-0.5088,0.0221,0.3284,1.5709,rough,15.5,1,8.766
7210,230.72,6.5551,0.7136,-0.5088,0.0221,0.3284,1.5709,rough,15.5,1,8.766
7220,231.04,6.5550,0.7136,-0.5088,0.0221,0.3284,1.5709,rough,15.5,1,8.766
7230,231.36,6.5549,0.7136,-0.5088,0.0221,0.3285,1.5709,rough,15.5,1,8.766
7240,231.68,6.5549,0.7136,-0.5088,0.0221,0.3285,1.5709,rough,15.5,1,8.766
7250,232.00,6.5548,0.7136,-0.5088,0.0221,0.3285,1.5709,rough,15.5,1,8.766
7260,232.32,6.5547,0.7136,-0.5088,0.0220,0.3285,1.5709,rough,15.5,1,8.766
7270,232.64,6.5547,0.7136,-0.5088,0.0220,0.3285,1.5709,rough,15.5,1,8.765
7280,232.96,6.5546,0.7136,-0.5088,0.0220,0.3285,1.5709,rough,15.5,1,8.765
7290,233.28,6.5545,0.7136,-0.5088,0.0220,0.3285,1.5709,rough,15.5,1,8.765
7300,233.60,6.5545,0.7136,-0.5088,0.0220,0.3285,1.5709,rough,15.5,1,8.765
7310,233.92,6.5544,0.7136,-0.5088,0.0220,0.3285,1.5709,rough,15.5,1,8.765
7320,234.24,6.5543,0.7136,-0.5088,0.0220,0.3285,1.5709,rough,15.5,1,8.765
7330,234.56,6.5542,0.7136,-0.5088,0.0220,0.3286,1.5709,rough,15.5,1,8.765
7340,234.88,6.5542,0.7136,-0.5088,0.0220,0.3286,1.5709,rough,15.5,1,8.765
7350,235.20,6.5541,0.7136,-0.5088,0.0220,0.3286,1.5709,rough,15.5,1,8.765
7360,235.52,6.5540,0.7136,-0.5088,0.0220,0.3286,1.5709,rough,15.5,1,8.765
7370,235.84,6.5540,0.7136,-0.5088,0.0220,0.3286,1.5709,rough,15.5,1,8.765
7380,236.16,6.5539,0.7136,-0.5088,0.0219,0.3286,1.5709,rough,15.5,1,8.765
7390,236.48,6.5538,0.7136,-0.5088,0.0219,0.3286,1.5709,rough,15.5,1,8.765
7400,236.80,6.5538,0.7136,-0.5088,0.0219,0.3286,1.5709,rough,15.5,1,8.765
7410,237.12,6.5537,0.7136,-0.5088,0.0219,0.3286,1.5709,rough,15.5,1,8.765
7420,237.44,6.5536,0.7136,-0.5088,0.0219,0.3287,1.5709,rough,15.5,1,8.765
7430,237.76,6.5536,0.7136,-0.5088,0.0219,0.3287,1.5709,rough,15.5,1,8.765
7440,238.08,6.5535,0.7136,-0.5088,0.0219,0.3287,1.5709,rough,15.5,1,8.765
7450,238.40,6.5534,0.7136,-0.5088,0.0219,0.3287,1.5709,rough,15.5,1,8.765
7460,238.72,6.5534,0.7136,-0.5088,0.0219,0.3287,1.5709,rough,15.5,1,8.765
7470,239.04,6.5533,0.7136,-0.5088,0.0219,0.3287,1.5709,rough,15.5,1,8.765
7480,239.36,6.5532,0.7136,-0.5088,0.0219,0.3287,1.5709,rough,15.5,1,8.765
7490,239.68,6.5532,0.7136,-0.5088,0.0219,0.3287,1.5709,rough,15.5,1,8.765
7500,240.00,6.5531,0.7136,-0.5088,0.0218,0.3287,1.5709,rough,15.5,1,8.764
7510,240.32,6.5530,0.7136,-0.5088,0.0218,0.3287,1.5709,rough,15.5,1,8.764
7520,240.64,6.5530,0.7136,-0.5088,0.0218,0.3288,1.5709,rough,15.5,1,8.764
7530,240.96,6.5529,0.7136,-0.5088,0.0218,0.3288,1.5709,rough,15.5,1,8.764
7540,241.28,6.5528,0.7136,-0.5088,0.0218,0.3288,1.5709,rough,15.5,1,8.764
7550,241.60,6.5528,0.7136,-0.5088,0.0218,0.3288,1.5709,rough,15.5,1,8.764
7560,241.92,6.5527,0.7136,-0.5088,0.0218,0.3288,1.5709,rough,15.5,1,8.764
7570,242.24,6.5526,0.7136,-0.5088,0.0218,0.3288,1.5709,rough,15.5,1,8.764
7580,242.56,6.5526,0.7136,-0.5088,0.0218,0.3288,1.5709,rough,15.5,1,8.764
7590,242.88,6.5525,0.7136,-0.5088,0.0218,0.3288,1.5709,rough,15.5,1,8.764
7600,243.20,6.5524,0.7136,-0.5088,0.0218,0.3288,1.5709,rough,15.5,1,8.764
7610,243.52,6.5524,0.7136,-0.5088,0.0218,0.3288,1.5709,rough,15.5,1,8.764
7620,243.84,6.5523,0.7137,-0.5088,0.0217,0.3289,1.5709,rough,15.5,1,8.764
7630,244.16,6.5522,0.7137,-0.5088,0.0217,0.3289,1.5709,rough,15.5,1,8.764
7640,244.48,6.5522,0.7137,-0.5088,0.0217,0.3289,1.5709,rough,15.5,1,8.764
7650,244.80,6.5521,0.7137,-0.5088,0.0217,0.3289,1.5709,rough,15.5,1,8.764
7660,245.12,6.5520,0.7137,-0.5088,0.0217,0.3289,1.5709,rough,15.5,1,8.764
7670,245.44,6.5520,0.7137,-0.5088,0.0217,0.3289,1.5709,rough,15.5,1,8.764
7680,245.76,6.5519,0.7137,-0.5088,0.0217,0.3289,1.5709,rough,15.5,1,8.764
7690,246.08,6.5518,0.7137,-0.5088,0.0217,0.3289,1.5709,rough,15.5,1,8.764
7700,246.40,6.5518,0.7137,-0.5088,0.0217,0.3289,1.5709,rough,15.5,1,8.764
7710,246.72,6.5517,0.7137,-0.5088,0.0217,0.3289,1.5709,rough,15.5,1,8.764
7720,247.04,6.5516,0.7137,-0.5088,0.0217,0.3290,1.5709,rough,15.5,1,8.764
7730,247.36,6.5516,0.7137,-0.5088,0.0217,0.3290,1.5709,rough,15.5,1,8.763
7740,247.68,6.5515,0.7137,-0.5088,0.0216,0.3290,1.5709,rough,15.5,1,8.763
7750,248.00,6.5514,0.7137,-0.5088,0.0216,0.3290,1.5709,rough,15.5,1,8.763
7760,248.32,6.5514,0.7137,-0.5088,0.0216,0.3290,1.5709,rough,15.5,1,8.763
7770,248.64,6.5513,0.7137,-0.5088,0.0216,0.3290,1.5709,rough,15.5,1,8.763
7780,248.96,6.5512,0.7137,-0.5088,0.0216,0.3290,1.5709,rough,15.5,1,8.763
7790,249.28,6.5512,0.7137,-0.5088,0.0216,0.3290,1.5709,rough,15.5,1,8.763
7800,249.60,6.5511,0.7137,-0.5088,0.0216,0.3290,1.5709,rough,15.5,1,8.763
7810,249.92,6.5511,0.7137,-0.5088,0.0216,0.3290,1.5709,rough,15.5,1,8.763
7820,250.24,6.5510,0.7137,-0.5088,0.0216,0.3291,1.5709,rough,15.5,1,8.763
7830,250.56,6.5509,0.7137,-0.5088,0.0216,0.3291,1.5709,rough,15.5,1,8.763
7840,250.88,6.5509,0.7137,-0.5088,0.0216,0.3291,1.5709,rough,15.5,1,8.763
7850,251.20,6.5508,0.7137,-0.5088,0.0216,0.3291,1.5709,rough,15.5,1,8.763
7860,251.52,6.5507,0.7137,-0.5088,0.0216,0.3291,1.5709,rough,15.5,1,8.763
7870,251.84,6.5507,0.7137,-0.5088,0.0215,0.3291,1.5709,rough,15.5,1,8.763
7880,252.16,6.5506,0.7137,-0.5088,0.0215,0.3291,1.5709,rough,15.5,1,8.763
7890,252.48,6.5505,0.7137,-0.5088,0.0215,0.3291,1.5709,rough,15.5,1,8.763
7900,252.80,6.5505,0.7137,-0.5088,0.0215,0.3291,1.5709,rough,15.5,1,8.763
7910,253.12,6.5504,0.7137,-0.5088,0.0215,0.3291,1.5709,rough,15.5,1,8.763
7920,253.44,6.5503,0.7137,-0.5088,0.0215,0.3292,1.5709,rough,15.5,1,8.763
7930,253.76,6.5503,0.7137,-0.5088,0.0215,0.3292,1.5709,rough,15.5,1,8.763
7940,254.08,6.5502,0.7137,-0.5088,0.0215,0.3292,1.5709,rough,15.5,1,8.763
7950,254.40,6.5501,0.7137,-0.5088,0.0215,0.3292,1.5709,rough,15.5,1,8.763
7960,254.72,6.5501,0.7137,-0.5088,0.0215,0.3292,1.5709,rough,15.5,1,8.763
7970,255.04,6.5500,0.7137,-0.5088,0.0215,0.3292,1.5709,rough,15.5,1,8.762
7980,255.36,6.5499,0.7137,-0.5088,0.0215,0.3292,1.5709,rough,15.5,1,8.762
7990,255.68,6.5499,0.7137,-0.5088,0.0214,0.3292,1.5709,rough,15.5,1,8.762
8000,256.00,6.5498,0.7137,-0.5088,0.0214,0.3292,1.5709,rough,15.5,1,8.762
8010,256.32,6.5497,0.7137,-0.5088,0.0214,0.3292,1.5709,rough,15.5,1,8.762
8020,256.64,6.5497,0.7137,-0.5088,0.0214,0.3293,1.5709,rough,15.5,1,8.762
8030,256.96,6.5496,0.7137,-0.5088,0.0214,0.3293,1.5709,rough,15.5,1,8.762
8040,257.28,6.5495,0.7137,-0.5088,0.0214,0.3293,1.5709,rough,15.5,1,8.762
8050,257.60,6.5495,0.7137,-0.5088,0.0214,0.3293,1.5709,rough,15.5,1,8.762
8060,257.92,6.5494,0.7137,-0.5088,0.0214,0.3293,1.5709,rough,15.5,1,8.762
8070,258.24,6.5494,0.7137,-0.5088,0.0214,0.3293,1.5709,rough,15.5,1,8.762
8080,258.56,6.5493,0.7137,-0.5088,0.0214,0.3293,1.5709,rough,15.5,1,8.762
8090,258.88,6.5492,0.7137,-0.5088,0.0214,0.3293,1.5709,rough,15.5,1,8.762
