step,time_s,x,y,z,roll,pitch,yaw,terrain,speed,target_idx,dist_to_target
10,0.32,0.0014,-0.0617,0.1917,-0.0019,-0.0186,-0.0001,slope,18.0,0,5.395
20,0.64,0.2866,-0.0681,0.2079,0.0193,-0.0636,-0.0605,slope,18.0,0,5.170
30,0.96,0.6078,-0.1092,0.2232,0.0606,-0.0508,-0.1342,slope,18.0,0,4.902
40,1.28,0.9452,-0.1853,0.2335,0.0788,-0.0882,-0.2733,slope,18.0,0,4.604
50,1.60,1.3860,-0.3678,0.2336,0.1135,0.0753,-0.4633,slope,18.0,0,4.165
60,1.92,1.8311,-0.6345,0.1902,0.0910,0.0895,-0.6228,slope,18.0,0,3.669
70,2.24,2.2371,-0.9880,0.1456,0.1362,0.1086,-0.7287,slope,18.0,0,3.137
80,2.56,2.6342,-1.3808,0.0436,0.2045,0.2259,-0.7876,slope,18.0,0,2.582
90,2.88,2.9578,-1.8235,-0.1443,0.3374,0.3447,-0.7723,rough,15.5,0,2.034
100,3.20,3.2448,-2.1751,-0.2648,0.3787,0.1789,-0.8128,slope,18.0,0,1.580
110,3.52,3.4631,-2.5234,-0.3130,0.4884,-0.0325,-0.8681,slope,18.0,0,1.173
120,3.84,3.7654,-2.8694,-0.3138,0.4543,0.0842,-0.8215,rough,15.5,1,7.079
130,4.16,4.0119,-3.2082,-0.4081,0.3499,0.2343,-1.0292,rough,15.5,1,6.985
140,4.48,4.1239,-3.5384,-0.4900,0.3146,0.3042,-1.4675,slope,18.0,1,6.824
150,4.80,4.0921,-3.9745,-0.5846,0.3242,0.1404,-1.7761,slope,18.0,1,6.500
160,5.12,3.9514,-4.4384,-0.6499,0.4013,0.0725,-1.9395,rough,15.5,1,6.089
170,5.44,3.7523,-4.7791,-0.6710,0.3515,-0.0070,-2.2196,rough,15.5,1,5.719
180,5.76,3.4571,-5.0964,-0.6934,0.2767,0.0435,-2.3857,rough,15.5,1,5.290
190,6.08,3.0796,-5.3201,-0.7219,0.5400,0.1393,-2.4789,rough,15.5,1,4.855
200,6.40,2.8455,-5.4393,-0.7089,0.5821,-0.2979,-2.8443,rough,15.5,1,4.598
210,6.72,2.5979,-5.5064,-0.6402,0.4666,-0.4639,-3.1292,rough,15.5,1,4.366
220,7.04,2.3550,-5.4729,-0.5403,0.6015,-0.5651,3.1177,rough,15.5,1,4.207
230,7.36,2.1508,-5.4400,-0.4302,0.1602,-0.7722,-2.6596,rough,15.5,1,4.084
240,7.68,1.9718,-5.5030,-0.2586,-0.2186,-0.7665,-2.1831,rough,15.5,1,3.915
250,8.00,1.7733,-5.6288,-0.0800,-0.1098,-0.7324,-2.1435,rough,15.5,1,3.688
260,8.32,1.5417,-5.8594,0.1274,0.0246,-0.6022,-2.0813,rough,15.5,1,3.361
270,8.64,1.4120,-6.1524,0.3907,-0.0964,-0.7838,-2.0338,rough,15.5,1,3.058
280,8.96,1.3047,-6.4003,0.6638,-0.2419,-0.8824,-1.9317,rough,15.5,1,2.807
290,9.28,1.2586,-6.5929,0.8600,-0.5151,-0.7937,-1.6782,rough,15.5,1,2.642
300,9.60,1.3017,-6.6977,0.9302,-0.7385,-0.6802,-1.3336,rough,15.5,1,2.607
310,9.92,1.4575,-6.6790,0.8033,-0.8142,-0.4452,-1.0171,rough,15.5,1,2.740
320,10.24,1.6378,-6.5430,0.5687,-0.6402,-0.3959,-1.0409,rough,15.5,1,2.966
330,10.56,1.7258,-6.3653,0.3917,-0.5438,-0.5394,-1.1771,rough,15.5,1,3.145
340,10.88,1.8040,-6.2194,0.2558,-0.5129,-0.5741,-1.2687,rough,15.5,1,3.299
350,11.20,1.9083,-6.1986,0.2002,-0.6519,-0.3832,-0.9050,slope,18.0,1,3.392
360,11.52,2.1455,-6.2601,0.1582,-0.7056,-0.2357,-0.6169,slope,18.0,1,3.542
370,11.84,2.4058,-6.2802,0.0976,-0.6909,-0.4844,-0.9587,rough,15.5,1,3.744
380,12.16,2.6481,-6.2159,-0.0763,-0.5645,-0.6375,-1.2025,rough,15.5,1,3.982
390,12.48,2.7737,-6.0440,-0.2656,-0.4597,-0.6521,-1.2282,rough,15.5,1,4.181
400,12.80,2.8830,-5.8816,-0.4162,-0.5733,-0.6282,-0.8567,rough,15.5,1,4.362
410,13.12,3.0548,-5.8169,-0.4771,-0.3794,-0.5215,-0.7691,rough,15.5,1,4.541
420,13.44,3.2624,-5.9437,-0.4149,-0.3559,-0.4191,-0.9623,rough,15.5,1,4.648
430,13.76,3.4371,-6.1208,-0.3274,-0.2404,-0.3458,-1.0621,rough,15.5,1,4.711
440,14.08,3.6303,-6.3681,-0.2557,-0.3917,-0.3630,-1.1298,rough,15.5,1,4.774
450,14.40,3.8136,-6.7142,-0.1771,-0.5008,-0.2667,-1.3340,rough,15.5,1,4.813
460,14.72,3.9019,-7.0009,-0.0720,-0.4393,-0.5080,-1.4540,slope,18.0,1,4.808
470,15.04,3.9401,-7.2109,0.0431,-0.4056,-0.5704,-1.4958,rough,15.5,1,4.790
480,15.36,3.9634,-7.3825,0.1430,-0.4181,-0.5531,-1.3944,rough,15.5,1,4.775
490,15.68,4.0324,-7.5042,0.2015,-0.4927,-0.5254,-1.2271,rough,15.5,1,4.820
500,16.00,4.1775,-7.6535,0.2549,-0.5670,-0.4174,-0.9620,rough,15.5,1,4.939
510,16.32,4.4032,-7.8629,0.2964,-0.6288,-0.2408,-1.0966,rough,15.5,1,5.138
520,16.64,4.6602,-8.0950,0.1906,-0.7768,-0.1549,-1.2463,rough,15.5,1,5.378
530,16.96,4.9619,-8.2877,0.0065,-0.8213,-0.1392,-1.4192,rough,15.5,1,5.674
540,17.28,5.2674,-8.4556,-0.2638,-0.8938,-0.2182,-1.2742,rough,15.5,1,5.980
550,17.60,5.5175,-8.4976,-0.4466,-0.5669,-0.2276,-1.1805,rough,15.5,1,6.231
560,17.92,5.6361,-8.5959,-0.4456,-0.5670,-0.1716,-1.2777,rough,15.5,1,6.353
570,18.24,5.7502,-8.7503,-0.4627,-0.6518,-0.2659,-1.3566,rough,15.5,1,6.474
580,18.56,5.7976,-8.9113,-0.4098,-0.6771,-0.4123,-1.3855,rough,15.5,1,6.533
590,18.88,5.8229,-9.0469,-0.3533,-0.6398,-0.4259,-1.4201,rough,15.5,1,6.571
600,19.20,5.8542,-9.1736,-0.3077,-0.6594,-0.3366,-1.5537,rough,15.5,1,6.617
610,19.52,5.8664,-9.2669,-0.2659,-0.6488,-0.3341,-1.5905,rough,15.5,1,6.641
620,19.84,5.8644,-9.3212,-0.2547,-0.6543,-0.3947,-1.5387,rough,15.5,1,6.647
630,20.16,5.8855,-9.4020,-0.2317,-0.6353,-0.4827,-1.6255,slope,18.0,1,6.680
640,20.48,5.8973,-9.4845,-0.1976,-0.4908,-0.6369,-1.7994,slope,18.0,1,6.705
650,20.80,5.9024,-9.5689,-0.1558,-0.3366,-0.7487,-2.0532,rough,15.5,1,6.725
660,21.12,5.8999,-9.6074,-0.1378,-0.2587,-0.7857,-2.1949,rough,15.5,1,6.730
670,21.44,5.9080,-9.6487,-0.1308,-0.1150,-0.8264,-2.4245,rough,15.5,1,6.745
680,21.76,5.9615,-9.6805,-0.1771,0.0749,-0.7966,-2.7609,rough,15.5,1,6.804
690,22.08,6.0061,-9.7041,-0.2057,0.1067,-0.7508,-2.8945,slope,18.0,1,6.852
700,22.40,6.0075,-9.7213,-0.2024,0.0098,-0.7580,-2.7407,slope,18.0,1,6.857
710,22.72,5.9934,-9.7213,-0.1913,0.0419,-0.7576,-2.7818,rough,15.5,1,6.843
720,23.04,5.9712,-9.7182,-0.1756,0.1007,-0.7493,-2.8592,slope,18.0,1,6.821
730,23.36,5.9596,-9.7274,-0.1602,0.1445,-0.7528,-2.9238,slope,18.0,1,6.811
740,23.68,5.9498,-9.7328,-0.1490,0.1778,-0.7512,-2.9720,slope,18.0,1,6.803
750,24.00,5.9447,-9.7360,-0.1432,0.2117,-0.7403,-3.0265,slope,18.0,1,6.799
760,24.32,5.9361,-9.7375,-0.1348,0.2350,-0.7398,-3.0579,slope,18.0,1,6.790
770,24.64,5.9299,-9.7390,-0.1287,0.2590,-0.7342,-3.0940,rough,15.5,1,6.785
780,24.96,5.9184,-9.7348,-0.1201,0.2937,-0.7317,-3.1391,rough,15.5,1,6.773
790,25.28,5.9009,-9.7271,-0.1074,0.3366,-0.7325,3.0924,rough,15.5,1,6.754
800,25.60,5.8808,-9.7176,-0.0932,0.3847,-0.7325,3.0345,rough,15.5,1,6.732
810,25.92,5.8579,-9.7060,-0.0775,0.4377,-0.7316,2.9708,rough,15.5,1,6.708
820,26.24,5.8379,-9.6916,-0.0660,0.4957,-0.7163,2.8853,rough,15.5,1,6.685
830,26.56,5.8251,-9.6732,-0.0630,0.5659,-0.6559,2.7655,rough,15.5,1,6.669
840,26.88,5.8108,-9.6473,-0.0589,0.6345,-0.6072,2.6528,rough,15.5,1,6.650
850,27.20,5.7949,-9.6117,-0.0599,0.6945,-0.5303,2.5586,rough,15.5,1,6.627
860,27.52,5.7820,-9.5680,-0.0679,0.7416,-0.4535,2.4616,rough,15.5,1,6.606
870,27.84,5.7668,-9.5027,-0.0901,0.7799,-0.3607,2.3934,rough,15.5,1,6.580
880,28.16,5.7567,-9.4240,-0.1197,0.8007,-0.2631,2.3036,rough,15.5,1,6.556
890,28.48,5.7832,-9.3130,-0.1981,0.7809,-0.2240,2.3027,rough,15.5,1,6.566
900,28.80,5.8462,-9.2085,-0.2828,1.0590,-0.2408,2.0565,rough,15.5,1,6.613
910,29.12,5.8967,-9.0666,-0.4118,0.8334,0.0212,1.9000,rough,15.5,1,6.647
920,29.44,5.7968,-8.8466,-0.4357,0.7129,0.1478,2.0472,rough,15.5,1,6.527
930,29.76,5.7101,-8.6470,-0.4709,0.6323,0.0538,1.9500,rough,15.5,1,6.429
940,30.08,5.5848,-8.3847,-0.4957,0.5441,0.0622,1.9957,rough,15.5,1,6.297
950,30.40,5.4645,-8.1215,-0.4914,0.4667,-0.1447,1.8975,rough,15.5,1,6.181
960,30.72,5.3747,-7.7623,-0.4717,0.5993,-0.2447,1.8613,rough,15.5,1,6.115
970,31.04,5.2309,-7.3741,-0.3731,0.4521,-0.2150,1.9642,rough,15.5,1,6.023
980,31.36,4.9794,-7.0564,-0.3911,0.0424,0.1418,2.1561,rough,15.5,1,5.837
990,31.68,4.7767,-6.6590,-0.4384,0.0787,0.2864,2.4252,rough,15.5,1,5.744
1000,32.00,4.5216,-6.4583,-0.4972,0.1749,0.0782,2.5415,rough,15.5,1,5.566
1010,32.32,4.2673,-6.2685,-0.4862,0.2130,-0.1293,2.6403,rough,15.5,1,5.398
1020,32.64,3.9619,-6.1033,-0.4317,0.2081,-0.1213,2.8465,rough,15.5,1,5.187
1030,32.96,3.6514,-5.9861,-0.3967,0.3117,-0.1246,2.9548,rough,15.5,1,4.964
1040,33.28,3.2477,-5.8525,-0.4483,0.6455,0.0493,-2.9621,rough,15.5,1,4.683
1050,33.60,2.9276,-5.8293,-0.4748,0.6727,-0.2023,-2.8453,rough,15.5,1,4.429
1060,33.92,2.6967,-5.8221,-0.4389,0.7241,-0.5187,-3.0939,rough,15.5,1,4.245
1070,34.24,2.4184,-5.7985,-0.3386,0.5817,-0.5084,-3.0521,rough,15.5,1,4.040
1080,34.56,2.2157,-5.7553,-0.2598,0.2806,-0.7321,-2.6245,rough,15.5,1,3.914
1090,34.88,2.1969,-5.7200,-0.2779,-0.1178,-0.7683,-2.1144,rough,15.5,1,3.924
1100,35.20,2.1242,-5.6669,-0.2673,-0.3257,-0.7102,-1.9080,rough,15.5,1,3.906
1110,35.52,2.1219,-5.6176,-0.2973,-0.5667,-0.5867,-1.5550,rough,15.5,1,3.939
1120,35.84,2.1758,-5.6063,-0.3387,-0.6760,-0.4817,-1.3097,rough,15.5,1,3.985
1130,36.16,2.3393,-5.6529,-0.4119,-0.7031,-0.2930,-1.0020,rough,15.5,1,4.074
1140,36.48,2.4910,-5.7184,-0.4339,-0.6596,-0.3523,-1.0626,rough,15.5,1,4.147
1150,36.80,2.6031,-5.8098,-0.4242,-0.6416,-0.4763,-1.0820,rough,15.5,1,4.178
1160,37.12,2.7022,-5.8828,-0.3854,-0.5616,-0.7409,-1.2169,rough,15.5,1,4.214
1170,37.44,2.7824,-5.9120,-0.3686,-0.4478,-0.7464,-1.2229,rough,15.5,1,4.262
1180,37.76,2.8645,-5.9347,-0.3824,-0.2326,-0.6641,-1.3533,rough,15.5,1,4.317
1190,38.08,2.9510,-5.9480,-0.3851,-0.1827,-0.6585,-1.2706,rough,15.5,1,4.382
1200,38.40,2.9980,-5.9096,-0.4152,-0.0262,-0.7585,-1.3890,rough,15.5,1,4.442
1210,38.72,3.0338,-5.8351,-0.4809,0.0333,-0.7491,-1.4770,rough,15.5,1,4.513
1220,39.04,3.0534,-5.8547,-0.4610,0.0621,-0.7534,-1.5334,rough,15.5,1,4.519
1230,39.36,3.0581,-5.8633,-0.4509,0.0818,-0.7522,-1.5525,rough,15.5,2,6.625
1240,39.68,3.0510,-5.7994,-0.4980,0.1421,-0.7286,-1.6173,rough,15.5,2,6.600
1250,40.00,3.0427,-5.7579,-0.5264,0.1468,-0.6430,-1.6243,rough,15.5,2,6.581
1260,40.32,3.0396,-5.8639,-0.4546,0.1327,-0.7433,-1.6324,rough,15.5,2,6.608
1270,40.64,3.0329,-5.8767,-0.4417,0.1073,-0.7491,-1.5899,rough,15.5,2,6.605
1280,40.96,3.0179,-5.7459,-0.5405,0.1456,-0.6036,-1.6350,rough,15.5,2,6.554
1290,41.28,3.0110,-5.7177,-0.5552,0.1620,-0.5992,-1.6204,rough,15.5,2,6.539
1300,41.60,3.0128,-5.8392,-0.4799,0.1328,-0.7529,-1.6441,rough,15.5,2,6.575
1310,41.92,3.0025,-5.8861,-0.4370,0.1129,-0.7479,-1.5979,rough,15.5,2,6.579
1320,42.24,2.9889,-5.7652,-0.5274,0.1629,-0.6681,-1.6527,rough,15.5,2,6.531
1330,42.56,2.9680,-5.6528,-0.6017,0.2228,-0.5551,-1.6390,rough,15.5,2,6.480
1340,42.88,2.9649,-5.7198,-0.5591,0.1913,-0.6289,-1.6452,rough,15.5,2,6.495
1350,43.20,2.9635,-5.8682,-0.4556,0.1190,-0.7608,-1.6083,rough,15.5,2,6.536
1360,43.52,2.9625,-5.9367,-0.3928,0.0829,-0.7525,-1.5784,rough,15.5,2,6.556
1370,43.84,2.9613,-5.8209,-0.4997,0.0830,-0.7513,-1.5721,rough,15.5,2,6.520
1380,44.16,2.9447,-5.6308,-0.6157,0.2263,-0.5651,-1.5894,rough,15.5,2,6.452
1390,44.48,2.9475,-5.6026,-0.6339,0.2474,-0.5286,-1.6062,rough,15.5,2,6.447
1400,44.80,2.9572,-5.7548,-0.5359,0.1781,-0.6873,-1.6497,rough,15.5,2,6.498
1410,45.12,2.9518,-5.9643,-0.3650,0.0893,-0.7610,-1.6049,rough,15.5,2,6.554
1420,45.44,2.9592,-6.0324,-0.3102,0.0671,-0.7631,-1.6238,rough,15.5,2,6.583
1430,45.76,2.9690,-5.9136,-0.4128,0.1639,-0.7602,-1.6819,rough,15.5,2,6.555
1440,46.08,2.9521,-5.6959,-0.5763,0.1597,-0.6330,-1.5562,rough,15.5,2,6.477
1450,46.40,2.9420,-5.5466,-0.6653,0.2706,-0.5095,-1.5897,rough,15.5,2,6.428
1460,46.72,2.9413,-5.5540,-0.6682,0.2443,-0.4970,-1.5803,rough,15.5,2,6.429
1470,47.04,2.9546,-5.7447,-0.5428,0.1768,-0.6806,-1.6355,rough,15.5,2,6.492
1480,47.36,2.9533,-5.9359,-0.3898,0.1304,-0.7701,-1.6342,rough,15.5,2,6.547
1490,47.68,2.9512,-5.9569,-0.3705,0.0815,-0.7560,-1.5906,rough,15.5,2,6.551
1500,48.00,2.9457,-5.7992,-0.5069,0.0945,-0.7336,-1.5705,rough,15.5,2,6.499
1510,48.32,2.9332,-5.6123,-0.6256,0.2312,-0.5619,-1.5889,rough,15.5,2,6.436
1520,48.64,2.9340,-5.5781,-0.6503,0.2669,-0.5216,-1.5997,rough,15.5,2,6.428
1530,48.96,2.9471,-5.7244,-0.5542,0.1972,-0.6741,-1.6447,rough,15.5,2,6.480
1540,49.28,2.9486,-5.9350,-0.3914,0.1196,-0.7600,-1.6396,rough,15.5,2,6.542
1550,49.60,2.9521,-6.0329,-0.3074,0.0593,-0.7612,-1.6190,rough,15.5,2,6.576
1560,49.92,2.9609,-5.9599,-0.3671,0.1933,-0.7739,-1.7244,rough,15.5,2,6.561
1570,50.24,2.9524,-5.7660,-0.5245,0.1573,-0.7349,-1.6011,rough,15.5,2,6.496
1580,50.56,2.9450,-5.5977,-0.6370,0.2445,-0.5303,-1.5893,rough,15.5,2,6.444
1590,50.88,2.9478,-5.5960,-0.6384,0.2526,-0.5188,-1.6112,rough,15.5,3,12.275
1600,51.20,2.9432,-5.4983,-0.6923,0.2894,-0.4999,-1.6311,rough,15.5,3,12.180
1610,51.52,2.9340,-5.2895,-0.7854,0.3009,-0.3580,-1.6006,rough,15.5,3,11.980
1620,51.84,2.9285,-5.1165,-0.8330,0.2729,-0.0602,-1.6929,rough,15.5,3,11.815
1630,52.16,2.9595,-4.9440,-0.8344,0.2290,0.0238,-1.9872,rough,15.5,3,11.662
1640,52.48,2.9186,-4.8563,-0.8424,0.0985,0.2124,-2.5782,rough,15.5,3,11.566
1650,52.80,2.7822,-4.9223,-0.8498,0.0612,-0.0078,-2.9614,rough,15.5,3,11.583
1660,53.12,2.5343,-4.9464,-0.8176,0.1341,-0.3022,-3.0880,rough,15.5,3,11.529
1670,53.44,2.2400,-4.9320,-0.7589,0.4529,-0.6165,3.0631,rough,15.5,3,11.429
1680,53.76,1.9771,-4.9006,-0.6158,0.4886,-0.5277,3.0852,rough,15.5,3,11.328
1690,54.08,1.6188,-4.8579,-0.4732,0.5627,-0.3800,3.0969,rough,15.5,3,11.199
1700,54.40,1.1633,-4.7840,-0.3803,0.5037,-0.1037,3.0220,rough,15.5,3,11.030
1710,54.72,0.7832,-4.6974,-0.3049,0.4929,-0.3944,2.7766,rough,15.5,3,10.878
1720,55.04,0.4306,-4.5192,-0.1682,0.4949,-0.4048,2.6869,rough,15.5,3,10.651
1730,55.36,0.1440,-4.2915,-0.0278,0.6352,-0.4962,2.5401,rough,15.5,3,10.391
1740,55.68,-0.0866,-4.0538,0.0364,0.5041,-0.3056,2.7501,rough,15.5,3,10.132
1750,56.00,-0.4683,-3.8764,0.1531,0.5541,-0.2741,2.7399,rough,15.5,3,9.929
1760,56.32,-0.8715,-3.6746,0.2612,0.5411,-0.2659,2.6760,rough,15.5,3,9.716
1770,56.64,-1.2298,-3.4534,0.3734,0.5928,-0.3510,2.5701,rough,15.5,3,9.498
1780,56.96,-1.5950,-3.1871,0.4798,0.6474,-0.1329,2.5972,rough,15.5,3,9.250
1790,57.28,-1.8186,-2.9339,0.4858,0.7744,0.0596,2.3760,rough,15.5,3,9.016
1800,57.60,-1.9583,-2.6470,0.4046,0.6780,0.0483,2.0753,rough,15.5,3,8.745
1810,57.92,-2.1207,-2.2723,0.2591,0.2923,0.3468,1.8470,rough,15.5,3,8.394
1820,58.24,-2.1673,-1.9011,0.1543,0.2114,0.2510,1.6284,rough,15.5,3,8.033
1830,58.56,-2.1399,-1.5437,0.0945,0.1385,0.0116,1.4100,rough,15.5,3,7.676
1840,58.88,-2.0337,-1.1219,0.0600,-0.0179,0.0225,1.2429,slope,18.0,3,7.243
1850,59.20,-1.8745,-0.6525,0.0623,0.0176,0.0072,1.3211,slope,18.0,3,6.756
1860,59.52,-1.7780,-0.1336,0.0683,-0.0724,-0.0234,1.4406,rough,15.5,3,6.228
1870,59.84,-1.7437,0.3415,0.0887,-0.1955,-0.0598,1.4179,rough,15.5,3,5.753
1880,60.16,-1.6757,0.8470,0.1293,-0.2206,-0.1703,1.4167,slope,18.0,3,5.243
1890,60.48,-1.5969,1.3813,0.2381,-0.2276,-0.2594,1.4385,rough,15.5,3,4.703
1900,60.80,-1.5143,1.8438,0.3358,-0.1074,-0.2506,1.4559,rough,15.5,3,4.233
1910,61.12,-1.4132,2.3488,0.4304,0.0909,-0.1570,1.4155,slope,18.0,3,3.720
1920,61.44,-1.3145,2.8206,0.4949,0.1678,-0.1159,1.3937,rough,15.5,3,3.240
1930,61.76,-1.2124,3.3168,0.5193,0.1896,0.0316,1.3906,rough,15.5,3,2.736
1940,62.08,-1.1221,3.8424,0.4456,0.1803,0.2631,1.4340,rough,15.5,3,2.204
1950,62.40,-1.0555,4.3556,0.2342,0.2061,0.4773,1.4728,rough,15.5,3,1.688
1960,62.72,-0.9843,4.8177,-0.0623,0.3725,0.5574,1.6088,rough,15.5,3,1.223
1970,63.04,-0.9403,5.2564,-0.3476,0.5254,0.6139,1.6258,rough,15.5,0,10.091
1980,63.36,-0.9188,5.5789,-0.5307,0.6161,0.4616,1.6306,rough,15.5,0,10.358
1990,63.68,-0.8887,5.8225,-0.6620,0.6297,0.4579,1.5395,rough,15.5,0,10.556
2000,64.00,-0.8144,6.0085,-0.7936,0.2828,0.6562,0.8831,rough,15.5,0,10.683
2010,64.32,-0.5786,6.0520,-0.9711,-0.2760,0.6063,0.0842,rough,15.5,0,10.613
2020,64.64,-0.2689,6.0565,-1.1501,-0.4507,0.2745,-0.3257,rough,15.5,0,10.480
2030,64.96,0.0131,5.9991,-1.1953,-0.4479,-0.1699,-0.4981,rough,15.5,0,10.310
2040,65.28,0.3865,5.8068,-1.1472,-0.5206,-0.1270,-0.7295,rough,15.5,0,9.985
2050,65.60,0.6929,5.5487,-1.0975,-0.4991,-0.1880,-0.9011,rough,15.5,0,9.630
2060,65.92,0.9879,5.2196,-1.0705,-0.6827,-0.0312,-1.0255,rough,15.5,0,9.217
2070,66.24,1.2064,4.9566,-1.0289,-0.6741,-0.2362,-0.8559,rough,15.5,0,8.895
2080,66.56,1.4504,4.7232,-0.9530,-0.6702,-0.3213,-0.7748,rough,15.5,0,8.593
2090,66.88,1.6578,4.5683,-0.8664,-0.7410,-0.4808,-0.6851,rough,15.5,0,8.381
2100,67.20,1.8378,4.4700,-0.8527,-0.5784,-0.3641,-0.7736,rough,15.5,0,8.233
2110,67.52,2.0954,4.2596,-0.7651,-0.5529,-0.2787,-0.7869,rough,15.5,0,7.959
2120,67.84,2.3308,4.0758,-0.7169,-0.5685,-0.3160,-0.7857,rough,15.5,0,7.721
2130,68.16,2.5883,3.8090,-0.6886,-0.4040,-0.0974,-0.8682,rough,15.5,0,7.401
2140,68.48,2.8558,3.5356,-0.6186,-0.4093,-0.2951,-0.7847,slope,18.0,0,7.078
2150,68.80,3.1023,3.2719,-0.5215,-0.2561,-0.3798,-0.9338,rough,15.5,0,6.774
2160,69.12,3.3211,2.9864,-0.4196,-0.3090,-0.3020,-1.1316,rough,15.5,0,6.458
2170,69.44,3.5217,2.6021,-0.3558,-0.4876,-0.1038,-1.3034,slope,18.0,0,6.051
2180,69.76,3.6696,2.1204,-0.2971,-0.4662,-0.1417,-1.3050,rough,15.5,0,5.556
2190,70.08,3.7999,1.6722,-0.2499,-0.3941,-0.1190,-1.2701,rough,15.5,0,5.097
2200,70.40,3.9423,1.2965,-0.1989,-0.3864,-0.2442,-1.1894,rough,15.5,0,4.712
2210,70.72,4.0695,0.8943,-0.1224,-0.2053,-0.1930,-1.1940,rough,15.5,0,4.304
2220,71.04,4.2736,0.4621,-0.1310,-0.2611,0.2818,-1.2235,rough,15.5,0,3.869
2230,71.36,4.4304,0.1158,-0.2228,-0.2671,0.2273,-1.2426,rough,15.5,0,3.528
2240,71.68,4.5109,-0.2783,-0.2584,0.0298,0.2195,-1.2610,rough,15.5,0,3.140
2250,72.00,4.5812,-0.6153,-0.2717,0.1335,-0.0306,-1.3389,rough,15.5,0,2.813
2260,72.32,4.5994,-1.0426,-0.2622,0.1847,-0.0541,-1.5453,slope,18.0,0,2.392
2270,72.64,4.5868,-1.5467,-0.2213,0.0637,-0.1717,-1.6692,slope,18.0,0,1.893
2280,72.96,4.5815,-2.0525,-0.2035,-0.2673,0.0291,-1.7679,rough,15.5,0,1.398
2290,73.28,4.5143,-2.4424,-0.2278,-0.2613,0.0357,-1.8532,rough,15.5,0,1.004
2300,73.60,4.3630,-2.8924,-0.2786,-0.1903,0.2212,-1.9886,rough,15.5,1,7.455
2310,73.92,4.1134,-3.2964,-0.4241,0.0017,0.3946,-2.1441,rough,15.5,1,6.990
2320,74.24,3.8795,-3.6525,-0.5730,-0.1075,0.3945,-2.2692,rough,15.5,1,6.571
2330,74.56,3.6156,-3.9391,-0.6793,-0.1688,0.1362,-2.3572,rough,15.5,1,6.181
2340,74.88,3.2829,-4.2492,-0.7079,-0.1140,0.0747,-2.4241,rough,15.5,1,5.727
2350,75.20,2.8910,-4.5861,-0.7998,-0.1648,0.2466,-2.4672,rough,15.5,1,5.213
2360,75.52,2.5800,-4.8339,-0.8188,-0.0815,-0.1652,-2.4062,rough,15.5,1,4.819
2370,75.84,2.3777,-5.0127,-0.7452,0.2265,-0.7776,-2.4820,rough,15.5,1,4.550
2380,76.16,2.2295,-5.2357,-0.6026,-0.0034,-0.7107,-2.5253,rough,15.5,1,4.286
2390,76.48,2.0574,-5.3450,-0.4137,0.1031,-0.7554,-2.7052,rough,15.5,1,4.089
2400,76.80,1.8838,-5.4228,-0.2404,0.2386,-0.7377,-2.8914,rough,15.5,1,3.915
2410,77.12,1.6201,-5.4541,-0.1283,0.4148,-0.3900,-2.8763,rough,15.5,1,3.721
2420,77.44,1.3649,-5.5269,0.0104,0.1861,-0.6463,-2.4423,rough,15.5,1,3.507
2430,77.76,1.1976,-5.7156,0.1947,-0.0797,-0.7138,-2.1350,rough,15.5,1,3.256
2440,78.08,1.0923,-5.9116,0.4126,-0.1299,-0.8864,-1.9857,rough,15.5,1,3.036
2450,78.40,1.0642,-6.0234,0.5183,0.0020,-0.8598,-2.2889,rough,15.5,1,2.930
2460,78.72,1.0498,-6.0176,0.5217,0.0620,-0.8482,-2.3574,rough,15.5,1,2.926
2470,79.04,1.0719,-5.9626,0.4582,0.0866,-0.8500,-2.3559,rough,15.5,1,2.983
2480,79.36,1.1262,-5.8749,0.3444,-0.0005,-0.8377,-2.2061,rough,15.5,1,3.085
2490,79.68,1.1436,-5.8468,0.3141,-0.0855,-0.8112,-2.1115,rough,15.5,1,3.118
2500,80.00,1.1367,-5.8932,0.3519,0.0204,-0.8498,-2.2653,rough,15.5,1,3.077
2510,80.32,1.1256,-5.9058,0.3687,0.0836,-0.8485,-2.3475,rough,15.5,1,3.060
2520,80.64,1.1390,-5.9029,0.3571,0.0718,-0.8519,-2.3426,rough,15.5,1,3.071
2530,80.96,1.1352,-5.9056,0.3616,0.0811,-0.8489,-2.3552,rough,15.5,1,3.066
2540,81.28,1.1257,-5.9039,0.3668,0.0914,-0.8476,-2.3571,rough,15.5,1,3.062
2550,81.60,1.1309,-5.9025,0.3629,0.0815,-0.8523,-2.3468,rough,15.5,1,3.066
2560,81.92,1.1451,-5.9003,0.3507,0.0658,-0.8503,-2.3411,rough,15.5,1,3.076
2570,82.24,1.1475,-5.9012,0.3484,0.0870,-0.8477,-2.3721,rough,15.5,1,3.077
2580,82.56,1.1428,-5.9033,0.3540,0.0693,-0.8492,-2.3436,rough,15.5,1,3.073
2590,82.88,1.1486,-5.9038,0.3491,0.0754,-0.8430,-2.3611,rough,15.5,1,3.076
2600,83.20,1.1378,-5.9054,0.3594,0.0833,-0.8479,-2.3616,rough,15.5,1,3.068
2610,83.52,1.1459,-5.9022,0.3510,0.0584,-0.8496,-2.3306,rough,15.5,1,3.076
2620,83.84,1.1381,-5.9029,0.3581,0.0647,-0.8539,-2.3297,rough,15.5,1,3.070
2630,84.16,1.1471,-5.9034,0.3509,0.0797,-0.8475,-2.3656,rough,15.5,1,3.075
2640,84.48,1.1337,-5.9035,0.3614,0.0726,-0.8555,-2.3413,rough,15.5,1,3.067
2650,84.80,1.1410,-5.9016,0.3560,0.0768,-0.8669,-2.3417,rough,15.5,1,3.073
2660,85.12,1.1355,-5.9033,0.3600,0.0662,-0.8523,-2.3298,rough,15.5,1,3.068
2670,85.44,1.1231,-5.9028,0.3677,0.1024,-0.8461,-2.3704,rough,15.5,1,3.061
2680,85.76,1.1368,-5.9027,0.3582,0.0728,-0.8503,-2.3409,rough,15.5,1,3.070
2690,86.08,1.1472,-5.8975,0.3448,0.0241,-0.8449,-2.2916,rough,15.5,1,3.080
2700,86.40,1.1461,-5.8873,0.3399,0.0260,-0.8399,-2.2868,rough,15.5,1,3.088
2710,86.72,1.1300,-5.9098,0.3696,0.0907,-0.8505,-2.3692,rough,15.5,1,3.060
2720,87.04,1.1233,-5.9035,0.3692,0.0999,-0.8507,-2.3673,rough,15.5,1,3.061
2730,87.36,1.1390,-5.8970,0.3529,0.0601,-0.8492,-2.3256,rough,15.5,1,3.075
2740,87.68,1.1447,-5.9058,0.3552,0.0670,-0.8505,-2.3452,rough,15.5,1,3.072
2750,88.00,1.1453,-5.9040,0.3523,0.0898,-0.8455,-2.3793,rough,15.5,2,4.844
2760,88.32,1.1461,-5.9042,0.3527,0.0767,-0.8506,-2.3594,rough,15.5,2,4.844
2770,88.64,1.1435,-5.9035,0.3544,0.0768,-0.8521,-2.3559,rough,15.5,2,4.842
2780,88.96,1.1497,-5.8924,0.3432,0.0182,-0.8585,-2.2664,rough,15.5,2,4.843
2790,89.28,1.1369,-5.9173,0.3704,0.0720,-0.8488,-2.3566,rough,15.5,2,4.841
2800,89.60,1.1424,-5.9405,0.3870,0.0399,-0.8521,-2.3418,rough,15.5,2,4.856
2810,89.92,1.1440,-5.9254,0.3727,0.0555,-0.8508,-2.3490,rough,15.5,2,4.851
