step,time_s,x,y,z,roll,pitch,yaw,terrain,speed,target_idx,dist_to_target
10,0.32,-1.4626,0.8667,0.1876,0.0530,-0.2116,0.1941,rough,15.5,0,6.012
20,0.64,-1.4499,0.8934,0.1989,0.0213,-0.2798,0.3403,rough,15.5,0,6.007
30,0.96,-1.2069,0.9640,0.2436,0.0155,-0.2019,0.7061,rough,15.5,0,6.175
40,1.28,-1.0052,1.1556,0.2861,0.0109,-0.1228,1.0113,rough,15.5,0,6.252
50,1.60,-0.8885,1.4347,0.3176,-0.0176,-0.0783,1.2607,rough,15.5,0,6.226
60,1.92,-0.8125,1.6820,0.3358,-0.0287,-0.0753,1.4416,rough,15.5,0,6.190
70,2.24,-0.8042,2.0001,0.3598,-0.0648,-0.0669,1.7012,rough,15.5,0,6.076
80,2.56,-0.8527,2.3401,0.3880,-0.0380,-0.1200,1.9378,rough,15.5,0,5.916
90,2.88,-0.9737,2.6849,0.4283,0.0348,-0.2025,2.1282,rough,15.5,0,5.700
100,3.20,-1.1858,3.0187,0.4959,0.0607,-0.2016,2.2917,rough,15.5,0,5.414
110,3.52,-1.4565,3.3137,0.5747,0.0508,-0.2184,2.4508,rough,15.5,0,5.091
120,3.84,-1.7720,3.5874,0.6251,0.1377,-0.1563,2.5819,rough,15.5,0,4.738
130,4.16,-2.1575,3.7751,0.6266,-0.0637,-0.0807,2.6925,rough,15.5,0,4.334
140,4.48,-2.5208,3.8839,0.6848,-0.2115,-0.1574,2.7912,rough,15.5,0,3.962
150,4.80,-2.8520,3.9771,0.7964,-0.2341,-0.4990,2.9609,rough,15.5,0,3.626
160,5.12,-3.2544,4.0520,0.9243,-0.0817,-0.2558,3.0639,rough,15.5,0,3.220
170,5.44,-3.6813,4.0345,1.0530,-0.1806,-0.3098,-3.0825,rough,15.5,0,2.794
180,5.76,-4.2575,3.9148,0.9597,-0.5485,0.5345,-3.1233,rough,15.5,0,2.231
190,6.08,-4.7287,3.7860,0.7535,-0.4776,0.2332,-2.9872,rough,15.5,0,1.789
200,6.40,-5.0167,3.6871,0.7632,-0.3435,-0.2859,-2.8627,rough,15.5,0,1.539
210,6.72,-5.4171,3.5712,0.8800,-0.2968,-0.2478,-3.0466,rough,15.5,0,1.223
220,7.04,-5.8060,3.5347,0.9822,-0.2348,-0.3818,2.9716,rough,15.5,0,0.935
230,7.36,-6.1399,3.6097,1.1111,-0.0773,-0.3317,2.6699,rough,15.5,1,7.094
240,7.68,-6.3104,3.7821,1.1735,0.0560,-0.2551,2.3436,rough,15.5,1,7.228
250,8.00,-6.4587,4.0626,1.1801,0.2042,0.0058,2.0378,rough,15.5,1,7.330
260,8.32,-6.5598,4.3873,1.1528,0.1798,0.1195,1.8317,rough,15.5,1,7.392
270,8.64,-6.6212,4.7655,1.1017,0.1121,0.1424,1.6954,rough,15.5,1,7.428
280,8.96,-6.6221,5.1266,1.0630,0.0666,0.0780,1.5034,rough,15.5,1,7.422
290,9.28,-6.5765,5.4145,1.0514,-0.0210,-0.0622,1.2823,rough,15.5,1,7.384
300,9.60,-6.4866,5.6791,1.0795,-0.0388,-0.1332,0.9993,rough,15.5,1,7.311
310,9.92,-6.2824,5.9527,1.1240,-0.0292,-0.1316,0.7544,rough,15.5,1,7.135
320,10.24,-5.9381,6.2052,1.1007,0.0081,0.1959,0.5746,rough,15.5,1,6.831
330,10.56,-5.6121,6.4089,1.0215,-0.2051,0.1469,0.3449,rough,15.5,1,6.548
340,10.88,-5.2730,6.5679,0.9797,-0.4031,0.0940,0.0633,rough,15.5,1,6.252
350,11.20,-4.9046,6.6300,0.9631,-0.4722,-0.1287,-0.1741,rough,15.5,1,5.910
360,11.52,-4.4199,6.5534,0.9353,-0.5406,-0.0054,-0.2259,rough,15.5,1,5.423
370,11.84,-3.9301,6.4629,0.9029,-0.4241,0.1117,-0.2731,rough,15.5,1,4.927
380,12.16,-3.6310,6.4727,0.8152,-0.4602,-0.1670,-0.8918,rough,15.5,1,4.644
390,12.48,-3.4686,6.5569,0.7328,-0.4409,-0.3527,-1.2201,rough,15.5,1,4.516
400,12.80,-3.3561,6.5861,0.6716,-0.5126,-0.2998,-1.2464,rough,15.5,1,4.419
410,13.12,-3.1847,6.5951,0.5747,-0.6466,-0.3289,-1.1514,rough,15.5,1,4.262
420,13.44,-2.9453,6.5160,0.4232,-0.9069,-0.2289,-1.0245,rough,15.5,1,4.010
430,13.76,-2.5207,6.3576,0.1320,-0.8858,0.0831,-0.9045,rough,15.5,1,3.557
440,14.08,-2.0619,6.3447,-0.2167,-0.7313,0.0883,-0.4560,rough,15.5,1,3.128
450,14.40,-1.6055,6.3081,-0.4115,-0.5975,0.1985,-0.3101,rough,15.5,1,2.699
460,14.72,-1.1215,6.1568,-0.6123,-0.4353,0.5355,-0.3393,rough,15.5,1,2.201
470,15.04,-0.5857,6.0777,-0.9959,-0.5431,0.2531,-0.5411,rough,15.5,1,1.706
480,15.36,-0.1645,5.8975,-1.1028,-0.5750,-0.0835,-0.4948,rough,15.5,1,1.262
490,15.68,0.2638,5.6823,-1.0585,-0.5384,-0.0870,-0.5101,rough,15.5,1,0.804
500,16.00,0.6976,5.4456,-1.0519,-0.5271,-0.0027,-0.5478,rough,15.5,2,9.805
510,16.32,1.1812,5.2052,-1.1332,-0.6649,0.2032,-0.7119,rough,15.5,2,9.276
520,16.64,1.5955,5.0455,-1.1693,-0.6518,0.0151,-0.6441,rough,15.5,2,8.853
530,16.96,1.7889,4.9485,-1.1237,-0.5163,-0.5377,-0.5282,rough,15.5,2,8.642
540,17.28,2.0652,4.8215,-1.0263,-0.2230,-0.4776,-0.5361,rough,15.5,2,8.349
550,17.60,2.3754,4.6464,-0.9151,-0.1618,-0.3770,-0.7328,rough,15.5,2,7.999
560,17.92,2.7165,4.3376,-0.8409,0.0112,-0.2462,-0.7474,rough,15.5,2,7.539
570,18.24,3.1144,4.0400,-0.8312,-0.2334,-0.1635,-0.7322,rough,15.5,2,7.043
580,18.56,3.4619,3.7424,-0.7301,-0.2766,-0.2709,-0.7204,rough,15.5,2,6.586
590,18.88,3.8333,3.4202,-0.6600,-0.2945,-0.1842,-0.7589,rough,15.5,2,6.094
600,19.20,4.2292,3.0609,-0.6883,-0.2417,0.1748,-0.7858,rough,15.5,2,5.560
610,19.52,4.5180,2.7313,-0.7452,-0.0857,-0.0699,-0.8271,rough,15.5,2,5.126
620,19.84,4.8456,2.3980,-0.7302,-0.0468,-0.1063,-0.8132,rough,15.5,2,4.661
630,20.16,5.1131,2.0797,-0.6524,0.0994,-0.1431,-0.8207,rough,15.5,2,4.253
640,20.48,5.4834,1.7403,-0.6644,-0.1433,0.2114,-0.7976,rough,15.5,2,3.752
650,20.80,5.8572,1.4351,-0.7043,-0.1942,0.1680,-0.7953,rough,15.5,2,3.270
660,21.12,6.1336,1.2380,-0.7164,-0.2876,-0.2862,-0.5916,rough,15.5,2,2.931
670,21.44,6.2201,1.2201,-0.7153,-0.2898,-0.2024,-0.3410,rough,15.5,2,2.852
680,21.76,6.2006,1.1703,-0.6921,-0.1952,-0.2027,-0.1395,rough,15.5,2,2.836
690,22.08,6.1948,1.1278,-0.6776,-0.2347,-0.1698,-0.0735,rough,15.5,2,2.815
700,22.40,6.1954,1.1135,-0.6623,-0.2256,-0.1733,-0.0164,rough,15.5,2,2.806
710,22.72,6.1945,1.1067,-0.6585,-0.2259,-0.1773,-0.0148,rough,15.5,2,2.803
720,23.04,6.1945,1.1045,-0.6571,-0.2252,-0.1716,-0.0049,rough,15.5,2,2.802
730,23.36,6.1946,1.1039,-0.6568,-0.2252,-0.1702,-0.0027,rough,15.5,2,2.801
740,23.68,6.1946,1.1037,-0.6567,-0.2252,-0.1698,-0.0021,rough,15.5,2,2.801
750,24.00,6.1946,1.1036,-0.6566,-0.2252,-0.1697,-0.0019,rough,15.5,2,2.801
760,24.32,6.1946,1.1035,-0.6566,-0.2252,-0.1697,-0.0019,rough,15.5,2,2.801
770,24.64,6.1946,1.0974,-0.6556,-0.2375,-0.1392,0.0486,rough,15.5,2,2.797
780,24.96,6.1936,1.1000,-0.6557,-0.2308,-0.1450,0.0416,rough,15.5,2,2.800
790,25.28,6.1932,1.0991,-0.6554,-0.2316,-0.1397,0.0493,rough,15.5,2,2.799
800,25.60,6.1931,1.0999,-0.6556,-0.2303,-0.1414,0.0467,rough,15.5,2,2.800
810,25.92,6.1928,1.1011,-0.6559,-0.2284,-0.1446,0.0418,rough,15.5,2,2.801
820,26.24,6.1936,1.0998,-0.6557,-0.2309,-0.1405,0.0472,rough,15.5,2,2.800
830,26.56,6.1933,1.0991,-0.6558,-0.2310,-0.1390,0.0459,rough,15.5,2,2.799
840,26.88,6.1938,1.0977,-0.6550,-0.2340,-0.1370,0.0543,rough,15.5,2,2.798
850,27.20,6.1935,1.0982,-0.6552,-0.2331,-0.1375,0.0530,rough,15.5,2,2.799
860,27.52,6.1931,1.0991,-0.6554,-0.2315,-0.1394,0.0499,rough,15.5,2,2.800
870,27.84,6.1931,1.1012,-0.6560,-0.2287,-0.1440,0.0424,rough,15.5,2,2.801
880,28.16,6.1929,1.1023,-0.6563,-0.2271,-0.1461,0.0393,rough,15.5,2,2.802
890,28.48,6.1933,1.1029,-0.6565,-0.2266,-0.1466,0.0370,rough,15.5,2,2.802
900,28.80,6.1932,1.1032,-0.6567,-0.2255,-0.1482,0.0324,rough,15.5,2,2.802
910,29.12,6.1930,1.1031,-0.6566,-0.2259,-0.1479,0.0353,rough,15.5,2,2.802
920,29.44,6.1929,1.1046,-0.6569,-0.2239,-0.1510,0.0313,rough,15.5,2,2.803
930,29.76,6.1932,1.1040,-0.6566,-0.2252,-0.1486,0.0368,rough,15.5,2,2.802
940,30.08,6.1937,1.1064,-0.6575,-0.2227,-0.1508,0.0312,rough,15.5,2,2.803
950,30.40,6.1947,1.1092,-0.6595,-0.2258,-0.1711,-0.0041,rough,15.5,2,2.804
960,30.72,6.1945,1.1043,-0.6572,-0.2256,-0.1740,-0.0087,rough,15.5,2,2.802
970,31.04,6.1935,1.1055,-0.6630,-0.2564,-0.1699,0.0025,rough,15.5,2,2.803
980,31.36,6.1946,1.0965,-0.6551,-0.2380,-0.1390,0.0502,rough,15.5,2,2.797
990,31.68,6.1939,1.0961,-0.6547,-0.2361,-0.1358,0.0558,rough,15.5,2,2.797
1000,32.00,6.1941,1.0958,-0.6545,-0.2366,-0.1348,0.0579,rough,15.5,2,2.797
1010,32.32,6.1941,1.0960,-0.6546,-0.2364,-0.1347,0.0577,rough,15.5,2,2.797
1020,32.64,6.1942,1.0959,-0.6546,-0.2366,-0.1344,0.0585,rough,15.5,2,2.797
1030,32.96,6.1942,1.0958,-0.6546,-0.2367,-0.1343,0.0587,rough,15.5,2,2.797
1040,33.28,6.1938,1.0965,-0.6547,-0.2354,-0.1366,0.0551,rough,15.5,2,2.797
1050,33.60,6.1939,1.0966,-0.6548,-0.2356,-0.1345,0.0576,rough,15.5,2,2.797
1060,33.92,6.1941,1.0966,-0.6548,-0.2359,-0.1343,0.0582,rough,15.5,2,2.797
1070,34.24,6.1941,1.0966,-0.6548,-0.2359,-0.1342,0.0584,rough,15.5,2,2.797
1080,34.56,6.1941,1.0966,-0.6548,-0.2359,-0.1341,0.0585,rough,15.5,2,2.797
1090,34.88,6.1941,1.0966,-0.6548,-0.2359,-0.1341,0.0585,rough,15.5,2,2.797
1100,35.20,6.1941,1.0966,-0.6548,-0.2358,-0.1341,0.0585,rough,15.5,2,2.797
1110,35.52,6.1941,1.0967,-0.6548,-0.2358,-0.1341,0.0585,rough,15.5,2,2.797
1120,35.84,6.1941,1.0967,-0.6548,-0.2358,-0.1341,0.0584,rough,15.5,2,2.797
1130,36.16,6.1941,1.0967,-0.6548,-0.2358,-0.1341,0.0584,rough,15.5,2,2.797
1140,36.48,6.1941,1.0968,-0.6549,-0.2357,-0.1341,0.0584,rough,15.5,2,2.797
1150,36.80,6.1941,1.0968,-0.6549,-0.2357,-0.1341,0.0584,rough,15.5,2,2.797
1160,37.12,6.1941,1.0968,-0.6549,-0.2357,-0.1341,0.0584,rough,15.5,2,2.797
1170,37.44,6.1941,1.0968,-0.6549,-0.2356,-0.1341,0.0584,rough,15.5,2,2.797
1180,37.76,6.1941,1.0969,-0.6549,-0.2356,-0.1341,0.0584,rough,15.5,2,2.797
1190,38.08,6.1941,1.0969,-0.6549,-0.2356,-0.1341,0.0584,rough,15.5,2,2.797
1200,38.40,6.1941,1.0969,-0.6549,-0.2355,-0.1341,0.0584,rough,15.5,2,2.798
1210,38.72,6.1940,1.0970,-0.6549,-0.2355,-0.1341,0.0584,rough,15.5,2,2.798
1220,39.04,6.1938,1.0978,-0.6551,-0.2341,-0.1367,0.0548,rough,15.5,2,2.798
1230,39.36,6.1931,1.0985,-0.6553,-0.2323,-0.1379,0.0519,rough,15.5,2,2.799
1240,39.68,6.1933,1.0993,-0.6556,-0.2313,-0.1380,0.0498,rough,15.5,2,2.800
1250,40.00,6.1932,1.1001,-0.6558,-0.2302,-0.1397,0.0473,rough,15.5,2,2.800
1260,40.32,6.1936,1.1021,-0.6562,-0.2280,-0.1460,0.0404,rough,15.5,2,2.801
1270,40.64,6.1932,1.1029,-0.6565,-0.2266,-0.1462,0.0381,rough,15.5,2,2.802
1280,40.96,6.1932,1.1048,-0.6569,-0.2241,-0.1504,0.0323,rough,15.5,2,2.803
1290,41.28,6.1934,1.1056,-0.6572,-0.2235,-0.1491,0.0340,rough,15.5,2,2.803
1300,41.60,6.1947,1.1097,-0.6595,-0.2250,-0.1654,0.0052,rough,15.5,2,2.805
1310,41.92,6.1945,1.1049,-0.6575,-0.2261,-0.1762,-0.0123,rough,15.5,2,2.802
1320,42.24,6.1945,1.1030,-0.6564,-0.2252,-0.1713,-0.0043,rough,15.5,2,2.801
1330,42.56,6.1941,1.0965,-0.6552,-0.2380,-0.1399,0.0487,rough,15.5,2,2.797
1340,42.88,6.1937,1.0978,-0.6551,-0.2338,-0.1407,0.0481,rough,15.5,2,2.798
1350,43.20,6.1938,1.0971,-0.6549,-0.2348,-0.1359,0.0557,rough,15.5,2,2.798
1360,43.52,6.1939,1.0968,-0.6548,-0.2354,-0.1351,0.0576,rough,15.5,2,2.798
1370,43.84,6.1939,1.0967,-0.6548,-0.2355,-0.1348,0.0582,rough,15.5,2,2.797
1380,44.16,6.1937,1.0979,-0.6551,-0.2338,-0.1374,0.0540,rough,15.5,2,2.798
1390,44.48,6.1936,1.0990,-0.6553,-0.2322,-0.1397,0.0503,rough,15.5,2,2.799
1400,44.80,6.1936,1.0998,-0.6555,-0.2311,-0.1412,0.0483,rough,15.5,2,2.800
1410,45.12,6.1939,1.0979,-0.6552,-0.2339,-0.1366,0.0542,rough,15.5,2,2.798
1420,45.44,6.1938,1.0984,-0.6552,-0.2331,-0.1383,0.0525,rough,15.5,2,2.799
1430,45.76,6.1936,1.0995,-0.6555,-0.2315,-0.1406,0.0491,rough,15.5,2,2.799
1440,46.08,6.1936,1.1000,-0.6556,-0.2307,-0.1430,0.0445,rough,15.5,2,2.800
1450,46.40,6.1932,1.1015,-0.6562,-0.2278,-0.1467,0.0356,rough,15.5,2,2.801
1460,46.72,6.1933,1.1011,-0.6560,-0.2289,-0.1436,0.0431,rough,15.5,2,2.801
1470,47.04,6.1934,1.1000,-0.6558,-0.2304,-0.1414,0.0451,rough,15.5,2,2.800
1480,47.36,6.1936,1.0997,-0.6555,-0.2311,-0.1412,0.0479,rough,15.5,2,2.800
1490,47.68,6.1932,1.1010,-0.6559,-0.2291,-0.1444,0.0428,rough,15.5,2,2.801
1500,48.00,6.1935,1.1027,-0.6563,-0.2271,-0.1472,0.0383,rough,15.5,2,2.801
1510,48.32,6.1933,1.1033,-0.6565,-0.2261,-0.1488,0.0357,rough,15.5,2,2.802
1520,48.64,6.1933,1.1027,-0.6563,-0.2268,-0.1473,0.0379,rough,15.5,2,2.802
1530,48.96,6.1934,1.1018,-0.6561,-0.2284,-0.1432,0.0450,rough,15.5,2,2.801
1540,49.28,6.1935,1.1045,-0.6569,-0.2252,-0.1484,0.0346,rough,15.5,2,2.802
1550,49.60,6.1930,1.1043,-0.6568,-0.2244,-0.1506,0.0316,rough,15.5,2,2.803
1560,49.92,6.1931,1.1047,-0.6569,-0.2242,-0.1499,0.0336,rough,15.5,2,2.803
1570,50.24,6.1932,1.1053,-0.6571,-0.2235,-0.1512,0.0307,rough,15.5,2,2.803
1580,50.56,6.1934,1.1061,-0.6574,-0.2229,-0.1500,0.0322,rough,15.5,2,2.803
1590,50.88,6.1948,1.1095,-0.6596,-0.2256,-0.1683,0.0001,rough,15.5,2,2.804
1600,51.20,6.1945,1.1044,-0.6573,-0.2259,-0.1750,-0.0103,rough,15.5,2,2.802
1610,51.52,6.1941,1.1026,-0.6601,-0.2435,-0.1584,0.0097,rough,15.5,2,2.801
1620,51.84,6.1939,1.0962,-0.6549,-0.2375,-0.1378,0.0528,rough,15.5,2,2.797
1630,52.16,6.1937,1.0969,-0.6549,-0.2350,-0.1369,0.0539,rough,15.5,2,2.798
1640,52.48,6.1936,1.0965,-0.6548,-0.2354,-0.1335,0.0586,rough,15.5,2,2.798
1650,52.80,6.1938,1.0972,-0.6549,-0.2348,-0.1356,0.0566,rough,15.5,2,2.798
1660,53.12,6.1939,1.0970,-0.6549,-0.2351,-0.1350,0.0578,rough,15.5,2,2.798
1670,53.44,6.1930,1.0982,-0.6552,-0.2325,-0.1381,0.0517,rough,15.5,2,2.799
1680,53.76,6.1937,1.0990,-0.6553,-0.2321,-0.1402,0.0497,rough,15.5,2,2.799
1690,54.08,6.1936,1.1000,-0.6556,-0.2308,-0.1421,0.0467,rough,15.5,2,2.800
1700,54.40,6.1934,1.1018,-0.6561,-0.2282,-0.1457,0.0408,rough,15.5,2,2.801
1710,54.72,6.1936,1.1042,-0.6567,-0.2251,-0.1508,0.0324,rough,15.5,2,2.802
1720,55.04,6.1936,1.1055,-0.6571,-0.2234,-0.1532,0.0287,rough,15.5,2,2.803
1730,55.36,6.1931,1.1046,-0.6569,-0.2245,-0.1473,0.0370,rough,15.5,2,2.803
1740,55.68,6.1938,1.1068,-0.6575,-0.2222,-0.1523,0.0291,rough,15.5,2,2.804
1750,56.00,6.1938,1.1064,-0.6574,-0.2226,-0.1513,0.0314,rough,15.5,2,2.803
1760,56.32,6.1938,1.1064,-0.6574,-0.2227,-0.1511,0.0318,rough,15.5,2,2.803
1770,56.64,6.1938,1.1064,-0.6574,-0.2227,-0.1510,0.0319,rough,15.5,2,2.803
1780,56.96,6.1936,1.1080,-0.6580,-0.2217,-0.1560,0.0236,rough,15.5,2,2.804
1790,57.28,6.1947,1.1080,-0.6590,-0.2262,-0.1741,-0.0091,rough,15.5,2,2.804
1800,57.60,6.1945,1.1037,-0.6568,-0.2254,-0.1730,-0.0070,rough,15.5,2,2.801
1810,57.92,6.1946,1.0990,-0.6572,-0.2410,-0.1494,0.0291,rough,15.5,2,2.798
1820,58.24,6.1933,1.0960,-0.6548,-0.2362,-0.1361,0.0540,rough,15.5,2,2.798
1830,58.56,6.1936,1.0974,-0.6550,-0.2342,-0.1382,0.0523,rough,15.5,2,2.798
1840,58.88,6.1936,1.0978,-0.6551,-0.2338,-0.1367,0.0545,rough,15.5,2,2.798
1850,59.20,6.1930,1.0992,-0.6555,-0.2313,-0.1401,0.0485,rough,15.5,2,2.800
1860,59.52,6.1932,1.0996,-0.6557,-0.2308,-0.1392,0.0483,rough,15.5,2,2.800
1870,59.84,6.1930,1.1008,-0.6559,-0.2291,-0.1424,0.0451,rough,15.5,2,2.801
1880,60.16,6.1929,1.1034,-0.6566,-0.2256,-0.1483,0.0356,rough,15.5,2,2.802
1890,60.48,6.1929,1.1051,-0.6570,-0.2233,-0.1521,0.0303,rough,15.5,2,2.803
1900,60.80,6.1931,1.1048,-0.6569,-0.2242,-0.1491,0.0353,rough,15.5,2,2.803
1910,61.12,6.1932,1.1054,-0.6571,-0.2234,-0.1503,0.0327,rough,15.5,2,2.803
1920,61.44,6.1938,1.1063,-0.6574,-0.2228,-0.1514,0.0311,rough,15.5,2,2.803
1930,61.76,6.1936,1.1080,-0.6581,-0.2218,-0.1555,0.0233,rough,15.5,2,2.804
1940,62.08,6.1948,1.1082,-0.6591,-0.2262,-0.1734,-0.0081,rough,15.5,2,2.804
1950,62.40,6.1945,1.1037,-0.6568,-0.2255,-0.1732,-0.0074,rough,15.5,2,2.801
1960,62.72,6.1946,1.0989,-0.6572,-0.2410,-0.1495,0.0289,rough,15.5,2,2.798
1970,63.04,6.1937,1.0971,-0.6550,-0.2352,-0.1391,0.0510,rough,15.5,2,2.798
1980,63.36,6.1934,1.0974,-0.6550,-0.2342,-0.1366,0.0543,rough,15.5,2,2.798
1990,63.68,6.1939,1.0969,-0.6548,-0.2351,-0.1355,0.0572,rough,15.5,2,2.798
2000,64.00,6.1938,1.0971,-0.6549,-0.2349,-0.1351,0.0569,rough,15.5,2,2.798
2010,64.32,6.1940,1.0970,-0.6549,-0.2353,-0.1346,0.0579,rough,15.5,2,2.798
2020,64.64,6.1940,1.0969,-0.6549,-0.2354,-0.1345,0.0582,rough,15.5,2,2.798
2030,64.96,6.1940,1.0969,-0.6549,-0.2354,-0.1344,0.0583,rough,15.5,2,2.798
2040,65.28,6.1930,1.0987,-0.6553,-0.2319,-0.1394,0.0497,rough,15.5,2,2.799
2050,65.60,6.1936,1.0998,-0.6555,-0.2311,-0.1417,0.0475,rough,15.5,2,2.800
2060,65.92,6.1936,1.1004,-0.6557,-0.2303,-0.1426,0.0463,rough,15.5,2,2.800
2070,66.24,6.1936,1.1025,-0.6563,-0.2274,-0.1466,0.0390,rough,15.5,2,2.801
2080,66.56,6.1937,1.1026,-0.6563,-0.2274,-0.1463,0.0393,rough,15.5,2,2.801
2090,66.88,6.1931,1.1022,-0.6562,-0.2272,-0.1469,0.0384,rough,15.5,2,2.801
2100,67.20,6.1934,1.1020,-0.6561,-0.2281,-0.1437,0.0442,rough,15.5,2,2.801
2110,67.52,6.1932,1.1046,-0.6570,-0.2246,-0.1483,0.0351,rough,15.5,2,2.803
2120,67.84,6.1939,1.1060,-0.6573,-0.2234,-0.1502,0.0327,rough,15.5,2,2.803
2130,68.16,6.1935,1.1065,-0.6574,-0.2222,-0.1523,0.0298,rough,15.5,2,2.804
2140,68.48,6.1947,1.1098,-0.6596,-0.2254,-0.1681,0.0008,rough,15.5,2,2.805
2150,68.80,6.1945,1.1045,-0.6573,-0.2259,-0.1754,-0.0108,rough,15.5,2,2.802
2160,69.12,6.1935,1.1053,-0.6629,-0.2564,-0.1703,0.0020,rough,15.5,2,2.803
2170,69.44,6.1942,1.0966,-0.6551,-0.2376,-0.1375,0.0527,rough,15.5,2,2.797
2180,69.76,6.1934,1.0984,-0.6552,-0.2326,-0.1430,0.0447,rough,15.5,2,2.799
2190,70.08,6.1934,1.0991,-0.6554,-0.2314,-0.1417,0.0459,rough,15.5,2,2.799
2200,70.40,6.1935,1.0993,-0.6556,-0.2313,-0.1405,0.0469,rough,15.5,2,2.799
2210,70.72,6.1931,1.0984,-0.6553,-0.2324,-0.1375,0.0525,rough,15.5,2,2.799
2220,71.04,6.1936,1.0999,-0.6556,-0.2310,-0.1417,0.0475,rough,15.5,2,2.800
2230,71.36,6.1932,1.1012,-0.6561,-0.2287,-0.1424,0.0437,rough,15.5,2,2.801
2240,71.68,6.1932,1.1030,-0.6565,-0.2264,-0.1461,0.0383,rough,15.5,2,2.802
2250,72.00,6.1929,1.1036,-0.6567,-0.2256,-0.1463,0.0382,rough,15.5,2,2.802
2260,72.32,6.1938,1.1056,-0.6572,-0.2240,-0.1491,0.0343,rough,15.5,2,2.803
2270,72.64,6.1939,1.1071,-0.6576,-0.2218,-0.1531,0.0280,rough,15.5,2,2.804
2280,72.96,6.1931,1.1068,-0.6575,-0.2215,-0.1522,0.0297,rough,15.5,2,2.804
2290,73.28,6.1938,1.1071,-0.6576,-0.2217,-0.1526,0.0293,rough,15.5,2,2.804
2300,73.60,6.1939,1.1071,-0.6576,-0.2218,-0.1523,0.0298,rough,15.5,2,2.804
2310,73.92,6.1946,1.1101,-0.6596,-0.2247,-0.1658,0.0050,rough,15.5,2,2.805
2320,74.24,6.1945,1.1051,-0.6577,-0.2261,-0.1767,-0.0130,rough,15.5,2,2.802
2330,74.56,6.1945,1.1031,-0.6565,-0.2252,-0.1714,-0.0045,rough,15.5,2,2.801
2340,74.88,6.1947,1.0970,-0.6555,-0.2386,-0.1412,0.0467,rough,15.5,2,2.797
2350,75.20,6.1938,1.0958,-0.6547,-0.2367,-0.1341,0.0580,rough,15.5,2,2.797
2360,75.52,6.1943,1.0958,-0.6546,-0.2370,-0.1338,0.0586,rough,15.5,2,2.797
2370,75.84,6.1943,1.0958,-0.6546,-0.2370,-0.1337,0.0587,rough,15.5,2,2.797
2380,76.16,6.1943,1.0959,-0.6546,-0.2369,-0.1337,0.0588,rough,15.5,2,2.797
2390,76.48,6.1943,1.0959,-0.6546,-0.2369,-0.1337,0.0588,rough,15.5,2,2.797
2400,76.80,6.1940,1.0967,-0.6548,-0.2355,-0.1362,0.0554,rough,15.5,2,2.797
2410,77.12,6.1936,1.0972,-0.6549,-0.2346,-0.1356,0.0559,rough,15.5,2,2.798
2420,77.44,6.1939,1.0969,-0.6548,-0.2353,-0.1349,0.0576,rough,15.5,2,2.798
2430,77.76,6.1940,1.0968,-0.6548,-0.2354,-0.1346,0.0582,rough,15.5,2,2.798
2440,78.08,6.1940,1.0968,-0.6548,-0.2355,-0.1345,0.0583,rough,15.5,2,2.798
2450,78.40,6.1940,1.0968,-0.6548,-0.2355,-0.1345,0.0584,rough,15.5,2,2.798
2460,78.72,6.1940,1.0968,-0.6548,-0.2354,-0.1345,0.0584,rough,15.5,2,2.798
2470,79.04,6.1940,1.0969,-0.6548,-0.2354,-0.1344,0.0584,rough,15.5,2,2.798
2480,79.36,6.1940,1.0969,-0.6549,-0.2354,-0.1344,0.0584,rough,15.5,2,2.798
2490,79.68,6.1940,1.0969,-0.6549,-0.2354,-0.1344,0.0584,rough,15.5,2,2.798
2500,80.00,6.1938,1.0979,-0.6551,-0.2339,-0.1372,0.0542,rough,15.5,2,2.798
2510,80.32,6.1936,1.0990,-0.6554,-0.2322,-0.1394,0.0506,rough,15.5,2,2.799
2520,80.64,6.1931,1.1012,-0.6559,-0.2286,-0.1448,0.0416,rough,15.5,2,2.801
2530,80.96,6.1934,1.1025,-0.6563,-0.2272,-0.1466,0.0384,rough,15.5,2,2.801
2540,81.28,6.1936,1.0996,-0.6556,-0.2313,-0.1400,0.0491,rough,15.5,2,2.799
2550,81.60,6.1936,1.0990,-0.6555,-0.2320,-0.1389,0.0493,rough,15.5,2,2.799
2560,81.92,6.1936,1.0989,-0.6554,-0.2322,-0.1394,0.0505,rough,15.5,2,2.799
2570,82.24,6.1936,1.1002,-0.6557,-0.2305,-0.1420,0.0461,rough,15.5,2,2.800
2580,82.56,6.1932,1.1022,-0.6563,-0.2274,-0.1463,0.0389,rough,15.5,2,2.801
2590,82.88,6.1936,1.1020,-0.6562,-0.2280,-0.1448,0.0408,rough,15.5,2,2.801
2600,83.20,6.1932,1.1040,-0.6567,-0.2252,-0.1485,0.0350,rough,15.5,2,2.802
2610,83.52,6.1933,1.1059,-0.6573,-0.2227,-0.1537,0.0268,rough,15.5,2,2.803
2620,83.84,6.1932,1.1035,-0.6565,-0.2257,-0.1492,0.0350,rough,15.5,2,2.802
2630,84.16,6.1933,1.1023,-0.6563,-0.2273,-0.1462,0.0393,rough,15.5,2,2.801
2640,84.48,6.1933,1.1010,-0.6559,-0.2291,-0.1436,0.0432,rough,15.5,2,2.801
2650,84.80,6.1930,1.1010,-0.6559,-0.2291,-0.1422,0.0454,rough,15.5,2,2.801
2660,85.12,6.1938,1.1039,-0.6567,-0.2258,-0.1492,0.0349,rough,15.5,2,2.802
2670,85.44,6.1933,1.1024,-0.6565,-0.2267,-0.1457,0.0365,rough,15.5,2,2.801
2680,85.76,6.1933,1.1050,-0.6570,-0.2236,-0.1529,0.0290,rough,15.5,2,2.803
2690,86.08,6.1934,1.1061,-0.6573,-0.2224,-0.1543,0.0263,rough,15.5,2,2.803
2700,86.40,6.1929,1.1048,-0.6570,-0.2239,-0.1478,0.0359,rough,15.5,2,2.803
2710,86.72,6.1946,1.1097,-0.6594,-0.2245,-0.1632,0.0090,rough,15.5,2,2.805
2720,87.04,6.1945,1.1054,-0.6578,-0.2262,-0.1766,-0.0130,rough,15.5,2,2.802
2730,87.36,6.1945,1.1031,-0.6565,-0.2252,-0.1716,-0.0048,rough,15.5,2,2.801
2740,87.68,6.1947,1.0969,-0.6554,-0.2387,-0.1412,0.0467,rough,15.5,2,2.797
2750,88.00,6.1937,1.0973,-0.6550,-0.2345,-0.1395,0.0498,rough,15.5,2,2.798
2760,88.32,6.1938,1.0970,-0.6549,-0.2350,-0.1356,0.0561,rough,15.5,2,2.798
2770,88.64,6.1940,1.0967,-0.6548,-0.2355,-0.1349,0.0577,rough,15.5,2,2.797
2780,88.96,6.1940,1.0966,-0.6548,-0.2356,-0.1346,0.0583,rough,15.5,2,2.797
2790,89.28,6.1940,1.0966,-0.6548,-0.2357,-0.1345,0.0584,rough,15.5,2,2.797
2800,89.60,6.1940,1.0966,-0.6548,-0.2357,-0.1345,0.0585,rough,15.5,2,2.797
2810,89.92,6.1940,1.0967,-0.6548,-0.2357,-0.1344,0.0585,rough,15.5,2,2.797
2820,90.24,6.1940,1.0967,-0.6548,-0.2356,-0.1344,0.0585,rough,15.5,2,2.797
2830,90.56,6.1940,1.0967,-0.6548,-0.2356,-0.1344,0.0584,rough,15.5,2,2.797
2840,90.88,6.1940,1.0967,-0.6548,-0.2356,-0.1343,0.0584,rough,15.5,2,2.797
2850,91.20,6.1940,1.0968,-0.6548,-0.2356,-0.1343,0.0584,rough,15.5,2,2.797
2860,91.52,6.1940,1.0968,-0.6548,-0.2356,-0.1343,0.0584,rough,15.5,2,2.797
2870,91.84,6.1940,1.0968,-0.6548,-0.2356,-0.1343,0.0584,rough,15.5,2,2.797
2880,92.16,6.1940,1.0968,-0.6549,-0.2355,-0.1343,0.0584,rough,15.5,2,2.797
2890,92.48,6.1940,1.0969,-0.6549,-0.2355,-0.1343,0.0584,rough,15.5,2,2.798
2900,92.80,6.1940,1.0969,-0.6549,-0.2355,-0.1342,0.0584,rough,15.5,2,2.798
2910,93.12,6.1940,1.0969,-0.6549,-0.2355,-0.1342,0.0584,rough,15.5,2,2.798
2920,93.44,6.1940,1.0969,-0.6549,-0.2354,-0.1342,0.0584,rough,15.5,2,2.798
2930,93.76,6.1938,1.0976,-0.6550,-0.2343,-0.1364,0.0558,rough,15.5,2,2.798
2940,94.08,6.1937,1.0992,-0.6554,-0.2321,-0.1400,0.0502,rough,15.5,2,2.799
2950,94.40,6.1936,1.0995,-0.6555,-0.2312,-0.1423,0.0458,rough,15.5,2,2.799
2960,94.72,6.1933,1.1004,-0.6558,-0.2300,-0.1423,0.0457,rough,15.5,2,2.800
2970,95.04,6.1931,1.1032,-0.6565,-0.2260,-0.1488,0.0348,rough,15.5,2,2.802
2980,95.36,6.1932,1.1033,-0.6565,-0.2262,-0.1472,0.0374,rough,15.5,2,2.802
2990,95.68,6.1935,1.1025,-0.6564,-0.2273,-0.1460,0.0391,rough,15.5,2,2.801
3000,96.00,6.1930,1.1041,-0.6567,-0.2249,-0.1488,0.0350,rough,15.5,2,2.803
3010,96.32,6.1936,1.1056,-0.6572,-0.2234,-0.1524,0.0290,rough,15.5,2,2.803
3020,96.64,6.1930,1.1047,-0.6571,-0.2237,-0.1481,0.0336,rough,15.5,2,2.803
3030,96.96,6.1937,1.1058,-0.6572,-0.2234,-0.1502,0.0329,rough,15.5,2,2.803
3040,97.28,6.1938,1.1056,-0.6571,-0.2237,-0.1496,0.0343,rough,15.5,2,2.803
3050,97.60,6.1938,1.1056,-0.6571,-0.2238,-0.1495,0.0344,rough,15.5,2,2.803
3060,97.92,6.1938,1.1056,-0.6572,-0.2238,-0.1494,0.0345,rough,15.5,2,2.803
3070,98.24,6.1930,1.1069,-0.6595,-0.2334,-0.1507,0.0326,rough,15.5,2,2.804
3080,98.56,6.1938,1.1115,-0.6605,-0.2248,-0.1664,0.0048,rough,15.5,2,2.806
3090,98.88,6.1944,1.1063,-0.6583,-0.2262,-0.1775,-0.0142,rough,15.5,2,2.803
3100,99.20,6.1945,1.1042,-0.6570,-0.2252,-0.1716,-0.0048,rough,15.5,2,2.801
3110,99.52,6.1945,1.1036,-0.6567,-0.2252,-0.1702,-0.0027,rough,15.5,2,2.801
3120,99.84,6.1944,1.1005,-0.6581,-0.2414,-0.1515,0.0252,rough,15.5,2,2.799
3130,100.16,6.1940,1.0975,-0.6552,-0.2352,-0.1401,0.0489,rough,15.5,2,2.798
3140,100.48,6.1936,1.0986,-0.6553,-0.2326,-0.1405,0.0488,rough,15.5,2,2.799
3150,100.80,6.1937,1.0990,-0.6554,-0.2320,-0.1411,0.0478,rough,15.5,2,2.799
3160,101.12,6.1930,1.1008,-0.6558,-0.2292,-0.1433,0.0438,rough,15.5,2,2.801
3170,101.44,6.1927,1.1026,-0.6563,-0.2263,-0.1481,0.0365,rough,15.5,2,2.802
3180,101.76,6.1932,1.1043,-0.6568,-0.2248,-0.1500,0.0329,rough,15.5,2,2.803
3190,102.08,6.1931,1.1050,-0.6570,-0.2238,-0.1509,0.0317,rough,15.5,2,2.803
3200,102.40,6.1933,1.1045,-0.6569,-0.2244,-0.1501,0.0323,rough,15.5,2,2.803
3210,102.72,6.1933,1.1040,-0.6567,-0.2252,-0.1482,0.0362,rough,15.5,2,2.802
3220,103.04,6.1937,1.1065,-0.6574,-0.2222,-0.1546,0.0254,rough,15.5,2,2.804
3230,103.36,6.1936,1.1049,-0.6569,-0.2240,-0.1520,0.0307,rough,15.5,2,2.803
3240,103.68,6.1935,1.1063,-0.6573,-0.2222,-0.1548,0.0252,rough,15.5,2,2.804
3250,104.00,6.1928,1.1042,-0.6568,-0.2249,-0.1462,0.0384,rough,15.5,2,2.803
3260,104.32,6.1938,1.1062,-0.6574,-0.2230,-0.1509,0.0315,rough,15.5,2,2.803
3270,104.64,6.1938,1.1059,-0.6572,-0.2233,-0.1501,0.0334,rough,15.5,2,2.803
3280,104.96,6.1935,1.1067,-0.6574,-0.2219,-0.1529,0.0290,rough,15.5,2,2.804
3290,105.28,6.1948,1.1095,-0.6595,-0.2256,-0.1690,-0.0007,rough,15.5,2,2.804
3300,105.60,6.1945,1.1043,-0.6572,-0.2258,-0.1749,-0.0101,rough,15.5,2,2.802
3310,105.92,6.1941,1.1026,-0.6601,-0.2435,-0.1584,0.0098,rough,15.5,2,2.801
3320,106.24,6.1941,1.0964,-0.6550,-0.2374,-0.1370,0.0539,rough,15.5,2,2.797
3330,106.56,6.1938,1.0968,-0.6548,-0.2352,-0.1382,0.0529,rough,15.5,2,2.798
3340,106.88,6.1939,1.0966,-0.6548,-0.2356,-0.1348,0.0575,rough,15.5,2,2.797
3350,107.20,6.1940,1.0966,-0.6548,-0.2358,-0.1345,0.0582,rough,15.5,2,2.797
3360,107.52,6.1940,1.0965,-0.6548,-0.2358,-0.1344,0.0584,rough,15.5,2,2.797
3370,107.84,6.1940,1.0966,-0.6548,-0.2358,-0.1343,0.0585,rough,15.5,2,2.797
3380,108.16,6.1940,1.0966,-0.6548,-0.2358,-0.1343,0.0585,rough,15.5,2,2.797
3390,108.48,6.1940,1.0966,-0.6548,-0.2358,-0.1343,0.0585,rough,15.5,2,2.797
3400,108.80,6.1940,1.0966,-0.6548,-0.2358,-0.1342,0.0585,rough,15.5,2,2.797
3410,109.12,6.1940,1.0967,-0.6548,-0.2358,-0.1342,0.0585,rough,15.5,2,2.797
3420,109.44,6.1940,1.0967,-0.6548,-0.2357,-0.1342,0.0585,rough,15.5,2,2.797
3430,109.76,6.1940,1.0967,-0.6548,-0.2357,-0.1342,0.0584,rough,15.5,2,2.797
3440,110.08,6.1940,1.0967,-0.6548,-0.2357,-0.1342,0.0584,rough,15.5,2,2.797
3450,110.40,6.1940,1.0968,-0.6548,-0.2357,-0.1342,0.0584,rough,15.5,2,2.797
3460,110.72,6.1940,1.0968,-0.6549,-0.2357,-0.1342,0.0584,rough,15.5,2,2.797
3470,111.04,6.1940,1.0968,-0.6549,-0.2356,-0.1342,0.0584,rough,15.5,2,2.797
3480,111.36,6.1940,1.0968,-0.6549,-0.2356,-0.1342,0.0584,rough,15.5,2,2.797
3490,111.68,6.1940,1.0969,-0.6549,-0.2356,-0.1341,0.0584,rough,15.5,2,2.797
3500,112.00,6.1940,1.0969,-0.6549,-0.2355,-0.1341,0.0584,rough,15.5,2,2.798
3510,112.32,6.1940,1.0969,-0.6549,-0.2355,-0.1341,0.0584,rough,15.5,2,2.798
3520,112.64,6.1940,1.0970,-0.6549,-0.2355,-0.1341,0.0584,rough,15.5,2,2.798
3530,112.96,6.1938,1.0976,-0.6550,-0.2343,-0.1363,0.0558,rough,15.5,2,2.798
3540,113.28,6.1937,1.0990,-0.6553,-0.2323,-0.1395,0.0507,rough,15.5,2,2.799
3550,113.60,6.1936,1.0990,-0.6554,-0.2320,-0.1409,0.0477,rough,15.5,2,2.799
3560,113.92,6.1936,1.0988,-0.6554,-0.2321,-0.1393,0.0492,rough,15.5,2,2.799
3570,114.24,6.1934,1.0977,-0.6553,-0.2335,-0.1343,0.0555,rough,15.5,2,2.798
3580,114.56,6.1937,1.0996,-0.6555,-0.2315,-0.1407,0.0487,rough,15.5,2,2.799
3590,114.88,6.1938,1.0977,-0.6551,-0.2341,-0.1366,0.0537,rough,15.5,2,2.798
3600,115.20,6.1940,1.0971,-0.6549,-0.2350,-0.1353,0.0569,rough,15.5,2,2.798
3610,115.52,6.1939,1.0970,-0.6549,-0.2352,-0.1348,0.0579,rough,15.5,2,2.798
3620,115.84,6.1939,1.0969,-0.6548,-0.2353,-0.1347,0.0582,rough,15.5,2,2.798
3630,116.16,6.1934,1.0976,-0.6552,-0.2336,-0.1347,0.0550,rough,15.5,2,2.798
3640,116.48,6.1933,1.0986,-0.6555,-0.2322,-0.1364,0.0522,rough,15.5,2,2.799
3650,116.80,6.1935,1.0993,-0.6557,-0.2313,-0.1390,0.0482,rough,15.5,2,2.799
3660,117.12,6.1934,1.1010,-0.6559,-0.2292,-0.1439,0.0434,rough,15.5,2,2.800
3670,117.44,6.1935,1.1024,-0.6563,-0.2275,-0.1461,0.0393,rough,15.5,2,2.801
3680,117.76,6.1933,1.1025,-0.6562,-0.2275,-0.1444,0.0432,rough,15.5,2,2.801
3690,118.08,6.1935,1.1022,-0.6563,-0.2281,-0.1427,0.0448,rough,15.5,2,2.801
3700,118.40,6.1933,1.1027,-0.6563,-0.2273,-0.1447,0.0423,rough,15.5,2,2.801
3710,118.72,6.1938,1.1042,-0.6568,-0.2256,-0.1472,0.0380,rough,15.5,2,2.802
3720,119.04,6.1937,1.1040,-0.6567,-0.2258,-0.1466,0.0392,rough,15.5,2,2.802
3730,119.36,6.1937,1.1040,-0.6567,-0.2258,-0.1465,0.0394,rough,15.5,2,2.802
3740,119.68,6.1937,1.1040,-0.6567,-0.2259,-0.1464,0.0395,rough,15.5,2,2.802
3750,120.00,6.1937,1.1040,-0.6567,-0.2259,-0.1463,0.0396,rough,15.5,2,2.802
3760,120.32,6.1937,1.1040,-0.6567,-0.2259,-0.1462,0.0397,rough,15.5,2,2.802
3770,120.64,6.1939,1.1062,-0.6573,-0.2229,-0.1513,0.0313,rough,15.5,2,2.803
3780,120.96,6.1938,1.1086,-0.6585,-0.2225,-0.1579,0.0190,rough,15.5,2,2.805
3790,121.28,6.1947,1.1072,-0.6587,-0.2262,-0.1748,-0.0104,rough,15.5,2,2.803
3800,121.60,6.1945,1.1035,-0.6567,-0.2253,-0.1725,-0.0063,rough,15.5,2,2.801
3810,121.92,6.1946,1.0982,-0.6566,-0.2402,-0.1467,0.0344,rough,15.5,2,2.798
3820,122.24,6.1932,1.0961,-0.6548,-0.2357,-0.1373,0.0527,rough,15.5,2,2.798
3830,122.56,6.1934,1.0969,-0.6548,-0.2346,-0.1390,0.0504,rough,15.5,2,2.798
3840,122.88,6.1935,1.0971,-0.6549,-0.2345,-0.1359,0.0554,rough,15.5,2,2.798
3850,123.20,6.1939,1.0968,-0.6548,-0.2354,-0.1350,0.0575,rough,15.5,2,2.798
3860,123.52,6.1940,1.0967,-0.6548,-0.2356,-0.1347,0.0582,rough,15.5,2,2.797
3870,123.84,6.1940,1.0967,-0.6548,-0.2356,-0.1346,0.0584,rough,15.5,2,2.797
3880,124.16,6.1940,1.0967,-0.6548,-0.2356,-0.1345,0.0584,rough,15.5,2,2.797
3890,124.48,6.1940,1.0967,-0.6548,-0.2356,-0.1345,0.0584,rough,15.5,2,2.797
3900,124.80,6.1940,1.0967,-0.6548,-0.2356,-0.1345,0.0584,rough,15.5,2,2.797
3910,125.12,6.1940,1.0967,-0.6548,-0.2356,-0.1344,0.0584,rough,15.5,2,2.797
3920,125.44,6.1940,1.0968,-0.6548,-0.2356,-0.1344,0.0584,rough,15.5,2,2.797
3930,125.76,6.1940,1.0968,-0.6548,-0.2355,-0.1344,0.0584,rough,15.5,2,2.797
3940,126.08,6.1940,1.0968,-0.6548,-0.2355,-0.1344,0.0584,rough,15.5,2,2.797
3950,126.40,6.1940,1.0968,-0.6549,-0.2355,-0.1343,0.0584,rough,15.5,2,2.798
3960,126.72,6.1940,1.0969,-0.6549,-0.2355,-0.1343,0.0584,rough,15.5,2,2.798
3970,127.04,6.1940,1.0969,-0.6549,-0.2355,-0.1343,0.0584,rough,15.5,2,2.798
3980,127.36,6.1940,1.0969,-0.6549,-0.2354,-0.1343,0.0584,rough,15.5,2,2.798
3990,127.68,6.1937,1.0979,-0.6551,-0.2338,-0.1372,0.0538,rough,15.5,2,2.798
4000,128.00,6.1934,1.0990,-0.6554,-0.2321,-0.1389,0.0504,rough,15.5,2,2.799
4010,128.32,6.1928,1.1001,-0.6557,-0.2298,-0.1424,0.0450,rough,15.5,2,2.800
4020,128.64,6.1935,1.0991,-0.6555,-0.2319,-0.1387,0.0496,rough,15.5,2,2.799
4030,128.96,6.1937,1.0991,-0.6554,-0.2321,-0.1394,0.0507,rough,15.5,2,2.799
4040,129.28,6.1935,1.1008,-0.6559,-0.2296,-0.1429,0.0446,rough,15.5,2,2.800
4050,129.60,6.1929,1.1029,-0.6564,-0.2263,-0.1482,0.0355,rough,15.5,2,2.802
4060,129.92,6.1932,1.1029,-0.6564,-0.2268,-0.1458,0.0398,rough,15.5,2,2.802
4070,130.24,6.1931,1.1043,-0.6568,-0.2248,-0.1490,0.0344,rough,15.5,2,2.803
4080,130.56,6.1933,1.1042,-0.6570,-0.2243,-0.1503,0.0293,rough,15.5,2,2.802
4090,130.88,6.1932,1.1047,-0.6569,-0.2242,-0.1497,0.0331,rough,15.5,2,2.803
4100,131.20,6.1934,1.1037,-0.6567,-0.2258,-0.1461,0.0391,rough,15.5,2,2.802
4110,131.52,6.1937,1.1033,-0.6565,-0.2267,-0.1451,0.0415,rough,15.5,2,2.802
4120,131.84,6.1937,1.1033,-0.6565,-0.2268,-0.1450,0.0418,rough,15.5,2,2.802
4130,132.16,6.1937,1.1033,-0.6565,-0.2268,-0.1449,0.0419,rough,15.5,2,2.802
4140,132.48,6.1937,1.1033,-0.6565,-0.2268,-0.1448,0.0420,rough,15.5,2,2.802
4150,132.80,6.1939,1.1060,-0.6573,-0.2234,-0.1506,0.0322,rough,15.5,2,2.803
4160,133.12,6.1938,1.1057,-0.6572,-0.2236,-0.1499,0.0339,rough,15.5,2,2.803
4170,133.44,6.1938,1.1056,-0.6572,-0.2237,-0.1497,0.0341,rough,15.5,2,2.803
4180,133.76,6.1938,1.1057,-0.6572,-0.2237,-0.1496,0.0342,rough,15.5,2,2.803
4190,134.08,6.1938,1.1057,-0.6572,-0.2237,-0.1496,0.0343,rough,15.5,2,2.803
4200,134.40,6.1938,1.1094,-0.6589,-0.2227,-0.1606,0.0156,rough,15.5,2,2.805
4210,134.72,6.1945,1.1064,-0.6584,-0.2263,-0.1774,-0.0140,rough,15.5,2,2.803
4220,135.04,6.1945,1.1036,-0.6567,-0.2252,-0.1720,-0.0054,rough,15.5,2,2.801
4230,135.36,6.1946,1.0992,-0.6573,-0.2408,-0.1491,0.0296,rough,15.5,2,2.798
4240,135.68,6.1937,1.0974,-0.6551,-0.2347,-0.1404,0.0489,rough,15.5,2,2.798
4250,136.00,6.1935,1.0979,-0.6551,-0.2336,-0.1370,0.0540,rough,15.5,2,2.798
4260,136.32,6.1937,1.0984,-0.6552,-0.2329,-0.1387,0.0519,rough,15.5,2,2.799
4270,136.64,6.1936,1.0994,-0.6554,-0.2317,-0.1407,0.0492,rough,15.5,2,2.799
4280,136.96,6.1932,1.1010,-0.6560,-0.2291,-0.1418,0.0443,rough,15.5,2,2.801
4290,137.28,6.1935,1.1037,-0.6566,-0.2257,-0.1494,0.0348,rough,15.5,2,2.802
4300,137.60,6.1935,1.1050,-0.6570,-0.2241,-0.1514,0.0308,rough,15.5,2,2.803
4310,137.92,6.1933,1.1048,-0.6569,-0.2242,-0.1500,0.0336,rough,15.5,2,2.803
4320,138.24,6.1931,1.1048,-0.6570,-0.2236,-0.1521,0.0292,rough,15.5,2,2.803
4330,138.56,6.1932,1.1042,-0.6567,-0.2249,-0.1485,0.0358,rough,15.5,2,2.802
4340,138.88,6.1938,1.1062,-0.6573,-0.2228,-0.1538,0.0274,rough,15.5,2,2.803
4350,139.20,6.1935,1.1052,-0.6570,-0.2236,-0.1528,0.0291,rough,15.5,2,2.803
4360,139.52,6.1931,1.1046,-0.6569,-0.2242,-0.1489,0.0346,rough,15.5,2,2.803
4370,139.84,6.1934,1.1059,-0.6573,-0.2231,-0.1499,0.0324,rough,15.5,2,2.803
4380,140.16,6.1946,1.1095,-0.6596,-0.2255,-0.1690,-0.0006,rough,15.5,2,2.805
4390,140.48,6.1945,1.1046,-0.6573,-0.2258,-0.1747,-0.0098,rough,15.5,2,2.802
4400,140.80,6.1945,1.1032,-0.6565,-0.2252,-0.1709,-0.0037,rough,15.5,2,2.801
4410,141.12,6.1947,1.0968,-0.6553,-0.2382,-0.1399,0.0486,rough,15.5,2,2.797
4420,141.44,6.1938,1.0962,-0.6547,-0.2360,-0.1360,0.0554,rough,15.5,2,2.797
4430,141.76,6.1941,1.0958,-0.6545,-0.2366,-0.1349,0.0578,rough,15.5,2,2.797
4440,142.08,6.1940,1.0960,-0.6546,-0.2363,-0.1348,0.0576,rough,15.5,2,2.797
4450,142.40,6.1942,1.0959,-0.6546,-0.2366,-0.1344,0.0584,rough,15.5,2,2.797
4460,142.72,6.1942,1.0958,-0.6546,-0.2367,-0.1343,0.0587,rough,15.5,2,2.797
4470,143.04,6.1942,1.0959,-0.6546,-0.2367,-0.1342,0.0587,rough,15.5,2,2.797
4480,143.36,6.1938,1.0966,-0.6548,-0.2355,-0.1345,0.0575,rough,15.5,2,2.798
4490,143.68,6.1941,1.0966,-0.6548,-0.2359,-0.1343,0.0582,rough,15.5,2,2.797
4500,144.00,6.1941,1.0966,-0.6548,-0.2359,-0.1342,0.0584,rough,15.5,2,2.797
4510,144.32,6.1941,1.0966,-0.6548,-0.2359,-0.1341,0.0585,rough,15.5,2,2.797
4520,144.64,6.1941,1.0966,-0.6548,-0.2359,-0.1341,0.0585,rough,15.5,2,2.797
4530,144.96,6.1941,1.0966,-0.6548,-0.2358,-0.1341,0.0585,rough,15.5,2,2.797
4540,145.28,6.1941,1.0967,-0.6548,-0.2358,-0.1341,0.0585,rough,15.5,2,2.797
4550,145.60,6.1941,1.0967,-0.6548,-0.2358,-0.1341,0.0584,rough,15.5,2,2.797
4560,145.92,6.1941,1.0967,-0.6548,-0.2358,-0.1341,0.0584,rough,15.5,2,2.797
4570,146.24,6.1941,1.0968,-0.6549,-0.2357,-0.1341,0.0584,rough,15.5,2,2.797
4580,146.56,6.1941,1.0968,-0.6549,-0.2357,-0.1341,0.0584,rough,15.5,2,2.797
4590,146.88,6.1941,1.0968,-0.6549,-0.2357,-0.1341,0.0584,rough,15.5,2,2.797
4600,147.20,6.1941,1.0968,-0.6549,-0.2356,-0.1341,0.0584,rough,15.5,2,2.797
4610,147.52,6.1941,1.0969,-0.6549,-0.2356,-0.1341,0.0584,rough,15.5,2,2.797
4620,147.84,6.1941,1.0969,-0.6549,-0.2356,-0.1341,0.0584,rough,15.5,2,2.797
4630,148.16,6.1941,1.0969,-0.6549,-0.2355,-0.1341,0.0584,rough,15.5,2,2.798
4640,148.48,6.1940,1.0970,-0.6549,-0.2355,-0.1341,0.0584,rough,15.5,2,2.798
4650,148.80,6.1938,1.0979,-0.6551,-0.2340,-0.1369,0.0543,rough,15.5,2,2.798
4660,149.12,6.1934,1.0983,-0.6554,-0.2326,-0.1364,0.0525,rough,15.5,2,2.799
4670,149.44,6.1936,1.0998,-0.6556,-0.2310,-0.1417,0.0474,rough,15.5,2,2.800
4680,149.76,6.1935,1.1009,-0.6559,-0.2295,-0.1435,0.0441,rough,15.5,2,2.800
4690,150.08,6.1937,1.1036,-0.6566,-0.2260,-0.1496,0.0343,rough,15.5,2,2.802
4700,150.40,6.1931,1.1034,-0.6565,-0.2260,-0.1465,0.0391,rough,15.5,2,2.802
4710,150.72,6.1931,1.1031,-0.6565,-0.2264,-0.1455,0.0403,rough,15.5,2,2.802
4720,151.04,6.1938,1.1044,-0.6569,-0.2253,-0.1473,0.0376,rough,15.5,2,2.802
4730,151.36,6.1937,1.1042,-0.6568,-0.2256,-0.1468,0.0388,rough,15.5,2,2.802
4740,151.68,6.1938,1.1042,-0.6568,-0.2256,-0.1467,0.0390,rough,15.5,2,2.802
4750,152.00,6.1939,1.1064,-0.6574,-0.2228,-0.1516,0.0309,rough,15.5,2,2.803
4760,152.32,6.1937,1.1073,-0.6577,-0.2215,-0.1526,0.0287,rough,15.5,2,2.804
4770,152.64,6.1946,1.1088,-0.6594,-0.2260,-0.1739,-0.0085,rough,15.5,2,2.804
4780,152.96,6.1945,1.1042,-0.6571,-0.2255,-0.1734,-0.0077,rough,15.5,2,2.802
4790,153.28,6.1945,1.1032,-0.6565,-0.2251,-0.1707,-0.0033,rough,15.5,2,2.801
4800,153.60,6.1946,1.0969,-0.6554,-0.2380,-0.1398,0.0484,rough,15.5,2,2.797
4810,153.92,6.1937,1.0961,-0.6547,-0.2361,-0.1351,0.0567,rough,15.5,2,2.797
4820,154.24,6.1941,1.0959,-0.6546,-0.2366,-0.1344,0.0582,rough,15.5,2,2.797
4830,154.56,6.1942,1.0959,-0.6546,-0.2367,-0.1342,0.0586,rough,15.5,2,2.797
4840,154.88,6.1934,1.0966,-0.6548,-0.2351,-0.1346,0.0568,rough,15.5,2,2.798
4850,155.20,6.1940,1.0967,-0.6548,-0.2357,-0.1343,0.0580,rough,15.5,2,2.797
4860,155.52,6.1941,1.0966,-0.6548,-0.2359,-0.1342,0.0583,rough,15.5,2,2.797
4870,155.84,6.1941,1.0966,-0.6548,-0.2359,-0.1341,0.0584,rough,15.5,2,2.797
4880,156.16,6.1941,1.0967,-0.6548,-0.2358,-0.1341,0.0584,rough,15.5,2,2.797
4890,156.48,6.1941,1.0967,-0.6548,-0.2358,-0.1341,0.0584,rough,15.5,2,2.797
4900,156.80,6.1941,1.0967,-0.6548,-0.2358,-0.1341,0.0584,rough,15.5,2,2.797
4910,157.12,6.1941,1.0967,-0.6548,-0.2357,-0.1341,0.0584,rough,15.5,2,2.797
4920,157.44,6.1941,1.0968,-0.6549,-0.2357,-0.1341,0.0584,rough,15.5,2,2.797
4930,157.76,6.1941,1.0968,-0.6549,-0.2357,-0.1341,0.0584,rough,15.5,2,2.797
4940,158.08,6.1941,1.0968,-0.6549,-0.2357,-0.1341,0.0584,rough,15.5,2,2.797
4950,158.40,6.1941,1.0969,-0.6549,-0.2356,-0.1341,0.0584,rough,15.5,2,2.797
4960,158.72,6.1941,1.0969,-0.6549,-0.2356,-0.1341,0.0584,rough,15.5,2,2.797
4970,159.04,6.1941,1.0969,-0.6549,-0.2356,-0.1341,0.0584,rough,15.5,2,2.797
4980,159.36,6.1941,1.0969,-0.6549,-0.2355,-0.1341,0.0584,rough,15.5,2,2.798
4990,159.68,6.1940,1.0970,-0.6549,-0.2355,-0.1341,0.0583,rough,15.5,2,2.798
5000,160.00,6.1935,1.0982,-0.6551,-0.2332,-0.1385,0.0525,rough,15.5,2,2.799
5010,160.32,6.1932,1.0993,-0.6555,-0.2314,-0.1407,0.0483,rough,15.5,2,2.800
5020,160.64,6.1935,1.1011,-0.6559,-0.2291,-0.1441,0.0425,rough,15.5,2,2.800
5030,160.96,6.1937,1.0986,-0.6553,-0.2327,-0.1381,0.0515,rough,15.5,2,2.799
5040,161.28,6.1937,1.0988,-0.6553,-0.2325,-0.1391,0.0515,rough,15.5,2,2.799
5050,161.60,6.1936,1.1000,-0.6556,-0.2308,-0.1417,0.0470,rough,15.5,2,2.800
5060,161.92,6.1934,1.1011,-0.6559,-0.2292,-0.1437,0.0436,rough,15.5,2,2.800
5070,162.24,6.1936,1.0987,-0.6553,-0.2323,-0.1397,0.0499,rough,15.5,2,2.799
5080,162.56,6.1936,1.0983,-0.6552,-0.2330,-0.1380,0.0530,rough,15.5,2,2.799
5090,162.88,6.1934,1.0996,-0.6555,-0.2312,-0.1406,0.0484,rough,15.5,2,2.800
5100,163.20,6.1931,1.1017,-0.6561,-0.2279,-0.1458,0.0400,rough,15.5,2,2.801
5110,163.52,6.1932,1.1039,-0.6567,-0.2251,-0.1506,0.0322,rough,15.5,2,2.802
5120,163.84,6.1935,1.1053,-0.6571,-0.2235,-0.1529,0.0283,rough,15.5,2,2.803
5130,164.16,6.1932,1.1046,-0.6569,-0.2244,-0.1502,0.0327,rough,15.5,2,2.803
5140,164.48,6.1935,1.1026,-0.6563,-0.2271,-0.1467,0.0385,rough,15.5,2,2.801
5150,164.80,6.1933,1.1018,-0.6561,-0.2283,-0.1428,0.0451,rough,15.5,2,2.801
5160,165.12,6.1933,1.1016,-0.6562,-0.2287,-0.1414,0.0463,rough,15.5,2,2.801
5170,165.44,6.1937,1.1036,-0.6567,-0.2265,-0.1459,0.0395,rough,15.5,2,2.802
5180,165.76,6.1937,1.1031,-0.6565,-0.2270,-0.1449,0.0419,rough,15.5,2,2.801
5190,166.08,6.1937,1.1030,-0.6565,-0.2271,-0.1446,0.0425,rough,15.5,2,2.801
5200,166.40,6.1937,1.1030,-0.6565,-0.2272,-0.1445,0.0427,rough,15.5,2,2.801
5210,166.72,6.1937,1.1030,-0.6565,-0.2272,-0.1444,0.0428,rough,15.5,2,2.801
5220,167.04,6.1937,1.1030,-0.6565,-0.2272,-0.1443,0.0429,rough,15.5,2,2.801
5230,167.36,6.1939,1.1058,-0.6572,-0.2236,-0.1503,0.0328,rough,15.5,2,2.803
5240,167.68,6.1938,1.1056,-0.6571,-0.2238,-0.1496,0.0343,rough,15.5,2,2.803
5250,168.00,6.1938,1.1056,-0.6571,-0.2238,-0.1495,0.0345,rough,15.5,2,2.803
5260,168.32,6.1938,1.1056,-0.6571,-0.2238,-0.1494,0.0346,rough,15.5,2,2.803
5270,168.64,6.1936,1.1068,-0.6575,-0.2220,-0.1529,0.0286,rough,15.5,2,2.804
5280,168.96,6.1932,1.1074,-0.6585,-0.2260,-0.1516,0.0299,rough,15.5,2,2.804
5290,169.28,6.1947,1.1104,-0.6600,-0.2257,-0.1672,0.0020,rough,15.5,2,2.805
5300,169.60,6.1945,1.1049,-0.6576,-0.2261,-0.1763,-0.0123,rough,15.5,2,2.802
5310,169.92,6.1945,1.1031,-0.6565,-0.2252,-0.1713,-0.0043,rough,15.5,2,2.801
5320,170.24,6.1947,1.0967,-0.6552,-0.2384,-0.1400,0.0489,rough,15.5,2,2.797
5330,170.56,6.1933,1.0974,-0.6550,-0.2341,-0.1385,0.0515,rough,15.5,2,2.798
5340,170.88,6.1934,1.0978,-0.6551,-0.2333,-0.1388,0.0501,rough,15.5,2,2.799
5350,171.20,6.1934,1.0977,-0.6552,-0.2334,-0.1367,0.0523,rough,15.5,2,2.798
5360,171.52,6.1929,1.0988,-0.6554,-0.2317,-0.1390,0.0503,rough,15.5,2,2.800
5370,171.84,6.1929,1.0998,-0.6556,-0.2304,-0.1410,0.0471,rough,15.5,2,2.800
5380,172.16,6.1929,1.1024,-0.6563,-0.2268,-0.1473,0.0375,rough,15.5,2,2.802
5390,172.48,6.1931,1.1019,-0.6562,-0.2276,-0.1460,0.0391,rough,15.5,2,2.801
5400,172.80,6.1933,1.1021,-0.6563,-0.2275,-0.1456,0.0393,rough,15.5,2,2.801
5410,173.12,6.1935,1.1035,-0.6566,-0.2260,-0.1488,0.0357,rough,15.5,2,2.802
5420,173.44,6.1930,1.1023,-0.6563,-0.2273,-0.1428,0.0437,rough,15.5,2,2.802
5430,173.76,6.1937,1.1043,-0.6569,-0.2255,-0.1473,0.0372,rough,15.5,2,2.802
5440,174.08,6.1937,1.1039,-0.6567,-0.2260,-0.1463,0.0397,rough,15.5,2,2.802
5450,174.40,6.1937,1.1038,-0.6567,-0.2261,-0.1461,0.0401,rough,15.5,2,2.802
5460,174.72,6.1937,1.1038,-0.6567,-0.2261,-0.1460,0.0402,rough,15.5,2,2.802
5470,175.04,6.1937,1.1038,-0.6567,-0.2261,-0.1459,0.0403,rough,15.5,2,2.802
5480,175.36,6.1939,1.1063,-0.6574,-0.2230,-0.1513,0.0311,rough,15.5,2,2.803
5490,175.68,6.1930,1.1064,-0.6574,-0.2220,-0.1515,0.0302,rough,15.5,2,2.804
5500,176.00,6.1930,1.1080,-0.6589,-0.2262,-0.1528,0.0285,rough,15.5,2,2.805
5510,176.32,6.1946,1.1107,-0.6601,-0.2253,-0.1656,0.0046,rough,15.5,2,2.805
5520,176.64,6.1945,1.1054,-0.6578,-0.2262,-0.1771,-0.0137,rough,15.5,2,2.802
5530,176.96,6.1945,1.1032,-0.6565,-0.2252,-0.1716,-0.0047,rough,15.5,2,2.801
5540,177.28,6.1947,1.0970,-0.6555,-0.2386,-0.1412,0.0467,rough,15.5,2,2.797
5550,177.60,6.1936,1.0974,-0.6550,-0.2344,-0.1395,0.0503,rough,15.5,2,2.798
5560,177.92,6.1939,1.0968,-0.6548,-0.2353,-0.1351,0.0569,rough,15.5,2,2.798
5570,178.24,6.1940,1.0966,-0.6548,-0.2356,-0.1347,0.0580,rough,15.5,2,2.797
5580,178.56,6.1940,1.0966,-0.6548,-0.2357,-0.1345,0.0583,rough,15.5,2,2.797
5590,178.88,6.1940,1.0966,-0.6548,-0.2357,-0.1344,0.0584,rough,15.5,2,2.797
5600,179.20,6.1940,1.0966,-0.6548,-0.2357,-0.1344,0.0585,rough,15.5,2,2.797
5610,179.52,6.1940,1.0967,-0.6548,-0.2357,-0.1344,0.0585,rough,15.5,2,2.797
5620,179.84,6.1940,1.0967,-0.6548,-0.2357,-0.1343,0.0585,rough,15.5,2,2.797
5630,180.16,6.1940,1.0967,-0.6548,-0.2357,-0.1343,0.0584,rough,15.5,2,2.797
5640,180.48,6.1940,1.0967,-0.6548,-0.2356,-0.1343,0.0584,rough,15.5,2,2.797
5650,180.80,6.1940,1.0968,-0.6548,-0.2356,-0.1343,0.0584,rough,15.5,2,2.797
5660,181.12,6.1940,1.0968,-0.6548,-0.2356,-0.1343,0.0584,rough,15.5,2,2.797
5670,181.44,6.1940,1.0968,-0.6549,-0.2356,-0.1342,0.0584,rough,15.5,2,2.797
5680,181.76,6.1940,1.0968,-0.6549,-0.2356,-0.1342,0.0584,rough,15.5,2,2.797
5690,182.08,6.1940,1.0969,-0.6549,-0.2355,-0.1342,0.0584,rough,15.5,2,2.797
5700,182.40,6.1940,1.0969,-0.6549,-0.2355,-0.1342,0.0584,rough,15.5,2,2.798
5710,182.72,6.1940,1.0969,-0.6549,-0.2355,-0.1342,0.0584,rough,15.5,2,2.798
5720,183.04,6.1940,1.0969,-0.6549,-0.2355,-0.1342,0.0584,rough,15.5,2,2.798
5730,183.36,6.1938,1.0976,-0.6550,-0.2343,-0.1363,0.0558,rough,15.5,2,2.798
5740,183.68,6.1937,1.0990,-0.6554,-0.2322,-0.1397,0.0506,rough,15.5,2,2.799
5750,184.00,6.1937,1.0985,-0.6553,-0.2329,-0.1381,0.0523,rough,15.5,2,2.799
5760,184.32,6.1929,1.0998,-0.6556,-0.2303,-0.1418,0.0460,rough,15.5,2,2.800
5770,184.64,6.1930,1.1011,-0.6560,-0.2288,-0.1429,0.0442,rough,15.5,2,2.801
5780,184.96,6.1932,1.1033,-0.6566,-0.2261,-0.1467,0.0375,rough,15.5,2,2.802
5790,185.28,6.1931,1.1045,-0.6569,-0.2246,-0.1479,0.0354,rough,15.5,2,2.803
5800,185.60,6.1938,1.1055,-0.6572,-0.2239,-0.1492,0.0343,rough,15.5,2,2.803
5810,185.92,6.1938,1.1070,-0.6576,-0.2219,-0.1530,0.0283,rough,15.5,2,2.804
5820,186.24,6.1931,1.1064,-0.6574,-0.2222,-0.1507,0.0316,rough,15.5,2,2.804
5830,186.56,6.1945,1.1093,-0.6597,-0.2262,-0.1751,-0.0104,rough,15.5,2,2.805
5840,186.88,6.1945,1.1048,-0.6574,-0.2254,-0.1733,-0.0075,rough,15.5,2,2.802
5850,187.20,6.1945,1.1038,-0.6568,-0.2252,-0.1707,-0.0033,rough,15.5,2,2.801
5860,187.52,6.1946,1.1035,-0.6566,-0.2252,-0.1700,-0.0023,rough,15.5,2,2.801
5870,187.84,6.1947,1.0980,-0.6560,-0.2383,-0.1418,0.0438,rough,15.5,2,2.798
5880,188.16,6.1934,1.0983,-0.6552,-0.2328,-0.1432,0.0446,rough,15.5,2,2.799
5890,188.48,6.1937,1.0975,-0.6550,-0.2341,-0.1371,0.0542,rough,15.5,2,2.798
5900,188.80,6.1932,1.1001,-0.6557,-0.2303,-0.1422,0.0454,rough,15.5,2,2.800
5910,189.12,6.1928,1.1017,-0.6561,-0.2277,-0.1453,0.0407,rough,15.5,2,2.801
5920,189.44,6.1933,1.1025,-0.6564,-0.2270,-0.1462,0.0382,rough,15.5,2,2.801
5930,189.76,6.1932,1.1032,-0.6565,-0.2261,-0.1466,0.0383,rough,15.5,2,2.802
5940,190.08,6.1937,1.1052,-0.6571,-0.2240,-0.1517,0.0301,rough,15.5,2,2.803
5950,190.40,6.1928,1.1036,-0.6567,-0.2256,-0.1441,0.0411,rough,15.5,2,2.802
5960,190.72,6.1928,1.1070,-0.6602,-0.2368,-0.1507,0.0323,rough,15.5,2,2.804
5970,191.04,6.1937,1.1096,-0.6592,-0.2240,-0.1579,0.0186,rough,15.5,2,2.805
5980,191.36,6.1947,1.1078,-0.6590,-0.2265,-0.1754,-0.0113,rough,15.5,2,2.803
5990,191.68,6.1945,1.1037,-0.6568,-0.2254,-0.1728,-0.0068,rough,15.5,2,2.801
6000,192.00,6.1946,1.0990,-0.6572,-0.2410,-0.1494,0.0292,rough,15.5,2,2.798
6010,192.32,6.1936,1.0957,-0.6548,-0.2368,-0.1343,0.0555,rough,15.5,2,2.797
6020,192.64,6.1933,1.0975,-0.6550,-0.2336,-0.1408,0.0480,rough,15.5,2,2.798
6030,192.96,6.1937,1.0970,-0.6549,-0.2348,-0.1354,0.0561,rough,15.5,2,2.798
6040,193.28,6.1940,1.0968,-0.6548,-0.2355,-0.1348,0.0577,rough,15.5,2,2.797
6050,193.60,6.1940,1.0967,-0.6548,-0.2356,-0.1345,0.0582,rough,15.5,2,2.797
6060,193.92,6.1940,1.0967,-0.6548,-0.2356,-0.1344,0.0584,rough,15.5,2,2.797
6070,194.24,6.1940,1.0967,-0.6548,-0.2356,-0.1344,0.0584,rough,15.5,2,2.797
6080,194.56,6.1940,1.0967,-0.6548,-0.2356,-0.1344,0.0584,rough,15.5,2,2.797
6090,194.88,6.1940,1.0968,-0.6548,-0.2356,-0.1343,0.0584,rough,15.5,2,2.797
6100,195.20,6.1940,1.0968,-0.6548,-0.2356,-0.1343,0.0584,rough,15.5,2,2.797
6110,195.52,6.1940,1.0968,-0.6548,-0.2356,-0.1343,0.0584,rough,15.5,2,2.797
6120,195.84,6.1940,1.0968,-0.6549,-0.2355,-0.1343,0.0584,rough,15.5,2,2.797
6130,196.16,6.1940,1.0969,-0.6549,-0.2355,-0.1343,0.0584,rough,15.5,2,2.798
6140,196.48,6.1940,1.0969,-0.6549,-0.2355,-0.1342,0.0584,rough,15.5,2,2.798
6150,196.80,6.1940,1.0969,-0.6549,-0.2355,-0.1342,0.0584,rough,15.5,2,2.798
6160,197.12,6.1940,1.0969,-0.6549,-0.2355,-0.1342,0.0584,rough,15.5,2,2.798
6170,197.44,6.1938,1.0976,-0.6550,-0.2343,-0.1365,0.0555,rough,15.5,2,2.798
6180,197.76,6.1937,1.0994,-0.6555,-0.2317,-0.1406,0.0490,rough,15.5,2,2.799
6190,198.08,6.1936,1.1003,-0.6557,-0.2304,-0.1423,0.0467,rough,15.5,2,2.800
6200,198.40,6.1933,1.0998,-0.6556,-0.2306,-0.1432,0.0442,rough,15.5,2,2.800
6210,198.72,6.1938,1.0982,-0.6552,-0.2332,-0.1379,0.0524,rough,15.5,2,2.799
6220,199.04,6.1934,1.0993,-0.6555,-0.2314,-0.1401,0.0485,rough,15.5,2,2.799
6230,199.36,6.1930,1.0996,-0.6556,-0.2308,-0.1400,0.0489,rough,15.5,2,2.800
6240,199.68,6.1933,1.1006,-0.6560,-0.2295,-0.1409,0.0457,rough,15.5,2,2.800
6250,200.00,6.1930,1.1026,-0.6564,-0.2269,-0.1458,0.0397,rough,15.5,2,2.802
6260,200.32,6.1938,1.1053,-0.6570,-0.2240,-0.1526,0.0296,rough,15.5,2,2.803
6270,200.64,6.1936,1.1059,-0.6572,-0.2229,-0.1537,0.0272,rough,15.5,2,2.803
6280,200.96,6.1931,1.1051,-0.6571,-0.2238,-0.1481,0.0354,rough,15.5,2,2.803
6290,201.28,6.1945,1.1102,-0.6598,-0.2250,-0.1679,0.0016,rough,15.5,2,2.805
6300,201.60,6.1945,1.1050,-0.6576,-0.2259,-0.1759,-0.0116,rough,15.5,2,2.802
6310,201.92,6.1945,1.1033,-0.6566,-0.2252,-0.1712,-0.0041,rough,15.5,2,2.801
6320,202.24,6.1947,1.0975,-0.6559,-0.2388,-0.1424,0.0435,rough,15.5,2,2.797
6330,202.56,6.1935,1.0987,-0.6554,-0.2326,-0.1429,0.0447,rough,15.5,2,2.799
6340,202.88,6.1932,1.0998,-0.6556,-0.2308,-0.1405,0.0479,rough,15.5,2,2.800
6350,203.20,6.1927,1.1015,-0.6560,-0.2279,-0.1449,0.0413,rough,15.5,2,2.801
6360,203.52,6.1935,1.1010,-0.6560,-0.2291,-0.1435,0.0425,rough,15.5,2,2.800
6370,203.84,6.1937,1.0984,-0.6554,-0.2330,-0.1375,0.0516,rough,15.5,2,2.799
6380,204.16,6.1939,1.0976,-0.6551,-0.2344,-0.1356,0.0562,rough,15.5,2,2.798
6390,204.48,6.1934,1.0982,-0.6553,-0.2327,-0.1389,0.0490,rough,15.5,2,2.799
6400,204.80,6.1936,1.1004,-0.6557,-0.2301,-0.1444,0.0429,rough,15.5,2,2.800
6410,205.12,6.1937,1.0983,-0.6552,-0.2331,-0.1383,0.0527,rough,15.5,2,2.799
6420,205.44,6.1936,1.0993,-0.6554,-0.2317,-0.1404,0.0491,rough,15.5,2,2.799
6430,205.76,6.1933,1.1001,-0.6556,-0.2304,-0.1425,0.0460,rough,15.5,2,2.800
6440,206.08,6.1935,1.1015,-0.6560,-0.2288,-0.1443,0.0426,rough,15.5,2,2.801
6450,206.40,6.1933,1.1028,-0.6564,-0.2270,-0.1458,0.0398,rough,15.5,2,2.802
6460,206.72,6.1932,1.1043,-0.6568,-0.2248,-0.1490,0.0345,rough,15.5,2,2.803
6470,207.04,6.1936,1.1062,-0.6573,-0.2226,-0.1539,0.0267,rough,15.5,2,2.803
6480,207.36,6.1934,1.1054,-0.6571,-0.2232,-0.1530,0.0283,rough,15.5,2,2.803
6490,207.68,6.1926,1.1040,-0.6568,-0.2247,-0.1468,0.0374,rough,15.5,2,2.803
6500,208.00,6.1940,1.1097,-0.6593,-0.2236,-0.1627,0.0108,rough,15.5,2,2.805
6510,208.32,6.1945,1.1060,-0.6581,-0.2262,-0.1766,-0.0130,rough,15.5,2,2.802
6520,208.64,6.1945,1.1035,-0.6566,-0.2252,-0.1717,-0.0050,rough,15.5,2,2.801
6530,208.96,6.1946,1.0984,-0.6567,-0.2400,-0.1465,0.0348,rough,15.5,2,2.798
6540,209.28,6.1941,1.0963,-0.6547,-0.2364,-0.1383,0.0525,rough,15.5,2,2.797
6550,209.60,6.1941,1.0957,-0.6545,-0.2366,-0.1351,0.0573,rough,15.5,2,2.797
6560,209.92,6.1937,1.0959,-0.6546,-0.2363,-0.1328,0.0600,rough,15.5,2,2.797
6570,210.24,6.1942,1.0962,-0.6547,-0.2365,-0.1334,0.0590,rough,15.5,2,2.797
6580,210.56,6.1942,1.0963,-0.6548,-0.2365,-0.1335,0.0587,rough,15.5,2,2.797
6590,210.88,6.1942,1.0964,-0.6548,-0.2364,-0.1336,0.0586,rough,15.5,2,2.797
6600,211.20,6.1942,1.0964,-0.6548,-0.2364,-0.1336,0.0586,rough,15.5,2,2.797
6610,211.52,6.1942,1.0964,-0.6548,-0.2363,-0.1336,0.0585,rough,15.5,2,2.797
6620,211.84,6.1942,1.0965,-0.6548,-0.2363,-0.1337,0.0585,rough,15.5,2,2.797
6630,212.16,6.1942,1.0965,-0.6548,-0.2362,-0.1337,0.0585,rough,15.5,2,2.797
6640,212.48,6.1942,1.0965,-0.6548,-0.2362,-0.1337,0.0585,rough,15.5,2,2.797
6650,212.80,6.1942,1.0966,-0.6548,-0.2361,-0.1337,0.0585,rough,15.5,2,2.797
6660,213.12,6.1942,1.0966,-0.6548,-0.2361,-0.1338,0.0585,rough,15.5,2,2.797
6670,213.44,6.1942,1.0966,-0.6548,-0.2360,-0.1338,0.0585,rough,15.5,2,2.797
6680,213.76,6.1942,1.0967,-0.6549,-0.2360,-0.1338,0.0585,rough,15.5,2,2.797
6690,214.08,6.1941,1.0967,-0.6549,-0.2360,-0.1338,0.0585,rough,15.5,2,2.797
6700,214.40,6.1941,1.0967,-0.6549,-0.2359,-0.1338,0.0584,rough,15.5,2,2.797
6710,214.72,6.1941,1.0967,-0.6549,-0.2359,-0.1338,0.0584,rough,15.5,2,2.797
6720,215.04,6.1941,1.0968,-0.6549,-0.2358,-0.1339,0.0584,rough,15.5,2,2.797
6730,215.36,6.1941,1.0968,-0.6549,-0.2358,-0.1339,0.0584,rough,15.5,2,2.797
6740,215.68,6.1941,1.0968,-0.6549,-0.2357,-0.1339,0.0584,rough,15.5,2,2.797
6750,216.00,6.1941,1.0969,-0.6549,-0.2357,-0.1339,0.0584,rough,15.5,2,2.797
6760,216.32,6.1941,1.0969,-0.6549,-0.2357,-0.1339,0.0584,rough,15.5,2,2.797
6770,216.64,6.1941,1.0969,-0.6549,-0.2356,-0.1339,0.0584,rough,15.5,2,2.797
6780,216.96,6.1941,1.0970,-0.6549,-0.2356,-0.1340,0.0584,rough,15.5,2,2.798
6790,217.28,6.1938,1.0979,-0.6551,-0.2339,-0.1369,0.0539,rough,15.5,2,2.798
6800,217.60,6.1937,1.0985,-0.6552,-0.2329,-0.1388,0.0518,rough,15.5,2,2.799
6810,217.92,6.1933,1.0995,-0.6555,-0.2312,-0.1413,0.0479,rough,15.5,2,2.800
6820,218.24,6.1935,1.1012,-0.6560,-0.2289,-0.1446,0.0421,rough,15.5,2,2.801
6830,218.56,6.1936,1.1020,-0.6561,-0.2281,-0.1456,0.0410,rough,15.5,2,2.801
6840,218.88,6.1935,1.1032,-0.6565,-0.2264,-0.1478,0.0368,rough,15.5,2,2.802
6850,219.20,6.1934,1.1020,-0.6562,-0.2279,-0.1454,0.0404,rough,15.5,2,2.801
6860,219.52,6.1932,1.1024,-0.6562,-0.2275,-0.1444,0.0429,rough,15.5,2,2.801
6870,219.84,6.1935,1.1021,-0.6562,-0.2282,-0.1426,0.0450,rough,15.5,2,2.801
6880,220.16,6.1936,1.1017,-0.6561,-0.2289,-0.1417,0.0470,rough,15.5,2,2.801
6890,220.48,6.1938,1.1041,-0.6568,-0.2258,-0.1471,0.0378,rough,15.5,2,2.802
6900,220.80,6.1937,1.1038,-0.6567,-0.2261,-0.1462,0.0399,rough,15.5,2,2.802
6910,221.12,6.1937,1.1037,-0.6566,-0.2262,-0.1460,0.0402,rough,15.5,2,2.802
6920,221.44,6.1937,1.1037,-0.6566,-0.2262,-0.1459,0.0403,rough,15.5,2,2.802
6930,221.76,6.1937,1.1037,-0.6567,-0.2262,-0.1459,0.0404,rough,15.5,2,2.802
6940,222.08,6.1937,1.1038,-0.6567,-0.2262,-0.1458,0.0405,rough,15.5,2,2.802
6950,222.40,6.1937,1.1059,-0.6573,-0.2233,-0.1507,0.0321,rough,15.5,2,2.803
6960,222.72,6.1938,1.1059,-0.6572,-0.2233,-0.1506,0.0327,rough,15.5,2,2.803
6970,223.04,6.1934,1.1075,-0.6602,-0.2359,-0.1505,0.0321,rough,15.5,2,2.804
6980,223.36,6.1940,1.1103,-0.6596,-0.2243,-0.1597,0.0152,rough,15.5,2,2.806
6990,223.68,6.1947,1.1074,-0.6588,-0.2265,-0.1764,-0.0128,rough,15.5,2,2.803
7000,224.00,6.1945,1.1036,-0.6567,-0.2253,-0.1726,-0.0065,rough,15.5,2,2.801
7010,224.32,6.1946,1.0990,-0.6572,-0.2410,-0.1493,0.0293,rough,15.5,2,2.798
7020,224.64,6.1936,1.0958,-0.6548,-0.2367,-0.1343,0.0555,rough,15.5,2,2.797
7030,224.96,6.1941,1.0956,-0.6545,-0.2370,-0.1345,0.0577,rough,15.5,2,2.797
7040,225.28,6.1942,1.0955,-0.6545,-0.2372,-0.1341,0.0586,rough,15.5,2,2.797
7050,225.60,6.1943,1.0955,-0.6545,-0.2372,-0.1340,0.0588,rough,15.5,2,2.796
7060,225.92,6.1943,1.0955,-0.6545,-0.2372,-0.1340,0.0589,rough,15.5,2,2.796
7070,226.24,6.1943,1.0955,-0.6545,-0.2372,-0.1339,0.0589,rough,15.5,2,2.796
7080,226.56,6.1943,1.0955,-0.6545,-0.2372,-0.1339,0.0589,rough,15.5,2,2.797
7090,226.88,6.1943,1.0956,-0.6545,-0.2372,-0.1339,0.0589,rough,15.5,2,2.797
7100,227.20,6.1943,1.0956,-0.6545,-0.2371,-0.1339,0.0589,rough,15.5,2,2.797
7110,227.52,6.1943,1.0956,-0.6545,-0.2371,-0.1339,0.0589,rough,15.5,2,2.797
7120,227.84,6.1943,1.0957,-0.6545,-0.2371,-0.1338,0.0588,rough,15.5,2,2.797
7130,228.16,6.1943,1.0957,-0.6546,-0.2370,-0.1338,0.0588,rough,15.5,2,2.797
7140,228.48,6.1943,1.0957,-0.6546,-0.2370,-0.1338,0.0588,rough,15.5,2,2.797
7150,228.80,6.1943,1.0958,-0.6546,-0.2370,-0.1338,0.0588,rough,15.5,2,2.797
7160,229.12,6.1943,1.0958,-0.6546,-0.2369,-0.1338,0.0588,rough,15.5,2,2.797
7170,229.44,6.1943,1.0958,-0.6546,-0.2369,-0.1338,0.0588,rough,15.5,2,2.797
7180,229.76,6.1943,1.0959,-0.6546,-0.2369,-0.1338,0.0588,rough,15.5,2,2.797
7190,230.08,6.1939,1.0968,-0.6548,-0.2352,-0.1366,0.0546,rough,15.5,2,2.798
7200,230.40,6.1933,1.0970,-0.6549,-0.2340,-0.1398,0.0487,rough,15.5,2,2.798
7210,230.72,6.1938,1.0977,-0.6550,-0.2339,-0.1389,0.0519,rough,15.5,2,2.798
7220,231.04,6.1933,1.0984,-0.6554,-0.2324,-0.1364,0.0524,rough,15.5,2,2.799
7230,231.36,6.1935,1.1002,-0.6557,-0.2304,-0.1426,0.0458,rough,15.5,2,2.800
7240,231.68,6.1936,1.1021,-0.6562,-0.2281,-0.1462,0.0401,rough,15.5,2,2.801
7250,232.00,6.1933,1.1020,-0.6563,-0.2277,-0.1449,0.0394,rough,15.5,2,2.801
7260,232.32,6.1936,1.1033,-0.6565,-0.2264,-0.1481,0.0370,rough,15.5,2,2.802
7270,232.64,6.1936,1.1021,-0.6562,-0.2279,-0.1457,0.0405,rough,15.5,2,2.801
7280,232.96,6.1933,1.0999,-0.6556,-0.2306,-0.1418,0.0468,rough,15.5,2,2.800
7290,233.28,6.1935,1.1011,-0.6559,-0.2292,-0.1435,0.0436,rough,15.5,2,2.800
7300,233.60,6.1932,1.1008,-0.6559,-0.2293,-0.1429,0.0434,rough,15.5,2,2.800
7310,233.92,6.1933,1.1025,-0.6563,-0.2271,-0.1477,0.0376,rough,15.5,2,2.801
7320,234.24,6.1933,1.1045,-0.6569,-0.2247,-0.1501,0.0328,rough,15.5,2,2.803
7330,234.56,6.1933,1.1045,-0.6568,-0.2246,-0.1494,0.0347,rough,15.5,2,2.803
7340,234.88,6.1937,1.1065,-0.6574,-0.2222,-0.1547,0.0257,rough,15.5,2,2.804
7350,235.20,6.1932,1.1046,-0.6569,-0.2245,-0.1473,0.0369,rough,15.5,2,2.803
7360,235.52,6.1938,1.1064,-0.6574,-0.2227,-0.1517,0.0303,rough,15.5,2,2.803
7370,235.84,6.1932,1.1071,-0.6576,-0.2212,-0.1536,0.0266,rough,15.5,2,2.804
7380,236.16,6.1934,1.1087,-0.6588,-0.2240,-0.1575,0.0197,rough,15.5,2,2.805
7390,236.48,6.1947,1.1073,-0.6587,-0.2264,-0.1747,-0.0101,rough,15.5,2,2.803
7400,236.80,6.1945,1.1036,-0.6568,-0.2254,-0.1724,-0.0062,rough,15.5,2,2.801
7410,237.12,6.1946,1.0991,-0.6573,-0.2409,-0.1493,0.0294,rough,15.5,2,2.798
7420,237.44,6.1935,1.0966,-0.6549,-0.2356,-0.1390,0.0508,rough,15.5,2,2.798
7430,237.76,6.1934,1.0976,-0.6550,-0.2337,-0.1385,0.0517,rough,15.5,2,2.798
7440,238.08,6.1931,1.0986,-0.6553,-0.2322,-0.1392,0.0504,rough,15.5,2,2.799
7450,238.40,6.1933,1.0996,-0.6556,-0.2311,-0.1403,0.0483,rough,15.5,2,2.800
7460,238.72,6.1935,1.0985,-0.6554,-0.2324,-0.1383,0.0494,rough,15.5,2,2.799
7470,239.04,6.1939,1.0975,-0.6551,-0.2344,-0.1359,0.0556,rough,15.5,2,2.798
7480,239.36,6.1936,1.0982,-0.6552,-0.2333,-0.1380,0.0529,rough,15.5,2,2.799
7490,239.68,6.1936,1.0992,-0.6554,-0.2319,-0.1397,0.0498,rough,15.5,2,2.799
7500,240.00,6.1931,1.1008,-0.6559,-0.2292,-0.1435,0.0435,rough,15.5,2,2.801
7510,240.32,6.1935,1.1006,-0.6559,-0.2299,-0.1420,0.0449,rough,15.5,2,2.800
7520,240.64,6.1937,1.1020,-0.6562,-0.2281,-0.1460,0.0402,rough,15.5,2,2.801
7530,240.96,6.1937,1.1041,-0.6567,-0.2255,-0.1498,0.0337,rough,15.5,2,2.802
7540,241.28,6.1935,1.1022,-0.6562,-0.2276,-0.1460,0.0402,rough,15.5,2,2.801
7550,241.60,6.1935,1.1012,-0.6560,-0.2290,-0.1438,0.0430,rough,15.5,2,2.800
7560,241.92,6.1935,1.0988,-0.6554,-0.2321,-0.1400,0.0490,rough,15.5,2,2.799
7570,242.24,6.1935,1.0983,-0.6552,-0.2329,-0.1380,0.0527,rough,15.5,2,2.799
7580,242.56,6.1931,1.1003,-0.6557,-0.2298,-0.1426,0.0449,rough,15.5,2,2.800
7590,242.88,6.1934,1.1016,-0.6561,-0.2285,-0.1445,0.0418,rough,15.5,2,2.801
7600,243.20,6.1935,1.1002,-0.6558,-0.2304,-0.1410,0.0462,rough,15.5,2,2.800
7610,243.52,6.1935,1.1018,-0.6561,-0.2283,-0.1455,0.0410,rough,15.5,2,2.801
7620,243.84,6.1936,1.1037,-0.6566,-0.2259,-0.1494,0.0346,rough,15.5,2,2.802
7630,244.16,6.1929,1.1030,-0.6565,-0.2264,-0.1440,0.0416,rough,15.5,2,2.802
7640,244.48,6.1939,1.1063,-0.6574,-0.2230,-0.1510,0.0310,rough,15.5,2,2.803
7650,244.80,6.1938,1.1059,-0.6572,-0.2234,-0.1499,0.0337,rough,15.5,2,2.803
7660,245.12,6.1945,1.1102,-0.6598,-0.2249,-0.1671,0.0031,rough,15.5,2,2.805
7670,245.44,6.1945,1.1050,-0.6576,-0.2260,-0.1763,-0.0123,rough,15.5,2,2.802
7680,245.76,6.1945,1.1033,-0.6565,-0.2252,-0.1713,-0.0043,rough,15.5,2,2.801
7690,246.08,6.1947,1.0975,-0.6558,-0.2389,-0.1424,0.0435,rough,15.5,2,2.797
7700,246.40,6.1937,1.0957,-0.6546,-0.2366,-0.1366,0.0540,rough,15.5,2,2.797
7710,246.72,6.1937,1.0967,-0.6547,-0.2350,-0.1392,0.0515,rough,15.5,2,2.798
7720,247.04,6.1940,1.0962,-0.6547,-0.2360,-0.1352,0.0570,rough,15.5,2,2.797
7730,247.36,6.1939,1.0969,-0.6548,-0.2351,-0.1372,0.0545,rough,15.5,2,2.798
7740,247.68,6.1939,1.0968,-0.6549,-0.2355,-0.1345,0.0577,rough,15.5,2,2.798
7750,248.00,6.1940,1.0968,-0.6548,-0.2356,-0.1343,0.0582,rough,15.5,2,2.797
7760,248.32,6.1940,1.0968,-0.6548,-0.2357,-0.1343,0.0584,rough,15.5,2,2.797
7770,248.64,6.1940,1.0968,-0.6548,-0.2356,-0.1342,0.0584,rough,15.5,2,2.797
7780,248.96,6.1940,1.0968,-0.6549,-0.2356,-0.1342,0.0584,rough,15.5,2,2.797
7790,249.28,6.1940,1.0968,-0.6549,-0.2356,-0.1342,0.0584,rough,15.5,2,2.797
7800,249.60,6.1940,1.0968,-0.6549,-0.2356,-0.1342,0.0584,rough,15.5,2,2.797
7810,249.92,6.1940,1.0969,-0.6549,-0.2355,-0.1342,0.0584,rough,15.5,2,2.797
7820,250.24,6.1940,1.0969,-0.6549,-0.2355,-0.1342,0.0584,rough,15.5,2,2.798
7830,250.56,6.1940,1.0969,-0.6549,-0.2355,-0.1342,0.0584,rough,15.5,2,2.798
7840,250.88,6.1940,1.0970,-0.6549,-0.2355,-0.1342,0.0584,rough,15.5,2,2.798
7850,251.20,6.1931,1.0980,-0.6552,-0.2330,-0.1368,0.0535,rough,15.5,2,2.799
7860,251.52,6.1935,1.0981,-0.6554,-0.2329,-0.1376,0.0498,rough,15.5,2,2.799
7870,251.84,6.1936,1.1004,-0.6557,-0.2301,-0.1442,0.0431,rough,15.5,2,2.800
7880,252.16,6.1932,1.1016,-0.6560,-0.2281,-0.1456,0.0408,rough,15.5,2,2.801
7890,252.48,6.1934,1.1040,-0.6567,-0.2252,-0.1500,0.0331,rough,15.5,2,2.802
7900,252.80,6.1936,1.1007,-0.6558,-0.2298,-0.1426,0.0459,rough,15.5,2,2.800
7910,253.12,6.1933,1.1002,-0.6558,-0.2301,-0.1420,0.0454,rough,15.5,2,2.800
7920,253.44,6.1933,1.0995,-0.6559,-0.2302,-0.1405,0.0430,rough,15.5,2,2.800
7930,253.76,6.1938,1.0980,-0.6552,-0.2336,-0.1371,0.0538,rough,15.5,2,2.798
