step,time_s,x,y,z,roll,pitch,yaw,terrain,speed,target_idx,dist_to_target
10,0.32,2.0715,0.4852,0.3114,0.1223,-0.0362,0.0330,rough,15.5,0,6.354
20,0.64,2.4290,0.5104,0.2645,0.0232,0.2046,0.0288,slope,18.0,0,6.001
30,0.96,2.9731,0.5789,0.1156,-0.1059,0.3940,0.1051,slope,18.0,0,5.458
40,1.28,3.4450,0.6505,-0.0356,-0.1083,0.1442,0.2207,rough,15.5,0,4.984
50,1.60,3.8779,0.7662,-0.1061,-0.0654,0.1526,0.2983,rough,15.5,0,4.537
60,1.92,4.2862,0.9213,-0.1850,-0.1772,0.2237,0.3448,rough,15.5,0,4.101
70,2.24,4.7996,1.1254,-0.4746,-0.0760,0.6019,0.3987,rough,15.5,0,3.552
80,2.56,5.1334,1.2726,-0.6003,0.2543,0.3068,0.8117,rough,15.5,0,3.192
90,2.88,5.2776,1.3949,-0.6463,0.2032,-0.0467,1.3427,rough,15.5,0,3.024
100,3.20,5.3690,1.5952,-0.6423,0.1814,-0.1675,1.7586,rough,15.5,0,2.898
110,3.52,5.3042,1.8481,-0.6136,0.1336,-0.1226,2.2363,rough,15.5,0,2.935
120,3.84,5.0502,2.1103,-0.6559,-0.1693,0.2700,2.2347,rough,15.5,0,3.184
130,4.16,4.8784,2.3602,-0.6987,-0.0568,0.2236,1.8651,rough,15.5,0,3.371
140,4.48,4.8036,2.7028,-0.7574,0.0030,0.0323,1.5847,rough,15.5,0,3.494
150,4.80,4.8504,3.1403,-0.7992,0.2323,-0.0197,1.4583,rough,15.5,0,3.559
160,5.12,4.9921,3.6462,-0.8789,0.5877,0.3289,1.5607,rough,15.5,0,3.620
170,5.44,5.1450,4.0372,-1.0423,0.5853,0.2362,1.3304,rough,15.5,0,3.681
180,5.76,5.2954,4.3602,-1.0938,0.4226,-0.0444,1.0151,rough,15.5,0,3.747
190,6.08,5.5135,4.6452,-1.0636,0.2253,-0.2341,0.7215,rough,15.5,0,3.770
200,6.40,5.7824,4.8203,-1.0052,0.2159,-0.2241,0.4888,rough,15.5,0,3.711
210,6.72,6.2367,5.0240,-1.0678,0.2594,0.2220,0.5328,rough,15.5,0,3.595
220,7.04,6.5190,5.1093,-1.0975,0.3055,-0.0826,0.4996,rough,15.5,0,3.521
230,7.36,6.7135,5.1762,-1.0640,0.3631,-0.5299,0.4331,rough,15.5,0,3.490
240,7.68,6.7734,5.1767,-1.0387,0.5624,-0.7754,0.3019,rough,15.5,0,3.465
250,8.00,6.8473,5.1888,-0.9999,0.6602,-0.6985,-0.1274,rough,15.5,0,3.446
260,8.32,7.0278,5.0994,-0.9444,0.6359,-0.4690,-0.4064,rough,15.5,0,3.294
270,8.64,7.2278,4.9417,-0.9056,0.7638,-0.2652,-0.5417,rough,15.5,0,3.076
280,8.96,7.4338,4.6946,-0.9180,0.8820,-0.2270,-0.7027,rough,15.5,0,2.778
290,9.28,7.4114,4.6977,-0.9424,0.8382,-0.2526,-0.7009,rough,15.5,0,2.787
300,9.60,7.4028,4.6978,-0.9484,0.8331,-0.2754,-0.6790,rough,15.5,0,2.790
310,9.92,7.4034,4.6976,-0.9478,0.8339,-0.2734,-0.6817,rough,15.5,0,2.790
320,10.24,7.4037,4.6977,-0.9476,0.8343,-0.2725,-0.6827,rough,15.5,0,2.790
330,10.56,7.4038,4.6977,-0.9474,0.8347,-0.2717,-0.6836,rough,15.5,0,2.790
340,10.88,7.4040,4.6977,-0.9472,0.8350,-0.2710,-0.6845,rough,15.5,0,2.790
350,11.20,7.4042,4.6978,-0.9470,0.8353,-0.2703,-0.6853,rough,15.5,0,2.790
360,11.52,7.4044,4.6978,-0.9468,0.8356,-0.2696,-0.6861,rough,15.5,0,2.790
370,11.84,7.4045,4.6978,-0.9466,0.8360,-0.2688,-0.6870,rough,15.5,0,2.790
380,12.16,7.4047,4.6979,-0.9464,0.8363,-0.2681,-0.6878,rough,15.5,0,2.789
390,12.48,7.4049,4.6979,-0.9463,0.8366,-0.2673,-0.6887,rough,15.5,0,2.789
400,12.80,7.4051,4.6979,-0.9461,0.8369,-0.2666,-0.6896,rough,15.5,0,2.789
410,13.12,7.4053,4.6979,-0.9459,0.8373,-0.2658,-0.6905,rough,15.5,0,2.789
420,13.44,7.4055,4.6980,-0.9457,0.8376,-0.2650,-0.6914,rough,15.5,0,2.789
430,13.76,7.4057,4.6980,-0.9455,0.8379,-0.2642,-0.6923,rough,15.5,0,2.789
440,14.08,7.4059,4.6980,-0.9453,0.8383,-0.2634,-0.6932,rough,15.5,0,2.789
450,14.40,7.4061,4.6981,-0.9451,0.8386,-0.2626,-0.6941,rough,15.5,0,2.789
460,14.72,7.4063,4.6981,-0.9449,0.8389,-0.2619,-0.6950,rough,15.5,0,2.789
470,15.04,7.4065,4.6981,-0.9447,0.8393,-0.2610,-0.6959,rough,15.5,0,2.789
480,15.36,7.4067,4.6981,-0.9445,0.8396,-0.2602,-0.6969,rough,15.5,0,2.789
490,15.68,7.4069,4.6982,-0.9443,0.8400,-0.2594,-0.6978,rough,15.5,0,2.789
500,16.00,7.4071,4.6982,-0.9441,0.8403,-0.2586,-0.6988,rough,15.5,0,2.789
510,16.32,7.4073,4.6982,-0.9438,0.8407,-0.2578,-0.6997,rough,15.5,0,2.789
520,16.64,7.4075,4.6982,-0.9436,0.8410,-0.2569,-0.7007,rough,15.5,0,2.789
530,16.96,7.4077,4.6983,-0.9434,0.8413,-0.2561,-0.7016,rough,15.5,0,2.789
540,17.28,7.4079,4.6983,-0.9432,0.8417,-0.2552,-0.7026,rough,15.5,0,2.789
550,17.60,7.4081,4.6983,-0.9430,0.8420,-0.2543,-0.7036,rough,15.5,0,2.789
560,17.92,7.4084,4.6983,-0.9427,0.8425,-0.2532,-0.7050,rough,15.5,0,2.789
570,18.24,7.3620,4.7071,-0.9726,0.8040,-0.3999,-0.6606,rough,15.5,0,2.811
580,18.56,7.2362,4.6740,-1.0721,0.7441,-0.2380,-0.7452,rough,15.5,0,2.822
590,18.88,7.2454,4.5309,-1.1187,0.5341,-0.0030,-0.7831,rough,15.5,0,2.685
600,19.20,7.1838,4.4972,-1.1892,0.5300,0.0172,-0.8025,rough,15.5,0,2.677
610,19.52,7.0899,4.3867,-1.2500,0.3660,0.0220,-0.4759,rough,15.5,0,2.616
620,19.84,7.1495,4.3237,-1.2489,0.3969,0.0500,-0.1997,rough,15.5,0,2.533
630,20.16,7.1580,4.3173,-1.2358,0.2658,-0.1151,-0.2340,rough,15.5,0,2.524
640,20.48,7.1494,4.3443,-1.2331,0.0864,-0.3591,-0.2127,rough,15.5,0,2.552
650,20.80,7.1465,4.3414,-1.2379,0.0488,-0.3572,-0.1167,rough,15.5,0,2.550
660,21.12,7.1418,4.2964,-1.2208,0.1519,-0.3254,-0.0468,rough,15.5,0,2.512
670,21.44,7.1590,4.2781,-1.2482,0.2074,-0.0221,-0.0320,rough,15.5,0,2.488
680,21.76,7.1581,4.2787,-1.2448,0.1941,-0.0581,-0.0219,rough,15.5,1,3.019
690,22.08,7.1121,4.2505,-1.2674,0.2488,0.1378,-0.2274,rough,15.5,1,2.993
700,22.40,7.0245,4.2990,-1.3023,0.0171,-0.0097,-0.8116,rough,15.5,1,2.893
710,22.72,6.9473,4.3266,-1.2947,-0.0656,0.0615,-1.2542,rough,15.5,1,2.812
720,23.04,6.8864,4.3608,-1.2427,0.1570,0.0560,-1.4626,rough,15.5,1,2.742
730,23.36,6.9272,4.2588,-1.2619,0.0881,-0.0520,-1.6305,rough,15.5,1,2.830
740,23.68,6.9692,3.9663,-1.2705,-0.1959,0.0697,-1.9354,rough,15.5,1,3.028
750,24.00,6.9440,3.7398,-1.2928,-0.3028,-0.2357,-2.1979,rough,15.5,1,3.147
760,24.32,6.7055,3.4702,-1.2432,-0.1671,-0.1071,-2.2835,rough,15.5,1,3.156
770,24.64,6.4509,3.2006,-1.2167,-0.1356,-0.0851,-2.3273,rough,15.5,1,3.196
780,24.96,6.3071,3.0487,-1.1899,-0.1564,-0.1768,-2.3661,rough,15.5,1,3.237
790,25.28,6.2369,3.0276,-1.1816,-0.0342,-0.1665,-2.7273,rough,15.5,1,3.217
800,25.60,6.1886,3.0512,-1.1583,-0.0601,-0.3559,3.1234,rough,15.5,1,3.171
810,25.92,5.9031,3.1272,-1.1406,0.3445,-0.1453,3.1362,rough,15.5,1,2.963
820,26.24,5.6554,3.1991,-1.1038,0.4798,-0.3879,2.9297,rough,15.5,1,2.790
830,26.56,5.3916,3.2703,-1.0031,0.4561,-0.3145,2.9015,rough,15.5,1,2.626
840,26.88,5.1109,3.3704,-0.9265,0.3426,-0.4154,2.7349,rough,15.5,1,2.450
850,27.20,4.8718,3.5386,-0.8194,0.4525,-0.3740,2.5204,rough,15.5,1,2.237
860,27.52,4.5529,3.7054,-0.7649,0.1553,-0.1831,2.5065,rough,15.5,1,2.043
870,27.84,4.2512,4.0110,-0.7605,0.1777,0.1244,2.3432,slope,18.0,1,1.758
880,28.16,3.9395,4.3744,-0.8984,0.0643,0.3794,2.2109,slope,18.0,1,1.491
890,28.48,3.7437,4.6830,-1.0023,0.1340,0.2155,2.1160,rough,15.5,1,1.318
900,28.80,3.5926,4.9443,-1.0321,0.1104,0.0502,1.9134,rough,15.5,1,1.228
910,29.12,3.4952,5.2563,-1.0448,0.0001,0.0733,1.8045,rough,15.5,1,1.137
920,29.44,3.4353,5.5019,-1.0450,-0.0657,-0.0059,1.7104,rough,15.5,1,1.113
930,29.76,3.3811,5.8077,-1.0663,-0.3179,0.1483,1.5653,rough,15.5,1,1.141
940,30.08,3.3494,6.1050,-1.0814,-0.4242,-0.0041,1.3577,rough,15.5,1,1.224
950,30.40,3.3900,6.3521,-1.0658,-0.3887,-0.2709,1.1750,rough,15.5,1,1.282
960,30.72,3.5106,6.5741,-0.9942,-0.2653,-0.3611,0.9230,rough,15.5,1,1.305
970,31.04,3.7185,6.7912,-0.8945,-0.1765,-0.2997,0.6629,rough,15.5,1,1.316
980,31.36,4.0308,6.9567,-0.8521,0.0481,-0.0315,0.3144,rough,15.5,1,1.304
990,31.68,4.2592,7.0298,-0.8191,0.0430,-0.2086,0.0592,rough,15.5,1,1.308
1000,32.00,4.4588,7.0140,-0.7741,0.1441,-0.4057,-0.0610,rough,15.5,1,1.267
1010,32.32,4.7688,6.8957,-0.7542,0.4070,-0.0154,-0.2447,rough,15.5,1,1.174
1020,32.64,5.0067,6.7353,-0.7850,0.3860,0.1269,-0.5951,rough,15.5,1,1.100
1030,32.96,5.2090,6.5029,-0.8358,0.2976,0.0898,-0.9368,rough,15.5,1,1.022
1040,33.28,5.3568,6.1892,-0.8581,0.2573,-0.0337,-1.2224,rough,15.5,2,13.155
1050,33.60,5.4906,5.7564,-0.8726,0.1751,0.0286,-1.2949,rough,15.5,2,13.158
1060,33.92,5.6134,5.3243,-0.8968,0.1686,0.0601,-1.1871,rough,15.5,2,13.166
1070,34.24,5.8773,4.8775,-1.0035,-0.0848,0.4062,-1.0350,rough,15.5,2,13.325
1080,34.56,6.0844,4.5344,-1.1379,0.0843,0.3123,-0.8968,rough,15.5,2,13.463
1090,34.88,6.3348,4.2452,-1.1793,-0.0373,0.0715,-0.8983,rough,15.5,2,13.663
1100,35.20,6.6504,3.9090,-1.2212,-0.2353,-0.0138,-0.9231,rough,15.5,2,13.929
1110,35.52,6.9992,3.5267,-1.2894,-0.3724,0.4285,-1.0347,rough,15.5,2,14.234
1120,35.84,7.2472,3.2364,-1.4637,-0.3251,0.3157,-1.1510,rough,15.5,2,14.456
1130,36.16,7.4467,2.9184,-1.5234,-0.2420,0.0607,-0.9315,rough,15.5,2,14.635
1140,36.48,7.6759,2.6534,-1.5066,-0.2336,-0.1939,-0.8239,rough,15.5,2,14.853
1150,36.80,7.9509,2.3482,-1.4130,-0.1495,-0.1961,-0.8193,rough,15.5,2,15.122
1160,37.12,8.2162,2.0777,-1.3549,-0.1785,-0.0946,-0.8797,rough,15.5,2,15.386
1170,37.44,8.4270,1.8382,-1.3322,-0.2017,-0.1160,-0.9504,rough,15.5,2,15.600
1180,37.76,8.5768,1.6325,-1.2769,-0.1815,-0.3225,-1.0051,rough,15.5,2,15.756
1190,38.08,8.6820,1.4341,-1.2037,-0.0956,-0.4425,-1.0734,rough,15.5,2,15.869
1200,38.40,8.7718,1.2763,-1.1133,-0.0853,-0.5418,-1.1104,rough,15.5,2,15.967
1210,38.72,8.8624,1.1196,-1.0150,-0.0955,-0.5571,-1.1849,rough,15.5,2,16.067
1220,39.04,8.9255,1.0013,-0.9228,-0.1408,-0.6313,-1.1364,rough,15.5,2,16.138
1230,39.36,9.0006,0.9240,-0.8586,-0.2608,-0.6525,-0.9307,rough,15.5,2,16.218
1240,39.68,9.0848,0.8726,-0.8095,-0.3168,-0.6126,-0.7587,rough,15.5,2,16.306
1250,40.00,9.1715,0.8374,-0.7705,-0.2736,-0.5810,-0.8320,rough,15.5,2,16.396
1260,40.32,9.2475,0.7694,-0.7071,-0.1622,-0.5786,-0.9977,rough,15.5,2,16.477
1270,40.64,9.3240,0.7011,-0.6793,-0.2671,-0.5613,-1.0774,rough,15.5,2,16.559
1280,40.96,9.3856,0.6410,-0.6473,-0.2727,-0.5316,-1.2188,rough,15.5,2,16.626
1290,41.28,9.4269,0.5739,-0.6157,-0.2944,-0.5352,-1.3008,rough,15.5,2,16.673
1300,41.60,9.4580,0.5101,-0.5876,-0.3176,-0.5342,-1.3646,rough,15.5,2,16.710
1310,41.92,9.4818,0.4579,-0.5633,-0.3374,-0.5414,-1.3996,rough,15.5,2,16.739
1320,42.24,9.4998,0.4107,-0.5419,-0.3586,-0.5272,-1.4148,rough,15.5,2,16.762
1330,42.56,9.5121,0.3576,-0.5103,-0.3345,-0.5227,-1.4667,rough,15.5,2,16.780
1340,42.88,9.5200,0.3040,-0.4815,-0.3126,-0.5007,-1.5099,rough,15.5,2,16.794
1350,43.20,9.5245,0.2524,-0.4536,-0.2916,-0.4782,-1.5433,rough,15.5,2,16.804
1360,43.52,9.5307,0.2107,-0.4320,-0.3033,-0.4784,-1.5458,rough,15.5,2,16.815
1370,43.84,9.5387,0.1792,-0.4086,-0.3284,-0.5009,-1.5139,rough,15.5,2,16.827
1380,44.16,9.5441,0.1573,-0.4040,-0.2786,-0.5345,-1.5511,rough,15.5,2,16.835
1390,44.48,9.5585,0.1299,-0.3808,-0.3538,-0.5621,-1.5094,rough,15.5,2,16.852
1400,44.80,9.5647,0.1019,-0.3652,-0.3784,-0.5805,-1.4677,rough,15.5,2,16.862
1410,45.12,9.5721,0.0769,-0.3526,-0.4021,-0.5920,-1.4144,rough,15.5,2,16.872
1420,45.44,9.5825,0.0576,-0.3441,-0.4327,-0.5911,-1.3396,rough,15.5,2,16.885
1430,45.76,9.6004,0.0459,-0.3416,-0.4710,-0.5775,-1.2443,rough,15.5,2,16.904
1440,46.08,9.6273,0.0435,-0.3479,-0.5056,-0.5479,-1.1321,rough,15.5,2,16.931
1450,46.40,9.6672,0.0512,-0.3644,-0.5316,-0.5115,-1.0190,rough,15.5,2,16.970
1460,46.72,9.7244,0.0585,-0.3938,-0.5196,-0.4353,-0.9752,rough,15.5,2,17.026
1470,47.04,9.7778,0.0717,-0.4246,-0.5066,-0.3683,-0.9786,rough,15.5,2,17.077
1480,47.36,9.7975,0.0746,-0.4319,-0.4547,-0.4264,-1.1065,rough,15.5,2,17.096
1490,47.68,9.8151,0.0735,-0.4362,-0.4094,-0.4626,-1.2162,rough,15.5,2,17.114
1500,48.00,9.8361,0.0753,-0.4470,-0.3991,-0.4892,-1.2754,rough,15.5,2,17.134
1510,48.32,9.8529,0.0706,-0.4545,-0.3751,-0.4958,-1.3459,rough,15.5,2,17.152
1520,48.64,9.8718,0.0757,-0.4621,-0.3826,-0.5304,-1.3574,rough,15.5,2,17.170
1530,48.96,9.8902,0.0768,-0.4701,-0.3904,-0.5472,-1.3660,rough,15.5,2,17.188
1540,49.28,9.9075,0.0774,-0.4774,-0.3974,-0.5623,-1.3739,rough,15.5,2,17.205
1550,49.60,9.9234,0.0774,-0.4839,-0.4034,-0.5765,-1.3819,rough,15.5,2,17.221
1560,49.92,9.9380,0.0770,-0.4896,-0.4085,-0.5899,-1.3897,rough,15.5,2,17.235
1570,50.24,9.9515,0.0763,-0.4945,-0.4127,-0.6026,-1.3973,rough,15.5,2,17.249
1580,50.56,9.9671,0.0765,-0.5003,-0.4287,-0.6085,-1.3924,rough,15.5,2,17.264
1590,50.88,9.9900,0.0803,-0.5106,-0.4673,-0.6031,-1.3611,rough,15.5,3,16.313
1600,51.20,10.0203,0.0850,-0.5237,-0.5203,-0.5949,-1.3149,rough,15.5,3,16.341
1610,51.52,10.0706,0.0923,-0.5452,-0.6063,-0.5814,-1.2416,rough,15.5,3,16.389
1620,51.84,10.1573,0.1111,-0.5963,-0.7271,-0.5229,-1.0927,rough,15.5,3,16.474
1630,52.16,10.2383,0.1480,-0.6689,-0.7847,-0.4129,-0.9018,rough,15.5,3,16.562
1640,52.48,10.2989,0.1797,-0.7177,-0.8016,-0.5440,-0.9181,rough,15.5,3,16.631
1650,52.80,10.3524,0.2194,-0.7726,-0.8116,-0.6050,-0.9092,rough,15.5,3,16.697
1660,53.12,10.4007,0.2715,-0.8345,-0.8410,-0.5580,-0.7832,rough,15.5,3,16.764
1670,53.44,10.4479,0.2670,-0.8436,-0.7296,-0.5289,-0.8319,rough,15.5,3,16.803
1680,53.76,10.4981,0.2631,-0.8624,-0.5887,-0.4422,-0.8439,rough,15.5,3,16.845
1690,54.08,10.5448,0.2661,-0.8812,-0.4957,-0.4385,-0.8970,rough,15.5,3,16.888
1700,54.40,10.5583,0.2713,-0.8873,-0.4113,-0.5304,-1.0116,rough,15.5,3,16.902
1710,54.72,10.5706,0.2737,-0.8932,-0.3408,-0.5925,-1.1141,rough,15.5,3,16.914
1720,55.04,10.5805,0.2754,-0.8985,-0.2804,-0.6392,-1.2012,rough,15.5,3,16.924
1730,55.36,10.5887,0.2767,-0.9030,-0.2303,-0.6728,-1.2743,rough,15.5,3,16.931
1740,55.68,10.5951,0.2780,-0.9069,-0.1884,-0.6981,-1.3343,rough,15.5,3,16.938
1750,56.00,10.6000,0.2794,-0.9102,-0.1529,-0.7170,-1.3834,rough,15.5,3,16.943
1760,56.32,10.6059,0.2792,-0.9121,-0.1337,-0.7183,-1.4247,rough,15.5,3,16.948
1770,56.64,10.6120,0.2778,-0.9127,-0.1290,-0.7065,-1.4555,rough,15.5,3,16.952
1780,56.96,10.6155,0.2778,-0.9137,-0.1224,-0.7011,-1.4769,rough,15.5,3,16.955
1790,57.28,10.6179,0.2786,-0.9148,-0.1169,-0.6968,-1.4923,rough,15.5,3,16.958
1800,57.60,10.6196,0.2797,-0.9160,-0.1128,-0.6927,-1.5037,rough,15.5,3,16.960
1810,57.92,10.6208,0.2811,-0.9170,-0.1098,-0.6888,-1.5120,rough,15.5,3,16.962
1820,58.24,10.6216,0.2825,-0.9181,-0.1076,-0.6851,-1.5181,rough,15.5,3,16.963
1830,58.56,10.6222,0.2840,-0.9191,-0.1059,-0.6815,-1.5226,rough,15.5,3,16.964
1840,58.88,10.6184,0.2894,-0.9222,-0.0812,-0.7032,-1.5250,rough,15.5,3,16.964
1850,59.20,10.6187,0.2914,-0.9235,-0.0768,-0.7019,-1.5302,rough,15.5,3,16.965
1860,59.52,10.6190,0.2931,-0.9247,-0.0740,-0.6992,-1.5345,rough,15.5,3,16.966
1870,59.84,10.6192,0.2951,-0.9258,-0.0715,-0.6967,-1.5377,rough,15.5,3,16.967
1880,60.16,10.6192,0.2970,-0.9270,-0.0691,-0.6942,-1.5403,rough,15.5,3,16.968
1890,60.48,10.6191,0.2991,-0.9282,-0.0668,-0.6919,-1.5424,rough,15.5,3,16.969
1900,60.80,10.6190,0.3012,-0.9294,-0.0646,-0.6895,-1.5442,rough,15.5,3,16.970
1910,61.12,10.6188,0.3033,-0.9306,-0.0624,-0.6872,-1.5457,rough,15.5,3,16.971
1920,61.44,10.6186,0.3054,-0.9318,-0.0603,-0.6849,-1.5471,rough,15.5,3,16.971
1930,61.76,10.6184,0.3076,-0.9331,-0.0583,-0.6827,-1.5483,rough,15.5,3,16.972
1940,62.08,10.6221,0.3059,-0.9325,-0.0787,-0.6565,-1.5500,rough,15.5,3,16.975
1950,62.40,10.6226,0.3070,-0.9331,-0.0840,-0.6482,-1.5487,rough,15.5,3,16.976
1960,62.72,10.6221,0.3091,-0.9341,-0.0833,-0.6460,-1.5475,rough,15.5,0,2.946
1970,63.04,10.6215,0.3112,-0.9353,-0.0817,-0.6443,-1.5467,rough,15.5,0,2.945
1980,63.36,10.6210,0.3133,-0.9364,-0.0800,-0.6426,-1.5463,rough,15.5,0,2.943
1990,63.68,10.6206,0.3154,-0.9376,-0.0783,-0.6408,-1.5463,rough,15.5,0,2.942
2000,64.00,10.6202,0.3175,-0.9387,-0.0764,-0.6390,-1.5466,rough,15.5,0,2.940
2010,64.32,10.6198,0.3195,-0.9399,-0.0744,-0.6373,-1.5471,rough,15.5,0,2.939
2020,64.64,10.6195,0.3216,-0.9410,-0.0724,-0.6356,-1.5476,rough,15.5,0,2.937
2030,64.96,10.6191,0.3237,-0.9422,-0.0704,-0.6339,-1.5482,rough,15.5,0,2.936
2040,65.28,10.6188,0.3258,-0.9433,-0.0683,-0.6321,-1.5489,rough,15.5,0,2.934
2050,65.60,10.6185,0.3280,-0.9445,-0.0663,-0.6303,-1.5496,rough,15.5,0,2.933
2060,65.92,10.6181,0.3301,-0.9457,-0.0642,-0.6285,-1.5503,rough,15.5,0,2.931
2070,66.24,10.6178,0.3322,-0.9469,-0.0621,-0.6266,-1.5511,rough,15.5,0,2.930
2080,66.56,10.6175,0.3344,-0.9481,-0.0601,-0.6248,-1.5518,rough,15.5,0,2.928
2090,66.88,10.6172,0.3365,-0.9493,-0.0580,-0.6229,-1.5526,rough,15.5,0,2.926
2100,67.20,10.6168,0.3387,-0.9505,-0.0559,-0.6211,-1.5533,rough,15.5,0,2.925
2110,67.52,10.6165,0.3409,-0.9518,-0.0538,-0.6192,-1.5541,rough,15.5,0,2.923
2120,67.84,10.6162,0.3430,-0.9530,-0.0517,-0.6173,-1.5548,rough,15.5,0,2.922
2130,68.16,10.6159,0.3452,-0.9542,-0.0495,-0.6154,-1.5556,rough,15.5,0,2.920
2140,68.48,10.6156,0.3474,-0.9555,-0.0474,-0.6134,-1.5563,rough,15.5,0,2.919
2150,68.80,10.6152,0.3497,-0.9567,-0.0453,-0.6115,-1.5570,rough,15.5,0,2.917
2160,69.12,10.6149,0.3519,-0.9580,-0.0432,-0.6096,-1.5578,rough,15.5,0,2.916
2170,69.44,10.6146,0.3542,-0.9593,-0.0410,-0.6076,-1.5585,rough,15.5,0,2.914
2180,69.76,10.6143,0.3564,-0.9606,-0.0389,-0.6056,-1.5592,rough,15.5,0,2.913
2190,70.08,10.6139,0.3587,-0.9618,-0.0368,-0.6037,-1.5599,rough,15.5,0,2.911
2200,70.40,10.6136,0.3610,-0.9631,-0.0346,-0.6017,-1.5606,rough,15.5,0,2.909
2210,70.72,10.6133,0.3633,-0.9644,-0.0325,-0.5996,-1.5613,rough,15.5,0,2.908
2220,71.04,10.6130,0.3656,-0.9658,-0.0303,-0.5976,-1.5620,rough,15.5,0,2.906
2230,71.36,10.6126,0.3679,-0.9671,-0.0281,-0.5956,-1.5627,rough,15.5,0,2.905
2240,71.68,10.6123,0.3702,-0.9684,-0.0260,-0.5936,-1.5634,rough,15.5,0,2.903
2250,72.00,10.6120,0.3725,-0.9697,-0.0238,-0.5915,-1.5641,rough,15.5,0,2.901
2260,72.32,10.6116,0.3749,-0.9711,-0.0216,-0.5894,-1.5647,rough,15.5,0,2.900
2270,72.64,10.6113,0.3773,-0.9724,-0.0194,-0.5873,-1.5654,rough,15.5,0,2.898
2280,72.96,10.6110,0.3796,-0.9738,-0.0172,-0.5853,-1.5660,rough,15.5,0,2.897
2290,73.28,10.6106,0.3820,-0.9752,-0.0151,-0.5831,-1.5667,rough,15.5,0,2.895
2300,73.60,10.6103,0.3844,-0.9765,-0.0129,-0.5810,-1.5673,rough,15.5,0,2.893
2310,73.92,10.6100,0.3868,-0.9779,-0.0107,-0.5789,-1.5679,rough,15.5,0,2.892
2320,74.24,10.6096,0.3892,-0.9793,-0.0085,-0.5768,-1.5685,rough,15.5,1,2.890
2330,74.56,10.6093,0.3917,-0.9807,-0.0062,-0.5746,-1.5692,rough,15.5,1,8.109
2340,74.88,10.6090,0.3941,-0.9821,-0.0040,-0.5724,-1.5698,rough,15.5,1,8.108
2350,75.20,10.6086,0.3966,-0.9835,-0.0018,-0.5703,-1.5703,rough,15.5,1,8.106
2360,75.52,10.6083,0.3991,-0.9850,0.0004,-0.5681,-1.5709,rough,15.5,1,8.104
2370,75.84,10.6080,0.4015,-0.9864,0.0026,-0.5659,-1.5715,rough,15.5,1,8.102
2380,76.16,10.6076,0.4040,-0.9878,0.0049,-0.5637,-1.5721,rough,15.5,1,8.100
2390,76.48,10.6073,0.4065,-0.9893,0.0071,-0.5614,-1.5726,rough,15.5,1,8.098
2400,76.80,10.6069,0.4090,-0.9908,0.0093,-0.5592,-1.5732,rough,15.5,1,8.096
2410,77.12,10.6066,0.4116,-0.9922,0.0116,-0.5569,-1.5737,rough,15.5,1,8.094
2420,77.44,10.6063,0.4141,-0.9937,0.0138,-0.5547,-1.5742,rough,15.5,1,8.092
2430,77.76,10.6059,0.4167,-0.9952,0.0161,-0.5524,-1.5748,rough,15.5,1,8.090
2440,78.08,10.6056,0.4192,-0.9967,0.0183,-0.5501,-1.5753,rough,15.5,1,8.088
2450,78.40,10.6052,0.4218,-0.9982,0.0206,-0.5478,-1.5758,rough,15.5,1,8.086
2460,78.72,10.6049,0.4244,-0.9997,0.0228,-0.5455,-1.5763,rough,15.5,1,8.085
2470,79.04,10.6046,0.4270,-1.0012,0.0251,-0.5432,-1.5767,rough,15.5,1,8.083
2480,79.36,10.6042,0.4296,-1.0027,0.0274,-0.5408,-1.5772,rough,15.5,1,8.081
2490,79.68,10.6039,0.4322,-1.0043,0.0296,-0.5385,-1.5777,rough,15.5,1,8.079
2500,80.00,10.6035,0.4348,-1.0058,0.0319,-0.5361,-1.5781,rough,15.5,1,8.077
2510,80.32,10.6032,0.4375,-1.0073,0.0342,-0.5337,-1.5786,rough,15.5,1,8.075
2520,80.64,10.6028,0.4401,-1.0089,0.0365,-0.5314,-1.5790,rough,15.5,1,8.073
2530,80.96,10.6025,0.4428,-1.0105,0.0388,-0.5290,-1.5794,rough,15.5,1,8.071
2540,81.28,10.6022,0.4455,-1.0121,0.0411,-0.5266,-1.5798,rough,15.5,1,8.069
2550,81.60,10.6018,0.4482,-1.0137,0.0434,-0.5242,-1.5801,rough,15.5,1,8.067
2560,81.92,10.6015,0.4509,-1.0153,0.0457,-0.5217,-1.5805,rough,15.5,1,8.064
2570,82.24,10.6011,0.4536,-1.0169,0.0480,-0.5193,-1.5809,rough,15.5,1,8.062
2580,82.56,10.6008,0.4563,-1.0185,0.0503,-0.5168,-1.5813,rough,15.5,1,8.060
2590,82.88,10.6004,0.4591,-1.0201,0.0526,-0.5143,-1.5816,rough,15.5,1,8.058
2600,83.20,10.6001,0.4618,-1.0217,0.0549,-0.5118,-1.5819,rough,15.5,1,8.056
2610,83.52,10.5998,0.4646,-1.0234,0.0572,-0.5093,-1.5823,rough,15.5,1,8.054
2620,83.84,10.5994,0.4674,-1.0250,0.0596,-0.5068,-1.5826,rough,15.5,1,8.052
2630,84.16,10.5991,0.4701,-1.0267,0.0619,-0.5043,-1.5829,rough,15.5,1,8.050
2640,84.48,10.5987,0.4729,-1.0283,0.0642,-0.5017,-1.5832,rough,15.5,1,8.048
2650,84.80,10.5984,0.4757,-1.0300,0.0665,-0.4992,-1.5835,rough,15.5,1,8.046
2660,85.12,10.5980,0.4787,-1.0316,0.0689,-0.4973,-1.5840,rough,15.5,1,8.044
2670,85.44,10.5971,0.4806,-1.0357,0.0735,-0.4776,-1.5868,rough,15.5,1,8.042
2680,85.76,10.5965,0.4869,-1.0367,0.0776,-0.4901,-1.5857,rough,15.5,1,8.037
2690,86.08,10.5963,0.4897,-1.0384,0.0787,-0.4866,-1.5855,rough,15.5,2,17.845
2700,86.40,10.5959,0.4927,-1.0401,0.0810,-0.4843,-1.5856,rough,15.5,2,17.845
2710,86.72,10.5954,0.4968,-1.0415,0.0841,-0.4866,-1.5863,rough,15.5,2,17.844
2720,87.04,10.5949,0.5010,-1.0430,0.0871,-0.4895,-1.5869,rough,15.5,2,17.843
2730,87.36,10.5940,0.5083,-1.0437,0.0919,-0.5062,-1.5900,rough,15.5,2,17.841
2740,87.68,10.5934,0.5125,-1.0452,0.0950,-0.5088,-1.5909,rough,15.5,2,17.840
2750,88.00,10.5929,0.5163,-1.0469,0.0978,-0.5095,-1.5914,rough,15.5,2,17.840
2760,88.32,10.5925,0.5201,-1.0485,0.1007,-0.5099,-1.5919,rough,15.5,2,17.839
2770,88.64,10.5920,0.5238,-1.0502,0.1036,-0.5102,-1.5925,rough,15.5,2,17.838
2780,88.96,10.5915,0.5276,-1.0518,0.1065,-0.5106,-1.5931,rough,15.5,2,17.837
2790,89.28,10.5910,0.5314,-1.0535,0.1094,-0.5110,-1.5937,rough,15.5,2,17.836
2800,89.60,10.5906,0.5352,-1.0552,0.1124,-0.5113,-1.5943,rough,15.5,2,17.835
2810,89.92,10.5901,0.5391,-1.0569,0.1153,-0.5117,-1.5949,rough,15.5,2,17.835
