step,time_s,x,y,z,roll,pitch,yaw,terrain,speed,target_idx,dist_to_target
10,0.32,-1.4138,0.8630,0.2148,0.1256,-0.1290,-0.0819,rough,15.5,0,6.054
20,0.64,-1.3659,0.8630,0.2055,0.1197,-0.1774,-0.0240,rough,15.5,0,6.094
30,0.96,-1.1807,0.8553,0.2365,0.0942,-0.1151,0.1467,rough,15.5,0,6.254
40,1.28,-0.9655,0.9045,0.2627,0.0773,-0.1264,0.4398,rough,15.5,0,6.412
50,1.60,-0.7313,1.0295,0.2882,0.0287,-0.1217,0.7855,rough,15.5,0,6.553
60,1.92,-0.5217,1.2074,0.2983,0.1141,-0.0652,1.0696,rough,15.5,0,6.656
70,2.24,-0.4196,1.4504,0.3273,0.0761,-0.1595,1.3205,rough,15.5,0,6.643
80,2.56,-0.4087,1.7975,0.3658,-0.0338,-0.1351,1.6151,rough,15.5,0,6.518
90,2.88,-0.4828,2.1673,0.3906,-0.1015,-0.0492,1.7731,rough,15.5,0,6.321
100,3.20,-0.5847,2.5703,0.4085,-0.0932,-0.0212,1.9435,rough,15.5,0,6.106
110,3.52,-0.7134,2.9349,0.4224,0.0211,-0.1668,2.1048,rough,15.5,0,5.893
120,3.84,-0.9106,3.3017,0.4757,0.0718,-0.1932,2.2366,rough,15.5,0,5.631
130,4.16,-1.1931,3.6734,0.4926,0.2015,-0.0399,2.3908,rough,15.5,0,5.304
140,4.48,-1.4873,3.9885,0.4975,0.3497,-0.1123,2.4988,rough,15.5,0,4.988
150,4.80,-1.8324,4.2379,0.5542,0.2884,-0.2127,2.5573,rough,15.5,0,4.639
160,5.12,-2.1043,4.4378,0.6874,0.3608,-0.6042,2.5219,rough,15.5,0,4.374
170,5.44,-2.3140,4.6479,0.7746,0.2517,-0.3182,2.2959,rough,15.5,0,4.182
180,5.76,-2.5337,4.9197,0.8607,0.2403,-0.3004,2.4002,rough,15.5,0,4.005
190,6.08,-2.7580,5.1689,0.9263,0.3131,-0.3719,2.4627,rough,15.5,0,3.840
200,6.40,-3.0669,5.4750,0.8459,0.3647,0.3828,2.5003,rough,15.5,0,3.639
210,6.72,-3.2643,5.6513,0.8513,0.1794,-0.1485,2.4933,rough,15.5,0,3.524
220,7.04,-3.3653,5.6712,0.8853,0.1845,-0.1063,2.0610,rough,15.5,0,3.441
230,7.36,-3.3533,5.7542,0.8601,0.2765,0.0337,1.8147,rough,15.5,0,3.488
240,7.68,-3.3782,5.7525,0.8653,0.2455,0.0562,1.6680,rough,15.5,0,3.465
250,8.00,-3.3845,5.7509,0.8678,0.2436,0.0632,1.6346,rough,15.5,0,3.459
260,8.32,-3.3887,5.7499,0.8692,0.2410,0.0674,1.6122,rough,15.5,0,3.454
270,8.64,-3.3919,5.7485,0.8710,0.2410,0.0646,1.6008,rough,15.5,0,3.451
280,8.96,-3.3946,5.7481,0.8722,0.2398,0.0634,1.5931,rough,15.5,0,3.448
290,9.28,-3.3968,5.7479,0.8731,0.2388,0.0626,1.5874,rough,15.5,0,3.446
300,9.60,-3.3984,5.7477,0.8738,0.2380,0.0619,1.5831,rough,15.5,0,3.445
310,9.92,-3.3995,5.7470,0.8724,0.2371,0.0742,1.5793,rough,15.5,0,3.444
320,10.24,-3.4083,5.7494,0.8750,0.2374,0.0620,1.6170,rough,15.5,0,3.437
330,10.56,-3.4159,5.7497,0.8770,0.2368,0.0606,1.6144,rough,15.5,0,3.430
340,10.88,-3.4189,5.7495,0.8778,0.2358,0.0631,1.5994,rough,15.5,0,3.427
350,11.20,-3.4209,5.7493,0.8784,0.2350,0.0649,1.5895,rough,15.5,0,3.426
360,11.52,-3.4222,5.7492,0.8787,0.2345,0.0661,1.5832,rough,15.5,0,3.424
370,11.84,-3.4233,5.7491,0.8790,0.2342,0.0667,1.5800,rough,15.5,0,3.423
380,12.16,-3.4243,5.7491,0.8792,0.2340,0.0671,1.5783,rough,15.5,0,3.422
390,12.48,-3.4249,5.7491,0.8794,0.2338,0.0674,1.5765,rough,15.5,0,3.422
400,12.80,-3.4255,5.7491,0.8795,0.2337,0.0677,1.5754,rough,15.5,0,3.421
410,13.12,-3.4259,5.7490,0.8796,0.2336,0.0679,1.5744,rough,15.5,0,3.421
420,13.44,-3.4262,5.7490,0.8797,0.2335,0.0680,1.5736,rough,15.5,0,3.421
430,13.76,-3.4264,5.7490,0.8798,0.2335,0.0681,1.5732,rough,15.5,0,3.420
440,14.08,-3.4267,5.7490,0.8798,0.2334,0.0681,1.5730,rough,15.5,0,3.420
450,14.40,-3.4269,5.7490,0.8799,0.2334,0.0682,1.5728,rough,15.5,0,3.420
460,14.72,-3.4271,5.7490,0.8799,0.2334,0.0682,1.5727,rough,15.5,0,3.420
470,15.04,-3.4273,5.7490,0.8800,0.2334,0.0682,1.5726,rough,15.5,0,3.420
480,15.36,-3.4275,5.7490,0.8800,0.2334,0.0682,1.5725,rough,15.5,0,3.420
490,15.68,-3.4277,5.7490,0.8801,0.2334,0.0682,1.5725,rough,15.5,0,3.419
500,16.00,-3.4278,5.7490,0.8801,0.2334,0.0682,1.5724,rough,15.5,0,3.419
510,16.32,-3.4280,5.7490,0.8801,0.2334,0.0682,1.5724,rough,15.5,0,3.419
520,16.64,-3.4282,5.7490,0.8802,0.2333,0.0682,1.5724,rough,15.5,0,3.419
530,16.96,-3.4283,5.7490,0.8802,0.2333,0.0682,1.5724,rough,15.5,0,3.419
540,17.28,-3.4285,5.7490,0.8803,0.2333,0.0682,1.5723,rough,15.5,0,3.419
550,17.60,-3.4287,5.7490,0.8803,0.2333,0.0682,1.5723,rough,15.5,0,3.418
560,17.92,-3.4288,5.7490,0.8803,0.2333,0.0682,1.5723,rough,15.5,0,3.418
570,18.24,-3.4290,5.7490,0.8804,0.2333,0.0682,1.5723,rough,15.5,0,3.418
580,18.56,-3.4291,5.7490,0.8804,0.2333,0.0682,1.5723,rough,15.5,0,3.418
590,18.88,-3.4293,5.7490,0.8804,0.2333,0.0682,1.5723,rough,15.5,0,3.418
600,19.20,-3.4294,5.7490,0.8805,0.2333,0.0682,1.5723,rough,15.5,0,3.418
610,19.52,-3.4296,5.7490,0.8805,0.2333,0.0682,1.5722,rough,15.5,0,3.418
620,19.84,-3.4297,5.7490,0.8805,0.2333,0.0682,1.5722,rough,15.5,0,3.417
630,20.16,-3.4299,5.7490,0.8806,0.2333,0.0682,1.5722,rough,15.5,0,3.417
640,20.48,-3.4300,5.7490,0.8806,0.2333,0.0682,1.5722,rough,15.5,0,3.417
650,20.80,-3.4302,5.7490,0.8806,0.2333,0.0682,1.5722,rough,15.5,0,3.417
660,21.12,-3.4303,5.7490,0.8807,0.2333,0.0682,1.5722,rough,15.5,0,3.417
670,21.44,-3.4305,5.7490,0.8807,0.2333,0.0682,1.5722,rough,15.5,0,3.417
680,21.76,-3.4306,5.7490,0.8807,0.2333,0.0682,1.5721,rough,15.5,0,3.417
690,22.08,-3.4307,5.7489,0.8808,0.2333,0.0682,1.5721,rough,15.5,0,3.417
700,22.40,-3.4309,5.7489,0.8808,0.2333,0.0682,1.5721,rough,15.5,0,3.416
710,22.72,-3.4310,5.7489,0.8808,0.2333,0.0682,1.5721,rough,15.5,0,3.416
720,23.04,-3.4311,5.7489,0.8809,0.2333,0.0682,1.5721,rough,15.5,0,3.416
730,23.36,-3.4313,5.7489,0.8809,0.2333,0.0682,1.5721,rough,15.5,0,3.416
740,23.68,-3.4314,5.7489,0.8809,0.2333,0.0682,1.5721,rough,15.5,0,3.416
750,24.00,-3.4315,5.7489,0.8810,0.2333,0.0682,1.5721,rough,15.5,0,3.416
760,24.32,-3.4316,5.7489,0.8810,0.2332,0.0682,1.5721,rough,15.5,0,3.416
770,24.64,-3.4318,5.7489,0.8810,0.2332,0.0682,1.5720,rough,15.5,0,3.416
780,24.96,-3.4319,5.7489,0.8811,0.2332,0.0682,1.5720,rough,15.5,0,3.416
790,25.28,-3.4320,5.7489,0.8811,0.2332,0.0682,1.5720,rough,15.5,0,3.415
800,25.60,-3.4321,5.7489,0.8811,0.2332,0.0682,1.5720,rough,15.5,0,3.415
810,25.92,-3.4322,5.7489,0.8811,0.2332,0.0682,1.5720,rough,15.5,0,3.415
820,26.24,-3.4324,5.7489,0.8812,0.2332,0.0682,1.5720,rough,15.5,0,3.415
830,26.56,-3.4325,5.7489,0.8812,0.2332,0.0682,1.5720,rough,15.5,0,3.415
840,26.88,-3.4326,5.7489,0.8812,0.2332,0.0682,1.5720,rough,15.5,0,3.415
850,27.20,-3.4327,5.7489,0.8812,0.2332,0.0682,1.5720,rough,15.5,0,3.415
860,27.52,-3.4328,5.7489,0.8813,0.2332,0.0682,1.5719,rough,15.5,0,3.415
870,27.84,-3.4329,5.7489,0.8813,0.2332,0.0682,1.5719,rough,15.5,0,3.415
880,28.16,-3.4330,5.7489,0.8813,0.2332,0.0682,1.5719,rough,15.5,0,3.415
890,28.48,-3.4331,5.7489,0.8814,0.2332,0.0682,1.5719,rough,15.5,0,3.414
900,28.80,-3.4333,5.7489,0.8814,0.2332,0.0682,1.5719,rough,15.5,0,3.414
910,29.12,-3.4334,5.7489,0.8814,0.2332,0.0682,1.5719,rough,15.5,0,3.414
920,29.44,-3.4335,5.7489,0.8814,0.2332,0.0682,1.5719,rough,15.5,0,3.414
930,29.76,-3.4336,5.7489,0.8815,0.2332,0.0682,1.5719,rough,15.5,0,3.414
940,30.08,-3.4337,5.7489,0.8815,0.2332,0.0682,1.5719,rough,15.5,0,3.414
950,30.40,-3.4338,5.7489,0.8815,0.2332,0.0682,1.5719,rough,15.5,0,3.414
960,30.72,-3.4339,5.7489,0.8815,0.2332,0.0682,1.5719,rough,15.5,0,3.414
970,31.04,-3.4340,5.7489,0.8815,0.2332,0.0682,1.5718,rough,15.5,0,3.414
980,31.36,-3.4341,5.7489,0.8816,0.2332,0.0682,1.5718,rough,15.5,0,3.414
990,31.68,-3.4342,5.7489,0.8816,0.2332,0.0682,1.5718,rough,15.5,0,3.414
1000,32.00,-3.4343,5.7489,0.8816,0.2332,0.0682,1.5718,rough,15.5,0,3.413
1010,32.32,-3.4344,5.7489,0.8816,0.2332,0.0682,1.5718,rough,15.5,0,3.413
1020,32.64,-3.4344,5.7489,0.8817,0.2332,0.0682,1.5718,rough,15.5,0,3.413
1030,32.96,-3.4345,5.7489,0.8817,0.2332,0.0682,1.5718,rough,15.5,0,3.413
1040,33.28,-3.4346,5.7489,0.8817,0.2332,0.0682,1.5718,rough,15.5,0,3.413
1050,33.60,-3.4347,5.7489,0.8817,0.2332,0.0682,1.5718,rough,15.5,0,3.413
1060,33.92,-3.4348,5.7489,0.8817,0.2331,0.0682,1.5718,rough,15.5,0,3.413
1070,34.24,-3.4349,5.7489,0.8818,0.2331,0.0682,1.5718,rough,15.5,0,3.413
1080,34.56,-3.4350,5.7489,0.8818,0.2331,0.0682,1.5718,rough,15.5,0,3.413
1090,34.88,-3.4351,5.7489,0.8818,0.2331,0.0682,1.5717,rough,15.5,0,3.413
1100,35.20,-3.4352,5.7489,0.8818,0.2331,0.0682,1.5717,rough,15.5,0,3.413
1110,35.52,-3.4352,5.7489,0.8818,0.2331,0.0682,1.5717,rough,15.5,0,3.413
1120,35.84,-3.4353,5.7489,0.8819,0.2331,0.0682,1.5717,rough,15.5,0,3.412
1130,36.16,-3.4354,5.7489,0.8819,0.2331,0.0682,1.5717,rough,15.5,0,3.412
1140,36.48,-3.4355,5.7489,0.8819,0.2331,0.0682,1.5717,rough,15.5,0,3.412
1150,36.80,-3.4356,5.7489,0.8819,0.2331,0.0682,1.5717,rough,15.5,0,3.412
1160,37.12,-3.4356,5.7489,0.8819,0.2331,0.0682,1.5717,rough,15.5,0,3.412
1170,37.44,-3.4357,5.7489,0.8820,0.2331,0.0682,1.5717,rough,15.5,0,3.412
1180,37.76,-3.4358,5.7489,0.8820,0.2331,0.0682,1.5717,rough,15.5,0,3.412
1190,38.08,-3.4359,5.7489,0.8820,0.2331,0.0682,1.5717,rough,15.5,0,3.412
1200,38.40,-3.4360,5.7489,0.8820,0.2331,0.0682,1.5717,rough,15.5,0,3.412
1210,38.72,-3.4360,5.7489,0.8820,0.2331,0.0682,1.5717,rough,15.5,0,3.412
1220,39.04,-3.4361,5.7489,0.8820,0.2331,0.0682,1.5717,rough,15.5,0,3.412
1230,39.36,-3.4362,5.7489,0.8821,0.2331,0.0682,1.5717,rough,15.5,0,3.412
1240,39.68,-3.4362,5.7489,0.8821,0.2331,0.0682,1.5716,rough,15.5,0,3.412
1250,40.00,-3.4363,5.7489,0.8821,0.2331,0.0682,1.5716,rough,15.5,0,3.412
1260,40.32,-3.4364,5.7489,0.8821,0.2331,0.0682,1.5716,rough,15.5,0,3.412
1270,40.64,-3.4365,5.7489,0.8821,0.2331,0.0682,1.5716,rough,15.5,0,3.411
1280,40.96,-3.4365,5.7489,0.8821,0.2331,0.0682,1.5716,rough,15.5,0,3.411
1290,41.28,-3.4366,5.7489,0.8822,0.2331,0.0682,1.5716,rough,15.5,0,3.411
1300,41.60,-3.4367,5.7489,0.8822,0.2331,0.0682,1.5716,rough,15.5,0,3.411
1310,41.92,-3.4367,5.7489,0.8822,0.2331,0.0682,1.5716,rough,15.5,0,3.411
1320,42.24,-3.4368,5.7489,0.8822,0.2331,0.0682,1.5716,rough,15.5,0,3.411
1330,42.56,-3.4369,5.7489,0.8822,0.2331,0.0682,1.5716,rough,15.5,0,3.411
1340,42.88,-3.4369,5.7489,0.8822,0.2331,0.0682,1.5716,rough,15.5,0,3.411
1350,43.20,-3.4370,5.7489,0.8823,0.2331,0.0682,1.5716,rough,15.5,0,3.411
1360,43.52,-3.4371,5.7489,0.8823,0.2331,0.0682,1.5716,rough,15.5,0,3.411
1370,43.84,-3.4371,5.7489,0.8823,0.2331,0.0682,1.5716,rough,15.5,0,3.411
1380,44.16,-3.4372,5.7489,0.8823,0.2331,0.0682,1.5716,rough,15.5,0,3.411
1390,44.48,-3.4372,5.7489,0.8823,0.2331,0.0682,1.5716,rough,15.5,0,3.411
1400,44.80,-3.4373,5.7489,0.8823,0.2331,0.0682,1.5716,rough,15.5,0,3.411
1410,45.12,-3.4374,5.7489,0.8823,0.2331,0.0682,1.5716,rough,15.5,0,3.411
1420,45.44,-3.4374,5.7489,0.8824,0.2331,0.0682,1.5715,rough,15.5,0,3.411
1430,45.76,-3.4375,5.7489,0.8824,0.2331,0.0682,1.5715,rough,15.5,0,3.411
1440,46.08,-3.4375,5.7489,0.8824,0.2331,0.0682,1.5715,rough,15.5,0,3.411
1450,46.40,-3.4376,5.7489,0.8824,0.2330,0.0682,1.5715,rough,15.5,0,3.410
1460,46.72,-3.4376,5.7489,0.8824,0.2330,0.0682,1.5715,rough,15.5,0,3.410
1470,47.04,-3.4377,5.7489,0.8824,0.2330,0.0682,1.5715,rough,15.5,0,3.410
1480,47.36,-3.4378,5.7489,0.8824,0.2330,0.0682,1.5715,rough,15.5,0,3.410
1490,47.68,-3.4378,5.7489,0.8825,0.2330,0.0682,1.5715,rough,15.5,0,3.410
1500,48.00,-3.4379,5.7489,0.8825,0.2330,0.0682,1.5715,rough,15.5,0,3.410
1510,48.32,-3.4379,5.7489,0.8825,0.2330,0.0682,1.5715,rough,15.5,0,3.410
1520,48.64,-3.4380,5.7489,0.8825,0.2330,0.0682,1.5715,rough,15.5,0,3.410
1530,48.96,-3.4380,5.7489,0.8825,0.2330,0.0682,1.5715,rough,15.5,0,3.410
1540,49.28,-3.4381,5.7489,0.8825,0.2330,0.0682,1.5715,rough,15.5,0,3.410
1550,49.60,-3.4381,5.7489,0.8825,0.2330,0.0682,1.5715,rough,15.5,0,3.410
1560,49.92,-3.4382,5.7489,0.8825,0.2330,0.0682,1.5715,rough,15.5,0,3.410
1570,50.24,-3.4382,5.7489,0.8825,0.2330,0.0682,1.5715,rough,15.5,0,3.410
1580,50.56,-3.4383,5.7489,0.8826,0.2330,0.0682,1.5715,rough,15.5,0,3.410
1590,50.88,-3.4383,5.7489,0.8826,0.2330,0.0682,1.5715,rough,15.5,0,3.410
1600,51.20,-3.4384,5.7489,0.8826,0.2330,0.0682,1.5715,rough,15.5,0,3.410
1610,51.52,-3.4384,5.7488,0.8826,0.2330,0.0682,1.5715,rough,15.5,0,3.410
1620,51.84,-3.4385,5.7488,0.8826,0.2330,0.0682,1.5715,rough,15.5,0,3.410
1630,52.16,-3.4385,5.7488,0.8826,0.2330,0.0682,1.5715,rough,15.5,0,3.410
1640,52.48,-3.4386,5.7488,0.8826,0.2330,0.0682,1.5714,rough,15.5,0,3.410
1650,52.80,-3.4386,5.7488,0.8826,0.2330,0.0682,1.5714,rough,15.5,0,3.410
1660,53.12,-3.4387,5.7488,0.8826,0.2330,0.0682,1.5714,rough,15.5,0,3.410
1670,53.44,-3.4387,5.7488,0.8827,0.2330,0.0682,1.5714,rough,15.5,0,3.409
1680,53.76,-3.4387,5.7488,0.8827,0.2330,0.0682,1.5714,rough,15.5,0,3.409
1690,54.08,-3.4388,5.7488,0.8827,0.2330,0.0682,1.5714,rough,15.5,0,3.409
1700,54.40,-3.4388,5.7488,0.8827,0.2330,0.0682,1.5714,rough,15.5,0,3.409
1710,54.72,-3.4389,5.7488,0.8827,0.2330,0.0682,1.5714,rough,15.5,0,3.409
1720,55.04,-3.4389,5.7488,0.8827,0.2330,0.0682,1.5714,rough,15.5,0,3.409
1730,55.36,-3.4390,5.7488,0.8827,0.2330,0.0682,1.5714,rough,15.5,0,3.409
1740,55.68,-3.4390,5.7488,0.8827,0.2330,0.0682,1.5714,rough,15.5,0,3.409
1750,56.00,-3.4391,5.7488,0.8827,0.2330,0.0682,1.5714,rough,15.5,0,3.409
1760,56.32,-3.4391,5.7488,0.8828,0.2330,0.0682,1.5714,rough,15.5,0,3.409
1770,56.64,-3.4392,5.7488,0.8828,0.2330,0.0682,1.5714,rough,15.5,0,3.409
1780,56.96,-3.4392,5.7488,0.8828,0.2330,0.0682,1.5714,rough,15.5,0,3.409
1790,57.28,-3.4392,5.7488,0.8828,0.2330,0.0682,1.5714,rough,15.5,0,3.409
1800,57.60,-3.4393,5.7488,0.8828,0.2330,0.0683,1.5714,rough,15.5,0,3.409
1810,57.92,-3.4393,5.7489,0.8828,0.2330,0.0683,1.5714,rough,15.5,0,3.409
1820,58.24,-3.4394,5.7489,0.8828,0.2330,0.0683,1.5714,rough,15.5,0,3.409
1830,58.56,-3.4394,5.7489,0.8828,0.2330,0.0683,1.5714,rough,15.5,0,3.409
1840,58.88,-3.4395,5.7489,0.8828,0.2330,0.0683,1.5714,rough,15.5,0,3.409
1850,59.20,-3.4395,5.7489,0.8828,0.2330,0.0683,1.5714,rough,15.5,0,3.409
1860,59.52,-3.4396,5.7489,0.8829,0.2330,0.0683,1.5714,rough,15.5,0,3.409
1870,59.84,-3.4396,5.7489,0.8829,0.2330,0.0683,1.5714,rough,15.5,0,3.409
1880,60.16,-3.4397,5.7489,0.8829,0.2329,0.0683,1.5714,rough,15.5,0,3.409
1890,60.48,-3.4397,5.7489,0.8829,0.2329,0.0683,1.5714,rough,15.5,0,3.409
1900,60.80,-3.4397,5.7489,0.8829,0.2329,0.0683,1.5714,rough,15.5,0,3.409
1910,61.12,-3.4398,5.7489,0.8829,0.2329,0.0683,1.5714,rough,15.5,0,3.408
1920,61.44,-3.4398,5.7489,0.8829,0.2329,0.0683,1.5714,rough,15.5,0,3.408
1930,61.76,-3.4399,5.7489,0.8829,0.2329,0.0683,1.5714,rough,15.5,0,3.408
1940,62.08,-3.4399,5.7489,0.8829,0.2329,0.0683,1.5714,rough,15.5,0,3.408
1950,62.40,-3.4400,5.7489,0.8829,0.2329,0.0683,1.5714,rough,15.5,0,3.408
1960,62.72,-3.4400,5.7489,0.8830,0.2329,0.0683,1.5714,rough,15.5,0,3.408
1970,63.04,-3.4401,5.7489,0.8830,0.2329,0.0683,1.5714,rough,15.5,0,3.408
1980,63.36,-3.4401,5.7489,0.8830,0.2329,0.0683,1.5714,rough,15.5,0,3.408
1990,63.68,-3.4401,5.7489,0.8830,0.2329,0.0683,1.5714,rough,15.5,0,3.408
2000,64.00,-3.4402,5.7489,0.8830,0.2329,0.0683,1.5714,rough,15.5,0,3.408
2010,64.32,-3.4402,5.7489,0.8830,0.2329,0.0683,1.5714,rough,15.5,0,3.408
2020,64.64,-3.4403,5.7489,0.8830,0.2329,0.0683,1.5714,rough,15.5,0,3.408
2030,64.96,-3.4403,5.7489,0.8830,0.2329,0.0683,1.5714,rough,15.5,0,3.408
2040,65.28,-3.4404,5.7489,0.8830,0.2329,0.0683,1.5714,rough,15.5,0,3.408
2050,65.60,-3.4404,5.7489,0.8830,0.2329,0.0683,1.5714,rough,15.5,0,3.408
2060,65.92,-3.4405,5.7489,0.8831,0.2329,0.0683,1.5714,rough,15.5,0,3.408
2070,66.24,-3.4405,5.7489,0.8831,0.2329,0.0683,1.5714,rough,15.5,0,3.408
2080,66.56,-3.4405,5.7489,0.8831,0.2329,0.0683,1.5714,rough,15.5,0,3.408
2090,66.88,-3.4406,5.7489,0.8831,0.2329,0.0683,1.5714,rough,15.5,0,3.408
2100,67.20,-3.4406,5.7489,0.8831,0.2329,0.0683,1.5714,rough,15.5,0,3.408
2110,67.52,-3.4407,5.7489,0.8831,0.2329,0.0684,1.5714,rough,15.5,0,3.408
2120,67.84,-3.4407,5.7489,0.8831,0.2329,0.0684,1.5714,rough,15.5,0,3.408
2130,68.16,-3.4408,5.7489,0.8831,0.2329,0.0684,1.5714,rough,15.5,0,3.408
2140,68.48,-3.4408,5.7489,0.8831,0.2329,0.0684,1.5714,rough,15.5,0,3.408
2150,68.80,-3.4409,5.7489,0.8831,0.2329,0.0684,1.5714,rough,15.5,0,3.408
2160,69.12,-3.4409,5.7489,0.8831,0.2329,0.0684,1.5714,rough,15.5,0,3.408
2170,69.44,-3.4409,5.7489,0.8832,0.2329,0.0684,1.5714,rough,15.5,0,3.407
2180,69.76,-3.4410,5.7489,0.8832,0.2328,0.0684,1.5714,rough,15.5,0,3.407
2190,70.08,-3.4410,5.7489,0.8832,0.2328,0.0684,1.5714,rough,15.5,0,3.407
2200,70.40,-3.4411,5.7489,0.8832,0.2328,0.0684,1.5714,rough,15.5,0,3.407
2210,70.72,-3.4411,5.7489,0.8832,0.2328,0.0684,1.5714,rough,15.5,0,3.407
2220,71.04,-3.4412,5.7489,0.8832,0.2328,0.0684,1.5714,rough,15.5,0,3.407
2230,71.36,-3.4412,5.7489,0.8832,0.2328,0.0684,1.5714,rough,15.5,0,3.407
2240,71.68,-3.4413,5.7489,0.8832,0.2328,0.0684,1.5714,rough,15.5,0,3.407
2250,72.00,-3.4413,5.7489,0.8832,0.2328,0.0684,1.5714,rough,15.5,0,3.407
2260,72.32,-3.4413,5.7489,0.8832,0.2328,0.0684,1.5714,rough,15.5,0,3.407
2270,72.64,-3.4414,5.7489,0.8833,0.2328,0.0684,1.5715,rough,15.5,0,3.407
2280,72.96,-3.4414,5.7489,0.8833,0.2328,0.0684,1.5715,rough,15.5,0,3.407
2290,73.28,-3.4415,5.7489,0.8833,0.2328,0.0684,1.5715,rough,15.5,0,3.407
2300,73.60,-3.4415,5.7489,0.8833,0.2328,0.0684,1.5715,rough,15.5,0,3.407
2310,73.92,-3.4416,5.7489,0.8833,0.2328,0.0684,1.5715,rough,15.5,0,3.407
2320,74.24,-3.4416,5.7489,0.8833,0.2328,0.0684,1.5715,rough,15.5,0,3.407
2330,74.56,-3.4416,5.7489,0.8833,0.2328,0.0684,1.5715,rough,15.5,0,3.407
2340,74.88,-3.4417,5.7489,0.8833,0.2328,0.0684,1.5715,rough,15.5,0,3.407
2350,75.20,-3.4417,5.7489,0.8833,0.2328,0.0684,1.5715,rough,15.5,0,3.407
2360,75.52,-3.4418,5.7489,0.8833,0.2328,0.0684,1.5715,rough,15.5,0,3.407
2370,75.84,-3.4418,5.7489,0.8833,0.2328,0.0684,1.5715,rough,15.5,0,3.407
2380,76.16,-3.4419,5.7489,0.8834,0.2328,0.0684,1.5715,rough,15.5,0,3.407
2390,76.48,-3.4419,5.7489,0.8834,0.2328,0.0685,1.5715,rough,15.5,0,3.407
2400,76.80,-3.4419,5.7489,0.8834,0.2328,0.0685,1.5715,rough,15.5,0,3.407
2410,77.12,-3.4420,5.7489,0.8834,0.2328,0.0685,1.5715,rough,15.5,0,3.407
2420,77.44,-3.4420,5.7489,0.8834,0.2328,0.0685,1.5715,rough,15.5,0,3.407
2430,77.76,-3.4421,5.7489,0.8834,0.2328,0.0685,1.5715,rough,15.5,0,3.406
2440,78.08,-3.4421,5.7489,0.8834,0.2328,0.0685,1.5715,rough,15.5,0,3.406
2450,78.40,-3.4422,5.7489,0.8834,0.2328,0.0685,1.5715,rough,15.5,0,3.406
2460,78.72,-3.4422,5.7489,0.8834,0.2328,0.0685,1.5715,rough,15.5,0,3.406
2470,79.04,-3.4422,5.7489,0.8834,0.2327,0.0685,1.5715,rough,15.5,0,3.406
2480,79.36,-3.4423,5.7489,0.8835,0.2327,0.0685,1.5715,rough,15.5,0,3.406
2490,79.68,-3.4423,5.7489,0.8835,0.2327,0.0685,1.5715,rough,15.5,0,3.406
2500,80.00,-3.4424,5.7489,0.8835,0.2327,0.0685,1.5715,rough,15.5,0,3.406
2510,80.32,-3.4424,5.7489,0.8835,0.2327,0.0685,1.5715,rough,15.5,0,3.406
2520,80.64,-3.4425,5.7489,0.8835,0.2327,0.0685,1.5715,rough,15.5,0,3.406
2530,80.96,-3.4425,5.7489,0.8835,0.2327,0.0685,1.5715,rough,15.5,0,3.406
2540,81.28,-3.4425,5.7489,0.8835,0.2327,0.0685,1.5715,rough,15.5,0,3.406
2550,81.60,-3.4426,5.7489,0.8835,0.2327,0.0685,1.5715,rough,15.5,0,3.406
2560,81.92,-3.4426,5.7489,0.8835,0.2327,0.0685,1.5715,rough,15.5,0,3.406
2570,82.24,-3.4427,5.7489,0.8835,0.2327,0.0685,1.5715,rough,15.5,0,3.406
2580,82.56,-3.4427,5.7489,0.8835,0.2327,0.0685,1.5715,rough,15.5,0,3.406
2590,82.88,-3.4427,5.7489,0.8836,0.2327,0.0685,1.5715,rough,15.5,0,3.406
2600,83.20,-3.4428,5.7489,0.8836,0.2327,0.0685,1.5715,rough,15.5,0,3.406
2610,83.52,-3.4428,5.7489,0.8836,0.2327,0.0685,1.5715,rough,15.5,0,3.406
2620,83.84,-3.4429,5.7489,0.8836,0.2327,0.0685,1.5715,rough,15.5,0,3.406
2630,84.16,-3.4429,5.7489,0.8836,0.2327,0.0685,1.5715,rough,15.5,0,3.406
2640,84.48,-3.4430,5.7489,0.8836,0.2327,0.0685,1.5715,rough,15.5,0,3.406
2650,84.80,-3.4430,5.7489,0.8836,0.2327,0.0685,1.5715,rough,15.5,0,3.406
2660,85.12,-3.4430,5.7489,0.8836,0.2327,0.0685,1.5715,rough,15.5,0,3.406
2670,85.44,-3.4431,5.7489,0.8836,0.2327,0.0685,1.5715,rough,15.5,0,3.406
2680,85.76,-3.4431,5.7489,0.8836,0.2327,0.0686,1.5715,rough,15.5,0,3.406
2690,86.08,-3.4432,5.7489,0.8836,0.2327,0.0686,1.5715,rough,15.5,0,3.406
2700,86.40,-3.4432,5.7489,0.8837,0.2327,0.0686,1.5715,rough,15.5,0,3.405
2710,86.72,-3.4433,5.7489,0.8837,0.2327,0.0686,1.5715,rough,15.5,0,3.405
2720,87.04,-3.4433,5.7489,0.8837,0.2327,0.0686,1.5715,rough,15.5,0,3.405
2730,87.36,-3.4433,5.7489,0.8837,0.2327,0.0686,1.5715,rough,15.5,0,3.405
2740,87.68,-3.4434,5.7489,0.8837,0.2327,0.0686,1.5715,rough,15.5,0,3.405
2750,88.00,-3.4434,5.7489,0.8837,0.2327,0.0686,1.5715,rough,15.5,0,3.405
2760,88.32,-3.4435,5.7489,0.8837,0.2326,0.0686,1.5715,rough,15.5,0,3.405
2770,88.64,-3.4435,5.7489,0.8837,0.2326,0.0686,1.5715,rough,15.5,0,3.405
2780,88.96,-3.4435,5.7489,0.8837,0.2326,0.0686,1.5715,rough,15.5,0,3.405
2790,89.28,-3.4436,5.7489,0.8837,0.2326,0.0686,1.5715,rough,15.5,0,3.405
2800,89.60,-3.4436,5.7489,0.8837,0.2326,0.0686,1.5715,rough,15.5,0,3.405
2810,89.92,-3.4437,5.7489,0.8838,0.2326,0.0686,1.5715,rough,15.5,0,3.405
2820,90.24,-3.4437,5.7489,0.8838,0.2326,0.0686,1.5715,rough,15.5,0,3.405
2830,90.56,-3.4437,5.7489,0.8838,0.2326,0.0686,1.5715,rough,15.5,0,3.405
2840,90.88,-3.4438,5.7489,0.8838,0.2326,0.0686,1.5715,rough,15.5,0,3.405
2850,91.20,-3.4438,5.7489,0.8838,0.2326,0.0686,1.5715,rough,15.5,0,3.405
2860,91.52,-3.4439,5.7489,0.8838,0.2326,0.0686,1.5715,rough,15.5,0,3.405
2870,91.84,-3.4439,5.7489,0.8838,0.2326,0.0686,1.5715,rough,15.5,0,3.405
2880,92.16,-3.4440,5.7489,0.8838,0.2326,0.0686,1.5715,rough,15.5,0,3.405
2890,92.48,-3.4440,5.7489,0.8838,0.2326,0.0686,1.5715,rough,15.5,0,3.405
2900,92.80,-3.4440,5.7489,0.8838,0.2326,0.0686,1.5715,rough,15.5,0,3.405
2910,93.12,-3.4441,5.7489,0.8838,0.2326,0.0686,1.5715,rough,15.5,0,3.405
2920,93.44,-3.4441,5.7489,0.8839,0.2326,0.0686,1.5715,rough,15.5,0,3.405
2930,93.76,-3.4442,5.7489,0.8839,0.2326,0.0686,1.5715,rough,15.5,0,3.405
2940,94.08,-3.4442,5.7489,0.8839,0.2326,0.0686,1.5715,rough,15.5,0,3.405
2950,94.40,-3.4442,5.7489,0.8839,0.2326,0.0686,1.5715,rough,15.5,0,3.405
2960,94.72,-3.4443,5.7489,0.8839,0.2326,0.0687,1.5715,rough,15.5,0,3.405
2970,95.04,-3.4443,5.7489,0.8839,0.2326,0.0687,1.5715,rough,15.5,0,3.404
2980,95.36,-3.4444,5.7489,0.8839,0.2326,0.0687,1.5715,rough,15.5,0,3.404
2990,95.68,-3.4444,5.7489,0.8839,0.2326,0.0687,1.5715,rough,15.5,0,3.404
3000,96.00,-3.4445,5.7489,0.8839,0.2326,0.0687,1.5715,rough,15.5,0,3.404
3010,96.32,-3.4445,5.7489,0.8839,0.2326,0.0687,1.5715,rough,15.5,0,3.404
3020,96.64,-3.4445,5.7489,0.8839,0.2326,0.0687,1.5715,rough,15.5,0,3.404
3030,96.96,-3.4446,5.7489,0.8840,0.2326,0.0687,1.5715,rough,15.5,0,3.404
3040,97.28,-3.4446,5.7489,0.8840,0.2326,0.0687,1.5715,rough,15.5,0,3.404
3050,97.60,-3.4447,5.7489,0.8840,0.2325,0.0687,1.5715,rough,15.5,0,3.404
3060,97.92,-3.4447,5.7489,0.8840,0.2325,0.0687,1.5715,rough,15.5,0,3.404
3070,98.24,-3.4447,5.7489,0.8840,0.2325,0.0687,1.5715,rough,15.5,0,3.404
3080,98.56,-3.4448,5.7489,0.8840,0.2325,0.0687,1.5715,rough,15.5,0,3.404
3090,98.88,-3.4448,5.7489,0.8840,0.2325,0.0687,1.5715,rough,15.5,0,3.404
3100,99.20,-3.4449,5.7489,0.8840,0.2325,0.0687,1.5715,rough,15.5,0,3.404
3110,99.52,-3.4449,5.7489,0.8840,0.2325,0.0687,1.5715,rough,15.5,0,3.404
3120,99.84,-3.4449,5.7489,0.8840,0.2325,0.0687,1.5715,rough,15.5,0,3.404
3130,100.16,-3.4450,5.7489,0.8840,0.2325,0.0687,1.5715,rough,15.5,0,3.404
3140,100.48,-3.4450,5.7489,0.8841,0.2325,0.0687,1.5715,rough,15.5,0,3.404
3150,100.80,-3.4451,5.7489,0.8841,0.2325,0.0687,1.5715,rough,15.5,0,3.404
3160,101.12,-3.4451,5.7489,0.8841,0.2325,0.0687,1.5715,rough,15.5,0,3.404
3170,101.44,-3.4451,5.7489,0.8841,0.2325,0.0687,1.5715,rough,15.5,0,3.404
3180,101.76,-3.4452,5.7489,0.8841,0.2325,0.0687,1.5715,rough,15.5,0,3.404
3190,102.08,-3.4452,5.7489,0.8841,0.2325,0.0687,1.5715,rough,15.5,0,3.404
3200,102.40,-3.4453,5.7489,0.8841,0.2325,0.0687,1.5715,rough,15.5,0,3.404
3210,102.72,-3.4453,5.7489,0.8841,0.2325,0.0687,1.5715,rough,15.5,0,3.404
3220,103.04,-3.4453,5.7489,0.8841,0.2325,0.0687,1.5715,rough,15.5,0,3.404
3230,103.36,-3.4454,5.7489,0.8841,0.2325,0.0687,1.5715,rough,15.5,0,3.404
3240,103.68,-3.4454,5.7489,0.8841,0.2325,0.0688,1.5715,rough,15.5,0,3.404
3250,104.00,-3.4455,5.7489,0.8842,0.2325,0.0688,1.5715,rough,15.5,0,3.403
3260,104.32,-3.4455,5.7490,0.8842,0.2325,0.0688,1.5715,rough,15.5,0,3.403
3270,104.64,-3.4456,5.7490,0.8842,0.2325,0.0688,1.5715,rough,15.5,0,3.403
3280,104.96,-3.4456,5.7490,0.8842,0.2325,0.0688,1.5715,rough,15.5,0,3.403
3290,105.28,-3.4456,5.7490,0.8842,0.2325,0.0688,1.5715,rough,15.5,0,3.403
3300,105.60,-3.4457,5.7490,0.8842,0.2325,0.0688,1.5715,rough,15.5,0,3.403
3310,105.92,-3.4457,5.7489,0.8842,0.2325,0.0688,1.5715,rough,15.5,0,3.403
3320,106.24,-3.4458,5.7489,0.8842,0.2324,0.0688,1.5715,rough,15.5,0,3.403
3330,106.56,-3.4458,5.7489,0.8842,0.2324,0.0688,1.5715,rough,15.5,0,3.403
3340,106.88,-3.4458,5.7489,0.8842,0.2324,0.0688,1.5715,rough,15.5,0,3.403
3350,107.20,-3.4459,5.7489,0.8842,0.2324,0.0688,1.5715,rough,15.5,0,3.403
3360,107.52,-3.4459,5.7489,0.8843,0.2324,0.0688,1.5715,rough,15.5,0,3.403
3370,107.84,-3.4460,5.7489,0.8843,0.2324,0.0688,1.5715,rough,15.5,0,3.403
3380,108.16,-3.4460,5.7489,0.8843,0.2324,0.0688,1.5715,rough,15.5,0,3.403
3390,108.48,-3.4460,5.7489,0.8843,0.2324,0.0688,1.5715,rough,15.5,0,3.403
3400,108.80,-3.4461,5.7489,0.8843,0.2324,0.0688,1.5715,rough,15.5,0,3.403
3410,109.12,-3.4461,5.7488,0.8843,0.2324,0.0688,1.5715,rough,15.5,0,3.403
3420,109.44,-3.4461,5.7488,0.8843,0.2324,0.0688,1.5715,rough,15.5,0,3.403
3430,109.76,-3.4462,5.7488,0.8843,0.2324,0.0688,1.5715,rough,15.5,0,3.403
3440,110.08,-3.4462,5.7488,0.8843,0.2324,0.0688,1.5715,rough,15.5,0,3.403
3450,110.40,-3.4463,5.7488,0.8843,0.2324,0.0688,1.5715,rough,15.5,0,3.403
3460,110.72,-3.4463,5.7488,0.8843,0.2324,0.0688,1.5714,rough,15.5,0,3.403
3470,111.04,-3.4463,5.7488,0.8843,0.2324,0.0688,1.5715,rough,15.5,0,3.403
3480,111.36,-3.4464,5.7489,0.8844,0.2324,0.0688,1.5715,rough,15.5,0,3.403
3490,111.68,-3.4464,5.7489,0.8844,0.2324,0.0688,1.5715,rough,15.5,0,3.403
3500,112.00,-3.4464,5.7490,0.8844,0.2324,0.0688,1.5715,rough,15.5,0,3.403
3510,112.32,-3.4465,5.7490,0.8844,0.2324,0.0688,1.5715,rough,15.5,0,3.403
3520,112.64,-3.4465,5.7490,0.8844,0.2324,0.0688,1.5715,rough,15.5,0,3.403
3530,112.96,-3.4466,5.7490,0.8844,0.2324,0.0688,1.5715,rough,15.5,0,3.403
3540,113.28,-3.4466,5.7490,0.8844,0.2324,0.0688,1.5715,rough,15.5,0,3.402
3550,113.60,-3.4466,5.7490,0.8844,0.2324,0.0688,1.5715,rough,15.5,0,3.402
3560,113.92,-3.4467,5.7490,0.8844,0.2324,0.0688,1.5715,rough,15.5,0,3.402
3570,114.24,-3.4467,5.7490,0.8844,0.2324,0.0688,1.5715,rough,15.5,0,3.402
3580,114.56,-3.4468,5.7490,0.8844,0.2324,0.0689,1.5715,rough,15.5,0,3.402
3590,114.88,-3.4468,5.7490,0.8844,0.2324,0.0689,1.5715,rough,15.5,0,3.402
3600,115.20,-3.4468,5.7490,0.8844,0.2324,0.0689,1.5715,rough,15.5,0,3.402
3610,115.52,-3.4469,5.7490,0.8845,0.2324,0.0689,1.5715,rough,15.5,0,3.402
3620,115.84,-3.4469,5.7490,0.8845,0.2324,0.0689,1.5715,rough,15.5,0,3.402
3630,116.16,-3.4470,5.7490,0.8845,0.2324,0.0689,1.5715,rough,15.5,0,3.402
3640,116.48,-3.4470,5.7490,0.8845,0.2324,0.0689,1.5715,rough,15.5,0,3.402
3650,116.80,-3.4470,5.7490,0.8845,0.2324,0.0689,1.5715,rough,15.5,0,3.402
3660,117.12,-3.4471,5.7488,0.8845,0.2323,0.0689,1.5715,rough,15.5,0,3.402
3670,117.44,-3.4471,5.7488,0.8845,0.2322,0.0689,1.5714,rough,15.5,0,3.402
3680,117.76,-3.4472,5.7487,0.8845,0.2322,0.0689,1.5714,rough,15.5,0,3.402
3690,118.08,-3.4472,5.7487,0.8845,0.2322,0.0689,1.5714,rough,15.5,0,3.402
3700,118.40,-3.4472,5.7487,0.8845,0.2322,0.0689,1.5714,rough,15.5,0,3.402
3710,118.72,-3.4473,5.7487,0.8846,0.2322,0.0689,1.5714,rough,15.5,0,3.402
3720,119.04,-3.4473,5.7487,0.8846,0.2322,0.0689,1.5714,rough,15.5,0,3.402
3730,119.36,-3.4473,5.7487,0.8846,0.2322,0.0689,1.5714,rough,15.5,0,3.402
3740,119.68,-3.4473,5.7487,0.8846,0.2322,0.0689,1.5714,rough,15.5,0,3.402
3750,120.00,-3.4474,5.7487,0.8846,0.2322,0.0689,1.5714,rough,15.5,0,3.402
3760,120.32,-3.4474,5.7487,0.8846,0.2322,0.0689,1.5714,rough,15.5,0,3.402
3770,120.64,-3.4474,5.7487,0.8846,0.2322,0.0689,1.5714,rough,15.5,0,3.402
3780,120.96,-3.4475,5.7487,0.8846,0.2322,0.0689,1.5714,rough,15.5,0,3.402
3790,121.28,-3.4475,5.7487,0.8846,0.2322,0.0689,1.5714,rough,15.5,0,3.402
3800,121.60,-3.4475,5.7487,0.8846,0.2322,0.0689,1.5714,rough,15.5,0,3.402
3810,121.92,-3.4476,5.7487,0.8846,0.2322,0.0689,1.5714,rough,15.5,0,3.401
3820,122.24,-3.4476,5.7486,0.8846,0.2322,0.0689,1.5714,rough,15.5,0,3.401
3830,122.56,-3.4476,5.7486,0.8846,0.2322,0.0689,1.5714,rough,15.5,0,3.401
3840,122.88,-3.4477,5.7486,0.8847,0.2322,0.0689,1.5714,rough,15.5,0,3.401
3850,123.20,-3.4477,5.7486,0.8847,0.2322,0.0689,1.5714,rough,15.5,0,3.401
3860,123.52,-3.4477,5.7486,0.8847,0.2322,0.0689,1.5714,rough,15.5,0,3.401
3870,123.84,-3.4477,5.7486,0.8847,0.2322,0.0689,1.5714,rough,15.5,0,3.401
3880,124.16,-3.4478,5.7486,0.8847,0.2322,0.0689,1.5714,rough,15.5,0,3.401
3890,124.48,-3.4478,5.7486,0.8847,0.2322,0.0689,1.5714,rough,15.5,0,3.401
3900,124.80,-3.4478,5.7486,0.8847,0.2322,0.0689,1.5714,rough,15.5,0,3.401
3910,125.12,-3.4479,5.7486,0.8847,0.2322,0.0689,1.5714,rough,15.5,0,3.401
3920,125.44,-3.4479,5.7486,0.8847,0.2321,0.0689,1.5714,rough,15.5,0,3.401
3930,125.76,-3.4479,5.7486,0.8847,0.2321,0.0689,1.5714,rough,15.5,0,3.401
3940,126.08,-3.4479,5.7486,0.8847,0.2321,0.0689,1.5714,rough,15.5,0,3.401
3950,126.40,-3.4480,5.7486,0.8847,0.2321,0.0689,1.5714,rough,15.5,0,3.401
3960,126.72,-3.4480,5.7486,0.8847,0.2321,0.0689,1.5714,rough,15.5,0,3.401
3970,127.04,-3.4480,5.7486,0.8847,0.2321,0.0689,1.5714,rough,15.5,0,3.401
3980,127.36,-3.4480,5.7486,0.8848,0.2321,0.0689,1.5714,rough,15.5,0,3.401
3990,127.68,-3.4481,5.7485,0.8848,0.2321,0.0689,1.5714,rough,15.5,0,3.401
4000,128.00,-3.4481,5.7485,0.8848,0.2321,0.0689,1.5713,rough,15.5,0,3.401
4010,128.32,-3.4481,5.7485,0.8848,0.2321,0.0689,1.5713,rough,15.5,0,3.401
4020,128.64,-3.4482,5.7485,0.8848,0.2321,0.0689,1.5713,rough,15.5,0,3.401
4030,128.96,-3.4482,5.7485,0.8848,0.2321,0.0690,1.5713,rough,15.5,0,3.401
4040,129.28,-3.4482,5.7485,0.8848,0.2321,0.0690,1.5713,rough,15.5,0,3.401
4050,129.60,-3.4482,5.7485,0.8848,0.2321,0.0690,1.5713,rough,15.5,0,3.401
4060,129.92,-3.4483,5.7485,0.8848,0.2321,0.0690,1.5713,rough,15.5,0,3.401
4070,130.24,-3.4483,5.7485,0.8848,0.2321,0.0690,1.5713,rough,15.5,0,3.401
4080,130.56,-3.4483,5.7485,0.8848,0.2321,0.0690,1.5713,rough,15.5,0,3.401
4090,130.88,-3.4483,5.7485,0.8848,0.2321,0.0690,1.5713,rough,15.5,0,3.401
4100,131.20,-3.4484,5.7485,0.8848,0.2321,0.0690,1.5713,rough,15.5,0,3.401
4110,131.52,-3.4484,5.7485,0.8848,0.2321,0.0690,1.5713,rough,15.5,0,3.401
4120,131.84,-3.4484,5.7485,0.8848,0.2321,0.0690,1.5713,rough,15.5,0,3.401
4130,132.16,-3.4484,5.7485,0.8848,0.2321,0.0690,1.5713,rough,15.5,0,3.401
4140,132.48,-3.4485,5.7485,0.8849,0.2321,0.0690,1.5713,rough,15.5,0,3.401
4150,132.80,-3.4485,5.7485,0.8849,0.2321,0.0690,1.5713,rough,15.5,0,3.401
4160,133.12,-3.4485,5.7485,0.8849,0.2321,0.0690,1.5713,rough,15.5,0,3.401
4170,133.44,-3.4485,5.7485,0.8849,0.2321,0.0690,1.5713,rough,15.5,0,3.401
4180,133.76,-3.4486,5.7485,0.8849,0.2320,0.0690,1.5713,rough,15.5,0,3.401
4190,134.08,-3.4486,5.7484,0.8849,0.2320,0.0690,1.5713,rough,15.5,0,3.400
4200,134.40,-3.4486,5.7484,0.8849,0.2320,0.0690,1.5713,rough,15.5,0,3.400
4210,134.72,-3.4486,5.7484,0.8849,0.2320,0.0690,1.5713,rough,15.5,0,3.400
4220,135.04,-3.4486,5.7484,0.8849,0.2320,0.0690,1.5713,rough,15.5,0,3.400
4230,135.36,-3.4487,5.7484,0.8849,0.2319,0.0690,1.5713,rough,15.5,0,3.400
4240,135.68,-3.4487,5.7484,0.8849,0.2319,0.0690,1.5713,rough,15.5,0,3.400
4250,136.00,-3.4487,5.7484,0.8849,0.2319,0.0690,1.5713,rough,15.5,0,3.400
4260,136.32,-3.4487,5.7484,0.8849,0.2319,0.0690,1.5713,rough,15.5,0,3.400
4270,136.64,-3.4487,5.7484,0.8849,0.2319,0.0689,1.5713,rough,15.5,0,3.400
4280,136.96,-3.4488,5.7484,0.8849,0.2319,0.0689,1.5713,rough,15.5,0,3.400
4290,137.28,-3.4488,5.7484,0.8849,0.2319,0.0689,1.5713,rough,15.5,0,3.400
4300,137.60,-3.4488,5.7484,0.8849,0.2318,0.0689,1.5713,rough,15.5,0,3.400
4310,137.92,-3.4488,5.7484,0.8849,0.2318,0.0689,1.5713,rough,15.5,0,3.400
4320,138.24,-3.4488,5.7484,0.8850,0.2318,0.0689,1.5713,rough,15.5,0,3.400
4330,138.56,-3.4488,5.7484,0.8850,0.2318,0.0689,1.5713,rough,15.5,0,3.400
4340,138.88,-3.4489,5.7484,0.8850,0.2318,0.0689,1.5712,rough,15.5,0,3.400
4350,139.20,-3.4489,5.7484,0.8850,0.2318,0.0689,1.5712,rough,15.5,0,3.400
4360,139.52,-3.4489,5.7484,0.8850,0.2318,0.0689,1.5712,rough,15.5,0,3.400
4370,139.84,-3.4489,5.7484,0.8850,0.2318,0.0689,1.5712,rough,15.5,0,3.400
4380,140.16,-3.4489,5.7484,0.8850,0.2318,0.0689,1.5712,rough,15.5,0,3.400
4390,140.48,-3.4489,5.7484,0.8850,0.2318,0.0689,1.5712,rough,15.5,0,3.400
4400,140.80,-3.4490,5.7484,0.8850,0.2317,0.0689,1.5712,rough,15.5,0,3.400
4410,141.12,-3.4490,5.7484,0.8850,0.2317,0.0689,1.5712,rough,15.5,0,3.400
4420,141.44,-3.4490,5.7484,0.8850,0.2317,0.0689,1.5712,rough,15.5,0,3.400
4430,141.76,-3.4490,5.7484,0.8850,0.2317,0.0689,1.5712,rough,15.5,0,3.400
4440,142.08,-3.4490,5.7484,0.8850,0.2317,0.0689,1.5712,rough,15.5,0,3.400
4450,142.40,-3.4490,5.7484,0.8850,0.2317,0.0689,1.5712,rough,15.5,0,3.400
4460,142.72,-3.4490,5.7484,0.8850,0.2317,0.0689,1.5712,rough,15.5,0,3.400
4470,143.04,-3.4490,5.7484,0.8850,0.2317,0.0689,1.5712,rough,15.5,0,3.400
4480,143.36,-3.4491,5.7484,0.8850,0.2317,0.0689,1.5712,rough,15.5,0,3.400
4490,143.68,-3.4491,5.7484,0.8850,0.2317,0.0689,1.5712,rough,15.5,0,3.400
4500,144.00,-3.4491,5.7484,0.8850,0.2317,0.0688,1.5712,rough,15.5,0,3.400
4510,144.32,-3.4491,5.7484,0.8850,0.2317,0.0688,1.5712,rough,15.5,0,3.400
4520,144.64,-3.4491,5.7484,0.8850,0.2317,0.0688,1.5712,rough,15.5,0,3.400
4530,144.96,-3.4491,5.7484,0.8850,0.2316,0.0688,1.5712,rough,15.5,0,3.400
4540,145.28,-3.4491,5.7483,0.8850,0.2316,0.0688,1.5712,rough,15.5,0,3.400
4550,145.60,-3.4491,5.7483,0.8850,0.2316,0.0688,1.5712,rough,15.5,0,3.400
4560,145.92,-3.4491,5.7483,0.8850,0.2316,0.0688,1.5712,rough,15.5,0,3.400
4570,146.24,-3.4491,5.7483,0.8850,0.2316,0.0688,1.5712,rough,15.5,0,3.400
4580,146.56,-3.4492,5.7483,0.8850,0.2316,0.0688,1.5712,rough,15.5,0,3.400
4590,146.88,-3.4492,5.7483,0.8851,0.2316,0.0688,1.5712,rough,15.5,0,3.400
4600,147.20,-3.4492,5.7483,0.8851,0.2316,0.0688,1.5712,rough,15.5,0,3.400
4610,147.52,-3.4492,5.7483,0.8851,0.2316,0.0688,1.5712,rough,15.5,0,3.400
4620,147.84,-3.4492,5.7483,0.8851,0.2316,0.0688,1.5712,rough,15.5,0,3.400
4630,148.16,-3.4492,5.7483,0.8851,0.2316,0.0688,1.5712,rough,15.5,0,3.400
4640,148.48,-3.4492,5.7483,0.8851,0.2316,0.0688,1.5712,rough,15.5,0,3.400
4650,148.80,-3.4492,5.7483,0.8851,0.2316,0.0688,1.5712,rough,15.5,0,3.400
4660,149.12,-3.4492,5.7483,0.8851,0.2316,0.0688,1.5712,rough,15.5,0,3.400
4670,149.44,-3.4492,5.7483,0.8851,0.2316,0.0688,1.5712,rough,15.5,0,3.400
4680,149.76,-3.4492,5.7483,0.8851,0.2316,0.0688,1.5712,rough,15.5,0,3.400
4690,150.08,-3.4492,5.7483,0.8851,0.2316,0.0688,1.5712,rough,15.5,0,3.400
4700,150.40,-3.4492,5.7483,0.8851,0.2316,0.0688,1.5712,rough,15.5,0,3.400
4710,150.72,-3.4493,5.7483,0.8851,0.2316,0.0688,1.5712,rough,15.5,0,3.400
4720,151.04,-3.4493,5.7483,0.8851,0.2316,0.0688,1.5712,rough,15.5,0,3.400
4730,151.36,-3.4493,5.7483,0.8851,0.2316,0.0688,1.5712,rough,15.5,0,3.400
4740,151.68,-3.4493,5.7483,0.8851,0.2315,0.0688,1.5712,rough,15.5,0,3.400
4750,152.00,-3.4493,5.7483,0.8851,0.2315,0.0688,1.5712,rough,15.5,0,3.400
4760,152.32,-3.4493,5.7483,0.8851,0.2315,0.0688,1.5712,rough,15.5,0,3.400
4770,152.64,-3.4493,5.7483,0.8851,0.2315,0.0688,1.5712,rough,15.5,0,3.400
4780,152.96,-3.4493,5.7483,0.8851,0.2315,0.0688,1.5711,rough,15.5,0,3.400
4790,153.28,-3.4493,5.7483,0.8851,0.2315,0.0688,1.5711,rough,15.5,0,3.400
4800,153.60,-3.4493,5.7483,0.8851,0.2315,0.0687,1.5711,rough,15.5,0,3.400
4810,153.92,-3.4493,5.7483,0.8851,0.2315,0.0687,1.5711,rough,15.5,0,3.400
4820,154.24,-3.4493,5.7483,0.8851,0.2315,0.0687,1.5711,rough,15.5,0,3.400
4830,154.56,-3.4493,5.7483,0.8851,0.2315,0.0687,1.5711,rough,15.5,0,3.400
4840,154.88,-3.4493,5.7483,0.8851,0.2315,0.0687,1.5711,rough,15.5,0,3.400
4850,155.20,-3.4493,5.7483,0.8851,0.2315,0.0687,1.5711,rough,15.5,0,3.400
4860,155.52,-3.4493,5.7483,0.8851,0.2315,0.0687,1.5711,rough,15.5,0,3.400
4870,155.84,-3.4493,5.7483,0.8851,0.2315,0.0687,1.5711,rough,15.5,0,3.400
4880,156.16,-3.4493,5.7483,0.8851,0.2315,0.0687,1.5711,rough,15.5,0,3.400
4890,156.48,-3.4494,5.7483,0.8851,0.2315,0.0687,1.5711,rough,15.5,0,3.400
4900,156.80,-3.4494,5.7483,0.8851,0.2315,0.0687,1.5711,rough,15.5,0,3.400
4910,157.12,-3.4494,5.7483,0.8851,0.2315,0.0687,1.5711,rough,15.5,0,3.400
4920,157.44,-3.4494,5.7483,0.8851,0.2315,0.0687,1.5711,rough,15.5,0,3.400
4930,157.76,-3.4494,5.7483,0.8851,0.2315,0.0687,1.5711,rough,15.5,0,3.400
4940,158.08,-3.4494,5.7483,0.8851,0.2315,0.0687,1.5711,rough,15.5,0,3.400
4950,158.40,-3.4494,5.7483,0.8851,0.2315,0.0687,1.5711,rough,15.5,0,3.400
4960,158.72,-3.4494,5.7483,0.8851,0.2315,0.0687,1.5711,rough,15.5,0,3.400
4970,159.04,-3.4494,5.7483,0.8851,0.2315,0.0687,1.5711,rough,15.5,0,3.400
4980,159.36,-3.4494,5.7483,0.8851,0.2315,0.0687,1.5711,rough,15.5,0,3.400
4990,159.68,-3.4494,5.7483,0.8851,0.2315,0.0687,1.5711,rough,15.5,0,3.400
5000,160.00,-3.4494,5.7483,0.8851,0.2315,0.0687,1.5711,rough,15.5,0,3.400
5010,160.32,-3.4494,5.7483,0.8851,0.2315,0.0687,1.5711,rough,15.5,0,3.400
5020,160.64,-3.4494,5.7483,0.8851,0.2315,0.0687,1.5711,rough,15.5,0,3.400
5030,160.96,-3.4494,5.7483,0.8851,0.2315,0.0687,1.5711,rough,15.5,0,3.400
5040,161.28,-3.4494,5.7483,0.8851,0.2315,0.0687,1.5711,rough,15.5,0,3.400
5050,161.60,-3.4494,5.7483,0.8851,0.2315,0.0687,1.5711,rough,15.5,0,3.400
5060,161.92,-3.4494,5.7483,0.8851,0.2315,0.0687,1.5711,rough,15.5,0,3.400
5070,162.24,-3.4494,5.7483,0.8851,0.2315,0.0687,1.5711,rough,15.5,0,3.400
5080,162.56,-3.4494,5.7483,0.8851,0.2315,0.0687,1.5711,rough,15.5,0,3.400
5090,162.88,-3.4494,5.7483,0.8851,0.2315,0.0687,1.5711,rough,15.5,0,3.400
5100,163.20,-3.4494,5.7483,0.8851,0.2315,0.0687,1.5711,rough,15.5,0,3.400
5110,163.52,-3.4494,5.7483,0.8851,0.2315,0.0687,1.5711,rough,15.5,0,3.400
5120,163.84,-3.4494,5.7483,0.8851,0.2315,0.0687,1.5711,rough,15.5,0,3.400
5130,164.16,-3.4494,5.7483,0.8851,0.2315,0.0687,1.5711,rough,15.5,0,3.400
5140,164.48,-3.4494,5.7483,0.8851,0.2315,0.0687,1.5711,rough,15.5,0,3.400
5150,164.80,-3.4494,5.7483,0.8851,0.2315,0.0687,1.5711,rough,15.5,0,3.400
5160,165.12,-3.4494,5.7483,0.8851,0.2315,0.0687,1.5711,rough,15.5,0,3.400
5170,165.44,-3.4494,5.7483,0.8851,0.2315,0.0687,1.5711,rough,15.5,0,3.400
5180,165.76,-3.4494,5.7483,0.8851,0.2315,0.0687,1.5711,rough,15.5,0,3.400
5190,166.08,-3.4494,5.7483,0.8851,0.2315,0.0687,1.5711,rough,15.5,0,3.400
5200,166.40,-3.4494,5.7483,0.8851,0.2314,0.0687,1.5711,rough,15.5,0,3.400
5210,166.72,-3.4495,5.7483,0.8851,0.2314,0.0687,1.5711,rough,15.5,0,3.400
5220,167.04,-3.4495,5.7483,0.8851,0.2314,0.0687,1.5711,rough,15.5,0,3.400
5230,167.36,-3.4495,5.7483,0.8851,0.2314,0.0687,1.5711,rough,15.5,0,3.400
5240,167.68,-3.4495,5.7483,0.8851,0.2314,0.0687,1.5711,rough,15.5,0,3.400
5250,168.00,-3.4495,5.7483,0.8851,0.2314,0.0687,1.5711,rough,15.5,0,3.400
5260,168.32,-3.4495,5.7483,0.8851,0.2314,0.0687,1.5711,rough,15.5,0,3.400
5270,168.64,-3.4495,5.7483,0.8851,0.2314,0.0687,1.5711,rough,15.5,0,3.400
5280,168.96,-3.4495,5.7483,0.8852,0.2314,0.0687,1.5711,rough,15.5,0,3.400
5290,169.28,-3.4495,5.7483,0.8852,0.2314,0.0687,1.5711,rough,15.5,0,3.400
5300,169.60,-3.4495,5.7483,0.8852,0.2314,0.0687,1.5711,rough,15.5,0,3.400
5310,169.92,-3.4495,5.7483,0.8852,0.2314,0.0687,1.5711,rough,15.5,0,3.400
5320,170.24,-3.4495,5.7483,0.8852,0.2314,0.0687,1.5711,rough,15.5,0,3.400
5330,170.56,-3.4495,5.7483,0.8852,0.2314,0.0687,1.5711,rough,15.5,0,3.400
5340,170.88,-3.4495,5.7483,0.8852,0.2314,0.0687,1.5711,rough,15.5,0,3.400
5350,171.20,-3.4495,5.7483,0.8852,0.2314,0.0687,1.5711,rough,15.5,0,3.400
5360,171.52,-3.4495,5.7483,0.8852,0.2314,0.0687,1.5711,rough,15.5,0,3.400
5370,171.84,-3.4495,5.7483,0.8852,0.2314,0.0687,1.5711,rough,15.5,0,3.400
5380,172.16,-3.4495,5.7483,0.8852,0.2314,0.0687,1.5711,rough,15.5,0,3.400
5390,172.48,-3.4495,5.7483,0.8852,0.2314,0.0687,1.5711,rough,15.5,0,3.400
5400,172.80,-3.4495,5.7483,0.8852,0.2314,0.0687,1.5711,rough,15.5,0,3.400
5410,173.12,-3.4495,5.7483,0.8852,0.2314,0.0687,1.5711,rough,15.5,0,3.400
5420,173.44,-3.4495,5.7483,0.8852,0.2314,0.0687,1.5711,rough,15.5,0,3.400
5430,173.76,-3.4495,5.7483,0.8852,0.2314,0.0687,1.5711,rough,15.5,0,3.400
5440,174.08,-3.4495,5.7483,0.8852,0.2314,0.0687,1.5711,rough,15.5,0,3.400
5450,174.40,-3.4495,5.7483,0.8852,0.2314,0.0687,1.5711,rough,15.5,0,3.400
5460,174.72,-3.4495,5.7483,0.8852,0.2314,0.0687,1.5711,rough,15.5,0,3.400
5470,175.04,-3.4495,5.7483,0.8852,0.2314,0.0687,1.5711,rough,15.5,0,3.400
5480,175.36,-3.4495,5.7483,0.8852,0.2314,0.0687,1.5711,rough,15.5,0,3.400
5490,175.68,-3.4495,5.7483,0.8852,0.2314,0.0687,1.5711,rough,15.5,0,3.400
5500,176.00,-3.4495,5.7483,0.8852,0.2314,0.0687,1.5711,rough,15.5,0,3.400
5510,176.32,-3.4495,5.7483,0.8852,0.2314,0.0687,1.5711,rough,15.5,0,3.400
5520,176.64,-3.4495,5.7483,0.8852,0.2314,0.0687,1.5711,rough,15.5,0,3.400
5530,176.96,-3.4495,5.7483,0.8852,0.2314,0.0687,1.5711,rough,15.5,0,3.400
5540,177.28,-3.4495,5.7483,0.8852,0.2314,0.0687,1.5711,rough,15.5,0,3.400
5550,177.60,-3.4495,5.7483,0.8852,0.2314,0.0687,1.5711,rough,15.5,0,3.400
5560,177.92,-3.4495,5.7483,0.8852,0.2314,0.0687,1.5711,rough,15.5,0,3.400
5570,178.24,-3.4495,5.7483,0.8852,0.2314,0.0687,1.5711,rough,15.5,0,3.400
5580,178.56,-3.4495,5.7483,0.8852,0.2314,0.0687,1.5711,rough,15.5,0,3.400
5590,178.88,-3.4495,5.7483,0.8852,0.2314,0.0687,1.5711,rough,15.5,0,3.400
5600,179.20,-3.4495,5.7483,0.8852,0.2314,0.0687,1.5711,rough,15.5,0,3.400
5610,179.52,-3.4495,5.7483,0.8852,0.2314,0.0687,1.5711,rough,15.5,0,3.400
5620,179.84,-3.4495,5.7483,0.8852,0.2314,0.0687,1.5711,rough,15.5,0,3.400
5630,180.16,-3.4495,5.7483,0.8852,0.2314,0.0687,1.5711,rough,15.5,0,3.400
5640,180.48,-3.4495,5.7483,0.8852,0.2314,0.0687,1.5711,rough,15.5,0,3.400
5650,180.80,-3.4495,5.7483,0.8852,0.2314,0.0687,1.5711,rough,15.5,0,3.400
5660,181.12,-3.4495,5.7483,0.8852,0.2314,0.0687,1.5711,rough,15.5,0,3.400
5670,181.44,-3.4495,5.7483,0.8852,0.2314,0.0687,1.5711,rough,15.5,0,3.400
5680,181.76,-3.4495,5.7483,0.8852,0.2314,0.0687,1.5711,rough,15.5,0,3.400
5690,182.08,-3.4495,5.7483,0.8852,0.2314,0.0687,1.5711,rough,15.5,0,3.400
5700,182.40,-3.4495,5.7483,0.8852,0.2314,0.0687,1.5711,rough,15.5,0,3.400
5710,182.72,-3.4495,5.7483,0.8852,0.2314,0.0687,1.5711,rough,15.5,0,3.400
5720,183.04,-3.4495,5.7483,0.8852,0.2314,0.0687,1.5711,rough,15.5,0,3.400
5730,183.36,-3.4495,5.7483,0.8852,0.2314,0.0687,1.5711,rough,15.5,0,3.400
5740,183.68,-3.4495,5.7483,0.8852,0.2314,0.0687,1.5711,rough,15.5,0,3.400
5750,184.00,-3.4495,5.7483,0.8852,0.2314,0.0687,1.5711,rough,15.5,0,3.400
5760,184.32,-3.4495,5.7483,0.8852,0.2314,0.0687,1.5711,rough,15.5,0,3.400
5770,184.64,-3.4495,5.7483,0.8852,0.2314,0.0687,1.5711,rough,15.5,0,3.400
5780,184.96,-3.4495,5.7483,0.8852,0.2314,0.0687,1.5711,rough,15.5,0,3.400
5790,185.28,-3.4495,5.7483,0.8852,0.2314,0.0687,1.5711,rough,15.5,0,3.400
5800,185.60,-3.4495,5.7483,0.8852,0.2314,0.0687,1.5711,rough,15.5,0,3.400
5810,185.92,-3.4495,5.7483,0.8852,0.2314,0.0687,1.5711,rough,15.5,0,3.400
5820,186.24,-3.4495,5.7483,0.8852,0.2314,0.0687,1.5711,rough,15.5,0,3.400
5830,186.56,-3.4495,5.7483,0.8852,0.2314,0.0686,1.5711,rough,15.5,0,3.400
5840,186.88,-3.4495,5.7483,0.8852,0.2314,0.0686,1.5711,rough,15.5,0,3.400
5850,187.20,-3.4495,5.7483,0.8852,0.2314,0.0686,1.5711,rough,15.5,0,3.400
5860,187.52,-3.4495,5.7483,0.8852,0.2314,0.0686,1.5711,rough,15.5,0,3.400
5870,187.84,-3.4495,5.7483,0.8852,0.2314,0.0686,1.5711,rough,15.5,0,3.400
5880,188.16,-3.4495,5.7483,0.8852,0.2314,0.0686,1.5711,rough,15.5,0,3.400
5890,188.48,-3.4495,5.7483,0.8852,0.2314,0.0686,1.5711,rough,15.5,0,3.400
5900,188.80,-3.4495,5.7483,0.8852,0.2314,0.0686,1.5711,rough,15.5,0,3.400
5910,189.12,-3.4495,5.7483,0.8852,0.2314,0.0686,1.5711,rough,15.5,0,3.400
5920,189.44,-3.4495,5.7483,0.8852,0.2314,0.0686,1.5711,rough,15.5,0,3.400
5930,189.76,-3.4495,5.7483,0.8852,0.2314,0.0686,1.5711,rough,15.5,0,3.400
5940,190.08,-3.4495,5.7483,0.8852,0.2314,0.0686,1.5711,rough,15.5,0,3.400
5950,190.40,-3.4495,5.7483,0.8852,0.2314,0.0686,1.5711,rough,15.5,0,3.400
5960,190.72,-3.4495,5.7483,0.8852,0.2314,0.0686,1.5711,rough,15.5,0,3.400
5970,191.04,-3.4495,5.7483,0.8852,0.2314,0.0686,1.5711,rough,15.5,0,3.400
5980,191.36,-3.4495,5.7483,0.8852,0.2314,0.0686,1.5711,rough,15.5,0,3.400
5990,191.68,-3.4495,5.7483,0.8852,0.2314,0.0686,1.5711,rough,15.5,0,3.400
6000,192.00,-3.4495,5.7483,0.8852,0.2314,0.0686,1.5711,rough,15.5,0,3.400
6010,192.32,-3.4495,5.7483,0.8852,0.2314,0.0686,1.5711,rough,15.5,0,3.400
6020,192.64,-3.4495,5.7483,0.8852,0.2314,0.0686,1.5711,rough,15.5,0,3.400
6030,192.96,-3.4495,5.7483,0.8852,0.2314,0.0686,1.5711,rough,15.5,0,3.400
6040,193.28,-3.4495,5.7483,0.8852,0.2314,0.0686,1.5711,rough,15.5,0,3.400
6050,193.60,-3.4495,5.7483,0.8852,0.2314,0.0686,1.5711,rough,15.5,0,3.400
6060,193.92,-3.4495,5.7483,0.8852,0.2314,0.0686,1.5711,rough,15.5,0,3.400
6070,194.24,-3.4495,5.7482,0.8852,0.2314,0.0686,1.5711,rough,15.5,0,3.400
6080,194.56,-3.4495,5.7482,0.8852,0.2314,0.0686,1.5711,rough,15.5,0,3.400
6090,194.88,-3.4495,5.7482,0.8852,0.2314,0.0686,1.5711,rough,15.5,0,3.400
6100,195.20,-3.4495,5.7482,0.8852,0.2314,0.0686,1.5711,rough,15.5,0,3.400
6110,195.52,-3.4495,5.7482,0.8852,0.2314,0.0686,1.5711,rough,15.5,0,3.400
6120,195.84,-3.4495,5.7482,0.8852,0.2314,0.0686,1.5711,rough,15.5,0,3.400
6130,196.16,-3.4495,5.7482,0.8852,0.2314,0.0686,1.5711,rough,15.5,0,3.400
6140,196.48,-3.4495,5.7482,0.8852,0.2314,0.0686,1.5711,rough,15.5,0,3.400
6150,196.80,-3.4495,5.7482,0.8852,0.2314,0.0686,1.5711,rough,15.5,0,3.400
6160,197.12,-3.4495,5.7482,0.8852,0.2314,0.0686,1.5711,rough,15.5,0,3.400
6170,197.44,-3.4495,5.7482,0.8852,0.2314,0.0686,1.5711,rough,15.5,0,3.400
6180,197.76,-3.4495,5.7482,0.8852,0.2314,0.0686,1.5711,rough,15.5,0,3.400
6190,198.08,-3.4495,5.7482,0.8852,0.2314,0.0686,1.5711,rough,15.5,0,3.400
6200,198.40,-3.4495,5.7482,0.8852,0.2314,0.0686,1.5711,rough,15.5,0,3.400
6210,198.72,-3.4495,5.7482,0.8852,0.2314,0.0686,1.5711,rough,15.5,0,3.400
6220,199.04,-3.4495,5.7482,0.8852,0.2314,0.0686,1.5711,rough,15.5,0,3.400
6230,199.36,-3.4495,5.7482,0.8852,0.2314,0.0686,1.5711,rough,15.5,0,3.400
6240,199.68,-3.4495,5.7482,0.8852,0.2314,0.0686,1.5711,rough,15.5,0,3.400
6250,200.00,-3.4495,5.7482,0.8852,0.2314,0.0686,1.5711,rough,15.5,0,3.400
6260,200.32,-3.4495,5.7482,0.8852,0.2314,0.0686,1.5711,rough,15.5,0,3.400
6270,200.64,-3.4495,5.7482,0.8852,0.2314,0.0686,1.5711,rough,15.5,0,3.400
6280,200.96,-3.4495,5.7482,0.8852,0.2314,0.0686,1.5711,rough,15.5,0,3.400
6290,201.28,-3.4495,5.7482,0.8852,0.2314,0.0686,1.5711,rough,15.5,0,3.400
6300,201.60,-3.4495,5.7482,0.8852,0.2314,0.0686,1.5711,rough,15.5,0,3.400
6310,201.92,-3.4495,5.7482,0.8852,0.2314,0.0686,1.5711,rough,15.5,0,3.400
6320,202.24,-3.4495,5.7482,0.8852,0.2314,0.0686,1.5711,rough,15.5,0,3.400
6330,202.56,-3.4495,5.7482,0.8852,0.2314,0.0686,1.5711,rough,15.5,0,3.400
6340,202.88,-3.4495,5.7482,0.8852,0.2314,0.0686,1.5711,rough,15.5,0,3.400
6350,203.20,-3.4495,5.7482,0.8852,0.2314,0.0686,1.5711,rough,15.5,0,3.400
6360,203.52,-3.4495,5.7482,0.8852,0.2314,0.0686,1.5711,rough,15.5,0,3.400
6370,203.84,-3.4495,5.7482,0.8852,0.2314,0.0686,1.5711,rough,15.5,0,3.400
6380,204.16,-3.4495,5.7482,0.8852,0.2314,0.0686,1.5711,rough,15.5,0,3.400
6390,204.48,-3.4495,5.7482,0.8852,0.2314,0.0686,1.5711,rough,15.5,0,3.400
6400,204.80,-3.4495,5.7482,0.8852,0.2314,0.0686,1.5711,rough,15.5,0,3.400
6410,205.12,-3.4495,5.7482,0.8852,0.2314,0.0686,1.5711,rough,15.5,0,3.400
6420,205.44,-3.4495,5.7482,0.8852,0.2314,0.0686,1.5711,rough,15.5,0,3.400
6430,205.76,-3.4495,5.7482,0.8852,0.2314,0.0686,1.5711,rough,15.5,0,3.400
6440,206.08,-3.4495,5.7482,0.8852,0.2314,0.0686,1.5711,rough,15.5,0,3.400
6450,206.40,-3.4495,5.7482,0.8852,0.2314,0.0686,1.5711,rough,15.5,0,3.400
6460,206.72,-3.4495,5.7482,0.8852,0.2314,0.0686,1.5711,rough,15.5,0,3.400
6470,207.04,-3.4495,5.7482,0.8852,0.2314,0.0686,1.5711,rough,15.5,0,3.400
6480,207.36,-3.4495,5.7482,0.8852,0.2314,0.0686,1.5711,rough,15.5,0,3.400
6490,207.68,-3.4495,5.7482,0.8852,0.2314,0.0686,1.5711,rough,15.5,0,3.400
6500,208.00,-3.4495,5.7482,0.8852,0.2314,0.0686,1.5711,rough,15.5,0,3.400
6510,208.32,-3.4495,5.7482,0.8852,0.2314,0.0686,1.5711,rough,15.5,0,3.400
6520,208.64,-3.4495,5.7482,0.8852,0.2314,0.0686,1.5711,rough,15.5,0,3.400
6530,208.96,-3.4495,5.7482,0.8852,0.2314,0.0686,1.5711,rough,15.5,0,3.400
6540,209.28,-3.4495,5.7482,0.8852,0.2314,0.0686,1.5711,rough,15.5,0,3.400
6550,209.60,-3.4495,5.7482,0.8852,0.2314,0.0686,1.5711,rough,15.5,0,3.400
6560,209.92,-3.4495,5.7482,0.8852,0.2314,0.0686,1.5711,rough,15.5,0,3.400
6570,210.24,-3.4495,5.7482,0.8852,0.2314,0.0686,1.5711,rough,15.5,0,3.400
6580,210.56,-3.4495,5.7482,0.8852,0.2314,0.0686,1.5711,rough,15.5,0,3.400
6590,210.88,-3.4495,5.7482,0.8852,0.2314,0.0686,1.5711,rough,15.5,0,3.400
6600,211.20,-3.4495,5.7482,0.8852,0.2314,0.0686,1.5711,rough,15.5,0,3.400
6610,211.52,-3.4495,5.7482,0.8852,0.2314,0.0686,1.5711,rough,15.5,0,3.400
6620,211.84,-3.4495,5.7482,0.8852,0.2314,0.0686,1.5711,rough,15.5,0,3.400
6630,212.16,-3.4495,5.7482,0.8852,0.2314,0.0686,1.5711,rough,15.5,0,3.400
6640,212.48,-3.4495,5.7482,0.8852,0.2314,0.0686,1.5711,rough,15.5,0,3.400
6650,212.80,-3.4495,5.7482,0.8852,0.2314,0.0686,1.5711,rough,15.5,0,3.400
6660,213.12,-3.4495,5.7482,0.8852,0.2314,0.0686,1.5711,rough,15.5,0,3.400
6670,213.44,-3.4495,5.7482,0.8852,0.2314,0.0686,1.5711,rough,15.5,0,3.400
6680,213.76,-3.4495,5.7482,0.8852,0.2314,0.0686,1.5711,rough,15.5,0,3.400
6690,214.08,-3.4495,5.7482,0.8852,0.2314,0.0686,1.5711,rough,15.5,0,3.400
6700,214.40,-3.4495,5.7482,0.8852,0.2314,0.0686,1.5711,rough,15.5,0,3.400
6710,214.72,-3.4495,5.7482,0.8852,0.2314,0.0686,1.5711,rough,15.5,0,3.400
6720,215.04,-3.4495,5.7482,0.8852,0.2314,0.0686,1.5711,rough,15.5,0,3.400
6730,215.36,-3.4495,5.7482,0.8852,0.2314,0.0686,1.5711,rough,15.5,0,3.400
6740,215.68,-3.4495,5.7482,0.8852,0.2314,0.0686,1.5711,rough,15.5,0,3.400
6750,216.00,-3.4495,5.7482,0.8852,0.2314,0.0686,1.5711,rough,15.5,0,3.400
6760,216.32,-3.4495,5.7482,0.8852,0.2314,0.0686,1.5711,rough,15.5,0,3.400
6770,216.64,-3.4495,5.7482,0.8852,0.2314,0.0686,1.5711,rough,15.5,0,3.400
6780,216.96,-3.4495,5.7482,0.8852,0.2314,0.0686,1.5711,rough,15.5,0,3.400
6790,217.28,-3.4495,5.7482,0.8852,0.2314,0.0686,1.5711,rough,15.5,0,3.400
6800,217.60,-3.4495,5.7482,0.8852,0.2314,0.0686,1.5711,rough,15.5,0,3.400
6810,217.92,-3.4495,5.7482,0.8852,0.2314,0.0686,1.5711,rough,15.5,0,3.400
6820,218.24,-3.4495,5.7482,0.8852,0.2314,0.0686,1.5711,rough,15.5,0,3.400
6830,218.56,-3.4495,5.7482,0.8852,0.2314,0.0686,1.5711,rough,15.5,0,3.400
6840,218.88,-3.4495,5.7482,0.8852,0.2314,0.0686,1.5711,rough,15.5,0,3.400
6850,219.20,-3.4495,5.7482,0.8852,0.2314,0.0686,1.5711,rough,15.5,0,3.400
6860,219.52,-3.4495,5.7482,0.8852,0.2314,0.0686,1.5711,rough,15.5,0,3.400
6870,219.84,-3.4495,5.7482,0.8852,0.2314,0.0686,1.5711,rough,15.5,0,3.400
6880,220.16,-3.4495,5.7482,0.8852,0.2314,0.0686,1.5711,rough,15.5,0,3.400
6890,220.48,-3.4495,5.7482,0.8852,0.2314,0.0686,1.5711,rough,15.5,0,3.400
6900,220.80,-3.4495,5.7482,0.8852,0.2314,0.0686,1.5711,rough,15.5,0,3.400
6910,221.12,-3.4495,5.7482,0.8852,0.2314,0.0686,1.5711,rough,15.5,0,3.400
6920,221.44,-3.4495,5.7482,0.8852,0.2314,0.0686,1.5711,rough,15.5,0,3.400
6930,221.76,-3.4495,5.7482,0.8852,0.2314,0.0686,1.5711,rough,15.5,0,3.400
6940,222.08,-3.4495,5.7482,0.8852,0.2314,0.0686,1.5711,rough,15.5,0,3.400
6950,222.40,-3.4495,5.7482,0.8852,0.2314,0.0686,1.5711,rough,15.5,0,3.400
6960,222.72,-3.4495,5.7482,0.8852,0.2314,0.0686,1.5711,rough,15.5,0,3.400
6970,223.04,-3.4495,5.7482,0.8852,0.2314,0.0686,1.5711,rough,15.5,0,3.400
6980,223.36,-3.4495,5.7482,0.8852,0.2314,0.0686,1.5711,rough,15.5,0,3.400
6990,223.68,-3.4495,5.7482,0.8852,0.2314,0.0686,1.5711,rough,15.5,0,3.400
7000,224.00,-3.4495,5.7482,0.8852,0.2314,0.0686,1.5711,rough,15.5,0,3.400
7010,224.32,-3.4495,5.7482,0.8852,0.2314,0.0686,1.5711,rough,15.5,0,3.400
7020,224.64,-3.4495,5.7482,0.8852,0.2314,0.0686,1.5711,rough,15.5,0,3.400
7030,224.96,-3.4495,5.7482,0.8852,0.2314,0.0686,1.5711,rough,15.5,0,3.400
7040,225.28,-3.4495,5.7482,0.8852,0.2314,0.0686,1.5711,rough,15.5,0,3.400
7050,225.60,-3.4495,5.7482,0.8852,0.2314,0.0686,1.5711,rough,15.5,0,3.400
7060,225.92,-3.4495,5.7482,0.8852,0.2314,0.0686,1.5711,rough,15.5,0,3.400
7070,226.24,-3.4495,5.7482,0.8852,0.2314,0.0686,1.5711,rough,15.5,0,3.400
7080,226.56,-3.4495,5.7482,0.8852,0.2314,0.0686,1.5711,rough,15.5,0,3.400
7090,226.88,-3.4495,5.7482,0.8852,0.2314,0.0686,1.5711,rough,15.5,0,3.400
7100,227.20,-3.4495,5.7482,0.8852,0.2314,0.0686,1.5711,rough,15.5,0,3.400
7110,227.52,-3.4495,5.7482,0.8852,0.2314,0.0686,1.5711,rough,15.5,0,3.400
7120,227.84,-3.4495,5.7482,0.8852,0.2314,0.0686,1.5711,rough,15.5,0,3.400
7130,228.16,-3.4495,5.7482,0.8852,0.2314,0.0686,1.5711,rough,15.5,0,3.400
7140,228.48,-3.4495,5.7482,0.8852,0.2314,0.0686,1.5711,rough,15.5,0,3.400
7150,228.80,-3.4495,5.7482,0.8852,0.2314,0.0686,1.5711,rough,15.5,0,3.400
7160,229.12,-3.4495,5.7482,0.8852,0.2314,0.0686,1.5711,rough,15.5,0,3.400
7170,229.44,-3.4495,5.7482,0.8852,0.2314,0.0686,1.5711,rough,15.5,0,3.400
7180,229.76,-3.4495,5.7482,0.8852,0.2314,0.0686,1.5711,rough,15.5,0,3.400
7190,230.08,-3.4495,5.7482,0.8852,0.2314,0.0686,1.5711,rough,15.5,0,3.400
7200,230.40,-3.4495,5.7482,0.8852,0.2314,0.0686,1.5711,rough,15.5,0,3.400
7210,230.72,-3.4495,5.7482,0.8852,0.2314,0.0686,1.5711,rough,15.5,0,3.400
7220,231.04,-3.4495,5.7482,0.8852,0.2314,0.0686,1.5711,rough,15.5,0,3.400
7230,231.36,-3.4495,5.7482,0.8852,0.2314,0.0686,1.5711,rough,15.5,0,3.400
7240,231.68,-3.4495,5.7482,0.8852,0.2314,0.0686,1.5711,rough,15.5,0,3.400
7250,232.00,-3.4495,5.7482,0.8852,0.2314,0.0686,1.5711,rough,15.5,0,3.400
7260,232.32,-3.4495,5.7482,0.8852,0.2314,0.0686,1.5711,rough,15.5,0,3.400
7270,232.64,-3.4495,5.7482,0.8852,0.2314,0.0686,1.5711,rough,15.5,0,3.400
7280,232.96,-3.4495,5.7482,0.8852,0.2314,0.0686,1.5711,rough,15.5,0,3.400
7290,233.28,-3.4495,5.7482,0.8852,0.2314,0.0686,1.5711,rough,15.5,0,3.400
7300,233.60,-3.4495,5.7482,0.8852,0.2314,0.0686,1.5711,rough,15.5,0,3.400
7310,233.92,-3.4495,5.7482,0.8852,0.2314,0.0686,1.5711,rough,15.5,0,3.400
7320,234.24,-3.4495,5.7482,0.8852,0.2314,0.0686,1.5711,rough,15.5,0,3.400
7330,234.56,-3.4495,5.7482,0.8852,0.2314,0.0686,1.5711,rough,15.5,0,3.400
7340,234.88,-3.4495,5.7482,0.8852,0.2314,0.0686,1.5711,rough,15.5,0,3.400
7350,235.20,-3.4495,5.7482,0.8852,0.2314,0.0686,1.5711,rough,15.5,0,3.400
7360,235.52,-3.4495,5.7482,0.8852,0.2314,0.0686,1.5711,rough,15.5,0,3.400
7370,235.84,-3.4495,5.7482,0.8852,0.2314,0.0686,1.5711,rough,15.5,0,3.400
7380,236.16,-3.4495,5.7482,0.8852,0.2314,0.0686,1.5711,rough,15.5,0,3.400
7390,236.48,-3.4495,5.7482,0.8852,0.2314,0.0686,1.5711,rough,15.5,0,3.400
7400,236.80,-3.4495,5.7482,0.8852,0.2314,0.0686,1.5711,rough,15.5,0,3.400
7410,237.12,-3.4495,5.7482,0.8852,0.2314,0.0686,1.5711,rough,15.5,0,3.400
7420,237.44,-3.4495,5.7482,0.8852,0.2314,0.0686,1.5711,rough,15.5,0,3.400
7430,237.76,-3.4495,5.7482,0.8852,0.2314,0.0686,1.5711,rough,15.5,0,3.400
7440,238.08,-3.4495,5.7482,0.8852,0.2314,0.0686,1.5711,rough,15.5,0,3.400
7450,238.40,-3.4495,5.7482,0.8852,0.2314,0.0686,1.5711,rough,15.5,0,3.400
7460,238.72,-3.4495,5.7482,0.8852,0.2314,0.0686,1.5711,rough,15.5,0,3.400
7470,239.04,-3.4495,5.7482,0.8852,0.2314,0.0686,1.5711,rough,15.5,0,3.400
7480,239.36,-3.4495,5.7482,0.8852,0.2314,0.0686,1.5711,rough,15.5,0,3.400
7490,239.68,-3.4495,5.7482,0.8852,0.2314,0.0686,1.5711,rough,15.5,0,3.400
7500,240.00,-3.4495,5.7482,0.8852,0.2314,0.0686,1.5711,rough,15.5,0,3.400
7510,240.32,-3.4495,5.7482,0.8852,0.2314,0.0686,1.5711,rough,15.5,0,3.400
7520,240.64,-3.4495,5.7482,0.8852,0.2314,0.0686,1.5711,rough,15.5,0,3.400
7530,240.96,-3.4495,5.7482,0.8852,0.2314,0.0686,1.5711,rough,15.5,0,3.400
7540,241.28,-3.4495,5.7482,0.8852,0.2314,0.0686,1.5711,rough,15.5,0,3.400
7550,241.60,-3.4495,5.7482,0.8852,0.2314,0.0686,1.5711,rough,15.5,0,3.400
7560,241.92,-3.4495,5.7482,0.8852,0.2314,0.0686,1.5711,rough,15.5,0,3.400
7570,242.24,-3.4495,5.7482,0.8852,0.2314,0.0686,1.5711,rough,15.5,0,3.400
7580,242.56,-3.4495,5.7482,0.8852,0.2314,0.0686,1.5711,rough,15.5,0,3.400
7590,242.88,-3.4495,5.7482,0.8852,0.2314,0.0686,1.5711,rough,15.5,0,3.400
7600,243.20,-3.4495,5.7482,0.8852,0.2314,0.0686,1.5711,rough,15.5,0,3.400
7610,243.52,-3.4495,5.7482,0.8852,0.2314,0.0686,1.5711,rough,15.5,0,3.400
7620,243.84,-3.4495,5.7482,0.8852,0.2314,0.0686,1.5711,rough,15.5,0,3.400
7630,244.16,-3.4495,5.7482,0.8852,0.2314,0.0686,1.5711,rough,15.5,0,3.400
7640,244.48,-3.4495,5.7482,0.8852,0.2314,0.0686,1.5711,rough,15.5,0,3.400
7650,244.80,-3.4495,5.7482,0.8852,0.2314,0.0686,1.5711,rough,15.5,0,3.400
7660,245.12,-3.4495,5.7482,0.8852,0.2314,0.0686,1.5711,rough,15.5,0,3.400
7670,245.44,-3.4495,5.7482,0.8852,0.2314,0.0686,1.5711,rough,15.5,0,3.400
7680,245.76,-3.4495,5.7482,0.8852,0.2314,0.0686,1.5711,rough,15.5,0,3.400
7690,246.08,-3.4495,5.7482,0.8852,0.2314,0.0686,1.5711,rough,15.5,0,3.400
7700,246.40,-3.4495,5.7482,0.8852,0.2314,0.0686,1.5711,rough,15.5,0,3.400
7710,246.72,-3.4495,5.7482,0.8852,0.2314,0.0686,1.5711,rough,15.5,0,3.400
7720,247.04,-3.4495,5.7482,0.8852,0.2314,0.0686,1.5711,rough,15.5,0,3.400
7730,247.36,-3.4495,5.7482,0.8852,0.2314,0.0686,1.5711,rough,15.5,0,3.400
7740,247.68,-3.4495,5.7482,0.8852,0.2314,0.0686,1.5711,rough,15.5,0,3.400
7750,248.00,-3.4495,5.7482,0.8852,0.2314,0.0686,1.5711,rough,15.5,0,3.400
7760,248.32,-3.4495,5.7482,0.8852,0.2314,0.0686,1.5711,rough,15.5,0,3.400
7770,248.64,-3.4495,5.7482,0.8852,0.2314,0.0686,1.5711,rough,15.5,0,3.400
7780,248.96,-3.4495,5.7482,0.8852,0.2314,0.0686,1.5711,rough,15.5,0,3.400
7790,249.28,-3.4495,5.7482,0.8852,0.2314,0.0686,1.5711,rough,15.5,0,3.400
7800,249.60,-3.4495,5.7482,0.8852,0.2314,0.0686,1.5711,rough,15.5,0,3.400
7810,249.92,-3.4495,5.7482,0.8852,0.2314,0.0686,1.5711,rough,15.5,0,3.400
7820,250.24,-3.4495,5.7482,0.8852,0.2314,0.0686,1.5711,rough,15.5,0,3.400
7830,250.56,-3.4495,5.7482,0.8852,0.2314,0.0686,1.5711,rough,15.5,0,3.400
7840,250.88,-3.4495,5.7482,0.8852,0.2314,0.0686,1.5711,rough,15.5,0,3.400
7850,251.20,-3.4495,5.7482,0.8852,0.2314,0.0686,1.5711,rough,15.5,0,3.400
7860,251.52,-3.4495,5.7482,0.8852,0.2314,0.0686,1.5711,rough,15.5,0,3.400
7870,251.84,-3.4495,5.7482,0.8852,0.2314,0.0686,1.5711,rough,15.5,0,3.400
7880,252.16,-3.4495,5.7482,0.8852,0.2314,0.0686,1.5711,rough,15.5,0,3.400
7890,252.48,-3.4495,5.7482,0.8852,0.2314,0.0686,1.5711,rough,15.5,0,3.400
7900,252.80,-3.4495,5.7482,0.8852,0.2314,0.0686,1.5711,rough,15.5,0,3.400
7910,253.12,-3.4495,5.7482,0.8852,0.2314,0.0686,1.5711,rough,15.5,0,3.400
7920,253.44,-3.4495,5.7482,0.8852,0.2314,0.0686,1.5711,rough,15.5,0,3.400
7930,253.76,-3.4495,5.7482,0.8852,0.2314,0.0686,1.5711,rough,15.5,0,3.400
7940,254.08,-3.4495,5.7482,0.8852,0.2314,0.0686,1.5711,rough,15.5,0,3.400
7950,254.40,-3.4495,5.7482,0.8852,0.2314,0.0686,1.5711,rough,15.5,0,3.400
7960,254.72,-3.4495,5.7482,0.8852,0.2314,0.0686,1.5711,rough,15.5,0,3.400
7970,255.04,-3.4495,5.7482,0.8852,0.2314,0.0686,1.5711,rough,15.5,0,3.400
7980,255.36,-3.4495,5.7482,0.8852,0.2314,0.0686,1.5711,rough,15.5,0,3.400
7990,255.68,-3.4495,5.7482,0.8852,0.2314,0.0686,1.5711,rough,15.5,0,3.400
8000,256.00,-3.4495,5.7482,0.8852,0.2314,0.0686,1.5711,rough,15.5,0,3.400
8010,256.32,-3.4495,5.7482,0.8852,0.2314,0.0686,1.5711,rough,15.5,0,3.400
8020,256.64,-3.4495,5.7482,0.8852,0.2314,0.0686,1.5711,rough,15.5,0,3.400
8030,256.96,-3.4495,5.7482,0.8852,0.2314,0.0686,1.5711,rough,15.5,0,3.400
8040,257.28,-3.4495,5.7482,0.8852,0.2314,0.0686,1.5711,rough,15.5,0,3.400
8050,257.60,-3.4495,5.7482,0.8852,0.2314,0.0686,1.5711,rough,15.5,0,3.400
8060,257.92,-3.4495,5.7482,0.8852,0.2314,0.0686,1.5711,rough,15.5,0,3.400
8070,258.24,-3.4495,5.7482,0.8852,0.2314,0.0686,1.5711,rough,15.5,0,3.400
8080,258.56,-3.4495,5.7482,0.8852,0.2314,0.0686,1.5711,rough,15.5,0,3.400
8090,258.88,-3.4495,5.7482,0.8852,0.2314,0.0686,1.5711,rough,15.5,0,3.400
8100,259.20,-3.4495,5.7482,0.8852,0.2314,0.0686,1.5711,rough,15.5,0,3.400
8110,259.52,-3.4495,5.7482,0.8852,0.2314,0.0686,1.5711,rough,15.5,0,3.400
8120,259.84,-3.4495,5.7482,0.8852,0.2314,0.0686,1.5711,rough,15.5,0,3.400
8130,260.16,-3.4495,5.7482,0.8852,0.2314,0.0686,1.5711,rough,15.5,0,3.400
8140,260.48,-3.4495,5.7482,0.8852,0.2314,0.0686,1.5711,rough,15.5,0,3.400
8150,260.80,-3.4495,5.7482,0.8852,0.2314,0.0686,1.5711,rough,15.5,0,3.400
