step,time_s,x,y,z,roll,pitch,yaw,terrain,speed,target_idx,dist_to_target
10,0.32,1.0710,-0.7750,0.1859,-0.0000,-0.0433,-0.0000,rough,15.5,0,5.683
20,0.64,1.5165,-0.7882,0.1793,-0.0000,0.0040,-0.1353,rough,15.5,0,5.346
30,0.96,1.9708,-0.8612,0.1799,0.0001,-0.0002,-0.2741,rough,15.5,0,4.977
40,1.28,2.4156,-0.9987,0.1799,-0.0001,-0.0000,-0.3900,rough,15.5,0,4.581
50,1.60,2.8454,-1.1881,0.1799,-0.0001,0.0001,-0.4854,rough,15.5,0,4.165
60,1.92,3.2621,-1.4204,0.1799,-0.0001,0.0000,-0.5517,rough,15.5,0,3.735
70,2.24,3.6650,-1.6792,0.1799,-0.0002,0.0000,-0.6101,rough,15.5,0,3.301
80,2.56,4.0497,-1.9614,0.1799,-0.0002,0.0000,-0.6734,rough,15.5,0,2.868
90,2.88,4.4124,-2.2677,0.1799,-0.0000,0.0000,-0.7433,rough,15.5,0,2.438
100,3.20,4.7489,-2.5989,0.1799,-0.0000,0.0000,-0.8214,rough,15.5,0,2.012
110,3.52,5.0568,-2.9549,0.1799,-0.0001,0.0000,-0.9123,rough,15.5,0,1.592
120,3.84,5.3319,-3.3325,0.1830,0.0001,-0.0219,-1.0272,rough,15.5,0,1.188
130,4.16,5.5333,-3.7137,0.2117,0.0482,-0.1574,-1.1821,rough,15.5,0,0.828
140,4.48,5.5519,-3.9302,0.2215,0.1581,-0.0224,-1.8133,rough,15.5,1,12.305
150,4.80,5.4426,-4.1671,0.2189,0.1608,0.0155,-2.1381,rough,15.5,1,12.487
160,5.12,5.2569,-4.3849,0.2120,0.1331,0.0082,-2.4527,rough,15.5,1,12.627
170,5.44,4.9771,-4.5629,0.1942,0.0364,0.0492,-2.6776,rough,15.5,1,12.705
180,5.76,4.6433,-4.6758,0.1821,0.0008,0.0150,-2.8465,rough,15.5,1,12.713
190,6.08,4.2872,-4.7493,0.1798,0.0001,-0.0002,-2.9987,rough,15.5,1,12.687
200,6.40,3.9398,-4.7915,0.1799,0.0000,-0.0001,3.0092,rough,15.5,1,12.643
210,6.72,3.5638,-4.7289,0.1799,-0.0001,-0.0001,2.7822,rough,15.5,1,12.501
220,7.04,3.1808,-4.5683,0.1798,-0.0002,0.0000,2.6246,rough,15.5,1,12.270
230,7.36,2.8192,-4.3371,0.1799,-0.0001,-0.0001,2.4782,rough,15.5,1,11.983
240,7.68,2.4788,-4.0435,0.1799,-0.0001,-0.0000,2.3628,rough,15.5,1,11.645
250,8.00,2.1668,-3.7045,0.1799,0.0001,-0.0001,2.2593,rough,15.5,1,11.273
260,8.32,1.8822,-3.3294,0.1799,-0.0001,-0.0001,2.1660,rough,15.5,1,10.873
270,8.64,1.6282,-2.9253,0.1799,-0.0001,-0.0001,2.0894,rough,15.5,1,10.453
280,8.96,1.4010,-2.5012,0.1799,-0.0002,-0.0000,2.0258,rough,15.5,1,10.018
290,9.28,1.1991,-2.0616,0.1799,-0.0001,-0.0000,1.9648,rough,15.5,1,9.573
300,9.60,1.0200,-1.6110,0.1799,-0.0002,-0.0000,1.9011,rough,15.5,1,9.121
310,9.92,0.8680,-1.1488,0.1799,-0.0002,-0.0000,1.8436,rough,15.5,1,8.660
320,10.24,0.7413,-0.6777,0.1799,-0.0002,-0.0000,1.7930,rough,15.5,1,8.192
330,10.56,0.6376,-0.1999,0.1799,-0.0002,-0.0000,1.7482,rough,15.5,1,7.719
340,10.88,0.5546,0.2827,0.1799,-0.0001,-0.0000,1.7084,rough,15.5,1,7.242
350,11.20,0.4905,0.7687,0.1799,-0.0001,-0.0000,1.6733,rough,15.5,1,6.762
360,11.52,0.4429,1.2568,0.1799,-0.0001,-0.0000,1.6423,rough,15.5,1,6.279
370,11.84,0.4102,1.7464,0.1799,-0.0001,-0.0000,1.6144,rough,15.5,1,5.795
380,12.16,0.3908,2.2370,0.1799,-0.0001,-0.0000,1.5893,rough,15.5,1,5.310
390,12.48,0.3836,2.7281,0.1799,-0.0001,-0.0000,1.5658,rough,15.5,1,4.824
400,12.80,0.3879,3.2194,0.1799,0.0003,-0.0006,1.5439,rough,15.5,1,4.337
410,13.12,0.4028,3.7109,0.1799,0.0002,0.0003,1.5233,rough,15.5,1,3.849
420,13.44,0.4277,4.2018,0.1799,-0.0000,0.0001,1.5034,rough,15.5,1,3.360
430,13.76,0.4651,4.6859,0.1870,0.0146,-0.0285,1.4872,rough,15.5,1,2.878
440,14.08,0.4372,5.0130,0.2119,0.0124,-0.1958,1.1820,rough,15.5,1,2.564
450,14.40,0.3904,5.1405,0.2468,0.1099,-0.1863,0.4625,rough,15.5,1,2.451
460,14.72,0.3653,5.1993,0.2562,0.1688,-0.1181,0.2320,rough,15.5,1,2.401
470,15.04,0.3552,5.2595,0.2703,0.2272,-0.0782,0.1240,rough,15.5,1,2.346
480,15.36,0.3510,5.2900,0.2792,0.2507,-0.0782,0.0959,rough,15.5,1,2.318
490,15.68,0.3504,5.3053,0.2832,0.2665,-0.0655,0.0521,rough,15.5,1,2.304
500,16.00,0.3500,5.3195,0.2870,0.2779,-0.0626,0.0353,rough,15.5,1,2.290
510,16.32,0.3502,5.3263,0.2891,0.2850,-0.0589,0.0139,rough,15.5,1,2.284
520,16.64,0.3504,5.3304,0.2903,0.2893,-0.0567,0.0007,rough,15.5,1,2.280
530,16.96,0.3511,5.3324,0.2910,0.2916,-0.0549,-0.0092,rough,15.5,1,2.277
540,17.28,0.3512,5.3309,0.2909,0.2922,-0.0528,-0.0228,rough,15.5,1,2.279
550,17.60,0.3504,5.3263,0.2896,0.2901,-0.0497,-0.0307,rough,15.5,1,2.284
560,17.92,0.3503,5.3196,0.2882,0.2867,-0.0498,-0.0386,rough,15.5,1,2.290
570,18.24,0.3500,5.3123,0.2866,0.2822,-0.0506,-0.0405,rough,15.5,1,2.297
580,18.56,0.3498,5.3047,0.2845,0.2774,-0.0493,-0.0420,rough,15.5,1,2.304
590,18.88,0.3492,5.2948,0.2817,0.2690,-0.0515,-0.0271,rough,15.5,1,2.314
600,19.20,0.3495,5.2887,0.2800,0.2635,-0.0539,-0.0137,rough,15.5,1,2.320
610,19.52,0.3495,5.2868,0.2794,0.2618,-0.0546,-0.0095,rough,15.5,1,2.322
620,19.84,0.3497,5.2862,0.2792,0.2613,-0.0546,-0.0092,rough,15.5,1,2.322
630,20.16,0.3498,5.2859,0.2792,0.2612,-0.0544,-0.0101,rough,15.5,1,2.322
640,20.48,0.3497,5.2853,0.2790,0.2604,-0.0550,-0.0072,rough,15.5,1,2.323
650,20.80,0.3498,5.2854,0.2790,0.2606,-0.0548,-0.0077,rough,15.5,1,2.323
660,21.12,0.3497,5.2851,0.2789,0.2602,-0.0551,-0.0062,rough,15.5,1,2.323
670,21.44,0.3497,5.2853,0.2790,0.2604,-0.0550,-0.0069,rough,15.5,1,2.323
680,21.76,0.3498,5.2854,0.2790,0.2606,-0.0548,-0.0079,rough,15.5,1,2.323
690,22.08,0.3499,5.2854,0.2790,0.2607,-0.0546,-0.0089,rough,15.5,1,2.323
700,22.40,0.3498,5.2853,0.2790,0.2604,-0.0550,-0.0069,rough,15.5,1,2.323
710,22.72,0.3498,5.2854,0.2790,0.2605,-0.0548,-0.0076,rough,15.5,1,2.323
720,23.04,0.3499,5.2855,0.2790,0.2607,-0.0547,-0.0082,rough,15.5,1,2.323
730,23.36,0.3497,5.2852,0.2789,0.2603,-0.0551,-0.0063,rough,15.5,1,2.323
740,23.68,0.3498,5.2853,0.2790,0.2604,-0.0550,-0.0068,rough,15.5,1,2.323
750,24.00,0.3498,5.2854,0.2790,0.2606,-0.0548,-0.0075,rough,15.5,1,2.323
760,24.32,0.3498,5.2854,0.2790,0.2607,-0.0547,-0.0084,rough,15.5,1,2.323
770,24.64,0.3497,5.2852,0.2790,0.2603,-0.0550,-0.0066,rough,15.5,1,2.323
780,24.96,0.3498,5.2854,0.2790,0.2605,-0.0548,-0.0076,rough,15.5,1,2.323
790,25.28,0.3499,5.2854,0.2790,0.2607,-0.0546,-0.0087,rough,15.5,1,2.323
800,25.60,0.3497,5.2852,0.2790,0.2603,-0.0550,-0.0066,rough,15.5,1,2.323
810,25.92,0.3498,5.2853,0.2790,0.2605,-0.0548,-0.0077,rough,15.5,1,2.323
820,26.24,0.3498,5.2854,0.2790,0.2606,-0.0547,-0.0082,rough,15.5,1,2.323
830,26.56,0.3499,5.2855,0.2790,0.2607,-0.0546,-0.0088,rough,15.5,1,2.323
840,26.88,0.3498,5.2853,0.2790,0.2604,-0.0550,-0.0065,rough,15.5,1,2.323
850,27.20,0.3498,5.2853,0.2790,0.2605,-0.0549,-0.0073,rough,15.5,1,2.323
860,27.52,0.3498,5.2854,0.2790,0.2606,-0.0547,-0.0081,rough,15.5,1,2.323
870,27.84,0.3497,5.2852,0.2789,0.2603,-0.0551,-0.0063,rough,15.5,1,2.323
880,28.16,0.3498,5.2853,0.2790,0.2604,-0.0549,-0.0071,rough,15.5,1,2.323
890,28.48,0.3499,5.2854,0.2790,0.2606,-0.0548,-0.0075,rough,15.5,1,2.323
900,28.80,0.3498,5.2854,0.2790,0.2607,-0.0547,-0.0082,rough,15.5,1,2.323
910,29.12,0.3496,5.2851,0.2789,0.2603,-0.0551,-0.0063,rough,15.5,1,2.323
920,29.44,0.3498,5.2852,0.2790,0.2605,-0.0548,-0.0078,rough,15.5,1,2.323
930,29.76,0.3499,5.2854,0.2790,0.2607,-0.0546,-0.0086,rough,15.5,1,2.323
940,30.08,0.3497,5.2852,0.2790,0.2603,-0.0550,-0.0067,rough,15.5,1,2.323
950,30.40,0.3498,5.2854,0.2790,0.2605,-0.0549,-0.0072,rough,15.5,1,2.323
960,30.72,0.3496,5.2851,0.2789,0.2601,-0.0553,-0.0054,rough,15.5,1,2.323
970,31.04,0.3497,5.2851,0.2789,0.2603,-0.0550,-0.0066,rough,15.5,1,2.323
980,31.36,0.3498,5.2853,0.2790,0.2604,-0.0549,-0.0071,rough,15.5,1,2.323
990,31.68,0.3498,5.2853,0.2790,0.2606,-0.0547,-0.0084,rough,15.5,1,2.323
1000,32.00,0.3497,5.2852,0.2789,0.2603,-0.0550,-0.0069,rough,15.5,1,2.323
1010,32.32,0.3498,5.2853,0.2790,0.2605,-0.0548,-0.0078,rough,15.5,1,2.323
1020,32.64,0.3496,5.2850,0.2789,0.2602,-0.0551,-0.0060,rough,15.5,1,2.323
1030,32.96,0.3498,5.2852,0.2790,0.2604,-0.0550,-0.0068,rough,15.5,1,2.323
1040,33.28,0.3498,5.2853,0.2790,0.2605,-0.0548,-0.0076,rough,15.5,1,2.323
1050,33.60,0.3499,5.2854,0.2790,0.2607,-0.0546,-0.0088,rough,15.5,1,2.323
1060,33.92,0.3497,5.2852,0.2790,0.2604,-0.0550,-0.0066,rough,15.5,1,2.323
1070,34.24,0.3498,5.2854,0.2790,0.2605,-0.0548,-0.0075,rough,15.5,1,2.323
1080,34.56,0.3498,5.2854,0.2790,0.2606,-0.0547,-0.0084,rough,15.5,1,2.323
1090,34.88,0.3497,5.2852,0.2789,0.2603,-0.0550,-0.0069,rough,15.5,1,2.323
1100,35.20,0.3499,5.2854,0.2790,0.2605,-0.0549,-0.0074,rough,15.5,1,2.323
1110,35.52,0.3496,5.2850,0.2789,0.2601,-0.0553,-0.0053,rough,15.5,1,2.323
1120,35.84,0.3497,5.2851,0.2789,0.2602,-0.0551,-0.0063,rough,15.5,1,2.323
1130,36.16,0.3497,5.2853,0.2790,0.2604,-0.0550,-0.0069,rough,15.5,1,2.323
1140,36.48,0.3498,5.2854,0.2790,0.2606,-0.0548,-0.0078,rough,15.5,1,2.323
1150,36.80,0.3497,5.2851,0.2789,0.2602,-0.0551,-0.0061,rough,15.5,1,2.323
1160,37.12,0.3498,5.2852,0.2790,0.2604,-0.0549,-0.0070,rough,15.5,1,2.323
1170,37.44,0.3498,5.2853,0.2790,0.2606,-0.0547,-0.0081,rough,15.5,1,2.323
1180,37.76,0.3499,5.2855,0.2790,0.2607,-0.0545,-0.0090,rough,15.5,1,2.323
1190,38.08,0.3498,5.2852,0.2790,0.2604,-0.0549,-0.0074,rough,15.5,1,2.323
1200,38.40,0.3498,5.2853,0.2790,0.2606,-0.0547,-0.0084,rough,15.5,1,2.323
1210,38.72,0.3497,5.2852,0.2789,0.2603,-0.0550,-0.0066,rough,15.5,1,2.323
1220,39.04,0.3498,5.2853,0.2790,0.2605,-0.0548,-0.0075,rough,15.5,1,2.323
1230,39.36,0.3499,5.2855,0.2790,0.2607,-0.0547,-0.0083,rough,15.5,1,2.323
1240,39.68,0.3499,5.2855,0.2791,0.2608,-0.0545,-0.0092,rough,15.5,1,2.323
1250,40.00,0.3498,5.2853,0.2790,0.2605,-0.0548,-0.0075,rough,15.5,1,2.323
1260,40.32,0.3499,5.2854,0.2790,0.2607,-0.0546,-0.0086,rough,15.5,1,2.323
1270,40.64,0.3497,5.2852,0.2789,0.2603,-0.0551,-0.0061,rough,15.5,1,2.323
1280,40.96,0.3497,5.2853,0.2790,0.2604,-0.0550,-0.0066,rough,15.5,1,2.323
1290,41.28,0.3498,5.2854,0.2790,0.2606,-0.0548,-0.0077,rough,15.5,1,2.323
1300,41.60,0.3498,5.2855,0.2790,0.2607,-0.0546,-0.0086,rough,15.5,1,2.323
1310,41.92,0.3497,5.2853,0.2790,0.2604,-0.0550,-0.0065,rough,15.5,1,2.323
1320,42.24,0.3498,5.2854,0.2790,0.2605,-0.0549,-0.0075,rough,15.5,1,2.323
1330,42.56,0.3496,5.2851,0.2789,0.2602,-0.0552,-0.0056,rough,15.5,1,2.323
1340,42.88,0.3499,5.2856,0.2791,0.2608,-0.0545,-0.0092,rough,15.5,1,2.323
1350,43.20,0.3497,5.2853,0.2790,0.2605,-0.0549,-0.0074,rough,15.5,1,2.323
1360,43.52,0.3498,5.2854,0.2790,0.2606,-0.0547,-0.0084,rough,15.5,1,2.323
1370,43.84,0.3497,5.2851,0.2789,0.2603,-0.0551,-0.0064,rough,15.5,1,2.323
1380,44.16,0.3498,5.2853,0.2790,0.2605,-0.0548,-0.0075,rough,15.5,1,2.323
1390,44.48,0.3499,5.2854,0.2790,0.2607,-0.0546,-0.0085,rough,15.5,1,2.323
1400,44.80,0.3497,5.2852,0.2790,0.2604,-0.0550,-0.0069,rough,15.5,1,2.323
1410,45.12,0.3498,5.2853,0.2790,0.2605,-0.0548,-0.0080,rough,15.5,1,2.323
1420,45.44,0.3497,5.2851,0.2789,0.2602,-0.0551,-0.0062,rough,15.5,1,2.323
1430,45.76,0.3498,5.2853,0.2790,0.2604,-0.0549,-0.0071,rough,15.5,1,2.323
1440,46.08,0.3498,5.2853,0.2790,0.2606,-0.0547,-0.0082,rough,15.5,1,2.323
1450,46.40,0.3497,5.2852,0.2789,0.2603,-0.0551,-0.0064,rough,15.5,1,2.323
1460,46.72,0.3498,5.2852,0.2790,0.2604,-0.0549,-0.0073,rough,15.5,1,2.323
1470,47.04,0.3499,5.2854,0.2790,0.2607,-0.0547,-0.0082,rough,15.5,1,2.323
1480,47.36,0.3499,5.2855,0.2791,0.2608,-0.0545,-0.0090,rough,15.5,1,2.323
1490,47.68,0.3497,5.2852,0.2790,0.2604,-0.0549,-0.0070,rough,15.5,1,2.323
1500,48.00,0.3498,5.2854,0.2790,0.2605,-0.0548,-0.0075,rough,15.5,1,2.323
1510,48.32,0.3499,5.2855,0.2791,0.2607,-0.0547,-0.0083,rough,15.5,1,2.323
1520,48.64,0.3497,5.2852,0.2790,0.2603,-0.0551,-0.0064,rough,15.5,1,2.323
1530,48.96,0.3497,5.2852,0.2790,0.2605,-0.0549,-0.0075,rough,15.5,1,2.323
1540,49.28,0.3498,5.2854,0.2790,0.2606,-0.0547,-0.0081,rough,15.5,1,2.323
1550,49.60,0.3499,5.2855,0.2790,0.2607,-0.0546,-0.0088,rough,15.5,1,2.323
1560,49.92,0.3497,5.2852,0.2790,0.2604,-0.0550,-0.0069,rough,15.5,1,2.323
1570,50.24,0.3497,5.2853,0.2790,0.2605,-0.0548,-0.0077,rough,15.5,1,2.323
1580,50.56,0.3498,5.2853,0.2790,0.2606,-0.0547,-0.0084,rough,15.5,1,2.323
1590,50.88,0.3497,5.2851,0.2789,0.2602,-0.0551,-0.0061,rough,15.5,1,2.323
1600,51.20,0.3497,5.2852,0.2790,0.2604,-0.0549,-0.0071,rough,15.5,1,2.323
1610,51.52,0.3498,5.2853,0.2790,0.2606,-0.0547,-0.0081,rough,15.5,1,2.323
1620,51.84,0.3497,5.2851,0.2789,0.2602,-0.0551,-0.0060,rough,15.5,1,2.323
1630,52.16,0.3498,5.2852,0.2790,0.2604,-0.0549,-0.0072,rough,15.5,1,2.323
1640,52.48,0.3499,5.2854,0.2790,0.2606,-0.0548,-0.0079,rough,15.5,1,2.323
1650,52.80,0.3499,5.2855,0.2790,0.2607,-0.0546,-0.0089,rough,15.5,1,2.323
1660,53.12,0.3498,5.2852,0.2790,0.2604,-0.0550,-0.0067,rough,15.5,1,2.323
1670,53.44,0.3498,5.2854,0.2790,0.2605,-0.0548,-0.0076,rough,15.5,1,2.323
1680,53.76,0.3497,5.2851,0.2789,0.2602,-0.0552,-0.0057,rough,15.5,1,2.323
1690,54.08,0.3497,5.2852,0.2790,0.2603,-0.0550,-0.0066,rough,15.5,1,2.323
1700,54.40,0.3498,5.2854,0.2790,0.2605,-0.0549,-0.0074,rough,15.5,1,2.323
1710,54.72,0.3499,5.2854,0.2790,0.2607,-0.0547,-0.0082,rough,15.5,1,2.323
1720,55.04,0.3499,5.2855,0.2791,0.2608,-0.0546,-0.0090,rough,15.5,1,2.323
1730,55.36,0.3498,5.2852,0.2790,0.2605,-0.0548,-0.0076,rough,15.5,1,2.323
1740,55.68,0.3499,5.2854,0.2790,0.2606,-0.0547,-0.0080,rough,15.5,1,2.323
1750,56.00,0.3497,5.2851,0.2789,0.2602,-0.0552,-0.0059,rough,15.5,1,2.323
1760,56.32,0.3497,5.2852,0.2790,0.2604,-0.0550,-0.0066,rough,15.5,1,2.323
1770,56.64,0.3498,5.2854,0.2790,0.2606,-0.0548,-0.0075,rough,15.5,1,2.323
1780,56.96,0.3498,5.2854,0.2790,0.2607,-0.0546,-0.0087,rough,15.5,1,2.323
1790,57.28,0.3497,5.2852,0.2790,0.2604,-0.0550,-0.0067,rough,15.5,1,2.323
1800,57.60,0.3498,5.2853,0.2790,0.2606,-0.0547,-0.0080,rough,15.5,1,2.323
1810,57.92,0.3499,5.2855,0.2790,0.2607,-0.0546,-0.0087,rough,15.5,1,2.323
1820,58.24,0.3498,5.2853,0.2790,0.2604,-0.0550,-0.0067,rough,15.5,1,2.323
1830,58.56,0.3498,5.2854,0.2790,0.2606,-0.0548,-0.0078,rough,15.5,1,2.323
1840,58.88,0.3499,5.2854,0.2790,0.2607,-0.0546,-0.0088,rough,15.5,1,2.323
1850,59.20,0.3498,5.2853,0.2790,0.2604,-0.0550,-0.0065,rough,15.5,1,2.323
1860,59.52,0.3497,5.2853,0.2790,0.2605,-0.0549,-0.0075,rough,15.5,1,2.323
1870,59.84,0.3498,5.2854,0.2790,0.2607,-0.0546,-0.0086,rough,15.5,1,2.323
1880,60.16,0.3497,5.2852,0.2789,0.2603,-0.0550,-0.0068,rough,15.5,1,2.323
1890,60.48,0.3499,5.2854,0.2790,0.2606,-0.0548,-0.0076,rough,15.5,1,2.323
1900,60.80,0.3499,5.2855,0.2790,0.2607,-0.0546,-0.0085,rough,15.5,1,2.323
1910,61.12,0.3499,5.2856,0.2791,0.2608,-0.0545,-0.0091,rough,15.5,1,2.323
1920,61.44,0.3497,5.2853,0.2790,0.2604,-0.0549,-0.0073,rough,15.5,1,2.323
1930,61.76,0.3496,5.2851,0.2789,0.2601,-0.0552,-0.0055,rough,15.5,1,2.323
1940,62.08,0.3497,5.2851,0.2789,0.2602,-0.0551,-0.0063,rough,15.5,1,2.323
1950,62.40,0.3498,5.2853,0.2790,0.2605,-0.0549,-0.0074,rough,15.5,1,2.323
1960,62.72,0.3499,5.2854,0.2790,0.2607,-0.0546,-0.0087,rough,15.5,1,2.323
1970,63.04,0.3497,5.2852,0.2790,0.2604,-0.0549,-0.0071,rough,15.5,1,2.323
1980,63.36,0.3498,5.2854,0.2790,0.2605,-0.0548,-0.0075,rough,15.5,1,2.323
1990,63.68,0.3496,5.2851,0.2789,0.2602,-0.0552,-0.0059,rough,15.5,1,2.323
2000,64.00,0.3497,5.2852,0.2790,0.2604,-0.0549,-0.0071,rough,15.5,1,2.323
2010,64.32,0.3498,5.2854,0.2790,0.2605,-0.0548,-0.0075,rough,15.5,1,2.323
2020,64.64,0.3496,5.2851,0.2789,0.2602,-0.0551,-0.0061,rough,15.5,1,2.323
2030,64.96,0.3498,5.2853,0.2790,0.2604,-0.0550,-0.0066,rough,15.5,1,2.323
2040,65.28,0.3498,5.2854,0.2790,0.2605,-0.0549,-0.0070,rough,15.5,1,2.323
2050,65.60,0.3498,5.2854,0.2790,0.2606,-0.0547,-0.0083,rough,15.5,1,2.323
2060,65.92,0.3497,5.2851,0.2789,0.2602,-0.0551,-0.0063,rough,15.5,1,2.323
2070,66.24,0.3497,5.2853,0.2790,0.2604,-0.0549,-0.0073,rough,15.5,1,2.323
2080,66.56,0.3498,5.2854,0.2790,0.2606,-0.0547,-0.0084,rough,15.5,1,2.323
2090,66.88,0.3497,5.2852,0.2789,0.2603,-0.0550,-0.0068,rough,15.5,1,2.323
2100,67.20,0.3498,5.2853,0.2790,0.2605,-0.0549,-0.0072,rough,15.5,1,2.323
2110,67.52,0.3499,5.2854,0.2790,0.2606,-0.0548,-0.0076,rough,15.5,1,2.323
2120,67.84,0.3498,5.2854,0.2790,0.2607,-0.0546,-0.0087,rough,15.5,1,2.323
2130,68.16,0.3497,5.2852,0.2790,0.2604,-0.0550,-0.0067,rough,15.5,1,2.323
2140,68.48,0.3498,5.2853,0.2790,0.2606,-0.0548,-0.0077,rough,15.5,1,2.323
2150,68.80,0.3498,5.2854,0.2790,0.2607,-0.0546,-0.0088,rough,15.5,1,2.323
2160,69.12,0.3498,5.2853,0.2790,0.2604,-0.0550,-0.0068,rough,15.5,1,2.323
2170,69.44,0.3498,5.2853,0.2790,0.2606,-0.0547,-0.0081,rough,15.5,1,2.323
2180,69.76,0.3499,5.2855,0.2791,0.2607,-0.0546,-0.0089,rough,15.5,1,2.323
2190,70.08,0.3498,5.2853,0.2790,0.2604,-0.0550,-0.0066,rough,15.5,1,2.323
2200,70.40,0.3498,5.2853,0.2790,0.2605,-0.0548,-0.0075,rough,15.5,1,2.323
2210,70.72,0.3499,5.2855,0.2790,0.2607,-0.0546,-0.0085,rough,15.5,1,2.323
2220,71.04,0.3497,5.2852,0.2790,0.2604,-0.0550,-0.0070,rough,15.5,1,2.323
2230,71.36,0.3498,5.2854,0.2790,0.2605,-0.0548,-0.0077,rough,15.5,1,2.323
2240,71.68,0.3499,5.2855,0.2790,0.2607,-0.0547,-0.0083,rough,15.5,1,2.323
2250,72.00,0.3497,5.2852,0.2789,0.2604,-0.0550,-0.0067,rough,15.5,1,2.323
2260,72.32,0.3498,5.2853,0.2790,0.2605,-0.0548,-0.0078,rough,15.5,1,2.323
2270,72.64,0.3496,5.2851,0.2789,0.2602,-0.0552,-0.0057,rough,15.5,1,2.323
2280,72.96,0.3497,5.2852,0.2790,0.2604,-0.0550,-0.0067,rough,15.5,1,2.323
2290,73.28,0.3498,5.2853,0.2790,0.2605,-0.0548,-0.0076,rough,15.5,1,2.323
2300,73.60,0.3498,5.2854,0.2790,0.2606,-0.0547,-0.0085,rough,15.5,1,2.323
2310,73.92,0.3497,5.2851,0.2789,0.2602,-0.0551,-0.0064,rough,15.5,1,2.323
2320,74.24,0.3498,5.2853,0.2790,0.2605,-0.0548,-0.0076,rough,15.5,1,2.323
2330,74.56,0.3498,5.2854,0.2790,0.2606,-0.0547,-0.0080,rough,15.5,1,2.323
2340,74.88,0.3498,5.2855,0.2790,0.2607,-0.0546,-0.0087,rough,15.5,1,2.323
2350,75.20,0.3497,5.2852,0.2790,0.2604,-0.0550,-0.0070,rough,15.5,1,2.323
2360,75.52,0.3498,5.2853,0.2790,0.2605,-0.0548,-0.0078,rough,15.5,1,2.323
2370,75.84,0.3497,5.2851,0.2789,0.2602,-0.0552,-0.0059,rough,15.5,1,2.323
2380,76.16,0.3497,5.2852,0.2790,0.2604,-0.0550,-0.0069,rough,15.5,1,2.323
2390,76.48,0.3498,5.2854,0.2790,0.2606,-0.0548,-0.0079,rough,15.5,1,2.323
2400,76.80,0.3497,5.2851,0.2789,0.2602,-0.0552,-0.0058,rough,15.5,1,2.323
2410,77.12,0.3497,5.2852,0.2790,0.2604,-0.0550,-0.0068,rough,15.5,1,2.323
2420,77.44,0.3498,5.2854,0.2790,0.2605,-0.0548,-0.0075,rough,15.5,1,2.323
2430,77.76,0.3498,5.2855,0.2790,0.2607,-0.0547,-0.0083,rough,15.5,1,2.323
2440,78.08,0.3498,5.2855,0.2791,0.2608,-0.0546,-0.0089,rough,15.5,1,2.323
2450,78.40,0.3498,5.2853,0.2790,0.2604,-0.0550,-0.0068,rough,15.5,1,2.323
2460,78.72,0.3498,5.2854,0.2790,0.2606,-0.0549,-0.0075,rough,15.5,1,2.323
2470,79.04,0.3498,5.2854,0.2790,0.2607,-0.0547,-0.0082,rough,15.5,1,2.323
2480,79.36,0.3497,5.2851,0.2789,0.2603,-0.0550,-0.0066,rough,15.5,1,2.323
2490,79.68,0.3498,5.2852,0.2790,0.2604,-0.0549,-0.0073,rough,15.5,1,2.323
2500,80.00,0.3499,5.2854,0.2790,0.2607,-0.0547,-0.0082,rough,15.5,1,2.323
2510,80.32,0.3499,5.2855,0.2791,0.2608,-0.0545,-0.0091,rough,15.5,1,2.323
2520,80.64,0.3498,5.2853,0.2790,0.2604,-0.0550,-0.0068,rough,15.5,1,2.323
2530,80.96,0.3498,5.2854,0.2790,0.2606,-0.0548,-0.0079,rough,15.5,1,2.323
2540,81.28,0.3498,5.2854,0.2790,0.2607,-0.0546,-0.0087,rough,15.5,1,2.323
2550,81.60,0.3497,5.2853,0.2790,0.2603,-0.0551,-0.0064,rough,15.5,1,2.323
2560,81.92,0.3497,5.2853,0.2790,0.2605,-0.0549,-0.0074,rough,15.5,1,2.323
2570,82.24,0.3496,5.2851,0.2789,0.2601,-0.0552,-0.0057,rough,15.5,1,2.323
2580,82.56,0.3498,5.2852,0.2790,0.2604,-0.0551,-0.0064,rough,15.5,1,2.323
2590,82.88,0.3498,5.2853,0.2790,0.2604,-0.0550,-0.0069,rough,15.5,1,2.323
2600,83.20,0.3498,5.2854,0.2790,0.2606,-0.0548,-0.0079,rough,15.5,1,2.323
2610,83.52,0.3498,5.2855,0.2790,0.2607,-0.0546,-0.0085,rough,15.5,1,2.323
2620,83.84,0.3499,5.2856,0.2791,0.2609,-0.0545,-0.0094,rough,15.5,1,2.323
2630,84.16,0.3498,5.2853,0.2790,0.2605,-0.0549,-0.0072,rough,15.5,1,2.323
2640,84.48,0.3498,5.2853,0.2790,0.2606,-0.0546,-0.0085,rough,15.5,1,2.323
2650,84.80,0.3498,5.2852,0.2790,0.2603,-0.0550,-0.0066,rough,15.5,1,2.323
2660,85.12,0.3498,5.2853,0.2790,0.2605,-0.0548,-0.0078,rough,15.5,1,2.323
2670,85.44,0.3499,5.2854,0.2790,0.2607,-0.0546,-0.0088,rough,15.5,1,2.323
2680,85.76,0.3498,5.2852,0.2790,0.2603,-0.0551,-0.0064,rough,15.5,1,2.323
2690,86.08,0.3498,5.2853,0.2790,0.2605,-0.0549,-0.0072,rough,15.5,1,2.323
2700,86.40,0.3496,5.2850,0.2789,0.2601,-0.0552,-0.0055,rough,15.5,1,2.323
2710,86.72,0.3499,5.2855,0.2791,0.2608,-0.0546,-0.0089,rough,15.5,1,2.323
2720,87.04,0.3498,5.2853,0.2790,0.2604,-0.0549,-0.0070,rough,15.5,1,2.323
2730,87.36,0.3498,5.2854,0.2790,0.2606,-0.0548,-0.0078,rough,15.5,1,2.323
2740,87.68,0.3499,5.2855,0.2791,0.2607,-0.0546,-0.0087,rough,15.5,1,2.323
2750,88.00,0.3497,5.2852,0.2790,0.2604,-0.0550,-0.0067,rough,15.5,1,2.323
2760,88.32,0.3498,5.2854,0.2790,0.2606,-0.0548,-0.0078,rough,15.5,1,2.323
2770,88.64,0.3499,5.2854,0.2790,0.2607,-0.0546,-0.0088,rough,15.5,1,2.323
2780,88.96,0.3498,5.2852,0.2790,0.2604,-0.0550,-0.0069,rough,15.5,1,2.323
2790,89.28,0.3498,5.2854,0.2790,0.2605,-0.0549,-0.0072,rough,15.5,1,2.323
2800,89.60,0.3498,5.2854,0.2790,0.2606,-0.0547,-0.0084,rough,15.5,1,2.323
2810,89.92,0.3499,5.2855,0.2791,0.2608,-0.0545,-0.0093,rough,15.5,1,2.323
2820,90.24,0.3498,5.2853,0.2790,0.2605,-0.0549,-0.0073,rough,15.5,1,2.323
2830,90.56,0.3498,5.2853,0.2790,0.2606,-0.0547,-0.0080,rough,15.5,1,2.323
2840,90.88,0.3497,5.2851,0.2789,0.2602,-0.0551,-0.0063,rough,15.5,1,2.323
2850,91.20,0.3499,5.2853,0.2790,0.2605,-0.0549,-0.0071,rough,15.5,1,2.323
2860,91.52,0.3498,5.2853,0.2790,0.2606,-0.0547,-0.0084,rough,15.5,1,2.323
2870,91.84,0.3497,5.2851,0.2789,0.2602,-0.0551,-0.0065,rough,15.5,1,2.323
2880,92.16,0.3498,5.2853,0.2790,0.2605,-0.0548,-0.0076,rough,15.5,1,2.323
2890,92.48,0.3497,5.2850,0.2789,0.2601,-0.0552,-0.0059,rough,15.5,1,2.323
2900,92.80,0.3499,5.2855,0.2791,0.2608,-0.0545,-0.0093,rough,15.5,1,2.323
2910,93.12,0.3498,5.2853,0.2790,0.2605,-0.0550,-0.0070,rough,15.5,1,2.323
2920,93.44,0.3498,5.2854,0.2790,0.2606,-0.0548,-0.0075,rough,15.5,1,2.323
2930,93.76,0.3498,5.2854,0.2790,0.2607,-0.0547,-0.0085,rough,15.5,1,2.323
2940,94.08,0.3497,5.2852,0.2790,0.2604,-0.0550,-0.0068,rough,15.5,1,2.323
2950,94.40,0.3498,5.2853,0.2790,0.2605,-0.0548,-0.0079,rough,15.5,1,2.323
2960,94.72,0.3499,5.2855,0.2790,0.2607,-0.0547,-0.0083,rough,15.5,1,2.323
2970,95.04,0.3499,5.2855,0.2791,0.2608,-0.0545,-0.0092,rough,15.5,1,2.323
2980,95.36,0.3498,5.2853,0.2790,0.2605,-0.0549,-0.0075,rough,15.5,1,2.323
2990,95.68,0.3499,5.2854,0.2790,0.2607,-0.0547,-0.0082,rough,15.5,1,2.323
3000,96.00,0.3497,5.2852,0.2789,0.2603,-0.0551,-0.0064,rough,15.5,1,2.323
3010,96.32,0.3497,5.2853,0.2790,0.2605,-0.0549,-0.0073,rough,15.5,1,2.323
3020,96.64,0.3498,5.2854,0.2790,0.2606,-0.0547,-0.0081,rough,15.5,1,2.323
3030,96.96,0.3496,5.2851,0.2789,0.2602,-0.0551,-0.0063,rough,15.5,1,2.323
3040,97.28,0.3498,5.2853,0.2790,0.2605,-0.0549,-0.0074,rough,15.5,1,2.323
3050,97.60,0.3498,5.2854,0.2790,0.2607,-0.0546,-0.0086,rough,15.5,1,2.323
3060,97.92,0.3498,5.2852,0.2790,0.2604,-0.0550,-0.0069,rough,15.5,1,2.323
3070,98.24,0.3498,5.2853,0.2790,0.2605,-0.0548,-0.0076,rough,15.5,1,2.323
3080,98.56,0.3497,5.2851,0.2789,0.2602,-0.0552,-0.0059,rough,15.5,1,2.323
3090,98.88,0.3497,5.2852,0.2790,0.2604,-0.0550,-0.0068,rough,15.5,1,2.323
3100,99.20,0.3498,5.2853,0.2790,0.2606,-0.0547,-0.0080,rough,15.5,1,2.323
3110,99.52,0.3496,5.2851,0.2789,0.2602,-0.0551,-0.0062,rough,15.5,1,2.323
3120,99.84,0.3498,5.2853,0.2790,0.2604,-0.0550,-0.0069,rough,15.5,1,2.323
3130,100.16,0.3498,5.2853,0.2790,0.2605,-0.0548,-0.0077,rough,15.5,1,2.323
3140,100.48,0.3497,5.2851,0.2789,0.2602,-0.0551,-0.0060,rough,15.5,1,2.323
3150,100.80,0.3498,5.2852,0.2790,0.2604,-0.0549,-0.0072,rough,15.5,1,2.323
3160,101.12,0.3498,5.2854,0.2790,0.2606,-0.0547,-0.0082,rough,15.5,1,2.323
3170,101.44,0.3497,5.2851,0.2789,0.2602,-0.0551,-0.0063,rough,15.5,1,2.323
3180,101.76,0.3498,5.2853,0.2790,0.2604,-0.0549,-0.0070,rough,15.5,1,2.323
3190,102.08,0.3498,5.2853,0.2790,0.2606,-0.0547,-0.0082,rough,15.5,1,2.323
3200,102.40,0.3497,5.2852,0.2789,0.2602,-0.0551,-0.0060,rough,15.5,1,2.323
3210,102.72,0.3497,5.2853,0.2790,0.2604,-0.0550,-0.0067,rough,15.5,1,2.323
3220,103.04,0.3498,5.2854,0.2790,0.2606,-0.0548,-0.0076,rough,15.5,1,2.323
3230,103.36,0.3496,5.2851,0.2789,0.2602,-0.0551,-0.0061,rough,15.5,1,2.323
3240,103.68,0.3498,5.2853,0.2790,0.2604,-0.0550,-0.0067,rough,15.5,1,2.323
3250,104.00,0.3498,5.2854,0.2790,0.2606,-0.0548,-0.0077,rough,15.5,1,2.323
3260,104.32,0.3499,5.2855,0.2790,0.2607,-0.0546,-0.0085,rough,15.5,1,2.323
3270,104.64,0.3497,5.2853,0.2790,0.2604,-0.0550,-0.0065,rough,15.5,1,2.323
3280,104.96,0.3498,5.2853,0.2790,0.2605,-0.0549,-0.0073,rough,15.5,1,2.323
3290,105.28,0.3496,5.2851,0.2789,0.2602,-0.0552,-0.0058,rough,15.5,1,2.323
3300,105.60,0.3497,5.2852,0.2790,0.2604,-0.0550,-0.0069,rough,15.5,1,2.323
3310,105.92,0.3498,5.2853,0.2790,0.2605,-0.0548,-0.0077,rough,15.5,1,2.323
3320,106.24,0.3498,5.2854,0.2790,0.2607,-0.0546,-0.0087,rough,15.5,1,2.323
3330,106.56,0.3497,5.2852,0.2790,0.2604,-0.0550,-0.0069,rough,15.5,1,2.323
3340,106.88,0.3498,5.2853,0.2790,0.2605,-0.0548,-0.0079,rough,15.5,1,2.323
3350,107.20,0.3496,5.2851,0.2789,0.2602,-0.0551,-0.0062,rough,15.5,1,2.323
3360,107.52,0.3497,5.2852,0.2790,0.2604,-0.0549,-0.0072,rough,15.5,1,2.323
3370,107.84,0.3498,5.2853,0.2790,0.2606,-0.0547,-0.0083,rough,15.5,1,2.323
3380,108.16,0.3497,5.2852,0.2789,0.2603,-0.0550,-0.0067,rough,15.5,1,2.323
3390,108.48,0.3498,5.2852,0.2790,0.2605,-0.0548,-0.0079,rough,15.5,1,2.323
3400,108.80,0.3497,5.2850,0.2789,0.2602,-0.0551,-0.0061,rough,15.5,1,2.323
3410,109.12,0.3497,5.2852,0.2790,0.2604,-0.0549,-0.0071,rough,15.5,1,2.323
3420,109.44,0.3498,5.2853,0.2790,0.2605,-0.0548,-0.0078,rough,15.5,1,2.323
3430,109.76,0.3497,5.2851,0.2789,0.2602,-0.0551,-0.0061,rough,15.5,1,2.323
3440,110.08,0.3497,5.2852,0.2790,0.2604,-0.0549,-0.0072,rough,15.5,1,2.323
3450,110.40,0.3498,5.2854,0.2790,0.2606,-0.0547,-0.0082,rough,15.5,1,2.323
3460,110.72,0.3497,5.2851,0.2789,0.2602,-0.0552,-0.0059,rough,15.5,1,2.323
3470,111.04,0.3497,5.2852,0.2790,0.2604,-0.0550,-0.0070,rough,15.5,1,2.323
3480,111.36,0.3498,5.2853,0.2790,0.2605,-0.0548,-0.0078,rough,15.5,1,2.323
3490,111.68,0.3498,5.2854,0.2790,0.2606,-0.0547,-0.0085,rough,15.5,1,2.323
3500,112.00,0.3497,5.2851,0.2789,0.2603,-0.0551,-0.0064,rough,15.5,1,2.323
3510,112.32,0.3498,5.2853,0.2790,0.2605,-0.0548,-0.0076,rough,15.5,1,2.323
3520,112.64,0.3497,5.2851,0.2789,0.2601,-0.0552,-0.0055,rough,15.5,1,2.323
3530,112.96,0.3498,5.2852,0.2789,0.2603,-0.0551,-0.0062,rough,15.5,1,2.323
3540,113.28,0.3498,5.2852,0.2790,0.2604,-0.0548,-0.0076,rough,15.5,1,2.323
3550,113.60,0.3498,5.2854,0.2790,0.2606,-0.0546,-0.0086,rough,15.5,1,2.323
3560,113.92,0.3497,5.2852,0.2789,0.2604,-0.0549,-0.0070,rough,15.5,1,2.323
3570,114.24,0.3498,5.2853,0.2790,0.2605,-0.0548,-0.0078,rough,15.5,1,2.323
3580,114.56,0.3497,5.2851,0.2789,0.2602,-0.0551,-0.0060,rough,15.5,1,2.323
3590,114.88,0.3498,5.2852,0.2790,0.2604,-0.0549,-0.0071,rough,15.5,1,2.323
3600,115.20,0.3499,5.2854,0.2790,0.2606,-0.0547,-0.0081,rough,15.5,1,2.323
3610,115.52,0.3496,5.2851,0.2789,0.2602,-0.0551,-0.0061,rough,15.5,1,2.323
3620,115.84,0.3497,5.2852,0.2790,0.2604,-0.0549,-0.0072,rough,15.5,1,2.323
3630,116.16,0.3496,5.2850,0.2789,0.2601,-0.0552,-0.0056,rough,15.5,1,2.323
3640,116.48,0.3498,5.2852,0.2790,0.2603,-0.0550,-0.0065,rough,15.5,1,2.323
3650,116.80,0.3498,5.2853,0.2790,0.2605,-0.0548,-0.0076,rough,15.5,1,2.323
3660,117.12,0.3497,5.2851,0.2789,0.2602,-0.0552,-0.0058,rough,15.5,1,2.323
3670,117.44,0.3497,5.2852,0.2790,0.2603,-0.0551,-0.0064,rough,15.5,1,2.323
3680,117.76,0.3497,5.2853,0.2790,0.2605,-0.0549,-0.0074,rough,15.5,1,2.323
3690,118.08,0.3499,5.2854,0.2790,0.2607,-0.0546,-0.0086,rough,15.5,1,2.323
3700,118.40,0.3497,5.2851,0.2789,0.2603,-0.0550,-0.0066,rough,15.5,1,2.323
3710,118.72,0.3498,5.2853,0.2790,0.2604,-0.0549,-0.0070,rough,15.5,1,2.323
3720,119.04,0.3498,5.2854,0.2790,0.2606,-0.0548,-0.0077,rough,15.5,1,2.323
3730,119.36,0.3499,5.2855,0.2790,0.2607,-0.0546,-0.0085,rough,15.5,1,2.323
3740,119.68,0.3497,5.2853,0.2790,0.2604,-0.0550,-0.0067,rough,15.5,1,2.323
3750,120.00,0.3498,5.2854,0.2790,0.2606,-0.0548,-0.0075,rough,15.5,1,2.323
3760,120.32,0.3496,5.2851,0.2789,0.2602,-0.0552,-0.0057,rough,15.5,1,2.323
3770,120.64,0.3497,5.2852,0.2790,0.2604,-0.0550,-0.0070,rough,15.5,1,2.323
3780,120.96,0.3498,5.2854,0.2790,0.2606,-0.0548,-0.0077,rough,15.5,1,2.323
3790,121.28,0.3497,5.2851,0.2789,0.2602,-0.0552,-0.0058,rough,15.5,1,2.323
3800,121.60,0.3497,5.2852,0.2790,0.2604,-0.0549,-0.0071,rough,15.5,1,2.323
3810,121.92,0.3499,5.2854,0.2790,0.2606,-0.0548,-0.0077,rough,15.5,1,2.323
3820,122.24,0.3499,5.2855,0.2790,0.2607,-0.0546,-0.0086,rough,15.5,1,2.323
3830,122.56,0.3497,5.2852,0.2790,0.2604,-0.0550,-0.0069,rough,15.5,1,2.323
3840,122.88,0.3498,5.2853,0.2790,0.2605,-0.0548,-0.0076,rough,15.5,1,2.323
3850,123.20,0.3498,5.2854,0.2790,0.2607,-0.0547,-0.0085,rough,15.5,1,2.323
3860,123.52,0.3497,5.2851,0.2789,0.2603,-0.0551,-0.0064,rough,15.5,1,2.323
3870,123.84,0.3498,5.2853,0.2790,0.2605,-0.0549,-0.0074,rough,15.5,1,2.323
3880,124.16,0.3498,5.2854,0.2790,0.2606,-0.0547,-0.0083,rough,15.5,1,2.323
3890,124.48,0.3499,5.2855,0.2791,0.2608,-0.0545,-0.0092,rough,15.5,1,2.323
3900,124.80,0.3498,5.2853,0.2790,0.2605,-0.0548,-0.0075,rough,15.5,1,2.323
3910,125.12,0.3498,5.2854,0.2790,0.2607,-0.0546,-0.0086,rough,15.5,1,2.323
3920,125.44,0.3499,5.2855,0.2791,0.2608,-0.0545,-0.0092,rough,15.5,1,2.323
3930,125.76,0.3498,5.2853,0.2790,0.2605,-0.0548,-0.0075,rough,15.5,1,2.323
3940,126.08,0.3499,5.2855,0.2790,0.2607,-0.0547,-0.0084,rough,15.5,1,2.323
3950,126.40,0.3497,5.2851,0.2789,0.2603,-0.0551,-0.0064,rough,15.5,1,2.323
3960,126.72,0.3498,5.2853,0.2790,0.2605,-0.0548,-0.0075,rough,15.5,1,2.323
3970,127.04,0.3499,5.2854,0.2790,0.2607,-0.0546,-0.0085,rough,15.5,1,2.323
3980,127.36,0.3499,5.2855,0.2791,0.2608,-0.0545,-0.0094,rough,15.5,1,2.323
3990,127.68,0.3498,5.2853,0.2790,0.2605,-0.0549,-0.0070,rough,15.5,1,2.323
4000,128.00,0.3498,5.2853,0.2790,0.2606,-0.0547,-0.0081,rough,15.5,1,2.323
4010,128.32,0.3499,5.2855,0.2790,0.2608,-0.0545,-0.0090,rough,15.5,1,2.323
4020,128.64,0.3498,5.2852,0.2790,0.2605,-0.0548,-0.0077,rough,15.5,1,2.323
4030,128.96,0.3496,5.2850,0.2789,0.2601,-0.0552,-0.0058,rough,15.5,1,2.323
4040,129.28,0.3497,5.2852,0.2789,0.2603,-0.0550,-0.0067,rough,15.5,1,2.323
4050,129.60,0.3498,5.2853,0.2790,0.2605,-0.0548,-0.0075,rough,15.5,1,2.323
4060,129.92,0.3499,5.2854,0.2790,0.2607,-0.0546,-0.0086,rough,15.5,1,2.323
4070,130.24,0.3497,5.2852,0.2790,0.2604,-0.0549,-0.0070,rough,15.5,1,2.323
4080,130.56,0.3499,5.2854,0.2790,0.2605,-0.0549,-0.0074,rough,15.5,1,2.323
4090,130.88,0.3498,5.2854,0.2790,0.2606,-0.0547,-0.0080,rough,15.5,1,2.323
4100,131.20,0.3497,5.2852,0.2789,0.2603,-0.0551,-0.0063,rough,15.5,1,2.323
4110,131.52,0.3498,5.2853,0.2790,0.2604,-0.0550,-0.0068,rough,15.5,1,2.323
4120,131.84,0.3498,5.2853,0.2790,0.2606,-0.0547,-0.0081,rough,15.5,1,2.323
4130,132.16,0.3499,5.2855,0.2790,0.2607,-0.0546,-0.0087,rough,15.5,1,2.323
4140,132.48,0.3499,5.2856,0.2791,0.2609,-0.0545,-0.0093,rough,15.5,1,2.323
4150,132.80,0.3497,5.2853,0.2790,0.2605,-0.0548,-0.0078,rough,15.5,1,2.323
4160,133.12,0.3499,5.2855,0.2790,0.2607,-0.0547,-0.0082,rough,15.5,1,2.323
4170,133.44,0.3497,5.2852,0.2789,0.2603,-0.0550,-0.0066,rough,15.5,1,2.323
4180,133.76,0.3498,5.2853,0.2790,0.2605,-0.0548,-0.0077,rough,15.5,1,2.323
4190,134.08,0.3499,5.2854,0.2790,0.2607,-0.0546,-0.0089,rough,15.5,1,2.323
4200,134.40,0.3498,5.2852,0.2790,0.2604,-0.0549,-0.0072,rough,15.5,1,2.323
4210,134.72,0.3498,5.2853,0.2790,0.2606,-0.0546,-0.0085,rough,15.5,1,2.323
4220,135.04,0.3497,5.2851,0.2789,0.2603,-0.0550,-0.0070,rough,15.5,1,2.323
4230,135.36,0.3498,5.2853,0.2790,0.2605,-0.0548,-0.0077,rough,15.5,1,2.323
4240,135.68,0.3497,5.2850,0.2789,0.2602,-0.0551,-0.0061,rough,15.5,1,2.323
4250,136.00,0.3498,5.2852,0.2790,0.2604,-0.0549,-0.0071,rough,15.5,1,2.323
4260,136.32,0.3498,5.2853,0.2790,0.2606,-0.0547,-0.0083,rough,15.5,1,2.323
4270,136.64,0.3497,5.2852,0.2789,0.2603,-0.0551,-0.0063,rough,15.5,1,2.323
4280,136.96,0.3497,5.2852,0.2790,0.2604,-0.0549,-0.0074,rough,15.5,1,2.323
4290,137.28,0.3499,5.2855,0.2790,0.2606,-0.0548,-0.0079,rough,15.5,1,2.323
4300,137.60,0.3497,5.2851,0.2789,0.2603,-0.0551,-0.0064,rough,15.5,1,2.323
4310,137.92,0.3498,5.2853,0.2790,0.2605,-0.0548,-0.0075,rough,15.5,1,2.323
4320,138.24,0.3499,5.2855,0.2790,0.2607,-0.0547,-0.0082,rough,15.5,1,2.323
4330,138.56,0.3497,5.2852,0.2789,0.2603,-0.0550,-0.0066,rough,15.5,1,2.323
4340,138.88,0.3498,5.2853,0.2790,0.2605,-0.0548,-0.0077,rough,15.5,1,2.323
4350,139.20,0.3498,5.2854,0.2790,0.2607,-0.0546,-0.0087,rough,15.5,1,2.323
4360,139.52,0.3498,5.2852,0.2790,0.2604,-0.0550,-0.0065,rough,15.5,1,2.323
4370,139.84,0.3497,5.2853,0.2790,0.2605,-0.0549,-0.0071,rough,15.5,1,2.323
4380,140.16,0.3496,5.2851,0.2789,0.2601,-0.0553,-0.0053,rough,15.5,1,2.323
4390,140.48,0.3499,5.2855,0.2791,0.2608,-0.0545,-0.0090,rough,15.5,1,2.323
4400,140.80,0.3499,5.2853,0.2790,0.2605,-0.0549,-0.0070,rough,15.5,1,2.323
4410,141.12,0.3498,5.2853,0.2790,0.2606,-0.0547,-0.0081,rough,15.5,1,2.323
4420,141.44,0.3497,5.2851,0.2789,0.2602,-0.0551,-0.0060,rough,15.5,1,2.323
4430,141.76,0.3497,5.2852,0.2790,0.2604,-0.0550,-0.0067,rough,15.5,1,2.323
4440,142.08,0.3498,5.2853,0.2790,0.2606,-0.0548,-0.0079,rough,15.5,1,2.323
4450,142.40,0.3496,5.2851,0.2789,0.2602,-0.0552,-0.0055,rough,15.5,1,2.323
4460,142.72,0.3497,5.2852,0.2789,0.2603,-0.0551,-0.0063,rough,15.5,1,2.323
4470,143.04,0.3498,5.2853,0.2790,0.2604,-0.0549,-0.0073,rough,15.5,1,2.323
4480,143.36,0.3498,5.2854,0.2790,0.2606,-0.0546,-0.0086,rough,15.5,1,2.323
4490,143.68,0.3498,5.2852,0.2790,0.2603,-0.0550,-0.0066,rough,15.5,1,2.323
4500,144.00,0.3498,5.2853,0.2790,0.2605,-0.0548,-0.0078,rough,15.5,1,2.323
4510,144.32,0.3499,5.2855,0.2790,0.2607,-0.0547,-0.0080,rough,15.5,1,2.323
4520,144.64,0.3498,5.2855,0.2791,0.2608,-0.0546,-0.0088,rough,15.5,1,2.323
4530,144.96,0.3497,5.2852,0.2789,0.2603,-0.0550,-0.0068,rough,15.5,1,2.323
4540,145.28,0.3498,5.2853,0.2790,0.2605,-0.0548,-0.0076,rough,15.5,1,2.323
4550,145.60,0.3498,5.2854,0.2790,0.2607,-0.0546,-0.0087,rough,15.5,1,2.323
4560,145.92,0.3497,5.2852,0.2790,0.2604,-0.0550,-0.0069,rough,15.5,1,2.323
4570,146.24,0.3498,5.2853,0.2790,0.2605,-0.0548,-0.0079,rough,15.5,1,2.323
4580,146.56,0.3499,5.2854,0.2790,0.2607,-0.0546,-0.0086,rough,15.5,1,2.323
4590,146.88,0.3497,5.2852,0.2790,0.2604,-0.0549,-0.0071,rough,15.5,1,2.323
4600,147.20,0.3499,5.2854,0.2790,0.2606,-0.0548,-0.0078,rough,15.5,1,2.323
4610,147.52,0.3499,5.2854,0.2790,0.2607,-0.0546,-0.0085,rough,15.5,1,2.323
4620,147.84,0.3497,5.2853,0.2790,0.2603,-0.0551,-0.0064,rough,15.5,1,2.323
4630,148.16,0.3498,5.2854,0.2790,0.2605,-0.0550,-0.0067,rough,15.5,1,2.323
4640,148.48,0.3498,5.2854,0.2790,0.2606,-0.0548,-0.0078,rough,15.5,1,2.323
4650,148.80,0.3499,5.2855,0.2790,0.2608,-0.0545,-0.0090,rough,15.5,1,2.323
4660,149.12,0.3498,5.2852,0.2790,0.2605,-0.0548,-0.0075,rough,15.5,1,2.323
4670,149.44,0.3497,5.2850,0.2789,0.2601,-0.0552,-0.0056,rough,15.5,1,2.323
4680,149.76,0.3497,5.2852,0.2789,0.2603,-0.0550,-0.0065,rough,15.5,1,2.323
4690,150.08,0.3498,5.2854,0.2790,0.2605,-0.0548,-0.0075,rough,15.5,1,2.323
4700,150.40,0.3496,5.2851,0.2789,0.2602,-0.0552,-0.0058,rough,15.5,1,2.323
4710,150.72,0.3497,5.2852,0.2790,0.2604,-0.0550,-0.0068,rough,15.5,1,2.323
4720,151.04,0.3498,5.2853,0.2790,0.2605,-0.0548,-0.0076,rough,15.5,1,2.323
4730,151.36,0.3499,5.2854,0.2790,0.2607,-0.0546,-0.0085,rough,15.5,1,2.323
4740,151.68,0.3497,5.2853,0.2790,0.2604,-0.0551,-0.0064,rough,15.5,1,2.323
4750,152.00,0.3498,5.2853,0.2790,0.2605,-0.0549,-0.0072,rough,15.5,1,2.323
4760,152.32,0.3498,5.2854,0.2790,0.2606,-0.0547,-0.0080,rough,15.5,1,2.323
4770,152.64,0.3496,5.2851,0.2789,0.2602,-0.0552,-0.0058,rough,15.5,1,2.323
4780,152.96,0.3498,5.2853,0.2790,0.2604,-0.0550,-0.0065,rough,15.5,1,2.323
4790,153.28,0.3498,5.2853,0.2790,0.2605,-0.0549,-0.0073,rough,15.5,1,2.323
4800,153.60,0.3496,5.2850,0.2789,0.2601,-0.0553,-0.0052,rough,15.5,1,2.323
4810,153.92,0.3499,5.2855,0.2791,0.2607,-0.0546,-0.0089,rough,15.5,1,2.323
4820,154.24,0.3498,5.2852,0.2790,0.2604,-0.0549,-0.0070,rough,15.5,1,2.323
4830,154.56,0.3499,5.2854,0.2790,0.2606,-0.0548,-0.0076,rough,15.5,1,2.323
4840,154.88,0.3496,5.2851,0.2789,0.2602,-0.0551,-0.0061,rough,15.5,1,2.323
4850,155.20,0.3498,5.2853,0.2790,0.2604,-0.0550,-0.0066,rough,15.5,1,2.323
4860,155.52,0.3498,5.2854,0.2790,0.2605,-0.0549,-0.0073,rough,15.5,1,2.323
4870,155.84,0.3498,5.2854,0.2790,0.2606,-0.0547,-0.0080,rough,15.5,1,2.323
4880,156.16,0.3497,5.2851,0.2789,0.2603,-0.0550,-0.0065,rough,15.5,1,2.323
4890,156.48,0.3498,5.2853,0.2790,0.2605,-0.0548,-0.0075,rough,15.5,1,2.323
4900,156.80,0.3499,5.2854,0.2790,0.2607,-0.0546,-0.0085,rough,15.5,1,2.323
4910,157.12,0.3497,5.2852,0.2790,0.2604,-0.0550,-0.0066,rough,15.5,1,2.323
4920,157.44,0.3498,5.2853,0.2790,0.2605,-0.0548,-0.0077,rough,15.5,1,2.323
4930,157.76,0.3499,5.2854,0.2790,0.2607,-0.0546,-0.0086,rough,15.5,1,2.323
4940,158.08,0.3498,5.2852,0.2790,0.2604,-0.0550,-0.0068,rough,15.5,1,2.323
4950,158.40,0.3498,5.2853,0.2790,0.2605,-0.0548,-0.0076,rough,15.5,1,2.323
4960,158.72,0.3497,5.2851,0.2789,0.2602,-0.0552,-0.0056,rough,15.5,1,2.323
4970,159.04,0.3499,5.2856,0.2791,0.2608,-0.0545,-0.0092,rough,15.5,1,2.323
4980,159.36,0.3498,5.2853,0.2790,0.2605,-0.0549,-0.0071,rough,15.5,1,2.323
4990,159.68,0.3498,5.2854,0.2790,0.2606,-0.0548,-0.0079,rough,15.5,1,2.323
5000,160.00,0.3498,5.2854,0.2790,0.2607,-0.0547,-0.0086,rough,15.5,1,2.323
5010,160.32,0.3499,5.2855,0.2791,0.2608,-0.0545,-0.0091,rough,15.5,1,2.323
5020,160.64,0.3497,5.2853,0.2790,0.2605,-0.0549,-0.0074,rough,15.5,1,2.323
5030,160.96,0.3499,5.2854,0.2790,0.2607,-0.0547,-0.0082,rough,15.5,1,2.323
5040,161.28,0.3497,5.2852,0.2789,0.2603,-0.0550,-0.0065,rough,15.5,1,2.323
5050,161.60,0.3498,5.2853,0.2790,0.2605,-0.0548,-0.0078,rough,15.5,1,2.323
5060,161.92,0.3499,5.2854,0.2790,0.2607,-0.0546,-0.0085,rough,15.5,1,2.323
5070,162.24,0.3497,5.2852,0.2790,0.2604,-0.0550,-0.0069,rough,15.5,1,2.323
5080,162.56,0.3498,5.2853,0.2790,0.2605,-0.0548,-0.0079,rough,15.5,1,2.323
5090,162.88,0.3499,5.2854,0.2790,0.2607,-0.0546,-0.0086,rough,15.5,1,2.323
5100,163.20,0.3497,5.2852,0.2790,0.2604,-0.0550,-0.0065,rough,15.5,1,2.323
5110,163.52,0.3498,5.2853,0.2790,0.2605,-0.0548,-0.0076,rough,15.5,1,2.323
5120,163.84,0.3499,5.2855,0.2790,0.2607,-0.0547,-0.0085,rough,15.5,1,2.323
5130,164.16,0.3497,5.2852,0.2790,0.2603,-0.0551,-0.0064,rough,15.5,1,2.323
5140,164.48,0.3498,5.2854,0.2790,0.2605,-0.0550,-0.0069,rough,15.5,1,2.323
5150,164.80,0.3498,5.2854,0.2790,0.2606,-0.0548,-0.0079,rough,15.5,1,2.323
5160,165.12,0.3497,5.2851,0.2789,0.2602,-0.0551,-0.0062,rough,15.5,1,2.323
5170,165.44,0.3498,5.2852,0.2790,0.2604,-0.0549,-0.0071,rough,15.5,1,2.323
5180,165.76,0.3498,5.2854,0.2790,0.2606,-0.0548,-0.0078,rough,15.5,1,2.323
5190,166.08,0.3497,5.2851,0.2789,0.2602,-0.0552,-0.0058,rough,15.5,1,2.323
5200,166.40,0.3498,5.2853,0.2790,0.2604,-0.0550,-0.0066,rough,15.5,1,2.323
5210,166.72,0.3498,5.2853,0.2790,0.2605,-0.0548,-0.0075,rough,15.5,1,2.323
5220,167.04,0.3499,5.2855,0.2790,0.2607,-0.0546,-0.0086,rough,15.5,1,2.323
5230,167.36,0.3497,5.2852,0.2790,0.2604,-0.0550,-0.0067,rough,15.5,1,2.323
5240,167.68,0.3498,5.2853,0.2790,0.2605,-0.0548,-0.0077,rough,15.5,1,2.323
5250,168.00,0.3499,5.2855,0.2790,0.2606,-0.0547,-0.0080,rough,15.5,1,2.323
5260,168.32,0.3498,5.2855,0.2790,0.2607,-0.0546,-0.0088,rough,15.5,1,2.323
5270,168.64,0.3497,5.2853,0.2790,0.2604,-0.0550,-0.0066,rough,15.5,1,2.323
5280,168.96,0.3498,5.2853,0.2790,0.2605,-0.0548,-0.0077,rough,15.5,1,2.323
5290,169.28,0.3499,5.2855,0.2790,0.2607,-0.0546,-0.0087,rough,15.5,1,2.323
5300,169.60,0.3497,5.2852,0.2790,0.2604,-0.0549,-0.0070,rough,15.5,1,2.323
5310,169.92,0.3499,5.2854,0.2790,0.2605,-0.0548,-0.0075,rough,15.5,1,2.323
5320,170.24,0.3498,5.2854,0.2790,0.2607,-0.0546,-0.0085,rough,15.5,1,2.323
5330,170.56,0.3497,5.2852,0.2790,0.2603,-0.0550,-0.0065,rough,15.5,1,2.323
5340,170.88,0.3498,5.2853,0.2790,0.2605,-0.0548,-0.0076,rough,15.5,1,2.323
5350,171.20,0.3498,5.2854,0.2790,0.2607,-0.0546,-0.0086,rough,15.5,1,2.323
5360,171.52,0.3497,5.2853,0.2790,0.2603,-0.0551,-0.0061,rough,15.5,1,2.323
5370,171.84,0.3497,5.2853,0.2790,0.2604,-0.0550,-0.0067,rough,15.5,1,2.323
5380,172.16,0.3498,5.2854,0.2790,0.2606,-0.0548,-0.0079,rough,15.5,1,2.323
5390,172.48,0.3498,5.2854,0.2790,0.2607,-0.0547,-0.0086,rough,15.5,1,2.323
5400,172.80,0.3497,5.2852,0.2789,0.2603,-0.0551,-0.0061,rough,15.5,1,2.323
5410,173.12,0.3497,5.2853,0.2790,0.2604,-0.0549,-0.0073,rough,15.5,1,2.323
5420,173.44,0.3499,5.2854,0.2790,0.2607,-0.0546,-0.0084,rough,15.5,1,2.323
5430,173.76,0.3498,5.2852,0.2790,0.2604,-0.0551,-0.0063,rough,15.5,1,2.323
5440,174.08,0.3498,5.2852,0.2790,0.2605,-0.0548,-0.0077,rough,15.5,1,2.323
5450,174.40,0.3499,5.2854,0.2790,0.2607,-0.0546,-0.0085,rough,15.5,1,2.323
5460,174.72,0.3497,5.2852,0.2790,0.2604,-0.0551,-0.0064,rough,15.5,1,2.323
5470,175.04,0.3498,5.2853,0.2790,0.2605,-0.0549,-0.0071,rough,15.5,1,2.323
5480,175.36,0.3498,5.2853,0.2790,0.2606,-0.0547,-0.0081,rough,15.5,1,2.323
5490,175.68,0.3497,5.2851,0.2789,0.2602,-0.0551,-0.0064,rough,15.5,1,2.323
5500,176.00,0.3498,5.2853,0.2790,0.2605,-0.0548,-0.0075,rough,15.5,1,2.323
5510,176.32,0.3499,5.2854,0.2790,0.2607,-0.0546,-0.0086,rough,15.5,1,2.323
5520,176.64,0.3497,5.2851,0.2789,0.2603,-0.0550,-0.0066,rough,15.5,1,2.323
5530,176.96,0.3498,5.2853,0.2790,0.2604,-0.0549,-0.0071,rough,15.5,1,2.323
5540,177.28,0.3498,5.2853,0.2790,0.2606,-0.0548,-0.0080,rough,15.5,1,2.323
5550,177.60,0.3497,5.2851,0.2789,0.2602,-0.0551,-0.0063,rough,15.5,1,2.323
5560,177.92,0.3498,5.2853,0.2790,0.2604,-0.0549,-0.0074,rough,15.5,1,2.323
5570,178.24,0.3499,5.2854,0.2790,0.2607,-0.0547,-0.0083,rough,15.5,1,2.323
5580,178.56,0.3497,5.2851,0.2789,0.2603,-0.0551,-0.0063,rough,15.5,1,2.323
5590,178.88,0.3497,5.2853,0.2790,0.2604,-0.0550,-0.0070,rough,15.5,1,2.323
5600,179.20,0.3498,5.2854,0.2790,0.2606,-0.0548,-0.0079,rough,15.5,1,2.323
5610,179.52,0.3497,5.2851,0.2789,0.2602,-0.0551,-0.0062,rough,15.5,1,2.323
5620,179.84,0.3498,5.2852,0.2790,0.2604,-0.0549,-0.0073,rough,15.5,1,2.323
5630,180.16,0.3496,5.2850,0.2789,0.2601,-0.0552,-0.0056,rough,15.5,1,2.323
5640,180.48,0.3497,5.2852,0.2789,0.2603,-0.0550,-0.0067,rough,15.5,1,2.323
5650,180.80,0.3498,5.2853,0.2790,0.2605,-0.0549,-0.0074,rough,15.5,1,2.323
5660,181.12,0.3499,5.2855,0.2790,0.2607,-0.0547,-0.0080,rough,15.5,1,2.323
5670,181.44,0.3497,5.2851,0.2789,0.2602,-0.0551,-0.0063,rough,15.5,1,2.323
5680,181.76,0.3498,5.2852,0.2790,0.2605,-0.0548,-0.0076,rough,15.5,1,2.323
5690,182.08,0.3498,5.2854,0.2790,0.2606,-0.0547,-0.0082,rough,15.5,1,2.323
5700,182.40,0.3497,5.2851,0.2789,0.2602,-0.0551,-0.0062,rough,15.5,1,2.323
5710,182.72,0.3497,5.2852,0.2790,0.2604,-0.0549,-0.0072,rough,15.5,1,2.323
5720,183.04,0.3498,5.2853,0.2790,0.2606,-0.0547,-0.0081,rough,15.5,1,2.323
5730,183.36,0.3497,5.2851,0.2789,0.2602,-0.0552,-0.0057,rough,15.5,1,2.323
5740,183.68,0.3497,5.2852,0.2790,0.2604,-0.0550,-0.0068,rough,15.5,1,2.323
5750,184.00,0.3498,5.2852,0.2790,0.2605,-0.0548,-0.0076,rough,15.5,1,2.323
5760,184.32,0.3498,5.2854,0.2790,0.2606,-0.0547,-0.0081,rough,15.5,1,2.323
5770,184.64,0.3499,5.2855,0.2790,0.2607,-0.0546,-0.0088,rough,15.5,1,2.323
5780,184.96,0.3498,5.2853,0.2790,0.2604,-0.0550,-0.0066,rough,15.5,1,2.323
5790,185.28,0.3497,5.2853,0.2790,0.2605,-0.0548,-0.0076,rough,15.5,1,2.323
5800,185.60,0.3498,5.2854,0.2790,0.2606,-0.0547,-0.0084,rough,15.5,1,2.323
5810,185.92,0.3497,5.2852,0.2789,0.2603,-0.0551,-0.0063,rough,15.5,1,2.323
5820,186.24,0.3498,5.2852,0.2790,0.2604,-0.0549,-0.0073,rough,15.5,1,2.323
5830,186.56,0.3496,5.2850,0.2789,0.2601,-0.0552,-0.0057,rough,15.5,1,2.323
5840,186.88,0.3497,5.2852,0.2790,0.2604,-0.0550,-0.0068,rough,15.5,1,2.323
5850,187.20,0.3499,5.2854,0.2790,0.2605,-0.0548,-0.0075,rough,15.5,1,2.323
5860,187.52,0.3498,5.2854,0.2790,0.2606,-0.0547,-0.0082,rough,15.5,1,2.323
5870,187.84,0.3499,5.2855,0.2791,0.2607,-0.0546,-0.0087,rough,15.5,1,2.323
5880,188.16,0.3498,5.2853,0.2790,0.2604,-0.0550,-0.0069,rough,15.5,1,2.323
5890,188.48,0.3498,5.2853,0.2790,0.2606,-0.0548,-0.0079,rough,15.5,1,2.323
5900,188.80,0.3496,5.2851,0.2789,0.2602,-0.0552,-0.0056,rough,15.5,1,2.323
5910,189.12,0.3497,5.2851,0.2789,0.2603,-0.0550,-0.0066,rough,15.5,1,2.323
5920,189.44,0.3498,5.2853,0.2790,0.2605,-0.0548,-0.0075,rough,15.5,1,2.323
5930,189.76,0.3499,5.2854,0.2790,0.2607,-0.0546,-0.0086,rough,15.5,1,2.323
5940,190.08,0.3497,5.2852,0.2790,0.2603,-0.0551,-0.0064,rough,15.5,1,2.323
5950,190.40,0.3497,5.2853,0.2790,0.2605,-0.0549,-0.0074,rough,15.5,1,2.323
5960,190.72,0.3499,5.2854,0.2790,0.2607,-0.0546,-0.0085,rough,15.5,1,2.323
5970,191.04,0.3497,5.2852,0.2790,0.2604,-0.0550,-0.0065,rough,15.5,1,2.323
5980,191.36,0.3498,5.2853,0.2790,0.2605,-0.0549,-0.0074,rough,15.5,1,2.323
5990,191.68,0.3498,5.2854,0.2790,0.2607,-0.0546,-0.0086,rough,15.5,1,2.323
6000,192.00,0.3498,5.2852,0.2790,0.2604,-0.0550,-0.0067,rough,15.5,1,2.323
6010,192.32,0.3498,5.2853,0.2790,0.2605,-0.0548,-0.0077,rough,15.5,1,2.323
6020,192.64,0.3497,5.2851,0.2789,0.2602,-0.0552,-0.0058,rough,15.5,1,2.323
6030,192.96,0.3497,5.2852,0.2790,0.2604,-0.0550,-0.0066,rough,15.5,1,2.323
6040,193.28,0.3498,5.2854,0.2790,0.2605,-0.0548,-0.0076,rough,15.5,1,2.323
6050,193.60,0.3499,5.2854,0.2790,0.2607,-0.0546,-0.0088,rough,15.5,1,2.323
6060,193.92,0.3497,5.2852,0.2790,0.2604,-0.0550,-0.0067,rough,15.5,1,2.323
6070,194.24,0.3498,5.2853,0.2790,0.2606,-0.0547,-0.0080,rough,15.5,1,2.323
6080,194.56,0.3499,5.2855,0.2790,0.2607,-0.0547,-0.0084,rough,15.5,1,2.323
6090,194.88,0.3498,5.2855,0.2791,0.2608,-0.0545,-0.0091,rough,15.5,1,2.323
6100,195.20,0.3498,5.2854,0.2790,0.2605,-0.0549,-0.0072,rough,15.5,1,2.323
6110,195.52,0.3496,5.2850,0.2789,0.2601,-0.0552,-0.0057,rough,15.5,1,2.323
6120,195.84,0.3497,5.2852,0.2789,0.2603,-0.0550,-0.0069,rough,15.5,1,2.323
6130,196.16,0.3498,5.2853,0.2790,0.2605,-0.0548,-0.0078,rough,15.5,1,2.323
6140,196.48,0.3499,5.2855,0.2790,0.2607,-0.0547,-0.0083,rough,15.5,1,2.323
6150,196.80,0.3497,5.2852,0.2789,0.2602,-0.0552,-0.0058,rough,15.5,1,2.323
6160,197.12,0.3497,5.2852,0.2790,0.2604,-0.0550,-0.0070,rough,15.5,1,2.323
6170,197.44,0.3498,5.2854,0.2790,0.2606,-0.0548,-0.0078,rough,15.5,1,2.323
6180,197.76,0.3498,5.2854,0.2790,0.2607,-0.0547,-0.0083,rough,15.5,1,2.323
6190,198.08,0.3497,5.2852,0.2789,0.2603,-0.0551,-0.0061,rough,15.5,1,2.323
6200,198.40,0.3498,5.2852,0.2790,0.2605,-0.0549,-0.0074,rough,15.5,1,2.323
6210,198.72,0.3499,5.2854,0.2790,0.2606,-0.0547,-0.0083,rough,15.5,1,2.323
6220,199.04,0.3498,5.2855,0.2791,0.2608,-0.0546,-0.0090,rough,15.5,1,2.323
6230,199.36,0.3498,5.2853,0.2790,0.2605,-0.0549,-0.0073,rough,15.5,1,2.323
6240,199.68,0.3498,5.2854,0.2790,0.2606,-0.0547,-0.0083,rough,15.5,1,2.323
6250,200.00,0.3497,5.2851,0.2789,0.2602,-0.0551,-0.0064,rough,15.5,1,2.323
6260,200.32,0.3498,5.2853,0.2790,0.2605,-0.0548,-0.0076,rough,15.5,1,2.323
6270,200.64,0.3499,5.2854,0.2790,0.2607,-0.0547,-0.0083,rough,15.5,1,2.323
6280,200.96,0.3497,5.2851,0.2789,0.2603,-0.0551,-0.0064,rough,15.5,1,2.323
6290,201.28,0.3498,5.2853,0.2790,0.2605,-0.0548,-0.0077,rough,15.5,1,2.323
6300,201.60,0.3499,5.2855,0.2790,0.2607,-0.0547,-0.0081,rough,15.5,1,2.323
6310,201.92,0.3499,5.2855,0.2791,0.2608,-0.0545,-0.0091,rough,15.5,1,2.323
6320,202.24,0.3498,5.2853,0.2790,0.2605,-0.0549,-0.0072,rough,15.5,1,2.323
6330,202.56,0.3496,5.2850,0.2789,0.2601,-0.0552,-0.0056,rough,15.5,1,2.323
6340,202.88,0.3497,5.2852,0.2789,0.2603,-0.0550,-0.0067,rough,15.5,1,2.323
6350,203.20,0.3498,5.2853,0.2790,0.2605,-0.0549,-0.0072,rough,15.5,1,2.323
6360,203.52,0.3498,5.2854,0.2790,0.2606,-0.0548,-0.0078,rough,15.5,1,2.323
6370,203.84,0.3499,5.2855,0.2791,0.2607,-0.0546,-0.0087,rough,15.5,1,2.323
6380,204.16,0.3497,5.2852,0.2790,0.2604,-0.0550,-0.0069,rough,15.5,1,2.323
6390,204.48,0.3498,5.2854,0.2790,0.2606,-0.0547,-0.0080,rough,15.5,1,2.323
6400,204.80,0.3499,5.2855,0.2790,0.2607,-0.0546,-0.0085,rough,15.5,1,2.323
6410,205.12,0.3497,5.2852,0.2790,0.2604,-0.0550,-0.0070,rough,15.5,1,2.323
6420,205.44,0.3498,5.2853,0.2790,0.2606,-0.0548,-0.0079,rough,15.5,1,2.323
6430,205.76,0.3498,5.2855,0.2790,0.2607,-0.0547,-0.0085,rough,15.5,1,2.323
6440,206.08,0.3497,5.2852,0.2790,0.2604,-0.0550,-0.0070,rough,15.5,1,2.323
6450,206.40,0.3498,5.2853,0.2790,0.2605,-0.0547,-0.0080,rough,15.5,1,2.323
6460,206.72,0.3499,5.2854,0.2790,0.2607,-0.0546,-0.0087,rough,15.5,1,2.323
6470,207.04,0.3499,5.2856,0.2791,0.2608,-0.0545,-0.0092,rough,15.5,1,2.323
6480,207.36,0.3497,5.2853,0.2790,0.2604,-0.0549,-0.0071,rough,15.5,1,2.323
6490,207.68,0.3498,5.2854,0.2790,0.2606,-0.0548,-0.0079,rough,15.5,1,2.323
6500,208.00,0.3497,5.2851,0.2789,0.2602,-0.0551,-0.0060,rough,15.5,1,2.323
6510,208.32,0.3497,5.2852,0.2790,0.2604,-0.0550,-0.0068,rough,15.5,1,2.323
6520,208.64,0.3498,5.2853,0.2790,0.2605,-0.0548,-0.0080,rough,15.5,1,2.323
6530,208.96,0.3497,5.2851,0.2789,0.2602,-0.0552,-0.0058,rough,15.5,1,2.323
6540,209.28,0.3497,5.2852,0.2790,0.2604,-0.0550,-0.0067,rough,15.5,1,2.323
6550,209.60,0.3498,5.2853,0.2790,0.2605,-0.0548,-0.0079,rough,15.5,1,2.323
6560,209.92,0.3498,5.2854,0.2790,0.2607,-0.0546,-0.0086,rough,15.5,1,2.323
6570,210.24,0.3498,5.2853,0.2790,0.2604,-0.0550,-0.0067,rough,15.5,1,2.323
6580,210.56,0.3498,5.2853,0.2790,0.2605,-0.0548,-0.0079,rough,15.5,1,2.323
6590,210.88,0.3497,5.2851,0.2789,0.2602,-0.0551,-0.0062,rough,15.5,1,2.323
6600,211.20,0.3498,5.2852,0.2790,0.2604,-0.0549,-0.0071,rough,15.5,1,2.323
6610,211.52,0.3498,5.2853,0.2790,0.2606,-0.0547,-0.0081,rough,15.5,1,2.323
6620,211.84,0.3497,5.2851,0.2789,0.2603,-0.0550,-0.0065,rough,15.5,1,2.323
6630,212.16,0.3498,5.2853,0.2790,0.2605,-0.0549,-0.0072,rough,15.5,1,2.323
6640,212.48,0.3498,5.2853,0.2790,0.2606,-0.0547,-0.0081,rough,15.5,1,2.323
6650,212.80,0.3497,5.2852,0.2789,0.2603,-0.0551,-0.0063,rough,15.5,1,2.323
6660,213.12,0.3497,5.2852,0.2790,0.2604,-0.0549,-0.0073,rough,15.5,1,2.323
6670,213.44,0.3499,5.2854,0.2790,0.2607,-0.0547,-0.0084,rough,15.5,1,2.323
6680,213.76,0.3497,5.2852,0.2789,0.2603,-0.0550,-0.0067,rough,15.5,1,2.323
6690,214.08,0.3497,5.2853,0.2790,0.2605,-0.0548,-0.0076,rough,15.5,1,2.323
6700,214.40,0.3498,5.2854,0.2790,0.2606,-0.0547,-0.0082,rough,15.5,1,2.323
6710,214.72,0.3499,5.2855,0.2791,0.2608,-0.0546,-0.0090,rough,15.5,1,2.323
6720,215.04,0.3497,5.2853,0.2790,0.2604,-0.0550,-0.0066,rough,15.5,1,2.323
6730,215.36,0.3498,5.2854,0.2790,0.2605,-0.0548,-0.0076,rough,15.5,1,2.323
6740,215.68,0.3499,5.2855,0.2790,0.2607,-0.0547,-0.0085,rough,15.5,1,2.323
6750,216.00,0.3497,5.2851,0.2789,0.2603,-0.0550,-0.0066,rough,15.5,1,2.323
6760,216.32,0.3498,5.2853,0.2790,0.2604,-0.0549,-0.0071,rough,15.5,1,2.323
6770,216.64,0.3498,5.2854,0.2790,0.2606,-0.0547,-0.0080,rough,15.5,1,2.323
6780,216.96,0.3496,5.2851,0.2789,0.2602,-0.0552,-0.0056,rough,15.5,1,2.323
6790,217.28,0.3497,5.2852,0.2789,0.2603,-0.0551,-0.0065,rough,15.5,1,2.323
6800,217.60,0.3498,5.2854,0.2790,0.2605,-0.0549,-0.0073,rough,15.5,1,2.323
6810,217.92,0.3498,5.2854,0.2790,0.2606,-0.0548,-0.0079,rough,15.5,1,2.323
6820,218.24,0.3498,5.2855,0.2790,0.2607,-0.0546,-0.0088,rough,15.5,1,2.323
6830,218.56,0.3497,5.2852,0.2790,0.2604,-0.0549,-0.0070,rough,15.5,1,2.323
6840,218.88,0.3498,5.2853,0.2790,0.2606,-0.0548,-0.0078,rough,15.5,1,2.323
6850,219.20,0.3497,5.2851,0.2789,0.2602,-0.0552,-0.0058,rough,15.5,1,2.323
6860,219.52,0.3497,5.2852,0.2790,0.2604,-0.0549,-0.0071,rough,15.5,1,2.323
6870,219.84,0.3499,5.2854,0.2790,0.2606,-0.0548,-0.0077,rough,15.5,1,2.323
6880,220.16,0.3497,5.2851,0.2789,0.2602,-0.0552,-0.0057,rough,15.5,1,2.323
6890,220.48,0.3499,5.2856,0.2791,0.2608,-0.0545,-0.0093,rough,15.5,1,2.323
6900,220.80,0.3498,5.2853,0.2790,0.2605,-0.0549,-0.0074,rough,15.5,1,2.323
6910,221.12,0.3499,5.2854,0.2790,0.2606,-0.0548,-0.0078,rough,15.5,1,2.323
6920,221.44,0.3499,5.2855,0.2791,0.2607,-0.0546,-0.0086,rough,15.5,1,2.323
6930,221.76,0.3497,5.2852,0.2790,0.2604,-0.0549,-0.0070,rough,15.5,1,2.323
6940,222.08,0.3498,5.2854,0.2790,0.2606,-0.0548,-0.0075,rough,15.5,1,2.323
6950,222.40,0.3498,5.2854,0.2790,0.2607,-0.0547,-0.0083,rough,15.5,1,2.323
6960,222.72,0.3497,5.2852,0.2790,0.2603,-0.0551,-0.0064,rough,15.5,1,2.323
6970,223.04,0.3498,5.2853,0.2790,0.2604,-0.0549,-0.0070,rough,15.5,1,2.323
6980,223.36,0.3498,5.2854,0.2790,0.2606,-0.0547,-0.0083,rough,15.5,1,2.323
6990,223.68,0.3499,5.2855,0.2791,0.2608,-0.0545,-0.0093,rough,15.5,1,2.323
7000,224.00,0.3498,5.2853,0.2790,0.2604,-0.0549,-0.0073,rough,15.5,1,2.323
7010,224.32,0.3498,5.2853,0.2790,0.2606,-0.0547,-0.0080,rough,15.5,1,2.323
7020,224.64,0.3497,5.2851,0.2789,0.2602,-0.0551,-0.0062,rough,15.5,1,2.323
7030,224.96,0.3497,5.2852,0.2790,0.2604,-0.0549,-0.0073,rough,15.5,1,2.323
7040,225.28,0.3498,5.2853,0.2790,0.2606,-0.0547,-0.0084,rough,15.5,1,2.323
7050,225.60,0.3497,5.2851,0.2789,0.2602,-0.0551,-0.0065,rough,15.5,1,2.323
7060,225.92,0.3498,5.2853,0.2790,0.2605,-0.0549,-0.0072,rough,15.5,1,2.323
7070,226.24,0.3496,5.2850,0.2789,0.2601,-0.0552,-0.0056,rough,15.5,1,2.323
7080,226.56,0.3497,5.2852,0.2789,0.2603,-0.0550,-0.0066,rough,15.5,1,2.323
7090,226.88,0.3498,5.2853,0.2790,0.2605,-0.0548,-0.0076,rough,15.5,1,2.323
7100,227.20,0.3499,5.2855,0.2790,0.2607,-0.0547,-0.0082,rough,15.5,1,2.323
7110,227.52,0.3497,5.2852,0.2789,0.2603,-0.0550,-0.0065,rough,15.5,1,2.323
7120,227.84,0.3498,5.2853,0.2790,0.2605,-0.0548,-0.0075,rough,15.5,1,2.323
7130,228.16,0.3498,5.2854,0.2790,0.2607,-0.0546,-0.0087,rough,15.5,1,2.323
7140,228.48,0.3497,5.2852,0.2790,0.2604,-0.0550,-0.0069,rough,15.5,1,2.323
7150,228.80,0.3498,5.2854,0.2790,0.2605,-0.0549,-0.0071,rough,15.5,1,2.323
7160,229.12,0.3498,5.2854,0.2790,0.2606,-0.0547,-0.0081,rough,15.5,1,2.323
7170,229.44,0.3497,5.2851,0.2789,0.2602,-0.0552,-0.0058,rough,15.5,1,2.323
7180,229.76,0.3497,5.2853,0.2790,0.2604,-0.0550,-0.0066,rough,15.5,1,2.323
7190,230.08,0.3498,5.2853,0.2790,0.2605,-0.0548,-0.0079,rough,15.5,1,2.323
7200,230.40,0.3496,5.2851,0.2789,0.2602,-0.0552,-0.0056,rough,15.5,1,2.323
7210,230.72,0.3497,5.2852,0.2789,0.2603,-0.0551,-0.0061,rough,15.5,1,2.323
7220,231.04,0.3497,5.2853,0.2790,0.2604,-0.0549,-0.0072,rough,15.5,1,2.323
7230,231.36,0.3498,5.2853,0.2790,0.2606,-0.0547,-0.0081,rough,15.5,1,2.323
7240,231.68,0.3499,5.2855,0.2790,0.2607,-0.0546,-0.0086,rough,15.5,1,2.323
7250,232.00,0.3497,5.2853,0.2790,0.2604,-0.0550,-0.0065,rough,15.5,1,2.323
7260,232.32,0.3497,5.2853,0.2790,0.2605,-0.0549,-0.0075,rough,15.5,1,2.323
7270,232.64,0.3498,5.2854,0.2790,0.2607,-0.0546,-0.0087,rough,15.5,1,2.323
7280,232.96,0.3498,5.2853,0.2790,0.2604,-0.0551,-0.0064,rough,15.5,1,2.323
7290,233.28,0.3498,5.2853,0.2790,0.2605,-0.0550,-0.0070,rough,15.5,1,2.323
7300,233.60,0.3499,5.2854,0.2790,0.2606,-0.0548,-0.0077,rough,15.5,1,2.323
7310,233.92,0.3496,5.2851,0.2789,0.2602,-0.0551,-0.0060,rough,15.5,1,2.323
7320,234.24,0.3498,5.2853,0.2790,0.2604,-0.0550,-0.0069,rough,15.5,1,2.323
7330,234.56,0.3498,5.2853,0.2790,0.2605,-0.0548,-0.0079,rough,15.5,1,2.323
7340,234.88,0.3498,5.2854,0.2790,0.2607,-0.0546,-0.0087,rough,15.5,1,2.323
7350,235.20,0.3498,5.2852,0.2790,0.2604,-0.0550,-0.0068,rough,15.5,1,2.323
7360,235.52,0.3498,5.2853,0.2790,0.2605,-0.0548,-0.0076,rough,15.5,1,2.323
7370,235.84,0.3498,5.2854,0.2790,0.2607,-0.0547,-0.0085,rough,15.5,1,2.323
7380,236.16,0.3497,5.2852,0.2789,0.2603,-0.0550,-0.0070,rough,15.5,1,2.323
7390,236.48,0.3498,5.2853,0.2790,0.2605,-0.0548,-0.0078,rough,15.5,1,2.323
7400,236.80,0.3498,5.2854,0.2790,0.2607,-0.0547,-0.0085,rough,15.5,1,2.323
7410,237.12,0.3499,5.2856,0.2791,0.2609,-0.0545,-0.0093,rough,15.5,1,2.323
7420,237.44,0.3498,5.2854,0.2790,0.2605,-0.0549,-0.0073,rough,15.5,1,2.323
7430,237.76,0.3498,5.2854,0.2790,0.2606,-0.0548,-0.0079,rough,15.5,1,2.323
7440,238.08,0.3497,5.2852,0.2789,0.2602,-0.0551,-0.0060,rough,15.5,1,2.323
7450,238.40,0.3497,5.2853,0.2790,0.2604,-0.0550,-0.0068,rough,15.5,1,2.323
7460,238.72,0.3498,5.2854,0.2790,0.2605,-0.0548,-0.0076,rough,15.5,1,2.323
7470,239.04,0.3499,5.2854,0.2790,0.2607,-0.0546,-0.0088,rough,15.5,1,2.323
7480,239.36,0.3497,5.2852,0.2790,0.2604,-0.0550,-0.0069,rough,15.5,1,2.323
7490,239.68,0.3499,5.2854,0.2790,0.2606,-0.0548,-0.0077,rough,15.5,1,2.323
7500,240.00,0.3497,5.2851,0.2789,0.2602,-0.0551,-0.0061,rough,15.5,1,2.323
7510,240.32,0.3497,5.2852,0.2790,0.2604,-0.0549,-0.0071,rough,15.5,1,2.323
7520,240.64,0.3498,5.2853,0.2790,0.2606,-0.0547,-0.0081,rough,15.5,1,2.323
7530,240.96,0.3499,5.2855,0.2790,0.2607,-0.0546,-0.0087,rough,15.5,1,2.323
7540,241.28,0.3497,5.2852,0.2790,0.2604,-0.0549,-0.0072,rough,15.5,1,2.323
7550,241.60,0.3498,5.2854,0.2790,0.2606,-0.0547,-0.0080,rough,15.5,1,2.323
7560,241.92,0.3499,5.2855,0.2790,0.2607,-0.0546,-0.0086,rough,15.5,1,2.323
7570,242.24,0.3497,5.2852,0.2790,0.2604,-0.0550,-0.0068,rough,15.5,1,2.323
7580,242.56,0.3498,5.2853,0.2790,0.2605,-0.0547,-0.0080,rough,15.5,1,2.323
7590,242.88,0.3499,5.2854,0.2790,0.2607,-0.0546,-0.0087,rough,15.5,1,2.323
7600,243.20,0.3498,5.2852,0.2790,0.2604,-0.0550,-0.0067,rough,15.5,1,2.323
7610,243.52,0.3498,5.2853,0.2790,0.2605,-0.0547,-0.0080,rough,15.5,1,2.323
7620,243.84,0.3499,5.2855,0.2790,0.2607,-0.0547,-0.0085,rough,15.5,1,2.323
7630,244.16,0.3499,5.2855,0.2791,0.2608,-0.0545,-0.0092,rough,15.5,1,2.323
7640,244.48,0.3498,5.2853,0.2790,0.2605,-0.0548,-0.0077,rough,15.5,1,2.323
7650,244.80,0.3498,5.2854,0.2790,0.2606,-0.0547,-0.0083,rough,15.5,1,2.323
7660,245.12,0.3499,5.2855,0.2791,0.2608,-0.0546,-0.0090,rough,15.5,1,2.323
7670,245.44,0.3497,5.2852,0.2790,0.2604,-0.0549,-0.0072,rough,15.5,1,2.323
7680,245.76,0.3496,5.2850,0.2789,0.2601,-0.0552,-0.0056,rough,15.5,1,2.323
7690,246.08,0.3498,5.2852,0.2790,0.2603,-0.0551,-0.0064,rough,15.5,1,2.323
7700,246.40,0.3498,5.2853,0.2790,0.2604,-0.0549,-0.0071,rough,15.5,1,2.323
7710,246.72,0.3498,5.2853,0.2790,0.2606,-0.0547,-0.0080,rough,15.5,1,2.323
7720,247.04,0.3499,5.2855,0.2790,0.2607,-0.0546,-0.0087,rough,15.5,1,2.323
7730,247.36,0.3498,5.2853,0.2790,0.2604,-0.0550,-0.0066,rough,15.5,1,2.323
7740,247.68,0.3497,5.2853,0.2790,0.2605,-0.0549,-0.0074,rough,15.5,1,2.323
7750,248.00,0.3498,5.2854,0.2790,0.2606,-0.0547,-0.0081,rough,15.5,1,2.323
7760,248.32,0.3499,5.2855,0.2790,0.2607,-0.0546,-0.0089,rough,15.5,1,2.323
7770,248.64,0.3497,5.2853,0.2790,0.2604,-0.0550,-0.0066,rough,15.5,1,2.323
7780,248.96,0.3498,5.2854,0.2790,0.2605,-0.0549,-0.0070,rough,15.5,1,2.323
7790,249.28,0.3498,5.2854,0.2790,0.2606,-0.0547,-0.0083,rough,15.5,1,2.323
7800,249.60,0.3497,5.2852,0.2790,0.2604,-0.0550,-0.0067,rough,15.5,1,2.323
7810,249.92,0.3498,5.2854,0.2790,0.2605,-0.0549,-0.0072,rough,15.5,1,2.323
7820,250.24,0.3499,5.2855,0.2790,0.2607,-0.0547,-0.0080,rough,15.5,1,2.323
7830,250.56,0.3497,5.2851,0.2789,0.2602,-0.0551,-0.0062,rough,15.5,1,2.323
7840,250.88,0.3497,5.2853,0.2790,0.2604,-0.0550,-0.0067,rough,15.5,1,2.323
7850,251.20,0.3498,5.2854,0.2790,0.2606,-0.0549,-0.0074,rough,15.5,1,2.323
7860,251.52,0.3498,5.2854,0.2790,0.2606,-0.0547,-0.0084,rough,15.5,1,2.323
7870,251.84,0.3497,5.2852,0.2790,0.2603,-0.0550,-0.0065,rough,15.5,1,2.323
7880,252.16,0.3498,5.2853,0.2790,0.2605,-0.0548,-0.0079,rough,15.5,1,2.323
7890,252.48,0.3499,5.2854,0.2790,0.2607,-0.0546,-0.0088,rough,15.5,1,2.323
7900,252.80,0.3497,5.2852,0.2790,0.2604,-0.0550,-0.0070,rough,15.5,1,2.323
7910,253.12,0.3498,5.2853,0.2790,0.2605,-0.0548,-0.0078,rough,15.5,1,2.323
7920,253.44,0.3499,5.2855,0.2790,0.2607,-0.0547,-0.0082,rough,15.5,1,2.323
7930,253.76,0.3497,5.2852,0.2790,0.2603,-0.0551,-0.0064,rough,15.5,1,2.323
7940,254.08,0.3498,5.2853,0.2790,0.2604,-0.0549,-0.0072,rough,15.5,1,2.323
7950,254.40,0.3499,5.2854,0.2790,0.2606,-0.0547,-0.0080,rough,15.5,1,2.323
7960,254.72,0.3497,5.2851,0.2789,0.2603,-0.0550,-0.0066,rough,15.5,1,2.323
7970,255.04,0.3498,5.2853,0.2790,0.2605,-0.0548,-0.0076,rough,15.5,1,2.323
7980,255.36,0.3497,5.2851,0.2789,0.2601,-0.0552,-0.0056,rough,15.5,1,2.323
7990,255.68,0.3497,5.2852,0.2789,0.2603,-0.0551,-0.0063,rough,15.5,1,2.323
8000,256.00,0.3497,5.2853,0.2790,0.2604,-0.0549,-0.0074,rough,15.5,1,2.323
8010,256.32,0.3499,5.2854,0.2790,0.2607,-0.0547,-0.0082,rough,15.5,1,2.323
8020,256.64,0.3497,5.2852,0.2789,0.2603,-0.0550,-0.0066,rough,15.5,1,2.323
8030,256.96,0.3498,5.2853,0.2790,0.2605,-0.0549,-0.0073,rough,15.5,1,2.323
8040,257.28,0.3498,5.2853,0.2790,0.2606,-0.0547,-0.0084,rough,15.5,1,2.323
