step,time_s,x,y,z,roll,pitch,yaw,terrain,speed,target_idx,dist_to_target
10,0.32,-0.1052,1.4507,0.1837,0.0002,-0.0187,0.0050,rough,15.5,0,4.153
20,0.64,0.1713,1.4502,0.1795,-0.0008,0.0009,0.3079,rough,15.5,0,4.234
30,0.96,0.4618,1.5591,0.1799,-0.0001,0.0000,0.5824,rough,15.5,0,4.235
40,1.28,0.7298,1.7745,0.1799,-0.0002,0.0000,0.8173,rough,15.5,0,4.153
50,1.60,0.9638,2.0704,0.1799,-0.0000,-0.0001,1.0276,rough,15.5,0,4.013
60,1.92,1.1499,2.4280,0.1798,0.0000,0.0002,1.2416,rough,15.5,0,3.826
70,2.24,1.2711,2.8380,0.1798,0.0002,-0.0001,1.4439,rough,15.5,0,3.591
80,2.56,1.3139,3.2712,0.1798,0.0001,0.0002,1.6611,rough,15.5,0,3.320
90,2.88,1.2613,3.7137,0.1799,0.0000,-0.0002,1.8448,rough,15.5,0,3.003
100,3.20,1.1233,4.1437,0.1803,-0.0002,-0.0023,1.9952,rough,15.5,0,2.654
110,3.52,0.9152,4.5629,0.1809,-0.0043,0.0015,2.0970,rough,15.5,0,2.280
120,3.84,0.7088,4.8283,0.2207,-0.0187,-0.2766,2.0945,rough,15.5,0,1.992
130,4.16,0.6131,4.8482,0.2137,-0.0011,-0.2427,1.8438,rough,15.5,0,1.895
140,4.48,0.5675,4.8804,0.2109,0.0022,-0.2248,1.6443,rough,15.5,0,1.842
150,4.80,0.6062,4.9474,0.2166,0.0351,-0.2217,1.3569,rough,15.5,0,1.859
160,5.12,0.6543,4.9472,0.2151,0.0398,-0.1930,1.2755,rough,15.5,0,1.905
170,5.44,0.6822,4.9416,0.2142,0.0191,-0.2143,1.4374,rough,15.5,0,1.933
180,5.76,0.7081,4.9391,0.2140,0.0127,-0.2190,1.4753,rough,15.5,0,1.959
190,6.08,0.7311,4.9370,0.2140,0.0089,-0.2230,1.4976,rough,15.5,0,1.982
200,6.40,0.7442,4.9355,0.2145,0.0047,-0.2287,1.5181,rough,15.5,0,1.995
210,6.72,0.7529,4.9352,0.2147,0.0009,-0.2297,1.5345,rough,15.5,0,2.003
220,7.04,0.7581,4.9356,0.2149,-0.0024,-0.2298,1.5487,rough,15.5,0,2.008
230,7.36,0.7613,4.9358,0.2150,-0.0045,-0.2297,1.5574,rough,15.5,0,2.011
240,7.68,0.7635,4.9357,0.2150,-0.0054,-0.2299,1.5613,rough,15.5,0,2.013
250,8.00,0.7651,4.9357,0.2150,-0.0062,-0.2299,1.5649,rough,15.5,0,2.015
260,8.32,0.7660,4.9358,0.2151,-0.0068,-0.2299,1.5674,rough,15.5,0,2.016
270,8.64,0.7666,4.9359,0.2151,-0.0072,-0.2299,1.5689,rough,15.5,0,2.016
280,8.96,0.7669,4.9359,0.2151,-0.0074,-0.2299,1.5699,rough,15.5,0,2.017
290,9.28,0.7671,4.9359,0.2151,-0.0076,-0.2299,1.5705,rough,15.5,0,2.017
300,9.60,0.7672,4.9360,0.2151,-0.0077,-0.2299,1.5710,rough,15.5,0,2.017
310,9.92,0.7670,4.9361,0.2151,-0.0079,-0.2298,1.5720,rough,15.5,0,2.017
320,10.24,0.7665,4.9364,0.2152,-0.0083,-0.2295,1.5735,rough,15.5,0,2.016
330,10.56,0.7652,4.9369,0.2152,-0.0089,-0.2291,1.5762,rough,15.5,0,2.015
340,10.88,0.7628,4.9380,0.2153,-0.0099,-0.2283,1.5805,rough,15.5,0,2.012
350,11.20,0.7585,4.9386,0.2153,-0.0114,-0.2270,1.5879,rough,15.5,0,2.008
360,11.52,0.7509,4.9388,0.2151,-0.0141,-0.2250,1.6006,rough,15.5,0,2.000
370,11.84,0.7375,4.9385,0.2146,-0.0183,-0.2214,1.6214,rough,15.5,0,1.988
380,12.16,0.7198,4.9374,0.2139,-0.0192,-0.2182,1.6312,rough,15.5,0,1.971
390,12.48,0.7093,4.9362,0.2134,-0.0157,-0.2180,1.6153,rough,15.5,0,1.961
400,12.80,0.7020,4.9356,0.2130,-0.0126,-0.2179,1.6010,rough,15.5,0,1.954
410,13.12,0.6978,4.9360,0.2131,-0.0098,-0.2180,1.5886,rough,15.5,0,1.950
420,13.44,0.6952,4.9363,0.2131,-0.0081,-0.2179,1.5814,rough,15.5,0,1.947
430,13.76,0.6937,4.9365,0.2131,-0.0071,-0.2179,1.5771,rough,15.5,0,1.946
440,14.08,0.6928,4.9366,0.2131,-0.0065,-0.2179,1.5745,rough,15.5,0,1.945
450,14.40,0.6922,4.9366,0.2131,-0.0062,-0.2179,1.5730,rough,15.5,0,1.944
460,14.72,0.6919,4.9367,0.2131,-0.0060,-0.2179,1.5721,rough,15.5,0,1.944
470,15.04,0.6917,4.9367,0.2131,-0.0058,-0.2179,1.5715,rough,15.5,0,1.944
480,15.36,0.6916,4.9367,0.2131,-0.0057,-0.2179,1.5710,rough,15.5,0,1.944
490,15.68,0.6917,4.9368,0.2131,-0.0056,-0.2180,1.5702,rough,15.5,0,1.944
500,16.00,0.6922,4.9370,0.2132,-0.0053,-0.2181,1.5689,rough,15.5,0,1.944
510,16.32,0.6933,4.9375,0.2133,-0.0049,-0.2183,1.5666,rough,15.5,0,1.945
520,16.64,0.6953,4.9383,0.2136,-0.0042,-0.2188,1.5626,rough,15.5,0,1.947
530,16.96,0.6991,4.9391,0.2139,-0.0029,-0.2197,1.5556,rough,15.5,0,1.950
540,17.28,0.7062,4.9391,0.2141,-0.0000,-0.2216,1.5421,rough,15.5,0,1.957
550,17.60,0.7187,4.9385,0.2124,0.0043,-0.2115,1.5222,rough,15.5,0,1.969
560,17.92,0.7361,4.9366,0.2149,0.0068,-0.2299,1.5074,rough,15.5,0,1.987
570,18.24,0.7477,4.9354,0.2144,0.0033,-0.2278,1.5247,rough,15.5,0,1.998
580,18.56,0.7550,4.9354,0.2147,-0.0004,-0.2296,1.5403,rough,15.5,0,2.005
590,18.88,0.7594,4.9357,0.2149,-0.0033,-0.2297,1.5523,rough,15.5,0,2.009
600,19.20,0.7621,4.9359,0.2150,-0.0050,-0.2297,1.5596,rough,15.5,0,2.012
610,19.52,0.7642,4.9357,0.2150,-0.0057,-0.2300,1.5624,rough,15.5,0,2.014
620,19.84,0.7655,4.9358,0.2150,-0.0065,-0.2299,1.5659,rough,15.5,0,2.015
630,20.16,0.7662,4.9359,0.2151,-0.0070,-0.2299,1.5680,rough,15.5,0,2.016
640,20.48,0.7667,4.9359,0.2151,-0.0073,-0.2299,1.5693,rough,15.5,0,2.016
650,20.80,0.7670,4.9359,0.2151,-0.0075,-0.2299,1.5701,rough,15.5,0,2.017
660,21.12,0.7672,4.9360,0.2151,-0.0076,-0.2299,1.5706,rough,15.5,0,2.017
670,21.44,0.7672,4.9360,0.2151,-0.0078,-0.2298,1.5713,rough,15.5,0,2.017
680,21.76,0.7669,4.9362,0.2151,-0.0080,-0.2297,1.5724,rough,15.5,0,2.017
690,22.08,0.7661,4.9366,0.2152,-0.0085,-0.2294,1.5743,rough,15.5,0,2.016
700,22.40,0.7645,4.9373,0.2153,-0.0092,-0.2288,1.5775,rough,15.5,0,2.014
710,22.72,0.7615,4.9383,0.2154,-0.0103,-0.2279,1.5827,rough,15.5,0,2.011
720,23.04,0.7562,4.9387,0.2153,-0.0122,-0.2264,1.5917,rough,15.5,0,2.006
730,23.36,0.7469,4.9388,0.2149,-0.0154,-0.2239,1.6070,rough,15.5,0,1.996
740,23.68,0.7307,4.9385,0.2144,-0.0199,-0.2197,1.6315,rough,15.5,0,1.981
750,24.00,0.7153,4.9368,0.2134,-0.0177,-0.2160,1.6254,rough,15.5,0,1.967
760,24.32,0.7063,4.9360,0.2132,-0.0145,-0.2177,1.6096,rough,15.5,0,1.958
770,24.64,0.7001,4.9358,0.2130,-0.0113,-0.2179,1.5955,rough,15.5,0,1.952
780,24.96,0.6966,4.9361,0.2131,-0.0090,-0.2180,1.5855,rough,15.5,0,1.949
790,25.28,0.6945,4.9364,0.2131,-0.0077,-0.2179,1.5795,rough,15.5,0,1.947
800,25.60,0.6933,4.9365,0.2131,-0.0069,-0.2179,1.5760,rough,15.5,0,1.945
810,25.92,0.6925,4.9366,0.2131,-0.0064,-0.2179,1.5739,rough,15.5,0,1.945
820,26.24,0.6921,4.9367,0.2131,-0.0061,-0.2179,1.5726,rough,15.5,0,1.944
830,26.56,0.6918,4.9367,0.2131,-0.0059,-0.2179,1.5718,rough,15.5,0,1.944
840,26.88,0.6917,4.9367,0.2131,-0.0058,-0.2179,1.5713,rough,15.5,0,1.944
850,27.20,0.6916,4.9368,0.2131,-0.0057,-0.2179,1.5708,rough,15.5,0,1.944
860,27.52,0.6919,4.9369,0.2131,-0.0055,-0.2180,1.5698,rough,15.5,0,1.944
870,27.84,0.6925,4.9371,0.2132,-0.0052,-0.2182,1.5681,rough,15.5,0,1.945
880,28.16,0.6939,4.9377,0.2134,-0.0047,-0.2185,1.5653,rough,15.5,0,1.946
890,28.48,0.6965,4.9387,0.2137,-0.0038,-0.2190,1.5604,rough,15.5,0,1.948
900,28.80,0.7013,4.9391,0.2140,-0.0020,-0.2203,1.5514,rough,15.5,0,1.952
910,29.12,0.7103,4.9390,0.2143,0.0017,-0.2227,1.5339,rough,15.5,0,1.961
920,29.44,0.7252,4.9380,0.2141,0.0071,-0.2230,1.5086,rough,15.5,0,1.976
930,29.76,0.7409,4.9365,0.2126,0.0046,-0.2148,1.5200,rough,15.5,0,1.991
940,30.08,0.7509,4.9352,0.2145,0.0020,-0.2289,1.5299,rough,15.5,0,2.001
950,30.40,0.7569,4.9355,0.2148,-0.0016,-0.2297,1.5454,rough,15.5,0,2.007
960,30.72,0.7605,4.9358,0.2149,-0.0040,-0.2297,1.5554,rough,15.5,0,2.010
970,31.04,0.7628,4.9360,0.2150,-0.0054,-0.2297,1.5614,rough,15.5,0,2.013
980,31.36,0.7647,4.9357,0.2150,-0.0060,-0.2300,1.5639,rough,15.5,0,2.015
990,31.68,0.7658,4.9358,0.2151,-0.0067,-0.2299,1.5668,rough,15.5,0,2.016
1000,32.00,0.7664,4.9359,0.2151,-0.0071,-0.2299,1.5686,rough,15.5,0,2.016
1010,32.32,0.7668,4.9359,0.2151,-0.0074,-0.2299,1.5697,rough,15.5,0,2.017
1020,32.64,0.7671,4.9359,0.2151,-0.0075,-0.2299,1.5703,rough,15.5,0,2.017
1030,32.96,0.7672,4.9360,0.2151,-0.0077,-0.2299,1.5708,rough,15.5,0,2.017
1040,33.28,0.7671,4.9361,0.2151,-0.0078,-0.2298,1.5716,rough,15.5,0,2.017
1050,33.60,0.7667,4.9362,0.2151,-0.0081,-0.2296,1.5730,rough,15.5,0,2.016
1060,33.92,0.7657,4.9367,0.2152,-0.0087,-0.2292,1.5753,rough,15.5,0,2.015
1070,34.24,0.7637,4.9376,0.2153,-0.0095,-0.2286,1.5791,rough,15.5,0,2.013
1080,34.56,0.7600,4.9385,0.2154,-0.0109,-0.2274,1.5854,rough,15.5,0,2.009
1090,34.88,0.7535,4.9388,0.2152,-0.0132,-0.2257,1.5963,rough,15.5,0,2.003
1100,35.20,0.7421,4.9387,0.2147,-0.0169,-0.2226,1.6144,rough,15.5,0,1.992
1110,35.52,0.7238,4.9379,0.2143,-0.0202,-0.2195,1.6369,rough,15.5,0,1.975
1120,35.84,0.7120,4.9364,0.2134,-0.0166,-0.2173,1.6199,rough,15.5,0,1.964
1130,36.16,0.7039,4.9357,0.2131,-0.0136,-0.2178,1.6053,rough,15.5,0,1.956
1140,36.48,0.6988,4.9359,0.2131,-0.0104,-0.2179,1.5916,rough,15.5,0,1.951
1150,36.80,0.6959,4.9362,0.2131,-0.0085,-0.2180,1.5832,rough,15.5,0,1.948
1160,37.12,0.6941,4.9364,0.2131,-0.0074,-0.2179,1.5782,rough,15.5,0,1.946
1170,37.44,0.6930,4.9365,0.2131,-0.0067,-0.2179,1.5752,rough,15.5,0,1.945
1180,37.76,0.6924,4.9366,0.2131,-0.0063,-0.2179,1.5734,rough,15.5,0,1.945
1190,38.08,0.6920,4.9367,0.2131,-0.0060,-0.2179,1.5723,rough,15.5,0,1.944
1200,38.40,0.6918,4.9367,0.2131,-0.0059,-0.2179,1.5716,rough,15.5,0,1.944
1210,38.72,0.6916,4.9367,0.2131,-0.0058,-0.2179,1.5712,rough,15.5,0,1.944
1220,39.04,0.6917,4.9368,0.2131,-0.0056,-0.2180,1.5705,rough,15.5,0,1.944
1230,39.36,0.6920,4.9369,0.2132,-0.0054,-0.2180,1.5693,rough,15.5,0,1.944
1240,39.68,0.6929,4.9373,0.2133,-0.0051,-0.2182,1.5674,rough,15.5,0,1.945
1250,40.00,0.6946,4.9381,0.2135,-0.0045,-0.2186,1.5640,rough,15.5,0,1.946
1260,40.32,0.6977,4.9390,0.2138,-0.0034,-0.2193,1.5581,rough,15.5,0,1.949
1270,40.64,0.7036,4.9392,0.2140,-0.0011,-0.2209,1.5471,rough,15.5,0,1.955
1280,40.96,0.7146,4.9388,0.2144,0.0035,-0.2238,1.5252,rough,15.5,0,1.965
1290,41.28,0.7321,4.9374,0.2145,0.0092,-0.2250,1.4925,rough,15.5,0,1.983
1300,41.60,0.7447,4.9358,0.2141,0.0040,-0.2256,1.5217,rough,15.5,0,1.995
1310,41.92,0.7533,4.9352,0.2147,0.0007,-0.2294,1.5355,rough,15.5,0,2.004
1320,42.24,0.7583,4.9356,0.2149,-0.0026,-0.2297,1.5493,rough,15.5,0,2.008
1330,42.56,0.7614,4.9359,0.2150,-0.0046,-0.2297,1.5578,rough,15.5,0,2.011
1340,42.88,0.7637,4.9357,0.2150,-0.0054,-0.2299,1.5613,rough,15.5,0,2.014
1350,43.20,0.7652,4.9358,0.2150,-0.0063,-0.2299,1.5651,rough,15.5,0,2.015
1360,43.52,0.7661,4.9358,0.2151,-0.0069,-0.2299,1.5675,rough,15.5,0,2.016
1370,43.84,0.7666,4.9359,0.2151,-0.0072,-0.2299,1.5690,rough,15.5,0,2.016
1380,44.16,0.7669,4.9359,0.2151,-0.0074,-0.2299,1.5699,rough,15.5,0,2.017
1390,44.48,0.7671,4.9359,0.2151,-0.0076,-0.2299,1.5705,rough,15.5,0,2.017
1400,44.80,0.7672,4.9360,0.2151,-0.0077,-0.2299,1.5711,rough,15.5,0,2.017
1410,45.12,0.7670,4.9361,0.2151,-0.0079,-0.2298,1.5720,rough,15.5,0,2.017
1420,45.44,0.7664,4.9364,0.2152,-0.0083,-0.2295,1.5737,rough,15.5,0,2.016
1430,45.76,0.7651,4.9370,0.2152,-0.0089,-0.2291,1.5764,rough,15.5,0,2.015
1440,46.08,0.7626,4.9380,0.2154,-0.0099,-0.2282,1.5809,rough,15.5,0,2.012
1450,46.40,0.7582,4.9386,0.2153,-0.0116,-0.2269,1.5885,rough,15.5,0,2.007
1460,46.72,0.7502,4.9388,0.2151,-0.0143,-0.2248,1.6016,rough,15.5,0,2.000
1470,47.04,0.7364,4.9385,0.2145,-0.0186,-0.2211,1.6230,rough,15.5,0,1.986
1480,47.36,0.7188,4.9373,0.2133,-0.0186,-0.2140,1.6302,rough,15.5,0,1.970
1490,47.68,0.7086,4.9361,0.2133,-0.0154,-0.2176,1.6141,rough,15.5,0,1.960
1500,48.00,0.7016,4.9357,0.2130,-0.0123,-0.2179,1.5997,rough,15.5,0,1.954
1510,48.32,0.6975,4.9361,0.2131,-0.0096,-0.2180,1.5879,rough,15.5,0,1.950
1520,48.64,0.6951,4.9363,0.2131,-0.0080,-0.2179,1.5810,rough,15.5,0,1.947
1530,48.96,0.6936,4.9365,0.2131,-0.0071,-0.2179,1.5769,rough,15.5,0,1.946
1540,49.28,0.6927,4.9366,0.2131,-0.0065,-0.2179,1.5744,rough,15.5,0,1.945
1550,49.60,0.6922,4.9366,0.2131,-0.0062,-0.2179,1.5729,rough,15.5,0,1.944
1560,49.92,0.6919,4.9367,0.2131,-0.0060,-0.2179,1.5720,rough,15.5,0,1.944
1570,50.24,0.6917,4.9367,0.2131,-0.0058,-0.2179,1.5715,rough,15.5,0,1.944
1580,50.56,0.6916,4.9367,0.2131,-0.0057,-0.2179,1.5710,rough,15.5,0,1.944
1590,50.88,0.6918,4.9368,0.2131,-0.0056,-0.2180,1.5701,rough,15.5,0,1.944
1600,51.20,0.6923,4.9370,0.2132,-0.0053,-0.2181,1.5687,rough,15.5,0,1.944
1610,51.52,0.6934,4.9375,0.2133,-0.0049,-0.2184,1.5663,rough,15.5,0,1.945
1620,51.84,0.6956,4.9384,0.2136,-0.0041,-0.2188,1.5622,rough,15.5,0,1.947
1630,52.16,0.6996,4.9391,0.2139,-0.0027,-0.2198,1.5547,rough,15.5,0,1.951
1640,52.48,0.7070,4.9391,0.2142,0.0003,-0.2218,1.5405,rough,15.5,0,1.958
1650,52.80,0.7198,4.9384,0.2135,0.0046,-0.2183,1.5201,rough,15.5,0,1.970
1660,53.12,0.7370,4.9366,0.2136,0.0055,-0.2212,1.5150,rough,15.5,0,1.988
1670,53.44,0.7483,4.9353,0.2144,0.0031,-0.2279,1.5254,rough,15.5,0,1.999
1680,53.76,0.7554,4.9354,0.2147,-0.0007,-0.2296,1.5413,rough,15.5,0,2.006
1690,54.08,0.7596,4.9357,0.2149,-0.0034,-0.2297,1.5529,rough,15.5,0,2.010
1700,54.40,0.7622,4.9359,0.2150,-0.0051,-0.2297,1.5599,rough,15.5,0,2.012
1710,54.72,0.7643,4.9357,0.2150,-0.0057,-0.2300,1.5627,rough,15.5,0,2.014
1720,55.04,0.7655,4.9358,0.2150,-0.0065,-0.2299,1.5661,rough,15.5,0,2.015
1730,55.36,0.7663,4.9359,0.2151,-0.0070,-0.2299,1.5681,rough,15.5,0,2.016
1740,55.68,0.7667,4.9359,0.2151,-0.0073,-0.2299,1.5694,rough,15.5,0,2.016
1750,56.00,0.7670,4.9359,0.2151,-0.0075,-0.2299,1.5702,rough,15.5,0,2.017
1760,56.32,0.7672,4.9360,0.2151,-0.0076,-0.2299,1.5707,rough,15.5,0,2.017
1770,56.64,0.7672,4.9360,0.2151,-0.0078,-0.2298,1.5714,rough,15.5,0,2.017
1780,56.96,0.7669,4.9362,0.2151,-0.0080,-0.2297,1.5725,rough,15.5,0,2.016
1790,57.28,0.7661,4.9366,0.2152,-0.0085,-0.2294,1.5745,rough,15.5,0,2.016
1800,57.60,0.7644,4.9373,0.2153,-0.0092,-0.2288,1.5777,rough,15.5,0,2.014
1810,57.92,0.7613,4.9383,0.2154,-0.0104,-0.2278,1.5831,rough,15.5,0,2.011
1820,58.24,0.7558,4.9387,0.2153,-0.0124,-0.2263,1.5924,rough,15.5,0,2.005
1830,58.56,0.7462,4.9388,0.2149,-0.0156,-0.2237,1.6081,rough,15.5,0,1.996
1840,58.88,0.7296,4.9385,0.2144,-0.0201,-0.2194,1.6332,rough,15.5,0,1.980
1850,59.20,0.7152,4.9368,0.2135,-0.0175,-0.2167,1.6241,rough,15.5,0,1.966
1860,59.52,0.7062,4.9359,0.2132,-0.0145,-0.2178,1.6093,rough,15.5,0,1.958
1870,59.84,0.7001,4.9358,0.2130,-0.0113,-0.2179,1.5952,rough,15.5,0,1.952
1880,60.16,0.6966,4.9361,0.2131,-0.0090,-0.2180,1.5853,rough,15.5,0,1.949
1890,60.48,0.6945,4.9364,0.2131,-0.0077,-0.2179,1.5795,rough,15.5,0,1.947
1900,60.80,0.6933,4.9365,0.2131,-0.0069,-0.2179,1.5759,rough,15.5,0,1.945
1910,61.12,0.6925,4.9366,0.2131,-0.0064,-0.2179,1.5738,rough,15.5,0,1.945
1920,61.44,0.6921,4.9367,0.2131,-0.0061,-0.2179,1.5726,rough,15.5,0,1.944
1930,61.76,0.6918,4.9367,0.2131,-0.0059,-0.2179,1.5718,rough,15.5,0,1.944
1940,62.08,0.6917,4.9367,0.2131,-0.0058,-0.2179,1.5713,rough,15.5,0,1.944
1950,62.40,0.6916,4.9368,0.2131,-0.0057,-0.2179,1.5708,rough,15.5,0,1.944
1960,62.72,0.6919,4.9369,0.2131,-0.0055,-0.2180,1.5698,rough,15.5,0,1.944
1970,63.04,0.6925,4.9371,0.2132,-0.0052,-0.2182,1.5681,rough,15.5,0,1.945
1980,63.36,0.6939,4.9377,0.2134,-0.0047,-0.2185,1.5652,rough,15.5,0,1.946
1990,63.68,0.6966,4.9388,0.2137,-0.0038,-0.2191,1.5603,rough,15.5,0,1.948
2000,64.00,0.7014,4.9391,0.2140,-0.0019,-0.2203,1.5512,rough,15.5,0,1.953
2010,64.32,0.7105,4.9390,0.2143,0.0018,-0.2227,1.5335,rough,15.5,0,1.961
2020,64.64,0.7256,4.9379,0.2141,0.0073,-0.2231,1.5077,rough,15.5,0,1.976
2030,64.96,0.7414,4.9364,0.2129,0.0044,-0.2166,1.5203,rough,15.5,0,1.992
2040,65.28,0.7512,4.9352,0.2146,0.0019,-0.2290,1.5305,rough,15.5,0,2.002
2050,65.60,0.7570,4.9355,0.2148,-0.0017,-0.2297,1.5458,rough,15.5,0,2.007
2060,65.92,0.7606,4.9358,0.2149,-0.0041,-0.2297,1.5557,rough,15.5,0,2.011
2070,66.24,0.7629,4.9359,0.2150,-0.0054,-0.2298,1.5614,rough,15.5,0,2.013
2080,66.56,0.7648,4.9357,0.2150,-0.0060,-0.2300,1.5641,rough,15.5,0,2.015
2090,66.88,0.7658,4.9358,0.2151,-0.0067,-0.2299,1.5669,rough,15.5,0,2.016
2100,67.20,0.7665,4.9359,0.2151,-0.0071,-0.2299,1.5686,rough,15.5,0,2.016
2110,67.52,0.7669,4.9359,0.2151,-0.0074,-0.2299,1.5697,rough,15.5,0,2.017
2120,67.84,0.7671,4.9359,0.2151,-0.0075,-0.2299,1.5704,rough,15.5,0,2.017
2130,68.16,0.7672,4.9360,0.2151,-0.0077,-0.2299,1.5709,rough,15.5,0,2.017
2140,68.48,0.7671,4.9361,0.2151,-0.0078,-0.2298,1.5717,rough,15.5,0,2.017
2150,68.80,0.7667,4.9363,0.2151,-0.0081,-0.2296,1.5731,rough,15.5,0,2.016
2160,69.12,0.7656,4.9368,0.2152,-0.0087,-0.2292,1.5754,rough,15.5,0,2.015
2170,69.44,0.7635,4.9377,0.2153,-0.0096,-0.2285,1.5793,rough,15.5,0,2.013
2180,69.76,0.7598,4.9385,0.2154,-0.0110,-0.2274,1.5858,rough,15.5,0,2.009
2190,70.08,0.7531,4.9388,0.2152,-0.0133,-0.2256,1.5970,rough,15.5,0,2.002
2200,70.40,0.7413,4.9387,0.2147,-0.0171,-0.2224,1.6155,rough,15.5,0,1.991
2210,70.72,0.7226,4.9377,0.2143,-0.0204,-0.2190,1.6390,rough,15.5,0,1.973
2220,71.04,0.7112,4.9364,0.2134,-0.0164,-0.2172,1.6188,rough,15.5,0,1.963
2230,71.36,0.7033,4.9357,0.2131,-0.0133,-0.2178,1.6041,rough,15.5,0,1.955
2240,71.68,0.6985,4.9360,0.2131,-0.0102,-0.2179,1.5907,rough,15.5,0,1.951
2250,72.00,0.6957,4.9362,0.2131,-0.0084,-0.2179,1.5827,rough,15.5,0,1.948
2260,72.32,0.6940,4.9364,0.2131,-0.0073,-0.2179,1.5779,rough,15.5,0,1.946
2270,72.64,0.6929,4.9366,0.2131,-0.0066,-0.2179,1.5750,rough,15.5,0,1.945
2280,72.96,0.6923,4.9366,0.2131,-0.0062,-0.2179,1.5733,rough,15.5,0,1.944
2290,73.28,0.6920,4.9367,0.2131,-0.0060,-0.2179,1.5722,rough,15.5,0,1.944
2300,73.60,0.6917,4.9367,0.2131,-0.0059,-0.2179,1.5716,rough,15.5,0,1.944
2310,73.92,0.6916,4.9367,0.2131,-0.0058,-0.2179,1.5712,rough,15.5,0,1.944
2320,74.24,0.6917,4.9368,0.2131,-0.0056,-0.2180,1.5704,rough,15.5,0,1.944
2330,74.56,0.6921,4.9369,0.2132,-0.0054,-0.2181,1.5692,rough,15.5,0,1.944
2340,74.88,0.6930,4.9373,0.2133,-0.0050,-0.2183,1.5672,rough,15.5,0,1.945
2350,75.20,0.6948,4.9381,0.2135,-0.0044,-0.2187,1.5636,rough,15.5,0,1.946
2360,75.52,0.6981,4.9390,0.2138,-0.0032,-0.2194,1.5575,rough,15.5,0,1.949
2370,75.84,0.7043,4.9392,0.2141,-0.0008,-0.2211,1.5458,rough,15.5,0,1.955
2380,76.16,0.7158,4.9387,0.2144,0.0041,-0.2242,1.5226,rough,15.5,0,1.967
2390,76.48,0.7328,4.9372,0.2153,0.0087,-0.2317,1.4987,rough,15.5,0,1.983
2400,76.80,0.7454,4.9357,0.2141,0.0039,-0.2259,1.5220,rough,15.5,0,1.996
2410,77.12,0.7537,4.9353,0.2147,0.0004,-0.2294,1.5366,rough,15.5,0,2.004
2420,77.44,0.7586,4.9356,0.2149,-0.0027,-0.2297,1.5500,rough,15.5,0,2.009
2430,77.76,0.7616,4.9359,0.2150,-0.0047,-0.2297,1.5582,rough,15.5,0,2.011
2440,78.08,0.7638,4.9357,0.2150,-0.0055,-0.2299,1.5615,rough,15.5,0,2.014
2450,78.40,0.7652,4.9358,0.2150,-0.0063,-0.2299,1.5652,rough,15.5,0,2.015
2460,78.72,0.7661,4.9358,0.2151,-0.0069,-0.2299,1.5676,rough,15.5,0,2.016
2470,79.04,0.7666,4.9359,0.2151,-0.0072,-0.2299,1.5691,rough,15.5,0,2.016
2480,79.36,0.7669,4.9359,0.2151,-0.0075,-0.2299,1.5700,rough,15.5,0,2.017
2490,79.68,0.7671,4.9359,0.2151,-0.0076,-0.2299,1.5705,rough,15.5,0,2.017
2500,80.00,0.7672,4.9360,0.2151,-0.0077,-0.2299,1.5711,rough,15.5,0,2.017
2510,80.32,0.7670,4.9361,0.2151,-0.0079,-0.2298,1.5721,rough,15.5,0,2.017
2520,80.64,0.7664,4.9365,0.2152,-0.0083,-0.2295,1.5738,rough,15.5,0,2.016
2530,80.96,0.7650,4.9370,0.2152,-0.0090,-0.2290,1.5766,rough,15.5,0,2.014
2540,81.28,0.7624,4.9381,0.2154,-0.0100,-0.2282,1.5812,rough,15.5,0,2.012
2550,81.60,0.7578,4.9386,0.2153,-0.0117,-0.2268,1.5891,rough,15.5,0,2.007
2560,81.92,0.7496,4.9388,0.2150,-0.0145,-0.2246,1.6026,rough,15.5,0,1.999
2570,82.24,0.7354,4.9384,0.2145,-0.0189,-0.2209,1.6245,rough,15.5,0,1.986
2580,82.56,0.7187,4.9372,0.2134,-0.0183,-0.2154,1.6279,rough,15.5,0,1.970
2590,82.88,0.7084,4.9361,0.2133,-0.0153,-0.2177,1.6137,rough,15.5,0,1.960
2600,83.20,0.7015,4.9357,0.2130,-0.0122,-0.2179,1.5994,rough,15.5,0,1.954
2610,83.52,0.6974,4.9361,0.2131,-0.0096,-0.2180,1.5877,rough,15.5,0,1.950
2620,83.84,0.6950,4.9363,0.2131,-0.0080,-0.2179,1.5809,rough,15.5,0,1.947
2630,84.16,0.6936,4.9365,0.2131,-0.0070,-0.2179,1.5768,rough,15.5,0,1.946
2640,84.48,0.6927,4.9366,0.2131,-0.0065,-0.2179,1.5743,rough,15.5,0,1.945
2650,84.80,0.6922,4.9366,0.2131,-0.0062,-0.2179,1.5729,rough,15.5,0,1.944
2660,85.12,0.6919,4.9367,0.2131,-0.0059,-0.2179,1.5720,rough,15.5,0,1.944
2670,85.44,0.6917,4.9367,0.2131,-0.0058,-0.2179,1.5715,rough,15.5,0,1.944
2680,85.76,0.6916,4.9367,0.2131,-0.0057,-0.2179,1.5710,rough,15.5,0,1.944
2690,86.08,0.6918,4.9368,0.2131,-0.0056,-0.2180,1.5701,rough,15.5,0,1.944
2700,86.40,0.6923,4.9370,0.2132,-0.0053,-0.2181,1.5687,rough,15.5,0,1.944
2710,86.72,0.6934,4.9375,0.2133,-0.0049,-0.2184,1.5662,rough,15.5,0,1.945
2720,87.04,0.6956,4.9384,0.2136,-0.0041,-0.2188,1.5620,rough,15.5,0,1.947
2730,87.36,0.6997,4.9391,0.2139,-0.0026,-0.2198,1.5545,rough,15.5,0,1.951
2740,87.68,0.7072,4.9391,0.2142,0.0004,-0.2218,1.5401,rough,15.5,0,1.958
2750,88.00,0.7202,4.9384,0.2135,0.0048,-0.2184,1.5194,rough,15.5,0,1.971
2760,88.32,0.7381,4.9370,0.2136,0.0064,-0.2206,1.5106,rough,15.5,0,1.988
2770,88.64,0.7487,4.9353,0.2146,0.0031,-0.2294,1.5254,rough,15.5,0,1.999
2780,88.96,0.7556,4.9354,0.2148,-0.0008,-0.2297,1.5418,rough,15.5,0,2.006
2790,89.28,0.7597,4.9357,0.2149,-0.0035,-0.2297,1.5532,rough,15.5,0,2.010
2800,89.60,0.7623,4.9359,0.2150,-0.0051,-0.2297,1.5601,rough,15.5,0,2.012
2810,89.92,0.7644,4.9357,0.2150,-0.0058,-0.2300,1.5629,rough,15.5,0,2.014
2820,90.24,0.7656,4.9358,0.2150,-0.0066,-0.2299,1.5662,rough,15.5,0,2.015
2830,90.56,0.7663,4.9359,0.2151,-0.0070,-0.2299,1.5682,rough,15.5,0,2.016
2840,90.88,0.7668,4.9359,0.2151,-0.0073,-0.2299,1.5694,rough,15.5,0,2.016
2850,91.20,0.7670,4.9359,0.2151,-0.0075,-0.2299,1.5702,rough,15.5,0,2.017
2860,91.52,0.7672,4.9360,0.2151,-0.0076,-0.2299,1.5707,rough,15.5,0,2.017
2870,91.84,0.7672,4.9360,0.2151,-0.0078,-0.2298,1.5714,rough,15.5,0,2.017
2880,92.16,0.7668,4.9362,0.2151,-0.0080,-0.2297,1.5726,rough,15.5,0,2.016
2890,92.48,0.7660,4.9366,0.2152,-0.0085,-0.2294,1.5746,rough,15.5,0,2.016
2900,92.80,0.7643,4.9373,0.2153,-0.0093,-0.2288,1.5779,rough,15.5,0,2.014
2910,93.12,0.7611,4.9384,0.2154,-0.0105,-0.2278,1.5834,rough,15.5,0,2.010
2920,93.44,0.7555,4.9387,0.2152,-0.0125,-0.2262,1.5930,rough,15.5,0,2.005
2930,93.76,0.7456,4.9388,0.2149,-0.0158,-0.2235,1.6090,rough,15.5,0,1.995
2940,94.08,0.7286,4.9385,0.2144,-0.0202,-0.2192,1.6347,rough,15.5,0,1.979
2950,94.40,0.7142,4.9367,0.2134,-0.0174,-0.2164,1.6238,rough,15.5,0,1.966
2960,94.72,0.7055,4.9359,0.2132,-0.0142,-0.2178,1.6080,rough,15.5,0,1.957
2970,95.04,0.6997,4.9358,0.2131,-0.0110,-0.2179,1.5941,rough,15.5,0,1.952
2980,95.36,0.6964,4.9362,0.2131,-0.0089,-0.2180,1.5847,rough,15.5,0,1.949
2990,95.68,0.6944,4.9364,0.2131,-0.0076,-0.2179,1.5791,rough,15.5,0,1.947
3000,96.00,0.6932,4.9365,0.2131,-0.0068,-0.2179,1.5757,rough,15.5,0,1.945
3010,96.32,0.6925,4.9366,0.2131,-0.0063,-0.2179,1.5737,rough,15.5,0,1.945
3020,96.64,0.6921,4.9367,0.2131,-0.0061,-0.2179,1.5725,rough,15.5,0,1.944
3030,96.96,0.6918,4.9367,0.2131,-0.0059,-0.2179,1.5718,rough,15.5,0,1.944
3040,97.28,0.6917,4.9367,0.2131,-0.0058,-0.2179,1.5713,rough,15.5,0,1.944
3050,97.60,0.6916,4.9368,0.2131,-0.0057,-0.2179,1.5707,rough,15.5,0,1.944
3060,97.92,0.6919,4.9369,0.2131,-0.0055,-0.2180,1.5697,rough,15.5,0,1.944
3070,98.24,0.6926,4.9371,0.2132,-0.0051,-0.2182,1.5679,rough,15.5,0,1.945
3080,98.56,0.6941,4.9378,0.2134,-0.0046,-0.2185,1.5649,rough,15.5,0,1.946
3090,98.88,0.6969,4.9388,0.2137,-0.0037,-0.2191,1.5597,rough,15.5,0,1.948
3100,99.20,0.7020,4.9391,0.2140,-0.0017,-0.2205,1.5501,rough,15.5,0,1.953
3110,99.52,0.7116,4.9390,0.2143,0.0022,-0.2230,1.5313,rough,15.5,0,1.962
3120,99.84,0.7273,4.9377,0.2142,0.0081,-0.2242,1.5039,rough,15.5,0,1.978
3130,100.16,0.7422,4.9361,0.2137,0.0046,-0.2222,1.5192,rough,15.5,0,1.993
3140,100.48,0.7517,4.9352,0.2146,0.0016,-0.2291,1.5316,rough,15.5,0,2.002
3150,100.80,0.7573,4.9355,0.2148,-0.0019,-0.2297,1.5467,rough,15.5,0,2.007
3160,101.12,0.7608,4.9358,0.2150,-0.0042,-0.2297,1.5562,rough,15.5,0,2.011
3170,101.44,0.7630,4.9359,0.2150,-0.0055,-0.2298,1.5617,rough,15.5,0,2.013
3180,101.76,0.7649,4.9357,0.2150,-0.0061,-0.2300,1.5643,rough,15.5,0,2.015
3190,102.08,0.7659,4.9358,0.2151,-0.0067,-0.2299,1.5670,rough,15.5,0,2.016
3200,102.40,0.7665,4.9359,0.2151,-0.0072,-0.2299,1.5687,rough,15.5,0,2.016
3210,102.72,0.7669,4.9359,0.2151,-0.0074,-0.2299,1.5698,rough,15.5,0,2.017
3220,103.04,0.7671,4.9359,0.2151,-0.0076,-0.2299,1.5704,rough,15.5,0,2.017
3230,103.36,0.7672,4.9360,0.2151,-0.0077,-0.2299,1.5709,rough,15.5,0,2.017
3240,103.68,0.7671,4.9361,0.2151,-0.0079,-0.2298,1.5717,rough,15.5,0,2.017
3250,104.00,0.7666,4.9363,0.2152,-0.0082,-0.2296,1.5732,rough,15.5,0,2.016
3260,104.32,0.7655,4.9368,0.2152,-0.0087,-0.2292,1.5756,rough,15.5,0,2.015
3270,104.64,0.7634,4.9377,0.2153,-0.0096,-0.2285,1.5796,rough,15.5,0,2.013
3280,104.96,0.7595,4.9385,0.2153,-0.0111,-0.2273,1.5863,rough,15.5,0,2.009
3290,105.28,0.7526,4.9388,0.2151,-0.0135,-0.2254,1.5978,rough,15.5,0,2.002
3300,105.60,0.7405,4.9386,0.2147,-0.0174,-0.2222,1.6169,rough,15.5,0,1.990
3310,105.92,0.7226,4.9379,0.2126,-0.0186,-0.2082,1.6309,rough,15.5,0,1.973
3320,106.24,0.7110,4.9363,0.2134,-0.0163,-0.2175,1.6182,rough,15.5,0,1.963
3330,106.56,0.7032,4.9356,0.2131,-0.0133,-0.2178,1.6039,rough,15.5,0,1.955
3340,106.88,0.6984,4.9360,0.2131,-0.0102,-0.2180,1.5905,rough,15.5,0,1.951
3350,107.20,0.6956,4.9363,0.2131,-0.0084,-0.2179,1.5826,rough,15.5,0,1.948
3360,107.52,0.6939,4.9364,0.2131,-0.0073,-0.2179,1.5778,rough,15.5,0,1.946
3370,107.84,0.6929,4.9366,0.2131,-0.0066,-0.2179,1.5749,rough,15.5,0,1.945
3380,108.16,0.6923,4.9366,0.2131,-0.0062,-0.2179,1.5732,rough,15.5,0,1.944
3390,108.48,0.6920,4.9367,0.2131,-0.0060,-0.2179,1.5722,rough,15.5,0,1.944
3400,108.80,0.6917,4.9367,0.2131,-0.0059,-0.2179,1.5716,rough,15.5,0,1.944
3410,109.12,0.6916,4.9367,0.2131,-0.0058,-0.2179,1.5711,rough,15.5,0,1.944
3420,109.44,0.6917,4.9368,0.2131,-0.0056,-0.2180,1.5704,rough,15.5,0,1.944
3430,109.76,0.6921,4.9369,0.2132,-0.0054,-0.2181,1.5692,rough,15.5,0,1.944
3440,110.08,0.6930,4.9374,0.2133,-0.0050,-0.2183,1.5671,rough,15.5,0,1.945
3450,110.40,0.6948,4.9381,0.2135,-0.0044,-0.2187,1.5635,rough,15.5,0,1.946
3460,110.72,0.6982,4.9390,0.2138,-0.0032,-0.2195,1.5573,rough,15.5,0,1.949
3470,111.04,0.7044,4.9392,0.2141,-0.0008,-0.2211,1.5454,rough,15.5,0,1.955
3480,111.36,0.7162,4.9387,0.2144,0.0042,-0.2243,1.5219,rough,15.5,0,1.967
3490,111.68,0.7333,4.9372,0.2153,0.0087,-0.2317,1.4975,rough,15.5,0,1.984
3500,112.00,0.7460,4.9355,0.2146,0.0042,-0.2291,1.5203,rough,15.5,0,1.996
3510,112.32,0.7540,4.9353,0.2147,0.0003,-0.2297,1.5374,rough,15.5,0,2.004
3520,112.64,0.7587,4.9356,0.2149,-0.0028,-0.2298,1.5505,rough,15.5,0,2.009
3530,112.96,0.7617,4.9359,0.2150,-0.0047,-0.2297,1.5585,rough,15.5,0,2.012
3540,113.28,0.7639,4.9357,0.2150,-0.0055,-0.2300,1.5617,rough,15.5,0,2.014
3550,113.60,0.7653,4.9358,0.2150,-0.0064,-0.2299,1.5654,rough,15.5,0,2.015
3560,113.92,0.7661,4.9358,0.2151,-0.0069,-0.2299,1.5677,rough,15.5,0,2.016
3570,114.24,0.7666,4.9359,0.2151,-0.0073,-0.2299,1.5691,rough,15.5,0,2.016
3580,114.56,0.7670,4.9359,0.2151,-0.0075,-0.2299,1.5700,rough,15.5,0,2.017
3590,114.88,0.7671,4.9359,0.2151,-0.0076,-0.2299,1.5705,rough,15.5,0,2.017
3600,115.20,0.7672,4.9360,0.2151,-0.0077,-0.2299,1.5712,rough,15.5,0,2.017
3610,115.52,0.7670,4.9361,0.2151,-0.0079,-0.2297,1.5722,rough,15.5,0,2.017
3620,115.84,0.7663,4.9365,0.2152,-0.0084,-0.2295,1.5739,rough,15.5,0,2.016
3630,116.16,0.7649,4.9371,0.2152,-0.0090,-0.2290,1.5768,rough,15.5,0,2.014
3640,116.48,0.7622,4.9381,0.2154,-0.0101,-0.2281,1.5815,rough,15.5,0,2.011
3650,116.80,0.7575,4.9387,0.2153,-0.0118,-0.2267,1.5897,rough,15.5,0,2.007
3660,117.12,0.7490,4.9388,0.2150,-0.0147,-0.2245,1.6035,rough,15.5,0,1.999
3670,117.44,0.7344,4.9385,0.2145,-0.0191,-0.2206,1.6261,rough,15.5,0,1.985
3680,117.76,0.7181,4.9372,0.2131,-0.0179,-0.2140,1.6251,rough,15.5,0,1.969
3690,118.08,0.7080,4.9361,0.2132,-0.0151,-0.2175,1.6126,rough,15.5,0,1.960
3700,118.40,0.7012,4.9357,0.2130,-0.0121,-0.2178,1.5987,rough,15.5,0,1.953
3710,118.72,0.6973,4.9361,0.2131,-0.0094,-0.2180,1.5873,rough,15.5,0,1.949
3720,119.04,0.6949,4.9363,0.2131,-0.0079,-0.2179,1.5806,rough,15.5,0,1.947
3730,119.36,0.6935,4.9365,0.2131,-0.0070,-0.2179,1.5766,rough,15.5,0,1.946
3740,119.68,0.6927,4.9366,0.2131,-0.0065,-0.2179,1.5743,rough,15.5,0,1.945
3750,120.00,0.6922,4.9366,0.2131,-0.0061,-0.2179,1.5728,rough,15.5,0,1.944
3760,120.32,0.6919,4.9367,0.2131,-0.0059,-0.2179,1.5720,rough,15.5,0,1.944
3770,120.64,0.6917,4.9367,0.2131,-0.0058,-0.2179,1.5714,rough,15.5,0,1.944
3780,120.96,0.6916,4.9367,0.2131,-0.0057,-0.2179,1.5709,rough,15.5,0,1.944
3790,121.28,0.6918,4.9368,0.2131,-0.0055,-0.2180,1.5701,rough,15.5,0,1.944
3800,121.60,0.6923,4.9370,0.2132,-0.0053,-0.2181,1.5686,rough,15.5,0,1.944
3810,121.92,0.6935,4.9376,0.2133,-0.0048,-0.2184,1.5661,rough,15.5,0,1.945
3820,122.24,0.6958,4.9385,0.2136,-0.0041,-0.2189,1.5618,rough,15.5,0,1.947
3830,122.56,0.7000,4.9391,0.2139,-0.0025,-0.2199,1.5540,rough,15.5,0,1.951
3840,122.88,0.7077,4.9391,0.2142,0.0006,-0.2220,1.5390,rough,15.5,0,1.959
3850,123.20,0.7210,4.9383,0.2137,0.0051,-0.2199,1.5177,rough,15.5,0,1.972
3860,123.52,0.7382,4.9363,0.2144,0.0061,-0.2268,1.5118,rough,15.5,0,1.989
3870,123.84,0.7490,4.9352,0.2146,0.0030,-0.2295,1.5255,rough,15.5,0,1.999
3880,124.16,0.7558,4.9354,0.2148,-0.0009,-0.2297,1.5423,rough,15.5,0,2.006
3890,124.48,0.7598,4.9357,0.2149,-0.0036,-0.2297,1.5535,rough,15.5,0,2.010
3900,124.80,0.7624,4.9359,0.2150,-0.0052,-0.2297,1.5603,rough,15.5,0,2.012
3910,125.12,0.7644,4.9357,0.2150,-0.0058,-0.2300,1.5630,rough,15.5,0,2.014
3920,125.44,0.7656,4.9358,0.2150,-0.0066,-0.2299,1.5663,rough,15.5,0,2.015
3930,125.76,0.7663,4.9359,0.2151,-0.0070,-0.2299,1.5683,rough,15.5,0,2.016
3940,126.08,0.7668,4.9359,0.2151,-0.0073,-0.2299,1.5695,rough,15.5,0,2.016
3950,126.40,0.7670,4.9359,0.2151,-0.0075,-0.2299,1.5702,rough,15.5,0,2.017
3960,126.72,0.7672,4.9360,0.2151,-0.0076,-0.2299,1.5707,rough,15.5,0,2.017
3970,127.04,0.7672,4.9360,0.2151,-0.0078,-0.2298,1.5714,rough,15.5,0,2.017
3980,127.36,0.7668,4.9362,0.2151,-0.0080,-0.2297,1.5726,rough,15.5,0,2.016
3990,127.68,0.7660,4.9366,0.2152,-0.0085,-0.2293,1.5747,rough,15.5,0,2.015
4000,128.00,0.7642,4.9374,0.2153,-0.0093,-0.2287,1.5780,rough,15.5,0,2.014
4010,128.32,0.7610,4.9384,0.2154,-0.0105,-0.2277,1.5836,rough,15.5,0,2.010
4020,128.64,0.7553,4.9387,0.2152,-0.0126,-0.2262,1.5933,rough,15.5,0,2.005
4030,128.96,0.7452,4.9388,0.2149,-0.0159,-0.2234,1.6096,rough,15.5,0,1.995
4040,129.28,0.7280,4.9384,0.2144,-0.0204,-0.2191,1.6356,rough,15.5,0,1.978
4050,129.60,0.7143,4.9367,0.2136,-0.0174,-0.2182,1.6235,rough,15.5,0,1.966
4060,129.92,0.7055,4.9359,0.2132,-0.0142,-0.2180,1.6081,rough,15.5,0,1.957
4070,130.24,0.6997,4.9358,0.2131,-0.0110,-0.2179,1.5942,rough,15.5,0,1.952
4080,130.56,0.6964,4.9362,0.2131,-0.0089,-0.2180,1.5847,rough,15.5,0,1.949
4090,130.88,0.6944,4.9364,0.2131,-0.0076,-0.2179,1.5791,rough,15.5,0,1.947
4100,131.20,0.6932,4.9365,0.2131,-0.0068,-0.2179,1.5757,rough,15.5,0,1.945
4110,131.52,0.6925,4.9366,0.2131,-0.0063,-0.2179,1.5737,rough,15.5,0,1.945
4120,131.84,0.6921,4.9367,0.2131,-0.0061,-0.2179,1.5725,rough,15.5,0,1.944
4130,132.16,0.6918,4.9367,0.2131,-0.0059,-0.2179,1.5718,rough,15.5,0,1.944
4140,132.48,0.6917,4.9367,0.2131,-0.0058,-0.2179,1.5713,rough,15.5,0,1.944
4150,132.80,0.6916,4.9368,0.2131,-0.0057,-0.2179,1.5707,rough,15.5,0,1.944
4160,133.12,0.6919,4.9369,0.2131,-0.0055,-0.2180,1.5697,rough,15.5,0,1.944
4170,133.44,0.6926,4.9371,0.2132,-0.0051,-0.2182,1.5679,rough,15.5,0,1.945
4180,133.76,0.6941,4.9378,0.2134,-0.0046,-0.2185,1.5649,rough,15.5,0,1.946
4190,134.08,0.6969,4.9388,0.2137,-0.0037,-0.2191,1.5597,rough,15.5,0,1.948
4200,134.40,0.7020,4.9391,0.2140,-0.0017,-0.2205,1.5501,rough,15.5,0,1.953
4210,134.72,0.7115,4.9390,0.2143,0.0022,-0.2230,1.5314,rough,15.5,0,1.962
4220,135.04,0.7272,4.9377,0.2142,0.0081,-0.2242,1.5041,rough,15.5,0,1.978
4230,135.36,0.7422,4.9361,0.2136,0.0046,-0.2220,1.5190,rough,15.5,0,1.993
4240,135.68,0.7516,4.9352,0.2146,0.0017,-0.2291,1.5314,rough,15.5,0,2.002
4250,136.00,0.7573,4.9355,0.2148,-0.0019,-0.2297,1.5466,rough,15.5,0,2.007
4260,136.32,0.7608,4.9358,0.2150,-0.0042,-0.2297,1.5561,rough,15.5,0,2.011
4270,136.64,0.7630,4.9359,0.2150,-0.0055,-0.2298,1.5617,rough,15.5,0,2.013
4280,136.96,0.7649,4.9357,0.2150,-0.0061,-0.2300,1.5642,rough,15.5,0,2.015
4290,137.28,0.7659,4.9358,0.2151,-0.0067,-0.2299,1.5670,rough,15.5,0,2.016
4300,137.60,0.7665,4.9359,0.2151,-0.0072,-0.2299,1.5687,rough,15.5,0,2.016
4310,137.92,0.7669,4.9359,0.2151,-0.0074,-0.2299,1.5697,rough,15.5,0,2.017
4320,138.24,0.7671,4.9359,0.2151,-0.0076,-0.2299,1.5704,rough,15.5,0,2.017
4330,138.56,0.7672,4.9360,0.2151,-0.0077,-0.2299,1.5709,rough,15.5,0,2.017
4340,138.88,0.7671,4.9361,0.2151,-0.0079,-0.2298,1.5717,rough,15.5,0,2.017
4350,139.20,0.7666,4.9363,0.2152,-0.0082,-0.2296,1.5732,rough,15.5,0,2.016
4360,139.52,0.7655,4.9368,0.2152,-0.0087,-0.2292,1.5756,rough,15.5,0,2.015
4370,139.84,0.7634,4.9377,0.2153,-0.0096,-0.2285,1.5796,rough,15.5,0,2.013
4380,140.16,0.7595,4.9385,0.2153,-0.0111,-0.2273,1.5862,rough,15.5,0,2.009
4390,140.48,0.7526,4.9388,0.2151,-0.0135,-0.2254,1.5978,rough,15.5,0,2.002
4400,140.80,0.7405,4.9386,0.2147,-0.0174,-0.2222,1.6168,rough,15.5,0,1.990
4410,141.12,0.7226,4.9378,0.2126,-0.0186,-0.2082,1.6308,rough,15.5,0,1.973
4420,141.44,0.7111,4.9363,0.2134,-0.0163,-0.2175,1.6182,rough,15.5,0,1.963
4430,141.76,0.7032,4.9356,0.2131,-0.0133,-0.2178,1.6040,rough,15.5,0,1.955
4440,142.08,0.6985,4.9360,0.2131,-0.0102,-0.2180,1.5905,rough,15.5,0,1.951
4450,142.40,0.6956,4.9363,0.2131,-0.0084,-0.2179,1.5826,rough,15.5,0,1.948
4460,142.72,0.6939,4.9364,0.2131,-0.0073,-0.2179,1.5778,rough,15.5,0,1.946
4470,143.04,0.6929,4.9366,0.2131,-0.0066,-0.2179,1.5750,rough,15.5,0,1.945
4480,143.36,0.6923,4.9366,0.2131,-0.0062,-0.2179,1.5732,rough,15.5,0,1.944
4490,143.68,0.6920,4.9367,0.2131,-0.0060,-0.2179,1.5722,rough,15.5,0,1.944
4500,144.00,0.6917,4.9367,0.2131,-0.0059,-0.2179,1.5716,rough,15.5,0,1.944
4510,144.32,0.6916,4.9367,0.2131,-0.0058,-0.2179,1.5711,rough,15.5,0,1.944
4520,144.64,0.6917,4.9368,0.2131,-0.0056,-0.2180,1.5704,rough,15.5,0,1.944
4530,144.96,0.6921,4.9369,0.2132,-0.0054,-0.2181,1.5692,rough,15.5,0,1.944
4540,145.28,0.6930,4.9374,0.2133,-0.0050,-0.2183,1.5671,rough,15.5,0,1.945
4550,145.60,0.6948,4.9381,0.2135,-0.0044,-0.2187,1.5636,rough,15.5,0,1.946
4560,145.92,0.6982,4.9390,0.2138,-0.0032,-0.2195,1.5573,rough,15.5,0,1.949
4570,146.24,0.7044,4.9391,0.2141,-0.0008,-0.2211,1.5455,rough,15.5,0,1.955
4580,146.56,0.7161,4.9387,0.2144,0.0042,-0.2242,1.5220,rough,15.5,0,1.967
4590,146.88,0.7332,4.9372,0.2153,0.0086,-0.2317,1.4977,rough,15.5,0,1.984
4600,147.20,0.7458,4.9355,0.2146,0.0043,-0.2291,1.5202,rough,15.5,0,1.996
4610,147.52,0.7539,4.9353,0.2147,0.0003,-0.2297,1.5371,rough,15.5,0,2.004
4620,147.84,0.7587,4.9356,0.2149,-0.0028,-0.2298,1.5503,rough,15.5,0,2.009
4630,148.16,0.7617,4.9359,0.2150,-0.0047,-0.2297,1.5584,rough,15.5,0,2.012
4640,148.48,0.7639,4.9357,0.2150,-0.0055,-0.2300,1.5616,rough,15.5,0,2.014
4650,148.80,0.7653,4.9358,0.2150,-0.0064,-0.2299,1.5654,rough,15.5,0,2.015
4660,149.12,0.7661,4.9358,0.2151,-0.0069,-0.2299,1.5677,rough,15.5,0,2.016
4670,149.44,0.7666,4.9359,0.2151,-0.0072,-0.2299,1.5691,rough,15.5,0,2.016
4680,149.76,0.7670,4.9359,0.2151,-0.0075,-0.2299,1.5700,rough,15.5,0,2.017
4690,150.08,0.7671,4.9359,0.2151,-0.0076,-0.2299,1.5705,rough,15.5,0,2.017
4700,150.40,0.7672,4.9360,0.2151,-0.0077,-0.2299,1.5711,rough,15.5,0,2.017
4710,150.72,0.7670,4.9361,0.2151,-0.0079,-0.2297,1.5722,rough,15.5,0,2.017
4720,151.04,0.7663,4.9365,0.2152,-0.0083,-0.2295,1.5739,rough,15.5,0,2.016
4730,151.36,0.7649,4.9371,0.2152,-0.0090,-0.2290,1.5767,rough,15.5,0,2.014
4740,151.68,0.7623,4.9381,0.2154,-0.0101,-0.2281,1.5814,rough,15.5,0,2.012
4750,152.00,0.7576,4.9387,0.2153,-0.0118,-0.2268,1.5895,rough,15.5,0,2.007
4760,152.32,0.7492,4.9388,0.2150,-0.0146,-0.2245,1.6033,rough,15.5,0,1.999
4770,152.64,0.7346,4.9385,0.2145,-0.0190,-0.2207,1.6257,rough,15.5,0,1.985
4780,152.96,0.7176,4.9371,0.2133,-0.0183,-0.2148,1.6287,rough,15.5,0,1.969
4790,153.28,0.7078,4.9360,0.2132,-0.0151,-0.2176,1.6126,rough,15.5,0,1.960
4800,153.60,0.7011,4.9357,0.2130,-0.0120,-0.2179,1.5982,rough,15.5,0,1.953
4810,153.92,0.6972,4.9361,0.2131,-0.0094,-0.2180,1.5870,rough,15.5,0,1.949
4820,154.24,0.6949,4.9363,0.2131,-0.0079,-0.2179,1.5805,rough,15.5,0,1.947
4830,154.56,0.6935,4.9365,0.2131,-0.0070,-0.2179,1.5766,rough,15.5,0,1.946
4840,154.88,0.6927,4.9366,0.2131,-0.0065,-0.2179,1.5742,rough,15.5,0,1.945
4850,155.20,0.6922,4.9366,0.2131,-0.0061,-0.2179,1.5728,rough,15.5,0,1.944
4860,155.52,0.6919,4.9367,0.2131,-0.0059,-0.2179,1.5719,rough,15.5,0,1.944
4870,155.84,0.6917,4.9367,0.2131,-0.0058,-0.2179,1.5714,rough,15.5,0,1.944
4880,156.16,0.6916,4.9367,0.2131,-0.0057,-0.2179,1.5709,rough,15.5,0,1.944
4890,156.48,0.6918,4.9368,0.2131,-0.0055,-0.2180,1.5700,rough,15.5,0,1.944
4900,156.80,0.6923,4.9370,0.2132,-0.0053,-0.2181,1.5685,rough,15.5,0,1.944
4910,157.12,0.6935,4.9376,0.2133,-0.0048,-0.2184,1.5660,rough,15.5,0,1.945
4920,157.44,0.6959,4.9385,0.2136,-0.0040,-0.2189,1.5616,rough,15.5,0,1.947
4930,157.76,0.7001,4.9391,0.2139,-0.0025,-0.2200,1.5537,rough,15.5,0,1.951
4940,158.08,0.7080,4.9391,0.2142,0.0007,-0.2221,1.5384,rough,15.5,0,1.959
4950,158.40,0.7215,4.9383,0.2137,0.0054,-0.2201,1.5166,rough,15.5,0,1.972
4960,158.72,0.7388,4.9366,0.2143,0.0061,-0.2257,1.5119,rough,15.5,0,1.989
4970,159.04,0.7492,4.9353,0.2145,0.0027,-0.2283,1.5272,rough,15.5,0,2.000
4980,159.36,0.7559,4.9354,0.2148,-0.0010,-0.2296,1.5428,rough,15.5,0,2.006
4990,159.68,0.7599,4.9357,0.2149,-0.0036,-0.2297,1.5538,rough,15.5,0,2.010
5000,160.00,0.7624,4.9359,0.2150,-0.0052,-0.2297,1.5605,rough,15.5,0,2.012
5010,160.32,0.7645,4.9357,0.2150,-0.0058,-0.2300,1.5631,rough,15.5,0,2.014
5020,160.64,0.7656,4.9358,0.2150,-0.0066,-0.2299,1.5663,rough,15.5,0,2.015
5030,160.96,0.7663,4.9359,0.2151,-0.0070,-0.2299,1.5683,rough,15.5,0,2.016
5040,161.28,0.7668,4.9359,0.2151,-0.0073,-0.2299,1.5695,rough,15.5,0,2.016
5050,161.60,0.7670,4.9359,0.2151,-0.0075,-0.2299,1.5702,rough,15.5,0,2.017
5060,161.92,0.7672,4.9360,0.2151,-0.0076,-0.2299,1.5707,rough,15.5,0,2.017
5070,162.24,0.7672,4.9360,0.2151,-0.0078,-0.2298,1.5714,rough,15.5,0,2.017
5080,162.56,0.7668,4.9362,0.2151,-0.0080,-0.2297,1.5727,rough,15.5,0,2.016
5090,162.88,0.7659,4.9367,0.2152,-0.0085,-0.2293,1.5747,rough,15.5,0,2.015
5100,163.20,0.7642,4.9374,0.2153,-0.0093,-0.2287,1.5782,rough,15.5,0,2.014
5110,163.52,0.7609,4.9384,0.2154,-0.0106,-0.2277,1.5838,rough,15.5,0,2.010
5120,163.84,0.7551,4.9387,0.2152,-0.0126,-0.2261,1.5937,rough,15.5,0,2.004
5130,164.16,0.7448,4.9388,0.2149,-0.0160,-0.2233,1.6102,rough,15.5,0,1.995
5140,164.48,0.7274,4.9384,0.2143,-0.0205,-0.2189,1.6365,rough,15.5,0,1.978
5150,164.80,0.7140,4.9366,0.2134,-0.0172,-0.2170,1.6228,rough,15.5,0,1.965
5160,165.12,0.7053,4.9359,0.2132,-0.0141,-0.2178,1.6077,rough,15.5,0,1.957
5170,165.44,0.6996,4.9359,0.2131,-0.0110,-0.2179,1.5939,rough,15.5,0,1.952
5180,165.76,0.6963,4.9362,0.2131,-0.0088,-0.2180,1.5845,rough,15.5,0,1.948
5190,166.08,0.6944,4.9364,0.2131,-0.0075,-0.2179,1.5790,rough,15.5,0,1.946
5200,166.40,0.6932,4.9365,0.2131,-0.0068,-0.2179,1.5757,rough,15.5,0,1.945
5210,166.72,0.6925,4.9366,0.2131,-0.0063,-0.2179,1.5737,rough,15.5,0,1.945
5220,167.04,0.6920,4.9367,0.2131,-0.0061,-0.2179,1.5725,rough,15.5,0,1.944
5230,167.36,0.6918,4.9367,0.2131,-0.0059,-0.2179,1.5717,rough,15.5,0,1.944
5240,167.68,0.6916,4.9367,0.2131,-0.0058,-0.2179,1.5713,rough,15.5,0,1.944
5250,168.00,0.6917,4.9368,0.2131,-0.0057,-0.2179,1.5707,rough,15.5,0,1.944
5260,168.32,0.6919,4.9369,0.2131,-0.0055,-0.2180,1.5696,rough,15.5,0,1.944
5270,168.64,0.6926,4.9371,0.2132,-0.0051,-0.2182,1.5678,rough,15.5,0,1.945
5280,168.96,0.6941,4.9378,0.2134,-0.0046,-0.2185,1.5648,rough,15.5,0,1.946
5290,169.28,0.6969,4.9389,0.2137,-0.0037,-0.2192,1.5596,rough,15.5,0,1.948
5300,169.60,0.7022,4.9391,0.2140,-0.0017,-0.2205,1.5498,rough,15.5,0,1.953
5310,169.92,0.7119,4.9390,0.2143,0.0023,-0.2231,1.5308,rough,15.5,0,1.963
5320,170.24,0.7277,4.9378,0.2142,0.0079,-0.2239,1.5029,rough,15.5,0,1.978
5330,170.56,0.7428,4.9358,0.2145,0.0053,-0.2285,1.5157,rough,15.5,0,1.993
5340,170.88,0.7520,4.9352,0.2147,0.0015,-0.2297,1.5321,rough,15.5,0,2.002
5350,171.20,0.7576,4.9355,0.2148,-0.0021,-0.2298,1.5472,rough,15.5,0,2.008
5360,171.52,0.7610,4.9358,0.2150,-0.0043,-0.2297,1.5565,rough,15.5,0,2.011
5370,171.84,0.7632,4.9358,0.2150,-0.0054,-0.2298,1.5613,rough,15.5,0,2.013
5380,172.16,0.7649,4.9357,0.2150,-0.0061,-0.2299,1.5645,rough,15.5,0,2.015
5390,172.48,0.7659,4.9358,0.2151,-0.0068,-0.2299,1.5672,rough,15.5,0,2.016
5400,172.80,0.7665,4.9359,0.2151,-0.0072,-0.2299,1.5688,rough,15.5,0,2.016
5410,173.12,0.7669,4.9359,0.2151,-0.0074,-0.2299,1.5698,rough,15.5,0,2.017
5420,173.44,0.7671,4.9359,0.2151,-0.0076,-0.2299,1.5704,rough,15.5,0,2.017
5430,173.76,0.7672,4.9360,0.2151,-0.0077,-0.2299,1.5709,rough,15.5,0,2.017
5440,174.08,0.7671,4.9361,0.2151,-0.0079,-0.2298,1.5718,rough,15.5,0,2.017
5450,174.40,0.7666,4.9363,0.2152,-0.0082,-0.2296,1.5733,rough,15.5,0,2.016
5460,174.72,0.7654,4.9368,0.2152,-0.0088,-0.2292,1.5758,rough,15.5,0,2.015
5470,175.04,0.7632,4.9378,0.2153,-0.0097,-0.2284,1.5799,rough,15.5,0,2.013
5480,175.36,0.7592,4.9386,0.2153,-0.0112,-0.2272,1.5868,rough,15.5,0,2.008
5490,175.68,0.7521,4.9388,0.2151,-0.0137,-0.2253,1.5987,rough,15.5,0,2.001
5500,176.00,0.7396,4.9386,0.2146,-0.0177,-0.2220,1.6182,rough,15.5,0,1.989
5510,176.32,0.7215,4.9379,0.2134,-0.0195,-0.2134,1.6334,rough,15.5,0,1.972
5520,176.64,0.7106,4.9363,0.2134,-0.0161,-0.2181,1.6174,rough,15.5,0,1.962
5530,176.96,0.7028,4.9356,0.2131,-0.0131,-0.2179,1.6031,rough,15.5,0,1.955
5540,177.28,0.6982,4.9360,0.2131,-0.0101,-0.2180,1.5900,rough,15.5,0,1.950
5550,177.60,0.6955,4.9363,0.2131,-0.0083,-0.2180,1.5822,rough,15.5,0,1.948
5560,177.92,0.6939,4.9364,0.2131,-0.0072,-0.2179,1.5776,rough,15.5,0,1.946
5570,178.24,0.6929,4.9366,0.2131,-0.0066,-0.2179,1.5748,rough,15.5,0,1.945
5580,178.56,0.6923,4.9366,0.2131,-0.0062,-0.2179,1.5732,rough,15.5,0,1.944
5590,178.88,0.6919,4.9367,0.2131,-0.0060,-0.2179,1.5722,rough,15.5,0,1.944
5600,179.20,0.6917,4.9367,0.2131,-0.0058,-0.2179,1.5716,rough,15.5,0,1.944
5610,179.52,0.6916,4.9367,0.2131,-0.0057,-0.2179,1.5711,rough,15.5,0,1.944
5620,179.84,0.6917,4.9368,0.2131,-0.0056,-0.2180,1.5704,rough,15.5,0,1.944
5630,180.16,0.6921,4.9369,0.2132,-0.0054,-0.2181,1.5691,rough,15.5,0,1.944
5640,180.48,0.6931,4.9374,0.2133,-0.0050,-0.2183,1.5670,rough,15.5,0,1.945
5650,180.80,0.6949,4.9382,0.2135,-0.0043,-0.2187,1.5633,rough,15.5,0,1.947
5660,181.12,0.6984,4.9390,0.2138,-0.0031,-0.2195,1.5568,rough,15.5,0,1.950
5670,181.44,0.7049,4.9391,0.2141,-0.0006,-0.2212,1.5445,rough,15.5,0,1.956
5680,181.76,0.7171,4.9387,0.2145,0.0046,-0.2245,1.5200,rough,15.5,0,1.968
5690,182.08,0.7337,4.9369,0.2141,0.0067,-0.2238,1.5069,rough,15.5,0,1.984
5700,182.40,0.7459,4.9356,0.2144,0.0035,-0.2274,1.5235,rough,15.5,0,1.996
5710,182.72,0.7540,4.9353,0.2147,0.0002,-0.2296,1.5376,rough,15.5,0,2.004
5720,183.04,0.7588,4.9356,0.2149,-0.0029,-0.2297,1.5506,rough,15.5,0,2.009
5730,183.36,0.7617,4.9359,0.2150,-0.0048,-0.2297,1.5586,rough,15.5,0,2.012
5740,183.68,0.7639,4.9357,0.2150,-0.0055,-0.2300,1.5617,rough,15.5,0,2.014
5750,184.00,0.7653,4.9358,0.2150,-0.0064,-0.2299,1.5654,rough,15.5,0,2.015
5760,184.32,0.7661,4.9358,0.2151,-0.0069,-0.2299,1.5677,rough,15.5,0,2.016
5770,184.64,0.7666,4.9359,0.2151,-0.0073,-0.2299,1.5692,rough,15.5,0,2.016
5780,184.96,0.7670,4.9359,0.2151,-0.0075,-0.2299,1.5700,rough,15.5,0,2.017
5790,185.28,0.7671,4.9359,0.2151,-0.0076,-0.2299,1.5705,rough,15.5,0,2.017
5800,185.60,0.7672,4.9360,0.2151,-0.0077,-0.2299,1.5712,rough,15.5,0,2.017
5810,185.92,0.7670,4.9361,0.2151,-0.0079,-0.2297,1.5722,rough,15.5,0,2.017
5820,186.24,0.7663,4.9365,0.2152,-0.0084,-0.2295,1.5739,rough,15.5,0,2.016
5830,186.56,0.7649,4.9371,0.2152,-0.0090,-0.2290,1.5768,rough,15.5,0,2.014
5840,186.88,0.7622,4.9382,0.2154,-0.0101,-0.2281,1.5816,rough,15.5,0,2.011
5850,187.20,0.7574,4.9387,0.2153,-0.0118,-0.2267,1.5898,rough,15.5,0,2.007
5860,187.52,0.7489,4.9388,0.2150,-0.0147,-0.2244,1.6037,rough,15.5,0,1.998
5870,187.84,0.7342,4.9385,0.2145,-0.0191,-0.2206,1.6263,rough,15.5,0,1.984
5880,188.16,0.7179,4.9371,0.2138,-0.0184,-0.2184,1.6277,rough,15.5,0,1.969
5890,188.48,0.7079,4.9360,0.2133,-0.0152,-0.2180,1.6128,rough,15.5,0,1.960
5900,188.80,0.7011,4.9357,0.2130,-0.0120,-0.2179,1.5985,rough,15.5,0,1.953
5910,189.12,0.6973,4.9361,0.2131,-0.0094,-0.2180,1.5872,rough,15.5,0,1.949
5920,189.44,0.6949,4.9363,0.2131,-0.0079,-0.2179,1.5806,rough,15.5,0,1.947
5930,189.76,0.6935,4.9365,0.2131,-0.0070,-0.2179,1.5766,rough,15.5,0,1.946
5940,190.08,0.6927,4.9366,0.2131,-0.0065,-0.2179,1.5742,rough,15.5,0,1.945
5950,190.40,0.6922,4.9366,0.2131,-0.0061,-0.2179,1.5728,rough,15.5,0,1.944
5960,190.72,0.6919,4.9367,0.2131,-0.0059,-0.2179,1.5720,rough,15.5,0,1.944
5970,191.04,0.6917,4.9367,0.2131,-0.0058,-0.2179,1.5714,rough,15.5,0,1.944
5980,191.36,0.6916,4.9367,0.2131,-0.0057,-0.2179,1.5709,rough,15.5,0,1.944
5990,191.68,0.6918,4.9368,0.2131,-0.0055,-0.2180,1.5700,rough,15.5,0,1.944
6000,192.00,0.6923,4.9370,0.2132,-0.0053,-0.2181,1.5686,rough,15.5,0,1.944
6010,192.32,0.6935,4.9376,0.2133,-0.0048,-0.2184,1.5660,rough,15.5,0,1.945
6020,192.64,0.6958,4.9385,0.2136,-0.0041,-0.2189,1.5617,rough,15.5,0,1.947
6030,192.96,0.7000,4.9391,0.2139,-0.0025,-0.2199,1.5538,rough,15.5,0,1.951
6040,193.28,0.7079,4.9391,0.2142,0.0007,-0.2220,1.5387,rough,15.5,0,1.959
6050,193.60,0.7212,4.9383,0.2137,0.0052,-0.2200,1.5172,rough,15.5,0,1.972
6060,193.92,0.7387,4.9365,0.2145,0.0059,-0.2268,1.5122,rough,15.5,0,1.989
6070,194.24,0.7494,4.9352,0.2146,0.0028,-0.2295,1.5265,rough,15.5,0,2.000
6080,194.56,0.7560,4.9354,0.2148,-0.0011,-0.2297,1.5430,rough,15.5,0,2.006
6090,194.88,0.7600,4.9357,0.2149,-0.0037,-0.2297,1.5539,rough,15.5,0,2.010
6100,195.20,0.7625,4.9359,0.2150,-0.0052,-0.2297,1.5606,rough,15.5,0,2.012
6110,195.52,0.7645,4.9357,0.2150,-0.0059,-0.2300,1.5632,rough,15.5,0,2.014
6120,195.84,0.7656,4.9358,0.2151,-0.0066,-0.2299,1.5664,rough,15.5,0,2.015
6130,196.16,0.7664,4.9359,0.2151,-0.0071,-0.2299,1.5683,rough,15.5,0,2.016
6140,196.48,0.7668,4.9359,0.2151,-0.0073,-0.2299,1.5695,rough,15.5,0,2.016
6150,196.80,0.7670,4.9359,0.2151,-0.0075,-0.2299,1.5703,rough,15.5,0,2.017
6160,197.12,0.7672,4.9360,0.2151,-0.0076,-0.2299,1.5707,rough,15.5,0,2.017
6170,197.44,0.7671,4.9360,0.2151,-0.0078,-0.2298,1.5715,rough,15.5,0,2.017
6180,197.76,0.7668,4.9362,0.2151,-0.0081,-0.2297,1.5727,rough,15.5,0,2.016
6190,198.08,0.7659,4.9367,0.2152,-0.0086,-0.2293,1.5748,rough,15.5,0,2.015
6200,198.40,0.7641,4.9374,0.2153,-0.0094,-0.2287,1.5783,rough,15.5,0,2.013
6210,198.72,0.7608,4.9384,0.2154,-0.0106,-0.2277,1.5841,rough,15.5,0,2.010
6220,199.04,0.7548,4.9387,0.2152,-0.0127,-0.2260,1.5941,rough,15.5,0,2.004
6230,199.36,0.7444,4.9388,0.2148,-0.0162,-0.2232,1.6109,rough,15.5,0,1.994
6240,199.68,0.7266,4.9384,0.2144,-0.0205,-0.2187,1.6376,rough,15.5,0,1.977
6250,200.00,0.7135,4.9367,0.2134,-0.0171,-0.2170,1.6222,rough,15.5,0,1.965
6260,200.32,0.7049,4.9359,0.2131,-0.0140,-0.2178,1.6070,rough,15.5,0,1.957
6270,200.64,0.6994,4.9359,0.2131,-0.0108,-0.2179,1.5932,rough,15.5,0,1.951
6280,200.96,0.6962,4.9362,0.2131,-0.0087,-0.2180,1.5842,rough,15.5,0,1.948
6290,201.28,0.6943,4.9364,0.2131,-0.0075,-0.2179,1.5788,rough,15.5,0,1.946
6300,201.60,0.6931,4.9365,0.2131,-0.0068,-0.2179,1.5755,rough,15.5,0,1.945
6310,201.92,0.6924,4.9366,0.2131,-0.0063,-0.2179,1.5736,rough,15.5,0,1.945
6320,202.24,0.6920,4.9367,0.2131,-0.0060,-0.2179,1.5724,rough,15.5,0,1.944
6330,202.56,0.6918,4.9367,0.2131,-0.0059,-0.2179,1.5717,rough,15.5,0,1.944
6340,202.88,0.6916,4.9367,0.2131,-0.0058,-0.2179,1.5713,rough,15.5,0,1.944
6350,203.20,0.6917,4.9368,0.2131,-0.0057,-0.2179,1.5706,rough,15.5,0,1.944
6360,203.52,0.6919,4.9369,0.2131,-0.0055,-0.2180,1.5696,rough,15.5,0,1.944
6370,203.84,0.6927,4.9372,0.2132,-0.0051,-0.2182,1.5677,rough,15.5,0,1.945
6380,204.16,0.6943,4.9379,0.2134,-0.0046,-0.2185,1.5646,rough,15.5,0,1.946
6390,204.48,0.6972,4.9389,0.2137,-0.0036,-0.2192,1.5592,rough,15.5,0,1.949
6400,204.80,0.7025,4.9391,0.2140,-0.0015,-0.2206,1.5491,rough,15.5,0,1.954
6410,205.12,0.7126,4.9389,0.2143,0.0026,-0.2233,1.5293,rough,15.5,0,1.963
6420,205.44,0.7288,4.9377,0.2143,0.0083,-0.2246,1.5004,rough,15.5,0,1.979
6430,205.76,0.7427,4.9359,0.2141,0.0041,-0.2253,1.5215,rough,15.5,0,1.993
6440,206.08,0.7521,4.9352,0.2146,0.0014,-0.2294,1.5326,rough,15.5,0,2.002
6450,206.40,0.7576,4.9355,0.2148,-0.0021,-0.2297,1.5473,rough,15.5,0,2.008
6460,206.72,0.7610,4.9358,0.2150,-0.0043,-0.2297,1.5566,rough,15.5,0,2.011
6470,207.04,0.7632,4.9358,0.2150,-0.0054,-0.2298,1.5613,rough,15.5,0,2.013
6480,207.36,0.7650,4.9357,0.2150,-0.0061,-0.2299,1.5645,rough,15.5,0,2.015
6490,207.68,0.7659,4.9358,0.2151,-0.0068,-0.2299,1.5672,rough,15.5,0,2.016
6500,208.00,0.7665,4.9359,0.2151,-0.0072,-0.2299,1.5688,rough,15.5,0,2.016
6510,208.32,0.7669,4.9359,0.2151,-0.0074,-0.2299,1.5698,rough,15.5,0,2.017
6520,208.64,0.7671,4.9359,0.2151,-0.0076,-0.2299,1.5704,rough,15.5,0,2.017
6530,208.96,0.7672,4.9360,0.2151,-0.0077,-0.2299,1.5709,rough,15.5,0,2.017
6540,209.28,0.7671,4.9361,0.2151,-0.0079,-0.2298,1.5718,rough,15.5,0,2.017
6550,209.60,0.7666,4.9363,0.2152,-0.0082,-0.2296,1.5733,rough,15.5,0,2.016
6560,209.92,0.7654,4.9368,0.2152,-0.0088,-0.2292,1.5758,rough,15.5,0,2.015
6570,210.24,0.7632,4.9378,0.2153,-0.0097,-0.2284,1.5799,rough,15.5,0,2.012
6580,210.56,0.7591,4.9386,0.2153,-0.0112,-0.2272,1.5868,rough,15.5,0,2.008
6590,210.88,0.7520,4.9388,0.2151,-0.0137,-0.2253,1.5988,rough,15.5,0,2.001
6600,211.20,0.7394,4.9386,0.2146,-0.0177,-0.2219,1.6185,rough,15.5,0,1.989
6610,211.52,0.7213,4.9379,0.2134,-0.0195,-0.2134,1.6336,rough,15.5,0,1.972
6620,211.84,0.7105,4.9363,0.2134,-0.0161,-0.2181,1.6172,rough,15.5,0,1.962
6630,212.16,0.7028,4.9356,0.2131,-0.0131,-0.2179,1.6030,rough,15.5,0,1.955
6640,212.48,0.6982,4.9360,0.2131,-0.0100,-0.2180,1.5899,rough,15.5,0,1.950
6650,212.80,0.6955,4.9363,0.2131,-0.0083,-0.2180,1.5822,rough,15.5,0,1.948
6660,213.12,0.6938,4.9365,0.2131,-0.0072,-0.2179,1.5776,rough,15.5,0,1.946
6670,213.44,0.6929,4.9366,0.2131,-0.0066,-0.2179,1.5748,rough,15.5,0,1.945
6680,213.76,0.6923,4.9366,0.2131,-0.0062,-0.2179,1.5732,rough,15.5,0,1.944
6690,214.08,0.6919,4.9367,0.2131,-0.0060,-0.2179,1.5722,rough,15.5,0,1.944
6700,214.40,0.6917,4.9367,0.2131,-0.0058,-0.2179,1.5716,rough,15.5,0,1.944
6710,214.72,0.6916,4.9367,0.2131,-0.0057,-0.2179,1.5711,rough,15.5,0,1.944
6720,215.04,0.6917,4.9368,0.2131,-0.0056,-0.2180,1.5704,rough,15.5,0,1.944
6730,215.36,0.6921,4.9369,0.2132,-0.0054,-0.2181,1.5691,rough,15.5,0,1.944
6740,215.68,0.6931,4.9374,0.2133,-0.0050,-0.2183,1.5669,rough,15.5,0,1.945
6750,216.00,0.6950,4.9382,0.2135,-0.0043,-0.2187,1.5632,rough,15.5,0,1.947
6760,216.32,0.6985,4.9390,0.2138,-0.0031,-0.2195,1.5567,rough,15.5,0,1.950
6770,216.64,0.7050,4.9391,0.2141,-0.0005,-0.2213,1.5443,rough,15.5,0,1.956
6780,216.96,0.7173,4.9386,0.2145,0.0047,-0.2246,1.5196,rough,15.5,0,1.968
6790,217.28,0.7340,4.9369,0.2144,0.0067,-0.2255,1.5070,rough,15.5,0,1.985
6800,217.60,0.7467,4.9354,0.2146,0.0039,-0.2291,1.5215,rough,15.5,0,1.997
6810,217.92,0.7544,4.9353,0.2147,-0.0000,-0.2297,1.5386,rough,15.5,0,2.005
6820,218.24,0.7590,4.9357,0.2149,-0.0030,-0.2298,1.5512,rough,15.5,0,2.009
6830,218.56,0.7619,4.9359,0.2150,-0.0049,-0.2297,1.5589,rough,15.5,0,2.012
6840,218.88,0.7641,4.9357,0.2150,-0.0056,-0.2300,1.5620,rough,15.5,0,2.014
6850,219.20,0.7654,4.9358,0.2150,-0.0064,-0.2299,1.5656,rough,15.5,0,2.015
6860,219.52,0.7662,4.9359,0.2151,-0.0069,-0.2299,1.5679,rough,15.5,0,2.016
6870,219.84,0.7667,4.9359,0.2151,-0.0073,-0.2299,1.5692,rough,15.5,0,2.016
6880,220.16,0.7670,4.9359,0.2151,-0.0075,-0.2299,1.5701,rough,15.5,0,2.017
6890,220.48,0.7672,4.9359,0.2151,-0.0076,-0.2299,1.5706,rough,15.5,0,2.017
6900,220.80,0.7672,4.9360,0.2151,-0.0077,-0.2299,1.5712,rough,15.5,0,2.017
6910,221.12,0.7669,4.9361,0.2151,-0.0080,-0.2297,1.5723,rough,15.5,0,2.017
6920,221.44,0.7662,4.9365,0.2152,-0.0084,-0.2294,1.5741,rough,15.5,0,2.016
6930,221.76,0.7647,4.9372,0.2153,-0.0091,-0.2289,1.5771,rough,15.5,0,2.014
6940,222.08,0.7619,4.9382,0.2154,-0.0102,-0.2280,1.5820,rough,15.5,0,2.011
6950,222.40,0.7569,4.9387,0.2153,-0.0120,-0.2266,1.5906,rough,15.5,0,2.006
6960,222.72,0.7481,4.9388,0.2150,-0.0150,-0.2242,1.6050,rough,15.5,0,1.998
6970,223.04,0.7328,4.9385,0.2144,-0.0194,-0.2202,1.6285,rough,15.5,0,1.983
6980,223.36,0.7165,4.9369,0.2134,-0.0180,-0.2159,1.6270,rough,15.5,0,1.968
6990,223.68,0.7071,4.9360,0.2132,-0.0148,-0.2177,1.6112,rough,15.5,0,1.959
7000,224.00,0.7006,4.9358,0.2130,-0.0117,-0.2179,1.5969,rough,15.5,0,1.953
7010,224.32,0.6969,4.9361,0.2131,-0.0092,-0.2180,1.5863,rough,15.5,0,1.949
7020,224.64,0.6947,4.9364,0.2131,-0.0078,-0.2179,1.5800,rough,15.5,0,1.947
7030,224.96,0.6934,4.9365,0.2131,-0.0069,-0.2179,1.5763,rough,15.5,0,1.946
7040,225.28,0.6926,4.9366,0.2131,-0.0064,-0.2179,1.5740,rough,15.5,0,1.945
7050,225.60,0.6921,4.9367,0.2131,-0.0061,-0.2179,1.5727,rough,15.5,0,1.944
7060,225.92,0.6918,4.9367,0.2131,-0.0059,-0.2179,1.5719,rough,15.5,0,1.944
7070,226.24,0.6917,4.9367,0.2131,-0.0058,-0.2179,1.5714,rough,15.5,0,1.944
7080,226.56,0.6916,4.9368,0.2131,-0.0057,-0.2179,1.5708,rough,15.5,0,1.944
7090,226.88,0.6918,4.9369,0.2131,-0.0055,-0.2180,1.5699,rough,15.5,0,1.944
7100,227.20,0.6924,4.9370,0.2132,-0.0052,-0.2181,1.5683,rough,15.5,0,1.944
7110,227.52,0.6937,4.9376,0.2134,-0.0048,-0.2184,1.5657,rough,15.5,0,1.946
7120,227.84,0.6961,4.9386,0.2137,-0.0039,-0.2190,1.5611,rough,15.5,0,1.948
7130,228.16,0.7007,4.9391,0.2139,-0.0023,-0.2201,1.5526,rough,15.5,0,1.952
7140,228.48,0.7091,4.9391,0.2142,0.0011,-0.2223,1.5364,rough,15.5,0,1.960
7150,228.80,0.7232,4.9382,0.2139,0.0061,-0.2216,1.5131,rough,15.5,0,1.974
7160,229.12,0.7403,4.9362,0.2146,0.0057,-0.2280,1.5128,rough,15.5,0,1.991
7170,229.44,0.7505,4.9351,0.2146,0.0024,-0.2297,1.5281,rough,15.5,0,2.001
7180,229.76,0.7566,4.9355,0.2148,-0.0014,-0.2297,1.5446,rough,15.5,0,2.007
7190,230.08,0.7604,4.9358,0.2149,-0.0039,-0.2297,1.5549,rough,15.5,0,2.010
7200,230.40,0.7627,4.9359,0.2150,-0.0054,-0.2297,1.5611,rough,15.5,0,2.013
7210,230.72,0.7647,4.9357,0.2150,-0.0060,-0.2300,1.5637,rough,15.5,0,2.014
7220,231.04,0.7657,4.9358,0.2151,-0.0067,-0.2299,1.5667,rough,15.5,0,2.015
7230,231.36,0.7664,4.9359,0.2151,-0.0071,-0.2299,1.5685,rough,15.5,0,2.016
7240,231.68,0.7668,4.9359,0.2151,-0.0074,-0.2299,1.5696,rough,15.5,0,2.016
7250,232.00,0.7671,4.9359,0.2151,-0.0075,-0.2299,1.5703,rough,15.5,0,2.017
7260,232.32,0.7672,4.9360,0.2151,-0.0077,-0.2299,1.5708,rough,15.5,0,2.017
7270,232.64,0.7671,4.9360,0.2151,-0.0078,-0.2298,1.5716,rough,15.5,0,2.017
7280,232.96,0.7667,4.9362,0.2151,-0.0081,-0.2296,1.5729,rough,15.5,0,2.016
7290,233.28,0.7657,4.9367,0.2152,-0.0086,-0.2293,1.5751,rough,15.5,0,2.015
7300,233.60,0.7638,4.9376,0.2153,-0.0095,-0.2286,1.5788,rough,15.5,0,2.013
7310,233.92,0.7602,4.9385,0.2154,-0.0108,-0.2275,1.5850,rough,15.5,0,2.009
7320,234.24,0.7539,4.9388,0.2152,-0.0131,-0.2258,1.5957,rough,15.5,0,2.003
7330,234.56,0.7427,4.9387,0.2148,-0.0167,-0.2228,1.6134,rough,15.5,0,1.993
7340,234.88,0.7249,4.9380,0.2143,-0.0201,-0.2196,1.6355,rough,15.5,0,1.976
7350,235.20,0.7126,4.9365,0.2133,-0.0166,-0.2167,1.6197,rough,15.5,0,1.964
7360,235.52,0.7043,4.9357,0.2131,-0.0137,-0.2178,1.6058,rough,15.5,0,1.956
7370,235.84,0.6990,4.9359,0.2131,-0.0106,-0.2179,1.5922,rough,15.5,0,1.951
7380,236.16,0.6960,4.9362,0.2131,-0.0086,-0.2179,1.5836,rough,15.5,0,1.948
7390,236.48,0.6941,4.9364,0.2131,-0.0074,-0.2179,1.5784,rough,15.5,0,1.946
7400,236.80,0.6930,4.9365,0.2131,-0.0067,-0.2179,1.5753,rough,15.5,0,1.945
7410,237.12,0.6924,4.9366,0.2131,-0.0063,-0.2179,1.5735,rough,15.5,0,1.945
7420,237.44,0.6920,4.9367,0.2131,-0.0060,-0.2179,1.5723,rough,15.5,0,1.944
7430,237.76,0.6918,4.9367,0.2131,-0.0059,-0.2179,1.5717,rough,15.5,0,1.944
7440,238.08,0.6916,4.9367,0.2131,-0.0058,-0.2179,1.5712,rough,15.5,0,1.944
7450,238.40,0.6917,4.9368,0.2131,-0.0056,-0.2179,1.5706,rough,15.5,0,1.944
7460,238.72,0.6920,4.9369,0.2131,-0.0054,-0.2180,1.5694,rough,15.5,0,1.944
7470,239.04,0.6928,4.9372,0.2132,-0.0051,-0.2182,1.5675,rough,15.5,0,1.945
7480,239.36,0.6944,4.9380,0.2135,-0.0045,-0.2186,1.5642,rough,15.5,0,1.946
7490,239.68,0.6975,4.9389,0.2138,-0.0035,-0.2193,1.5585,rough,15.5,0,1.949
7500,240.00,0.7032,4.9392,0.2140,-0.0013,-0.2208,1.5478,rough,15.5,0,1.954
7510,240.32,0.7138,4.9389,0.2144,0.0032,-0.2236,1.5268,rough,15.5,0,1.965
7520,240.64,0.7307,4.9376,0.2145,0.0088,-0.2249,1.4957,rough,15.5,0,1.981
7530,240.96,0.7439,4.9356,0.2145,0.0048,-0.2285,1.5177,rough,15.5,0,1.994
7540,241.28,0.7527,4.9352,0.2147,0.0011,-0.2297,1.5340,rough,15.5,0,2.003
7550,241.60,0.7580,4.9356,0.2149,-0.0023,-0.2298,1.5484,rough,15.5,0,2.008
7560,241.92,0.7612,4.9358,0.2150,-0.0044,-0.2297,1.5572,rough,15.5,0,2.011
7570,242.24,0.7635,4.9357,0.2150,-0.0054,-0.2299,1.5612,rough,15.5,0,2.013
7580,242.56,0.7651,4.9357,0.2150,-0.0062,-0.2299,1.5648,rough,15.5,0,2.015
7590,242.88,0.7660,4.9358,0.2151,-0.0068,-0.2299,1.5674,rough,15.5,0,2.016
7600,243.20,0.7666,4.9359,0.2151,-0.0072,-0.2299,1.5689,rough,15.5,0,2.016
7610,243.52,0.7669,4.9359,0.2151,-0.0074,-0.2299,1.5699,rough,15.5,0,2.017
7620,243.84,0.7671,4.9359,0.2151,-0.0076,-0.2299,1.5705,rough,15.5,0,2.017
7630,244.16,0.7672,4.9360,0.2151,-0.0077,-0.2299,1.5710,rough,15.5,0,2.017
7640,244.48,0.7670,4.9361,0.2151,-0.0079,-0.2298,1.5719,rough,15.5,0,2.017
7650,244.80,0.7665,4.9364,0.2152,-0.0082,-0.2295,1.5735,rough,15.5,0,2.016
7660,245.12,0.7653,4.9369,0.2152,-0.0088,-0.2291,1.5761,rough,15.5,0,2.015
7670,245.44,0.7629,4.9379,0.2153,-0.0098,-0.2283,1.5804,rough,15.5,0,2.012
7680,245.76,0.7586,4.9386,0.2153,-0.0114,-0.2271,1.5877,rough,15.5,0,2.008
7690,246.08,0.7511,4.9388,0.2151,-0.0140,-0.2250,1.6002,rough,15.5,0,2.001
7700,246.40,0.7379,4.9385,0.2146,-0.0182,-0.2215,1.6208,rough,15.5,0,1.988
7710,246.72,0.7204,4.9374,0.2140,-0.0191,-0.2185,1.6305,rough,15.5,0,1.971
7720,247.04,0.7097,4.9362,0.2134,-0.0158,-0.2181,1.6159,rough,15.5,0,1.961
7730,247.36,0.7022,4.9356,0.2130,-0.0128,-0.2179,1.6017,rough,15.5,0,1.954
7740,247.68,0.6979,4.9360,0.2131,-0.0098,-0.2180,1.5890,rough,15.5,0,1.950
7750,248.00,0.6953,4.9363,0.2131,-0.0082,-0.2179,1.5817,rough,15.5,0,1.947
7760,248.32,0.6937,4.9365,0.2131,-0.0072,-0.2179,1.5773,rough,15.5,0,1.946
7770,248.64,0.6928,4.9366,0.2131,-0.0066,-0.2179,1.5746,rough,15.5,0,1.945
7780,248.96,0.6922,4.9366,0.2131,-0.0062,-0.2179,1.5730,rough,15.5,0,1.944
7790,249.28,0.6919,4.9367,0.2131,-0.0060,-0.2179,1.5721,rough,15.5,0,1.944
7800,249.60,0.6917,4.9367,0.2131,-0.0058,-0.2179,1.5715,rough,15.5,0,1.944
7810,249.92,0.6916,4.9367,0.2131,-0.0057,-0.2179,1.5711,rough,15.5,0,1.944
7820,250.24,0.6917,4.9368,0.2131,-0.0056,-0.2180,1.5703,rough,15.5,0,1.944
7830,250.56,0.6922,4.9370,0.2132,-0.0053,-0.2181,1.5689,rough,15.5,0,1.944
7840,250.88,0.6932,4.9375,0.2133,-0.0049,-0.2183,1.5667,rough,15.5,0,1.945
7850,251.20,0.6952,4.9383,0.2135,-0.0042,-0.2188,1.5628,rough,15.5,0,1.947
7860,251.52,0.6989,4.9391,0.2139,-0.0029,-0.2197,1.5559,rough,15.5,0,1.950
7870,251.84,0.7058,4.9391,0.2141,-0.0002,-0.2215,1.5427,rough,15.5,0,1.957
7880,252.16,0.7180,4.9386,0.2124,0.0041,-0.2113,1.5235,rough,15.5,0,1.969
7890,252.48,0.7358,4.9369,0.2147,0.0073,-0.2272,1.5030,rough,15.5,0,1.986
7900,252.80,0.7472,4.9354,0.2144,0.0034,-0.2279,1.5243,rough,15.5,0,1.998
7910,253.12,0.7547,4.9353,0.2147,-0.0002,-0.2296,1.5395,rough,15.5,0,2.005
7920,253.44,0.7592,4.9357,0.2149,-0.0031,-0.2297,1.5518,rough,15.5,0,2.009
7930,253.76,0.7620,4.9359,0.2150,-0.0049,-0.2297,1.5593,rough,15.5,0,2.012
7940,254.08,0.7641,4.9357,0.2150,-0.0056,-0.2300,1.5622,rough,15.5,0,2.014
7950,254.40,0.7654,4.9358,0.2150,-0.0064,-0.2299,1.5658,rough,15.5,0,2.015
7960,254.72,0.7662,4.9359,0.2151,-0.0070,-0.2299,1.5679,rough,15.5,0,2.016
7970,255.04,0.7667,4.9359,0.2151,-0.0073,-0.2299,1.5693,rough,15.5,0,2.016
7980,255.36,0.7670,4.9359,0.2151,-0.0075,-0.2299,1.5701,rough,15.5,0,2.017
7990,255.68,0.7672,4.9360,0.2151,-0.0076,-0.2299,1.5706,rough,15.5,0,2.017
8000,256.00,0.7672,4.9360,0.2151,-0.0078,-0.2299,1.5713,rough,15.5,0,2.017
8010,256.32,0.7669,4.9361,0.2151,-0.0080,-0.2297,1.5723,rough,15.5,0,2.017
8020,256.64,0.7662,4.9365,0.2152,-0.0084,-0.2294,1.5742,rough,15.5,0,2.016
8030,256.96,0.7646,4.9372,0.2153,-0.0091,-0.2289,1.5773,rough,15.5,0,2.014
8040,257.28,0.7618,4.9383,0.2154,-0.0103,-0.2280,1.5823,rough,15.5,0,2.011
8050,257.60,0.7566,4.9387,0.2153,-0.0121,-0.2265,1.5911,rough,15.5,0,2.006
8060,257.92,0.7475,4.9388,0.2150,-0.0152,-0.2241,1.6059,rough,15.5,0,1.997
