step,time_s,x,y,z,roll,pitch,yaw,terrain,speed,target_idx,dist_to_target
10,0.32,2.1846,0.5010,0.1866,0.0000,-0.0553,0.0000,rough,15.5,0,6.240
20,0.64,2.6633,0.5088,0.1787,0.0001,0.0066,0.0398,rough,15.5,0,5.775
30,0.96,3.1487,0.5335,0.1797,0.0002,0.0007,0.0908,rough,15.5,0,5.302
40,1.28,3.6338,0.5814,0.1798,0.0002,0.0001,0.1352,rough,15.5,0,4.824
50,1.60,4.1169,0.6505,0.1799,0.0001,0.0000,0.1746,rough,15.5,0,4.343
60,1.92,4.5973,0.7385,0.1799,0.0001,0.0000,0.2103,rough,15.5,0,3.860
70,2.24,5.0745,0.8436,0.1799,0.0001,-0.0000,0.2437,rough,15.5,0,3.376
80,2.56,5.5479,0.9644,0.1799,0.0001,-0.0000,0.2757,rough,15.5,0,2.891
90,2.88,6.0170,1.1005,0.1799,0.0001,-0.0000,0.3076,rough,15.5,0,2.405
100,3.20,6.4809,1.2514,0.1799,0.0001,0.0000,0.3408,rough,15.5,0,1.920
110,3.52,6.9218,1.4089,0.1924,0.0031,-0.0831,0.3831,rough,15.5,0,1.453
120,3.84,7.2820,1.5445,0.2668,0.1088,-0.4464,0.3846,rough,15.5,0,1.070
130,4.16,7.5527,1.6988,0.4178,-0.0481,-0.6222,0.3900,rough,15.5,1,5.059
140,4.48,7.7639,1.7880,0.5422,-0.2132,-0.5194,0.7778,rough,15.5,1,5.119
150,4.80,7.9582,1.9460,0.6510,-0.2141,-0.3680,1.0337,rough,15.5,1,5.126
160,5.12,8.0862,2.1436,0.7296,-0.2454,-0.2977,1.2244,rough,15.5,1,5.070
170,5.44,8.1748,2.3605,0.7966,-0.2450,-0.2716,1.3655,rough,15.5,1,4.983
180,5.76,8.2275,2.5798,0.8602,-0.2403,-0.3045,1.4675,rough,15.5,1,4.876
190,6.08,8.2584,2.8125,0.9262,-0.2087,-0.3133,1.5520,rough,15.5,1,4.753
200,6.40,8.2337,3.0652,1.0018,-0.2143,-0.3262,1.6718,rough,15.5,1,4.581
210,6.72,8.1956,3.3827,1.1187,-0.1987,-0.4159,1.6890,rough,15.5,1,4.370
220,7.04,8.1373,3.7271,1.2689,-0.2355,-0.4304,1.7518,rough,15.5,1,4.143
230,7.36,8.0473,4.0682,1.4251,-0.3007,-0.4232,1.8309,rough,15.5,1,3.906
240,7.68,7.9213,4.4121,1.5601,-0.3969,-0.3813,1.9152,rough,15.5,1,3.654
250,8.00,7.7506,4.7618,1.6937,-0.4020,-0.3108,2.0143,rough,15.5,1,3.377
260,8.32,7.5216,5.0999,1.8034,-0.4670,-0.2752,2.2230,rough,15.5,1,3.070
270,8.64,7.2312,5.4011,1.9053,-0.4790,-0.2670,2.3818,rough,15.5,1,2.733
280,8.96,6.8873,5.6646,2.0044,-0.5113,-0.2276,2.5210,rough,15.5,1,2.368
290,9.28,6.4872,5.8957,2.0704,-0.5128,-0.1134,2.6408,rough,15.5,1,1.972
300,9.60,6.0551,6.0835,2.0800,-0.5036,0.0170,2.7466,rough,15.5,1,1.571
310,9.92,5.6134,6.2019,2.0267,-0.4965,0.1691,2.9112,rough,15.5,1,1.183
320,10.24,5.1679,6.2018,1.9022,-0.5100,0.3391,3.1370,rough,15.5,2,0.791
330,10.56,4.7058,6.1492,1.7301,-0.5681,0.3684,-3.0985,rough,15.5,2,12.524
340,10.88,4.2626,6.0745,1.5395,-0.5852,0.3928,-3.0058,rough,15.5,2,12.080
350,11.20,3.8201,5.9730,1.3248,-0.6060,0.4650,-2.9532,rough,15.5,2,11.629
360,11.52,3.3948,5.8209,1.0668,-0.5780,0.4805,-2.8905,rough,15.5,2,11.177
370,11.84,2.9815,5.6554,0.8046,-0.5423,0.4827,-2.8331,rough,15.5,2,10.732
380,12.16,2.5780,5.4979,0.5849,-0.4979,0.4099,-2.7605,rough,15.5,2,10.300
390,12.48,2.1849,5.3265,0.4141,-0.4181,0.2445,-2.7074,rough,15.5,2,9.872
400,12.80,1.7437,5.1468,0.3040,-0.2673,0.2090,-2.7157,rough,15.5,2,9.397
410,13.12,1.3230,4.9508,0.2294,-0.2373,0.0887,-2.7037,rough,15.5,2,8.936
420,13.44,0.8769,4.7696,0.2036,-0.0984,0.0308,-2.7145,rough,15.5,2,8.456
430,13.76,0.4226,4.5869,0.1820,-0.0046,0.0135,-2.7319,rough,15.5,2,7.967
440,14.08,-0.0276,4.3942,0.1795,-0.0020,0.0003,-2.7438,rough,15.5,2,7.480
450,14.40,-0.4827,4.2056,0.1798,-0.0003,0.0000,-2.7581,rough,15.5,2,6.989
460,14.72,-0.9405,4.0229,0.1799,0.0001,-0.0002,-2.7715,rough,15.5,2,6.498
470,15.04,-1.4002,3.8466,0.1805,0.0007,-0.0000,-2.7826,rough,15.5,2,6.008
480,15.36,-1.8599,3.6732,0.1795,-0.0002,0.0033,-2.7912,rough,15.5,2,5.518
490,15.68,-2.3225,3.5060,0.1798,-0.0001,0.0002,-2.8010,rough,15.5,2,5.027
500,16.00,-2.7878,3.3428,0.1799,-0.0000,0.0000,-2.8138,rough,15.5,2,4.536
510,16.32,-3.2483,3.1866,0.1856,-0.0064,-0.0315,-2.8244,rough,15.5,2,4.051
520,16.64,-3.7099,3.0333,0.2050,-0.0218,-0.0554,-2.8321,rough,15.5,2,3.565
530,16.96,-4.1862,2.8833,0.2182,-0.0234,-0.0123,-2.8447,rough,15.5,2,3.067
540,17.28,-4.6679,2.7354,0.2094,-0.0371,0.0507,-2.8580,rough,15.5,2,2.564
550,17.60,-5.1394,2.6001,0.1855,-0.0293,0.0391,-2.8744,rough,15.5,2,2.075
560,17.92,-5.6085,2.4818,0.1822,0.0049,-0.0112,-2.8881,rough,15.5,2,1.592
570,18.24,-6.0841,2.3713,0.1888,0.0254,-0.0172,-2.9118,rough,15.5,2,1.104
580,18.56,-6.5494,2.2759,0.1883,0.0326,0.0193,-2.8742,rough,15.5,3,10.435
590,18.88,-6.9204,2.1653,0.1852,0.0247,0.0016,-2.7002,rough,15.5,3,10.417
600,19.20,-7.2663,1.9764,0.1823,0.0132,0.0018,-2.5463,rough,15.5,3,10.331
610,19.52,-7.5999,1.7299,0.1796,-0.0007,0.0005,-2.3591,rough,15.5,3,10.200
620,19.84,-7.8687,1.4208,0.1798,0.0001,-0.0000,-2.1812,rough,15.5,3,10.003
630,20.16,-8.0921,1.0567,0.1798,0.0001,-0.0000,-2.0079,rough,15.5,3,9.751
640,20.48,-8.2597,0.6848,0.1886,0.0171,-0.0397,-1.8977,rough,15.5,3,9.481
650,20.80,-8.3932,0.3074,0.1998,0.0604,-0.0427,-1.8121,rough,15.5,3,9.200
660,21.12,-8.4893,-0.0816,0.2115,0.0807,-0.0178,-1.7424,rough,15.5,3,8.900
670,21.44,-8.5482,-0.5177,0.2012,0.0651,0.0367,-1.5771,rough,15.5,3,8.549
680,21.76,-8.5358,-0.9826,0.1927,0.0392,-0.0006,-1.4623,rough,15.5,3,8.144
690,22.08,-8.4704,-1.4623,0.1795,-0.0025,0.0009,-1.4089,rough,15.5,3,7.705
700,22.40,-8.3783,-1.9070,0.1796,0.0004,0.0007,-1.2533,rough,15.5,3,7.285
710,22.72,-8.2172,-2.3314,0.1825,0.0001,-0.0183,-1.1246,rough,15.5,3,6.845
720,23.04,-8.0037,-2.7394,0.1957,-0.0155,-0.0509,-1.0637,rough,15.5,3,6.389
730,23.36,-7.7559,-3.1645,0.2177,-0.0510,-0.0302,-1.0526,rough,15.5,3,5.900
740,23.68,-7.5057,-3.5995,0.2119,-0.0410,0.0337,-1.0385,rough,15.5,3,5.402
750,24.00,-7.2578,-4.0256,0.1887,-0.0055,0.0463,-1.0242,rough,15.5,3,4.913
760,24.32,-7.0067,-4.4315,0.1827,0.0010,-0.0250,-1.0044,rough,15.5,3,4.439
770,24.64,-6.7473,-4.8347,0.2053,0.0012,-0.0820,-0.9853,rough,15.5,3,3.962
780,24.96,-6.4747,-5.2544,0.2201,0.0439,-0.0224,-0.9655,rough,15.5,3,3.465
790,25.28,-6.1813,-5.6692,0.2042,0.0424,0.0641,-0.9444,rough,15.5,3,2.959
800,25.60,-5.8922,-6.0585,0.1863,0.0145,0.0213,-0.9311,rough,15.5,3,2.476
810,25.92,-5.5968,-6.4457,0.1800,0.0007,0.0005,-0.9133,rough,15.5,3,1.991
820,26.24,-5.3072,-6.8255,0.1881,0.0156,-0.0371,-0.8889,rough,15.5,3,1.516
830,26.56,-5.0026,-7.2036,0.1980,0.0523,-0.0137,-0.8526,rough,15.5,3,1.035
840,26.88,-4.7141,-7.5306,0.1916,0.0570,0.0255,-0.6807,rough,15.5,0,16.097
850,27.20,-4.4177,-7.7335,0.1894,0.0409,0.0154,-0.4857,rough,15.5,0,15.983
860,27.52,-4.0556,-7.9010,0.1827,0.0162,0.0021,-0.2894,rough,15.5,0,15.803
870,27.84,-3.6432,-8.0116,0.1822,0.0052,-0.0099,-0.1027,rough,15.5,0,15.556
880,28.16,-3.2050,-8.0401,0.1888,0.0001,-0.0441,0.0541,rough,15.5,0,15.243
890,28.48,-2.7668,-7.9791,0.2075,-0.0468,-0.0221,0.1421,rough,15.5,0,14.875
900,28.80,-2.3050,-7.8807,0.2012,-0.0776,0.0233,0.2424,rough,15.5,0,14.470
910,29.12,-1.8474,-7.7529,0.1931,-0.0181,0.0420,0.3338,rough,15.5,0,14.050
920,29.44,-1.4104,-7.5961,0.1873,0.0153,-0.0064,0.4151,rough,15.5,0,13.629
930,29.76,-0.9825,-7.3989,0.2007,0.0169,-0.0467,0.4662,rough,15.5,0,13.188
940,30.08,-0.5491,-7.1827,0.2141,0.0496,-0.0132,0.5192,rough,15.5,0,12.731
950,30.40,-0.1257,-6.9399,0.2080,0.0591,0.0329,0.5604,rough,15.5,0,12.264
960,30.72,0.2817,-6.6767,0.1924,0.0409,0.0087,0.5882,rough,15.5,0,11.795
970,31.04,0.6816,-6.3970,0.1811,0.0062,0.0031,0.6173,rough,15.5,0,11.319
980,31.36,1.0738,-6.1144,0.1824,0.0064,-0.0088,0.6441,rough,15.5,0,10.847
990,31.68,1.4630,-5.8261,0.1878,0.0293,-0.0071,0.6702,rough,15.5,0,10.374
1000,32.00,1.8471,-5.5220,0.1878,0.0482,0.0156,0.6969,rough,15.5,0,9.894
1010,32.32,2.2189,-5.2012,0.1850,0.0185,0.0123,0.7174,rough,15.5,0,9.409
1020,32.64,2.5832,-4.8754,0.1797,-0.0010,-0.0022,0.7362,rough,15.5,0,8.926
1030,32.96,2.9440,-4.5432,0.1798,0.0000,-0.0002,0.7552,rough,15.5,0,8.441
1040,33.28,3.2986,-4.2041,0.1799,0.0001,-0.0000,0.7728,rough,15.5,0,7.954
1050,33.60,3.6475,-3.8587,0.1799,0.0001,-0.0000,0.7891,rough,15.5,0,7.467
1060,33.92,3.9911,-3.5076,0.1799,0.0000,-0.0000,0.8046,rough,15.5,0,6.979
1070,34.24,4.3293,-3.1511,0.1799,0.0000,-0.0000,0.8195,rough,15.5,0,6.491
1080,34.56,4.6624,-2.7895,0.1799,0.0000,-0.0000,0.8340,rough,15.5,0,6.002
1090,34.88,4.9903,-2.4232,0.1799,0.0000,-0.0000,0.8478,rough,15.5,0,5.513
1100,35.20,5.3133,-2.0525,0.1799,0.0000,-0.0000,0.8612,rough,15.5,0,5.023
1110,35.52,5.6315,-1.6776,0.1799,0.0000,-0.0000,0.8742,rough,15.5,0,4.533
1120,35.84,5.9448,-1.2986,0.1799,0.0000,-0.0000,0.8871,rough,15.5,0,4.043
1130,36.16,6.2531,-0.9155,0.1799,0.0000,-0.0000,0.9004,rough,15.5,0,3.553
1140,36.48,6.5562,-0.5285,0.1799,0.0000,0.0000,0.9142,rough,15.5,0,3.063
1150,36.80,6.8463,-0.1379,0.1856,-0.0166,-0.0174,0.9289,rough,15.5,0,2.577
1160,37.12,7.1299,0.2586,0.1830,-0.0481,-0.0407,0.9412,rough,15.5,0,2.091
1170,37.44,7.3623,0.6312,0.2450,-0.1704,-0.2517,0.9768,rough,15.5,0,1.652
1180,37.76,7.5860,1.0365,0.3263,-0.3609,-0.3241,1.0297,rough,15.5,0,1.190
1190,38.08,7.8021,1.4209,0.4871,-0.3323,-0.3456,1.1267,rough,15.5,1,5.431
1200,38.40,7.9012,1.7025,0.5808,-0.3486,-0.3056,1.3374,rough,15.5,1,5.272
1210,38.72,7.9358,2.0013,0.6528,-0.3330,-0.2461,1.5253,rough,15.5,1,5.070
1220,39.04,7.9010,2.3489,0.7164,-0.3205,-0.2053,1.7528,rough,15.5,1,4.794
1230,39.36,7.7915,2.6861,0.7813,-0.3426,-0.2405,1.9109,rough,15.5,1,4.480
1240,39.68,7.6346,3.0003,0.8631,-0.3897,-0.2785,2.0497,rough,15.5,1,4.153
1250,40.00,7.4073,3.3205,0.9484,-0.3885,-0.2216,2.2277,rough,15.5,1,3.772
1260,40.32,7.0967,3.6053,0.9893,-0.5144,-0.0975,2.3447,rough,15.5,1,3.351
1270,40.64,6.7292,3.8533,0.9768,-0.5807,0.0559,2.4749,rough,15.5,1,2.910
1280,40.96,6.3553,4.0781,0.9335,-0.6279,-0.0421,2.4986,rough,15.5,1,2.481
1290,41.28,6.1734,4.1595,0.9485,-0.6298,-0.1989,2.7416,rough,15.5,1,2.292
1300,41.60,6.0132,4.0075,0.8339,-0.9641,-0.7720,2.7762,rough,15.5,1,2.293
1310,41.92,5.6933,3.8253,0.5449,-0.7928,-0.5893,2.6150,rough,15.5,1,2.252
1320,42.24,5.2766,3.8605,0.4108,-0.7910,-0.1827,2.4349,rough,15.5,1,2.033
1330,42.56,4.9805,3.9481,0.3297,-0.5230,-0.2503,2.3987,rough,15.5,1,1.858
1340,42.88,4.6834,4.1853,0.3888,-0.4760,-0.1825,2.3141,rough,15.5,1,1.571
1350,43.20,4.4001,4.4182,0.4003,-0.6197,-0.3774,2.2863,rough,15.5,1,1.335
1360,43.52,4.1507,4.6317,0.4737,-0.5051,-0.3295,2.1193,rough,15.5,1,1.176
1370,43.84,3.9542,4.8686,0.5253,-0.5697,-0.4151,2.0249,rough,15.5,1,1.046
1380,44.16,3.7903,5.1590,0.6716,-0.4847,-0.5119,1.8929,rough,15.5,1,0.938
1390,44.48,3.6650,5.3714,0.7894,-0.4789,-0.5787,1.9130,rough,15.5,1,0.935
1400,44.80,3.5261,5.5035,0.8447,-0.5215,-0.5380,2.0241,rough,15.5,1,1.024
1410,45.12,3.3325,5.5875,0.8554,-0.6087,-0.4573,2.2287,rough,15.5,1,1.199
1420,45.44,3.1006,5.6629,0.8498,-0.5741,-0.4251,2.1737,rough,15.5,1,1.423
1430,45.76,2.9736,5.7409,0.8718,-0.4664,-0.5615,1.9645,rough,15.5,1,1.547
1440,46.08,2.8988,5.8347,0.9247,-0.3795,-0.6376,1.8176,rough,15.5,1,1.624
1450,46.40,2.8524,5.9360,0.9921,-0.3241,-0.6633,1.7124,rough,15.5,1,1.679
1460,46.72,2.8274,6.0397,1.0692,-0.2849,-0.6701,1.6414,rough,15.5,1,1.718
1470,47.04,2.8148,6.1482,1.1507,-0.2636,-0.6612,1.6050,rough,15.5,1,1.752
1480,47.36,2.8077,6.2729,1.2414,-0.2665,-0.6440,1.5849,rough,15.5,1,1.792
1490,47.68,2.8031,6.4123,1.3404,-0.2628,-0.6320,1.5641,rough,15.5,1,1.842
1500,48.00,2.8046,6.5489,1.4415,-0.2620,-0.6337,1.5563,rough,15.5,1,1.894
1510,48.32,2.8077,6.6758,1.5313,-0.2621,-0.6156,1.5580,rough,15.5,1,1.948
1520,48.64,2.8122,6.8185,1.6197,-0.2512,-0.5296,1.5363,rough,15.5,1,2.016
1530,48.96,2.8195,6.9521,1.7079,-0.2290,-0.5519,1.4774,rough,15.5,1,2.084
1540,49.28,2.8524,7.0958,1.7994,-0.1747,-0.5561,1.3990,rough,15.5,1,2.145
1550,49.60,2.8910,7.2398,1.8862,-0.1319,-0.5207,1.3488,rough,15.5,1,2.209
1560,49.92,2.9283,7.3507,1.9440,-0.1632,-0.4079,1.4211,rough,15.5,1,2.259
1570,50.24,2.9721,7.5129,2.0193,-0.0694,-0.4246,1.2267,rough,15.5,1,2.348
1580,50.56,3.0677,7.7086,2.1182,0.0365,-0.4010,0.9499,rough,15.5,1,2.440
1590,50.88,3.2029,7.9136,2.2090,0.1058,-0.3606,0.6520,rough,15.5,1,2.535
1600,51.20,3.3934,8.0729,2.2939,0.1351,-0.3240,0.4175,rough,15.5,1,2.584
1610,51.52,3.6835,8.1210,2.3807,0.2243,-0.2865,0.1194,rough,15.5,1,2.516
1620,51.84,4.0213,8.0789,2.4651,0.3004,-0.2475,-0.1542,rough,15.5,1,2.384
1630,52.16,4.3627,7.9607,2.5247,0.3679,-0.1464,-0.3171,rough,15.5,1,2.218
1640,52.48,4.6849,7.8082,2.5530,0.4045,-0.0558,-0.4360,rough,15.5,1,2.067
1650,52.80,4.9853,7.6142,2.5370,0.4387,0.0690,-0.5548,rough,15.5,1,1.923
1660,53.12,5.2759,7.3614,2.4772,0.4080,0.1787,-0.7484,rough,15.5,1,1.781
1670,53.44,5.5268,7.0479,2.3846,0.4047,0.2597,-0.9451,rough,15.5,1,1.644
1680,53.76,5.6920,6.7144,2.2722,0.3388,0.2926,-1.2054,rough,15.5,1,1.519
1690,54.08,5.7675,6.3105,2.1140,0.3094,0.3901,-1.3973,rough,15.5,1,1.368
1700,54.40,5.8033,5.8651,1.9118,0.2950,0.4189,-1.4462,rough,15.5,1,1.288
1710,54.72,5.8323,5.4526,1.6750,0.2719,0.5371,-1.4753,rough,15.5,1,1.345
1720,55.04,5.8611,5.0119,1.3884,0.3309,0.5574,-1.3988,rough,15.5,1,1.529
1730,55.36,5.9063,4.7013,1.1853,0.3109,0.6140,-1.4695,rough,15.5,1,1.737
1740,55.68,5.9178,4.6984,1.1878,0.2631,0.6305,-1.5503,rough,15.5,1,1.747
1750,56.00,5.9189,4.6984,1.1882,0.2586,0.6316,-1.5571,rough,15.5,1,1.748
1760,56.32,5.9195,4.6983,1.1883,0.2558,0.6323,-1.5614,rough,15.5,1,1.749
1770,56.64,5.9199,4.6983,1.1885,0.2540,0.6326,-1.5640,rough,15.5,1,1.749
1780,56.96,5.9202,4.6984,1.1886,0.2528,0.6328,-1.5658,rough,15.5,1,1.749
1790,57.28,5.9204,4.6985,1.1888,0.2521,0.6329,-1.5668,rough,15.5,1,1.749
1800,57.60,5.9205,4.6986,1.1889,0.2516,0.6329,-1.5675,rough,15.5,1,1.750
1810,57.92,5.9206,4.6988,1.1891,0.2512,0.6329,-1.5680,rough,15.5,1,1.749
1820,58.24,5.9206,4.6989,1.1892,0.2510,0.6328,-1.5683,rough,15.5,1,1.749
1830,58.56,5.9207,4.6991,1.1893,0.2508,0.6328,-1.5685,rough,15.5,1,1.749
1840,58.88,5.9207,4.6992,1.1895,0.2507,0.6327,-1.5686,rough,15.5,1,1.749
1850,59.20,5.9207,4.6994,1.1896,0.2506,0.6327,-1.5687,rough,15.5,1,1.749
1860,59.52,5.9208,4.6995,1.1897,0.2505,0.6326,-1.5688,rough,15.5,1,1.749
1870,59.84,5.9208,4.6997,1.1898,0.2504,0.6325,-1.5688,rough,15.5,1,1.749
1880,60.16,5.9208,4.6998,1.1899,0.2503,0.6324,-1.5689,rough,15.5,1,1.749
1890,60.48,5.9208,4.7000,1.1901,0.2502,0.6324,-1.5689,rough,15.5,1,1.749
1900,60.80,5.9208,4.7001,1.1902,0.2502,0.6323,-1.5690,rough,15.5,1,1.749
1910,61.12,5.9209,4.7002,1.1903,0.2501,0.6322,-1.5690,rough,15.5,1,1.749
1920,61.44,5.9209,4.7003,1.1903,0.2499,0.6319,-1.5690,rough,15.5,1,1.749
1930,61.76,5.9209,4.7004,1.1904,0.2498,0.6317,-1.5690,rough,15.5,1,1.749
1940,62.08,5.9209,4.7005,1.1905,0.2498,0.6316,-1.5690,rough,15.5,1,1.749
1950,62.40,5.9210,4.7006,1.1906,0.2498,0.6316,-1.5690,rough,15.5,1,1.749
1960,62.72,5.9210,4.7007,1.1907,0.2498,0.6315,-1.5690,rough,15.5,1,1.749
1970,63.04,5.9210,4.7008,1.1908,0.2497,0.6315,-1.5690,rough,15.5,1,1.749
1980,63.36,5.9211,4.7009,1.1909,0.2497,0.6314,-1.5690,rough,15.5,1,1.749
1990,63.68,5.9211,4.7010,1.1909,0.2497,0.6314,-1.5690,rough,15.5,1,1.749
2000,64.00,5.9211,4.7011,1.1910,0.2496,0.6314,-1.5690,rough,15.5,1,1.749
2010,64.32,5.9212,4.7012,1.1911,0.2496,0.6313,-1.5690,rough,15.5,1,1.748
2020,64.64,5.9212,4.7013,1.1912,0.2495,0.6313,-1.5691,rough,15.5,1,1.748
2030,64.96,5.9212,4.7014,1.1913,0.2495,0.6313,-1.5691,rough,15.5,1,1.748
2040,65.28,5.9212,4.7015,1.1913,0.2494,0.6312,-1.5691,rough,15.5,1,1.748
2050,65.60,5.9213,4.7016,1.1914,0.2494,0.6312,-1.5692,rough,15.5,1,1.748
2060,65.92,5.9213,4.7017,1.1915,0.2493,0.6311,-1.5692,rough,15.5,1,1.748
2070,66.24,5.9213,4.7018,1.1916,0.2493,0.6310,-1.5692,rough,15.5,1,1.748
2080,66.56,5.9213,4.7018,1.1916,0.2492,0.6310,-1.5692,rough,15.5,1,1.748
2090,66.88,5.9214,4.7019,1.1917,0.2492,0.6309,-1.5692,rough,15.5,1,1.748
2100,67.20,5.9214,4.7020,1.1918,0.2492,0.6309,-1.5692,rough,15.5,1,1.748
2110,67.52,5.9214,4.7021,1.1918,0.2491,0.6308,-1.5692,rough,15.5,1,1.748
2120,67.84,5.9214,4.7021,1.1919,0.2491,0.6308,-1.5693,rough,15.5,1,1.748
2130,68.16,5.9215,4.7022,1.1919,0.2491,0.6307,-1.5693,rough,15.5,1,1.748
2140,68.48,5.9215,4.7022,1.1920,0.2490,0.6306,-1.5693,rough,15.5,1,1.748
2150,68.80,5.9215,4.7023,1.1920,0.2490,0.6306,-1.5693,rough,15.5,1,1.748
2160,69.12,5.9216,4.7024,1.1921,0.2489,0.6306,-1.5693,rough,15.5,1,1.748
2170,69.44,5.9216,4.7024,1.1921,0.2489,0.6305,-1.5693,rough,15.5,1,1.748
2180,69.76,5.9216,4.7025,1.1922,0.2489,0.6305,-1.5693,rough,15.5,1,1.748
2190,70.08,5.9217,4.7025,1.1922,0.2489,0.6305,-1.5693,rough,15.5,1,1.748
2200,70.40,5.9217,4.7025,1.1923,0.2487,0.6303,-1.5694,rough,15.5,1,1.748
2210,70.72,5.9217,4.7026,1.1923,0.2486,0.6301,-1.5694,rough,15.5,1,1.748
2220,71.04,5.9218,4.7026,1.1923,0.2487,0.6301,-1.5693,rough,15.5,1,1.748
2230,71.36,5.9218,4.7026,1.1924,0.2487,0.6301,-1.5693,rough,15.5,1,1.748
2240,71.68,5.9218,4.7027,1.1924,0.2487,0.6301,-1.5693,rough,15.5,1,1.748
2250,72.00,5.9219,4.7027,1.1925,0.2487,0.6301,-1.5693,rough,15.5,1,1.748
2260,72.32,5.9219,4.7027,1.1925,0.2486,0.6301,-1.5693,rough,15.5,1,1.748
2270,72.64,5.9220,4.7028,1.1925,0.2486,0.6299,-1.5693,rough,15.5,1,1.748
2280,72.96,5.9220,4.7028,1.1925,0.2485,0.6299,-1.5693,rough,15.5,1,1.748
2290,73.28,5.9221,4.7028,1.1926,0.2485,0.6299,-1.5693,rough,15.5,1,1.748
2300,73.60,5.9221,4.7028,1.1926,0.2485,0.6299,-1.5693,rough,15.5,1,1.748
2310,73.92,5.9221,4.7029,1.1927,0.2485,0.6299,-1.5693,rough,15.5,1,1.748
2320,74.24,5.9222,4.7029,1.1927,0.2485,0.6299,-1.5693,rough,15.5,1,1.748
2330,74.56,5.9222,4.7029,1.1927,0.2485,0.6299,-1.5693,rough,15.5,1,1.748
2340,74.88,5.9223,4.7030,1.1928,0.2485,0.6299,-1.5693,rough,15.5,1,1.748
2350,75.20,5.9223,4.7030,1.1928,0.2485,0.6299,-1.5693,rough,15.5,1,1.748
2360,75.52,5.9223,4.7030,1.1928,0.2484,0.6299,-1.5693,rough,15.5,1,1.748
2370,75.84,5.9224,4.7031,1.1929,0.2484,0.6299,-1.5693,rough,15.5,1,1.748
2380,76.16,5.9224,4.7031,1.1929,0.2484,0.6299,-1.5694,rough,15.5,1,1.748
2390,76.48,5.9224,4.7031,1.1930,0.2484,0.6299,-1.5694,rough,15.5,1,1.748
2400,76.80,5.9225,4.7032,1.1930,0.2484,0.6299,-1.5694,rough,15.5,1,1.748
2410,77.12,5.9225,4.7032,1.1930,0.2484,0.6299,-1.5694,rough,15.5,1,1.748
2420,77.44,5.9226,4.7032,1.1931,0.2483,0.6299,-1.5694,rough,15.5,1,1.748
2430,77.76,5.9226,4.7033,1.1931,0.2483,0.6299,-1.5694,rough,15.5,1,1.748
2440,78.08,5.9226,4.7033,1.1931,0.2483,0.6299,-1.5695,rough,15.5,1,1.748
2450,78.40,5.9226,4.7033,1.1932,0.2483,0.6298,-1.5695,rough,15.5,1,1.748
2460,78.72,5.9227,4.7034,1.1932,0.2482,0.6298,-1.5695,rough,15.5,1,1.748
2470,79.04,5.9227,4.7033,1.1932,0.2481,0.6296,-1.5695,rough,15.5,1,1.748
2480,79.36,5.9227,4.7034,1.1932,0.2481,0.6296,-1.5695,rough,15.5,1,1.748
2490,79.68,5.9228,4.7034,1.1933,0.2481,0.6296,-1.5695,rough,15.5,1,1.748
2500,80.00,5.9228,4.7034,1.1933,0.2481,0.6296,-1.5695,rough,15.5,1,1.749
2510,80.32,5.9229,4.7034,1.1933,0.2481,0.6296,-1.5695,rough,15.5,1,1.749
2520,80.64,5.9229,4.7035,1.1934,0.2481,0.6296,-1.5695,rough,15.5,1,1.749
2530,80.96,5.9229,4.7035,1.1934,0.2481,0.6296,-1.5695,rough,15.5,1,1.749
2540,81.28,5.9230,4.7035,1.1934,0.2481,0.6296,-1.5695,rough,15.5,1,1.749
2550,81.60,5.9230,4.7035,1.1934,0.2481,0.6296,-1.5695,rough,15.5,1,1.749
2560,81.92,5.9230,4.7035,1.1935,0.2481,0.6296,-1.5695,rough,15.5,1,1.749
2570,82.24,5.9231,4.7036,1.1935,0.2481,0.6296,-1.5695,rough,15.5,1,1.749
2580,82.56,5.9231,4.7036,1.1935,0.2481,0.6296,-1.5695,rough,15.5,1,1.749
2590,82.88,5.9231,4.7036,1.1936,0.2480,0.6296,-1.5695,rough,15.5,1,1.749
2600,83.20,5.9232,4.7036,1.1936,0.2480,0.6296,-1.5695,rough,15.5,1,1.749
2610,83.52,5.9232,4.7037,1.1936,0.2480,0.6296,-1.5696,rough,15.5,1,1.749
2620,83.84,5.9232,4.7037,1.1936,0.2480,0.6296,-1.5696,rough,15.5,1,1.749
2630,84.16,5.9232,4.7037,1.1937,0.2480,0.6296,-1.5696,rough,15.5,1,1.749
2640,84.48,5.9233,4.7037,1.1937,0.2479,0.6295,-1.5696,rough,15.5,1,1.749
2650,84.80,5.9233,4.7037,1.1937,0.2479,0.6295,-1.5696,rough,15.5,1,1.749
2660,85.12,5.9233,4.7037,1.1937,0.2478,0.6293,-1.5696,rough,15.5,1,1.749
2670,85.44,5.9234,4.7037,1.1937,0.2478,0.6292,-1.5696,rough,15.5,1,1.749
2680,85.76,5.9234,4.7037,1.1937,0.2478,0.6292,-1.5696,rough,15.5,1,1.749
2690,86.08,5.9235,4.7037,1.1937,0.2478,0.6292,-1.5695,rough,15.5,1,1.749
2700,86.40,5.9235,4.7037,1.1937,0.2478,0.6292,-1.5695,rough,15.5,1,1.749
2710,86.72,5.9235,4.7037,1.1938,0.2478,0.6292,-1.5695,rough,15.5,1,1.749
2720,87.04,5.9236,4.7037,1.1938,0.2478,0.6292,-1.5695,rough,15.5,1,1.749
2730,87.36,5.9236,4.7037,1.1938,0.2478,0.6293,-1.5695,rough,15.5,1,1.749
2740,87.68,5.9237,4.7037,1.1938,0.2478,0.6293,-1.5695,rough,15.5,1,1.749
2750,88.00,5.9237,4.7037,1.1938,0.2478,0.6293,-1.5695,rough,15.5,1,1.749
2760,88.32,5.9237,4.7037,1.1938,0.2477,0.6292,-1.5695,rough,15.5,1,1.749
2770,88.64,5.9238,4.7037,1.1938,0.2477,0.6292,-1.5696,rough,15.5,1,1.749
2780,88.96,5.9238,4.7037,1.1939,0.2477,0.6291,-1.5695,rough,15.5,1,1.749
2790,89.28,5.9239,4.7037,1.1939,0.2477,0.6292,-1.5695,rough,15.5,1,1.749
2800,89.60,5.9239,4.7037,1.1939,0.2477,0.6292,-1.5695,rough,15.5,1,1.749
2810,89.92,5.9239,4.7037,1.1939,0.2477,0.6292,-1.5695,rough,15.5,1,1.749
2820,90.24,5.9240,4.7037,1.1939,0.2477,0.6292,-1.5695,rough,15.5,1,1.749
2830,90.56,5.9240,4.7037,1.1940,0.2477,0.6292,-1.5695,rough,15.5,1,1.749
2840,90.88,5.9241,4.7038,1.1940,0.2477,0.6292,-1.5695,rough,15.5,1,1.749
2850,91.20,5.9241,4.7038,1.1940,0.2477,0.6292,-1.5696,rough,15.5,1,1.749
2860,91.52,5.9241,4.7038,1.1940,0.2477,0.6292,-1.5696,rough,15.5,1,1.749
2870,91.84,5.9242,4.7038,1.1940,0.2476,0.6291,-1.5696,rough,15.5,1,1.749
2880,92.16,5.9242,4.7037,1.1940,0.2476,0.6291,-1.5696,rough,15.5,1,1.749
2890,92.48,5.9243,4.7037,1.1940,0.2476,0.6291,-1.5696,rough,15.5,1,1.749
2900,92.80,5.9243,4.7038,1.1941,0.2476,0.6291,-1.5696,rough,15.5,1,1.749
2910,93.12,5.9243,4.7038,1.1941,0.2476,0.6291,-1.5696,rough,15.5,1,1.750
2920,93.44,5.9244,4.7038,1.1941,0.2476,0.6291,-1.5696,rough,15.5,1,1.750
2930,93.76,5.9244,4.7038,1.1941,0.2476,0.6291,-1.5696,rough,15.5,1,1.750
2940,94.08,5.9245,4.7038,1.1941,0.2476,0.6292,-1.5696,rough,15.5,1,1.750
2950,94.40,5.9245,4.7038,1.1941,0.2476,0.6292,-1.5696,rough,15.5,1,1.750
2960,94.72,5.9245,4.7038,1.1942,0.2476,0.6292,-1.5696,rough,15.5,1,1.750
2970,95.04,5.9246,4.7038,1.1942,0.2476,0.6292,-1.5696,rough,15.5,1,1.750
2980,95.36,5.9246,4.7038,1.1942,0.2475,0.6292,-1.5696,rough,15.5,1,1.750
2990,95.68,5.9246,4.7038,1.1942,0.2475,0.6292,-1.5696,rough,15.5,1,1.750
3000,96.00,5.9247,4.7038,1.1942,0.2475,0.6292,-1.5696,rough,15.5,1,1.750
3010,96.32,5.9247,4.7038,1.1943,0.2475,0.6292,-1.5696,rough,15.5,1,1.750
3020,96.64,5.9247,4.7039,1.1943,0.2475,0.6292,-1.5696,rough,15.5,1,1.750
3030,96.96,5.9248,4.7039,1.1943,0.2475,0.6292,-1.5696,rough,15.5,1,1.750
3040,97.28,5.9248,4.7039,1.1943,0.2475,0.6292,-1.5697,rough,15.5,1,1.750
3050,97.60,5.9248,4.7039,1.1943,0.2475,0.6292,-1.5697,rough,15.5,1,1.750
3060,97.92,5.9249,4.7039,1.1944,0.2475,0.6292,-1.5697,rough,15.5,1,1.750
3070,98.24,5.9249,4.7039,1.1944,0.2475,0.6292,-1.5697,rough,15.5,1,1.750
3080,98.56,5.9249,4.7039,1.1944,0.2475,0.6292,-1.5697,rough,15.5,1,1.750
3090,98.88,5.9249,4.7040,1.1944,0.2474,0.6292,-1.5697,rough,15.5,1,1.750
3100,99.20,5.9250,4.7040,1.1944,0.2474,0.6292,-1.5697,rough,15.5,1,1.750
3110,99.52,5.9250,4.7040,1.1945,0.2474,0.6292,-1.5697,rough,15.5,1,1.750
3120,99.84,5.9250,4.7040,1.1945,0.2474,0.6292,-1.5697,rough,15.5,1,1.750
3130,100.16,5.9251,4.7040,1.1945,0.2474,0.6292,-1.5697,rough,15.5,1,1.750
3140,100.48,5.9251,4.7040,1.1945,0.2474,0.6292,-1.5697,rough,15.5,1,1.750
3150,100.80,5.9251,4.7040,1.1945,0.2474,0.6292,-1.5698,rough,15.5,1,1.750
3160,101.12,5.9251,4.7041,1.1946,0.2474,0.6292,-1.5698,rough,15.5,1,1.750
3170,101.44,5.9252,4.7041,1.1946,0.2473,0.6292,-1.5698,rough,15.5,1,1.750
3180,101.76,5.9252,4.7041,1.1946,0.2473,0.6292,-1.5698,rough,15.5,1,1.750
3190,102.08,5.9252,4.7041,1.1946,0.2473,0.6292,-1.5698,rough,15.5,1,1.750
3200,102.40,5.9252,4.7041,1.1946,0.2473,0.6292,-1.5698,rough,15.5,1,1.750
3210,102.72,5.9253,4.7041,1.1946,0.2473,0.6292,-1.5698,rough,15.5,1,1.750
3220,103.04,5.9253,4.7041,1.1947,0.2473,0.6291,-1.5698,rough,15.5,1,1.750
3230,103.36,5.9253,4.7041,1.1947,0.2473,0.6291,-1.5698,rough,15.5,1,1.750
3240,103.68,5.9253,4.7042,1.1947,0.2473,0.6291,-1.5698,rough,15.5,1,1.750
3250,104.00,5.9253,4.7042,1.1947,0.2473,0.6291,-1.5698,rough,15.5,1,1.750
3260,104.32,5.9254,4.7042,1.1947,0.2472,0.6291,-1.5698,rough,15.5,1,1.750
3270,104.64,5.9254,4.7042,1.1947,0.2472,0.6291,-1.5698,rough,15.5,1,1.750
3280,104.96,5.9254,4.7042,1.1948,0.2472,0.6291,-1.5698,rough,15.5,1,1.750
3290,105.28,5.9254,4.7042,1.1948,0.2472,0.6291,-1.5698,rough,15.5,1,1.750
3300,105.60,5.9255,4.7042,1.1948,0.2472,0.6291,-1.5698,rough,15.5,1,1.750
3310,105.92,5.9255,4.7042,1.1948,0.2472,0.6291,-1.5698,rough,15.5,1,1.750
3320,106.24,5.9255,4.7042,1.1948,0.2472,0.6291,-1.5698,rough,15.5,1,1.750
3330,106.56,5.9255,4.7042,1.1948,0.2472,0.6291,-1.5698,rough,15.5,1,1.750
3340,106.88,5.9256,4.7042,1.1948,0.2472,0.6291,-1.5698,rough,15.5,1,1.750
3350,107.20,5.9256,4.7043,1.1949,0.2472,0.6290,-1.5698,rough,15.5,1,1.750
3360,107.52,5.9256,4.7043,1.1949,0.2471,0.6290,-1.5698,rough,15.5,1,1.750
3370,107.84,5.9256,4.7043,1.1949,0.2471,0.6290,-1.5698,rough,15.5,1,1.750
3380,108.16,5.9257,4.7043,1.1949,0.2471,0.6290,-1.5698,rough,15.5,1,1.750
3390,108.48,5.9257,4.7043,1.1949,0.2471,0.6290,-1.5698,rough,15.5,1,1.750
3400,108.80,5.9257,4.7043,1.1949,0.2471,0.6290,-1.5698,rough,15.5,1,1.750
3410,109.12,5.9257,4.7043,1.1949,0.2471,0.6290,-1.5698,rough,15.5,1,1.750
3420,109.44,5.9257,4.7043,1.1950,0.2471,0.6290,-1.5698,rough,15.5,1,1.750
3430,109.76,5.9258,4.7043,1.1950,0.2471,0.6290,-1.5698,rough,15.5,1,1.750
3440,110.08,5.9258,4.7043,1.1950,0.2471,0.6290,-1.5699,rough,15.5,1,1.750
3450,110.40,5.9258,4.7043,1.1950,0.2470,0.6289,-1.5699,rough,15.5,1,1.750
3460,110.72,5.9258,4.7043,1.1950,0.2470,0.6288,-1.5699,rough,15.5,1,1.750
3470,111.04,5.9259,4.7043,1.1950,0.2469,0.6287,-1.5699,rough,15.5,1,1.750
3480,111.36,5.9259,4.7042,1.1950,0.2469,0.6287,-1.5699,rough,15.5,1,1.750
3490,111.68,5.9259,4.7042,1.1950,0.2469,0.6287,-1.5698,rough,15.5,1,1.751
3500,112.00,5.9260,4.7042,1.1950,0.2470,0.6287,-1.5698,rough,15.5,1,1.751
3510,112.32,5.9260,4.7042,1.1950,0.2470,0.6287,-1.5698,rough,15.5,1,1.751
3520,112.64,5.9260,4.7042,1.1950,0.2470,0.6287,-1.5698,rough,15.5,1,1.751
3530,112.96,5.9261,4.7042,1.1950,0.2470,0.6287,-1.5698,rough,15.5,1,1.751
3540,113.28,5.9261,4.7042,1.1950,0.2470,0.6287,-1.5698,rough,15.5,1,1.751
3550,113.60,5.9261,4.7042,1.1950,0.2470,0.6288,-1.5698,rough,15.5,1,1.751
3560,113.92,5.9262,4.7042,1.1950,0.2470,0.6288,-1.5698,rough,15.5,1,1.751
3570,114.24,5.9262,4.7042,1.1951,0.2470,0.6289,-1.5697,rough,15.5,1,1.751
3580,114.56,5.9262,4.7043,1.1951,0.2470,0.6289,-1.5698,rough,15.5,1,1.751
3590,114.88,5.9263,4.7043,1.1951,0.2470,0.6289,-1.5698,rough,15.5,1,1.751
3600,115.20,5.9263,4.7043,1.1951,0.2470,0.6289,-1.5698,rough,15.5,1,1.751
3610,115.52,5.9263,4.7043,1.1951,0.2470,0.6289,-1.5698,rough,15.5,1,1.751
3620,115.84,5.9263,4.7043,1.1951,0.2470,0.6289,-1.5699,rough,15.5,1,1.751
3630,116.16,5.9264,4.7043,1.1952,0.2470,0.6289,-1.5699,rough,15.5,1,1.751
3640,116.48,5.9264,4.7043,1.1952,0.2470,0.6289,-1.5699,rough,15.5,1,1.751
3650,116.80,5.9264,4.7043,1.1952,0.2469,0.6290,-1.5699,rough,15.5,1,1.751
3660,117.12,5.9264,4.7043,1.1952,0.2469,0.6290,-1.5699,rough,15.5,1,1.751
3670,117.44,5.9265,4.7043,1.1952,0.2469,0.6289,-1.5699,rough,15.5,1,1.751
3680,117.76,5.9265,4.7043,1.1952,0.2469,0.6289,-1.5699,rough,15.5,1,1.751
3690,118.08,5.9265,4.7043,1.1952,0.2469,0.6289,-1.5699,rough,15.5,1,1.751
3700,118.40,5.9265,4.7043,1.1952,0.2469,0.6289,-1.5699,rough,15.5,1,1.751
3710,118.72,5.9265,4.7044,1.1953,0.2469,0.6289,-1.5699,rough,15.5,1,1.751
3720,119.04,5.9266,4.7044,1.1953,0.2469,0.6289,-1.5699,rough,15.5,1,1.751
3730,119.36,5.9266,4.7043,1.1953,0.2468,0.6288,-1.5699,rough,15.5,1,1.751
3740,119.68,5.9266,4.7043,1.1953,0.2468,0.6287,-1.5700,rough,15.5,1,1.751
3750,120.00,5.9266,4.7043,1.1953,0.2467,0.6287,-1.5699,rough,15.5,1,1.751
3760,120.32,5.9267,4.7043,1.1953,0.2467,0.6286,-1.5699,rough,15.5,1,1.751
3770,120.64,5.9267,4.7043,1.1953,0.2468,0.6286,-1.5699,rough,15.5,1,1.751
3780,120.96,5.9267,4.7043,1.1953,0.2468,0.6286,-1.5698,rough,15.5,1,1.751
3790,121.28,5.9268,4.7043,1.1953,0.2468,0.6287,-1.5698,rough,15.5,1,1.751
3800,121.60,5.9268,4.7043,1.1953,0.2468,0.6287,-1.5698,rough,15.5,1,1.751
3810,121.92,5.9268,4.7043,1.1953,0.2468,0.6287,-1.5698,rough,15.5,1,1.751
3820,122.24,5.9268,4.7043,1.1953,0.2468,0.6287,-1.5698,rough,15.5,1,1.751
3830,122.56,5.9269,4.7043,1.1953,0.2468,0.6287,-1.5698,rough,15.5,1,1.751
3840,122.88,5.9269,4.7043,1.1953,0.2468,0.6287,-1.5698,rough,15.5,1,1.751
3850,123.20,5.9269,4.7043,1.1953,0.2468,0.6287,-1.5698,rough,15.5,1,1.751
3860,123.52,5.9270,4.7043,1.1953,0.2468,0.6287,-1.5698,rough,15.5,1,1.751
3870,123.84,5.9270,4.7043,1.1953,0.2468,0.6287,-1.5698,rough,15.5,1,1.751
3880,124.16,5.9270,4.7043,1.1954,0.2468,0.6287,-1.5698,rough,15.5,1,1.751
3890,124.48,5.9271,4.7042,1.1954,0.2467,0.6287,-1.5699,rough,15.5,1,1.751
3900,124.80,5.9271,4.7042,1.1954,0.2467,0.6287,-1.5699,rough,15.5,1,1.751
3910,125.12,5.9271,4.7042,1.1954,0.2467,0.6287,-1.5699,rough,15.5,1,1.751
3920,125.44,5.9272,4.7042,1.1954,0.2467,0.6287,-1.5699,rough,15.5,1,1.752
3930,125.76,5.9272,4.7042,1.1954,0.2467,0.6287,-1.5699,rough,15.5,1,1.752
3940,126.08,5.9272,4.7042,1.1954,0.2467,0.6287,-1.5698,rough,15.5,1,1.752
3950,126.40,5.9272,4.7042,1.1954,0.2467,0.6287,-1.5698,rough,15.5,1,1.752
3960,126.72,5.9273,4.7042,1.1954,0.2467,0.6287,-1.5698,rough,15.5,1,1.752
3970,127.04,5.9273,4.7042,1.1954,0.2467,0.6287,-1.5699,rough,15.5,1,1.752
3980,127.36,5.9273,4.7042,1.1954,0.2467,0.6287,-1.5699,rough,15.5,1,1.752
3990,127.68,5.9274,4.7042,1.1954,0.2467,0.6287,-1.5699,rough,15.5,1,1.752
4000,128.00,5.9274,4.7042,1.1955,0.2467,0.6287,-1.5699,rough,15.5,1,1.752
4010,128.32,5.9274,4.7042,1.1955,0.2467,0.6287,-1.5699,rough,15.5,1,1.752
4020,128.64,5.9274,4.7042,1.1955,0.2467,0.6287,-1.5699,rough,15.5,1,1.752
4030,128.96,5.9275,4.7042,1.1955,0.2467,0.6287,-1.5699,rough,15.5,1,1.752
4040,129.28,5.9275,4.7042,1.1955,0.2467,0.6287,-1.5699,rough,15.5,1,1.752
4050,129.60,5.9275,4.7042,1.1955,0.2467,0.6288,-1.5699,rough,15.5,1,1.752
4060,129.92,5.9276,4.7042,1.1955,0.2467,0.6288,-1.5699,rough,15.5,1,1.752
4070,130.24,5.9276,4.7042,1.1955,0.2467,0.6288,-1.5699,rough,15.5,1,1.752
4080,130.56,5.9276,4.7042,1.1955,0.2467,0.6288,-1.5699,rough,15.5,1,1.752
4090,130.88,5.9276,4.7042,1.1956,0.2466,0.6288,-1.5699,rough,15.5,1,1.752
4100,131.20,5.9277,4.7042,1.1956,0.2466,0.6288,-1.5699,rough,15.5,1,1.752
4110,131.52,5.9277,4.7043,1.1956,0.2468,0.6288,-1.5698,rough,15.5,1,1.752
4120,131.84,5.9277,4.7043,1.1956,0.2468,0.6288,-1.5698,rough,15.5,1,1.752
4130,132.16,5.9277,4.7043,1.1956,0.2469,0.6288,-1.5698,rough,15.5,1,1.752
4140,132.48,5.9278,4.7043,1.1956,0.2469,0.6288,-1.5698,rough,15.5,1,1.752
4150,132.80,5.9278,4.7043,1.1956,0.2469,0.6289,-1.5698,rough,15.5,1,1.752
4160,133.12,5.9278,4.7043,1.1957,0.2469,0.6289,-1.5698,rough,15.5,1,1.752
4170,133.44,5.9279,4.7043,1.1957,0.2469,0.6289,-1.5698,rough,15.5,1,1.752
4180,133.76,5.9279,4.7043,1.1957,0.2469,0.6289,-1.5698,rough,15.5,1,1.752
4190,134.08,5.9279,4.7043,1.1957,0.2469,0.6289,-1.5698,rough,15.5,1,1.752
4200,134.40,5.9280,4.7043,1.1957,0.2469,0.6290,-1.5698,rough,15.5,1,1.752
4210,134.72,5.9280,4.7043,1.1958,0.2469,0.6291,-1.5699,rough,15.5,1,1.752
4220,135.04,5.9280,4.7043,1.1958,0.2469,0.6291,-1.5699,rough,15.5,1,1.752
4230,135.36,5.9281,4.7043,1.1958,0.2468,0.6291,-1.5699,rough,15.5,1,1.752
4240,135.68,5.9281,4.7043,1.1958,0.2468,0.6291,-1.5699,rough,15.5,1,1.752
4250,136.00,5.9281,4.7043,1.1958,0.2468,0.6291,-1.5700,rough,15.5,1,1.752
4260,136.32,5.9282,4.7043,1.1958,0.2468,0.6291,-1.5700,rough,15.5,1,1.752
4270,136.64,5.9282,4.7044,1.1959,0.2468,0.6291,-1.5700,rough,15.5,1,1.752
4280,136.96,5.9282,4.7044,1.1959,0.2468,0.6291,-1.5700,rough,15.5,1,1.752
4290,137.28,5.9283,4.7044,1.1959,0.2468,0.6291,-1.5700,rough,15.5,1,1.752
4300,137.60,5.9283,4.7044,1.1959,0.2468,0.6290,-1.5700,rough,15.5,1,1.752
4310,137.92,5.9283,4.7043,1.1959,0.2467,0.6289,-1.5700,rough,15.5,1,1.752
4320,138.24,5.9284,4.7043,1.1959,0.2467,0.6288,-1.5700,rough,15.5,1,1.752
4330,138.56,5.9284,4.7043,1.1959,0.2467,0.6288,-1.5700,rough,15.5,1,1.752
4340,138.88,5.9284,4.7043,1.1959,0.2467,0.6288,-1.5700,rough,15.5,1,1.752
4350,139.20,5.9285,4.7043,1.1959,0.2468,0.6288,-1.5699,rough,15.5,1,1.753
4360,139.52,5.9285,4.7043,1.1959,0.2468,0.6288,-1.5699,rough,15.5,1,1.753
4370,139.84,5.9285,4.7043,1.1959,0.2468,0.6288,-1.5699,rough,15.5,1,1.753
4380,140.16,5.9286,4.7043,1.1959,0.2468,0.6289,-1.5699,rough,15.5,1,1.753
4390,140.48,5.9286,4.7043,1.1959,0.2468,0.6289,-1.5699,rough,15.5,1,1.753
4400,140.80,5.9287,4.7043,1.1959,0.2468,0.6289,-1.5699,rough,15.5,1,1.753
4410,141.12,5.9287,4.7043,1.1960,0.2468,0.6289,-1.5699,rough,15.5,1,1.753
4420,141.44,5.9287,4.7043,1.1960,0.2468,0.6289,-1.5699,rough,15.5,1,1.753
4430,141.76,5.9288,4.7043,1.1960,0.2468,0.6289,-1.5699,rough,15.5,1,1.753
4440,142.08,5.9288,4.7043,1.1960,0.2468,0.6288,-1.5700,rough,15.5,1,1.753
4450,142.40,5.9288,4.7043,1.1960,0.2468,0.6288,-1.5700,rough,15.5,1,1.753
4460,142.72,5.9289,4.7043,1.1960,0.2468,0.6288,-1.5700,rough,15.5,1,1.753
4470,143.04,5.9289,4.7043,1.1960,0.2468,0.6288,-1.5699,rough,15.5,1,1.753
4480,143.36,5.9290,4.7043,1.1960,0.2468,0.6288,-1.5699,rough,15.5,1,1.753
4490,143.68,5.9290,4.7043,1.1960,0.2469,0.6288,-1.5699,rough,15.5,1,1.753
4500,144.00,5.9290,4.7043,1.1960,0.2469,0.6288,-1.5699,rough,15.5,1,1.753
4510,144.32,5.9291,4.7043,1.1961,0.2469,0.6288,-1.5700,rough,15.5,1,1.753
4520,144.64,5.9291,4.7043,1.1961,0.2469,0.6288,-1.5700,rough,15.5,1,1.753
4530,144.96,5.9291,4.7043,1.1961,0.2469,0.6289,-1.5700,rough,15.5,1,1.753
4540,145.28,5.9292,4.7043,1.1961,0.2469,0.6289,-1.5700,rough,15.5,1,1.753
4550,145.60,5.9292,4.7043,1.1961,0.2469,0.6289,-1.5700,rough,15.5,1,1.753
4560,145.92,5.9293,4.7043,1.1961,0.2469,0.6289,-1.5700,rough,15.5,1,1.753
4570,146.24,5.9293,4.7043,1.1961,0.2469,0.6289,-1.5700,rough,15.5,1,1.753
4580,146.56,5.9293,4.7043,1.1961,0.2469,0.6289,-1.5700,rough,15.5,1,1.753
4590,146.88,5.9294,4.7043,1.1962,0.2469,0.6289,-1.5700,rough,15.5,1,1.753
4600,147.20,5.9294,4.7043,1.1962,0.2469,0.6289,-1.5700,rough,15.5,1,1.753
4610,147.52,5.9294,4.7043,1.1962,0.2469,0.6289,-1.5700,rough,15.5,1,1.753
4620,147.84,5.9294,4.7043,1.1962,0.2469,0.6289,-1.5700,rough,15.5,1,1.753
4630,148.16,5.9295,4.7043,1.1962,0.2469,0.6289,-1.5700,rough,15.5,1,1.753
4640,148.48,5.9295,4.7043,1.1962,0.2469,0.6289,-1.5700,rough,15.5,1,1.753
4650,148.80,5.9295,4.7043,1.1962,0.2469,0.6289,-1.5700,rough,15.5,1,1.753
4660,149.12,5.9296,4.7043,1.1963,0.2469,0.6289,-1.5700,rough,15.5,1,1.753
4670,149.44,5.9296,4.7044,1.1963,0.2469,0.6289,-1.5700,rough,15.5,1,1.753
4680,149.76,5.9296,4.7044,1.1963,0.2469,0.6289,-1.5701,rough,15.5,1,1.753
4690,150.08,5.9297,4.7044,1.1963,0.2469,0.6289,-1.5701,rough,15.5,1,1.753
4700,150.40,5.9297,4.7044,1.1963,0.2469,0.6288,-1.5701,rough,15.5,1,1.753
4710,150.72,5.9297,4.7044,1.1963,0.2469,0.6288,-1.5701,rough,15.5,1,1.753
4720,151.04,5.9297,4.7044,1.1963,0.2469,0.6288,-1.5701,rough,15.5,1,1.753
4730,151.36,5.9298,4.7044,1.1963,0.2469,0.6288,-1.5701,rough,15.5,1,1.754
4740,151.68,5.9298,4.7044,1.1964,0.2469,0.6288,-1.5701,rough,15.5,1,1.754
4750,152.00,5.9298,4.7044,1.1964,0.2469,0.6288,-1.5701,rough,15.5,1,1.754
4760,152.32,5.9299,4.7044,1.1964,0.2469,0.6288,-1.5701,rough,15.5,1,1.754
4770,152.64,5.9299,4.7044,1.1964,0.2469,0.6288,-1.5701,rough,15.5,1,1.754
4780,152.96,5.9299,4.7044,1.1964,0.2469,0.6288,-1.5701,rough,15.5,1,1.754
4790,153.28,5.9299,4.7044,1.1964,0.2469,0.6288,-1.5701,rough,15.5,1,1.754
4800,153.60,5.9300,4.7044,1.1964,0.2469,0.6288,-1.5701,rough,15.5,1,1.754
4810,153.92,5.9300,4.7044,1.1965,0.2469,0.6288,-1.5701,rough,15.5,1,1.754
4820,154.24,5.9300,4.7045,1.1965,0.2469,0.6288,-1.5701,rough,15.5,1,1.754
4830,154.56,5.9300,4.7045,1.1965,0.2469,0.6288,-1.5701,rough,15.5,1,1.754
4840,154.88,5.9301,4.7045,1.1965,0.2469,0.6288,-1.5701,rough,15.5,1,1.754
4850,155.20,5.9301,4.7045,1.1965,0.2469,0.6288,-1.5701,rough,15.5,1,1.754
4860,155.52,5.9301,4.7045,1.1965,0.2469,0.6288,-1.5701,rough,15.5,1,1.754
4870,155.84,5.9301,4.7045,1.1965,0.2469,0.6288,-1.5701,rough,15.5,1,1.754
4880,156.16,5.9302,4.7045,1.1966,0.2469,0.6288,-1.5701,rough,15.5,1,1.754
4890,156.48,5.9302,4.7045,1.1966,0.2469,0.6288,-1.5701,rough,15.5,1,1.754
4900,156.80,5.9302,4.7045,1.1966,0.2469,0.6288,-1.5702,rough,15.5,1,1.754
4910,157.12,5.9302,4.7045,1.1966,0.2469,0.6288,-1.5702,rough,15.5,1,1.754
4920,157.44,5.9303,4.7045,1.1966,0.2469,0.6288,-1.5702,rough,15.5,1,1.754
4930,157.76,5.9303,4.7046,1.1966,0.2469,0.6288,-1.5702,rough,15.5,1,1.754
4940,158.08,5.9303,4.7046,1.1966,0.2469,0.6288,-1.5702,rough,15.5,1,1.754
4950,158.40,5.9303,4.7046,1.1966,0.2469,0.6288,-1.5702,rough,15.5,1,1.754
4960,158.72,5.9303,4.7046,1.1967,0.2469,0.6288,-1.5702,rough,15.5,1,1.754
4970,159.04,5.9304,4.7046,1.1967,0.2468,0.6288,-1.5702,rough,15.5,1,1.754
4980,159.36,5.9304,4.7046,1.1967,0.2468,0.6288,-1.5702,rough,15.5,1,1.754
4990,159.68,5.9304,4.7046,1.1967,0.2468,0.6288,-1.5702,rough,15.5,1,1.754
5000,160.00,5.9304,4.7046,1.1967,0.2468,0.6288,-1.5702,rough,15.5,1,1.754
5010,160.32,5.9305,4.7046,1.1967,0.2468,0.6288,-1.5702,rough,15.5,1,1.754
5020,160.64,5.9305,4.7046,1.1967,0.2468,0.6288,-1.5702,rough,15.5,1,1.754
5030,160.96,5.9305,4.7046,1.1967,0.2468,0.6287,-1.5702,rough,15.5,1,1.754
5040,161.28,5.9305,4.7046,1.1968,0.2468,0.6287,-1.5702,rough,15.5,1,1.754
5050,161.60,5.9305,4.7046,1.1968,0.2468,0.6287,-1.5702,rough,15.5,1,1.754
5060,161.92,5.9306,4.7047,1.1968,0.2468,0.6287,-1.5702,rough,15.5,1,1.754
5070,162.24,5.9306,4.7047,1.1968,0.2468,0.6287,-1.5702,rough,15.5,1,1.754
5080,162.56,5.9306,4.7047,1.1968,0.2468,0.6287,-1.5702,rough,15.5,1,1.754
5090,162.88,5.9306,4.7047,1.1968,0.2468,0.6287,-1.5702,rough,15.5,1,1.754
5100,163.20,5.9306,4.7047,1.1968,0.2468,0.6287,-1.5702,rough,15.5,1,1.754
5110,163.52,5.9307,4.7047,1.1968,0.2468,0.6287,-1.5702,rough,15.5,1,1.754
5120,163.84,5.9307,4.7047,1.1968,0.2468,0.6287,-1.5702,rough,15.5,1,1.754
5130,164.16,5.9307,4.7047,1.1968,0.2468,0.6287,-1.5702,rough,15.5,1,1.754
5140,164.48,5.9307,4.7047,1.1969,0.2468,0.6287,-1.5702,rough,15.5,1,1.754
5150,164.80,5.9307,4.7047,1.1969,0.2468,0.6287,-1.5702,rough,15.5,1,1.754
5160,165.12,5.9308,4.7047,1.1969,0.2468,0.6287,-1.5702,rough,15.5,1,1.754
5170,165.44,5.9308,4.7047,1.1969,0.2468,0.6287,-1.5702,rough,15.5,1,1.754
5180,165.76,5.9308,4.7047,1.1969,0.2468,0.6287,-1.5702,rough,15.5,1,1.754
5190,166.08,5.9308,4.7047,1.1969,0.2468,0.6287,-1.5702,rough,15.5,1,1.754
5200,166.40,5.9308,4.7047,1.1969,0.2468,0.6286,-1.5703,rough,15.5,1,1.754
5210,166.72,5.9309,4.7047,1.1969,0.2467,0.6285,-1.5703,rough,15.5,1,1.754
5220,167.04,5.9309,4.7047,1.1969,0.2467,0.6284,-1.5703,rough,15.5,1,1.754
5230,167.36,5.9309,4.7046,1.1969,0.2467,0.6284,-1.5702,rough,15.5,1,1.754
5240,167.68,5.9310,4.7046,1.1969,0.2467,0.6284,-1.5702,rough,15.5,1,1.754
5250,168.00,5.9310,4.7046,1.1969,0.2468,0.6284,-1.5702,rough,15.5,1,1.754
5260,168.32,5.9310,4.7046,1.1969,0.2468,0.6284,-1.5702,rough,15.5,1,1.754
5270,168.64,5.9310,4.7046,1.1969,0.2468,0.6284,-1.5702,rough,15.5,1,1.754
5280,168.96,5.9311,4.7046,1.1969,0.2468,0.6284,-1.5701,rough,15.5,1,1.754
5290,169.28,5.9311,4.7046,1.1969,0.2468,0.6284,-1.5701,rough,15.5,1,1.754
5300,169.60,5.9311,4.7046,1.1969,0.2468,0.6284,-1.5701,rough,15.5,1,1.754
5310,169.92,5.9312,4.7046,1.1969,0.2468,0.6285,-1.5702,rough,15.5,1,1.754
5320,170.24,5.9312,4.7046,1.1969,0.2468,0.6285,-1.5702,rough,15.5,1,1.755
5330,170.56,5.9312,4.7046,1.1969,0.2468,0.6285,-1.5702,rough,15.5,1,1.755
5340,170.88,5.9313,4.7046,1.1970,0.2468,0.6285,-1.5702,rough,15.5,1,1.755
5350,171.20,5.9313,4.7046,1.1970,0.2469,0.6285,-1.5702,rough,15.5,1,1.755
5360,171.52,5.9313,4.7046,1.1970,0.2469,0.6285,-1.5702,rough,15.5,1,1.755
5370,171.84,5.9313,4.7046,1.1970,0.2469,0.6285,-1.5702,rough,15.5,1,1.755
5380,172.16,5.9314,4.7046,1.1970,0.2469,0.6285,-1.5702,rough,15.5,1,1.755
5390,172.48,5.9314,4.7046,1.1970,0.2469,0.6285,-1.5702,rough,15.5,1,1.755
5400,172.80,5.9314,4.7046,1.1970,0.2469,0.6285,-1.5702,rough,15.5,1,1.755
5410,173.12,5.9315,4.7046,1.1970,0.2469,0.6285,-1.5702,rough,15.5,1,1.755
5420,173.44,5.9315,4.7046,1.1970,0.2469,0.6285,-1.5702,rough,15.5,1,1.755
5430,173.76,5.9315,4.7046,1.1970,0.2469,0.6285,-1.5702,rough,15.5,1,1.755
5440,174.08,5.9315,4.7046,1.1970,0.2469,0.6285,-1.5702,rough,15.5,1,1.755
5450,174.40,5.9316,4.7046,1.1971,0.2469,0.6285,-1.5702,rough,15.5,1,1.755
5460,174.72,5.9316,4.7046,1.1971,0.2469,0.6285,-1.5702,rough,15.5,1,1.755
5470,175.04,5.9316,4.7046,1.1971,0.2469,0.6285,-1.5702,rough,15.5,1,1.755
5480,175.36,5.9316,4.7046,1.1971,0.2469,0.6285,-1.5702,rough,15.5,1,1.755
5490,175.68,5.9317,4.7046,1.1971,0.2469,0.6285,-1.5702,rough,15.5,1,1.755
5500,176.00,5.9317,4.7046,1.1971,0.2469,0.6285,-1.5702,rough,15.5,1,1.755
5510,176.32,5.9317,4.7046,1.1971,0.2469,0.6285,-1.5702,rough,15.5,1,1.755
5520,176.64,5.9317,4.7046,1.1971,0.2469,0.6285,-1.5702,rough,15.5,1,1.755
5530,176.96,5.9317,4.7046,1.1971,0.2469,0.6285,-1.5702,rough,15.5,1,1.755
5540,177.28,5.9318,4.7047,1.1971,0.2469,0.6285,-1.5702,rough,15.5,1,1.755
5550,177.60,5.9318,4.7047,1.1972,0.2469,0.6285,-1.5702,rough,15.5,1,1.755
5560,177.92,5.9318,4.7047,1.1972,0.2469,0.6285,-1.5703,rough,15.5,1,1.755
5570,178.24,5.9318,4.7047,1.1972,0.2469,0.6285,-1.5703,rough,15.5,1,1.755
5580,178.56,5.9319,4.7047,1.1972,0.2469,0.6285,-1.5703,rough,15.5,1,1.755
5590,178.88,5.9319,4.7047,1.1972,0.2469,0.6285,-1.5703,rough,15.5,1,1.755
5600,179.20,5.9319,4.7047,1.1972,0.2469,0.6285,-1.5703,rough,15.5,1,1.755
5610,179.52,5.9319,4.7047,1.1972,0.2469,0.6285,-1.5703,rough,15.5,1,1.755
5620,179.84,5.9319,4.7047,1.1972,0.2469,0.6285,-1.5703,rough,15.5,1,1.755
5630,180.16,5.9320,4.7047,1.1972,0.2469,0.6285,-1.5703,rough,15.5,1,1.755
5640,180.48,5.9320,4.7047,1.1972,0.2469,0.6285,-1.5703,rough,15.5,1,1.755
5650,180.80,5.9320,4.7047,1.1973,0.2469,0.6285,-1.5703,rough,15.5,1,1.755
5660,181.12,5.9320,4.7047,1.1973,0.2469,0.6285,-1.5703,rough,15.5,1,1.755
5670,181.44,5.9320,4.7047,1.1973,0.2469,0.6285,-1.5703,rough,15.5,1,1.755
5680,181.76,5.9321,4.7047,1.1973,0.2469,0.6285,-1.5703,rough,15.5,1,1.755
5690,182.08,5.9321,4.7048,1.1973,0.2469,0.6285,-1.5703,rough,15.5,1,1.755
5700,182.40,5.9321,4.7048,1.1973,0.2469,0.6285,-1.5703,rough,15.5,1,1.755
5710,182.72,5.9321,4.7048,1.1973,0.2469,0.6285,-1.5703,rough,15.5,1,1.755
5720,183.04,5.9321,4.7048,1.1973,0.2469,0.6285,-1.5703,rough,15.5,1,1.755
5730,183.36,5.9321,4.7048,1.1973,0.2469,0.6285,-1.5703,rough,15.5,1,1.755
5740,183.68,5.9322,4.7048,1.1974,0.2469,0.6285,-1.5703,rough,15.5,1,1.755
5750,184.00,5.9322,4.7048,1.1974,0.2469,0.6285,-1.5703,rough,15.5,1,1.755
5760,184.32,5.9322,4.7048,1.1974,0.2469,0.6285,-1.5703,rough,15.5,1,1.755
5770,184.64,5.9322,4.7048,1.1974,0.2469,0.6285,-1.5703,rough,15.5,1,1.755
5780,184.96,5.9322,4.7048,1.1974,0.2469,0.6285,-1.5703,rough,15.5,1,1.755
5790,185.28,5.9322,4.7048,1.1974,0.2469,0.6285,-1.5703,rough,15.5,1,1.755
5800,185.60,5.9323,4.7048,1.1974,0.2469,0.6285,-1.5704,rough,15.5,1,1.755
5810,185.92,5.9323,4.7048,1.1974,0.2468,0.6285,-1.5704,rough,15.5,1,1.755
5820,186.24,5.9323,4.7048,1.1974,0.2468,0.6285,-1.5704,rough,15.5,1,1.755
5830,186.56,5.9323,4.7048,1.1974,0.2468,0.6285,-1.5704,rough,15.5,1,1.755
5840,186.88,5.9323,4.7048,1.1974,0.2468,0.6285,-1.5704,rough,15.5,1,1.755
5850,187.20,5.9323,4.7049,1.1975,0.2468,0.6284,-1.5704,rough,15.5,1,1.755
5860,187.52,5.9323,4.7049,1.1975,0.2468,0.6284,-1.5704,rough,15.5,1,1.755
5870,187.84,5.9324,4.7049,1.1975,0.2468,0.6284,-1.5704,rough,15.5,1,1.755
5880,188.16,5.9324,4.7049,1.1975,0.2468,0.6284,-1.5704,rough,15.5,1,1.755
5890,188.48,5.9324,4.7049,1.1975,0.2468,0.6284,-1.5704,rough,15.5,1,1.755
5900,188.80,5.9324,4.7049,1.1975,0.2468,0.6284,-1.5704,rough,15.5,1,1.755
5910,189.12,5.9324,4.7049,1.1975,0.2468,0.6284,-1.5704,rough,15.5,1,1.755
5920,189.44,5.9324,4.7049,1.1975,0.2468,0.6284,-1.5704,rough,15.5,1,1.755
5930,189.76,5.9325,4.7049,1.1975,0.2468,0.6284,-1.5704,rough,15.5,1,1.755
5940,190.08,5.9325,4.7049,1.1975,0.2468,0.6284,-1.5704,rough,15.5,1,1.755
5950,190.40,5.9325,4.7049,1.1975,0.2468,0.6284,-1.5704,rough,15.5,1,1.755
5960,190.72,5.9325,4.7049,1.1975,0.2468,0.6284,-1.5704,rough,15.5,1,1.755
5970,191.04,5.9325,4.7049,1.1975,0.2468,0.6284,-1.5704,rough,15.5,1,1.755
5980,191.36,5.9325,4.7049,1.1976,0.2468,0.6284,-1.5704,rough,15.5,1,1.755
5990,191.68,5.9325,4.7049,1.1976,0.2468,0.6284,-1.5704,rough,15.5,1,1.755
6000,192.00,5.9326,4.7049,1.1976,0.2468,0.6284,-1.5704,rough,15.5,1,1.755
6010,192.32,5.9326,4.7049,1.1976,0.2468,0.6284,-1.5704,rough,15.5,1,1.755
6020,192.64,5.9326,4.7049,1.1976,0.2468,0.6284,-1.5704,rough,15.5,1,1.755
6030,192.96,5.9326,4.7049,1.1976,0.2468,0.6284,-1.5704,rough,15.5,1,1.755
6040,193.28,5.9326,4.7049,1.1976,0.2468,0.6284,-1.5704,rough,15.5,1,1.755
6050,193.60,5.9326,4.7049,1.1976,0.2468,0.6284,-1.5704,rough,15.5,1,1.755
6060,193.92,5.9327,4.7049,1.1976,0.2468,0.6284,-1.5704,rough,15.5,1,1.755
6070,194.24,5.9327,4.7049,1.1976,0.2468,0.6284,-1.5704,rough,15.5,1,1.756
6080,194.56,5.9327,4.7049,1.1976,0.2468,0.6284,-1.5704,rough,15.5,1,1.756
6090,194.88,5.9327,4.7049,1.1976,0.2468,0.6283,-1.5704,rough,15.5,1,1.756
6100,195.20,5.9327,4.7049,1.1976,0.2468,0.6283,-1.5704,rough,15.5,1,1.756
6110,195.52,5.9327,4.7049,1.1976,0.2467,0.6282,-1.5704,rough,15.5,1,1.756
6120,195.84,5.9328,4.7049,1.1976,0.2467,0.6282,-1.5704,rough,15.5,1,1.756
6130,196.16,5.9328,4.7049,1.1976,0.2467,0.6281,-1.5704,rough,15.5,1,1.756
6140,196.48,5.9328,4.7049,1.1976,0.2467,0.6281,-1.5704,rough,15.5,1,1.756
6150,196.80,5.9328,4.7049,1.1976,0.2468,0.6281,-1.5703,rough,15.5,1,1.756
6160,197.12,5.9328,4.7049,1.1976,0.2468,0.6281,-1.5703,rough,15.5,1,1.756
6170,197.44,5.9329,4.7049,1.1976,0.2468,0.6281,-1.5703,rough,15.5,1,1.756
6180,197.76,5.9329,4.7048,1.1976,0.2468,0.6281,-1.5703,rough,15.5,1,1.756
6190,198.08,5.9329,4.7048,1.1976,0.2468,0.6282,-1.5703,rough,15.5,1,1.756
6200,198.40,5.9329,4.7048,1.1976,0.2468,0.6282,-1.5703,rough,15.5,1,1.756
6210,198.72,5.9330,4.7048,1.1976,0.2468,0.6282,-1.5703,rough,15.5,1,1.756
6220,199.04,5.9330,4.7048,1.1976,0.2468,0.6282,-1.5703,rough,15.5,1,1.756
6230,199.36,5.9330,4.7048,1.1976,0.2469,0.6282,-1.5703,rough,15.5,1,1.756
6240,199.68,5.9330,4.7048,1.1976,0.2469,0.6282,-1.5703,rough,15.5,1,1.756
6250,200.00,5.9331,4.7048,1.1976,0.2469,0.6282,-1.5703,rough,15.5,1,1.756
6260,200.32,5.9331,4.7048,1.1977,0.2469,0.6282,-1.5703,rough,15.5,1,1.756
6270,200.64,5.9331,4.7048,1.1977,0.2469,0.6282,-1.5703,rough,15.5,1,1.756
6280,200.96,5.9331,4.7048,1.1977,0.2469,0.6282,-1.5703,rough,15.5,1,1.756
6290,201.28,5.9332,4.7048,1.1977,0.2469,0.6282,-1.5703,rough,15.5,1,1.756
6300,201.60,5.9332,4.7048,1.1977,0.2469,0.6282,-1.5703,rough,15.5,1,1.756
6310,201.92,5.9332,4.7048,1.1977,0.2469,0.6282,-1.5703,rough,15.5,1,1.756
6320,202.24,5.9332,4.7048,1.1977,0.2469,0.6282,-1.5703,rough,15.5,1,1.756
6330,202.56,5.9333,4.7048,1.1977,0.2469,0.6282,-1.5703,rough,15.5,1,1.756
6340,202.88,5.9333,4.7048,1.1977,0.2469,0.6282,-1.5703,rough,15.5,1,1.756
6350,203.20,5.9333,4.7048,1.1977,0.2469,0.6282,-1.5703,rough,15.5,1,1.756
6360,203.52,5.9333,4.7048,1.1977,0.2469,0.6282,-1.5703,rough,15.5,1,1.756
6370,203.84,5.9333,4.7048,1.1977,0.2469,0.6282,-1.5703,rough,15.5,1,1.756
6380,204.16,5.9334,4.7048,1.1977,0.2469,0.6282,-1.5703,rough,15.5,1,1.756
6390,204.48,5.9334,4.7048,1.1977,0.2469,0.6283,-1.5704,rough,15.5,1,1.756
6400,204.80,5.9334,4.7048,1.1977,0.2468,0.6282,-1.5704,rough,15.5,1,1.756
6410,205.12,5.9334,4.7048,1.1977,0.2468,0.6282,-1.5704,rough,15.5,1,1.756
6420,205.44,5.9335,4.7048,1.1977,0.2468,0.6282,-1.5704,rough,15.5,1,1.756
6430,205.76,5.9335,4.7048,1.1977,0.2468,0.6282,-1.5703,rough,15.5,1,1.756
6440,206.08,5.9335,4.7048,1.1977,0.2468,0.6282,-1.5703,rough,15.5,1,1.756
6450,206.40,5.9335,4.7048,1.1978,0.2468,0.6282,-1.5703,rough,15.5,1,1.756
6460,206.72,5.9335,4.7048,1.1978,0.2468,0.6282,-1.5703,rough,15.5,1,1.756
6470,207.04,5.9336,4.7048,1.1978,0.2469,0.6282,-1.5703,rough,15.5,1,1.756
6480,207.36,5.9336,4.7048,1.1978,0.2469,0.6282,-1.5703,rough,15.5,1,1.756
6490,207.68,5.9336,4.7048,1.1978,0.2469,0.6282,-1.5703,rough,15.5,1,1.756
6500,208.00,5.9336,4.7048,1.1978,0.2469,0.6282,-1.5703,rough,15.5,1,1.756
6510,208.32,5.9337,4.7048,1.1978,0.2469,0.6282,-1.5703,rough,15.5,1,1.756
6520,208.64,5.9337,4.7048,1.1978,0.2469,0.6282,-1.5703,rough,15.5,1,1.756
6530,208.96,5.9337,4.7048,1.1978,0.2469,0.6282,-1.5703,rough,15.5,1,1.756
6540,209.28,5.9337,4.7048,1.1978,0.2469,0.6282,-1.5703,rough,15.5,1,1.756
6550,209.60,5.9338,4.7048,1.1978,0.2469,0.6282,-1.5703,rough,15.5,1,1.756
6560,209.92,5.9338,4.7048,1.1978,0.2469,0.6282,-1.5703,rough,15.5,1,1.756
6570,210.24,5.9338,4.7048,1.1978,0.2469,0.6282,-1.5703,rough,15.5,1,1.757
6580,210.56,5.9338,4.7048,1.1978,0.2469,0.6282,-1.5704,rough,15.5,1,1.757
6590,210.88,5.9338,4.7048,1.1979,0.2469,0.6282,-1.5704,rough,15.5,1,1.757
6600,211.20,5.9339,4.7048,1.1979,0.2469,0.6282,-1.5704,rough,15.5,1,1.757
6610,211.52,5.9339,4.7048,1.1979,0.2469,0.6282,-1.5704,rough,15.5,1,1.757
6620,211.84,5.9339,4.7048,1.1979,0.2469,0.6282,-1.5704,rough,15.5,1,1.757
6630,212.16,5.9339,4.7048,1.1979,0.2469,0.6282,-1.5704,rough,15.5,1,1.757
6640,212.48,5.9339,4.7048,1.1979,0.2469,0.6282,-1.5704,rough,15.5,1,1.757
6650,212.80,5.9340,4.7048,1.1979,0.2469,0.6282,-1.5704,rough,15.5,1,1.757
6660,213.12,5.9340,4.7048,1.1979,0.2469,0.6282,-1.5704,rough,15.5,1,1.757
6670,213.44,5.9340,4.7048,1.1979,0.2469,0.6282,-1.5704,rough,15.5,1,1.757
6680,213.76,5.9340,4.7048,1.1979,0.2469,0.6282,-1.5704,rough,15.5,1,1.757
6690,214.08,5.9340,4.7048,1.1979,0.2469,0.6282,-1.5704,rough,15.5,1,1.757
6700,214.40,5.9341,4.7048,1.1979,0.2469,0.6282,-1.5704,rough,15.5,1,1.757
6710,214.72,5.9341,4.7048,1.1979,0.2469,0.6282,-1.5704,rough,15.5,1,1.757
6720,215.04,5.9341,4.7048,1.1979,0.2469,0.6282,-1.5704,rough,15.5,1,1.757
6730,215.36,5.9341,4.7048,1.1980,0.2469,0.6282,-1.5704,rough,15.5,1,1.757
6740,215.68,5.9341,4.7048,1.1980,0.2469,0.6282,-1.5704,rough,15.5,1,1.757
6750,216.00,5.9342,4.7048,1.1980,0.2469,0.6282,-1.5704,rough,15.5,1,1.757
6760,216.32,5.9342,4.7048,1.1980,0.2469,0.6282,-1.5704,rough,15.5,1,1.757
6770,216.64,5.9342,4.7048,1.1980,0.2469,0.6282,-1.5704,rough,15.5,1,1.757
6780,216.96,5.9342,4.7048,1.1980,0.2469,0.6282,-1.5704,rough,15.5,1,1.757
6790,217.28,5.9342,4.7048,1.1980,0.2469,0.6282,-1.5704,rough,15.5,1,1.757
6800,217.60,5.9342,4.7048,1.1980,0.2469,0.6282,-1.5704,rough,15.5,1,1.757
6810,217.92,5.9343,4.7049,1.1980,0.2469,0.6282,-1.5704,rough,15.5,1,1.757
6820,218.24,5.9343,4.7049,1.1980,0.2469,0.6282,-1.5704,rough,15.5,1,1.757
6830,218.56,5.9343,4.7049,1.1980,0.2469,0.6282,-1.5704,rough,15.5,1,1.757
6840,218.88,5.9343,4.7049,1.1980,0.2469,0.6282,-1.5704,rough,15.5,1,1.757
6850,219.20,5.9343,4.7049,1.1981,0.2469,0.6282,-1.5704,rough,15.5,1,1.757
6860,219.52,5.9343,4.7049,1.1981,0.2469,0.6282,-1.5704,rough,15.5,1,1.757
6870,219.84,5.9344,4.7049,1.1981,0.2469,0.6282,-1.5704,rough,15.5,1,1.757
6880,220.16,5.9344,4.7049,1.1981,0.2469,0.6282,-1.5704,rough,15.5,1,1.757
6890,220.48,5.9344,4.7049,1.1981,0.2469,0.6282,-1.5704,rough,15.5,1,1.757
6900,220.80,5.9344,4.7049,1.1981,0.2469,0.6282,-1.5704,rough,15.5,1,1.757
6910,221.12,5.9344,4.7049,1.1981,0.2469,0.6282,-1.5704,rough,15.5,1,1.757
6920,221.44,5.9344,4.7049,1.1981,0.2469,0.6282,-1.5704,rough,15.5,1,1.757
6930,221.76,5.9345,4.7049,1.1981,0.2469,0.6282,-1.5704,rough,15.5,1,1.757
6940,222.08,5.9345,4.7049,1.1981,0.2469,0.6282,-1.5704,rough,15.5,1,1.757
6950,222.40,5.9345,4.7049,1.1981,0.2469,0.6282,-1.5705,rough,15.5,1,1.757
6960,222.72,5.9345,4.7049,1.1982,0.2469,0.6282,-1.5705,rough,15.5,1,1.757
6970,223.04,5.9345,4.7049,1.1982,0.2469,0.6282,-1.5705,rough,15.5,1,1.757
6980,223.36,5.9345,4.7049,1.1982,0.2469,0.6282,-1.5705,rough,15.5,1,1.757
6990,223.68,5.9345,4.7049,1.1982,0.2469,0.6282,-1.5705,rough,15.5,1,1.757
7000,224.00,5.9346,4.7050,1.1982,0.2469,0.6282,-1.5705,rough,15.5,1,1.757
7010,224.32,5.9346,4.7050,1.1982,0.2469,0.6282,-1.5705,rough,15.5,1,1.757
7020,224.64,5.9346,4.7050,1.1982,0.2469,0.6282,-1.5705,rough,15.5,1,1.757
7030,224.96,5.9346,4.7050,1.1982,0.2469,0.6281,-1.5705,rough,15.5,1,1.757
7040,225.28,5.9346,4.7050,1.1982,0.2469,0.6281,-1.5705,rough,15.5,1,1.757
7050,225.60,5.9346,4.7050,1.1982,0.2469,0.6281,-1.5705,rough,15.5,1,1.757
7060,225.92,5.9346,4.7050,1.1982,0.2469,0.6281,-1.5705,rough,15.5,1,1.757
7070,226.24,5.9346,4.7050,1.1982,0.2469,0.6281,-1.5705,rough,15.5,1,1.757
7080,226.56,5.9347,4.7050,1.1982,0.2469,0.6281,-1.5705,rough,15.5,1,1.757
7090,226.88,5.9347,4.7050,1.1983,0.2469,0.6281,-1.5705,rough,15.5,1,1.757
7100,227.20,5.9347,4.7050,1.1983,0.2469,0.6281,-1.5705,rough,15.5,1,1.757
7110,227.52,5.9347,4.7050,1.1983,0.2469,0.6281,-1.5705,rough,15.5,1,1.757
7120,227.84,5.9347,4.7050,1.1983,0.2469,0.6281,-1.5705,rough,15.5,1,1.757
7130,228.16,5.9347,4.7050,1.1983,0.2469,0.6281,-1.5705,rough,15.5,1,1.757
7140,228.48,5.9347,4.7050,1.1983,0.2469,0.6281,-1.5705,rough,15.5,1,1.757
7150,228.80,5.9347,4.7050,1.1983,0.2469,0.6281,-1.5705,rough,15.5,1,1.757
7160,229.12,5.9347,4.7050,1.1983,0.2469,0.6281,-1.5705,rough,15.5,1,1.757
7170,229.44,5.9348,4.7051,1.1983,0.2469,0.6281,-1.5705,rough,15.5,1,1.757
7180,229.76,5.9348,4.7050,1.1983,0.2469,0.6281,-1.5705,rough,15.5,1,1.757
7190,230.08,5.9348,4.7050,1.1983,0.2468,0.6280,-1.5705,rough,15.5,1,1.757
7200,230.40,5.9348,4.7050,1.1983,0.2468,0.6280,-1.5705,rough,15.5,1,1.757
7210,230.72,5.9348,4.7050,1.1983,0.2468,0.6279,-1.5705,rough,15.5,1,1.757
7220,231.04,5.9348,4.7050,1.1983,0.2468,0.6279,-1.5705,rough,15.5,1,1.757
7230,231.36,5.9348,4.7050,1.1983,0.2469,0.6279,-1.5705,rough,15.5,1,1.757
7240,231.68,5.9349,4.7050,1.1983,0.2469,0.6279,-1.5705,rough,15.5,1,1.757
7250,232.00,5.9349,4.7050,1.1983,0.2469,0.6279,-1.5704,rough,15.5,1,1.757
7260,232.32,5.9349,4.7050,1.1983,0.2469,0.6279,-1.5704,rough,15.5,1,1.757
7270,232.64,5.9349,4.7050,1.1983,0.2469,0.6279,-1.5704,rough,15.5,1,1.757
7280,232.96,5.9349,4.7050,1.1983,0.2469,0.6279,-1.5704,rough,15.5,1,1.757
7290,233.28,5.9350,4.7050,1.1983,0.2469,0.6279,-1.5704,rough,15.5,1,1.757
7300,233.60,5.9350,4.7050,1.1983,0.2469,0.6279,-1.5704,rough,15.5,1,1.757
7310,233.92,5.9350,4.7050,1.1983,0.2469,0.6280,-1.5704,rough,15.5,1,1.757
7320,234.24,5.9350,4.7050,1.1983,0.2469,0.6280,-1.5704,rough,15.5,1,1.757
7330,234.56,5.9350,4.7050,1.1983,0.2469,0.6280,-1.5704,rough,15.5,1,1.757
7340,234.88,5.9351,4.7050,1.1983,0.2469,0.6280,-1.5704,rough,15.5,1,1.757
7350,235.20,5.9351,4.7050,1.1984,0.2470,0.6280,-1.5705,rough,15.5,1,1.757
7360,235.52,5.9351,4.7050,1.1984,0.2470,0.6280,-1.5705,rough,15.5,1,1.757
7370,235.84,5.9351,4.7050,1.1984,0.2470,0.6280,-1.5705,rough,15.5,1,1.757
7380,236.16,5.9351,4.7050,1.1984,0.2470,0.6280,-1.5705,rough,15.5,1,1.757
7390,236.48,5.9351,4.7050,1.1984,0.2470,0.6280,-1.5705,rough,15.5,1,1.757
7400,236.80,5.9352,4.7050,1.1984,0.2470,0.6280,-1.5705,rough,15.5,1,1.758
7410,237.12,5.9352,4.7050,1.1984,0.2470,0.6280,-1.5705,rough,15.5,1,1.758
7420,237.44,5.9352,4.7050,1.1984,0.2470,0.6280,-1.5705,rough,15.5,1,1.758
7430,237.76,5.9352,4.7050,1.1984,0.2470,0.6280,-1.5705,rough,15.5,1,1.758
7440,238.08,5.9352,4.7049,1.1984,0.2470,0.6279,-1.5705,rough,15.5,1,1.758
7450,238.40,5.9353,4.7049,1.1984,0.2470,0.6279,-1.5705,rough,15.5,1,1.758
7460,238.72,5.9353,4.7049,1.1984,0.2470,0.6279,-1.5705,rough,15.5,1,1.758
7470,239.04,5.9353,4.7049,1.1984,0.2470,0.6279,-1.5705,rough,15.5,1,1.758
7480,239.36,5.9353,4.7049,1.1984,0.2470,0.6279,-1.5705,rough,15.5,1,1.758
7490,239.68,5.9353,4.7049,1.1984,0.2470,0.6279,-1.5705,rough,15.5,1,1.758
7500,240.00,5.9353,4.7049,1.1984,0.2470,0.6279,-1.5705,rough,15.5,1,1.758
7510,240.32,5.9354,4.7049,1.1984,0.2470,0.6279,-1.5705,rough,15.5,1,1.758
7520,240.64,5.9354,4.7049,1.1984,0.2470,0.6279,-1.5705,rough,15.5,1,1.758
7530,240.96,5.9354,4.7049,1.1984,0.2470,0.6279,-1.5705,rough,15.5,1,1.758
7540,241.28,5.9354,4.7049,1.1984,0.2470,0.6280,-1.5705,rough,15.5,1,1.758
7550,241.60,5.9354,4.7049,1.1984,0.2470,0.6280,-1.5705,rough,15.5,1,1.758
7560,241.92,5.9355,4.7049,1.1984,0.2470,0.6280,-1.5705,rough,15.5,1,1.758
7570,242.24,5.9355,4.7049,1.1985,0.2470,0.6280,-1.5705,rough,15.5,1,1.758
7580,242.56,5.9355,4.7049,1.1985,0.2470,0.6280,-1.5705,rough,15.5,1,1.758
7590,242.88,5.9355,4.7049,1.1985,0.2470,0.6280,-1.5705,rough,15.5,1,1.758
7600,243.20,5.9355,4.7049,1.1985,0.2470,0.6280,-1.5705,rough,15.5,1,1.758
7610,243.52,5.9355,4.7049,1.1985,0.2470,0.6280,-1.5705,rough,15.5,1,1.758
7620,243.84,5.9356,4.7049,1.1985,0.2470,0.6280,-1.5705,rough,15.5,1,1.758
7630,244.16,5.9356,4.7049,1.1985,0.2470,0.6280,-1.5705,rough,15.5,1,1.758
7640,244.48,5.9356,4.7049,1.1985,0.2470,0.6280,-1.5705,rough,15.5,1,1.758
7650,244.80,5.9356,4.7049,1.1985,0.2470,0.6280,-1.5705,rough,15.5,1,1.758
7660,245.12,5.9356,4.7049,1.1985,0.2470,0.6280,-1.5705,rough,15.5,1,1.758
7670,245.44,5.9356,4.7049,1.1985,0.2470,0.6280,-1.5705,rough,15.5,1,1.758
7680,245.76,5.9357,4.7049,1.1985,0.2470,0.6279,-1.5705,rough,15.5,1,1.758
7690,246.08,5.9357,4.7049,1.1985,0.2470,0.6279,-1.5705,rough,15.5,1,1.758
7700,246.40,5.9357,4.7049,1.1985,0.2470,0.6279,-1.5705,rough,15.5,1,1.758
7710,246.72,5.9357,4.7049,1.1985,0.2470,0.6279,-1.5705,rough,15.5,1,1.758
7720,247.04,5.9357,4.7049,1.1985,0.2470,0.6279,-1.5705,rough,15.5,1,1.758
7730,247.36,5.9357,4.7049,1.1985,0.2471,0.6279,-1.5705,rough,15.5,1,1.758
7740,247.68,5.9358,4.7049,1.1985,0.2471,0.6279,-1.5705,rough,15.5,1,1.758
7750,248.00,5.9358,4.7049,1.1985,0.2471,0.6279,-1.5705,rough,15.5,1,1.758
7760,248.32,5.9358,4.7049,1.1986,0.2471,0.6279,-1.5705,rough,15.5,1,1.758
7770,248.64,5.9358,4.7049,1.1986,0.2471,0.6279,-1.5705,rough,15.5,1,1.758
7780,248.96,5.9358,4.7049,1.1986,0.2471,0.6279,-1.5705,rough,15.5,1,1.758
7790,249.28,5.9358,4.7049,1.1986,0.2471,0.6279,-1.5705,rough,15.5,1,1.758
7800,249.60,5.9359,4.7049,1.1986,0.2471,0.6279,-1.5705,rough,15.5,1,1.758
7810,249.92,5.9359,4.7049,1.1986,0.2471,0.6279,-1.5705,rough,15.5,1,1.758
7820,250.24,5.9359,4.7049,1.1986,0.2471,0.6279,-1.5705,rough,15.5,1,1.758
7830,250.56,5.9359,4.7049,1.1986,0.2471,0.6279,-1.5705,rough,15.5,1,1.758
7840,250.88,5.9359,4.7049,1.1986,0.2471,0.6279,-1.5705,rough,15.5,1,1.758
7850,251.20,5.9359,4.7049,1.1986,0.2471,0.6279,-1.5705,rough,15.5,1,1.758
7860,251.52,5.9360,4.7049,1.1986,0.2471,0.6279,-1.5705,rough,15.5,1,1.758
7870,251.84,5.9360,4.7049,1.1986,0.2471,0.6279,-1.5705,rough,15.5,1,1.758
7880,252.16,5.9360,4.7050,1.1986,0.2471,0.6279,-1.5705,rough,15.5,1,1.758
7890,252.48,5.9360,4.7050,1.1986,0.2471,0.6279,-1.5705,rough,15.5,1,1.758
7900,252.80,5.9360,4.7050,1.1986,0.2471,0.6279,-1.5705,rough,15.5,1,1.758
7910,253.12,5.9360,4.7050,1.1986,0.2471,0.6279,-1.5705,rough,15.5,1,1.758
7920,253.44,5.9360,4.7050,1.1987,0.2471,0.6279,-1.5705,rough,15.5,1,1.758
7930,253.76,5.9361,4.7050,1.1987,0.2471,0.6279,-1.5705,rough,15.5,1,1.758
7940,254.08,5.9361,4.7050,1.1987,0.2471,0.6279,-1.5705,rough,15.5,1,1.758
7950,254.40,5.9361,4.7050,1.1987,0.2471,0.6279,-1.5705,rough,15.5,1,1.758
7960,254.72,5.9361,4.7050,1.1987,0.2471,0.6279,-1.5705,rough,15.5,1,1.758
7970,255.04,5.9361,4.7050,1.1987,0.2471,0.6279,-1.5705,rough,15.5,1,1.758
7980,255.36,5.9361,4.7050,1.1987,0.2471,0.6279,-1.5705,rough,15.5,1,1.758
7990,255.68,5.9361,4.7050,1.1987,0.2471,0.6279,-1.5705,rough,15.5,1,1.758
8000,256.00,5.9362,4.7050,1.1987,0.2471,0.6279,-1.5705,rough,15.5,1,1.758
8010,256.32,5.9362,4.7050,1.1987,0.2471,0.6279,-1.5705,rough,15.5,1,1.758
8020,256.64,5.9362,4.7050,1.1987,0.2471,0.6279,-1.5705,rough,15.5,1,1.758
8030,256.96,5.9362,4.7050,1.1987,0.2471,0.6279,-1.5706,rough,15.5,1,1.758
8040,257.28,5.9362,4.7050,1.1987,0.2471,0.6279,-1.5706,rough,15.5,1,1.758
8050,257.60,5.9362,4.7050,1.1987,0.2471,0.6279,-1.5706,rough,15.5,1,1.758
8060,257.92,5.9362,4.7050,1.1987,0.2471,0.6279,-1.5706,rough,15.5,1,1.758
8070,258.24,5.9362,4.7050,1.1988,0.2471,0.6279,-1.5706,rough,15.5,1,1.758
8080,258.56,5.9363,4.7050,1.1988,0.2471,0.6279,-1.5706,rough,15.5,1,1.758
8090,258.88,5.9363,4.7050,1.1988,0.2471,0.6279,-1.5706,rough,15.5,1,1.758
8100,259.20,5.9363,4.7050,1.1988,0.2471,0.6279,-1.5706,rough,15.5,1,1.758
8110,259.52,5.9363,4.7050,1.1988,0.2471,0.6279,-1.5706,rough,15.5,1,1.758
8120,259.84,5.9363,4.7050,1.1988,0.2471,0.6279,-1.5706,rough,15.5,1,1.758
