step,time_s,x,y,z,roll,pitch,yaw,terrain,speed,target_idx,dist_to_target
10,0.32,-0.1063,1.4507,0.1838,0.0002,-0.0192,0.0051,rough,15.5,0,4.153
20,0.64,0.1691,1.4501,0.1795,-0.0009,0.0008,0.3113,rough,15.5,0,4.233
30,0.96,0.4531,1.5559,0.1797,0.0001,-0.0000,0.5957,rough,15.5,0,4.234
40,1.28,0.7160,1.7740,0.1798,0.0000,0.0003,0.8341,rough,15.5,0,4.147
50,1.60,0.9421,2.0732,0.1798,-0.0001,0.0002,1.0497,rough,15.5,0,3.999
60,1.92,1.1149,2.4349,0.1798,0.0001,0.0000,1.2454,rough,15.5,0,3.799
70,2.24,1.2340,2.8373,0.1799,0.0000,-0.0000,1.4816,rough,15.5,0,3.566
80,2.56,1.2595,3.2703,0.1799,0.0000,-0.0001,1.7047,rough,15.5,0,3.280
90,2.88,1.1862,3.7089,0.1799,0.0002,-0.0001,1.8789,rough,15.5,0,2.945
100,3.20,1.0327,4.1381,0.1801,-0.0003,-0.0015,2.0137,rough,15.5,0,2.579
110,3.52,0.8207,4.5495,0.1798,-0.0032,0.0084,2.1330,rough,15.5,0,2.199
120,3.84,0.5681,4.8713,0.2077,-0.0610,-0.1152,2.2572,rough,15.5,0,1.845
130,4.16,0.2575,5.1717,0.2446,-0.1695,-0.1314,2.3996,rough,15.5,0,1.466
140,4.48,-0.0896,5.3993,0.2968,-0.3045,-0.1597,2.5617,rough,15.5,0,1.092
150,4.80,-0.4624,5.5550,0.3481,-0.3659,-0.1882,2.7043,rough,15.5,1,1.899
160,5.12,-0.8493,5.7374,0.4350,-0.3371,-0.2421,2.5467,rough,15.5,1,1.641
170,5.44,-1.1963,5.9742,0.5249,-0.3278,-0.2746,2.3887,rough,15.5,1,1.407
180,5.76,-1.4914,6.2681,0.6352,-0.3277,-0.2225,2.1806,rough,15.5,1,1.199
190,6.08,-1.7035,6.5600,0.7349,-0.2698,-0.3447,2.0274,rough,15.5,1,1.060
200,6.40,-1.8506,6.8545,0.8538,-0.1894,-0.4129,1.8138,rough,15.5,1,0.978
210,6.72,-1.9372,7.0959,0.9636,-0.1183,-0.4581,1.6496,rough,15.5,1,0.958
220,7.04,-1.9628,7.2525,1.0354,-0.1259,-0.4318,1.6741,rough,15.5,1,0.951
230,7.36,-2.0157,7.3531,1.0788,-0.1853,-0.3998,1.8170,rough,15.5,1,0.996
240,7.68,-2.0792,7.4913,1.1334,-0.1417,-0.3925,1.7290,rough,15.5,1,1.067
250,8.00,-2.1092,7.6442,1.1986,-0.1055,-0.4076,1.6328,rough,15.5,1,1.124
260,8.32,-2.1198,7.7934,1.2504,-0.0873,-0.3366,1.5834,rough,15.5,1,1.179
270,8.64,-2.1222,7.9330,1.2995,-0.0806,-0.2692,1.5637,rough,15.5,1,1.238
280,8.96,-2.1305,8.0753,1.3317,-0.0943,-0.2500,1.5128,rough,15.5,1,1.316
290,9.28,-2.1315,8.2401,1.3677,-0.0958,-0.2176,1.4054,rough,15.5,1,1.412
300,9.60,-2.1139,8.4579,1.4084,-0.0906,-0.1747,1.1422,rough,15.5,1,1.543
310,9.92,-2.0007,8.6887,1.4533,0.0040,-0.2082,0.7479,rough,15.5,1,1.644
320,10.24,-1.7713,8.8065,1.5159,0.0693,-0.2452,0.3780,rough,15.5,1,1.621
330,10.56,-1.4730,8.8094,1.5638,0.2169,-0.1728,0.0074,rough,15.5,1,1.509
340,10.88,-1.1568,8.7119,1.5908,0.3105,-0.0825,-0.2992,rough,15.5,1,1.349
350,11.20,-0.8947,8.5822,1.6101,0.3103,0.0011,-0.4482,rough,15.5,1,1.219
360,11.52,-0.6696,8.4036,1.5968,0.3394,0.0546,-0.6504,rough,15.5,1,1.091
370,11.84,-0.4815,8.1608,1.5506,0.3603,0.1557,-0.8873,rough,15.5,1,0.956
380,12.16,-0.3510,7.8705,1.4672,0.3259,0.2526,-1.1545,rough,15.5,1,0.835
390,12.48,-0.2296,7.4609,1.3173,0.2824,0.3888,-1.2418,rough,15.5,2,7.352
400,12.80,-0.0807,7.0208,1.1199,0.2356,0.4388,-1.2533,rough,15.5,2,6.985
410,13.12,0.0639,6.5982,0.8920,0.1729,0.4764,-1.2481,rough,15.5,2,6.643
420,13.44,0.2038,6.1690,0.6482,0.1394,0.4845,-1.2589,rough,15.5,2,6.316
430,13.76,0.3385,5.7721,0.4491,0.1595,0.3962,-1.1841,rough,15.5,2,6.022
440,14.08,0.3808,5.4877,0.3328,0.3254,0.1396,-0.5673,rough,15.5,2,5.872
450,14.40,0.3383,5.3497,0.2936,0.3176,-0.0061,-0.1952,rough,15.5,2,5.861
460,14.72,0.3489,5.3163,0.2881,0.2891,-0.0431,-0.0816,rough,15.5,2,5.840
470,15.04,0.3490,5.3030,0.2837,0.2763,-0.0470,-0.0391,rough,15.5,2,5.835
480,15.36,0.3489,5.2953,0.2813,0.2691,-0.0492,-0.0226,rough,15.5,2,5.832
490,15.68,0.3490,5.2918,0.2809,0.2660,-0.0541,-0.0161,rough,15.5,2,5.831
500,16.00,0.3491,5.2895,0.2803,0.2636,-0.0559,-0.0096,rough,15.5,2,5.830
510,16.32,0.3495,5.2904,0.2803,0.2640,-0.0550,-0.0081,rough,15.5,2,5.830
520,16.64,0.3497,5.2909,0.2802,0.2651,-0.0515,-0.0138,rough,15.5,2,5.830
530,16.96,0.3499,5.2909,0.2805,0.2647,-0.0547,-0.0097,rough,15.5,2,5.830
540,17.28,0.3497,5.2906,0.2804,0.2648,-0.0537,-0.0138,rough,15.5,2,5.830
550,17.60,0.3500,5.2910,0.2806,0.2651,-0.0540,-0.0129,rough,15.5,2,5.830
560,17.92,0.3494,5.2908,0.2806,0.2642,-0.0564,-0.0069,rough,15.5,2,5.830
570,18.24,0.3495,5.2906,0.2798,0.2643,-0.0507,-0.0089,rough,15.5,2,5.830
580,18.56,0.3495,5.2908,0.2798,0.2644,-0.0505,-0.0094,rough,15.5,2,5.830
590,18.88,0.3497,5.2906,0.2802,0.2647,-0.0522,-0.0132,rough,15.5,2,5.830
600,19.20,0.3497,5.2908,0.2804,0.2649,-0.0532,-0.0134,rough,15.5,2,5.830
610,19.52,0.3498,5.2908,0.2804,0.2651,-0.0523,-0.0163,rough,15.5,2,5.830
620,19.84,0.3496,5.2890,0.2800,0.2640,-0.0527,-0.0164,rough,15.5,2,5.830
630,20.16,0.3494,5.2891,0.2792,0.2629,-0.0505,-0.0056,rough,15.5,2,5.830
640,20.48,0.3495,5.2901,0.2796,0.2637,-0.0509,-0.0072,rough,15.5,2,5.830
650,20.80,0.3497,5.2903,0.2801,0.2644,-0.0523,-0.0118,rough,15.5,2,5.830
660,21.12,0.3498,5.2906,0.2804,0.2648,-0.0534,-0.0142,rough,15.5,2,5.830
670,21.44,0.3501,5.2905,0.2803,0.2646,-0.0534,-0.0121,rough,15.5,2,5.830
680,21.76,0.3498,5.2906,0.2803,0.2649,-0.0523,-0.0149,rough,15.5,2,5.830
690,22.08,0.3500,5.2906,0.2805,0.2651,-0.0534,-0.0164,rough,15.5,2,5.830
700,22.40,0.3499,5.2904,0.2804,0.2646,-0.0537,-0.0135,rough,15.5,2,5.830
710,22.72,0.3497,5.2906,0.2803,0.2648,-0.0529,-0.0138,rough,15.5,2,5.830
720,23.04,0.3500,5.2908,0.2806,0.2653,-0.0534,-0.0170,rough,15.5,2,5.830
730,23.36,0.3495,5.2906,0.2797,0.2641,-0.0508,-0.0068,rough,15.5,2,5.830
740,23.68,0.3494,5.2909,0.2799,0.2644,-0.0511,-0.0084,rough,15.5,2,5.831
750,24.00,0.3496,5.2902,0.2796,0.2638,-0.0506,-0.0071,rough,15.5,2,5.830
760,24.32,0.3496,5.2905,0.2805,0.2642,-0.0556,-0.0092,rough,15.5,2,5.830
770,24.64,0.3500,5.2906,0.2804,0.2650,-0.0525,-0.0167,rough,15.5,2,5.830
780,24.96,0.3499,5.2909,0.2806,0.2651,-0.0544,-0.0124,rough,15.5,2,5.830
790,25.28,0.3494,5.2910,0.2799,0.2648,-0.0502,-0.0106,rough,15.5,2,5.831
800,25.60,0.3497,5.2908,0.2807,0.2645,-0.0566,-0.0099,rough,15.5,2,5.830
810,25.92,0.3500,5.2908,0.2805,0.2653,-0.0530,-0.0174,rough,15.5,2,5.830
820,26.24,0.3497,5.2911,0.2802,0.2651,-0.0517,-0.0119,rough,15.5,2,5.830
830,26.56,0.3494,5.2893,0.2794,0.2637,-0.0496,-0.0113,rough,15.5,2,5.830
840,26.88,0.3496,5.2882,0.2797,0.2633,-0.0523,-0.0153,rough,15.5,2,5.829
850,27.20,0.3496,5.2884,0.2795,0.2627,-0.0525,-0.0088,rough,15.5,2,5.830
860,27.52,0.3501,5.2895,0.2799,0.2635,-0.0536,-0.0088,rough,15.5,2,5.829
870,27.84,0.3502,5.2903,0.2802,0.2642,-0.0535,-0.0108,rough,15.5,2,5.830
880,28.16,0.3502,5.2901,0.2803,0.2645,-0.0536,-0.0149,rough,15.5,2,5.830
890,28.48,0.3498,5.2908,0.2802,0.2650,-0.0519,-0.0133,rough,15.5,2,5.830
900,28.80,0.3498,5.2909,0.2803,0.2649,-0.0525,-0.0132,rough,15.5,2,5.830
910,29.12,0.3500,5.2910,0.2805,0.2649,-0.0537,-0.0120,rough,15.5,2,5.830
920,29.44,0.3496,5.2908,0.2803,0.2646,-0.0534,-0.0107,rough,15.5,2,5.830
930,29.76,0.3500,5.2909,0.2806,0.2655,-0.0534,-0.0178,rough,15.5,2,5.830
940,30.08,0.3497,5.2908,0.2805,0.2648,-0.0544,-0.0123,rough,15.5,2,5.830
950,30.40,0.3497,5.2905,0.2802,0.2646,-0.0527,-0.0117,rough,15.5,2,5.830
960,30.72,0.3501,5.2905,0.2804,0.2648,-0.0531,-0.0142,rough,15.5,2,5.830
970,31.04,0.3501,5.2904,0.2804,0.2649,-0.0528,-0.0167,rough,15.5,2,5.830
980,31.36,0.3499,5.2904,0.2803,0.2646,-0.0533,-0.0138,rough,15.5,2,5.830
990,31.68,0.3501,5.2905,0.2805,0.2650,-0.0536,-0.0156,rough,15.5,2,5.830
1000,32.00,0.3498,5.2911,0.2805,0.2652,-0.0532,-0.0131,rough,15.5,2,5.830
1010,32.32,0.3496,5.2907,0.2799,0.2646,-0.0510,-0.0102,rough,15.5,2,5.830
1020,32.64,0.3498,5.2906,0.2805,0.2645,-0.0550,-0.0118,rough,15.5,2,5.830
1030,32.96,0.3494,5.2909,0.2802,0.2644,-0.0532,-0.0079,rough,15.5,2,5.831
1040,33.28,0.3499,5.2904,0.2803,0.2644,-0.0534,-0.0124,rough,15.5,2,5.830
1050,33.60,0.3497,5.2902,0.2803,0.2638,-0.0549,-0.0085,rough,15.5,2,5.830
1060,33.92,0.3498,5.2908,0.2802,0.2650,-0.0518,-0.0143,rough,15.5,2,5.830
1070,34.24,0.3501,5.2909,0.2805,0.2649,-0.0542,-0.0116,rough,15.5,2,5.830
1080,34.56,0.3497,5.2895,0.2801,0.2643,-0.0524,-0.0171,rough,15.5,2,5.830
1090,34.88,0.3494,5.2885,0.2791,0.2631,-0.0491,-0.0107,rough,15.5,2,5.830
1100,35.20,0.3503,5.2904,0.2802,0.2640,-0.0541,-0.0074,rough,15.5,2,5.830
1110,35.52,0.3497,5.2906,0.2800,0.2646,-0.0508,-0.0123,rough,15.5,2,5.830
1120,35.84,0.3498,5.2899,0.2802,0.2641,-0.0538,-0.0135,rough,15.5,2,5.830
1130,36.16,0.3502,5.2899,0.2802,0.2640,-0.0546,-0.0099,rough,15.5,2,5.829
1140,36.48,0.3503,5.2903,0.2804,0.2646,-0.0540,-0.0135,rough,15.5,2,5.830
1150,36.80,0.3496,5.2903,0.2801,0.2641,-0.0533,-0.0095,rough,15.5,2,5.830
1160,37.12,0.3498,5.2905,0.2803,0.2646,-0.0531,-0.0127,rough,15.5,2,5.830
1170,37.44,0.3501,5.2909,0.2804,0.2648,-0.0533,-0.0122,rough,15.5,2,5.830
1180,37.76,0.3497,5.2908,0.2802,0.2649,-0.0519,-0.0134,rough,15.5,2,5.830
1190,38.08,0.3497,5.2903,0.2804,0.2642,-0.0545,-0.0108,rough,15.5,2,5.830
1200,38.40,0.3498,5.2906,0.2807,0.2645,-0.0560,-0.0114,rough,15.5,2,5.830
1210,38.72,0.3500,5.2910,0.2805,0.2652,-0.0530,-0.0151,rough,15.5,2,5.830
1220,39.04,0.3496,5.2907,0.2800,0.2644,-0.0516,-0.0092,rough,15.5,2,5.830
1230,39.36,0.3498,5.2905,0.2803,0.2646,-0.0533,-0.0133,rough,15.5,2,5.830
1240,39.68,0.3497,5.2907,0.2804,0.2647,-0.0539,-0.0123,rough,15.5,2,5.830
1250,40.00,0.3496,5.2904,0.2805,0.2639,-0.0563,-0.0077,rough,15.5,2,5.830
1260,40.32,0.3501,5.2908,0.2805,0.2650,-0.0533,-0.0150,rough,15.5,2,5.830
1270,40.64,0.3497,5.2903,0.2801,0.2645,-0.0524,-0.0130,rough,15.5,2,5.830
1280,40.96,0.3497,5.2901,0.2803,0.2642,-0.0541,-0.0122,rough,15.5,2,5.830
1290,41.28,0.3498,5.2902,0.2803,0.2645,-0.0532,-0.0140,rough,15.5,2,5.830
1300,41.60,0.3498,5.2901,0.2802,0.2643,-0.0532,-0.0135,rough,15.5,2,5.830
1310,41.92,0.3497,5.2903,0.2804,0.2641,-0.0551,-0.0101,rough,15.5,2,5.830
1320,42.24,0.3499,5.2908,0.2803,0.2647,-0.0534,-0.0104,rough,15.5,2,5.830
1330,42.56,0.3497,5.2907,0.2805,0.2647,-0.0545,-0.0125,rough,15.5,2,5.830
1340,42.88,0.3498,5.2905,0.2802,0.2647,-0.0520,-0.0143,rough,15.5,2,5.830
1350,43.20,0.3499,5.2907,0.2801,0.2646,-0.0526,-0.0099,rough,15.5,2,5.830
1360,43.52,0.3497,5.2902,0.2806,0.2637,-0.0578,-0.0061,rough,15.5,2,5.830
1370,43.84,0.3496,5.2905,0.2803,0.2645,-0.0533,-0.0120,rough,15.5,2,5.830
1380,44.16,0.3496,5.2905,0.2803,0.2643,-0.0540,-0.0107,rough,15.5,2,5.830
1390,44.48,0.3495,5.2906,0.2798,0.2645,-0.0500,-0.0114,rough,15.5,2,5.830
1400,44.80,0.3494,5.2906,0.2806,0.2640,-0.0571,-0.0066,rough,15.5,2,5.830
1410,45.12,0.3496,5.2907,0.2803,0.2646,-0.0529,-0.0116,rough,15.5,2,5.830
1420,45.44,0.3499,5.2909,0.2805,0.2648,-0.0544,-0.0110,rough,15.5,2,5.830
1430,45.76,0.3498,5.2910,0.2805,0.2649,-0.0540,-0.0108,rough,15.5,2,5.830
1440,46.08,0.3496,5.2906,0.2799,0.2641,-0.0521,-0.0074,rough,15.5,2,5.830
1450,46.40,0.3499,5.2905,0.2803,0.2644,-0.0535,-0.0105,rough,15.5,2,5.830
1460,46.72,0.3495,5.2904,0.2799,0.2640,-0.0521,-0.0069,rough,15.5,2,5.830
1470,47.04,0.3496,5.2905,0.2804,0.2645,-0.0540,-0.0116,rough,15.5,2,5.830
1480,47.36,0.3496,5.2906,0.2799,0.2646,-0.0507,-0.0117,rough,15.5,2,5.830
1490,47.68,0.3497,5.2906,0.2802,0.2647,-0.0524,-0.0122,rough,15.5,2,5.830
1500,48.00,0.3500,5.2909,0.2804,0.2647,-0.0536,-0.0112,rough,15.5,2,5.830
1510,48.32,0.3501,5.2906,0.2803,0.2648,-0.0528,-0.0148,rough,15.5,2,5.830
1520,48.64,0.3494,5.2906,0.2806,0.2639,-0.0573,-0.0060,rough,15.5,2,5.830
1530,48.96,0.3497,5.2910,0.2806,0.2651,-0.0541,-0.0135,rough,15.5,2,5.830
1540,49.28,0.3497,5.2908,0.2803,0.2649,-0.0521,-0.0146,rough,15.5,2,5.830
1550,49.60,0.3500,5.2907,0.2805,0.2652,-0.0531,-0.0167,rough,15.5,2,5.830
1560,49.92,0.3499,5.2906,0.2802,0.2647,-0.0522,-0.0137,rough,15.5,2,5.830
1570,50.24,0.3495,5.2907,0.2797,0.2642,-0.0505,-0.0077,rough,15.5,2,5.830
1580,50.56,0.3497,5.2901,0.2804,0.2637,-0.0564,-0.0070,rough,15.5,2,5.830
1590,50.88,0.3496,5.2904,0.2797,0.2642,-0.0499,-0.0103,rough,15.5,2,5.830
1600,51.20,0.3499,5.2903,0.2803,0.2646,-0.0534,-0.0143,rough,15.5,2,5.830
1610,51.52,0.3497,5.2903,0.2802,0.2645,-0.0527,-0.0130,rough,15.5,2,5.830
1620,51.84,0.3498,5.2902,0.2803,0.2642,-0.0541,-0.0110,rough,15.5,2,5.830
1630,52.16,0.3497,5.2905,0.2802,0.2646,-0.0525,-0.0127,rough,15.5,2,5.830
1640,52.48,0.3497,5.2902,0.2803,0.2640,-0.0546,-0.0103,rough,15.5,2,5.830
1650,52.80,0.3498,5.2906,0.2805,0.2649,-0.0537,-0.0141,rough,15.5,2,5.830
1660,53.12,0.3500,5.2904,0.2804,0.2650,-0.0530,-0.0166,rough,15.5,2,5.830
1670,53.44,0.3495,5.2906,0.2803,0.2646,-0.0538,-0.0105,rough,15.5,2,5.830
1680,53.76,0.3493,5.2908,0.2800,0.2642,-0.0529,-0.0056,rough,15.5,2,5.831
1690,54.08,0.3497,5.2899,0.2803,0.2644,-0.0536,-0.0158,rough,15.5,2,5.830
1700,54.40,0.3503,5.2904,0.2804,0.2646,-0.0538,-0.0127,rough,15.5,2,5.830
1710,54.72,0.3499,5.2903,0.2801,0.2644,-0.0527,-0.0118,rough,15.5,2,5.830
1720,55.04,0.3497,5.2902,0.2802,0.2639,-0.0544,-0.0091,rough,15.5,2,5.830
1730,55.36,0.3495,5.2907,0.2800,0.2643,-0.0522,-0.0081,rough,15.5,2,5.830
1740,55.68,0.3497,5.2909,0.2805,0.2652,-0.0535,-0.0152,rough,15.5,2,5.830
1750,56.00,0.3495,5.2907,0.2798,0.2645,-0.0497,-0.0106,rough,15.5,2,5.830
1760,56.32,0.3495,5.2904,0.2797,0.2641,-0.0505,-0.0083,rough,15.5,2,5.830
1770,56.64,0.3497,5.2904,0.2803,0.2644,-0.0536,-0.0122,rough,15.5,2,5.830
1780,56.96,0.3496,5.2901,0.2803,0.2638,-0.0552,-0.0085,rough,15.5,2,5.830
1790,57.28,0.3497,5.2905,0.2803,0.2644,-0.0535,-0.0106,rough,15.5,2,5.830
1800,57.60,0.3498,5.2904,0.2804,0.2647,-0.0539,-0.0140,rough,15.5,2,5.830
1810,57.92,0.3499,5.2902,0.2801,0.2639,-0.0536,-0.0076,rough,15.5,2,5.830
1820,58.24,0.3496,5.2905,0.2804,0.2643,-0.0549,-0.0105,rough,15.5,2,5.830
1830,58.56,0.3496,5.2908,0.2800,0.2645,-0.0513,-0.0097,rough,15.5,2,5.830
1840,58.88,0.3495,5.2905,0.2797,0.2642,-0.0500,-0.0091,rough,15.5,2,5.830
1850,59.20,0.3498,5.2905,0.2802,0.2646,-0.0527,-0.0128,rough,15.5,2,5.830
1860,59.52,0.3497,5.2904,0.2804,0.2641,-0.0553,-0.0092,rough,15.5,2,5.830
1870,59.84,0.3497,5.2904,0.2802,0.2644,-0.0531,-0.0123,rough,15.5,2,5.830
1880,60.16,0.3499,5.2903,0.2803,0.2646,-0.0533,-0.0149,rough,15.5,2,5.830
1890,60.48,0.3495,5.2905,0.2798,0.2643,-0.0507,-0.0100,rough,15.5,2,5.830
1900,60.80,0.3500,5.2909,0.2805,0.2650,-0.0543,-0.0122,rough,15.5,2,5.830
1910,61.12,0.3502,5.2895,0.2801,0.2635,-0.0549,-0.0080,rough,15.5,2,5.829
1920,61.44,0.3502,5.2897,0.2802,0.2635,-0.0551,-0.0075,rough,15.5,2,5.829
1930,61.76,0.3494,5.2903,0.2805,0.2640,-0.0567,-0.0076,rough,15.5,2,5.830
1940,62.08,0.3502,5.2906,0.2804,0.2644,-0.0540,-0.0113,rough,15.5,2,5.830
1950,62.40,0.3502,5.2905,0.2804,0.2642,-0.0546,-0.0094,rough,15.5,2,5.830
1960,62.72,0.3500,5.2900,0.2801,0.2638,-0.0540,-0.0086,rough,15.5,2,5.830
1970,63.04,0.3497,5.2900,0.2804,0.2636,-0.0565,-0.0071,rough,15.5,2,5.830
1980,63.36,0.3499,5.2896,0.2801,0.2633,-0.0548,-0.0073,rough,15.5,2,5.830
1990,63.68,0.3498,5.2905,0.2804,0.2644,-0.0550,-0.0088,rough,15.5,2,5.830
2000,64.00,0.3497,5.2907,0.2805,0.2651,-0.0535,-0.0154,rough,15.5,2,5.830
2010,64.32,0.3499,5.2906,0.2803,0.2648,-0.0527,-0.0141,rough,15.5,2,5.830
2020,64.64,0.3497,5.2903,0.2803,0.2643,-0.0535,-0.0121,rough,15.5,2,5.830
2030,64.96,0.3499,5.2903,0.2804,0.2645,-0.0540,-0.0137,rough,15.5,2,5.830
2040,65.28,0.3497,5.2903,0.2804,0.2643,-0.0545,-0.0114,rough,15.5,2,5.830
2050,65.60,0.3495,5.2905,0.2797,0.2640,-0.0509,-0.0067,rough,15.5,2,5.830
2060,65.92,0.3493,5.2909,0.2801,0.2643,-0.0528,-0.0070,rough,15.5,2,5.831
2070,66.24,0.3500,5.2904,0.2804,0.2645,-0.0543,-0.0123,rough,15.5,2,5.830
2080,66.56,0.3498,5.2906,0.2803,0.2648,-0.0523,-0.0145,rough,15.5,2,5.830
2090,66.88,0.3497,5.2909,0.2802,0.2651,-0.0514,-0.0134,rough,15.5,2,5.830
2100,67.20,0.3496,5.2911,0.2807,0.2651,-0.0551,-0.0112,rough,15.5,2,5.830
2110,67.52,0.3498,5.2907,0.2804,0.2646,-0.0535,-0.0122,rough,15.5,2,5.830
2120,67.84,0.3496,5.2904,0.2798,0.2644,-0.0509,-0.0102,rough,15.5,2,5.830
2130,68.16,0.3498,5.2907,0.2804,0.2648,-0.0538,-0.0126,rough,15.5,2,5.830
2140,68.48,0.3497,5.2910,0.2805,0.2647,-0.0554,-0.0078,rough,15.5,2,5.830
2150,68.80,0.3495,5.2901,0.2801,0.2642,-0.0528,-0.0118,rough,15.5,2,5.830
2160,69.12,0.3508,5.2916,0.2806,0.2647,-0.0554,-0.0056,rough,15.5,2,5.829
2170,69.44,0.3503,5.2923,0.2809,0.2662,-0.0534,-0.0160,rough,15.5,2,5.830
2180,69.76,0.3496,5.2906,0.2807,0.2641,-0.0571,-0.0072,rough,15.5,2,5.830
2190,70.08,0.3500,5.2903,0.2803,0.2643,-0.0541,-0.0118,rough,15.5,2,5.830
2200,70.40,0.3494,5.2905,0.2804,0.2640,-0.0557,-0.0074,rough,15.5,2,5.830
2210,70.72,0.3496,5.2906,0.2805,0.2642,-0.0554,-0.0082,rough,15.5,2,5.830
2220,71.04,0.3500,5.2907,0.2804,0.2650,-0.0527,-0.0157,rough,15.5,2,5.830
2230,71.36,0.3497,5.2907,0.2806,0.2643,-0.0563,-0.0091,rough,15.5,2,5.830
2240,71.68,0.3497,5.2907,0.2802,0.2647,-0.0523,-0.0126,rough,15.5,2,5.830
2250,72.00,0.3498,5.2906,0.2804,0.2649,-0.0530,-0.0150,rough,15.5,2,5.830
2260,72.32,0.3495,5.2908,0.2801,0.2643,-0.0531,-0.0075,rough,15.5,2,5.830
2270,72.64,0.3498,5.2905,0.2803,0.2644,-0.0535,-0.0119,rough,15.5,2,5.830
2280,72.96,0.3496,5.2904,0.2802,0.2642,-0.0538,-0.0102,rough,15.5,2,5.830
2290,73.28,0.3498,5.2905,0.2805,0.2645,-0.0551,-0.0118,rough,15.5,2,5.830
2300,73.60,0.3496,5.2906,0.2800,0.2645,-0.0512,-0.0113,rough,15.5,2,5.830
2310,73.92,0.3497,5.2908,0.2803,0.2648,-0.0529,-0.0128,rough,15.5,2,5.830
2320,74.24,0.3498,5.2907,0.2805,0.2645,-0.0551,-0.0089,rough,15.5,2,5.830
2330,74.56,0.3497,5.2903,0.2805,0.2639,-0.0566,-0.0074,rough,15.5,2,5.830
2340,74.88,0.3499,5.2905,0.2803,0.2644,-0.0543,-0.0092,rough,15.5,2,5.830
2350,75.20,0.3498,5.2909,0.2805,0.2648,-0.0545,-0.0100,rough,15.5,2,5.830
2360,75.52,0.3497,5.2908,0.2805,0.2650,-0.0535,-0.0146,rough,15.5,2,5.830
2370,75.84,0.3501,5.2907,0.2803,0.2650,-0.0522,-0.0157,rough,15.5,2,5.830
2380,76.16,0.3497,5.2905,0.2804,0.2646,-0.0538,-0.0130,rough,15.5,2,5.830
2390,76.48,0.3499,5.2905,0.2804,0.2649,-0.0528,-0.0160,rough,15.5,2,5.830
2400,76.80,0.3499,5.2906,0.2804,0.2647,-0.0532,-0.0136,rough,15.5,2,5.830
2410,77.12,0.3498,5.2905,0.2802,0.2648,-0.0517,-0.0150,rough,15.5,2,5.830
2420,77.44,0.3499,5.2903,0.2804,0.2646,-0.0541,-0.0140,rough,15.5,2,5.830
2430,77.76,0.3498,5.2901,0.2803,0.2644,-0.0538,-0.0133,rough,15.5,2,5.830
2440,78.08,0.3497,5.2903,0.2801,0.2644,-0.0528,-0.0118,rough,15.5,2,5.830
2450,78.40,0.3496,5.2901,0.2795,0.2641,-0.0495,-0.0098,rough,15.5,2,5.830
2460,78.72,0.3497,5.2906,0.2803,0.2645,-0.0532,-0.0113,rough,15.5,2,5.830
2470,79.04,0.3498,5.2907,0.2804,0.2649,-0.0532,-0.0144,rough,15.5,2,5.830
2480,79.36,0.3497,5.2901,0.2805,0.2640,-0.0561,-0.0090,rough,15.5,2,5.830
2490,79.68,0.3495,5.2905,0.2797,0.2642,-0.0498,-0.0092,rough,15.5,2,5.830
2500,80.00,0.3501,5.2907,0.2804,0.2647,-0.0534,-0.0121,rough,15.5,2,5.830
2510,80.32,0.3500,5.2908,0.2803,0.2648,-0.0531,-0.0122,rough,15.5,2,5.830
2520,80.64,0.3500,5.2912,0.2807,0.2652,-0.0545,-0.0123,rough,15.5,2,5.830
2530,80.96,0.3494,5.2895,0.2803,0.2637,-0.0554,-0.0113,rough,15.5,2,5.830
2540,81.28,0.3497,5.2902,0.2801,0.2642,-0.0526,-0.0114,rough,15.5,2,5.830
2550,81.60,0.3495,5.2903,0.2798,0.2639,-0.0515,-0.0074,rough,15.5,2,5.830
2560,81.92,0.3495,5.2906,0.2797,0.2642,-0.0500,-0.0083,rough,15.5,2,5.830
2570,82.24,0.3498,5.2909,0.2804,0.2647,-0.0539,-0.0096,rough,15.5,2,5.830
2580,82.56,0.3495,5.2910,0.2799,0.2646,-0.0505,-0.0092,rough,15.5,2,5.830
2590,82.88,0.3495,5.2905,0.2808,0.2638,-0.0589,-0.0054,rough,15.5,2,5.830
2600,83.20,0.3497,5.2910,0.2803,0.2648,-0.0528,-0.0115,rough,15.5,2,5.830
2610,83.52,0.3496,5.2903,0.2802,0.2638,-0.0543,-0.0082,rough,15.5,2,5.830
2620,83.84,0.3495,5.2906,0.2796,0.2643,-0.0494,-0.0095,rough,15.5,2,5.830
2630,84.16,0.3496,5.2907,0.2800,0.2643,-0.0522,-0.0084,rough,15.5,2,5.830
2640,84.48,0.3498,5.2910,0.2804,0.2649,-0.0535,-0.0108,rough,15.5,2,5.830
2650,84.80,0.3499,5.2906,0.2804,0.2643,-0.0551,-0.0077,rough,15.5,2,5.830
2660,85.12,0.3496,5.2907,0.2804,0.2646,-0.0544,-0.0113,rough,15.5,2,5.830
2670,85.44,0.3500,5.2908,0.2803,0.2647,-0.0529,-0.0115,rough,15.5,2,5.830
2680,85.76,0.3498,5.2905,0.2804,0.2647,-0.0538,-0.0140,rough,15.5,2,5.830
2690,86.08,0.3498,5.2907,0.2803,0.2649,-0.0526,-0.0147,rough,15.5,2,5.830
2700,86.40,0.3495,5.2907,0.2798,0.2643,-0.0506,-0.0093,rough,15.5,2,5.830
2710,86.72,0.3495,5.2903,0.2807,0.2637,-0.0588,-0.0052,rough,15.5,2,5.830
2720,87.04,0.3499,5.2908,0.2805,0.2648,-0.0543,-0.0125,rough,15.5,2,5.830
2730,87.36,0.3496,5.2907,0.2803,0.2649,-0.0524,-0.0138,rough,15.5,2,5.830
2740,87.68,0.3501,5.2910,0.2804,0.2651,-0.0527,-0.0147,rough,15.5,2,5.830
2750,88.00,0.3494,5.2911,0.2803,0.2646,-0.0533,-0.0081,rough,15.5,2,5.831
2760,88.32,0.3500,5.2908,0.2804,0.2646,-0.0537,-0.0111,rough,15.5,2,5.830
2770,88.64,0.3499,5.2900,0.2803,0.2643,-0.0542,-0.0127,rough,15.5,2,5.830
2780,88.96,0.3495,5.2904,0.2798,0.2640,-0.0517,-0.0078,rough,15.5,2,5.830
2790,89.28,0.3497,5.2910,0.2806,0.2647,-0.0553,-0.0089,rough,15.5,2,5.830
2800,89.60,0.3500,5.2911,0.2805,0.2651,-0.0529,-0.0141,rough,15.5,2,5.830
2810,89.92,0.3494,5.2908,0.2800,0.2642,-0.0527,-0.0067,rough,15.5,2,5.830
2820,90.24,0.3497,5.2899,0.2802,0.2638,-0.0547,-0.0097,rough,15.5,2,5.830
2830,90.56,0.3500,5.2906,0.2805,0.2651,-0.0534,-0.0175,rough,15.5,2,5.830
2840,90.88,0.3494,5.2891,0.2800,0.2636,-0.0535,-0.0119,rough,15.5,2,5.830
2850,91.20,0.3498,5.2890,0.2799,0.2630,-0.0545,-0.0065,rough,15.5,2,5.830
2860,91.52,0.3494,5.2898,0.2804,0.2631,-0.0582,-0.0028,rough,15.5,2,5.830
2870,91.84,0.3501,5.2906,0.2805,0.2650,-0.0535,-0.0159,rough,15.5,2,5.830
2880,92.16,0.3498,5.2904,0.2804,0.2648,-0.0538,-0.0149,rough,15.5,2,5.830
2890,92.48,0.3497,5.2906,0.2808,0.2643,-0.0574,-0.0091,rough,15.5,2,5.830
2900,92.80,0.3499,5.2908,0.2805,0.2648,-0.0544,-0.0110,rough,15.5,2,5.830
2910,93.12,0.3496,5.2907,0.2805,0.2645,-0.0552,-0.0099,rough,15.5,2,5.830
2920,93.44,0.3498,5.2905,0.2804,0.2647,-0.0540,-0.0137,rough,15.5,2,5.830
2930,93.76,0.3498,5.2902,0.2801,0.2645,-0.0524,-0.0133,rough,15.5,2,5.830
2940,94.08,0.3498,5.2905,0.2802,0.2646,-0.0525,-0.0138,rough,15.5,2,5.830
2950,94.40,0.3495,5.2906,0.2807,0.2641,-0.0572,-0.0072,rough,15.5,2,5.830
2960,94.72,0.3495,5.2911,0.2798,0.2651,-0.0493,-0.0115,rough,15.5,2,5.830
2970,95.04,0.3497,5.2908,0.2803,0.2649,-0.0523,-0.0136,rough,15.5,2,5.830
2980,95.36,0.3496,5.2910,0.2805,0.2650,-0.0537,-0.0132,rough,15.5,2,5.830
2990,95.68,0.3498,5.2904,0.2804,0.2647,-0.0541,-0.0137,rough,15.5,2,5.830
3000,96.00,0.3495,5.2906,0.2800,0.2641,-0.0521,-0.0076,rough,15.5,2,5.830
3010,96.32,0.3497,5.2904,0.2801,0.2645,-0.0525,-0.0117,rough,15.5,2,5.830
3020,96.64,0.3496,5.2903,0.2796,0.2641,-0.0501,-0.0091,rough,15.5,2,5.830
3030,96.96,0.3498,5.2902,0.2802,0.2644,-0.0529,-0.0135,rough,15.5,2,5.830
3040,97.28,0.3501,5.2905,0.2804,0.2649,-0.0532,-0.0161,rough,15.5,2,5.830
3050,97.60,0.3498,5.2904,0.2804,0.2644,-0.0542,-0.0124,rough,15.5,2,5.830
3060,97.92,0.3498,5.2904,0.2801,0.2646,-0.0519,-0.0138,rough,15.5,2,5.830
3070,98.24,0.3498,5.2903,0.2804,0.2644,-0.0544,-0.0121,rough,15.5,2,5.830
3080,98.56,0.3496,5.2904,0.2796,0.2641,-0.0497,-0.0094,rough,15.5,2,5.830
3090,98.88,0.3496,5.2905,0.2798,0.2645,-0.0503,-0.0119,rough,15.5,2,5.830
3100,99.20,0.3498,5.2901,0.2802,0.2635,-0.0551,-0.0060,rough,15.5,2,5.830
3110,99.52,0.3501,5.2903,0.2803,0.2640,-0.0547,-0.0092,rough,15.5,2,5.830
3120,99.84,0.3496,5.2900,0.2795,0.2638,-0.0502,-0.0080,rough,15.5,2,5.830
3130,100.16,0.3499,5.2906,0.2801,0.2644,-0.0529,-0.0092,rough,15.5,2,5.830
3140,100.48,0.3499,5.2904,0.2804,0.2646,-0.0541,-0.0139,rough,15.5,2,5.830
3150,100.80,0.3501,5.2908,0.2805,0.2650,-0.0534,-0.0141,rough,15.5,2,5.830
3160,101.12,0.3498,5.2908,0.2804,0.2650,-0.0526,-0.0147,rough,15.5,2,5.830
3170,101.44,0.3502,5.2904,0.2804,0.2648,-0.0536,-0.0150,rough,15.5,2,5.830
3180,101.76,0.3492,5.2908,0.2808,0.2640,-0.0586,-0.0052,rough,15.5,2,5.831
3190,102.08,0.3499,5.2907,0.2804,0.2649,-0.0528,-0.0148,rough,15.5,2,5.830
3200,102.40,0.3499,5.2905,0.2805,0.2646,-0.0546,-0.0132,rough,15.5,2,5.830
3210,102.72,0.3503,5.2899,0.2802,0.2641,-0.0538,-0.0122,rough,15.5,2,5.829
3220,103.04,0.3503,5.2897,0.2802,0.2640,-0.0541,-0.0120,rough,15.5,2,5.829
3230,103.36,0.3500,5.2896,0.2802,0.2641,-0.0540,-0.0134,rough,15.5,2,5.830
3240,103.68,0.3497,5.2902,0.2801,0.2642,-0.0531,-0.0099,rough,15.5,2,5.830
3250,104.00,0.3496,5.2902,0.2801,0.2638,-0.0542,-0.0078,rough,15.5,2,5.830
3260,104.32,0.3496,5.2905,0.2805,0.2643,-0.0553,-0.0100,rough,15.5,2,5.830
3270,104.64,0.3496,5.2904,0.2806,0.2639,-0.0572,-0.0070,rough,15.5,2,5.830
3280,104.96,0.3496,5.2909,0.2805,0.2650,-0.0537,-0.0130,rough,15.5,2,5.830
3290,105.28,0.3497,5.2908,0.2804,0.2649,-0.0532,-0.0129,rough,15.5,2,5.830
3300,105.60,0.3495,5.2912,0.2799,0.2652,-0.0493,-0.0113,rough,15.5,2,5.831
3310,105.92,0.3498,5.2908,0.2806,0.2647,-0.0551,-0.0116,rough,15.5,2,5.830
3320,106.24,0.3496,5.2909,0.2802,0.2648,-0.0518,-0.0125,rough,15.5,2,5.830
3330,106.56,0.3498,5.2901,0.2802,0.2638,-0.0542,-0.0087,rough,15.5,2,5.830
3340,106.88,0.3495,5.2906,0.2800,0.2642,-0.0521,-0.0080,rough,15.5,2,5.830
3350,107.20,0.3497,5.2909,0.2805,0.2652,-0.0533,-0.0149,rough,15.5,2,5.830
3360,107.52,0.3495,5.2904,0.2801,0.2641,-0.0532,-0.0084,rough,15.5,2,5.830
3370,107.84,0.3497,5.2910,0.2805,0.2647,-0.0549,-0.0087,rough,15.5,2,5.830
3380,108.16,0.3498,5.2905,0.2803,0.2645,-0.0530,-0.0124,rough,15.5,2,5.830
3390,108.48,0.3495,5.2905,0.2805,0.2641,-0.0560,-0.0079,rough,15.5,2,5.830
3400,108.80,0.3501,5.2908,0.2805,0.2651,-0.0533,-0.0149,rough,15.5,2,5.830
3410,109.12,0.3499,5.2906,0.2804,0.2646,-0.0537,-0.0122,rough,15.5,2,5.830
3420,109.44,0.3498,5.2903,0.2802,0.2643,-0.0533,-0.0108,rough,15.5,2,5.830
3430,109.76,0.3500,5.2910,0.2805,0.2649,-0.0540,-0.0117,rough,15.5,2,5.830
3440,110.08,0.3495,5.2907,0.2800,0.2644,-0.0518,-0.0085,rough,15.5,2,5.830
3450,110.40,0.3497,5.2908,0.2805,0.2649,-0.0538,-0.0134,rough,15.5,2,5.830
3460,110.72,0.3498,5.2903,0.2803,0.2644,-0.0535,-0.0128,rough,15.5,2,5.830
3470,111.04,0.3497,5.2906,0.2803,0.2646,-0.0534,-0.0126,rough,15.5,2,5.830
3480,111.36,0.3498,5.2908,0.2806,0.2647,-0.0557,-0.0094,rough,15.5,2,5.830
3490,111.68,0.3498,5.2906,0.2804,0.2646,-0.0538,-0.0128,rough,15.5,2,5.830
3500,112.00,0.3499,5.2906,0.2804,0.2645,-0.0545,-0.0096,rough,15.5,2,5.830
3510,112.32,0.3500,5.2905,0.2803,0.2646,-0.0532,-0.0126,rough,15.5,2,5.830
3520,112.64,0.3500,5.2908,0.2805,0.2648,-0.0541,-0.0117,rough,15.5,2,5.830
3530,112.96,0.3494,5.2910,0.2800,0.2647,-0.0509,-0.0097,rough,15.5,2,5.831
3540,113.28,0.3499,5.2910,0.2803,0.2648,-0.0531,-0.0100,rough,15.5,2,5.830
3550,113.60,0.3496,5.2907,0.2803,0.2644,-0.0537,-0.0101,rough,15.5,2,5.830
3560,113.92,0.3499,5.2909,0.2804,0.2649,-0.0531,-0.0117,rough,15.5,2,5.830
3570,114.24,0.3499,5.2902,0.2803,0.2645,-0.0537,-0.0140,rough,15.5,2,5.830
3580,114.56,0.3501,5.2909,0.2806,0.2652,-0.0538,-0.0152,rough,15.5,2,5.830
3590,114.88,0.3501,5.2909,0.2805,0.2649,-0.0541,-0.0119,rough,15.5,2,5.830
3600,115.20,0.3496,5.2907,0.2805,0.2646,-0.0554,-0.0079,rough,15.5,2,5.830
3610,115.52,0.3496,5.2908,0.2800,0.2645,-0.0515,-0.0090,rough,15.5,2,5.830
3620,115.84,0.3498,5.2907,0.2803,0.2646,-0.0531,-0.0122,rough,15.5,2,5.830
3630,116.16,0.3500,5.2901,0.2803,0.2644,-0.0539,-0.0132,rough,15.5,2,5.830
3640,116.48,0.3495,5.2905,0.2803,0.2643,-0.0537,-0.0102,rough,15.5,2,5.830
3650,116.80,0.3497,5.2907,0.2802,0.2646,-0.0524,-0.0115,rough,15.5,2,5.830
3660,117.12,0.3499,5.2908,0.2804,0.2649,-0.0531,-0.0141,rough,15.5,2,5.830
3670,117.44,0.3499,5.2909,0.2803,0.2648,-0.0529,-0.0110,rough,15.5,2,5.830
3680,117.76,0.3499,5.2910,0.2804,0.2649,-0.0532,-0.0117,rough,15.5,2,5.830
3690,118.08,0.3498,5.2903,0.2805,0.2641,-0.0563,-0.0091,rough,15.5,2,5.830
3700,118.40,0.3497,5.2901,0.2803,0.2640,-0.0544,-0.0102,rough,15.5,2,5.830
3710,118.72,0.3500,5.2906,0.2802,0.2645,-0.0532,-0.0108,rough,15.5,2,5.830
3720,119.04,0.3502,5.2905,0.2804,0.2648,-0.0536,-0.0149,rough,15.5,2,5.830
3730,119.36,0.3501,5.2900,0.2803,0.2645,-0.0538,-0.0146,rough,15.5,2,5.830
3740,119.68,0.3495,5.2904,0.2807,0.2638,-0.0579,-0.0062,rough,15.5,2,5.830
3750,120.00,0.3494,5.2908,0.2808,0.2642,-0.0578,-0.0071,rough,15.5,2,5.831
3760,120.32,0.3495,5.2908,0.2803,0.2648,-0.0532,-0.0124,rough,15.5,2,5.830
3770,120.64,0.3495,5.2907,0.2806,0.2643,-0.0565,-0.0084,rough,15.5,2,5.830
3780,120.96,0.3500,5.2910,0.2806,0.2653,-0.0535,-0.0153,rough,15.5,2,5.830
3790,121.28,0.3501,5.2909,0.2805,0.2649,-0.0543,-0.0118,rough,15.5,2,5.830
3800,121.60,0.3502,5.2906,0.2804,0.2645,-0.0545,-0.0108,rough,15.5,2,5.830
3810,121.92,0.3495,5.2911,0.2807,0.2650,-0.0554,-0.0102,rough,15.5,2,5.831
3820,122.24,0.3499,5.2908,0.2805,0.2649,-0.0542,-0.0134,rough,15.5,2,5.830
3830,122.56,0.3495,5.2908,0.2804,0.2645,-0.0541,-0.0098,rough,15.5,2,5.830
3840,122.88,0.3495,5.2908,0.2798,0.2646,-0.0497,-0.0107,rough,15.5,2,5.830
3850,123.20,0.3500,5.2910,0.2806,0.2650,-0.0542,-0.0123,rough,15.5,2,5.830
3860,123.52,0.3502,5.2901,0.2803,0.2643,-0.0541,-0.0123,rough,15.5,2,5.830
3870,123.84,0.3498,5.2902,0.2801,0.2642,-0.0533,-0.0102,rough,15.5,2,5.830
3880,124.16,0.3495,5.2906,0.2801,0.2643,-0.0531,-0.0084,rough,15.5,2,5.830
3890,124.48,0.3501,5.2908,0.2805,0.2647,-0.0541,-0.0117,rough,15.5,2,5.830
3900,124.80,0.3501,5.2904,0.2804,0.2648,-0.0537,-0.0152,rough,15.5,2,5.830
3910,125.12,0.3496,5.2904,0.2803,0.2643,-0.0541,-0.0105,rough,15.5,2,5.830
3920,125.44,0.3497,5.2906,0.2807,0.2645,-0.0565,-0.0105,rough,15.5,2,5.830
3930,125.76,0.3496,5.2905,0.2806,0.2643,-0.0563,-0.0095,rough,15.5,2,5.830
3940,126.08,0.3497,5.2906,0.2806,0.2642,-0.0560,-0.0092,rough,15.5,2,5.830
3950,126.40,0.3501,5.2909,0.2806,0.2653,-0.0534,-0.0161,rough,15.5,2,5.830
3960,126.72,0.3499,5.2912,0.2806,0.2652,-0.0542,-0.0126,rough,15.5,2,5.830
3970,127.04,0.3495,5.2906,0.2805,0.2643,-0.0557,-0.0092,rough,15.5,2,5.830
3980,127.36,0.3500,5.2906,0.2804,0.2650,-0.0524,-0.0167,rough,15.5,2,5.830
3990,127.68,0.3497,5.2904,0.2802,0.2645,-0.0530,-0.0129,rough,15.5,2,5.830
4000,128.00,0.3495,5.2909,0.2798,0.2646,-0.0500,-0.0100,rough,15.5,2,5.830
4010,128.32,0.3496,5.2909,0.2801,0.2645,-0.0521,-0.0090,rough,15.5,2,5.830
4020,128.64,0.3498,5.2908,0.2803,0.2648,-0.0531,-0.0125,rough,15.5,2,5.830
4030,128.96,0.3499,5.2905,0.2803,0.2648,-0.0527,-0.0157,rough,15.5,2,5.830
4040,129.28,0.3498,5.2904,0.2805,0.2643,-0.0555,-0.0109,rough,15.5,2,5.830
4050,129.60,0.3497,5.2907,0.2803,0.2648,-0.0529,-0.0139,rough,15.5,2,5.830
4060,129.92,0.3497,5.2908,0.2804,0.2648,-0.0531,-0.0131,rough,15.5,2,5.830
4070,130.24,0.3501,5.2908,0.2805,0.2652,-0.0534,-0.0161,rough,15.5,2,5.830
4080,130.56,0.3498,5.2904,0.2804,0.2647,-0.0540,-0.0139,rough,15.5,2,5.830
4090,130.88,0.3500,5.2905,0.2805,0.2650,-0.0534,-0.0164,rough,15.5,2,5.830
4100,131.20,0.3497,5.2901,0.2801,0.2641,-0.0532,-0.0107,rough,15.5,2,5.830
4110,131.52,0.3498,5.2901,0.2803,0.2641,-0.0544,-0.0112,rough,15.5,2,5.830
4120,131.84,0.3498,5.2902,0.2802,0.2640,-0.0540,-0.0095,rough,15.5,2,5.830
4130,132.16,0.3498,5.2900,0.2803,0.2641,-0.0544,-0.0112,rough,15.5,2,5.830
4140,132.48,0.3497,5.2904,0.2802,0.2645,-0.0525,-0.0131,rough,15.5,2,5.830
4150,132.80,0.3497,5.2902,0.2803,0.2639,-0.0549,-0.0090,rough,15.5,2,5.830
4160,133.12,0.3495,5.2906,0.2800,0.2643,-0.0519,-0.0086,rough,15.5,2,5.830
4170,133.44,0.3496,5.2903,0.2805,0.2640,-0.0564,-0.0081,rough,15.5,2,5.830
4180,133.76,0.3496,5.2905,0.2804,0.2642,-0.0550,-0.0096,rough,15.5,2,5.830
4190,134.08,0.3499,5.2909,0.2805,0.2647,-0.0548,-0.0098,rough,15.5,2,5.830
4200,134.40,0.3496,5.2909,0.2802,0.2649,-0.0519,-0.0127,rough,15.5,2,5.830
4210,134.72,0.3497,5.2908,0.2804,0.2649,-0.0533,-0.0140,rough,15.5,2,5.830
4220,135.04,0.3496,5.2910,0.2806,0.2650,-0.0545,-0.0123,rough,15.5,2,5.830
4230,135.36,0.3496,5.2910,0.2809,0.2648,-0.0571,-0.0103,rough,15.5,2,5.830
4240,135.68,0.3496,5.2909,0.2809,0.2645,-0.0577,-0.0088,rough,15.5,2,5.830
4250,136.00,0.3498,5.2910,0.2805,0.2652,-0.0527,-0.0156,rough,15.5,2,5.830
4260,136.32,0.3497,5.2906,0.2804,0.2646,-0.0541,-0.0124,rough,15.5,2,5.830
4270,136.64,0.3495,5.2908,0.2802,0.2646,-0.0527,-0.0101,rough,15.5,2,5.830
4280,136.96,0.3497,5.2908,0.2807,0.2647,-0.0557,-0.0117,rough,15.5,2,5.830
4290,137.28,0.3500,5.2910,0.2805,0.2652,-0.0536,-0.0142,rough,15.5,2,5.830
4300,137.60,0.3497,5.2908,0.2803,0.2650,-0.0521,-0.0150,rough,15.5,2,5.830
4310,137.92,0.3501,5.2908,0.2806,0.2653,-0.0533,-0.0169,rough,15.5,2,5.830
4320,138.24,0.3496,5.2907,0.2800,0.2645,-0.0516,-0.0104,rough,15.5,2,5.830
4330,138.56,0.3499,5.2905,0.2803,0.2646,-0.0529,-0.0145,rough,15.5,2,5.830
4340,138.88,0.3501,5.2908,0.2805,0.2648,-0.0543,-0.0119,rough,15.5,2,5.830
4350,139.20,0.3501,5.2898,0.2802,0.2642,-0.0540,-0.0131,rough,15.5,2,5.829
4360,139.52,0.3497,5.2898,0.2799,0.2638,-0.0528,-0.0096,rough,15.5,2,5.830
4370,139.84,0.3497,5.2903,0.2798,0.2642,-0.0505,-0.0107,rough,15.5,2,5.830
4380,140.16,0.3498,5.2907,0.2804,0.2649,-0.0533,-0.0146,rough,15.5,2,5.830
4390,140.48,0.3499,5.2902,0.2803,0.2641,-0.0546,-0.0102,rough,15.5,2,5.830
4400,140.80,0.3500,5.2907,0.2804,0.2646,-0.0540,-0.0106,rough,15.5,2,5.830
4410,141.12,0.3499,5.2910,0.2805,0.2650,-0.0540,-0.0115,rough,15.5,2,5.830
4420,141.44,0.3500,5.2906,0.2803,0.2648,-0.0529,-0.0145,rough,15.5,2,5.830
4430,141.76,0.3495,5.2905,0.2798,0.2642,-0.0507,-0.0085,rough,15.5,2,5.830
4440,142.08,0.3497,5.2906,0.2808,0.2642,-0.0578,-0.0078,rough,15.5,2,5.830
4450,142.40,0.3495,5.2900,0.2802,0.2633,-0.0555,-0.0041,rough,15.5,2,5.830
4460,142.72,0.3495,5.2902,0.2801,0.2639,-0.0537,-0.0087,rough,15.5,2,5.830
4470,143.04,0.3495,5.2906,0.2798,0.2642,-0.0507,-0.0091,rough,15.5,2,5.830
4480,143.36,0.3500,5.2907,0.2804,0.2647,-0.0539,-0.0115,rough,15.5,2,5.830
4490,143.68,0.3498,5.2903,0.2801,0.2644,-0.0526,-0.0109,rough,15.5,2,5.830
4500,144.00,0.3496,5.2903,0.2804,0.2638,-0.0561,-0.0074,rough,15.5,2,5.830
4510,144.32,0.3499,5.2902,0.2803,0.2643,-0.0537,-0.0129,rough,15.5,2,5.830
4520,144.64,0.3498,5.2902,0.2803,0.2642,-0.0542,-0.0119,rough,15.5,2,5.830
4530,144.96,0.3501,5.2908,0.2804,0.2647,-0.0535,-0.0117,rough,15.5,2,5.830
4540,145.28,0.3496,5.2898,0.2796,0.2636,-0.0511,-0.0068,rough,15.5,2,5.830
4550,145.60,0.3497,5.2905,0.2800,0.2643,-0.0523,-0.0100,rough,15.5,2,5.830
4560,145.92,0.3500,5.2902,0.2803,0.2640,-0.0542,-0.0104,rough,15.5,2,5.830
4570,146.24,0.3496,5.2904,0.2804,0.2646,-0.0540,-0.0131,rough,15.5,2,5.830
4580,146.56,0.3501,5.2905,0.2805,0.2650,-0.0534,-0.0168,rough,15.5,2,5.830
4590,146.88,0.3502,5.2896,0.2801,0.2638,-0.0538,-0.0111,rough,15.5,2,5.829
4600,147.20,0.3501,5.2901,0.2802,0.2640,-0.0545,-0.0084,rough,15.5,2,5.830
4610,147.52,0.3495,5.2904,0.2803,0.2641,-0.0548,-0.0087,rough,15.5,2,5.830
4620,147.84,0.3496,5.2904,0.2802,0.2643,-0.0535,-0.0107,rough,15.5,2,5.830
4630,148.16,0.3500,5.2908,0.2805,0.2650,-0.0544,-0.0127,rough,15.5,2,5.830
4640,148.48,0.3498,5.2908,0.2804,0.2651,-0.0524,-0.0154,rough,15.5,2,5.830
4650,148.80,0.3498,5.2904,0.2801,0.2646,-0.0519,-0.0138,rough,15.5,2,5.830
4660,149.12,0.3498,5.2903,0.2802,0.2643,-0.0530,-0.0119,rough,15.5,2,5.830
4670,149.44,0.3498,5.2902,0.2800,0.2640,-0.0532,-0.0087,rough,15.5,2,5.830
4680,149.76,0.3495,5.2905,0.2797,0.2643,-0.0502,-0.0097,rough,15.5,2,5.830
4690,150.08,0.3498,5.2903,0.2802,0.2645,-0.0530,-0.0137,rough,15.5,2,5.830
4700,150.40,0.3499,5.2906,0.2805,0.2650,-0.0536,-0.0156,rough,15.5,2,5.830
4710,150.72,0.3497,5.2908,0.2803,0.2646,-0.0534,-0.0108,rough,15.5,2,5.830
4720,151.04,0.3501,5.2908,0.2805,0.2649,-0.0542,-0.0122,rough,15.5,2,5.830
4730,151.36,0.3494,5.2909,0.2804,0.2648,-0.0536,-0.0120,rough,15.5,2,5.830
4740,151.68,0.3495,5.2908,0.2797,0.2642,-0.0503,-0.0073,rough,15.5,2,5.830
4750,152.00,0.3498,5.2904,0.2804,0.2646,-0.0539,-0.0136,rough,15.5,2,5.830
4760,152.32,0.3501,5.2905,0.2803,0.2648,-0.0523,-0.0151,rough,15.5,2,5.830
4770,152.64,0.3495,5.2902,0.2806,0.2636,-0.0578,-0.0054,rough,15.5,2,5.830
4780,152.96,0.3495,5.2908,0.2804,0.2648,-0.0536,-0.0115,rough,15.5,2,5.830
4790,153.28,0.3500,5.2908,0.2802,0.2648,-0.0525,-0.0118,rough,15.5,2,5.830
4800,153.60,0.3495,5.2905,0.2807,0.2638,-0.0581,-0.0056,rough,15.5,2,5.830
4810,153.92,0.3497,5.2894,0.2800,0.2627,-0.0558,-0.0031,rough,15.5,2,5.830
4820,154.24,0.3497,5.2904,0.2803,0.2645,-0.0538,-0.0128,rough,15.5,2,5.830
4830,154.56,0.3497,5.2907,0.2805,0.2649,-0.0538,-0.0136,rough,15.5,2,5.830
4840,154.88,0.3501,5.2908,0.2806,0.2652,-0.0536,-0.0160,rough,15.5,2,5.830
4850,155.20,0.3500,5.2911,0.2806,0.2652,-0.0537,-0.0135,rough,15.5,2,5.830
4860,155.52,0.3498,5.2907,0.2804,0.2645,-0.0542,-0.0102,rough,15.5,2,5.830
4870,155.84,0.3499,5.2911,0.2806,0.2650,-0.0547,-0.0109,rough,15.5,2,5.830
4880,156.16,0.3498,5.2892,0.2801,0.2640,-0.0536,-0.0154,rough,15.5,2,5.830
4890,156.48,0.3494,5.2881,0.2800,0.2626,-0.0566,-0.0092,rough,15.5,2,5.830
4900,156.80,0.3494,5.2884,0.2795,0.2622,-0.0541,-0.0045,rough,15.5,2,5.830
4910,157.12,0.3500,5.2898,0.2802,0.2641,-0.0537,-0.0133,rough,15.5,2,5.830
4920,157.44,0.3496,5.2901,0.2801,0.2640,-0.0529,-0.0103,rough,15.5,2,5.830
4930,157.76,0.3499,5.2905,0.2803,0.2647,-0.0531,-0.0137,rough,15.5,2,5.830
4940,158.08,0.3500,5.2905,0.2803,0.2645,-0.0536,-0.0110,rough,15.5,2,5.830
4950,158.40,0.3502,5.2903,0.2803,0.2643,-0.0543,-0.0106,rough,15.5,2,5.830
4960,158.72,0.3500,5.2902,0.2803,0.2644,-0.0532,-0.0136,rough,15.5,2,5.830
4970,159.04,0.3497,5.2901,0.2803,0.2640,-0.0546,-0.0103,rough,15.5,2,5.830
4980,159.36,0.3500,5.2910,0.2806,0.2650,-0.0545,-0.0114,rough,15.5,2,5.830
4990,159.68,0.3501,5.2909,0.2805,0.2650,-0.0533,-0.0136,rough,15.5,2,5.830
5000,160.00,0.3500,5.2903,0.2804,0.2647,-0.0538,-0.0142,rough,15.5,2,5.830
5010,160.32,0.3495,5.2904,0.2797,0.2643,-0.0504,-0.0097,rough,15.5,2,5.830
5020,160.64,0.3498,5.2903,0.2802,0.2644,-0.0530,-0.0138,rough,15.5,2,5.830
5030,160.96,0.3499,5.2906,0.2802,0.2644,-0.0534,-0.0092,rough,15.5,2,5.830
5040,161.28,0.3496,5.2908,0.2802,0.2647,-0.0524,-0.0113,rough,15.5,2,5.830
5050,161.60,0.3498,5.2911,0.2805,0.2648,-0.0545,-0.0100,rough,15.5,2,5.830
5060,161.92,0.3497,5.2907,0.2805,0.2649,-0.0537,-0.0137,rough,15.5,2,5.830
5070,162.24,0.3497,5.2908,0.2804,0.2649,-0.0531,-0.0134,rough,15.5,2,5.830
5080,162.56,0.3496,5.2910,0.2805,0.2650,-0.0538,-0.0133,rough,15.5,2,5.830
5090,162.88,0.3496,5.2906,0.2803,0.2646,-0.0532,-0.0129,rough,15.5,2,5.830
5100,163.20,0.3495,5.2905,0.2799,0.2642,-0.0518,-0.0088,rough,15.5,2,5.830
5110,163.52,0.3495,5.2908,0.2800,0.2644,-0.0515,-0.0086,rough,15.5,2,5.830
5120,163.84,0.3495,5.2908,0.2797,0.2645,-0.0496,-0.0097,rough,15.5,2,5.830
5130,164.16,0.3500,5.2905,0.2805,0.2648,-0.0539,-0.0147,rough,15.5,2,5.830
5140,164.48,0.3501,5.2907,0.2804,0.2650,-0.0530,-0.0150,rough,15.5,2,5.830
5150,164.80,0.3497,5.2905,0.2804,0.2645,-0.0541,-0.0110,rough,15.5,2,5.830
5160,165.12,0.3498,5.2909,0.2805,0.2648,-0.0546,-0.0106,rough,15.5,2,5.830
5170,165.44,0.3501,5.2904,0.2804,0.2648,-0.0539,-0.0147,rough,15.5,2,5.830
5180,165.76,0.3499,5.2906,0.2804,0.2649,-0.0527,-0.0158,rough,15.5,2,5.830
5190,166.08,0.3498,5.2903,0.2803,0.2644,-0.0539,-0.0127,rough,15.5,2,5.830
5200,166.40,0.3501,5.2906,0.2805,0.2650,-0.0537,-0.0147,rough,15.5,2,5.830
5210,166.72,0.3501,5.2908,0.2805,0.2648,-0.0543,-0.0113,rough,15.5,2,5.830
5220,167.04,0.3501,5.2903,0.2802,0.2643,-0.0537,-0.0105,rough,15.5,2,5.830
5230,167.36,0.3501,5.2905,0.2803,0.2646,-0.0532,-0.0130,rough,15.5,2,5.830
5240,167.68,0.3496,5.2910,0.2806,0.2649,-0.0551,-0.0105,rough,15.5,2,5.830
5250,168.00,0.3499,5.2906,0.2803,0.2643,-0.0546,-0.0074,rough,15.5,2,5.830
5260,168.32,0.3496,5.2910,0.2806,0.2651,-0.0541,-0.0136,rough,15.5,2,5.830
5270,168.64,0.3497,5.2908,0.2803,0.2650,-0.0523,-0.0142,rough,15.5,2,5.830
5280,168.96,0.3496,5.2906,0.2809,0.2640,-0.0587,-0.0063,rough,15.5,2,5.830
5290,169.28,0.3498,5.2907,0.2805,0.2649,-0.0534,-0.0144,rough,15.5,2,5.830
5300,169.60,0.3499,5.2910,0.2806,0.2654,-0.0537,-0.0160,rough,15.5,2,5.830
5310,169.92,0.3498,5.2907,0.2803,0.2649,-0.0526,-0.0150,rough,15.5,2,5.830
5320,170.24,0.3496,5.2906,0.2799,0.2646,-0.0506,-0.0125,rough,15.5,2,5.830
5330,170.56,0.3496,5.2902,0.2796,0.2641,-0.0500,-0.0095,rough,15.5,2,5.830
5340,170.88,0.3498,5.2906,0.2804,0.2646,-0.0540,-0.0133,rough,15.5,2,5.830
5350,171.20,0.3497,5.2904,0.2804,0.2642,-0.0551,-0.0102,rough,15.5,2,5.830
5360,171.52,0.3495,5.2908,0.2800,0.2644,-0.0521,-0.0091,rough,15.5,2,5.830
5370,171.84,0.3497,5.2907,0.2807,0.2645,-0.0565,-0.0100,rough,15.5,2,5.830
5380,172.16,0.3495,5.2909,0.2798,0.2645,-0.0504,-0.0096,rough,15.5,2,5.830
5390,172.48,0.3499,5.2905,0.2805,0.2648,-0.0539,-0.0146,rough,15.5,2,5.830
5400,172.80,0.3500,5.2910,0.2806,0.2653,-0.0536,-0.0160,rough,15.5,2,5.830
5410,173.12,0.3501,5.2899,0.2803,0.2644,-0.0539,-0.0140,rough,15.5,2,5.830
5420,173.44,0.3497,5.2904,0.2801,0.2646,-0.0521,-0.0137,rough,15.5,2,5.830
5430,173.76,0.3501,5.2908,0.2806,0.2652,-0.0537,-0.0154,rough,15.5,2,5.830
5440,174.08,0.3497,5.2905,0.2803,0.2646,-0.0536,-0.0118,rough,15.5,2,5.830
5450,174.40,0.3499,5.2907,0.2805,0.2645,-0.0554,-0.0086,rough,15.5,2,5.830
5460,174.72,0.3497,5.2906,0.2805,0.2644,-0.0554,-0.0102,rough,15.5,2,5.830
5470,175.04,0.3498,5.2903,0.2804,0.2646,-0.0538,-0.0142,rough,15.5,2,5.830
5480,175.36,0.3495,5.2905,0.2798,0.2643,-0.0508,-0.0091,rough,15.5,2,5.830
5490,175.68,0.3498,5.2905,0.2802,0.2647,-0.0524,-0.0134,rough,15.5,2,5.830
5500,176.00,0.3497,5.2908,0.2804,0.2647,-0.0537,-0.0123,rough,15.5,2,5.830
5510,176.32,0.3497,5.2901,0.2802,0.2640,-0.0542,-0.0106,rough,15.5,2,5.830
5520,176.64,0.3496,5.2905,0.2801,0.2643,-0.0530,-0.0091,rough,15.5,2,5.830
5530,176.96,0.3496,5.2903,0.2804,0.2640,-0.0558,-0.0083,rough,15.5,2,5.830
5540,177.28,0.3497,5.2905,0.2802,0.2644,-0.0529,-0.0109,rough,15.5,2,5.830
5550,177.60,0.3496,5.2902,0.2803,0.2638,-0.0554,-0.0078,rough,15.5,2,5.830
5560,177.92,0.3496,5.2904,0.2797,0.2643,-0.0500,-0.0107,rough,15.5,2,5.830
5570,178.24,0.3497,5.2907,0.2803,0.2646,-0.0531,-0.0118,rough,15.5,2,5.830
5580,178.56,0.3496,5.2909,0.2801,0.2646,-0.0519,-0.0106,rough,15.5,2,5.830
5590,178.88,0.3498,5.2905,0.2803,0.2647,-0.0528,-0.0150,rough,15.5,2,5.830
5600,179.20,0.3496,5.2900,0.2804,0.2636,-0.0567,-0.0073,rough,15.5,2,5.830
5610,179.52,0.3497,5.2903,0.2802,0.2642,-0.0535,-0.0109,rough,15.5,2,5.830
5620,179.84,0.3498,5.2904,0.2803,0.2647,-0.0527,-0.0147,rough,15.5,2,5.830
5630,180.16,0.3499,5.2907,0.2804,0.2645,-0.0543,-0.0093,rough,15.5,2,5.830
5640,180.48,0.3494,5.2910,0.2800,0.2645,-0.0519,-0.0080,rough,15.5,2,5.831
5650,180.80,0.3499,5.2907,0.2803,0.2646,-0.0533,-0.0112,rough,15.5,2,5.830
5660,181.12,0.3498,5.2905,0.2805,0.2647,-0.0541,-0.0135,rough,15.5,2,5.830
5670,181.44,0.3497,5.2908,0.2805,0.2648,-0.0541,-0.0125,rough,15.5,2,5.830
5680,181.76,0.3495,5.2906,0.2809,0.2640,-0.0588,-0.0061,rough,15.5,2,5.830
5690,182.08,0.3499,5.2908,0.2805,0.2649,-0.0538,-0.0138,rough,15.5,2,5.830
5700,182.40,0.3496,5.2910,0.2806,0.2650,-0.0543,-0.0128,rough,15.5,2,5.830
5710,182.72,0.3497,5.2910,0.2804,0.2649,-0.0529,-0.0132,rough,15.5,2,5.830
5720,183.04,0.3497,5.2907,0.2802,0.2649,-0.0518,-0.0140,rough,15.5,2,5.830
5730,183.36,0.3500,5.2910,0.2806,0.2654,-0.0537,-0.0162,rough,15.5,2,5.830
5740,183.68,0.3503,5.2897,0.2802,0.2637,-0.0546,-0.0094,rough,15.5,2,5.829
5750,184.00,0.3501,5.2901,0.2802,0.2643,-0.0535,-0.0127,rough,15.5,2,5.830
5760,184.32,0.3494,5.2904,0.2799,0.2639,-0.0525,-0.0062,rough,15.5,2,5.830
5770,184.64,0.3500,5.2901,0.2803,0.2642,-0.0542,-0.0124,rough,15.5,2,5.830
5780,184.96,0.3498,5.2905,0.2803,0.2647,-0.0530,-0.0141,rough,15.5,2,5.830
5790,185.28,0.3495,5.2904,0.2797,0.2641,-0.0501,-0.0090,rough,15.5,2,5.830
5800,185.60,0.3501,5.2907,0.2805,0.2651,-0.0529,-0.0170,rough,15.5,2,5.830
5810,185.92,0.3497,5.2907,0.2805,0.2646,-0.0547,-0.0114,rough,15.5,2,5.830
5820,186.24,0.3500,5.2909,0.2805,0.2650,-0.0542,-0.0122,rough,15.5,2,5.830
5830,186.56,0.3502,5.2900,0.2803,0.2643,-0.0541,-0.0126,rough,15.5,2,5.829
5840,186.88,0.3498,5.2903,0.2802,0.2646,-0.0526,-0.0142,rough,15.5,2,5.830
5850,187.20,0.3496,5.2904,0.2804,0.2643,-0.0545,-0.0106,rough,15.5,2,5.830
5860,187.52,0.3495,5.2906,0.2799,0.2645,-0.0508,-0.0107,rough,15.5,2,5.830
5870,187.84,0.3499,5.2905,0.2803,0.2648,-0.0523,-0.0157,rough,15.5,2,5.830
5880,188.16,0.3497,5.2905,0.2808,0.2641,-0.0577,-0.0084,rough,15.5,2,5.830
5890,188.48,0.3497,5.2909,0.2805,0.2648,-0.0547,-0.0106,rough,15.5,2,5.830
5900,188.80,0.3498,5.2910,0.2804,0.2650,-0.0537,-0.0108,rough,15.5,2,5.830
5910,189.12,0.3497,5.2910,0.2803,0.2653,-0.0517,-0.0154,rough,15.5,2,5.830
5920,189.44,0.3496,5.2907,0.2803,0.2645,-0.0537,-0.0109,rough,15.5,2,5.830
5930,189.76,0.3498,5.2905,0.2804,0.2647,-0.0537,-0.0145,rough,15.5,2,5.830
5940,190.08,0.3501,5.2907,0.2805,0.2651,-0.0537,-0.0158,rough,15.5,2,5.830
5950,190.40,0.3497,5.2907,0.2803,0.2649,-0.0522,-0.0145,rough,15.5,2,5.830
5960,190.72,0.3498,5.2904,0.2802,0.2644,-0.0530,-0.0122,rough,15.5,2,5.830
5970,191.04,0.3495,5.2904,0.2804,0.2641,-0.0555,-0.0082,rough,15.5,2,5.830
5980,191.36,0.3495,5.2906,0.2800,0.2644,-0.0516,-0.0093,rough,15.5,2,5.830
5990,191.68,0.3498,5.2909,0.2803,0.2647,-0.0537,-0.0096,rough,15.5,2,5.830
6000,192.00,0.3495,5.2909,0.2797,0.2646,-0.0493,-0.0102,rough,15.5,2,5.830
6010,192.32,0.3498,5.2906,0.2804,0.2645,-0.0541,-0.0122,rough,15.5,2,5.830
6020,192.64,0.3498,5.2902,0.2804,0.2643,-0.0547,-0.0120,rough,15.5,2,5.830
6030,192.96,0.3499,5.2904,0.2802,0.2646,-0.0526,-0.0138,rough,15.5,2,5.830
6040,193.28,0.3496,5.2905,0.2801,0.2642,-0.0533,-0.0085,rough,15.5,2,5.830
6050,193.60,0.3496,5.2905,0.2803,0.2645,-0.0535,-0.0117,rough,15.5,2,5.830
6060,193.92,0.3499,5.2907,0.2805,0.2645,-0.0552,-0.0091,rough,15.5,2,5.830
6070,194.24,0.3500,5.2907,0.2802,0.2646,-0.0528,-0.0099,rough,15.5,2,5.830
6080,194.56,0.3500,5.2903,0.2804,0.2647,-0.0541,-0.0140,rough,15.5,2,5.830
6090,194.88,0.3498,5.2903,0.2803,0.2644,-0.0541,-0.0123,rough,15.5,2,5.830
6100,195.20,0.3498,5.2903,0.2803,0.2642,-0.0540,-0.0105,rough,15.5,2,5.830
6110,195.52,0.3497,5.2906,0.2801,0.2646,-0.0521,-0.0122,rough,15.5,2,5.830
6120,195.84,0.3496,5.2905,0.2801,0.2644,-0.0525,-0.0115,rough,15.5,2,5.830
6130,196.16,0.3497,5.2907,0.2804,0.2649,-0.0536,-0.0136,rough,15.5,2,5.830
6140,196.48,0.3495,5.2904,0.2808,0.2638,-0.0590,-0.0054,rough,15.5,2,5.830
6150,196.80,0.3499,5.2907,0.2805,0.2648,-0.0539,-0.0133,rough,15.5,2,5.830
6160,197.12,0.3501,5.2908,0.2806,0.2653,-0.0538,-0.0160,rough,15.5,2,5.830
6170,197.44,0.3494,5.2908,0.2806,0.2643,-0.0563,-0.0078,rough,15.5,2,5.831
6180,197.76,0.3496,5.2907,0.2803,0.2644,-0.0538,-0.0101,rough,15.5,2,5.830
6190,198.08,0.3495,5.2903,0.2805,0.2637,-0.0569,-0.0060,rough,15.5,2,5.830
6200,198.40,0.3495,5.2906,0.2804,0.2643,-0.0552,-0.0090,rough,15.5,2,5.830
6210,198.72,0.3499,5.2905,0.2804,0.2646,-0.0538,-0.0133,rough,15.5,2,5.830
6220,199.04,0.3497,5.2908,0.2805,0.2648,-0.0540,-0.0128,rough,15.5,2,5.830
6230,199.36,0.3495,5.2908,0.2800,0.2642,-0.0523,-0.0069,rough,15.5,2,5.830
6240,199.68,0.3499,5.2894,0.2801,0.2635,-0.0545,-0.0103,rough,15.5,2,5.830
6250,200.00,0.3496,5.2903,0.2803,0.2645,-0.0539,-0.0123,rough,15.5,2,5.830
6260,200.32,0.3500,5.2911,0.2806,0.2652,-0.0540,-0.0134,rough,15.5,2,5.830
6270,200.64,0.3501,5.2908,0.2805,0.2651,-0.0530,-0.0157,rough,15.5,2,5.830
6280,200.96,0.3495,5.2913,0.2806,0.2652,-0.0547,-0.0109,rough,15.5,2,5.831
6290,201.28,0.3497,5.2911,0.2803,0.2654,-0.0514,-0.0161,rough,15.5,2,5.830
6300,201.60,0.3498,5.2904,0.2803,0.2647,-0.0531,-0.0143,rough,15.5,2,5.830
6310,201.92,0.3496,5.2904,0.2805,0.2640,-0.0565,-0.0080,rough,15.5,2,5.830
6320,202.24,0.3497,5.2904,0.2802,0.2644,-0.0532,-0.0121,rough,15.5,2,5.830
6330,202.56,0.3499,5.2903,0.2803,0.2645,-0.0535,-0.0142,rough,15.5,2,5.830
6340,202.88,0.3496,5.2908,0.2806,0.2648,-0.0553,-0.0099,rough,15.5,2,5.830
6350,203.20,0.3501,5.2904,0.2803,0.2642,-0.0542,-0.0093,rough,15.5,2,5.830
6360,203.52,0.3502,5.2903,0.2803,0.2639,-0.0550,-0.0074,rough,15.5,2,5.830
6370,203.84,0.3499,5.2902,0.2802,0.2642,-0.0536,-0.0107,rough,15.5,2,5.830
6380,204.16,0.3498,5.2905,0.2801,0.2645,-0.0522,-0.0124,rough,15.5,2,5.830
6390,204.48,0.3498,5.2903,0.2801,0.2640,-0.0533,-0.0080,rough,15.5,2,5.830
6400,204.80,0.3498,5.2904,0.2803,0.2644,-0.0533,-0.0125,rough,15.5,2,5.830
6410,205.12,0.3495,5.2906,0.2797,0.2641,-0.0504,-0.0076,rough,15.5,2,5.830
6420,205.44,0.3501,5.2908,0.2806,0.2652,-0.0538,-0.0153,rough,15.5,2,5.830
6430,205.76,0.3498,5.2909,0.2806,0.2649,-0.0544,-0.0123,rough,15.5,2,5.830
6440,206.08,0.3500,5.2909,0.2804,0.2651,-0.0528,-0.0144,rough,15.5,2,5.830
6450,206.40,0.3495,5.2910,0.2801,0.2646,-0.0525,-0.0086,rough,15.5,2,5.831
6460,206.72,0.3497,5.2903,0.2805,0.2640,-0.0564,-0.0079,rough,15.5,2,5.830
6470,207.04,0.3501,5.2907,0.2805,0.2651,-0.0537,-0.0150,rough,15.5,2,5.830
6480,207.36,0.3497,5.2907,0.2805,0.2645,-0.0553,-0.0101,rough,15.5,2,5.830
6490,207.68,0.3500,5.2907,0.2803,0.2647,-0.0530,-0.0119,rough,15.5,2,5.830
6500,208.00,0.3500,5.2908,0.2803,0.2648,-0.0527,-0.0121,rough,15.5,2,5.830
6510,208.32,0.3496,5.2914,0.2799,0.2651,-0.0495,-0.0099,rough,15.5,2,5.831
6520,208.64,0.3500,5.2907,0.2805,0.2650,-0.0536,-0.0148,rough,15.5,2,5.830
6530,208.96,0.3498,5.2908,0.2804,0.2645,-0.0548,-0.0089,rough,15.5,2,5.830
6540,209.28,0.3501,5.2905,0.2804,0.2645,-0.0542,-0.0124,rough,15.5,2,5.830
6550,209.60,0.3497,5.2905,0.2805,0.2647,-0.0542,-0.0132,rough,15.5,2,5.830
6560,209.92,0.3495,5.2909,0.2799,0.2645,-0.0506,-0.0093,rough,15.5,2,5.830
6570,210.24,0.3498,5.2906,0.2803,0.2646,-0.0529,-0.0135,rough,15.5,2,5.830
6580,210.56,0.3498,5.2900,0.2802,0.2641,-0.0538,-0.0123,rough,15.5,2,5.830
6590,210.88,0.3499,5.2906,0.2805,0.2649,-0.0542,-0.0130,rough,15.5,2,5.830
6600,211.20,0.3497,5.2907,0.2804,0.2645,-0.0543,-0.0104,rough,15.5,2,5.830
6610,211.52,0.3501,5.2907,0.2804,0.2649,-0.0536,-0.0132,rough,15.5,2,5.830
6620,211.84,0.3498,5.2902,0.2805,0.2642,-0.0555,-0.0107,rough,15.5,2,5.830
6630,212.16,0.3498,5.2903,0.2803,0.2646,-0.0531,-0.0143,rough,15.5,2,5.830
6640,212.48,0.3498,5.2906,0.2804,0.2647,-0.0537,-0.0121,rough,15.5,2,5.830
6650,212.80,0.3498,5.2905,0.2803,0.2647,-0.0531,-0.0139,rough,15.5,2,5.830
6660,213.12,0.3498,5.2908,0.2804,0.2649,-0.0528,-0.0144,rough,15.5,2,5.830
6670,213.44,0.3497,5.2908,0.2804,0.2649,-0.0529,-0.0139,rough,15.5,2,5.830
6680,213.76,0.3498,5.2908,0.2804,0.2650,-0.0523,-0.0155,rough,15.5,2,5.830
6690,214.08,0.3496,5.2904,0.2796,0.2643,-0.0496,-0.0103,rough,15.5,2,5.830
6700,214.40,0.3498,5.2902,0.2803,0.2642,-0.0539,-0.0117,rough,15.5,2,5.830
6710,214.72,0.3497,5.2901,0.2802,0.2641,-0.0538,-0.0116,rough,15.5,2,5.830
6720,215.04,0.3498,5.2904,0.2803,0.2647,-0.0532,-0.0146,rough,15.5,2,5.830
6730,215.36,0.3499,5.2906,0.2803,0.2645,-0.0537,-0.0099,rough,15.5,2,5.830
6740,215.68,0.3503,5.2906,0.2805,0.2647,-0.0539,-0.0130,rough,15.5,2,5.830
6750,216.00,0.3500,5.2904,0.2801,0.2644,-0.0528,-0.0095,rough,15.5,2,5.830
6760,216.32,0.3502,5.2904,0.2803,0.2645,-0.0537,-0.0127,rough,15.5,2,5.830
6770,216.64,0.3499,5.2901,0.2800,0.2643,-0.0523,-0.0120,rough,15.5,2,5.830
6780,216.96,0.3499,5.2906,0.2805,0.2648,-0.0540,-0.0135,rough,15.5,2,5.830
6790,217.28,0.3498,5.2906,0.2802,0.2648,-0.0520,-0.0149,rough,15.5,2,5.830
6800,217.60,0.3495,5.2907,0.2799,0.2643,-0.0513,-0.0085,rough,15.5,2,5.830
6810,217.92,0.3498,5.2906,0.2803,0.2646,-0.0535,-0.0122,rough,15.5,2,5.830
6820,218.24,0.3500,5.2909,0.2805,0.2648,-0.0540,-0.0116,rough,15.5,2,5.830
6830,218.56,0.3501,5.2905,0.2805,0.2649,-0.0536,-0.0155,rough,15.5,2,5.830
6840,218.88,0.3500,5.2906,0.2804,0.2650,-0.0531,-0.0156,rough,15.5,2,5.830
6850,219.20,0.3495,5.2908,0.2801,0.2644,-0.0525,-0.0086,rough,15.5,2,5.830
6860,219.52,0.3497,5.2908,0.2805,0.2652,-0.0533,-0.0158,rough,15.5,2,5.830
6870,219.84,0.3501,5.2906,0.2805,0.2651,-0.0537,-0.0156,rough,15.5,2,5.830
6880,220.16,0.3493,5.2909,0.2807,0.2643,-0.0574,-0.0066,rough,15.5,2,5.831
6890,220.48,0.3497,5.2911,0.2806,0.2652,-0.0540,-0.0142,rough,15.5,2,5.830
6900,220.80,0.3498,5.2912,0.2805,0.2649,-0.0545,-0.0100,rough,15.5,2,5.830
6910,221.12,0.3494,5.2912,0.2801,0.2647,-0.0522,-0.0081,rough,15.5,2,5.831
6920,221.44,0.3492,5.2913,0.2804,0.2647,-0.0536,-0.0077,rough,15.5,2,5.831
6930,221.76,0.3500,5.2913,0.2806,0.2653,-0.0537,-0.0129,rough,15.5,2,5.830
6940,222.08,0.3499,5.2911,0.2805,0.2651,-0.0535,-0.0125,rough,15.5,2,5.830
6950,222.40,0.3496,5.2909,0.2803,0.2650,-0.0521,-0.0134,rough,15.5,2,5.830
6960,222.72,0.3496,5.2906,0.2798,0.2645,-0.0505,-0.0108,rough,15.5,2,5.830
6970,223.04,0.3501,5.2909,0.2805,0.2650,-0.0538,-0.0133,rough,15.5,2,5.830
6980,223.36,0.3499,5.2904,0.2803,0.2645,-0.0534,-0.0128,rough,15.5,2,5.830
6990,223.68,0.3501,5.2906,0.2803,0.2647,-0.0526,-0.0134,rough,15.5,2,5.830
7000,224.00,0.3500,5.2905,0.2805,0.2650,-0.0535,-0.0159,rough,15.5,2,5.830
7010,224.32,0.3495,5.2905,0.2798,0.2644,-0.0507,-0.0105,rough,15.5,2,5.830
7020,224.64,0.3501,5.2907,0.2804,0.2648,-0.0530,-0.0143,rough,15.5,2,5.830
7030,224.96,0.3496,5.2904,0.2804,0.2642,-0.0545,-0.0100,rough,15.5,2,5.830
7040,225.28,0.3494,5.2906,0.2808,0.2639,-0.0584,-0.0057,rough,15.5,2,5.830
7050,225.60,0.3499,5.2902,0.2803,0.2642,-0.0544,-0.0116,rough,15.5,2,5.830
7060,225.92,0.3496,5.2906,0.2800,0.2646,-0.0512,-0.0119,rough,15.5,2,5.830
7070,226.24,0.3497,5.2906,0.2799,0.2647,-0.0503,-0.0134,rough,15.5,2,5.830
7080,226.56,0.3496,5.2899,0.2799,0.2636,-0.0533,-0.0071,rough,15.5,2,5.830
7090,226.88,0.3499,5.2905,0.2804,0.2648,-0.0531,-0.0155,rough,15.5,2,5.830
7100,227.20,0.3498,5.2903,0.2802,0.2647,-0.0523,-0.0146,rough,15.5,2,5.830
7110,227.52,0.3497,5.2904,0.2805,0.2642,-0.0557,-0.0100,rough,15.5,2,5.830
7120,227.84,0.3499,5.2905,0.2802,0.2647,-0.0523,-0.0139,rough,15.5,2,5.830
7130,228.16,0.3501,5.2906,0.2803,0.2646,-0.0537,-0.0112,rough,15.5,2,5.830
7140,228.48,0.3502,5.2904,0.2804,0.2648,-0.0537,-0.0147,rough,15.5,2,5.830
7150,228.80,0.3501,5.2906,0.2804,0.2646,-0.0543,-0.0111,rough,15.5,2,5.830
7160,229.12,0.3499,5.2898,0.2802,0.2636,-0.0553,-0.0065,rough,15.5,2,5.830
7170,229.44,0.3497,5.2903,0.2803,0.2645,-0.0534,-0.0128,rough,15.5,2,5.830
7180,229.76,0.3498,5.2905,0.2802,0.2647,-0.0521,-0.0149,rough,15.5,2,5.830
7190,230.08,0.3498,5.2903,0.2803,0.2643,-0.0541,-0.0121,rough,15.5,2,5.830
7200,230.40,0.3497,5.2904,0.2801,0.2645,-0.0522,-0.0130,rough,15.5,2,5.830
7210,230.72,0.3498,5.2909,0.2805,0.2649,-0.0538,-0.0129,rough,15.5,2,5.830
7220,231.04,0.3497,5.2907,0.2803,0.2649,-0.0523,-0.0147,rough,15.5,2,5.830
7230,231.36,0.3498,5.2905,0.2803,0.2646,-0.0532,-0.0127,rough,15.5,2,5.830
7240,231.68,0.3496,5.2905,0.2807,0.2639,-0.0575,-0.0071,rough,15.5,2,5.830
7250,232.00,0.3500,5.2901,0.2803,0.2642,-0.0542,-0.0122,rough,15.5,2,5.830
7260,232.32,0.3497,5.2904,0.2802,0.2646,-0.0526,-0.0136,rough,15.5,2,5.830
7270,232.64,0.3500,5.2908,0.2805,0.2650,-0.0539,-0.0130,rough,15.5,2,5.830
7280,232.96,0.3500,5.2904,0.2803,0.2645,-0.0532,-0.0129,rough,15.5,2,5.830
7290,233.28,0.3497,5.2903,0.2804,0.2641,-0.0551,-0.0099,rough,15.5,2,5.830
7300,233.60,0.3497,5.2907,0.2808,0.2643,-0.0570,-0.0092,rough,15.5,2,5.830
7310,233.92,0.3496,5.2907,0.2803,0.2648,-0.0527,-0.0126,rough,15.5,2,5.830
7320,234.24,0.3497,5.2906,0.2804,0.2649,-0.0530,-0.0144,rough,15.5,2,5.830
7330,234.56,0.3497,5.2910,0.2802,0.2652,-0.0516,-0.0134,rough,15.5,2,5.830
7340,234.88,0.3497,5.2909,0.2803,0.2648,-0.0529,-0.0122,rough,15.5,2,5.830
7350,235.20,0.3499,5.2906,0.2804,0.2649,-0.0526,-0.0158,rough,15.5,2,5.830
7360,235.52,0.3501,5.2908,0.2805,0.2648,-0.0540,-0.0122,rough,15.5,2,5.830
7370,235.84,0.3497,5.2912,0.2806,0.2649,-0.0550,-0.0097,rough,15.5,2,5.830
7380,236.16,0.3497,5.2906,0.2803,0.2647,-0.0526,-0.0134,rough,15.5,2,5.830
7390,236.48,0.3497,5.2910,0.2802,0.2651,-0.0514,-0.0132,rough,15.5,2,5.830
7400,236.80,0.3496,5.2908,0.2799,0.2647,-0.0504,-0.0119,rough,15.5,2,5.830
7410,237.12,0.3498,5.2908,0.2805,0.2651,-0.0530,-0.0156,rough,15.5,2,5.830
7420,237.44,0.3498,5.2907,0.2804,0.2645,-0.0544,-0.0112,rough,15.5,2,5.830
7430,237.76,0.3498,5.2905,0.2804,0.2647,-0.0538,-0.0140,rough,15.5,2,5.830
7440,238.08,0.3497,5.2904,0.2805,0.2643,-0.0555,-0.0102,rough,15.5,2,5.830
7450,238.40,0.3497,5.2907,0.2807,0.2645,-0.0567,-0.0100,rough,15.5,2,5.830
7460,238.72,0.3498,5.2906,0.2803,0.2646,-0.0533,-0.0127,rough,15.5,2,5.830
7470,239.04,0.3499,5.2906,0.2804,0.2650,-0.0530,-0.0162,rough,15.5,2,5.830
7480,239.36,0.3501,5.2908,0.2805,0.2650,-0.0544,-0.0124,rough,15.5,2,5.830
7490,239.68,0.3499,5.2909,0.2805,0.2650,-0.0536,-0.0122,rough,15.5,2,5.830
7500,240.00,0.3496,5.2909,0.2804,0.2649,-0.0529,-0.0126,rough,15.5,2,5.830
7510,240.32,0.3495,5.2911,0.2803,0.2647,-0.0532,-0.0093,rough,15.5,2,5.830
7520,240.64,0.3500,5.2911,0.2807,0.2655,-0.0537,-0.0160,rough,15.5,2,5.830
7530,240.96,0.3501,5.2909,0.2806,0.2651,-0.0543,-0.0132,rough,15.5,2,5.830
7540,241.28,0.3497,5.2910,0.2802,0.2648,-0.0520,-0.0114,rough,15.5,2,5.830
7550,241.60,0.3496,5.2906,0.2800,0.2641,-0.0523,-0.0074,rough,15.5,2,5.830
7560,241.92,0.3499,5.2904,0.2802,0.2643,-0.0534,-0.0103,rough,15.5,2,5.830
7570,242.24,0.3501,5.2905,0.2804,0.2647,-0.0539,-0.0124,rough,15.5,2,5.830
7580,242.56,0.3501,5.2905,0.2804,0.2648,-0.0530,-0.0148,rough,15.5,2,5.830
7590,242.88,0.3497,5.2902,0.2798,0.2642,-0.0512,-0.0107,rough,15.5,2,5.830
7600,243.20,0.3496,5.2905,0.2799,0.2646,-0.0505,-0.0120,rough,15.5,2,5.830
7610,243.52,0.3497,5.2908,0.2805,0.2647,-0.0543,-0.0122,rough,15.5,2,5.830
7620,243.84,0.3496,5.2908,0.2801,0.2648,-0.0514,-0.0117,rough,15.5,2,5.830
7630,244.16,0.3497,5.2907,0.2802,0.2649,-0.0517,-0.0143,rough,15.5,2,5.830
7640,244.48,0.3497,5.2904,0.2803,0.2644,-0.0541,-0.0118,rough,15.5,2,5.830
7650,244.80,0.3497,5.2907,0.2805,0.2646,-0.0547,-0.0106,rough,15.5,2,5.830
7660,245.12,0.3497,5.2907,0.2803,0.2646,-0.0536,-0.0115,rough,15.5,2,5.830
7670,245.44,0.3500,5.2910,0.2804,0.2650,-0.0531,-0.0131,rough,15.5,2,5.830
7680,245.76,0.3499,5.2906,0.2804,0.2650,-0.0529,-0.0160,rough,15.5,2,5.830
7690,246.08,0.3501,5.2907,0.2803,0.2647,-0.0529,-0.0129,rough,15.5,2,5.830
7700,246.40,0.3498,5.2904,0.2801,0.2644,-0.0526,-0.0116,rough,15.5,2,5.830
7710,246.72,0.3498,5.2905,0.2803,0.2647,-0.0531,-0.0143,rough,15.5,2,5.830
7720,247.04,0.3498,5.2906,0.2803,0.2648,-0.0528,-0.0144,rough,15.5,2,5.830
7730,247.36,0.3498,5.2910,0.2802,0.2651,-0.0516,-0.0140,rough,15.5,2,5.830
7740,247.68,0.3495,5.2909,0.2798,0.2644,-0.0505,-0.0078,rough,15.5,2,5.830
7750,248.00,0.3497,5.2901,0.2802,0.2639,-0.0545,-0.0092,rough,15.5,2,5.830
7760,248.32,0.3499,5.2903,0.2803,0.2644,-0.0536,-0.0127,rough,15.5,2,5.830
7770,248.64,0.3495,5.2905,0.2796,0.2642,-0.0499,-0.0082,rough,15.5,2,5.830
7780,248.96,0.3497,5.2902,0.2803,0.2639,-0.0546,-0.0093,rough,15.5,2,5.830
7790,249.28,0.3499,5.2904,0.2803,0.2645,-0.0538,-0.0126,rough,15.5,2,5.830
7800,249.60,0.3496,5.2904,0.2796,0.2642,-0.0497,-0.0094,rough,15.5,2,5.830
7810,249.92,0.3499,5.2904,0.2804,0.2643,-0.0544,-0.0112,rough,15.5,2,5.830
7820,250.24,0.3494,5.2907,0.2800,0.2642,-0.0522,-0.0071,rough,15.5,2,5.831
7830,250.56,0.3494,5.2908,0.2809,0.2642,-0.0585,-0.0066,rough,15.5,2,5.831
7840,250.88,0.3494,5.2912,0.2805,0.2652,-0.0537,-0.0124,rough,15.5,2,5.831
7850,251.20,0.3500,5.2910,0.2804,0.2652,-0.0522,-0.0149,rough,15.5,2,5.830
7860,251.52,0.3496,5.2904,0.2808,0.2639,-0.0584,-0.0065,rough,15.5,2,5.830
7870,251.84,0.3500,5.2909,0.2803,0.2648,-0.0528,-0.0115,rough,15.5,2,5.830
7880,252.16,0.3495,5.2909,0.2802,0.2646,-0.0529,-0.0095,rough,15.5,2,5.830
7890,252.48,0.3497,5.2907,0.2803,0.2646,-0.0532,-0.0119,rough,15.5,2,5.830
7900,252.80,0.3495,5.2909,0.2802,0.2646,-0.0529,-0.0099,rough,15.5,2,5.830
7910,253.12,0.3499,5.2909,0.2805,0.2649,-0.0540,-0.0113,rough,15.5,2,5.830
7920,253.44,0.3503,5.2911,0.2804,0.2648,-0.0542,-0.0093,rough,15.5,2,5.830
7930,253.76,0.3498,5.2886,0.2798,0.2624,-0.0553,-0.0054,rough,15.5,2,5.829
7940,254.08,0.3497,5.2895,0.2800,0.2635,-0.0539,-0.0084,rough,15.5,2,5.830
7950,254.40,0.3494,5.2901,0.2806,0.2634,-0.0585,-0.0039,rough,15.5,2,5.830
7960,254.72,0.3497,5.2907,0.2804,0.2648,-0.0536,-0.0130,rough,15.5,2,5.830
7970,255.04,0.3498,5.2908,0.2804,0.2650,-0.0526,-0.0157,rough,15.5,2,5.830
7980,255.36,0.3496,5.2893,0.2795,0.2633,-0.0517,-0.0069,rough,15.5,2,5.830
7990,255.68,0.3499,5.2903,0.2803,0.2641,-0.0547,-0.0096,rough,15.5,2,5.830
8000,256.00,0.3497,5.2907,0.2802,0.2646,-0.0530,-0.0108,rough,15.5,2,5.830
8010,256.32,0.3496,5.2904,0.2797,0.2642,-0.0503,-0.0091,rough,15.5,2,5.830
8020,256.64,0.3498,5.2907,0.2804,0.2646,-0.0536,-0.0118,rough,15.5,2,5.830
8030,256.96,0.3499,5.2906,0.2804,0.2648,-0.0535,-0.0148,rough,15.5,2,5.830
8040,257.28,0.3496,5.2906,0.2805,0.2641,-0.0558,-0.0082,rough,15.5,2,5.830
8050,257.60,0.3499,5.2907,0.2804,0.2650,-0.0525,-0.0163,rough,15.5,2,5.830
