step,time_s,x,y,z,roll,pitch,yaw,terrain,speed,target_idx,dist_to_target
10,0.32,-1.2913,0.8843,0.1838,-0.0012,-0.0308,0.0119,rough,15.5,0,6.145
20,0.64,-1.0396,0.8857,0.1798,-0.0007,-0.0000,0.3634,rough,15.5,0,6.358
30,0.96,-0.7846,1.0086,0.1798,-0.0001,-0.0001,0.7259,rough,15.5,0,6.517
40,1.28,-0.5854,1.2330,0.1798,-0.0000,-0.0000,1.0227,rough,15.5,0,6.587
50,1.60,-0.4346,1.5168,0.1798,-0.0000,-0.0002,1.3220,rough,15.5,0,6.603
60,1.92,-0.3562,1.8694,0.1798,-0.0001,0.0002,1.6013,rough,15.5,0,6.541
70,2.24,-0.3776,2.2593,0.1798,-0.0001,0.0004,1.8407,rough,15.5,0,6.393
80,2.56,-0.4918,2.6494,0.1845,0.0122,-0.0186,2.0221,rough,15.5,0,6.175
90,2.88,-0.6883,3.0246,0.1948,0.0189,-0.0465,2.1612,rough,15.5,0,5.900
100,3.20,-0.9643,3.3925,0.1906,-0.0053,0.0432,2.2903,rough,15.5,0,5.565
110,3.52,-1.2721,3.7171,0.1791,-0.0081,0.0052,2.4072,rough,15.5,0,5.221
120,3.84,-1.6277,4.0088,0.1817,-0.0010,-0.0136,2.5131,rough,15.5,0,4.847
130,4.16,-2.0086,4.2565,0.2011,-0.0402,-0.0823,2.6159,rough,15.5,0,4.463
140,4.48,-2.4300,4.4520,0.2407,-0.1180,-0.0636,2.7168,rough,15.5,0,4.050
150,4.80,-2.8741,4.6214,0.2606,-0.1048,-0.0180,2.8067,rough,15.5,0,3.623
160,5.12,-3.3379,4.7558,0.2551,-0.1203,0.0364,2.8782,rough,15.5,0,3.184
170,5.44,-3.7980,4.8522,0.2312,-0.1289,0.0320,2.9696,rough,15.5,0,2.754
180,5.76,-4.2686,4.9099,0.2112,-0.1464,0.0425,3.0637,rough,15.5,0,2.317
190,6.08,-4.7380,4.9330,0.1994,-0.0768,0.0277,-3.1123,rough,15.5,0,1.886
200,6.40,-5.2033,4.8960,0.1945,-0.0354,-0.0099,-3.0060,rough,15.5,0,1.451
210,6.72,-5.6503,4.8175,0.2107,-0.0153,-0.0655,-2.8796,rough,15.5,0,1.033
220,7.04,-6.0402,4.7095,0.2239,-0.0501,-0.0065,-2.6175,rough,15.5,1,6.850
230,7.36,-6.2968,4.5226,0.2208,-0.0232,0.0576,-2.2656,rough,15.5,1,7.119
240,7.68,-6.4581,4.2675,0.2058,0.0018,0.0578,-1.9474,rough,15.5,1,7.304
250,8.00,-6.5675,3.9835,0.1928,0.0296,0.0313,-1.5440,rough,15.5,1,7.449
260,8.32,-6.5374,3.6624,0.1807,0.0132,0.0014,-1.3512,rough,15.5,1,7.474
270,8.64,-6.4429,3.3283,0.1795,-0.0023,-0.0002,-1.1413,rough,15.5,1,7.452
280,8.96,-6.2640,3.0068,0.1798,0.0001,-0.0002,-0.9325,rough,15.5,1,7.363
290,9.28,-6.0074,2.7005,0.1811,-0.0031,-0.0048,-0.7642,rough,15.5,1,7.212
300,9.60,-5.6934,2.4309,0.1857,-0.0090,-0.0225,-0.5954,rough,15.5,1,7.014
310,9.92,-5.3098,2.2134,0.1840,-0.0143,0.0596,-0.4598,rough,15.5,1,6.750
320,10.24,-4.9146,2.0449,0.1816,-0.0047,0.0136,-0.3247,rough,15.5,1,6.472
330,10.56,-4.4759,1.9178,0.1798,-0.0003,0.0002,-0.2069,rough,15.5,1,6.152
340,10.88,-4.0247,1.8338,0.1799,0.0001,0.0004,-0.0519,rough,15.5,1,5.817
350,11.20,-3.5609,1.8204,0.1814,-0.0001,-0.0104,0.0978,rough,15.5,1,5.446
360,11.52,-3.1011,1.8815,0.1948,-0.0184,-0.0641,0.1598,rough,15.5,1,5.046
370,11.84,-2.6175,1.9822,0.1992,-0.0654,0.0216,0.2322,rough,15.5,1,4.614
380,12.16,-2.1665,2.1128,0.1963,-0.0719,0.0191,0.3275,rough,15.5,1,4.198
390,12.48,-1.7299,2.2726,0.1820,-0.0062,0.0066,0.4331,rough,15.5,1,3.781
400,12.80,-1.3169,2.4779,0.1817,-0.0022,-0.0119,0.5311,rough,15.5,1,3.357
410,13.12,-0.9263,2.7251,0.1881,0.0102,-0.0213,0.6452,rough,15.5,1,2.922
420,13.44,-0.5652,3.0002,0.1905,0.0316,0.0142,0.7648,rough,15.5,1,2.490
430,13.76,-0.2403,3.3295,0.1867,0.0255,0.0063,0.9059,rough,15.5,1,2.039
440,14.08,0.0180,3.6883,0.1788,-0.0048,-0.0006,1.1131,rough,15.5,1,1.599
450,14.40,0.1630,4.0869,0.1797,0.0003,0.0002,1.3993,rough,15.5,1,1.182
460,14.72,0.2138,4.4172,0.1799,-0.0005,-0.0000,1.9730,rough,15.5,1,0.887
470,15.04,0.0750,4.6703,0.1876,-0.0011,-0.0525,2.3877,rough,15.5,1,0.834
480,15.36,-0.1904,4.8469,0.1916,-0.0626,0.0062,2.8530,rough,15.5,1,1.018
490,15.68,-0.4851,4.9272,0.1941,-0.0779,0.0001,-2.9305,rough,15.5,1,1.294
500,16.00,-0.7652,4.8733,0.1961,-0.0389,0.0581,-2.5219,rough,15.5,1,1.579
510,16.32,-0.9772,4.7386,0.1886,-0.0021,0.0588,-2.2017,rough,15.5,1,1.810
520,16.64,-1.1167,4.5406,0.1804,-0.0028,-0.0000,-1.9332,rough,15.5,1,1.992
530,16.96,-1.2150,4.2507,0.1804,-0.0012,0.0042,-1.5029,rough,15.5,1,2.180
540,17.28,-1.1771,3.9461,0.1801,-0.0002,-0.0019,-1.1470,rough,15.5,1,2.280
550,17.60,-1.0226,3.6506,0.1832,-0.0013,-0.0216,-0.8716,rough,15.5,1,2.318
560,17.92,-0.7927,3.4321,0.1888,-0.0512,-0.0380,-0.5281,rough,15.5,1,2.294
570,18.24,-0.5017,3.2975,0.1918,-0.0035,0.0478,-0.2875,rough,15.5,1,2.209
580,18.56,-0.2021,3.2231,0.1833,0.0058,0.0167,0.0790,rough,15.5,1,2.112
590,18.88,0.0921,3.2636,0.1806,0.0043,0.0009,0.4415,rough,15.5,1,1.952
600,19.20,0.4158,3.4306,0.1799,0.0010,0.0003,0.7121,rough,15.5,1,1.696
610,19.52,0.6222,3.6613,0.1797,0.0001,-0.0000,1.0417,rough,15.5,1,1.433
620,19.84,0.7732,3.9542,0.1797,0.0000,-0.0000,1.4206,rough,15.5,1,1.129
630,20.16,0.8168,4.2843,0.1804,-0.0014,-0.0037,1.8187,rough,15.5,2,0.799
640,20.48,0.7730,4.5951,0.1806,-0.0048,-0.0013,1.4513,rough,15.5,2,9.246
650,20.80,0.8184,4.8297,0.2040,-0.0036,-0.1629,1.2238,rough,15.5,2,9.341
660,21.12,0.8942,4.8669,0.2293,-0.0073,-0.3620,1.4539,rough,15.5,2,9.301
670,21.44,0.8720,4.9171,0.2249,-0.0116,-0.3137,1.6968,rough,15.5,2,9.349
680,21.76,0.8148,4.9442,0.2161,-0.0337,-0.2158,1.7044,rough,15.5,2,9.411
690,22.08,0.7882,4.9390,0.2155,-0.0215,-0.2254,1.6311,rough,15.5,2,9.429
700,22.40,0.7763,4.9369,0.2154,-0.0136,-0.2293,1.5953,rough,15.5,2,9.438
710,22.72,0.7711,4.9364,0.2152,-0.0102,-0.2298,1.5812,rough,15.5,2,9.442
720,23.04,0.7690,4.9361,0.2152,-0.0088,-0.2299,1.5754,rough,15.5,2,9.443
730,23.36,0.7681,4.9361,0.2151,-0.0082,-0.2299,1.5730,rough,15.5,2,9.444
740,23.68,0.7676,4.9361,0.2151,-0.0080,-0.2299,1.5722,rough,15.5,2,9.444
750,24.00,0.7673,4.9361,0.2151,-0.0079,-0.2298,1.5719,rough,15.5,2,9.445
760,24.32,0.7670,4.9361,0.2151,-0.0079,-0.2298,1.5718,rough,15.5,2,9.445
770,24.64,0.7668,4.9361,0.2151,-0.0078,-0.2297,1.5717,rough,15.5,2,9.445
780,24.96,0.7666,4.9362,0.2151,-0.0078,-0.2297,1.5717,rough,15.5,2,9.445
790,25.28,0.7664,4.9362,0.2151,-0.0078,-0.2297,1.5717,rough,15.5,2,9.445
800,25.60,0.7661,4.9363,0.2152,-0.0079,-0.2296,1.5717,rough,15.5,2,9.446
810,25.92,0.7659,4.9364,0.2152,-0.0079,-0.2296,1.5717,rough,15.5,2,9.446
820,26.24,0.7657,4.9364,0.2152,-0.0079,-0.2295,1.5717,rough,15.5,2,9.446
830,26.56,0.7655,4.9365,0.2152,-0.0079,-0.2295,1.5717,rough,15.5,2,9.446
840,26.88,0.7653,4.9365,0.2152,-0.0078,-0.2295,1.5717,rough,15.5,2,9.447
850,27.20,0.7651,4.9365,0.2152,-0.0078,-0.2294,1.5717,rough,15.5,2,9.447
860,27.52,0.7649,4.9366,0.2152,-0.0078,-0.2294,1.5716,rough,15.5,2,9.447
870,27.84,0.7647,4.9366,0.2152,-0.0078,-0.2294,1.5716,rough,15.5,2,9.447
880,28.16,0.7645,4.9366,0.2152,-0.0078,-0.2293,1.5716,rough,15.5,2,9.447
890,28.48,0.7643,4.9366,0.2152,-0.0078,-0.2293,1.5716,rough,15.5,2,9.447
900,28.80,0.7641,4.9367,0.2152,-0.0078,-0.2292,1.5716,rough,15.5,2,9.448
910,29.12,0.7639,4.9368,0.2152,-0.0078,-0.2292,1.5716,rough,15.5,2,9.448
920,29.44,0.7637,4.9368,0.2152,-0.0078,-0.2292,1.5716,rough,15.5,2,9.448
930,29.76,0.7636,4.9369,0.2152,-0.0078,-0.2291,1.5716,rough,15.5,2,9.448
940,30.08,0.7634,4.9369,0.2152,-0.0078,-0.2291,1.5716,rough,15.5,2,9.448
950,30.40,0.7632,4.9369,0.2152,-0.0078,-0.2291,1.5716,rough,15.5,2,9.448
960,30.72,0.7631,4.9370,0.2152,-0.0078,-0.2290,1.5715,rough,15.5,2,9.449
970,31.04,0.7629,4.9370,0.2152,-0.0078,-0.2290,1.5715,rough,15.5,2,9.449
980,31.36,0.7627,4.9370,0.2152,-0.0078,-0.2290,1.5715,rough,15.5,2,9.449
990,31.68,0.7626,4.9371,0.2152,-0.0078,-0.2290,1.5715,rough,15.5,2,9.449
1000,32.00,0.7625,4.9371,0.2152,-0.0078,-0.2289,1.5715,rough,15.5,2,9.449
1010,32.32,0.7623,4.9371,0.2152,-0.0078,-0.2289,1.5715,rough,15.5,2,9.449
1020,32.64,0.7622,4.9372,0.2152,-0.0078,-0.2289,1.5715,rough,15.5,2,9.449
1030,32.96,0.7620,4.9372,0.2152,-0.0078,-0.2288,1.5715,rough,15.5,2,9.450
1040,33.28,0.7619,4.9372,0.2152,-0.0078,-0.2288,1.5715,rough,15.5,2,9.450
1050,33.60,0.7617,4.9373,0.2152,-0.0078,-0.2288,1.5715,rough,15.5,2,9.450
1060,33.92,0.7616,4.9373,0.2152,-0.0078,-0.2288,1.5715,rough,15.5,2,9.450
1070,34.24,0.7614,4.9373,0.2152,-0.0078,-0.2287,1.5715,rough,15.5,2,9.450
1080,34.56,0.7613,4.9374,0.2152,-0.0078,-0.2287,1.5714,rough,15.5,2,9.450
1090,34.88,0.7612,4.9374,0.2152,-0.0078,-0.2287,1.5714,rough,15.5,2,9.450
1100,35.20,0.7610,4.9374,0.2152,-0.0078,-0.2287,1.5714,rough,15.5,2,9.451
1110,35.52,0.7609,4.9374,0.2152,-0.0078,-0.2287,1.5714,rough,15.5,2,9.451
1120,35.84,0.7608,4.9375,0.2152,-0.0077,-0.2286,1.5714,rough,15.5,2,9.451
1130,36.16,0.7607,4.9375,0.2152,-0.0077,-0.2286,1.5714,rough,15.5,2,9.451
1140,36.48,0.7606,4.9375,0.2152,-0.0077,-0.2286,1.5714,rough,15.5,2,9.451
1150,36.80,0.7605,4.9376,0.2152,-0.0077,-0.2286,1.5713,rough,15.5,2,9.451
1160,37.12,0.7604,4.9376,0.2152,-0.0077,-0.2286,1.5713,rough,15.5,2,9.451
1170,37.44,0.7603,4.9376,0.2152,-0.0077,-0.2285,1.5714,rough,15.5,2,9.451
1180,37.76,0.7602,4.9376,0.2152,-0.0077,-0.2285,1.5714,rough,15.5,2,9.451
1190,38.08,0.7601,4.9376,0.2152,-0.0077,-0.2285,1.5714,rough,15.5,2,9.451
1200,38.40,0.7600,4.9376,0.2152,-0.0077,-0.2285,1.5714,rough,15.5,2,9.452
1210,38.72,0.7599,4.9376,0.2152,-0.0077,-0.2285,1.5714,rough,15.5,2,9.452
1220,39.04,0.7598,4.9377,0.2152,-0.0077,-0.2284,1.5714,rough,15.5,2,9.452
1230,39.36,0.7597,4.9377,0.2152,-0.0077,-0.2284,1.5713,rough,15.5,2,9.452
1240,39.68,0.7596,4.9377,0.2152,-0.0077,-0.2284,1.5713,rough,15.5,2,9.452
1250,40.00,0.7595,4.9377,0.2152,-0.0077,-0.2284,1.5713,rough,15.5,2,9.452
1260,40.32,0.7594,4.9377,0.2152,-0.0077,-0.2284,1.5713,rough,15.5,2,9.452
1270,40.64,0.7593,4.9378,0.2152,-0.0077,-0.2284,1.5713,rough,15.5,2,9.452
1280,40.96,0.7592,4.9378,0.2152,-0.0077,-0.2283,1.5713,rough,15.5,2,9.452
1290,41.28,0.7591,4.9378,0.2152,-0.0077,-0.2283,1.5713,rough,15.5,2,9.452
1300,41.60,0.7590,4.9378,0.2152,-0.0077,-0.2283,1.5713,rough,15.5,2,9.452
1310,41.92,0.7589,4.9378,0.2153,-0.0077,-0.2283,1.5713,rough,15.5,2,9.452
1320,42.24,0.7588,4.9379,0.2153,-0.0077,-0.2283,1.5713,rough,15.5,2,9.453
1330,42.56,0.7588,4.9379,0.2153,-0.0077,-0.2283,1.5713,rough,15.5,2,9.453
1340,42.88,0.7587,4.9379,0.2153,-0.0077,-0.2282,1.5712,rough,15.5,2,9.453
1350,43.20,0.7586,4.9380,0.2153,-0.0077,-0.2282,1.5712,rough,15.5,2,9.453
1360,43.52,0.7586,4.9380,0.2153,-0.0077,-0.2282,1.5712,rough,15.5,2,9.453
1370,43.84,0.7585,4.9380,0.2153,-0.0077,-0.2282,1.5712,rough,15.5,2,9.453
1380,44.16,0.7585,4.9380,0.2153,-0.0077,-0.2282,1.5712,rough,15.5,2,9.453
1390,44.48,0.7584,4.9379,0.2153,-0.0077,-0.2282,1.5712,rough,15.5,2,9.453
1400,44.80,0.7583,4.9380,0.2153,-0.0077,-0.2282,1.5712,rough,15.5,2,9.453
1410,45.12,0.7583,4.9380,0.2153,-0.0077,-0.2282,1.5712,rough,15.5,2,9.453
1420,45.44,0.7582,4.9380,0.2153,-0.0077,-0.2282,1.5712,rough,15.5,2,9.453
1430,45.76,0.7581,4.9380,0.2153,-0.0077,-0.2281,1.5712,rough,15.5,2,9.453
1440,46.08,0.7581,4.9380,0.2153,-0.0077,-0.2281,1.5712,rough,15.5,2,9.453
1450,46.40,0.7580,4.9380,0.2153,-0.0077,-0.2281,1.5712,rough,15.5,2,9.453
1460,46.72,0.7580,4.9380,0.2153,-0.0077,-0.2281,1.5712,rough,15.5,2,9.453
1470,47.04,0.7579,4.9380,0.2153,-0.0077,-0.2281,1.5712,rough,15.5,2,9.453
1480,47.36,0.7578,4.9381,0.2153,-0.0077,-0.2281,1.5712,rough,15.5,2,9.454
1490,47.68,0.7578,4.9381,0.2153,-0.0077,-0.2281,1.5712,rough,15.5,2,9.454
1500,48.00,0.7577,4.9381,0.2153,-0.0077,-0.2281,1.5712,rough,15.5,2,9.454
1510,48.32,0.7577,4.9381,0.2153,-0.0077,-0.2281,1.5712,rough,15.5,2,9.454
1520,48.64,0.7576,4.9381,0.2153,-0.0077,-0.2281,1.5712,rough,15.5,2,9.454
1530,48.96,0.7576,4.9381,0.2153,-0.0077,-0.2280,1.5712,rough,15.5,2,9.454
1540,49.28,0.7575,4.9381,0.2153,-0.0077,-0.2280,1.5712,rough,15.5,2,9.454
1550,49.60,0.7575,4.9381,0.2153,-0.0077,-0.2280,1.5712,rough,15.5,2,9.454
1560,49.92,0.7574,4.9381,0.2153,-0.0077,-0.2280,1.5712,rough,15.5,2,9.454
1570,50.24,0.7574,4.9381,0.2153,-0.0077,-0.2280,1.5712,rough,15.5,2,9.454
1580,50.56,0.7573,4.9382,0.2153,-0.0077,-0.2280,1.5712,rough,15.5,2,9.454
1590,50.88,0.7573,4.9382,0.2153,-0.0077,-0.2280,1.5712,rough,15.5,2,9.454
1600,51.20,0.7573,4.9382,0.2153,-0.0077,-0.2280,1.5712,rough,15.5,2,9.454
1610,51.52,0.7572,4.9382,0.2153,-0.0077,-0.2280,1.5712,rough,15.5,2,9.454
1620,51.84,0.7572,4.9382,0.2153,-0.0077,-0.2280,1.5712,rough,15.5,2,9.454
1630,52.16,0.7571,4.9382,0.2153,-0.0077,-0.2280,1.5712,rough,15.5,2,9.454
1640,52.48,0.7571,4.9382,0.2153,-0.0077,-0.2280,1.5712,rough,15.5,2,9.454
1650,52.80,0.7571,4.9382,0.2153,-0.0077,-0.2280,1.5712,rough,15.5,2,9.454
1660,53.12,0.7570,4.9382,0.2153,-0.0077,-0.2280,1.5712,rough,15.5,2,9.454
1670,53.44,0.7570,4.9382,0.2153,-0.0077,-0.2279,1.5712,rough,15.5,2,9.454
1680,53.76,0.7569,4.9382,0.2153,-0.0077,-0.2279,1.5712,rough,15.5,2,9.454
1690,54.08,0.7569,4.9382,0.2153,-0.0077,-0.2279,1.5712,rough,15.5,2,9.454
1700,54.40,0.7569,4.9382,0.2153,-0.0077,-0.2279,1.5712,rough,15.5,2,9.454
1710,54.72,0.7568,4.9382,0.2153,-0.0077,-0.2279,1.5711,rough,15.5,2,9.454
1720,55.04,0.7568,4.9382,0.2153,-0.0077,-0.2279,1.5711,rough,15.5,2,9.454
1730,55.36,0.7568,4.9382,0.2153,-0.0077,-0.2279,1.5711,rough,15.5,2,9.454
1740,55.68,0.7567,4.9382,0.2153,-0.0077,-0.2279,1.5711,rough,15.5,2,9.455
1750,56.00,0.7567,4.9382,0.2153,-0.0077,-0.2279,1.5711,rough,15.5,2,9.455
1760,56.32,0.7566,4.9382,0.2153,-0.0077,-0.2279,1.5711,rough,15.5,2,9.455
1770,56.64,0.7566,4.9382,0.2153,-0.0077,-0.2279,1.5711,rough,15.5,2,9.455
1780,56.96,0.7566,4.9382,0.2153,-0.0076,-0.2279,1.5711,rough,15.5,2,9.455
1790,57.28,0.7565,4.9382,0.2153,-0.0076,-0.2279,1.5711,rough,15.5,2,9.455
1800,57.60,0.7565,4.9382,0.2153,-0.0076,-0.2279,1.5711,rough,15.5,2,9.455
1810,57.92,0.7564,4.9382,0.2153,-0.0076,-0.2279,1.5711,rough,15.5,2,9.455
1820,58.24,0.7564,4.9382,0.2153,-0.0076,-0.2279,1.5711,rough,15.5,2,9.455
1830,58.56,0.7564,4.9382,0.2153,-0.0076,-0.2278,1.5711,rough,15.5,2,9.455
1840,58.88,0.7563,4.9382,0.2153,-0.0076,-0.2278,1.5711,rough,15.5,2,9.455
1850,59.20,0.7563,4.9382,0.2153,-0.0076,-0.2278,1.5711,rough,15.5,2,9.455
1860,59.52,0.7563,4.9382,0.2153,-0.0076,-0.2278,1.5711,rough,15.5,2,9.455
1870,59.84,0.7562,4.9382,0.2152,-0.0076,-0.2278,1.5711,rough,15.5,2,9.455
1880,60.16,0.7562,4.9382,0.2152,-0.0076,-0.2278,1.5711,rough,15.5,2,9.455
1890,60.48,0.7561,4.9382,0.2152,-0.0076,-0.2278,1.5711,rough,15.5,2,9.455
1900,60.80,0.7561,4.9382,0.2152,-0.0076,-0.2278,1.5711,rough,15.5,2,9.455
1910,61.12,0.7561,4.9382,0.2152,-0.0076,-0.2278,1.5711,rough,15.5,2,9.455
1920,61.44,0.7560,4.9382,0.2152,-0.0076,-0.2278,1.5711,rough,15.5,2,9.455
1930,61.76,0.7560,4.9382,0.2152,-0.0076,-0.2278,1.5711,rough,15.5,2,9.455
1940,62.08,0.7560,4.9382,0.2152,-0.0076,-0.2278,1.5711,rough,15.5,2,9.455
1950,62.40,0.7559,4.9382,0.2152,-0.0076,-0.2278,1.5711,rough,15.5,2,9.455
1960,62.72,0.7559,4.9382,0.2152,-0.0076,-0.2278,1.5711,rough,15.5,2,9.455
1970,63.04,0.7558,4.9382,0.2152,-0.0076,-0.2278,1.5711,rough,15.5,2,9.455
1980,63.36,0.7558,4.9382,0.2152,-0.0076,-0.2278,1.5711,rough,15.5,2,9.455
1990,63.68,0.7558,4.9382,0.2152,-0.0076,-0.2278,1.5711,rough,15.5,2,9.455
2000,64.00,0.7557,4.9382,0.2152,-0.0076,-0.2277,1.5711,rough,15.5,2,9.455
2010,64.32,0.7557,4.9382,0.2152,-0.0076,-0.2277,1.5711,rough,15.5,2,9.455
2020,64.64,0.7557,4.9382,0.2152,-0.0076,-0.2277,1.5711,rough,15.5,2,9.455
2030,64.96,0.7556,4.9382,0.2152,-0.0076,-0.2277,1.5711,rough,15.5,2,9.455
2040,65.28,0.7556,4.9382,0.2152,-0.0076,-0.2277,1.5711,rough,15.5,2,9.455
2050,65.60,0.7556,4.9382,0.2152,-0.0076,-0.2277,1.5711,rough,15.5,2,9.455
2060,65.92,0.7555,4.9382,0.2152,-0.0076,-0.2277,1.5711,rough,15.5,2,9.455
2070,66.24,0.7555,4.9382,0.2152,-0.0076,-0.2277,1.5711,rough,15.5,2,9.456
2080,66.56,0.7554,4.9382,0.2152,-0.0076,-0.2277,1.5711,rough,15.5,2,9.456
2090,66.88,0.7554,4.9382,0.2152,-0.0076,-0.2277,1.5711,rough,15.5,2,9.456
2100,67.20,0.7554,4.9382,0.2152,-0.0076,-0.2277,1.5711,rough,15.5,2,9.456
2110,67.52,0.7553,4.9382,0.2152,-0.0076,-0.2277,1.5711,rough,15.5,2,9.456
2120,67.84,0.7553,4.9382,0.2152,-0.0076,-0.2277,1.5711,rough,15.5,2,9.456
2130,68.16,0.7553,4.9382,0.2152,-0.0076,-0.2277,1.5711,rough,15.5,2,9.456
2140,68.48,0.7552,4.9382,0.2152,-0.0076,-0.2277,1.5711,rough,15.5,2,9.456
2150,68.80,0.7552,4.9382,0.2152,-0.0076,-0.2277,1.5711,rough,15.5,2,9.456
2160,69.12,0.7552,4.9382,0.2152,-0.0076,-0.2277,1.5711,rough,15.5,2,9.456
2170,69.44,0.7551,4.9382,0.2152,-0.0076,-0.2277,1.5711,rough,15.5,2,9.456
2180,69.76,0.7551,4.9382,0.2152,-0.0076,-0.2276,1.5711,rough,15.5,2,9.456
2190,70.08,0.7550,4.9382,0.2152,-0.0076,-0.2276,1.5711,rough,15.5,2,9.456
2200,70.40,0.7550,4.9382,0.2152,-0.0076,-0.2276,1.5711,rough,15.5,2,9.456
2210,70.72,0.7550,4.9382,0.2152,-0.0076,-0.2276,1.5711,rough,15.5,2,9.456
2220,71.04,0.7549,4.9382,0.2152,-0.0076,-0.2276,1.5711,rough,15.5,2,9.456
2230,71.36,0.7549,4.9382,0.2152,-0.0076,-0.2276,1.5711,rough,15.5,2,9.456
2240,71.68,0.7549,4.9382,0.2152,-0.0076,-0.2276,1.5711,rough,15.5,2,9.456
2250,72.00,0.7548,4.9382,0.2152,-0.0076,-0.2276,1.5711,rough,15.5,2,9.456
2260,72.32,0.7548,4.9382,0.2152,-0.0076,-0.2276,1.5711,rough,15.5,2,9.456
2270,72.64,0.7548,4.9382,0.2152,-0.0076,-0.2276,1.5711,rough,15.5,2,9.456
2280,72.96,0.7547,4.9382,0.2152,-0.0076,-0.2276,1.5711,rough,15.5,2,9.456
2290,73.28,0.7547,4.9382,0.2152,-0.0076,-0.2276,1.5711,rough,15.5,2,9.456
2300,73.60,0.7547,4.9382,0.2152,-0.0076,-0.2276,1.5711,rough,15.5,2,9.456
2310,73.92,0.7546,4.9382,0.2152,-0.0076,-0.2276,1.5711,rough,15.5,2,9.456
2320,74.24,0.7546,4.9382,0.2152,-0.0076,-0.2276,1.5711,rough,15.5,2,9.456
2330,74.56,0.7545,4.9382,0.2152,-0.0076,-0.2276,1.5711,rough,15.5,2,9.456
2340,74.88,0.7545,4.9382,0.2152,-0.0076,-0.2276,1.5711,rough,15.5,2,9.456
2350,75.20,0.7545,4.9382,0.2152,-0.0076,-0.2276,1.5711,rough,15.5,2,9.456
2360,75.52,0.7544,4.9382,0.2152,-0.0076,-0.2275,1.5711,rough,15.5,2,9.456
2370,75.84,0.7544,4.9382,0.2152,-0.0076,-0.2275,1.5711,rough,15.5,2,9.456
2380,76.16,0.7544,4.9382,0.2152,-0.0076,-0.2275,1.5711,rough,15.5,2,9.456
2390,76.48,0.7543,4.9382,0.2152,-0.0076,-0.2275,1.5711,rough,15.5,2,9.456
2400,76.80,0.7543,4.9382,0.2152,-0.0076,-0.2275,1.5711,rough,15.5,2,9.456
2410,77.12,0.7543,4.9382,0.2152,-0.0076,-0.2275,1.5711,rough,15.5,2,9.457
2420,77.44,0.7542,4.9382,0.2152,-0.0076,-0.2275,1.5711,rough,15.5,2,9.457
2430,77.76,0.7542,4.9382,0.2152,-0.0076,-0.2275,1.5711,rough,15.5,2,9.457
2440,78.08,0.7542,4.9382,0.2152,-0.0076,-0.2275,1.5711,rough,15.5,2,9.457
2450,78.40,0.7541,4.9382,0.2152,-0.0076,-0.2275,1.5711,rough,15.5,2,9.457
2460,78.72,0.7541,4.9382,0.2152,-0.0076,-0.2275,1.5711,rough,15.5,2,9.457
2470,79.04,0.7541,4.9382,0.2152,-0.0076,-0.2275,1.5711,rough,15.5,2,9.457
2480,79.36,0.7540,4.9382,0.2152,-0.0076,-0.2275,1.5711,rough,15.5,2,9.457
2490,79.68,0.7540,4.9382,0.2152,-0.0076,-0.2275,1.5711,rough,15.5,2,9.457
2500,80.00,0.7540,4.9382,0.2152,-0.0076,-0.2275,1.5711,rough,15.5,2,9.457
2510,80.32,0.7539,4.9382,0.2152,-0.0076,-0.2275,1.5711,rough,15.5,2,9.457
2520,80.64,0.7539,4.9382,0.2152,-0.0076,-0.2275,1.5711,rough,15.5,2,9.457
2530,80.96,0.7539,4.9382,0.2152,-0.0076,-0.2275,1.5711,rough,15.5,2,9.457
2540,81.28,0.7538,4.9382,0.2152,-0.0076,-0.2274,1.5711,rough,15.5,2,9.457
2550,81.60,0.7538,4.9382,0.2152,-0.0076,-0.2274,1.5711,rough,15.5,2,9.457
2560,81.92,0.7537,4.9382,0.2152,-0.0076,-0.2274,1.5711,rough,15.5,2,9.457
2570,82.24,0.7537,4.9382,0.2152,-0.0076,-0.2274,1.5711,rough,15.5,2,9.457
2580,82.56,0.7537,4.9382,0.2152,-0.0076,-0.2274,1.5711,rough,15.5,2,9.457
2590,82.88,0.7536,4.9382,0.2152,-0.0076,-0.2274,1.5711,rough,15.5,2,9.457
2600,83.20,0.7536,4.9382,0.2152,-0.0076,-0.2274,1.5711,rough,15.5,2,9.457
2610,83.52,0.7536,4.9382,0.2152,-0.0076,-0.2274,1.5711,rough,15.5,2,9.457
2620,83.84,0.7535,4.9382,0.2152,-0.0076,-0.2274,1.5711,rough,15.5,2,9.457
2630,84.16,0.7535,4.9382,0.2152,-0.0076,-0.2274,1.5711,rough,15.5,2,9.457
2640,84.48,0.7535,4.9382,0.2152,-0.0076,-0.2274,1.5711,rough,15.5,2,9.457
2650,84.80,0.7534,4.9382,0.2152,-0.0076,-0.2274,1.5711,rough,15.5,2,9.457
2660,85.12,0.7534,4.9382,0.2152,-0.0076,-0.2274,1.5711,rough,15.5,2,9.457
2670,85.44,0.7534,4.9382,0.2152,-0.0076,-0.2274,1.5711,rough,15.5,2,9.457
2680,85.76,0.7533,4.9382,0.2152,-0.0076,-0.2274,1.5711,rough,15.5,2,9.457
2690,86.08,0.7533,4.9382,0.2152,-0.0076,-0.2274,1.5711,rough,15.5,2,9.457
2700,86.40,0.7533,4.9382,0.2152,-0.0076,-0.2274,1.5711,rough,15.5,2,9.457
2710,86.72,0.7532,4.9382,0.2152,-0.0076,-0.2274,1.5711,rough,15.5,2,9.457
2720,87.04,0.7532,4.9382,0.2152,-0.0076,-0.2274,1.5711,rough,15.5,2,9.457
2730,87.36,0.7532,4.9382,0.2152,-0.0076,-0.2273,1.5711,rough,15.5,2,9.457
2740,87.68,0.7531,4.9382,0.2152,-0.0076,-0.2273,1.5711,rough,15.5,2,9.457
2750,88.00,0.7531,4.9382,0.2152,-0.0076,-0.2273,1.5711,rough,15.5,2,9.457
2760,88.32,0.7531,4.9382,0.2152,-0.0076,-0.2273,1.5711,rough,15.5,2,9.457
2770,88.64,0.7530,4.9382,0.2152,-0.0076,-0.2273,1.5711,rough,15.5,2,9.458
2780,88.96,0.7530,4.9382,0.2152,-0.0076,-0.2273,1.5711,rough,15.5,2,9.458
2790,89.28,0.7530,4.9382,0.2152,-0.0076,-0.2273,1.5711,rough,15.5,2,9.458
2800,89.60,0.7529,4.9382,0.2152,-0.0076,-0.2273,1.5711,rough,15.5,2,9.458
2810,89.92,0.7529,4.9382,0.2152,-0.0076,-0.2273,1.5711,rough,15.5,2,9.458
2820,90.24,0.7529,4.9382,0.2152,-0.0076,-0.2273,1.5711,rough,15.5,2,9.458
2830,90.56,0.7528,4.9382,0.2152,-0.0076,-0.2273,1.5711,rough,15.5,2,9.458
2840,90.88,0.7528,4.9382,0.2152,-0.0076,-0.2273,1.5711,rough,15.5,2,9.458
2850,91.20,0.7528,4.9382,0.2152,-0.0076,-0.2273,1.5711,rough,15.5,2,9.458
2860,91.52,0.7527,4.9382,0.2152,-0.0076,-0.2273,1.5711,rough,15.5,2,9.458
2870,91.84,0.7527,4.9382,0.2152,-0.0076,-0.2273,1.5711,rough,15.5,2,9.458
2880,92.16,0.7527,4.9382,0.2152,-0.0076,-0.2273,1.5711,rough,15.5,2,9.458
2890,92.48,0.7526,4.9382,0.2152,-0.0076,-0.2273,1.5711,rough,15.5,2,9.458
2900,92.80,0.7526,4.9382,0.2152,-0.0076,-0.2273,1.5711,rough,15.5,2,9.458
2910,93.12,0.7526,4.9382,0.2152,-0.0076,-0.2273,1.5711,rough,15.5,2,9.458
2920,93.44,0.7525,4.9382,0.2152,-0.0076,-0.2272,1.5711,rough,15.5,2,9.458
2930,93.76,0.7525,4.9382,0.2151,-0.0076,-0.2272,1.5711,rough,15.5,2,9.458
2940,94.08,0.7525,4.9382,0.2151,-0.0076,-0.2272,1.5711,rough,15.5,2,9.458
2950,94.40,0.7525,4.9382,0.2151,-0.0076,-0.2272,1.5711,rough,15.5,2,9.458
2960,94.72,0.7524,4.9382,0.2151,-0.0076,-0.2272,1.5711,rough,15.5,2,9.458
2970,95.04,0.7524,4.9382,0.2151,-0.0075,-0.2272,1.5711,rough,15.5,2,9.458
2980,95.36,0.7524,4.9382,0.2151,-0.0075,-0.2272,1.5711,rough,15.5,2,9.458
2990,95.68,0.7523,4.9382,0.2151,-0.0075,-0.2272,1.5711,rough,15.5,2,9.458
3000,96.00,0.7523,4.9382,0.2151,-0.0075,-0.2272,1.5711,rough,15.5,2,9.458
3010,96.32,0.7523,4.9382,0.2151,-0.0075,-0.2272,1.5711,rough,15.5,2,9.458
3020,96.64,0.7522,4.9382,0.2151,-0.0075,-0.2272,1.5711,rough,15.5,2,9.458
3030,96.96,0.7522,4.9382,0.2151,-0.0075,-0.2272,1.5711,rough,15.5,2,9.458
3040,97.28,0.7522,4.9382,0.2151,-0.0075,-0.2272,1.5711,rough,15.5,2,9.458
3050,97.60,0.7521,4.9382,0.2151,-0.0075,-0.2272,1.5711,rough,15.5,2,9.458
3060,97.92,0.7521,4.9382,0.2151,-0.0075,-0.2272,1.5711,rough,15.5,2,9.458
3070,98.24,0.7521,4.9382,0.2151,-0.0075,-0.2272,1.5711,rough,15.5,2,9.458
3080,98.56,0.7520,4.9382,0.2151,-0.0075,-0.2272,1.5711,rough,15.5,2,9.458
3090,98.88,0.7520,4.9382,0.2151,-0.0075,-0.2272,1.5711,rough,15.5,2,9.458
3100,99.20,0.7520,4.9382,0.2151,-0.0075,-0.2272,1.5711,rough,15.5,2,9.458
3110,99.52,0.7519,4.9382,0.2151,-0.0075,-0.2272,1.5711,rough,15.5,2,9.458
3120,99.84,0.7519,4.9382,0.2151,-0.0075,-0.2271,1.5711,rough,15.5,2,9.458
3130,100.16,0.7519,4.9383,0.2151,-0.0075,-0.2271,1.5711,rough,15.5,2,9.458
3140,100.48,0.7518,4.9383,0.2151,-0.0075,-0.2271,1.5711,rough,15.5,2,9.459
3150,100.80,0.7518,4.9383,0.2151,-0.0075,-0.2271,1.5711,rough,15.5,2,9.459
3160,101.12,0.7518,4.9383,0.2151,-0.0075,-0.2271,1.5711,rough,15.5,2,9.459
3170,101.44,0.7518,4.9383,0.2151,-0.0075,-0.2271,1.5711,rough,15.5,2,9.459
3180,101.76,0.7517,4.9383,0.2151,-0.0075,-0.2271,1.5711,rough,15.5,2,9.459
3190,102.08,0.7517,4.9383,0.2151,-0.0075,-0.2271,1.5711,rough,15.5,2,9.459
3200,102.40,0.7517,4.9383,0.2151,-0.0075,-0.2271,1.5711,rough,15.5,2,9.459
3210,102.72,0.7516,4.9383,0.2151,-0.0075,-0.2271,1.5711,rough,15.5,2,9.459
3220,103.04,0.7516,4.9383,0.2151,-0.0075,-0.2271,1.5711,rough,15.5,2,9.459
3230,103.36,0.7516,4.9383,0.2151,-0.0075,-0.2271,1.5711,rough,15.5,2,9.459
3240,103.68,0.7515,4.9383,0.2151,-0.0075,-0.2271,1.5711,rough,15.5,2,9.459
3250,104.00,0.7515,4.9383,0.2151,-0.0075,-0.2271,1.5711,rough,15.5,2,9.459
3260,104.32,0.7515,4.9383,0.2151,-0.0075,-0.2271,1.5711,rough,15.5,2,9.459
3270,104.64,0.7514,4.9383,0.2151,-0.0075,-0.2271,1.5711,rough,15.5,2,9.459
3280,104.96,0.7514,4.9383,0.2151,-0.0075,-0.2271,1.5711,rough,15.5,2,9.459
3290,105.28,0.7514,4.9383,0.2151,-0.0075,-0.2271,1.5711,rough,15.5,2,9.459
3300,105.60,0.7513,4.9383,0.2151,-0.0075,-0.2271,1.5711,rough,15.5,2,9.459
3310,105.92,0.7513,4.9383,0.2151,-0.0075,-0.2271,1.5711,rough,15.5,2,9.459
3320,106.24,0.7513,4.9383,0.2151,-0.0075,-0.2271,1.5711,rough,15.5,2,9.459
3330,106.56,0.7513,4.9383,0.2151,-0.0075,-0.2270,1.5711,rough,15.5,2,9.459
3340,106.88,0.7512,4.9383,0.2151,-0.0075,-0.2270,1.5711,rough,15.5,2,9.459
3350,107.20,0.7512,4.9383,0.2151,-0.0075,-0.2270,1.5711,rough,15.5,2,9.459
3360,107.52,0.7512,4.9383,0.2151,-0.0075,-0.2270,1.5711,rough,15.5,2,9.459
3370,107.84,0.7511,4.9383,0.2151,-0.0075,-0.2270,1.5711,rough,15.5,2,9.459
3380,108.16,0.7511,4.9383,0.2151,-0.0075,-0.2270,1.5711,rough,15.5,2,9.459
3390,108.48,0.7511,4.9383,0.2151,-0.0075,-0.2270,1.5711,rough,15.5,2,9.459
3400,108.80,0.7510,4.9383,0.2151,-0.0075,-0.2270,1.5711,rough,15.5,2,9.459
3410,109.12,0.7510,4.9383,0.2151,-0.0075,-0.2270,1.5711,rough,15.5,2,9.459
3420,109.44,0.7510,4.9383,0.2151,-0.0075,-0.2270,1.5711,rough,15.5,2,9.459
3430,109.76,0.7510,4.9383,0.2151,-0.0075,-0.2270,1.5711,rough,15.5,2,9.459
3440,110.08,0.7509,4.9383,0.2151,-0.0075,-0.2270,1.5711,rough,15.5,2,9.459
3450,110.40,0.7509,4.9383,0.2151,-0.0075,-0.2270,1.5711,rough,15.5,2,9.459
3460,110.72,0.7509,4.9383,0.2151,-0.0075,-0.2270,1.5711,rough,15.5,2,9.459
3470,111.04,0.7508,4.9383,0.2151,-0.0075,-0.2270,1.5711,rough,15.5,2,9.459
3480,111.36,0.7508,4.9383,0.2151,-0.0075,-0.2270,1.5711,rough,15.5,2,9.459
3490,111.68,0.7508,4.9383,0.2151,-0.0075,-0.2270,1.5711,rough,15.5,2,9.459
3500,112.00,0.7507,4.9383,0.2151,-0.0075,-0.2270,1.5711,rough,15.5,2,9.459
3510,112.32,0.7507,4.9383,0.2151,-0.0075,-0.2270,1.5711,rough,15.5,2,9.459
3520,112.64,0.7507,4.9383,0.2151,-0.0075,-0.2270,1.5711,rough,15.5,2,9.459
3530,112.96,0.7507,4.9383,0.2151,-0.0075,-0.2269,1.5711,rough,15.5,2,9.459
3540,113.28,0.7506,4.9383,0.2151,-0.0075,-0.2269,1.5711,rough,15.5,2,9.460
3550,113.60,0.7506,4.9383,0.2151,-0.0075,-0.2269,1.5711,rough,15.5,2,9.460
3560,113.92,0.7506,4.9383,0.2151,-0.0075,-0.2269,1.5711,rough,15.5,2,9.460
3570,114.24,0.7505,4.9383,0.2151,-0.0075,-0.2269,1.5711,rough,15.5,2,9.460
3580,114.56,0.7505,4.9383,0.2151,-0.0075,-0.2269,1.5711,rough,15.5,2,9.460
3590,114.88,0.7505,4.9383,0.2151,-0.0075,-0.2269,1.5711,rough,15.5,2,9.460
3600,115.20,0.7504,4.9383,0.2151,-0.0075,-0.2269,1.5711,rough,15.5,2,9.460
3610,115.52,0.7504,4.9383,0.2151,-0.0075,-0.2269,1.5711,rough,15.5,2,9.460
3620,115.84,0.7504,4.9383,0.2151,-0.0075,-0.2269,1.5711,rough,15.5,2,9.460
3630,116.16,0.7504,4.9383,0.2151,-0.0075,-0.2269,1.5711,rough,15.5,2,9.460
3640,116.48,0.7503,4.9383,0.2151,-0.0075,-0.2269,1.5711,rough,15.5,2,9.460
3650,116.80,0.7503,4.9383,0.2151,-0.0075,-0.2269,1.5711,rough,15.5,2,9.460
3660,117.12,0.7503,4.9383,0.2151,-0.0075,-0.2269,1.5711,rough,15.5,2,9.460
3670,117.44,0.7502,4.9383,0.2151,-0.0075,-0.2269,1.5711,rough,15.5,2,9.460
3680,117.76,0.7502,4.9383,0.2151,-0.0075,-0.2269,1.5711,rough,15.5,2,9.460
3690,118.08,0.7502,4.9383,0.2151,-0.0075,-0.2269,1.5711,rough,15.5,2,9.460
3700,118.40,0.7501,4.9383,0.2151,-0.0075,-0.2269,1.5711,rough,15.5,2,9.460
3710,118.72,0.7501,4.9383,0.2151,-0.0075,-0.2269,1.5711,rough,15.5,2,9.460
3720,119.04,0.7501,4.9383,0.2151,-0.0075,-0.2269,1.5711,rough,15.5,2,9.460
3730,119.36,0.7501,4.9383,0.2151,-0.0075,-0.2269,1.5711,rough,15.5,2,9.460
3740,119.68,0.7500,4.9383,0.2151,-0.0075,-0.2269,1.5711,rough,15.5,2,9.460
3750,120.00,0.7500,4.9383,0.2151,-0.0075,-0.2268,1.5711,rough,15.5,2,9.460
3760,120.32,0.7500,4.9383,0.2151,-0.0075,-0.2268,1.5711,rough,15.5,2,9.460
3770,120.64,0.7499,4.9383,0.2151,-0.0075,-0.2268,1.5711,rough,15.5,2,9.460
3780,120.96,0.7499,4.9383,0.2151,-0.0075,-0.2268,1.5711,rough,15.5,2,9.460
3790,121.28,0.7499,4.9383,0.2151,-0.0075,-0.2268,1.5711,rough,15.5,2,9.460
3800,121.60,0.7499,4.9383,0.2151,-0.0075,-0.2268,1.5711,rough,15.5,2,9.460
3810,121.92,0.7498,4.9383,0.2151,-0.0075,-0.2268,1.5711,rough,15.5,2,9.460
3820,122.24,0.7498,4.9383,0.2151,-0.0075,-0.2268,1.5711,rough,15.5,2,9.460
3830,122.56,0.7498,4.9383,0.2151,-0.0075,-0.2268,1.5711,rough,15.5,2,9.460
3840,122.88,0.7497,4.9383,0.2151,-0.0075,-0.2268,1.5711,rough,15.5,2,9.460
3850,123.20,0.7497,4.9383,0.2151,-0.0075,-0.2268,1.5711,rough,15.5,2,9.460
3860,123.52,0.7497,4.9383,0.2151,-0.0075,-0.2268,1.5711,rough,15.5,2,9.460
3870,123.84,0.7497,4.9383,0.2151,-0.0075,-0.2268,1.5711,rough,15.5,2,9.460
3880,124.16,0.7496,4.9383,0.2151,-0.0075,-0.2268,1.5711,rough,15.5,2,9.460
3890,124.48,0.7496,4.9383,0.2151,-0.0075,-0.2268,1.5711,rough,15.5,2,9.460
3900,124.80,0.7496,4.9383,0.2151,-0.0075,-0.2268,1.5711,rough,15.5,2,9.460
3910,125.12,0.7495,4.9383,0.2151,-0.0075,-0.2268,1.5711,rough,15.5,2,9.460
3920,125.44,0.7495,4.9383,0.2151,-0.0075,-0.2268,1.5711,rough,15.5,2,9.460
3930,125.76,0.7495,4.9383,0.2151,-0.0075,-0.2268,1.5711,rough,15.5,2,9.460
3940,126.08,0.7495,4.9383,0.2151,-0.0075,-0.2268,1.5711,rough,15.5,2,9.460
3950,126.40,0.7494,4.9383,0.2151,-0.0075,-0.2268,1.5711,rough,15.5,2,9.460
3960,126.72,0.7494,4.9383,0.2151,-0.0075,-0.2268,1.5711,rough,15.5,2,9.460
3970,127.04,0.7494,4.9383,0.2151,-0.0075,-0.2267,1.5711,rough,15.5,2,9.461
3980,127.36,0.7494,4.9383,0.2151,-0.0075,-0.2267,1.5711,rough,15.5,2,9.461
3990,127.68,0.7493,4.9383,0.2151,-0.0075,-0.2267,1.5711,rough,15.5,2,9.461
4000,128.00,0.7493,4.9383,0.2151,-0.0075,-0.2267,1.5711,rough,15.5,2,9.461
4010,128.32,0.7493,4.9383,0.2151,-0.0075,-0.2267,1.5711,rough,15.5,2,9.461
4020,128.64,0.7492,4.9383,0.2151,-0.0075,-0.2267,1.5711,rough,15.5,2,9.461
4030,128.96,0.7492,4.9383,0.2151,-0.0075,-0.2267,1.5711,rough,15.5,2,9.461
4040,129.28,0.7492,4.9383,0.2151,-0.0075,-0.2267,1.5711,rough,15.5,2,9.461
4050,129.60,0.7492,4.9383,0.2151,-0.0075,-0.2267,1.5711,rough,15.5,2,9.461
4060,129.92,0.7491,4.9383,0.2151,-0.0075,-0.2267,1.5711,rough,15.5,2,9.461
4070,130.24,0.7491,4.9383,0.2151,-0.0075,-0.2267,1.5711,rough,15.5,2,9.461
4080,130.56,0.7491,4.9383,0.2151,-0.0075,-0.2267,1.5711,rough,15.5,2,9.461
4090,130.88,0.7490,4.9383,0.2151,-0.0075,-0.2267,1.5711,rough,15.5,2,9.461
4100,131.20,0.7490,4.9383,0.2151,-0.0075,-0.2267,1.5711,rough,15.5,2,9.461
4110,131.52,0.7490,4.9383,0.2151,-0.0075,-0.2267,1.5711,rough,15.5,2,9.461
4120,131.84,0.7490,4.9383,0.2151,-0.0075,-0.2267,1.5711,rough,15.5,2,9.461
4130,132.16,0.7489,4.9383,0.2151,-0.0075,-0.2267,1.5711,rough,15.5,2,9.461
4140,132.48,0.7489,4.9383,0.2151,-0.0075,-0.2267,1.5711,rough,15.5,2,9.461
4150,132.80,0.7489,4.9383,0.2151,-0.0075,-0.2267,1.5711,rough,15.5,2,9.461
4160,133.12,0.7489,4.9383,0.2151,-0.0075,-0.2267,1.5711,rough,15.5,2,9.461
4170,133.44,0.7488,4.9383,0.2151,-0.0075,-0.2267,1.5711,rough,15.5,2,9.461
4180,133.76,0.7488,4.9383,0.2150,-0.0075,-0.2267,1.5711,rough,15.5,2,9.461
4190,134.08,0.7488,4.9383,0.2150,-0.0075,-0.2267,1.5711,rough,15.5,2,9.461
4200,134.40,0.7487,4.9383,0.2150,-0.0075,-0.2267,1.5711,rough,15.5,2,9.461
4210,134.72,0.7487,4.9383,0.2150,-0.0075,-0.2266,1.5711,rough,15.5,2,9.461
4220,135.04,0.7487,4.9383,0.2150,-0.0075,-0.2266,1.5711,rough,15.5,2,9.461
4230,135.36,0.7487,4.9383,0.2150,-0.0075,-0.2266,1.5711,rough,15.5,2,9.461
4240,135.68,0.7486,4.9383,0.2150,-0.0075,-0.2266,1.5711,rough,15.5,2,9.461
4250,136.00,0.7486,4.9383,0.2150,-0.0075,-0.2266,1.5711,rough,15.5,2,9.461
4260,136.32,0.7486,4.9383,0.2150,-0.0075,-0.2266,1.5711,rough,15.5,2,9.461
4270,136.64,0.7486,4.9383,0.2150,-0.0075,-0.2266,1.5711,rough,15.5,2,9.461
4280,136.96,0.7485,4.9383,0.2150,-0.0075,-0.2266,1.5711,rough,15.5,2,9.461
4290,137.28,0.7485,4.9383,0.2150,-0.0075,-0.2266,1.5711,rough,15.5,2,9.461
4300,137.60,0.7485,4.9383,0.2150,-0.0075,-0.2266,1.5711,rough,15.5,2,9.461
4310,137.92,0.7484,4.9383,0.2150,-0.0075,-0.2266,1.5711,rough,15.5,2,9.461
4320,138.24,0.7484,4.9383,0.2150,-0.0075,-0.2266,1.5711,rough,15.5,2,9.461
4330,138.56,0.7484,4.9383,0.2150,-0.0075,-0.2266,1.5711,rough,15.5,2,9.461
4340,138.88,0.7484,4.9383,0.2150,-0.0075,-0.2266,1.5711,rough,15.5,2,9.461
4350,139.20,0.7483,4.9383,0.2150,-0.0075,-0.2266,1.5711,rough,15.5,2,9.461
4360,139.52,0.7483,4.9383,0.2150,-0.0075,-0.2266,1.5711,rough,15.5,2,9.461
4370,139.84,0.7483,4.9383,0.2150,-0.0075,-0.2266,1.5711,rough,15.5,2,9.461
4380,140.16,0.7483,4.9383,0.2150,-0.0075,-0.2266,1.5711,rough,15.5,2,9.461
4390,140.48,0.7482,4.9383,0.2150,-0.0075,-0.2266,1.5711,rough,15.5,2,9.461
4400,140.80,0.7482,4.9383,0.2150,-0.0074,-0.2266,1.5711,rough,15.5,2,9.461
4410,141.12,0.7482,4.9383,0.2150,-0.0074,-0.2266,1.5711,rough,15.5,2,9.462
4420,141.44,0.7482,4.9383,0.2150,-0.0074,-0.2266,1.5711,rough,15.5,2,9.462
4430,141.76,0.7481,4.9383,0.2150,-0.0074,-0.2266,1.5711,rough,15.5,2,9.462
4440,142.08,0.7481,4.9383,0.2150,-0.0074,-0.2266,1.5711,rough,15.5,2,9.462
4450,142.40,0.7481,4.9383,0.2150,-0.0074,-0.2265,1.5711,rough,15.5,2,9.462
4460,142.72,0.7481,4.9383,0.2150,-0.0074,-0.2265,1.5711,rough,15.5,2,9.462
4470,143.04,0.7480,4.9383,0.2150,-0.0074,-0.2265,1.5711,rough,15.5,2,9.462
4480,143.36,0.7480,4.9383,0.2150,-0.0074,-0.2265,1.5711,rough,15.5,2,9.462
4490,143.68,0.7480,4.9383,0.2150,-0.0074,-0.2265,1.5711,rough,15.5,2,9.462
4500,144.00,0.7479,4.9383,0.2150,-0.0074,-0.2265,1.5711,rough,15.5,2,9.462
4510,144.32,0.7479,4.9383,0.2150,-0.0074,-0.2265,1.5711,rough,15.5,2,9.462
4520,144.64,0.7479,4.9383,0.2150,-0.0074,-0.2265,1.5711,rough,15.5,2,9.462
4530,144.96,0.7479,4.9383,0.2150,-0.0074,-0.2265,1.5711,rough,15.5,2,9.462
4540,145.28,0.7478,4.9383,0.2150,-0.0074,-0.2265,1.5711,rough,15.5,2,9.462
4550,145.60,0.7478,4.9383,0.2150,-0.0074,-0.2265,1.5711,rough,15.5,2,9.462
4560,145.92,0.7478,4.9383,0.2150,-0.0074,-0.2265,1.5711,rough,15.5,2,9.462
4570,146.24,0.7478,4.9383,0.2150,-0.0074,-0.2265,1.5711,rough,15.5,2,9.462
4580,146.56,0.7477,4.9383,0.2150,-0.0074,-0.2265,1.5711,rough,15.5,2,9.462
4590,146.88,0.7477,4.9383,0.2150,-0.0074,-0.2265,1.5711,rough,15.5,2,9.462
4600,147.20,0.7477,4.9383,0.2150,-0.0074,-0.2265,1.5711,rough,15.5,2,9.462
4610,147.52,0.7477,4.9383,0.2150,-0.0074,-0.2265,1.5711,rough,15.5,2,9.462
4620,147.84,0.7476,4.9383,0.2150,-0.0074,-0.2265,1.5711,rough,15.5,2,9.462
4630,148.16,0.7476,4.9383,0.2150,-0.0074,-0.2265,1.5711,rough,15.5,2,9.462
4640,148.48,0.7476,4.9383,0.2150,-0.0074,-0.2265,1.5711,rough,15.5,2,9.462
4650,148.80,0.7476,4.9383,0.2150,-0.0074,-0.2265,1.5711,rough,15.5,2,9.462
4660,149.12,0.7475,4.9383,0.2150,-0.0074,-0.2265,1.5711,rough,15.5,2,9.462
4670,149.44,0.7475,4.9383,0.2150,-0.0074,-0.2265,1.5711,rough,15.5,2,9.462
4680,149.76,0.7475,4.9383,0.2150,-0.0074,-0.2265,1.5711,rough,15.5,2,9.462
4690,150.08,0.7475,4.9383,0.2150,-0.0074,-0.2264,1.5711,rough,15.5,2,9.462
4700,150.40,0.7474,4.9383,0.2150,-0.0074,-0.2264,1.5711,rough,15.5,2,9.462
4710,150.72,0.7474,4.9383,0.2150,-0.0074,-0.2264,1.5711,rough,15.5,2,9.462
4720,151.04,0.7474,4.9383,0.2150,-0.0074,-0.2264,1.5711,rough,15.5,2,9.462
4730,151.36,0.7474,4.9383,0.2150,-0.0074,-0.2264,1.5711,rough,15.5,2,9.462
4740,151.68,0.7473,4.9383,0.2150,-0.0074,-0.2264,1.5711,rough,15.5,2,9.462
4750,152.00,0.7473,4.9383,0.2150,-0.0074,-0.2264,1.5711,rough,15.5,2,9.462
4760,152.32,0.7473,4.9383,0.2150,-0.0074,-0.2264,1.5711,rough,15.5,2,9.462
4770,152.64,0.7473,4.9383,0.2150,-0.0074,-0.2264,1.5711,rough,15.5,2,9.462
4780,152.96,0.7472,4.9383,0.2150,-0.0074,-0.2264,1.5711,rough,15.5,2,9.462
4790,153.28,0.7472,4.9383,0.2150,-0.0074,-0.2264,1.5711,rough,15.5,2,9.462
4800,153.60,0.7472,4.9383,0.2150,-0.0074,-0.2264,1.5711,rough,15.5,2,9.462
4810,153.92,0.7472,4.9383,0.2150,-0.0074,-0.2264,1.5711,rough,15.5,2,9.462
4820,154.24,0.7471,4.9383,0.2150,-0.0074,-0.2264,1.5711,rough,15.5,2,9.462
4830,154.56,0.7471,4.9383,0.2150,-0.0074,-0.2264,1.5711,rough,15.5,2,9.462
4840,154.88,0.7471,4.9383,0.2150,-0.0074,-0.2264,1.5711,rough,15.5,2,9.462
4850,155.20,0.7471,4.9383,0.2150,-0.0074,-0.2264,1.5711,rough,15.5,2,9.462
4860,155.52,0.7470,4.9383,0.2150,-0.0074,-0.2264,1.5711,rough,15.5,2,9.462
4870,155.84,0.7470,4.9383,0.2150,-0.0074,-0.2264,1.5711,rough,15.5,2,9.462
4880,156.16,0.7470,4.9383,0.2150,-0.0074,-0.2264,1.5711,rough,15.5,2,9.462
4890,156.48,0.7470,4.9383,0.2150,-0.0074,-0.2264,1.5711,rough,15.5,2,9.463
4900,156.80,0.7469,4.9383,0.2150,-0.0074,-0.2264,1.5711,rough,15.5,2,9.463
4910,157.12,0.7469,4.9383,0.2150,-0.0074,-0.2264,1.5711,rough,15.5,2,9.463
4920,157.44,0.7469,4.9383,0.2150,-0.0074,-0.2264,1.5711,rough,15.5,2,9.463
4930,157.76,0.7469,4.9383,0.2150,-0.0074,-0.2264,1.5711,rough,15.5,2,9.463
4940,158.08,0.7468,4.9383,0.2150,-0.0074,-0.2264,1.5711,rough,15.5,2,9.463
4950,158.40,0.7468,4.9383,0.2150,-0.0074,-0.2263,1.5711,rough,15.5,2,9.463
4960,158.72,0.7468,4.9383,0.2150,-0.0074,-0.2263,1.5711,rough,15.5,2,9.463
4970,159.04,0.7468,4.9383,0.2150,-0.0074,-0.2263,1.5711,rough,15.5,2,9.463
4980,159.36,0.7467,4.9383,0.2150,-0.0074,-0.2263,1.5711,rough,15.5,2,9.463
4990,159.68,0.7467,4.9383,0.2150,-0.0074,-0.2263,1.5711,rough,15.5,2,9.463
5000,160.00,0.7467,4.9383,0.2150,-0.0074,-0.2263,1.5711,rough,15.5,2,9.463
5010,160.32,0.7467,4.9383,0.2150,-0.0074,-0.2263,1.5711,rough,15.5,2,9.463
5020,160.64,0.7467,4.9383,0.2150,-0.0074,-0.2263,1.5711,rough,15.5,2,9.463
5030,160.96,0.7466,4.9383,0.2150,-0.0074,-0.2263,1.5711,rough,15.5,2,9.463
5040,161.28,0.7466,4.9383,0.2150,-0.0074,-0.2263,1.5711,rough,15.5,2,9.463
5050,161.60,0.7466,4.9383,0.2150,-0.0074,-0.2263,1.5711,rough,15.5,2,9.463
5060,161.92,0.7466,4.9383,0.2150,-0.0074,-0.2263,1.5711,rough,15.5,2,9.463
5070,162.24,0.7465,4.9383,0.2150,-0.0074,-0.2263,1.5711,rough,15.5,2,9.463
5080,162.56,0.7465,4.9383,0.2150,-0.0074,-0.2263,1.5711,rough,15.5,2,9.463
5090,162.88,0.7465,4.9383,0.2150,-0.0074,-0.2263,1.5711,rough,15.5,2,9.463
5100,163.20,0.7465,4.9383,0.2150,-0.0074,-0.2263,1.5711,rough,15.5,2,9.463
5110,163.52,0.7464,4.9383,0.2150,-0.0074,-0.2263,1.5711,rough,15.5,2,9.463
5120,163.84,0.7464,4.9383,0.2150,-0.0074,-0.2263,1.5711,rough,15.5,2,9.463
5130,164.16,0.7464,4.9383,0.2150,-0.0074,-0.2263,1.5711,rough,15.5,2,9.463
5140,164.48,0.7464,4.9383,0.2150,-0.0074,-0.2263,1.5711,rough,15.5,2,9.463
5150,164.80,0.7464,4.9383,0.2150,-0.0074,-0.2263,1.5711,rough,15.5,2,9.463
5160,165.12,0.7463,4.9383,0.2150,-0.0074,-0.2263,1.5711,rough,15.5,2,9.463
5170,165.44,0.7463,4.9383,0.2150,-0.0074,-0.2263,1.5711,rough,15.5,2,9.463
5180,165.76,0.7463,4.9383,0.2150,-0.0074,-0.2263,1.5711,rough,15.5,2,9.463
5190,166.08,0.7463,4.9383,0.2150,-0.0074,-0.2263,1.5711,rough,15.5,2,9.463
5200,166.40,0.7462,4.9383,0.2150,-0.0074,-0.2263,1.5711,rough,15.5,2,9.463
5210,166.72,0.7462,4.9383,0.2150,-0.0074,-0.2263,1.5711,rough,15.5,2,9.463
5220,167.04,0.7462,4.9383,0.2150,-0.0074,-0.2263,1.5711,rough,15.5,2,9.463
5230,167.36,0.7462,4.9383,0.2150,-0.0074,-0.2262,1.5711,rough,15.5,2,9.463
5240,167.68,0.7462,4.9383,0.2150,-0.0074,-0.2262,1.5711,rough,15.5,2,9.463
5250,168.00,0.7461,4.9383,0.2150,-0.0074,-0.2262,1.5711,rough,15.5,2,9.463
5260,168.32,0.7461,4.9383,0.2150,-0.0074,-0.2262,1.5711,rough,15.5,2,9.463
5270,168.64,0.7461,4.9383,0.2150,-0.0074,-0.2262,1.5711,rough,15.5,2,9.463
5280,168.96,0.7461,4.9383,0.2150,-0.0074,-0.2262,1.5711,rough,15.5,2,9.463
5290,169.28,0.7460,4.9383,0.2150,-0.0074,-0.2262,1.5711,rough,15.5,2,9.463
5300,169.60,0.7460,4.9383,0.2150,-0.0074,-0.2262,1.5711,rough,15.5,2,9.463
5310,169.92,0.7460,4.9383,0.2150,-0.0074,-0.2262,1.5711,rough,15.5,2,9.463
5320,170.24,0.7460,4.9383,0.2150,-0.0074,-0.2262,1.5711,rough,15.5,2,9.463
5330,170.56,0.7460,4.9383,0.2150,-0.0074,-0.2262,1.5711,rough,15.5,2,9.463
5340,170.88,0.7459,4.9383,0.2150,-0.0074,-0.2262,1.5711,rough,15.5,2,9.463
5350,171.20,0.7459,4.9383,0.2150,-0.0074,-0.2262,1.5711,rough,15.5,2,9.463
5360,171.52,0.7459,4.9383,0.2150,-0.0074,-0.2262,1.5711,rough,15.5,2,9.463
5370,171.84,0.7459,4.9383,0.2150,-0.0074,-0.2262,1.5711,rough,15.5,2,9.463
5380,172.16,0.7459,4.9383,0.2150,-0.0074,-0.2262,1.5711,rough,15.5,2,9.463
5390,172.48,0.7458,4.9383,0.2150,-0.0074,-0.2262,1.5711,rough,15.5,2,9.463
5400,172.80,0.7458,4.9383,0.2150,-0.0074,-0.2262,1.5711,rough,15.5,2,9.463
5410,173.12,0.7458,4.9383,0.2150,-0.0074,-0.2262,1.5711,rough,15.5,2,9.463
5420,173.44,0.7458,4.9383,0.2150,-0.0074,-0.2262,1.5711,rough,15.5,2,9.463
5430,173.76,0.7457,4.9383,0.2150,-0.0074,-0.2262,1.5711,rough,15.5,2,9.464
5440,174.08,0.7457,4.9383,0.2150,-0.0074,-0.2262,1.5711,rough,15.5,2,9.464
5450,174.40,0.7457,4.9383,0.2150,-0.0074,-0.2262,1.5711,rough,15.5,2,9.464
5460,174.72,0.7457,4.9383,0.2150,-0.0074,-0.2262,1.5711,rough,15.5,2,9.464
5470,175.04,0.7457,4.9383,0.2150,-0.0074,-0.2262,1.5711,rough,15.5,2,9.464
5480,175.36,0.7456,4.9383,0.2150,-0.0074,-0.2262,1.5711,rough,15.5,2,9.464
5490,175.68,0.7456,4.9383,0.2150,-0.0074,-0.2262,1.5711,rough,15.5,2,9.464
5500,176.00,0.7456,4.9383,0.2150,-0.0074,-0.2262,1.5711,rough,15.5,2,9.464
5510,176.32,0.7456,4.9383,0.2150,-0.0074,-0.2262,1.5711,rough,15.5,2,9.464
5520,176.64,0.7456,4.9383,0.2150,-0.0074,-0.2262,1.5711,rough,15.5,2,9.464
5530,176.96,0.7455,4.9383,0.2150,-0.0074,-0.2261,1.5711,rough,15.5,2,9.464
5540,177.28,0.7455,4.9383,0.2150,-0.0074,-0.2261,1.5711,rough,15.5,2,9.464
5550,177.60,0.7455,4.9383,0.2150,-0.0074,-0.2261,1.5711,rough,15.5,2,9.464
5560,177.92,0.7455,4.9383,0.2150,-0.0074,-0.2261,1.5711,rough,15.5,2,9.464
5570,178.24,0.7454,4.9383,0.2150,-0.0074,-0.2261,1.5711,rough,15.5,2,9.464
5580,178.56,0.7454,4.9383,0.2150,-0.0074,-0.2261,1.5711,rough,15.5,2,9.464
5590,178.88,0.7454,4.9383,0.2150,-0.0074,-0.2261,1.5711,rough,15.5,2,9.464
5600,179.20,0.7454,4.9383,0.2150,-0.0074,-0.2261,1.5711,rough,15.5,2,9.464
5610,179.52,0.7454,4.9383,0.2150,-0.0074,-0.2261,1.5711,rough,15.5,2,9.464
5620,179.84,0.7453,4.9383,0.2150,-0.0074,-0.2261,1.5711,rough,15.5,2,9.464
5630,180.16,0.7453,4.9383,0.2150,-0.0074,-0.2261,1.5711,rough,15.5,2,9.464
5640,180.48,0.7453,4.9383,0.2150,-0.0074,-0.2261,1.5711,rough,15.5,2,9.464
5650,180.80,0.7453,4.9383,0.2150,-0.0074,-0.2261,1.5711,rough,15.5,2,9.464
5660,181.12,0.7453,4.9383,0.2150,-0.0074,-0.2261,1.5711,rough,15.5,2,9.464
5670,181.44,0.7452,4.9383,0.2150,-0.0074,-0.2261,1.5711,rough,15.5,2,9.464
5680,181.76,0.7452,4.9383,0.2150,-0.0074,-0.2261,1.5711,rough,15.5,2,9.464
5690,182.08,0.7452,4.9383,0.2150,-0.0074,-0.2261,1.5711,rough,15.5,2,9.464
5700,182.40,0.7452,4.9383,0.2150,-0.0074,-0.2261,1.5711,rough,15.5,2,9.464
5710,182.72,0.7452,4.9383,0.2150,-0.0074,-0.2261,1.5711,rough,15.5,2,9.464
5720,183.04,0.7451,4.9383,0.2150,-0.0074,-0.2261,1.5711,rough,15.5,2,9.464
5730,183.36,0.7451,4.9383,0.2150,-0.0074,-0.2261,1.5711,rough,15.5,2,9.464
5740,183.68,0.7451,4.9383,0.2150,-0.0074,-0.2261,1.5711,rough,15.5,2,9.464
5750,184.00,0.7451,4.9383,0.2150,-0.0074,-0.2261,1.5711,rough,15.5,2,9.464
5760,184.32,0.7450,4.9383,0.2150,-0.0074,-0.2261,1.5711,rough,15.5,2,9.464
5770,184.64,0.7450,4.9383,0.2149,-0.0074,-0.2261,1.5711,rough,15.5,2,9.464
5780,184.96,0.7450,4.9383,0.2149,-0.0074,-0.2261,1.5711,rough,15.5,2,9.464
5790,185.28,0.7450,4.9383,0.2149,-0.0074,-0.2261,1.5711,rough,15.5,2,9.464
5800,185.60,0.7450,4.9383,0.2149,-0.0074,-0.2261,1.5711,rough,15.5,2,9.464
5810,185.92,0.7449,4.9383,0.2149,-0.0074,-0.2261,1.5711,rough,15.5,2,9.464
5820,186.24,0.7449,4.9383,0.2149,-0.0074,-0.2261,1.5711,rough,15.5,2,9.464
5830,186.56,0.7449,4.9383,0.2149,-0.0074,-0.2260,1.5711,rough,15.5,2,9.464
5840,186.88,0.7449,4.9383,0.2149,-0.0074,-0.2260,1.5711,rough,15.5,2,9.464
5850,187.20,0.7449,4.9383,0.2149,-0.0074,-0.2260,1.5711,rough,15.5,2,9.464
5860,187.52,0.7448,4.9383,0.2149,-0.0074,-0.2260,1.5711,rough,15.5,2,9.464
5870,187.84,0.7448,4.9383,0.2149,-0.0074,-0.2260,1.5711,rough,15.5,2,9.464
5880,188.16,0.7448,4.9383,0.2149,-0.0074,-0.2260,1.5711,rough,15.5,2,9.464
5890,188.48,0.7448,4.9383,0.2149,-0.0074,-0.2260,1.5711,rough,15.5,2,9.464
5900,188.80,0.7448,4.9383,0.2149,-0.0074,-0.2260,1.5711,rough,15.5,2,9.464
5910,189.12,0.7447,4.9383,0.2149,-0.0074,-0.2260,1.5711,rough,15.5,2,9.464
5920,189.44,0.7447,4.9383,0.2149,-0.0074,-0.2260,1.5711,rough,15.5,2,9.464
5930,189.76,0.7447,4.9383,0.2149,-0.0074,-0.2260,1.5711,rough,15.5,2,9.464
5940,190.08,0.7447,4.9383,0.2149,-0.0074,-0.2260,1.5711,rough,15.5,2,9.464
5950,190.40,0.7447,4.9383,0.2149,-0.0074,-0.2260,1.5711,rough,15.5,2,9.464
5960,190.72,0.7446,4.9383,0.2149,-0.0074,-0.2260,1.5711,rough,15.5,2,9.464
5970,191.04,0.7446,4.9383,0.2149,-0.0074,-0.2260,1.5711,rough,15.5,2,9.464
5980,191.36,0.7446,4.9383,0.2149,-0.0074,-0.2260,1.5711,rough,15.5,2,9.464
5990,191.68,0.7446,4.9383,0.2149,-0.0074,-0.2260,1.5711,rough,15.5,2,9.464
6000,192.00,0.7446,4.9383,0.2149,-0.0074,-0.2260,1.5711,rough,15.5,2,9.464
6010,192.32,0.7445,4.9383,0.2149,-0.0074,-0.2260,1.5711,rough,15.5,2,9.464
6020,192.64,0.7445,4.9383,0.2149,-0.0074,-0.2260,1.5711,rough,15.5,2,9.465
6030,192.96,0.7445,4.9383,0.2149,-0.0074,-0.2260,1.5711,rough,15.5,2,9.465
6040,193.28,0.7445,4.9383,0.2149,-0.0074,-0.2260,1.5711,rough,15.5,2,9.465
6050,193.60,0.7445,4.9383,0.2149,-0.0074,-0.2260,1.5711,rough,15.5,2,9.465
6060,193.92,0.7444,4.9383,0.2149,-0.0074,-0.2260,1.5711,rough,15.5,2,9.465
6070,194.24,0.7444,4.9383,0.2149,-0.0074,-0.2260,1.5711,rough,15.5,2,9.465
6080,194.56,0.7444,4.9383,0.2149,-0.0074,-0.2260,1.5711,rough,15.5,2,9.465
6090,194.88,0.7444,4.9383,0.2149,-0.0074,-0.2260,1.5711,rough,15.5,2,9.465
6100,195.20,0.7444,4.9383,0.2149,-0.0074,-0.2260,1.5711,rough,15.5,2,9.465
6110,195.52,0.7443,4.9383,0.2149,-0.0074,-0.2260,1.5711,rough,15.5,2,9.465
6120,195.84,0.7443,4.9383,0.2149,-0.0074,-0.2260,1.5711,rough,15.5,2,9.465
6130,196.16,0.7443,4.9383,0.2149,-0.0073,-0.2260,1.5711,rough,15.5,2,9.465
6140,196.48,0.7443,4.9383,0.2149,-0.0073,-0.2260,1.5711,rough,15.5,2,9.465
6150,196.80,0.7443,4.9383,0.2149,-0.0073,-0.2259,1.5711,rough,15.5,2,9.465
6160,197.12,0.7442,4.9383,0.2149,-0.0073,-0.2259,1.5711,rough,15.5,2,9.465
6170,197.44,0.7442,4.9383,0.2149,-0.0073,-0.2259,1.5711,rough,15.5,2,9.465
6180,197.76,0.7442,4.9383,0.2149,-0.0073,-0.2259,1.5711,rough,15.5,2,9.465
6190,198.08,0.7442,4.9383,0.2149,-0.0073,-0.2259,1.5711,rough,15.5,2,9.465
6200,198.40,0.7442,4.9383,0.2149,-0.0073,-0.2259,1.5711,rough,15.5,2,9.465
6210,198.72,0.7441,4.9383,0.2149,-0.0073,-0.2259,1.5711,rough,15.5,2,9.465
6220,199.04,0.7441,4.9383,0.2149,-0.0073,-0.2259,1.5711,rough,15.5,2,9.465
6230,199.36,0.7441,4.9383,0.2149,-0.0073,-0.2259,1.5711,rough,15.5,2,9.465
6240,199.68,0.7441,4.9383,0.2149,-0.0073,-0.2259,1.5711,rough,15.5,2,9.465
6250,200.00,0.7441,4.9383,0.2149,-0.0073,-0.2259,1.5711,rough,15.5,2,9.465
6260,200.32,0.7440,4.9383,0.2149,-0.0073,-0.2259,1.5711,rough,15.5,2,9.465
6270,200.64,0.7440,4.9383,0.2149,-0.0073,-0.2259,1.5711,rough,15.5,2,9.465
6280,200.96,0.7440,4.9383,0.2149,-0.0073,-0.2259,1.5711,rough,15.5,2,9.465
6290,201.28,0.7440,4.9383,0.2149,-0.0073,-0.2259,1.5711,rough,15.5,2,9.465
6300,201.60,0.7440,4.9383,0.2149,-0.0073,-0.2259,1.5711,rough,15.5,2,9.465
6310,201.92,0.7439,4.9383,0.2149,-0.0073,-0.2259,1.5711,rough,15.5,2,9.465
6320,202.24,0.7439,4.9383,0.2149,-0.0073,-0.2259,1.5711,rough,15.5,2,9.465
6330,202.56,0.7439,4.9383,0.2149,-0.0073,-0.2259,1.5711,rough,15.5,2,9.465
6340,202.88,0.7439,4.9383,0.2149,-0.0073,-0.2259,1.5711,rough,15.5,2,9.465
6350,203.20,0.7439,4.9383,0.2149,-0.0073,-0.2259,1.5711,rough,15.5,2,9.465
6360,203.52,0.7439,4.9383,0.2149,-0.0073,-0.2259,1.5711,rough,15.5,2,9.465
6370,203.84,0.7438,4.9383,0.2149,-0.0073,-0.2259,1.5711,rough,15.5,2,9.465
6380,204.16,0.7438,4.9383,0.2149,-0.0073,-0.2259,1.5711,rough,15.5,2,9.465
6390,204.48,0.7438,4.9383,0.2149,-0.0073,-0.2259,1.5711,rough,15.5,2,9.465
6400,204.80,0.7438,4.9383,0.2149,-0.0073,-0.2259,1.5711,rough,15.5,2,9.465
6410,205.12,0.7438,4.9383,0.2149,-0.0073,-0.2259,1.5711,rough,15.5,2,9.465
6420,205.44,0.7437,4.9383,0.2149,-0.0073,-0.2259,1.5711,rough,15.5,2,9.465
6430,205.76,0.7437,4.9383,0.2149,-0.0073,-0.2259,1.5711,rough,15.5,2,9.465
6440,206.08,0.7437,4.9383,0.2149,-0.0073,-0.2259,1.5711,rough,15.5,2,9.465
6450,206.40,0.7437,4.9383,0.2149,-0.0073,-0.2259,1.5711,rough,15.5,2,9.465
6460,206.72,0.7437,4.9383,0.2149,-0.0073,-0.2259,1.5711,rough,15.5,2,9.465
6470,207.04,0.7436,4.9383,0.2149,-0.0073,-0.2258,1.5711,rough,15.5,2,9.465
6480,207.36,0.7436,4.9383,0.2149,-0.0073,-0.2258,1.5711,rough,15.5,2,9.465
6490,207.68,0.7436,4.9383,0.2149,-0.0073,-0.2258,1.5711,rough,15.5,2,9.465
6500,208.00,0.7436,4.9383,0.2149,-0.0073,-0.2258,1.5711,rough,15.5,2,9.465
6510,208.32,0.7436,4.9383,0.2149,-0.0073,-0.2258,1.5711,rough,15.5,2,9.465
6520,208.64,0.7435,4.9383,0.2149,-0.0073,-0.2258,1.5711,rough,15.5,2,9.465
6530,208.96,0.7435,4.9383,0.2149,-0.0073,-0.2258,1.5711,rough,15.5,2,9.465
6540,209.28,0.7435,4.9383,0.2149,-0.0073,-0.2258,1.5711,rough,15.5,2,9.465
6550,209.60,0.7435,4.9383,0.2149,-0.0073,-0.2258,1.5711,rough,15.5,2,9.465
6560,209.92,0.7435,4.9383,0.2149,-0.0073,-0.2258,1.5711,rough,15.5,2,9.465
6570,210.24,0.7435,4.9383,0.2149,-0.0073,-0.2258,1.5711,rough,15.5,2,9.465
6580,210.56,0.7434,4.9383,0.2149,-0.0073,-0.2258,1.5711,rough,15.5,2,9.465
6590,210.88,0.7434,4.9383,0.2149,-0.0073,-0.2258,1.5711,rough,15.5,2,9.465
6600,211.20,0.7434,4.9383,0.2149,-0.0073,-0.2258,1.5711,rough,15.5,2,9.465
6610,211.52,0.7434,4.9383,0.2149,-0.0073,-0.2258,1.5711,rough,15.5,2,9.465
6620,211.84,0.7434,4.9383,0.2149,-0.0073,-0.2258,1.5711,rough,15.5,2,9.465
6630,212.16,0.7433,4.9383,0.2149,-0.0073,-0.2258,1.5711,rough,15.5,2,9.465
6640,212.48,0.7433,4.9383,0.2149,-0.0073,-0.2258,1.5711,rough,15.5,2,9.465
6650,212.80,0.7433,4.9383,0.2149,-0.0073,-0.2258,1.5711,rough,15.5,2,9.466
6660,213.12,0.7433,4.9383,0.2149,-0.0073,-0.2258,1.5711,rough,15.5,2,9.466
6670,213.44,0.7433,4.9383,0.2149,-0.0073,-0.2258,1.5711,rough,15.5,2,9.466
6680,213.76,0.7432,4.9383,0.2149,-0.0073,-0.2258,1.5711,rough,15.5,2,9.466
6690,214.08,0.7432,4.9383,0.2149,-0.0073,-0.2258,1.5711,rough,15.5,2,9.466
6700,214.40,0.7432,4.9383,0.2149,-0.0073,-0.2258,1.5711,rough,15.5,2,9.466
6710,214.72,0.7432,4.9383,0.2149,-0.0073,-0.2258,1.5711,rough,15.5,2,9.466
6720,215.04,0.7432,4.9383,0.2149,-0.0073,-0.2258,1.5711,rough,15.5,2,9.466
6730,215.36,0.7432,4.9383,0.2149,-0.0073,-0.2258,1.5711,rough,15.5,2,9.466
6740,215.68,0.7431,4.9383,0.2149,-0.0073,-0.2258,1.5711,rough,15.5,2,9.466
6750,216.00,0.7431,4.9383,0.2149,-0.0073,-0.2258,1.5711,rough,15.5,2,9.466
6760,216.32,0.7431,4.9383,0.2149,-0.0073,-0.2258,1.5711,rough,15.5,2,9.466
6770,216.64,0.7431,4.9383,0.2149,-0.0073,-0.2258,1.5711,rough,15.5,2,9.466
6780,216.96,0.7431,4.9383,0.2149,-0.0073,-0.2258,1.5711,rough,15.5,2,9.466
6790,217.28,0.7430,4.9383,0.2149,-0.0073,-0.2258,1.5711,rough,15.5,2,9.466
6800,217.60,0.7430,4.9383,0.2149,-0.0073,-0.2258,1.5711,rough,15.5,2,9.466
6810,217.92,0.7430,4.9383,0.2149,-0.0073,-0.2257,1.5711,rough,15.5,2,9.466
6820,218.24,0.7430,4.9383,0.2149,-0.0073,-0.2257,1.5711,rough,15.5,2,9.466
6830,218.56,0.7430,4.9383,0.2149,-0.0073,-0.2257,1.5711,rough,15.5,2,9.466
6840,218.88,0.7430,4.9383,0.2149,-0.0073,-0.2257,1.5711,rough,15.5,2,9.466
6850,219.20,0.7429,4.9383,0.2149,-0.0073,-0.2257,1.5711,rough,15.5,2,9.466
6860,219.52,0.7429,4.9383,0.2149,-0.0073,-0.2257,1.5711,rough,15.5,2,9.466
6870,219.84,0.7429,4.9383,0.2149,-0.0073,-0.2257,1.5710,rough,15.5,2,9.466
6880,220.16,0.7429,4.9383,0.2149,-0.0073,-0.2257,1.5710,rough,15.5,2,9.466
6890,220.48,0.7429,4.9383,0.2149,-0.0073,-0.2257,1.5710,rough,15.5,2,9.466
6900,220.80,0.7428,4.9383,0.2149,-0.0073,-0.2257,1.5710,rough,15.5,2,9.466
6910,221.12,0.7428,4.9383,0.2149,-0.0073,-0.2257,1.5710,rough,15.5,2,9.466
6920,221.44,0.7428,4.9383,0.2149,-0.0073,-0.2257,1.5710,rough,15.5,2,9.466
6930,221.76,0.7428,4.9383,0.2149,-0.0073,-0.2257,1.5710,rough,15.5,2,9.466
6940,222.08,0.7428,4.9383,0.2149,-0.0073,-0.2257,1.5710,rough,15.5,2,9.466
6950,222.40,0.7428,4.9383,0.2149,-0.0073,-0.2257,1.5710,rough,15.5,2,9.466
6960,222.72,0.7427,4.9383,0.2149,-0.0073,-0.2257,1.5710,rough,15.5,2,9.466
6970,223.04,0.7427,4.9383,0.2149,-0.0073,-0.2257,1.5710,rough,15.5,2,9.466
6980,223.36,0.7427,4.9383,0.2149,-0.0073,-0.2257,1.5710,rough,15.5,2,9.466
6990,223.68,0.7427,4.9383,0.2149,-0.0073,-0.2257,1.5710,rough,15.5,2,9.466
7000,224.00,0.7427,4.9383,0.2149,-0.0073,-0.2257,1.5710,rough,15.5,2,9.466
7010,224.32,0.7426,4.9383,0.2149,-0.0073,-0.2257,1.5710,rough,15.5,2,9.466
7020,224.64,0.7426,4.9383,0.2149,-0.0073,-0.2257,1.5710,rough,15.5,2,9.466
7030,224.96,0.7426,4.9383,0.2149,-0.0073,-0.2257,1.5710,rough,15.5,2,9.466
7040,225.28,0.7426,4.9383,0.2149,-0.0073,-0.2257,1.5710,rough,15.5,2,9.466
7050,225.60,0.7426,4.9383,0.2149,-0.0073,-0.2257,1.5710,rough,15.5,2,9.466
7060,225.92,0.7426,4.9383,0.2149,-0.0073,-0.2257,1.5710,rough,15.5,2,9.466
7070,226.24,0.7425,4.9383,0.2149,-0.0073,-0.2257,1.5710,rough,15.5,2,9.466
7080,226.56,0.7425,4.9383,0.2149,-0.0073,-0.2257,1.5710,rough,15.5,2,9.466
7090,226.88,0.7425,4.9383,0.2149,-0.0073,-0.2257,1.5710,rough,15.5,2,9.466
7100,227.20,0.7425,4.9383,0.2149,-0.0073,-0.2257,1.5710,rough,15.5,2,9.466
7110,227.52,0.7425,4.9383,0.2149,-0.0073,-0.2257,1.5710,rough,15.5,2,9.466
7120,227.84,0.7425,4.9383,0.2149,-0.0073,-0.2257,1.5710,rough,15.5,2,9.466
7130,228.16,0.7424,4.9383,0.2149,-0.0073,-0.2257,1.5710,rough,15.5,2,9.466
7140,228.48,0.7424,4.9383,0.2149,-0.0073,-0.2257,1.5710,rough,15.5,2,9.466
7150,228.80,0.7424,4.9383,0.2149,-0.0073,-0.2257,1.5710,rough,15.5,2,9.466
7160,229.12,0.7424,4.9383,0.2149,-0.0073,-0.2257,1.5710,rough,15.5,2,9.466
7170,229.44,0.7424,4.9383,0.2149,-0.0073,-0.2256,1.5710,rough,15.5,2,9.466
7180,229.76,0.7424,4.9383,0.2149,-0.0073,-0.2256,1.5710,rough,15.5,2,9.466
7190,230.08,0.7423,4.9383,0.2149,-0.0073,-0.2256,1.5710,rough,15.5,2,9.466
7200,230.40,0.7423,4.9383,0.2149,-0.0073,-0.2256,1.5710,rough,15.5,2,9.466
7210,230.72,0.7423,4.9383,0.2149,-0.0073,-0.2256,1.5710,rough,15.5,2,9.466
7220,231.04,0.7423,4.9383,0.2149,-0.0073,-0.2256,1.5710,rough,15.5,2,9.466
7230,231.36,0.7423,4.9383,0.2149,-0.0073,-0.2256,1.5710,rough,15.5,2,9.466
7240,231.68,0.7422,4.9383,0.2149,-0.0073,-0.2256,1.5710,rough,15.5,2,9.466
7250,232.00,0.7422,4.9383,0.2149,-0.0073,-0.2256,1.5710,rough,15.5,2,9.466
7260,232.32,0.7422,4.9383,0.2149,-0.0073,-0.2256,1.5710,rough,15.5,2,9.466
7270,232.64,0.7422,4.9383,0.2149,-0.0073,-0.2256,1.5710,rough,15.5,2,9.466
7280,232.96,0.7422,4.9383,0.2149,-0.0073,-0.2256,1.5710,rough,15.5,2,9.466
7290,233.28,0.7422,4.9383,0.2149,-0.0073,-0.2256,1.5710,rough,15.5,2,9.466
7300,233.60,0.7421,4.9383,0.2149,-0.0073,-0.2256,1.5710,rough,15.5,2,9.466
7310,233.92,0.7421,4.9383,0.2149,-0.0073,-0.2256,1.5710,rough,15.5,2,9.466
7320,234.24,0.7421,4.9383,0.2149,-0.0073,-0.2256,1.5710,rough,15.5,2,9.466
7330,234.56,0.7421,4.9383,0.2149,-0.0073,-0.2256,1.5710,rough,15.5,2,9.466
7340,234.88,0.7421,4.9383,0.2149,-0.0073,-0.2256,1.5710,rough,15.5,2,9.467
7350,235.20,0.7421,4.9383,0.2149,-0.0073,-0.2256,1.5710,rough,15.5,2,9.467
7360,235.52,0.7420,4.9384,0.2149,-0.0073,-0.2256,1.5710,rough,15.5,2,9.467
7370,235.84,0.7420,4.9384,0.2149,-0.0073,-0.2256,1.5710,rough,15.5,2,9.467
7380,236.16,0.7420,4.9384,0.2149,-0.0073,-0.2256,1.5710,rough,15.5,2,9.467
7390,236.48,0.7420,4.9384,0.2149,-0.0073,-0.2256,1.5710,rough,15.5,2,9.467
7400,236.80,0.7420,4.9384,0.2149,-0.0073,-0.2256,1.5710,rough,15.5,2,9.467
7410,237.12,0.7420,4.9384,0.2149,-0.0073,-0.2256,1.5710,rough,15.5,2,9.467
7420,237.44,0.7419,4.9384,0.2149,-0.0073,-0.2256,1.5710,rough,15.5,2,9.467
7430,237.76,0.7419,4.9384,0.2149,-0.0073,-0.2256,1.5710,rough,15.5,2,9.467
7440,238.08,0.7419,4.9384,0.2149,-0.0073,-0.2256,1.5710,rough,15.5,2,9.467
7450,238.40,0.7419,4.9384,0.2149,-0.0073,-0.2256,1.5710,rough,15.5,2,9.467
7460,238.72,0.7419,4.9384,0.2149,-0.0073,-0.2256,1.5710,rough,15.5,2,9.467
7470,239.04,0.7419,4.9384,0.2149,-0.0073,-0.2256,1.5710,rough,15.5,2,9.467
7480,239.36,0.7418,4.9384,0.2149,-0.0073,-0.2256,1.5710,rough,15.5,2,9.467
7490,239.68,0.7418,4.9384,0.2149,-0.0073,-0.2256,1.5710,rough,15.5,2,9.467
7500,240.00,0.7418,4.9384,0.2149,-0.0073,-0.2256,1.5710,rough,15.5,2,9.467
7510,240.32,0.7418,4.9384,0.2149,-0.0073,-0.2256,1.5710,rough,15.5,2,9.467
7520,240.64,0.7418,4.9384,0.2149,-0.0073,-0.2256,1.5710,rough,15.5,2,9.467
7530,240.96,0.7418,4.9384,0.2149,-0.0073,-0.2256,1.5710,rough,15.5,2,9.467
7540,241.28,0.7417,4.9384,0.2149,-0.0073,-0.2256,1.5710,rough,15.5,2,9.467
7550,241.60,0.7417,4.9384,0.2149,-0.0073,-0.2255,1.5710,rough,15.5,2,9.467
7560,241.92,0.7417,4.9384,0.2149,-0.0073,-0.2255,1.5710,rough,15.5,2,9.467
7570,242.24,0.7417,4.9384,0.2149,-0.0073,-0.2255,1.5710,rough,15.5,2,9.467
7580,242.56,0.7417,4.9384,0.2149,-0.0073,-0.2255,1.5710,rough,15.5,2,9.467
7590,242.88,0.7417,4.9384,0.2149,-0.0073,-0.2255,1.5710,rough,15.5,2,9.467
7600,243.20,0.7416,4.9384,0.2149,-0.0073,-0.2255,1.5710,rough,15.5,2,9.467
7610,243.52,0.7416,4.9384,0.2149,-0.0073,-0.2255,1.5710,rough,15.5,2,9.467
7620,243.84,0.7416,4.9384,0.2149,-0.0073,-0.2255,1.5710,rough,15.5,2,9.467
7630,244.16,0.7416,4.9384,0.2149,-0.0073,-0.2255,1.5710,rough,15.5,2,9.467
7640,244.48,0.7416,4.9384,0.2149,-0.0073,-0.2255,1.5710,rough,15.5,2,9.467
7650,244.80,0.7416,4.9384,0.2149,-0.0073,-0.2255,1.5710,rough,15.5,2,9.467
7660,245.12,0.7415,4.9384,0.2149,-0.0073,-0.2255,1.5710,rough,15.5,2,9.467
7670,245.44,0.7415,4.9384,0.2149,-0.0073,-0.2255,1.5710,rough,15.5,2,9.467
7680,245.76,0.7415,4.9384,0.2149,-0.0073,-0.2255,1.5710,rough,15.5,2,9.467
7690,246.08,0.7415,4.9384,0.2149,-0.0073,-0.2255,1.5710,rough,15.5,2,9.467
7700,246.40,0.7415,4.9384,0.2149,-0.0073,-0.2255,1.5710,rough,15.5,2,9.467
7710,246.72,0.7415,4.9384,0.2149,-0.0073,-0.2255,1.5710,rough,15.5,2,9.467
7720,247.04,0.7414,4.9384,0.2149,-0.0073,-0.2255,1.5710,rough,15.5,2,9.467
7730,247.36,0.7414,4.9384,0.2149,-0.0073,-0.2255,1.5710,rough,15.5,2,9.467
7740,247.68,0.7414,4.9384,0.2149,-0.0073,-0.2255,1.5710,rough,15.5,2,9.467
7750,248.00,0.7414,4.9384,0.2149,-0.0073,-0.2255,1.5710,rough,15.5,2,9.467
7760,248.32,0.7414,4.9384,0.2149,-0.0073,-0.2255,1.5710,rough,15.5,2,9.467
7770,248.64,0.7414,4.9384,0.2149,-0.0073,-0.2255,1.5710,rough,15.5,2,9.467
7780,248.96,0.7413,4.9384,0.2149,-0.0073,-0.2255,1.5710,rough,15.5,2,9.467
7790,249.28,0.7413,4.9384,0.2149,-0.0073,-0.2255,1.5710,rough,15.5,2,9.467
7800,249.60,0.7413,4.9384,0.2149,-0.0073,-0.2255,1.5710,rough,15.5,2,9.467
7810,249.92,0.7413,4.9384,0.2149,-0.0073,-0.2255,1.5710,rough,15.5,2,9.467
7820,250.24,0.7413,4.9384,0.2149,-0.0073,-0.2255,1.5710,rough,15.5,2,9.467
7830,250.56,0.7413,4.9384,0.2149,-0.0073,-0.2255,1.5710,rough,15.5,2,9.467
7840,250.88,0.7412,4.9384,0.2148,-0.0073,-0.2255,1.5710,rough,15.5,2,9.467
7850,251.20,0.7412,4.9384,0.2148,-0.0073,-0.2255,1.5710,rough,15.5,2,9.467
7860,251.52,0.7412,4.9384,0.2148,-0.0073,-0.2255,1.5710,rough,15.5,2,9.467
7870,251.84,0.7412,4.9384,0.2148,-0.0073,-0.2255,1.5710,rough,15.5,2,9.467
7880,252.16,0.7412,4.9384,0.2148,-0.0073,-0.2255,1.5710,rough,15.5,2,9.467
7890,252.48,0.7412,4.9384,0.2148,-0.0073,-0.2255,1.5710,rough,15.5,2,9.467
7900,252.80,0.7412,4.9384,0.2148,-0.0073,-0.2255,1.5710,rough,15.5,2,9.467
7910,253.12,0.7411,4.9384,0.2148,-0.0073,-0.2255,1.5710,rough,15.5,2,9.467
7920,253.44,0.7411,4.9384,0.2148,-0.0073,-0.2255,1.5710,rough,15.5,2,9.467
7930,253.76,0.7411,4.9384,0.2148,-0.0073,-0.2255,1.5710,rough,15.5,2,9.467
7940,254.08,0.7411,4.9384,0.2148,-0.0073,-0.2254,1.5710,rough,15.5,2,9.467
7950,254.40,0.7411,4.9384,0.2148,-0.0073,-0.2254,1.5710,rough,15.5,2,9.467
7960,254.72,0.7411,4.9384,0.2148,-0.0073,-0.2254,1.5710,rough,15.5,2,9.467
7970,255.04,0.7410,4.9384,0.2148,-0.0073,-0.2254,1.5710,rough,15.5,2,9.467
7980,255.36,0.7410,4.9384,0.2148,-0.0073,-0.2254,1.5710,rough,15.5,2,9.467
7990,255.68,0.7410,4.9384,0.2148,-0.0073,-0.2254,1.5710,rough,15.5,2,9.467
8000,256.00,0.7410,4.9384,0.2148,-0.0073,-0.2254,1.5710,rough,15.5,2,9.467
8010,256.32,0.7410,4.9384,0.2148,-0.0073,-0.2254,1.5710,rough,15.5,2,9.467
8020,256.64,0.7410,4.9384,0.2148,-0.0073,-0.2254,1.5710,rough,15.5,2,9.467
8030,256.96,0.7409,4.9384,0.2148,-0.0073,-0.2254,1.5710,rough,15.5,2,9.467
8040,257.28,0.7409,4.9384,0.2148,-0.0073,-0.2254,1.5710,rough,15.5,2,9.467
