step,time_s,x,y,z,roll,pitch,yaw,terrain,speed,target_idx,dist_to_target
10,0.32,0.9866,-0.7750,0.3572,-0.1320,-0.2395,0.2427,rough,15.5,0,5.746
20,0.64,1.2945,-0.6934,0.4418,-0.1162,-0.2931,0.1879,rough,15.5,0,5.572
30,0.96,1.6425,-0.6243,0.5542,-0.0810,-0.3509,0.0620,rough,15.5,0,5.375
40,1.28,1.9722,-0.6052,0.6853,-0.0559,-0.4123,0.0090,rough,15.5,0,5.167
50,1.60,2.2816,-0.6037,0.8255,-0.0531,-0.4442,-0.0008,rough,15.5,0,4.972
60,1.92,2.5915,-0.6106,0.9737,-0.0289,-0.4571,-0.0323,rough,15.5,0,4.782
70,2.24,2.8948,-0.6289,1.1239,-0.0111,-0.4646,-0.0616,rough,15.5,0,4.598
80,2.56,3.1992,-0.6589,1.2730,0.0083,-0.4540,-0.1029,rough,15.5,0,4.417
90,2.88,3.4921,-0.7016,1.4118,0.0248,-0.4388,-0.1151,rough,15.5,0,4.244
100,3.20,3.7905,-0.7539,1.5483,0.0507,-0.4095,-0.1772,rough,15.5,0,4.075
110,3.52,4.0863,-0.8230,1.6769,0.0710,-0.3968,-0.2332,rough,15.5,0,3.906
120,3.84,4.3941,-0.9149,1.8021,0.0979,-0.3653,-0.3226,rough,15.5,0,3.729
130,4.16,4.7084,-1.0497,1.9255,0.1560,-0.3299,-0.4663,rough,15.5,0,3.529
140,4.48,5.0292,-1.2406,2.0427,0.1935,-0.2858,-0.6227,rough,15.5,0,3.295
150,4.80,5.3374,-1.4914,2.1499,0.2231,-0.2427,-0.7882,rough,15.5,0,3.029
160,5.12,5.5883,-1.8150,2.2374,0.2644,-0.1972,-0.9414,rough,15.5,0,2.716
170,5.44,5.8159,-2.1755,2.3135,0.2822,-0.1599,-1.0783,rough,15.5,0,2.392
180,5.76,5.9718,-2.5838,2.3675,0.3088,-0.1116,-1.2434,rough,15.5,0,2.036
190,6.08,6.0620,-3.0227,2.3970,0.3308,-0.0728,-1.4034,rough,15.5,0,1.661
200,6.40,6.0790,-3.4834,2.4066,0.3455,0.0008,-1.5678,rough,15.5,0,1.271
210,6.72,6.0170,-3.9414,2.3858,0.3460,0.0617,-1.7429,rough,15.5,0,0.887
220,7.04,5.8718,-4.2997,2.3325,0.3143,0.1690,-2.0484,rough,15.5,1,12.768
230,7.36,5.6961,-4.5545,2.2655,0.2531,0.2545,-2.3194,rough,15.5,1,12.939
240,7.68,5.4301,-4.7445,2.1660,0.1897,0.3103,-2.5524,rough,15.5,1,13.024
250,8.00,5.1038,-4.8953,2.0408,0.1262,0.3433,-2.7325,rough,15.5,1,13.060
260,8.32,4.7421,-5.0067,1.9013,0.0772,0.3538,-2.8646,rough,15.5,1,13.059
270,8.64,4.3503,-5.0846,1.7513,0.0379,0.3619,-2.9636,rough,15.5,1,13.028
280,8.96,3.9424,-5.1347,1.5955,0.0079,0.3644,-3.0339,rough,15.5,1,12.978
290,9.28,3.5241,-5.1640,1.4365,-0.0124,0.3632,-3.0819,rough,15.5,1,12.919
300,9.60,3.0993,-5.1791,1.2759,-0.0257,0.3608,-3.1128,rough,15.5,1,12.858
310,9.92,2.6722,-5.1850,1.1156,-0.0346,0.3586,-3.1320,rough,15.5,1,12.802
320,10.24,2.2451,-5.1854,0.9564,-0.0408,0.3561,3.1395,rough,15.5,1,12.754
330,10.56,1.8197,-5.1826,0.7992,-0.0451,0.3537,3.1327,rough,15.5,1,12.718
340,10.88,1.3972,-5.1778,0.6446,-0.0485,0.3501,3.1286,rough,15.5,1,12.693
350,11.20,0.9780,-5.1719,0.4926,-0.0513,0.3461,3.1261,rough,15.5,1,12.682
360,11.52,0.5625,-5.1653,0.3435,-0.0538,0.3429,3.1245,rough,15.5,1,12.683
370,11.84,0.1642,-5.1594,0.2182,-0.0543,0.2355,3.1293,rough,15.5,1,12.698
380,12.16,-0.2225,-5.1478,0.1511,-0.0619,0.1087,3.0827,rough,15.5,1,12.718
390,12.48,-0.5686,-5.1053,0.1382,-0.0494,-0.0103,3.0194,rough,15.5,1,12.715
400,12.80,-0.8575,-5.0332,0.1433,-0.0467,-0.0179,2.8812,rough,15.5,1,12.683
410,13.12,-1.2012,-4.9193,0.1514,-0.0390,-0.0245,2.7396,rough,15.5,1,12.626
420,13.44,-1.5378,-4.7531,0.1606,-0.0317,-0.0291,2.5840,rough,15.5,1,12.527
430,13.76,-1.8784,-4.5158,0.1715,-0.0286,-0.0269,2.4303,rough,15.5,1,12.370
440,14.08,-2.1850,-4.2206,0.1815,-0.0244,-0.0324,2.2822,rough,15.5,1,12.160
450,14.40,-2.4635,-3.8632,0.1922,-0.0207,-0.0139,2.1581,rough,15.5,1,11.894
460,14.72,-2.6983,-3.4677,0.2015,-0.0203,-0.0152,2.0529,rough,15.5,1,11.590
470,15.04,-2.8976,-3.0575,0.2057,-0.0205,-0.0163,1.9520,rough,15.5,1,11.270
480,15.36,-3.0604,-2.6121,0.2110,-0.0261,-0.0057,1.8871,rough,15.5,1,10.913
490,15.68,-3.1988,-2.1562,0.2126,-0.0255,-0.0021,1.8094,rough,15.5,1,10.546
500,16.00,-3.3009,-1.6819,0.2134,-0.0285,0.0005,1.7523,rough,15.5,1,10.156
510,16.32,-3.3792,-1.2017,0.2130,-0.0310,0.0020,1.7180,rough,15.5,1,9.759
520,16.64,-3.4427,-0.7261,0.2120,-0.0331,0.0023,1.6603,rough,15.5,1,9.367
530,16.96,-3.4772,-0.2479,0.2107,-0.0334,0.0011,1.5555,rough,15.5,1,8.966
540,17.28,-3.4636,0.2336,0.2103,-0.0328,-0.0005,1.4760,rough,15.5,1,8.546
550,17.60,-3.4107,0.7158,0.2101,-0.0303,0.0007,1.4406,rough,15.5,1,8.110
560,17.92,-3.3436,1.1885,0.2092,-0.0278,0.0011,1.4176,rough,15.5,1,7.680
570,18.24,-3.2662,1.6732,0.2071,-0.0246,0.0035,1.3987,rough,15.5,1,7.241
580,18.56,-3.1794,2.1581,0.2032,-0.0206,0.0074,1.3779,rough,15.5,1,6.802
590,18.88,-3.0824,2.6401,0.1976,-0.0166,0.0120,1.3527,rough,15.5,1,6.367
600,19.20,-2.9647,3.1032,0.1898,-0.0150,0.0165,1.2905,rough,15.5,1,5.940
610,19.52,-2.8237,3.5704,0.1796,-0.0090,0.0215,1.2456,rough,15.5,1,5.503
620,19.84,-2.6634,4.0285,0.1674,-0.0050,0.0265,1.2030,rough,15.5,1,5.067
630,20.16,-2.4833,4.4772,0.1527,-0.0005,0.0311,1.1545,rough,15.5,1,4.633
640,20.48,-2.2794,4.9159,0.1362,0.0064,0.0345,1.1038,rough,15.5,1,4.196
650,20.80,-2.0570,5.3476,0.1194,0.0061,0.0351,1.0535,rough,15.5,1,3.760
660,21.12,-1.8112,5.7619,0.1025,0.0062,0.0349,0.9949,rough,15.5,1,3.326
670,21.44,-1.5420,6.1614,0.0858,0.0071,0.0337,0.9338,rough,15.5,1,2.894
680,21.76,-1.2495,6.5435,0.0706,0.0074,0.0304,0.8688,rough,15.5,1,2.466
690,22.08,-0.9329,6.9010,0.0578,0.0075,0.0236,0.7973,rough,15.5,1,2.045
700,22.40,-0.5972,7.2319,0.0465,0.0061,0.0171,0.7258,rough,15.5,1,1.640
710,22.72,-0.2698,7.5348,0.0616,-0.0549,-0.0429,0.6454,rough,15.5,1,1.289
720,23.04,0.0651,7.7912,0.0992,-0.0946,-0.1604,0.5491,rough,15.5,1,0.994
730,23.36,0.3826,7.9964,0.1889,-0.1289,-0.3154,0.4665,rough,15.5,1,0.801
740,23.68,0.6171,8.1104,0.2725,-0.0394,-0.3451,0.1566,rough,15.5,2,15.559
750,24.00,0.7765,8.1403,0.3308,-0.0061,-0.3493,0.0580,rough,15.5,2,15.672
760,24.32,0.9223,8.1511,0.3839,0.0077,-0.3505,0.0174,rough,15.5,2,15.762
770,24.64,1.0625,8.1546,0.4352,0.0138,-0.3502,0.0000,rough,15.5,2,15.844
780,24.96,1.1990,8.1550,0.4854,0.0160,-0.3528,-0.0062,rough,15.5,2,15.922
790,25.28,1.3340,8.1542,0.5351,0.0167,-0.3555,-0.0086,rough,15.5,2,15.998
800,25.60,1.4685,8.1531,0.5850,0.0168,-0.3558,-0.0093,rough,15.5,2,16.075
810,25.92,1.6028,8.1515,0.6349,0.0174,-0.3563,-0.0114,rough,15.5,2,16.153
820,26.24,1.7363,8.1480,0.6849,0.0208,-0.3589,-0.0216,rough,15.5,2,16.229
830,26.56,1.8737,8.1399,0.7364,0.0299,-0.3607,-0.0480,rough,15.5,2,16.304
840,26.88,2.0215,8.1204,0.7919,0.0514,-0.3584,-0.1095,rough,15.5,2,16.378
850,27.20,2.1859,8.0764,0.8538,0.0938,-0.3523,-0.2312,rough,15.5,2,16.443
860,27.52,2.3902,7.9939,0.9267,0.1693,-0.3024,-0.4570,rough,15.5,2,16.504
870,27.84,2.6179,7.8643,1.0172,0.2645,-0.2619,-0.7862,rough,15.5,2,16.547
880,28.16,2.7911,7.6639,1.0832,0.3174,-0.1943,-1.0345,rough,15.5,2,16.504
890,28.48,2.8990,7.3605,1.1252,0.3545,-0.1197,-1.2670,rough,15.5,2,16.345
900,28.80,2.9447,7.0088,1.1446,0.3701,-0.0377,-1.4945,rough,15.5,2,16.114
910,29.12,2.8976,6.6032,1.1316,0.3694,0.0417,-1.7222,rough,15.5,2,15.783
920,29.44,2.7714,6.1838,1.0908,0.3525,0.1002,-1.9013,rough,15.5,2,15.392
930,29.76,2.5815,5.7719,1.0298,0.3367,0.1450,-2.0398,rough,15.5,2,14.965
940,30.08,2.3399,5.3826,0.9507,0.3156,0.1817,-2.1676,rough,15.5,2,14.518
950,30.40,2.0447,5.0241,0.8527,0.2904,0.2132,-2.2866,rough,15.5,2,14.055
960,30.72,1.7143,4.6974,0.7424,0.2607,0.2426,-2.3905,rough,15.5,2,13.591
970,31.04,1.3573,4.4071,0.6224,0.2313,0.2644,-2.4899,rough,15.5,2,13.133
980,31.36,0.9795,4.1485,0.4961,0.1966,0.2775,-2.6092,rough,15.5,2,12.684
990,31.68,0.5777,3.9343,0.3650,0.1819,0.2734,-2.6655,rough,15.5,2,12.250
1000,32.00,0.1732,3.7164,0.2588,0.1460,0.1810,-2.6391,rough,15.5,2,11.814
1010,32.32,-0.2278,3.4755,0.2024,0.0634,0.1045,-2.6150,rough,15.5,2,11.365
1020,32.64,-0.6246,3.2364,0.1932,0.0317,-0.0290,-2.5883,rough,15.5,2,10.922
1030,32.96,-1.0347,2.9728,0.2027,0.0309,-0.0166,-2.5492,rough,15.5,2,10.453
1040,33.28,-1.4390,2.6949,0.2100,0.0226,-0.0119,-2.5201,rough,15.5,2,9.978
1050,33.60,-1.8300,2.4101,0.2138,0.0271,-0.0084,-2.4916,rough,15.5,2,9.509
1060,33.92,-2.2153,2.1091,0.2175,0.0198,-0.0025,-2.4647,rough,15.5,2,9.032
1070,34.24,-2.5915,1.8005,0.2181,0.0203,-0.0002,-2.4378,rough,15.5,2,8.556
1080,34.56,-2.9607,1.4795,0.2153,0.0202,0.0093,-2.4110,rough,15.5,2,8.076
1090,34.88,-3.3229,1.1507,0.2102,0.0242,0.0137,-2.3871,rough,15.5,2,7.595
1100,35.20,-3.6794,0.8121,0.2012,0.0234,0.0204,-2.3681,rough,15.5,2,7.110
1110,35.52,-4.0278,0.4685,0.1900,0.0284,0.0262,-2.3479,rough,15.5,2,6.628
1120,35.84,-4.3692,0.1157,0.1763,0.0282,0.0292,-2.3305,rough,15.5,2,6.142
1130,36.16,-4.7042,-0.2422,0.1621,0.0319,0.0298,-2.3121,rough,15.5,2,5.657
1140,36.48,-5.0322,-0.6064,0.1480,0.0335,0.0281,-2.2942,rough,15.5,2,5.172
1150,36.80,-5.3551,-0.9758,0.1354,0.0351,0.0225,-2.2767,rough,15.5,2,4.686
1160,37.12,-5.6707,-1.3493,0.1253,0.0364,0.0178,-2.2592,rough,15.5,2,4.202
1170,37.44,-5.9795,-1.7288,0.1189,0.0338,0.0079,-2.2416,rough,15.5,2,3.717
1180,37.76,-6.2820,-2.1121,0.1164,0.0348,0.0014,-2.2229,rough,15.5,2,3.233
1190,38.08,-6.5760,-2.5005,0.1181,0.0354,-0.0102,-2.2030,rough,15.5,2,2.750
1200,38.40,-6.8602,-2.8956,0.1255,0.0351,-0.0207,-2.1816,rough,15.5,2,2.268
1210,38.72,-7.1370,-3.2971,0.1370,0.0341,-0.0266,-2.1544,rough,15.5,2,1.786
1220,39.04,-7.3973,-3.7031,0.1519,0.0267,-0.0363,-2.1205,rough,15.5,2,1.309
1230,39.36,-7.6437,-4.1146,0.1712,0.0249,-0.0435,-2.0576,rough,15.5,2,0.838
1240,39.68,-7.8613,-4.4908,0.1908,0.0200,-0.0473,-2.0178,rough,15.5,0,13.206
1250,40.00,-7.9985,-4.7752,0.2058,0.0028,-0.0555,-1.6533,rough,15.5,0,13.346
1260,40.32,-8.0212,-5.0844,0.2218,-0.0187,-0.0481,-1.3205,rough,15.5,0,13.378
1270,40.64,-7.9103,-5.4191,0.2375,-0.0274,-0.0400,-1.1189,rough,15.5,0,13.285
1280,40.96,-7.7202,-5.7590,0.2506,-0.0347,-0.0267,-0.9466,rough,15.5,0,13.123
1290,41.28,-7.4620,-6.0753,0.2594,-0.0381,-0.0140,-0.7849,rough,15.5,0,12.901
1300,41.60,-7.1335,-6.3616,0.2620,-0.0346,-0.0026,-0.6528,rough,15.5,0,12.613
1310,41.92,-6.7592,-6.6147,0.2606,-0.0330,0.0104,-0.5382,rough,15.5,0,12.284
1320,42.24,-6.3446,-6.8328,0.2533,-0.0286,0.0204,-0.4525,rough,15.5,0,11.916
1330,42.56,-5.9070,-7.0196,0.2417,-0.0240,0.0292,-0.3757,rough,15.5,0,11.526
1340,42.88,-5.4557,-7.1779,0.2264,-0.0184,0.0334,-0.3064,rough,15.5,0,11.123
1350,43.20,-4.9939,-7.3131,0.2077,-0.0169,0.0428,-0.2335,rough,15.5,0,10.709
1360,43.52,-4.5211,-7.4164,0.1898,-0.0085,0.0425,-0.1747,rough,15.5,0,10.282
1370,43.84,-4.0406,-7.4924,0.1694,-0.0043,0.0427,-0.1299,rough,15.5,0,9.845
1380,44.16,-3.5535,-7.5498,0.1485,-0.0009,0.0425,-0.1040,rough,15.5,0,9.400
1390,44.48,-3.0636,-7.5958,0.1281,0.0018,0.0405,-0.0884,rough,15.5,0,8.953
1400,44.80,-2.5732,-7.6352,0.1086,0.0048,0.0375,-0.0734,rough,15.5,0,8.508
1410,45.12,-2.0925,-7.6563,0.0910,0.0095,0.0334,-0.0007,rough,15.5,0,8.071
1420,45.44,-1.6314,-7.6508,0.0760,0.0157,0.0273,0.1634,rough,15.5,0,7.646
1430,45.76,-1.1572,-7.5760,0.0619,0.0105,0.0166,0.1821,rough,15.5,0,7.184
1440,46.08,-0.6786,-7.4856,0.0541,0.0183,0.0144,0.2174,rough,15.5,0,6.714
1450,46.40,-0.2279,-7.3758,0.0672,-0.0102,-0.0968,0.2446,rough,15.5,0,6.262
1460,46.72,0.1947,-7.2636,0.1458,-0.0245,-0.2766,0.2615,rough,15.5,0,5.835
1470,47.04,0.6191,-7.1357,0.2825,-0.0738,-0.3409,0.2852,rough,15.5,0,5.401
1480,47.36,1.0549,-7.0040,0.4445,-0.0823,-0.3431,0.3130,rough,15.5,0,4.957
1490,47.68,1.4868,-6.8613,0.6078,-0.0893,-0.3461,0.3377,rough,15.5,0,4.513
1500,48.00,1.9145,-6.7075,0.7720,-0.0965,-0.3479,0.3620,rough,15.5,0,4.068
1510,48.32,2.3357,-6.5420,0.9360,-0.1032,-0.3500,0.3802,rough,15.5,0,3.625
1520,48.64,2.7551,-6.3681,1.1014,-0.1123,-0.3494,0.4048,rough,15.5,0,3.181
1530,48.96,3.1679,-6.1843,1.2654,-0.1198,-0.3490,0.4238,rough,15.5,0,2.740
1540,49.28,3.5750,-5.9923,1.4282,-0.1290,-0.3473,0.4455,rough,15.5,0,2.302
1550,49.60,3.9762,-5.7908,1.5888,-0.1398,-0.3429,0.4708,rough,15.5,0,1.867
1560,49.92,4.3686,-5.5789,1.7457,-0.1537,-0.3368,0.5019,rough,15.5,0,1.440
1570,50.24,4.7458,-5.3544,1.8961,-0.1716,-0.3273,0.5481,rough,15.5,0,1.027
1580,50.56,5.0586,-5.1455,2.0185,-0.2361,-0.2952,0.7087,rough,15.5,1,13.284
1590,50.88,5.2749,-4.9304,2.1050,-0.2811,-0.2360,0.9210,rough,15.5,1,13.148
1600,51.20,5.4517,-4.6377,2.1733,-0.3263,-0.1743,1.1080,rough,15.5,1,12.931
1610,51.52,5.6041,-4.3160,2.2333,-0.3330,-0.1276,1.2276,rough,15.5,1,12.684
1620,51.84,5.7089,-3.9626,2.2738,-0.3438,-0.0849,1.3639,rough,15.5,1,12.394
1630,52.16,5.7350,-3.5381,2.2838,-0.3433,-0.0143,1.5456,rough,15.5,1,12.012
1640,52.48,5.6897,-3.0853,2.2693,-0.3356,0.0460,1.7051,rough,15.5,1,11.579
1650,52.80,5.5829,-2.6276,2.2340,-0.3220,0.0841,1.8264,rough,15.5,1,11.117
1660,53.12,5.4304,-2.1777,2.1830,-0.3115,0.1138,1.9193,rough,15.5,1,10.645
1670,53.44,5.2449,-1.7357,2.1191,-0.3056,0.1396,1.9806,rough,15.5,1,10.166
1680,53.76,5.0417,-1.2989,2.0465,-0.2989,0.1615,2.0296,rough,15.5,1,9.684
1690,54.08,4.8169,-0.8749,1.9651,-0.3088,0.1847,2.0695,rough,15.5,1,9.205
1700,54.40,4.5732,-0.4630,1.8687,-0.3136,0.2048,2.1136,rough,15.5,1,8.729
1710,54.72,4.3159,-0.0566,1.7652,-0.3259,0.2338,2.1455,rough,15.5,1,8.254
1720,55.04,4.0446,0.3348,1.6477,-0.3299,0.2479,2.1828,rough,15.5,1,7.787
1730,55.36,3.7563,0.7155,1.5258,-0.3446,0.2682,2.2182,rough,15.5,1,7.325
1740,55.68,3.4622,1.0786,1.3970,-0.3389,0.2641,2.2560,rough,15.5,1,6.880
1750,56.00,3.1518,1.4342,1.2615,-0.3379,0.2843,2.2988,rough,15.5,1,6.439
1760,56.32,2.8263,1.7704,1.1386,-0.3320,0.2535,2.3398,rough,15.5,1,6.017
1770,56.64,2.4899,2.1013,1.0128,-0.3191,0.2446,2.3769,rough,15.5,1,5.605
1780,56.96,2.1418,2.4248,0.8906,-0.2872,0.2415,2.4078,rough,15.5,1,5.208
1790,57.28,1.7826,2.7387,0.7766,-0.2530,0.2549,2.4358,rough,15.5,1,4.832
1800,57.60,1.4146,3.0404,0.6534,-0.2291,0.2515,2.4702,rough,15.5,1,4.487
1810,57.92,1.0802,3.3242,0.5451,-0.2333,0.2127,2.3225,rough,15.5,1,4.186
1820,58.24,0.7945,3.6551,0.4467,-0.2568,0.1968,2.1783,rough,15.5,1,3.861
1830,58.56,0.5435,4.0390,0.3474,-0.2666,0.1849,2.0339,rough,15.5,1,3.503
1840,58.88,0.3531,4.4563,0.2698,-0.2928,0.1343,1.9113,rough,15.5,1,3.125
1850,59.20,0.2154,4.9008,0.2119,-0.2362,0.1037,1.7755,rough,15.5,1,2.730
1860,59.52,0.1326,5.3571,0.1695,-0.2236,0.0587,1.6466,rough,15.5,1,2.328
1870,59.84,0.1079,5.8237,0.1444,-0.2181,0.0261,1.5179,rough,15.5,1,1.916
1880,60.16,0.1360,6.2887,0.1383,-0.2371,-0.0045,1.3977,rough,15.5,1,1.507
1890,60.48,0.2128,6.7438,0.1493,-0.2738,-0.0358,1.2763,rough,15.5,1,1.112
1900,60.80,0.3306,7.1714,0.1776,-0.3173,-0.0624,1.1487,rough,15.5,2,14.619
1910,61.12,0.2803,7.3316,0.1594,-0.3021,0.0456,1.8556,rough,15.5,2,14.724
1920,61.44,0.0982,7.6087,0.1143,-0.1491,0.1595,2.2400,rough,15.5,2,14.856
1930,61.76,-0.1483,7.8094,0.0699,-0.0829,0.0994,2.5384,rough,15.5,2,14.896
1940,62.08,-0.4352,7.9507,0.0493,-0.0072,-0.0013,2.7642,rough,15.5,2,14.871
1950,62.40,-0.7492,8.0285,0.0528,-0.0071,-0.0223,2.9610,rough,15.5,2,14.784
1960,62.72,-1.1071,8.0762,0.0617,-0.0121,-0.0236,-3.1245,rough,15.5,2,14.657
1970,63.04,-1.4363,8.0672,0.0706,-0.0196,-0.0250,-2.8273,rough,15.5,2,14.499
1980,63.36,-1.7695,7.9413,0.0795,-0.0239,-0.0237,-2.5868,rough,15.5,2,14.240
1990,63.68,-2.0822,7.7229,0.0890,-0.0254,-0.0225,-2.3853,rough,15.5,2,13.910
2000,64.00,-2.3564,7.4180,0.0986,-0.0289,-0.0222,-2.2129,rough,15.5,2,13.519
2010,64.32,-2.6412,7.0465,0.1101,-0.0294,-0.0267,-2.2209,rough,15.5,2,13.064
2020,64.64,-2.9310,6.6571,0.1241,-0.0269,-0.0287,-2.1946,rough,15.5,2,12.591
2030,64.96,-3.2110,6.2582,0.1381,-0.0260,-0.0282,-2.1703,rough,15.5,2,12.114
2040,65.28,-3.4824,5.8570,0.1513,-0.0239,-0.0263,-2.1482,rough,15.5,2,11.640
2050,65.60,-3.7452,5.4443,0.1634,-0.0223,-0.0223,-2.1280,rough,15.5,2,11.159
2060,65.92,-4.0015,5.0272,0.1728,-0.0185,-0.0164,-2.1108,rough,15.5,2,10.676
2070,66.24,-4.2508,4.6053,0.1784,-0.0160,-0.0045,-2.0931,rough,15.5,2,10.193
2080,66.56,-4.4940,4.1795,0.1798,0.0006,-0.0024,-2.0757,rough,15.5,2,9.709
2090,66.88,-4.7269,3.7462,0.1810,-0.0064,0.0067,-2.0593,rough,15.5,2,9.222
2100,67.20,-4.9556,3.3087,0.1766,-0.0011,0.0098,-2.0468,rough,15.5,2,8.732
2110,67.52,-5.1789,2.8689,0.1692,0.0017,0.0171,-2.0348,rough,15.5,2,8.243
2120,67.84,-5.3980,2.4270,0.1588,0.0111,0.0247,-2.0230,rough,15.5,2,7.754
2130,68.16,-5.6108,1.9811,0.1463,0.0146,0.0276,-2.0118,rough,15.5,2,7.264
2140,68.48,-5.8188,1.5348,0.1324,0.0197,0.0299,-2.0007,rough,15.5,2,6.775
2150,68.80,-6.0216,1.0850,0.1185,0.0236,0.0279,-1.9898,rough,15.5,2,6.285
2160,69.12,-6.2192,0.6334,0.1052,0.0269,0.0251,-1.9790,rough,15.5,2,5.795
2170,69.44,-6.4116,0.1804,0.0939,0.0294,0.0203,-1.9668,rough,15.5,2,5.306
2180,69.76,-6.5986,-0.2743,0.0854,0.0326,0.0147,-1.9534,rough,15.5,2,4.818
2190,70.08,-6.7787,-0.7297,0.0799,0.0340,0.0052,-1.9388,rough,15.5,2,4.331
2200,70.40,-6.9485,-1.1909,0.0753,0.0063,-0.0002,-1.9219,rough,15.5,2,3.842
2210,70.72,-7.1183,-1.6496,0.0827,0.0314,-0.0104,-1.9044,rough,15.5,2,3.356
2220,71.04,-7.2766,-2.1112,0.0915,0.0298,-0.0199,-1.8861,rough,15.5,2,2.870
2230,71.36,-7.4259,-2.5770,0.1043,0.0273,-0.0314,-1.8610,rough,15.5,2,2.384
2240,71.68,-7.5619,-3.0450,0.1205,0.0213,-0.0419,-1.8352,rough,15.5,2,1.899
2250,72.00,-7.6862,-3.5135,0.1415,0.0199,-0.0465,-1.8070,rough,15.5,2,1.416
2260,72.32,-7.7956,-3.9848,0.1644,0.0128,-0.0519,-1.7517,rough,15.5,2,0.935
2270,72.64,-7.8835,-4.4345,0.1878,0.0095,-0.0519,-1.7891,rough,15.5,0,13.228
2280,72.96,-7.9442,-4.7369,0.2037,-0.0098,-0.0517,-1.4552,rough,15.5,0,13.291
2290,73.28,-7.8884,-5.0564,0.2197,-0.0204,-0.0476,-1.2402,rough,15.5,0,13.244
2300,73.60,-7.7477,-5.4087,0.2355,-0.0292,-0.0364,-1.1095,rough,15.5,0,13.123
2310,73.92,-7.5471,-5.7424,0.2471,-0.0349,-0.0188,-0.9314,rough,15.5,0,12.950
2320,74.24,-7.2807,-6.0572,0.2557,-0.0378,-0.0128,-0.7764,rough,15.5,0,12.719
2330,74.56,-6.9503,-6.3431,0.2581,-0.0356,0.0014,-0.6492,rough,15.5,0,12.429
2340,74.88,-6.5720,-6.5954,0.2550,-0.0336,0.0121,-0.5444,rough,15.5,0,12.096
2350,75.20,-6.1575,-6.8158,0.2471,-0.0284,0.0229,-0.4573,rough,15.5,0,11.729
2360,75.52,-5.7209,-7.0078,0.2338,-0.0296,0.0279,-0.3767,rough,15.5,0,11.342
2370,75.84,-5.2659,-7.1692,0.2193,-0.0185,0.0354,-0.3203,rough,15.5,0,10.936
2380,76.16,-4.8023,-7.3058,0.2015,-0.0126,0.0393,-0.2678,rough,15.5,0,10.522
2390,76.48,-4.3313,-7.4209,0.1819,-0.0088,0.0422,-0.2218,rough,15.5,0,10.101
2400,76.80,-3.8549,-7.5141,0.1615,-0.0056,0.0427,-0.1735,rough,15.5,0,9.674
2410,77.12,-3.3718,-7.5911,0.1408,-0.0020,0.0428,-0.1482,rough,15.5,0,9.242
2420,77.44,-2.8880,-7.6551,0.1207,0.0017,0.0407,-0.1143,rough,15.5,0,8.809
2430,77.76,-2.4055,-7.7006,0.1019,0.0047,0.0385,-0.0771,rough,15.5,0,8.377
2440,78.08,-1.9296,-7.7272,0.0850,0.0096,0.0339,0.0135,rough,15.5,0,7.950
2450,78.40,-1.4507,-7.7152,0.0702,0.0130,0.0286,0.0859,rough,15.5,0,7.509
2460,78.72,-0.9723,-7.6692,0.0580,0.0160,0.0224,0.1459,rough,15.5,0,7.058
2470,79.04,-0.4915,-7.5961,0.0489,0.0168,0.0158,0.1779,rough,15.5,0,6.597
2480,79.36,-0.0597,-7.5030,0.0745,-0.0330,-0.1397,0.1967,rough,15.5,0,6.173
2490,79.68,0.3529,-7.4107,0.1845,-0.0536,-0.3363,0.2218,rough,15.5,0,5.768
2500,80.00,0.7807,-7.3065,0.3366,-0.0622,-0.3446,0.2427,rough,15.5,0,5.347
2510,80.32,1.2132,-7.1933,0.4976,-0.0726,-0.3460,0.2778,rough,15.5,0,4.921
2520,80.64,1.6372,-7.0647,0.6579,-0.0805,-0.3488,0.3001,rough,15.5,0,4.497
2530,80.96,2.0633,-6.9282,0.8216,-0.0950,-0.3502,0.3423,rough,15.5,0,4.070
2540,81.28,2.4814,-6.7733,0.9845,-0.1064,-0.3501,0.3765,rough,15.5,0,3.643
2550,81.60,2.8916,-6.6016,1.1464,-0.1166,-0.3508,0.4062,rough,15.5,0,3.217
2560,81.92,3.2948,-6.4169,1.3072,-0.1286,-0.3481,0.4364,rough,15.5,0,2.793
2570,82.24,3.6901,-6.2200,1.4660,-0.1413,-0.3452,0.4700,rough,15.5,0,2.372
2580,82.56,4.0763,-6.0085,1.6219,-0.1565,-0.3393,0.5101,rough,15.5,0,1.955
2590,82.88,4.4497,-5.7801,1.7726,-0.1752,-0.3299,0.5600,rough,15.5,0,1.545
2600,83.20,4.8048,-5.5330,1.9152,-0.1992,-0.3149,0.6250,rough,15.5,0,1.148
2610,83.52,5.1197,-5.2641,2.0415,-0.2339,-0.2896,0.7324,rough,15.5,1,0.777
2620,83.84,5.3293,-5.0332,2.1243,-0.2938,-0.2322,0.9563,rough,15.5,1,13.263
2630,84.16,5.5029,-4.7377,2.1918,-0.3220,-0.1587,1.1298,rough,15.5,1,13.043
2640,84.48,5.6406,-4.3683,2.2470,-0.3416,-0.1159,1.2713,rough,15.5,1,12.746
2650,84.80,5.7079,-3.9680,2.2694,-0.3491,-0.0257,1.4544,rough,15.5,1,12.399
2660,85.12,5.6999,-3.5245,2.2707,-0.3380,0.0125,1.6212,rough,15.5,1,11.986
2670,85.44,5.6274,-3.0648,2.2474,-0.3311,0.0640,1.7577,rough,15.5,1,11.535
2680,85.76,5.5046,-2.6073,2.2028,-0.2926,0.0955,1.8627,rough,15.5,1,11.067
2690,86.08,5.3416,-2.1547,2.1522,-0.3107,0.1190,1.9267,rough,15.5,1,10.587
2700,86.40,5.1679,-1.7009,2.0930,-0.3130,0.1353,1.9664,rough,15.5,1,10.102
2710,86.72,4.9676,-1.2641,2.0206,-0.3054,0.1576,2.0234,rough,15.5,1,9.622
2720,87.04,4.7496,-0.8368,1.9390,-0.3212,0.1805,2.0540,rough,15.5,1,9.142
2730,87.36,4.5215,-0.4127,1.8488,-0.3225,0.2016,2.0891,rough,15.5,1,8.662
2740,87.68,4.2782,-0.0008,1.7463,-0.3350,0.2078,2.1251,rough,15.5,1,8.187
2750,88.00,4.0106,0.3978,1.6336,-0.3352,0.2418,2.1653,rough,15.5,1,7.716
2760,88.32,3.7321,0.7807,1.5130,-0.3526,0.2432,2.2053,rough,15.5,1,7.255
2770,88.64,3.4402,1.1522,1.3887,-0.3481,0.2471,2.2439,rough,15.5,1,6.803
2780,88.96,3.1332,1.5099,1.2617,-0.3534,0.2650,2.2842,rough,15.5,1,6.362
2790,89.28,2.8134,1.8565,1.1314,-0.3510,0.2703,2.3212,rough,15.5,1,5.931
2800,89.60,2.4890,2.1872,1.0134,-0.3000,0.2315,2.3702,rough,15.5,1,5.522
2810,89.92,2.1627,2.5182,0.9061,-0.3145,0.2068,2.2691,rough,15.5,1,5.121
2820,90.24,1.8679,2.8859,0.8092,-0.3122,0.1920,2.1748,rough,15.5,1,4.701
2830,90.56,1.6068,3.2779,0.7291,-0.3106,0.1542,2.0924,rough,15.5,1,4.273
2840,90.88,1.3792,3.6992,0.6471,-0.3007,0.1568,2.0085,rough,15.5,1,3.828
2850,91.20,1.1840,4.1376,0.5644,-0.3108,0.1796,1.9235,rough,15.5,1,3.376
2860,91.52,1.0239,4.5847,0.4955,-0.3217,0.1286,1.8334,rough,15.5,1,2.925
2870,91.84,0.9055,5.0533,0.4342,-0.3347,0.1031,1.7402,rough,15.5,1,2.459
2880,92.16,0.8234,5.5247,0.3841,-0.3445,0.0761,1.6762,rough,15.5,1,1.995
2890,92.48,0.7776,6.0033,0.3511,-0.3472,0.0413,1.6015,rough,15.5,1,1.526
2900,92.80,0.7681,6.4827,0.3344,-0.3492,0.0031,1.5220,rough,15.5,1,1.057
2910,93.12,0.7821,6.9392,0.3312,-0.3484,0.0031,1.5476,rough,15.5,2,14.690
2920,93.44,0.6707,7.2550,0.2882,-0.3157,0.1512,1.9821,rough,15.5,2,14.881
2930,93.76,0.5108,7.5424,0.2301,-0.2621,0.2274,2.2729,rough,15.5,2,15.027
2940,94.08,0.2737,7.7403,0.1584,-0.1539,0.2522,2.5493,rough,15.5,2,15.062
2950,94.40,-0.0211,7.8713,0.0813,-0.0712,0.1358,2.7655,rough,15.5,2,15.015
2960,94.72,-0.3311,7.9574,0.0549,-0.0263,0.0287,2.9504,rough,15.5,2,14.929
2970,95.04,-0.6627,7.9870,0.0497,-0.0138,-0.0142,-3.0630,rough,15.5,2,14.790
2980,95.36,-1.0181,7.9491,0.0587,-0.0165,-0.0187,-2.7808,rough,15.5,2,14.586
2990,95.68,-1.3632,7.8011,0.0660,-0.0210,-0.0203,-2.5725,rough,15.5,2,14.295
3000,96.00,-1.6888,7.5637,0.0754,-0.0224,-0.0221,-2.3876,rough,15.5,2,13.936
3010,96.32,-2.0291,7.2534,0.0870,-0.0211,-0.0269,-2.3731,rough,15.5,2,13.508
3020,96.64,-2.3674,6.9127,0.1003,-0.0256,-0.0303,-2.3275,rough,15.5,2,13.055
3030,96.96,-2.6926,6.5564,0.1159,-0.0212,-0.0317,-2.2867,rough,15.5,2,12.595
3040,97.28,-3.0045,6.1857,0.1313,-0.0206,-0.0313,-2.2515,rough,15.5,2,12.129
3050,97.60,-3.3047,5.8036,0.1461,-0.0199,-0.0288,-2.2202,rough,15.5,2,11.659
3060,97.92,-3.5932,5.4131,0.1589,-0.0188,-0.0242,-2.1920,rough,15.5,2,11.187
3070,98.24,-3.8715,5.0172,0.1697,-0.0171,-0.0210,-2.1666,rough,15.5,2,10.715
3080,98.56,-4.1393,4.6106,0.1754,-0.0138,-0.0209,-2.1378,rough,15.5,2,10.238
3090,98.88,-4.3993,4.1933,0.1798,-0.0163,-0.0022,-2.1193,rough,15.5,2,9.755
3100,99.20,-4.6526,3.7733,0.1809,-0.0072,0.0054,-2.0982,rough,15.5,2,9.273
3110,99.52,-4.8969,3.3493,0.1774,-0.0004,0.0099,-2.0818,rough,15.5,2,8.790
3120,99.84,-5.1338,2.9176,0.1704,0.0021,0.0172,-2.0655,rough,15.5,2,8.304
3130,100.16,-5.3650,2.4846,0.1604,0.0104,0.0257,-2.0508,rough,15.5,2,7.819
3140,100.48,-5.5888,2.0454,0.1480,0.0131,0.0277,-2.0365,rough,15.5,2,7.332
3150,100.80,-5.8067,1.6026,0.1340,0.0182,0.0307,-2.0227,rough,15.5,2,6.843
3160,101.12,-6.0183,1.1576,0.1197,0.0223,0.0285,-2.0094,rough,15.5,2,6.355
3170,101.44,-6.2238,0.7102,0.1061,0.0259,0.0270,-1.9960,rough,15.5,2,5.867
3180,101.76,-6.4233,0.2608,0.0942,0.0289,0.0225,-1.9807,rough,15.5,2,5.380
3190,102.08,-6.6160,-0.1908,0.0850,0.0326,0.0175,-1.9650,rough,15.5,2,4.893
3200,102.40,-6.8017,-0.6440,0.0792,0.0329,0.0088,-1.9474,rough,15.5,2,4.408
3210,102.72,-6.9783,-1.0994,0.0764,0.0256,-0.0017,-1.9297,rough,15.5,2,3.923
3220,103.04,-7.1487,-1.5554,0.0801,0.0316,-0.0098,-1.9099,rough,15.5,2,3.441
3230,103.36,-7.3081,-2.0160,0.0881,0.0306,-0.0215,-1.8879,rough,15.5,2,2.957
3240,103.68,-7.4567,-2.4807,0.0992,0.0223,-0.0338,-1.8601,rough,15.5,2,2.473
3250,104.00,-7.5933,-2.9475,0.1165,0.0236,-0.0387,-1.8330,rough,15.5,2,1.990
3260,104.32,-7.7142,-3.4173,0.1365,0.0196,-0.0473,-1.7969,rough,15.5,2,1.508
3270,104.64,-7.8182,-3.8899,0.1596,0.0124,-0.0518,-1.7390,rough,15.5,2,1.027
3280,104.96,-7.8980,-4.3528,0.1835,0.0072,-0.0504,-1.7465,rough,15.5,0,13.244
3290,105.28,-7.9574,-4.6746,0.2005,-0.0091,-0.0520,-1.4588,rough,15.5,0,13.303
3300,105.60,-7.9021,-4.9999,0.2169,-0.0209,-0.0472,-1.2309,rough,15.5,0,13.256
3310,105.92,-7.7517,-5.3390,0.2324,-0.0292,-0.0367,-1.0775,rough,15.5,0,13.122
3320,106.24,-7.5404,-5.6778,0.2450,-0.0356,-0.0247,-0.9196,rough,15.5,0,12.937
3330,106.56,-7.2706,-5.9914,0.2532,-0.0379,-0.0121,-0.7669,rough,15.5,0,12.701
3340,106.88,-6.9384,-6.2759,0.2555,-0.0393,0.0007,-0.6409,rough,15.5,0,12.408
3350,107.20,-6.5620,-6.5245,0.2511,-0.0272,0.0057,-0.5304,rough,15.5,0,12.074
3360,107.52,-6.1469,-6.7353,0.2430,-0.0429,0.0215,-0.4373,rough,15.5,0,11.703
3370,107.84,-5.7060,-6.9192,0.2331,-0.0249,0.0292,-0.3631,rough,15.5,0,11.308
3380,108.16,-5.2581,-7.0665,0.2178,-0.0161,0.0335,-0.2813,rough,15.5,0,10.904
3390,108.48,-4.7882,-7.1847,0.1996,-0.0171,0.0388,-0.2289,rough,15.5,0,10.477
3400,108.80,-4.3158,-7.2871,0.1812,-0.0058,0.0419,-0.1624,rough,15.5,0,10.049
3410,109.12,-3.8516,-7.3324,0.1619,0.0009,0.0425,-0.0694,rough,15.5,0,9.617
3420,109.44,-3.3789,-7.3560,0.1424,0.0057,0.0418,-0.0119,rough,15.5,0,9.173
3430,109.76,-2.9376,-7.3608,0.1249,0.0148,0.0386,0.1459,rough,15.5,0,8.756
3440,110.08,-2.5371,-7.2902,0.1108,0.0263,0.0309,0.3820,rough,15.5,0,8.354
3450,110.40,-2.1490,-7.1146,0.0995,0.0313,0.0180,0.5623,rough,15.5,0,7.930
3460,110.72,-1.7992,-6.8693,0.0933,0.0350,0.0070,0.7405,rough,15.5,0,7.520
3470,111.04,-1.4855,-6.5739,0.0923,0.0366,-0.0012,0.7642,rough,15.5,0,7.132
3480,111.36,-1.1346,-6.2615,0.0949,0.0374,-0.0085,0.6865,rough,15.5,0,6.709
3490,111.68,-0.8797,-6.2301,0.0919,0.0356,-0.0213,0.9238,rough,15.5,0,6.455
3500,112.00,-0.6125,-5.9998,0.0967,0.0364,-0.0235,0.8652,rough,15.5,0,6.138
3510,112.32,-0.3277,-5.6788,0.1230,0.0382,-0.1258,0.7589,rough,15.5,0,5.789
3520,112.64,-0.0206,-5.3627,0.1644,-0.0815,-0.1662,0.6765,rough,15.5,0,5.431
3530,112.96,0.2960,-5.0996,0.2634,-0.0982,-0.3077,0.6118,rough,15.5,0,5.082
3540,113.28,0.6441,-4.8456,0.3879,-0.1415,-0.3195,0.5507,rough,15.5,0,4.712
3550,113.60,1.0137,-4.6251,0.5295,-0.1194,-0.3172,0.4782,rough,15.5,0,4.332
3560,113.92,1.3935,-4.4310,0.6751,-0.1045,-0.3324,0.4207,rough,15.5,0,3.952
3570,114.24,1.7800,-4.2595,0.8206,-0.0960,-0.3409,0.3646,rough,15.5,0,3.574
3580,114.56,2.1728,-4.1110,0.9682,-0.0875,-0.3435,0.3122,rough,15.5,0,3.198
3590,114.88,2.5854,-3.9886,1.1199,-0.0592,-0.3276,0.2289,rough,15.5,0,2.810
3600,115.20,2.9847,-3.8994,1.2742,-0.0434,-0.3538,0.1816,rough,15.5,0,2.440
3610,115.52,3.3767,-3.8279,1.4220,-0.0319,-0.3565,0.1476,rough,15.5,0,2.086
3620,115.84,3.7560,-3.7730,1.5641,-0.0186,-0.3548,0.1096,rough,15.5,0,1.756
3630,116.16,4.1149,-3.7345,1.6975,-0.0065,-0.3541,0.0739,rough,15.5,0,1.459
3640,116.48,4.4438,-3.7105,1.8181,0.0032,-0.3492,0.0426,rough,15.5,0,1.211
3650,116.80,4.7325,-3.6979,1.9232,0.0091,-0.3487,0.0193,rough,15.5,0,1.025
3660,117.12,4.9749,-3.6928,2.0108,0.0126,-0.3469,0.0058,rough,15.5,0,0.906
3670,117.44,5.1724,-3.6908,2.0818,0.0113,-0.3472,-0.0011,rough,15.5,0,0.847
3680,117.76,5.3342,-3.6909,2.1401,0.0116,-0.3464,-0.0031,rough,15.5,0,0.830
3690,118.08,5.4839,-3.6911,2.1937,0.0104,-0.3466,-0.0038,rough,15.5,0,0.841
3700,118.40,5.6264,-3.6909,2.2448,0.0063,-0.3473,-0.0042,rough,15.5,0,0.876
3710,118.72,5.7627,-3.6913,2.2936,0.0044,-0.3472,-0.0032,rough,15.5,0,0.928
3720,119.04,5.8939,-3.6917,2.3409,0.0028,-0.3459,-0.0019,rough,15.5,0,0.994
3730,119.36,6.0208,-3.6914,2.3861,-0.0005,-0.3457,-0.0016,rough,15.5,0,1.070
3740,119.68,6.1436,-3.6911,2.4302,-0.0040,-0.3485,-0.0017,rough,15.5,0,1.152
3750,120.00,6.2629,-3.6913,2.4732,-0.0059,-0.3494,-0.0001,rough,15.5,0,1.237
3760,120.32,6.3792,-3.6912,2.5154,-0.0076,-0.3491,0.0016,rough,15.5,0,1.326
3770,120.64,6.4935,-3.6905,2.5564,-0.0112,-0.3485,0.0020,rough,15.5,0,1.417
3780,120.96,6.6051,-3.6897,2.5967,-0.0150,-0.3510,0.0020,rough,15.5,0,1.510
3790,121.28,6.7147,-3.6890,2.6363,-0.0183,-0.3530,0.0021,rough,15.5,0,1.603
3800,121.60,6.8213,-3.6891,2.6754,-0.0194,-0.3547,0.0053,rough,15.5,0,1.695
3810,121.92,6.9274,-3.6882,2.7142,-0.0230,-0.3529,0.0064,rough,15.5,0,1.788
3820,122.24,7.0320,-3.6869,2.7520,-0.0269,-0.3531,0.0067,rough,15.5,0,1.882
3830,122.56,7.1338,-3.6854,2.7896,-0.0236,-0.3570,-0.0181,rough,15.5,0,1.974
3840,122.88,7.2341,-3.6887,2.8266,-0.0202,-0.3590,-0.0373,rough,15.5,0,2.064
3850,123.20,7.3270,-3.6986,2.8592,-0.0030,-0.3557,-0.0823,rough,15.5,0,2.146
3860,123.52,7.4220,-3.7072,2.8979,-0.0011,-0.3710,-0.0890,rough,15.5,0,2.231
3870,123.84,7.5314,-3.7196,2.9379,-0.0017,-0.3623,-0.1118,rough,15.5,0,2.329
3880,124.16,7.6252,-3.7307,2.9848,0.0042,-0.4378,-0.1421,rough,15.5,0,2.413
3890,124.48,7.6985,-3.7551,3.0423,0.0366,-0.6474,-0.2484,rough,15.5,0,2.475
3900,124.80,7.7541,-3.7724,3.0879,0.0525,-0.8391,-0.2662,rough,15.5,0,2.523
3910,125.12,7.7700,-3.7767,3.0994,0.0434,-0.8943,-0.2540,rough,15.5,0,2.537
3920,125.44,7.7699,-3.7734,3.1000,0.0513,-0.9043,-0.2746,rough,15.5,0,2.538
3930,125.76,7.7692,-3.7746,3.0977,0.0475,-0.8753,-0.2562,rough,15.5,0,2.537
3940,126.08,7.7707,-3.7767,3.1018,0.0449,-0.9249,-0.2660,rough,15.5,0,2.537
3950,126.40,7.7684,-3.7877,3.1020,0.0495,-0.9228,-0.2681,rough,15.5,0,2.532
3960,126.72,7.7622,-3.7956,3.1003,0.0616,-0.9241,-0.2973,rough,15.5,0,2.524
3970,127.04,7.7557,-3.8022,3.1013,0.0705,-0.9511,-0.3065,rough,15.5,0,2.516
3980,127.36,7.7605,-3.8184,3.1028,0.0536,-0.9516,-0.2878,rough,15.5,0,2.516
3990,127.68,7.7411,-3.8448,3.0990,0.1172,-0.9600,-0.4208,rough,15.5,0,2.490
4000,128.00,7.7471,-3.8704,3.1056,0.0870,-0.9931,-0.3456,rough,15.5,0,2.489
4010,128.32,7.7278,-3.8789,3.1010,0.1091,-1.0505,-0.4139,rough,15.5,0,2.468
4020,128.64,7.6698,-3.9272,3.0948,0.3729,-1.2309,-0.8144,rough,15.5,0,2.400
4030,128.96,7.5503,-3.9277,3.0512,2.1301,-1.1637,-3.0385,rough,15.5,0,2.284
4040,129.28,7.4759,-3.8231,2.7956,2.7796,-0.0454,1.8679,rough,15.5,0,2.242
4050,129.60,7.4442,-3.8881,2.7383,2.8854,0.2738,2.1979,rough,15.5,0,2.193
4060,129.92,7.3921,-3.9096,2.7222,3.0922,0.3617,2.8848,rough,15.5,0,2.137
4070,130.24,7.1620,-3.8739,2.6354,3.0157,0.3428,2.6916,rough,15.5,0,1.929
4080,130.56,6.8916,-3.8300,2.5330,3.0098,0.3301,2.7009,rough,15.5,0,1.694
4090,130.88,6.6665,-3.7477,2.4492,2.9515,0.2944,2.5040,rough,15.5,0,1.531
4100,131.20,6.4609,-3.7313,2.3746,2.9333,0.2806,2.4551,rough,15.5,0,1.367
4110,131.52,6.3127,-3.7275,2.3212,2.8766,0.2264,2.2404,rough,15.5,0,1.251
4120,131.84,6.1231,-3.7179,2.2525,2.8741,0.2217,2.2408,rough,15.5,0,1.118
4130,132.16,5.9295,-3.7012,2.1832,2.8685,0.2137,2.2172,rough,15.5,0,1.006
4140,132.48,5.7550,-3.6995,2.1207,2.8210,0.1340,1.9713,rough,15.5,0,0.918
4150,132.80,5.6095,-3.7055,2.0685,2.8286,0.1448,1.9952,rough,15.5,0,0.857
4160,133.12,5.4555,-3.7198,2.0135,2.8038,0.0695,1.7887,rough,15.5,0,0.808
4170,133.44,5.4278,-3.9009,2.0006,2.8023,0.0447,1.7309,rough,15.5,1,12.233
4180,133.76,5.4850,-4.2608,2.0193,2.8463,0.1952,2.1655,rough,15.5,1,12.589
4190,134.08,5.6293,-4.4746,2.0716,2.9790,0.3252,2.6843,rough,15.5,1,12.841
4200,134.40,5.8088,-4.6070,2.1378,-2.9504,0.3057,-2.5797,rough,15.5,1,13.029
4210,134.72,5.7855,-4.6084,2.1298,-2.8629,0.2338,-2.2479,rough,15.5,1,13.022
4220,135.04,5.6561,-4.6130,2.0810,-2.8593,0.2278,-2.2185,rough,15.5,1,12.979
4230,135.36,5.4970,-4.6256,2.0212,-2.8534,0.2189,-2.1814,rough,15.5,1,12.935
4240,135.68,5.3781,-4.6477,1.9762,-2.8543,0.2203,-2.1803,rough,15.5,1,12.915
4250,136.00,5.2426,-4.6843,1.9245,-2.8560,0.2220,-2.1846,rough,15.5,1,12.905
4260,136.32,5.0729,-4.7418,1.8601,-2.8396,0.2000,-2.0953,rough,15.5,1,12.905
4270,136.64,4.9001,-4.8156,1.7939,-2.8392,0.1998,-2.0843,rough,15.5,1,12.922
4280,136.96,4.7760,-4.9104,1.7452,-2.8449,0.2104,-2.1145,rough,15.5,1,12.976
4290,137.28,4.6881,-5.0264,1.7096,-2.8489,0.2191,-2.1377,rough,15.5,1,13.062
4300,137.60,4.5729,-5.1642,1.6626,-2.8350,0.2009,-2.0714,rough,15.5,1,13.163
4310,137.92,4.4220,-5.3162,1.6013,-2.8407,0.2112,-2.0965,rough,15.5,1,13.270
4320,138.24,4.3146,-5.4884,1.5557,-2.8358,0.2079,-2.0793,rough,15.5,1,13.410
4330,138.56,4.2527,-5.6835,1.5269,-2.8253,0.1944,-2.0392,rough,15.5,1,13.584
4340,138.88,4.1483,-5.8744,1.4817,-2.8285,0.2023,-2.0609,rough,15.5,1,13.745
4350,139.20,4.0490,-6.0717,1.4379,-2.8094,0.1718,-1.9649,rough,15.5,1,13.915
4360,139.52,3.9698,-6.2817,1.4017,-2.8139,0.1830,-1.9988,rough,15.5,1,14.104
4370,139.84,3.8980,-6.4927,1.3685,-2.8123,0.1815,-1.9986,rough,15.5,1,14.295
4380,140.16,3.8263,-6.7141,1.3355,-2.8028,0.1661,-1.9561,rough,15.5,1,14.498
4390,140.48,3.7515,-6.9365,1.3017,-2.8046,0.1706,-1.9739,rough,15.5,1,14.703
4400,140.80,3.6436,-7.1389,1.2553,-2.7985,0.1577,-1.9394,rough,15.5,1,14.882
4410,141.12,3.5830,-7.3565,1.2281,-2.7960,0.1527,-1.9349,rough,15.5,1,15.086
4420,141.44,3.5133,-7.5864,1.1977,-2.7919,0.1427,-1.9157,rough,15.5,1,15.301
4430,141.76,3.4556,-7.8258,1.1730,-2.7906,0.1426,-1.9219,rough,15.5,1,15.528
4440,142.08,3.3621,-8.0694,1.1349,-2.7887,0.1327,-1.9117,rough,15.5,1,15.754
4450,142.40,3.2824,-8.3113,1.1035,-2.7797,0.1042,-1.8404,rough,15.5,1,15.982
4460,142.72,3.2055,-8.5270,1.0740,-2.7854,0.1154,-1.8869,rough,15.5,1,16.185
4470,143.04,3.1067,-8.7347,1.0369,-2.7834,0.1078,-1.8711,rough,15.5,1,16.378
4480,143.36,3.0729,-8.9285,1.0258,-2.7852,0.1089,-1.8885,rough,15.5,1,16.566
4490,143.68,2.9751,-9.0947,0.9904,-2.7745,0.0606,-1.7706,rough,15.5,1,16.719
4500,144.00,2.8655,-9.2302,0.9506,-2.7760,0.0623,-1.7795,rough,15.5,1,16.842
4510,144.32,2.7982,-9.3436,0.9270,-2.7800,0.0749,-1.8219,rough,15.5,1,16.947
4520,144.64,2.7423,-9.4328,0.9073,-2.7865,0.0956,-1.8864,rough,15.5,1,17.030
4530,144.96,2.6647,-9.4978,0.8791,-2.7835,0.0781,-1.8440,rough,15.5,1,17.087
4540,145.28,2.5732,-9.5369,0.8449,-2.7811,0.0623,-1.8063,rough,15.5,1,17.117
4550,145.60,2.4883,-9.5504,0.8130,-2.7771,0.0362,-1.7390,rough,15.5,1,17.123
4560,145.92,2.3797,-9.5368,0.7715,-2.7836,0.0723,-1.8368,rough,15.5,1,17.101
4570,146.24,2.2954,-9.4963,0.7384,-2.7839,0.0661,-1.8205,rough,15.5,1,17.054
4580,146.56,2.2415,-9.4296,0.7162,-2.7813,0.0448,-1.7588,rough,15.5,1,16.983
4590,146.88,2.1993,-9.3371,0.6977,-2.7874,0.0824,-1.8498,rough,15.5,1,16.888
4600,147.20,2.1441,-9.2198,0.6742,-2.7838,0.0608,-1.7837,rough,15.5,1,16.767
4610,147.52,2.0568,-9.0819,0.6382,-2.7860,0.0665,-1.8000,rough,15.5,1,16.624
4620,147.84,2.0157,-8.9248,0.6201,-2.7870,0.0720,-1.8052,rough,15.5,1,16.465
4630,148.16,1.9881,-8.7522,0.6070,-2.7853,0.0714,-1.7861,rough,15.5,1,16.291
4640,148.48,1.8897,-8.5903,0.5686,-2.7947,0.1034,-1.8754,rough,15.5,1,16.124
4650,148.80,1.8154,-8.4462,0.5398,-2.7870,0.0627,-1.7561,rough,15.5,1,15.976
4660,149.12,1.7849,-8.2993,0.5277,-2.7894,0.0760,-1.7767,rough,15.5,1,15.828
4670,149.44,1.7224,-8.1497,0.5040,-2.7913,0.0767,-1.7686,rough,15.5,1,15.675
4680,149.76,1.6483,-8.0028,0.4768,-2.7944,0.0846,-1.7891,rough,15.5,1,15.525
4690,150.08,1.6299,-7.8624,0.4710,-2.7935,0.0803,-1.7655,rough,15.5,1,15.384
4700,150.40,1.5964,-7.7297,0.4596,-2.7958,0.0946,-1.7901,rough,15.5,1,15.250
4710,150.72,1.5480,-7.6081,0.4431,-2.7974,0.0941,-1.7876,rough,15.5,1,15.127
4720,151.04,1.5093,-7.5011,0.4304,-2.7949,0.0813,-1.7508,rough,15.5,1,15.019
4730,151.36,1.4963,-7.4128,0.4272,-2.7932,0.0737,-1.7228,rough,15.5,1,14.930
4740,151.68,1.4661,-7.3439,0.4174,-2.7947,0.0828,-1.7407,rough,15.5,1,14.860
4750,152.00,1.4332,-7.2943,0.4062,-2.7939,0.0783,-1.7245,rough,15.5,1,14.810
4760,152.32,1.3964,-7.2639,0.3932,-2.7950,0.0819,-1.7321,rough,15.5,1,14.778
4770,152.64,1.3762,-7.2531,0.3860,-2.7941,0.0767,-1.7170,rough,15.5,1,14.767
4780,152.96,1.3379,-7.2618,0.3718,-2.7943,0.0743,-1.7109,rough,15.5,1,14.775
4790,153.28,1.3072,-7.2901,0.3599,-2.7989,0.0919,-1.7631,rough,15.5,1,14.803
4800,153.60,1.2837,-7.3382,0.3501,-2.8030,0.1045,-1.8034,rough,15.5,1,14.850
4810,153.92,1.2559,-7.4058,0.3387,-2.7983,0.0827,-1.7487,rough,15.5,1,14.918
4820,154.24,1.2253,-7.4930,0.3258,-2.7970,0.0747,-1.7334,rough,15.5,1,15.004
4830,154.56,1.1549,-7.5969,0.2982,-2.7973,0.0726,-1.7294,rough,15.5,1,15.107
4840,154.88,1.0927,-7.7155,0.2738,-2.7995,0.0823,-1.7588,rough,15.5,1,15.225
4850,155.20,1.0773,-7.8446,0.2669,-2.7952,0.0546,-1.6947,rough,15.5,1,15.355
4860,155.52,1.0570,-7.9822,0.2583,-2.7969,0.0604,-1.7256,rough,15.5,1,15.492
4870,155.84,1.0116,-8.1254,0.2412,-2.7965,0.0602,-1.7291,rough,15.5,1,15.635
4880,156.16,0.9743,-8.2701,0.2275,-2.7970,0.0701,-1.7611,rough,15.5,1,15.780
4890,156.48,0.9544,-8.4115,0.2208,-2.7956,0.0533,-1.7317,rough,15.5,1,15.921
4900,156.80,0.8956,-8.5479,0.2001,-2.7973,0.0616,-1.7674,rough,15.5,1,16.058
4910,157.12,0.8395,-8.6750,0.1812,-2.7937,0.0249,-1.6651,rough,15.5,1,16.186
4920,157.44,0.8124,-8.7906,0.1728,-2.7949,0.0395,-1.7136,rough,15.5,1,16.302
4930,157.76,0.7962,-8.8912,0.1685,-2.7945,0.0272,-1.6904,rough,15.5,1,16.403
4940,158.08,0.7840,-8.8624,0.1634,-2.7990,0.0616,-1.7836,rough,15.5,1,16.374
4950,158.40,0.7483,-8.8003,0.1497,-2.8003,0.0687,-1.7960,rough,15.5,1,16.312
4960,158.72,0.7052,-8.7234,0.1331,-2.8046,0.0847,-1.8365,rough,15.5,1,16.236
4970,159.04,0.6158,-8.6351,0.0998,-2.8054,0.0797,-1.8186,rough,15.5,1,16.150
4980,159.36,0.5409,-8.5375,0.0718,-2.8005,0.0476,-1.7295,rough,15.5,1,16.054
4990,159.68,0.5120,-8.4336,0.0612,-2.8041,0.0676,-1.7768,rough,15.5,1,15.951
5000,160.00,0.4864,-8.3254,0.0514,-2.8090,0.0949,-1.8414,rough,15.5,1,15.844
5010,160.32,0.4554,-8.2148,0.0409,-2.8073,0.0799,-1.8049,rough,15.5,1,15.735
5020,160.64,0.3651,-8.1126,0.0172,-2.8212,0.0331,-1.7535,rough,15.5,1,15.636
5030,160.96,0.2782,-8.0293,-0.0053,-2.8598,0.0331,-1.7641,rough,15.5,1,15.557
5040,161.28,0.1945,-7.9609,-0.0272,-2.9040,0.0399,-1.7526,rough,15.5,1,15.493
5050,161.60,0.1195,-7.9103,-0.0472,-2.9366,0.0243,-1.6713,rough,15.5,1,15.446
5060,161.92,0.0595,-7.8732,-0.0626,-2.9647,0.0295,-1.6843,rough,15.5,1,15.413
5070,162.24,0.0321,-7.8353,-0.0700,-2.9792,0.0249,-1.6593,rough,15.5,1,15.377
5080,162.56,0.0310,-7.7656,-0.0689,-2.9766,0.0349,-1.7075,rough,15.5,1,15.307
5090,162.88,0.0142,-7.6982,-0.0711,-2.9763,0.0356,-1.7004,rough,15.5,1,15.241
5100,163.20,0.0043,-7.6426,-0.0719,-2.9759,0.0328,-1.6808,rough,15.5,1,15.186
5110,163.52,0.0043,-7.6013,-0.0713,-2.9759,0.0328,-1.6806,rough,15.5,1,15.145
5120,163.84,0.0043,-7.5743,-0.0709,-2.9758,0.0328,-1.6807,rough,15.5,1,15.118
5130,164.16,0.0042,-7.5615,-0.0708,-2.9758,0.0328,-1.6809,rough,15.5,1,15.105
5140,164.48,0.0042,-7.5631,-0.0708,-2.9758,0.0328,-1.6811,rough,15.5,1,15.107
5150,164.80,0.0042,-7.5788,-0.0710,-2.9759,0.0329,-1.6813,rough,15.5,1,15.123
5160,165.12,0.0041,-7.6089,-0.0714,-2.9759,0.0329,-1.6815,rough,15.5,1,15.153
5170,165.44,0.0041,-7.6532,-0.0721,-2.9759,0.0329,-1.6817,rough,15.5,1,15.197
5180,165.76,0.0041,-7.7113,-0.0728,-2.9755,0.0323,-1.6818,rough,15.5,1,15.255
5190,166.08,0.0040,-7.7790,-0.0734,-2.9754,0.0299,-1.6818,rough,15.5,1,15.322
5200,166.40,0.0040,-7.8550,-0.0741,-2.9754,0.0270,-1.6819,rough,15.5,1,15.398
5210,166.72,0.0040,-7.9394,-0.0748,-2.9755,0.0238,-1.6820,rough,15.5,1,15.482
5220,167.04,-0.0065,-8.0312,-0.0772,-2.9747,0.0200,-1.6736,rough,15.5,1,15.575
5230,167.36,-0.0215,-8.1265,-0.0800,-2.9741,0.0138,-1.6365,rough,15.5,1,15.671
5240,167.68,-0.0285,-8.2242,-0.0813,-2.9738,0.0139,-1.6402,rough,15.5,1,15.769
5250,168.00,-0.0285,-8.3201,-0.0810,-2.9738,0.0101,-1.6406,rough,15.5,1,15.865
5260,168.32,-0.0285,-8.4129,-0.0807,-2.9738,0.0066,-1.6407,rough,15.5,1,15.957
5270,168.64,-0.0416,-8.5023,-0.0827,-2.9737,0.0029,-1.6394,rough,15.5,1,16.047
5280,168.96,-0.0427,-8.5560,-0.0823,-2.9731,-0.0014,-1.6187,rough,15.5,1,16.101
5290,169.28,-0.0629,-8.4183,-0.0820,-2.9934,0.0415,-2.0564,rough,15.5,1,15.965
5300,169.60,-0.1612,-8.4144,-0.0891,-3.0259,0.0293,-2.3644,rough,15.5,1,15.968
5310,169.92,-0.3042,-8.4096,-0.0996,-3.0766,0.0085,-2.1689,rough,15.5,1,15.974
5320,170.24,-0.4597,-8.4121,-0.1111,3.1389,0.0053,-2.2645,rough,15.5,1,15.990
5330,170.56,-0.5239,-8.4338,-0.1137,3.1266,-0.0144,-2.1300,rough,15.5,1,16.018
5340,170.88,-0.5210,-8.4500,-0.1137,3.1280,-0.0152,-2.1697,rough,15.5,1,16.034
5350,171.20,-0.5164,-8.4609,-0.1137,3.1316,-0.0161,-2.3244,rough,15.5,1,16.044
5360,171.52,-0.5142,-8.4679,-0.1137,3.1300,-0.0155,-2.2237,rough,15.5,1,16.051
5370,171.84,-0.5125,-8.4713,-0.1139,3.1290,-0.0153,-2.1716,rough,15.5,1,16.054
5380,172.16,-0.5092,-8.4691,-0.1138,3.1317,-0.0158,-2.2992,rough,15.5,1,16.052
5390,172.48,-0.5094,-8.4623,-0.1138,3.1318,-0.0158,-2.3136,rough,15.5,1,16.045
5400,172.80,-0.5098,-8.4581,-0.1138,3.1300,-0.0154,-2.2274,rough,15.5,1,16.041
5410,173.12,-0.5101,-8.4572,-0.1138,3.1312,-0.0159,-2.2959,rough,15.5,1,16.040
5420,173.44,-0.5097,-8.4549,-0.1138,3.1312,-0.0158,-2.2964,rough,15.5,1,16.038
5430,173.76,-0.5080,-8.4492,-0.1139,3.1315,-0.0154,-2.3034,rough,15.5,1,16.032
5440,174.08,-0.5101,-8.4428,-0.1140,3.1311,-0.0155,-2.3002,rough,15.5,1,16.026
5450,174.40,-0.5081,-8.4334,-0.1141,3.1279,-0.0136,-2.1114,rough,15.5,1,16.016
5460,174.72,-0.5066,-8.4149,-0.1140,3.1293,-0.0131,-2.1814,rough,15.5,1,15.998
5470,175.04,-0.5062,-8.3904,-0.1143,3.1278,-0.0125,-2.1262,rough,15.5,1,15.973
5480,175.36,-0.5053,-8.3663,-0.1142,3.1292,-0.0127,-2.2209,rough,15.5,1,15.949
5490,175.68,-0.5055,-8.3424,-0.1144,3.1285,-0.0112,-2.1666,rough,15.5,1,15.925
5500,176.00,-0.5060,-8.3158,-0.1145,3.1276,-0.0107,-2.1441,rough,15.5,1,15.899
5510,176.32,-0.5066,-8.2877,-0.1145,3.1272,-0.0109,-2.1647,rough,15.5,1,15.871
5520,176.64,-0.5086,-8.2821,-0.1144,3.1277,-0.0121,-2.2308,rough,15.5,1,15.866
5530,176.96,-0.5084,-8.2736,-0.1145,3.1270,-0.0109,-2.1728,rough,15.5,1,15.857
5540,177.28,-0.5088,-8.2632,-0.1143,3.1276,-0.0120,-2.2454,rough,15.5,1,15.847
5550,177.60,-0.5090,-8.2522,-0.1143,3.1263,-0.0101,-2.1444,rough,15.5,1,15.836
5560,177.92,-0.5093,-8.2429,-0.1143,3.1262,-0.0107,-2.1521,rough,15.5,1,15.827
5570,178.24,-0.5098,-8.2386,-0.1144,3.1262,-0.0099,-2.1505,rough,15.5,1,15.822
5580,178.56,-0.5097,-8.2344,-0.1144,3.1260,-0.0097,-2.1495,rough,15.5,1,15.818
5590,178.88,-0.5122,-8.2314,-0.1144,3.1253,-0.0097,-2.1355,rough,15.5,1,15.816
5600,179.20,-0.5101,-8.2269,-0.1146,3.1258,-0.0103,-2.1619,rough,15.5,1,15.811
5610,179.52,-0.5110,-8.2240,-0.1147,3.1262,-0.0112,-2.2083,rough,15.5,1,15.808
5620,179.84,-0.5121,-8.2207,-0.1145,3.1255,-0.0101,-2.1514,rough,15.5,1,15.805
5630,180.16,-0.5114,-8.2189,-0.1146,3.1261,-0.0111,-2.2059,rough,15.5,1,15.803
5640,180.48,-0.5118,-8.2164,-0.1148,3.1257,-0.0109,-2.1802,rough,15.5,1,15.800
5650,180.80,-0.5112,-8.2145,-0.1145,3.1270,-0.0109,-2.2692,rough,15.5,1,15.799
5660,181.12,-0.5118,-8.2132,-0.1144,3.1253,-0.0101,-2.1504,rough,15.5,1,15.797
5670,181.44,-0.5118,-8.2119,-0.1146,3.1260,-0.0108,-2.1928,rough,15.5,1,15.796
5680,181.76,-0.5115,-8.2109,-0.1144,3.1270,-0.0117,-2.2819,rough,15.5,1,15.795
5690,182.08,-0.5115,-8.2130,-0.1145,3.1257,-0.0105,-2.1805,rough,15.5,1,15.797
5700,182.40,-0.5112,-8.2160,-0.1145,3.1252,-0.0092,-2.1070,rough,15.5,1,15.800
5710,182.72,-0.5107,-8.2141,-0.1147,3.1257,-0.0104,-2.1684,rough,15.5,1,15.798
5720,183.04,-0.5113,-8.2121,-0.1147,3.1251,-0.0086,-2.0851,rough,15.5,1,15.796
5730,183.36,-0.5114,-8.2133,-0.1145,3.1252,-0.0095,-2.1230,rough,15.5,1,15.797
5740,183.68,-0.5108,-8.2115,-0.1146,3.1261,-0.0106,-2.1985,rough,15.5,1,15.796
5750,184.00,-0.5110,-8.2095,-0.1147,3.1255,-0.0099,-2.1512,rough,15.5,1,15.794
5760,184.32,-0.5123,-8.2090,-0.1145,3.1261,-0.0111,-2.2273,rough,15.5,1,15.793
5770,184.64,-0.5120,-8.2088,-0.1147,3.1264,-0.0110,-2.2253,rough,15.5,1,15.793
5780,184.96,-0.5114,-8.2072,-0.1146,3.1272,-0.0111,-2.2821,rough,15.5,1,15.791
5790,185.28,-0.5110,-8.2045,-0.1148,3.1255,-0.0102,-2.1601,rough,15.5,1,15.789
5800,185.60,-0.5114,-8.2025,-0.1146,3.1251,-0.0094,-2.1202,rough,15.5,1,15.787
5810,185.92,-0.5122,-8.2033,-0.1145,3.1267,-0.0114,-2.2591,rough,15.5,1,15.788
5820,186.24,-0.5119,-8.2077,-0.1145,3.1257,-0.0103,-2.1850,rough,15.5,1,15.792
5830,186.56,-0.5118,-8.2125,-0.1145,3.1256,-0.0101,-2.1647,rough,15.5,1,15.797
5840,186.88,-0.5116,-8.2144,-0.1148,3.1260,-0.0110,-2.1958,rough,15.5,1,15.799
5850,187.20,-0.5118,-8.2157,-0.1147,3.1261,-0.0111,-2.2008,rough,15.5,1,15.800
5860,187.52,-0.5119,-8.2144,-0.1145,3.1272,-0.0118,-2.2914,rough,15.5,1,15.799
5870,187.84,-0.5112,-8.2132,-0.1147,3.1255,-0.0106,-2.1675,rough,15.5,1,15.797
5880,188.16,-0.5115,-8.2119,-0.1147,3.1264,-0.0114,-2.2318,rough,15.5,1,15.796
5890,188.48,-0.5114,-8.2099,-0.1145,3.1256,-0.0105,-2.1815,rough,15.5,1,15.794
5900,188.80,-0.5122,-8.2114,-0.1145,3.1251,-0.0089,-2.1094,rough,15.5,1,15.796
5910,189.12,-0.5121,-8.2125,-0.1144,3.1264,-0.0114,-2.2497,rough,15.5,1,15.797
5920,189.44,-0.5112,-8.2118,-0.1145,3.1255,-0.0104,-2.1677,rough,15.5,1,15.796
5930,189.76,-0.5111,-8.2114,-0.1147,3.1262,-0.0112,-2.2148,rough,15.5,1,15.795
5940,190.08,-0.5109,-8.2104,-0.1145,3.1258,-0.0094,-2.1543,rough,15.5,1,15.794
5950,190.40,-0.5104,-8.2088,-0.1146,3.1262,-0.0105,-2.1997,rough,15.5,1,15.793
5960,190.72,-0.5114,-8.2079,-0.1147,3.1257,-0.0096,-2.1478,rough,15.5,1,15.792
5970,191.04,-0.5104,-8.2085,-0.1147,3.1256,-0.0095,-2.1386,rough,15.5,1,15.792
5980,191.36,-0.5125,-8.2133,-0.1145,3.1253,-0.0098,-2.1433,rough,15.5,1,15.797
5990,191.68,-0.5113,-8.2161,-0.1147,3.1260,-0.0106,-2.1841,rough,15.5,1,15.800
6000,192.00,-0.5118,-8.2184,-0.1145,3.1249,-0.0086,-2.0866,rough,15.5,1,15.802
6010,192.32,-0.5118,-8.2206,-0.1145,3.1256,-0.0099,-2.1492,rough,15.5,1,15.805
6020,192.64,-0.5109,-8.2233,-0.1146,3.1259,-0.0112,-2.1964,rough,15.5,1,15.807
6030,192.96,-0.5101,-8.2245,-0.1147,3.1256,-0.0090,-2.1043,rough,15.5,1,15.808
6040,193.28,-0.5114,-8.2258,-0.1144,3.1272,-0.0121,-2.3103,rough,15.5,1,15.810
6050,193.60,-0.5111,-8.2224,-0.1143,3.1271,-0.0117,-2.2953,rough,15.5,1,15.806
6060,193.92,-0.5111,-8.2187,-0.1143,3.1267,-0.0113,-2.2661,rough,15.5,1,15.803
6070,194.24,-0.5123,-8.2160,-0.1145,3.1261,-0.0107,-2.2144,rough,15.5,1,15.800
6080,194.56,-0.5113,-8.2154,-0.1145,3.1250,-0.0094,-2.1230,rough,15.5,1,15.799
6090,194.88,-0.5116,-8.2159,-0.1144,3.1249,-0.0095,-2.1225,rough,15.5,1,15.800
6100,195.20,-0.5115,-8.2185,-0.1147,3.1264,-0.0111,-2.2153,rough,15.5,1,15.803
6110,195.52,-0.5123,-8.2184,-0.1145,3.1255,-0.0102,-2.1572,rough,15.5,1,15.802
6120,195.84,-0.5113,-8.2168,-0.1146,3.1264,-0.0113,-2.2276,rough,15.5,1,15.801
6130,196.16,-0.5110,-8.2180,-0.1145,3.1258,-0.0102,-2.1709,rough,15.5,1,15.802
6140,196.48,-0.5109,-8.2167,-0.1147,3.1261,-0.0110,-2.2018,rough,15.5,1,15.801
6150,196.80,-0.5105,-8.2149,-0.1147,3.1256,-0.0095,-2.1282,rough,15.5,1,15.799
6160,197.12,-0.5110,-8.2156,-0.1145,3.1252,-0.0090,-2.1083,rough,15.5,1,15.800
6170,197.44,-0.5105,-8.2134,-0.1147,3.1257,-0.0103,-2.1690,rough,15.5,1,15.797
6180,197.76,-0.5113,-8.2115,-0.1147,3.1264,-0.0112,-2.2232,rough,15.5,1,15.796
6190,198.08,-0.5114,-8.2121,-0.1145,3.1257,-0.0102,-2.1700,rough,15.5,1,15.796
6200,198.40,-0.5118,-8.2148,-0.1145,3.1249,-0.0094,-2.1048,rough,15.5,1,15.799
6210,198.72,-0.5116,-8.2151,-0.1144,3.1262,-0.0113,-2.2310,rough,15.5,1,15.799
6220,199.04,-0.5119,-8.2196,-0.1145,3.1268,-0.0119,-2.2622,rough,15.5,1,15.804
6230,199.36,-0.5117,-8.2249,-0.1144,3.1270,-0.0121,-2.2820,rough,15.5,1,15.809
6240,199.68,-0.5120,-8.2316,-0.1145,3.1262,-0.0108,-2.1945,rough,15.5,1,15.816
6250,200.00,-0.5109,-8.2332,-0.1145,3.1259,-0.0106,-2.1684,rough,15.5,1,15.817
6260,200.32,-0.5107,-8.2307,-0.1145,3.1255,-0.0100,-2.1395,rough,15.5,1,15.815
6270,200.64,-0.5101,-8.2286,-0.1145,3.1269,-0.0117,-2.2515,rough,15.5,1,15.813
6280,200.96,-0.5104,-8.2284,-0.1148,3.1266,-0.0113,-2.2149,rough,15.5,1,15.812
6290,201.28,-0.5103,-8.2261,-0.1145,3.1263,-0.0106,-2.1915,rough,15.5,1,15.810
6300,201.60,-0.5113,-8.2218,-0.1148,3.1264,-0.0108,-2.1972,rough,15.5,1,15.806
6310,201.92,-0.5122,-8.2167,-0.1145,3.1275,-0.0119,-2.2976,rough,15.5,1,15.801
6320,202.24,-0.5119,-8.2150,-0.1145,3.1260,-0.0110,-2.2021,rough,15.5,1,15.799
6330,202.56,-0.5118,-8.2152,-0.1145,3.1252,-0.0092,-2.1162,rough,15.5,1,15.799
6340,202.88,-0.5116,-8.2158,-0.1144,3.1265,-0.0117,-2.2513,rough,15.5,1,15.800
6350,203.20,-0.5112,-8.2131,-0.1148,3.1254,-0.0103,-2.1520,rough,15.5,1,15.797
6360,203.52,-0.5107,-8.2118,-0.1147,3.1255,-0.0100,-2.1468,rough,15.5,1,15.796
6370,203.84,-0.5125,-8.2146,-0.1145,3.1254,-0.0102,-2.1552,rough,15.5,1,15.799
6380,204.16,-0.5127,-8.2173,-0.1143,3.1269,-0.0119,-2.2925,rough,15.5,1,15.801
6390,204.48,-0.5115,-8.2152,-0.1146,3.1260,-0.0109,-2.2007,rough,15.5,1,15.799
6400,204.80,-0.5117,-8.2136,-0.1145,3.1271,-0.0115,-2.2868,rough,15.5,1,15.798
6410,205.12,-0.5112,-8.2137,-0.1147,3.1255,-0.0104,-2.1608,rough,15.5,1,15.798
6420,205.44,-0.5114,-8.2133,-0.1147,3.1263,-0.0111,-2.2156,rough,15.5,1,15.797
6430,205.76,-0.5116,-8.2114,-0.1145,3.1257,-0.0101,-2.1732,rough,15.5,1,15.795
6440,206.08,-0.5108,-8.2095,-0.1145,3.1266,-0.0097,-2.2303,rough,15.5,1,15.794
6450,206.40,-0.5112,-8.2111,-0.1144,3.1273,-0.0120,-2.3079,rough,15.5,1,15.795
6460,206.72,-0.5111,-8.2119,-0.1148,3.1260,-0.0107,-2.1908,rough,15.5,1,15.796
6470,207.04,-0.5111,-8.2118,-0.1146,3.1251,-0.0090,-2.0960,rough,15.5,1,15.796
6480,207.36,-0.5125,-8.2146,-0.1144,3.1262,-0.0117,-2.2419,rough,15.5,1,15.799
6490,207.68,-0.5120,-8.2169,-0.1146,3.1249,-0.0099,-2.1165,rough,15.5,1,15.801
6500,208.00,-0.5120,-8.2191,-0.1145,3.1266,-0.0118,-2.2525,rough,15.5,1,15.803
6510,208.32,-0.5101,-8.2183,-0.1145,3.1274,-0.0108,-2.2754,rough,15.5,1,15.802
6520,208.64,-0.5090,-8.2163,-0.1145,3.1268,-0.0098,-2.1923,rough,15.5,1,15.800
6530,208.96,-0.5118,-8.2186,-0.1145,3.1262,-0.0090,-2.1545,rough,15.5,1,15.803
6540,209.28,-0.5102,-8.2200,-0.1145,3.1255,-0.0090,-2.1159,rough,15.5,1,15.804
6550,209.60,-0.5097,-8.2172,-0.1146,3.1260,-0.0096,-2.1525,rough,15.5,1,15.801
6560,209.92,-0.5098,-8.2165,-0.1144,3.1261,-0.0099,-2.1846,rough,15.5,1,15.800
6570,210.24,-0.5090,-8.2191,-0.1145,3.1263,-0.0107,-2.2047,rough,15.5,1,15.803
6580,210.56,-0.5104,-8.2163,-0.1144,3.1263,-0.0103,-2.1995,rough,15.5,1,15.800
6590,210.88,-0.5108,-8.2146,-0.1145,3.1252,-0.0089,-2.1126,rough,15.5,1,15.799
6600,211.20,-0.5119,-8.2188,-0.1143,3.1266,-0.0114,-2.2610,rough,15.5,1,15.803
6610,211.52,-0.5114,-8.2248,-0.1144,3.1270,-0.0112,-2.2790,rough,15.5,1,15.809
6620,211.84,-0.5102,-8.2229,-0.1145,3.1262,-0.0103,-2.1812,rough,15.5,1,15.807
6630,212.16,-0.5111,-8.2217,-0.1145,3.1257,-0.0098,-2.1486,rough,15.5,1,15.806
6640,212.48,-0.5111,-8.2212,-0.1146,3.1261,-0.0111,-2.2005,rough,15.5,1,15.805
6650,212.80,-0.5119,-8.2202,-0.1148,3.1259,-0.0111,-2.1902,rough,15.5,1,15.804
6660,213.12,-0.5118,-8.2177,-0.1148,3.1263,-0.0110,-2.2047,rough,15.5,1,15.802
6670,213.44,-0.5122,-8.2144,-0.1146,3.1256,-0.0101,-2.1582,rough,15.5,1,15.799
6680,213.76,-0.5113,-8.2127,-0.1146,3.1261,-0.0110,-2.2075,rough,15.5,1,15.797
6690,214.08,-0.5114,-8.2109,-0.1146,3.1254,-0.0097,-2.1309,rough,15.5,1,15.795
6700,214.40,-0.5114,-8.2104,-0.1145,3.1253,-0.0091,-2.1219,rough,15.5,1,15.794
6710,214.72,-0.5120,-8.2121,-0.1145,3.1259,-0.0108,-2.1963,rough,15.5,1,15.796
6720,215.04,-0.5116,-8.2134,-0.1144,3.1273,-0.0119,-2.2977,rough,15.5,1,15.797
6730,215.36,-0.5114,-8.2147,-0.1145,3.1258,-0.0108,-2.1885,rough,15.5,1,15.799
6740,215.68,-0.5119,-8.2161,-0.1146,3.1251,-0.0093,-2.1032,rough,15.5,1,15.800
6750,216.00,-0.5117,-8.2162,-0.1144,3.1263,-0.0114,-2.2361,rough,15.5,1,15.800
6760,216.32,-0.5114,-8.2181,-0.1145,3.1254,-0.0104,-2.1558,rough,15.5,1,15.802
6770,216.64,-0.5114,-8.2196,-0.1147,3.1259,-0.0108,-2.1817,rough,15.5,1,15.804
6780,216.96,-0.5119,-8.2192,-0.1145,3.1253,-0.0104,-2.1534,rough,15.5,1,15.803
6790,217.28,-0.5113,-8.2180,-0.1146,3.1251,-0.0095,-2.1141,rough,15.5,1,15.802
6800,217.60,-0.5122,-8.2179,-0.1143,3.1273,-0.0123,-2.3204,rough,15.5,1,15.802
6810,217.92,-0.5107,-8.2144,-0.1148,3.1256,-0.0102,-2.1570,rough,15.5,1,15.798
6820,218.24,-0.5129,-8.2126,-0.1145,3.1254,-0.0101,-2.1501,rough,15.5,1,15.797
6830,218.56,-0.5106,-8.2098,-0.1148,3.1255,-0.0100,-2.1471,rough,15.5,1,15.794
6840,218.88,-0.5112,-8.2077,-0.1148,3.1252,-0.0095,-2.1211,rough,15.5,1,15.792
6850,219.20,-0.5110,-8.2089,-0.1146,3.1262,-0.0108,-2.2138,rough,15.5,1,15.793
6860,219.52,-0.5113,-8.2080,-0.1145,3.1273,-0.0114,-2.2926,rough,15.5,1,15.792
6870,219.84,-0.5107,-8.2078,-0.1147,3.1254,-0.0098,-2.1429,rough,15.5,1,15.792
6880,220.16,-0.5111,-8.2084,-0.1147,3.1269,-0.0116,-2.2630,rough,15.5,1,15.792
6890,220.48,-0.5118,-8.2102,-0.1145,3.1262,-0.0108,-2.2208,rough,15.5,1,15.794
6900,220.80,-0.5097,-8.2124,-0.1146,3.1266,-0.0102,-2.2031,rough,15.5,1,15.796
6910,221.12,-0.5110,-8.2122,-0.1145,3.1274,-0.0114,-2.2912,rough,15.5,1,15.796
6920,221.44,-0.5117,-8.2110,-0.1145,3.1258,-0.0106,-2.1893,rough,15.5,1,15.795
6930,221.76,-0.5117,-8.2108,-0.1146,3.1256,-0.0102,-2.1593,rough,15.5,1,15.795
6940,222.08,-0.5106,-8.2108,-0.1146,3.1272,-0.0106,-2.2706,rough,15.5,1,15.795
6950,222.40,-0.5113,-8.2091,-0.1144,3.1256,-0.0097,-2.1525,rough,15.5,1,15.793
6960,222.72,-0.5120,-8.2077,-0.1147,3.1254,-0.0104,-2.1611,rough,15.5,1,15.792
6970,223.04,-0.5106,-8.2083,-0.1147,3.1263,-0.0104,-2.1998,rough,15.5,1,15.792
6980,223.36,-0.5114,-8.2107,-0.1145,3.1271,-0.0111,-2.2741,rough,15.5,1,15.795
6990,223.68,-0.5120,-8.2163,-0.1146,3.1262,-0.0113,-2.2220,rough,15.5,1,15.800
7000,224.00,-0.5115,-8.2235,-0.1145,3.1255,-0.0101,-2.1488,rough,15.5,1,15.808
7010,224.32,-0.5099,-8.2285,-0.1145,3.1255,-0.0089,-2.0986,rough,15.5,1,15.812
7020,224.64,-0.5093,-8.2259,-0.1145,3.1255,-0.0084,-2.0918,rough,15.5,1,15.810
7030,224.96,-0.5091,-8.2217,-0.1145,3.1253,-0.0084,-2.0907,rough,15.5,1,15.805
7040,225.28,-0.5118,-8.2190,-0.1144,3.1265,-0.0119,-2.2681,rough,15.5,1,15.803
7050,225.60,-0.5116,-8.2160,-0.1148,3.1267,-0.0118,-2.2523,rough,15.5,1,15.800
7060,225.92,-0.5103,-8.2151,-0.1147,3.1252,-0.0093,-2.1049,rough,15.5,1,15.799
7070,226.24,-0.5112,-8.2129,-0.1144,3.1277,-0.0119,-2.3158,rough,15.5,1,15.797
7080,226.56,-0.5107,-8.2109,-0.1148,3.1258,-0.0103,-2.1699,rough,15.5,1,15.795
7090,226.88,-0.5104,-8.2114,-0.1147,3.1262,-0.0105,-2.1912,rough,15.5,1,15.795
7100,227.20,-0.5108,-8.2096,-0.1145,3.1274,-0.0111,-2.2899,rough,15.5,1,15.794
7110,227.52,-0.5105,-8.2082,-0.1147,3.1255,-0.0098,-2.1433,rough,15.5,1,15.792
7120,227.84,-0.5108,-8.2082,-0.1147,3.1269,-0.0115,-2.2603,rough,15.5,1,15.792
7130,228.16,-0.5115,-8.2098,-0.1145,3.1259,-0.0110,-2.2195,rough,15.5,1,15.794
7140,228.48,-0.5120,-8.2150,-0.1146,3.1264,-0.0118,-2.2499,rough,15.5,1,15.799
7150,228.80,-0.5117,-8.2164,-0.1148,3.1263,-0.0113,-2.2175,rough,15.5,1,15.800
7160,229.12,-0.5120,-8.2164,-0.1148,3.1263,-0.0114,-2.2180,rough,15.5,1,15.801
7170,229.44,-0.5119,-8.2144,-0.1146,3.1259,-0.0105,-2.1832,rough,15.5,1,15.799
7180,229.76,-0.5112,-8.2127,-0.1147,3.1261,-0.0110,-2.2034,rough,15.5,1,15.797
7190,230.08,-0.5112,-8.2111,-0.1146,3.1262,-0.0110,-2.2081,rough,15.5,1,15.795
7200,230.40,-0.5115,-8.2114,-0.1145,3.1271,-0.0109,-2.2753,rough,15.5,1,15.795
7210,230.72,-0.5119,-8.2145,-0.1145,3.1249,-0.0088,-2.0864,rough,15.5,1,15.799
7220,231.04,-0.5119,-8.2151,-0.1145,3.1256,-0.0103,-2.1656,rough,15.5,1,15.799
7230,231.36,-0.5115,-8.2126,-0.1148,3.1258,-0.0107,-2.1809,rough,15.5,1,15.797
7240,231.68,-0.5113,-8.2117,-0.1146,3.1270,-0.0107,-2.2626,rough,15.5,1,15.796
7250,232.00,-0.5124,-8.2140,-0.1144,3.1253,-0.0098,-2.1386,rough,15.5,1,15.798
7260,232.32,-0.5111,-8.2145,-0.1146,3.1252,-0.0096,-2.1193,rough,15.5,1,15.799
7270,232.64,-0.5105,-8.2124,-0.1146,3.1261,-0.0106,-2.1976,rough,15.5,1,15.796
7280,232.96,-0.5114,-8.2107,-0.1146,3.1254,-0.0097,-2.1329,rough,15.5,1,15.795
7290,233.28,-0.5115,-8.2102,-0.1145,3.1252,-0.0090,-2.1141,rough,15.5,1,15.794
7300,233.60,-0.5123,-8.2137,-0.1145,3.1256,-0.0109,-2.1840,rough,15.5,1,15.798
7310,233.92,-0.5117,-8.2193,-0.1145,3.1251,-0.0090,-2.1074,rough,15.5,1,15.803
7320,234.24,-0.5116,-8.2232,-0.1144,3.1266,-0.0118,-2.2551,rough,15.5,1,15.807
7330,234.56,-0.5099,-8.2212,-0.1146,3.1254,-0.0084,-2.0826,rough,15.5,1,15.805
7340,234.88,-0.5099,-8.2224,-0.1145,3.1253,-0.0093,-2.1171,rough,15.5,1,15.806
7350,235.20,-0.5093,-8.2200,-0.1146,3.1254,-0.0089,-2.1078,rough,15.5,1,15.804
7360,235.52,-0.5092,-8.2158,-0.1146,3.1252,-0.0090,-2.1095,rough,15.5,1,15.800
7370,235.84,-0.5113,-8.2126,-0.1144,3.1271,-0.0123,-2.3202,rough,15.5,1,15.797
7380,236.16,-0.5120,-8.2099,-0.1146,3.1269,-0.0120,-2.2770,rough,15.5,1,15.794
7390,236.48,-0.5118,-8.2068,-0.1145,3.1270,-0.0109,-2.2773,rough,15.5,1,15.791
7400,236.80,-0.5118,-8.2059,-0.1146,3.1249,-0.0086,-2.0902,rough,15.5,1,15.790
7410,237.12,-0.5118,-8.2045,-0.1145,3.1254,-0.0099,-2.1580,rough,15.5,1,15.789
7420,237.44,-0.5115,-8.2054,-0.1144,3.1267,-0.0111,-2.2604,rough,15.5,1,15.790
7430,237.76,-0.5109,-8.2087,-0.1145,3.1271,-0.0105,-2.2721,rough,15.5,1,15.793
7440,238.08,-0.5116,-8.2086,-0.1144,3.1253,-0.0098,-2.1479,rough,15.5,1,15.793
7450,238.40,-0.5123,-8.2088,-0.1146,3.1250,-0.0091,-2.1022,rough,15.5,1,15.793
7460,238.72,-0.5123,-8.2097,-0.1145,3.1254,-0.0098,-2.1460,rough,15.5,1,15.794
7470,239.04,-0.5119,-8.2131,-0.1147,3.1260,-0.0108,-2.1938,rough,15.5,1,15.797
7480,239.36,-0.5118,-8.2179,-0.1146,3.1262,-0.0111,-2.2119,rough,15.5,1,15.802
7490,239.68,-0.5115,-8.2183,-0.1145,3.1259,-0.0108,-2.1914,rough,15.5,1,15.802
7500,240.00,-0.5118,-8.2157,-0.1148,3.1261,-0.0113,-2.2069,rough,15.5,1,15.800
7510,240.32,-0.5114,-8.2118,-0.1148,3.1262,-0.0109,-2.2012,rough,15.5,1,15.796
7520,240.64,-0.5123,-8.2071,-0.1145,3.1274,-0.0117,-2.2984,rough,15.5,1,15.791
7530,240.96,-0.5119,-8.2060,-0.1145,3.1257,-0.0108,-2.1946,rough,15.5,1,15.790
7540,241.28,-0.5123,-8.2053,-0.1146,3.1254,-0.0097,-2.1411,rough,15.5,1,15.789
7550,241.60,-0.5113,-8.2059,-0.1147,3.1250,-0.0093,-2.1098,rough,15.5,1,15.790
7560,241.92,-0.5113,-8.2094,-0.1146,3.1264,-0.0111,-2.2317,rough,15.5,1,15.793
7570,242.24,-0.5099,-8.2087,-0.1146,3.1260,-0.0097,-2.1676,rough,15.5,1,15.793
7580,242.56,-0.5111,-8.2072,-0.1147,3.1261,-0.0105,-2.1932,rough,15.5,1,15.791
7590,242.88,-0.5106,-8.2073,-0.1145,3.1270,-0.0103,-2.2502,rough,15.5,1,15.791
7600,243.20,-0.5104,-8.2069,-0.1146,3.1251,-0.0085,-2.0980,rough,15.5,1,15.791
7610,243.52,-0.5106,-8.2088,-0.1145,3.1251,-0.0094,-2.1267,rough,15.5,1,15.793
7620,243.84,-0.5111,-8.2085,-0.1144,3.1275,-0.0119,-2.3158,rough,15.5,1,15.793
7630,244.16,-0.5118,-8.2088,-0.1146,3.1271,-0.0119,-2.2805,rough,15.5,1,15.793
7640,244.48,-0.5118,-8.2081,-0.1146,3.1271,-0.0108,-2.2704,rough,15.5,1,15.792
7650,244.80,-0.5119,-8.2107,-0.1145,3.1249,-0.0087,-2.0863,rough,15.5,1,15.795
7660,245.12,-0.5118,-8.2111,-0.1145,3.1256,-0.0102,-2.1658,rough,15.5,1,15.795
7670,245.44,-0.5119,-8.2089,-0.1147,3.1268,-0.0120,-2.2694,rough,15.5,1,15.793
7680,245.76,-0.5111,-8.2071,-0.1145,3.1270,-0.0105,-2.2618,rough,15.5,1,15.791
7690,246.08,-0.5117,-8.2096,-0.1144,3.1250,-0.0098,-2.1369,rough,15.5,1,15.794
7700,246.40,-0.5113,-8.2146,-0.1145,3.1251,-0.0099,-2.1273,rough,15.5,1,15.799
7710,246.72,-0.5117,-8.2166,-0.1144,3.1274,-0.0123,-2.3115,rough,15.5,1,15.801
7720,247.04,-0.5112,-8.2186,-0.1148,3.1261,-0.0109,-2.1923,rough,15.5,1,15.803
7730,247.36,-0.5110,-8.2193,-0.1146,3.1252,-0.0092,-2.1001,rough,15.5,1,15.803
7740,247.68,-0.5122,-8.2192,-0.1144,3.1264,-0.0120,-2.2557,rough,15.5,1,15.803
7750,248.00,-0.5116,-8.2190,-0.1147,3.1256,-0.0108,-2.1712,rough,15.5,1,15.803
7760,248.32,-0.5113,-8.2175,-0.1148,3.1256,-0.0102,-2.1499,rough,15.5,1,15.802
7770,248.64,-0.5117,-8.2146,-0.1148,3.1262,-0.0108,-2.1982,rough,15.5,1,15.799
7780,248.96,-0.5111,-8.2116,-0.1146,3.1257,-0.0101,-2.1601,rough,15.5,1,15.796
7790,249.28,-0.5119,-8.2083,-0.1148,3.1252,-0.0103,-2.1468,rough,15.5,1,15.792
7800,249.60,-0.5107,-8.2060,-0.1147,3.1254,-0.0098,-2.1403,rough,15.5,1,15.790
7810,249.92,-0.5126,-8.2080,-0.1145,3.1254,-0.0098,-2.1512,rough,15.5,1,15.792
7820,250.24,-0.5108,-8.2091,-0.1147,3.1259,-0.0103,-2.1767,rough,15.5,1,15.793
