step,time_s,x,y,z,roll,pitch,yaw,terrain,speed,target_idx,dist_to_target
10,0.32,-1.2950,0.8835,0.2280,0.0067,-0.0220,0.0050,rough,15.5,0,6.143
20,0.64,-1.0272,0.8805,0.2197,0.0193,0.0126,0.4017,rough,15.5,0,6.372
30,0.96,-0.7779,1.0118,0.2183,0.0180,-0.0026,0.7355,rough,15.5,0,6.521
40,1.28,-0.5436,1.2427,0.2193,0.0123,-0.0090,1.0330,rough,15.5,0,6.620
50,1.60,-0.3972,1.5191,0.2247,0.0025,-0.0237,1.3250,rough,15.5,0,6.636
60,1.92,-0.3330,1.8689,0.2247,-0.0598,-0.0048,1.6057,rough,15.5,0,6.563
70,2.24,-0.3549,2.2591,0.2294,-0.0200,0.0352,1.8344,rough,15.5,0,6.414
80,2.56,-0.4700,2.6486,0.2164,0.0072,0.0354,2.0190,rough,15.5,0,6.196
90,2.88,-0.6748,3.0333,0.2009,0.0196,0.0322,2.1660,rough,15.5,0,5.911
100,3.20,-0.9379,3.3923,0.1850,0.0304,0.0210,2.3041,rough,15.5,0,5.591
110,3.52,-1.2626,3.7299,0.1722,0.0334,0.0272,2.4235,rough,15.5,0,5.229
120,3.84,-1.6217,4.0178,0.1597,0.0368,0.0088,2.5306,rough,15.5,0,4.853
130,4.16,-2.0182,4.2804,0.1537,0.0360,0.0102,2.6363,rough,15.5,0,4.454
140,4.48,-2.4378,4.4983,0.1514,0.0307,0.0023,2.7344,rough,15.5,0,4.045
150,4.80,-2.8789,4.6801,0.1537,0.0283,-0.0113,2.8341,rough,15.5,0,3.626
160,5.12,-3.3332,4.8172,0.1590,0.0227,-0.0188,2.9227,rough,15.5,0,3.200
170,5.44,-3.8026,4.9128,0.1686,0.0143,-0.0249,3.0195,rough,15.5,0,2.765
180,5.76,-4.2776,4.9632,0.1795,0.0037,-0.0250,3.1143,rough,15.5,0,2.326
190,6.08,-4.7544,4.9684,0.1909,-0.0057,-0.0247,-3.0748,rough,15.5,0,1.885
200,6.40,-5.2296,4.9242,0.1971,-0.0142,0.0053,-3.0046,rough,15.5,0,1.442
210,6.72,-5.6877,4.8494,0.2096,-0.0240,-0.0169,-2.9584,rough,15.5,0,1.024
220,7.04,-6.0817,4.7870,0.2145,-0.0304,0.0132,-2.7587,rough,15.5,1,6.888
230,7.36,-6.2960,4.6734,0.2159,-0.0309,0.0147,-2.2528,rough,15.5,1,7.108
240,7.68,-6.4490,4.4675,0.2117,-0.0224,0.0265,-1.9714,rough,15.5,1,7.275
250,8.00,-6.5449,4.1893,0.2032,-0.0111,0.0366,-1.7024,rough,15.5,1,7.399
260,8.32,-6.5895,3.8662,0.1914,0.0035,0.0387,-1.3999,rough,15.5,1,7.489
270,8.64,-6.5340,3.5585,0.1797,0.0170,0.0337,-1.1089,rough,15.5,1,7.491
280,8.96,-6.3543,3.2488,0.1670,0.0115,0.0256,-0.8831,rough,15.5,1,7.385
290,9.28,-6.0849,2.9594,0.1615,0.0287,0.0115,-0.7023,rough,15.5,1,7.205
300,9.60,-5.7547,2.7170,0.1564,0.0372,0.0069,-0.5345,rough,15.5,1,6.968
310,9.92,-5.3678,2.5106,0.1606,0.0244,-0.0114,-0.3761,rough,15.5,1,6.683
320,10.24,-4.9405,2.3539,0.1666,0.0141,-0.0201,-0.2180,rough,15.5,1,6.356
330,10.56,-4.4869,2.2640,0.1753,0.0072,-0.0273,-0.0747,rough,15.5,1,5.991
340,10.88,-4.0180,2.2437,0.1823,-0.0150,-0.0306,0.0514,rough,15.5,1,5.592
350,11.20,-3.5329,2.2726,0.1949,-0.0133,-0.0193,0.1076,rough,15.5,1,5.164
360,11.52,-3.0576,2.3345,0.2019,-0.0153,-0.0097,0.1492,rough,15.5,1,4.736
370,11.84,-2.5789,2.4149,0.2081,-0.0226,-0.0063,0.1876,rough,15.5,1,4.305
380,12.16,-2.1111,2.5115,0.2104,-0.0244,-0.0012,0.2626,rough,15.5,1,3.884
390,12.48,-1.6508,2.6433,0.2102,-0.0256,0.0031,0.3296,rough,15.5,1,3.458
400,12.80,-1.2056,2.8093,0.2071,-0.0286,0.0091,0.3846,rough,15.5,1,3.032
410,13.12,-0.7627,2.9969,0.2027,-0.0339,0.0136,0.4524,rough,15.5,1,2.606
420,13.44,-0.3541,3.2194,0.2059,-0.0686,-0.0068,0.5266,rough,15.5,1,2.192
430,13.76,0.0096,3.4660,0.2284,-0.1251,-0.1137,0.6134,rough,15.5,1,1.800
440,14.08,0.3303,3.7420,0.2981,-0.2074,-0.2047,0.7109,rough,15.5,1,1.421
450,14.40,0.6286,4.0524,0.3784,-0.2639,-0.2036,0.8256,rough,15.5,1,1.045
460,14.72,0.8595,4.3717,0.4463,-0.2786,-0.2004,0.8464,rough,15.5,2,9.050
470,15.04,1.0753,4.6015,0.5115,-0.2456,-0.2574,0.6413,rough,15.5,2,9.000
480,15.36,1.3410,4.7931,0.6020,-0.1930,-0.2971,0.4839,rough,15.5,2,8.898
490,15.68,1.6636,4.9486,0.7144,-0.1465,-0.3238,0.3316,rough,15.5,2,8.739
500,16.00,1.9968,5.0650,0.8334,-0.1147,-0.3408,0.2322,rough,15.5,2,8.559
510,16.32,2.2086,5.1590,0.9310,0.0068,-0.5553,-0.0078,rough,15.5,2,8.464
520,16.64,2.2276,5.1608,0.9259,-0.0290,-0.4222,-0.0130,rough,15.5,2,8.451
530,16.96,2.2563,5.1252,0.9334,-0.0014,-0.3936,-0.0958,rough,15.5,2,8.406
540,17.28,2.2741,5.0705,0.9365,0.0114,-0.3589,-0.1311,rough,15.5,2,8.356
550,17.60,2.2686,5.0189,0.9357,-0.0029,-0.3549,-0.0891,rough,15.5,2,8.325
560,17.92,2.2683,4.9975,0.9370,-0.0218,-0.3581,-0.0348,rough,15.5,2,8.311
570,18.24,2.2693,4.9889,0.9376,-0.0319,-0.3574,-0.0060,rough,15.5,2,8.305
580,18.56,2.2699,4.9856,0.9379,-0.0363,-0.3570,0.0063,rough,15.5,2,8.302
590,18.88,2.2702,4.9843,0.9387,-0.0376,-0.3604,0.0100,rough,15.5,2,8.301
600,19.20,2.2703,4.9837,0.9386,-0.0387,-0.3596,0.0132,rough,15.5,2,8.300
610,19.52,2.2706,4.9835,0.9388,-0.0387,-0.3602,0.0131,rough,15.5,2,8.300
620,19.84,2.2705,4.9832,0.9388,-0.0386,-0.3603,0.0131,rough,15.5,2,8.300
630,20.16,2.2704,4.9830,0.9388,-0.0387,-0.3603,0.0132,rough,15.5,2,8.300
640,20.48,2.2703,4.9829,0.9388,-0.0388,-0.3602,0.0135,rough,15.5,2,8.300
650,20.80,2.2704,4.9829,0.9388,-0.0389,-0.3602,0.0139,rough,15.5,2,8.300
660,21.12,2.2705,4.9831,0.9388,-0.0391,-0.3602,0.0142,rough,15.5,2,8.300
670,21.44,2.2707,4.9835,0.9389,-0.0392,-0.3602,0.0146,rough,15.5,2,8.300
680,21.76,2.2708,4.9840,0.9389,-0.0394,-0.3602,0.0152,rough,15.5,2,8.300
690,22.08,2.2709,4.9848,0.9389,-0.0397,-0.3602,0.0160,rough,15.5,2,8.301
700,22.40,2.2713,4.9859,0.9390,-0.0400,-0.3601,0.0170,rough,15.5,2,8.301
710,22.72,2.2717,4.9876,0.9391,-0.0405,-0.3601,0.0183,rough,15.5,2,8.302
720,23.04,2.2720,4.9898,0.9391,-0.0410,-0.3600,0.0199,rough,15.5,2,8.303
730,23.36,2.2721,4.9928,0.9390,-0.0419,-0.3599,0.0223,rough,15.5,2,8.305
740,23.68,2.2721,4.9970,0.9389,-0.0431,-0.3598,0.0257,rough,15.5,2,8.308
750,24.00,2.2721,5.0029,0.9387,-0.0447,-0.3596,0.0303,rough,15.5,2,8.312
760,24.32,2.2720,5.0109,0.9384,-0.0470,-0.3593,0.0368,rough,15.5,2,8.317
770,24.64,2.2717,5.0222,0.9378,-0.0504,-0.3588,0.0464,rough,15.5,2,8.325
780,24.96,2.2705,5.0377,0.9369,-0.0545,-0.3588,0.0580,rough,15.5,2,8.336
790,25.28,2.2691,5.0506,0.9357,-0.0479,-0.3587,0.0388,rough,15.5,2,8.346
800,25.60,2.2691,5.0561,0.9356,-0.0437,-0.3598,0.0269,rough,15.5,2,8.350
810,25.92,2.2692,5.0587,0.9356,-0.0414,-0.3601,0.0202,rough,15.5,2,8.351
820,26.24,2.2694,5.0600,0.9356,-0.0403,-0.3602,0.0171,rough,15.5,2,8.352
830,26.56,2.2695,5.0608,0.9356,-0.0397,-0.3603,0.0154,rough,15.5,2,8.352
840,26.88,2.2696,5.0611,0.9356,-0.0394,-0.3603,0.0146,rough,15.5,2,8.353
850,27.20,2.2696,5.0613,0.9356,-0.0393,-0.3603,0.0141,rough,15.5,2,8.353
860,27.52,2.2696,5.0614,0.9357,-0.0391,-0.3603,0.0138,rough,15.5,2,8.353
870,27.84,2.2697,5.0613,0.9357,-0.0390,-0.3604,0.0133,rough,15.5,2,8.353
880,28.16,2.2697,5.0609,0.9357,-0.0388,-0.3604,0.0127,rough,15.5,2,8.352
890,28.48,2.2698,5.0603,0.9357,-0.0385,-0.3604,0.0118,rough,15.5,2,8.352
900,28.80,2.2702,5.0593,0.9359,-0.0381,-0.3605,0.0107,rough,15.5,2,8.351
910,29.12,2.2706,5.0577,0.9362,-0.0376,-0.3606,0.0092,rough,15.5,2,8.350
920,29.44,2.2714,5.0555,0.9365,-0.0369,-0.3607,0.0072,rough,15.5,2,8.348
930,29.76,2.2720,5.0523,0.9369,-0.0360,-0.3608,0.0046,rough,15.5,2,8.345
940,30.08,2.2721,5.0478,0.9371,-0.0347,-0.3609,0.0009,rough,15.5,2,8.342
950,30.40,2.2721,5.0416,0.9373,-0.0329,-0.3610,-0.0041,rough,15.5,2,8.338
960,30.72,2.2720,5.0329,0.9376,-0.0306,-0.3613,-0.0109,rough,15.5,2,8.332
970,31.04,2.2717,5.0210,0.9379,-0.0274,-0.3615,-0.0199,rough,15.5,2,8.324
980,31.36,2.2709,5.0048,0.9382,-0.0230,-0.3618,-0.0321,rough,15.5,2,8.314
990,31.68,2.2694,4.9931,0.9380,-0.0291,-0.3609,-0.0144,rough,15.5,2,8.307
1000,32.00,2.2695,4.9870,0.9382,-0.0340,-0.3599,-0.0003,rough,15.5,2,8.303
1010,32.32,2.2701,4.9850,0.9384,-0.0372,-0.3590,0.0089,rough,15.5,2,8.301
1020,32.64,2.2704,4.9842,0.9387,-0.0381,-0.3599,0.0116,rough,15.5,2,8.301
1030,32.96,2.2702,4.9832,0.9387,-0.0379,-0.3603,0.0110,rough,15.5,2,8.300
1040,33.28,2.2700,4.9820,0.9387,-0.0377,-0.3604,0.0104,rough,15.5,2,8.299
1050,33.60,2.2698,4.9810,0.9386,-0.0381,-0.3603,0.0116,rough,15.5,2,8.299
1060,33.92,2.2698,4.9806,0.9386,-0.0386,-0.3602,0.0129,rough,15.5,2,8.299
1070,34.24,2.2698,4.9805,0.9386,-0.0388,-0.3602,0.0134,rough,15.5,2,8.298
1080,34.56,2.2699,4.9805,0.9387,-0.0389,-0.3602,0.0139,rough,15.5,2,8.298
1090,34.88,2.2700,4.9807,0.9387,-0.0391,-0.3602,0.0144,rough,15.5,2,8.299
1100,35.20,2.2703,4.9812,0.9388,-0.0393,-0.3602,0.0150,rough,15.5,2,8.299
1110,35.52,2.2704,4.9820,0.9388,-0.0396,-0.3601,0.0160,rough,15.5,2,8.299
1120,35.84,2.2709,4.9831,0.9389,-0.0400,-0.3601,0.0171,rough,15.5,2,8.299
1130,36.16,2.2713,4.9849,0.9390,-0.0406,-0.3601,0.0186,rough,15.5,2,8.300
1140,36.48,2.2718,4.9872,0.9391,-0.0412,-0.3600,0.0205,rough,15.5,2,8.302
1150,36.80,2.2721,4.9905,0.9391,-0.0421,-0.3599,0.0231,rough,15.5,2,8.304
1160,37.12,2.2721,4.9951,0.9390,-0.0435,-0.3598,0.0268,rough,15.5,2,8.307
1170,37.44,2.2721,5.0015,0.9387,-0.0453,-0.3595,0.0321,rough,15.5,2,8.311
1180,37.76,2.2720,5.0105,0.9384,-0.0479,-0.3592,0.0395,rough,15.5,2,8.317
1190,38.08,2.2716,5.0230,0.9378,-0.0518,-0.3586,0.0504,rough,15.5,2,8.326
1200,38.40,2.2701,5.0395,0.9354,-0.0530,-0.3509,0.0537,rough,15.5,2,8.338
1210,38.72,2.2691,5.0516,0.9357,-0.0474,-0.3590,0.0373,rough,15.5,2,8.347
1220,39.04,2.2691,5.0565,0.9356,-0.0433,-0.3599,0.0256,rough,15.5,2,8.350
1230,39.36,2.2693,5.0589,0.9356,-0.0412,-0.3601,0.0197,rough,15.5,2,8.351
1240,39.68,2.2695,5.0602,0.9356,-0.0402,-0.3602,0.0168,rough,15.5,2,8.352
1250,40.00,2.2696,5.0608,0.9356,-0.0397,-0.3603,0.0153,rough,15.5,2,8.353
1260,40.32,2.2696,5.0612,0.9356,-0.0394,-0.3603,0.0145,rough,15.5,2,8.353
1270,40.64,2.2696,5.0613,0.9356,-0.0392,-0.3603,0.0141,rough,15.5,2,8.353
1280,40.96,2.2697,5.0614,0.9357,-0.0391,-0.3604,0.0137,rough,15.5,2,8.353
1290,41.28,2.2697,5.0612,0.9357,-0.0389,-0.3604,0.0132,rough,15.5,2,8.353
1300,41.60,2.2697,5.0609,0.9357,-0.0387,-0.3604,0.0126,rough,15.5,2,8.352
1310,41.92,2.2698,5.0602,0.9357,-0.0384,-0.3605,0.0117,rough,15.5,2,8.352
1320,42.24,2.2703,5.0591,0.9360,-0.0380,-0.3605,0.0105,rough,15.5,2,8.351
1330,42.56,2.2707,5.0575,0.9362,-0.0375,-0.3606,0.0089,rough,15.5,2,8.349
1340,42.88,2.2715,5.0551,0.9366,-0.0368,-0.3607,0.0069,rough,15.5,2,8.347
1350,43.20,2.2720,5.0518,0.9369,-0.0358,-0.3608,0.0042,rough,15.5,2,8.345
1360,43.52,2.2721,5.0471,0.9371,-0.0345,-0.3609,0.0003,rough,15.5,2,8.341
1370,43.84,2.2721,5.0406,0.9374,-0.0326,-0.3611,-0.0049,rough,15.5,2,8.337
1380,44.16,2.2720,5.0315,0.9376,-0.0301,-0.3613,-0.0119,rough,15.5,2,8.331
1390,44.48,2.2716,5.0191,0.9380,-0.0269,-0.3615,-0.0213,rough,15.5,2,8.323
1400,44.80,2.2706,5.0034,0.9357,-0.0255,-0.3461,-0.0249,rough,15.5,2,8.313
1410,45.12,2.2697,4.9929,0.9370,-0.0306,-0.3537,-0.0101,rough,15.5,2,8.307
1420,45.44,2.2698,4.9872,0.9371,-0.0345,-0.3527,0.0013,rough,15.5,2,8.303
1430,45.76,2.2701,4.9849,0.9360,-0.0373,-0.3440,0.0093,rough,15.5,2,8.301
1440,46.08,2.2701,4.9837,0.9386,-0.0375,-0.3604,0.0098,rough,15.5,2,8.300
1450,46.40,2.2705,4.9837,0.9388,-0.0387,-0.3600,0.0132,rough,15.5,2,8.300
1460,46.72,2.2706,4.9835,0.9388,-0.0387,-0.3602,0.0131,rough,15.5,2,8.300
1470,47.04,2.2705,4.9833,0.9388,-0.0387,-0.3603,0.0132,rough,15.5,2,8.300
1480,47.36,2.2704,4.9831,0.9388,-0.0388,-0.3603,0.0134,rough,15.5,2,8.300
1490,47.68,2.2704,4.9831,0.9388,-0.0389,-0.3602,0.0137,rough,15.5,2,8.300
1500,48.00,2.2705,4.9831,0.9388,-0.0390,-0.3602,0.0140,rough,15.5,2,8.300
1510,48.32,2.2707,4.9834,0.9389,-0.0391,-0.3602,0.0144,rough,15.5,2,8.300
1520,48.64,2.2709,4.9837,0.9389,-0.0392,-0.3602,0.0147,rough,15.5,2,8.300
1530,48.96,2.2708,4.9844,0.9389,-0.0395,-0.3602,0.0155,rough,15.5,2,8.300
1540,49.28,2.2711,4.9853,0.9390,-0.0398,-0.3602,0.0163,rough,15.5,2,8.301
1550,49.60,2.2714,4.9866,0.9390,-0.0402,-0.3601,0.0174,rough,15.5,2,8.301
1560,49.92,2.2718,4.9884,0.9391,-0.0406,-0.3601,0.0188,rough,15.5,2,8.302
1570,50.24,2.2720,4.9908,0.9391,-0.0413,-0.3600,0.0206,rough,15.5,2,8.304
1580,50.56,2.2721,4.9942,0.9390,-0.0422,-0.3599,0.0233,rough,15.5,2,8.306
1590,50.88,2.2721,4.9989,0.9388,-0.0436,-0.3598,0.0271,rough,15.5,2,8.309
1600,51.20,2.2721,5.0054,0.9386,-0.0454,-0.3595,0.0322,rough,15.5,2,8.313
1610,51.52,2.2719,5.0144,0.9382,-0.0479,-0.3592,0.0395,rough,15.5,2,8.320
1620,51.84,2.2715,5.0269,0.9376,-0.0518,-0.3586,0.0504,rough,15.5,2,8.328
1630,52.16,2.2698,5.0428,0.9358,-0.0519,-0.3546,0.0506,rough,15.5,2,8.340
1640,52.48,2.2691,5.0531,0.9357,-0.0462,-0.3592,0.0341,rough,15.5,2,8.348
1650,52.80,2.2691,5.0572,0.9356,-0.0426,-0.3599,0.0237,rough,15.5,2,8.350
1660,53.12,2.2693,5.0593,0.9356,-0.0409,-0.3602,0.0188,rough,15.5,2,8.352
1670,53.44,2.2695,5.0604,0.9356,-0.0400,-0.3603,0.0163,rough,15.5,2,8.352
1680,53.76,2.2696,5.0609,0.9356,-0.0396,-0.3603,0.0150,rough,15.5,2,8.353
1690,54.08,2.2696,5.0612,0.9356,-0.0393,-0.3603,0.0144,rough,15.5,2,8.353
1700,54.40,2.2696,5.0613,0.9356,-0.0392,-0.3603,0.0140,rough,15.5,2,8.353
1710,54.72,2.2697,5.0614,0.9357,-0.0391,-0.3604,0.0136,rough,15.5,2,8.353
1720,55.04,2.2697,5.0612,0.9357,-0.0389,-0.3604,0.0131,rough,15.5,2,8.353
1730,55.36,2.2697,5.0607,0.9357,-0.0387,-0.3604,0.0124,rough,15.5,2,8.352
1740,55.68,2.2698,5.0600,0.9358,-0.0383,-0.3605,0.0114,rough,15.5,2,8.352
1750,56.00,2.2704,5.0588,0.9360,-0.0379,-0.3605,0.0101,rough,15.5,2,8.351
1760,56.32,2.2709,5.0570,0.9363,-0.0373,-0.3606,0.0085,rough,15.5,2,8.349
1770,56.64,2.2716,5.0544,0.9367,-0.0366,-0.3607,0.0063,rough,15.5,2,8.347
1780,56.96,2.2721,5.0508,0.9370,-0.0355,-0.3608,0.0033,rough,15.5,2,8.344
1790,57.28,2.2721,5.0457,0.9372,-0.0341,-0.3609,-0.0008,rough,15.5,2,8.340
1800,57.60,2.2721,5.0386,0.9374,-0.0321,-0.3611,-0.0064,rough,15.5,2,8.336
1810,57.92,2.2719,5.0288,0.9377,-0.0294,-0.3613,-0.0140,rough,15.5,2,8.329
1820,58.24,2.2715,5.0154,0.9380,-0.0259,-0.3616,-0.0240,rough,15.5,2,8.321
1830,58.56,2.2700,4.9999,0.9377,-0.0262,-0.3591,-0.0228,rough,15.5,2,8.311
1840,58.88,2.2695,4.9908,0.9381,-0.0315,-0.3605,-0.0075,rough,15.5,2,8.306
1850,59.20,2.2697,4.9862,0.9383,-0.0351,-0.3597,0.0028,rough,15.5,2,8.302
1860,59.52,2.2702,4.9847,0.9381,-0.0377,-0.3568,0.0105,rough,15.5,2,8.301
1870,59.84,2.2701,4.9835,0.9387,-0.0376,-0.3604,0.0101,rough,15.5,2,8.300
1880,60.16,2.2699,4.9819,0.9386,-0.0373,-0.3604,0.0093,rough,15.5,2,8.299
1890,60.48,2.2698,4.9810,0.9386,-0.0382,-0.3603,0.0118,rough,15.5,2,8.299
1900,60.80,2.2698,4.9806,0.9386,-0.0386,-0.3602,0.0130,rough,15.5,2,8.299
1910,61.12,2.2698,4.9805,0.9386,-0.0388,-0.3602,0.0135,rough,15.5,2,8.298
1920,61.44,2.2699,4.9805,0.9387,-0.0389,-0.3602,0.0139,rough,15.5,2,8.298
1930,61.76,2.2701,4.9808,0.9387,-0.0391,-0.3602,0.0145,rough,15.5,2,8.299
1940,62.08,2.2703,4.9812,0.9388,-0.0393,-0.3602,0.0151,rough,15.5,2,8.299
1950,62.40,2.2704,4.9820,0.9388,-0.0397,-0.3601,0.0160,rough,15.5,2,8.299
1960,62.72,2.2709,4.9832,0.9390,-0.0400,-0.3601,0.0171,rough,15.5,2,8.300
1970,63.04,2.2713,4.9850,0.9391,-0.0406,-0.3601,0.0186,rough,15.5,2,8.300
1980,63.36,2.2718,4.9874,0.9391,-0.0412,-0.3600,0.0206,rough,15.5,2,8.302
1990,63.68,2.2721,4.9907,0.9391,-0.0422,-0.3599,0.0232,rough,15.5,2,8.304
2000,64.00,2.2721,4.9953,0.9390,-0.0435,-0.3597,0.0270,rough,15.5,2,8.307
2010,64.32,2.2721,5.0018,0.9387,-0.0454,-0.3595,0.0323,rough,15.5,2,8.311
2020,64.64,2.2720,5.0108,0.9384,-0.0480,-0.3592,0.0398,rough,15.5,2,8.317
2030,64.96,2.2716,5.0236,0.9377,-0.0519,-0.3586,0.0508,rough,15.5,2,8.326
2040,65.28,2.2701,5.0401,0.9354,-0.0531,-0.3510,0.0540,rough,15.5,2,8.338
2050,65.60,2.2690,5.0517,0.9357,-0.0473,-0.3590,0.0370,rough,15.5,2,8.347
2060,65.92,2.2691,5.0566,0.9356,-0.0432,-0.3599,0.0254,rough,15.5,2,8.350
2070,66.24,2.2693,5.0589,0.9356,-0.0412,-0.3601,0.0196,rough,15.5,2,8.351
2080,66.56,2.2695,5.0602,0.9356,-0.0402,-0.3602,0.0168,rough,15.5,2,8.352
2090,66.88,2.2696,5.0608,0.9356,-0.0397,-0.3603,0.0153,rough,15.5,2,8.353
2100,67.20,2.2696,5.0612,0.9356,-0.0394,-0.3603,0.0145,rough,15.5,2,8.353
2110,67.52,2.2696,5.0613,0.9356,-0.0392,-0.3603,0.0141,rough,15.5,2,8.353
2120,67.84,2.2697,5.0614,0.9357,-0.0391,-0.3604,0.0137,rough,15.5,2,8.353
2130,68.16,2.2697,5.0612,0.9357,-0.0389,-0.3604,0.0132,rough,15.5,2,8.353
2140,68.48,2.2697,5.0609,0.9357,-0.0387,-0.3604,0.0125,rough,15.5,2,8.352
2150,68.80,2.2698,5.0602,0.9357,-0.0384,-0.3605,0.0116,rough,15.5,2,8.352
2160,69.12,2.2703,5.0591,0.9360,-0.0380,-0.3605,0.0105,rough,15.5,2,8.351
2170,69.44,2.2707,5.0575,0.9362,-0.0375,-0.3606,0.0089,rough,15.5,2,8.349
2180,69.76,2.2715,5.0551,0.9366,-0.0368,-0.3607,0.0069,rough,15.5,2,8.347
2190,70.08,2.2720,5.0518,0.9369,-0.0358,-0.3608,0.0041,rough,15.5,2,8.345
2200,70.40,2.2721,5.0471,0.9371,-0.0345,-0.3609,0.0003,rough,15.5,2,8.341
2210,70.72,2.2721,5.0405,0.9374,-0.0326,-0.3611,-0.0049,rough,15.5,2,8.337
2220,71.04,2.2720,5.0314,0.9376,-0.0301,-0.3613,-0.0120,rough,15.5,2,8.331
2230,71.36,2.2716,5.0190,0.9380,-0.0268,-0.3615,-0.0214,rough,15.5,2,8.323
2240,71.68,2.2705,5.0033,0.9356,-0.0255,-0.3459,-0.0250,rough,15.5,2,8.313
2250,72.00,2.2698,4.9928,0.9370,-0.0306,-0.3537,-0.0101,rough,15.5,2,8.307
2260,72.32,2.2698,4.9871,0.9372,-0.0346,-0.3528,0.0014,rough,15.5,2,8.303
2270,72.64,2.2702,4.9850,0.9373,-0.0375,-0.3522,0.0097,rough,15.5,2,8.301
2280,72.96,2.2701,4.9836,0.9386,-0.0374,-0.3603,0.0095,rough,15.5,2,8.300
2290,73.28,2.2698,4.9819,0.9386,-0.0371,-0.3604,0.0088,rough,15.5,2,8.299
2300,73.60,2.2698,4.9810,0.9386,-0.0382,-0.3603,0.0117,rough,15.5,2,8.299
2310,73.92,2.2698,4.9806,0.9386,-0.0386,-0.3602,0.0129,rough,15.5,2,8.299
2320,74.24,2.2698,4.9805,0.9386,-0.0388,-0.3602,0.0134,rough,15.5,2,8.298
2330,74.56,2.2699,4.9805,0.9387,-0.0389,-0.3602,0.0139,rough,15.5,2,8.298
2340,74.88,2.2700,4.9807,0.9387,-0.0391,-0.3602,0.0144,rough,15.5,2,8.299
2350,75.20,2.2703,4.9812,0.9388,-0.0393,-0.3602,0.0150,rough,15.5,2,8.299
2360,75.52,2.2704,4.9820,0.9388,-0.0397,-0.3601,0.0160,rough,15.5,2,8.299
2370,75.84,2.2709,4.9832,0.9389,-0.0400,-0.3601,0.0171,rough,15.5,2,8.299
2380,76.16,2.2713,4.9849,0.9390,-0.0406,-0.3601,0.0186,rough,15.5,2,8.300
2390,76.48,2.2718,4.9873,0.9391,-0.0412,-0.3600,0.0205,rough,15.5,2,8.302
2400,76.80,2.2721,4.9906,0.9391,-0.0422,-0.3599,0.0231,rough,15.5,2,8.304
2410,77.12,2.2721,4.9952,0.9390,-0.0435,-0.3598,0.0269,rough,15.5,2,8.307
2420,77.44,2.2721,5.0016,0.9387,-0.0454,-0.3595,0.0322,rough,15.5,2,8.311
2430,77.76,2.2720,5.0106,0.9384,-0.0480,-0.3592,0.0396,rough,15.5,2,8.317
2440,78.08,2.2716,5.0232,0.9378,-0.0518,-0.3586,0.0505,rough,15.5,2,8.326
2450,78.40,2.2701,5.0396,0.9354,-0.0529,-0.3509,0.0535,rough,15.5,2,8.338
2460,78.72,2.2691,5.0516,0.9357,-0.0473,-0.3590,0.0372,rough,15.5,2,8.347
2470,79.04,2.2691,5.0565,0.9356,-0.0433,-0.3599,0.0255,rough,15.5,2,8.350
2480,79.36,2.2693,5.0589,0.9356,-0.0412,-0.3601,0.0197,rough,15.5,2,8.351
2490,79.68,2.2695,5.0602,0.9356,-0.0402,-0.3602,0.0168,rough,15.5,2,8.352
2500,80.00,2.2696,5.0608,0.9356,-0.0397,-0.3603,0.0153,rough,15.5,2,8.353
2510,80.32,2.2696,5.0612,0.9356,-0.0394,-0.3603,0.0145,rough,15.5,2,8.353
2520,80.64,2.2696,5.0613,0.9356,-0.0392,-0.3603,0.0141,rough,15.5,2,8.353
2530,80.96,2.2697,5.0614,0.9357,-0.0391,-0.3604,0.0137,rough,15.5,2,8.353
2540,81.28,2.2697,5.0612,0.9357,-0.0389,-0.3604,0.0132,rough,15.5,2,8.353
2550,81.60,2.2697,5.0609,0.9357,-0.0387,-0.3604,0.0125,rough,15.5,2,8.352
2560,81.92,2.2698,5.0602,0.9357,-0.0384,-0.3605,0.0116,rough,15.5,2,8.352
2570,82.24,2.2703,5.0591,0.9360,-0.0380,-0.3605,0.0105,rough,15.5,2,8.351
2580,82.56,2.2707,5.0575,0.9362,-0.0375,-0.3606,0.0089,rough,15.5,2,8.349
2590,82.88,2.2715,5.0551,0.9366,-0.0368,-0.3607,0.0069,rough,15.5,2,8.347
2600,83.20,2.2720,5.0518,0.9369,-0.0358,-0.3608,0.0042,rough,15.5,2,8.345
2610,83.52,2.2721,5.0471,0.9371,-0.0345,-0.3609,0.0003,rough,15.5,2,8.341
2620,83.84,2.2721,5.0405,0.9374,-0.0326,-0.3611,-0.0049,rough,15.5,2,8.337
2630,84.16,2.2720,5.0315,0.9376,-0.0301,-0.3613,-0.0120,rough,15.5,2,8.331
2640,84.48,2.2716,5.0190,0.9380,-0.0268,-0.3615,-0.0214,rough,15.5,2,8.323
2650,84.80,2.2705,5.0033,0.9357,-0.0255,-0.3461,-0.0250,rough,15.5,2,8.313
2660,85.12,2.2698,4.9928,0.9370,-0.0306,-0.3538,-0.0101,rough,15.5,2,8.307
2670,85.44,2.2698,4.9871,0.9372,-0.0346,-0.3528,0.0014,rough,15.5,2,8.303
2680,85.76,2.2702,4.9850,0.9373,-0.0375,-0.3522,0.0097,rough,15.5,2,8.301
2690,86.08,2.2701,4.9836,0.9386,-0.0374,-0.3603,0.0095,rough,15.5,2,8.300
2700,86.40,2.2698,4.9819,0.9386,-0.0371,-0.3604,0.0088,rough,15.5,2,8.299
2710,86.72,2.2698,4.9810,0.9386,-0.0382,-0.3603,0.0117,rough,15.5,2,8.299
2720,87.04,2.2698,4.9806,0.9386,-0.0386,-0.3602,0.0129,rough,15.5,2,8.299
2730,87.36,2.2698,4.9805,0.9386,-0.0388,-0.3602,0.0134,rough,15.5,2,8.298
2740,87.68,2.2699,4.9805,0.9387,-0.0389,-0.3602,0.0139,rough,15.5,2,8.298
2750,88.00,2.2700,4.9807,0.9387,-0.0391,-0.3602,0.0144,rough,15.5,2,8.299
2760,88.32,2.2703,4.9812,0.9388,-0.0393,-0.3602,0.0151,rough,15.5,2,8.299
2770,88.64,2.2704,4.9820,0.9388,-0.0397,-0.3601,0.0160,rough,15.5,2,8.299
2780,88.96,2.2709,4.9832,0.9389,-0.0400,-0.3601,0.0171,rough,15.5,2,8.299
2790,89.28,2.2713,4.9849,0.9390,-0.0406,-0.3601,0.0186,rough,15.5,2,8.300
2800,89.60,2.2718,4.9873,0.9391,-0.0412,-0.3600,0.0205,rough,15.5,2,8.302
2810,89.92,2.2721,4.9906,0.9391,-0.0422,-0.3599,0.0231,rough,15.5,2,8.304
2820,90.24,2.2721,4.9952,0.9390,-0.0435,-0.3598,0.0269,rough,15.5,2,8.307
2830,90.56,2.2721,5.0016,0.9387,-0.0454,-0.3595,0.0322,rough,15.5,2,8.311
2840,90.88,2.2720,5.0106,0.9384,-0.0480,-0.3592,0.0396,rough,15.5,2,8.317
2850,91.20,2.2716,5.0233,0.9378,-0.0518,-0.3586,0.0506,rough,15.5,2,8.326
2860,91.52,2.2702,5.0397,0.9355,-0.0530,-0.3513,0.0536,rough,15.5,2,8.338
2870,91.84,2.2690,5.0515,0.9357,-0.0474,-0.3590,0.0374,rough,15.5,2,8.347
2880,92.16,2.2691,5.0565,0.9356,-0.0433,-0.3599,0.0257,rough,15.5,2,8.350
2890,92.48,2.2693,5.0589,0.9356,-0.0412,-0.3601,0.0197,rough,15.5,2,8.351
2900,92.80,2.2695,5.0602,0.9356,-0.0402,-0.3602,0.0168,rough,15.5,2,8.352
2910,93.12,2.2696,5.0608,0.9356,-0.0397,-0.3603,0.0153,rough,15.5,2,8.353
2920,93.44,2.2696,5.0612,0.9356,-0.0394,-0.3603,0.0145,rough,15.5,2,8.353
2930,93.76,2.2696,5.0613,0.9356,-0.0392,-0.3603,0.0141,rough,15.5,2,8.353
2940,94.08,2.2697,5.0614,0.9357,-0.0391,-0.3604,0.0137,rough,15.5,2,8.353
2950,94.40,2.2697,5.0612,0.9357,-0.0389,-0.3604,0.0132,rough,15.5,2,8.353
2960,94.72,2.2697,5.0609,0.9357,-0.0387,-0.3604,0.0126,rough,15.5,2,8.352
2970,95.04,2.2698,5.0602,0.9357,-0.0384,-0.3605,0.0117,rough,15.5,2,8.352
2980,95.36,2.2703,5.0591,0.9360,-0.0380,-0.3605,0.0105,rough,15.5,2,8.351
2990,95.68,2.2707,5.0575,0.9362,-0.0375,-0.3606,0.0090,rough,15.5,2,8.349
3000,96.00,2.2715,5.0551,0.9366,-0.0368,-0.3607,0.0070,rough,15.5,2,8.347
3010,96.32,2.2720,5.0518,0.9369,-0.0358,-0.3608,0.0042,rough,15.5,2,8.345
3020,96.64,2.2721,5.0472,0.9371,-0.0345,-0.3609,0.0004,rough,15.5,2,8.341
3030,96.96,2.2721,5.0407,0.9374,-0.0326,-0.3611,-0.0048,rough,15.5,2,8.337
3040,97.28,2.2720,5.0317,0.9376,-0.0302,-0.3613,-0.0118,rough,15.5,2,8.331
3050,97.60,2.2716,5.0193,0.9380,-0.0269,-0.3615,-0.0211,rough,15.5,2,8.323
3060,97.92,2.2706,5.0037,0.9356,-0.0255,-0.3459,-0.0248,rough,15.5,2,8.313
3070,98.24,2.2698,4.9931,0.9370,-0.0305,-0.3535,-0.0103,rough,15.5,2,8.307
3080,98.56,2.2698,4.9873,0.9371,-0.0344,-0.3526,0.0010,rough,15.5,2,8.303
3090,98.88,2.2701,4.9849,0.9360,-0.0372,-0.3439,0.0091,rough,15.5,2,8.301
3100,99.20,2.2701,4.9837,0.9386,-0.0374,-0.3604,0.0096,rough,15.5,2,8.300
3110,99.52,2.2698,4.9820,0.9386,-0.0372,-0.3604,0.0089,rough,15.5,2,8.299
3120,99.84,2.2698,4.9810,0.9386,-0.0382,-0.3603,0.0117,rough,15.5,2,8.299
3130,100.16,2.2698,4.9806,0.9386,-0.0386,-0.3602,0.0129,rough,15.5,2,8.299
3140,100.48,2.2698,4.9805,0.9386,-0.0388,-0.3602,0.0134,rough,15.5,2,8.298
3150,100.80,2.2699,4.9805,0.9387,-0.0389,-0.3602,0.0139,rough,15.5,2,8.298
3160,101.12,2.2700,4.9807,0.9387,-0.0391,-0.3602,0.0144,rough,15.5,2,8.299
3170,101.44,2.2703,4.9812,0.9388,-0.0393,-0.3602,0.0150,rough,15.5,2,8.299
3180,101.76,2.2704,4.9819,0.9388,-0.0396,-0.3601,0.0160,rough,15.5,2,8.299
3190,102.08,2.2709,4.9831,0.9389,-0.0400,-0.3601,0.0171,rough,15.5,2,8.299
3200,102.40,2.2713,4.9848,0.9390,-0.0405,-0.3601,0.0186,rough,15.5,2,8.300
3210,102.72,2.2718,4.9872,0.9391,-0.0412,-0.3600,0.0205,rough,15.5,2,8.302
3220,103.04,2.2721,4.9905,0.9391,-0.0421,-0.3599,0.0231,rough,15.5,2,8.304
3230,103.36,2.2721,4.9951,0.9390,-0.0435,-0.3598,0.0268,rough,15.5,2,8.307
3240,103.68,2.2721,5.0015,0.9387,-0.0453,-0.3595,0.0320,rough,15.5,2,8.311
3250,104.00,2.2720,5.0104,0.9384,-0.0479,-0.3592,0.0395,rough,15.5,2,8.317
3260,104.32,2.2716,5.0230,0.9378,-0.0517,-0.3586,0.0503,rough,15.5,2,8.326
3270,104.64,2.2701,5.0394,0.9354,-0.0530,-0.3511,0.0539,rough,15.5,2,8.338
3280,104.96,2.2691,5.0516,0.9357,-0.0474,-0.3590,0.0374,rough,15.5,2,8.347
3290,105.28,2.2691,5.0565,0.9356,-0.0433,-0.3599,0.0256,rough,15.5,2,8.350
3300,105.60,2.2693,5.0589,0.9356,-0.0412,-0.3601,0.0197,rough,15.5,2,8.351
3310,105.92,2.2695,5.0602,0.9356,-0.0402,-0.3602,0.0168,rough,15.5,2,8.352
3320,106.24,2.2696,5.0608,0.9356,-0.0397,-0.3603,0.0153,rough,15.5,2,8.353
3330,106.56,2.2696,5.0612,0.9356,-0.0394,-0.3603,0.0145,rough,15.5,2,8.353
3340,106.88,2.2696,5.0613,0.9356,-0.0392,-0.3603,0.0141,rough,15.5,2,8.353
3350,107.20,2.2697,5.0614,0.9357,-0.0391,-0.3604,0.0137,rough,15.5,2,8.353
3360,107.52,2.2697,5.0612,0.9357,-0.0389,-0.3604,0.0132,rough,15.5,2,8.353
3370,107.84,2.2697,5.0609,0.9357,-0.0387,-0.3604,0.0126,rough,15.5,2,8.352
3380,108.16,2.2698,5.0602,0.9357,-0.0384,-0.3605,0.0117,rough,15.5,2,8.352
3390,108.48,2.2703,5.0591,0.9360,-0.0380,-0.3605,0.0105,rough,15.5,2,8.351
3400,108.80,2.2707,5.0575,0.9362,-0.0375,-0.3606,0.0089,rough,15.5,2,8.349
3410,109.12,2.2715,5.0551,0.9366,-0.0368,-0.3607,0.0069,rough,15.5,2,8.347
3420,109.44,2.2720,5.0518,0.9369,-0.0358,-0.3608,0.0042,rough,15.5,2,8.345
3430,109.76,2.2721,5.0471,0.9371,-0.0345,-0.3609,0.0003,rough,15.5,2,8.341
3440,110.08,2.2721,5.0406,0.9374,-0.0326,-0.3611,-0.0049,rough,15.5,2,8.337
3450,110.40,2.2720,5.0316,0.9376,-0.0301,-0.3613,-0.0119,rough,15.5,2,8.331
3460,110.72,2.2716,5.0191,0.9380,-0.0269,-0.3615,-0.0213,rough,15.5,2,8.323
3470,111.04,2.2706,5.0035,0.9357,-0.0255,-0.3461,-0.0249,rough,15.5,2,8.313
3480,111.36,2.2697,4.9929,0.9370,-0.0306,-0.3537,-0.0101,rough,15.5,2,8.307
3490,111.68,2.2698,4.9872,0.9371,-0.0345,-0.3527,0.0013,rough,15.5,2,8.303
3500,112.00,2.2701,4.9849,0.9360,-0.0373,-0.3440,0.0092,rough,15.5,2,8.301
3510,112.32,2.2701,4.9837,0.9386,-0.0375,-0.3604,0.0098,rough,15.5,2,8.300
3520,112.64,2.2705,4.9837,0.9388,-0.0387,-0.3600,0.0132,rough,15.5,2,8.300
3530,112.96,2.2706,4.9835,0.9388,-0.0386,-0.3602,0.0131,rough,15.5,2,8.300
3540,113.28,2.2705,4.9832,0.9388,-0.0387,-0.3603,0.0131,rough,15.5,2,8.300
3550,113.60,2.2704,4.9830,0.9388,-0.0387,-0.3603,0.0133,rough,15.5,2,8.300
3560,113.92,2.2704,4.9830,0.9388,-0.0388,-0.3602,0.0136,rough,15.5,2,8.300
3570,114.24,2.2704,4.9830,0.9388,-0.0390,-0.3602,0.0140,rough,15.5,2,8.300
3580,114.56,2.2706,4.9833,0.9388,-0.0391,-0.3602,0.0143,rough,15.5,2,8.300
3590,114.88,2.2709,4.9836,0.9389,-0.0392,-0.3602,0.0147,rough,15.5,2,8.300
3600,115.20,2.2707,4.9842,0.9389,-0.0395,-0.3602,0.0154,rough,15.5,2,8.300
3610,115.52,2.2711,4.9851,0.9389,-0.0398,-0.3602,0.0163,rough,15.5,2,8.301
3620,115.84,2.2713,4.9864,0.9390,-0.0401,-0.3601,0.0174,rough,15.5,2,8.301
3630,116.16,2.2718,4.9882,0.9391,-0.0406,-0.3601,0.0187,rough,15.5,2,8.302
3640,116.48,2.2720,4.9907,0.9391,-0.0413,-0.3600,0.0206,rough,15.5,2,8.304
3650,116.80,2.2721,4.9940,0.9390,-0.0422,-0.3599,0.0232,rough,15.5,2,8.306
3660,117.12,2.2721,4.9986,0.9388,-0.0435,-0.3598,0.0270,rough,15.5,2,8.309
3670,117.44,2.2721,5.0051,0.9386,-0.0453,-0.3595,0.0321,rough,15.5,2,8.313
3680,117.76,2.2719,5.0140,0.9382,-0.0479,-0.3592,0.0393,rough,15.5,2,8.319
3690,118.08,2.2715,5.0265,0.9376,-0.0517,-0.3586,0.0500,rough,15.5,2,8.328
3700,118.40,2.2699,5.0421,0.9358,-0.0516,-0.3549,0.0497,rough,15.5,2,8.340
3710,118.72,2.2690,5.0527,0.9357,-0.0465,-0.3592,0.0348,rough,15.5,2,8.347
3720,119.04,2.2691,5.0570,0.9356,-0.0428,-0.3599,0.0241,rough,15.5,2,8.350
3730,119.36,2.2693,5.0592,0.9356,-0.0410,-0.3601,0.0190,rough,15.5,2,8.352
3740,119.68,2.2695,5.0603,0.9356,-0.0401,-0.3602,0.0165,rough,15.5,2,8.352
3750,120.00,2.2696,5.0609,0.9356,-0.0396,-0.3603,0.0151,rough,15.5,2,8.353
3760,120.32,2.2696,5.0612,0.9356,-0.0394,-0.3603,0.0144,rough,15.5,2,8.353
3770,120.64,2.2696,5.0613,0.9356,-0.0392,-0.3603,0.0140,rough,15.5,2,8.353
3780,120.96,2.2697,5.0614,0.9357,-0.0391,-0.3604,0.0136,rough,15.5,2,8.353
3790,121.28,2.2697,5.0612,0.9357,-0.0389,-0.3604,0.0131,rough,15.5,2,8.353
3800,121.60,2.2697,5.0608,0.9357,-0.0387,-0.3604,0.0124,rough,15.5,2,8.352
3810,121.92,2.2698,5.0601,0.9357,-0.0384,-0.3605,0.0115,rough,15.5,2,8.352
3820,122.24,2.2704,5.0589,0.9360,-0.0379,-0.3605,0.0103,rough,15.5,2,8.351
3830,122.56,2.2709,5.0571,0.9363,-0.0374,-0.3606,0.0086,rough,15.5,2,8.349
3840,122.88,2.2716,5.0546,0.9366,-0.0367,-0.3607,0.0065,rough,15.5,2,8.347
3850,123.20,2.2721,5.0511,0.9369,-0.0356,-0.3608,0.0036,rough,15.5,2,8.344
3860,123.52,2.2721,5.0462,0.9372,-0.0342,-0.3609,-0.0004,rough,15.5,2,8.341
3870,123.84,2.2721,5.0393,0.9374,-0.0322,-0.3611,-0.0059,rough,15.5,2,8.336
3880,124.16,2.2720,5.0297,0.9377,-0.0297,-0.3613,-0.0133,rough,15.5,2,8.330
3890,124.48,2.2715,5.0166,0.9380,-0.0262,-0.3616,-0.0231,rough,15.5,2,8.321
3900,124.80,2.2703,5.0006,0.9370,-0.0258,-0.3543,-0.0240,rough,15.5,2,8.312
3910,125.12,2.2696,4.9908,0.9370,-0.0312,-0.3534,-0.0084,rough,15.5,2,8.306
3920,125.44,2.2699,4.9863,0.9372,-0.0357,-0.3526,0.0046,rough,15.5,2,8.302
3930,125.76,2.2701,4.9844,0.9386,-0.0371,-0.3605,0.0087,rough,15.5,2,8.301
3940,126.08,2.2705,4.9839,0.9387,-0.0381,-0.3601,0.0115,rough,15.5,2,8.300
3950,126.40,2.2701,4.9829,0.9386,-0.0379,-0.3603,0.0108,rough,15.5,2,8.300
3960,126.72,2.2699,4.9816,0.9386,-0.0377,-0.3604,0.0102,rough,15.5,2,8.299
3970,127.04,2.2698,4.9809,0.9386,-0.0383,-0.3603,0.0121,rough,15.5,2,8.299
3980,127.36,2.2698,4.9806,0.9386,-0.0387,-0.3602,0.0131,rough,15.5,2,8.299
3990,127.68,2.2698,4.9805,0.9387,-0.0388,-0.3602,0.0136,rough,15.5,2,8.298
4000,128.00,2.2699,4.9805,0.9387,-0.0390,-0.3602,0.0141,rough,15.5,2,8.298
4010,128.32,2.2701,4.9808,0.9387,-0.0392,-0.3602,0.0146,rough,15.5,2,8.299
4020,128.64,2.2704,4.9814,0.9388,-0.0394,-0.3602,0.0152,rough,15.5,2,8.299
4030,128.96,2.2704,4.9822,0.9388,-0.0398,-0.3601,0.0163,rough,15.5,2,8.299
4040,129.28,2.2709,4.9836,0.9389,-0.0402,-0.3601,0.0175,rough,15.5,2,8.300
4050,129.60,2.2714,4.9855,0.9390,-0.0407,-0.3600,0.0191,rough,15.5,2,8.301
4060,129.92,2.2719,4.9881,0.9392,-0.0414,-0.3600,0.0211,rough,15.5,2,8.302
4070,130.24,2.2721,4.9917,0.9391,-0.0425,-0.3599,0.0240,rough,15.5,2,8.304
4080,130.56,2.2721,4.9967,0.9389,-0.0440,-0.3597,0.0282,rough,15.5,2,8.308
4090,130.88,2.2721,5.0038,0.9387,-0.0460,-0.3594,0.0339,rough,15.5,2,8.312
4100,131.20,2.2719,5.0137,0.9382,-0.0489,-0.3590,0.0422,rough,15.5,2,8.319
4110,131.52,2.2714,5.0276,0.9375,-0.0532,-0.3584,0.0544,rough,15.5,2,8.329
4120,131.84,2.2696,5.0438,0.9360,-0.0514,-0.3569,0.0491,rough,15.5,2,8.341
4130,132.16,2.2691,5.0532,0.9357,-0.0462,-0.3594,0.0340,rough,15.5,2,8.348
4140,132.48,2.2691,5.0573,0.9356,-0.0426,-0.3600,0.0235,rough,15.5,2,8.350
4150,132.80,2.2693,5.0593,0.9356,-0.0409,-0.3602,0.0188,rough,15.5,2,8.352
4160,133.12,2.2695,5.0604,0.9356,-0.0400,-0.3602,0.0163,rough,15.5,2,8.352
4170,133.44,2.2696,5.0609,0.9356,-0.0396,-0.3603,0.0150,rough,15.5,2,8.353
4180,133.76,2.2696,5.0612,0.9356,-0.0393,-0.3603,0.0144,rough,15.5,2,8.353
4190,134.08,2.2696,5.0613,0.9356,-0.0392,-0.3603,0.0140,rough,15.5,2,8.353
4200,134.40,2.2697,5.0614,0.9357,-0.0391,-0.3604,0.0136,rough,15.5,2,8.353
4210,134.72,2.2697,5.0612,0.9357,-0.0389,-0.3604,0.0131,rough,15.5,2,8.353
4220,135.04,2.2697,5.0608,0.9357,-0.0387,-0.3604,0.0124,rough,15.5,2,8.352
4230,135.36,2.2698,5.0600,0.9358,-0.0383,-0.3605,0.0114,rough,15.5,2,8.352
4240,135.68,2.2704,5.0588,0.9360,-0.0379,-0.3605,0.0102,rough,15.5,2,8.351
4250,136.00,2.2709,5.0570,0.9363,-0.0373,-0.3606,0.0085,rough,15.5,2,8.349
4260,136.32,2.2716,5.0544,0.9367,-0.0366,-0.3607,0.0063,rough,15.5,2,8.347
4270,136.64,2.2721,5.0508,0.9370,-0.0355,-0.3608,0.0034,rough,15.5,2,8.344
4280,136.96,2.2721,5.0457,0.9372,-0.0341,-0.3609,-0.0008,rough,15.5,2,8.340
4290,137.28,2.2721,5.0387,0.9374,-0.0321,-0.3611,-0.0064,rough,15.5,2,8.336
4300,137.60,2.2719,5.0289,0.9377,-0.0294,-0.3613,-0.0140,rough,15.5,2,8.329
4310,137.92,2.2715,5.0155,0.9380,-0.0259,-0.3616,-0.0240,rough,15.5,2,8.321
4320,138.24,2.2700,4.9999,0.9376,-0.0261,-0.3590,-0.0232,rough,15.5,2,8.311
4330,138.56,2.2695,4.9908,0.9381,-0.0315,-0.3604,-0.0075,rough,15.5,2,8.306
4340,138.88,2.2697,4.9862,0.9383,-0.0351,-0.3597,0.0028,rough,15.5,2,8.302
4350,139.20,2.2702,4.9847,0.9381,-0.0377,-0.3568,0.0105,rough,15.5,2,8.301
4360,139.52,2.2701,4.9835,0.9386,-0.0376,-0.3604,0.0101,rough,15.5,2,8.300
4370,139.84,2.2699,4.9819,0.9386,-0.0373,-0.3604,0.0093,rough,15.5,2,8.299
4380,140.16,2.2698,4.9810,0.9386,-0.0382,-0.3603,0.0118,rough,15.5,2,8.299
4390,140.48,2.2698,4.9806,0.9386,-0.0386,-0.3602,0.0129,rough,15.5,2,8.299
4400,140.80,2.2698,4.9805,0.9386,-0.0388,-0.3602,0.0135,rough,15.5,2,8.298
4410,141.12,2.2699,4.9805,0.9387,-0.0389,-0.3602,0.0139,rough,15.5,2,8.298
4420,141.44,2.2701,4.9808,0.9387,-0.0391,-0.3602,0.0145,rough,15.5,2,8.299
4430,141.76,2.2703,4.9812,0.9388,-0.0393,-0.3602,0.0151,rough,15.5,2,8.299
4440,142.08,2.2704,4.9820,0.9388,-0.0397,-0.3601,0.0160,rough,15.5,2,8.299
4450,142.40,2.2709,4.9832,0.9390,-0.0400,-0.3601,0.0171,rough,15.5,2,8.300
4460,142.72,2.2713,4.9850,0.9391,-0.0406,-0.3601,0.0186,rough,15.5,2,8.300
4470,143.04,2.2718,4.9874,0.9391,-0.0412,-0.3600,0.0206,rough,15.5,2,8.302
4480,143.36,2.2721,4.9907,0.9391,-0.0422,-0.3599,0.0232,rough,15.5,2,8.304
4490,143.68,2.2721,4.9953,0.9390,-0.0435,-0.3597,0.0270,rough,15.5,2,8.307
4500,144.00,2.2721,5.0018,0.9387,-0.0454,-0.3595,0.0323,rough,15.5,2,8.311
4510,144.32,2.2720,5.0109,0.9384,-0.0481,-0.3592,0.0399,rough,15.5,2,8.317
4520,144.64,2.2716,5.0237,0.9377,-0.0519,-0.3586,0.0509,rough,15.5,2,8.326
4530,144.96,2.2700,5.0403,0.9353,-0.0531,-0.3505,0.0542,rough,15.5,2,8.338
4540,145.28,2.2690,5.0520,0.9357,-0.0471,-0.3590,0.0365,rough,15.5,2,8.347
4550,145.60,2.2691,5.0567,0.9356,-0.0431,-0.3599,0.0251,rough,15.5,2,8.350
4560,145.92,2.2693,5.0590,0.9356,-0.0412,-0.3601,0.0195,rough,15.5,2,8.352
4570,146.24,2.2695,5.0602,0.9356,-0.0402,-0.3602,0.0167,rough,15.5,2,8.352
4580,146.56,2.2696,5.0608,0.9356,-0.0396,-0.3603,0.0152,rough,15.5,2,8.353
4590,146.88,2.2696,5.0612,0.9356,-0.0394,-0.3603,0.0145,rough,15.5,2,8.353
4600,147.20,2.2696,5.0613,0.9356,-0.0392,-0.3603,0.0141,rough,15.5,2,8.353
4610,147.52,2.2697,5.0614,0.9357,-0.0391,-0.3604,0.0137,rough,15.5,2,8.353
4620,147.84,2.2697,5.0612,0.9357,-0.0389,-0.3604,0.0132,rough,15.5,2,8.353
4630,148.16,2.2697,5.0609,0.9357,-0.0387,-0.3604,0.0125,rough,15.5,2,8.352
4640,148.48,2.2698,5.0602,0.9357,-0.0384,-0.3605,0.0116,rough,15.5,2,8.352
4650,148.80,2.2703,5.0591,0.9360,-0.0380,-0.3605,0.0104,rough,15.5,2,8.351
4660,149.12,2.2707,5.0574,0.9362,-0.0375,-0.3606,0.0088,rough,15.5,2,8.349
4670,149.44,2.2715,5.0550,0.9366,-0.0368,-0.3607,0.0068,rough,15.5,2,8.347
4680,149.76,2.2720,5.0516,0.9369,-0.0358,-0.3608,0.0040,rough,15.5,2,8.344
4690,150.08,2.2721,5.0468,0.9371,-0.0344,-0.3609,0.0001,rough,15.5,2,8.341
4700,150.40,2.2721,5.0402,0.9374,-0.0325,-0.3611,-0.0052,rough,15.5,2,8.337
4710,150.72,2.2720,5.0310,0.9377,-0.0300,-0.3613,-0.0124,rough,15.5,2,8.331
4720,151.04,2.2716,5.0183,0.9380,-0.0267,-0.3615,-0.0219,rough,15.5,2,8.322
4730,151.36,2.2705,5.0024,0.9357,-0.0252,-0.3462,-0.0256,rough,15.5,2,8.313
4740,151.68,2.2696,4.9921,0.9370,-0.0307,-0.3536,-0.0097,rough,15.5,2,8.306
4750,152.00,2.2699,4.9869,0.9371,-0.0349,-0.3526,0.0024,rough,15.5,2,8.303
4760,152.32,2.2702,4.9848,0.9360,-0.0374,-0.3438,0.0097,rough,15.5,2,8.301
4770,152.64,2.2702,4.9837,0.9387,-0.0377,-0.3603,0.0103,rough,15.5,2,8.300
4780,152.96,2.2699,4.9823,0.9386,-0.0374,-0.3604,0.0096,rough,15.5,2,8.300
4790,153.28,2.2698,4.9811,0.9386,-0.0380,-0.3603,0.0113,rough,15.5,2,8.299
4800,153.60,2.2698,4.9807,0.9386,-0.0385,-0.3602,0.0128,rough,15.5,2,8.299
4810,153.92,2.2698,4.9805,0.9386,-0.0388,-0.3602,0.0134,rough,15.5,2,8.299
4820,154.24,2.2699,4.9805,0.9387,-0.0389,-0.3602,0.0138,rough,15.5,2,8.298
4830,154.56,2.2700,4.9807,0.9387,-0.0391,-0.3602,0.0143,rough,15.5,2,8.298
4840,154.88,2.2703,4.9811,0.9388,-0.0393,-0.3602,0.0149,rough,15.5,2,8.299
4850,155.20,2.2704,4.9818,0.9388,-0.0396,-0.3601,0.0158,rough,15.5,2,8.299
4860,155.52,2.2707,4.9829,0.9389,-0.0400,-0.3601,0.0169,rough,15.5,2,8.299
4870,155.84,2.2711,4.9845,0.9390,-0.0405,-0.3601,0.0183,rough,15.5,2,8.300
4880,156.16,2.2717,4.9868,0.9391,-0.0411,-0.3600,0.0201,rough,15.5,2,8.301
4890,156.48,2.2721,4.9899,0.9391,-0.0420,-0.3599,0.0226,rough,15.5,2,8.303
4900,156.80,2.2721,4.9942,0.9390,-0.0432,-0.3598,0.0261,rough,15.5,2,8.306
4910,157.12,2.2721,5.0003,0.9388,-0.0450,-0.3596,0.0311,rough,15.5,2,8.310
4920,157.44,2.2720,5.0087,0.9384,-0.0474,-0.3592,0.0381,rough,15.5,2,8.316
4930,157.76,2.2717,5.0206,0.9379,-0.0510,-0.3587,0.0482,rough,15.5,2,8.324
4940,158.08,2.2705,5.0370,0.9370,-0.0553,-0.3591,0.0605,rough,15.5,2,8.336
4950,158.40,2.2690,5.0502,0.9357,-0.0483,-0.3587,0.0400,rough,15.5,2,8.346
4960,158.72,2.2691,5.0559,0.9356,-0.0439,-0.3598,0.0275,rough,15.5,2,8.350
4970,159.04,2.2692,5.0586,0.9356,-0.0415,-0.3601,0.0205,rough,15.5,2,8.351
4980,159.36,2.2694,5.0600,0.9356,-0.0403,-0.3602,0.0172,rough,15.5,2,8.352
4990,159.68,2.2695,5.0607,0.9356,-0.0397,-0.3603,0.0155,rough,15.5,2,8.352
5000,160.00,2.2696,5.0611,0.9356,-0.0394,-0.3603,0.0146,rough,15.5,2,8.353
5010,160.32,2.2696,5.0613,0.9356,-0.0393,-0.3603,0.0141,rough,15.5,2,8.353
5020,160.64,2.2696,5.0614,0.9357,-0.0391,-0.3603,0.0138,rough,15.5,2,8.353
5030,160.96,2.2697,5.0613,0.9357,-0.0390,-0.3604,0.0133,rough,15.5,2,8.353
5040,161.28,2.2697,5.0610,0.9357,-0.0388,-0.3604,0.0127,rough,15.5,2,8.353
5050,161.60,2.2698,5.0604,0.9357,-0.0385,-0.3604,0.0118,rough,15.5,2,8.352
5060,161.92,2.2702,5.0594,0.9359,-0.0381,-0.3605,0.0107,rough,15.5,2,8.351
5070,162.24,2.2705,5.0578,0.9361,-0.0376,-0.3606,0.0092,rough,15.5,2,8.350
5080,162.56,2.2713,5.0556,0.9365,-0.0369,-0.3607,0.0073,rough,15.5,2,8.348
5090,162.88,2.2720,5.0525,0.9369,-0.0360,-0.3608,0.0048,rough,15.5,2,8.345
5100,163.20,2.2721,5.0481,0.9371,-0.0348,-0.3609,0.0012,rough,15.5,2,8.342
5110,163.52,2.2721,5.0420,0.9373,-0.0330,-0.3610,-0.0038,rough,15.5,2,8.338
5120,163.84,2.2720,5.0335,0.9376,-0.0307,-0.3612,-0.0104,rough,15.5,2,8.332
5130,164.16,2.2717,5.0218,0.9379,-0.0276,-0.3615,-0.0193,rough,15.5,2,8.325
5140,164.48,2.2710,5.0058,0.9382,-0.0233,-0.3617,-0.0314,rough,15.5,2,8.315
5150,164.80,2.2694,4.9941,0.9382,-0.0284,-0.3622,-0.0165,rough,15.5,2,8.308
5160,165.12,2.2694,4.9876,0.9383,-0.0332,-0.3612,-0.0026,rough,15.5,2,8.304
5170,165.44,2.2699,4.9851,0.9385,-0.0366,-0.3604,0.0072,rough,15.5,2,8.301
5180,165.76,2.2702,4.9840,0.9387,-0.0377,-0.3603,0.0102,rough,15.5,2,8.301
5190,166.08,2.2700,4.9825,0.9386,-0.0375,-0.3604,0.0098,rough,15.5,2,8.300
5200,166.40,2.2698,4.9812,0.9386,-0.0379,-0.3603,0.0109,rough,15.5,2,8.299
5210,166.72,2.2698,4.9807,0.9386,-0.0385,-0.3602,0.0126,rough,15.5,2,8.299
5220,167.04,2.2698,4.9805,0.9386,-0.0387,-0.3602,0.0133,rough,15.5,2,8.299
5230,167.36,2.2699,4.9805,0.9387,-0.0389,-0.3602,0.0138,rough,15.5,2,8.298
5240,167.68,2.2700,4.9806,0.9387,-0.0391,-0.3602,0.0143,rough,15.5,2,8.298
5250,168.00,2.2702,4.9810,0.9388,-0.0392,-0.3602,0.0148,rough,15.5,2,8.299
5260,168.32,2.2703,4.9817,0.9388,-0.0395,-0.3601,0.0156,rough,15.5,2,8.299
5270,168.64,2.2706,4.9827,0.9389,-0.0399,-0.3601,0.0167,rough,15.5,2,8.299
5280,168.96,2.2710,4.9842,0.9389,-0.0404,-0.3601,0.0181,rough,15.5,2,8.300
5290,169.28,2.2716,4.9864,0.9391,-0.0410,-0.3600,0.0199,rough,15.5,2,8.301
5300,169.60,2.2720,4.9894,0.9391,-0.0418,-0.3599,0.0222,rough,15.5,2,8.303
5310,169.92,2.2721,4.9935,0.9390,-0.0430,-0.3598,0.0255,rough,15.5,2,8.305
5320,170.24,2.2721,4.9993,0.9388,-0.0447,-0.3596,0.0303,rough,15.5,2,8.309
5330,170.56,2.2721,5.0073,0.9385,-0.0470,-0.3593,0.0369,rough,15.5,2,8.315
5340,170.88,2.2718,5.0187,0.9380,-0.0504,-0.3588,0.0465,rough,15.5,2,8.323
5350,171.20,2.2710,5.0347,0.9371,-0.0556,-0.3580,0.0614,rough,15.5,2,8.334
5360,171.52,2.2692,5.0489,0.9358,-0.0491,-0.3584,0.0424,rough,15.5,2,8.345
5370,171.84,2.2692,5.0554,0.9357,-0.0445,-0.3597,0.0290,rough,15.5,2,8.349
5380,172.16,2.2692,5.0583,0.9356,-0.0417,-0.3601,0.0211,rough,15.5,2,8.351
5390,172.48,2.2694,5.0599,0.9356,-0.0405,-0.3602,0.0175,rough,15.5,2,8.352
5400,172.80,2.2695,5.0607,0.9356,-0.0398,-0.3603,0.0157,rough,15.5,2,8.352
5410,173.12,2.2696,5.0611,0.9356,-0.0395,-0.3603,0.0147,rough,15.5,2,8.353
5420,173.44,2.2696,5.0613,0.9356,-0.0393,-0.3603,0.0142,rough,15.5,2,8.353
5430,173.76,2.2696,5.0614,0.9357,-0.0392,-0.3603,0.0138,rough,15.5,2,8.353
5440,174.08,2.2697,5.0613,0.9357,-0.0390,-0.3604,0.0134,rough,15.5,2,8.353
5450,174.40,2.2697,5.0610,0.9357,-0.0388,-0.3604,0.0128,rough,15.5,2,8.353
5460,174.72,2.2698,5.0605,0.9357,-0.0385,-0.3604,0.0120,rough,15.5,2,8.352
5470,175.04,2.2700,5.0595,0.9359,-0.0382,-0.3605,0.0109,rough,15.5,2,8.351
5480,175.36,2.2704,5.0581,0.9361,-0.0377,-0.3606,0.0095,rough,15.5,2,8.350
5490,175.68,2.2712,5.0560,0.9365,-0.0370,-0.3606,0.0076,rough,15.5,2,8.348
5500,176.00,2.2719,5.0530,0.9368,-0.0362,-0.3608,0.0052,rough,15.5,2,8.346
5510,176.32,2.2721,5.0488,0.9370,-0.0350,-0.3609,0.0017,rough,15.5,2,8.343
5520,176.64,2.2721,5.0430,0.9373,-0.0333,-0.3610,-0.0030,rough,15.5,2,8.339
5530,176.96,2.2721,5.0348,0.9375,-0.0310,-0.3612,-0.0094,rough,15.5,2,8.333
5540,177.28,2.2718,5.0236,0.9379,-0.0280,-0.3614,-0.0179,rough,15.5,2,8.326
5550,177.60,2.2711,5.0083,0.9382,-0.0240,-0.3617,-0.0294,rough,15.5,2,8.316
5560,177.92,2.2697,4.9949,0.9369,-0.0285,-0.3540,-0.0161,rough,15.5,2,8.308
5570,178.24,2.2697,4.9879,0.9371,-0.0336,-0.3528,-0.0014,rough,15.5,2,8.304
5580,178.56,2.2701,4.9853,0.9373,-0.0370,-0.3524,0.0085,rough,15.5,2,8.301
5590,178.88,2.2704,4.9844,0.9386,-0.0382,-0.3595,0.0118,rough,15.5,2,8.301
5600,179.20,2.2703,4.9835,0.9387,-0.0380,-0.3603,0.0112,rough,15.5,2,8.300
5610,179.52,2.2701,4.9823,0.9387,-0.0378,-0.3603,0.0106,rough,15.5,2,8.300
5620,179.84,2.2698,4.9811,0.9386,-0.0379,-0.3603,0.0110,rough,15.5,2,8.299
5630,180.16,2.2698,4.9807,0.9386,-0.0385,-0.3602,0.0127,rough,15.5,2,8.299
5640,180.48,2.2698,4.9805,0.9386,-0.0387,-0.3602,0.0133,rough,15.5,2,8.299
5650,180.80,2.2699,4.9805,0.9387,-0.0389,-0.3602,0.0138,rough,15.5,2,8.298
5660,181.12,2.2700,4.9807,0.9387,-0.0391,-0.3602,0.0143,rough,15.5,2,8.298
5670,181.44,2.2702,4.9811,0.9388,-0.0393,-0.3602,0.0149,rough,15.5,2,8.299
5680,181.76,2.2703,4.9817,0.9388,-0.0396,-0.3601,0.0157,rough,15.5,2,8.299
5690,182.08,2.2707,4.9828,0.9389,-0.0399,-0.3601,0.0168,rough,15.5,2,8.299
5700,182.40,2.2711,4.9844,0.9390,-0.0404,-0.3601,0.0183,rough,15.5,2,8.300
5710,182.72,2.2717,4.9867,0.9391,-0.0411,-0.3600,0.0200,rough,15.5,2,8.301
5720,183.04,2.2720,4.9897,0.9391,-0.0419,-0.3599,0.0225,rough,15.5,2,8.303
5730,183.36,2.2721,4.9940,0.9390,-0.0432,-0.3598,0.0259,rough,15.5,2,8.306
5740,183.68,2.2721,5.0000,0.9388,-0.0449,-0.3596,0.0308,rough,15.5,2,8.310
5750,184.00,2.2721,5.0083,0.9385,-0.0473,-0.3593,0.0377,rough,15.5,2,8.315
5760,184.32,2.2717,5.0200,0.9379,-0.0508,-0.3588,0.0477,rough,15.5,2,8.324
5770,184.64,2.2705,5.0362,0.9370,-0.0550,-0.3591,0.0598,rough,15.5,2,8.335
5780,184.96,2.2692,5.0500,0.9358,-0.0485,-0.3586,0.0406,rough,15.5,2,8.346
5790,185.28,2.2691,5.0557,0.9357,-0.0441,-0.3598,0.0278,rough,15.5,2,8.349
5800,185.60,2.2692,5.0585,0.9356,-0.0415,-0.3601,0.0205,rough,15.5,2,8.351
5810,185.92,2.2694,5.0599,0.9356,-0.0404,-0.3602,0.0173,rough,15.5,2,8.352
5820,186.24,2.2695,5.0607,0.9356,-0.0398,-0.3603,0.0155,rough,15.5,2,8.352
5830,186.56,2.2696,5.0611,0.9356,-0.0394,-0.3603,0.0146,rough,15.5,2,8.353
5840,186.88,2.2696,5.0613,0.9356,-0.0393,-0.3603,0.0141,rough,15.5,2,8.353
5850,187.20,2.2696,5.0614,0.9357,-0.0391,-0.3603,0.0138,rough,15.5,2,8.353
5860,187.52,2.2697,5.0613,0.9357,-0.0390,-0.3604,0.0134,rough,15.5,2,8.353
5870,187.84,2.2697,5.0610,0.9357,-0.0388,-0.3604,0.0127,rough,15.5,2,8.353
5880,188.16,2.2698,5.0604,0.9357,-0.0385,-0.3604,0.0119,rough,15.5,2,8.352
5890,188.48,2.2701,5.0594,0.9359,-0.0381,-0.3605,0.0108,rough,15.5,2,8.351
5900,188.80,2.2704,5.0579,0.9361,-0.0376,-0.3606,0.0093,rough,15.5,2,8.350
5910,189.12,2.2712,5.0557,0.9365,-0.0370,-0.3607,0.0074,rough,15.5,2,8.348
5920,189.44,2.2720,5.0527,0.9369,-0.0361,-0.3608,0.0049,rough,15.5,2,8.345
5930,189.76,2.2721,5.0484,0.9371,-0.0348,-0.3609,0.0013,rough,15.5,2,8.342
5940,190.08,2.2721,5.0423,0.9373,-0.0331,-0.3610,-0.0035,rough,15.5,2,8.338
5950,190.40,2.2720,5.0339,0.9376,-0.0308,-0.3613,-0.0101,rough,15.5,2,8.333
5960,190.72,2.2718,5.0223,0.9379,-0.0277,-0.3615,-0.0189,rough,15.5,2,8.325
5970,191.04,2.2710,5.0066,0.9382,-0.0235,-0.3617,-0.0308,rough,15.5,2,8.315
5980,191.36,2.2695,4.9939,0.9376,-0.0287,-0.3587,-0.0157,rough,15.5,2,8.308
5990,191.68,2.2696,4.9875,0.9378,-0.0338,-0.3576,-0.0009,rough,15.5,2,8.303
6000,192.00,2.2701,4.9851,0.9380,-0.0371,-0.3569,0.0087,rough,15.5,2,8.301
6010,192.32,2.2704,4.9843,0.9387,-0.0382,-0.3598,0.0117,rough,15.5,2,8.301
6020,192.64,2.2703,4.9833,0.9387,-0.0380,-0.3603,0.0111,rough,15.5,2,8.300
6030,192.96,2.2701,4.9822,0.9387,-0.0377,-0.3603,0.0105,rough,15.5,2,8.299
6040,193.28,2.2698,4.9811,0.9386,-0.0380,-0.3603,0.0113,rough,15.5,2,8.299
6050,193.60,2.2698,4.9807,0.9386,-0.0386,-0.3602,0.0128,rough,15.5,2,8.299
6060,193.92,2.2698,4.9805,0.9386,-0.0388,-0.3602,0.0134,rough,15.5,2,8.299
6070,194.24,2.2699,4.9805,0.9387,-0.0389,-0.3602,0.0139,rough,15.5,2,8.298
6080,194.56,2.2700,4.9807,0.9387,-0.0391,-0.3602,0.0144,rough,15.5,2,8.298
6090,194.88,2.2703,4.9811,0.9388,-0.0393,-0.3602,0.0150,rough,15.5,2,8.299
6100,195.20,2.2704,4.9818,0.9388,-0.0396,-0.3601,0.0158,rough,15.5,2,8.299
6110,195.52,2.2708,4.9830,0.9389,-0.0400,-0.3601,0.0170,rough,15.5,2,8.299
6120,195.84,2.2712,4.9846,0.9390,-0.0405,-0.3601,0.0184,rough,15.5,2,8.300
6130,196.16,2.2717,4.9869,0.9391,-0.0411,-0.3600,0.0203,rough,15.5,2,8.301
6140,196.48,2.2721,4.9901,0.9391,-0.0420,-0.3599,0.0228,rough,15.5,2,8.303
6150,196.80,2.2721,4.9945,0.9390,-0.0433,-0.3598,0.0264,rough,15.5,2,8.306
6160,197.12,2.2721,5.0007,0.9388,-0.0451,-0.3595,0.0315,rough,15.5,2,8.310
6170,197.44,2.2720,5.0094,0.9384,-0.0476,-0.3592,0.0386,rough,15.5,2,8.316
6180,197.76,2.2717,5.0215,0.9378,-0.0513,-0.3587,0.0491,rough,15.5,2,8.325
6190,198.08,2.2705,5.0378,0.9343,-0.0533,-0.3425,0.0545,rough,15.5,2,8.336
6200,198.40,2.2691,5.0509,0.9358,-0.0479,-0.3588,0.0388,rough,15.5,2,8.346
6210,198.72,2.2691,5.0562,0.9356,-0.0437,-0.3598,0.0266,rough,15.5,2,8.350
6220,199.04,2.2693,5.0587,0.9356,-0.0414,-0.3601,0.0201,rough,15.5,2,8.351
6230,199.36,2.2694,5.0601,0.9356,-0.0403,-0.3602,0.0170,rough,15.5,2,8.352
6240,199.68,2.2695,5.0608,0.9356,-0.0397,-0.3603,0.0154,rough,15.5,2,8.353
6250,200.00,2.2696,5.0611,0.9356,-0.0394,-0.3603,0.0145,rough,15.5,2,8.353
6260,200.32,2.2696,5.0613,0.9356,-0.0393,-0.3603,0.0141,rough,15.5,2,8.353
6270,200.64,2.2696,5.0614,0.9357,-0.0391,-0.3603,0.0138,rough,15.5,2,8.353
6280,200.96,2.2697,5.0613,0.9357,-0.0390,-0.3604,0.0133,rough,15.5,2,8.353
6290,201.28,2.2697,5.0609,0.9357,-0.0387,-0.3604,0.0126,rough,15.5,2,8.352
6300,201.60,2.2698,5.0603,0.9357,-0.0385,-0.3604,0.0118,rough,15.5,2,8.352
6310,201.92,2.2702,5.0592,0.9360,-0.0381,-0.3605,0.0106,rough,15.5,2,8.351
6320,202.24,2.2706,5.0577,0.9362,-0.0375,-0.3606,0.0091,rough,15.5,2,8.350
6330,202.56,2.2714,5.0554,0.9365,-0.0369,-0.3607,0.0072,rough,15.5,2,8.348
6340,202.88,2.2720,5.0522,0.9369,-0.0359,-0.3608,0.0045,rough,15.5,2,8.345
6350,203.20,2.2721,5.0477,0.9371,-0.0346,-0.3609,0.0008,rough,15.5,2,8.342
6360,203.52,2.2721,5.0414,0.9373,-0.0328,-0.3610,-0.0043,rough,15.5,2,8.338
6370,203.84,2.2720,5.0326,0.9376,-0.0304,-0.3612,-0.0111,rough,15.5,2,8.332
6380,204.16,2.2717,5.0206,0.9379,-0.0272,-0.3615,-0.0202,rough,15.5,2,8.324
6390,204.48,2.2706,5.0047,0.9382,-0.0239,-0.3625,-0.0295,rough,15.5,2,8.314
6400,204.80,2.2698,4.9938,0.9357,-0.0300,-0.3455,-0.0117,rough,15.5,2,8.307
6410,205.12,2.2698,4.9876,0.9358,-0.0342,-0.3445,0.0004,rough,15.5,2,8.303
6420,205.44,2.2701,4.9851,0.9360,-0.0372,-0.3441,0.0091,rough,15.5,2,8.301
6430,205.76,2.2702,4.9838,0.9386,-0.0374,-0.3603,0.0096,rough,15.5,2,8.300
6440,206.08,2.2698,4.9821,0.9386,-0.0372,-0.3604,0.0088,rough,15.5,2,8.300
6450,206.40,2.2698,4.9811,0.9386,-0.0381,-0.3603,0.0115,rough,15.5,2,8.299
6460,206.72,2.2698,4.9807,0.9386,-0.0386,-0.3602,0.0128,rough,15.5,2,8.299
6470,207.04,2.2698,4.9805,0.9386,-0.0388,-0.3602,0.0134,rough,15.5,2,8.298
6480,207.36,2.2699,4.9805,0.9387,-0.0389,-0.3602,0.0139,rough,15.5,2,8.298
6490,207.68,2.2700,4.9807,0.9387,-0.0391,-0.3602,0.0144,rough,15.5,2,8.298
6500,208.00,2.2703,4.9811,0.9388,-0.0393,-0.3602,0.0150,rough,15.5,2,8.299
6510,208.32,2.2704,4.9819,0.9388,-0.0396,-0.3601,0.0159,rough,15.5,2,8.299
6520,208.64,2.2708,4.9830,0.9389,-0.0400,-0.3601,0.0170,rough,15.5,2,8.299
6530,208.96,2.2712,4.9847,0.9390,-0.0405,-0.3601,0.0185,rough,15.5,2,8.300
6540,209.28,2.2718,4.9870,0.9391,-0.0412,-0.3600,0.0203,rough,15.5,2,8.301
6550,209.60,2.2721,4.9902,0.9391,-0.0421,-0.3599,0.0228,rough,15.5,2,8.303
6560,209.92,2.2721,4.9947,0.9390,-0.0433,-0.3598,0.0265,rough,15.5,2,8.306
6570,210.24,2.2721,5.0009,0.9388,-0.0451,-0.3595,0.0316,rough,15.5,2,8.310
6580,210.56,2.2720,5.0096,0.9384,-0.0477,-0.3592,0.0388,rough,15.5,2,8.316
6590,210.88,2.2717,5.0218,0.9378,-0.0514,-0.3587,0.0493,rough,15.5,2,8.325
6600,211.20,2.2704,5.0381,0.9343,-0.0533,-0.3429,0.0543,rough,15.5,2,8.337
6610,211.52,2.2690,5.0508,0.9357,-0.0479,-0.3589,0.0389,rough,15.5,2,8.346
6620,211.84,2.2691,5.0561,0.9356,-0.0436,-0.3598,0.0266,rough,15.5,2,8.350
6630,212.16,2.2692,5.0587,0.9356,-0.0414,-0.3601,0.0202,rough,15.5,2,8.351
6640,212.48,2.2694,5.0601,0.9356,-0.0403,-0.3602,0.0170,rough,15.5,2,8.352
6650,212.80,2.2695,5.0608,0.9356,-0.0397,-0.3603,0.0154,rough,15.5,2,8.353
6660,213.12,2.2696,5.0611,0.9356,-0.0394,-0.3603,0.0146,rough,15.5,2,8.353
6670,213.44,2.2696,5.0613,0.9356,-0.0393,-0.3603,0.0141,rough,15.5,2,8.353
6680,213.76,2.2696,5.0614,0.9357,-0.0391,-0.3603,0.0138,rough,15.5,2,8.353
6690,214.08,2.2697,5.0613,0.9357,-0.0390,-0.3604,0.0133,rough,15.5,2,8.353
6700,214.40,2.2697,5.0609,0.9357,-0.0388,-0.3604,0.0126,rough,15.5,2,8.352
6710,214.72,2.2698,5.0603,0.9357,-0.0385,-0.3604,0.0118,rough,15.5,2,8.352
6720,215.04,2.2702,5.0593,0.9360,-0.0381,-0.3605,0.0106,rough,15.5,2,8.351
6730,215.36,2.2706,5.0577,0.9362,-0.0375,-0.3606,0.0091,rough,15.5,2,8.350
6740,215.68,2.2714,5.0554,0.9365,-0.0369,-0.3607,0.0072,rough,15.5,2,8.348
6750,216.00,2.2720,5.0522,0.9369,-0.0360,-0.3608,0.0046,rough,15.5,2,8.345
6760,216.32,2.2721,5.0478,0.9371,-0.0346,-0.3609,0.0009,rough,15.5,2,8.342
6770,216.64,2.2721,5.0415,0.9373,-0.0329,-0.3610,-0.0042,rough,15.5,2,8.338
6780,216.96,2.2720,5.0328,0.9376,-0.0305,-0.3612,-0.0110,rough,15.5,2,8.332
6790,217.28,2.2717,5.0208,0.9379,-0.0273,-0.3615,-0.0200,rough,15.5,2,8.324
6800,217.60,2.2709,5.0045,0.9382,-0.0229,-0.3618,-0.0324,rough,15.5,2,8.314
6810,217.92,2.2694,4.9929,0.9380,-0.0293,-0.3609,-0.0138,rough,15.5,2,8.307
6820,218.24,2.2695,4.9870,0.9382,-0.0341,-0.3599,-0.0000,rough,15.5,2,8.303
6830,218.56,2.2701,4.9850,0.9384,-0.0372,-0.3591,0.0090,rough,15.5,2,8.301
6840,218.88,2.2705,4.9842,0.9387,-0.0382,-0.3599,0.0117,rough,15.5,2,8.301
6850,219.20,2.2702,4.9833,0.9387,-0.0380,-0.3603,0.0111,rough,15.5,2,8.300
6860,219.52,2.2700,4.9821,0.9387,-0.0377,-0.3603,0.0105,rough,15.5,2,8.299
6870,219.84,2.2698,4.9810,0.9386,-0.0381,-0.3603,0.0114,rough,15.5,2,8.299
6880,220.16,2.2698,4.9807,0.9386,-0.0386,-0.3602,0.0129,rough,15.5,2,8.299
6890,220.48,2.2698,4.9805,0.9386,-0.0388,-0.3602,0.0134,rough,15.5,2,8.298
6900,220.80,2.2699,4.9805,0.9387,-0.0389,-0.3602,0.0139,rough,15.5,2,8.298
6910,221.12,2.2700,4.9807,0.9387,-0.0391,-0.3602,0.0144,rough,15.5,2,8.298
6920,221.44,2.2703,4.9812,0.9388,-0.0393,-0.3602,0.0150,rough,15.5,2,8.299
6930,221.76,2.2704,4.9819,0.9388,-0.0396,-0.3601,0.0159,rough,15.5,2,8.299
6940,222.08,2.2708,4.9831,0.9389,-0.0400,-0.3601,0.0170,rough,15.5,2,8.299
6950,222.40,2.2712,4.9847,0.9390,-0.0405,-0.3601,0.0185,rough,15.5,2,8.300
6960,222.72,2.2718,4.9871,0.9391,-0.0412,-0.3600,0.0203,rough,15.5,2,8.301
6970,223.04,2.2721,4.9903,0.9391,-0.0421,-0.3599,0.0229,rough,15.5,2,8.303
6980,223.36,2.2721,4.9947,0.9390,-0.0434,-0.3598,0.0265,rough,15.5,2,8.306
6990,223.68,2.2721,5.0010,0.9388,-0.0452,-0.3595,0.0316,rough,15.5,2,8.310
7000,224.00,2.2720,5.0097,0.9384,-0.0477,-0.3592,0.0389,rough,15.5,2,8.316
7010,224.32,2.2717,5.0220,0.9378,-0.0514,-0.3587,0.0494,rough,15.5,2,8.325
7020,224.64,2.2704,5.0384,0.9342,-0.0533,-0.3425,0.0546,rough,15.5,2,8.337
7030,224.96,2.2690,5.0509,0.9357,-0.0478,-0.3589,0.0385,rough,15.5,2,8.346
7040,225.28,2.2691,5.0562,0.9356,-0.0436,-0.3598,0.0264,rough,15.5,2,8.350
7050,225.60,2.2692,5.0588,0.9356,-0.0414,-0.3601,0.0201,rough,15.5,2,8.351
7060,225.92,2.2694,5.0601,0.9356,-0.0403,-0.3602,0.0170,rough,15.5,2,8.352
7070,226.24,2.2695,5.0608,0.9356,-0.0397,-0.3603,0.0154,rough,15.5,2,8.353
7080,226.56,2.2696,5.0611,0.9356,-0.0394,-0.3603,0.0145,rough,15.5,2,8.353
7090,226.88,2.2696,5.0613,0.9356,-0.0392,-0.3603,0.0141,rough,15.5,2,8.353
7100,227.20,2.2696,5.0614,0.9357,-0.0391,-0.3603,0.0138,rough,15.5,2,8.353
7110,227.52,2.2697,5.0613,0.9357,-0.0390,-0.3604,0.0133,rough,15.5,2,8.353
7120,227.84,2.2697,5.0609,0.9357,-0.0387,-0.3604,0.0126,rough,15.5,2,8.352
7130,228.16,2.2698,5.0603,0.9357,-0.0385,-0.3604,0.0117,rough,15.5,2,8.352
7140,228.48,2.2702,5.0592,0.9360,-0.0381,-0.3605,0.0106,rough,15.5,2,8.351
7150,228.80,2.2706,5.0577,0.9362,-0.0375,-0.3606,0.0091,rough,15.5,2,8.350
7160,229.12,2.2714,5.0554,0.9366,-0.0369,-0.3607,0.0071,rough,15.5,2,8.347
7170,229.44,2.2720,5.0522,0.9369,-0.0359,-0.3608,0.0045,rough,15.5,2,8.345
7180,229.76,2.2721,5.0476,0.9371,-0.0346,-0.3609,0.0008,rough,15.5,2,8.342
7190,230.08,2.2721,5.0413,0.9373,-0.0328,-0.3610,-0.0043,rough,15.5,2,8.338
7200,230.40,2.2720,5.0325,0.9376,-0.0304,-0.3612,-0.0112,rough,15.5,2,8.332
7210,230.72,2.2717,5.0204,0.9379,-0.0272,-0.3615,-0.0203,rough,15.5,2,8.324
7220,231.04,2.2706,5.0044,0.9382,-0.0239,-0.3626,-0.0297,rough,15.5,2,8.314
7230,231.36,2.2698,4.9937,0.9357,-0.0301,-0.3455,-0.0113,rough,15.5,2,8.307
7240,231.68,2.2698,4.9876,0.9358,-0.0342,-0.3445,0.0005,rough,15.5,2,8.303
7250,232.00,2.2702,4.9851,0.9360,-0.0372,-0.3441,0.0091,rough,15.5,2,8.301
7260,232.32,2.2702,4.9838,0.9386,-0.0374,-0.3603,0.0096,rough,15.5,2,8.300
7270,232.64,2.2698,4.9821,0.9386,-0.0372,-0.3604,0.0088,rough,15.5,2,8.300
7280,232.96,2.2698,4.9811,0.9386,-0.0381,-0.3603,0.0115,rough,15.5,2,8.299
7290,233.28,2.2698,4.9807,0.9386,-0.0386,-0.3602,0.0128,rough,15.5,2,8.299
7300,233.60,2.2698,4.9805,0.9386,-0.0388,-0.3602,0.0134,rough,15.5,2,8.298
7310,233.92,2.2699,4.9805,0.9387,-0.0389,-0.3602,0.0139,rough,15.5,2,8.298
7320,234.24,2.2700,4.9807,0.9387,-0.0391,-0.3602,0.0144,rough,15.5,2,8.298
7330,234.56,2.2703,4.9811,0.9388,-0.0393,-0.3602,0.0150,rough,15.5,2,8.299
7340,234.88,2.2704,4.9819,0.9388,-0.0396,-0.3601,0.0159,rough,15.5,2,8.299
7350,235.20,2.2708,4.9830,0.9389,-0.0400,-0.3601,0.0170,rough,15.5,2,8.299
7360,235.52,2.2712,4.9847,0.9390,-0.0405,-0.3601,0.0185,rough,15.5,2,8.300
7370,235.84,2.2717,4.9870,0.9391,-0.0412,-0.3600,0.0203,rough,15.5,2,8.301
7380,236.16,2.2721,4.9902,0.9391,-0.0421,-0.3599,0.0228,rough,15.5,2,8.303
7390,236.48,2.2721,4.9946,0.9390,-0.0433,-0.3598,0.0264,rough,15.5,2,8.306
7400,236.80,2.2721,5.0009,0.9388,-0.0451,-0.3595,0.0315,rough,15.5,2,8.310
7410,237.12,2.2720,5.0095,0.9384,-0.0477,-0.3592,0.0387,rough,15.5,2,8.316
7420,237.44,2.2717,5.0217,0.9378,-0.0513,-0.3587,0.0492,rough,15.5,2,8.325
7430,237.76,2.2705,5.0380,0.9342,-0.0532,-0.3423,0.0542,rough,15.5,2,8.336
7440,238.08,2.2691,5.0510,0.9358,-0.0478,-0.3588,0.0386,rough,15.5,2,8.346
7450,238.40,2.2691,5.0562,0.9356,-0.0436,-0.3598,0.0264,rough,15.5,2,8.350
7460,238.72,2.2693,5.0588,0.9356,-0.0414,-0.3601,0.0201,rough,15.5,2,8.351
7470,239.04,2.2694,5.0601,0.9356,-0.0403,-0.3602,0.0170,rough,15.5,2,8.352
7480,239.36,2.2695,5.0608,0.9356,-0.0397,-0.3603,0.0154,rough,15.5,2,8.353
7490,239.68,2.2696,5.0611,0.9356,-0.0394,-0.3603,0.0145,rough,15.5,2,8.353
7500,240.00,2.2696,5.0613,0.9356,-0.0392,-0.3603,0.0141,rough,15.5,2,8.353
7510,240.32,2.2696,5.0614,0.9357,-0.0391,-0.3603,0.0138,rough,15.5,2,8.353
7520,240.64,2.2697,5.0613,0.9357,-0.0390,-0.3604,0.0133,rough,15.5,2,8.353
7530,240.96,2.2697,5.0609,0.9357,-0.0387,-0.3604,0.0126,rough,15.5,2,8.352
7540,241.28,2.2698,5.0603,0.9357,-0.0385,-0.3604,0.0117,rough,15.5,2,8.352
7550,241.60,2.2702,5.0592,0.9360,-0.0381,-0.3605,0.0106,rough,15.5,2,8.351
7560,241.92,2.2706,5.0577,0.9362,-0.0375,-0.3606,0.0091,rough,15.5,2,8.350
7570,242.24,2.2714,5.0554,0.9366,-0.0369,-0.3607,0.0071,rough,15.5,2,8.347
7580,242.56,2.2720,5.0522,0.9369,-0.0359,-0.3608,0.0045,rough,15.5,2,8.345
7590,242.88,2.2721,5.0476,0.9371,-0.0346,-0.3609,0.0008,rough,15.5,2,8.342
7600,243.20,2.2721,5.0413,0.9373,-0.0328,-0.3610,-0.0043,rough,15.5,2,8.337
7610,243.52,2.2720,5.0325,0.9376,-0.0304,-0.3612,-0.0112,rough,15.5,2,8.332
7620,243.84,2.2717,5.0204,0.9379,-0.0272,-0.3615,-0.0203,rough,15.5,2,8.324
7630,244.16,2.2706,5.0044,0.9382,-0.0239,-0.3625,-0.0297,rough,15.5,2,8.314
7640,244.48,2.2698,4.9938,0.9357,-0.0301,-0.3455,-0.0113,rough,15.5,2,8.307
7650,244.80,2.2698,4.9876,0.9358,-0.0342,-0.3445,0.0005,rough,15.5,2,8.303
7660,245.12,2.2702,4.9851,0.9360,-0.0372,-0.3441,0.0091,rough,15.5,2,8.301
7670,245.44,2.2702,4.9838,0.9386,-0.0374,-0.3603,0.0096,rough,15.5,2,8.300
7680,245.76,2.2698,4.9821,0.9386,-0.0372,-0.3604,0.0088,rough,15.5,2,8.300
7690,246.08,2.2698,4.9811,0.9386,-0.0381,-0.3603,0.0115,rough,15.5,2,8.299
7700,246.40,2.2698,4.9807,0.9386,-0.0386,-0.3602,0.0128,rough,15.5,2,8.299
7710,246.72,2.2698,4.9805,0.9386,-0.0388,-0.3602,0.0134,rough,15.5,2,8.298
7720,247.04,2.2699,4.9805,0.9387,-0.0389,-0.3602,0.0139,rough,15.5,2,8.298
7730,247.36,2.2700,4.9807,0.9387,-0.0391,-0.3602,0.0144,rough,15.5,2,8.298
7740,247.68,2.2703,4.9811,0.9388,-0.0393,-0.3602,0.0150,rough,15.5,2,8.299
7750,248.00,2.2704,4.9819,0.9388,-0.0396,-0.3601,0.0159,rough,15.5,2,8.299
7760,248.32,2.2708,4.9830,0.9389,-0.0400,-0.3601,0.0170,rough,15.5,2,8.299
7770,248.64,2.2712,4.9847,0.9390,-0.0405,-0.3601,0.0185,rough,15.5,2,8.300
7780,248.96,2.2718,4.9870,0.9391,-0.0412,-0.3600,0.0203,rough,15.5,2,8.301
7790,249.28,2.2721,4.9902,0.9391,-0.0421,-0.3599,0.0228,rough,15.5,2,8.303
7800,249.60,2.2721,4.9947,0.9390,-0.0433,-0.3598,0.0265,rough,15.5,2,8.306
7810,249.92,2.2721,5.0009,0.9388,-0.0451,-0.3595,0.0316,rough,15.5,2,8.310
7820,250.24,2.2720,5.0096,0.9384,-0.0477,-0.3592,0.0388,rough,15.5,2,8.316
7830,250.56,2.2717,5.0218,0.9378,-0.0514,-0.3587,0.0493,rough,15.5,2,8.325
7840,250.88,2.2704,5.0381,0.9343,-0.0533,-0.3429,0.0543,rough,15.5,2,8.337
7850,251.20,2.2690,5.0508,0.9357,-0.0479,-0.3589,0.0389,rough,15.5,2,8.346
7860,251.52,2.2691,5.0561,0.9356,-0.0436,-0.3598,0.0266,rough,15.5,2,8.350
7870,251.84,2.2692,5.0587,0.9356,-0.0414,-0.3601,0.0202,rough,15.5,2,8.351
7880,252.16,2.2694,5.0601,0.9356,-0.0403,-0.3602,0.0170,rough,15.5,2,8.352
7890,252.48,2.2695,5.0608,0.9356,-0.0397,-0.3603,0.0154,rough,15.5,2,8.353
7900,252.80,2.2696,5.0611,0.9356,-0.0394,-0.3603,0.0146,rough,15.5,2,8.353
7910,253.12,2.2696,5.0613,0.9356,-0.0393,-0.3603,0.0141,rough,15.5,2,8.353
7920,253.44,2.2696,5.0614,0.9357,-0.0391,-0.3603,0.0138,rough,15.5,2,8.353
7930,253.76,2.2697,5.0613,0.9357,-0.0390,-0.3604,0.0133,rough,15.5,2,8.353
7940,254.08,2.2697,5.0609,0.9357,-0.0388,-0.3604,0.0126,rough,15.5,2,8.352
7950,254.40,2.2698,5.0603,0.9357,-0.0385,-0.3604,0.0118,rough,15.5,2,8.352
7960,254.72,2.2702,5.0593,0.9360,-0.0381,-0.3605,0.0106,rough,15.5,2,8.351
7970,255.04,2.2706,5.0577,0.9362,-0.0375,-0.3606,0.0091,rough,15.5,2,8.350
7980,255.36,2.2714,5.0554,0.9365,-0.0369,-0.3607,0.0072,rough,15.5,2,8.348
7990,255.68,2.2720,5.0522,0.9369,-0.0360,-0.3608,0.0045,rough,15.5,2,8.345
8000,256.00,2.2721,5.0477,0.9371,-0.0346,-0.3609,0.0009,rough,15.5,2,8.342
8010,256.32,2.2721,5.0415,0.9373,-0.0329,-0.3610,-0.0042,rough,15.5,2,8.338
8020,256.64,2.2720,5.0328,0.9376,-0.0305,-0.3612,-0.0110,rough,15.5,2,8.332
8030,256.96,2.2717,5.0208,0.9379,-0.0273,-0.3615,-0.0201,rough,15.5,2,8.324
