step,time_s,x,y,z,roll,pitch,yaw,terrain,speed,target_idx,dist_to_target
10,0.32,0.0926,-0.0578,0.2189,0.0000,-0.0556,0.0001,rough,15.5,0,5.326
20,0.64,0.4915,-0.0652,0.2479,0.0041,-0.1164,-0.0693,rough,15.5,0,5.018
30,0.96,0.9163,-0.1124,0.3168,0.0441,-0.2303,-0.1912,rough,15.5,0,4.676
40,1.28,1.3247,-0.2061,0.4256,0.0430,-0.3245,-0.2701,rough,15.5,0,4.326
50,1.60,1.7162,-0.3394,0.5677,0.0817,-0.3714,-0.3603,rough,15.5,0,3.969
60,1.92,2.0882,-0.5007,0.7324,0.1144,-0.4169,-0.4355,rough,15.5,0,3.613
70,2.24,2.4484,-0.6942,0.9114,0.1809,-0.4323,-0.5257,rough,15.5,0,3.248
80,2.56,2.8040,-0.9139,1.0925,0.2106,-0.4135,-0.6038,rough,15.5,0,2.874
90,2.88,3.1477,-1.1650,1.2668,0.2185,-0.3735,-0.6807,rough,15.5,0,2.491
100,3.20,3.4710,-1.4477,1.4273,0.2460,-0.3391,-0.7564,rough,15.5,0,2.102
110,3.52,3.7790,-1.7652,1.5658,0.2607,-0.2919,-0.8301,rough,15.5,0,1.703
120,3.84,4.0551,-2.1138,1.6846,0.2871,-0.2383,-0.9202,rough,15.5,0,1.305
130,4.16,4.3043,-2.4813,1.7805,0.3045,-0.1902,-1.0327,rough,15.5,0,0.928
140,4.48,4.4581,-2.8447,1.8349,0.3317,-0.1060,-1.2516,rough,15.5,1,7.555
150,4.80,4.5157,-3.2334,1.8475,0.3216,-0.0243,-1.4692,rough,15.5,1,7.317
160,5.12,4.4847,-3.6685,1.8339,0.3448,0.0505,-1.6629,rough,15.5,1,6.996
170,5.44,4.3803,-4.1150,1.7867,0.3349,0.1148,-1.8236,rough,15.5,1,6.625
180,5.76,4.2205,-4.5572,1.7164,0.3218,0.1609,-1.9411,rough,15.5,1,6.224
190,6.08,4.0406,-4.9991,1.6366,0.3159,0.1846,-1.9999,rough,15.5,1,5.817
200,6.40,3.8229,-5.4174,1.5409,0.3006,0.2094,-2.0802,rough,15.5,1,5.402
210,6.72,3.5873,-5.8278,1.4380,0.2901,0.2291,-2.1394,rough,15.5,1,4.986
220,7.04,3.3247,-6.2105,1.3251,0.2779,0.2508,-2.2050,rough,15.5,1,4.570
230,7.36,3.0418,-6.5788,1.2049,0.2608,0.2641,-2.2704,rough,15.5,1,4.152
240,7.68,2.7350,-6.9291,1.0775,0.2473,0.2790,-2.3354,rough,15.5,1,3.729
250,8.00,2.4069,-7.2555,0.9445,0.2297,0.2888,-2.4013,rough,15.5,1,3.306
260,8.32,2.0618,-7.5613,0.8076,0.2118,0.2971,-2.4698,rough,15.5,1,2.884
270,8.64,1.6982,-7.8405,0.6674,0.1917,0.3050,-2.5439,rough,15.5,1,2.464
280,8.96,1.3136,-8.0912,0.5227,0.1685,0.3146,-2.6266,rough,15.5,1,2.042
290,9.28,0.9096,-8.3021,0.3747,0.1471,0.3201,-2.7063,rough,15.5,1,1.622
300,9.60,0.4985,-8.4842,0.2268,0.1164,0.3333,-2.8242,rough,15.5,1,1.217
310,9.92,0.0761,-8.6063,0.1044,0.0574,0.1825,-2.9088,rough,15.5,1,0.828
320,10.24,-0.3451,-8.6799,0.0525,0.0102,0.0351,-2.9981,rough,15.5,2,5.578
330,10.56,-0.7533,-8.7136,0.0514,0.0165,-0.0202,3.0830,rough,15.5,2,5.404
340,10.88,-1.1834,-8.6754,0.0624,0.0137,-0.0233,2.8949,rough,15.5,2,5.182
350,11.20,-1.6239,-8.5564,0.0742,0.0167,-0.0265,2.7691,rough,15.5,2,4.908
360,11.52,-2.0298,-8.3790,0.0870,0.0179,-0.0278,2.6166,rough,15.5,2,4.615
370,11.84,-2.4121,-8.1318,0.0988,0.0313,-0.0329,2.4886,rough,15.5,2,4.284
380,12.16,-2.7618,-7.8385,0.1148,0.0248,-0.0307,2.3639,rough,15.5,2,3.936
390,12.48,-3.0718,-7.4986,0.1292,0.0267,-0.0290,2.2490,rough,15.5,2,3.568
400,12.80,-3.3479,-7.1280,0.1411,0.0266,-0.0277,2.1365,rough,15.5,2,3.192
410,13.12,-3.5792,-6.7189,0.1543,0.0265,-0.0229,2.0495,rough,15.5,2,2.798
420,13.44,-3.7736,-6.3022,0.1623,0.0268,-0.0283,1.9489,rough,15.5,2,2.416
430,13.76,-3.9306,-5.8609,0.1700,0.0290,-0.0055,1.8410,rough,15.5,2,2.031
440,14.08,-4.0400,-5.4099,0.1722,0.0147,-0.0253,1.7590,rough,15.5,2,1.657
450,14.40,-4.0950,-4.9353,0.1775,0.0092,0.0010,1.6695,rough,15.5,2,1.288
460,14.72,-4.1347,-4.4664,0.1779,-0.0036,-0.0058,1.5883,rough,15.5,2,1.004
470,15.04,-4.1325,-4.0444,0.1811,-0.0065,-0.0008,1.2647,rough,15.5,2,0.858
480,15.36,-3.9870,-3.6446,0.1836,-0.0064,-0.0088,1.1390,rough,15.5,3,10.148
490,15.68,-3.7858,-3.1965,0.1890,-0.0157,-0.0174,1.1539,rough,15.5,3,9.660
500,16.00,-3.5909,-2.7447,0.1974,-0.0185,-0.0172,1.1667,rough,15.5,3,9.171
510,16.32,-3.4023,-2.2905,0.2061,-0.0213,-0.0187,1.1798,rough,15.5,3,8.682
520,16.64,-3.2168,-1.8339,0.2149,-0.0222,-0.0168,1.1891,rough,15.5,3,8.192
530,16.96,-3.0347,-1.3753,0.2222,-0.0216,-0.0134,1.1971,rough,15.5,3,7.701
540,17.28,-2.8563,-0.9144,0.2273,-0.0187,-0.0069,1.2051,rough,15.5,3,7.209
550,17.60,-2.6802,-0.4541,0.2298,-0.0129,-0.0059,1.2111,rough,15.5,3,6.719
560,17.92,-2.5074,0.0074,0.2292,-0.0099,-0.0054,1.2197,rough,15.5,3,6.229
570,18.24,-2.3378,0.4736,0.2295,-0.0051,0.0017,1.2253,rough,15.5,3,5.735
580,18.56,-2.1713,0.9378,0.2285,-0.0022,0.0014,1.2344,rough,15.5,3,5.245
590,18.88,-2.0097,1.4051,0.2270,-0.0042,0.0054,1.2454,rough,15.5,3,4.753
600,19.20,-1.8535,1.8747,0.2236,-0.0086,0.0106,1.2557,rough,15.5,3,4.261
610,19.52,-1.7027,2.3462,0.2168,-0.0114,0.0191,1.2650,rough,15.5,3,3.769
620,19.84,-1.5560,2.8192,0.2051,-0.0108,0.0250,1.2725,rough,15.5,3,3.276
630,20.16,-1.4128,3.2956,0.1885,-0.0132,0.0453,1.2804,rough,15.5,3,2.782
640,20.48,-1.2729,3.7675,0.1697,-0.0101,0.0372,1.2888,rough,15.5,3,2.295
650,20.80,-1.1362,4.2434,0.1485,-0.0060,0.0445,1.2958,rough,15.5,3,1.806
660,21.12,-1.0035,4.7197,0.1257,-0.0014,0.0473,1.3029,rough,15.5,3,1.322
670,21.44,-0.8756,5.1958,0.1036,0.0031,0.0444,1.3128,rough,15.5,3,0.849
680,21.76,-0.7726,5.5819,0.0868,-0.0027,0.0399,1.1179,rough,15.5,0,10.289
690,22.08,-0.6098,5.9015,0.0735,-0.0104,0.0336,0.8485,rough,15.5,0,10.493
700,22.40,-0.4109,6.1183,0.0701,-0.0381,0.0124,0.5920,rough,15.5,0,10.597
710,22.72,-0.2232,6.2689,0.0797,-0.0911,-0.0413,0.3970,rough,15.5,0,10.653
720,23.04,-0.0012,6.3538,0.1008,-0.0693,-0.1640,0.2404,rough,15.5,0,10.640
730,23.36,0.2402,6.4126,0.1585,-0.0482,-0.2905,0.1478,rough,15.5,0,10.600
740,23.68,0.5027,6.4612,0.2384,-0.0469,-0.3447,0.0579,rough,15.5,0,10.550
750,24.00,0.7674,6.4760,0.3344,-0.0294,-0.3480,0.0227,rough,15.5,0,10.473
760,24.32,1.0209,6.4817,0.4265,-0.0262,-0.3495,0.0157,rough,15.5,0,10.397
770,24.64,1.2681,6.4855,0.5172,-0.0244,-0.3538,0.0120,rough,15.5,0,10.327
780,24.96,1.5102,6.4883,0.6066,-0.0232,-0.3555,0.0099,rough,15.5,0,10.263
790,25.28,1.7461,6.4906,0.6946,-0.0223,-0.3588,0.0088,rough,15.5,0,10.205
800,25.60,1.9767,6.4926,0.7812,-0.0216,-0.3611,0.0081,rough,15.5,0,10.153
810,25.92,2.1378,6.4822,0.8424,0.0331,-0.3614,-0.1446,rough,15.5,0,10.109
820,26.24,2.2991,6.4207,0.9050,0.0943,-0.3542,-0.3239,rough,15.5,0,10.016
830,26.56,2.5011,6.3045,0.9848,0.2034,-0.3114,-0.6467,rough,15.5,0,9.865
840,26.88,2.6778,6.1177,1.0571,0.2859,-0.2338,-0.9755,rough,15.5,0,9.651
850,27.20,2.7629,5.8618,1.0966,0.3426,-0.1376,-1.2781,rough,15.5,0,9.384
860,27.52,2.7751,5.5725,1.1097,0.3651,-0.0323,-1.5701,rough,15.5,0,9.097
870,27.84,2.7218,5.3889,1.0964,0.3772,0.0173,-1.7501,rough,15.5,0,8.925
880,28.16,2.6753,5.3952,1.0765,0.3593,0.0004,-1.6637,rough,15.5,0,8.939
890,28.48,2.6413,5.3978,1.0643,0.3640,-0.0195,-1.6050,rough,15.5,0,8.947
900,28.80,2.6288,5.3982,1.0595,0.3635,-0.0299,-1.5760,rough,15.5,0,8.950
910,29.12,2.6288,5.3966,1.0598,0.3632,-0.0357,-1.5660,rough,15.5,0,8.948
920,29.44,2.6305,5.3962,1.0605,0.3633,-0.0347,-1.5684,rough,15.5,0,8.948
930,29.76,2.6310,5.3962,1.0607,0.3633,-0.0339,-1.5708,rough,15.5,0,8.948
940,30.08,2.6304,5.3966,1.0605,0.3635,-0.0334,-1.5732,rough,15.5,0,8.948
950,30.40,2.6287,5.3971,1.0598,0.3637,-0.0327,-1.5755,rough,15.5,0,8.949
960,30.72,2.6258,5.3977,1.0584,0.3633,-0.0338,-1.5676,rough,15.5,0,8.950
970,31.04,2.6264,5.3972,1.0589,0.3633,-0.0342,-1.5703,rough,15.5,0,8.949
980,31.36,2.6261,5.3973,1.0588,0.3634,-0.0336,-1.5725,rough,15.5,0,8.950
990,31.68,2.6252,5.3973,1.0583,0.3633,-0.0350,-1.5655,rough,15.5,0,8.950
1000,32.00,2.6269,5.3969,1.0591,0.3633,-0.0351,-1.5681,rough,15.5,0,8.949
1010,32.32,2.6277,5.3969,1.0594,0.3634,-0.0343,-1.5704,rough,15.5,0,8.949
1020,32.64,2.6274,5.3971,1.0593,0.3634,-0.0336,-1.5725,rough,15.5,0,8.949
1030,32.96,2.6251,5.3979,1.0586,0.3630,-0.0375,-1.5649,rough,15.5,0,8.950
1040,33.28,2.6265,5.3970,1.0589,0.3633,-0.0351,-1.5678,rough,15.5,0,8.949
1050,33.60,2.6273,5.3969,1.0593,0.3634,-0.0344,-1.5701,rough,15.5,0,8.949
1060,33.92,2.6272,5.3971,1.0592,0.3634,-0.0337,-1.5722,rough,15.5,0,8.949
1070,34.24,2.6260,5.3975,1.0588,0.3634,-0.0328,-1.5743,rough,15.5,0,8.950
1080,34.56,2.6256,5.3972,1.0586,0.3633,-0.0345,-1.5685,rough,15.5,0,8.950
1090,34.88,2.6261,5.3972,1.0588,0.3633,-0.0341,-1.5708,rough,15.5,0,8.949
1100,35.20,2.6256,5.3975,1.0586,0.3634,-0.0334,-1.5729,rough,15.5,0,8.950
1110,35.52,2.6262,5.3969,1.0588,0.3632,-0.0357,-1.5660,rough,15.5,0,8.949
1120,35.84,2.6279,5.3967,1.0595,0.3634,-0.0351,-1.5683,rough,15.5,0,8.949
1130,36.16,2.6285,5.3968,1.0598,0.3635,-0.0345,-1.5706,rough,15.5,0,8.949
1140,36.48,2.6281,5.3971,1.0596,0.3637,-0.0338,-1.5729,rough,15.5,0,8.949
1150,36.80,2.6267,5.3975,1.0590,0.3635,-0.0326,-1.5750,rough,15.5,0,8.950
1160,37.12,2.6259,5.3972,1.0587,0.3633,-0.0347,-1.5679,rough,15.5,0,8.949
1170,37.44,2.6267,5.3971,1.0590,0.3633,-0.0343,-1.5703,rough,15.5,0,8.949
1180,37.76,2.6264,5.3973,1.0589,0.3634,-0.0336,-1.5724,rough,15.5,0,8.949
1190,38.08,2.6247,5.3977,1.0580,0.3632,-0.0342,-1.5655,rough,15.5,0,8.950
1200,38.40,2.6263,5.3970,1.0589,0.3633,-0.0349,-1.5684,rough,15.5,0,8.949
1210,38.72,2.6269,5.3970,1.0591,0.3633,-0.0342,-1.5706,rough,15.5,0,8.949
1220,39.04,2.6265,5.3973,1.0590,0.3634,-0.0335,-1.5727,rough,15.5,0,8.949
1230,39.36,2.6252,5.3975,1.0583,0.3633,-0.0347,-1.5659,rough,15.5,0,8.950
1240,39.68,2.6267,5.3969,1.0590,0.3633,-0.0349,-1.5685,rough,15.5,0,8.949
1250,40.00,2.6273,5.3970,1.0593,0.3634,-0.0342,-1.5707,rough,15.5,0,8.949
1260,40.32,2.6268,5.3973,1.0591,0.3634,-0.0334,-1.5729,rough,15.5,0,8.949
1270,40.64,2.6250,5.3977,1.0581,0.3632,-0.0341,-1.5660,rough,15.5,0,8.950
1280,40.96,2.6264,5.3970,1.0589,0.3633,-0.0347,-1.5689,rough,15.5,0,8.949
1290,41.28,2.6268,5.3971,1.0591,0.3634,-0.0341,-1.5710,rough,15.5,0,8.949
1300,41.60,2.6261,5.3974,1.0588,0.3634,-0.0333,-1.5732,rough,15.5,0,8.950
1310,41.92,2.6259,5.3971,1.0587,0.3632,-0.0355,-1.5658,rough,15.5,0,8.949
1320,42.24,2.6277,5.3967,1.0594,0.3633,-0.0351,-1.5682,rough,15.5,0,8.949
1330,42.56,2.6283,5.3968,1.0596,0.3638,-0.0347,-1.5706,rough,15.5,0,8.949
1340,42.88,2.6279,5.3971,1.0595,0.3636,-0.0337,-1.5727,rough,15.5,0,8.949
1350,43.20,2.6266,5.3975,1.0590,0.3635,-0.0327,-1.5748,rough,15.5,0,8.950
1360,43.52,2.6258,5.3972,1.0586,0.3633,-0.0346,-1.5681,rough,15.5,0,8.950
1370,43.84,2.6264,5.3971,1.0589,0.3633,-0.0342,-1.5705,rough,15.5,0,8.949
1380,44.16,2.6260,5.3974,1.0588,0.3634,-0.0335,-1.5726,rough,15.5,0,8.950
1390,44.48,2.6256,5.3972,1.0585,0.3633,-0.0355,-1.5653,rough,15.5,0,8.950
1400,44.80,2.6275,5.3967,1.0594,0.3633,-0.0352,-1.5678,rough,15.5,0,8.949
1410,45.12,2.6283,5.3968,1.0597,0.3639,-0.0350,-1.5703,rough,15.5,0,8.949
1420,45.44,2.6281,5.3970,1.0596,0.3639,-0.0342,-1.5725,rough,15.5,0,8.949
1430,45.76,2.6270,5.3974,1.0592,0.3635,-0.0329,-1.5745,rough,15.5,0,8.949
1440,46.08,2.6256,5.3973,1.0585,0.3633,-0.0345,-1.5674,rough,15.5,0,8.950
1450,46.40,2.6265,5.3971,1.0590,0.3633,-0.0344,-1.5699,rough,15.5,0,8.949
1460,46.72,2.6264,5.3973,1.0589,0.3634,-0.0337,-1.5721,rough,15.5,0,8.949
1470,47.04,2.6245,5.3979,1.0578,0.3631,-0.0340,-1.5649,rough,15.5,0,8.950
1480,47.36,2.6263,5.3970,1.0589,0.3633,-0.0351,-1.5679,rough,15.5,0,8.949
1490,47.68,2.6271,5.3970,1.0592,0.3633,-0.0344,-1.5701,rough,15.5,0,8.949
1500,48.00,2.6269,5.3972,1.0591,0.3634,-0.0337,-1.5723,rough,15.5,0,8.949
1510,48.32,2.6248,5.3981,1.0575,0.3631,-0.0317,-1.5639,rough,15.5,0,8.951
1520,48.64,2.6266,5.3969,1.0590,0.3633,-0.0352,-1.5677,rough,15.5,0,8.949
1530,48.96,2.6275,5.3969,1.0594,0.3634,-0.0344,-1.5700,rough,15.5,0,8.949
1540,49.28,2.6274,5.3971,1.0593,0.3634,-0.0338,-1.5721,rough,15.5,0,8.949
1550,49.60,2.6263,5.3974,1.0589,0.3634,-0.0329,-1.5742,rough,15.5,0,8.950
1560,49.92,2.6258,5.3972,1.0586,0.3633,-0.0347,-1.5679,rough,15.5,0,8.950
1570,50.24,2.6265,5.3971,1.0590,0.3633,-0.0343,-1.5703,rough,15.5,0,8.949
1580,50.56,2.6263,5.3973,1.0589,0.3634,-0.0336,-1.5724,rough,15.5,0,8.950
1590,50.88,2.6250,5.3975,1.0582,0.3632,-0.0349,-1.5653,rough,15.5,0,8.950
1600,51.20,2.6268,5.3969,1.0591,0.3633,-0.0351,-1.5679,rough,15.5,0,8.949
1610,51.52,2.6276,5.3969,1.0594,0.3634,-0.0344,-1.5702,rough,15.5,0,8.949
1620,51.84,2.6274,5.3971,1.0593,0.3634,-0.0337,-1.5724,rough,15.5,0,8.949
1630,52.16,2.6261,5.3975,1.0588,0.3634,-0.0328,-1.5745,rough,15.5,0,8.950
1640,52.48,2.6260,5.3971,1.0587,0.3633,-0.0348,-1.5681,rough,15.5,0,8.949
1650,52.80,2.6267,5.3971,1.0590,0.3633,-0.0343,-1.5704,rough,15.5,0,8.949
1660,53.12,2.6264,5.3973,1.0589,0.3634,-0.0336,-1.5725,rough,15.5,0,8.949
1670,53.44,2.6252,5.3975,1.0583,0.3633,-0.0353,-1.5649,rough,15.5,0,8.950
1680,53.76,2.6272,5.3968,1.0592,0.3633,-0.0353,-1.5675,rough,15.5,0,8.949
1690,54.08,2.6282,5.3968,1.0596,0.3634,-0.0345,-1.5698,rough,15.5,0,8.949
1700,54.40,2.6281,5.3970,1.0596,0.3636,-0.0340,-1.5721,rough,15.5,0,8.949
1710,54.72,2.6271,5.3973,1.0592,0.3635,-0.0330,-1.5742,rough,15.5,0,8.949
1720,55.04,2.6254,5.3974,1.0583,0.3633,-0.0342,-1.5673,rough,15.5,0,8.950
1730,55.36,2.6262,5.3971,1.0588,0.3633,-0.0344,-1.5699,rough,15.5,0,8.949
1740,55.68,2.6261,5.3973,1.0588,0.3634,-0.0337,-1.5721,rough,15.5,0,8.950
1750,56.00,2.6251,5.3974,1.0583,0.3632,-0.0354,-1.5645,rough,15.5,0,8.950
1760,56.32,2.6273,5.3967,1.0593,0.3633,-0.0355,-1.5671,rough,15.5,0,8.949
1770,56.64,2.6285,5.3967,1.0597,0.3636,-0.0349,-1.5695,rough,15.5,0,8.949
1780,56.96,2.6287,5.3968,1.0598,0.3635,-0.0340,-1.5717,rough,15.5,0,8.949
1790,57.28,2.6277,5.3972,1.0595,0.3635,-0.0332,-1.5739,rough,15.5,0,8.949
1800,57.60,2.6251,5.3979,1.0580,0.3632,-0.0333,-1.5665,rough,15.5,0,8.950
1810,57.92,2.6261,5.3972,1.0588,0.3633,-0.0344,-1.5695,rough,15.5,0,8.949
1820,58.24,2.6261,5.3973,1.0588,0.3633,-0.0339,-1.5717,rough,15.5,0,8.950
1830,58.56,2.6244,5.3979,1.0578,0.3631,-0.0343,-1.5644,rough,15.5,0,8.950
1840,58.88,2.6264,5.3969,1.0589,0.3633,-0.0353,-1.5674,rough,15.5,0,8.949
1850,59.20,2.6274,5.3969,1.0593,0.3634,-0.0345,-1.5697,rough,15.5,0,8.949
1860,59.52,2.6274,5.3971,1.0593,0.3634,-0.0339,-1.5719,rough,15.5,0,8.949
1870,59.84,2.6264,5.3974,1.0589,0.3634,-0.0330,-1.5740,rough,15.5,0,8.950
1880,60.16,2.6257,5.3972,1.0585,0.3633,-0.0347,-1.5675,rough,15.5,0,8.950
1890,60.48,2.6266,5.3971,1.0590,0.3633,-0.0344,-1.5700,rough,15.5,0,8.949
1900,60.80,2.6265,5.3972,1.0590,0.3634,-0.0337,-1.5721,rough,15.5,0,8.949
1910,61.12,2.6246,5.3979,1.0579,0.3631,-0.0342,-1.5648,rough,15.5,0,8.950
1920,61.44,2.6264,5.3969,1.0589,0.3633,-0.0351,-1.5678,rough,15.5,0,8.949
1930,61.76,2.6273,5.3969,1.0593,0.3634,-0.0344,-1.5700,rough,15.5,0,8.949
1940,62.08,2.6271,5.3971,1.0592,0.3634,-0.0337,-1.5722,rough,15.5,0,8.949
1950,62.40,2.6260,5.3975,1.0588,0.3634,-0.0328,-1.5743,rough,15.5,0,8.950
1960,62.72,2.6257,5.3972,1.0586,0.3633,-0.0346,-1.5684,rough,15.5,0,8.950
1970,63.04,2.6263,5.3972,1.0589,0.3633,-0.0342,-1.5707,rough,15.5,0,8.949
1980,63.36,2.6258,5.3974,1.0587,0.3634,-0.0334,-1.5728,rough,15.5,0,8.950
1990,63.68,2.6254,5.3972,1.0584,0.3632,-0.0351,-1.5663,rough,15.5,0,8.950
2000,64.00,2.6269,5.3969,1.0591,0.3633,-0.0349,-1.5687,rough,15.5,0,8.949
2010,64.32,2.6274,5.3970,1.0593,0.3634,-0.0342,-1.5709,rough,15.5,0,8.949
2020,64.64,2.6268,5.3973,1.0591,0.3634,-0.0334,-1.5731,rough,15.5,0,8.949
2030,64.96,2.6255,5.3975,1.0584,0.3633,-0.0350,-1.5657,rough,15.5,0,8.950
2040,65.28,2.6271,5.3969,1.0592,0.3633,-0.0350,-1.5683,rough,15.5,0,8.949
2050,65.60,2.6277,5.3969,1.0594,0.3634,-0.0343,-1.5706,rough,15.5,0,8.949
2060,65.92,2.6273,5.3972,1.0593,0.3634,-0.0335,-1.5727,rough,15.5,0,8.949
2070,66.24,2.6250,5.3979,1.0584,0.3630,-0.0365,-1.5659,rough,15.5,0,8.950
2080,66.56,2.6258,5.3972,1.0586,0.3633,-0.0344,-1.5690,rough,15.5,0,8.950
2090,66.88,2.6260,5.3972,1.0588,0.3633,-0.0340,-1.5712,rough,15.5,0,8.950
2100,67.20,2.6243,5.3980,1.0573,0.3630,-0.0318,-1.5628,rough,15.5,0,8.951
2110,67.52,2.6265,5.3969,1.0589,0.3633,-0.0355,-1.5667,rough,15.5,0,8.949
2120,67.84,2.6278,5.3968,1.0595,0.3634,-0.0348,-1.5690,rough,15.5,0,8.949
2130,68.16,2.6281,5.3969,1.0596,0.3634,-0.0341,-1.5712,rough,15.5,0,8.949
2140,68.48,2.6274,5.3972,1.0593,0.3634,-0.0333,-1.5734,rough,15.5,0,8.949
2150,68.80,2.6251,5.3979,1.0581,0.3632,-0.0337,-1.5662,rough,15.5,0,8.950
2160,69.12,2.6263,5.3971,1.0589,0.3633,-0.0346,-1.5692,rough,15.5,0,8.949
2170,69.44,2.6265,5.3972,1.0590,0.3634,-0.0340,-1.5714,rough,15.5,0,8.949
2180,69.76,2.6257,5.3975,1.0587,0.3634,-0.0332,-1.5735,rough,15.5,0,8.950
2190,70.08,2.6259,5.3971,1.0587,0.3632,-0.0352,-1.5670,rough,15.5,0,8.949
2200,70.40,2.6271,5.3969,1.0592,0.3633,-0.0347,-1.5694,rough,15.5,0,8.949
2210,70.72,2.6272,5.3971,1.0593,0.3634,-0.0340,-1.5715,rough,15.5,0,8.949
2220,71.04,2.6264,5.3974,1.0589,0.3634,-0.0331,-1.5737,rough,15.5,0,8.950
2230,71.36,2.6260,5.3971,1.0587,0.3633,-0.0352,-1.5665,rough,15.5,0,8.949
2240,71.68,2.6274,5.3968,1.0593,0.3633,-0.0348,-1.5690,rough,15.5,0,8.949
2250,72.00,2.6277,5.3969,1.0595,0.3634,-0.0341,-1.5712,rough,15.5,0,8.949
2260,72.32,2.6271,5.3973,1.0592,0.3634,-0.0333,-1.5733,rough,15.5,0,8.949
2270,72.64,2.6252,5.3977,1.0582,0.3632,-0.0339,-1.5665,rough,15.5,0,8.950
2280,72.96,2.6263,5.3971,1.0589,0.3633,-0.0346,-1.5693,rough,15.5,0,8.949
2290,73.28,2.6264,5.3972,1.0589,0.3634,-0.0339,-1.5715,rough,15.5,0,8.949
2300,73.60,2.6246,5.3979,1.0583,0.3630,-0.0376,-1.5641,rough,15.5,0,8.950
2310,73.92,2.6262,5.3970,1.0588,0.3633,-0.0353,-1.5669,rough,15.5,0,8.949
2320,74.24,2.6274,5.3968,1.0593,0.3634,-0.0347,-1.5693,rough,15.5,0,8.949
2330,74.56,2.6276,5.3970,1.0594,0.3634,-0.0340,-1.5715,rough,15.5,0,8.949
2340,74.88,2.6268,5.3973,1.0591,0.3634,-0.0332,-1.5736,rough,15.5,0,8.949
2350,75.20,2.6256,5.3974,1.0585,0.3633,-0.0347,-1.5666,rough,15.5,0,8.950
2360,75.52,2.6268,5.3970,1.0591,0.3633,-0.0347,-1.5692,rough,15.5,0,8.949
2370,75.84,2.6270,5.3971,1.0592,0.3634,-0.0340,-1.5714,rough,15.5,0,8.949
2380,76.16,2.6262,5.3974,1.0589,0.3634,-0.0332,-1.5735,rough,15.5,0,8.950
2390,76.48,2.6258,5.3972,1.0586,0.3633,-0.0350,-1.5669,rough,15.5,0,8.949
2400,76.80,2.6270,5.3969,1.0591,0.3633,-0.0346,-1.5693,rough,15.5,0,8.949
2410,77.12,2.6271,5.3971,1.0592,0.3634,-0.0340,-1.5715,rough,15.5,0,8.949
2420,77.44,2.6263,5.3974,1.0589,0.3634,-0.0331,-1.5736,rough,15.5,0,8.950
2430,77.76,2.6258,5.3972,1.0586,0.3633,-0.0349,-1.5670,rough,15.5,0,8.949
2440,78.08,2.6269,5.3969,1.0591,0.3633,-0.0346,-1.5694,rough,15.5,0,8.949
2450,78.40,2.6271,5.3971,1.0592,0.3634,-0.0339,-1.5716,rough,15.5,0,8.949
2460,78.72,2.6262,5.3974,1.0588,0.3634,-0.0331,-1.5737,rough,15.5,0,8.950
2470,79.04,2.6254,5.3973,1.0584,0.3633,-0.0344,-1.5678,rough,15.5,0,8.950
2480,79.36,2.6262,5.3971,1.0588,0.3633,-0.0343,-1.5702,rough,15.5,0,8.949
2490,79.68,2.6259,5.3974,1.0587,0.3634,-0.0336,-1.5723,rough,15.5,0,8.950
2500,80.00,2.6250,5.3974,1.0582,0.3632,-0.0349,-1.5657,rough,15.5,0,8.950
2510,80.32,2.6267,5.3969,1.0590,0.3633,-0.0350,-1.5683,rough,15.5,0,8.949
2520,80.64,2.6274,5.3970,1.0593,0.3634,-0.0343,-1.5705,rough,15.5,0,8.949
2530,80.96,2.6270,5.3972,1.0592,0.3634,-0.0335,-1.5726,rough,15.5,0,8.949
2540,81.28,2.6248,5.3980,1.0574,0.3631,-0.0304,-1.5651,rough,15.5,0,8.951
2550,81.60,2.6258,5.3972,1.0586,0.3633,-0.0345,-1.5691,rough,15.5,0,8.949
2560,81.92,2.6260,5.3972,1.0588,0.3633,-0.0340,-1.5713,rough,15.5,0,8.950
2570,82.24,2.6242,5.3980,1.0573,0.3630,-0.0316,-1.5630,rough,15.5,0,8.951
2580,82.56,2.6263,5.3969,1.0589,0.3633,-0.0354,-1.5669,rough,15.5,0,8.949
2590,82.88,2.6276,5.3968,1.0594,0.3634,-0.0347,-1.5692,rough,15.5,0,8.949
2600,83.20,2.6278,5.3969,1.0595,0.3634,-0.0340,-1.5714,rough,15.5,0,8.949
2610,83.52,2.6270,5.3973,1.0592,0.3634,-0.0332,-1.5736,rough,15.5,0,8.949
2620,83.84,2.6255,5.3975,1.0584,0.3633,-0.0345,-1.5664,rough,15.5,0,8.950
2630,84.16,2.6267,5.3970,1.0590,0.3633,-0.0347,-1.5691,rough,15.5,0,8.949
2640,84.48,2.6270,5.3971,1.0592,0.3634,-0.0340,-1.5713,rough,15.5,0,8.949
2650,84.80,2.6263,5.3974,1.0589,0.3634,-0.0332,-1.5734,rough,15.5,0,8.950
2660,85.12,2.6259,5.3971,1.0587,0.3633,-0.0355,-1.5659,rough,15.5,0,8.949
2670,85.44,2.6276,5.3967,1.0594,0.3633,-0.0350,-1.5684,rough,15.5,0,8.949
2680,85.76,2.6282,5.3968,1.0596,0.3634,-0.0343,-1.5706,rough,15.5,0,8.949
2690,86.08,2.6278,5.3971,1.0595,0.3634,-0.0335,-1.5728,rough,15.5,0,8.949
2700,86.40,2.6264,5.3975,1.0589,0.3634,-0.0326,-1.5749,rough,15.5,0,8.950
2710,86.72,2.6262,5.3971,1.0588,0.3633,-0.0348,-1.5682,rough,15.5,0,8.949
2720,87.04,2.6268,5.3971,1.0591,0.3633,-0.0342,-1.5705,rough,15.5,0,8.949
2730,87.36,2.6264,5.3973,1.0589,0.3634,-0.0335,-1.5727,rough,15.5,0,8.950
2740,87.68,2.6251,5.3975,1.0582,0.3633,-0.0347,-1.5656,rough,15.5,0,8.950
2750,88.00,2.6267,5.3969,1.0590,0.3633,-0.0350,-1.5683,rough,15.5,0,8.949
2760,88.32,2.6274,5.3970,1.0593,0.3634,-0.0343,-1.5705,rough,15.5,0,8.949
2770,88.64,2.6270,5.3972,1.0592,0.3634,-0.0336,-1.5726,rough,15.5,0,8.949
2780,88.96,2.6248,5.3980,1.0574,0.3631,-0.0306,-1.5649,rough,15.5,0,8.951
2790,89.28,2.6259,5.3971,1.0587,0.3633,-0.0346,-1.5689,rough,15.5,0,8.949
2800,89.60,2.6262,5.3972,1.0589,0.3633,-0.0340,-1.5711,rough,15.5,0,8.949
2810,89.92,2.6256,5.3975,1.0586,0.3634,-0.0333,-1.5732,rough,15.5,0,8.950
2820,90.24,2.6257,5.3971,1.0586,0.3632,-0.0351,-1.5670,rough,15.5,0,8.949
2830,90.56,2.6269,5.3969,1.0591,0.3633,-0.0347,-1.5694,rough,15.5,0,8.949
2840,90.88,2.6271,5.3971,1.0592,0.3634,-0.0340,-1.5715,rough,15.5,0,8.949
2850,91.20,2.6263,5.3974,1.0589,0.3634,-0.0331,-1.5736,rough,15.5,0,8.950
2860,91.52,2.6257,5.3972,1.0586,0.3633,-0.0349,-1.5671,rough,15.5,0,8.950
2870,91.84,2.6269,5.3970,1.0591,0.3633,-0.0346,-1.5695,rough,15.5,0,8.949
2880,92.16,2.6269,5.3971,1.0591,0.3634,-0.0339,-1.5717,rough,15.5,0,8.949
2890,92.48,2.6260,5.3975,1.0588,0.3634,-0.0331,-1.5738,rough,15.5,0,8.950
2900,92.80,2.6256,5.3972,1.0585,0.3633,-0.0347,-1.5678,rough,15.5,0,8.950
2910,93.12,2.6264,5.3971,1.0589,0.3633,-0.0343,-1.5702,rough,15.5,0,8.949
2920,93.44,2.6262,5.3973,1.0589,0.3634,-0.0337,-1.5723,rough,15.5,0,8.950
2930,93.76,2.6250,5.3975,1.0582,0.3632,-0.0351,-1.5650,rough,15.5,0,8.950
2940,94.08,2.6270,5.3968,1.0592,0.3633,-0.0353,-1.5676,rough,15.5,0,8.949
2950,94.40,2.6279,5.3968,1.0595,0.3634,-0.0345,-1.5699,rough,15.5,0,8.949
2960,94.72,2.6278,5.3970,1.0595,0.3634,-0.0338,-1.5721,rough,15.5,0,8.949
2970,95.04,2.6267,5.3974,1.0590,0.3634,-0.0329,-1.5742,rough,15.5,0,8.950
2980,95.36,2.6254,5.3974,1.0584,0.3633,-0.0340,-1.5682,rough,15.5,0,8.950
2990,95.68,2.6259,5.3972,1.0587,0.3633,-0.0340,-1.5707,rough,15.5,0,8.950
3000,96.00,2.6244,5.3979,1.0583,0.3630,-0.0381,-1.5632,rough,15.5,0,8.950
3010,96.32,2.6264,5.3968,1.0589,0.3632,-0.0358,-1.5660,rough,15.5,0,8.949
3020,96.64,2.6281,5.3967,1.0596,0.3636,-0.0353,-1.5684,rough,15.5,0,8.949
3030,96.96,2.6288,5.3967,1.0599,0.3635,-0.0344,-1.5707,rough,15.5,0,8.949
3040,97.28,2.6283,5.3970,1.0597,0.3637,-0.0338,-1.5729,rough,15.5,0,8.949
3050,97.60,2.6269,5.3974,1.0591,0.3635,-0.0326,-1.5750,rough,15.5,0,8.950
3060,97.92,2.6255,5.3973,1.0584,0.3633,-0.0341,-1.5685,rough,15.5,0,8.950
3070,98.24,2.6259,5.3973,1.0587,0.3633,-0.0340,-1.5710,rough,15.5,0,8.950
3080,98.56,2.6242,5.3980,1.0573,0.3630,-0.0322,-1.5625,rough,15.5,0,8.951
3090,98.88,2.6266,5.3968,1.0590,0.3633,-0.0357,-1.5663,rough,15.5,0,8.949
3100,99.20,2.6282,5.3967,1.0596,0.3636,-0.0352,-1.5687,rough,15.5,0,8.949
3110,99.52,2.6287,5.3968,1.0598,0.3635,-0.0343,-1.5709,rough,15.5,0,8.949
3120,99.84,2.6281,5.3971,1.0596,0.3636,-0.0336,-1.5731,rough,15.5,0,8.949
3130,100.16,2.6265,5.3975,1.0590,0.3635,-0.0325,-1.5753,rough,15.5,0,8.950
3140,100.48,2.6262,5.3971,1.0588,0.3633,-0.0348,-1.5680,rough,15.5,0,8.949
3150,100.80,2.6269,5.3970,1.0591,0.3633,-0.0343,-1.5703,rough,15.5,0,8.949
3160,101.12,2.6266,5.3972,1.0590,0.3634,-0.0336,-1.5725,rough,15.5,0,8.949
3170,101.44,2.6246,5.3979,1.0578,0.3632,-0.0336,-1.5655,rough,15.5,0,8.950
3180,101.76,2.6260,5.3971,1.0587,0.3633,-0.0348,-1.5685,rough,15.5,0,8.949
3190,102.08,2.6265,5.3971,1.0590,0.3633,-0.0342,-1.5707,rough,15.5,0,8.949
3200,102.40,2.6260,5.3974,1.0588,0.3634,-0.0334,-1.5729,rough,15.5,0,8.950
3210,102.72,2.6253,5.3973,1.0583,0.3633,-0.0349,-1.5663,rough,15.5,0,8.950
3220,103.04,2.6267,5.3969,1.0590,0.3633,-0.0348,-1.5688,rough,15.5,0,8.949
3230,103.36,2.6271,5.3970,1.0592,0.3634,-0.0341,-1.5710,rough,15.5,0,8.949
3240,103.68,2.6265,5.3973,1.0590,0.3634,-0.0333,-1.5731,rough,15.5,0,8.950
3250,104.00,2.6254,5.3974,1.0584,0.3633,-0.0348,-1.5663,rough,15.5,0,8.950
3260,104.32,2.6269,5.3969,1.0591,0.3633,-0.0348,-1.5688,rough,15.5,0,8.949
3270,104.64,2.6272,5.3970,1.0593,0.3634,-0.0341,-1.5710,rough,15.5,0,8.949
3280,104.96,2.6266,5.3973,1.0590,0.3634,-0.0333,-1.5732,rough,15.5,0,8.949
3290,105.28,2.6251,5.3976,1.0582,0.3633,-0.0339,-1.5669,rough,15.5,0,8.950
3300,105.60,2.6260,5.3971,1.0588,0.3633,-0.0344,-1.5696,rough,15.5,0,8.949
3310,105.92,2.6261,5.3973,1.0588,0.3633,-0.0338,-1.5718,rough,15.5,0,8.950
3320,106.24,2.6247,5.3977,1.0580,0.3632,-0.0350,-1.5645,rough,15.5,0,8.950
3330,106.56,2.6269,5.3968,1.0591,0.3633,-0.0354,-1.5672,rough,15.5,0,8.949
3340,106.88,2.6280,5.3968,1.0595,0.3634,-0.0346,-1.5695,rough,15.5,0,8.949
3350,107.20,2.6281,5.3969,1.0596,0.3634,-0.0339,-1.5717,rough,15.5,0,8.949
3360,107.52,2.6272,5.3973,1.0592,0.3634,-0.0331,-1.5739,rough,15.5,0,8.949
3370,107.84,2.6254,5.3976,1.0583,0.3633,-0.0341,-1.5671,rough,15.5,0,8.950
3380,108.16,2.6263,5.3971,1.0589,0.3633,-0.0344,-1.5698,rough,15.5,0,8.949
3390,108.48,2.6262,5.3973,1.0589,0.3634,-0.0338,-1.5720,rough,15.5,0,8.950
3400,108.80,2.6248,5.3977,1.0581,0.3632,-0.0349,-1.5646,rough,15.5,0,8.950
3410,109.12,2.6268,5.3968,1.0591,0.3633,-0.0353,-1.5674,rough,15.5,0,8.949
3420,109.44,2.6279,5.3968,1.0595,0.3634,-0.0346,-1.5697,rough,15.5,0,8.949
3430,109.76,2.6279,5.3970,1.0595,0.3634,-0.0339,-1.5719,rough,15.5,0,8.949
3440,110.08,2.6269,5.3973,1.0591,0.3634,-0.0330,-1.5740,rough,15.5,0,8.949
3450,110.40,2.6253,5.3975,1.0583,0.3633,-0.0339,-1.5678,rough,15.5,0,8.950
3460,110.72,2.6260,5.3972,1.0587,0.3633,-0.0341,-1.5704,rough,15.5,0,8.949
3470,111.04,2.6256,5.3974,1.0586,0.3634,-0.0335,-1.5726,rough,15.5,0,8.950
3480,111.36,2.6259,5.3970,1.0587,0.3632,-0.0356,-1.5657,rough,15.5,0,8.949
3490,111.68,2.6277,5.3967,1.0594,0.3633,-0.0351,-1.5681,rough,15.5,0,8.949
3500,112.00,2.6284,5.3968,1.0597,0.3638,-0.0348,-1.5705,rough,15.5,0,8.949
3510,112.32,2.6281,5.3971,1.0596,0.3638,-0.0340,-1.5727,rough,15.5,0,8.949
3520,112.64,2.6268,5.3974,1.0591,0.3635,-0.0328,-1.5747,rough,15.5,0,8.950
3530,112.96,2.6256,5.3973,1.0585,0.3633,-0.0344,-1.5681,rough,15.5,0,8.950
3540,113.28,2.6262,5.3972,1.0588,0.3633,-0.0342,-1.5706,rough,15.5,0,8.949
3550,113.60,2.6258,5.3974,1.0587,0.3634,-0.0335,-1.5727,rough,15.5,0,8.950
3560,113.92,2.6255,5.3971,1.0585,0.3632,-0.0352,-1.5660,rough,15.5,0,8.950
3570,114.24,2.6271,5.3968,1.0592,0.3633,-0.0350,-1.5685,rough,15.5,0,8.949
3580,114.56,2.6277,5.3969,1.0594,0.3634,-0.0342,-1.5707,rough,15.5,0,8.949
3590,114.88,2.6272,5.3972,1.0592,0.3634,-0.0335,-1.5729,rough,15.5,0,8.949
3600,115.20,2.6249,5.3980,1.0574,0.3631,-0.0304,-1.5652,rough,15.5,0,8.951
3610,115.52,2.6258,5.3972,1.0587,0.3633,-0.0344,-1.5692,rough,15.5,0,8.949
3620,115.84,2.6260,5.3973,1.0588,0.3633,-0.0339,-1.5714,rough,15.5,0,8.950
3630,116.16,2.6244,5.3979,1.0579,0.3631,-0.0348,-1.5639,rough,15.5,0,8.950
3640,116.48,2.6267,5.3968,1.0590,0.3633,-0.0355,-1.5668,rough,15.5,0,8.949
3650,116.80,2.6281,5.3967,1.0596,0.3634,-0.0348,-1.5691,rough,15.5,0,8.949
3660,117.12,2.6282,5.3969,1.0596,0.3642,-0.0348,-1.5716,rough,15.5,0,8.949
3670,117.44,2.6276,5.3972,1.0594,0.3635,-0.0333,-1.5735,rough,15.5,0,8.949
3680,117.76,2.6251,5.3979,1.0581,0.3632,-0.0339,-1.5659,rough,15.5,0,8.950
3690,118.08,2.6264,5.3970,1.0589,0.3633,-0.0347,-1.5688,rough,15.5,0,8.949
3700,118.40,2.6268,5.3971,1.0591,0.3634,-0.0341,-1.5710,rough,15.5,0,8.949
3710,118.72,2.6261,5.3974,1.0588,0.3634,-0.0333,-1.5732,rough,15.5,0,8.950
3720,119.04,2.6258,5.3971,1.0586,0.3632,-0.0355,-1.5659,rough,15.5,0,8.949
3730,119.36,2.6276,5.3968,1.0594,0.3633,-0.0350,-1.5683,rough,15.5,0,8.949
3740,119.68,2.6282,5.3968,1.0596,0.3634,-0.0343,-1.5706,rough,15.5,0,8.949
3750,120.00,2.6278,5.3971,1.0595,0.3634,-0.0335,-1.5728,rough,15.5,0,8.949
3760,120.32,2.6263,5.3975,1.0589,0.3634,-0.0326,-1.5749,rough,15.5,0,8.950
3770,120.64,2.6261,5.3971,1.0587,0.3633,-0.0347,-1.5683,rough,15.5,0,8.949
3780,120.96,2.6267,5.3971,1.0590,0.3633,-0.0342,-1.5706,rough,15.5,0,8.949
3790,121.28,2.6262,5.3973,1.0589,0.3634,-0.0335,-1.5728,rough,15.5,0,8.950
3800,121.60,2.6252,5.3974,1.0583,0.3633,-0.0348,-1.5659,rough,15.5,0,8.950
3810,121.92,2.6268,5.3969,1.0591,0.3633,-0.0349,-1.5685,rough,15.5,0,8.949
3820,122.24,2.6273,5.3970,1.0593,0.3634,-0.0342,-1.5707,rough,15.5,0,8.949
3830,122.56,2.6268,5.3972,1.0591,0.3634,-0.0335,-1.5728,rough,15.5,0,8.949
3840,122.88,2.6252,5.3977,1.0582,0.3632,-0.0347,-1.5655,rough,15.5,0,8.950
3850,123.20,2.6268,5.3969,1.0591,0.3633,-0.0350,-1.5682,rough,15.5,0,8.949
3860,123.52,2.6275,5.3969,1.0594,0.3634,-0.0343,-1.5705,rough,15.5,0,8.949
3870,123.84,2.6271,5.3972,1.0592,0.3634,-0.0336,-1.5726,rough,15.5,0,8.949
3880,124.16,2.6249,5.3981,1.0575,0.3631,-0.0312,-1.5645,rough,15.5,0,8.951
3890,124.48,2.6263,5.3970,1.0589,0.3633,-0.0349,-1.5684,rough,15.5,0,8.949
3900,124.80,2.6269,5.3970,1.0591,0.3633,-0.0342,-1.5706,rough,15.5,0,8.949
3910,125.12,2.6265,5.3973,1.0590,0.3634,-0.0335,-1.5727,rough,15.5,0,8.949
3920,125.44,2.6251,5.3975,1.0582,0.3633,-0.0347,-1.5657,rough,15.5,0,8.950
3930,125.76,2.6267,5.3969,1.0590,0.3633,-0.0350,-1.5684,rough,15.5,0,8.949
3940,126.08,2.6273,5.3970,1.0593,0.3634,-0.0343,-1.5706,rough,15.5,0,8.949
3950,126.40,2.6269,5.3972,1.0591,0.3634,-0.0335,-1.5727,rough,15.5,0,8.949
3960,126.72,2.6249,5.3979,1.0580,0.3632,-0.0337,-1.5657,rough,15.5,0,8.950
3970,127.04,2.6262,5.3971,1.0588,0.3633,-0.0347,-1.5688,rough,15.5,0,8.949
3980,127.36,2.6266,5.3971,1.0590,0.3633,-0.0341,-1.5710,rough,15.5,0,8.949
3990,127.68,2.6260,5.3974,1.0588,0.3634,-0.0333,-1.5731,rough,15.5,0,8.950
4000,128.00,2.6257,5.3971,1.0586,0.3632,-0.0353,-1.5661,rough,15.5,0,8.949
4010,128.32,2.6273,5.3968,1.0593,0.3633,-0.0350,-1.5685,rough,15.5,0,8.949
4020,128.64,2.6278,5.3969,1.0595,0.3634,-0.0342,-1.5708,rough,15.5,0,8.949
4030,128.96,2.6273,5.3972,1.0593,0.3634,-0.0335,-1.5729,rough,15.5,0,8.949
4040,129.28,2.6250,5.3981,1.0576,0.3631,-0.0311,-1.5648,rough,15.5,0,8.950
4050,129.60,2.6263,5.3971,1.0588,0.3633,-0.0347,-1.5686,rough,15.5,0,8.949
4060,129.92,2.6267,5.3971,1.0591,0.3633,-0.0341,-1.5709,rough,15.5,0,8.949
4070,130.24,2.6262,5.3974,1.0588,0.3634,-0.0334,-1.5730,rough,15.5,0,8.950
4080,130.56,2.6255,5.3972,1.0584,0.3633,-0.0351,-1.5660,rough,15.5,0,8.950
4090,130.88,2.6270,5.3969,1.0592,0.3633,-0.0349,-1.5685,rough,15.5,0,8.949
4100,131.20,2.6276,5.3969,1.0594,0.3634,-0.0342,-1.5708,rough,15.5,0,8.949
4110,131.52,2.6271,5.3972,1.0592,0.3634,-0.0334,-1.5729,rough,15.5,0,8.949
4120,131.84,2.6250,5.3979,1.0581,0.3632,-0.0340,-1.5657,rough,15.5,0,8.950
4130,132.16,2.6264,5.3970,1.0589,0.3633,-0.0348,-1.5686,rough,15.5,0,8.949
4140,132.48,2.6269,5.3971,1.0591,0.3633,-0.0342,-1.5708,rough,15.5,0,8.949
4150,132.80,2.6264,5.3973,1.0589,0.3634,-0.0334,-1.5730,rough,15.5,0,8.950
4160,133.12,2.6252,5.3974,1.0583,0.3633,-0.0348,-1.5661,rough,15.5,0,8.950
4170,133.44,2.6267,5.3969,1.0590,0.3633,-0.0349,-1.5687,rough,15.5,0,8.949
4180,133.76,2.6271,5.3970,1.0592,0.3634,-0.0342,-1.5709,rough,15.5,0,8.949
4190,134.08,2.6266,5.3973,1.0590,0.3634,-0.0334,-1.5730,rough,15.5,0,8.949
4200,134.40,2.6251,5.3975,1.0582,0.3633,-0.0342,-1.5665,rough,15.5,0,8.950
4210,134.72,2.6263,5.3971,1.0589,0.3633,-0.0346,-1.5692,rough,15.5,0,8.949
4220,135.04,2.6266,5.3972,1.0590,0.3634,-0.0340,-1.5714,rough,15.5,0,8.949
4230,135.36,2.6258,5.3975,1.0587,0.3634,-0.0332,-1.5735,rough,15.5,0,8.950
4240,135.68,2.6261,5.3970,1.0588,0.3632,-0.0354,-1.5666,rough,15.5,0,8.949
4250,136.00,2.6275,5.3968,1.0593,0.3633,-0.0348,-1.5690,rough,15.5,0,8.949
4260,136.32,2.6278,5.3969,1.0595,0.3634,-0.0341,-1.5712,rough,15.5,0,8.949
4270,136.64,2.6271,5.3972,1.0592,0.3634,-0.0333,-1.5733,rough,15.5,0,8.949
4280,136.96,2.6252,5.3977,1.0582,0.3632,-0.0342,-1.5663,rough,15.5,0,8.950
4290,137.28,2.6265,5.3970,1.0589,0.3633,-0.0347,-1.5691,rough,15.5,0,8.949
4300,137.60,2.6268,5.3971,1.0591,0.3634,-0.0340,-1.5713,rough,15.5,0,8.949
4310,137.92,2.6260,5.3974,1.0588,0.3634,-0.0332,-1.5734,rough,15.5,0,8.950
4320,138.24,2.6261,5.3970,1.0588,0.3632,-0.0356,-1.5660,rough,15.5,0,8.949
4330,138.56,2.6278,5.3967,1.0595,0.3633,-0.0350,-1.5684,rough,15.5,0,8.949
4340,138.88,2.6283,5.3969,1.0597,0.3641,-0.0349,-1.5709,rough,15.5,0,8.949
4350,139.20,2.6279,5.3971,1.0595,0.3637,-0.0338,-1.5729,rough,15.5,0,8.949
4360,139.52,2.6265,5.3975,1.0589,0.3635,-0.0326,-1.5750,rough,15.5,0,8.950
4370,139.84,2.6263,5.3970,1.0589,0.3633,-0.0351,-1.5676,rough,15.5,0,8.949
4380,140.16,2.6273,5.3969,1.0593,0.3634,-0.0345,-1.5699,rough,15.5,0,8.949
4390,140.48,2.6272,5.3971,1.0592,0.3634,-0.0338,-1.5720,rough,15.5,0,8.949
4400,140.80,2.6261,5.3975,1.0588,0.3634,-0.0329,-1.5742,rough,15.5,0,8.950
4410,141.12,2.6262,5.3970,1.0588,0.3633,-0.0351,-1.5674,rough,15.5,0,8.949
4420,141.44,2.6273,5.3969,1.0593,0.3634,-0.0345,-1.5697,rough,15.5,0,8.949
4430,141.76,2.6273,5.3971,1.0593,0.3634,-0.0338,-1.5719,rough,15.5,0,8.949
4440,142.08,2.6263,5.3974,1.0589,0.3634,-0.0330,-1.5740,rough,15.5,0,8.950
4450,142.40,2.6261,5.3971,1.0587,0.3633,-0.0351,-1.5671,rough,15.5,0,8.949
4460,142.72,2.6273,5.3969,1.0593,0.3634,-0.0346,-1.5695,rough,15.5,0,8.949
4470,143.04,2.6274,5.3971,1.0593,0.3634,-0.0339,-1.5717,rough,15.5,0,8.949
4480,143.36,2.6264,5.3974,1.0589,0.3634,-0.0331,-1.5738,rough,15.5,0,8.950
4490,143.68,2.6260,5.3971,1.0587,0.3633,-0.0352,-1.5667,rough,15.5,0,8.949
4500,144.00,2.6273,5.3969,1.0593,0.3633,-0.0347,-1.5691,rough,15.5,0,8.949
4510,144.32,2.6276,5.3970,1.0594,0.3634,-0.0340,-1.5713,rough,15.5,0,8.949
4520,144.64,2.6268,5.3973,1.0591,0.3634,-0.0332,-1.5735,rough,15.5,0,8.949
4530,144.96,2.6252,5.3976,1.0582,0.3633,-0.0340,-1.5670,rough,15.5,0,8.950
4540,145.28,2.6262,5.3971,1.0588,0.3633,-0.0344,-1.5697,rough,15.5,0,8.949
4550,145.60,2.6261,5.3973,1.0588,0.3634,-0.0338,-1.5718,rough,15.5,0,8.950
4560,145.92,2.6248,5.3977,1.0581,0.3632,-0.0350,-1.5644,rough,15.5,0,8.950
4570,146.24,2.6269,5.3968,1.0591,0.3633,-0.0354,-1.5672,rough,15.5,0,8.949
4580,146.56,2.6281,5.3967,1.0596,0.3634,-0.0347,-1.5695,rough,15.5,0,8.949
4590,146.88,2.6282,5.3969,1.0596,0.3634,-0.0340,-1.5717,rough,15.5,0,8.949
4600,147.20,2.6273,5.3972,1.0593,0.3634,-0.0331,-1.5738,rough,15.5,0,8.949
4610,147.52,2.6251,5.3978,1.0581,0.3633,-0.0332,-1.5675,rough,15.5,0,8.950
4620,147.84,2.6257,5.3973,1.0586,0.3633,-0.0340,-1.5704,rough,15.5,0,8.950
4630,148.16,2.6254,5.3975,1.0585,0.3633,-0.0335,-1.5725,rough,15.5,0,8.950
4640,148.48,2.6260,5.3969,1.0587,0.3632,-0.0356,-1.5660,rough,15.5,0,8.949
4650,148.80,2.6277,5.3967,1.0594,0.3633,-0.0351,-1.5683,rough,15.5,0,8.949
4660,149.12,2.6283,5.3968,1.0597,0.3634,-0.0343,-1.5706,rough,15.5,0,8.949
4670,149.44,2.6279,5.3971,1.0595,0.3634,-0.0335,-1.5728,rough,15.5,0,8.949
4680,149.76,2.6265,5.3975,1.0589,0.3634,-0.0326,-1.5749,rough,15.5,0,8.950
4690,150.08,2.6255,5.3973,1.0585,0.3633,-0.0341,-1.5692,rough,15.5,0,8.950
4700,150.40,2.6256,5.3973,1.0586,0.3633,-0.0338,-1.5715,rough,15.5,0,8.950
4710,150.72,2.6252,5.3973,1.0583,0.3632,-0.0357,-1.5643,rough,15.5,0,8.950
4720,151.04,2.6276,5.3966,1.0594,0.3633,-0.0356,-1.5669,rough,15.5,0,8.949
4730,151.36,2.6288,5.3966,1.0599,0.3635,-0.0348,-1.5693,rough,15.5,0,8.948
4740,151.68,2.6291,5.3967,1.0600,0.3635,-0.0341,-1.5715,rough,15.5,0,8.948
4750,152.00,2.6282,5.3971,1.0596,0.3636,-0.0333,-1.5737,rough,15.5,0,8.949
4760,152.32,2.6253,5.3979,1.0586,0.3631,-0.0364,-1.5666,rough,15.5,0,8.950
4770,152.64,2.6259,5.3972,1.0587,0.3633,-0.0343,-1.5693,rough,15.5,0,8.950
4780,152.96,2.6260,5.3973,1.0588,0.3633,-0.0339,-1.5716,rough,15.5,0,8.950
4790,153.28,2.6247,5.3977,1.0580,0.3632,-0.0351,-1.5643,rough,15.5,0,8.950
4800,153.60,2.6269,5.3968,1.0591,0.3633,-0.0355,-1.5670,rough,15.5,0,8.949
4810,153.92,2.6282,5.3967,1.0596,0.3634,-0.0347,-1.5693,rough,15.5,0,8.949
4820,154.24,2.6282,5.3970,1.0596,0.3643,-0.0349,-1.5718,rough,15.5,0,8.949
4830,154.56,2.6275,5.3972,1.0594,0.3636,-0.0333,-1.5737,rough,15.5,0,8.949
4840,154.88,2.6254,5.3977,1.0583,0.3633,-0.0347,-1.5657,rough,15.5,0,8.950
4850,155.20,2.6270,5.3969,1.0591,0.3633,-0.0350,-1.5684,rough,15.5,0,8.949
4860,155.52,2.6276,5.3969,1.0594,0.3634,-0.0343,-1.5706,rough,15.5,0,8.949
4870,155.84,2.6272,5.3972,1.0592,0.3634,-0.0335,-1.5728,rough,15.5,0,8.949
4880,156.16,2.6249,5.3981,1.0575,0.3631,-0.0308,-1.5648,rough,15.5,0,8.951
4890,156.48,2.6261,5.3971,1.0588,0.3633,-0.0347,-1.5688,rough,15.5,0,8.949
4900,156.80,2.6265,5.3972,1.0589,0.3633,-0.0341,-1.5710,rough,15.5,0,8.949
4910,157.12,2.6258,5.3974,1.0587,0.3634,-0.0333,-1.5731,rough,15.5,0,8.950
4920,157.44,2.6259,5.3970,1.0587,0.3632,-0.0354,-1.5662,rough,15.5,0,8.949
4930,157.76,2.6275,5.3968,1.0594,0.3633,-0.0350,-1.5686,rough,15.5,0,8.949
4940,158.08,2.6280,5.3969,1.0596,0.3634,-0.0342,-1.5708,rough,15.5,0,8.949
4950,158.40,2.6275,5.3971,1.0594,0.3634,-0.0334,-1.5730,rough,15.5,0,8.949
4960,158.72,2.6251,5.3981,1.0577,0.3631,-0.0316,-1.5644,rough,15.5,0,8.950
4970,159.04,2.6266,5.3970,1.0590,0.3633,-0.0350,-1.5682,rough,15.5,0,8.949
4980,159.36,2.6273,5.3970,1.0593,0.3634,-0.0343,-1.5704,rough,15.5,0,8.949
4990,159.68,2.6270,5.3972,1.0592,0.3634,-0.0336,-1.5726,rough,15.5,0,8.949
5000,160.00,2.6248,5.3981,1.0574,0.3631,-0.0307,-1.5648,rough,15.5,0,8.951
5010,160.32,2.6260,5.3971,1.0587,0.3633,-0.0347,-1.5687,rough,15.5,0,8.949
5020,160.64,2.6264,5.3972,1.0589,0.3633,-0.0341,-1.5709,rough,15.5,0,8.949
5030,160.96,2.6258,5.3974,1.0587,0.3634,-0.0333,-1.5731,rough,15.5,0,8.950
5040,161.28,2.6260,5.3970,1.0587,0.3632,-0.0355,-1.5660,rough,15.5,0,8.949
5050,161.60,2.6277,5.3967,1.0594,0.3633,-0.0350,-1.5684,rough,15.5,0,8.949
5060,161.92,2.6283,5.3968,1.0597,0.3634,-0.0343,-1.5706,rough,15.5,0,8.949
5070,162.24,2.6279,5.3971,1.0595,0.3634,-0.0335,-1.5728,rough,15.5,0,8.949
5080,162.56,2.6264,5.3975,1.0589,0.3634,-0.0326,-1.5749,rough,15.5,0,8.950
5090,162.88,2.6262,5.3971,1.0588,0.3633,-0.0348,-1.5682,rough,15.5,0,8.949
5100,163.20,2.6269,5.3970,1.0591,0.3633,-0.0342,-1.5705,rough,15.5,0,8.949
5110,163.52,2.6265,5.3973,1.0590,0.3634,-0.0335,-1.5726,rough,15.5,0,8.949
5120,163.84,2.6252,5.3975,1.0583,0.3633,-0.0351,-1.5651,rough,15.5,0,8.950
5130,164.16,2.6271,5.3968,1.0592,0.3633,-0.0352,-1.5677,rough,15.5,0,8.949
5140,164.48,2.6280,5.3968,1.0596,0.3634,-0.0344,-1.5700,rough,15.5,0,8.949
5150,164.80,2.6279,5.3970,1.0595,0.3634,-0.0337,-1.5722,rough,15.5,0,8.949
5160,165.12,2.6267,5.3974,1.0590,0.3634,-0.0328,-1.5743,rough,15.5,0,8.950
5170,165.44,2.6260,5.3972,1.0587,0.3633,-0.0349,-1.5673,rough,15.5,0,8.949
5180,165.76,2.6270,5.3970,1.0592,0.3634,-0.0345,-1.5697,rough,15.5,0,8.949
5190,166.08,2.6270,5.3971,1.0592,0.3634,-0.0338,-1.5719,rough,15.5,0,8.949
5200,166.40,2.6260,5.3975,1.0588,0.3634,-0.0330,-1.5740,rough,15.5,0,8.950
5210,166.72,2.6261,5.3971,1.0588,0.3633,-0.0351,-1.5674,rough,15.5,0,8.949
5220,167.04,2.6272,5.3969,1.0592,0.3634,-0.0345,-1.5698,rough,15.5,0,8.949
5230,167.36,2.6271,5.3971,1.0592,0.3634,-0.0338,-1.5719,rough,15.5,0,8.949
5240,167.68,2.6261,5.3975,1.0588,0.3634,-0.0330,-1.5740,rough,15.5,0,8.950
5250,168.00,2.6256,5.3972,1.0585,0.3633,-0.0346,-1.5680,rough,15.5,0,8.950
5260,168.32,2.6263,5.3971,1.0589,0.3633,-0.0342,-1.5704,rough,15.5,0,8.949
5270,168.64,2.6260,5.3974,1.0588,0.3634,-0.0336,-1.5725,rough,15.5,0,8.950
5280,168.96,2.6255,5.3972,1.0585,0.3632,-0.0355,-1.5653,rough,15.5,0,8.950
5290,169.28,2.6275,5.3967,1.0593,0.3633,-0.0352,-1.5678,rough,15.5,0,8.949
5300,169.60,2.6283,5.3968,1.0596,0.3637,-0.0347,-1.5702,rough,15.5,0,8.949
5310,169.92,2.6281,5.3970,1.0596,0.3637,-0.0340,-1.5724,rough,15.5,0,8.949
5320,170.24,2.6269,5.3974,1.0591,0.3635,-0.0328,-1.5745,rough,15.5,0,8.950
5330,170.56,2.6254,5.3974,1.0584,0.3633,-0.0341,-1.5680,rough,15.5,0,8.950
5340,170.88,2.6259,5.3972,1.0587,0.3633,-0.0341,-1.5705,rough,15.5,0,8.950
5350,171.20,2.6255,5.3975,1.0586,0.3634,-0.0335,-1.5727,rough,15.5,0,8.950
5360,171.52,2.6256,5.3971,1.0585,0.3632,-0.0353,-1.5663,rough,15.5,0,8.949
5370,171.84,2.6271,5.3969,1.0592,0.3633,-0.0349,-1.5687,rough,15.5,0,8.949
5380,172.16,2.6275,5.3970,1.0594,0.3634,-0.0342,-1.5709,rough,15.5,0,8.949
5390,172.48,2.6270,5.3972,1.0592,0.3634,-0.0334,-1.5731,rough,15.5,0,8.949
5400,172.80,2.6252,5.3977,1.0582,0.3632,-0.0344,-1.5659,rough,15.5,0,8.950
5410,173.12,2.6267,5.3970,1.0590,0.3633,-0.0348,-1.5686,rough,15.5,0,8.949
5420,173.44,2.6271,5.3970,1.0592,0.3634,-0.0342,-1.5709,rough,15.5,0,8.949
5430,173.76,2.6266,5.3973,1.0590,0.3634,-0.0334,-1.5730,rough,15.5,0,8.949
5440,174.08,2.6252,5.3975,1.0582,0.3633,-0.0343,-1.5664,rough,15.5,0,8.950
5450,174.40,2.6264,5.3970,1.0589,0.3633,-0.0347,-1.5691,rough,15.5,0,8.949
5460,174.72,2.6267,5.3971,1.0591,0.3634,-0.0340,-1.5712,rough,15.5,0,8.949
5470,175.04,2.6260,5.3974,1.0588,0.3634,-0.0332,-1.5733,rough,15.5,0,8.950
5480,175.36,2.6261,5.3970,1.0588,0.3632,-0.0356,-1.5660,rough,15.5,0,8.949
5490,175.68,2.6278,5.3967,1.0595,0.3633,-0.0350,-1.5684,rough,15.5,0,8.949
5500,176.00,2.6283,5.3969,1.0596,0.3639,-0.0347,-1.5709,rough,15.5,0,8.949
5510,176.32,2.6279,5.3971,1.0595,0.3636,-0.0336,-1.5729,rough,15.5,0,8.949
5520,176.64,2.6264,5.3975,1.0589,0.3635,-0.0326,-1.5750,rough,15.5,0,8.950
5530,176.96,2.6260,5.3971,1.0587,0.3633,-0.0347,-1.5683,rough,15.5,0,8.949
5540,177.28,2.6266,5.3971,1.0590,0.3633,-0.0342,-1.5706,rough,15.5,0,8.949
5550,177.60,2.6262,5.3973,1.0588,0.3634,-0.0335,-1.5727,rough,15.5,0,8.950
5560,177.92,2.6251,5.3974,1.0583,0.3633,-0.0348,-1.5659,rough,15.5,0,8.950
5570,178.24,2.6267,5.3969,1.0590,0.3633,-0.0349,-1.5685,rough,15.5,0,8.949
5580,178.56,2.6272,5.3970,1.0592,0.3634,-0.0342,-1.5707,rough,15.5,0,8.949
5590,178.88,2.6267,5.3973,1.0591,0.3634,-0.0334,-1.5729,rough,15.5,0,8.949
5600,179.20,2.6250,5.3977,1.0581,0.3632,-0.0340,-1.5662,rough,15.5,0,8.950
5610,179.52,2.6262,5.3971,1.0588,0.3633,-0.0347,-1.5690,rough,15.5,0,8.949
5620,179.84,2.6265,5.3972,1.0590,0.3633,-0.0340,-1.5712,rough,15.5,0,8.949
5630,180.16,2.6258,5.3975,1.0587,0.3634,-0.0332,-1.5733,rough,15.5,0,8.950
5640,180.48,2.6257,5.3971,1.0586,0.3632,-0.0351,-1.5668,rough,15.5,0,8.949
5650,180.80,2.6269,5.3969,1.0591,0.3633,-0.0347,-1.5692,rough,15.5,0,8.949
5660,181.12,2.6272,5.3971,1.0592,0.3634,-0.0340,-1.5714,rough,15.5,0,8.949
5670,181.44,2.6264,5.3974,1.0589,0.3634,-0.0332,-1.5735,rough,15.5,0,8.950
5680,181.76,2.6254,5.3973,1.0584,0.3633,-0.0345,-1.5672,rough,15.5,0,8.950
5690,182.08,2.6264,5.3971,1.0589,0.3633,-0.0345,-1.5698,rough,15.5,0,8.949
5700,182.40,2.6264,5.3972,1.0589,0.3634,-0.0338,-1.5719,rough,15.5,0,8.949
5710,182.72,2.6246,5.3979,1.0579,0.3631,-0.0346,-1.5643,rough,15.5,0,8.950
5720,183.04,2.6267,5.3969,1.0590,0.3633,-0.0354,-1.5672,rough,15.5,0,8.949
5730,183.36,2.6278,5.3968,1.0595,0.3634,-0.0346,-1.5695,rough,15.5,0,8.949
5740,183.68,2.6279,5.3970,1.0595,0.3634,-0.0339,-1.5717,rough,15.5,0,8.949
5750,184.00,2.6270,5.3973,1.0592,0.3634,-0.0331,-1.5738,rough,15.5,0,8.949
5760,184.32,2.6258,5.3974,1.0586,0.3633,-0.0349,-1.5665,rough,15.5,0,8.950
5770,184.64,2.6271,5.3969,1.0592,0.3633,-0.0347,-1.5691,rough,15.5,0,8.949
5780,184.96,2.6274,5.3970,1.0593,0.3634,-0.0341,-1.5713,rough,15.5,0,8.949
5790,185.28,2.6266,5.3973,1.0590,0.3634,-0.0332,-1.5734,rough,15.5,0,8.949
5800,185.60,2.6255,5.3974,1.0584,0.3633,-0.0346,-1.5666,rough,15.5,0,8.950
5810,185.92,2.6267,5.3970,1.0590,0.3633,-0.0347,-1.5692,rough,15.5,0,8.949
5820,186.24,2.6269,5.3971,1.0591,0.3634,-0.0340,-1.5714,rough,15.5,0,8.949
5830,186.56,2.6261,5.3974,1.0588,0.3634,-0.0332,-1.5735,rough,15.5,0,8.950
5840,186.88,2.6254,5.3972,1.0584,0.3632,-0.0347,-1.5672,rough,15.5,0,8.950
5850,187.20,2.6264,5.3971,1.0589,0.3633,-0.0345,-1.5697,rough,15.5,0,8.949
5860,187.52,2.6264,5.3972,1.0589,0.3634,-0.0338,-1.5718,rough,15.5,0,8.949
5870,187.84,2.6244,5.3980,1.0573,0.3631,-0.0311,-1.5637,rough,15.5,0,8.951
5880,188.16,2.6261,5.3970,1.0588,0.3633,-0.0351,-1.5677,rough,15.5,0,8.949
5890,188.48,2.6270,5.3970,1.0591,0.3633,-0.0344,-1.5700,rough,15.5,0,8.949
5900,188.80,2.6269,5.3972,1.0591,0.3634,-0.0337,-1.5721,rough,15.5,0,8.949
5910,189.12,2.6248,5.3979,1.0584,0.3630,-0.0369,-1.5651,rough,15.5,0,8.950
5920,189.44,2.6259,5.3971,1.0587,0.3633,-0.0348,-1.5682,rough,15.5,0,8.949
5930,189.76,2.6266,5.3971,1.0590,0.3633,-0.0342,-1.5705,rough,15.5,0,8.949
5940,190.08,2.6262,5.3973,1.0589,0.3634,-0.0335,-1.5726,rough,15.5,0,8.950
5950,190.40,2.6254,5.3973,1.0584,0.3633,-0.0354,-1.5652,rough,15.5,0,8.950
5960,190.72,2.6273,5.3968,1.0593,0.3633,-0.0353,-1.5677,rough,15.5,0,8.949
5970,191.04,2.6282,5.3968,1.0596,0.3634,-0.0344,-1.5700,rough,15.5,0,8.949
5980,191.36,2.6281,5.3970,1.0596,0.3634,-0.0338,-1.5722,rough,15.5,0,8.949
5990,191.68,2.6269,5.3973,1.0591,0.3634,-0.0329,-1.5743,rough,15.5,0,8.949
6000,192.00,2.6258,5.3973,1.0586,0.3633,-0.0345,-1.5675,rough,15.5,0,8.950
6010,192.32,2.6266,5.3971,1.0590,0.3633,-0.0343,-1.5700,rough,15.5,0,8.949
6020,192.64,2.6265,5.3972,1.0590,0.3634,-0.0337,-1.5722,rough,15.5,0,8.949
6030,192.96,2.6246,5.3979,1.0579,0.3631,-0.0341,-1.5649,rough,15.5,0,8.950
6040,193.28,2.6263,5.3970,1.0589,0.3633,-0.0351,-1.5679,rough,15.5,0,8.949
6050,193.60,2.6271,5.3970,1.0592,0.3633,-0.0344,-1.5701,rough,15.5,0,8.949
6060,193.92,2.6270,5.3972,1.0591,0.3634,-0.0337,-1.5723,rough,15.5,0,8.949
6070,194.24,2.6248,5.3979,1.0584,0.3630,-0.0366,-1.5655,rough,15.5,0,8.950
6080,194.56,2.6257,5.3972,1.0586,0.3633,-0.0346,-1.5687,rough,15.5,0,8.950
6090,194.88,2.6261,5.3972,1.0588,0.3633,-0.0341,-1.5709,rough,15.5,0,8.949
6100,195.20,2.6256,5.3975,1.0586,0.3634,-0.0333,-1.5730,rough,15.5,0,8.950
6110,195.52,2.6260,5.3970,1.0587,0.3632,-0.0355,-1.5663,rough,15.5,0,8.949
6120,195.84,2.6276,5.3968,1.0594,0.3633,-0.0349,-1.5687,rough,15.5,0,8.949
6130,196.16,2.6280,5.3969,1.0596,0.3634,-0.0342,-1.5709,rough,15.5,0,8.949
6140,196.48,2.6274,5.3972,1.0593,0.3634,-0.0334,-1.5731,rough,15.5,0,8.949
6150,196.80,2.6250,5.3980,1.0576,0.3631,-0.0308,-1.5651,rough,15.5,0,8.950
6160,197.12,2.6261,5.3971,1.0588,0.3633,-0.0346,-1.5690,rough,15.5,0,8.949
6170,197.44,2.6264,5.3972,1.0589,0.3633,-0.0340,-1.5712,rough,15.5,0,8.949
6180,197.76,2.6257,5.3975,1.0586,0.3634,-0.0332,-1.5733,rough,15.5,0,8.950
6190,198.08,2.6259,5.3970,1.0587,0.3632,-0.0353,-1.5667,rough,15.5,0,8.949
6200,198.40,2.6273,5.3969,1.0593,0.3633,-0.0348,-1.5691,rough,15.5,0,8.949
6210,198.72,2.6275,5.3970,1.0594,0.3634,-0.0341,-1.5713,rough,15.5,0,8.949
6220,199.04,2.6268,5.3973,1.0591,0.3634,-0.0332,-1.5734,rough,15.5,0,8.949
6230,199.36,2.6251,5.3976,1.0582,0.3633,-0.0339,-1.5671,rough,15.5,0,8.950
6240,199.68,2.6260,5.3972,1.0588,0.3633,-0.0344,-1.5699,rough,15.5,0,8.949
6250,200.00,2.6259,5.3973,1.0587,0.3634,-0.0337,-1.5720,rough,15.5,0,8.950
6260,200.32,2.6248,5.3975,1.0581,0.3632,-0.0348,-1.5652,rough,15.5,0,8.950
6270,200.64,2.6266,5.3969,1.0590,0.3633,-0.0351,-1.5679,rough,15.5,0,8.949
6280,200.96,2.6275,5.3969,1.0593,0.3634,-0.0344,-1.5702,rough,15.5,0,8.949
6290,201.28,2.6272,5.3971,1.0593,0.3634,-0.0337,-1.5723,rough,15.5,0,8.949
6300,201.60,2.6260,5.3975,1.0588,0.3634,-0.0328,-1.5744,rough,15.5,0,8.950
6310,201.92,2.6257,5.3972,1.0586,0.3633,-0.0345,-1.5685,rough,15.5,0,8.950
6320,202.24,2.6262,5.3972,1.0588,0.3633,-0.0341,-1.5708,rough,15.5,0,8.949
6330,202.56,2.6257,5.3974,1.0586,0.3634,-0.0334,-1.5729,rough,15.5,0,8.950
6340,202.88,2.6257,5.3971,1.0586,0.3632,-0.0353,-1.5663,rough,15.5,0,8.949
6350,203.20,2.6273,5.3968,1.0593,0.3633,-0.0349,-1.5687,rough,15.5,0,8.949
6360,203.52,2.6277,5.3969,1.0594,0.3634,-0.0342,-1.5709,rough,15.5,0,8.949
6370,203.84,2.6272,5.3972,1.0592,0.3634,-0.0334,-1.5731,rough,15.5,0,8.949
6380,204.16,2.6250,5.3979,1.0580,0.3632,-0.0338,-1.5659,rough,15.5,0,8.950
6390,204.48,2.6263,5.3971,1.0589,0.3633,-0.0347,-1.5689,rough,15.5,0,8.949
6400,204.80,2.6266,5.3971,1.0590,0.3633,-0.0341,-1.5711,rough,15.5,0,8.949
6410,205.12,2.6260,5.3974,1.0588,0.3634,-0.0333,-1.5732,rough,15.5,0,8.950
6420,205.44,2.6254,5.3972,1.0584,0.3632,-0.0348,-1.5669,rough,15.5,0,8.950
6430,205.76,2.6265,5.3970,1.0590,0.3633,-0.0346,-1.5694,rough,15.5,0,8.949
6440,206.08,2.6267,5.3972,1.0590,0.3634,-0.0339,-1.5715,rough,15.5,0,8.949
6450,206.40,2.6259,5.3975,1.0587,0.3634,-0.0331,-1.5736,rough,15.5,0,8.950
6460,206.72,2.6261,5.3970,1.0588,0.3633,-0.0354,-1.5667,rough,15.5,0,8.949
6470,207.04,2.6275,5.3968,1.0593,0.3633,-0.0348,-1.5691,rough,15.5,0,8.949
6480,207.36,2.6278,5.3970,1.0595,0.3634,-0.0341,-1.5713,rough,15.5,0,8.949
6490,207.68,2.6270,5.3973,1.0592,0.3634,-0.0332,-1.5734,rough,15.5,0,8.949
6500,208.00,2.6250,5.3977,1.0581,0.3632,-0.0334,-1.5670,rough,15.5,0,8.950
6510,208.32,2.6259,5.3972,1.0587,0.3633,-0.0343,-1.5699,rough,15.5,0,8.950
6520,208.64,2.6257,5.3974,1.0587,0.3633,-0.0337,-1.5721,rough,15.5,0,8.950
6530,208.96,2.6255,5.3971,1.0585,0.3632,-0.0357,-1.5649,rough,15.5,0,8.950
6540,209.28,2.6276,5.3967,1.0594,0.3633,-0.0354,-1.5674,rough,15.5,0,8.949
6550,209.60,2.6287,5.3967,1.0598,0.3635,-0.0346,-1.5697,rough,15.5,0,8.948
6560,209.92,2.6287,5.3968,1.0598,0.3635,-0.0339,-1.5719,rough,15.5,0,8.949
6570,210.24,2.6276,5.3972,1.0594,0.3635,-0.0331,-1.5741,rough,15.5,0,8.949
6580,210.56,2.6252,5.3977,1.0582,0.3633,-0.0337,-1.5669,rough,15.5,0,8.950
6590,210.88,2.6261,5.3972,1.0588,0.3633,-0.0344,-1.5698,rough,15.5,0,8.949
6600,211.20,2.6260,5.3973,1.0588,0.3634,-0.0338,-1.5720,rough,15.5,0,8.950
6610,211.52,2.6250,5.3975,1.0582,0.3632,-0.0353,-1.5646,rough,15.5,0,8.950
6620,211.84,2.6272,5.3967,1.0592,0.3633,-0.0354,-1.5672,rough,15.5,0,8.949
6630,212.16,2.6283,5.3967,1.0597,0.3637,-0.0350,-1.5697,rough,15.5,0,8.949
6640,212.48,2.6283,5.3970,1.0597,0.3641,-0.0346,-1.5720,rough,15.5,0,8.949
6650,212.80,2.6274,5.3973,1.0593,0.3635,-0.0331,-1.5739,rough,15.5,0,8.949
6660,213.12,2.6251,5.3977,1.0581,0.3633,-0.0335,-1.5670,rough,15.5,0,8.950
6670,213.44,2.6259,5.3972,1.0587,0.3633,-0.0343,-1.5699,rough,15.5,0,8.949
6680,213.76,2.6258,5.3973,1.0587,0.3633,-0.0337,-1.5720,rough,15.5,0,8.950
6690,214.08,2.6252,5.3973,1.0583,0.3632,-0.0353,-1.5649,rough,15.5,0,8.950
6700,214.40,2.6272,5.3968,1.0592,0.3633,-0.0353,-1.5675,rough,15.5,0,8.949
6710,214.72,2.6282,5.3968,1.0596,0.3634,-0.0345,-1.5698,rough,15.5,0,8.949
6720,215.04,2.6281,5.3970,1.0596,0.3636,-0.0340,-1.5721,rough,15.5,0,8.949
6730,215.36,2.6271,5.3973,1.0592,0.3635,-0.0330,-1.5742,rough,15.5,0,8.949
6740,215.68,2.6254,5.3974,1.0584,0.3633,-0.0342,-1.5673,rough,15.5,0,8.950
6750,216.00,2.6263,5.3971,1.0589,0.3633,-0.0344,-1.5699,rough,15.5,0,8.949
6760,216.32,2.6262,5.3973,1.0589,0.3634,-0.0337,-1.5720,rough,15.5,0,8.950
6770,216.64,2.6248,5.3977,1.0581,0.3632,-0.0348,-1.5647,rough,15.5,0,8.950
6780,216.96,2.6268,5.3968,1.0591,0.3633,-0.0353,-1.5675,rough,15.5,0,8.949
6790,217.28,2.6278,5.3968,1.0595,0.3634,-0.0345,-1.5698,rough,15.5,0,8.949
6800,217.60,2.6278,5.3970,1.0595,0.3634,-0.0338,-1.5719,rough,15.5,0,8.949
6810,217.92,2.6267,5.3973,1.0591,0.3634,-0.0330,-1.5741,rough,15.5,0,8.949
6820,218.24,2.6256,5.3973,1.0585,0.3633,-0.0345,-1.5675,rough,15.5,0,8.950
6830,218.56,2.6265,5.3971,1.0590,0.3633,-0.0344,-1.5700,rough,15.5,0,8.949
6840,218.88,2.6264,5.3973,1.0589,0.3634,-0.0337,-1.5721,rough,15.5,0,8.949
6850,219.20,2.6245,5.3979,1.0578,0.3631,-0.0340,-1.5649,rough,15.5,0,8.950
6860,219.52,2.6263,5.3970,1.0589,0.3633,-0.0351,-1.5679,rough,15.5,0,8.949
6870,219.84,2.6271,5.3970,1.0592,0.3633,-0.0344,-1.5701,rough,15.5,0,8.949
6880,220.16,2.6269,5.3972,1.0591,0.3634,-0.0337,-1.5723,rough,15.5,0,8.949
6890,220.48,2.6248,5.3981,1.0576,0.3631,-0.0318,-1.5638,rough,15.5,0,8.951
6900,220.80,2.6266,5.3969,1.0590,0.3633,-0.0352,-1.5676,rough,15.5,0,8.949
6910,221.12,2.6276,5.3969,1.0594,0.3634,-0.0345,-1.5699,rough,15.5,0,8.949
6920,221.44,2.6275,5.3971,1.0594,0.3634,-0.0338,-1.5720,rough,15.5,0,8.949
6930,221.76,2.6264,5.3974,1.0589,0.3634,-0.0329,-1.5742,rough,15.5,0,8.950
6940,222.08,2.6262,5.3971,1.0588,0.3633,-0.0352,-1.5671,rough,15.5,0,8.949
6950,222.40,2.6274,5.3969,1.0593,0.3634,-0.0346,-1.5695,rough,15.5,0,8.949
6960,222.72,2.6275,5.3970,1.0594,0.3634,-0.0339,-1.5716,rough,15.5,0,8.949
6970,223.04,2.6266,5.3974,1.0590,0.3634,-0.0331,-1.5738,rough,15.5,0,8.950
6980,223.36,2.6256,5.3973,1.0585,0.3633,-0.0347,-1.5671,rough,15.5,0,8.950
6990,223.68,2.6267,5.3970,1.0590,0.3633,-0.0345,-1.5696,rough,15.5,0,8.949
7000,224.00,2.6267,5.3972,1.0590,0.3634,-0.0339,-1.5718,rough,15.5,0,8.949
7010,224.32,2.6247,5.3979,1.0584,0.3630,-0.0376,-1.5643,rough,15.5,0,8.950
7020,224.64,2.6263,5.3970,1.0588,0.3633,-0.0353,-1.5670,rough,15.5,0,8.949
7030,224.96,2.6275,5.3968,1.0593,0.3634,-0.0347,-1.5694,rough,15.5,0,8.949
7040,225.28,2.6276,5.3970,1.0594,0.3634,-0.0340,-1.5716,rough,15.5,0,8.949
7050,225.60,2.6268,5.3973,1.0591,0.3634,-0.0331,-1.5737,rough,15.5,0,8.949
7060,225.92,2.6254,5.3974,1.0584,0.3633,-0.0344,-1.5671,rough,15.5,0,8.950
7070,226.24,2.6264,5.3971,1.0589,0.3633,-0.0345,-1.5697,rough,15.5,0,8.949
7080,226.56,2.6265,5.3972,1.0590,0.3634,-0.0338,-1.5718,rough,15.5,0,8.949
7090,226.88,2.6244,5.3980,1.0573,0.3630,-0.0314,-1.5635,rough,15.5,0,8.951
7100,227.20,2.6263,5.3970,1.0589,0.3633,-0.0352,-1.5674,rough,15.5,0,8.949
7110,227.52,2.6273,5.3969,1.0593,0.3634,-0.0345,-1.5697,rough,15.5,0,8.949
7120,227.84,2.6274,5.3971,1.0593,0.3634,-0.0339,-1.5718,rough,15.5,0,8.949
7130,228.16,2.6263,5.3974,1.0589,0.3634,-0.0330,-1.5740,rough,15.5,0,8.950
7140,228.48,2.6255,5.3973,1.0585,0.3633,-0.0345,-1.5678,rough,15.5,0,8.950
7150,228.80,2.6263,5.3971,1.0589,0.3633,-0.0342,-1.5703,rough,15.5,0,8.949
7160,229.12,2.6260,5.3974,1.0588,0.3634,-0.0336,-1.5724,rough,15.5,0,8.950
7170,229.44,2.6250,5.3974,1.0582,0.3633,-0.0348,-1.5657,rough,15.5,0,8.950
7180,229.76,2.6267,5.3969,1.0590,0.3633,-0.0350,-1.5683,rough,15.5,0,8.949
7190,230.08,2.6273,5.3970,1.0593,0.3634,-0.0343,-1.5706,rough,15.5,0,8.949
7200,230.40,2.6269,5.3972,1.0591,0.3634,-0.0335,-1.5727,rough,15.5,0,8.949
7210,230.72,2.6249,5.3979,1.0580,0.3632,-0.0339,-1.5656,rough,15.5,0,8.950
7220,231.04,2.6263,5.3970,1.0589,0.3633,-0.0348,-1.5686,rough,15.5,0,8.949
7230,231.36,2.6268,5.3971,1.0591,0.3633,-0.0342,-1.5708,rough,15.5,0,8.949
7240,231.68,2.6263,5.3973,1.0589,0.3634,-0.0334,-1.5729,rough,15.5,0,8.950
7250,232.00,2.6252,5.3974,1.0583,0.3633,-0.0347,-1.5661,rough,15.5,0,8.950
7260,232.32,2.6267,5.3969,1.0590,0.3633,-0.0349,-1.5687,rough,15.5,0,8.949
7270,232.64,2.6271,5.3970,1.0592,0.3634,-0.0342,-1.5709,rough,15.5,0,8.949
7280,232.96,2.6266,5.3973,1.0590,0.3634,-0.0334,-1.5730,rough,15.5,0,8.949
7290,233.28,2.6251,5.3976,1.0582,0.3633,-0.0341,-1.5666,rough,15.5,0,8.950
7300,233.60,2.6262,5.3971,1.0588,0.3633,-0.0346,-1.5693,rough,15.5,0,8.949
7310,233.92,2.6264,5.3972,1.0589,0.3634,-0.0339,-1.5715,rough,15.5,0,8.949
7320,234.24,2.6245,5.3979,1.0583,0.3630,-0.0375,-1.5642,rough,15.5,0,8.950
7330,234.56,2.6261,5.3970,1.0588,0.3633,-0.0353,-1.5670,rough,15.5,0,8.949
7340,234.88,2.6273,5.3969,1.0593,0.3633,-0.0347,-1.5694,rough,15.5,0,8.949
7350,235.20,2.6275,5.3970,1.0593,0.3634,-0.0340,-1.5715,rough,15.5,0,8.949
7360,235.52,2.6266,5.3974,1.0590,0.3634,-0.0331,-1.5737,rough,15.5,0,8.950
7370,235.84,2.6257,5.3973,1.0586,0.3633,-0.0349,-1.5667,rough,15.5,0,8.950
7380,236.16,2.6270,5.3969,1.0591,0.3633,-0.0347,-1.5692,rough,15.5,0,8.949
7390,236.48,2.6272,5.3971,1.0593,0.3634,-0.0340,-1.5714,rough,15.5,0,8.949
7400,236.80,2.6264,5.3974,1.0589,0.3634,-0.0332,-1.5735,rough,15.5,0,8.950
7410,237.12,2.6255,5.3973,1.0584,0.3633,-0.0346,-1.5671,rough,15.5,0,8.950
7420,237.44,2.6265,5.3970,1.0590,0.3633,-0.0345,-1.5696,rough,15.5,0,8.949
7430,237.76,2.6266,5.3972,1.0590,0.3634,-0.0339,-1.5718,rough,15.5,0,8.949
7440,238.08,2.6246,5.3979,1.0583,0.3630,-0.0371,-1.5647,rough,15.5,0,8.950
7450,238.40,2.6259,5.3971,1.0587,0.3633,-0.0350,-1.5676,rough,15.5,0,8.949
7460,238.72,2.6268,5.3970,1.0591,0.3633,-0.0344,-1.5699,rough,15.5,0,8.949
7470,239.04,2.6268,5.3972,1.0591,0.3634,-0.0338,-1.5720,rough,15.5,0,8.949
7480,239.36,2.6248,5.3981,1.0575,0.3631,-0.0320,-1.5635,rough,15.5,0,8.951
7490,239.68,2.6267,5.3969,1.0590,0.3633,-0.0354,-1.5672,rough,15.5,0,8.949
7500,240.00,2.6279,5.3968,1.0595,0.3634,-0.0346,-1.5695,rough,15.5,0,8.949
7510,240.32,2.6279,5.3970,1.0595,0.3634,-0.0339,-1.5717,rough,15.5,0,8.949
7520,240.64,2.6270,5.3973,1.0592,0.3634,-0.0330,-1.5739,rough,15.5,0,8.949
7530,240.96,2.6257,5.3974,1.0585,0.3633,-0.0347,-1.5667,rough,15.5,0,8.950
7540,241.28,2.6269,5.3970,1.0591,0.3633,-0.0346,-1.5693,rough,15.5,0,8.949
7550,241.60,2.6271,5.3971,1.0592,0.3634,-0.0340,-1.5715,rough,15.5,0,8.949
7560,241.92,2.6263,5.3974,1.0589,0.3634,-0.0332,-1.5736,rough,15.5,0,8.950
7570,242.24,2.6258,5.3972,1.0586,0.3633,-0.0349,-1.5670,rough,15.5,0,8.949
7580,242.56,2.6270,5.3969,1.0591,0.3633,-0.0346,-1.5694,rough,15.5,0,8.949
7590,242.88,2.6271,5.3971,1.0592,0.3634,-0.0339,-1.5716,rough,15.5,0,8.949
7600,243.20,2.6262,5.3974,1.0589,0.3634,-0.0331,-1.5737,rough,15.5,0,8.950
7610,243.52,2.6255,5.3972,1.0585,0.3633,-0.0346,-1.5675,rough,15.5,0,8.950
7620,243.84,2.6264,5.3971,1.0589,0.3633,-0.0344,-1.5700,rough,15.5,0,8.949
7630,244.16,2.6263,5.3973,1.0589,0.3634,-0.0337,-1.5721,rough,15.5,0,8.950
7640,244.48,2.6248,5.3977,1.0580,0.3632,-0.0347,-1.5649,rough,15.5,0,8.950
7650,244.80,2.6267,5.3969,1.0590,0.3633,-0.0352,-1.5677,rough,15.5,0,8.949
7660,245.12,2.6276,5.3969,1.0594,0.3634,-0.0345,-1.5699,rough,15.5,0,8.949
7670,245.44,2.6275,5.3971,1.0594,0.3634,-0.0338,-1.5721,rough,15.5,0,8.949
7680,245.76,2.6264,5.3974,1.0589,0.3634,-0.0329,-1.5742,rough,15.5,0,8.950
7690,246.08,2.6262,5.3971,1.0588,0.3633,-0.0351,-1.5672,rough,15.5,0,8.949
7700,246.40,2.6273,5.3969,1.0593,0.3634,-0.0346,-1.5696,rough,15.5,0,8.949
7710,246.72,2.6273,5.3971,1.0593,0.3634,-0.0339,-1.5718,rough,15.5,0,8.949
7720,247.04,2.6263,5.3974,1.0589,0.3634,-0.0330,-1.5739,rough,15.5,0,8.950
7730,247.36,2.6256,5.3973,1.0585,0.3633,-0.0345,-1.5677,rough,15.5,0,8.950
7740,247.68,2.6264,5.3971,1.0589,0.3633,-0.0343,-1.5701,rough,15.5,0,8.949
7750,248.00,2.6262,5.3973,1.0588,0.3634,-0.0337,-1.5723,rough,15.5,0,8.950
7760,248.32,2.6250,5.3975,1.0582,0.3632,-0.0350,-1.5651,rough,15.5,0,8.950
7770,248.64,2.6269,5.3968,1.0591,0.3633,-0.0352,-1.5678,rough,15.5,0,8.949
7780,248.96,2.6278,5.3968,1.0595,0.3634,-0.0344,-1.5701,rough,15.5,0,8.949
7790,249.28,2.6276,5.3971,1.0594,0.3634,-0.0337,-1.5722,rough,15.5,0,8.949
7800,249.60,2.6264,5.3974,1.0589,0.3634,-0.0328,-1.5743,rough,15.5,0,8.950
7810,249.92,2.6262,5.3971,1.0588,0.3633,-0.0350,-1.5674,rough,15.5,0,8.949
7820,250.24,2.6272,5.3969,1.0592,0.3634,-0.0345,-1.5698,rough,15.5,0,8.949
7830,250.56,2.6271,5.3971,1.0592,0.3634,-0.0338,-1.5719,rough,15.5,0,8.949
7840,250.88,2.6261,5.3975,1.0588,0.3634,-0.0330,-1.5740,rough,15.5,0,8.950
7850,251.20,2.6255,5.3972,1.0585,0.3633,-0.0345,-1.5682,rough,15.5,0,8.950
7860,251.52,2.6262,5.3972,1.0588,0.3633,-0.0342,-1.5705,rough,15.5,0,8.949
7870,251.84,2.6258,5.3974,1.0587,0.3634,-0.0335,-1.5726,rough,15.5,0,8.950
7880,252.16,2.6255,5.3971,1.0585,0.3632,-0.0353,-1.5660,rough,15.5,0,8.949
7890,252.48,2.6272,5.3968,1.0592,0.3633,-0.0350,-1.5684,rough,15.5,0,8.949
7900,252.80,2.6277,5.3969,1.0595,0.3634,-0.0343,-1.5707,rough,15.5,0,8.949
7910,253.12,2.6273,5.3972,1.0593,0.3634,-0.0335,-1.5728,rough,15.5,0,8.949
7920,253.44,2.6250,5.3981,1.0576,0.3631,-0.0314,-1.5645,rough,15.5,0,8.950
7930,253.76,2.6264,5.3970,1.0589,0.3633,-0.0349,-1.5683,rough,15.5,0,8.949
7940,254.08,2.6271,5.3970,1.0592,0.3633,-0.0342,-1.5706,rough,15.5,0,8.949
7950,254.40,2.6267,5.3973,1.0590,0.3634,-0.0335,-1.5727,rough,15.5,0,8.949
7960,254.72,2.6250,5.3977,1.0581,0.3632,-0.0342,-1.5659,rough,15.5,0,8.950
7970,255.04,2.6264,5.3970,1.0589,0.3633,-0.0348,-1.5687,rough,15.5,0,8.949
7980,255.36,2.6268,5.3971,1.0591,0.3634,-0.0341,-1.5709,rough,15.5,0,8.949
7990,255.68,2.6263,5.3974,1.0589,0.3634,-0.0334,-1.5730,rough,15.5,0,8.950
8000,256.00,2.6256,5.3972,1.0585,0.3633,-0.0354,-1.5657,rough,15.5,0,8.950
8010,256.32,2.6274,5.3968,1.0593,0.3633,-0.0351,-1.5681,rough,15.5,0,8.949
8020,256.64,2.6281,5.3968,1.0596,0.3634,-0.0343,-1.5704,rough,15.5,0,8.949
8030,256.96,2.6278,5.3971,1.0595,0.3634,-0.0336,-1.5726,rough,15.5,0,8.949
8040,257.28,2.6265,5.3974,1.0589,0.3634,-0.0327,-1.5747,rough,15.5,0,8.950
