step,time_s,x,y,z,roll,pitch,yaw,terrain,speed,target_idx,dist_to_target
10,0.32,2.0165,0.4847,0.7094,0.1014,-0.3165,-0.1084,rough,15.5,0,6.407
20,0.64,2.2004,0.4371,0.7729,0.1094,-0.4211,-0.1930,rough,15.5,0,6.241
30,0.96,2.5679,0.3471,0.9480,0.1261,-0.4465,-0.2386,rough,15.5,0,5.912
40,1.28,2.9307,0.2459,1.1261,0.1281,-0.4512,-0.2687,rough,15.5,0,5.596
50,1.60,3.2950,0.1376,1.3043,0.1159,-0.4343,-0.2584,rough,15.5,0,5.290
60,1.92,3.6721,0.0401,1.4803,0.0813,-0.4142,-0.2050,rough,15.5,0,4.978
70,2.24,4.0459,-0.0449,1.6473,0.0775,-0.4060,-0.1812,rough,15.5,0,4.675
80,2.56,4.4247,-0.1117,1.8084,0.0544,-0.3713,-0.1650,rough,15.5,0,4.372
90,2.88,4.7957,-0.1775,1.9522,0.0486,-0.3515,-0.1433,rough,15.5,0,4.088
100,3.20,5.1693,-0.2293,2.0905,0.0333,-0.3465,-0.1059,rough,15.5,0,3.810
110,3.52,5.5365,-0.2670,2.2183,0.0232,-0.3302,-0.0754,rough,15.5,0,3.545
120,3.84,5.8956,-0.2922,2.3394,0.0137,-0.3179,-0.0449,rough,15.5,0,3.298
130,4.16,6.2490,-0.3050,2.4556,0.0016,-0.3208,-0.0055,rough,15.5,0,3.068
140,4.48,6.5774,-0.3069,2.5631,0.0011,-0.3143,-0.0033,rough,15.5,0,2.868
150,4.80,6.8848,-0.3078,2.6628,0.0007,-0.3129,-0.0014,rough,15.5,0,2.703
160,5.12,7.1700,-0.3082,2.7549,0.0005,-0.3127,-0.0005,rough,15.5,0,2.573
170,5.44,7.4319,-0.3083,2.8396,0.0003,-0.3136,0.0003,rough,15.5,0,2.476
180,5.76,7.6708,-0.3083,2.9171,0.0002,-0.3136,0.0006,rough,15.5,0,2.409
190,6.08,8.0799,-0.3130,2.8233,0.0288,0.9504,0.0086,rough,15.5,0,2.352
200,6.40,8.5825,-0.3376,2.2333,2.9227,0.2633,2.9829,rough,15.5,0,2.397
210,6.72,8.8425,-0.6517,2.2355,2.6704,0.4069,2.6181,rough,15.5,0,2.754
220,7.04,9.0931,-0.9096,2.1354,2.5943,0.0590,2.2425,rough,15.5,0,3.067
230,7.36,9.2758,-1.2115,2.1394,2.6982,0.2516,2.4777,rough,15.5,0,3.409
240,7.68,9.4147,-1.3698,2.2007,2.9124,0.4746,2.6923,rough,15.5,0,3.603
250,8.00,9.5631,-1.4551,2.2690,2.8929,0.6288,2.8640,rough,15.5,0,3.734
260,8.32,9.6910,-1.4971,2.3662,2.9507,0.6655,2.9669,rough,15.5,0,3.820
270,8.64,9.8155,-1.5221,2.4624,2.9440,0.6751,2.9954,rough,15.5,0,3.892
280,8.96,9.9044,-1.5694,2.5357,2.8244,0.7006,2.8045,rough,15.5,0,3.972
290,9.28,9.9622,-1.6835,2.5800,2.5971,0.6368,2.4199,rough,15.5,0,4.100
300,9.60,9.9764,-1.8791,2.5843,2.5310,0.5172,2.1765,rough,15.5,0,4.284
310,9.92,10.0376,-2.0861,2.6416,2.6930,0.6916,2.4688,rough,15.5,0,4.498
320,10.24,10.0574,-2.2199,2.6797,2.6824,0.7323,2.4450,slope,18.0,0,4.629
330,10.56,9.9949,-2.4031,2.6415,2.8806,0.6629,2.5562,rough,15.5,0,4.774
340,10.88,10.0652,-2.4761,2.7071,3.0521,0.7713,2.8186,rough,15.5,0,4.868
350,11.20,10.0743,-2.4940,2.7203,3.1043,0.7858,2.8796,rough,15.5,0,4.888
360,11.52,10.0158,-2.4925,2.6649,-3.1164,0.7869,2.9497,rough,15.5,0,4.865
370,11.84,10.0086,-2.4903,2.6538,-3.0134,0.7825,3.1023,rough,15.5,0,4.860
380,12.16,9.9884,-2.4865,2.6350,-2.8688,0.7588,-2.9695,rough,15.5,0,4.849
390,12.48,9.9903,-2.4615,2.6347,-2.8658,0.7753,-2.9662,rough,15.5,0,4.827
400,12.80,9.9949,-2.4378,2.6364,-2.9221,0.7793,-3.0281,rough,15.5,0,4.806
410,13.12,9.9929,-2.4236,2.6315,-2.9048,0.7865,-3.0124,rough,15.5,0,4.793
420,13.44,9.9803,-2.4111,2.6206,-2.8431,0.7762,-2.9097,rough,15.5,0,4.776
430,13.76,9.9789,-2.3817,2.6170,-2.8523,0.7802,-2.9081,rough,15.5,0,4.748
440,14.08,9.9753,-2.3439,2.6101,-2.8671,0.7838,-2.9082,slope,18.0,0,4.712
450,14.40,9.9841,-2.2953,2.6134,-2.9729,0.8028,-3.0337,slope,18.0,0,4.670
460,14.72,9.9881,-2.2689,2.6145,-3.0173,0.8076,-3.0806,slope,18.0,0,4.647
470,15.04,9.9885,-2.2520,2.6133,-3.0197,0.8103,-3.0759,slope,18.0,0,4.632
480,15.36,9.9764,-2.2400,2.5997,-2.9339,0.7994,-2.9558,slope,18.0,0,4.616
490,15.68,9.9719,-2.2055,2.5915,-2.9379,0.7836,-2.9320,slope,18.0,0,4.582
500,16.00,9.9795,-2.1722,2.5948,-3.0002,0.8102,-3.0193,rough,15.5,0,4.554
510,16.32,9.9768,-2.1571,2.5901,-2.9992,0.8049,-3.0068,rough,15.5,0,4.540
520,16.64,9.9765,-2.1418,2.5879,-3.0066,0.8041,-3.0092,rough,15.5,0,4.525
530,16.96,9.9789,-2.1238,2.5881,-3.0331,0.8086,-3.0390,rough,15.5,0,4.510
540,17.28,9.9770,-2.1104,2.5844,-3.0332,0.8068,-3.0320,rough,15.5,0,4.496
550,17.60,9.9771,-2.0977,2.5830,-3.0418,0.8060,-3.0370,rough,15.5,0,4.485
560,17.92,9.9726,-2.0826,2.5781,-3.0730,0.8115,-3.0846,rough,15.5,0,4.469
570,18.24,9.9739,-2.0714,2.5766,-3.1014,0.8119,-3.1108,rough,15.5,0,4.459
580,18.56,9.9712,-2.0662,2.5728,-3.1023,0.8119,-3.1072,rough,15.5,0,4.454
590,18.88,9.9705,-2.0603,2.5726,-3.0942,0.8075,-3.0954,rough,15.5,0,4.448
600,19.20,9.9708,-2.0524,2.5728,-3.1005,0.8093,-3.1066,rough,15.5,0,4.441
610,19.52,9.9710,-2.0461,2.5729,-3.0990,0.8094,-3.1047,rough,15.5,0,4.435
620,19.84,9.9706,-2.0393,2.5722,-3.1028,0.8095,-3.1099,rough,15.5,0,4.428
630,20.16,9.9709,-2.0333,2.5725,-3.1004,0.8097,-3.1069,rough,15.5,0,4.423
640,20.48,9.9710,-2.0271,2.5724,-3.0991,0.8094,-3.1048,rough,15.5,0,4.417
650,20.80,9.9706,-2.0201,2.5718,-3.1030,0.8097,-3.1104,rough,15.5,0,4.411
660,21.12,9.9708,-2.0140,2.5718,-3.1011,0.8095,-3.1077,rough,15.5,0,4.405
670,21.44,9.9710,-2.0080,2.5719,-3.0993,0.8095,-3.1051,rough,15.5,0,4.400
680,21.76,9.9706,-2.0011,2.5713,-3.1031,0.8097,-3.1106,rough,15.5,0,4.393
690,22.08,9.9708,-1.9950,2.5713,-3.1012,0.8095,-3.1078,rough,15.5,0,4.388
700,22.40,9.9710,-1.9890,2.5714,-3.0993,0.8095,-3.1052,rough,15.5,0,4.382
710,22.72,9.9711,-1.9821,2.5713,-3.1019,0.8107,-3.1100,rough,15.5,0,4.376
720,23.04,9.9716,-1.9776,2.5718,-3.1014,0.8116,-3.1101,rough,15.5,0,4.372
730,23.36,9.9719,-1.9776,2.5721,-3.1074,0.8121,-3.1189,rough,15.5,0,4.372
740,23.68,9.9720,-1.9793,2.5723,-3.1086,0.8119,-3.1205,rough,15.5,0,4.374
750,24.00,9.9713,-1.9793,2.5715,-3.1024,0.8109,-3.1108,rough,15.5,0,4.374
760,24.32,9.9703,-1.9742,2.5705,-3.1025,0.8101,-3.1097,rough,15.5,0,4.369
770,24.64,9.9717,-1.9747,2.5719,-3.1059,0.8123,-3.1167,rough,15.5,0,4.370
780,24.96,9.9719,-1.9762,2.5722,-3.1080,0.8121,-3.1197,rough,15.5,0,4.371
790,25.28,9.9721,-1.9780,2.5723,-3.1089,0.8120,-3.1210,rough,15.5,0,4.373
800,25.60,9.9719,-1.9797,2.5721,-3.1071,0.8118,-3.1184,rough,15.5,0,4.374
810,25.92,9.9714,-1.9798,2.5716,-3.1032,0.8112,-3.1125,rough,15.5,0,4.374
820,26.24,9.9704,-1.9752,2.5706,-3.0967,0.8089,-3.1003,rough,15.5,0,4.370
830,26.56,9.9715,-1.9744,2.5717,-3.1032,0.8122,-3.1127,rough,15.5,0,4.369
840,26.88,9.9718,-1.9753,2.5720,-3.1068,0.8122,-3.1179,rough,15.5,0,4.370
850,27.20,9.9720,-1.9770,2.5722,-3.1084,0.8121,-3.1202,rough,15.5,0,4.372
860,27.52,9.9721,-1.9789,2.5723,-3.1091,0.8119,-3.1212,rough,15.5,0,4.374
870,27.84,9.9717,-1.9800,2.5719,-3.1055,0.8117,-3.1162,rough,15.5,0,4.374
880,28.16,9.9707,-1.9776,2.5709,-3.0980,0.8093,-3.1030,rough,15.5,0,4.372
890,28.48,9.9712,-1.9743,2.5714,-3.1004,0.8113,-3.1078,rough,15.5,0,4.369
900,28.80,9.9717,-1.9746,2.5719,-3.1053,0.8123,-3.1158,rough,15.5,0,4.370
910,29.12,9.9719,-1.9760,2.5721,-3.1078,0.8122,-3.1193,rough,15.5,0,4.371
920,29.44,9.9720,-1.9778,2.5723,-3.1088,0.8120,-3.1208,rough,15.5,0,4.373
930,29.76,9.9721,-1.9798,2.5724,-3.1093,0.8119,-3.1214,rough,15.5,0,4.375
940,30.08,9.9716,-1.9801,2.5718,-3.1045,0.8117,-3.1148,rough,15.5,0,4.375
950,30.40,9.9703,-1.9754,2.5705,-3.0956,0.8084,-3.0982,rough,15.5,0,4.370
960,30.72,9.9716,-1.9743,2.5718,-3.1026,0.8123,-3.1119,rough,15.5,0,4.369
970,31.04,9.9718,-1.9752,2.5720,-3.1065,0.8123,-3.1176,rough,15.5,0,4.370
980,31.36,9.9720,-1.9768,2.5722,-3.1083,0.8121,-3.1201,rough,15.5,0,4.372
990,31.68,9.9721,-1.9787,2.5723,-3.1091,0.8120,-3.1211,rough,15.5,0,4.373
1000,32.00,9.9719,-1.9802,2.5722,-3.1076,0.8118,-3.1191,rough,15.5,0,4.375
1010,32.32,9.9709,-1.9781,2.5710,-3.0988,0.8097,-3.1045,rough,15.5,0,4.372
1020,32.64,9.9711,-1.9744,2.5713,-3.0998,0.8109,-3.1065,rough,15.5,0,4.369
1030,32.96,9.9716,-1.9745,2.5719,-3.1050,0.8123,-3.1153,rough,15.5,0,4.369
1040,33.28,9.9719,-1.9758,2.5721,-3.1076,0.8122,-3.1191,rough,15.5,0,4.371
1050,33.60,9.9720,-1.9776,2.5723,-3.1088,0.8120,-3.1207,rough,15.5,0,4.372
1060,33.92,9.9721,-1.9796,2.5724,-3.1092,0.8119,-3.1214,rough,15.5,0,4.374
1070,34.24,9.9717,-1.9804,2.5720,-3.1063,0.8117,-3.1174,rough,15.5,0,4.375
1080,34.56,9.9704,-1.9760,2.5706,-3.0960,0.8085,-3.0992,rough,15.5,0,4.370
1090,34.88,9.9715,-1.9743,2.5718,-3.1020,0.8123,-3.1110,rough,15.5,0,4.369
1100,35.20,9.9717,-1.9750,2.5720,-3.1063,0.8123,-3.1172,rough,15.5,0,4.370
1110,35.52,9.9719,-1.9765,2.5722,-3.1082,0.8121,-3.1199,rough,15.5,0,4.371
1120,35.84,9.9721,-1.9784,2.5723,-3.1090,0.8120,-3.1211,rough,15.5,0,4.373
1130,36.16,9.9719,-1.9800,2.5721,-3.1074,0.8118,-3.1189,rough,15.5,0,4.375
1140,36.48,9.9711,-1.9791,2.5713,-3.1009,0.8104,-3.1082,rough,15.5,0,4.373
1150,36.80,9.9708,-1.9748,2.5709,-3.0984,0.8100,-3.1037,rough,15.5,0,4.369
1160,37.12,9.9716,-1.9745,2.5718,-3.1042,0.8122,-3.1141,rough,15.5,0,4.369
1170,37.44,9.9718,-1.9756,2.5721,-3.1072,0.8122,-3.1186,rough,15.5,0,4.371
1180,37.76,9.9720,-1.9774,2.5722,-3.1086,0.8120,-3.1205,rough,15.5,0,4.372
1190,38.08,9.9721,-1.9793,2.5724,-3.1092,0.8119,-3.1213,rough,15.5,0,4.374
1200,38.40,9.9717,-1.9802,2.5720,-3.1061,0.8117,-3.1170,rough,15.5,0,4.375
1210,38.72,9.9705,-1.9765,2.5707,-3.0966,0.8088,-3.1003,rough,15.5,0,4.371
1220,39.04,9.9714,-1.9742,2.5716,-3.1015,0.8120,-3.1100,rough,15.5,0,4.369
1230,39.36,9.9717,-1.9748,2.5719,-3.1060,0.8123,-3.1168,rough,15.5,0,4.370
1240,39.68,9.9719,-1.9763,2.5722,-3.1081,0.8121,-3.1197,rough,15.5,0,4.371
1250,40.00,9.9721,-1.9782,2.5723,-3.1090,0.8120,-3.1210,rough,15.5,0,4.373
1260,40.32,9.9719,-1.9799,2.5721,-3.1071,0.8118,-3.1184,rough,15.5,0,4.374
1270,40.64,9.9713,-1.9795,2.5715,-3.1019,0.8108,-3.1101,rough,15.5,0,4.374
1280,40.96,9.9706,-1.9749,2.5708,-3.0976,0.8094,-3.1021,rough,15.5,0,4.369
1290,41.28,9.9716,-1.9744,2.5718,-3.1036,0.8123,-3.1134,rough,15.5,0,4.369
1300,41.60,9.9718,-1.9754,2.5720,-3.1070,0.8122,-3.1182,rough,15.5,0,4.370
1310,41.92,9.9720,-1.9771,2.5722,-3.1085,0.8121,-3.1204,rough,15.5,0,4.372
1320,42.24,9.9721,-1.9791,2.5723,-3.1091,0.8119,-3.1212,rough,15.5,0,4.374
1330,42.56,9.9717,-1.9801,2.5719,-3.1058,0.8117,-3.1166,rough,15.5,0,4.375
1340,42.88,9.9706,-1.9771,2.5708,-3.0973,0.8091,-3.1016,rough,15.5,0,4.371
1350,43.20,9.9713,-1.9742,2.5715,-3.1009,0.8117,-3.1089,rough,15.5,0,4.369
1360,43.52,9.9717,-1.9747,2.5719,-3.1057,0.8123,-3.1163,rough,15.5,0,4.370
1370,43.84,9.9719,-1.9761,2.5721,-3.1079,0.8121,-3.1195,rough,15.5,0,4.371
1380,44.16,9.9720,-1.9780,2.5723,-3.1089,0.8120,-3.1209,rough,15.5,0,4.373
1390,44.48,9.9721,-1.9800,2.5724,-3.1093,0.8119,-3.1215,rough,15.5,0,4.375
1400,44.80,9.9714,-1.9798,2.5716,-3.1030,0.8112,-3.1122,rough,15.5,0,4.374
1410,45.12,9.9704,-1.9751,2.5706,-3.0966,0.8088,-3.1002,rough,15.5,0,4.369
1420,45.44,9.9716,-1.9743,2.5718,-3.1031,0.8123,-3.1127,rough,15.5,0,4.369
1430,45.76,9.9718,-1.9752,2.5720,-3.1068,0.8123,-3.1179,rough,15.5,0,4.370
1440,46.08,9.9720,-1.9769,2.5722,-3.1084,0.8121,-3.1202,rough,15.5,0,4.372
1450,46.40,9.9721,-1.9788,2.5723,-3.1091,0.8120,-3.1212,rough,15.5,0,4.374
1460,46.72,9.9717,-1.9800,2.5719,-3.1054,0.8117,-3.1160,rough,15.5,0,4.374
1470,47.04,9.9709,-1.9782,2.5710,-3.0989,0.8097,-3.1046,rough,15.5,0,4.373
1480,47.36,9.9711,-1.9745,2.5713,-3.0998,0.8109,-3.1066,rough,15.5,0,4.369
1490,47.68,9.9716,-1.9746,2.5719,-3.1050,0.8123,-3.1153,rough,15.5,0,4.370
1500,48.00,9.9719,-1.9759,2.5721,-3.1076,0.8122,-3.1191,rough,15.5,0,4.371
1510,48.32,9.9720,-1.9777,2.5723,-3.1088,0.8120,-3.1207,rough,15.5,0,4.373
1520,48.64,9.9721,-1.9797,2.5724,-3.1092,0.8119,-3.1214,rough,15.5,0,4.374
1530,48.96,9.9716,-1.9801,2.5718,-3.1044,0.8117,-3.1146,rough,15.5,0,4.375
1540,49.28,9.9703,-1.9753,2.5704,-3.0955,0.8083,-3.0981,rough,15.5,0,4.370
1550,49.60,9.9716,-1.9742,2.5718,-3.1026,0.8123,-3.1119,rough,15.5,0,4.369
1560,49.92,9.9718,-1.9751,2.5720,-3.1065,0.8123,-3.1176,rough,15.5,0,4.370
1570,50.24,9.9720,-1.9767,2.5722,-3.1083,0.8121,-3.1201,rough,15.5,0,4.372
1580,50.56,9.9721,-1.9786,2.5723,-3.1091,0.8120,-3.1211,rough,15.5,0,4.373
1590,50.88,9.9719,-1.9801,2.5721,-3.1074,0.8118,-3.1189,rough,15.5,0,4.375
1600,51.20,9.9710,-1.9787,2.5712,-3.0998,0.8100,-3.1063,rough,15.5,0,4.373
1610,51.52,9.9709,-1.9746,2.5711,-3.0991,0.8104,-3.1052,rough,15.5,0,4.369
1620,51.84,9.9716,-1.9745,2.5718,-3.1046,0.8123,-3.1147,rough,15.5,0,4.369
1630,52.16,9.9718,-1.9757,2.5721,-3.1074,0.8122,-3.1188,rough,15.5,0,4.371
1640,52.48,9.9720,-1.9775,2.5723,-3.1087,0.8120,-3.1206,rough,15.5,0,4.372
1650,52.80,9.9721,-1.9795,2.5724,-3.1092,0.8119,-3.1213,rough,15.5,0,4.374
1660,53.12,9.9717,-1.9803,2.5720,-3.1063,0.8118,-3.1174,rough,15.5,0,4.375
1670,53.44,9.9704,-1.9759,2.5706,-3.0960,0.8086,-3.0992,rough,15.5,0,4.370
1680,53.76,9.9715,-1.9742,2.5718,-3.1020,0.8123,-3.1110,rough,15.5,0,4.369
1690,54.08,9.9717,-1.9749,2.5720,-3.1063,0.8123,-3.1172,rough,15.5,0,4.370
1700,54.40,9.9719,-1.9765,2.5722,-3.1082,0.8121,-3.1199,rough,15.5,0,4.371
1710,54.72,9.9721,-1.9784,2.5723,-3.1090,0.8120,-3.1211,rough,15.5,0,4.373
1720,55.04,9.9719,-1.9800,2.5721,-3.1072,0.8118,-3.1186,rough,15.5,0,4.375
1730,55.36,9.9711,-1.9791,2.5713,-3.1007,0.8104,-3.1080,rough,15.5,0,4.373
1740,55.68,9.9708,-1.9747,2.5709,-3.0984,0.8099,-3.1036,rough,15.5,0,4.369
1750,56.00,9.9716,-1.9744,2.5718,-3.1041,0.8123,-3.1141,rough,15.5,0,4.369
1760,56.32,9.9718,-1.9755,2.5721,-3.1072,0.8122,-3.1185,rough,15.5,0,4.370
1770,56.64,9.9720,-1.9773,2.5722,-3.1086,0.8120,-3.1205,rough,15.5,0,4.372
1780,56.96,9.9721,-1.9792,2.5724,-3.1092,0.8119,-3.1213,rough,15.5,0,4.374
1790,57.28,9.9717,-1.9802,2.5720,-3.1060,0.8117,-3.1169,rough,15.5,0,4.375
1800,57.60,9.9706,-1.9772,2.5708,-3.0974,0.8091,-3.1017,rough,15.5,0,4.371
1810,57.92,9.9713,-1.9744,2.5715,-3.1010,0.8117,-3.1090,rough,15.5,0,4.369
1820,58.24,9.9717,-1.9748,2.5719,-3.1057,0.8123,-3.1163,rough,15.5,0,4.370
1830,58.56,9.9719,-1.9763,2.5721,-3.1079,0.8121,-3.1195,rough,15.5,0,4.371
1840,58.88,9.9720,-1.9781,2.5723,-3.1089,0.8120,-3.1209,rough,15.5,0,4.373
1850,59.20,9.9719,-1.9798,2.5721,-3.1071,0.8118,-3.1183,rough,15.5,0,4.374
1860,59.52,9.9712,-1.9794,2.5715,-3.1018,0.8108,-3.1100,rough,15.5,0,4.374
1870,59.84,9.9706,-1.9748,2.5707,-3.0976,0.8094,-3.1020,rough,15.5,0,4.369
1880,60.16,9.9716,-1.9743,2.5718,-3.1036,0.8123,-3.1134,rough,15.5,0,4.369
1890,60.48,9.9718,-1.9753,2.5720,-3.1070,0.8123,-3.1182,rough,15.5,0,4.370
1900,60.80,9.9720,-1.9770,2.5722,-3.1085,0.8121,-3.1204,rough,15.5,0,4.372
1910,61.12,9.9721,-1.9790,2.5723,-3.1091,0.8119,-3.1212,rough,15.5,0,4.374
1920,61.44,9.9717,-1.9800,2.5719,-3.1057,0.8117,-3.1165,rough,15.5,0,4.374
1930,61.76,9.9707,-1.9777,2.5709,-3.0981,0.8094,-3.1031,rough,15.5,0,4.372
1940,62.08,9.9712,-1.9744,2.5714,-3.1004,0.8113,-3.1078,rough,15.5,0,4.369
1950,62.40,9.9717,-1.9747,2.5719,-3.1053,0.8123,-3.1158,rough,15.5,0,4.370
1960,62.72,9.9719,-1.9761,2.5721,-3.1078,0.8122,-3.1193,rough,15.5,0,4.371
1970,63.04,9.9720,-1.9779,2.5723,-3.1088,0.8120,-3.1208,rough,15.5,0,4.373
1980,63.36,9.9721,-1.9799,2.5724,-3.1093,0.8119,-3.1214,rough,15.5,0,4.375
1990,63.68,9.9714,-1.9797,2.5716,-3.1030,0.8112,-3.1122,rough,15.5,0,4.374
2000,64.00,9.9704,-1.9750,2.5706,-3.0966,0.8089,-3.1002,rough,15.5,0,4.369
2010,64.32,9.9716,-1.9742,2.5718,-3.1031,0.8123,-3.1127,rough,15.5,0,4.369
2020,64.64,9.9718,-1.9752,2.5720,-3.1068,0.8123,-3.1179,rough,15.5,0,4.370
2030,64.96,9.9720,-1.9768,2.5722,-3.1084,0.8121,-3.1202,rough,15.5,0,4.372
2040,65.28,9.9721,-1.9788,2.5723,-3.1091,0.8120,-3.1212,rough,15.5,0,4.374
2050,65.60,9.9719,-1.9803,2.5722,-3.1076,0.8118,-3.1191,rough,15.5,0,4.375
2060,65.92,9.9709,-1.9782,2.5710,-3.0988,0.8097,-3.1045,rough,15.5,0,4.372
2070,66.24,9.9711,-1.9744,2.5713,-3.0998,0.8109,-3.1065,rough,15.5,0,4.369
2080,66.56,9.9716,-1.9745,2.5719,-3.1049,0.8123,-3.1153,rough,15.5,0,4.369
2090,66.88,9.9719,-1.9759,2.5721,-3.1076,0.8122,-3.1191,rough,15.5,0,4.371
2100,67.20,9.9720,-1.9777,2.5723,-3.1088,0.8120,-3.1207,rough,15.5,0,4.372
2110,67.52,9.9721,-1.9797,2.5724,-3.1092,0.8119,-3.1214,rough,15.5,0,4.374
2120,67.84,9.9718,-1.9804,2.5720,-3.1065,0.8118,-3.1176,rough,15.5,0,4.375
2130,68.16,9.9704,-1.9760,2.5706,-3.0961,0.8086,-3.0993,rough,15.5,0,4.370
2140,68.48,9.9715,-1.9743,2.5718,-3.1020,0.8123,-3.1110,rough,15.5,0,4.369
2150,68.80,9.9717,-1.9751,2.5720,-3.1063,0.8123,-3.1172,rough,15.5,0,4.370
2160,69.12,9.9719,-1.9766,2.5722,-3.1082,0.8121,-3.1199,rough,15.5,0,4.371
2170,69.44,9.9721,-1.9785,2.5723,-3.1090,0.8120,-3.1211,rough,15.5,0,4.373
2180,69.76,9.9719,-1.9801,2.5721,-3.1074,0.8118,-3.1189,rough,15.5,0,4.375
2190,70.08,9.9710,-1.9786,2.5712,-3.0997,0.8100,-3.1062,rough,15.5,0,4.373
2200,70.40,9.9709,-1.9745,2.5711,-3.0991,0.8104,-3.1051,rough,15.5,0,4.369
2210,70.72,9.9716,-1.9744,2.5718,-3.1045,0.8123,-3.1147,rough,15.5,0,4.369
2220,71.04,9.9718,-1.9756,2.5721,-3.1074,0.8122,-3.1188,rough,15.5,0,4.371
2230,71.36,9.9720,-1.9774,2.5723,-3.1087,0.8120,-3.1206,rough,15.5,0,4.372
2240,71.68,9.9721,-1.9794,2.5724,-3.1092,0.8119,-3.1213,rough,15.5,0,4.374
2250,72.00,9.9717,-1.9802,2.5720,-3.1063,0.8118,-3.1173,rough,15.5,0,4.375
2260,72.32,9.9705,-1.9766,2.5707,-3.0967,0.8088,-3.1004,rough,15.5,0,4.371
2270,72.64,9.9714,-1.9743,2.5716,-3.1015,0.8120,-3.1100,rough,15.5,0,4.369
2280,72.96,9.9717,-1.9749,2.5719,-3.1060,0.8123,-3.1168,rough,15.5,0,4.370
2290,73.28,9.9719,-1.9764,2.5722,-3.1081,0.8121,-3.1197,rough,15.5,0,4.371
2300,73.60,9.9721,-1.9783,2.5723,-3.1090,0.8120,-3.1210,rough,15.5,0,4.373
2310,73.92,9.9719,-1.9799,2.5721,-3.1072,0.8118,-3.1186,rough,15.5,0,4.374
2320,74.24,9.9711,-1.9790,2.5713,-3.1007,0.8104,-3.1080,rough,15.5,0,4.373
2330,74.56,9.9708,-1.9746,2.5709,-3.0984,0.8100,-3.1036,rough,15.5,0,4.369
2340,74.88,9.9716,-1.9743,2.5718,-3.1041,0.8123,-3.1141,rough,15.5,0,4.369
2350,75.20,9.9718,-1.9755,2.5721,-3.1072,0.8122,-3.1185,rough,15.5,0,4.370
2360,75.52,9.9720,-1.9772,2.5722,-3.1086,0.8120,-3.1205,rough,15.5,0,4.372
2370,75.84,9.9721,-1.9792,2.5724,-3.1092,0.8119,-3.1213,rough,15.5,0,4.374
2380,76.16,9.9717,-1.9801,2.5719,-3.1058,0.8117,-3.1166,rough,15.5,0,4.375
2390,76.48,9.9706,-1.9771,2.5708,-3.0973,0.8091,-3.1016,rough,15.5,0,4.371
2400,76.80,9.9713,-1.9743,2.5715,-3.1009,0.8117,-3.1089,rough,15.5,0,4.369
2410,77.12,9.9717,-1.9747,2.5719,-3.1057,0.8123,-3.1163,rough,15.5,0,4.370
2420,77.44,9.9719,-1.9762,2.5721,-3.1079,0.8121,-3.1195,rough,15.5,0,4.371
2430,77.76,9.9720,-1.9780,2.5723,-3.1089,0.8120,-3.1209,rough,15.5,0,4.373
2440,78.08,9.9721,-1.9801,2.5724,-3.1093,0.8119,-3.1215,rough,15.5,0,4.375
2450,78.40,9.9714,-1.9799,2.5716,-3.1031,0.8112,-3.1123,rough,15.5,0,4.374
2460,78.72,9.9704,-1.9752,2.5706,-3.0967,0.8088,-3.1002,rough,15.5,0,4.370
2470,79.04,9.9716,-1.9744,2.5718,-3.1031,0.8123,-3.1127,rough,15.5,0,4.369
2480,79.36,9.9718,-1.9753,2.5720,-3.1068,0.8123,-3.1179,rough,15.5,0,4.370
2490,79.68,9.9720,-1.9770,2.5722,-3.1084,0.8121,-3.1202,rough,15.5,0,4.372
2500,80.00,9.9721,-1.9789,2.5723,-3.1091,0.8119,-3.1212,rough,15.5,0,4.374
2510,80.32,9.9717,-1.9800,2.5719,-3.1055,0.8117,-3.1162,rough,15.5,0,4.374
2520,80.64,9.9707,-1.9776,2.5709,-3.0980,0.8093,-3.1030,rough,15.5,0,4.372
2530,80.96,9.9712,-1.9743,2.5714,-3.1004,0.8113,-3.1078,rough,15.5,0,4.369
2540,81.28,9.9717,-1.9746,2.5719,-3.1053,0.8123,-3.1158,rough,15.5,0,4.370
2550,81.60,9.9719,-1.9760,2.5721,-3.1078,0.8122,-3.1193,rough,15.5,0,4.371
2560,81.92,9.9720,-1.9778,2.5723,-3.1088,0.8120,-3.1208,rough,15.5,0,4.373
2570,82.24,9.9721,-1.9798,2.5724,-3.1093,0.8119,-3.1214,rough,15.5,0,4.374
2580,82.56,9.9716,-1.9801,2.5718,-3.1045,0.8117,-3.1148,rough,15.5,0,4.375
2590,82.88,9.9703,-1.9754,2.5705,-3.0956,0.8084,-3.0982,rough,15.5,0,4.370
2600,83.20,9.9716,-1.9743,2.5718,-3.1026,0.8123,-3.1119,rough,15.5,0,4.369
2610,83.52,9.9718,-1.9752,2.5720,-3.1065,0.8123,-3.1176,rough,15.5,0,4.370
2620,83.84,9.9720,-1.9768,2.5722,-3.1083,0.8121,-3.1201,rough,15.5,0,4.372
2630,84.16,9.9721,-1.9787,2.5723,-3.1091,0.8120,-3.1211,rough,15.5,0,4.373
2640,84.48,9.9719,-1.9802,2.5722,-3.1076,0.8118,-3.1191,rough,15.5,0,4.375
2650,84.80,9.9709,-1.9781,2.5710,-3.0988,0.8097,-3.1045,rough,15.5,0,4.372
2660,85.12,9.9711,-1.9744,2.5713,-3.0998,0.8109,-3.1065,rough,15.5,0,4.369
2670,85.44,9.9716,-1.9745,2.5719,-3.1050,0.8123,-3.1153,rough,15.5,0,4.369
2680,85.76,9.9719,-1.9758,2.5721,-3.1076,0.8122,-3.1191,rough,15.5,0,4.371
2690,86.08,9.9720,-1.9776,2.5723,-3.1088,0.8120,-3.1207,rough,15.5,0,4.372
2700,86.40,9.9721,-1.9796,2.5724,-3.1093,0.8119,-3.1214,rough,15.5,0,4.374
2710,86.72,9.9717,-1.9804,2.5720,-3.1063,0.8117,-3.1174,rough,15.5,0,4.375
2720,87.04,9.9704,-1.9760,2.5706,-3.0960,0.8085,-3.0992,rough,15.5,0,4.370
2730,87.36,9.9715,-1.9743,2.5718,-3.1020,0.8123,-3.1110,rough,15.5,0,4.369
2740,87.68,9.9717,-1.9750,2.5720,-3.1063,0.8123,-3.1172,rough,15.5,0,4.370
2750,88.00,9.9719,-1.9765,2.5722,-3.1082,0.8121,-3.1199,rough,15.5,0,4.371
2760,88.32,9.9721,-1.9784,2.5723,-3.1090,0.8120,-3.1211,rough,15.5,0,4.373
2770,88.64,9.9719,-1.9800,2.5721,-3.1072,0.8118,-3.1186,rough,15.5,0,4.375
2780,88.96,9.9711,-1.9791,2.5713,-3.1008,0.8104,-3.1081,rough,15.5,0,4.373
2790,89.28,9.9708,-1.9748,2.5709,-3.0984,0.8099,-3.1037,rough,15.5,0,4.369
2800,89.60,9.9716,-1.9745,2.5718,-3.1041,0.8123,-3.1141,rough,15.5,0,4.369
2810,89.92,9.9718,-1.9756,2.5721,-3.1072,0.8122,-3.1185,rough,15.5,0,4.371
2820,90.24,9.9720,-1.9774,2.5722,-3.1086,0.8120,-3.1205,rough,15.5,0,4.372
2830,90.56,9.9721,-1.9793,2.5724,-3.1092,0.8119,-3.1213,rough,15.5,0,4.374
2840,90.88,9.9717,-1.9802,2.5720,-3.1061,0.8117,-3.1170,rough,15.5,0,4.375
2850,91.20,9.9705,-1.9765,2.5707,-3.0966,0.8088,-3.1003,rough,15.5,0,4.371
2860,91.52,9.9714,-1.9742,2.5716,-3.1015,0.8120,-3.1100,rough,15.5,0,4.369
2870,91.84,9.9717,-1.9748,2.5719,-3.1060,0.8123,-3.1168,rough,15.5,0,4.370
2880,92.16,9.9719,-1.9763,2.5722,-3.1081,0.8121,-3.1197,rough,15.5,0,4.371
2890,92.48,9.9721,-1.9782,2.5723,-3.1090,0.8120,-3.1210,rough,15.5,0,4.373
2900,92.80,9.9719,-1.9799,2.5721,-3.1071,0.8118,-3.1184,rough,15.5,0,4.374
2910,93.12,9.9713,-1.9795,2.5715,-3.1019,0.8108,-3.1101,rough,15.5,0,4.374
2920,93.44,9.9706,-1.9749,2.5708,-3.0976,0.8094,-3.1021,rough,15.5,0,4.369
2930,93.76,9.9716,-1.9744,2.5718,-3.1036,0.8123,-3.1134,rough,15.5,0,4.369
2940,94.08,9.9718,-1.9754,2.5720,-3.1070,0.8122,-3.1182,rough,15.5,0,4.370
2950,94.40,9.9720,-1.9771,2.5722,-3.1085,0.8121,-3.1204,rough,15.5,0,4.372
2960,94.72,9.9721,-1.9791,2.5723,-3.1091,0.8119,-3.1212,rough,15.5,0,4.374
2970,95.04,9.9717,-1.9801,2.5719,-3.1058,0.8117,-3.1166,rough,15.5,0,4.375
2980,95.36,9.9706,-1.9771,2.5708,-3.0973,0.8091,-3.1016,rough,15.5,0,4.371
2990,95.68,9.9713,-1.9742,2.5715,-3.1009,0.8117,-3.1089,rough,15.5,0,4.369
3000,96.00,9.9717,-1.9747,2.5719,-3.1057,0.8123,-3.1163,rough,15.5,0,4.370
3010,96.32,9.9719,-1.9761,2.5721,-3.1079,0.8121,-3.1195,rough,15.5,0,4.371
3020,96.64,9.9720,-1.9780,2.5723,-3.1089,0.8120,-3.1209,rough,15.5,0,4.373
3030,96.96,9.9721,-1.9800,2.5724,-3.1093,0.8119,-3.1215,rough,15.5,0,4.375
3040,97.28,9.9714,-1.9798,2.5716,-3.1030,0.8112,-3.1122,rough,15.5,0,4.374
3050,97.60,9.9704,-1.9751,2.5706,-3.0966,0.8088,-3.1002,rough,15.5,0,4.369
3060,97.92,9.9716,-1.9743,2.5718,-3.1031,0.8123,-3.1127,rough,15.5,0,4.369
3070,98.24,9.9718,-1.9752,2.5720,-3.1068,0.8123,-3.1179,rough,15.5,0,4.370
3080,98.56,9.9720,-1.9769,2.5722,-3.1084,0.8121,-3.1202,rough,15.5,0,4.372
3090,98.88,9.9721,-1.9788,2.5723,-3.1091,0.8120,-3.1212,rough,15.5,0,4.374
3100,99.20,9.9717,-1.9800,2.5719,-3.1054,0.8117,-3.1160,rough,15.5,0,4.374
3110,99.52,9.9709,-1.9782,2.5710,-3.0989,0.8097,-3.1046,rough,15.5,0,4.373
3120,99.84,9.9711,-1.9745,2.5713,-3.0998,0.8109,-3.1066,rough,15.5,0,4.369
3130,100.16,9.9716,-1.9746,2.5719,-3.1050,0.8123,-3.1153,rough,15.5,0,4.370
3140,100.48,9.9719,-1.9759,2.5721,-3.1076,0.8122,-3.1191,rough,15.5,0,4.371
3150,100.80,9.9720,-1.9777,2.5723,-3.1088,0.8120,-3.1207,rough,15.5,0,4.373
3160,101.12,9.9721,-1.9797,2.5724,-3.1092,0.8119,-3.1214,rough,15.5,0,4.374
3170,101.44,9.9716,-1.9801,2.5718,-3.1044,0.8117,-3.1146,rough,15.5,0,4.375
3180,101.76,9.9703,-1.9753,2.5704,-3.0955,0.8083,-3.0981,rough,15.5,0,4.370
3190,102.08,9.9716,-1.9742,2.5718,-3.1026,0.8123,-3.1119,rough,15.5,0,4.369
3200,102.40,9.9718,-1.9751,2.5720,-3.1065,0.8123,-3.1176,rough,15.5,0,4.370
3210,102.72,9.9720,-1.9767,2.5722,-3.1083,0.8121,-3.1201,rough,15.5,0,4.372
3220,103.04,9.9721,-1.9786,2.5723,-3.1091,0.8120,-3.1211,rough,15.5,0,4.373
3230,103.36,9.9719,-1.9801,2.5721,-3.1074,0.8118,-3.1189,rough,15.5,0,4.375
3240,103.68,9.9710,-1.9787,2.5712,-3.0998,0.8100,-3.1063,rough,15.5,0,4.373
3250,104.00,9.9709,-1.9746,2.5711,-3.0991,0.8105,-3.1052,rough,15.5,0,4.369
3260,104.32,9.9716,-1.9745,2.5718,-3.1046,0.8123,-3.1147,rough,15.5,0,4.369
3270,104.64,9.9718,-1.9757,2.5721,-3.1074,0.8122,-3.1188,rough,15.5,0,4.371
3280,104.96,9.9720,-1.9775,2.5723,-3.1087,0.8120,-3.1206,rough,15.5,0,4.372
3290,105.28,9.9721,-1.9795,2.5724,-3.1092,0.8119,-3.1213,rough,15.5,0,4.374
3300,105.60,9.9717,-1.9803,2.5720,-3.1063,0.8118,-3.1174,rough,15.5,0,4.375
3310,105.92,9.9704,-1.9759,2.5706,-3.0960,0.8086,-3.0992,rough,15.5,0,4.370
3320,106.24,9.9715,-1.9742,2.5718,-3.1020,0.8123,-3.1110,rough,15.5,0,4.369
3330,106.56,9.9717,-1.9749,2.5720,-3.1063,0.8123,-3.1172,rough,15.5,0,4.370
3340,106.88,9.9719,-1.9765,2.5722,-3.1082,0.8121,-3.1199,rough,15.5,0,4.371
3350,107.20,9.9721,-1.9784,2.5723,-3.1090,0.8120,-3.1211,rough,15.5,0,4.373
3360,107.52,9.9719,-1.9800,2.5721,-3.1072,0.8118,-3.1186,rough,15.5,0,4.375
3370,107.84,9.9711,-1.9791,2.5713,-3.1007,0.8104,-3.1080,rough,15.5,0,4.373
3380,108.16,9.9708,-1.9747,2.5709,-3.0984,0.8099,-3.1036,rough,15.5,0,4.369
3390,108.48,9.9716,-1.9744,2.5718,-3.1041,0.8123,-3.1141,rough,15.5,0,4.369
3400,108.80,9.9718,-1.9755,2.5721,-3.1072,0.8122,-3.1185,rough,15.5,0,4.370
3410,109.12,9.9720,-1.9773,2.5722,-3.1086,0.8120,-3.1205,rough,15.5,0,4.372
3420,109.44,9.9721,-1.9792,2.5724,-3.1092,0.8119,-3.1213,rough,15.5,0,4.374
3430,109.76,9.9717,-1.9802,2.5720,-3.1060,0.8117,-3.1169,rough,15.5,0,4.375
3440,110.08,9.9706,-1.9772,2.5708,-3.0974,0.8091,-3.1017,rough,15.5,0,4.371
3450,110.40,9.9713,-1.9744,2.5715,-3.1010,0.8117,-3.1090,rough,15.5,0,4.369
3460,110.72,9.9717,-1.9748,2.5719,-3.1057,0.8123,-3.1163,rough,15.5,0,4.370
3470,111.04,9.9719,-1.9763,2.5721,-3.1079,0.8121,-3.1195,rough,15.5,0,4.371
3480,111.36,9.9720,-1.9781,2.5723,-3.1089,0.8120,-3.1209,rough,15.5,0,4.373
3490,111.68,9.9719,-1.9798,2.5721,-3.1071,0.8118,-3.1183,rough,15.5,0,4.374
3500,112.00,9.9712,-1.9794,2.5715,-3.1018,0.8108,-3.1100,rough,15.5,0,4.374
3510,112.32,9.9706,-1.9748,2.5707,-3.0976,0.8094,-3.1020,rough,15.5,0,4.369
3520,112.64,9.9716,-1.9743,2.5718,-3.1036,0.8123,-3.1134,rough,15.5,0,4.369
3530,112.96,9.9718,-1.9753,2.5720,-3.1070,0.8123,-3.1182,rough,15.5,0,4.370
3540,113.28,9.9720,-1.9770,2.5722,-3.1085,0.8121,-3.1204,rough,15.5,0,4.372
3550,113.60,9.9721,-1.9790,2.5723,-3.1091,0.8119,-3.1212,rough,15.5,0,4.374
3560,113.92,9.9717,-1.9800,2.5719,-3.1057,0.8117,-3.1165,rough,15.5,0,4.374
3570,114.24,9.9707,-1.9777,2.5709,-3.0981,0.8094,-3.1031,rough,15.5,0,4.372
3580,114.56,9.9712,-1.9744,2.5714,-3.1004,0.8113,-3.1078,rough,15.5,0,4.369
3590,114.88,9.9717,-1.9747,2.5719,-3.1053,0.8123,-3.1158,rough,15.5,0,4.370
3600,115.20,9.9719,-1.9761,2.5721,-3.1078,0.8122,-3.1193,rough,15.5,0,4.371
3610,115.52,9.9720,-1.9779,2.5723,-3.1088,0.8120,-3.1208,rough,15.5,0,4.373
3620,115.84,9.9721,-1.9799,2.5724,-3.1093,0.8119,-3.1214,rough,15.5,0,4.375
3630,116.16,9.9714,-1.9797,2.5716,-3.1030,0.8112,-3.1122,rough,15.5,0,4.374
3640,116.48,9.9704,-1.9750,2.5706,-3.0966,0.8089,-3.1002,rough,15.5,0,4.369
3650,116.80,9.9716,-1.9742,2.5718,-3.1031,0.8123,-3.1127,rough,15.5,0,4.369
3660,117.12,9.9718,-1.9752,2.5720,-3.1068,0.8123,-3.1179,rough,15.5,0,4.370
3670,117.44,9.9720,-1.9768,2.5722,-3.1084,0.8121,-3.1202,rough,15.5,0,4.372
3680,117.76,9.9721,-1.9788,2.5723,-3.1091,0.8120,-3.1212,rough,15.5,0,4.374
3690,118.08,9.9719,-1.9803,2.5722,-3.1076,0.8118,-3.1191,rough,15.5,0,4.375
3700,118.40,9.9709,-1.9782,2.5710,-3.0988,0.8097,-3.1045,rough,15.5,0,4.372
3710,118.72,9.9711,-1.9744,2.5713,-3.0998,0.8109,-3.1065,rough,15.5,0,4.369
3720,119.04,9.9716,-1.9745,2.5719,-3.1049,0.8123,-3.1153,rough,15.5,0,4.369
3730,119.36,9.9719,-1.9758,2.5721,-3.1076,0.8122,-3.1191,rough,15.5,0,4.371
3740,119.68,9.9720,-1.9777,2.5723,-3.1088,0.8120,-3.1207,rough,15.5,0,4.372
3750,120.00,9.9721,-1.9797,2.5724,-3.1092,0.8119,-3.1214,rough,15.5,0,4.374
3760,120.32,9.9718,-1.9804,2.5720,-3.1065,0.8118,-3.1176,rough,15.5,0,4.375
3770,120.64,9.9704,-1.9760,2.5706,-3.0961,0.8086,-3.0993,rough,15.5,0,4.370
3780,120.96,9.9715,-1.9743,2.5718,-3.1020,0.8123,-3.1110,rough,15.5,0,4.369
3790,121.28,9.9717,-1.9751,2.5720,-3.1063,0.8123,-3.1172,rough,15.5,0,4.370
3800,121.60,9.9719,-1.9766,2.5722,-3.1082,0.8121,-3.1199,rough,15.5,0,4.371
3810,121.92,9.9721,-1.9785,2.5723,-3.1090,0.8120,-3.1211,rough,15.5,0,4.373
3820,122.24,9.9719,-1.9801,2.5721,-3.1074,0.8118,-3.1189,rough,15.5,0,4.375
3830,122.56,9.9710,-1.9786,2.5712,-3.0997,0.8100,-3.1062,rough,15.5,0,4.373
3840,122.88,9.9709,-1.9745,2.5711,-3.0991,0.8104,-3.1051,rough,15.5,0,4.369
3850,123.20,9.9716,-1.9744,2.5718,-3.1045,0.8123,-3.1147,rough,15.5,0,4.369
3860,123.52,9.9718,-1.9756,2.5721,-3.1074,0.8122,-3.1188,rough,15.5,0,4.371
3870,123.84,9.9720,-1.9774,2.5723,-3.1087,0.8120,-3.1206,rough,15.5,0,4.372
3880,124.16,9.9721,-1.9794,2.5724,-3.1092,0.8119,-3.1213,rough,15.5,0,4.374
3890,124.48,9.9717,-1.9802,2.5720,-3.1063,0.8118,-3.1173,rough,15.5,0,4.375
3900,124.80,9.9705,-1.9766,2.5707,-3.0967,0.8088,-3.1004,rough,15.5,0,4.371
3910,125.12,9.9714,-1.9743,2.5716,-3.1015,0.8120,-3.1100,rough,15.5,0,4.369
3920,125.44,9.9717,-1.9749,2.5719,-3.1060,0.8123,-3.1168,rough,15.5,0,4.370
3930,125.76,9.9719,-1.9764,2.5722,-3.1081,0.8121,-3.1197,rough,15.5,0,4.371
3940,126.08,9.9721,-1.9783,2.5723,-3.1090,0.8120,-3.1210,rough,15.5,0,4.373
3950,126.40,9.9719,-1.9799,2.5721,-3.1072,0.8118,-3.1186,rough,15.5,0,4.374
3960,126.72,9.9711,-1.9790,2.5713,-3.1007,0.8104,-3.1080,rough,15.5,0,4.373
3970,127.04,9.9708,-1.9746,2.5709,-3.0984,0.8100,-3.1036,rough,15.5,0,4.369
3980,127.36,9.9716,-1.9743,2.5718,-3.1041,0.8123,-3.1141,rough,15.5,0,4.369
3990,127.68,9.9718,-1.9755,2.5721,-3.1072,0.8122,-3.1185,rough,15.5,0,4.370
4000,128.00,9.9720,-1.9772,2.5722,-3.1086,0.8120,-3.1205,rough,15.5,0,4.372
4010,128.32,9.9721,-1.9792,2.5724,-3.1092,0.8119,-3.1213,rough,15.5,0,4.374
4020,128.64,9.9717,-1.9801,2.5719,-3.1058,0.8117,-3.1166,rough,15.5,0,4.375
4030,128.96,9.9706,-1.9771,2.5708,-3.0973,0.8091,-3.1016,rough,15.5,0,4.371
4040,129.28,9.9713,-1.9743,2.5715,-3.1009,0.8117,-3.1089,rough,15.5,0,4.369
4050,129.60,9.9717,-1.9747,2.5719,-3.1057,0.8123,-3.1163,rough,15.5,0,4.370
4060,129.92,9.9719,-1.9762,2.5721,-3.1079,0.8121,-3.1195,rough,15.5,0,4.371
4070,130.24,9.9720,-1.9780,2.5723,-3.1089,0.8120,-3.1209,rough,15.5,0,4.373
4080,130.56,9.9721,-1.9801,2.5724,-3.1093,0.8119,-3.1215,rough,15.5,0,4.375
4090,130.88,9.9714,-1.9799,2.5716,-3.1031,0.8112,-3.1123,rough,15.5,0,4.374
4100,131.20,9.9704,-1.9752,2.5706,-3.0967,0.8088,-3.1002,rough,15.5,0,4.370
4110,131.52,9.9716,-1.9744,2.5718,-3.1031,0.8123,-3.1127,rough,15.5,0,4.369
4120,131.84,9.9718,-1.9753,2.5720,-3.1068,0.8123,-3.1179,rough,15.5,0,4.370
4130,132.16,9.9720,-1.9770,2.5722,-3.1084,0.8121,-3.1202,rough,15.5,0,4.372
4140,132.48,9.9721,-1.9789,2.5723,-3.1091,0.8119,-3.1212,rough,15.5,0,4.374
4150,132.80,9.9717,-1.9800,2.5719,-3.1055,0.8117,-3.1162,rough,15.5,0,4.374
4160,133.12,9.9707,-1.9776,2.5709,-3.0980,0.8093,-3.1030,rough,15.5,0,4.372
4170,133.44,9.9712,-1.9743,2.5714,-3.1004,0.8113,-3.1078,rough,15.5,0,4.369
4180,133.76,9.9717,-1.9746,2.5719,-3.1053,0.8123,-3.1158,rough,15.5,0,4.370
4190,134.08,9.9719,-1.9760,2.5721,-3.1078,0.8122,-3.1193,rough,15.5,0,4.371
4200,134.40,9.9720,-1.9778,2.5723,-3.1088,0.8120,-3.1208,rough,15.5,0,4.373
4210,134.72,9.9721,-1.9798,2.5724,-3.1093,0.8119,-3.1214,rough,15.5,0,4.374
4220,135.04,9.9716,-1.9801,2.5718,-3.1045,0.8117,-3.1148,rough,15.5,0,4.375
4230,135.36,9.9703,-1.9754,2.5705,-3.0956,0.8084,-3.0982,rough,15.5,0,4.370
4240,135.68,9.9716,-1.9743,2.5718,-3.1026,0.8123,-3.1119,rough,15.5,0,4.369
4250,136.00,9.9718,-1.9752,2.5720,-3.1065,0.8123,-3.1176,rough,15.5,0,4.370
4260,136.32,9.9720,-1.9768,2.5722,-3.1083,0.8121,-3.1201,rough,15.5,0,4.372
4270,136.64,9.9721,-1.9787,2.5723,-3.1091,0.8120,-3.1211,rough,15.5,0,4.373
4280,136.96,9.9719,-1.9802,2.5722,-3.1076,0.8118,-3.1191,rough,15.5,0,4.375
4290,137.28,9.9709,-1.9781,2.5710,-3.0988,0.8097,-3.1045,rough,15.5,0,4.372
4300,137.60,9.9711,-1.9744,2.5713,-3.0998,0.8109,-3.1065,rough,15.5,0,4.369
4310,137.92,9.9716,-1.9745,2.5719,-3.1050,0.8123,-3.1153,rough,15.5,0,4.369
4320,138.24,9.9719,-1.9758,2.5721,-3.1076,0.8122,-3.1191,rough,15.5,0,4.371
4330,138.56,9.9720,-1.9776,2.5723,-3.1088,0.8120,-3.1207,rough,15.5,0,4.372
4340,138.88,9.9721,-1.9796,2.5724,-3.1093,0.8119,-3.1214,rough,15.5,0,4.374
4350,139.20,9.9717,-1.9804,2.5720,-3.1063,0.8117,-3.1174,rough,15.5,0,4.375
4360,139.52,9.9704,-1.9760,2.5706,-3.0960,0.8085,-3.0992,rough,15.5,0,4.370
4370,139.84,9.9715,-1.9743,2.5718,-3.1020,0.8123,-3.1110,rough,15.5,0,4.369
4380,140.16,9.9717,-1.9750,2.5720,-3.1063,0.8123,-3.1172,rough,15.5,0,4.370
4390,140.48,9.9719,-1.9765,2.5722,-3.1082,0.8121,-3.1199,rough,15.5,0,4.371
4400,140.80,9.9721,-1.9784,2.5723,-3.1090,0.8120,-3.1211,rough,15.5,0,4.373
4410,141.12,9.9719,-1.9800,2.5721,-3.1072,0.8118,-3.1186,rough,15.5,0,4.375
4420,141.44,9.9711,-1.9791,2.5713,-3.1008,0.8104,-3.1081,rough,15.5,0,4.373
4430,141.76,9.9708,-1.9748,2.5709,-3.0984,0.8099,-3.1037,rough,15.5,0,4.369
4440,142.08,9.9716,-1.9745,2.5718,-3.1041,0.8123,-3.1141,rough,15.5,0,4.369
4450,142.40,9.9718,-1.9756,2.5721,-3.1072,0.8122,-3.1185,rough,15.5,0,4.371
4460,142.72,9.9720,-1.9774,2.5722,-3.1086,0.8120,-3.1205,rough,15.5,0,4.372
4470,143.04,9.9721,-1.9793,2.5724,-3.1092,0.8119,-3.1213,rough,15.5,0,4.374
4480,143.36,9.9717,-1.9802,2.5720,-3.1061,0.8117,-3.1170,rough,15.5,0,4.375
4490,143.68,9.9705,-1.9765,2.5707,-3.0966,0.8088,-3.1003,rough,15.5,0,4.371
4500,144.00,9.9714,-1.9742,2.5716,-3.1015,0.8120,-3.1100,rough,15.5,0,4.369
4510,144.32,9.9717,-1.9748,2.5719,-3.1060,0.8123,-3.1168,rough,15.5,0,4.370
4520,144.64,9.9719,-1.9763,2.5722,-3.1081,0.8121,-3.1197,rough,15.5,0,4.371
4530,144.96,9.9721,-1.9782,2.5723,-3.1090,0.8120,-3.1210,rough,15.5,0,4.373
4540,145.28,9.9719,-1.9799,2.5721,-3.1071,0.8118,-3.1184,rough,15.5,0,4.374
4550,145.60,9.9713,-1.9795,2.5715,-3.1019,0.8108,-3.1101,rough,15.5,0,4.374
4560,145.92,9.9706,-1.9749,2.5708,-3.0976,0.8094,-3.1021,rough,15.5,0,4.369
4570,146.24,9.9716,-1.9744,2.5718,-3.1036,0.8123,-3.1134,rough,15.5,0,4.369
4580,146.56,9.9718,-1.9754,2.5720,-3.1070,0.8122,-3.1182,rough,15.5,0,4.370
4590,146.88,9.9720,-1.9771,2.5722,-3.1085,0.8121,-3.1204,rough,15.5,0,4.372
4600,147.20,9.9721,-1.9791,2.5723,-3.1091,0.8119,-3.1212,rough,15.5,0,4.374
4610,147.52,9.9717,-1.9801,2.5719,-3.1058,0.8117,-3.1166,rough,15.5,0,4.375
4620,147.84,9.9706,-1.9770,2.5708,-3.0973,0.8091,-3.1016,rough,15.5,0,4.371
4630,148.16,9.9713,-1.9742,2.5715,-3.1009,0.8117,-3.1089,rough,15.5,0,4.369
4640,148.48,9.9717,-1.9747,2.5719,-3.1057,0.8123,-3.1163,rough,15.5,0,4.370
4650,148.80,9.9719,-1.9761,2.5721,-3.1079,0.8122,-3.1195,rough,15.5,0,4.371
4660,149.12,9.9720,-1.9780,2.5723,-3.1089,0.8120,-3.1209,rough,15.5,0,4.373
4670,149.44,9.9721,-1.9800,2.5724,-3.1093,0.8119,-3.1215,rough,15.5,0,4.375
4680,149.76,9.9714,-1.9798,2.5716,-3.1030,0.8112,-3.1122,rough,15.5,0,4.374
4690,150.08,9.9704,-1.9751,2.5706,-3.0966,0.8088,-3.1002,rough,15.5,0,4.369
4700,150.40,9.9716,-1.9743,2.5718,-3.1031,0.8123,-3.1127,rough,15.5,0,4.369
4710,150.72,9.9718,-1.9752,2.5720,-3.1068,0.8123,-3.1179,rough,15.5,0,4.370
4720,151.04,9.9720,-1.9769,2.5722,-3.1084,0.8121,-3.1202,rough,15.5,0,4.372
4730,151.36,9.9721,-1.9788,2.5723,-3.1091,0.8120,-3.1212,rough,15.5,0,4.374
4740,151.68,9.9717,-1.9799,2.5719,-3.1055,0.8117,-3.1162,rough,15.5,0,4.374
4750,152.00,9.9709,-1.9782,2.5710,-3.0990,0.8097,-3.1047,rough,15.5,0,4.373
4760,152.32,9.9711,-1.9745,2.5713,-3.0998,0.8109,-3.1066,rough,15.5,0,4.369
4770,152.64,9.9716,-1.9746,2.5718,-3.1050,0.8123,-3.1153,rough,15.5,0,4.370
4780,152.96,9.9719,-1.9759,2.5721,-3.1076,0.8122,-3.1191,rough,15.5,0,4.371
4790,153.28,9.9720,-1.9777,2.5723,-3.1088,0.8120,-3.1207,rough,15.5,0,4.373
4800,153.60,9.9721,-1.9797,2.5724,-3.1092,0.8119,-3.1214,rough,15.5,0,4.374
4810,153.92,9.9716,-1.9801,2.5718,-3.1044,0.8117,-3.1146,rough,15.5,0,4.375
4820,154.24,9.9703,-1.9753,2.5704,-3.0955,0.8083,-3.0981,rough,15.5,0,4.370
4830,154.56,9.9716,-1.9742,2.5718,-3.1026,0.8123,-3.1119,rough,15.5,0,4.369
4840,154.88,9.9718,-1.9751,2.5720,-3.1065,0.8123,-3.1176,rough,15.5,0,4.370
4850,155.20,9.9720,-1.9767,2.5722,-3.1083,0.8121,-3.1201,rough,15.5,0,4.372
4860,155.52,9.9721,-1.9786,2.5723,-3.1091,0.8120,-3.1211,rough,15.5,0,4.373
4870,155.84,9.9719,-1.9801,2.5721,-3.1074,0.8118,-3.1189,rough,15.5,0,4.375
4880,156.16,9.9710,-1.9787,2.5712,-3.0998,0.8100,-3.1063,rough,15.5,0,4.373
4890,156.48,9.9709,-1.9746,2.5711,-3.0991,0.8105,-3.1052,rough,15.5,0,4.369
4900,156.80,9.9716,-1.9745,2.5718,-3.1046,0.8123,-3.1147,rough,15.5,0,4.369
4910,157.12,9.9718,-1.9757,2.5721,-3.1074,0.8122,-3.1188,rough,15.5,0,4.371
4920,157.44,9.9720,-1.9775,2.5723,-3.1087,0.8120,-3.1206,rough,15.5,0,4.372
4930,157.76,9.9721,-1.9795,2.5724,-3.1092,0.8119,-3.1213,rough,15.5,0,4.374
4940,158.08,9.9717,-1.9803,2.5720,-3.1063,0.8118,-3.1174,rough,15.5,0,4.375
4950,158.40,9.9704,-1.9759,2.5706,-3.0960,0.8086,-3.0992,rough,15.5,0,4.370
4960,158.72,9.9715,-1.9742,2.5718,-3.1020,0.8123,-3.1110,rough,15.5,0,4.369
4970,159.04,9.9717,-1.9749,2.5720,-3.1063,0.8123,-3.1172,rough,15.5,0,4.370
4980,159.36,9.9719,-1.9765,2.5722,-3.1082,0.8121,-3.1199,rough,15.5,0,4.371
4990,159.68,9.9721,-1.9784,2.5723,-3.1090,0.8120,-3.1211,rough,15.5,0,4.373
5000,160.00,9.9719,-1.9800,2.5721,-3.1072,0.8118,-3.1186,rough,15.5,0,4.375
5010,160.32,9.9711,-1.9791,2.5713,-3.1007,0.8104,-3.1080,rough,15.5,0,4.373
5020,160.64,9.9708,-1.9747,2.5709,-3.0984,0.8099,-3.1036,rough,15.5,0,4.369
5030,160.96,9.9716,-1.9744,2.5718,-3.1041,0.8123,-3.1141,rough,15.5,0,4.369
5040,161.28,9.9718,-1.9755,2.5721,-3.1072,0.8122,-3.1185,rough,15.5,0,4.370
5050,161.60,9.9720,-1.9773,2.5722,-3.1086,0.8120,-3.1205,rough,15.5,0,4.372
5060,161.92,9.9721,-1.9792,2.5724,-3.1092,0.8119,-3.1213,rough,15.5,0,4.374
5070,162.24,9.9717,-1.9802,2.5720,-3.1060,0.8117,-3.1169,rough,15.5,0,4.375
5080,162.56,9.9706,-1.9772,2.5708,-3.0974,0.8091,-3.1017,rough,15.5,0,4.371
5090,162.88,9.9713,-1.9744,2.5715,-3.1010,0.8117,-3.1090,rough,15.5,0,4.369
5100,163.20,9.9717,-1.9748,2.5719,-3.1057,0.8123,-3.1163,rough,15.5,0,4.370
5110,163.52,9.9719,-1.9763,2.5721,-3.1079,0.8121,-3.1195,rough,15.5,0,4.371
5120,163.84,9.9720,-1.9781,2.5723,-3.1089,0.8120,-3.1209,rough,15.5,0,4.373
5130,164.16,9.9719,-1.9798,2.5721,-3.1071,0.8118,-3.1183,rough,15.5,0,4.374
5140,164.48,9.9712,-1.9794,2.5715,-3.1018,0.8108,-3.1100,rough,15.5,0,4.374
5150,164.80,9.9706,-1.9748,2.5707,-3.0976,0.8094,-3.1020,rough,15.5,0,4.369
5160,165.12,9.9716,-1.9743,2.5718,-3.1036,0.8123,-3.1134,rough,15.5,0,4.369
5170,165.44,9.9718,-1.9753,2.5720,-3.1070,0.8123,-3.1182,rough,15.5,0,4.370
5180,165.76,9.9720,-1.9770,2.5722,-3.1085,0.8121,-3.1204,rough,15.5,0,4.372
5190,166.08,9.9721,-1.9790,2.5723,-3.1091,0.8119,-3.1212,rough,15.5,0,4.374
5200,166.40,9.9717,-1.9800,2.5719,-3.1057,0.8117,-3.1165,rough,15.5,0,4.374
5210,166.72,9.9708,-1.9777,2.5709,-3.0981,0.8094,-3.1031,rough,15.5,0,4.372
5220,167.04,9.9712,-1.9744,2.5714,-3.1004,0.8113,-3.1078,rough,15.5,0,4.369
5230,167.36,9.9717,-1.9747,2.5719,-3.1053,0.8123,-3.1158,rough,15.5,0,4.370
5240,167.68,9.9719,-1.9761,2.5721,-3.1078,0.8122,-3.1193,rough,15.5,0,4.371
5250,168.00,9.9720,-1.9779,2.5723,-3.1088,0.8120,-3.1208,rough,15.5,0,4.373
5260,168.32,9.9721,-1.9799,2.5724,-3.1093,0.8119,-3.1214,rough,15.5,0,4.375
5270,168.64,9.9714,-1.9797,2.5716,-3.1030,0.8112,-3.1122,rough,15.5,0,4.374
5280,168.96,9.9704,-1.9750,2.5706,-3.0966,0.8089,-3.1002,rough,15.5,0,4.369
5290,169.28,9.9716,-1.9742,2.5718,-3.1031,0.8123,-3.1127,rough,15.5,0,4.369
5300,169.60,9.9718,-1.9752,2.5720,-3.1068,0.8123,-3.1179,rough,15.5,0,4.370
5310,169.92,9.9720,-1.9768,2.5722,-3.1084,0.8121,-3.1202,rough,15.5,0,4.372
5320,170.24,9.9721,-1.9788,2.5723,-3.1091,0.8120,-3.1212,rough,15.5,0,4.374
5330,170.56,9.9719,-1.9803,2.5722,-3.1076,0.8118,-3.1191,rough,15.5,0,4.375
5340,170.88,9.9709,-1.9782,2.5710,-3.0988,0.8097,-3.1045,rough,15.5,0,4.372
5350,171.20,9.9711,-1.9744,2.5713,-3.0998,0.8109,-3.1065,rough,15.5,0,4.369
5360,171.52,9.9716,-1.9745,2.5719,-3.1050,0.8123,-3.1153,rough,15.5,0,4.369
5370,171.84,9.9719,-1.9759,2.5721,-3.1076,0.8122,-3.1191,rough,15.5,0,4.371
5380,172.16,9.9720,-1.9777,2.5723,-3.1088,0.8120,-3.1207,rough,15.5,0,4.372
5390,172.48,9.9721,-1.9797,2.5724,-3.1092,0.8119,-3.1214,rough,15.5,0,4.374
5400,172.80,9.9718,-1.9804,2.5720,-3.1065,0.8118,-3.1176,rough,15.5,0,4.375
5410,173.12,9.9704,-1.9760,2.5706,-3.0961,0.8086,-3.0993,rough,15.5,0,4.370
5420,173.44,9.9715,-1.9743,2.5718,-3.1020,0.8123,-3.1110,rough,15.5,0,4.369
5430,173.76,9.9717,-1.9751,2.5720,-3.1063,0.8123,-3.1172,rough,15.5,0,4.370
5440,174.08,9.9719,-1.9766,2.5722,-3.1082,0.8121,-3.1199,rough,15.5,0,4.371
5450,174.40,9.9721,-1.9785,2.5723,-3.1090,0.8120,-3.1211,rough,15.5,0,4.373
5460,174.72,9.9719,-1.9801,2.5721,-3.1074,0.8118,-3.1189,rough,15.5,0,4.375
5470,175.04,9.9710,-1.9786,2.5712,-3.0997,0.8100,-3.1062,rough,15.5,0,4.373
5480,175.36,9.9709,-1.9745,2.5711,-3.0991,0.8104,-3.1051,rough,15.5,0,4.369
5490,175.68,9.9716,-1.9744,2.5718,-3.1045,0.8123,-3.1147,rough,15.5,0,4.369
5500,176.00,9.9718,-1.9757,2.5721,-3.1074,0.8122,-3.1188,rough,15.5,0,4.371
5510,176.32,9.9720,-1.9774,2.5723,-3.1087,0.8120,-3.1206,rough,15.5,0,4.372
5520,176.64,9.9721,-1.9794,2.5724,-3.1092,0.8119,-3.1213,rough,15.5,0,4.374
5530,176.96,9.9717,-1.9802,2.5720,-3.1063,0.8118,-3.1173,rough,15.5,0,4.375
5540,177.28,9.9705,-1.9766,2.5707,-3.0967,0.8088,-3.1004,rough,15.5,0,4.371
5550,177.60,9.9714,-1.9743,2.5716,-3.1015,0.8120,-3.1100,rough,15.5,0,4.369
5560,177.92,9.9717,-1.9749,2.5719,-3.1060,0.8123,-3.1168,rough,15.5,0,4.370
5570,178.24,9.9719,-1.9764,2.5722,-3.1081,0.8121,-3.1197,rough,15.5,0,4.371
5580,178.56,9.9721,-1.9783,2.5723,-3.1090,0.8120,-3.1210,rough,15.5,0,4.373
5590,178.88,9.9719,-1.9799,2.5721,-3.1072,0.8118,-3.1186,rough,15.5,0,4.374
5600,179.20,9.9711,-1.9790,2.5713,-3.1007,0.8104,-3.1080,rough,15.5,0,4.373
5610,179.52,9.9708,-1.9746,2.5709,-3.0984,0.8100,-3.1036,rough,15.5,0,4.369
5620,179.84,9.9716,-1.9743,2.5718,-3.1041,0.8123,-3.1141,rough,15.5,0,4.369
5630,180.16,9.9718,-1.9755,2.5721,-3.1072,0.8122,-3.1185,rough,15.5,0,4.370
5640,180.48,9.9720,-1.9772,2.5722,-3.1086,0.8120,-3.1205,rough,15.5,0,4.372
5650,180.80,9.9721,-1.9792,2.5724,-3.1092,0.8119,-3.1213,rough,15.5,0,4.374
5660,181.12,9.9717,-1.9801,2.5719,-3.1058,0.8117,-3.1166,rough,15.5,0,4.375
5670,181.44,9.9706,-1.9771,2.5708,-3.0973,0.8091,-3.1016,rough,15.5,0,4.371
5680,181.76,9.9713,-1.9743,2.5715,-3.1009,0.8117,-3.1089,rough,15.5,0,4.369
5690,182.08,9.9717,-1.9747,2.5719,-3.1057,0.8123,-3.1163,rough,15.5,0,4.370
5700,182.40,9.9719,-1.9762,2.5721,-3.1079,0.8121,-3.1195,rough,15.5,0,4.371
5710,182.72,9.9720,-1.9780,2.5723,-3.1089,0.8120,-3.1209,rough,15.5,0,4.373
5720,183.04,9.9721,-1.9801,2.5724,-3.1093,0.8119,-3.1215,rough,15.5,0,4.375
5730,183.36,9.9714,-1.9799,2.5716,-3.1031,0.8112,-3.1123,rough,15.5,0,4.374
5740,183.68,9.9704,-1.9752,2.5706,-3.0967,0.8088,-3.1002,rough,15.5,0,4.370
5750,184.00,9.9716,-1.9744,2.5718,-3.1031,0.8123,-3.1127,rough,15.5,0,4.369
5760,184.32,9.9718,-1.9753,2.5720,-3.1068,0.8123,-3.1179,rough,15.5,0,4.370
5770,184.64,9.9720,-1.9770,2.5722,-3.1084,0.8121,-3.1202,rough,15.5,0,4.372
5780,184.96,9.9721,-1.9789,2.5723,-3.1091,0.8119,-3.1212,rough,15.5,0,4.374
5790,185.28,9.9717,-1.9800,2.5719,-3.1055,0.8117,-3.1162,rough,15.5,0,4.374
5800,185.60,9.9707,-1.9776,2.5709,-3.0980,0.8093,-3.1030,rough,15.5,0,4.372
5810,185.92,9.9712,-1.9743,2.5714,-3.1004,0.8113,-3.1078,rough,15.5,0,4.369
5820,186.24,9.9717,-1.9746,2.5719,-3.1053,0.8123,-3.1158,rough,15.5,0,4.370
5830,186.56,9.9719,-1.9760,2.5721,-3.1078,0.8122,-3.1193,rough,15.5,0,4.371
5840,186.88,9.9720,-1.9778,2.5723,-3.1088,0.8120,-3.1208,rough,15.5,0,4.373
5850,187.20,9.9721,-1.9798,2.5724,-3.1093,0.8119,-3.1214,rough,15.5,0,4.374
5860,187.52,9.9716,-1.9801,2.5718,-3.1045,0.8117,-3.1148,rough,15.5,0,4.375
5870,187.84,9.9703,-1.9754,2.5705,-3.0956,0.8084,-3.0982,rough,15.5,0,4.370
5880,188.16,9.9716,-1.9743,2.5718,-3.1026,0.8123,-3.1119,rough,15.5,0,4.369
5890,188.48,9.9718,-1.9751,2.5720,-3.1065,0.8123,-3.1176,rough,15.5,0,4.370
5900,188.80,9.9720,-1.9768,2.5722,-3.1083,0.8121,-3.1201,rough,15.5,0,4.372
5910,189.12,9.9721,-1.9787,2.5723,-3.1091,0.8120,-3.1211,rough,15.5,0,4.373
5920,189.44,9.9719,-1.9802,2.5722,-3.1076,0.8118,-3.1191,rough,15.5,0,4.375
5930,189.76,9.9709,-1.9781,2.5710,-3.0988,0.8097,-3.1045,rough,15.5,0,4.372
5940,190.08,9.9711,-1.9744,2.5713,-3.0998,0.8109,-3.1065,rough,15.5,0,4.369
5950,190.40,9.9716,-1.9745,2.5719,-3.1050,0.8123,-3.1153,rough,15.5,0,4.369
5960,190.72,9.9719,-1.9758,2.5721,-3.1076,0.8122,-3.1191,rough,15.5,0,4.371
5970,191.04,9.9720,-1.9776,2.5723,-3.1088,0.8120,-3.1207,rough,15.5,0,4.372
5980,191.36,9.9721,-1.9796,2.5724,-3.1093,0.8119,-3.1214,rough,15.5,0,4.374
5990,191.68,9.9717,-1.9804,2.5720,-3.1063,0.8117,-3.1174,rough,15.5,0,4.375
6000,192.00,9.9704,-1.9760,2.5706,-3.0960,0.8085,-3.0992,rough,15.5,0,4.370
6010,192.32,9.9715,-1.9743,2.5718,-3.1020,0.8123,-3.1110,rough,15.5,0,4.369
6020,192.64,9.9717,-1.9750,2.5720,-3.1063,0.8123,-3.1172,rough,15.5,0,4.370
6030,192.96,9.9719,-1.9765,2.5722,-3.1082,0.8121,-3.1199,rough,15.5,0,4.371
6040,193.28,9.9721,-1.9784,2.5723,-3.1090,0.8120,-3.1211,rough,15.5,0,4.373
6050,193.60,9.9719,-1.9800,2.5721,-3.1072,0.8118,-3.1186,rough,15.5,0,4.375
6060,193.92,9.9711,-1.9791,2.5713,-3.1008,0.8104,-3.1081,rough,15.5,0,4.373
6070,194.24,9.9708,-1.9748,2.5709,-3.0984,0.8099,-3.1037,rough,15.5,0,4.369
6080,194.56,9.9716,-1.9745,2.5718,-3.1041,0.8123,-3.1141,rough,15.5,0,4.369
6090,194.88,9.9718,-1.9756,2.5721,-3.1072,0.8122,-3.1185,rough,15.5,0,4.371
6100,195.20,9.9720,-1.9774,2.5722,-3.1086,0.8120,-3.1205,rough,15.5,0,4.372
6110,195.52,9.9721,-1.9793,2.5724,-3.1092,0.8119,-3.1213,rough,15.5,0,4.374
6120,195.84,9.9717,-1.9802,2.5720,-3.1061,0.8117,-3.1170,rough,15.5,0,4.375
6130,196.16,9.9705,-1.9765,2.5707,-3.0966,0.8088,-3.1003,rough,15.5,0,4.371
6140,196.48,9.9714,-1.9742,2.5716,-3.1015,0.8120,-3.1100,rough,15.5,0,4.369
6150,196.80,9.9717,-1.9748,2.5719,-3.1060,0.8123,-3.1168,rough,15.5,0,4.370
6160,197.12,9.9719,-1.9763,2.5722,-3.1081,0.8121,-3.1197,rough,15.5,0,4.371
6170,197.44,9.9721,-1.9782,2.5723,-3.1090,0.8120,-3.1210,rough,15.5,0,4.373
6180,197.76,9.9719,-1.9799,2.5721,-3.1071,0.8118,-3.1184,rough,15.5,0,4.374
6190,198.08,9.9713,-1.9795,2.5715,-3.1019,0.8108,-3.1101,rough,15.5,0,4.374
6200,198.40,9.9706,-1.9749,2.5708,-3.0976,0.8094,-3.1021,rough,15.5,0,4.369
6210,198.72,9.9716,-1.9744,2.5718,-3.1036,0.8123,-3.1134,rough,15.5,0,4.369
6220,199.04,9.9718,-1.9754,2.5720,-3.1070,0.8122,-3.1182,rough,15.5,0,4.370
6230,199.36,9.9720,-1.9771,2.5722,-3.1085,0.8121,-3.1204,rough,15.5,0,4.372
6240,199.68,9.9721,-1.9791,2.5723,-3.1091,0.8119,-3.1212,rough,15.5,0,4.374
6250,200.00,9.9717,-1.9801,2.5719,-3.1058,0.8117,-3.1166,rough,15.5,0,4.375
6260,200.32,9.9706,-1.9770,2.5708,-3.0973,0.8091,-3.1016,rough,15.5,0,4.371
6270,200.64,9.9713,-1.9742,2.5715,-3.1009,0.8117,-3.1089,rough,15.5,0,4.369
6280,200.96,9.9717,-1.9747,2.5719,-3.1057,0.8123,-3.1163,rough,15.5,0,4.370
6290,201.28,9.9719,-1.9761,2.5721,-3.1079,0.8122,-3.1195,rough,15.5,0,4.371
6300,201.60,9.9720,-1.9780,2.5723,-3.1089,0.8120,-3.1209,rough,15.5,0,4.373
6310,201.92,9.9721,-1.9800,2.5724,-3.1093,0.8119,-3.1215,rough,15.5,0,4.375
6320,202.24,9.9714,-1.9798,2.5716,-3.1030,0.8112,-3.1122,rough,15.5,0,4.374
6330,202.56,9.9704,-1.9751,2.5706,-3.0966,0.8088,-3.1002,rough,15.5,0,4.369
6340,202.88,9.9716,-1.9743,2.5718,-3.1031,0.8123,-3.1127,rough,15.5,0,4.369
6350,203.20,9.9718,-1.9752,2.5720,-3.1068,0.8123,-3.1179,rough,15.5,0,4.370
6360,203.52,9.9720,-1.9769,2.5722,-3.1084,0.8121,-3.1202,rough,15.5,0,4.372
6370,203.84,9.9721,-1.9788,2.5723,-3.1091,0.8120,-3.1212,rough,15.5,0,4.374
6380,204.16,9.9717,-1.9800,2.5719,-3.1054,0.8117,-3.1160,rough,15.5,0,4.374
6390,204.48,9.9709,-1.9782,2.5710,-3.0989,0.8097,-3.1046,rough,15.5,0,4.373
6400,204.80,9.9711,-1.9745,2.5713,-3.0998,0.8109,-3.1066,rough,15.5,0,4.369
6410,205.12,9.9716,-1.9746,2.5719,-3.1050,0.8123,-3.1153,rough,15.5,0,4.370
6420,205.44,9.9719,-1.9759,2.5721,-3.1076,0.8122,-3.1191,rough,15.5,0,4.371
6430,205.76,9.9720,-1.9777,2.5723,-3.1088,0.8120,-3.1207,rough,15.5,0,4.373
6440,206.08,9.9721,-1.9797,2.5724,-3.1092,0.8119,-3.1214,rough,15.5,0,4.374
6450,206.40,9.9716,-1.9801,2.5718,-3.1044,0.8117,-3.1146,rough,15.5,0,4.374
6460,206.72,9.9703,-1.9753,2.5704,-3.0955,0.8083,-3.0981,rough,15.5,0,4.370
6470,207.04,9.9716,-1.9742,2.5718,-3.1026,0.8123,-3.1119,rough,15.5,0,4.369
6480,207.36,9.9718,-1.9751,2.5720,-3.1065,0.8123,-3.1176,rough,15.5,0,4.370
6490,207.68,9.9720,-1.9767,2.5722,-3.1083,0.8121,-3.1201,rough,15.5,0,4.372
6500,208.00,9.9721,-1.9786,2.5723,-3.1091,0.8120,-3.1211,rough,15.5,0,4.373
6510,208.32,9.9719,-1.9801,2.5721,-3.1074,0.8118,-3.1189,rough,15.5,0,4.375
6520,208.64,9.9710,-1.9787,2.5712,-3.0998,0.8100,-3.1063,rough,15.5,0,4.373
6530,208.96,9.9709,-1.9746,2.5711,-3.0991,0.8105,-3.1052,rough,15.5,0,4.369
6540,209.28,9.9716,-1.9745,2.5718,-3.1046,0.8123,-3.1147,rough,15.5,0,4.369
6550,209.60,9.9718,-1.9757,2.5721,-3.1074,0.8122,-3.1188,rough,15.5,0,4.371
6560,209.92,9.9720,-1.9775,2.5723,-3.1087,0.8120,-3.1206,rough,15.5,0,4.372
6570,210.24,9.9721,-1.9795,2.5724,-3.1092,0.8119,-3.1213,rough,15.5,0,4.374
6580,210.56,9.9717,-1.9803,2.5720,-3.1063,0.8118,-3.1174,rough,15.5,0,4.375
6590,210.88,9.9704,-1.9759,2.5706,-3.0960,0.8086,-3.0992,rough,15.5,0,4.370
6600,211.20,9.9715,-1.9742,2.5718,-3.1020,0.8123,-3.1110,rough,15.5,0,4.369
6610,211.52,9.9717,-1.9749,2.5720,-3.1063,0.8123,-3.1172,rough,15.5,0,4.370
6620,211.84,9.9719,-1.9765,2.5722,-3.1082,0.8121,-3.1199,rough,15.5,0,4.371
6630,212.16,9.9721,-1.9784,2.5723,-3.1090,0.8120,-3.1211,rough,15.5,0,4.373
6640,212.48,9.9719,-1.9800,2.5721,-3.1072,0.8118,-3.1186,rough,15.5,0,4.375
6650,212.80,9.9711,-1.9791,2.5713,-3.1007,0.8104,-3.1080,rough,15.5,0,4.373
6660,213.12,9.9708,-1.9747,2.5709,-3.0984,0.8099,-3.1036,rough,15.5,0,4.369
6670,213.44,9.9716,-1.9744,2.5718,-3.1041,0.8123,-3.1141,rough,15.5,0,4.369
6680,213.76,9.9718,-1.9755,2.5721,-3.1072,0.8122,-3.1185,rough,15.5,0,4.370
6690,214.08,9.9720,-1.9773,2.5722,-3.1086,0.8120,-3.1205,rough,15.5,0,4.372
6700,214.40,9.9721,-1.9793,2.5724,-3.1092,0.8119,-3.1213,rough,15.5,0,4.374
6710,214.72,9.9717,-1.9801,2.5720,-3.1061,0.8118,-3.1170,rough,15.5,0,4.375
6720,215.04,9.9706,-1.9772,2.5708,-3.0974,0.8091,-3.1018,rough,15.5,0,4.371
6730,215.36,9.9713,-1.9744,2.5715,-3.1010,0.8117,-3.1090,rough,15.5,0,4.369
6740,215.68,9.9717,-1.9748,2.5719,-3.1057,0.8123,-3.1164,rough,15.5,0,4.370
6750,216.00,9.9719,-1.9763,2.5721,-3.1079,0.8121,-3.1195,rough,15.5,0,4.371
6760,216.32,9.9720,-1.9781,2.5723,-3.1089,0.8120,-3.1209,rough,15.5,0,4.373
6770,216.64,9.9719,-1.9798,2.5721,-3.1071,0.8118,-3.1183,rough,15.5,0,4.374
6780,216.96,9.9712,-1.9794,2.5715,-3.1018,0.8108,-3.1100,rough,15.5,0,4.374
6790,217.28,9.9706,-1.9748,2.5707,-3.0976,0.8094,-3.1020,rough,15.5,0,4.369
6800,217.60,9.9716,-1.9743,2.5718,-3.1036,0.8123,-3.1134,rough,15.5,0,4.369
6810,217.92,9.9718,-1.9754,2.5720,-3.1070,0.8123,-3.1182,rough,15.5,0,4.370
6820,218.24,9.9720,-1.9770,2.5722,-3.1085,0.8121,-3.1204,rough,15.5,0,4.372
6830,218.56,9.9721,-1.9790,2.5723,-3.1091,0.8119,-3.1212,rough,15.5,0,4.374
6840,218.88,9.9717,-1.9800,2.5719,-3.1057,0.8117,-3.1165,rough,15.5,0,4.374
6850,219.20,9.9707,-1.9777,2.5709,-3.0981,0.8094,-3.1031,rough,15.5,0,4.372
6860,219.52,9.9712,-1.9744,2.5714,-3.1004,0.8113,-3.1078,rough,15.5,0,4.369
6870,219.84,9.9717,-1.9747,2.5719,-3.1053,0.8123,-3.1158,rough,15.5,0,4.370
6880,220.16,9.9719,-1.9761,2.5721,-3.1078,0.8122,-3.1193,rough,15.5,0,4.371
6890,220.48,9.9720,-1.9779,2.5723,-3.1088,0.8120,-3.1208,rough,15.5,0,4.373
6900,220.80,9.9721,-1.9799,2.5724,-3.1093,0.8119,-3.1214,rough,15.5,0,4.375
6910,221.12,9.9714,-1.9797,2.5716,-3.1030,0.8112,-3.1122,rough,15.5,0,4.374
6920,221.44,9.9704,-1.9750,2.5706,-3.0966,0.8089,-3.1002,rough,15.5,0,4.369
6930,221.76,9.9716,-1.9742,2.5718,-3.1031,0.8123,-3.1127,rough,15.5,0,4.369
6940,222.08,9.9718,-1.9752,2.5720,-3.1068,0.8123,-3.1179,rough,15.5,0,4.370
6950,222.40,9.9720,-1.9768,2.5722,-3.1084,0.8121,-3.1202,rough,15.5,0,4.372
6960,222.72,9.9721,-1.9788,2.5723,-3.1091,0.8120,-3.1212,rough,15.5,0,4.374
6970,223.04,9.9719,-1.9803,2.5722,-3.1076,0.8118,-3.1191,rough,15.5,0,4.375
6980,223.36,9.9709,-1.9782,2.5710,-3.0988,0.8097,-3.1045,rough,15.5,0,4.372
6990,223.68,9.9711,-1.9744,2.5713,-3.0998,0.8109,-3.1065,rough,15.5,0,4.369
7000,224.00,9.9716,-1.9745,2.5719,-3.1049,0.8123,-3.1153,rough,15.5,0,4.369
7010,224.32,9.9719,-1.9759,2.5721,-3.1076,0.8122,-3.1191,rough,15.5,0,4.371
7020,224.64,9.9720,-1.9777,2.5723,-3.1088,0.8120,-3.1207,rough,15.5,0,4.372
7030,224.96,9.9721,-1.9797,2.5724,-3.1092,0.8119,-3.1214,rough,15.5,0,4.374
7040,225.28,9.9718,-1.9804,2.5720,-3.1065,0.8118,-3.1176,rough,15.5,0,4.375
7050,225.60,9.9704,-1.9760,2.5706,-3.0961,0.8086,-3.0993,rough,15.5,0,4.370
7060,225.92,9.9715,-1.9743,2.5718,-3.1020,0.8123,-3.1110,rough,15.5,0,4.369
7070,226.24,9.9717,-1.9751,2.5720,-3.1063,0.8123,-3.1172,rough,15.5,0,4.370
7080,226.56,9.9719,-1.9766,2.5722,-3.1082,0.8121,-3.1199,rough,15.5,0,4.371
7090,226.88,9.9721,-1.9785,2.5723,-3.1090,0.8120,-3.1211,rough,15.5,0,4.373
7100,227.20,9.9719,-1.9801,2.5721,-3.1074,0.8118,-3.1189,rough,15.5,0,4.375
7110,227.52,9.9710,-1.9786,2.5712,-3.0997,0.8100,-3.1062,rough,15.5,0,4.373
7120,227.84,9.9709,-1.9745,2.5711,-3.0991,0.8104,-3.1051,rough,15.5,0,4.369
7130,228.16,9.9716,-1.9744,2.5718,-3.1045,0.8123,-3.1147,rough,15.5,0,4.369
7140,228.48,9.9718,-1.9757,2.5721,-3.1074,0.8122,-3.1188,rough,15.5,0,4.371
7150,228.80,9.9720,-1.9774,2.5723,-3.1087,0.8120,-3.1206,rough,15.5,0,4.372
7160,229.12,9.9721,-1.9794,2.5724,-3.1092,0.8119,-3.1213,rough,15.5,0,4.374
7170,229.44,9.9717,-1.9802,2.5720,-3.1063,0.8118,-3.1173,rough,15.5,0,4.375
7180,229.76,9.9705,-1.9766,2.5707,-3.0967,0.8088,-3.1004,rough,15.5,0,4.371
7190,230.08,9.9714,-1.9743,2.5716,-3.1015,0.8120,-3.1100,rough,15.5,0,4.369
7200,230.40,9.9717,-1.9749,2.5719,-3.1060,0.8123,-3.1168,rough,15.5,0,4.370
7210,230.72,9.9719,-1.9764,2.5722,-3.1081,0.8121,-3.1197,rough,15.5,0,4.371
7220,231.04,9.9721,-1.9783,2.5723,-3.1090,0.8120,-3.1210,rough,15.5,0,4.373
7230,231.36,9.9719,-1.9799,2.5721,-3.1072,0.8118,-3.1186,rough,15.5,0,4.374
7240,231.68,9.9711,-1.9790,2.5713,-3.1007,0.8104,-3.1080,rough,15.5,0,4.373
7250,232.00,9.9708,-1.9746,2.5709,-3.0984,0.8100,-3.1036,rough,15.5,0,4.369
7260,232.32,9.9716,-1.9743,2.5718,-3.1041,0.8123,-3.1141,rough,15.5,0,4.369
7270,232.64,9.9718,-1.9755,2.5721,-3.1072,0.8122,-3.1185,rough,15.5,0,4.370
7280,232.96,9.9720,-1.9772,2.5722,-3.1086,0.8120,-3.1205,rough,15.5,0,4.372
7290,233.28,9.9721,-1.9792,2.5724,-3.1092,0.8119,-3.1213,rough,15.5,0,4.374
7300,233.60,9.9717,-1.9801,2.5719,-3.1058,0.8117,-3.1166,rough,15.5,0,4.375
7310,233.92,9.9706,-1.9771,2.5708,-3.0973,0.8091,-3.1016,rough,15.5,0,4.371
7320,234.24,9.9713,-1.9743,2.5715,-3.1009,0.8117,-3.1089,rough,15.5,0,4.369
7330,234.56,9.9717,-1.9747,2.5719,-3.1057,0.8123,-3.1163,rough,15.5,0,4.370
7340,234.88,9.9719,-1.9762,2.5721,-3.1079,0.8121,-3.1195,rough,15.5,0,4.371
7350,235.20,9.9720,-1.9780,2.5723,-3.1089,0.8120,-3.1209,rough,15.5,0,4.373
7360,235.52,9.9721,-1.9801,2.5724,-3.1093,0.8119,-3.1215,rough,15.5,0,4.375
7370,235.84,9.9714,-1.9799,2.5716,-3.1031,0.8112,-3.1123,rough,15.5,0,4.374
7380,236.16,9.9704,-1.9752,2.5706,-3.0967,0.8088,-3.1002,rough,15.5,0,4.370
7390,236.48,9.9716,-1.9744,2.5718,-3.1031,0.8123,-3.1127,rough,15.5,0,4.369
7400,236.80,9.9718,-1.9753,2.5720,-3.1068,0.8123,-3.1179,rough,15.5,0,4.370
7410,237.12,9.9720,-1.9770,2.5722,-3.1084,0.8121,-3.1202,rough,15.5,0,4.372
7420,237.44,9.9721,-1.9789,2.5723,-3.1091,0.8119,-3.1212,rough,15.5,0,4.374
7430,237.76,9.9717,-1.9800,2.5719,-3.1055,0.8117,-3.1162,rough,15.5,0,4.374
7440,238.08,9.9707,-1.9776,2.5709,-3.0980,0.8093,-3.1030,rough,15.5,0,4.372
7450,238.40,9.9712,-1.9743,2.5714,-3.1004,0.8113,-3.1078,rough,15.5,0,4.369
7460,238.72,9.9717,-1.9746,2.5719,-3.1053,0.8123,-3.1158,rough,15.5,0,4.370
7470,239.04,9.9719,-1.9760,2.5721,-3.1078,0.8122,-3.1193,rough,15.5,0,4.371
7480,239.36,9.9720,-1.9778,2.5723,-3.1088,0.8120,-3.1208,rough,15.5,0,4.373
7490,239.68,9.9721,-1.9798,2.5724,-3.1093,0.8119,-3.1214,rough,15.5,0,4.374
7500,240.00,9.9716,-1.9801,2.5718,-3.1045,0.8117,-3.1148,rough,15.5,0,4.375
7510,240.32,9.9703,-1.9754,2.5705,-3.0956,0.8084,-3.0982,rough,15.5,0,4.370
7520,240.64,9.9716,-1.9743,2.5718,-3.1026,0.8123,-3.1119,rough,15.5,0,4.369
7530,240.96,9.9718,-1.9752,2.5720,-3.1065,0.8123,-3.1176,rough,15.5,0,4.370
7540,241.28,9.9720,-1.9768,2.5722,-3.1083,0.8121,-3.1201,rough,15.5,0,4.372
7550,241.60,9.9721,-1.9787,2.5723,-3.1091,0.8120,-3.1211,rough,15.5,0,4.373
7560,241.92,9.9719,-1.9802,2.5722,-3.1076,0.8118,-3.1191,rough,15.5,0,4.375
7570,242.24,9.9709,-1.9781,2.5710,-3.0988,0.8097,-3.1045,rough,15.5,0,4.372
7580,242.56,9.9711,-1.9744,2.5713,-3.0998,0.8109,-3.1065,rough,15.5,0,4.369
7590,242.88,9.9716,-1.9745,2.5719,-3.1050,0.8123,-3.1153,rough,15.5,0,4.369
7600,243.20,9.9719,-1.9758,2.5721,-3.1076,0.8122,-3.1191,rough,15.5,0,4.371
7610,243.52,9.9720,-1.9776,2.5723,-3.1088,0.8120,-3.1207,rough,15.5,0,4.372
7620,243.84,9.9721,-1.9796,2.5724,-3.1093,0.8119,-3.1214,rough,15.5,0,4.374
7630,244.16,9.9717,-1.9804,2.5720,-3.1063,0.8117,-3.1174,rough,15.5,0,4.375
7640,244.48,9.9704,-1.9760,2.5706,-3.0960,0.8085,-3.0992,rough,15.5,0,4.370
7650,244.80,9.9715,-1.9743,2.5718,-3.1019,0.8123,-3.1110,rough,15.5,0,4.369
7660,245.12,9.9717,-1.9750,2.5720,-3.1063,0.8123,-3.1172,rough,15.5,0,4.370
7670,245.44,9.9719,-1.9765,2.5722,-3.1082,0.8121,-3.1199,rough,15.5,0,4.371
7680,245.76,9.9721,-1.9784,2.5723,-3.1090,0.8120,-3.1211,rough,15.5,0,4.373
7690,246.08,9.9719,-1.9800,2.5721,-3.1072,0.8118,-3.1186,rough,15.5,0,4.375
7700,246.40,9.9711,-1.9791,2.5713,-3.1008,0.8104,-3.1081,rough,15.5,0,4.373
7710,246.72,9.9708,-1.9748,2.5709,-3.0984,0.8099,-3.1037,rough,15.5,0,4.369
7720,247.04,9.9716,-1.9745,2.5718,-3.1041,0.8123,-3.1141,rough,15.5,0,4.369
7730,247.36,9.9718,-1.9756,2.5721,-3.1072,0.8122,-3.1185,rough,15.5,0,4.371
7740,247.68,9.9720,-1.9774,2.5722,-3.1086,0.8120,-3.1205,rough,15.5,0,4.372
7750,248.00,9.9721,-1.9793,2.5724,-3.1092,0.8119,-3.1213,rough,15.5,0,4.374
7760,248.32,9.9717,-1.9802,2.5720,-3.1061,0.8117,-3.1170,rough,15.5,0,4.375
7770,248.64,9.9705,-1.9765,2.5707,-3.0966,0.8088,-3.1003,rough,15.5,0,4.371
7780,248.96,9.9714,-1.9742,2.5716,-3.1015,0.8120,-3.1100,rough,15.5,0,4.369
7790,249.28,9.9717,-1.9748,2.5719,-3.1060,0.8123,-3.1168,rough,15.5,0,4.370
7800,249.60,9.9719,-1.9763,2.5722,-3.1081,0.8121,-3.1197,rough,15.5,0,4.371
7810,249.92,9.9721,-1.9782,2.5723,-3.1090,0.8120,-3.1210,rough,15.5,0,4.373
7820,250.24,9.9719,-1.9799,2.5721,-3.1071,0.8118,-3.1184,rough,15.5,0,4.374
7830,250.56,9.9713,-1.9795,2.5715,-3.1019,0.8108,-3.1101,rough,15.5,0,4.374
7840,250.88,9.9706,-1.9749,2.5708,-3.0976,0.8094,-3.1021,rough,15.5,0,4.369
7850,251.20,9.9716,-1.9744,2.5718,-3.1036,0.8123,-3.1134,rough,15.5,0,4.369
7860,251.52,9.9718,-1.9754,2.5720,-3.1070,0.8122,-3.1182,rough,15.5,0,4.370
7870,251.84,9.9720,-1.9771,2.5722,-3.1085,0.8121,-3.1204,rough,15.5,0,4.372
7880,252.16,9.9721,-1.9791,2.5723,-3.1091,0.8119,-3.1212,rough,15.5,0,4.374
7890,252.48,9.9717,-1.9800,2.5719,-3.1058,0.8117,-3.1166,rough,15.5,0,4.375
7900,252.80,9.9706,-1.9770,2.5708,-3.0973,0.8091,-3.1016,rough,15.5,0,4.371
7910,253.12,9.9713,-1.9742,2.5715,-3.1009,0.8117,-3.1089,rough,15.5,0,4.369
7920,253.44,9.9717,-1.9747,2.5719,-3.1057,0.8123,-3.1163,rough,15.5,0,4.370
7930,253.76,9.9719,-1.9761,2.5721,-3.1079,0.8122,-3.1195,rough,15.5,0,4.371
7940,254.08,9.9720,-1.9780,2.5723,-3.1089,0.8120,-3.1209,rough,15.5,0,4.373
