step,time_s,x,y,z,roll,pitch,yaw,terrain,speed,target_idx,dist_to_target
10,0.32,0.8117,-0.7260,0.3261,-0.0674,-0.2680,-0.2195,slope,18.0,0,5.911
20,0.64,1.0275,-0.8019,0.3758,0.0151,-0.2490,-0.3498,slope,18.0,0,5.698
30,0.96,1.3839,-0.9756,0.4932,0.0625,-0.3310,-0.4997,slope,18.0,0,5.315
40,1.28,1.7330,-1.2237,0.6456,0.1342,-0.3679,-0.6694,slope,18.0,0,4.890
50,1.60,2.0669,-1.5468,0.8107,0.2099,-0.3548,-0.7920,slope,18.0,0,4.426
60,1.92,2.3954,-1.9260,0.9867,0.2505,-0.3339,-0.8644,slope,18.0,0,3.928
70,2.24,2.7372,-2.3468,1.1572,0.2639,-0.2940,-0.8787,slope,18.0,0,3.395
80,2.56,3.0889,-2.7701,1.3156,0.2685,-0.2690,-0.8560,slope,18.0,0,2.855
90,2.88,3.4455,-3.1789,1.4557,0.2643,-0.2532,-0.8176,slope,18.0,0,2.325
100,3.20,3.8194,-3.5706,1.5912,0.2615,-0.2499,-0.7765,slope,18.0,0,1.797
110,3.52,4.1700,-3.9111,1.7135,0.2511,-0.2485,-0.7483,slope,18.0,0,1.323
120,3.84,4.4795,-4.1983,1.8211,0.2459,-0.2554,-0.7182,slope,18.0,1,12.209
130,4.16,4.6916,-4.3851,1.8953,0.1646,-0.3201,-0.4277,slope,18.0,1,12.449
140,4.48,4.8715,-4.4802,1.9600,-0.0839,-0.3470,0.2995,slope,18.0,1,12.594
150,4.80,5.1467,-4.3100,2.0647,-0.1717,-0.3131,0.5581,slope,18.0,1,12.520
160,5.12,5.5329,-4.0256,2.2093,-0.2040,-0.2852,0.6517,slope,18.0,1,12.387
170,5.44,5.9026,-3.7033,2.3414,-0.2356,-0.2576,0.7481,slope,18.0,1,12.230
180,5.76,6.2591,-3.3436,2.4694,-0.2573,-0.2232,0.8530,slope,18.0,1,12.052
190,6.08,6.5771,-2.9455,2.5768,-0.2786,-0.1920,0.9564,slope,18.0,1,11.841
200,6.40,6.8477,-2.5178,2.6630,-0.2843,-0.1549,1.0595,rough,15.5,1,11.599
210,6.72,7.0382,-2.1116,2.7231,-0.2989,-0.1225,1.1595,rough,15.5,1,11.349
220,7.04,7.2013,-1.6804,2.7720,-0.3035,-0.0997,1.2300,rough,15.5,1,11.076
230,7.36,7.3366,-1.2354,2.8122,-0.3054,-0.0829,1.2927,rough,15.5,1,10.789
240,7.68,7.4327,-0.7918,2.8406,-0.3092,-0.0534,1.3932,rough,15.5,1,10.491
250,8.00,7.4509,-0.3540,2.8457,-0.3132,0.0034,1.5794,rough,15.5,1,10.159
260,8.32,7.3814,0.1025,2.8242,-0.3103,0.0480,1.7290,rough,15.5,1,9.765
270,8.64,7.2838,0.5740,2.7954,-0.3096,0.0637,1.7871,rough,15.5,1,9.346
280,8.96,7.1487,1.0596,2.7554,-0.3069,0.0898,1.8725,slope,18.0,1,8.898
290,9.28,6.9715,1.5794,2.7020,-0.3099,0.1023,1.8995,slope,18.0,1,8.403
300,9.60,6.7954,2.0674,2.6469,-0.3116,0.1010,1.9355,slope,18.0,1,7.937
310,9.92,6.5964,2.5466,2.5841,-0.3114,0.1342,1.9814,slope,18.0,1,7.466
320,10.24,6.3642,3.0232,2.5042,-0.2943,0.1669,2.0666,slope,18.0,1,6.979
330,10.56,6.0738,3.4624,2.4017,-0.2834,0.2039,2.1965,slope,18.0,1,6.476
340,10.88,5.7415,3.9115,2.2772,-0.2761,0.2300,2.2166,slope,18.0,1,5.937
350,11.20,5.4532,4.0690,2.1648,-0.3337,0.1285,1.8299,slope,18.0,1,5.613
360,11.52,5.2775,4.5379,2.0942,-0.3380,0.1117,1.9078,slope,18.0,1,5.193
370,11.84,5.0710,5.0522,2.0118,-0.3348,0.1671,1.9815,slope,18.0,1,4.739
380,12.16,4.8306,5.5509,1.9101,-0.3279,0.1865,2.0284,slope,18.0,1,4.286
390,12.48,4.5716,6.0333,1.7992,-0.3170,0.2063,2.0884,slope,18.0,1,3.847
400,12.80,4.2925,6.4955,1.6829,-0.3113,0.2254,2.1481,slope,18.0,1,3.427
410,13.12,3.9834,6.9331,1.5548,-0.2962,0.2418,2.2257,slope,18.0,1,3.020
420,13.44,3.6369,7.3368,1.4155,-0.2729,0.2672,2.3195,slope,18.0,1,2.624
430,13.76,3.2675,7.7106,1.2695,-0.2534,0.2794,2.3966,slope,18.0,1,2.258
440,14.08,2.9146,8.0321,1.1338,-0.2467,0.2818,2.4324,slope,18.0,1,1.966
450,14.40,2.5890,8.2917,1.0104,-0.2416,0.2927,2.4929,slope,18.0,1,1.754
460,14.72,2.2981,8.5083,0.9039,-0.2062,0.3043,2.5893,slope,18.0,1,1.623
470,15.04,2.0166,8.6646,0.8010,-0.1808,0.3154,2.6760,slope,18.0,1,1.526
480,15.36,1.7599,8.7915,0.7081,-0.1412,0.3310,2.8039,slope,18.0,1,1.481
490,15.68,1.5156,8.8795,0.6198,-0.0946,0.3450,2.9517,slope,18.0,1,1.457
500,16.00,1.2627,8.9216,0.5276,-0.0706,0.3481,3.0242,slope,18.0,1,1.433
510,16.32,1.0049,8.9466,0.4338,-0.0651,0.3455,3.0428,slope,18.0,1,1.437
520,16.64,0.7501,8.9673,0.3418,-0.0595,0.3451,3.0602,slope,18.0,1,1.482
530,16.96,0.4980,8.9840,0.2512,-0.0547,0.3426,3.0748,slope,18.0,1,1.563
540,17.28,0.2587,8.9941,0.1737,-0.0383,0.2949,3.1193,slope,18.0,1,1.668
550,17.60,0.0293,8.9919,0.1161,-0.0295,0.1704,-3.1191,slope,18.0,1,1.782
560,17.92,-0.2117,8.9707,0.0766,-0.0120,0.1427,-3.0357,slope,18.0,1,1.910
570,18.24,-0.4445,8.9410,0.0648,-0.0285,-0.0204,-3.0048,flat,18.0,1,2.047
580,18.56,-0.6759,8.8894,0.0684,-0.0347,-0.0081,-2.8752,rough,15.5,1,2.185
590,18.88,-0.9134,8.8125,0.0714,-0.0311,-0.0103,-2.7653,flat,18.0,1,2.330
600,19.20,-1.1718,8.7016,0.0742,-0.0302,-0.0100,-2.6781,flat,18.0,1,2.494
610,19.52,-1.4441,8.5556,0.0780,-0.0297,-0.0152,-2.6281,flat,18.0,1,2.676
620,19.84,-1.7442,8.3791,0.0835,-0.0289,-0.0175,-2.5621,flat,18.0,1,2.897
630,20.16,-2.0689,8.1630,0.0913,-0.0272,-0.0213,-2.5148,flat,18.0,1,3.156
640,20.48,-2.4247,7.8964,0.1023,-0.0287,-0.0284,-2.4862,flat,18.0,1,3.465
650,20.80,-2.8318,7.5807,0.1156,-0.0229,-0.0254,-2.4706,flat,18.0,1,3.851
660,21.12,-3.2214,7.2704,0.1331,-0.0250,-0.0332,-2.4680,flat,18.0,1,4.247
670,21.44,-3.4658,7.0502,0.1439,-0.0315,-0.0280,-2.2458,flat,18.0,1,4.508
680,21.76,-3.5724,6.8638,0.1491,-0.0406,-0.0094,-1.7616,rough,15.5,1,4.636
690,22.08,-3.5993,6.6317,0.1510,-0.0415,0.0011,-1.4336,rough,15.5,1,4.701
700,22.40,-3.5372,6.3252,0.1499,-0.0355,0.0183,-0.9584,rough,15.5,1,4.708
710,22.72,-3.2739,6.0547,0.1420,-0.0290,0.0242,-0.6147,flat,18.0,1,4.533
720,23.04,-2.8845,5.8204,0.1319,-0.0239,0.0312,-0.1895,flat,18.0,1,4.253
730,23.36,-2.4308,5.7646,0.1180,-0.0176,0.0307,0.2628,flat,18.0,1,3.866
740,23.68,-1.9599,5.9231,0.1024,-0.0070,0.0354,0.4652,flat,18.0,1,3.375
750,24.00,-1.4832,6.1763,0.0840,-0.0052,0.0334,0.5603,flat,18.0,1,2.835
760,24.32,-1.0410,6.4739,0.0669,-0.0021,0.0302,0.6244,transition,16.0,1,2.306
770,24.64,-0.6221,6.7618,0.0531,-0.0025,0.0243,0.5751,slope,18.0,1,1.803
780,24.96,-0.2260,7.0310,0.0659,-0.0767,-0.0490,0.5456,rough,15.5,1,1.334
790,25.28,0.0978,7.2437,0.1129,-0.1386,-0.1488,0.5283,slope,18.0,2,14.550
800,25.60,0.3085,7.3887,0.1662,-0.1238,-0.2656,0.3763,slope,18.0,2,14.787
810,25.92,0.3296,7.4351,0.1678,-0.0366,-0.3273,0.1184,slope,18.0,2,14.837
820,26.24,0.2327,7.4381,0.1431,0.0305,-0.2872,-0.1706,slope,18.0,2,14.786
830,26.56,0.3227,7.3552,0.1706,0.1142,-0.3050,-0.4732,slope,18.0,2,14.767
840,26.88,0.5772,7.1321,0.2555,0.2461,-0.2463,-0.8316,slope,18.0,2,14.727
850,27.20,0.7516,6.8101,0.3226,0.3172,-0.1527,-1.1831,slope,18.0,2,14.568
860,27.52,0.8264,6.4406,0.3562,0.3448,-0.0428,-1.5143,slope,18.0,2,14.317
870,27.84,0.7202,6.0310,0.3266,0.3292,0.0689,-1.8686,slope,18.0,2,13.929
880,28.16,0.5292,5.6181,0.2754,0.3208,0.1300,-2.0520,slope,18.0,2,13.487
890,28.48,0.2835,5.2572,0.2160,0.2494,0.1485,-2.2801,slope,18.0,2,13.051
900,28.80,-0.0678,4.9958,0.1412,0.1063,0.1370,-2.6891,slope,18.0,2,12.628
910,29.12,-0.4473,4.9015,0.1139,0.0663,-0.0070,3.0398,rough,15.5,2,12.321
920,29.44,-0.7432,4.9518,0.1125,0.0425,0.0185,2.5511,rough,15.5,2,12.185
930,29.76,-1.0378,5.1448,0.1078,0.0433,0.0070,2.6249,rough,15.5,2,12.174
940,30.08,-1.3725,5.3313,0.1062,0.0415,-0.0059,2.7754,rough,15.5,2,12.145
950,30.40,-1.7191,5.4551,0.1088,0.0291,-0.0252,-3.0372,flat,18.0,2,12.069
960,30.72,-2.1316,5.3710,0.1208,0.0130,-0.0349,-2.6378,flat,18.0,2,11.790
970,31.04,-2.5123,5.1185,0.1352,-0.0015,-0.0330,-2.3872,flat,18.0,2,11.385
980,31.36,-2.8183,4.7707,0.1501,-0.0002,-0.0291,-2.1631,flat,18.0,2,10.935
990,31.68,-3.0699,4.3434,0.1630,-0.0058,-0.0240,-1.9896,flat,18.0,2,10.439
1000,32.00,-3.2691,3.8615,0.1682,0.0168,-0.0160,-1.9107,flat,18.0,2,9.920
1010,32.32,-3.4359,3.3527,0.1824,0.0084,-0.0158,-1.8618,flat,18.0,2,9.393
1020,32.64,-3.5958,2.8106,0.1871,0.0125,0.0033,-1.8514,flat,18.0,2,8.840
1030,32.96,-3.7558,2.2690,0.1909,0.0203,-0.0020,-1.8652,flat,18.0,2,8.290
1040,33.28,-3.9232,1.7326,0.1901,0.0283,0.0038,-1.8973,flat,18.0,2,7.743
1050,33.60,-4.1123,1.2149,0.1850,0.0339,0.0095,-1.9660,flat,18.0,2,7.202
1060,33.92,-4.3322,0.7051,0.1782,0.0349,0.0167,-2.0208,flat,18.0,2,6.653
1070,34.24,-4.5620,0.2468,0.1686,0.0367,0.0208,-2.0641,rough,15.5,2,6.143
1080,34.56,-4.7968,-0.1765,0.1582,0.0374,0.0223,-2.0923,rough,15.5,2,5.661
1090,34.88,-5.0449,-0.5922,0.1474,0.0375,0.0222,-2.1230,rough,15.5,2,5.177
1100,35.20,-5.3048,-1.0047,0.1377,0.0366,0.0195,-2.1430,rough,15.5,2,4.689
1110,35.52,-5.5733,-1.4147,0.1294,0.0368,0.0133,-2.1556,rough,15.5,2,4.199
1120,35.84,-5.8469,-1.8242,0.1243,0.0356,0.0059,-2.1616,rough,15.5,2,3.707
1130,36.16,-6.1227,-2.2345,0.1235,0.0369,-0.0003,-2.1617,rough,15.5,2,3.212
1140,36.48,-6.4035,-2.6558,0.1268,0.0341,-0.0107,-2.1540,flat,18.0,2,2.706
1150,36.80,-6.7077,-3.1287,0.1350,0.0331,-0.0151,-2.1293,flat,18.0,2,2.144
1160,37.12,-6.9992,-3.5957,0.1505,0.0288,-0.0303,-2.1323,flat,18.0,2,1.594
1170,37.44,-7.2612,-4.0097,0.1675,0.0315,-0.0413,-2.1404,flat,18.0,2,1.104
1180,37.76,-7.5519,-4.4454,0.1859,0.0389,-0.0412,-2.2040,flat,18.0,0,0.974
1190,38.08,-7.8588,-4.8591,0.2093,0.0268,-0.0440,-2.1983,flat,18.0,0,13.208
1200,38.40,-8.1273,-5.2436,0.2306,0.0210,-0.0472,-2.1254,flat,18.0,0,13.491
1210,38.72,-8.3387,-5.6023,0.2499,0.0141,-0.0469,-2.0142,flat,18.0,0,13.726
1220,39.04,-8.4978,-5.9441,0.2671,0.0055,-0.0453,-1.8624,flat,18.0,0,13.915
1230,39.36,-8.5928,-6.2749,0.2819,-0.0038,-0.0417,-1.6824,flat,18.0,0,14.047
1240,39.68,-8.6281,-6.5971,0.2943,-0.0127,-0.0346,-1.4776,flat,18.0,0,14.126
1250,40.00,-8.5968,-6.9133,0.3040,-0.0176,-0.0230,-1.3058,flat,18.0,0,14.145
1260,40.32,-8.5016,-7.2300,0.3108,-0.0191,-0.0178,-1.2160,flat,18.0,0,14.109
1270,40.64,-8.3679,-7.5594,0.3151,-0.0184,-0.0069,-1.1255,flat,18.0,0,14.045
1280,40.96,-8.1915,-7.9092,0.3161,-0.0178,0.0058,-1.0530,flat,18.0,0,13.954
1290,41.28,-7.9729,-8.2727,0.3119,-0.0135,0.0070,-0.9877,flat,18.0,0,13.836
1300,41.60,-7.7572,-8.5808,0.3069,-0.0141,0.0206,-0.9104,flat,18.0,0,13.717
1310,41.92,-7.5621,-8.8162,0.2995,-0.0065,0.0231,-0.8092,flat,18.0,0,13.603
1320,42.24,-7.3674,-8.9929,0.2928,-0.0050,0.0293,-0.6965,flat,18.0,0,13.476
1330,42.56,-7.1935,-9.1348,0.2855,-0.0014,0.0279,-0.5660,flat,18.0,0,13.360
1340,42.88,-7.0187,-9.2308,0.2795,0.0019,0.0330,-0.4596,flat,18.0,0,13.230
1350,43.20,-6.8554,-9.3078,0.2735,0.0056,0.0339,-0.3378,flat,18.0,0,13.106
1360,43.52,-6.7047,-9.3690,0.2680,0.0124,0.0338,-0.1823,flat,18.0,0,12.988
1370,43.84,-6.5635,-9.4051,0.2630,0.0161,0.0310,-0.0377,flat,18.0,0,12.871
1380,44.16,-6.4265,-9.4204,0.2586,0.0203,0.0283,0.0913,flat,18.0,0,12.750
1390,44.48,-6.2738,-9.4075,0.2537,0.0198,0.0313,0.1273,flat,18.0,0,12.605
1400,44.80,-6.1164,-9.3885,0.2489,0.0194,0.0325,0.1477,flat,18.0,0,12.452
1410,45.12,-5.9554,-9.3656,0.2436,0.0182,0.0315,0.1700,flat,18.0,0,12.295
1420,45.44,-5.7899,-9.3385,0.2380,0.0184,0.0328,0.1946,flat,18.0,0,12.132
1430,45.76,-5.6194,-9.3062,0.2322,0.0181,0.0346,0.2210,flat,18.0,0,11.963
1440,46.08,-5.4438,-9.2679,0.2259,0.0172,0.0336,0.2490,flat,18.0,0,11.787
1450,46.40,-5.2615,-9.2224,0.2191,0.0166,0.0356,0.2786,flat,18.0,0,11.602
1460,46.72,-5.0706,-9.1689,0.2120,0.0173,0.0368,0.3092,flat,18.0,0,11.406
1470,47.04,-4.8766,-9.1076,0.2042,0.0183,0.0373,0.3603,flat,18.0,0,11.203
1480,47.36,-4.6777,-9.0323,0.1962,0.0197,0.0377,0.4189,flat,18.0,0,10.991
1490,47.68,-4.4567,-8.9342,0.1870,0.0201,0.0376,0.4504,flat,18.0,0,10.749
1500,48.00,-4.2227,-8.8195,0.1770,0.0200,0.0386,0.4864,flat,18.0,0,10.489
1510,48.32,-3.9673,-8.6824,0.1657,0.0207,0.0385,0.5147,flat,18.0,0,10.200
1520,48.64,-3.6917,-8.5226,0.1535,0.0219,0.0377,0.5505,flat,18.0,0,9.883
1530,48.96,-3.3882,-8.3318,0.1402,0.0234,0.0365,0.5797,flat,18.0,0,9.528
1540,49.28,-3.0504,-8.1064,0.1259,0.0243,0.0336,0.6016,flat,18.0,0,9.129
1550,49.60,-2.6716,-7.8432,0.1114,0.0261,0.0290,0.6168,flat,18.0,0,8.678
1560,49.92,-2.2432,-7.5384,0.0975,0.0285,0.0223,0.6231,flat,18.0,0,8.166
1570,50.24,-1.7849,-7.2140,0.0868,0.0290,0.0180,0.5740,flat,18.0,0,7.621
1580,50.56,-1.3524,-6.9422,0.0796,0.0322,0.0107,0.4803,rough,15.5,0,7.122
1590,50.88,-0.8975,-6.7449,0.0753,0.0333,0.0081,0.3776,slope,18.0,0,6.627
1600,51.20,-0.4052,-6.5687,0.0728,0.0037,-0.0347,0.2847,rough,15.5,0,6.104
1610,51.52,0.0269,-6.4414,0.1219,-0.0105,-0.1766,0.2185,slope,18.0,0,5.654
1620,51.84,0.4770,-6.3373,0.2567,-0.0204,-0.3384,0.1679,slope,18.0,0,5.196
1630,52.16,0.9592,-6.2664,0.4351,-0.0125,-0.3513,0.1471,slope,18.0,0,4.720
1640,52.48,1.4281,-6.1869,0.6101,-0.0224,-0.3547,0.1781,slope,18.0,0,4.256
1650,52.80,1.8840,-6.0901,0.7831,-0.0382,-0.3579,0.2202,slope,18.0,0,3.800
1660,53.12,2.3350,-5.9711,0.9567,-0.0575,-0.3577,0.2694,slope,18.0,0,3.341
1670,53.44,2.7899,-5.8275,1.1341,-0.0735,-0.3568,0.3100,slope,18.0,0,2.870
1680,53.76,3.2440,-5.6833,1.3118,-0.0700,-0.3597,0.2922,slope,18.0,0,2.401
1690,54.08,3.6975,-5.5477,1.4891,-0.0685,-0.3591,0.2782,slope,18.0,0,1.941
1700,54.40,4.1279,-5.4253,1.6575,-0.0631,-0.3622,0.2534,slope,18.0,0,1.516
1710,54.72,4.5025,-5.3240,1.8032,-0.0731,-0.3607,0.2696,slope,18.0,0,1.164
1720,55.04,4.9107,-5.1782,1.9629,-0.1065,-0.3532,0.3505,slope,18.0,1,13.271
1730,55.36,5.3448,-4.9938,2.1312,-0.1357,-0.3409,0.4150,slope,18.0,1,13.231
1740,55.68,5.7660,-4.7783,2.2938,-0.1669,-0.3295,0.4891,slope,18.0,1,13.173
1750,56.00,6.1754,-4.5266,2.4485,-0.1996,-0.3066,0.5680,slope,18.0,1,13.094
1760,56.32,6.5638,-4.2389,2.5917,-0.2331,-0.2811,0.6562,rough,15.5,1,12.992
1770,56.64,6.8895,-3.9609,2.7056,-0.2511,-0.2541,0.7336,rough,15.5,1,12.886
1780,56.96,7.1848,-3.6595,2.8029,-0.2576,-0.2220,0.8256,rough,15.5,1,12.758
1790,57.28,7.4639,-3.3108,2.8957,-0.2921,-0.1875,0.9239,rough,15.5,1,12.595
1800,57.60,7.7197,-2.9359,2.9769,-0.3187,-0.1748,0.9712,rough,15.5,1,12.410
1810,57.92,7.9724,-2.5526,3.0204,-0.3269,0.0457,0.9395,rough,15.5,1,12.231
1820,58.24,8.3233,-2.2124,2.8382,-0.0947,0.7483,0.7335,rough,15.5,1,12.160
1830,58.56,8.6614,-1.8641,2.5030,0.1673,1.2153,0.9652,rough,15.5,1,12.095
1840,58.88,9.0057,-1.4455,2.2810,2.6870,0.9182,-2.5728,rough,15.5,1,11.999
1850,59.20,9.0963,-1.1985,2.1432,-2.8895,0.6083,-2.0880,rough,15.5,1,11.878
1860,59.52,9.0810,-1.1329,2.0827,-2.8083,0.3587,-1.8057,rough,15.5,1,11.819
1870,59.84,9.0754,-1.0179,2.1009,-2.8651,0.3996,-1.8398,rough,15.5,1,11.732
1880,60.16,9.0955,-0.9046,2.1398,-2.8692,0.4450,-1.9921,rough,15.5,1,11.663
1890,60.48,9.1442,-0.8211,2.2001,-2.8625,0.5602,-2.0368,rough,15.5,1,11.637
1900,60.80,9.2006,-0.7523,2.2572,-2.8986,0.6451,-2.1236,rough,15.5,1,11.628
1910,61.12,9.2755,-0.6985,2.3136,-3.0636,0.6447,-2.3129,rough,15.5,1,11.642
1920,61.44,9.3248,-0.6339,2.3734,3.0394,0.6774,-2.5499,rough,15.5,1,11.632
1930,61.76,9.3680,-0.5894,2.4215,2.9156,0.7001,-2.7301,rough,15.5,1,11.632
1940,62.08,9.4119,-0.5466,2.4720,2.7564,0.6750,-2.9772,rough,15.5,1,11.634
1950,62.40,9.4639,-0.5245,2.5155,2.6874,0.6441,-3.1192,rough,15.5,1,11.656
1960,62.72,9.5249,-0.5123,2.5587,2.7238,0.6573,-3.0959,rough,15.5,1,11.692
1970,63.04,9.5715,-0.4985,2.5957,2.7666,0.6667,-3.0479,rough,15.5,1,11.717
1980,63.36,9.6125,-0.4849,2.6294,2.7292,0.6512,-3.1235,rough,15.5,1,11.737
1990,63.68,9.6398,-0.4718,2.6534,2.7806,0.6665,-3.0489,rough,15.5,1,11.748
2000,64.00,9.6658,-0.4589,2.6767,2.7546,0.6565,-3.0981,rough,15.5,1,11.759
2010,64.32,9.6889,-0.4462,2.6936,2.7505,0.6311,-3.1111,rough,15.5,1,11.767
2020,64.64,9.6856,-0.4508,2.6745,2.7608,0.5559,-3.0940,rough,15.5,1,11.768
2030,64.96,9.6973,-0.4436,2.6991,2.7614,0.6280,-3.0969,rough,15.5,1,11.772
2040,65.28,9.6957,-0.4391,2.6843,2.7424,0.5403,-3.1287,rough,15.5,1,11.767
2050,65.60,9.6751,-0.4309,2.6911,2.7728,0.6435,-3.0634,rough,15.5,1,11.747
2060,65.92,9.6978,-0.4214,2.7092,2.7340,0.6230,-3.1375,rough,15.5,1,11.757
2070,66.24,9.6945,-0.4105,2.7117,2.7656,0.6347,-3.0783,rough,15.5,1,11.747
2080,66.56,9.6962,-0.4092,2.6976,2.7327,0.5361,-3.1296,rough,15.5,1,11.748
2090,66.88,9.6766,-0.4018,2.7052,2.7524,0.6388,-3.0823,rough,15.5,1,11.728
2100,67.20,9.6905,-0.3930,2.7176,2.7670,0.6388,-3.0624,rough,15.5,1,11.733
2110,67.52,9.6999,-0.3889,2.7070,2.7147,0.5235,3.1238,rough,15.5,1,11.737
2120,67.84,9.6738,-0.3845,2.7067,2.7216,0.6106,-3.1299,rough,15.5,1,11.714
2130,68.16,9.6778,-0.3725,2.7205,2.7411,0.6522,-3.0987,rough,15.5,1,11.709
2140,68.48,9.6887,-0.3632,2.7268,2.7622,0.6348,-3.0702,rough,15.5,1,11.711
2150,68.80,9.6966,-0.3613,2.7160,2.7088,0.5269,3.1149,rough,15.5,1,11.716
2160,69.12,9.6688,-0.3549,2.7171,2.7262,0.6272,-3.1188,rough,15.5,1,11.691
2170,69.44,9.6756,-0.3419,2.7306,2.7331,0.6507,-3.1117,rough,15.5,1,11.687
2180,69.76,9.6829,-0.3322,2.7327,2.7493,0.6221,-3.0888,rough,15.5,1,11.686
2190,70.08,9.6936,-0.3212,2.7457,2.7296,0.6209,-3.1375,rough,15.5,1,11.687
2200,70.40,9.6887,-0.3235,2.7263,2.7349,0.5491,-3.1117,rough,15.5,1,11.684
2210,70.72,9.7024,-0.3186,2.7472,2.7424,0.6006,-3.1152,rough,15.5,1,11.691
2220,71.04,9.6916,-0.3279,2.7254,2.7394,0.5460,-3.1030,rough,15.5,1,11.690
2230,71.36,9.6855,-0.3240,2.7348,2.7502,0.6079,-3.0899,rough,15.5,1,11.682
2240,71.68,9.7055,-0.3187,2.7282,2.7368,0.4984,-3.1048,rough,15.5,1,11.694
2250,72.00,9.7074,-0.3336,2.7450,2.7427,0.6053,-3.1205,rough,15.5,1,11.705
2260,72.32,9.6874,-0.3346,2.7335,2.7075,0.5942,3.1065,rough,15.5,2,18.168
2270,72.64,9.6732,-0.3218,2.7363,2.7573,0.6529,-3.0752,rough,15.5,2,18.158
2280,72.96,9.6961,-0.3124,2.7524,2.7346,0.6270,-3.1376,rough,15.5,2,18.182
2290,73.28,9.7018,-0.3028,2.7542,2.7686,0.6146,-3.0732,rough,15.5,2,18.190
2300,73.60,9.7245,-0.3120,2.7555,2.7523,0.5502,-3.1294,rough,15.5,2,18.210
2310,73.92,9.7349,-0.3119,2.7702,2.7684,0.6032,-3.0932,rough,15.5,2,18.220
2320,74.24,9.7488,-0.3044,2.7794,2.7790,0.5898,-3.0850,rough,15.5,2,18.235
2330,74.56,9.7720,-0.2967,2.7917,2.7813,0.5581,-3.0971,rough,15.5,2,18.260
2340,74.88,9.7919,-0.2905,2.8018,2.7907,0.5307,-3.0941,rough,15.5,2,18.281
2350,75.20,9.8015,-0.2827,2.8097,2.7680,0.5153,-3.1404,rough,15.5,2,18.292
2360,75.52,9.8219,-0.2776,2.8191,2.7945,0.4890,-3.1071,rough,15.5,2,18.313
2370,75.84,9.8348,-0.2732,2.8256,2.8092,0.4726,-3.0893,rough,15.5,2,18.326
2380,76.16,9.8464,-0.2671,2.8335,2.7883,0.4538,-3.1335,rough,15.5,2,18.339
2390,76.48,9.8531,-0.2616,2.8383,2.7908,0.4446,-3.1333,rough,15.5,2,18.347
2400,76.80,9.8767,-0.2582,2.8487,2.8211,0.4156,-3.0945,rough,15.5,2,18.371
2410,77.12,9.8814,-0.2536,2.8526,2.8151,0.4079,-3.1080,rough,15.5,2,18.377
2420,77.44,9.8879,-0.2474,2.8582,2.7982,0.3959,-3.1414,rough,15.5,2,18.384
2430,77.76,9.9070,-0.2444,2.8669,2.8213,0.3724,-3.1125,rough,15.5,2,18.404
2440,78.08,9.9173,-0.2413,2.8722,2.8342,0.3601,-3.0962,rough,15.5,2,18.414
2450,78.40,9.9271,-0.2364,2.8787,2.8170,0.3433,-3.1317,rough,15.5,2,18.425
2460,78.72,9.9326,-0.2326,2.8825,2.8182,0.3354,-3.1328,rough,15.5,2,18.431
2470,79.04,9.9555,-0.2317,2.8922,2.8404,0.3134,-3.0978,rough,15.5,2,18.454
2480,79.36,9.9619,-0.2308,2.8955,2.8321,0.3068,-3.1111,rough,15.5,2,18.460
2490,79.68,9.9724,-0.2377,2.8975,2.7483,0.4274,-3.0837,rough,15.5,2,18.469
2500,80.00,9.9690,-0.2334,2.8998,2.6955,0.4255,3.1058,rough,15.5,2,18.466
2510,80.32,9.9677,-0.2348,2.8961,2.7487,0.4305,-3.0897,rough,15.5,2,18.465
2520,80.64,9.9811,-0.2325,2.9030,2.7584,0.3932,-3.1001,rough,15.5,2,18.478
2530,80.96,9.9771,-0.2278,2.9031,2.7854,0.3235,3.1415,rough,15.5,2,18.476
2540,81.28,9.9666,-0.2444,2.8912,2.7464,0.4330,-3.0975,rough,15.5,2,18.461
2550,81.60,9.9680,-0.2363,2.8950,2.8356,0.3312,-3.0688,rough,15.5,2,18.465
2560,81.92,9.9611,-0.2312,2.8942,2.8196,0.3186,-3.1114,rough,15.5,2,18.459
2570,82.24,9.9712,-0.2381,2.8952,2.7454,0.4250,-3.1086,rough,15.5,2,18.467
2580,82.56,9.9738,-0.2334,2.8969,2.8480,0.3013,-3.0660,rough,15.5,2,18.471
2590,82.88,9.9570,-0.2274,2.8903,2.8116,0.2932,-3.1266,rough,15.5,2,18.456
2600,83.20,9.9733,-0.2392,2.8970,2.7033,0.4292,3.1120,rough,15.5,2,18.469
2610,83.52,9.9797,-0.2357,2.8999,2.8134,0.3517,-3.0618,rough,15.5,2,18.476
2620,83.84,9.9528,-0.2322,2.8895,2.7698,0.3299,3.1130,rough,15.5,2,18.451
2630,84.16,9.9582,-0.2320,2.8928,2.8464,0.3154,-3.0824,rough,15.5,3,18.959
2640,84.48,9.9613,-0.2281,2.8963,2.8356,0.3012,-3.1136,rough,15.5,3,18.962
2650,84.80,9.9703,-0.2362,2.8964,2.7401,0.4253,-3.1131,rough,15.5,3,18.969
2660,85.12,9.9709,-0.2305,2.8991,2.8006,0.3306,-3.1199,rough,15.5,3,18.971
2670,85.44,9.9692,-0.2404,2.8947,2.7499,0.4314,-3.0833,rough,15.5,3,18.967
2680,85.76,9.9692,-0.2335,2.8955,2.8401,0.3102,-3.0743,rough,15.5,3,18.969
2690,86.08,9.9573,-0.2307,2.8912,2.8373,0.2982,-3.1006,rough,15.5,3,18.958
2700,86.40,9.9717,-0.2404,2.8977,2.7070,0.4271,3.1310,rough,15.5,3,18.970
2710,86.72,9.9775,-0.2350,2.8993,2.8212,0.3381,-3.0680,rough,15.5,3,18.976
2720,87.04,9.9540,-0.2330,2.8910,2.7855,0.3309,3.1273,rough,15.5,3,18.954
2730,87.36,9.9568,-0.2308,2.8926,2.8320,0.3278,-3.0902,rough,15.5,3,18.957
2740,87.68,9.9536,-0.2273,2.8932,2.8360,0.3110,-3.1105,rough,15.5,3,18.955
2750,88.00,9.9686,-0.2243,2.9008,2.8170,0.3102,-3.1220,rough,15.5,3,18.970
2760,88.32,9.9701,-0.2297,2.8986,2.7492,0.4276,-3.0796,rough,15.5,3,18.971
2770,88.64,9.9617,-0.2192,2.8999,2.7787,0.3635,-3.1265,rough,15.5,3,18.965
2780,88.96,9.9482,-0.2223,2.8920,2.8387,0.3294,-3.0879,rough,15.5,3,18.951
2790,89.28,9.9442,-0.2179,2.8908,2.7988,0.3255,3.1405,rough,15.5,3,18.948
2800,89.60,9.9622,-0.2169,2.9005,2.8173,0.3154,-3.1205,rough,15.5,3,18.966
2810,89.92,9.9620,-0.2268,2.8960,2.7501,0.4389,-3.0752,rough,15.5,3,18.963
