step,time_s,x,y,z,roll,pitch,yaw,terrain,speed,target_idx,dist_to_target
10,0.32,0.9890,-0.7748,0.3582,-0.1316,-0.2378,0.2438,rough,15.5,0,5.745
20,0.64,1.3028,-0.6913,0.4439,-0.1166,-0.2959,0.1915,rough,15.5,0,5.568
30,0.96,1.6674,-0.6173,0.5609,-0.0827,-0.3382,0.0552,rough,15.5,0,5.363
40,1.28,2.0178,-0.6055,0.7030,-0.0582,-0.4103,-0.0273,rough,15.5,0,5.138
50,1.60,2.3437,-0.6224,0.8555,-0.0360,-0.4618,-0.0497,rough,15.5,0,4.919
60,1.92,2.6718,-0.6502,1.0163,-0.0094,-0.4555,-0.0836,rough,15.5,0,4.703
70,2.24,2.9963,-0.6915,1.1762,0.0180,-0.4572,-0.1293,rough,15.5,0,4.492
80,2.56,3.3243,-0.7520,1.3357,0.0481,-0.4385,-0.1889,rough,15.5,0,4.276
90,2.88,3.6515,-0.8357,1.4888,0.0787,-0.4163,-0.2606,rough,15.5,0,4.055
100,3.20,3.9849,-0.9400,1.6339,0.1157,-0.3779,-0.3537,rough,15.5,0,3.830
110,3.52,4.3246,-1.0930,1.7783,0.1669,-0.3450,-0.4813,rough,15.5,0,3.576
120,3.84,4.6714,-1.3054,1.9121,0.2071,-0.2970,-0.6294,rough,15.5,0,3.285
130,4.16,4.9916,-1.5655,2.0295,0.2282,-0.2539,-0.7655,rough,15.5,0,2.976
140,4.48,5.2821,-1.8784,2.1286,0.2364,-0.2168,-0.8927,rough,15.5,0,2.643
150,4.80,5.5192,-2.2461,2.2133,0.2826,-0.1719,-1.0371,rough,15.5,0,2.281
160,5.12,5.7086,-2.6524,2.2767,0.3050,-0.1371,-1.1548,rough,15.5,0,1.903
170,5.44,5.8447,-3.0769,2.3215,0.3120,-0.0911,-1.3094,rough,15.5,0,1.528
180,5.76,5.8978,-3.5291,2.3420,0.3412,-0.0285,-1.4863,rough,15.5,0,1.135
190,6.08,5.8688,-3.9764,2.3329,0.3490,0.0473,-1.6690,rough,15.5,1,12.468
200,6.40,5.7931,-4.2766,2.3038,0.3331,0.1301,-1.9243,rough,15.5,1,12.717
210,6.72,5.6459,-4.5617,2.2466,0.2738,0.2286,-2.2220,rough,15.5,1,12.928
220,7.04,5.4106,-4.7766,2.1572,0.1985,0.3010,-2.5166,rough,15.5,1,13.048
230,7.36,5.0988,-4.9194,2.0385,0.1248,0.3439,-2.7365,rough,15.5,1,13.082
240,7.68,4.7681,-5.0110,1.9111,0.0664,0.3590,-2.8902,rough,15.5,1,13.070
250,8.00,4.4059,-5.0692,1.7728,0.0253,0.3642,-2.9973,rough,15.5,1,13.027
260,8.32,4.0246,-5.1023,1.6276,-0.0027,0.3646,-3.0663,rough,15.5,1,12.965
270,8.64,3.6321,-5.1186,1.4787,-0.0209,0.3629,-3.1079,rough,15.5,1,12.896
280,8.96,3.2333,-5.1245,1.3284,-0.0312,0.3606,-3.1314,rough,15.5,1,12.827
290,9.28,2.8328,-5.1247,1.1782,-0.0386,0.3589,3.1388,rough,15.5,1,12.764
300,9.60,2.4328,-5.1216,1.0290,-0.0429,0.3567,3.1319,rough,15.5,1,12.710
310,9.92,2.0349,-5.1169,0.8815,-0.0456,0.3533,3.1284,rough,15.5,1,12.667
320,10.24,1.6395,-5.1113,0.7362,-0.0478,0.3508,3.1263,rough,15.5,1,12.636
330,10.56,1.2469,-5.1052,0.5932,-0.0500,0.3483,3.1249,rough,15.5,1,12.617
340,10.88,0.8575,-5.0989,0.4528,-0.0530,0.3456,3.1239,rough,15.5,1,12.610
350,11.20,0.4694,-5.0922,0.3141,-0.0556,0.3425,3.1230,rough,15.5,1,12.614
360,11.52,0.0976,-5.0866,0.2043,-0.0547,0.1945,3.1301,rough,15.5,1,12.630
370,11.84,-0.2651,-5.0718,0.1525,-0.0644,0.0754,3.0584,rough,15.5,1,12.647
380,12.16,-0.6052,-5.0343,0.1410,-0.0479,-0.0222,2.9241,rough,15.5,1,12.649
390,12.48,-0.9543,-4.9430,0.1485,-0.0415,-0.0248,2.7450,rough,15.5,1,12.608
400,12.80,-1.2761,-4.7851,0.1578,-0.0359,-0.0300,2.5442,rough,15.5,1,12.507
410,13.12,-1.5820,-4.5436,0.1684,-0.0289,-0.0226,2.3718,rough,15.5,1,12.331
420,13.44,-1.8586,-4.2380,0.1823,-0.0230,-0.0291,2.2231,rough,15.5,1,12.095
430,13.76,-2.1046,-3.8918,0.1935,-0.0190,-0.0258,2.0977,rough,15.5,1,11.822
440,14.08,-2.3115,-3.4993,0.2046,-0.0207,-0.0217,1.9877,rough,15.5,1,11.502
450,14.40,-2.4804,-3.0745,0.2131,-0.0221,-0.0154,1.9112,rough,15.5,1,11.148
460,14.72,-2.6216,-2.6340,0.2182,-0.0265,-0.0108,1.8163,rough,15.5,1,10.777
470,15.04,-2.7264,-2.1767,0.2233,-0.0206,-0.0060,1.7210,rough,15.5,1,10.385
480,15.36,-2.7863,-1.7060,0.2239,-0.0204,-0.0173,1.6183,rough,15.5,1,9.970
490,15.68,-2.8010,-1.2224,0.2273,-0.0189,-0.0040,1.5228,rough,15.5,1,9.531
500,16.00,-2.7694,-0.7366,0.2283,-0.0167,-0.0023,1.4725,rough,15.5,1,9.075
510,16.32,-2.7191,-0.2449,0.2284,-0.0126,0.0003,1.4607,rough,15.5,1,8.609
520,16.64,-2.6635,0.2455,0.2279,-0.0101,0.0015,1.4468,rough,15.5,1,8.144
530,16.96,-2.5997,0.7260,0.2269,-0.0120,0.0047,1.3867,rough,15.5,1,7.689
540,17.28,-2.5068,1.2004,0.2251,-0.0133,0.0043,1.3323,rough,15.5,1,7.228
550,17.60,-2.3867,1.6738,0.2219,-0.0163,0.0100,1.2949,rough,15.5,1,6.757
560,17.92,-2.2488,2.1430,0.2165,-0.0156,0.0117,1.2634,rough,15.5,1,6.283
570,18.24,-2.0960,2.6096,0.2079,-0.0117,0.0197,1.2394,rough,15.5,1,5.806
580,18.56,-1.9309,3.0653,0.1907,0.0044,0.0086,1.2039,rough,15.5,1,5.334
590,18.88,-1.7530,3.5265,0.1809,-0.0135,0.0363,1.1809,rough,15.5,1,4.853
600,19.20,-1.5636,3.9779,0.1627,-0.0124,0.0406,1.1581,rough,15.5,1,4.375
610,19.52,-1.3639,4.4270,0.1421,-0.0099,0.0445,1.1369,rough,15.5,1,3.896
620,19.84,-1.1553,4.8712,0.1209,-0.0075,0.0429,1.1140,rough,15.5,1,3.419
630,20.16,-0.9365,5.3094,0.0998,-0.0056,0.0416,1.0890,rough,15.5,1,2.944
640,20.48,-0.7065,5.7389,0.0804,-0.0035,0.0377,1.0571,rough,15.5,1,2.472
650,20.80,-0.4666,6.1595,0.0663,-0.0136,0.0275,1.0199,rough,15.5,1,2.007
660,21.12,-0.2362,6.5730,0.0744,-0.1309,0.0259,0.9608,rough,15.5,1,1.566
670,21.44,0.0129,6.9413,0.0937,-0.1628,-0.0955,0.9072,rough,15.5,1,1.155
680,21.76,0.2672,7.3000,0.1583,-0.2374,-0.1528,0.8038,rough,15.5,2,14.690
690,22.08,0.3986,7.3963,0.1900,-0.1079,-0.3460,0.3204,rough,15.5,2,14.843
700,22.40,0.5860,7.4651,0.2568,-0.0372,-0.3411,0.1104,rough,15.5,2,15.006
710,22.72,0.7377,7.4855,0.3118,-0.0128,-0.3476,0.0400,rough,15.5,2,15.109
720,23.04,0.8784,7.4928,0.3628,-0.0035,-0.3502,0.0132,rough,15.5,2,15.195
730,23.36,1.0148,7.4951,0.4126,-0.0001,-0.3502,0.0037,rough,15.5,2,15.276
740,23.68,1.1487,7.4957,0.4617,0.0010,-0.3520,0.0005,rough,15.5,2,15.355
750,24.00,1.2814,7.4958,0.5106,0.0014,-0.3549,-0.0006,rough,15.5,2,15.434
760,24.32,1.4136,7.4958,0.5595,0.0016,-0.3563,-0.0010,rough,15.5,2,15.513
770,24.64,1.5456,7.4956,0.6086,0.0017,-0.3563,-0.0013,rough,15.5,2,15.592
780,24.96,1.6769,7.4952,0.6577,0.0020,-0.3585,-0.0023,rough,15.5,2,15.672
790,25.28,1.8081,7.4945,0.7069,0.0029,-0.3612,-0.0049,rough,15.5,2,15.752
800,25.60,1.9407,7.4925,0.7569,0.0054,-0.3620,-0.0119,rough,15.5,2,15.832
810,25.92,2.0767,7.4874,0.8084,0.0116,-0.3619,-0.0299,rough,15.5,2,15.913
820,26.24,2.2206,7.4745,0.8633,0.0267,-0.3641,-0.0734,rough,15.5,2,15.994
830,26.56,2.3809,7.4439,0.9247,0.0576,-0.3637,-0.1616,rough,15.5,2,16.072
840,26.88,2.5628,7.3857,0.9949,0.1105,-0.3565,-0.3078,rough,15.5,2,16.144
850,27.20,2.7983,7.2971,1.0861,0.2099,-0.3083,-0.6231,rough,15.5,2,16.231
860,27.52,3.0074,7.1410,1.1682,0.2815,-0.2479,-0.8867,rough,15.5,2,16.254
870,27.84,3.1760,6.8691,1.2367,0.3232,-0.1925,-1.0837,rough,15.5,2,16.168
880,28.16,3.3050,6.5482,1.2913,0.3515,-0.1318,-1.2625,rough,15.5,2,16.025
890,28.48,3.3546,6.1557,1.3171,0.3696,-0.0512,-1.4806,rough,15.5,2,15.782
900,28.80,3.3317,5.7235,1.3197,0.3714,0.0047,-1.6556,rough,15.5,2,15.466
910,29.12,3.2452,5.2756,1.2973,0.3544,0.0511,-1.7903,rough,15.5,2,15.097
920,29.44,3.1025,4.8262,1.2588,0.3527,0.0924,-1.8989,rough,15.5,2,14.690
930,29.76,2.9194,4.3849,1.2032,0.3423,0.1237,-1.9835,rough,15.5,2,14.262
940,30.08,2.7082,3.9570,1.1332,0.3320,0.1518,-2.0442,rough,15.5,2,13.824
950,30.40,2.4766,3.5407,1.0517,0.3203,0.1893,-2.0867,rough,15.5,2,13.381
960,30.72,2.2268,3.1294,0.9519,0.2854,0.2087,-2.1291,rough,15.5,2,12.928
970,31.04,1.9631,2.7311,0.8423,0.2798,0.2352,-2.1633,rough,15.5,2,12.475
980,31.36,1.6924,2.3374,0.7197,0.2340,0.2688,-2.1929,rough,15.5,2,12.020
990,31.68,1.4102,1.9615,0.5840,0.1961,0.2585,-2.2337,rough,15.5,2,11.569
1000,32.00,1.1160,1.5862,0.4656,0.1279,0.2728,-2.2627,rough,15.5,2,11.110
1010,32.32,0.8111,1.2334,0.3575,0.1025,0.2128,-2.2988,rough,15.5,2,10.657
1020,32.64,0.4903,0.8869,0.2755,0.0678,0.1442,-2.3311,rough,15.5,2,10.196
1030,32.96,0.1603,0.5436,0.2304,0.0298,0.0710,-2.3572,rough,15.5,2,9.730
1040,33.28,-0.1789,0.2051,0.2069,-0.0013,0.0198,-2.3798,rough,15.5,2,9.259
1050,33.60,-0.5325,-0.1299,0.2019,-0.0277,0.0010,-2.3995,rough,15.5,2,8.780
1060,33.92,-0.8961,-0.4515,0.2154,-0.0038,-0.0202,-2.4181,rough,15.5,2,8.300
1070,34.24,-1.2661,-0.7723,0.2263,-0.0020,-0.0217,-2.4357,rough,15.5,2,7.816
1080,34.56,-1.6424,-1.0877,0.2331,-0.0009,-0.0169,-2.4536,rough,15.5,2,7.330
1090,34.88,-2.0273,-1.3979,0.2366,0.0021,0.0035,-2.4695,rough,15.5,2,6.840
1100,35.20,-2.4157,-1.7008,0.2303,0.0112,0.0124,-2.4855,rough,15.5,2,6.351
1110,35.52,-2.8087,-2.0010,0.2239,0.0051,0.0230,-2.5004,rough,15.5,2,5.861
1120,35.84,-3.2052,-2.2925,0.2111,0.0068,0.0257,-2.5151,rough,15.5,2,5.372
1130,36.16,-3.6058,-2.5787,0.1983,0.0080,0.0261,-2.5304,rough,15.5,2,4.883
1140,36.48,-4.0095,-2.8587,0.1870,0.0091,0.0198,-2.5452,rough,15.5,2,4.395
1150,36.80,-4.4194,-3.1321,0.1777,0.0128,0.0146,-2.5584,rough,15.5,2,3.905
1160,37.12,-4.8310,-3.3981,0.1718,0.0166,0.0087,-2.5738,rough,15.5,2,3.418
1170,37.44,-5.2466,-3.6569,0.1695,0.0189,0.0007,-2.5897,rough,15.5,2,2.931
1180,37.76,-5.6663,-3.9086,0.1715,0.0237,-0.0069,-2.6060,rough,15.5,2,2.444
1190,38.08,-6.0893,-4.1550,0.1761,0.0272,-0.0132,-2.6212,rough,15.5,2,1.958
1200,38.40,-6.5158,-4.3902,0.1839,0.0305,-0.0211,-2.6437,rough,15.5,2,1.475
1210,38.72,-6.9466,-4.6159,0.1941,0.0356,-0.0223,-2.6690,rough,15.5,2,0.994
1220,39.04,-7.3781,-4.8153,0.2050,0.0398,-0.0250,-2.7419,rough,15.5,3,1.044
1230,39.36,-7.7630,-4.9518,0.2149,0.0520,-0.0044,-2.7186,rough,15.5,0,13.115
1240,39.68,-7.9793,-5.0904,0.2198,0.0277,-0.0573,-2.2481,rough,15.5,0,13.336
1250,40.00,-8.1491,-5.3557,0.2363,0.0070,-0.0496,-1.8746,rough,15.5,0,13.520
1260,40.32,-8.2439,-5.6522,0.2516,-0.0113,-0.0484,-1.4995,rough,15.5,0,13.636
1270,40.64,-8.2129,-5.9594,0.2649,-0.0256,-0.0360,-1.2033,rough,15.5,0,13.634
1280,40.96,-8.0657,-6.2890,0.2767,-0.0313,-0.0264,-1.0225,rough,15.5,0,13.527
1290,41.28,-7.8479,-6.6090,0.2844,-0.0337,-0.0125,-0.8439,rough,15.5,0,13.357
1300,41.60,-7.5495,-6.9017,0.2845,-0.0324,-0.0113,-0.6914,rough,15.5,0,13.112
1310,41.92,-7.1914,-7.1662,0.2837,-0.0295,0.0125,-0.5554,rough,15.5,0,12.812
1320,42.24,-6.7849,-7.3857,0.2756,-0.0240,0.0234,-0.4598,rough,15.5,0,12.463
1330,42.56,-6.3501,-7.5731,0.2633,-0.0214,0.0292,-0.3762,rough,15.5,0,12.087
1340,42.88,-5.8975,-7.7278,0.2477,-0.0173,0.0352,-0.3000,rough,15.5,0,11.691
1350,43.20,-5.4271,-7.8548,0.2291,-0.0127,0.0395,-0.2509,rough,15.5,0,11.276
1360,43.52,-4.9520,-7.9616,0.2091,-0.0100,0.0421,-0.2102,rough,15.5,0,10.856
1370,43.84,-4.4729,-8.0518,0.1881,-0.0075,0.0440,-0.1676,rough,15.5,0,10.433
1380,44.16,-3.9884,-8.1235,0.1665,-0.0059,0.0441,-0.1397,rough,15.5,0,10.004
1390,44.48,-3.5041,-8.1841,0.1452,-0.0040,0.0435,-0.1059,rough,15.5,0,9.577
1400,44.80,-3.0294,-8.2276,0.1250,0.0005,0.0414,-0.0070,rough,15.5,0,9.158
1410,45.12,-2.5507,-8.2239,0.1057,0.0042,0.0387,0.0791,rough,15.5,0,8.721
1420,45.44,-2.0719,-8.1807,0.0880,0.0064,0.0341,0.1407,rough,15.5,0,8.271
1430,45.76,-1.5901,-8.1076,0.0722,0.0075,0.0294,0.1758,rough,15.5,0,7.808
1440,46.08,-1.1144,-8.0180,0.0590,0.0093,0.0226,0.2220,rough,15.5,0,7.345
1450,46.40,-0.6442,-7.9074,0.0490,0.0122,0.0166,0.2649,rough,15.5,0,6.880
1460,46.72,-0.2077,-7.7791,0.0638,-0.0070,-0.1214,0.2944,rough,15.5,0,6.438
1470,47.04,0.2074,-7.6378,0.1412,-0.0403,-0.2798,0.3219,rough,15.5,0,6.009
1480,47.36,0.6238,-7.4796,0.2758,-0.1093,-0.3317,0.3620,rough,15.5,0,5.572
1490,47.68,1.0493,-7.3161,0.4349,-0.1135,-0.3338,0.3907,rough,15.5,0,5.125
1500,48.00,1.4692,-7.1393,0.5934,-0.1195,-0.3363,0.4165,rough,15.5,0,4.677
1510,48.32,1.8830,-6.9510,0.7530,-0.1282,-0.3404,0.4396,rough,15.5,0,4.230
1520,48.64,2.2943,-6.7529,0.9139,-0.1339,-0.3392,0.4644,rough,15.5,0,3.780
1530,48.96,2.6984,-6.5432,1.0740,-0.1420,-0.3387,0.4870,rough,15.5,0,3.331
1540,49.28,3.0989,-6.3248,1.2345,-0.1506,-0.3379,0.5111,rough,15.5,0,2.881
1550,49.60,3.4914,-6.0961,1.3928,-0.1585,-0.3353,0.5326,rough,15.5,0,2.433
1560,49.92,3.8785,-5.8581,1.5491,-0.1681,-0.3302,0.5567,rough,15.5,0,1.985
1570,50.24,4.2597,-5.6112,1.7028,-0.1803,-0.3241,0.5865,rough,15.5,0,1.538
1580,50.56,4.6295,-5.3521,1.8514,-0.1925,-0.3153,0.6203,rough,15.5,0,1.097
1590,50.88,4.9617,-5.1014,1.9835,-0.2255,-0.2917,0.7338,rough,15.5,1,13.213
1600,51.20,5.1927,-4.8301,2.0746,-0.2714,-0.2389,0.9067,rough,15.5,1,13.027
1610,51.52,5.4095,-4.5057,2.1587,-0.3045,-0.1839,1.0496,rough,15.5,1,12.793
1620,51.84,5.5715,-4.1175,2.2217,-0.3327,-0.1410,1.1963,rough,15.5,1,12.487
1630,52.16,5.6973,-3.6908,2.2698,-0.3317,-0.0932,1.3155,rough,15.5,1,12.138
1640,52.48,5.7635,-3.2391,2.2941,-0.3368,-0.0374,1.4568,rough,15.5,1,11.750
1650,52.80,5.7805,-2.7673,2.3013,-0.3328,-0.0085,1.5616,rough,15.5,1,11.327
1660,53.12,5.7539,-2.2878,2.2931,-0.3284,0.0232,1.6471,rough,15.5,1,10.882
1670,53.44,5.6905,-1.8075,2.2719,-0.3237,0.0491,1.7190,rough,15.5,1,10.423
1680,53.76,5.5976,-1.3290,2.2406,-0.3212,0.0694,1.7756,rough,15.5,1,9.954
1690,54.08,5.4834,-0.8551,2.2012,-0.3183,0.0848,1.8175,rough,15.5,1,9.482
1700,54.40,5.3499,-0.3845,2.1545,-0.3211,0.1020,1.8518,rough,15.5,1,9.004
1710,54.72,5.2105,0.0863,2.1041,-0.3299,0.1074,1.8654,rough,15.5,1,8.525
1720,55.04,5.0639,0.5537,2.0503,-0.3320,0.1142,1.8858,rough,15.5,1,8.047
1730,55.36,4.9006,1.0140,1.9891,-0.3342,0.1312,1.9074,rough,15.5,1,7.567
1740,55.68,4.7325,1.4707,1.9256,-0.3398,0.1302,1.9252,rough,15.5,1,7.090
1750,56.00,4.5557,1.9263,1.8580,-0.3327,0.1391,1.9458,rough,15.5,1,6.609
1760,56.32,4.3690,2.3762,1.7866,-0.3301,0.1522,1.9683,rough,15.5,1,6.130
1770,56.64,4.1727,2.8210,1.7084,-0.3336,0.1568,1.9856,rough,15.5,1,5.651
1780,56.96,3.9691,3.2626,1.6267,-0.3240,0.1668,2.0048,rough,15.5,1,5.171
1790,57.28,3.7582,3.7004,1.5384,-0.3176,0.1829,2.0193,rough,15.5,1,4.692
1800,57.60,3.5425,4.1333,1.4466,-0.3117,0.1922,2.0386,rough,15.5,1,4.215
1810,57.92,3.3189,4.5617,1.3496,-0.3059,0.2030,2.0577,rough,15.5,1,3.739
1820,58.24,3.1142,4.9653,1.2581,-0.2804,0.2322,2.1491,rough,15.5,1,3.296
1830,58.56,3.0795,5.1330,1.2376,-0.0497,0.3659,2.9247,rough,15.5,1,3.146
1840,58.88,2.9886,5.2000,1.2033,0.1599,0.3290,-2.7669,rough,15.5,1,3.036
1850,59.20,2.9565,5.2359,1.1898,0.2379,0.2807,-2.5092,rough,15.5,1,2.988
1860,59.52,2.9184,5.2857,1.1739,0.2983,0.2132,-2.2626,rough,15.5,1,2.925
1870,59.84,2.8648,5.3330,1.1522,0.3289,0.1589,-2.1021,rough,15.5,1,2.854
1880,60.16,2.8037,5.3677,1.1273,0.3492,0.1138,-1.9637,rough,15.5,1,2.788
1890,60.48,2.7315,5.3901,1.0988,0.3641,0.0470,-1.7750,rough,15.5,1,2.725
1900,60.80,2.6828,5.3952,1.0795,0.3603,0.0016,-1.6629,rough,15.5,1,2.691
1910,61.12,2.6641,5.3965,1.0733,0.3644,-0.0235,-1.5982,rough,15.5,1,2.678
1920,61.44,2.6589,5.3975,1.0713,0.3641,-0.0307,-1.5797,rough,15.5,1,2.674
1930,61.76,2.6570,5.3980,1.0706,0.3640,-0.0325,-1.5750,rough,15.5,1,2.673
1940,62.08,2.6561,5.3980,1.0702,0.3639,-0.0332,-1.5732,rough,15.5,1,2.672
1950,62.40,2.6556,5.3979,1.0700,0.3638,-0.0334,-1.5726,rough,15.5,1,2.672
1960,62.72,2.6551,5.3976,1.0699,0.3638,-0.0335,-1.5724,rough,15.5,1,2.672
1970,63.04,2.6548,5.3972,1.0698,0.3638,-0.0335,-1.5723,rough,15.5,1,2.672
1980,63.36,2.6545,5.3969,1.0696,0.3637,-0.0336,-1.5722,rough,15.5,1,2.672
1990,63.68,2.6541,5.3977,1.0695,0.3638,-0.0335,-1.5724,rough,15.5,1,2.671
2000,64.00,2.6537,5.3977,1.0693,0.3638,-0.0335,-1.5724,rough,15.5,1,2.671
2010,64.32,2.6533,5.3977,1.0692,0.3638,-0.0335,-1.5724,rough,15.5,1,2.671
2020,64.64,2.6529,5.3976,1.0690,0.3638,-0.0335,-1.5724,rough,15.5,1,2.671
2030,64.96,2.6525,5.3974,1.0689,0.3637,-0.0336,-1.5723,rough,15.5,1,2.670
2040,65.28,2.6522,5.3969,1.0688,0.3637,-0.0336,-1.5722,rough,15.5,1,2.671
2050,65.60,2.6519,5.3965,1.0687,0.3637,-0.0336,-1.5721,rough,15.5,1,2.671
2060,65.92,2.6516,5.3970,1.0686,0.3637,-0.0336,-1.5722,rough,15.5,1,2.670
2070,66.24,2.6513,5.3972,1.0684,0.3637,-0.0336,-1.5723,rough,15.5,1,2.670
2080,66.56,2.6509,5.3972,1.0683,0.3637,-0.0336,-1.5723,rough,15.5,1,2.670
2090,66.88,2.6506,5.3971,1.0682,0.3637,-0.0336,-1.5722,rough,15.5,1,2.669
2100,67.20,2.6503,5.3970,1.0680,0.3637,-0.0336,-1.5722,rough,15.5,1,2.669
2110,67.52,2.6500,5.3970,1.0679,0.3637,-0.0336,-1.5722,rough,15.5,1,2.669
2120,67.84,2.6496,5.3969,1.0678,0.3637,-0.0336,-1.5722,rough,15.5,1,2.669
2130,68.16,2.6493,5.3967,1.0677,0.3637,-0.0336,-1.5721,rough,15.5,1,2.669
2140,68.48,2.6491,5.3964,1.0676,0.3636,-0.0336,-1.5720,rough,15.5,1,2.669
2150,68.80,2.6488,5.3967,1.0675,0.3636,-0.0336,-1.5721,rough,15.5,1,2.669
2160,69.12,2.6485,5.3967,1.0674,0.3636,-0.0336,-1.5721,rough,15.5,1,2.669
2170,69.44,2.6482,5.3966,1.0673,0.3636,-0.0336,-1.5721,rough,15.5,1,2.668
2180,69.76,2.6479,5.3965,1.0672,0.3636,-0.0336,-1.5721,rough,15.5,1,2.668
2190,70.08,2.6477,5.3965,1.0671,0.3636,-0.0336,-1.5721,rough,15.5,1,2.668
2200,70.40,2.6474,5.3964,1.0670,0.3636,-0.0336,-1.5720,rough,15.5,1,2.668
2210,70.72,2.6471,5.3964,1.0669,0.3636,-0.0336,-1.5720,rough,15.5,1,2.668
2220,71.04,2.6469,5.3964,1.0668,0.3636,-0.0336,-1.5720,rough,15.5,1,2.668
2230,71.36,2.6466,5.3964,1.0667,0.3636,-0.0336,-1.5720,rough,15.5,1,2.668
2240,71.68,2.6464,5.3964,1.0666,0.3636,-0.0336,-1.5720,rough,15.5,1,2.667
2250,72.00,2.6461,5.3964,1.0665,0.3636,-0.0336,-1.5720,rough,15.5,1,2.667
2260,72.32,2.6458,5.3964,1.0664,0.3636,-0.0336,-1.5720,rough,15.5,1,2.667
2270,72.64,2.6456,5.3964,1.0663,0.3636,-0.0336,-1.5720,rough,15.5,1,2.667
2280,72.96,2.6453,5.3964,1.0662,0.3636,-0.0336,-1.5720,rough,15.5,1,2.667
2290,73.28,2.6451,5.3964,1.0661,0.3636,-0.0336,-1.5720,rough,15.5,1,2.667
2300,73.60,2.6448,5.3964,1.0660,0.3636,-0.0336,-1.5720,rough,15.5,1,2.667
2310,73.92,2.6446,5.3963,1.0659,0.3636,-0.0336,-1.5720,rough,15.5,1,2.666
2320,74.24,2.6443,5.3963,1.0658,0.3636,-0.0336,-1.5720,rough,15.5,1,2.666
2330,74.56,2.6441,5.3963,1.0657,0.3635,-0.0336,-1.5720,rough,15.5,1,2.666
2340,74.88,2.6438,5.3963,1.0656,0.3635,-0.0336,-1.5720,rough,15.5,1,2.666
2350,75.20,2.6436,5.3963,1.0655,0.3635,-0.0336,-1.5720,rough,15.5,1,2.666
2360,75.52,2.6433,5.3963,1.0654,0.3635,-0.0336,-1.5720,rough,15.5,1,2.666
2370,75.84,2.6431,5.3963,1.0653,0.3635,-0.0336,-1.5720,rough,15.5,1,2.665
2380,76.16,2.6428,5.3963,1.0652,0.3635,-0.0336,-1.5720,rough,15.5,1,2.665
2390,76.48,2.6426,5.3963,1.0651,0.3635,-0.0336,-1.5720,rough,15.5,1,2.665
2400,76.80,2.6423,5.3963,1.0650,0.3635,-0.0336,-1.5720,rough,15.5,1,2.665
2410,77.12,2.6421,5.3963,1.0649,0.3635,-0.0336,-1.5720,rough,15.5,1,2.665
2420,77.44,2.6418,5.3963,1.0648,0.3635,-0.0336,-1.5720,rough,15.5,1,2.665
2430,77.76,2.6416,5.3963,1.0647,0.3635,-0.0336,-1.5720,rough,15.5,1,2.665
2440,78.08,2.6413,5.3963,1.0646,0.3635,-0.0336,-1.5720,rough,15.5,1,2.664
2450,78.40,2.6411,5.3963,1.0645,0.3635,-0.0336,-1.5720,rough,15.5,1,2.664
2460,78.72,2.6408,5.3963,1.0645,0.3635,-0.0336,-1.5720,rough,15.5,1,2.664
2470,79.04,2.6406,5.3963,1.0644,0.3635,-0.0337,-1.5720,rough,15.5,1,2.664
2480,79.36,2.6403,5.3963,1.0643,0.3635,-0.0337,-1.5720,rough,15.5,1,2.664
2490,79.68,2.6401,5.3963,1.0642,0.3635,-0.0337,-1.5720,rough,15.5,1,2.664
2500,80.00,2.6398,5.3963,1.0641,0.3635,-0.0337,-1.5720,rough,15.5,1,2.664
2510,80.32,2.6396,5.3963,1.0640,0.3635,-0.0337,-1.5720,rough,15.5,1,2.663
2520,80.64,2.6393,5.3963,1.0639,0.3635,-0.0337,-1.5720,rough,15.5,1,2.663
2530,80.96,2.6391,5.3963,1.0638,0.3635,-0.0337,-1.5720,rough,15.5,1,2.663
2540,81.28,2.6388,5.3963,1.0637,0.3635,-0.0337,-1.5720,rough,15.5,1,2.663
2550,81.60,2.6386,5.3963,1.0636,0.3635,-0.0337,-1.5720,rough,15.5,1,2.663
2560,81.92,2.6384,5.3963,1.0635,0.3635,-0.0337,-1.5720,rough,15.5,1,2.663
2570,82.24,2.6381,5.3963,1.0634,0.3634,-0.0337,-1.5720,rough,15.5,1,2.663
2580,82.56,2.6379,5.3963,1.0633,0.3634,-0.0337,-1.5720,rough,15.5,1,2.662
2590,82.88,2.6376,5.3963,1.0632,0.3634,-0.0337,-1.5720,rough,15.5,1,2.662
2600,83.20,2.6374,5.3963,1.0631,0.3634,-0.0337,-1.5720,rough,15.5,1,2.662
2610,83.52,2.6371,5.3963,1.0631,0.3634,-0.0337,-1.5720,rough,15.5,1,2.662
2620,83.84,2.6369,5.3963,1.0630,0.3634,-0.0337,-1.5720,rough,15.5,1,2.662
2630,84.16,2.6367,5.3963,1.0629,0.3634,-0.0337,-1.5720,rough,15.5,1,2.662
2640,84.48,2.6364,5.3963,1.0628,0.3634,-0.0337,-1.5720,rough,15.5,1,2.662
2650,84.80,2.6362,5.3963,1.0627,0.3634,-0.0337,-1.5720,rough,15.5,1,2.661
2660,85.12,2.6359,5.3962,1.0626,0.3634,-0.0337,-1.5720,rough,15.5,1,2.661
2670,85.44,2.6357,5.3962,1.0625,0.3634,-0.0337,-1.5719,rough,15.5,1,2.661
2680,85.76,2.6355,5.3962,1.0624,0.3634,-0.0337,-1.5719,rough,15.5,1,2.661
2690,86.08,2.6352,5.3962,1.0623,0.3634,-0.0337,-1.5719,rough,15.5,1,2.661
2700,86.40,2.6350,5.3962,1.0622,0.3634,-0.0337,-1.5719,rough,15.5,1,2.661
2710,86.72,2.6347,5.3962,1.0621,0.3634,-0.0337,-1.5719,rough,15.5,1,2.661
2720,87.04,2.6345,5.3962,1.0620,0.3634,-0.0337,-1.5719,rough,15.5,1,2.660
2730,87.36,2.6343,5.3962,1.0620,0.3634,-0.0337,-1.5719,rough,15.5,1,2.660
2740,87.68,2.6340,5.3962,1.0619,0.3634,-0.0337,-1.5719,rough,15.5,1,2.660
2750,88.00,2.6338,5.3962,1.0618,0.3634,-0.0337,-1.5719,rough,15.5,1,2.660
2760,88.32,2.6336,5.3962,1.0617,0.3634,-0.0337,-1.5719,rough,15.5,1,2.660
2770,88.64,2.6333,5.3962,1.0616,0.3634,-0.0337,-1.5719,rough,15.5,1,2.660
2780,88.96,2.6331,5.3962,1.0615,0.3634,-0.0337,-1.5719,rough,15.5,1,2.660
2790,89.28,2.6329,5.3962,1.0614,0.3634,-0.0337,-1.5719,rough,15.5,1,2.659
2800,89.60,2.6326,5.3962,1.0613,0.3634,-0.0337,-1.5719,rough,15.5,1,2.659
2810,89.92,2.6324,5.3962,1.0612,0.3634,-0.0337,-1.5719,rough,15.5,1,2.659
2820,90.24,2.6322,5.3962,1.0611,0.3633,-0.0337,-1.5719,rough,15.5,1,2.659
2830,90.56,2.6319,5.3962,1.0611,0.3633,-0.0337,-1.5719,rough,15.5,1,2.659
2840,90.88,2.6317,5.3962,1.0610,0.3633,-0.0337,-1.5719,rough,15.5,1,2.659
2850,91.20,2.6315,5.3962,1.0609,0.3633,-0.0337,-1.5719,rough,15.5,1,2.659
2860,91.52,2.6312,5.3962,1.0608,0.3633,-0.0337,-1.5719,rough,15.5,1,2.658
2870,91.84,2.6310,5.3962,1.0607,0.3634,-0.0337,-1.5719,rough,15.5,1,2.658
2880,92.16,2.6305,5.3968,1.0604,0.3635,-0.0325,-1.5725,rough,15.5,1,2.658
2890,92.48,2.6301,5.3966,1.0603,0.3634,-0.0334,-1.5721,rough,15.5,1,2.657
2900,92.80,2.6298,5.3966,1.0602,0.3635,-0.0338,-1.5720,rough,15.5,1,2.657
2910,93.12,2.6295,5.3967,1.0602,0.3635,-0.0339,-1.5720,rough,15.5,1,2.657
2920,93.44,2.6293,5.3967,1.0601,0.3635,-0.0339,-1.5719,rough,15.5,1,2.657
2930,93.76,2.6291,5.3967,1.0600,0.3635,-0.0339,-1.5719,rough,15.5,1,2.657
2940,94.08,2.6289,5.3968,1.0599,0.3635,-0.0339,-1.5719,rough,15.5,1,2.657
2950,94.40,2.6287,5.3968,1.0598,0.3635,-0.0339,-1.5719,rough,15.5,1,2.656
2960,94.72,2.6283,5.3969,1.0597,0.3642,-0.0346,-1.5722,rough,15.5,1,2.656
2970,95.04,2.6279,5.3972,1.0594,0.3636,-0.0330,-1.5725,rough,15.5,1,2.656
2980,95.36,2.6276,5.3970,1.0594,0.3634,-0.0336,-1.5720,rough,15.5,1,2.656
2990,95.68,2.6273,5.3971,1.0593,0.3634,-0.0338,-1.5719,rough,15.5,1,2.655
3000,96.00,2.6271,5.3971,1.0592,0.3634,-0.0339,-1.5718,rough,15.5,1,2.655
3010,96.32,2.6269,5.3971,1.0591,0.3634,-0.0339,-1.5718,rough,15.5,1,2.655
3020,96.64,2.6267,5.3972,1.0590,0.3634,-0.0339,-1.5718,rough,15.5,1,2.655
3030,96.96,2.6265,5.3972,1.0590,0.3634,-0.0339,-1.5718,rough,15.5,1,2.655
3040,97.28,2.6263,5.3972,1.0589,0.3634,-0.0339,-1.5718,rough,15.5,1,2.655
3050,97.60,2.6261,5.3972,1.0588,0.3634,-0.0339,-1.5718,rough,15.5,1,2.654
3060,97.92,2.6259,5.3973,1.0588,0.3634,-0.0339,-1.5718,rough,15.5,1,2.654
3070,98.24,2.6258,5.3973,1.0587,0.3633,-0.0338,-1.5718,rough,15.5,1,2.654
3080,98.56,2.6256,5.3973,1.0586,0.3633,-0.0338,-1.5717,rough,15.5,1,2.654
3090,98.88,2.6254,5.3974,1.0585,0.3633,-0.0338,-1.5717,rough,15.5,1,2.654
3100,99.20,2.6252,5.3974,1.0585,0.3633,-0.0338,-1.5717,rough,15.5,1,2.654
3110,99.52,2.6242,5.3974,1.0579,0.3632,-0.0356,-1.5641,rough,15.5,1,2.653
3120,99.84,2.6253,5.3973,1.0585,0.3632,-0.0344,-1.5697,rough,15.5,1,2.654
3130,100.16,2.6255,5.3973,1.0586,0.3633,-0.0340,-1.5712,rough,15.5,1,2.654
3140,100.48,2.6254,5.3974,1.0585,0.3633,-0.0339,-1.5716,rough,15.5,1,2.654
3150,100.80,2.6252,5.3974,1.0585,0.3633,-0.0339,-1.5717,rough,15.5,1,2.654
3160,101.12,2.6239,5.3976,1.0577,0.3631,-0.0355,-1.5628,rough,15.5,1,2.653
3170,101.44,2.6252,5.3973,1.0584,0.3632,-0.0346,-1.5690,rough,15.5,1,2.654
3180,101.76,2.6255,5.3973,1.0585,0.3633,-0.0340,-1.5710,rough,15.5,1,2.654
3190,102.08,2.6254,5.3974,1.0585,0.3633,-0.0339,-1.5715,rough,15.5,1,2.654
3200,102.40,2.6253,5.3974,1.0585,0.3633,-0.0339,-1.5717,rough,15.5,1,2.654
3210,102.72,2.6239,5.3980,1.0572,0.3630,-0.0323,-1.5617,rough,15.5,1,2.653
3220,103.04,2.6250,5.3973,1.0583,0.3632,-0.0348,-1.5682,rough,15.5,1,2.654
3230,103.36,2.6254,5.3973,1.0585,0.3633,-0.0341,-1.5708,rough,15.5,1,2.654
3240,103.68,2.6254,5.3973,1.0585,0.3633,-0.0339,-1.5715,rough,15.5,1,2.654
3250,104.00,2.6253,5.3974,1.0585,0.3633,-0.0339,-1.5717,rough,15.5,1,2.654
3260,104.32,2.6251,5.3974,1.0584,0.3633,-0.0338,-1.5717,rough,15.5,1,2.654
3270,104.64,2.6248,5.3973,1.0582,0.3632,-0.0351,-1.5671,rough,15.5,1,2.654
3280,104.96,2.6254,5.3973,1.0585,0.3633,-0.0341,-1.5705,rough,15.5,1,2.654
3290,105.28,2.6254,5.3973,1.0585,0.3633,-0.0339,-1.5714,rough,15.5,1,2.654
3300,105.60,2.6253,5.3974,1.0585,0.3633,-0.0339,-1.5716,rough,15.5,1,2.654
3310,105.92,2.6251,5.3974,1.0584,0.3633,-0.0338,-1.5717,rough,15.5,1,2.654
3320,106.24,2.6247,5.3973,1.0582,0.3632,-0.0353,-1.5664,rough,15.5,1,2.654
3330,106.56,2.6254,5.3973,1.0585,0.3633,-0.0342,-1.5703,rough,15.5,1,2.654
3340,106.88,2.6254,5.3973,1.0585,0.3633,-0.0340,-1.5713,rough,15.5,1,2.654
3350,107.20,2.6253,5.3974,1.0585,0.3633,-0.0339,-1.5716,rough,15.5,1,2.654
3360,107.52,2.6252,5.3974,1.0584,0.3633,-0.0339,-1.5717,rough,15.5,1,2.654
3370,107.84,2.6246,5.3973,1.0581,0.3632,-0.0354,-1.5657,rough,15.5,1,2.653
3380,108.16,2.6254,5.3973,1.0585,0.3633,-0.0342,-1.5701,rough,15.5,1,2.654
3390,108.48,2.6255,5.3973,1.0586,0.3633,-0.0340,-1.5713,rough,15.5,1,2.654
3400,108.80,2.6253,5.3974,1.0585,0.3633,-0.0339,-1.5716,rough,15.5,1,2.654
3410,109.12,2.6252,5.3974,1.0585,0.3633,-0.0339,-1.5717,rough,15.5,1,2.654
3420,109.44,2.6242,5.3974,1.0579,0.3632,-0.0356,-1.5641,rough,15.5,1,2.653
3430,109.76,2.6253,5.3973,1.0585,0.3632,-0.0344,-1.5697,rough,15.5,1,2.654
3440,110.08,2.6254,5.3973,1.0585,0.3633,-0.0340,-1.5712,rough,15.5,1,2.654
3450,110.40,2.6254,5.3974,1.0585,0.3633,-0.0339,-1.5716,rough,15.5,1,2.654
3460,110.72,2.6252,5.3974,1.0585,0.3633,-0.0339,-1.5717,rough,15.5,1,2.654
3470,111.04,2.6240,5.3975,1.0578,0.3631,-0.0357,-1.5630,rough,15.5,1,2.653
3480,111.36,2.6252,5.3973,1.0584,0.3632,-0.0345,-1.5694,rough,15.5,1,2.654
3490,111.68,2.6255,5.3973,1.0585,0.3633,-0.0340,-1.5711,rough,15.5,1,2.654
3500,112.00,2.6254,5.3974,1.0585,0.3633,-0.0339,-1.5716,rough,15.5,1,2.654
3510,112.32,2.6252,5.3974,1.0585,0.3633,-0.0339,-1.5717,rough,15.5,1,2.654
3520,112.64,2.6239,5.3976,1.0577,0.3631,-0.0355,-1.5628,rough,15.5,1,2.653
3530,112.96,2.6252,5.3973,1.0584,0.3632,-0.0346,-1.5690,rough,15.5,1,2.654
3540,113.28,2.6255,5.3973,1.0586,0.3633,-0.0340,-1.5710,rough,15.5,1,2.654
3550,113.60,2.6254,5.3974,1.0585,0.3633,-0.0339,-1.5715,rough,15.5,1,2.654
3560,113.92,2.6253,5.3974,1.0585,0.3633,-0.0339,-1.5717,rough,15.5,1,2.654
3570,114.24,2.6239,5.3980,1.0572,0.3630,-0.0323,-1.5617,rough,15.5,1,2.653
3580,114.56,2.6250,5.3973,1.0584,0.3632,-0.0348,-1.5681,rough,15.5,1,2.654
3590,114.88,2.6255,5.3973,1.0585,0.3633,-0.0341,-1.5708,rough,15.5,1,2.654
3600,115.20,2.6254,5.3973,1.0585,0.3633,-0.0339,-1.5715,rough,15.5,1,2.654
3610,115.52,2.6253,5.3974,1.0585,0.3633,-0.0339,-1.5717,rough,15.5,1,2.654
3620,115.84,2.6251,5.3974,1.0584,0.3633,-0.0338,-1.5717,rough,15.5,1,2.654
3630,116.16,2.6248,5.3973,1.0582,0.3632,-0.0351,-1.5671,rough,15.5,1,2.654
3640,116.48,2.6254,5.3973,1.0585,0.3633,-0.0341,-1.5705,rough,15.5,1,2.654
3650,116.80,2.6254,5.3973,1.0586,0.3633,-0.0339,-1.5714,rough,15.5,1,2.654
3660,117.12,2.6253,5.3974,1.0585,0.3633,-0.0339,-1.5716,rough,15.5,1,2.654
3670,117.44,2.6252,5.3974,1.0584,0.3633,-0.0339,-1.5717,rough,15.5,1,2.654
3680,117.76,2.6245,5.3973,1.0581,0.3632,-0.0354,-1.5657,rough,15.5,1,2.653
3690,118.08,2.6254,5.3973,1.0585,0.3633,-0.0342,-1.5701,rough,15.5,1,2.654
3700,118.40,2.6254,5.3973,1.0585,0.3633,-0.0340,-1.5713,rough,15.5,1,2.654
3710,118.72,2.6253,5.3974,1.0585,0.3633,-0.0339,-1.5716,rough,15.5,1,2.654
3720,119.04,2.6252,5.3974,1.0584,0.3633,-0.0339,-1.5717,rough,15.5,1,2.654
3730,119.36,2.6244,5.3973,1.0580,0.3632,-0.0355,-1.5650,rough,15.5,1,2.653
3740,119.68,2.6253,5.3973,1.0585,0.3633,-0.0343,-1.5699,rough,15.5,1,2.654
3750,120.00,2.6254,5.3973,1.0585,0.3633,-0.0340,-1.5712,rough,15.5,1,2.654
3760,120.32,2.6253,5.3974,1.0585,0.3633,-0.0339,-1.5716,rough,15.5,1,2.654
3770,120.64,2.6252,5.3974,1.0585,0.3633,-0.0339,-1.5717,rough,15.5,1,2.654
3780,120.96,2.6242,5.3974,1.0579,0.3632,-0.0356,-1.5641,rough,15.5,1,2.653
3790,121.28,2.6253,5.3973,1.0585,0.3632,-0.0344,-1.5697,rough,15.5,1,2.654
3800,121.60,2.6254,5.3973,1.0585,0.3633,-0.0340,-1.5712,rough,15.5,1,2.654
3810,121.92,2.6254,5.3974,1.0585,0.3633,-0.0339,-1.5716,rough,15.5,1,2.654
3820,122.24,2.6252,5.3974,1.0585,0.3633,-0.0339,-1.5717,rough,15.5,1,2.654
3830,122.56,2.6240,5.3975,1.0578,0.3631,-0.0357,-1.5630,rough,15.5,1,2.653
3840,122.88,2.6252,5.3973,1.0584,0.3632,-0.0345,-1.5694,rough,15.5,1,2.654
3850,123.20,2.6255,5.3973,1.0585,0.3633,-0.0340,-1.5711,rough,15.5,1,2.654
3860,123.52,2.6254,5.3974,1.0585,0.3633,-0.0339,-1.5716,rough,15.5,1,2.654
3870,123.84,2.6252,5.3974,1.0585,0.3633,-0.0339,-1.5717,rough,15.5,1,2.654
3880,124.16,2.6239,5.3976,1.0577,0.3631,-0.0355,-1.5628,rough,15.5,1,2.653
3890,124.48,2.6252,5.3973,1.0584,0.3632,-0.0346,-1.5690,rough,15.5,1,2.654
3900,124.80,2.6255,5.3973,1.0586,0.3633,-0.0340,-1.5710,rough,15.5,1,2.654
3910,125.12,2.6254,5.3974,1.0585,0.3633,-0.0339,-1.5715,rough,15.5,1,2.654
3920,125.44,2.6253,5.3974,1.0585,0.3633,-0.0339,-1.5717,rough,15.5,1,2.654
3930,125.76,2.6239,5.3980,1.0572,0.3630,-0.0323,-1.5617,rough,15.5,1,2.653
3940,126.08,2.6250,5.3973,1.0584,0.3632,-0.0348,-1.5681,rough,15.5,1,2.654
3950,126.40,2.6255,5.3973,1.0585,0.3633,-0.0341,-1.5708,rough,15.5,1,2.654
3960,126.72,2.6254,5.3973,1.0586,0.3633,-0.0339,-1.5715,rough,15.5,1,2.654
3970,127.04,2.6253,5.3974,1.0585,0.3633,-0.0339,-1.5717,rough,15.5,1,2.654
3980,127.36,2.6251,5.3974,1.0584,0.3633,-0.0338,-1.5717,rough,15.5,1,2.654
3990,127.68,2.6248,5.3973,1.0583,0.3632,-0.0351,-1.5671,rough,15.5,1,2.654
4000,128.00,2.6254,5.3973,1.0585,0.3633,-0.0341,-1.5705,rough,15.5,1,2.654
4010,128.32,2.6255,5.3973,1.0586,0.3633,-0.0339,-1.5714,rough,15.5,1,2.654
4020,128.64,2.6253,5.3974,1.0585,0.3633,-0.0339,-1.5716,rough,15.5,1,2.654
4030,128.96,2.6252,5.3974,1.0584,0.3633,-0.0339,-1.5717,rough,15.5,1,2.654
4040,129.28,2.6246,5.3973,1.0581,0.3632,-0.0354,-1.5657,rough,15.5,1,2.653
4050,129.60,2.6254,5.3973,1.0585,0.3633,-0.0343,-1.5701,rough,15.5,1,2.654
4060,129.92,2.6255,5.3973,1.0586,0.3633,-0.0340,-1.5713,rough,15.5,1,2.654
4070,130.24,2.6254,5.3974,1.0585,0.3633,-0.0339,-1.5716,rough,15.5,1,2.654
4080,130.56,2.6252,5.3974,1.0585,0.3633,-0.0339,-1.5717,rough,15.5,1,2.654
4090,130.88,2.6240,5.3975,1.0578,0.3631,-0.0357,-1.5631,rough,15.5,1,2.653
4100,131.20,2.6252,5.3973,1.0584,0.3632,-0.0345,-1.5694,rough,15.5,1,2.654
4110,131.52,2.6254,5.3973,1.0585,0.3633,-0.0340,-1.5711,rough,15.5,1,2.654
4120,131.84,2.6254,5.3974,1.0585,0.3633,-0.0339,-1.5716,rough,15.5,1,2.654
4130,132.16,2.6252,5.3974,1.0585,0.3633,-0.0339,-1.5717,rough,15.5,1,2.654
4140,132.48,2.6239,5.3976,1.0577,0.3631,-0.0354,-1.5629,rough,15.5,1,2.653
4150,132.80,2.6252,5.3973,1.0584,0.3632,-0.0346,-1.5690,rough,15.5,1,2.654
4160,133.12,2.6255,5.3973,1.0585,0.3633,-0.0340,-1.5710,rough,15.5,1,2.654
4170,133.44,2.6254,5.3974,1.0585,0.3633,-0.0339,-1.5715,rough,15.5,1,2.654
4180,133.76,2.6252,5.3974,1.0585,0.3633,-0.0339,-1.5717,rough,15.5,1,2.654
4190,134.08,2.6239,5.3978,1.0576,0.3631,-0.0351,-1.5626,rough,15.5,1,2.653
4200,134.40,2.6251,5.3973,1.0584,0.3632,-0.0347,-1.5686,rough,15.5,1,2.654
4210,134.72,2.6255,5.3973,1.0585,0.3633,-0.0340,-1.5709,rough,15.5,1,2.654
4220,135.04,2.6254,5.3974,1.0585,0.3633,-0.0339,-1.5715,rough,15.5,1,2.654
4230,135.36,2.6253,5.3974,1.0585,0.3633,-0.0339,-1.5717,rough,15.5,1,2.654
4240,135.68,2.6241,5.3978,1.0581,0.3629,-0.0383,-1.5624,rough,15.5,1,2.653
4250,136.00,2.6249,5.3973,1.0583,0.3632,-0.0350,-1.5677,rough,15.5,1,2.654
4260,136.32,2.6254,5.3973,1.0585,0.3633,-0.0341,-1.5706,rough,15.5,1,2.654
4270,136.64,2.6254,5.3973,1.0585,0.3633,-0.0339,-1.5714,rough,15.5,1,2.654
4280,136.96,2.6253,5.3974,1.0585,0.3633,-0.0339,-1.5717,rough,15.5,1,2.654
4290,137.28,2.6251,5.3974,1.0584,0.3633,-0.0338,-1.5717,rough,15.5,1,2.654
4300,137.60,2.6248,5.3973,1.0583,0.3632,-0.0351,-1.5671,rough,15.5,1,2.654
4310,137.92,2.6254,5.3973,1.0585,0.3633,-0.0341,-1.5705,rough,15.5,1,2.654
4320,138.24,2.6254,5.3973,1.0586,0.3633,-0.0339,-1.5714,rough,15.5,1,2.654
4330,138.56,2.6253,5.3974,1.0585,0.3633,-0.0339,-1.5716,rough,15.5,1,2.654
4340,138.88,2.6252,5.3974,1.0584,0.3633,-0.0339,-1.5717,rough,15.5,1,2.654
4350,139.20,2.6246,5.3973,1.0581,0.3632,-0.0354,-1.5657,rough,15.5,1,2.653
4360,139.52,2.6254,5.3973,1.0585,0.3633,-0.0342,-1.5701,rough,15.5,1,2.654
4370,139.84,2.6255,5.3973,1.0586,0.3633,-0.0340,-1.5713,rough,15.5,1,2.654
4380,140.16,2.6254,5.3974,1.0585,0.3633,-0.0339,-1.5716,rough,15.5,1,2.654
4390,140.48,2.6252,5.3974,1.0585,0.3633,-0.0339,-1.5717,rough,15.5,1,2.654
4400,140.80,2.6242,5.3974,1.0579,0.3632,-0.0356,-1.5641,rough,15.5,1,2.653
4410,141.12,2.6253,5.3973,1.0585,0.3632,-0.0344,-1.5697,rough,15.5,1,2.654
4420,141.44,2.6255,5.3973,1.0586,0.3633,-0.0340,-1.5712,rough,15.5,1,2.654
4430,141.76,2.6254,5.3974,1.0585,0.3633,-0.0339,-1.5716,rough,15.5,1,2.654
4440,142.08,2.6252,5.3974,1.0585,0.3633,-0.0339,-1.5717,rough,15.5,1,2.654
4450,142.40,2.6240,5.3975,1.0578,0.3631,-0.0358,-1.5630,rough,15.5,1,2.653
4460,142.72,2.6253,5.3973,1.0585,0.3632,-0.0345,-1.5693,rough,15.5,1,2.654
4470,143.04,2.6255,5.3973,1.0586,0.3633,-0.0340,-1.5711,rough,15.5,1,2.654
4480,143.36,2.6254,5.3974,1.0585,0.3633,-0.0339,-1.5716,rough,15.5,1,2.654
4490,143.68,2.6253,5.3974,1.0585,0.3633,-0.0339,-1.5717,rough,15.5,1,2.654
4500,144.00,2.6239,5.3980,1.0572,0.3630,-0.0322,-1.5618,rough,15.5,1,2.653
4510,144.32,2.6250,5.3973,1.0583,0.3632,-0.0348,-1.5682,rough,15.5,1,2.654
4520,144.64,2.6254,5.3973,1.0585,0.3633,-0.0341,-1.5708,rough,15.5,1,2.654
4530,144.96,2.6254,5.3974,1.0585,0.3633,-0.0339,-1.5715,rough,15.5,1,2.654
4540,145.28,2.6253,5.3974,1.0585,0.3633,-0.0339,-1.5717,rough,15.5,1,2.654
4550,145.60,2.6241,5.3978,1.0581,0.3629,-0.0383,-1.5624,rough,15.5,1,2.653
4560,145.92,2.6249,5.3973,1.0583,0.3632,-0.0350,-1.5676,rough,15.5,1,2.654
4570,146.24,2.6254,5.3973,1.0585,0.3633,-0.0341,-1.5706,rough,15.5,1,2.654
4580,146.56,2.6254,5.3973,1.0585,0.3633,-0.0339,-1.5714,rough,15.5,1,2.654
4590,146.88,2.6253,5.3974,1.0585,0.3633,-0.0339,-1.5717,rough,15.5,1,2.654
4600,147.20,2.6251,5.3974,1.0584,0.3633,-0.0338,-1.5717,rough,15.5,1,2.654
4610,147.52,2.6247,5.3973,1.0582,0.3632,-0.0353,-1.5664,rough,15.5,1,2.654
4620,147.84,2.6254,5.3973,1.0585,0.3633,-0.0342,-1.5703,rough,15.5,1,2.654
4630,148.16,2.6254,5.3973,1.0585,0.3633,-0.0340,-1.5713,rough,15.5,1,2.654
4640,148.48,2.6253,5.3974,1.0585,0.3633,-0.0339,-1.5716,rough,15.5,1,2.654
4650,148.80,2.6252,5.3974,1.0584,0.3633,-0.0339,-1.5717,rough,15.5,1,2.654
4660,149.12,2.6246,5.3973,1.0581,0.3632,-0.0354,-1.5657,rough,15.5,1,2.653
4670,149.44,2.6254,5.3973,1.0585,0.3633,-0.0342,-1.5701,rough,15.5,1,2.654
4680,149.76,2.6255,5.3973,1.0586,0.3633,-0.0340,-1.5713,rough,15.5,1,2.654
4690,150.08,2.6253,5.3974,1.0585,0.3633,-0.0339,-1.5716,rough,15.5,1,2.654
4700,150.40,2.6252,5.3974,1.0585,0.3633,-0.0339,-1.5717,rough,15.5,1,2.654
4710,150.72,2.6242,5.3974,1.0579,0.3632,-0.0356,-1.5641,rough,15.5,1,2.653
4720,151.04,2.6253,5.3973,1.0585,0.3632,-0.0344,-1.5697,rough,15.5,1,2.654
4730,151.36,2.6255,5.3973,1.0586,0.3633,-0.0340,-1.5712,rough,15.5,1,2.654
4740,151.68,2.6254,5.3974,1.0585,0.3633,-0.0339,-1.5716,rough,15.5,1,2.654
4750,152.00,2.6252,5.3974,1.0585,0.3633,-0.0339,-1.5717,rough,15.5,1,2.654
4760,152.32,2.6240,5.3975,1.0578,0.3631,-0.0358,-1.5630,rough,15.5,1,2.653
4770,152.64,2.6253,5.3973,1.0585,0.3632,-0.0345,-1.5693,rough,15.5,1,2.654
4780,152.96,2.6255,5.3973,1.0586,0.3633,-0.0340,-1.5711,rough,15.5,1,2.654
4790,153.28,2.6254,5.3974,1.0585,0.3633,-0.0339,-1.5716,rough,15.5,1,2.654
4800,153.60,2.6253,5.3974,1.0585,0.3633,-0.0339,-1.5717,rough,15.5,1,2.654
4810,153.92,2.6239,5.3978,1.0576,0.3631,-0.0351,-1.5626,rough,15.5,1,2.653
4820,154.24,2.6251,5.3973,1.0584,0.3632,-0.0347,-1.5686,rough,15.5,1,2.654
4830,154.56,2.6255,5.3973,1.0586,0.3633,-0.0340,-1.5709,rough,15.5,1,2.654
4840,154.88,2.6254,5.3973,1.0585,0.3633,-0.0339,-1.5715,rough,15.5,1,2.654
4850,155.20,2.6253,5.3974,1.0585,0.3633,-0.0339,-1.5717,rough,15.5,1,2.654
4860,155.52,2.6251,5.3974,1.0584,0.3633,-0.0338,-1.5717,rough,15.5,1,2.654
4870,155.84,2.6248,5.3973,1.0582,0.3632,-0.0351,-1.5671,rough,15.5,1,2.654
4880,156.16,2.6254,5.3973,1.0585,0.3633,-0.0341,-1.5705,rough,15.5,1,2.654
4890,156.48,2.6254,5.3973,1.0585,0.3633,-0.0339,-1.5714,rough,15.5,1,2.654
4900,156.80,2.6253,5.3974,1.0585,0.3633,-0.0339,-1.5716,rough,15.5,1,2.654
4910,157.12,2.6251,5.3974,1.0584,0.3633,-0.0339,-1.5717,rough,15.5,1,2.654
4920,157.44,2.6247,5.3973,1.0582,0.3632,-0.0353,-1.5664,rough,15.5,1,2.654
4930,157.76,2.6254,5.3973,1.0585,0.3633,-0.0342,-1.5703,rough,15.5,1,2.654
4940,158.08,2.6254,5.3973,1.0586,0.3633,-0.0340,-1.5713,rough,15.5,1,2.654
4950,158.40,2.6253,5.3974,1.0585,0.3633,-0.0339,-1.5716,rough,15.5,1,2.654
4960,158.72,2.6252,5.3974,1.0584,0.3633,-0.0339,-1.5717,rough,15.5,1,2.654
4970,159.04,2.6246,5.3973,1.0581,0.3632,-0.0354,-1.5657,rough,15.5,1,2.653
4980,159.36,2.6254,5.3973,1.0585,0.3633,-0.0342,-1.5701,rough,15.5,1,2.654
4990,159.68,2.6255,5.3973,1.0586,0.3633,-0.0340,-1.5713,rough,15.5,1,2.654
5000,160.00,2.6254,5.3974,1.0585,0.3633,-0.0339,-1.5716,rough,15.5,1,2.654
5010,160.32,2.6252,5.3974,1.0585,0.3633,-0.0339,-1.5717,rough,15.5,1,2.654
5020,160.64,2.6242,5.3974,1.0579,0.3632,-0.0356,-1.5640,rough,15.5,1,2.653
5030,160.96,2.6253,5.3973,1.0585,0.3632,-0.0344,-1.5696,rough,15.5,1,2.654
5040,161.28,2.6255,5.3973,1.0586,0.3633,-0.0340,-1.5711,rough,15.5,1,2.654
5050,161.60,2.6254,5.3974,1.0585,0.3633,-0.0339,-1.5716,rough,15.5,1,2.654
5060,161.92,2.6252,5.3974,1.0585,0.3633,-0.0339,-1.5717,rough,15.5,1,2.654
5070,162.24,2.6239,5.3976,1.0577,0.3631,-0.0355,-1.5628,rough,15.5,1,2.653
5080,162.56,2.6252,5.3973,1.0584,0.3632,-0.0346,-1.5690,rough,15.5,1,2.654
5090,162.88,2.6255,5.3973,1.0586,0.3633,-0.0340,-1.5710,rough,15.5,1,2.654
5100,163.20,2.6254,5.3974,1.0585,0.3633,-0.0339,-1.5715,rough,15.5,1,2.654
5110,163.52,2.6253,5.3974,1.0585,0.3633,-0.0339,-1.5717,rough,15.5,1,2.654
5120,163.84,2.6239,5.3980,1.0572,0.3630,-0.0323,-1.5617,rough,15.5,1,2.653
5130,164.16,2.6250,5.3973,1.0584,0.3632,-0.0348,-1.5682,rough,15.5,1,2.654
5140,164.48,2.6254,5.3973,1.0585,0.3633,-0.0341,-1.5708,rough,15.5,1,2.654
5150,164.80,2.6254,5.3973,1.0585,0.3633,-0.0339,-1.5715,rough,15.5,1,2.654
5160,165.12,2.6253,5.3974,1.0585,0.3633,-0.0339,-1.5717,rough,15.5,1,2.654
5170,165.44,2.6251,5.3974,1.0584,0.3633,-0.0338,-1.5717,rough,15.5,1,2.654
5180,165.76,2.6248,5.3973,1.0582,0.3632,-0.0351,-1.5671,rough,15.5,1,2.654
5190,166.08,2.6254,5.3973,1.0585,0.3633,-0.0341,-1.5705,rough,15.5,1,2.654
5200,166.40,2.6254,5.3973,1.0585,0.3633,-0.0339,-1.5714,rough,15.5,1,2.654
5210,166.72,2.6253,5.3974,1.0585,0.3633,-0.0339,-1.5716,rough,15.5,1,2.654
5220,167.04,2.6251,5.3974,1.0584,0.3633,-0.0339,-1.5717,rough,15.5,1,2.654
5230,167.36,2.6247,5.3973,1.0582,0.3632,-0.0353,-1.5664,rough,15.5,1,2.654
5240,167.68,2.6254,5.3973,1.0585,0.3633,-0.0342,-1.5703,rough,15.5,1,2.654
5250,168.00,2.6254,5.3973,1.0586,0.3633,-0.0340,-1.5713,rough,15.5,1,2.654
5260,168.32,2.6253,5.3974,1.0585,0.3633,-0.0339,-1.5716,rough,15.5,1,2.654
5270,168.64,2.6252,5.3974,1.0584,0.3633,-0.0339,-1.5717,rough,15.5,1,2.654
5280,168.96,2.6246,5.3973,1.0581,0.3632,-0.0354,-1.5657,rough,15.5,1,2.653
5290,169.28,2.6254,5.3973,1.0585,0.3633,-0.0343,-1.5701,rough,15.5,1,2.654
5300,169.60,2.6255,5.3973,1.0586,0.3633,-0.0340,-1.5713,rough,15.5,1,2.654
5310,169.92,2.6254,5.3974,1.0585,0.3633,-0.0339,-1.5716,rough,15.5,1,2.654
5320,170.24,2.6252,5.3974,1.0585,0.3633,-0.0339,-1.5717,rough,15.5,1,2.654
5330,170.56,2.6240,5.3975,1.0578,0.3631,-0.0357,-1.5631,rough,15.5,1,2.653
5340,170.88,2.6252,5.3973,1.0584,0.3632,-0.0345,-1.5694,rough,15.5,1,2.654
5350,171.20,2.6254,5.3973,1.0585,0.3633,-0.0340,-1.5711,rough,15.5,1,2.654
5360,171.52,2.6254,5.3974,1.0585,0.3633,-0.0339,-1.5716,rough,15.5,1,2.654
5370,171.84,2.6252,5.3974,1.0585,0.3633,-0.0339,-1.5717,rough,15.5,1,2.654
5380,172.16,2.6239,5.3976,1.0577,0.3631,-0.0354,-1.5629,rough,15.5,1,2.653
5390,172.48,2.6252,5.3973,1.0584,0.3632,-0.0346,-1.5690,rough,15.5,1,2.654
5400,172.80,2.6255,5.3973,1.0585,0.3633,-0.0340,-1.5710,rough,15.5,1,2.654
5410,173.12,2.6254,5.3974,1.0585,0.3633,-0.0339,-1.5715,rough,15.5,1,2.654
5420,173.44,2.6252,5.3974,1.0585,0.3633,-0.0339,-1.5717,rough,15.5,1,2.654
5430,173.76,2.6239,5.3978,1.0576,0.3631,-0.0351,-1.5626,rough,15.5,1,2.653
5440,174.08,2.6251,5.3973,1.0584,0.3632,-0.0347,-1.5686,rough,15.5,1,2.654
5450,174.40,2.6255,5.3973,1.0585,0.3633,-0.0340,-1.5709,rough,15.5,1,2.654
5460,174.72,2.6254,5.3974,1.0585,0.3633,-0.0339,-1.5715,rough,15.5,1,2.654
5470,175.04,2.6253,5.3974,1.0585,0.3633,-0.0339,-1.5717,rough,15.5,1,2.654
5480,175.36,2.6241,5.3978,1.0581,0.3629,-0.0383,-1.5624,rough,15.5,1,2.653
5490,175.68,2.6249,5.3973,1.0583,0.3632,-0.0350,-1.5676,rough,15.5,1,2.654
5500,176.00,2.6254,5.3973,1.0585,0.3633,-0.0341,-1.5706,rough,15.5,1,2.654
5510,176.32,2.6254,5.3973,1.0585,0.3633,-0.0339,-1.5714,rough,15.5,1,2.654
5520,176.64,2.6253,5.3974,1.0585,0.3633,-0.0339,-1.5717,rough,15.5,1,2.654
5530,176.96,2.6251,5.3974,1.0584,0.3633,-0.0338,-1.5717,rough,15.5,1,2.654
5540,177.28,2.6247,5.3973,1.0582,0.3632,-0.0352,-1.5664,rough,15.5,1,2.654
5550,177.60,2.6254,5.3973,1.0585,0.3633,-0.0342,-1.5703,rough,15.5,1,2.654
5560,177.92,2.6254,5.3973,1.0585,0.3633,-0.0340,-1.5713,rough,15.5,1,2.654
5570,178.24,2.6253,5.3974,1.0585,0.3633,-0.0339,-1.5716,rough,15.5,1,2.654
5580,178.56,2.6252,5.3974,1.0584,0.3633,-0.0339,-1.5717,rough,15.5,1,2.654
5590,178.88,2.6245,5.3973,1.0581,0.3632,-0.0354,-1.5657,rough,15.5,1,2.653
5600,179.20,2.6254,5.3973,1.0585,0.3633,-0.0342,-1.5701,rough,15.5,1,2.654
5610,179.52,2.6254,5.3973,1.0585,0.3633,-0.0340,-1.5713,rough,15.5,1,2.654
5620,179.84,2.6253,5.3974,1.0585,0.3633,-0.0339,-1.5716,rough,15.5,1,2.654
5630,180.16,2.6252,5.3974,1.0585,0.3633,-0.0339,-1.5717,rough,15.5,1,2.654
5640,180.48,2.6244,5.3973,1.0580,0.3632,-0.0355,-1.5650,rough,15.5,1,2.653
5650,180.80,2.6253,5.3973,1.0585,0.3633,-0.0343,-1.5699,rough,15.5,1,2.654
5660,181.12,2.6254,5.3973,1.0585,0.3633,-0.0340,-1.5712,rough,15.5,1,2.654
5670,181.44,2.6253,5.3974,1.0585,0.3633,-0.0339,-1.5716,rough,15.5,1,2.654
5680,181.76,2.6252,5.3974,1.0585,0.3633,-0.0339,-1.5717,rough,15.5,1,2.654
5690,182.08,2.6242,5.3974,1.0579,0.3632,-0.0356,-1.5641,rough,15.5,1,2.653
5700,182.40,2.6253,5.3973,1.0585,0.3632,-0.0344,-1.5697,rough,15.5,1,2.654
5710,182.72,2.6255,5.3973,1.0585,0.3633,-0.0340,-1.5712,rough,15.5,1,2.654
5720,183.04,2.6254,5.3974,1.0585,0.3633,-0.0339,-1.5716,rough,15.5,1,2.654
5730,183.36,2.6252,5.3974,1.0585,0.3633,-0.0339,-1.5717,rough,15.5,1,2.654
5740,183.68,2.6240,5.3975,1.0578,0.3631,-0.0358,-1.5630,rough,15.5,1,2.653
5750,184.00,2.6253,5.3973,1.0585,0.3632,-0.0345,-1.5693,rough,15.5,1,2.654
5760,184.32,2.6255,5.3973,1.0586,0.3633,-0.0340,-1.5711,rough,15.5,1,2.654
5770,184.64,2.6254,5.3974,1.0585,0.3633,-0.0339,-1.5716,rough,15.5,1,2.654
5780,184.96,2.6252,5.3974,1.0585,0.3633,-0.0339,-1.5717,rough,15.5,1,2.654
5790,185.28,2.6239,5.3978,1.0576,0.3631,-0.0351,-1.5626,rough,15.5,1,2.653
5800,185.60,2.6251,5.3973,1.0584,0.3632,-0.0347,-1.5686,rough,15.5,1,2.654
5810,185.92,2.6255,5.3973,1.0585,0.3633,-0.0340,-1.5709,rough,15.5,1,2.654
5820,186.24,2.6254,5.3974,1.0585,0.3633,-0.0339,-1.5715,rough,15.5,1,2.654
5830,186.56,2.6253,5.3974,1.0585,0.3633,-0.0339,-1.5717,rough,15.5,1,2.654
5840,186.88,2.6241,5.3978,1.0581,0.3629,-0.0383,-1.5624,rough,15.5,1,2.653
5850,187.20,2.6249,5.3973,1.0583,0.3632,-0.0350,-1.5677,rough,15.5,1,2.654
5860,187.52,2.6254,5.3973,1.0585,0.3633,-0.0341,-1.5706,rough,15.5,1,2.654
5870,187.84,2.6254,5.3973,1.0585,0.3633,-0.0339,-1.5714,rough,15.5,1,2.654
5880,188.16,2.6253,5.3974,1.0585,0.3633,-0.0339,-1.5716,rough,15.5,1,2.654
5890,188.48,2.6251,5.3974,1.0584,0.3633,-0.0338,-1.5717,rough,15.5,1,2.654
5900,188.80,2.6248,5.3973,1.0583,0.3632,-0.0351,-1.5671,rough,15.5,1,2.654
5910,189.12,2.6254,5.3973,1.0585,0.3633,-0.0341,-1.5705,rough,15.5,1,2.654
5920,189.44,2.6254,5.3973,1.0586,0.3633,-0.0339,-1.5714,rough,15.5,1,2.654
5930,189.76,2.6253,5.3974,1.0585,0.3633,-0.0339,-1.5716,rough,15.5,1,2.654
5940,190.08,2.6252,5.3974,1.0584,0.3633,-0.0339,-1.5717,rough,15.5,1,2.654
5950,190.40,2.6245,5.3973,1.0581,0.3632,-0.0354,-1.5657,rough,15.5,1,2.653
5960,190.72,2.6254,5.3973,1.0585,0.3633,-0.0342,-1.5701,rough,15.5,1,2.654
5970,191.04,2.6254,5.3973,1.0585,0.3633,-0.0340,-1.5713,rough,15.5,1,2.654
5980,191.36,2.6253,5.3974,1.0585,0.3633,-0.0339,-1.5716,rough,15.5,1,2.654
5990,191.68,2.6252,5.3974,1.0585,0.3633,-0.0339,-1.5717,rough,15.5,1,2.654
6000,192.00,2.6244,5.3973,1.0580,0.3632,-0.0355,-1.5649,rough,15.5,1,2.653
6010,192.32,2.6253,5.3973,1.0585,0.3633,-0.0343,-1.5699,rough,15.5,1,2.654
6020,192.64,2.6255,5.3973,1.0586,0.3633,-0.0340,-1.5712,rough,15.5,1,2.654
6030,192.96,2.6254,5.3974,1.0585,0.3633,-0.0339,-1.5716,rough,15.5,1,2.654
6040,193.28,2.6252,5.3974,1.0585,0.3633,-0.0339,-1.5717,rough,15.5,1,2.654
6050,193.60,2.6240,5.3975,1.0578,0.3631,-0.0357,-1.5630,rough,15.5,1,2.653
6060,193.92,2.6252,5.3973,1.0584,0.3632,-0.0345,-1.5694,rough,15.5,1,2.654
6070,194.24,2.6255,5.3973,1.0585,0.3633,-0.0340,-1.5711,rough,15.5,1,2.654
6080,194.56,2.6254,5.3974,1.0585,0.3633,-0.0339,-1.5716,rough,15.5,1,2.654
6090,194.88,2.6252,5.3974,1.0585,0.3633,-0.0339,-1.5717,rough,15.5,1,2.654
6100,195.20,2.6239,5.3976,1.0577,0.3631,-0.0355,-1.5628,rough,15.5,1,2.653
6110,195.52,2.6252,5.3973,1.0584,0.3632,-0.0346,-1.5690,rough,15.5,1,2.654
6120,195.84,2.6255,5.3973,1.0586,0.3633,-0.0340,-1.5710,rough,15.5,1,2.654
6130,196.16,2.6254,5.3974,1.0585,0.3633,-0.0339,-1.5715,rough,15.5,1,2.654
6140,196.48,2.6253,5.3974,1.0585,0.3633,-0.0339,-1.5717,rough,15.5,1,2.654
6150,196.80,2.6239,5.3980,1.0572,0.3630,-0.0323,-1.5617,rough,15.5,1,2.653
6160,197.12,2.6250,5.3973,1.0584,0.3632,-0.0348,-1.5682,rough,15.5,1,2.654
6170,197.44,2.6254,5.3973,1.0585,0.3633,-0.0341,-1.5708,rough,15.5,1,2.654
6180,197.76,2.6254,5.3973,1.0585,0.3633,-0.0339,-1.5715,rough,15.5,1,2.654
6190,198.08,2.6253,5.3974,1.0585,0.3633,-0.0339,-1.5717,rough,15.5,1,2.654
6200,198.40,2.6251,5.3974,1.0584,0.3633,-0.0338,-1.5717,rough,15.5,1,2.654
6210,198.72,2.6248,5.3973,1.0582,0.3632,-0.0351,-1.5671,rough,15.5,1,2.654
6220,199.04,2.6254,5.3973,1.0585,0.3633,-0.0341,-1.5705,rough,15.5,1,2.654
6230,199.36,2.6254,5.3973,1.0585,0.3633,-0.0339,-1.5714,rough,15.5,1,2.654
6240,199.68,2.6253,5.3974,1.0585,0.3633,-0.0339,-1.5716,rough,15.5,1,2.654
6250,200.00,2.6251,5.3974,1.0584,0.3633,-0.0339,-1.5717,rough,15.5,1,2.654
6260,200.32,2.6247,5.3973,1.0582,0.3632,-0.0353,-1.5664,rough,15.5,1,2.654
6270,200.64,2.6254,5.3973,1.0585,0.3633,-0.0342,-1.5703,rough,15.5,1,2.654
6280,200.96,2.6254,5.3973,1.0586,0.3633,-0.0340,-1.5713,rough,15.5,1,2.654
6290,201.28,2.6253,5.3974,1.0585,0.3633,-0.0339,-1.5716,rough,15.5,1,2.654
6300,201.60,2.6252,5.3974,1.0585,0.3633,-0.0339,-1.5717,rough,15.5,1,2.654
6310,201.92,2.6244,5.3973,1.0580,0.3632,-0.0355,-1.5650,rough,15.5,1,2.653
6320,202.24,2.6253,5.3973,1.0585,0.3633,-0.0343,-1.5699,rough,15.5,1,2.654
6330,202.56,2.6254,5.3973,1.0585,0.3633,-0.0340,-1.5712,rough,15.5,1,2.654
6340,202.88,2.6253,5.3974,1.0585,0.3633,-0.0339,-1.5716,rough,15.5,1,2.654
6350,203.20,2.6252,5.3974,1.0585,0.3633,-0.0339,-1.5717,rough,15.5,1,2.654
6360,203.52,2.6242,5.3974,1.0579,0.3632,-0.0356,-1.5640,rough,15.5,1,2.653
6370,203.84,2.6253,5.3973,1.0585,0.3632,-0.0344,-1.5697,rough,15.5,1,2.654
6380,204.16,2.6255,5.3973,1.0586,0.3633,-0.0340,-1.5712,rough,15.5,1,2.654
6390,204.48,2.6254,5.3974,1.0585,0.3633,-0.0339,-1.5716,rough,15.5,1,2.654
6400,204.80,2.6252,5.3974,1.0585,0.3633,-0.0339,-1.5717,rough,15.5,1,2.654
6410,205.12,2.6239,5.3976,1.0577,0.3631,-0.0354,-1.5629,rough,15.5,1,2.653
6420,205.44,2.6252,5.3973,1.0584,0.3632,-0.0346,-1.5690,rough,15.5,1,2.654
6430,205.76,2.6254,5.3973,1.0585,0.3633,-0.0340,-1.5710,rough,15.5,1,2.654
6440,206.08,2.6254,5.3974,1.0585,0.3633,-0.0339,-1.5715,rough,15.5,1,2.654
6450,206.40,2.6252,5.3974,1.0585,0.3633,-0.0339,-1.5717,rough,15.5,1,2.654
6460,206.72,2.6239,5.3978,1.0576,0.3631,-0.0351,-1.5627,rough,15.5,1,2.653
6470,207.04,2.6251,5.3973,1.0584,0.3632,-0.0347,-1.5686,rough,15.5,1,2.654
6480,207.36,2.6254,5.3973,1.0585,0.3633,-0.0340,-1.5709,rough,15.5,1,2.654
6490,207.68,2.6254,5.3974,1.0585,0.3633,-0.0339,-1.5715,rough,15.5,1,2.654
6500,208.00,2.6253,5.3974,1.0585,0.3633,-0.0339,-1.5717,rough,15.5,1,2.654
6510,208.32,2.6239,5.3980,1.0572,0.3630,-0.0322,-1.5618,rough,15.5,1,2.653
6520,208.64,2.6250,5.3973,1.0583,0.3632,-0.0348,-1.5682,rough,15.5,1,2.654
6530,208.96,2.6254,5.3973,1.0585,0.3633,-0.0341,-1.5708,rough,15.5,1,2.654
6540,209.28,2.6254,5.3974,1.0585,0.3633,-0.0339,-1.5715,rough,15.5,1,2.654
6550,209.60,2.6253,5.3974,1.0585,0.3633,-0.0339,-1.5717,rough,15.5,1,2.654
6560,209.92,2.6241,5.3978,1.0582,0.3629,-0.0383,-1.5624,rough,15.5,1,2.653
6570,210.24,2.6249,5.3973,1.0583,0.3632,-0.0350,-1.5676,rough,15.5,1,2.654
6580,210.56,2.6254,5.3973,1.0585,0.3633,-0.0341,-1.5706,rough,15.5,1,2.654
6590,210.88,2.6254,5.3973,1.0586,0.3633,-0.0339,-1.5714,rough,15.5,1,2.654
6600,211.20,2.6253,5.3974,1.0585,0.3633,-0.0339,-1.5717,rough,15.5,1,2.654
6610,211.52,2.6251,5.3974,1.0584,0.3633,-0.0338,-1.5717,rough,15.5,1,2.654
6620,211.84,2.6247,5.3973,1.0582,0.3632,-0.0353,-1.5664,rough,15.5,1,2.654
6630,212.16,2.6254,5.3973,1.0585,0.3633,-0.0342,-1.5703,rough,15.5,1,2.654
6640,212.48,2.6254,5.3973,1.0586,0.3633,-0.0340,-1.5713,rough,15.5,1,2.654
6650,212.80,2.6253,5.3974,1.0585,0.3633,-0.0339,-1.5716,rough,15.5,1,2.654
6660,213.12,2.6252,5.3974,1.0584,0.3633,-0.0339,-1.5717,rough,15.5,1,2.654
6670,213.44,2.6246,5.3973,1.0581,0.3632,-0.0354,-1.5657,rough,15.5,1,2.653
6680,213.76,2.6254,5.3973,1.0585,0.3633,-0.0343,-1.5701,rough,15.5,1,2.654
6690,214.08,2.6255,5.3973,1.0586,0.3633,-0.0340,-1.5713,rough,15.5,1,2.654
6700,214.40,2.6254,5.3974,1.0585,0.3633,-0.0339,-1.5716,rough,15.5,1,2.654
6710,214.72,2.6252,5.3974,1.0585,0.3633,-0.0339,-1.5717,rough,15.5,1,2.654
6720,215.04,2.6240,5.3975,1.0578,0.3631,-0.0357,-1.5631,rough,15.5,1,2.653
6730,215.36,2.6252,5.3973,1.0584,0.3632,-0.0345,-1.5694,rough,15.5,1,2.654
6740,215.68,2.6254,5.3973,1.0585,0.3633,-0.0340,-1.5711,rough,15.5,1,2.654
6750,216.00,2.6254,5.3974,1.0585,0.3633,-0.0339,-1.5716,rough,15.5,1,2.654
6760,216.32,2.6252,5.3974,1.0585,0.3633,-0.0339,-1.5717,rough,15.5,1,2.654
6770,216.64,2.6239,5.3976,1.0577,0.3631,-0.0354,-1.5629,rough,15.5,1,2.653
6780,216.96,2.6252,5.3973,1.0584,0.3632,-0.0346,-1.5690,rough,15.5,1,2.654
6790,217.28,2.6254,5.3973,1.0585,0.3633,-0.0340,-1.5710,rough,15.5,1,2.654
6800,217.60,2.6254,5.3974,1.0585,0.3633,-0.0339,-1.5715,rough,15.5,1,2.654
6810,217.92,2.6252,5.3974,1.0585,0.3633,-0.0339,-1.5717,rough,15.5,1,2.654
6820,218.24,2.6239,5.3978,1.0576,0.3631,-0.0351,-1.5626,rough,15.5,1,2.653
6830,218.56,2.6251,5.3973,1.0584,0.3632,-0.0347,-1.5686,rough,15.5,1,2.654
6840,218.88,2.6255,5.3973,1.0585,0.3633,-0.0340,-1.5709,rough,15.5,1,2.654
6850,219.20,2.6254,5.3974,1.0585,0.3633,-0.0339,-1.5715,rough,15.5,1,2.654
6860,219.52,2.6253,5.3974,1.0585,0.3633,-0.0339,-1.5717,rough,15.5,1,2.654
6870,219.84,2.6239,5.3980,1.0572,0.3630,-0.0323,-1.5617,rough,15.5,1,2.653
6880,220.16,2.6250,5.3973,1.0584,0.3632,-0.0349,-1.5681,rough,15.5,1,2.654
6890,220.48,2.6255,5.3973,1.0585,0.3633,-0.0341,-1.5708,rough,15.5,1,2.654
6900,220.80,2.6254,5.3973,1.0586,0.3633,-0.0339,-1.5715,rough,15.5,1,2.654
6910,221.12,2.6253,5.3974,1.0585,0.3633,-0.0339,-1.5717,rough,15.5,1,2.654
6920,221.44,2.6251,5.3974,1.0584,0.3633,-0.0338,-1.5717,rough,15.5,1,2.654
6930,221.76,2.6247,5.3973,1.0582,0.3632,-0.0353,-1.5664,rough,15.5,1,2.654
6940,222.08,2.6254,5.3973,1.0585,0.3633,-0.0342,-1.5703,rough,15.5,1,2.654
6950,222.40,2.6254,5.3973,1.0585,0.3633,-0.0340,-1.5713,rough,15.5,1,2.654
6960,222.72,2.6253,5.3974,1.0585,0.3633,-0.0339,-1.5716,rough,15.5,1,2.654
6970,223.04,2.6252,5.3974,1.0584,0.3633,-0.0339,-1.5717,rough,15.5,1,2.654
6980,223.36,2.6246,5.3973,1.0581,0.3632,-0.0354,-1.5657,rough,15.5,1,2.653
6990,223.68,2.6254,5.3973,1.0585,0.3633,-0.0342,-1.5701,rough,15.5,1,2.654
7000,224.00,2.6254,5.3973,1.0586,0.3633,-0.0340,-1.5713,rough,15.5,1,2.654
7010,224.32,2.6253,5.3974,1.0585,0.3633,-0.0339,-1.5716,rough,15.5,1,2.654
7020,224.64,2.6252,5.3974,1.0585,0.3633,-0.0339,-1.5717,rough,15.5,1,2.654
7030,224.96,2.6244,5.3973,1.0580,0.3632,-0.0355,-1.5649,rough,15.5,1,2.653
7040,225.28,2.6254,5.3973,1.0585,0.3633,-0.0343,-1.5699,rough,15.5,1,2.654
7050,225.60,2.6255,5.3973,1.0586,0.3633,-0.0340,-1.5712,rough,15.5,1,2.654
7060,225.92,2.6254,5.3974,1.0585,0.3633,-0.0339,-1.5716,rough,15.5,1,2.654
7070,226.24,2.6252,5.3974,1.0585,0.3633,-0.0339,-1.5717,rough,15.5,1,2.654
7080,226.56,2.6240,5.3975,1.0578,0.3631,-0.0358,-1.5630,rough,15.5,1,2.653
7090,226.88,2.6253,5.3973,1.0585,0.3632,-0.0345,-1.5693,rough,15.5,1,2.654
7100,227.20,2.6255,5.3973,1.0586,0.3633,-0.0340,-1.5711,rough,15.5,1,2.654
7110,227.52,2.6254,5.3974,1.0585,0.3633,-0.0339,-1.5716,rough,15.5,1,2.654
7120,227.84,2.6252,5.3974,1.0585,0.3633,-0.0339,-1.5717,rough,15.5,1,2.654
7130,228.16,2.6239,5.3978,1.0576,0.3631,-0.0351,-1.5626,rough,15.5,1,2.653
7140,228.48,2.6251,5.3973,1.0584,0.3632,-0.0347,-1.5686,rough,15.5,1,2.654
7150,228.80,2.6255,5.3973,1.0585,0.3633,-0.0340,-1.5709,rough,15.5,1,2.654
7160,229.12,2.6254,5.3974,1.0585,0.3633,-0.0339,-1.5715,rough,15.5,1,2.654
7170,229.44,2.6253,5.3974,1.0585,0.3633,-0.0339,-1.5717,rough,15.5,1,2.654
7180,229.76,2.6251,5.3974,1.0584,0.3633,-0.0338,-1.5717,rough,15.5,1,2.654
7190,230.08,2.6248,5.3973,1.0582,0.3632,-0.0351,-1.5671,rough,15.5,1,2.654
7200,230.40,2.6254,5.3973,1.0585,0.3633,-0.0341,-1.5705,rough,15.5,1,2.654
7210,230.72,2.6254,5.3973,1.0585,0.3633,-0.0339,-1.5714,rough,15.5,1,2.654
7220,231.04,2.6253,5.3974,1.0585,0.3633,-0.0339,-1.5716,rough,15.5,1,2.654
7230,231.36,2.6251,5.3974,1.0584,0.3633,-0.0339,-1.5717,rough,15.5,1,2.654
7240,231.68,2.6247,5.3973,1.0582,0.3632,-0.0352,-1.5664,rough,15.5,1,2.654
7250,232.00,2.6254,5.3973,1.0585,0.3633,-0.0342,-1.5703,rough,15.5,1,2.654
7260,232.32,2.6254,5.3973,1.0585,0.3633,-0.0340,-1.5713,rough,15.5,1,2.654
7270,232.64,2.6253,5.3974,1.0585,0.3633,-0.0339,-1.5716,rough,15.5,1,2.654
7280,232.96,2.6252,5.3974,1.0584,0.3633,-0.0339,-1.5717,rough,15.5,1,2.654
7290,233.28,2.6245,5.3973,1.0581,0.3632,-0.0354,-1.5657,rough,15.5,1,2.653
7300,233.60,2.6254,5.3973,1.0585,0.3633,-0.0342,-1.5701,rough,15.5,1,2.654
7310,233.92,2.6254,5.3973,1.0585,0.3633,-0.0340,-1.5713,rough,15.5,1,2.654
7320,234.24,2.6253,5.3974,1.0585,0.3633,-0.0339,-1.5716,rough,15.5,1,2.654
7330,234.56,2.6252,5.3974,1.0585,0.3633,-0.0339,-1.5717,rough,15.5,1,2.654
7340,234.88,2.6244,5.3973,1.0580,0.3632,-0.0355,-1.5650,rough,15.5,1,2.653
7350,235.20,2.6253,5.3973,1.0585,0.3633,-0.0343,-1.5699,rough,15.5,1,2.654
7360,235.52,2.6254,5.3973,1.0585,0.3633,-0.0340,-1.5712,rough,15.5,1,2.654
7370,235.84,2.6253,5.3974,1.0585,0.3633,-0.0339,-1.5716,rough,15.5,1,2.654
7380,236.16,2.6252,5.3974,1.0585,0.3633,-0.0339,-1.5717,rough,15.5,1,2.654
7390,236.48,2.6242,5.3974,1.0579,0.3632,-0.0356,-1.5640,rough,15.5,1,2.653
7400,236.80,2.6253,5.3973,1.0585,0.3632,-0.0344,-1.5697,rough,15.5,1,2.654
7410,237.12,2.6255,5.3973,1.0586,0.3633,-0.0340,-1.5712,rough,15.5,1,2.654
7420,237.44,2.6254,5.3974,1.0585,0.3633,-0.0339,-1.5716,rough,15.5,1,2.654
7430,237.76,2.6252,5.3974,1.0585,0.3633,-0.0339,-1.5717,rough,15.5,1,2.654
7440,238.08,2.6239,5.3976,1.0577,0.3631,-0.0354,-1.5629,rough,15.5,1,2.653
7450,238.40,2.6252,5.3973,1.0584,0.3632,-0.0346,-1.5690,rough,15.5,1,2.654
7460,238.72,2.6254,5.3973,1.0585,0.3633,-0.0340,-1.5710,rough,15.5,1,2.654
7470,239.04,2.6254,5.3974,1.0585,0.3633,-0.0339,-1.5715,rough,15.5,1,2.654
7480,239.36,2.6252,5.3974,1.0585,0.3633,-0.0339,-1.5717,rough,15.5,1,2.654
7490,239.68,2.6239,5.3978,1.0576,0.3631,-0.0351,-1.5626,rough,15.5,1,2.653
7500,240.00,2.6251,5.3973,1.0584,0.3632,-0.0347,-1.5686,rough,15.5,1,2.654
7510,240.32,2.6254,5.3973,1.0585,0.3633,-0.0340,-1.5709,rough,15.5,1,2.654
7520,240.64,2.6254,5.3974,1.0585,0.3633,-0.0339,-1.5715,rough,15.5,1,2.654
7530,240.96,2.6253,5.3974,1.0585,0.3633,-0.0339,-1.5717,rough,15.5,1,2.654
7540,241.28,2.6239,5.3980,1.0572,0.3630,-0.0323,-1.5617,rough,15.5,1,2.653
7550,241.60,2.6250,5.3973,1.0584,0.3632,-0.0348,-1.5681,rough,15.5,1,2.654
7560,241.92,2.6255,5.3973,1.0585,0.3633,-0.0341,-1.5708,rough,15.5,1,2.654
7570,242.24,2.6254,5.3973,1.0586,0.3633,-0.0339,-1.5715,rough,15.5,1,2.654
7580,242.56,2.6253,5.3974,1.0585,0.3633,-0.0339,-1.5717,rough,15.5,1,2.654
7590,242.88,2.6251,5.3974,1.0584,0.3633,-0.0338,-1.5717,rough,15.5,1,2.654
7600,243.20,2.6248,5.3973,1.0583,0.3632,-0.0351,-1.5671,rough,15.5,1,2.654
7610,243.52,2.6254,5.3973,1.0585,0.3633,-0.0341,-1.5705,rough,15.5,1,2.654
7620,243.84,2.6254,5.3973,1.0586,0.3633,-0.0339,-1.5714,rough,15.5,1,2.654
7630,244.16,2.6253,5.3974,1.0585,0.3633,-0.0339,-1.5716,rough,15.5,1,2.654
7640,244.48,2.6252,5.3974,1.0584,0.3633,-0.0339,-1.5717,rough,15.5,1,2.654
7650,244.80,2.6246,5.3973,1.0581,0.3632,-0.0354,-1.5657,rough,15.5,1,2.653
7660,245.12,2.6254,5.3973,1.0585,0.3633,-0.0342,-1.5701,rough,15.5,1,2.654
7670,245.44,2.6255,5.3973,1.0586,0.3633,-0.0340,-1.5713,rough,15.5,1,2.654
7680,245.76,2.6253,5.3974,1.0585,0.3633,-0.0339,-1.5716,rough,15.5,1,2.654
7690,246.08,2.6252,5.3974,1.0585,0.3633,-0.0339,-1.5717,rough,15.5,1,2.654
7700,246.40,2.6242,5.3974,1.0579,0.3632,-0.0356,-1.5641,rough,15.5,1,2.653
7710,246.72,2.6253,5.3973,1.0585,0.3632,-0.0344,-1.5697,rough,15.5,1,2.654
7720,247.04,2.6255,5.3973,1.0586,0.3633,-0.0340,-1.5712,rough,15.5,1,2.654
7730,247.36,2.6254,5.3974,1.0585,0.3633,-0.0339,-1.5716,rough,15.5,1,2.654
7740,247.68,2.6252,5.3974,1.0585,0.3633,-0.0339,-1.5717,rough,15.5,1,2.654
7750,248.00,2.6239,5.3976,1.0577,0.3631,-0.0354,-1.5629,rough,15.5,1,2.653
7760,248.32,2.6252,5.3973,1.0584,0.3632,-0.0346,-1.5690,rough,15.5,1,2.654
7770,248.64,2.6254,5.3973,1.0585,0.3633,-0.0340,-1.5710,rough,15.5,1,2.654
7780,248.96,2.6254,5.3974,1.0585,0.3633,-0.0339,-1.5715,rough,15.5,1,2.654
7790,249.28,2.6252,5.3974,1.0585,0.3633,-0.0339,-1.5717,rough,15.5,1,2.654
7800,249.60,2.6239,5.3978,1.0576,0.3631,-0.0351,-1.5627,rough,15.5,1,2.653
7810,249.92,2.6251,5.3973,1.0584,0.3632,-0.0347,-1.5686,rough,15.5,1,2.654
7820,250.24,2.6254,5.3973,1.0585,0.3633,-0.0340,-1.5709,rough,15.5,1,2.654
7830,250.56,2.6254,5.3974,1.0585,0.3633,-0.0339,-1.5715,rough,15.5,1,2.654
7840,250.88,2.6253,5.3974,1.0585,0.3633,-0.0339,-1.5717,rough,15.5,1,2.654
7850,251.20,2.6239,5.3980,1.0572,0.3630,-0.0322,-1.5618,rough,15.5,1,2.653
7860,251.52,2.6250,5.3973,1.0583,0.3632,-0.0348,-1.5682,rough,15.5,1,2.654
7870,251.84,2.6254,5.3973,1.0585,0.3633,-0.0341,-1.5708,rough,15.5,1,2.654
7880,252.16,2.6254,5.3974,1.0585,0.3633,-0.0339,-1.5715,rough,15.5,1,2.654
7890,252.48,2.6253,5.3974,1.0585,0.3633,-0.0339,-1.5717,rough,15.5,1,2.654
7900,252.80,2.6241,5.3978,1.0581,0.3629,-0.0383,-1.5624,rough,15.5,1,2.653
7910,253.12,2.6249,5.3973,1.0583,0.3632,-0.0350,-1.5676,rough,15.5,1,2.654
7920,253.44,2.6254,5.3973,1.0585,0.3633,-0.0341,-1.5706,rough,15.5,1,2.654
7930,253.76,2.6254,5.3973,1.0585,0.3633,-0.0339,-1.5714,rough,15.5,1,2.654
7940,254.08,2.6253,5.3974,1.0585,0.3633,-0.0339,-1.5716,rough,15.5,1,2.654
7950,254.40,2.6251,5.3974,1.0584,0.3633,-0.0338,-1.5717,rough,15.5,1,2.654
7960,254.72,2.6248,5.3973,1.0583,0.3632,-0.0351,-1.5670,rough,15.5,1,2.654
7970,255.04,2.6254,5.3973,1.0585,0.3633,-0.0341,-1.5705,rough,15.5,1,2.654
7980,255.36,2.6255,5.3973,1.0586,0.3633,-0.0339,-1.5714,rough,15.5,1,2.654
7990,255.68,2.6253,5.3974,1.0585,0.3633,-0.0339,-1.5716,rough,15.5,1,2.654
8000,256.00,2.6252,5.3974,1.0585,0.3633,-0.0339,-1.5717,rough,15.5,1,2.654
8010,256.32,2.6244,5.3973,1.0580,0.3632,-0.0355,-1.5650,rough,15.5,1,2.653
8020,256.64,2.6253,5.3973,1.0585,0.3633,-0.0343,-1.5699,rough,15.5,1,2.654
