step,time_s,x,y,z,roll,pitch,yaw,terrain,speed,target_idx,dist_to_target
10,0.32,2.0165,0.4847,0.7094,0.1013,-0.3147,-0.1082,rough,15.5,0,6.407
20,0.64,2.1976,0.4400,0.7711,0.1102,-0.4166,-0.1794,rough,15.5,0,6.243
30,0.96,2.5690,0.3600,0.9477,0.1029,-0.4503,-0.1923,rough,15.5,0,5.907
40,1.28,2.9314,0.2761,1.1267,0.1174,-0.4542,-0.2404,rough,15.5,0,5.586
50,1.60,3.2835,0.1764,1.2989,0.1184,-0.4346,-0.2607,rough,15.5,0,5.287
60,1.92,3.6561,0.0790,1.4725,0.0823,-0.4143,-0.2054,rough,15.5,0,4.978
70,2.24,4.0280,-0.0035,1.6402,0.0676,-0.4073,-0.1724,rough,15.5,0,4.673
80,2.56,4.4022,-0.0703,1.7947,0.0294,-0.3704,-0.1535,rough,15.5,0,4.371
90,2.88,4.7769,-0.1311,1.9454,0.0375,-0.3596,-0.1163,rough,15.5,0,4.079
100,3.20,5.1531,-0.1763,2.0832,0.0226,-0.3479,-0.0709,rough,15.5,0,3.792
110,3.52,5.5213,-0.2013,2.2130,0.0143,-0.3305,-0.0483,rough,15.5,0,3.515
120,3.84,5.8775,-0.2187,2.3329,0.0084,-0.3163,-0.0280,rough,15.5,0,3.260
130,4.16,6.2182,-0.2281,2.4460,0.0054,-0.3173,-0.0174,rough,15.5,0,3.030
140,4.48,6.5428,-0.2336,2.5520,0.0035,-0.3138,-0.0100,rough,15.5,0,2.829
150,4.80,6.8478,-0.2367,2.6508,0.0025,-0.3132,-0.0054,rough,15.5,0,2.660
160,5.12,7.1319,-0.2382,2.7427,0.0019,-0.3125,-0.0027,rough,15.5,0,2.525
170,5.44,7.3941,-0.2389,2.8275,0.0015,-0.3136,-0.0009,rough,15.5,0,2.423
180,5.76,7.6346,-0.2392,2.9054,0.0015,-0.3135,-0.0002,rough,15.5,0,2.351
190,6.08,8.0025,-0.2382,2.8550,-0.0030,0.6557,0.0058,rough,15.5,0,2.284
200,6.40,8.4903,-0.2880,2.3990,2.6643,1.0803,2.6490,rough,15.5,0,2.336
210,6.72,8.8814,-0.5217,2.2828,2.5546,-0.0177,-3.0656,rough,15.5,0,2.637
220,7.04,9.0331,-0.6048,2.2380,2.7368,0.3097,3.0983,rough,15.5,0,2.758
230,7.36,9.1588,-0.6211,2.2791,2.6785,0.4708,3.0422,rough,15.5,0,2.812
240,7.68,9.3029,-0.6342,2.3619,2.6722,0.5044,3.0576,rough,15.5,0,2.875
250,8.00,9.4413,-0.6290,2.4522,2.6799,0.6485,3.1182,rough,15.5,0,2.924
260,8.32,9.5652,-0.5742,2.5554,2.9140,0.6917,-2.8575,rough,15.5,0,2.929
270,8.64,9.6424,-0.4542,2.6583,-2.9157,0.5845,-2.1168,rough,15.5,0,2.860
280,8.96,9.5786,-0.5535,2.5737,-2.7100,0.6012,-1.8611,slope,18.0,0,2.917
290,9.28,9.5151,-0.8582,2.3958,-2.6242,0.4952,-1.7916,rough,15.5,0,3.164
300,9.60,9.4440,-1.1339,2.2559,-2.6239,0.3764,-1.8002,rough,15.5,0,3.392
310,9.92,9.3274,-1.4046,2.1632,-2.7226,0.0973,-1.8954,rough,15.5,0,3.609
320,10.24,9.2086,-1.5940,2.1054,-2.8311,-0.0022,-1.8846,rough,15.5,0,3.757
330,10.56,9.1431,-1.7559,2.0947,-2.9941,-0.0939,-1.8795,rough,15.5,0,3.898
340,10.88,9.1365,-1.7916,2.0955,-3.0071,-0.1781,-1.8022,rough,15.5,0,3.931
350,11.20,9.1251,-1.6435,2.0586,-2.9728,-0.0184,-1.8011,rough,15.5,0,3.784
360,11.52,9.0941,-1.5225,2.0570,-2.8587,-0.0214,-1.9047,rough,15.5,0,3.659
370,11.84,9.0735,-1.4181,2.0453,-2.9005,0.0038,-1.7316,rough,15.5,0,3.553
380,12.16,9.0652,-1.2828,2.0565,-2.8578,0.1107,-1.7841,rough,15.5,0,3.420
390,12.48,9.0639,-1.2682,2.0572,-2.8517,0.1071,-1.7573,rough,15.5,0,3.405
400,12.80,9.0506,-1.2922,2.0584,-2.8597,0.0596,-1.7823,rough,15.5,0,3.425
410,13.12,9.0774,-1.3641,2.0419,-2.8799,0.0229,-1.7546,rough,15.5,0,3.502
420,13.44,9.0740,-1.3818,2.0466,-2.9026,0.0320,-1.7919,rough,15.5,0,3.518
430,13.76,9.0879,-1.3820,2.0479,-2.8929,0.0535,-1.7899,rough,15.5,0,3.522
440,14.08,9.0745,-1.3797,2.0451,-2.8740,0.0225,-1.7038,rough,15.5,0,3.516
450,14.40,9.0792,-1.2909,2.0588,-2.8344,0.1469,-1.7844,rough,15.5,0,3.431
460,14.72,9.0648,-1.2956,2.0561,-2.8695,0.1047,-1.7952,rough,15.5,0,3.432
470,15.04,9.0803,-1.4321,2.0484,-2.8710,-0.0293,-1.7538,rough,15.5,0,3.568
480,15.36,9.0773,-1.3861,2.0438,-2.8880,0.0328,-1.7649,rough,15.5,0,3.523
490,15.68,9.0679,-1.3242,2.0524,-2.8853,0.0764,-1.7939,rough,15.5,0,3.461
500,16.00,9.0738,-1.4084,2.0466,-2.8856,0.0263,-1.7741,rough,15.5,0,3.544
510,16.32,9.0825,-1.3797,2.0455,-2.9004,0.0574,-1.7857,rough,15.5,0,3.518
520,16.64,9.0656,-1.4231,2.0436,-2.8496,-0.0552,-1.6805,rough,15.5,0,3.556
530,16.96,9.0750,-1.3400,2.0494,-2.8735,0.0638,-1.7522,rough,15.5,0,3.478
540,17.28,9.0661,-1.3290,2.0523,-2.8938,0.0701,-1.8003,rough,15.5,0,3.465
550,17.60,9.0699,-1.4062,2.0490,-2.8759,-0.0141,-1.7822,rough,15.5,0,3.541
560,17.92,9.0754,-1.3849,2.0451,-2.8961,0.0388,-1.7855,rough,15.5,0,3.521
570,18.24,9.0735,-1.3858,2.0439,-2.8970,0.0340,-1.7703,rough,15.5,0,3.522
580,18.56,9.0700,-1.3739,2.0455,-2.9112,0.0410,-1.7798,rough,15.5,0,3.509
590,18.88,9.0818,-1.3872,2.0414,-2.9202,0.0315,-1.7529,rough,15.5,0,3.525
600,19.20,9.0674,-1.4157,2.0446,-2.8439,-0.0573,-1.7237,rough,15.5,0,3.549
610,19.52,9.0709,-1.3790,2.0479,-2.9037,0.0287,-1.7897,rough,15.5,0,3.515
620,19.84,9.0751,-1.3920,2.0439,-2.8756,0.0167,-1.7769,rough,15.5,0,3.528
630,20.16,9.0752,-1.3774,2.0449,-2.8924,0.0404,-1.7297,rough,15.5,0,3.514
640,20.48,9.0824,-1.3885,2.0469,-2.8918,0.0348,-1.7815,rough,15.5,0,3.527
650,20.80,9.0854,-1.3783,2.0488,-2.8911,0.0603,-1.7853,rough,15.5,0,3.517
660,21.12,9.0851,-1.3798,2.0462,-2.8845,0.0505,-1.7698,rough,15.5,0,3.519
670,21.44,9.0805,-1.3951,2.0460,-2.8888,0.0455,-1.7986,rough,15.5,0,3.533
680,21.76,9.0750,-1.3879,2.0465,-2.8932,0.0193,-1.7681,rough,15.5,0,3.524
690,22.08,9.0764,-1.3823,2.0451,-2.8954,0.0381,-1.7630,rough,15.5,0,3.519
700,22.40,9.0715,-1.3762,2.0466,-2.9088,0.0350,-1.8081,rough,15.5,0,3.512
710,22.72,9.0746,-1.3749,2.0460,-2.8853,0.0365,-1.7646,rough,15.5,0,3.511
720,23.04,9.0768,-1.3970,2.0457,-2.8835,0.0233,-1.7732,rough,15.5,0,3.533
730,23.36,9.0839,-1.3856,2.0475,-2.8990,0.0556,-1.8100,rough,15.5,0,3.524
740,23.68,9.0806,-1.3947,2.0466,-2.8871,0.0326,-1.7880,rough,15.5,0,3.532
750,24.00,9.0852,-1.3353,2.0513,-2.8678,0.0743,-1.7616,rough,15.5,0,3.476
760,24.32,9.0706,-1.4077,2.0426,-2.8939,0.0063,-1.7501,rough,15.5,0,3.542
770,24.64,9.0818,-1.4293,2.0490,-2.8693,-0.0052,-1.8040,rough,15.5,0,3.566
780,24.96,9.0703,-1.3749,2.0447,-2.8885,0.0353,-1.7275,rough,15.5,0,3.510
790,25.28,9.0652,-1.2984,2.0549,-2.8799,0.0881,-1.7905,rough,15.5,0,3.435
800,25.60,9.0689,-1.2877,2.0585,-2.8530,0.1267,-1.7920,rough,15.5,0,3.425
810,25.92,9.0497,-1.3779,2.0505,-2.9072,-0.0309,-1.7813,rough,15.5,0,3.509
820,26.24,9.0811,-1.3873,2.0463,-2.8973,0.0402,-1.7656,rough,15.5,0,3.525
830,26.56,9.0681,-1.3796,2.0444,-2.8614,-0.0018,-1.7576,rough,15.5,0,3.515
840,26.88,9.0752,-1.3819,2.0462,-2.9077,0.0347,-1.7959,rough,15.5,0,3.518
850,27.20,9.0865,-1.3831,2.0470,-2.9032,0.0423,-1.7714,rough,15.5,0,3.522
860,27.52,9.0731,-1.3762,2.0470,-2.9148,0.0364,-1.7992,rough,15.5,0,3.512
870,27.84,9.0763,-1.4068,2.0469,-2.8754,0.0170,-1.7941,rough,15.5,0,3.543
880,28.16,9.0823,-1.4206,2.0492,-2.8640,0.0030,-1.7950,rough,15.5,0,3.558
890,28.48,9.0609,-1.3818,2.0482,-2.9231,0.0136,-1.7759,rough,15.5,0,3.515
900,28.80,9.0852,-1.3762,2.0490,-2.8896,0.0636,-1.8001,rough,15.5,0,3.515
910,29.12,9.0845,-1.3912,2.0476,-2.8900,0.0528,-1.8217,rough,15.5,0,3.530
920,29.44,9.0846,-1.3736,2.0508,-2.8875,0.0798,-1.8149,rough,15.5,0,3.513
930,29.76,9.0739,-1.3889,2.0454,-2.8881,0.0167,-1.7499,rough,15.5,0,3.525
940,30.08,9.0726,-1.3846,2.0483,-2.9059,0.0345,-1.8060,rough,15.5,0,3.520
950,30.40,9.0785,-1.3794,2.0473,-2.9011,0.0465,-1.7868,rough,15.5,0,3.517
960,30.72,9.0846,-1.3848,2.0466,-2.8875,0.0409,-1.7960,rough,15.5,0,3.523
970,31.04,9.0655,-1.4091,2.0471,-2.8792,-0.0089,-1.7641,rough,15.5,0,3.543
980,31.36,9.0764,-1.3713,2.0480,-2.9087,0.0398,-1.7733,rough,15.5,0,3.508
990,31.68,9.0778,-1.3889,2.0455,-2.8928,0.0335,-1.7783,rough,15.5,0,3.526
1000,32.00,9.0807,-1.3443,2.0467,-2.8779,0.0822,-1.7825,rough,15.5,0,3.483
1010,32.32,9.0756,-1.3768,2.0418,-2.9128,0.0680,-1.8113,rough,15.5,0,3.514
1020,32.64,9.0687,-1.3904,2.0467,-2.8797,-0.0014,-1.7453,rough,15.5,0,3.525
1030,32.96,9.0819,-1.3901,2.0468,-2.8920,0.0381,-1.7838,rough,15.5,0,3.528
1040,33.28,9.0734,-1.3682,2.0464,-2.8848,0.0495,-1.7819,rough,15.5,0,3.505
1050,33.60,9.0735,-1.3442,2.0440,-2.8732,0.0861,-1.7500,rough,15.5,0,3.481
1060,33.92,9.0776,-1.3617,2.0461,-2.8952,0.0392,-1.8151,rough,15.5,0,3.499
1070,34.24,9.0760,-1.3688,2.0461,-2.8914,0.0423,-1.7977,rough,15.5,0,3.506
1080,34.56,9.0758,-1.3682,2.0492,-2.9114,0.0519,-1.8043,rough,15.5,0,3.505
1090,34.88,9.0783,-1.3929,2.0449,-2.8861,0.0424,-1.8079,rough,15.5,0,3.530
1100,35.20,9.0779,-1.3979,2.0430,-2.8721,0.0006,-1.7371,rough,15.5,0,3.535
1110,35.52,9.0853,-1.3544,2.0534,-2.8906,0.0853,-1.7860,rough,15.5,0,3.494
1120,35.84,9.0875,-1.3700,2.0504,-2.8852,0.0710,-1.7889,rough,15.5,0,3.510
1130,36.16,9.0781,-1.3740,2.0490,-2.9025,0.0594,-1.8133,rough,15.5,0,3.511
1140,36.48,9.0829,-1.3801,2.0470,-2.8910,0.0440,-1.7751,rough,15.5,0,3.518
1150,36.80,9.0737,-1.4001,2.0443,-2.8713,-0.0078,-1.7304,rough,15.5,0,3.536
1160,37.12,9.0779,-1.3458,2.0479,-2.8778,0.0750,-1.7617,rough,15.5,0,3.484
1170,37.44,9.0826,-1.3913,2.0465,-2.8906,0.0475,-1.8014,rough,15.5,0,3.529
1180,37.76,9.0712,-1.3751,2.0477,-2.9087,0.0390,-1.7863,rough,15.5,0,3.511
1190,38.08,9.0845,-1.3733,2.0451,-2.9007,0.0651,-1.8219,rough,15.5,0,3.512
1200,38.40,9.0800,-1.3773,2.0434,-2.9162,0.0514,-1.7865,rough,15.5,0,3.515
1210,38.72,9.0858,-1.3705,2.0489,-2.8993,0.0640,-1.8202,rough,15.5,0,3.510
1220,39.04,9.0886,-1.3832,2.0497,-2.8886,0.0411,-1.7683,rough,15.5,0,3.523
1230,39.36,9.0845,-1.4027,2.0484,-2.8732,0.0239,-1.8176,rough,15.5,0,3.541
1240,39.68,9.0760,-1.3825,2.0458,-2.9003,0.0402,-1.7824,rough,15.5,0,3.519
1250,40.00,9.0817,-1.3750,2.0493,-2.8935,0.0642,-1.8076,rough,15.5,0,3.513
1260,40.32,9.0830,-1.3986,2.0470,-2.8856,0.0324,-1.7887,rough,15.5,0,3.536
1270,40.64,9.0673,-1.3899,2.0465,-2.8928,-0.0035,-1.7665,rough,15.5,0,3.524
1280,40.96,9.0782,-1.3847,2.0464,-2.9025,0.0352,-1.7798,rough,15.5,0,3.522
1290,41.28,9.0822,-1.3814,2.0459,-2.9006,0.0473,-1.7895,rough,15.5,0,3.520
1300,41.60,9.0763,-1.3742,2.0467,-2.9121,0.0532,-1.7985,rough,15.5,0,3.511
1310,41.92,9.0788,-1.3738,2.0477,-2.8922,0.0524,-1.7846,rough,15.5,0,3.511
1320,42.24,9.0783,-1.3901,2.0429,-2.8885,0.0543,-1.7758,rough,15.5,0,3.527
1330,42.56,9.0790,-1.3608,2.0449,-2.8622,0.0657,-1.7792,rough,15.5,0,3.499
1340,42.88,9.0773,-1.2906,2.0589,-2.8302,0.1452,-1.7663,rough,15.5,0,3.430
1350,43.20,9.0650,-1.2909,2.0547,-2.8491,0.1035,-1.7452,rough,15.5,0,3.428
1360,43.52,9.0711,-1.3445,2.0526,-2.8857,0.0740,-1.7943,rough,15.5,0,3.481
1370,43.84,9.0811,-1.3965,2.0440,-2.8794,0.0257,-1.7431,rough,15.5,0,3.534
1380,44.16,9.0768,-1.3992,2.0434,-2.8735,0.0384,-1.7894,rough,15.5,0,3.536
1390,44.48,9.0767,-1.3790,2.0463,-2.9063,0.0479,-1.7823,rough,15.5,0,3.516
1400,44.80,9.0736,-1.4095,2.0441,-2.8609,-0.0111,-1.7331,rough,15.5,0,3.545
1410,45.12,9.0874,-1.3564,2.0532,-2.8696,0.0944,-1.7673,rough,15.5,0,3.497
1420,45.44,9.0806,-1.3801,2.0459,-2.8963,0.0496,-1.7771,rough,15.5,0,3.518
1430,45.76,9.0859,-1.3889,2.0475,-2.8877,0.0323,-1.7766,rough,15.5,0,3.528
1440,46.08,9.0805,-1.3563,2.0477,-2.8775,0.0626,-1.7885,rough,15.5,0,3.495
1450,46.40,9.0783,-1.3946,2.0410,-2.9364,0.0238,-1.8072,rough,15.5,0,3.531
1460,46.72,9.0792,-1.3771,2.0484,-2.8902,0.0488,-1.7734,rough,15.5,0,3.515
1470,47.04,9.0772,-1.3776,2.0455,-2.9090,0.0466,-1.7802,rough,15.5,0,3.515
1480,47.36,9.0821,-1.3824,2.0475,-2.8994,0.0505,-1.8261,rough,15.5,0,3.521
1490,47.68,9.0751,-1.3782,2.0474,-2.9112,0.0478,-1.8123,rough,15.5,0,3.515
1500,48.00,9.0858,-1.3820,2.0479,-2.9020,0.0512,-1.7861,rough,15.5,0,3.521
1510,48.32,9.0737,-1.3956,2.0392,-2.8792,0.0318,-1.7376,rough,15.5,0,3.531
1520,48.64,9.0808,-1.3748,2.0484,-2.8946,0.0667,-1.7948,rough,15.5,0,3.513
1530,48.96,9.0801,-1.3886,2.0459,-2.8920,0.0257,-1.7552,rough,15.5,0,3.526
1540,49.28,9.0729,-1.4060,2.0449,-2.8758,-0.0165,-1.7311,rough,15.5,0,3.541
1550,49.60,9.0831,-1.3531,2.0466,-2.8629,0.0554,-1.8042,rough,15.5,0,3.492
1560,49.92,9.0599,-1.3717,2.0446,-2.9156,0.0214,-1.7981,rough,15.5,0,3.505
1570,50.24,9.0798,-1.3818,2.0460,-2.8963,0.0413,-1.7793,rough,15.5,0,3.519
1580,50.56,9.0706,-1.3871,2.0436,-2.9411,0.0232,-1.8280,rough,15.5,0,3.522
1590,50.88,9.0852,-1.3671,2.0487,-2.8921,0.0567,-1.8013,rough,15.5,0,3.506
1600,51.20,9.0801,-1.3861,2.0466,-2.8927,0.0579,-1.8078,rough,15.5,0,3.524
1610,51.52,9.0876,-1.3568,2.0515,-2.9042,0.0643,-1.7780,rough,15.5,0,3.497
1620,51.84,9.0866,-1.3782,2.0487,-2.8947,0.0526,-1.7737,rough,15.5,0,3.518
1630,52.16,9.0864,-1.3760,2.0504,-2.8935,0.0655,-1.8070,rough,15.5,0,3.515
1640,52.48,9.0816,-1.3912,2.0465,-2.8931,0.0350,-1.7756,rough,15.5,0,3.529
1650,52.80,9.0708,-1.3698,2.0470,-2.9023,0.0357,-1.7765,rough,15.5,0,3.506
1660,53.12,9.0791,-1.3887,2.0459,-2.8963,0.0521,-1.8043,rough,15.5,0,3.526
1670,53.44,9.0792,-1.3914,2.0462,-2.8904,0.0202,-1.7582,rough,15.5,0,3.529
1680,53.76,9.0771,-1.3625,2.0497,-2.8940,0.0637,-1.8088,rough,15.5,0,3.500
1690,54.08,9.0677,-1.3529,2.0487,-2.8835,0.0482,-1.7498,rough,15.5,0,3.488
1700,54.40,9.0745,-1.3876,2.0446,-2.8862,0.0537,-1.8138,rough,15.5,0,3.524
1710,54.72,9.0811,-1.3819,2.0455,-2.9121,0.0804,-1.8309,rough,15.5,0,3.520
1720,55.04,9.0815,-1.3176,2.0534,-2.8579,0.0866,-1.7204,rough,15.5,0,3.458
1730,55.36,9.0723,-1.3681,2.0472,-2.8952,0.0465,-1.7586,rough,15.5,0,3.504
1740,55.68,9.0742,-1.3957,2.0457,-2.8849,0.0031,-1.7587,rough,15.5,0,3.532
1750,56.00,9.0772,-1.3755,2.0466,-2.8911,0.0481,-1.7598,rough,15.5,0,3.513
1760,56.32,9.0806,-1.3828,2.0460,-2.8940,0.0377,-1.7819,rough,15.5,0,3.521
1770,56.64,9.0686,-1.3890,2.0459,-2.8888,0.0062,-1.7541,rough,15.5,0,3.524
1780,56.96,9.0817,-1.3834,2.0465,-2.9002,0.0545,-1.7925,rough,15.5,0,3.521
1790,57.28,9.0808,-1.4121,2.0472,-2.8724,0.0240,-1.8152,rough,15.5,0,3.549
1800,57.60,9.0752,-1.3744,2.0485,-2.9045,0.0511,-1.8058,rough,15.5,0,3.511
1810,57.92,9.0776,-1.3803,2.0457,-2.8903,0.0472,-1.7682,rough,15.5,0,3.517
1820,58.24,9.0799,-1.3941,2.0470,-2.8857,0.0349,-1.7925,rough,15.5,0,3.531
1830,58.56,9.0767,-1.3698,2.0440,-2.9294,0.0578,-1.7955,rough,15.5,0,3.507
1840,58.88,9.0704,-1.4037,2.0436,-2.8782,-0.0201,-1.7169,rough,15.5,0,3.538
1850,59.20,9.0841,-1.3738,2.0495,-2.9018,0.0607,-1.8142,rough,15.5,0,3.513
1860,59.52,9.0691,-1.3952,2.0465,-2.8597,-0.0225,-1.7404,rough,15.5,0,3.530
1870,59.84,9.0751,-1.3965,2.0424,-2.8938,0.0236,-1.7633,rough,15.5,0,3.533
1880,60.16,9.0637,-1.3937,2.0444,-2.9010,0.0113,-1.7692,rough,15.5,0,3.527
1890,60.48,9.0734,-1.3836,2.0459,-2.8975,0.0321,-1.7804,rough,15.5,0,3.520
1900,60.80,9.0806,-1.3893,2.0470,-2.8952,0.0322,-1.7771,rough,15.5,0,3.527
1910,61.12,9.0749,-1.3836,2.0457,-2.9044,0.0319,-1.7796,rough,15.5,0,3.520
1920,61.44,9.0806,-1.3800,2.0453,-2.9020,0.0547,-1.7739,rough,15.5,0,3.518
1930,61.76,9.0783,-1.3934,2.0440,-2.9222,0.0261,-1.8110,rough,15.5,0,3.530
1940,62.08,9.0807,-1.4091,2.0449,-2.9075,0.0211,-1.7471,rough,15.5,0,3.546
1950,62.40,9.0743,-1.3413,2.0507,-2.8911,0.0678,-1.7992,rough,15.5,0,3.479
1960,62.72,9.0687,-1.3607,2.0475,-2.9053,0.0339,-1.7647,rough,15.5,0,3.496
1970,63.04,9.0828,-1.4001,2.0483,-2.8767,0.0320,-1.8201,rough,15.5,0,3.538
1980,63.36,9.0835,-1.3347,2.0511,-2.8603,0.0781,-1.7518,rough,15.5,0,3.475
1990,63.68,9.0752,-1.2684,2.0598,-2.8151,0.1508,-1.7288,rough,15.5,0,3.408
2000,64.00,9.0678,-1.1901,2.0628,-2.8033,0.2125,-1.7235,rough,15.5,0,3.331
2010,64.32,9.0699,-1.1513,2.0651,-2.7909,0.2701,-1.7270,rough,15.5,0,3.294
2020,64.64,9.0642,-1.1995,2.0592,-2.7820,0.1933,-1.6669,rough,15.5,0,3.339
2030,64.96,9.0680,-1.2223,2.0622,-2.8052,0.1993,-1.7523,rough,15.5,0,3.362
2040,65.28,9.0571,-1.1011,2.0733,-2.8052,0.3086,-1.7092,rough,15.5,0,3.242
2050,65.60,9.0527,-1.0919,2.0774,-2.7553,0.2546,-1.6909,rough,15.5,0,3.232
2060,65.92,9.0728,-1.1660,2.0615,-2.7859,0.2486,-1.7614,rough,15.5,0,3.309
2070,66.24,9.0650,-1.2612,2.0572,-2.8330,0.1286,-1.7337,rough,15.5,0,3.399
2080,66.56,9.0674,-1.3458,2.0494,-2.8970,0.0631,-1.7708,rough,15.5,0,3.481
2090,66.88,9.0834,-1.4188,2.0486,-2.8772,0.0161,-1.8303,rough,15.5,0,3.556
2100,67.20,9.0760,-1.3829,2.0463,-2.8888,0.0391,-1.7694,rough,15.5,0,3.520
2110,67.52,9.0885,-1.3696,2.0499,-2.8942,0.0566,-1.7628,rough,15.5,0,3.510
2120,67.84,9.0779,-1.3835,2.0466,-2.8999,0.0412,-1.7864,rough,15.5,0,3.521
2130,68.16,9.0750,-1.3837,2.0465,-2.9017,0.0466,-1.8056,rough,15.5,0,3.520
2140,68.48,9.0801,-1.3684,2.0495,-2.8952,0.0616,-1.7803,rough,15.5,0,3.507
2150,68.80,9.0650,-1.3844,2.0460,-2.8981,-0.0013,-1.7617,rough,15.5,0,3.518
2160,69.12,9.0882,-1.3717,2.0490,-2.8849,0.0662,-1.7717,rough,15.5,0,3.512
2170,69.44,9.0791,-1.3965,2.0464,-2.8782,0.0204,-1.7786,rough,15.5,0,3.533
2180,69.76,9.0828,-1.3553,2.0528,-2.8762,0.0953,-1.7873,rough,15.5,0,3.494
2190,70.08,9.0763,-1.3775,2.0475,-2.8998,0.0419,-1.7984,rough,15.5,0,3.514
2200,70.40,9.0886,-1.3614,2.0464,-2.8841,0.0719,-1.8027,rough,15.5,0,3.502
2210,70.72,9.0820,-1.3977,2.0448,-2.8994,0.0394,-1.8061,rough,15.5,0,3.535
2220,71.04,9.0859,-1.3506,2.0527,-2.8743,0.0914,-1.7627,rough,15.5,0,3.491
2230,71.36,9.0719,-1.3148,2.0544,-2.8491,0.1142,-1.7706,rough,15.5,0,3.452
2240,71.68,9.0677,-1.3708,2.0460,-2.8636,0.0031,-1.7346,rough,15.5,0,3.506
2250,72.00,9.0729,-1.4174,2.0464,-2.8651,-0.0121,-1.7672,rough,15.5,0,3.552
2260,72.32,9.0848,-1.3164,2.0556,-2.8741,0.0961,-1.7707,rough,15.5,0,3.457
2270,72.64,9.0683,-1.3403,2.0487,-2.8828,0.0511,-1.7354,rough,15.5,0,3.476
2280,72.96,9.0797,-1.4122,2.0464,-2.9093,0.0330,-1.7668,rough,15.5,0,3.549
2290,73.28,9.0803,-1.3539,2.0453,-2.8495,0.0790,-1.8129,rough,15.5,0,3.492
2300,73.60,9.0741,-1.3519,2.0490,-2.8943,0.0539,-1.7721,rough,15.5,0,3.489
2310,73.92,9.0813,-1.3972,2.0463,-2.8890,0.0331,-1.7923,rough,15.5,0,3.535
2320,74.24,9.0757,-1.3789,2.0483,-2.9104,0.0481,-1.8179,rough,15.5,0,3.516
2330,74.56,9.0787,-1.3912,2.0435,-2.8927,0.0259,-1.7617,rough,15.5,0,3.528
2340,74.88,9.0832,-1.3786,2.0420,-2.9163,0.0637,-1.7760,rough,15.5,0,3.517
2350,75.20,9.0725,-1.3782,2.0466,-2.9041,0.0384,-1.7842,rough,15.5,0,3.514
2360,75.52,9.0742,-1.3501,2.0433,-2.9109,0.0553,-1.8130,rough,15.5,0,3.487
2370,75.84,9.0766,-1.3941,2.0421,-2.8739,0.0166,-1.7396,rough,15.5,0,3.531
2380,76.16,9.0723,-1.3871,2.0438,-2.8959,0.0297,-1.7660,rough,15.5,0,3.523
2390,76.48,9.0718,-1.3499,2.0479,-2.8801,0.0599,-1.7579,rough,15.5,0,3.487
2400,76.80,9.0557,-1.3435,2.0514,-2.8848,0.0226,-1.7763,rough,15.5,0,3.477
2410,77.12,9.0633,-1.3578,2.0466,-2.9243,0.0194,-1.7775,rough,15.5,0,3.492
2420,77.44,9.0738,-1.3882,2.0398,-2.9000,0.0533,-1.7667,rough,15.5,0,3.524
2430,77.76,9.0792,-1.3731,2.0472,-2.9027,0.0555,-1.7855,rough,15.5,0,3.511
2440,78.08,9.0835,-1.3811,2.0467,-2.9072,0.0619,-1.7910,rough,15.5,0,3.520
2450,78.40,9.0738,-1.3493,2.0486,-2.8836,0.0675,-1.7568,rough,15.5,0,3.486
2460,78.72,9.0699,-1.3593,2.0466,-2.8966,0.0387,-1.7887,rough,15.5,0,3.495
2470,79.04,9.0663,-1.3391,2.0490,-2.8734,0.0648,-1.7523,rough,15.5,0,3.475
2480,79.36,9.0720,-1.3428,2.0515,-2.8859,0.0746,-1.7805,rough,15.5,0,3.480
2490,79.68,9.0650,-1.3582,2.0489,-2.8865,0.0290,-1.7663,rough,15.5,0,3.493
2500,80.00,9.0761,-1.3799,2.0468,-2.9079,0.0415,-1.8116,rough,15.5,0,3.517
2510,80.32,9.0801,-1.3822,2.0450,-2.9024,0.0468,-1.7752,rough,15.5,0,3.520
2520,80.64,9.0762,-1.3963,2.0466,-2.8858,0.0329,-1.7975,rough,15.5,0,3.533
2530,80.96,9.0695,-1.3883,2.0412,-2.9367,0.0070,-1.7773,rough,15.5,0,3.523
2540,81.28,9.0804,-1.3806,2.0485,-2.8895,0.0463,-1.7809,rough,15.5,0,3.518
2550,81.60,9.0734,-1.3833,2.0442,-2.8821,0.0226,-1.7603,rough,15.5,0,3.519
2560,81.92,9.0779,-1.3767,2.0478,-2.9108,0.0468,-1.8002,rough,15.5,0,3.514
2570,82.24,9.0792,-1.3881,2.0441,-2.8958,0.0401,-1.7627,rough,15.5,0,3.525
2580,82.56,9.0785,-1.3828,2.0478,-2.9041,0.0489,-1.8077,rough,15.5,0,3.520
2590,82.88,9.0893,-1.3822,2.0488,-2.8977,0.0553,-1.7880,rough,15.5,0,3.522
2600,83.20,9.0906,-1.3652,2.0522,-2.9024,0.0759,-1.7981,rough,15.5,0,3.506
2610,83.52,9.0778,-1.3884,2.0478,-2.8956,0.0416,-1.8070,rough,15.5,0,3.525
2620,83.84,9.0777,-1.3791,2.0474,-2.8999,0.0504,-1.7972,rough,15.5,0,3.516
2630,84.16,9.0865,-1.3763,2.0510,-2.8920,0.0690,-1.8067,rough,15.5,0,3.516
2640,84.48,9.0819,-1.4043,2.0482,-2.8688,0.0170,-1.7912,rough,15.5,0,3.542
2650,84.80,9.0827,-1.3950,2.0460,-2.8996,0.0413,-1.7767,rough,15.5,0,3.533
2660,85.12,9.0752,-1.3004,2.0573,-2.8567,0.1191,-1.7808,rough,15.5,0,3.439
2670,85.44,9.0600,-1.3036,2.0558,-2.8729,0.0764,-1.7778,rough,15.5,0,3.439
2680,85.76,9.0893,-1.3682,2.0481,-2.8974,0.0552,-1.8178,rough,15.5,0,3.509
2690,86.08,9.0829,-1.3801,2.0475,-2.8928,0.0484,-1.7748,rough,15.5,0,3.518
2700,86.40,9.0732,-1.3834,2.0455,-2.9007,0.0400,-1.7890,rough,15.5,0,3.519
2710,86.72,9.0809,-1.3845,2.0459,-2.8837,0.0478,-1.7685,rough,15.5,0,3.522
2720,87.04,9.0810,-1.3952,2.0468,-2.8853,0.0324,-1.7792,rough,15.5,0,3.533
2730,87.36,9.0843,-1.3543,2.0534,-2.8760,0.0978,-1.7903,rough,15.5,0,3.494
2740,87.68,9.0744,-1.3938,2.0424,-2.8979,0.0460,-1.8306,rough,15.5,0,3.530
2750,88.00,9.0740,-1.3765,2.0458,-2.8972,0.0412,-1.7799,rough,15.5,0,3.513
2760,88.32,9.0839,-1.4047,2.0465,-2.8720,0.0279,-1.7726,rough,15.5,0,3.543
2770,88.64,9.0781,-1.3632,2.0509,-2.8826,0.0865,-1.8030,rough,15.5,0,3.501
2780,88.96,9.0797,-1.3926,2.0467,-2.8867,0.0207,-1.7607,rough,15.5,0,3.530
2790,89.28,9.0707,-1.3302,2.0515,-2.8839,0.0662,-1.7725,rough,15.5,0,3.467
2800,89.60,9.0675,-1.3439,2.0502,-2.9039,0.0465,-1.7778,rough,15.5,0,3.480
2810,89.92,9.0719,-1.4091,2.0445,-2.8579,-0.0308,-1.7254,rough,15.5,0,3.544
2820,90.24,9.0865,-1.3603,2.0514,-2.8647,0.0941,-1.7752,rough,15.5,0,3.500
2830,90.56,9.0853,-1.3962,2.0474,-2.8885,0.0358,-1.7848,rough,15.5,0,3.535
2840,90.88,9.0770,-1.3774,2.0473,-2.8988,0.0496,-1.7886,rough,15.5,0,3.514
2850,91.20,9.0745,-1.3827,2.0466,-2.9052,0.0407,-1.8027,rough,15.5,0,3.519
2860,91.52,9.0705,-1.3976,2.0461,-2.8740,-0.0088,-1.7368,rough,15.5,0,3.533
2870,91.84,9.0664,-1.3784,2.0462,-2.9056,0.0261,-1.8042,rough,15.5,0,3.513
2880,92.16,9.0791,-1.3750,2.0484,-2.8911,0.0645,-1.8129,rough,15.5,0,3.513
2890,92.48,9.0831,-1.3826,2.0434,-2.9186,0.0482,-1.7751,rough,15.5,0,3.521
2900,92.80,9.0780,-1.3848,2.0453,-2.8975,0.0480,-1.7894,rough,15.5,0,3.522
2910,93.12,9.0804,-1.3850,2.0447,-2.8834,0.0384,-1.7500,rough,15.5,0,3.523
2920,93.44,9.0859,-1.3602,2.0516,-2.8701,0.0857,-1.7584,rough,15.5,0,3.500
2930,93.76,9.0776,-1.3739,2.0468,-2.8908,0.0671,-1.7904,rough,15.5,0,3.511
2940,94.08,9.0827,-1.3846,2.0468,-2.8987,0.0561,-1.7965,rough,15.5,0,3.523
2950,94.40,9.0834,-1.3783,2.0431,-2.9250,0.0500,-1.7691,rough,15.5,0,3.517
2960,94.72,9.0793,-1.3876,2.0450,-2.8876,0.0405,-1.7979,rough,15.5,0,3.525
2970,95.04,9.0813,-1.3844,2.0474,-2.8994,0.0524,-1.8027,rough,15.5,0,3.522
2980,95.36,9.0763,-1.3910,2.0454,-2.8895,0.0272,-1.7656,rough,15.5,0,3.527
2990,95.68,9.0786,-1.3825,2.0450,-2.9114,0.0523,-1.8021,rough,15.5,0,3.520
3000,96.00,9.0694,-1.3870,2.0461,-2.8930,0.0018,-1.7584,rough,15.5,0,3.522
3010,96.32,9.0697,-1.3789,2.0417,-2.8789,0.0304,-1.7780,rough,15.5,0,3.514
3020,96.64,9.0803,-1.3830,2.0423,-2.8797,0.0391,-1.8289,rough,15.5,0,3.521
3030,96.96,9.0826,-1.3899,2.0460,-2.8876,0.0424,-1.7818,rough,15.5,0,3.528
3040,97.28,9.0866,-1.3887,2.0462,-2.8885,0.0460,-1.7651,rough,15.5,0,3.528
3050,97.60,9.0783,-1.3884,2.0452,-2.8920,0.0308,-1.7592,rough,15.5,0,3.525
3060,97.92,9.0769,-1.3860,2.0454,-2.8907,0.0293,-1.7759,rough,15.5,0,3.523
3070,98.24,9.0814,-1.3729,2.0476,-2.8973,0.0543,-1.7794,rough,15.5,0,3.511
3080,98.56,9.0728,-1.4022,2.0386,-2.8635,0.0019,-1.7189,rough,15.5,0,3.538
3090,98.88,9.0855,-1.3702,2.0487,-2.8977,0.0572,-1.7587,rough,15.5,0,3.510
3100,99.20,9.0773,-1.4244,2.0488,-2.8547,-0.0280,-1.7734,rough,15.5,0,3.560
3110,99.52,9.0810,-1.3729,2.0465,-2.9125,0.0602,-1.7883,rough,15.5,0,3.511
3120,99.84,9.0833,-1.3904,2.0463,-2.8895,0.0485,-1.8076,rough,15.5,0,3.529
3130,100.16,9.0758,-1.3793,2.0470,-2.8997,0.0439,-1.7866,rough,15.5,0,3.516
3140,100.48,9.0766,-1.3516,2.0468,-2.8669,0.0535,-1.7802,rough,15.5,0,3.489
3150,100.80,9.0714,-1.3041,2.0548,-2.8523,0.1041,-1.7548,rough,15.5,0,3.442
3160,101.12,9.0728,-1.3617,2.0477,-2.8991,0.0458,-1.7975,rough,15.5,0,3.498
3170,101.44,9.0787,-1.4168,2.0420,-2.9130,0.0022,-1.8058,rough,15.5,0,3.553
3180,101.76,9.0863,-1.3618,2.0517,-2.8587,0.1037,-1.7778,rough,15.5,0,3.502
3190,102.08,9.0787,-1.3889,2.0465,-2.8929,0.0567,-1.8157,rough,15.5,0,3.526
3200,102.40,9.0728,-1.3641,2.0455,-2.9250,0.0692,-1.8248,rough,15.5,0,3.501
3210,102.72,9.0698,-1.3207,2.0524,-2.8748,0.0769,-1.7507,rough,15.5,0,3.458
3220,103.04,9.0642,-1.3137,2.0538,-2.8749,0.0907,-1.7938,rough,15.5,0,3.450
3230,103.36,9.0547,-1.3295,2.0482,-2.8879,0.0519,-1.7761,rough,15.5,0,3.463
3240,103.68,9.0679,-1.3457,2.0497,-2.8835,0.0515,-1.7519,rough,15.5,0,3.482
3250,104.00,9.0851,-1.3796,2.0466,-2.8937,0.0502,-1.7663,rough,15.5,0,3.519
3260,104.32,9.0816,-1.3772,2.0475,-2.9034,0.0595,-1.7973,rough,15.5,0,3.515
3270,104.64,9.0757,-1.3902,2.0398,-2.8912,0.0464,-1.7607,rough,15.5,0,3.527
3280,104.96,9.0729,-1.3928,2.0407,-2.8661,0.0236,-1.7751,rough,15.5,0,3.528
3290,105.28,9.0820,-1.3726,2.0481,-2.8757,0.0705,-1.7655,rough,15.5,0,3.511
3300,105.60,9.0800,-1.3792,2.0472,-2.8911,0.0371,-1.7662,rough,15.5,0,3.517
3310,105.92,9.0816,-1.3745,2.0483,-2.8959,0.0535,-1.7884,rough,15.5,0,3.513
3320,106.24,9.0708,-1.4424,2.0481,-2.8897,-0.0253,-1.7947,rough,15.5,0,3.576
3330,106.56,9.0773,-1.4108,2.0469,-2.8738,-0.0015,-1.7808,rough,15.5,0,3.547
3340,106.88,9.0839,-1.3740,2.0503,-2.8955,0.0704,-1.8108,rough,15.5,0,3.513
3350,107.20,9.0723,-1.3894,2.0447,-2.8794,0.0098,-1.7287,rough,15.5,0,3.525
3360,107.52,9.0803,-1.3663,2.0503,-2.8946,0.0702,-1.7974,rough,15.5,0,3.504
3370,107.84,9.0689,-1.4052,2.0448,-2.8714,-0.0267,-1.7259,rough,15.5,0,3.540
3380,108.16,9.0754,-1.3672,2.0485,-2.9010,0.0462,-1.7836,rough,15.5,0,3.504
3390,108.48,9.0751,-1.3852,2.0465,-2.9099,0.0374,-1.8082,rough,15.5,0,3.522
3400,108.80,9.0713,-1.3640,2.0395,-2.8628,0.0475,-1.8198,rough,15.5,0,3.500
3410,109.12,9.0755,-1.3772,2.0464,-2.9035,0.0379,-1.7819,rough,15.5,0,3.514
3420,109.44,9.0828,-1.3822,2.0485,-2.8950,0.0642,-1.8113,rough,15.5,0,3.521
3430,109.76,9.0838,-1.3717,2.0475,-2.8932,0.0583,-1.7947,rough,15.5,0,3.511
3440,110.08,9.0793,-1.3841,2.0461,-2.8830,0.0329,-1.7409,rough,15.5,0,3.521
3450,110.40,9.0797,-1.3890,2.0451,-2.8904,0.0360,-1.7606,rough,15.5,0,3.526
3460,110.72,9.0848,-1.3698,2.0496,-2.8816,0.0682,-1.7662,rough,15.5,0,3.509
3470,111.04,9.0711,-1.4069,2.0438,-2.8594,-0.0346,-1.7051,rough,15.5,0,3.542
3480,111.36,9.0752,-1.3488,2.0503,-2.8956,0.0604,-1.7939,rough,15.5,0,3.486
3490,111.68,9.0751,-1.3704,2.0456,-2.8815,0.0264,-1.7468,rough,15.5,0,3.507
3500,112.00,9.0750,-1.3867,2.0435,-2.8940,0.0209,-1.7414,rough,15.5,0,3.523
3510,112.32,9.0723,-1.3792,2.0479,-2.9102,0.0370,-1.8014,rough,15.5,0,3.515
3520,112.64,9.0811,-1.3797,2.0447,-2.9015,0.0580,-1.7810,rough,15.5,0,3.518
3530,112.96,9.0789,-1.4065,2.0431,-2.8727,-0.0039,-1.7332,rough,15.5,0,3.543
3540,113.28,9.0716,-1.3855,2.0451,-2.8914,0.0082,-1.7533,rough,15.5,0,3.521
3550,113.60,9.0789,-1.3560,2.0470,-2.8772,0.0579,-1.7710,rough,15.5,0,3.494
3560,113.92,9.0681,-1.3486,2.0486,-2.8970,0.0495,-1.7658,rough,15.5,0,3.484
3570,114.24,9.0716,-1.3934,2.0452,-2.9210,0.0203,-1.7810,rough,15.5,0,3.529
3580,114.56,9.0740,-1.3793,2.0452,-2.8957,0.0319,-1.7503,rough,15.5,0,3.516
3590,114.88,9.0680,-1.4033,2.0438,-2.8669,-0.0142,-1.7477,rough,15.5,0,3.537
3600,115.20,9.0829,-1.3815,2.0460,-2.9119,0.0525,-1.8205,rough,15.5,0,3.520
3610,115.52,9.0775,-1.3708,2.0478,-2.8905,0.0598,-1.7717,rough,15.5,0,3.508
3620,115.84,9.0766,-1.3883,2.0438,-2.9023,0.0363,-1.7834,rough,15.5,0,3.525
3630,116.16,9.0665,-1.3836,2.0404,-2.9481,0.0049,-1.7832,rough,15.5,0,3.518
3640,116.48,9.0782,-1.3740,2.0503,-2.8988,0.0563,-1.8193,rough,15.5,0,3.511
3650,116.80,9.0864,-1.3503,2.0464,-2.8808,0.0470,-1.7560,rough,15.5,0,3.490
3660,117.12,9.0737,-1.3862,2.0447,-2.8930,0.0494,-1.8153,rough,15.5,0,3.522
3670,117.44,9.0894,-1.3629,2.0489,-2.8935,0.0680,-1.8004,rough,15.5,0,3.503
3680,117.76,9.0793,-1.3024,2.0582,-2.8428,0.1348,-1.7714,rough,15.5,0,3.442
3690,118.08,9.0606,-1.2945,2.0543,-2.8706,0.0888,-1.7756,rough,15.5,0,3.430
3700,118.40,9.0802,-1.4183,2.0492,-2.8685,0.0176,-1.7955,rough,15.5,0,3.555
3710,118.72,9.0799,-1.3954,2.0440,-2.8855,0.0341,-1.7810,rough,15.5,0,3.533
3720,119.04,9.0864,-1.3881,2.0471,-2.9013,0.0407,-1.7816,rough,15.5,0,3.527
3730,119.36,9.0840,-1.3886,2.0457,-2.8950,0.0425,-1.7680,rough,15.5,0,3.527
3740,119.68,9.0739,-1.4056,2.0451,-2.8736,-0.0001,-1.7541,rough,15.5,0,3.541
3750,120.00,9.0782,-1.3857,2.0438,-2.8963,0.0336,-1.7902,rough,15.5,0,3.523
3760,120.32,9.0824,-1.3879,2.0469,-2.8959,0.0367,-1.7787,rough,15.5,0,3.526
3770,120.64,9.0732,-1.3814,2.0468,-2.8909,0.0261,-1.7692,rough,15.5,0,3.517
3780,120.96,9.0779,-1.3836,2.0450,-2.9004,0.0512,-1.7847,rough,15.5,0,3.521
3790,121.28,9.0770,-1.3995,2.0457,-2.8801,0.0243,-1.7776,rough,15.5,0,3.536
3800,121.60,9.0778,-1.3425,2.0501,-2.8671,0.0750,-1.7678,rough,15.5,0,3.481
3810,121.92,9.0692,-1.3570,2.0501,-2.9130,0.0581,-1.8226,rough,15.5,0,3.493
3820,122.24,9.0803,-1.3874,2.0459,-2.8985,0.0434,-1.7953,rough,15.5,0,3.525
3830,122.56,9.0775,-1.3922,2.0435,-2.8968,0.0383,-1.7812,rough,15.5,0,3.529
3840,122.88,9.0756,-1.3936,2.0461,-2.8863,0.0066,-1.7586,rough,15.5,0,3.530
3850,123.20,9.0747,-1.3815,2.0457,-2.8948,0.0320,-1.7582,rough,15.5,0,3.518
3860,123.52,9.0791,-1.3959,2.0464,-2.8877,0.0288,-1.7838,rough,15.5,0,3.533
3870,123.84,9.0804,-1.3878,2.0464,-2.8979,0.0521,-1.8098,rough,15.5,0,3.525
3880,124.16,9.0759,-1.3982,2.0454,-2.8875,0.0172,-1.7725,rough,15.5,0,3.534
3890,124.48,9.0779,-1.3733,2.0486,-2.9014,0.0564,-1.8045,rough,15.5,0,3.511
3900,124.80,9.0829,-1.3841,2.0467,-2.9025,0.0605,-1.8064,rough,15.5,0,3.522
3910,125.12,9.0865,-1.3588,2.0528,-2.8774,0.0880,-1.7806,rough,15.5,0,3.499
3920,125.44,9.0821,-1.3997,2.0447,-2.9056,0.0344,-1.7859,rough,15.5,0,3.537
3930,125.76,9.0766,-1.3773,2.0469,-2.8941,0.0393,-1.7636,rough,15.5,0,3.514
3940,126.08,9.0697,-1.3909,2.0433,-2.9360,0.0135,-1.8200,rough,15.5,0,3.526
3950,126.40,9.0814,-1.3612,2.0455,-2.8800,0.0469,-1.8006,rough,15.5,0,3.500
3960,126.72,9.0819,-1.3844,2.0472,-2.8945,0.0381,-1.7780,rough,15.5,0,3.522
3970,127.04,9.0774,-1.3924,2.0435,-2.8867,0.0350,-1.7656,rough,15.5,0,3.529
3980,127.36,9.0841,-1.3620,2.0457,-2.8618,0.0697,-1.8055,rough,15.5,0,3.501
3990,127.68,9.0772,-1.4602,2.0529,-2.8209,-0.0533,-1.7972,rough,15.5,0,3.595
4000,128.00,9.0830,-1.3972,2.0451,-2.8753,0.0112,-1.7979,rough,15.5,0,3.535
4010,128.32,9.0804,-1.3686,2.0492,-2.8817,0.0717,-1.7753,rough,15.5,0,3.507
4020,128.64,9.0717,-1.4231,2.0454,-2.8743,-0.0194,-1.7451,rough,15.5,0,3.558
4030,128.96,9.0810,-1.3389,2.0508,-2.8625,0.0848,-1.7544,rough,15.5,0,3.478
4040,129.28,9.0733,-1.2727,2.0612,-2.8460,0.1407,-1.7841,rough,15.5,0,3.412
4050,129.60,9.0640,-1.2938,2.0548,-2.8719,0.0846,-1.7595,rough,15.5,0,3.430
4060,129.92,9.0636,-1.3662,2.0486,-2.8686,0.0038,-1.7617,rough,15.5,0,3.500
4070,130.24,9.0837,-1.3843,2.0458,-2.8977,0.0465,-1.7711,rough,15.5,0,3.523
4080,130.56,9.0805,-1.3807,2.0461,-2.8935,0.0413,-1.7728,rough,15.5,0,3.519
4090,130.88,9.0664,-1.4186,2.0433,-2.8558,-0.0459,-1.6908,rough,15.5,0,3.552
4100,131.20,9.0655,-1.3489,2.0453,-2.8953,0.0668,-1.7860,rough,15.5,0,3.484
4110,131.52,9.0751,-1.3490,2.0518,-2.8735,0.0884,-1.7827,rough,15.5,0,3.486
4120,131.84,9.0777,-1.3812,2.0457,-2.9129,0.0236,-1.8061,rough,15.5,0,3.518
4130,132.16,9.0838,-1.4201,2.0449,-2.8858,0.0175,-1.7660,rough,15.5,0,3.558
4140,132.48,9.0841,-1.3697,2.0481,-2.8774,0.0670,-1.7640,rough,15.5,0,3.509
4150,132.80,9.0762,-1.3813,2.0459,-2.8928,0.0429,-1.7698,rough,15.5,0,3.518
4160,133.12,9.0703,-1.3909,2.0460,-2.9025,0.0100,-1.7664,rough,15.5,0,3.526
4170,133.44,9.0721,-1.3905,2.0380,-2.8622,0.0217,-1.7495,rough,15.5,0,3.526
4180,133.76,9.0642,-1.3922,2.0424,-2.8903,0.0229,-1.7767,rough,15.5,0,3.526
4190,134.08,9.0794,-1.3956,2.0463,-2.8874,0.0343,-1.7932,rough,15.5,0,3.533
4200,134.40,9.0725,-1.3710,2.0476,-2.9085,0.0419,-1.8100,rough,15.5,0,3.507
4210,134.72,9.0826,-1.3828,2.0461,-2.8982,0.0498,-1.7801,rough,15.5,0,3.521
4220,135.04,9.0824,-1.3826,2.0473,-2.8966,0.0423,-1.7714,rough,15.5,0,3.521
4230,135.36,9.0825,-1.3818,2.0455,-2.9018,0.0509,-1.7832,rough,15.5,0,3.520
4240,135.68,9.0827,-1.3880,2.0452,-2.8883,0.0397,-1.7647,rough,15.5,0,3.526
4250,136.00,9.0722,-1.3784,2.0414,-2.8989,0.0595,-1.7737,rough,15.5,0,3.514
4260,136.32,9.0720,-1.3776,2.0440,-2.9059,0.0244,-1.7386,rough,15.5,0,3.513
4270,136.64,9.0713,-1.3832,2.0480,-2.9063,0.0259,-1.8082,rough,15.5,0,3.519
4280,136.96,9.0779,-1.3776,2.0470,-2.8986,0.0509,-1.7855,rough,15.5,0,3.515
4290,137.28,9.0615,-1.4130,2.0437,-2.8626,-0.0549,-1.6958,rough,15.5,0,3.545
4300,137.60,9.0799,-1.3257,2.0538,-2.8651,0.1038,-1.7822,rough,15.5,0,3.465
4310,137.92,9.0651,-1.3084,2.0524,-2.8517,0.0959,-1.7462,rough,15.5,0,3.445
4320,138.24,9.0825,-1.3870,2.0476,-2.8904,0.0482,-1.8084,rough,15.5,0,3.525
4330,138.56,9.0791,-1.3953,2.0435,-2.8867,0.0350,-1.7658,rough,15.5,0,3.532
4340,138.88,9.0764,-1.3856,2.0466,-2.9020,0.0272,-1.7914,rough,15.5,0,3.522
4350,139.20,9.0769,-1.3610,2.0511,-2.9034,0.0648,-1.8002,rough,15.5,0,3.499
4360,139.52,9.0736,-1.3563,2.0498,-2.8988,0.0561,-1.8015,rough,15.5,0,3.493
4370,139.84,9.0794,-1.3575,2.0490,-2.8891,0.0650,-1.8213,rough,15.5,0,3.496
4380,140.16,9.0892,-1.3892,2.0493,-2.8964,0.0659,-1.8327,rough,15.5,0,3.529
4390,140.48,9.0770,-1.3932,2.0443,-2.8822,0.0302,-1.7793,rough,15.5,0,3.530
4400,140.80,9.0804,-1.3886,2.0430,-2.8925,0.0510,-1.7633,rough,15.5,0,3.526
4410,141.12,9.0811,-1.3830,2.0472,-2.8951,0.0566,-1.8034,rough,15.5,0,3.521
4420,141.44,9.0743,-1.3889,2.0436,-2.8899,0.0334,-1.7696,rough,15.5,0,3.525
4430,141.76,9.0714,-1.3825,2.0455,-2.9158,0.0202,-1.7839,rough,15.5,0,3.518
4440,142.08,9.0901,-1.3723,2.0494,-2.8947,0.0494,-1.7624,rough,15.5,0,3.513
4450,142.40,9.0754,-1.4102,2.0428,-2.8773,-0.0071,-1.7142,rough,15.5,0,3.546
4460,142.72,9.0659,-1.3641,2.0471,-2.9033,0.0322,-1.7577,rough,15.5,0,3.499
4470,143.04,9.0755,-1.3725,2.0452,-2.8910,0.0436,-1.7977,rough,15.5,0,3.509
4480,143.36,9.0756,-1.3791,2.0475,-2.9018,0.0529,-1.8130,rough,15.5,0,3.516
4490,143.68,9.0765,-1.3853,2.0468,-2.8972,0.0515,-1.8103,rough,15.5,0,3.522
4500,144.00,9.0702,-1.3827,2.0474,-2.8922,0.0178,-1.7676,rough,15.5,0,3.518
4510,144.32,9.0771,-1.3564,2.0463,-2.8882,0.0448,-1.7995,rough,15.5,0,3.494
4520,144.64,9.0793,-1.3939,2.0459,-2.8910,0.0259,-1.7857,rough,15.5,0,3.531
4530,144.96,9.0755,-1.3868,2.0450,-2.8939,0.0292,-1.7771,rough,15.5,0,3.523
4540,145.28,9.0819,-1.3826,2.0456,-2.8883,0.0382,-1.7909,rough,15.5,0,3.521
4550,145.60,9.0820,-1.4014,2.0475,-2.8826,0.0389,-1.8118,rough,15.5,0,3.539
4560,145.92,9.0776,-1.3812,2.0456,-2.8886,0.0341,-1.7690,rough,15.5,0,3.518
4570,146.24,9.0738,-1.3771,2.0471,-2.9119,0.0502,-1.8141,rough,15.5,0,3.513
4580,146.56,9.0715,-1.3955,2.0468,-2.8824,0.0052,-1.7760,rough,15.5,0,3.531
4590,146.88,9.0689,-1.3881,2.0464,-2.8977,0.0054,-1.7603,rough,15.5,0,3.523
4600,147.20,9.0782,-1.3781,2.0464,-2.8911,0.0490,-1.7647,rough,15.5,0,3.515
4610,147.52,9.0754,-1.3815,2.0468,-2.9063,0.0408,-1.7961,rough,15.5,0,3.518
4620,147.84,9.0767,-1.3953,2.0435,-2.8757,0.0197,-1.7615,rough,15.5,0,3.532
4630,148.16,9.0774,-1.3950,2.0434,-2.8913,0.0316,-1.7724,rough,15.5,0,3.532
4640,148.48,9.0717,-1.4026,2.0442,-2.8665,-0.0088,-1.7450,rough,15.5,0,3.538
4650,148.80,9.0796,-1.3534,2.0446,-2.8592,0.0597,-1.7953,rough,15.5,0,3.492
4660,149.12,9.0822,-1.3911,2.0459,-2.8915,0.0411,-1.7815,rough,15.5,0,3.529
4670,149.44,9.0824,-1.3888,2.0476,-2.8960,0.0498,-1.8065,rough,15.5,0,3.527
4680,149.76,9.0731,-1.3895,2.0446,-2.9201,0.0152,-1.7925,rough,15.5,0,3.525
4690,150.08,9.0773,-1.3783,2.0463,-2.8987,0.0497,-1.7681,rough,15.5,0,3.515
4700,150.40,9.0770,-1.3985,2.0481,-2.8922,0.0270,-1.7752,rough,15.5,0,3.535
4710,150.72,9.0817,-1.3849,2.0468,-2.8991,0.0477,-1.7852,rough,15.5,0,3.523
4720,151.04,9.0848,-1.3903,2.0468,-2.8889,0.0386,-1.7725,rough,15.5,0,3.529
4730,151.36,9.0816,-1.3883,2.0451,-2.8913,0.0381,-1.7698,rough,15.5,0,3.526
4740,151.68,9.0702,-1.3820,2.0447,-2.9001,0.0186,-1.7556,rough,15.5,0,3.517
4750,152.00,9.0785,-1.3673,2.0469,-2.8921,0.0480,-1.8038,rough,15.5,0,3.505
4760,152.32,9.0768,-1.4280,2.0463,-2.8432,-0.0271,-1.7643,rough,15.5,0,3.564
4770,152.64,9.0846,-1.3934,2.0458,-2.9099,0.0574,-1.8314,rough,15.5,0,3.532
4780,152.96,9.0698,-1.3808,2.0466,-2.9010,0.0244,-1.7943,rough,15.5,0,3.516
4790,153.28,9.0914,-1.3910,2.0481,-2.9130,0.0541,-1.7655,rough,15.5,0,3.531
4800,153.60,9.0726,-1.3821,2.0461,-2.8884,0.0251,-1.7474,rough,15.5,0,3.518
4810,153.92,9.0753,-1.3214,2.0531,-2.8661,0.0890,-1.7772,rough,15.5,0,3.460
4820,154.24,9.0679,-1.2756,2.0593,-2.8270,0.1518,-1.7832,rough,15.5,0,3.413
4830,154.56,9.0510,-1.3640,2.0514,-2.8837,-0.0231,-1.7659,rough,15.5,0,3.495
4840,154.88,9.0823,-1.3903,2.0414,-2.8742,0.0382,-1.7656,rough,15.5,0,3.528
4850,155.20,9.0746,-1.3868,2.0436,-2.8858,0.0284,-1.7649,rough,15.5,0,3.523
4860,155.52,9.0765,-1.3803,2.0464,-2.9081,0.0313,-1.7750,rough,15.5,0,3.517
4870,155.84,9.0757,-1.3677,2.0487,-2.8995,0.0584,-1.7968,rough,15.5,0,3.505
4880,156.16,9.0815,-1.4270,2.0487,-2.8825,0.0174,-1.8010,rough,15.5,0,3.564
4890,156.48,9.0837,-1.3903,2.0458,-2.8933,0.0372,-1.7750,rough,15.5,0,3.529
4900,156.80,9.0703,-1.3912,2.0445,-2.8885,0.0097,-1.7196,rough,15.5,0,3.526
4910,157.12,9.0842,-1.3449,2.0490,-2.8755,0.0700,-1.7957,rough,15.5,0,3.485
4920,157.44,9.0579,-1.4300,2.0445,-2.8654,-0.0681,-1.7084,rough,15.5,0,3.561
4930,157.76,9.0820,-1.3861,2.0467,-2.8962,0.0434,-1.7919,rough,15.5,0,3.524
4940,158.08,9.0783,-1.3346,2.0534,-2.8655,0.1015,-1.7770,rough,15.5,0,3.473
4950,158.40,9.0661,-1.3191,2.0522,-2.8700,0.0827,-1.7640,rough,15.5,0,3.455
4960,158.72,9.0760,-1.4046,2.0424,-2.8679,0.0245,-1.7803,rough,15.5,0,3.541
4970,159.04,9.0614,-1.3977,2.0480,-2.9101,-0.0150,-1.7769,rough,15.5,0,3.530
4980,159.36,9.0769,-1.3731,2.0481,-2.9024,0.0486,-1.8114,rough,15.5,0,3.510
4990,159.68,9.0720,-1.3952,2.0439,-2.8687,-0.0101,-1.7126,rough,15.5,0,3.531
5000,160.00,9.0805,-1.3741,2.0487,-2.8950,0.0577,-1.7868,rough,15.5,0,3.512
5010,160.32,9.0805,-1.3676,2.0480,-2.9001,0.0804,-1.8062,rough,15.5,0,3.506
5020,160.64,9.0822,-1.3890,2.0467,-2.8860,0.0320,-1.7806,rough,15.5,0,3.527
5030,160.96,9.0729,-1.3866,2.0476,-2.9034,0.0291,-1.7956,rough,15.5,0,3.522
5040,161.28,9.0721,-1.3789,2.0440,-2.8990,0.0284,-1.7415,rough,15.5,0,3.515
5050,161.60,9.0712,-1.3829,2.0417,-2.8906,0.0412,-1.7637,rough,15.5,0,3.518
5060,161.92,9.0768,-1.3780,2.0479,-2.9072,0.0523,-1.8017,rough,15.5,0,3.515
5070,162.24,9.0775,-1.3858,2.0466,-2.8975,0.0500,-1.8038,rough,15.5,0,3.523
5080,162.56,9.0808,-1.3651,2.0481,-2.8916,0.0649,-1.7637,rough,15.5,0,3.503
5090,162.88,9.0872,-1.4000,2.0459,-2.8759,0.0402,-1.7948,rough,15.5,0,3.539
5100,163.20,9.0726,-1.3575,2.0469,-2.9045,0.0373,-1.7983,rough,15.5,0,3.494
5110,163.52,9.0642,-1.3260,2.0516,-2.8819,0.0732,-1.8053,rough,15.5,0,3.462
5120,163.84,9.0735,-1.4005,2.0439,-2.8558,-0.0277,-1.7271,rough,15.5,0,3.536
5130,164.16,9.0756,-1.3820,2.0457,-2.8924,0.0410,-1.7681,rough,15.5,0,3.519
5140,164.48,9.0752,-1.3150,2.0559,-2.8673,0.1128,-1.8049,rough,15.5,0,3.453
5150,164.80,9.0655,-1.2548,2.0583,-2.8566,0.1468,-1.7588,rough,15.5,0,3.393
5160,165.12,9.0666,-1.2591,2.0557,-2.8334,0.1395,-1.7055,rough,15.5,0,3.397
5170,165.44,9.0710,-1.2803,2.0578,-2.8462,0.1202,-1.7529,rough,15.5,0,3.419
5180,165.76,9.0570,-1.3618,2.0504,-2.8814,0.0019,-1.7812,rough,15.5,0,3.495
5190,166.08,9.0739,-1.4627,2.0528,-2.8128,-0.0653,-1.7917,rough,15.5,0,3.597
5200,166.40,9.0795,-1.4183,2.0509,-2.8631,0.0056,-1.8090,rough,15.5,0,3.555
5210,166.72,9.0809,-1.4105,2.0470,-2.8911,0.0239,-1.7919,rough,15.5,0,3.548
5220,167.04,9.0723,-1.3172,2.0522,-2.8556,0.0904,-1.7471,rough,15.5,0,3.455
5230,167.36,9.0563,-1.2885,2.0513,-2.8364,0.0922,-1.7735,rough,15.5,0,3.423
5240,167.68,9.0728,-1.3638,2.0425,-2.9040,0.0865,-1.7818,rough,15.5,0,3.500
5250,168.00,9.0745,-1.3923,2.0451,-2.9162,0.0248,-1.8091,rough,15.5,0,3.528
5260,168.32,9.0759,-1.3833,2.0452,-2.9032,0.0573,-1.8080,rough,15.5,0,3.520
5270,168.64,9.0837,-1.3482,2.0477,-2.8757,0.0681,-1.7723,rough,15.5,0,3.488
5280,168.96,9.0719,-1.3612,2.0498,-2.8927,0.0524,-1.7869,rough,15.5,0,3.497
5290,169.28,9.0779,-1.3728,2.0460,-2.8895,0.0481,-1.7706,rough,15.5,0,3.510
5300,169.60,9.0752,-1.4104,2.0413,-2.8609,0.0105,-1.7658,rough,15.5,0,3.546
5310,169.92,9.0852,-1.3881,2.0478,-2.8990,0.0643,-1.8220,rough,15.5,0,3.527
5320,170.24,9.0734,-1.3886,2.0472,-2.8888,0.0266,-1.7706,rough,15.5,0,3.524
5330,170.56,9.0755,-1.3998,2.0426,-2.8780,0.0007,-1.6989,rough,15.5,0,3.536
5340,170.88,9.0657,-1.3658,2.0484,-2.8832,0.0252,-1.7430,rough,15.5,0,3.501
5350,171.20,9.0621,-1.3306,2.0504,-2.8950,0.0569,-1.7867,rough,15.5,0,3.465
5360,171.52,9.0568,-1.3545,2.0516,-2.8715,-0.0013,-1.7655,rough,15.5,0,3.487
5370,171.84,9.0759,-1.3635,2.0462,-2.8814,0.0456,-1.7835,rough,15.5,0,3.501
5380,172.16,9.0857,-1.3868,2.0464,-2.8910,0.0479,-1.7774,rough,15.5,0,3.526
5390,172.48,9.0782,-1.3655,2.0487,-2.9051,0.0606,-1.7972,rough,15.5,0,3.503
5400,172.80,9.0782,-1.4038,2.0474,-2.8779,0.0196,-1.7895,rough,15.5,0,3.540
5410,173.12,9.0738,-1.3639,2.0496,-2.8984,0.0631,-1.7924,rough,15.5,0,3.501
5420,173.44,9.0723,-1.3391,2.0510,-2.8903,0.0614,-1.7779,rough,15.5,0,3.476
5430,173.76,9.0677,-1.3866,2.0460,-2.8889,-0.0033,-1.7567,rough,15.5,0,3.521
5440,174.08,9.0761,-1.3702,2.0479,-2.8924,0.0565,-1.7778,rough,15.5,0,3.507
5450,174.40,9.0777,-1.3902,2.0451,-2.8901,0.0214,-1.7541,rough,15.5,0,3.527
5460,174.72,9.0725,-1.3840,2.0439,-2.9049,0.0232,-1.7970,rough,15.5,0,3.520
5470,175.04,9.0723,-1.3796,2.0449,-2.9074,0.0387,-1.7745,rough,15.5,0,3.515
5480,175.36,9.0720,-1.3896,2.0444,-2.8893,0.0115,-1.7586,rough,15.5,0,3.525
5490,175.68,9.0759,-1.3914,2.0459,-2.8909,0.0176,-1.7626,rough,15.5,0,3.528
5500,176.00,9.0753,-1.3723,2.0474,-2.9014,0.0471,-1.7800,rough,15.5,0,3.509
5510,176.32,9.0754,-1.3735,2.0481,-2.9063,0.0431,-1.7977,rough,15.5,0,3.510
5520,176.64,9.0784,-1.3860,2.0420,-2.8958,0.0693,-1.7866,rough,15.5,0,3.523
5530,176.96,9.0752,-1.3779,2.0476,-2.9047,0.0437,-1.8011,rough,15.5,0,3.515
5540,177.28,9.0823,-1.3781,2.0468,-2.8941,0.0635,-1.7957,rough,15.5,0,3.516
5550,177.60,9.0775,-1.4050,2.0453,-2.8720,0.0092,-1.7590,rough,15.5,0,3.541
5560,177.92,9.0839,-1.3549,2.0520,-2.8871,0.0784,-1.8117,rough,15.5,0,3.494
5570,178.24,9.0792,-1.3805,2.0459,-2.8982,0.0468,-1.7795,rough,15.5,0,3.518
5580,178.56,9.0742,-1.4004,2.0434,-2.8680,0.0057,-1.7494,rough,15.5,0,3.536
5590,178.88,9.0713,-1.3593,2.0460,-2.9071,0.0300,-1.8103,rough,15.5,0,3.496
5600,179.20,9.0595,-1.2831,2.0551,-2.8587,0.1006,-1.7727,rough,15.5,0,3.419
5610,179.52,9.0617,-1.2632,2.0554,-2.8484,0.1356,-1.7655,rough,15.5,0,3.400
5620,179.84,9.0679,-1.1686,2.0620,-2.8221,0.2133,-1.7140,rough,15.5,0,3.310
5630,180.16,9.0667,-1.1518,2.0641,-2.7864,0.2636,-1.7074,rough,15.5,0,3.293
5640,180.48,9.0653,-1.1582,2.0664,-2.8121,0.2552,-1.7623,rough,15.5,0,3.299
5650,180.80,9.0663,-1.1405,2.0675,-2.8076,0.2748,-1.7378,rough,15.5,0,3.282
5660,181.12,9.0598,-1.1460,2.0683,-2.7845,0.2340,-1.7392,rough,15.5,0,3.286
5670,181.44,9.0665,-1.1635,2.0652,-2.8028,0.2462,-1.7363,rough,15.5,0,3.305
5680,181.76,9.0674,-1.1529,2.0635,-2.7894,0.2643,-1.7181,rough,15.5,0,3.295
5690,182.08,9.0700,-1.1482,2.0656,-2.7936,0.2753,-1.7200,rough,15.5,0,3.291
5700,182.40,9.0597,-1.1721,2.0630,-2.7667,0.2005,-1.6964,rough,15.5,0,3.311
5710,182.72,9.0621,-1.2201,2.0595,-2.8400,0.1760,-1.7750,rough,15.5,0,3.358
5720,183.04,9.0662,-1.3019,2.0544,-2.8827,0.0861,-1.7809,rough,15.5,0,3.439
5730,183.36,9.0819,-1.4195,2.0487,-2.8620,0.0007,-1.8040,rough,15.5,0,3.556
5740,183.68,9.0926,-1.3819,2.0493,-2.8998,0.0462,-1.7697,rough,15.5,0,3.523
5750,184.00,9.0778,-1.3775,2.0482,-2.9014,0.0504,-1.8079,rough,15.5,0,3.515
5760,184.32,9.0764,-1.3961,2.0448,-2.8845,0.0271,-1.7703,rough,15.5,0,3.532
5770,184.64,9.0773,-1.3874,2.0439,-2.8928,0.0423,-1.7721,rough,15.5,0,3.524
5780,184.96,9.0721,-1.4024,2.0454,-2.8808,-0.0086,-1.7525,rough,15.5,0,3.538
5790,185.28,9.0714,-1.3971,2.0427,-2.8856,0.0127,-1.7508,rough,15.5,0,3.532
5800,185.60,9.0797,-1.3834,2.0465,-2.9151,0.0248,-1.7810,rough,15.5,0,3.521
5810,185.92,9.0760,-1.3967,2.0451,-2.8904,0.0048,-1.7544,rough,15.5,0,3.533
5820,186.24,9.0785,-1.3672,2.0468,-2.8817,0.0542,-1.7668,rough,15.5,0,3.505
5830,186.56,9.0829,-1.3865,2.0461,-2.9097,0.0609,-1.7943,rough,15.5,0,3.525
5840,186.88,9.0750,-1.3850,2.0450,-2.8865,0.0239,-1.7420,rough,15.5,0,3.521
5850,187.20,9.0787,-1.3960,2.0443,-2.8682,0.0053,-1.7483,rough,15.5,0,3.533
5860,187.52,9.0643,-1.3977,2.0462,-2.8764,-0.0256,-1.7243,rough,15.5,0,3.531
5870,187.84,9.0743,-1.3818,2.0474,-2.9021,0.0386,-1.7943,rough,15.5,0,3.518
5880,188.16,9.0777,-1.3771,2.0478,-2.8851,0.0363,-1.7464,rough,15.5,0,3.514
5890,188.48,9.0740,-1.3894,2.0424,-2.8969,0.0216,-1.7749,rough,15.5,0,3.525
5900,188.80,9.0775,-1.3787,2.0483,-2.8899,0.0417,-1.7732,rough,15.5,0,3.516
5910,189.12,9.0698,-1.3918,2.0409,-2.8890,0.0362,-1.7599,rough,15.5,0,3.527
5920,189.44,9.0791,-1.3634,2.0458,-2.8840,0.0486,-1.7779,rough,15.5,0,3.501
5930,189.76,9.0761,-1.4139,2.0450,-2.8825,-0.0027,-1.7627,rough,15.5,0,3.550
5940,190.08,9.0854,-1.3452,2.0482,-2.8392,0.0878,-1.7611,rough,15.5,0,3.485
5950,190.40,9.0753,-1.3874,2.0426,-2.9078,0.0322,-1.7846,rough,15.5,0,3.524
5960,190.72,9.0728,-1.3798,2.0462,-2.9045,0.0321,-1.7768,rough,15.5,0,3.516
5970,191.04,9.0851,-1.3912,2.0480,-2.8910,0.0351,-1.7842,rough,15.5,0,3.530
5980,191.36,9.0671,-1.4103,2.0430,-2.8640,-0.0304,-1.7057,rough,15.5,0,3.544
5990,191.68,9.0797,-1.3148,2.0560,-2.8461,0.1280,-1.7757,rough,15.5,0,3.454
6000,192.00,9.0620,-1.3251,2.0505,-2.8796,0.0698,-1.7714,rough,15.5,0,3.460
6010,192.32,9.0766,-1.4089,2.0477,-2.8690,-0.0047,-1.7691,rough,15.5,0,3.545
6020,192.64,9.0624,-1.3863,2.0480,-2.9301,0.0146,-1.7894,rough,15.5,0,3.520
6030,192.96,9.0778,-1.3470,2.0473,-2.8740,0.0597,-1.7735,rough,15.5,0,3.485
6040,193.28,9.0793,-1.3954,2.0416,-2.9025,0.0408,-1.7742,rough,15.5,0,3.532
6050,193.60,9.0792,-1.3828,2.0454,-2.9022,0.0402,-1.7674,rough,15.5,0,3.520
6060,193.92,9.0728,-1.3466,2.0492,-2.8773,0.0608,-1.7530,rough,15.5,0,3.484
6070,194.24,9.0686,-1.3327,2.0517,-2.8963,0.0577,-1.7762,rough,15.5,0,3.469
6080,194.56,9.0625,-1.3714,2.0462,-2.9316,0.0256,-1.7827,rough,15.5,0,3.505
6090,194.88,9.0785,-1.3877,2.0456,-2.8933,0.0461,-1.7978,rough,15.5,0,3.525
6100,195.20,9.0788,-1.3810,2.0471,-2.9127,0.0304,-1.7820,rough,15.5,0,3.518
6110,195.52,9.0803,-1.3670,2.0486,-2.8994,0.0673,-1.7814,rough,15.5,0,3.505
6120,195.84,9.0686,-1.3647,2.0482,-2.9020,0.0499,-1.7966,rough,15.5,0,3.500
6130,196.16,9.0831,-1.3627,2.0485,-2.8740,0.0783,-1.7540,rough,15.5,0,3.502
6140,196.48,9.0775,-1.4276,2.0463,-2.9371,0.0430,-1.7730,rough,15.5,0,3.563
6150,196.80,9.0793,-1.4214,2.0464,-2.8727,-0.0184,-1.7837,rough,15.5,0,3.558
6160,197.12,9.0819,-1.3291,2.0497,-2.8485,0.1026,-1.7884,rough,15.5,0,3.469
6170,197.44,9.0623,-1.3155,2.0509,-2.8689,0.0785,-1.7648,rough,15.5,0,3.451
6180,197.76,9.0891,-1.3976,2.0499,-2.8888,0.0583,-1.8607,rough,15.5,0,3.537
6190,198.08,9.0827,-1.3674,2.0498,-2.9055,0.0609,-1.8138,rough,15.5,0,3.506
6200,198.40,9.0814,-1.3899,2.0467,-2.9154,0.0326,-1.8104,rough,15.5,0,3.528
6210,198.72,9.0740,-1.3815,2.0454,-2.8894,0.0316,-1.7383,rough,15.5,0,3.518
6220,199.04,9.0801,-1.3745,2.0483,-2.8860,0.0622,-1.7785,rough,15.5,0,3.512
6230,199.36,9.0737,-1.3818,2.0448,-2.9268,0.0358,-1.8225,rough,15.5,0,3.518
6240,199.68,9.0826,-1.3787,2.0452,-2.9103,0.0442,-1.7663,rough,15.5,0,3.517
6250,200.00,9.0799,-1.3771,2.0471,-2.8892,0.0553,-1.7767,rough,15.5,0,3.515
6260,200.32,9.0845,-1.3837,2.0455,-2.8986,0.0572,-1.8007,rough,15.5,0,3.522
6270,200.64,9.0780,-1.3799,2.0468,-2.9000,0.0486,-1.7916,rough,15.5,0,3.517
6280,200.96,9.0719,-1.3806,2.0447,-2.8883,0.0253,-1.7342,rough,15.5,0,3.516
6290,201.28,9.0842,-1.3472,2.0512,-2.8673,0.0849,-1.7894,rough,15.5,0,3.487
6300,201.60,9.0715,-1.3212,2.0508,-2.8569,0.0829,-1.7215,rough,15.5,0,3.459
6310,201.92,9.0574,-1.2302,2.0604,-2.8173,0.1412,-1.7360,rough,15.5,0,3.367
6320,202.24,9.0510,-1.1314,2.0671,-2.7607,0.2301,-1.7032,rough,15.5,0,3.270
6330,202.56,9.0604,-1.1814,2.0657,-2.8252,0.2196,-1.7423,rough,15.5,0,3.320
6340,202.88,9.0695,-1.2413,2.0572,-2.8153,0.1764,-1.7182,rough,15.5,0,3.381
6350,203.20,9.0775,-1.2366,2.0530,-2.8413,0.2005,-1.7050,rough,15.5,0,3.378
6360,203.52,9.0651,-1.2473,2.0559,-2.8119,0.1305,-1.7094,rough,15.5,0,3.385
6370,203.84,9.0663,-1.2052,2.0603,-2.8206,0.2028,-1.7703,rough,15.5,0,3.345
6380,204.16,9.0694,-1.1747,2.0648,-2.7803,0.2349,-1.7164,rough,15.5,0,3.316
6390,204.48,9.0538,-1.1578,2.0637,-2.7603,0.2057,-1.6753,rough,15.5,0,3.296
6400,204.80,9.0644,-1.2189,2.0611,-2.8241,0.1763,-1.7564,rough,15.5,0,3.358
6410,205.12,9.0737,-1.3488,2.0505,-2.8880,0.0718,-1.7783,rough,15.5,0,3.486
6420,205.44,9.0773,-1.3912,2.0448,-2.8936,0.0397,-1.7888,rough,15.5,0,3.528
6430,205.76,9.0815,-1.3656,2.0462,-2.8828,0.0509,-1.8087,rough,15.5,0,3.504
6440,206.08,9.0761,-1.3759,2.0473,-2.9159,0.0434,-1.8067,rough,15.5,0,3.513
6450,206.40,9.0800,-1.3791,2.0484,-2.9006,0.0552,-1.8189,rough,15.5,0,3.517
6460,206.72,9.0793,-1.3877,2.0455,-2.8750,0.0217,-1.7590,rough,15.5,0,3.525
6470,207.04,9.0784,-1.3798,2.0464,-2.9148,0.0519,-1.8094,rough,15.5,0,3.517
6480,207.36,9.0797,-1.3876,2.0461,-2.8946,0.0329,-1.7948,rough,15.5,0,3.525
6490,207.68,9.0794,-1.3847,2.0463,-2.8981,0.0454,-1.7927,rough,15.5,0,3.522
6500,208.00,9.0732,-1.3812,2.0468,-2.9066,0.0484,-1.8153,rough,15.5,0,3.517
6510,208.32,9.0795,-1.3808,2.0467,-2.8964,0.0459,-1.7768,rough,15.5,0,3.518
6520,208.64,9.0662,-1.3978,2.0407,-2.8845,0.0125,-1.7482,rough,15.5,0,3.532
6530,208.96,9.0774,-1.3799,2.0456,-2.8938,0.0436,-1.7634,rough,15.5,0,3.517
6540,209.28,9.0776,-1.3639,2.0481,-2.8974,0.0604,-1.7820,rough,15.5,0,3.502
6550,209.60,9.0615,-1.3422,2.0497,-2.9234,0.0509,-1.8019,rough,15.5,0,3.477
6560,209.92,9.0804,-1.3885,2.0463,-2.8950,0.0492,-1.7994,rough,15.5,0,3.526
6570,210.24,9.0780,-1.3988,2.0469,-2.8940,0.0183,-1.7848,rough,15.5,0,3.535
6580,210.56,9.0705,-1.3799,2.0470,-2.8920,0.0216,-1.7570,rough,15.5,0,3.515
6590,210.88,9.0735,-1.3904,2.0421,-2.8875,0.0410,-1.7726,rough,15.5,0,3.526
6600,211.20,9.0742,-1.3921,2.0471,-2.8968,0.0318,-1.7990,rough,15.5,0,3.528
6610,211.52,9.0724,-1.3844,2.0451,-2.9078,0.0228,-1.7660,rough,15.5,0,3.520
6620,211.84,9.0781,-1.3920,2.0464,-2.8896,0.0275,-1.7762,rough,15.5,0,3.529
6630,212.16,9.0834,-1.3693,2.0500,-2.8951,0.0673,-1.8010,rough,15.5,0,3.508
6640,212.48,9.0767,-1.3935,2.0476,-2.8918,0.0235,-1.7759,rough,15.5,0,3.530
6650,212.80,9.0771,-1.3723,2.0484,-2.8846,0.0555,-1.7663,rough,15.5,0,3.509
6660,213.12,9.0753,-1.3492,2.0499,-2.8713,0.0637,-1.7635,rough,15.5,0,3.487
6670,213.44,9.0751,-1.3570,2.0467,-2.8877,0.0622,-1.7339,rough,15.5,0,3.494
6680,213.76,9.0833,-1.3878,2.0469,-2.8902,0.0491,-1.7996,rough,15.5,0,3.526
6690,214.08,9.0797,-1.3819,2.0431,-2.8863,0.0444,-1.8084,rough,15.5,0,3.520
6700,214.40,9.0770,-1.3842,2.0454,-2.8927,0.0326,-1.7556,rough,15.5,0,3.521
6710,214.72,9.0683,-1.3910,2.0468,-2.9180,0.0136,-1.7871,rough,15.5,0,3.526
6720,215.04,9.0787,-1.3845,2.0459,-2.8980,0.0423,-1.7763,rough,15.5,0,3.522
6730,215.36,9.0790,-1.3841,2.0460,-2.8944,0.0413,-1.7703,rough,15.5,0,3.521
6740,215.68,9.0765,-1.3853,2.0458,-2.9062,0.0375,-1.7914,rough,15.5,0,3.522
6750,216.00,9.0700,-1.3952,2.0446,-2.8965,0.0087,-1.7774,rough,15.5,0,3.530
6760,216.32,9.0767,-1.3717,2.0480,-2.9022,0.0548,-1.8015,rough,15.5,0,3.509
6770,216.64,9.0771,-1.3796,2.0454,-2.8935,0.0461,-1.7687,rough,15.5,0,3.517
6780,216.96,9.0795,-1.3928,2.0468,-2.8871,0.0367,-1.7974,rough,15.5,0,3.530
6790,217.28,9.0775,-1.3763,2.0486,-2.8929,0.0664,-1.8118,rough,15.5,0,3.514
6800,217.60,9.0812,-1.3868,2.0457,-2.8945,0.0442,-1.7840,rough,15.5,0,3.525
6810,217.92,9.0849,-1.3915,2.0477,-2.8923,0.0399,-1.7757,rough,15.5,0,3.530
6820,218.24,9.0703,-1.3809,2.0456,-2.9027,0.0166,-1.7580,rough,15.5,0,3.516
6830,218.56,9.0820,-1.3910,2.0453,-2.8914,0.0376,-1.7658,rough,15.5,0,3.529
6840,218.88,9.0753,-1.3887,2.0454,-2.8990,0.0372,-1.7895,rough,15.5,0,3.525
6850,219.20,9.0785,-1.3800,2.0470,-2.9022,0.0375,-1.7784,rough,15.5,0,3.517
6860,219.52,9.0743,-1.4118,2.0460,-2.8572,-0.0268,-1.7431,rough,15.5,0,3.547
6870,219.84,9.0675,-1.3175,2.0529,-2.8889,0.0755,-1.7824,rough,15.5,0,3.454
6880,220.16,9.0704,-1.3079,2.0537,-2.8586,0.0981,-1.7708,rough,15.5,0,3.445
6890,220.48,9.0696,-1.3361,2.0527,-2.8902,0.0766,-1.8058,rough,15.5,0,3.473
6900,220.80,9.0890,-1.3646,2.0491,-2.8933,0.0553,-1.7615,rough,15.5,0,3.505
6910,221.12,9.0820,-1.3841,2.0476,-2.8912,0.0474,-1.7863,rough,15.5,0,3.522
6920,221.44,9.0854,-1.3860,2.0470,-2.8916,0.0535,-1.8215,rough,15.5,0,3.525
6930,221.76,9.0742,-1.4161,2.0470,-2.8574,-0.0388,-1.7566,rough,15.5,0,3.551
6940,222.08,9.0858,-1.3762,2.0459,-2.8944,0.0516,-1.7776,rough,15.5,0,3.515
6950,222.40,9.0773,-1.3821,2.0483,-2.9064,0.0491,-1.8097,rough,15.5,0,3.519
6960,222.72,9.0723,-1.3767,2.0468,-2.9036,0.0419,-1.7963,rough,15.5,0,3.513
6970,223.04,9.0757,-1.3682,2.0488,-2.8764,0.0779,-1.7932,rough,15.5,0,3.505
6980,223.36,9.0809,-1.3799,2.0458,-2.9198,0.0763,-1.8416,rough,15.5,0,3.518
6990,223.68,9.0792,-1.3712,2.0479,-2.8895,0.0573,-1.7771,rough,15.5,0,3.509
7000,224.00,9.0723,-1.4060,2.0428,-2.8501,-0.0401,-1.6815,rough,15.5,0,3.541
7010,224.32,9.0893,-1.3649,2.0514,-2.9043,0.0490,-1.7933,rough,15.5,0,3.505
7020,224.64,9.0875,-1.3800,2.0491,-2.8921,0.0522,-1.7779,rough,15.5,0,3.520
7030,224.96,9.0745,-1.3886,2.0477,-2.8986,0.0329,-1.7998,rough,15.5,0,3.525
7040,225.28,9.0860,-1.3852,2.0468,-2.8883,0.0475,-1.7696,rough,15.5,0,3.524
7050,225.60,9.0756,-1.3993,2.0442,-2.8777,0.0021,-1.7391,rough,15.5,0,3.535
7060,225.92,9.0796,-1.3623,2.0461,-2.8742,0.0518,-1.8055,rough,15.5,0,3.500
7070,226.24,9.0723,-1.3827,2.0458,-2.9034,0.0430,-1.8041,rough,15.5,0,3.518
7080,226.56,9.0807,-1.3854,2.0460,-2.8982,0.0518,-1.7894,rough,15.5,0,3.523
7090,226.88,9.0816,-1.3850,2.0448,-2.9031,0.0459,-1.7870,rough,15.5,0,3.523
7100,227.20,9.0727,-1.4025,2.0442,-2.8794,0.0047,-1.7597,rough,15.5,0,3.538
7110,227.52,9.0691,-1.3978,2.0476,-2.9046,0.0266,-1.8020,rough,15.5,0,3.532
7120,227.84,9.0827,-1.3667,2.0490,-2.8998,0.0718,-1.7896,rough,15.5,0,3.505
7130,228.16,9.0770,-1.3545,2.0479,-2.8773,0.0610,-1.7728,rough,15.5,0,3.492
7140,228.48,9.0798,-1.3902,2.0461,-2.9171,0.0317,-1.8226,rough,15.5,0,3.528
7150,228.80,9.0822,-1.3703,2.0454,-2.9096,0.0673,-1.7829,rough,15.5,0,3.509
7160,229.12,9.0763,-1.3755,2.0479,-2.9020,0.0592,-1.8090,rough,15.5,0,3.512
7170,229.44,9.0785,-1.3766,2.0428,-2.8751,0.0439,-1.8091,rough,15.5,0,3.514
7180,229.76,9.0810,-1.3927,2.0472,-2.8868,0.0284,-1.7785,rough,15.5,0,3.530
7190,230.08,9.0755,-1.3665,2.0487,-2.8888,0.0512,-1.7806,rough,15.5,0,3.503
7200,230.40,9.0724,-1.3695,2.0455,-2.8955,0.0407,-1.8149,rough,15.5,0,3.506
7210,230.72,9.0872,-1.3736,2.0466,-2.9059,0.0851,-1.8044,rough,15.5,0,3.513
7220,231.04,9.0690,-1.4067,2.0429,-2.8590,-0.0249,-1.7202,rough,15.5,0,3.541
7230,231.36,9.0747,-1.3564,2.0489,-2.8801,0.0671,-1.7931,rough,15.5,0,3.494
7240,231.68,9.0770,-1.3610,2.0455,-2.8842,0.0537,-1.7903,rough,15.5,0,3.498
7250,232.00,9.0772,-1.3919,2.0452,-2.8894,0.0402,-1.7995,rough,15.5,0,3.529
7260,232.32,9.0801,-1.3867,2.0458,-2.8962,0.0364,-1.7694,rough,15.5,0,3.524
7270,232.64,9.0775,-1.3709,2.0469,-2.8973,0.0576,-1.7783,rough,15.5,0,3.508
7280,232.96,9.0803,-1.3789,2.0460,-2.9098,0.0622,-1.7881,rough,15.5,0,3.517
7290,233.28,9.0742,-1.3335,2.0517,-2.8857,0.0758,-1.7822,rough,15.5,0,3.471
7300,233.60,9.0823,-1.3771,2.0471,-2.8969,0.0447,-1.7956,rough,15.5,0,3.515
7310,233.92,9.0775,-1.4067,2.0467,-2.8711,0.0182,-1.7853,rough,15.5,0,3.543
7320,234.24,9.0790,-1.3777,2.0453,-2.8935,0.0454,-1.7684,rough,15.5,0,3.515
7330,234.56,9.0823,-1.3849,2.0460,-2.8877,0.0328,-1.7797,rough,15.5,0,3.523
7340,234.88,9.0698,-1.4134,2.0449,-2.8764,-0.0197,-1.7384,rough,15.5,0,3.548
7350,235.20,9.0771,-1.3663,2.0488,-2.8943,0.0488,-1.7564,rough,15.5,0,3.504
7360,235.52,9.0810,-1.3630,2.0447,-2.9015,0.0765,-1.7968,rough,15.5,0,3.501
7370,235.84,9.0774,-1.3858,2.0446,-2.8826,0.0278,-1.7910,rough,15.5,0,3.523
7380,236.16,9.0784,-1.3270,2.0528,-2.8804,0.1104,-1.7932,rough,15.5,0,3.466
7390,236.48,9.0689,-1.4099,2.0457,-2.8974,-0.0251,-1.8039,rough,15.5,0,3.544
7400,236.80,9.0742,-1.3942,2.0418,-2.8897,0.0317,-1.7702,rough,15.5,0,3.530
7410,237.12,9.0779,-1.3657,2.0497,-2.9000,0.0627,-1.7871,rough,15.5,0,3.503
7420,237.44,9.0643,-1.4112,2.0457,-2.8736,-0.0253,-1.7415,rough,15.5,0,3.544
7430,237.76,9.0853,-1.3395,2.0513,-2.8710,0.0898,-1.7952,rough,15.5,0,3.480
7440,238.08,9.0795,-1.3183,2.0570,-2.8514,0.1278,-1.7850,rough,15.5,0,3.458
7450,238.40,9.0547,-1.4098,2.0488,-2.9209,-0.0336,-1.7808,rough,15.5,0,3.541
7460,238.72,9.0895,-1.3862,2.0473,-2.9049,0.0686,-1.8135,rough,15.5,0,3.526
7470,239.04,9.0779,-1.3817,2.0468,-2.9076,0.0383,-1.7895,rough,15.5,0,3.519
7480,239.36,9.0836,-1.3705,2.0484,-2.8909,0.0489,-1.7623,rough,15.5,0,3.509
7490,239.68,9.0772,-1.3730,2.0458,-2.8885,0.0462,-1.7739,rough,15.5,0,3.510
7500,240.00,9.0808,-1.3789,2.0451,-2.8920,0.0476,-1.7672,rough,15.5,0,3.517
7510,240.32,9.0868,-1.3802,2.0486,-2.8946,0.0435,-1.7672,rough,15.5,0,3.520
7520,240.64,9.0769,-1.3932,2.0454,-2.8906,0.0251,-1.7686,rough,15.5,0,3.530
7530,240.96,9.0736,-1.3356,2.0510,-2.8727,0.0777,-1.7771,rough,15.5,0,3.473
7540,241.28,9.0558,-1.4421,2.0444,-2.8353,-0.1114,-1.6530,rough,15.5,0,3.572
7550,241.60,9.0708,-1.3457,2.0475,-2.8752,0.0582,-1.7198,rough,15.5,0,3.482
7560,241.92,9.0747,-1.2456,2.0631,-2.8151,0.1725,-1.7600,rough,15.5,0,3.386
7570,242.24,9.0815,-1.2456,2.0586,-2.8329,0.1898,-1.7260,rough,15.5,0,3.388
7580,242.56,9.0727,-1.3033,2.0550,-2.8644,0.1107,-1.7626,rough,15.5,0,3.442
7590,242.88,9.0700,-1.3983,2.0430,-2.8665,-0.0247,-1.6860,rough,15.5,0,3.533
7600,243.20,9.0794,-1.3824,2.0472,-2.9100,0.0399,-1.8120,rough,15.5,0,3.520
7610,243.52,9.0736,-1.3770,2.0470,-2.9114,0.0466,-1.8086,rough,15.5,0,3.513
7620,243.84,9.0760,-1.3601,2.0498,-2.8956,0.0642,-1.8185,rough,15.5,0,3.497
7630,244.16,9.0718,-1.3215,2.0548,-2.8666,0.1061,-1.8011,rough,15.5,0,3.459
7640,244.48,9.0726,-1.3121,2.0521,-2.8874,0.1084,-1.7850,rough,15.5,0,3.450
7650,244.80,9.0656,-1.2840,2.0542,-2.8519,0.1127,-1.7636,rough,15.5,0,3.421
7660,245.12,9.0626,-1.2668,2.0583,-2.8395,0.1292,-1.7695,rough,15.5,0,3.404
7670,245.44,9.0565,-1.2767,2.0562,-2.8680,0.1001,-1.7684,rough,15.5,0,3.412
7680,245.76,9.0729,-1.2721,2.0586,-2.8443,0.1432,-1.7920,rough,15.5,0,3.411
7690,246.08,9.0663,-1.3254,2.0504,-2.8675,0.0697,-1.7363,rough,15.5,0,3.461
7700,246.40,9.0628,-1.4163,2.0471,-2.8530,-0.0620,-1.7407,rough,15.5,0,3.549
7710,246.72,9.0758,-1.3914,2.0456,-2.8873,0.0160,-1.7515,rough,15.5,0,3.528
7720,247.04,9.0826,-1.3598,2.0479,-2.8838,0.0561,-1.7813,rough,15.5,0,3.499
7730,247.36,9.0771,-1.3752,2.0462,-2.8963,0.0496,-1.7641,rough,15.5,0,3.512
7740,247.68,9.0755,-1.4104,2.0414,-2.8631,0.0137,-1.7683,rough,15.5,0,3.546
7750,248.00,9.0807,-1.3735,2.0451,-2.9049,0.0630,-1.7735,rough,15.5,0,3.512
7760,248.32,9.0620,-1.4309,2.0463,-2.8505,-0.0701,-1.7007,rough,15.5,0,3.563
7770,248.64,9.0838,-1.3336,2.0530,-2.8743,0.0958,-1.7817,rough,15.5,0,3.474
7780,248.96,9.0752,-1.3192,2.0562,-2.8741,0.1072,-1.8006,rough,15.5,0,3.458
7790,249.28,9.0768,-1.4182,2.0476,-2.8667,-0.0013,-1.7944,rough,15.5,0,3.554
7800,249.60,9.0781,-1.3825,2.0455,-2.8999,0.0322,-1.7630,rough,15.5,0,3.520
7810,249.92,9.0736,-1.3832,2.0449,-2.9099,0.0365,-1.7924,rough,15.5,0,3.519
7820,250.24,9.0774,-1.3666,2.0504,-2.9055,0.0569,-1.7989,rough,15.5,0,3.504
7830,250.56,9.0680,-1.4157,2.0428,-2.8610,-0.0296,-1.7213,rough,15.5,0,3.550
7840,250.88,9.0801,-1.3722,2.0475,-2.8961,0.0721,-1.8146,rough,15.5,0,3.510
7850,251.20,9.0704,-1.3841,2.0468,-2.9008,0.0148,-1.7709,rough,15.5,0,3.519
7860,251.52,9.0755,-1.3848,2.0459,-2.8987,0.0332,-1.7896,rough,15.5,0,3.521
7870,251.84,9.0781,-1.3794,2.0451,-2.9177,0.0369,-1.7853,rough,15.5,0,3.517
7880,252.16,9.0813,-1.3747,2.0446,-2.8821,0.0387,-1.8214,rough,15.5,0,3.513
7890,252.48,9.0795,-1.3851,2.0471,-2.8909,0.0300,-1.7633,rough,15.5,0,3.522
7900,252.80,9.0802,-1.3669,2.0512,-2.8910,0.0795,-1.8130,rough,15.5,0,3.505
7910,253.12,9.0831,-1.4202,2.0499,-2.8467,-0.0061,-1.8193,rough,15.5,0,3.557
7920,253.44,9.0807,-1.4061,2.0473,-2.8737,0.0111,-1.7946,rough,15.5,0,3.543
7930,253.76,9.0811,-1.3386,2.0537,-2.8687,0.1017,-1.7969,rough,15.5,0,3.478
