step,time_s,x,y,z,roll,pitch,yaw,terrain,speed,target_idx,dist_to_target
10,0.32,-1.2940,0.8835,0.2280,0.0067,-0.0216,0.0050,rough,15.5,0,6.144
20,0.64,-1.0248,0.8805,0.2197,0.0194,0.0128,0.3986,rough,15.5,0,6.374
30,0.96,-0.7723,1.0113,0.2183,0.0185,-0.0036,0.7311,rough,15.5,0,6.526
40,1.28,-0.5346,1.2410,0.2191,0.0107,-0.0075,1.0247,rough,15.5,0,6.629
50,1.60,-0.3687,1.5186,0.2273,-0.0012,-0.0365,1.3130,rough,15.5,0,6.662
60,1.92,-0.2938,1.8707,0.2322,-0.0423,-0.0112,1.5896,rough,15.5,0,6.599
70,2.24,-0.3107,2.2621,0.2322,-0.0364,0.0301,1.8236,rough,15.5,0,6.456
80,2.56,-0.4196,2.6586,0.2198,0.0043,0.0548,2.0083,rough,15.5,0,6.243
90,2.88,-0.6206,3.0370,0.2005,0.0248,0.0315,2.1630,rough,15.5,0,5.964
100,3.20,-0.8865,3.3944,0.1868,0.0285,0.0342,2.2972,rough,15.5,0,5.641
110,3.52,-1.2066,3.7223,0.1724,0.0329,0.0291,2.4153,rough,15.5,0,5.286
120,3.84,-1.5673,4.0179,0.1605,0.0381,0.0164,2.5272,rough,15.5,0,4.907
130,4.16,-1.9623,4.2866,0.1528,0.0381,0.0080,2.6357,rough,15.5,0,4.510
140,4.48,-2.3835,4.5077,0.1504,0.0339,-0.0007,2.7311,rough,15.5,0,4.100
150,4.80,-2.8249,4.6909,0.1525,0.0264,-0.0087,2.8323,rough,15.5,0,3.681
160,5.12,-3.2826,4.8292,0.1584,0.0222,-0.0199,2.9295,rough,15.5,0,3.252
170,5.44,-3.7525,4.9222,0.1675,0.0137,-0.0247,3.0226,rough,15.5,0,2.815
180,5.76,-4.2282,4.9713,0.1784,0.0048,-0.0265,3.1185,rough,15.5,0,2.375
190,6.08,-4.7049,4.9742,0.1898,-0.0053,-0.0255,-3.0667,rough,15.5,0,1.932
200,6.40,-5.1759,4.9277,0.2004,-0.0137,-0.0246,-2.9907,rough,15.5,0,1.490
210,6.72,-5.6461,4.8442,0.2084,-0.0237,-0.0161,-2.9352,rough,15.5,0,1.053
220,7.04,-6.0726,4.7649,0.2162,-0.0165,0.0483,-2.7441,rough,15.5,1,6.880
230,7.36,-6.2919,4.6278,0.2147,-0.0297,0.0166,-2.2765,rough,15.5,1,7.106
240,7.68,-6.4490,4.4008,0.2092,-0.0235,0.0244,-1.9855,rough,15.5,1,7.281
250,8.00,-6.5416,4.1071,0.2004,-0.0120,0.0377,-1.7583,rough,15.5,1,7.406
260,8.32,-6.5829,3.7398,0.1866,-0.0036,0.0380,-1.6293,rough,15.5,1,7.504
270,8.64,-6.6074,3.3901,0.1735,0.0111,0.0387,-1.3838,rough,15.5,1,7.598
280,8.96,-6.5502,3.0947,0.1626,0.0243,0.0311,-1.0843,rough,15.5,1,7.614
290,9.28,-6.3657,2.7975,0.1538,0.0298,0.0182,-0.8609,rough,15.5,1,7.521
300,9.60,-6.0971,2.5255,0.1490,0.0314,0.0045,-0.6670,rough,15.5,1,7.356
310,9.92,-5.7570,2.2685,0.1487,0.0318,-0.0099,-0.4842,rough,15.5,1,7.135
320,10.24,-5.3670,2.0771,0.1523,0.0270,-0.0198,-0.3252,rough,15.5,1,6.860
330,10.56,-4.9351,1.9447,0.1630,0.0142,-0.0268,-0.1563,rough,15.5,1,6.537
340,10.88,-4.4777,1.8885,0.1740,0.0024,-0.0275,-0.0057,rough,15.5,1,6.169
350,11.20,-4.0091,1.8951,0.1808,0.0122,-0.0284,0.1235,rough,15.5,1,5.770
360,11.52,-3.5376,1.9691,0.1980,-0.0118,-0.0215,0.1944,rough,15.5,1,5.339
370,11.84,-3.0708,2.0699,0.2067,-0.0157,-0.0145,0.2616,rough,15.5,1,4.905
380,12.16,-2.6128,2.2053,0.2095,-0.0208,0.0048,0.3224,rough,15.5,1,4.464
390,12.48,-2.1570,2.3646,0.2131,-0.0238,0.0005,0.3682,rough,15.5,1,4.017
400,12.80,-1.7144,2.5458,0.2124,-0.0248,0.0050,0.4335,rough,15.5,1,3.572
410,13.12,-1.3133,2.7610,0.2088,-0.0235,0.0101,0.5803,rough,15.5,1,3.140
420,13.44,-0.9298,3.0237,0.2002,-0.0231,0.0246,0.6762,rough,15.5,1,2.689
430,13.76,-0.5837,3.3303,0.1904,-0.0462,0.0412,0.7474,rough,15.5,1,2.233
440,14.08,-0.2565,3.6745,0.1943,-0.1218,0.0120,0.7865,rough,15.5,1,1.761
450,14.40,0.0509,4.0205,0.2160,-0.1898,-0.0795,0.8311,rough,15.5,1,1.300
460,14.72,0.3377,4.3830,0.2720,-0.2740,-0.1393,0.8839,rough,15.5,1,0.839
470,15.04,0.5505,4.6309,0.3261,-0.2480,-0.2359,0.6935,rough,15.5,2,9.451
480,15.36,0.7992,4.8350,0.4052,-0.2059,-0.2807,0.5273,rough,15.5,2,9.360
490,15.68,1.1290,5.0152,0.5164,-0.1496,-0.3158,0.3326,rough,15.5,2,9.201
500,16.00,1.4622,5.1324,0.6331,-0.1163,-0.3356,0.2313,rough,15.5,2,9.011
510,16.32,1.8376,5.2205,0.7683,-0.0635,-0.3537,0.0824,rough,15.5,2,8.781
520,16.64,2.2039,5.2478,0.9043,-0.0447,-0.3585,0.0307,rough,15.5,2,8.527
530,16.96,2.3515,5.2767,0.9596,0.1405,-0.3438,-0.4984,rough,15.5,2,8.440
540,17.28,2.3310,5.2320,0.9547,0.2052,-0.3132,-0.7058,rough,15.5,2,8.424
550,17.60,2.2764,5.1102,0.9416,0.0830,-0.3884,-0.3458,rough,15.5,2,8.381
560,17.92,2.2684,5.0391,0.9381,0.0183,-0.3749,-0.1487,rough,15.5,2,8.339
570,18.24,2.2679,5.0073,0.9367,-0.0127,-0.3604,-0.0608,rough,15.5,2,8.318
580,18.56,2.2687,4.9929,0.9376,-0.0271,-0.3601,-0.0197,rough,15.5,2,8.308
590,18.88,2.2695,4.9871,0.9381,-0.0339,-0.3597,-0.0004,rough,15.5,2,8.303
600,19.20,2.2701,4.9850,0.9380,-0.0372,-0.3570,0.0089,rough,15.5,2,8.301
610,19.52,2.2705,4.9843,0.9387,-0.0382,-0.3599,0.0118,rough,15.5,2,8.301
620,19.84,2.2703,4.9834,0.9387,-0.0380,-0.3603,0.0112,rough,15.5,2,8.300
630,20.16,2.2701,4.9823,0.9387,-0.0378,-0.3603,0.0106,rough,15.5,2,8.300
640,20.48,2.2698,4.9811,0.9386,-0.0379,-0.3603,0.0110,rough,15.5,2,8.299
650,20.80,2.2698,4.9807,0.9386,-0.0385,-0.3602,0.0127,rough,15.5,2,8.299
660,21.12,2.2698,4.9805,0.9386,-0.0387,-0.3602,0.0133,rough,15.5,2,8.299
670,21.44,2.2699,4.9805,0.9387,-0.0389,-0.3602,0.0138,rough,15.5,2,8.298
680,21.76,2.2700,4.9807,0.9387,-0.0391,-0.3602,0.0143,rough,15.5,2,8.298
690,22.08,2.2702,4.9811,0.9388,-0.0393,-0.3602,0.0149,rough,15.5,2,8.299
700,22.40,2.2704,4.9817,0.9388,-0.0396,-0.3601,0.0157,rough,15.5,2,8.299
710,22.72,2.2707,4.9828,0.9389,-0.0400,-0.3601,0.0169,rough,15.5,2,8.299
720,23.04,2.2711,4.9844,0.9390,-0.0405,-0.3601,0.0184,rough,15.5,2,8.300
730,23.36,2.2717,4.9867,0.9391,-0.0412,-0.3600,0.0203,rough,15.5,2,8.301
740,23.68,2.2721,4.9899,0.9391,-0.0421,-0.3599,0.0230,rough,15.5,2,8.303
750,24.00,2.2721,4.9945,0.9390,-0.0435,-0.3598,0.0269,rough,15.5,2,8.306
760,24.32,2.2721,5.0009,0.9388,-0.0455,-0.3595,0.0326,rough,15.5,2,8.310
770,24.64,2.2720,5.0101,0.9384,-0.0483,-0.3591,0.0407,rough,15.5,2,8.317
780,24.96,2.2716,5.0232,0.9377,-0.0526,-0.3585,0.0529,rough,15.5,2,8.326
790,25.28,2.2702,5.0398,0.9362,-0.0526,-0.3557,0.0526,rough,15.5,2,8.338
800,25.60,2.2690,5.0511,0.9358,-0.0478,-0.3591,0.0387,rough,15.5,2,8.346
810,25.92,2.2691,5.0562,0.9356,-0.0436,-0.3598,0.0264,rough,15.5,2,8.350
820,26.24,2.2692,5.0587,0.9356,-0.0414,-0.3601,0.0202,rough,15.5,2,8.351
830,26.56,2.2694,5.0601,0.9356,-0.0403,-0.3602,0.0171,rough,15.5,2,8.352
840,26.88,2.2695,5.0608,0.9356,-0.0397,-0.3603,0.0154,rough,15.5,2,8.353
850,27.20,2.2696,5.0611,0.9356,-0.0394,-0.3603,0.0146,rough,15.5,2,8.353
860,27.52,2.2696,5.0613,0.9356,-0.0393,-0.3603,0.0141,rough,15.5,2,8.353
870,27.84,2.2696,5.0614,0.9357,-0.0391,-0.3603,0.0138,rough,15.5,2,8.353
880,28.16,2.2697,5.0613,0.9357,-0.0390,-0.3604,0.0133,rough,15.5,2,8.353
890,28.48,2.2697,5.0610,0.9357,-0.0388,-0.3604,0.0127,rough,15.5,2,8.353
900,28.80,2.2698,5.0603,0.9357,-0.0385,-0.3604,0.0118,rough,15.5,2,8.352
910,29.12,2.2702,5.0593,0.9359,-0.0381,-0.3605,0.0106,rough,15.5,2,8.351
920,29.44,2.2706,5.0577,0.9362,-0.0375,-0.3606,0.0090,rough,15.5,2,8.350
930,29.76,2.2714,5.0554,0.9366,-0.0368,-0.3607,0.0069,rough,15.5,2,8.348
940,30.08,2.2720,5.0521,0.9369,-0.0358,-0.3608,0.0041,rough,15.5,2,8.345
950,30.40,2.2721,5.0474,0.9371,-0.0343,-0.3609,-0.0000,rough,15.5,2,8.342
960,30.72,2.2721,5.0407,0.9374,-0.0323,-0.3611,-0.0057,rough,15.5,2,8.337
970,31.04,2.2720,5.0313,0.9377,-0.0296,-0.3613,-0.0134,rough,15.5,2,8.331
980,31.36,2.2716,5.0182,0.9380,-0.0260,-0.3616,-0.0237,rough,15.5,2,8.322
990,31.68,2.2703,5.0021,0.9369,-0.0256,-0.3543,-0.0248,rough,15.5,2,8.313
1000,32.00,2.2695,4.9920,0.9377,-0.0305,-0.3584,-0.0104,rough,15.5,2,8.306
1010,32.32,2.2697,4.9868,0.9379,-0.0347,-0.3574,0.0017,rough,15.5,2,8.303
1020,32.64,2.2702,4.9849,0.9374,-0.0375,-0.3523,0.0098,rough,15.5,2,8.301
1030,32.96,2.2701,4.9835,0.9386,-0.0375,-0.3604,0.0096,rough,15.5,2,8.300
1040,33.28,2.2698,4.9819,0.9386,-0.0372,-0.3604,0.0090,rough,15.5,2,8.299
1050,33.60,2.2698,4.9810,0.9386,-0.0382,-0.3603,0.0117,rough,15.5,2,8.299
1060,33.92,2.2698,4.9806,0.9386,-0.0386,-0.3602,0.0129,rough,15.5,2,8.299
1070,34.24,2.2698,4.9805,0.9386,-0.0388,-0.3602,0.0134,rough,15.5,2,8.298
1080,34.56,2.2699,4.9805,0.9387,-0.0389,-0.3602,0.0139,rough,15.5,2,8.298
1090,34.88,2.2700,4.9807,0.9387,-0.0391,-0.3602,0.0144,rough,15.5,2,8.299
1100,35.20,2.2703,4.9812,0.9388,-0.0393,-0.3602,0.0151,rough,15.5,2,8.299
1110,35.52,2.2704,4.9819,0.9388,-0.0397,-0.3601,0.0160,rough,15.5,2,8.299
1120,35.84,2.2709,4.9831,0.9389,-0.0401,-0.3601,0.0172,rough,15.5,2,8.299
1130,36.16,2.2713,4.9849,0.9391,-0.0406,-0.3600,0.0188,rough,15.5,2,8.300
1140,36.48,2.2718,4.9874,0.9391,-0.0414,-0.3600,0.0209,rough,15.5,2,8.302
1150,36.80,2.2721,4.9909,0.9391,-0.0424,-0.3599,0.0238,rough,15.5,2,8.304
1160,37.12,2.2722,4.9958,0.9390,-0.0439,-0.3597,0.0281,rough,15.5,2,8.307
1170,37.44,2.2721,5.0028,0.9387,-0.0461,-0.3594,0.0342,rough,15.5,2,8.312
1180,37.76,2.2720,5.0128,0.9383,-0.0492,-0.3590,0.0431,rough,15.5,2,8.319
1190,38.08,2.2714,5.0271,0.9375,-0.0539,-0.3583,0.0566,rough,15.5,2,8.329
1200,38.40,2.2694,5.0438,0.9359,-0.0518,-0.3568,0.0503,rough,15.5,2,8.341
1210,38.72,2.2690,5.0532,0.9357,-0.0463,-0.3594,0.0342,rough,15.5,2,8.348
1220,39.04,2.2691,5.0572,0.9356,-0.0426,-0.3599,0.0237,rough,15.5,2,8.350
1230,39.36,2.2693,5.0593,0.9356,-0.0409,-0.3601,0.0189,rough,15.5,2,8.352
1240,39.68,2.2695,5.0603,0.9356,-0.0401,-0.3602,0.0164,rough,15.5,2,8.352
1250,40.00,2.2696,5.0609,0.9356,-0.0396,-0.3603,0.0151,rough,15.5,2,8.353
1260,40.32,2.2696,5.0612,0.9356,-0.0394,-0.3603,0.0144,rough,15.5,2,8.353
1270,40.64,2.2696,5.0613,0.9356,-0.0392,-0.3603,0.0140,rough,15.5,2,8.353
1280,40.96,2.2697,5.0614,0.9357,-0.0391,-0.3604,0.0136,rough,15.5,2,8.353
1290,41.28,2.2697,5.0612,0.9357,-0.0389,-0.3604,0.0131,rough,15.5,2,8.353
1300,41.60,2.2697,5.0608,0.9357,-0.0387,-0.3604,0.0124,rough,15.5,2,8.352
1310,41.92,2.2698,5.0601,0.9358,-0.0383,-0.3605,0.0114,rough,15.5,2,8.352
1320,42.24,2.2704,5.0589,0.9360,-0.0379,-0.3605,0.0101,rough,15.5,2,8.351
1330,42.56,2.2709,5.0571,0.9363,-0.0373,-0.3606,0.0084,rough,15.5,2,8.349
1340,42.88,2.2716,5.0545,0.9367,-0.0365,-0.3607,0.0061,rough,15.5,2,8.347
1350,43.20,2.2721,5.0508,0.9370,-0.0354,-0.3608,0.0029,rough,15.5,2,8.344
1360,43.52,2.2722,5.0455,0.9372,-0.0338,-0.3610,-0.0017,rough,15.5,2,8.340
1370,43.84,2.2721,5.0380,0.9374,-0.0315,-0.3611,-0.0079,rough,15.5,2,8.335
1380,44.16,2.2719,5.0275,0.9378,-0.0286,-0.3614,-0.0164,rough,15.5,2,8.328
1390,44.48,2.2713,5.0130,0.9381,-0.0246,-0.3617,-0.0279,rough,15.5,2,8.319
1400,44.80,2.2699,4.9982,0.9357,-0.0273,-0.3465,-0.0197,rough,15.5,2,8.310
1410,45.12,2.2697,4.9899,0.9357,-0.0324,-0.3448,-0.0047,rough,15.5,2,8.305
1420,45.44,2.2699,4.9859,0.9359,-0.0361,-0.3442,0.0058,rough,15.5,2,8.302
1430,45.76,2.2702,4.9845,0.9386,-0.0378,-0.3599,0.0105,rough,15.5,2,8.301
1440,46.08,2.2700,4.9831,0.9386,-0.0375,-0.3604,0.0098,rough,15.5,2,8.300
1450,46.40,2.2697,4.9815,0.9386,-0.0375,-0.3604,0.0097,rough,15.5,2,8.299
1460,46.72,2.2698,4.9809,0.9386,-0.0383,-0.3603,0.0121,rough,15.5,2,8.299
1470,47.04,2.2698,4.9806,0.9386,-0.0387,-0.3602,0.0131,rough,15.5,2,8.299
1480,47.36,2.2698,4.9805,0.9387,-0.0388,-0.3602,0.0136,rough,15.5,2,8.298
1490,47.68,2.2699,4.9805,0.9387,-0.0390,-0.3602,0.0140,rough,15.5,2,8.298
1500,48.00,2.2701,4.9808,0.9387,-0.0392,-0.3602,0.0146,rough,15.5,2,8.299
1510,48.32,2.2704,4.9814,0.9388,-0.0394,-0.3602,0.0152,rough,15.5,2,8.299
1520,48.64,2.2704,4.9822,0.9388,-0.0398,-0.3601,0.0163,rough,15.5,2,8.299
1530,48.96,2.2709,4.9836,0.9389,-0.0402,-0.3601,0.0176,rough,15.5,2,8.300
1540,49.28,2.2714,4.9855,0.9390,-0.0408,-0.3600,0.0193,rough,15.5,2,8.301
1550,49.60,2.2719,4.9882,0.9392,-0.0416,-0.3600,0.0216,rough,15.5,2,8.302
1560,49.92,2.2721,4.9920,0.9391,-0.0428,-0.3598,0.0248,rough,15.5,2,8.304
1570,50.24,2.2722,4.9974,0.9389,-0.0444,-0.3596,0.0295,rough,15.5,2,8.308
1580,50.56,2.2721,5.0051,0.9386,-0.0468,-0.3593,0.0363,rough,15.5,2,8.313
1590,50.88,2.2719,5.0161,0.9381,-0.0503,-0.3588,0.0462,rough,15.5,2,8.321
1600,51.20,2.2711,5.0320,0.9372,-0.0557,-0.3580,0.0616,rough,15.5,2,8.332
1610,51.52,2.2692,5.0469,0.9360,-0.0504,-0.3585,0.0460,rough,15.5,2,8.343
1620,51.84,2.2691,5.0542,0.9357,-0.0455,-0.3596,0.0319,rough,15.5,2,8.348
1630,52.16,2.2691,5.0577,0.9356,-0.0422,-0.3600,0.0226,rough,15.5,2,8.351
1640,52.48,2.2694,5.0595,0.9356,-0.0408,-0.3602,0.0184,rough,15.5,2,8.352
1650,52.80,2.2695,5.0605,0.9356,-0.0400,-0.3603,0.0161,rough,15.5,2,8.352
1660,53.12,2.2696,5.0610,0.9356,-0.0395,-0.3603,0.0149,rough,15.5,2,8.353
1670,53.44,2.2696,5.0612,0.9356,-0.0393,-0.3603,0.0143,rough,15.5,2,8.353
1680,53.76,2.2696,5.0614,0.9356,-0.0392,-0.3603,0.0140,rough,15.5,2,8.353
1690,54.08,2.2697,5.0614,0.9357,-0.0391,-0.3604,0.0136,rough,15.5,2,8.353
1700,54.40,2.2697,5.0612,0.9357,-0.0389,-0.3604,0.0130,rough,15.5,2,8.353
1710,54.72,2.2697,5.0607,0.9357,-0.0386,-0.3604,0.0122,rough,15.5,2,8.352
1720,55.04,2.2698,5.0599,0.9358,-0.0383,-0.3605,0.0112,rough,15.5,2,8.352
1730,55.36,2.2704,5.0586,0.9360,-0.0378,-0.3605,0.0098,rough,15.5,2,8.350
1740,55.68,2.2710,5.0567,0.9364,-0.0372,-0.3606,0.0080,rough,15.5,2,8.349
1750,56.00,2.2718,5.0539,0.9367,-0.0363,-0.3607,0.0056,rough,15.5,2,8.346
1760,56.32,2.2721,5.0499,0.9370,-0.0351,-0.3608,0.0021,rough,15.5,2,8.343
1770,56.64,2.2722,5.0443,0.9372,-0.0334,-0.3610,-0.0027,rough,15.5,2,8.339
1780,56.96,2.2721,5.0363,0.9375,-0.0311,-0.3612,-0.0093,rough,15.5,2,8.334
1790,57.28,2.2718,5.0251,0.9378,-0.0279,-0.3614,-0.0183,rough,15.5,2,8.327
1800,57.60,2.2712,5.0097,0.9381,-0.0236,-0.3618,-0.0305,rough,15.5,2,8.317
1810,57.92,2.2695,4.9953,0.9369,-0.0277,-0.3541,-0.0184,rough,15.5,2,8.309
1820,58.24,2.2696,4.9881,0.9371,-0.0333,-0.3529,-0.0023,rough,15.5,2,8.304
1830,58.56,2.2701,4.9854,0.9373,-0.0369,-0.3524,0.0080,rough,15.5,2,8.302
1840,58.88,2.2704,4.9844,0.9386,-0.0380,-0.3598,0.0113,rough,15.5,2,8.301
1850,59.20,2.2702,4.9833,0.9387,-0.0377,-0.3603,0.0104,rough,15.5,2,8.300
1860,59.52,2.2699,4.9819,0.9386,-0.0375,-0.3604,0.0097,rough,15.5,2,8.299
1870,59.84,2.2698,4.9810,0.9386,-0.0382,-0.3603,0.0118,rough,15.5,2,8.299
1880,60.16,2.2698,4.9806,0.9386,-0.0386,-0.3602,0.0129,rough,15.5,2,8.299
1890,60.48,2.2698,4.9805,0.9386,-0.0388,-0.3602,0.0135,rough,15.5,2,8.298
1900,60.80,2.2699,4.9805,0.9387,-0.0389,-0.3602,0.0139,rough,15.5,2,8.298
1910,61.12,2.2700,4.9807,0.9387,-0.0391,-0.3602,0.0145,rough,15.5,2,8.299
1920,61.44,2.2703,4.9812,0.9388,-0.0393,-0.3602,0.0151,rough,15.5,2,8.299
1930,61.76,2.2704,4.9820,0.9388,-0.0397,-0.3601,0.0161,rough,15.5,2,8.299
1940,62.08,2.2709,4.9832,0.9390,-0.0401,-0.3601,0.0172,rough,15.5,2,8.299
1950,62.40,2.2713,4.9850,0.9390,-0.0406,-0.3600,0.0189,rough,15.5,2,8.300
1960,62.72,2.2719,4.9875,0.9392,-0.0414,-0.3600,0.0210,rough,15.5,2,8.302
1970,63.04,2.2721,4.9910,0.9391,-0.0424,-0.3599,0.0239,rough,15.5,2,8.304
1980,63.36,2.2722,4.9960,0.9390,-0.0440,-0.3597,0.0283,rough,15.5,2,8.307
1990,63.68,2.2721,5.0031,0.9387,-0.0462,-0.3594,0.0345,rough,15.5,2,8.312
2000,64.00,2.2719,5.0132,0.9382,-0.0493,-0.3590,0.0434,rough,15.5,2,8.319
2010,64.32,2.2713,5.0277,0.9375,-0.0541,-0.3583,0.0571,rough,15.5,2,8.329
2020,64.64,2.2694,5.0445,0.9359,-0.0518,-0.3569,0.0501,rough,15.5,2,8.342
2030,64.96,2.2691,5.0535,0.9357,-0.0460,-0.3594,0.0335,rough,15.5,2,8.348
2040,65.28,2.2691,5.0574,0.9356,-0.0425,-0.3600,0.0234,rough,15.5,2,8.351
2050,65.60,2.2693,5.0593,0.9356,-0.0409,-0.3602,0.0187,rough,15.5,2,8.352
2060,65.92,2.2695,5.0604,0.9356,-0.0400,-0.3603,0.0163,rough,15.5,2,8.352
2070,66.24,2.2696,5.0609,0.9356,-0.0396,-0.3603,0.0150,rough,15.5,2,8.353
2080,66.56,2.2696,5.0612,0.9356,-0.0393,-0.3603,0.0144,rough,15.5,2,8.353
2090,66.88,2.2696,5.0614,0.9356,-0.0392,-0.3603,0.0140,rough,15.5,2,8.353
2100,67.20,2.2697,5.0614,0.9357,-0.0391,-0.3604,0.0136,rough,15.5,2,8.353
2110,67.52,2.2697,5.0612,0.9357,-0.0389,-0.3604,0.0131,rough,15.5,2,8.353
2120,67.84,2.2697,5.0608,0.9357,-0.0387,-0.3604,0.0124,rough,15.5,2,8.352
2130,68.16,2.2698,5.0600,0.9358,-0.0383,-0.3605,0.0114,rough,15.5,2,8.352
2140,68.48,2.2704,5.0588,0.9360,-0.0379,-0.3605,0.0101,rough,15.5,2,8.351
2150,68.80,2.2709,5.0569,0.9363,-0.0373,-0.3606,0.0083,rough,15.5,2,8.349
2160,69.12,2.2717,5.0543,0.9367,-0.0365,-0.3607,0.0059,rough,15.5,2,8.347
2170,69.44,2.2721,5.0505,0.9370,-0.0353,-0.3608,0.0026,rough,15.5,2,8.344
2180,69.76,2.2722,5.0451,0.9372,-0.0336,-0.3610,-0.0020,rough,15.5,2,8.340
2190,70.08,2.2721,5.0375,0.9375,-0.0314,-0.3612,-0.0084,rough,15.5,2,8.335
2200,70.40,2.2719,5.0268,0.9378,-0.0284,-0.3614,-0.0170,rough,15.5,2,8.328
2210,70.72,2.2713,5.0119,0.9381,-0.0242,-0.3617,-0.0287,rough,15.5,2,8.318
2220,71.04,2.2700,4.9978,0.9371,-0.0280,-0.3549,-0.0176,rough,15.5,2,8.310
2230,71.36,2.2697,4.9897,0.9371,-0.0325,-0.3533,-0.0047,rough,15.5,2,8.305
2240,71.68,2.2700,4.9859,0.9372,-0.0361,-0.3525,0.0059,rough,15.5,2,8.302
2250,72.00,2.2702,4.9844,0.9386,-0.0376,-0.3604,0.0101,rough,15.5,2,8.301
2260,72.32,2.2703,4.9838,0.9386,-0.0386,-0.3595,0.0130,rough,15.5,2,8.300
2270,72.64,2.2705,4.9835,0.9388,-0.0385,-0.3602,0.0127,rough,15.5,2,8.300
2280,72.96,2.2703,4.9831,0.9387,-0.0385,-0.3603,0.0126,rough,15.5,2,8.300
2290,73.28,2.2701,4.9827,0.9387,-0.0385,-0.3603,0.0127,rough,15.5,2,8.300
2300,73.60,2.2701,4.9823,0.9387,-0.0386,-0.3603,0.0128,rough,15.5,2,8.300
2310,73.92,2.2703,4.9820,0.9388,-0.0385,-0.3603,0.0128,rough,15.5,2,8.299
2320,74.24,2.2703,4.9816,0.9388,-0.0385,-0.3603,0.0128,rough,15.5,2,8.299
2330,74.56,2.2701,4.9812,0.9387,-0.0386,-0.3603,0.0128,rough,15.5,2,8.299
2340,74.88,2.2700,4.9810,0.9387,-0.0386,-0.3602,0.0130,rough,15.5,2,8.299
2350,75.20,2.2699,4.9807,0.9387,-0.0387,-0.3602,0.0133,rough,15.5,2,8.299
2360,75.52,2.2699,4.9807,0.9387,-0.0389,-0.3602,0.0137,rough,15.5,2,8.299
2370,75.84,2.2700,4.9808,0.9387,-0.0390,-0.3602,0.0142,rough,15.5,2,8.299
2380,76.16,2.2702,4.9811,0.9388,-0.0392,-0.3602,0.0147,rough,15.5,2,8.299
2390,76.48,2.2703,4.9817,0.9388,-0.0395,-0.3602,0.0154,rough,15.5,2,8.299
2400,76.80,2.2706,4.9826,0.9388,-0.0398,-0.3601,0.0165,rough,15.5,2,8.299
2410,77.12,2.2709,4.9841,0.9389,-0.0403,-0.3601,0.0178,rough,15.5,2,8.300
2420,77.44,2.2715,4.9861,0.9391,-0.0409,-0.3600,0.0196,rough,15.5,2,8.301
2430,77.76,2.2720,4.9889,0.9392,-0.0417,-0.3599,0.0219,rough,15.5,2,8.303
2440,78.08,2.2721,4.9929,0.9391,-0.0430,-0.3598,0.0254,rough,15.5,2,8.305
2450,78.40,2.2722,4.9986,0.9389,-0.0447,-0.3596,0.0304,rough,15.5,2,8.309
2460,78.72,2.2721,5.0067,0.9385,-0.0472,-0.3593,0.0374,rough,15.5,2,8.314
2470,79.04,2.2718,5.0182,0.9380,-0.0509,-0.3588,0.0479,rough,15.5,2,8.322
2480,79.36,2.2709,5.0349,0.9371,-0.0566,-0.3578,0.0644,rough,15.5,2,8.334
2490,79.68,2.2691,5.0492,0.9358,-0.0491,-0.3585,0.0424,rough,15.5,2,8.345
2500,80.00,2.2692,5.0553,0.9357,-0.0445,-0.3597,0.0292,rough,15.5,2,8.349
2510,80.32,2.2692,5.0582,0.9356,-0.0418,-0.3601,0.0212,rough,15.5,2,8.351
2520,80.64,2.2694,5.0598,0.9356,-0.0405,-0.3602,0.0177,rough,15.5,2,8.352
2530,80.96,2.2695,5.0606,0.9356,-0.0398,-0.3603,0.0157,rough,15.5,2,8.352
2540,81.28,2.2696,5.0611,0.9356,-0.0395,-0.3603,0.0147,rough,15.5,2,8.353
2550,81.60,2.2696,5.0613,0.9356,-0.0393,-0.3603,0.0142,rough,15.5,2,8.353
2560,81.92,2.2696,5.0614,0.9357,-0.0392,-0.3603,0.0139,rough,15.5,2,8.353
2570,82.24,2.2697,5.0613,0.9357,-0.0390,-0.3604,0.0134,rough,15.5,2,8.353
2580,82.56,2.2697,5.0611,0.9357,-0.0388,-0.3604,0.0128,rough,15.5,2,8.353
2590,82.88,2.2698,5.0605,0.9357,-0.0385,-0.3604,0.0120,rough,15.5,2,8.352
2600,83.20,2.2700,5.0596,0.9358,-0.0382,-0.3605,0.0109,rough,15.5,2,8.351
2610,83.52,2.2704,5.0582,0.9361,-0.0377,-0.3606,0.0094,rough,15.5,2,8.350
2620,83.84,2.2711,5.0561,0.9364,-0.0370,-0.3606,0.0075,rough,15.5,2,8.348
2630,84.16,2.2719,5.0531,0.9368,-0.0361,-0.3608,0.0049,rough,15.5,2,8.346
2640,84.48,2.2721,5.0487,0.9371,-0.0347,-0.3609,0.0011,rough,15.5,2,8.342
2650,84.80,2.2721,5.0426,0.9373,-0.0329,-0.3610,-0.0041,rough,15.5,2,8.338
2660,85.12,2.2721,5.0340,0.9376,-0.0305,-0.3613,-0.0112,rough,15.5,2,8.333
2670,85.44,2.2717,5.0219,0.9379,-0.0270,-0.3615,-0.0209,rough,15.5,2,8.325
2680,85.76,2.2709,5.0052,0.9382,-0.0223,-0.3618,-0.0341,rough,15.5,2,8.314
2690,86.08,2.2693,4.9933,0.9380,-0.0288,-0.3610,-0.0152,rough,15.5,2,8.307
2700,86.40,2.2695,4.9872,0.9382,-0.0338,-0.3600,-0.0007,rough,15.5,2,8.303
2710,86.72,2.2700,4.9851,0.9384,-0.0371,-0.3591,0.0086,rough,15.5,2,8.301
2720,87.04,2.2698,4.9831,0.9386,-0.0370,-0.3604,0.0082,rough,15.5,2,8.300
2730,87.36,2.2703,4.9828,0.9361,-0.0392,-0.3436,0.0149,rough,15.5,2,8.300
2740,87.68,2.2708,4.9839,0.9389,-0.0398,-0.3600,0.0164,rough,15.5,2,8.300
2750,88.00,2.2713,4.9852,0.9390,-0.0402,-0.3601,0.0175,rough,15.5,2,8.301
2760,88.32,2.2717,4.9871,0.9391,-0.0407,-0.3601,0.0191,rough,15.5,2,8.302
2770,88.64,2.2720,4.9897,0.9391,-0.0415,-0.3600,0.0212,rough,15.5,2,8.303
2780,88.96,2.2721,4.9933,0.9390,-0.0426,-0.3599,0.0243,rough,15.5,2,8.305
2790,89.28,2.2721,4.9984,0.9389,-0.0442,-0.3597,0.0288,rough,15.5,2,8.309
2800,89.60,2.2721,5.0057,0.9386,-0.0464,-0.3594,0.0350,rough,15.5,2,8.314
2810,89.92,2.2719,5.0161,0.9381,-0.0496,-0.3589,0.0442,rough,15.5,2,8.321
2820,90.24,2.2712,5.0309,0.9373,-0.0545,-0.3582,0.0584,rough,15.5,2,8.331
2830,90.56,2.2693,5.0465,0.9359,-0.0505,-0.3576,0.0465,rough,15.5,2,8.343
2840,90.88,2.2692,5.0544,0.9357,-0.0454,-0.3595,0.0316,rough,15.5,2,8.348
2850,91.20,2.2691,5.0578,0.9356,-0.0422,-0.3600,0.0224,rough,15.5,2,8.351
2860,91.52,2.2694,5.0596,0.9356,-0.0407,-0.3602,0.0182,rough,15.5,2,8.352
2870,91.84,2.2695,5.0605,0.9356,-0.0399,-0.3603,0.0160,rough,15.5,2,8.352
2880,92.16,2.2696,5.0610,0.9356,-0.0395,-0.3603,0.0149,rough,15.5,2,8.353
2890,92.48,2.2696,5.0612,0.9356,-0.0393,-0.3603,0.0143,rough,15.5,2,8.353
2900,92.80,2.2696,5.0614,0.9356,-0.0392,-0.3603,0.0139,rough,15.5,2,8.353
2910,93.12,2.2697,5.0613,0.9357,-0.0391,-0.3604,0.0135,rough,15.5,2,8.353
2920,93.44,2.2697,5.0611,0.9357,-0.0389,-0.3604,0.0130,rough,15.5,2,8.353
2930,93.76,2.2698,5.0607,0.9357,-0.0386,-0.3604,0.0122,rough,15.5,2,8.352
2940,94.08,2.2698,5.0598,0.9358,-0.0383,-0.3605,0.0111,rough,15.5,2,8.352
2950,94.40,2.2704,5.0585,0.9361,-0.0378,-0.3605,0.0098,rough,15.5,2,8.350
2960,94.72,2.2710,5.0566,0.9364,-0.0371,-0.3606,0.0079,rough,15.5,2,8.349
2970,95.04,2.2718,5.0537,0.9368,-0.0363,-0.3607,0.0055,rough,15.5,2,8.346
2980,95.36,2.2721,5.0497,0.9370,-0.0350,-0.3609,0.0019,rough,15.5,2,8.343
2990,95.68,2.2722,5.0440,0.9372,-0.0333,-0.3610,-0.0030,rough,15.5,2,8.339
3000,96.00,2.2721,5.0359,0.9375,-0.0311,-0.3613,-0.0097,rough,15.5,2,8.334
3010,96.32,2.2718,5.0245,0.9378,-0.0277,-0.3615,-0.0188,rough,15.5,2,8.326
3020,96.64,2.2711,5.0089,0.9381,-0.0234,-0.3617,-0.0312,rough,15.5,2,8.317
3030,96.96,2.2696,4.9951,0.9369,-0.0281,-0.3540,-0.0172,rough,15.5,2,8.308
3040,97.28,2.2697,4.9880,0.9371,-0.0334,-0.3528,-0.0019,rough,15.5,2,8.304
3050,97.60,2.2701,4.9854,0.9373,-0.0369,-0.3524,0.0082,rough,15.5,2,8.302
3060,97.92,2.2703,4.9844,0.9386,-0.0381,-0.3596,0.0116,rough,15.5,2,8.301
3070,98.24,2.2702,4.9834,0.9387,-0.0379,-0.3603,0.0109,rough,15.5,2,8.300
3080,98.56,2.2700,4.9821,0.9386,-0.0376,-0.3604,0.0101,rough,15.5,2,8.299
3090,98.88,2.2698,4.9810,0.9386,-0.0381,-0.3603,0.0115,rough,15.5,2,8.299
3100,99.20,2.2698,4.9807,0.9386,-0.0386,-0.3602,0.0128,rough,15.5,2,8.299
3110,99.52,2.2698,4.9805,0.9386,-0.0388,-0.3602,0.0134,rough,15.5,2,8.299
3120,99.84,2.2699,4.9805,0.9387,-0.0389,-0.3602,0.0139,rough,15.5,2,8.298
3130,100.16,2.2700,4.9807,0.9387,-0.0391,-0.3602,0.0144,rough,15.5,2,8.298
3140,100.48,2.2703,4.9811,0.9388,-0.0393,-0.3602,0.0150,rough,15.5,2,8.299
3150,100.80,2.2704,4.9819,0.9388,-0.0396,-0.3601,0.0159,rough,15.5,2,8.299
3160,101.12,2.2708,4.9830,0.9389,-0.0400,-0.3601,0.0171,rough,15.5,2,8.299
3170,101.44,2.2712,4.9847,0.9390,-0.0406,-0.3600,0.0186,rough,15.5,2,8.300
3180,101.76,2.2718,4.9871,0.9391,-0.0413,-0.3600,0.0207,rough,15.5,2,8.301
3190,102.08,2.2721,4.9905,0.9391,-0.0423,-0.3599,0.0235,rough,15.5,2,8.304
3200,102.40,2.2722,4.9953,0.9390,-0.0438,-0.3597,0.0276,rough,15.5,2,8.307
3210,102.72,2.2721,5.0021,0.9387,-0.0459,-0.3594,0.0336,rough,15.5,2,8.311
3220,103.04,2.2720,5.0117,0.9383,-0.0489,-0.3590,0.0422,rough,15.5,2,8.318
3230,103.36,2.2715,5.0256,0.9376,-0.0534,-0.3584,0.0552,rough,15.5,2,8.327
3240,103.68,2.2697,5.0426,0.9360,-0.0524,-0.3563,0.0520,rough,15.5,2,8.340
3250,104.00,2.2690,5.0527,0.9357,-0.0466,-0.3593,0.0352,rough,15.5,2,8.347
3260,104.32,2.2691,5.0570,0.9356,-0.0428,-0.3599,0.0243,rough,15.5,2,8.350
3270,104.64,2.2693,5.0591,0.9356,-0.0410,-0.3601,0.0192,rough,15.5,2,8.352
3280,104.96,2.2695,5.0603,0.9356,-0.0401,-0.3602,0.0166,rough,15.5,2,8.352
3290,105.28,2.2696,5.0609,0.9356,-0.0396,-0.3603,0.0152,rough,15.5,2,8.353
3300,105.60,2.2696,5.0612,0.9356,-0.0394,-0.3603,0.0144,rough,15.5,2,8.353
3310,105.92,2.2696,5.0613,0.9356,-0.0392,-0.3603,0.0140,rough,15.5,2,8.353
3320,106.24,2.2697,5.0614,0.9357,-0.0391,-0.3604,0.0137,rough,15.5,2,8.353
3330,106.56,2.2697,5.0612,0.9357,-0.0389,-0.3604,0.0132,rough,15.5,2,8.353
3340,106.88,2.2697,5.0608,0.9357,-0.0387,-0.3604,0.0125,rough,15.5,2,8.352
3350,107.20,2.2698,5.0601,0.9357,-0.0384,-0.3605,0.0115,rough,15.5,2,8.352
3360,107.52,2.2704,5.0590,0.9360,-0.0379,-0.3605,0.0103,rough,15.5,2,8.351
3370,107.84,2.2709,5.0572,0.9363,-0.0373,-0.3606,0.0085,rough,15.5,2,8.349
3380,108.16,2.2716,5.0547,0.9366,-0.0366,-0.3607,0.0063,rough,15.5,2,8.347
3390,108.48,2.2721,5.0511,0.9369,-0.0355,-0.3608,0.0032,rough,15.5,2,8.344
3400,108.80,2.2722,5.0459,0.9372,-0.0339,-0.3610,-0.0013,rough,15.5,2,8.341
3410,109.12,2.2721,5.0386,0.9374,-0.0317,-0.3611,-0.0074,rough,15.5,2,8.336
3420,109.44,2.2719,5.0284,0.9377,-0.0288,-0.3614,-0.0157,rough,15.5,2,8.329
3430,109.76,2.2714,5.0142,0.9380,-0.0249,-0.3617,-0.0269,rough,15.5,2,8.320
3440,110.08,2.2697,4.9985,0.9380,-0.0257,-0.3613,-0.0243,rough,15.5,2,8.311
3450,110.40,2.2693,4.9895,0.9380,-0.0312,-0.3604,-0.0082,rough,15.5,2,8.305
3460,110.72,2.2698,4.9858,0.9383,-0.0357,-0.3596,0.0046,rough,15.5,2,8.302
3470,111.04,2.2699,4.9841,0.9386,-0.0369,-0.3604,0.0080,rough,15.5,2,8.301
3480,111.36,2.2697,4.9820,0.9385,-0.0369,-0.3604,0.0081,rough,15.5,2,8.300
3490,111.68,2.2698,4.9811,0.9386,-0.0381,-0.3603,0.0114,rough,15.5,2,8.299
3500,112.00,2.2698,4.9807,0.9386,-0.0385,-0.3602,0.0128,rough,15.5,2,8.299
3510,112.32,2.2698,4.9805,0.9386,-0.0387,-0.3602,0.0134,rough,15.5,2,8.299
3520,112.64,2.2699,4.9805,0.9387,-0.0389,-0.3602,0.0138,rough,15.5,2,8.298
3530,112.96,2.2700,4.9807,0.9387,-0.0391,-0.3602,0.0143,rough,15.5,2,8.298
3540,113.28,2.2703,4.9811,0.9388,-0.0393,-0.3602,0.0149,rough,15.5,2,8.299
3550,113.60,2.2704,4.9818,0.9388,-0.0396,-0.3601,0.0158,rough,15.5,2,8.299
3560,113.92,2.2708,4.9829,0.9389,-0.0400,-0.3601,0.0170,rough,15.5,2,8.299
3570,114.24,2.2712,4.9846,0.9390,-0.0405,-0.3601,0.0185,rough,15.5,2,8.300
3580,114.56,2.2717,4.9869,0.9391,-0.0412,-0.3600,0.0205,rough,15.5,2,8.301
3590,114.88,2.2721,4.9902,0.9391,-0.0422,-0.3599,0.0232,rough,15.5,2,8.303
3600,115.20,2.2721,4.9948,0.9390,-0.0436,-0.3597,0.0273,rough,15.5,2,8.306
3610,115.52,2.2721,5.0014,0.9388,-0.0457,-0.3595,0.0330,rough,15.5,2,8.311
3620,115.84,2.2720,5.0108,0.9384,-0.0486,-0.3591,0.0413,rough,15.5,2,8.317
3630,116.16,2.2715,5.0243,0.9377,-0.0530,-0.3584,0.0538,rough,15.5,2,8.327
3640,116.48,2.2697,5.0415,0.9358,-0.0531,-0.3549,0.0540,rough,15.5,2,8.339
3650,116.80,2.2690,5.0523,0.9357,-0.0469,-0.3592,0.0361,rough,15.5,2,8.347
3660,117.12,2.2691,5.0568,0.9356,-0.0431,-0.3599,0.0249,rough,15.5,2,8.350
3670,117.44,2.2693,5.0591,0.9356,-0.0411,-0.3601,0.0195,rough,15.5,2,8.352
3680,117.76,2.2695,5.0602,0.9356,-0.0402,-0.3602,0.0167,rough,15.5,2,8.352
3690,118.08,2.2696,5.0609,0.9356,-0.0396,-0.3603,0.0152,rough,15.5,2,8.353
3700,118.40,2.2696,5.0612,0.9356,-0.0394,-0.3603,0.0145,rough,15.5,2,8.353
3710,118.72,2.2696,5.0613,0.9356,-0.0392,-0.3603,0.0141,rough,15.5,2,8.353
3720,119.04,2.2697,5.0614,0.9357,-0.0391,-0.3604,0.0137,rough,15.5,2,8.353
3730,119.36,2.2697,5.0612,0.9357,-0.0389,-0.3604,0.0132,rough,15.5,2,8.353
3740,119.68,2.2697,5.0609,0.9357,-0.0387,-0.3604,0.0125,rough,15.5,2,8.352
3750,120.00,2.2698,5.0602,0.9357,-0.0384,-0.3605,0.0116,rough,15.5,2,8.352
3760,120.32,2.2703,5.0591,0.9360,-0.0380,-0.3605,0.0103,rough,15.5,2,8.351
3770,120.64,2.2708,5.0574,0.9363,-0.0374,-0.3606,0.0087,rough,15.5,2,8.349
3780,120.96,2.2716,5.0549,0.9366,-0.0366,-0.3607,0.0065,rough,15.5,2,8.347
3790,121.28,2.2721,5.0514,0.9369,-0.0355,-0.3608,0.0034,rough,15.5,2,8.344
3800,121.60,2.2721,5.0463,0.9372,-0.0340,-0.3609,-0.0009,rough,15.5,2,8.341
3810,121.92,2.2721,5.0392,0.9374,-0.0319,-0.3611,-0.0069,rough,15.5,2,8.336
3820,122.24,2.2720,5.0292,0.9377,-0.0290,-0.3614,-0.0151,rough,15.5,2,8.330
3830,122.56,2.2714,5.0153,0.9380,-0.0252,-0.3616,-0.0260,rough,15.5,2,8.321
3840,122.88,2.2700,5.0000,0.9381,-0.0262,-0.3622,-0.0229,rough,15.5,2,8.311
3850,123.20,2.2694,4.9909,0.9383,-0.0311,-0.3618,-0.0086,rough,15.5,2,8.306
3860,123.52,2.2696,4.9862,0.9384,-0.0348,-0.3609,0.0020,rough,15.5,2,8.302
3870,123.84,2.2701,4.9847,0.9384,-0.0376,-0.3592,0.0100,rough,15.5,2,8.301
3880,124.16,2.2703,4.9839,0.9381,-0.0385,-0.3564,0.0127,rough,15.5,2,8.300
3890,124.48,2.2705,4.9836,0.9388,-0.0385,-0.3602,0.0128,rough,15.5,2,8.300
3900,124.80,2.2704,4.9832,0.9388,-0.0385,-0.3603,0.0125,rough,15.5,2,8.300
3910,125.12,2.2702,4.9827,0.9387,-0.0385,-0.3603,0.0126,rough,15.5,2,8.300
3920,125.44,2.2701,4.9824,0.9387,-0.0386,-0.3603,0.0127,rough,15.5,2,8.300
3930,125.76,2.2703,4.9820,0.9388,-0.0385,-0.3603,0.0127,rough,15.5,2,8.299
3940,126.08,2.2703,4.9816,0.9388,-0.0385,-0.3603,0.0127,rough,15.5,2,8.299
3950,126.40,2.2701,4.9812,0.9387,-0.0385,-0.3603,0.0128,rough,15.5,2,8.299
3960,126.72,2.2700,4.9809,0.9387,-0.0386,-0.3602,0.0129,rough,15.5,2,8.299
3970,127.04,2.2699,4.9807,0.9387,-0.0387,-0.3602,0.0132,rough,15.5,2,8.299
3980,127.36,2.2699,4.9805,0.9387,-0.0388,-0.3602,0.0136,rough,15.5,2,8.298
3990,127.68,2.2699,4.9806,0.9387,-0.0390,-0.3602,0.0140,rough,15.5,2,8.298
4000,128.00,2.2701,4.9809,0.9387,-0.0392,-0.3602,0.0146,rough,15.5,2,8.299
4010,128.32,2.2704,4.9814,0.9388,-0.0394,-0.3602,0.0152,rough,15.5,2,8.299
4020,128.64,2.2704,4.9823,0.9388,-0.0398,-0.3601,0.0163,rough,15.5,2,8.299
4030,128.96,2.2709,4.9836,0.9389,-0.0402,-0.3601,0.0176,rough,15.5,2,8.300
4040,129.28,2.2714,4.9855,0.9390,-0.0408,-0.3600,0.0192,rough,15.5,2,8.301
4050,129.60,2.2719,4.9882,0.9392,-0.0416,-0.3600,0.0215,rough,15.5,2,8.302
4060,129.92,2.2721,4.9920,0.9391,-0.0427,-0.3598,0.0247,rough,15.5,2,8.304
4070,130.24,2.2722,4.9973,0.9389,-0.0444,-0.3596,0.0294,rough,15.5,2,8.308
4080,130.56,2.2721,5.0049,0.9386,-0.0467,-0.3593,0.0360,rough,15.5,2,8.313
4090,130.88,2.2719,5.0157,0.9381,-0.0501,-0.3589,0.0458,rough,15.5,2,8.321
4100,131.20,2.2711,5.0314,0.9373,-0.0554,-0.3580,0.0609,rough,15.5,2,8.332
4110,131.52,2.2692,5.0473,0.9358,-0.0504,-0.3578,0.0460,rough,15.5,2,8.344
4120,131.84,2.2692,5.0546,0.9357,-0.0452,-0.3596,0.0311,rough,15.5,2,8.349
4130,132.16,2.2692,5.0579,0.9356,-0.0421,-0.3600,0.0221,rough,15.5,2,8.351
4140,132.48,2.2694,5.0596,0.9356,-0.0407,-0.3602,0.0181,rough,15.5,2,8.352
4150,132.80,2.2695,5.0605,0.9356,-0.0399,-0.3603,0.0160,rough,15.5,2,8.352
4160,133.12,2.2696,5.0610,0.9356,-0.0395,-0.3603,0.0148,rough,15.5,2,8.353
4170,133.44,2.2696,5.0613,0.9356,-0.0393,-0.3603,0.0143,rough,15.5,2,8.353
4180,133.76,2.2696,5.0614,0.9356,-0.0392,-0.3603,0.0139,rough,15.5,2,8.353
4190,134.08,2.2697,5.0613,0.9357,-0.0390,-0.3604,0.0135,rough,15.5,2,8.353
4200,134.40,2.2697,5.0611,0.9357,-0.0389,-0.3604,0.0129,rough,15.5,2,8.353
4210,134.72,2.2698,5.0606,0.9357,-0.0386,-0.3604,0.0122,rough,15.5,2,8.352
4220,135.04,2.2698,5.0598,0.9358,-0.0382,-0.3605,0.0111,rough,15.5,2,8.352
4230,135.36,2.2704,5.0584,0.9361,-0.0377,-0.3605,0.0097,rough,15.5,2,8.350
4240,135.68,2.2710,5.0564,0.9364,-0.0371,-0.3606,0.0078,rough,15.5,2,8.348
4250,136.00,2.2719,5.0536,0.9368,-0.0362,-0.3607,0.0053,rough,15.5,2,8.346
4260,136.32,2.2721,5.0494,0.9370,-0.0350,-0.3609,0.0017,rough,15.5,2,8.343
4270,136.64,2.2722,5.0436,0.9373,-0.0332,-0.3610,-0.0032,rough,15.5,2,8.339
4280,136.96,2.2721,5.0354,0.9375,-0.0308,-0.3612,-0.0101,rough,15.5,2,8.334
4290,137.28,2.2718,5.0239,0.9378,-0.0275,-0.3615,-0.0193,rough,15.5,2,8.326
4300,137.60,2.2710,5.0079,0.9381,-0.0231,-0.3618,-0.0319,rough,15.5,2,8.316
4310,137.92,2.2693,4.9942,0.9379,-0.0277,-0.3606,-0.0183,rough,15.5,2,8.308
4320,138.24,2.2695,4.9875,0.9381,-0.0334,-0.3598,-0.0019,rough,15.5,2,8.303
4330,138.56,2.2700,4.9852,0.9383,-0.0368,-0.3591,0.0080,rough,15.5,2,8.301
4340,138.88,2.2704,4.9842,0.9387,-0.0379,-0.3601,0.0108,rough,15.5,2,8.301
4350,139.20,2.2700,4.9829,0.9386,-0.0377,-0.3603,0.0102,rough,15.5,2,8.300
4360,139.52,2.2698,4.9814,0.9386,-0.0375,-0.3604,0.0099,rough,15.5,2,8.299
4370,139.84,2.2698,4.9808,0.9386,-0.0384,-0.3603,0.0123,rough,15.5,2,8.299
4380,140.16,2.2698,4.9806,0.9386,-0.0387,-0.3602,0.0132,rough,15.5,2,8.299
4390,140.48,2.2698,4.9805,0.9387,-0.0388,-0.3602,0.0136,rough,15.5,2,8.298
4400,140.80,2.2699,4.9806,0.9387,-0.0390,-0.3602,0.0141,rough,15.5,2,8.298
4410,141.12,2.2701,4.9809,0.9387,-0.0392,-0.3602,0.0146,rough,15.5,2,8.299
4420,141.44,2.2704,4.9814,0.9388,-0.0394,-0.3602,0.0153,rough,15.5,2,8.299
4430,141.76,2.2705,4.9823,0.9388,-0.0398,-0.3601,0.0164,rough,15.5,2,8.299
4440,142.08,2.2709,4.9837,0.9389,-0.0403,-0.3601,0.0178,rough,15.5,2,8.300
4450,142.40,2.2714,4.9857,0.9391,-0.0409,-0.3600,0.0195,rough,15.5,2,8.301
4460,142.72,2.2720,4.9885,0.9392,-0.0417,-0.3599,0.0218,rough,15.5,2,8.302
4470,143.04,2.2721,4.9925,0.9391,-0.0429,-0.3598,0.0252,rough,15.5,2,8.305
4480,143.36,2.2722,4.9980,0.9389,-0.0446,-0.3596,0.0301,rough,15.5,2,8.308
4490,143.68,2.2721,5.0060,0.9386,-0.0471,-0.3593,0.0371,rough,15.5,2,8.314
4500,144.00,2.2718,5.0174,0.9380,-0.0507,-0.3588,0.0474,rough,15.5,2,8.322
4510,144.32,2.2710,5.0338,0.9371,-0.0563,-0.3579,0.0635,rough,15.5,2,8.333
4520,144.64,2.2691,5.0478,0.9359,-0.0500,-0.3586,0.0448,rough,15.5,2,8.344
4530,144.96,2.2692,5.0546,0.9357,-0.0451,-0.3596,0.0309,rough,15.5,2,8.349
4540,145.28,2.2692,5.0579,0.9356,-0.0421,-0.3600,0.0221,rough,15.5,2,8.351
4550,145.60,2.2694,5.0596,0.9356,-0.0407,-0.3602,0.0181,rough,15.5,2,8.352
4560,145.92,2.2695,5.0605,0.9356,-0.0399,-0.3603,0.0160,rough,15.5,2,8.352
4570,146.24,2.2696,5.0610,0.9356,-0.0395,-0.3603,0.0149,rough,15.5,2,8.353
4580,146.56,2.2696,5.0613,0.9356,-0.0393,-0.3603,0.0143,rough,15.5,2,8.353
4590,146.88,2.2696,5.0614,0.9356,-0.0392,-0.3603,0.0139,rough,15.5,2,8.353
4600,147.20,2.2697,5.0613,0.9357,-0.0390,-0.3604,0.0135,rough,15.5,2,8.353
4610,147.52,2.2697,5.0611,0.9357,-0.0389,-0.3604,0.0129,rough,15.5,2,8.353
4620,147.84,2.2698,5.0606,0.9357,-0.0386,-0.3604,0.0122,rough,15.5,2,8.352
4630,148.16,2.2698,5.0598,0.9358,-0.0382,-0.3605,0.0111,rough,15.5,2,8.352
4640,148.48,2.2704,5.0584,0.9361,-0.0377,-0.3605,0.0097,rough,15.5,2,8.350
4650,148.80,2.2710,5.0564,0.9364,-0.0371,-0.3606,0.0078,rough,15.5,2,8.348
4660,149.12,2.2719,5.0536,0.9368,-0.0362,-0.3607,0.0053,rough,15.5,2,8.346
4670,149.44,2.2721,5.0495,0.9370,-0.0350,-0.3609,0.0017,rough,15.5,2,8.343
4680,149.76,2.2722,5.0436,0.9373,-0.0332,-0.3610,-0.0032,rough,15.5,2,8.339
4690,150.08,2.2721,5.0354,0.9375,-0.0308,-0.3612,-0.0101,rough,15.5,2,8.334
4700,150.40,2.2718,5.0239,0.9378,-0.0276,-0.3615,-0.0193,rough,15.5,2,8.326
4710,150.72,2.2711,5.0080,0.9381,-0.0231,-0.3618,-0.0319,rough,15.5,2,8.316
4720,151.04,2.2693,4.9942,0.9379,-0.0278,-0.3607,-0.0182,rough,15.5,2,8.308
4730,151.36,2.2695,4.9875,0.9381,-0.0334,-0.3598,-0.0019,rough,15.5,2,8.303
4740,151.68,2.2700,4.9852,0.9383,-0.0368,-0.3591,0.0080,rough,15.5,2,8.301
4750,152.00,2.2704,4.9842,0.9387,-0.0379,-0.3600,0.0108,rough,15.5,2,8.301
4760,152.32,2.2700,4.9829,0.9386,-0.0377,-0.3603,0.0102,rough,15.5,2,8.300
4770,152.64,2.2698,4.9814,0.9386,-0.0375,-0.3604,0.0099,rough,15.5,2,8.299
4780,152.96,2.2698,4.9808,0.9386,-0.0384,-0.3603,0.0123,rough,15.5,2,8.299
4790,153.28,2.2698,4.9806,0.9386,-0.0387,-0.3602,0.0132,rough,15.5,2,8.299
4800,153.60,2.2698,4.9805,0.9387,-0.0388,-0.3602,0.0136,rough,15.5,2,8.298
4810,153.92,2.2699,4.9806,0.9387,-0.0390,-0.3602,0.0141,rough,15.5,2,8.298
4820,154.24,2.2701,4.9809,0.9387,-0.0392,-0.3602,0.0146,rough,15.5,2,8.299
4830,154.56,2.2704,4.9814,0.9388,-0.0394,-0.3602,0.0153,rough,15.5,2,8.299
4840,154.88,2.2705,4.9823,0.9388,-0.0398,-0.3601,0.0164,rough,15.5,2,8.299
4850,155.20,2.2709,4.9837,0.9389,-0.0403,-0.3601,0.0178,rough,15.5,2,8.300
4860,155.52,2.2714,4.9857,0.9391,-0.0409,-0.3600,0.0195,rough,15.5,2,8.301
4870,155.84,2.2720,4.9885,0.9392,-0.0417,-0.3599,0.0218,rough,15.5,2,8.302
4880,156.16,2.2721,4.9925,0.9391,-0.0429,-0.3598,0.0252,rough,15.5,2,8.305
4890,156.48,2.2722,4.9981,0.9389,-0.0446,-0.3596,0.0301,rough,15.5,2,8.308
4900,156.80,2.2721,5.0060,0.9386,-0.0471,-0.3593,0.0371,rough,15.5,2,8.314
4910,157.12,2.2718,5.0174,0.9380,-0.0507,-0.3588,0.0474,rough,15.5,2,8.322
4920,157.44,2.2710,5.0338,0.9371,-0.0563,-0.3579,0.0635,rough,15.5,2,8.333
4930,157.76,2.2691,5.0478,0.9359,-0.0500,-0.3586,0.0448,rough,15.5,2,8.344
4940,158.08,2.2692,5.0546,0.9357,-0.0451,-0.3596,0.0309,rough,15.5,2,8.349
4950,158.40,2.2692,5.0579,0.9356,-0.0421,-0.3600,0.0221,rough,15.5,2,8.351
4960,158.72,2.2694,5.0596,0.9356,-0.0407,-0.3602,0.0181,rough,15.5,2,8.352
4970,159.04,2.2695,5.0605,0.9356,-0.0399,-0.3603,0.0160,rough,15.5,2,8.352
4980,159.36,2.2696,5.0610,0.9356,-0.0395,-0.3603,0.0149,rough,15.5,2,8.353
4990,159.68,2.2696,5.0613,0.9356,-0.0393,-0.3603,0.0143,rough,15.5,2,8.353
5000,160.00,2.2696,5.0614,0.9356,-0.0392,-0.3603,0.0139,rough,15.5,2,8.353
5010,160.32,2.2697,5.0613,0.9357,-0.0390,-0.3604,0.0135,rough,15.5,2,8.353
5020,160.64,2.2697,5.0611,0.9357,-0.0389,-0.3604,0.0129,rough,15.5,2,8.353
5030,160.96,2.2698,5.0606,0.9357,-0.0386,-0.3604,0.0122,rough,15.5,2,8.352
5040,161.28,2.2698,5.0598,0.9358,-0.0382,-0.3605,0.0111,rough,15.5,2,8.352
5050,161.60,2.2704,5.0584,0.9361,-0.0377,-0.3605,0.0097,rough,15.5,2,8.350
5060,161.92,2.2710,5.0564,0.9364,-0.0371,-0.3606,0.0078,rough,15.5,2,8.348
5070,162.24,2.2719,5.0536,0.9368,-0.0362,-0.3607,0.0053,rough,15.5,2,8.346
5080,162.56,2.2721,5.0495,0.9370,-0.0350,-0.3609,0.0017,rough,15.5,2,8.343
5090,162.88,2.2722,5.0436,0.9373,-0.0332,-0.3610,-0.0032,rough,15.5,2,8.339
5100,163.20,2.2721,5.0354,0.9375,-0.0308,-0.3612,-0.0101,rough,15.5,2,8.334
5110,163.52,2.2718,5.0239,0.9378,-0.0276,-0.3615,-0.0193,rough,15.5,2,8.326
5120,163.84,2.2710,5.0080,0.9381,-0.0231,-0.3618,-0.0319,rough,15.5,2,8.316
5130,164.16,2.2693,4.9942,0.9379,-0.0278,-0.3606,-0.0182,rough,15.5,2,8.308
5140,164.48,2.2695,4.9875,0.9381,-0.0334,-0.3598,-0.0019,rough,15.5,2,8.303
5150,164.80,2.2700,4.9852,0.9383,-0.0368,-0.3591,0.0080,rough,15.5,2,8.301
5160,165.12,2.2704,4.9842,0.9387,-0.0379,-0.3600,0.0108,rough,15.5,2,8.301
5170,165.44,2.2700,4.9829,0.9386,-0.0377,-0.3603,0.0102,rough,15.5,2,8.300
5180,165.76,2.2698,4.9814,0.9386,-0.0375,-0.3604,0.0099,rough,15.5,2,8.299
5190,166.08,2.2698,4.9808,0.9386,-0.0384,-0.3603,0.0123,rough,15.5,2,8.299
5200,166.40,2.2698,4.9806,0.9386,-0.0387,-0.3602,0.0131,rough,15.5,2,8.299
5210,166.72,2.2698,4.9805,0.9387,-0.0388,-0.3602,0.0136,rough,15.5,2,8.298
5220,167.04,2.2699,4.9806,0.9387,-0.0390,-0.3602,0.0141,rough,15.5,2,8.298
5230,167.36,2.2701,4.9809,0.9387,-0.0392,-0.3602,0.0146,rough,15.5,2,8.299
5240,167.68,2.2704,4.9814,0.9388,-0.0394,-0.3602,0.0153,rough,15.5,2,8.299
5250,168.00,2.2705,4.9823,0.9388,-0.0398,-0.3601,0.0164,rough,15.5,2,8.299
5260,168.32,2.2709,4.9837,0.9389,-0.0403,-0.3601,0.0178,rough,15.5,2,8.300
5270,168.64,2.2714,4.9857,0.9391,-0.0409,-0.3600,0.0195,rough,15.5,2,8.301
5280,168.96,2.2720,4.9885,0.9392,-0.0417,-0.3599,0.0218,rough,15.5,2,8.302
5290,169.28,2.2721,4.9925,0.9391,-0.0429,-0.3598,0.0252,rough,15.5,2,8.305
5300,169.60,2.2722,4.9980,0.9389,-0.0446,-0.3596,0.0301,rough,15.5,2,8.308
5310,169.92,2.2721,5.0060,0.9386,-0.0471,-0.3593,0.0371,rough,15.5,2,8.314
5320,170.24,2.2718,5.0174,0.9380,-0.0507,-0.3588,0.0474,rough,15.5,2,8.322
5330,170.56,2.2710,5.0338,0.9371,-0.0563,-0.3579,0.0635,rough,15.5,2,8.333
5340,170.88,2.2692,5.0479,0.9359,-0.0499,-0.3586,0.0448,rough,15.5,2,8.344
5350,171.20,2.2692,5.0547,0.9357,-0.0451,-0.3596,0.0309,rough,15.5,2,8.349
5360,171.52,2.2692,5.0579,0.9356,-0.0420,-0.3600,0.0220,rough,15.5,2,8.351
5370,171.84,2.2694,5.0596,0.9356,-0.0407,-0.3602,0.0181,rough,15.5,2,8.352
5380,172.16,2.2695,5.0605,0.9356,-0.0399,-0.3603,0.0160,rough,15.5,2,8.352
5390,172.48,2.2696,5.0610,0.9356,-0.0395,-0.3603,0.0148,rough,15.5,2,8.353
5400,172.80,2.2696,5.0613,0.9356,-0.0393,-0.3603,0.0143,rough,15.5,2,8.353
5410,173.12,2.2696,5.0614,0.9356,-0.0392,-0.3603,0.0139,rough,15.5,2,8.353
5420,173.44,2.2697,5.0613,0.9357,-0.0390,-0.3604,0.0135,rough,15.5,2,8.353
5430,173.76,2.2697,5.0611,0.9357,-0.0389,-0.3604,0.0129,rough,15.5,2,8.353
5440,174.08,2.2698,5.0606,0.9357,-0.0386,-0.3604,0.0122,rough,15.5,2,8.352
5450,174.40,2.2698,5.0598,0.9358,-0.0382,-0.3605,0.0111,rough,15.5,2,8.352
5460,174.72,2.2704,5.0584,0.9361,-0.0377,-0.3605,0.0097,rough,15.5,2,8.350
5470,175.04,2.2710,5.0564,0.9364,-0.0371,-0.3606,0.0078,rough,15.5,2,8.348
5480,175.36,2.2719,5.0536,0.9368,-0.0362,-0.3607,0.0053,rough,15.5,2,8.346
5490,175.68,2.2721,5.0494,0.9370,-0.0350,-0.3609,0.0017,rough,15.5,2,8.343
5500,176.00,2.2722,5.0436,0.9373,-0.0332,-0.3610,-0.0032,rough,15.5,2,8.339
5510,176.32,2.2721,5.0354,0.9375,-0.0308,-0.3612,-0.0101,rough,15.5,2,8.334
5520,176.64,2.2718,5.0239,0.9378,-0.0276,-0.3615,-0.0193,rough,15.5,2,8.326
5530,176.96,2.2710,5.0079,0.9381,-0.0231,-0.3618,-0.0319,rough,15.5,2,8.316
5540,177.28,2.2693,4.9942,0.9379,-0.0277,-0.3607,-0.0183,rough,15.5,2,8.308
5550,177.60,2.2695,4.9875,0.9381,-0.0334,-0.3598,-0.0019,rough,15.5,2,8.303
5560,177.92,2.2700,4.9852,0.9383,-0.0368,-0.3591,0.0080,rough,15.5,2,8.301
5570,178.24,2.2704,4.9842,0.9387,-0.0379,-0.3600,0.0108,rough,15.5,2,8.301
5580,178.56,2.2700,4.9829,0.9386,-0.0377,-0.3603,0.0102,rough,15.5,2,8.300
5590,178.88,2.2697,4.9814,0.9386,-0.0375,-0.3604,0.0099,rough,15.5,2,8.299
5600,179.20,2.2698,4.9808,0.9386,-0.0384,-0.3603,0.0123,rough,15.5,2,8.299
5610,179.52,2.2698,4.9806,0.9386,-0.0387,-0.3602,0.0132,rough,15.5,2,8.299
5620,179.84,2.2698,4.9805,0.9387,-0.0388,-0.3602,0.0136,rough,15.5,2,8.298
5630,180.16,2.2699,4.9806,0.9387,-0.0390,-0.3602,0.0141,rough,15.5,2,8.298
5640,180.48,2.2701,4.9809,0.9387,-0.0392,-0.3602,0.0146,rough,15.5,2,8.299
5650,180.80,2.2704,4.9814,0.9388,-0.0394,-0.3602,0.0153,rough,15.5,2,8.299
5660,181.12,2.2705,4.9823,0.9388,-0.0398,-0.3601,0.0164,rough,15.5,2,8.299
5670,181.44,2.2709,4.9837,0.9389,-0.0403,-0.3601,0.0178,rough,15.5,2,8.300
5680,181.76,2.2714,4.9857,0.9391,-0.0409,-0.3600,0.0195,rough,15.5,2,8.301
5690,182.08,2.2720,4.9885,0.9392,-0.0417,-0.3599,0.0218,rough,15.5,2,8.302
5700,182.40,2.2721,4.9925,0.9391,-0.0429,-0.3598,0.0252,rough,15.5,2,8.305
5710,182.72,2.2722,4.9980,0.9389,-0.0446,-0.3596,0.0301,rough,15.5,2,8.308
5720,183.04,2.2721,5.0060,0.9386,-0.0471,-0.3593,0.0371,rough,15.5,2,8.314
5730,183.36,2.2718,5.0174,0.9380,-0.0507,-0.3588,0.0473,rough,15.5,2,8.322
5740,183.68,2.2710,5.0338,0.9371,-0.0563,-0.3579,0.0634,rough,15.5,2,8.333
5750,184.00,2.2691,5.0478,0.9359,-0.0500,-0.3586,0.0448,rough,15.5,2,8.344
5760,184.32,2.2692,5.0546,0.9357,-0.0451,-0.3596,0.0310,rough,15.5,2,8.349
5770,184.64,2.2692,5.0579,0.9356,-0.0421,-0.3600,0.0221,rough,15.5,2,8.351
5780,184.96,2.2694,5.0596,0.9356,-0.0407,-0.3602,0.0181,rough,15.5,2,8.352
5790,185.28,2.2695,5.0605,0.9356,-0.0399,-0.3603,0.0160,rough,15.5,2,8.352
5800,185.60,2.2696,5.0610,0.9356,-0.0395,-0.3603,0.0149,rough,15.5,2,8.353
5810,185.92,2.2696,5.0613,0.9356,-0.0393,-0.3603,0.0143,rough,15.5,2,8.353
5820,186.24,2.2696,5.0614,0.9356,-0.0392,-0.3603,0.0139,rough,15.5,2,8.353
5830,186.56,2.2697,5.0613,0.9357,-0.0390,-0.3604,0.0135,rough,15.5,2,8.353
5840,186.88,2.2697,5.0611,0.9357,-0.0389,-0.3604,0.0129,rough,15.5,2,8.353
5850,187.20,2.2698,5.0606,0.9357,-0.0386,-0.3604,0.0122,rough,15.5,2,8.352
5860,187.52,2.2698,5.0598,0.9358,-0.0382,-0.3605,0.0111,rough,15.5,2,8.352
5870,187.84,2.2704,5.0584,0.9361,-0.0377,-0.3605,0.0097,rough,15.5,2,8.350
5880,188.16,2.2710,5.0565,0.9364,-0.0371,-0.3606,0.0078,rough,15.5,2,8.348
5890,188.48,2.2718,5.0536,0.9368,-0.0362,-0.3607,0.0053,rough,15.5,2,8.346
5900,188.80,2.2721,5.0495,0.9370,-0.0350,-0.3609,0.0018,rough,15.5,2,8.343
5910,189.12,2.2722,5.0437,0.9373,-0.0332,-0.3610,-0.0032,rough,15.5,2,8.339
5920,189.44,2.2721,5.0355,0.9375,-0.0308,-0.3612,-0.0100,rough,15.5,2,8.334
5930,189.76,2.2718,5.0240,0.9378,-0.0276,-0.3615,-0.0192,rough,15.5,2,8.326
5940,190.08,2.2711,5.0081,0.9381,-0.0232,-0.3618,-0.0318,rough,15.5,2,8.316
5950,190.40,2.2695,4.9955,0.9379,-0.0284,-0.3607,-0.0164,rough,15.5,2,8.309
5960,190.72,2.2694,4.9883,0.9381,-0.0328,-0.3601,-0.0038,rough,15.5,2,8.304
5970,191.04,2.2699,4.9854,0.9383,-0.0364,-0.3594,0.0067,rough,15.5,2,8.302
5980,191.36,2.2702,4.9841,0.9387,-0.0376,-0.3603,0.0100,rough,15.5,2,8.301
5990,191.68,2.2700,4.9826,0.9386,-0.0374,-0.3604,0.0095,rough,15.5,2,8.300
6000,192.00,2.2697,4.9812,0.9386,-0.0378,-0.3603,0.0108,rough,15.5,2,8.299
6010,192.32,2.2698,4.9807,0.9386,-0.0385,-0.3603,0.0125,rough,15.5,2,8.299
6020,192.64,2.2698,4.9805,0.9386,-0.0387,-0.3602,0.0133,rough,15.5,2,8.299
6030,192.96,2.2699,4.9805,0.9387,-0.0389,-0.3602,0.0137,rough,15.5,2,8.298
6040,193.28,2.2700,4.9806,0.9387,-0.0390,-0.3602,0.0142,rough,15.5,2,8.298
6050,193.60,2.2702,4.9810,0.9388,-0.0392,-0.3602,0.0148,rough,15.5,2,8.299
6060,193.92,2.2704,4.9816,0.9388,-0.0395,-0.3602,0.0156,rough,15.5,2,8.299
6070,194.24,2.2706,4.9826,0.9389,-0.0399,-0.3601,0.0167,rough,15.5,2,8.299
6080,194.56,2.2710,4.9841,0.9389,-0.0404,-0.3601,0.0181,rough,15.5,2,8.300
6090,194.88,2.2716,4.9863,0.9391,-0.0410,-0.3600,0.0200,rough,15.5,2,8.301
6100,195.20,2.2720,4.9893,0.9392,-0.0419,-0.3599,0.0225,rough,15.5,2,8.303
6110,195.52,2.2721,4.9936,0.9390,-0.0432,-0.3598,0.0262,rough,15.5,2,8.306
6120,195.84,2.2722,4.9997,0.9388,-0.0451,-0.3595,0.0315,rough,15.5,2,8.310
6130,196.16,2.2721,5.0083,0.9385,-0.0478,-0.3592,0.0391,rough,15.5,2,8.315
6140,196.48,2.2717,5.0207,0.9379,-0.0518,-0.3586,0.0504,rough,15.5,2,8.324
6150,196.80,2.2704,5.0374,0.9343,-0.0539,-0.3427,0.0564,rough,15.5,2,8.336
6160,197.12,2.2689,5.0507,0.9357,-0.0481,-0.3588,0.0393,rough,15.5,2,8.346
6170,197.44,2.2691,5.0560,0.9356,-0.0438,-0.3598,0.0269,rough,15.5,2,8.350
6180,197.76,2.2692,5.0587,0.9356,-0.0415,-0.3601,0.0204,rough,15.5,2,8.351
6190,198.08,2.2694,5.0600,0.9356,-0.0403,-0.3602,0.0172,rough,15.5,2,8.352
6200,198.40,2.2695,5.0607,0.9356,-0.0397,-0.3603,0.0155,rough,15.5,2,8.352
6210,198.72,2.2696,5.0611,0.9356,-0.0394,-0.3603,0.0146,rough,15.5,2,8.353
6220,199.04,2.2696,5.0613,0.9356,-0.0393,-0.3603,0.0141,rough,15.5,2,8.353
6230,199.36,2.2696,5.0614,0.9357,-0.0391,-0.3603,0.0138,rough,15.5,2,8.353
6240,199.68,2.2697,5.0613,0.9357,-0.0390,-0.3604,0.0133,rough,15.5,2,8.353
6250,200.00,2.2697,5.0610,0.9357,-0.0388,-0.3604,0.0127,rough,15.5,2,8.353
6260,200.32,2.2698,5.0604,0.9357,-0.0385,-0.3604,0.0118,rough,15.5,2,8.352
6270,200.64,2.2702,5.0594,0.9359,-0.0381,-0.3605,0.0107,rough,15.5,2,8.351
6280,200.96,2.2705,5.0578,0.9361,-0.0375,-0.3606,0.0091,rough,15.5,2,8.350
6290,201.28,2.2714,5.0555,0.9365,-0.0368,-0.3607,0.0070,rough,15.5,2,8.348
6300,201.60,2.2720,5.0523,0.9369,-0.0358,-0.3608,0.0042,rough,15.5,2,8.345
6310,201.92,2.2721,5.0476,0.9371,-0.0344,-0.3609,0.0001,rough,15.5,2,8.342
6320,202.24,2.2721,5.0410,0.9373,-0.0324,-0.3611,-0.0054,rough,15.5,2,8.337
6330,202.56,2.2720,5.0317,0.9376,-0.0298,-0.3613,-0.0130,rough,15.5,2,8.331
6340,202.88,2.2716,5.0188,0.9380,-0.0262,-0.3616,-0.0233,rough,15.5,2,8.323
6350,203.20,2.2704,5.0023,0.9356,-0.0245,-0.3458,-0.0276,rough,15.5,2,8.313
6360,203.52,2.2696,4.9916,0.9369,-0.0306,-0.3530,-0.0101,rough,15.5,2,8.306
6370,203.84,2.2699,4.9866,0.9372,-0.0352,-0.3525,0.0032,rough,15.5,2,8.303
6380,204.16,2.2702,4.9848,0.9360,-0.0375,-0.3437,0.0100,rough,15.5,2,8.301
6390,204.48,2.2703,4.9838,0.9387,-0.0378,-0.3602,0.0106,rough,15.5,2,8.300
6400,204.80,2.2700,4.9825,0.9386,-0.0375,-0.3604,0.0099,rough,15.5,2,8.300
6410,205.12,2.2698,4.9812,0.9386,-0.0379,-0.3603,0.0109,rough,15.5,2,8.299
6420,205.44,2.2698,4.9807,0.9386,-0.0385,-0.3602,0.0126,rough,15.5,2,8.299
6430,205.76,2.2698,4.9805,0.9386,-0.0387,-0.3602,0.0133,rough,15.5,2,8.299
6440,206.08,2.2699,4.9805,0.9387,-0.0389,-0.3602,0.0137,rough,15.5,2,8.298
6450,206.40,2.2700,4.9806,0.9387,-0.0390,-0.3602,0.0142,rough,15.5,2,8.298
6460,206.72,2.2702,4.9810,0.9388,-0.0392,-0.3602,0.0148,rough,15.5,2,8.299
6470,207.04,2.2704,4.9816,0.9388,-0.0395,-0.3601,0.0156,rough,15.5,2,8.299
6480,207.36,2.2706,4.9827,0.9389,-0.0399,-0.3601,0.0168,rough,15.5,2,8.299
6490,207.68,2.2710,4.9842,0.9390,-0.0404,-0.3601,0.0182,rough,15.5,2,8.300
6500,208.00,2.2716,4.9865,0.9391,-0.0411,-0.3600,0.0201,rough,15.5,2,8.301
6510,208.32,2.2720,4.9896,0.9391,-0.0420,-0.3599,0.0227,rough,15.5,2,8.303
6520,208.64,2.2721,4.9939,0.9390,-0.0433,-0.3598,0.0265,rough,15.5,2,8.306
6530,208.96,2.2722,5.0001,0.9388,-0.0453,-0.3595,0.0319,rough,15.5,2,8.310
6540,209.28,2.2720,5.0090,0.9384,-0.0480,-0.3592,0.0397,rough,15.5,2,8.316
6550,209.60,2.2716,5.0216,0.9378,-0.0521,-0.3586,0.0513,rough,15.5,2,8.325
6560,209.92,2.2705,5.0383,0.9356,-0.0534,-0.3512,0.0549,rough,15.5,2,8.337
6570,210.24,2.2690,5.0503,0.9358,-0.0484,-0.3590,0.0404,rough,15.5,2,8.346
6580,210.56,2.2691,5.0558,0.9357,-0.0439,-0.3598,0.0275,rough,15.5,2,8.349
6590,210.88,2.2692,5.0585,0.9356,-0.0416,-0.3601,0.0207,rough,15.5,2,8.351
6600,211.20,2.2694,5.0600,0.9356,-0.0404,-0.3602,0.0173,rough,15.5,2,8.352
6610,211.52,2.2695,5.0607,0.9356,-0.0398,-0.3603,0.0156,rough,15.5,2,8.352
6620,211.84,2.2696,5.0611,0.9356,-0.0394,-0.3603,0.0146,rough,15.5,2,8.353
6630,212.16,2.2696,5.0613,0.9356,-0.0393,-0.3603,0.0142,rough,15.5,2,8.353
6640,212.48,2.2696,5.0614,0.9357,-0.0392,-0.3603,0.0138,rough,15.5,2,8.353
6650,212.80,2.2697,5.0613,0.9357,-0.0390,-0.3604,0.0134,rough,15.5,2,8.353
6660,213.12,2.2697,5.0610,0.9357,-0.0388,-0.3604,0.0127,rough,15.5,2,8.353
6670,213.44,2.2698,5.0604,0.9357,-0.0385,-0.3604,0.0119,rough,15.5,2,8.352
6680,213.76,2.2701,5.0594,0.9359,-0.0381,-0.3605,0.0107,rough,15.5,2,8.351
6690,214.08,2.2705,5.0579,0.9361,-0.0376,-0.3606,0.0092,rough,15.5,2,8.350
6700,214.40,2.2713,5.0557,0.9365,-0.0369,-0.3607,0.0072,rough,15.5,2,8.348
6710,214.72,2.2720,5.0525,0.9369,-0.0359,-0.3608,0.0044,rough,15.5,2,8.345
6720,215.04,2.2721,5.0480,0.9371,-0.0345,-0.3609,0.0005,rough,15.5,2,8.342
6730,215.36,2.2721,5.0415,0.9373,-0.0326,-0.3611,-0.0050,rough,15.5,2,8.338
6740,215.68,2.2720,5.0325,0.9376,-0.0300,-0.3613,-0.0124,rough,15.5,2,8.332
6750,216.00,2.2716,5.0198,0.9379,-0.0264,-0.3616,-0.0225,rough,15.5,2,8.323
6760,216.32,2.2705,5.0037,0.9356,-0.0249,-0.3461,-0.0266,rough,15.5,2,8.314
6770,216.64,2.2695,4.9927,0.9370,-0.0299,-0.3541,-0.0119,rough,15.5,2,8.307
6780,216.96,2.2698,4.9872,0.9371,-0.0345,-0.3527,0.0014,rough,15.5,2,8.303
6790,217.28,2.2701,4.9849,0.9360,-0.0373,-0.3439,0.0092,rough,15.5,2,8.301
6800,217.60,2.2701,4.9837,0.9386,-0.0375,-0.3604,0.0097,rough,15.5,2,8.300
6810,217.92,2.2699,4.9821,0.9386,-0.0373,-0.3604,0.0091,rough,15.5,2,8.300
6820,218.24,2.2698,4.9810,0.9386,-0.0381,-0.3603,0.0115,rough,15.5,2,8.299
6830,218.56,2.2698,4.9807,0.9386,-0.0386,-0.3602,0.0128,rough,15.5,2,8.299
6840,218.88,2.2698,4.9805,0.9386,-0.0388,-0.3602,0.0134,rough,15.5,2,8.298
6850,219.20,2.2699,4.9805,0.9387,-0.0389,-0.3602,0.0139,rough,15.5,2,8.298
6860,219.52,2.2700,4.9807,0.9387,-0.0391,-0.3602,0.0144,rough,15.5,2,8.298
6870,219.84,2.2703,4.9811,0.9388,-0.0393,-0.3602,0.0150,rough,15.5,2,8.299
6880,220.16,2.2704,4.9818,0.9388,-0.0396,-0.3601,0.0159,rough,15.5,2,8.299
6890,220.48,2.2708,4.9830,0.9389,-0.0400,-0.3601,0.0171,rough,15.5,2,8.299
6900,220.80,2.2712,4.9847,0.9390,-0.0406,-0.3600,0.0186,rough,15.5,2,8.300
6910,221.12,2.2718,4.9871,0.9391,-0.0413,-0.3600,0.0206,rough,15.5,2,8.301
6920,221.44,2.2721,4.9905,0.9391,-0.0423,-0.3599,0.0235,rough,15.5,2,8.303
6930,221.76,2.2722,4.9952,0.9390,-0.0437,-0.3597,0.0276,rough,15.5,2,8.307
6940,222.08,2.2721,5.0019,0.9387,-0.0458,-0.3595,0.0335,rough,15.5,2,8.311
6950,222.40,2.2720,5.0116,0.9383,-0.0488,-0.3590,0.0420,rough,15.5,2,8.318
6960,222.72,2.2715,5.0254,0.9376,-0.0533,-0.3584,0.0549,rough,15.5,2,8.327
6970,223.04,2.2696,5.0423,0.9359,-0.0524,-0.3560,0.0519,rough,15.5,2,8.340
6980,223.36,2.2690,5.0527,0.9357,-0.0466,-0.3593,0.0351,rough,15.5,2,8.347
6990,223.68,2.2691,5.0570,0.9356,-0.0428,-0.3599,0.0243,rough,15.5,2,8.350
7000,224.00,2.2693,5.0592,0.9356,-0.0410,-0.3601,0.0192,rough,15.5,2,8.352
7010,224.32,2.2695,5.0603,0.9356,-0.0401,-0.3602,0.0165,rough,15.5,2,8.352
7020,224.64,2.2696,5.0609,0.9356,-0.0396,-0.3603,0.0152,rough,15.5,2,8.353
7030,224.96,2.2696,5.0612,0.9356,-0.0394,-0.3603,0.0144,rough,15.5,2,8.353
7040,225.28,2.2696,5.0613,0.9356,-0.0392,-0.3603,0.0140,rough,15.5,2,8.353
7050,225.60,2.2697,5.0614,0.9357,-0.0391,-0.3604,0.0137,rough,15.5,2,8.353
7060,225.92,2.2697,5.0612,0.9357,-0.0389,-0.3604,0.0132,rough,15.5,2,8.353
7070,226.24,2.2697,5.0608,0.9357,-0.0387,-0.3604,0.0125,rough,15.5,2,8.352
7080,226.56,2.2698,5.0601,0.9357,-0.0384,-0.3605,0.0115,rough,15.5,2,8.352
7090,226.88,2.2704,5.0590,0.9360,-0.0379,-0.3605,0.0102,rough,15.5,2,8.351
7100,227.20,2.2709,5.0572,0.9363,-0.0373,-0.3606,0.0085,rough,15.5,2,8.349
7110,227.52,2.2716,5.0547,0.9366,-0.0366,-0.3607,0.0063,rough,15.5,2,8.347
7120,227.84,2.2721,5.0510,0.9370,-0.0354,-0.3608,0.0031,rough,15.5,2,8.344
7130,228.16,2.2721,5.0459,0.9372,-0.0339,-0.3610,-0.0013,rough,15.5,2,8.341
7140,228.48,2.2721,5.0385,0.9374,-0.0317,-0.3611,-0.0075,rough,15.5,2,8.336
7150,228.80,2.2719,5.0283,0.9377,-0.0288,-0.3614,-0.0158,rough,15.5,2,8.329
7160,229.12,2.2714,5.0140,0.9381,-0.0248,-0.3617,-0.0270,rough,15.5,2,8.320
7170,229.44,2.2696,4.9983,0.9379,-0.0257,-0.3614,-0.0243,rough,15.5,2,8.311
7180,229.76,2.2693,4.9894,0.9380,-0.0313,-0.3604,-0.0079,rough,15.5,2,8.305
7190,230.08,2.2698,4.9858,0.9383,-0.0357,-0.3596,0.0048,rough,15.5,2,8.302
7200,230.40,2.2703,4.9845,0.9374,-0.0379,-0.3519,0.0111,rough,15.5,2,8.301
7210,230.72,2.2704,4.9837,0.9387,-0.0380,-0.3602,0.0111,rough,15.5,2,8.300
7220,231.04,2.2700,4.9826,0.9387,-0.0377,-0.3603,0.0105,rough,15.5,2,8.300
7230,231.36,2.2698,4.9812,0.9386,-0.0378,-0.3603,0.0105,rough,15.5,2,8.299
7240,231.68,2.2698,4.9808,0.9386,-0.0385,-0.3603,0.0125,rough,15.5,2,8.299
7250,232.00,2.2698,4.9805,0.9386,-0.0387,-0.3602,0.0133,rough,15.5,2,8.299
7260,232.32,2.2699,4.9805,0.9387,-0.0389,-0.3602,0.0137,rough,15.5,2,8.298
7270,232.64,2.2700,4.9806,0.9387,-0.0390,-0.3602,0.0142,rough,15.5,2,8.298
7280,232.96,2.2702,4.9810,0.9388,-0.0392,-0.3602,0.0148,rough,15.5,2,8.299
7290,233.28,2.2704,4.9816,0.9388,-0.0395,-0.3602,0.0155,rough,15.5,2,8.299
7300,233.60,2.2706,4.9826,0.9388,-0.0399,-0.3601,0.0167,rough,15.5,2,8.299
7310,233.92,2.2710,4.9841,0.9389,-0.0404,-0.3601,0.0181,rough,15.5,2,8.300
7320,234.24,2.2715,4.9862,0.9391,-0.0410,-0.3600,0.0199,rough,15.5,2,8.301
7330,234.56,2.2720,4.9892,0.9392,-0.0419,-0.3599,0.0224,rough,15.5,2,8.303
7340,234.88,2.2721,4.9934,0.9390,-0.0432,-0.3598,0.0260,rough,15.5,2,8.305
7350,235.20,2.2722,4.9994,0.9388,-0.0451,-0.3596,0.0313,rough,15.5,2,8.309
7360,235.52,2.2721,5.0080,0.9385,-0.0477,-0.3592,0.0388,rough,15.5,2,8.315
7370,235.84,2.2717,5.0202,0.9379,-0.0516,-0.3586,0.0500,rough,15.5,2,8.324
7380,236.16,2.2705,5.0367,0.9344,-0.0536,-0.3427,0.0556,rough,15.5,2,8.336
7390,236.48,2.2691,5.0496,0.9358,-0.0490,-0.3589,0.0420,rough,15.5,2,8.345
7400,236.80,2.2692,5.0555,0.9357,-0.0443,-0.3597,0.0285,rough,15.5,2,8.349
7410,237.12,2.2692,5.0583,0.9356,-0.0417,-0.3601,0.0211,rough,15.5,2,8.351
7420,237.44,2.2694,5.0599,0.9356,-0.0405,-0.3602,0.0175,rough,15.5,2,8.352
7430,237.76,2.2695,5.0607,0.9356,-0.0398,-0.3603,0.0157,rough,15.5,2,8.352
7440,238.08,2.2696,5.0611,0.9356,-0.0395,-0.3603,0.0147,rough,15.5,2,8.353
7450,238.40,2.2696,5.0613,0.9356,-0.0393,-0.3603,0.0142,rough,15.5,2,8.353
7460,238.72,2.2696,5.0614,0.9357,-0.0392,-0.3603,0.0139,rough,15.5,2,8.353
7470,239.04,2.2697,5.0613,0.9357,-0.0390,-0.3604,0.0134,rough,15.5,2,8.353
7480,239.36,2.2697,5.0611,0.9357,-0.0388,-0.3604,0.0128,rough,15.5,2,8.353
7490,239.68,2.2698,5.0605,0.9357,-0.0385,-0.3604,0.0120,rough,15.5,2,8.352
7500,240.00,2.2700,5.0596,0.9359,-0.0381,-0.3605,0.0109,rough,15.5,2,8.351
7510,240.32,2.2704,5.0581,0.9361,-0.0376,-0.3606,0.0093,rough,15.5,2,8.350
7520,240.64,2.2712,5.0560,0.9365,-0.0369,-0.3607,0.0074,rough,15.5,2,8.348
7530,240.96,2.2720,5.0529,0.9368,-0.0360,-0.3608,0.0047,rough,15.5,2,8.345
7540,241.28,2.2721,5.0485,0.9371,-0.0347,-0.3609,0.0009,rough,15.5,2,8.342
7550,241.60,2.2721,5.0422,0.9373,-0.0328,-0.3611,-0.0044,rough,15.5,2,8.338
7560,241.92,2.2720,5.0334,0.9376,-0.0302,-0.3613,-0.0117,rough,15.5,2,8.332
7570,242.24,2.2717,5.0212,0.9379,-0.0268,-0.3615,-0.0214,rough,15.5,2,8.324
7580,242.56,2.2704,5.0043,0.9382,-0.0223,-0.3628,-0.0341,rough,15.5,2,8.314
7590,242.88,2.2691,4.9920,0.9381,-0.0288,-0.3619,-0.0152,rough,15.5,2,8.307
7600,243.20,2.2695,4.9866,0.9384,-0.0343,-0.3611,0.0006,rough,15.5,2,8.303
7610,243.52,2.2701,4.9849,0.9385,-0.0372,-0.3600,0.0090,rough,15.5,2,8.301
7620,243.84,2.2705,4.9841,0.9387,-0.0381,-0.3600,0.0115,rough,15.5,2,8.300
7630,244.16,2.2701,4.9831,0.9387,-0.0379,-0.3603,0.0108,rough,15.5,2,8.300
7640,244.48,2.2699,4.9818,0.9386,-0.0376,-0.3604,0.0101,rough,15.5,2,8.299
7650,244.80,2.2698,4.9809,0.9386,-0.0382,-0.3603,0.0119,rough,15.5,2,8.299
7660,245.12,2.2698,4.9806,0.9386,-0.0386,-0.3602,0.0130,rough,15.5,2,8.299
7670,245.44,2.2698,4.9805,0.9386,-0.0388,-0.3602,0.0135,rough,15.5,2,8.298
7680,245.76,2.2699,4.9805,0.9387,-0.0390,-0.3602,0.0140,rough,15.5,2,8.298
7690,246.08,2.2701,4.9808,0.9387,-0.0391,-0.3602,0.0145,rough,15.5,2,8.299
7700,246.40,2.2704,4.9813,0.9388,-0.0393,-0.3602,0.0151,rough,15.5,2,8.299
7710,246.72,2.2704,4.9821,0.9388,-0.0397,-0.3601,0.0161,rough,15.5,2,8.299
7720,247.04,2.2709,4.9833,0.9389,-0.0401,-0.3601,0.0174,rough,15.5,2,8.300
7730,247.36,2.2714,4.9852,0.9391,-0.0407,-0.3600,0.0190,rough,15.5,2,8.300
7740,247.68,2.2719,4.9877,0.9392,-0.0414,-0.3600,0.0211,rough,15.5,2,8.302
7750,248.00,2.2721,4.9913,0.9391,-0.0425,-0.3599,0.0242,rough,15.5,2,8.304
7760,248.32,2.2722,4.9964,0.9389,-0.0441,-0.3597,0.0287,rough,15.5,2,8.307
7770,248.64,2.2721,5.0037,0.9387,-0.0464,-0.3594,0.0351,rough,15.5,2,8.312
7780,248.96,2.2719,5.0141,0.9382,-0.0496,-0.3589,0.0443,rough,15.5,2,8.319
7790,249.28,2.2713,5.0290,0.9374,-0.0546,-0.3582,0.0585,rough,15.5,2,8.330
7800,249.60,2.2693,5.0455,0.9359,-0.0512,-0.3573,0.0485,rough,15.5,2,8.342
7810,249.92,2.2691,5.0538,0.9357,-0.0458,-0.3595,0.0328,rough,15.5,2,8.348
7820,250.24,2.2691,5.0575,0.9356,-0.0424,-0.3600,0.0230,rough,15.5,2,8.351
7830,250.56,2.2693,5.0594,0.9356,-0.0408,-0.3602,0.0185,rough,15.5,2,8.352
7840,250.88,2.2695,5.0604,0.9356,-0.0400,-0.3603,0.0162,rough,15.5,2,8.352
7850,251.20,2.2696,5.0610,0.9356,-0.0396,-0.3603,0.0150,rough,15.5,2,8.353
7860,251.52,2.2696,5.0612,0.9356,-0.0393,-0.3603,0.0143,rough,15.5,2,8.353
7870,251.84,2.2696,5.0614,0.9356,-0.0392,-0.3603,0.0140,rough,15.5,2,8.353
7880,252.16,2.2697,5.0614,0.9357,-0.0391,-0.3604,0.0136,rough,15.5,2,8.353
7890,252.48,2.2697,5.0612,0.9357,-0.0389,-0.3604,0.0130,rough,15.5,2,8.353
7900,252.80,2.2697,5.0607,0.9357,-0.0386,-0.3604,0.0123,rough,15.5,2,8.352
7910,253.12,2.2698,5.0599,0.9358,-0.0383,-0.3605,0.0113,rough,15.5,2,8.352
7920,253.44,2.2704,5.0587,0.9360,-0.0378,-0.3605,0.0100,rough,15.5,2,8.350
7930,253.76,2.2710,5.0568,0.9363,-0.0372,-0.3606,0.0082,rough,15.5,2,8.349
7940,254.08,2.2718,5.0541,0.9367,-0.0364,-0.3607,0.0058,rough,15.5,2,8.346
7950,254.40,2.2721,5.0502,0.9370,-0.0352,-0.3608,0.0024,rough,15.5,2,8.344
7960,254.72,2.2722,5.0447,0.9372,-0.0335,-0.3610,-0.0023,rough,15.5,2,8.340
7970,255.04,2.2721,5.0369,0.9375,-0.0312,-0.3612,-0.0088,rough,15.5,2,8.335
7980,255.36,2.2719,5.0260,0.9378,-0.0281,-0.3614,-0.0176,rough,15.5,2,8.327
7990,255.68,2.2712,5.0109,0.9381,-0.0239,-0.3617,-0.0296,rough,15.5,2,8.318
8000,256.00,2.2697,4.9965,0.9356,-0.0275,-0.3458,-0.0190,rough,15.5,2,8.309
8010,256.32,2.2696,4.9887,0.9357,-0.0329,-0.3445,-0.0032,rough,15.5,2,8.304
8020,256.64,2.2700,4.9855,0.9360,-0.0366,-0.3442,0.0074,rough,15.5,2,8.302
8030,256.96,2.2704,4.9845,0.9386,-0.0381,-0.3595,0.0114,rough,15.5,2,8.301
