step,time_s,x,y,z,roll,pitch,yaw,terrain,speed,target_idx,dist_to_target
10,0.32,0.9676,-0.7750,0.1723,-0.0000,-0.0182,0.0000,flat,18.0,0,5.761
20,0.64,1.2692,-0.7778,0.1791,-0.0000,0.0025,-0.0303,flat,18.0,0,5.533
30,0.96,1.6823,-0.8093,0.1799,0.0001,-0.0000,-0.3534,flat,18.0,0,5.214
40,1.28,2.0981,-1.0078,0.1799,-0.0001,-0.0000,-0.6429,flat,18.0,0,4.783
50,1.60,2.4733,-1.3391,0.1799,-0.0001,-0.0000,-0.8175,flat,18.0,0,4.285
60,1.92,2.8176,-1.7459,0.1798,-0.0003,-0.0001,-0.9287,flat,18.0,0,3.753
70,2.24,3.1399,-2.2005,0.1798,-0.0002,-0.0000,-0.9804,flat,18.0,0,3.200
80,2.56,3.4569,-2.6762,0.1797,-0.0000,0.0000,-0.9791,flat,18.0,0,2.639
90,2.88,3.7755,-3.1385,0.1797,0.0001,0.0000,-0.9466,flat,18.0,0,2.091
100,3.20,4.0949,-3.5672,0.1797,0.0001,0.0001,-0.9057,flat,18.0,0,1.572
110,3.52,4.3888,-3.9303,0.1797,0.0001,0.0001,-0.8683,flat,18.0,0,1.123
120,3.84,4.6438,-4.2167,0.1797,0.0001,0.0002,-0.7627,flat,18.0,1,12.274
130,4.16,4.8626,-4.3967,0.1798,-0.0003,0.0001,-0.2184,flat,18.0,1,12.512
140,4.48,5.0182,-4.4802,0.1798,-0.0002,-0.0002,0.6586,flat,18.0,1,12.639
150,4.80,5.1929,-4.2823,0.1799,-0.0004,-0.0001,1.1590,rough,14.0,1,12.509
160,5.12,5.3332,-3.9073,0.1799,-0.0000,-0.0001,1.4509,flat,18.0,1,12.205
170,5.44,5.3581,-3.4242,0.1799,-0.0000,-0.0000,1.7962,flat,18.0,1,11.764
180,5.76,5.2182,-2.9316,0.1799,0.0001,-0.0000,1.9831,flat,18.0,1,11.254
190,6.08,4.9846,-2.4389,0.1798,0.0003,-0.0001,2.0653,flat,18.0,1,10.710
200,6.40,4.7099,-1.9400,0.1797,0.0001,-0.0000,2.0785,flat,18.0,1,10.145
210,6.72,4.4376,-1.4430,0.1797,-0.0001,0.0000,2.0533,flat,18.0,1,9.583
220,7.04,4.1846,-0.9433,0.1797,-0.0001,0.0000,2.0084,flat,18.0,1,9.026
230,7.36,3.9554,-0.4318,0.1797,-0.0002,-0.0000,1.9555,flat,18.0,1,8.467
240,7.68,3.7513,0.0931,0.1797,-0.0002,-0.0000,1.9127,flat,18.0,1,7.904
250,8.00,3.5660,0.6289,0.1797,-0.0001,-0.0000,1.8845,flat,18.0,1,7.337
260,8.32,3.3924,1.1732,0.1797,-0.0001,-0.0000,1.8698,flat,18.0,1,6.767
270,8.64,3.2241,1.7228,0.1797,-0.0000,-0.0000,1.8661,flat,18.0,1,6.193
280,8.96,3.0565,2.2725,0.1797,0.0000,0.0000,1.8693,flat,18.0,1,5.620
290,9.28,2.8870,2.8203,0.1797,0.0000,0.0000,1.8760,flat,18.0,1,5.048
300,9.60,2.7136,3.3666,0.1797,0.0000,-0.0000,1.8833,flat,18.0,1,4.476
310,9.92,2.5363,3.9122,0.1797,0.0000,-0.0000,1.8893,flat,18.0,1,3.905
320,10.24,2.3557,4.4574,0.1797,0.0000,-0.0000,1.8934,flat,18.0,1,3.332
330,10.56,2.1729,5.0028,0.1797,0.0000,-0.0000,1.8956,flat,18.0,1,2.760
340,10.88,1.9890,5.5484,0.1797,0.0000,-0.0000,1.8962,flat,18.0,1,2.188
350,11.20,1.8098,6.0795,0.1797,-0.0000,0.0001,1.8959,flat,18.0,1,1.634
360,11.52,1.6531,6.5449,0.1797,-0.0000,0.0001,1.8953,flat,18.0,1,1.155
370,11.84,1.5228,6.9351,0.1797,0.0000,0.0001,1.9271,flat,18.0,2,15.136
380,12.16,1.4055,7.2337,0.1798,-0.0001,0.0002,2.2180,flat,18.0,2,15.299
390,12.48,1.2576,7.3600,0.1798,-0.0004,-0.0001,2.9487,flat,18.0,2,15.311
400,12.80,0.9555,7.3988,0.1798,-0.0002,-0.0002,-2.7038,flat,18.0,2,15.164
410,13.12,0.5556,7.1623,0.1798,0.0007,-0.0004,-2.4353,flat,18.0,2,14.739
420,13.44,0.2242,6.8179,0.1799,0.0000,-0.0000,-2.2030,flat,18.0,2,14.267
430,13.76,-0.0439,6.3892,0.1799,0.0000,-0.0000,-1.9828,flat,18.0,2,13.762
440,14.08,-0.2338,5.8920,0.1799,0.0001,-0.0000,-1.8167,flat,18.0,2,13.246
450,14.40,-0.3572,5.3453,0.1798,0.0002,-0.0001,-1.7531,flat,18.0,2,12.731
460,14.72,-0.4615,4.7919,0.1797,-0.0001,0.0000,-1.7934,flat,18.0,2,12.225
470,15.04,-0.5914,4.2651,0.1798,-0.0004,0.0000,-1.8977,flat,18.0,2,11.730
480,15.36,-0.7780,3.7668,0.1799,-0.0003,-0.0000,-2.0215,flat,18.0,2,11.225
490,15.68,-1.0272,3.2952,0.1798,-0.0004,-0.0000,-2.1320,flat,18.0,2,10.703
500,16.00,-1.3304,2.8458,0.1798,-0.0004,-0.0000,-2.2151,flat,18.0,2,10.164
510,16.32,-1.6728,2.4124,0.1797,-0.0002,-0.0000,-2.2714,flat,18.0,2,9.612
520,16.64,-2.0418,1.9883,0.1797,-0.0001,-0.0000,-2.3023,flat,18.0,2,9.050
530,16.96,-2.4258,1.5665,0.1797,-0.0001,-0.0000,-2.3150,flat,18.0,2,8.480
540,17.28,-2.8152,1.1438,0.1797,0.0000,0.0000,-2.3137,flat,18.0,2,7.906
550,17.60,-3.2003,0.7212,0.1797,0.0000,0.0000,-2.3041,flat,18.0,2,7.334
560,17.92,-3.5794,0.2953,0.1797,0.0000,0.0000,-2.2911,flat,18.0,2,6.764
570,18.24,-3.9529,-0.1355,0.1797,0.0000,-0.0000,-2.2781,flat,18.0,2,6.195
580,18.56,-4.3216,-0.5714,0.1797,0.0000,-0.0000,-2.2672,flat,18.0,2,5.624
590,18.88,-4.6871,-1.0120,0.1797,0.0000,-0.0000,-2.2593,flat,18.0,2,5.051
600,19.20,-5.0507,-1.4560,0.1797,0.0000,-0.0000,-2.2547,flat,18.0,2,4.477
610,19.52,-5.4136,-1.9021,0.1797,0.0000,-0.0000,-2.2529,flat,18.0,2,3.902
620,19.84,-5.7766,-2.3491,0.1797,-0.0000,0.0000,-2.2532,flat,18.0,2,3.326
630,20.16,-6.1397,-2.7954,0.1797,-0.0000,0.0000,-2.2547,flat,18.0,2,2.751
640,20.48,-6.5035,-3.2408,0.1797,-0.0000,0.0000,-2.2567,flat,18.0,2,2.176
650,20.80,-6.8576,-3.6727,0.1797,-0.0000,0.0001,-2.2584,flat,18.0,2,1.618
660,21.12,-7.1694,-4.0518,0.1797,-0.0000,0.0000,-2.2603,flat,18.0,2,1.127
670,21.44,-7.5045,-4.4536,0.1797,-0.0001,-0.0001,-2.3008,flat,18.0,3,1.013
680,21.76,-7.8416,-4.8261,0.1798,0.0000,0.0001,-2.2998,flat,18.0,0,13.190
690,22.08,-8.1203,-5.1496,0.1797,0.0001,0.0002,-2.2424,rough,14.0,0,13.480
700,22.40,-8.3375,-5.4486,0.1797,0.0002,0.0000,-2.1491,transition,15.0,0,13.714
710,22.72,-8.5140,-5.7510,0.1797,0.0002,0.0000,-2.0226,flat,18.0,0,13.913
720,23.04,-8.6556,-6.0591,0.1798,0.0002,0.0001,-1.8478,flat,18.0,0,14.085
730,23.36,-8.7405,-6.3587,0.1798,0.0002,0.0000,-1.6369,flat,18.0,0,14.205
740,23.68,-8.7617,-6.6502,0.1798,0.0002,0.0000,-1.4163,flat,18.0,0,14.266
750,24.00,-8.7164,-6.9348,0.1798,0.0002,-0.0000,-1.2407,flat,18.0,0,14.267
760,24.32,-8.6127,-7.2194,0.1797,0.0002,-0.0000,-1.1028,flat,18.0,0,14.216
770,24.64,-8.4542,-7.5123,0.1797,0.0002,-0.0001,-0.9963,flat,18.0,0,14.119
780,24.96,-8.2407,-7.8222,0.1797,0.0002,-0.0001,-0.9175,flat,18.0,0,13.981
790,25.28,-7.9726,-8.1556,0.1797,0.0001,-0.0000,-0.8669,flat,18.0,0,13.804
800,25.60,-7.7104,-8.4496,0.1797,0.0001,0.0001,-0.8047,flat,18.0,0,13.634
810,25.92,-7.4707,-8.6816,0.1797,0.0001,0.0001,-0.7240,flat,18.0,0,13.474
820,26.24,-7.2500,-8.8617,0.1797,0.0001,0.0001,-0.6309,flat,18.0,0,13.322
830,26.56,-7.0438,-9.0022,0.1797,0.0001,0.0000,-0.5243,flat,18.0,0,13.174
840,26.88,-6.8495,-9.1099,0.1797,0.0001,0.0000,-0.4067,flat,18.0,0,13.029
850,27.20,-6.6650,-9.1900,0.1797,0.0001,0.0000,-0.2814,flat,18.0,0,12.886
860,27.52,-6.4891,-9.2458,0.1797,0.0001,0.0000,-0.1517,flat,18.0,0,12.742
870,27.84,-6.3200,-9.2796,0.1797,0.0001,0.0000,-0.0205,flat,18.0,0,12.598
880,28.16,-6.1558,-9.2911,0.1797,0.0001,0.0000,0.1017,flat,18.0,0,12.451
890,28.48,-5.9937,-9.2803,0.1797,0.0001,-0.0000,0.2030,flat,18.0,0,12.297
900,28.80,-5.8301,-9.2499,0.1797,0.0001,-0.0000,0.2880,flat,18.0,0,12.134
910,29.12,-5.6619,-9.2014,0.1797,0.0001,-0.0000,0.3599,flat,18.0,0,11.961
920,29.44,-5.4857,-9.1349,0.1797,0.0000,-0.0000,0.4212,flat,18.0,0,11.772
930,29.76,-5.2983,-9.0493,0.1797,0.0000,-0.0000,0.4734,flat,18.0,0,11.567
940,30.08,-5.0963,-8.9433,0.1797,0.0000,-0.0000,0.5180,flat,18.0,0,11.339
950,30.40,-4.8759,-8.8144,0.1797,0.0000,-0.0000,0.5558,flat,18.0,0,11.086
960,30.72,-4.6331,-8.6597,0.1797,0.0000,-0.0001,0.5876,flat,18.0,0,10.802
970,31.04,-4.3631,-8.4757,0.1797,0.0000,-0.0001,0.6138,flat,18.0,0,10.483
980,31.36,-4.0603,-8.2584,0.1797,0.0000,-0.0001,0.6344,flat,18.0,0,10.121
990,31.68,-3.7184,-8.0030,0.1797,0.0000,-0.0001,0.6494,flat,18.0,0,9.709
1000,32.00,-3.3294,-7.7049,0.1797,0.0000,-0.0001,0.6582,flat,18.0,0,9.240
1010,32.32,-2.8925,-7.3656,0.1797,0.0000,-0.0000,0.6721,flat,18.0,0,8.715
1020,32.64,-2.4510,-7.0084,0.1797,0.0000,0.0000,0.6776,flat,18.0,0,8.183
1030,32.96,-2.0136,-6.6697,0.1797,-0.0002,0.0000,0.6201,flat,18.0,0,7.666
1040,33.28,-1.5623,-6.3695,0.1798,-0.0003,0.0000,0.5150,flat,18.0,0,7.150
1050,33.60,-1.0827,-6.1203,0.1799,-0.0003,-0.0000,0.3903,flat,18.0,0,6.624
1060,33.92,-0.5714,-5.9278,0.1798,-0.0004,-0.0000,0.2759,flat,18.0,0,6.081
1070,34.24,-0.0331,-5.7876,0.1798,-0.0004,-0.0000,0.1952,flat,18.0,0,5.525
1080,34.56,0.5236,-5.6843,0.1797,-0.0002,-0.0000,0.1577,flat,18.0,0,4.960
1090,34.88,1.0907,-5.5959,0.1797,-0.0000,-0.0000,0.1521,flat,18.0,0,4.388
1100,35.20,1.6560,-5.5082,0.1797,0.0000,0.0000,0.1637,flat,18.0,0,3.819
1110,35.52,2.2176,-5.4132,0.1797,0.0001,0.0000,0.1821,flat,18.0,0,3.252
1120,35.84,2.7774,-5.3075,0.1797,0.0001,-0.0000,0.2002,flat,18.0,0,2.685
1130,36.16,3.3366,-5.1919,0.1797,0.0001,-0.0000,0.2141,flat,18.0,0,2.117
1140,36.48,3.8754,-5.0728,0.1797,0.0000,0.0001,0.2209,flat,18.0,0,1.570
1150,36.80,4.3448,-4.9656,0.1797,0.0000,0.0001,0.2338,flat,18.0,0,1.095
1160,37.12,4.8240,-4.8399,0.1799,-0.0001,0.0000,0.3710,flat,18.0,1,12.923
1170,37.44,5.2538,-4.6473,0.1799,-0.0000,0.0002,0.5814,rough,14.0,1,12.874
1180,37.76,5.5595,-4.3825,0.1799,-0.0002,-0.0000,0.9402,flat,18.0,1,12.730
1190,38.08,5.7817,-3.9978,0.1799,-0.0001,-0.0000,1.3769,flat,18.0,1,12.454
1200,38.40,5.8347,-3.5450,0.1799,0.0000,-0.0000,1.8236,flat,18.0,1,12.058
1210,38.72,5.6816,-3.0919,0.1799,0.0001,-0.0000,2.0889,flat,18.0,1,11.582
1220,39.04,5.3994,-2.6570,0.1799,0.0002,-0.0001,2.2305,flat,18.0,1,11.070
1230,39.36,5.0476,-2.2278,0.1798,0.0002,-0.0001,2.2800,flat,18.0,1,10.538
1240,39.68,4.6810,-1.7965,0.1797,-0.0001,0.0000,2.2593,flat,18.0,1,10.001
1250,40.00,4.3429,-1.3639,0.1798,-0.0003,0.0000,2.1880,flat,18.0,1,9.476
1260,40.32,4.0434,-0.9106,0.1798,-0.0004,-0.0000,2.0869,flat,18.0,1,8.947
1270,40.64,3.7892,-0.4276,0.1798,-0.0004,-0.0000,1.9820,flat,18.0,1,8.407
1280,40.96,3.5807,0.0848,0.1798,-0.0004,-0.0000,1.8959,flat,18.0,1,7.855
1290,41.28,3.4098,0.6204,0.1797,-0.0002,-0.0000,1.8426,flat,18.0,1,7.293
1300,41.60,3.2608,1.1703,0.1797,-0.0001,-0.0000,1.8228,flat,18.0,1,6.724
1310,41.92,3.1179,1.7269,0.1797,-0.0000,0.0000,1.8237,flat,18.0,1,6.152
1320,42.24,2.9735,2.2797,0.1797,0.0000,0.0000,1.8362,flat,18.0,1,5.583
1330,42.56,2.8217,2.8290,0.1797,0.0001,0.0000,1.8525,flat,18.0,1,5.016
1340,42.88,2.6609,3.3762,0.1797,0.0001,-0.0000,1.8675,flat,18.0,1,4.448
1350,43.20,2.4919,3.9223,0.1797,0.0000,-0.0000,1.8787,flat,18.0,1,3.878
1360,43.52,2.3169,4.4684,0.1797,0.0000,-0.0000,1.8854,flat,18.0,1,3.307
1370,43.84,2.1384,5.0148,0.1797,0.0000,-0.0000,1.8882,flat,18.0,1,2.735
1380,44.16,1.9587,5.5619,0.1797,0.0000,0.0000,1.8883,flat,18.0,1,2.163
1390,44.48,1.7847,6.0920,0.1797,-0.0000,0.0001,1.8869,flat,18.0,1,1.611
1400,44.80,1.6333,6.5556,0.1797,-0.0000,0.0001,1.8851,flat,18.0,1,1.135
1410,45.12,1.5073,6.9452,0.1797,0.0000,0.0001,1.9181,flat,18.0,2,15.134
1420,45.44,1.3929,7.2461,0.1798,-0.0001,0.0002,2.2075,flat,18.0,2,15.301
1430,45.76,1.2475,7.3717,0.1798,-0.0004,-0.0001,2.9386,flat,18.0,2,15.314
1440,46.08,0.9482,7.4133,0.1798,-0.0002,-0.0002,-2.7155,flat,18.0,2,15.171
1450,46.40,0.5806,7.1952,0.1785,0.0073,0.0003,-2.4412,flat,18.0,2,14.781
1460,46.72,0.2255,6.8512,0.1797,0.0009,-0.0000,-2.3013,flat,18.0,2,14.295
1470,47.04,-0.1113,6.4369,0.1798,0.0004,-0.0001,-2.1889,flat,18.0,2,13.763
1480,47.36,-0.4172,5.9781,0.1798,0.0003,-0.0000,-2.1136,flat,18.0,2,13.212
1490,47.68,-0.7016,5.4904,0.1797,0.0001,-0.0000,-2.0822,flat,18.0,2,12.649
1500,48.00,-0.9816,4.9897,0.1797,0.0000,0.0000,-2.0826,flat,18.0,2,12.078
1510,48.32,-1.2626,4.4964,0.1797,-0.0001,0.0000,-2.1016,flat,18.0,2,11.513
1520,48.64,-1.5529,4.0125,0.1797,-0.0001,0.0000,-2.1282,flat,18.0,2,10.950
1530,48.96,-1.8564,3.5368,0.1797,-0.0001,-0.0000,-2.1545,flat,18.0,2,10.386
1540,49.28,-2.1729,3.0671,0.1797,-0.0001,-0.0000,-2.1761,flat,18.0,2,9.820
1550,49.60,-2.4999,2.6012,0.1797,-0.0001,-0.0000,-2.1911,flat,18.0,2,9.251
1560,49.92,-2.8344,2.1369,0.1797,-0.0000,-0.0000,-2.1995,flat,18.0,2,8.679
1570,50.24,-3.1732,1.6728,0.1797,-0.0000,-0.0000,-2.2026,flat,18.0,2,8.104
1580,50.56,-3.5131,1.2083,0.1797,0.0000,0.0000,-2.2018,flat,18.0,2,7.529
1590,50.88,-3.8516,0.7439,0.1797,0.0000,0.0000,-2.1989,flat,18.0,2,6.954
1600,51.20,-4.1883,0.2786,0.1797,0.0000,0.0000,-2.1951,flat,18.0,2,6.380
1610,51.52,-4.5232,-0.1880,0.1797,0.0000,-0.0000,-2.1913,flat,18.0,2,5.805
1620,51.84,-4.8567,-0.6560,0.1797,0.0000,-0.0000,-2.1882,flat,18.0,2,5.231
1630,52.16,-5.1891,-1.1252,0.1797,0.0000,-0.0000,-2.1862,flat,18.0,2,4.656
1640,52.48,-5.5210,-1.5953,0.1797,0.0000,-0.0000,-2.1850,flat,18.0,2,4.080
1650,52.80,-5.8528,-2.0660,0.1797,0.0000,-0.0000,-2.1847,flat,18.0,2,3.504
1660,53.12,-6.1846,-2.5367,0.1797,-0.0000,0.0000,-2.1849,flat,18.0,2,2.928
1670,53.44,-6.5164,-3.0073,0.1797,-0.0000,0.0000,-2.1854,flat,18.0,2,2.353
1680,53.76,-6.8459,-3.4738,0.1797,-0.0000,0.0001,-2.1859,flat,18.0,2,1.782
1690,54.08,-7.1405,-3.8906,0.1797,-0.0000,0.0001,-2.1864,flat,18.0,2,1.271
1700,54.40,-7.4291,-4.2839,0.1798,-0.0002,0.0002,-2.2485,flat,18.0,3,1.161
1710,54.72,-7.7778,-4.6838,0.1798,-0.0001,0.0000,-2.2941,flat,18.0,0,13.124
1720,55.04,-8.0736,-5.0318,0.1797,0.0001,0.0000,-2.2451,flat,18.0,0,13.428
1730,55.36,-8.3090,-5.3498,0.1797,0.0002,0.0001,-2.1536,rough,14.0,0,13.679
1740,55.68,-8.4946,-5.6611,0.1797,0.0002,0.0000,-2.0310,flat,18.0,0,13.886
1750,56.00,-8.6400,-5.9715,0.1798,0.0002,0.0001,-1.8581,flat,18.0,0,14.060
1760,56.32,-8.7285,-6.2735,0.1798,0.0002,0.0000,-1.6510,flat,18.0,0,14.182
1770,56.64,-8.7539,-6.5674,0.1798,0.0002,0.0000,-1.4305,flat,18.0,0,14.246
1780,56.96,-8.7125,-6.8543,0.1798,0.0002,-0.0000,-1.2533,flat,18.0,0,14.250
1790,57.28,-8.6125,-7.1408,0.1797,0.0002,-0.0000,-1.1140,flat,18.0,0,14.201
1800,57.60,-8.4577,-7.4351,0.1797,0.0002,-0.0001,-1.0062,flat,18.0,0,14.107
1810,57.92,-8.2481,-7.7461,0.1797,0.0002,-0.0001,-0.9261,flat,18.0,0,13.970
1820,58.24,-7.9820,-8.0826,0.1797,0.0001,-0.0001,-0.8753,flat,18.0,0,13.795
1830,58.56,-7.7130,-8.3908,0.1797,0.0001,0.0001,-0.8184,flat,18.0,0,13.619
1840,58.88,-7.4684,-8.6352,0.1797,0.0001,0.0001,-0.7412,flat,18.0,0,13.458
1850,59.20,-7.2434,-8.8251,0.1797,0.0001,0.0001,-0.6504,flat,18.0,0,13.304
1860,59.52,-7.0339,-8.9734,0.1797,0.0001,0.0001,-0.5465,flat,18.0,0,13.155
1870,59.84,-6.8366,-9.0875,0.1797,0.0001,0.0000,-0.4308,flat,18.0,0,13.009
1880,60.16,-6.6496,-9.1730,0.1797,0.0001,0.0000,-0.3067,flat,18.0,0,12.865
1890,60.48,-6.4715,-9.2337,0.1797,0.0001,0.0000,-0.1774,flat,18.0,0,12.722
1900,60.80,-6.3005,-9.2718,0.1797,0.0001,0.0000,-0.0461,flat,18.0,0,12.577
1910,61.12,-6.1349,-9.2878,0.1797,0.0001,0.0000,0.0799,flat,18.0,0,12.430
1920,61.44,-5.9720,-9.2810,0.1797,0.0001,-0.0000,0.1851,flat,18.0,0,12.277
1930,61.76,-5.8083,-9.2541,0.1797,0.0001,-0.0000,0.2732,flat,18.0,0,12.116
1940,62.08,-5.6405,-9.2087,0.1797,0.0001,-0.0000,0.3476,flat,18.0,0,11.944
1950,62.40,-5.4653,-9.1452,0.1797,0.0001,-0.0000,0.4110,flat,18.0,0,11.758
1960,62.72,-5.2796,-9.0629,0.1797,0.0000,-0.0000,0.4649,flat,18.0,0,11.555
1970,63.04,-5.0798,-8.9602,0.1797,0.0000,-0.0000,0.5110,flat,18.0,0,11.331
1980,63.36,-4.8623,-8.8350,0.1797,0.0000,-0.0000,0.5501,flat,18.0,0,11.082
1990,63.68,-4.6231,-8.6845,0.1797,0.0000,-0.0001,0.5831,flat,18.0,0,10.803
2000,64.00,-4.3575,-8.5051,0.1797,0.0000,-0.0001,0.6103,flat,18.0,0,10.489
2010,64.32,-4.0600,-8.2929,0.1797,0.0000,-0.0001,0.6320,flat,18.0,0,10.133
2020,64.64,-3.7244,-8.0434,0.1797,0.0000,-0.0001,0.6480,flat,18.0,0,9.729
2030,64.96,-3.3431,-7.7517,0.1797,0.0000,-0.0001,0.6578,flat,18.0,0,9.269
2040,65.28,-2.9127,-7.4180,0.1797,0.0000,0.0000,0.6531,flat,18.0,0,8.751
2050,65.60,-2.4848,-7.1262,0.1799,-0.0001,0.0000,0.4851,flat,18.0,0,8.252
2060,65.92,-2.0027,-6.9000,0.1799,-0.0001,-0.0000,0.3275,flat,18.0,0,7.723
2070,66.24,-1.4761,-6.7377,0.1798,-0.0004,-0.0000,0.2276,flat,18.0,0,7.172
2080,66.56,-0.9220,-6.6169,0.1797,-0.0001,-0.0000,0.1933,flat,18.0,0,6.608
2090,66.88,-0.3605,-6.5067,0.1797,0.0000,0.0000,0.2030,flat,18.0,0,6.041
2100,67.20,0.1923,-6.3893,0.1797,0.0001,0.0000,0.2334,flat,18.0,0,5.481
2110,67.52,0.7388,-6.2543,0.1797,0.0001,-0.0000,0.2687,flat,18.0,0,4.921
2120,67.84,1.2817,-6.0999,0.1797,0.0001,-0.0000,0.2993,flat,18.0,0,4.359
2130,68.16,1.8229,-5.9290,0.1797,0.0001,-0.0000,0.3211,flat,18.0,0,3.793
2140,68.48,2.3641,-5.7464,0.1797,0.0000,-0.0000,0.3336,flat,18.0,0,3.223
2150,68.80,2.9062,-5.5574,0.1797,0.0000,-0.0000,0.3383,flat,18.0,0,2.650
2160,69.12,3.4492,-5.3664,0.1797,0.0000,0.0000,0.3377,flat,18.0,0,2.076
2170,69.44,3.9666,-5.1852,0.1797,-0.0000,0.0001,0.3344,flat,18.0,0,1.530
2180,69.76,4.4192,-5.0281,0.1797,-0.0000,0.0000,0.3443,flat,18.0,0,1.056
2190,70.08,4.8898,-4.8515,0.1798,0.0001,0.0001,0.4598,flat,18.0,1,12.953
2200,70.40,5.2707,-4.6234,0.1799,-0.0001,0.0002,0.7369,rough,14.0,1,12.857
2210,70.72,5.5380,-4.3016,0.1799,-0.0001,-0.0000,1.1250,flat,18.0,1,12.646
2220,71.04,5.7004,-3.8775,0.1799,-0.0000,-0.0000,1.5913,flat,18.0,1,12.312
2230,71.36,5.6550,-3.4149,0.1799,0.0000,-0.0000,1.9494,flat,18.0,1,11.868
2240,71.68,5.4399,-2.9610,0.1799,0.0001,-0.0000,2.1401,flat,18.0,1,11.366
2250,72.00,5.1306,-2.5152,0.1798,0.0003,-0.0001,2.2220,flat,18.0,1,10.836
2260,72.32,4.7831,-2.0647,0.1797,0.0000,0.0000,2.2235,flat,18.0,1,10.288
2270,72.64,4.4530,-1.6174,0.1797,-0.0001,0.0000,2.1725,flat,18.0,1,9.752
2280,72.96,4.1549,-1.1568,0.1798,-0.0004,0.0000,2.0870,flat,18.0,1,9.217
2290,73.28,3.8978,-0.6720,0.1798,-0.0004,-0.0000,1.9928,flat,18.0,1,8.674
2300,73.60,3.6826,-0.1613,0.1798,-0.0004,-0.0000,1.9115,flat,18.0,1,8.120
2310,73.92,3.5035,0.3713,0.1797,-0.0002,-0.0000,1.8573,flat,18.0,1,7.559
2320,74.24,3.3471,0.9181,0.1797,-0.0001,-0.0000,1.8339,flat,18.0,1,6.991
2330,74.56,3.1989,1.4731,0.1797,-0.0000,-0.0000,1.8304,flat,18.0,1,6.418
2340,74.88,3.0509,2.0265,0.1797,0.0000,0.0000,1.8388,flat,18.0,1,5.848
2350,75.20,2.8979,2.5765,0.1797,0.0000,0.0000,1.8524,flat,18.0,1,5.279
2360,75.52,2.7372,3.1243,0.1797,0.0000,-0.0000,1.8659,flat,18.0,1,4.710
2370,75.84,2.5691,3.6710,0.1797,0.0000,-0.0000,1.8765,flat,18.0,1,4.140
2380,76.16,2.3954,4.2173,0.1797,0.0000,-0.0000,1.8834,flat,18.0,1,3.569
2390,76.48,2.2179,4.7640,0.1797,0.0000,-0.0000,1.8867,flat,18.0,1,2.996
2400,76.80,2.0389,5.3112,0.1797,0.0000,-0.0000,1.8873,flat,18.0,1,2.424
2410,77.12,1.8604,5.8566,0.1797,-0.0000,0.0000,1.8864,flat,18.0,1,1.855
2420,77.44,1.6991,6.3515,0.1797,-0.0000,0.0001,1.8849,flat,18.0,1,1.343
2430,77.76,1.5612,6.7770,0.1797,-0.0000,0.0002,1.8851,flat,18.0,2,15.036
2440,78.08,1.4473,7.1217,0.1798,-0.0000,0.0002,2.0366,flat,18.0,2,15.236
2450,78.40,1.3248,7.3114,0.1798,-0.0002,0.0001,2.6166,flat,18.0,2,15.312
2460,78.72,1.1048,7.4050,0.1798,-0.0004,-0.0002,-2.9956,flat,18.0,2,15.256
2470,79.04,0.7106,7.2887,0.1749,0.0047,0.0280,-2.5633,flat,18.0,2,14.932
2480,79.36,0.3556,6.9977,0.1798,-0.0001,0.0010,-2.3036,flat,18.0,2,14.490
2490,79.68,0.0581,6.6034,0.1799,0.0000,-0.0000,-2.0725,flat,18.0,2,13.996
2500,80.00,-0.1656,6.1334,0.1799,0.0001,-0.0000,-1.8761,flat,18.0,2,13.483
2510,80.32,-0.3122,5.6057,0.1798,0.0003,-0.0001,-1.7615,flat,18.0,2,12.968
2520,80.64,-0.4163,5.0466,0.1798,0.0000,0.0000,-1.7596,flat,18.0,2,12.456
2530,80.96,-0.5262,4.5071,0.1798,-0.0003,0.0000,-1.8406,flat,18.0,2,11.960
2540,81.28,-0.6826,3.9955,0.1799,-0.0003,0.0000,-1.9624,flat,18.0,2,11.463
2550,81.60,-0.9023,3.5119,0.1799,-0.0004,-0.0000,-2.0828,flat,18.0,2,10.949
2560,81.92,-1.1817,3.0531,0.1798,-0.0004,-0.0000,-2.1805,flat,18.0,2,10.418
2570,82.24,-1.5077,2.6131,0.1798,-0.0003,-0.0000,-2.2486,flat,18.0,2,9.872
2580,82.56,-1.8661,2.1859,0.1797,-0.0002,-0.0000,-2.2909,flat,18.0,2,9.314
2590,82.88,-2.2444,1.7638,0.1797,-0.0001,-0.0000,-2.3116,flat,18.0,2,8.747
2600,83.20,-2.6330,1.3415,0.1797,-0.0000,-0.0000,-2.3160,flat,18.0,2,8.174
2610,83.52,-3.0207,0.9194,0.1797,0.0000,0.0000,-2.3095,flat,18.0,2,7.602
2620,83.84,-3.4027,0.4954,0.1797,0.0000,0.0000,-2.2975,flat,18.0,2,7.031
2630,84.16,-3.7787,0.0671,0.1797,0.0000,0.0000,-2.2840,flat,18.0,2,6.462
2640,84.48,-4.1495,-0.3665,0.1797,0.0000,-0.0000,-2.2719,flat,18.0,2,5.891
2650,84.80,-4.5163,-0.8050,0.1797,0.0000,-0.0000,-2.2625,flat,18.0,2,5.320
2660,85.12,-4.8805,-1.2475,0.1797,0.0000,-0.0000,-2.2564,flat,18.0,2,4.746
2670,85.44,-5.2436,-1.6929,0.1797,0.0000,-0.0000,-2.2534,flat,18.0,2,4.172
2680,85.76,-5.6066,-2.1397,0.1797,0.0000,-0.0000,-2.2528,flat,18.0,2,3.596
2690,86.08,-5.9695,-2.5864,0.1797,-0.0000,0.0000,-2.2538,flat,18.0,2,3.021
2700,86.40,-6.3329,-3.0322,0.1797,-0.0000,0.0000,-2.2557,flat,18.0,2,2.445
2710,86.72,-6.6963,-3.4763,0.1797,-0.0000,0.0000,-2.2577,flat,18.0,2,1.872
2720,87.04,-7.0277,-3.8797,0.1797,-0.0000,0.0001,-2.2594,flat,18.0,2,1.350
2730,87.36,-7.3526,-4.2624,0.1798,-0.0002,0.0001,-2.2968,flat,18.0,3,1.237
2740,87.68,-7.7140,-4.6457,0.1798,-0.0002,-0.0000,-2.3382,rough,14.0,0,13.059
2750,88.00,-8.0358,-4.9878,0.1797,0.0001,0.0001,-2.2991,rough,14.0,0,13.389
2760,88.32,-8.2876,-5.2887,0.1797,0.0002,0.0000,-2.2180,transition,15.0,0,13.654
2770,88.64,-8.4710,-5.5534,0.1797,0.0002,-0.0000,-2.0942,flat,18.0,0,13.854
2780,88.96,-8.6299,-5.8597,0.1797,0.0002,0.0000,-1.9431,flat,18.0,0,14.039
2790,89.28,-8.7419,-6.1550,0.1798,0.0002,0.0001,-1.7428,flat,18.0,0,14.181
2800,89.60,-8.7949,-6.4428,0.1798,0.0001,0.0000,-1.5121,flat,18.0,0,14.270
2810,89.92,-8.7800,-6.7220,0.1798,0.0002,-0.0000,-1.3118,flat,18.0,0,14.295
