step,time_s,x,y,z,roll,pitch,yaw,terrain,speed,target_idx,dist_to_target
10,0.32,0.1047,-0.0580,0.1846,-0.0000,-0.0337,-0.0000,rough,14.0,0,5.317
20,0.64,0.5509,-0.0704,0.1794,-0.0001,0.0022,-0.1143,flat,18.0,0,4.970
30,0.96,1.0813,-0.1516,0.1799,-0.0001,-0.0000,-0.2862,flat,18.0,0,4.532
40,1.28,1.5962,-0.3229,0.1799,-0.0002,-0.0000,-0.4178,flat,18.0,0,4.058
50,1.60,2.0885,-0.5608,0.1798,-0.0004,-0.0000,-0.5232,flat,18.0,0,3.564
60,1.92,2.5576,-0.8509,0.1798,-0.0004,-0.0000,-0.6069,flat,18.0,0,3.057
70,2.24,3.0042,-1.1792,0.1798,-0.0003,-0.0000,-0.6794,flat,18.0,0,2.545
80,2.56,3.4213,-1.5395,0.1798,-0.0003,0.0000,-0.7607,flat,18.0,0,2.036
90,2.88,3.8017,-1.9327,0.1798,-0.0004,0.0000,-0.8583,flat,18.0,0,1.536
100,3.20,4.1369,-2.3599,0.1799,-0.0002,0.0000,-0.9938,flat,18.0,0,1.051
110,3.52,4.3873,-2.7963,0.1799,0.0000,0.0000,-1.2498,flat,18.0,1,7.542
120,3.84,4.5115,-3.2538,0.1799,-0.0001,0.0000,-1.5328,flat,18.0,1,7.300
130,4.16,4.5158,-3.6882,0.1798,-0.0001,-0.0002,-1.6623,flat,18.0,1,7.006
140,4.48,4.4494,-4.1878,0.1799,-0.0002,-0.0000,-1.8579,flat,18.0,1,6.632
150,4.80,4.2774,-4.6904,0.1799,-0.0001,-0.0000,-2.0192,flat,18.0,1,6.189
160,5.12,4.0233,-5.1687,0.1799,-0.0003,-0.0000,-2.1402,flat,18.0,1,5.706
170,5.44,3.7108,-5.6213,0.1798,-0.0004,-0.0000,-2.2277,flat,18.0,1,5.198
180,5.76,3.3596,-6.0500,0.1798,-0.0003,-0.0000,-2.2995,flat,18.0,1,4.678
190,6.08,2.9776,-6.4523,0.1797,-0.0002,-0.0000,-2.3688,flat,18.0,1,4.150
200,6.40,2.5677,-6.8291,0.1797,-0.0002,-0.0000,-2.4358,flat,18.0,1,3.616
210,6.72,2.1326,-7.1804,0.1797,-0.0002,-0.0000,-2.5023,flat,18.0,1,3.077
220,7.04,1.6746,-7.5037,0.1797,-0.0002,-0.0000,-2.5701,flat,18.0,1,2.533
230,7.36,1.1956,-7.7962,0.1797,-0.0003,-0.0000,-2.6422,flat,18.0,1,1.987
240,7.68,0.6975,-8.0531,0.1798,-0.0004,0.0000,-2.7250,flat,18.0,1,1.441
250,8.00,0.1826,-8.2659,0.1798,-0.0004,0.0000,-2.8350,flat,18.0,1,0.899
260,8.32,-0.2873,-8.3908,0.1799,0.0001,0.0000,-3.0947,flat,18.0,2,5.366
270,8.64,-0.7562,-8.3874,0.1799,-0.0002,0.0000,2.8954,flat,18.0,2,5.117
280,8.96,-1.1829,-8.2612,0.1798,-0.0002,-0.0001,2.7567,flat,18.0,2,4.806
290,9.28,-1.6397,-8.0420,0.1799,-0.0001,0.0000,2.5644,flat,18.0,2,4.421
300,9.60,-2.0637,-7.7263,0.1799,-0.0001,-0.0000,2.4097,flat,18.0,2,3.980
310,9.92,-2.4441,-7.3447,0.1799,-0.0003,-0.0000,2.2858,flat,18.0,2,3.509
320,10.24,-2.7823,-6.9158,0.1799,-0.0003,-0.0000,2.1656,flat,18.0,2,3.020
330,10.56,-3.0733,-6.4472,0.1799,-0.0003,-0.0000,2.0474,flat,18.0,2,2.519
340,10.88,-3.3112,-5.9464,0.1799,-0.0003,-0.0000,1.9278,flat,18.0,2,2.009
350,11.20,-3.4900,-5.4210,0.1799,-0.0003,-0.0000,1.8000,flat,18.0,2,1.498
360,11.52,-3.6007,-4.8798,0.1799,-0.0001,0.0000,1.6494,flat,18.0,2,0.995
370,11.84,-3.6191,-4.3298,0.1799,-0.0002,-0.0001,1.5342,flat,18.0,3,10.706
380,12.16,-3.5928,-3.7844,0.1798,-0.0002,0.0004,1.4916,rough,14.0,3,10.172
390,12.48,-3.5460,-3.2521,0.1797,-0.0001,-0.0001,1.4590,flat,18.0,3,9.646
400,12.80,-3.4779,-2.6886,0.1797,-0.0001,-0.0000,1.4229,flat,18.0,3,9.086
410,13.12,-3.3903,-2.1268,0.1797,-0.0001,-0.0000,1.3933,flat,18.0,3,8.522
420,13.44,-3.2863,-1.5669,0.1797,-0.0001,-0.0000,1.3683,flat,18.0,3,7.956
430,13.76,-3.1686,-1.0089,0.1797,-0.0001,-0.0000,1.3468,flat,18.0,3,7.388
440,14.08,-3.0391,-0.4528,0.1797,-0.0001,-0.0000,1.3281,flat,18.0,3,6.819
450,14.40,-2.8994,0.1014,0.1797,-0.0001,-0.0000,1.3116,flat,18.0,3,6.249
460,14.72,-2.7506,0.6536,0.1797,-0.0001,-0.0000,1.2968,flat,18.0,3,5.677
470,15.04,-2.5938,1.2039,0.1797,-0.0000,-0.0000,1.2835,flat,18.0,3,5.106
480,15.36,-2.4298,1.7525,0.1797,-0.0000,-0.0000,1.2713,flat,18.0,3,4.534
490,15.68,-2.2591,2.2991,0.1797,-0.0000,-0.0000,1.2598,flat,18.0,3,3.961
500,16.00,-2.0821,2.8440,0.1797,-0.0000,-0.0000,1.2489,flat,18.0,3,3.389
510,16.32,-1.8992,3.3869,0.1797,-0.0000,-0.0000,1.2382,flat,18.0,3,2.816
520,16.64,-1.7106,3.9277,0.1797,-0.0000,0.0000,1.2273,flat,18.0,3,2.243
530,16.96,-1.5160,4.4662,0.1797,-0.0000,0.0000,1.2156,flat,18.0,3,1.670
540,17.28,-1.3151,5.0016,0.1797,-0.0000,0.0000,1.2017,flat,18.0,3,1.099
550,17.60,-1.1303,5.4975,0.1798,0.0000,0.0004,1.0711,flat,18.0,0,10.395
560,17.92,-0.9321,5.7701,0.1798,0.0003,0.0000,0.6813,flat,18.0,0,10.531
570,18.24,-0.6409,5.9610,0.1799,0.0001,-0.0001,0.3003,flat,18.0,0,10.560
580,18.56,-0.2405,6.0623,0.1799,-0.0000,-0.0001,-0.0528,flat,18.0,0,10.473
590,18.88,0.2196,6.0140,0.1799,-0.0001,-0.0000,-0.3230,flat,18.0,0,10.240
600,19.20,0.6830,5.8289,0.1799,-0.0001,-0.0000,-0.5240,flat,18.0,0,9.895
610,19.52,1.1222,5.5403,0.1799,-0.0001,-0.0000,-0.6774,flat,18.0,0,9.473
620,19.84,1.5279,5.1802,0.1798,-0.0003,-0.0000,-0.7870,flat,18.0,0,9.003
630,20.16,1.8989,4.7754,0.1798,-0.0004,-0.0000,-0.8809,flat,18.0,0,8.509
640,20.48,2.2385,4.3351,0.1798,-0.0004,-0.0000,-0.9632,flat,18.0,0,7.995
650,20.80,2.5464,3.8668,0.1798,-0.0003,-0.0000,-1.0352,flat,18.0,0,7.467
660,21.12,2.8240,3.3763,0.1797,-0.0002,-0.0000,-1.0982,flat,18.0,0,6.928
670,21.44,3.0724,2.8683,0.1797,-0.0002,-0.0000,-1.1536,flat,18.0,0,6.382
680,21.76,3.2942,2.3465,0.1797,-0.0002,-0.0000,-1.2026,flat,18.0,0,5.829
690,22.08,3.4919,1.8152,0.1797,-0.0001,-0.0000,-1.2439,flat,18.0,0,5.274
700,22.40,3.6686,1.2757,0.1797,-0.0001,-0.0000,-1.2818,flat,18.0,0,4.716
710,22.72,3.8256,0.7294,0.1797,-0.0001,-0.0000,-1.3171,flat,18.0,0,4.156
720,23.04,3.9638,0.1775,0.1797,-0.0001,-0.0000,-1.3507,flat,18.0,0,3.594
730,23.36,4.0838,-0.3788,0.1797,-0.0001,-0.0000,-1.3836,flat,18.0,0,3.032
740,23.68,4.1855,-0.9386,0.1797,-0.0001,-0.0000,-1.4172,flat,18.0,0,2.468
750,24.00,4.2683,-1.5010,0.1797,-0.0001,0.0000,-1.4536,flat,18.0,0,1.906
760,24.32,4.3302,-2.0648,0.1797,-0.0002,0.0000,-1.4983,flat,18.0,0,1.345
770,24.64,4.3655,-2.6275,0.1798,-0.0003,0.0000,-1.5717,flat,18.0,1,0.790
780,24.96,4.3508,-3.1636,0.1799,-0.0001,-0.0000,-1.7490,flat,18.0,1,7.250
790,25.28,4.2360,-3.6859,0.1799,-0.0001,-0.0000,-1.9120,flat,18.0,1,6.802
800,25.60,4.0544,-4.1587,0.1798,-0.0002,-0.0001,-2.0061,flat,18.0,1,6.349
810,25.92,3.8076,-4.6482,0.1798,-0.0004,-0.0000,-2.1056,flat,18.0,1,5.844
820,26.24,3.5120,-5.1167,0.1798,-0.0003,-0.0000,-2.1810,flat,18.0,1,5.321
830,26.56,3.1818,-5.5664,0.1797,-0.0002,-0.0000,-2.2412,flat,18.0,1,4.788
840,26.88,2.8245,-5.9955,0.1797,-0.0002,-0.0000,-2.2994,flat,18.0,1,4.250
850,27.20,2.4421,-6.4031,0.1797,-0.0002,-0.0000,-2.3551,flat,18.0,1,3.708
860,27.52,2.0371,-6.7895,0.1797,-0.0002,-0.0000,-2.4084,flat,18.0,1,3.163
870,27.84,1.6117,-7.1538,0.1797,-0.0002,-0.0000,-2.4632,flat,18.0,1,2.615
880,28.16,1.1666,-7.4948,0.1797,-0.0002,-0.0000,-2.5220,flat,18.0,1,2.065
890,28.48,0.7024,-7.8099,0.1797,-0.0002,0.0000,-2.5900,flat,18.0,1,1.515
900,28.80,0.2197,-8.0901,0.1798,-0.0004,0.0000,-2.6801,flat,18.0,1,0.968
910,29.12,-0.2296,-8.2885,0.1798,0.0002,0.0001,-2.9106,flat,18.0,2,5.315
920,29.44,-0.6665,-8.3665,0.1799,-0.0001,-0.0000,3.0346,flat,18.0,2,5.143
930,29.76,-1.1183,-8.2945,0.1799,-0.0001,0.0002,2.8170,rough,14.0,2,4.865
940,30.08,-1.5697,-8.1148,0.1799,0.0000,-0.0000,2.6236,flat,18.0,2,4.515
950,30.40,-2.0049,-7.8283,0.1799,-0.0000,-0.0000,2.4505,flat,18.0,2,4.095
960,30.72,-2.3965,-7.4632,0.1799,-0.0002,-0.0000,2.3176,flat,18.0,2,3.635
970,31.04,-2.7446,-7.0461,0.1799,-0.0003,-0.0000,2.1926,flat,18.0,2,3.155
980,31.36,-3.0459,-6.5860,0.1799,-0.0003,-0.0000,2.0706,flat,18.0,2,2.659
990,31.68,-3.2940,-6.0912,0.1799,-0.0003,-0.0000,1.9487,flat,18.0,2,2.154
1000,32.00,-3.4832,-5.5696,0.1799,-0.0003,-0.0000,1.8212,flat,18.0,2,1.645
1010,32.32,-3.6054,-5.0301,0.1799,-0.0001,0.0000,1.6766,flat,18.0,2,1.140
1020,32.64,-3.6400,-4.4835,0.1799,-0.0003,-0.0001,1.5418,flat,18.0,3,10.860
1030,32.96,-3.6156,-3.9182,0.1798,-0.0002,-0.0000,1.4895,flat,18.0,3,10.307
1040,33.28,-3.5645,-3.3538,0.1797,-0.0001,-0.0000,1.4490,flat,18.0,3,9.749
1050,33.60,-3.4912,-2.7906,0.1797,-0.0001,-0.0000,1.4160,flat,18.0,3,9.187
1060,33.92,-3.3998,-2.2290,0.1797,-0.0001,-0.0000,1.3884,flat,18.0,3,8.623
1070,34.24,-3.2932,-1.6691,0.1797,-0.0001,-0.0000,1.3650,flat,18.0,3,8.056
1080,34.56,-3.1738,-1.1111,0.1797,-0.0001,-0.0000,1.3449,flat,18.0,3,7.487
1090,34.88,-3.0433,-0.5550,0.1797,-0.0001,-0.0000,1.3273,flat,18.0,3,6.917
1100,35.20,-2.9033,-0.0006,0.1797,-0.0001,-0.0000,1.3118,flat,18.0,3,6.347
1110,35.52,-2.7547,0.5519,0.1797,-0.0000,-0.0000,1.2980,flat,18.0,3,5.775
1120,35.84,-2.5986,1.1027,0.1797,-0.0000,-0.0000,1.2855,flat,18.0,3,5.203
1130,36.16,-2.4357,1.6518,0.1797,-0.0000,-0.0000,1.2740,flat,18.0,3,4.631
1140,36.48,-2.2665,2.1992,0.1797,-0.0000,-0.0000,1.2633,flat,18.0,3,4.058
1150,36.80,-2.0915,2.7449,0.1797,-0.0000,-0.0000,1.2531,flat,18.0,3,3.485
1160,37.12,-1.9110,3.2888,0.1797,-0.0000,-0.0000,1.2431,flat,18.0,3,2.912
1170,37.44,-1.7250,3.8308,0.1797,-0.0000,0.0000,1.2330,flat,18.0,3,2.339
1180,37.76,-1.5336,4.3708,0.1797,-0.0000,0.0000,1.2223,flat,18.0,3,1.766
1190,38.08,-1.3363,4.9080,0.1797,-0.0000,0.0000,1.2099,flat,18.0,3,1.194
1200,38.40,-1.1487,5.4203,0.1797,0.0000,0.0004,1.1155,flat,18.0,0,10.339
1210,38.72,-0.9631,5.7122,0.1798,0.0003,0.0000,0.7294,flat,18.0,0,10.496
1220,39.04,-0.6838,5.9102,0.1798,0.0002,-0.0001,0.3465,flat,18.0,0,10.535
1230,39.36,-0.3538,6.0170,0.1799,-0.0000,-0.0001,0.0651,flat,18.0,0,10.481
1240,39.68,0.0922,6.0230,0.1799,-0.0001,-0.0000,-0.2398,flat,18.0,0,10.299
1250,40.00,0.5582,5.8815,0.1799,-0.0001,-0.0000,-0.4615,flat,18.0,0,9.989
1260,40.32,1.0070,5.6248,0.1799,-0.0001,-0.0000,-0.6300,flat,18.0,0,9.591
1270,40.64,1.4243,5.2849,0.1799,-0.0003,-0.0000,-0.7530,flat,18.0,0,9.134
1280,40.96,1.8059,4.8936,0.1798,-0.0004,-0.0000,-0.8517,flat,18.0,0,8.648
1290,41.28,2.1556,4.4641,0.1798,-0.0004,-0.0000,-0.9382,flat,18.0,0,8.141
1300,41.60,2.4734,4.0040,0.1798,-0.0003,-0.0000,-1.0139,flat,18.0,0,7.617
1310,41.92,2.7600,3.5199,0.1797,-0.0002,-0.0000,-1.0801,flat,18.0,0,7.082
1320,42.24,3.0171,3.0167,0.1797,-0.0002,-0.0000,-1.1382,flat,18.0,0,6.538
1330,42.56,3.2462,2.4986,0.1797,-0.0002,-0.0000,-1.1895,flat,18.0,0,5.987
1340,42.88,3.4501,1.9695,0.1797,-0.0002,-0.0000,-1.2336,flat,18.0,0,5.433
1350,43.20,3.6320,1.4321,0.1797,-0.0001,-0.0000,-1.2726,flat,18.0,0,4.876
1360,43.52,3.7937,0.8874,0.1797,-0.0001,-0.0000,-1.3089,flat,18.0,0,4.317
1370,43.84,3.9363,0.3369,0.1797,-0.0001,-0.0000,-1.3432,flat,18.0,0,3.755
1380,44.16,4.0603,-0.2185,0.1797,-0.0001,-0.0000,-1.3764,flat,18.0,0,3.193
1390,44.48,4.1661,-0.7776,0.1797,-0.0001,-0.0000,-1.4099,flat,18.0,0,2.630
1400,44.80,4.2530,-1.3396,0.1797,-0.0001,0.0000,-1.4454,flat,18.0,0,2.067
1410,45.12,4.3196,-1.9032,0.1797,-0.0001,0.0000,-1.4868,flat,18.0,0,1.506
1420,45.44,4.3618,-2.4668,0.1797,-0.0002,0.0000,-1.5481,flat,18.0,0,0.948
1430,45.76,4.3654,-3.0140,0.1799,-0.0000,0.0001,-1.6960,flat,18.0,1,7.368
1440,46.08,4.2787,-3.5375,0.1799,-0.0001,-0.0000,-1.8720,flat,18.0,1,6.935
1450,46.40,4.1140,-4.0149,0.1798,-0.0001,-0.0002,-1.9732,flat,18.0,1,6.489
1460,46.72,3.8835,-4.5106,0.1798,-0.0004,-0.0000,-2.0800,flat,18.0,1,5.990
1470,47.04,3.6003,-4.9846,0.1798,-0.0004,-0.0000,-2.1622,flat,18.0,1,5.472
1480,47.36,3.2785,-5.4398,0.1797,-0.0002,-0.0000,-2.2245,flat,18.0,1,4.941
1490,47.68,2.9287,-5.8749,0.1797,-0.0002,-0.0000,-2.2830,flat,18.0,1,4.404
1500,48.00,2.5532,-6.2885,0.1797,-0.0002,-0.0000,-2.3397,flat,18.0,1,3.863
1510,48.32,2.1543,-6.6811,0.1797,-0.0002,-0.0000,-2.3931,flat,18.0,1,3.318
1520,48.64,1.7346,-7.0517,0.1797,-0.0002,-0.0000,-2.4472,flat,18.0,1,2.771
1530,48.96,1.2950,-7.3997,0.1797,-0.0002,-0.0000,-2.5045,flat,18.0,1,2.222
1540,49.28,0.8363,-7.7228,0.1797,-0.0002,-0.0000,-2.5690,flat,18.0,1,1.672
1550,49.60,0.3588,-8.0142,0.1798,-0.0003,0.0000,-2.6504,flat,18.0,1,1.123
1560,49.92,-0.1072,-8.2388,0.1798,0.0000,0.0002,-2.8282,flat,18.0,2,5.346
1570,50.24,-0.5297,-8.3492,0.1799,-0.0001,-0.0000,3.1120,flat,18.0,2,5.200
1580,50.56,-0.9949,-8.3106,0.1799,-0.0001,0.0004,2.8502,rough,14.0,2,4.935
1590,50.88,-1.4281,-8.1638,0.1799,0.0000,-0.0000,2.6861,flat,18.0,2,4.615
1600,51.20,-1.8752,-7.9086,0.1799,-0.0001,-0.0000,2.4999,flat,18.0,2,4.213
1610,51.52,-2.2807,-7.5642,0.1799,-0.0002,-0.0000,2.3570,flat,18.0,2,3.762
1620,51.84,-2.6420,-7.1619,0.1799,-0.0003,-0.0000,2.2311,flat,18.0,2,3.287
1630,52.16,-2.9586,-6.7143,0.1799,-0.0003,-0.0000,2.1084,flat,18.0,2,2.796
1640,52.48,-3.2239,-6.2294,0.1799,-0.0003,-0.0000,1.9867,flat,18.0,2,2.293
1650,52.80,-3.4319,-5.7153,0.1799,-0.0003,-0.0000,1.8613,flat,18.0,2,1.785
1660,53.12,-3.5756,-5.1803,0.1799,-0.0002,-0.0000,1.7230,flat,18.0,2,1.278
1670,53.44,-3.6434,-4.6358,0.1799,-0.0001,0.0000,1.5501,flat,18.0,3,0.787
1680,53.76,-3.6239,-4.0755,0.1798,-0.0002,-0.0000,1.5036,flat,18.0,3,10.462
1690,54.08,-3.5802,-3.5105,0.1797,-0.0002,-0.0000,1.4594,flat,18.0,3,9.905
1700,54.40,-3.5126,-2.9469,0.1797,-0.0001,-0.0000,1.4246,flat,18.0,3,9.344
1710,54.72,-3.4260,-2.3849,0.1797,-0.0001,-0.0000,1.3957,flat,18.0,3,8.779
1720,55.04,-3.3234,-1.8245,0.1797,-0.0001,-0.0000,1.3712,flat,18.0,3,8.213
1730,55.36,-3.2074,-1.2659,0.1797,-0.0001,-0.0000,1.3503,flat,18.0,3,7.645
1740,55.68,-3.0799,-0.7092,0.1797,-0.0001,-0.0000,1.3321,flat,18.0,3,7.076
1750,56.00,-2.9424,-0.1544,0.1797,-0.0001,-0.0000,1.3160,flat,18.0,3,6.505
1760,56.32,-2.7961,0.3987,0.1797,-0.0001,-0.0000,1.3018,flat,18.0,3,5.934
1770,56.64,-2.6421,0.9500,0.1797,-0.0000,-0.0000,1.2889,flat,18.0,3,5.362
1780,56.96,-2.4811,1.4995,0.1797,-0.0000,-0.0000,1.2772,flat,18.0,3,4.790
1790,57.28,-2.3136,2.0474,0.1797,-0.0000,-0.0000,1.2663,flat,18.0,3,4.217
1800,57.60,-2.1402,2.5936,0.1797,-0.0000,-0.0000,1.2560,flat,18.0,3,3.644
1810,57.92,-1.9613,3.1380,0.1797,-0.0000,-0.0000,1.2460,flat,18.0,3,3.071
1820,58.24,-1.7768,3.6806,0.1797,-0.0000,0.0000,1.2360,flat,18.0,3,2.498
1830,58.56,-1.5870,4.2212,0.1797,-0.0000,0.0000,1.2255,flat,18.0,3,1.925
1840,58.88,-1.3915,4.7593,0.1797,-0.0000,0.0000,1.2137,flat,18.0,3,1.353
1850,59.20,-1.1895,5.2939,0.1797,-0.0001,0.0000,1.1985,flat,18.0,0,0.782
1860,59.52,-1.0245,5.6538,0.1798,0.0003,0.0001,0.8464,flat,18.0,0,10.476
1870,59.84,-0.7729,5.8684,0.1798,0.0002,-0.0000,0.4588,flat,18.0,0,10.540
1880,60.16,-0.4171,6.0167,0.1799,0.0000,-0.0001,0.0910,flat,18.0,0,10.509
1890,60.48,0.0263,6.0340,0.1799,-0.0001,-0.0000,-0.2201,flat,18.0,0,10.336
1900,60.80,0.4930,5.9027,0.1799,-0.0001,-0.0000,-0.4462,flat,18.0,0,10.033
1910,61.12,0.9443,5.6537,0.1799,-0.0001,-0.0000,-0.6178,flat,18.0,0,9.639
1920,61.44,1.3648,5.3193,0.1799,-0.0003,-0.0000,-0.7434,flat,18.0,0,9.186
1930,61.76,1.7497,4.9319,0.1798,-0.0004,-0.0000,-0.8426,flat,18.0,0,8.701
1940,62.08,2.1028,4.5057,0.1798,-0.0004,-0.0000,-0.9297,flat,18.0,0,8.194
1950,62.40,2.4240,4.0485,0.1798,-0.0003,-0.0000,-1.0059,flat,18.0,0,7.672
1960,62.72,2.7142,3.5667,0.1797,-0.0002,-0.0000,-1.0725,flat,18.0,0,7.137
1970,63.04,2.9749,3.0656,0.1797,-0.0002,-0.0000,-1.1310,flat,18.0,0,6.594
1980,63.36,3.2075,2.5493,0.1797,-0.0002,-0.0000,-1.1826,flat,18.0,0,6.044
1990,63.68,3.4150,2.0216,0.1797,-0.0002,-0.0000,-1.2270,flat,18.0,0,5.490
2000,64.00,3.6003,1.4853,0.1797,-0.0001,-0.0000,-1.2663,flat,18.0,0,4.933
2010,64.32,3.7654,0.9417,0.1797,-0.0001,-0.0000,-1.3026,flat,18.0,0,4.374
2020,64.64,3.9114,0.3921,0.1797,-0.0001,-0.0000,-1.3369,flat,18.0,0,3.812
2030,64.96,4.0388,-0.1624,0.1797,-0.0001,-0.0000,-1.3701,flat,18.0,0,3.250
2040,65.28,4.1481,-0.7209,0.1797,-0.0001,-0.0000,-1.4034,flat,18.0,0,2.687
2050,65.60,4.2387,-1.2824,0.1797,-0.0001,0.0000,-1.4385,flat,18.0,0,2.124
2060,65.92,4.3092,-1.8457,0.1797,-0.0001,0.0000,-1.4789,flat,18.0,0,1.563
2070,66.24,4.3560,-2.4093,0.1797,-0.0002,0.0000,-1.5367,flat,18.0,0,1.005
2080,66.56,4.3670,-2.9601,0.1799,-0.0001,0.0001,-1.6719,flat,18.0,1,7.408
2090,66.88,4.2929,-3.4840,0.1799,-0.0001,0.0000,-1.8538,flat,18.0,1,6.983
2100,67.20,4.1355,-3.9632,0.1798,-0.0001,-0.0002,-1.9584,flat,18.0,1,6.540
2110,67.52,3.9122,-4.4613,0.1798,-0.0004,-0.0001,-2.0692,flat,18.0,1,6.044
2120,67.84,3.6343,-4.9375,0.1798,-0.0004,-0.0000,-2.1544,flat,18.0,1,5.528
2130,68.16,3.3161,-5.3948,0.1797,-0.0002,-0.0000,-2.2180,flat,18.0,1,4.998
2140,68.48,2.9691,-5.8320,0.1797,-0.0002,-0.0000,-2.2769,flat,18.0,1,4.462
2150,68.80,2.5962,-6.2479,0.1797,-0.0002,-0.0000,-2.3341,flat,18.0,1,3.921
2160,69.12,2.1996,-6.6426,0.1797,-0.0002,-0.0000,-2.3878,flat,18.0,1,3.377
2170,69.44,1.7819,-7.0153,0.1797,-0.0002,-0.0000,-2.4418,flat,18.0,1,2.830
2180,69.76,1.3443,-7.3656,0.1797,-0.0002,-0.0000,-2.4988,flat,18.0,1,2.281
2190,70.08,0.8874,-7.6912,0.1797,-0.0002,-0.0000,-2.5623,flat,18.0,1,1.731
2200,70.40,0.4116,-7.9861,0.1798,-0.0003,0.0000,-2.6412,flat,18.0,1,1.182
2210,70.72,-0.0719,-8.2298,0.1798,-0.0002,0.0004,-2.7859,flat,18.0,2,5.360
2220,71.04,-0.4876,-8.3551,0.1799,0.0000,-0.0000,-3.1224,flat,18.0,2,5.227
2230,71.36,-0.9544,-8.3390,0.1799,-0.0002,-0.0000,2.8688,rough,14.0,2,4.979
2240,71.68,-1.3812,-8.2069,0.1799,-0.0000,-0.0001,2.7194,flat,18.0,2,4.673
2250,72.00,-1.8325,-7.9688,0.1799,-0.0001,-0.0000,2.5246,flat,18.0,2,4.284
2260,72.32,-2.2443,-7.6352,0.1799,-0.0001,-0.0000,2.3751,flat,18.0,2,3.841
2270,72.64,-2.6111,-7.2400,0.1799,-0.0002,-0.0000,2.2470,flat,18.0,2,3.370
2280,72.96,-2.9334,-6.7978,0.1799,-0.0003,-0.0000,2.1226,flat,18.0,2,2.882
2290,73.28,-3.2047,-6.3170,0.1799,-0.0003,-0.0000,2.0000,flat,18.0,2,2.381
2300,73.60,-3.4192,-5.8058,0.1799,-0.0003,-0.0000,1.8749,flat,18.0,2,1.874
2310,73.92,-3.5701,-5.2724,0.1799,-0.0002,-0.0000,1.7391,flat,18.0,2,1.366
2320,74.24,-3.6471,-4.7277,0.1799,-0.0001,0.0000,1.5742,flat,18.0,2,0.871
2330,74.56,-3.6333,-4.1716,0.1798,-0.0001,-0.0001,1.5035,flat,18.0,3,10.557
2340,74.88,-3.5896,-3.6065,0.1797,-0.0002,-0.0000,1.4597,flat,18.0,3,10.000
2350,75.20,-3.5222,-3.0428,0.1797,-0.0001,-0.0000,1.4252,flat,18.0,3,9.438
2360,75.52,-3.4359,-2.4806,0.1797,-0.0001,-0.0000,1.3966,flat,18.0,3,8.874
2370,75.84,-3.3338,-1.9201,0.1797,-0.0001,-0.0000,1.3724,flat,18.0,3,8.308
2380,76.16,-3.2185,-1.3613,0.1797,-0.0001,-0.0000,1.3517,flat,18.0,3,7.739
2390,76.48,-3.0918,-0.8044,0.1797,-0.0001,-0.0000,1.3337,flat,18.0,3,7.170
2400,76.80,-2.9553,-0.2492,0.1797,-0.0001,-0.0000,1.3179,flat,18.0,3,6.599
2410,77.12,-2.8101,0.3042,0.1797,-0.0001,-0.0000,1.3038,flat,18.0,3,6.028
2420,77.44,-2.6572,0.8558,0.1797,-0.0000,-0.0000,1.2912,flat,18.0,3,5.456
2430,77.76,-2.4974,1.4058,0.1797,-0.0000,-0.0000,1.2796,flat,18.0,3,4.884
2440,78.08,-2.3313,1.9542,0.1797,-0.0000,-0.0000,1.2689,flat,18.0,3,4.311
2450,78.40,-2.1594,2.5009,0.1797,-0.0000,-0.0000,1.2588,flat,18.0,3,3.738
2460,78.72,-1.9820,3.0459,0.1797,-0.0000,-0.0000,1.2491,flat,18.0,3,3.165
2470,79.04,-1.7992,3.5892,0.1797,-0.0000,0.0000,1.2394,flat,18.0,3,2.592
2480,79.36,-1.6113,4.1306,0.1797,-0.0000,0.0000,1.2293,flat,18.0,3,2.019
2490,79.68,-1.4178,4.6696,0.1797,-0.0000,0.0000,1.2181,flat,18.0,3,1.446
2500,80.00,-1.2183,5.2055,0.1797,-0.0000,0.0000,1.2041,flat,18.0,3,0.875
2510,80.32,-1.0521,5.6186,0.1798,0.0003,0.0001,0.9277,flat,18.0,0,10.460
2520,80.64,-0.8185,5.8493,0.1798,0.0002,-0.0000,0.5370,flat,18.0,0,10.545
2530,80.96,-0.4871,6.0146,0.1799,0.0001,-0.0001,0.1634,flat,18.0,0,10.538
2540,81.28,-0.0566,6.0630,0.1799,-0.0000,-0.0000,-0.1654,flat,18.0,0,10.396
2550,81.60,0.4092,5.9597,0.1799,-0.0001,-0.0000,-0.4060,flat,18.0,0,10.117
2560,81.92,0.8651,5.7316,0.1799,-0.0001,-0.0000,-0.5873,flat,18.0,0,9.740
2570,82.24,1.2920,5.4116,0.1799,-0.0002,-0.0000,-0.7225,flat,18.0,0,9.296
2580,82.56,1.6836,5.0328,0.1798,-0.0004,-0.0000,-0.8247,flat,18.0,0,8.816
2590,82.88,2.0426,4.6133,0.1798,-0.0004,-0.0000,-0.9143,flat,18.0,0,8.314
2600,83.20,2.3697,4.1614,0.1798,-0.0003,-0.0000,-0.9927,flat,18.0,0,7.794
2610,83.52,2.6654,3.6837,0.1797,-0.0003,-0.0000,-1.0612,flat,18.0,0,7.262
2620,83.84,2.9313,3.1858,0.1797,-0.0002,-0.0000,-1.1213,flat,18.0,0,6.720
2630,84.16,3.1685,2.6718,0.1797,-0.0002,-0.0000,-1.1742,flat,18.0,0,6.171
2640,84.48,3.3801,2.1457,0.1797,-0.0002,0.0000,-1.2202,flat,18.0,0,5.618
2650,84.80,3.5688,1.6108,0.1797,-0.0001,-0.0000,-1.2601,flat,18.0,0,5.061
2660,85.12,3.7371,1.0684,0.1797,-0.0001,-0.0000,-1.2969,flat,18.0,0,4.502
2670,85.44,3.8861,0.5196,0.1797,-0.0001,-0.0000,-1.3315,flat,18.0,0,3.942
2680,85.76,4.0165,-0.0342,0.1797,-0.0001,-0.0000,-1.3648,flat,18.0,0,3.379
2690,86.08,4.1287,-0.5922,0.1797,-0.0001,-0.0000,-1.3978,flat,18.0,0,2.816
2700,86.40,4.2226,-1.1533,0.1797,-0.0001,0.0000,-1.4321,flat,18.0,0,2.253
2710,86.72,4.2968,-1.7165,0.1797,-0.0001,0.0000,-1.4706,flat,18.0,0,1.691
2720,87.04,4.3486,-2.2803,0.1797,-0.0002,0.0000,-1.5219,flat,18.0,0,1.132
2730,87.36,4.3695,-2.8371,0.1798,-0.0001,0.0000,-1.6318,flat,18.0,1,7.500
2740,87.68,4.3182,-3.3639,0.1799,-0.0001,-0.0000,-1.8189,flat,18.0,1,7.085
2750,88.00,4.1767,-3.8524,0.1798,0.0000,0.0001,-1.9442,flat,18.0,1,6.645
2760,88.32,3.9648,-4.3482,0.1799,-0.0003,-0.0001,-2.0478,flat,18.0,1,6.157
2770,88.64,3.6973,-4.8291,0.1798,-0.0004,-0.0000,-2.1379,flat,18.0,1,5.644
2780,88.96,3.3866,-5.2905,0.1797,-0.0003,-0.0000,-2.2047,flat,18.0,1,5.116
2790,89.28,3.0457,-5.7325,0.1797,-0.0002,-0.0000,-2.2637,flat,18.0,1,4.581
2800,89.60,2.6785,-6.1533,0.1797,-0.0002,-0.0000,-2.3212,flat,18.0,1,4.042
2810,89.92,2.2871,-6.5530,0.1797,-0.0002,-0.0000,-2.3753,flat,18.0,1,3.498
2820,90.24,1.8742,-6.9309,0.1797,-0.0002,-0.0000,-2.4289,flat,18.0,1,2.951
2830,90.56,1.4412,-7.2868,0.1797,-0.0002,-0.0000,-2.4847,flat,18.0,1,2.403
2840,90.88,0.9889,-7.6186,0.1797,-0.0002,-0.0000,-2.5461,flat,18.0,1,1.853
2850,91.20,0.5176,-7.9218,0.1798,-0.0003,0.0000,-2.6202,flat,18.0,1,1.303
2860,91.52,0.0283,-8.1852,0.1798,-0.0004,0.0000,-2.7275,flat,18.0,2,0.759
2870,91.84,-0.3886,-8.3341,0.1799,0.0001,-0.0000,-3.0481,flat,18.0,2,5.263
2880,92.16,-0.8478,-8.3522,0.1799,-0.0002,-0.0000,2.9249,flat,18.0,2,5.041
2890,92.48,-1.2692,-8.2423,0.1798,-0.0002,-0.0002,2.7793,flat,18.0,2,4.752
2900,92.80,-1.7273,-8.0345,0.1799,-0.0001,-0.0000,2.5715,flat,18.0,2,4.382
2910,93.12,-2.1501,-7.7229,0.1799,-0.0001,-0.0000,2.4089,flat,18.0,2,3.951
2920,93.44,-2.5281,-7.3412,0.1799,-0.0002,-0.0000,2.2791,flat,18.0,2,3.486
2930,93.76,-2.8622,-6.9102,0.1799,-0.0003,-0.0000,2.1534,flat,18.0,2,3.002
2940,94.08,-3.1467,-6.4383,0.1799,-0.0003,-0.0000,2.0301,flat,18.0,2,2.505
2950,94.40,-3.3756,-5.9338,0.1799,-0.0003,-0.0000,1.9057,flat,18.0,2,1.999
2960,94.72,-3.5425,-5.4050,0.1799,-0.0002,-0.0000,1.7732,flat,18.0,2,1.491
2970,95.04,-3.6384,-4.8617,0.1799,-0.0001,0.0000,1.6177,flat,18.0,2,0.991
2980,95.36,-3.6418,-4.3092,0.1798,-0.0002,-0.0001,1.5186,flat,18.0,3,10.692
2990,95.68,-3.6064,-3.7440,0.1798,-0.0002,-0.0000,1.4713,flat,18.0,3,10.137
3000,96.00,-3.5454,-3.1801,0.1797,-0.0001,-0.0000,1.4346,flat,18.0,3,9.577
3010,96.32,-3.4642,-2.6175,0.1797,-0.0001,-0.0000,1.4042,flat,18.0,3,9.014
3020,96.64,-3.3663,-2.0565,0.1797,-0.0001,-0.0000,1.3787,flat,18.0,3,8.448
3030,96.96,-3.2544,-1.4973,0.1797,-0.0001,-0.0000,1.3569,flat,18.0,3,7.880
3040,97.28,-3.1306,-0.9399,0.1797,-0.0001,-0.0000,1.3380,flat,18.0,3,7.311
3050,97.60,-2.9964,-0.3844,0.1797,-0.0001,-0.0000,1.3215,flat,18.0,3,6.741
3060,97.92,-2.8531,0.1694,0.1797,-0.0001,-0.0000,1.3069,flat,18.0,3,6.170
3070,98.24,-2.7019,0.7214,0.1797,-0.0000,-0.0000,1.2938,flat,18.0,3,5.598
3080,98.56,-2.5435,1.2717,0.1797,-0.0000,-0.0000,1.2818,flat,18.0,3,5.026
3090,98.88,-2.3786,1.8203,0.1797,-0.0000,-0.0000,1.2708,flat,18.0,3,4.453
3100,99.20,-2.2077,2.3673,0.1797,-0.0000,-0.0000,1.2605,flat,18.0,3,3.880
3110,99.52,-2.0312,2.9126,0.1797,-0.0000,-0.0000,1.2506,flat,18.0,3,3.307
3120,99.84,-1.8493,3.4561,0.1797,-0.0000,-0.0000,1.2408,flat,18.0,3,2.734
3130,100.16,-1.6621,3.9977,0.1797,-0.0000,0.0000,1.2308,flat,18.0,3,2.161
3140,100.48,-1.4694,4.5371,0.1797,-0.0000,0.0000,1.2198,flat,18.0,3,1.588
3150,100.80,-1.2708,5.0736,0.1797,-0.0000,0.0000,1.2067,flat,18.0,3,1.016
3160,101.12,-1.0990,5.5331,0.1798,0.0002,0.0003,1.0050,flat,18.0,0,10.410
3170,101.44,-0.8839,5.7831,0.1798,0.0003,-0.0000,0.6142,flat,18.0,0,10.519
3180,101.76,-0.5745,5.9631,0.1799,0.0001,-0.0001,0.2365,flat,18.0,0,10.532
3190,102.08,-0.1588,6.0409,0.1799,-0.0000,-0.0000,-0.1064,flat,18.0,0,10.419
3200,102.40,0.3050,5.9670,0.1799,-0.0001,-0.0000,-0.3627,flat,18.0,0,10.164
3210,102.72,0.7654,5.7615,0.1799,-0.0001,-0.0000,-0.5537,flat,18.0,0,9.802
3220,103.04,1.1991,5.4580,0.1799,-0.0001,-0.0000,-0.6991,flat,18.0,0,9.370
3230,103.36,1.5986,5.0890,0.1798,-0.0003,-0.0000,-0.8039,flat,18.0,0,8.895
3240,103.68,1.9644,4.6775,0.1798,-0.0004,-0.0000,-0.8957,flat,18.0,0,8.397
3250,104.00,2.2985,4.2321,0.1798,-0.0004,-0.0000,-0.9762,flat,18.0,0,7.880
3260,104.32,2.6011,3.7596,0.1797,-0.0003,-0.0000,-1.0465,flat,18.0,0,7.350
3270,104.64,2.8737,3.2658,0.1797,-0.0002,-0.0000,-1.1081,flat,18.0,0,6.810
3280,104.96,3.1174,2.7552,0.1797,-0.0002,-0.0000,-1.1624,flat,18.0,0,6.262
3290,105.28,3.3348,2.2314,0.1797,-0.0002,-0.0000,-1.2101,flat,18.0,0,5.709
3300,105.60,3.5287,1.6986,0.1797,-0.0001,-0.0000,-1.2508,flat,18.0,0,5.154
3310,105.92,3.7018,1.1579,0.1797,-0.0001,-0.0000,-1.2882,flat,18.0,0,4.595
3320,106.24,3.8554,0.6105,0.1797,-0.0001,-0.0000,-1.3233,flat,18.0,0,4.035
3330,106.56,3.9903,0.0578,0.1797,-0.0001,-0.0000,-1.3568,flat,18.0,0,3.473
3340,106.88,4.1069,-0.4992,0.1797,-0.0001,-0.0000,-1.3899,flat,18.0,0,2.910
3350,107.20,4.2051,-1.0595,0.1797,-0.0001,-0.0000,-1.4240,flat,18.0,0,2.347
3360,107.52,4.2839,-1.6223,0.1797,-0.0001,0.0000,-1.4617,flat,18.0,0,1.785
3370,107.84,4.3409,-2.1861,0.1797,-0.0002,0.0000,-1.5102,flat,18.0,0,1.225
3380,108.16,4.3692,-2.7459,0.1798,-0.0002,0.0000,-1.6028,flat,18.0,1,7.567
3390,108.48,4.3354,-3.2764,0.1799,-0.0001,-0.0000,-1.7874,flat,18.0,1,7.159
3400,108.80,4.2058,-3.7781,0.1798,0.0001,0.0002,-1.9253,rough,14.0,1,6.717
3410,109.12,4.0083,-4.2664,0.1799,-0.0003,-0.0001,-2.0289,flat,18.0,1,6.244
3420,109.44,3.7503,-4.7512,0.1798,-0.0004,-0.0000,-2.1236,flat,18.0,1,5.735
3430,109.76,3.4462,-5.2157,0.1798,-0.0003,-0.0000,-2.1942,flat,18.0,1,5.209
3440,110.08,3.1100,-5.6612,0.1797,-0.0002,-0.0000,-2.2538,flat,18.0,1,4.675
3450,110.40,2.7472,-6.0856,0.1797,-0.0002,-0.0000,-2.3118,flat,18.0,1,4.136
3460,110.72,2.3596,-6.4886,0.1797,-0.0002,-0.0000,-2.3667,flat,18.0,1,3.593
3470,111.04,1.9501,-6.8701,0.1797,-0.0002,-0.0000,-2.4202,flat,18.0,1,3.047
3480,111.36,1.5202,-7.2296,0.1797,-0.0002,-0.0000,-2.4757,flat,18.0,1,2.499
3490,111.68,1.0709,-7.5652,0.1797,-0.0002,-0.0000,-2.5359,flat,18.0,1,1.949
3500,112.00,0.6026,-7.8735,0.1797,-0.0003,0.0000,-2.6072,flat,18.0,1,1.399
3510,112.32,0.1159,-8.1444,0.1798,-0.0004,0.0000,-2.7058,flat,18.0,1,0.854
3520,112.64,-0.3072,-8.3099,0.1799,0.0002,-0.0000,-3.0024,flat,18.0,2,5.288
3530,112.96,-0.7617,-8.3491,0.1799,0.0001,-0.0001,2.9602,flat,18.0,2,5.081
3540,113.28,-1.1906,-8.2536,0.1798,-0.0001,0.0001,2.7963,flat,18.0,2,4.796
3550,113.60,-1.6462,-8.0561,0.1799,-0.0001,-0.0000,2.5963,flat,18.0,2,4.432
3560,113.92,-2.0753,-7.7561,0.1799,-0.0001,-0.0000,2.4286,flat,18.0,2,4.005
3570,114.24,-2.4600,-7.3822,0.1799,-0.0002,-0.0000,2.2982,flat,18.0,2,3.542
3580,114.56,-2.8013,-6.9579,0.1799,-0.0003,-0.0000,2.1734,flat,18.0,2,3.059
3590,114.88,-3.0945,-6.4920,0.1799,-0.0003,-0.0000,2.0510,flat,18.0,2,2.562
3600,115.20,-3.3334,-5.9924,0.1799,-0.0003,-0.0000,1.9279,flat,18.0,2,2.056
3610,115.52,-3.5118,-5.4672,0.1799,-0.0002,-0.0000,1.7976,flat,18.0,2,1.547
3620,115.84,-3.6210,-4.9258,0.1799,-0.0001,0.0000,1.6466,flat,18.0,2,1.046
3630,116.16,-3.6387,-4.3777,0.1799,-0.0003,-0.0001,1.5230,flat,18.0,3,10.758
3640,116.48,-3.6053,-3.8126,0.1798,-0.0002,-0.0000,1.4752,flat,18.0,3,10.203
3650,116.80,-3.5465,-3.2485,0.1797,-0.0001,-0.0000,1.4380,flat,18.0,3,9.643
3660,117.12,-3.4672,-2.6856,0.1797,-0.0001,-0.0000,1.4073,flat,18.0,3,9.080
3670,117.44,-3.3710,-2.1244,0.1797,-0.0001,-0.0000,1.3815,flat,18.0,3,8.514
3680,117.76,-3.2607,-1.5649,0.1797,-0.0001,-0.0000,1.3595,flat,18.0,3,7.946
3690,118.08,-3.1382,-1.0073,0.1797,-0.0001,-0.0000,1.3404,flat,18.0,3,7.377
3700,118.40,-3.0054,-0.4514,0.1797,-0.0001,-0.0000,1.3238,flat,18.0,3,6.807
3710,118.72,-2.8634,0.1026,0.1797,-0.0001,-0.0000,1.3091,flat,18.0,3,6.236
3720,119.04,-2.7134,0.6549,0.1797,-0.0000,-0.0000,1.2959,flat,18.0,3,5.665
3730,119.36,-2.5562,1.2056,0.1797,-0.0000,-0.0000,1.2840,flat,18.0,3,5.092
3740,119.68,-2.3925,1.7546,0.1797,-0.0000,-0.0000,1.2729,flat,18.0,3,4.520
3750,120.00,-2.2227,2.3019,0.1797,-0.0000,-0.0000,1.2626,flat,18.0,3,3.947
3760,120.32,-2.0474,2.8476,0.1797,-0.0000,-0.0000,1.2527,flat,18.0,3,3.374
3770,120.64,-1.8666,3.3915,0.1797,-0.0000,-0.0000,1.2430,flat,18.0,3,2.801
3780,120.96,-1.6806,3.9336,0.1797,-0.0000,0.0000,1.2331,flat,18.0,3,2.228
3790,121.28,-1.4892,4.4735,0.1797,-0.0000,0.0000,1.2224,flat,18.0,3,1.655
3800,121.60,-1.2920,5.0107,0.1797,-0.0000,0.0000,1.2097,flat,18.0,3,1.083
3810,121.92,-1.1169,5.4913,0.1798,0.0001,0.0003,1.0448,flat,18.0,0,10.383
3820,122.24,-0.9120,5.7533,0.1798,0.0003,-0.0000,0.6551,flat,18.0,0,10.507
3830,122.56,-0.6137,5.9401,0.1799,0.0001,-0.0001,0.2753,flat,18.0,0,10.529
3840,122.88,-0.2068,6.0325,0.1799,-0.0000,-0.0001,-0.0742,flat,18.0,0,10.432
3850,123.20,0.2550,5.9744,0.1799,-0.0000,-0.0000,-0.3399,flat,18.0,0,10.190
3860,123.52,0.7173,5.7811,0.1799,-0.0000,-0.0000,-0.5364,flat,18.0,0,9.838
3870,123.84,1.1543,5.4866,0.1799,-0.0001,-0.0000,-0.6859,flat,18.0,0,9.411
3880,124.16,1.5578,5.1230,0.1798,-0.0003,-0.0000,-0.7934,flat,18.0,0,8.940
3890,124.48,1.9269,4.7156,0.1798,-0.0004,-0.0000,-0.8864,flat,18.0,0,8.444
3900,124.80,2.2645,4.2734,0.1798,-0.0004,-0.0000,-0.9680,flat,18.0,0,7.929
3910,125.12,2.5705,3.8036,0.1797,-0.0003,-0.0000,-1.0393,flat,18.0,0,7.400
3920,125.44,2.8462,3.3119,0.1797,-0.0002,-0.0000,-1.1018,flat,18.0,0,6.860
3930,125.76,3.0929,2.8029,0.1797,-0.0002,-0.0000,-1.1567,flat,18.0,0,6.314
3940,126.08,3.3132,2.2804,0.1797,-0.0002,-0.0000,-1.2054,flat,18.0,0,5.761
3950,126.40,3.5095,1.7486,0.1797,-0.0001,-0.0000,-1.2464,flat,18.0,0,5.206
3960,126.72,3.6848,1.2086,0.1797,-0.0001,-0.0000,-1.2842,flat,18.0,0,4.648
3970,127.04,3.8405,0.6619,0.1797,-0.0001,-0.0000,-1.3195,flat,18.0,0,4.087
3980,127.36,3.9774,0.1098,0.1797,-0.0001,-0.0000,-1.3532,flat,18.0,0,3.526
3990,127.68,4.0960,-0.4468,0.1797,-0.0001,-0.0000,-1.3864,flat,18.0,0,2.963
4000,128.00,4.1962,-1.0069,0.1797,-0.0001,-0.0000,-1.4203,flat,18.0,0,2.400
4010,128.32,4.2771,-1.5694,0.1797,-0.0001,0.0000,-1.4576,flat,18.0,0,1.838
4020,128.64,4.3365,-2.1331,0.1797,-0.0002,0.0000,-1.5046,flat,18.0,0,1.277
4030,128.96,4.3686,-2.6945,0.1798,-0.0002,0.0001,-1.5894,flat,18.0,1,7.605
4040,129.28,4.3434,-3.2272,0.1799,-0.0000,-0.0000,-1.7709,flat,18.0,1,7.199
4050,129.60,4.2194,-3.7407,0.1799,-0.0001,0.0004,-1.9180,rough,14.0,1,6.752
4060,129.92,4.0302,-4.2197,0.1799,-0.0002,-0.0001,-2.0186,flat,18.0,1,6.291
4070,130.24,3.7772,-4.7066,0.1798,-0.0004,-0.0000,-2.1156,flat,18.0,1,5.783
4080,130.56,3.4768,-5.1729,0.1798,-0.0003,-0.0000,-2.1884,flat,18.0,1,5.259
4090,130.88,3.1433,-5.6202,0.1797,-0.0002,-0.0000,-2.2482,flat,18.0,1,4.726
4100,131.20,2.7829,-6.0467,0.1797,-0.0002,-0.0000,-2.3064,flat,18.0,1,4.187
4110,131.52,2.3975,-6.4517,0.1797,-0.0002,-0.0000,-2.3617,flat,18.0,1,3.645
4120,131.84,1.9900,-6.8353,0.1797,-0.0002,-0.0000,-2.4152,flat,18.0,1,3.099
4130,132.16,1.5620,-7.1968,0.1797,-0.0002,-0.0000,-2.4704,flat,18.0,1,2.551
4140,132.48,1.1144,-7.5347,0.1797,-0.0002,-0.0000,-2.5300,flat,18.0,1,2.001
4150,132.80,0.6479,-7.8459,0.1797,-0.0002,0.0000,-2.5998,flat,18.0,1,1.451
4160,133.12,0.1628,-8.1208,0.1798,-0.0004,0.0000,-2.6944,flat,18.0,1,0.905
4170,133.44,-0.2680,-8.2989,0.1798,0.0001,-0.0000,-2.9674,flat,18.0,2,5.301
4180,133.76,-0.7165,-8.3526,0.1799,-0.0002,-0.0000,2.9907,flat,18.0,2,5.106
4190,134.08,-1.1618,-8.2622,0.1799,-0.0001,0.0001,2.7974,flat,18.0,2,4.816
4200,134.40,-1.6188,-8.0654,0.1799,-0.0002,-0.0000,2.5982,flat,18.0,2,4.450
4210,134.72,-2.0489,-7.7660,0.1799,-0.0001,-0.0000,2.4312,flat,18.0,2,4.022
4220,135.04,-2.4352,-7.3932,0.1799,-0.0002,-0.0000,2.3022,flat,18.0,2,3.558
4230,135.36,-2.7782,-6.9704,0.1799,-0.0003,-0.0000,2.1784,flat,18.0,2,3.075
4240,135.68,-3.0738,-6.5058,0.1799,-0.0003,-0.0000,2.0570,flat,18.0,2,2.577
4250,136.00,-3.3157,-6.0076,0.1799,-0.0003,-0.0000,1.9349,flat,18.0,2,2.071
4260,136.32,-3.4978,-5.4837,0.1799,-0.0002,-0.0000,1.8059,flat,18.0,2,1.562
4270,136.64,-3.6116,-4.9429,0.1799,-0.0001,0.0000,1.6566,flat,18.0,2,1.059
4280,136.96,-3.6342,-4.3946,0.1799,-0.0003,-0.0001,1.5315,flat,18.0,3,10.773
4290,137.28,-3.6052,-3.8295,0.1798,-0.0002,-0.0000,1.4816,flat,18.0,3,10.219
4300,137.60,-3.5498,-3.2653,0.1797,-0.0001,-0.0000,1.4428,flat,18.0,3,9.660
4310,137.92,-3.4731,-2.7024,0.1797,-0.0001,-0.0000,1.4110,flat,18.0,3,9.098
4320,138.24,-3.3790,-2.1410,0.1797,-0.0001,-0.0000,1.3843,flat,18.0,3,8.532
4330,138.56,-3.2702,-1.5814,0.1797,-0.0001,-0.0000,1.3616,flat,18.0,3,7.965
4340,138.88,-3.1489,-1.0236,0.1797,-0.0001,-0.0000,1.3421,flat,18.0,3,7.396
4350,139.20,-3.0169,-0.4677,0.1797,-0.0001,-0.0000,1.3250,flat,18.0,3,6.826
4360,139.52,-2.8756,0.0864,0.1797,-0.0001,-0.0000,1.3099,flat,18.0,3,6.255
4370,139.84,-2.7260,0.6387,0.1797,-0.0000,-0.0000,1.2964,flat,18.0,3,5.684
4380,140.16,-2.5690,1.1894,0.1797,-0.0000,-0.0000,1.2841,flat,18.0,3,5.112
4390,140.48,-2.4053,1.7383,0.1797,-0.0000,-0.0000,1.2728,flat,18.0,3,4.539
4400,140.80,-2.2355,2.2855,0.1797,-0.0000,-0.0000,1.2622,flat,18.0,3,3.966
4410,141.12,-2.0599,2.8310,0.1797,-0.0000,-0.0000,1.2521,flat,18.0,3,3.393
4420,141.44,-1.8788,3.3748,0.1797,-0.0000,-0.0000,1.2422,flat,18.0,3,2.820
4430,141.76,-1.6924,3.9167,0.1797,-0.0000,0.0000,1.2321,flat,18.0,3,2.247
4440,142.08,-1.5004,4.4564,0.1797,-0.0000,0.0000,1.2213,flat,18.0,3,1.675
4450,142.40,-1.3026,4.9933,0.1797,-0.0000,0.0000,1.2084,flat,18.0,3,1.103
4460,142.72,-1.1211,5.4909,0.1798,0.0000,0.0004,1.0790,flat,18.0,0,10.385
4470,143.04,-0.9251,5.7659,0.1798,0.0003,0.0000,0.6894,flat,18.0,0,10.524
4480,143.36,-0.6361,5.9580,0.1798,0.0001,-0.0001,0.3078,flat,18.0,0,10.555
4490,143.68,-0.2378,6.0618,0.1799,-0.0000,-0.0001,-0.0466,flat,18.0,0,10.471
4500,144.00,0.2215,6.0167,0.1799,-0.0001,-0.0000,-0.3194,flat,18.0,0,10.242
4510,144.32,0.6848,5.8337,0.1799,-0.0001,-0.0000,-0.5213,flat,18.0,0,9.899
4520,144.64,1.1242,5.5465,0.1799,-0.0001,-0.0000,-0.6756,flat,18.0,0,9.478
4530,144.96,1.5303,5.1871,0.1798,-0.0003,-0.0000,-0.7858,flat,18.0,0,9.009
4540,145.28,1.9017,4.7827,0.1798,-0.0004,-0.0000,-0.8801,flat,18.0,0,8.515
4550,145.60,2.2415,4.3428,0.1798,-0.0004,-0.0000,-0.9627,flat,18.0,0,8.002
4560,145.92,2.5496,3.8747,0.1798,-0.0003,-0.0000,-1.0349,flat,18.0,0,7.474
4570,146.24,2.8272,3.3843,0.1797,-0.0002,-0.0000,-1.0981,flat,18.0,0,6.935
4580,146.56,3.0756,2.8763,0.1797,-0.0002,-0.0000,-1.1537,flat,18.0,0,6.389
4590,146.88,3.2973,2.3544,0.1797,-0.0002,-0.0000,-1.2029,flat,18.0,0,5.837
4600,147.20,3.4948,1.8230,0.1797,-0.0001,-0.0000,-1.2444,flat,18.0,0,5.282
4610,147.52,3.6712,1.2834,0.1797,-0.0001,-0.0000,-1.2823,flat,18.0,0,4.724
4620,147.84,3.8279,0.7371,0.1797,-0.0001,-0.0000,-1.3177,flat,18.0,0,4.164
4630,148.16,3.9658,0.1852,0.1797,-0.0001,-0.0000,-1.3514,flat,18.0,0,3.602
4640,148.48,4.0854,-0.3712,0.1797,-0.0001,-0.0000,-1.3843,flat,18.0,0,3.039
4650,148.80,4.1868,-0.9311,0.1797,-0.0001,-0.0000,-1.4178,flat,18.0,0,2.476
4660,149.12,4.2693,-1.4936,0.1797,-0.0001,0.0000,-1.4542,flat,18.0,0,1.913
4670,149.44,4.3308,-2.0574,0.1797,-0.0001,0.0000,-1.4988,flat,18.0,0,1.353
4680,149.76,4.3659,-2.6202,0.1798,-0.0003,0.0000,-1.5714,flat,18.0,1,0.797
4690,150.08,4.3515,-3.1566,0.1799,-0.0000,-0.0000,-1.7482,flat,18.0,1,7.255
4700,150.40,4.2372,-3.6790,0.1799,-0.0001,-0.0000,-1.9112,flat,18.0,1,6.807
4710,150.72,4.0560,-4.1520,0.1798,-0.0002,-0.0001,-2.0052,flat,18.0,1,6.355
4720,151.04,3.8096,-4.6417,0.1798,-0.0004,-0.0000,-2.1049,flat,18.0,1,5.850
4730,151.36,3.5143,-5.1104,0.1798,-0.0003,-0.0000,-2.1803,flat,18.0,1,5.327
4740,151.68,3.1844,-5.5603,0.1797,-0.0002,-0.0000,-2.2405,flat,18.0,1,4.794
4750,152.00,2.8274,-5.9896,0.1797,-0.0002,-0.0000,-2.2987,flat,18.0,1,4.256
4760,152.32,2.4453,-6.3976,0.1797,-0.0002,-0.0000,-2.3544,flat,18.0,1,3.714
4770,152.64,2.0406,-6.7842,0.1797,-0.0002,-0.0000,-2.4076,flat,18.0,1,3.168
4780,152.96,1.6154,-7.1489,0.1797,-0.0002,-0.0000,-2.4623,flat,18.0,1,2.620
4790,153.28,1.1706,-7.4903,0.1797,-0.0002,-0.0000,-2.5209,flat,18.0,1,2.071
4800,153.60,0.7068,-7.8059,0.1797,-0.0002,0.0000,-2.5887,flat,18.0,1,1.521
4810,153.92,0.2244,-8.0868,0.1798,-0.0004,0.0000,-2.6784,flat,18.0,1,0.973
4820,154.24,-0.2246,-8.2859,0.1798,0.0002,0.0001,-2.9082,flat,18.0,2,5.315
4830,154.56,-0.6611,-8.3648,0.1799,-0.0001,-0.0000,3.0368,flat,18.0,2,5.145
4840,154.88,-1.1051,-8.2956,0.1799,-0.0001,0.0001,2.8361,rough,14.0,2,4.871
4850,155.20,-1.5488,-8.1316,0.1799,0.0000,-0.0000,2.6481,flat,18.0,2,4.538
4860,155.52,-1.9879,-7.8575,0.1799,-0.0000,-0.0000,2.4681,flat,18.0,2,4.128
4870,155.84,-2.3837,-7.4997,0.1799,-0.0002,-0.0000,2.3299,flat,18.0,2,3.674
4880,156.16,-2.7355,-7.0872,0.1799,-0.0002,-0.0000,2.2028,flat,18.0,2,3.197
4890,156.48,-3.0404,-6.6305,0.1799,-0.0003,-0.0000,2.0789,flat,18.0,2,2.704
4900,156.80,-3.2920,-6.1380,0.1799,-0.0003,-0.0000,1.9555,flat,18.0,2,2.201
4910,157.12,-3.4843,-5.6178,0.1799,-0.0003,-0.0000,1.8274,flat,18.0,2,1.693
4920,157.44,-3.6098,-5.0788,0.1799,-0.0001,-0.0000,1.6837,flat,18.0,2,1.188
4930,157.76,-3.6505,-4.5341,0.1799,-0.0003,-0.0001,1.5406,flat,18.0,3,10.912
4940,158.08,-3.6240,-3.9689,0.1798,-0.0002,-0.0000,1.4883,flat,18.0,3,10.358
4950,158.40,-3.5721,-3.4044,0.1797,-0.0001,-0.0000,1.4481,flat,18.0,3,9.800
4960,158.72,-3.4984,-2.8412,0.1797,-0.0001,-0.0000,1.4155,flat,18.0,3,9.238
4970,159.04,-3.4067,-2.2795,0.1797,-0.0001,-0.0000,1.3882,flat,18.0,3,8.673
4980,159.36,-3.3001,-1.7196,0.1797,-0.0001,-0.0000,1.3651,flat,18.0,3,8.106
4990,159.68,-3.1807,-1.1615,0.1797,-0.0001,-0.0000,1.3452,flat,18.0,3,7.537
5000,160.00,-3.0504,-0.6052,0.1797,-0.0001,-0.0000,1.3278,flat,18.0,3,6.967
5010,160.32,-2.9106,-0.0508,0.1797,-0.0001,-0.0000,1.3125,flat,18.0,3,6.397
5020,160.64,-2.7625,0.5019,0.1797,-0.0000,-0.0000,1.2988,flat,18.0,3,5.825
5030,160.96,-2.6068,1.0529,0.1797,-0.0000,-0.0000,1.2865,flat,18.0,3,5.253
5040,161.28,-2.4445,1.6022,0.1797,-0.0000,-0.0000,1.2751,flat,18.0,3,4.681
5050,161.60,-2.2759,2.1498,0.1797,-0.0000,-0.0000,1.2646,flat,18.0,3,4.108
5060,161.92,-2.1016,2.6958,0.1797,-0.0000,-0.0000,1.2545,flat,18.0,3,3.535
5070,162.24,-1.9219,3.2400,0.1797,-0.0000,-0.0000,1.2448,flat,18.0,3,2.962
5080,162.56,-1.7368,3.7825,0.1797,-0.0000,0.0000,1.2349,flat,18.0,3,2.389
5090,162.88,-1.5464,4.3228,0.1797,-0.0000,0.0000,1.2244,flat,18.0,3,1.816
5100,163.20,-1.3503,4.8606,0.1797,-0.0000,0.0000,1.2124,flat,18.0,3,1.243
5110,163.52,-1.1567,5.3846,0.1797,-0.0000,0.0003,1.1545,flat,18.0,0,10.313
5120,163.84,-0.9814,5.6967,0.1798,0.0003,0.0001,0.7688,flat,18.0,0,10.492
5130,164.16,-0.7119,5.9000,0.1798,0.0002,-0.0001,0.3850,flat,18.0,0,10.539
5140,164.48,-0.3342,6.0286,0.1799,0.0000,-0.0001,0.0229,flat,18.0,0,10.483
5150,164.80,0.1184,6.0156,0.1799,-0.0001,-0.0000,-0.2698,flat,18.0,0,10.282
5160,165.12,0.5842,5.8585,0.1799,-0.0001,-0.0000,-0.4835,flat,18.0,0,9.958
5170,165.44,1.0301,5.5905,0.1799,-0.0001,-0.0000,-0.6462,flat,18.0,0,9.551
5180,165.76,1.4439,5.2435,0.1798,-0.0003,-0.0000,-0.7637,flat,18.0,0,9.089
5190,166.08,1.8223,4.8478,0.1798,-0.0004,-0.0000,-0.8605,flat,18.0,0,8.600
5200,166.40,2.1692,4.4150,0.1798,-0.0004,-0.0000,-0.9454,flat,18.0,0,8.090
5210,166.72,2.4842,3.9525,0.1798,-0.0003,-0.0000,-1.0196,flat,18.0,0,7.564
5220,167.04,2.7685,3.4666,0.1797,-0.0002,-0.0000,-1.0845,flat,18.0,0,7.028
5230,167.36,3.0236,2.9623,0.1797,-0.0002,-0.0000,-1.1416,flat,18.0,0,6.483
5240,167.68,3.2511,2.4433,0.1797,-0.0002,-0.0000,-1.1920,flat,18.0,0,5.932
5250,168.00,3.4539,1.9139,0.1797,-0.0002,-0.0000,-1.2350,flat,18.0,0,5.377
5260,168.32,3.6352,1.3761,0.1797,-0.0001,-0.0000,-1.2736,flat,18.0,0,4.820
5270,168.64,3.7964,0.8312,0.1797,-0.0001,-0.0000,-1.3096,flat,18.0,0,4.260
5280,168.96,3.9387,0.2805,0.1797,-0.0001,-0.0000,-1.3436,flat,18.0,0,3.699
5290,169.28,4.0625,-0.2749,0.1797,-0.0001,-0.0000,-1.3767,flat,18.0,0,3.136
5300,169.60,4.1681,-0.8341,0.1797,-0.0001,-0.0000,-1.4102,flat,18.0,0,2.573
5310,169.92,4.2548,-1.3960,0.1797,-0.0001,0.0000,-1.4460,flat,18.0,0,2.011
5320,170.24,4.3210,-1.9595,0.1797,-0.0001,0.0000,-1.4886,flat,18.0,0,1.450
5330,170.56,4.3620,-2.5228,0.1797,-0.0002,0.0000,-1.5536,flat,18.0,0,0.893
5340,170.88,4.3611,-3.0660,0.1799,-0.0001,0.0000,-1.7128,flat,18.0,1,7.327
5350,171.20,4.2655,-3.5893,0.1799,-0.0001,-0.0000,-1.8850,flat,18.0,1,6.890
5360,171.52,4.0957,-4.0654,0.1798,-0.0001,-0.0002,-1.9835,flat,18.0,1,6.442
5370,171.84,3.8601,-4.5591,0.1798,-0.0004,-0.0000,-2.0883,flat,18.0,1,5.941
5380,172.16,3.5728,-5.0313,0.1798,-0.0003,-0.0000,-2.1685,flat,18.0,1,5.422
5390,172.48,3.2482,-5.4847,0.1797,-0.0002,-0.0000,-2.2301,flat,18.0,1,4.890
5400,172.80,2.8958,-5.9176,0.1797,-0.0002,-0.0000,-2.2887,flat,18.0,1,4.353
5410,173.12,2.5180,-6.3292,0.1797,-0.0002,-0.0000,-2.3452,flat,18.0,1,3.812
5420,173.44,2.1169,-6.7196,0.1797,-0.0002,-0.0000,-2.3986,flat,18.0,1,3.267
5430,173.76,1.6951,-7.0879,0.1797,-0.0002,-0.0000,-2.4530,flat,18.0,1,2.719
5440,174.08,1.2536,-7.4333,0.1797,-0.0002,-0.0000,-2.5109,flat,18.0,1,2.170
5450,174.40,0.7928,-7.7536,0.1797,-0.0002,-0.0000,-2.5766,flat,18.0,1,1.620
5460,174.72,0.3134,-8.0410,0.1798,-0.0003,0.0000,-2.6607,flat,18.0,1,1.072
5470,175.04,-0.1542,-8.2609,0.1798,0.0001,0.0002,-2.8447,flat,18.0,2,5.336
5480,175.36,-0.5791,-8.3651,0.1799,-0.0000,-0.0000,3.0942,flat,18.0,2,5.187
5490,175.68,-1.0434,-8.3181,0.1799,-0.0001,0.0004,2.8351,rough,14.0,2,4.919
5500,176.00,-1.4831,-8.1593,0.1799,0.0000,-0.0000,2.6616,flat,18.0,2,4.589
5510,176.32,-1.9256,-7.8918,0.1799,-0.0000,-0.0000,2.4802,flat,18.0,2,4.180
5520,176.64,-2.3258,-7.5390,0.1799,-0.0002,-0.0000,2.3419,flat,18.0,2,3.726
5530,176.96,-2.6822,-7.1309,0.1799,-0.0003,-0.0000,2.2162,flat,18.0,2,3.249
5540,177.28,-2.9929,-6.6784,0.1799,-0.0003,-0.0000,2.0937,flat,18.0,2,2.756
5550,177.60,-3.2516,-6.1896,0.1799,-0.0003,-0.0000,1.9720,flat,18.0,2,2.253
5560,177.92,-3.4524,-5.6725,0.1799,-0.0003,-0.0000,1.8462,flat,18.0,2,1.744
5570,178.24,-3.5881,-5.1356,0.1799,-0.0001,-0.0000,1.7064,flat,18.0,2,1.237
5580,178.56,-3.6440,-4.5914,0.1799,-0.0003,0.0001,1.5524,flat,18.0,3,10.966
5590,178.88,-3.6224,-4.0281,0.1798,-0.0002,-0.0000,1.4983,flat,18.0,3,10.415
5600,179.20,-3.5799,-3.5140,0.1797,-0.0001,-0.0002,1.4719,flat,18.0,3,9.908
5610,179.52,-3.5182,-2.9507,0.1797,-0.0001,-0.0000,1.4333,flat,18.0,3,9.349
5620,179.84,-3.4362,-2.3884,0.1797,-0.0001,-0.0000,1.4023,flat,18.0,3,8.786
5630,180.16,-3.3372,-1.8277,0.1797,-0.0001,-0.0000,1.3761,flat,18.0,3,8.220
5640,180.48,-3.2239,-1.2690,0.1797,-0.0001,-0.0000,1.3538,flat,18.0,3,7.653
5650,180.80,-3.0982,-0.7122,0.1797,-0.0001,-0.0000,1.3345,flat,18.0,3,7.084
5660,181.12,-2.9620,-0.1573,0.1797,-0.0001,-0.0000,1.3175,flat,18.0,3,6.514
5670,181.44,-2.8165,0.3957,0.1797,-0.0001,-0.0000,1.3024,flat,18.0,3,5.943
5680,181.76,-2.6628,0.9469,0.1797,-0.0000,-0.0000,1.2889,flat,18.0,3,5.371
5690,182.08,-2.5017,1.4963,0.1797,-0.0000,-0.0000,1.2765,flat,18.0,3,4.799
5700,182.40,-2.3338,2.0438,0.1797,-0.0000,-0.0000,1.2650,flat,18.0,3,4.227
5710,182.72,-2.1597,2.5896,0.1797,-0.0000,-0.0000,1.2541,flat,18.0,3,3.654
5720,183.04,-1.9796,3.1336,0.1797,-0.0000,-0.0000,1.2436,flat,18.0,3,3.081
5730,183.36,-1.7939,3.6756,0.1797,-0.0000,0.0000,1.2331,flat,18.0,3,2.508
5740,183.68,-1.6025,4.2154,0.1797,-0.0000,0.0000,1.2222,flat,18.0,3,1.936
5750,184.00,-1.4052,4.7526,0.1797,-0.0000,0.0000,1.2098,flat,18.0,3,1.363
5760,184.32,-1.2012,5.2862,0.1797,-0.0001,0.0000,1.1940,flat,18.0,0,0.793
5770,184.64,-1.0347,5.6448,0.1798,0.0003,0.0001,0.8415,flat,18.0,0,10.473
5780,184.96,-0.8058,5.8410,0.1798,0.0002,-0.0001,0.4946,flat,18.0,0,10.532
5790,185.28,-0.4638,5.9945,0.1799,0.0001,-0.0001,0.1284,flat,18.0,0,10.510
5800,185.60,-0.0262,6.0283,0.1799,0.0000,-0.0000,-0.1928,flat,18.0,0,10.352
5810,185.92,0.4408,5.9115,0.1799,-0.0000,-0.0000,-0.4266,flat,18.0,0,10.061
5820,186.24,0.8948,5.6734,0.1799,-0.0001,-0.0000,-0.6013,flat,18.0,0,9.675
5830,186.56,1.3191,5.3468,0.1799,-0.0002,-0.0000,-0.7315,flat,18.0,0,9.226
5840,186.88,1.7079,4.9642,0.1798,-0.0004,-0.0000,-0.8321,flat,18.0,0,8.744
5850,187.20,2.0645,4.5419,0.1798,-0.0004,-0.0000,-0.9204,flat,18.0,0,8.239
5860,187.52,2.3894,4.0879,0.1798,-0.0003,-0.0000,-0.9977,flat,18.0,0,7.718
5870,187.84,2.6831,3.6087,0.1797,-0.0002,-0.0000,-1.0652,flat,18.0,0,7.185
5880,188.16,2.9472,3.1096,0.1797,-0.0002,-0.0000,-1.1245,flat,18.0,0,6.642
5890,188.48,3.1829,2.5948,0.1797,-0.0002,-0.0000,-1.1768,flat,18.0,0,6.093
5900,188.80,3.3933,2.0682,0.1797,-0.0002,-0.0000,-1.2221,flat,18.0,0,5.539
5910,189.12,3.5811,1.5330,0.1797,-0.0001,-0.0000,-1.2617,flat,18.0,0,4.983
5920,189.44,3.7485,0.9902,0.1797,-0.0001,-0.0000,-1.2984,flat,18.0,0,4.423
5930,189.76,3.8967,0.4412,0.1797,-0.0001,-0.0000,-1.3329,flat,18.0,0,3.863
5940,190.08,4.0264,-0.1128,0.1797,-0.0001,-0.0000,-1.3663,flat,18.0,0,3.300
5950,190.40,4.1377,-0.6709,0.1797,-0.0001,-0.0000,-1.3995,flat,18.0,0,2.737
5960,190.72,4.2305,-1.2320,0.1797,-0.0001,0.0000,-1.4344,flat,18.0,0,2.175
5970,191.04,4.3033,-1.7952,0.1797,-0.0001,0.0000,-1.4742,flat,18.0,0,1.613
5980,191.36,4.3529,-2.3588,0.1797,-0.0002,0.0000,-1.5294,flat,18.0,0,1.054
5990,191.68,4.3686,-2.9124,0.1798,-0.0001,0.0001,-1.6539,flat,18.0,1,7.444
6000,192.00,4.3045,-3.4372,0.1799,-0.0001,-0.0000,-1.8392,flat,18.0,1,7.024
6010,192.32,4.1532,-3.9184,0.1798,-0.0001,-0.0003,-1.9477,flat,18.0,1,6.583
6020,192.64,3.9356,-4.4176,0.1799,-0.0004,-0.0001,-2.0602,flat,18.0,1,6.090
6030,192.96,3.6620,-4.8957,0.1798,-0.0004,-0.0000,-2.1477,flat,18.0,1,5.575
6040,193.28,3.3468,-5.3546,0.1797,-0.0002,-0.0000,-2.2126,flat,18.0,1,5.046
6050,193.60,3.0023,-5.7937,0.1797,-0.0002,-0.0000,-2.2717,flat,18.0,1,4.511
6060,193.92,2.6317,-6.2115,0.1797,-0.0002,-0.0000,-2.3291,flat,18.0,1,3.971
6070,194.24,2.2371,-6.6081,0.1797,-0.0002,-0.0000,-2.3830,flat,18.0,1,3.427
6080,194.56,1.8212,-6.9828,0.1797,-0.0002,-0.0000,-2.4370,flat,18.0,1,2.880
6090,194.88,1.3853,-7.3352,0.1797,-0.0002,-0.0000,-2.4936,flat,18.0,1,2.331
6100,195.20,0.9301,-7.6631,0.1797,-0.0002,-0.0000,-2.5563,flat,18.0,1,1.781
6110,195.52,0.4560,-7.9611,0.1798,-0.0003,0.0000,-2.6332,flat,18.0,1,1.232
6120,195.84,-0.0263,-8.2093,0.1798,-0.0002,0.0004,-2.7723,flat,18.0,2,5.371
6130,196.16,-0.4400,-8.3390,0.1799,0.0000,-0.0000,-3.1059,flat,18.0,2,5.239
6140,196.48,-0.9072,-8.3303,0.1799,-0.0001,-0.0000,2.8836,flat,18.0,2,4.994
6150,196.80,-1.3435,-8.1955,0.1798,-0.0001,-0.0001,2.7186,flat,18.0,2,4.678
6160,197.12,-1.7960,-7.9566,0.1799,-0.0001,-0.0000,2.5259,flat,18.0,2,4.285
6170,197.44,-2.2091,-7.6235,0.1799,-0.0001,-0.0000,2.3783,flat,18.0,2,3.839
6180,197.76,-2.5777,-7.2295,0.1799,-0.0003,-0.0000,2.2523,flat,18.0,2,3.367
6190,198.08,-2.9026,-6.7890,0.1799,-0.0003,-0.0000,2.1296,flat,18.0,2,2.877
6200,198.40,-3.1773,-6.3100,0.1799,-0.0003,-0.0000,2.0085,flat,18.0,2,2.375
6210,198.72,-3.3961,-5.8006,0.1799,-0.0003,-0.0000,1.8847,flat,18.0,2,1.867
6220,199.04,-3.5521,-5.2687,0.1799,-0.0002,-0.0000,1.7498,flat,18.0,2,1.359
6230,199.36,-3.6350,-4.7247,0.1799,-0.0001,0.0000,1.5852,flat,18.0,2,0.863
6240,199.68,-3.6257,-4.1688,0.1798,-0.0002,-0.0001,1.5108,flat,18.0,3,10.552
6250,200.00,-3.5859,-3.6036,0.1797,-0.0002,-0.0000,1.4651,flat,18.0,3,9.996
6260,200.32,-3.5214,-3.0398,0.1797,-0.0001,-0.0000,1.4294,flat,18.0,3,9.435
6270,200.64,-3.4373,-2.4775,0.1797,-0.0001,-0.0000,1.3998,flat,18.0,3,8.872
6280,200.96,-3.3370,-1.9168,0.1797,-0.0001,-0.0000,1.3748,flat,18.0,3,8.305
6290,201.28,-3.2230,-1.3579,0.1797,-0.0001,-0.0000,1.3535,flat,18.0,3,7.737
6300,201.60,-3.0973,-0.8009,0.1797,-0.0001,-0.0000,1.3350,flat,18.0,3,7.168
6310,201.92,-2.9614,-0.2457,0.1797,-0.0001,-0.0000,1.3187,flat,18.0,3,6.598
6320,202.24,-2.8166,0.3077,0.1797,-0.0001,-0.0000,1.3043,flat,18.0,3,6.027
6330,202.56,-2.6639,0.8593,0.1797,-0.0000,-0.0000,1.2913,flat,18.0,3,5.455
6340,202.88,-2.5042,1.4092,0.1797,-0.0000,-0.0000,1.2795,flat,18.0,3,4.883
6350,203.20,-2.3380,1.9575,0.1797,-0.0000,-0.0000,1.2685,flat,18.0,3,4.310
6360,203.52,-2.1658,2.5040,0.1797,-0.0000,-0.0000,1.2582,flat,18.0,3,3.737
6370,203.84,-1.9880,3.0489,0.1797,-0.0000,-0.0000,1.2482,flat,18.0,3,3.164
6380,204.16,-1.8048,3.5919,0.1797,-0.0000,0.0000,1.2382,flat,18.0,3,2.591
6390,204.48,-1.6162,4.1330,0.1797,-0.0000,0.0000,1.2279,flat,18.0,3,2.018
6400,204.80,-1.4220,4.6716,0.1797,-0.0000,0.0000,1.2165,flat,18.0,3,1.445
6410,205.12,-1.2216,5.2071,0.1797,-0.0000,0.0000,1.2021,flat,18.0,3,0.874
6420,205.44,-1.0547,5.6196,0.1798,0.0003,0.0001,0.9254,flat,18.0,0,10.462
6430,205.76,-0.8205,5.8498,0.1798,0.0002,-0.0000,0.5348,flat,18.0,0,10.547
6440,206.08,-0.4885,6.0147,0.1799,0.0001,-0.0001,0.1614,flat,18.0,0,10.539
6450,206.40,-0.0574,6.0623,0.1799,-0.0000,-0.0000,-0.1667,flat,18.0,0,10.396
6460,206.72,0.4085,5.9582,0.1799,-0.0001,-0.0000,-0.4068,flat,18.0,0,10.116
6470,207.04,0.8643,5.7296,0.1799,-0.0001,-0.0000,-0.5880,flat,18.0,0,9.738
6480,207.36,1.2911,5.4092,0.1799,-0.0002,-0.0000,-0.7229,flat,18.0,0,9.294
6490,207.68,1.6826,5.0303,0.1798,-0.0004,-0.0000,-0.8250,flat,18.0,0,8.814
6500,208.00,2.0415,4.6107,0.1798,-0.0004,-0.0000,-0.9145,flat,18.0,0,8.312
6510,208.32,2.3685,4.1587,0.1798,-0.0003,-0.0000,-0.9928,flat,18.0,0,7.792
6520,208.64,2.6642,3.6810,0.1797,-0.0003,-0.0000,-1.0612,flat,18.0,0,7.259
6530,208.96,2.9301,3.1830,0.1797,-0.0002,-0.0000,-1.1212,flat,18.0,0,6.717
6540,209.28,3.1674,2.6691,0.1797,-0.0002,-0.0000,-1.1741,flat,18.0,0,6.169
6550,209.60,3.3790,2.1430,0.1797,-0.0002,0.0000,-1.2201,flat,18.0,0,5.615
6560,209.92,3.5678,1.6082,0.1797,-0.0001,-0.0000,-1.2599,flat,18.0,0,5.059
6570,210.24,3.7362,1.0657,0.1797,-0.0001,-0.0000,-1.2967,flat,18.0,0,4.500
6580,210.56,3.8853,0.5170,0.1797,-0.0001,-0.0000,-1.3313,flat,18.0,0,3.939
6590,210.88,4.0158,-0.0368,0.1797,-0.0001,-0.0000,-1.3646,flat,18.0,0,3.377
6600,211.20,4.1282,-0.5947,0.1797,-0.0001,-0.0000,-1.3975,flat,18.0,0,2.814
6610,211.52,4.2221,-1.1558,0.1797,-0.0001,0.0000,-1.4319,flat,18.0,0,2.251
6620,211.84,4.2966,-1.7190,0.1797,-0.0001,0.0000,-1.4704,flat,18.0,0,1.689
6630,212.16,4.3484,-2.2828,0.1797,-0.0002,0.0000,-1.5218,flat,18.0,0,1.129
6640,212.48,4.3694,-2.8395,0.1798,-0.0001,0.0000,-1.6320,flat,18.0,1,7.498
6650,212.80,4.3179,-3.3663,0.1799,-0.0001,-0.0000,-1.8191,flat,18.0,1,7.083
6660,213.12,4.1763,-3.8547,0.1798,0.0000,0.0001,-1.9445,flat,18.0,1,6.643
6670,213.44,3.9642,-4.3505,0.1799,-0.0003,-0.0001,-2.0481,flat,18.0,1,6.155
6680,213.76,3.6966,-4.8313,0.1798,-0.0004,-0.0000,-2.1381,flat,18.0,1,5.642
6690,214.08,3.3858,-5.2927,0.1797,-0.0003,-0.0000,-2.2049,flat,18.0,1,5.114
6700,214.40,3.0448,-5.7345,0.1797,-0.0002,-0.0000,-2.2640,flat,18.0,1,4.579
6710,214.72,2.6776,-6.1553,0.1797,-0.0002,-0.0000,-2.3215,flat,18.0,1,4.040
6720,215.04,2.2860,-6.5548,0.1797,-0.0002,-0.0000,-2.3756,flat,18.0,1,3.496
6730,215.36,1.8730,-6.9327,0.1797,-0.0002,-0.0000,-2.4292,flat,18.0,1,2.949
6740,215.68,1.4399,-7.2884,0.1797,-0.0002,-0.0000,-2.4851,flat,18.0,1,2.401
6750,216.00,0.9875,-7.6201,0.1797,-0.0002,-0.0000,-2.5465,flat,18.0,1,1.851
6760,216.32,0.5161,-7.9230,0.1798,-0.0003,0.0000,-2.6207,flat,18.0,1,1.301
6770,216.64,0.0267,-8.1862,0.1798,-0.0004,0.0000,-2.7282,flat,18.0,2,0.757
6780,216.96,-0.3904,-8.3349,0.1799,0.0001,-0.0000,-3.0489,flat,18.0,2,5.263
6790,217.28,-0.8496,-8.3526,0.1799,-0.0001,-0.0000,2.9242,flat,18.0,2,5.041
6800,217.60,-1.2709,-8.2424,0.1798,-0.0002,-0.0002,2.7787,flat,18.0,2,4.751
6810,217.92,-1.7289,-8.0343,0.1799,-0.0001,-0.0000,2.5710,flat,18.0,2,4.381
6820,218.24,-2.1516,-7.7225,0.1799,-0.0001,-0.0000,2.4084,flat,18.0,2,3.950
6830,218.56,-2.5295,-7.3406,0.1799,-0.0002,-0.0000,2.2787,flat,18.0,2,3.485
6840,218.88,-2.8634,-6.9094,0.1799,-0.0003,-0.0000,2.1530,flat,18.0,2,3.001
6850,219.20,-3.1477,-6.4374,0.1799,-0.0003,-0.0000,2.0297,flat,18.0,2,2.504
6860,219.52,-3.3764,-5.9328,0.1799,-0.0003,-0.0000,1.9052,flat,18.0,2,1.998
6870,219.84,-3.5431,-5.4039,0.1799,-0.0002,-0.0000,1.7727,flat,18.0,2,1.490
6880,220.16,-3.6387,-4.8606,0.1799,-0.0001,0.0000,1.6172,flat,18.0,2,0.990
6890,220.48,-3.6419,-4.3081,0.1798,-0.0002,-0.0001,1.5182,flat,18.0,3,10.691
6900,220.80,-3.6062,-3.7429,0.1798,-0.0002,-0.0000,1.4710,flat,18.0,3,10.136
6910,221.12,-3.5450,-3.1790,0.1797,-0.0001,-0.0000,1.4343,flat,18.0,3,9.576
6920,221.44,-3.4637,-2.6164,0.1797,-0.0001,-0.0000,1.4040,flat,18.0,3,9.012
6930,221.76,-3.3657,-2.0554,0.1797,-0.0001,-0.0000,1.3785,flat,18.0,3,8.446
6940,222.08,-3.2538,-1.4962,0.1797,-0.0001,-0.0000,1.3568,flat,18.0,3,7.879
6950,222.40,-3.1298,-0.9388,0.1797,-0.0001,-0.0000,1.3379,flat,18.0,3,7.310
6960,222.72,-2.9956,-0.3833,0.1797,-0.0001,-0.0000,1.3215,flat,18.0,3,6.739
6970,223.04,-2.8523,0.1704,0.1797,-0.0001,-0.0000,1.3069,flat,18.0,3,6.168
6980,223.36,-2.7011,0.7225,0.1797,-0.0000,-0.0000,1.2938,flat,18.0,3,5.597
6990,223.68,-2.5427,1.2728,0.1797,-0.0000,-0.0000,1.2818,flat,18.0,3,5.024
7000,224.00,-2.3778,1.8214,0.1797,-0.0000,-0.0000,1.2708,flat,18.0,3,4.452
7010,224.32,-2.2069,2.3684,0.1797,-0.0000,-0.0000,1.2605,flat,18.0,3,3.879
7020,224.64,-2.0304,2.9136,0.1797,-0.0000,-0.0000,1.2506,flat,18.0,3,3.306
7030,224.96,-1.8485,3.4572,0.1797,-0.0000,-0.0000,1.2408,flat,18.0,3,2.733
7040,225.28,-1.6613,3.9988,0.1797,-0.0000,0.0000,1.2308,flat,18.0,3,2.160
7050,225.60,-1.4687,4.5382,0.1797,-0.0000,0.0000,1.2199,flat,18.0,3,1.587
7060,225.92,-1.2701,5.0748,0.1797,-0.0000,0.0000,1.2067,flat,18.0,3,1.015
7070,226.24,-1.0984,5.5343,0.1798,0.0002,0.0003,1.0051,flat,18.0,0,10.410
7080,226.56,-0.8833,5.7843,0.1798,0.0003,-0.0000,0.6142,flat,18.0,0,10.520
7090,226.88,-0.5740,5.9643,0.1799,0.0001,-0.0001,0.2365,flat,18.0,0,10.533
7100,227.20,-0.1582,6.0421,0.1799,-0.0000,-0.0000,-0.1065,flat,18.0,0,10.420
7110,227.52,0.3056,5.9682,0.1799,-0.0001,-0.0000,-0.3627,flat,18.0,0,10.165
7120,227.84,0.7659,5.7627,0.1799,-0.0001,-0.0000,-0.5538,flat,18.0,0,9.803
7130,228.16,1.1996,5.4592,0.1799,-0.0001,-0.0000,-0.6991,flat,18.0,0,9.371
7140,228.48,1.5991,5.0902,0.1798,-0.0003,-0.0000,-0.8040,flat,18.0,0,8.896
7150,228.80,1.9648,4.6787,0.1798,-0.0004,-0.0000,-0.8958,flat,18.0,0,8.398
7160,229.12,2.2989,4.2332,0.1798,-0.0004,-0.0000,-0.9763,flat,18.0,0,7.881
7170,229.44,2.6015,3.7606,0.1797,-0.0003,-0.0000,-1.0466,flat,18.0,0,7.351
7180,229.76,2.8740,3.2668,0.1797,-0.0002,-0.0000,-1.1082,flat,18.0,0,6.811
7190,230.08,3.1177,2.7562,0.1797,-0.0002,-0.0000,-1.1625,flat,18.0,0,6.263
7200,230.40,3.3351,2.2324,0.1797,-0.0002,-0.0000,-1.2102,flat,18.0,0,5.710
7210,230.72,3.5289,1.6996,0.1797,-0.0001,-0.0000,-1.2509,flat,18.0,0,5.155
7220,231.04,3.7020,1.1588,0.1797,-0.0001,-0.0000,-1.2883,flat,18.0,0,4.596
7230,231.36,3.8556,0.6115,0.1797,-0.0001,-0.0000,-1.3233,flat,18.0,0,4.036
7240,231.68,3.9904,0.0588,0.1797,-0.0001,-0.0000,-1.3569,flat,18.0,0,3.474
7250,232.00,4.1069,-0.4982,0.1797,-0.0001,-0.0000,-1.3900,flat,18.0,0,2.911
7260,232.32,4.2051,-1.0586,0.1797,-0.0001,-0.0000,-1.4241,flat,18.0,0,2.348
7270,232.64,4.2839,-1.6214,0.1797,-0.0001,0.0000,-1.4618,flat,18.0,0,1.786
7280,232.96,4.3408,-2.1852,0.1797,-0.0002,0.0000,-1.5102,flat,18.0,0,1.226
7290,233.28,4.3691,-2.7450,0.1798,-0.0002,0.0000,-1.6027,flat,18.0,1,7.568
7300,233.60,4.3355,-3.2756,0.1799,-0.0001,-0.0000,-1.7873,flat,18.0,1,7.159
7310,233.92,4.2059,-3.7772,0.1798,0.0001,0.0002,-1.9251,rough,14.0,1,6.717
7320,234.24,4.0086,-4.2656,0.1799,-0.0003,-0.0001,-2.0288,flat,18.0,1,6.244
7330,234.56,3.7506,-4.7504,0.1798,-0.0004,-0.0000,-2.1235,flat,18.0,1,5.735
7340,234.88,3.4466,-5.2150,0.1798,-0.0003,-0.0000,-2.1941,flat,18.0,1,5.210
7350,235.20,3.1104,-5.6604,0.1797,-0.0002,-0.0000,-2.2537,flat,18.0,1,4.675
7360,235.52,2.7477,-6.0849,0.1797,-0.0002,-0.0000,-2.3117,flat,18.0,1,4.137
7370,235.84,2.3601,-6.4880,0.1797,-0.0002,-0.0000,-2.3666,flat,18.0,1,3.594
7380,236.16,1.9506,-6.8695,0.1797,-0.0002,-0.0000,-2.4201,flat,18.0,1,3.048
7390,236.48,1.5208,-7.2290,0.1797,-0.0002,-0.0000,-2.4756,flat,18.0,1,2.500
7400,236.80,1.0715,-7.5647,0.1797,-0.0002,-0.0000,-2.5358,flat,18.0,1,1.950
7410,237.12,0.6032,-7.8731,0.1797,-0.0003,0.0000,-2.6070,flat,18.0,1,1.400
7420,237.44,0.1166,-8.1440,0.1798,-0.0004,0.0000,-2.7056,flat,18.0,1,0.854
7430,237.76,-0.3157,-8.3180,0.1799,0.0001,-0.0000,-2.9840,flat,18.0,2,5.290
7440,238.08,-0.7655,-8.3647,0.1799,-0.0001,-0.0000,2.9743,flat,18.0,2,5.092
7450,238.40,-1.2059,-8.2672,0.1799,-0.0002,-0.0001,2.7886,flat,18.0,2,4.802
7460,238.72,-1.6645,-8.0648,0.1799,-0.0001,-0.0000,2.5838,flat,18.0,2,4.433
7470,239.04,-2.0911,-7.7589,0.1799,-0.0001,-0.0000,2.4200,flat,18.0,2,4.003
7480,239.36,-2.4734,-7.3816,0.1799,-0.0002,-0.0000,2.2912,flat,18.0,2,3.538
7490,239.68,-2.8123,-6.9548,0.1799,-0.0003,-0.0000,2.1669,flat,18.0,2,3.054
7500,240.00,-3.1029,-6.4868,0.1799,-0.0003,-0.0000,2.0451,flat,18.0,2,2.556
7510,240.32,-3.3392,-5.9857,0.1799,-0.0003,-0.0000,1.9226,flat,18.0,2,2.049
7520,240.64,-3.5150,-5.4596,0.1799,-0.0002,-0.0000,1.7928,flat,18.0,2,1.540
7530,240.96,-3.6218,-4.9176,0.1799,-0.0001,0.0000,1.6421,flat,18.0,2,1.038
7540,241.28,-3.6367,-4.3669,0.1798,-0.0002,-0.0001,1.5295,flat,18.0,3,10.747
7550,241.60,-3.6070,-3.8018,0.1798,-0.0002,-0.0000,1.4796,rough,14.0,3,10.193
7560,241.92,-3.5532,-3.2478,0.1797,-0.0001,-0.0000,1.4465,flat,18.0,3,9.644
7570,242.24,-3.4785,-2.6847,0.1797,-0.0001,-0.0000,1.4135,flat,18.0,3,9.082
7580,242.56,-3.3857,-2.1233,0.1797,-0.0001,-0.0000,1.3861,flat,18.0,3,8.517
7590,242.88,-3.2778,-1.5637,0.1797,-0.0001,-0.0000,1.3627,flat,18.0,3,7.950
7600,243.20,-3.1571,-1.0060,0.1797,-0.0001,-0.0000,1.3426,flat,18.0,3,7.382
7610,243.52,-3.0253,-0.4501,0.1797,-0.0001,-0.0000,1.3250,flat,18.0,3,6.812
7620,243.84,-2.8840,0.1039,0.1797,-0.0001,-0.0000,1.3095,flat,18.0,3,6.241
7630,244.16,-2.7341,0.6561,0.1797,-0.0000,-0.0000,1.2956,flat,18.0,3,5.670
7640,244.48,-2.5767,1.2065,0.1797,-0.0000,-0.0000,1.2831,flat,18.0,3,5.098
7650,244.80,-2.4125,1.7551,0.1797,-0.0000,-0.0000,1.2715,flat,18.0,3,4.526
7660,245.12,-2.2419,2.3020,0.1797,-0.0000,-0.0000,1.2607,flat,18.0,3,3.953
7670,245.44,-2.0654,2.8472,0.1797,-0.0000,-0.0000,1.2503,flat,18.0,3,3.380
7680,245.76,-1.8833,3.3905,0.1797,-0.0000,-0.0000,1.2401,flat,18.0,3,2.807
7690,246.08,-1.6957,3.9319,0.1797,-0.0000,0.0000,1.2298,flat,18.0,3,2.234
7700,246.40,-1.5025,4.4710,0.1797,-0.0000,0.0000,1.2186,flat,18.0,3,1.661
7710,246.72,-1.3032,5.0073,0.1797,-0.0000,0.0000,1.2054,flat,18.0,3,1.089
7720,247.04,-1.1202,5.5041,0.1798,0.0000,0.0004,1.0754,flat,18.0,0,10.396
7730,247.36,-0.9232,5.7780,0.1798,0.0003,0.0000,0.6855,flat,18.0,0,10.534
7740,247.68,-0.6332,5.9695,0.1798,0.0001,-0.0001,0.3040,flat,18.0,0,10.564
7750,248.00,-0.2340,6.0720,0.1799,-0.0000,-0.0001,-0.0499,flat,18.0,0,10.479
7760,248.32,0.2255,6.0252,0.1799,-0.0001,-0.0000,-0.3214,flat,18.0,0,10.248
7770,248.64,0.6887,5.8409,0.1799,-0.0001,-0.0000,-0.5231,flat,18.0,0,9.904
7780,248.96,1.1279,5.5529,0.1799,-0.0001,-0.0000,-0.6770,flat,18.0,0,9.483
7790,249.28,1.5335,5.1930,0.1798,-0.0003,-0.0000,-0.7869,flat,18.0,0,9.014
7800,249.60,1.9045,4.7881,0.1798,-0.0004,-0.0000,-0.8811,flat,18.0,0,8.519
7810,249.92,2.2439,4.3479,0.1798,-0.0004,-0.0000,-0.9637,flat,18.0,0,8.006
7820,250.24,2.5516,3.8794,0.1798,-0.0003,-0.0000,-1.0358,flat,18.0,0,7.478
7830,250.56,2.8288,3.3887,0.1797,-0.0002,-0.0000,-1.0989,flat,18.0,0,6.939
7840,250.88,3.0769,2.8805,0.1797,-0.0002,-0.0000,-1.1544,flat,18.0,0,6.393
7850,251.20,3.2983,2.3585,0.1797,-0.0002,-0.0000,-1.2035,flat,18.0,0,5.841
7860,251.52,3.4955,1.8270,0.1797,-0.0001,-0.0000,-1.2449,flat,18.0,0,5.285
7870,251.84,3.6717,1.2873,0.1797,-0.0001,-0.0000,-1.2828,flat,18.0,0,4.727
7880,252.16,3.8281,0.7409,0.1797,-0.0001,-0.0000,-1.3181,flat,18.0,0,4.167
7890,252.48,3.9658,0.1889,0.1797,-0.0001,-0.0000,-1.3517,flat,18.0,0,3.605
7900,252.80,4.0853,-0.3675,0.1797,-0.0001,-0.0000,-1.3845,flat,18.0,0,3.043
7910,253.12,4.1865,-0.9275,0.1797,-0.0001,-0.0000,-1.4180,flat,18.0,0,2.480
7920,253.44,4.2689,-1.4900,0.1797,-0.0001,0.0000,-1.4542,flat,18.0,0,1.917
7930,253.76,4.3304,-2.0539,0.1797,-0.0001,0.0000,-1.4986,flat,18.0,0,1.356
7940,254.08,4.3656,-2.6166,0.1798,-0.0003,0.0000,-1.5707,flat,18.0,0,0.801
7950,254.40,4.3529,-3.1547,0.1799,-0.0000,-0.0000,-1.7434,flat,18.0,1,7.258
7960,254.72,4.2413,-3.6771,0.1799,-0.0001,-0.0000,-1.9076,flat,18.0,1,6.812
7970,255.04,4.0561,-4.1618,0.1798,-0.0002,-0.0001,-2.0090,flat,18.0,1,6.348
7980,255.36,3.8078,-4.6508,0.1798,-0.0004,-0.0000,-2.1078,flat,18.0,1,5.842
7990,255.68,3.5112,-5.1189,0.1798,-0.0003,-0.0000,-2.1824,flat,18.0,1,5.319
8000,256.00,3.1803,-5.5682,0.1797,-0.0002,-0.0000,-2.2424,flat,18.0,1,4.786
