step,time_s,x,y,z,roll,pitch,yaw,terrain,speed,target_idx,dist_to_target
10,0.32,-1.3212,0.8846,0.1837,0.0003,-0.0334,0.0049,rough,14.0,0,6.120
20,0.64,-1.0971,0.8878,0.1798,-0.0008,-0.0001,0.4029,flat,18.0,0,6.308
30,0.96,-0.8364,1.0466,0.1798,-0.0003,-0.0000,0.8530,flat,18.0,0,6.453
40,1.28,-0.6399,1.3292,0.1798,-0.0002,-0.0001,1.2443,flat,18.0,0,6.496
50,1.60,-0.5308,1.7197,0.1799,0.0000,-0.0001,1.6179,flat,18.0,0,6.434
60,1.92,-0.5766,2.1707,0.1799,0.0001,-0.0000,1.9117,flat,18.0,0,6.231
70,2.24,-0.7696,2.6208,0.1799,0.0001,-0.0000,2.1327,flat,18.0,0,5.914
80,2.56,-1.0748,3.0391,0.1799,0.0001,-0.0000,2.3054,flat,18.0,0,5.518
90,2.88,-1.4574,3.4139,0.1799,0.0002,-0.0000,2.4413,flat,18.0,0,5.074
100,3.20,-1.8915,3.7452,0.1799,0.0003,-0.0000,2.5654,flat,18.0,0,4.601
110,3.52,-2.3662,4.0288,0.1799,0.0004,-0.0000,2.6795,flat,18.0,0,4.108
120,3.84,-2.8721,4.2622,0.1798,0.0004,-0.0000,2.7854,flat,18.0,0,3.600
130,4.16,-3.4010,4.4445,0.1798,0.0004,-0.0000,2.8857,flat,18.0,0,3.081
140,4.48,-3.9460,4.5749,0.1798,0.0004,-0.0000,2.9838,flat,18.0,0,2.554
150,4.80,-4.5009,4.6522,0.1798,0.0004,-0.0000,3.0850,flat,18.0,0,2.024
160,5.12,-5.0587,4.6725,0.1798,0.0004,0.0000,-3.0854,flat,18.0,0,1.493
170,5.44,-5.6064,4.6294,0.1799,0.0002,0.0000,-2.9462,flat,18.0,0,0.970
180,5.76,-6.0118,4.5679,0.1797,0.0001,-0.0006,-2.5671,flat,18.0,1,6.831
190,6.08,-6.2152,4.4049,0.1779,0.0127,-0.0002,-2.0226,rough,14.0,1,7.048
200,6.40,-6.3283,4.1606,0.1797,0.0005,0.0001,-1.6056,flat,18.0,1,7.188
210,6.72,-6.3384,3.8770,0.1799,-0.0002,-0.0000,-1.2324,rough,14.0,1,7.239
220,7.04,-6.1873,3.5454,0.1799,-0.0001,-0.0001,-0.9172,flat,18.0,1,7.154
230,7.36,-5.8813,3.2253,0.1799,0.0000,-0.0000,-0.6686,flat,18.0,1,6.935
240,7.68,-5.4725,2.9515,0.1799,0.0000,-0.0000,-0.4404,flat,18.0,1,6.625
250,8.00,-4.9889,2.7541,0.1799,0.0000,-0.0000,-0.2316,flat,18.0,1,6.240
260,8.32,-4.4586,2.6502,0.1799,0.0001,-0.0000,-0.0464,flat,18.0,1,5.794
270,8.64,-3.9085,2.6420,0.1799,0.0001,-0.0000,0.1034,flat,18.0,1,5.303
280,8.96,-3.3594,2.7125,0.1798,0.0004,-0.0000,0.2140,flat,18.0,1,4.787
290,9.28,-2.8186,2.8417,0.1798,0.0004,-0.0000,0.3010,flat,18.0,1,4.256
300,9.60,-2.2889,3.0171,0.1798,0.0003,-0.0000,0.3736,flat,18.0,1,3.716
310,9.92,-1.7720,3.2305,0.1797,0.0002,-0.0000,0.4371,flat,18.0,1,3.170
320,10.24,-1.2691,3.4763,0.1797,0.0002,-0.0000,0.4956,flat,18.0,1,2.619
330,10.56,-0.7817,3.7515,0.1797,0.0002,-0.0000,0.5525,flat,18.0,1,2.067
340,10.88,-0.3120,4.0545,0.1797,0.0002,-0.0000,0.6107,flat,18.0,1,1.515
350,11.20,0.1370,4.3840,0.1797,0.0002,0.0000,0.6741,flat,18.0,1,0.963
360,11.52,0.5125,4.6721,0.1798,0.0004,-0.0000,0.5071,flat,18.0,2,9.505
370,11.84,0.9360,4.8714,0.1799,0.0000,-0.0000,0.2358,flat,18.0,2,9.270
380,12.16,1.3723,4.9564,0.1798,-0.0001,-0.0002,0.0600,flat,18.0,2,8.972
390,12.48,1.8932,4.9648,0.1799,-0.0000,-0.0000,-0.1463,flat,18.0,2,8.573
400,12.80,2.4229,4.8673,0.1799,-0.0001,-0.0000,-0.3017,flat,18.0,2,8.109
410,13.12,2.9403,4.6887,0.1798,-0.0004,-0.0000,-0.4142,flat,18.0,2,7.608
420,13.44,3.4401,4.4531,0.1798,-0.0004,-0.0000,-0.4997,flat,18.0,2,7.086
430,13.76,3.9221,4.1751,0.1797,-0.0003,-0.0000,-0.5679,flat,18.0,2,6.550
440,14.08,4.3871,3.8644,0.1797,-0.0002,-0.0000,-0.6245,flat,18.0,2,6.005
450,14.40,4.8362,3.5274,0.1797,-0.0002,-0.0000,-0.6729,flat,18.0,2,5.454
460,14.72,5.2697,3.1687,0.1797,-0.0001,-0.0000,-0.7134,flat,18.0,2,4.899
470,15.04,5.6899,2.7924,0.1797,-0.0001,-0.0000,-0.7517,flat,18.0,2,4.341
480,15.36,6.0962,2.4000,0.1797,-0.0001,-0.0000,-0.7878,flat,18.0,2,3.780
490,15.68,6.4884,1.9929,0.1797,-0.0001,-0.0000,-0.8229,flat,18.0,2,3.218
500,16.00,6.8656,1.5724,0.1797,-0.0001,0.0000,-0.8587,flat,18.0,2,2.655
510,16.32,7.2269,1.1396,0.1797,-0.0001,0.0000,-0.8957,flat,18.0,2,2.092
520,16.64,7.5707,0.6941,0.1797,-0.0001,0.0000,-0.9387,flat,18.0,2,1.530
530,16.96,7.8926,0.2348,0.1797,-0.0002,0.0000,-0.9974,flat,18.0,2,0.969
540,17.28,8.1389,-0.1914,0.1798,0.0002,0.0001,-1.2000,flat,18.0,3,6.099
550,17.60,8.2775,-0.6214,0.1799,-0.0000,-0.0000,-1.5190,flat,18.0,3,5.908
560,17.92,8.2786,-1.1103,0.1799,0.0000,-0.0000,-1.7873,flat,18.0,3,5.601
570,18.24,8.1449,-1.6057,0.1799,-0.0001,-0.0000,-1.9895,flat,18.0,3,5.206
580,18.56,7.9053,-2.0788,0.1799,-0.0001,-0.0000,-2.1462,flat,18.0,3,4.752
590,18.88,7.5899,-2.5189,0.1799,-0.0003,-0.0000,-2.2615,flat,18.0,3,4.263
600,19.20,7.2246,-2.9256,0.1798,-0.0004,-0.0000,-2.3571,flat,18.0,3,3.756
610,19.52,6.8204,-3.2973,0.1798,-0.0004,-0.0000,-2.4510,flat,18.0,3,3.238
620,19.84,6.3815,-3.6340,0.1798,-0.0004,-0.0000,-2.5455,flat,18.0,3,2.711
630,20.16,5.9119,-3.9308,0.1798,-0.0004,-0.0000,-2.6433,flat,18.0,3,2.176
640,20.48,5.4156,-4.1819,0.1798,-0.0004,-0.0000,-2.7505,flat,18.0,3,1.636
650,20.80,4.8973,-4.3782,0.1799,-0.0002,0.0000,-2.8811,flat,18.0,3,1.095
660,21.12,4.3776,-4.4948,0.1799,0.0000,0.0001,-3.0742,flat,18.0,0,13.898
670,21.44,3.8559,-4.5089,0.1799,-0.0001,-0.0000,3.0080,flat,18.0,0,13.503
680,21.76,3.3626,-4.4278,0.1798,0.0000,0.0001,2.8990,flat,18.0,0,13.076
690,22.08,2.8448,-4.2849,0.1799,-0.0003,-0.0001,2.7952,flat,18.0,0,12.595
700,22.40,2.3302,-4.0840,0.1798,-0.0004,-0.0000,2.7050,flat,18.0,0,12.081
710,22.72,1.8308,-3.8375,0.1798,-0.0003,-0.0000,2.6364,flat,18.0,0,11.549
720,23.04,1.3455,-3.5571,0.1797,-0.0002,-0.0000,2.5820,flat,18.0,0,11.006
730,23.36,0.8737,-3.2505,0.1797,-0.0002,-0.0000,2.5389,flat,18.0,0,10.456
740,23.68,0.4136,-2.9236,0.1797,-0.0001,-0.0000,2.5038,flat,18.0,0,9.900
750,24.00,-0.0366,-2.5805,0.1797,-0.0001,-0.0000,2.4736,flat,18.0,0,9.341
760,24.32,-0.4777,-2.2238,0.1797,-0.0001,-0.0000,2.4472,flat,18.0,0,8.779
770,24.64,-0.9104,-1.8555,0.1797,-0.0001,-0.0000,2.4237,flat,18.0,0,8.215
780,24.96,-1.3355,-1.4769,0.1797,-0.0001,-0.0000,2.4022,flat,18.0,0,7.649
790,25.28,-1.7532,-1.0892,0.1797,-0.0001,-0.0000,2.3824,flat,18.0,0,7.081
800,25.60,-2.1638,-0.6931,0.1797,-0.0001,-0.0000,2.3645,flat,18.0,0,6.512
810,25.92,-2.5678,-0.2897,0.1797,-0.0001,-0.0000,2.3480,flat,18.0,0,5.943
820,26.24,-2.9654,0.1204,0.1797,-0.0001,-0.0000,2.3324,flat,18.0,0,5.372
830,26.56,-3.3567,0.5367,0.1797,-0.0001,-0.0000,2.3173,flat,18.0,0,4.801
840,26.88,-3.7419,0.9589,0.1797,-0.0001,-0.0000,2.3028,flat,18.0,0,4.230
850,27.20,-4.1211,1.3865,0.1797,-0.0001,0.0000,2.2886,flat,18.0,0,3.659
860,27.52,-4.4941,1.8192,0.1797,-0.0001,0.0000,2.2744,flat,18.0,0,3.088
870,27.84,-4.8606,2.2571,0.1797,-0.0001,0.0000,2.2595,flat,18.0,0,2.517
880,28.16,-5.2199,2.7003,0.1797,-0.0001,0.0000,2.2426,flat,18.0,0,1.946
890,28.48,-5.5704,3.1490,0.1797,-0.0001,0.0000,2.2216,flat,18.0,0,1.377
900,28.80,-5.9081,3.6036,0.1797,-0.0001,0.0000,2.1895,flat,18.0,0,0.814
910,29.12,-6.1231,3.9541,0.1798,0.0003,0.0001,1.8549,flat,18.0,1,7.014
920,29.44,-6.2085,4.2976,0.1799,0.0001,-0.0001,1.4261,flat,18.0,1,7.052
930,29.76,-6.1249,4.7002,0.1799,0.0000,-0.0000,1.1054,flat,18.0,1,6.935
940,30.08,-5.8837,5.0952,0.1799,0.0000,-0.0000,0.8681,flat,18.0,1,6.684
950,30.40,-5.5279,5.4506,0.1799,-0.0000,-0.0000,0.6808,flat,18.0,1,6.338
960,30.72,-5.0952,5.7577,0.1799,-0.0000,-0.0000,0.5084,flat,18.0,1,5.934
970,31.04,-4.6058,6.0017,0.1799,-0.0001,-0.0000,0.3534,flat,18.0,1,5.483
980,31.36,-4.0798,6.1764,0.1799,-0.0002,-0.0000,0.2204,flat,18.0,1,5.001
990,31.68,-3.5323,6.2849,0.1799,-0.0004,-0.0000,0.1066,flat,18.0,1,4.496
1000,32.00,-2.9738,6.3333,0.1798,-0.0004,-0.0000,0.0076,flat,18.0,1,3.975
1010,32.32,-2.4118,6.3277,0.1798,-0.0004,-0.0000,-0.0770,flat,18.0,1,3.444
1020,32.64,-1.8518,6.2761,0.1798,-0.0003,-0.0000,-0.1493,flat,18.0,1,2.908
1030,32.96,-1.2972,6.1847,0.1797,-0.0002,-0.0000,-0.2157,flat,18.0,1,2.369
1040,33.28,-0.7509,6.0568,0.1797,-0.0002,0.0000,-0.2816,flat,18.0,1,1.831
1050,33.60,-0.2176,5.8930,0.1798,-0.0003,0.0000,-0.3556,flat,18.0,1,1.301
1060,33.92,0.2951,5.6890,0.1798,-0.0004,0.0000,-0.4473,flat,18.0,2,0.789
1070,34.24,0.7980,5.4481,0.1797,-0.0002,-0.0000,-0.4782,flat,18.0,2,9.727
1080,34.56,1.2948,5.1816,0.1797,-0.0001,-0.0000,-0.5176,flat,18.0,2,9.172
1090,34.88,1.7825,4.8958,0.1797,-0.0001,-0.0000,-0.5507,flat,18.0,2,8.614
1100,35.20,2.2620,4.5938,0.1797,-0.0001,-0.0000,-0.5793,flat,18.0,2,8.052
1110,35.52,2.7339,4.2781,0.1797,-0.0001,-0.0000,-0.6045,flat,18.0,2,7.487
1120,35.84,3.1987,3.9505,0.1797,-0.0001,-0.0000,-0.6269,flat,18.0,2,6.921
1130,36.16,3.6568,3.6125,0.1797,-0.0001,-0.0000,-0.6472,flat,18.0,2,6.353
1140,36.48,4.1086,3.2652,0.1797,-0.0001,-0.0000,-0.6657,flat,18.0,2,5.785
1150,36.80,4.5544,2.9095,0.1797,-0.0001,-0.0000,-0.6829,flat,18.0,2,5.215
1160,37.12,4.9944,2.5462,0.1797,-0.0001,-0.0000,-0.6991,flat,18.0,2,4.645
1170,37.44,5.4286,2.1757,0.1797,-0.0001,-0.0000,-0.7148,flat,18.0,2,4.074
1180,37.76,5.8572,1.7984,0.1797,-0.0001,-0.0000,-0.7305,flat,18.0,2,3.503
1190,38.08,6.2798,1.4145,0.1797,-0.0001,0.0000,-0.7467,flat,18.0,2,2.932
1200,38.40,6.6958,1.0237,0.1797,-0.0001,0.0000,-0.7637,flat,18.0,2,2.362
1210,38.72,7.1044,0.6260,0.1797,-0.0001,0.0000,-0.7825,flat,18.0,2,1.792
1220,39.04,7.5037,0.2208,0.1797,-0.0001,0.0000,-0.8060,flat,18.0,2,1.225
1230,39.36,7.8794,-0.1825,0.1797,-0.0001,0.0003,-0.8757,flat,18.0,3,5.923
1240,39.68,8.1014,-0.5086,0.1799,0.0002,-0.0000,-1.2104,flat,18.0,3,5.852
1250,40.00,8.2246,-0.9002,0.1798,-0.0015,0.0017,-1.4790,flat,18.0,3,5.688
1260,40.32,8.2469,-1.3663,0.1799,0.0001,-0.0001,-1.7590,flat,18.0,3,5.425
1270,40.64,8.1287,-1.8553,0.1799,-0.0000,-0.0000,-1.9795,flat,18.0,3,5.058
1280,40.96,7.8950,-2.3239,0.1799,-0.0001,-0.0000,-2.1514,flat,18.0,3,4.623
1290,41.28,7.5771,-2.7572,0.1799,-0.0003,-0.0000,-2.2796,flat,18.0,3,4.146
1300,41.60,7.2045,-3.1528,0.1798,-0.0004,-0.0000,-2.3858,flat,18.0,3,3.648
1310,41.92,6.7897,-3.5109,0.1798,-0.0004,-0.0000,-2.4900,flat,18.0,3,3.137
1320,42.24,6.3382,-3.8292,0.1798,-0.0004,-0.0000,-2.5944,flat,18.0,3,2.614
1330,42.56,5.8550,-4.1020,0.1798,-0.0004,-0.0000,-2.7025,flat,18.0,3,2.083
1340,42.88,5.3455,-4.3229,0.1799,-0.0003,-0.0000,-2.8213,flat,18.0,3,1.546
1350,43.20,4.8163,-4.4816,0.1799,-0.0001,0.0000,-2.9678,flat,18.0,3,1.008
1360,43.52,4.2915,-4.5503,0.1799,0.0000,-0.0000,3.1169,flat,18.0,0,13.865
1370,43.84,3.7612,-4.5179,0.1799,-0.0001,-0.0000,2.9413,flat,18.0,0,13.437
1380,44.16,3.2849,-4.4089,0.1798,-0.0001,-0.0002,2.8608,flat,18.0,0,13.005
1390,44.48,2.7662,-4.2436,0.1798,-0.0003,-0.0001,2.7603,flat,18.0,0,12.509
1400,44.80,2.2566,-4.0250,0.1798,-0.0004,-0.0000,2.6800,flat,18.0,0,11.987
1410,45.12,1.7617,-3.7661,0.1797,-0.0002,-0.0000,2.6179,flat,18.0,0,11.450
1420,45.44,1.2804,-3.4767,0.1797,-0.0002,-0.0000,2.5681,flat,18.0,0,10.903
1430,45.76,0.8120,-3.1635,0.1797,-0.0001,-0.0000,2.5292,flat,18.0,0,10.351
1440,46.08,0.3542,-2.8322,0.1797,-0.0001,-0.0000,2.4963,flat,18.0,0,9.793
1450,46.40,-0.0941,-2.4857,0.1797,-0.0001,-0.0000,2.4679,flat,18.0,0,9.233
1460,46.72,-0.5337,-2.1265,0.1797,-0.0001,-0.0000,2.4430,flat,18.0,0,8.670
1470,47.04,-0.9654,-1.7563,0.1797,-0.0001,-0.0000,2.4207,flat,18.0,0,8.105
1480,47.36,-1.3898,-1.3764,0.1797,-0.0001,-0.0000,2.4001,flat,18.0,0,7.538
1490,47.68,-1.8070,-0.9878,0.1797,-0.0001,-0.0000,2.3813,flat,18.0,0,6.970
1500,48.00,-2.2175,-0.5912,0.1797,-0.0001,-0.0000,2.3641,flat,18.0,0,6.400
1510,48.32,-2.6216,-0.1876,0.1797,-0.0001,-0.0000,2.3482,flat,18.0,0,5.830
1520,48.64,-3.0195,0.2224,0.1797,-0.0001,-0.0000,2.3332,flat,18.0,0,5.260
1530,48.96,-3.4115,0.6384,0.1797,-0.0001,-0.0000,2.3187,flat,18.0,0,4.689
1540,49.28,-3.7974,1.0600,0.1797,-0.0000,-0.0000,2.3046,flat,18.0,0,4.117
1550,49.60,-4.1775,1.4870,0.1797,-0.0000,0.0000,2.2908,flat,18.0,0,3.546
1560,49.92,-4.5515,1.9190,0.1797,-0.0000,0.0000,2.2768,flat,18.0,0,2.974
1570,50.24,-4.9191,2.3560,0.1797,-0.0001,0.0000,2.2620,flat,18.0,0,2.403
1580,50.56,-5.2795,2.7982,0.1797,-0.0001,0.0000,2.2450,flat,18.0,0,1.833
1590,50.88,-5.6308,3.2460,0.1797,-0.0001,0.0000,2.2233,flat,18.0,0,1.265
1600,51.20,-5.9658,3.6964,0.1797,-0.0001,0.0003,2.1716,flat,18.0,1,6.906
1610,51.52,-6.1486,4.0192,0.1798,0.0003,0.0000,1.7705,flat,18.0,1,7.029
1620,51.84,-6.2055,4.3773,0.1799,0.0001,-0.0001,1.3569,flat,18.0,1,7.041
1630,52.16,-6.0894,4.7828,0.1799,0.0001,-0.0001,1.0552,flat,18.0,1,6.896
1640,52.48,-5.8234,5.1716,0.1799,-0.0000,-0.0000,0.8304,flat,18.0,1,6.624
1650,52.80,-5.4511,5.5186,0.1799,-0.0000,-0.0000,0.6473,flat,18.0,1,6.266
1660,53.12,-5.0063,5.8148,0.1799,-0.0000,-0.0000,0.4772,flat,18.0,1,5.852
1670,53.44,-4.5085,6.0456,0.1799,-0.0001,-0.0000,0.3261,flat,18.0,1,5.395
1680,53.76,-3.9774,6.2071,0.1799,-0.0002,-0.0000,0.1969,flat,18.0,1,4.908
1690,54.08,-3.4271,6.3034,0.1798,-0.0004,-0.0000,0.0860,flat,18.0,1,4.400
1700,54.40,-2.8673,6.3406,0.1798,-0.0004,-0.0000,-0.0107,flat,18.0,1,3.877
1710,54.72,-2.3055,6.3252,0.1798,-0.0004,-0.0000,-0.0923,flat,18.0,1,3.345
1720,55.04,-1.7464,6.2651,0.1798,-0.0003,-0.0000,-0.1632,flat,18.0,1,2.807
1730,55.36,-1.1932,6.1661,0.1797,-0.0002,-0.0000,-0.2290,flat,18.0,1,2.268
1740,55.68,-0.6491,6.0309,0.1797,-0.0002,0.0000,-0.2957,flat,18.0,1,1.731
1750,56.00,-0.1192,5.8595,0.1798,-0.0003,0.0000,-0.3727,flat,18.0,1,1.203
1760,56.32,0.3876,5.6477,0.1798,-0.0004,0.0000,-0.4409,flat,18.0,2,10.174
1770,56.64,0.8925,5.4002,0.1797,-0.0002,-0.0000,-0.4871,flat,18.0,2,9.623
1780,56.96,1.3662,5.1435,0.1797,-0.0001,-0.0001,-0.5161,flat,18.0,2,9.093
1790,57.28,1.8541,4.8583,0.1797,-0.0001,-0.0000,-0.5500,flat,18.0,2,8.534
1800,57.60,2.3336,4.5567,0.1797,-0.0001,-0.0000,-0.5792,flat,18.0,2,7.973
1810,57.92,2.8053,4.2410,0.1797,-0.0001,-0.0000,-0.6049,flat,18.0,2,7.409
1820,58.24,3.2697,3.9132,0.1797,-0.0001,-0.0000,-0.6278,flat,18.0,2,6.843
1830,58.56,3.7274,3.5748,0.1797,-0.0001,-0.0000,-0.6485,flat,18.0,2,6.275
1840,58.88,4.1785,3.2269,0.1797,-0.0001,-0.0000,-0.6674,flat,18.0,2,5.707
1850,59.20,4.6236,2.8704,0.1797,-0.0001,-0.0000,-0.6850,flat,18.0,2,5.137
1860,59.52,5.0626,2.5061,0.1797,-0.0001,-0.0000,-0.7016,flat,18.0,2,4.567
1870,59.84,5.4958,2.1346,0.1797,-0.0001,-0.0000,-0.7178,flat,18.0,2,3.997
1880,60.16,5.9230,1.7561,0.1797,-0.0001,-0.0000,-0.7340,flat,18.0,2,3.426
1890,60.48,6.3441,1.3707,0.1797,-0.0001,0.0000,-0.7507,flat,18.0,2,2.855
1900,60.80,6.7583,0.9782,0.1797,-0.0001,0.0000,-0.7683,flat,18.0,2,2.285
1910,61.12,7.1647,0.5786,0.1797,-0.0001,0.0000,-0.7881,flat,18.0,2,1.716
1920,61.44,7.5610,0.1714,0.1797,-0.0001,0.0000,-0.8133,flat,18.0,2,1.150
1930,61.76,7.9225,-0.2241,0.1798,-0.0001,0.0004,-0.9052,flat,18.0,3,5.923
1940,62.08,8.1342,-0.5589,0.1799,0.0001,-0.0000,-1.2502,flat,18.0,3,5.842
1950,62.40,8.2427,-0.9485,0.1799,-0.0001,0.0001,-1.5071,flat,18.0,3,5.672
1960,62.72,8.2504,-1.4207,0.1799,-0.0003,-0.0000,-1.7818,flat,18.0,3,5.397
1970,63.04,8.1185,-1.9086,0.1799,-0.0001,-0.0000,-1.9988,flat,18.0,3,5.022
1980,63.36,7.8742,-2.3737,0.1799,-0.0001,-0.0000,-2.1680,flat,18.0,3,4.582
1990,63.68,7.5489,-2.8029,0.1799,-0.0003,-0.0000,-2.2918,flat,18.0,3,4.102
2000,64.00,7.1712,-3.1940,0.1798,-0.0004,-0.0000,-2.3978,flat,18.0,3,3.603
2010,64.32,6.7520,-3.5478,0.1798,-0.0004,-0.0000,-2.5020,flat,18.0,3,3.090
2020,64.64,6.2965,-3.8611,0.1798,-0.0004,-0.0000,-2.6066,flat,18.0,3,2.566
2030,64.96,5.8100,-4.1284,0.1798,-0.0004,-0.0000,-2.7152,flat,18.0,3,2.034
2040,65.28,5.2978,-4.3429,0.1799,-0.0003,-0.0000,-2.8355,flat,18.0,3,1.497
2050,65.60,4.7669,-4.4939,0.1799,-0.0001,0.0000,-2.9860,flat,18.0,3,0.959
2060,65.92,4.2433,-4.5521,0.1799,-0.0000,-0.0000,3.0968,flat,18.0,0,13.829
2070,66.24,3.7119,-4.5090,0.1799,-0.0001,-0.0000,2.9271,flat,18.0,0,13.394
2080,66.56,3.2390,-4.3942,0.1798,-0.0001,-0.0002,2.8531,flat,18.0,0,12.961
2090,66.88,2.7185,-4.2237,0.1798,-0.0004,-0.0001,2.7512,flat,18.0,0,12.460
2100,67.20,2.2104,-4.0005,0.1798,-0.0003,-0.0000,2.6731,flat,18.0,0,11.936
2110,67.52,1.7169,-3.7382,0.1797,-0.0002,-0.0000,2.6125,flat,18.0,0,11.398
2120,67.84,1.2368,-3.4462,0.1797,-0.0002,-0.0000,2.5639,flat,18.0,0,10.851
2130,68.16,0.7696,-3.1311,0.1797,-0.0001,-0.0000,2.5258,flat,18.0,0,10.298
2140,68.48,0.3127,-2.7982,0.1797,-0.0001,-0.0000,2.4935,flat,18.0,0,9.740
2150,68.80,-0.1348,-2.4504,0.1797,-0.0001,-0.0000,2.4655,flat,18.0,0,9.179
2160,69.12,-0.5737,-2.0901,0.1797,-0.0001,-0.0000,2.4409,flat,18.0,0,8.616
2170,69.44,-1.0047,-1.7190,0.1797,-0.0001,-0.0000,2.4188,flat,18.0,0,8.051
2180,69.76,-1.4284,-1.3383,0.1797,-0.0001,-0.0000,2.3984,flat,18.0,0,7.484
2190,70.08,-1.8451,-0.9489,0.1797,-0.0001,-0.0000,2.3797,flat,18.0,0,6.915
2200,70.40,-2.2550,-0.5518,0.1797,-0.0001,-0.0000,2.3627,flat,18.0,0,6.346
2210,70.72,-2.6586,-0.1476,0.1797,-0.0001,-0.0000,2.3470,flat,18.0,0,5.776
2220,71.04,-3.0561,0.2629,0.1797,-0.0001,-0.0000,2.3320,flat,18.0,0,5.205
2230,71.36,-3.4475,0.6794,0.1797,-0.0001,-0.0000,2.3176,flat,18.0,0,4.634
2240,71.68,-3.8330,1.1015,0.1797,-0.0000,-0.0000,2.3035,flat,18.0,0,4.063
2250,72.00,-4.2126,1.5288,0.1797,-0.0000,0.0000,2.2897,flat,18.0,0,3.491
2260,72.32,-4.5862,1.9612,0.1797,-0.0000,0.0000,2.2757,flat,18.0,0,2.920
2270,72.64,-4.9533,2.3986,0.1797,-0.0001,0.0000,2.2608,flat,18.0,0,2.349
2280,72.96,-5.3131,2.8412,0.1797,-0.0001,0.0000,2.2435,flat,18.0,0,1.779
2290,73.28,-5.6635,3.2894,0.1797,-0.0001,0.0000,2.2211,flat,18.0,0,1.210
2300,73.60,-5.9905,3.7336,0.1797,-0.0001,0.0003,2.1498,flat,18.0,1,6.923
2310,73.92,-6.1593,4.0489,0.1798,0.0003,0.0000,1.7272,flat,18.0,1,7.036
2320,74.24,-6.2001,4.4151,0.1799,-0.0000,-0.0001,1.3254,flat,18.0,1,7.032
2330,74.56,-6.0676,4.8211,0.1799,-0.0001,-0.0000,1.0329,flat,18.0,1,6.872
2340,74.88,-5.7893,5.2065,0.1799,-0.0001,-0.0000,0.8118,flat,18.0,1,6.590
2350,75.20,-5.4088,5.5490,0.1799,-0.0001,-0.0000,0.6302,flat,18.0,1,6.226
2360,75.52,-4.9579,5.8394,0.1799,-0.0001,-0.0000,0.4617,flat,18.0,1,5.807
2370,75.84,-4.4560,6.0634,0.1799,-0.0001,-0.0000,0.3126,flat,18.0,1,5.347
2380,76.16,-3.9226,6.2183,0.1799,-0.0003,-0.0000,0.1854,flat,18.0,1,4.857
2390,76.48,-3.3709,6.3085,0.1798,-0.0004,-0.0000,0.0761,flat,18.0,1,4.347
2400,76.80,-2.8107,6.3403,0.1798,-0.0004,-0.0000,-0.0192,flat,18.0,1,3.823
2410,77.12,-2.2489,6.3203,0.1798,-0.0004,-0.0000,-0.0996,flat,18.0,1,3.290
2420,77.44,-1.6902,6.2562,0.1798,-0.0003,-0.0000,-0.1697,flat,18.0,1,2.753
2430,77.76,-1.1378,6.1536,0.1797,-0.0002,-0.0000,-0.2353,flat,18.0,1,2.214
2440,78.08,-0.5948,6.0150,0.1797,-0.0002,0.0000,-0.3025,flat,18.0,1,1.677
2450,78.40,-0.0668,5.8398,0.1798,-0.0003,0.0000,-0.3813,flat,18.0,1,1.151
2460,78.72,0.4391,5.6236,0.1798,-0.0003,-0.0000,-0.4450,flat,18.0,2,10.118
2470,79.04,0.9430,5.3738,0.1797,-0.0002,-0.0000,-0.4910,flat,18.0,2,9.567
2480,79.36,1.4160,5.1155,0.1797,-0.0001,-0.0001,-0.5197,flat,18.0,2,9.037
2490,79.68,1.9030,4.8286,0.1797,-0.0001,-0.0000,-0.5531,flat,18.0,2,8.478
2500,80.00,2.3817,4.5255,0.1797,-0.0001,-0.0000,-0.5819,flat,18.0,2,7.916
2510,80.32,2.8526,4.2086,0.1797,-0.0001,-0.0000,-0.6073,flat,18.0,2,7.352
2520,80.64,3.3164,3.8796,0.1797,-0.0001,-0.0000,-0.6300,flat,18.0,2,6.785
2530,80.96,3.7733,3.5402,0.1797,-0.0001,-0.0000,-0.6505,flat,18.0,2,6.218
2540,81.28,4.2239,3.1914,0.1797,-0.0001,-0.0000,-0.6693,flat,18.0,2,5.649
2550,81.60,4.6683,2.8341,0.1797,-0.0001,-0.0000,-0.6867,flat,18.0,2,5.080
2560,81.92,5.1068,2.4691,0.1797,-0.0001,-0.0000,-0.7033,flat,18.0,2,4.510
2570,82.24,5.5393,2.0968,0.1797,-0.0001,-0.0000,-0.7194,flat,18.0,2,3.939
2580,82.56,5.9660,1.7176,0.1797,-0.0001,-0.0000,-0.7356,flat,18.0,2,3.369
2590,82.88,6.3864,1.3315,0.1797,-0.0001,0.0000,-0.7525,flat,18.0,2,2.798
2600,83.20,6.7998,0.9383,0.1797,-0.0001,0.0000,-0.7702,flat,18.0,2,2.227
2610,83.52,7.2053,0.5380,0.1797,-0.0001,0.0000,-0.7903,flat,18.0,2,1.658
2620,83.84,7.6004,0.1299,0.1797,-0.0001,0.0000,-0.8164,flat,18.0,2,1.093
2630,84.16,7.9467,-0.2540,0.1798,-0.0000,0.0005,-0.9415,flat,18.0,3,5.919
2640,84.48,8.1518,-0.5989,0.1799,0.0001,-0.0000,-1.2841,flat,18.0,3,5.828
2650,84.80,8.2464,-0.9723,0.1799,-0.0000,-0.0001,-1.5235,flat,18.0,3,5.660
2660,85.12,8.2449,-1.4511,0.1799,-0.0001,-0.0001,-1.8031,flat,18.0,3,5.375
2670,85.44,8.1035,-1.9382,0.1799,-0.0000,-0.0000,-2.0138,flat,18.0,3,4.994
2680,85.76,7.8523,-2.4010,0.1799,-0.0001,-0.0000,-2.1780,flat,18.0,3,4.550
2690,86.08,7.5225,-2.8277,0.1799,-0.0003,-0.0000,-2.2991,flat,18.0,3,4.068
2700,86.40,7.1418,-3.2163,0.1798,-0.0004,-0.0000,-2.4046,flat,18.0,3,3.567
2710,86.72,6.7201,-3.5677,0.1798,-0.0004,-0.0000,-2.5086,flat,18.0,3,3.053
2720,87.04,6.2624,-3.8783,0.1798,-0.0004,-0.0000,-2.6131,flat,18.0,3,2.528
2730,87.36,5.7741,-4.1425,0.1798,-0.0004,-0.0000,-2.7221,flat,18.0,3,1.996
2740,87.68,5.2606,-4.3535,0.1799,-0.0003,-0.0000,-2.8436,flat,18.0,3,1.459
2750,88.00,4.7290,-4.5002,0.1799,-0.0001,0.0000,-2.9972,flat,18.0,3,0.921
2760,88.32,4.2040,-4.5524,0.1799,-0.0001,-0.0000,3.0864,flat,18.0,0,13.799
2770,88.64,3.6721,-4.5037,0.1799,-0.0001,-0.0000,2.9196,flat,18.0,0,13.360
2780,88.96,3.2014,-4.3870,0.1798,-0.0001,-0.0002,2.8499,flat,18.0,0,12.928
2790,89.28,2.6799,-4.2138,0.1798,-0.0004,-0.0001,2.7461,flat,18.0,0,12.425
2800,89.60,2.1727,-3.9880,0.1798,-0.0003,-0.0000,2.6691,flat,18.0,0,11.900
2810,89.92,1.6801,-3.7237,0.1797,-0.0002,-0.0000,2.6092,flat,18.0,0,11.362
2820,90.24,1.2009,-3.4301,0.1797,-0.0002,-0.0000,2.5611,flat,18.0,0,10.814
2830,90.56,0.7344,-3.1137,0.1797,-0.0001,-0.0000,2.5235,flat,18.0,0,10.261
2840,90.88,0.2783,-2.7797,0.1797,-0.0001,-0.0000,2.4913,flat,18.0,0,9.703
2850,91.20,-0.1685,-2.4310,0.1797,-0.0001,-0.0000,2.4635,flat,18.0,0,9.142
2860,91.52,-0.6067,-2.0697,0.1797,-0.0001,-0.0000,2.4390,flat,18.0,0,8.578
2870,91.84,-1.0371,-1.6978,0.1797,-0.0001,-0.0000,2.4170,flat,18.0,0,8.013
2880,92.16,-1.4602,-1.3164,0.1797,-0.0001,-0.0000,2.3966,flat,18.0,0,7.446
2890,92.48,-1.8762,-0.9263,0.1797,-0.0001,-0.0000,2.3781,flat,18.0,0,6.878
2900,92.80,-2.2855,-0.5284,0.1797,-0.0001,-0.0000,2.3611,flat,18.0,0,6.308
2910,93.12,-2.6884,-0.1236,0.1797,-0.0001,-0.0000,2.3454,flat,18.0,0,5.738
2920,93.44,-3.0852,0.2875,0.1797,-0.0001,-0.0000,2.3305,flat,18.0,0,5.167
2930,93.76,-3.4760,0.7046,0.1797,-0.0001,-0.0000,2.3160,flat,18.0,0,4.596
2940,94.08,-3.8608,1.1273,0.1797,-0.0000,-0.0000,2.3019,flat,18.0,0,4.025
2950,94.40,-4.2397,1.5553,0.1797,-0.0000,0.0000,2.2881,flat,18.0,0,3.454
2960,94.72,-4.6126,1.9882,0.1797,-0.0000,0.0000,2.2740,flat,18.0,0,2.882
2970,95.04,-4.9789,2.4262,0.1797,-0.0001,0.0000,2.2589,flat,18.0,0,2.311
2980,95.36,-5.3377,2.8695,0.1797,-0.0001,0.0000,2.2414,flat,18.0,0,1.741
2990,95.68,-5.6871,3.3184,0.1797,-0.0001,0.0000,2.2184,flat,18.0,0,1.173
3000,96.00,-6.0027,3.7535,0.1798,-0.0001,0.0004,2.1233,flat,18.0,1,6.931
3010,96.32,-6.1603,4.0650,0.1798,0.0003,-0.0000,1.6834,flat,18.0,1,7.034
3020,96.64,-6.1853,4.4394,0.1799,0.0001,-0.0000,1.2901,flat,18.0,1,7.015
3030,96.96,-6.0366,4.8459,0.1799,0.0001,-0.0001,1.0071,flat,18.0,1,6.841
3040,97.28,-5.7466,5.2279,0.1799,-0.0000,-0.0000,0.7939,flat,18.0,1,6.548
3050,97.60,-5.3586,5.5665,0.1799,-0.0000,-0.0000,0.6143,flat,18.0,1,6.177
3060,97.92,-4.9021,5.8515,0.1799,-0.0001,-0.0000,0.4476,flat,18.0,1,5.754
3070,98.24,-4.3968,6.0695,0.1799,-0.0001,-0.0000,0.3011,flat,18.0,1,5.289
3080,98.56,-3.8613,6.2188,0.1799,-0.0003,-0.0000,0.1759,flat,18.0,1,4.797
3090,98.88,-3.3086,6.3042,0.1798,-0.0004,-0.0000,0.0682,flat,18.0,1,4.286
3100,99.20,-2.7479,6.3317,0.1798,-0.0004,-0.0000,-0.0258,flat,18.0,1,3.761
3110,99.52,-2.1863,6.3081,0.1798,-0.0004,-0.0000,-0.1051,flat,18.0,1,3.228
3120,99.84,-1.6280,6.2411,0.1797,-0.0003,-0.0000,-0.1747,flat,18.0,1,2.690
3130,100.16,-1.0761,6.1357,0.1797,-0.0002,-0.0000,-0.2404,flat,18.0,1,2.151
3140,100.48,-0.5342,5.9942,0.1797,-0.0002,0.0000,-0.3085,flat,18.0,1,1.616
3150,100.80,-0.0081,5.8157,0.1798,-0.0004,0.0000,-0.3897,flat,18.0,1,1.091
3160,101.12,0.4966,5.5959,0.1798,-0.0002,-0.0000,-0.4496,flat,18.0,2,10.056
3170,101.44,0.9996,5.3438,0.1797,-0.0002,-0.0000,-0.4947,flat,18.0,2,9.504
3180,101.76,1.4926,5.0692,0.1797,-0.0001,-0.0000,-0.5311,flat,18.0,2,8.948
3190,102.08,1.9770,4.7767,0.1797,-0.0001,-0.0000,-0.5624,flat,18.0,2,8.388
3200,102.40,2.4534,4.4691,0.1797,-0.0001,-0.0000,-0.5897,flat,18.0,2,7.825
3210,102.72,2.9224,4.1485,0.1797,-0.0001,-0.0000,-0.6137,flat,18.0,2,7.260
3220,103.04,3.3845,3.8166,0.1797,-0.0001,-0.0000,-0.6353,flat,18.0,2,6.693
3230,103.36,3.8400,3.4748,0.1797,-0.0001,-0.0000,-0.6548,flat,18.0,2,6.125
3240,103.68,4.2894,3.1240,0.1797,-0.0001,-0.0000,-0.6728,flat,18.0,2,5.556
3250,104.00,4.7328,2.7651,0.1797,-0.0001,-0.0000,-0.6896,flat,18.0,2,4.986
3260,104.32,5.1704,2.3988,0.1797,-0.0001,-0.0000,-0.7056,flat,18.0,2,4.415
3270,104.64,5.6024,2.0256,0.1797,-0.0001,-0.0000,-0.7212,flat,18.0,2,3.845
3280,104.96,6.0285,1.6456,0.1797,-0.0001,-0.0000,-0.7371,flat,18.0,2,3.274
3290,105.28,6.4485,1.2588,0.1797,-0.0001,0.0000,-0.7536,flat,18.0,2,2.703
3300,105.60,6.8616,0.8652,0.1797,-0.0001,0.0000,-0.7712,flat,18.0,2,2.133
3310,105.92,7.2666,0.4645,0.1797,-0.0001,0.0000,-0.7914,flat,18.0,2,1.564
3320,106.24,7.6609,0.0561,0.1797,-0.0001,0.0000,-0.8186,flat,18.0,2,1.000
3330,106.56,7.9773,-0.3030,0.1798,0.0001,0.0002,-1.0053,flat,18.0,3,5.905
3340,106.88,8.1696,-0.6692,0.1799,0.0000,-0.0000,-1.3449,flat,18.0,3,5.795
3350,107.20,8.2488,-1.0699,0.1799,-0.0001,-0.0001,-1.5861,flat,18.0,3,5.602
3360,107.52,8.2169,-1.5553,0.1799,-0.0000,-0.0000,-1.8514,flat,18.0,3,5.293
3370,107.84,8.0500,-2.0392,0.1799,-0.0001,-0.0000,-2.0514,flat,18.0,3,4.897
3380,108.16,7.7801,-2.4947,0.1799,-0.0001,-0.0000,-2.2069,flat,18.0,3,4.443
3390,108.48,7.4379,-2.9141,0.1798,-0.0003,-0.0000,-2.3211,flat,18.0,3,3.955
3400,108.80,7.0483,-3.2947,0.1798,-0.0004,-0.0000,-2.4261,flat,18.0,3,3.452
3410,109.12,6.6187,-3.6381,0.1798,-0.0004,-0.0000,-2.5301,flat,18.0,3,2.936
3420,109.44,6.1543,-3.9395,0.1798,-0.0004,-0.0000,-2.6353,flat,18.0,3,2.409
3430,109.76,5.6603,-4.1933,0.1798,-0.0004,-0.0000,-2.7463,flat,18.0,3,1.875
3440,110.08,5.1423,-4.3918,0.1799,-0.0003,0.0000,-2.8728,flat,18.0,3,1.338
3450,110.40,4.6085,-4.5222,0.1799,-0.0001,0.0000,-3.0395,flat,18.0,3,0.802
3460,110.72,4.0849,-4.5508,0.1799,-0.0001,-0.0000,3.0468,flat,18.0,0,13.706
3470,111.04,3.5517,-4.4814,0.1799,-0.0001,-0.0000,2.8898,flat,18.0,0,13.254
3480,111.36,3.0601,-4.3451,0.1798,-0.0001,-0.0001,2.8089,flat,18.0,0,12.795
3490,111.68,2.5431,-4.1513,0.1798,-0.0004,-0.0000,2.7168,flat,18.0,0,12.282
3500,112.00,2.0409,-3.9107,0.1798,-0.0003,-0.0000,2.6470,flat,18.0,0,11.751
3510,112.32,1.5529,-3.6356,0.1797,-0.0002,-0.0000,2.5919,flat,18.0,0,11.209
3520,112.64,1.0780,-3.3336,0.1797,-0.0002,-0.0000,2.5483,flat,18.0,0,10.659
3530,112.96,0.6149,-3.0112,0.1797,-0.0001,-0.0000,2.5129,flat,18.0,0,10.104
3540,113.28,0.1616,-2.6723,0.1797,-0.0001,-0.0000,2.4826,flat,18.0,0,9.545
3550,113.60,-0.2827,-2.3196,0.1797,-0.0001,-0.0000,2.4561,flat,18.0,0,8.983
3560,113.92,-0.7187,-1.9552,0.1797,-0.0001,-0.0000,2.4328,flat,18.0,0,8.418
3570,114.24,-1.1471,-1.5805,0.1797,-0.0001,-0.0000,2.4116,flat,18.0,0,7.852
3580,114.56,-1.5685,-1.1968,0.1797,-0.0001,-0.0000,2.3919,flat,18.0,0,7.285
3590,114.88,-1.9829,-0.8047,0.1797,-0.0001,-0.0000,2.3741,flat,18.0,0,6.716
3600,115.20,-2.3908,-0.4051,0.1797,-0.0001,-0.0000,2.3577,flat,18.0,0,6.146
3610,115.52,-2.7926,0.0011,0.1797,-0.0001,-0.0000,2.3424,flat,18.0,0,5.576
3620,115.84,-3.1883,0.4134,0.1797,-0.0001,-0.0000,2.3278,flat,18.0,0,5.005
3630,116.16,-3.5781,0.8315,0.1797,-0.0001,-0.0000,2.3136,flat,18.0,0,4.434
3640,116.48,-3.9620,1.2551,0.1797,-0.0000,-0.0000,2.2998,flat,18.0,0,3.862
3650,116.80,-4.3400,1.6839,0.1797,-0.0000,0.0000,2.2861,flat,18.0,0,3.291
3660,117.12,-4.7119,2.1176,0.1797,-0.0000,0.0000,2.2720,flat,18.0,0,2.719
3670,117.44,-5.0772,2.5563,0.1797,-0.0001,0.0000,2.2566,flat,18.0,0,2.148
3680,117.76,-5.4348,3.0003,0.1797,-0.0001,0.0000,2.2381,flat,18.0,0,1.579
3690,118.08,-5.7818,3.4500,0.1797,-0.0001,0.0000,2.2124,flat,18.0,0,1.012
3700,118.40,-6.0517,3.8434,0.1798,0.0002,0.0003,2.0030,flat,18.0,1,6.963
3710,118.72,-6.1783,4.1553,0.1798,0.0000,0.0004,1.5721,rough,14.0,1,7.040
3720,119.04,-6.1661,4.5087,0.1799,-0.0000,-0.0001,1.2475,flat,18.0,1,6.990
3730,119.36,-5.9951,4.9135,0.1799,-0.0001,-0.0000,0.9744,flat,18.0,1,6.797
3740,119.68,-5.6881,5.2894,0.1799,-0.0001,-0.0000,0.7671,flat,18.0,1,6.491
3750,120.00,-5.2891,5.6210,0.1799,-0.0001,-0.0000,0.5887,flat,18.0,1,6.113
3760,120.32,-4.8240,5.8965,0.1799,-0.0001,-0.0000,0.4239,flat,18.0,1,5.682
3770,120.64,-4.3130,6.1038,0.1799,-0.0001,-0.0000,0.2803,flat,18.0,1,5.214
3780,120.96,-3.7742,6.2427,0.1799,-0.0003,-0.0000,0.1577,flat,18.0,1,4.719
3790,121.28,-3.2198,6.3183,0.1798,-0.0004,-0.0000,0.0519,flat,18.0,1,4.205
3800,121.60,-2.6586,6.3369,0.1798,-0.0004,-0.0000,-0.0401,flat,18.0,1,3.679
3810,121.92,-2.0973,6.3054,0.1798,-0.0004,-0.0000,-0.1176,flat,18.0,1,3.144
3820,122.24,-1.5400,6.2314,0.1797,-0.0003,-0.0000,-0.1864,flat,18.0,1,2.606
3830,122.56,-0.9896,6.1196,0.1797,-0.0002,-0.0000,-0.2522,flat,18.0,1,2.068
3840,122.88,-0.4499,5.9717,0.1797,-0.0003,0.0000,-0.3216,flat,18.0,1,1.534
3850,123.20,0.0726,5.7862,0.1798,-0.0004,0.0000,-0.4058,flat,18.0,1,1.012
3860,123.52,0.5729,5.5601,0.1798,-0.0002,-0.0000,-0.4575,flat,18.0,2,9.974
3870,123.84,1.0743,5.3039,0.1797,-0.0002,-0.0000,-0.5012,flat,18.0,2,9.421
3880,124.16,1.5658,5.0260,0.1797,-0.0001,-0.0000,-0.5367,flat,18.0,2,8.864
3890,124.48,2.0488,4.7308,0.1797,-0.0001,-0.0000,-0.5672,flat,18.0,2,8.303
3900,124.80,2.5240,4.4209,0.1797,-0.0001,-0.0000,-0.5938,flat,18.0,2,7.740
3910,125.12,2.9918,4.0984,0.1797,-0.0001,-0.0000,-0.6173,flat,18.0,2,7.174
3920,125.44,3.4528,3.7648,0.1797,-0.0001,-0.0000,-0.6385,flat,18.0,2,6.607
3930,125.76,3.9074,3.4215,0.1797,-0.0001,-0.0000,-0.6577,flat,18.0,2,6.039
3940,126.08,4.3558,3.0694,0.1797,-0.0001,-0.0000,-0.6754,flat,18.0,2,5.470
3950,126.40,4.7984,2.7094,0.1797,-0.0001,-0.0000,-0.6920,flat,18.0,2,4.900
3960,126.72,5.2352,2.3420,0.1797,-0.0001,-0.0000,-0.7079,flat,18.0,2,4.329
3970,127.04,5.6663,1.9677,0.1797,-0.0001,-0.0000,-0.7235,flat,18.0,2,3.759
3980,127.36,6.0916,1.5868,0.1797,-0.0001,-0.0000,-0.7394,flat,18.0,2,3.188
3990,127.68,6.5106,1.1990,0.1797,-0.0001,0.0000,-0.7559,flat,18.0,2,2.617
4000,128.00,6.9227,0.8045,0.1797,-0.0001,0.0000,-0.7738,flat,18.0,2,2.046
4010,128.32,7.3265,0.4027,0.1797,-0.0001,0.0000,-0.7946,flat,18.0,2,1.478
4020,128.64,7.7188,-0.0068,0.1797,-0.0001,0.0000,-0.8236,flat,18.0,2,0.915
4030,128.96,8.0179,-0.3561,0.1798,0.0002,0.0001,-1.0420,flat,18.0,3,5.897
4040,129.28,8.1954,-0.7157,0.1799,-0.0000,0.0001,-1.3659,rough,14.0,3,5.784
4050,129.60,8.2667,-1.1199,0.1799,-0.0001,-0.0001,-1.6125,flat,18.0,3,5.586
4060,129.92,8.2213,-1.6066,0.1799,-0.0001,-0.0000,-1.8687,flat,18.0,3,5.269
4070,130.24,8.0443,-2.0885,0.1799,-0.0001,-0.0000,-2.0665,flat,18.0,3,4.867
4080,130.56,7.7666,-2.5404,0.1799,-0.0001,-0.0000,-2.2199,flat,18.0,3,4.410
4090,130.88,7.4189,-2.9559,0.1798,-0.0003,-0.0000,-2.3321,flat,18.0,3,3.921
4100,131.20,7.0249,-3.3325,0.1798,-0.0004,-0.0000,-2.4373,flat,18.0,3,3.417
4110,131.52,6.5913,-3.6716,0.1798,-0.0004,-0.0000,-2.5415,flat,18.0,3,2.900
4120,131.84,6.1234,-3.9681,0.1798,-0.0004,-0.0000,-2.6472,flat,18.0,3,2.372
4130,132.16,5.6264,-4.2162,0.1798,-0.0004,-0.0000,-2.7589,flat,18.0,3,1.838
4140,132.48,5.1061,-4.4083,0.1799,-0.0003,0.0000,-2.8871,flat,18.0,3,1.301
4150,132.80,4.5712,-4.5309,0.1799,-0.0001,0.0000,-3.0583,flat,18.0,0,0.765
4160,133.12,4.0484,-4.5500,0.1799,-0.0001,-0.0000,3.0271,flat,18.0,0,13.677
4170,133.44,3.5230,-4.4722,0.1799,-0.0002,0.0004,2.8879,rough,14.0,0,13.226
4180,133.76,3.0582,-4.3446,0.1798,-0.0001,-0.0002,2.8179,flat,18.0,0,12.793
4190,134.08,2.5400,-4.1554,0.1798,-0.0004,-0.0000,2.7229,flat,18.0,0,12.283
4200,134.40,2.0369,-3.9179,0.1798,-0.0003,-0.0000,2.6513,flat,18.0,0,11.753
4210,134.72,1.5480,-3.6449,0.1797,-0.0002,-0.0000,2.5950,flat,18.0,0,11.212
4220,135.04,1.0725,-3.3444,0.1797,-0.0002,-0.0000,2.5502,flat,18.0,0,10.663
4230,135.36,0.6090,-3.0228,0.1797,-0.0001,-0.0000,2.5142,flat,18.0,0,10.108
4240,135.68,0.1554,-2.6845,0.1797,-0.0001,-0.0000,2.4834,flat,18.0,0,9.549
4250,136.00,-0.2890,-2.3322,0.1797,-0.0001,-0.0000,2.4566,flat,18.0,0,8.987
4260,136.32,-0.7250,-1.9680,0.1797,-0.0001,-0.0000,2.4329,flat,18.0,0,8.423
4270,136.64,-1.1534,-1.5934,0.1797,-0.0001,-0.0000,2.4113,flat,18.0,0,7.857
4280,136.96,-1.5745,-1.2095,0.1797,-0.0001,-0.0000,2.3915,flat,18.0,0,7.290
4290,137.28,-1.9887,-0.8172,0.1797,-0.0001,-0.0000,2.3734,flat,18.0,0,6.721
4300,137.60,-2.3962,-0.4174,0.1797,-0.0001,-0.0000,2.3568,flat,18.0,0,6.152
4310,137.92,-2.7975,-0.0109,0.1797,-0.0001,-0.0000,2.3414,flat,18.0,0,5.581
4320,138.24,-3.1927,0.4019,0.1797,-0.0001,-0.0000,2.3265,flat,18.0,0,5.011
4330,138.56,-3.5819,0.8205,0.1797,-0.0001,-0.0000,2.3122,flat,18.0,0,4.439
4340,138.88,-3.9651,1.2447,0.1797,-0.0000,-0.0000,2.2982,flat,18.0,0,3.868
4350,139.20,-4.3424,1.6739,0.1797,-0.0000,0.0000,2.2844,flat,18.0,0,3.297
4360,139.52,-4.7136,2.1083,0.1797,-0.0001,0.0000,2.2701,flat,18.0,0,2.725
4370,139.84,-5.0780,2.5476,0.1797,-0.0001,0.0000,2.2546,flat,18.0,0,2.154
4380,140.16,-5.4346,2.9924,0.1797,-0.0001,0.0000,2.2360,flat,18.0,0,1.585
4390,140.48,-5.7806,3.4428,0.1797,-0.0001,0.0000,2.2101,flat,18.0,0,1.018
4400,140.80,-6.0496,3.8370,0.1798,0.0002,0.0003,2.0013,flat,18.0,1,6.962
4410,141.12,-6.1778,4.1571,0.1798,0.0001,-0.0001,1.5554,flat,18.0,1,7.039
4420,141.44,-6.1506,4.5495,0.1799,-0.0001,-0.0001,1.2012,flat,18.0,1,6.971
4430,141.76,-5.9561,4.9532,0.1799,-0.0001,-0.0000,0.9403,flat,18.0,1,6.757
4440,142.08,-5.6326,5.3233,0.1799,-0.0001,-0.0000,0.7407,flat,18.0,1,6.437
4450,142.40,-5.2227,5.6482,0.1799,-0.0001,-0.0000,0.5645,flat,18.0,1,6.049
4460,142.72,-4.7497,5.9148,0.1799,-0.0001,-0.0000,0.4030,flat,18.0,1,5.611
4470,143.04,-4.2340,6.1127,0.1799,-0.0002,-0.0000,0.2632,flat,18.0,1,5.138
4480,143.36,-3.6924,6.2431,0.1799,-0.0003,-0.0000,0.1437,flat,18.0,1,4.640
4490,143.68,-3.1366,6.3114,0.1798,-0.0004,-0.0000,0.0403,flat,18.0,1,4.124
4500,144.00,-2.5750,6.3237,0.1798,-0.0004,-0.0000,-0.0495,flat,18.0,1,3.596
4510,144.32,-2.0140,6.2872,0.1798,-0.0003,-0.0000,-0.1253,flat,18.0,1,3.061
4520,144.64,-1.4572,6.2090,0.1797,-0.0003,-0.0000,-0.1934,flat,18.0,1,2.522
4530,144.96,-0.9078,6.0933,0.1797,-0.0002,0.0000,-0.2593,flat,18.0,1,1.984
4540,145.28,-0.3697,5.9415,0.1797,-0.0003,0.0000,-0.3301,flat,18.0,1,1.451
4550,145.60,0.1501,5.7513,0.1798,-0.0004,0.0000,-0.4175,flat,18.0,1,0.932
4560,145.92,0.6529,5.5203,0.1798,-0.0002,-0.0000,-0.4634,flat,18.0,2,9.886
4570,146.24,1.1434,5.2673,0.1797,-0.0001,0.0000,-0.4985,flat,18.0,2,9.344
4580,146.56,1.6347,4.9908,0.1797,-0.0001,-0.0000,-0.5351,flat,18.0,2,8.788
4590,146.88,2.1179,4.6963,0.1797,-0.0001,-0.0000,-0.5664,flat,18.0,2,8.228
4600,147.20,2.5931,4.3868,0.1797,-0.0001,-0.0000,-0.5936,flat,18.0,2,7.665
4610,147.52,3.0607,4.0643,0.1797,-0.0001,-0.0000,-0.6178,flat,18.0,2,7.100
4620,147.84,3.5214,3.7306,0.1797,-0.0001,-0.0000,-0.6394,flat,18.0,2,6.533
4630,148.16,3.9754,3.3868,0.1797,-0.0001,-0.0000,-0.6591,flat,18.0,2,5.965
4640,148.48,4.4232,3.0341,0.1797,-0.0001,-0.0000,-0.6773,flat,18.0,2,5.396
4650,148.80,4.8649,2.6733,0.1797,-0.0001,-0.0000,-0.6943,flat,18.0,2,4.826
4660,149.12,5.3007,2.3049,0.1797,-0.0001,-0.0000,-0.7106,flat,18.0,2,4.256
4670,149.44,5.7306,1.9295,0.1797,-0.0001,-0.0000,-0.7267,flat,18.0,2,3.685
4680,149.76,6.1544,1.5471,0.1797,-0.0001,-0.0000,-0.7432,flat,18.0,2,3.114
4690,150.08,6.5718,1.1578,0.1797,-0.0001,0.0000,-0.7604,flat,18.0,2,2.544
4700,150.40,6.9818,0.7614,0.1797,-0.0001,0.0000,-0.7789,flat,18.0,2,1.974
4710,150.72,7.3830,0.3576,0.1797,-0.0001,0.0000,-0.8010,flat,18.0,2,1.406
4720,151.04,7.7716,-0.0543,0.1797,-0.0001,0.0000,-0.8328,flat,18.0,2,0.845
4730,151.36,8.0377,-0.3884,0.1798,0.0003,-0.0000,-1.1113,flat,18.0,3,5.888
4740,151.68,8.1952,-0.7598,0.1799,-0.0000,0.0000,-1.4212,flat,18.0,3,5.755
4750,152.00,8.2493,-1.2002,0.1799,0.0000,-0.0000,-1.6744,flat,18.0,3,5.524
4760,152.32,8.1733,-1.6897,0.1799,-0.0001,-0.0000,-1.9143,flat,18.0,3,5.184
4770,152.64,7.9724,-2.1676,0.1799,-0.0001,-0.0000,-2.1013,flat,18.0,3,4.766
4780,152.96,7.6781,-2.6126,0.1799,-0.0002,-0.0000,-2.2439,flat,18.0,3,4.299
4790,153.28,7.3204,-3.0214,0.1798,-0.0003,-0.0000,-2.3511,flat,18.0,3,3.805
4800,153.60,6.9189,-3.3918,0.1798,-0.0004,-0.0000,-2.4550,flat,18.0,3,3.297
4810,153.92,6.4791,-3.7242,0.1798,-0.0004,-0.0000,-2.5587,flat,18.0,3,2.777
4820,154.24,6.0061,-4.0132,0.1798,-0.0004,-0.0000,-2.6647,flat,18.0,3,2.248
4830,154.56,5.5050,-4.2528,0.1798,-0.0004,-0.0000,-2.7786,flat,18.0,3,1.713
4840,154.88,4.9817,-4.4343,0.1799,-0.0002,0.0000,-2.9131,flat,18.0,3,1.175
4850,155.20,4.4513,-4.5374,0.1799,-0.0002,-0.0001,-3.0998,flat,18.0,0,13.982
4860,155.52,3.9244,-4.5396,0.1799,-0.0001,-0.0000,2.9957,flat,18.0,0,13.575
4870,155.84,3.4101,-4.4476,0.1798,0.0001,0.0001,2.8718,rough,14.0,0,13.125
4880,156.16,2.9144,-4.3002,0.1798,-0.0002,-0.0001,2.7881,flat,18.0,0,12.657
4890,156.48,2.4004,-4.0958,0.1798,-0.0004,-0.0000,2.7009,flat,18.0,0,12.140
4900,156.80,1.9014,-3.8473,0.1797,-0.0003,-0.0000,2.6342,flat,18.0,0,11.607
4910,157.12,1.4163,-3.5659,0.1797,-0.0002,-0.0000,2.5813,flat,18.0,0,11.063
4920,157.44,0.9444,-3.2589,0.1797,-0.0001,-0.0000,2.5395,flat,18.0,0,10.512
4930,157.76,0.4838,-2.9323,0.1797,-0.0001,-0.0000,2.5051,flat,18.0,0,9.956
4940,158.08,0.0329,-2.5898,0.1797,-0.0001,-0.0000,2.4755,flat,18.0,0,9.396
4950,158.40,-0.4091,-2.2340,0.1797,-0.0001,-0.0000,2.4496,flat,18.0,0,8.833
4960,158.72,-0.8429,-1.8667,0.1797,-0.0001,-0.0000,2.4267,flat,18.0,0,8.269
4970,159.04,-1.2692,-1.4894,0.1797,-0.0001,-0.0000,2.4056,flat,18.0,0,7.702
4980,159.36,-1.6884,-1.1031,0.1797,-0.0001,-0.0000,2.3862,flat,18.0,0,7.135
4990,159.68,-2.1007,-0.7086,0.1797,-0.0001,-0.0000,2.3686,flat,18.0,0,6.566
5000,160.00,-2.5064,-0.3069,0.1797,-0.0001,-0.0000,2.3524,flat,18.0,0,5.996
5010,160.32,-2.9060,0.1015,0.1797,-0.0001,-0.0000,2.3372,flat,18.0,0,5.425
5020,160.64,-3.2996,0.5159,0.1797,-0.0001,-0.0000,2.3225,flat,18.0,0,4.854
5030,160.96,-3.6871,0.9361,0.1797,-0.0001,-0.0000,2.3083,flat,18.0,0,4.283
5040,161.28,-4.0687,1.3616,0.1797,-0.0000,0.0000,2.2944,flat,18.0,0,3.712
5050,161.60,-4.4444,1.7923,0.1797,-0.0000,0.0000,2.2806,flat,18.0,0,3.140
5060,161.92,-4.8138,2.2280,0.1797,-0.0001,0.0000,2.2661,flat,18.0,0,2.569
5070,162.24,-5.1762,2.6688,0.1797,-0.0001,0.0000,2.2499,flat,18.0,0,1.998
5080,162.56,-5.5304,3.1150,0.1797,-0.0001,0.0000,2.2300,flat,18.0,0,1.429
5090,162.88,-5.8725,3.5671,0.1797,-0.0001,0.0000,2.2003,flat,18.0,0,0.865
5100,163.20,-6.1072,3.9306,0.1798,0.0003,0.0001,1.9059,flat,18.0,1,7.002
5110,163.52,-6.2085,4.2654,0.1799,0.0001,-0.0001,1.4696,flat,18.0,1,7.056
5120,163.84,-6.1440,4.6650,0.1799,-0.0001,-0.0000,1.1387,flat,18.0,1,6.956
5130,164.16,-5.9185,5.0630,0.1799,-0.0001,-0.0000,0.8922,flat,18.0,1,6.718
5140,164.48,-5.5732,5.4231,0.1799,-0.0001,-0.0000,0.7005,flat,18.0,1,6.382
5150,164.80,-5.1480,5.7360,0.1799,-0.0001,-0.0000,0.5264,flat,18.0,1,5.984
5160,165.12,-4.6636,5.9872,0.1799,-0.0001,-0.0000,0.3684,flat,18.0,1,5.538
5170,165.44,-4.1407,6.1689,0.1799,-0.0002,-0.0000,0.2328,flat,18.0,1,5.058
5180,165.76,-3.5949,6.2838,0.1799,-0.0004,-0.0000,0.1169,flat,18.0,1,4.556
5190,166.08,-3.0371,6.3377,0.1798,-0.0004,-0.0000,0.0164,flat,18.0,1,4.037
5200,166.40,-2.4752,6.3369,0.1798,-0.0004,-0.0000,-0.0699,flat,18.0,1,3.507
5210,166.72,-1.9149,6.2891,0.1798,-0.0003,-0.0000,-0.1432,flat,18.0,1,2.971
5220,167.04,-1.3597,6.2011,0.1797,-0.0002,-0.0000,-0.2099,flat,18.0,1,2.432
5230,167.36,-0.8125,6.0764,0.1797,-0.0002,0.0000,-0.2755,flat,18.0,1,1.894
5240,167.68,-0.2776,5.9159,0.1797,-0.0003,0.0000,-0.3478,flat,18.0,1,1.362
5250,168.00,0.2375,5.7161,0.1798,-0.0004,0.0000,-0.4374,flat,18.0,1,0.847
5260,168.32,0.7405,5.4778,0.1797,-0.0002,-0.0000,-0.4738,flat,18.0,2,9.791
5270,168.64,1.2383,5.2135,0.1797,-0.0001,-0.0000,-0.5141,flat,18.0,2,9.236
5280,168.96,1.7269,4.9293,0.1797,-0.0001,-0.0000,-0.5476,flat,18.0,2,8.678
5290,169.28,2.2072,4.6288,0.1797,-0.0001,-0.0000,-0.5766,flat,18.0,2,8.116
5300,169.60,2.6798,4.3144,0.1797,-0.0001,-0.0000,-0.6021,flat,18.0,2,7.552
5310,169.92,3.1453,3.9880,0.1797,-0.0001,-0.0000,-0.6247,flat,18.0,2,6.986
5320,170.24,3.6041,3.6510,0.1797,-0.0001,-0.0000,-0.6451,flat,18.0,2,6.418
5330,170.56,4.0566,3.3046,0.1797,-0.0001,-0.0000,-0.6638,flat,18.0,2,5.850
5340,170.88,4.5030,2.9498,0.1797,-0.0001,-0.0000,-0.6811,flat,18.0,2,5.280
5350,171.20,4.9437,2.5873,0.1797,-0.0001,-0.0000,-0.6973,flat,18.0,2,4.710
5360,171.52,5.3786,2.2176,0.1797,-0.0001,-0.0000,-0.7130,flat,18.0,2,4.139
5370,171.84,5.8078,1.8411,0.1797,-0.0001,-0.0000,-0.7286,flat,18.0,2,3.569
5380,172.16,6.2312,1.4579,0.1797,-0.0001,-0.0000,-0.7447,flat,18.0,2,2.998
5390,172.48,6.6480,1.0680,0.1797,-0.0001,0.0000,-0.7615,flat,18.0,2,2.427
5400,172.80,7.0576,0.6711,0.1797,-0.0001,0.0000,-0.7800,flat,18.0,2,1.857
5410,173.12,7.4582,0.2670,0.1797,-0.0001,0.0000,-0.8026,flat,18.0,2,1.290
5420,173.44,7.8427,-0.1420,0.1797,-0.0001,0.0003,-0.8528,flat,18.0,3,5.928
5430,173.76,8.0769,-0.4656,0.1799,0.0002,-0.0000,-1.1751,flat,18.0,3,5.863
5440,174.08,8.2217,-0.8829,0.1799,-0.0000,-0.0000,-1.5051,flat,18.0,3,5.697
5450,174.40,8.2281,-1.3635,0.1799,-0.0002,0.0000,-1.7846,flat,18.0,3,5.411
5460,174.72,8.0948,-1.8534,0.1799,-0.0001,-0.0000,-1.9974,flat,18.0,3,5.030
5470,175.04,7.8510,-2.3204,0.1799,-0.0001,-0.0000,-2.1638,flat,18.0,3,4.586
5480,175.36,7.5276,-2.7519,0.1799,-0.0003,-0.0000,-2.2853,flat,18.0,3,4.104
5490,175.68,7.1525,-3.1463,0.1798,-0.0004,-0.0000,-2.3890,flat,18.0,3,3.602
5500,176.00,6.7364,-3.5040,0.1798,-0.0004,-0.0000,-2.4911,flat,18.0,3,3.088
5510,176.32,6.2844,-3.8223,0.1798,-0.0004,-0.0000,-2.5938,flat,18.0,3,2.564
5520,176.64,5.8013,-4.0957,0.1798,-0.0004,-0.0000,-2.7009,flat,18.0,3,2.031
5530,176.96,5.2922,-4.3173,0.1799,-0.0003,-0.0000,-2.8198,flat,18.0,3,1.494
5540,177.28,4.7637,-4.4765,0.1799,-0.0001,0.0000,-2.9693,flat,18.0,3,0.956
5550,177.60,4.2425,-4.5435,0.1799,-0.0000,-0.0000,3.1100,flat,18.0,0,13.823
5560,177.92,3.7120,-4.5073,0.1799,-0.0001,-0.0000,2.9363,flat,18.0,0,13.393
5570,178.24,3.2279,-4.3923,0.1798,-0.0001,-0.0002,2.8536,flat,18.0,0,12.952
5580,178.56,2.7076,-4.2222,0.1798,-0.0004,-0.0001,2.7517,flat,18.0,0,12.451
5590,178.88,2.1995,-3.9992,0.1798,-0.0003,-0.0000,2.6733,flat,18.0,0,11.927
5600,179.20,1.7059,-3.7370,0.1797,-0.0002,-0.0000,2.6125,flat,18.0,0,11.389
5610,179.52,1.2259,-3.4450,0.1797,-0.0002,-0.0000,2.5637,flat,18.0,0,10.842
5620,179.84,0.7587,-3.1298,0.1797,-0.0001,-0.0000,2.5256,flat,18.0,0,10.289
5630,180.16,0.3020,-2.7968,0.1797,-0.0001,-0.0000,2.4931,flat,18.0,0,9.732
5640,180.48,-0.1453,-2.4489,0.1797,-0.0001,-0.0000,2.4651,flat,18.0,0,9.171
5650,180.80,-0.5841,-2.0884,0.1797,-0.0001,-0.0000,2.4404,flat,18.0,0,8.607
5660,181.12,-1.0149,-1.7171,0.1797,-0.0001,-0.0000,2.4183,flat,18.0,0,8.042
5670,181.44,-1.4384,-1.3362,0.1797,-0.0001,-0.0000,2.3978,flat,18.0,0,7.475
5680,181.76,-1.8548,-0.9465,0.1797,-0.0001,-0.0000,2.3791,flat,18.0,0,6.907
5690,182.08,-2.2644,-0.5491,0.1797,-0.0001,-0.0000,2.3621,flat,18.0,0,6.338
5700,182.40,-2.6677,-0.1447,0.1797,-0.0001,-0.0000,2.3463,flat,18.0,0,5.768
5710,182.72,-3.0649,0.2661,0.1797,-0.0001,-0.0000,2.3313,flat,18.0,0,5.197
5720,183.04,-3.4560,0.6829,0.1797,-0.0001,-0.0000,2.3168,flat,18.0,0,4.626
5730,183.36,-3.8412,1.1053,0.1797,-0.0000,-0.0000,2.3027,flat,18.0,0,4.054
5740,183.68,-4.2204,1.5329,0.1797,-0.0000,0.0000,2.2888,flat,18.0,0,3.483
5750,184.00,-4.5935,1.9656,0.1797,-0.0000,0.0000,2.2748,flat,18.0,0,2.912
5760,184.32,-4.9602,2.4034,0.1797,-0.0001,0.0000,2.2598,flat,18.0,0,2.341
5770,184.64,-5.3195,2.8464,0.1797,-0.0001,0.0000,2.2424,flat,18.0,0,1.770
5780,184.96,-5.6694,3.2949,0.1797,-0.0001,0.0000,2.2198,flat,18.0,0,1.202
5790,185.28,-5.9957,3.7395,0.1797,-0.0001,0.0003,2.1481,flat,18.0,1,6.927
5800,185.60,-6.1641,4.0551,0.1798,0.0003,0.0000,1.7256,flat,18.0,1,7.039
5810,185.92,-6.2042,4.4214,0.1799,-0.0000,-0.0001,1.3240,flat,18.0,1,7.035
5820,186.24,-6.0710,4.8273,0.1799,-0.0001,-0.0000,1.0318,flat,18.0,1,6.876
5830,186.56,-5.7922,5.2124,0.1799,-0.0001,-0.0000,0.8108,flat,18.0,1,6.593
5840,186.88,-5.4114,5.5546,0.1799,-0.0001,-0.0000,0.6292,flat,18.0,1,6.229
5850,187.20,-4.9601,5.8446,0.1799,-0.0001,-0.0000,0.4607,flat,18.0,1,5.810
5860,187.52,-4.4580,6.0681,0.1799,-0.0001,-0.0000,0.3115,flat,18.0,1,5.349
5870,187.84,-3.9243,6.2224,0.1799,-0.0003,-0.0000,0.1843,flat,18.0,1,4.860
5880,188.16,-3.3726,6.3122,0.1798,-0.0004,-0.0000,0.0751,flat,18.0,1,4.350
5890,188.48,-2.8123,6.3434,0.1798,-0.0004,-0.0000,-0.0201,flat,18.0,1,3.826
5900,188.80,-2.2506,6.3228,0.1798,-0.0004,-0.0000,-0.1003,flat,18.0,1,3.293
5910,189.12,-1.6920,6.2584,0.1798,-0.0003,-0.0000,-0.1703,flat,18.0,1,2.755
5920,189.44,-1.1395,6.1554,0.1797,-0.0002,-0.0000,-0.2359,flat,18.0,1,2.216
5930,189.76,-0.5966,6.0164,0.1797,-0.0002,0.0000,-0.3030,flat,18.0,1,1.680
5940,190.08,-0.0687,5.8410,0.1798,-0.0003,0.0000,-0.3816,flat,18.0,1,1.153
5950,190.40,0.4373,5.6247,0.1798,-0.0003,-0.0000,-0.4453,flat,18.0,2,10.120
5960,190.72,0.9411,5.3747,0.1797,-0.0002,-0.0000,-0.4912,flat,18.0,2,9.569
5970,191.04,1.4349,5.1019,0.1797,-0.0001,-0.0000,-0.5281,flat,18.0,2,9.013
5980,191.36,1.9201,4.8109,0.1797,-0.0001,-0.0000,-0.5597,flat,18.0,2,8.453
5990,191.68,2.3972,4.5046,0.1797,-0.0001,-0.0000,-0.5872,flat,18.0,2,7.891
6000,192.00,2.8669,4.1851,0.1797,-0.0001,-0.0000,-0.6115,flat,18.0,2,7.326
6010,192.32,3.3297,3.8543,0.1797,-0.0001,-0.0000,-0.6331,flat,18.0,2,6.759
6020,192.64,3.7859,3.5134,0.1797,-0.0001,-0.0000,-0.6528,flat,18.0,2,6.191
6030,192.96,4.2360,3.1636,0.1797,-0.0001,-0.0000,-0.6708,flat,18.0,2,5.622
6040,193.28,4.6801,2.8056,0.1797,-0.0001,-0.0000,-0.6877,flat,18.0,2,5.052
6050,193.60,5.1184,2.4401,0.1797,-0.0001,-0.0000,-0.7036,flat,18.0,2,4.482
6060,193.92,5.5511,2.0677,0.1797,-0.0001,-0.0000,-0.7192,flat,18.0,2,3.911
6070,194.24,5.9780,1.6886,0.1797,-0.0001,-0.0000,-0.7350,flat,18.0,2,3.340
6080,194.56,6.3988,1.3027,0.1797,-0.0001,0.0000,-0.7513,flat,18.0,2,2.769
6090,194.88,6.8129,0.9100,0.1797,-0.0001,0.0000,-0.7687,flat,18.0,2,2.199
6100,195.20,7.2192,0.5103,0.1797,-0.0001,0.0000,-0.7884,flat,18.0,2,1.629
6110,195.52,7.6152,0.1030,0.1797,-0.0001,0.0000,-0.8142,flat,18.0,2,1.064
6120,195.84,7.9483,-0.2668,0.1798,0.0001,0.0003,-0.9687,flat,18.0,3,5.911
6130,196.16,8.1484,-0.6214,0.1799,0.0000,-0.0000,-1.3097,flat,18.0,3,5.811
6140,196.48,8.2427,-1.0710,0.1799,-0.0001,-0.0000,-1.6275,flat,18.0,3,5.597
6150,196.80,8.1900,-1.5609,0.1799,-0.0001,-0.0000,-1.8762,flat,18.0,3,5.268
6160,197.12,8.0088,-2.0442,0.1799,-0.0001,-0.0000,-2.0693,flat,18.0,3,4.858
6170,197.44,7.7297,-2.4971,0.1799,-0.0001,-0.0000,-2.2182,flat,18.0,3,4.397
6180,197.76,7.3828,-2.9146,0.1798,-0.0003,-0.0000,-2.3271,flat,18.0,3,3.905
6190,198.08,6.9907,-3.2938,0.1798,-0.0004,-0.0000,-2.4299,flat,18.0,3,3.398
6200,198.40,6.5597,-3.6364,0.1798,-0.0004,-0.0000,-2.5320,flat,18.0,3,2.880
6210,198.72,6.0946,-3.9374,0.1798,-0.0004,-0.0000,-2.6359,flat,18.0,3,2.351
6220,199.04,5.6005,-4.1911,0.1798,-0.0004,-0.0000,-2.7464,flat,18.0,3,1.816
6230,199.36,5.0826,-4.3894,0.1799,-0.0003,0.0000,-2.8742,flat,18.0,3,1.278
6240,199.68,4.5520,-4.5164,0.1799,-0.0000,0.0002,-3.0605,flat,18.0,0,14.047
6250,200.00,4.0317,-4.5416,0.1799,-0.0001,-0.0000,3.0340,flat,18.0,0,13.659
6260,200.32,3.4986,-4.4657,0.1799,-0.0001,-0.0000,2.8802,rough,14.0,0,13.204
6270,200.64,3.0197,-4.3313,0.1798,-0.0001,-0.0001,2.8109,flat,18.0,0,12.756
6280,200.96,2.5025,-4.1384,0.1798,-0.0004,-0.0000,2.7178,flat,18.0,0,12.244
6290,201.28,2.0003,-3.8984,0.1798,-0.0003,-0.0000,2.6473,flat,18.0,0,11.713
6300,201.60,1.5124,-3.6233,0.1797,-0.0002,-0.0000,2.5918,flat,18.0,0,11.171
6310,201.92,1.0377,-3.3213,0.1797,-0.0002,-0.0000,2.5476,flat,18.0,0,10.622
6320,202.24,0.5749,-2.9985,0.1797,-0.0001,-0.0000,2.5120,flat,18.0,0,10.067
6330,202.56,0.1220,-2.6592,0.1797,-0.0001,-0.0000,2.4814,flat,18.0,0,9.508
6340,202.88,-0.3218,-2.3060,0.1797,-0.0001,-0.0000,2.4548,flat,18.0,0,8.946
6350,203.20,-0.7573,-1.9410,0.1797,-0.0001,-0.0000,2.4313,flat,18.0,0,8.382
6360,203.52,-1.1851,-1.5658,0.1797,-0.0001,-0.0000,2.4099,flat,18.0,0,7.816
6370,203.84,-1.6058,-1.1813,0.1797,-0.0001,-0.0000,2.3901,flat,18.0,0,7.248
6380,204.16,-2.0194,-0.7884,0.1797,-0.0001,-0.0000,2.3721,flat,18.0,0,6.679
6390,204.48,-2.4265,-0.3881,0.1797,-0.0001,-0.0000,2.3556,flat,18.0,0,6.110
6400,204.80,-2.8273,0.0189,0.1797,-0.0001,-0.0000,2.3402,flat,18.0,0,5.539
6410,205.12,-3.2221,0.4321,0.1797,-0.0001,-0.0000,2.3254,flat,18.0,0,4.968
6420,205.44,-3.6108,0.8512,0.1797,-0.0001,-0.0000,2.3111,flat,18.0,0,4.397
6430,205.76,-3.9936,1.2757,0.1797,-0.0000,-0.0000,2.2971,flat,18.0,0,3.826
6440,206.08,-4.3704,1.7054,0.1797,-0.0000,0.0000,2.2833,flat,18.0,0,3.254
6450,206.40,-4.7410,2.1401,0.1797,-0.0001,0.0000,2.2689,flat,18.0,0,2.683
6460,206.72,-5.1049,2.5800,0.1797,-0.0001,0.0000,2.2532,flat,18.0,0,2.112
6470,207.04,-5.4608,3.0251,0.1797,-0.0001,0.0000,2.2343,flat,18.0,0,1.543
6480,207.36,-5.8057,3.4760,0.1797,-0.0001,0.0000,2.2075,flat,18.0,0,0.977
6490,207.68,-6.0732,3.8709,0.1798,0.0002,0.0003,1.9973,flat,18.0,1,6.979
6500,208.00,-6.2003,4.1913,0.1798,0.0001,-0.0001,1.5504,flat,18.0,1,7.057
6510,208.32,-6.1711,4.5832,0.1799,-0.0001,-0.0001,1.1967,flat,18.0,1,6.989
6520,208.64,-5.9746,4.9858,0.1799,-0.0001,-0.0000,0.9361,flat,18.0,1,6.775
6530,208.96,-5.6495,5.3545,0.1799,-0.0001,-0.0000,0.7367,flat,18.0,1,6.455
6540,209.28,-5.2384,5.6779,0.1799,-0.0001,-0.0000,0.5600,flat,18.0,1,6.067
6550,209.60,-4.7641,5.9424,0.1799,-0.0001,-0.0000,0.3982,flat,18.0,1,5.630
6560,209.92,-4.2475,6.1380,0.1799,-0.0002,-0.0000,0.2582,flat,18.0,1,5.156
6570,210.24,-3.7052,6.2658,0.1799,-0.0003,-0.0000,0.1387,flat,18.0,1,4.658
6580,210.56,-3.1491,6.3314,0.1798,-0.0004,-0.0000,0.0354,flat,18.0,1,4.142
6590,210.88,-2.5875,6.3409,0.1798,-0.0004,-0.0000,-0.0539,flat,18.0,1,3.613
6600,211.20,-2.0266,6.3020,0.1798,-0.0003,-0.0000,-0.1292,flat,18.0,1,3.078
6610,211.52,-1.4701,6.2216,0.1797,-0.0003,-0.0000,-0.1968,flat,18.0,1,2.540
6620,211.84,-0.9210,6.1041,0.1797,-0.0002,-0.0000,-0.2621,flat,18.0,1,2.001
6630,212.16,-0.3832,5.9508,0.1797,-0.0003,0.0000,-0.3322,flat,18.0,1,1.467
6640,212.48,0.1365,5.7595,0.1798,-0.0004,0.0000,-0.4183,flat,18.0,1,0.948
6650,212.80,0.6397,5.5277,0.1798,-0.0002,-0.0000,-0.4643,flat,18.0,2,9.901
6660,213.12,1.1397,5.2680,0.1797,-0.0001,-0.0000,-0.5067,flat,18.0,2,9.348
6670,213.44,1.6300,4.9875,0.1797,-0.0001,-0.0000,-0.5413,flat,18.0,2,8.790
6680,213.76,2.1118,4.6901,0.1797,-0.0001,-0.0000,-0.5712,flat,18.0,2,8.229
6690,214.08,2.5860,4.3783,0.1797,-0.0001,-0.0000,-0.5973,flat,18.0,2,7.665
6700,214.40,3.0528,4.0541,0.1797,-0.0001,-0.0000,-0.6204,flat,18.0,2,7.099
6710,214.72,3.5129,3.7191,0.1797,-0.0001,-0.0000,-0.6412,flat,18.0,2,6.532
6720,215.04,3.9667,3.3745,0.1797,-0.0001,-0.0000,-0.6602,flat,18.0,2,5.963
6730,215.36,4.4143,3.0213,0.1797,-0.0001,-0.0000,-0.6777,flat,18.0,2,5.394
6740,215.68,4.8561,2.6603,0.1797,-0.0001,-0.0000,-0.6941,flat,18.0,2,4.824
6750,216.00,5.2922,2.2920,0.1797,-0.0001,-0.0000,-0.7099,flat,18.0,2,4.254
6760,216.32,5.7225,1.9169,0.1797,-0.0001,-0.0000,-0.7255,flat,18.0,2,3.683
6770,216.64,6.1471,1.5350,0.1797,-0.0001,-0.0000,-0.7414,flat,18.0,2,3.112
6780,216.96,6.5653,1.1465,0.1797,-0.0001,0.0000,-0.7581,flat,18.0,2,2.541
6790,217.28,6.9764,0.7510,0.1797,-0.0001,0.0000,-0.7761,flat,18.0,2,1.971
6800,217.60,7.3791,0.3484,0.1797,-0.0001,0.0000,-0.7976,flat,18.0,2,1.403
6810,217.92,7.7694,-0.0622,0.1797,-0.0001,0.0000,-0.8284,flat,18.0,2,0.842
6820,218.24,8.0364,-0.3945,0.1798,0.0003,-0.0000,-1.1069,flat,18.0,3,5.883
6830,218.56,8.2025,-0.7926,0.1799,-0.0000,-0.0000,-1.4410,flat,18.0,3,5.740
6840,218.88,8.2389,-1.2651,0.1799,-0.0002,-0.0000,-1.7352,flat,18.0,3,5.477
6850,219.20,8.1313,-1.7567,0.1799,-0.0001,-0.0000,-1.9590,flat,18.0,3,5.112
6860,219.52,7.9071,-2.2298,0.1799,-0.0001,-0.0000,-2.1342,flat,18.0,3,4.679
6870,219.84,7.5972,-2.6683,0.1799,-0.0002,-0.0000,-2.2644,flat,18.0,3,4.202
6880,220.16,7.2309,-3.0706,0.1798,-0.0004,-0.0000,-2.3685,flat,18.0,3,3.704
6890,220.48,6.8227,-3.4355,0.1798,-0.0004,-0.0000,-2.4707,flat,18.0,3,3.192
6900,220.80,6.3774,-3.7621,0.1798,-0.0004,-0.0000,-2.5731,flat,18.0,3,2.669
6910,221.12,5.9002,-4.0449,0.1798,-0.0004,-0.0000,-2.6789,flat,18.0,3,2.138
6920,221.44,5.3958,-4.2776,0.1799,-0.0004,-0.0000,-2.7945,flat,18.0,3,1.601
6930,221.76,4.8705,-4.4505,0.1799,-0.0001,0.0000,-2.9353,flat,18.0,3,1.063
6940,222.08,4.3464,-4.5375,0.1799,0.0000,-0.0000,-3.1313,flat,18.0,0,13.900
6950,222.40,3.8188,-4.5227,0.1799,-0.0001,-0.0000,2.9670,flat,18.0,0,13.484
6960,222.72,3.3266,-4.4215,0.1798,-0.0000,0.0001,2.8640,flat,18.0,0,13.045
6970,223.04,2.8111,-4.2609,0.1799,-0.0003,-0.0001,2.7702,flat,18.0,0,12.554
6980,223.36,2.2999,-4.0473,0.1798,-0.0004,-0.0000,2.6874,flat,18.0,0,12.033
6990,223.68,1.8035,-3.7920,0.1797,-0.0002,-0.0000,2.6236,flat,18.0,0,11.498
7000,224.00,1.3209,-3.5055,0.1797,-0.0002,-0.0000,2.5727,flat,18.0,0,10.952
7010,224.32,0.8513,-3.1944,0.1797,-0.0001,-0.0000,2.5327,flat,18.0,0,10.400
7020,224.64,0.3926,-2.8646,0.1797,-0.0001,-0.0000,2.4992,flat,18.0,0,9.843
7030,224.96,-0.0566,-2.5195,0.1797,-0.0001,-0.0000,2.4704,flat,18.0,0,9.283
7040,225.28,-0.4970,-2.1614,0.1797,-0.0001,-0.0000,2.4451,flat,18.0,0,8.720
7050,225.60,-0.9293,-1.7921,0.1797,-0.0001,-0.0000,2.4225,flat,18.0,0,8.155
7060,225.92,-1.3542,-1.4130,0.1797,-0.0001,-0.0000,2.4018,flat,18.0,0,7.589
7070,226.24,-1.7721,-1.0251,0.1797,-0.0001,-0.0000,2.3827,flat,18.0,0,7.021
7080,226.56,-2.1830,-0.6292,0.1797,-0.0001,-0.0000,2.3654,flat,18.0,0,6.452
7090,226.88,-2.5876,-0.2261,0.1797,-0.0001,-0.0000,2.3494,flat,18.0,0,5.882
7100,227.20,-2.9860,0.1835,0.1797,-0.0001,-0.0000,2.3342,flat,18.0,0,5.311
7110,227.52,-3.3783,0.5991,0.1797,-0.0001,-0.0000,2.3197,flat,18.0,0,4.740
7120,227.84,-3.7646,1.0204,0.1797,-0.0001,-0.0000,2.3055,flat,18.0,0,4.169
7130,228.16,-4.1450,1.4470,0.1797,-0.0000,0.0000,2.2916,flat,18.0,0,3.597
7140,228.48,-4.5194,1.8787,0.1797,-0.0000,0.0000,2.2776,flat,18.0,0,3.026
7150,228.80,-4.8874,2.3154,0.1797,-0.0001,0.0000,2.2629,flat,18.0,0,2.455
7160,229.12,-5.2483,2.7573,0.1797,-0.0001,0.0000,2.2462,flat,18.0,0,1.884
7170,229.44,-5.6003,3.2048,0.1797,-0.0001,0.0000,2.2250,flat,18.0,0,1.316
7180,229.76,-5.9390,3.6580,0.1797,-0.0001,0.0000,2.1913,flat,18.0,1,0.753
7190,230.08,-6.1382,3.9921,0.1798,0.0003,0.0000,1.8151,flat,18.0,1,7.023
7200,230.40,-6.2099,4.3424,0.1799,0.0000,-0.0001,1.3942,flat,18.0,1,7.049
7210,230.72,-6.1106,4.7465,0.1799,-0.0001,-0.0000,1.0837,flat,18.0,1,6.919
7220,231.04,-5.8576,5.1386,0.1799,-0.0001,-0.0000,0.8504,flat,18.0,1,6.658
7230,231.36,-5.4937,5.4898,0.1799,-0.0001,-0.0000,0.6646,flat,18.0,1,6.307
7240,231.68,-5.0552,5.7916,0.1799,-0.0001,-0.0000,0.4932,flat,18.0,1,5.898
7250,232.00,-4.5615,6.0290,0.1799,-0.0001,-0.0000,0.3395,flat,18.0,1,5.444
7260,232.32,-4.0329,6.1970,0.1799,-0.0002,-0.0000,0.2082,flat,18.0,1,4.959
7270,232.64,-3.4839,6.2991,0.1799,-0.0004,-0.0000,0.0957,flat,18.0,1,4.453
7280,232.96,-2.9247,6.3416,0.1798,-0.0004,-0.0000,-0.0022,flat,18.0,1,3.931
7290,233.28,-2.3628,6.3307,0.1798,-0.0004,-0.0000,-0.0853,flat,18.0,1,3.400
7300,233.60,-1.8033,6.2745,0.1798,-0.0003,-0.0000,-0.1569,flat,18.0,1,2.863
7310,233.92,-1.2494,6.1790,0.1797,-0.0002,-0.0000,-0.2229,flat,18.0,1,2.324
7320,234.24,-0.7043,6.0471,0.1797,-0.0002,0.0000,-0.2891,flat,18.0,1,1.787
7330,234.56,-0.1727,5.8792,0.1798,-0.0003,0.0000,-0.3643,flat,18.0,1,1.257
7340,234.88,0.3366,5.6714,0.1798,-0.0004,0.0001,-0.4346,flat,18.0,2,10.229
7350,235.20,0.8411,5.4268,0.1797,-0.0002,-0.0000,-0.4829,flat,18.0,2,9.680
7360,235.52,1.3368,5.1580,0.1797,-0.0001,-0.0000,-0.5212,flat,18.0,2,9.125
7370,235.84,1.8237,4.8704,0.1797,-0.0001,-0.0000,-0.5538,flat,18.0,2,8.566
7380,236.16,2.3024,4.5670,0.1797,-0.0001,-0.0000,-0.5820,flat,18.0,2,8.003
7390,236.48,2.7736,4.2500,0.1797,-0.0001,-0.0000,-0.6068,flat,18.0,2,7.439
7400,236.80,3.2377,3.9213,0.1797,-0.0001,-0.0000,-0.6290,flat,18.0,2,6.872
7410,237.12,3.6952,3.5824,0.1797,-0.0001,-0.0000,-0.6490,flat,18.0,2,6.305
7420,237.44,4.1464,3.2343,0.1797,-0.0001,-0.0000,-0.6673,flat,18.0,2,5.736
7430,237.76,4.5917,2.8778,0.1797,-0.0001,-0.0000,-0.6844,flat,18.0,2,5.166
7440,238.08,5.0312,2.5138,0.1797,-0.0001,-0.0000,-0.7005,flat,18.0,2,4.596
7450,238.40,5.4650,2.1428,0.1797,-0.0001,-0.0000,-0.7161,flat,18.0,2,4.025
7460,238.72,5.8931,1.7650,0.1797,-0.0001,-0.0000,-0.7318,flat,18.0,2,3.454
7470,239.04,6.3152,1.3804,0.1797,-0.0001,0.0000,-0.7480,flat,18.0,2,2.883
7480,239.36,6.7307,0.9891,0.1797,-0.0001,0.0000,-0.7651,flat,18.0,2,2.313
7490,239.68,7.1386,0.5908,0.1797,-0.0001,0.0000,-0.7841,flat,18.0,2,1.743
7500,240.00,7.5371,0.1851,0.1797,-0.0001,0.0000,-0.8082,flat,18.0,2,1.177
7510,240.32,7.9013,-0.2086,0.1798,-0.0001,0.0004,-0.8983,flat,18.0,3,5.920
7520,240.64,8.1145,-0.5414,0.1799,0.0001,-0.0000,-1.2428,flat,18.0,3,5.839
7530,240.96,8.2354,-0.9759,0.1799,-0.0000,-0.0000,-1.5679,flat,18.0,3,5.649
7540,241.28,8.2118,-1.4623,0.1799,-0.0001,-0.0000,-1.8316,flat,18.0,3,5.341
7550,241.60,8.0539,-1.9494,0.1799,-0.0001,-0.0000,-2.0342,flat,18.0,3,4.945
7560,241.92,7.7918,-2.4095,0.1799,-0.0001,-0.0000,-2.1919,flat,18.0,3,4.492
7570,242.24,7.4561,-2.8341,0.1798,-0.0003,-0.0000,-2.3063,flat,18.0,3,4.004
7580,242.56,7.0724,-3.2208,0.1798,-0.0004,-0.0000,-2.4094,flat,18.0,3,3.501
7590,242.88,6.6487,-3.5710,0.1798,-0.0004,-0.0000,-2.5115,flat,18.0,3,2.984
7600,243.20,6.1901,-3.8808,0.1798,-0.0004,-0.0000,-2.6148,flat,18.0,3,2.458
7610,243.52,5.7014,-4.1444,0.1798,-0.0004,-0.0000,-2.7234,flat,18.0,3,1.924
7620,243.84,5.1878,-4.3547,0.1799,-0.0003,-0.0000,-2.8463,flat,18.0,3,1.386
7630,244.16,4.6567,-4.4993,0.1799,-0.0001,0.0000,-3.0063,flat,18.0,3,0.849
7640,244.48,4.1375,-4.5447,0.1799,-0.0001,-0.0000,3.0707,flat,18.0,0,13.743
7650,244.80,3.6053,-4.4882,0.1799,-0.0001,-0.0000,2.9074,flat,18.0,0,13.299
7660,245.12,3.1248,-4.3627,0.1798,-0.0001,-0.0002,2.8333,flat,18.0,0,12.855
7670,245.44,2.6047,-4.1813,0.1798,-0.0004,-0.0000,2.7342,flat,18.0,0,12.348
7680,245.76,2.0996,-3.9495,0.1798,-0.0003,-0.0000,2.6600,flat,18.0,0,11.821
7690,246.08,1.6089,-3.6807,0.1797,-0.0002,-0.0000,2.6019,flat,18.0,0,11.281
7700,246.40,1.1315,-3.3836,0.1797,-0.0002,-0.0000,2.5555,flat,18.0,0,10.732
7710,246.72,0.6666,-3.0645,0.1797,-0.0001,-0.0000,2.5187,flat,18.0,0,10.178
7720,247.04,0.2118,-2.7283,0.1797,-0.0001,-0.0000,2.4872,flat,18.0,0,9.620
7730,247.36,-0.2338,-2.3777,0.1797,-0.0001,-0.0000,2.4599,flat,18.0,0,9.058
7740,247.68,-0.6708,-2.0149,0.1797,-0.0001,-0.0000,2.4358,flat,18.0,0,8.495
7750,248.00,-1.1002,-1.6416,0.1797,-0.0001,-0.0000,2.4140,flat,18.0,0,7.929
7760,248.32,-1.5222,-1.2589,0.1797,-0.0001,-0.0000,2.3939,flat,18.0,0,7.362
7770,248.64,-1.9373,-0.8676,0.1797,-0.0001,-0.0000,2.3756,flat,18.0,0,6.793
7780,248.96,-2.3456,-0.4687,0.1797,-0.0001,-0.0000,2.3588,flat,18.0,0,6.224
7790,249.28,-2.7477,-0.0630,0.1797,-0.0001,-0.0000,2.3432,flat,18.0,0,5.653
7800,249.60,-3.1436,0.3490,0.1797,-0.0001,-0.0000,2.3284,flat,18.0,0,5.083
7810,249.92,-3.5335,0.7669,0.1797,-0.0001,-0.0000,2.3139,flat,18.0,0,4.512
7820,250.24,-3.9175,1.1904,0.1797,-0.0000,-0.0000,2.2999,flat,18.0,0,3.940
7830,250.56,-4.2955,1.6191,0.1797,-0.0000,0.0000,2.2861,flat,18.0,0,3.369
7840,250.88,-4.6674,2.0528,0.1797,-0.0000,0.0000,2.2719,flat,18.0,0,2.797
7850,251.20,-5.0327,2.4916,0.1797,-0.0001,0.0000,2.2565,flat,18.0,0,2.227
7860,251.52,-5.3903,2.9356,0.1797,-0.0001,0.0000,2.2385,flat,18.0,0,1.657
7870,251.84,-5.7379,3.3854,0.1797,-0.0001,0.0000,2.2140,flat,18.0,0,1.089
7880,252.16,-6.0377,3.8092,0.1798,-0.0000,0.0005,2.0832,flat,18.0,1,6.955
7890,252.48,-6.1849,4.1210,0.1798,0.0002,-0.0001,1.6374,flat,18.0,1,7.051
7900,252.80,-6.1912,4.5019,0.1799,-0.0001,-0.0001,1.2584,flat,18.0,1,7.015
7910,253.12,-6.0256,4.9072,0.1799,-0.0001,-0.0000,0.9827,flat,18.0,1,6.828
7920,253.44,-5.7227,5.2843,0.1799,-0.0001,-0.0000,0.7732,flat,18.0,1,6.526
7930,253.76,-5.3262,5.6174,0.1799,-0.0001,-0.0000,0.5944,flat,18.0,1,6.149
7940,254.08,-4.8630,5.8949,0.1799,-0.0001,-0.0000,0.4289,flat,18.0,1,5.721
7950,254.40,-4.3533,6.1044,0.1799,-0.0001,-0.0000,0.2844,flat,18.0,1,5.253
7960,254.72,-3.8151,6.2454,0.1799,-0.0003,-0.0000,0.1612,flat,18.0,1,4.759
7970,255.04,-3.2610,6.3229,0.1798,-0.0004,-0.0000,0.0550,flat,18.0,1,4.246
7980,255.36,-2.6999,6.3432,0.1798,-0.0004,-0.0000,-0.0373,flat,18.0,1,3.720
7990,255.68,-2.1385,6.3133,0.1798,-0.0004,-0.0000,-0.1150,flat,18.0,1,3.186
8000,256.00,-1.5809,6.2408,0.1797,-0.0003,-0.0000,-0.1836,flat,18.0,1,2.647
8010,256.32,-1.0301,6.1305,0.1797,-0.0002,-0.0000,-0.2490,flat,18.0,1,2.109
8020,256.64,-0.4896,5.9844,0.1797,-0.0002,0.0000,-0.3173,flat,18.0,1,1.573
8030,256.96,0.0344,5.8012,0.1798,-0.0004,0.0000,-0.3997,flat,18.0,1,1.050
