step,time_s,x,y,z,roll,pitch,yaw,terrain,speed,target_idx,dist_to_target
10,0.32,-0.1324,1.4505,0.1832,0.0003,-0.0222,0.0044,rough,14.0,0,4.147
20,0.64,0.1313,1.4528,0.1796,-0.0007,0.0012,0.3655,flat,18.0,0,4.219
30,0.96,0.4385,1.6090,0.1799,-0.0001,-0.0001,0.7262,flat,18.0,0,4.180
40,1.28,0.7168,1.9246,0.1799,-0.0000,-0.0000,1.0227,flat,18.0,0,4.014
50,1.60,0.9316,2.3458,0.1799,0.0000,-0.0000,1.3171,flat,18.0,0,3.765
60,1.92,1.0320,2.8375,0.1799,0.0001,-0.0000,1.5996,flat,18.0,0,3.433
70,2.24,0.9926,3.3546,0.1799,0.0001,-0.0000,1.8358,flat,18.0,0,3.027
80,2.56,0.8303,3.8564,0.1799,0.0001,-0.0000,2.0222,flat,18.0,0,2.573
90,2.88,0.5748,4.3221,0.1799,0.0001,-0.0000,2.1772,flat,18.0,0,2.093
100,3.20,0.2468,4.7458,0.1799,0.0002,0.0000,2.3095,flat,18.0,0,1.596
110,3.52,-0.1344,5.1135,0.1799,0.0000,0.0000,2.4680,flat,18.0,0,1.102
120,3.84,-0.5598,5.4081,0.1799,0.0005,-0.0000,2.5694,flat,18.0,1,2.015
130,4.16,-0.9554,5.7057,0.1787,-0.0064,0.0005,2.3888,rough,14.0,1,1.665
140,4.48,-1.2454,6.0148,0.1797,-0.0008,-0.0004,2.2368,flat,18.0,1,1.374
150,4.80,-1.5302,6.4451,0.1799,-0.0000,-0.0000,1.9628,flat,18.0,1,1.057
160,5.12,-1.6915,6.9159,0.1799,0.0000,0.0000,1.5087,flat,18.0,1,0.811
170,5.44,-1.6568,7.2644,0.1798,0.0001,0.0000,1.0579,flat,18.0,2,8.472
180,5.76,-1.4479,7.5450,0.1799,0.0001,-0.0001,0.7340,flat,18.0,2,8.426
190,6.08,-1.1000,7.8000,0.1799,0.0000,-0.0000,0.4524,flat,18.0,2,8.264
200,6.40,-0.6537,7.9838,0.1799,-0.0000,-0.0000,0.1913,flat,18.0,2,8.000
210,6.72,-0.1455,8.0591,0.1799,-0.0000,-0.0000,-0.0394,flat,18.0,2,7.641
220,7.04,0.3863,8.0185,0.1799,-0.0001,-0.0000,-0.2177,flat,18.0,2,7.206
230,7.36,0.9140,7.8837,0.1799,-0.0002,-0.0000,-0.3492,flat,18.0,2,6.724
240,7.68,1.4255,7.6811,0.1798,-0.0004,-0.0000,-0.4475,flat,18.0,2,6.215
250,8.00,1.9190,7.4290,0.1798,-0.0003,-0.0000,-0.5254,flat,18.0,2,5.690
260,8.32,2.3946,7.1386,0.1797,-0.0002,-0.0000,-0.5898,flat,18.0,2,5.154
270,8.64,2.8530,6.8177,0.1797,-0.0002,-0.0000,-0.6451,flat,18.0,2,4.611
280,8.96,3.2946,6.4714,0.1797,-0.0002,-0.0000,-0.6942,flat,18.0,2,4.064
290,9.28,3.7195,6.1034,0.1797,-0.0002,-0.0000,-0.7386,flat,18.0,2,3.512
300,9.60,4.1283,5.7166,0.1797,-0.0001,-0.0000,-0.7817,flat,18.0,2,2.959
310,9.92,4.5197,5.3124,0.1797,-0.0002,0.0000,-0.8254,flat,18.0,2,2.405
320,10.24,4.8911,4.8920,0.1797,-0.0002,0.0000,-0.8729,flat,18.0,2,1.852
330,10.56,5.2403,4.4551,0.1797,-0.0002,-0.0000,-0.9313,flat,18.0,2,1.301
340,10.88,5.5597,3.9997,0.1798,-0.0003,0.0000,-1.0197,flat,18.0,3,0.755
350,11.20,5.8564,3.5386,0.1798,0.0001,0.0004,-0.9727,rough,14.0,3,2.692
360,11.52,6.1071,3.1807,0.1797,0.0001,0.0000,-0.9392,rough,14.0,3,2.273
370,11.84,6.4215,2.7666,0.1797,0.0002,-0.0001,-0.8931,flat,18.0,3,1.778
380,12.16,6.7812,2.3425,0.1797,0.0002,-0.0000,-0.8276,flat,18.0,3,1.258
390,12.48,7.1657,1.9564,0.1798,0.0003,0.0000,-0.7240,flat,18.0,0,0.769
400,12.80,7.3722,1.7519,0.1797,0.0006,-0.0009,-1.1018,flat,18.0,0,9.322
410,13.12,7.4920,1.4873,0.1798,0.0002,-0.0001,-1.5801,flat,18.0,0,9.539
420,13.44,7.4799,1.1768,0.1799,0.0002,-0.0000,-2.0452,flat,18.0,0,9.662
430,13.76,7.2826,0.8830,0.1799,0.0001,-0.0001,-2.3673,flat,18.0,0,9.622
440,14.08,6.9423,0.6137,0.1799,0.0000,-0.0000,-2.6353,flat,18.0,0,9.459
450,14.40,6.5030,0.4061,0.1799,-0.0000,-0.0000,-2.8836,flat,18.0,0,9.197
460,14.72,5.9976,0.2963,0.1799,-0.0000,-0.0000,-3.1034,flat,18.0,0,8.843
470,15.04,5.4604,0.2949,0.1799,-0.0001,-0.0000,3.0033,flat,18.0,0,8.414
480,15.36,4.9205,0.3864,0.1799,-0.0003,-0.0000,2.8736,flat,18.0,0,7.936
490,15.68,4.3912,0.5458,0.1798,-0.0004,-0.0000,2.7783,flat,18.0,0,7.430
500,16.00,3.8754,0.7545,0.1798,-0.0003,-0.0000,2.7042,flat,18.0,0,6.908
510,16.32,3.3732,1.0010,0.1797,-0.0002,-0.0000,2.6441,flat,18.0,0,6.375
520,16.64,2.8843,1.2773,0.1797,-0.0002,-0.0000,2.5937,flat,18.0,0,5.834
530,16.96,2.4086,1.5782,0.1797,-0.0001,-0.0000,2.5517,flat,18.0,0,5.288
540,17.28,1.9448,1.8990,0.1797,-0.0001,-0.0000,2.5149,flat,18.0,0,4.739
550,17.60,1.4923,2.2369,0.1797,-0.0001,-0.0000,2.4809,flat,18.0,0,4.189
560,17.92,1.0509,2.5902,0.1797,-0.0001,-0.0000,2.4488,flat,18.0,0,3.637
570,18.24,0.6209,2.9576,0.1797,-0.0001,-0.0000,2.4170,flat,18.0,0,3.085
580,18.56,0.2029,3.3386,0.1797,-0.0001,0.0000,2.3834,flat,18.0,0,2.534
590,18.88,-0.2010,3.7336,0.1797,-0.0001,0.0000,2.3472,flat,18.0,0,1.987
600,19.20,-0.5873,4.1425,0.1797,-0.0002,0.0000,2.3032,flat,18.0,0,1.447
610,19.52,-0.9494,4.5666,0.1797,-0.0002,0.0000,2.2370,flat,18.0,0,0.925
620,19.84,-1.2594,5.0090,0.1799,-0.0001,-0.0000,2.0959,flat,18.0,1,2.373
630,20.16,-1.4861,5.4400,0.1798,-0.0002,0.0001,1.9507,rough,14.0,1,1.986
640,20.48,-1.6484,5.8860,0.1798,-0.0002,-0.0002,1.8064,flat,18.0,1,1.612
650,20.80,-1.7525,6.4121,0.1799,-0.0001,-0.0000,1.5644,flat,18.0,1,1.206
660,21.12,-1.7255,6.9217,0.1799,-0.0000,0.0000,1.2547,flat,18.0,1,0.836
670,21.44,-1.5810,7.2779,0.1799,0.0001,0.0000,0.9057,flat,18.0,2,8.412
680,21.76,-1.3026,7.5526,0.1799,0.0000,-0.0001,0.6131,rough,14.0,2,8.305
690,22.08,-0.9992,7.7416,0.1798,-0.0001,-0.0000,0.4046,rough,14.0,2,8.148
700,22.40,-0.5705,7.9051,0.1799,-0.0000,-0.0000,0.1867,flat,18.0,2,7.886
710,22.72,-0.0607,7.9777,0.1799,-0.0001,0.0000,-0.0396,flat,18.0,2,7.524
720,23.04,0.4721,7.9363,0.1799,-0.0001,-0.0000,-0.2176,flat,18.0,2,7.087
730,23.36,0.9997,7.8012,0.1799,-0.0002,-0.0000,-0.3499,flat,18.0,2,6.605
740,23.68,1.5110,7.5982,0.1798,-0.0004,-0.0000,-0.4482,flat,18.0,2,6.096
750,24.00,2.0042,7.3457,0.1798,-0.0003,-0.0000,-0.5262,flat,18.0,2,5.571
760,24.32,2.4795,7.0549,0.1797,-0.0002,-0.0000,-0.5910,flat,18.0,2,5.035
770,24.64,2.9373,6.7335,0.1797,-0.0002,-0.0000,-0.6467,flat,18.0,2,4.493
780,24.96,3.3782,6.3865,0.1797,-0.0002,-0.0000,-0.6963,flat,18.0,2,3.945
790,25.28,3.8021,6.0176,0.1797,-0.0002,-0.0000,-0.7416,flat,18.0,2,3.394
800,25.60,4.2094,5.6295,0.1797,-0.0002,-0.0000,-0.7856,flat,18.0,2,2.841
810,25.92,4.5986,5.2239,0.1797,-0.0002,0.0000,-0.8307,flat,18.0,2,2.288
820,26.24,4.9669,4.8018,0.1797,-0.0002,0.0000,-0.8803,flat,18.0,2,1.736
830,26.56,5.3122,4.3622,0.1797,-0.0002,0.0000,-0.9443,flat,18.0,2,1.186
840,26.88,5.6211,3.9045,0.1798,-0.0003,-0.0001,-1.0037,flat,18.0,3,3.110
850,27.20,5.9107,3.4632,0.1798,0.0001,0.0003,-0.9665,rough,14.0,3,2.602
860,27.52,6.1637,3.1073,0.1797,0.0001,0.0000,-0.9325,rough,14.0,3,2.184
870,27.84,6.4964,2.6766,0.1797,0.0002,-0.0001,-0.8817,flat,18.0,3,1.667
880,28.16,6.8608,2.2584,0.1797,0.0002,0.0000,-0.8118,flat,18.0,3,1.151
890,28.48,7.2319,1.8993,0.1796,0.0003,-0.0006,-0.7194,flat,18.0,0,9.135
900,28.80,7.4052,1.7038,0.1798,-0.0025,0.0038,-1.1816,flat,18.0,0,9.372
910,29.12,7.5097,1.4196,0.1798,0.0002,-0.0000,-1.6907,flat,18.0,0,9.584
920,29.44,7.4593,1.1143,0.1799,0.0001,-0.0001,-2.1189,flat,18.0,0,9.672
930,29.76,7.2277,0.8234,0.1799,0.0001,-0.0001,-2.4220,flat,18.0,0,9.602
940,30.08,6.8654,0.5623,0.1799,0.0000,-0.0000,-2.6873,flat,18.0,0,9.420
950,30.40,6.4099,0.3724,0.1799,-0.0000,-0.0000,-2.9302,flat,18.0,0,9.138
960,30.72,5.8955,0.2843,0.1799,-0.0000,-0.0000,3.1392,flat,18.0,0,8.768
970,31.04,5.3558,0.3036,0.1799,-0.0001,-0.0000,2.9739,flat,18.0,0,8.326
980,31.36,4.8174,0.4107,0.1799,-0.0003,-0.0000,2.8523,flat,18.0,0,7.841
990,31.68,4.2908,0.5812,0.1798,-0.0004,-0.0000,2.7620,flat,18.0,0,7.332
1000,32.00,3.7777,0.7983,0.1798,-0.0003,-0.0000,2.6912,flat,18.0,0,6.807
1010,32.32,3.2782,1.0512,0.1797,-0.0002,-0.0000,2.6334,flat,18.0,0,6.272
1020,32.64,2.7919,1.3328,0.1797,-0.0002,-0.0000,2.5846,flat,18.0,0,5.730
1030,32.96,2.3187,1.6381,0.1797,-0.0001,-0.0000,2.5441,flat,18.0,0,5.183
1040,33.28,1.8572,1.9624,0.1797,-0.0001,-0.0000,2.5080,flat,18.0,0,4.634
1050,33.60,1.4068,2.3034,0.1797,-0.0001,-0.0000,2.4745,flat,18.0,0,4.083
1060,33.92,0.9676,2.6596,0.1797,-0.0001,-0.0000,2.4426,flat,18.0,0,3.531
1070,34.24,0.5399,3.0297,0.1797,-0.0001,-0.0000,2.4106,flat,18.0,0,2.979
1080,34.56,0.1244,3.4134,0.1797,-0.0001,0.0000,2.3766,flat,18.0,0,2.429
1090,34.88,-0.2765,3.8111,0.1797,-0.0001,0.0000,2.3396,flat,18.0,0,1.882
1100,35.20,-0.6586,4.2228,0.1797,-0.0002,0.0000,2.2932,flat,18.0,0,1.345
1110,35.52,-1.0148,4.6498,0.1798,-0.0003,0.0000,2.2183,flat,18.0,0,0.829
1120,35.84,-1.3128,5.0986,0.1799,-0.0001,-0.0000,2.0639,flat,18.0,1,2.290
1130,36.16,-1.5178,5.5144,0.1798,-0.0003,0.0001,1.9265,rough,14.0,1,1.921
1140,36.48,-1.6729,5.9748,0.1799,-0.0001,-0.0001,1.7719,flat,18.0,1,1.541
1150,36.80,-1.7582,6.5018,0.1799,-0.0001,0.0000,1.5178,flat,18.0,1,1.140
1160,37.12,-1.7071,7.0009,0.1799,-0.0000,0.0000,1.1920,flat,18.0,2,0.780
1170,37.44,-1.5468,7.3243,0.1798,0.0001,-0.0001,0.8566,flat,18.0,2,8.404
1180,37.76,-1.2603,7.5857,0.1799,-0.0001,0.0002,0.5797,rough,14.0,2,8.286
1190,38.08,-0.9408,7.7711,0.1799,-0.0000,-0.0003,0.3823,flat,18.0,2,8.115
1200,38.40,-0.4830,7.9297,0.1799,-0.0000,-0.0000,0.1402,flat,18.0,2,7.830
1210,38.72,0.0342,7.9804,0.1799,-0.0000,-0.0000,-0.0795,flat,18.0,2,7.451
1220,39.04,0.5673,7.9192,0.1799,-0.0001,-0.0000,-0.2465,flat,18.0,2,7.004
1230,39.36,1.0923,7.7693,0.1799,-0.0003,-0.0000,-0.3703,flat,18.0,2,6.515
1240,39.68,1.6003,7.5560,0.1798,-0.0004,-0.0000,-0.4640,flat,18.0,2,6.003
1250,40.00,2.0902,7.2956,0.1798,-0.0003,-0.0000,-0.5391,flat,18.0,2,5.475
1260,40.32,2.5622,6.9987,0.1797,-0.0002,-0.0000,-0.6018,flat,18.0,2,4.938
1270,40.64,3.0169,6.6722,0.1797,-0.0002,-0.0000,-0.6561,flat,18.0,2,4.395
1280,40.96,3.4547,6.3210,0.1797,-0.0002,-0.0000,-0.7048,flat,18.0,2,3.846
1290,41.28,3.8757,5.9485,0.1797,-0.0002,-0.0000,-0.7495,flat,18.0,2,3.295
1300,41.60,4.2799,5.5572,0.1797,-0.0002,-0.0000,-0.7933,flat,18.0,2,2.742
1310,41.92,4.6657,5.1485,0.1797,-0.0002,0.0000,-0.8392,flat,18.0,2,2.188
1320,42.24,5.0300,4.7236,0.1797,-0.0002,0.0000,-0.8898,flat,18.0,2,1.637
1330,42.56,5.3708,4.2806,0.1797,-0.0002,0.0000,-0.9582,flat,18.0,2,1.087
1340,42.88,5.6753,3.8193,0.1798,-0.0002,-0.0001,-0.9909,flat,18.0,3,3.013
1350,43.20,5.9701,3.3814,0.1798,0.0001,0.0003,-0.9543,rough,14.0,3,2.505
1360,43.52,6.2339,3.0203,0.1798,0.0001,-0.0004,-0.9222,flat,18.0,3,2.076
1370,43.84,6.5813,2.5829,0.1797,0.0002,-0.0000,-0.8658,flat,18.0,3,1.546
1380,44.16,6.9521,2.1724,0.1797,0.0003,0.0000,-0.7912,flat,18.0,3,1.034
1390,44.48,7.2724,1.8714,0.1787,0.0001,-0.0065,-0.8476,flat,18.0,0,9.183
1400,44.80,7.4200,1.6580,0.1783,-0.0099,-0.0001,-1.3374,flat,18.0,0,9.404
1410,45.12,7.4854,1.3492,0.1798,0.0001,0.0001,-1.8597,flat,18.0,0,9.592
1420,45.44,7.3685,1.0502,0.1799,0.0000,-0.0001,-2.2361,flat,18.0,0,9.620
1430,45.76,7.0831,0.7665,0.1799,0.0000,-0.0001,-2.5177,flat,18.0,0,9.504
1440,46.08,6.6840,0.5252,0.1799,-0.0000,-0.0000,-2.7761,flat,18.0,0,9.285
1450,46.40,6.2033,0.3691,0.1799,-0.0001,-0.0000,-3.0083,flat,18.0,0,8.970
1460,46.72,5.6762,0.3199,0.1799,-0.0001,0.0000,3.0780,flat,18.0,0,8.570
1470,47.04,5.1346,0.3724,0.1799,-0.0001,-0.0000,2.9268,flat,18.0,0,8.110
1480,47.36,4.5997,0.5040,0.1798,-0.0004,-0.0000,2.8184,flat,18.0,0,7.615
1490,47.68,4.0776,0.6920,0.1798,-0.0004,-0.0000,2.7361,flat,18.0,0,7.099
1500,48.00,3.5691,0.9223,0.1797,-0.0002,-0.0000,2.6705,flat,18.0,0,6.570
1510,48.32,3.0741,1.1856,0.1797,-0.0002,-0.0000,2.6162,flat,18.0,0,6.032
1520,48.64,2.5921,1.4757,0.1797,-0.0002,-0.0000,2.5703,flat,18.0,0,5.488
1530,48.96,2.1230,1.7876,0.1797,-0.0001,-0.0000,2.5318,flat,18.0,0,4.941
1540,49.28,1.6652,2.1177,0.1797,-0.0001,-0.0000,2.4966,flat,18.0,0,4.391
1550,49.60,1.2186,2.4639,0.1797,-0.0001,-0.0000,2.4637,flat,18.0,0,3.840
1560,49.92,0.7834,2.8248,0.1797,-0.0001,-0.0000,2.4318,flat,18.0,0,3.288
1570,50.24,0.3597,3.1996,0.1797,-0.0001,-0.0000,2.3988,flat,18.0,0,2.737
1580,50.56,-0.0507,3.5882,0.1797,-0.0001,0.0000,2.3636,flat,18.0,0,2.188
1590,50.88,-0.4451,3.9909,0.1797,-0.0001,0.0000,2.3233,flat,18.0,0,1.645
1600,51.20,-0.8177,4.4083,0.1797,-0.0002,0.0000,2.2683,flat,18.0,0,1.115
1610,51.52,-1.1509,4.8402,0.1798,-0.0001,-0.0001,2.1549,flat,18.0,1,2.533
1620,51.84,-1.4217,5.2992,0.1799,-0.0001,0.0006,1.9972,rough,14.0,1,2.110
1630,52.16,-1.5900,5.6984,0.1798,-0.0003,-0.0004,1.8750,flat,18.0,1,1.766
1640,52.48,-1.7292,6.2145,0.1799,-0.0000,-0.0000,1.6640,flat,18.0,1,1.356
1650,52.80,-1.7550,6.7376,0.1799,-0.0000,0.0000,1.3796,flat,18.0,1,0.970
1660,53.12,-1.6512,7.1592,0.1799,0.0001,0.0001,1.0377,flat,18.0,2,8.418
1670,53.44,-1.4305,7.4478,0.1799,0.0001,-0.0001,0.7279,flat,18.0,2,8.362
1680,53.76,-1.1111,7.6841,0.1799,-0.0000,0.0001,0.4727,rough,14.0,2,8.211
1690,54.08,-0.7307,7.8580,0.1799,-0.0000,-0.0001,0.2677,flat,18.0,2,7.990
1700,54.40,-0.2364,7.9688,0.1799,-0.0000,-0.0001,0.0267,flat,18.0,2,7.657
1710,54.72,0.2929,7.9629,0.1799,-0.0001,-0.0000,-0.1665,flat,18.0,2,7.241
1720,55.04,0.8241,7.8554,0.1799,-0.0002,-0.0000,-0.3113,flat,18.0,2,6.770
1730,55.36,1.3412,7.6722,0.1798,-0.0004,-0.0000,-0.4185,flat,18.0,2,6.269
1740,55.68,1.8404,7.4345,0.1798,-0.0004,-0.0000,-0.5022,flat,18.0,2,5.748
1750,56.00,2.3216,7.1553,0.1797,-0.0003,-0.0000,-0.5707,flat,18.0,2,5.215
1760,56.32,2.7852,6.8434,0.1797,-0.0002,-0.0000,-0.6290,flat,18.0,2,4.675
1770,56.64,3.2317,6.5044,0.1797,-0.0002,-0.0000,-0.6803,flat,18.0,2,4.129
1780,56.96,3.6613,6.1425,0.1797,-0.0002,-0.0000,-0.7267,flat,18.0,2,3.579
1790,57.28,4.0742,5.7607,0.1797,-0.0002,-0.0000,-0.7709,flat,18.0,2,3.026
1800,57.60,4.4698,5.3608,0.1797,-0.0002,0.0000,-0.8150,flat,18.0,2,2.473
1810,57.92,4.8455,4.9440,0.1797,-0.0002,0.0000,-0.8629,flat,18.0,2,1.920
1820,58.24,5.1989,4.5108,0.1797,-0.0002,-0.0000,-0.9200,flat,18.0,2,1.370
1830,58.56,5.5240,4.0587,0.1798,-0.0003,0.0000,-1.0040,flat,18.0,2,0.823
1840,58.88,5.8274,3.5910,0.1798,0.0001,-0.0000,-0.9698,rough,14.0,3,2.748
1850,59.20,6.0791,3.2302,0.1797,0.0001,0.0001,-0.9403,rough,14.0,3,2.325
1860,59.52,6.3778,2.8346,0.1797,0.0001,-0.0002,-0.8994,flat,18.0,3,1.852
1870,59.84,6.7348,2.4066,0.1797,0.0002,-0.0000,-0.8380,flat,18.0,3,1.327
1880,60.16,7.1159,2.0128,0.1798,0.0003,0.0000,-0.7460,flat,18.0,3,0.830
1890,60.48,7.3444,1.7909,0.1796,0.0006,-0.0019,-1.0658,flat,18.0,0,9.281
1900,60.80,7.4593,1.5272,0.1790,0.0003,-0.0056,-1.4982,flat,18.0,0,9.493
1910,61.12,7.4760,1.2158,0.1798,0.0002,-0.0001,-1.9782,flat,18.0,0,9.641
1920,61.44,7.3090,0.9211,0.1799,0.0001,-0.0001,-2.3207,flat,18.0,0,9.627
1930,61.76,6.9881,0.6463,0.1799,0.0000,-0.0001,-2.5925,flat,18.0,0,9.482
1940,62.08,6.5632,0.4256,0.1799,-0.0000,-0.0000,-2.8453,flat,18.0,0,9.237
1950,62.40,6.0663,0.2990,0.1799,-0.0001,-0.0000,-3.0698,flat,18.0,0,8.898
1960,62.72,5.5327,0.2809,0.1799,-0.0001,-0.0000,3.0265,flat,18.0,0,8.480
1970,63.04,4.9920,0.3601,0.1799,-0.0002,-0.0000,2.8897,flat,18.0,0,8.008
1980,63.36,4.4610,0.5112,0.1798,-0.0004,-0.0000,2.7901,flat,18.0,0,7.506
1990,63.68,3.9434,0.7139,0.1798,-0.0003,-0.0000,2.7133,flat,18.0,0,6.985
2000,64.00,3.4395,0.9557,0.1797,-0.0002,-0.0000,2.6513,flat,18.0,0,6.454
2010,64.32,2.9490,1.2285,0.1797,-0.0002,-0.0000,2.5996,flat,18.0,0,5.914
2020,64.64,2.4717,1.5267,0.1797,-0.0002,-0.0000,2.5563,flat,18.0,0,5.369
2030,64.96,2.0067,1.8453,0.1797,-0.0001,-0.0000,2.5189,flat,18.0,0,4.821
2040,65.28,1.5529,2.1813,0.1797,-0.0001,-0.0000,2.4845,flat,18.0,0,4.270
2050,65.60,1.1104,2.5330,0.1797,-0.0001,-0.0000,2.4521,flat,18.0,0,3.718
2060,65.92,0.6792,2.8990,0.1797,-0.0001,-0.0000,2.4203,flat,18.0,0,3.167
2070,66.24,0.2599,3.2786,0.1797,-0.0001,0.0000,2.3869,flat,18.0,0,2.616
2080,66.56,-0.1456,3.6722,0.1797,-0.0001,0.0000,2.3512,flat,18.0,0,2.068
2090,66.88,-0.5341,4.0797,0.1797,-0.0001,0.0000,2.3087,flat,18.0,0,1.526
2100,67.20,-0.8995,4.5020,0.1797,-0.0002,0.0000,2.2477,flat,18.0,0,1.001
2110,67.52,-1.2177,4.9411,0.1799,-0.0000,-0.0000,2.1200,flat,18.0,1,2.437
2120,67.84,-1.4638,5.3881,0.1799,-0.0001,0.0002,1.9671,rough,14.0,1,2.031
2130,68.16,-1.6253,5.8095,0.1798,-0.0003,-0.0004,1.8383,flat,18.0,1,1.674
2140,68.48,-1.7453,6.3337,0.1799,-0.0001,-0.0000,1.6060,flat,18.0,1,1.265
2150,68.80,-1.7399,6.8500,0.1799,-0.0000,0.0000,1.3064,flat,18.0,1,0.888
2160,69.12,-1.6117,7.2312,0.1798,0.0001,0.0000,0.9638,flat,18.0,2,8.417
2170,69.44,-1.3578,7.5105,0.1799,0.0001,-0.0001,0.6612,flat,18.0,2,8.331
2180,69.76,-1.0507,7.7170,0.1799,-0.0001,-0.0000,0.4366,rough,14.0,2,8.177
2190,70.08,-0.6304,7.8915,0.1799,-0.0000,-0.0000,0.2142,flat,18.0,2,7.927
2200,70.40,-0.1255,7.9773,0.1799,-0.0001,0.0000,-0.0167,flat,18.0,2,7.574
2210,70.72,0.4064,7.9478,0.1799,-0.0001,-0.0000,-0.2000,flat,18.0,2,7.145
2220,71.04,0.9355,7.8219,0.1799,-0.0002,-0.0000,-0.3371,flat,18.0,2,6.666
2230,71.36,1.4488,7.6255,0.1798,-0.0004,-0.0000,-0.4382,flat,18.0,2,6.159
2240,71.68,1.9442,7.3780,0.1798,-0.0004,-0.0000,-0.5180,flat,18.0,2,5.635
2250,72.00,2.4216,7.0912,0.1797,-0.0002,-0.0000,-0.5839,flat,18.0,2,5.101
2260,72.32,2.8814,6.7730,0.1797,-0.0002,-0.0000,-0.6404,flat,18.0,2,4.559
2270,72.64,3.3243,6.4289,0.1797,-0.0002,-0.0000,-0.6906,flat,18.0,2,4.012
2280,72.96,3.7503,6.0625,0.1797,-0.0002,-0.0000,-0.7361,flat,18.0,2,3.461
2290,73.28,4.1598,5.6767,0.1797,-0.0002,-0.0000,-0.7801,flat,18.0,2,2.908
2300,73.60,4.5514,5.2732,0.1797,-0.0002,0.0000,-0.8248,flat,18.0,2,2.355
2310,73.92,4.9225,4.8530,0.1797,-0.0002,0.0000,-0.8736,flat,18.0,2,1.803
2320,74.24,5.2710,4.4159,0.1797,-0.0002,0.0000,-0.9348,flat,18.0,2,1.252
2330,74.56,5.5839,3.9620,0.1798,-0.0004,0.0002,-0.9982,flat,18.0,3,3.177
2340,74.88,5.8877,3.4998,0.1798,0.0001,0.0003,-0.9652,rough,14.0,3,2.643
2350,75.20,6.1413,3.1436,0.1797,0.0001,0.0000,-0.9324,rough,14.0,3,2.224
2360,75.52,6.4585,2.7315,0.1797,0.0002,-0.0001,-0.8868,flat,18.0,3,1.728
2370,75.84,6.8209,2.3099,0.1797,0.0002,-0.0000,-0.8208,flat,18.0,3,1.208
2380,76.16,7.2007,1.9341,0.1814,0.0003,0.0115,-0.7232,flat,18.0,0,9.093
2390,76.48,7.3880,1.7353,0.1798,0.0009,-0.0004,-1.1454,flat,18.0,0,9.343
2400,76.80,7.5007,1.4662,0.1798,0.0002,-0.0001,-1.6211,flat,18.0,0,9.556
2410,77.12,7.4748,1.1570,0.1799,0.0002,-0.0001,-2.0712,flat,18.0,0,9.666
2420,77.44,7.2653,0.8641,0.1799,0.0001,-0.0001,-2.3860,flat,18.0,0,9.616
2430,77.76,6.9173,0.5973,0.1799,0.0000,-0.0000,-2.6532,flat,18.0,0,9.446
2440,78.08,6.4723,0.3956,0.1799,-0.0000,-0.0000,-2.8997,flat,18.0,0,9.178
2450,78.40,5.9636,0.2933,0.1799,-0.0000,-0.0000,-3.1169,flat,18.0,0,8.818
2460,78.72,5.4257,0.2991,0.1799,-0.0001,-0.0000,2.9926,flat,18.0,0,8.384
2470,79.04,4.8862,0.3962,0.1799,-0.0003,-0.0000,2.8660,flat,18.0,0,7.903
2480,79.36,4.3578,0.5596,0.1798,-0.0004,-0.0000,2.7726,flat,18.0,0,7.396
2490,79.68,3.8429,0.7713,0.1798,-0.0003,-0.0000,2.6997,flat,18.0,0,6.873
2500,80.00,3.3416,1.0200,0.1797,-0.0002,-0.0000,2.6405,flat,18.0,0,6.339
2510,80.32,2.8535,1.2981,0.1797,-0.0002,-0.0000,2.5907,flat,18.0,0,5.797
2520,80.64,2.3786,1.6004,0.1797,-0.0001,-0.0000,2.5493,flat,18.0,0,5.251
2530,80.96,1.9156,1.9223,0.1797,-0.0001,-0.0000,2.5128,flat,18.0,0,4.703
2540,81.28,1.4637,2.2611,0.1797,-0.0001,-0.0000,2.4790,flat,18.0,0,4.152
2550,81.60,1.0229,2.6153,0.1797,-0.0001,-0.0000,2.4470,flat,18.0,0,3.600
2560,81.92,0.5936,2.9835,0.1797,-0.0001,-0.0000,2.4151,flat,18.0,0,3.048
2570,82.24,0.1763,3.3653,0.1797,-0.0001,0.0000,2.3814,flat,18.0,0,2.497
2580,82.56,-0.2267,3.7611,0.1797,-0.0001,0.0000,2.3449,flat,18.0,0,1.950
2590,82.88,-0.6117,4.1708,0.1797,-0.0002,0.0000,2.3002,flat,18.0,0,1.411
2600,83.20,-0.9720,4.5958,0.1797,-0.0002,0.0000,2.2314,flat,18.0,0,0.891
2610,83.52,-1.2779,5.0401,0.1799,-0.0001,-0.0000,2.0838,flat,18.0,1,2.344
2620,83.84,-1.4953,5.4628,0.1798,-0.0002,0.0001,1.9430,rough,14.0,1,1.966
2630,84.16,-1.6541,5.9099,0.1798,-0.0002,-0.0002,1.7981,flat,18.0,1,1.592
2640,84.48,-1.7538,6.4363,0.1799,-0.0001,-0.0000,1.5526,flat,18.0,1,1.188
2650,84.80,-1.7206,6.9433,0.1799,-0.0000,0.0000,1.2388,flat,18.0,1,0.821
2660,85.12,-1.5741,7.2874,0.1798,0.0001,0.0000,0.8999,flat,18.0,2,8.410
2670,85.44,-1.2930,7.5616,0.1799,0.0000,-0.0001,0.6075,rough,14.0,2,8.301
2680,85.76,-0.9880,7.7495,0.1798,-0.0001,-0.0000,0.3991,rough,14.0,2,8.143
2690,86.08,-0.5581,7.9109,0.1799,-0.0000,-0.0000,0.1818,flat,18.0,2,7.880
2700,86.40,-0.0475,7.9812,0.1799,-0.0001,0.0000,-0.0438,flat,18.0,2,7.516
2710,86.72,0.4853,7.9376,0.1799,-0.0001,-0.0000,-0.2210,flat,18.0,2,7.078
2720,87.04,1.0126,7.8008,0.1799,-0.0002,-0.0000,-0.3525,flat,18.0,2,6.595
2730,87.36,1.5234,7.5965,0.1798,-0.0004,-0.0000,-0.4503,flat,18.0,2,6.086
2740,87.68,2.0162,7.3429,0.1798,-0.0003,-0.0000,-0.5281,flat,18.0,2,5.561
2750,88.00,2.4910,7.0512,0.1797,-0.0002,-0.0000,-0.5927,flat,18.0,2,5.025
2760,88.32,2.9483,6.7290,0.1797,-0.0002,-0.0000,-0.6483,flat,18.0,2,4.482
2770,88.64,3.3886,6.3813,0.1797,-0.0002,-0.0000,-0.6978,flat,18.0,2,3.934
2780,88.96,3.8120,6.0118,0.1797,-0.0002,-0.0000,-0.7431,flat,18.0,2,3.384
2790,89.28,4.2187,5.6231,0.1797,-0.0002,-0.0000,-0.7870,flat,18.0,2,2.831
2800,89.60,4.6073,5.2169,0.1797,-0.0002,0.0000,-0.8323,flat,18.0,2,2.277
2810,89.92,4.9748,4.7943,0.1797,-0.0002,0.0000,-0.8820,flat,18.0,2,1.726
2820,90.24,5.3194,4.3540,0.1797,-0.0002,0.0000,-0.9465,flat,18.0,2,1.176
2830,90.56,5.6285,3.8959,0.1798,-0.0003,-0.0001,-0.9899,flat,18.0,3,3.099
2840,90.88,5.9311,3.4474,0.1798,0.0001,0.0004,-0.9539,rough,14.0,3,2.577
2850,91.20,6.1888,3.0938,0.1797,0.0001,0.0000,-0.9224,rough,14.0,3,2.156
2860,91.52,6.5260,2.6655,0.1797,0.0002,-0.0001,-0.8744,flat,18.0,3,1.636
2870,91.84,6.8936,2.2490,0.1797,0.0002,0.0000,-0.8071,flat,18.0,3,1.117
2880,92.16,7.2507,1.9036,0.1806,0.0002,0.0062,-0.7551,flat,18.0,0,9.151
2890,92.48,7.4125,1.7068,0.1772,-0.0168,-0.0004,-1.2418,flat,18.0,0,9.377
2900,92.80,7.5054,1.4099,0.1798,0.0001,0.0001,-1.7655,flat,18.0,0,9.584
2910,93.12,7.4262,1.1074,0.1799,0.0000,-0.0001,-2.1696,flat,18.0,0,9.645
2920,93.44,7.1702,0.8188,0.1799,0.0000,-0.0001,-2.4628,flat,18.0,0,9.554
2930,93.76,6.7914,0.5651,0.1799,-0.0000,-0.0000,-2.7252,flat,18.0,0,9.355
2940,94.08,6.3245,0.3889,0.1799,-0.0001,-0.0000,-2.9632,flat,18.0,0,9.058
2950,94.40,5.8042,0.3173,0.1799,-0.0001,0.0000,3.1150,flat,18.0,0,8.675
2960,94.72,5.2630,0.3503,0.1799,-0.0001,-0.0000,2.9543,flat,18.0,0,8.225
2970,95.04,4.7258,0.4676,0.1799,-0.0004,-0.0000,2.8387,flat,18.0,0,7.735
2980,95.36,4.2007,0.6451,0.1798,-0.0004,-0.0000,2.7521,flat,18.0,0,7.222
2990,95.68,3.6892,0.8672,0.1797,-0.0003,-0.0000,2.6837,flat,18.0,0,6.695
3000,96.00,3.1912,1.1239,0.1797,-0.0002,-0.0000,2.6275,flat,18.0,0,6.159
3010,96.32,2.7063,1.4084,0.1797,-0.0002,-0.0000,2.5798,flat,18.0,0,5.616
3020,96.64,2.2344,1.7159,0.1797,-0.0001,-0.0000,2.5405,flat,18.0,0,5.069
3030,96.96,1.7739,2.0419,0.1797,-0.0001,-0.0000,2.5048,flat,18.0,0,4.519
3040,97.28,1.3246,2.3844,0.1797,-0.0001,-0.0000,2.4715,flat,18.0,0,3.968
3050,97.60,0.8865,2.7419,0.1797,-0.0001,-0.0000,2.4397,flat,18.0,0,3.416
3060,97.92,0.4599,3.1132,0.1797,-0.0001,-0.0000,2.4073,flat,18.0,0,2.865
3070,98.24,0.0459,3.4983,0.1797,-0.0001,0.0000,2.3728,flat,18.0,0,2.315
3080,98.56,-0.3530,3.8974,0.1797,-0.0001,0.0000,2.3344,flat,18.0,0,1.770
3090,98.88,-0.7318,4.3109,0.1797,-0.0002,0.0000,2.2845,flat,18.0,0,1.236
3100,99.20,-1.0792,4.7374,0.1798,-0.0002,0.0003,2.1849,flat,18.0,1,2.633
3110,99.52,-1.3673,5.1956,0.1799,-0.0001,-0.0000,2.0321,flat,18.0,1,2.202
3120,99.84,-1.5516,5.5952,0.1798,-0.0003,0.0001,1.9013,rough,14.0,1,1.853
3130,100.16,-1.6982,6.0694,0.1799,-0.0000,-0.0000,1.7345,flat,18.0,1,1.467
3140,100.48,-1.7626,6.5958,0.1799,-0.0000,0.0000,1.4664,flat,18.0,1,1.073
3150,100.80,-1.6925,7.0698,0.1799,-0.0000,0.0003,1.1164,flat,18.0,2,8.415
3160,101.12,-1.5075,7.3731,0.1798,0.0001,-0.0001,0.8043,flat,18.0,2,8.393
3170,101.44,-1.1924,7.6348,0.1799,-0.0000,0.0004,0.5233,rough,14.0,2,8.253
3180,101.76,-0.8442,7.8142,0.1799,-0.0000,-0.0001,0.3281,flat,18.0,2,8.059
3190,102.08,-0.3652,7.9510,0.1799,0.0000,-0.0001,0.0814,flat,18.0,2,7.748
3200,102.40,0.1594,7.9728,0.1799,-0.0001,-0.0000,-0.1247,flat,18.0,2,7.350
3210,102.72,0.6923,7.8875,0.1799,-0.0001,-0.0000,-0.2801,flat,18.0,2,6.890
3220,103.04,1.2134,7.7204,0.1799,-0.0004,-0.0000,-0.3950,flat,18.0,2,6.394
3230,103.36,1.7172,7.4945,0.1798,-0.0004,-0.0000,-0.4832,flat,18.0,2,5.877
3240,103.68,2.2028,7.2247,0.1798,-0.0003,-0.0000,-0.5548,flat,18.0,2,5.347
3250,104.00,2.6708,6.9203,0.1797,-0.0002,-0.0000,-0.6151,flat,18.0,2,4.808
3260,104.32,3.1215,6.5877,0.1797,-0.0002,-0.0000,-0.6678,flat,18.0,2,4.263
3270,104.64,3.5555,6.2313,0.1797,-0.0002,-0.0000,-0.7154,flat,18.0,2,3.713
3280,104.96,3.9727,5.8543,0.1797,-0.0002,-0.0000,-0.7596,flat,18.0,2,3.162
3290,105.28,4.3729,5.4589,0.1797,-0.0002,-0.0000,-0.8033,flat,18.0,2,2.608
3300,105.60,4.7540,5.0464,0.1797,-0.0002,0.0000,-0.8501,flat,18.0,2,2.055
3310,105.92,5.1133,4.6177,0.1797,-0.0002,-0.0000,-0.9035,flat,18.0,2,1.504
3320,106.24,5.4472,4.1704,0.1798,-0.0003,0.0000,-0.9785,flat,18.0,2,0.956
3330,106.56,5.7523,3.7058,0.1798,0.0000,-0.0000,-0.9726,flat,18.0,3,2.880
3340,106.88,6.0329,3.3037,0.1797,0.0001,0.0001,-0.9400,rough,14.0,3,2.407
3350,107.20,6.3168,2.9267,0.1797,0.0001,-0.0003,-0.9051,flat,18.0,3,1.954
3360,107.52,6.6715,2.4948,0.1797,0.0002,-0.0000,-0.8490,flat,18.0,3,1.424
3370,107.84,7.0489,2.0925,0.1798,0.0003,0.0000,-0.7696,flat,18.0,3,0.916
3380,108.16,7.3212,1.8361,0.1792,0.0000,-0.0041,-0.9781,flat,18.0,0,9.242
3390,108.48,7.4648,1.6006,0.1789,-0.0057,-0.0000,-1.4377,flat,18.0,0,9.468
3400,108.80,7.4981,1.2857,0.1798,0.0001,0.0000,-1.9439,flat,18.0,0,9.631
3410,109.12,7.3453,0.9891,0.1799,0.0000,-0.0001,-2.2960,flat,18.0,0,9.627
3420,109.44,7.0341,0.7108,0.1799,0.0000,-0.0001,-2.5696,flat,18.0,0,9.489
3430,109.76,6.6163,0.4831,0.1799,-0.0000,-0.0000,-2.8234,flat,18.0,0,9.251
3440,110.08,6.1238,0.3467,0.1799,-0.0001,-0.0000,-3.0493,flat,18.0,0,8.917
3450,110.40,5.5914,0.3184,0.1799,-0.0001,0.0000,3.0458,flat,18.0,0,8.504
3460,110.72,5.0499,0.3879,0.1799,-0.0002,-0.0000,2.9037,flat,18.0,0,8.035
3470,111.04,4.5172,0.5315,0.1798,-0.0004,-0.0000,2.8016,flat,18.0,0,7.535
3480,111.36,3.9975,0.7283,0.1798,-0.0003,-0.0000,2.7232,flat,18.0,0,7.015
3490,111.68,3.4914,0.9651,0.1797,-0.0002,-0.0000,2.6602,flat,18.0,0,6.484
3500,112.00,2.9986,1.2335,0.1797,-0.0002,-0.0000,2.6077,flat,18.0,0,5.945
3510,112.32,2.5189,1.5277,0.1797,-0.0002,-0.0000,2.5637,flat,18.0,0,5.400
3520,112.64,2.0516,1.8428,0.1797,-0.0001,-0.0000,2.5260,flat,18.0,0,4.852
3530,112.96,1.5955,2.1755,0.1797,-0.0001,-0.0000,2.4914,flat,18.0,0,4.302
3540,113.28,1.1506,2.5241,0.1797,-0.0001,-0.0000,2.4589,flat,18.0,0,3.750
3550,113.60,0.7170,2.8871,0.1797,-0.0001,-0.0000,2.4272,flat,18.0,0,3.198
3560,113.92,0.2951,3.2638,0.1797,-0.0001,-0.0000,2.3940,flat,18.0,0,2.648
3570,114.24,-0.1133,3.6544,0.1797,-0.0001,0.0000,2.3585,flat,18.0,0,2.099
3580,114.56,-0.5052,4.0590,0.1797,-0.0001,0.0000,2.3168,flat,18.0,0,1.557
3590,114.88,-0.8743,4.4786,0.1797,-0.0002,0.0000,2.2578,flat,18.0,0,1.030
3600,115.20,-1.1979,4.9141,0.1799,-0.0000,-0.0000,2.1321,flat,18.0,1,2.462
3610,115.52,-1.4489,5.3579,0.1799,-0.0001,0.0002,1.9788,rough,14.0,1,2.057
3620,115.84,-1.6122,5.7681,0.1798,-0.0003,-0.0004,1.8549,flat,18.0,1,1.708
3630,116.16,-1.7402,6.2891,0.1799,-0.0001,-0.0000,1.6296,flat,18.0,1,1.299
3640,116.48,-1.7473,6.8083,0.1799,-0.0000,0.0000,1.3349,flat,18.0,1,0.919
3650,116.80,-1.6273,7.2069,0.1799,0.0003,0.0000,0.9881,flat,18.0,2,8.419
3660,117.12,-1.3846,7.4885,0.1799,0.0001,-0.0001,0.6830,flat,18.0,2,8.343
3670,117.44,-1.0669,7.7082,0.1799,-0.0001,-0.0000,0.4436,rough,14.0,2,8.186
3680,117.76,-0.6688,7.8772,0.1799,-0.0000,-0.0001,0.2354,flat,18.0,2,7.950
3690,118.08,-0.1679,7.9727,0.1799,-0.0001,0.0000,0.0015,flat,18.0,2,7.605
3700,118.40,0.3633,7.9525,0.1799,-0.0001,-0.0000,-0.1861,flat,18.0,2,7.180
3710,118.72,0.8933,7.8339,0.1799,-0.0002,-0.0000,-0.3271,flat,18.0,2,6.705
3720,119.04,1.4081,7.6426,0.1798,-0.0004,-0.0000,-0.4305,flat,18.0,2,6.200
3730,119.36,1.9050,7.3989,0.1798,-0.0004,-0.0000,-0.5118,flat,18.0,2,5.678
3740,119.68,2.3839,7.1150,0.1797,-0.0003,-0.0000,-0.5788,flat,18.0,2,5.144
3750,120.00,2.8452,6.7993,0.1797,-0.0002,-0.0000,-0.6360,flat,18.0,2,4.602
3760,120.32,3.2895,6.4572,0.1797,-0.0002,-0.0000,-0.6866,flat,18.0,2,4.056
3770,120.64,3.7169,6.0925,0.1797,-0.0002,-0.0000,-0.7324,flat,18.0,2,3.505
3780,120.96,4.1277,5.7083,0.1797,-0.0002,-0.0000,-0.7765,flat,18.0,2,2.953
3790,121.28,4.5209,5.3062,0.1797,-0.0002,0.0000,-0.8210,flat,18.0,2,2.399
3800,121.60,4.8938,4.8873,0.1797,-0.0002,0.0000,-0.8695,flat,18.0,2,1.847
3810,121.92,5.2442,4.4517,0.1797,-0.0002,-0.0000,-0.9291,flat,18.0,2,1.296
3820,122.24,5.5641,3.9971,0.1798,-0.0003,0.0000,-1.0192,flat,18.0,3,0.751
3830,122.56,5.8610,3.5361,0.1798,0.0001,0.0004,-0.9724,rough,14.0,3,2.687
3840,122.88,6.1118,3.1782,0.1797,0.0001,0.0000,-0.9390,rough,14.0,3,2.268
3850,123.20,6.4263,2.7642,0.1797,0.0002,-0.0001,-0.8930,flat,18.0,3,1.773
3860,123.52,6.7860,2.3401,0.1797,0.0002,-0.0000,-0.8276,flat,18.0,3,1.252
3870,123.84,7.1704,1.9540,0.1798,0.0003,0.0000,-0.7237,flat,18.0,0,0.764
3880,124.16,7.3769,1.7497,0.1797,0.0006,-0.0009,-1.1018,flat,18.0,0,9.327
3890,124.48,7.4968,1.4848,0.1798,0.0002,-0.0001,-1.5808,flat,18.0,0,9.545
3900,124.80,7.4844,1.1742,0.1799,0.0002,-0.0000,-2.0454,flat,18.0,0,9.667
3910,125.12,7.2871,0.8805,0.1799,0.0001,-0.0001,-2.3674,flat,18.0,0,9.627
3920,125.44,6.9467,0.6111,0.1799,0.0000,-0.0000,-2.6354,flat,18.0,0,9.464
3930,125.76,6.5074,0.4036,0.1799,-0.0000,-0.0000,-2.8837,flat,18.0,0,9.202
3940,126.08,6.0019,0.2938,0.1799,-0.0000,-0.0000,-3.1035,flat,18.0,0,8.848
3950,126.40,5.4647,0.2925,0.1799,-0.0001,-0.0000,3.0033,flat,18.0,0,8.419
3960,126.72,4.9248,0.3840,0.1799,-0.0003,-0.0000,2.8736,flat,18.0,0,7.941
3970,127.04,4.3955,0.5433,0.1798,-0.0004,-0.0000,2.7784,flat,18.0,0,7.435
3980,127.36,3.8797,0.7521,0.1798,-0.0003,-0.0000,2.7043,flat,18.0,0,6.913
3990,127.68,3.3775,0.9985,0.1797,-0.0002,-0.0000,2.6442,flat,18.0,0,6.379
4000,128.00,2.8885,1.2747,0.1797,-0.0002,-0.0000,2.5938,flat,18.0,0,5.839
4010,128.32,2.4128,1.5756,0.1797,-0.0001,-0.0000,2.5519,flat,18.0,0,5.293
4020,128.64,1.9490,1.8963,0.1797,-0.0001,-0.0000,2.5151,flat,18.0,0,4.744
4030,128.96,1.4963,2.2341,0.1797,-0.0001,-0.0000,2.4811,flat,18.0,0,4.193
4040,129.28,1.0549,2.5873,0.1797,-0.0001,-0.0000,2.4490,flat,18.0,0,3.642
4050,129.60,0.6248,2.9546,0.1797,-0.0001,-0.0000,2.4172,flat,18.0,0,3.090
4060,129.92,0.2067,3.3355,0.1797,-0.0001,0.0000,2.3837,flat,18.0,0,2.539
4070,130.24,-0.1974,3.7304,0.1797,-0.0001,0.0000,2.3475,flat,18.0,0,1.991
4080,130.56,-0.5838,4.1392,0.1797,-0.0001,0.0000,2.3037,flat,18.0,0,1.451
4090,130.88,-0.9462,4.5631,0.1797,-0.0002,0.0000,2.2380,flat,18.0,0,0.929
4100,131.20,-1.2568,5.0052,0.1799,-0.0001,-0.0000,2.0971,flat,18.0,1,2.377
4110,131.52,-1.4840,5.4359,0.1798,-0.0002,0.0001,1.9520,rough,14.0,1,1.989
4120,131.84,-1.6427,5.8704,0.1798,-0.0002,-0.0003,1.8143,flat,18.0,1,1.624
4130,132.16,-1.7511,6.3961,0.1799,-0.0001,-0.0000,1.5747,flat,18.0,1,1.218
4140,132.48,-1.7293,6.9071,0.1799,-0.0000,0.0000,1.2662,flat,18.0,1,0.847
4150,132.80,-1.5891,7.2671,0.1799,0.0002,0.0000,0.9210,flat,18.0,2,8.414
4160,133.12,-1.3173,7.5429,0.1799,0.0000,-0.0001,0.6258,flat,18.0,2,8.313
4170,133.44,-1.0084,7.7386,0.1798,-0.0001,-0.0000,0.4097,rough,14.0,2,8.154
4180,133.76,-0.5914,7.9003,0.1799,-0.0000,-0.0001,0.1975,flat,18.0,2,7.901
4190,134.08,-0.0834,7.9789,0.1799,-0.0000,-0.0000,-0.0332,flat,18.0,2,7.542
4200,134.40,0.4488,7.9421,0.1799,-0.0001,-0.0000,-0.2116,flat,18.0,2,7.109
4210,134.72,0.9770,7.8106,0.1799,-0.0002,-0.0000,-0.3448,flat,18.0,2,6.628
4220,135.04,1.4890,7.6102,0.1798,-0.0004,-0.0000,-0.4443,flat,18.0,2,6.120
4230,135.36,1.9831,7.3596,0.1798,-0.0004,-0.0000,-0.5232,flat,18.0,2,5.595
4240,135.68,2.4591,7.0703,0.1797,-0.0002,-0.0000,-0.5884,flat,18.0,2,5.060
4250,136.00,2.9176,6.7501,0.1797,-0.0002,-0.0000,-0.6445,flat,18.0,2,4.518
4260,136.32,3.3592,6.4041,0.1797,-0.0002,-0.0000,-0.6944,flat,18.0,2,3.971
4270,136.64,3.7838,6.0360,0.1797,-0.0002,-0.0000,-0.7398,flat,18.0,2,3.420
4280,136.96,4.1917,5.6487,0.1797,-0.0002,-0.0000,-0.7838,flat,18.0,2,2.867
4290,137.28,4.5817,5.2437,0.1797,-0.0002,0.0000,-0.8289,flat,18.0,2,2.314
4300,137.60,4.9509,4.8222,0.1797,-0.0002,0.0000,-0.8782,flat,18.0,2,1.762
4310,137.92,5.2973,4.3833,0.1797,-0.0002,0.0000,-0.9412,flat,18.0,2,1.212
4320,138.24,5.6080,3.9266,0.1798,-0.0003,-0.0001,-0.9988,flat,18.0,3,3.135
4330,138.56,5.9141,3.4665,0.1798,0.0001,0.0004,-0.9592,rough,14.0,3,2.602
4340,138.88,6.1698,3.1117,0.1797,0.0001,0.0000,-0.9270,rough,14.0,3,2.182
4350,139.20,6.4971,2.6916,0.1797,0.0002,-0.0001,-0.8800,flat,18.0,3,1.674
4360,139.52,6.8624,2.2730,0.1797,0.0002,0.0000,-0.8129,flat,18.0,3,1.155
4370,139.84,7.2333,1.9117,0.1797,0.0003,0.0001,-0.7246,flat,18.0,0,9.132
4380,140.16,7.4057,1.7150,0.1798,-0.0024,0.0037,-1.1843,flat,18.0,0,9.368
4390,140.48,7.5062,1.4249,0.1798,0.0002,-0.0000,-1.7128,flat,18.0,0,9.579
4400,140.80,7.4475,1.1207,0.1799,0.0001,-0.0001,-2.1338,flat,18.0,0,9.658
4410,141.12,7.2084,0.8303,0.1799,0.0000,-0.0001,-2.4340,flat,18.0,0,9.582
4420,141.44,6.8411,0.5712,0.1799,-0.0000,-0.0000,-2.6984,flat,18.0,0,9.395
4430,141.76,6.3821,0.3852,0.1799,-0.0000,-0.0000,-2.9398,flat,18.0,0,9.108
4440,142.08,5.8659,0.3018,0.1799,-0.0000,-0.0000,3.1323,flat,18.0,0,8.733
4450,142.40,5.3261,0.3254,0.1799,-0.0001,-0.0000,2.9675,flat,18.0,0,8.290
4460,142.72,4.7880,0.4358,0.1799,-0.0003,-0.0000,2.8480,flat,18.0,0,7.803
4470,143.04,4.2618,0.6085,0.1798,-0.0004,-0.0000,2.7591,flat,18.0,0,7.292
4480,143.36,3.7491,0.8271,0.1798,-0.0003,-0.0000,2.6892,flat,18.0,0,6.766
4490,143.68,3.2500,1.0810,0.1797,-0.0002,-0.0000,2.6319,flat,18.0,0,6.231
4500,144.00,2.7639,1.3633,0.1797,-0.0002,-0.0000,2.5835,flat,18.0,0,5.688
4510,144.32,2.2910,1.6691,0.1797,-0.0001,-0.0000,2.5435,flat,18.0,0,5.142
4520,144.64,1.8296,1.9937,0.1797,-0.0001,-0.0000,2.5075,flat,18.0,0,4.592
4530,144.96,1.3794,2.3349,0.1797,-0.0001,-0.0000,2.4742,flat,18.0,0,4.041
4540,145.28,0.9403,2.6912,0.1797,-0.0001,-0.0000,2.4423,flat,18.0,0,3.489
4550,145.60,0.5127,3.0614,0.1797,-0.0001,-0.0000,2.4102,flat,18.0,0,2.938
4560,145.92,0.0975,3.4453,0.1797,-0.0001,0.0000,2.3760,flat,18.0,0,2.388
4570,146.24,-0.3030,3.8432,0.1797,-0.0001,0.0000,2.3386,flat,18.0,0,1.841
4580,146.56,-0.6843,4.2552,0.1797,-0.0002,0.0000,2.2910,flat,18.0,0,1.305
4590,146.88,-1.0387,4.6827,0.1798,-0.0003,0.0000,2.2120,flat,18.0,1,0.792
4600,147.20,-1.3323,5.1336,0.1799,-0.0001,-0.0000,2.0521,flat,18.0,1,2.258
4610,147.52,-1.5284,5.5407,0.1798,-0.0003,0.0001,1.9184,rough,14.0,1,1.899
4620,147.84,-1.6833,6.0133,0.1799,-0.0000,-0.0000,1.7551,flat,18.0,1,1.510
4630,148.16,-1.7594,6.5405,0.1799,-0.0000,0.0000,1.4961,flat,18.0,1,1.112
4640,148.48,-1.7008,7.0322,0.1799,0.0001,0.0003,1.1448,flat,18.0,2,8.405
4650,148.80,-1.5309,7.3435,0.1798,0.0001,-0.0001,0.8375,flat,18.0,2,8.399
4660,149.12,-1.2291,7.6087,0.1799,-0.0000,0.0003,0.5531,rough,14.0,2,8.271
4670,149.44,-0.9030,7.7886,0.1799,-0.0000,-0.0003,0.3598,flat,18.0,2,8.093
4680,149.76,-0.4393,7.9385,0.1799,0.0000,-0.0000,0.1200,flat,18.0,2,7.800
4690,150.08,0.0808,7.9793,0.1799,-0.0000,-0.0000,-0.0951,flat,18.0,2,7.415
4700,150.40,0.6139,7.9098,0.1799,-0.0001,-0.0000,-0.2583,flat,18.0,2,6.963
4710,150.72,1.1375,7.7539,0.1799,-0.0003,-0.0000,-0.3791,flat,18.0,2,6.472
4720,151.04,1.6440,7.5361,0.1798,-0.0004,-0.0000,-0.4709,flat,18.0,2,5.958
4730,151.36,2.1324,7.2722,0.1798,-0.0003,-0.0000,-0.5448,flat,18.0,2,5.430
4740,151.68,2.6029,6.9726,0.1797,-0.0002,-0.0000,-0.6068,flat,18.0,2,4.892
4750,152.00,3.0561,6.6438,0.1797,-0.0002,-0.0000,-0.6606,flat,18.0,2,4.348
4760,152.32,3.4924,6.2906,0.1797,-0.0002,-0.0000,-0.7089,flat,18.0,2,3.799
4770,152.64,3.9119,5.9164,0.1797,-0.0002,-0.0000,-0.7535,flat,18.0,2,3.248
4780,152.96,4.3145,5.5234,0.1797,-0.0002,-0.0000,-0.7973,flat,18.0,2,2.694
4790,153.28,4.6985,5.1132,0.1797,-0.0002,0.0000,-0.8435,flat,18.0,2,2.141
4800,153.60,5.0608,4.6869,0.1797,-0.0002,0.0000,-0.8951,flat,18.0,2,1.590
4810,153.92,5.3990,4.2421,0.1797,-0.0003,0.0000,-0.9658,flat,18.0,2,1.041
4820,154.24,5.7024,3.7791,0.1798,-0.0001,-0.0001,-0.9854,flat,18.0,3,2.966
4830,154.56,5.9775,3.3726,0.1797,0.0001,0.0001,-0.9538,rough,14.0,3,2.493
4840,154.88,6.2415,3.0116,0.1797,0.0001,-0.0004,-0.9217,flat,18.0,3,2.065
4850,155.20,6.5891,2.5746,0.1797,0.0002,-0.0000,-0.8650,flat,18.0,3,1.535
4860,155.52,6.9602,2.1646,0.1797,0.0003,0.0000,-0.7897,flat,18.0,3,1.024
4870,155.84,7.2808,1.8646,0.1787,0.0001,-0.0067,-0.8457,flat,18.0,0,9.194
4880,156.16,7.4229,1.6390,0.1777,-0.0003,-0.0147,-1.3421,rough,14.0,0,9.414
4890,156.48,7.4911,1.3390,0.1797,0.0005,-0.0005,-1.8038,flat,18.0,0,9.601
4900,156.80,7.3975,1.0383,0.1799,0.0001,-0.0001,-2.1973,flat,18.0,0,9.651
4910,157.12,7.1300,0.7524,0.1799,0.0000,-0.0001,-2.4855,flat,18.0,0,9.552
4920,157.44,6.7434,0.5041,0.1799,-0.0000,-0.0000,-2.7472,flat,18.0,0,9.347
4930,157.76,6.2710,0.3367,0.1799,-0.0000,-0.0000,-2.9838,flat,18.0,0,9.044
4940,158.08,5.7481,0.2750,0.1799,-0.0000,-0.0000,3.0950,flat,18.0,0,8.655
4950,158.40,5.2072,0.3182,0.1799,-0.0001,-0.0000,2.9391,flat,18.0,0,8.201
4960,158.72,4.6715,0.4435,0.1798,-0.0004,-0.0000,2.8266,flat,18.0,0,7.709
4970,159.04,4.1484,0.6274,0.1798,-0.0004,-0.0000,2.7418,flat,18.0,0,7.195
4980,159.36,3.6390,0.8548,0.1797,-0.0003,-0.0000,2.6746,flat,18.0,0,6.667
4990,159.68,3.1432,1.1161,0.1797,-0.0002,-0.0000,2.6192,flat,18.0,0,6.130
5000,160.00,2.6605,1.4046,0.1797,-0.0002,-0.0000,2.5723,flat,18.0,0,5.587
5010,160.32,2.1910,1.7156,0.1797,-0.0001,-0.0000,2.5333,flat,18.0,0,5.040
5020,160.64,1.7328,2.0450,0.1797,-0.0001,-0.0000,2.4979,flat,18.0,0,4.490
5030,160.96,1.2857,2.3906,0.1797,-0.0001,-0.0000,2.4648,flat,18.0,0,3.939
5040,161.28,0.8501,2.7511,0.1797,-0.0001,-0.0000,2.4330,flat,18.0,0,3.387
5050,161.60,0.4259,3.1253,0.1797,-0.0001,-0.0000,2.4004,flat,18.0,0,2.836
5060,161.92,0.0146,3.5132,0.1797,-0.0001,0.0000,2.3658,flat,18.0,0,2.286
5070,162.24,-0.3813,3.9151,0.1797,-0.0001,0.0000,2.3270,flat,18.0,0,1.741
5080,162.56,-0.7566,4.3314,0.1797,-0.0002,0.0000,2.2760,flat,18.0,0,1.208
5090,162.88,-1.0976,4.7610,0.1798,-0.0002,-0.0000,2.1739,flat,18.0,1,2.610
5100,163.20,-1.3815,5.2231,0.1799,-0.0001,-0.0000,2.0172,rough,14.0,1,2.177
5110,163.52,-1.5564,5.6143,0.1798,-0.0003,0.0000,1.8919,flat,18.0,1,1.836
5120,163.84,-1.7074,6.1245,0.1799,-0.0000,-0.0000,1.7030,flat,18.0,1,1.423
5130,164.16,-1.7550,6.6511,0.1799,-0.0000,0.0000,1.4325,flat,18.0,1,1.029
5140,164.48,-1.6706,7.1070,0.1799,-0.0000,0.0001,1.0849,flat,18.0,2,8.412
5150,164.80,-1.4719,7.4040,0.1799,0.0001,-0.0001,0.7736,flat,18.0,2,8.377
5160,165.12,-1.1530,7.6565,0.1799,-0.0001,0.0002,0.5030,rough,14.0,2,8.231
5170,165.44,-0.7986,7.8301,0.1799,-0.0000,-0.0002,0.3078,flat,18.0,2,8.030
5180,165.76,-0.3150,7.9584,0.1799,0.0000,-0.0000,0.0630,flat,18.0,2,7.713
5190,166.08,0.2114,7.9710,0.1799,-0.0001,-0.0000,-0.1388,flat,18.0,2,7.309
5200,166.40,0.7437,7.8782,0.1799,-0.0001,-0.0000,-0.2909,flat,18.0,2,6.845
5210,166.72,1.2634,7.7055,0.1798,-0.0004,-0.0000,-0.4033,flat,18.0,2,6.348
5220,167.04,1.7655,7.4754,0.1798,-0.0004,-0.0000,-0.4902,flat,18.0,2,5.830
5230,167.36,2.2495,7.2021,0.1798,-0.0003,-0.0000,-0.5608,flat,18.0,2,5.299
5240,167.68,2.7157,6.8949,0.1797,-0.0002,-0.0000,-0.6205,flat,18.0,2,4.759
5250,168.00,3.1648,6.5598,0.1797,-0.0002,-0.0000,-0.6728,flat,18.0,2,4.214
5260,168.32,3.5970,6.2012,0.1797,-0.0002,-0.0000,-0.7200,flat,18.0,2,3.664
5270,168.64,4.0124,5.8222,0.1797,-0.0002,-0.0000,-0.7643,flat,18.0,2,3.112
5280,168.96,4.4107,5.4250,0.1797,-0.0002,0.0000,-0.8083,flat,18.0,2,2.559
5290,169.28,4.7895,5.0106,0.1797,-0.0002,0.0000,-0.8556,flat,18.0,2,2.006
5300,169.60,5.1463,4.5800,0.1797,-0.0002,0.0000,-0.9103,flat,18.0,2,1.455
5310,169.92,5.4767,4.1307,0.1798,-0.0003,0.0000,-0.9885,flat,18.0,2,0.907
5320,170.24,5.7820,3.6647,0.1798,0.0001,-0.0000,-0.9694,flat,18.0,3,2.831
5330,170.56,6.0565,3.2740,0.1797,0.0001,0.0001,-0.9374,rough,14.0,3,2.370
5340,170.88,6.3413,2.8978,0.1797,0.0001,-0.0003,-0.9023,flat,18.0,3,1.918
5350,171.20,6.6972,2.4672,0.1797,0.0002,-0.0000,-0.8452,flat,18.0,3,1.389
5360,171.52,7.0760,2.0673,0.1798,0.0003,0.0000,-0.7631,flat,18.0,3,0.883
5370,171.84,7.3326,1.8375,0.1797,0.0004,-0.0016,-1.0659,flat,18.0,0,9.252
5380,172.16,7.4654,1.5494,0.1798,0.0002,-0.0000,-1.6023,flat,18.0,0,9.490
5390,172.48,7.4456,1.2398,0.1799,0.0001,-0.0000,-2.0579,flat,18.0,0,9.604
5400,172.80,7.2414,0.9453,0.1799,0.0001,-0.0001,-2.3761,flat,18.0,0,9.556
5410,173.12,6.8967,0.6764,0.1799,0.0000,-0.0000,-2.6430,flat,18.0,0,9.388
5420,173.44,6.4542,0.4710,0.1799,-0.0000,-0.0000,-2.8896,flat,18.0,0,9.121
5430,173.76,5.9470,0.3638,0.1799,-0.0000,-0.0000,-3.1071,flat,18.0,0,8.763
5440,174.08,5.4093,0.3647,0.1799,-0.0001,-0.0000,3.0004,flat,18.0,0,8.331
5450,174.40,4.8691,0.4576,0.1799,-0.0003,-0.0000,2.8725,flat,18.0,0,7.851
5460,174.72,4.3398,0.6176,0.1798,-0.0004,-0.0000,2.7783,flat,18.0,0,7.344
5470,175.04,3.8237,0.8263,0.1798,-0.0003,-0.0000,2.7049,flat,18.0,0,6.821
5480,175.36,3.3212,1.0724,0.1797,-0.0002,-0.0000,2.6452,flat,18.0,0,6.287
5490,175.68,2.8319,1.3481,0.1797,-0.0002,-0.0000,2.5951,flat,18.0,0,5.746
5500,176.00,2.3557,1.6484,0.1797,-0.0001,-0.0000,2.5533,flat,18.0,0,5.201
5510,176.32,1.8915,1.9684,0.1797,-0.0001,-0.0000,2.5165,flat,18.0,0,4.652
5520,176.64,1.4384,2.3056,0.1797,-0.0001,-0.0000,2.4824,flat,18.0,0,4.101
5530,176.96,0.9966,2.6582,0.1797,-0.0001,-0.0000,2.4501,flat,18.0,0,3.550
5540,177.28,0.5662,3.0250,0.1797,-0.0001,-0.0000,2.4180,flat,18.0,0,2.998
5550,177.60,0.1481,3.4056,0.1797,-0.0001,0.0000,2.3838,flat,18.0,0,2.448
5560,177.92,-0.2556,3.8003,0.1797,-0.0001,0.0000,2.3466,flat,18.0,0,1.902
5570,178.24,-0.6408,4.2094,0.1797,-0.0002,0.0000,2.3004,flat,18.0,0,1.364
5580,178.56,-1.0001,4.6340,0.1797,-0.0003,0.0000,2.2271,flat,18.0,0,0.848
5590,178.88,-1.3019,5.0798,0.1799,-0.0001,-0.0000,2.0722,flat,18.0,1,2.308
5600,179.20,-1.5145,5.5049,0.1798,-0.0002,0.0001,1.9300,rough,14.0,1,1.930
5610,179.52,-1.6712,5.9648,0.1799,-0.0001,-0.0001,1.7756,flat,18.0,1,1.549
5620,179.84,-1.7586,6.4917,0.1799,-0.0001,0.0000,1.5226,flat,18.0,1,1.148
5630,180.16,-1.7099,6.9921,0.1799,-0.0000,0.0000,1.1989,flat,18.0,2,0.787
5640,180.48,-1.5524,7.3176,0.1798,0.0001,-0.0000,0.8653,flat,18.0,2,8.405
5650,180.80,-1.2619,7.5854,0.1799,-0.0000,0.0003,0.5777,rough,14.0,2,8.287
5660,181.12,-0.9427,7.7708,0.1799,-0.0000,-0.0002,0.3827,flat,18.0,2,8.116
5670,181.44,-0.4849,7.9296,0.1799,0.0000,-0.0000,0.1404,flat,18.0,2,7.832
5680,181.76,0.0323,7.9804,0.1799,-0.0000,-0.0000,-0.0792,flat,18.0,2,7.453
5690,182.08,0.5654,7.9193,0.1799,-0.0001,-0.0000,-0.2462,flat,18.0,2,7.006
5700,182.40,1.0904,7.7696,0.1799,-0.0003,-0.0000,-0.3701,flat,18.0,2,6.517
5710,182.72,1.5985,7.5564,0.1798,-0.0004,-0.0000,-0.4638,flat,18.0,2,6.004
5720,183.04,2.0884,7.2961,0.1798,-0.0003,-0.0000,-0.5389,flat,18.0,2,5.477
5730,183.36,2.5605,6.9993,0.1797,-0.0002,-0.0000,-0.6016,flat,18.0,2,4.940
5740,183.68,3.0153,6.6729,0.1797,-0.0002,-0.0000,-0.6560,flat,18.0,2,4.396
5750,184.00,3.4532,6.3218,0.1797,-0.0002,-0.0000,-0.7046,flat,18.0,2,3.848
5760,184.32,3.8742,5.9493,0.1797,-0.0002,-0.0000,-0.7494,flat,18.0,2,3.296
5770,184.64,4.2785,5.5581,0.1797,-0.0002,-0.0000,-0.7931,flat,18.0,2,2.743
5780,184.96,4.6643,5.1495,0.1797,-0.0002,0.0000,-0.8389,flat,18.0,2,2.190
5790,185.28,5.0288,4.7247,0.1797,-0.0002,0.0000,-0.8895,flat,18.0,2,1.639
5800,185.60,5.3697,4.2818,0.1797,-0.0002,0.0000,-0.9578,flat,18.0,2,1.089
5810,185.92,5.6744,3.8205,0.1798,-0.0002,-0.0001,-0.9904,flat,18.0,3,3.014
5820,186.24,5.9622,3.3927,0.1798,0.0001,0.0002,-0.9554,rough,14.0,3,2.518
5830,186.56,6.2193,3.0394,0.1797,0.0001,0.0000,-0.9219,flat,18.0,3,2.099
5840,186.88,6.5645,2.6029,0.1797,0.0002,-0.0001,-0.8690,flat,18.0,3,1.571
5850,187.20,6.9341,2.1907,0.1797,0.0003,0.0000,-0.7957,flat,18.0,3,1.057
5860,187.52,7.2769,1.8702,0.1768,0.0007,-0.0192,-0.7808,flat,18.0,0,9.188
5870,187.84,7.4252,1.6648,0.1799,-0.0010,0.0007,-1.2728,flat,18.0,0,9.406
5880,188.16,7.5117,1.3710,0.1798,0.0002,-0.0000,-1.7713,flat,18.0,0,9.606
5890,188.48,7.4302,1.0687,0.1799,0.0000,-0.0001,-2.1743,flat,18.0,0,9.666
5900,188.80,7.1725,0.7810,0.1799,0.0000,-0.0001,-2.4671,flat,18.0,0,9.575
5910,189.12,6.7926,0.5285,0.1799,-0.0000,-0.0000,-2.7297,flat,18.0,0,9.376
5920,189.44,6.3247,0.3543,0.1799,-0.0001,-0.0000,-2.9677,flat,18.0,0,9.078
5930,189.76,5.8040,0.2848,0.1799,-0.0001,0.0000,3.1104,flat,18.0,0,8.694
5940,190.08,5.2630,0.3203,0.1799,-0.0001,-0.0000,2.9504,flat,18.0,0,8.243
5950,190.40,4.7263,0.4397,0.1799,-0.0004,-0.0000,2.8353,flat,18.0,0,7.753
5960,190.72,4.2018,0.6190,0.1798,-0.0004,-0.0000,2.7490,flat,18.0,0,7.240
5970,191.04,3.6910,0.8427,0.1797,-0.0003,-0.0000,2.6808,flat,18.0,0,6.713
5980,191.36,3.1938,1.1009,0.1797,-0.0002,-0.0000,2.6248,flat,18.0,0,6.177
5990,191.68,2.7095,1.3867,0.1797,-0.0002,-0.0000,2.5773,flat,18.0,0,5.634
6000,192.00,2.2384,1.6953,0.1797,-0.0001,-0.0000,2.5380,flat,18.0,0,5.087
6010,192.32,1.7787,2.0225,0.1797,-0.0001,-0.0000,2.5024,flat,18.0,0,4.537
6020,192.64,1.3301,2.3660,0.1797,-0.0001,-0.0000,2.4693,flat,18.0,0,3.986
6030,192.96,0.8928,2.7245,0.1797,-0.0001,-0.0000,2.4375,flat,18.0,0,3.434
6040,193.28,0.4670,3.0968,0.1797,-0.0001,-0.0000,2.4053,flat,18.0,0,2.882
6050,193.60,0.0537,3.4828,0.1797,-0.0001,0.0000,2.3709,flat,18.0,0,2.333
6060,193.92,-0.3445,3.8826,0.1797,-0.0001,0.0000,2.3328,flat,18.0,0,1.787
6070,194.24,-0.7229,4.2968,0.1797,-0.0002,0.0000,2.2835,flat,18.0,0,1.252
6080,194.56,-1.0703,4.7239,0.1798,-0.0002,0.0003,2.1861,flat,18.0,1,2.647
6090,194.88,-1.3591,5.1818,0.1799,-0.0001,-0.0000,2.0341,flat,18.0,1,2.214
6100,195.20,-1.5443,5.5812,0.1798,-0.0003,0.0001,1.9044,rough,14.0,1,1.864
6110,195.52,-1.6957,6.0668,0.1799,-0.0000,-0.0000,1.7317,flat,18.0,1,1.468
6120,195.84,-1.7589,6.5939,0.1799,-0.0000,0.0000,1.4664,flat,18.0,1,1.072
6130,196.16,-1.6890,7.0686,0.1799,-0.0000,0.0003,1.1183,flat,18.0,2,8.411
6140,196.48,-1.5048,7.3724,0.1798,0.0001,-0.0001,0.8066,flat,18.0,2,8.390
6150,196.80,-1.2061,7.6233,0.1799,-0.0000,0.0001,0.5408,rough,14.0,2,8.259
6160,197.12,-0.8762,7.8000,0.1799,0.0000,-0.0003,0.3466,flat,18.0,2,8.077
6170,197.44,-0.4093,7.9447,0.1799,0.0000,-0.0000,0.1083,flat,18.0,2,7.780
6180,197.76,0.1121,7.9797,0.1799,-0.0000,-0.0000,-0.1045,flat,18.0,2,7.391
6190,198.08,0.6451,7.9052,0.1799,-0.0001,-0.0000,-0.2655,flat,18.0,2,6.937
6200,198.40,1.1679,7.7455,0.1799,-0.0003,-0.0000,-0.3846,flat,18.0,2,6.444
6210,198.72,1.6734,7.5249,0.1798,-0.0004,-0.0000,-0.4754,flat,18.0,2,5.929
6220,199.04,2.1607,7.2589,0.1798,-0.0003,-0.0000,-0.5486,flat,18.0,2,5.401
6230,199.36,2.6301,6.9574,0.1797,-0.0002,-0.0000,-0.6102,flat,18.0,2,4.862
6240,199.68,3.0823,6.6270,0.1797,-0.0002,-0.0000,-0.6637,flat,18.0,2,4.318
6250,200.00,3.5176,6.2725,0.1797,-0.0002,-0.0000,-0.7118,flat,18.0,2,3.769
6260,200.32,3.9360,5.8970,0.1797,-0.0002,-0.0000,-0.7564,flat,18.0,2,3.218
6270,200.64,4.3375,5.5029,0.1797,-0.0002,-0.0000,-0.8003,flat,18.0,2,2.665
6280,200.96,4.7200,5.0916,0.1797,-0.0002,0.0000,-0.8468,flat,18.0,2,2.111
6290,201.28,5.0809,4.6641,0.1797,-0.0002,-0.0000,-0.8990,flat,18.0,2,1.560
6300,201.60,5.4171,4.2181,0.1797,-0.0003,0.0000,-0.9713,flat,18.0,2,1.011
6310,201.92,5.7216,3.7543,0.1798,-0.0001,-0.0001,-0.9778,flat,18.0,3,2.935
6320,202.24,6.0073,3.3403,0.1797,0.0001,0.0002,-0.9447,rough,14.0,3,2.450
6330,202.56,6.2819,2.9717,0.1797,0.0001,-0.0003,-0.9112,flat,18.0,3,2.009
6340,202.88,6.6339,2.5373,0.1797,0.0002,-0.0000,-0.8564,flat,18.0,3,1.478
6350,203.20,7.0086,2.1309,0.1797,0.0003,0.0000,-0.7804,flat,18.0,3,0.967
6360,203.52,7.3046,1.8547,0.1790,0.0000,-0.0048,-0.9211,flat,18.0,0,9.220
6370,203.84,7.4510,1.6285,0.1786,-0.0076,-0.0001,-1.3860,flat,18.0,0,9.444
6380,204.16,7.5016,1.3157,0.1799,0.0003,0.0000,-1.9067,flat,18.0,0,9.621
6390,204.48,7.3663,1.0181,0.1799,0.0001,-0.0001,-2.2676,flat,18.0,0,9.633
6400,204.80,7.0677,0.7370,0.1799,0.0000,-0.0001,-2.5435,flat,18.0,0,9.505
6410,205.12,6.6592,0.5022,0.1799,-0.0000,-0.0000,-2.7996,flat,18.0,0,9.277
6420,205.44,6.1725,0.3557,0.1799,-0.0000,-0.0000,-3.0290,flat,18.0,0,8.952
6430,205.76,5.6424,0.3164,0.1799,-0.0001,-0.0000,3.0598,flat,18.0,0,8.545
6440,206.08,5.1009,0.3777,0.1799,-0.0002,-0.0000,2.9155,flat,18.0,0,8.081
6450,206.40,4.5670,0.5152,0.1798,-0.0004,-0.0000,2.8103,flat,18.0,0,7.583
6460,206.72,4.0460,0.7074,0.1798,-0.0004,-0.0000,2.7300,flat,18.0,0,7.065
6470,207.04,3.5386,0.9408,0.1797,-0.0002,-0.0000,2.6657,flat,18.0,0,6.535
6480,207.36,3.0446,1.2065,0.1797,-0.0002,-0.0000,2.6124,flat,18.0,0,5.997
6490,207.68,2.5636,1.4984,0.1797,-0.0002,-0.0000,2.5675,flat,18.0,0,5.452
6500,208.00,2.0952,1.8117,0.1797,-0.0001,-0.0000,2.5294,flat,18.0,0,4.905
6510,208.32,1.6381,2.1428,0.1797,-0.0001,-0.0000,2.4946,flat,18.0,0,4.354
6520,208.64,1.1921,2.4900,0.1797,-0.0001,-0.0000,2.4619,flat,18.0,0,3.803
6530,208.96,0.7574,2.8517,0.1797,-0.0001,-0.0000,2.4302,flat,18.0,0,3.251
6540,209.28,0.3344,3.2271,0.1797,-0.0001,-0.0000,2.3972,flat,18.0,0,2.700
6550,209.60,-0.0754,3.6164,0.1797,-0.0001,0.0000,2.3619,flat,18.0,0,2.151
6560,209.92,-0.4689,4.0197,0.1797,-0.0001,0.0000,2.3212,flat,18.0,0,1.608
6570,210.24,-0.8405,4.4378,0.1797,-0.0002,0.0000,2.2647,flat,18.0,0,1.079
6580,210.56,-1.1697,4.8711,0.1798,-0.0000,-0.0000,2.1464,flat,18.0,1,2.503
6590,210.88,-1.4317,5.3218,0.1799,-0.0001,0.0003,1.9904,rough,14.0,1,2.089
6600,211.20,-1.5958,5.7149,0.1798,-0.0003,0.0000,1.8608,flat,18.0,1,1.753
6610,211.52,-1.7306,6.2270,0.1799,-0.0000,-0.0000,1.6621,flat,18.0,1,1.346
6620,211.84,-1.7551,6.7493,0.1799,-0.0000,0.0000,1.3740,flat,18.0,1,0.963
6630,212.16,-1.6489,7.1683,0.1799,0.0001,0.0001,1.0281,flat,18.0,2,8.421
6640,212.48,-1.4238,7.4552,0.1799,0.0001,-0.0001,0.7185,flat,18.0,2,8.360
6650,212.80,-1.1095,7.6852,0.1799,-0.0000,0.0000,0.4707,rough,14.0,2,8.210
6660,213.12,-0.7286,7.8585,0.1799,-0.0000,-0.0001,0.2661,flat,18.0,2,7.988
6670,213.44,-0.2339,7.9686,0.1799,-0.0000,-0.0001,0.0254,flat,18.0,2,7.655
6680,213.76,0.2955,7.9621,0.1799,-0.0001,-0.0000,-0.1675,flat,18.0,2,7.238
6690,214.08,0.8267,7.8540,0.1799,-0.0002,-0.0000,-0.3120,flat,18.0,2,6.768
6700,214.40,1.3436,7.6704,0.1798,-0.0004,-0.0000,-0.4190,flat,18.0,2,6.266
6710,214.72,1.8428,7.4324,0.1798,-0.0004,-0.0000,-0.5026,flat,18.0,2,5.745
6720,215.04,2.3239,7.1531,0.1797,-0.0003,-0.0000,-0.5710,flat,18.0,2,5.212
6730,215.36,2.7874,6.8410,0.1797,-0.0002,-0.0000,-0.6292,flat,18.0,2,4.672
6740,215.68,3.2338,6.5020,0.1797,-0.0002,-0.0000,-0.6805,flat,18.0,2,4.125
6750,216.00,3.6634,6.1399,0.1797,-0.0002,-0.0000,-0.7268,flat,18.0,2,3.575
6760,216.32,4.0763,5.7581,0.1797,-0.0002,-0.0000,-0.7710,flat,18.0,2,3.023
6770,216.64,4.4718,5.3581,0.1797,-0.0002,0.0000,-0.8151,flat,18.0,2,2.470
6780,216.96,4.8474,4.9413,0.1797,-0.0002,0.0000,-0.8631,flat,18.0,2,1.917
6790,217.28,5.2008,4.5080,0.1797,-0.0002,-0.0000,-0.9203,flat,18.0,2,1.366
6800,217.60,5.5257,4.0559,0.1798,-0.0003,0.0000,-1.0045,flat,18.0,2,0.820
6810,217.92,5.8289,3.5880,0.1798,0.0001,-0.0000,-0.9702,flat,18.0,3,2.745
6820,218.24,6.0882,3.2178,0.1797,0.0001,0.0001,-0.9385,rough,14.0,3,2.311
6830,218.56,6.3876,2.8227,0.1797,0.0001,-0.0002,-0.8976,flat,18.0,3,1.837
6840,218.88,6.7454,2.3955,0.1797,0.0002,-0.0000,-0.8359,flat,18.0,3,1.313
6850,219.20,7.1272,2.0030,0.1798,0.0003,0.0000,-0.7425,flat,18.0,3,0.816
6860,219.52,7.3565,1.7824,0.1796,0.0006,-0.0020,-1.0631,flat,18.0,0,9.296
6870,219.84,7.4814,1.5213,0.1798,0.0001,-0.0001,-1.5498,flat,18.0,0,9.516
6880,220.16,7.4791,1.2095,0.1799,0.0001,-0.0000,-2.0237,flat,18.0,0,9.647
6890,220.48,7.2911,0.9150,0.1799,0.0001,-0.0001,-2.3526,flat,18.0,0,9.614
6900,220.80,6.9565,0.6435,0.1799,0.0000,-0.0000,-2.6214,flat,18.0,0,9.456
6910,221.12,6.5216,0.4314,0.1799,-0.0000,-0.0000,-2.8708,flat,18.0,0,9.199
6920,221.44,6.0187,0.3160,0.1799,-0.0001,-0.0000,-3.0911,flat,18.0,0,8.849
6930,221.76,5.4828,0.3090,0.1799,-0.0001,-0.0000,3.0121,flat,18.0,0,8.423
6940,222.08,4.9423,0.3963,0.1799,-0.0002,-0.0000,2.8793,flat,18.0,0,7.946
6950,222.40,4.4123,0.5527,0.1798,-0.0004,-0.0000,2.7829,flat,18.0,0,7.442
6960,222.72,3.8956,0.7591,0.1798,-0.0003,-0.0000,2.7082,flat,18.0,0,6.920
6970,223.04,3.3926,1.0035,0.1797,-0.0002,-0.0000,2.6476,flat,18.0,0,6.387
6980,223.36,2.9028,1.2781,0.1797,-0.0002,-0.0000,2.5969,flat,18.0,0,5.846
6990,223.68,2.4262,1.5775,0.1797,-0.0001,-0.0000,2.5546,flat,18.0,0,5.301
7000,224.00,1.9615,1.8969,0.1797,-0.0001,-0.0000,2.5176,flat,18.0,0,4.752
7010,224.32,1.5081,2.2336,0.1797,-0.0001,-0.0000,2.4836,flat,18.0,0,4.201
7020,224.64,1.0658,2.5857,0.1797,-0.0001,-0.0000,2.4513,flat,18.0,0,3.650
7030,224.96,0.6349,2.9520,0.1797,-0.0001,-0.0000,2.4195,flat,18.0,0,3.098
7040,225.28,0.2159,3.3319,0.1797,-0.0001,0.0000,2.3860,flat,18.0,0,2.547
7050,225.60,-0.1890,3.7258,0.1797,-0.0001,0.0000,2.3498,flat,18.0,0,1.999
7060,225.92,-0.5765,4.1338,0.1797,-0.0001,0.0000,2.3061,flat,18.0,0,1.459
7070,226.24,-0.9400,4.5568,0.1797,-0.0002,0.0000,2.2409,flat,18.0,0,0.937
7080,226.56,-1.2520,4.9979,0.1799,-0.0001,-0.0000,2.1002,flat,18.0,1,2.383
7090,226.88,-1.4852,5.4388,0.1798,-0.0002,0.0002,1.9506,rough,14.0,1,1.987
7100,227.20,-1.6475,5.8849,0.1798,-0.0001,-0.0002,1.8066,flat,18.0,1,1.612
7110,227.52,-1.7518,6.4110,0.1799,-0.0001,-0.0000,1.5651,flat,18.0,1,1.207
7120,227.84,-1.7250,6.9208,0.1799,-0.0000,0.0000,1.2557,flat,18.0,1,0.836
7130,228.16,-1.5809,7.2773,0.1799,0.0002,0.0000,0.9069,flat,18.0,2,8.411
7140,228.48,-1.3031,7.5521,0.1799,0.0000,-0.0001,0.6141,flat,18.0,2,8.305
7150,228.80,-0.9908,7.7457,0.1799,-0.0001,-0.0000,0.3986,rough,14.0,2,8.143
7160,229.12,-0.5606,7.9070,0.1799,-0.0000,-0.0000,0.1815,flat,18.0,2,7.879
7170,229.44,-0.0498,7.9771,0.1799,-0.0001,0.0000,-0.0438,flat,18.0,2,7.515
7180,229.76,0.4830,7.9336,0.1799,-0.0001,-0.0000,-0.2209,flat,18.0,2,7.077
7190,230.08,1.0104,7.7968,0.1799,-0.0003,-0.0000,-0.3523,flat,18.0,2,6.594
7200,230.40,1.5213,7.5927,0.1798,-0.0004,-0.0000,-0.4500,flat,18.0,2,6.085
7210,230.72,2.0142,7.3392,0.1798,-0.0003,-0.0000,-0.5277,flat,18.0,2,5.559
7220,231.04,2.4892,7.0478,0.1797,-0.0002,-0.0000,-0.5922,flat,18.0,2,5.023
7230,231.36,2.9466,6.7258,0.1797,-0.0002,-0.0000,-0.6477,flat,18.0,2,4.481
7240,231.68,3.3871,6.3783,0.1797,-0.0002,-0.0000,-0.6972,flat,18.0,2,3.933
7250,232.00,3.8108,6.0091,0.1797,-0.0002,-0.0000,-0.7425,flat,18.0,2,3.382
7260,232.32,4.2177,5.6206,0.1797,-0.0002,-0.0000,-0.7864,flat,18.0,2,2.829
7270,232.64,4.6066,5.2147,0.1797,-0.0002,0.0000,-0.8317,flat,18.0,2,2.276
7280,232.96,4.9744,4.7922,0.1797,-0.0002,0.0000,-0.8813,flat,18.0,2,1.724
7290,233.28,5.3193,4.3522,0.1797,-0.0002,0.0000,-0.9458,flat,18.0,2,1.174
7300,233.60,5.6287,3.8943,0.1798,-0.0003,-0.0001,-0.9893,flat,18.0,3,3.098
7310,233.92,5.9315,3.4461,0.1798,0.0001,0.0004,-0.9533,rough,14.0,3,2.575
7320,234.24,6.1894,3.0926,0.1797,0.0001,0.0000,-0.9219,rough,14.0,3,2.154
7330,234.56,6.5269,2.6643,0.1797,0.0002,-0.0001,-0.8739,flat,18.0,3,1.635
7340,234.88,6.8947,2.2481,0.1797,0.0002,0.0000,-0.8067,flat,18.0,3,1.115
7350,235.20,7.2519,1.9028,0.1806,0.0002,0.0062,-0.7546,flat,18.0,0,9.152
7360,235.52,7.4139,1.7062,0.1772,-0.0168,-0.0004,-1.2415,flat,18.0,0,9.379
7370,235.84,7.5068,1.4092,0.1798,0.0001,0.0001,-1.7652,flat,18.0,0,9.586
7380,236.16,7.4277,1.1067,0.1799,0.0000,-0.0001,-2.1694,flat,18.0,0,9.647
7390,236.48,7.1719,0.8181,0.1799,0.0000,-0.0001,-2.4627,flat,18.0,0,9.556
7400,236.80,6.7932,0.5644,0.1799,-0.0000,-0.0000,-2.7250,flat,18.0,0,9.357
7410,237.12,6.3262,0.3882,0.1799,-0.0001,-0.0000,-2.9630,flat,18.0,0,9.060
7420,237.44,5.8060,0.3164,0.1799,-0.0001,0.0000,3.1152,flat,18.0,0,8.677
7430,237.76,5.2648,0.3494,0.1799,-0.0001,-0.0000,2.9544,flat,18.0,0,8.227
7440,238.08,4.7276,0.4666,0.1799,-0.0004,-0.0000,2.8388,flat,18.0,0,7.737
7450,238.40,4.2025,0.6441,0.1798,-0.0004,-0.0000,2.7522,flat,18.0,0,7.224
7460,238.72,3.6910,0.8662,0.1797,-0.0003,-0.0000,2.6837,flat,18.0,0,6.697
7470,239.04,3.1930,1.1229,0.1797,-0.0002,-0.0000,2.6275,flat,18.0,0,6.161
7480,239.36,2.7080,1.4073,0.1797,-0.0002,-0.0000,2.5799,flat,18.0,0,5.618
7490,239.68,2.2361,1.7147,0.1797,-0.0001,-0.0000,2.5405,flat,18.0,0,5.071
7500,240.00,1.7756,2.0407,0.1797,-0.0001,-0.0000,2.5048,flat,18.0,0,4.521
7510,240.32,1.3262,2.3832,0.1797,-0.0001,-0.0000,2.4716,flat,18.0,0,3.970
7520,240.64,0.8881,2.7406,0.1797,-0.0001,-0.0000,2.4398,flat,18.0,0,3.418
7530,240.96,0.4614,3.1119,0.1797,-0.0001,-0.0000,2.4074,flat,18.0,0,2.867
7540,241.28,0.0474,3.4970,0.1797,-0.0001,0.0000,2.3729,flat,18.0,0,2.317
7550,241.60,-0.3515,3.8960,0.1797,-0.0001,0.0000,2.3346,flat,18.0,0,1.772
7560,241.92,-0.7304,4.3095,0.1797,-0.0002,0.0000,2.2847,flat,18.0,0,1.238
7570,242.24,-1.0780,4.7360,0.1798,-0.0002,0.0003,2.1854,flat,18.0,1,2.635
7580,242.56,-1.3663,5.1940,0.1799,-0.0001,-0.0000,2.0326,flat,18.0,1,2.203
7590,242.88,-1.5508,5.5935,0.1798,-0.0003,0.0001,1.9018,rough,14.0,1,1.854
7600,243.20,-1.7008,6.0791,0.1799,-0.0000,-0.0000,1.7275,flat,18.0,1,1.460
7610,243.52,-1.7615,6.6057,0.1799,-0.0000,0.0000,1.4595,flat,18.0,1,1.065
7620,243.84,-1.6881,7.0783,0.1799,-0.0000,0.0003,1.1085,flat,18.0,2,8.414
7630,244.16,-1.4996,7.3799,0.1799,0.0001,-0.0001,0.7963,flat,18.0,2,8.389
7640,244.48,-1.1970,7.6298,0.1799,-0.0000,0.0001,0.5313,rough,14.0,2,8.255
7650,244.80,-0.8644,7.8043,0.1799,0.0000,-0.0003,0.3379,flat,18.0,2,8.070
7660,245.12,-0.3952,7.9455,0.1799,0.0000,-0.0000,0.1005,flat,18.0,2,7.769
7670,245.44,0.1271,7.9767,0.1799,-0.0000,-0.0000,-0.1103,flat,18.0,2,7.377
7680,245.76,0.6601,7.8991,0.1799,-0.0001,-0.0000,-0.2698,flat,18.0,2,6.922
7690,246.08,1.1824,7.7372,0.1799,-0.0003,-0.0000,-0.3876,flat,18.0,2,6.428
7700,246.40,1.6874,7.5151,0.1798,-0.0004,-0.0000,-0.4777,flat,18.0,2,5.913
7710,246.72,2.1742,7.2479,0.1798,-0.0003,-0.0000,-0.5505,flat,18.0,2,5.383
7720,247.04,2.6432,6.9455,0.1797,-0.0002,-0.0000,-0.6116,flat,18.0,2,4.845
7730,247.36,3.0950,6.6145,0.1797,-0.0002,-0.0000,-0.6649,flat,18.0,2,4.300
7740,247.68,3.5298,6.2594,0.1797,-0.0002,-0.0000,-0.7129,flat,18.0,2,3.751
7750,248.00,3.9479,5.8835,0.1797,-0.0002,-0.0000,-0.7574,flat,18.0,2,3.200
7760,248.32,4.3490,5.4890,0.1797,-0.0002,-0.0000,-0.8012,flat,18.0,2,2.647
7770,248.64,4.7310,5.0773,0.1797,-0.0002,0.0000,-0.8479,flat,18.0,2,2.093
7780,248.96,5.0914,4.6494,0.1797,-0.0002,-0.0000,-0.9005,flat,18.0,2,1.543
7790,249.28,5.4269,4.2030,0.1797,-0.0003,0.0000,-0.9736,flat,18.0,2,0.993
7800,249.60,5.7299,3.7386,0.1798,-0.0001,-0.0001,-0.9803,flat,18.0,3,2.919
7810,249.92,6.0146,3.3241,0.1797,0.0001,0.0002,-0.9463,rough,14.0,3,2.434
7820,250.24,6.2885,2.9555,0.1797,0.0001,-0.0003,-0.9118,flat,18.0,3,1.994
7830,250.56,6.6402,2.5214,0.1797,0.0002,-0.0000,-0.8555,flat,18.0,3,1.465
7840,250.88,7.0151,2.1163,0.1798,0.0003,0.0000,-0.7769,flat,18.0,3,0.956
7850,251.20,7.3118,1.8425,0.1789,0.0000,-0.0051,-0.9175,flat,18.0,0,9.231
7860,251.52,7.4524,1.6130,0.1799,-0.0003,0.0002,-1.3793,flat,18.0,0,9.452
7870,251.84,7.5049,1.3001,0.1799,0.0002,-0.0000,-1.9004,flat,18.0,0,9.631
7880,252.16,7.3718,1.0028,0.1799,0.0001,-0.0001,-2.2645,flat,18.0,0,9.645
7890,252.48,7.0745,0.7217,0.1799,0.0000,-0.0001,-2.5415,flat,18.0,0,9.519
7900,252.80,6.6669,0.4865,0.1799,-0.0000,-0.0000,-2.7981,flat,18.0,0,9.291
7910,253.12,6.1808,0.3394,0.1799,-0.0000,-0.0000,-3.0278,flat,18.0,0,8.968
7920,253.44,5.6514,0.2996,0.1799,-0.0001,-0.0000,3.0597,flat,18.0,0,8.563
7930,253.76,5.1099,0.3610,0.1799,-0.0002,-0.0000,2.9151,flat,18.0,0,8.098
7940,254.08,4.5761,0.4988,0.1798,-0.0004,-0.0000,2.8098,flat,18.0,0,7.601
7950,254.40,4.0553,0.6913,0.1798,-0.0004,-0.0000,2.7294,flat,18.0,0,7.083
7960,254.72,3.5480,0.9250,0.1797,-0.0002,-0.0000,2.6651,flat,18.0,0,6.553
7970,255.04,3.0542,1.1910,0.1797,-0.0002,-0.0000,2.6117,flat,18.0,0,6.014
7980,255.36,2.5734,1.4832,0.1797,-0.0002,-0.0000,2.5669,flat,18.0,0,5.470
7990,255.68,2.1052,1.7968,0.1797,-0.0001,-0.0000,2.5288,flat,18.0,0,4.922
8000,256.00,1.6483,2.1283,0.1797,-0.0001,-0.0000,2.4940,flat,18.0,0,4.372
8010,256.32,1.2025,2.4757,0.1797,-0.0001,-0.0000,2.4613,flat,18.0,0,3.821
8020,256.64,0.7680,2.8376,0.1797,-0.0001,-0.0000,2.4297,flat,18.0,0,3.269
8030,256.96,0.3451,3.2133,0.1797,-0.0001,-0.0000,2.3968,flat,18.0,0,2.717
8040,257.28,-0.0646,3.6027,0.1797,-0.0001,0.0000,2.3617,flat,18.0,0,2.169
8050,257.60,-0.4582,4.0062,0.1797,-0.0001,0.0000,2.3213,flat,18.0,0,1.625
8060,257.92,-0.8299,4.4243,0.1797,-0.0002,0.0000,2.2657,flat,18.0,0,1.096
8070,258.24,-1.1602,4.8572,0.1798,-0.0000,-0.0000,2.1491,flat,18.0,1,2.517
8080,258.56,-1.4236,5.3073,0.1799,-0.0001,0.0003,1.9938,rough,14.0,1,2.102
8090,258.88,-1.5906,5.7071,0.1798,-0.0003,-0.0004,1.8718,flat,18.0,1,1.758
8100,259.20,-1.7282,6.2236,0.1799,-0.0000,-0.0000,1.6607,flat,18.0,1,1.348
8110,259.52,-1.7522,6.7465,0.1799,-0.0000,0.0000,1.3753,flat,18.0,1,0.962
8120,259.84,-1.6466,7.1664,0.1799,0.0001,0.0001,1.0310,flat,18.0,2,8.418
