step,time_s,x,y,z,roll,pitch,yaw,terrain,speed,target_idx,dist_to_target
10,0.32,2.1821,0.5010,0.1852,0.0000,-0.0435,0.0000,rough,14.0,0,6.243
20,0.64,2.6808,0.5086,0.1797,0.0001,-0.0004,0.0448,flat,18.0,0,5.759
30,0.96,3.2439,0.5416,0.1797,0.0002,-0.0000,0.1102,flat,18.0,0,5.208
40,1.28,3.8049,0.6104,0.1797,0.0002,-0.0000,0.1642,flat,18.0,0,4.652
50,1.60,4.3626,0.7087,0.1797,0.0002,-0.0000,0.2104,flat,18.0,0,4.092
60,1.92,4.9150,0.8322,0.1797,0.0001,-0.0000,0.2490,flat,18.0,0,3.530
70,2.24,5.4624,0.9767,0.1797,0.0001,-0.0000,0.2845,flat,18.0,0,2.966
80,2.56,6.0043,1.1405,0.1797,0.0001,-0.0000,0.3191,flat,18.0,0,2.402
90,2.88,6.5395,1.3232,0.1797,0.0001,0.0000,0.3549,flat,18.0,0,1.837
100,3.20,7.0660,1.5250,0.1797,0.0001,0.0000,0.3954,flat,18.0,0,1.274
110,3.52,7.5774,1.7451,0.1797,0.0001,0.0003,0.4677,flat,18.0,1,5.037
120,3.84,7.8859,1.9324,0.1798,-0.0003,-0.0000,0.7894,flat,18.0,1,5.088
130,4.16,8.0945,2.1931,0.1799,-0.0001,-0.0000,1.0722,rough,14.0,1,5.041
140,4.48,8.2451,2.5058,0.1799,-0.0001,-0.0002,1.3017,flat,18.0,1,4.938
150,4.80,8.3458,2.9481,0.1799,0.0000,-0.0000,1.5936,flat,18.0,1,4.740
160,5.12,8.3092,3.4423,0.1799,0.0001,0.0000,1.8501,flat,18.0,1,4.435
170,5.44,8.1405,3.9301,0.1799,0.0001,-0.0000,2.0517,flat,18.0,1,4.051
180,5.76,7.8700,4.3855,0.1799,0.0001,-0.0000,2.2091,flat,18.0,1,3.616
190,6.08,7.5272,4.8024,0.1799,0.0003,-0.0000,2.3281,flat,18.0,1,3.152
200,6.40,7.1355,5.1764,0.1799,0.0003,-0.0000,2.4455,flat,18.0,1,2.677
210,6.72,6.7007,5.5064,0.1799,0.0003,-0.0000,2.5715,flat,18.0,1,2.193
220,7.04,6.2274,5.7819,0.1799,0.0001,-0.0000,2.7152,flat,18.0,1,1.707
230,7.36,5.7231,5.9870,0.1799,0.0001,0.0000,2.8979,flat,18.0,1,1.226
240,7.68,5.2068,6.0946,0.1799,0.0000,0.0000,-3.0925,flat,18.0,2,0.769
250,8.00,4.6526,6.0644,0.1798,0.0001,-0.0001,-3.0462,flat,18.0,2,12.447
260,8.32,4.1154,6.0073,0.1798,0.0001,-0.0001,-3.0156,flat,18.0,2,11.919
270,8.64,3.5537,5.9303,0.1797,0.0001,-0.0000,-2.9750,flat,18.0,2,11.363
280,8.96,2.9944,5.8319,0.1797,0.0001,-0.0000,-2.9434,flat,18.0,2,10.803
290,9.28,2.4372,5.7162,0.1797,0.0001,-0.0000,-2.9170,flat,18.0,2,10.240
300,9.60,1.8823,5.5861,0.1797,0.0001,-0.0000,-2.8948,flat,18.0,2,9.675
310,9.92,1.3296,5.4438,0.1797,0.0001,-0.0000,-2.8757,flat,18.0,2,9.107
320,10.24,0.7790,5.2912,0.1797,0.0001,-0.0000,-2.8592,flat,18.0,2,8.539
330,10.56,0.2303,5.1296,0.1797,0.0001,-0.0000,-2.8447,flat,18.0,2,7.969
340,10.88,-0.3164,4.9603,0.1797,0.0000,-0.0000,-2.8320,flat,18.0,2,7.399
350,11.20,-0.8613,4.7840,0.1797,0.0000,-0.0000,-2.8206,flat,18.0,2,6.828
360,11.52,-1.4045,4.6016,0.1797,0.0000,-0.0000,-2.8103,flat,18.0,2,6.256
370,11.84,-1.9461,4.4136,0.1797,0.0000,-0.0000,-2.8010,flat,18.0,2,5.684
380,12.16,-2.4861,4.2207,0.1797,0.0000,-0.0000,-2.7924,flat,18.0,2,5.112
390,12.48,-3.0246,4.0231,0.1797,0.0000,-0.0000,-2.7843,flat,18.0,2,4.540
400,12.80,-3.5616,3.8212,0.1797,0.0000,-0.0000,-2.7766,flat,18.0,2,3.967
410,13.12,-4.0971,3.6152,0.1797,0.0000,-0.0000,-2.7691,flat,18.0,2,3.395
420,13.44,-4.6311,3.4052,0.1797,0.0000,0.0000,-2.7616,flat,18.0,2,2.822
430,13.76,-5.1633,3.1912,0.1797,0.0000,0.0000,-2.7538,flat,18.0,2,2.251
440,14.08,-5.6935,2.9730,0.1797,0.0000,0.0000,-2.7450,flat,18.0,2,1.680
450,14.40,-6.2209,2.7502,0.1797,0.0000,0.0000,-2.7339,flat,18.0,2,1.111
460,14.72,-6.7058,2.5427,0.1798,0.0000,0.0003,-2.6378,flat,18.0,3,10.731
470,15.04,-7.0499,2.3134,0.1799,0.0000,0.0003,-2.3861,rough,14.0,3,10.594
480,15.36,-7.3266,2.0034,0.1799,-0.0000,-0.0000,-2.1821,flat,18.0,3,10.374
490,15.68,-7.5858,1.5733,0.1799,0.0001,-0.0000,-1.9694,flat,18.0,3,10.048
500,16.00,-7.7684,1.0759,0.1799,0.0001,0.0000,-1.7819,flat,18.0,3,9.646
510,16.32,-7.8642,0.5378,0.1799,0.0001,-0.0000,-1.6216,flat,18.0,3,9.184
520,16.64,-7.8770,-0.0173,0.1799,0.0003,-0.0000,-1.4943,flat,18.0,3,8.683
530,16.96,-7.8233,-0.5733,0.1798,0.0004,-0.0000,-1.4033,flat,18.0,3,8.157
540,17.28,-7.7209,-1.1250,0.1798,0.0003,-0.0000,-1.3340,flat,18.0,3,7.618
550,17.60,-7.5814,-1.6707,0.1797,0.0002,-0.0000,-1.2788,flat,18.0,3,7.070
560,17.92,-7.4124,-2.2096,0.1797,0.0002,-0.0000,-1.2337,flat,18.0,3,6.516
570,18.24,-7.2197,-2.7411,0.1797,0.0001,-0.0000,-1.1975,flat,18.0,3,5.959
580,18.56,-7.0080,-3.2663,0.1797,0.0001,-0.0000,-1.1656,flat,18.0,3,5.399
590,18.88,-6.7796,-3.7855,0.1797,0.0001,-0.0000,-1.1369,flat,18.0,3,4.837
600,19.20,-6.5364,-4.2985,0.1797,0.0001,-0.0000,-1.1104,flat,18.0,3,4.273
610,19.52,-6.2797,-4.8053,0.1797,0.0001,-0.0000,-1.0855,flat,18.0,3,3.708
620,19.84,-6.0103,-5.3056,0.1797,0.0001,-0.0000,-1.0612,flat,18.0,3,3.142
630,20.16,-5.7288,-5.7991,0.1797,0.0001,0.0000,-1.0366,flat,18.0,3,2.577
640,20.48,-5.4352,-6.2847,0.1797,0.0001,0.0000,-1.0102,flat,18.0,3,2.011
650,20.80,-5.1289,-6.7604,0.1797,0.0001,0.0000,-0.9790,flat,18.0,3,1.447
660,21.12,-4.8081,-7.2216,0.1797,0.0001,0.0000,-0.9353,flat,18.0,3,0.887
670,21.44,-4.5352,-7.5500,0.1798,-0.0003,-0.0000,-0.7006,flat,18.0,0,15.966
680,21.76,-4.1918,-7.7859,0.1799,0.0000,-0.0001,-0.4094,flat,18.0,0,15.837
690,22.08,-3.7467,-7.9492,0.1799,0.0000,-0.0000,-0.1464,flat,18.0,0,15.595
700,22.40,-3.2397,-8.0019,0.1799,0.0000,-0.0000,0.0777,flat,18.0,0,15.243
710,22.72,-2.7103,-7.9423,0.1799,0.0001,-0.0000,0.2432,flat,18.0,0,14.809
720,23.04,-2.1844,-7.7946,0.1799,0.0003,-0.0000,0.3636,flat,18.0,0,14.323
730,23.36,-1.6729,-7.5849,0.1798,0.0004,-0.0000,0.4510,flat,18.0,0,13.808
740,23.68,-1.1766,-7.3312,0.1797,0.0003,-0.0000,0.5173,flat,18.0,0,13.276
750,24.00,-0.6943,-7.0448,0.1797,0.0002,-0.0000,0.5696,flat,18.0,0,12.733
760,24.32,-0.2251,-6.7334,0.1797,0.0001,-0.0000,0.6105,flat,18.0,0,12.183
770,24.64,0.2330,-6.4029,0.1797,0.0001,-0.0000,0.6441,flat,18.0,0,11.627
780,24.96,0.6817,-6.0569,0.1797,0.0001,-0.0000,0.6727,flat,18.0,0,11.068
790,25.28,1.1217,-5.6981,0.1797,0.0001,-0.0000,0.6975,flat,18.0,0,10.506
800,25.60,1.5539,-5.3284,0.1797,0.0001,-0.0000,0.7194,flat,18.0,0,9.941
810,25.92,1.9791,-4.9491,0.1797,0.0001,-0.0000,0.7392,flat,18.0,0,9.375
820,26.24,2.3976,-4.5614,0.1797,0.0001,-0.0000,0.7572,flat,18.0,0,8.807
830,26.56,2.8098,-4.1661,0.1797,0.0001,-0.0000,0.7732,flat,18.0,0,8.238
840,26.88,3.2162,-3.7642,0.1797,0.0001,-0.0000,0.7876,flat,18.0,0,7.668
850,27.20,3.6172,-3.3565,0.1797,0.0000,-0.0000,0.8008,flat,18.0,0,7.097
860,27.52,4.0131,-2.9434,0.1797,0.0000,-0.0000,0.8132,flat,18.0,0,6.526
870,27.84,4.4042,-2.5254,0.1797,0.0000,-0.0000,0.8248,flat,18.0,0,5.954
880,28.16,4.7906,-2.1028,0.1797,0.0000,-0.0000,0.8357,flat,18.0,0,5.382
890,28.48,5.1727,-1.6761,0.1797,0.0000,-0.0000,0.8459,flat,18.0,0,4.810
900,28.80,5.5505,-1.2456,0.1797,0.0000,-0.0000,0.8558,flat,18.0,0,4.238
910,29.12,5.9242,-0.8115,0.1797,0.0000,-0.0000,0.8654,flat,18.0,0,3.665
920,29.44,6.2936,-0.3737,0.1797,0.0000,0.0000,0.8751,flat,18.0,0,3.092
930,29.76,6.6587,0.0675,0.1797,0.0000,0.0000,0.8851,flat,18.0,0,2.520
940,30.08,7.0190,0.5123,0.1797,0.0000,0.0000,0.8961,flat,18.0,0,1.947
950,30.40,7.3737,0.9608,0.1797,0.0000,0.0000,0.9092,flat,18.0,0,1.375
960,30.72,7.7209,1.4134,0.1797,0.0001,0.0000,0.9270,flat,18.0,0,0.805
970,31.04,7.9722,1.8029,0.1799,-0.0002,-0.0000,1.1817,flat,18.0,1,5.242
980,31.36,8.1120,2.1904,0.1799,0.0001,-0.0000,1.4356,rough,14.0,1,5.055
990,31.68,8.1525,2.5975,0.1799,-0.0000,-0.0003,1.6206,flat,18.0,1,4.808
1000,32.00,8.1031,3.1057,0.1799,0.0002,-0.0000,1.8481,flat,18.0,1,4.452
1010,32.32,7.9352,3.6068,0.1799,0.0001,-0.0000,2.0242,flat,18.0,1,4.030
1020,32.64,7.6785,4.0781,0.1799,0.0002,-0.0000,2.1613,flat,18.0,1,3.572
1030,32.96,7.3566,4.5176,0.1798,0.0004,-0.0000,2.2652,flat,18.0,1,3.091
1040,33.28,6.9901,4.9215,0.1798,0.0004,0.0000,2.3650,flat,18.0,1,2.604
1050,33.60,6.5840,5.2858,0.1798,0.0004,-0.0000,2.4740,flat,18.0,1,2.114
1060,33.92,6.1400,5.6048,0.1799,0.0002,-0.0000,2.6026,flat,18.0,1,1.626
1070,34.24,5.6617,5.8624,0.1799,0.0000,0.0000,2.7754,flat,18.0,1,1.147
1080,34.56,5.1638,6.0208,0.1800,0.0003,-0.0000,3.0033,flat,18.0,2,12.920
1090,34.88,4.6141,6.0820,0.1799,0.0003,-0.0000,3.1086,flat,18.0,2,12.416
1100,35.20,4.0520,6.0900,0.1798,0.0004,-0.0000,-3.0880,flat,18.0,2,11.886
1110,35.52,3.4889,6.0519,0.1797,0.0003,-0.0000,-3.0239,flat,18.0,2,11.343
1120,35.84,2.9275,5.9794,0.1797,0.0002,-0.0000,-2.9749,flat,18.0,2,10.791
1130,36.16,2.3693,5.8802,0.1797,0.0001,-0.0000,-2.9374,flat,18.0,2,10.234
1140,36.48,1.8141,5.7607,0.1797,0.0001,-0.0000,-2.9070,flat,18.0,2,9.674
1150,36.80,1.2616,5.6248,0.1797,0.0001,-0.0000,-2.8814,flat,18.0,2,9.111
1160,37.12,0.7118,5.4749,0.1797,0.0001,-0.0000,-2.8595,flat,18.0,2,8.546
1170,37.44,0.1645,5.3132,0.1797,0.0001,-0.0000,-2.8405,flat,18.0,2,7.979
1180,37.76,-0.3802,5.1413,0.1797,0.0001,-0.0000,-2.8239,flat,18.0,2,7.410
1190,38.08,-0.9226,4.9604,0.1797,0.0001,-0.0000,-2.8092,flat,18.0,2,6.841
1200,38.40,-1.4626,4.7716,0.1797,0.0000,-0.0000,-2.7960,flat,18.0,2,6.271
1210,38.72,-2.0005,4.5757,0.1797,0.0000,-0.0000,-2.7840,flat,18.0,2,5.701
1220,39.04,-2.5364,4.3735,0.1797,0.0000,-0.0000,-2.7730,flat,18.0,2,5.130
1230,39.36,-3.0702,4.1654,0.1797,0.0000,-0.0000,-2.7627,flat,18.0,2,4.559
1240,39.68,-3.6019,3.9518,0.1797,0.0000,-0.0000,-2.7530,flat,18.0,2,3.987
1250,40.00,-4.1317,3.7331,0.1797,0.0000,-0.0000,-2.7435,flat,18.0,2,3.416
1260,40.32,-4.6593,3.5094,0.1797,0.0000,0.0000,-2.7341,flat,18.0,2,2.844
1270,40.64,-5.1847,3.2807,0.1797,0.0000,0.0000,-2.7242,flat,18.0,2,2.274
1280,40.96,-5.7073,3.0468,0.1797,0.0000,0.0000,-2.7132,flat,18.0,2,1.704
1290,41.28,-6.2264,2.8072,0.1797,0.0000,0.0000,-2.6994,flat,18.0,2,1.137
1300,41.60,-6.7170,2.5765,0.1797,0.0001,0.0004,-2.6213,flat,18.0,3,10.766
1310,41.92,-7.0595,2.3389,0.1799,0.0000,0.0003,-2.3723,rough,14.0,3,10.621
1320,42.24,-7.3344,2.0239,0.1799,-0.0000,-0.0000,-2.1705,flat,18.0,3,10.396
1330,42.56,-7.5903,1.5894,0.1799,0.0001,-0.0000,-1.9594,flat,18.0,3,10.064
1340,42.88,-7.7688,1.0891,0.1799,0.0001,0.0000,-1.7738,flat,18.0,3,9.658
1350,43.20,-7.8607,0.5495,0.1799,0.0001,-0.0000,-1.6153,flat,18.0,3,9.194
1360,43.52,-7.8703,-0.0061,0.1799,0.0003,-0.0000,-1.4906,flat,18.0,3,8.690
1370,43.84,-7.8147,-0.5621,0.1798,0.0004,-0.0000,-1.4012,flat,18.0,3,8.164
1380,44.16,-7.7112,-1.1138,0.1798,0.0003,-0.0000,-1.3329,flat,18.0,3,7.624
1390,44.48,-7.5712,-1.6595,0.1797,0.0002,-0.0000,-1.2785,flat,18.0,3,7.075
1400,44.80,-7.4021,-2.1985,0.1797,0.0002,-0.0000,-1.2342,flat,18.0,3,6.521
1410,45.12,-7.2097,-2.7302,0.1797,0.0001,-0.0000,-1.1984,flat,18.0,3,5.964
1420,45.44,-6.9985,-3.2557,0.1797,0.0001,-0.0000,-1.1668,flat,18.0,3,5.403
1430,45.76,-6.7708,-3.7753,0.1797,0.0001,-0.0000,-1.1384,flat,18.0,3,4.841
1440,46.08,-6.5284,-4.2888,0.1797,0.0001,-0.0000,-1.1122,flat,18.0,3,4.277
1450,46.40,-6.2725,-4.7961,0.1797,0.0001,-0.0000,-1.0875,flat,18.0,3,3.712
1460,46.72,-6.0042,-5.2971,0.1797,0.0001,-0.0000,-1.0634,flat,18.0,3,3.146
1470,47.04,-5.7238,-5.7913,0.1797,0.0001,0.0000,-1.0391,flat,18.0,3,2.580
1480,47.36,-5.4314,-6.2777,0.1797,0.0001,0.0000,-1.0129,flat,18.0,3,2.015
1490,47.68,-5.1264,-6.7543,0.1797,0.0001,0.0000,-0.9821,flat,18.0,3,1.450
1500,48.00,-4.8070,-7.2167,0.1797,0.0001,0.0000,-0.9387,flat,18.0,3,0.890
1510,48.32,-4.5357,-7.5459,0.1798,-0.0003,-0.0000,-0.7045,flat,18.0,0,15.964
1520,48.64,-4.1938,-7.7823,0.1799,0.0000,-0.0001,-0.4129,flat,18.0,0,15.837
1530,48.96,-3.7498,-7.9469,0.1799,0.0000,-0.0000,-0.1495,flat,18.0,0,15.596
1540,49.28,-3.2433,-8.0010,0.1799,0.0000,-0.0000,0.0751,flat,18.0,0,15.246
1550,49.60,-2.7141,-7.9427,0.1799,0.0001,-0.0000,0.2415,flat,18.0,0,14.812
1560,49.92,-2.1881,-7.7959,0.1799,0.0003,-0.0000,0.3624,flat,18.0,0,14.326
1570,50.24,-1.6764,-7.5868,0.1798,0.0004,-0.0000,0.4501,flat,18.0,0,13.812
1580,50.56,-1.1799,-7.3335,0.1797,0.0003,-0.0000,0.5167,flat,18.0,0,13.280
1590,50.88,-0.6974,-7.0475,0.1797,0.0002,-0.0000,0.5691,flat,18.0,0,12.737
1600,51.20,-0.2281,-6.7362,0.1797,0.0001,-0.0000,0.6101,flat,18.0,0,12.187
1610,51.52,0.2301,-6.4059,0.1797,0.0001,-0.0000,0.6438,flat,18.0,0,11.632
1620,51.84,0.6788,-6.0601,0.1797,0.0001,-0.0000,0.6725,flat,18.0,0,11.072
1630,52.16,1.1189,-5.7014,0.1797,0.0001,-0.0000,0.6973,flat,18.0,0,10.510
1640,52.48,1.5512,-5.3317,0.1797,0.0001,-0.0000,0.7192,flat,18.0,0,9.945
1650,52.80,1.9764,-4.9526,0.1797,0.0001,-0.0000,0.7391,flat,18.0,0,9.379
1660,53.12,2.3950,-4.5649,0.1797,0.0001,-0.0000,0.7570,flat,18.0,0,8.811
1670,53.44,2.8072,-4.1697,0.1797,0.0001,-0.0000,0.7731,flat,18.0,0,8.242
1680,53.76,3.2136,-3.7678,0.1797,0.0001,-0.0000,0.7875,flat,18.0,0,7.672
1690,54.08,3.6147,-3.3601,0.1797,0.0000,-0.0000,0.8008,flat,18.0,0,7.102
1700,54.40,4.0106,-2.9470,0.1797,0.0000,-0.0000,0.8132,flat,18.0,0,6.530
1710,54.72,4.4017,-2.5290,0.1797,0.0000,-0.0000,0.8248,flat,18.0,0,5.959
1720,55.04,4.7881,-2.1065,0.1797,0.0000,-0.0000,0.8357,flat,18.0,0,5.387
1730,55.36,5.1702,-1.6798,0.1797,0.0000,-0.0000,0.8459,flat,18.0,0,4.814
1740,55.68,5.5480,-1.2493,0.1797,0.0000,-0.0000,0.8558,flat,18.0,0,4.242
1750,56.00,5.9217,-0.8151,0.1797,0.0000,-0.0000,0.8654,flat,18.0,0,3.669
1760,56.32,6.2911,-0.3774,0.1797,0.0000,0.0000,0.8751,flat,18.0,0,3.097
1770,56.64,6.6562,0.0638,0.1797,0.0000,0.0000,0.8852,flat,18.0,0,2.524
1780,56.96,7.0164,0.5086,0.1797,0.0000,0.0000,0.8962,flat,18.0,0,1.952
1790,57.28,7.3711,0.9572,0.1797,0.0000,0.0000,0.9092,flat,18.0,0,1.380
1800,57.60,7.7184,1.4098,0.1797,0.0001,0.0000,0.9269,flat,18.0,0,0.810
1810,57.92,7.9697,1.7993,0.1799,-0.0002,-0.0000,1.1815,flat,18.0,1,5.243
1820,58.24,8.1122,2.1981,0.1799,0.0001,0.0000,1.4346,rough,14.0,1,5.050
1830,58.56,8.1537,2.6133,0.1799,0.0001,-0.0002,1.6245,flat,18.0,1,4.799
1840,58.88,8.1025,3.1229,0.1799,0.0001,-0.0000,1.8520,flat,18.0,1,4.441
1850,59.20,7.9321,3.6233,0.1799,0.0001,-0.0000,2.0284,flat,18.0,1,4.019
1860,59.52,7.6733,4.0936,0.1799,0.0002,-0.0000,2.1650,flat,18.0,1,3.560
1870,59.84,7.3498,4.5321,0.1798,0.0004,-0.0000,2.2685,flat,18.0,1,3.079
1880,60.16,6.9820,4.9346,0.1798,0.0004,-0.0000,2.3687,flat,18.0,1,2.592
1890,60.48,6.5744,5.2974,0.1798,0.0004,-0.0000,2.4783,flat,18.0,1,2.103
1900,60.80,6.1291,5.6146,0.1799,0.0002,-0.0000,2.6078,flat,18.0,1,1.614
1910,61.12,5.6498,5.8696,0.1799,0.0000,0.0000,2.7825,flat,18.0,1,1.136
1920,61.44,5.1512,6.0239,0.1800,0.0003,-0.0001,3.0142,flat,18.0,2,12.909
1930,61.76,4.6004,6.0795,0.1799,0.0003,-0.0000,3.1166,flat,18.0,2,12.402
1940,62.08,4.0380,6.0834,0.1798,0.0004,-0.0000,-3.0824,flat,18.0,2,11.871
1950,62.40,3.4749,6.0423,0.1797,0.0002,-0.0000,-3.0202,flat,18.0,2,11.326
1960,62.72,2.9137,5.9677,0.1797,0.0002,-0.0000,-2.9722,flat,18.0,2,10.774
1970,63.04,2.3556,5.8672,0.1797,0.0001,-0.0000,-2.9357,flat,18.0,2,10.217
1980,63.36,1.8005,5.7468,0.1797,0.0001,-0.0000,-2.9058,flat,18.0,2,9.656
1990,63.68,1.2480,5.6102,0.1797,0.0001,-0.0000,-2.8806,flat,18.0,2,9.093
2000,64.00,0.6982,5.4600,0.1797,0.0001,-0.0000,-2.8591,flat,18.0,2,8.527
2010,64.32,0.1509,5.2981,0.1797,0.0001,-0.0000,-2.8404,flat,18.0,2,7.960
2020,64.64,-0.3939,5.1261,0.1797,0.0001,-0.0000,-2.8240,flat,18.0,2,7.392
2030,64.96,-0.9363,4.9453,0.1797,0.0001,-0.0000,-2.8095,flat,18.0,2,6.823
2040,65.28,-1.4765,4.7566,0.1797,0.0000,-0.0000,-2.7964,flat,18.0,2,6.253
2050,65.60,-2.0145,4.5610,0.1797,0.0000,-0.0000,-2.7846,flat,18.0,2,5.682
2060,65.92,-2.5505,4.3591,0.1797,0.0000,-0.0000,-2.7737,flat,18.0,2,5.111
2070,66.24,-3.0845,4.1515,0.1797,0.0000,-0.0000,-2.7636,flat,18.0,2,4.540
2080,66.56,-3.6165,3.9384,0.1797,0.0000,-0.0000,-2.7540,flat,18.0,2,3.968
2090,66.88,-4.1465,3.7202,0.1797,0.0000,-0.0000,-2.7446,flat,18.0,2,3.397
2100,67.20,-4.6744,3.4970,0.1797,0.0000,0.0000,-2.7352,flat,18.0,2,2.825
2110,67.52,-5.2001,3.2689,0.1797,0.0000,0.0000,-2.7254,flat,18.0,2,2.255
2120,67.84,-5.7230,3.0357,0.1797,0.0000,0.0000,-2.7145,flat,18.0,2,1.685
2130,68.16,-6.2424,2.7967,0.1797,0.0000,0.0000,-2.7007,flat,18.0,2,1.118
2140,68.48,-6.7197,2.5723,0.1798,0.0000,0.0003,-2.6009,flat,18.0,3,10.763
2150,68.80,-7.0581,2.3249,0.1799,0.0000,0.0003,-2.3511,rough,14.0,3,10.607
2160,69.12,-7.3238,2.0116,0.1799,-0.0000,-0.0001,-2.1583,flat,18.0,3,10.381
2170,69.44,-7.5766,1.5725,0.1799,0.0000,-0.0000,-1.9486,flat,18.0,3,10.044
2180,69.76,-7.7512,1.0694,0.1799,0.0001,-0.0000,-1.7641,flat,18.0,3,9.633
2190,70.08,-7.8391,0.5285,0.1799,0.0001,-0.0000,-1.6089,flat,18.0,3,9.166
2200,70.40,-7.8457,-0.0275,0.1799,0.0003,-0.0000,-1.4873,flat,18.0,3,8.660
2210,70.72,-7.7883,-0.5836,0.1798,0.0004,-0.0000,-1.3994,flat,18.0,3,8.133
2220,71.04,-7.6840,-1.1353,0.1797,0.0003,-0.0000,-1.3321,flat,18.0,3,7.592
2230,71.36,-7.5435,-1.6811,0.1797,0.0002,-0.0000,-1.2783,flat,18.0,3,7.043
2240,71.68,-7.3743,-2.2201,0.1797,0.0002,-0.0000,-1.2347,flat,18.0,3,6.489
2250,72.00,-7.1823,-2.7520,0.1797,0.0001,-0.0000,-1.1992,flat,18.0,3,5.931
2260,72.32,-6.9715,-3.2778,0.1797,0.0001,-0.0000,-1.1679,flat,18.0,3,5.370
2270,72.64,-6.7443,-3.7977,0.1797,0.0001,-0.0000,-1.1397,flat,18.0,3,4.808
2280,72.96,-6.5026,-4.3115,0.1797,0.0001,-0.0000,-1.1136,flat,18.0,3,4.244
2290,73.28,-6.2475,-4.8193,0.1797,0.0001,-0.0000,-1.0890,flat,18.0,3,3.679
2300,73.60,-5.9799,-5.3207,0.1797,0.0001,-0.0000,-1.0650,flat,18.0,3,3.113
2310,73.92,-5.7003,-5.8153,0.1797,0.0001,0.0000,-1.0406,flat,18.0,3,2.547
2320,74.24,-5.4087,-6.3021,0.1797,0.0001,0.0000,-1.0143,flat,18.0,3,1.981
2330,74.56,-5.1043,-6.7791,0.1797,0.0001,0.0000,-0.9831,flat,18.0,3,1.417
2340,74.88,-4.7855,-7.2415,0.1797,0.0001,0.0000,-0.9387,flat,18.0,3,0.857
2350,75.20,-4.5143,-7.5701,0.1798,-0.0003,-0.0000,-0.7032,flat,18.0,0,15.961
2360,75.52,-4.1857,-7.7976,0.1799,-0.0001,-0.0002,-0.4297,flat,18.0,0,15.840
2370,75.84,-3.7556,-7.9668,0.1799,-0.0000,-0.0000,-0.1742,flat,18.0,0,15.613
2380,76.16,-3.2536,-8.0327,0.1799,0.0000,-0.0001,0.0554,flat,18.0,0,15.274
2390,76.48,-2.7254,-7.9848,0.1799,0.0001,-0.0000,0.2272,flat,18.0,0,14.849
2400,76.80,-2.1987,-7.8455,0.1799,0.0003,-0.0000,0.3531,flat,18.0,0,14.368
2410,77.12,-1.6859,-7.6410,0.1798,0.0004,-0.0000,0.4442,flat,18.0,0,13.857
2420,77.44,-1.1885,-7.3906,0.1798,0.0003,-0.0000,0.5129,flat,18.0,0,13.327
2430,77.76,-0.7054,-7.1065,0.1797,0.0002,-0.0000,0.5668,flat,18.0,0,12.785
2440,78.08,-0.2358,-6.7963,0.1797,0.0002,-0.0000,0.6091,flat,18.0,0,12.236
2450,78.40,0.2225,-6.4665,0.1797,0.0001,-0.0000,0.6435,flat,18.0,0,11.681
2460,78.72,0.6711,-6.1208,0.1797,0.0001,-0.0000,0.6728,flat,18.0,0,11.122
2470,79.04,1.1109,-5.7619,0.1797,0.0001,-0.0000,0.6981,flat,18.0,0,10.560
2480,79.36,1.5427,-5.3920,0.1797,0.0001,-0.0000,0.7204,flat,18.0,0,9.996
2490,79.68,1.9673,-5.0123,0.1797,0.0001,-0.0000,0.7407,flat,18.0,0,9.430
2500,80.00,2.3852,-4.6240,0.1797,0.0001,-0.0000,0.7589,flat,18.0,0,8.862
2510,80.32,2.7965,-4.2280,0.1797,0.0001,-0.0000,0.7752,flat,18.0,0,8.293
2520,80.64,3.2020,-3.8253,0.1797,0.0001,-0.0000,0.7898,flat,18.0,0,7.723
2530,80.96,3.6021,-3.4166,0.1797,0.0000,-0.0000,0.8033,flat,18.0,0,7.153
2540,81.28,3.9969,-3.0025,0.1797,0.0000,-0.0000,0.8159,flat,18.0,0,6.582
2550,81.60,4.3868,-2.5835,0.1797,0.0000,-0.0000,0.8276,flat,18.0,0,6.010
2560,81.92,4.7720,-2.1599,0.1797,0.0000,-0.0000,0.8386,flat,18.0,0,5.438
2570,82.24,5.1527,-1.7321,0.1797,0.0000,-0.0000,0.8490,flat,18.0,0,4.866
2580,82.56,5.5292,-1.3005,0.1797,0.0000,-0.0000,0.8589,flat,18.0,0,4.294
2590,82.88,5.9015,-0.8652,0.1797,0.0000,-0.0000,0.8686,flat,18.0,0,3.721
2600,83.20,6.2695,-0.4263,0.1797,0.0000,0.0000,0.8783,flat,18.0,0,3.148
2610,83.52,6.6332,0.0161,0.1797,0.0000,0.0000,0.8884,flat,18.0,0,2.576
2620,83.84,6.9920,0.4621,0.1797,0.0000,0.0000,0.8994,flat,18.0,0,2.003
2630,84.16,7.3453,0.9118,0.1797,0.0000,0.0000,0.9123,flat,18.0,0,1.431
2640,84.48,7.6915,1.3655,0.1797,0.0001,0.0000,0.9295,flat,18.0,0,0.861
2650,84.80,7.9543,1.7621,0.1799,-0.0002,-0.0000,1.1547,flat,18.0,1,5.261
2660,85.12,8.1074,2.1653,0.1799,0.0001,0.0001,1.4160,rough,14.0,1,5.070
2670,85.44,8.1558,2.5622,0.1799,-0.0000,-0.0003,1.6045,flat,18.0,1,4.834
2680,85.76,8.1155,3.0664,0.1799,0.0002,-0.0000,1.8282,flat,18.0,1,4.485
2690,86.08,7.9572,3.5694,0.1799,0.0001,-0.0000,2.0110,flat,18.0,1,4.069
2700,86.40,7.7069,4.0433,0.1799,0.0002,-0.0000,2.1513,flat,18.0,1,3.614
2710,86.72,7.3895,4.4852,0.1798,0.0004,-0.0000,2.2578,flat,18.0,1,3.134
2720,87.04,7.0261,4.8921,0.1798,0.0004,-0.0000,2.3573,flat,18.0,1,2.648
2730,87.36,6.6229,5.2593,0.1798,0.0004,-0.0000,2.4655,flat,18.0,1,2.158
2740,87.68,6.1816,5.5821,0.1799,0.0003,-0.0000,2.5920,flat,18.0,1,1.669
2750,88.00,5.7055,5.8452,0.1799,0.0001,0.0000,2.7594,flat,18.0,1,1.189
2760,88.32,5.2086,6.0160,0.1799,0.0004,0.0001,3.0046,flat,18.0,2,12.962
2770,88.64,4.6634,6.0772,0.1799,0.0002,-0.0000,3.1036,flat,18.0,2,12.461
2780,88.96,4.1015,6.0879,0.1798,0.0004,-0.0000,-3.0919,flat,18.0,2,11.932
2790,89.28,3.5383,6.0520,0.1797,0.0003,-0.0000,-3.0271,flat,18.0,2,11.389
2800,89.60,2.9768,5.9812,0.1797,0.0002,-0.0000,-2.9777,flat,18.0,2,10.838
2810,89.92,2.4183,5.8835,0.1797,0.0001,-0.0000,-2.9397,flat,18.0,2,10.281
2820,90.24,1.8629,5.7653,0.1797,0.0001,-0.0000,-2.9091,flat,18.0,2,9.721
2830,90.56,1.3101,5.6305,0.1797,0.0001,-0.0000,-2.8833,flat,18.0,2,9.158
2840,90.88,0.7600,5.4817,0.1797,0.0001,-0.0000,-2.8613,flat,18.0,2,8.593
2850,91.20,0.2125,5.3210,0.1797,0.0001,-0.0000,-2.8422,flat,18.0,2,8.026
2860,91.52,-0.3325,5.1500,0.1797,0.0001,-0.0000,-2.8256,flat,18.0,2,7.458
2870,91.84,-0.8751,4.9700,0.1797,0.0001,-0.0000,-2.8108,flat,18.0,2,6.888
2880,92.16,-1.4155,4.7821,0.1797,0.0000,-0.0000,-2.7975,flat,18.0,2,6.319
2890,92.48,-1.9537,4.5871,0.1797,0.0000,-0.0000,-2.7856,flat,18.0,2,5.748
2900,92.80,-2.4899,4.3857,0.1797,0.0000,-0.0000,-2.7746,flat,18.0,2,5.177
2910,93.12,-3.0240,4.1784,0.1797,0.0000,-0.0000,-2.7643,flat,18.0,2,4.606
2920,93.44,-3.5561,3.9657,0.1797,0.0000,-0.0000,-2.7546,flat,18.0,2,4.034
2930,93.76,-4.0862,3.7478,0.1797,0.0000,-0.0000,-2.7452,flat,18.0,2,3.463
2940,94.08,-4.6143,3.5250,0.1797,0.0000,0.0000,-2.7358,flat,18.0,2,2.892
2950,94.40,-5.1401,3.2972,0.1797,0.0000,0.0000,-2.7260,flat,18.0,2,2.321
2960,94.72,-5.6632,3.0642,0.1797,0.0000,0.0000,-2.7152,flat,18.0,2,1.751
2970,95.04,-6.1829,2.8256,0.1797,0.0000,0.0000,-2.7019,flat,18.0,2,1.184
2980,95.36,-6.6744,2.5962,0.1797,0.0001,0.0004,-2.6248,flat,18.0,3,10.776
2990,95.68,-7.0225,2.3553,0.1799,-0.0000,-0.0000,-2.3729,flat,18.0,3,10.627
3000,96.00,-7.2999,2.0366,0.1799,0.0000,-0.0001,-2.1668,flat,18.0,3,10.398
3010,96.32,-7.5555,1.6004,0.1799,0.0000,-0.0000,-1.9567,flat,18.0,3,10.063
3020,96.64,-7.7336,1.0992,0.1799,0.0001,-0.0000,-1.7714,flat,18.0,3,9.655
3030,96.96,-7.8252,0.5592,0.1799,0.0001,-0.0000,-1.6153,flat,18.0,3,9.189
3040,97.28,-7.8352,0.0034,0.1799,0.0003,-0.0000,-1.4923,flat,18.0,3,8.684
3050,97.60,-7.7806,-0.5529,0.1798,0.0004,-0.0000,-1.4036,flat,18.0,3,8.157
3060,97.92,-7.6785,-1.1050,0.1798,0.0003,-0.0000,-1.3358,flat,18.0,3,7.617
3070,98.24,-7.5401,-1.6513,0.1797,0.0002,-0.0000,-1.2817,flat,18.0,3,7.068
3080,98.56,-7.3727,-2.1909,0.1797,0.0002,-0.0000,-1.2377,flat,18.0,3,6.514
3090,98.88,-7.1822,-2.7233,0.1797,0.0001,-0.0000,-1.2021,flat,18.0,3,5.956
3100,99.20,-6.9729,-3.2497,0.1797,0.0001,-0.0000,-1.1706,flat,18.0,3,5.395
3110,99.52,-6.7472,-3.7702,0.1797,0.0001,-0.0000,-1.1424,flat,18.0,3,4.833
3120,99.84,-6.5069,-4.2847,0.1797,0.0001,-0.0000,-1.1163,flat,18.0,3,4.269
3130,100.16,-6.2531,-4.7932,0.1797,0.0001,-0.0000,-1.0917,flat,18.0,3,3.704
3140,100.48,-5.9869,-5.2953,0.1797,0.0001,-0.0000,-1.0677,flat,18.0,3,3.138
3150,100.80,-5.7087,-5.7908,0.1797,0.0001,0.0000,-1.0435,flat,18.0,3,2.572
3160,101.12,-5.4184,-6.2785,0.1797,0.0001,0.0000,-1.0174,flat,18.0,3,2.006
3170,101.44,-5.1156,-6.7566,0.1797,0.0001,0.0000,-0.9865,flat,18.0,3,1.442
3180,101.76,-4.7984,-7.2204,0.1797,0.0001,0.0000,-0.9430,flat,18.0,3,0.881
3190,102.08,-4.5290,-7.5503,0.1798,-0.0003,0.0000,-0.7086,flat,18.0,0,15.961
3200,102.40,-4.2125,-7.7743,0.1799,0.0000,0.0001,-0.4342,rough,14.0,0,15.847
3210,102.72,-3.8228,-7.9346,0.1799,0.0000,-0.0001,-0.2306,flat,18.0,0,15.644
3220,103.04,-3.3490,-8.0261,0.1799,0.0000,-0.0000,-0.0121,flat,18.0,0,15.342
3230,103.36,-2.8259,-8.0116,0.1799,0.0001,-0.0000,0.1784,flat,18.0,0,14.941
3240,103.68,-2.2970,-7.8976,0.1799,0.0002,-0.0000,0.3200,flat,18.0,0,14.475
3250,104.00,-1.7799,-7.7099,0.1798,0.0004,-0.0000,0.4207,flat,18.0,0,13.972
3260,104.32,-1.2784,-7.4713,0.1798,0.0003,-0.0000,0.4956,flat,18.0,0,13.447
3270,104.64,-0.7917,-7.1955,0.1797,0.0002,-0.0000,0.5537,flat,18.0,0,12.909
3280,104.96,-0.3187,-6.8916,0.1797,0.0002,-0.0000,0.5998,flat,18.0,0,12.362
3290,105.28,0.1419,-6.5660,0.1797,0.0001,-0.0000,0.6361,flat,18.0,0,11.809
3300,105.60,0.5924,-6.2237,0.1797,0.0001,-0.0000,0.6670,flat,18.0,0,11.251
3310,105.92,1.0337,-5.8675,0.1797,0.0001,-0.0000,0.6935,flat,18.0,0,10.690
3320,106.24,1.4668,-5.4995,0.1797,0.0001,-0.0000,0.7168,flat,18.0,0,10.127
3330,106.56,1.8925,-5.1214,0.1797,0.0001,-0.0000,0.7378,flat,18.0,0,9.561
3340,106.88,2.3111,-4.7343,0.1797,0.0001,-0.0000,0.7568,flat,18.0,0,8.994
3350,107.20,2.7231,-4.3392,0.1797,0.0001,-0.0000,0.7737,flat,18.0,0,8.425
3360,107.52,3.1290,-3.9371,0.1797,0.0001,-0.0000,0.7888,flat,18.0,0,7.856
3370,107.84,3.5292,-3.5289,0.1797,0.0000,-0.0000,0.8027,flat,18.0,0,7.286
3380,108.16,3.9241,-3.1150,0.1797,0.0000,-0.0000,0.8157,flat,18.0,0,6.715
3390,108.48,4.3139,-2.6961,0.1797,0.0000,-0.0000,0.8278,flat,18.0,0,6.143
3400,108.80,4.6989,-2.2724,0.1797,0.0000,-0.0000,0.8391,flat,18.0,0,5.571
3410,109.12,5.0794,-1.8445,0.1797,0.0000,-0.0000,0.8497,flat,18.0,0,4.999
3420,109.44,5.4555,-1.4126,0.1797,0.0000,-0.0000,0.8597,flat,18.0,0,4.427
3430,109.76,5.8274,-0.9770,0.1797,0.0000,-0.0000,0.8696,flat,18.0,0,3.855
3440,110.08,6.1949,-0.5377,0.1797,0.0000,0.0000,0.8794,flat,18.0,0,3.282
3450,110.40,6.5581,-0.0949,0.1797,0.0000,0.0000,0.8895,flat,18.0,0,2.709
3460,110.72,6.9165,0.3515,0.1797,0.0000,0.0000,0.9004,flat,18.0,0,2.137
3470,111.04,7.2695,0.8016,0.1797,0.0000,0.0000,0.9128,flat,18.0,0,1.565
3480,111.36,7.6158,1.2557,0.1797,0.0001,0.0000,0.9288,flat,18.0,0,0.994
3490,111.68,7.9018,1.6672,0.1798,-0.0002,0.0000,1.0960,flat,18.0,1,5.300
3500,112.00,8.0787,2.0763,0.1799,0.0001,0.0001,1.3732,rough,14.0,1,5.113
3510,112.32,8.1444,2.4826,0.1799,0.0000,-0.0002,1.5662,flat,18.0,1,4.878
3520,112.64,8.1226,2.9904,0.1799,0.0001,-0.0000,1.8075,flat,18.0,1,4.536
3530,112.96,7.9763,3.4958,0.1799,0.0001,-0.0000,1.9915,flat,18.0,1,4.125
3540,113.28,7.7356,3.9742,0.1799,0.0001,-0.0000,2.1346,flat,18.0,1,3.672
3550,113.60,7.4258,4.4205,0.1798,0.0003,-0.0000,2.2442,flat,18.0,1,3.194
3560,113.92,7.0682,4.8333,0.1798,0.0004,-0.0000,2.3420,flat,18.0,1,2.707
3570,114.24,6.6708,5.2066,0.1798,0.0004,-0.0000,2.4480,flat,18.0,1,2.217
3580,114.56,6.2352,5.5371,0.1799,0.0003,-0.0000,2.5706,flat,18.0,1,1.728
3590,114.88,5.7642,5.8106,0.1799,0.0001,0.0000,2.7300,flat,18.0,1,1.245
3600,115.20,5.2688,6.0016,0.1799,0.0000,0.0000,2.9903,flat,18.0,2,0.790
3610,115.52,4.7319,6.0740,0.1799,0.0002,0.0000,3.0824,flat,18.0,2,12.525
3620,115.84,4.1709,6.0960,0.1798,0.0004,-0.0000,-3.1072,flat,18.0,2,12.000
3630,116.16,3.6078,6.0681,0.1798,0.0003,-0.0000,-3.0381,flat,18.0,2,11.460
3640,116.48,3.0460,6.0032,0.1797,0.0002,-0.0000,-2.9859,flat,18.0,2,10.911
3650,116.80,2.4869,5.9098,0.1797,0.0001,-0.0000,-2.9454,flat,18.0,2,10.355
3660,117.12,1.9311,5.7947,0.1797,0.0001,-0.0000,-2.9135,flat,18.0,2,9.795
3670,117.44,1.3780,5.6623,0.1797,0.0001,-0.0000,-2.8867,flat,18.0,2,9.233
3680,117.76,0.8277,5.5153,0.1797,0.0001,-0.0000,-2.8639,flat,18.0,2,8.668
3690,118.08,0.2799,5.3560,0.1797,0.0001,-0.0000,-2.8442,flat,18.0,2,8.102
3700,118.40,-0.2652,5.1860,0.1797,0.0001,-0.0000,-2.8270,flat,18.0,2,7.534
3710,118.72,-0.8080,5.0067,0.1797,0.0001,-0.0000,-2.8117,flat,18.0,2,6.965
3720,119.04,-1.3484,4.8193,0.1797,0.0000,-0.0000,-2.7981,flat,18.0,2,6.395
3730,119.36,-1.8867,4.6246,0.1797,0.0000,-0.0000,-2.7858,flat,18.0,2,5.825
3740,119.68,-2.4228,4.4233,0.1797,0.0000,-0.0000,-2.7746,flat,18.0,2,5.254
3750,120.00,-2.9568,4.2161,0.1797,0.0000,-0.0000,-2.7641,flat,18.0,2,4.683
3760,120.32,-3.4888,4.0032,0.1797,0.0000,-0.0000,-2.7542,flat,18.0,2,4.111
3770,120.64,-4.0188,3.7852,0.1797,0.0000,-0.0000,-2.7446,flat,18.0,2,3.540
3780,120.96,-4.5467,3.5620,0.1797,0.0000,-0.0000,-2.7351,flat,18.0,2,2.969
3790,121.28,-5.0723,3.3339,0.1797,0.0000,0.0000,-2.7253,flat,18.0,2,2.398
3800,121.60,-5.5953,3.1005,0.1797,0.0000,0.0000,-2.7146,flat,18.0,2,1.828
3810,121.92,-6.1150,2.8616,0.1797,0.0000,0.0000,-2.7016,flat,18.0,2,1.260
3820,122.24,-6.6266,2.6194,0.1797,0.0000,0.0002,-2.6656,flat,18.0,3,10.787
3830,122.56,-6.9906,2.3971,0.1799,-0.0001,-0.0000,-2.4178,flat,18.0,3,10.659
3840,122.88,-7.2745,2.0963,0.1799,-0.0000,-0.0001,-2.2074,flat,18.0,3,10.448
3850,123.20,-7.5416,1.6753,0.1799,0.0000,-0.0000,-1.9928,flat,18.0,3,10.129
3860,123.52,-7.7346,1.1840,0.1799,0.0000,-0.0000,-1.8020,flat,18.0,3,9.734
3870,123.84,-7.8412,0.6494,0.1799,0.0001,-0.0000,-1.6397,flat,18.0,3,9.278
3880,124.16,-7.8641,0.0950,0.1799,0.0003,-0.0000,-1.5095,flat,18.0,3,8.779
3890,124.48,-7.8186,-0.4615,0.1798,0.0004,-0.0000,-1.4156,flat,18.0,3,8.256
3900,124.80,-7.7229,-1.0143,0.1798,0.0003,-0.0000,-1.3444,flat,18.0,3,7.718
3910,125.12,-7.5890,-1.5612,0.1797,0.0002,-0.0000,-1.2881,flat,18.0,3,7.170
3920,125.44,-7.4250,-2.1017,0.1797,0.0002,-0.0000,-1.2420,flat,18.0,3,6.617
3930,125.76,-7.2368,-2.6347,0.1797,0.0001,-0.0000,-1.2054,flat,18.0,3,6.060
3940,126.08,-7.0292,-3.1616,0.1797,0.0001,-0.0000,-1.1732,flat,18.0,3,5.500
3950,126.40,-6.8048,-3.6824,0.1797,0.0001,-0.0000,-1.1443,flat,18.0,3,4.938
3960,126.72,-6.5655,-4.1973,0.1797,0.0001,-0.0000,-1.1179,flat,18.0,3,4.374
3970,127.04,-6.3125,-4.7060,0.1797,0.0001,-0.0000,-1.0930,flat,18.0,3,3.809
3980,127.36,-6.0470,-5.2085,0.1797,0.0001,-0.0000,-1.0689,flat,18.0,3,3.243
3990,127.68,-5.7694,-5.7043,0.1797,0.0001,0.0000,-1.0448,flat,18.0,3,2.677
4000,128.00,-5.4797,-6.1926,0.1797,0.0001,0.0000,-1.0191,flat,18.0,3,2.112
4010,128.32,-5.1777,-6.6717,0.1797,0.0001,0.0000,-0.9894,flat,18.0,3,1.547
4020,128.64,-4.8617,-7.1374,0.1797,0.0001,0.0000,-0.9492,flat,18.0,3,0.986
4030,128.96,-4.5792,-7.5073,0.1798,-0.0001,0.0002,-0.7644,flat,18.0,0,15.975
4040,129.28,-4.2673,-7.7468,0.1799,0.0000,0.0004,-0.4716,flat,18.0,0,15.873
4050,129.60,-3.8604,-7.9276,0.1799,-0.0000,-0.0000,-0.2259,flat,18.0,0,15.669
4060,129.92,-3.3688,-8.0176,0.1799,-0.0000,-0.0000,0.0145,flat,18.0,0,15.351
4070,130.24,-2.8426,-7.9911,0.1799,0.0001,-0.0000,0.1958,flat,18.0,0,14.940
4080,130.56,-2.3140,-7.8686,0.1799,0.0002,-0.0000,0.3302,flat,18.0,0,14.468
4090,130.88,-1.7979,-7.6758,0.1798,0.0004,-0.0000,0.4271,flat,18.0,0,13.961
4100,131.20,-1.2972,-7.4339,0.1798,0.0003,-0.0000,0.4996,flat,18.0,0,13.434
4110,131.52,-0.8111,-7.1562,0.1797,0.0002,-0.0000,0.5560,flat,18.0,0,12.895
4120,131.84,-0.3385,-6.8512,0.1797,0.0002,-0.0000,0.6006,flat,18.0,0,12.346
4130,132.16,0.1221,-6.5253,0.1797,0.0001,-0.0000,0.6361,flat,18.0,0,11.792
4140,132.48,0.5729,-6.1830,0.1797,0.0001,-0.0000,0.6663,flat,18.0,0,11.234
4150,132.80,1.0147,-5.8270,0.1797,0.0001,-0.0000,0.6924,flat,18.0,0,10.673
4160,133.12,1.4484,-5.4595,0.1797,0.0001,-0.0000,0.7152,flat,18.0,0,10.109
4170,133.44,1.8748,-5.0821,0.1797,0.0001,-0.0000,0.7358,flat,18.0,0,9.543
4180,133.76,2.2944,-4.6959,0.1797,0.0001,-0.0000,0.7544,flat,18.0,0,8.976
4190,134.08,2.7074,-4.3018,0.1797,0.0001,-0.0000,0.7710,flat,18.0,0,8.407
4200,134.40,3.1145,-3.9008,0.1797,0.0001,-0.0000,0.7860,flat,18.0,0,7.838
4210,134.72,3.5160,-3.4937,0.1797,0.0000,-0.0000,0.7996,flat,18.0,0,7.267
4220,135.04,3.9123,-3.0811,0.1797,0.0000,-0.0000,0.8123,flat,18.0,0,6.696
4230,135.36,4.3036,-2.6634,0.1797,0.0000,-0.0000,0.8242,flat,18.0,0,6.125
4240,135.68,4.6901,-2.2411,0.1797,0.0000,-0.0000,0.8354,flat,18.0,0,5.553
4250,136.00,5.0722,-1.8145,0.1797,0.0000,-0.0000,0.8459,flat,18.0,0,4.981
4260,136.32,5.4500,-1.3840,0.1797,0.0000,-0.0000,0.8558,flat,18.0,0,4.408
4270,136.64,5.8236,-0.9499,0.1797,0.0000,-0.0000,0.8655,flat,18.0,0,3.836
4280,136.96,6.1930,-0.5121,0.1797,0.0000,0.0000,0.8752,flat,18.0,0,3.263
4290,137.28,6.5580,-0.0708,0.1797,0.0000,0.0000,0.8852,flat,18.0,0,2.691
4300,137.60,6.9184,0.3741,0.1797,0.0000,0.0000,0.8959,flat,18.0,0,2.118
4310,137.92,7.2734,0.8226,0.1797,0.0000,0.0000,0.9083,flat,18.0,0,1.546
4320,138.24,7.6217,1.2751,0.1797,0.0001,0.0000,0.9243,flat,18.0,0,0.975
4330,138.56,7.9092,1.6846,0.1798,-0.0002,0.0000,1.0924,flat,18.0,1,5.291
4340,138.88,8.0847,2.0806,0.1799,0.0001,0.0001,1.3727,rough,14.0,1,5.114
4350,139.20,8.1496,2.4717,0.1799,-0.0000,-0.0003,1.5642,flat,18.0,1,4.889
4360,139.52,8.1297,2.9737,0.1799,0.0001,-0.0000,1.7969,flat,18.0,1,4.552
4370,139.84,7.9883,3.4798,0.1799,0.0001,-0.0000,1.9851,flat,18.0,1,4.144
4380,140.16,7.7507,3.9593,0.1799,0.0001,-0.0000,2.1301,flat,18.0,1,3.692
4390,140.48,7.4429,4.4066,0.1798,0.0003,-0.0000,2.2411,flat,18.0,1,3.215
4400,140.80,7.0867,4.8205,0.1798,0.0004,-0.0000,2.3389,flat,18.0,1,2.729
4410,141.12,6.6904,5.1949,0.1798,0.0004,-0.0000,2.4447,flat,18.0,1,2.239
4420,141.44,6.2559,5.5269,0.1799,0.0003,-0.0000,2.5666,flat,18.0,1,1.749
4430,141.76,5.7859,5.8025,0.1799,0.0001,0.0000,2.7238,flat,18.0,1,1.266
4440,142.08,5.2906,5.9968,0.1799,0.0000,0.0000,2.9768,flat,18.0,1,0.809
4450,142.40,4.7574,6.0660,0.1798,0.0001,-0.0000,3.0900,flat,18.0,2,12.547
4460,142.72,4.1959,6.0840,0.1798,0.0004,-0.0000,-3.1023,flat,18.0,2,12.020
4470,143.04,3.6327,6.0537,0.1798,0.0003,-0.0000,-3.0352,flat,18.0,2,11.479
4480,143.36,3.0709,5.9872,0.1797,0.0002,-0.0000,-2.9842,flat,18.0,2,10.928
4490,143.68,2.5118,5.8930,0.1797,0.0001,-0.0000,-2.9450,flat,18.0,2,10.372
4500,144.00,1.9559,5.7778,0.1797,0.0001,-0.0000,-2.9137,flat,18.0,2,9.812
4510,144.32,1.4026,5.6455,0.1797,0.0001,-0.0000,-2.8874,flat,18.0,2,9.249
4520,144.64,0.8520,5.4989,0.1797,0.0001,-0.0000,-2.8650,flat,18.0,2,8.684
4530,144.96,0.3040,5.3402,0.1797,0.0001,-0.0000,-2.8456,flat,18.0,2,8.118
4540,145.28,-0.2415,5.1710,0.1797,0.0001,-0.0000,-2.8287,flat,18.0,2,7.550
4550,145.60,-0.7846,4.9927,0.1797,0.0001,-0.0000,-2.8137,flat,18.0,2,6.980
4560,145.92,-1.3255,4.8063,0.1797,0.0000,-0.0000,-2.8003,flat,18.0,2,6.411
4570,146.24,-1.8643,4.6128,0.1797,0.0000,-0.0000,-2.7882,flat,18.0,2,5.840
4580,146.56,-2.4009,4.4128,0.1797,0.0000,-0.0000,-2.7771,flat,18.0,2,5.269
4590,146.88,-2.9356,4.2069,0.1797,0.0000,-0.0000,-2.7668,flat,18.0,2,4.698
4600,147.20,-3.4682,3.9956,0.1797,0.0000,-0.0000,-2.7571,flat,18.0,2,4.126
4610,147.52,-3.9989,3.7791,0.1797,0.0000,-0.0000,-2.7477,flat,18.0,2,3.555
4620,147.84,-4.5275,3.5576,0.1797,0.0000,-0.0000,-2.7384,flat,18.0,2,2.984
4630,148.16,-5.0540,3.3311,0.1797,0.0000,0.0000,-2.7288,flat,18.0,2,2.413
4640,148.48,-5.5779,3.0996,0.1797,0.0000,0.0000,-2.7183,flat,18.0,2,1.843
4650,148.80,-6.0985,2.8626,0.1797,0.0000,0.0000,-2.7056,flat,18.0,2,1.275
4660,149.12,-6.6114,2.6225,0.1797,0.0000,0.0002,-2.6702,flat,18.0,3,10.787
4670,149.44,-6.9764,2.4023,0.1799,-0.0001,-0.0000,-2.4225,flat,18.0,3,10.660
4680,149.76,-7.2542,2.1124,0.1799,0.0001,-0.0002,-2.2178,flat,18.0,3,10.457
4690,150.08,-7.5241,1.6952,0.1799,0.0000,-0.0000,-2.0026,flat,18.0,3,10.143
4700,150.40,-7.7211,1.2067,0.1799,0.0000,-0.0000,-1.8106,flat,18.0,3,9.750
4710,150.72,-7.8321,0.6735,0.1799,0.0001,-0.0000,-1.6471,flat,18.0,3,9.297
4720,151.04,-7.8589,0.1196,0.1799,0.0002,-0.0000,-1.5152,flat,18.0,3,8.800
4730,151.36,-7.8164,-0.4371,0.1798,0.0004,-0.0000,-1.4199,flat,18.0,3,8.277
4740,151.68,-7.7230,-0.9901,0.1798,0.0003,-0.0000,-1.3479,flat,18.0,3,7.739
4750,152.00,-7.5910,-1.5375,0.1797,0.0002,-0.0000,-1.2909,flat,18.0,3,7.192
4760,152.32,-7.4285,-2.0783,0.1797,0.0002,-0.0000,-1.2444,flat,18.0,3,6.639
4770,152.64,-7.2416,-2.6117,0.1797,0.0001,-0.0000,-1.2075,flat,18.0,3,6.082
4780,152.96,-7.0351,-3.1390,0.1797,0.0001,-0.0000,-1.1751,flat,18.0,3,5.522
4790,153.28,-6.8117,-3.6602,0.1797,0.0001,-0.0000,-1.1461,flat,18.0,3,4.960
4800,153.60,-6.5733,-4.1755,0.1797,0.0001,-0.0000,-1.1195,flat,18.0,3,4.397
4810,153.92,-6.3212,-4.6847,0.1797,0.0001,-0.0000,-1.0946,flat,18.0,3,3.832
4820,154.24,-6.0564,-5.1876,0.1797,0.0001,-0.0000,-1.0705,flat,18.0,3,3.266
4830,154.56,-5.7796,-5.6838,0.1797,0.0001,0.0000,-1.0463,flat,18.0,3,2.700
4840,154.88,-5.4907,-6.1726,0.1797,0.0001,0.0000,-1.0207,flat,18.0,3,2.134
4850,155.20,-5.1895,-6.6522,0.1797,0.0001,0.0000,-0.9913,flat,18.0,3,1.570
4860,155.52,-4.8744,-7.1188,0.1797,0.0001,0.0000,-0.9517,flat,18.0,3,1.008
4870,155.84,-4.5929,-7.4897,0.1798,-0.0001,0.0002,-0.7680,flat,18.0,0,15.976
4880,156.16,-4.2823,-7.7298,0.1799,0.0000,0.0004,-0.4752,rough,14.0,0,15.874
4890,156.48,-3.9093,-7.9012,0.1799,0.0000,-0.0001,-0.2562,flat,18.0,0,15.690
4900,156.80,-3.4243,-8.0043,0.1799,0.0000,-0.0000,-0.0123,flat,18.0,0,15.384
4910,157.12,-2.9002,-7.9910,0.1799,0.0001,-0.0000,0.1775,flat,18.0,0,14.982
4920,157.44,-2.3709,-7.8782,0.1799,0.0002,-0.0000,0.3168,flat,18.0,0,14.516
4930,157.76,-1.8530,-7.6923,0.1798,0.0004,-0.0000,0.4173,flat,18.0,0,14.012
4940,158.08,-1.3506,-7.4553,0.1798,0.0003,-0.0000,0.4920,flat,18.0,0,13.487
4950,158.40,-0.8628,-7.1814,0.1797,0.0002,-0.0000,0.5500,flat,18.0,0,12.949
4960,158.72,-0.3886,-6.8792,0.1797,0.0002,-0.0000,0.5959,flat,18.0,0,12.401
4970,159.04,0.0733,-6.5555,0.1797,0.0001,-0.0000,0.6321,flat,18.0,0,11.848
4980,159.36,0.5253,-6.2150,0.1797,0.0001,-0.0000,0.6629,flat,18.0,0,11.290
4990,159.68,0.9681,-5.8606,0.1797,0.0001,-0.0000,0.6893,flat,18.0,0,10.729
5000,160.00,1.4028,-5.4944,0.1797,0.0001,-0.0000,0.7125,flat,18.0,0,10.166
5010,160.32,1.8301,-5.1182,0.1797,0.0001,-0.0000,0.7333,flat,18.0,0,9.600
5020,160.64,2.2505,-4.7330,0.1797,0.0001,-0.0000,0.7522,flat,18.0,0,9.033
5030,160.96,2.6643,-4.3399,0.1797,0.0001,-0.0000,0.7690,flat,18.0,0,8.464
5040,161.28,3.0721,-3.9397,0.1797,0.0001,-0.0000,0.7841,flat,18.0,0,7.895
5050,161.60,3.4743,-3.5333,0.1797,0.0000,-0.0000,0.7979,flat,18.0,0,7.325
5060,161.92,3.8713,-3.1214,0.1797,0.0000,-0.0000,0.8107,flat,18.0,0,6.754
5070,162.24,4.2632,-2.7044,0.1797,0.0000,-0.0000,0.8227,flat,18.0,0,6.182
5080,162.56,4.6504,-2.2826,0.1797,0.0000,-0.0000,0.8340,flat,18.0,0,5.610
5090,162.88,5.0331,-1.8566,0.1797,0.0000,-0.0000,0.8445,flat,18.0,0,5.038
5100,163.20,5.4115,-1.4267,0.1797,0.0000,-0.0000,0.8545,flat,18.0,0,4.466
5110,163.52,5.7856,-0.9930,0.1797,0.0000,-0.0000,0.8643,flat,18.0,0,3.893
5120,163.84,6.1556,-0.5557,0.1797,0.0000,0.0000,0.8740,flat,18.0,0,3.321
5130,164.16,6.5211,-0.1148,0.1797,0.0000,0.0000,0.8839,flat,18.0,0,2.748
5140,164.48,6.8821,0.3296,0.1797,0.0000,0.0000,0.8945,flat,18.0,0,2.175
5150,164.80,7.2378,0.7776,0.1797,0.0000,0.0000,0.9067,flat,18.0,0,1.603
5160,165.12,7.5870,1.2296,0.1797,0.0001,0.0000,0.9222,flat,18.0,0,1.032
5170,165.44,7.8860,1.6473,0.1798,-0.0002,0.0002,1.0627,flat,18.0,1,5.305
5180,165.76,8.0737,2.0444,0.1799,0.0001,0.0002,1.3512,rough,14.0,1,5.132
5190,166.08,8.1476,2.4258,0.1799,0.0001,-0.0004,1.5512,flat,18.0,1,4.919
5200,166.40,8.1374,2.9223,0.1799,-0.0000,-0.0000,1.7757,flat,18.0,1,4.590
5210,166.72,8.0075,3.4299,0.1799,0.0000,-0.0000,1.9686,flat,18.0,1,4.187
5220,167.04,7.7781,3.9127,0.1799,0.0001,-0.0000,2.1170,flat,18.0,1,3.739
5230,167.36,7.4765,4.3629,0.1799,0.0003,-0.0000,2.2317,flat,18.0,1,3.264
5240,167.68,7.1244,4.7807,0.1798,0.0004,-0.0000,2.3288,flat,18.0,1,2.778
5250,168.00,6.7321,5.1591,0.1798,0.0004,-0.0000,2.4335,flat,18.0,1,2.289
5260,168.32,6.3013,5.4958,0.1799,0.0003,-0.0000,2.5532,flat,18.0,1,1.798
5270,168.64,5.8346,5.7779,0.1799,0.0001,0.0000,2.7054,flat,18.0,1,1.314
5280,168.96,5.3408,5.9821,0.1799,0.0000,0.0000,2.9426,flat,18.0,1,0.853
5290,169.28,4.8134,6.0611,0.1798,0.0001,0.0000,3.0792,flat,18.0,2,12.598
5300,169.60,4.2526,6.0847,0.1798,0.0004,-0.0000,-3.1103,flat,18.0,2,12.074
5310,169.92,3.6893,6.0587,0.1798,0.0003,-0.0000,-3.0411,flat,18.0,2,11.534
5320,170.24,3.1273,5.9954,0.1797,0.0002,-0.0000,-2.9889,flat,18.0,2,10.984
5330,170.56,2.5678,5.9037,0.1797,0.0001,-0.0000,-2.9484,flat,18.0,2,10.428
5340,170.88,2.0117,5.7903,0.1797,0.0001,-0.0000,-2.9166,flat,18.0,2,9.869
5350,171.20,1.4582,5.6596,0.1797,0.0001,-0.0000,-2.8898,flat,18.0,2,9.306
5360,171.52,0.9073,5.5144,0.1797,0.0001,-0.0000,-2.8671,flat,18.0,2,8.741
5370,171.84,0.3590,5.3568,0.1797,0.0001,-0.0000,-2.8474,flat,18.0,2,8.175
5380,172.16,-0.1867,5.1886,0.1797,0.0001,-0.0000,-2.8303,flat,18.0,2,7.607
5390,172.48,-0.7301,5.0111,0.1797,0.0001,-0.0000,-2.8151,flat,18.0,2,7.038
5400,172.80,-1.2712,4.8255,0.1797,0.0000,-0.0000,-2.8016,flat,18.0,2,6.468
5410,173.12,-1.8102,4.6327,0.1797,0.0000,-0.0000,-2.7894,flat,18.0,2,5.897
5420,173.44,-2.3470,4.4333,0.1797,0.0000,-0.0000,-2.7782,flat,18.0,2,5.327
5430,173.76,-2.8819,4.2280,0.1797,0.0000,-0.0000,-2.7678,flat,18.0,2,4.755
5440,174.08,-3.4147,4.0172,0.1797,0.0000,-0.0000,-2.7580,flat,18.0,2,4.184
5450,174.40,-3.9456,3.8011,0.1797,0.0000,-0.0000,-2.7486,flat,18.0,2,3.612
5460,174.72,-4.4744,3.5801,0.1797,0.0000,-0.0000,-2.7393,flat,18.0,2,3.041
5470,175.04,-5.0011,3.3542,0.1797,0.0000,0.0000,-2.7298,flat,18.0,2,2.470
5480,175.36,-5.5253,3.1232,0.1797,0.0000,0.0000,-2.7194,flat,18.0,2,1.900
5490,175.68,-6.0463,2.8868,0.1797,0.0000,0.0000,-2.7070,flat,18.0,2,1.332
5500,176.00,-6.5625,2.6440,0.1797,0.0001,0.0000,-2.6892,flat,18.0,3,0.769
5510,176.32,-6.9431,2.4291,0.1799,-0.0002,0.0000,-2.4482,flat,18.0,3,10.678
5520,176.64,-7.2244,2.1490,0.1799,0.0001,-0.0003,-2.2417,flat,18.0,3,10.484
5530,176.96,-7.4995,1.7408,0.1799,0.0001,-0.0000,-2.0241,flat,18.0,3,10.178
5540,177.28,-7.7046,1.2582,0.1799,0.0001,0.0000,-1.8303,flat,18.0,3,9.793
5550,177.60,-7.8243,0.7282,0.1799,0.0001,0.0000,-1.6636,flat,18.0,3,9.344
5560,177.92,-7.8595,0.1754,0.1799,0.0002,-0.0000,-1.5265,flat,18.0,3,8.851
5570,178.24,-7.8229,-0.3814,0.1798,0.0004,-0.0000,-1.4282,flat,18.0,3,8.330
5580,178.56,-7.7340,-0.9349,0.1798,0.0003,-0.0000,-1.3543,flat,18.0,3,7.794
5590,178.88,-7.6054,-1.4829,0.1797,0.0002,-0.0000,-1.2961,flat,18.0,3,7.247
5600,179.20,-7.4458,-2.0244,0.1797,0.0002,-0.0000,-1.2487,flat,18.0,3,6.695
5610,179.52,-7.2610,-2.5585,0.1797,0.0001,-0.0000,-1.2110,flat,18.0,3,6.138
5620,179.84,-7.0564,-3.0864,0.1797,0.0001,-0.0000,-1.1782,flat,18.0,3,5.578
5630,180.16,-6.8346,-3.6083,0.1797,0.0001,-0.0000,-1.1489,flat,18.0,3,5.017
5640,180.48,-6.5976,-4.1241,0.1797,0.0001,-0.0000,-1.1221,flat,18.0,3,4.453
5650,180.80,-6.3468,-4.6339,0.1797,0.0001,-0.0000,-1.0971,flat,18.0,3,3.888
5660,181.12,-6.0833,-5.1375,0.1797,0.0001,-0.0000,-1.0729,flat,18.0,3,3.323
5670,181.44,-5.8077,-5.6344,0.1797,0.0001,0.0000,-1.0488,flat,18.0,3,2.757
5680,181.76,-5.5201,-6.1240,0.1797,0.0001,0.0000,-1.0235,flat,18.0,3,2.191
5690,182.08,-5.2201,-6.6047,0.1797,0.0001,0.0000,-0.9946,flat,18.0,3,1.626
5700,182.40,-4.9065,-7.0729,0.1797,0.0001,0.0000,-0.9565,flat,18.0,3,1.064
5710,182.72,-4.6178,-7.4644,0.1798,0.0000,0.0004,-0.7993,flat,18.0,0,15.981
5720,183.04,-4.3131,-7.7105,0.1799,-0.0000,-0.0001,-0.5013,rough,14.0,0,15.886
5730,183.36,-3.9542,-7.8849,0.1799,0.0000,-0.0001,-0.2827,flat,18.0,0,15.714
5740,183.68,-3.4753,-7.9989,0.1799,0.0001,-0.0000,-0.0367,flat,18.0,0,15.420
5750,184.00,-2.9534,-7.9969,0.1799,0.0001,0.0000,0.1589,flat,18.0,0,15.026
5760,184.32,-2.4235,-7.8933,0.1799,0.0002,-0.0000,0.3047,flat,18.0,0,14.565
5770,184.64,-1.9041,-7.7135,0.1798,0.0004,-0.0000,0.4086,flat,18.0,0,14.064
5780,184.96,-1.4001,-7.4810,0.1798,0.0003,-0.0000,0.4854,flat,18.0,0,13.541
5790,185.28,-0.9110,-7.2102,0.1797,0.0002,-0.0000,0.5448,flat,18.0,0,13.003
5800,185.60,-0.4354,-6.9106,0.1797,0.0002,-0.0000,0.5919,flat,18.0,0,12.456
5810,185.92,0.0276,-6.5888,0.1797,0.0001,-0.0000,0.6288,flat,18.0,0,11.904
5820,186.24,0.4805,-6.2499,0.1797,0.0001,-0.0000,0.6600,flat,18.0,0,11.346
5830,186.56,0.9242,-5.8967,0.1797,0.0001,-0.0000,0.6869,flat,18.0,0,10.786
5840,186.88,1.3597,-5.5317,0.1797,0.0001,-0.0000,0.7103,flat,18.0,0,10.222
5850,187.20,1.7877,-5.1564,0.1797,0.0001,-0.0000,0.7313,flat,18.0,0,9.657
5860,187.52,2.2088,-4.7721,0.1797,0.0001,-0.0000,0.7504,flat,18.0,0,9.090
5870,187.84,2.6232,-4.3797,0.1797,0.0001,-0.0000,0.7674,flat,18.0,0,8.521
5880,188.16,3.0316,-3.9801,0.1797,0.0001,-0.0000,0.7827,flat,18.0,0,7.952
5890,188.48,3.4344,-3.5744,0.1797,0.0000,-0.0000,0.7966,flat,18.0,0,7.382
5900,188.80,3.8318,-3.1630,0.1797,0.0000,-0.0000,0.8095,flat,18.0,0,6.811
5910,189.12,4.2243,-2.7464,0.1797,0.0000,-0.0000,0.8216,flat,18.0,0,6.239
5920,189.44,4.6119,-2.3252,0.1797,0.0000,-0.0000,0.8329,flat,18.0,0,5.668
5930,189.76,4.9950,-1.8996,0.1797,0.0000,-0.0000,0.8435,flat,18.0,0,5.095
5940,190.08,5.3738,-1.4700,0.1797,0.0000,-0.0000,0.8536,flat,18.0,0,4.523
5950,190.40,5.7484,-1.0366,0.1797,0.0000,-0.0000,0.8633,flat,18.0,0,3.951
5960,190.72,6.1187,-0.5997,0.1797,0.0000,-0.0000,0.8730,flat,18.0,0,3.378
5970,191.04,6.4848,-0.1592,0.1797,0.0000,0.0000,0.8829,flat,18.0,0,2.805
5980,191.36,6.8462,0.2849,0.1797,0.0000,0.0000,0.8934,flat,18.0,0,2.233
5990,191.68,7.2025,0.7325,0.1797,0.0000,0.0000,0.9054,flat,18.0,0,1.661
6000,192.00,7.5524,1.1841,0.1797,0.0001,0.0000,0.9204,flat,18.0,0,1.089
6010,192.32,7.8629,1.6110,0.1798,-0.0000,0.0003,1.0301,flat,18.0,1,5.318
6020,192.64,8.0617,2.0090,0.1799,0.0001,0.0005,1.3279,rough,14.0,1,5.150
6030,192.96,8.1456,2.3811,0.1799,0.0001,-0.0000,1.5448,flat,18.0,1,4.947
6040,193.28,8.1437,2.8710,0.1799,0.0000,-0.0000,1.7533,flat,18.0,1,4.626
6050,193.60,8.0254,3.3798,0.1799,0.0001,-0.0000,1.9510,flat,18.0,1,4.230
6060,193.92,7.8046,3.8658,0.1799,0.0001,-0.0000,2.1037,flat,18.0,1,3.785
6070,194.24,7.5094,4.3191,0.1799,0.0003,-0.0000,2.2221,flat,18.0,1,3.313
6080,194.56,7.1614,4.7406,0.1798,0.0004,-0.0000,2.3188,flat,18.0,1,2.826
6090,194.88,6.7731,5.1229,0.1798,0.0004,-0.0000,2.4225,flat,18.0,1,2.338
6100,195.20,6.3461,5.4642,0.1799,0.0003,-0.0000,2.5402,flat,18.0,1,1.847
6110,195.52,5.8827,5.7527,0.1799,0.0001,0.0000,2.6878,flat,18.0,1,1.362
6120,195.84,5.3907,5.9661,0.1799,0.0000,0.0000,2.9112,flat,18.0,1,0.897
6130,196.16,4.8689,6.0556,0.1799,0.0000,0.0000,3.0687,flat,18.0,2,12.650
6140,196.48,4.3089,6.0849,0.1798,0.0004,-0.0000,-3.1185,flat,18.0,2,12.127
6150,196.80,3.7456,6.0631,0.1798,0.0003,-0.0000,-3.0472,flat,18.0,2,11.588
6160,197.12,3.1834,6.0032,0.1797,0.0002,-0.0000,-2.9936,flat,18.0,2,11.039
6170,197.44,2.6236,5.9140,0.1797,0.0002,-0.0000,-2.9520,flat,18.0,2,10.484
6180,197.76,2.0672,5.8026,0.1797,0.0001,-0.0000,-2.9195,flat,18.0,2,9.925
6190,198.08,1.5134,5.6735,0.1797,0.0001,-0.0000,-2.8923,flat,18.0,2,9.363
6200,198.40,0.9623,5.5296,0.1797,0.0001,-0.0000,-2.8692,flat,18.0,2,8.798
6210,198.72,0.4138,5.3731,0.1797,0.0001,-0.0000,-2.8493,flat,18.0,2,8.231
6220,199.04,-0.1322,5.2059,0.1797,0.0001,-0.0000,-2.8319,flat,18.0,2,7.664
6230,199.36,-0.6759,5.0293,0.1797,0.0001,-0.0000,-2.8165,flat,18.0,2,7.095
6240,199.68,-1.2172,4.8445,0.1797,0.0000,-0.0000,-2.8029,flat,18.0,2,6.525
6250,200.00,-1.7563,4.6524,0.1797,0.0000,-0.0000,-2.7905,flat,18.0,2,5.955
6260,200.32,-2.2934,4.4536,0.1797,0.0000,-0.0000,-2.7793,flat,18.0,2,5.384
6270,200.64,-2.8284,4.2489,0.1797,0.0000,-0.0000,-2.7688,flat,18.0,2,4.813
6280,200.96,-3.3615,4.0386,0.1797,0.0000,-0.0000,-2.7590,flat,18.0,2,4.241
6290,201.28,-3.8926,3.8230,0.1797,0.0000,-0.0000,-2.7495,flat,18.0,2,3.670
6300,201.60,-4.4216,3.6025,0.1797,0.0000,-0.0000,-2.7402,flat,18.0,2,3.098
6310,201.92,-4.9485,3.3771,0.1797,0.0000,0.0000,-2.7307,flat,18.0,2,2.527
6320,202.24,-5.4729,3.1466,0.1797,0.0000,0.0000,-2.7205,flat,18.0,2,1.957
6330,202.56,-5.9943,2.9108,0.1797,0.0000,0.0000,-2.7084,flat,18.0,2,1.388
6340,202.88,-6.5112,2.6687,0.1797,0.0001,0.0000,-2.6914,flat,18.0,2,0.825
6350,203.20,-6.9095,2.4543,0.1799,-0.0002,0.0000,-2.4752,flat,18.0,3,10.694
6360,203.52,-7.1949,2.1844,0.1799,0.0001,-0.0003,-2.2594,flat,18.0,3,10.509
6370,203.84,-7.4748,1.7854,0.1799,0.0000,-0.0000,-2.0441,flat,18.0,3,10.212
6380,204.16,-7.6880,1.3090,0.1799,0.0000,-0.0000,-1.8469,flat,18.0,3,9.834
6390,204.48,-7.8165,0.7826,0.1799,0.0001,-0.0000,-1.6774,flat,18.0,3,9.392
6400,204.80,-7.8595,0.2311,0.1799,0.0002,-0.0000,-1.5384,flat,18.0,3,8.902
6410,205.12,-7.8291,-0.3258,0.1798,0.0004,-0.0000,-1.4367,flat,18.0,3,8.383
6420,205.44,-7.7447,-0.8798,0.1798,0.0003,-0.0000,-1.3609,flat,18.0,3,7.848
6430,205.76,-7.6197,-1.4283,0.1797,0.0002,-0.0000,-1.3014,flat,18.0,3,7.302
6440,206.08,-7.4629,-1.9705,0.1797,0.0002,-0.0000,-1.2530,flat,18.0,3,6.750
6450,206.40,-7.2803,-2.5054,0.1797,0.0001,-0.0000,-1.2144,flat,18.0,3,6.194
6460,206.72,-7.0776,-3.0339,0.1797,0.0001,-0.0000,-1.1813,flat,18.0,3,5.635
6470,207.04,-6.8574,-3.5563,0.1797,0.0001,-0.0000,-1.1517,flat,18.0,3,5.073
6480,207.36,-6.6218,-4.0728,0.1797,0.0001,-0.0000,-1.1247,flat,18.0,3,4.509
6490,207.68,-6.3724,-4.5832,0.1797,0.0001,-0.0000,-1.0995,flat,18.0,3,3.945
6500,208.00,-6.1102,-5.0874,0.1797,0.0001,-0.0000,-1.0753,flat,18.0,3,3.379
6510,208.32,-5.8357,-5.5850,0.1797,0.0001,0.0000,-1.0513,flat,18.0,3,2.813
6520,208.64,-5.5493,-6.0754,0.1797,0.0001,0.0000,-1.0261,flat,18.0,3,2.247
6530,208.96,-5.2506,-6.5571,0.1797,0.0001,0.0000,-0.9978,flat,18.0,3,1.682
6540,209.28,-4.9385,-7.0268,0.1797,0.0001,0.0000,-0.9611,flat,18.0,3,1.120
6550,209.60,-4.6411,-7.4388,0.1798,0.0000,0.0005,-0.8292,flat,18.0,0,15.984
6560,209.92,-4.3490,-7.6872,0.1799,-0.0001,-0.0001,-0.5302,flat,18.0,0,15.901
6570,210.24,-3.9976,-7.8678,0.1799,0.0000,-0.0001,-0.3090,flat,18.0,0,15.737
6580,210.56,-3.5256,-7.9929,0.1799,0.0000,-0.0000,-0.0583,flat,18.0,0,15.454
6590,210.88,-3.0061,-8.0024,0.1799,0.0001,-0.0000,0.1440,flat,18.0,0,15.069
6600,211.20,-2.4762,-7.9076,0.1799,0.0002,-0.0000,0.2922,flat,18.0,0,14.613
6610,211.52,-1.9553,-7.7342,0.1798,0.0004,-0.0000,0.3996,flat,18.0,0,14.115
6620,211.84,-1.4498,-7.5061,0.1798,0.0003,-0.0000,0.4786,flat,18.0,0,13.594
6630,212.16,-0.9592,-7.2387,0.1797,0.0002,-0.0000,0.5395,flat,18.0,0,13.057
6640,212.48,-0.4823,-6.9417,0.1797,0.0002,-0.0000,0.5879,flat,18.0,0,12.511
6650,212.80,-0.0182,-6.6218,0.1797,0.0001,-0.0000,0.6254,flat,18.0,0,11.959
6660,213.12,0.4356,-6.2844,0.1797,0.0001,-0.0000,0.6571,flat,18.0,0,11.402
6670,213.44,0.8803,-5.9326,0.1797,0.0001,-0.0000,0.6844,flat,18.0,0,10.842
6680,213.76,1.3165,-5.5686,0.1797,0.0001,-0.0000,0.7080,flat,18.0,0,10.279
6690,214.08,1.7452,-5.1943,0.1797,0.0001,-0.0000,0.7293,flat,18.0,0,9.713
6700,214.40,2.1670,-4.8108,0.1797,0.0001,-0.0000,0.7485,flat,18.0,0,9.147
6710,214.72,2.5821,-4.4191,0.1797,0.0001,-0.0000,0.7658,flat,18.0,0,8.578
6720,215.04,2.9910,-4.0203,0.1797,0.0001,-0.0000,0.7812,flat,18.0,0,8.009
6730,215.36,3.3943,-3.6151,0.1797,0.0000,-0.0000,0.7952,flat,18.0,0,7.439
6740,215.68,3.7923,-3.2043,0.1797,0.0000,-0.0000,0.8082,flat,18.0,0,6.868
6750,216.00,4.1853,-2.7882,0.1797,0.0000,-0.0000,0.8204,flat,18.0,0,6.296
6760,216.32,4.5734,-2.3674,0.1797,0.0000,-0.0000,0.8318,flat,18.0,0,5.725
6770,216.64,4.9569,-1.9422,0.1797,0.0000,-0.0000,0.8424,flat,18.0,0,5.153
6780,216.96,5.3361,-1.5130,0.1797,0.0000,-0.0000,0.8526,flat,18.0,0,4.580
6790,217.28,5.7111,-1.0800,0.1797,0.0000,-0.0000,0.8623,flat,18.0,0,4.008
6800,217.60,6.0819,-0.6435,0.1797,0.0000,-0.0000,0.8720,flat,18.0,0,3.435
6810,217.92,6.4484,-0.2033,0.1797,0.0000,0.0000,0.8819,flat,18.0,0,2.862
6820,218.24,6.8103,0.2404,0.1797,0.0000,0.0000,0.8923,flat,18.0,0,2.290
6830,218.56,7.1671,0.6877,0.1797,0.0000,0.0000,0.9041,flat,18.0,0,1.718
6840,218.88,7.5178,1.1389,0.1797,0.0001,0.0000,0.9187,flat,18.0,0,1.146
6850,219.20,7.8397,1.5751,0.1797,0.0001,0.0004,1.0010,flat,18.0,1,5.332
6860,219.52,8.0491,1.9729,0.1799,-0.0001,-0.0001,1.3056,rough,14.0,1,5.167
6870,219.84,8.1408,2.3425,0.1799,0.0001,-0.0000,1.5237,rough,14.0,1,4.970
6880,220.16,8.1487,2.8199,0.1799,-0.0000,-0.0000,1.7308,flat,18.0,1,4.662
6890,220.48,8.0425,3.3297,0.1799,0.0000,-0.0000,1.9340,flat,18.0,1,4.272
6900,220.80,7.8304,3.8187,0.1799,0.0001,-0.0000,2.0901,flat,18.0,1,3.831
6910,221.12,7.5418,4.2752,0.1799,0.0003,-0.0000,2.2120,flat,18.0,1,3.361
6920,221.44,7.1981,4.7002,0.1798,0.0004,-0.0000,2.3089,flat,18.0,1,2.875
6930,221.76,6.8137,5.0865,0.1798,0.0004,-0.0000,2.4117,flat,18.0,1,2.387
6940,222.08,6.3905,5.4323,0.1798,0.0004,-0.0000,2.5274,flat,18.0,1,1.896
6950,222.40,5.9306,5.7268,0.1799,0.0001,0.0000,2.6708,flat,18.0,1,1.410
6960,222.72,5.4407,5.9491,0.1799,0.0000,0.0000,2.8822,flat,18.0,1,0.942
6970,223.04,4.9240,6.0495,0.1799,0.0000,0.0000,3.0581,flat,18.0,2,12.700
6980,223.36,4.3651,6.0845,0.1798,0.0004,-0.0000,-3.1269,flat,18.0,2,12.180
6990,223.68,3.8019,6.0672,0.1798,0.0003,-0.0000,-3.0534,flat,18.0,2,11.643
7000,224.00,3.2396,6.0106,0.1797,0.0002,-0.0000,-2.9984,flat,18.0,2,11.095
7010,224.32,2.6794,5.9240,0.1797,0.0002,-0.0000,-2.9556,flat,18.0,2,10.540
7020,224.64,2.1227,5.8146,0.1797,0.0001,-0.0000,-2.9225,flat,18.0,2,9.981
7030,224.96,1.5687,5.6871,0.1797,0.0001,-0.0000,-2.8948,flat,18.0,2,9.419
7040,225.28,1.0173,5.5446,0.1797,0.0001,-0.0000,-2.8714,flat,18.0,2,8.854
7050,225.60,0.4685,5.3893,0.1797,0.0001,-0.0000,-2.8511,flat,18.0,2,8.288
7060,225.92,-0.0778,5.2231,0.1797,0.0001,-0.0000,-2.8335,flat,18.0,2,7.720
7070,226.24,-0.6216,5.0474,0.1797,0.0001,-0.0000,-2.8180,flat,18.0,2,7.152
7080,226.56,-1.1632,4.8634,0.1797,0.0000,-0.0000,-2.8042,flat,18.0,2,6.582
7090,226.88,-1.7025,4.6719,0.1797,0.0000,-0.0000,-2.7917,flat,18.0,2,6.012
7100,227.20,-2.2398,4.4738,0.1797,0.0000,-0.0000,-2.7804,flat,18.0,2,5.441
7110,227.52,-2.7750,4.2696,0.1797,0.0000,-0.0000,-2.7698,flat,18.0,2,4.870
7120,227.84,-3.3083,4.0599,0.1797,0.0000,-0.0000,-2.7600,flat,18.0,2,4.298
7130,228.16,-3.8395,3.8448,0.1797,0.0000,-0.0000,-2.7505,flat,18.0,2,3.727
7140,228.48,-4.3688,3.6248,0.1797,0.0000,-0.0000,-2.7412,flat,18.0,2,3.155
7150,228.80,-4.8959,3.3999,0.1797,0.0000,0.0000,-2.7317,flat,18.0,2,2.584
7160,229.12,-5.4206,3.1699,0.1797,0.0000,0.0000,-2.7215,flat,18.0,2,2.014
7170,229.44,-5.9424,2.9346,0.1797,0.0000,0.0000,-2.7097,flat,18.0,2,1.445
7180,229.76,-6.4598,2.6932,0.1797,0.0001,0.0000,-2.6936,flat,18.0,2,0.881
7190,230.08,-6.8751,2.4786,0.1799,-0.0003,0.0000,-2.5015,flat,18.0,3,10.709
7200,230.40,-7.1665,2.2160,0.1799,0.0001,0.0001,-2.2851,flat,18.0,3,10.532
7210,230.72,-7.4492,1.8293,0.1799,0.0001,-0.0000,-2.0658,flat,18.0,3,10.246
7220,231.04,-7.6701,1.3594,0.1799,0.0001,0.0000,-1.8670,flat,18.0,3,9.875
7230,231.36,-7.8073,0.8368,0.1799,0.0001,0.0000,-1.6948,flat,18.0,3,9.438
7240,231.68,-7.8588,0.2868,0.1799,0.0001,-0.0000,-1.5506,flat,18.0,3,8.952
7250,232.00,-7.8348,-0.2701,0.1798,0.0004,-0.0000,-1.4455,flat,18.0,3,8.436
7260,232.32,-7.7552,-0.8246,0.1798,0.0003,-0.0000,-1.3676,flat,18.0,3,7.902
7270,232.64,-7.6338,-1.3737,0.1797,0.0002,-0.0000,-1.3068,flat,18.0,3,7.357
7280,232.96,-7.4798,-1.9166,0.1797,0.0002,-0.0000,-1.2575,flat,18.0,3,6.806
7290,233.28,-7.2996,-2.4522,0.1797,0.0001,-0.0000,-1.2180,flat,18.0,3,6.250
7300,233.60,-7.0987,-2.9813,0.1797,0.0001,-0.0000,-1.1844,flat,18.0,3,5.691
7310,233.92,-6.8801,-3.5044,0.1797,0.0001,-0.0000,-1.1545,flat,18.0,3,5.129
7320,234.24,-6.6461,-4.0214,0.1797,0.0001,-0.0000,-1.1273,flat,18.0,3,4.566
7330,234.56,-6.3980,-4.5324,0.1797,0.0001,-0.0000,-1.1020,flat,18.0,3,4.001
7340,234.88,-6.1370,-5.0373,0.1797,0.0001,-0.0000,-1.0777,flat,18.0,3,3.436
7350,235.20,-5.8637,-5.5356,0.1797,0.0001,-0.0000,-1.0537,flat,18.0,3,2.870
7360,235.52,-5.5785,-6.0267,0.1797,0.0001,0.0000,-1.0287,flat,18.0,3,2.304
7370,235.84,-5.2811,-6.5094,0.1797,0.0001,0.0000,-1.0008,flat,18.0,3,1.739
7380,236.16,-4.9704,-6.9806,0.1797,0.0001,0.0000,-0.9655,flat,18.0,3,1.176
7390,236.48,-4.6635,-7.4103,0.1798,0.0001,0.0005,-0.8629,flat,18.0,0,15.985
7400,236.80,-4.3837,-7.6634,0.1799,-0.0001,-0.0000,-0.5594,flat,18.0,0,15.914
7410,237.12,-4.0394,-7.8504,0.1799,0.0000,-0.0001,-0.3335,flat,18.0,0,15.759
7420,237.44,-3.5757,-7.9853,0.1799,0.0001,-0.0000,-0.0827,flat,18.0,0,15.487
7430,237.76,-3.0593,-8.0061,0.1799,0.0001,0.0000,0.1243,flat,18.0,0,15.111
7440,238.08,-2.5291,-7.9210,0.1799,0.0001,-0.0000,0.2790,flat,18.0,0,14.661
7450,238.40,-2.0068,-7.7543,0.1798,0.0004,-0.0000,0.3904,flat,18.0,0,14.166
7460,238.72,-1.4997,-7.5309,0.1798,0.0004,-0.0000,0.4716,flat,18.0,0,13.647
7470,239.04,-1.0077,-7.2669,0.1797,0.0002,-0.0000,0.5340,flat,18.0,0,13.112
7480,239.36,-0.5294,-6.9726,0.1797,0.0002,-0.0000,0.5835,flat,18.0,0,12.566
7490,239.68,-0.0641,-6.6546,0.1797,0.0001,-0.0000,0.6219,flat,18.0,0,12.015
7500,240.00,0.3907,-6.3189,0.1797,0.0001,-0.0000,0.6542,flat,18.0,0,11.458
7510,240.32,0.8362,-5.9683,0.1797,0.0001,-0.0000,0.6818,flat,18.0,0,10.898
7520,240.64,1.2732,-5.6055,0.1797,0.0001,-0.0000,0.7058,flat,18.0,0,10.335
7530,240.96,1.7026,-5.2321,0.1797,0.0001,-0.0000,0.7272,flat,18.0,0,9.770
7540,241.28,2.1251,-4.8495,0.1797,0.0001,-0.0000,0.7467,flat,18.0,0,9.203
7550,241.60,2.5408,-4.4587,0.1797,0.0001,-0.0000,0.7642,flat,18.0,0,8.635
7560,241.92,2.9504,-4.0605,0.1797,0.0001,-0.0000,0.7798,flat,18.0,0,8.066
7570,242.24,3.3542,-3.6559,0.1797,0.0001,-0.0000,0.7939,flat,18.0,0,7.496
7580,242.56,3.7527,-3.2456,0.1797,0.0000,-0.0000,0.8070,flat,18.0,0,6.925
7590,242.88,4.1461,-2.8301,0.1797,0.0000,-0.0000,0.8192,flat,18.0,0,6.354
7600,243.20,4.5347,-2.4097,0.1797,0.0000,-0.0000,0.8307,flat,18.0,0,5.782
7610,243.52,4.9187,-1.9849,0.1797,0.0000,-0.0000,0.8414,flat,18.0,0,5.210
7620,243.84,5.2984,-1.5561,0.1797,0.0000,-0.0000,0.8516,flat,18.0,0,4.637
7630,244.16,5.6738,-1.1235,0.1797,0.0000,-0.0000,0.8614,flat,18.0,0,4.065
7640,244.48,6.0450,-0.6873,0.1797,0.0000,-0.0000,0.8710,flat,18.0,0,3.492
7650,244.80,6.4119,-0.2475,0.1797,0.0000,0.0000,0.8809,flat,18.0,0,2.920
7660,245.12,6.7743,0.1958,0.1797,0.0000,0.0000,0.8912,flat,18.0,0,2.347
7670,245.44,7.1317,0.6428,0.1797,0.0000,0.0000,0.9028,flat,18.0,0,1.775
7680,245.76,7.4830,1.0936,0.1797,0.0000,0.0000,0.9170,flat,18.0,0,1.203
7690,246.08,7.8164,1.5385,0.1797,0.0001,0.0003,0.9723,flat,18.0,1,5.346
7700,246.40,8.0316,1.9288,0.1799,0.0001,-0.0000,1.2737,flat,18.0,1,5.188
7710,246.72,8.1351,2.3041,0.1799,0.0001,-0.0000,1.5024,rough,14.0,1,4.992
7720,247.04,8.1524,2.7687,0.1799,0.0000,-0.0000,1.7074,flat,18.0,1,4.697
7730,247.36,8.0583,3.2792,0.1799,0.0001,-0.0000,1.9151,flat,18.0,1,4.314
7740,247.68,7.8555,3.7712,0.1799,0.0001,-0.0000,2.0762,flat,18.0,1,3.877
7750,248.00,7.5735,4.2309,0.1799,0.0003,-0.0000,2.2015,flat,18.0,1,3.409
7760,248.32,7.2343,4.6593,0.1798,0.0004,-0.0000,2.2990,flat,18.0,1,2.924
7770,248.64,6.8539,5.0496,0.1798,0.0004,-0.0000,2.4010,flat,18.0,1,2.436
7780,248.96,6.4344,5.3997,0.1798,0.0004,-0.0000,2.5150,flat,18.0,1,1.945
7790,249.28,5.9781,5.7001,0.1799,0.0001,0.0000,2.6545,flat,18.0,1,1.458
7800,249.60,5.4905,5.9310,0.1799,0.0000,0.0000,2.8553,flat,18.0,1,0.987
7810,249.92,4.9792,6.0431,0.1799,0.0000,0.0000,3.0481,flat,18.0,2,12.751
7820,250.24,4.4213,6.0835,0.1798,0.0004,-0.0000,-3.1356,flat,18.0,2,12.233
7830,250.56,3.8583,6.0709,0.1798,0.0003,-0.0000,-3.0598,flat,18.0,2,11.697
7840,250.88,3.2957,6.0177,0.1797,0.0002,-0.0000,-3.0033,flat,18.0,2,11.150
7850,251.20,2.7352,5.9338,0.1797,0.0002,-0.0000,-2.9592,flat,18.0,2,10.595
7860,251.52,2.1783,5.8264,0.1797,0.0001,-0.0000,-2.9255,flat,18.0,2,10.037
7870,251.84,1.6239,5.7005,0.1797,0.0001,-0.0000,-2.8974,flat,18.0,2,9.475
7880,252.16,1.0723,5.5594,0.1797,0.0001,-0.0000,-2.8735,flat,18.0,2,8.911
7890,252.48,0.5232,5.4053,0.1797,0.0001,-0.0000,-2.8530,flat,18.0,2,8.345
7900,252.80,-0.0233,5.2401,0.1797,0.0001,-0.0000,-2.8352,flat,18.0,2,7.777
7910,253.12,-0.5673,5.0653,0.1797,0.0001,-0.0000,-2.8195,flat,18.0,2,7.209
7920,253.44,-1.1091,4.8821,0.1797,0.0001,-0.0000,-2.8055,flat,18.0,2,6.639
7930,253.76,-1.6487,4.6913,0.1797,0.0000,-0.0000,-2.7929,flat,18.0,2,6.069
7940,254.08,-2.1862,4.4939,0.1797,0.0000,-0.0000,-2.7814,flat,18.0,2,5.498
7950,254.40,-2.7216,4.2903,0.1797,0.0000,-0.0000,-2.7709,flat,18.0,2,4.927
7960,254.72,-3.2551,4.0810,0.1797,0.0000,-0.0000,-2.7609,flat,18.0,2,4.355
7970,255.04,-3.7865,3.8665,0.1797,0.0000,-0.0000,-2.7514,flat,18.0,2,3.784
7980,255.36,-4.3160,3.6470,0.1797,0.0000,-0.0000,-2.7421,flat,18.0,2,3.212
7990,255.68,-4.8433,3.4225,0.1797,0.0000,0.0000,-2.7327,flat,18.0,2,2.641
8000,256.00,-5.3683,3.1931,0.1797,0.0000,0.0000,-2.7226,flat,18.0,2,2.071
8010,256.32,-5.8904,2.9584,0.1797,0.0000,0.0000,-2.7110,flat,18.0,2,1.502
8020,256.64,-6.4084,2.7176,0.1797,0.0001,0.0000,-2.6956,flat,18.0,2,0.937
8030,256.96,-6.8400,2.5018,0.1798,-0.0003,0.0000,-2.5273,flat,18.0,3,10.723
8040,257.28,-7.1424,2.2426,0.1799,0.0001,0.0001,-2.3019,rough,14.0,3,10.551
8050,257.60,-7.4231,1.8723,0.1799,-0.0000,-0.0000,-2.0865,flat,18.0,3,10.279
8060,257.92,-7.6519,1.4091,0.1799,0.0000,-0.0000,-1.8842,flat,18.0,3,9.916
8070,258.24,-7.7978,0.8906,0.1799,0.0001,-0.0000,-1.7088,flat,18.0,3,9.484
8080,258.56,-7.8574,0.3424,0.1799,0.0001,-0.0000,-1.5633,flat,18.0,3,9.002
8090,258.88,-7.8401,-0.2145,0.1798,0.0004,-0.0000,-1.4546,flat,18.0,3,8.488
