step,time_s,x,y,z,roll,pitch,yaw,terrain,speed,target_idx,dist_to_target
10,0.32,0.9790,-0.8055,0.1828,0.1577,-0.1572,0.1507,rough,14.0,0,5.732
20,0.64,1.3229,-0.7790,0.1747,0.1506,0.0088,0.0062,rough,14.0,0,5.493
30,0.96,1.7257,-0.8278,0.1670,0.1231,0.0283,-0.1512,rough,14.0,0,5.170
40,1.28,2.1360,-0.9325,0.1511,0.1563,0.0609,-0.2526,rough,14.0,0,4.813
50,1.60,2.5385,-1.0795,0.1345,0.2896,0.1028,-0.3092,rough,14.0,0,4.440
60,1.92,2.9355,-1.2359,0.0684,0.2599,0.1678,-0.4060,rough,14.0,0,4.073
70,2.24,3.3052,-1.4450,-0.0078,0.2999,0.1950,-0.4773,rough,14.0,0,3.690
80,2.56,3.6565,-1.5463,-0.0778,-0.0122,0.0898,-0.6459,rough,14.0,0,3.420
90,2.88,3.9886,-1.7960,-0.1279,-0.0789,0.1564,-0.7081,rough,14.0,0,3.043
100,3.20,4.2665,-2.0539,-0.1688,-0.1248,-0.0361,-0.7934,rough,14.0,0,2.692
110,3.52,4.5954,-2.4253,-0.2313,-0.1129,0.3199,-0.9134,rough,14.0,0,2.225
120,3.84,4.8144,-2.7218,-0.2816,-0.0530,-0.0069,-0.9329,rough,14.0,0,1.875
130,4.16,4.9957,-3.0646,-0.2954,0.1977,-0.1873,-1.0275,rough,14.0,0,1.497
140,4.48,5.1808,-3.4366,-0.2206,0.2721,-0.1768,-1.0961,rough,14.0,0,1.096
150,4.80,5.3410,-3.8329,-0.1823,0.3787,0.0223,-1.0821,rough,14.0,1,12.138
160,5.12,5.3830,-4.0199,-0.1905,0.3004,-0.1676,-0.4647,rough,14.0,1,12.328
170,5.44,5.5223,-4.1228,-0.1846,0.3594,-0.1528,-0.2449,rough,14.0,1,12.474
180,5.76,5.7229,-4.1904,-0.1719,0.2511,-0.1920,0.0877,rough,14.0,1,12.610
190,6.08,5.9458,-4.1948,-0.1297,0.2068,-0.2594,0.4695,rough,14.0,1,12.699
200,6.40,6.1714,-4.0297,-0.0932,0.0853,-0.1153,0.7451,rough,14.0,1,12.638
210,6.72,6.4393,-3.7954,-0.1082,0.2374,0.1359,0.9474,rough,14.0,1,12.538
220,7.04,6.6258,-3.5473,-0.1015,0.2306,-0.1069,1.0791,rough,14.0,1,12.398
230,7.36,6.7032,-3.2933,-0.0240,0.1180,-0.5274,1.2082,rough,14.0,1,12.207
240,7.68,6.7486,-2.9621,0.1264,-0.1052,-0.5025,1.3951,rough,14.0,1,11.937
250,8.00,6.7439,-2.5833,0.2005,-0.3747,-0.2855,1.4833,rough,14.0,1,11.604
260,8.32,6.7333,-2.1930,0.2403,-0.4419,-0.0024,1.4968,rough,14.0,1,11.260
270,8.64,6.6858,-1.7495,0.1664,-0.5380,0.1687,1.5177,rough,14.0,1,10.856
280,8.96,6.6956,-1.3119,0.0437,-0.3545,0.3936,1.5611,rough,14.0,1,10.490
290,9.28,6.7097,-0.9001,-0.0976,-0.1611,0.4255,1.6424,rough,14.0,1,10.154
300,9.60,6.6801,-0.5128,-0.2155,-0.0063,0.2718,1.7247,rough,14.0,1,9.819
310,9.92,6.6082,-0.1210,-0.3031,0.0904,0.1496,1.8085,rough,14.0,1,9.459
320,10.24,6.4884,0.3100,-0.3890,0.1045,0.2658,1.8841,rough,14.0,1,9.042
330,10.56,6.3315,0.6901,-0.5158,0.0039,0.3415,1.8563,rough,14.0,1,8.645
340,10.88,6.1649,0.8552,-0.5956,-0.2367,0.3519,1.4912,rough,14.0,1,8.412
350,11.20,6.1981,1.1747,-0.6859,0.0046,0.3371,1.4994,rough,14.0,1,8.183
360,11.52,6.2877,1.5366,-0.8401,0.3100,0.4755,1.6063,rough,14.0,1,7.965
370,11.84,6.3122,1.9407,-1.0024,0.5323,0.2991,1.7729,rough,14.0,1,7.683
380,12.16,6.2790,2.3091,-1.0903,0.6118,0.1238,1.8138,rough,14.0,1,7.397
390,12.48,6.2289,2.6837,-1.1254,0.6075,-0.0305,1.8503,rough,14.0,1,7.102
400,12.80,6.0663,3.0559,-1.1275,0.3264,-0.0432,1.9410,rough,14.0,1,6.732
410,13.12,5.8645,3.4457,-1.1958,0.1821,0.1119,2.0707,rough,14.0,1,6.324
420,13.44,5.7154,3.7735,-1.2211,0.2567,-0.0759,2.0928,rough,14.0,1,6.001
430,13.76,5.5071,4.0814,-1.1908,0.1138,-0.1689,2.1151,rough,14.0,1,5.648
440,14.08,5.3333,4.4079,-1.0907,0.1092,-0.3186,2.1407,rough,14.0,1,5.314
450,14.40,5.1104,4.7295,-1.0118,0.0552,-0.0689,2.3613,rough,14.0,1,4.947
460,14.72,4.7823,5.0523,-1.0282,0.0239,0.2210,2.2741,rough,14.0,1,4.495
470,15.04,4.5415,5.3640,-1.0831,0.0783,0.0430,2.2590,rough,14.0,1,4.125
480,15.36,4.2637,5.6553,-1.0573,-0.0461,-0.1007,2.2993,rough,14.0,1,3.737
490,15.68,3.9829,5.9433,-0.9919,-0.0721,-0.1966,2.3465,rough,14.0,1,3.353
500,16.00,3.6359,6.2450,-0.9662,-0.2440,0.0253,2.3771,rough,14.0,1,2.907
510,16.32,3.1756,6.5741,-1.1102,-0.3668,0.3484,2.2992,rough,14.0,1,2.351
520,16.64,2.8627,6.8239,-1.2090,-0.3855,0.0457,2.4210,rough,14.0,1,1.967
530,16.96,2.6201,6.9964,-1.1543,-0.4082,-0.4176,2.7028,rough,14.0,1,1.682
540,17.28,2.2665,7.1921,-1.1027,-0.2504,-0.2356,2.7280,rough,14.0,1,1.287
550,17.60,1.8673,7.3750,-1.0433,-0.1605,-0.0675,2.7127,rough,14.0,1,0.859
560,17.92,1.5073,7.4791,-1.0553,-0.2784,0.1922,2.8474,rough,14.0,2,15.556
570,18.24,1.1787,7.4827,-1.1248,-0.3303,0.2853,3.0610,rough,14.0,2,15.362
580,18.56,0.8066,7.4056,-1.2565,-0.5895,0.4492,-3.1126,rough,14.0,2,15.083
590,18.88,0.5253,7.3327,-1.3098,-0.5207,0.0427,-2.8094,rough,14.0,2,14.862
600,19.20,0.1602,7.1839,-1.3449,-0.3748,-0.0301,-2.6653,rough,14.0,2,14.534
610,19.52,-0.1892,6.9885,-1.3226,-0.3184,-0.1196,-2.5687,rough,14.0,2,14.179
620,19.84,-0.4101,6.8202,-1.2269,-0.3425,-0.4736,-2.3615,rough,14.0,2,13.918
630,20.16,-0.6578,6.6122,-1.0771,-0.1702,-0.6263,-2.2720,rough,14.0,2,13.610
640,20.48,-0.8147,6.3424,-0.9032,-0.3427,-0.6395,-2.2449,rough,14.0,2,13.298
650,20.80,-1.0022,6.0694,-0.6694,-0.3590,-0.6297,-2.1901,rough,14.0,2,12.967
660,21.12,-1.1903,5.7776,-0.4302,-0.3387,-0.6252,-2.1357,rough,14.0,2,12.620
670,21.44,-1.3685,5.4757,-0.1836,-0.3437,-0.6306,-2.0974,rough,14.0,2,12.269
680,21.76,-1.5231,5.1874,0.0563,-0.3179,-0.6664,-2.0777,rough,14.0,2,11.943
690,22.08,-1.6654,4.8913,0.3141,-0.3674,-0.6662,-2.0135,rough,14.0,2,11.617
700,22.40,-1.7807,4.5572,0.4916,-0.3928,-0.5439,-2.0685,rough,14.0,2,11.273
710,22.72,-1.9100,4.2542,0.6098,-0.2547,-0.4309,-2.1200,rough,14.0,2,10.949
720,23.04,-2.1553,3.8718,0.6508,-0.2541,-0.0228,-2.1665,rough,14.0,2,10.494
730,23.36,-2.4453,3.4925,0.5927,-0.1149,0.1442,-2.1822,rough,14.0,2,10.018
740,23.68,-2.6968,3.1266,0.5206,-0.1064,0.1760,-2.1799,rough,14.0,2,9.575
750,24.00,-2.9532,2.7487,0.4337,-0.1529,0.2548,-2.2024,rough,14.0,2,9.118
760,24.32,-3.2470,2.3586,0.2604,-0.0198,0.5126,-2.2072,rough,14.0,2,8.631
770,24.64,-3.4862,2.0236,0.0584,0.0318,0.3693,-2.2122,rough,14.0,2,8.220
780,24.96,-3.7054,1.7335,-0.0266,0.0056,0.0259,-2.2325,rough,14.0,2,7.858
790,25.28,-3.9323,1.4054,-0.0004,-0.0799,-0.1876,-2.2098,rough,14.0,2,7.459
800,25.60,-4.1745,1.0402,0.0609,-0.1774,-0.1783,-2.1918,rough,14.0,2,7.021
810,25.92,-4.4829,0.6964,0.0857,0.0683,-0.0839,-2.1996,rough,14.0,2,6.566
820,26.24,-4.6961,0.4134,0.1648,0.1009,-0.4495,-2.2237,rough,14.0,2,6.214
830,26.56,-4.8620,0.1457,0.3049,-0.0757,-0.5595,-2.1577,rough,14.0,2,5.899
840,26.88,-5.0384,-0.1680,0.5269,-0.1952,-0.5861,-2.0952,rough,14.0,2,5.539
850,27.20,-5.1911,-0.4739,0.7264,-0.2090,-0.5611,-2.0756,rough,14.0,2,5.198
860,27.52,-5.4766,-0.8254,0.8030,0.2739,-0.1336,-2.0369,rough,14.0,2,4.750
870,27.84,-5.6791,-1.2189,0.8044,0.3313,-0.0853,-2.0546,rough,14.0,2,4.309
880,28.16,-5.8644,-1.5420,0.8701,0.3088,-0.3020,-2.1727,rough,14.0,2,3.936
890,28.48,-6.0462,-1.9308,0.9461,0.0172,-0.2673,-2.1189,rough,14.0,2,3.510
900,28.80,-6.3229,-2.3434,1.0180,0.1131,0.1167,-2.1172,rough,14.0,2,3.013
910,29.12,-6.6719,-2.7290,0.8567,0.5048,0.2928,-1.9512,rough,14.0,2,2.504
920,29.44,-6.8365,-3.0179,0.8398,0.4682,-0.2669,-2.1217,rough,14.0,2,2.172
930,29.76,-6.9079,-3.4703,0.8908,-0.2777,-0.1857,-2.0988,rough,14.0,2,1.749
940,30.08,-7.0415,-3.7608,0.9972,-0.3520,-0.4227,-1.9917,rough,14.0,2,1.435
950,30.40,-7.1962,-4.1158,1.1697,-0.3235,-0.4163,-2.0251,rough,14.0,2,1.061
960,30.72,-7.4648,-4.5043,1.2331,0.0250,-0.0068,-2.1602,rough,14.0,3,1.029
970,31.04,-7.6765,-4.7858,1.2568,0.0311,-0.1720,-2.2099,rough,14.0,0,13.024
980,31.36,-7.7213,-4.9448,1.3082,0.0308,-0.4063,-1.8650,rough,14.0,0,13.073
990,31.68,-7.6913,-5.2095,1.3487,-0.1632,-0.1994,-1.5093,rough,14.0,0,13.054
1000,32.00,-7.6319,-5.3787,1.3853,-0.2208,-0.3117,-1.3229,rough,14.0,0,13.005
1010,32.32,-7.5516,-5.5644,1.4435,-0.2574,-0.3046,-1.1910,rough,14.0,0,12.938
1020,32.64,-7.4297,-5.7688,1.5016,-0.3569,-0.3157,-1.0267,rough,14.0,0,12.835
1030,32.96,-7.2692,-6.0105,1.5919,-0.3545,-0.3288,-0.8340,rough,14.0,0,12.702
1040,33.28,-6.9692,-6.3337,1.5750,-0.2406,0.1918,-0.7273,rough,14.0,0,12.447
1050,33.60,-6.6246,-6.5998,1.4362,-0.1087,0.3623,-0.6574,rough,14.0,0,12.149
1060,33.92,-6.2917,-6.8069,1.3110,-0.1536,0.3470,-0.5423,rough,14.0,0,11.859
1070,34.24,-5.9510,-6.9872,1.1834,-0.1585,0.3127,-0.4146,rough,14.0,0,11.562
1080,34.56,-5.5910,-7.1247,1.0928,-0.1133,0.1402,-0.3237,rough,14.0,0,11.241
1090,34.88,-5.1445,-7.4272,0.9029,0.5504,0.5808,-0.2606,rough,14.0,0,10.885
1100,35.20,-4.6828,-7.7669,0.5592,0.7606,0.8861,-0.1922,rough,14.0,0,10.540
1110,35.52,-4.2834,-8.1843,0.4280,1.7600,1.0529,0.9092,rough,14.0,0,10.302
1120,35.84,-3.9345,-8.6578,0.0069,2.8758,-0.3489,1.9358,rough,14.0,0,10.160
1130,36.16,-3.5143,-9.3559,-0.4923,2.8439,-0.1564,2.9442,rough,14.0,0,10.093
1140,36.48,-3.1350,-9.5007,-0.5889,2.8762,0.1815,-2.9908,rough,14.0,0,9.834
1150,36.80,-2.9028,-9.4293,-0.5248,2.9539,0.2444,-2.7695,rough,14.0,0,9.598
1160,37.12,-2.6389,-9.2909,-0.4303,3.0549,0.4483,-2.6823,rough,14.0,0,9.300
1170,37.44,-2.4157,-9.1727,-0.2951,-3.0476,0.5338,-2.3478,rough,14.0,0,9.048
1180,37.76,-2.4159,-8.9718,-0.2226,-2.7073,0.3471,-1.5668,rough,14.0,0,8.947
1190,38.08,-2.5686,-8.8710,-0.2520,-2.5388,-0.0795,-0.8657,rough,14.0,0,9.030
1200,38.40,-2.6606,-8.9661,-0.3303,-2.6886,-0.2125,-0.4299,rough,14.0,0,9.157
1210,38.72,-2.8815,-9.0110,-0.3868,-2.6403,0.2221,-0.4475,rough,14.0,0,9.372
1220,39.04,-3.0023,-9.0798,-0.4390,-2.8271,0.1888,-0.4404,rough,14.0,0,9.511
1230,39.36,-3.0718,-9.2117,-0.4787,-2.8568,0.1788,-0.5303,rough,14.0,0,9.636
1240,39.68,-3.0857,-9.3676,-0.5260,-2.8727,0.0895,-0.5066,rough,14.0,0,9.725
1250,40.00,-3.0797,-9.5160,-0.5692,-2.9764,0.1201,-0.6228,rough,14.0,0,9.794
1260,40.32,-3.1080,-9.6702,-0.5961,-2.9588,0.0082,-0.4295,rough,14.0,0,9.898
1270,40.64,-3.1511,-9.7998,-0.6054,-2.9551,-0.0889,-0.5406,rough,14.0,0,10.003
1280,40.96,-3.2335,-9.9193,-0.6157,-3.0184,-0.0977,-0.5512,rough,14.0,0,10.136
1290,41.28,-3.3295,-10.0088,-0.6283,-3.0968,-0.0899,-0.4825,rough,14.0,0,10.265
1300,41.60,-3.3834,-10.1070,-0.6375,-3.1411,-0.0906,-0.6123,rough,14.0,0,10.363
1310,41.92,-3.4577,-10.1115,-0.6445,3.1324,-0.0899,-0.4993,rough,14.0,0,10.428
1320,42.24,-3.5249,-10.1284,-0.6484,3.1391,-0.0991,-0.6550,rough,14.0,0,10.494
1330,42.56,-3.5456,-10.1218,-0.6515,3.1166,-0.0955,-0.4787,rough,14.0,0,10.508
1340,42.88,-3.5644,-10.1233,-0.6500,3.1296,-0.0702,-0.5354,rough,14.0,0,10.525
1350,43.20,-3.5513,-10.1205,-0.6505,3.1270,-0.0852,-0.5632,rough,14.0,0,10.512
1360,43.52,-3.5561,-10.1256,-0.6508,3.1259,-0.0891,-0.5479,rough,14.0,0,10.519
1370,43.84,-3.5451,-10.1294,-0.6498,3.1232,-0.0968,-0.5212,rough,14.0,0,10.511
1380,44.16,-3.5531,-10.1205,-0.6511,3.1280,-0.0851,-0.5743,rough,14.0,0,10.513
1390,44.48,-3.5400,-10.1215,-0.6515,3.1226,-0.0986,-0.4980,rough,14.0,0,10.503
1400,44.80,-3.5426,-10.1333,-0.6488,3.1335,-0.0999,-0.6530,rough,14.0,0,10.511
1410,45.12,-3.5519,-10.1118,-0.6507,3.1190,-0.0820,-0.4551,rough,14.0,0,10.508
1420,45.44,-3.5423,-10.1214,-0.6498,3.1349,-0.0910,-0.6616,rough,14.0,0,10.505
1430,45.76,-3.5375,-10.1208,-0.6496,-3.1374,-0.0921,-0.6778,rough,14.0,0,10.500
1440,46.08,-3.5610,-10.1248,-0.6503,3.1242,-0.0798,-0.5693,rough,14.0,0,10.522
1450,46.40,-3.5496,-10.1222,-0.6519,3.1287,-0.0969,-0.5915,rough,14.0,0,10.511
1460,46.72,-3.5450,-10.1290,-0.6497,3.1332,-0.0984,-0.6293,rough,14.0,0,10.511
1470,47.04,-3.5508,-10.1247,-0.6541,3.1349,-0.1165,-0.6516,rough,14.0,0,10.514
1480,47.36,-3.5475,-10.1256,-0.6516,3.1249,-0.0915,-0.4961,rough,14.0,0,10.511
1490,47.68,-3.5689,-10.1218,-0.6484,3.1216,-0.0752,-0.5863,rough,14.0,0,10.527
1500,48.00,-3.5421,-10.1247,-0.6522,3.1184,-0.0936,-0.5469,rough,14.0,0,10.506
1510,48.32,-3.5531,-10.1200,-0.6515,3.1143,-0.0899,-0.4196,rough,14.0,0,10.513
1520,48.64,-3.5480,-10.1198,-0.6502,3.1300,-0.0885,-0.5776,rough,14.0,0,10.509
1530,48.96,-3.5474,-10.1249,-0.6504,3.1322,-0.0956,-0.5741,rough,14.0,0,10.511
1540,49.28,-3.5467,-10.1233,-0.6505,3.1218,-0.0951,-0.4998,rough,14.0,0,10.510
1550,49.60,-3.5535,-10.1237,-0.6512,3.1246,-0.0908,-0.5475,rough,14.0,0,10.515
1560,49.92,-3.5514,-10.1234,-0.6505,3.1310,-0.0885,-0.6237,rough,14.0,0,10.514
1570,50.24,-3.5509,-10.1200,-0.6512,3.1104,-0.0877,-0.4118,rough,14.0,0,10.511
1580,50.56,-3.5544,-10.1173,-0.6505,3.1311,-0.0842,-0.6028,rough,14.0,0,10.513
1590,50.88,-3.5563,-10.1265,-0.6501,3.1259,-0.0865,-0.5991,rough,14.0,0,10.519
1600,51.20,-3.5481,-10.1252,-0.6503,3.1163,-0.0926,-0.4219,rough,14.0,0,10.512
1610,51.52,-3.5473,-10.1334,-0.6507,3.1288,-0.0975,-0.5728,rough,14.0,0,10.515
1620,51.84,-3.5510,-10.1255,-0.6515,3.1176,-0.0932,-0.4679,rough,14.0,0,10.514
1630,52.16,-3.5583,-10.1257,-0.6493,3.1228,-0.0889,-0.5923,rough,14.0,0,10.521
1640,52.48,-3.5348,-10.1226,-0.6489,3.1373,-0.0886,-0.6864,rough,14.0,0,10.499
1650,52.80,-3.5581,-10.1254,-0.6511,3.1293,-0.0905,-0.6070,rough,14.0,0,10.520
1660,53.12,-3.5477,-10.1250,-0.6509,3.1226,-0.0914,-0.5141,rough,14.0,0,10.511
1670,53.44,-3.5668,-10.1219,-0.6514,3.1160,-0.0851,-0.5005,rough,14.0,0,10.526
1680,53.76,-3.5374,-10.1191,-0.6498,3.1376,-0.0860,-0.6369,rough,14.0,0,10.499
1690,54.08,-3.5468,-10.1246,-0.6504,3.1235,-0.0962,-0.4895,rough,14.0,0,10.510
1700,54.40,-3.5609,-10.1190,-0.6497,3.1239,-0.0830,-0.6070,rough,14.0,0,10.519
1710,54.72,-3.5286,-10.1274,-0.6492,3.1266,-0.0999,-0.5167,rough,14.0,0,10.496
1720,55.04,-3.5322,-10.1191,-0.6496,3.1390,-0.0877,-0.6268,rough,14.0,0,10.495
1730,55.36,-3.5547,-10.1237,-0.6564,3.1201,-0.0615,-0.4543,rough,14.0,0,10.516
1740,55.68,-3.5422,-10.1197,-0.6513,3.1216,-0.0938,-0.5089,rough,14.0,0,10.504
1750,56.00,-3.5353,-10.1297,-0.6488,3.1412,-0.1023,-0.6923,rough,14.0,0,10.503
1760,56.32,-3.5617,-10.1164,-0.6518,3.1197,-0.0887,-0.4515,rough,14.0,0,10.519
1770,56.64,-3.5548,-10.1140,-0.6504,3.1287,-0.0813,-0.5819,rough,14.0,0,10.511
1780,56.96,-3.5554,-10.1249,-0.6570,3.0933,-0.0892,-0.5350,rough,14.0,0,10.518
1790,57.28,-3.5325,-10.1228,-0.6499,3.1207,-0.0926,-0.4890,rough,14.0,0,10.497
1800,57.60,-3.5407,-10.1227,-0.6511,3.1235,-0.0889,-0.4839,rough,14.0,0,10.504
1810,57.92,-3.5624,-10.1306,-0.6496,3.1217,-0.0838,-0.5602,rough,14.0,0,10.527
1820,58.24,-3.5375,-10.1256,-0.6500,3.1298,-0.0910,-0.5835,rough,14.0,0,10.503
1830,58.56,-3.5390,-10.1279,-0.6492,3.1357,-0.0987,-0.6284,rough,14.0,0,10.505
1840,58.88,-3.5630,-10.1049,-0.6519,3.1267,-0.0832,-0.5489,rough,14.0,0,10.513
1850,59.20,-3.5635,-10.1167,-0.6507,3.1255,-0.0760,-0.5684,rough,14.0,0,10.520
1860,59.52,-3.5403,-10.1268,-0.6505,3.1211,-0.0949,-0.4881,rough,14.0,0,10.506
1870,59.84,-3.5555,-10.1208,-0.6509,3.1268,-0.0867,-0.5601,rough,14.0,0,10.516
1880,60.16,-3.5370,-10.1224,-0.6501,3.1233,-0.0921,-0.5171,rough,14.0,0,10.501
1890,60.48,-3.5607,-10.1232,-0.6512,3.1221,-0.0825,-0.5629,rough,14.0,0,10.521
1900,60.80,-3.5333,-10.1215,-0.6498,3.1234,-0.0905,-0.5385,rough,14.0,0,10.497
1910,61.12,-3.5253,-10.1180,-0.6500,3.1287,-0.0854,-0.5033,rough,14.0,0,10.489
1920,61.44,-3.5542,-10.1264,-0.6542,3.1088,-0.0934,-0.5253,rough,14.0,0,10.517
1930,61.76,-3.5558,-10.1104,-0.6510,3.1333,-0.0799,-0.5675,rough,14.0,0,10.510
1940,62.08,-3.5611,-10.1257,-0.6498,3.1209,-0.0824,-0.5295,rough,14.0,0,10.523
1950,62.40,-3.5484,-10.1239,-0.6508,3.1293,-0.0933,-0.5509,rough,14.0,0,10.511
1960,62.72,-3.5496,-10.1337,-0.6498,3.1186,-0.0934,-0.5118,rough,14.0,0,10.518
1970,63.04,-3.5551,-10.1029,-0.6526,3.1302,-0.0832,-0.4780,rough,14.0,0,10.506
1980,63.36,-3.5651,-10.1012,-0.6504,3.1334,-0.0681,-0.6054,rough,14.0,0,10.513
1990,63.68,-3.5583,-10.0937,-0.6503,3.1159,-0.0658,-0.4360,rough,14.0,0,10.504
2000,64.00,-3.5649,-10.1115,-0.6514,3.1158,-0.0763,-0.6190,rough,14.0,0,10.519
2010,64.32,-3.5473,-10.1270,-0.6509,3.1249,-0.0948,-0.5319,rough,14.0,0,10.512
2020,64.64,-3.5598,-10.1225,-0.6495,3.1222,-0.0867,-0.6027,rough,14.0,0,10.520
2030,64.96,-3.5390,-10.1193,-0.6509,3.1296,-0.0915,-0.5649,rough,14.0,0,10.501
2040,65.28,-3.5639,-10.1212,-0.6506,3.1228,-0.0812,-0.5269,rough,14.0,0,10.523
2050,65.60,-3.5289,-10.1215,-0.6496,3.1217,-0.0906,-0.4908,rough,14.0,0,10.493
2060,65.92,-3.5458,-10.1245,-0.6501,3.1269,-0.0891,-0.5750,rough,14.0,0,10.509
2070,66.24,-3.5631,-10.1215,-0.6490,3.1188,-0.0882,-0.6132,rough,14.0,0,10.522
2080,66.56,-3.4971,-10.1261,-0.6477,3.1288,-0.0927,-0.5605,rough,14.0,0,10.469
2090,66.88,-3.4932,-10.1247,-0.6466,3.1326,-0.0940,-0.6042,rough,14.0,0,10.465
2100,67.20,-3.5418,-10.1179,-0.6523,3.1234,-0.0861,-0.4870,rough,14.0,0,10.502
2110,67.52,-3.5599,-10.1129,-0.6513,3.1296,-0.0807,-0.5773,rough,14.0,0,10.515
2120,67.84,-3.5486,-10.1311,-0.6570,3.0910,-0.1000,-0.5436,rough,14.0,0,10.515
2130,68.16,-3.5152,-10.1237,-0.6483,3.1259,-0.0914,-0.5714,rough,14.0,0,10.483
2140,68.48,-3.5667,-10.1120,-0.6519,3.1226,-0.0702,-0.5572,rough,14.0,0,10.520
2150,68.80,-3.5570,-10.1066,-0.6524,3.1173,-0.0935,-0.5146,rough,14.0,0,10.509
2160,69.12,-3.5135,-10.1059,-0.6475,3.1303,-0.0758,-0.5783,rough,14.0,0,10.472
2170,69.44,-3.5399,-10.1282,-0.6501,3.1244,-0.0964,-0.5304,rough,14.0,0,10.506
2180,69.76,-3.5617,-10.1140,-0.6517,3.1243,-0.0878,-0.5510,rough,14.0,0,10.517
2190,70.08,-3.5523,-10.1261,-0.6509,3.1282,-0.0935,-0.6049,rough,14.0,0,10.516
2200,70.40,-3.5594,-10.1135,-0.6525,3.1240,-0.0920,-0.5255,rough,14.0,0,10.515
2210,70.72,-3.5460,-10.1317,-0.6500,3.1186,-0.0944,-0.4954,rough,14.0,0,10.513
2220,71.04,-3.5548,-10.1265,-0.6507,3.1228,-0.0928,-0.5418,rough,14.0,0,10.518
2230,71.36,-3.5543,-10.1244,-0.6516,3.1237,-0.0920,-0.5261,rough,14.0,0,10.516
2240,71.68,-3.5487,-10.1200,-0.6505,3.1257,-0.0868,-0.5469,rough,14.0,0,10.509
2250,72.00,-3.5638,-10.1074,-0.6506,3.1341,-0.0762,-0.6243,rough,14.0,0,10.515
2260,72.32,-3.5544,-10.1140,-0.6513,3.1354,-0.0794,-0.5770,rough,14.0,0,10.511
2270,72.64,-3.5355,-10.1232,-0.6506,3.1177,-0.0908,-0.4629,rough,14.0,0,10.500
2280,72.96,-3.5568,-10.1210,-0.6507,3.1272,-0.0866,-0.5570,rough,14.0,0,10.517
2290,73.28,-3.5438,-10.1210,-0.6509,3.1175,-0.0901,-0.4466,rough,14.0,0,10.506
2300,73.60,-3.5564,-10.1233,-0.6509,3.1252,-0.0854,-0.5749,rough,14.0,0,10.518
2310,73.92,-3.5540,-10.1247,-0.6509,3.1239,-0.0893,-0.5496,rough,14.0,0,10.516
2320,74.24,-3.5512,-10.1254,-0.6503,3.1319,-0.0900,-0.6252,rough,14.0,0,10.514
2330,74.56,-3.5488,-10.1208,-0.6520,3.1225,-0.0825,-0.5067,rough,14.0,0,10.510
2340,74.88,-3.5565,-10.1259,-0.6543,3.1125,-0.0945,-0.5510,rough,14.0,0,10.519
2350,75.20,-3.5460,-10.1264,-0.6529,-3.1397,-0.0922,-0.6126,rough,14.0,0,10.511
2360,75.52,-3.5471,-10.1248,-0.6510,3.1195,-0.0899,-0.4872,rough,14.0,0,10.511
2370,75.84,-3.5556,-10.1077,-0.6504,3.1315,-0.0765,-0.5944,rough,14.0,0,10.509
2380,76.16,-3.5643,-10.1060,-0.6501,3.1289,-0.0711,-0.5916,rough,14.0,0,10.515
2390,76.48,-3.5373,-10.1200,-0.6507,3.1180,-0.0893,-0.4441,rough,14.0,0,10.500
2400,76.80,-3.5412,-10.1183,-0.6564,-3.1233,-0.0927,-0.5703,rough,14.0,0,10.502
2410,77.12,-3.5551,-10.1182,-0.6513,3.1269,-0.0896,-0.5123,rough,14.0,0,10.514
2420,77.44,-3.5501,-10.1275,-0.6498,3.1292,-0.0966,-0.5947,rough,14.0,0,10.515
2430,77.76,-3.5525,-10.1226,-0.6512,3.1268,-0.0905,-0.5689,rough,14.0,0,10.514
2440,78.08,-3.5527,-10.1253,-0.6497,3.1294,-0.0864,-0.6165,rough,14.0,0,10.516
2450,78.40,-3.5496,-10.1307,-0.6533,3.1283,-0.0909,-0.4269,rough,14.0,0,10.516
2460,78.72,-3.5506,-10.1268,-0.6513,3.1191,-0.0946,-0.4928,rough,14.0,0,10.515
2470,79.04,-3.5525,-10.1172,-0.6523,3.1209,-0.0979,-0.5276,rough,14.0,0,10.511
2480,79.36,-3.5364,-10.1258,-0.6553,3.1254,-0.0610,-0.5240,rough,14.0,0,10.502
2490,79.68,-3.5493,-10.1225,-0.6511,3.1273,-0.0938,-0.4999,rough,14.0,0,10.511
2500,80.00,-3.5570,-10.1179,-0.6506,3.1223,-0.0845,-0.5016,rough,14.0,0,10.515
2510,80.32,-3.5339,-10.1294,-0.6490,3.1341,-0.0957,-0.6774,rough,14.0,0,10.502
2520,80.64,-3.5585,-10.1236,-0.6518,3.1216,-0.0945,-0.4680,rough,14.0,0,10.520
2530,80.96,-3.5442,-10.1244,-0.6534,3.1335,-0.0834,-0.5575,rough,14.0,0,10.508
2540,81.28,-3.5514,-10.1212,-0.6512,3.1291,-0.0901,-0.5682,rough,14.0,0,10.512
2550,81.60,-3.5524,-10.1230,-0.6507,3.1343,-0.0925,-0.6196,rough,14.0,0,10.514
2560,81.92,-3.5435,-10.1137,-0.6503,3.1336,-0.0846,-0.6187,rough,14.0,0,10.502
2570,82.24,-3.5481,-10.1340,-0.6495,3.1191,-0.0944,-0.5354,rough,14.0,0,10.516
2580,82.56,-3.5524,-10.1218,-0.6505,3.1289,-0.0909,-0.5680,rough,14.0,0,10.514
2590,82.88,-3.5514,-10.1230,-0.6511,3.1271,-0.0920,-0.5555,rough,14.0,0,10.513
2600,83.20,-3.5547,-10.1257,-0.6502,3.1272,-0.0899,-0.6060,rough,14.0,0,10.518
2610,83.52,-3.5354,-10.1238,-0.6501,3.1176,-0.0920,-0.4592,rough,14.0,0,10.500
2620,83.84,-3.5502,-10.1211,-0.6550,3.1254,-0.1180,-0.5464,rough,14.0,0,10.511
2630,84.16,-3.5594,-10.1173,-0.6513,3.1268,-0.0814,-0.5404,rough,14.0,0,10.517
2640,84.48,-3.5447,-10.1234,-0.6517,3.1252,-0.0956,-0.5094,rough,14.0,0,10.508
2650,84.80,-3.5532,-10.1264,-0.6508,3.1237,-0.0925,-0.5407,rough,14.0,0,10.517
2660,85.12,-3.5410,-10.1208,-0.6499,3.1325,-0.0883,-0.6374,rough,14.0,0,10.503
2670,85.44,-3.5441,-10.1326,-0.6493,3.1236,-0.1005,-0.5337,rough,14.0,0,10.512
2680,85.76,-3.5514,-10.1084,-0.6506,3.1180,-0.0811,-0.4523,rough,14.0,0,10.506
2690,86.08,-3.5572,-10.1293,-0.6503,3.1226,-0.0842,-0.6473,rough,14.0,0,10.522
2700,86.40,-3.5510,-10.1258,-0.6565,3.1296,-0.0657,-0.5078,rough,14.0,0,10.515
2710,86.72,-3.5379,-10.1220,-0.6498,3.1369,-0.0890,-0.6429,rough,14.0,0,10.501
2720,87.04,-3.5635,-10.1236,-0.6500,3.1252,-0.0794,-0.5461,rough,14.0,0,10.524
2730,87.36,-3.5311,-10.1237,-0.6499,3.1348,-0.0965,-0.6384,rough,14.0,0,10.496
2740,87.68,-3.5409,-10.1260,-0.6511,3.1415,-0.0987,-0.5965,rough,14.0,0,10.506
2750,88.00,-3.5546,-10.1168,-0.6519,3.1297,-0.0828,-0.5269,rough,14.0,0,10.513
2760,88.32,-3.5570,-10.1208,-0.6569,3.1185,-0.0588,-0.4373,rough,14.0,0,10.517
2770,88.64,-3.5577,-10.1263,-0.6515,3.1264,-0.0896,-0.5606,rough,14.0,0,10.520
2780,88.96,-3.5486,-10.1221,-0.6513,3.1131,-0.0912,-0.4150,rough,14.0,0,10.510
2790,89.28,-3.5523,-10.1301,-0.6511,3.1215,-0.1010,-0.5091,rough,14.0,0,10.518
2800,89.60,-3.5462,-10.1311,-0.6523,3.1206,-0.0984,-0.5656,rough,14.0,0,10.513
2810,89.92,-3.5362,-10.1208,-0.6498,3.1279,-0.0875,-0.5710,rough,14.0,0,10.499
2820,90.24,-3.5548,-10.1243,-0.6514,3.1223,-0.0954,-0.4943,rough,14.0,0,10.517
2830,90.56,-3.5412,-10.1185,-0.6508,3.1231,-0.0912,-0.5326,rough,14.0,0,10.502
2840,90.88,-3.5540,-10.1190,-0.6518,3.1284,-0.0848,-0.5436,rough,14.0,0,10.513
2850,91.20,-3.5536,-10.1282,-0.6506,3.1183,-0.0906,-0.4781,rough,14.0,0,10.518
2860,91.52,-3.5548,-10.1220,-0.6513,3.1254,-0.0884,-0.5423,rough,14.0,0,10.516
2870,91.84,-3.5453,-10.1173,-0.6509,3.1213,-0.0901,-0.4481,rough,14.0,0,10.505
2880,92.16,-3.5501,-10.1285,-0.6525,3.1181,-0.0943,-0.5575,rough,14.0,0,10.515
2890,92.48,-3.5618,-10.1060,-0.6527,3.1373,-0.0774,-0.5512,rough,14.0,0,10.513
2900,92.80,-3.5703,-10.1070,-0.6518,3.1159,-0.0774,-0.4406,rough,14.0,0,10.521
2910,93.12,-3.5628,-10.1120,-0.6504,3.1244,-0.0789,-0.5315,rough,14.0,0,10.517
2920,93.44,-3.5465,-10.1265,-0.6498,3.1328,-0.0939,-0.6314,rough,14.0,0,10.511
2930,93.76,-3.5515,-10.1218,-0.6512,3.1185,-0.0884,-0.4671,rough,14.0,0,10.513
2940,94.08,-3.5612,-10.1073,-0.6509,3.1244,-0.0790,-0.4993,rough,14.0,0,10.513
2950,94.40,-3.5558,-10.1044,-0.6524,3.1221,-0.0889,-0.5343,rough,14.0,0,10.507
2960,94.72,-3.5444,-10.1358,-0.6490,3.1362,-0.1062,-0.6629,rough,14.0,0,10.514
2970,95.04,-3.5520,-10.1164,-0.6521,3.1396,-0.0803,-0.6064,rough,14.0,0,10.510
2980,95.36,-3.5536,-10.1247,-0.6505,3.1327,-0.0823,-0.5841,rough,14.0,0,10.516
2990,95.68,-3.5545,-10.1272,-0.6494,3.1266,-0.0855,-0.5930,rough,14.0,0,10.518
3000,96.00,-3.5569,-10.1108,-0.6522,3.1251,-0.0847,-0.5225,rough,14.0,0,10.511
3010,96.32,-3.5573,-10.1299,-0.6506,3.1205,-0.0848,-0.6223,rough,14.0,0,10.522
3020,96.64,-3.5579,-10.1284,-0.6506,3.1201,-0.0909,-0.5504,rough,14.0,0,10.522
3030,96.96,-3.5308,-10.1286,-0.6497,3.1314,-0.1000,-0.6365,rough,14.0,0,10.499
3040,97.28,-3.5370,-10.1129,-0.6525,-3.1377,-0.0843,-0.5385,rough,14.0,0,10.496
3050,97.60,-3.5798,-10.1022,-0.6492,3.1238,-0.0589,-0.5411,rough,14.0,0,10.526
3060,97.92,-3.5455,-10.1077,-0.6500,3.1289,-0.0739,-0.6179,rough,14.0,0,10.500
3070,98.24,-3.5459,-10.1314,-0.6548,3.1245,-0.0737,-0.5526,rough,14.0,0,10.513
3080,98.56,-3.5525,-10.1184,-0.6520,3.1211,-0.0949,-0.5245,rough,14.0,0,10.512
3090,98.88,-3.5564,-10.1212,-0.6495,3.1305,-0.0813,-0.6100,rough,14.0,0,10.517
3100,99.20,-3.5593,-10.1101,-0.6518,3.1258,-0.0796,-0.5561,rough,14.0,0,10.513
3110,99.52,-3.5589,-10.1081,-0.6508,3.1276,-0.0784,-0.5416,rough,14.0,0,10.512
3120,99.84,-3.5490,-10.1257,-0.6507,3.1288,-0.0946,-0.5608,rough,14.0,0,10.513
3130,100.16,-3.5483,-10.1226,-0.6515,3.1346,-0.0898,-0.6038,rough,14.0,0,10.510
3140,100.48,-3.5550,-10.1254,-0.6508,3.1268,-0.0945,-0.5402,rough,14.0,0,10.518
3150,100.80,-3.5651,-10.1256,-0.6498,3.1289,-0.0697,-0.5630,rough,14.0,0,10.526
3160,101.12,-3.5572,-10.1016,-0.6511,3.1366,-0.0721,-0.5910,rough,14.0,0,10.507
3170,101.44,-3.5596,-10.0947,-0.6507,3.1277,-0.0718,-0.5327,rough,14.0,0,10.505
3180,101.76,-3.5605,-10.1241,-0.6496,3.1300,-0.0773,-0.5994,rough,14.0,0,10.522
3190,102.08,-3.5512,-10.1231,-0.6605,3.1144,-0.0925,-0.4154,rough,14.0,0,10.513
3200,102.40,-3.5432,-10.1264,-0.6499,3.1374,-0.0926,-0.6862,rough,14.0,0,10.508
3210,102.72,-3.5554,-10.1242,-0.6502,3.1236,-0.0912,-0.5775,rough,14.0,0,10.517
3220,103.04,-3.5411,-10.1173,-0.6506,3.1180,-0.0864,-0.4595,rough,14.0,0,10.502
3230,103.36,-3.5320,-10.1284,-0.6513,3.1197,-0.1002,-0.5688,rough,14.0,0,10.500
3240,103.68,-3.5170,-10.1236,-0.6490,3.1296,-0.0906,-0.5632,rough,14.0,0,10.485
3250,104.00,-3.5562,-10.1252,-0.6511,3.1233,-0.0906,-0.5028,rough,14.0,0,10.519
3260,104.32,-3.5403,-10.1250,-0.6495,3.1328,-0.0910,-0.6405,rough,14.0,0,10.505
3270,104.64,-3.5471,-10.1214,-0.6524,3.1165,-0.1001,-0.4470,rough,14.0,0,10.509
3280,104.96,-3.5516,-10.1238,-0.6511,3.1249,-0.0928,-0.5288,rough,14.0,0,10.514
3290,105.28,-3.5545,-10.1088,-0.6505,3.1283,-0.0783,-0.5529,rough,14.0,0,10.508
3300,105.60,-3.5484,-10.1193,-0.6508,3.1358,-0.0862,-0.6573,rough,14.0,0,10.509
3310,105.92,-3.5557,-10.1255,-0.6507,3.1235,-0.0895,-0.5376,rough,14.0,0,10.518
3320,106.24,-3.5346,-10.1068,-0.6492,3.1316,-0.0772,-0.5473,rough,14.0,0,10.490
3330,106.56,-3.5769,-10.1235,-0.6493,3.1181,-0.0597,-0.6026,rough,14.0,0,10.535
3340,106.88,-3.5466,-10.1180,-0.6501,3.1297,-0.0856,-0.5728,rough,14.0,0,10.507
3350,107.20,-3.5584,-10.1226,-0.6520,3.1194,-0.0942,-0.4660,rough,14.0,0,10.519
3360,107.52,-3.5659,-10.0983,-0.6518,3.1286,-0.0775,-0.5881,rough,14.0,0,10.513
3370,107.84,-3.5617,-10.1116,-0.6521,3.1262,-0.0777,-0.4793,rough,14.0,0,10.516
3380,108.16,-3.5640,-10.1143,-0.6553,-3.1315,-0.0791,-0.6228,rough,14.0,0,10.519
3390,108.48,-3.5626,-10.1022,-0.6503,3.1235,-0.0721,-0.5170,rough,14.0,0,10.512
3400,108.80,-3.5588,-10.1165,-0.6516,3.1187,-0.0858,-0.4681,rough,14.0,0,10.516
3410,109.12,-3.5454,-10.1232,-0.6526,3.1315,-0.0906,-0.5844,rough,14.0,0,10.508
3420,109.44,-3.5481,-10.1232,-0.6507,3.1252,-0.0906,-0.5240,rough,14.0,0,10.511
3430,109.76,-3.5607,-10.1207,-0.6516,3.1312,-0.0834,-0.5559,rough,14.0,0,10.520
3440,110.08,-3.5423,-10.1272,-0.6502,3.1241,-0.0959,-0.5114,rough,14.0,0,10.508
3450,110.40,-3.5520,-10.1198,-0.6531,3.1238,-0.1023,-0.5359,rough,14.0,0,10.512
3460,110.72,-3.5531,-10.1192,-0.6503,3.1345,-0.0841,-0.6103,rough,14.0,0,10.513
3470,111.04,-3.5374,-10.1256,-0.6497,3.1302,-0.0949,-0.5662,rough,14.0,0,10.503
3480,111.36,-3.5584,-10.1233,-0.6510,3.1224,-0.0851,-0.5424,rough,14.0,0,10.519
3490,111.68,-3.5678,-10.1010,-0.6501,3.1267,-0.0725,-0.6172,rough,14.0,0,10.515
3500,112.00,-3.5512,-10.1198,-0.6507,3.1259,-0.0845,-0.5643,rough,14.0,0,10.511
3510,112.32,-3.5578,-10.1220,-0.6514,3.1218,-0.0892,-0.5071,rough,14.0,0,10.518
3520,112.64,-3.5326,-10.1234,-0.6512,3.1282,-0.0985,-0.5398,rough,14.0,0,10.498
3530,112.96,-3.5412,-10.1227,-0.6512,3.1375,-0.0916,-0.5827,rough,14.0,0,10.505
3540,113.28,-3.5508,-10.1261,-0.6505,3.1287,-0.0958,-0.5574,rough,14.0,0,10.514
3550,113.60,-3.5611,-10.1286,-0.6491,3.1260,-0.0817,-0.6154,rough,14.0,0,10.525
3560,113.92,-3.5338,-10.1227,-0.6506,3.1275,-0.0891,-0.5217,rough,14.0,0,10.498
3570,114.24,-3.5658,-10.1181,-0.6508,3.1189,-0.0822,-0.5298,rough,14.0,0,10.523
3580,114.56,-3.5498,-10.1247,-0.6505,3.1269,-0.0940,-0.5486,rough,14.0,0,10.513
3590,114.88,-3.5432,-10.1209,-0.6502,3.1380,-0.0894,-0.6296,rough,14.0,0,10.505
3600,115.20,-3.5545,-10.1225,-0.6502,3.1272,-0.0879,-0.5901,rough,14.0,0,10.516
3610,115.52,-3.5585,-10.1135,-0.6511,3.1280,-0.0826,-0.5511,rough,14.0,0,10.514
3620,115.84,-3.5512,-10.1182,-0.6531,3.1290,-0.0832,-0.4602,rough,14.0,0,10.511
3630,116.16,-3.5456,-10.1239,-0.6503,3.1347,-0.0932,-0.6301,rough,14.0,0,10.509
3640,116.48,-3.5539,-10.1273,-0.6522,3.1147,-0.0940,-0.5141,rough,14.0,0,10.518
3650,116.80,-3.5527,-10.1288,-0.6508,3.1260,-0.0948,-0.5691,rough,14.0,0,10.517
3660,117.12,-3.5436,-10.1245,-0.6504,3.1202,-0.0914,-0.4870,rough,14.0,0,10.508
3670,117.44,-3.5326,-10.1132,-0.6506,3.1178,-0.0815,-0.4008,rough,14.0,0,10.492
3680,117.76,-3.5373,-10.1251,-0.6504,3.1154,-0.0908,-0.4081,rough,14.0,0,10.503
3690,118.08,-3.5461,-10.1123,-0.6503,3.1323,-0.0846,-0.5989,rough,14.0,0,10.503
3700,118.40,-3.5708,-10.1111,-0.6496,3.1141,-0.0826,-0.5503,rough,14.0,0,10.523
3710,118.72,-3.5675,-10.0993,-0.6520,3.1237,-0.0733,-0.5425,rough,14.0,0,10.514
3720,119.04,-3.5510,-10.1186,-0.6505,3.1334,-0.0891,-0.6004,rough,14.0,0,10.511
3730,119.36,-3.5519,-10.1208,-0.6533,3.1324,-0.0824,-0.4843,rough,14.0,0,10.513
3740,119.68,-3.5463,-10.1190,-0.6511,3.1235,-0.0869,-0.4964,rough,14.0,0,10.507
3750,120.00,-3.5458,-10.1241,-0.6521,-3.1397,-0.0912,-0.5956,rough,14.0,0,10.509
3760,120.32,-3.5586,-10.1171,-0.6517,3.1194,-0.0886,-0.4975,rough,14.0,0,10.516
3770,120.64,-3.5397,-10.1217,-0.6513,3.1360,-0.0951,-0.6464,rough,14.0,0,10.503
3780,120.96,-3.5614,-10.1260,-0.6492,3.1263,-0.0833,-0.6113,rough,14.0,0,10.523
3790,121.28,-3.5417,-10.1224,-0.6505,3.1262,-0.0881,-0.5284,rough,14.0,0,10.505
3800,121.60,-3.5566,-10.1293,-0.6503,3.1217,-0.0975,-0.5933,rough,14.0,0,10.521
3810,121.92,-3.5255,-10.1289,-0.6497,3.1251,-0.0972,-0.5616,rough,14.0,0,10.495
3820,122.24,-3.5304,-10.1260,-0.6487,3.1403,-0.1002,-0.6474,rough,14.0,0,10.497
3830,122.56,-3.5612,-10.1208,-0.6558,3.0985,-0.0772,-0.5709,rough,14.0,0,10.520
3840,122.88,-3.5698,-10.1111,-0.6494,3.1246,-0.0691,-0.6062,rough,14.0,0,10.523
3850,123.20,-3.5243,-10.1208,-0.6491,3.1314,-0.0864,-0.6039,rough,14.0,0,10.489
3860,123.52,-3.5390,-10.1244,-0.6494,3.1287,-0.0895,-0.5964,rough,14.0,0,10.504
3870,123.84,-3.5524,-10.1162,-0.6522,3.1236,-0.0941,-0.5235,rough,14.0,0,10.511
3880,124.16,-3.5513,-10.1264,-0.6530,3.1091,-0.0943,-0.5614,rough,14.0,0,10.515
3890,124.48,-3.5485,-10.1213,-0.6515,3.1145,-0.0900,-0.4199,rough,14.0,0,10.510
3900,124.80,-3.5503,-10.1217,-0.6510,3.1222,-0.0907,-0.5033,rough,14.0,0,10.512
3910,125.12,-3.5577,-10.1263,-0.6497,3.1252,-0.0857,-0.5801,rough,14.0,0,10.520
3920,125.44,-3.5299,-10.1195,-0.6497,3.1319,-0.0890,-0.6223,rough,14.0,0,10.493
3930,125.76,-3.5443,-10.1251,-0.6504,3.1180,-0.0913,-0.4783,rough,14.0,0,10.508
3940,126.08,-3.5498,-10.1241,-0.6509,3.1225,-0.0988,-0.4613,rough,14.0,0,10.513
3950,126.40,-3.5790,-10.1207,-0.6482,3.1223,-0.0658,-0.6188,rough,14.0,0,10.535
3960,126.72,-3.5374,-10.1161,-0.6500,3.1359,-0.0848,-0.5998,rough,14.0,0,10.498
3970,127.04,-3.5272,-10.1248,-0.6506,3.1290,-0.0991,-0.6147,rough,14.0,0,10.494
3980,127.36,-3.5523,-10.1253,-0.6511,3.1240,-0.0936,-0.5230,rough,14.0,0,10.515
3990,127.68,-3.5477,-10.1164,-0.6504,3.1370,-0.0841,-0.6354,rough,14.0,0,10.507
4000,128.00,-3.5511,-10.1241,-0.6509,3.1179,-0.0916,-0.4525,rough,14.0,0,10.514
4010,128.32,-3.5538,-10.1244,-0.6509,3.1274,-0.0911,-0.5782,rough,14.0,0,10.516
4020,128.64,-3.5351,-10.1222,-0.6514,3.1243,-0.0994,-0.5232,rough,14.0,0,10.499
4030,128.96,-3.5520,-10.1241,-0.6500,3.1313,-0.0861,-0.6083,rough,14.0,0,10.514
4040,129.28,-3.5471,-10.1252,-0.6510,3.1213,-0.0933,-0.5164,rough,14.0,0,10.511
4050,129.60,-3.5491,-10.1244,-0.6510,3.1275,-0.0991,-0.4913,rough,14.0,0,10.512
4060,129.92,-3.5457,-10.1221,-0.6506,3.1253,-0.0897,-0.5259,rough,14.0,0,10.508
4070,130.24,-3.5455,-10.1251,-0.6532,3.1366,-0.0656,-0.7070,rough,14.0,0,10.510
4080,130.56,-3.5545,-10.1241,-0.6517,3.1196,-0.0899,-0.5287,rough,14.0,0,10.517
4090,130.88,-3.5451,-10.1227,-0.6529,3.1285,-0.0775,-0.5386,rough,14.0,0,10.508
4100,131.20,-3.5505,-10.1234,-0.6507,3.1242,-0.0899,-0.5181,rough,14.0,0,10.513
4110,131.52,-3.5522,-10.1208,-0.6515,3.1256,-0.0924,-0.5742,rough,14.0,0,10.513
4120,131.84,-3.5431,-10.1229,-0.6515,3.1232,-0.0889,-0.4587,rough,14.0,0,10.506
4130,132.16,-3.5549,-10.1260,-0.6507,3.1245,-0.0874,-0.5789,rough,14.0,0,10.518
4140,132.48,-3.5570,-10.1167,-0.6502,3.1296,-0.0821,-0.6167,rough,14.0,0,10.515
4150,132.80,-3.5365,-10.1265,-0.6506,3.1227,-0.0941,-0.5096,rough,14.0,0,10.503
4160,133.12,-3.5649,-10.1129,-0.6511,3.1224,-0.0784,-0.5312,rough,14.0,0,10.519
4170,133.44,-3.5617,-10.1029,-0.6503,3.1307,-0.0740,-0.5770,rough,14.0,0,10.511
4180,133.76,-3.5557,-10.1106,-0.6502,3.1339,-0.0773,-0.6420,rough,14.0,0,10.510
4190,134.08,-3.5479,-10.1307,-0.6500,3.1158,-0.0910,-0.4679,rough,14.0,0,10.514
4200,134.40,-3.5551,-10.1258,-0.6514,3.1214,-0.0921,-0.5050,rough,14.0,0,10.518
4210,134.72,-3.5494,-10.1244,-0.6501,3.1317,-0.0902,-0.6261,rough,14.0,0,10.512
4220,135.04,-3.5532,-10.1253,-0.6506,3.1282,-0.0910,-0.5937,rough,14.0,0,10.516
4230,135.36,-3.5476,-10.1245,-0.6511,3.1227,-0.0867,-0.5174,rough,14.0,0,10.511
4240,135.68,-3.5585,-10.1217,-0.6517,3.1206,-0.0774,-0.5476,rough,14.0,0,10.519
4250,136.00,-3.5530,-10.1236,-0.6520,3.1214,-0.0943,-0.5075,rough,14.0,0,10.515
4260,136.32,-3.5495,-10.1230,-0.6505,3.1312,-0.0899,-0.5974,rough,14.0,0,10.512
4270,136.64,-3.5580,-10.1304,-0.6520,3.1174,-0.0899,-0.4423,rough,14.0,0,10.523
4280,136.96,-3.5388,-10.1218,-0.6503,3.1248,-0.0902,-0.5264,rough,14.0,0,10.502
4290,137.28,-3.5418,-10.1250,-0.6496,3.1368,-0.0962,-0.6272,rough,14.0,0,10.506
4300,137.60,-3.5596,-10.1264,-0.6500,3.1303,-0.0780,-0.5786,rough,14.0,0,10.522
4310,137.92,-3.5429,-10.1264,-0.6505,3.1277,-0.0950,-0.5820,rough,14.0,0,10.508
4320,138.24,-3.5529,-10.1243,-0.6515,3.1200,-0.0963,-0.5175,rough,14.0,0,10.515
4330,138.56,-3.5472,-10.1283,-0.6500,3.1322,-0.0963,-0.6177,rough,14.0,0,10.513
4340,138.88,-3.5583,-10.1193,-0.6502,3.1276,-0.0830,-0.6154,rough,14.0,0,10.517
4350,139.20,-3.5350,-10.1258,-0.6502,3.1228,-0.0920,-0.5194,rough,14.0,0,10.501
4360,139.52,-3.5578,-10.1160,-0.6523,3.1266,-0.0946,-0.5770,rough,14.0,0,10.515
4370,139.84,-3.5563,-10.1156,-0.6508,3.1234,-0.0840,-0.5155,rough,14.0,0,10.514
4380,140.16,-3.5542,-10.1191,-0.6508,3.1284,-0.0863,-0.5671,rough,14.0,0,10.514
4390,140.48,-3.5519,-10.1225,-0.6510,3.1253,-0.0873,-0.5494,rough,14.0,0,10.513
4400,140.80,-3.5507,-10.1297,-0.6508,3.1206,-0.0966,-0.5562,rough,14.0,0,10.516
4410,141.12,-3.5587,-10.1229,-0.6509,3.1241,-0.0831,-0.5852,rough,14.0,0,10.519
4420,141.44,-3.5491,-10.1244,-0.6500,3.1338,-0.0919,-0.6325,rough,14.0,0,10.512
4430,141.76,-3.5448,-10.1356,-0.6489,3.1220,-0.0984,-0.5396,rough,14.0,0,10.514
4440,142.08,-3.5584,-10.1186,-0.6525,3.1201,-0.0840,-0.5008,rough,14.0,0,10.517
4450,142.40,-3.5379,-10.1216,-0.6497,3.1338,-0.0895,-0.6413,rough,14.0,0,10.501
4460,142.72,-3.5448,-10.1256,-0.6497,3.1365,-0.0901,-0.6849,rough,14.0,0,10.509
4470,143.04,-3.6042,-10.0907,-0.6516,3.0940,-0.0525,-0.5681,rough,14.0,0,10.541
4480,143.36,-3.6951,-10.0480,-0.6370,3.0323,-0.0156,-0.5382,rough,14.0,0,10.596
4490,143.68,-3.6584,-10.0450,-0.6414,3.0691,-0.0207,-0.5676,rough,14.0,0,10.563
4500,144.00,-3.5414,-10.0519,-0.6474,3.1412,-0.0497,-0.5533,rough,14.0,0,10.467
4510,144.32,-3.5086,-10.1350,-0.6471,3.1358,-0.1109,-0.6222,rough,14.0,0,10.484
4520,144.64,-3.5419,-10.1226,-0.6494,3.1176,-0.0845,-0.5028,rough,14.0,0,10.505
4530,144.96,-3.5619,-10.1188,-0.6501,3.1337,-0.0696,-0.5574,rough,14.0,0,10.520
4540,145.28,-3.5529,-10.1129,-0.6515,3.1128,-0.0843,-0.3977,rough,14.0,0,10.509
4550,145.60,-3.5577,-10.1170,-0.6514,3.1284,-0.0846,-0.5560,rough,14.0,0,10.515
4560,145.92,-3.5539,-10.1245,-0.6505,3.1284,-0.0895,-0.5873,rough,14.0,0,10.516
4570,146.24,-3.5557,-10.1115,-0.6523,3.1201,-0.0808,-0.4192,rough,14.0,0,10.511
4580,146.56,-3.5548,-10.1083,-0.6501,3.1297,-0.0790,-0.5645,rough,14.0,0,10.508
4590,146.88,-3.5625,-10.1186,-0.6496,3.1252,-0.0830,-0.6040,rough,14.0,0,10.520
4600,147.20,-3.5506,-10.1196,-0.6510,3.1295,-0.0906,-0.5433,rough,14.0,0,10.511
4610,147.52,-3.5473,-10.1282,-0.6505,3.1178,-0.0934,-0.4566,rough,14.0,0,10.513
4620,147.84,-3.5619,-10.1188,-0.6509,3.1183,-0.0827,-0.6028,rough,14.0,0,10.520
4630,148.16,-3.5559,-10.1200,-0.6516,3.1299,-0.0859,-0.5558,rough,14.0,0,10.515
4640,148.48,-3.5407,-10.1242,-0.6506,3.1213,-0.0933,-0.4921,rough,14.0,0,10.505
4650,148.80,-3.5590,-10.1236,-0.6493,3.1186,-0.0948,-0.6058,rough,14.0,0,10.520
4660,149.12,-3.5485,-10.1233,-0.6513,3.1197,-0.0912,-0.4725,rough,14.0,0,10.511
4670,149.44,-3.5497,-10.1233,-0.6512,3.1305,-0.0923,-0.5958,rough,14.0,0,10.512
4680,149.76,-3.5624,-10.1049,-0.6521,3.1177,-0.0769,-0.4045,rough,14.0,0,10.513
4690,150.08,-3.5523,-10.1095,-0.6518,3.1342,-0.0810,-0.5779,rough,14.0,0,10.507
4700,150.40,-3.5375,-10.1247,-0.6499,3.1167,-0.0974,-0.4221,rough,14.0,0,10.502
4710,150.72,-3.5516,-10.1275,-0.6512,3.1202,-0.0931,-0.4945,rough,14.0,0,10.516
4720,151.04,-3.5504,-10.1242,-0.6504,3.1310,-0.0898,-0.6183,rough,14.0,0,10.513
4730,151.36,-3.5490,-10.1284,-0.6530,3.1212,-0.0943,-0.5406,rough,14.0,0,10.514
4740,151.68,-3.5481,-10.1239,-0.6513,3.1163,-0.0935,-0.4426,rough,14.0,0,10.511
4750,152.00,-3.5599,-10.1279,-0.6522,3.1315,-0.0939,-0.5842,rough,14.0,0,10.523
4760,152.32,-3.5411,-10.1103,-0.6500,3.1323,-0.0808,-0.6094,rough,14.0,0,10.498
4770,152.64,-3.5573,-10.1254,-0.6519,3.1196,-0.0889,-0.4977,rough,14.0,0,10.520
4780,152.96,-3.5333,-10.1279,-0.6560,-3.1314,-0.0927,-0.5083,rough,14.0,0,10.501
4790,153.28,-3.5608,-10.1201,-0.6506,3.1258,-0.0767,-0.5618,rough,14.0,0,10.520
4800,153.60,-3.5478,-10.1247,-0.6504,3.1309,-0.0928,-0.5899,rough,14.0,0,10.511
4810,153.92,-3.5453,-10.1252,-0.6513,3.1169,-0.0932,-0.4922,rough,14.0,0,10.509
4820,154.24,-3.5529,-10.1202,-0.6511,3.1352,-0.0882,-0.6052,rough,14.0,0,10.513
4830,154.56,-3.5426,-10.1082,-0.6503,3.1416,-0.0872,-0.6079,rough,14.0,0,10.498
4840,154.88,-3.5551,-10.1215,-0.6518,3.1197,-0.0904,-0.4646,rough,14.0,0,10.516
4850,155.20,-3.5555,-10.1240,-0.6513,3.1238,-0.0897,-0.5338,rough,14.0,0,10.517
4860,155.52,-3.5289,-10.1197,-0.6529,3.1402,-0.0882,-0.5143,rough,14.0,0,10.493
4870,155.84,-3.5536,-10.1191,-0.6517,3.1246,-0.0906,-0.5191,rough,14.0,0,10.513
4880,156.16,-3.5499,-10.1275,-0.6507,3.1231,-0.0931,-0.5461,rough,14.0,0,10.514
4890,156.48,-3.5562,-10.1226,-0.6560,-3.1219,-0.0871,-0.6412,rough,14.0,0,10.517
4900,156.80,-3.5589,-10.1064,-0.6529,3.1266,-0.0804,-0.4525,rough,14.0,0,10.511
4910,157.12,-3.5685,-10.1107,-0.6516,3.1285,-0.0804,-0.5866,rough,14.0,0,10.521
4920,157.44,-3.5655,-10.0933,-0.6509,3.1174,-0.0665,-0.4431,rough,14.0,0,10.509
4930,157.76,-3.5653,-10.0969,-0.6563,3.1398,-0.0678,-0.4078,rough,14.0,0,10.511
4940,158.08,-3.5526,-10.1264,-0.6511,3.1250,-0.0937,-0.5562,rough,14.0,0,10.516
4950,158.40,-3.5564,-10.1128,-0.6534,3.1384,-0.0798,-0.5308,rough,14.0,0,10.512
4960,158.72,-3.5524,-10.1266,-0.6510,3.1240,-0.0946,-0.5124,rough,14.0,0,10.516
4970,159.04,-3.5552,-10.1264,-0.6513,3.1289,-0.0944,-0.5623,rough,14.0,0,10.518
4980,159.36,-3.5582,-10.1176,-0.6516,3.1236,-0.0874,-0.5279,rough,14.0,0,10.516
4990,159.68,-3.5494,-10.1266,-0.6506,3.1250,-0.0924,-0.5593,rough,14.0,0,10.514
5000,160.00,-3.5523,-10.1242,-0.6513,3.1194,-0.0913,-0.4783,rough,14.0,0,10.515
5010,160.32,-3.5437,-10.1232,-0.6505,3.1363,-0.0910,-0.6661,rough,14.0,0,10.507
5020,160.64,-3.5519,-10.1269,-0.6510,3.1211,-0.0939,-0.4838,rough,14.0,0,10.516
5030,160.96,-3.5441,-10.1218,-0.6509,3.1246,-0.0911,-0.5069,rough,14.0,0,10.506
5040,161.28,-3.5425,-10.1300,-0.6492,3.1357,-0.1011,-0.6435,rough,14.0,0,10.510
5050,161.60,-3.5602,-10.1202,-0.6497,3.1251,-0.0821,-0.6103,rough,14.0,0,10.519
5060,161.92,-3.5355,-10.1235,-0.6515,3.1367,-0.0906,-0.5627,rough,14.0,0,10.500
5070,162.24,-3.5600,-10.1213,-0.6493,3.1265,-0.0801,-0.5995,rough,14.0,0,10.520
5080,162.56,-3.5575,-10.1217,-0.6517,3.1243,-0.0825,-0.5785,rough,14.0,0,10.518
5090,162.88,-3.5525,-10.1217,-0.6508,3.1283,-0.0914,-0.5533,rough,14.0,0,10.514
5100,163.20,-3.5552,-10.1133,-0.6507,3.1220,-0.0825,-0.4991,rough,14.0,0,10.511
5110,163.52,-3.5532,-10.1225,-0.6514,3.1251,-0.0940,-0.5111,rough,14.0,0,10.515
5120,163.84,-3.5563,-10.1187,-0.6510,3.1223,-0.0869,-0.5107,rough,14.0,0,10.515
5130,164.16,-3.5432,-10.1234,-0.6507,3.1326,-0.0913,-0.5853,rough,14.0,0,10.507
5140,164.48,-3.5531,-10.1234,-0.6515,3.1160,-0.0934,-0.4252,rough,14.0,0,10.515
5150,164.80,-3.5579,-10.1194,-0.6503,3.1260,-0.0868,-0.6176,rough,14.0,0,10.517
5160,165.12,-3.5450,-10.1246,-0.6510,3.1214,-0.0909,-0.4834,rough,14.0,0,10.509
5170,165.44,-3.5492,-10.1243,-0.6557,3.1291,-0.1238,-0.5839,rough,14.0,0,10.512
5180,165.76,-3.5459,-10.1242,-0.6503,3.1324,-0.0941,-0.6147,rough,14.0,0,10.509
5190,166.08,-3.5507,-10.1185,-0.6510,3.1249,-0.0850,-0.5338,rough,14.0,0,10.510
5200,166.40,-3.5450,-10.1286,-0.6502,3.1215,-0.0939,-0.5064,rough,14.0,0,10.511
5210,166.72,-3.5613,-10.1210,-0.6553,-3.1357,-0.0858,-0.5701,rough,14.0,0,10.521
5220,167.04,-3.5506,-10.1283,-0.6501,3.1323,-0.0971,-0.6192,rough,14.0,0,10.515
5230,167.36,-3.5488,-10.1237,-0.6512,3.1332,-0.0899,-0.6104,rough,14.0,0,10.511
5240,167.68,-3.5476,-10.1241,-0.6575,-3.1386,-0.0809,-0.4761,rough,14.0,0,10.511
5250,168.00,-3.5654,-10.1235,-0.6512,3.1242,-0.0830,-0.6004,rough,14.0,0,10.525
5260,168.32,-3.5470,-10.1205,-0.6508,3.1254,-0.0870,-0.5286,rough,14.0,0,10.508
5270,168.64,-3.5567,-10.1273,-0.6497,3.1272,-0.0857,-0.5997,rough,14.0,0,10.520
5280,168.96,-3.5280,-10.1240,-0.6495,3.1220,-0.0929,-0.5063,rough,14.0,0,10.494
5290,169.28,-3.5398,-10.1222,-0.6498,3.1308,-0.0919,-0.5701,rough,14.0,0,10.503
5300,169.60,-3.5603,-10.1226,-0.6525,3.1248,-0.0944,-0.5451,rough,14.0,0,10.521
5310,169.92,-3.5456,-10.1245,-0.6510,3.1216,-0.0902,-0.5011,rough,14.0,0,10.509
5320,170.24,-3.5440,-10.1185,-0.6518,-3.1389,-0.0861,-0.6240,rough,14.0,0,10.505
5330,170.56,-3.5528,-10.1285,-0.6505,3.1165,-0.0890,-0.4924,rough,14.0,0,10.517
5340,170.88,-3.5602,-10.1096,-0.6505,3.1317,-0.0753,-0.6093,rough,14.0,0,10.514
5350,171.20,-3.5670,-10.1020,-0.6506,3.1301,-0.0692,-0.5760,rough,14.0,0,10.515
5360,171.52,-3.5543,-10.1319,-0.6501,3.1196,-0.0968,-0.5288,rough,14.0,0,10.521
5370,171.84,-3.5625,-10.1429,-0.6505,3.1110,-0.0922,-0.4339,rough,14.0,0,10.533
5380,172.16,-3.5363,-10.1209,-0.6506,3.1276,-0.0887,-0.5123,rough,14.0,0,10.499
5390,172.48,-3.5441,-10.1088,-0.6494,3.1365,-0.0774,-0.6374,rough,14.0,0,10.500
5400,172.80,-3.5583,-10.1312,-0.6499,3.1216,-0.0885,-0.6011,rough,14.0,0,10.524
5410,173.12,-3.5435,-10.1227,-0.6509,3.1292,-0.0892,-0.5398,rough,14.0,0,10.506
5420,173.44,-3.5476,-10.1176,-0.6510,3.1233,-0.0861,-0.4833,rough,14.0,0,10.507
5430,173.76,-3.5504,-10.1273,-0.6499,3.1279,-0.0900,-0.6114,rough,14.0,0,10.515
5440,174.08,-3.5482,-10.1283,-0.6507,3.1317,-0.0968,-0.5800,rough,14.0,0,10.513
5450,174.40,-3.5584,-10.1163,-0.6522,3.1273,-0.0814,-0.5429,rough,14.0,0,10.516
5460,174.72,-3.5537,-10.1244,-0.6506,3.1276,-0.0888,-0.5837,rough,14.0,0,10.516
5470,175.04,-3.5571,-10.1139,-0.6525,3.1177,-0.0825,-0.4038,rough,14.0,0,10.513
5480,175.36,-3.5554,-10.1240,-0.6573,3.0958,-0.0964,-0.5076,rough,14.0,0,10.517
5490,175.68,-3.5340,-10.1212,-0.6495,3.1268,-0.0883,-0.5614,rough,14.0,0,10.498
5500,176.00,-3.5568,-10.1249,-0.6515,3.1299,-0.0905,-0.5933,rough,14.0,0,10.519
5510,176.32,-3.5525,-10.1191,-0.6511,3.1245,-0.0871,-0.5268,rough,14.0,0,10.512
5520,176.64,-3.5527,-10.1251,-0.6504,3.1276,-0.0917,-0.5844,rough,14.0,0,10.516
5530,176.96,-3.5462,-10.1206,-0.6506,3.1373,-0.0897,-0.6580,rough,14.0,0,10.508
5540,177.28,-3.5530,-10.1236,-0.6577,3.1410,-0.0793,-0.4598,rough,14.0,0,10.515
5550,177.60,-3.5547,-10.1273,-0.6530,3.1100,-0.0907,-0.5767,rough,14.0,0,10.518
5560,177.92,-3.5484,-10.1241,-0.6507,3.1279,-0.0912,-0.5822,rough,14.0,0,10.511
5570,178.24,-3.5505,-10.1222,-0.6510,3.1258,-0.0903,-0.5586,rough,14.0,0,10.512
5580,178.56,-3.5583,-10.1259,-0.6493,3.1249,-0.0839,-0.5883,rough,14.0,0,10.521
5590,178.88,-3.5543,-10.1250,-0.6509,3.1267,-0.0903,-0.5876,rough,14.0,0,10.517
5600,179.20,-3.5527,-10.1258,-0.6509,3.1250,-0.0925,-0.5451,rough,14.0,0,10.516
5610,179.52,-3.5488,-10.1218,-0.6523,3.1206,-0.1015,-0.5181,rough,14.0,0,10.511
5620,179.84,-3.5399,-10.1251,-0.6573,-3.1343,-0.0830,-0.5017,rough,14.0,0,10.505
5630,180.16,-3.5561,-10.1171,-0.6513,3.1303,-0.0844,-0.5632,rough,14.0,0,10.514
5640,180.48,-3.5515,-10.1264,-0.6529,3.1154,-0.0955,-0.5940,rough,14.0,0,10.515
5650,180.80,-3.5247,-10.1207,-0.6491,3.1190,-0.0906,-0.4703,rough,14.0,0,10.489
5660,181.12,-3.5417,-10.1294,-0.6496,3.1302,-0.1000,-0.5741,rough,14.0,0,10.509
5670,181.44,-3.5496,-10.1249,-0.6511,3.1201,-0.0926,-0.4592,rough,14.0,0,10.513
5680,181.76,-3.5729,-10.1222,-0.6500,3.1059,-0.0840,-0.4970,rough,14.0,0,10.531
5690,182.08,-3.5296,-10.1193,-0.6497,3.1384,-0.0882,-0.6351,rough,14.0,0,10.493
5700,182.40,-3.5342,-10.1275,-0.6495,3.1237,-0.0960,-0.5100,rough,14.0,0,10.501
5710,182.72,-3.5665,-10.1223,-0.6519,3.1318,-0.0837,-0.5870,rough,14.0,0,10.526
5720,183.04,-3.5453,-10.1279,-0.6504,3.1303,-0.1048,-0.5181,rough,14.0,0,10.511
5730,183.36,-3.5662,-10.1175,-0.6492,3.1258,-0.0733,-0.5822,rough,14.0,0,10.523
5740,183.68,-3.5499,-10.1152,-0.6524,3.1231,-0.0829,-0.4175,rough,14.0,0,10.508
5750,184.00,-3.5627,-10.1212,-0.6501,3.1310,-0.0761,-0.6503,rough,14.0,0,10.522
5760,184.32,-3.5453,-10.1269,-0.6502,3.1288,-0.0962,-0.5807,rough,14.0,0,10.510
5770,184.64,-3.5511,-10.1272,-0.6543,3.1329,-0.1127,-0.6369,rough,14.0,0,10.515
5780,184.96,-3.5465,-10.1217,-0.6527,3.1347,-0.0864,-0.5372,rough,14.0,0,10.509
5790,185.28,-3.5305,-10.1272,-0.6502,3.1221,-0.0936,-0.4956,rough,14.0,0,10.498
5800,185.60,-3.5517,-10.1172,-0.6504,3.1294,-0.0846,-0.5706,rough,14.0,0,10.510
5810,185.92,-3.5643,-10.1151,-0.6510,3.1204,-0.0784,-0.5283,rough,14.0,0,10.520
5820,186.24,-3.5483,-10.1199,-0.6543,3.1396,-0.1111,-0.6563,rough,14.0,0,10.509
5830,186.56,-3.5519,-10.1229,-0.6511,3.1271,-0.0910,-0.5539,rough,14.0,0,10.514
5840,186.88,-3.5443,-10.1256,-0.6511,3.1269,-0.0922,-0.5230,rough,14.0,0,10.509
5850,187.20,-3.5563,-10.1276,-0.6491,3.1295,-0.0820,-0.6201,rough,14.0,0,10.520
5860,187.52,-3.5382,-10.1160,-0.6494,3.1332,-0.0852,-0.6146,rough,14.0,0,10.498
5870,187.84,-3.5593,-10.1279,-0.6557,-3.1317,-0.0968,-0.6282,rough,14.0,0,10.523
5880,188.16,-3.5571,-10.1171,-0.6512,3.1294,-0.0829,-0.5494,rough,14.0,0,10.515
5890,188.48,-3.5530,-10.1188,-0.6510,3.1285,-0.0864,-0.5785,rough,14.0,0,10.512
5900,188.80,-3.5538,-10.1278,-0.6496,3.1261,-0.0873,-0.5875,rough,14.0,0,10.518
5910,189.12,-3.5526,-10.1231,-0.6513,3.1263,-0.0906,-0.5482,rough,14.0,0,10.514
5920,189.44,-3.5412,-10.1223,-0.6514,3.1224,-0.0901,-0.4745,rough,14.0,0,10.504
5930,189.76,-3.5496,-10.1260,-0.6503,3.1333,-0.0975,-0.5878,rough,14.0,0,10.513
5940,190.08,-3.5384,-10.1192,-0.6510,3.1250,-0.0944,-0.5309,rough,14.0,0,10.500
5950,190.40,-3.5415,-10.1258,-0.6496,3.1352,-0.0963,-0.6213,rough,14.0,0,10.506
5960,190.72,-3.5670,-10.1231,-0.6497,3.1095,-0.0851,-0.5762,rough,14.0,0,10.527
5970,191.04,-3.5531,-10.1165,-0.6510,3.1396,-0.0780,-0.6796,rough,14.0,0,10.511
5980,191.36,-3.5542,-10.1238,-0.6501,3.1292,-0.0869,-0.6213,rough,14.0,0,10.516
5990,191.68,-3.5355,-10.1264,-0.6502,3.1240,-0.0949,-0.5254,rough,14.0,0,10.502
6000,192.00,-3.5459,-10.1265,-0.6505,3.1326,-0.0978,-0.6202,rough,14.0,0,10.510
6010,192.32,-3.5567,-10.1237,-0.6516,3.1198,-0.0912,-0.4792,rough,14.0,0,10.518
6020,192.64,-3.5467,-10.1263,-0.6498,3.1349,-0.0908,-0.6778,rough,14.0,0,10.511
6030,192.96,-3.5571,-10.1223,-0.6515,3.1232,-0.0863,-0.5620,rough,14.0,0,10.518
6040,193.28,-3.5312,-10.1166,-0.6504,3.1241,-0.0887,-0.5626,rough,14.0,0,10.493
6050,193.60,-3.5211,-10.1303,-0.6509,3.1329,-0.0920,-0.5353,rough,14.0,0,10.492
6060,193.92,-3.5305,-10.1230,-0.6489,-3.1408,-0.0956,-0.6552,rough,14.0,0,10.496
6070,194.24,-3.5619,-10.1247,-0.6514,3.1258,-0.0874,-0.5816,rough,14.0,0,10.523
6080,194.56,-3.5481,-10.1210,-0.6508,3.1248,-0.0865,-0.5339,rough,14.0,0,10.509
6090,194.88,-3.5465,-10.1222,-0.6504,3.1229,-0.0888,-0.5160,rough,14.0,0,10.509
6100,195.20,-3.5462,-10.1177,-0.6504,3.1310,-0.0897,-0.5878,rough,14.0,0,10.506
6110,195.52,-3.5458,-10.1249,-0.6502,3.1330,-0.0962,-0.5858,rough,14.0,0,10.510
6120,195.84,-3.5516,-10.1235,-0.6510,3.1200,-0.0879,-0.4829,rough,14.0,0,10.514
6130,196.16,-3.5515,-10.1248,-0.6509,3.1262,-0.0937,-0.5383,rough,14.0,0,10.514
6140,196.48,-3.5424,-10.1240,-0.6505,3.1293,-0.0921,-0.5752,rough,14.0,0,10.506
6150,196.80,-3.5574,-10.1134,-0.6519,3.1167,-0.0852,-0.4245,rough,14.0,0,10.513
6160,197.12,-3.5514,-10.1207,-0.6529,3.1249,-0.0865,-0.6144,rough,14.0,0,10.512
6170,197.44,-3.5462,-10.1224,-0.6503,-3.1408,-0.0944,-0.6394,rough,14.0,0,10.509
6180,197.76,-3.5582,-10.1201,-0.6517,3.1310,-0.0833,-0.5595,rough,14.0,0,10.518
6190,198.08,-3.5603,-10.1106,-0.6513,3.1208,-0.0802,-0.4786,rough,14.0,0,10.514
6200,198.40,-3.5643,-10.1104,-0.6511,3.1257,-0.0779,-0.5610,rough,14.0,0,10.517
6210,198.72,-3.5511,-10.1276,-0.6513,3.1229,-0.0950,-0.5261,rough,14.0,0,10.516
6220,199.04,-3.5304,-10.1267,-0.6547,3.1227,-0.1262,-0.5114,rough,14.0,0,10.498
6230,199.36,-3.5516,-10.1181,-0.6516,3.1341,-0.0845,-0.5955,rough,14.0,0,10.511
6240,199.68,-3.5519,-10.1271,-0.6504,3.1272,-0.0924,-0.5926,rough,14.0,0,10.516
6250,200.00,-3.5456,-10.1211,-0.6514,3.1212,-0.0874,-0.4624,rough,14.0,0,10.507
6260,200.32,-3.5574,-10.1282,-0.6495,3.1258,-0.0825,-0.6365,rough,14.0,0,10.521
6270,200.64,-3.5605,-10.1226,-0.6511,3.1186,-0.0873,-0.5188,rough,14.0,0,10.521
6280,200.96,-3.5283,-10.1172,-0.6486,3.1363,-0.0832,-0.6520,rough,14.0,0,10.491
6290,201.28,-3.5553,-10.1281,-0.6506,3.1168,-0.0829,-0.5733,rough,14.0,0,10.519
6300,201.60,-3.5368,-10.1220,-0.6498,3.1291,-0.0904,-0.6036,rough,14.0,0,10.500
6310,201.92,-3.5109,-10.1231,-0.6474,-3.1372,-0.0967,-0.6960,rough,14.0,0,10.479
6320,202.24,-3.5328,-10.1241,-0.6492,3.1314,-0.0918,-0.6013,rough,14.0,0,10.498
6330,202.56,-3.5575,-10.1275,-0.6493,3.1240,-0.0901,-0.6242,rough,14.0,0,10.521
6340,202.88,-3.5371,-10.1214,-0.6501,3.1173,-0.0889,-0.4586,rough,14.0,0,10.500
6350,203.20,-3.5556,-10.1191,-0.6506,3.1283,-0.0822,-0.5942,rough,14.0,0,10.515
6360,203.52,-3.5657,-10.0987,-0.6511,3.1179,-0.0703,-0.4500,rough,14.0,0,10.513
6370,203.84,-3.5526,-10.1054,-0.6512,3.1287,-0.0776,-0.5049,rough,14.0,0,10.505
6380,204.16,-3.5512,-10.1295,-0.6501,3.1317,-0.0922,-0.6697,rough,14.0,0,10.517
6390,204.48,-3.5521,-10.1251,-0.6513,3.1190,-0.0927,-0.4604,rough,14.0,0,10.515
6400,204.80,-3.5502,-10.1244,-0.6512,3.1253,-0.0900,-0.5517,rough,14.0,0,10.513
6410,205.12,-3.5579,-10.1247,-0.6521,3.1296,-0.0912,-0.5614,rough,14.0,0,10.520
6420,205.44,-3.5368,-10.1258,-0.6525,3.1269,-0.0957,-0.5269,rough,14.0,0,10.502
6430,205.76,-3.5686,-10.1188,-0.6509,3.1185,-0.0779,-0.5451,rough,14.0,0,10.526
6440,206.08,-3.5373,-10.1125,-0.6506,3.1269,-0.0863,-0.5300,rough,14.0,0,10.496
6450,206.40,-3.5391,-10.1271,-0.6504,3.1206,-0.0930,-0.4768,rough,14.0,0,10.505
6460,206.72,-3.5567,-10.1263,-0.6507,3.1199,-0.0817,-0.5964,rough,14.0,0,10.520
6470,207.04,-3.5469,-10.1287,-0.6502,3.1293,-0.0942,-0.6048,rough,14.0,0,10.513
6480,207.36,-3.5532,-10.1192,-0.6518,3.1280,-0.0881,-0.5118,rough,14.0,0,10.513
6490,207.68,-3.5407,-10.1269,-0.6514,3.1175,-0.0917,-0.5275,rough,14.0,0,10.506
6500,208.00,-3.5403,-10.1275,-0.6500,3.1285,-0.0956,-0.5813,rough,14.0,0,10.506
6510,208.32,-3.5567,-10.1226,-0.6514,3.1253,-0.0855,-0.5564,rough,14.0,0,10.518
6520,208.64,-3.5504,-10.1210,-0.6503,3.1334,-0.0872,-0.6248,rough,14.0,0,10.511
6530,208.96,-3.5587,-10.1243,-0.6499,3.1308,-0.0793,-0.5961,rough,14.0,0,10.520
6540,209.28,-3.5375,-10.1282,-0.6496,3.1314,-0.0975,-0.6090,rough,14.0,0,10.504
6550,209.60,-3.5578,-10.1151,-0.6515,3.1262,-0.0823,-0.5456,rough,14.0,0,10.515
6560,209.92,-3.5618,-10.1110,-0.6513,3.1199,-0.0820,-0.4712,rough,14.0,0,10.516
6570,210.24,-3.5539,-10.1115,-0.6509,3.1137,-0.0829,-0.4104,rough,14.0,0,10.509
6580,210.56,-3.5593,-10.1175,-0.6516,3.1275,-0.0845,-0.5475,rough,14.0,0,10.517
6590,210.88,-3.5491,-10.1291,-0.6503,3.1283,-0.0976,-0.5754,rough,14.0,0,10.515
6600,211.20,-3.5445,-10.1191,-0.6514,3.1168,-0.0891,-0.4209,rough,14.0,0,10.505
6610,211.52,-3.5565,-10.1296,-0.6502,3.1209,-0.0900,-0.5571,rough,14.0,0,10.521
6620,211.84,-3.5455,-10.1299,-0.6506,3.1262,-0.1005,-0.5848,rough,14.0,0,10.512
6630,212.16,-3.5596,-10.1112,-0.6510,3.1316,-0.0799,-0.5835,rough,14.0,0,10.514
6640,212.48,-3.5502,-10.1205,-0.6503,3.1332,-0.0863,-0.6360,rough,14.0,0,10.511
6650,212.80,-3.5591,-10.1093,-0.6509,3.1260,-0.0807,-0.5316,rough,14.0,0,10.513
6660,213.12,-3.5666,-10.0982,-0.6510,3.1320,-0.0685,-0.5682,rough,14.0,0,10.513
6670,213.44,-3.5633,-10.1142,-0.6531,3.1340,-0.0934,-0.6290,rough,14.0,0,10.519
6680,213.76,-3.5482,-10.1050,-0.6503,3.1361,-0.0783,-0.6328,rough,14.0,0,10.501
6690,214.08,-3.5485,-10.1316,-0.6517,3.1267,-0.1070,-0.5980,rough,14.0,0,10.515
6700,214.40,-3.5531,-10.1223,-0.6507,3.1287,-0.0881,-0.5898,rough,14.0,0,10.514
6710,214.72,-3.5453,-10.1229,-0.6511,3.1390,-0.0835,-0.6378,rough,14.0,0,10.508
6720,215.04,-3.5391,-10.1226,-0.6505,3.1264,-0.0925,-0.5309,rough,14.0,0,10.503
6730,215.36,-3.5616,-10.1178,-0.6525,3.1298,-0.0857,-0.5344,rough,14.0,0,10.519
6740,215.68,-3.5578,-10.1205,-0.6509,3.1247,-0.0843,-0.5674,rough,14.0,0,10.517
6750,216.00,-3.5406,-10.1244,-0.6532,3.1289,-0.0938,-0.5607,rough,14.0,0,10.505
6760,216.32,-3.5439,-10.1240,-0.6502,3.1284,-0.0962,-0.5375,rough,14.0,0,10.507
6770,216.64,-3.5590,-10.0992,-0.6518,3.1252,-0.0808,-0.5239,rough,14.0,0,10.507
6780,216.96,-3.5793,-10.0783,-0.6503,3.1284,-0.0525,-0.5638,rough,14.0,0,10.513
6790,217.28,-3.5703,-10.0913,-0.6502,3.1303,-0.0618,-0.5920,rough,14.0,0,10.513
6800,217.60,-3.5615,-10.1130,-0.6519,3.1193,-0.0855,-0.4980,rough,14.0,0,10.517
6810,217.92,-3.5409,-10.1266,-0.6502,3.1195,-0.0946,-0.4725,rough,14.0,0,10.506
6820,218.24,-3.5542,-10.1222,-0.6511,3.1251,-0.0921,-0.5138,rough,14.0,0,10.515
6830,218.56,-3.5483,-10.1278,-0.6499,3.1348,-0.0925,-0.6740,rough,14.0,0,10.513
6840,218.88,-3.5530,-10.1243,-0.6519,3.1260,-0.0907,-0.5491,rough,14.0,0,10.515
6850,219.20,-3.5611,-10.1189,-0.6517,3.1104,-0.0850,-0.4132,rough,14.0,0,10.519
6860,219.52,-3.5546,-10.1141,-0.6517,3.1360,-0.0777,-0.5781,rough,14.0,0,10.511
6870,219.84,-3.5392,-10.1283,-0.6506,3.1229,-0.0925,-0.5070,rough,14.0,0,10.506
6880,220.16,-3.5576,-10.1187,-0.6520,3.1278,-0.0933,-0.6027,rough,14.0,0,10.516
6890,220.48,-3.5502,-10.1222,-0.6509,3.1302,-0.0913,-0.5851,rough,14.0,0,10.512
6900,220.80,-3.5490,-10.1232,-0.6508,3.1300,-0.0923,-0.5762,rough,14.0,0,10.511
6910,221.12,-3.5587,-10.1199,-0.6528,3.1224,-0.0841,-0.5682,rough,14.0,0,10.518
6920,221.44,-3.5470,-10.1214,-0.6500,3.1326,-0.0857,-0.6328,rough,14.0,0,10.509
6930,221.76,-3.5531,-10.1171,-0.6516,3.1320,-0.0909,-0.6283,rough,14.0,0,10.512
6940,222.08,-3.5358,-10.1219,-0.6510,3.1327,-0.1002,-0.6399,rough,14.0,0,10.500
6950,222.40,-3.5504,-10.1239,-0.6511,3.1327,-0.0872,-0.6175,rough,14.0,0,10.513
6960,222.72,-3.5453,-10.1241,-0.6511,3.1237,-0.0937,-0.5389,rough,14.0,0,10.509
6970,223.04,-3.5519,-10.1221,-0.6513,3.1172,-0.0910,-0.4493,rough,14.0,0,10.513
6980,223.36,-3.5570,-10.1178,-0.6513,3.1307,-0.0849,-0.5842,rough,14.0,0,10.515
6990,223.68,-3.5594,-10.1174,-0.6526,3.1284,-0.0919,-0.5778,rough,14.0,0,10.517
7000,224.00,-3.5654,-10.0954,-0.6510,3.1370,-0.0683,-0.5986,rough,14.0,0,10.510
7010,224.32,-3.5646,-10.1125,-0.6517,3.1163,-0.0811,-0.4776,rough,14.0,0,10.519
7020,224.64,-3.5399,-10.1230,-0.6523,3.1287,-0.0934,-0.5654,rough,14.0,0,10.504
7030,224.96,-3.5294,-10.1228,-0.6497,3.1152,-0.0902,-0.4366,rough,14.0,0,10.495
7040,225.28,-3.5371,-10.1221,-0.6503,3.1337,-0.0887,-0.5857,rough,14.0,0,10.501
7050,225.60,-3.5522,-10.1229,-0.6513,3.1324,-0.0843,-0.5777,rough,14.0,0,10.514
7060,225.92,-3.5333,-10.1262,-0.6498,3.1240,-0.0899,-0.5364,rough,14.0,0,10.500
7070,226.24,-3.5538,-10.1183,-0.6509,3.1233,-0.0912,-0.4747,rough,14.0,0,10.513
7080,226.56,-3.5551,-10.1232,-0.6504,3.1254,-0.0886,-0.5964,rough,14.0,0,10.517
7090,226.88,-3.5310,-10.1247,-0.6496,3.1204,-0.0918,-0.4730,rough,14.0,0,10.497
7100,227.20,-3.5493,-10.1221,-0.6505,3.1304,-0.0908,-0.6041,rough,14.0,0,10.511
7110,227.52,-3.5561,-10.1208,-0.6516,3.1200,-0.0892,-0.4710,rough,14.0,0,10.516
7120,227.84,-3.5501,-10.1270,-0.6520,3.1154,-0.0947,-0.5019,rough,14.0,0,10.514
7130,228.16,-3.5560,-10.1258,-0.6516,3.1277,-0.0924,-0.5563,rough,14.0,0,10.519
7140,228.48,-3.5453,-10.1265,-0.6525,3.1304,-0.0940,-0.5024,rough,14.0,0,10.510
7150,228.80,-3.5492,-10.1195,-0.6504,3.1385,-0.0882,-0.6703,rough,14.0,0,10.510
7160,229.12,-3.5565,-10.1400,-0.6533,3.1021,-0.0935,-0.5005,rough,14.0,0,10.527
7170,229.44,-3.5481,-10.1185,-0.6503,3.1268,-0.0797,-0.5978,rough,14.0,0,10.508
7180,229.76,-3.5622,-10.1124,-0.6514,3.1296,-0.0766,-0.5782,rough,14.0,0,10.517
7190,230.08,-3.5503,-10.1284,-0.6508,3.1249,-0.0974,-0.5305,rough,14.0,0,10.515
7200,230.40,-3.5578,-10.1145,-0.6521,3.1351,-0.0789,-0.5606,rough,14.0,0,10.514
7210,230.72,-3.5642,-10.1037,-0.6537,3.1078,-0.0708,-0.4965,rough,14.0,0,10.514
7220,231.04,-3.5675,-10.1032,-0.6514,3.1226,-0.0743,-0.5047,rough,14.0,0,10.516
7230,231.36,-3.5661,-10.1039,-0.6508,3.1282,-0.0638,-0.6210,rough,14.0,0,10.516
7240,231.68,-3.5481,-10.1285,-0.6509,3.1263,-0.0973,-0.5857,rough,14.0,0,10.513
7250,232.00,-3.5397,-10.1230,-0.6502,3.1362,-0.0918,-0.6055,rough,14.0,0,10.503
7260,232.32,-3.5544,-10.1283,-0.6524,3.1217,-0.0850,-0.5128,rough,14.0,0,10.519
7270,232.64,-3.5502,-10.1256,-0.6525,3.1193,-0.1092,-0.5394,rough,14.0,0,10.514
7280,232.96,-3.5468,-10.1233,-0.6505,3.1349,-0.0886,-0.6325,rough,14.0,0,10.510
7290,233.28,-3.5567,-10.1286,-0.6501,3.1225,-0.0889,-0.5570,rough,14.0,0,10.521
7300,233.60,-3.5350,-10.1187,-0.6555,-3.1062,-0.0829,-0.7409,rough,14.0,0,10.497
7310,233.92,-3.5284,-10.1260,-0.6489,-3.1414,-0.0950,-0.6691,rough,14.0,0,10.495
7320,234.24,-3.5641,-10.1208,-0.6521,3.1183,-0.0887,-0.4611,rough,14.0,0,10.523
7330,234.56,-3.5623,-10.1133,-0.6516,3.1315,-0.0712,-0.5092,rough,14.0,0,10.517
7340,234.88,-3.5545,-10.1376,-0.6527,3.1178,-0.0623,-0.6589,rough,14.0,0,10.524
7350,235.20,-3.5496,-10.1268,-0.6516,3.1191,-0.0992,-0.5342,rough,14.0,0,10.514
7360,235.52,-3.5153,-10.1248,-0.6481,3.1274,-0.0910,-0.5943,rough,14.0,0,10.484
7370,235.84,-3.5352,-10.1250,-0.6499,3.1217,-0.0926,-0.5043,rough,14.0,0,10.501
7380,236.16,-3.5483,-10.1204,-0.6517,3.1269,-0.0934,-0.5495,rough,14.0,0,10.509
7390,236.48,-3.5494,-10.1260,-0.6506,3.1322,-0.0971,-0.5882,rough,14.0,0,10.513
7400,236.80,-3.5640,-10.1170,-0.6514,3.1295,-0.0819,-0.5816,rough,14.0,0,10.521
7410,237.12,-3.5614,-10.1091,-0.6508,3.1334,-0.0782,-0.6070,rough,14.0,0,10.514
7420,237.44,-3.5556,-10.1214,-0.6571,3.0975,-0.0934,-0.5265,rough,14.0,0,10.516
7430,237.76,-3.5388,-10.1265,-0.6504,3.1391,-0.0938,-0.6544,rough,14.0,0,10.505
7440,238.08,-3.5454,-10.1254,-0.6506,3.1189,-0.0916,-0.4851,rough,14.0,0,10.510
7450,238.40,-3.5389,-10.1217,-0.6513,3.1232,-0.0972,-0.5148,rough,14.0,0,10.502
7460,238.72,-3.5375,-10.1264,-0.6529,-3.1413,-0.0821,-0.6354,rough,14.0,0,10.503
7470,239.04,-3.5441,-10.1246,-0.6507,3.1235,-0.0904,-0.5176,rough,14.0,0,10.508
7480,239.36,-3.5478,-10.1271,-0.6512,3.1254,-0.0992,-0.5709,rough,14.0,0,10.512
7490,239.68,-3.5495,-10.1213,-0.6509,3.1338,-0.0873,-0.6030,rough,14.0,0,10.511
7500,240.00,-3.5478,-10.1287,-0.6530,3.1249,-0.0927,-0.6172,rough,14.0,0,10.513
7510,240.32,-3.5285,-10.1220,-0.6494,3.1268,-0.0890,-0.5606,rough,14.0,0,10.493
7520,240.64,-3.5558,-10.1241,-0.6512,3.1239,-0.0911,-0.5263,rough,14.0,0,10.518
7530,240.96,-3.5502,-10.1266,-0.6512,3.1168,-0.0959,-0.4266,rough,14.0,0,10.514
7540,241.28,-3.5634,-10.0814,-0.6503,3.1285,-0.0612,-0.4875,rough,14.0,0,10.501
7550,241.60,-3.6057,-10.0645,-0.6483,3.1217,-0.0241,-0.5311,rough,14.0,0,10.528
7560,241.92,-3.5485,-10.0780,-0.6494,3.1372,-0.0594,-0.6133,rough,14.0,0,10.487
7570,242.24,-3.5349,-10.1364,-0.6483,3.1195,-0.1008,-0.4735,rough,14.0,0,10.506
7580,242.56,-3.5647,-10.1016,-0.6521,3.1292,-0.0724,-0.5035,rough,14.0,0,10.513
7590,242.88,-3.5525,-10.1038,-0.6527,3.1389,-0.0742,-0.5529,rough,14.0,0,10.504
