step,time_s,x,y,z,roll,pitch,yaw,terrain,speed,target_idx,dist_to_target
10,0.32,-1.4186,0.8639,0.2143,0.1209,-0.1351,-0.0831,rough,14.0,0,6.050
20,0.64,-1.3902,0.8603,0.2018,0.1214,-0.1983,-0.0229,rough,14.0,0,6.075
30,0.96,-1.2463,0.8464,0.2267,0.0897,-0.1577,0.1758,rough,14.0,0,6.204
40,1.28,-1.0391,0.8784,0.2507,0.0507,-0.1431,0.5485,rough,14.0,0,6.363
50,1.60,-0.8373,0.9998,0.2819,0.0451,-0.0846,0.8415,rough,14.0,0,6.475
60,1.92,-0.6866,1.1387,0.2933,0.0702,-0.0677,1.0906,rough,14.0,0,6.541
70,2.24,-0.5876,1.3231,0.3112,0.0616,-0.1088,1.2940,rough,14.0,0,6.545
80,2.56,-0.5418,1.6242,0.3402,-0.0313,-0.0647,1.5707,rough,14.0,0,6.461
90,2.88,-0.5571,1.9250,0.3707,-0.0650,-0.1283,1.7383,rough,14.0,0,6.333
100,3.20,-0.6362,2.2198,0.3859,-0.1394,-0.0537,1.8125,rough,14.0,0,6.159
110,3.52,-0.7224,2.5443,0.4053,-0.0733,-0.1133,1.9818,rough,14.0,0,5.980
120,3.84,-0.8479,2.8745,0.4314,0.0352,-0.1867,2.1236,rough,14.0,0,5.775
130,4.16,-1.0409,3.1971,0.4927,0.0717,-0.2148,2.2534,rough,14.0,0,5.521
140,4.48,-1.2851,3.5210,0.5276,0.1939,-0.0717,2.3746,rough,14.0,0,5.229
150,4.80,-1.5719,3.7968,0.5654,0.1958,-0.0863,2.4809,rough,14.0,0,4.915
160,5.12,-1.8546,4.0408,0.5969,0.2541,-0.1596,2.5316,rough,14.0,0,4.619
170,5.44,-2.1499,4.2072,0.6687,0.0709,-0.3209,2.5240,rough,14.0,0,4.322
180,5.76,-2.4290,4.4062,0.7724,-0.0121,-0.2056,2.5440,rough,14.0,0,4.048
190,6.08,-2.7312,4.5775,0.8907,-0.0634,-0.3285,2.6692,rough,14.0,0,3.760
200,6.40,-3.1097,4.7968,0.9326,0.0908,0.1043,2.7112,rough,14.0,0,3.416
210,6.72,-3.3936,4.9466,0.9547,0.1374,-0.2443,2.7562,rough,14.0,0,3.169
220,7.04,-3.7171,5.1024,1.0205,0.2003,-0.2718,2.8122,rough,14.0,0,2.901
230,7.36,-3.9801,5.2010,1.1385,0.2000,-0.5431,2.7751,rough,14.0,0,2.688
240,7.68,-4.2080,5.3160,1.2395,0.1107,-0.3830,2.8496,rough,14.0,0,2.528
250,8.00,-4.5326,5.4237,1.3236,0.0597,-0.1669,2.9243,rough,14.0,0,2.297
260,8.32,-4.9629,5.4901,1.3159,0.1136,0.2299,3.0958,rough,14.0,0,1.991
270,8.64,-5.3814,5.5017,1.2096,0.1440,0.1927,-3.0197,rough,14.0,0,1.705
280,8.96,-5.7770,5.4427,1.1472,0.1119,0.1435,-2.9588,rough,14.0,0,1.431
290,9.28,-6.1790,5.3296,1.0913,-0.0116,0.1879,-2.8395,rough,14.0,0,1.176
300,9.60,-6.4990,5.2215,1.0635,0.0421,0.0289,-2.6083,rough,14.0,0,1.031
310,9.92,-6.7024,5.0761,1.1015,0.0087,-0.3395,-2.3802,rough,14.0,0,0.915
320,10.24,-6.8190,4.8302,1.1633,-0.2463,-0.3095,-2.1010,rough,14.0,1,7.623
330,10.56,-6.8742,4.6407,1.1984,-0.3392,-0.2154,-1.8423,rough,14.0,1,7.687
340,10.88,-6.9128,4.4995,1.2196,-0.3424,-0.1978,-1.6841,rough,14.0,1,7.735
350,11.20,-6.8801,4.2690,1.2402,-0.2748,-0.1275,-1.3714,rough,14.0,1,7.723
360,11.52,-6.7843,4.0101,1.2448,-0.1938,-0.0766,-1.1745,rough,14.0,1,7.660
370,11.84,-6.6324,3.7713,1.2348,-0.2571,0.0662,-1.0353,rough,14.0,1,7.547
380,12.16,-6.4274,3.4881,1.1781,-0.2020,0.3088,-0.9030,rough,14.0,1,7.401
390,12.48,-6.1598,3.2003,1.0227,-0.0609,0.5220,-0.7778,rough,14.0,1,7.210
400,12.80,-5.8757,2.9639,0.8307,0.0887,0.5678,-0.6031,rough,14.0,1,7.004
410,13.12,-5.6157,2.7922,0.7004,0.1629,0.1800,-0.4980,rough,14.0,1,6.812
420,13.44,-5.2667,2.6304,0.6413,0.1606,0.1900,-0.3427,rough,14.0,1,6.544
430,13.76,-4.8776,2.5135,0.5653,0.0928,0.1738,-0.2170,rough,14.0,1,6.232
440,14.08,-4.3842,2.4225,0.3387,0.1742,0.6979,-0.0996,rough,14.0,1,5.827
450,14.40,-4.0167,2.2578,0.1282,0.2222,0.3431,-0.2606,rough,14.0,1,5.584
460,14.72,-3.6997,2.0809,0.0692,0.2469,0.1413,-0.0519,rough,14.0,1,5.409
470,15.04,-3.4047,2.0264,0.0869,0.2728,-0.2574,0.0618,rough,14.0,1,5.198
480,15.36,-3.0328,2.0529,0.2012,0.2433,-0.3358,0.1445,rough,14.0,1,4.886
490,15.68,-2.6085,2.1167,0.2997,0.2849,-0.1545,0.2621,rough,14.0,1,4.518
500,16.00,-2.2226,2.2358,0.3767,0.2283,-0.1953,0.3306,rough,14.0,1,4.152
510,16.32,-1.8374,2.3774,0.4559,0.2282,-0.1652,0.3875,rough,14.0,1,3.778
520,16.64,-1.4132,2.5599,0.4598,0.2639,0.0103,0.5111,rough,14.0,1,3.356
530,16.96,-1.0280,2.7930,0.4465,0.2015,0.0562,0.5593,rough,14.0,1,2.930
540,17.28,-0.6734,3.0392,0.4224,0.1292,0.0528,0.6027,rough,14.0,1,2.519
550,17.60,-0.2993,3.3336,0.3470,0.0589,0.3149,0.6770,rough,14.0,1,2.066
560,17.92,0.0786,3.6681,0.0630,0.0821,0.7159,0.8213,rough,14.0,1,1.588
570,18.24,0.3254,4.0242,-0.2552,-0.0443,0.6930,0.9467,rough,14.0,1,1.160
580,18.56,0.5052,4.3288,-0.4997,-0.0412,0.4976,1.0431,rough,14.0,1,0.810
590,18.88,0.6757,4.6563,-0.6764,-0.0379,0.5095,0.9708,rough,14.0,2,9.361
600,19.20,0.8605,4.8957,-0.8412,-0.0403,0.5739,0.7404,rough,14.0,2,9.345
610,19.52,1.1028,5.1125,-1.0728,-0.2099,0.6500,0.4921,rough,14.0,2,9.281
620,19.84,1.3771,5.2692,-1.2372,-0.3205,0.5176,0.3564,rough,14.0,2,9.164
630,20.16,1.6049,5.3656,-1.3208,-0.3717,0.0899,0.2626,rough,14.0,2,9.052
640,20.48,1.8337,5.4287,-1.3140,-0.2632,-0.2635,0.2638,rough,14.0,2,8.923
650,20.80,2.0587,5.5033,-1.2376,-0.2396,-0.4128,0.2655,rough,14.0,2,8.808
660,21.12,2.3803,5.6000,-1.1418,-0.2388,-0.1317,0.1630,rough,14.0,2,8.646
670,21.44,2.7115,5.6862,-1.1132,-0.3103,-0.1085,0.0570,rough,14.0,2,8.480
680,21.76,3.0954,5.6901,-1.0883,-0.2991,-0.0769,-0.1223,rough,14.0,2,8.229
690,22.08,3.4388,5.6060,-1.0552,-0.0750,-0.2668,-0.2120,rough,14.0,2,7.944
700,22.40,3.8348,5.4832,-1.0397,0.0733,0.0222,-0.2663,rough,14.0,2,7.602
710,22.72,4.2369,5.4014,-1.0638,-0.0489,0.0407,-0.3639,rough,14.0,2,7.298
720,23.04,4.6127,5.2645,-1.0728,-0.0827,-0.0070,-0.4600,rough,14.0,2,6.973
730,23.36,4.8928,5.1081,-1.0140,-0.0629,-0.3690,-0.4911,rough,14.0,2,6.690
740,23.68,5.2541,4.8661,-1.0076,0.1971,-0.0063,-0.4327,rough,14.0,2,6.296
750,24.00,5.6287,4.6594,-1.0641,0.2824,0.1279,-0.5426,rough,14.0,2,5.931
760,24.32,6.0073,4.4369,-1.1548,0.0722,0.2640,-0.6038,rough,14.0,2,5.560
770,24.64,6.2791,4.2400,-1.1857,0.0193,-0.0015,-0.7560,rough,14.0,2,5.266
780,24.96,6.6210,3.9594,-1.2266,-0.1751,0.0831,-0.8367,rough,14.0,2,4.874
790,25.28,6.9474,3.6347,-1.2706,-0.2361,0.3155,-0.8868,rough,14.0,2,4.454
800,25.60,7.2565,3.2995,-1.4561,-0.2750,0.3992,-0.9980,rough,14.0,2,4.038
810,25.92,7.4589,2.9934,-1.5413,-0.1915,0.0876,-0.9558,rough,14.0,2,3.687
820,26.24,7.6900,2.7072,-1.5185,-0.2562,-0.1825,-0.9391,rough,14.0,2,3.353
830,26.56,7.8976,2.4101,-1.4305,-0.1722,-0.2448,-0.9310,rough,14.0,2,3.020
840,26.88,8.1258,2.0938,-1.3399,-0.1548,-0.2546,-0.9948,rough,14.0,2,2.672
850,27.20,8.3651,1.7779,-1.3133,-0.2041,-0.1404,-1.0154,rough,14.0,2,2.338
860,27.52,8.5479,1.4989,-1.2287,-0.2047,-0.4153,-1.0702,rough,14.0,2,2.060
870,27.84,8.6678,1.2127,-1.0906,-0.0488,-0.5521,-1.1397,rough,14.0,2,1.785
880,28.16,8.7998,0.9522,-0.9079,-0.0562,-0.6487,-1.2076,rough,14.0,2,1.551
890,28.48,8.9068,0.7028,-0.7211,-0.0438,-0.5973,-1.2841,rough,14.0,2,1.342
900,28.80,8.9869,0.4772,-0.5552,-0.0200,-0.5845,-1.2908,rough,14.0,2,1.167
910,29.12,9.0546,0.2717,-0.4173,0.0221,-0.6490,-1.3784,rough,14.0,2,1.028
920,29.44,9.1120,0.0470,-0.2625,-0.0180,-0.6208,-1.4328,rough,14.0,2,0.898
930,29.76,9.1843,-0.1939,-0.1396,-0.1964,-0.5622,-1.4847,rough,14.0,2,0.821
940,30.08,9.2103,-0.3520,-0.0418,-0.2139,-0.6501,-1.4825,rough,14.0,3,6.802
950,30.40,9.2495,-0.5715,0.0828,-0.3157,-0.5678,-1.5096,rough,14.0,3,6.703
960,30.72,9.2744,-0.8017,0.2459,-0.3259,-0.6867,-1.4401,rough,14.0,3,6.592
970,31.04,9.3093,-1.0023,0.4031,-0.3392,-0.6792,-1.3291,rough,14.0,3,6.511
980,31.36,9.3876,-1.1103,0.4832,-0.4348,-0.6372,-1.0624,rough,14.0,3,6.521
990,31.68,9.5350,-1.1239,0.4786,-0.4674,-0.5667,-0.8110,rough,14.0,3,6.640
1000,32.00,9.6769,-1.1157,0.4692,-0.3192,-0.6316,-0.9566,rough,14.0,3,6.767
1010,32.32,9.7832,-1.1192,0.4725,-0.2421,-0.6645,-1.1400,rough,14.0,3,6.858
1020,32.64,9.8726,-1.1382,0.4831,-0.2087,-0.6868,-1.2800,rough,14.0,3,6.927
1030,32.96,9.9387,-1.1659,0.4942,-0.1856,-0.6647,-1.3872,rough,14.0,3,6.972
1040,33.28,9.9813,-1.2226,0.5328,-0.1628,-0.6473,-1.4626,rough,14.0,3,6.982
1050,33.60,10.0105,-1.3214,0.5996,-0.1751,-0.6099,-1.5037,rough,14.0,3,6.963
1060,33.92,10.0261,-1.4951,0.7200,-0.1612,-0.6070,-1.5301,rough,14.0,3,6.900
1070,34.24,10.0451,-1.7411,0.8537,-0.2108,-0.4865,-1.5586,rough,14.0,3,6.814
1080,34.56,10.0517,-2.0032,0.9758,-0.2288,-0.4385,-1.6085,rough,14.0,3,6.719
1090,34.88,10.0373,-2.2627,1.0653,-0.2065,-0.2640,-1.6358,rough,14.0,3,6.614
1100,35.20,10.0188,-2.5291,1.1398,-0.1871,-0.3364,-1.7293,rough,14.0,3,6.512
1110,35.52,9.8977,-2.8956,1.1602,0.0109,0.1456,-1.8816,rough,14.0,3,6.294
1120,35.84,9.7532,-3.2231,1.1124,0.0360,0.1673,-2.0369,rough,14.0,3,6.078
1130,36.16,9.5334,-3.5886,0.9830,0.0194,0.4861,-2.1491,rough,14.0,3,5.795
1140,36.48,9.2940,-3.9088,0.7447,0.0211,0.6040,-2.2932,rough,14.0,3,5.516
1150,36.80,9.0407,-4.1714,0.4957,-0.0507,0.6274,-2.4214,rough,14.0,3,5.242
1160,37.12,8.7801,-4.4730,0.2574,-0.4068,0.6452,-2.5466,rough,14.0,3,4.972
1170,37.44,8.4920,-4.6916,0.0403,-0.4307,0.4367,-2.6163,rough,14.0,3,4.689
1180,37.76,8.1338,-4.8829,-0.1711,-0.4474,0.4726,-2.7479,rough,14.0,3,4.344
1190,38.08,7.7953,-5.0667,-0.3400,-0.5076,0.3273,-2.8056,rough,14.0,3,4.030
1200,38.40,7.5144,-5.2526,-0.3982,-0.5195,-0.1235,-2.7460,rough,14.0,3,3.785
1210,38.72,7.1918,-5.3719,-0.3353,-0.4366,-0.3420,-2.7564,rough,14.0,3,3.498
1220,39.04,6.8318,-5.5338,-0.2743,-0.5183,-0.0819,-2.8781,rough,14.0,3,3.201
1230,39.36,6.3844,-5.6795,-0.4122,-0.3819,0.1104,3.0313,rough,14.0,3,2.840
1240,39.68,5.9726,-5.6495,-0.4405,-0.4046,-0.0080,2.9822,rough,14.0,3,2.458
1250,40.00,5.6150,-5.4923,-0.4999,0.0893,-0.2720,2.8715,rough,14.0,3,2.069
1260,40.32,5.2471,-5.4359,-0.4416,0.0992,-0.1370,3.0008,rough,14.0,3,1.725
1270,40.64,4.8196,-5.3975,-0.4337,-0.1013,-0.0399,2.8936,rough,14.0,3,1.363
1280,40.96,4.4036,-5.2905,-0.4493,-0.1571,0.0444,2.7681,rough,14.0,3,1.002
1290,41.28,4.0123,-5.0630,-0.5502,0.0179,0.3140,2.6504,rough,14.0,0,13.984
1300,41.60,3.6391,-4.8560,-0.6966,0.0015,0.2936,2.5936,rough,14.0,0,13.567
1310,41.92,3.2830,-4.6690,-0.7511,-0.1310,0.1301,2.5683,rough,14.0,0,13.177
1320,42.24,2.9343,-4.4815,-0.7850,-0.2287,-0.1015,2.5848,rough,14.0,0,12.794
1330,42.56,2.5090,-4.2330,-0.7717,-0.3329,0.2090,2.4877,rough,14.0,0,12.313
1340,42.88,2.1847,-4.0179,-0.8130,-0.3374,-0.1604,2.5257,rough,14.0,0,11.929
1350,43.20,1.8147,-3.7523,-0.8428,-0.1758,0.0315,2.5822,rough,14.0,0,11.478
1360,43.52,1.6224,-3.6349,-0.7766,-0.1899,-0.6042,2.7558,rough,14.0,0,11.258
1370,43.84,1.3341,-3.4982,-0.6567,-0.0677,-0.4765,2.7780,rough,14.0,0,10.957
1380,44.16,1.0241,-3.3708,-0.5033,0.0165,-0.4835,2.7378,rough,14.0,0,10.647
1390,44.48,0.6308,-3.2037,-0.3684,-0.0224,-0.2010,2.6977,rough,14.0,0,10.253
1400,44.80,0.2645,-3.0159,-0.2953,0.0155,-0.2094,2.6485,rough,14.0,0,9.865
1410,45.12,-0.0898,-2.8055,-0.2246,0.0845,-0.2124,2.6072,rough,14.0,0,9.470
1420,45.44,-0.4071,-2.5947,-0.1171,0.1584,-0.3718,2.5522,rough,14.0,0,9.101
1430,45.76,-0.7528,-2.3500,-0.0025,0.1636,-0.2806,2.5100,rough,14.0,0,8.688
1440,46.08,-1.1182,-2.0711,0.0713,0.1781,-0.0623,2.4981,rough,14.0,0,8.238
1450,46.40,-1.4859,-1.8006,0.0733,0.1119,0.0411,2.4950,rough,14.0,0,7.794
1460,46.72,-1.8201,-1.5383,0.0719,0.0869,-0.0382,2.4574,rough,14.0,0,7.379
1470,47.04,-2.1407,-1.2692,0.0843,0.0635,-0.1020,2.4366,rough,14.0,0,6.969
1480,47.36,-2.4683,-0.9569,0.0774,0.0906,0.0691,2.4496,rough,14.0,0,6.521
1490,47.68,-2.7996,-0.6574,0.0320,0.1309,0.1628,2.4262,rough,14.0,0,6.082
1500,48.00,-3.1069,-0.3592,-0.0290,0.1768,0.1220,2.3932,rough,14.0,0,5.659
1510,48.32,-3.3887,-0.0636,-0.0329,0.2432,-0.0541,2.3475,rough,14.0,0,5.254
1520,48.64,-3.6634,0.2371,0.0245,0.2539,-0.1980,2.2913,rough,14.0,0,4.849
1530,48.96,-3.9911,0.5726,0.0587,0.1408,-0.0366,2.3087,rough,14.0,0,4.387
1540,49.28,-4.2689,0.8974,0.0786,0.1592,-0.1031,2.2736,rough,14.0,0,3.962
1550,49.60,-4.5466,1.2035,0.1007,0.0109,-0.1778,2.2718,rough,14.0,0,3.554
1560,49.92,-4.7319,1.4661,0.2079,0.1090,-0.6118,2.2366,rough,14.0,0,3.233
1570,50.24,-4.9582,1.7508,0.3836,0.0275,-0.3765,2.1151,rough,14.0,0,2.871
1580,50.56,-5.1765,2.0683,0.5208,-0.0563,-0.4120,2.1325,rough,14.0,0,2.486
1590,50.88,-5.4289,2.4321,0.6166,-0.0912,-0.1288,2.1610,rough,14.0,0,2.044
1600,51.20,-5.6356,2.7538,0.6978,-0.0604,-0.3094,2.1677,rough,14.0,0,1.662
1610,51.52,-5.8045,3.0496,0.8338,0.0475,-0.5377,2.1651,rough,14.0,0,1.322
1620,51.84,-6.0159,3.3883,1.0214,0.1290,-0.4738,2.1440,rough,14.0,0,0.923
1630,52.16,-6.1558,3.6655,1.1150,0.1469,-0.2367,1.9220,rough,14.0,1,7.099
1640,52.48,-6.1894,3.8528,1.1643,0.2033,-0.2039,1.7096,rough,14.0,1,7.097
1650,52.80,-6.2067,4.1011,1.1629,0.0817,-0.0375,1.5328,rough,14.0,1,7.075
1660,53.12,-6.1627,4.4338,1.1453,-0.1786,0.1152,1.2587,rough,14.0,1,6.993
1670,53.44,-6.0728,4.7234,1.1274,-0.2283,-0.0248,1.0572,rough,14.0,1,6.882
1680,53.76,-5.8895,5.0243,1.1500,-0.2176,-0.1109,0.9184,rough,14.0,1,6.690
1690,54.08,-5.6451,5.3130,1.1810,-0.1711,-0.0726,0.7690,rough,14.0,1,6.449
1700,54.40,-5.3917,5.5886,1.2057,-0.2699,-0.0490,0.6414,rough,14.0,1,6.212
1710,54.72,-5.1142,5.8035,1.2425,-0.2844,-0.1901,0.5734,rough,14.0,1,5.958
1720,55.04,-4.7497,6.0477,1.2265,-0.4619,0.1113,0.3654,rough,14.0,1,5.633
1730,55.36,-4.3113,6.2112,1.0896,-0.3671,0.2538,0.1551,rough,14.0,1,5.234
1740,55.68,-3.8840,6.2696,0.9692,-0.3452,0.2854,0.0750,rough,14.0,1,4.832
1750,56.00,-3.7388,6.3942,0.8677,-0.4163,0.0702,-0.5506,rough,14.0,1,4.724
1760,56.32,-3.5612,6.5218,0.7762,-0.5064,-0.2879,-1.0379,rough,14.0,1,4.592
1770,56.64,-3.4118,6.5683,0.7050,-0.4111,-0.3505,-1.2780,rough,14.0,1,4.466
1780,56.96,-3.3144,6.5882,0.6457,-0.5156,-0.3687,-1.2372,rough,14.0,1,4.381
1790,57.28,-3.1045,6.5652,0.5170,-0.7405,-0.4613,-1.4908,rough,14.0,1,4.176
1800,57.60,-2.9024,6.5241,0.3638,-0.6419,-0.5788,-1.6538,rough,14.0,1,3.973
1810,57.92,-2.6858,6.5929,0.1161,-0.4449,-0.7813,-1.8341,rough,14.0,1,3.799
1820,58.24,-2.3279,6.7387,-0.3335,-0.5946,-0.6895,-1.7045,rough,14.0,1,3.539
1830,58.56,-2.1680,7.0424,-0.4671,-0.9975,-0.8963,-1.4617,rough,14.0,1,3.556
1840,58.88,-2.0415,7.3578,-0.6266,2.7093,-1.1957,0.9591,rough,14.0,1,3.640
1850,59.20,-1.8123,7.5148,-1.0143,-2.5657,0.6792,0.9091,rough,14.0,1,3.569
1860,59.52,-1.4488,7.7808,-1.1963,-2.5142,0.6503,0.6879,rough,14.0,1,3.512
1870,59.84,-1.3094,7.8878,-1.3592,-3.1111,0.4565,0.6116,rough,14.0,1,3.509
1880,60.16,-1.3056,7.8479,-1.3721,-2.9258,0.3075,0.9038,rough,14.0,1,3.475
1890,60.48,-1.1525,7.8845,-1.4012,-3.1270,0.1551,1.0265,rough,14.0,1,3.415
1900,60.80,-1.0219,8.0258,-1.4185,3.0569,-0.1687,1.0856,rough,14.0,1,3.461
1910,61.12,-1.0188,8.0593,-1.4199,3.1079,-0.2187,0.9791,rough,14.0,1,3.488
1920,61.44,-1.0145,8.0530,-1.4143,3.0789,-0.2093,1.0721,rough,14.0,1,3.480
1930,61.76,-1.0134,8.0300,-1.4209,3.0629,-0.1602,0.9932,rough,14.0,1,3.460
1940,62.08,-1.0196,8.0462,-1.4157,3.0637,-0.1890,1.0522,rough,14.0,1,3.477
1950,62.40,-1.0255,8.0583,-1.4124,3.0262,-0.1838,1.1451,rough,14.0,1,3.491
1960,62.72,-1.0063,8.0327,-1.4162,3.0922,-0.1915,1.0776,rough,14.0,1,3.459
1970,63.04,-1.0408,7.9772,-1.4123,3.0558,-0.1100,1.0253,rough,14.0,1,3.430
1980,63.36,-1.0189,8.0440,-1.4136,3.0594,-0.1712,1.0990,rough,14.0,1,3.475
1990,63.68,-1.0171,8.0400,-1.4202,3.0779,-0.1861,1.0207,rough,14.0,1,3.471
2000,64.00,-1.0165,8.0474,-1.4162,3.0991,-0.2111,0.9920,rough,14.0,1,3.477
2010,64.32,-1.0179,8.0561,-1.4166,3.0939,-0.2203,1.0464,rough,14.0,1,3.485
2020,64.64,-1.0178,8.0344,-1.4187,3.0962,-0.1813,0.9856,rough,14.0,1,3.466
2030,64.96,-1.0276,8.0188,-1.4156,3.0712,-0.1573,1.0038,rough,14.0,1,3.458
2040,65.28,-1.0310,8.0290,-1.4217,3.0842,-0.1466,1.0853,rough,14.0,1,3.469
2050,65.60,-1.0089,8.0705,-1.4149,3.0977,-0.2333,0.9915,rough,14.0,1,3.492
2060,65.92,-1.0214,8.0192,-1.4177,3.0657,-0.1726,1.0587,rough,14.0,1,3.455
2070,66.24,-1.0170,8.0445,-1.4199,3.0889,-0.1921,1.0276,rough,14.0,1,3.474
2080,66.56,-1.0332,8.0234,-1.4190,3.0770,-0.1498,1.0385,rough,14.0,1,3.465
2090,66.88,-1.0145,8.0358,-1.4177,3.0646,-0.1799,1.0642,rough,14.0,1,3.466
2100,67.20,-1.0143,8.0620,-1.4151,3.0772,-0.2149,1.0414,rough,14.0,1,3.488
2110,67.52,-1.0242,8.0283,-1.4175,3.0739,-0.1688,1.0575,rough,14.0,1,3.464
2120,67.84,-1.0129,8.0389,-1.4200,3.0955,-0.1914,1.0074,rough,14.0,1,3.468
2130,68.16,-1.0294,8.0060,-1.4163,3.0530,-0.1568,1.0597,rough,14.0,1,3.448
2140,68.48,-1.0107,8.0704,-1.4086,3.0612,-0.2099,1.1113,rough,14.0,1,3.493
2150,68.80,-1.0132,8.0286,-1.4155,3.0539,-0.1678,1.1280,rough,14.0,1,3.459
2160,69.12,-1.0312,7.9999,-1.4146,3.0610,-0.1414,1.0447,rough,14.0,1,3.444
2170,69.44,-1.0011,8.0949,-1.4062,3.1288,-0.3036,1.0770,rough,14.0,1,3.509
2180,69.76,-1.0067,8.0657,-1.4190,3.0931,-0.2658,1.0334,rough,14.0,1,3.487
2190,70.08,-1.0125,8.0699,-1.4129,3.1125,-0.2486,1.0140,rough,14.0,1,3.494
2200,70.40,-1.0603,7.9627,-1.4129,3.0715,-0.0520,1.0299,rough,14.0,1,3.428
2210,70.72,-1.0760,7.9481,-1.4129,3.0900,-0.0073,1.0196,rough,14.0,1,3.425
2220,71.04,-1.0614,7.9984,-1.4130,3.0952,-0.1027,1.0679,rough,14.0,1,3.459
2230,71.36,-1.0148,8.0401,-1.4141,3.0716,-0.2038,0.9735,rough,14.0,1,3.470
2240,71.68,-0.9918,8.0636,-1.4173,3.1206,-0.2039,0.9113,rough,14.0,1,3.478
2250,72.00,-1.0489,7.9844,-1.4178,3.0816,-0.0802,1.0389,rough,14.0,1,3.440
2260,72.32,-1.0782,7.9564,-1.4147,3.0935,0.0064,1.0043,rough,14.0,1,3.433
2270,72.64,-1.0199,8.0050,-1.4233,3.0314,-0.1130,1.0434,rough,14.0,1,3.442
2280,72.96,-1.0194,8.0725,-1.4125,3.1165,-0.2586,1.0275,rough,14.0,1,3.500
2290,73.28,-1.0179,8.0343,-1.4184,3.0776,-0.1967,1.0697,rough,14.0,1,3.466
2300,73.60,-1.0345,8.0014,-1.4128,3.0848,-0.1273,0.9732,rough,14.0,1,3.447
2310,73.92,-1.0237,8.0203,-1.4163,3.0749,-0.1652,1.0043,rough,14.0,1,3.457
2320,74.24,-1.0194,8.0384,-1.4185,3.0744,-0.1877,1.0329,rough,14.0,1,3.471
2330,74.56,-1.0179,8.0367,-1.4200,3.0663,-0.1906,1.0684,rough,14.0,1,3.468
2340,74.88,-1.0101,8.0582,-1.4172,3.0876,-0.2071,0.9805,rough,14.0,1,3.482
2350,75.20,-1.0106,8.0521,-1.4115,3.0967,-0.2304,1.1193,rough,14.0,1,3.478
2360,75.52,-1.0202,8.0408,-1.4205,3.0684,-0.1830,1.0684,rough,14.0,1,3.473
2370,75.84,-1.0109,8.0521,-1.4189,3.0993,-0.2181,0.9830,rough,14.0,1,3.478
2380,76.16,-1.0294,8.0097,-1.4167,3.0577,-0.1537,1.0261,rough,14.0,1,3.451
2390,76.48,-1.0136,8.0554,-1.4178,3.0887,-0.2111,1.0162,rough,14.0,1,3.482
2400,76.80,-1.0220,8.0262,-1.4182,3.0671,-0.1751,1.0842,rough,14.0,1,3.461
2410,77.12,-1.0320,8.0412,-1.4172,3.0899,-0.1602,1.0301,rough,14.0,1,3.479
2420,77.44,-1.0111,8.0424,-1.4142,3.0747,-0.2030,0.9893,rough,14.0,1,3.470
2430,77.76,-1.0175,8.0523,-1.4150,3.0852,-0.2219,1.0757,rough,14.0,1,3.481
2440,78.08,-1.0222,8.0652,-1.4185,3.1051,-0.2307,0.9546,rough,14.0,1,3.495
2450,78.40,-1.0226,8.0371,-1.4191,3.0869,-0.1701,1.0358,rough,14.0,1,3.471
2460,78.72,-1.0180,8.0456,-1.4184,3.0891,-0.1953,1.0042,rough,14.0,1,3.476
2470,79.04,-1.0154,8.0245,-1.4141,3.0745,-0.1865,0.9884,rough,14.0,1,3.457
2480,79.36,-1.0113,8.0538,-1.4189,3.0869,-0.2121,1.0439,rough,14.0,1,3.479
2490,79.68,-1.0207,8.0230,-1.4214,3.0548,-0.1583,1.0566,rough,14.0,1,3.458
2500,80.00,-1.0155,8.0502,-1.4196,3.0823,-0.1939,1.0267,rough,14.0,1,3.479
2510,80.32,-1.0160,8.0261,-1.4191,3.0744,-0.1773,1.0609,rough,14.0,1,3.458
2520,80.64,-1.0132,8.0343,-1.4165,3.0682,-0.1804,1.0746,rough,14.0,1,3.464
2530,80.96,-1.0121,8.0502,-1.4192,3.0968,-0.2031,0.9973,rough,14.0,1,3.477
2540,81.28,-1.0213,8.0209,-1.4200,3.0476,-0.1659,1.0816,rough,14.0,1,3.457
2550,81.60,-1.0343,8.0117,-1.4149,3.0818,-0.1373,0.9921,rough,14.0,1,3.456
2560,81.92,-1.0127,8.0303,-1.4219,3.0764,-0.1807,0.9951,rough,14.0,1,3.460
2570,82.24,-1.0320,8.0236,-1.4181,3.0858,-0.1494,1.0363,rough,14.0,1,3.465
2580,82.56,-1.0165,8.0417,-1.4166,3.0805,-0.1904,1.0328,rough,14.0,1,3.472
2590,82.88,-1.0159,8.0298,-1.4174,3.0764,-0.1957,0.9979,rough,14.0,1,3.461
2600,83.20,-1.0168,8.0597,-1.4176,3.0947,-0.2086,1.0167,rough,14.0,1,3.487
2610,83.52,-1.0245,8.0160,-1.4180,3.0740,-0.1423,1.0523,rough,14.0,1,3.454
2620,83.84,-1.0156,8.0532,-1.4136,3.0612,-0.1940,1.0855,rough,14.0,1,3.481
2630,84.16,-1.0343,8.0142,-1.4189,3.0591,-0.1332,1.0540,rough,14.0,1,3.458
2640,84.48,-1.0794,7.9611,-1.4133,3.1090,-0.0047,0.9817,rough,14.0,1,3.437
2650,84.80,-1.0422,8.0011,-1.4165,3.0829,-0.1153,1.0226,rough,14.0,1,3.451
2660,85.12,-1.0131,8.0543,-1.4133,3.0677,-0.1975,1.0888,rough,14.0,1,3.481
2670,85.44,-1.0314,8.0247,-1.4178,3.0781,-0.1477,1.0681,rough,14.0,1,3.465
2680,85.76,-1.0100,8.0565,-1.4145,3.0747,-0.2086,1.0586,rough,14.0,1,3.481
2690,86.08,-1.0161,8.0418,-1.4218,3.0517,-0.2055,1.0906,rough,14.0,1,3.472
2700,86.40,-1.0158,8.0426,-1.4158,3.0526,-0.1966,1.0896,rough,14.0,1,3.472
2710,86.72,-1.0176,8.0370,-1.4179,3.0701,-0.1853,1.0602,rough,14.0,1,3.468
2720,87.04,-1.0190,8.0342,-1.4197,3.0708,-0.1801,1.0365,rough,14.0,1,3.467
2730,87.36,-1.0172,8.0741,-1.4123,3.0833,-0.2305,1.0373,rough,14.0,1,3.500
2740,87.68,-1.0212,8.0117,-1.4149,3.0560,-0.1703,1.0547,rough,14.0,1,3.449
2750,88.00,-1.0381,8.0125,-1.4178,3.0857,-0.1225,1.0307,rough,14.0,1,3.458
2760,88.32,-0.9999,8.0485,-1.4102,3.0628,-0.1799,1.1290,rough,14.0,1,3.469
2770,88.64,-1.0171,8.0424,-1.4184,3.0821,-0.1864,1.0120,rough,14.0,1,3.473
2780,88.96,-1.0244,8.0205,-1.4198,3.0690,-0.1538,1.0739,rough,14.0,1,3.458
2790,89.28,-1.0200,8.0588,-1.4154,3.0980,-0.2476,1.0793,rough,14.0,1,3.488
2800,89.60,-1.0291,8.0348,-1.4230,3.0913,-0.1446,1.0602,rough,14.0,1,3.473
2810,89.92,-1.0126,8.0283,-1.4190,3.0676,-0.1754,1.0674,rough,14.0,1,3.458
2820,90.24,-1.0184,8.0364,-1.4181,3.0859,-0.1727,0.9810,rough,14.0,1,3.468
2830,90.56,-1.0205,8.0524,-1.4157,3.0662,-0.1807,1.0296,rough,14.0,1,3.483
2840,90.88,-1.0351,7.9889,-1.4110,3.0588,-0.1335,0.9978,rough,14.0,1,3.437
2850,91.20,-1.0170,8.0304,-1.4198,3.0900,-0.1909,1.0236,rough,14.0,1,3.462
2860,91.52,-1.0174,8.0401,-1.4180,3.0807,-0.2033,1.0509,rough,14.0,1,3.471
2870,91.84,-1.0145,8.0543,-1.4172,3.0839,-0.2002,0.9966,rough,14.0,1,3.481
2880,92.16,-1.0300,8.0245,-1.4195,3.0788,-0.1531,1.0507,rough,14.0,1,3.464
2890,92.48,-1.0480,7.9959,-1.4221,3.0331,-0.0958,1.0970,rough,14.0,1,3.450
2900,92.80,-1.0297,8.0278,-1.4151,3.0694,-0.1559,1.0576,rough,14.0,1,3.467
2910,93.12,-1.0178,8.0291,-1.4184,3.0633,-0.1772,1.0546,rough,14.0,1,3.462
2920,93.44,-1.0255,8.0292,-1.4177,3.0734,-0.1741,1.0719,rough,14.0,1,3.466
2930,93.76,-1.0076,8.0558,-1.4175,3.0960,-0.2028,0.9776,rough,14.0,1,3.479
2940,94.08,-1.0168,8.0713,-1.4132,3.0812,-0.2375,1.0574,rough,14.0,1,3.497
2950,94.40,-1.0158,8.0161,-1.4227,3.0829,-0.1793,1.0415,rough,14.0,1,3.450
2960,94.72,-1.0236,8.0357,-1.4213,3.0651,-0.1842,1.0754,rough,14.0,1,3.470
2970,95.04,-1.0144,8.0906,-1.4097,3.1345,-0.2980,1.0292,rough,14.0,1,3.512
2980,95.36,-1.0272,8.0034,-1.4181,3.0699,-0.1192,1.0351,rough,14.0,1,3.445
2990,95.68,-1.0442,7.9903,-1.4173,3.0674,-0.1006,1.0782,rough,14.0,1,3.443
3000,96.00,-1.0111,8.0532,-1.4123,3.0893,-0.2274,1.1050,rough,14.0,1,3.479
3010,96.32,-1.0306,8.0125,-1.4195,3.0848,-0.1406,1.0363,rough,14.0,1,3.454
3020,96.64,-1.0258,8.0360,-1.4168,3.0725,-0.1687,1.0580,rough,14.0,1,3.472
3030,96.96,-1.0100,8.0371,-1.4186,3.0896,-0.1900,1.0245,rough,14.0,1,3.464
3040,97.28,-1.0159,8.0550,-1.4195,3.0824,-0.2077,1.0123,rough,14.0,1,3.483
3050,97.60,-1.0149,8.0446,-1.4172,3.0737,-0.2160,1.0910,rough,14.0,1,3.473
3060,97.92,-1.0192,8.0384,-1.4201,3.0772,-0.1796,1.0423,rough,14.0,1,3.470
3070,98.24,-1.0202,8.0245,-1.4225,3.0492,-0.2031,1.1416,rough,14.0,1,3.459
3080,98.56,-1.0232,8.0249,-1.4181,3.0696,-0.1674,1.0629,rough,14.0,1,3.461
3090,98.88,-1.0226,8.0891,-1.4116,3.0967,-0.2661,1.0342,rough,14.0,1,3.515
3100,99.20,-1.0185,8.0225,-1.4193,3.0959,-0.1872,1.0461,rough,14.0,1,3.457
3110,99.52,-1.0159,8.0415,-1.4217,3.0924,-0.1744,1.0801,rough,14.0,1,3.471
3120,99.84,-1.0203,8.0472,-1.4175,3.0673,-0.1969,1.0461,rough,14.0,1,3.478
3130,100.16,-1.0293,7.9936,-1.4134,3.0511,-0.1454,1.0389,rough,14.0,1,3.438
3140,100.48,-1.0157,8.0429,-1.4169,3.0969,-0.1736,0.9744,rough,14.0,1,3.472
3150,100.80,-1.0073,8.0813,-1.4096,3.0757,-0.2233,1.0363,rough,14.0,1,3.501
3160,101.12,-1.0337,8.0010,-1.4137,3.0924,-0.1191,1.0238,rough,14.0,1,3.446
3170,101.44,-1.0537,7.9872,-1.4149,3.0784,-0.0871,1.0084,rough,14.0,1,3.445
3180,101.76,-1.0152,8.0163,-1.4203,3.0409,-0.1930,1.0226,rough,14.0,1,3.449
3190,102.08,-1.0158,8.0449,-1.4194,3.1059,-0.2010,0.9705,rough,14.0,1,3.474
3200,102.40,-1.0132,8.0514,-1.4148,3.0715,-0.2108,1.0897,rough,14.0,1,3.478
3210,102.72,-1.0252,8.0311,-1.4201,3.0798,-0.1617,1.0483,rough,14.0,1,3.467
3220,103.04,-1.0170,8.0335,-1.4200,3.0680,-0.1757,1.0593,rough,14.0,1,3.465
3230,103.36,-1.0245,8.0246,-1.4248,3.0831,-0.1605,1.0038,rough,14.0,1,3.461
3240,103.68,-1.0166,8.0328,-1.4204,3.0723,-0.1763,1.0093,rough,14.0,1,3.464
3250,104.00,-1.0124,8.0412,-1.4178,3.0933,-0.2211,0.9463,rough,14.0,1,3.469
3260,104.32,-1.0184,8.0552,-1.4138,3.0587,-0.2000,1.1146,rough,14.0,1,3.484
3270,104.64,-1.0364,8.0150,-1.4197,3.0888,-0.1247,1.0452,rough,14.0,1,3.460
3280,104.96,-1.0210,8.0414,-1.4180,3.0680,-0.1819,1.0574,rough,14.0,1,3.474
3290,105.28,-1.0204,8.0143,-1.4154,3.0643,-0.1595,1.0382,rough,14.0,1,3.450
3300,105.60,-0.9942,8.0716,-1.4123,3.1242,-0.2488,1.0137,rough,14.0,1,3.486
3310,105.92,-1.0230,8.0772,-1.4115,3.0351,-0.1952,1.0633,rough,14.0,1,3.505
3320,106.24,-1.0202,8.0464,-1.4182,3.0779,-0.1863,1.0140,rough,14.0,1,3.478
3330,106.56,-1.0514,7.9864,-1.4129,3.0882,-0.0855,0.9694,rough,14.0,1,3.443
3340,106.88,-1.0402,8.0266,-1.4187,3.0787,-0.1359,1.0108,rough,14.0,1,3.471
3350,107.20,-1.0150,8.0411,-1.4205,3.0855,-0.1774,1.0801,rough,14.0,1,3.470
3360,107.52,-1.0194,8.0165,-1.4127,3.0521,-0.1883,0.9925,rough,14.0,1,3.452
3370,107.84,-1.0155,8.0543,-1.4196,3.1003,-0.2059,0.9771,rough,14.0,1,3.482
3380,108.16,-1.0086,8.0437,-1.4123,3.0730,-0.1976,1.1230,rough,14.0,1,3.469
3390,108.48,-1.0535,7.9884,-1.4159,3.0896,-0.0713,0.9860,rough,14.0,1,3.446
3400,108.80,-1.0280,8.0263,-1.4193,3.0706,-0.1707,1.0618,rough,14.0,1,3.465
3410,109.12,-1.0133,8.0423,-1.4210,3.0740,-0.1722,0.9976,rough,14.0,1,3.471
3420,109.44,-1.0210,8.0279,-1.4154,3.0739,-0.1763,0.9867,rough,14.0,1,3.462
3430,109.76,-1.0190,8.0371,-1.4187,3.0880,-0.1979,1.0431,rough,14.0,1,3.469
3440,110.08,-1.0483,7.9974,-1.4164,3.0855,-0.0969,1.0211,rough,14.0,1,3.451
3450,110.40,-1.0153,8.0366,-1.4182,3.0832,-0.2044,1.0651,rough,14.0,1,3.467
3460,110.72,-1.0321,8.0286,-1.4176,3.0777,-0.1450,1.0605,rough,14.0,1,3.469
3470,111.04,-1.0188,8.0355,-1.4191,3.0767,-0.1882,1.0374,rough,14.0,1,3.468
3480,111.36,-1.0190,8.0313,-1.4184,3.0713,-0.1852,0.9896,rough,14.0,1,3.464
3490,111.68,-1.0240,8.0342,-1.4205,3.0579,-0.1819,1.0529,rough,14.0,1,3.469
3500,112.00,-1.0211,8.0211,-1.4155,3.0693,-0.1653,1.0156,rough,14.0,1,3.457
3510,112.32,-1.0148,8.0462,-1.4188,3.0941,-0.1989,0.9943,rough,14.0,1,3.475
3520,112.64,-1.0209,8.0270,-1.4195,3.0740,-0.1652,1.0222,rough,14.0,1,3.462
3530,112.96,-1.0302,8.0255,-1.4174,3.0873,-0.1466,0.9991,rough,14.0,1,3.465
3540,113.28,-1.0132,8.0369,-1.4176,3.0767,-0.1856,1.0420,rough,14.0,1,3.466
3550,113.60,-1.0160,8.0359,-1.4168,3.0809,-0.1793,0.9956,rough,14.0,1,3.467
3560,113.92,-1.0197,8.0431,-1.4149,3.0797,-0.2225,1.1318,rough,14.0,1,3.475
3570,114.24,-1.0182,8.0251,-1.4147,3.0956,-0.1761,0.9550,rough,14.0,1,3.459
3580,114.56,-1.0117,8.0487,-1.4146,3.0636,-0.1856,1.0859,rough,14.0,1,3.475
3590,114.88,-1.0188,8.0296,-1.4212,3.0817,-0.1764,1.0737,rough,14.0,1,3.463
3600,115.20,-1.0187,8.0597,-1.4137,3.0620,-0.2012,1.1046,rough,14.0,1,3.488
3610,115.52,-1.0276,8.0251,-1.4189,3.0809,-0.1544,1.0502,rough,14.0,1,3.464
3620,115.84,-1.0262,8.0265,-1.4177,3.0782,-0.1700,1.0061,rough,14.0,1,3.464
3630,116.16,-1.0126,8.0449,-1.4167,3.0861,-0.1982,1.0501,rough,14.0,1,3.472
3640,116.48,-1.0215,8.0323,-1.4196,3.0777,-0.1677,1.0605,rough,14.0,1,3.466
3650,116.80,-1.0183,8.0395,-1.4167,3.0918,-0.2161,1.0809,rough,14.0,1,3.471
3660,117.12,-1.0133,8.0389,-1.4167,3.0760,-0.1627,1.0263,rough,14.0,1,3.468
3670,117.44,-1.0269,8.0082,-1.4216,3.0451,-0.1252,1.0521,rough,14.0,1,3.449
3680,117.76,-1.0203,8.0142,-1.4219,3.0581,-0.1713,1.1477,rough,14.0,1,3.450
3690,118.08,-1.0162,8.0308,-1.4162,3.0582,-0.1812,1.0572,rough,14.0,1,3.462
3700,118.40,-1.0151,8.0438,-1.4170,3.0838,-0.1828,1.1670,rough,14.0,1,3.473
3710,118.72,-1.0318,8.0177,-1.4185,3.0868,-0.1468,1.0256,rough,14.0,1,3.459
3720,119.04,-1.0089,8.0461,-1.4153,3.0809,-0.2051,1.0078,rough,14.0,1,3.472
3730,119.36,-1.0132,8.0499,-1.4184,3.1180,-0.2241,0.9704,rough,14.0,1,3.477
3740,119.68,-1.0147,8.0444,-1.4185,3.1060,-0.2154,0.9923,rough,14.0,1,3.473
3750,120.00,-1.0155,8.0621,-1.4174,3.0721,-0.2129,1.0982,rough,14.0,1,3.489
3760,120.32,-1.0088,8.0429,-1.4183,3.1068,-0.2066,0.9906,rough,14.0,1,3.469
3770,120.64,-1.0144,8.0372,-1.4148,3.0815,-0.1811,0.9762,rough,14.0,1,3.467
3780,120.96,-1.0038,8.0808,-1.4140,3.1371,-0.2535,0.9127,rough,14.0,1,3.499
3790,121.28,-1.0193,8.0416,-1.4165,3.0800,-0.2030,1.0775,rough,14.0,1,3.473
3800,121.60,-1.0148,8.0477,-1.4179,3.0790,-0.1920,1.0683,rough,14.0,1,3.476
3810,121.92,-1.0074,8.0398,-1.4166,3.0851,-0.1869,1.0263,rough,14.0,1,3.465
3820,122.24,-1.0232,8.0412,-1.4218,3.1085,-0.1581,0.9624,rough,14.0,1,3.475
3830,122.56,-1.0207,8.0275,-1.4218,3.0775,-0.1879,1.0567,rough,14.0,1,3.462
3840,122.88,-1.0159,8.0544,-1.4197,3.0824,-0.2051,1.0149,rough,14.0,1,3.482
3850,123.20,-1.0280,8.0385,-1.4183,3.0621,-0.1934,1.0887,rough,14.0,1,3.475
3860,123.52,-1.0169,8.0467,-1.4179,3.0824,-0.1805,1.1216,rough,14.0,1,3.476
3870,123.84,-1.0172,8.0362,-1.4182,3.0725,-0.1852,1.0359,rough,14.0,1,3.468
3880,124.16,-1.0136,8.0390,-1.4184,3.0746,-0.1883,1.0443,rough,14.0,1,3.468
3890,124.48,-1.0208,8.0301,-1.4184,3.0773,-0.1964,1.0967,rough,14.0,1,3.464
3900,124.80,-1.0171,8.0502,-1.4194,3.0836,-0.2022,1.0097,rough,14.0,1,3.479
3910,125.12,-1.0131,8.0541,-1.4185,3.1009,-0.2056,0.9485,rough,14.0,1,3.481
3920,125.44,-1.0041,8.0796,-1.4125,3.1264,-0.2607,0.9673,rough,14.0,1,3.498
3930,125.76,-1.0175,8.0293,-1.4213,3.0659,-0.1629,1.0515,rough,14.0,1,3.462
3940,126.08,-1.0141,8.0308,-1.4126,3.0780,-0.1876,0.9665,rough,14.0,1,3.461
3950,126.40,-1.0168,8.0424,-1.4180,3.0748,-0.2004,1.0632,rough,14.0,1,3.473
3960,126.72,-1.0254,8.0314,-1.4174,3.0752,-0.1637,1.0254,rough,14.0,1,3.468
3970,127.04,-1.0373,8.0167,-1.4152,3.0776,-0.1296,1.0333,rough,14.0,1,3.461
3980,127.36,-1.0312,8.0285,-1.4166,3.0956,-0.1485,0.9840,rough,14.0,1,3.468
3990,127.68,-1.0164,8.0415,-1.4162,3.0787,-0.2130,1.1023,rough,14.0,1,3.472
4000,128.00,-1.0106,8.0622,-1.4194,3.0684,-0.2268,1.0132,rough,14.0,1,3.486
4010,128.32,-1.0153,8.0812,-1.4103,3.1173,-0.2764,1.0533,rough,14.0,1,3.505
4020,128.64,-1.0095,8.0470,-1.4158,3.0852,-0.2007,1.0334,rough,14.0,1,3.473
4030,128.96,-1.0454,8.0035,-1.4141,3.0857,-0.1174,0.9684,rough,14.0,1,3.455
4040,129.28,-1.0131,8.0427,-1.4146,3.1034,-0.2023,1.0475,rough,14.0,1,3.471
4050,129.60,-1.0150,8.0407,-1.4191,3.0838,-0.1844,1.0502,rough,14.0,1,3.470
4060,129.92,-1.0258,8.0303,-1.4216,3.0556,-0.1775,1.0780,rough,14.0,1,3.467
4070,130.24,-1.0247,8.0064,-1.4138,3.0738,-0.1354,0.9916,rough,14.0,1,3.446
4080,130.56,-1.0197,8.0422,-1.4182,3.0712,-0.1721,1.0164,rough,14.0,1,3.474
4090,130.88,-1.0149,8.0392,-1.4183,3.0810,-0.1901,1.0363,rough,14.0,1,3.469
4100,131.20,-1.0430,8.0057,-1.4204,3.0795,-0.1230,1.0430,rough,14.0,1,3.455
4110,131.52,-1.0493,8.0050,-1.4195,3.0732,-0.1220,1.0393,rough,14.0,1,3.458
4120,131.84,-1.0417,8.0349,-1.4228,3.0785,-0.1632,1.0086,rough,14.0,1,3.479
4130,132.16,-0.9941,8.1151,-1.3981,3.0771,-0.2735,1.1468,rough,14.0,1,3.523
4140,132.48,-1.0293,8.0541,-1.4124,3.1120,-0.2094,1.0078,rough,14.0,1,3.489
4150,132.80,-1.0942,7.8848,-1.4006,3.0541,0.0442,0.9370,rough,14.0,1,3.382
4160,133.12,-1.1059,7.9098,-1.4114,3.0936,0.0782,1.0407,rough,14.0,1,3.409
4170,133.44,-1.0386,8.0142,-1.4199,3.0534,-0.1419,1.0812,rough,14.0,1,3.460
4180,133.76,-1.0136,8.0430,-1.4191,3.0901,-0.1994,0.9996,rough,14.0,1,3.471
4190,134.08,-1.0300,8.0387,-1.4252,3.0849,-0.1654,1.0968,rough,14.0,1,3.476
4200,134.40,-1.0218,8.0511,-1.4144,3.0691,-0.2105,1.1079,rough,14.0,1,3.483
4210,134.72,-1.0442,7.9876,-1.4125,3.0696,-0.1081,0.9986,rough,14.0,1,3.441
4220,135.04,-1.0605,7.9708,-1.4170,3.1019,-0.0582,1.0293,rough,14.0,1,3.435
4230,135.36,-1.0684,7.9720,-1.4133,3.1199,-0.0554,0.8899,rough,14.0,1,3.440
4240,135.68,-1.0391,8.0244,-1.4181,3.0815,-0.1454,1.0395,rough,14.0,1,3.469
4250,136.00,-1.0192,8.0405,-1.4177,3.0737,-0.1851,1.0591,rough,14.0,1,3.472
4260,136.32,-1.0201,8.0518,-1.4164,3.0919,-0.2144,1.0610,rough,14.0,1,3.482
4270,136.64,-1.0170,8.0166,-1.4169,3.0485,-0.1780,1.0904,rough,14.0,1,3.451
4280,136.96,-1.0256,8.0179,-1.4136,3.0708,-0.1627,0.9985,rough,14.0,1,3.456
4290,137.28,-1.0082,8.0541,-1.4157,3.0970,-0.2192,1.0388,rough,14.0,1,3.478
4300,137.60,-1.0223,8.0224,-1.4206,3.0646,-0.1601,1.0709,rough,14.0,1,3.458
4310,137.92,-1.0182,8.0341,-1.4199,3.0715,-0.1880,1.0544,rough,14.0,1,3.466
4320,138.24,-1.0181,8.0222,-1.4196,3.0574,-0.1710,1.0682,rough,14.0,1,3.456
4330,138.56,-1.0131,8.0541,-1.4135,3.0620,-0.1896,1.0778,rough,14.0,1,3.481
4340,138.88,-1.0415,7.9902,-1.4143,3.0704,-0.1098,1.0271,rough,14.0,1,3.441
4350,139.20,-1.0433,8.0140,-1.4174,3.0917,-0.1019,0.9943,rough,14.0,1,3.462
4360,139.52,-1.0293,8.0193,-1.4173,3.0753,-0.1516,1.0531,rough,14.0,1,3.459
4370,139.84,-1.0209,8.0470,-1.4187,3.0765,-0.1821,1.0634,rough,14.0,1,3.479
4380,140.16,-1.0147,8.0389,-1.4168,3.0706,-0.2006,0.9733,rough,14.0,1,3.469
4390,140.48,-1.0190,8.0370,-1.4207,3.0665,-0.1723,0.9939,rough,14.0,1,3.469
4400,140.80,-1.0153,8.0396,-1.4184,3.0773,-0.1906,1.0358,rough,14.0,1,3.469
4410,141.12,-1.0160,8.0356,-1.4183,3.0685,-0.1910,1.0664,rough,14.0,1,3.466
4420,141.44,-1.0208,8.0390,-1.4203,3.0670,-0.1904,1.0532,rough,14.0,1,3.472
4430,141.76,-1.0189,8.0343,-1.4200,3.0741,-0.1804,1.0641,rough,14.0,1,3.467
4440,142.08,-1.0161,8.0085,-1.4124,3.0499,-0.1813,1.0232,rough,14.0,1,3.443
4450,142.40,-1.0098,8.0633,-1.4135,3.0673,-0.1927,1.0357,rough,14.0,1,3.487
4460,142.72,-1.0149,8.0366,-1.4205,3.0846,-0.1815,0.9772,rough,14.0,1,3.467
4470,143.04,-1.0138,8.0321,-1.4217,3.0580,-0.1693,1.0149,rough,14.0,1,3.462
4480,143.36,-1.0340,8.0319,-1.4189,3.1030,-0.1381,1.0020,rough,14.0,1,3.473
4490,143.68,-0.9889,8.0818,-1.4023,3.0933,-0.2384,1.1053,rough,14.0,1,3.492
4500,144.00,-1.0353,7.9977,-1.4147,3.0846,-0.1015,1.0030,rough,14.0,1,3.444
4510,144.32,-1.0379,8.0141,-1.4155,3.0967,-0.1213,0.9906,rough,14.0,1,3.460
4520,144.64,-1.0163,8.0938,-1.4050,3.0906,-0.2750,1.1400,rough,14.0,1,3.516
4530,144.96,-1.0190,8.0234,-1.4234,3.1193,-0.2103,0.9870,rough,14.0,1,3.457
4540,145.28,-1.0199,8.0344,-1.4188,3.0689,-0.1833,1.0502,rough,14.0,1,3.467
4550,145.60,-1.0193,8.0459,-1.4134,3.0657,-0.2032,1.1264,rough,14.0,1,3.477
4560,145.92,-1.0250,7.9981,-1.4138,3.0429,-0.1672,0.9786,rough,14.0,1,3.439
4570,146.24,-1.0135,8.0509,-1.4143,3.0898,-0.1989,1.0284,rough,14.0,1,3.478
4580,146.56,-1.0076,8.0534,-1.4194,3.0990,-0.2217,0.9759,rough,14.0,1,3.477
4590,146.88,-1.0369,8.0211,-1.4156,3.0892,-0.1393,1.0310,rough,14.0,1,3.465
4600,147.20,-1.0843,7.9488,-1.4111,3.0884,0.0060,1.0577,rough,14.0,1,3.430
4610,147.52,-1.0787,7.9649,-1.4178,3.0798,-0.0267,1.0420,rough,14.0,1,3.440
4620,147.84,-1.0175,8.0121,-1.4175,3.0720,-0.1609,1.0061,rough,14.0,1,3.447
4630,148.16,-1.0155,8.0451,-1.4176,3.0752,-0.1899,1.0170,rough,14.0,1,3.474
4640,148.48,-1.0263,8.0214,-1.4134,3.0730,-0.1682,0.9716,rough,14.0,1,3.460
4650,148.80,-1.0105,8.0664,-1.4124,3.1166,-0.2585,1.0655,rough,14.0,1,3.490
4660,149.12,-1.0152,8.0199,-1.4135,3.0758,-0.1615,0.9441,rough,14.0,1,3.452
4670,149.44,-1.0176,8.0844,-1.4135,3.1212,-0.2646,1.0173,rough,14.0,1,3.509
4680,149.76,-1.0053,8.0503,-1.4157,3.0940,-0.2078,1.0043,rough,14.0,1,3.473
4690,150.08,-1.0400,8.0049,-1.4166,3.0839,-0.1149,1.0304,rough,14.0,1,3.453
4700,150.40,-1.0149,8.0441,-1.4183,3.0584,-0.1902,1.0841,rough,14.0,1,3.473
4710,150.72,-1.0321,8.0304,-1.4179,3.0905,-0.1631,0.9955,rough,14.0,1,3.470
4720,151.04,-1.0333,8.0221,-1.4166,3.0848,-0.1452,1.0051,rough,14.0,1,3.464
4730,151.36,-1.0229,8.0514,-1.4151,3.0850,-0.1933,1.0270,rough,14.0,1,3.483
4740,151.68,-1.0207,8.0379,-1.4173,3.0647,-0.1919,1.1333,rough,14.0,1,3.471
4750,152.00,-1.0190,8.0433,-1.4178,3.0681,-0.1819,1.0444,rough,14.0,1,3.474
4760,152.32,-1.0266,8.0195,-1.4158,3.0744,-0.1611,1.0213,rough,14.0,1,3.458
4770,152.64,-1.0219,8.0292,-1.4183,3.0746,-0.1802,1.0307,rough,14.0,1,3.464
4780,152.96,-1.0155,8.0495,-1.4187,3.0784,-0.2150,1.0371,rough,14.0,1,3.478
4790,153.28,-1.0247,8.0267,-1.4171,3.0394,-0.1531,1.1193,rough,14.0,1,3.463
4800,153.60,-1.0159,8.0485,-1.4188,3.0991,-0.2045,0.9977,rough,14.0,1,3.477
4810,153.92,-1.0240,8.0435,-1.4148,3.0863,-0.1880,1.0417,rough,14.0,1,3.477
4820,154.24,-1.0264,8.0271,-1.4185,3.0816,-0.1563,1.0205,rough,14.0,1,3.465
4830,154.56,-1.0158,8.0469,-1.4170,3.0703,-0.2045,1.0645,rough,14.0,1,3.476
4840,154.88,-1.0114,8.0362,-1.4177,3.0957,-0.1746,1.0551,rough,14.0,1,3.464
4850,155.20,-1.0113,8.0424,-1.4162,3.0784,-0.1917,1.0509,rough,14.0,1,3.470
4860,155.52,-1.0213,8.0097,-1.4165,3.0659,-0.1475,1.0887,rough,14.0,1,3.447
4870,155.84,-1.0379,8.0246,-1.4211,3.0965,-0.1253,1.0629,rough,14.0,1,3.469
4880,156.16,-1.0021,8.0613,-1.4198,3.0710,-0.2360,1.0257,rough,14.0,1,3.481
4890,156.48,-1.0100,8.0722,-1.4112,3.0795,-0.2234,1.0475,rough,14.0,1,3.494
4900,156.80,-1.0247,8.0126,-1.4139,3.0587,-0.1659,1.0003,rough,14.0,1,3.451
4910,157.12,-1.0116,8.0437,-1.4181,3.0906,-0.2035,1.0418,rough,14.0,1,3.471
4920,157.44,-1.0316,8.0182,-1.4184,3.0828,-0.1231,0.9618,rough,14.0,1,3.460
4930,157.76,-1.0150,8.0505,-1.4154,3.0390,-0.2032,1.1582,rough,14.0,1,3.479
4940,158.08,-1.0286,8.0324,-1.4165,3.0793,-0.1645,1.0338,rough,14.0,1,3.470
4950,158.40,-1.0135,8.0344,-1.4186,3.0805,-0.1710,1.0108,rough,14.0,1,3.464
4960,158.72,-1.0249,8.0242,-1.4203,3.0493,-0.1545,1.1363,rough,14.0,1,3.461
4970,159.04,-1.0270,8.0226,-1.4180,3.0738,-0.1542,1.0438,rough,14.0,1,3.461
4980,159.36,-1.0094,8.0551,-1.4135,3.1104,-0.2052,0.9678,rough,14.0,1,3.480
4990,159.68,-1.0345,7.9994,-1.4151,3.0587,-0.1304,1.0277,rough,14.0,1,3.445
5000,160.00,-1.0540,7.9664,-1.4118,3.0649,-0.0724,1.0270,rough,14.0,1,3.428
5010,160.32,-1.0152,8.0512,-1.4131,3.0655,-0.2202,1.1630,rough,14.0,1,3.479
5020,160.64,-1.0175,8.0287,-1.4169,3.0582,-0.1882,0.9860,rough,14.0,1,3.461
5030,160.96,-1.0156,8.0537,-1.4175,3.0927,-0.1998,0.9676,rough,14.0,1,3.482
5040,161.28,-1.0462,8.0015,-1.4157,3.0790,-0.1029,1.0363,rough,14.0,1,3.453
5050,161.60,-1.0489,8.0211,-1.4226,3.0734,-0.1422,1.0296,rough,14.0,1,3.471
5060,161.92,-1.0179,8.0409,-1.4170,3.0778,-0.1935,0.9983,rough,14.0,1,3.472
5070,162.24,-1.0073,8.0613,-1.4191,3.0447,-0.2101,1.0561,rough,14.0,1,3.484
5080,162.56,-1.0264,8.0086,-1.4181,3.0738,-0.1256,1.0649,rough,14.0,1,3.449
5090,162.88,-1.0411,8.0121,-1.4142,3.0678,-0.1229,1.0648,rough,14.0,1,3.460
5100,163.20,-1.0160,8.0364,-1.4173,3.0735,-0.1972,1.0833,rough,14.0,1,3.467
5110,163.52,-1.0207,8.0446,-1.4216,3.0833,-0.1766,1.0603,rough,14.0,1,3.476
5120,163.84,-1.0126,8.0494,-1.4133,3.0600,-0.1868,1.0934,rough,14.0,1,3.476
5130,164.16,-1.0420,7.9582,-1.4051,3.0350,-0.1121,0.9618,rough,14.0,1,3.415
5140,164.48,-1.0549,7.9724,-1.4133,3.0680,-0.0766,1.0324,rough,14.0,1,3.433
5150,164.80,-1.0396,7.9920,-1.4211,3.0978,-0.1217,1.0208,rough,14.0,1,3.442
5160,165.12,-1.0628,8.0027,-1.4224,3.0647,-0.1052,1.0606,rough,14.0,1,3.463
5170,165.44,-1.0095,8.0596,-1.4219,3.0571,-0.2354,1.0519,rough,14.0,1,3.483
5180,165.76,-1.0211,8.0023,-1.4134,3.0633,-0.1576,1.0317,rough,14.0,1,3.441
5190,166.08,-1.0699,7.9740,-1.4162,3.0787,-0.0183,0.9844,rough,14.0,1,3.443
5200,166.40,-1.1026,7.9417,-1.4105,3.1121,0.0399,0.9951,rough,14.0,1,3.434
5210,166.72,-1.1018,7.9301,-1.4120,3.1071,0.0729,0.9631,rough,14.0,1,3.424
5220,167.04,-1.1050,7.9176,-1.4125,3.1110,0.0811,0.9946,rough,14.0,1,3.415
5230,167.36,-1.1050,7.9245,-1.4111,-3.1405,0.0734,0.9220,rough,14.0,1,3.421
5240,167.68,-1.1001,7.9340,-1.4096,3.1200,0.0580,0.9251,rough,14.0,1,3.426
5250,168.00,-1.0694,7.9723,-1.4157,3.0863,-0.0383,1.0211,rough,14.0,1,3.441
5260,168.32,-1.0167,8.0257,-1.4196,3.0499,-0.1873,1.1365,rough,14.0,1,3.458
5270,168.64,-1.0188,8.0300,-1.4185,3.0661,-0.1684,1.0635,rough,14.0,1,3.463
5280,168.96,-1.0279,8.0338,-1.4179,3.0937,-0.1575,1.0039,rough,14.0,1,3.471
5290,169.28,-1.0173,8.0301,-1.4192,3.0626,-0.1754,1.0707,rough,14.0,1,3.462
5300,169.60,-1.0157,8.0393,-1.4157,3.0872,-0.1927,0.9680,rough,14.0,1,3.469
5310,169.92,-1.0169,8.0334,-1.4209,3.0641,-0.1986,1.1226,rough,14.0,1,3.465
5320,170.24,-1.0251,8.0290,-1.4173,3.0818,-0.1736,1.0448,rough,14.0,1,3.466
5330,170.56,-1.0211,8.0511,-1.4201,3.0730,-0.2285,1.0657,rough,14.0,1,3.482
5340,170.88,-1.0368,8.0024,-1.4128,3.0716,-0.1335,0.9730,rough,14.0,1,3.449
5350,171.20,-1.0190,8.0500,-1.4196,2.9911,-0.1996,1.2049,rough,14.0,1,3.480
5360,171.52,-1.0117,8.0529,-1.4182,3.0819,-0.2042,1.0209,rough,14.0,1,3.479
5370,171.84,-1.0563,8.0035,-1.4179,3.1141,-0.0710,1.0054,rough,14.0,1,3.461
5380,172.16,-1.0843,7.9533,-1.4141,3.1083,0.0118,0.9821,rough,14.0,1,3.433
5390,172.48,-1.0735,7.9677,-1.4131,3.1094,-0.0232,0.9703,rough,14.0,1,3.440
5400,172.80,-1.0489,8.0036,-1.4187,3.0987,-0.0864,1.0464,rough,14.0,1,3.457
5410,173.12,-1.0066,8.0321,-1.4190,3.0856,-0.1835,1.0283,rough,14.0,1,3.458
5420,173.44,-1.0127,8.0336,-1.4185,3.0789,-0.1942,1.0580,rough,14.0,1,3.463
5430,173.76,-1.0079,8.0517,-1.4165,3.0882,-0.1945,1.0943,rough,14.0,1,3.476
5440,174.08,-1.0209,8.0368,-1.4171,3.0751,-0.1766,1.0391,rough,14.0,1,3.470
5450,174.40,-1.0341,8.0130,-1.4144,3.0867,-0.1248,0.9724,rough,14.0,1,3.457
5460,174.72,-1.0150,8.0353,-1.4188,3.0745,-0.1804,1.0776,rough,14.0,1,3.466
5470,175.04,-1.0352,8.0085,-1.4138,3.0836,-0.1286,0.9816,rough,14.0,1,3.453
5480,175.36,-1.0164,8.0381,-1.4167,3.0750,-0.2037,1.1238,rough,14.0,1,3.469
5490,175.68,-1.0174,8.0419,-1.4169,3.0842,-0.1885,0.9870,rough,14.0,1,3.472
5500,176.00,-1.0051,8.0491,-1.4144,3.0768,-0.1856,1.0315,rough,14.0,1,3.472
5510,176.32,-1.0198,8.0260,-1.4203,3.0574,-0.1652,1.0467,rough,14.0,1,3.460
5520,176.64,-1.0179,8.0525,-1.4150,3.0852,-0.2052,1.0374,rough,14.0,1,3.482
5530,176.96,-1.0140,8.0427,-1.4195,3.0665,-0.2013,1.0449,rough,14.0,1,3.471
5540,177.28,-1.0200,8.0470,-1.4158,3.0687,-0.1994,1.0833,rough,14.0,1,3.478
5550,177.60,-1.0335,8.0059,-1.4150,3.0686,-0.1353,1.0072,rough,14.0,1,3.450
5560,177.92,-1.0167,8.0450,-1.4164,3.0683,-0.1935,1.0611,rough,14.0,1,3.475
5570,178.24,-1.0200,8.0401,-1.4187,3.0688,-0.1802,1.0785,rough,14.0,1,3.472
5580,178.56,-1.0258,8.0401,-1.4173,3.0627,-0.1726,1.0453,rough,14.0,1,3.475
5590,178.88,-1.0297,8.0258,-1.4151,3.0827,-0.1625,0.9721,rough,14.0,1,3.465
5600,179.20,-1.0070,8.0407,-1.4194,3.0739,-0.1769,0.9769,rough,14.0,1,3.466
5610,179.52,-1.0214,8.0165,-1.4140,3.0676,-0.1717,1.0156,rough,14.0,1,3.453
5620,179.84,-1.0101,8.0604,-1.4146,3.0720,-0.2050,1.0458,rough,14.0,1,3.484
5630,180.16,-1.0178,8.0377,-1.4205,3.0358,-0.1442,0.9833,rough,14.0,1,3.469
5640,180.48,-1.0214,8.0276,-1.4190,3.0702,-0.1702,1.0404,rough,14.0,1,3.462
5650,180.80,-1.0169,8.0422,-1.4189,3.0710,-0.1857,1.0422,rough,14.0,1,3.472
5660,181.12,-1.0157,8.0357,-1.4207,3.0850,-0.1996,1.0211,rough,14.0,1,3.466
5670,181.44,-1.0194,8.0348,-1.4176,3.0681,-0.1859,1.0740,rough,14.0,1,3.467
5680,181.76,-1.0220,8.0304,-1.4201,3.0788,-0.1681,1.0560,rough,14.0,1,3.465
5690,182.08,-1.0123,8.0926,-1.4097,3.0535,-0.2157,1.0283,rough,14.0,1,3.513
5700,182.40,-1.0185,8.0273,-1.4200,3.0768,-0.1731,1.0277,rough,14.0,1,3.461
5710,182.72,-1.0108,8.0457,-1.4191,3.0871,-0.1870,0.9719,rough,14.0,1,3.472
5720,183.04,-1.0188,8.0444,-1.4169,3.0708,-0.1903,1.0599,rough,14.0,1,3.475
5730,183.36,-1.0220,8.0144,-1.4253,3.1005,-0.1820,0.9998,rough,14.0,1,3.451
5740,183.68,-1.0417,8.0144,-1.4158,3.0858,-0.1278,1.0311,rough,14.0,1,3.462
5750,184.00,-1.0394,8.0081,-1.4147,3.0866,-0.1214,0.9767,rough,14.0,1,3.455
5760,184.32,-1.0172,8.0423,-1.4193,3.1093,-0.2257,1.0408,rough,14.0,1,3.473
5770,184.64,-1.0113,8.0386,-1.4229,3.1000,-0.1762,0.9567,rough,14.0,1,3.466
5780,184.96,-1.0257,8.0272,-1.4178,3.0725,-0.1725,1.0695,rough,14.0,1,3.464
5790,185.28,-1.0185,8.0491,-1.4153,3.0574,-0.1867,1.0937,rough,14.0,1,3.479
5800,185.60,-1.0191,8.0470,-1.4173,3.0779,-0.1887,1.0365,rough,14.0,1,3.478
5810,185.92,-1.0267,8.0271,-1.4172,3.0841,-0.1576,1.0060,rough,14.0,1,3.465
5820,186.24,-1.0120,8.0355,-1.4181,3.0828,-0.1853,1.0266,rough,14.0,1,3.464
5830,186.56,-1.0407,8.0053,-1.4165,3.0777,-0.1230,1.0174,rough,14.0,1,3.454
5840,186.88,-1.0405,8.0118,-1.4180,3.0893,-0.1068,0.9956,rough,14.0,1,3.459
5850,187.20,-1.0159,8.0545,-1.4177,3.0858,-0.1973,1.0020,rough,14.0,1,3.482
5860,187.52,-1.0218,8.0628,-1.4139,3.0373,-0.1934,1.0899,rough,14.0,1,3.493
5870,187.84,-1.0091,8.0413,-1.4160,3.0825,-0.1882,1.0596,rough,14.0,1,3.468
5880,188.16,-1.0144,8.0324,-1.4206,3.1054,-0.1684,1.0501,rough,14.0,1,3.463
5890,188.48,-1.0233,8.0214,-1.4176,3.0646,-0.1655,1.0431,rough,14.0,1,3.458
5900,188.80,-1.0109,8.0583,-1.4157,3.0624,-0.2242,1.1180,rough,14.0,1,3.483
5910,189.12,-1.0161,8.0391,-1.4181,3.0754,-0.1876,1.0738,rough,14.0,1,3.469
5920,189.44,-1.0145,8.0428,-1.4150,3.0810,-0.2034,0.9720,rough,14.0,1,3.472
5930,189.76,-1.0086,8.0608,-1.4127,3.0568,-0.1917,1.0637,rough,14.0,1,3.484
5940,190.08,-1.0070,8.0233,-1.4134,3.0851,-0.1704,1.0034,rough,14.0,1,3.451
5950,190.40,-1.0160,8.0604,-1.4143,3.0827,-0.2102,1.0295,rough,14.0,1,3.488
5960,190.72,-1.0153,8.0355,-1.4201,3.0658,-0.1845,1.0787,rough,14.0,1,3.466
5970,191.04,-1.0190,8.0355,-1.4201,3.0718,-0.1712,1.0472,rough,14.0,1,3.468
5980,191.36,-1.0094,8.0409,-1.4132,3.0793,-0.1998,1.1190,rough,14.0,1,3.467
5990,191.68,-1.0721,7.9751,-1.4152,3.1091,-0.0284,0.9750,rough,14.0,1,3.445
6000,192.00,-1.0635,7.9683,-1.4155,3.0913,-0.0280,1.0078,rough,14.0,1,3.435
6010,192.32,-1.0273,8.0358,-1.4179,3.0825,-0.1727,1.0177,rough,14.0,1,3.472
6020,192.64,-1.0091,8.0381,-1.4162,3.0836,-0.1930,1.0518,rough,14.0,1,3.465
6030,192.96,-1.0195,8.0362,-1.4188,3.0717,-0.1875,1.0432,rough,14.0,1,3.469
6040,193.28,-1.0244,8.0247,-1.4198,3.0718,-0.1644,1.0791,rough,14.0,1,3.461
6050,193.60,-1.0091,8.0302,-1.4169,3.0793,-0.1656,0.9753,rough,14.0,1,3.458
6060,193.92,-1.0377,8.0044,-1.4144,3.0792,-0.1242,0.9905,rough,14.0,1,3.451
6070,194.24,-1.0204,8.0293,-1.4206,3.0982,-0.1810,1.0132,rough,14.0,1,3.463
6080,194.56,-1.0293,8.0395,-1.4184,3.0759,-0.1793,1.0365,rough,14.0,1,3.477
6090,194.88,-1.0086,8.0434,-1.4162,3.0873,-0.2036,1.0391,rough,14.0,1,3.469
6100,195.20,-1.0206,8.0220,-1.4146,3.0718,-0.1745,0.9740,rough,14.0,1,3.457
6110,195.52,-1.0236,8.0324,-1.4174,3.0725,-0.1962,1.1161,rough,14.0,1,3.468
6120,195.84,-1.0181,8.0603,-1.4150,3.0914,-0.2242,1.0631,rough,14.0,1,3.488
6130,196.16,-1.0274,8.0186,-1.4214,3.0498,-0.1553,1.0679,rough,14.0,1,3.458
6140,196.48,-1.0152,8.0437,-1.4144,3.0649,-0.1899,1.1151,rough,14.0,1,3.473
6150,196.80,-1.0211,8.0206,-1.4212,3.0509,-0.1704,1.1009,rough,14.0,1,3.456
6160,197.12,-1.0223,8.0208,-1.4208,3.0648,-0.1516,1.0301,rough,14.0,1,3.457
6170,197.44,-1.0055,8.0719,-1.4106,3.1226,-0.2604,1.0450,rough,14.0,1,3.492
6180,197.76,-1.0385,8.0111,-1.4176,3.0780,-0.1328,1.0598,rough,14.0,1,3.457
6190,198.08,-1.0285,8.0261,-1.4221,3.0547,-0.1863,1.0698,rough,14.0,1,3.465
6200,198.40,-1.0191,8.0498,-1.4153,3.0843,-0.2261,1.0863,rough,14.0,1,3.480
6210,198.72,-1.0128,8.0381,-1.4190,3.0700,-0.1792,1.0074,rough,14.0,1,3.467
6220,199.04,-1.0147,8.0422,-1.4147,3.0872,-0.1845,0.9781,rough,14.0,1,3.471
6230,199.36,-1.0229,8.0019,-1.4144,3.0532,-0.1501,0.9677,rough,14.0,1,3.441
6240,199.68,-1.0543,7.9957,-1.4156,3.0909,-0.0654,0.9712,rough,14.0,1,3.453
6250,200.00,-1.0483,8.0011,-1.4164,3.0957,-0.0965,1.0073,rough,14.0,1,3.454
6260,200.32,-1.0189,8.0535,-1.4202,3.1098,-0.1865,0.9527,rough,14.0,1,3.483
6270,200.64,-1.0137,8.0464,-1.4202,3.0795,-0.1782,0.9455,rough,14.0,1,3.474
6280,200.96,-1.0363,8.0126,-1.4194,3.0806,-0.1271,1.0544,rough,14.0,1,3.458
6290,201.28,-1.0346,8.0325,-1.4215,3.1024,-0.1377,1.0384,rough,14.0,1,3.473
6300,201.60,-1.0137,8.0430,-1.4221,3.0835,-0.1858,1.0280,rough,14.0,1,3.471
6310,201.92,-1.0174,8.0364,-1.4227,3.0977,-0.2052,1.0073,rough,14.0,1,3.468
6320,202.24,-1.0161,8.0446,-1.4151,3.0829,-0.1945,0.9823,rough,14.0,1,3.474
6330,202.56,-1.0176,8.0372,-1.4174,3.0542,-0.1823,1.0905,rough,14.0,1,3.469
6340,202.88,-1.0184,8.0375,-1.4173,3.0707,-0.1911,1.0395,rough,14.0,1,3.469
6350,203.20,-1.0089,8.0484,-1.4162,3.0861,-0.1968,1.0206,rough,14.0,1,3.474
6360,203.52,-1.0322,8.0101,-1.4173,3.0630,-0.1468,1.0562,rough,14.0,1,3.453
6370,203.84,-1.0170,8.0862,-1.4106,3.1016,-0.2863,1.1042,rough,14.0,1,3.510
6380,204.16,-1.0250,8.0279,-1.4185,3.0577,-0.1672,1.0812,rough,14.0,1,3.465
6390,204.48,-1.0674,7.9741,-1.4133,3.0999,-0.0434,0.9806,rough,14.0,1,3.442
6400,204.80,-1.0819,7.9558,-1.4162,3.1055,0.0121,1.0482,rough,14.0,1,3.434
6410,205.12,-1.0744,7.9964,-1.4172,3.1155,-0.0648,0.9210,rough,14.0,1,3.464
6420,205.44,-1.0031,8.0689,-1.4116,3.0275,-0.1939,1.1094,rough,14.0,1,3.488
6430,205.76,-1.0189,8.0595,-1.4157,3.0906,-0.2100,0.9849,rough,14.0,1,3.488
6440,206.08,-1.0273,7.9616,-1.4068,2.9912,-0.1711,1.0391,rough,14.0,1,3.410
6450,206.40,-1.0250,8.0376,-1.4154,3.0476,-0.1521,1.0711,rough,14.0,1,3.473
6460,206.72,-1.0150,8.0284,-1.4206,3.0733,-0.1790,1.0235,rough,14.0,1,3.460
6470,207.04,-1.0403,8.0138,-1.4159,3.0932,-0.1220,0.9873,rough,14.0,1,3.461
6480,207.36,-1.0199,8.0478,-1.4218,3.0902,-0.1801,1.0627,rough,14.0,1,3.479
6490,207.68,-1.0096,8.0572,-1.4178,3.0885,-0.2147,0.9815,rough,14.0,1,3.481
6500,208.00,-1.0264,8.0035,-1.4127,3.0721,-0.1514,0.9748,rough,14.0,1,3.444
6510,208.32,-1.0406,8.0035,-1.4176,3.0814,-0.1127,1.0562,rough,14.0,1,3.452
6520,208.64,-1.0134,8.0966,-1.4066,3.1139,-0.2879,1.0700,rough,14.0,1,3.517
6530,208.96,-1.0097,8.0448,-1.4192,3.0549,-0.1807,1.0231,rough,14.0,1,3.471
6540,209.28,-1.0198,8.0093,-1.4135,3.0825,-0.1496,1.0128,rough,14.0,1,3.446
6550,209.60,-1.0172,8.0460,-1.4183,3.0783,-0.1921,1.0129,rough,14.0,1,3.476
6560,209.92,-1.0307,8.0105,-1.4157,3.0695,-0.1449,1.0315,rough,14.0,1,3.453
6570,210.24,-1.0097,8.0641,-1.4140,3.0891,-0.2244,1.1111,rough,14.0,1,3.487
6580,210.56,-1.0222,8.0227,-1.4202,3.0710,-0.1659,1.0434,rough,14.0,1,3.459
6590,210.88,-1.0122,8.0558,-1.4171,3.0879,-0.2018,1.0105,rough,14.0,1,3.482
6600,211.20,-1.0144,8.0637,-1.4146,3.0749,-0.2017,1.0071,rough,14.0,1,3.489
6610,211.52,-1.0187,8.0687,-1.4107,3.0897,-0.2196,1.0428,rough,14.0,1,3.496
6620,211.84,-1.0354,7.9952,-1.4123,3.0640,-0.1336,1.0018,rough,14.0,1,3.442
6630,212.16,-1.0335,8.0042,-1.4189,3.0594,-0.1163,1.0673,rough,14.0,1,3.449
6640,212.48,-1.0298,8.0255,-1.4179,3.0696,-0.1425,1.0121,rough,14.0,1,3.465
6650,212.80,-1.0069,8.0400,-1.4167,3.0827,-0.1867,1.0880,rough,14.0,1,3.465
6660,213.12,-1.0262,8.0247,-1.4194,3.0512,-0.1752,1.1193,rough,14.0,1,3.462
6670,213.44,-1.0167,8.0430,-1.4166,3.0855,-0.1946,1.0616,rough,14.0,1,3.473
6680,213.76,-1.0049,8.0318,-1.4165,3.0757,-0.1750,1.0581,rough,14.0,1,3.457
6690,214.08,-1.0155,8.0259,-1.4193,3.0949,-0.1726,0.9905,rough,14.0,1,3.458
6700,214.40,-1.0163,8.0270,-1.4213,3.0540,-0.1633,1.0585,rough,14.0,1,3.459
6710,214.72,-1.0164,8.0271,-1.4204,3.0617,-0.1659,1.0330,rough,14.0,1,3.459
6720,215.04,-1.0233,8.0145,-1.4155,3.0781,-0.1429,0.9882,rough,14.0,1,3.452
6730,215.36,-1.0237,8.0363,-1.4191,3.0764,-0.1582,1.0221,rough,14.0,1,3.471
6740,215.68,-1.0234,8.0425,-1.4184,3.0917,-0.1744,0.9989,rough,14.0,1,3.476
6750,216.00,-1.0269,8.0327,-1.4180,3.0459,-0.1753,1.1195,rough,14.0,1,3.470
6760,216.32,-1.0285,8.0337,-1.4207,3.0954,-0.1498,1.0494,rough,14.0,1,3.471
6770,216.64,-1.0201,8.0301,-1.4192,3.0867,-0.1797,1.0346,rough,14.0,1,3.464
6780,216.96,-1.0166,8.0470,-1.4187,3.0722,-0.1784,1.0107,rough,14.0,1,3.476
6790,217.28,-1.0381,8.0150,-1.4184,3.0877,-0.1240,1.0325,rough,14.0,1,3.460
6800,217.60,-1.0263,8.0251,-1.4194,3.0818,-0.1511,0.9890,rough,14.0,1,3.463
6810,217.92,-1.0196,8.0263,-1.4161,3.0717,-0.1732,0.9404,rough,14.0,1,3.460
6820,218.24,-1.0163,8.0307,-1.4146,3.0721,-0.1961,0.9730,rough,14.0,1,3.462
6830,218.56,-1.0216,8.0160,-1.4204,3.0494,-0.1637,1.1167,rough,14.0,1,3.453
6840,218.88,-1.0140,8.0508,-1.4174,3.0914,-0.2089,1.0056,rough,14.0,1,3.478
6850,219.20,-1.0181,8.0484,-1.4137,3.0958,-0.2375,1.1198,rough,14.0,1,3.478
6860,219.52,-1.0181,8.0413,-1.4172,3.0680,-0.1953,1.0725,rough,14.0,1,3.472
6870,219.84,-1.0073,8.0572,-1.4110,3.0877,-0.2190,1.0905,rough,14.0,1,3.480
6880,220.16,-1.0282,8.0000,-1.4126,3.0564,-0.1515,1.0043,rough,14.0,1,3.443
6890,220.48,-1.0193,8.0266,-1.4154,3.0597,-0.1884,1.0232,rough,14.0,1,3.460
6900,220.80,-1.0165,8.0443,-1.4169,3.0744,-0.1968,1.0726,rough,14.0,1,3.474
6910,221.12,-1.0282,8.0087,-1.4186,3.0583,-0.1501,1.1034,rough,14.0,1,3.450
6920,221.44,-1.0176,8.0723,-1.4128,3.1081,-0.2529,1.0540,rough,14.0,1,3.498
6930,221.76,-1.0133,8.0832,-1.4090,3.1330,-0.2916,1.0595,rough,14.0,1,3.506
6940,222.08,-1.0070,8.0297,-1.4170,3.0792,-0.1801,1.0617,rough,14.0,1,3.457
6950,222.40,-1.0091,8.0370,-1.4151,3.0716,-0.1945,1.0539,rough,14.0,1,3.464
6960,222.72,-1.0170,8.0477,-1.4175,3.0712,-0.1955,1.0457,rough,14.0,1,3.477
6970,223.04,-1.0187,8.0307,-1.4216,3.0977,-0.1964,0.9937,rough,14.0,1,3.464
6980,223.36,-1.0396,8.0068,-1.4181,3.0883,-0.1133,1.0243,rough,14.0,1,3.454
6990,223.68,-1.0241,8.0269,-1.4152,3.0729,-0.1672,1.0013,rough,14.0,1,3.463
7000,224.00,-1.0132,8.0541,-1.4154,3.0665,-0.2311,1.1273,rough,14.0,1,3.481
7010,224.32,-1.0055,8.0536,-1.4174,3.0913,-0.2005,1.0844,rough,14.0,1,3.476
7020,224.64,-1.0341,8.0179,-1.4186,3.0859,-0.1300,1.0361,rough,14.0,1,3.461
7030,224.96,-1.0439,8.0010,-1.4165,3.0919,-0.0959,1.0043,rough,14.0,1,3.452
7040,225.28,-1.0159,8.0525,-1.4175,3.0821,-0.1977,0.9916,rough,14.0,1,3.481
7050,225.60,-1.0029,8.0534,-1.4184,3.0803,-0.2103,1.0250,rough,14.0,1,3.475
7060,225.92,-1.0090,8.0476,-1.4151,3.0787,-0.2016,1.0577,rough,14.0,1,3.473
7070,226.24,-1.0156,8.0255,-1.4176,3.0763,-0.1546,0.9970,rough,14.0,1,3.457
7080,226.56,-1.0144,8.0397,-1.4159,3.0716,-0.1936,1.0505,rough,14.0,1,3.469
7090,226.88,-1.0133,8.0419,-1.4167,3.0793,-0.1980,1.0472,rough,14.0,1,3.470
7100,227.20,-1.0221,8.0411,-1.4149,3.0709,-0.2101,1.1391,rough,14.0,1,3.474
7110,227.52,-1.0177,8.0325,-1.4156,3.0713,-0.1872,0.9986,rough,14.0,1,3.465
7120,227.84,-1.0158,8.0367,-1.4203,3.0733,-0.1775,0.9991,rough,14.0,1,3.467
7130,228.16,-1.0220,8.0363,-1.4227,3.0331,-0.1806,1.1406,rough,14.0,1,3.470
7140,228.48,-1.0164,8.0398,-1.4211,3.0801,-0.1905,1.0585,rough,14.0,1,3.470
7150,228.80,-1.0199,8.0463,-1.4150,3.0888,-0.2125,1.0760,rough,14.0,1,3.477
7160,229.12,-1.0211,8.0213,-1.4154,3.0690,-0.1763,1.0121,rough,14.0,1,3.457
7170,229.44,-1.0214,8.0208,-1.4196,3.0554,-0.1698,1.1132,rough,14.0,1,3.457
7180,229.76,-1.0269,8.0335,-1.4167,3.0567,-0.1609,1.0609,rough,14.0,1,3.470
7190,230.08,-1.0195,8.0525,-1.4214,3.0874,-0.1796,1.0788,rough,14.0,1,3.483
7200,230.40,-1.0272,8.0531,-1.4153,3.0552,-0.2015,1.1008,rough,14.0,1,3.487
7210,230.72,-1.0259,8.0169,-1.4162,3.0748,-0.1493,1.0008,rough,14.0,1,3.456
7220,231.04,-1.0233,8.0304,-1.4140,3.0796,-0.1759,0.9699,rough,14.0,1,3.466
7230,231.36,-1.0202,8.0224,-1.4217,3.0655,-0.1382,0.9877,rough,14.0,1,3.457
7240,231.68,-1.0184,8.0532,-1.4206,3.1023,-0.2091,0.9590,rough,14.0,1,3.483
7250,232.00,-1.0172,8.0373,-1.4162,3.0642,-0.1886,1.1024,rough,14.0,1,3.468
7260,232.32,-1.0127,8.0592,-1.4171,3.0852,-0.1936,1.0551,rough,14.0,1,3.485
7270,232.64,-1.0200,8.0428,-1.4166,3.0661,-0.1841,1.0674,rough,14.0,1,3.475
7280,232.96,-1.0189,8.0405,-1.4213,3.0466,-0.2113,1.0794,rough,14.0,1,3.472
7290,233.28,-1.0236,8.0350,-1.4180,3.0800,-0.1726,1.0467,rough,14.0,1,3.470
7300,233.60,-1.0205,8.0349,-1.4170,3.0761,-0.1828,0.9901,rough,14.0,1,3.468
7310,233.92,-1.0279,8.0240,-1.4157,3.0920,-0.1562,0.9791,rough,14.0,1,3.463
7320,234.24,-1.0134,8.0412,-1.4170,3.0935,-0.1763,0.9843,rough,14.0,1,3.470
7330,234.56,-1.0130,8.0478,-1.4172,3.0684,-0.2079,1.0596,rough,14.0,1,3.475
7340,234.88,-1.0225,8.0209,-1.4139,3.0807,-0.1649,0.9761,rough,14.0,1,3.457
7350,235.20,-1.0171,8.0482,-1.4168,3.0734,-0.1943,1.0510,rough,14.0,1,3.478
7360,235.52,-1.0207,8.0154,-1.4208,3.0499,-0.1510,1.0757,rough,14.0,1,3.452
7370,235.84,-1.0366,8.0335,-1.4218,3.0604,-0.1809,1.0360,rough,14.0,1,3.475
7380,236.16,-1.0158,8.0266,-1.4191,3.0891,-0.1438,1.0467,rough,14.0,1,3.459
7390,236.48,-1.0157,8.0141,-1.4145,3.0695,-0.1739,1.0293,rough,14.0,1,3.448
7400,236.80,-1.0210,8.0382,-1.4171,3.0562,-0.1733,1.0750,rough,14.0,1,3.471
7410,237.12,-1.0192,8.0320,-1.4205,3.0555,-0.1896,1.0818,rough,14.0,1,3.465
7420,237.44,-1.0247,8.0366,-1.4220,3.0822,-0.1630,1.0845,rough,14.0,1,3.472
7430,237.76,-1.0215,8.0458,-1.4172,3.0640,-0.1692,1.0063,rough,14.0,1,3.478
7440,238.08,-1.0220,7.9808,-1.4071,3.0458,-0.1563,0.9701,rough,14.0,1,3.423
7450,238.40,-1.0363,8.0120,-1.4181,3.0968,-0.1295,0.9902,rough,14.0,1,3.457
7460,238.72,-1.0007,8.0539,-1.4137,3.0826,-0.1880,1.0587,rough,14.0,1,3.474
7470,239.04,-1.0535,7.9720,-1.4128,3.0710,-0.0741,1.0114,rough,14.0,1,3.432
7480,239.36,-1.0713,7.9567,-1.4134,3.0888,-0.0196,1.0101,rough,14.0,1,3.429
7490,239.68,-1.0687,7.9569,-1.4141,3.0853,-0.0259,1.0293,rough,14.0,1,3.428
7500,240.00,-1.0634,7.9897,-1.4175,3.0885,-0.0720,1.0114,rough,14.0,1,3.453
7510,240.32,-1.0148,8.0445,-1.4196,3.0480,-0.1817,1.0359,rough,14.0,1,3.473
7520,240.64,-1.0188,8.0410,-1.4176,3.0683,-0.1872,1.0660,rough,14.0,1,3.472
7530,240.96,-1.0211,8.0412,-1.4170,3.0630,-0.1728,1.0340,rough,14.0,1,3.474
7540,241.28,-1.0438,7.9937,-1.4170,3.0771,-0.0986,1.0272,rough,14.0,1,3.445
7550,241.60,-1.0193,8.0174,-1.4220,3.0482,-0.1803,1.1629,rough,14.0,1,3.453
7560,241.92,-1.0215,8.0376,-1.4169,3.0588,-0.1688,1.0675,rough,14.0,1,3.471
7570,242.24,-1.0186,8.0265,-1.4173,3.0642,-0.1766,1.0585,rough,14.0,1,3.460
7580,242.56,-1.0436,8.0291,-1.4169,3.1009,-0.1264,1.0115,rough,14.0,1,3.475
7590,242.88,-1.0193,8.0564,-1.4156,3.0861,-0.2181,1.0307,rough,14.0,1,3.486
7600,243.20,-1.0136,8.0410,-1.4234,3.0800,-0.1660,1.0883,rough,14.0,1,3.470
7610,243.52,-1.0227,8.0354,-1.4178,3.0644,-0.1882,1.0828,rough,14.0,1,3.470
7620,243.84,-1.0130,8.0493,-1.4213,3.1136,-0.2192,0.9757,rough,14.0,1,3.476
7630,244.16,-1.0225,8.0583,-1.4145,3.0785,-0.2215,1.0867,rough,14.0,1,3.489
7640,244.48,-1.0249,8.0244,-1.4201,3.0438,-0.1842,1.0789,rough,14.0,1,3.461
7650,244.80,-1.0141,8.0867,-1.4092,3.1114,-0.2698,1.0651,rough,14.0,1,3.509
7660,245.12,-1.0103,8.0369,-1.4218,3.0824,-0.1937,0.9853,rough,14.0,1,3.464
7670,245.44,-1.0141,8.0416,-1.4137,3.0562,-0.1831,1.1725,rough,14.0,1,3.470
7680,245.76,-1.0208,8.0259,-1.4184,3.0641,-0.1701,1.0643,rough,14.0,1,3.461
7690,246.08,-1.0230,8.0275,-1.4180,3.0712,-0.1716,1.0092,rough,14.0,1,3.463
7700,246.40,-1.0346,8.0232,-1.4210,3.1241,-0.1391,0.9735,rough,14.0,1,3.466
7710,246.72,-1.0176,8.0439,-1.4171,3.0861,-0.1908,0.9819,rough,14.0,1,3.474
7720,247.04,-1.0110,8.0692,-1.4142,3.1020,-0.2527,1.0388,rough,14.0,1,3.492
7730,247.36,-1.0188,8.0165,-1.4186,3.0671,-0.1434,1.0383,rough,14.0,1,3.452
7740,247.68,-1.0190,8.0426,-1.4163,3.0869,-0.1870,0.9712,rough,14.0,1,3.474
7750,248.00,-1.0088,8.0572,-1.4140,3.0990,-0.2250,1.0380,rough,14.0,1,3.481
7760,248.32,-1.0385,7.9917,-1.4155,3.0620,-0.1155,0.9896,rough,14.0,1,3.441
7770,248.64,-1.0718,7.9596,-1.4145,3.0752,-0.0011,1.0424,rough,14.0,1,3.432
7780,248.96,-1.0640,7.9963,-1.4200,3.0885,-0.0761,1.0390,rough,14.0,1,3.459
7790,249.28,-1.0262,8.0319,-1.4174,3.0741,-0.1529,1.0102,rough,14.0,1,3.469
7800,249.60,-1.0129,8.0471,-1.4171,3.1079,-0.2248,1.0462,rough,14.0,1,3.474
7810,249.92,-1.0290,8.0164,-1.4190,3.0758,-0.1509,1.0413,rough,14.0,1,3.457
7820,250.24,-1.0101,8.0584,-1.4166,3.0842,-0.2048,0.9991,rough,14.0,1,3.483
7830,250.56,-1.0211,8.0373,-1.4192,3.0894,-0.1854,1.0424,rough,14.0,1,3.470
7840,250.88,-1.0226,8.0216,-1.4161,3.0685,-0.1645,0.9969,rough,14.0,1,3.458
7850,251.20,-1.0196,8.0394,-1.4188,3.0742,-0.1824,1.0499,rough,14.0,1,3.471
7860,251.52,-1.0172,8.0605,-1.4138,3.0664,-0.1998,1.0492,rough,14.0,1,3.488
7870,251.84,-1.0331,8.0136,-1.4205,3.0708,-0.1495,1.0655,rough,14.0,1,3.457
7880,252.16,-1.0151,8.0438,-1.4197,3.0758,-0.1919,1.0533,rough,14.0,1,3.473
7890,252.48,-1.0186,8.0329,-1.4183,3.0687,-0.1891,1.0805,rough,14.0,1,3.465
7900,252.80,-1.0194,8.0287,-1.4205,3.0546,-0.1719,1.0579,rough,14.0,1,3.462
7910,253.12,-1.0207,8.0399,-1.4161,3.0436,-0.1698,1.0911,rough,14.0,1,3.472
7920,253.44,-1.0164,8.0579,-1.4149,3.1029,-0.2375,1.0453,rough,14.0,1,3.486
7930,253.76,-1.0222,8.0375,-1.4167,3.0850,-0.1986,1.0872,rough,14.0,1,3.471
7940,254.08,-1.0123,8.0365,-1.4180,3.0822,-0.1981,1.0002,rough,14.0,1,3.465
