step,time_s,x,y,z,roll,pitch,yaw,terrain,speed,target_idx,dist_to_target
10,0.32,0.9498,-0.8102,0.1572,0.1890,-0.0015,-0.2713,rough,14.0,0,5.752
20,0.64,1.2199,-0.8904,0.1589,0.1582,0.0467,-0.3063,rough,14.0,0,5.495
30,0.96,1.5753,-1.0332,0.1398,0.1395,0.0482,-0.5501,slope,18.0,0,5.135
40,1.28,1.9861,-1.3202,0.0907,0.0925,0.1630,-0.6763,slope,18.0,0,4.639
50,1.60,2.4036,-1.6922,-0.0371,0.1292,0.3062,-0.7397,slope,18.0,0,4.080
60,1.92,2.7393,-2.0952,-0.2355,0.2916,0.4677,-0.6130,rough,14.0,0,3.559
70,2.24,3.0100,-2.3432,-0.3423,0.2718,0.1429,-0.7577,slope,18.0,0,3.192
80,2.56,3.3581,-2.7596,-0.3959,0.4206,0.0455,-0.8000,slope,18.0,0,2.655
90,2.88,3.7419,-3.1991,-0.4385,0.2824,0.2394,-0.7685,rough,14.0,0,2.077
100,3.20,4.0628,-3.5662,-0.4836,0.3969,0.2231,-0.6359,rough,14.0,0,1.598
110,3.52,4.2772,-3.8002,-0.4917,0.4160,-0.2348,-0.7699,slope,18.0,0,1.288
120,3.84,4.5319,-4.0444,-0.4342,0.2499,-0.2548,-0.7889,rough,14.0,1,12.077
130,4.16,4.6897,-4.2036,-0.3735,0.1701,-0.3320,-0.5450,rough,14.0,1,12.275
140,4.48,4.7480,-4.2692,-0.3513,0.0858,-0.2230,-0.1229,rough,14.0,1,12.355
150,4.80,4.5323,-4.2631,-0.4270,-0.0440,-0.3672,0.0192,rough,14.0,1,12.286
160,5.12,4.4414,-4.2616,-0.4622,-0.0725,-0.3547,0.1181,rough,14.0,1,12.259
170,5.44,4.5877,-4.2189,-0.4090,-0.1180,-0.3432,0.2238,rough,14.0,1,12.260
180,5.76,4.8051,-4.1398,-0.3346,-0.1299,-0.3052,0.3172,rough,14.0,1,12.249
190,6.08,5.0747,-4.0696,-0.2827,-0.0127,-0.2297,0.6021,rough,14.0,1,12.269
200,6.40,5.2076,-3.9212,-0.2241,-0.0557,-0.3582,0.9418,rough,14.0,1,12.174
210,6.72,5.2724,-3.5932,-0.1876,-0.2984,-0.1300,1.2707,slope,18.0,1,11.890
220,7.04,5.2790,-3.1308,-0.2025,-0.3096,0.1723,1.5995,rough,14.0,1,11.462
230,7.36,5.2191,-2.7689,-0.2500,-0.2554,0.0384,1.7974,rough,14.0,1,11.104
240,7.68,5.1353,-2.3616,-0.2739,-0.0711,-0.0256,1.9040,rough,14.0,1,10.695
250,8.00,4.9790,-1.9133,-0.2427,-0.0307,-0.1157,1.9141,slope,18.0,1,10.221
260,8.32,4.7903,-1.3756,-0.2296,-0.0793,0.0764,1.8572,rough,14.0,1,9.653
270,8.64,4.6669,-0.9922,-0.2558,-0.1202,0.0165,1.8671,rough,14.0,1,9.252
280,8.96,4.5478,-0.6194,-0.2743,-0.1520,0.0046,1.8465,rough,14.0,1,8.862
290,9.28,4.4848,-0.2996,-0.2569,0.0003,-0.1947,1.8173,rough,14.0,1,8.544
300,9.60,4.4630,0.0423,-0.2214,0.2430,-0.2338,1.7038,rough,14.0,1,8.224
310,9.92,4.4778,0.4485,-0.2047,0.4878,0.0898,1.7453,rough,14.0,1,7.863
320,10.24,4.4486,0.7419,-0.2193,0.4942,0.0027,1.6851,rough,14.0,1,7.587
330,10.56,4.4051,1.0955,-0.2732,0.4393,0.2044,1.7289,rough,14.0,1,7.253
340,10.88,4.3544,1.3993,-0.3520,0.3710,0.2709,1.7124,rough,14.0,1,6.962
350,11.20,4.3259,1.7545,-0.4687,0.3987,0.2834,1.7447,rough,14.0,1,6.638
360,11.52,4.2925,2.1009,-0.5805,0.4162,0.3273,1.7608,rough,14.0,1,6.322
370,11.84,4.2735,2.4194,-0.6658,0.5422,0.0571,1.9123,rough,14.0,1,6.042
380,12.16,4.1776,2.7255,-0.6616,0.5146,-0.1889,1.9989,rough,14.0,1,5.733
390,12.48,4.0491,3.0315,-0.6532,0.2933,-0.1314,2.1563,rough,14.0,1,5.407
400,12.80,3.7929,3.3758,-0.6498,0.2858,0.1166,2.3226,rough,14.0,1,4.978
410,13.12,3.4588,3.7591,-0.7310,0.3014,0.2695,2.4432,slope,18.0,1,4.475
420,13.44,3.1329,4.0763,-0.8387,0.2183,0.1682,2.3445,rough,14.0,1,4.032
430,13.76,2.9020,4.3613,-0.8738,0.2113,0.0315,2.2203,rough,14.0,1,3.669
440,14.08,2.6528,4.6945,-0.8948,0.0485,0.0412,2.1164,rough,14.0,1,3.255
450,14.40,2.3766,5.1033,-1.0475,-0.1714,0.3023,2.0277,rough,14.0,1,2.763
460,14.72,2.1557,5.4872,-1.1822,-0.3793,0.4319,1.9304,rough,14.0,1,2.320
470,15.04,1.9644,5.7944,-1.2966,-0.4140,0.1147,1.9719,rough,14.0,1,1.959
480,15.36,1.8488,6.0926,-1.2864,-0.2236,-0.2214,2.0091,rough,14.0,1,1.642
490,15.68,1.6722,6.3697,-1.2292,-0.3520,-0.1200,2.0228,rough,14.0,1,1.314
500,16.00,1.5001,6.6795,-1.2198,-0.4457,-0.0795,1.9484,rough,14.0,2,14.922
510,16.32,1.3573,6.9670,-1.2066,-0.4209,-0.0438,2.0444,rough,14.0,2,15.058
520,16.64,1.1373,7.3081,-1.1956,-0.4893,-0.0668,2.0790,rough,14.0,2,15.197
530,16.96,0.9260,7.5721,-1.1472,-0.5605,-0.3566,2.2307,slope,18.0,2,15.288
540,17.28,0.7081,7.8509,-1.0249,-0.3594,-0.4597,2.2254,rough,14.0,2,15.393
550,17.60,0.4963,8.0985,-0.8793,-0.3915,-0.3931,2.2660,rough,14.0,2,15.483
560,17.92,0.2496,8.3396,-0.7847,-0.4435,-0.2438,2.2770,slope,18.0,2,15.556
570,18.24,0.0050,8.5853,-0.7309,-0.3977,-0.1696,2.3292,rough,14.0,2,15.641
580,18.56,-0.1831,8.7316,-0.7041,-0.4477,-0.0782,2.4284,rough,14.0,2,15.674
590,18.88,-0.3551,8.8322,-0.7016,-0.4709,-0.0640,2.5861,rough,14.0,2,15.678
600,19.20,-0.4239,8.8835,-0.6884,-0.4698,0.0038,2.8090,rough,14.0,2,15.690
610,19.52,-0.4516,8.8808,-0.6796,-0.4435,0.0273,3.0488,rough,14.0,2,15.675
620,19.84,-0.4636,8.8644,-0.6854,-0.4236,0.0480,-3.1390,rough,14.0,2,15.655
630,20.16,-0.4636,8.8479,-0.6939,-0.4197,0.0600,-3.1391,rough,14.0,2,15.640
640,20.48,-0.4675,8.8287,-0.7103,-0.4187,0.1032,3.1246,rough,14.0,2,15.621
650,20.80,-0.4675,8.8181,-0.7137,-0.4170,0.0974,3.1288,rough,14.0,2,15.612
660,21.12,-0.4697,8.8048,-0.7241,-0.4165,0.1215,3.1181,rough,14.0,2,15.599
670,21.44,-0.4716,8.7914,-0.7349,-0.4161,0.1485,3.1055,rough,14.0,2,15.587
680,21.76,-0.4700,8.7763,-0.7375,-0.4127,0.1294,3.1154,rough,14.0,2,15.574
690,22.08,-0.4743,8.7640,-0.7525,-0.4147,0.1783,3.0928,rough,14.0,2,15.561
700,22.40,-0.4726,8.7506,-0.7535,-0.4110,0.1547,3.1036,rough,14.0,2,15.550
710,22.72,-0.4753,8.7423,-0.7622,-0.4126,0.1786,3.0918,rough,14.0,2,15.542
720,23.04,-0.4743,8.7330,-0.7662,-0.4106,0.1811,3.0909,rough,14.0,2,15.534
730,23.36,-0.4733,8.7242,-0.7674,-0.4082,0.1685,3.0971,rough,14.0,2,15.527
740,23.68,-0.4727,8.7151,-0.7697,-0.4065,0.1609,3.1006,rough,14.0,2,15.519
750,24.00,-0.4741,8.7073,-0.7776,-0.4068,0.1849,3.0902,rough,14.0,2,15.512
760,24.32,-0.4706,8.6964,-0.7753,-0.4022,0.1517,3.1052,rough,14.0,2,15.504
770,24.64,-0.4726,8.6884,-0.7825,-0.4028,0.1696,3.0974,rough,14.0,2,15.496
780,24.96,-0.4746,8.6703,-0.7898,-0.4062,0.1540,3.0845,rough,14.0,2,15.479
790,25.28,-0.4875,8.6304,-0.8102,-0.4264,0.0888,3.0113,rough,14.0,2,15.438
800,25.60,-0.5070,8.6024,-0.8374,-0.4586,0.0896,2.9125,rough,14.0,2,15.404
810,25.92,-0.5061,8.6049,-0.8353,-0.4463,0.0724,2.9236,rough,14.0,2,15.406
820,26.24,-0.5062,8.6055,-0.8349,-0.4455,0.0725,2.9262,rough,14.0,2,15.407
830,26.56,-0.5061,8.6057,-0.8348,-0.4453,0.0726,2.9270,rough,14.0,2,15.407
840,26.88,-0.5060,8.6058,-0.8347,-0.4450,0.0727,2.9274,rough,14.0,2,15.407
850,27.20,-0.5059,8.6059,-0.8346,-0.4449,0.0727,2.9277,rough,14.0,2,15.407
860,27.52,-0.5059,8.6060,-0.8345,-0.4448,0.0727,2.9279,rough,14.0,2,15.407
870,27.84,-0.5058,8.6060,-0.8344,-0.4447,0.0727,2.9281,rough,14.0,2,15.407
880,28.16,-0.5057,8.6061,-0.8343,-0.4446,0.0727,2.9283,rough,14.0,2,15.408
890,28.48,-0.5056,8.6062,-0.8342,-0.4445,0.0727,2.9284,rough,14.0,2,15.408
900,28.80,-0.5056,8.6063,-0.8342,-0.4444,0.0726,2.9285,rough,14.0,2,15.408
910,29.12,-0.5056,8.6063,-0.8341,-0.4444,0.0725,2.9285,rough,14.0,2,15.408
920,29.44,-0.5055,8.6064,-0.8341,-0.4444,0.0725,2.9286,rough,14.0,3,15.645
930,29.76,-0.5055,8.6065,-0.8340,-0.4444,0.0725,2.9286,rough,14.0,3,15.645
940,30.08,-0.5055,8.6065,-0.8340,-0.4443,0.0724,2.9286,rough,14.0,3,15.645
950,30.40,-0.5055,8.6066,-0.8339,-0.4443,0.0724,2.9286,rough,14.0,3,15.645
960,30.72,-0.5047,8.6068,-0.8336,-0.4435,0.0740,2.9297,rough,14.0,3,15.645
970,31.04,-0.5053,8.6067,-0.8338,-0.4443,0.0724,2.9286,rough,14.0,3,15.645
980,31.36,-0.5052,8.6068,-0.8337,-0.4443,0.0726,2.9288,rough,14.0,3,15.645
990,31.68,-0.5052,8.6068,-0.8337,-0.4443,0.0726,2.9288,rough,14.0,3,15.645
1000,32.00,-0.5051,8.6069,-0.8337,-0.4443,0.0725,2.9288,rough,14.0,3,15.645
1010,32.32,-0.5043,8.6070,-0.8334,-0.4434,0.0743,2.9300,rough,14.0,3,15.646
1020,32.64,-0.5043,8.6071,-0.8333,-0.4434,0.0742,2.9300,rough,14.0,3,15.646
1030,32.96,-0.5043,8.6071,-0.8333,-0.4434,0.0742,2.9300,rough,14.0,3,15.646
1040,33.28,-0.5043,8.6072,-0.8333,-0.4434,0.0741,2.9300,rough,14.0,3,15.646
1050,33.60,-0.5042,8.6073,-0.8331,-0.4433,0.0746,2.9306,rough,14.0,3,15.646
1060,33.92,-0.5041,8.6074,-0.8331,-0.4433,0.0746,2.9306,rough,14.0,3,15.646
1070,34.24,-0.5041,8.6074,-0.8331,-0.4433,0.0746,2.9306,rough,14.0,3,15.646
1080,34.56,-0.5042,8.6074,-0.8331,-0.4434,0.0744,2.9305,rough,14.0,3,15.646
1090,34.88,-0.5042,8.6075,-0.8330,-0.4434,0.0744,2.9305,rough,14.0,3,15.646
1100,35.20,-0.5042,8.6075,-0.8330,-0.4435,0.0742,2.9304,rough,14.0,3,15.646
1110,35.52,-0.5043,8.6075,-0.8330,-0.4435,0.0740,2.9303,rough,14.0,3,15.646
1120,35.84,-0.5044,8.6076,-0.8330,-0.4436,0.0738,2.9303,rough,14.0,3,15.646
1130,36.16,-0.5044,8.6076,-0.8331,-0.4437,0.0736,2.9301,rough,14.0,3,15.646
1140,36.48,-0.5038,8.6077,-0.8328,-0.4430,0.0751,2.9312,rough,14.0,3,15.647
1150,36.80,-0.5040,8.6077,-0.8329,-0.4433,0.0744,2.9308,rough,14.0,3,15.647
1160,37.12,-0.5043,8.6077,-0.8329,-0.4436,0.0738,2.9303,rough,14.0,3,15.646
1170,37.44,-0.5038,8.6078,-0.8327,-0.4431,0.0749,2.9312,rough,14.0,3,15.647
1180,37.76,-0.5042,8.6078,-0.8329,-0.4435,0.0740,2.9305,rough,14.0,3,15.647
1190,38.08,-0.5037,8.6079,-0.8327,-0.4430,0.0750,2.9313,rough,14.0,3,15.647
1200,38.40,-0.5035,8.6079,-0.8326,-0.4428,0.0752,2.9313,rough,14.0,3,15.647
1210,38.72,-0.5040,8.6079,-0.8328,-0.4433,0.0743,2.9308,rough,14.0,3,15.647
1220,39.04,-0.5037,8.6079,-0.8326,-0.4430,0.0750,2.9313,rough,14.0,3,15.647
1230,39.36,-0.5035,8.6079,-0.8326,-0.4428,0.0752,2.9313,rough,14.0,3,15.647
1240,39.68,-0.5039,8.6079,-0.8327,-0.4433,0.0741,2.9306,rough,14.0,3,15.647
1250,40.00,-0.5037,8.6080,-0.8326,-0.4431,0.0746,2.9310,rough,14.0,3,15.647
1260,40.32,-0.5035,8.6080,-0.8325,-0.4430,0.0751,2.9314,rough,14.0,3,15.647
1270,40.64,-0.5034,8.6079,-0.8326,-0.4428,0.0750,2.9310,rough,14.0,3,15.647
1280,40.96,-0.5039,8.6079,-0.8327,-0.4434,0.0737,2.9301,rough,14.0,3,15.647
1290,41.28,-0.5038,8.6079,-0.8327,-0.4432,0.0739,2.9302,rough,14.0,0,14.372
1300,41.60,-0.5036,8.6081,-0.8325,-0.4431,0.0747,2.9312,rough,14.0,0,14.372
1310,41.92,-0.5036,8.6081,-0.8325,-0.4431,0.0747,2.9312,rough,14.0,0,14.372
1320,42.24,-0.5036,8.6081,-0.8325,-0.4431,0.0746,2.9310,rough,14.0,0,14.372
1330,42.56,-0.5036,8.6080,-0.8326,-0.4431,0.0741,2.9303,rough,14.0,0,14.372
1340,42.88,-0.5034,8.6080,-0.8326,-0.4429,0.0743,2.9304,rough,14.0,0,14.372
1350,43.20,-0.5032,8.6080,-0.8325,-0.4427,0.0746,2.9304,rough,14.0,0,14.372
1360,43.52,-0.5032,8.6080,-0.8325,-0.4427,0.0748,2.9306,rough,14.0,0,14.372
1370,43.84,-0.5032,8.6082,-0.8323,-0.4427,0.0753,2.9314,rough,14.0,0,14.372
1380,44.16,-0.5031,8.6081,-0.8324,-0.4427,0.0748,2.9306,rough,14.0,0,14.372
1390,44.48,-0.5032,8.6082,-0.8323,-0.4427,0.0753,2.9314,rough,14.0,0,14.372
1400,44.80,-0.5032,8.6082,-0.8324,-0.4427,0.0751,2.9311,rough,14.0,0,14.372
1410,45.12,-0.5032,8.6082,-0.8323,-0.4427,0.0750,2.9311,rough,14.0,0,14.372
1420,45.44,-0.5031,8.6083,-0.8323,-0.4427,0.0754,2.9316,rough,14.0,0,14.372
1430,45.76,-0.5032,8.6081,-0.8324,-0.4428,0.0746,2.9306,rough,14.0,0,14.372
1440,46.08,-0.5033,8.6084,-0.8323,-0.4429,0.0751,2.9315,rough,14.0,0,14.372
1450,46.40,-0.5034,8.6083,-0.8323,-0.4431,0.0747,2.9312,rough,14.0,0,14.372
1460,46.72,-0.5035,8.6083,-0.8323,-0.4431,0.0746,2.9311,rough,14.0,0,14.372
1470,47.04,-0.5036,8.6083,-0.8324,-0.4432,0.0743,2.9309,rough,14.0,0,14.372
1480,47.36,-0.5029,8.6082,-0.8323,-0.4425,0.0751,2.9307,rough,14.0,0,14.372
1490,47.68,-0.5030,8.6082,-0.8323,-0.4426,0.0750,2.9308,rough,14.0,0,14.372
1500,48.00,-0.5031,8.6083,-0.8323,-0.4428,0.0747,2.9307,rough,14.0,0,14.372
1510,48.32,-0.5033,8.6083,-0.8323,-0.4430,0.0744,2.9306,rough,14.0,0,14.372
1520,48.64,-0.5035,8.6083,-0.8324,-0.4432,0.0741,2.9305,rough,14.0,0,14.372
1530,48.96,-0.5029,8.6084,-0.8322,-0.4426,0.0753,2.9313,rough,14.0,0,14.372
1540,49.28,-0.5030,8.6085,-0.8322,-0.4427,0.0754,2.9315,rough,14.0,0,14.372
1550,49.60,-0.5032,8.6085,-0.8322,-0.4429,0.0752,2.9315,rough,14.0,0,14.372
1560,49.92,-0.5034,8.6085,-0.8322,-0.4431,0.0748,2.9313,rough,14.0,0,14.372
1570,50.24,-0.5028,8.6083,-0.8322,-0.4425,0.0752,2.9309,rough,14.0,0,14.372
1580,50.56,-0.5029,8.6084,-0.8322,-0.4426,0.0750,2.9309,rough,14.0,0,14.372
1590,50.88,-0.5031,8.6084,-0.8322,-0.4428,0.0748,2.9308,rough,14.0,0,14.372
1600,51.20,-0.5033,8.6084,-0.8323,-0.4430,0.0745,2.9307,rough,14.0,0,14.372
1610,51.52,-0.5034,8.6084,-0.8323,-0.4432,0.0742,2.9307,rough,14.0,0,14.372
1620,51.84,-0.5029,8.6085,-0.8321,-0.4426,0.0754,2.9314,rough,14.0,0,14.372
1630,52.16,-0.5030,8.6086,-0.8321,-0.4427,0.0755,2.9317,rough,14.0,0,14.372
1640,52.48,-0.5031,8.6086,-0.8321,-0.4429,0.0752,2.9316,rough,14.0,0,14.372
1650,52.80,-0.5033,8.6086,-0.8322,-0.4431,0.0747,2.9313,rough,14.0,1,1.877
1660,53.12,-0.5028,8.6084,-0.8321,-0.4425,0.0751,2.9308,rough,14.0,1,1.877
1670,53.44,-0.5029,8.6084,-0.8321,-0.4426,0.0750,2.9309,rough,14.0,1,1.877
1680,53.76,-0.5031,8.6085,-0.8322,-0.4428,0.0747,2.9308,rough,14.0,1,1.877
1690,54.08,-0.5032,8.6085,-0.8322,-0.4430,0.0744,2.9307,rough,14.0,1,1.877
1700,54.40,-0.5028,8.6086,-0.8320,-0.4426,0.0754,2.9315,rough,14.0,1,1.877
1710,54.72,-0.5030,8.6086,-0.8320,-0.4428,0.0754,2.9317,rough,14.0,1,1.877
1720,55.04,-0.5033,8.6086,-0.8321,-0.4431,0.0748,2.9313,rough,14.0,1,1.877
1730,55.36,-0.5028,8.6085,-0.8321,-0.4426,0.0752,2.9311,rough,14.0,1,1.877
1740,55.68,-0.5030,8.6085,-0.8321,-0.4428,0.0748,2.9309,rough,14.0,1,1.877
1750,56.00,-0.5033,8.6085,-0.8322,-0.4432,0.0743,2.9308,rough,14.0,1,1.877
1760,56.32,-0.5028,8.6087,-0.8320,-0.4426,0.0757,2.9318,rough,14.0,1,1.877
1770,56.64,-0.5031,8.6087,-0.8320,-0.4429,0.0752,2.9317,rough,14.0,1,1.877
1780,56.96,-0.5026,8.6085,-0.8320,-0.4424,0.0754,2.9311,rough,14.0,1,1.877
1790,57.28,-0.5029,8.6086,-0.8321,-0.4428,0.0750,2.9311,rough,14.0,1,1.877
1800,57.60,-0.5032,8.6086,-0.8321,-0.4430,0.0746,2.9309,rough,14.0,1,1.877
1810,57.92,-0.5028,8.6087,-0.8319,-0.4426,0.0757,2.9318,rough,14.0,1,1.877
1820,58.24,-0.5032,8.6087,-0.8320,-0.4430,0.0749,2.9314,rough,14.0,1,1.877
1830,58.56,-0.5027,8.6086,-0.8320,-0.4426,0.0753,2.9312,rough,14.0,1,1.877
1840,58.88,-0.5031,8.6086,-0.8321,-0.4430,0.0746,2.9309,rough,14.0,1,1.877
1850,59.20,-0.5027,8.6088,-0.8319,-0.4426,0.0758,2.9319,rough,14.0,1,1.877
1860,59.52,-0.5031,8.6087,-0.8320,-0.4430,0.0749,2.9314,rough,14.0,1,1.877
1870,59.84,-0.5027,8.6086,-0.8320,-0.4426,0.0753,2.9312,rough,14.0,1,1.877
1880,60.16,-0.5031,8.6086,-0.8321,-0.4430,0.0747,2.9309,rough,14.0,1,1.877
1890,60.48,-0.5027,8.6088,-0.8319,-0.4426,0.0758,2.9319,rough,14.0,1,1.877
1900,60.80,-0.5031,8.6087,-0.8320,-0.4430,0.0750,2.9314,rough,14.0,1,1.877
1910,61.12,-0.5027,8.6086,-0.8320,-0.4426,0.0752,2.9311,rough,14.0,1,1.877
1920,61.44,-0.5031,8.6086,-0.8321,-0.4430,0.0747,2.9310,rough,14.0,1,1.877
1930,61.76,-0.5027,8.6088,-0.8319,-0.4426,0.0758,2.9319,rough,14.0,1,1.877
1940,62.08,-0.5031,8.6088,-0.8320,-0.4430,0.0750,2.9315,rough,14.0,1,1.877
1950,62.40,-0.5027,8.6086,-0.8320,-0.4426,0.0753,2.9311,rough,14.0,1,1.877
1960,62.72,-0.5031,8.6087,-0.8321,-0.4430,0.0747,2.9310,rough,14.0,1,1.877
1970,63.04,-0.5027,8.6088,-0.8319,-0.4426,0.0758,2.9320,rough,14.0,1,1.877
1980,63.36,-0.5031,8.6088,-0.8320,-0.4430,0.0750,2.9315,rough,14.0,1,1.877
1990,63.68,-0.5027,8.6087,-0.8320,-0.4426,0.0753,2.9312,rough,14.0,1,1.877
2000,64.00,-0.5031,8.6087,-0.8320,-0.4430,0.0747,2.9310,rough,14.0,1,1.877
2010,64.32,-0.5027,8.6088,-0.8319,-0.4426,0.0758,2.9320,rough,14.0,1,1.877
2020,64.64,-0.5031,8.6088,-0.8320,-0.4430,0.0751,2.9315,rough,14.0,2,15.411
2030,64.96,-0.5027,8.6087,-0.8320,-0.4426,0.0753,2.9312,rough,14.0,2,15.411
2040,65.28,-0.5031,8.6087,-0.8320,-0.4430,0.0748,2.9311,rough,14.0,2,15.411
2050,65.60,-0.5027,8.6089,-0.8318,-0.4426,0.0759,2.9320,rough,14.0,2,15.411
2060,65.92,-0.5031,8.6088,-0.8320,-0.4430,0.0751,2.9316,rough,14.0,2,15.411
2070,66.24,-0.5027,8.6087,-0.8319,-0.4426,0.0754,2.9313,rough,14.0,2,15.411
2080,66.56,-0.5031,8.6087,-0.8320,-0.4430,0.0748,2.9311,rough,14.0,2,15.411
2090,66.88,-0.5027,8.6089,-0.8318,-0.4426,0.0759,2.9320,rough,14.0,2,15.411
2100,67.20,-0.5031,8.6089,-0.8319,-0.4430,0.0751,2.9316,rough,14.0,2,15.411
2110,67.52,-0.5027,8.6087,-0.8319,-0.4426,0.0754,2.9313,rough,14.0,2,15.411
2120,67.84,-0.5031,8.6088,-0.8320,-0.4430,0.0748,2.9312,rough,14.0,2,15.411
2130,68.16,-0.5027,8.6087,-0.8320,-0.4426,0.0752,2.9310,rough,14.0,2,15.411
2140,68.48,-0.5031,8.6088,-0.8320,-0.4430,0.0748,2.9311,rough,14.0,2,15.411
2150,68.80,-0.5027,8.6089,-0.8318,-0.4426,0.0759,2.9321,rough,14.0,2,15.411
2160,69.12,-0.5030,8.6087,-0.8320,-0.4430,0.0747,2.9309,rough,14.0,2,15.411
2170,69.44,-0.5027,8.6089,-0.8318,-0.4426,0.0759,2.9320,rough,14.0,2,15.411
2180,69.76,-0.5030,8.6087,-0.8320,-0.4430,0.0747,2.9309,rough,14.0,2,15.411
2190,70.08,-0.5027,8.6089,-0.8318,-0.4426,0.0759,2.9320,rough,14.0,2,15.411
2200,70.40,-0.5030,8.6087,-0.8320,-0.4430,0.0747,2.9310,rough,14.0,2,15.411
2210,70.72,-0.5027,8.6089,-0.8318,-0.4426,0.0759,2.9321,rough,14.0,2,15.412
2220,71.04,-0.5030,8.6088,-0.8320,-0.4430,0.0747,2.9310,rough,14.0,2,15.411
2230,71.36,-0.5027,8.6089,-0.8318,-0.4426,0.0759,2.9321,rough,14.0,2,15.412
2240,71.68,-0.5030,8.6088,-0.8320,-0.4430,0.0747,2.9310,rough,14.0,2,15.411
2250,72.00,-0.5027,8.6089,-0.8318,-0.4426,0.0759,2.9321,rough,14.0,2,15.412
2260,72.32,-0.5030,8.6088,-0.8320,-0.4430,0.0747,2.9310,rough,14.0,2,15.411
2270,72.64,-0.5026,8.6087,-0.8319,-0.4426,0.0752,2.9311,rough,14.0,2,15.411
2280,72.96,-0.5030,8.6088,-0.8320,-0.4430,0.0748,2.9312,rough,14.0,2,15.411
2290,73.28,-0.5026,8.6088,-0.8319,-0.4426,0.0754,2.9313,rough,14.0,2,15.411
2300,73.60,-0.5030,8.6089,-0.8319,-0.4430,0.0751,2.9316,rough,14.0,2,15.411
2310,73.92,-0.5026,8.6089,-0.8318,-0.4426,0.0759,2.9320,rough,14.0,2,15.412
2320,74.24,-0.5030,8.6088,-0.8320,-0.4430,0.0747,2.9310,rough,14.0,2,15.411
2330,74.56,-0.5026,8.6087,-0.8319,-0.4426,0.0753,2.9311,rough,14.0,2,15.411
2340,74.88,-0.5030,8.6088,-0.8320,-0.4430,0.0749,2.9312,rough,14.0,2,15.411
2350,75.20,-0.5026,8.6088,-0.8319,-0.4426,0.0754,2.9313,rough,14.0,2,15.411
2360,75.52,-0.5030,8.6089,-0.8319,-0.4430,0.0751,2.9316,rough,14.0,2,15.411
2370,75.84,-0.5026,8.6089,-0.8318,-0.4426,0.0759,2.9320,rough,14.0,2,15.412
2380,76.16,-0.5030,8.6088,-0.8320,-0.4430,0.0748,2.9310,rough,14.0,2,15.411
2390,76.48,-0.5026,8.6088,-0.8319,-0.4426,0.0753,2.9311,rough,14.0,3,15.648
2400,76.80,-0.5030,8.6088,-0.8319,-0.4430,0.0749,2.9312,rough,14.0,3,15.648
2410,77.12,-0.5026,8.6088,-0.8319,-0.4426,0.0754,2.9313,rough,14.0,3,15.648
2420,77.44,-0.5030,8.6089,-0.8319,-0.4430,0.0751,2.9316,rough,14.0,3,15.648
2430,77.76,-0.5026,8.6090,-0.8318,-0.4426,0.0759,2.9320,rough,14.0,3,15.648
2440,78.08,-0.5030,8.6088,-0.8320,-0.4430,0.0748,2.9311,rough,14.0,3,15.648
2450,78.40,-0.5026,8.6088,-0.8319,-0.4426,0.0753,2.9311,rough,14.0,3,15.648
2460,78.72,-0.5030,8.6089,-0.8319,-0.4430,0.0749,2.9313,rough,14.0,3,15.648
2470,79.04,-0.5026,8.6088,-0.8319,-0.4426,0.0754,2.9314,rough,14.0,3,15.648
2480,79.36,-0.5030,8.6089,-0.8319,-0.4430,0.0752,2.9316,rough,14.0,3,15.648
2490,79.68,-0.5026,8.6090,-0.8318,-0.4426,0.0759,2.9320,rough,14.0,3,15.648
2500,80.00,-0.5030,8.6088,-0.8319,-0.4430,0.0748,2.9311,rough,14.0,3,15.648
2510,80.32,-0.5026,8.6088,-0.8319,-0.4426,0.0753,2.9312,rough,14.0,3,15.648
2520,80.64,-0.5030,8.6089,-0.8319,-0.4430,0.0749,2.9313,rough,14.0,3,15.648
2530,80.96,-0.5026,8.6089,-0.8318,-0.4426,0.0755,2.9314,rough,14.0,3,15.648
2540,81.28,-0.5030,8.6090,-0.8319,-0.4430,0.0752,2.9317,rough,14.0,3,15.648
2550,81.60,-0.5026,8.6090,-0.8318,-0.4426,0.0759,2.9321,rough,14.0,3,15.648
2560,81.92,-0.5030,8.6089,-0.8319,-0.4430,0.0748,2.9311,rough,14.0,3,15.648
2570,82.24,-0.5026,8.6088,-0.8319,-0.4426,0.0753,2.9312,rough,14.0,3,15.648
2580,82.56,-0.5030,8.6089,-0.8319,-0.4430,0.0749,2.9313,rough,14.0,3,15.648
2590,82.88,-0.5026,8.6089,-0.8318,-0.4426,0.0755,2.9314,rough,14.0,3,15.648
2600,83.20,-0.5030,8.6090,-0.8319,-0.4430,0.0752,2.9317,rough,14.0,3,15.648
2610,83.52,-0.5026,8.6090,-0.8317,-0.4426,0.0759,2.9321,rough,14.0,3,15.648
2620,83.84,-0.5030,8.6089,-0.8319,-0.4430,0.0748,2.9312,rough,14.0,3,15.648
2630,84.16,-0.5026,8.6089,-0.8318,-0.4426,0.0755,2.9314,rough,14.0,3,15.648
2640,84.48,-0.5030,8.6090,-0.8319,-0.4430,0.0752,2.9317,rough,14.0,3,15.648
2650,84.80,-0.5026,8.6088,-0.8319,-0.4426,0.0753,2.9311,rough,14.0,3,15.648
2660,85.12,-0.5030,8.6089,-0.8319,-0.4430,0.0749,2.9313,rough,14.0,3,15.648
2670,85.44,-0.5026,8.6089,-0.8318,-0.4426,0.0755,2.9314,rough,14.0,3,15.648
2680,85.76,-0.5030,8.6089,-0.8319,-0.4430,0.0748,2.9311,rough,14.0,3,15.648
2690,86.08,-0.5026,8.6088,-0.8319,-0.4426,0.0754,2.9312,rough,14.0,3,15.648
2700,86.40,-0.5030,8.6089,-0.8319,-0.4430,0.0749,2.9313,rough,14.0,3,15.648
2710,86.72,-0.5026,8.6090,-0.8317,-0.4426,0.0759,2.9320,rough,14.0,3,15.648
2720,87.04,-0.5030,8.6089,-0.8319,-0.4430,0.0748,2.9312,rough,14.0,3,15.648
2730,87.36,-0.5026,8.6089,-0.8318,-0.4426,0.0755,2.9314,rough,14.0,3,15.648
2740,87.68,-0.5030,8.6089,-0.8319,-0.4430,0.0748,2.9311,rough,14.0,3,15.648
2750,88.00,-0.5026,8.6088,-0.8318,-0.4426,0.0754,2.9312,rough,14.0,0,14.372
2760,88.32,-0.5030,8.6090,-0.8318,-0.4430,0.0752,2.9317,rough,14.0,0,14.373
2770,88.64,-0.5026,8.6088,-0.8319,-0.4426,0.0753,2.9311,rough,14.0,0,14.372
2780,88.96,-0.5030,8.6089,-0.8319,-0.4430,0.0749,2.9313,rough,14.0,0,14.373
2790,89.28,-0.5026,8.6090,-0.8317,-0.4426,0.0759,2.9320,rough,14.0,0,14.373
2800,89.60,-0.5030,8.6089,-0.8319,-0.4430,0.0749,2.9312,rough,14.0,0,14.373
2810,89.92,-0.5026,8.6089,-0.8318,-0.4426,0.0755,2.9314,rough,14.0,0,14.372
