step,time_s,x,y,z,roll,pitch,yaw,terrain,speed,target_idx,dist_to_target
10,0.32,-0.0785,1.3682,0.3186,0.1954,-0.0866,0.2115,rough,14.0,0,4.240
20,0.64,0.1439,1.4081,0.3411,0.1503,-0.1502,0.4669,rough,14.0,0,4.265
30,0.96,0.3953,1.5325,0.3687,0.1394,-0.1244,0.7034,rough,14.0,0,4.234
40,1.28,0.6202,1.7762,0.3931,0.1250,-0.0114,0.9195,rough,14.0,0,4.102
50,1.60,0.8708,2.0838,0.3574,0.2646,0.2374,1.1456,rough,14.0,0,3.952
60,1.92,1.0117,2.4310,0.2681,0.2925,0.2344,1.3874,rough,14.0,0,3.741
70,2.24,1.2087,2.6160,0.1657,0.2981,0.1228,1.9458,rough,14.0,0,3.716
80,2.56,1.2929,2.6949,0.1723,0.2813,-0.2107,2.0546,rough,14.0,0,3.711
90,2.88,1.3433,2.7675,0.1993,0.8730,-1.1360,1.2455,rough,14.0,0,3.692
100,3.20,1.3661,2.7371,0.0789,2.6478,-0.8371,-0.6579,rough,14.0,0,3.730
110,3.52,1.3557,2.7323,-0.0167,2.8446,0.1884,-1.2786,rough,14.0,0,3.726
120,3.84,1.4069,2.8048,0.0249,2.9009,0.4828,-1.3926,rough,14.0,0,3.709
130,4.16,1.4422,2.8761,0.0792,2.8303,0.8762,-1.6915,rough,14.0,0,3.683
140,4.48,1.5528,2.8683,0.0602,3.0809,0.8202,-2.1301,rough,14.0,0,3.768
150,4.80,1.5813,2.8314,-0.1041,-3.1347,-0.1687,-2.2373,rough,14.0,0,3.814
160,5.12,1.6878,2.9935,-0.1887,-3.1393,-0.4680,-2.4599,rough,14.0,0,3.784
170,5.44,1.7930,3.1859,-0.2871,3.0815,-0.4895,-2.3121,rough,14.0,0,3.744
180,5.76,1.9704,3.3525,-0.4399,-3.1339,-0.6549,-2.4522,rough,14.0,0,3.791
190,6.08,2.1850,3.5148,-0.6148,-2.9299,-0.6332,-2.5786,rough,14.0,0,3.888
200,6.40,2.3928,3.6167,-0.7482,-2.8590,-0.4603,-2.6569,rough,14.0,0,4.021
210,6.72,2.6006,3.7484,-0.8419,-2.9386,-0.3579,-2.7336,rough,14.0,0,4.151
220,7.04,2.8041,3.8815,-0.9219,-2.9401,-0.2128,-2.7921,slope,18.0,0,4.286
230,7.36,3.0551,3.9464,-0.9615,-2.8925,-0.1768,-2.8047,rough,14.0,0,4.498
240,7.68,3.2817,3.9683,-0.9821,-2.8718,-0.1060,-2.8569,rough,14.0,0,4.705
250,8.00,3.4844,4.0303,-1.0042,-2.8753,-0.1036,-2.8242,rough,14.0,0,4.879
260,8.32,3.6712,4.0634,-1.0072,-2.8453,-0.0730,-2.8479,rough,14.0,0,5.049
270,8.64,3.7802,4.0910,-1.0081,-2.8591,0.0107,-2.8688,rough,14.0,0,5.146
280,8.96,3.7972,4.0975,-1.0073,-2.8569,0.0361,-2.8909,rough,14.0,0,5.161
290,9.28,3.7480,4.1044,-1.0100,-2.8097,-0.0489,-2.8659,rough,14.0,0,5.111
300,9.60,3.5874,4.1045,-1.0271,-2.8727,-0.0783,-2.8944,rough,14.0,0,4.957
310,9.92,3.4196,4.1457,-1.0356,-2.8849,-0.0780,-2.8851,rough,14.0,0,4.784
320,10.24,3.3548,4.1564,-1.0317,-2.8825,-0.1267,-2.8763,rough,14.0,0,4.719
330,10.56,3.3601,4.1635,-1.0336,-2.8845,-0.1284,-2.8687,rough,14.0,0,4.722
340,10.88,3.4336,4.1677,-1.0397,-2.8853,-0.1038,-2.8597,rough,14.0,0,4.792
350,11.20,3.5627,4.2240,-1.0584,-2.8789,-0.0748,-2.8587,rough,14.0,0,4.901
360,11.52,3.6744,4.2726,-1.0651,-2.8480,-0.0726,-2.8933,rough,14.0,0,4.998
370,11.84,3.6970,4.2743,-1.0623,-2.8333,-0.0690,-2.8974,rough,14.0,0,5.019
380,12.16,3.6343,4.2721,-1.0683,-2.8682,-0.0692,-2.8981,rough,14.0,0,4.959
390,12.48,3.5421,4.2768,-1.0713,-2.8933,-0.0927,-2.9017,rough,14.0,0,4.868
400,12.80,3.5160,4.2771,-1.0695,-2.8945,-0.0956,-2.9018,rough,14.0,0,4.843
410,13.12,3.5408,4.2770,-1.0707,-2.8944,-0.0887,-2.9003,rough,14.0,0,4.867
420,13.44,3.6085,4.2819,-1.0732,-2.8830,-0.0707,-2.9068,rough,14.0,0,4.932
430,13.76,3.6330,4.2829,-1.0714,-2.8699,-0.0672,-2.9077,rough,14.0,0,4.955
440,14.08,3.5824,4.2856,-1.0745,-2.8945,-0.0838,-2.8840,rough,14.0,0,4.905
450,14.40,3.5567,4.2947,-1.0755,-2.8968,-0.0897,-2.8989,rough,14.0,0,4.878
460,14.72,3.5832,4.2946,-1.0769,-2.8966,-0.0825,-2.8976,rough,14.0,0,4.904
470,15.04,3.6080,4.2984,-1.0772,-2.8856,-0.0694,-2.9316,rough,14.0,0,4.927
480,15.36,3.5876,4.2989,-1.0777,-2.8929,-0.0751,-2.9315,rough,14.0,0,4.907
490,15.68,3.5907,4.3018,-1.0788,-2.8955,-0.0781,-2.9173,rough,14.0,0,4.910
500,16.00,3.5821,4.3079,-1.0798,-2.8975,-0.0843,-2.9075,rough,14.0,0,4.900
510,16.32,3.5943,4.3139,-1.0811,-2.8956,-0.0854,-2.8945,rough,14.0,0,4.910
520,16.64,3.5850,4.3182,-1.0824,-2.9008,-0.0915,-2.8840,rough,14.0,0,4.900
530,16.96,3.5961,4.3244,-1.0838,-2.8959,-0.0791,-2.9347,rough,14.0,0,4.909
540,17.28,3.5864,4.3294,-1.0847,-2.8988,-0.0861,-2.9208,rough,14.0,0,4.899
550,17.60,3.5945,4.3318,-1.0852,-2.8968,-0.0850,-2.9197,rough,14.0,0,4.906
560,17.92,3.5823,4.3364,-1.0861,-2.9002,-0.0898,-2.9180,rough,14.0,0,4.893
570,18.24,3.5938,4.3423,-1.0874,-2.8990,-0.0923,-2.8993,rough,14.0,0,4.903
580,18.56,3.5852,4.3469,-1.0889,-2.9049,-0.0997,-2.8822,rough,14.0,0,4.894
590,18.88,3.5948,4.3523,-1.0901,-2.8997,-0.0864,-2.9382,rough,14.0,0,4.902
600,19.20,3.5874,4.3579,-1.0912,-2.9029,-0.0942,-2.9183,rough,14.0,0,4.893
610,19.52,3.5916,4.3586,-1.0914,-2.9017,-0.0922,-2.9241,rough,14.0,0,4.897
620,19.84,3.5839,4.3650,-1.0927,-2.9046,-0.0985,-2.9124,rough,14.0,0,4.888
630,20.16,3.5916,4.3697,-1.0937,-2.9034,-0.0999,-2.9020,rough,14.0,0,4.895
640,20.48,3.5873,4.3757,-1.0950,-2.9021,-0.0909,-2.9558,rough,14.0,0,4.889
650,20.80,3.5914,4.3796,-1.0963,-2.9047,-0.0945,-2.9399,rough,14.0,0,4.892
660,21.12,3.5904,4.3852,-1.0975,-2.9058,-0.0993,-2.9259,rough,14.0,0,4.890
670,21.44,3.5837,4.3985,-1.1002,-2.9053,-0.1038,-2.9405,rough,14.0,0,4.881
680,21.76,3.5939,4.4043,-1.1013,-2.9051,-0.1047,-2.9217,rough,14.0,0,4.889
690,22.08,3.5861,4.4076,-1.1023,-2.9102,-0.1108,-2.9068,rough,14.0,0,4.881
700,22.40,3.5926,4.4137,-1.1037,-2.9059,-0.0986,-2.9614,rough,14.0,0,4.886
710,22.72,3.5886,4.4172,-1.1042,-2.9072,-0.1037,-2.9477,rough,14.0,0,4.882
720,23.04,3.5965,4.4252,-1.1122,-2.9402,-0.1172,-2.8881,rough,14.0,0,4.888
730,23.36,3.5885,4.4338,-1.1080,-2.9085,-0.1088,-2.9501,rough,14.0,0,4.878
740,23.68,3.5954,4.4381,-1.1088,-2.9080,-0.1097,-2.9390,rough,14.0,0,4.884
750,24.00,3.5853,4.4398,-1.1092,-2.9111,-0.1131,-2.9377,rough,14.0,0,4.874
760,24.32,3.5923,4.4454,-1.1110,-2.9134,-0.1150,-2.9272,rough,14.0,0,4.879
770,24.64,3.5857,4.4491,-1.1115,-2.9150,-0.1213,-2.9116,rough,14.0,0,4.872
780,24.96,3.5946,4.4556,-1.1132,-2.9113,-0.1084,-2.9664,rough,14.0,0,4.879
790,25.28,3.5867,4.4589,-1.1135,-2.9128,-0.1147,-2.9521,rough,14.0,0,4.871
800,25.60,3.5992,4.4728,-1.1183,-2.9166,-0.1207,-2.9435,rough,14.0,0,4.880
810,25.92,3.5934,4.4759,-1.1178,-2.9157,-0.1195,-2.9436,rough,14.0,0,4.874
820,26.24,3.5996,4.4870,-1.1226,-2.9387,-0.1032,-2.9495,rough,14.0,0,4.878
830,26.56,3.6207,4.4895,-1.1198,-2.9051,-0.1139,-2.9498,rough,14.0,0,4.898
840,26.88,3.6025,4.4891,-1.1203,-2.9124,-0.1189,-2.9511,rough,14.0,0,4.880
850,27.20,3.5918,4.4903,-1.1201,-2.9130,-0.1236,-2.9466,rough,14.0,0,4.870
860,27.52,3.6152,4.4918,-1.1204,-2.9070,-0.1157,-2.9517,rough,14.0,0,4.892
870,27.84,3.6112,4.4913,-1.1205,-2.9090,-0.1166,-2.9534,rough,14.0,0,4.888
880,28.16,3.5912,4.4917,-1.1207,-2.9134,-0.1243,-2.9524,rough,14.0,0,4.869
890,28.48,3.5946,4.4933,-1.1210,-2.9147,-0.1230,-2.9450,rough,14.0,0,4.872
900,28.80,3.6090,4.4946,-1.1213,-2.9096,-0.1194,-2.9515,rough,14.0,0,4.886
910,29.12,3.6134,4.4936,-1.1209,-2.9081,-0.1161,-2.9561,rough,14.0,0,4.890
920,29.44,3.5993,4.4934,-1.1212,-2.9135,-0.1199,-2.9563,rough,14.0,0,4.876
930,29.76,3.5946,4.4948,-1.1211,-2.9113,-0.1250,-2.9513,rough,14.0,0,4.871
940,30.08,3.5954,4.4964,-1.1216,-2.9132,-0.1236,-2.9506,rough,14.0,0,4.872
950,30.40,3.6022,4.4966,-1.1217,-2.9085,-0.1256,-2.9513,rough,14.0,0,4.878
960,30.72,3.6016,4.4965,-1.1217,-2.9097,-0.1251,-2.9509,rough,14.0,0,4.878
970,31.04,3.5991,4.4973,-1.1219,-2.9109,-0.1264,-2.9475,rough,14.0,0,4.875
980,31.36,3.6062,4.4988,-1.1221,-2.9066,-0.1256,-2.9530,rough,14.0,0,4.882
990,31.68,3.6129,4.4988,-1.1221,-2.9087,-0.1192,-2.9515,rough,14.0,0,4.889
1000,32.00,3.6155,4.4989,-1.1221,-2.9084,-0.1181,-2.9510,rough,14.0,0,4.891
1010,32.32,3.6135,4.4989,-1.1221,-2.9091,-0.1187,-2.9508,rough,14.0,0,4.889
1020,32.64,3.6082,4.4989,-1.1221,-2.9107,-0.1202,-2.9506,rough,14.0,0,4.884
1030,32.96,3.6094,4.4989,-1.1221,-2.9104,-0.1199,-2.9503,rough,14.0,0,4.885
1040,33.28,3.6151,4.4990,-1.1221,-2.9085,-0.1185,-2.9498,rough,14.0,0,4.891
1050,33.60,3.6175,4.4991,-1.1221,-2.9078,-0.1179,-2.9495,rough,14.0,0,4.893
1060,33.92,3.6139,4.4991,-1.1221,-2.9088,-0.1189,-2.9494,rough,14.0,0,4.889
1070,34.24,3.6078,4.4991,-1.1222,-2.9109,-0.1206,-2.9493,rough,14.0,0,4.883
1080,34.56,3.6070,4.4992,-1.1222,-2.9068,-0.1259,-2.9502,rough,14.0,0,4.883
1090,34.88,3.6020,4.4991,-1.1222,-2.9096,-0.1259,-2.9498,rough,14.0,0,4.878
1100,35.20,3.6003,4.5005,-1.1224,-2.9117,-0.1229,-2.9519,rough,14.0,0,4.876
1110,35.52,3.5980,4.5009,-1.1226,-2.9146,-0.1224,-2.9493,rough,14.0,0,4.873
1120,35.84,3.5951,4.5032,-1.1229,-2.9144,-0.1233,-2.9509,rough,14.0,0,4.870
1130,36.16,3.6004,4.5047,-1.1233,-2.9140,-0.1224,-2.9487,rough,14.0,0,4.875
1140,36.48,3.6016,4.5063,-1.1237,-2.9134,-0.1222,-2.9523,rough,14.0,0,4.876
1150,36.80,3.5999,4.5081,-1.1241,-2.9152,-0.1223,-2.9492,rough,14.0,0,4.874
1160,37.12,3.6040,4.5093,-1.1242,-2.9127,-0.1218,-2.9528,rough,14.0,0,4.878
1170,37.44,3.6055,4.5093,-1.1242,-2.9121,-0.1218,-2.9527,rough,14.0,0,4.879
1180,37.76,3.5990,4.5096,-1.1244,-2.9158,-0.1219,-2.9517,rough,14.0,0,4.873
1190,38.08,3.5957,4.5117,-1.1246,-2.9167,-0.1218,-2.9526,rough,14.0,0,4.869
1200,38.40,3.6030,4.5121,-1.1248,-2.9139,-0.1219,-2.9520,rough,14.0,0,4.876
1210,38.72,3.6079,4.5122,-1.1248,-2.9115,-0.1219,-2.9519,rough,14.0,0,4.881
1220,39.04,3.6074,4.5122,-1.1248,-2.9118,-0.1220,-2.9516,rough,14.0,0,4.881
1230,39.36,3.6033,4.5121,-1.1248,-2.9140,-0.1220,-2.9512,rough,14.0,0,4.876
1240,39.68,3.5971,4.5133,-1.1251,-2.9178,-0.1222,-2.9494,rough,14.0,0,4.870
1250,40.00,3.6003,4.5150,-1.1254,-2.9160,-0.1220,-2.9511,rough,14.0,0,4.873
1260,40.32,3.6029,4.5169,-1.1265,-2.9292,-0.1087,-2.9498,rough,14.0,0,4.875
1270,40.64,3.6012,4.5192,-1.1263,-2.9142,-0.1251,-2.9544,rough,14.0,0,4.873
1280,40.96,3.5944,4.5207,-1.1264,-2.9187,-0.1217,-2.9547,rough,14.0,0,4.866
1290,41.28,3.6131,4.5310,-1.1292,-2.9137,-0.1217,-2.9640,rough,14.0,0,4.882
1300,41.60,3.6348,4.5315,-1.1284,-2.9000,-0.1207,-2.9651,rough,14.0,0,4.904
1310,41.92,3.6475,4.5316,-1.1283,-2.8978,-0.1152,-2.9640,rough,14.0,0,4.916
1320,42.24,3.6474,4.5307,-1.1280,-2.8973,-0.1140,-2.9679,rough,14.0,0,4.916
1330,42.56,3.6319,4.5306,-1.1283,-2.9028,-0.1182,-2.9681,rough,14.0,0,4.901
1340,42.88,3.6187,4.5305,-1.1284,-2.9074,-0.1211,-2.9681,rough,14.0,0,4.888
1350,43.20,3.6037,4.5302,-1.1286,-2.9163,-0.1200,-2.9671,rough,14.0,0,4.873
1360,43.52,3.5939,4.5314,-1.1284,-2.9202,-0.1207,-2.9607,rough,14.0,0,4.864
1370,43.84,3.6061,4.5325,-1.1288,-2.9162,-0.1214,-2.9557,rough,14.0,0,4.875
1380,44.16,3.6157,4.5327,-1.1288,-2.9112,-0.1214,-2.9557,rough,14.0,0,4.885
1390,44.48,3.6229,4.5328,-1.1287,-2.9074,-0.1214,-2.9557,rough,14.0,0,4.892
1400,44.80,3.6280,4.5329,-1.1286,-2.9047,-0.1214,-2.9556,rough,14.0,0,4.897
1410,45.12,3.6267,4.5345,-1.1290,-2.9048,-0.1211,-2.9636,rough,14.0,0,4.895
1420,45.44,3.6238,4.5345,-1.1291,-2.9067,-0.1205,-2.9631,rough,14.0,0,4.892
1430,45.76,3.6183,4.5344,-1.1291,-2.9097,-0.1205,-2.9627,rough,14.0,0,4.887
1440,46.08,3.6106,4.5343,-1.1292,-2.9138,-0.1205,-2.9622,rough,14.0,0,4.879
1450,46.40,3.6005,4.5344,-1.1293,-2.9194,-0.1208,-2.9604,rough,14.0,0,4.869
1460,46.72,3.5938,4.5358,-1.1293,-2.9217,-0.1215,-2.9548,rough,14.0,0,4.863
1470,47.04,3.6064,4.5464,-1.1335,-2.9433,-0.0997,-2.9614,rough,14.0,0,4.873
1480,47.36,3.6364,4.5485,-1.1319,-2.9027,-0.1213,-2.9654,rough,14.0,0,4.902
1490,47.68,3.6659,4.5489,-1.1315,-2.8918,-0.1145,-2.9649,rough,14.0,0,4.931
1500,48.00,3.6694,4.5483,-1.1311,-2.8897,-0.1127,-2.9676,rough,14.0,0,4.935
1510,48.32,3.6477,4.5480,-1.1315,-2.8975,-0.1186,-2.9682,rough,14.0,0,4.913
1520,48.64,3.6288,4.5478,-1.1317,-2.9060,-0.1204,-2.9677,rough,14.0,0,4.895
1530,48.96,3.6090,4.5475,-1.1319,-2.9170,-0.1200,-2.9667,rough,14.0,0,4.875
1540,49.28,3.5914,4.5482,-1.1316,-2.9241,-0.1205,-2.9624,rough,14.0,0,4.858
1550,49.60,3.5989,4.5494,-1.1322,-2.9232,-0.1213,-2.9561,rough,14.0,0,4.865
1560,49.92,3.6181,4.5504,-1.1323,-2.9130,-0.1207,-2.9609,rough,14.0,0,4.884
1570,50.24,3.6355,4.5507,-1.1321,-2.9039,-0.1207,-2.9613,rough,14.0,0,4.901
1580,50.56,3.6496,4.5510,-1.1320,-2.8964,-0.1206,-2.9615,rough,14.0,0,4.915
1590,50.88,3.6545,4.5511,-1.1319,-2.8926,-0.1224,-2.9620,rough,14.0,0,4.919
1600,51.20,3.6604,4.5511,-1.1319,-2.8933,-0.1179,-2.9608,rough,14.0,0,4.925
1610,51.52,3.6648,4.5522,-1.1321,-2.8922,-0.1156,-2.9658,rough,14.0,0,4.929
1620,51.84,3.6635,4.5522,-1.1322,-2.8926,-0.1159,-2.9657,rough,14.0,0,4.928
1630,52.16,3.6573,4.5522,-1.1322,-2.8946,-0.1177,-2.9656,rough,14.0,0,4.922
1640,52.48,3.6547,4.5522,-1.1322,-2.8954,-0.1184,-2.9654,rough,14.0,0,4.919
1650,52.80,3.6594,4.5523,-1.1322,-2.8939,-0.1172,-2.9650,rough,14.0,0,4.924
1660,53.12,3.6649,4.5524,-1.1322,-2.8922,-0.1158,-2.9646,rough,14.0,0,4.929
1670,53.44,3.6650,4.5525,-1.1322,-2.8921,-0.1159,-2.9644,rough,14.0,0,4.929
1680,53.76,3.6599,4.5525,-1.1322,-2.8937,-0.1173,-2.9643,rough,14.0,0,4.924
1690,54.08,3.6561,4.5525,-1.1323,-2.8949,-0.1184,-2.9642,rough,14.0,0,4.921
1700,54.40,3.6598,4.5525,-1.1322,-2.8938,-0.1174,-2.9638,rough,14.0,0,4.924
1710,54.72,3.6644,4.5526,-1.1322,-2.8923,-0.1163,-2.9634,rough,14.0,0,4.929
1720,55.04,3.6636,4.5527,-1.1322,-2.8926,-0.1166,-2.9632,rough,14.0,0,4.928
1730,55.36,3.6578,4.5526,-1.1323,-2.8944,-0.1182,-2.9631,rough,14.0,0,4.922
1740,55.68,3.6558,4.5527,-1.1323,-2.8951,-0.1188,-2.9629,rough,14.0,0,4.920
1750,56.00,3.6608,4.5528,-1.1322,-2.8935,-0.1175,-2.9625,rough,14.0,0,4.925
1760,56.32,3.6644,4.5528,-1.1322,-2.8923,-0.1166,-2.9621,rough,14.0,0,4.929
1770,56.64,3.6628,4.5528,-1.1322,-2.8928,-0.1171,-2.9619,rough,14.0,0,4.927
1780,56.96,3.6582,4.5528,-1.1323,-2.8943,-0.1184,-2.9618,rough,14.0,0,4.923
1790,57.28,3.6604,4.5529,-1.1323,-2.8936,-0.1179,-2.9615,rough,14.0,0,4.925
1800,57.60,3.6637,4.5540,-1.1325,-2.8926,-0.1161,-2.9665,rough,14.0,0,4.928
1810,57.92,3.6616,4.5540,-1.1325,-2.8932,-0.1167,-2.9666,rough,14.0,0,4.926
1820,58.24,3.6566,4.5540,-1.1326,-2.8948,-0.1181,-2.9665,rough,14.0,0,4.921
1830,58.56,3.6581,4.5540,-1.1326,-2.8943,-0.1178,-2.9662,rough,14.0,0,4.922
1840,58.88,3.6644,4.5542,-1.1325,-2.8923,-0.1162,-2.9658,rough,14.0,0,4.929
1850,59.20,3.6663,4.5542,-1.1325,-2.8917,-0.1157,-2.9655,rough,14.0,0,4.930
1860,59.52,3.6630,4.5542,-1.1325,-2.8928,-0.1167,-2.9653,rough,14.0,0,4.927
1870,59.84,3.6568,4.5542,-1.1326,-2.8947,-0.1184,-2.9652,rough,14.0,0,4.921
1880,60.16,3.6573,4.5542,-1.1326,-2.8946,-0.1183,-2.9650,rough,14.0,0,4.921
1890,60.48,3.6638,4.5544,-1.1325,-2.8925,-0.1167,-2.9645,rough,14.0,0,4.928
1900,60.80,3.6673,4.5544,-1.1325,-2.8914,-0.1158,-2.9642,rough,14.0,0,4.931
1910,61.12,3.6655,4.5544,-1.1325,-2.8920,-0.1164,-2.9640,rough,14.0,0,4.930
1920,61.44,3.6594,4.5544,-1.1326,-2.8939,-0.1180,-2.9639,rough,14.0,0,4.924
1930,61.76,3.6589,4.5545,-1.1326,-2.8940,-0.1182,-2.9637,rough,14.0,0,4.923
1940,62.08,3.6647,4.5546,-1.1326,-2.8922,-0.1168,-2.9633,rough,14.0,0,4.929
1950,62.40,3.6673,4.5546,-1.1325,-2.8914,-0.1161,-2.9629,rough,14.0,0,4.931
1960,62.72,3.6647,4.5546,-1.1326,-2.8922,-0.1169,-2.9628,rough,14.0,0,4.929
1970,63.04,3.6593,4.5546,-1.1326,-2.8939,-0.1184,-2.9627,rough,14.0,0,4.923
1980,63.36,3.6606,4.5547,-1.1326,-2.8935,-0.1181,-2.9624,rough,14.0,0,4.925
1990,63.68,3.6651,4.5548,-1.1326,-2.8921,-0.1170,-2.9620,rough,14.0,0,4.929
2000,64.00,3.6645,4.5548,-1.1326,-2.8922,-0.1172,-2.9618,rough,14.0,0,4.929
2010,64.32,3.6611,4.5548,-1.1326,-2.8933,-0.1182,-2.9616,rough,14.0,0,4.925
2020,64.64,3.6624,4.5559,-1.1329,-2.8929,-0.1170,-2.9668,rough,14.0,0,4.926
2030,64.96,3.6614,4.5559,-1.1329,-2.8932,-0.1172,-2.9667,rough,14.0,0,4.925
2040,65.28,3.6628,4.5560,-1.1329,-2.8928,-0.1169,-2.9664,rough,14.0,0,4.927
2050,65.60,3.6615,4.5560,-1.1329,-2.8932,-0.1174,-2.9662,rough,14.0,0,4.925
2060,65.92,3.6624,4.5560,-1.1329,-2.8929,-0.1172,-2.9660,rough,14.0,0,4.926
2070,66.24,3.6625,4.5561,-1.1329,-2.8929,-0.1172,-2.9657,rough,14.0,0,4.926
2080,66.56,3.6632,4.5561,-1.1329,-2.8926,-0.1171,-2.9655,rough,14.0,0,4.927
2090,66.88,3.6611,4.5561,-1.1329,-2.8933,-0.1177,-2.9653,rough,14.0,0,4.925
2100,67.20,3.6643,4.5562,-1.1329,-2.8923,-0.1169,-2.9649,rough,14.0,0,4.928
2110,67.52,3.6645,4.5563,-1.1329,-2.8922,-0.1170,-2.9647,rough,14.0,0,4.928
2120,67.84,3.6618,4.5563,-1.1329,-2.8931,-0.1178,-2.9645,rough,14.0,0,4.926
2130,68.16,3.6645,4.5563,-1.1329,-2.8922,-0.1171,-2.9642,rough,14.0,0,4.928
2140,68.48,3.6642,4.5564,-1.1329,-2.8923,-0.1172,-2.9639,rough,14.0,0,4.928
2150,68.80,3.6628,4.5564,-1.1329,-2.8928,-0.1177,-2.9637,rough,14.0,0,4.927
2160,69.12,3.6646,4.5565,-1.1329,-2.8922,-0.1173,-2.9634,rough,14.0,0,4.928
2170,69.44,3.6624,4.5565,-1.1330,-2.8929,-0.1179,-2.9632,rough,14.0,0,4.926
2180,69.76,3.6644,4.5565,-1.1329,-2.8923,-0.1175,-2.9629,rough,14.0,0,4.928
2190,70.08,3.6635,4.5566,-1.1330,-2.8926,-0.1178,-2.9627,rough,14.0,0,4.927
2200,70.40,3.6637,4.5566,-1.1330,-2.8925,-0.1178,-2.9624,rough,14.0,0,4.927
2210,70.72,3.6651,4.5567,-1.1330,-2.8921,-0.1175,-2.9622,rough,14.0,0,4.929
2220,71.04,3.6635,4.5567,-1.1330,-2.8926,-0.1180,-2.9620,rough,14.0,0,4.927
2230,71.36,3.6627,4.5577,-1.1332,-2.8928,-0.1173,-2.9673,rough,14.0,0,4.926
2240,71.68,3.6640,4.5578,-1.1332,-2.8924,-0.1170,-2.9671,rough,14.0,0,4.927
2250,72.00,3.6634,4.5578,-1.1333,-2.8926,-0.1172,-2.9669,rough,14.0,0,4.927
2260,72.32,3.6638,4.5579,-1.1333,-2.8925,-0.1172,-2.9666,rough,14.0,0,4.927
2270,72.64,3.6645,4.5579,-1.1333,-2.8922,-0.1170,-2.9663,rough,14.0,0,4.928
2280,72.96,3.6632,4.5579,-1.1333,-2.8926,-0.1174,-2.9661,rough,14.0,0,4.927
2290,73.28,3.6649,4.5580,-1.1333,-2.8921,-0.1171,-2.9658,rough,14.0,0,4.928
2300,73.60,3.6633,4.5580,-1.1333,-2.8926,-0.1176,-2.9656,rough,14.0,0,4.927
2310,73.92,3.6658,4.5581,-1.1333,-2.8918,-0.1169,-2.9653,rough,14.0,0,4.929
2320,74.24,3.6653,4.5581,-1.1333,-2.8920,-0.1172,-2.9651,rough,14.0,0,4.929
2330,74.56,3.6638,4.5581,-1.1333,-2.8925,-0.1176,-2.9649,rough,14.0,0,4.927
2340,74.88,3.6653,4.5582,-1.1333,-2.8920,-0.1173,-2.9646,rough,14.0,0,4.929
2350,75.20,3.6642,4.5582,-1.1333,-2.8923,-0.1176,-2.9644,rough,14.0,0,4.928
2360,75.52,3.6655,4.5583,-1.1333,-2.8919,-0.1174,-2.9641,rough,14.0,0,4.929
2370,75.84,3.6642,4.5583,-1.1333,-2.8923,-0.1178,-2.9639,rough,14.0,0,4.928
2380,76.16,3.6670,4.5584,-1.1333,-2.8914,-0.1171,-2.9636,rough,14.0,0,4.930
2390,76.48,3.6655,4.5584,-1.1333,-2.8919,-0.1176,-2.9633,rough,14.0,0,4.929
2400,76.80,3.6653,4.5584,-1.1333,-2.8920,-0.1177,-2.9631,rough,14.0,0,4.929
2410,77.12,3.6663,4.5585,-1.1333,-2.8917,-0.1175,-2.9628,rough,14.0,0,4.930
2420,77.44,3.6658,4.5585,-1.1333,-2.8918,-0.1177,-2.9626,rough,14.0,0,4.929
2430,77.76,3.6656,4.5596,-1.1336,-2.8919,-0.1169,-2.9677,rough,14.0,0,4.929
2440,78.08,3.6653,4.5596,-1.1336,-2.8920,-0.1169,-2.9677,rough,14.0,0,4.928
2450,78.40,3.6658,4.5597,-1.1336,-2.8918,-0.1169,-2.9675,rough,14.0,0,4.929
2460,78.72,3.6651,4.5597,-1.1336,-2.8920,-0.1171,-2.9673,rough,14.0,0,4.928
2470,79.04,3.6653,4.5597,-1.1336,-2.8920,-0.1172,-2.9670,rough,14.0,0,4.928
2480,79.36,3.6663,4.5598,-1.1336,-2.8916,-0.1169,-2.9668,rough,14.0,0,4.929
2490,79.68,3.6661,4.5598,-1.1336,-2.8917,-0.1171,-2.9665,rough,14.0,0,4.929
2500,80.00,3.6647,4.5598,-1.1336,-2.8921,-0.1175,-2.9663,rough,14.0,0,4.928
2510,80.32,3.6682,4.5599,-1.1336,-2.8910,-0.1166,-2.9660,rough,14.0,0,4.931
2520,80.64,3.6675,4.5600,-1.1336,-2.8913,-0.1169,-2.9658,rough,14.0,0,4.930
2530,80.96,3.6639,4.5600,-1.1337,-2.8924,-0.1179,-2.9656,rough,14.0,0,4.927
2540,81.28,3.6668,4.5600,-1.1336,-2.8915,-0.1172,-2.9653,rough,14.0,0,4.930
2550,81.60,3.6706,4.5601,-1.1336,-2.8903,-0.1163,-2.9649,rough,14.0,0,4.934
2560,81.92,3.6693,4.5601,-1.1336,-2.8907,-0.1167,-2.9647,rough,14.0,0,4.932
2570,82.24,3.6638,4.5601,-1.1337,-2.8924,-0.1182,-2.9646,rough,14.0,0,4.927
2580,82.56,3.6638,4.5602,-1.1337,-2.8924,-0.1183,-2.9644,rough,14.0,0,4.927
2590,82.88,3.6700,4.5603,-1.1336,-2.8905,-0.1167,-2.9640,rough,14.0,0,4.933
2600,83.20,3.6732,4.5603,-1.1336,-2.8894,-0.1159,-2.9636,rough,14.0,0,4.936
2610,83.52,3.6713,4.5604,-1.1336,-2.8901,-0.1165,-2.9634,rough,14.0,0,4.934
2620,83.84,3.6652,4.5603,-1.1337,-2.8920,-0.1182,-2.9634,rough,14.0,0,4.928
2630,84.16,3.6647,4.5604,-1.1337,-2.8921,-0.1184,-2.9631,rough,14.0,0,4.928
2640,84.48,3.6700,4.5615,-1.1339,-2.8905,-0.1161,-2.9681,rough,14.0,0,4.933
2650,84.80,3.6700,4.5615,-1.1339,-2.8905,-0.1161,-2.9681,rough,14.0,0,4.933
2660,85.12,3.6650,4.5615,-1.1340,-2.8920,-0.1175,-2.9681,rough,14.0,0,4.928
2670,85.44,3.6637,4.5615,-1.1340,-2.8925,-0.1179,-2.9679,rough,14.0,0,4.926
2680,85.76,3.6686,4.5616,-1.1340,-2.8909,-0.1166,-2.9675,rough,14.0,0,4.931
2690,86.08,3.6704,4.5617,-1.1339,-2.8903,-0.1162,-2.9672,rough,14.0,0,4.933
2700,86.40,3.6671,4.5617,-1.1340,-2.8914,-0.1172,-2.9670,rough,14.0,0,4.930
2710,86.72,3.6650,4.5617,-1.1340,-2.8920,-0.1178,-2.9669,rough,14.0,0,4.928
2720,87.04,3.6694,4.5618,-1.1340,-2.8907,-0.1167,-2.9665,rough,14.0,0,4.932
2730,87.36,3.6707,4.5619,-1.1340,-2.8902,-0.1164,-2.9662,rough,14.0,0,4.933
2740,87.68,3.6670,4.5619,-1.1340,-2.8914,-0.1175,-2.9661,rough,14.0,0,4.930
2750,88.00,3.6670,4.5619,-1.1340,-2.8914,-0.1175,-2.9658,rough,14.0,0,4.930
2760,88.32,3.6703,4.5620,-1.1340,-2.8904,-0.1167,-2.9655,rough,14.0,0,4.933
2770,88.64,3.6686,4.5620,-1.1340,-2.8909,-0.1173,-2.9653,rough,14.0,0,4.931
2780,88.96,3.6682,4.5620,-1.1340,-2.8910,-0.1174,-2.9651,rough,14.0,0,4.931
2790,89.28,3.6689,4.5621,-1.1340,-2.8908,-0.1173,-2.9648,rough,14.0,0,4.932
2800,89.60,3.6686,4.5621,-1.1340,-2.8909,-0.1174,-2.9646,rough,14.0,0,4.931
2810,89.92,3.6691,4.5622,-1.1340,-2.8907,-0.1174,-2.9643,rough,14.0,0,4.932
2820,90.24,3.6686,4.5622,-1.1340,-2.8909,-0.1176,-2.9641,rough,14.0,0,4.931
2830,90.56,3.6690,4.5622,-1.1340,-2.8907,-0.1175,-2.9638,rough,14.0,0,4.932
2840,90.88,3.6696,4.5623,-1.1340,-2.8906,-0.1174,-2.9636,rough,14.0,0,4.932
2850,91.20,3.6694,4.5633,-1.1343,-2.8907,-0.1165,-2.9687,rough,14.0,0,4.932
2860,91.52,3.6667,4.5633,-1.1343,-2.8915,-0.1173,-2.9688,rough,14.0,0,4.929
2870,91.84,3.6694,4.5634,-1.1343,-2.8906,-0.1167,-2.9685,rough,14.0,0,4.932
2880,92.16,3.6691,4.5635,-1.1343,-2.8907,-0.1168,-2.9683,rough,14.0,0,4.931
2890,92.48,3.6677,4.5635,-1.1343,-2.8912,-0.1172,-2.9681,rough,14.0,0,4.930
2900,92.80,3.6712,4.5636,-1.1343,-2.8901,-0.1164,-2.9678,rough,14.0,0,4.933
2910,93.12,3.6704,4.5636,-1.1343,-2.8903,-0.1167,-2.9675,rough,14.0,0,4.933
2920,93.44,3.6668,4.5636,-1.1343,-2.8915,-0.1177,-2.9674,rough,14.0,0,4.929
2930,93.76,3.6697,4.5637,-1.1343,-2.8905,-0.1170,-2.9671,rough,14.0,0,4.932
2940,94.08,3.6735,4.5637,-1.1343,-2.8893,-0.1160,-2.9667,rough,14.0,0,4.936
2950,94.40,3.6722,4.5638,-1.1343,-2.8897,-0.1165,-2.9665,rough,14.0,0,4.934
2960,94.72,3.6668,4.5638,-1.1344,-2.8914,-0.1180,-2.9664,rough,14.0,0,4.929
2970,95.04,3.6668,4.5638,-1.1344,-2.8914,-0.1180,-2.9662,rough,14.0,0,4.929
2980,95.36,3.6731,4.5639,-1.1343,-2.8895,-0.1164,-2.9658,rough,14.0,0,4.935
2990,95.68,3.6748,4.5640,-1.1343,-2.8889,-0.1161,-2.9655,rough,14.0,0,4.937
3000,96.00,3.6679,4.5639,-1.1344,-2.8911,-0.1179,-2.9654,rough,14.0,0,4.930
3010,96.32,3.6647,4.5640,-1.1344,-2.8898,-0.1215,-2.9660,rough,14.0,0,4.927
3020,96.64,3.6631,4.5641,-1.1344,-2.8872,-0.1256,-2.9668,rough,14.0,0,4.925
3030,96.96,3.6602,4.5641,-1.1344,-2.8881,-0.1265,-2.9666,rough,14.0,0,4.923
3040,97.28,3.6558,4.5639,-1.1345,-2.8942,-0.1219,-2.9650,rough,14.0,0,4.918
3050,97.60,3.6464,4.5638,-1.1346,-2.9004,-0.1205,-2.9639,rough,14.0,0,4.909
3060,97.92,3.6352,4.5636,-1.1347,-2.9065,-0.1204,-2.9632,rough,14.0,0,4.898
3070,98.24,3.6218,4.5634,-1.1348,-2.9137,-0.1205,-2.9625,rough,14.0,0,4.885
3080,98.56,3.6059,4.5632,-1.1350,-2.9222,-0.1206,-2.9618,rough,14.0,0,4.869
3090,98.88,3.5984,4.5677,-1.1423,-2.9638,-0.1260,-2.9208,rough,14.0,0,4.861
3100,99.20,3.6140,4.5748,-1.1377,-2.9221,-0.1181,-2.9726,rough,14.0,0,4.875
3110,99.52,3.6318,4.5752,-1.1372,-2.9102,-0.1189,-2.9735,rough,14.0,0,4.893
3120,99.84,3.6474,4.5755,-1.1370,-2.9017,-0.1189,-2.9738,rough,14.0,0,4.908
3130,100.16,3.6610,4.5757,-1.1369,-2.8945,-0.1189,-2.9741,rough,14.0,0,4.921
3140,100.48,3.6689,4.5759,-1.1368,-2.8902,-0.1189,-2.9742,rough,14.0,0,4.929
3150,100.80,3.6683,4.5760,-1.1368,-2.8867,-0.1238,-2.9752,rough,14.0,0,4.928
3160,101.12,3.6660,4.5759,-1.1368,-2.8907,-0.1205,-2.9740,rough,14.0,0,4.926
3170,101.44,3.6575,4.5758,-1.1369,-2.8963,-0.1192,-2.9730,rough,14.0,0,4.918
3180,101.76,3.6470,4.5756,-1.1370,-2.9020,-0.1192,-2.9724,rough,14.0,0,4.908
3190,102.08,3.6347,4.5754,-1.1371,-2.9086,-0.1193,-2.9717,rough,14.0,0,4.895
3200,102.40,3.6201,4.5752,-1.1373,-2.9164,-0.1194,-2.9710,rough,14.0,0,4.881
3210,102.72,3.6028,4.5750,-1.1374,-2.9256,-0.1195,-2.9702,rough,14.0,0,4.864
3220,103.04,3.5916,4.5762,-1.1373,-2.9300,-0.1203,-2.9635,rough,14.0,0,4.853
3230,103.36,3.6089,4.5777,-1.1377,-2.9227,-0.1200,-2.9659,rough,14.0,0,4.870
3240,103.68,3.6295,4.5780,-1.1376,-2.9122,-0.1200,-2.9663,rough,14.0,0,4.890
3250,104.00,3.6476,4.5783,-1.1375,-2.9026,-0.1199,-2.9666,rough,14.0,0,4.908
3260,104.32,3.6637,4.5786,-1.1373,-2.8940,-0.1199,-2.9670,rough,14.0,0,4.923
3270,104.64,3.6756,4.5788,-1.1372,-2.8871,-0.1206,-2.9674,rough,14.0,0,4.935
3280,104.96,3.6712,4.5789,-1.1372,-2.8855,-0.1257,-2.9684,rough,14.0,0,4.931
3290,105.28,3.6583,4.5786,-1.1374,-2.8966,-0.1206,-2.9662,rough,14.0,0,4.918
3300,105.60,3.6433,4.5784,-1.1375,-2.9050,-0.1202,-2.9653,rough,14.0,0,4.903
3310,105.92,3.6263,4.5781,-1.1377,-2.9142,-0.1202,-2.9644,rough,14.0,0,4.887
3320,106.24,3.6067,4.5778,-1.1379,-2.9246,-0.1204,-2.9636,rough,14.0,0,4.867
3330,106.56,3.5946,4.5796,-1.1381,-2.9300,-0.1203,-2.9635,rough,14.0,0,4.855
3340,106.88,3.6079,4.5808,-1.1384,-2.9238,-0.1198,-2.9673,rough,14.0,0,4.868
3350,107.20,3.6214,4.5810,-1.1383,-2.9170,-0.1198,-2.9675,rough,14.0,0,4.881
3360,107.52,3.6322,4.5812,-1.1382,-2.9114,-0.1198,-2.9675,rough,14.0,0,4.892
3370,107.84,3.6405,4.5813,-1.1382,-2.9069,-0.1198,-2.9675,rough,14.0,0,4.900
3380,108.16,3.6467,4.5815,-1.1381,-2.9037,-0.1198,-2.9675,rough,14.0,0,4.906
3390,108.48,3.6509,4.5815,-1.1381,-2.9015,-0.1198,-2.9673,rough,14.0,0,4.910
3400,108.80,3.6532,4.5816,-1.1380,-2.9002,-0.1199,-2.9672,rough,14.0,0,4.913
3410,109.12,3.6537,4.5816,-1.1380,-2.9000,-0.1199,-2.9669,rough,14.0,0,4.913
3420,109.44,3.6524,4.5816,-1.1381,-2.9007,-0.1199,-2.9666,rough,14.0,0,4.912
3430,109.76,3.6493,4.5816,-1.1381,-2.9024,-0.1200,-2.9662,rough,14.0,0,4.909
3440,110.08,3.6442,4.5815,-1.1381,-2.9051,-0.1201,-2.9658,rough,14.0,0,4.904
3450,110.40,3.6371,4.5814,-1.1382,-2.9090,-0.1201,-2.9653,rough,14.0,0,4.897
3460,110.72,3.6277,4.5813,-1.1383,-2.9140,-0.1202,-2.9647,rough,14.0,0,4.888
3470,111.04,3.6158,4.5811,-1.1384,-2.9203,-0.1203,-2.9641,rough,14.0,0,4.876
3480,111.36,3.6011,4.5809,-1.1385,-2.9282,-0.1204,-2.9635,rough,14.0,0,4.861
3490,111.68,3.6032,4.5911,-1.1422,-2.9418,-0.1106,-2.9743,rough,14.0,0,4.862
3500,112.00,3.6337,4.5924,-1.1407,-2.9115,-0.1202,-2.9772,rough,14.0,0,4.891
3510,112.32,3.6667,4.5930,-1.1403,-2.8939,-0.1192,-2.9781,rough,14.0,0,4.924
3520,112.64,3.6927,4.5932,-1.1400,-2.8893,-0.1084,-2.9762,rough,14.0,0,4.949
3530,112.96,3.6863,4.5932,-1.1401,-2.8869,-0.1155,-2.9776,rough,14.0,0,4.943
3540,113.28,3.6667,4.5930,-1.1402,-2.8948,-0.1185,-2.9773,rough,14.0,0,4.924
3550,113.60,3.6515,4.5928,-1.1404,-2.9015,-0.1202,-2.9769,rough,14.0,0,4.909
3560,113.92,3.6375,4.5926,-1.1405,-2.9085,-0.1208,-2.9763,rough,14.0,0,4.895
3570,114.24,3.6237,4.5924,-1.1406,-2.9157,-0.1212,-2.9756,rough,14.0,0,4.882
3580,114.56,3.6095,4.5922,-1.1408,-2.9232,-0.1213,-2.9750,rough,14.0,0,4.868
3590,114.88,3.5973,4.5929,-1.1408,-2.9294,-0.1216,-2.9708,rough,14.0,0,4.855
3600,115.20,3.6041,4.5946,-1.1413,-2.9289,-0.1197,-2.9694,rough,14.0,0,4.862
3610,115.52,3.6233,4.5949,-1.1411,-2.9196,-0.1183,-2.9695,rough,14.0,0,4.881
3620,115.84,3.6502,4.5954,-1.1408,-2.9022,-0.1224,-2.9712,rough,14.0,0,4.907
3630,116.16,3.6889,4.5960,-1.1405,-2.8832,-0.1200,-2.9719,rough,14.0,0,4.945
3640,116.48,3.7115,4.5971,-1.1406,-2.8872,-0.1001,-2.9735,rough,14.0,0,4.967
3650,116.80,3.7024,4.5973,-1.1407,-2.8828,-0.1111,-2.9759,rough,14.0,0,4.958
3660,117.12,3.6703,4.5969,-1.1410,-2.8946,-0.1179,-2.9762,rough,14.0,0,4.927
3670,117.44,3.6524,4.5967,-1.1411,-2.9013,-0.1213,-2.9761,rough,14.0,0,4.909
3680,117.76,3.6483,4.5966,-1.1412,-2.9067,-0.1173,-2.9747,rough,14.0,0,4.905
3690,118.08,3.6566,4.5968,-1.1411,-2.9010,-0.1189,-2.9751,rough,14.0,0,4.913
3700,118.40,3.6775,4.5972,-1.1409,-2.8877,-0.1216,-2.9764,rough,14.0,0,4.934
3710,118.72,3.6933,4.5973,-1.1408,-2.8870,-0.1123,-2.9744,rough,14.0,0,4.949
3720,119.04,3.6828,4.5973,-1.1409,-2.8883,-0.1178,-2.9751,rough,14.0,0,4.939
3730,119.36,3.6757,4.5972,-1.1409,-2.8914,-0.1184,-2.9748,rough,14.0,0,4.932
3740,119.68,3.6791,4.5974,-1.1409,-2.8872,-0.1214,-2.9755,rough,14.0,0,4.935
3750,120.00,3.6829,4.5974,-1.1409,-2.8868,-0.1194,-2.9749,rough,14.0,0,4.939
3760,120.32,3.6791,4.5974,-1.1409,-2.8892,-0.1190,-2.9744,rough,14.0,0,4.935
3770,120.64,3.6811,4.5975,-1.1409,-2.8862,-0.1215,-2.9749,rough,14.0,0,4.937
3780,120.96,3.6838,4.5975,-1.1409,-2.8864,-0.1195,-2.9742,rough,14.0,0,4.940
3790,121.28,3.6796,4.5975,-1.1409,-2.8891,-0.1190,-2.9737,rough,14.0,0,4.936
3800,121.60,3.6812,4.5976,-1.1409,-2.8863,-0.1215,-2.9742,rough,14.0,0,4.937
3810,121.92,3.6836,4.5976,-1.1409,-2.8866,-0.1195,-2.9735,rough,14.0,0,4.940
3820,122.24,3.6793,4.5975,-1.1409,-2.8894,-0.1190,-2.9729,rough,14.0,0,4.935
3830,122.56,3.6826,4.5977,-1.1409,-2.8857,-0.1215,-2.9735,rough,14.0,0,4.939
3840,122.88,3.6833,4.5977,-1.1409,-2.8868,-0.1196,-2.9728,rough,14.0,0,4.939
3850,123.20,3.6781,4.5976,-1.1409,-2.8902,-0.1191,-2.9722,rough,14.0,0,4.934
3860,123.52,3.6821,4.5978,-1.1409,-2.8861,-0.1215,-2.9728,rough,14.0,0,4.938
3870,123.84,3.6865,4.5977,-1.1409,-2.8890,-0.1153,-2.9710,rough,14.0,0,4.942
3880,124.16,3.6834,4.5978,-1.1409,-2.8884,-0.1178,-2.9714,rough,14.0,0,4.939
3890,124.48,3.6776,4.5977,-1.1410,-2.8912,-0.1184,-2.9710,rough,14.0,0,4.934
3900,124.80,3.6808,4.5987,-1.1412,-2.8896,-0.1171,-2.9759,rough,14.0,0,4.937
3910,125.12,3.6801,4.5987,-1.1412,-2.8896,-0.1178,-2.9760,rough,14.0,0,4.936
3920,125.44,3.6827,4.5989,-1.1412,-2.8858,-0.1209,-2.9768,rough,14.0,0,4.938
3930,125.76,3.6830,4.5989,-1.1412,-2.8871,-0.1191,-2.9761,rough,14.0,0,4.939
3940,126.08,3.6762,4.5988,-1.1412,-2.8897,-0.1205,-2.9759,rough,14.0,0,4.932
3950,126.40,3.6809,4.5988,-1.1412,-2.8906,-0.1162,-2.9747,rough,14.0,0,4.937
3960,126.72,3.6890,4.5990,-1.1411,-2.8870,-0.1156,-2.9747,rough,14.0,0,4.945
3970,127.04,3.6854,4.5990,-1.1412,-2.8879,-0.1170,-2.9747,rough,14.0,0,4.941
3980,127.36,3.6792,4.5989,-1.1412,-2.8919,-0.1159,-2.9738,rough,14.0,0,4.935
3990,127.68,3.6806,4.5990,-1.1412,-2.8896,-0.1179,-2.9742,rough,14.0,0,4.936
4000,128.00,3.6883,4.5990,-1.1412,-2.8892,-0.1136,-2.9731,rough,14.0,0,4.944
4010,128.32,3.6864,4.5991,-1.1412,-2.8893,-0.1150,-2.9732,rough,14.0,0,4.942
4020,128.64,3.6804,4.5991,-1.1412,-2.8878,-0.1207,-2.9742,rough,14.0,0,4.936
4030,128.96,3.6820,4.5991,-1.1412,-2.8904,-0.1162,-2.9728,rough,14.0,0,4.938
4040,129.28,3.6855,4.5992,-1.1412,-2.8884,-0.1165,-2.9728,rough,14.0,0,4.941
4050,129.60,3.6798,4.5992,-1.1412,-2.8873,-0.1217,-2.9738,rough,14.0,0,4.936
4060,129.92,3.6817,4.5992,-1.1412,-2.8906,-0.1163,-2.9721,rough,14.0,0,4.937
4070,130.24,3.6852,4.5993,-1.1412,-2.8886,-0.1165,-2.9721,rough,14.0,0,4.941
4080,130.56,3.6795,4.5993,-1.1412,-2.8876,-0.1217,-2.9730,rough,14.0,0,4.935
4090,130.88,3.6822,4.5993,-1.1412,-2.8905,-0.1163,-2.9714,rough,14.0,0,4.938
4100,131.20,3.6885,4.5994,-1.1412,-2.8878,-0.1159,-2.9714,rough,14.0,0,4.944
4110,131.52,3.6902,4.6006,-1.1415,-2.8835,-0.1189,-2.9783,rough,14.0,0,4.946
4120,131.84,3.6836,4.6005,-1.1415,-2.8889,-0.1166,-2.9773,rough,14.0,0,4.939
4130,132.16,3.6798,4.6006,-1.1416,-2.8882,-0.1201,-2.9778,rough,14.0,0,4.935
4140,132.48,3.6846,4.6006,-1.1415,-2.8892,-0.1156,-2.9766,rough,14.0,0,4.940
4150,132.80,3.6812,4.6006,-1.1415,-2.8884,-0.1189,-2.9771,rough,14.0,0,4.937
4160,133.12,3.6778,4.6005,-1.1416,-2.8930,-0.1155,-2.9758,rough,14.0,0,4.933
4170,133.44,3.6854,4.6007,-1.1415,-2.8875,-0.1173,-2.9764,rough,14.0,0,4.941
4180,133.76,3.6902,4.6007,-1.1415,-2.8888,-0.1130,-2.9752,rough,14.0,0,4.946
4190,134.08,3.6899,4.6007,-1.1415,-2.8895,-0.1124,-2.9748,rough,14.0,0,4.945
4200,134.40,3.6877,4.6009,-1.1415,-2.8854,-0.1187,-2.9762,rough,14.0,0,4.943
4210,134.72,3.6856,4.6009,-1.1415,-2.8865,-0.1187,-2.9758,rough,14.0,0,4.941
4220,135.04,3.6766,4.6008,-1.1416,-2.8904,-0.1199,-2.9755,rough,14.0,0,4.932
4230,135.36,3.6801,4.6008,-1.1416,-2.8920,-0.1156,-2.9742,rough,14.0,0,4.936
4240,135.68,3.6887,4.6010,-1.1415,-2.8849,-0.1188,-2.9752,rough,14.0,0,4.944
4250,136.00,3.6911,4.6011,-1.1415,-2.8834,-0.1191,-2.9752,rough,14.0,0,4.946
4260,136.32,3.6823,4.6009,-1.1416,-2.8910,-0.1156,-2.9736,rough,14.0,0,4.938
4270,136.64,3.6796,4.6009,-1.1416,-2.8911,-0.1173,-2.9737,rough,14.0,0,4.935
4280,136.96,3.6859,4.6011,-1.1416,-2.8854,-0.1203,-2.9746,rough,14.0,0,4.941
4290,137.28,3.6911,4.6012,-1.1415,-2.8835,-0.1193,-2.9743,rough,14.0,0,4.946
4300,137.60,3.6828,4.6011,-1.1416,-2.8910,-0.1156,-2.9727,rough,14.0,0,4.938
4310,137.92,3.6804,4.6011,-1.1416,-2.8909,-0.1173,-2.9728,rough,14.0,0,4.936
4320,138.24,3.6856,4.6012,-1.1416,-2.8878,-0.1177,-2.9729,rough,14.0,0,4.941
4330,138.56,3.6844,4.6012,-1.1416,-2.8886,-0.1176,-2.9726,rough,14.0,0,4.940
4340,138.88,3.6857,4.6013,-1.1416,-2.8876,-0.1180,-2.9725,rough,14.0,0,4.941
4350,139.20,3.6824,4.6012,-1.1416,-2.8897,-0.1177,-2.9720,rough,14.0,0,4.938
4360,139.52,3.6829,4.6023,-1.1419,-2.8881,-0.1183,-2.9773,rough,14.0,0,4.938
4370,139.84,3.6759,4.6022,-1.1419,-2.8912,-0.1194,-2.9773,rough,14.0,0,4.931
4380,140.16,3.6821,4.6022,-1.1419,-2.8913,-0.1150,-2.9761,rough,14.0,0,4.937
4390,140.48,3.6925,4.6023,-1.1418,-2.8899,-0.1105,-2.9752,rough,14.0,0,4.948
4400,140.80,3.6864,4.6025,-1.1418,-2.8848,-0.1204,-2.9773,rough,14.0,0,4.942
4410,141.12,3.6688,4.6021,-1.1420,-2.8984,-0.1152,-2.9750,rough,14.0,0,4.924
4420,141.44,3.6646,4.6021,-1.1420,-2.8994,-0.1170,-2.9750,rough,14.0,0,4.920
4430,141.76,3.6734,4.6023,-1.1420,-2.8924,-0.1198,-2.9759,rough,14.0,0,4.929
4440,142.08,3.6936,4.6025,-1.1418,-2.8884,-0.1117,-2.9743,rough,14.0,0,4.949
4450,142.40,3.6931,4.6026,-1.1418,-2.8875,-0.1132,-2.9744,rough,14.0,0,4.948
4460,142.72,3.6826,4.6026,-1.1419,-2.8887,-0.1185,-2.9752,rough,14.0,0,4.938
4470,143.04,3.6777,4.6024,-1.1420,-2.8942,-0.1149,-2.9738,rough,14.0,0,4.933
4480,143.36,3.6871,4.6027,-1.1419,-2.8878,-0.1167,-2.9744,rough,14.0,0,4.942
4490,143.68,3.6934,4.6027,-1.1418,-2.8889,-0.1117,-2.9731,rough,14.0,0,4.948
4500,144.00,3.6895,4.6027,-1.1419,-2.8871,-0.1164,-2.9739,rough,14.0,0,4.944
4510,144.32,3.6865,4.6028,-1.1419,-2.8869,-0.1185,-2.9741,rough,14.0,0,4.942
4520,144.64,3.6783,4.6026,-1.1420,-2.8926,-0.1168,-2.9731,rough,14.0,0,4.934
4530,144.96,3.6827,4.6028,-1.1419,-2.8881,-0.1197,-2.9738,rough,14.0,0,4.938
4540,145.28,3.6876,4.6029,-1.1419,-2.8869,-0.1177,-2.9732,rough,14.0,0,4.943
4550,145.60,3.6819,4.6028,-1.1419,-2.8905,-0.1173,-2.9726,rough,14.0,0,4.937
4560,145.92,3.6853,4.6029,-1.1419,-2.8867,-0.1197,-2.9732,rough,14.0,0,4.940
4570,146.24,3.6967,4.6051,-1.1424,-2.8882,-0.1087,-2.9824,rough,14.0,0,4.951
4580,146.56,3.6907,4.6052,-1.1424,-2.8842,-0.1173,-2.9843,rough,14.0,0,4.945
4590,146.88,3.6640,4.6048,-1.1427,-2.8977,-0.1185,-2.9833,rough,14.0,0,4.919
4600,147.20,3.6460,4.6045,-1.1428,-2.9098,-0.1154,-2.9816,rough,14.0,0,4.901
4610,147.52,3.6366,4.6043,-1.1429,-2.9158,-0.1142,-2.9807,rough,14.0,0,4.892
4620,147.84,3.6351,4.6043,-1.1430,-2.9172,-0.1135,-2.9802,rough,14.0,0,4.891
4630,148.16,3.6418,4.6045,-1.1429,-2.9102,-0.1179,-2.9813,rough,14.0,0,4.897
4640,148.48,3.6581,4.6048,-1.1427,-2.9035,-0.1155,-2.9809,rough,14.0,0,4.913
4650,148.80,3.6857,4.6053,-1.1425,-2.8862,-0.1186,-2.9826,rough,14.0,0,4.940
4660,149.12,3.7062,4.6053,-1.1423,-2.8885,-0.1028,-2.9790,rough,14.0,0,4.960
4670,149.44,3.6939,4.6055,-1.1424,-2.8838,-0.1162,-2.9819,rough,14.0,0,4.948
4680,149.76,3.6618,4.6050,-1.1427,-2.8999,-0.1179,-2.9808,rough,14.0,0,4.917
4690,150.08,3.6417,4.6046,-1.1429,-2.9134,-0.1144,-2.9789,rough,14.0,0,4.897
4700,150.40,3.6297,4.6045,-1.1430,-2.9205,-0.1136,-2.9781,rough,14.0,0,4.885
4710,150.72,3.6255,4.6045,-1.1431,-2.9193,-0.1180,-2.9788,rough,14.0,0,4.881
4720,151.04,3.6295,4.6045,-1.1430,-2.9189,-0.1158,-2.9781,rough,14.0,0,4.885
4730,151.36,3.6409,4.6047,-1.1429,-2.9140,-0.1144,-2.9778,rough,14.0,0,4.896
4740,151.68,3.6608,4.6052,-1.1427,-2.9001,-0.1186,-2.9793,rough,14.0,0,4.916
4750,152.00,3.6934,4.6056,-1.1425,-2.8865,-0.1138,-2.9791,rough,14.0,0,4.948
4760,152.32,3.7068,4.6058,-1.1424,-2.8838,-0.1085,-2.9780,rough,14.0,0,4.961
4770,152.64,3.6859,4.6056,-1.1425,-2.8885,-0.1166,-2.9791,rough,14.0,0,4.941
4780,152.96,3.6658,4.6054,-1.1427,-2.8977,-0.1186,-2.9785,rough,14.0,0,4.921
4790,153.28,3.6599,4.6052,-1.1428,-2.9043,-0.1142,-2.9769,rough,14.0,0,4.915
4800,153.60,3.6668,4.6054,-1.1427,-2.8993,-0.1159,-2.9773,rough,14.0,0,4.922
4810,153.92,3.6867,4.6058,-1.1425,-2.8865,-0.1186,-2.9786,rough,14.0,0,4.941
4820,154.24,3.7021,4.6058,-1.1424,-2.8884,-0.1066,-2.9758,rough,14.0,0,4.956
4830,154.56,3.6883,4.6058,-1.1425,-2.8897,-0.1140,-2.9770,rough,14.0,0,4.943
4840,154.88,3.6772,4.6056,-1.1426,-2.8957,-0.1138,-2.9762,rough,14.0,0,4.932
4850,155.20,3.6808,4.6058,-1.1426,-2.8923,-0.1156,-2.9766,rough,14.0,0,4.935
4860,155.52,3.6930,4.6060,-1.1425,-2.8860,-0.1153,-2.9768,rough,14.0,0,4.947
4870,155.84,3.6917,4.6060,-1.1425,-2.8876,-0.1145,-2.9763,rough,14.0,0,4.946
4880,156.16,3.6821,4.6059,-1.1426,-2.8894,-0.1186,-2.9767,rough,14.0,0,4.937
4890,156.48,3.6807,4.6059,-1.1426,-2.8939,-0.1139,-2.9752,rough,14.0,0,4.935
4900,156.80,3.6931,4.6061,-1.1425,-2.8863,-0.1152,-2.9758,rough,14.0,0,4.947
4910,157.12,3.6984,4.6061,-1.1425,-2.8903,-0.1073,-2.9737,rough,14.0,0,4.953
4920,157.44,3.6796,4.6059,-1.1426,-2.8937,-0.1150,-2.9747,rough,14.0,0,4.934
4930,157.76,3.6642,4.6058,-1.1428,-2.8994,-0.1184,-2.9747,rough,14.0,0,4.919
4940,158.08,3.6631,4.6057,-1.1428,-2.9034,-0.1142,-2.9733,rough,14.0,0,4.918
4950,158.40,3.6751,4.6060,-1.1427,-2.8957,-0.1158,-2.9740,rough,14.0,0,4.930
4960,158.72,3.6950,4.6063,-1.1425,-2.8859,-0.1147,-2.9743,rough,14.0,0,4.949
4970,159.04,3.7018,4.6075,-1.1428,-2.8844,-0.1113,-2.9799,rough,14.0,0,4.956
4980,159.36,3.6845,4.6074,-1.1429,-2.8889,-0.1169,-2.9805,rough,14.0,0,4.939
4990,159.68,3.6611,4.6070,-1.1431,-2.9044,-0.1134,-2.9784,rough,14.0,0,4.916
5000,160.00,3.6507,4.6069,-1.1432,-2.9085,-0.1153,-2.9783,rough,14.0,0,4.906
5010,160.32,3.6500,4.6069,-1.1432,-2.9103,-0.1135,-2.9776,rough,14.0,0,4.905
5020,160.64,3.6615,4.6071,-1.1431,-2.9028,-0.1153,-2.9782,rough,14.0,0,4.916
5030,160.96,3.6853,4.6076,-1.1429,-2.8879,-0.1180,-2.9796,rough,14.0,0,4.940
5040,161.28,3.7045,4.6076,-1.1428,-2.8906,-0.1026,-2.9760,rough,14.0,0,4.958
5050,161.60,3.6899,4.6077,-1.1429,-2.8856,-0.1180,-2.9793,rough,14.0,0,4.944
5060,161.92,3.6606,4.6072,-1.1431,-2.9038,-0.1150,-2.9771,rough,14.0,0,4.915
5070,162.24,3.6423,4.6070,-1.1433,-2.9113,-0.1180,-2.9770,rough,14.0,0,4.897
5080,162.56,3.6347,4.6069,-1.1434,-2.9176,-0.1151,-2.9758,rough,14.0,0,4.890
5090,162.88,3.6347,4.6069,-1.1434,-2.9187,-0.1137,-2.9751,rough,14.0,0,4.890
5100,163.20,3.6428,4.6071,-1.1433,-2.9111,-0.1180,-2.9762,rough,14.0,0,4.898
5110,163.52,3.6617,4.6074,-1.1432,-2.9034,-0.1149,-2.9757,rough,14.0,0,4.916
5120,163.84,3.6921,4.6079,-1.1429,-2.8864,-0.1161,-2.9770,rough,14.0,0,4.946
5130,164.16,3.7184,4.6090,-1.1430,-2.8902,-0.0936,-2.9783,rough,14.0,0,4.972
5140,164.48,3.7180,4.6092,-1.1430,-2.8843,-0.1008,-2.9801,rough,14.0,0,4.971
5150,164.80,3.6829,4.6090,-1.1433,-2.8919,-0.1144,-2.9821,rough,14.0,0,4.937
5160,165.12,3.6466,4.6085,-1.1436,-2.9092,-0.1171,-2.9812,rough,14.0,0,4.901
5170,165.44,3.6213,4.6080,-1.1438,-2.9249,-0.1145,-2.9796,rough,14.0,0,4.876
5180,165.76,3.6025,4.6080,-1.1441,-2.9356,-0.1139,-2.9775,rough,14.0,0,4.858
5190,166.08,3.6003,4.6094,-1.1441,-2.9360,-0.1156,-2.9709,rough,14.0,0,4.856
5200,166.40,3.6111,4.6115,-1.1446,-2.9308,-0.1160,-2.9733,rough,14.0,0,4.866
5210,166.72,3.6275,4.6117,-1.1444,-2.9238,-0.1138,-2.9730,rough,14.0,0,4.882
5220,167.04,3.6507,4.6121,-1.1442,-2.9128,-0.1121,-2.9730,rough,14.0,0,4.905
5230,167.36,3.6858,4.6127,-1.1439,-2.8929,-0.1136,-2.9744,rough,14.0,0,4.939
5240,167.68,3.7215,4.6153,-1.1442,-2.8910,-0.0908,-2.9833,rough,14.0,0,4.974
5250,168.00,3.7261,4.6153,-1.1442,-2.8926,-0.0861,-2.9819,rough,14.0,0,4.978
5260,168.32,3.6985,4.6154,-1.1444,-2.8890,-0.1082,-2.9865,rough,14.0,0,4.951
5270,168.64,3.6594,4.6149,-1.1448,-2.9052,-0.1141,-2.9863,rough,14.0,0,4.913
5280,168.96,3.6302,4.6144,-1.1451,-2.9225,-0.1119,-2.9847,rough,14.0,0,4.884
5290,169.28,3.6063,4.6140,-1.1453,-2.9351,-0.1120,-2.9839,rough,14.0,0,4.861
5300,169.60,3.5949,4.6153,-1.1452,-2.9425,-0.1093,-2.9762,rough,14.0,0,4.849
5310,169.92,3.6116,4.6162,-1.1455,-2.9359,-0.1101,-2.9723,rough,14.0,0,4.865
5320,170.24,3.6328,4.6167,-1.1453,-2.9215,-0.1144,-2.9735,rough,14.0,0,4.886
5330,170.56,3.6622,4.6171,-1.1451,-2.9080,-0.1118,-2.9734,rough,14.0,0,4.915
5340,170.88,3.6975,4.6187,-1.1450,-2.8897,-0.1101,-2.9799,rough,14.0,0,4.950
5350,171.20,3.7197,4.6188,-1.1449,-2.8913,-0.0942,-2.9765,rough,14.0,0,4.971
5360,171.52,3.7074,4.6188,-1.1449,-2.8890,-0.1049,-2.9786,rough,14.0,0,4.959
5370,171.84,3.6780,4.6185,-1.1452,-2.9011,-0.1091,-2.9783,rough,14.0,0,4.930
5380,172.16,3.6574,4.6182,-1.1454,-2.9104,-0.1113,-2.9780,rough,14.0,0,4.910
5390,172.48,3.6479,4.6180,-1.1455,-2.9172,-0.1091,-2.9768,rough,14.0,0,4.901
5400,172.80,3.6468,4.6181,-1.1455,-2.9145,-0.1134,-2.9776,rough,14.0,0,4.900
5410,173.12,3.6564,4.6183,-1.1454,-2.9121,-0.1100,-2.9768,rough,14.0,0,4.909
5420,173.44,3.6749,4.6187,-1.1452,-2.8990,-0.1141,-2.9782,rough,14.0,0,4.927
5430,173.76,3.7019,4.6190,-1.1450,-2.8907,-0.1064,-2.9769,rough,14.0,0,4.954
5440,174.08,3.7146,4.6203,-1.1452,-2.8856,-0.1035,-2.9832,rough,14.0,0,4.966
5450,174.40,3.6973,4.6202,-1.1454,-2.8919,-0.1072,-2.9833,rough,14.0,0,4.949
5460,174.72,3.6681,4.6198,-1.1456,-2.9028,-0.1131,-2.9835,rough,14.0,0,4.920
5470,175.04,3.6493,4.6195,-1.1458,-2.9150,-0.1103,-2.9820,rough,14.0,0,4.902
5480,175.36,3.6386,4.6193,-1.1459,-2.9217,-0.1092,-2.9811,rough,14.0,0,4.891
5490,175.68,3.6351,4.6193,-1.1460,-2.9241,-0.1085,-2.9806,rough,14.0,0,4.888
5500,176.00,3.6390,4.6195,-1.1459,-2.9187,-0.1128,-2.9815,rough,14.0,0,4.892
5510,176.32,3.6513,4.6197,-1.1458,-2.9140,-0.1105,-2.9810,rough,14.0,0,4.904
5520,176.64,3.6717,4.6200,-1.1456,-2.9044,-0.1089,-2.9810,rough,14.0,0,4.924
5530,176.96,3.7021,4.6204,-1.1454,-2.8910,-0.1055,-2.9810,rough,14.0,0,4.954
5540,177.28,3.7138,4.6205,-1.1453,-2.8916,-0.0975,-2.9791,rough,14.0,0,4.965
5550,177.60,3.6996,4.6204,-1.1454,-2.8921,-0.1061,-2.9806,rough,14.0,0,4.951
5560,177.92,3.6795,4.6202,-1.1456,-2.9010,-0.1083,-2.9802,rough,14.0,0,4.932
5570,178.24,3.6695,4.6201,-1.1457,-2.9045,-0.1106,-2.9802,rough,14.0,0,4.922
5580,178.56,3.6719,4.6202,-1.1456,-2.9010,-0.1135,-2.9807,rough,14.0,0,4.924
5590,178.88,3.6879,4.6204,-1.1455,-2.8960,-0.1089,-2.9799,rough,14.0,0,4.940
5600,179.20,3.7041,4.6206,-1.1454,-2.8905,-0.1051,-2.9793,rough,14.0,0,4.956
5610,179.52,3.7041,4.6208,-1.1453,-2.8851,-0.1120,-2.9809,rough,14.0,0,4.956
5620,179.84,3.6914,4.6206,-1.1455,-2.8946,-0.1086,-2.9792,rough,14.0,0,4.943
5630,180.16,3.6761,4.6204,-1.1456,-2.9014,-0.1104,-2.9789,rough,14.0,0,4.928
5640,180.48,3.6730,4.6204,-1.1456,-2.9007,-0.1134,-2.9793,rough,14.0,0,4.925
5650,180.80,3.6838,4.6205,-1.1456,-2.8985,-0.1090,-2.9783,rough,14.0,0,4.936
5660,181.12,3.7037,4.6208,-1.1454,-2.8902,-0.1061,-2.9781,rough,14.0,0,4.955
5670,181.44,3.7092,4.6209,-1.1453,-2.8904,-0.1027,-2.9772,rough,14.0,0,4.961
5680,181.76,3.7027,4.6209,-1.1454,-2.8905,-0.1068,-2.9777,rough,14.0,0,4.954
5690,182.08,3.6833,4.6207,-1.1456,-2.8981,-0.1100,-2.9776,rough,14.0,0,4.935
5700,182.40,3.6708,4.6206,-1.1457,-2.9023,-0.1133,-2.9778,rough,14.0,0,4.923
5710,182.72,3.6722,4.6205,-1.1457,-2.9049,-0.1091,-2.9765,rough,14.0,0,4.924
5720,183.04,3.6866,4.6208,-1.1455,-2.8960,-0.1106,-2.9771,rough,14.0,0,4.938
5730,183.36,3.7050,4.6210,-1.1454,-2.8905,-0.1053,-2.9762,rough,14.0,0,4.957
5740,183.68,3.7163,4.6232,-1.1459,-2.8922,-0.0944,-2.9858,rough,14.0,0,4.967
5750,184.00,3.7038,4.6232,-1.1460,-2.8899,-0.1052,-2.9879,rough,14.0,0,4.955
5760,184.32,3.6748,4.6228,-1.1462,-2.9037,-0.1071,-2.9870,rough,14.0,0,4.927
5770,184.64,3.6537,4.6226,-1.1464,-2.9118,-0.1113,-2.9872,rough,14.0,0,4.906
5780,184.96,3.6419,4.6224,-1.1465,-2.9197,-0.1092,-2.9861,rough,14.0,0,4.894
5790,185.28,3.6375,4.6223,-1.1466,-2.9230,-0.1081,-2.9854,rough,14.0,0,4.890
5800,185.60,3.6385,4.6224,-1.1466,-2.9226,-0.1080,-2.9852,rough,14.0,0,4.891
5810,185.92,3.6466,4.6225,-1.1465,-2.9189,-0.1072,-2.9849,rough,14.0,0,4.899
5820,186.24,3.6627,4.6229,-1.1463,-2.9069,-0.1115,-2.9862,rough,14.0,0,4.915
5830,186.56,3.6890,4.6233,-1.1461,-2.8956,-0.1082,-2.9861,rough,14.0,0,4.940
5840,186.88,3.7132,4.6236,-1.1459,-2.8861,-0.1039,-2.9857,rough,14.0,0,4.964
5850,187.20,3.7088,4.6235,-1.1460,-2.8920,-0.1001,-2.9843,rough,14.0,0,4.960
5860,187.52,3.6956,4.6234,-1.1461,-2.8944,-0.1056,-2.9850,rough,14.0,0,4.947
5870,187.84,3.6791,4.6232,-1.1462,-2.9019,-0.1071,-2.9845,rough,14.0,0,4.931
5880,188.16,3.6728,4.6232,-1.1463,-2.9036,-0.1094,-2.9846,rough,14.0,0,4.924
5890,188.48,3.6770,4.6232,-1.1462,-2.9028,-0.1075,-2.9841,rough,14.0,0,4.929
5900,188.80,3.6916,4.6235,-1.1461,-2.8961,-0.1062,-2.9840,rough,14.0,0,4.943
5910,189.12,3.7031,4.6236,-1.1460,-2.8921,-0.1037,-2.9835,rough,14.0,0,4.954
5920,189.44,3.6968,4.6236,-1.1461,-2.8944,-0.1050,-2.9834,rough,14.0,0,4.948
5930,189.76,3.6828,4.6234,-1.1462,-2.8992,-0.1083,-2.9835,rough,14.0,0,4.934
5940,190.08,3.6759,4.6234,-1.1462,-2.9001,-0.1120,-2.9840,rough,14.0,0,4.928
5950,190.40,3.6828,4.6235,-1.1462,-2.8997,-0.1078,-2.9829,rough,14.0,0,4.934
5960,190.72,3.6919,4.6236,-1.1461,-2.8963,-0.1061,-2.9826,rough,14.0,0,4.943
5970,191.04,3.6972,4.6237,-1.1461,-2.8944,-0.1051,-2.9823,rough,14.0,0,4.948
5980,191.36,3.6975,4.6237,-1.1461,-2.8943,-0.1050,-2.9820,rough,14.0,0,4.949
5990,191.68,3.6929,4.6237,-1.1461,-2.8960,-0.1060,-2.9819,rough,14.0,0,4.944
6000,192.00,3.6855,4.6236,-1.1462,-2.8987,-0.1076,-2.9818,rough,14.0,0,4.937
6010,192.32,3.6832,4.6236,-1.1462,-2.9000,-0.1076,-2.9814,rough,14.0,0,4.935
6020,192.64,3.6915,4.6238,-1.1461,-2.8962,-0.1068,-2.9813,rough,14.0,0,4.943
6030,192.96,3.6987,4.6239,-1.1461,-2.8939,-0.1049,-2.9809,rough,14.0,0,4.950
6040,193.28,3.7010,4.6239,-1.1461,-2.8932,-0.1044,-2.9806,rough,14.0,0,4.952
6050,193.60,3.6984,4.6239,-1.1461,-2.8941,-0.1050,-2.9804,rough,14.0,0,4.950
6060,193.92,3.6909,4.6238,-1.1462,-2.8968,-0.1066,-2.9803,rough,14.0,0,4.942
6070,194.24,3.6824,4.6238,-1.1462,-2.8975,-0.1117,-2.9811,rough,14.0,0,4.934
6080,194.56,3.6858,4.6238,-1.1462,-2.8988,-0.1077,-2.9799,rough,14.0,0,4.937
6090,194.88,3.6925,4.6239,-1.1461,-2.8963,-0.1063,-2.9796,rough,14.0,0,4.944
6100,195.20,3.6960,4.6240,-1.1461,-2.8951,-0.1056,-2.9793,rough,14.0,0,4.947
6110,195.52,3.6945,4.6240,-1.1461,-2.8957,-0.1060,-2.9791,rough,14.0,0,4.946
6120,195.84,3.6885,4.6239,-1.1462,-2.8979,-0.1073,-2.9789,rough,14.0,0,4.940
6130,196.16,3.6835,4.6240,-1.1462,-2.8970,-0.1119,-2.9797,rough,14.0,0,4.935
6140,196.48,3.6904,4.6240,-1.1462,-2.8963,-0.1081,-2.9787,rough,14.0,0,4.942
6150,196.80,3.6988,4.6242,-1.1461,-2.8941,-0.1053,-2.9781,rough,14.0,0,4.950
6160,197.12,3.7024,4.6242,-1.1461,-2.8929,-0.1044,-2.9777,rough,14.0,0,4.954
6170,197.44,3.7010,4.6242,-1.1461,-2.8935,-0.1048,-2.9775,rough,14.0,0,4.952
6180,197.76,3.6948,4.6242,-1.1461,-2.8958,-0.1061,-2.9774,rough,14.0,0,4.946
6190,198.08,3.6848,4.6241,-1.1462,-2.8990,-0.1087,-2.9775,rough,14.0,0,4.936
6200,198.40,3.6815,4.6241,-1.1463,-2.8981,-0.1122,-2.9780,rough,14.0,0,4.933
6210,198.72,3.6921,4.6242,-1.1462,-2.8958,-0.1079,-2.9771,rough,14.0,0,4.943
6220,199.04,3.7040,4.6256,-1.1464,-2.8915,-0.1044,-2.9834,rough,14.0,0,4.955
6230,199.36,3.6995,4.6256,-1.1464,-2.8943,-0.1039,-2.9830,rough,14.0,0,4.950
6240,199.68,3.6879,4.6255,-1.1465,-2.8986,-0.1063,-2.9829,rough,14.0,0,4.939
6250,200.00,3.6783,4.6254,-1.1466,-2.9021,-0.1085,-2.9829,rough,14.0,0,4.930
6260,200.32,3.6807,4.6255,-1.1466,-2.8984,-0.1115,-2.9836,rough,14.0,0,4.932
6270,200.64,3.6922,4.6256,-1.1465,-2.8970,-0.1055,-2.9822,rough,14.0,0,4.943
6280,200.96,3.6998,4.6257,-1.1465,-2.8944,-0.1039,-2.9818,rough,14.0,0,4.951
6290,201.28,3.7024,4.6258,-1.1464,-2.8935,-0.1033,-2.9815,rough,14.0,0,4.953
6300,201.60,3.7002,4.6257,-1.1465,-2.8943,-0.1038,-2.9813,rough,14.0,0,4.951
6310,201.92,3.6929,4.6257,-1.1465,-2.8969,-0.1054,-2.9812,rough,14.0,0,4.944
6320,202.24,3.6830,4.6256,-1.1466,-2.9015,-0.1064,-2.9809,rough,14.0,0,4.934
6330,202.56,3.6829,4.6256,-1.1466,-2.8998,-0.1087,-2.9812,rough,14.0,0,4.934
6340,202.88,3.6907,4.6258,-1.1465,-2.8961,-0.1082,-2.9812,rough,14.0,0,4.942
6350,203.20,3.7018,4.6259,-1.1464,-2.8937,-0.1039,-2.9802,rough,14.0,0,4.953
6360,203.52,3.7043,4.6259,-1.1464,-2.8929,-0.1032,-2.9799,rough,14.0,0,4.955
6370,203.84,3.6982,4.6259,-1.1465,-2.8952,-0.1044,-2.9797,rough,14.0,0,4.949
6380,204.16,3.6877,4.6258,-1.1466,-2.8990,-0.1067,-2.9797,rough,14.0,0,4.939
6390,204.48,3.6801,4.6257,-1.1466,-2.9016,-0.1086,-2.9797,rough,14.0,0,4.931
6400,204.80,3.6842,4.6259,-1.1466,-2.8971,-0.1116,-2.9804,rough,14.0,0,4.935
6410,205.12,3.6971,4.6260,-1.1465,-2.8954,-0.1051,-2.9789,rough,14.0,0,4.948
6420,205.44,3.7054,4.6261,-1.1464,-2.8927,-0.1031,-2.9784,rough,14.0,0,4.956
6430,205.76,3.7023,4.6261,-1.1465,-2.8939,-0.1038,-2.9782,rough,14.0,0,4.953
6440,206.08,3.6901,4.6260,-1.1466,-2.8983,-0.1063,-2.9782,rough,14.0,0,4.941
6450,206.40,3.6800,4.6259,-1.1467,-2.9020,-0.1085,-2.9782,rough,14.0,0,4.931
6460,206.72,3.6823,4.6260,-1.1466,-2.8984,-0.1116,-2.9788,rough,14.0,0,4.933
6470,207.04,3.6939,4.6261,-1.1465,-2.8970,-0.1056,-2.9774,rough,14.0,0,4.945
6480,207.36,3.7016,4.6262,-1.1465,-2.8942,-0.1040,-2.9771,rough,14.0,0,4.952
6490,207.68,3.7029,4.6275,-1.1468,-2.8934,-0.1032,-2.9837,rough,14.0,0,4.953
6500,208.00,3.6934,4.6274,-1.1469,-2.8974,-0.1045,-2.9836,rough,14.0,0,4.944
6510,208.32,3.6811,4.6272,-1.1470,-2.9029,-0.1057,-2.9833,rough,14.0,0,4.932
6520,208.64,3.6787,4.6273,-1.1470,-2.9025,-0.1080,-2.9835,rough,14.0,0,4.930
6530,208.96,3.6882,4.6274,-1.1469,-2.8992,-0.1058,-2.9831,rough,14.0,0,4.939
6540,209.28,3.6974,4.6275,-1.1469,-2.8960,-0.1036,-2.9826,rough,14.0,0,4.948
6550,209.60,3.7018,4.6276,-1.1468,-2.8945,-0.1027,-2.9823,rough,14.0,0,4.952
6560,209.92,3.7012,4.6276,-1.1468,-2.8948,-0.1029,-2.9821,rough,14.0,0,4.952
6570,210.24,3.6957,4.6276,-1.1469,-2.8968,-0.1041,-2.9819,rough,14.0,0,4.946
6580,210.56,3.6856,4.6275,-1.1470,-2.9004,-0.1062,-2.9819,rough,14.0,0,4.936
6590,210.88,3.6797,4.6274,-1.1470,-2.9036,-0.1063,-2.9815,rough,14.0,0,4.931
6600,211.20,3.6867,4.6276,-1.1470,-2.8985,-0.1081,-2.9819,rough,14.0,0,4.937
6610,211.52,3.6983,4.6277,-1.1469,-2.8958,-0.1038,-2.9810,rough,14.0,0,4.949
6620,211.84,3.7051,4.6278,-1.1468,-2.8935,-0.1022,-2.9806,rough,14.0,0,4.956
6630,212.16,3.7056,4.6278,-1.1468,-2.8933,-0.1021,-2.9804,rough,14.0,0,4.956
6640,212.48,3.6990,4.6278,-1.1469,-2.8957,-0.1035,-2.9802,rough,14.0,0,4.950
6650,212.80,3.6876,4.6277,-1.1470,-2.8999,-0.1060,-2.9802,rough,14.0,0,4.938
6660,213.12,3.6780,4.6276,-1.1470,-2.9035,-0.1080,-2.9802,rough,14.0,0,4.929
6670,213.44,3.6804,4.6277,-1.1470,-2.9000,-0.1109,-2.9808,rough,14.0,0,4.931
6680,213.76,3.6920,4.6278,-1.1469,-2.8984,-0.1051,-2.9794,rough,14.0,0,4.943
6690,214.08,3.7006,4.6279,-1.1469,-2.8953,-0.1033,-2.9790,rough,14.0,0,4.951
6700,214.40,3.7042,4.6280,-1.1468,-2.8940,-0.1026,-2.9787,rough,14.0,0,4.955
6710,214.72,3.7029,4.6280,-1.1468,-2.8945,-0.1029,-2.9785,rough,14.0,0,4.953
6720,215.04,3.6967,4.6280,-1.1469,-2.8968,-0.1043,-2.9784,rough,14.0,0,4.947
6730,215.36,3.6859,4.6279,-1.1470,-2.9007,-0.1066,-2.9784,rough,14.0,0,4.937
6740,215.68,3.6794,4.6278,-1.1470,-2.9044,-0.1064,-2.9778,rough,14.0,0,4.930
6750,216.00,3.6862,4.6279,-1.1470,-2.8994,-0.1081,-2.9783,rough,14.0,0,4.937
6760,216.32,3.6978,4.6281,-1.1469,-2.8965,-0.1041,-2.9774,rough,14.0,0,4.948
6770,216.64,3.7040,4.6294,-1.1472,-2.8945,-0.1014,-2.9838,rough,14.0,0,4.954
6780,216.96,3.7021,4.6294,-1.1472,-2.8952,-0.1018,-2.9837,rough,14.0,0,4.952
6790,217.28,3.6951,4.6293,-1.1473,-2.8977,-0.1033,-2.9837,rough,14.0,0,4.945
6800,217.60,3.6843,4.6292,-1.1473,-2.9013,-0.1060,-2.9837,rough,14.0,0,4.935
6810,217.92,3.6800,4.6293,-1.1474,-2.9006,-0.1100,-2.9844,rough,14.0,0,4.931
6820,218.24,3.6890,4.6294,-1.1473,-2.8989,-0.1061,-2.9834,rough,14.0,0,4.939
6830,218.56,3.6990,4.6295,-1.1472,-2.8963,-0.1027,-2.9827,rough,14.0,0,4.949
6840,218.88,3.7042,4.6296,-1.1472,-2.8946,-0.1015,-2.9823,rough,14.0,0,4.954
6850,219.20,3.7043,4.6296,-1.1472,-2.8945,-0.1015,-2.9821,rough,14.0,0,4.955
6860,219.52,3.6996,4.6296,-1.1472,-2.8963,-0.1026,-2.9820,rough,14.0,0,4.950
6870,219.84,3.6898,4.6295,-1.1473,-2.8998,-0.1047,-2.9819,rough,14.0,0,4.940
6880,220.16,3.6789,4.6294,-1.1474,-2.9017,-0.1098,-2.9826,rough,14.0,0,4.929
6890,220.48,3.6799,4.6294,-1.1474,-2.9043,-0.1058,-2.9814,rough,14.0,0,4.930
6900,220.80,3.6910,4.6296,-1.1473,-2.8993,-0.1046,-2.9812,rough,14.0,0,4.941
6910,221.12,3.6998,4.6297,-1.1472,-2.8963,-0.1026,-2.9808,rough,14.0,0,4.950
6920,221.44,3.7036,4.6298,-1.1472,-2.8950,-0.1018,-2.9805,rough,14.0,0,4.954
6930,221.76,3.7025,4.6298,-1.1472,-2.8954,-0.1021,-2.9803,rough,14.0,0,4.953
6940,222.08,3.6963,4.6297,-1.1473,-2.8977,-0.1035,-2.9801,rough,14.0,0,4.947
6950,222.40,3.6856,4.6296,-1.1474,-2.9015,-0.1058,-2.9801,rough,14.0,0,4.936
6960,222.72,3.6791,4.6295,-1.1474,-2.9051,-0.1057,-2.9796,rough,14.0,0,4.930
6970,223.04,3.6856,4.6297,-1.1474,-2.9003,-0.1075,-2.9801,rough,14.0,0,4.936
6980,223.36,3.6970,4.6298,-1.1473,-2.8975,-0.1035,-2.9792,rough,14.0,0,4.947
6990,223.68,3.7035,4.6299,-1.1472,-2.8952,-0.1021,-2.9788,rough,14.0,0,4.954
7000,224.00,3.7050,4.6300,-1.1472,-2.8947,-0.1018,-2.9786,rough,14.0,0,4.955
7010,224.32,3.7015,4.6299,-1.1472,-2.8960,-0.1025,-2.9784,rough,14.0,0,4.952
7020,224.64,3.6930,4.6299,-1.1473,-2.8990,-0.1044,-2.9783,rough,14.0,0,4.943
7030,224.96,3.6818,4.6297,-1.1474,-2.9042,-0.1054,-2.9779,rough,14.0,0,4.932
7040,225.28,3.6805,4.6298,-1.1474,-2.9034,-0.1075,-2.9782,rough,14.0,0,4.931
7050,225.60,3.6907,4.6299,-1.1473,-2.8999,-0.1050,-2.9776,rough,14.0,0,4.941
7060,225.92,3.7014,4.6313,-1.1476,-2.8963,-0.1013,-2.9839,rough,14.0,0,4.951
7070,226.24,3.7069,4.6314,-1.1475,-2.8944,-0.1001,-2.9837,rough,14.0,0,4.957
7080,226.56,3.7073,4.6314,-1.1475,-2.8942,-0.1000,-2.9835,rough,14.0,0,4.957
7090,226.88,3.7028,4.6314,-1.1476,-2.8959,-0.1010,-2.9834,rough,14.0,0,4.953
7100,227.20,3.6934,4.6313,-1.1477,-2.8993,-0.1031,-2.9833,rough,14.0,0,4.943
7110,227.52,3.6811,4.6312,-1.1478,-2.9048,-0.1044,-2.9830,rough,14.0,0,4.931
7120,227.84,3.6787,4.6312,-1.1478,-2.9043,-0.1067,-2.9833,rough,14.0,0,4.929
7130,228.16,3.6867,4.6313,-1.1477,-2.9016,-0.1048,-2.9828,rough,14.0,0,4.937
7140,228.48,3.6965,4.6314,-1.1476,-2.8982,-0.1025,-2.9823,rough,14.0,0,4.947
7150,228.80,3.7017,4.6315,-1.1476,-2.8964,-0.1014,-2.9820,rough,14.0,0,4.952
7160,229.12,3.7019,4.6315,-1.1476,-2.8964,-0.1014,-2.9818,rough,14.0,0,4.952
7170,229.44,3.6970,4.6315,-1.1476,-2.8982,-0.1025,-2.9816,rough,14.0,0,4.947
7180,229.76,3.6876,4.6314,-1.1477,-2.9016,-0.1045,-2.9816,rough,14.0,0,4.938
7190,230.08,3.6808,4.6314,-1.1478,-2.9037,-0.1065,-2.9816,rough,14.0,0,4.931
7200,230.40,3.6847,4.6315,-1.1478,-2.9021,-0.1058,-2.9813,rough,14.0,0,4.935
7210,230.72,3.6949,4.6316,-1.1477,-2.8983,-0.1039,-2.9810,rough,14.0,0,4.945
7220,231.04,3.7036,4.6317,-1.1476,-2.8958,-0.1013,-2.9803,rough,14.0,0,4.953
7230,231.36,3.7074,4.6318,-1.1476,-2.8946,-0.1004,-2.9800,rough,14.0,0,4.957
7240,231.68,3.7063,4.6318,-1.1476,-2.8950,-0.1007,-2.9798,rough,14.0,0,4.956
7250,232.00,3.7001,4.6317,-1.1476,-2.8972,-0.1020,-2.9797,rough,14.0,0,4.950
7260,232.32,3.6891,4.6316,-1.1477,-2.9013,-0.1044,-2.9797,rough,14.0,0,4.939
7270,232.64,3.6798,4.6316,-1.1478,-2.9046,-0.1065,-2.9797,rough,14.0,0,4.930
7280,232.96,3.6820,4.6317,-1.1478,-2.9010,-0.1096,-2.9803,rough,14.0,0,4.932
7290,233.28,3.6930,4.6318,-1.1477,-2.8998,-0.1037,-2.9789,rough,14.0,0,4.943
7300,233.60,3.7000,4.6319,-1.1476,-2.8974,-0.1022,-2.9785,rough,14.0,0,4.950
7310,233.92,3.7019,4.6319,-1.1476,-2.8967,-0.1018,-2.9782,rough,14.0,0,4.952
7320,234.24,3.6988,4.6319,-1.1477,-2.8979,-0.1025,-2.9780,rough,14.0,0,4.949
7330,234.56,3.6907,4.6318,-1.1477,-2.9009,-0.1042,-2.9780,rough,14.0,0,4.941
7340,234.88,3.6826,4.6318,-1.1478,-2.9013,-0.1092,-2.9787,rough,14.0,0,4.933
7350,235.20,3.6862,4.6318,-1.1478,-2.9026,-0.1051,-2.9775,rough,14.0,0,4.936
7360,235.52,3.6923,4.6319,-1.1477,-2.9002,-0.1041,-2.9772,rough,14.0,0,4.942
7370,235.84,3.6962,4.6332,-1.1480,-2.8992,-0.1018,-2.9837,rough,14.0,0,4.946
7380,236.16,3.6945,4.6332,-1.1480,-2.8998,-0.1021,-2.9836,rough,14.0,0,4.944
7390,236.48,3.6881,4.6332,-1.1481,-2.9021,-0.1035,-2.9835,rough,14.0,0,4.938
7400,236.80,3.6825,4.6332,-1.1481,-2.9014,-0.1083,-2.9843,rough,14.0,0,4.932
7410,237.12,3.6845,4.6333,-1.1481,-2.9003,-0.1084,-2.9841,rough,14.0,0,4.934
7420,237.44,3.6928,4.6333,-1.1481,-2.9003,-0.1029,-2.9827,rough,14.0,0,4.943
7430,237.76,3.6972,4.6334,-1.1480,-2.8989,-0.1017,-2.9824,rough,14.0,0,4.947
7440,238.08,3.6964,4.6334,-1.1480,-2.8992,-0.1019,-2.9821,rough,14.0,0,4.946
7450,238.40,3.6905,4.6333,-1.1481,-2.9014,-0.1032,-2.9820,rough,14.0,0,4.940
7460,238.72,3.6828,4.6333,-1.1482,-2.9050,-0.1038,-2.9817,rough,14.0,0,4.933
7470,239.04,3.6846,4.6334,-1.1481,-2.9023,-0.1061,-2.9821,rough,14.0,0,4.934
7480,239.36,3.6918,4.6334,-1.1481,-2.9010,-0.1030,-2.9813,rough,14.0,0,4.942
7490,239.68,3.6952,4.6335,-1.1480,-2.8998,-0.1023,-2.9810,rough,14.0,0,4.945
7500,240.00,3.6935,4.6335,-1.1481,-2.9004,-0.1026,-2.9808,rough,14.0,0,4.943
7510,240.32,3.6879,4.6335,-1.1481,-2.9025,-0.1039,-2.9806,rough,14.0,0,4.938
7520,240.64,3.6835,4.6335,-1.1481,-2.9013,-0.1084,-2.9814,rough,14.0,0,4.933
7530,240.96,3.6867,4.6336,-1.1481,-2.8996,-0.1084,-2.9813,rough,14.0,0,4.937
7540,241.28,3.6962,4.6336,-1.1481,-2.8992,-0.1026,-2.9799,rough,14.0,0,4.946
7550,241.60,3.7010,4.6337,-1.1480,-2.8978,-0.1012,-2.9794,rough,14.0,0,4.951
7560,241.92,3.7008,4.6337,-1.1480,-2.8980,-0.1013,-2.9792,rough,14.0,0,4.950
7570,242.24,3.6954,4.6337,-1.1481,-2.8999,-0.1024,-2.9791,rough,14.0,0,4.945
7580,242.56,3.6861,4.6336,-1.1481,-2.9033,-0.1044,-2.9790,rough,14.0,0,4.936
7590,242.88,3.6815,4.6336,-1.1482,-2.9059,-0.1044,-2.9786,rough,14.0,0,4.931
7600,243.20,3.6870,4.6337,-1.1481,-2.9033,-0.1039,-2.9784,rough,14.0,0,4.937
7610,243.52,3.6986,4.6338,-1.1480,-2.8984,-0.1024,-2.9782,rough,14.0,0,4.948
7620,243.84,3.7072,4.6352,-1.1483,-2.8960,-0.0987,-2.9845,rough,14.0,0,4.956
7630,244.16,3.7103,4.6353,-1.1483,-2.8949,-0.0980,-2.9843,rough,14.0,0,4.960
7640,244.48,3.7085,4.6353,-1.1483,-2.8956,-0.0984,-2.9841,rough,14.0,0,4.958
7650,244.80,3.7017,4.6352,-1.1484,-2.8981,-0.0999,-2.9840,rough,14.0,0,4.951
7660,245.12,3.6897,4.6351,-1.1485,-2.9024,-0.1024,-2.9840,rough,14.0,0,4.939
7670,245.44,3.6767,4.6350,-1.1486,-2.9052,-0.1078,-2.9847,rough,14.0,0,4.926
7680,245.76,3.6736,4.6349,-1.1486,-2.9090,-0.1051,-2.9837,rough,14.0,0,4.923
7690,246.08,3.6810,4.6350,-1.1485,-2.9068,-0.1029,-2.9831,rough,14.0,0,4.931
7700,246.40,3.6969,4.6353,-1.1484,-2.8996,-0.1014,-2.9830,rough,14.0,0,4.946
7710,246.72,3.7092,4.6354,-1.1483,-2.8955,-0.0984,-2.9824,rough,14.0,0,4.958
7720,247.04,3.7143,4.6355,-1.1483,-2.8937,-0.0974,-2.9821,rough,14.0,0,4.963
7730,247.36,3.7060,4.6354,-1.1483,-2.8967,-0.0991,-2.9821,rough,14.0,0,4.955
7740,247.68,3.6927,4.6353,-1.1484,-2.9015,-0.1020,-2.9821,rough,14.0,0,4.942
7750,248.00,3.6771,4.6352,-1.1486,-2.9054,-0.1077,-2.9828,rough,14.0,0,4.927
7760,248.32,3.6730,4.6351,-1.1486,-2.9106,-0.1039,-2.9814,rough,14.0,0,4.923
7770,248.64,3.6781,4.6353,-1.1486,-2.9046,-0.1081,-2.9824,rough,14.0,0,4.928
7780,248.96,3.6913,4.6354,-1.1485,-2.9019,-0.1027,-2.9812,rough,14.0,0,4.941
7790,249.28,3.7003,4.6355,-1.1484,-2.8989,-0.1005,-2.9807,rough,14.0,0,4.950
7800,249.60,3.7041,4.6356,-1.1484,-2.8976,-0.0997,-2.9804,rough,14.0,0,4.953
7810,249.92,3.7029,4.6356,-1.1484,-2.8980,-0.1000,-2.9802,rough,14.0,0,4.952
7820,250.24,3.6966,4.6355,-1.1484,-2.9003,-0.1014,-2.9801,rough,14.0,0,4.946
7830,250.56,3.6856,4.6354,-1.1485,-2.9043,-0.1037,-2.9801,rough,14.0,0,4.935
7840,250.88,3.6787,4.6354,-1.1486,-2.9081,-0.1038,-2.9796,rough,14.0,0,4.928
