step,time_s,x,y,z,roll,pitch,yaw,terrain,speed,target_idx,dist_to_target
10,0.32,0.0014,-0.0617,0.1917,-0.0019,-0.0186,-0.0001,slope,18.0,0,5.395
20,0.64,0.2866,-0.0681,0.2079,0.0193,-0.0636,-0.0605,slope,18.0,0,5.170
30,0.96,0.6078,-0.1092,0.2232,0.0606,-0.0508,-0.1342,rough,14.0,0,4.902
40,1.28,0.9249,-0.1773,0.2343,0.1149,-0.0692,-0.2514,slope,18.0,0,4.624
50,1.60,1.3551,-0.3619,0.2353,0.1143,0.0826,-0.4724,slope,18.0,0,4.191
60,1.92,1.7775,-0.6219,0.1948,0.0939,0.0811,-0.6209,slope,18.0,0,3.714
70,2.24,2.1896,-0.9719,0.1461,0.1242,0.1076,-0.7215,slope,18.0,0,3.180
80,2.56,2.5961,-1.3698,0.0513,0.1383,0.2238,-0.7678,slope,18.0,0,2.614
90,2.88,2.9121,-1.7708,-0.1270,0.3560,0.3124,-0.6822,rough,14.0,0,2.103
100,3.20,3.2154,-2.0403,-0.2265,0.3443,0.2064,-0.7187,rough,14.0,0,1.705
110,3.52,3.4340,-2.2822,-0.2474,0.4094,-0.0825,-0.8397,rough,14.0,0,1.380
120,3.84,3.7071,-2.6302,-0.2415,0.4718,-0.0382,-0.8476,rough,14.0,1,7.230
130,4.16,3.9414,-2.9816,-0.3219,0.3907,0.3017,-0.9129,rough,14.0,1,7.107
140,4.48,4.0706,-3.2611,-0.4152,0.3279,0.2661,-1.1999,rough,14.0,1,6.986
150,4.80,4.1353,-3.5962,-0.5027,0.2778,0.3436,-1.6512,slope,18.0,1,6.791
160,5.12,4.0321,-4.0297,-0.6162,0.3379,0.1821,-1.8853,slope,18.0,1,6.419
170,5.44,3.8646,-4.4018,-0.6835,0.3280,0.0981,-2.1188,rough,14.0,1,6.046
180,5.76,3.6338,-4.6864,-0.7129,0.2740,0.0236,-2.3114,rough,14.0,1,5.686
190,6.08,3.3370,-4.9798,-0.7444,0.2511,0.1074,-2.3950,rough,14.0,1,5.270
200,6.40,2.9926,-5.2013,-0.7771,0.4518,0.1611,-2.4578,rough,14.0,1,4.864
210,6.72,2.7656,-5.3580,-0.7445,0.3610,-0.2464,-2.6500,rough,14.0,1,4.590
220,7.04,2.5357,-5.4283,-0.6686,0.4057,-0.5366,-2.8927,rough,14.0,1,4.370
230,7.36,2.3171,-5.4439,-0.5242,0.3291,-0.7976,-2.6735,rough,14.0,1,4.200
240,7.68,2.1430,-5.5001,-0.3889,-0.0455,-0.7713,-2.3601,rough,14.0,1,4.036
250,8.00,1.9688,-5.6190,-0.1908,-0.1775,-0.7235,-2.1948,rough,14.0,1,3.829
260,8.32,1.7827,-5.8064,0.0106,-0.0853,-0.6752,-2.1600,rough,14.0,1,3.565
270,8.64,1.5798,-6.0423,0.2237,-0.0020,-0.6006,-2.0971,rough,14.0,1,3.254
280,8.96,1.4370,-6.2701,0.4582,0.0358,-0.8495,-2.1347,rough,14.0,1,2.993
290,9.28,1.3609,-6.4303,0.6548,0.0678,-0.9289,-2.2303,rough,14.0,1,2.827
300,9.60,1.3252,-6.5258,0.7640,-0.1652,-0.9049,-2.0172,rough,14.0,1,2.737
310,9.92,1.3213,-6.5931,0.8143,-0.5357,-0.7284,-1.5737,rough,14.0,1,2.689
320,10.24,1.4366,-6.5943,0.7305,-0.6785,-0.4910,-1.1841,rough,14.0,1,2.777
330,10.56,1.6023,-6.5108,0.5602,-0.6859,-0.3389,-0.9686,rough,14.0,1,2.958
340,10.88,1.7021,-6.3583,0.3933,-0.5651,-0.5315,-1.1699,rough,14.0,1,3.132
350,11.20,1.7598,-6.2631,0.3001,-0.4802,-0.5637,-1.2725,rough,14.0,1,3.237
360,11.52,1.8582,-6.2866,0.2791,-0.6199,-0.4683,-0.9696,slope,18.0,1,3.298
370,11.84,2.0438,-6.3279,0.2553,-0.6578,-0.3732,-0.7351,slope,18.0,1,3.420
380,12.16,2.2582,-6.3445,0.2101,-0.6488,-0.4226,-0.8917,rough,14.0,1,3.585
390,12.48,2.3999,-6.3161,0.1272,-0.4742,-0.6739,-1.3043,rough,14.0,1,3.719
400,12.80,2.5417,-6.2195,-0.0226,-0.4218,-0.7289,-1.4580,rough,14.0,1,3.891
410,13.12,2.7067,-6.0488,-0.2473,-0.3799,-0.7126,-1.4420,rough,14.0,1,4.123
420,13.44,2.7575,-5.8488,-0.4288,-0.3201,-0.7516,-1.4326,rough,14.0,1,4.279
430,13.76,2.7729,-5.7106,-0.5334,-0.2882,-0.6033,-1.4175,rough,14.0,1,4.373
440,14.08,2.8153,-5.6631,-0.5790,-0.2270,-0.4828,-1.3419,rough,14.0,1,4.436
450,14.40,2.9006,-5.7166,-0.5576,-0.1894,-0.5151,-1.1993,rough,14.0,1,4.472
460,14.72,2.9858,-5.8999,-0.4274,-0.1443,-0.7195,-1.2651,rough,14.0,1,4.437
470,15.04,3.0620,-6.0571,-0.3126,-0.1621,-0.6616,-1.3486,rough,14.0,1,4.417
480,15.36,3.1396,-6.2639,-0.1809,-0.2921,-0.6587,-1.4066,rough,14.0,1,4.382
490,15.68,3.1851,-6.4360,-0.0627,-0.3992,-0.7147,-1.3639,rough,14.0,1,4.343
500,16.00,3.2401,-6.6443,0.0402,-0.4674,-0.5245,-1.4940,rough,14.0,1,4.306
510,16.32,3.2672,-6.8467,0.1561,-0.5219,-0.5887,-1.4599,rough,14.0,1,4.255
520,16.64,3.2985,-7.0580,0.2657,-0.5608,-0.5322,-1.5012,slope,18.0,1,4.214
530,16.96,3.3319,-7.2348,0.3512,-0.5047,-0.5628,-1.6051,slope,18.0,1,4.195
540,17.28,3.3226,-7.4345,0.4831,-0.5140,-0.5929,-1.5915,slope,18.0,1,4.138
550,17.60,3.3300,-7.6751,0.6403,-0.5205,-0.6250,-1.5868,rough,14.0,1,4.098
560,17.92,3.3292,-7.9085,0.8064,-0.2934,-0.7431,-1.8488,slope,18.0,1,4.065
570,18.24,3.3023,-8.1053,0.9722,-0.3645,-0.7174,-1.7269,rough,14.0,1,4.022
580,18.56,3.3053,-8.2774,1.1000,-0.5080,-0.6720,-1.5388,rough,14.0,1,4.018
590,18.88,3.3842,-8.3734,1.1281,-0.5854,-0.6468,-1.3989,rough,14.0,1,4.096
600,19.20,3.5456,-8.3637,1.0110,-0.5301,-0.6325,-1.4391,rough,14.0,1,4.257
610,19.52,3.6905,-8.2728,0.8602,-0.6198,-0.4861,-1.2347,rough,14.0,1,4.403
620,19.84,3.8408,-8.2148,0.7336,-0.6555,-0.2847,-0.9930,rough,14.0,1,4.555
630,20.16,3.9905,-8.2763,0.6975,-0.6036,-0.1392,-0.8784,rough,14.0,1,4.703
640,20.48,4.2312,-8.4717,0.6568,-0.5745,0.1539,-0.7888,rough,14.0,1,4.944
650,20.80,4.4827,-8.6600,0.5439,-0.6403,0.4159,-0.8356,rough,14.0,1,5.204
660,21.12,4.6819,-8.7801,0.4283,-0.6257,0.2825,-0.6680,rough,14.0,1,5.411
670,21.44,4.8986,-8.8719,0.2959,-0.5990,0.4947,-0.5347,rough,14.0,1,5.634
680,21.76,5.1960,-8.8782,0.0329,-0.7156,0.5382,-0.5063,rough,14.0,1,5.931
690,22.08,5.4954,-8.7935,-0.2662,-0.7898,0.1706,-0.7118,rough,14.0,1,6.223
700,22.40,5.7548,-8.8523,-0.4133,-0.7015,0.3632,-0.6246,rough,14.0,1,6.486
710,22.72,5.9254,-8.9006,-0.4683,-0.5769,0.2121,-0.3293,rough,14.0,1,6.660
720,23.04,6.0977,-8.9582,-0.5202,-0.3777,0.2010,-0.1836,rough,14.0,1,6.836
730,23.36,6.3022,-8.9623,-0.5783,-0.3159,0.2217,-0.0310,rough,14.0,1,7.040
740,23.68,6.5610,-9.0326,-0.7155,-0.0097,0.3883,0.0057,rough,14.0,1,7.304
750,24.00,6.7832,-9.0292,-0.8029,-0.0245,0.4317,0.0032,rough,14.0,1,7.525
760,24.32,6.9930,-9.0242,-0.9000,-0.0521,0.4620,0.0047,rough,14.0,1,7.734
770,24.64,7.2037,-9.0104,-0.9934,-0.1107,0.4701,0.0072,rough,14.0,1,7.943
780,24.96,7.3825,-8.9830,-1.0468,-0.1859,0.3606,0.0723,rough,14.0,1,8.119
790,25.28,7.5498,-8.9488,-1.0817,-0.2578,0.1077,0.1439,rough,14.0,1,8.283
800,25.60,7.7281,-8.8883,-1.1059,-0.2572,0.1031,0.2973,rough,14.0,1,8.457
810,25.92,7.9452,-8.7858,-1.1475,-0.2807,0.2371,0.4121,rough,14.0,1,8.668
820,26.24,8.1708,-8.6625,-1.2104,-0.3507,0.3546,0.4592,rough,14.0,1,8.888
830,26.56,8.3820,-8.5438,-1.2878,-0.3445,0.3046,0.5668,rough,14.0,1,9.096
840,26.88,8.6047,-8.3997,-1.3306,-0.1426,0.2799,0.6800,rough,14.0,1,9.317
850,27.20,8.7172,-8.2588,-1.3590,-0.1906,-0.0239,0.7787,rough,14.0,1,9.429
860,27.52,8.8297,-8.1180,-1.3397,-0.1870,-0.1412,0.8988,rough,14.0,1,9.544
870,27.84,8.9153,-7.9724,-1.3208,-0.2108,-0.2316,1.0188,rough,14.0,1,9.635
880,28.16,8.9792,-7.8059,-1.3070,-0.3135,-0.2135,1.1137,rough,14.0,1,9.706
890,28.48,9.0474,-7.6731,-1.2706,-0.3302,-0.2238,1.1843,rough,14.0,1,9.783
900,28.80,9.1118,-7.5418,-1.2467,-0.2992,-0.2038,1.2430,rough,14.0,1,9.857
910,29.12,9.1730,-7.4105,-1.2290,-0.2514,-0.1570,1.2833,rough,14.0,1,9.930
920,29.44,9.2322,-7.2841,-1.2184,-0.1370,-0.1072,1.3169,rough,14.0,1,10.001
930,29.76,9.2694,-7.1991,-1.2111,-0.0899,-0.1892,1.3619,rough,14.0,1,10.048
940,30.08,9.2861,-7.1142,-1.1895,-0.1182,-0.2632,1.3951,rough,14.0,1,10.074
950,30.40,9.3011,-7.0349,-1.1688,-0.1309,-0.3427,1.4222,rough,14.0,1,10.099
960,30.72,9.3239,-6.9509,-1.1425,-0.1030,-0.3801,1.4534,rough,14.0,1,10.133
970,31.04,9.3454,-6.8689,-1.1189,-0.0629,-0.4145,1.4777,rough,14.0,1,10.166
980,31.36,9.3604,-6.8073,-1.0927,-0.0242,-0.5101,1.4930,rough,14.0,1,10.190
990,31.68,9.3592,-6.7252,-1.0524,-0.0366,-0.5403,1.5574,rough,14.0,1,10.202
1000,32.00,9.3555,-6.6417,-1.0109,-0.0659,-0.5009,1.5519,rough,14.0,1,10.212
1010,32.32,9.3536,-6.5597,-0.9705,-0.0867,-0.4747,1.5503,rough,14.0,1,10.224
1020,32.64,9.3531,-6.4977,-0.9288,-0.0985,-0.5337,1.5589,rough,14.0,1,10.235
1030,32.96,9.3477,-6.4335,-0.8845,-0.1231,-0.6123,1.6082,rough,14.0,1,10.241
1040,33.28,9.3387,-6.3667,-0.8412,-0.1505,-0.6805,1.6761,rough,14.0,1,10.245
1050,33.60,9.3293,-6.3019,-0.7957,-0.1571,-0.7120,1.6895,rough,14.0,1,10.248
1060,33.92,9.3176,-6.2528,-0.7555,-0.1571,-0.6938,1.6921,rough,14.0,1,10.247
1070,34.24,9.3060,-6.2253,-0.7350,-0.1629,-0.6750,1.7090,rough,14.0,1,10.241
1080,34.56,9.2933,-6.2209,-0.7346,-0.1636,-0.6610,1.7289,rough,14.0,1,10.230
1090,34.88,9.2793,-6.2395,-0.7541,-0.1590,-0.6516,1.7515,rough,14.0,1,10.212
1100,35.20,9.2655,-6.2442,-0.7608,-0.1392,-0.6472,1.7515,rough,14.0,1,10.198
1110,35.52,9.2524,-6.2334,-0.7523,-0.1222,-0.6804,1.7902,rough,14.0,1,10.187
1120,35.84,9.2214,-6.2514,-0.7774,-0.1091,-0.6272,1.8006,rough,14.0,1,10.153
1130,36.16,9.2013,-6.2521,-0.7825,-0.0774,-0.6258,1.8002,rough,14.0,1,10.133
1140,36.48,9.1815,-6.2583,-0.7833,-0.0629,-0.6701,1.8280,rough,14.0,1,10.113
1150,36.80,9.1596,-6.2629,-0.7837,-0.0428,-0.7153,1.8558,rough,14.0,1,10.090
1160,37.12,9.1260,-6.2741,-0.7873,-0.0561,-0.7116,1.8772,rough,14.0,1,10.055
1170,37.44,9.0872,-6.2639,-0.7729,-0.0795,-0.7046,1.9079,rough,14.0,1,10.019
1180,37.76,9.0398,-6.2548,-0.7625,-0.0992,-0.6693,1.9401,rough,14.0,1,9.975
1190,38.08,8.9693,-6.1804,-0.7204,-0.1808,-0.5652,1.9670,rough,14.0,1,9.922
1200,38.40,8.8870,-6.0344,-0.6328,-0.2619,-0.4979,1.9809,rough,14.0,1,9.875
1210,38.72,8.8154,-5.8908,-0.5519,-0.2655,-0.5190,2.0260,rough,14.0,1,9.840
1220,39.04,8.6954,-5.6921,-0.4930,-0.4288,-0.3803,2.0249,slope,18.0,1,9.776
1230,39.36,8.5573,-5.4413,-0.4000,-0.4425,-0.3148,2.0355,slope,18.0,1,9.716
1240,39.68,8.4004,-5.1799,-0.2989,-0.4968,-0.3916,2.1272,slope,18.0,1,9.649
1250,40.00,8.2406,-4.9494,-0.1869,-0.5036,-0.4110,2.1746,rough,14.0,1,9.578
1260,40.32,8.0648,-4.7204,-0.0648,-0.5404,-0.4509,2.1995,rough,14.0,1,9.499
1270,40.64,7.8786,-4.5304,0.0286,-0.4998,-0.4340,2.1762,rough,14.0,1,9.403
1280,40.96,7.6686,-4.2773,0.1373,-0.5209,-0.3387,2.1514,rough,14.0,1,9.319
1290,41.28,7.3793,-3.9641,0.0893,-0.6873,-0.2495,1.8118,rough,14.0,1,9.205
1300,41.60,7.2777,-3.7843,0.0833,-0.5437,-0.1885,1.7304,rough,14.0,1,9.204
1310,41.92,7.1775,-3.7195,0.0414,-0.5868,0.0940,2.2619,rough,14.0,1,9.149
1320,42.24,7.0257,-3.7770,-0.0590,-0.5278,0.2364,2.9713,rough,14.0,1,8.989
1330,42.56,6.8045,-3.7908,-0.1108,-0.2248,0.2274,-2.9230,rough,14.0,1,8.793
1340,42.88,6.6212,-3.8720,-0.1286,-0.2112,-0.1577,-2.7652,rough,14.0,1,8.594
1350,43.20,6.3082,-4.0161,-0.0971,-0.1480,-0.0871,-2.6847,rough,14.0,1,8.252
1360,43.52,5.9179,-4.2603,-0.1508,-0.1942,0.3483,-2.5649,rough,14.0,1,7.791
1370,43.84,5.6046,-4.4851,-0.2894,-0.1339,0.3441,-2.4274,rough,14.0,1,7.407
1380,44.16,5.3734,-4.7578,-0.3855,-0.1918,0.2053,-2.2920,rough,14.0,1,7.068
1390,44.48,5.1518,-5.0541,-0.4203,-0.1990,0.0120,-2.1734,rough,14.0,1,6.728
1400,44.80,4.9119,-5.4238,-0.4284,-0.1921,0.0436,-2.1533,rough,14.0,1,6.341
1410,45.12,4.6123,-5.7816,-0.4834,0.0640,0.1925,-2.1835,rough,14.0,1,5.913
1420,45.44,4.4026,-6.0839,-0.5040,0.0030,-0.0840,-2.2639,rough,14.0,1,5.595
1430,45.76,4.2109,-6.3632,-0.4604,-0.1333,-0.3685,-2.3043,rough,14.0,1,5.310
1440,46.08,3.9989,-6.5795,-0.3232,-0.0378,-0.5145,-2.4022,rough,14.0,1,5.034
1450,46.40,3.7485,-6.7527,-0.1254,0.0933,-0.6136,-2.5554,rough,14.0,1,4.739
1460,46.72,3.4580,-6.8990,0.0793,0.2468,-0.6546,-2.6739,rough,14.0,1,4.416
1470,47.04,3.2026,-7.0143,0.2973,0.2460,-0.7528,-2.8138,rough,14.0,1,4.137
1480,47.36,2.8987,-7.0676,0.5516,0.3390,-0.7673,-2.8167,rough,14.0,1,3.833
1490,47.68,2.5675,-7.1029,0.7678,0.4227,-0.6743,-2.8137,rough,14.0,1,3.510
1500,48.00,2.2507,-7.1079,0.9198,0.5697,-0.6047,-2.8620,rough,14.0,1,3.214
1510,48.32,1.9505,-7.0389,0.9288,0.6001,-0.6176,-2.6693,rough,14.0,1,2.969
1520,48.64,1.8125,-6.9101,0.8560,0.3734,-0.8678,-2.3073,rough,14.0,1,2.908
1530,48.96,1.8138,-6.7445,0.6888,-0.1908,-0.7929,-1.6577,rough,14.0,1,2.994
1540,49.28,1.8439,-6.5205,0.4797,-0.3712,-0.7102,-1.4401,rough,14.0,1,3.145
1550,49.60,1.8844,-6.2827,0.2748,-0.4177,-0.6462,-1.3964,slope,18.0,1,3.321
1560,49.92,1.9946,-6.0527,0.0786,-0.6979,-0.5682,-1.0924,slope,18.0,1,3.552
1570,50.24,2.2020,-5.9069,-0.1388,-0.7399,-0.2854,-0.8319,slope,18.0,1,3.805
1580,50.56,2.5042,-5.8197,-0.3619,-0.7519,-0.2229,-0.8205,rough,14.0,1,4.094
1590,50.88,2.6970,-5.7069,-0.5334,-0.6734,-0.2297,-0.7370,rough,14.0,1,4.315
1600,51.20,2.8268,-5.6779,-0.5733,-0.4660,-0.4432,-0.9622,rough,14.0,1,4.436
1610,51.52,2.9513,-5.7715,-0.5136,-0.3339,-0.5406,-0.8392,rough,14.0,1,4.481
1620,51.84,3.1140,-5.9367,-0.3983,-0.2622,-0.6100,-1.0640,rough,14.0,1,4.525
1630,52.16,3.2511,-6.1146,-0.3003,-0.3014,-0.4692,-1.2355,rough,14.0,1,4.551
1640,52.48,3.3341,-6.3103,-0.1884,-0.3200,-0.6358,-1.2417,rough,14.0,1,4.532
1650,52.80,3.4347,-6.5847,-0.0782,-0.3835,-0.4439,-1.4159,rough,14.0,1,4.508
1660,53.12,3.4858,-6.8525,0.0326,-0.4415,-0.4804,-1.4436,rough,14.0,1,4.458
1670,53.44,3.5243,-7.1103,0.1582,-0.3608,-0.5363,-1.5929,rough,14.0,1,4.415
1680,53.76,3.5255,-7.2902,0.2657,-0.2864,-0.6138,-1.7064,rough,14.0,1,4.369
1690,54.08,3.5075,-7.4246,0.3626,-0.3011,-0.6326,-1.6876,rough,14.0,1,4.320
1700,54.40,3.4954,-7.5588,0.4533,-0.3503,-0.5863,-1.6248,rough,14.0,1,4.281
1710,54.72,3.4997,-7.7670,0.5950,-0.1715,-0.7176,-1.8608,rough,14.0,1,4.252
1720,55.04,3.4514,-7.9667,0.7776,-0.2370,-0.7491,-1.7388,rough,14.0,1,4.181
1730,55.36,3.4528,-8.1518,0.9131,-0.4064,-0.6649,-1.5552,rough,14.0,1,4.169
1740,55.68,3.4873,-8.3283,1.0207,-0.5204,-0.6625,-1.4596,rough,14.0,1,4.199
1750,56.00,3.5630,-8.4229,1.0531,-0.4859,-0.6841,-1.4694,rough,14.0,1,4.275
1760,56.32,3.7051,-8.4297,0.9518,-0.5083,-0.7209,-1.5764,rough,14.0,1,4.418
1770,56.64,3.8111,-8.4827,0.9282,-0.2254,-0.8090,-2.0232,rough,14.0,1,4.525
1780,56.96,3.8121,-8.5652,0.9652,0.0664,-0.7850,-2.5913,rough,14.0,1,4.529
1790,57.28,3.7527,-8.5847,1.0151,0.2065,-0.7810,-2.9030,rough,14.0,1,4.470
1800,57.60,3.7326,-8.5501,1.0099,0.3404,-0.7814,-3.0859,rough,14.0,1,4.449
1810,57.92,3.7269,-8.4255,0.9278,0.2313,-0.8023,-2.7659,rough,14.0,1,4.439
1820,58.24,3.6973,-8.3458,0.8905,-0.2038,-0.7306,-2.0297,rough,14.0,1,4.409
1830,58.56,3.7050,-8.3795,0.9162,-0.3442,-0.7452,-1.8135,rough,14.0,1,4.417
1840,58.88,3.7045,-8.5165,1.0044,-0.3204,-0.8005,-1.9674,rough,14.0,1,4.419
1850,59.20,3.7150,-8.6063,1.0447,-0.2498,-0.8161,-2.2367,rough,14.0,1,4.434
1860,59.52,3.7057,-8.6256,1.0688,-0.2169,-0.8096,-2.2687,rough,14.0,1,4.426
1870,59.84,3.7107,-8.6233,1.0634,-0.2139,-0.8097,-2.2750,rough,14.0,1,4.431
1880,60.16,3.7093,-8.6135,1.0576,-0.1938,-0.8092,-2.2949,rough,14.0,1,4.429
1890,60.48,3.7061,-8.6133,1.0597,-0.1903,-0.8087,-2.2976,rough,14.0,1,4.426
1900,60.80,3.7076,-8.6132,1.0582,-0.1976,-0.8062,-2.2866,rough,14.0,1,4.427
1910,61.12,3.7057,-8.6077,1.0561,-0.1858,-0.8084,-2.2981,rough,14.0,1,4.425
1920,61.44,3.7082,-8.6090,1.0548,-0.1844,-0.8071,-2.3036,rough,14.0,1,4.427
1930,61.76,3.7059,-8.5986,1.0486,-0.1767,-0.8059,-2.3057,rough,14.0,1,4.424
1940,62.08,3.7082,-8.6024,1.0501,-0.1632,-0.8071,-2.3300,rough,14.0,1,4.427
1950,62.40,3.7068,-8.5930,1.0442,-0.1371,-0.8056,-2.3600,rough,14.0,1,4.425
1960,62.72,3.7039,-8.5857,1.0412,-0.1474,-0.8037,-2.3332,rough,14.0,2,8.390
1970,63.04,3.7053,-8.5904,1.0429,-0.1500,-0.8020,-2.3352,rough,14.0,2,8.394
1980,63.36,3.7022,-8.5921,1.0470,-0.1437,-0.8044,-2.3442,rough,14.0,2,8.392
1990,63.68,3.7056,-8.5891,1.0422,-0.1510,-0.8034,-2.3331,rough,14.0,2,8.394
2000,64.00,3.7018,-8.5852,1.0426,-0.1324,-0.8049,-2.3547,rough,14.0,2,8.388
2010,64.32,3.7035,-8.5902,1.0448,-0.1422,-0.8048,-2.3457,rough,14.0,2,8.393
2020,64.64,3.7030,-8.5943,1.0478,-0.1498,-0.8040,-2.3376,rough,14.0,2,8.394
2030,64.96,3.7038,-8.5882,1.0429,-0.1381,-0.8038,-2.3504,rough,14.0,2,8.392
2040,65.28,3.7029,-8.5813,1.0390,-0.1293,-0.8045,-2.3565,rough,14.0,2,8.387
2050,65.60,3.7013,-8.5841,1.0421,-0.1317,-0.8040,-2.3537,rough,14.0,2,8.387
2060,65.92,3.7057,-8.5928,1.0447,-0.1408,-0.8049,-2.3536,rough,14.0,2,8.396
2070,66.24,3.6995,-8.5969,1.0526,-0.1468,-0.8059,-2.3426,rough,14.0,2,8.393
2080,66.56,3.7086,-8.5970,1.0455,-0.1518,-0.8059,-2.3437,rough,14.0,2,8.401
2090,66.88,3.7066,-8.5915,1.0431,-0.1440,-0.8046,-2.3476,rough,14.0,2,8.396
2100,67.20,3.7030,-8.5842,1.0409,-0.1306,-0.8044,-2.3579,rough,14.0,2,8.389
2110,67.52,3.7007,-8.5843,1.0427,-0.1323,-0.8039,-2.3520,rough,14.0,2,8.387
2120,67.84,3.7005,-8.5907,1.0474,-0.1363,-0.8048,-2.3530,rough,14.0,2,8.390
2130,68.16,3.7053,-8.5901,1.0429,-0.1471,-0.8032,-2.3397,rough,14.0,2,8.394
2140,68.48,3.7005,-8.5834,1.0426,-0.1211,-0.8064,-2.3693,rough,14.0,2,8.386
2150,68.80,3.7058,-8.5888,1.0416,-0.1330,-0.8040,-2.3618,rough,14.0,2,8.394
2160,69.12,3.6940,-8.5898,1.0518,-0.1253,-0.8056,-2.3628,rough,14.0,2,8.384
2170,69.44,3.6822,-8.5954,1.0655,-0.1166,-0.8075,-2.3696,rough,14.0,2,8.378
2180,69.76,3.6842,-8.5940,1.0624,-0.1328,-0.8036,-2.3439,rough,14.0,2,8.379
2190,70.08,3.7017,-8.5830,1.0411,-0.1307,-0.8044,-2.3546,rough,14.0,2,8.387
2200,70.40,3.7016,-8.5820,1.0405,-0.1289,-0.8045,-2.3561,rough,14.0,2,8.386
2210,70.72,3.7033,-8.5898,1.0442,-0.1465,-0.8024,-2.3381,rough,14.0,2,8.392
2220,71.04,3.7023,-8.5889,1.0444,-0.1386,-0.8029,-2.3485,rough,14.0,2,8.391
2230,71.36,3.7038,-8.5869,1.0424,-0.1450,-0.8045,-2.3377,rough,14.0,2,8.391
2240,71.68,3.7018,-8.5932,1.0478,-0.1512,-0.8027,-2.3326,rough,14.0,2,8.393
2250,72.00,3.7037,-8.5894,1.0436,-0.1434,-0.8036,-2.3444,rough,14.0,2,8.392
2260,72.32,3.6978,-8.5869,1.0469,-0.1313,-0.8045,-2.3536,rough,14.0,2,8.386
2270,72.64,3.7063,-8.5926,1.0443,-0.1455,-0.8055,-2.3466,rough,14.0,2,8.396
2280,72.96,3.7040,-8.5927,1.0459,-0.1403,-0.8043,-2.3526,rough,14.0,2,8.394
2290,73.28,3.6966,-8.5951,1.0536,-0.1445,-0.8048,-2.3398,rough,14.0,2,8.390
2300,73.60,3.7050,-8.5924,1.0444,-0.1278,-0.8028,-2.3734,rough,14.0,2,8.395
2310,73.92,3.7027,-8.5885,1.0444,-0.1253,-0.8070,-2.3704,rough,14.0,2,8.391
2320,74.24,3.7064,-8.5896,1.0416,-0.1324,-0.8036,-2.3646,rough,14.0,3,8.395
2330,74.56,3.7003,-8.5770,1.0381,-0.1253,-0.8042,-2.3555,rough,14.0,3,15.342
2340,74.88,3.7024,-8.5648,1.0282,-0.1209,-0.8037,-2.3504,rough,14.0,3,15.331
2350,75.20,3.6974,-8.5550,1.0256,-0.1071,-0.8048,-2.3564,rough,14.0,3,15.320
2360,75.52,3.7013,-8.5561,1.0232,-0.1242,-0.8033,-2.3341,rough,14.0,3,15.322
2370,75.84,3.7004,-8.5668,1.0313,-0.1411,-0.8030,-2.3178,rough,14.0,3,15.332
2380,76.16,3.7027,-8.5888,1.0449,-0.1213,-0.8081,-2.3771,rough,14.0,3,15.354
2390,76.48,3.6946,-8.5937,1.0545,-0.1253,-0.8074,-2.3669,rough,14.0,3,15.356
2400,76.80,3.7000,-8.5931,1.0485,-0.1584,-0.7989,-2.3186,rough,14.0,3,15.357
2410,77.12,3.7043,-8.5929,1.0454,-0.1409,-0.8027,-2.3521,rough,14.0,3,15.358
2420,77.44,3.7053,-8.5907,1.0440,-0.1332,-0.8071,-2.3632,rough,14.0,3,15.356
2430,77.76,3.7020,-8.5846,1.0423,-0.1213,-0.8066,-2.3721,rough,14.0,3,15.350
2440,78.08,3.7019,-8.5872,1.0442,-0.1230,-0.8070,-2.3722,rough,14.0,3,15.352
2450,78.40,3.7039,-8.5899,1.0444,-0.1229,-0.8069,-2.3771,rough,14.0,3,15.355
2460,78.72,3.7001,-8.5869,1.0451,-0.1280,-0.8054,-2.3612,rough,14.0,3,15.351
2470,79.04,3.7022,-8.5904,1.0462,-0.1320,-0.8064,-2.3611,rough,14.0,3,15.355
2480,79.36,3.7025,-8.5903,1.0453,-0.1406,-0.8031,-2.3475,rough,14.0,3,15.355
2490,79.68,3.7054,-8.5903,1.0432,-0.1331,-0.8049,-2.3627,rough,14.0,3,15.356
2500,80.00,3.7061,-8.5945,1.0454,-0.1543,-0.8038,-2.3340,rough,14.0,3,15.360
2510,80.32,3.7008,-8.5936,1.0492,-0.1498,-0.8054,-2.3358,rough,14.0,3,15.358
2520,80.64,3.7033,-8.6000,1.0519,-0.1626,-0.8057,-2.3237,rough,14.0,3,15.365
2530,80.96,3.7077,-8.5814,1.0355,-0.1527,-0.8041,-2.3248,rough,14.0,3,15.348
2540,81.28,3.6992,-8.5592,1.0266,-0.1158,-0.8022,-2.3489,rough,14.0,3,15.325
2550,81.60,3.7019,-8.5446,1.0150,-0.1024,-0.8044,-2.3572,rough,14.0,3,15.311
2560,81.92,3.7000,-8.5391,1.0126,-0.0982,-0.8037,-2.3557,rough,14.0,3,15.306
2570,82.24,3.6975,-8.5385,1.0142,-0.0976,-0.8041,-2.3531,rough,14.0,3,15.304
2580,82.56,3.6908,-8.5363,1.0181,-0.0890,-0.8047,-2.3569,rough,14.0,3,15.300
2590,82.88,3.6902,-8.5365,1.0186,-0.0901,-0.8043,-2.3546,rough,14.0,3,15.300
2600,83.20,3.6957,-8.5389,1.0159,-0.0961,-0.8042,-2.3538,rough,14.0,3,15.304
2610,83.52,3.7003,-8.5420,1.0144,-0.1107,-0.8032,-2.3388,rough,14.0,3,15.308
2620,83.84,3.6978,-8.5519,1.0230,-0.1068,-0.8039,-2.3534,rough,14.0,3,15.317
2630,84.16,3.7039,-8.5665,1.0287,-0.1270,-0.8057,-2.3442,rough,14.0,3,15.333
2640,84.48,3.6975,-8.5707,1.0365,-0.1117,-0.8064,-2.3670,rough,14.0,3,15.335
2650,84.80,3.7022,-8.5714,1.0331,-0.1182,-0.8054,-2.3618,rough,14.0,3,15.337
2660,85.12,3.7003,-8.5689,1.0328,-0.1228,-0.8047,-2.3501,rough,14.0,3,15.334
2670,85.44,3.7036,-8.5653,1.0273,-0.1256,-0.8026,-2.3446,rough,14.0,3,15.332
2680,85.76,3.6986,-8.5647,1.0313,-0.1136,-0.8050,-2.3581,rough,14.0,3,15.330
2690,86.08,3.7057,-8.5843,1.0387,-0.1367,-0.8036,-2.3504,rough,14.0,0,5.205
2700,86.40,3.6994,-8.5996,1.0549,-0.1464,-0.8077,-2.3450,rough,14.0,0,5.221
2710,86.72,3.7076,-8.5970,1.0465,-0.1542,-0.8061,-2.3384,rough,14.0,0,5.217
2720,87.04,3.7060,-8.5810,1.0366,-0.1405,-0.8051,-2.3415,rough,14.0,0,5.201
2730,87.36,3.6994,-8.5496,1.0206,-0.1119,-0.8053,-2.3449,rough,14.0,0,5.171
2740,87.68,3.7003,-8.5284,1.0049,-0.0915,-0.8036,-2.3556,rough,14.0,0,5.150
2750,88.00,3.6984,-8.5223,1.0020,-0.0822,-0.8028,-2.3611,rough,14.0,0,5.144
2760,88.32,3.6903,-8.5220,1.0087,-0.0776,-0.8048,-2.3588,rough,14.0,0,5.144
2770,88.64,3.6921,-8.5310,1.0137,-0.0930,-0.8057,-2.3461,rough,14.0,0,5.153
2780,88.96,3.7023,-8.5491,1.0171,-0.0878,-0.8027,-2.3869,rough,14.0,0,5.170
2790,89.28,3.7050,-8.5760,1.0342,-0.1171,-0.8068,-2.3726,rough,14.0,0,5.197
2800,89.60,3.6895,-8.5982,1.0610,-0.1327,-0.8041,-2.3547,rough,14.0,0,5.220
2810,89.92,3.6875,-8.6107,1.0716,-0.1751,-0.8033,-2.2977,rough,14.0,0,5.233
