step,time_s,x,y,z,roll,pitch,yaw,terrain,speed,target_idx,dist_to_target
10,0.32,2.1823,0.5010,0.1857,0.0000,-0.0395,0.0000,rough,14.0,0,6.242
20,0.64,2.6131,0.5076,0.1799,0.0001,0.0001,0.0451,rough,14.0,0,5.824
30,0.96,3.0518,0.5303,0.1799,0.0001,0.0000,0.0939,rough,14.0,0,5.396
40,1.28,3.4896,0.5742,0.1799,0.0001,0.0000,0.1356,rough,14.0,0,4.964
50,1.60,3.9258,0.6361,0.1799,0.0001,-0.0000,0.1722,rough,14.0,0,4.529
60,1.92,4.3599,0.7139,0.1799,0.0001,-0.0000,0.2051,rough,14.0,0,4.092
70,2.24,4.7911,0.8060,0.1799,0.0001,-0.0000,0.2338,rough,14.0,0,3.655
80,2.56,5.2193,0.9103,0.1799,0.0001,-0.0000,0.2604,rough,14.0,0,3.217
90,2.88,5.6447,1.0260,0.1799,0.0001,-0.0000,0.2863,rough,14.0,0,2.778
100,3.20,6.0667,1.1527,0.1799,0.0001,0.0000,0.3123,rough,14.0,0,2.339
110,3.52,6.4847,1.2904,0.1799,0.0001,0.0000,0.3395,rough,14.0,0,1.900
120,3.84,6.8866,1.4339,0.1910,0.0040,-0.0715,0.3665,rough,14.0,0,1.475
130,4.16,7.2394,1.5719,0.2559,0.0064,-0.2837,0.3889,rough,14.0,0,1.096
140,4.48,7.5135,1.6975,0.3837,-0.0222,-0.5538,0.3697,rough,14.0,1,0.795
150,4.80,7.6670,1.7552,0.4830,-0.2064,-0.5291,0.7237,rough,14.0,1,5.084
160,5.12,7.8152,1.8539,0.5775,-0.2786,-0.4656,1.0172,rough,14.0,1,5.101
170,5.44,7.9314,2.0018,0.6529,-0.2681,-0.3532,1.2092,rough,14.0,1,5.066
180,5.76,8.0208,2.1836,0.7181,-0.2486,-0.2917,1.3447,rough,14.0,1,4.996
190,6.08,8.0761,2.3730,0.7746,-0.2470,-0.3020,1.4526,rough,14.0,1,4.902
200,6.40,8.1079,2.5680,0.8310,-0.2331,-0.3003,1.5224,rough,14.0,1,4.794
210,6.72,8.0935,2.7787,0.8824,-0.2155,-0.2987,1.6959,rough,14.0,1,4.646
220,7.04,7.9904,3.0530,0.9512,-0.2620,-0.2583,1.9638,rough,14.0,1,4.393
230,7.36,7.8477,3.2849,1.0206,-0.3340,-0.2815,2.1259,rough,14.0,1,4.140
240,7.68,7.6495,3.5182,1.0832,-0.3856,-0.2178,2.2675,rough,14.0,1,3.842
250,8.00,7.4040,3.7289,1.1300,-0.4272,-0.1510,2.4412,rough,14.0,1,3.520
260,8.32,7.0754,3.9136,1.1216,-0.5146,0.0381,2.5569,rough,14.0,1,3.145
270,8.64,6.7030,4.0723,1.0800,-0.6080,0.1830,2.6646,rough,14.0,1,2.752
280,8.96,6.3215,4.2128,1.0076,-0.6579,0.0593,2.6676,rough,14.0,1,2.366
290,9.28,6.1980,4.2351,0.9746,-0.5852,0.1054,2.7800,rough,14.0,1,2.259
300,9.60,6.1172,4.0757,0.8906,-0.7067,-0.3996,2.5930,rough,14.0,1,2.312
310,9.92,5.8807,3.8859,0.6035,-0.6387,-0.3051,2.1295,rough,14.0,1,2.306
320,10.24,5.6772,3.7854,0.4563,-0.6611,-0.1521,2.2385,rough,14.0,1,2.278
330,10.56,5.4449,3.7895,0.3449,-0.7202,0.0907,2.6190,rough,14.0,1,2.166
340,10.88,5.1255,3.8808,0.3376,-0.6652,-0.2477,2.7552,rough,14.0,1,1.963
350,11.20,4.7969,3.9911,0.3320,-0.5449,-0.2109,2.5272,rough,14.0,1,1.778
360,11.52,4.4814,4.1502,0.3112,-0.4571,0.1088,2.3522,rough,14.0,1,1.598
370,11.84,4.2393,4.2800,0.2995,-0.4288,-0.1881,2.1482,rough,14.0,1,1.495
380,12.16,4.0744,4.4764,0.3557,-0.4596,-0.3881,2.1319,rough,14.0,1,1.348
390,12.48,3.8693,4.7414,0.4243,-0.5708,-0.2554,1.9466,rough,14.0,1,1.199
400,12.80,3.7550,4.9252,0.4934,-0.4998,-0.5190,1.9970,rough,14.0,1,1.124
410,13.12,3.6319,5.0766,0.5526,-0.4512,-0.4964,1.9159,rough,14.0,1,1.114
420,13.44,3.5469,5.2562,0.6554,-0.4277,-0.5788,1.8495,rough,14.0,1,1.091
430,13.76,3.4547,5.3904,0.7313,-0.4682,-0.5996,1.9133,rough,14.0,1,1.124
440,14.08,3.3280,5.4506,0.7436,-0.5643,-0.5196,2.1276,rough,14.0,1,1.229
450,14.40,3.1458,5.4758,0.7079,-0.5871,-0.4326,2.2484,rough,14.0,1,1.402
460,14.72,2.9986,5.5033,0.6918,-0.4878,-0.5204,2.0847,rough,14.0,1,1.542
470,15.04,2.9056,5.5355,0.6904,-0.4390,-0.5721,1.9595,rough,14.0,1,1.629
480,15.36,2.7783,5.5735,0.6852,-0.4777,-0.5030,2.0649,rough,14.0,1,1.751
490,15.68,2.6985,5.6240,0.7125,-0.3507,-0.5741,1.8882,rough,14.0,1,1.826
500,16.00,2.6455,5.7169,0.7642,-0.3029,-0.6177,1.7717,rough,14.0,1,1.875
510,16.32,2.6110,5.8450,0.8462,-0.2915,-0.6547,1.6968,rough,14.0,1,1.912
520,16.64,2.5924,5.9639,0.9367,-0.2534,-0.6662,1.6344,rough,14.0,1,1.940
530,16.96,2.5814,6.0757,1.0183,-0.2564,-0.6698,1.6082,rough,14.0,1,1.967
540,17.28,2.5740,6.1777,1.0910,-0.2654,-0.6572,1.5972,rough,14.0,1,1.993
550,17.60,2.5677,6.2873,1.1681,-0.2815,-0.6389,1.5830,rough,14.0,1,2.026
560,17.92,2.5623,6.3813,1.2336,-0.2882,-0.6260,1.5779,rough,14.0,1,2.058
570,18.24,2.5594,6.4733,1.3005,-0.2960,-0.6265,1.5888,rough,14.0,1,2.091
580,18.56,2.5540,6.5664,1.3665,-0.3095,-0.6208,1.6126,rough,14.0,1,2.130
590,18.88,2.5429,6.6547,1.4252,-0.3052,-0.6137,1.6050,rough,14.0,1,2.176
600,19.20,2.5394,6.7610,1.4943,-0.2847,-0.5840,1.5698,rough,14.0,1,2.225
610,19.52,2.5375,6.8565,1.5590,-0.2882,-0.5756,1.5592,rough,14.0,1,2.272
620,19.84,2.5382,6.9500,1.6198,-0.2782,-0.5964,1.5354,rough,14.0,1,2.318
630,20.16,2.5514,7.0489,1.6867,-0.2442,-0.6056,1.4948,rough,14.0,1,2.360
640,20.48,2.5722,7.1451,1.7429,-0.1766,-0.5609,1.4038,rough,14.0,1,2.398
650,20.80,2.5955,7.2425,1.8026,-0.1562,-0.5164,1.3912,rough,14.0,1,2.437
660,21.12,2.6190,7.3148,1.8456,-0.1934,-0.4612,1.4815,rough,14.0,1,2.464
670,21.44,2.6311,7.4082,1.8973,-0.1961,-0.4503,1.4446,rough,14.0,1,2.515
680,21.76,2.6672,7.5187,1.9583,-0.1292,-0.4955,1.3046,rough,14.0,1,2.563
690,22.08,2.7546,7.6505,2.0254,-0.0078,-0.4330,1.0926,rough,14.0,1,2.596
700,22.40,2.8461,7.8100,2.1028,0.0856,-0.3761,0.8368,rough,14.0,1,2.656
710,22.72,2.9741,7.9748,2.1771,0.1179,-0.3103,0.5851,rough,14.0,1,2.711
720,23.04,3.1504,8.0990,2.2470,0.1653,-0.2938,0.3826,rough,14.0,1,2.721
730,23.36,3.3573,8.1886,2.3179,0.2019,-0.3014,0.2314,rough,14.0,1,2.704
740,23.68,3.6316,8.2028,2.3912,0.2571,-0.2533,-0.0089,rough,14.0,1,2.611
750,24.00,3.9424,8.1230,2.4537,0.3262,-0.2164,-0.2500,rough,14.0,1,2.444
760,24.32,4.2557,7.9945,2.5034,0.3774,-0.1293,-0.4058,rough,14.0,1,2.262
770,24.64,4.5463,7.8306,2.5279,0.4039,-0.0549,-0.5086,rough,14.0,1,2.083
780,24.96,4.8323,7.6197,2.5127,0.4290,0.1071,-0.6053,rough,14.0,1,1.897
790,25.28,5.0905,7.3743,2.4523,0.4128,0.1924,-0.7798,rough,14.0,1,1.723
800,25.60,5.3162,7.0791,2.3571,0.3786,0.2669,-0.9598,rough,14.0,1,1.551
810,25.92,5.4611,6.7644,2.2456,0.3407,0.3343,-1.1772,rough,14.0,1,1.385
820,26.24,5.5427,6.3952,2.1014,0.3205,0.3557,-1.3280,rough,14.0,1,1.210
830,26.56,5.5606,6.0012,1.9159,0.3589,0.4694,-1.4120,rough,14.0,1,1.070
840,26.88,5.5789,5.5978,1.6943,0.3851,0.5175,-1.3791,rough,14.0,1,1.069
850,27.20,5.6066,5.1851,1.4338,0.5172,0.4476,-1.1073,rough,14.0,1,1.223
860,27.52,5.6620,4.7808,1.1575,0.5202,0.4998,-1.2025,rough,14.0,1,1.496
870,27.84,5.6021,4.6700,1.0607,0.6051,0.3417,-0.9013,rough,14.0,1,1.527
880,28.16,5.4954,4.5795,0.9516,0.7097,0.0541,-0.5476,rough,14.0,1,1.522
890,28.48,5.4076,4.4269,0.8169,0.7038,-0.2840,-0.2449,rough,14.0,1,1.591
900,28.80,5.4754,4.1965,0.6516,0.5630,-0.4770,0.1435,rough,14.0,1,1.822
910,29.12,5.6332,3.9665,0.5500,0.2085,-0.6792,0.6807,rough,14.0,1,2.100
920,29.44,5.7421,3.8948,0.5478,0.1617,-0.6887,0.7182,rough,14.0,1,2.220
930,29.76,5.8038,3.8301,0.5444,-0.1637,-0.7168,1.1794,rough,14.0,1,2.308
940,30.08,5.8220,3.7853,0.5217,-0.3610,-0.6198,1.5051,rough,14.0,1,2.355
950,30.40,5.8339,3.8947,0.5946,-0.3914,-0.6123,1.5815,rough,14.0,1,2.271
960,30.72,5.8317,3.9875,0.6553,-0.3928,-0.6049,1.6226,rough,14.0,1,2.195
970,31.04,5.8109,3.9921,0.6495,-0.4184,-0.5959,1.6756,rough,14.0,1,2.179
980,31.36,5.7734,3.9818,0.6234,-0.4340,-0.5790,1.7072,rough,14.0,1,2.165
990,31.68,5.7253,3.9571,0.5850,-0.4565,-0.5712,1.7495,rough,14.0,1,2.158
1000,32.00,5.6629,3.9702,0.5670,-0.4656,-0.5761,1.7689,rough,14.0,1,2.113
1010,32.32,5.6011,4.0290,0.5849,-0.4565,-0.5993,1.7456,rough,14.0,1,2.030
1020,32.64,5.5492,4.0616,0.5828,-0.4382,-0.5852,1.7257,rough,14.0,1,1.975
1030,32.96,5.5022,4.1045,0.5970,-0.4200,-0.6085,1.7127,rough,14.0,1,1.914
1040,33.28,5.4600,4.1854,0.6400,-0.4032,-0.6217,1.7088,rough,14.0,1,1.823
1050,33.60,5.4122,4.2976,0.7040,-0.4048,-0.6307,1.7229,rough,14.0,1,1.702
1060,33.92,5.3654,4.4219,0.7822,-0.3827,-0.6292,1.7032,rough,14.0,1,1.572
1070,34.24,5.3298,4.5649,0.8774,-0.3529,-0.6347,1.6783,rough,14.0,1,1.433
1080,34.56,5.2899,4.7270,0.9851,-0.3601,-0.6112,1.6922,rough,14.0,1,1.278
1090,34.88,5.2431,4.9191,1.1084,-0.3735,-0.5903,1.6969,rough,14.0,1,1.100
1100,35.20,5.1912,5.1541,1.2584,-0.4008,-0.5671,1.7310,rough,14.0,1,0.896
1110,35.52,5.1346,5.3772,1.3828,-0.4940,-0.4967,1.8570,rough,14.0,2,12.715
1120,35.84,5.0368,5.5017,1.4349,-0.5017,-0.4770,1.8999,rough,14.0,2,12.653
1130,36.16,4.9374,5.6125,1.4668,-0.4832,-0.4721,1.8884,rough,14.0,2,12.586
1140,36.48,4.8397,5.7112,1.4926,-0.4545,-0.4919,1.8533,rough,14.0,2,12.520
1150,36.80,4.7638,5.7880,1.5155,-0.4213,-0.5344,1.7578,rough,14.0,2,12.469
1160,37.12,4.7405,5.8502,1.5473,-0.3381,-0.5589,1.6199,rough,14.0,2,12.465
1170,37.44,4.7289,5.8981,1.5722,-0.3289,-0.5597,1.6101,rough,14.0,2,12.468
1180,37.76,4.7254,5.9628,1.6160,-0.3190,-0.5892,1.6086,rough,14.0,2,12.485
1190,38.08,4.7237,6.0365,1.6640,-0.3070,-0.6079,1.6054,rough,14.0,2,12.506
1200,38.40,4.7196,6.1065,1.7079,-0.3036,-0.6108,1.5976,rough,14.0,2,12.523
1210,38.72,4.7211,6.1861,1.7579,-0.2786,-0.5871,1.5805,rough,14.0,2,12.550
1220,39.04,4.7238,6.2676,1.8084,-0.2565,-0.5577,1.5681,rough,14.0,2,12.579
1230,39.36,4.7239,6.3465,1.8565,-0.2562,-0.5467,1.5642,rough,14.0,2,12.605
1240,39.68,4.7269,6.4194,1.9015,-0.2327,-0.5476,1.5587,rough,14.0,2,12.632
1250,40.00,4.7342,6.5013,1.9506,-0.2286,-0.5564,1.5895,rough,14.0,2,12.667
1260,40.32,4.7335,6.5736,1.9933,-0.2141,-0.5743,1.5829,rough,14.0,2,12.691
1270,40.64,4.7240,6.6363,2.0254,-0.2489,-0.5731,1.6024,rough,14.0,2,12.704
1280,40.96,4.7270,6.7127,2.0683,-0.2032,-0.5253,1.5778,rough,14.0,2,12.734
1290,41.28,4.7296,6.7927,2.1106,-0.1803,-0.4825,1.5635,rough,14.0,2,12.765
1300,41.60,4.7332,6.8658,2.1501,-0.1600,-0.4483,1.5520,rough,14.0,2,12.795
1310,41.92,4.7357,6.9348,2.1837,-0.1626,-0.4464,1.5492,rough,14.0,2,12.823
1320,42.24,4.7379,7.0106,2.2218,-0.1729,-0.4489,1.5663,rough,14.0,2,12.853
1330,42.56,4.7385,7.0834,2.2572,-0.1758,-0.4546,1.5726,rough,14.0,2,12.881
1340,42.88,4.7377,7.1548,2.2894,-0.1777,-0.4481,1.5759,rough,14.0,2,12.908
1350,43.20,4.7384,7.2288,2.3231,-0.1704,-0.4374,1.5722,rough,14.0,2,12.937
1360,43.52,4.7393,7.3029,2.3566,-0.1642,-0.4241,1.5692,rough,14.0,2,12.967
1370,43.84,4.7415,7.3729,2.3893,-0.1555,-0.4175,1.5598,rough,14.0,2,12.997
1380,44.16,4.7460,7.4369,2.4182,-0.1467,-0.4162,1.5353,rough,14.0,2,13.027
1390,44.48,4.7555,7.4904,2.4429,-0.1294,-0.4201,1.4861,rough,14.0,2,13.057
1400,44.80,4.7652,7.5452,2.4680,-0.1188,-0.4215,1.4552,rough,14.0,2,13.089
1410,45.12,4.7718,7.6091,2.4965,-0.1220,-0.4192,1.4596,rough,14.0,2,13.121
1420,45.44,4.7769,7.6760,2.5260,-0.1282,-0.4172,1.4732,rough,14.0,2,13.154
1430,45.76,4.7769,7.7504,2.5509,-0.1665,-0.3891,1.5132,rough,14.0,2,13.185
1440,46.08,4.7757,7.8285,2.5810,-0.1758,-0.3678,1.5445,rough,14.0,2,13.217
1450,46.40,4.7856,7.8806,2.6015,-0.1614,-0.3666,1.4819,rough,14.0,2,13.248
1460,46.72,4.7981,7.9274,2.6201,-0.1496,-0.3643,1.4225,rough,14.0,2,13.280
1470,47.04,4.8035,7.9927,2.6428,-0.1651,-0.3506,1.4416,rough,14.0,2,13.313
1480,47.36,4.7998,8.0762,2.6696,-0.1948,-0.3322,1.5159,rough,14.0,2,13.347
1490,47.68,4.7990,8.1485,2.6932,-0.2050,-0.3238,1.5350,rough,14.0,2,13.378
1500,48.00,4.8050,8.2080,2.7120,-0.1996,-0.3138,1.5179,rough,14.0,2,13.410
1510,48.32,4.8023,8.2849,2.7352,-0.2110,-0.2974,1.5548,rough,14.0,2,13.442
1520,48.64,4.7990,8.3635,2.7533,-0.2195,-0.2546,1.5716,rough,14.0,2,13.475
1530,48.96,4.7849,8.4491,2.7757,-0.2515,-0.2255,1.6228,rough,14.0,2,13.502
1540,49.28,4.7461,8.5634,2.7922,-0.2902,-0.1861,1.7487,rough,14.0,2,13.522
1550,49.60,4.6089,8.7582,2.8034,-0.3338,-0.0895,2.0887,rough,14.0,2,13.495
1560,49.92,4.3933,8.9563,2.7921,-0.3191,0.0225,2.4047,rough,14.0,2,13.406
1570,50.24,4.1867,9.0414,2.7649,-0.3143,0.1174,2.7018,rough,14.0,2,13.273
1580,50.56,3.9134,9.0768,2.7188,-0.3153,0.1710,2.9720,rough,14.0,2,13.058
1590,50.88,3.5901,9.0460,2.6401,-0.2892,0.2484,-3.0563,rough,14.0,2,12.768
1600,51.20,3.2271,8.9618,2.5347,-0.2563,0.2882,-2.8832,rough,14.0,2,12.418
1610,51.52,2.8264,8.8605,2.4132,-0.2435,0.2790,-2.8687,rough,14.0,2,12.028
1620,51.84,2.4266,8.7358,2.3039,-0.1941,0.2579,-2.8162,rough,14.0,2,11.627
1630,52.16,2.0328,8.5930,2.2020,-0.1314,0.2039,-2.7639,rough,14.0,2,11.221
1640,52.48,1.6276,8.4183,2.1067,-0.1441,0.2529,-2.7465,rough,14.0,2,10.789
1650,52.80,1.2307,8.2337,1.9914,-0.2148,0.2895,-2.7360,rough,14.0,2,10.359
1660,53.12,0.8378,8.0488,1.8376,-0.2357,0.3746,-2.7135,rough,14.0,2,9.933
1670,53.44,0.4562,7.8641,1.6625,-0.2650,0.4423,-2.7125,rough,14.0,2,9.516
1680,53.76,0.0981,7.6855,1.4872,-0.2974,0.3940,-2.6850,rough,14.0,2,9.123
1690,54.08,-0.2642,7.4881,1.3230,-0.3128,0.3737,-2.6562,rough,14.0,2,8.715
1700,54.40,-0.6218,7.2767,1.1752,-0.3050,0.3115,-2.6262,rough,14.0,2,8.303
1710,54.72,-0.9880,7.0632,1.0407,-0.3123,0.3079,-2.6135,rough,14.0,2,7.883
1720,55.04,-1.3542,6.8426,0.9020,-0.3047,0.3188,-2.6027,rough,14.0,2,7.459
1730,55.36,-1.7157,6.6197,0.7594,-0.2990,0.3247,-2.5897,rough,14.0,2,7.038
1740,55.68,-2.0696,6.3961,0.6348,-0.2814,0.2666,-2.5666,rough,14.0,2,6.622
1750,56.00,-2.4221,6.1672,0.5359,-0.2450,0.1914,-2.5410,rough,14.0,2,6.205
1760,56.32,-2.7760,5.9274,0.4720,-0.2029,0.1164,-2.5198,rough,14.0,2,5.780
1770,56.64,-3.1408,5.6709,0.4151,-0.1677,0.1280,-2.5156,rough,14.0,2,5.336
1780,56.96,-3.5061,5.4094,0.3512,-0.1469,0.1722,-2.5144,rough,14.0,2,4.889
1790,57.28,-3.8695,5.1528,0.2724,-0.0845,0.1946,-2.5055,rough,14.0,2,4.447
1800,57.60,-4.2089,4.8965,0.2142,-0.0864,0.0968,-2.4908,rough,14.0,2,4.024
1810,57.92,-4.5565,4.6407,0.1860,-0.0209,0.0151,-2.4808,rough,14.0,2,3.595
1820,58.24,-4.9057,4.3715,0.1816,-0.0034,-0.0090,-2.4731,rough,14.0,2,3.157
1830,58.56,-5.2541,4.0923,0.1825,-0.0151,-0.0019,-2.4655,rough,14.0,2,2.713
1840,58.88,-5.6004,3.8122,0.1828,-0.0148,0.0003,-2.4567,rough,14.0,2,2.270
1850,59.20,-5.9450,3.5314,0.1795,0.0061,-0.0049,-2.4473,rough,14.0,2,1.830
1860,59.52,-6.2852,3.2442,0.1798,0.0003,-0.0001,-2.4348,rough,14.0,2,1.390
1870,59.84,-6.6192,2.9545,0.1808,-0.0025,-0.0033,-2.4181,rough,14.0,2,0.957
1880,60.16,-6.9166,2.6753,0.1849,-0.0213,-0.0026,-2.3110,rough,14.0,3,10.910
1890,60.48,-7.1731,2.3727,0.1843,-0.0118,0.0202,-2.1945,rough,14.0,3,10.684
1900,60.80,-7.3925,2.0528,0.1798,-0.0009,-0.0006,-2.0980,rough,14.0,3,10.441
1910,61.12,-7.5764,1.6917,0.1753,-0.0233,0.0006,-1.9883,rough,14.0,3,10.156
1920,61.44,-7.7366,1.3045,0.1741,0.0344,-0.0000,-1.8643,rough,14.0,3,9.847
1930,61.76,-7.8458,0.8944,0.1818,0.0075,-0.0089,-1.7423,rough,14.0,3,9.506
1940,62.08,-7.9164,0.5052,0.1958,0.0409,-0.0782,-1.6940,rough,14.0,3,9.175
1950,62.40,-7.9562,0.0718,0.2248,0.0060,-0.0238,-1.5720,rough,14.0,3,8.797
1960,62.72,-7.9473,-0.3695,0.2253,0.0069,0.0459,-1.5017,rough,14.0,3,8.395
1970,63.04,-7.9065,-0.8097,0.2002,-0.0047,0.0478,-1.4706,rough,14.0,3,7.984
1980,63.36,-7.8520,-1.2341,0.1834,-0.0003,0.0268,-1.4061,rough,14.0,3,7.583
1990,63.68,-7.7730,-1.6575,0.1793,-0.0011,-0.0016,-1.3556,rough,14.0,3,7.174
2000,64.00,-7.6776,-2.0840,0.1798,-0.0000,-0.0002,-1.3097,rough,14.0,3,6.757
2010,64.32,-7.5576,-2.4964,0.1860,-0.0139,-0.0233,-1.2854,rough,14.0,3,6.342
2020,64.64,-7.4255,-2.9053,0.1988,-0.0378,-0.0298,-1.2574,rough,14.0,3,5.926
2030,64.96,-7.2787,-3.3251,0.2017,-0.0462,0.0216,-1.2245,rough,14.0,3,5.494
2040,65.28,-7.1184,-3.7339,0.1926,-0.0394,0.0210,-1.1855,rough,14.0,3,5.065
2050,65.60,-6.9573,-4.1366,0.1808,-0.0057,0.0031,-1.1526,rough,14.0,3,4.644
2060,65.92,-6.7791,-4.5285,0.1877,0.0004,-0.0500,-1.1271,rough,14.0,3,4.222
2070,66.24,-6.5912,-4.9219,0.2132,0.0281,-0.0554,-1.0888,rough,14.0,3,3.796
2080,66.56,-6.3844,-5.3188,0.2221,0.0473,0.0032,-1.0615,rough,14.0,3,3.358
2090,66.88,-6.1571,-5.7121,0.2027,0.0235,0.0575,-1.0332,rough,14.0,3,2.911
2100,67.20,-5.9306,-6.0841,0.1850,0.0097,0.0194,-1.0087,rough,14.0,3,2.483
2110,67.52,-5.6939,-6.4492,0.1800,0.0017,-0.0005,-0.9783,rough,14.0,3,2.056
2120,67.84,-5.4512,-6.8059,0.1801,0.0091,-0.0110,-0.9367,rough,14.0,3,1.634
2130,68.16,-5.2023,-7.1480,0.1878,0.0272,-0.0203,-0.8845,rough,14.0,3,1.224
2140,68.48,-4.9230,-7.4729,0.1917,0.0266,0.0063,-0.8119,rough,14.0,3,0.808
2150,68.80,-4.6967,-7.6899,0.1881,0.0335,0.0116,-0.5964,rough,14.0,0,16.179
2160,69.12,-4.4120,-7.8656,0.1856,0.0308,0.0008,-0.3934,rough,14.0,0,16.060
2170,69.44,-4.0695,-7.9986,0.1812,0.0085,0.0011,-0.2048,rough,14.0,0,15.875
2180,69.76,-3.6965,-8.0676,0.1810,-0.0014,-0.0089,-0.0433,rough,14.0,0,15.632
2190,70.08,-3.2982,-8.0784,0.1823,0.0178,-0.0257,0.1048,rough,14.0,0,15.338
2200,70.40,-2.9049,-8.0034,0.2040,-0.0342,-0.0436,0.1825,rough,14.0,0,14.994
2210,70.72,-2.4848,-7.9125,0.2069,-0.0641,0.0014,0.2413,rough,14.0,0,14.623
2220,71.04,-2.0724,-7.7946,0.1960,-0.0308,0.0434,0.3297,rough,14.0,0,14.242
2230,71.36,-1.6770,-7.6524,0.1882,-0.0071,0.0105,0.4032,rough,14.0,0,13.858
2240,71.68,-1.2900,-7.4832,0.1908,0.0046,-0.0315,0.4677,rough,14.0,0,13.464
2250,72.00,-0.9073,-7.2893,0.2079,0.0254,-0.0446,0.5168,rough,14.0,0,13.057
2260,72.32,-0.5281,-7.0727,0.2205,0.0502,-0.0144,0.5543,rough,14.0,0,12.637
2270,72.64,-0.1504,-6.8293,0.2148,0.0417,0.0490,0.5926,rough,14.0,0,12.201
2280,72.96,0.2116,-6.5741,0.1937,0.0132,0.0560,0.6204,rough,14.0,0,11.767
2290,73.28,0.5617,-6.3201,0.1824,0.0062,0.0028,0.6429,rough,14.0,0,11.343
2300,73.60,0.9102,-6.0542,0.1833,0.0072,-0.0084,0.6653,rough,14.0,0,10.911
2310,73.92,1.2590,-5.7893,0.1967,0.0519,-0.0148,0.6862,rough,14.0,0,10.481
2320,74.24,1.6002,-5.5116,0.1987,0.0610,-0.0131,0.7055,rough,14.0,0,10.047
2330,74.56,1.9374,-5.2135,0.1908,0.0340,0.0237,0.7235,rough,14.0,0,9.601
2340,74.88,2.2633,-4.9144,0.1833,0.0048,0.0190,0.7393,rough,14.0,0,9.161
2350,75.20,2.5875,-4.6156,0.1798,-0.0001,-0.0000,0.7536,rough,14.0,0,8.723
2360,75.52,2.9091,-4.3099,0.1799,0.0000,-0.0000,0.7678,rough,14.0,0,8.282
2370,75.84,3.2266,-3.9997,0.1799,0.0000,-0.0000,0.7809,rough,14.0,0,7.841
2380,76.16,3.5403,-3.6852,0.1799,0.0000,-0.0000,0.7933,rough,14.0,0,7.399
2390,76.48,3.8504,-3.3668,0.1799,0.0000,-0.0000,0.8050,rough,14.0,0,6.956
2400,76.80,4.1568,-3.0447,0.1799,0.0000,-0.0000,0.8163,rough,14.0,0,6.513
2410,77.12,4.4596,-2.7192,0.1799,0.0000,-0.0000,0.8271,rough,14.0,0,6.069
2420,77.44,4.7591,-2.3903,0.1799,0.0000,-0.0000,0.8375,rough,14.0,0,5.626
2430,77.76,5.0553,-2.0584,0.1799,0.0000,-0.0000,0.8474,rough,14.0,0,5.182
2440,78.08,5.3483,-1.7237,0.1799,0.0000,-0.0000,0.8570,rough,14.0,0,4.738
2450,78.40,5.6381,-1.3861,0.1799,0.0000,-0.0000,0.8665,rough,14.0,0,4.294
2460,78.72,5.9247,-1.0458,0.1799,0.0000,-0.0000,0.8759,rough,14.0,0,3.849
2470,79.04,6.2081,-0.7029,0.1799,0.0000,0.0000,0.8854,rough,14.0,0,3.405
2480,79.36,6.4881,-0.3573,0.1799,0.0000,0.0000,0.8951,rough,14.0,0,2.961
2490,79.68,6.7646,-0.0091,0.1799,0.0000,0.0000,0.9055,rough,14.0,0,2.517
2500,80.00,7.0373,0.3419,0.1799,0.0000,0.0000,0.9167,rough,14.0,0,2.073
2510,80.32,7.2651,0.6737,0.2234,-0.0887,-0.1887,0.9345,rough,14.0,0,1.670
2520,80.64,7.4656,1.0408,0.2781,-0.3709,-0.2760,0.9797,rough,14.0,0,1.256
2530,80.96,7.6621,1.3709,0.4119,-0.3683,-0.4095,1.0317,rough,14.0,0,0.876
2540,81.28,7.8036,1.6267,0.5228,-0.3530,-0.3616,1.1942,rough,14.0,1,5.269
2550,81.60,7.8598,1.8392,0.5892,-0.3823,-0.3097,1.4216,rough,14.0,1,5.141
2560,81.92,7.8582,2.1369,0.6449,-0.3439,-0.2202,1.6723,rough,14.0,1,4.917
2570,82.24,7.7514,2.4604,0.6964,-0.4069,-0.1696,1.8747,rough,14.0,1,4.609
2580,82.56,7.6018,2.7540,0.7571,-0.4529,-0.2074,2.0800,rough,14.0,1,4.296
2590,82.88,7.3796,3.0490,0.8186,-0.4425,-0.1776,2.2188,rough,14.0,1,3.932
2600,83.20,7.1048,3.2959,0.8439,-0.5599,-0.0719,2.3385,rough,14.0,1,3.562
2610,83.52,6.7879,3.5346,0.8408,-0.6146,0.0021,2.4161,rough,14.0,1,3.169
2620,83.84,6.4539,3.7628,0.7935,-0.6219,0.0646,2.4527,rough,14.0,1,2.771
2630,84.16,6.0993,3.9992,0.7752,-0.6584,-0.0118,2.4598,rough,14.0,1,2.356
2640,84.48,5.8756,3.9317,0.6352,-0.6153,-0.3719,2.0760,rough,14.0,1,2.266
2650,84.80,5.6923,3.8919,0.5218,-0.6233,-0.3582,2.1152,rough,14.0,1,2.195
2660,85.12,5.4593,3.9512,0.4686,-0.6663,-0.3478,2.2527,rough,14.0,1,2.027
2670,85.44,5.2126,4.0640,0.4609,-0.5595,-0.3295,2.2258,rough,14.0,1,1.821
2680,85.76,4.9423,4.2196,0.4826,-0.6003,-0.2543,2.1699,rough,14.0,1,1.585
2690,86.08,4.7100,4.4851,0.5671,-0.6427,-0.3766,2.2078,rough,14.0,1,1.277
2700,86.40,4.4824,4.7712,0.6808,-0.6179,-0.3712,2.1074,rough,14.0,1,0.978
2710,86.72,4.2897,5.0345,0.7884,-0.6179,-0.3687,2.1359,rough,14.0,2,11.812
2720,87.04,4.0961,5.2143,0.8359,-0.6796,-0.2073,2.3532,rough,14.0,2,11.669
2730,87.36,3.8541,5.3803,0.8633,-0.7048,-0.1302,2.5352,rough,14.0,2,11.481
2740,87.68,3.5424,5.5152,0.8610,-0.7244,-0.0417,2.7076,rough,14.0,2,11.222
2750,88.00,3.1824,5.6193,0.8359,-0.7256,0.0330,2.8598,rough,14.0,2,10.911
2760,88.32,2.7877,5.6842,0.7760,-0.6747,0.0866,2.9747,rough,14.0,2,10.559
2770,88.64,2.3642,5.7394,0.7046,-0.6112,0.2199,3.0208,rough,14.0,2,10.180
2780,88.96,1.9608,5.7441,0.6179,-0.5317,0.2026,3.1265,rough,14.0,2,9.804
2790,89.28,1.5575,5.7291,0.5352,-0.4734,0.1100,-3.0564,rough,14.0,2,9.424
2800,89.60,1.1263,5.6947,0.4613,-0.3616,0.1382,-3.0104,rough,14.0,2,9.013
2810,89.92,0.9039,5.7235,0.4628,-0.3207,0.2174,-2.5322,rough,14.0,2,8.820
2820,90.24,0.8191,5.6875,0.4357,-0.1388,0.3263,-2.0304,rough,14.0,2,8.728
2830,90.56,0.7727,5.6844,0.4316,-0.0506,0.3483,-1.8010,rough,14.0,2,8.684
2840,90.88,0.7503,5.6840,0.4295,-0.0022,0.3591,-1.6843,rough,14.0,2,8.664
2850,91.20,0.7396,5.6828,0.4275,0.0222,0.3652,-1.6277,rough,14.0,2,8.654
2860,91.52,0.7345,5.6832,0.4274,0.0329,0.3653,-1.6008,rough,14.0,2,8.649
2870,91.84,0.7320,5.6835,0.4274,0.0380,0.3654,-1.5879,rough,14.0,2,8.647
2880,92.16,0.7308,5.6836,0.4273,0.0405,0.3655,-1.5816,rough,14.0,2,8.646
2890,92.48,0.7301,5.6836,0.4273,0.0417,0.3656,-1.5785,rough,14.0,2,8.645
2900,92.80,0.7298,5.6837,0.4273,0.0423,0.3656,-1.5771,rough,14.0,2,8.645
2910,93.12,0.7296,5.6836,0.4272,0.0426,0.3657,-1.5764,rough,14.0,2,8.645
2920,93.44,0.7294,5.6836,0.4272,0.0428,0.3657,-1.5760,rough,14.0,2,8.645
2930,93.76,0.7293,5.6836,0.4272,0.0429,0.3658,-1.5759,rough,14.0,2,8.644
2940,94.08,0.7292,5.6836,0.4271,0.0429,0.3658,-1.5758,rough,14.0,2,8.644
2950,94.40,0.7291,5.6835,0.4271,0.0430,0.3659,-1.5757,rough,14.0,2,8.644
2960,94.72,0.7290,5.6835,0.4271,0.0430,0.3659,-1.5757,rough,14.0,2,8.644
2970,95.04,0.7289,5.6835,0.4271,0.0430,0.3660,-1.5757,rough,14.0,2,8.644
2980,95.36,0.7289,5.6835,0.4271,0.0430,0.3660,-1.5757,rough,14.0,2,8.644
2990,95.68,0.7288,5.6834,0.4270,0.0430,0.3661,-1.5757,rough,14.0,2,8.644
3000,96.00,0.7287,5.6834,0.4270,0.0431,0.3661,-1.5757,rough,14.0,2,8.644
3010,96.32,0.7286,5.6834,0.4270,0.0431,0.3661,-1.5757,rough,14.0,2,8.644
3020,96.64,0.7285,5.6834,0.4270,0.0431,0.3662,-1.5757,rough,14.0,2,8.644
3030,96.96,0.7284,5.6834,0.4270,0.0431,0.3662,-1.5757,rough,14.0,2,8.644
3040,97.28,0.7284,5.6833,0.4269,0.0431,0.3662,-1.5757,rough,14.0,2,8.643
3050,97.60,0.7283,5.6833,0.4269,0.0431,0.3663,-1.5757,rough,14.0,2,8.643
3060,97.92,0.7282,5.6833,0.4269,0.0431,0.3663,-1.5757,rough,14.0,2,8.643
3070,98.24,0.7281,5.6833,0.4269,0.0431,0.3663,-1.5757,rough,14.0,2,8.643
3080,98.56,0.7280,5.6833,0.4269,0.0431,0.3663,-1.5757,rough,14.0,2,8.643
3090,98.88,0.7279,5.6833,0.4269,0.0431,0.3664,-1.5757,rough,14.0,2,8.643
3100,99.20,0.7279,5.6833,0.4268,0.0431,0.3664,-1.5757,rough,14.0,2,8.643
3110,99.52,0.7278,5.6832,0.4268,0.0431,0.3664,-1.5757,rough,14.0,2,8.643
3120,99.84,0.7277,5.6832,0.4268,0.0431,0.3664,-1.5757,rough,14.0,2,8.643
3130,100.16,0.7276,5.6832,0.4268,0.0431,0.3664,-1.5757,rough,14.0,2,8.643
3140,100.48,0.7275,5.6832,0.4268,0.0431,0.3665,-1.5757,rough,14.0,2,8.643
3150,100.80,0.7274,5.6832,0.4268,0.0431,0.3665,-1.5757,rough,14.0,2,8.643
3160,101.12,0.7274,5.6832,0.4268,0.0431,0.3665,-1.5757,rough,14.0,2,8.643
3170,101.44,0.7273,5.6832,0.4268,0.0431,0.3665,-1.5757,rough,14.0,2,8.642
3180,101.76,0.7272,5.6832,0.4268,0.0431,0.3665,-1.5757,rough,14.0,2,8.642
3190,102.08,0.7271,5.6832,0.4267,0.0431,0.3665,-1.5757,rough,14.0,2,8.642
3200,102.40,0.7270,5.6832,0.4267,0.0431,0.3665,-1.5757,rough,14.0,2,8.642
3210,102.72,0.7269,5.6832,0.4267,0.0431,0.3666,-1.5757,rough,14.0,2,8.642
3220,103.04,0.7269,5.6832,0.4267,0.0431,0.3666,-1.5757,rough,14.0,2,8.642
3230,103.36,0.7268,5.6831,0.4267,0.0431,0.3666,-1.5757,rough,14.0,2,8.642
3240,103.68,0.7267,5.6831,0.4267,0.0431,0.3666,-1.5757,rough,14.0,2,8.642
3250,104.00,0.7266,5.6831,0.4267,0.0431,0.3666,-1.5757,rough,14.0,2,8.642
3260,104.32,0.7265,5.6831,0.4267,0.0431,0.3666,-1.5757,rough,14.0,2,8.642
3270,104.64,0.7265,5.6831,0.4267,0.0431,0.3666,-1.5757,rough,14.0,2,8.642
3280,104.96,0.7264,5.6831,0.4267,0.0431,0.3666,-1.5757,rough,14.0,2,8.642
3290,105.28,0.7263,5.6831,0.4267,0.0431,0.3666,-1.5757,rough,14.0,2,8.642
3300,105.60,0.7262,5.6831,0.4267,0.0431,0.3667,-1.5757,rough,14.0,2,8.641
3310,105.92,0.7261,5.6831,0.4267,0.0431,0.3667,-1.5757,rough,14.0,2,8.641
3320,106.24,0.7260,5.6831,0.4266,0.0431,0.3667,-1.5757,rough,14.0,2,8.641
3330,106.56,0.7260,5.6831,0.4266,0.0431,0.3667,-1.5757,rough,14.0,2,8.641
3340,106.88,0.7259,5.6831,0.4266,0.0431,0.3667,-1.5757,rough,14.0,2,8.641
3350,107.20,0.7258,5.6831,0.4266,0.0431,0.3667,-1.5757,rough,14.0,2,8.641
3360,107.52,0.7257,5.6831,0.4266,0.0431,0.3667,-1.5757,rough,14.0,2,8.641
3370,107.84,0.7256,5.6831,0.4266,0.0431,0.3667,-1.5757,rough,14.0,2,8.641
3380,108.16,0.7256,5.6831,0.4266,0.0430,0.3667,-1.5756,rough,14.0,2,8.641
3390,108.48,0.7255,5.6831,0.4266,0.0430,0.3667,-1.5756,rough,14.0,2,8.641
3400,108.80,0.7254,5.6831,0.4266,0.0430,0.3667,-1.5756,rough,14.0,2,8.641
3410,109.12,0.7253,5.6831,0.4266,0.0430,0.3667,-1.5756,rough,14.0,2,8.641
3420,109.44,0.7252,5.6831,0.4266,0.0430,0.3667,-1.5756,rough,14.0,2,8.641
3430,109.76,0.7252,5.6831,0.4266,0.0430,0.3667,-1.5756,rough,14.0,2,8.640
3440,110.08,0.7251,5.6831,0.4266,0.0430,0.3667,-1.5756,rough,14.0,2,8.640
3450,110.40,0.7250,5.6831,0.4266,0.0430,0.3667,-1.5756,rough,14.0,2,8.640
3460,110.72,0.7249,5.6831,0.4266,0.0430,0.3668,-1.5756,rough,14.0,2,8.640
3470,111.04,0.7248,5.6831,0.4266,0.0430,0.3668,-1.5756,rough,14.0,2,8.640
3480,111.36,0.7248,5.6831,0.4266,0.0430,0.3668,-1.5756,rough,14.0,2,8.640
3490,111.68,0.7247,5.6831,0.4266,0.0430,0.3668,-1.5756,rough,14.0,2,8.640
3500,112.00,0.7246,5.6831,0.4266,0.0430,0.3668,-1.5756,rough,14.0,2,8.640
3510,112.32,0.7245,5.6831,0.4266,0.0430,0.3668,-1.5756,rough,14.0,2,8.640
3520,112.64,0.7244,5.6831,0.4265,0.0429,0.3668,-1.5756,rough,14.0,2,8.640
3530,112.96,0.7243,5.6831,0.4265,0.0429,0.3668,-1.5756,rough,14.0,2,8.640
3540,113.28,0.7243,5.6831,0.4265,0.0429,0.3668,-1.5756,rough,14.0,2,8.640
3550,113.60,0.7242,5.6831,0.4265,0.0429,0.3668,-1.5756,rough,14.0,2,8.640
3560,113.92,0.7241,5.6831,0.4265,0.0429,0.3668,-1.5756,rough,14.0,2,8.640
3570,114.24,0.7240,5.6831,0.4265,0.0429,0.3668,-1.5756,rough,14.0,2,8.639
3580,114.56,0.7239,5.6831,0.4265,0.0429,0.3668,-1.5756,rough,14.0,2,8.639
3590,114.88,0.7239,5.6831,0.4265,0.0429,0.3668,-1.5756,rough,14.0,2,8.639
3600,115.20,0.7238,5.6831,0.4265,0.0429,0.3668,-1.5756,rough,14.0,2,8.639
3610,115.52,0.7237,5.6831,0.4265,0.0429,0.3668,-1.5756,rough,14.0,2,8.639
3620,115.84,0.7236,5.6831,0.4265,0.0429,0.3668,-1.5756,rough,14.0,2,8.639
3630,116.16,0.7235,5.6831,0.4265,0.0429,0.3668,-1.5756,rough,14.0,2,8.639
3640,116.48,0.7235,5.6831,0.4265,0.0429,0.3668,-1.5756,rough,14.0,2,8.639
3650,116.80,0.7234,5.6831,0.4265,0.0428,0.3668,-1.5756,rough,14.0,2,8.639
3660,117.12,0.7233,5.6831,0.4265,0.0428,0.3668,-1.5756,rough,14.0,2,8.639
3670,117.44,0.7232,5.6831,0.4265,0.0428,0.3668,-1.5756,rough,14.0,2,8.639
3680,117.76,0.7231,5.6831,0.4265,0.0428,0.3668,-1.5756,rough,14.0,2,8.639
3690,118.08,0.7231,5.6831,0.4265,0.0428,0.3668,-1.5756,rough,14.0,2,8.639
3700,118.40,0.7230,5.6831,0.4265,0.0428,0.3668,-1.5756,rough,14.0,2,8.639
3710,118.72,0.7229,5.6831,0.4265,0.0428,0.3668,-1.5756,rough,14.0,2,8.638
3720,119.04,0.7228,5.6831,0.4265,0.0428,0.3668,-1.5756,rough,14.0,2,8.638
3730,119.36,0.7228,5.6831,0.4265,0.0428,0.3668,-1.5756,rough,14.0,2,8.638
3740,119.68,0.7227,5.6831,0.4265,0.0428,0.3668,-1.5756,rough,14.0,2,8.638
3750,120.00,0.7226,5.6831,0.4265,0.0428,0.3668,-1.5756,rough,14.0,2,8.638
3760,120.32,0.7225,5.6831,0.4265,0.0427,0.3668,-1.5756,rough,14.0,2,8.638
3770,120.64,0.7224,5.6831,0.4265,0.0427,0.3668,-1.5756,rough,14.0,2,8.638
3780,120.96,0.7224,5.6831,0.4264,0.0427,0.3668,-1.5756,rough,14.0,2,8.638
3790,121.28,0.7223,5.6831,0.4264,0.0427,0.3668,-1.5756,rough,14.0,2,8.638
3800,121.60,0.7222,5.6831,0.4264,0.0427,0.3669,-1.5756,rough,14.0,2,8.638
3810,121.92,0.7221,5.6831,0.4264,0.0427,0.3669,-1.5756,rough,14.0,2,8.638
3820,122.24,0.7220,5.6831,0.4264,0.0427,0.3669,-1.5756,rough,14.0,2,8.638
3830,122.56,0.7220,5.6831,0.4264,0.0427,0.3669,-1.5756,rough,14.0,2,8.638
3840,122.88,0.7219,5.6831,0.4264,0.0427,0.3669,-1.5756,rough,14.0,2,8.637
3850,123.20,0.7218,5.6831,0.4264,0.0427,0.3669,-1.5756,rough,14.0,2,8.637
3860,123.52,0.7217,5.6831,0.4264,0.0427,0.3669,-1.5756,rough,14.0,2,8.637
3870,123.84,0.7216,5.6831,0.4264,0.0427,0.3669,-1.5756,rough,14.0,2,8.637
3880,124.16,0.7216,5.6831,0.4264,0.0426,0.3669,-1.5756,rough,14.0,2,8.637
3890,124.48,0.7215,5.6831,0.4264,0.0426,0.3669,-1.5756,rough,14.0,2,8.637
3900,124.80,0.7214,5.6831,0.4264,0.0426,0.3669,-1.5756,rough,14.0,2,8.637
3910,125.12,0.7213,5.6831,0.4264,0.0426,0.3669,-1.5756,rough,14.0,2,8.637
3920,125.44,0.7213,5.6831,0.4264,0.0426,0.3669,-1.5756,rough,14.0,2,8.637
3930,125.76,0.7212,5.6831,0.4264,0.0426,0.3669,-1.5756,rough,14.0,2,8.637
3940,126.08,0.7211,5.6831,0.4264,0.0426,0.3669,-1.5756,rough,14.0,2,8.637
3950,126.40,0.7210,5.6831,0.4264,0.0426,0.3669,-1.5756,rough,14.0,2,8.637
3960,126.72,0.7209,5.6831,0.4264,0.0426,0.3669,-1.5756,rough,14.0,2,8.637
3970,127.04,0.7209,5.6831,0.4264,0.0426,0.3669,-1.5755,rough,14.0,2,8.637
3980,127.36,0.7208,5.6831,0.4264,0.0426,0.3669,-1.5755,rough,14.0,2,8.637
3990,127.68,0.7207,5.6832,0.4264,0.0425,0.3669,-1.5755,rough,14.0,2,8.636
4000,128.00,0.7206,5.6832,0.4264,0.0425,0.3669,-1.5755,rough,14.0,2,8.636
4010,128.32,0.7206,5.6832,0.4264,0.0425,0.3669,-1.5755,rough,14.0,2,8.636
4020,128.64,0.7205,5.6832,0.4264,0.0425,0.3669,-1.5755,rough,14.0,2,8.636
4030,128.96,0.7204,5.6832,0.4264,0.0425,0.3669,-1.5755,rough,14.0,2,8.636
4040,129.28,0.7203,5.6832,0.4264,0.0425,0.3669,-1.5755,rough,14.0,2,8.636
4050,129.60,0.7202,5.6832,0.4264,0.0425,0.3669,-1.5755,rough,14.0,2,8.636
4060,129.92,0.7202,5.6832,0.4264,0.0425,0.3669,-1.5755,rough,14.0,2,8.636
4070,130.24,0.7201,5.6832,0.4264,0.0425,0.3669,-1.5755,rough,14.0,2,8.636
4080,130.56,0.7200,5.6832,0.4263,0.0425,0.3669,-1.5755,rough,14.0,2,8.636
4090,130.88,0.7199,5.6832,0.4263,0.0425,0.3669,-1.5755,rough,14.0,2,8.636
4100,131.20,0.7199,5.6832,0.4263,0.0425,0.3669,-1.5755,rough,14.0,2,8.636
4110,131.52,0.7198,5.6832,0.4263,0.0424,0.3669,-1.5755,rough,14.0,2,8.636
4120,131.84,0.7197,5.6832,0.4263,0.0424,0.3669,-1.5755,rough,14.0,2,8.636
4130,132.16,0.7196,5.6832,0.4263,0.0424,0.3669,-1.5755,rough,14.0,2,8.635
4140,132.48,0.7195,5.6832,0.4263,0.0424,0.3669,-1.5755,rough,14.0,2,8.635
4150,132.80,0.7195,5.6832,0.4263,0.0424,0.3669,-1.5755,rough,14.0,2,8.635
4160,133.12,0.7194,5.6832,0.4263,0.0424,0.3669,-1.5755,rough,14.0,2,8.635
4170,133.44,0.7193,5.6832,0.4263,0.0424,0.3669,-1.5755,rough,14.0,2,8.635
4180,133.76,0.7192,5.6832,0.4263,0.0424,0.3669,-1.5755,rough,14.0,2,8.635
4190,134.08,0.7192,5.6832,0.4263,0.0424,0.3669,-1.5755,rough,14.0,2,8.635
4200,134.40,0.7191,5.6832,0.4263,0.0424,0.3669,-1.5755,rough,14.0,2,8.635
4210,134.72,0.7190,5.6832,0.4263,0.0424,0.3669,-1.5755,rough,14.0,2,8.635
4220,135.04,0.7189,5.6832,0.4263,0.0423,0.3669,-1.5755,rough,14.0,2,8.635
4230,135.36,0.7188,5.6832,0.4263,0.0423,0.3669,-1.5755,rough,14.0,2,8.635
4240,135.68,0.7188,5.6832,0.4263,0.0423,0.3669,-1.5755,rough,14.0,2,8.635
4250,136.00,0.7187,5.6832,0.4263,0.0423,0.3669,-1.5755,rough,14.0,2,8.635
4260,136.32,0.7186,5.6832,0.4263,0.0423,0.3669,-1.5755,rough,14.0,2,8.635
4270,136.64,0.7185,5.6832,0.4263,0.0423,0.3669,-1.5755,rough,14.0,2,8.634
4280,136.96,0.7185,5.6832,0.4263,0.0423,0.3669,-1.5755,rough,14.0,2,8.634
4290,137.28,0.7184,5.6832,0.4263,0.0423,0.3669,-1.5755,rough,14.0,2,8.634
4300,137.60,0.7183,5.6832,0.4263,0.0423,0.3669,-1.5755,rough,14.0,2,8.634
4310,137.92,0.7182,5.6832,0.4263,0.0423,0.3669,-1.5755,rough,14.0,2,8.634
4320,138.24,0.7182,5.6832,0.4263,0.0423,0.3669,-1.5755,rough,14.0,2,8.634
4330,138.56,0.7181,5.6832,0.4263,0.0423,0.3669,-1.5755,rough,14.0,2,8.634
4340,138.88,0.7180,5.6832,0.4263,0.0422,0.3669,-1.5755,rough,14.0,2,8.634
4350,139.20,0.7179,5.6832,0.4263,0.0422,0.3669,-1.5755,rough,14.0,2,8.634
4360,139.52,0.7179,5.6832,0.4263,0.0422,0.3669,-1.5755,rough,14.0,2,8.634
4370,139.84,0.7178,5.6832,0.4263,0.0422,0.3669,-1.5755,rough,14.0,2,8.634
4380,140.16,0.7177,5.6832,0.4263,0.0422,0.3669,-1.5755,rough,14.0,2,8.634
4390,140.48,0.7176,5.6832,0.4263,0.0422,0.3669,-1.5755,rough,14.0,2,8.634
4400,140.80,0.7176,5.6832,0.4262,0.0422,0.3669,-1.5755,rough,14.0,2,8.634
4410,141.12,0.7175,5.6832,0.4262,0.0422,0.3670,-1.5755,rough,14.0,2,8.634
4420,141.44,0.7174,5.6832,0.4262,0.0422,0.3670,-1.5755,rough,14.0,2,8.633
4430,141.76,0.7173,5.6832,0.4262,0.0422,0.3670,-1.5755,rough,14.0,2,8.633
4440,142.08,0.7172,5.6832,0.4262,0.0422,0.3670,-1.5755,rough,14.0,2,8.633
4450,142.40,0.7172,5.6832,0.4262,0.0422,0.3670,-1.5755,rough,14.0,2,8.633
4460,142.72,0.7171,5.6832,0.4262,0.0421,0.3670,-1.5755,rough,14.0,2,8.633
4470,143.04,0.7170,5.6832,0.4262,0.0421,0.3670,-1.5755,rough,14.0,2,8.633
4480,143.36,0.7169,5.6832,0.4262,0.0421,0.3670,-1.5755,rough,14.0,2,8.633
4490,143.68,0.7169,5.6832,0.4262,0.0421,0.3670,-1.5755,rough,14.0,2,8.633
4500,144.00,0.7168,5.6832,0.4262,0.0421,0.3670,-1.5755,rough,14.0,2,8.633
4510,144.32,0.7167,5.6832,0.4262,0.0421,0.3670,-1.5755,rough,14.0,2,8.633
4520,144.64,0.7166,5.6832,0.4262,0.0421,0.3670,-1.5755,rough,14.0,2,8.633
4530,144.96,0.7166,5.6832,0.4262,0.0421,0.3670,-1.5755,rough,14.0,2,8.633
4540,145.28,0.7165,5.6832,0.4262,0.0421,0.3670,-1.5755,rough,14.0,2,8.633
4550,145.60,0.7164,5.6832,0.4262,0.0421,0.3670,-1.5755,rough,14.0,2,8.633
4560,145.92,0.7163,5.6832,0.4262,0.0421,0.3670,-1.5754,rough,14.0,2,8.632
4570,146.24,0.7163,5.6832,0.4262,0.0420,0.3670,-1.5754,rough,14.0,2,8.632
4580,146.56,0.7162,5.6832,0.4262,0.0420,0.3670,-1.5754,rough,14.0,2,8.632
4590,146.88,0.7161,5.6832,0.4262,0.0420,0.3670,-1.5754,rough,14.0,2,8.632
4600,147.20,0.7160,5.6832,0.4262,0.0420,0.3670,-1.5754,rough,14.0,2,8.632
4610,147.52,0.7160,5.6833,0.4262,0.0420,0.3670,-1.5754,rough,14.0,2,8.632
4620,147.84,0.7159,5.6833,0.4262,0.0420,0.3670,-1.5754,rough,14.0,2,8.632
4630,148.16,0.7158,5.6833,0.4262,0.0420,0.3670,-1.5754,rough,14.0,2,8.632
4640,148.48,0.7157,5.6833,0.4262,0.0420,0.3670,-1.5754,rough,14.0,2,8.632
4650,148.80,0.7157,5.6833,0.4262,0.0420,0.3670,-1.5754,rough,14.0,2,8.632
4660,149.12,0.7156,5.6833,0.4262,0.0420,0.3670,-1.5754,rough,14.0,2,8.632
4670,149.44,0.7155,5.6833,0.4262,0.0420,0.3670,-1.5754,rough,14.0,2,8.632
4680,149.76,0.7154,5.6833,0.4262,0.0420,0.3670,-1.5754,rough,14.0,2,8.632
4690,150.08,0.7154,5.6833,0.4262,0.0419,0.3670,-1.5754,rough,14.0,2,8.632
4700,150.40,0.7153,5.6833,0.4262,0.0419,0.3670,-1.5754,rough,14.0,2,8.632
4710,150.72,0.7152,5.6833,0.4262,0.0419,0.3670,-1.5754,rough,14.0,2,8.631
4720,151.04,0.7151,5.6833,0.4262,0.0419,0.3670,-1.5754,rough,14.0,2,8.631
4730,151.36,0.7151,5.6833,0.4261,0.0419,0.3670,-1.5754,rough,14.0,2,8.631
4740,151.68,0.7150,5.6833,0.4261,0.0419,0.3670,-1.5754,rough,14.0,2,8.631
4750,152.00,0.7149,5.6833,0.4261,0.0419,0.3670,-1.5754,rough,14.0,2,8.631
4760,152.32,0.7148,5.6833,0.4261,0.0419,0.3670,-1.5754,rough,14.0,2,8.631
4770,152.64,0.7148,5.6833,0.4261,0.0419,0.3670,-1.5754,rough,14.0,2,8.631
4780,152.96,0.7147,5.6833,0.4261,0.0419,0.3670,-1.5754,rough,14.0,2,8.631
4790,153.28,0.7146,5.6833,0.4261,0.0419,0.3670,-1.5754,rough,14.0,2,8.631
4800,153.60,0.7145,5.6833,0.4261,0.0419,0.3670,-1.5754,rough,14.0,2,8.631
4810,153.92,0.7145,5.6833,0.4261,0.0418,0.3670,-1.5754,rough,14.0,2,8.631
4820,154.24,0.7144,5.6833,0.4261,0.0418,0.3670,-1.5754,rough,14.0,2,8.631
4830,154.56,0.7143,5.6833,0.4261,0.0418,0.3670,-1.5754,rough,14.0,2,8.631
4840,154.88,0.7143,5.6833,0.4261,0.0418,0.3670,-1.5754,rough,14.0,2,8.631
4850,155.20,0.7142,5.6833,0.4261,0.0418,0.3670,-1.5754,rough,14.0,2,8.631
4860,155.52,0.7141,5.6833,0.4261,0.0418,0.3670,-1.5754,rough,14.0,2,8.630
4870,155.84,0.7140,5.6833,0.4261,0.0418,0.3670,-1.5754,rough,14.0,2,8.630
4880,156.16,0.7140,5.6833,0.4261,0.0418,0.3670,-1.5754,rough,14.0,2,8.630
4890,156.48,0.7139,5.6833,0.4261,0.0418,0.3670,-1.5754,rough,14.0,2,8.630
4900,156.80,0.7138,5.6833,0.4261,0.0418,0.3670,-1.5754,rough,14.0,2,8.630
4910,157.12,0.7137,5.6833,0.4261,0.0418,0.3670,-1.5754,rough,14.0,2,8.630
4920,157.44,0.7137,5.6833,0.4261,0.0418,0.3670,-1.5754,rough,14.0,2,8.630
4930,157.76,0.7136,5.6833,0.4261,0.0417,0.3670,-1.5754,rough,14.0,2,8.630
4940,158.08,0.7135,5.6833,0.4261,0.0417,0.3670,-1.5754,rough,14.0,2,8.630
4950,158.40,0.7134,5.6833,0.4261,0.0417,0.3670,-1.5754,rough,14.0,2,8.630
4960,158.72,0.7134,5.6833,0.4261,0.0417,0.3670,-1.5754,rough,14.0,2,8.630
4970,159.04,0.7133,5.6833,0.4261,0.0417,0.3670,-1.5754,rough,14.0,2,8.630
4980,159.36,0.7132,5.6833,0.4261,0.0417,0.3670,-1.5754,rough,14.0,2,8.630
4990,159.68,0.7131,5.6833,0.4261,0.0417,0.3670,-1.5754,rough,14.0,2,8.630
5000,160.00,0.7131,5.6833,0.4261,0.0417,0.3670,-1.5754,rough,14.0,2,8.630
5010,160.32,0.7130,5.6833,0.4261,0.0417,0.3670,-1.5754,rough,14.0,2,8.629
5020,160.64,0.7129,5.6833,0.4261,0.0417,0.3670,-1.5754,rough,14.0,2,8.629
5030,160.96,0.7129,5.6833,0.4261,0.0417,0.3670,-1.5754,rough,14.0,2,8.629
5040,161.28,0.7128,5.6833,0.4261,0.0417,0.3670,-1.5754,rough,14.0,2,8.629
5050,161.60,0.7127,5.6833,0.4261,0.0416,0.3670,-1.5754,rough,14.0,2,8.629
5060,161.92,0.7126,5.6833,0.4260,0.0416,0.3670,-1.5754,rough,14.0,2,8.629
5070,162.24,0.7126,5.6833,0.4260,0.0416,0.3670,-1.5754,rough,14.0,2,8.629
5080,162.56,0.7125,5.6833,0.4260,0.0416,0.3670,-1.5754,rough,14.0,2,8.629
5090,162.88,0.7124,5.6833,0.4260,0.0416,0.3670,-1.5754,rough,14.0,2,8.629
5100,163.20,0.7123,5.6833,0.4260,0.0416,0.3670,-1.5754,rough,14.0,2,8.629
5110,163.52,0.7123,5.6833,0.4260,0.0416,0.3671,-1.5754,rough,14.0,2,8.629
5120,163.84,0.7122,5.6833,0.4260,0.0416,0.3671,-1.5754,rough,14.0,2,8.629
5130,164.16,0.7121,5.6833,0.4260,0.0416,0.3671,-1.5754,rough,14.0,2,8.629
5140,164.48,0.7121,5.6833,0.4260,0.0416,0.3671,-1.5754,rough,14.0,2,8.629
5150,164.80,0.7120,5.6833,0.4260,0.0416,0.3671,-1.5754,rough,14.0,2,8.629
5160,165.12,0.7119,5.6833,0.4260,0.0416,0.3671,-1.5754,rough,14.0,2,8.628
5170,165.44,0.7118,5.6833,0.4260,0.0415,0.3671,-1.5754,rough,14.0,2,8.628
5180,165.76,0.7118,5.6833,0.4260,0.0415,0.3671,-1.5753,rough,14.0,2,8.628
5190,166.08,0.7117,5.6833,0.4260,0.0415,0.3671,-1.5753,rough,14.0,2,8.628
5200,166.40,0.7116,5.6833,0.4260,0.0415,0.3671,-1.5753,rough,14.0,2,8.628
5210,166.72,0.7115,5.6833,0.4260,0.0415,0.3671,-1.5753,rough,14.0,2,8.628
5220,167.04,0.7115,5.6833,0.4260,0.0415,0.3671,-1.5753,rough,14.0,2,8.628
5230,167.36,0.7114,5.6833,0.4260,0.0415,0.3671,-1.5753,rough,14.0,2,8.628
5240,167.68,0.7113,5.6833,0.4260,0.0415,0.3671,-1.5753,rough,14.0,2,8.628
5250,168.00,0.7113,5.6834,0.4260,0.0415,0.3671,-1.5753,rough,14.0,2,8.628
5260,168.32,0.7112,5.6834,0.4260,0.0415,0.3671,-1.5753,rough,14.0,2,8.628
5270,168.64,0.7111,5.6834,0.4260,0.0415,0.3671,-1.5753,rough,14.0,2,8.628
5280,168.96,0.7110,5.6834,0.4260,0.0415,0.3671,-1.5753,rough,14.0,2,8.628
5290,169.28,0.7110,5.6834,0.4260,0.0415,0.3671,-1.5753,rough,14.0,2,8.628
5300,169.60,0.7109,5.6834,0.4260,0.0414,0.3671,-1.5753,rough,14.0,2,8.628
5310,169.92,0.7108,5.6834,0.4260,0.0414,0.3671,-1.5753,rough,14.0,2,8.627
5320,170.24,0.7108,5.6834,0.4260,0.0414,0.3671,-1.5753,rough,14.0,2,8.627
5330,170.56,0.7107,5.6834,0.4260,0.0414,0.3671,-1.5753,rough,14.0,2,8.627
5340,170.88,0.7106,5.6834,0.4260,0.0414,0.3671,-1.5753,rough,14.0,2,8.627
5350,171.20,0.7105,5.6834,0.4260,0.0414,0.3671,-1.5753,rough,14.0,2,8.627
5360,171.52,0.7105,5.6834,0.4260,0.0414,0.3671,-1.5753,rough,14.0,2,8.627
5370,171.84,0.7104,5.6834,0.4260,0.0414,0.3671,-1.5753,rough,14.0,2,8.627
5380,172.16,0.7103,5.6834,0.4260,0.0414,0.3671,-1.5753,rough,14.0,2,8.627
5390,172.48,0.7103,5.6834,0.4260,0.0414,0.3671,-1.5753,rough,14.0,2,8.627
5400,172.80,0.7102,5.6834,0.4259,0.0414,0.3671,-1.5753,rough,14.0,2,8.627
5410,173.12,0.7101,5.6834,0.4259,0.0414,0.3671,-1.5753,rough,14.0,2,8.627
5420,173.44,0.7100,5.6834,0.4259,0.0413,0.3671,-1.5753,rough,14.0,2,8.627
5430,173.76,0.7100,5.6834,0.4259,0.0413,0.3671,-1.5753,rough,14.0,2,8.627
5440,174.08,0.7099,5.6834,0.4259,0.0413,0.3671,-1.5753,rough,14.0,2,8.627
5450,174.40,0.7098,5.6834,0.4259,0.0413,0.3671,-1.5753,rough,14.0,2,8.627
5460,174.72,0.7098,5.6834,0.4259,0.0413,0.3671,-1.5753,rough,14.0,2,8.627
5470,175.04,0.7097,5.6834,0.4259,0.0413,0.3671,-1.5753,rough,14.0,2,8.626
5480,175.36,0.7096,5.6834,0.4259,0.0413,0.3671,-1.5753,rough,14.0,2,8.626
5490,175.68,0.7095,5.6834,0.4259,0.0413,0.3671,-1.5753,rough,14.0,2,8.626
5500,176.00,0.7095,5.6834,0.4259,0.0413,0.3671,-1.5753,rough,14.0,2,8.626
5510,176.32,0.7094,5.6834,0.4259,0.0413,0.3671,-1.5753,rough,14.0,2,8.626
5520,176.64,0.7093,5.6834,0.4259,0.0413,0.3671,-1.5753,rough,14.0,2,8.626
5530,176.96,0.7093,5.6834,0.4259,0.0413,0.3671,-1.5753,rough,14.0,2,8.626
5540,177.28,0.7092,5.6834,0.4259,0.0413,0.3671,-1.5753,rough,14.0,2,8.626
5550,177.60,0.7091,5.6834,0.4259,0.0412,0.3671,-1.5753,rough,14.0,2,8.626
5560,177.92,0.7090,5.6834,0.4259,0.0412,0.3671,-1.5753,rough,14.0,2,8.626
5570,178.24,0.7090,5.6834,0.4259,0.0412,0.3671,-1.5753,rough,14.0,2,8.626
5580,178.56,0.7089,5.6834,0.4259,0.0412,0.3671,-1.5753,rough,14.0,2,8.626
5590,178.88,0.7088,5.6834,0.4259,0.0412,0.3671,-1.5753,rough,14.0,2,8.626
5600,179.20,0.7088,5.6834,0.4259,0.0412,0.3671,-1.5753,rough,14.0,2,8.626
5610,179.52,0.7087,5.6834,0.4259,0.0412,0.3671,-1.5753,rough,14.0,2,8.626
5620,179.84,0.7086,5.6834,0.4259,0.0412,0.3671,-1.5753,rough,14.0,2,8.625
5630,180.16,0.7085,5.6834,0.4259,0.0412,0.3671,-1.5753,rough,14.0,2,8.625
5640,180.48,0.7085,5.6834,0.4259,0.0412,0.3671,-1.5753,rough,14.0,2,8.625
5650,180.80,0.7084,5.6834,0.4259,0.0412,0.3671,-1.5753,rough,14.0,2,8.625
5660,181.12,0.7083,5.6834,0.4259,0.0412,0.3671,-1.5753,rough,14.0,2,8.625
5670,181.44,0.7083,5.6834,0.4259,0.0411,0.3671,-1.5753,rough,14.0,2,8.625
5680,181.76,0.7082,5.6834,0.4259,0.0411,0.3671,-1.5753,rough,14.0,2,8.625
5690,182.08,0.7081,5.6834,0.4259,0.0411,0.3671,-1.5753,rough,14.0,2,8.625
5700,182.40,0.7081,5.6834,0.4259,0.0411,0.3671,-1.5753,rough,14.0,2,8.625
5710,182.72,0.7080,5.6834,0.4259,0.0411,0.3671,-1.5753,rough,14.0,2,8.625
5720,183.04,0.7079,5.6834,0.4259,0.0411,0.3671,-1.5753,rough,14.0,2,8.625
5730,183.36,0.7078,5.6834,0.4259,0.0411,0.3671,-1.5753,rough,14.0,2,8.625
5740,183.68,0.7078,5.6834,0.4259,0.0411,0.3671,-1.5753,rough,14.0,2,8.625
5750,184.00,0.7077,5.6834,0.4258,0.0411,0.3671,-1.5753,rough,14.0,2,8.625
5760,184.32,0.7076,5.6834,0.4258,0.0411,0.3671,-1.5753,rough,14.0,2,8.625
5770,184.64,0.7076,5.6834,0.4258,0.0411,0.3671,-1.5753,rough,14.0,2,8.625
5780,184.96,0.7075,5.6834,0.4258,0.0411,0.3671,-1.5753,rough,14.0,2,8.624
5790,185.28,0.7074,5.6834,0.4258,0.0411,0.3671,-1.5753,rough,14.0,2,8.624
5800,185.60,0.7074,5.6834,0.4258,0.0410,0.3671,-1.5753,rough,14.0,2,8.624
5810,185.92,0.7073,5.6834,0.4258,0.0410,0.3671,-1.5753,rough,14.0,2,8.624
5820,186.24,0.7072,5.6834,0.4258,0.0410,0.3671,-1.5752,rough,14.0,2,8.624
5830,186.56,0.7072,5.6834,0.4258,0.0410,0.3671,-1.5752,rough,14.0,2,8.624
5840,186.88,0.7071,5.6834,0.4258,0.0410,0.3671,-1.5752,rough,14.0,2,8.624
5850,187.20,0.7070,5.6834,0.4258,0.0410,0.3672,-1.5752,rough,14.0,2,8.624
5860,187.52,0.7069,5.6834,0.4258,0.0410,0.3672,-1.5752,rough,14.0,2,8.624
5870,187.84,0.7069,5.6834,0.4258,0.0410,0.3672,-1.5752,rough,14.0,2,8.624
5880,188.16,0.7068,5.6834,0.4258,0.0410,0.3672,-1.5752,rough,14.0,2,8.624
5890,188.48,0.7067,5.6834,0.4258,0.0410,0.3672,-1.5752,rough,14.0,2,8.624
5900,188.80,0.7067,5.6834,0.4258,0.0410,0.3672,-1.5752,rough,14.0,2,8.624
5910,189.12,0.7066,5.6834,0.4258,0.0410,0.3672,-1.5752,rough,14.0,2,8.624
5920,189.44,0.7065,5.6835,0.4258,0.0410,0.3672,-1.5752,rough,14.0,2,8.624
5930,189.76,0.7065,5.6835,0.4258,0.0409,0.3672,-1.5752,rough,14.0,2,8.624
5940,190.08,0.7064,5.6835,0.4258,0.0409,0.3672,-1.5752,rough,14.0,2,8.623
5950,190.40,0.7063,5.6835,0.4258,0.0409,0.3672,-1.5752,rough,14.0,2,8.623
5960,190.72,0.7063,5.6835,0.4258,0.0409,0.3672,-1.5752,rough,14.0,2,8.623
5970,191.04,0.7062,5.6835,0.4258,0.0409,0.3672,-1.5752,rough,14.0,2,8.623
5980,191.36,0.7061,5.6835,0.4258,0.0409,0.3672,-1.5752,rough,14.0,2,8.623
5990,191.68,0.7060,5.6835,0.4258,0.0409,0.3672,-1.5752,rough,14.0,2,8.623
6000,192.00,0.7060,5.6835,0.4258,0.0409,0.3672,-1.5752,rough,14.0,2,8.623
6010,192.32,0.7059,5.6835,0.4258,0.0409,0.3672,-1.5752,rough,14.0,2,8.623
6020,192.64,0.7058,5.6835,0.4258,0.0409,0.3672,-1.5752,rough,14.0,2,8.623
6030,192.96,0.7058,5.6835,0.4258,0.0409,0.3672,-1.5752,rough,14.0,2,8.623
6040,193.28,0.7057,5.6835,0.4258,0.0409,0.3672,-1.5752,rough,14.0,2,8.623
6050,193.60,0.7056,5.6835,0.4258,0.0409,0.3672,-1.5752,rough,14.0,2,8.623
6060,193.92,0.7056,5.6835,0.4258,0.0408,0.3672,-1.5752,rough,14.0,2,8.623
6070,194.24,0.7055,5.6835,0.4258,0.0408,0.3672,-1.5752,rough,14.0,2,8.623
6080,194.56,0.7054,5.6835,0.4258,0.0408,0.3672,-1.5752,rough,14.0,2,8.623
6090,194.88,0.7054,5.6835,0.4258,0.0408,0.3672,-1.5752,rough,14.0,2,8.623
6100,195.20,0.7053,5.6835,0.4257,0.0408,0.3672,-1.5752,rough,14.0,2,8.622
6110,195.52,0.7052,5.6835,0.4257,0.0408,0.3672,-1.5752,rough,14.0,2,8.622
6120,195.84,0.7052,5.6835,0.4257,0.0408,0.3672,-1.5752,rough,14.0,2,8.622
6130,196.16,0.7051,5.6835,0.4257,0.0408,0.3672,-1.5752,rough,14.0,2,8.622
6140,196.48,0.7050,5.6835,0.4257,0.0408,0.3672,-1.5752,rough,14.0,2,8.622
6150,196.80,0.7049,5.6835,0.4257,0.0408,0.3672,-1.5752,rough,14.0,2,8.622
6160,197.12,0.7049,5.6835,0.4257,0.0408,0.3672,-1.5752,rough,14.0,2,8.622
6170,197.44,0.7048,5.6835,0.4257,0.0408,0.3672,-1.5752,rough,14.0,2,8.622
6180,197.76,0.7047,5.6835,0.4257,0.0408,0.3672,-1.5752,rough,14.0,2,8.622
6190,198.08,0.7047,5.6835,0.4257,0.0407,0.3672,-1.5752,rough,14.0,2,8.622
6200,198.40,0.7046,5.6835,0.4257,0.0407,0.3672,-1.5752,rough,14.0,2,8.622
6210,198.72,0.7045,5.6835,0.4257,0.0407,0.3672,-1.5752,rough,14.0,2,8.622
6220,199.04,0.7045,5.6835,0.4257,0.0407,0.3672,-1.5752,rough,14.0,2,8.622
6230,199.36,0.7044,5.6835,0.4257,0.0407,0.3672,-1.5752,rough,14.0,2,8.622
6240,199.68,0.7043,5.6835,0.4257,0.0407,0.3672,-1.5752,rough,14.0,2,8.622
6250,200.00,0.7043,5.6835,0.4257,0.0407,0.3672,-1.5752,rough,14.0,2,8.622
6260,200.32,0.7042,5.6835,0.4257,0.0407,0.3672,-1.5752,rough,14.0,2,8.622
6270,200.64,0.7041,5.6835,0.4257,0.0407,0.3672,-1.5752,rough,14.0,2,8.621
6280,200.96,0.7041,5.6835,0.4257,0.0407,0.3672,-1.5752,rough,14.0,2,8.621
6290,201.28,0.7040,5.6835,0.4257,0.0407,0.3672,-1.5752,rough,14.0,2,8.621
6300,201.60,0.7039,5.6835,0.4257,0.0407,0.3672,-1.5752,rough,14.0,2,8.621
6310,201.92,0.7039,5.6835,0.4257,0.0407,0.3672,-1.5752,rough,14.0,2,8.621
6320,202.24,0.7038,5.6835,0.4257,0.0406,0.3672,-1.5752,rough,14.0,2,8.621
6330,202.56,0.7037,5.6835,0.4257,0.0406,0.3672,-1.5752,rough,14.0,2,8.621
6340,202.88,0.7037,5.6835,0.4257,0.0406,0.3672,-1.5752,rough,14.0,2,8.621
6350,203.20,0.7036,5.6835,0.4257,0.0406,0.3672,-1.5752,rough,14.0,2,8.621
6360,203.52,0.7035,5.6835,0.4257,0.0406,0.3672,-1.5752,rough,14.0,2,8.621
6370,203.84,0.7035,5.6835,0.4257,0.0406,0.3672,-1.5752,rough,14.0,2,8.621
6380,204.16,0.7034,5.6835,0.4257,0.0406,0.3672,-1.5752,rough,14.0,2,8.621
6390,204.48,0.7033,5.6835,0.4257,0.0406,0.3672,-1.5752,rough,14.0,2,8.621
6400,204.80,0.7033,5.6835,0.4257,0.0406,0.3672,-1.5752,rough,14.0,2,8.621
6410,205.12,0.7032,5.6835,0.4257,0.0406,0.3672,-1.5752,rough,14.0,2,8.621
6420,205.44,0.7031,5.6835,0.4257,0.0406,0.3672,-1.5752,rough,14.0,2,8.621
6430,205.76,0.7031,5.6835,0.4257,0.0406,0.3672,-1.5752,rough,14.0,2,8.620
6440,206.08,0.7030,5.6835,0.4257,0.0406,0.3672,-1.5752,rough,14.0,2,8.620
6450,206.40,0.7029,5.6835,0.4257,0.0405,0.3672,-1.5752,rough,14.0,2,8.620
6460,206.72,0.7029,5.6835,0.4256,0.0405,0.3672,-1.5752,rough,14.0,2,8.620
6470,207.04,0.7028,5.6835,0.4256,0.0405,0.3672,-1.5752,rough,14.0,2,8.620
6480,207.36,0.7027,5.6835,0.4256,0.0405,0.3672,-1.5752,rough,14.0,2,8.620
6490,207.68,0.7027,5.6835,0.4256,0.0405,0.3672,-1.5751,rough,14.0,2,8.620
6500,208.00,0.7026,5.6835,0.4256,0.0405,0.3672,-1.5751,rough,14.0,2,8.620
6510,208.32,0.7025,5.6835,0.4256,0.0405,0.3672,-1.5751,rough,14.0,2,8.620
6520,208.64,0.7025,5.6835,0.4256,0.0405,0.3672,-1.5751,rough,14.0,2,8.620
6530,208.96,0.7024,5.6835,0.4256,0.0405,0.3672,-1.5751,rough,14.0,2,8.620
6540,209.28,0.7023,5.6835,0.4256,0.0405,0.3672,-1.5751,rough,14.0,2,8.620
6550,209.60,0.7023,5.6835,0.4256,0.0405,0.3672,-1.5751,rough,14.0,2,8.620
6560,209.92,0.7022,5.6835,0.4256,0.0405,0.3672,-1.5751,rough,14.0,2,8.620
6570,210.24,0.7021,5.6835,0.4256,0.0405,0.3672,-1.5751,rough,14.0,2,8.620
6580,210.56,0.7021,5.6835,0.4256,0.0404,0.3672,-1.5751,rough,14.0,2,8.620
6590,210.88,0.7020,5.6835,0.4256,0.0404,0.3672,-1.5751,rough,14.0,2,8.620
6600,211.20,0.7019,5.6835,0.4256,0.0404,0.3672,-1.5751,rough,14.0,2,8.619
6610,211.52,0.7019,5.6835,0.4256,0.0404,0.3673,-1.5751,rough,14.0,2,8.619
6620,211.84,0.7018,5.6835,0.4256,0.0404,0.3673,-1.5751,rough,14.0,2,8.619
6630,212.16,0.7017,5.6836,0.4256,0.0404,0.3673,-1.5751,rough,14.0,2,8.619
6640,212.48,0.7017,5.6836,0.4256,0.0404,0.3673,-1.5751,rough,14.0,2,8.619
6650,212.80,0.7016,5.6836,0.4256,0.0404,0.3673,-1.5751,rough,14.0,2,8.619
6660,213.12,0.7015,5.6836,0.4256,0.0404,0.3673,-1.5751,rough,14.0,2,8.619
6670,213.44,0.7015,5.6836,0.4256,0.0404,0.3673,-1.5751,rough,14.0,2,8.619
6680,213.76,0.7014,5.6836,0.4256,0.0404,0.3673,-1.5751,rough,14.0,2,8.619
6690,214.08,0.7013,5.6836,0.4256,0.0404,0.3673,-1.5751,rough,14.0,2,8.619
6700,214.40,0.7013,5.6836,0.4256,0.0404,0.3673,-1.5751,rough,14.0,2,8.619
6710,214.72,0.7012,5.6836,0.4256,0.0404,0.3673,-1.5751,rough,14.0,2,8.619
6720,215.04,0.7011,5.6836,0.4256,0.0403,0.3673,-1.5751,rough,14.0,2,8.619
6730,215.36,0.7011,5.6836,0.4256,0.0403,0.3673,-1.5751,rough,14.0,2,8.619
6740,215.68,0.7010,5.6836,0.4256,0.0403,0.3673,-1.5751,rough,14.0,2,8.619
6750,216.00,0.7009,5.6836,0.4256,0.0403,0.3673,-1.5751,rough,14.0,2,8.619
6760,216.32,0.7009,5.6836,0.4256,0.0403,0.3673,-1.5751,rough,14.0,2,8.618
6770,216.64,0.7008,5.6836,0.4256,0.0403,0.3673,-1.5751,rough,14.0,2,8.618
6780,216.96,0.7007,5.6836,0.4256,0.0403,0.3673,-1.5751,rough,14.0,2,8.618
6790,217.28,0.7007,5.6836,0.4256,0.0403,0.3673,-1.5751,rough,14.0,2,8.618
6800,217.60,0.7006,5.6836,0.4256,0.0403,0.3673,-1.5751,rough,14.0,2,8.618
6810,217.92,0.7005,5.6836,0.4256,0.0403,0.3673,-1.5751,rough,14.0,2,8.618
6820,218.24,0.7005,5.6836,0.4256,0.0403,0.3673,-1.5751,rough,14.0,2,8.618
6830,218.56,0.7004,5.6836,0.4256,0.0403,0.3673,-1.5751,rough,14.0,2,8.618
6840,218.88,0.7004,5.6836,0.4255,0.0403,0.3673,-1.5751,rough,14.0,2,8.618
6850,219.20,0.7003,5.6836,0.4255,0.0402,0.3673,-1.5751,rough,14.0,2,8.618
6860,219.52,0.7002,5.6836,0.4255,0.0402,0.3673,-1.5751,rough,14.0,2,8.618
6870,219.84,0.7002,5.6836,0.4255,0.0402,0.3673,-1.5751,rough,14.0,2,8.618
6880,220.16,0.7001,5.6836,0.4255,0.0402,0.3673,-1.5751,rough,14.0,2,8.618
6890,220.48,0.7000,5.6836,0.4255,0.0402,0.3673,-1.5751,rough,14.0,2,8.618
6900,220.80,0.7000,5.6836,0.4255,0.0402,0.3673,-1.5751,rough,14.0,2,8.618
6910,221.12,0.6999,5.6836,0.4255,0.0402,0.3673,-1.5751,rough,14.0,2,8.618
6920,221.44,0.6998,5.6836,0.4255,0.0402,0.3673,-1.5751,rough,14.0,2,8.618
6930,221.76,0.6998,5.6836,0.4255,0.0402,0.3673,-1.5751,rough,14.0,2,8.617
6940,222.08,0.6997,5.6836,0.4255,0.0402,0.3673,-1.5751,rough,14.0,2,8.617
6950,222.40,0.6996,5.6836,0.4255,0.0402,0.3673,-1.5751,rough,14.0,2,8.617
6960,222.72,0.6996,5.6836,0.4255,0.0402,0.3673,-1.5751,rough,14.0,2,8.617
6970,223.04,0.6995,5.6836,0.4255,0.0402,0.3673,-1.5751,rough,14.0,2,8.617
6980,223.36,0.6994,5.6836,0.4255,0.0402,0.3673,-1.5751,rough,14.0,2,8.617
6990,223.68,0.6994,5.6836,0.4255,0.0401,0.3673,-1.5751,rough,14.0,2,8.617
7000,224.00,0.6993,5.6836,0.4255,0.0401,0.3673,-1.5751,rough,14.0,2,8.617
7010,224.32,0.6993,5.6836,0.4255,0.0401,0.3673,-1.5751,rough,14.0,2,8.617
7020,224.64,0.6992,5.6836,0.4255,0.0401,0.3673,-1.5751,rough,14.0,2,8.617
7030,224.96,0.6991,5.6836,0.4255,0.0401,0.3673,-1.5751,rough,14.0,2,8.617
7040,225.28,0.6991,5.6836,0.4255,0.0401,0.3673,-1.5751,rough,14.0,2,8.617
7050,225.60,0.6990,5.6836,0.4255,0.0401,0.3673,-1.5751,rough,14.0,2,8.617
7060,225.92,0.6989,5.6836,0.4255,0.0401,0.3673,-1.5751,rough,14.0,2,8.617
7070,226.24,0.6989,5.6836,0.4255,0.0401,0.3673,-1.5751,rough,14.0,2,8.617
7080,226.56,0.6988,5.6836,0.4255,0.0401,0.3673,-1.5751,rough,14.0,2,8.617
7090,226.88,0.6987,5.6836,0.4255,0.0401,0.3673,-1.5751,rough,14.0,2,8.617
7100,227.20,0.6987,5.6836,0.4255,0.0401,0.3673,-1.5751,rough,14.0,2,8.616
7110,227.52,0.6986,5.6836,0.4255,0.0401,0.3673,-1.5751,rough,14.0,2,8.616
7120,227.84,0.6985,5.6836,0.4255,0.0401,0.3673,-1.5751,rough,14.0,2,8.616
7130,228.16,0.6985,5.6836,0.4255,0.0400,0.3673,-1.5751,rough,14.0,2,8.616
7140,228.48,0.6984,5.6836,0.4255,0.0400,0.3673,-1.5751,rough,14.0,2,8.616
7150,228.80,0.6984,5.6836,0.4255,0.0400,0.3673,-1.5751,rough,14.0,2,8.616
7160,229.12,0.6983,5.6836,0.4255,0.0400,0.3673,-1.5751,rough,14.0,2,8.616
7170,229.44,0.6982,5.6836,0.4255,0.0400,0.3673,-1.5751,rough,14.0,2,8.616
7180,229.76,0.6982,5.6836,0.4255,0.0400,0.3673,-1.5751,rough,14.0,2,8.616
7190,230.08,0.6981,5.6836,0.4255,0.0400,0.3673,-1.5750,rough,14.0,2,8.616
7200,230.40,0.6980,5.6836,0.4255,0.0400,0.3673,-1.5750,rough,14.0,2,8.616
7210,230.72,0.6980,5.6836,0.4255,0.0400,0.3673,-1.5750,rough,14.0,2,8.616
7220,231.04,0.6979,5.6836,0.4254,0.0400,0.3673,-1.5750,rough,14.0,2,8.616
7230,231.36,0.6978,5.6836,0.4254,0.0400,0.3673,-1.5750,rough,14.0,2,8.616
7240,231.68,0.6978,5.6836,0.4254,0.0400,0.3673,-1.5750,rough,14.0,2,8.616
7250,232.00,0.6977,5.6836,0.4254,0.0400,0.3673,-1.5750,rough,14.0,2,8.616
7260,232.32,0.6977,5.6836,0.4254,0.0400,0.3673,-1.5750,rough,14.0,2,8.616
7270,232.64,0.6976,5.6836,0.4254,0.0399,0.3673,-1.5750,rough,14.0,2,8.616
7280,232.96,0.6975,5.6836,0.4254,0.0399,0.3673,-1.5750,rough,14.0,2,8.615
7290,233.28,0.6975,5.6836,0.4254,0.0399,0.3673,-1.5750,rough,14.0,2,8.615
7300,233.60,0.6974,5.6836,0.4254,0.0399,0.3673,-1.5750,rough,14.0,2,8.615
7310,233.92,0.6973,5.6836,0.4254,0.0399,0.3673,-1.5750,rough,14.0,2,8.615
7320,234.24,0.6973,5.6836,0.4254,0.0399,0.3673,-1.5750,rough,14.0,2,8.615
7330,234.56,0.6972,5.6836,0.4254,0.0399,0.3673,-1.5750,rough,14.0,2,8.615
7340,234.88,0.6971,5.6836,0.4254,0.0399,0.3673,-1.5750,rough,14.0,2,8.615
7350,235.20,0.6971,5.6836,0.4254,0.0399,0.3673,-1.5750,rough,14.0,2,8.615
7360,235.52,0.6970,5.6836,0.4254,0.0399,0.3673,-1.5750,rough,14.0,2,8.615
7370,235.84,0.6970,5.6837,0.4254,0.0399,0.3673,-1.5750,rough,14.0,2,8.615
7380,236.16,0.6969,5.6837,0.4254,0.0399,0.3673,-1.5750,rough,14.0,2,8.615
7390,236.48,0.6968,5.6837,0.4254,0.0399,0.3673,-1.5750,rough,14.0,2,8.615
7400,236.80,0.6968,5.6837,0.4254,0.0399,0.3673,-1.5750,rough,14.0,2,8.615
7410,237.12,0.6967,5.6837,0.4254,0.0398,0.3673,-1.5750,rough,14.0,2,8.615
7420,237.44,0.6966,5.6837,0.4254,0.0398,0.3674,-1.5750,rough,14.0,2,8.615
7430,237.76,0.6966,5.6837,0.4254,0.0398,0.3674,-1.5750,rough,14.0,2,8.615
7440,238.08,0.6965,5.6837,0.4254,0.0398,0.3674,-1.5750,rough,14.0,2,8.615
7450,238.40,0.6965,5.6837,0.4254,0.0398,0.3674,-1.5750,rough,14.0,2,8.614
7460,238.72,0.6964,5.6837,0.4254,0.0398,0.3674,-1.5750,rough,14.0,2,8.614
7470,239.04,0.6963,5.6837,0.4254,0.0398,0.3674,-1.5750,rough,14.0,2,8.614
7480,239.36,0.6963,5.6837,0.4254,0.0398,0.3674,-1.5750,rough,14.0,2,8.614
7490,239.68,0.6962,5.6837,0.4254,0.0398,0.3674,-1.5750,rough,14.0,2,8.614
7500,240.00,0.6961,5.6837,0.4254,0.0398,0.3674,-1.5750,rough,14.0,2,8.614
7510,240.32,0.6961,5.6837,0.4254,0.0398,0.3674,-1.5750,rough,14.0,2,8.614
7520,240.64,0.6960,5.6837,0.4254,0.0398,0.3674,-1.5750,rough,14.0,2,8.614
7530,240.96,0.6960,5.6837,0.4254,0.0398,0.3674,-1.5750,rough,14.0,2,8.614
7540,241.28,0.6959,5.6837,0.4254,0.0398,0.3674,-1.5750,rough,14.0,2,8.614
7550,241.60,0.6958,5.6837,0.4254,0.0397,0.3674,-1.5750,rough,14.0,2,8.614
7560,241.92,0.6958,5.6837,0.4254,0.0397,0.3674,-1.5750,rough,14.0,2,8.614
7570,242.24,0.6957,5.6837,0.4254,0.0397,0.3674,-1.5750,rough,14.0,2,8.614
7580,242.56,0.6956,5.6837,0.4254,0.0397,0.3674,-1.5750,rough,14.0,2,8.614
7590,242.88,0.6956,5.6837,0.4254,0.0397,0.3674,-1.5750,rough,14.0,2,8.614
7600,243.20,0.6955,5.6837,0.4253,0.0397,0.3674,-1.5750,rough,14.0,2,8.614
7610,243.52,0.6955,5.6837,0.4253,0.0397,0.3674,-1.5750,rough,14.0,2,8.614
7620,243.84,0.6954,5.6837,0.4253,0.0397,0.3674,-1.5750,rough,14.0,2,8.614
7630,244.16,0.6953,5.6837,0.4253,0.0397,0.3674,-1.5750,rough,14.0,2,8.613
7640,244.48,0.6953,5.6837,0.4253,0.0397,0.3674,-1.5750,rough,14.0,2,8.613
7650,244.80,0.6952,5.6837,0.4253,0.0397,0.3674,-1.5750,rough,14.0,2,8.613
7660,245.12,0.6951,5.6837,0.4253,0.0397,0.3674,-1.5750,rough,14.0,2,8.613
7670,245.44,0.6951,5.6837,0.4253,0.0397,0.3674,-1.5750,rough,14.0,2,8.613
7680,245.76,0.6950,5.6837,0.4253,0.0397,0.3674,-1.5750,rough,14.0,2,8.613
7690,246.08,0.6950,5.6837,0.4253,0.0396,0.3674,-1.5750,rough,14.0,2,8.613
7700,246.40,0.6949,5.6837,0.4253,0.0396,0.3674,-1.5750,rough,14.0,2,8.613
7710,246.72,0.6948,5.6837,0.4253,0.0396,0.3674,-1.5750,rough,14.0,2,8.613
7720,247.04,0.6948,5.6837,0.4253,0.0396,0.3674,-1.5750,rough,14.0,2,8.613
7730,247.36,0.6947,5.6837,0.4253,0.0396,0.3674,-1.5750,rough,14.0,2,8.613
7740,247.68,0.6947,5.6837,0.4253,0.0396,0.3674,-1.5750,rough,14.0,2,8.613
7750,248.00,0.6946,5.6837,0.4253,0.0396,0.3674,-1.5750,rough,14.0,2,8.613
7760,248.32,0.6945,5.6837,0.4253,0.0396,0.3674,-1.5750,rough,14.0,2,8.613
7770,248.64,0.6945,5.6837,0.4253,0.0396,0.3674,-1.5750,rough,14.0,2,8.613
7780,248.96,0.6944,5.6837,0.4253,0.0396,0.3674,-1.5750,rough,14.0,2,8.613
7790,249.28,0.6943,5.6837,0.4253,0.0396,0.3674,-1.5750,rough,14.0,2,8.613
7800,249.60,0.6943,5.6837,0.4253,0.0396,0.3674,-1.5750,rough,14.0,2,8.613
7810,249.92,0.6942,5.6837,0.4253,0.0396,0.3674,-1.5750,rough,14.0,2,8.612
7820,250.24,0.6942,5.6837,0.4253,0.0396,0.3674,-1.5750,rough,14.0,2,8.612
7830,250.56,0.6941,5.6837,0.4253,0.0396,0.3674,-1.5750,rough,14.0,2,8.612
7840,250.88,0.6940,5.6837,0.4253,0.0395,0.3674,-1.5750,rough,14.0,2,8.612
7850,251.20,0.6940,5.6837,0.4253,0.0395,0.3674,-1.5750,rough,14.0,2,8.612
7860,251.52,0.6939,5.6837,0.4253,0.0395,0.3674,-1.5750,rough,14.0,2,8.612
7870,251.84,0.6939,5.6837,0.4253,0.0395,0.3674,-1.5750,rough,14.0,2,8.612
7880,252.16,0.6938,5.6837,0.4253,0.0395,0.3674,-1.5750,rough,14.0,2,8.612
7890,252.48,0.6937,5.6837,0.4253,0.0395,0.3674,-1.5750,rough,14.0,2,8.612
7900,252.80,0.6937,5.6837,0.4253,0.0395,0.3674,-1.5750,rough,14.0,2,8.612
7910,253.12,0.6936,5.6837,0.4253,0.0395,0.3674,-1.5750,rough,14.0,2,8.612
7920,253.44,0.6936,5.6837,0.4253,0.0395,0.3674,-1.5750,rough,14.0,2,8.612
7930,253.76,0.6935,5.6837,0.4253,0.0395,0.3674,-1.5749,rough,14.0,2,8.612
7940,254.08,0.6934,5.6837,0.4253,0.0395,0.3674,-1.5749,rough,14.0,2,8.612
7950,254.40,0.6934,5.6837,0.4253,0.0395,0.3674,-1.5749,rough,14.0,2,8.612
7960,254.72,0.6933,5.6837,0.4253,0.0395,0.3674,-1.5749,rough,14.0,2,8.612
7970,255.04,0.6933,5.6837,0.4253,0.0395,0.3674,-1.5749,rough,14.0,2,8.612
7980,255.36,0.6932,5.6837,0.4253,0.0394,0.3674,-1.5749,rough,14.0,2,8.612
7990,255.68,0.6931,5.6837,0.4253,0.0394,0.3674,-1.5749,rough,14.0,2,8.611
8000,256.00,0.6931,5.6837,0.4252,0.0394,0.3674,-1.5749,rough,14.0,2,8.611
8010,256.32,0.6930,5.6837,0.4252,0.0394,0.3674,-1.5749,rough,14.0,2,8.611
8020,256.64,0.6930,5.6837,0.4252,0.0394,0.3674,-1.5749,rough,14.0,2,8.611
8030,256.96,0.6929,5.6837,0.4252,0.0394,0.3674,-1.5749,rough,14.0,2,8.611
8040,257.28,0.6928,5.6837,0.4252,0.0394,0.3674,-1.5749,rough,14.0,2,8.611
8050,257.60,0.6928,5.6837,0.4252,0.0394,0.3674,-1.5749,rough,14.0,2,8.611
8060,257.92,0.6927,5.6837,0.4252,0.0394,0.3674,-1.5749,rough,14.0,2,8.611
8070,258.24,0.6926,5.6837,0.4252,0.0394,0.3674,-1.5749,rough,14.0,2,8.611
8080,258.56,0.6926,5.6837,0.4252,0.0394,0.3674,-1.5749,rough,14.0,2,8.611
8090,258.88,0.6925,5.6837,0.4252,0.0394,0.3674,-1.5749,rough,14.0,2,8.611
8100,259.20,0.6925,5.6837,0.4252,0.0394,0.3674,-1.5749,rough,14.0,2,8.611
