step,time_s,x,y,z,roll,pitch,yaw,terrain,speed,target_idx,dist_to_target
10,0.32,1.0670,-0.7750,0.1830,-0.0000,-0.0362,-0.0000,rough,14.0,0,5.686
20,0.64,1.5153,-0.7887,0.1797,-0.0000,-0.0009,-0.1447,flat,18.0,0,5.347
30,0.96,2.0329,-0.8868,0.1799,-0.0001,-0.0000,-0.3344,flat,18.0,0,4.916
40,1.28,2.5335,-1.0839,0.1799,-0.0002,-0.0000,-0.4770,flat,18.0,0,4.440
50,1.60,3.0074,-1.3517,0.1798,-0.0004,-0.0000,-0.5873,flat,18.0,0,3.937
60,1.92,3.4566,-1.6719,0.1798,-0.0003,-0.0000,-0.6687,flat,18.0,0,3.417
70,2.24,3.8791,-2.0280,0.1798,-0.0003,-0.0000,-0.7458,flat,18.0,0,2.891
80,2.56,4.2708,-2.4165,0.1798,-0.0003,-0.0000,-0.8258,flat,18.0,0,2.362
90,2.88,4.6311,-2.8359,0.1798,-0.0004,-0.0000,-0.9122,flat,18.0,0,1.829
100,3.20,4.9541,-3.2849,0.1798,-0.0004,-0.0000,-1.0123,flat,18.0,0,1.296
110,3.52,5.2283,-3.7620,0.1799,-0.0002,0.0000,-1.1439,flat,18.0,1,0.767
120,3.84,5.3118,-3.9982,0.1798,0.0008,-0.0014,-0.5864,flat,18.0,1,12.283
130,4.16,5.5231,-4.1352,0.1780,-0.0029,-0.0044,-0.1675,rough,14.0,1,12.486
140,4.48,5.8310,-4.1842,0.1798,-0.0005,-0.0001,0.3123,flat,18.0,1,12.645
150,4.80,6.1388,-4.0545,0.1799,-0.0000,-0.0001,0.6672,flat,18.0,1,12.647
160,5.12,6.4337,-3.7606,0.1799,-0.0000,-0.0001,0.9316,flat,18.0,1,12.504
170,5.44,6.6872,-3.3573,0.1799,0.0000,-0.0000,1.1705,flat,18.0,1,12.257
180,5.76,6.8632,-2.8749,0.1799,0.0001,-0.0000,1.3821,flat,18.0,1,11.916
190,6.08,6.9439,-2.3451,0.1799,0.0001,0.0000,1.5612,flat,18.0,1,11.499
200,6.40,6.9324,-1.7955,0.1799,0.0002,-0.0000,1.7021,flat,18.0,1,11.025
210,6.72,6.8473,-1.2467,0.1798,0.0004,-0.0000,1.8012,flat,18.0,1,10.519
220,7.04,6.7097,-0.7050,0.1798,0.0003,-0.0000,1.8750,flat,18.0,1,9.993
230,7.36,6.5333,-0.1717,0.1797,0.0002,-0.0000,1.9324,flat,18.0,1,9.456
240,7.68,6.3269,0.3531,0.1797,0.0002,-0.0000,1.9782,flat,18.0,1,8.910
250,8.00,6.0969,0.8690,0.1797,0.0001,-0.0000,2.0142,flat,18.0,1,8.360
260,8.32,5.8486,1.3779,0.1797,0.0001,-0.0000,2.0451,flat,18.0,1,7.806
270,8.64,5.5846,1.8803,0.1797,0.0001,-0.0000,2.0719,flat,18.0,1,7.248
280,8.96,5.3072,2.3764,0.1797,0.0001,-0.0000,2.0956,flat,18.0,1,6.689
290,9.28,5.0180,2.8666,0.1797,0.0001,-0.0000,2.1169,flat,18.0,1,6.128
300,9.60,4.7185,3.3512,0.1797,0.0001,-0.0000,2.1362,flat,18.0,1,5.566
310,9.92,4.4096,3.8304,0.1797,0.0001,-0.0000,2.1541,flat,18.0,1,5.004
320,10.24,4.0922,4.3045,0.1797,0.0001,-0.0000,2.1708,flat,18.0,1,4.441
330,10.56,3.7668,4.7734,0.1797,0.0001,-0.0000,2.1869,flat,18.0,1,3.878
340,10.88,3.4339,5.2370,0.1797,0.0001,-0.0000,2.2026,flat,18.0,1,3.316
350,11.20,3.0937,5.6953,0.1797,0.0001,0.0000,2.2186,flat,18.0,1,2.756
360,11.52,2.7462,6.1476,0.1797,0.0001,0.0000,2.2356,flat,18.0,1,2.200
370,11.84,2.3911,6.5930,0.1797,0.0001,0.0000,2.2549,flat,18.0,1,1.650
380,12.16,2.0277,7.0292,0.1797,0.0001,0.0000,2.2799,flat,18.0,1,1.118
390,12.48,1.6750,7.4296,0.1798,0.0001,0.0005,2.3744,flat,18.0,2,15.619
400,12.80,1.3937,7.6463,0.1799,-0.0002,-0.0001,2.7275,flat,18.0,2,15.622
410,13.12,0.9969,7.7925,0.1799,0.0000,-0.0001,3.0527,flat,18.0,2,15.509
420,13.44,0.5245,7.8112,0.1799,0.0001,-0.0000,-2.9604,flat,18.0,2,15.258
430,13.76,0.0305,7.6970,0.1799,0.0001,-0.0000,-2.7639,flat,18.0,2,14.895
440,14.08,-0.4533,7.4793,0.1799,0.0001,-0.0000,-2.6158,flat,18.0,2,14.456
450,14.40,-0.9130,7.1874,0.1798,0.0004,-0.0000,-2.5087,flat,18.0,2,13.971
460,14.72,-1.3496,6.8465,0.1798,0.0003,-0.0000,-2.4356,flat,18.0,2,13.459
470,15.04,-1.7632,6.4738,0.1797,0.0002,-0.0000,-2.3725,flat,18.0,2,12.934
480,15.36,-2.1553,6.0746,0.1797,0.0002,-0.0000,-2.3189,flat,18.0,2,12.397
490,15.68,-2.5281,5.6545,0.1797,0.0002,-0.0000,-2.2730,flat,18.0,2,11.853
500,16.00,-2.8842,5.2180,0.1797,0.0001,-0.0000,-2.2340,flat,18.0,2,11.303
510,16.32,-3.2254,4.7673,0.1797,0.0001,-0.0000,-2.1994,flat,18.0,2,10.749
520,16.64,-3.5529,4.3044,0.1797,0.0001,-0.0000,-2.1687,flat,18.0,2,10.190
530,16.96,-3.8676,3.8312,0.1797,0.0001,-0.0000,-2.1414,flat,18.0,2,9.628
540,17.28,-4.1705,3.3492,0.1797,0.0001,-0.0000,-2.1170,flat,18.0,2,9.064
550,17.60,-4.4626,2.8595,0.1797,0.0001,-0.0000,-2.0951,flat,18.0,2,8.498
560,17.92,-4.7447,2.3633,0.1797,0.0001,-0.0000,-2.0753,flat,18.0,2,7.930
570,18.24,-5.0177,1.8613,0.1797,0.0001,-0.0000,-2.0573,flat,18.0,2,7.361
580,18.56,-5.2821,1.3542,0.1797,0.0001,-0.0000,-2.0409,flat,18.0,2,6.791
590,18.88,-5.5386,0.8427,0.1797,0.0001,-0.0000,-2.0257,flat,18.0,2,6.220
600,19.20,-5.7878,0.3272,0.1797,0.0001,-0.0000,-2.0117,flat,18.0,2,5.649
610,19.52,-6.0300,-0.1919,0.1797,0.0000,-0.0000,-1.9985,flat,18.0,2,5.077
620,19.84,-6.2655,-0.7143,0.1797,0.0000,-0.0000,-1.9859,flat,18.0,2,4.505
630,20.16,-6.4946,-1.2396,0.1797,0.0000,-0.0000,-1.9737,flat,18.0,2,3.932
640,20.48,-6.7174,-1.7677,0.1797,0.0000,-0.0000,-1.9616,flat,18.0,2,3.360
650,20.80,-6.9337,-2.2985,0.1797,0.0000,0.0000,-1.9491,flat,18.0,2,2.787
660,21.12,-7.1432,-2.8317,0.1797,0.0000,0.0000,-1.9356,flat,18.0,2,2.214
670,21.44,-7.3451,-3.3673,0.1797,0.0001,0.0000,-1.9198,flat,18.0,2,1.642
680,21.76,-7.5375,-3.9050,0.1797,0.0001,0.0000,-1.8975,flat,18.0,2,1.071
690,22.08,-7.7083,-4.4244,0.1798,0.0002,0.0000,-1.9739,flat,18.0,3,0.849
700,22.40,-7.8358,-4.7713,0.1798,-0.0001,0.0002,-1.8142,rough,14.0,0,13.183
710,22.72,-7.9057,-5.0655,0.1798,-0.0002,-0.0001,-1.4173,rough,14.0,0,13.262
720,23.04,-7.8412,-5.3954,0.1799,-0.0000,0.0001,-1.1431,rough,14.0,0,13.215
730,23.36,-7.6489,-5.7478,0.1799,-0.0001,-0.0000,-0.9098,flat,18.0,0,13.051
740,23.68,-7.3227,-6.0966,0.1799,0.0000,-0.0000,-0.7063,flat,18.0,0,12.765
750,24.00,-6.9083,-6.4040,0.1799,0.0000,-0.0000,-0.5280,flat,18.0,0,12.397
760,24.32,-6.4294,-6.6535,0.1799,0.0001,-0.0000,-0.3709,flat,18.0,0,11.966
770,24.64,-5.9068,-6.8365,0.1799,0.0002,-0.0000,-0.2389,flat,18.0,0,11.487
780,24.96,-5.3602,-6.9559,0.1798,0.0004,-0.0000,-0.1342,flat,18.0,0,10.978
790,25.28,-4.8009,-7.0212,0.1798,0.0004,-0.0000,-0.0507,flat,18.0,0,10.449
800,25.60,-4.2357,-7.0418,0.1797,0.0003,-0.0000,0.0162,flat,18.0,0,9.907
810,25.92,-3.6697,-7.0265,0.1797,0.0002,-0.0000,0.0660,flat,18.0,0,9.356
820,26.24,-3.1040,-6.9841,0.1797,0.0001,-0.0000,0.1054,flat,18.0,0,8.801
830,26.56,-2.5393,-6.9202,0.1797,0.0001,-0.0000,0.1376,flat,18.0,0,8.241
840,26.88,-1.9759,-6.8385,0.1797,0.0001,-0.0000,0.1647,flat,18.0,0,7.679
850,27.20,-1.4141,-6.7419,0.1797,0.0001,-0.0000,0.1880,flat,18.0,0,7.115
860,27.52,-0.8540,-6.6325,0.1797,0.0001,-0.0000,0.2084,flat,18.0,0,6.549
870,27.84,-0.2957,-6.5118,0.1797,0.0001,-0.0000,0.2263,flat,18.0,0,5.982
880,28.16,0.2608,-6.3812,0.1797,0.0001,-0.0000,0.2425,flat,18.0,0,5.414
890,28.48,0.8156,-6.2418,0.1797,0.0001,-0.0000,0.2572,flat,18.0,0,4.845
900,28.80,1.3684,-6.0942,0.1797,0.0000,-0.0000,0.2710,flat,18.0,0,4.276
910,29.12,1.9193,-5.9392,0.1797,0.0000,-0.0000,0.2840,flat,18.0,0,3.708
920,29.44,2.4682,-5.7769,0.1797,0.0000,-0.0000,0.2968,flat,18.0,0,3.139
930,29.76,3.0149,-5.6076,0.1797,0.0000,0.0000,0.3099,flat,18.0,0,2.571
940,30.08,3.5589,-5.4312,0.1797,0.0000,0.0000,0.3241,flat,18.0,0,2.005
950,30.40,4.0993,-5.2469,0.1797,0.0001,0.0000,0.3412,flat,18.0,0,1.442
960,30.72,4.6337,-5.0535,0.1797,0.0001,0.0000,0.3672,flat,18.0,0,0.889
970,31.04,5.0545,-4.8801,0.1798,-0.0003,0.0000,0.5624,flat,18.0,1,13.031
980,31.36,5.3794,-4.6236,0.1799,-0.0000,-0.0000,0.8247,flat,18.0,1,12.893
990,31.68,5.6672,-4.2507,0.1799,0.0000,-0.0000,1.0535,flat,18.0,1,12.646
1000,32.00,5.8937,-3.7924,0.1799,0.0000,-0.0000,1.2592,flat,18.0,1,12.309
1010,32.32,6.0373,-3.2764,0.1799,0.0001,-0.0000,1.4368,flat,18.0,1,11.897
1020,32.64,6.0942,-2.7291,0.1799,0.0001,-0.0000,1.5842,flat,18.0,1,11.428
1030,32.96,6.0736,-2.1724,0.1798,0.0004,-0.0000,1.6922,flat,18.0,1,10.922
1040,33.28,5.9959,-1.6177,0.1798,0.0004,-0.0000,1.7705,flat,18.0,1,10.396
1050,33.60,5.8764,-1.0678,0.1797,0.0002,-0.0000,1.8303,flat,18.0,1,9.858
1060,33.92,5.7250,-0.5237,0.1797,0.0002,-0.0000,1.8777,flat,18.0,1,9.310
1070,34.24,5.5486,0.0136,0.1797,0.0001,-0.0000,1.9140,flat,18.0,1,8.758
1080,34.56,5.3529,0.5457,0.1797,0.0001,-0.0000,1.9447,flat,18.0,1,8.203
1090,34.88,5.1411,1.0727,0.1797,0.0001,-0.0000,1.9711,flat,18.0,1,7.644
1100,35.20,4.9155,1.5950,0.1797,0.0001,-0.0000,1.9942,flat,18.0,1,7.083
1110,35.52,4.6779,2.1127,0.1797,0.0001,-0.0000,2.0147,flat,18.0,1,6.521
1120,35.84,4.4298,2.6262,0.1797,0.0001,-0.0000,2.0330,flat,18.0,1,5.957
1130,36.16,4.1723,3.1355,0.1797,0.0001,-0.0000,2.0498,flat,18.0,1,5.392
1140,36.48,3.9064,3.6409,0.1797,0.0001,-0.0000,2.0652,flat,18.0,1,4.828
1150,36.80,3.6326,4.1424,0.1797,0.0001,-0.0000,2.0798,flat,18.0,1,4.263
1160,37.12,3.3516,4.6401,0.1797,0.0000,-0.0000,2.0937,flat,18.0,1,3.698
1170,37.44,3.0637,5.1338,0.1797,0.0000,-0.0000,2.1075,flat,18.0,1,3.135
1180,37.76,2.7689,5.6234,0.1797,0.0000,0.0000,2.1215,flat,18.0,1,2.573
1190,38.08,2.4673,6.1084,0.1797,0.0001,0.0000,2.1366,flat,18.0,1,2.015
1200,38.40,2.1585,6.5877,0.1797,0.0001,0.0000,2.1541,flat,18.0,1,1.466
1210,38.72,1.8414,7.0592,0.1797,0.0001,0.0000,2.1781,flat,18.0,1,0.938
1220,39.04,1.5785,7.4229,0.1798,-0.0001,0.0002,2.4061,flat,18.0,2,15.554
1230,39.36,1.2900,7.6296,0.1799,-0.0001,-0.0001,2.7565,flat,18.0,2,15.547
1240,39.68,0.9480,7.7503,0.1799,-0.0000,-0.0001,3.0068,flat,18.0,2,15.446
1250,40.00,0.4909,7.7915,0.1799,-0.0000,-0.0000,-3.0007,flat,18.0,2,15.223
1260,40.32,-0.0013,7.6989,0.1799,0.0000,-0.0000,-2.7909,flat,18.0,2,14.879
1270,40.64,-0.4871,7.4963,0.1799,0.0001,-0.0000,-2.6362,flat,18.0,2,14.453
1280,40.96,-0.9503,7.2142,0.1799,0.0003,-0.0000,-2.5214,flat,18.0,2,13.976
1290,41.28,-1.3895,6.8786,0.1798,0.0003,-0.0000,-2.4440,flat,18.0,2,13.468
1300,41.60,-1.8055,6.5095,0.1797,0.0002,-0.0000,-2.3790,flat,18.0,2,12.945
1310,41.92,-2.1994,6.1130,0.1797,0.0002,-0.0000,-2.3232,flat,18.0,2,12.411
1320,42.24,-2.5733,5.6946,0.1797,0.0002,-0.0000,-2.2754,flat,18.0,2,11.869
1330,42.56,-2.9298,5.2591,0.1797,0.0001,-0.0000,-2.2350,flat,18.0,2,11.320
1340,42.88,-3.2711,4.8088,0.1797,0.0001,-0.0000,-2.1992,flat,18.0,2,10.766
1350,43.20,-3.5981,4.3459,0.1797,0.0001,-0.0000,-2.1675,flat,18.0,2,10.208
1360,43.52,-3.9119,3.8724,0.1797,0.0001,-0.0000,-2.1393,flat,18.0,2,9.647
1370,43.84,-4.2136,3.3899,0.1797,0.0001,-0.0000,-2.1141,flat,18.0,2,9.083
1380,44.16,-4.5041,2.8994,0.1797,0.0001,-0.0000,-2.0915,flat,18.0,2,8.518
1390,44.48,-4.7843,2.4023,0.1797,0.0001,-0.0000,-2.0712,flat,18.0,2,7.950
1400,44.80,-5.0550,1.8992,0.1797,0.0001,-0.0000,-2.0527,flat,18.0,2,7.381
1410,45.12,-5.3170,1.3910,0.1797,0.0001,-0.0000,-2.0358,flat,18.0,2,6.812
1420,45.44,-5.5709,0.8782,0.1797,0.0001,-0.0000,-2.0203,flat,18.0,2,6.241
1430,45.76,-5.8172,0.3614,0.1797,0.0001,-0.0000,-2.0059,flat,18.0,2,5.670
1440,46.08,-6.0563,-0.1591,0.1797,0.0000,-0.0000,-1.9923,flat,18.0,2,5.098
1450,46.40,-6.2886,-0.6829,0.1797,0.0000,-0.0000,-1.9795,flat,18.0,2,4.526
1460,46.72,-6.5143,-1.2096,0.1797,0.0000,-0.0000,-1.9670,flat,18.0,2,3.953
1470,47.04,-6.7335,-1.7392,0.1797,0.0000,-0.0000,-1.9547,flat,18.0,2,3.381
1480,47.36,-6.9461,-2.2714,0.1797,0.0000,0.0000,-1.9420,flat,18.0,2,2.808
1490,47.68,-7.1519,-2.8060,0.1797,0.0000,0.0000,-1.9284,flat,18.0,2,2.235
1500,48.00,-7.3499,-3.3431,0.1797,0.0001,0.0000,-1.9124,flat,18.0,2,1.663
1510,48.32,-7.5383,-3.8822,0.1797,0.0001,0.0000,-1.8902,flat,18.0,2,1.092
1520,48.64,-7.7042,-4.4076,0.1798,0.0001,0.0001,-1.9432,flat,18.0,3,0.862
1530,48.96,-7.8189,-4.7689,0.1798,-0.0002,0.0002,-1.7873,rough,14.0,0,13.166
1540,49.28,-7.8802,-5.0507,0.1798,-0.0000,0.0002,-1.4328,rough,14.0,0,13.236
1550,49.60,-7.8256,-5.3608,0.1799,0.0000,0.0001,-1.1561,rough,14.0,0,13.197
1560,49.92,-7.6446,-5.7041,0.1799,-0.0000,-0.0001,-0.9207,flat,18.0,0,13.043
1570,50.24,-7.3232,-6.0549,0.1799,0.0000,-0.0000,-0.7152,flat,18.0,0,12.760
1580,50.56,-6.9121,-6.3648,0.1799,0.0001,-0.0000,-0.5364,flat,18.0,0,12.395
1590,50.88,-6.4356,-6.6175,0.1799,0.0001,-0.0000,-0.3786,flat,18.0,0,11.966
1600,51.20,-5.9146,-6.8042,0.1799,0.0002,-0.0000,-0.2456,flat,18.0,0,11.489
1610,51.52,-5.3689,-6.9269,0.1798,0.0004,-0.0000,-0.1400,flat,18.0,0,10.981
1620,51.84,-4.8102,-6.9953,0.1798,0.0004,-0.0000,-0.0558,flat,18.0,0,10.452
1630,52.16,-4.2452,-7.0187,0.1797,0.0003,-0.0000,0.0117,flat,18.0,0,9.910
1640,52.48,-3.6791,-7.0059,0.1797,0.0002,-0.0000,0.0623,flat,18.0,0,9.360
1650,52.80,-3.1132,-6.9656,0.1797,0.0001,-0.0000,0.1021,flat,18.0,0,8.804
1660,53.12,-2.5484,-6.9035,0.1797,0.0001,-0.0000,0.1345,flat,18.0,0,8.245
1670,53.44,-1.9848,-6.8236,0.1797,0.0001,-0.0000,0.1619,flat,18.0,0,7.683
1680,53.76,-1.4228,-6.7286,0.1797,0.0001,-0.0000,0.1853,flat,18.0,0,7.119
1690,54.08,-0.8624,-6.6207,0.1797,0.0001,-0.0000,0.2058,flat,18.0,0,6.553
1700,54.40,-0.3038,-6.5015,0.1797,0.0001,-0.0000,0.2239,flat,18.0,0,5.986
1710,54.72,0.2531,-6.3723,0.1797,0.0001,-0.0000,0.2401,flat,18.0,0,5.418
1720,55.04,0.8081,-6.2342,0.1797,0.0001,-0.0000,0.2549,flat,18.0,0,4.850
1730,55.36,1.3613,-6.0879,0.1797,0.0000,-0.0000,0.2687,flat,18.0,0,4.281
1740,55.68,1.9125,-5.9340,0.1797,0.0000,-0.0000,0.2818,flat,18.0,0,3.712
1750,56.00,2.4618,-5.7730,0.1797,0.0000,-0.0000,0.2947,flat,18.0,0,3.143
1760,56.32,3.0088,-5.6049,0.1797,0.0000,0.0000,0.3078,flat,18.0,0,2.575
1770,56.64,3.5532,-5.4295,0.1797,0.0000,0.0000,0.3220,flat,18.0,0,2.009
1780,56.96,4.0940,-5.2464,0.1797,0.0001,0.0000,0.3392,flat,18.0,0,1.446
1790,57.28,4.6288,-5.0541,0.1797,0.0001,0.0000,0.3650,flat,18.0,0,0.893
1800,57.60,5.0500,-4.8817,0.1798,-0.0003,0.0000,0.5600,flat,18.0,1,13.031
1810,57.92,5.3753,-4.6264,0.1799,-0.0000,-0.0000,0.8226,flat,18.0,1,12.894
1820,58.24,5.6635,-4.2542,0.1799,0.0000,-0.0000,1.0516,flat,18.0,1,12.648
1830,58.56,5.8907,-3.7966,0.1799,0.0000,-0.0000,1.2575,flat,18.0,1,12.311
1840,58.88,6.0351,-3.2810,0.1799,0.0001,-0.0000,1.4352,flat,18.0,1,11.900
1850,59.20,6.0927,-2.7338,0.1799,0.0001,-0.0000,1.5831,flat,18.0,1,11.431
1860,59.52,6.0727,-2.1772,0.1798,0.0004,-0.0000,1.6915,flat,18.0,1,10.926
1870,59.84,5.9954,-1.6224,0.1798,0.0004,-0.0000,1.7699,flat,18.0,1,10.400
1880,60.16,5.8763,-1.0724,0.1797,0.0002,-0.0000,1.8298,flat,18.0,1,9.862
1890,60.48,5.7252,-0.5283,0.1797,0.0002,-0.0000,1.8772,flat,18.0,1,9.314
1900,60.80,5.5489,0.0091,0.1797,0.0001,-0.0000,1.9136,flat,18.0,1,8.763
1910,61.12,5.3535,0.5412,0.1797,0.0001,-0.0000,1.9444,flat,18.0,1,8.207
1920,61.44,5.1418,1.0683,0.1797,0.0001,-0.0000,1.9708,flat,18.0,1,7.648
1930,61.76,4.9164,1.5907,0.1797,0.0001,-0.0000,1.9939,flat,18.0,1,7.087
1940,62.08,4.6789,2.1085,0.1797,0.0001,-0.0000,2.0144,flat,18.0,1,6.525
1950,62.40,4.4310,2.6220,0.1797,0.0001,-0.0000,2.0328,flat,18.0,1,5.961
1960,62.72,4.1736,3.1314,0.1797,0.0001,-0.0000,2.0495,flat,18.0,1,5.397
1970,63.04,3.9078,3.6369,0.1797,0.0001,-0.0000,2.0650,flat,18.0,1,4.832
1980,63.36,3.6342,4.1384,0.1797,0.0001,-0.0000,2.0795,flat,18.0,1,4.267
1990,63.68,3.3533,4.6361,0.1797,0.0000,-0.0000,2.0935,flat,18.0,1,3.702
2000,64.00,3.0654,5.1299,0.1797,0.0000,-0.0000,2.1072,flat,18.0,1,3.139
2010,64.32,2.7708,5.6196,0.1797,0.0000,0.0000,2.1213,flat,18.0,1,2.577
2020,64.64,2.4693,6.1046,0.1797,0.0001,0.0000,2.1363,flat,18.0,1,2.019
2030,64.96,2.1606,6.5841,0.1797,0.0001,0.0000,2.1539,flat,18.0,1,1.470
2040,65.28,1.8436,7.0557,0.1797,0.0001,0.0000,2.1777,flat,18.0,1,0.942
2050,65.60,1.5808,7.4195,0.1798,-0.0001,0.0002,2.4056,flat,18.0,2,15.553
2060,65.92,1.2925,7.6263,0.1799,-0.0001,-0.0001,2.7560,flat,18.0,2,15.546
2070,66.24,0.9506,7.7472,0.1799,0.0000,-0.0001,3.0063,flat,18.0,2,15.445
2080,66.56,0.4935,7.7886,0.1799,-0.0000,-0.0000,-3.0011,flat,18.0,2,15.222
2090,66.88,0.0013,7.6962,0.1799,0.0000,-0.0000,-2.7914,flat,18.0,2,14.878
2100,67.20,-0.4846,7.4938,0.1799,0.0001,-0.0000,-2.6366,flat,18.0,2,14.452
2110,67.52,-0.9479,7.2119,0.1799,0.0003,-0.0000,-2.5217,flat,18.0,2,13.975
2120,67.84,-1.3872,6.8765,0.1798,0.0003,-0.0000,-2.4443,flat,18.0,2,13.467
2130,68.16,-1.8033,6.5075,0.1797,0.0002,-0.0000,-2.3793,flat,18.0,2,12.944
2140,68.48,-2.1973,6.1111,0.1797,0.0002,-0.0000,-2.3234,flat,18.0,2,12.410
2150,68.80,-2.5712,5.6928,0.1797,0.0002,-0.0000,-2.2756,flat,18.0,2,11.868
2160,69.12,-2.9279,5.2573,0.1797,0.0001,-0.0000,-2.2352,flat,18.0,2,11.319
2170,69.44,-3.2692,4.8071,0.1797,0.0001,-0.0000,-2.1995,flat,18.0,2,10.766
2180,69.76,-3.5964,4.3444,0.1797,0.0001,-0.0000,-2.1678,flat,18.0,2,10.208
2190,70.08,-3.9103,3.8710,0.1797,0.0001,-0.0000,-2.1396,flat,18.0,2,9.646
2200,70.40,-4.2121,3.3885,0.1797,0.0001,-0.0000,-2.1144,flat,18.0,2,9.083
2210,70.72,-4.5027,2.8981,0.1797,0.0001,-0.0000,-2.0918,flat,18.0,2,8.517
2220,71.04,-4.7830,2.4010,0.1797,0.0001,-0.0000,-2.0714,flat,18.0,2,7.949
2230,71.36,-5.0539,1.8980,0.1797,0.0001,-0.0000,-2.0529,flat,18.0,2,7.381
2240,71.68,-5.3160,1.3898,0.1797,0.0001,-0.0000,-2.0360,flat,18.0,2,6.811
2250,72.00,-5.5700,0.8771,0.1797,0.0001,-0.0000,-2.0205,flat,18.0,2,6.240
2260,72.32,-5.8164,0.3603,0.1797,0.0001,-0.0000,-2.0061,flat,18.0,2,5.669
2270,72.64,-6.0556,-0.1601,0.1797,0.0000,-0.0000,-1.9926,flat,18.0,2,5.097
2280,72.96,-6.2880,-0.6838,0.1797,0.0000,-0.0000,-1.9797,flat,18.0,2,4.525
2290,73.28,-6.5138,-1.2105,0.1797,0.0000,-0.0000,-1.9672,flat,18.0,2,3.953
2300,73.60,-6.7331,-1.7400,0.1797,0.0000,-0.0000,-1.9549,flat,18.0,2,3.380
2310,73.92,-6.9459,-2.2721,0.1797,0.0000,0.0000,-1.9422,flat,18.0,2,2.807
2320,74.24,-7.1517,-2.8068,0.1797,0.0000,0.0000,-1.9286,flat,18.0,2,2.235
2330,74.56,-7.3499,-3.3438,0.1797,0.0001,0.0000,-1.9126,flat,18.0,2,1.662
2340,74.88,-7.5384,-3.8828,0.1797,0.0001,0.0000,-1.8903,flat,18.0,2,1.091
2350,75.20,-7.7044,-4.4082,0.1798,0.0001,0.0001,-1.9433,flat,18.0,3,0.862
2360,75.52,-7.8191,-4.7695,0.1798,-0.0002,0.0002,-1.7874,rough,14.0,0,13.166
2370,75.84,-7.8804,-5.0513,0.1798,-0.0000,0.0002,-1.4328,rough,14.0,0,13.236
2380,76.16,-7.8259,-5.3613,0.1799,0.0000,0.0001,-1.1561,rough,14.0,0,13.197
2390,76.48,-7.6448,-5.7047,0.1799,-0.0000,-0.0001,-0.9207,flat,18.0,0,13.043
2400,76.80,-7.3234,-6.0555,0.1799,0.0000,-0.0000,-0.7152,flat,18.0,0,12.761
2410,77.12,-6.9123,-6.3653,0.1799,0.0001,-0.0000,-0.5364,flat,18.0,0,12.395
2420,77.44,-6.4358,-6.6181,0.1799,0.0001,-0.0000,-0.3786,flat,18.0,0,11.966
2430,77.76,-5.9148,-6.8047,0.1799,0.0002,-0.0000,-0.2455,flat,18.0,0,11.489
2440,78.08,-5.3691,-6.9274,0.1798,0.0004,-0.0000,-0.1399,flat,18.0,0,10.981
2450,78.40,-4.8104,-6.9958,0.1798,0.0004,-0.0000,-0.0557,flat,18.0,0,10.452
2460,78.72,-4.2454,-7.0192,0.1797,0.0003,-0.0000,0.0118,flat,18.0,0,9.910
2470,79.04,-3.6793,-7.0063,0.1797,0.0002,-0.0000,0.0623,flat,18.0,0,9.360
2480,79.36,-3.1135,-6.9660,0.1797,0.0001,-0.0000,0.1021,flat,18.0,0,8.805
2490,79.68,-2.5486,-6.9039,0.1797,0.0001,-0.0000,0.1345,flat,18.0,0,8.245
2500,80.00,-1.9850,-6.8240,0.1797,0.0001,-0.0000,0.1619,flat,18.0,0,7.683
2510,80.32,-1.4230,-6.7290,0.1797,0.0001,-0.0000,0.1854,flat,18.0,0,7.119
2520,80.64,-0.8626,-6.6210,0.1797,0.0001,-0.0000,0.2058,flat,18.0,0,6.553
2530,80.96,-0.3040,-6.5018,0.1797,0.0001,-0.0000,0.2239,flat,18.0,0,5.986
2540,81.28,0.2529,-6.3726,0.1797,0.0001,-0.0000,0.2401,flat,18.0,0,5.418
2550,81.60,0.8079,-6.2344,0.1797,0.0001,-0.0000,0.2550,flat,18.0,0,4.850
2560,81.92,1.3610,-6.0881,0.1797,0.0000,-0.0000,0.2687,flat,18.0,0,4.281
2570,82.24,1.9123,-5.9343,0.1797,0.0000,-0.0000,0.2819,flat,18.0,0,3.712
2580,82.56,2.4615,-5.7732,0.1797,0.0000,-0.0000,0.2947,flat,18.0,0,3.144
2590,82.88,3.0085,-5.6050,0.1797,0.0000,0.0000,0.3078,flat,18.0,0,2.576
2600,83.20,3.5529,-5.4297,0.1797,0.0000,0.0000,0.3221,flat,18.0,0,2.009
2610,83.52,4.0937,-5.2466,0.1797,0.0001,0.0000,0.3392,flat,18.0,0,1.446
2620,83.84,4.6286,-5.0542,0.1797,0.0001,0.0000,0.3651,flat,18.0,0,0.893
2630,84.16,5.0497,-4.8818,0.1798,-0.0003,0.0000,0.5601,flat,18.0,1,13.031
2640,84.48,5.3750,-4.6265,0.1799,-0.0000,-0.0000,0.8226,flat,18.0,1,12.894
2650,84.80,5.6632,-4.2543,0.1799,0.0000,-0.0000,1.0516,flat,18.0,1,12.648
2660,85.12,5.8904,-3.7967,0.1799,0.0000,-0.0000,1.2575,flat,18.0,1,12.311
2670,85.44,6.0348,-3.2811,0.1799,0.0001,-0.0000,1.4352,flat,18.0,1,11.900
2680,85.76,6.0924,-2.7339,0.1799,0.0001,-0.0000,1.5831,flat,18.0,1,11.431
2690,86.08,6.0724,-2.1773,0.1798,0.0004,-0.0000,1.6915,flat,18.0,1,10.926
2700,86.40,5.9952,-1.6225,0.1798,0.0004,-0.0000,1.7699,flat,18.0,1,10.400
2710,86.72,5.8761,-1.0725,0.1797,0.0002,-0.0000,1.8298,flat,18.0,1,9.861
2720,87.04,5.7249,-0.5283,0.1797,0.0002,-0.0000,1.8772,flat,18.0,1,9.314
2730,87.36,5.5487,0.0091,0.1797,0.0001,-0.0000,1.9136,flat,18.0,1,8.762
2740,87.68,5.3532,0.5412,0.1797,0.0001,-0.0000,1.9444,flat,18.0,1,8.207
2750,88.00,5.1416,1.0683,0.1797,0.0001,-0.0000,1.9708,flat,18.0,1,7.648
2760,88.32,4.9161,1.5906,0.1797,0.0001,-0.0000,1.9939,flat,18.0,1,7.087
2770,88.64,4.6787,2.1084,0.1797,0.0001,-0.0000,2.0144,flat,18.0,1,6.525
2780,88.96,4.4308,2.6219,0.1797,0.0001,-0.0000,2.0328,flat,18.0,1,5.961
2790,89.28,4.1734,3.1314,0.1797,0.0001,-0.0000,2.0495,flat,18.0,1,5.397
2800,89.60,3.9076,3.6368,0.1797,0.0001,-0.0000,2.0650,flat,18.0,1,4.832
2810,89.92,3.6340,4.1384,0.1797,0.0001,-0.0000,2.0795,flat,18.0,1,4.267
2820,90.24,3.3531,4.6361,0.1797,0.0000,-0.0000,2.0935,flat,18.0,1,3.702
2830,90.56,3.0653,5.1299,0.1797,0.0000,-0.0000,2.1072,flat,18.0,1,3.139
2840,90.88,2.7707,5.6196,0.1797,0.0000,0.0000,2.1212,flat,18.0,1,2.577
2850,91.20,2.4692,6.1046,0.1797,0.0001,0.0000,2.1363,flat,18.0,1,2.019
2860,91.52,2.1605,6.5841,0.1797,0.0001,0.0000,2.1538,flat,18.0,1,1.470
2870,91.84,1.8436,7.0557,0.1797,0.0001,0.0000,2.1777,flat,18.0,1,0.941
2880,92.16,1.5808,7.4196,0.1798,-0.0001,0.0002,2.4056,flat,18.0,2,15.553
2890,92.48,1.2925,7.6264,0.1799,-0.0001,-0.0001,2.7560,flat,18.0,2,15.546
2900,92.80,0.9505,7.7472,0.1799,-0.0000,-0.0001,3.0063,flat,18.0,2,15.445
2910,93.12,0.4935,7.7886,0.1799,-0.0000,-0.0000,-3.0011,flat,18.0,2,15.222
2920,93.44,0.0013,7.6963,0.1799,0.0000,-0.0000,-2.7914,flat,18.0,2,14.878
2930,93.76,-0.4847,7.4939,0.1799,0.0001,-0.0000,-2.6366,flat,18.0,2,14.452
2940,94.08,-0.9480,7.2120,0.1799,0.0003,-0.0000,-2.5217,flat,18.0,2,13.975
2950,94.40,-1.3872,6.8766,0.1798,0.0003,-0.0000,-2.4443,flat,18.0,2,13.467
2960,94.72,-1.8034,6.5076,0.1797,0.0002,-0.0000,-2.3793,flat,18.0,2,12.944
2970,95.04,-2.1974,6.1112,0.1797,0.0002,-0.0000,-2.3235,flat,18.0,2,12.410
2980,95.36,-2.5713,5.6928,0.1797,0.0002,-0.0000,-2.2757,flat,18.0,2,11.868
2990,95.68,-2.9280,5.2574,0.1797,0.0001,-0.0000,-2.2352,flat,18.0,2,11.319
3000,96.00,-3.2693,4.8072,0.1797,0.0001,-0.0000,-2.1995,flat,18.0,2,10.766
3010,96.32,-3.5964,4.3445,0.1797,0.0001,-0.0000,-2.1678,flat,18.0,2,10.208
3020,96.64,-3.9104,3.8711,0.1797,0.0001,-0.0000,-2.1396,flat,18.0,2,9.646
3030,96.96,-4.2122,3.3885,0.1797,0.0001,-0.0000,-2.1144,flat,18.0,2,9.083
3040,97.28,-4.5028,2.8982,0.1797,0.0001,-0.0000,-2.0918,flat,18.0,2,8.517
3050,97.60,-4.7831,2.4011,0.1797,0.0001,-0.0000,-2.0714,flat,18.0,2,7.950
3060,97.92,-5.0540,1.8981,0.1797,0.0001,-0.0000,-2.0529,flat,18.0,2,7.381
3070,98.24,-5.3161,1.3899,0.1797,0.0001,-0.0000,-2.0360,flat,18.0,2,6.811
3080,98.56,-5.5701,0.8772,0.1797,0.0001,-0.0000,-2.0205,flat,18.0,2,6.240
3090,98.88,-5.8165,0.3604,0.1797,0.0001,-0.0000,-2.0061,flat,18.0,2,5.669
3100,99.20,-6.0557,-0.1600,0.1797,0.0000,-0.0000,-1.9926,flat,18.0,2,5.097
3110,99.52,-6.2881,-0.6837,0.1797,0.0000,-0.0000,-1.9797,flat,18.0,2,4.525
3120,99.84,-6.5139,-1.2104,0.1797,0.0000,-0.0000,-1.9672,flat,18.0,2,3.953
3130,100.16,-6.7332,-1.7399,0.1797,0.0000,-0.0000,-1.9549,flat,18.0,2,3.380
3140,100.48,-6.9459,-2.2721,0.1797,0.0000,0.0000,-1.9422,flat,18.0,2,2.807
3150,100.80,-7.1518,-2.8067,0.1797,0.0000,0.0000,-1.9286,flat,18.0,2,2.235
3160,101.12,-7.3499,-3.3437,0.1797,0.0001,0.0000,-1.9126,flat,18.0,2,1.662
3170,101.44,-7.5384,-3.8828,0.1797,0.0001,0.0000,-1.8903,flat,18.0,2,1.091
3180,101.76,-7.7044,-4.4082,0.1798,0.0001,0.0001,-1.9433,flat,18.0,3,0.862
3190,102.08,-7.8191,-4.7694,0.1798,-0.0002,0.0002,-1.7874,rough,14.0,0,13.166
3200,102.40,-7.8804,-5.0511,0.1798,-0.0000,0.0002,-1.4328,rough,14.0,0,13.236
3210,102.72,-7.8258,-5.3612,0.1799,0.0000,0.0001,-1.1561,rough,14.0,0,13.197
3220,103.04,-7.6448,-5.7046,0.1799,-0.0000,-0.0001,-0.9207,flat,18.0,0,13.043
3230,103.36,-7.3234,-6.0554,0.1799,0.0000,-0.0000,-0.7152,flat,18.0,0,12.761
3240,103.68,-6.9123,-6.3652,0.1799,0.0001,-0.0000,-0.5364,flat,18.0,0,12.395
3250,104.00,-6.4358,-6.6180,0.1799,0.0001,-0.0000,-0.3786,flat,18.0,0,11.966
3260,104.32,-5.9148,-6.8046,0.1799,0.0002,-0.0000,-0.2455,flat,18.0,0,11.489
3270,104.64,-5.3691,-6.9274,0.1798,0.0004,-0.0000,-0.1399,flat,18.0,0,10.981
3280,104.96,-4.8104,-6.9957,0.1798,0.0004,-0.0000,-0.0557,flat,18.0,0,10.452
3290,105.28,-4.2454,-7.0191,0.1797,0.0003,-0.0000,0.0118,flat,18.0,0,9.910
3300,105.60,-3.6793,-7.0062,0.1797,0.0002,-0.0000,0.0623,flat,18.0,0,9.360
3310,105.92,-3.1134,-6.9659,0.1797,0.0001,-0.0000,0.1021,flat,18.0,0,8.805
3320,106.24,-2.5486,-6.9038,0.1797,0.0001,-0.0000,0.1345,flat,18.0,0,8.245
3330,106.56,-1.9850,-6.8239,0.1797,0.0001,-0.0000,0.1619,flat,18.0,0,7.683
3340,106.88,-1.4229,-6.7289,0.1797,0.0001,-0.0000,0.1854,flat,18.0,0,7.119
3350,107.20,-0.8626,-6.6209,0.1797,0.0001,-0.0000,0.2058,flat,18.0,0,6.553
3360,107.52,-0.3039,-6.5017,0.1797,0.0001,-0.0000,0.2239,flat,18.0,0,5.986
3370,107.84,0.2529,-6.3725,0.1797,0.0001,-0.0000,0.2401,flat,18.0,0,5.418
3380,108.16,0.8079,-6.2343,0.1797,0.0001,-0.0000,0.2550,flat,18.0,0,4.850
3390,108.48,1.3611,-6.0881,0.1797,0.0000,-0.0000,0.2687,flat,18.0,0,4.281
3400,108.80,1.9123,-5.9342,0.1797,0.0000,-0.0000,0.2819,flat,18.0,0,3.712
3410,109.12,2.4616,-5.7731,0.1797,0.0000,-0.0000,0.2947,flat,18.0,0,3.144
3420,109.44,3.0086,-5.6050,0.1797,0.0000,0.0000,0.3078,flat,18.0,0,2.576
3430,109.76,3.5529,-5.4297,0.1797,0.0000,0.0000,0.3221,flat,18.0,0,2.009
3440,110.08,4.0938,-5.2465,0.1797,0.0001,0.0000,0.3392,flat,18.0,0,1.446
3450,110.40,4.6286,-5.0542,0.1797,0.0001,0.0000,0.3651,flat,18.0,0,0.893
3460,110.72,5.0498,-4.8818,0.1798,-0.0003,0.0000,0.5601,flat,18.0,1,13.031
3470,111.04,5.3751,-4.6265,0.1799,-0.0000,-0.0000,0.8226,flat,18.0,1,12.894
3480,111.36,5.6633,-4.2543,0.1799,0.0000,-0.0000,1.0516,flat,18.0,1,12.648
3490,111.68,5.8905,-3.7967,0.1799,0.0000,-0.0000,1.2575,flat,18.0,1,12.311
3500,112.00,6.0349,-3.2811,0.1799,0.0001,-0.0000,1.4352,flat,18.0,1,11.900
3510,112.32,6.0925,-2.7339,0.1799,0.0001,-0.0000,1.5831,flat,18.0,1,11.431
3520,112.64,6.0725,-2.1772,0.1798,0.0004,-0.0000,1.6915,flat,18.0,1,10.926
3530,112.96,5.9952,-1.6225,0.1798,0.0004,-0.0000,1.7699,flat,18.0,1,10.400
3540,113.28,5.8761,-1.0725,0.1797,0.0002,-0.0000,1.8298,flat,18.0,1,9.861
3550,113.60,5.7250,-0.5283,0.1797,0.0002,-0.0000,1.8772,flat,18.0,1,9.314
3560,113.92,5.5488,0.0091,0.1797,0.0001,-0.0000,1.9137,flat,18.0,1,8.762
3570,114.24,5.3533,0.5412,0.1797,0.0001,-0.0000,1.9444,flat,18.0,1,8.207
3580,114.56,5.1416,1.0683,0.1797,0.0001,-0.0000,1.9708,flat,18.0,1,7.648
3590,114.88,4.9162,1.5906,0.1797,0.0001,-0.0000,1.9939,flat,18.0,1,7.087
3600,115.20,4.6788,2.1084,0.1797,0.0001,-0.0000,2.0144,flat,18.0,1,6.525
3610,115.52,4.4308,2.6220,0.1797,0.0001,-0.0000,2.0328,flat,18.0,1,5.961
3620,115.84,4.1735,3.1314,0.1797,0.0001,-0.0000,2.0495,flat,18.0,1,5.397
3630,116.16,3.9076,3.6368,0.1797,0.0001,-0.0000,2.0650,flat,18.0,1,4.832
3640,116.48,3.6340,4.1384,0.1797,0.0001,-0.0000,2.0795,flat,18.0,1,4.267
3650,116.80,3.3531,4.6361,0.1797,0.0000,-0.0000,2.0935,flat,18.0,1,3.702
3660,117.12,3.0653,5.1299,0.1797,0.0000,-0.0000,2.1072,flat,18.0,1,3.139
3670,117.44,2.7707,5.6196,0.1797,0.0000,0.0000,2.1212,flat,18.0,1,2.577
3680,117.76,2.4692,6.1047,0.1797,0.0001,0.0000,2.1363,flat,18.0,1,2.019
3690,118.08,2.1605,6.5841,0.1797,0.0001,0.0000,2.1538,flat,18.0,1,1.470
3700,118.40,1.8436,7.0557,0.1797,0.0001,0.0000,2.1777,flat,18.0,1,0.941
3710,118.72,1.5808,7.4196,0.1798,-0.0001,0.0002,2.4056,flat,18.0,2,15.553
3720,119.04,1.2925,7.6264,0.1799,-0.0001,-0.0001,2.7560,flat,18.0,2,15.546
3730,119.36,0.9505,7.7472,0.1799,-0.0000,-0.0001,3.0063,flat,18.0,2,15.445
3740,119.68,0.4935,7.7886,0.1799,-0.0000,-0.0000,-3.0011,flat,18.0,2,15.222
3750,120.00,0.0013,7.6963,0.1799,0.0000,-0.0000,-2.7914,flat,18.0,2,14.878
3760,120.32,-0.4847,7.4939,0.1799,0.0001,-0.0000,-2.6366,flat,18.0,2,14.452
3770,120.64,-0.9480,7.2120,0.1799,0.0003,-0.0000,-2.5217,flat,18.0,2,13.975
3780,120.96,-1.3872,6.8766,0.1798,0.0003,-0.0000,-2.4443,flat,18.0,2,13.467
3790,121.28,-1.8033,6.5076,0.1797,0.0002,-0.0000,-2.3793,flat,18.0,2,12.945
3800,121.60,-2.1973,6.1111,0.1797,0.0002,-0.0000,-2.3234,flat,18.0,2,12.410
3810,121.92,-2.5713,5.6928,0.1797,0.0002,-0.0000,-2.2756,flat,18.0,2,11.868
3820,122.24,-2.9279,5.2574,0.1797,0.0001,-0.0000,-2.2352,flat,18.0,2,11.319
3830,122.56,-3.2693,4.8072,0.1797,0.0001,-0.0000,-2.1995,flat,18.0,2,10.766
3840,122.88,-3.5964,4.3444,0.1797,0.0001,-0.0000,-2.1678,flat,18.0,2,10.208
3850,123.20,-3.9103,3.8710,0.1797,0.0001,-0.0000,-2.1396,flat,18.0,2,9.646
3860,123.52,-4.2121,3.3885,0.1797,0.0001,-0.0000,-2.1144,flat,18.0,2,9.083
3870,123.84,-4.5027,2.8981,0.1797,0.0001,-0.0000,-2.0918,flat,18.0,2,8.517
3880,124.16,-4.7830,2.4010,0.1797,0.0001,-0.0000,-2.0714,flat,18.0,2,7.949
3890,124.48,-5.0539,1.8980,0.1797,0.0001,-0.0000,-2.0529,flat,18.0,2,7.381
3900,124.80,-5.3160,1.3899,0.1797,0.0001,-0.0000,-2.0360,flat,18.0,2,6.811
3910,125.12,-5.5700,0.8771,0.1797,0.0001,-0.0000,-2.0205,flat,18.0,2,6.240
3920,125.44,-5.8164,0.3604,0.1797,0.0001,-0.0000,-2.0061,flat,18.0,2,5.669
3930,125.76,-6.0556,-0.1601,0.1797,0.0000,-0.0000,-1.9926,flat,18.0,2,5.097
3940,126.08,-6.2880,-0.6838,0.1797,0.0000,-0.0000,-1.9797,flat,18.0,2,4.525
3950,126.40,-6.5138,-1.2105,0.1797,0.0000,-0.0000,-1.9672,flat,18.0,2,3.953
3960,126.72,-6.7331,-1.7400,0.1797,0.0000,-0.0000,-1.9549,flat,18.0,2,3.380
3970,127.04,-6.9459,-2.2721,0.1797,0.0000,0.0000,-1.9422,flat,18.0,2,2.807
3980,127.36,-7.1517,-2.8067,0.1797,0.0000,0.0000,-1.9286,flat,18.0,2,2.235
3990,127.68,-7.3499,-3.3437,0.1797,0.0001,0.0000,-1.9126,flat,18.0,2,1.662
4000,128.00,-7.5384,-3.8828,0.1797,0.0001,0.0000,-1.8903,flat,18.0,2,1.091
4010,128.32,-7.7044,-4.4082,0.1798,0.0001,0.0001,-1.9433,flat,18.0,3,0.862
4020,128.64,-7.8191,-4.7695,0.1798,-0.0002,0.0002,-1.7874,rough,14.0,0,13.166
4030,128.96,-7.8804,-5.0512,0.1798,-0.0000,0.0002,-1.4328,rough,14.0,0,13.236
4040,129.28,-7.8259,-5.3613,0.1799,0.0000,0.0001,-1.1561,rough,14.0,0,13.197
4050,129.60,-7.6448,-5.7047,0.1799,-0.0000,-0.0001,-0.9207,flat,18.0,0,13.043
4060,129.92,-7.3234,-6.0554,0.1799,0.0000,-0.0000,-0.7152,flat,18.0,0,12.761
4070,130.24,-6.9123,-6.3653,0.1799,0.0001,-0.0000,-0.5364,flat,18.0,0,12.395
4080,130.56,-6.4358,-6.6180,0.1799,0.0001,-0.0000,-0.3786,flat,18.0,0,11.966
4090,130.88,-5.9148,-6.8047,0.1799,0.0002,-0.0000,-0.2455,flat,18.0,0,11.489
4100,131.20,-5.3691,-6.9274,0.1798,0.0004,-0.0000,-0.1399,flat,18.0,0,10.981
4110,131.52,-4.8104,-6.9958,0.1798,0.0004,-0.0000,-0.0557,flat,18.0,0,10.452
4120,131.84,-4.2454,-7.0192,0.1797,0.0003,-0.0000,0.0118,flat,18.0,0,9.910
4130,132.16,-3.6793,-7.0063,0.1797,0.0002,-0.0000,0.0623,flat,18.0,0,9.360
4140,132.48,-3.1134,-6.9659,0.1797,0.0001,-0.0000,0.1021,flat,18.0,0,8.805
4150,132.80,-2.5486,-6.9039,0.1797,0.0001,-0.0000,0.1345,flat,18.0,0,8.245
4160,133.12,-1.9850,-6.8239,0.1797,0.0001,-0.0000,0.1619,flat,18.0,0,7.683
4170,133.44,-1.4230,-6.7289,0.1797,0.0001,-0.0000,0.1854,flat,18.0,0,7.119
4180,133.76,-0.8626,-6.6209,0.1797,0.0001,-0.0000,0.2058,flat,18.0,0,6.553
4190,134.08,-0.3040,-6.5017,0.1797,0.0001,-0.0000,0.2239,flat,18.0,0,5.986
4200,134.40,0.2529,-6.3725,0.1797,0.0001,-0.0000,0.2401,flat,18.0,0,5.418
4210,134.72,0.8079,-6.2343,0.1797,0.0001,-0.0000,0.2550,flat,18.0,0,4.850
4220,135.04,1.3611,-6.0881,0.1797,0.0000,-0.0000,0.2687,flat,18.0,0,4.281
4230,135.36,1.9123,-5.9342,0.1797,0.0000,-0.0000,0.2819,flat,18.0,0,3.712
4240,135.68,2.4616,-5.7731,0.1797,0.0000,-0.0000,0.2947,flat,18.0,0,3.144
4250,136.00,3.0086,-5.6050,0.1797,0.0000,0.0000,0.3078,flat,18.0,0,2.576
4260,136.32,3.5529,-5.4297,0.1797,0.0000,0.0000,0.3221,flat,18.0,0,2.009
4270,136.64,4.0938,-5.2465,0.1797,0.0001,0.0000,0.3392,flat,18.0,0,1.446
4280,136.96,4.6286,-5.0542,0.1797,0.0001,0.0000,0.3650,flat,18.0,0,0.893
4290,137.28,5.0497,-4.8818,0.1798,-0.0003,0.0000,0.5600,flat,18.0,1,13.031
4300,137.60,5.3751,-4.6265,0.1799,-0.0000,-0.0000,0.8226,flat,18.0,1,12.894
4310,137.92,5.6633,-4.2543,0.1799,0.0000,-0.0000,1.0516,flat,18.0,1,12.648
4320,138.24,5.8904,-3.7967,0.1799,0.0000,-0.0000,1.2575,flat,18.0,1,12.311
4330,138.56,6.0349,-3.2811,0.1799,0.0001,-0.0000,1.4352,flat,18.0,1,11.900
4340,138.88,6.0925,-2.7339,0.1799,0.0001,-0.0000,1.5831,flat,18.0,1,11.431
4350,139.20,6.0725,-2.1772,0.1798,0.0004,-0.0000,1.6915,flat,18.0,1,10.926
4360,139.52,5.9953,-1.6225,0.1798,0.0004,-0.0000,1.7699,flat,18.0,1,10.400
4370,139.84,5.8761,-1.0725,0.1797,0.0002,-0.0000,1.8298,flat,18.0,1,9.862
4380,140.16,5.7250,-0.5283,0.1797,0.0002,-0.0000,1.8772,flat,18.0,1,9.314
4390,140.48,5.5488,0.0091,0.1797,0.0001,-0.0000,1.9136,flat,18.0,1,8.762
4400,140.80,5.3533,0.5412,0.1797,0.0001,-0.0000,1.9444,flat,18.0,1,8.207
4410,141.12,5.1417,1.0683,0.1797,0.0001,-0.0000,1.9708,flat,18.0,1,7.648
4420,141.44,4.9162,1.5906,0.1797,0.0001,-0.0000,1.9939,flat,18.0,1,7.087
4430,141.76,4.6788,2.1084,0.1797,0.0001,-0.0000,2.0144,flat,18.0,1,6.525
4440,142.08,4.4308,2.6220,0.1797,0.0001,-0.0000,2.0328,flat,18.0,1,5.961
4450,142.40,4.1735,3.1314,0.1797,0.0001,-0.0000,2.0495,flat,18.0,1,5.397
4460,142.72,3.9077,3.6368,0.1797,0.0001,-0.0000,2.0650,flat,18.0,1,4.832
4470,143.04,3.6341,4.1384,0.1797,0.0001,-0.0000,2.0795,flat,18.0,1,4.267
4480,143.36,3.3532,4.6361,0.1797,0.0000,-0.0000,2.0935,flat,18.0,1,3.702
4490,143.68,3.0653,5.1299,0.1797,0.0000,-0.0000,2.1072,flat,18.0,1,3.139
4500,144.00,2.7707,5.6196,0.1797,0.0000,0.0000,2.1212,flat,18.0,1,2.577
4510,144.32,2.4692,6.1046,0.1797,0.0001,0.0000,2.1363,flat,18.0,1,2.019
4520,144.64,2.1605,6.5841,0.1797,0.0001,0.0000,2.1538,flat,18.0,1,1.470
4530,144.96,1.8436,7.0557,0.1797,0.0001,0.0000,2.1777,flat,18.0,1,0.942
4540,145.28,1.5808,7.4196,0.1798,-0.0001,0.0002,2.4056,flat,18.0,2,15.553
4550,145.60,1.2925,7.6263,0.1799,-0.0001,-0.0001,2.7560,flat,18.0,2,15.546
4560,145.92,0.9505,7.7472,0.1799,-0.0000,-0.0001,3.0063,flat,18.0,2,15.445
4570,146.24,0.4935,7.7886,0.1799,-0.0000,-0.0000,-3.0011,flat,18.0,2,15.222
4580,146.56,0.0013,7.6962,0.1799,0.0000,-0.0000,-2.7914,flat,18.0,2,14.878
4590,146.88,-0.4846,7.4938,0.1799,0.0001,-0.0000,-2.6366,flat,18.0,2,14.452
4600,147.20,-0.9479,7.2119,0.1799,0.0003,-0.0000,-2.5217,flat,18.0,2,13.975
4610,147.52,-1.3872,6.8765,0.1798,0.0003,-0.0000,-2.4443,flat,18.0,2,13.467
4620,147.84,-1.8033,6.5076,0.1797,0.0002,-0.0000,-2.3793,flat,18.0,2,12.944
4630,148.16,-2.1973,6.1111,0.1797,0.0002,-0.0000,-2.3234,flat,18.0,2,12.410
4640,148.48,-2.5713,5.6928,0.1797,0.0002,-0.0000,-2.2756,flat,18.0,2,11.868
4650,148.80,-2.9279,5.2574,0.1797,0.0001,-0.0000,-2.2352,flat,18.0,2,11.319
4660,149.12,-3.2693,4.8072,0.1797,0.0001,-0.0000,-2.1995,flat,18.0,2,10.766
4670,149.44,-3.5964,4.3444,0.1797,0.0001,-0.0000,-2.1678,flat,18.0,2,10.208
4680,149.76,-3.9103,3.8710,0.1797,0.0001,-0.0000,-2.1396,flat,18.0,2,9.646
4690,150.08,-4.2121,3.3885,0.1797,0.0001,-0.0000,-2.1144,flat,18.0,2,9.083
4700,150.40,-4.5027,2.8982,0.1797,0.0001,-0.0000,-2.0918,flat,18.0,2,8.517
4710,150.72,-4.7831,2.4010,0.1797,0.0001,-0.0000,-2.0714,flat,18.0,2,7.949
4720,151.04,-5.0540,1.8980,0.1797,0.0001,-0.0000,-2.0529,flat,18.0,2,7.381
4730,151.36,-5.3161,1.3899,0.1797,0.0001,-0.0000,-2.0360,flat,18.0,2,6.811
4740,151.68,-5.5700,0.8771,0.1797,0.0001,-0.0000,-2.0205,flat,18.0,2,6.240
4750,152.00,-5.8164,0.3604,0.1797,0.0001,-0.0000,-2.0061,flat,18.0,2,5.669
4760,152.32,-6.0556,-0.1600,0.1797,0.0000,-0.0000,-1.9926,flat,18.0,2,5.097
4770,152.64,-6.2880,-0.6837,0.1797,0.0000,-0.0000,-1.9797,flat,18.0,2,4.525
4780,152.96,-6.5138,-1.2105,0.1797,0.0000,-0.0000,-1.9672,flat,18.0,2,3.953
4790,153.28,-6.7331,-1.7400,0.1797,0.0000,-0.0000,-1.9549,flat,18.0,2,3.380
4800,153.60,-6.9459,-2.2721,0.1797,0.0000,0.0000,-1.9422,flat,18.0,2,2.807
4810,153.92,-7.1517,-2.8067,0.1797,0.0000,0.0000,-1.9286,flat,18.0,2,2.235
4820,154.24,-7.3499,-3.3437,0.1797,0.0001,0.0000,-1.9126,flat,18.0,2,1.662
4830,154.56,-7.5384,-3.8828,0.1797,0.0001,0.0000,-1.8903,flat,18.0,2,1.091
4840,154.88,-7.7044,-4.4082,0.1798,0.0001,0.0001,-1.9433,flat,18.0,3,0.862
4850,155.20,-7.8191,-4.7695,0.1798,-0.0002,0.0002,-1.7874,rough,14.0,0,13.166
4860,155.52,-7.8804,-5.0512,0.1798,-0.0000,0.0002,-1.4328,rough,14.0,0,13.236
4870,155.84,-7.8259,-5.3613,0.1799,0.0000,0.0001,-1.1562,rough,14.0,0,13.197
4880,156.16,-7.6449,-5.7047,0.1799,-0.0000,-0.0001,-0.9207,flat,18.0,0,13.043
4890,156.48,-7.3234,-6.0554,0.1799,0.0000,-0.0000,-0.7152,flat,18.0,0,12.761
4900,156.80,-6.9123,-6.3653,0.1799,0.0001,-0.0000,-0.5364,flat,18.0,0,12.395
4910,157.12,-6.4359,-6.6180,0.1799,0.0001,-0.0000,-0.3786,flat,18.0,0,11.966
4920,157.44,-5.9149,-6.8047,0.1799,0.0002,-0.0000,-0.2455,flat,18.0,0,11.489
4930,157.76,-5.3692,-6.9274,0.1798,0.0004,-0.0000,-0.1399,flat,18.0,0,10.981
4940,158.08,-4.8105,-6.9958,0.1798,0.0004,-0.0000,-0.0557,flat,18.0,0,10.453
4950,158.40,-4.2454,-7.0192,0.1797,0.0003,-0.0000,0.0118,flat,18.0,0,9.910
4960,158.72,-3.6794,-7.0063,0.1797,0.0002,-0.0000,0.0623,flat,18.0,0,9.360
4970,159.04,-3.1135,-6.9660,0.1797,0.0001,-0.0000,0.1021,flat,18.0,0,8.805
4980,159.36,-2.5486,-6.9039,0.1797,0.0001,-0.0000,0.1345,flat,18.0,0,8.245
4990,159.68,-1.9851,-6.8240,0.1797,0.0001,-0.0000,0.1619,flat,18.0,0,7.683
5000,160.00,-1.4230,-6.7289,0.1797,0.0001,-0.0000,0.1854,flat,18.0,0,7.119
5010,160.32,-0.8626,-6.6210,0.1797,0.0001,-0.0000,0.2058,flat,18.0,0,6.553
5020,160.64,-0.3040,-6.5017,0.1797,0.0001,-0.0000,0.2239,flat,18.0,0,5.986
5030,160.96,0.2528,-6.3725,0.1797,0.0001,-0.0000,0.2401,flat,18.0,0,5.418
5040,161.28,0.8078,-6.2344,0.1797,0.0001,-0.0000,0.2550,flat,18.0,0,4.850
5050,161.60,1.3610,-6.0881,0.1797,0.0000,-0.0000,0.2687,flat,18.0,0,4.281
5060,161.92,1.9123,-5.9342,0.1797,0.0000,-0.0000,0.2819,flat,18.0,0,3.712
5070,162.24,2.4615,-5.7732,0.1797,0.0000,-0.0000,0.2947,flat,18.0,0,3.144
5080,162.56,3.0085,-5.6050,0.1797,0.0000,0.0000,0.3078,flat,18.0,0,2.576
5090,162.88,3.5529,-5.4297,0.1797,0.0000,0.0000,0.3221,flat,18.0,0,2.009
5100,163.20,4.0937,-5.2466,0.1797,0.0001,0.0000,0.3392,flat,18.0,0,1.446
5110,163.52,4.6285,-5.0542,0.1797,0.0001,0.0000,0.3651,flat,18.0,0,0.893
5120,163.84,5.0497,-4.8818,0.1798,-0.0003,0.0000,0.5600,flat,18.0,1,13.031
5130,164.16,5.3750,-4.6265,0.1799,-0.0000,-0.0000,0.8226,flat,18.0,1,12.894
5140,164.48,5.6632,-4.2544,0.1799,0.0000,-0.0000,1.0516,flat,18.0,1,12.648
5150,164.80,5.8904,-3.7967,0.1799,0.0000,-0.0000,1.2575,flat,18.0,1,12.311
5160,165.12,6.0348,-3.2812,0.1799,0.0001,-0.0000,1.4352,flat,18.0,1,11.900
5170,165.44,6.0925,-2.7340,0.1799,0.0001,-0.0000,1.5831,flat,18.0,1,11.431
5180,165.76,6.0724,-2.1773,0.1798,0.0004,-0.0000,1.6914,flat,18.0,1,10.926
5190,166.08,5.9952,-1.6225,0.1798,0.0004,-0.0000,1.7699,flat,18.0,1,10.400
5200,166.40,5.8761,-1.0726,0.1797,0.0002,-0.0000,1.8298,flat,18.0,1,9.862
5210,166.72,5.7250,-0.5284,0.1797,0.0002,-0.0000,1.8772,flat,18.0,1,9.314
5220,167.04,5.5487,0.0090,0.1797,0.0001,-0.0000,1.9136,flat,18.0,1,8.763
5230,167.36,5.3533,0.5411,0.1797,0.0001,-0.0000,1.9444,flat,18.0,1,8.207
5240,167.68,5.1417,1.0682,0.1797,0.0001,-0.0000,1.9708,flat,18.0,1,7.648
5250,168.00,4.9162,1.5906,0.1797,0.0001,-0.0000,1.9939,flat,18.0,1,7.087
5260,168.32,4.6788,2.1084,0.1797,0.0001,-0.0000,2.0144,flat,18.0,1,6.525
5270,168.64,4.4309,2.6219,0.1797,0.0001,-0.0000,2.0328,flat,18.0,1,5.961
5280,168.96,4.1735,3.1313,0.1797,0.0001,-0.0000,2.0495,flat,18.0,1,5.397
5290,169.28,3.9077,3.6368,0.1797,0.0001,-0.0000,2.0650,flat,18.0,1,4.832
5300,169.60,3.6341,4.1384,0.1797,0.0001,-0.0000,2.0795,flat,18.0,1,4.267
5310,169.92,3.3532,4.6361,0.1797,0.0000,-0.0000,2.0935,flat,18.0,1,3.702
5320,170.24,3.0654,5.1299,0.1797,0.0000,-0.0000,2.1072,flat,18.0,1,3.139
5330,170.56,2.7707,5.6195,0.1797,0.0000,0.0000,2.1212,flat,18.0,1,2.577
5340,170.88,2.4693,6.1046,0.1797,0.0001,0.0000,2.1363,flat,18.0,1,2.019
5350,171.20,2.1605,6.5841,0.1797,0.0001,0.0000,2.1538,flat,18.0,1,1.470
5360,171.52,1.8436,7.0557,0.1797,0.0001,0.0000,2.1777,flat,18.0,1,0.942
5370,171.84,1.5808,7.4195,0.1798,-0.0001,0.0002,2.4056,flat,18.0,2,15.553
5380,172.16,1.2925,7.6263,0.1799,-0.0001,-0.0001,2.7560,flat,18.0,2,15.546
5390,172.48,0.9506,7.7472,0.1799,-0.0000,-0.0001,3.0063,flat,18.0,2,15.445
5400,172.80,0.4935,7.7886,0.1799,-0.0000,-0.0000,-3.0011,flat,18.0,2,15.222
5410,173.12,0.0013,7.6962,0.1799,0.0000,-0.0000,-2.7914,flat,18.0,2,14.878
5420,173.44,-0.4846,7.4938,0.1799,0.0001,-0.0000,-2.6366,flat,18.0,2,14.452
5430,173.76,-0.9479,7.2119,0.1799,0.0003,-0.0000,-2.5217,flat,18.0,2,13.975
5440,174.08,-1.3872,6.8765,0.1798,0.0003,-0.0000,-2.4443,flat,18.0,2,13.467
5450,174.40,-1.8033,6.5075,0.1797,0.0002,-0.0000,-2.3793,flat,18.0,2,12.944
5460,174.72,-2.1973,6.1111,0.1797,0.0002,-0.0000,-2.3235,flat,18.0,2,12.410
5470,175.04,-2.5713,5.6928,0.1797,0.0002,-0.0000,-2.2757,flat,18.0,2,11.868
5480,175.36,-2.9279,5.2573,0.1797,0.0001,-0.0000,-2.2352,flat,18.0,2,11.319
5490,175.68,-3.2693,4.8071,0.1797,0.0001,-0.0000,-2.1995,flat,18.0,2,10.766
5500,176.00,-3.5964,4.3444,0.1797,0.0001,-0.0000,-2.1678,flat,18.0,2,10.208
5510,176.32,-3.9103,3.8710,0.1797,0.0001,-0.0000,-2.1396,flat,18.0,2,9.646
5520,176.64,-4.2121,3.3885,0.1797,0.0001,-0.0000,-2.1144,flat,18.0,2,9.083
5530,176.96,-4.5027,2.8981,0.1797,0.0001,-0.0000,-2.0918,flat,18.0,2,8.517
5540,177.28,-4.7831,2.4010,0.1797,0.0001,-0.0000,-2.0714,flat,18.0,2,7.949
5550,177.60,-5.0540,1.8980,0.1797,0.0001,-0.0000,-2.0529,flat,18.0,2,7.381
5560,177.92,-5.3161,1.3898,0.1797,0.0001,-0.0000,-2.0360,flat,18.0,2,6.811
5570,178.24,-5.5700,0.8771,0.1797,0.0001,-0.0000,-2.0205,flat,18.0,2,6.240
5580,178.56,-5.8164,0.3603,0.1797,0.0001,-0.0000,-2.0061,flat,18.0,2,5.669
5590,178.88,-6.0556,-0.1601,0.1797,0.0000,-0.0000,-1.9926,flat,18.0,2,5.097
5600,179.20,-6.2880,-0.6838,0.1797,0.0000,-0.0000,-1.9797,flat,18.0,2,4.525
5610,179.52,-6.5138,-1.2105,0.1797,0.0000,-0.0000,-1.9672,flat,18.0,2,3.953
5620,179.84,-6.7331,-1.7400,0.1797,0.0000,-0.0000,-1.9549,flat,18.0,2,3.380
5630,180.16,-6.9459,-2.2721,0.1797,0.0000,0.0000,-1.9422,flat,18.0,2,2.807
5640,180.48,-7.1517,-2.8067,0.1797,0.0000,0.0000,-1.9286,flat,18.0,2,2.235
5650,180.80,-7.3499,-3.3438,0.1797,0.0001,0.0000,-1.9126,flat,18.0,2,1.662
5660,181.12,-7.5384,-3.8828,0.1797,0.0001,0.0000,-1.8903,flat,18.0,2,1.091
5670,181.44,-7.7044,-4.4082,0.1798,0.0001,0.0001,-1.9433,flat,18.0,3,0.862
5680,181.76,-7.8191,-4.7695,0.1798,-0.0002,0.0002,-1.7874,rough,14.0,0,13.166
5690,182.08,-7.8804,-5.0512,0.1798,-0.0000,0.0002,-1.4328,rough,14.0,0,13.236
5700,182.40,-7.8259,-5.3613,0.1799,0.0000,0.0001,-1.1561,rough,14.0,0,13.197
5710,182.72,-7.6448,-5.7046,0.1799,-0.0000,-0.0001,-0.9207,flat,18.0,0,13.043
5720,183.04,-7.3234,-6.0554,0.1799,0.0000,-0.0000,-0.7152,flat,18.0,0,12.761
5730,183.36,-6.9123,-6.3653,0.1799,0.0001,-0.0000,-0.5364,flat,18.0,0,12.395
5740,183.68,-6.4358,-6.6180,0.1799,0.0001,-0.0000,-0.3786,flat,18.0,0,11.966
5750,184.00,-5.9148,-6.8047,0.1799,0.0002,-0.0000,-0.2455,flat,18.0,0,11.489
5760,184.32,-5.3692,-6.9274,0.1798,0.0004,-0.0000,-0.1399,flat,18.0,0,10.981
5770,184.64,-4.8104,-6.9958,0.1798,0.0004,-0.0000,-0.0557,flat,18.0,0,10.452
5780,184.96,-4.2454,-7.0192,0.1797,0.0003,-0.0000,0.0118,flat,18.0,0,9.910
5790,185.28,-3.6793,-7.0063,0.1797,0.0002,-0.0000,0.0623,flat,18.0,0,9.360
5800,185.60,-3.1135,-6.9659,0.1797,0.0001,-0.0000,0.1021,flat,18.0,0,8.805
5810,185.92,-2.5486,-6.9039,0.1797,0.0001,-0.0000,0.1345,flat,18.0,0,8.245
5820,186.24,-1.9850,-6.8240,0.1797,0.0001,-0.0000,0.1619,flat,18.0,0,7.683
5830,186.56,-1.4230,-6.7290,0.1797,0.0001,-0.0000,0.1854,flat,18.0,0,7.119
5840,186.88,-0.8626,-6.6210,0.1797,0.0001,-0.0000,0.2058,flat,18.0,0,6.553
5850,187.20,-0.3040,-6.5018,0.1797,0.0001,-0.0000,0.2239,flat,18.0,0,5.986
5860,187.52,0.2528,-6.3726,0.1797,0.0001,-0.0000,0.2401,flat,18.0,0,5.418
5870,187.84,0.8079,-6.2344,0.1797,0.0001,-0.0000,0.2550,flat,18.0,0,4.850
5880,188.16,1.3610,-6.0881,0.1797,0.0000,-0.0000,0.2687,flat,18.0,0,4.281
5890,188.48,1.9123,-5.9343,0.1797,0.0000,-0.0000,0.2819,flat,18.0,0,3.712
5900,188.80,2.4615,-5.7732,0.1797,0.0000,-0.0000,0.2947,flat,18.0,0,3.144
5910,189.12,3.0085,-5.6050,0.1797,0.0000,0.0000,0.3078,flat,18.0,0,2.576
5920,189.44,3.5529,-5.4297,0.1797,0.0000,0.0000,0.3221,flat,18.0,0,2.009
5930,189.76,4.0937,-5.2466,0.1797,0.0001,0.0000,0.3392,flat,18.0,0,1.446
5940,190.08,4.6285,-5.0542,0.1797,0.0001,0.0000,0.3651,flat,18.0,0,0.893
5950,190.40,5.0497,-4.8818,0.1798,-0.0003,0.0000,0.5601,flat,18.0,1,13.031
5960,190.72,5.3750,-4.6265,0.1799,-0.0000,-0.0000,0.8226,flat,18.0,1,12.894
5970,191.04,5.6632,-4.2544,0.1799,0.0000,-0.0000,1.0516,flat,18.0,1,12.648
5980,191.36,5.8904,-3.7967,0.1799,0.0000,-0.0000,1.2575,flat,18.0,1,12.311
5990,191.68,6.0348,-3.2811,0.1799,0.0001,-0.0000,1.4352,flat,18.0,1,11.900
6000,192.00,6.0924,-2.7340,0.1799,0.0001,-0.0000,1.5831,flat,18.0,1,11.431
6010,192.32,6.0724,-2.1773,0.1798,0.0004,-0.0000,1.6915,flat,18.0,1,10.926
6020,192.64,5.9952,-1.6225,0.1798,0.0004,-0.0000,1.7699,flat,18.0,1,10.400
6030,192.96,5.8761,-1.0725,0.1797,0.0002,-0.0000,1.8298,flat,18.0,1,9.862
6040,193.28,5.7249,-0.5284,0.1797,0.0002,-0.0000,1.8772,flat,18.0,1,9.314
6050,193.60,5.5487,0.0091,0.1797,0.0001,-0.0000,1.9136,flat,18.0,1,8.762
6060,193.92,5.3533,0.5412,0.1797,0.0001,-0.0000,1.9444,flat,18.0,1,8.207
6070,194.24,5.1416,1.0683,0.1797,0.0001,-0.0000,1.9708,flat,18.0,1,7.648
6080,194.56,4.9162,1.5906,0.1797,0.0001,-0.0000,1.9939,flat,18.0,1,7.087
6090,194.88,4.6788,2.1084,0.1797,0.0001,-0.0000,2.0144,flat,18.0,1,6.525
6100,195.20,4.4308,2.6219,0.1797,0.0001,-0.0000,2.0328,flat,18.0,1,5.961
6110,195.52,4.1735,3.1314,0.1797,0.0001,-0.0000,2.0495,flat,18.0,1,5.397
6120,195.84,3.9077,3.6368,0.1797,0.0001,-0.0000,2.0649,flat,18.0,1,4.832
6130,196.16,3.6340,4.1384,0.1797,0.0001,-0.0000,2.0795,flat,18.0,1,4.267
6140,196.48,3.3531,4.6361,0.1797,0.0000,-0.0000,2.0935,flat,18.0,1,3.702
6150,196.80,3.0653,5.1299,0.1797,0.0000,-0.0000,2.1072,flat,18.0,1,3.139
6160,197.12,2.7707,5.6196,0.1797,0.0000,0.0000,2.1212,flat,18.0,1,2.577
6170,197.44,2.4692,6.1046,0.1797,0.0001,0.0000,2.1363,flat,18.0,1,2.019
6180,197.76,2.1605,6.5841,0.1797,0.0001,0.0000,2.1538,flat,18.0,1,1.470
6190,198.08,1.8436,7.0557,0.1797,0.0001,0.0000,2.1777,flat,18.0,1,0.942
6200,198.40,1.5808,7.4196,0.1798,-0.0001,0.0002,2.4056,flat,18.0,2,15.553
6210,198.72,1.2925,7.6264,0.1799,-0.0001,-0.0001,2.7560,flat,18.0,2,15.546
6220,199.04,0.9505,7.7472,0.1799,-0.0000,-0.0001,3.0063,flat,18.0,2,15.445
6230,199.36,0.4935,7.7886,0.1799,-0.0000,-0.0000,-3.0011,flat,18.0,2,15.222
6240,199.68,0.0013,7.6963,0.1799,0.0000,-0.0000,-2.7914,flat,18.0,2,14.878
6250,200.00,-0.4846,7.4939,0.1799,0.0001,-0.0000,-2.6366,flat,18.0,2,14.452
6260,200.32,-0.9479,7.2120,0.1799,0.0003,-0.0000,-2.5217,flat,18.0,2,13.975
6270,200.64,-1.3872,6.8766,0.1798,0.0003,-0.0000,-2.4443,flat,18.0,2,13.467
6280,200.96,-1.8033,6.5076,0.1797,0.0002,-0.0000,-2.3793,flat,18.0,2,12.945
6290,201.28,-2.1973,6.1112,0.1797,0.0002,-0.0000,-2.3234,flat,18.0,2,12.410
6300,201.60,-2.5712,5.6928,0.1797,0.0002,-0.0000,-2.2756,flat,18.0,2,11.868
6310,201.92,-2.9279,5.2574,0.1797,0.0001,-0.0000,-2.2352,flat,18.0,2,11.319
6320,202.24,-3.2692,4.8072,0.1797,0.0001,-0.0000,-2.1995,flat,18.0,2,10.766
6330,202.56,-3.5964,4.3444,0.1797,0.0001,-0.0000,-2.1678,flat,18.0,2,10.208
6340,202.88,-3.9103,3.8710,0.1797,0.0001,-0.0000,-2.1396,flat,18.0,2,9.647
6350,203.20,-4.2121,3.3885,0.1797,0.0001,-0.0000,-2.1144,flat,18.0,2,9.083
6360,203.52,-4.5027,2.8982,0.1797,0.0001,-0.0000,-2.0918,flat,18.0,2,8.517
6370,203.84,-4.7830,2.4011,0.1797,0.0001,-0.0000,-2.0714,flat,18.0,2,7.950
6380,204.16,-5.0539,1.8980,0.1797,0.0001,-0.0000,-2.0529,flat,18.0,2,7.381
6390,204.48,-5.3160,1.3899,0.1797,0.0001,-0.0000,-2.0360,flat,18.0,2,6.811
6400,204.80,-5.5700,0.8772,0.1797,0.0001,-0.0000,-2.0205,flat,18.0,2,6.240
6410,205.12,-5.8164,0.3604,0.1797,0.0001,-0.0000,-2.0061,flat,18.0,2,5.669
6420,205.44,-6.0556,-0.1600,0.1797,0.0000,-0.0000,-1.9926,flat,18.0,2,5.097
6430,205.76,-6.2880,-0.6837,0.1797,0.0000,-0.0000,-1.9797,flat,18.0,2,4.525
6440,206.08,-6.5138,-1.2104,0.1797,0.0000,-0.0000,-1.9672,flat,18.0,2,3.953
6450,206.40,-6.7331,-1.7399,0.1797,0.0000,-0.0000,-1.9549,flat,18.0,2,3.380
6460,206.72,-6.9459,-2.2721,0.1797,0.0000,0.0000,-1.9422,flat,18.0,2,2.807
6470,207.04,-7.1517,-2.8067,0.1797,0.0000,0.0000,-1.9286,flat,18.0,2,2.235
6480,207.36,-7.3499,-3.3437,0.1797,0.0001,0.0000,-1.9126,flat,18.0,2,1.662
6490,207.68,-7.5384,-3.8828,0.1797,0.0001,0.0000,-1.8903,flat,18.0,2,1.091
6500,208.00,-7.7044,-4.4082,0.1798,0.0001,0.0001,-1.9433,flat,18.0,3,0.862
6510,208.32,-7.8191,-4.7695,0.1798,-0.0002,0.0002,-1.7874,rough,14.0,0,13.166
6520,208.64,-7.8804,-5.0512,0.1798,-0.0000,0.0002,-1.4328,rough,14.0,0,13.236
6530,208.96,-7.8258,-5.3613,0.1799,0.0000,0.0001,-1.1561,rough,14.0,0,13.197
6540,209.28,-7.6448,-5.7046,0.1799,-0.0000,-0.0001,-0.9207,flat,18.0,0,13.043
6550,209.60,-7.3234,-6.0554,0.1799,0.0000,-0.0000,-0.7152,flat,18.0,0,12.761
6560,209.92,-6.9123,-6.3652,0.1799,0.0001,-0.0000,-0.5364,flat,18.0,0,12.395
6570,210.24,-6.4358,-6.6180,0.1799,0.0001,-0.0000,-0.3786,flat,18.0,0,11.966
6580,210.56,-5.9148,-6.8046,0.1799,0.0002,-0.0000,-0.2455,flat,18.0,0,11.489
6590,210.88,-5.3691,-6.9274,0.1798,0.0004,-0.0000,-0.1399,flat,18.0,0,10.981
6600,211.20,-4.8104,-6.9958,0.1798,0.0004,-0.0000,-0.0557,flat,18.0,0,10.452
6610,211.52,-4.2454,-7.0191,0.1797,0.0003,-0.0000,0.0118,flat,18.0,0,9.910
6620,211.84,-3.6793,-7.0062,0.1797,0.0002,-0.0000,0.0623,flat,18.0,0,9.360
6630,212.16,-3.1134,-6.9659,0.1797,0.0001,-0.0000,0.1021,flat,18.0,0,8.805
6640,212.48,-2.5486,-6.9039,0.1797,0.0001,-0.0000,0.1345,flat,18.0,0,8.245
6650,212.80,-1.9850,-6.8239,0.1797,0.0001,-0.0000,0.1619,flat,18.0,0,7.683
6660,213.12,-1.4229,-6.7289,0.1797,0.0001,-0.0000,0.1854,flat,18.0,0,7.119
6670,213.44,-0.8626,-6.6210,0.1797,0.0001,-0.0000,0.2058,flat,18.0,0,6.553
6680,213.76,-0.3039,-6.5017,0.1797,0.0001,-0.0000,0.2239,flat,18.0,0,5.986
6690,214.08,0.2529,-6.3725,0.1797,0.0001,-0.0000,0.2401,flat,18.0,0,5.418
6700,214.40,0.8079,-6.2344,0.1797,0.0001,-0.0000,0.2550,flat,18.0,0,4.850
6710,214.72,1.3611,-6.0881,0.1797,0.0000,-0.0000,0.2687,flat,18.0,0,4.281
6720,215.04,1.9123,-5.9342,0.1797,0.0000,-0.0000,0.2819,flat,18.0,0,3.712
6730,215.36,2.4616,-5.7731,0.1797,0.0000,-0.0000,0.2947,flat,18.0,0,3.144
6740,215.68,3.0086,-5.6050,0.1797,0.0000,0.0000,0.3078,flat,18.0,0,2.576
6750,216.00,3.5529,-5.4297,0.1797,0.0000,0.0000,0.3221,flat,18.0,0,2.009
6760,216.32,4.0938,-5.2466,0.1797,0.0001,0.0000,0.3392,flat,18.0,0,1.446
6770,216.64,4.6286,-5.0542,0.1797,0.0001,0.0000,0.3651,flat,18.0,0,0.893
6780,216.96,5.0497,-4.8818,0.1798,-0.0003,0.0000,0.5601,flat,18.0,1,13.031
6790,217.28,5.3751,-4.6265,0.1799,-0.0000,-0.0000,0.8226,flat,18.0,1,12.894
6800,217.60,5.6632,-4.2543,0.1799,0.0000,-0.0000,1.0516,flat,18.0,1,12.648
6810,217.92,5.8904,-3.7967,0.1799,0.0000,-0.0000,1.2575,flat,18.0,1,12.311
6820,218.24,6.0348,-3.2811,0.1799,0.0001,-0.0000,1.4352,flat,18.0,1,11.900
6830,218.56,6.0925,-2.7339,0.1799,0.0001,-0.0000,1.5831,flat,18.0,1,11.431
6840,218.88,6.0724,-2.1772,0.1798,0.0004,-0.0000,1.6915,flat,18.0,1,10.926
6850,219.20,5.9952,-1.6225,0.1798,0.0004,-0.0000,1.7699,flat,18.0,1,10.400
6860,219.52,5.8761,-1.0725,0.1797,0.0002,-0.0000,1.8298,flat,18.0,1,9.861
6870,219.84,5.7250,-0.5283,0.1797,0.0002,-0.0000,1.8772,flat,18.0,1,9.314
6880,220.16,5.5487,0.0091,0.1797,0.0001,-0.0000,1.9137,flat,18.0,1,8.762
6890,220.48,5.3533,0.5412,0.1797,0.0001,-0.0000,1.9444,flat,18.0,1,8.207
6900,220.80,5.1416,1.0683,0.1797,0.0001,-0.0000,1.9708,flat,18.0,1,7.648
6910,221.12,4.9162,1.5906,0.1797,0.0001,-0.0000,1.9939,flat,18.0,1,7.087
6920,221.44,4.6787,2.1084,0.1797,0.0001,-0.0000,2.0144,flat,18.0,1,6.525
6930,221.76,4.4308,2.6220,0.1797,0.0001,-0.0000,2.0328,flat,18.0,1,5.961
6940,222.08,4.1734,3.1314,0.1797,0.0001,-0.0000,2.0495,flat,18.0,1,5.396
6950,222.40,3.9076,3.6368,0.1797,0.0001,-0.0000,2.0650,flat,18.0,1,4.832
6960,222.72,3.6340,4.1384,0.1797,0.0001,-0.0000,2.0795,flat,18.0,1,4.267
6970,223.04,3.3531,4.6361,0.1797,0.0000,-0.0000,2.0935,flat,18.0,1,3.702
6980,223.36,3.0653,5.1299,0.1797,0.0000,-0.0000,2.1072,flat,18.0,1,3.139
6990,223.68,2.7707,5.6196,0.1797,0.0000,0.0000,2.1212,flat,18.0,1,2.577
7000,224.00,2.4692,6.1047,0.1797,0.0001,0.0000,2.1363,flat,18.0,1,2.019
7010,224.32,2.1605,6.5841,0.1797,0.0001,0.0000,2.1538,flat,18.0,1,1.470
7020,224.64,1.8435,7.0557,0.1797,0.0001,0.0000,2.1777,flat,18.0,1,0.941
7030,224.96,1.5808,7.4196,0.1798,-0.0001,0.0002,2.4056,flat,18.0,2,15.553
7040,225.28,1.2925,7.6264,0.1799,-0.0001,-0.0001,2.7560,flat,18.0,2,15.546
7050,225.60,0.9505,7.7472,0.1799,0.0000,-0.0001,3.0063,flat,18.0,2,15.445
7060,225.92,0.4935,7.7887,0.1799,-0.0000,-0.0000,-3.0011,flat,18.0,2,15.222
7070,226.24,0.0013,7.6963,0.1799,0.0000,-0.0000,-2.7914,flat,18.0,2,14.878
7080,226.56,-0.4847,7.4939,0.1799,0.0001,-0.0000,-2.6366,flat,18.0,2,14.452
7090,226.88,-0.9480,7.2120,0.1799,0.0003,-0.0000,-2.5217,flat,18.0,2,13.975
7100,227.20,-1.3873,6.8766,0.1798,0.0003,-0.0000,-2.4443,flat,18.0,2,13.467
7110,227.52,-1.8034,6.5076,0.1797,0.0002,-0.0000,-2.3793,flat,18.0,2,12.944
7120,227.84,-2.1974,6.1112,0.1797,0.0002,-0.0000,-2.3234,flat,18.0,2,12.410
7130,228.16,-2.5713,5.6929,0.1797,0.0002,-0.0000,-2.2757,flat,18.0,2,11.868
7140,228.48,-2.9280,5.2574,0.1797,0.0001,-0.0000,-2.2352,flat,18.0,2,11.319
7150,228.80,-3.2693,4.8072,0.1797,0.0001,-0.0000,-2.1995,flat,18.0,2,10.766
7160,229.12,-3.5964,4.3445,0.1797,0.0001,-0.0000,-2.1678,flat,18.0,2,10.208
7170,229.44,-3.9104,3.8711,0.1797,0.0001,-0.0000,-2.1396,flat,18.0,2,9.646
7180,229.76,-4.2122,3.3885,0.1797,0.0001,-0.0000,-2.1144,flat,18.0,2,9.083
7190,230.08,-4.5028,2.8982,0.1797,0.0001,-0.0000,-2.0918,flat,18.0,2,8.517
7200,230.40,-4.7831,2.4011,0.1797,0.0001,-0.0000,-2.0714,flat,18.0,2,7.950
7210,230.72,-5.0540,1.8981,0.1797,0.0001,-0.0000,-2.0529,flat,18.0,2,7.381
7220,231.04,-5.3161,1.3899,0.1797,0.0001,-0.0000,-2.0360,flat,18.0,2,6.811
7230,231.36,-5.5701,0.8772,0.1797,0.0001,-0.0000,-2.0205,flat,18.0,2,6.240
7240,231.68,-5.8165,0.3604,0.1797,0.0001,-0.0000,-2.0061,flat,18.0,2,5.669
7250,232.00,-6.0557,-0.1600,0.1797,0.0000,-0.0000,-1.9926,flat,18.0,2,5.097
7260,232.32,-6.2881,-0.6837,0.1797,0.0000,-0.0000,-1.9797,flat,18.0,2,4.525
7270,232.64,-6.5139,-1.2104,0.1797,0.0000,-0.0000,-1.9672,flat,18.0,2,3.953
7280,232.96,-6.7332,-1.7399,0.1797,0.0000,-0.0000,-1.9549,flat,18.0,2,3.380
7290,233.28,-6.9459,-2.2721,0.1797,0.0000,0.0000,-1.9422,flat,18.0,2,2.807
7300,233.60,-7.1517,-2.8067,0.1797,0.0000,0.0000,-1.9286,flat,18.0,2,2.235
7310,233.92,-7.3499,-3.3437,0.1797,0.0001,0.0000,-1.9126,flat,18.0,2,1.662
7320,234.24,-7.5384,-3.8828,0.1797,0.0001,0.0000,-1.8903,flat,18.0,2,1.091
7330,234.56,-7.7044,-4.4082,0.1798,0.0001,0.0001,-1.9433,flat,18.0,3,0.862
7340,234.88,-7.8191,-4.7694,0.1798,-0.0002,0.0002,-1.7874,rough,14.0,0,13.166
7350,235.20,-7.8804,-5.0512,0.1798,-0.0000,0.0002,-1.4328,rough,14.0,0,13.236
7360,235.52,-7.8258,-5.3612,0.1799,0.0000,0.0001,-1.1561,rough,14.0,0,13.197
7370,235.84,-7.6448,-5.7046,0.1799,-0.0000,-0.0001,-0.9207,flat,18.0,0,13.043
7380,236.16,-7.3234,-6.0554,0.1799,0.0000,-0.0000,-0.7152,flat,18.0,0,12.761
7390,236.48,-6.9123,-6.3652,0.1799,0.0001,-0.0000,-0.5364,flat,18.0,0,12.395
7400,236.80,-6.4358,-6.6180,0.1799,0.0001,-0.0000,-0.3786,flat,18.0,0,11.966
7410,237.12,-5.9148,-6.8046,0.1799,0.0002,-0.0000,-0.2455,flat,18.0,0,11.489
7420,237.44,-5.3691,-6.9274,0.1798,0.0004,-0.0000,-0.1399,flat,18.0,0,10.981
7430,237.76,-4.8104,-6.9957,0.1798,0.0004,-0.0000,-0.0557,flat,18.0,0,10.452
7440,238.08,-4.2454,-7.0191,0.1797,0.0003,-0.0000,0.0118,flat,18.0,0,9.910
7450,238.40,-3.6793,-7.0062,0.1797,0.0002,-0.0000,0.0623,flat,18.0,0,9.360
7460,238.72,-3.1134,-6.9659,0.1797,0.0001,-0.0000,0.1021,flat,18.0,0,8.805
7470,239.04,-2.5486,-6.9038,0.1797,0.0001,-0.0000,0.1345,flat,18.0,0,8.245
7480,239.36,-1.9850,-6.8239,0.1797,0.0001,-0.0000,0.1619,flat,18.0,0,7.683
7490,239.68,-1.4229,-6.7289,0.1797,0.0001,-0.0000,0.1854,flat,18.0,0,7.119
7500,240.00,-0.8626,-6.6209,0.1797,0.0001,-0.0000,0.2058,flat,18.0,0,6.553
7510,240.32,-0.3039,-6.5017,0.1797,0.0001,-0.0000,0.2239,flat,18.0,0,5.986
7520,240.64,0.2529,-6.3725,0.1797,0.0001,-0.0000,0.2401,flat,18.0,0,5.418
7530,240.96,0.8079,-6.2343,0.1797,0.0001,-0.0000,0.2550,flat,18.0,0,4.850
7540,241.28,1.3611,-6.0880,0.1797,0.0000,-0.0000,0.2687,flat,18.0,0,4.281
7550,241.60,1.9123,-5.9342,0.1797,0.0000,-0.0000,0.2819,flat,18.0,0,3.712
7560,241.92,2.4616,-5.7731,0.1797,0.0000,-0.0000,0.2947,flat,18.0,0,3.144
7570,242.24,3.0086,-5.6050,0.1797,0.0000,0.0000,0.3078,flat,18.0,0,2.576
7580,242.56,3.5529,-5.4297,0.1797,0.0000,0.0000,0.3221,flat,18.0,0,2.009
7590,242.88,4.0938,-5.2465,0.1797,0.0001,0.0000,0.3392,flat,18.0,0,1.446
7600,243.20,4.6286,-5.0542,0.1797,0.0001,0.0000,0.3651,flat,18.0,0,0.893
7610,243.52,5.0497,-4.8818,0.1798,-0.0003,0.0000,0.5601,flat,18.0,1,13.031
7620,243.84,5.3751,-4.6265,0.1799,-0.0000,-0.0000,0.8226,flat,18.0,1,12.894
7630,244.16,5.6633,-4.2543,0.1799,0.0000,-0.0000,1.0516,flat,18.0,1,12.648
7640,244.48,5.8905,-3.7967,0.1799,0.0000,-0.0000,1.2575,flat,18.0,1,12.311
7650,244.80,6.0349,-3.2811,0.1799,0.0001,-0.0000,1.4352,flat,18.0,1,11.900
7660,245.12,6.0925,-2.7339,0.1799,0.0001,-0.0000,1.5831,flat,18.0,1,11.431
7670,245.44,6.0725,-2.1772,0.1798,0.0004,-0.0000,1.6915,flat,18.0,1,10.926
7680,245.76,5.9953,-1.6225,0.1798,0.0004,-0.0000,1.7699,flat,18.0,1,10.400
7690,246.08,5.8761,-1.0725,0.1797,0.0002,-0.0000,1.8298,flat,18.0,1,9.862
7700,246.40,5.7250,-0.5283,0.1797,0.0002,-0.0000,1.8772,flat,18.0,1,9.314
7710,246.72,5.5488,0.0091,0.1797,0.0001,-0.0000,1.9136,flat,18.0,1,8.762
7720,247.04,5.3533,0.5412,0.1797,0.0001,-0.0000,1.9444,flat,18.0,1,8.207
7730,247.36,5.1417,1.0683,0.1797,0.0001,-0.0000,1.9708,flat,18.0,1,7.648
7740,247.68,4.9162,1.5906,0.1797,0.0001,-0.0000,1.9939,flat,18.0,1,7.087
7750,248.00,4.6788,2.1084,0.1797,0.0001,-0.0000,2.0144,flat,18.0,1,6.525
7760,248.32,4.4308,2.6220,0.1797,0.0001,-0.0000,2.0328,flat,18.0,1,5.961
7770,248.64,4.1735,3.1314,0.1797,0.0001,-0.0000,2.0495,flat,18.0,1,5.397
7780,248.96,3.9077,3.6368,0.1797,0.0001,-0.0000,2.0650,flat,18.0,1,4.832
7790,249.28,3.6340,4.1384,0.1797,0.0001,-0.0000,2.0795,flat,18.0,1,4.267
7800,249.60,3.3531,4.6361,0.1797,0.0000,-0.0000,2.0935,flat,18.0,1,3.702
7810,249.92,3.0653,5.1299,0.1797,0.0000,-0.0000,2.1072,flat,18.0,1,3.139
7820,250.24,2.7707,5.6196,0.1797,0.0000,0.0000,2.1212,flat,18.0,1,2.577
7830,250.56,2.4692,6.1046,0.1797,0.0001,0.0000,2.1363,flat,18.0,1,2.019
7840,250.88,2.1605,6.5841,0.1797,0.0001,0.0000,2.1538,flat,18.0,1,1.470
7850,251.20,1.8436,7.0557,0.1797,0.0001,0.0000,2.1777,flat,18.0,1,0.942
7860,251.52,1.5808,7.4196,0.1798,-0.0001,0.0002,2.4056,flat,18.0,2,15.553
7870,251.84,1.2925,7.6263,0.1799,-0.0001,-0.0001,2.7560,flat,18.0,2,15.546
7880,252.16,0.9505,7.7472,0.1799,-0.0000,-0.0001,3.0063,flat,18.0,2,15.445
7890,252.48,0.4935,7.7886,0.1799,-0.0000,-0.0000,-3.0011,flat,18.0,2,15.222
7900,252.80,0.0013,7.6963,0.1799,0.0000,-0.0000,-2.7914,flat,18.0,2,14.878
7910,253.12,-0.4846,7.4938,0.1799,0.0001,-0.0000,-2.6366,flat,18.0,2,14.452
7920,253.44,-0.9480,7.2119,0.1799,0.0003,-0.0000,-2.5217,flat,18.0,2,13.975
7930,253.76,-1.3872,6.8766,0.1798,0.0003,-0.0000,-2.4443,flat,18.0,2,13.467
7940,254.08,-1.8033,6.5076,0.1797,0.0002,-0.0000,-2.3793,flat,18.0,2,12.944
7950,254.40,-2.1973,6.1111,0.1797,0.0002,-0.0000,-2.3234,flat,18.0,2,12.410
7960,254.72,-2.5713,5.6928,0.1797,0.0002,-0.0000,-2.2756,flat,18.0,2,11.868
7970,255.04,-2.9279,5.2574,0.1797,0.0001,-0.0000,-2.2352,flat,18.0,2,11.319
7980,255.36,-3.2693,4.8071,0.1797,0.0001,-0.0000,-2.1995,flat,18.0,2,10.766
7990,255.68,-3.5964,4.3444,0.1797,0.0001,-0.0000,-2.1678,flat,18.0,2,10.208
8000,256.00,-3.9103,3.8710,0.1797,0.0001,-0.0000,-2.1396,flat,18.0,2,9.646
8010,256.32,-4.2121,3.3885,0.1797,0.0001,-0.0000,-2.1144,flat,18.0,2,9.083
8020,256.64,-4.5027,2.8981,0.1797,0.0001,-0.0000,-2.0918,flat,18.0,2,8.517
8030,256.96,-4.7831,2.4010,0.1797,0.0001,-0.0000,-2.0714,flat,18.0,2,7.949
8040,257.28,-5.0539,1.8980,0.1797,0.0001,-0.0000,-2.0529,flat,18.0,2,7.381
8050,257.60,-5.3160,1.3898,0.1797,0.0001,-0.0000,-2.0360,flat,18.0,2,6.811
8060,257.92,-5.5700,0.8771,0.1797,0.0001,-0.0000,-2.0205,flat,18.0,2,6.240
