step,time_s,x,y,z,roll,pitch,yaw,terrain,speed,target_idx,dist_to_target
10,0.32,2.0145,0.4859,0.7090,0.0994,-0.3090,-0.1022,rough,14.0,0,6.409
20,0.64,2.1912,0.4470,0.7702,0.1045,-0.4218,-0.1638,rough,14.0,0,6.247
30,0.96,2.5330,0.3803,0.9317,0.1100,-0.4536,-0.1856,rough,14.0,0,5.936
40,1.28,2.8639,0.3076,1.0938,0.1173,-0.4548,-0.2293,rough,14.0,0,5.640
50,1.60,3.1770,0.2201,1.2448,0.1266,-0.4270,-0.2750,rough,14.0,0,5.372
60,1.92,3.5001,0.1196,1.4025,0.1094,-0.4376,-0.2534,rough,14.0,0,5.106
70,2.24,3.8306,0.0219,1.5559,0.0933,-0.4110,-0.2288,rough,14.0,0,4.841
80,2.56,4.1547,-0.0611,1.6977,0.0784,-0.4049,-0.2073,rough,14.0,0,4.586
90,2.88,4.4911,-0.1342,1.8320,0.0535,-0.3767,-0.1469,rough,14.0,0,4.325
100,3.20,4.8243,-0.1873,1.9638,0.0426,-0.3548,-0.1290,rough,14.0,0,4.069
110,3.52,5.1542,-0.2335,2.0840,0.0291,-0.3473,-0.0898,rough,14.0,0,3.824
120,3.84,5.4812,-0.2620,2.1994,0.0188,-0.3301,-0.0627,rough,14.0,0,3.584
130,4.16,5.7982,-0.2826,2.3066,0.0115,-0.3212,-0.0386,rough,14.0,0,3.361
140,4.48,6.1026,-0.2946,2.4081,0.0076,-0.3190,-0.0261,rough,14.0,0,3.157
150,4.80,6.3939,-0.3022,2.5036,0.0049,-0.3145,-0.0159,rough,14.0,0,2.974
160,5.12,6.6685,-0.3067,2.5927,0.0030,-0.3138,-0.0093,rough,14.0,0,2.816
170,5.44,6.9255,-0.3091,2.6759,0.0017,-0.3127,-0.0049,rough,14.0,0,2.684
180,5.76,7.1635,-0.3103,2.7528,0.0010,-0.3126,-0.0025,rough,14.0,0,2.577
190,6.08,7.3822,-0.3109,2.8235,0.0006,-0.3134,-0.0008,rough,14.0,0,2.495
200,6.40,7.5818,-0.3111,2.8882,0.0004,-0.3135,-0.0001,rough,14.0,0,2.434
210,6.72,7.8318,-0.3135,2.8865,0.0158,0.1834,0.0026,rough,14.0,0,2.382
220,7.04,8.2726,-0.3294,2.6169,0.4305,1.3560,0.3323,rough,14.0,0,2.364
230,7.36,8.6380,-0.5646,2.3785,1.9509,0.4332,2.5208,rough,14.0,0,2.630
240,7.68,8.7293,-1.0179,2.2840,1.4834,-0.4617,2.8047,rough,14.0,0,3.092
250,8.00,8.7451,-1.2607,2.2784,0.8568,-0.4516,-3.0726,rough,14.0,0,3.334
260,8.32,8.7234,-1.4348,2.2392,0.2315,-0.4551,-3.0296,rough,14.0,0,3.504
270,8.64,8.5661,-1.4073,2.3013,0.2881,-0.4521,-3.1379,rough,14.0,0,3.458
280,8.96,8.4892,-1.3829,2.3715,0.4376,-0.6783,2.9950,rough,14.0,0,3.427
290,9.28,8.3723,-1.3744,2.4524,0.5759,-0.8881,2.6872,rough,14.0,0,3.412
300,9.60,8.3257,-1.2307,2.4416,0.8081,-0.5779,2.1626,rough,14.0,0,3.266
310,9.92,8.3416,-0.9271,2.3968,0.9042,-0.3990,1.9082,rough,14.0,0,2.963
320,10.24,8.3983,-0.5234,2.3437,0.9939,-0.1670,1.4843,rough,14.0,0,2.563
330,10.56,8.4534,-0.3065,2.4164,1.2870,-0.5812,0.8646,rough,14.0,0,2.351
340,10.88,8.5289,-0.3578,2.3657,1.9956,-0.3635,0.0154,rough,14.0,0,2.410
350,11.20,8.4951,-0.5102,2.2106,2.9301,0.0268,-0.3023,rough,14.0,0,2.558
360,11.52,8.5160,-0.5619,2.1862,-2.7885,0.3005,-0.2228,rough,14.0,0,2.612
370,11.84,8.4440,-0.5744,2.2131,-2.6975,0.5103,0.0011,rough,14.0,0,2.617
380,12.16,8.3244,-0.5942,2.2321,-2.8252,0.7305,0.2040,rough,14.0,0,2.630
390,12.48,8.2199,-0.6332,2.2931,-2.8451,0.9635,0.2758,rough,14.0,0,2.668
400,12.80,8.2405,-0.6610,2.2585,-2.8839,0.9452,0.2545,rough,14.0,0,2.695
410,13.12,8.2416,-0.6930,2.2587,-2.8591,0.9412,0.3005,rough,14.0,0,2.727
420,13.44,8.2377,-0.7324,2.2647,-2.8509,0.9360,0.3278,rough,14.0,0,2.767
430,13.76,8.2331,-0.7876,2.2719,-2.8515,0.9309,0.3523,slope,18.0,0,2.822
440,14.08,8.2272,-0.8707,2.2814,-2.8690,0.9269,0.3693,slope,18.0,0,2.905
450,14.40,8.2250,-0.9522,2.2859,-2.9595,0.9387,0.2988,slope,18.0,0,2.987
460,14.72,8.2306,-0.9896,2.2833,-3.0883,0.9692,0.1621,rough,14.0,0,3.024
470,15.04,8.2376,-1.0091,2.2757,3.0710,0.9753,0.0203,rough,14.0,0,3.043
480,15.36,8.2449,-1.0106,2.2659,3.0289,0.9750,-0.0279,rough,14.0,0,3.045
490,15.68,8.2488,-1.0134,2.2607,2.9385,0.9640,-0.1408,rough,14.0,0,3.048
500,16.00,8.2525,-1.0070,2.2551,2.8734,0.9534,-0.2233,rough,14.0,0,3.041
510,16.32,8.2532,-0.9897,2.2526,2.8788,0.9592,-0.2164,rough,14.0,0,3.024
520,16.64,8.2533,-0.9765,2.2518,2.8730,0.9629,-0.2236,rough,14.0,0,3.011
530,16.96,8.2541,-0.9665,2.2504,2.8741,0.9667,-0.2236,rough,14.0,0,3.001
540,17.28,8.2546,-0.9569,2.2496,2.8717,0.9687,-0.2290,rough,14.0,0,2.991
550,17.60,8.2553,-0.9468,2.2484,2.8709,0.9710,-0.2324,rough,14.0,0,2.981
560,17.92,8.2562,-0.9367,2.2469,2.8714,0.9721,-0.2353,rough,14.0,0,2.971
570,18.24,8.2546,-0.9282,2.2491,2.8592,0.9708,-0.2540,rough,14.0,0,2.963
580,18.56,8.2511,-0.9177,2.2541,2.8364,0.9680,-0.2871,rough,14.0,0,2.952
590,18.88,8.2469,-0.9051,2.2598,2.8140,0.9644,-0.3209,rough,14.0,0,2.939
600,19.20,8.2380,-0.8772,2.2720,2.7857,0.9582,-0.3708,slope,18.0,0,2.912
610,19.52,8.2470,-0.8549,2.2557,3.0181,0.9750,-0.1058,slope,18.0,0,2.889
620,19.84,8.2388,-0.8520,2.2694,2.9265,0.9738,-0.2143,slope,18.0,0,2.886
630,20.16,8.2307,-0.8363,2.2789,2.8243,0.9522,-0.3454,slope,18.0,0,2.871
640,20.48,8.2220,-0.8001,2.2932,2.6874,0.9289,-0.5327,slope,18.0,0,2.834
650,20.80,8.2121,-0.7396,2.3055,2.5552,0.8672,-0.7347,slope,18.0,0,2.774
660,21.12,8.2053,-0.6630,2.3141,2.4355,0.7726,-0.9413,rough,14.0,0,2.697
670,21.44,8.2047,-0.6007,2.3156,2.3607,0.6734,-1.0721,rough,14.0,0,2.635
680,21.76,8.2135,-0.5035,2.3074,2.2652,0.4832,-1.2808,rough,14.0,0,2.538
690,22.08,8.2541,-0.4995,2.2502,2.1389,0.0818,-1.6263,rough,14.0,0,2.534
700,22.40,8.2829,-0.8016,2.2377,2.1715,-0.0365,-1.3834,rough,14.0,0,2.836
710,22.72,8.3277,-1.1003,2.2402,2.3010,-0.0840,-1.2989,rough,14.0,0,3.136
720,23.04,8.3764,-1.2944,2.2339,2.5738,-0.0870,-1.5246,rough,14.0,0,3.332
730,23.36,8.4495,-1.2993,2.1815,2.6604,-0.1837,-1.5307,slope,18.0,0,3.341
740,23.68,8.5524,-1.2117,2.1009,2.8425,-0.1367,-1.6681,rough,14.0,0,3.262
750,24.00,8.6140,-1.1335,2.0699,2.8420,0.0311,-1.7011,rough,14.0,0,3.191
760,24.32,8.6573,-1.0378,2.0659,2.7898,0.1296,-1.6714,rough,14.0,0,3.101
770,24.64,8.6462,-1.1638,2.0581,2.8784,-0.0565,-1.7481,rough,14.0,0,3.225
780,24.96,8.6523,-1.2277,2.0646,2.8142,-0.0989,-1.6825,rough,14.0,0,3.289
790,25.28,8.6563,-1.2743,2.0677,2.7750,-0.1416,-1.6809,rough,14.0,0,3.335
800,25.60,8.6654,-1.2390,2.0663,2.7824,-0.0657,-1.6728,rough,14.0,0,3.302
810,25.92,8.6654,-1.2301,2.0659,2.7501,-0.0229,-1.6838,rough,14.0,0,3.293
820,26.24,8.6563,-1.2436,2.0634,2.7735,-0.0846,-1.6647,rough,14.0,0,3.305
830,26.56,8.6630,-1.2427,2.0667,2.7790,-0.0709,-1.6795,rough,14.0,0,3.305
840,26.88,8.6594,-1.2566,2.0662,2.7832,-0.1140,-1.6695,rough,14.0,0,3.318
850,27.20,8.6549,-1.2298,2.0648,2.7691,-0.0622,-1.6641,rough,14.0,0,3.291
860,27.52,8.6586,-1.1819,2.0611,2.8431,-0.0337,-1.6969,rough,14.0,0,3.244
870,27.84,8.6449,-1.0964,2.0593,2.7981,0.0773,-1.7232,rough,14.0,0,3.158
880,28.16,8.6541,-1.1555,2.0577,2.8469,-0.0075,-1.6958,rough,14.0,0,3.217
890,28.48,8.6488,-1.1450,2.0571,2.8420,0.0080,-1.7221,rough,14.0,0,3.206
900,28.80,8.6553,-1.1166,2.0551,2.8297,0.0726,-1.6855,rough,14.0,0,3.179
910,29.12,8.6508,-1.1559,2.0586,2.8292,0.0088,-1.7106,rough,14.0,0,3.217
920,29.44,8.6505,-1.1218,2.0557,2.8468,0.0420,-1.7057,rough,14.0,0,3.184
930,29.76,8.6494,-1.1317,2.0559,2.8540,0.0192,-1.7261,rough,14.0,0,3.193
940,30.08,8.6492,-1.1324,2.0560,2.8540,0.0187,-1.7257,rough,14.0,0,3.194
950,30.40,8.6563,-1.1323,2.0573,2.8500,0.0399,-1.7254,rough,14.0,0,3.195
960,30.72,8.6486,-1.1431,2.0573,2.8607,-0.0128,-1.7283,rough,14.0,0,3.204
970,31.04,8.6521,-1.1361,2.0551,2.8469,0.0176,-1.6982,rough,14.0,0,3.198
980,31.36,8.6505,-1.1278,2.0557,2.8427,0.0378,-1.7185,rough,14.0,0,3.190
990,31.68,8.6539,-1.1278,2.0546,2.8485,0.0271,-1.7277,rough,14.0,0,3.190
1000,32.00,8.6518,-1.1688,2.0591,2.8373,-0.0227,-1.7094,rough,14.0,0,3.230
1010,32.32,8.6492,-1.1367,2.0564,2.8526,0.0116,-1.7124,rough,14.0,0,3.198
1020,32.64,8.6491,-1.1399,2.0566,2.8558,0.0043,-1.7255,rough,14.0,0,3.201
1030,32.96,8.6541,-1.1319,2.0542,2.8547,0.0155,-1.7334,rough,14.0,0,3.194
1040,33.28,8.6526,-1.1735,2.0595,2.8381,-0.0298,-1.7037,rough,14.0,0,3.235
1050,33.60,8.6546,-1.1582,2.0587,2.8430,-0.0050,-1.6946,rough,14.0,0,3.220
1060,33.92,8.6466,-1.1184,2.0450,2.8451,-0.0024,-1.6957,rough,14.0,0,3.180
1070,34.24,8.6512,-1.1514,2.0572,2.8559,-0.0145,-1.7067,rough,14.0,0,3.213
1080,34.56,8.6494,-1.1537,2.0579,2.8330,0.0012,-1.7108,rough,14.0,0,3.215
1090,34.88,8.6508,-1.1259,2.0545,2.8473,0.0352,-1.7271,rough,14.0,0,3.188
1100,35.20,8.6527,-1.1456,2.0570,2.8455,0.0128,-1.7026,rough,14.0,0,3.207
1110,35.52,8.6522,-1.1102,2.0544,2.8576,0.0563,-1.6947,rough,14.0,0,3.172
1120,35.84,8.6516,-1.1503,2.0574,2.8485,-0.0043,-1.7043,rough,14.0,0,3.212
1130,36.16,8.6501,-1.1342,2.0563,2.8557,0.0149,-1.7193,rough,14.0,0,3.196
1140,36.48,8.6488,-1.1488,2.0569,2.8712,-0.0257,-1.7307,rough,14.0,0,3.210
1150,36.80,8.6604,-1.1475,2.0580,2.8702,0.0037,-1.6952,rough,14.0,0,3.210
1160,37.12,8.6510,-1.1230,2.0521,2.8633,0.0490,-1.7097,rough,14.0,0,3.185
1170,37.44,8.6553,-1.1235,2.0526,2.8510,0.0317,-1.6877,rough,14.0,0,3.186
1180,37.76,8.6520,-1.1355,2.0561,2.8441,0.0274,-1.7069,rough,14.0,0,3.197
1190,38.08,8.6519,-1.1273,2.0553,2.8660,0.0211,-1.7069,rough,14.0,0,3.189
1200,38.40,8.6500,-1.1502,2.0553,2.8936,-0.0464,-1.7079,rough,14.0,0,3.212
1210,38.72,8.6498,-1.1345,2.0563,2.8524,0.0181,-1.7184,rough,14.0,0,3.196
1220,39.04,8.6505,-1.1291,2.0561,2.8491,0.0300,-1.7163,rough,14.0,0,3.191
1230,39.36,8.6514,-1.1390,2.0569,2.8459,0.0176,-1.7061,rough,14.0,0,3.201
1240,39.68,8.6505,-1.1265,2.0557,2.8364,0.0472,-1.7191,rough,14.0,0,3.188
1250,40.00,8.6474,-1.1388,2.0564,2.8650,-0.0043,-1.7374,rough,14.0,0,3.200
1260,40.32,8.6487,-1.1334,2.0544,2.8588,0.0100,-1.7331,rough,14.0,0,3.195
1270,40.64,8.6506,-1.1294,2.0559,2.8489,0.0295,-1.7161,rough,14.0,0,3.191
1280,40.96,8.6503,-1.1296,2.0560,2.8527,0.0253,-1.7176,rough,14.0,0,3.191
1290,41.28,8.6502,-1.1285,2.0560,2.8494,0.0294,-1.7192,rough,14.0,0,3.190
1300,41.60,8.6518,-1.1344,2.0491,2.8995,0.0143,-1.7352,rough,14.0,0,3.196
1310,41.92,8.6524,-1.1257,2.0560,2.8460,0.0429,-1.7191,rough,14.0,0,3.188
1320,42.24,8.6465,-1.1342,2.0558,2.8583,0.0058,-1.7288,rough,14.0,0,3.195
1330,42.56,8.6511,-1.1238,2.0558,2.8387,0.0491,-1.7125,rough,14.0,0,3.186
1340,42.88,8.6475,-1.1476,2.0567,2.8642,-0.0206,-1.7311,rough,14.0,0,3.209
1350,43.20,8.6548,-1.1298,2.0562,2.8536,0.0326,-1.7147,rough,14.0,0,3.192
1360,43.52,8.6503,-1.1269,2.0524,2.8648,0.0383,-1.7156,rough,14.0,0,3.189
1370,43.84,8.6499,-1.1278,2.0558,2.8525,0.0282,-1.7188,rough,14.0,0,3.189
1380,44.16,8.6510,-1.1284,2.0559,2.8499,0.0296,-1.7181,rough,14.0,0,3.190
1390,44.48,8.6573,-1.1585,2.0590,2.8466,-0.0030,-1.6843,rough,14.0,0,3.221
1400,44.80,8.6535,-1.1215,2.0555,2.8332,0.0599,-1.7011,rough,14.0,0,3.184
1410,45.12,8.6503,-1.1292,2.0559,2.8511,0.0276,-1.7191,rough,14.0,0,3.191
1420,45.44,8.6493,-1.1238,2.0567,2.8449,0.0333,-1.7273,rough,14.0,0,3.185
1430,45.76,8.6542,-1.1678,2.0590,2.8485,-0.0276,-1.6936,rough,14.0,0,3.230
1440,46.08,8.6519,-1.1734,2.0596,2.8474,-0.0394,-1.7033,rough,14.0,0,3.235
1450,46.40,8.6473,-1.1114,2.0593,2.8224,0.0517,-1.7489,rough,14.0,0,3.173
1460,46.72,8.6479,-1.1671,2.0585,2.8672,-0.0503,-1.7294,rough,14.0,0,3.228
1470,47.04,8.6569,-1.1718,2.0585,2.8546,-0.0413,-1.6893,rough,14.0,0,3.234
1480,47.36,8.6508,-1.1144,2.0538,2.8656,0.0560,-1.7551,rough,14.0,0,3.176
1490,47.68,8.6530,-1.1271,2.0556,2.8489,0.0341,-1.6998,rough,14.0,0,3.189
1500,48.00,8.6501,-1.1284,2.0560,2.8497,0.0284,-1.7204,rough,14.0,0,3.190
1510,48.32,8.6535,-1.1258,2.0558,2.8458,0.0431,-1.7035,rough,14.0,0,3.188
1520,48.64,8.6551,-1.1278,2.0542,2.8561,0.0458,-1.7086,rough,14.0,0,3.190
1530,48.96,8.6476,-1.1357,2.0568,2.8614,0.0061,-1.7187,rough,14.0,0,3.197
1540,49.28,8.6491,-1.1364,2.0550,2.8652,0.0025,-1.7258,rough,14.0,0,3.198
1550,49.60,8.6493,-1.1604,2.0576,2.8748,-0.0437,-1.7150,rough,14.0,0,3.222
1560,49.92,8.6522,-1.1386,2.0568,2.8589,0.0069,-1.7021,rough,14.0,0,3.200
1570,50.24,8.6518,-1.1362,2.0552,2.8614,-0.0001,-1.7161,rough,14.0,0,3.198
1580,50.56,8.6541,-1.1337,2.0561,2.8617,0.0226,-1.7142,rough,14.0,0,3.196
1590,50.88,8.6573,-1.1372,2.0550,2.8485,0.0305,-1.6957,rough,14.0,0,3.200
1600,51.20,8.6531,-1.1724,2.0595,2.8227,-0.0152,-1.6906,rough,14.0,0,3.234
1610,51.52,8.6507,-1.1465,2.0565,2.8176,0.0241,-1.7190,rough,14.0,0,3.208
1620,51.84,8.6506,-1.1271,2.0560,2.8438,0.0395,-1.7155,rough,14.0,0,3.189
1630,52.16,8.6501,-1.1445,2.0559,2.8604,-0.0093,-1.7297,rough,14.0,0,3.206
1640,52.48,8.6516,-1.1330,2.0561,2.8547,0.0186,-1.7106,rough,14.0,0,3.195
1650,52.80,8.6497,-1.1253,2.0540,2.8411,0.0391,-1.6961,rough,14.0,0,3.187
1660,53.12,8.6498,-1.1279,2.0524,2.8858,0.0151,-1.7106,rough,14.0,0,3.190
1670,53.44,8.6505,-1.1299,2.0558,2.8583,0.0215,-1.7153,rough,14.0,0,3.192
1680,53.76,8.6563,-1.1194,2.0484,2.8144,0.0535,-1.6894,rough,14.0,0,3.182
1690,54.08,8.6517,-1.1267,2.0554,2.8388,0.0430,-1.7115,rough,14.0,0,3.189
1700,54.40,8.6515,-1.1267,2.0559,2.8484,0.0352,-1.7098,rough,14.0,0,3.189
1710,54.72,8.6518,-1.1237,2.0557,2.8428,0.0459,-1.7085,rough,14.0,0,3.186
1720,55.04,8.6504,-1.1557,2.0578,2.8447,-0.0091,-1.7101,rough,14.0,0,3.217
1730,55.36,8.6519,-1.1209,2.0554,2.8406,0.0523,-1.7042,rough,14.0,0,3.183
1740,55.68,8.6501,-1.1303,2.0559,2.8510,0.0261,-1.7186,rough,14.0,0,3.192
1750,56.00,8.6489,-1.1325,2.0560,2.8553,0.0166,-1.7278,rough,14.0,0,3.194
1760,56.32,8.6556,-1.1378,2.0551,2.8604,0.0135,-1.7178,rough,14.0,0,3.200
1770,56.64,8.6541,-1.1338,2.0565,2.8274,0.0483,-1.6967,rough,14.0,0,3.196
1780,56.96,8.6520,-1.1198,2.0542,2.8401,0.0618,-1.7069,rough,14.0,0,3.182
1790,57.28,8.6515,-1.1253,2.0559,2.8443,0.0420,-1.7091,rough,14.0,0,3.187
1800,57.60,8.6498,-1.1293,2.0547,2.8612,0.0262,-1.7237,rough,14.0,0,3.191
1810,57.92,8.6510,-1.1245,2.0557,2.8388,0.0482,-1.7121,rough,14.0,0,3.186
1820,58.24,8.6530,-1.1307,2.0550,2.8768,0.0124,-1.6978,rough,14.0,0,3.193
1830,58.56,8.6495,-1.1301,2.0560,2.8500,0.0256,-1.7204,rough,14.0,0,3.192
1840,58.88,8.6495,-1.1322,2.0562,2.8518,0.0217,-1.7221,rough,14.0,0,3.194
1850,59.20,8.6528,-1.1466,2.0566,2.8614,-0.0029,-1.6955,rough,14.0,0,3.208
1860,59.52,8.6494,-1.1487,2.0573,2.8524,-0.0069,-1.7192,rough,14.0,0,3.210
1870,59.84,8.6539,-1.1106,2.0476,2.8222,0.0508,-1.6870,rough,14.0,0,3.173
1880,60.16,8.6491,-1.1488,2.0552,2.8690,-0.0116,-1.7199,rough,14.0,0,3.210
1890,60.48,8.6492,-1.1324,2.0559,2.8597,0.0143,-1.7248,rough,14.0,0,3.194
1900,60.80,8.6482,-1.1349,2.0564,2.8595,0.0078,-1.7293,rough,14.0,0,3.196
1910,61.12,8.6566,-1.1410,2.0546,2.8433,0.0188,-1.6815,rough,14.0,0,3.203
1920,61.44,8.6534,-1.1690,2.0596,2.8161,-0.0015,-1.7034,rough,14.0,0,3.231
1930,61.76,8.6521,-1.1218,2.0558,2.8409,0.0533,-1.7173,rough,14.0,0,3.184
1940,62.08,8.6529,-1.1191,2.0520,2.8509,0.0688,-1.6978,rough,14.0,0,3.181
1950,62.40,8.6498,-1.1303,2.0559,2.8523,0.0242,-1.7229,rough,14.0,0,3.192
1960,62.72,8.6506,-1.1277,2.0559,2.8482,0.0332,-1.7151,rough,14.0,0,3.189
1970,63.04,8.6484,-1.1352,2.0563,2.8597,0.0075,-1.7292,rough,14.0,0,3.197
1980,63.36,8.6493,-1.1346,2.0549,2.8479,0.0153,-1.7170,rough,14.0,0,3.196
1990,63.68,8.6507,-1.1423,2.0568,2.8507,0.0064,-1.7101,rough,14.0,0,3.204
2000,64.00,8.6502,-1.1223,2.0555,2.8456,0.0446,-1.7215,rough,14.0,0,3.184
2010,64.32,8.6516,-1.1586,2.0574,2.8577,-0.0216,-1.7088,rough,14.0,0,3.220
2020,64.64,8.6499,-1.1547,2.0582,2.8037,0.0241,-1.7009,rough,14.0,0,3.216
2030,64.96,8.6453,-1.1148,2.0462,2.8417,0.0008,-1.7023,rough,14.0,0,3.176
2040,65.28,8.6521,-1.1269,2.0558,2.8393,0.0435,-1.7018,rough,14.0,0,3.189
2050,65.60,8.6515,-1.1483,2.0575,2.8484,0.0008,-1.7060,rough,14.0,0,3.210
2060,65.92,8.6493,-1.1234,2.0574,2.8387,0.0351,-1.7256,rough,14.0,0,3.185
2070,66.24,8.6510,-1.1350,2.0558,2.8470,0.0192,-1.7104,rough,14.0,0,3.197
2080,66.56,8.6482,-1.1389,2.0568,2.8629,-0.0007,-1.7224,rough,14.0,0,3.200
2090,66.88,8.6516,-1.1440,2.0573,2.8569,0.0017,-1.7165,rough,14.0,0,3.206
2100,67.20,8.6499,-1.1310,2.0557,2.8571,0.0215,-1.7168,rough,14.0,0,3.193
2110,67.52,8.6561,-1.1208,2.0506,2.8364,0.0397,-1.6923,rough,14.0,0,3.183
2120,67.84,8.6496,-1.1358,2.0557,2.8563,0.0120,-1.7216,rough,14.0,0,3.197
2130,68.16,8.6512,-1.1362,2.0565,2.8471,0.0221,-1.7101,rough,14.0,0,3.198
2140,68.48,8.6538,-1.1238,2.0558,2.8357,0.0560,-1.6932,rough,14.0,0,3.186
2150,68.80,8.6503,-1.1427,2.0571,2.8512,0.0055,-1.7144,rough,14.0,0,3.204
2160,69.12,8.6557,-1.1243,2.0542,2.8540,0.0381,-1.7125,rough,14.0,0,3.187
2170,69.44,8.6500,-1.1254,2.0561,2.8448,0.0334,-1.7193,rough,14.0,0,3.187
2180,69.76,8.6503,-1.1408,2.0568,2.8489,0.0107,-1.7177,rough,14.0,0,3.202
2190,70.08,8.6541,-1.1342,2.0553,2.8591,0.0152,-1.6982,rough,14.0,0,3.196
2200,70.40,8.6506,-1.1242,2.0545,2.8466,0.0445,-1.7104,rough,14.0,0,3.186
2210,70.72,8.6499,-1.1305,2.0560,2.8546,0.0217,-1.7204,rough,14.0,0,3.192
2220,71.04,8.6499,-1.1317,2.0553,2.8679,0.0131,-1.7143,rough,14.0,0,3.193
2230,71.36,8.6525,-1.1370,2.0567,2.8505,0.0185,-1.6984,rough,14.0,0,3.199
2240,71.68,8.6493,-1.1359,2.0563,2.8563,0.0104,-1.7232,rough,14.0,0,3.197
2250,72.00,8.6530,-1.1400,2.0568,2.8362,0.0266,-1.7063,rough,14.0,0,3.202
2260,72.32,8.6504,-1.1529,2.0581,2.8164,0.0179,-1.7084,rough,14.0,0,3.214
2270,72.64,8.6551,-1.1087,2.0560,2.8188,0.0893,-1.6921,rough,14.0,0,3.171
2280,72.96,8.6552,-1.1373,2.0504,2.7931,0.0377,-1.6914,rough,14.0,0,3.200
2290,73.28,8.6513,-1.1188,2.0496,2.8069,0.0557,-1.7215,rough,14.0,0,3.181
2300,73.60,8.6498,-1.1301,2.0556,2.8501,0.0249,-1.7221,rough,14.0,0,3.192
2310,73.92,8.6504,-1.1303,2.0560,2.8508,0.0262,-1.7170,rough,14.0,0,3.192
2320,74.24,8.6515,-1.1256,2.0559,2.8446,0.0411,-1.7074,rough,14.0,0,3.187
2330,74.56,8.6519,-1.1441,2.0563,2.8530,0.0012,-1.7042,rough,14.0,0,3.206
2340,74.88,8.6505,-1.1247,2.0543,2.8502,0.0315,-1.7267,rough,14.0,0,3.186
2350,75.20,8.6572,-1.1396,2.0558,2.8523,0.0366,-1.6942,rough,14.0,0,3.202
2360,75.52,8.6530,-1.1224,2.0544,2.8598,0.0397,-1.7057,rough,14.0,0,3.184
2370,75.84,8.6506,-1.1186,2.0568,2.8350,0.0500,-1.7178,rough,14.0,0,3.180
2380,76.16,8.6491,-1.1687,2.0586,2.8607,-0.0483,-1.7231,rough,14.0,0,3.230
2390,76.48,8.6536,-1.1682,2.0593,2.8409,-0.0218,-1.6951,rough,14.0,0,3.230
2400,76.80,8.6593,-1.1079,2.0542,2.8618,0.0867,-1.7408,rough,14.0,0,3.171
2410,77.12,8.6568,-1.1481,2.0569,2.8346,0.0198,-1.6757,rough,14.0,0,3.211
2420,77.44,8.6647,-1.2418,2.0665,2.7614,-0.0556,-1.6656,rough,14.0,0,3.304
2430,77.76,8.6600,-1.2670,2.0682,2.7344,-0.0848,-1.6569,rough,14.0,0,3.329
2440,78.08,8.6663,-1.2578,2.0687,2.7627,-0.0745,-1.6782,rough,14.0,0,3.320
2450,78.40,8.6568,-1.2770,2.0674,2.8055,-0.1772,-1.6453,rough,14.0,0,3.338
2460,78.72,8.6588,-1.2413,2.0659,2.7531,-0.0599,-1.6798,rough,14.0,0,3.303
2470,79.04,8.6530,-1.2097,2.0623,2.8270,-0.0831,-1.6743,rough,14.0,0,3.271
2480,79.36,8.6494,-1.1541,2.0535,2.8738,-0.0097,-1.6989,rough,14.0,0,3.215
2490,79.68,8.6517,-1.1419,2.0568,2.8440,0.0177,-1.7092,rough,14.0,0,3.204
2500,80.00,8.6494,-1.1336,2.0557,2.8435,0.0235,-1.7187,rough,14.0,0,3.195
2510,80.32,8.6536,-1.1389,2.0570,2.8305,0.0369,-1.7005,rough,14.0,0,3.201
2520,80.64,8.6510,-1.1225,2.0564,2.8383,0.0458,-1.7165,rough,14.0,0,3.184
2530,80.96,8.6487,-1.1522,2.0566,2.8668,-0.0206,-1.7262,rough,14.0,0,3.214
2540,81.28,8.6509,-1.1271,2.0558,2.8485,0.0344,-1.7097,rough,14.0,0,3.189
2550,81.60,8.6496,-1.1361,2.0563,2.8537,0.0124,-1.7130,rough,14.0,0,3.198
2560,81.92,8.6489,-1.1262,2.0554,2.8411,0.0360,-1.7057,rough,14.0,0,3.188
2570,82.24,8.6509,-1.1276,2.0558,2.8481,0.0339,-1.7133,rough,14.0,0,3.189
2580,82.56,8.6526,-1.1230,2.0558,2.8393,0.0520,-1.7030,rough,14.0,0,3.185
2590,82.88,8.6475,-1.1445,2.0563,2.8520,-0.0037,-1.7281,rough,14.0,0,3.206
2600,83.20,8.6578,-1.1309,2.0535,2.8562,0.0421,-1.6920,rough,14.0,0,3.194
2610,83.52,8.6500,-1.1908,2.0607,2.8315,-0.0586,-1.7016,rough,14.0,0,3.252
2620,83.84,8.6486,-1.1813,2.0600,2.8669,-0.0779,-1.7101,rough,14.0,0,3.242
2630,84.16,8.6526,-1.1189,2.0557,2.8485,0.0484,-1.6918,rough,14.0,0,3.181
2640,84.48,8.6547,-1.1462,2.0566,2.8367,0.0255,-1.7026,rough,14.0,0,3.208
2650,84.80,8.6507,-1.1566,2.0586,2.8167,0.0146,-1.7181,rough,14.0,0,3.218
2660,85.12,8.6513,-1.1289,2.0558,2.8830,-0.0063,-1.6956,rough,14.0,0,3.191
2670,85.44,8.6535,-1.1571,2.0582,2.8537,-0.0158,-1.6951,rough,14.0,0,3.219
2680,85.76,8.6477,-1.1364,2.0560,2.8504,0.0111,-1.7136,rough,14.0,0,3.198
2690,86.08,8.6473,-1.1514,2.0575,2.8644,-0.0261,-1.7268,rough,14.0,0,3.213
2700,86.40,8.6525,-1.1212,2.0554,2.8451,0.0492,-1.7108,rough,14.0,0,3.183
2710,86.72,8.6511,-1.1485,2.0508,2.8769,-0.0400,-1.6992,rough,14.0,0,3.210
2720,87.04,8.6530,-1.1654,2.0589,2.8165,0.0031,-1.7093,rough,14.0,0,3.227
2730,87.36,8.6492,-1.1198,2.0543,2.8546,0.0434,-1.7254,rough,14.0,0,3.181
2740,87.68,8.6529,-1.1338,2.0567,2.8379,0.0368,-1.6938,rough,14.0,0,3.196
2750,88.00,8.6492,-1.1310,2.0558,2.8527,0.0210,-1.7232,rough,14.0,0,3.193
2760,88.32,8.6505,-1.1286,2.0560,2.8507,0.0290,-1.7159,rough,14.0,0,3.190
2770,88.64,8.6495,-1.1421,2.0561,2.8765,-0.0160,-1.7132,rough,14.0,0,3.204
2780,88.96,8.6542,-1.1229,2.0551,2.8444,0.0527,-1.6910,rough,14.0,0,3.185
2790,89.28,8.6501,-1.1449,2.0571,2.8577,-0.0025,-1.7251,rough,14.0,0,3.206
2800,89.60,8.6502,-1.1346,2.0563,2.8382,0.0319,-1.7198,rough,14.0,0,3.196
2810,89.92,8.6584,-1.1282,2.0543,2.8753,0.0401,-1.7152,rough,14.0,0,3.191
2820,90.24,8.6494,-1.1402,2.0562,2.8615,-0.0020,-1.7180,rough,14.0,0,3.202
2830,90.56,8.6507,-1.1266,2.0558,2.8423,0.0409,-1.7160,rough,14.0,0,3.188
2840,90.88,8.6522,-1.1367,2.0567,2.8428,0.0258,-1.6981,rough,14.0,0,3.199
2850,91.20,8.6540,-1.1264,2.0518,2.8544,0.0279,-1.7096,rough,14.0,0,3.189
2860,91.52,8.6520,-1.1254,2.0554,2.8461,0.0398,-1.7090,rough,14.0,0,3.187
2870,91.84,8.6512,-1.1310,2.0561,2.8474,0.0293,-1.7125,rough,14.0,0,3.193
2880,92.16,8.6517,-1.1227,2.0557,2.8282,0.0620,-1.7091,rough,14.0,0,3.185
2890,92.48,8.6503,-1.1321,2.0561,2.8514,0.0227,-1.7177,rough,14.0,0,3.194
2900,92.80,8.6508,-1.1217,2.0556,2.8357,0.0545,-1.7123,rough,14.0,0,3.183
2910,93.12,8.6499,-1.1219,2.0551,2.8376,0.0460,-1.6992,rough,14.0,0,3.184
2920,93.44,8.6481,-1.1552,2.0576,2.8691,-0.0354,-1.7261,rough,14.0,0,3.216
2930,93.76,8.6523,-1.1301,2.0563,2.8462,0.0343,-1.7031,rough,14.0,0,3.192
2940,94.08,8.6531,-1.1154,2.0555,2.8288,0.0699,-1.6945,rough,14.0,0,3.178
2950,94.40,8.6467,-1.1594,2.0583,2.8077,0.0065,-1.7098,rough,14.0,0,3.220
2960,94.72,8.6511,-1.1062,2.0557,2.8478,0.0601,-1.7127,rough,14.0,0,3.168
2970,95.04,8.6502,-1.1567,2.0579,2.8246,0.0033,-1.7234,rough,14.0,0,3.218
2980,95.36,8.6572,-1.1501,2.0546,2.8482,0.0356,-1.7099,rough,14.0,0,3.213
2990,95.68,8.6610,-1.1588,2.0594,2.8300,0.0221,-1.6928,rough,14.0,0,3.222
3000,96.00,8.6481,-1.1528,2.0574,2.8665,-0.0299,-1.7206,rough,14.0,0,3.214
3010,96.32,8.6506,-1.1114,2.0570,2.8225,0.0687,-1.7070,rough,14.0,0,3.173
3020,96.64,8.6536,-1.1904,2.0611,2.8491,-0.0640,-1.7066,rough,14.0,0,3.252
3030,96.96,8.6566,-1.1958,2.0604,2.8209,-0.0525,-1.6747,rough,14.0,0,3.258
3040,97.28,8.6488,-1.1631,2.0583,2.8529,-0.0333,-1.7183,rough,14.0,0,3.224
3050,97.60,8.6499,-1.1301,2.0543,2.8541,0.0244,-1.7163,rough,14.0,0,3.192
3060,97.92,8.6587,-1.1689,2.0597,2.8328,-0.0020,-1.6938,rough,14.0,0,3.231
3070,98.24,8.6587,-1.1709,2.0599,2.8345,-0.0112,-1.6809,rough,14.0,0,3.233
3080,98.56,8.6490,-1.1540,2.0577,2.8568,-0.0202,-1.7191,rough,14.0,0,3.215
3090,98.88,8.6551,-1.0999,2.0577,2.8039,0.1052,-1.6897,rough,14.0,0,3.162
3100,99.20,8.6573,-1.1825,2.0609,2.8498,-0.0474,-1.6737,rough,14.0,0,3.245
3110,99.52,8.6570,-1.1812,2.0602,2.8295,-0.0294,-1.6852,rough,14.0,0,3.243
3120,99.84,8.6486,-1.1467,2.0578,2.8159,0.0276,-1.7362,rough,14.0,0,3.208
3130,100.16,8.6537,-1.1306,2.0554,2.8390,0.0451,-1.6905,rough,14.0,0,3.193
3140,100.48,8.6506,-1.1404,2.0568,2.8504,0.0106,-1.7131,rough,14.0,0,3.202
3150,100.80,8.6505,-1.1295,2.0559,2.8548,0.0237,-1.7158,rough,14.0,0,3.191
3160,101.12,8.6556,-1.1260,2.0550,2.8421,0.0485,-1.7098,rough,14.0,0,3.188
3170,101.44,8.6522,-1.1250,2.0558,2.8439,0.0437,-1.7053,rough,14.0,0,3.187
3180,101.76,8.6504,-1.1312,2.0560,2.8511,0.0245,-1.7188,rough,14.0,0,3.193
3190,102.08,8.6522,-1.1354,2.0555,2.8529,0.0172,-1.7172,rough,14.0,0,3.197
3200,102.40,8.6532,-1.1197,2.0552,2.8212,0.0692,-1.7177,rough,14.0,0,3.182
3210,102.72,8.6558,-1.1705,2.0587,2.8341,-0.0147,-1.6881,rough,14.0,0,3.233
3220,103.04,8.6545,-1.1960,2.0620,2.8336,-0.0569,-1.7072,rough,14.0,0,3.258
3230,103.36,8.6523,-1.1486,2.0585,2.8798,-0.0258,-1.7068,rough,14.0,0,3.210
3240,103.68,8.6530,-1.1283,2.0546,2.8478,0.0342,-1.7093,rough,14.0,0,3.190
3250,104.00,8.6508,-1.1272,2.0558,2.8464,0.0358,-1.7145,rough,14.0,0,3.189
3260,104.32,8.6522,-1.1215,2.0562,2.8377,0.0520,-1.7058,rough,14.0,0,3.183
3270,104.64,8.6492,-1.1424,2.0562,2.8592,-0.0038,-1.7228,rough,14.0,0,3.204
3280,104.96,8.6525,-1.1221,2.0553,2.8417,0.0539,-1.7031,rough,14.0,0,3.184
3290,105.28,8.6503,-1.1286,2.0559,2.8486,0.0304,-1.7188,rough,14.0,0,3.190
3300,105.60,8.6520,-1.1204,2.0566,2.8343,0.0534,-1.7081,rough,14.0,0,3.182
3310,105.92,8.6486,-1.1337,2.0559,2.8564,0.0135,-1.7247,rough,14.0,0,3.195
3320,106.24,8.6559,-1.1351,2.0557,2.8439,0.0324,-1.7025,rough,14.0,0,3.198
3330,106.56,8.6472,-1.1374,2.0559,2.8399,0.0175,-1.7178,rough,14.0,0,3.199
3340,106.88,8.6478,-1.1486,2.0571,2.8688,-0.0228,-1.7330,rough,14.0,0,3.210
3350,107.20,8.6546,-1.1443,2.0576,2.8455,0.0146,-1.6821,rough,14.0,0,3.206
3360,107.52,8.6511,-1.1177,2.0563,2.8343,0.0535,-1.7146,rough,14.0,0,3.180
3370,107.84,8.6525,-1.1575,2.0577,2.8516,-0.0113,-1.7005,rough,14.0,0,3.219
3380,108.16,8.6657,-1.0997,2.0512,2.7962,0.0898,-1.7126,rough,14.0,0,3.164
3390,108.48,8.6541,-1.1440,2.0549,2.8498,0.0220,-1.6922,rough,14.0,0,3.206
3400,108.80,8.6521,-1.1933,2.0612,2.8519,-0.0789,-1.6932,rough,14.0,0,3.255
3410,109.12,8.6510,-1.1674,2.0581,2.8496,-0.0318,-1.6941,rough,14.0,0,3.229
3420,109.44,8.6476,-1.1230,2.0540,2.8630,0.0297,-1.7275,rough,14.0,0,3.184
3430,109.76,8.6493,-1.1373,2.0567,2.8485,0.0144,-1.7134,rough,14.0,0,3.199
3440,110.08,8.6512,-1.1312,2.0562,2.8513,0.0260,-1.7071,rough,14.0,0,3.193
3450,110.40,8.6512,-1.1252,2.0559,2.8384,0.0468,-1.7143,rough,14.0,0,3.187
3460,110.72,8.6485,-1.1344,2.0557,2.8549,0.0160,-1.7286,rough,14.0,0,3.196
3470,111.04,8.6504,-1.1372,2.0541,2.8609,0.0108,-1.7220,rough,14.0,0,3.199
3480,111.36,8.6515,-1.1269,2.0557,2.8474,0.0367,-1.7099,rough,14.0,0,3.189
3490,111.68,8.6511,-1.1268,2.0557,2.8470,0.0384,-1.7101,rough,14.0,0,3.189
3500,112.00,8.6515,-1.1334,2.0562,2.8441,0.0284,-1.7100,rough,14.0,0,3.195
3510,112.32,8.6560,-1.1329,2.0559,2.8523,0.0294,-1.7052,rough,14.0,0,3.195
3520,112.64,8.6502,-1.1263,2.0557,2.8538,0.0294,-1.7184,rough,14.0,0,3.188
3530,112.96,8.6565,-1.1293,2.0565,2.8274,0.0631,-1.7132,rough,14.0,0,3.192
3540,113.28,8.6495,-1.1309,2.0559,2.8562,0.0193,-1.7239,rough,14.0,0,3.192
3550,113.60,8.6496,-1.1237,2.0569,2.8432,0.0346,-1.7253,rough,14.0,0,3.185
3560,113.92,8.6521,-1.1518,2.0576,2.8422,0.0002,-1.7060,rough,14.0,0,3.213
3570,114.24,8.6490,-1.1389,2.0565,2.8540,0.0065,-1.7193,rough,14.0,0,3.200
3580,114.56,8.6503,-1.1267,2.0559,2.8499,0.0330,-1.7167,rough,14.0,0,3.188
3590,114.88,8.6502,-1.1459,2.0571,2.8522,-0.0018,-1.7113,rough,14.0,0,3.207
3600,115.20,8.6500,-1.1209,2.0534,2.8613,0.0428,-1.7196,rough,14.0,0,3.183
3610,115.52,8.6509,-1.1310,2.0563,2.8489,0.0280,-1.7129,rough,14.0,0,3.193
3620,115.84,8.6501,-1.1283,2.0560,2.8484,0.0317,-1.7167,rough,14.0,0,3.190
3630,116.16,8.6503,-1.1258,2.0557,2.8491,0.0354,-1.7183,rough,14.0,0,3.187
3640,116.48,8.6527,-1.1336,2.0565,2.8510,0.0233,-1.6986,rough,14.0,0,3.196
3650,116.80,8.6505,-1.1237,2.0565,2.8328,0.0495,-1.7194,rough,14.0,0,3.185
3660,117.12,8.6498,-1.1488,2.0570,2.8581,-0.0117,-1.7215,rough,14.0,0,3.210
3670,117.44,8.6502,-1.1415,2.0568,2.8549,0.0040,-1.7156,rough,14.0,0,3.203
3680,117.76,8.6573,-1.1251,2.0540,2.8544,0.0400,-1.7113,rough,14.0,0,3.188
3690,118.08,8.6489,-1.1281,2.0544,2.8609,0.0257,-1.7253,rough,14.0,0,3.190
3700,118.40,8.6508,-1.1264,2.0558,2.8423,0.0412,-1.7159,rough,14.0,0,3.188
3710,118.72,8.6524,-1.1231,2.0559,2.8376,0.0527,-1.7044,rough,14.0,0,3.185
3720,119.04,8.6524,-1.1226,2.0558,2.8420,0.0502,-1.7036,rough,14.0,0,3.185
3730,119.36,8.6563,-1.1092,2.0561,2.8192,0.0826,-1.6958,rough,14.0,0,3.172
3740,119.68,8.6579,-1.1399,2.0561,2.8609,0.0219,-1.6931,rough,14.0,0,3.202
3750,120.00,8.6506,-1.1156,2.0564,2.8186,0.0723,-1.7196,rough,14.0,0,3.177
3760,120.32,8.6493,-1.1427,2.0566,2.8524,0.0006,-1.7106,rough,14.0,0,3.204
3770,120.64,8.6506,-1.1405,2.0565,2.8569,0.0043,-1.7151,rough,14.0,0,3.202
3780,120.96,8.6520,-1.1253,2.0559,2.8425,0.0443,-1.7063,rough,14.0,0,3.187
3790,121.28,8.6488,-1.1350,2.0547,2.8656,0.0122,-1.7274,rough,14.0,0,3.196
3800,121.60,8.6493,-1.1310,2.0559,2.8516,0.0232,-1.7264,rough,14.0,0,3.193
3810,121.92,8.6499,-1.1311,2.0560,2.8499,0.0256,-1.7208,rough,14.0,0,3.193
3820,122.24,8.6486,-1.1364,2.0562,2.8572,0.0090,-1.7291,rough,14.0,0,3.198
3830,122.56,8.6504,-1.1347,2.0553,2.8739,0.0067,-1.7269,rough,14.0,0,3.196
3840,122.88,8.6500,-1.1270,2.0558,2.8463,0.0344,-1.7117,rough,14.0,0,3.189
3850,123.20,8.6498,-1.1295,2.0559,2.8483,0.0289,-1.7223,rough,14.0,0,3.191
3860,123.52,8.6508,-1.1278,2.0559,2.8499,0.0315,-1.7147,rough,14.0,0,3.190
3870,123.84,8.6537,-1.1487,2.0565,2.8510,0.0008,-1.6940,rough,14.0,0,3.211
3880,124.16,8.6499,-1.1598,2.0588,2.8265,0.0013,-1.7367,rough,14.0,0,3.221
3890,124.48,8.6525,-1.1287,2.0551,2.8459,0.0328,-1.7053,rough,14.0,0,3.191
3900,124.80,8.6485,-1.1366,2.0566,2.8597,0.0056,-1.7235,rough,14.0,0,3.198
3910,125.12,8.6549,-1.1341,2.0571,2.8625,0.0181,-1.7083,rough,14.0,0,3.196
3920,125.44,8.6506,-1.1234,2.0561,2.8435,0.0406,-1.7118,rough,14.0,0,3.185
3930,125.76,8.6529,-1.1335,2.0559,2.8503,0.0224,-1.7023,rough,14.0,0,3.196
3940,126.08,8.6508,-1.1302,2.0560,2.8506,0.0271,-1.7149,rough,14.0,0,3.192
3950,126.40,8.6531,-1.1442,2.0563,2.8463,0.0110,-1.6897,rough,14.0,0,3.206
3960,126.72,8.6486,-1.1611,2.0587,2.8267,-0.0053,-1.7261,rough,14.0,0,3.222
3970,127.04,8.6500,-1.1234,2.0557,2.8569,0.0187,-1.7352,rough,14.0,0,3.185
3980,127.36,8.6509,-1.1500,2.0572,2.8350,0.0122,-1.7179,rough,14.0,0,3.212
3990,127.68,8.6522,-1.1346,2.0554,2.8658,0.0132,-1.7002,rough,14.0,0,3.197
4000,128.00,8.6499,-1.1336,2.0560,2.8510,0.0195,-1.7168,rough,14.0,0,3.195
4010,128.32,8.6484,-1.1450,2.0571,2.8602,-0.0097,-1.7216,rough,14.0,0,3.206
4020,128.64,8.6487,-1.1210,2.0571,2.8420,0.0362,-1.7318,rough,14.0,0,3.183
4030,128.96,8.6503,-1.1508,2.0575,2.8560,-0.0114,-1.7152,rough,14.0,0,3.212
4040,129.28,8.6520,-1.1376,2.0567,2.8316,0.0351,-1.7033,rough,14.0,0,3.199
4050,129.60,8.6495,-1.1326,2.0562,2.8520,0.0187,-1.7217,rough,14.0,0,3.194
4060,129.92,8.6524,-1.1603,2.0575,2.8259,0.0002,-1.7083,rough,14.0,0,3.222
4070,130.24,8.6607,-1.1248,2.0551,2.8364,0.0774,-1.6833,rough,14.0,0,3.188
4080,130.56,8.6499,-1.1364,2.0562,2.8576,0.0094,-1.7180,rough,14.0,0,3.198
4090,130.88,8.6554,-1.1271,2.0540,2.8482,0.0350,-1.7144,rough,14.0,0,3.189
4100,131.20,8.6500,-1.1384,2.0563,2.8525,0.0111,-1.7228,rough,14.0,0,3.200
4110,131.52,8.6580,-1.1276,2.0539,2.8511,0.0490,-1.6918,rough,14.0,0,3.190
4120,131.84,8.6548,-1.1672,2.0594,2.8363,-0.0132,-1.7000,rough,14.0,0,3.229
4130,132.16,8.6561,-1.1406,2.0579,2.8394,0.0342,-1.7231,rough,14.0,0,3.203
4140,132.48,8.6467,-1.1423,2.0511,2.8680,-0.0406,-1.7381,rough,14.0,0,3.203
4150,132.80,8.6499,-1.1444,2.0569,2.8589,-0.0058,-1.7195,rough,14.0,0,3.206
4160,133.12,8.6503,-1.1285,2.0556,2.8463,0.0355,-1.7192,rough,14.0,0,3.190
4170,133.44,8.6498,-1.1284,2.0559,2.8385,0.0409,-1.7238,rough,14.0,0,3.190
4180,133.76,8.6524,-1.1375,2.0562,2.8691,0.0011,-1.6935,rough,14.0,0,3.199
4190,134.08,8.6501,-1.1327,2.0562,2.8550,0.0176,-1.7176,rough,14.0,0,3.194
4200,134.40,8.6514,-1.1200,2.0547,2.8433,0.0418,-1.7268,rough,14.0,0,3.182
4210,134.72,8.6514,-1.1425,2.0569,2.8423,0.0154,-1.7090,rough,14.0,0,3.204
4220,135.04,8.6491,-1.1266,2.0564,2.8447,0.0379,-1.7108,rough,14.0,0,3.188
4230,135.36,8.6484,-1.1422,2.0563,2.8582,-0.0040,-1.7267,rough,14.0,0,3.204
4240,135.68,8.6519,-1.1264,2.0554,2.8415,0.0458,-1.7096,rough,14.0,0,3.188
4250,136.00,8.6527,-1.1213,2.0556,2.8400,0.0525,-1.6996,rough,14.0,0,3.183
4260,136.32,8.6552,-1.1294,2.0535,2.8672,0.0327,-1.7050,rough,14.0,0,3.192
4270,136.64,8.6475,-1.1341,2.0558,2.8599,0.0068,-1.7232,rough,14.0,0,3.195
4280,136.96,8.6514,-1.1244,2.0558,2.8358,0.0514,-1.7105,rough,14.0,0,3.186
4290,137.28,8.6497,-1.1331,2.0567,2.8501,0.0208,-1.7177,rough,14.0,0,3.195
4300,137.60,8.6475,-1.1330,2.0553,2.8598,0.0106,-1.7214,rough,14.0,0,3.194
4310,137.92,8.6513,-1.1258,2.0559,2.8443,0.0405,-1.7096,rough,14.0,0,3.188
4320,138.24,8.6490,-1.1309,2.0549,2.8663,0.0163,-1.7281,rough,14.0,0,3.192
4330,138.56,8.6514,-1.1223,2.0559,2.8270,0.0620,-1.7113,rough,14.0,0,3.184
4340,138.88,8.6488,-1.1503,2.0567,2.8589,-0.0178,-1.7263,rough,14.0,0,3.212
4350,139.20,8.6503,-1.1273,2.0557,2.8509,0.0291,-1.7056,rough,14.0,0,3.189
4360,139.52,8.6503,-1.1309,2.0561,2.8494,0.0266,-1.7156,rough,14.0,0,3.193
4370,139.84,8.6499,-1.1245,2.0550,2.8417,0.0413,-1.6963,rough,14.0,0,3.186
4380,140.16,8.6473,-1.1373,2.0569,2.8558,0.0062,-1.7305,rough,14.0,0,3.198
4390,140.48,8.6544,-1.1297,2.0551,2.8547,0.0285,-1.7237,rough,14.0,0,3.192
4400,140.80,8.6567,-1.1306,2.0559,2.8671,0.0267,-1.7050,rough,14.0,0,3.193
4410,141.12,8.6486,-1.1340,2.0550,2.8761,-0.0001,-1.7250,rough,14.0,0,3.195
4420,141.44,8.6478,-1.1258,2.0568,2.8309,0.0423,-1.7386,rough,14.0,0,3.187
4430,141.76,8.6504,-1.1348,2.0560,2.8529,0.0161,-1.7225,rough,14.0,0,3.196
4440,142.08,8.6476,-1.1455,2.0497,2.8886,-0.0501,-1.7230,rough,14.0,0,3.207
4450,142.40,8.6497,-1.1527,2.0573,2.8595,-0.0213,-1.7185,rough,14.0,0,3.214
4460,142.72,8.6514,-1.1140,2.0573,2.8270,0.0616,-1.7160,rough,14.0,0,3.176
4470,143.04,8.6481,-1.1770,2.0592,2.8526,-0.0564,-1.7197,rough,14.0,0,3.238
4480,143.36,8.6494,-1.1935,2.0621,2.8550,-0.0827,-1.6902,rough,14.0,0,3.254
4490,143.68,8.6484,-1.1932,2.0607,2.8623,-0.0915,-1.7214,rough,14.0,0,3.254
4500,144.00,8.6498,-1.1405,2.0553,2.8597,-0.0029,-1.7383,rough,14.0,0,3.202
4510,144.32,8.6522,-1.1494,2.0575,2.8606,-0.0106,-1.7087,rough,14.0,0,3.211
4520,144.64,8.6511,-1.1639,2.0593,2.8155,0.0041,-1.7152,rough,14.0,0,3.225
4530,144.96,8.6527,-1.1219,2.0559,2.8447,0.0508,-1.7126,rough,14.0,0,3.184
4540,145.28,8.6511,-1.1367,2.0561,2.8433,0.0235,-1.6956,rough,14.0,0,3.198
4550,145.60,8.6521,-1.1451,2.0572,2.8458,0.0092,-1.7042,rough,14.0,0,3.207
4560,145.92,8.6523,-1.1274,2.0561,2.8413,0.0426,-1.7036,rough,14.0,0,3.189
4570,146.24,8.6495,-1.1337,2.0563,2.8520,0.0188,-1.7229,rough,14.0,0,3.195
4580,146.56,8.6539,-1.1448,2.0566,2.8403,0.0161,-1.6963,rough,14.0,0,3.207
4590,146.88,8.6593,-1.1612,2.0595,2.8407,0.0037,-1.6968,rough,14.0,0,3.224
4600,147.20,8.6446,-1.1192,2.0535,2.8290,0.0579,-1.7184,rough,14.0,0,3.180
4610,147.52,8.6659,-1.1231,2.0569,2.8713,0.0548,-1.7042,rough,14.0,0,3.187
4620,147.84,8.6580,-1.1362,2.0572,2.8210,0.0607,-1.7009,rough,14.0,0,3.199
4630,148.16,8.6516,-1.1432,2.0571,2.8582,-0.0000,-1.7098,rough,14.0,0,3.205
4640,148.48,8.6547,-1.1267,2.0537,2.8368,0.0444,-1.7215,rough,14.0,0,3.189
4650,148.80,8.6581,-1.1456,2.0577,2.8694,0.0004,-1.6956,rough,14.0,0,3.208
4660,149.12,8.6534,-1.1571,2.0517,2.8180,-0.0200,-1.6905,rough,14.0,0,3.219
4670,149.44,8.6534,-1.1422,2.0565,2.8339,0.0323,-1.7216,rough,14.0,0,3.204
4680,149.76,8.6491,-1.1283,2.0542,2.8521,0.0203,-1.7220,rough,14.0,0,3.190
4690,150.08,8.6492,-1.1328,2.0560,2.8550,0.0161,-1.7234,rough,14.0,0,3.194
4700,150.40,8.6508,-1.1284,2.0560,2.8463,0.0343,-1.7145,rough,14.0,0,3.190
4710,150.72,8.6560,-1.1359,2.0551,2.8578,0.0196,-1.7161,rough,14.0,0,3.198
4720,151.04,8.6516,-1.1398,2.0567,2.8477,0.0145,-1.7106,rough,14.0,0,3.202
4730,151.36,8.6579,-1.1302,2.0537,2.8552,0.0434,-1.6942,rough,14.0,0,3.193
4740,151.68,8.6504,-1.1793,2.0598,2.8374,-0.0430,-1.7073,rough,14.0,0,3.241
4750,152.00,8.6509,-1.1722,2.0595,2.8368,-0.0294,-1.7095,rough,14.0,0,3.234
4760,152.32,8.6616,-1.0982,2.0588,2.8311,0.1030,-1.7324,rough,14.0,0,3.162
4770,152.64,8.6498,-1.1687,2.0585,2.8459,-0.0357,-1.7103,rough,14.0,0,3.230
4780,152.96,8.6546,-1.1614,2.0588,2.8333,-0.0001,-1.6976,rough,14.0,0,3.223
4790,153.28,8.6728,-1.0980,2.0559,2.8120,0.1449,-1.6808,rough,14.0,0,3.163
4800,153.60,8.6519,-1.1831,2.0603,2.8543,-0.0616,-1.7037,rough,14.0,0,3.245
4810,153.92,8.6492,-1.2254,2.0663,2.8290,-0.1052,-1.6743,rough,14.0,0,3.286
4820,154.24,8.6592,-1.2254,2.0645,2.8278,-0.0946,-1.6739,rough,14.0,0,3.287
4830,154.56,8.6567,-1.1640,2.0588,2.8528,-0.0194,-1.6763,rough,14.0,0,3.226
4840,154.88,8.6574,-1.1170,2.0545,2.8248,0.0789,-1.6708,rough,14.0,0,3.180
4850,155.20,8.6525,-1.1364,2.0564,2.8340,0.0311,-1.6844,rough,14.0,0,3.198
4860,155.52,8.6527,-1.1288,2.0549,2.8517,0.0327,-1.7136,rough,14.0,0,3.191
4870,155.84,8.6511,-1.1398,2.0537,2.8718,-0.0021,-1.7156,rough,14.0,0,3.201
4880,156.16,8.6501,-1.1303,2.0559,2.8484,0.0283,-1.7199,rough,14.0,0,3.192
4890,156.48,8.6556,-1.1486,2.0569,2.8366,0.0184,-1.6904,rough,14.0,0,3.211
4900,156.80,8.6548,-1.1830,2.0604,2.8149,-0.0249,-1.6704,rough,14.0,0,3.245
4910,157.12,8.6547,-1.1975,2.0598,2.8515,-0.0868,-1.6884,rough,14.0,0,3.259
4920,157.44,8.6482,-1.1803,2.0605,2.8619,-0.0690,-1.7034,rough,14.0,0,3.241
4930,157.76,8.6511,-1.1366,2.0558,2.8554,0.0088,-1.7122,rough,14.0,0,3.198
4940,158.08,8.6521,-1.1561,2.0579,2.8511,-0.0131,-1.7009,rough,14.0,0,3.218
4950,158.40,8.6546,-1.1648,2.0516,2.8735,-0.0032,-1.6931,rough,14.0,0,3.227
4960,158.72,8.6478,-1.1133,2.0587,2.8334,0.0631,-1.6938,rough,14.0,0,3.175
4970,159.04,8.6493,-1.1444,2.0554,2.8642,-0.0072,-1.7145,rough,14.0,0,3.206
4980,159.36,8.6566,-1.1504,2.0585,2.8389,0.0168,-1.6965,rough,14.0,0,3.213
4990,159.68,8.6539,-1.1136,2.0564,2.8253,0.0712,-1.7012,rough,14.0,0,3.176
5000,160.00,8.6508,-1.1456,2.0566,2.8529,0.0089,-1.7091,rough,14.0,0,3.207
5010,160.32,8.6519,-1.1268,2.0548,2.8520,0.0347,-1.7115,rough,14.0,0,3.189
5020,160.64,8.6500,-1.1351,2.0564,2.8567,0.0125,-1.7178,rough,14.0,0,3.197
5030,160.96,8.6515,-1.1329,2.0563,2.8469,0.0261,-1.7122,rough,14.0,0,3.195
5040,161.28,8.6473,-1.1359,2.0553,2.8654,0.0047,-1.7339,rough,14.0,0,3.197
5050,161.60,8.6525,-1.1440,2.0564,2.8507,0.0095,-1.7041,rough,14.0,0,3.206
5060,161.92,8.6565,-1.1355,2.0572,2.8428,0.0395,-1.7200,rough,14.0,0,3.198
5070,162.24,8.6506,-1.1254,2.0556,2.8440,0.0388,-1.7077,rough,14.0,0,3.187
5080,162.56,8.6523,-1.1211,2.0501,2.8664,0.0657,-1.6828,rough,14.0,0,3.183
5090,162.88,8.6497,-1.1524,2.0572,2.8623,-0.0204,-1.7197,rough,14.0,0,3.214
5100,163.20,8.6541,-1.1286,2.0554,2.8568,0.0266,-1.7134,rough,14.0,0,3.191
5110,163.52,8.6499,-1.1241,2.0565,2.8435,0.0359,-1.7243,rough,14.0,0,3.186
5120,163.84,8.6545,-1.1711,2.0592,2.8481,-0.0316,-1.6934,rough,14.0,0,3.233
5130,164.16,8.6528,-1.1707,2.0594,2.8382,-0.0249,-1.6979,rough,14.0,0,3.232
5140,164.48,8.6538,-1.1042,2.0583,2.7910,0.1103,-1.7234,rough,14.0,0,3.167
5150,164.80,8.6591,-1.1542,2.0571,2.8514,0.0088,-1.6848,rough,14.0,0,3.217
5160,165.12,8.6481,-1.1494,2.0573,2.8205,0.0156,-1.7075,rough,14.0,0,3.211
5170,165.44,8.6564,-1.1134,2.0551,2.8183,0.0914,-1.6832,rough,14.0,0,3.176
5180,165.76,8.6535,-1.1464,2.0573,2.8329,0.0214,-1.6912,rough,14.0,0,3.208
5190,166.08,8.6576,-1.1236,2.0554,2.8437,0.0536,-1.7094,rough,14.0,0,3.186
5200,166.40,8.6505,-1.1256,2.0559,2.8436,0.0384,-1.7193,rough,14.0,0,3.187
5210,166.72,8.6576,-1.1119,2.0553,2.8216,0.0947,-1.6726,rough,14.0,0,3.175
5220,167.04,8.6529,-1.1572,2.0588,2.8011,0.0282,-1.7027,rough,14.0,0,3.219
5230,167.36,8.6495,-1.1053,2.0588,2.8133,0.0753,-1.7209,rough,14.0,0,3.167
5240,167.68,8.6503,-1.1502,2.0571,2.8552,-0.0114,-1.7183,rough,14.0,0,3.212
5250,168.00,8.6525,-1.1710,2.0581,2.8333,-0.0115,-1.7065,rough,14.0,0,3.233
5260,168.32,8.6515,-1.1576,2.0583,2.8387,-0.0043,-1.7062,rough,14.0,0,3.219
5270,168.64,8.6480,-1.1251,2.0563,2.8482,0.0279,-1.7232,rough,14.0,0,3.187
5280,168.96,8.6515,-1.1253,2.0556,2.8326,0.0537,-1.7122,rough,14.0,0,3.187
5290,169.28,8.6479,-1.1246,2.0572,2.8472,0.0253,-1.7371,rough,14.0,0,3.186
5300,169.60,8.6532,-1.1372,2.0565,2.8509,0.0208,-1.7079,rough,14.0,0,3.199
5310,169.92,8.6480,-1.1346,2.0560,2.8596,0.0080,-1.7327,rough,14.0,0,3.196
5320,170.24,8.6497,-1.1282,2.0558,2.8368,0.0428,-1.7247,rough,14.0,0,3.190
5330,170.56,8.6521,-1.1260,2.0559,2.8487,0.0369,-1.7053,rough,14.0,0,3.188
5340,170.88,8.6508,-1.1274,2.0559,2.8471,0.0349,-1.7146,rough,14.0,0,3.189
5350,171.20,8.6531,-1.1232,2.0557,2.8386,0.0548,-1.7047,rough,14.0,0,3.185
5360,171.52,8.6515,-1.1335,2.0560,2.8466,0.0280,-1.7086,rough,14.0,0,3.195
5370,171.84,8.6519,-1.1220,2.0556,2.8283,0.0630,-1.7070,rough,14.0,0,3.184
5380,172.16,8.6526,-1.1251,2.0558,2.8404,0.0472,-1.7035,rough,14.0,0,3.187
5390,172.48,8.6498,-1.1307,2.0562,2.8507,0.0238,-1.7220,rough,14.0,0,3.192
5400,172.80,8.6518,-1.1317,2.0546,2.8580,0.0181,-1.7193,rough,14.0,0,3.194
5410,173.12,8.6500,-1.1311,2.0559,2.8449,0.0303,-1.7240,rough,14.0,0,3.193
5420,173.44,8.6516,-1.1206,2.0559,2.8321,0.0572,-1.7057,rough,14.0,0,3.183
5430,173.76,8.6525,-1.1257,2.0546,2.8431,0.0463,-1.6928,rough,14.0,0,3.188
5440,174.08,8.6482,-1.1185,2.0576,2.8392,0.0326,-1.7445,rough,14.0,0,3.180
5450,174.40,8.6501,-1.1654,2.0587,2.8553,-0.0360,-1.7146,rough,14.0,0,3.227
5460,174.72,8.6497,-1.1300,2.0560,2.8432,0.0326,-1.7183,rough,14.0,0,3.192
5470,175.04,8.6514,-1.1453,2.0509,2.8740,0.0196,-1.7074,rough,14.0,0,3.207
5480,175.36,8.6518,-1.1338,2.0558,2.8391,0.0336,-1.7123,rough,14.0,0,3.196
5490,175.68,8.6501,-1.1286,2.0559,2.8498,0.0295,-1.7187,rough,14.0,0,3.190
5500,176.00,8.6486,-1.1423,2.0557,2.8771,-0.0169,-1.7201,rough,14.0,0,3.204
5510,176.32,8.6493,-1.1236,2.0569,2.8434,0.0338,-1.7274,rough,14.0,0,3.185
5520,176.64,8.6492,-1.1724,2.0590,2.8612,-0.0543,-1.7210,rough,14.0,0,3.234
5530,176.96,8.6516,-1.1463,2.0575,2.8512,-0.0002,-1.7004,rough,14.0,0,3.208
5540,177.28,8.6514,-1.1239,2.0556,2.8548,0.0352,-1.7089,rough,14.0,0,3.186
5550,177.60,8.6509,-1.1202,2.0564,2.8353,0.0510,-1.7085,rough,14.0,0,3.182
5560,177.92,8.6524,-1.1432,2.0569,2.8479,0.0101,-1.7063,rough,14.0,0,3.205
5570,178.24,8.6498,-1.1286,2.0542,2.8758,0.0124,-1.7135,rough,14.0,0,3.190
5580,178.56,8.6493,-1.1311,2.0559,2.8530,0.0215,-1.7266,rough,14.0,0,3.193
5590,178.88,8.6503,-1.1293,2.0560,2.8521,0.0263,-1.7179,rough,14.0,0,3.191
5600,179.20,8.6519,-1.1256,2.0559,2.8440,0.0426,-1.7065,rough,14.0,0,3.187
5610,179.52,8.6537,-1.1115,2.0478,2.8414,0.0709,-1.6914,rough,14.0,0,3.174
5620,179.84,8.6502,-1.1283,2.0555,2.8500,0.0281,-1.7172,rough,14.0,0,3.190
5630,180.16,8.6516,-1.1243,2.0557,2.8507,0.0370,-1.7073,rough,14.0,0,3.186
5640,180.48,8.6500,-1.1267,2.0562,2.8417,0.0414,-1.7149,rough,14.0,0,3.188
5650,180.80,8.6522,-1.1378,2.0562,2.8643,0.0049,-1.6987,rough,14.0,0,3.200
5660,181.12,8.6581,-1.1311,2.0539,2.8582,0.0370,-1.7003,rough,14.0,0,3.194
5670,181.44,8.6590,-1.1659,2.0598,2.8469,-0.0120,-1.6857,rough,14.0,0,3.228
5680,181.76,8.6613,-1.1425,2.0547,2.7999,0.0540,-1.6814,rough,14.0,0,3.205
5690,182.08,8.6560,-1.1055,2.0532,2.8266,0.0746,-1.6851,rough,14.0,0,3.168
5700,182.40,8.6550,-1.1690,2.0592,2.8576,-0.0380,-1.6799,rough,14.0,0,3.231
5710,182.72,8.6556,-1.1783,2.0605,2.8168,-0.0142,-1.6899,rough,14.0,0,3.240
5720,183.04,8.6544,-1.1888,2.0613,2.8089,-0.0281,-1.6806,rough,14.0,0,3.251
5730,183.36,8.6523,-1.1263,2.0544,2.8391,0.0420,-1.7247,rough,14.0,0,3.188
5740,183.68,8.6597,-1.1355,2.0537,2.8595,0.0494,-1.7026,rough,14.0,0,3.198
5750,184.00,8.6471,-1.1394,2.0561,2.8604,-0.0008,-1.7318,rough,14.0,0,3.201
5760,184.32,8.6469,-1.1311,2.0561,2.8520,0.0196,-1.7317,rough,14.0,0,3.192
5770,184.64,8.6511,-1.1355,2.0546,2.8464,0.0171,-1.6982,rough,14.0,0,3.197
5780,184.96,8.6550,-1.1088,2.0566,2.8201,0.0775,-1.7004,rough,14.0,0,3.171
5790,185.28,8.6510,-1.1762,2.0568,2.8450,-0.0483,-1.6985,rough,14.0,0,3.238
5800,185.60,8.6528,-1.1862,2.0604,2.8344,-0.0478,-1.6972,rough,14.0,0,3.248
5810,185.92,8.6576,-1.1188,2.0561,2.8447,0.0667,-1.7153,rough,14.0,0,3.182
5820,186.24,8.6524,-1.1477,2.0562,2.8734,-0.0130,-1.7217,rough,14.0,0,3.209
5830,186.56,8.6476,-1.1415,2.0556,2.8701,-0.0158,-1.7485,rough,14.0,0,3.203
5840,186.88,8.6499,-1.1383,2.0567,2.8514,0.0115,-1.7092,rough,14.0,0,3.200
5850,187.20,8.6486,-1.1322,2.0558,2.8506,0.0229,-1.7305,rough,14.0,0,3.194
5860,187.52,8.6552,-1.1262,2.0527,2.8713,0.0299,-1.6965,rough,14.0,0,3.189
5870,187.84,8.6543,-1.1270,2.0561,2.8481,0.0427,-1.7094,rough,14.0,0,3.189
5880,188.16,8.6502,-1.1218,2.0567,2.8396,0.0427,-1.7207,rough,14.0,0,3.184
5890,188.48,8.6530,-1.1630,2.0585,2.8489,-0.0190,-1.6974,rough,14.0,0,3.225
5900,188.80,8.6491,-1.1406,2.0567,2.8469,0.0122,-1.7240,rough,14.0,0,3.202
5910,189.12,8.6507,-1.1425,2.0569,2.8540,-0.0007,-1.7225,rough,14.0,0,3.204
5920,189.44,8.6578,-1.1253,2.0561,2.8442,0.0594,-1.7074,rough,14.0,0,3.188
5930,189.76,8.6516,-1.1228,2.0556,2.8268,0.0644,-1.7084,rough,14.0,0,3.185
5940,190.08,8.6507,-1.1267,2.0558,2.8429,0.0402,-1.7171,rough,14.0,0,3.188
5950,190.40,8.6529,-1.1273,2.0555,2.8557,0.0392,-1.7166,rough,14.0,0,3.189
5960,190.72,8.6528,-1.1180,2.0561,2.8327,0.0622,-1.7034,rough,14.0,0,3.180
5970,191.04,8.6594,-1.1485,2.0560,2.8414,0.0194,-1.6936,rough,14.0,0,3.211
5980,191.36,8.6528,-1.1134,2.0518,2.8682,0.0649,-1.7290,rough,14.0,0,3.175
5990,191.68,8.6529,-1.1527,2.0562,2.8883,-0.0316,-1.7208,rough,14.0,0,3.215
6000,192.00,8.6472,-1.1629,2.0584,2.8645,-0.0436,-1.7291,rough,14.0,0,3.224
6010,192.32,8.6520,-1.1163,2.0564,2.8375,0.0504,-1.7040,rough,14.0,0,3.178
6020,192.64,8.6529,-1.1437,2.0571,2.8401,0.0179,-1.7005,rough,14.0,0,3.206
6030,192.96,8.6527,-1.1363,2.0568,2.8443,0.0259,-1.7012,rough,14.0,0,3.198
6040,193.28,8.6516,-1.1253,2.0559,2.8424,0.0439,-1.7088,rough,14.0,0,3.187
6050,193.60,8.6490,-1.1303,2.0543,2.8676,0.0177,-1.7262,rough,14.0,0,3.192
6060,193.92,8.6514,-1.1263,2.0559,2.8466,0.0387,-1.7074,rough,14.0,0,3.188
6070,194.24,8.6512,-1.1386,2.0560,2.8517,0.0098,-1.7071,rough,14.0,0,3.200
6080,194.56,8.6522,-1.1249,2.0558,2.8415,0.0458,-1.7050,rough,14.0,0,3.187
6090,194.88,8.6502,-1.1292,2.0560,2.8492,0.0295,-1.7181,rough,14.0,0,3.191
6100,195.20,8.6518,-1.1239,2.0558,2.8503,0.0386,-1.7059,rough,14.0,0,3.186
6110,195.52,8.6500,-1.1264,2.0562,2.8413,0.0424,-1.7143,rough,14.0,0,3.188
6120,195.84,8.6524,-1.1373,2.0562,2.8637,0.0064,-1.6978,rough,14.0,0,3.199
6130,196.16,8.6582,-1.1301,2.0540,2.8567,0.0394,-1.6995,rough,14.0,0,3.193
6140,196.48,8.6524,-1.1654,2.0590,2.8354,-0.0145,-1.7059,rough,14.0,0,3.227
6150,196.80,8.6528,-1.1272,2.0561,2.8467,0.0396,-1.7111,rough,14.0,0,3.189
6160,197.12,8.6555,-1.1234,2.0543,2.8402,0.0612,-1.6838,rough,14.0,0,3.186
6170,197.44,8.6534,-1.1988,2.0619,2.8276,-0.0619,-1.6888,rough,14.0,0,3.260
6180,197.76,8.6612,-1.1945,2.0627,2.8230,-0.0315,-1.6911,rough,14.0,0,3.257
6190,198.08,8.6548,-1.1287,2.0533,2.8458,0.0283,-1.7132,rough,14.0,0,3.191
6200,198.40,8.6508,-1.1329,2.0560,2.8477,0.0253,-1.7159,rough,14.0,0,3.195
6210,198.72,8.6493,-1.1331,2.0561,2.8541,0.0174,-1.7256,rough,14.0,0,3.195
6220,199.04,8.6508,-1.1232,2.0550,2.8363,0.0509,-1.6961,rough,14.0,0,3.185
6230,199.36,8.6509,-1.1279,2.0559,2.8488,0.0328,-1.7134,rough,14.0,0,3.190
6240,199.68,8.6498,-1.1343,2.0489,2.8914,0.0184,-1.7208,rough,14.0,0,3.196
6250,200.00,8.6518,-1.1240,2.0555,2.8397,0.0425,-1.7213,rough,14.0,0,3.186
6260,200.32,8.6533,-1.1392,2.0562,2.8691,0.0091,-1.7227,rough,14.0,0,3.201
6270,200.64,8.6541,-1.1230,2.0560,2.8507,0.0427,-1.6868,rough,14.0,0,3.185
6280,200.96,8.6492,-1.1620,2.0576,2.8634,-0.0397,-1.7201,rough,14.0,0,3.223
6290,201.28,8.6592,-1.1461,2.0590,2.8141,0.0532,-1.7190,rough,14.0,0,3.209
6300,201.60,8.6527,-1.1218,2.0538,2.8395,0.0381,-1.7092,rough,14.0,0,3.184
6310,201.92,8.6479,-1.1375,2.0561,2.8587,0.0034,-1.7333,rough,14.0,0,3.199
6320,202.24,8.6532,-1.1345,2.0560,2.8424,0.0302,-1.7101,rough,14.0,0,3.196
6330,202.56,8.6509,-1.1237,2.0539,2.8500,0.0354,-1.7216,rough,14.0,0,3.186
6340,202.88,8.6507,-1.1281,2.0558,2.8482,0.0323,-1.7160,rough,14.0,0,3.190
6350,203.20,8.6508,-1.1276,2.0559,2.8469,0.0350,-1.7150,rough,14.0,0,3.189
6360,203.52,8.6507,-1.1297,2.0561,2.8479,0.0313,-1.7138,rough,14.0,0,3.191
6370,203.84,8.6581,-1.1224,2.0558,2.8601,0.0498,-1.6928,rough,14.0,0,3.185
6380,204.16,8.6515,-1.1525,2.0574,2.8533,-0.0123,-1.7121,rough,14.0,0,3.214
6390,204.48,8.6477,-1.1298,2.0557,2.8539,0.0199,-1.7294,rough,14.0,0,3.191
6400,204.80,8.6499,-1.1526,2.0524,2.8805,-0.0452,-1.7125,rough,14.0,0,3.214
6410,205.12,8.6506,-1.1371,2.0564,2.8435,0.0215,-1.7120,rough,14.0,0,3.199
6420,205.44,8.6517,-1.1324,2.0562,2.8467,0.0284,-1.7092,rough,14.0,0,3.194
6430,205.76,8.6516,-1.1342,2.0565,2.8530,0.0198,-1.7062,rough,14.0,0,3.196
6440,206.08,8.6555,-1.1185,2.0549,2.8387,0.0582,-1.6966,rough,14.0,0,3.181
6450,206.40,8.6520,-1.1504,2.0576,2.8476,-0.0010,-1.7048,rough,14.0,0,3.212
6460,206.72,8.6482,-1.1362,2.0563,2.8490,0.0150,-1.7249,rough,14.0,0,3.198
6470,207.04,8.6554,-1.1440,2.0555,2.8599,0.0030,-1.7207,rough,14.0,0,3.206
6480,207.36,8.6507,-1.1470,2.0574,2.8220,0.0241,-1.7120,rough,14.0,0,3.209
6490,207.68,8.6528,-1.0781,2.0589,2.7876,0.0938,-1.7404,rough,14.0,0,3.141
6500,208.00,8.6529,-1.1435,2.0569,2.8450,0.0113,-1.7015,rough,14.0,0,3.205
6510,208.32,8.6566,-1.2603,2.0674,2.7822,-0.1191,-1.6752,rough,14.0,0,3.322
6520,208.64,8.6651,-1.2892,2.0698,2.7411,-0.1196,-1.6518,rough,14.0,0,3.351
6530,208.96,8.6605,-1.3005,2.0713,2.7742,-0.1719,-1.6615,rough,14.0,0,3.362
6540,209.28,8.6605,-1.2752,2.0685,2.8202,-0.1741,-1.6410,rough,14.0,0,3.337
6550,209.60,8.6597,-1.1958,2.0600,2.8214,-0.0502,-1.6580,rough,14.0,0,3.258
6560,209.92,8.6536,-1.1152,2.0550,2.8267,0.0756,-1.6972,rough,14.0,0,3.177
6570,210.24,8.6539,-1.1201,2.0551,2.8357,0.0563,-1.6982,rough,14.0,0,3.182
6580,210.56,8.6539,-1.1602,2.0594,2.8174,0.0149,-1.7087,rough,14.0,0,3.222
6590,210.88,8.6479,-1.1271,2.0552,2.8344,0.0403,-1.7152,rough,14.0,0,3.188
6600,211.20,8.6499,-1.1253,2.0544,2.8455,0.0324,-1.7083,rough,14.0,0,3.187
6610,211.52,8.6504,-1.1290,2.0559,2.8476,0.0311,-1.7159,rough,14.0,0,3.191
6620,211.84,8.6512,-1.1193,2.0566,2.8346,0.0532,-1.7142,rough,14.0,0,3.181
6630,212.16,8.6517,-1.1605,2.0580,2.8507,-0.0223,-1.7079,rough,14.0,0,3.222
6640,212.48,8.6536,-1.1652,2.0592,2.8460,-0.0207,-1.7007,rough,14.0,0,3.227
6650,212.80,8.6505,-1.1186,2.0543,2.8527,0.0266,-1.7442,rough,14.0,0,3.180
6660,213.12,8.6526,-1.1447,2.0571,2.8544,0.0032,-1.7004,rough,14.0,0,3.207
6670,213.44,8.6505,-1.1320,2.0561,2.8362,0.0368,-1.7103,rough,14.0,0,3.194
6680,213.76,8.6485,-1.1362,2.0568,2.8556,0.0106,-1.7229,rough,14.0,0,3.198
6690,214.08,8.6523,-1.1356,2.0565,2.8680,0.0049,-1.7224,rough,14.0,0,3.197
6700,214.40,8.6510,-1.1260,2.0561,2.8445,0.0381,-1.7132,rough,14.0,0,3.188
6710,214.72,8.6499,-1.1414,2.0566,2.8581,0.0005,-1.7140,rough,14.0,0,3.203
6720,215.04,8.6509,-1.1276,2.0560,2.8537,0.0275,-1.7125,rough,14.0,0,3.189
6730,215.36,8.6496,-1.1382,2.0549,2.8669,0.0020,-1.7194,rough,14.0,0,3.200
6740,215.68,8.6501,-1.1190,2.0572,2.8377,0.0440,-1.7230,rough,14.0,0,3.181
6750,216.00,8.6519,-1.1479,2.0572,2.8569,-0.0011,-1.7093,rough,14.0,0,3.210
6760,216.32,8.6563,-1.1125,2.0546,2.8256,0.0852,-1.6800,rough,14.0,0,3.175
6770,216.64,8.6499,-1.1324,2.0561,2.8506,0.0221,-1.7223,rough,14.0,0,3.194
6780,216.96,8.6502,-1.1358,2.0564,2.8575,0.0116,-1.7160,rough,14.0,0,3.197
6790,217.28,8.6493,-1.1369,2.0564,2.8560,0.0094,-1.7244,rough,14.0,0,3.198
6800,217.60,8.6537,-1.1337,2.0518,2.8675,0.0078,-1.7202,rough,14.0,0,3.196
6810,217.92,8.6496,-1.1335,2.0562,2.8482,0.0227,-1.7210,rough,14.0,0,3.195
6820,218.24,8.6544,-1.1326,2.0544,2.8525,0.0277,-1.7109,rough,14.0,0,3.195
6830,218.56,8.6467,-1.1333,2.0558,2.8610,0.0068,-1.7384,rough,14.0,0,3.194
6840,218.88,8.6486,-1.1402,2.0538,2.8795,-0.0065,-1.7325,rough,14.0,0,3.202
6850,219.20,8.6495,-1.1358,2.0564,2.8629,0.0042,-1.7171,rough,14.0,0,3.197
6860,219.52,8.6564,-1.1161,2.0556,2.8171,0.0928,-1.7068,rough,14.0,0,3.179
6870,219.84,8.6620,-1.1146,2.0567,2.8093,0.1174,-1.7124,rough,14.0,0,3.178
6880,220.16,8.6509,-1.1498,2.0568,2.8617,-0.0211,-1.6957,rough,14.0,0,3.211
6890,220.48,8.6602,-1.1394,2.0581,2.8378,0.0469,-1.7124,rough,14.0,0,3.202
6900,220.80,8.6568,-1.1121,2.0530,2.8252,0.0675,-1.6766,rough,14.0,0,3.175
6910,221.12,8.6523,-1.1662,2.0589,2.8289,-0.0110,-1.7056,rough,14.0,0,3.228
6920,221.44,8.6557,-1.1316,2.0569,2.8393,0.0478,-1.7244,rough,14.0,0,3.194
6930,221.76,8.6508,-1.1217,2.0545,2.8266,0.0572,-1.7056,rough,14.0,0,3.183
6940,222.08,8.6505,-1.1339,2.0563,2.8489,0.0222,-1.7126,rough,14.0,0,3.196
6950,222.40,8.6525,-1.1160,2.0564,2.8336,0.0607,-1.7063,rough,14.0,0,3.178
6960,222.72,8.6491,-1.1429,2.0552,2.8660,-0.0017,-1.7257,rough,14.0,0,3.204
6970,223.04,8.6528,-1.1395,2.0564,2.8344,0.0281,-1.7102,rough,14.0,0,3.201
6980,223.36,8.6503,-1.1285,2.0557,2.8526,0.0284,-1.7181,rough,14.0,0,3.190
6990,223.68,8.6491,-1.1335,2.0562,2.8564,0.0141,-1.7253,rough,14.0,0,3.195
7000,224.00,8.6567,-1.1363,2.0556,2.8531,0.0242,-1.7054,rough,14.0,0,3.199
7010,224.32,8.6519,-1.1332,2.0559,2.8320,0.0370,-1.6863,rough,14.0,0,3.195
7020,224.64,8.6509,-1.1234,2.0546,2.8460,0.0478,-1.7149,rough,14.0,0,3.185
7030,224.96,8.6516,-1.1251,2.0558,2.8440,0.0424,-1.7090,rough,14.0,0,3.187
7040,225.28,8.6489,-1.1271,2.0554,2.8400,0.0381,-1.7192,rough,14.0,0,3.189
7050,225.60,8.6498,-1.1401,2.0560,2.8662,-0.0011,-1.7194,rough,14.0,0,3.202
7060,225.92,8.6513,-1.1234,2.0555,2.8338,0.0534,-1.7053,rough,14.0,0,3.185
7070,226.24,8.6485,-1.1287,2.0551,2.8531,0.0201,-1.7307,rough,14.0,0,3.190
7080,226.56,8.6542,-1.1289,2.0532,2.8576,0.0493,-1.7101,rough,14.0,0,3.191
7090,226.88,8.6485,-1.1303,2.0560,2.8522,0.0244,-1.7174,rough,14.0,0,3.192
7100,227.20,8.6522,-1.1286,2.0562,2.8574,0.0276,-1.7219,rough,14.0,0,3.191
7110,227.52,8.6515,-1.1258,2.0556,2.8458,0.0385,-1.7076,rough,14.0,0,3.188
7120,227.84,8.6517,-1.1272,2.0560,2.8437,0.0400,-1.7078,rough,14.0,0,3.189
7130,228.16,8.6488,-1.1413,2.0555,2.8672,-0.0022,-1.7275,rough,14.0,0,3.203
7140,228.48,8.6502,-1.1433,2.0570,2.8522,0.0038,-1.7155,rough,14.0,0,3.205
7150,228.80,8.6484,-1.1415,2.0559,2.8558,-0.0068,-1.7025,rough,14.0,0,3.203
7160,229.12,8.6501,-1.1308,2.0562,2.8481,0.0295,-1.7344,rough,14.0,0,3.192
7170,229.44,8.6567,-1.1372,2.0548,2.8549,0.0117,-1.7043,rough,14.0,0,3.200
7180,229.76,8.6490,-1.1338,2.0553,2.8563,0.0153,-1.7257,rough,14.0,0,3.195
7190,230.08,8.6540,-1.1206,2.0543,2.8649,0.0225,-1.6709,rough,14.0,0,3.183
7200,230.40,8.6552,-1.1725,2.0530,2.8812,-0.0150,-1.7064,rough,14.0,0,3.234
7210,230.72,8.6550,-1.1887,2.0600,2.8263,-0.0417,-1.6904,rough,14.0,0,3.251
7220,231.04,8.6527,-1.1242,2.0560,2.8429,0.0490,-1.7193,rough,14.0,0,3.186
7230,231.36,8.6522,-1.1285,2.0577,2.8305,0.0395,-1.7032,rough,14.0,0,3.190
7240,231.68,8.6530,-1.1662,2.0571,2.8043,0.0283,-1.7087,rough,14.0,0,3.228
7250,232.00,8.6574,-1.1856,2.0590,2.8196,-0.0337,-1.6805,rough,14.0,0,3.248
7260,232.32,8.6513,-1.1532,2.0577,2.8613,-0.0230,-1.6976,rough,14.0,0,3.215
7270,232.64,8.6547,-1.1270,2.0538,2.8527,0.0463,-1.6757,rough,14.0,0,3.189
7280,232.96,8.6612,-1.1923,2.0624,2.8483,-0.0502,-1.6899,rough,14.0,0,3.255
7290,233.28,8.6554,-1.1506,2.0548,2.8622,0.0031,-1.6953,rough,14.0,0,3.213
7300,233.60,8.6506,-1.1247,2.0545,2.8414,0.0451,-1.6870,rough,14.0,0,3.186
7310,233.92,8.6557,-1.1460,2.0571,2.8668,-0.0081,-1.7064,rough,14.0,0,3.208
7320,234.24,8.6563,-1.1302,2.0551,2.8417,0.0456,-1.7144,rough,14.0,0,3.193
7330,234.56,8.6519,-1.1274,2.0560,2.8466,0.0362,-1.6932,rough,14.0,0,3.189
7340,234.88,8.6507,-1.1403,2.0566,2.8561,0.0053,-1.7100,rough,14.0,0,3.202
7350,235.20,8.6513,-1.1228,2.0560,2.8255,0.0606,-1.7140,rough,14.0,0,3.185
7360,235.52,8.6522,-1.1251,2.0509,2.8389,0.0097,-1.7186,rough,14.0,0,3.187
7370,235.84,8.6513,-1.1365,2.0558,2.8498,0.0195,-1.7137,rough,14.0,0,3.198
7380,236.16,8.6546,-1.1333,2.0528,2.8599,0.0384,-1.7132,rough,14.0,0,3.196
7390,236.48,8.6507,-1.1334,2.0541,2.8629,0.0056,-1.7358,rough,14.0,0,3.195
7400,236.80,8.6524,-1.1391,2.0565,2.8700,-0.0019,-1.7250,rough,14.0,0,3.201
7410,237.12,8.6495,-1.1333,2.0560,2.8396,0.0316,-1.7244,rough,14.0,0,3.195
7420,237.44,8.6527,-1.1313,2.0562,2.8368,0.0337,-1.6984,rough,14.0,0,3.193
7430,237.76,8.6520,-1.1402,2.0567,2.8388,0.0191,-1.6897,rough,14.0,0,3.202
7440,238.08,8.6486,-1.1398,2.0566,2.8595,-0.0012,-1.7158,rough,14.0,0,3.201
7450,238.40,8.6558,-1.1235,2.0557,2.8283,0.0632,-1.6975,rough,14.0,0,3.186
7460,238.72,8.6499,-1.1337,2.0561,2.8548,0.0162,-1.7193,rough,14.0,0,3.195
7470,239.04,8.6542,-1.1453,2.0564,2.8478,0.0080,-1.6901,rough,14.0,0,3.207
7480,239.36,8.6487,-1.1638,2.0589,2.8231,-0.0073,-1.7187,rough,14.0,0,3.225
7490,239.68,8.6554,-1.1184,2.0559,2.8385,0.0611,-1.6972,rough,14.0,0,3.181
7500,240.00,8.6597,-1.1268,2.0571,2.8238,0.0794,-1.7194,rough,14.0,0,3.190
7510,240.32,8.6552,-1.1260,2.0523,2.8587,0.0536,-1.6950,rough,14.0,0,3.188
7520,240.64,8.6516,-1.1325,2.0562,2.8462,0.0282,-1.7083,rough,14.0,0,3.194
7530,240.96,8.6493,-1.1361,2.0562,2.8642,0.0029,-1.7238,rough,14.0,0,3.198
7540,241.28,8.6528,-1.1256,2.0552,2.8576,0.0324,-1.6923,rough,14.0,0,3.188
7550,241.60,8.6480,-1.1329,2.0558,2.8585,0.0113,-1.7306,rough,14.0,0,3.194
7560,241.92,8.6505,-1.1289,2.0559,2.8500,0.0294,-1.7175,rough,14.0,0,3.191
7570,242.24,8.6523,-1.1246,2.0559,2.8441,0.0442,-1.7041,rough,14.0,0,3.187
7580,242.56,8.6522,-1.1207,2.0557,2.8298,0.0634,-1.7078,rough,14.0,0,3.183
7590,242.88,8.6521,-1.1245,2.0562,2.8401,0.0457,-1.7063,rough,14.0,0,3.186
7600,243.20,8.6470,-1.1346,2.0567,2.8580,0.0099,-1.7172,rough,14.0,0,3.196
7610,243.52,8.6508,-1.1307,2.0548,2.8528,0.0259,-1.7131,rough,14.0,0,3.192
7620,243.84,8.6512,-1.1339,2.0563,2.8476,0.0242,-1.7122,rough,14.0,0,3.196
7630,244.16,8.6504,-1.1283,2.0559,2.8494,0.0306,-1.7184,rough,14.0,0,3.190
7640,244.48,8.6492,-1.1350,2.0562,2.8530,0.0154,-1.7271,rough,14.0,0,3.197
7650,244.80,8.6519,-1.1269,2.0520,2.8446,0.0316,-1.7198,rough,14.0,0,3.189
7660,245.12,8.6499,-1.1304,2.0557,2.8507,0.0241,-1.7226,rough,14.0,0,3.192
7670,245.44,8.6494,-1.1311,2.0562,2.8522,0.0218,-1.7226,rough,14.0,0,3.193
7680,245.76,8.6498,-1.1333,2.0563,2.8532,0.0188,-1.7199,rough,14.0,0,3.195
7690,246.08,8.6487,-1.1391,2.0564,2.8614,-0.0001,-1.7124,rough,14.0,0,3.200
7700,246.40,8.6505,-1.1338,2.0564,2.8677,0.0048,-1.7189,rough,14.0,0,3.195
7710,246.72,8.6500,-1.1279,2.0558,2.8510,0.0298,-1.7200,rough,14.0,0,3.190
7720,247.04,8.6511,-1.1225,2.0527,2.8615,0.0469,-1.7121,rough,14.0,0,3.184
7730,247.36,8.6517,-1.1257,2.0558,2.8484,0.0380,-1.7075,rough,14.0,0,3.188
7740,247.68,8.6519,-1.1231,2.0557,2.8284,0.0618,-1.7099,rough,14.0,0,3.185
7750,248.00,8.6509,-1.1261,2.0558,2.8410,0.0431,-1.7164,rough,14.0,0,3.188
7760,248.32,8.6535,-1.1250,2.0554,2.8518,0.0466,-1.7117,rough,14.0,0,3.187
7770,248.64,8.6496,-1.1313,2.0559,2.8526,0.0220,-1.7236,rough,14.0,0,3.193
7780,248.96,8.6506,-1.1289,2.0559,2.8497,0.0298,-1.7166,rough,14.0,0,3.191
7790,249.28,8.6506,-1.1245,2.0564,2.8437,0.0379,-1.7178,rough,14.0,0,3.186
7800,249.60,8.6513,-1.1313,2.0555,2.8571,0.0251,-1.7179,rough,14.0,0,3.193
7810,249.92,8.6515,-1.1253,2.0558,2.8476,0.0389,-1.7059,rough,14.0,0,3.187
7820,250.24,8.6496,-1.1328,2.0565,2.8521,0.0193,-1.7189,rough,14.0,0,3.194
7830,250.56,8.6471,-1.1362,2.0557,2.8599,0.0062,-1.7250,rough,14.0,0,3.197
7840,250.88,8.6534,-1.1345,2.0526,2.8941,0.0006,-1.7203,rough,14.0,0,3.197
7850,251.20,8.6519,-1.1230,2.0556,2.8349,0.0548,-1.7115,rough,14.0,0,3.185
7860,251.52,8.6516,-1.1260,2.0558,2.8409,0.0442,-1.7120,rough,14.0,0,3.188
7870,251.84,8.6508,-1.1301,2.0561,2.8486,0.0292,-1.7144,rough,14.0,0,3.192
7880,252.16,8.6498,-1.1287,2.0559,2.8501,0.0283,-1.7166,rough,14.0,0,3.190
7890,252.48,8.6488,-1.1343,2.0562,2.8581,0.0108,-1.7268,rough,14.0,0,3.196
7900,252.80,8.6525,-1.1239,2.0555,2.8450,0.0494,-1.7118,rough,14.0,0,3.186
7910,253.12,8.6505,-1.1300,2.0553,2.8496,0.0333,-1.7141,rough,14.0,0,3.192
7920,253.44,8.6518,-1.1364,2.0565,2.8453,0.0225,-1.7049,rough,14.0,0,3.198
7930,253.76,8.6520,-1.1257,2.0558,2.8471,0.0391,-1.7060,rough,14.0,0,3.188
7940,254.08,8.6509,-1.1280,2.0558,2.8485,0.0328,-1.7151,rough,14.0,0,3.190
7950,254.40,8.6564,-1.1275,2.0534,2.8385,0.0471,-1.7139,rough,14.0,0,3.190
7960,254.72,8.6488,-1.1277,2.0554,2.8403,0.0344,-1.7127,rough,14.0,0,3.189
7970,255.04,8.6513,-1.1306,2.0560,2.8516,0.0234,-1.6991,rough,14.0,0,3.192
7980,255.36,8.6514,-1.1419,2.0569,2.8710,-0.0090,-1.7273,rough,14.0,0,3.204
7990,255.68,8.6569,-1.1261,2.0542,2.8392,0.0463,-1.7030,rough,14.0,0,3.189
8000,256.00,8.6486,-1.1327,2.0559,2.8569,0.0144,-1.7314,rough,14.0,0,3.194
8010,256.32,8.6478,-1.1384,2.0558,2.8636,0.0011,-1.7321,rough,14.0,0,3.200
8020,256.64,8.6505,-1.1311,2.0560,2.8615,0.0155,-1.7183,rough,14.0,0,3.193
