step,time_s,x,y,z,roll,pitch,yaw,terrain,speed,target_idx,dist_to_target
10,0.32,-0.0003,-0.0578,0.2048,0.0000,-0.0176,-0.0000,slope,18.0,0,5.399
20,0.64,0.2864,-0.0615,0.2288,0.0031,-0.0895,-0.0732,slope,18.0,0,5.175
30,0.96,0.6318,-0.1042,0.2626,0.0020,-0.1317,-0.2463,slope,18.0,0,4.887
40,1.28,0.9752,-0.2335,0.3340,0.0647,-0.2118,-0.3993,slope,18.0,0,4.549
50,1.60,1.3336,-0.4447,0.4320,0.1376,-0.2667,-0.6344,slope,18.0,0,4.146
60,1.92,1.6603,-0.7461,0.5713,0.1892,-0.3245,-0.8108,slope,18.0,0,3.702
70,2.24,1.9648,-1.1322,0.7274,0.2545,-0.3203,-0.9122,slope,18.0,0,3.213
80,2.56,2.2822,-1.5565,0.9061,0.2660,-0.3309,-0.9356,slope,18.0,0,2.690
90,2.88,2.5962,-1.9821,1.0759,0.2625,-0.3125,-0.8863,slope,18.0,0,2.171
100,3.20,2.9222,-2.3652,1.2310,0.2308,-0.3100,-0.8080,slope,18.0,0,1.675
110,3.52,3.2294,-2.6873,1.3676,0.2354,-0.3060,-0.7324,slope,18.0,0,1.236
120,3.84,3.5374,-2.9564,1.4879,0.2201,-0.2791,-0.6908,slope,18.0,1,6.869
130,4.16,3.7912,-3.2653,1.5814,0.3107,-0.1543,-1.0363,slope,18.0,1,6.794
140,4.48,3.8688,-3.6601,1.6082,0.3536,-0.0157,-1.4819,rough,14.0,1,6.558
150,4.80,3.7777,-4.0362,1.5642,0.3204,0.1286,-1.8587,slope,18.0,1,6.228
160,5.12,3.5479,-4.4635,1.4670,0.2812,0.2104,-2.1375,slope,18.0,1,5.768
170,5.44,3.2324,-4.8636,1.3380,0.2381,0.2717,-2.3052,slope,18.0,1,5.266
180,5.76,2.8733,-5.2228,1.1891,0.2097,0.2975,-2.4128,slope,18.0,1,4.759
190,6.08,2.4614,-5.5532,1.0215,0.1840,0.3123,-2.4841,slope,18.0,1,4.232
200,6.40,2.0296,-5.8724,0.8465,0.1733,0.3165,-2.5159,slope,18.0,1,3.697
210,6.72,1.5875,-6.1905,0.6689,0.1739,0.3135,-2.5134,slope,18.0,1,3.157
220,7.04,1.1612,-6.5167,0.4992,0.1912,0.2994,-2.4602,slope,18.0,1,2.623
230,7.36,0.7553,-6.8619,0.3397,0.2145,0.2807,-2.3926,slope,18.0,1,2.092
240,7.68,0.3894,-7.2221,0.1988,0.2093,0.2341,-2.3402,rough,14.0,1,1.579
250,8.00,0.1269,-7.5109,0.1273,0.1628,0.1650,-2.2476,slope,18.0,1,1.189
260,8.32,-0.1665,-7.9026,0.0693,0.0632,0.1081,-2.2415,slope,18.0,2,5.042
270,8.64,-0.4425,-8.2407,0.0495,-0.0115,0.0248,-2.3064,slope,18.0,2,5.155
280,8.96,-0.7056,-8.5067,0.0496,-0.0077,-0.0199,-2.4027,flat,18.0,2,5.245
290,9.28,-0.9560,-8.7162,0.0572,-0.0062,-0.0249,-2.5206,flat,18.0,2,5.315
300,9.60,-1.1938,-8.8866,0.0650,-0.0006,-0.0283,-2.6809,flat,18.0,2,5.372
310,9.92,-1.4236,-8.9984,0.0725,0.0059,-0.0303,-2.8668,flat,18.0,2,5.391
320,10.24,-1.6546,-9.0599,0.0800,0.0110,-0.0305,-3.0281,flat,18.0,2,5.375
330,10.56,-1.8818,-9.0895,0.0873,0.0142,-0.0313,3.1145,flat,18.0,2,5.339
340,10.88,-2.0903,-9.0929,0.0941,0.0194,-0.0292,2.9227,flat,18.0,2,5.291
350,11.20,-2.2966,-9.0519,0.1006,0.0229,-0.0284,2.7607,flat,18.0,2,5.209
360,11.52,-2.5030,-8.9690,0.1073,0.0257,-0.0278,2.6329,flat,18.0,2,5.092
370,11.84,-2.7161,-8.8460,0.1143,0.0272,-0.0274,2.5296,flat,18.0,2,4.941
380,12.16,-2.9414,-8.6775,0.1222,0.0285,-0.0287,2.4547,flat,18.0,2,4.753
390,12.48,-3.1873,-8.4641,0.1318,0.0297,-0.0297,2.3915,flat,18.0,2,4.528
400,12.80,-3.4595,-8.1985,0.1433,0.0307,-0.0307,2.3446,flat,18.0,2,4.265
410,13.12,-3.7673,-7.8738,0.1569,0.0312,-0.0309,2.3143,flat,18.0,2,3.967
420,13.44,-4.1224,-7.4816,0.1729,0.0311,-0.0292,2.3028,flat,18.0,2,3.643
430,13.76,-4.4412,-7.1021,0.1859,0.0359,-0.0188,2.1238,flat,18.0,2,3.371
440,14.08,-4.5989,-6.7544,0.1916,0.0341,-0.0105,1.9085,flat,18.0,2,3.110
450,14.40,-4.7115,-6.3784,0.1943,0.0307,0.0011,1.7426,flat,18.0,2,2.829
460,14.72,-4.7712,-5.9331,0.1935,0.0258,0.0065,1.6458,flat,18.0,2,2.491
470,15.04,-4.7877,-5.4685,0.1896,0.0217,0.0166,1.3736,flat,18.0,2,2.148
480,15.36,-4.6728,-5.0270,0.1849,0.0060,0.0109,1.0521,flat,18.0,2,1.768
490,15.68,-4.4245,-4.6379,0.1788,-0.0043,0.0143,0.9319,flat,18.0,2,1.341
500,16.00,-4.1536,-4.3185,0.1802,0.0005,-0.0015,0.8363,flat,18.0,3,10.841
510,16.32,-3.8737,-3.9775,0.1825,0.0008,-0.0101,1.0060,flat,18.0,3,10.434
520,16.64,-3.6238,-3.5245,0.1846,-0.0064,0.0139,1.2094,flat,18.0,3,9.930
530,16.96,-3.4593,-3.0283,0.1974,-0.0142,-0.0159,1.3327,flat,18.0,3,9.407
540,17.28,-3.3435,-2.4867,0.2060,-0.0222,-0.0140,1.4229,flat,18.0,3,8.855
550,17.60,-3.2635,-1.9189,0.2117,-0.0259,-0.0028,1.4318,flat,18.0,3,8.287
560,17.92,-3.1830,-1.3578,0.2182,-0.0255,-0.0082,1.4099,flat,18.0,3,7.726
570,18.24,-3.0901,-0.8039,0.2219,-0.0235,-0.0057,1.3684,flat,18.0,3,7.169
580,18.56,-2.9685,-0.2622,0.2234,-0.0157,-0.0043,1.3065,flat,18.0,3,6.616
590,18.88,-2.8184,0.2842,0.2254,-0.0170,-0.0017,1.2854,flat,18.0,3,6.050
600,19.20,-2.6556,0.8263,0.2256,-0.0123,0.0010,1.2596,flat,18.0,3,5.484
610,19.52,-2.4771,1.3594,0.2241,-0.0138,0.0047,1.2179,flat,18.0,3,4.922
620,19.84,-2.2777,1.8956,0.2202,-0.0144,0.0108,1.2057,flat,18.0,3,4.350
630,20.16,-2.0717,2.4339,0.2124,-0.0162,0.0201,1.2051,flat,18.0,3,3.775
640,20.48,-1.8675,2.9708,0.1995,-0.0129,0.0300,1.2122,flat,18.0,3,3.202
650,20.80,-1.6708,3.5090,0.1814,-0.0131,0.0405,1.2297,flat,18.0,3,2.630
660,21.12,-1.4943,4.0441,0.1588,-0.0010,0.0442,1.2725,flat,18.0,3,2.067
670,21.44,-1.3423,4.5673,0.1359,-0.0008,0.0444,1.2938,flat,18.0,3,1.523
680,21.76,-1.2160,5.0459,0.1143,0.0041,0.0435,1.3227,flat,18.0,3,1.028
690,22.08,-1.1262,5.4188,0.0988,0.0076,0.0400,1.3077,flat,18.0,0,10.326
700,22.40,-1.0732,5.6456,0.0897,0.0044,0.0394,1.1826,flat,18.0,0,10.493
710,22.72,-1.0091,5.8198,0.0828,-0.0137,0.0328,0.6697,transition,15.0,0,10.612
720,23.04,-0.7806,5.9492,0.0748,-0.0296,0.0207,0.0615,slope,18.0,0,10.615
730,23.36,-0.3883,5.9330,0.0700,-0.0049,-0.0331,-0.3345,slope,18.0,0,10.421
740,23.68,0.0551,5.7788,0.1272,0.0166,-0.1801,-0.3151,slope,18.0,0,10.092
750,24.00,0.4838,5.6296,0.2570,0.0669,-0.3374,-0.2856,slope,18.0,0,9.784
760,24.32,0.9503,5.4960,0.4320,0.0526,-0.3466,-0.2603,slope,18.0,0,9.489
770,24.64,1.4124,5.3743,0.6056,0.0421,-0.3540,-0.2218,slope,18.0,0,9.223
780,24.96,1.8816,5.2732,0.7827,0.0405,-0.3561,-0.2127,slope,18.0,0,8.993
790,25.28,2.3032,5.1838,0.9467,0.0671,-0.3628,-0.3093,slope,18.0,0,8.805
800,25.60,2.2791,5.1205,0.9360,0.0997,-0.3421,-0.3834,slope,18.0,0,8.748
810,25.92,2.2673,5.0374,0.9343,0.0233,-0.3605,-0.1474,slope,18.0,0,8.670
820,26.24,2.2681,5.0022,0.9362,-0.0174,-0.3555,-0.0454,slope,18.0,0,8.636
830,26.56,2.2693,4.9890,0.9368,-0.0315,-0.3527,-0.0067,slope,18.0,0,8.622
840,26.88,2.2700,4.9851,0.9360,-0.0370,-0.3441,0.0086,slope,18.0,0,8.619
850,27.20,2.2700,4.9833,0.9386,-0.0375,-0.3604,0.0096,slope,18.0,0,8.617
860,27.52,2.2698,4.9816,0.9386,-0.0374,-0.3604,0.0095,slope,18.0,0,8.615
870,27.84,2.2698,4.9809,0.9386,-0.0382,-0.3603,0.0118,slope,18.0,0,8.615
880,28.16,2.2698,4.9806,0.9386,-0.0386,-0.3602,0.0128,slope,18.0,0,8.614
890,28.48,2.2698,4.9805,0.9386,-0.0387,-0.3602,0.0133,slope,18.0,0,8.614
900,28.80,2.2699,4.9804,0.9387,-0.0389,-0.3602,0.0137,slope,18.0,0,8.614
910,29.12,2.2700,4.9806,0.9387,-0.0390,-0.3602,0.0142,slope,18.0,0,8.614
920,29.44,2.2702,4.9809,0.9388,-0.0393,-0.3602,0.0151,slope,18.0,0,8.614
930,29.76,2.2705,4.9818,0.9388,-0.0399,-0.3601,0.0168,slope,18.0,0,8.615
940,30.08,2.2711,4.9836,0.9390,-0.0411,-0.3600,0.0200,slope,18.0,0,8.617
950,30.40,2.2721,4.9871,0.9392,-0.0432,-0.3598,0.0262,slope,18.0,0,8.620
960,30.72,2.2724,4.9941,0.9391,-0.0476,-0.3592,0.0388,slope,18.0,0,8.627
970,31.04,2.2721,5.0083,0.9385,-0.0565,-0.3578,0.0644,slope,18.0,0,8.641
980,31.36,2.2693,5.0327,0.9364,-0.0622,-0.3563,0.0806,slope,18.0,0,8.665
990,31.68,2.2693,5.0483,0.9360,-0.0490,-0.3587,0.0421,slope,18.0,0,8.680
1000,32.00,2.2691,5.0534,0.9357,-0.0465,-0.3594,0.0349,slope,18.0,0,8.685
1010,32.32,2.2690,5.0565,0.9356,-0.0439,-0.3598,0.0274,slope,18.0,0,8.688
1020,32.64,2.2692,5.0584,0.9356,-0.0421,-0.3600,0.0222,slope,18.0,0,8.690
1030,32.96,2.2694,5.0596,0.9356,-0.0410,-0.3601,0.0190,slope,18.0,0,8.691
1040,33.28,2.2695,5.0603,0.9356,-0.0403,-0.3602,0.0170,slope,18.0,0,8.692
1050,33.60,2.2696,5.0608,0.9356,-0.0398,-0.3603,0.0157,slope,18.0,0,8.692
1060,33.92,2.2696,5.0611,0.9356,-0.0395,-0.3603,0.0149,slope,18.0,0,8.693
1070,34.24,2.2696,5.0613,0.9356,-0.0394,-0.3603,0.0144,slope,18.0,0,8.693
1080,34.56,2.2696,5.0614,0.9356,-0.0393,-0.3603,0.0141,slope,18.0,0,8.693
1090,34.88,2.2697,5.0615,0.9357,-0.0392,-0.3603,0.0139,slope,18.0,0,8.693
1100,35.20,2.2697,5.0614,0.9357,-0.0390,-0.3604,0.0134,slope,18.0,1,8.693
1110,35.52,2.2694,5.0612,0.9355,-0.0385,-0.3602,0.0121,slope,18.0,1,13.742
1120,35.84,2.1878,5.0593,0.9050,-0.0220,-0.3597,-0.0352,slope,18.0,1,13.722
1130,36.16,2.2804,5.0312,0.9408,0.0214,-0.3617,-0.1582,slope,18.0,1,13.715
1140,36.48,2.2681,5.0113,0.9368,-0.0066,-0.3617,-0.0784,slope,18.0,1,13.693
1150,36.80,2.2546,5.0044,0.9321,0.0039,-0.3618,-0.1086,slope,18.0,1,13.683
1160,37.12,2.2604,5.0031,0.9343,-0.0071,-0.3619,-0.0779,slope,18.0,1,13.683
1170,37.44,2.2543,4.9993,0.9321,-0.0063,-0.3609,-0.0787,slope,18.0,1,13.678
1180,37.76,2.2249,4.9825,0.9212,0.0214,-0.3570,-0.1579,slope,18.0,1,13.655
1190,38.08,2.2655,4.9844,0.9368,-0.0308,-0.3602,-0.0085,slope,18.0,1,13.666
1200,38.40,2.2535,4.9878,0.9321,-0.0370,-0.3586,0.0091,slope,18.0,1,13.667
1210,38.72,2.1457,4.9846,0.8919,-0.0210,-0.3587,-0.0375,slope,18.0,1,13.640
1220,39.04,2.2553,4.9556,0.9341,0.0212,-0.3610,-0.1572,slope,18.0,1,13.636
1230,39.36,2.2616,4.9205,0.9378,-0.0067,-0.3628,-0.0769,slope,18.0,1,13.603
1240,39.68,2.2628,4.8923,0.9389,-0.0140,-0.3603,-0.0553,slope,18.0,1,13.575
1250,40.00,2.2639,4.8683,0.9394,-0.0164,-0.3554,-0.0482,slope,18.0,1,13.552
1260,40.32,2.2666,4.8432,0.9415,-0.0123,-0.3573,-0.0595,slope,18.0,1,13.528
1270,40.64,2.2638,4.8059,0.9423,0.0068,-0.3601,-0.1134,slope,18.0,1,13.491
1280,40.96,2.3031,4.7399,0.9593,0.0408,-0.3607,-0.2128,slope,18.0,1,13.436
1290,41.28,2.5600,4.6360,1.0582,0.0969,-0.3503,-0.3432,slope,18.0,1,13.395
1300,41.60,2.8995,4.4632,1.1931,0.1461,-0.3346,-0.5046,slope,18.0,1,13.315
1310,41.92,3.2418,4.2217,1.3300,0.1850,-0.3166,-0.6134,slope,18.0,1,13.182
1320,42.24,3.5894,3.9725,1.4686,0.1899,-0.3125,-0.6227,slope,18.0,1,13.055
1330,42.56,3.7934,3.8065,1.5499,0.2126,-0.2976,-0.6980,slope,18.0,1,12.968
1340,42.88,4.0453,3.5676,1.6503,0.2398,-0.2744,-0.7850,slope,18.0,1,12.835
1350,43.20,4.2696,3.3232,1.7393,0.2579,-0.2537,-0.8556,slope,18.0,1,12.695
1360,43.52,4.4899,3.0546,1.8257,0.2694,-0.2372,-0.9021,slope,18.0,1,12.538
1370,43.84,4.7458,2.7071,1.9246,0.2811,-0.2176,-0.9513,slope,18.0,1,12.334
1380,44.16,5.0052,2.3300,2.0232,0.2848,-0.2012,-0.9929,slope,18.0,1,12.117
1390,44.48,5.2418,1.9369,2.1055,0.2834,-0.1577,-1.1308,slope,18.0,1,11.888
1400,44.80,5.3862,1.5159,2.1631,0.3262,-0.0901,-1.3240,slope,18.0,1,11.601
1410,45.12,5.4119,1.0913,2.1731,0.3345,0.0111,-1.6079,rough,14.0,1,11.256
1420,45.44,5.2934,0.7311,2.1310,0.3184,0.1150,-1.9020,slope,18.0,1,10.890
1430,45.76,5.1091,0.2784,2.0629,0.2957,0.1429,-1.9798,slope,18.0,1,10.411
1440,46.08,4.8505,-0.1906,1.9745,0.3126,0.1881,-2.0917,slope,18.0,1,9.878
1450,46.40,4.5637,-0.6441,1.8660,0.3073,0.2099,-2.1579,slope,18.0,1,9.341
1460,46.72,4.2466,-1.0913,1.7473,0.3178,0.2299,-2.1976,slope,18.0,1,8.793
1470,47.04,3.9149,-1.5321,1.6187,0.3213,0.2272,-2.2215,slope,18.0,1,8.242
1480,47.36,3.5742,-1.9742,1.4896,0.3252,0.2227,-2.2270,slope,18.0,1,7.685
1490,47.68,3.2348,-2.4173,1.3641,0.3216,0.2134,-2.2192,slope,18.0,1,7.128
1500,48.00,2.9006,-2.8660,1.2433,0.3105,0.2141,-2.2014,slope,18.0,1,6.570
1510,48.32,2.5745,-3.3178,1.1253,0.3040,0.2019,-2.1855,slope,18.0,1,6.013
1520,48.64,2.2539,-3.7779,1.0044,0.2935,0.2058,-2.1721,slope,18.0,1,5.452
1530,48.96,1.9394,-4.2448,0.8794,0.2786,0.2171,-2.1564,slope,18.0,1,4.890
1540,49.28,1.6305,-4.7150,0.7494,0.2709,0.2301,-2.1472,slope,18.0,1,4.327
1550,49.60,1.3265,-5.1845,0.6171,0.2678,0.2228,-2.1422,slope,18.0,1,3.768
1560,49.92,1.0235,-5.6575,0.4855,0.2661,0.2323,-2.1416,slope,18.0,1,3.206
1570,50.24,0.7204,-6.1270,0.3543,0.2653,0.2300,-2.1464,slope,18.0,1,2.647
1580,50.56,0.4260,-6.5918,0.2297,0.2734,0.2152,-2.1213,slope,18.0,1,2.097
1590,50.88,0.1740,-7.0163,0.1502,0.2324,0.1083,-2.0841,slope,18.0,1,1.604
1600,51.20,-0.0353,-7.4381,0.0886,0.1435,0.0975,-2.0178,slope,18.0,1,1.138
1610,51.52,-0.2102,-7.8487,0.0670,0.1025,0.0285,-1.9266,rough,14.0,2,4.973
1620,51.84,-0.3461,-8.2232,0.0566,0.0428,0.0152,-1.9910,rough,14.0,2,5.195
1630,52.16,-0.4932,-8.5039,0.0462,-0.0102,-0.0136,-2.1098,transition,15.0,2,5.350
1640,52.48,-0.6653,-8.7545,0.0493,-0.0003,-0.0229,-2.2468,flat,18.0,2,5.482
1650,52.80,-0.8443,-8.9636,0.0576,-0.0031,-0.0263,-2.3983,flat,18.0,2,5.586
1660,53.12,-1.0228,-9.1072,0.0639,0.0019,-0.0288,-2.5716,flat,18.0,2,5.642
1670,53.44,-1.2087,-9.2029,0.0702,0.0052,-0.0300,-2.7009,flat,18.0,2,5.659
1680,53.76,-1.3895,-9.2700,0.0760,0.0091,-0.0310,-2.8334,flat,18.0,2,5.658
1690,54.08,-1.5476,-9.3176,0.0811,0.0156,-0.0293,-3.0640,flat,18.0,2,5.653
1700,54.40,-1.7013,-9.3434,0.0860,0.0211,-0.0248,2.9938,flat,18.0,2,5.632
1710,54.72,-1.8483,-9.3328,0.0901,0.0253,-0.0224,2.8150,flat,18.0,2,5.583
1720,55.04,-1.9935,-9.2888,0.0937,0.0276,-0.0208,2.6701,flat,18.0,2,5.504
1730,55.36,-2.1403,-9.2174,0.0974,0.0295,-0.0195,2.5531,flat,18.0,2,5.402
1740,55.68,-2.2937,-9.1061,0.1010,0.0308,-0.0194,2.4626,flat,18.0,2,5.262
1750,56.00,-2.4600,-8.9626,0.1056,0.0319,-0.0205,2.3786,flat,18.0,2,5.092
1760,56.32,-2.6394,-8.7883,0.1110,0.0323,-0.0214,2.3144,flat,18.0,2,4.893
1770,56.64,-2.8356,-8.5597,0.1175,0.0333,-0.0226,2.2553,flat,18.0,2,4.644
1780,56.96,-3.0574,-8.2811,0.1262,0.0336,-0.0253,2.2152,flat,18.0,2,4.350
1790,57.28,-3.3076,-7.9350,0.1371,0.0335,-0.0263,2.1857,flat,18.0,2,3.998
1800,57.60,-3.6034,-7.5120,0.1508,0.0329,-0.0266,2.1746,flat,18.0,2,3.589
1810,57.92,-3.8953,-7.0526,0.1598,0.0624,-0.0219,2.0917,flat,18.0,2,3.175
1820,58.24,-4.1418,-6.5938,0.1745,0.0305,-0.0162,1.9899,flat,18.0,2,2.793
1830,58.56,-4.3282,-6.1068,0.1804,0.0348,-0.0086,1.8597,rough,14.0,2,2.409
1840,58.88,-4.4418,-5.6587,0.1828,0.0232,-0.0012,1.5449,flat,18.0,2,2.076
1850,59.20,-4.3982,-5.1990,0.1798,0.0274,0.0057,1.2075,flat,18.0,2,1.685
1860,59.52,-4.2213,-4.7886,0.1787,0.0059,0.0010,1.0449,flat,18.0,2,1.269
1870,59.84,-3.9965,-4.4327,0.1793,0.0053,-0.0032,0.9761,flat,18.0,3,10.905
1880,60.16,-3.7396,-4.0125,0.1834,0.0027,-0.0141,1.1401,flat,18.0,3,10.431
1890,60.48,-3.5387,-3.5219,0.1899,-0.0096,-0.0185,1.2991,flat,18.0,3,9.905
1900,60.80,-3.4105,-2.9884,0.1985,-0.0148,-0.0132,1.3887,flat,18.0,3,9.356
1910,61.12,-3.3156,-2.4269,0.2073,-0.0221,-0.0138,1.4126,flat,18.0,3,8.790
1920,61.44,-3.2249,-1.8644,0.2145,-0.0252,-0.0120,1.3953,flat,18.0,3,8.224
1930,61.76,-3.1221,-1.3077,0.2201,-0.0240,-0.0094,1.3636,flat,18.0,3,7.660
1940,62.08,-3.0000,-0.7592,0.2231,-0.0168,-0.0060,1.3234,flat,18.0,3,7.100
1950,62.40,-2.8590,-0.2143,0.2263,-0.0188,-0.0024,1.3056,flat,18.0,3,6.537
1960,62.72,-2.7069,0.3292,0.2270,-0.0125,-0.0011,1.2875,flat,18.0,3,5.973
1970,63.04,-2.5456,0.8706,0.2268,-0.0119,0.0043,1.2538,flat,18.0,3,5.408
1980,63.36,-2.3642,1.4073,0.2245,-0.0123,0.0037,1.2324,flat,18.0,3,4.842
1990,63.68,-2.1723,1.9486,0.2204,-0.0123,0.0108,1.2263,flat,18.0,3,4.268
2000,64.00,-1.9782,2.4911,0.2110,-0.0103,0.0197,1.2284,flat,18.0,3,3.693
2010,64.32,-1.7890,3.0310,0.1966,-0.0161,0.0167,1.2363,flat,18.0,3,3.122
2020,64.64,-1.6070,3.5751,0.1784,-0.0094,0.0443,1.2618,flat,18.0,3,2.550
2030,64.96,-1.4497,4.1123,0.1560,-0.0053,0.0405,1.3012,flat,18.0,3,1.990
2040,65.28,-1.3124,4.6299,0.1330,0.0008,0.0442,1.3191,flat,18.0,3,1.455
2050,65.60,-1.1997,5.1029,0.1119,0.0060,0.0429,1.3462,flat,18.0,0,0.968
2060,65.92,-1.1222,5.4538,0.0974,0.0086,0.0395,1.3254,flat,18.0,0,10.354
2070,66.24,-1.0773,5.6700,0.0890,0.0052,0.0392,1.1893,flat,18.0,0,10.517
2080,66.56,-1.0122,5.8352,0.0824,-0.0162,0.0319,0.5891,transition,15.0,0,10.627
2090,66.88,-0.8100,5.9321,0.0759,-0.0265,0.0232,0.1791,slope,18.0,0,10.614
2100,67.20,-0.4722,5.9834,0.0686,-0.0310,0.0158,0.0095,slope,18.0,0,10.504
2110,67.52,-0.0191,5.9724,0.1079,-0.0179,-0.1815,-0.1120,slope,18.0,0,10.298
2120,67.84,0.4470,5.9073,0.2366,0.0180,-0.3591,-0.1321,slope,18.0,0,10.054
2130,68.16,0.9305,5.8426,0.4120,0.0110,-0.3502,-0.1238,slope,18.0,0,9.822
2140,68.48,1.4075,5.7844,0.5887,0.0063,-0.3557,-0.1110,slope,18.0,0,9.616
2150,68.80,1.8827,5.7325,0.7670,0.0030,-0.3611,-0.0968,slope,18.0,0,9.437
2160,69.12,2.3517,5.6938,0.9447,-0.0020,-0.3649,-0.0807,slope,18.0,0,9.293
2170,69.44,2.8079,5.6539,1.1198,0.0031,-0.3677,-0.0904,slope,18.0,0,9.172
2180,69.76,3.0680,5.6201,1.2206,0.0226,-0.3672,-0.1424,slope,18.0,0,9.102
2190,70.08,3.1191,5.5762,1.2416,0.1146,-0.3508,-0.4027,slope,18.0,0,9.052
2200,70.40,3.0657,5.5316,1.2223,0.3234,-0.1824,-1.1541,slope,18.0,0,9.014
2210,70.72,2.9464,5.4729,1.1782,0.3275,0.1713,-2.1173,slope,18.0,0,8.972
2220,71.04,2.8423,5.4098,1.1408,0.2780,0.2306,-2.3361,slope,18.0,0,8.926
2230,71.36,2.7267,5.3937,1.0956,0.3615,0.0731,-1.8252,slope,18.0,0,8.928
2240,71.68,2.6593,5.4018,1.0704,0.3640,0.0009,-1.6509,rough,14.0,0,8.948
2250,72.00,2.6334,5.3985,1.0614,0.3642,-0.0234,-1.5953,rough,14.0,0,8.949
2260,72.32,2.6275,5.3969,1.0594,0.3635,-0.0353,-1.5674,rough,14.0,0,8.949
2270,72.64,2.6283,5.3968,1.0597,0.3637,-0.0348,-1.5701,rough,14.0,0,8.949
2280,72.96,2.6282,5.3970,1.0596,0.3640,-0.0345,-1.5720,rough,14.0,0,8.949
2290,73.28,2.6276,5.3971,1.0594,0.3635,-0.0334,-1.5732,rough,14.0,0,8.949
2300,73.60,2.6265,5.3974,1.0590,0.3634,-0.0329,-1.5742,rough,14.0,0,8.950
2310,73.92,2.6254,5.3973,1.0584,0.3633,-0.0343,-1.5681,rough,14.0,0,8.950
2320,74.24,2.6259,5.3972,1.0587,0.3633,-0.0341,-1.5705,rough,14.0,0,8.950
2330,74.56,2.6257,5.3974,1.0587,0.3633,-0.0337,-1.5721,rough,14.0,0,8.950
2340,74.88,2.6247,5.3974,1.0581,0.3632,-0.0346,-1.5656,rough,14.0,0,8.950
2350,75.20,2.6260,5.3971,1.0587,0.3633,-0.0348,-1.5687,rough,14.0,0,8.949
2360,75.52,2.6264,5.3971,1.0589,0.3633,-0.0342,-1.5707,rough,14.0,0,8.949
2370,75.84,2.6261,5.3973,1.0588,0.3634,-0.0337,-1.5723,rough,14.0,0,8.950
2380,76.16,2.6246,5.3977,1.0579,0.3632,-0.0338,-1.5655,rough,14.0,0,8.950
2390,76.48,2.6258,5.3971,1.0586,0.3633,-0.0347,-1.5687,rough,14.0,0,8.949
2400,76.80,2.6262,5.3972,1.0588,0.3633,-0.0342,-1.5707,rough,14.0,0,8.949
2410,77.12,2.6259,5.3974,1.0587,0.3634,-0.0336,-1.5723,rough,14.0,0,8.950
2420,77.44,2.6253,5.3972,1.0585,0.3632,-0.0364,-1.5649,rough,14.0,0,8.950
2430,77.76,2.6270,5.3968,1.0592,0.3633,-0.0353,-1.5678,rough,14.0,0,8.949
2440,78.08,2.6277,5.3969,1.0594,0.3634,-0.0344,-1.5701,rough,14.0,0,8.949
2450,78.40,2.6277,5.3970,1.0594,0.3634,-0.0339,-1.5718,rough,14.0,0,8.949
2460,78.72,2.6270,5.3972,1.0592,0.3634,-0.0333,-1.5732,rough,14.0,0,8.949
2470,79.04,2.6249,5.3978,1.0583,0.3631,-0.0360,-1.5660,rough,14.0,0,8.950
2480,79.36,2.6264,5.3970,1.0589,0.3633,-0.0353,-1.5678,rough,14.0,0,8.949
2490,79.68,2.6272,5.3970,1.0592,0.3633,-0.0344,-1.5701,rough,14.0,0,8.949
2500,80.00,2.6271,5.3971,1.0592,0.3634,-0.0339,-1.5718,rough,14.0,0,8.949
2510,80.32,2.6265,5.3973,1.0589,0.3634,-0.0333,-1.5731,rough,14.0,0,8.950
2520,80.64,2.6253,5.3973,1.0585,0.3632,-0.0361,-1.5656,rough,14.0,0,8.950
2530,80.96,2.6267,5.3969,1.0591,0.3633,-0.0351,-1.5684,rough,14.0,0,8.949
2540,81.28,2.6273,5.3970,1.0593,0.3634,-0.0343,-1.5705,rough,14.0,0,8.949
2550,81.60,2.6271,5.3971,1.0592,0.3634,-0.0338,-1.5721,rough,14.0,0,8.949
2560,81.92,2.6263,5.3974,1.0589,0.3634,-0.0332,-1.5733,rough,14.0,0,8.950
2570,82.24,2.6257,5.3971,1.0586,0.3632,-0.0359,-1.5660,rough,14.0,1,14.150
2580,82.56,2.6270,5.3969,1.0591,0.3633,-0.0349,-1.5688,rough,14.0,1,14.150
2590,82.88,2.6273,5.3970,1.0593,0.3634,-0.0342,-1.5708,rough,14.0,1,14.150
2600,83.20,2.6271,5.3972,1.0592,0.3634,-0.0337,-1.5723,rough,14.0,1,14.150
2610,83.52,2.6263,5.3974,1.0589,0.3634,-0.0332,-1.5734,rough,14.0,1,14.150
2620,83.84,2.6252,5.3973,1.0583,0.3632,-0.0344,-1.5671,rough,14.0,1,14.150
2630,84.16,2.6259,5.3972,1.0587,0.3633,-0.0344,-1.5699,rough,14.0,1,14.150
2640,84.48,2.6260,5.3973,1.0588,0.3633,-0.0339,-1.5715,rough,14.0,1,14.150
2650,84.80,2.6244,5.3979,1.0582,0.3630,-0.0370,-1.5643,rough,14.0,1,14.150
2660,85.12,2.6254,5.3971,1.0585,0.3632,-0.0349,-1.5675,rough,14.0,1,14.150
2670,85.44,2.6261,5.3971,1.0588,0.3633,-0.0344,-1.5700,rough,14.0,1,14.150
2680,85.76,2.6261,5.3973,1.0588,0.3634,-0.0339,-1.5716,rough,14.0,1,14.150
2690,86.08,2.6256,5.3975,1.0586,0.3634,-0.0334,-1.5729,rough,14.0,1,14.150
2700,86.40,2.6252,5.3972,1.0584,0.3632,-0.0348,-1.5674,rough,14.0,1,14.150
2710,86.72,2.6260,5.3972,1.0587,0.3633,-0.0344,-1.5699,rough,14.0,1,14.150
2720,87.04,2.6260,5.3973,1.0588,0.3633,-0.0339,-1.5716,rough,14.0,1,14.150
2730,87.36,2.6244,5.3979,1.0582,0.3630,-0.0368,-1.5645,rough,14.0,1,14.150
2740,87.68,2.6253,5.3972,1.0584,0.3632,-0.0348,-1.5677,rough,14.0,1,14.150
2750,88.00,2.6260,5.3972,1.0588,0.3633,-0.0343,-1.5701,rough,14.0,1,14.150
2760,88.32,2.6259,5.3973,1.0587,0.3633,-0.0339,-1.5717,rough,14.0,1,14.150
2770,88.64,2.6242,5.3980,1.0571,0.3631,-0.0305,-1.5636,rough,14.0,1,14.150
2780,88.96,2.6254,5.3971,1.0585,0.3633,-0.0349,-1.5679,rough,14.0,1,14.150
2790,89.28,2.6261,5.3972,1.0588,0.3633,-0.0343,-1.5702,rough,14.0,1,14.150
2800,89.60,2.6260,5.3973,1.0588,0.3634,-0.0338,-1.5718,rough,14.0,1,14.150
2810,89.92,2.6245,5.3976,1.0582,0.3630,-0.0370,-1.5637,rough,14.0,1,14.150
