step,time_s,x,y,z,roll,pitch,yaw,terrain,speed,target_idx,dist_to_target
10,0.32,1.8932,0.4978,0.6434,0.0349,-0.4055,-0.0104,slope,18.0,0,6.524
20,0.64,1.9625,0.5034,0.6703,0.0337,-0.4136,0.0338,slope,18.0,0,6.455
30,0.96,2.3253,0.5236,0.8349,0.0196,-0.4538,0.0475,slope,18.0,0,6.098
40,1.28,2.7045,0.5525,1.0196,-0.0037,-0.4576,0.0780,slope,18.0,0,5.724
50,1.60,3.0789,0.5956,1.2051,-0.0293,-0.4629,0.1202,slope,18.0,0,5.352
60,1.92,3.4591,0.6572,1.3856,-0.0662,-0.4374,0.1774,slope,18.0,0,4.969
70,2.24,3.8565,0.7450,1.5692,-0.0815,-0.3979,0.2154,slope,18.0,0,4.563
80,2.56,4.2661,0.8550,1.7433,-0.1032,-0.3832,0.2661,slope,18.0,0,4.139
90,2.88,4.6970,0.9888,1.9137,-0.1170,-0.3587,0.3187,slope,18.0,0,3.688
100,3.20,5.1582,1.1613,2.0829,-0.1290,-0.3220,0.3822,slope,18.0,0,3.197
110,3.52,5.6472,1.3665,2.2538,-0.1307,-0.3074,0.4163,slope,18.0,0,2.671
120,3.84,6.1464,1.5870,2.4246,-0.1283,-0.3046,0.4099,slope,18.0,0,2.134
130,4.16,6.6276,1.7916,2.5887,-0.1116,-0.3074,0.3747,slope,18.0,0,1.624
140,4.48,7.0557,1.9548,2.7354,-0.0677,-0.3230,0.2500,rough,14.0,0,1.181
150,4.80,7.3782,2.0309,2.8461,-0.0391,-0.3277,0.1740,rough,14.0,1,4.689
160,5.12,7.6744,2.0861,2.9707,-0.0479,-0.4463,0.1282,rough,14.0,1,4.833
170,5.44,7.8975,2.1181,3.1386,-0.0350,-0.8418,0.0816,rough,14.0,1,4.958
180,5.76,8.0319,2.1034,3.2557,0.1540,-0.7993,-0.0754,rough,14.0,1,5.061
190,6.08,8.1311,2.0636,3.3416,0.2546,-0.7632,-0.1813,rough,14.0,1,5.159
200,6.40,8.3065,2.0251,3.4342,0.3545,-0.5438,-0.1058,rough,14.0,1,5.310
210,6.72,8.4772,1.9843,3.5413,0.4153,-0.6101,-0.1606,rough,14.0,1,5.461
220,7.04,8.6566,1.9705,3.6504,0.3578,-0.5887,-0.2050,rough,14.0,1,5.601
230,7.36,8.8482,1.9489,3.7024,0.2515,-0.2632,-0.1385,rough,14.0,1,5.759
240,7.68,8.9943,1.9447,3.6895,0.0439,-0.1917,-0.1023,rough,14.0,1,5.872
250,8.00,9.0427,1.9054,3.6966,0.0263,-0.1373,0.0382,rough,14.0,1,5.934
260,8.32,9.2014,1.8300,3.6967,0.0595,0.0141,-0.2493,rough,14.0,1,6.104
270,8.64,9.3133,1.7296,3.6872,0.1131,0.0453,-0.5488,rough,14.0,1,6.254
280,8.96,9.4437,1.6137,3.6272,0.0170,0.2545,-0.7416,rough,14.0,1,6.429
290,9.28,9.6171,1.5585,3.5552,-0.3869,0.4079,-1.0785,rough,14.0,1,6.597
300,9.60,9.6469,1.5019,3.5487,-0.3875,0.2776,-1.2908,rough,14.0,1,6.656
310,9.92,9.6883,1.4783,3.5348,-0.5199,0.0320,-1.4323,rough,14.0,1,6.703
320,10.24,9.7195,1.4248,3.5136,-0.4952,-0.0453,-1.6737,rough,14.0,1,6.762
330,10.56,9.7569,1.3523,3.4701,-0.4117,-0.0358,-1.8919,rough,14.0,1,6.837
340,10.88,9.7663,1.3071,3.4592,-0.4281,-0.1169,-2.0337,rough,14.0,1,6.873
350,11.20,9.7610,1.2600,3.4547,-0.3648,-0.1059,-2.1862,rough,14.0,1,6.900
360,11.52,9.7607,1.2334,3.4641,-0.3376,-0.1948,-2.2607,rough,14.0,1,6.917
370,11.84,9.7394,1.1789,3.4653,-0.3873,-0.1137,-2.3791,rough,14.0,1,6.936
380,12.16,9.7051,1.1202,3.4659,-0.4651,-0.0173,-2.4800,rough,14.0,1,6.949
390,12.48,9.6510,1.0741,3.4709,-0.4924,0.0229,-2.5455,rough,14.0,1,6.940
400,12.80,9.5821,1.0480,3.4570,-0.3924,0.0406,-2.5932,rough,14.0,1,6.907
410,13.12,9.5226,1.0061,3.4591,-0.4066,0.0089,-2.6411,rough,14.0,1,6.892
420,13.44,9.4468,0.9452,3.4574,-0.4546,0.0111,-2.6877,rough,14.0,1,6.880
430,13.76,9.2505,0.8851,3.4117,-0.3623,0.4659,-2.9753,rough,14.0,1,6.784
440,14.08,9.0900,0.8122,3.3225,-0.4802,0.4493,-3.1358,rough,14.0,1,6.726
450,14.40,8.9274,0.7935,3.2301,-0.4640,0.4688,-3.1148,rough,14.0,1,6.631
460,14.72,8.7084,0.7810,3.1096,-0.4846,0.6419,3.0951,rough,14.0,1,6.497
470,15.04,8.4519,0.7508,2.8903,-0.4793,0.6555,3.0609,rough,14.0,1,6.358
480,15.36,8.3826,0.6250,2.8199,-0.4624,0.3118,3.1196,rough,14.0,1,6.416
490,15.68,8.2835,0.5823,2.7846,-0.3093,-0.2191,-2.7787,rough,14.0,1,6.391
500,16.00,8.2399,0.4368,2.7370,-0.6037,-0.4657,-2.4923,rough,14.0,1,6.484
510,16.32,8.2060,0.2723,2.7484,-0.8292,-0.4257,-2.1574,rough,14.0,1,6.600
520,16.64,8.1534,0.0636,2.7480,-0.7419,-0.3825,-2.0370,rough,14.0,1,6.746
530,16.96,8.2276,-0.1784,2.6065,-0.8467,-0.4375,-2.0494,rough,14.0,1,6.990
540,17.28,8.3399,-0.3889,2.4286,-0.9230,-0.3974,-1.9311,rough,14.0,1,7.228
550,17.60,8.3628,-0.6539,2.3626,-0.9779,-0.1140,-1.7072,rough,14.0,1,7.466
560,17.92,8.4091,-0.9112,2.3309,-0.9952,-0.1583,-1.4638,rough,14.0,1,7.711
570,18.24,8.4278,-1.2075,2.3777,-0.9014,-0.1470,-1.3850,rough,14.0,1,7.978
580,18.56,8.4738,-1.4242,2.4146,-0.8373,-0.2604,-1.2452,rough,14.0,1,8.190
590,18.88,8.5855,-1.6171,2.3875,-0.6514,-0.0492,-1.3297,rough,14.0,1,8.412
600,19.20,8.6795,-1.7571,2.3731,-0.6093,-0.3086,-1.3878,rough,14.0,1,8.580
610,19.52,8.7236,-1.9304,2.4296,-0.6351,-0.4269,-1.4076,rough,14.0,1,8.753
620,19.84,8.7688,-2.1097,2.4844,-0.6218,-0.4439,-1.4991,rough,14.0,1,8.933
630,20.16,8.8041,-2.2294,2.5411,-0.6518,-0.6012,-1.5145,rough,14.0,1,9.055
640,20.48,8.7979,-2.3722,2.6333,-0.5960,-0.6199,-1.5132,rough,14.0,1,9.178
650,20.80,8.8063,-2.5056,2.7248,-0.5880,-0.6030,-1.5152,rough,14.0,1,9.300
660,21.12,8.8211,-2.6199,2.8089,-0.5977,-0.6250,-1.4822,rough,14.0,1,9.408
670,21.44,8.8382,-2.7288,2.8870,-0.6345,-0.6683,-1.4285,rough,14.0,1,9.513
680,21.76,8.8567,-2.8333,2.9598,-0.6083,-0.6742,-1.4140,rough,14.0,1,9.615
690,22.08,8.8756,-2.9341,3.0264,-0.4829,-0.6857,-1.5307,rough,14.0,1,9.713
700,22.40,8.8871,-3.0143,3.0837,-0.4365,-0.6872,-1.5555,rough,14.0,1,9.790
710,22.72,8.9244,-3.0458,3.0877,-0.5185,-0.6245,-1.3822,rough,14.0,1,9.835
720,23.04,9.0029,-3.0257,3.0232,-0.5818,-0.5117,-1.2104,rough,14.0,1,9.852
730,23.36,9.0643,-2.9383,2.9181,-0.5684,-0.5061,-1.1615,rough,14.0,1,9.803
740,23.68,9.1004,-2.8224,2.8044,-0.5203,-0.5589,-1.2087,rough,14.0,1,9.717
750,24.00,9.1276,-2.7596,2.7496,-0.4591,-0.5834,-1.2264,rough,14.0,1,9.675
760,24.32,9.1644,-2.8230,2.7811,-0.4556,-0.6254,-1.2673,rough,14.0,1,9.748
770,24.64,9.1964,-2.8757,2.8151,-0.4174,-0.6484,-1.3348,rough,14.0,1,9.810
780,24.96,9.2224,-2.9149,2.8328,-0.4163,-0.6557,-1.3737,rough,14.0,1,9.857
790,25.28,9.2444,-2.9638,2.8585,-0.4175,-0.6477,-1.4130,rough,14.0,1,9.910
800,25.60,9.2579,-3.0328,2.9013,-0.4233,-0.6369,-1.4361,rough,14.0,1,9.977
810,25.92,9.2709,-3.0951,2.9470,-0.3987,-0.6100,-1.4741,rough,14.0,1,10.038
820,26.24,9.2798,-3.1592,2.9987,-0.3803,-0.6339,-1.4868,rough,14.0,1,10.099
830,26.56,9.2877,-3.2218,3.0482,-0.3704,-0.6503,-1.4965,rough,14.0,1,10.158
840,26.88,9.3018,-3.2399,3.0576,-0.3792,-0.7130,-1.5033,rough,14.0,1,10.180
850,27.20,9.3080,-3.2768,3.0789,-0.4009,-0.6774,-1.4731,rough,14.0,1,10.216
860,27.52,9.3162,-3.3195,3.1106,-0.4120,-0.6758,-1.4348,rough,14.0,2,17.376
870,27.84,9.3307,-3.3599,3.1404,-0.3974,-0.6764,-1.4355,rough,14.0,2,17.403
880,28.16,9.3466,-3.3952,3.1663,-0.3865,-0.6765,-1.4389,rough,14.0,2,17.429
890,28.48,9.3594,-3.4202,3.1819,-0.3636,-0.6700,-1.4593,rough,14.0,2,17.449
900,28.80,9.3667,-3.4377,3.1950,-0.3382,-0.6772,-1.4876,rough,14.0,2,17.462
910,29.12,9.3719,-3.4485,3.2029,-0.3190,-0.6827,-1.5088,rough,14.0,2,17.470
920,29.44,9.3756,-3.4528,3.2058,-0.3045,-0.6871,-1.5243,rough,14.0,2,17.475
930,29.76,9.3782,-3.4510,3.2039,-0.2935,-0.6910,-1.5355,rough,14.0,2,17.477
940,30.08,9.3799,-3.4432,3.1973,-0.2850,-0.6945,-1.5434,rough,14.0,2,17.476
950,30.40,9.3811,-3.4296,3.1860,-0.2783,-0.6981,-1.5488,rough,14.0,2,17.473
960,30.72,9.3817,-3.4104,3.1702,-0.2728,-0.7020,-1.5523,rough,14.0,2,17.467
970,31.04,9.3820,-3.3854,3.1498,-0.2680,-0.7062,-1.5543,rough,14.0,2,17.460
980,31.36,9.3821,-3.3549,3.1248,-0.2636,-0.7109,-1.5552,rough,14.0,2,17.450
990,31.68,9.3800,-3.3189,3.0897,-0.2414,-0.7014,-1.5607,rough,14.0,2,17.437
1000,32.00,9.3917,-3.2886,3.0648,-0.2902,-0.6832,-1.5105,rough,14.0,2,17.438
1010,32.32,9.3972,-3.3015,3.0740,-0.3103,-0.6798,-1.4716,rough,14.0,2,17.448
1020,32.64,9.4072,-3.3336,3.0977,-0.3168,-0.6772,-1.4478,rough,14.0,2,17.467
1030,32.96,9.4183,-3.3464,3.1036,-0.2937,-0.6728,-1.4681,rough,14.0,2,17.482
1040,33.28,9.4240,-3.3496,3.1053,-0.2693,-0.6820,-1.4946,rough,14.0,2,17.488
1050,33.60,9.4280,-3.3471,3.1026,-0.2508,-0.6890,-1.5142,rough,14.0,2,17.491
1060,33.92,9.4307,-3.3396,3.0960,-0.2368,-0.6947,-1.5284,rough,14.0,2,17.491
1070,34.24,9.4325,-3.3275,3.0859,-0.2262,-0.6996,-1.5384,rough,14.0,2,17.489
1080,34.56,9.4341,-3.3135,3.0742,-0.2194,-0.7016,-1.5460,rough,14.0,2,17.486
1090,34.88,9.4353,-3.3081,3.0695,-0.2152,-0.7019,-1.5518,rough,14.0,2,17.486
1100,35.20,9.4359,-3.3126,3.0731,-0.2110,-0.7042,-1.5553,rough,14.0,2,17.488
1110,35.52,9.4363,-3.3251,3.0833,-0.2079,-0.7059,-1.5578,rough,14.0,2,17.492
1120,35.84,9.4369,-3.3354,3.0915,-0.2068,-0.7052,-1.5602,rough,14.0,2,17.496
1130,36.16,9.4374,-3.3421,3.0969,-0.2059,-0.7047,-1.5619,rough,14.0,2,17.498
1140,36.48,9.4376,-3.3451,3.0994,-0.2052,-0.7046,-1.5630,rough,14.0,2,17.500
1150,36.80,9.4378,-3.3446,3.0989,-0.2045,-0.7049,-1.5637,rough,14.0,2,17.500
1160,37.12,9.4378,-3.3406,3.0956,-0.2037,-0.7055,-1.5641,rough,14.0,2,17.498
1170,37.44,9.4378,-3.3330,3.0894,-0.2027,-0.7067,-1.5641,rough,14.0,2,17.496
1180,37.76,9.4377,-3.3220,3.0804,-0.2016,-0.7082,-1.5640,rough,14.0,2,17.492
1190,38.08,9.4379,-3.3141,3.0739,-0.2021,-0.7071,-1.5644,rough,14.0,2,17.490
1200,38.40,9.4379,-3.3167,3.0760,-0.2015,-0.7079,-1.5643,rough,14.0,2,17.491
1210,38.72,9.4380,-3.3246,3.0825,-0.2014,-0.7079,-1.5644,rough,14.0,2,17.494
1220,39.04,9.4381,-3.3291,3.0861,-0.2016,-0.7073,-1.5647,rough,14.0,2,17.495
1230,39.36,9.4382,-3.3302,3.0870,-0.2016,-0.7072,-1.5648,rough,14.0,3,14.419
1240,39.68,9.4382,-3.3279,3.0851,-0.2013,-0.7075,-1.5648,rough,14.0,3,14.420
1250,40.00,9.4381,-3.3221,3.0804,-0.2008,-0.7083,-1.5646,rough,14.0,3,14.421
1260,40.32,9.4382,-3.3181,3.0771,-0.2008,-0.7082,-1.5645,rough,14.0,3,14.423
1270,40.64,9.4382,-3.3198,3.0785,-0.2007,-0.7083,-1.5645,rough,14.0,3,14.422
1280,40.96,9.4382,-3.3201,3.0787,-0.2007,-0.7084,-1.5645,rough,14.0,3,14.422
1290,41.28,9.4383,-3.3199,3.0785,-0.2006,-0.7083,-1.5645,rough,14.0,3,14.422
1300,41.60,9.4383,-3.3199,3.0785,-0.2006,-0.7083,-1.5645,rough,14.0,3,14.422
1310,41.92,9.4384,-3.3199,3.0785,-0.2005,-0.7083,-1.5645,rough,14.0,3,14.422
1320,42.24,9.4384,-3.3199,3.0785,-0.2005,-0.7083,-1.5645,rough,14.0,3,14.422
1330,42.56,9.4385,-3.3199,3.0784,-0.2004,-0.7083,-1.5645,rough,14.0,3,14.422
1340,42.88,9.4385,-3.3199,3.0784,-0.2004,-0.7083,-1.5645,rough,14.0,3,14.422
1350,43.20,9.4386,-3.3199,3.0784,-0.2004,-0.7083,-1.5645,rough,14.0,3,14.422
1360,43.52,9.4386,-3.3199,3.0784,-0.2003,-0.7083,-1.5645,rough,14.0,3,14.423
1370,43.84,9.4387,-3.3199,3.0784,-0.2003,-0.7083,-1.5645,rough,14.0,3,14.423
1380,44.16,9.4387,-3.3199,3.0784,-0.2002,-0.7083,-1.5645,rough,14.0,3,14.423
1390,44.48,9.4388,-3.3198,3.0783,-0.2002,-0.7083,-1.5645,rough,14.0,3,14.423
1400,44.80,9.4388,-3.3198,3.0783,-0.2001,-0.7083,-1.5645,rough,14.0,3,14.423
1410,45.12,9.4389,-3.3198,3.0783,-0.2001,-0.7083,-1.5645,rough,14.0,3,14.423
1420,45.44,9.4389,-3.3198,3.0783,-0.2000,-0.7082,-1.5645,rough,14.0,3,14.423
1430,45.76,9.4390,-3.3198,3.0783,-0.2000,-0.7082,-1.5645,rough,14.0,3,14.423
1440,46.08,9.4390,-3.3198,3.0782,-0.1999,-0.7082,-1.5645,rough,14.0,3,14.423
1450,46.40,9.4390,-3.3198,3.0782,-0.1999,-0.7082,-1.5645,rough,14.0,3,14.423
1460,46.72,9.4391,-3.3198,3.0782,-0.1998,-0.7082,-1.5645,rough,14.0,3,14.423
1470,47.04,9.4391,-3.3198,3.0782,-0.1998,-0.7082,-1.5645,rough,14.0,3,14.423
1480,47.36,9.4392,-3.3198,3.0782,-0.1997,-0.7082,-1.5646,rough,14.0,3,14.423
1490,47.68,9.4392,-3.3198,3.0781,-0.1997,-0.7082,-1.5646,rough,14.0,3,14.423
1500,48.00,9.4393,-3.3198,3.0781,-0.1996,-0.7082,-1.5646,rough,14.0,3,14.423
1510,48.32,9.4393,-3.3198,3.0781,-0.1996,-0.7082,-1.5646,rough,14.0,3,14.423
1520,48.64,9.4394,-3.3198,3.0781,-0.1996,-0.7082,-1.5646,rough,14.0,3,14.423
1530,48.96,9.4394,-3.3198,3.0781,-0.1995,-0.7082,-1.5646,rough,14.0,3,14.423
1540,49.28,9.4395,-3.3198,3.0780,-0.1995,-0.7082,-1.5646,rough,14.0,3,14.423
1550,49.60,9.4395,-3.3198,3.0780,-0.1994,-0.7082,-1.5646,rough,14.0,3,14.423
1560,49.92,9.4396,-3.3198,3.0780,-0.1994,-0.7081,-1.5646,rough,14.0,3,14.423
1570,50.24,9.4396,-3.3197,3.0780,-0.1993,-0.7081,-1.5646,rough,14.0,3,14.424
1580,50.56,9.4397,-3.3197,3.0780,-0.1993,-0.7081,-1.5646,rough,14.0,3,14.424
1590,50.88,9.4397,-3.3197,3.0779,-0.1992,-0.7081,-1.5646,rough,14.0,0,5.488
1600,51.20,9.4398,-3.3197,3.0779,-0.1992,-0.7081,-1.5646,rough,14.0,0,5.488
1610,51.52,9.4398,-3.3197,3.0779,-0.1991,-0.7081,-1.5646,rough,14.0,0,5.488
1620,51.84,9.4399,-3.3197,3.0779,-0.1991,-0.7081,-1.5646,rough,14.0,0,5.488
1630,52.16,9.4399,-3.3197,3.0779,-0.1990,-0.7081,-1.5646,rough,14.0,0,5.488
1640,52.48,9.4400,-3.3197,3.0778,-0.1990,-0.7081,-1.5646,rough,14.0,0,5.488
1650,52.80,9.4400,-3.3197,3.0778,-0.1989,-0.7081,-1.5646,rough,14.0,0,5.488
1660,53.12,9.4400,-3.3197,3.0778,-0.1989,-0.7081,-1.5646,rough,14.0,0,5.488
1670,53.44,9.4401,-3.3197,3.0778,-0.1988,-0.7081,-1.5646,rough,14.0,0,5.488
1680,53.76,9.4401,-3.3197,3.0778,-0.1988,-0.7081,-1.5646,rough,14.0,0,5.488
1690,54.08,9.4402,-3.3197,3.0777,-0.1987,-0.7081,-1.5646,rough,14.0,0,5.488
1700,54.40,9.4402,-3.3197,3.0777,-0.1987,-0.7080,-1.5646,rough,14.0,0,5.488
1710,54.72,9.4403,-3.3197,3.0777,-0.1987,-0.7080,-1.5646,rough,14.0,0,5.488
1720,55.04,9.4403,-3.3197,3.0777,-0.1986,-0.7080,-1.5646,rough,14.0,0,5.488
1730,55.36,9.4404,-3.3197,3.0777,-0.1986,-0.7080,-1.5646,rough,14.0,0,5.488
1740,55.68,9.4404,-3.3197,3.0776,-0.1985,-0.7080,-1.5646,rough,14.0,0,5.488
1750,56.00,9.4405,-3.3196,3.0776,-0.1985,-0.7080,-1.5646,rough,14.0,0,5.488
1760,56.32,9.4405,-3.3196,3.0776,-0.1984,-0.7080,-1.5646,rough,14.0,0,5.488
1770,56.64,9.4406,-3.3196,3.0776,-0.1984,-0.7080,-1.5646,rough,14.0,0,5.488
1780,56.96,9.4406,-3.3196,3.0776,-0.1983,-0.7080,-1.5646,rough,14.0,0,5.488
1790,57.28,9.4407,-3.3196,3.0775,-0.1983,-0.7080,-1.5647,rough,14.0,0,5.488
1800,57.60,9.4407,-3.3196,3.0775,-0.1982,-0.7080,-1.5647,rough,14.0,0,5.488
1810,57.92,9.4408,-3.3196,3.0775,-0.1982,-0.7080,-1.5647,rough,14.0,0,5.488
1820,58.24,9.4408,-3.3196,3.0775,-0.1981,-0.7080,-1.5647,rough,14.0,0,5.488
1830,58.56,9.4409,-3.3196,3.0775,-0.1981,-0.7080,-1.5647,rough,14.0,0,5.488
1840,58.88,9.4409,-3.3196,3.0774,-0.1980,-0.7080,-1.5647,rough,14.0,0,5.488
1850,59.20,9.4410,-3.3196,3.0774,-0.1980,-0.7079,-1.5647,rough,14.0,0,5.488
1860,59.52,9.4410,-3.3196,3.0774,-0.1979,-0.7079,-1.5647,rough,14.0,0,5.488
1870,59.84,9.4410,-3.3196,3.0774,-0.1979,-0.7079,-1.5647,rough,14.0,0,5.488
1880,60.16,9.4411,-3.3196,3.0774,-0.1979,-0.7079,-1.5647,rough,14.0,0,5.488
1890,60.48,9.4411,-3.3196,3.0773,-0.1978,-0.7079,-1.5647,rough,14.0,0,5.488
1900,60.80,9.4412,-3.3196,3.0773,-0.1978,-0.7079,-1.5647,rough,14.0,0,5.488
1910,61.12,9.4412,-3.3196,3.0773,-0.1977,-0.7079,-1.5647,rough,14.0,0,5.488
1920,61.44,9.4413,-3.3196,3.0773,-0.1977,-0.7079,-1.5647,rough,14.0,0,5.488
1930,61.76,9.4413,-3.3195,3.0773,-0.1976,-0.7079,-1.5647,rough,14.0,0,5.488
1940,62.08,9.4414,-3.3195,3.0772,-0.1976,-0.7079,-1.5647,rough,14.0,0,5.488
1950,62.40,9.4414,-3.3195,3.0772,-0.1975,-0.7079,-1.5647,rough,14.0,0,5.488
1960,62.72,9.4415,-3.3195,3.0772,-0.1975,-0.7079,-1.5647,rough,14.0,1,10.317
1970,63.04,9.4415,-3.3195,3.0772,-0.1974,-0.7079,-1.5647,rough,14.0,1,10.317
1980,63.36,9.4416,-3.3195,3.0772,-0.1974,-0.7079,-1.5647,rough,14.0,1,10.317
1990,63.68,9.4416,-3.3195,3.0771,-0.1973,-0.7078,-1.5647,rough,14.0,1,10.317
2000,64.00,9.4417,-3.3195,3.0771,-0.1973,-0.7078,-1.5647,rough,14.0,1,10.317
2010,64.32,9.4417,-3.3195,3.0771,-0.1972,-0.7078,-1.5647,rough,14.0,1,10.317
2020,64.64,9.4418,-3.3195,3.0771,-0.1972,-0.7078,-1.5647,rough,14.0,1,10.317
2030,64.96,9.4418,-3.3195,3.0771,-0.1971,-0.7078,-1.5647,rough,14.0,1,10.317
2040,65.28,9.4419,-3.3195,3.0770,-0.1971,-0.7078,-1.5647,rough,14.0,1,10.317
2050,65.60,9.4419,-3.3195,3.0770,-0.1970,-0.7078,-1.5647,rough,14.0,1,10.317
2060,65.92,9.4420,-3.3195,3.0770,-0.1970,-0.7078,-1.5647,rough,14.0,1,10.317
2070,66.24,9.4420,-3.3195,3.0770,-0.1970,-0.7078,-1.5647,rough,14.0,1,10.317
2080,66.56,9.4420,-3.3195,3.0770,-0.1969,-0.7078,-1.5647,rough,14.0,1,10.317
2090,66.88,9.4421,-3.3195,3.0769,-0.1969,-0.7078,-1.5647,rough,14.0,1,10.317
2100,67.20,9.4421,-3.3195,3.0769,-0.1968,-0.7078,-1.5647,rough,14.0,1,10.317
2110,67.52,9.4422,-3.3194,3.0769,-0.1968,-0.7078,-1.5648,rough,14.0,1,10.317
2120,67.84,9.4422,-3.3194,3.0769,-0.1967,-0.7078,-1.5648,rough,14.0,1,10.317
2130,68.16,9.4423,-3.3194,3.0769,-0.1967,-0.7077,-1.5648,rough,14.0,1,10.317
2140,68.48,9.4423,-3.3194,3.0768,-0.1966,-0.7077,-1.5648,rough,14.0,1,10.317
2150,68.80,9.4424,-3.3194,3.0768,-0.1966,-0.7077,-1.5648,rough,14.0,1,10.317
2160,69.12,9.4424,-3.3194,3.0768,-0.1965,-0.7077,-1.5648,rough,14.0,1,10.317
2170,69.44,9.4425,-3.3194,3.0768,-0.1965,-0.7077,-1.5648,rough,14.0,1,10.317
2180,69.76,9.4425,-3.3194,3.0768,-0.1964,-0.7077,-1.5648,rough,14.0,1,10.317
2190,70.08,9.4426,-3.3194,3.0767,-0.1964,-0.7077,-1.5648,rough,14.0,1,10.317
2200,70.40,9.4426,-3.3194,3.0767,-0.1963,-0.7077,-1.5648,rough,14.0,1,10.317
2210,70.72,9.4427,-3.3194,3.0767,-0.1963,-0.7077,-1.5648,rough,14.0,1,10.317
2220,71.04,9.4427,-3.3194,3.0767,-0.1962,-0.7077,-1.5648,rough,14.0,1,10.317
2230,71.36,9.4428,-3.3194,3.0767,-0.1962,-0.7077,-1.5648,rough,14.0,1,10.317
2240,71.68,9.4428,-3.3194,3.0766,-0.1962,-0.7077,-1.5648,rough,14.0,1,10.317
2250,72.00,9.4429,-3.3194,3.0766,-0.1961,-0.7077,-1.5648,rough,14.0,1,10.317
2260,72.32,9.4429,-3.3194,3.0766,-0.1961,-0.7077,-1.5648,rough,14.0,1,10.317
2270,72.64,9.4430,-3.3194,3.0766,-0.1960,-0.7076,-1.5648,rough,14.0,1,10.317
2280,72.96,9.4430,-3.3194,3.0765,-0.1960,-0.7076,-1.5648,rough,14.0,1,10.317
2290,73.28,9.4430,-3.3194,3.0765,-0.1959,-0.7076,-1.5648,rough,14.0,1,10.317
2300,73.60,9.4431,-3.3193,3.0765,-0.1959,-0.7076,-1.5648,rough,14.0,1,10.317
2310,73.92,9.4431,-3.3193,3.0765,-0.1958,-0.7076,-1.5648,rough,14.0,1,10.317
2320,74.24,9.4432,-3.3193,3.0765,-0.1958,-0.7076,-1.5648,rough,14.0,2,10.317
2330,74.56,9.4432,-3.3193,3.0764,-0.1957,-0.7076,-1.5648,rough,14.0,2,17.497
2340,74.88,9.4433,-3.3193,3.0764,-0.1957,-0.7076,-1.5648,rough,14.0,2,17.497
2350,75.20,9.4433,-3.3193,3.0764,-0.1956,-0.7076,-1.5648,rough,14.0,2,17.497
2360,75.52,9.4434,-3.3193,3.0764,-0.1956,-0.7076,-1.5648,rough,14.0,2,17.497
2370,75.84,9.4434,-3.3193,3.0764,-0.1955,-0.7076,-1.5648,rough,14.0,2,17.497
2380,76.16,9.4435,-3.3193,3.0763,-0.1955,-0.7076,-1.5648,rough,14.0,2,17.497
2390,76.48,9.4435,-3.3193,3.0763,-0.1954,-0.7076,-1.5648,rough,14.0,2,17.497
2400,76.80,9.4436,-3.3193,3.0763,-0.1954,-0.7076,-1.5648,rough,14.0,2,17.497
2410,77.12,9.4436,-3.3193,3.0763,-0.1954,-0.7075,-1.5648,rough,14.0,2,17.497
2420,77.44,9.4437,-3.3193,3.0763,-0.1953,-0.7075,-1.5648,rough,14.0,2,17.497
2430,77.76,9.4437,-3.3193,3.0762,-0.1953,-0.7075,-1.5649,rough,14.0,2,17.497
2440,78.08,9.4438,-3.3193,3.0762,-0.1952,-0.7075,-1.5649,rough,14.0,2,17.497
2450,78.40,9.4438,-3.3193,3.0762,-0.1952,-0.7075,-1.5649,rough,14.0,2,17.497
2460,78.72,9.4439,-3.3193,3.0762,-0.1951,-0.7075,-1.5649,rough,14.0,2,17.497
2470,79.04,9.4439,-3.3193,3.0762,-0.1951,-0.7075,-1.5649,rough,14.0,2,17.497
2480,79.36,9.4440,-3.3192,3.0761,-0.1950,-0.7075,-1.5649,rough,14.0,2,17.498
2490,79.68,9.4440,-3.3192,3.0761,-0.1950,-0.7075,-1.5649,rough,14.0,2,17.498
2500,80.00,9.4440,-3.3192,3.0761,-0.1949,-0.7075,-1.5649,rough,14.0,2,17.498
2510,80.32,9.4441,-3.3192,3.0761,-0.1949,-0.7075,-1.5649,rough,14.0,2,17.498
2520,80.64,9.4441,-3.3192,3.0761,-0.1948,-0.7075,-1.5649,rough,14.0,2,17.498
2530,80.96,9.4442,-3.3192,3.0760,-0.1948,-0.7075,-1.5649,rough,14.0,2,17.498
2540,81.28,9.4442,-3.3192,3.0760,-0.1947,-0.7075,-1.5649,rough,14.0,2,17.498
2550,81.60,9.4443,-3.3192,3.0760,-0.1947,-0.7074,-1.5649,rough,14.0,2,17.498
2560,81.92,9.4443,-3.3192,3.0760,-0.1946,-0.7074,-1.5649,rough,14.0,2,17.498
2570,82.24,9.4444,-3.3192,3.0760,-0.1946,-0.7074,-1.5649,rough,14.0,2,17.498
2580,82.56,9.4444,-3.3192,3.0759,-0.1945,-0.7074,-1.5649,rough,14.0,2,17.498
2590,82.88,9.4445,-3.3192,3.0759,-0.1945,-0.7074,-1.5649,rough,14.0,2,17.498
2600,83.20,9.4445,-3.3192,3.0759,-0.1945,-0.7074,-1.5649,rough,14.0,2,17.498
2610,83.52,9.4446,-3.3192,3.0759,-0.1944,-0.7074,-1.5649,rough,14.0,2,17.498
2620,83.84,9.4446,-3.3192,3.0759,-0.1944,-0.7074,-1.5649,rough,14.0,2,17.498
2630,84.16,9.4447,-3.3192,3.0758,-0.1943,-0.7074,-1.5649,rough,14.0,2,17.498
2640,84.48,9.4447,-3.3192,3.0758,-0.1943,-0.7074,-1.5649,rough,14.0,2,17.498
2650,84.80,9.4448,-3.3192,3.0758,-0.1942,-0.7074,-1.5649,rough,14.0,2,17.498
2660,85.12,9.4448,-3.3191,3.0758,-0.1942,-0.7074,-1.5649,rough,14.0,2,17.498
2670,85.44,9.4449,-3.3191,3.0758,-0.1941,-0.7074,-1.5649,rough,14.0,2,17.498
2680,85.76,9.4449,-3.3191,3.0757,-0.1941,-0.7074,-1.5649,rough,14.0,2,17.498
2690,86.08,9.4450,-3.3191,3.0757,-0.1940,-0.7073,-1.5649,rough,14.0,3,14.429
2700,86.40,9.4450,-3.3191,3.0757,-0.1940,-0.7073,-1.5649,rough,14.0,3,14.429
2710,86.72,9.4450,-3.3191,3.0757,-0.1939,-0.7073,-1.5649,rough,14.0,3,14.429
2720,87.04,9.4451,-3.3191,3.0757,-0.1939,-0.7073,-1.5649,rough,14.0,3,14.429
2730,87.36,9.4451,-3.3191,3.0756,-0.1938,-0.7073,-1.5649,rough,14.0,3,14.429
2740,87.68,9.4452,-3.3191,3.0756,-0.1938,-0.7073,-1.5649,rough,14.0,3,14.429
2750,88.00,9.4452,-3.3191,3.0756,-0.1937,-0.7073,-1.5650,rough,14.0,3,14.429
2760,88.32,9.4453,-3.3191,3.0756,-0.1937,-0.7073,-1.5650,rough,14.0,3,14.429
2770,88.64,9.4453,-3.3191,3.0756,-0.1937,-0.7073,-1.5650,rough,14.0,3,14.429
2780,88.96,9.4454,-3.3191,3.0755,-0.1936,-0.7073,-1.5650,rough,14.0,3,14.429
2790,89.28,9.4454,-3.3191,3.0755,-0.1936,-0.7073,-1.5650,rough,14.0,3,14.429
2800,89.60,9.4455,-3.3191,3.0755,-0.1935,-0.7073,-1.5650,rough,14.0,3,14.429
2810,89.92,9.4455,-3.3191,3.0755,-0.1935,-0.7073,-1.5650,rough,14.0,3,14.429
