step,time_s,x,y,z,roll,pitch,yaw,terrain,speed,target_idx,dist_to_target
10,0.32,0.8117,-0.7260,0.3261,-0.0674,-0.2680,-0.2195,slope,18.0,0,5.911
20,0.64,1.0275,-0.8019,0.3758,0.0151,-0.2490,-0.3498,slope,18.0,0,5.698
30,0.96,1.3839,-0.9756,0.4932,0.0625,-0.3310,-0.4997,slope,18.0,0,5.315
40,1.28,1.7330,-1.2237,0.6456,0.1342,-0.3679,-0.6694,slope,18.0,0,4.890
50,1.60,2.0669,-1.5468,0.8107,0.2099,-0.3548,-0.7920,slope,18.0,0,4.426
60,1.92,2.3954,-1.9260,0.9867,0.2505,-0.3339,-0.8644,slope,18.0,0,3.928
70,2.24,2.7372,-2.3468,1.1572,0.2639,-0.2940,-0.8787,slope,18.0,0,3.395
80,2.56,3.0889,-2.7701,1.3156,0.2685,-0.2690,-0.8560,slope,18.0,0,2.855
90,2.88,3.4455,-3.1789,1.4557,0.2643,-0.2532,-0.8176,slope,18.0,0,2.325
100,3.20,3.8194,-3.5706,1.5912,0.2615,-0.2499,-0.7765,slope,18.0,0,1.797
110,3.52,4.1700,-3.9111,1.7135,0.2511,-0.2485,-0.7483,slope,18.0,0,1.323
120,3.84,4.4795,-4.1983,1.8211,0.2459,-0.2554,-0.7182,slope,18.0,1,12.209
130,4.16,4.6916,-4.3851,1.8953,0.1646,-0.3201,-0.4277,slope,18.0,1,12.449
140,4.48,4.8715,-4.4802,1.9600,-0.0839,-0.3470,0.2995,slope,18.0,1,12.594
150,4.80,5.1467,-4.3100,2.0647,-0.1717,-0.3131,0.5581,slope,18.0,1,12.520
160,5.12,5.5329,-4.0256,2.2093,-0.2040,-0.2852,0.6517,slope,18.0,1,12.387
170,5.44,5.9026,-3.7033,2.3414,-0.2356,-0.2576,0.7481,slope,18.0,1,12.230
180,5.76,6.2591,-3.3436,2.4694,-0.2573,-0.2232,0.8530,slope,18.0,1,12.052
190,6.08,6.5771,-2.9455,2.5768,-0.2786,-0.1920,0.9564,slope,18.0,1,11.841
200,6.40,6.8447,-2.5235,2.6620,-0.2839,-0.1556,1.0568,rough,14.0,1,11.602
210,6.72,7.0200,-2.1568,2.7175,-0.2975,-0.1252,1.1504,rough,14.0,1,11.378
220,7.04,7.1708,-1.7706,2.7630,-0.3029,-0.1045,1.2152,rough,14.0,1,11.134
230,7.36,7.2992,-1.3710,2.8010,-0.3048,-0.0881,1.2743,rough,14.0,1,10.877
240,7.68,7.3999,-0.9697,2.8308,-0.3076,-0.0645,1.3521,rough,14.0,1,10.612
250,8.00,7.4366,-0.5783,2.8413,-0.3126,-0.0167,1.5143,rough,14.0,1,10.325
260,8.32,7.3899,-0.1837,2.8262,-0.3103,0.0474,1.7232,rough,14.0,1,9.989
270,8.64,7.2886,0.2307,2.7949,-0.3070,0.0732,1.8104,rough,14.0,1,9.607
280,8.96,7.1648,0.6743,2.7563,-0.3011,0.0816,1.8409,slope,18.0,1,9.192
290,9.28,7.0067,1.2114,2.7101,-0.3094,0.0880,1.8607,slope,18.0,1,8.691
300,9.60,6.8423,1.7168,2.6595,-0.3126,0.0962,1.8991,slope,18.0,1,8.214
310,9.92,6.6640,2.1986,2.6034,-0.3076,0.1173,1.9389,slope,18.0,1,7.751
320,10.24,6.4683,2.6676,2.5407,-0.3122,0.1377,1.9831,slope,18.0,1,7.290
330,10.56,6.2333,3.1262,2.4522,-0.3306,0.1619,2.0735,slope,18.0,1,6.812
340,10.88,5.9585,3.5926,2.3584,-0.2845,0.1993,2.1443,slope,18.0,1,6.304
350,11.20,5.6553,3.9630,2.2483,-0.3391,0.1413,2.0059,slope,18.0,1,5.838
360,11.52,5.4418,4.0961,2.1651,-0.3522,-0.0844,1.3142,rough,14.0,1,5.587
370,11.84,5.4178,4.2793,2.1549,-0.1905,-0.3168,0.5288,slope,18.0,1,5.458
380,12.16,5.3766,4.3818,2.1369,-0.1137,-0.3432,0.2902,slope,18.0,1,5.364
390,12.48,5.3617,4.4145,2.1307,-0.0900,-0.3484,0.2222,slope,18.0,1,5.333
400,12.80,5.2946,4.4203,2.1061,-0.1687,-0.3240,0.4571,slope,18.0,1,5.275
410,13.12,5.3114,4.4745,2.1117,-0.1013,-0.3513,0.2574,slope,18.0,1,5.257
420,13.44,5.3041,4.5033,2.1082,-0.0668,-0.3594,0.1645,slope,18.0,1,5.235
430,13.76,5.1886,4.5278,2.0643,-0.2175,-0.2967,0.6183,slope,18.0,1,5.126
440,14.08,5.1490,4.6838,2.0472,-0.3585,-0.0643,1.3727,slope,18.0,1,5.004
450,14.40,5.0015,5.0189,1.9831,-0.3245,0.1679,1.9795,slope,18.0,1,4.697
460,14.72,4.7274,5.4681,1.8710,-0.3059,0.2201,2.1296,slope,18.0,1,4.233
470,15.04,4.4262,5.9269,1.7436,-0.3010,0.2350,2.1729,slope,18.0,1,3.757
480,15.36,4.1027,6.3567,1.6087,-0.2858,0.2507,2.2422,slope,18.0,1,3.292
490,15.68,3.7558,6.7555,1.4645,-0.2635,0.2615,2.3290,slope,18.0,1,2.839
500,16.00,3.3823,7.1295,1.3153,-0.2411,0.2922,2.4197,slope,18.0,1,2.394
510,16.32,2.9853,7.4537,1.1589,-0.2082,0.3175,2.5464,slope,18.0,1,1.967
520,16.64,2.5477,7.7268,0.9894,-0.1891,0.3177,2.6051,slope,18.0,1,1.544
530,16.96,2.1379,7.9674,0.8343,-0.1812,0.3175,2.6408,slope,18.0,1,1.209
540,17.28,1.7548,8.1660,0.6922,-0.1680,0.3192,2.6846,slope,18.0,2,0.986
550,17.60,1.4044,8.3324,0.5648,-0.1471,0.3266,2.7613,slope,18.0,2,16.185
560,17.92,1.0737,8.4615,0.4455,-0.1168,0.3335,2.8610,slope,18.0,2,16.104
570,18.24,0.7543,8.5490,0.3310,-0.0846,0.3396,2.9611,slope,18.0,2,16.002
580,18.56,0.4271,8.6012,0.2144,-0.0765,0.3372,2.9852,slope,18.0,2,15.872
590,18.88,0.1223,8.6463,0.1289,-0.0498,0.2151,3.0110,slope,18.0,2,15.753
600,19.20,-0.1836,8.6752,0.0722,-0.0386,0.1492,3.0759,slope,18.0,2,15.625
610,19.52,-0.4609,8.6849,0.0593,-0.0238,-0.0168,-3.0951,flat,18.0,2,15.498
620,19.84,-0.7659,8.6523,0.0642,-0.0253,-0.0155,-2.9775,flat,18.0,2,15.325
630,20.16,-1.0764,8.5950,0.0695,-0.0264,-0.0156,-2.8621,flat,18.0,2,15.132
640,20.48,-1.3954,8.4966,0.0757,-0.0266,-0.0196,-2.7762,flat,18.0,2,14.903
650,20.80,-1.7267,8.3653,0.0829,-0.0262,-0.0206,-2.6986,flat,18.0,2,14.642
660,21.12,-2.0766,8.1959,0.0920,-0.0249,-0.0247,-2.6413,flat,18.0,2,14.343
670,21.44,-2.4507,7.9820,0.1037,-0.0253,-0.0304,-2.6082,flat,18.0,2,13.998
680,21.76,-2.8689,7.7313,0.1187,-0.0230,-0.0331,-2.5825,flat,18.0,2,13.608
690,22.08,-3.3280,7.4409,0.1376,-0.0232,-0.0365,-2.5701,flat,18.0,2,13.172
700,22.40,-3.7005,7.1528,0.1539,-0.0307,-0.0312,-2.3356,flat,18.0,2,12.775
710,22.72,-3.9844,6.7875,0.1668,-0.0355,-0.0223,-2.0974,rough,14.0,2,12.338
720,23.04,-4.1670,6.4015,0.1749,-0.0370,-0.0170,-1.9875,rough,14.0,2,11.914
730,23.36,-4.3185,6.0143,0.1809,-0.0347,-0.0135,-1.9184,flat,18.0,2,11.499
740,23.68,-4.4982,5.5101,0.1805,-0.0084,-0.0249,-1.8920,flat,18.0,2,10.964
750,24.00,-4.6749,4.9609,0.1892,-0.0226,-0.0015,-1.8850,flat,18.0,2,10.387
760,24.32,-4.8517,4.4156,0.1878,-0.0183,0.0023,-1.8799,flat,18.0,2,9.814
770,24.64,-5.0271,3.8681,0.1837,-0.0097,0.0091,-1.8765,flat,18.0,2,9.239
780,24.96,-5.2017,3.3189,0.1746,0.0028,0.0157,-1.8744,flat,18.0,2,8.662
790,25.28,-5.3735,2.7685,0.1635,0.0043,0.0267,-1.8724,flat,18.0,2,8.086
800,25.60,-5.5455,2.2210,0.1513,0.0152,0.0199,-1.8704,flat,18.0,2,7.512
810,25.92,-5.7170,1.6700,0.1376,0.0224,0.0275,-1.8702,flat,18.0,2,6.935
820,26.24,-5.8877,1.1210,0.1234,0.0271,0.0245,-1.8712,flat,18.0,2,6.360
830,26.56,-6.0588,0.5726,0.1101,0.0314,0.0208,-1.8725,flat,18.0,2,5.786
840,26.88,-6.2303,0.0247,0.0994,0.0340,0.0153,-1.8745,flat,18.0,2,5.212
850,27.20,-6.4028,-0.5229,0.0924,0.0344,0.0096,-1.8767,flat,18.0,2,4.638
860,27.52,-6.5636,-1.0295,0.0897,0.0349,0.0008,-1.8839,flat,18.0,2,4.106
870,27.84,-6.7183,-1.4883,0.0882,0.0254,-0.0158,-1.9105,rough,14.0,2,3.622
880,28.16,-6.8971,-1.9848,0.0966,0.0323,-0.0203,-1.8966,flat,18.0,2,3.095
890,28.48,-7.0735,-2.5235,0.1079,0.0240,-0.0271,-1.8745,flat,18.0,2,2.528
900,28.80,-7.2423,-3.0684,0.1263,0.0259,-0.0357,-1.8660,flat,18.0,2,1.958
910,29.12,-7.3963,-3.5786,0.1469,0.0202,-0.0411,-1.8656,flat,18.0,2,1.426
920,29.44,-7.5398,-4.0505,0.1684,0.0196,-0.0475,-1.9135,flat,18.0,3,1.215
930,29.76,-7.7220,-4.5665,0.1943,0.0155,-0.0495,-1.8965,flat,18.0,0,13.067
940,30.08,-7.8812,-5.0509,0.2194,0.0080,-0.0506,-1.8487,flat,18.0,0,13.236
950,30.40,-8.0077,-5.5122,0.2428,0.0008,-0.0486,-1.7737,flat,18.0,0,13.389
960,30.72,-8.0946,-5.9572,0.2638,-0.0060,-0.0430,-1.6816,flat,18.0,0,13.516
970,31.04,-8.1317,-6.3928,0.2791,-0.0049,-0.0309,-1.5766,flat,18.0,0,13.606
980,31.36,-8.1214,-6.8244,0.2950,-0.0182,-0.0267,-1.4619,flat,18.0,0,13.662
990,31.68,-8.0655,-7.2586,0.3031,-0.0180,-0.0183,-1.3779,flat,18.0,0,13.687
1000,32.00,-7.9677,-7.7063,0.3100,-0.0213,-0.0076,-1.3264,flat,18.0,0,13.688
1010,32.32,-7.8442,-8.1564,0.3090,-0.0214,-0.0030,-1.2734,flat,18.0,0,13.681
1020,32.64,-7.7150,-8.5252,0.3061,-0.0186,0.0162,-1.1669,flat,18.0,0,13.660
1030,32.96,-7.5786,-8.8108,0.3008,-0.0124,0.0237,-1.0540,flat,18.0,0,13.617
1040,33.28,-7.4461,-9.0332,0.2936,-0.0099,0.0286,-0.9373,flat,18.0,0,13.564
1050,33.60,-7.3169,-9.2180,0.2878,-0.0058,0.0299,-0.8076,flat,18.0,0,13.505
1060,33.92,-7.1867,-9.3346,0.2824,-0.0003,0.0348,-0.6678,flat,18.0,0,13.424
1070,34.24,-7.0437,-9.4173,0.2769,0.0048,0.0345,-0.5479,flat,18.0,0,13.321
1080,34.56,-6.9195,-9.4848,0.2720,0.0085,0.0322,-0.4020,flat,18.0,0,13.231
1090,34.88,-6.8159,-9.5426,0.2679,0.0151,0.0320,-0.2273,flat,18.0,0,13.157
1100,35.20,-6.7171,-9.5808,0.2645,0.0196,0.0305,-0.0677,flat,18.0,0,13.080
1110,35.52,-6.6231,-9.6028,0.2614,0.0233,0.0274,0.0835,flat,18.0,0,13.002
1120,35.84,-6.5250,-9.6020,0.2586,0.0251,0.0248,0.1798,flat,18.0,0,12.912
1130,36.16,-6.4216,-9.5873,0.2556,0.0262,0.0248,0.2392,flat,18.0,0,12.811
1140,36.48,-6.3314,-9.5725,0.2530,0.0279,0.0240,0.3385,flat,18.0,0,12.722
1150,36.80,-6.2386,-9.5448,0.2506,0.0289,0.0235,0.4191,flat,18.0,0,12.626
1160,37.12,-6.1301,-9.4983,0.2479,0.0292,0.0241,0.4552,flat,18.0,0,12.508
1170,37.44,-6.0120,-9.4430,0.2449,0.0292,0.0231,0.4902,flat,18.0,0,12.378
1180,37.76,-5.8848,-9.3771,0.2411,0.0289,0.0239,0.5248,flat,18.0,0,12.235
1190,38.08,-5.7507,-9.2986,0.2372,0.0277,0.0256,0.5578,flat,18.0,0,12.081
1200,38.40,-5.6050,-9.2059,0.2326,0.0282,0.0271,0.5884,flat,18.0,0,11.910
1210,38.72,-5.4420,-9.0965,0.2272,0.0286,0.0279,0.6199,flat,18.0,0,11.717
1220,39.04,-5.2633,-8.9656,0.2207,0.0291,0.0300,0.6498,flat,18.0,0,11.502
1230,39.36,-5.0580,-8.8095,0.2130,0.0294,0.0303,0.6726,flat,18.0,0,11.252
1240,39.68,-4.8288,-8.6251,0.2035,0.0288,0.0322,0.6941,flat,18.0,0,10.970
1250,40.00,-4.5703,-8.4073,0.1923,0.0299,0.0334,0.7119,flat,18.0,0,10.650
1260,40.32,-4.2747,-8.1486,0.1792,0.0296,0.0333,0.7252,flat,18.0,0,10.281
1270,40.64,-3.9341,-7.8444,0.1643,0.0305,0.0319,0.7342,flat,18.0,0,9.856
1280,40.96,-3.5400,-7.4874,0.1483,0.0311,0.0285,0.7374,flat,18.0,0,9.367
1290,41.28,-3.2104,-7.1914,0.1366,0.0324,0.0228,0.7673,flat,18.0,0,8.962
1300,41.60,-2.9951,-6.9627,0.1306,0.0375,0.0083,1.0721,rough,14.0,0,8.690
1310,41.92,-2.8631,-6.7481,0.1288,0.0356,0.0087,0.9159,rough,14.0,0,8.505
1320,42.24,-2.6791,-6.5393,0.1263,0.0321,0.0139,0.6403,flat,18.0,0,8.274
1330,42.56,-2.3046,-6.3298,0.1197,0.0309,0.0163,0.3767,flat,18.0,0,7.860
1340,42.88,-1.9012,-6.1844,0.1115,0.0308,0.0141,0.0177,flat,18.0,0,7.435
1350,43.20,-1.5413,-6.1901,0.1051,0.0205,0.0324,-0.4566,flat,18.0,0,7.086
1360,43.52,-1.3083,-6.3154,0.0963,0.0000,0.0397,-0.9413,flat,18.0,0,6.891
1370,43.84,-1.1743,-6.5559,0.0860,-0.0171,0.0307,-1.4268,flat,18.0,0,6.829
1380,44.16,-1.1422,-6.8609,0.0770,-0.0334,0.0066,-2.1393,flat,18.0,0,6.896
1390,44.48,-1.2976,-7.0980,0.0754,-0.0315,0.0117,-1.9358,flat,18.0,0,7.125
1400,44.80,-1.4005,-7.2903,0.0745,-0.0231,0.0229,-1.3406,flat,18.0,0,7.292
1410,45.12,-1.2577,-7.6028,0.0660,-0.0145,0.0220,-0.9562,flat,18.0,0,7.286
1420,45.44,-0.9708,-7.9834,0.0558,-0.0177,0.0209,-0.8967,transition,15.0,0,7.203
1430,45.76,-0.7241,-8.2740,0.0496,-0.0156,0.0126,-0.8300,slope,18.0,0,7.136
1440,46.08,-0.4677,-8.5513,0.0489,-0.0006,0.0081,-0.7366,rough,14.0,0,7.073
1450,46.40,-0.2911,-8.7223,0.0629,0.0793,0.0044,-0.6373,rough,14.0,0,7.030
1460,46.72,-0.1691,-8.7958,0.0801,0.0117,-0.2202,-0.6200,slope,18.0,0,6.977
1470,47.04,-0.1640,-8.7898,0.1330,0.0725,-0.6516,-0.7061,slope,18.0,0,6.969
1480,47.36,-0.1353,-8.8160,0.1526,1.1663,-1.5018,-1.6474,slope,18.0,0,6.963
1490,47.68,-0.1625,-8.7567,-0.0501,3.0469,-0.1325,2.5118,slope,18.0,0,6.948
1500,48.00,-0.1113,-8.7667,-0.0552,-3.0750,0.1224,2.3059,slope,18.0,0,6.914
1510,48.32,-0.0617,-8.7359,-0.0704,3.0463,0.1858,2.3207,slope,18.0,0,6.856
1520,48.64,-0.0850,-8.7517,-0.0838,3.0668,0.1077,2.3722,slope,18.0,0,6.884
1530,48.96,-0.0997,-8.7787,-0.0816,3.0781,0.1318,2.3876,slope,18.0,0,6.912
1540,49.28,-0.1276,-8.8188,-0.0581,3.1003,0.3016,2.4802,slope,18.0,0,6.959
1550,49.60,-0.0766,-8.8780,0.0558,3.0494,0.9607,2.5339,slope,18.0,0,6.956
1560,49.92,-0.0053,-8.9120,0.1546,0.9753,1.5055,0.4812,slope,18.0,0,6.922
1570,50.24,-0.1042,-8.8573,0.1629,0.1062,0.6602,-0.5403,slope,18.0,0,6.964
1580,50.56,-0.1917,-8.8002,0.0742,0.0459,-0.0686,-0.6321,rough,14.0,0,6.998
1590,50.88,-0.1814,-8.7972,0.1286,0.0523,-0.6234,-0.6468,slope,18.0,0,6.988
1600,51.20,-0.1528,-8.8231,0.1515,0.7382,-1.4870,-1.1742,slope,18.0,0,6.981
1610,51.52,-0.1894,-8.7693,-0.0431,3.0655,-0.1869,2.6212,slope,18.0,0,6.977
1620,51.84,-0.1414,-8.7805,-0.0085,-2.8202,0.2236,2.5919,slope,18.0,0,6.946
1630,52.16,-0.1000,-8.7776,-0.0817,3.0729,0.1297,2.3714,slope,18.0,0,6.911
1640,52.48,-0.1253,-8.8133,-0.0641,3.0983,0.2586,2.4570,slope,18.0,0,6.953
1650,52.80,-0.0853,-8.8745,0.0465,3.0659,0.9075,2.5519,slope,18.0,0,6.960
1660,53.12,-0.0058,-8.9125,0.1496,1.2593,1.5135,0.8394,slope,18.0,0,6.922
1670,53.44,-0.0798,-8.8726,0.1709,0.1276,0.8314,-0.5077,slope,18.0,0,6.955
1680,53.76,-0.1952,-8.8018,0.0764,0.1196,-0.0581,-0.6463,rough,14.0,0,7.002
1690,54.08,-0.1788,-8.7949,0.1252,0.0532,-0.5808,-0.6543,slope,18.0,0,6.984
1700,54.40,-0.1546,-8.8183,0.1524,0.5507,-1.4593,-0.9931,slope,18.0,0,6.980
1710,54.72,-0.1938,-8.7671,-0.0407,3.0694,-0.2025,2.6461,slope,18.0,0,6.979
1720,55.04,-0.1143,-8.8101,-0.0852,3.1016,0.1762,2.4018,slope,18.0,0,6.943
1730,55.36,-0.1255,-8.8046,-0.0750,3.0920,0.1962,2.4353,slope,18.0,0,6.948
1740,55.68,-0.0978,-8.8568,0.0165,3.0849,0.7290,2.5222,slope,18.0,0,6.959
1750,56.00,-0.0178,-8.9056,0.1269,2.7494,1.3931,2.2670,slope,18.0,0,6.927
1760,56.32,-0.0380,-8.8816,0.1754,0.2062,1.0801,-0.4815,slope,18.0,0,6.928
1770,56.64,-0.1812,-8.7727,0.0766,0.0848,-0.0501,-0.6509,slope,18.0,0,6.973
1780,56.96,-0.1388,-8.7901,0.0754,0.0566,-0.1371,-0.7458,slope,18.0,1,16.341
1790,57.28,-0.1590,-8.7857,0.1287,0.0732,-0.5922,-0.7249,slope,18.0,1,16.338
1800,57.60,-0.1333,-8.8121,0.1553,0.6869,-1.4641,-1.1924,slope,18.0,1,16.363
1810,57.92,-0.1660,-8.7557,-0.0348,3.0540,-0.2186,2.5549,slope,18.0,1,16.309
1820,58.24,-0.1104,-8.7857,-0.0815,3.1120,0.1492,2.3324,slope,18.0,1,16.335
1830,58.56,-0.1253,-8.8047,-0.0745,3.0937,0.1956,2.4316,slope,18.0,1,16.355
1840,58.88,-0.1025,-8.8618,0.0193,3.0904,0.7499,2.5502,slope,18.0,1,16.410
1850,59.20,-0.0234,-8.9091,0.1253,2.7850,1.3965,2.3166,slope,18.0,1,16.452
1860,59.52,-0.0425,-8.9043,0.1741,0.1956,1.1092,-0.4365,slope,18.0,1,16.448
1870,59.84,-0.1892,-8.7982,0.0896,0.0850,0.0477,-0.6365,rough,14.0,1,16.353
1880,60.16,-0.1820,-8.7970,0.1099,0.0454,-0.4406,-0.6434,slope,18.0,1,16.351
1890,60.48,-0.1649,-8.8163,0.1538,0.2727,-1.3024,-0.7485,slope,18.0,1,16.369
1900,60.80,-0.1843,-8.7769,0.0488,3.0366,-0.7303,2.6677,slope,18.0,1,16.331
1910,61.12,-0.1421,-8.7952,-0.0768,3.1389,0.0782,2.4377,rough,14.0,1,16.346
1920,61.44,-0.1149,-8.7849,-0.0862,3.0807,0.1077,2.3704,slope,18.0,1,16.334
1930,61.76,-0.1246,-8.8276,-0.0416,3.1083,0.4027,2.4934,slope,18.0,1,16.377
1940,62.08,-0.0616,-8.8892,0.0774,3.0060,1.0942,2.5073,slope,18.0,1,16.435
1950,62.40,-0.0144,-8.9179,0.1543,0.7844,1.4335,0.1773,slope,18.0,1,16.460
1960,62.72,-0.1596,-8.8175,0.1216,0.0807,0.2336,-0.5625,slope,18.0,1,16.370
1970,63.04,-0.1865,-8.8021,0.0776,0.0443,-0.1666,-0.5907,slope,18.0,1,16.356
1980,63.36,-0.1805,-8.8041,0.1478,0.0972,-0.9431,-0.6397,slope,18.0,1,16.358
1990,63.68,-0.1539,-8.8116,0.1333,2.6961,-1.3774,3.0503,slope,18.0,1,16.363
2000,64.00,-0.1774,-8.7599,-0.1098,3.0481,0.1853,2.4792,slope,18.0,1,16.314
2010,64.32,-0.1214,-8.7982,-0.0846,3.0890,0.1384,2.3961,slope,18.0,1,16.348
2020,64.64,-0.1186,-8.8310,-0.0312,3.1002,0.4574,2.4927,slope,18.0,1,16.380
2030,64.96,-0.0533,-8.8910,0.0846,2.9769,1.1380,2.4764,slope,18.0,1,16.436
2040,65.28,-0.0022,-8.9119,0.1668,0.3594,1.3684,-0.1869,slope,18.0,1,16.453
2050,65.60,-0.1779,-8.7805,0.0831,0.0772,-0.0446,-0.5900,slope,18.0,1,16.334
2060,65.92,-0.1705,-8.7927,0.0828,0.0738,-0.2023,-0.6647,slope,18.0,1,16.346
2070,66.24,-0.1967,-8.8099,0.0964,0.0191,-0.3406,-0.5835,slope,18.0,1,16.365
2080,66.56,-0.2123,-8.8424,0.1466,0.0713,-0.9561,-0.5841,slope,18.0,1,16.399
2090,66.88,-0.1869,-8.8511,0.1285,2.7066,-1.3857,3.0833,slope,18.0,1,16.405
2100,67.20,-0.2189,-8.8030,-0.1096,3.0619,0.1520,2.5447,slope,18.0,1,16.360
2110,67.52,-0.1760,-8.8561,-0.0687,-3.1199,0.2992,2.5849,slope,18.0,1,16.409
2120,67.84,-0.1112,-8.9075,0.0408,3.0930,0.8865,2.5761,slope,18.0,1,16.456
2130,68.16,-0.0338,-8.9454,0.1425,1.6595,1.5163,1.2501,slope,18.0,1,16.489
2140,68.48,-0.1212,-8.8905,0.1628,0.1049,0.7154,-0.5026,slope,18.0,2,8.731
2150,68.80,-0.2238,-8.8410,0.0702,0.0682,-0.1797,-0.5627,slope,18.0,2,8.617
2160,69.12,-0.2081,-8.8357,0.0786,0.0047,-0.2145,-0.5857,slope,18.0,2,8.629
2170,69.44,-0.2252,-8.8716,0.0674,-0.0065,-0.1344,-0.5726,slope,18.0,2,8.630
2180,69.76,-0.2694,-8.9358,0.0698,-0.0218,-0.1585,-0.5732,slope,18.0,2,8.620
2190,70.08,-0.3168,-9.0115,0.0674,-0.0235,-0.1275,-0.5736,slope,18.0,2,8.614
2200,70.40,-0.3606,-9.0816,0.0656,-0.0251,-0.1016,-0.5750,slope,18.0,2,8.609
2210,70.72,-0.3964,-9.1581,0.0587,-0.0246,-0.0385,-0.5333,slope,18.0,2,8.616
2220,71.04,-0.3993,-9.2059,0.0605,-0.0239,-0.0406,-0.3988,slope,18.0,2,8.637
2230,71.36,-0.4254,-9.2614,0.0591,-0.0243,-0.0189,-0.3336,slope,18.0,2,8.642
2240,71.68,-0.4430,-9.2974,0.0570,-0.0244,0.0060,-0.2358,slope,18.0,2,8.645
2250,72.00,-0.4483,-9.3193,0.0576,-0.0245,0.0075,-0.1686,slope,18.0,2,8.651
2260,72.32,-0.4535,-9.3286,0.0579,-0.0243,0.0092,-0.1178,slope,18.0,2,8.652
2270,72.64,-0.4560,-9.3350,0.0581,-0.0241,0.0104,-0.0839,slope,18.0,2,8.653
2280,72.96,-0.4576,-9.3395,0.0582,-0.0239,0.0112,-0.0604,slope,18.0,2,8.654
2290,73.28,-0.4587,-9.3428,0.0582,-0.0238,0.0119,-0.0437,slope,18.0,2,8.654
2300,73.60,-0.4594,-9.3451,0.0582,-0.0237,0.0124,-0.0318,slope,18.0,2,8.655
2310,73.92,-0.4599,-9.3468,0.0583,-0.0236,0.0128,-0.0232,slope,18.0,2,8.655
2320,74.24,-0.4603,-9.3480,0.0583,-0.0236,0.0132,-0.0170,slope,18.0,2,8.656
2330,74.56,-0.4606,-9.3489,0.0582,-0.0236,0.0136,-0.0124,slope,18.0,2,8.656
2340,74.88,-0.4607,-9.3496,0.0582,-0.0235,0.0139,-0.0091,slope,18.0,2,8.656
2350,75.20,-0.4609,-9.3501,0.0582,-0.0235,0.0142,-0.0067,slope,18.0,2,8.656
2360,75.52,-0.4610,-9.3505,0.0582,-0.0235,0.0144,-0.0049,slope,18.0,2,8.656
2370,75.84,-0.4610,-9.3507,0.0582,-0.0235,0.0147,-0.0036,slope,18.0,2,8.656
2380,76.16,-0.4611,-9.3510,0.0581,-0.0235,0.0149,-0.0027,slope,18.0,2,8.657
2390,76.48,-0.4575,-9.3511,0.0581,-0.0235,0.0148,-0.0025,slope,18.0,2,8.660
2400,76.80,-0.4567,-9.3513,0.0580,-0.0236,0.0149,-0.0023,slope,18.0,2,8.661
2410,77.12,-0.4558,-9.3516,0.0580,-0.0236,0.0149,-0.0024,slope,18.0,2,8.661
2420,77.44,-0.4552,-9.3518,0.0580,-0.0237,0.0149,-0.0026,slope,18.0,2,8.662
2430,77.76,-0.4546,-9.3521,0.0580,-0.0237,0.0149,-0.0029,slope,18.0,2,8.663
2440,78.08,-0.4533,-9.3525,0.0580,-0.0238,0.0148,-0.0035,slope,18.0,2,8.664
2450,78.40,-0.4532,-9.3530,0.0580,-0.0238,0.0148,-0.0043,slope,18.0,2,8.664
2460,78.72,-0.4531,-9.3536,0.0580,-0.0239,0.0148,-0.0054,slope,18.0,2,8.665
2470,79.04,-0.4531,-9.3544,0.0580,-0.0239,0.0148,-0.0069,slope,18.0,2,8.665
2480,79.36,-0.4530,-9.3555,0.0580,-0.0240,0.0148,-0.0088,slope,18.0,2,8.666
2490,79.68,-0.4529,-9.3568,0.0580,-0.0241,0.0149,-0.0114,slope,18.0,2,8.667
2500,80.00,-0.4527,-9.3586,0.0581,-0.0242,0.0149,-0.0149,slope,18.0,2,8.668
2510,80.32,-0.4525,-9.3610,0.0581,-0.0244,0.0149,-0.0195,slope,18.0,3,9.136
2520,80.64,-0.4524,-9.3634,0.0581,-0.0245,0.0149,-0.0210,slope,18.0,3,9.137
2530,80.96,-0.4525,-9.3655,0.0582,-0.0246,0.0149,-0.0211,slope,18.0,3,9.138
2540,81.28,-0.4525,-9.3676,0.0582,-0.0246,0.0149,-0.0211,slope,18.0,3,9.139
2550,81.60,-0.4526,-9.3698,0.0583,-0.0247,0.0149,-0.0211,slope,18.0,3,9.140
2560,81.92,-0.4526,-9.3719,0.0583,-0.0247,0.0149,-0.0211,slope,18.0,3,9.141
2570,82.24,-0.4526,-9.3739,0.0584,-0.0248,0.0149,-0.0210,slope,18.0,3,9.142
2580,82.56,-0.4527,-9.3760,0.0584,-0.0248,0.0149,-0.0210,slope,18.0,3,9.143
2590,82.88,-0.4527,-9.3781,0.0585,-0.0249,0.0149,-0.0210,slope,18.0,3,9.144
2600,83.20,-0.4528,-9.3801,0.0585,-0.0250,0.0148,-0.0209,slope,18.0,3,9.145
2610,83.52,-0.4528,-9.3821,0.0586,-0.0250,0.0148,-0.0208,slope,18.0,3,9.146
2620,83.84,-0.4529,-9.3842,0.0586,-0.0251,0.0148,-0.0207,slope,18.0,3,9.147
2630,84.16,-0.4529,-9.3861,0.0587,-0.0251,0.0148,-0.0206,slope,18.0,3,9.148
2640,84.48,-0.4529,-9.3881,0.0587,-0.0252,0.0148,-0.0204,slope,18.0,3,9.149
2650,84.80,-0.4530,-9.3900,0.0588,-0.0252,0.0148,-0.0203,slope,18.0,3,9.150
2660,85.12,-0.4530,-9.3920,0.0588,-0.0252,0.0148,-0.0201,slope,18.0,3,9.151
2670,85.44,-0.4531,-9.3938,0.0589,-0.0253,0.0148,-0.0200,slope,18.0,3,9.152
2680,85.76,-0.4531,-9.3957,0.0589,-0.0253,0.0148,-0.0198,slope,18.0,3,9.153
2690,86.08,-0.4531,-9.3975,0.0590,-0.0254,0.0148,-0.0196,slope,18.0,3,9.154
2700,86.40,-0.4532,-9.3994,0.0590,-0.0254,0.0148,-0.0194,slope,18.0,3,9.154
2710,86.72,-0.4532,-9.4011,0.0591,-0.0255,0.0148,-0.0192,slope,18.0,3,9.155
2720,87.04,-0.4533,-9.4029,0.0591,-0.0255,0.0147,-0.0189,slope,18.0,3,9.156
2730,87.36,-0.4533,-9.4046,0.0591,-0.0255,0.0147,-0.0187,slope,18.0,3,9.157
2740,87.68,-0.4533,-9.4063,0.0592,-0.0256,0.0147,-0.0184,slope,18.0,3,9.158
2750,88.00,-0.4533,-9.4080,0.0592,-0.0256,0.0147,-0.0181,slope,18.0,3,9.159
2760,88.32,-0.4534,-9.4096,0.0593,-0.0257,0.0147,-0.0178,slope,18.0,3,9.159
2770,88.64,-0.4534,-9.4112,0.0593,-0.0257,0.0147,-0.0175,slope,18.0,3,9.160
2780,88.96,-0.4534,-9.4127,0.0593,-0.0257,0.0147,-0.0172,slope,18.0,3,9.161
2790,89.28,-0.4535,-9.4146,0.0594,-0.0258,0.0147,-0.0184,slope,18.0,3,9.162
2800,89.60,-0.4535,-9.4162,0.0594,-0.0258,0.0147,-0.0181,slope,18.0,3,9.162
2810,89.92,-0.4535,-9.4178,0.0595,-0.0258,0.0147,-0.0178,slope,18.0,3,9.163
