step,time_s,x,y,z,roll,pitch,yaw,terrain,speed,target_idx,dist_to_target
10,0.32,0.9607,-0.7653,0.3560,-0.1793,-0.1458,0.3011,rough,14.0,0,5.772
20,0.64,1.1956,-0.6918,0.4136,-0.1308,-0.2570,0.2803,rough,14.0,0,5.646
30,0.96,1.4753,-0.6071,0.4928,-0.1270,-0.3127,0.1942,rough,14.0,0,5.503
40,1.28,1.7597,-0.5491,0.5935,-0.0943,-0.3794,0.1090,rough,14.0,0,5.350
50,1.60,2.0270,-0.5157,0.7035,-0.0858,-0.4051,0.0934,rough,14.0,0,5.200
60,1.92,2.2815,-0.4873,0.8184,-0.0817,-0.4409,0.0843,rough,14.0,0,5.064
70,2.24,2.5215,-0.4589,0.9316,-0.0904,-0.4511,0.0983,rough,14.0,0,4.946
80,2.56,2.7219,-0.4205,1.0300,-0.1218,-0.4516,0.1908,rough,14.0,0,4.867
90,2.88,2.8844,-0.3630,1.1094,-0.1639,-0.4513,0.2897,rough,14.0,0,4.831
100,3.20,3.0552,-0.2856,1.1928,-0.1553,-0.4459,0.2940,rough,14.0,0,4.814
110,3.52,3.2293,-0.2032,1.2754,-0.1305,-0.4371,0.2569,rough,14.0,0,4.808
120,3.84,3.4085,-0.1229,1.3605,-0.1125,-0.4490,0.2152,rough,14.0,0,4.805
130,4.16,3.5818,-0.0539,1.4421,-0.0927,-0.4368,0.2019,rough,14.0,0,4.802
140,4.48,3.7455,0.0037,1.5165,-0.0861,-0.4184,0.1908,rough,14.0,0,4.798
150,4.80,3.9042,0.0583,1.5818,-0.0946,-0.4087,0.1735,rough,14.0,0,4.800
160,5.12,4.0853,0.0893,1.6665,-0.0423,-0.4109,0.0928,rough,14.0,0,4.779
170,5.44,4.2371,0.1138,1.7307,-0.0553,-0.3937,0.1306,rough,14.0,0,4.765
180,5.76,4.3658,0.1407,1.7840,-0.0719,-0.3760,0.1784,rough,14.0,0,4.763
190,6.08,4.4878,0.1682,1.8324,-0.0743,-0.3725,0.1919,rough,14.0,0,4.766
200,6.40,4.6093,0.1977,1.8806,-0.0722,-0.3718,0.1888,rough,14.0,0,4.775
210,6.72,4.7342,0.2242,1.9285,-0.0669,-0.3625,0.1756,rough,14.0,0,4.784
220,7.04,4.8617,0.2470,1.9770,-0.0601,-0.3504,0.1581,rough,14.0,0,4.792
230,7.36,4.9999,0.2801,2.0261,-0.0379,-0.3495,0.0943,rough,14.0,0,4.813
240,7.68,5.1364,0.2966,2.0770,-0.0207,-0.3490,0.0532,rough,14.0,0,4.821
250,8.00,5.2499,0.3129,2.1174,-0.0330,-0.3408,0.0913,rough,14.0,0,4.834
260,8.32,5.3528,0.3328,2.1540,-0.0497,-0.3328,0.1413,rough,14.0,0,4.853
270,8.64,5.4619,0.3567,2.1918,-0.0542,-0.3300,0.1575,rough,14.0,0,4.878
280,8.96,5.5822,0.3923,2.2331,-0.0427,-0.3293,0.1278,rough,14.0,0,4.918
290,9.28,5.7098,0.4212,2.2766,-0.0298,-0.3274,0.0907,rough,14.0,0,4.955
300,9.60,5.8225,0.4529,2.3147,-0.0321,-0.3234,0.0983,rough,14.0,0,4.996
310,9.92,5.9276,0.4852,2.3501,-0.0397,-0.3192,0.1253,rough,14.0,0,5.039
320,10.24,6.0304,0.5152,2.3843,-0.0453,-0.3185,0.1447,rough,14.0,0,5.082
330,10.56,6.1367,0.5462,2.4197,-0.0451,-0.3184,0.1454,rough,14.0,0,5.128
340,10.88,6.2424,0.5741,2.4547,-0.0444,-0.3173,0.1448,rough,14.0,0,5.173
350,11.20,6.3471,0.5937,2.4893,-0.0435,-0.3158,0.1438,rough,14.0,0,5.211
360,11.52,6.4507,0.6085,2.5234,-0.0422,-0.3145,0.1428,rough,14.0,0,5.247
370,11.84,6.5530,0.6230,2.5570,-0.0415,-0.3144,0.1420,rough,14.0,0,5.283
380,12.16,6.6540,0.6374,2.5901,-0.0409,-0.3145,0.1417,rough,14.0,0,5.321
390,12.48,6.7537,0.6515,2.6229,-0.0400,-0.3152,0.1414,rough,14.0,0,5.360
400,12.80,6.8584,0.6630,2.6572,-0.0334,-0.3157,0.1222,rough,14.0,0,5.400
410,13.12,6.9628,0.6727,2.6914,-0.0284,-0.3156,0.1087,rough,14.0,0,5.439
420,13.44,7.0616,0.6835,2.7238,-0.0275,-0.3145,0.1093,rough,14.0,0,5.480
430,13.76,7.1592,0.6944,2.7557,-0.0275,-0.3146,0.1101,rough,14.0,0,5.521
440,14.08,7.2551,0.7052,2.7872,-0.0273,-0.3161,0.1117,rough,14.0,0,5.564
450,14.40,7.3502,0.7159,2.8185,-0.0266,-0.3174,0.1121,rough,14.0,0,5.607
460,14.72,7.4483,0.7250,2.8506,-0.0231,-0.3179,0.1022,rough,14.0,0,5.652
470,15.04,7.5426,0.7347,2.8816,-0.0221,-0.3166,0.1027,rough,14.0,0,5.696
480,15.36,7.6360,0.7443,2.9123,-0.0213,-0.3158,0.1031,rough,14.0,0,5.742
490,15.68,7.7631,0.7602,2.9428,0.0026,-0.2462,0.0263,rough,14.0,0,5.808
500,16.00,7.9851,0.7449,2.9494,0.0461,0.1233,-0.1556,rough,14.0,0,5.890
510,16.32,8.2782,0.5796,2.8459,0.5572,0.6073,-0.2067,rough,14.0,0,5.883
520,16.64,8.3802,0.2955,2.7262,1.4870,0.8417,-0.0914,rough,14.0,0,5.693
530,16.96,8.3988,-0.0329,2.5400,2.2097,1.1167,0.4089,rough,14.0,0,5.428
540,17.28,8.4720,-0.3633,2.2975,2.6460,0.2263,1.2469,rough,14.0,0,5.202
550,17.60,8.5781,-0.7017,2.1005,3.1273,-0.1855,1.8222,rough,14.0,0,5.004
560,17.92,8.6300,-0.9365,2.0697,-3.0826,-0.1316,2.1413,rough,14.0,0,4.862
570,18.24,8.6192,-1.0319,2.0604,-3.0104,-0.1354,2.3822,rough,14.0,0,4.785
580,18.56,8.6314,-1.0021,2.0575,-3.0232,-0.1250,2.3062,rough,14.0,0,4.815
590,18.88,8.6169,-1.0197,2.0541,-3.0236,-0.1519,2.3537,rough,14.0,0,4.792
600,19.20,8.6189,-1.0180,2.0587,-3.0033,-0.1441,2.2815,rough,14.0,0,4.795
610,19.52,8.6247,-1.0187,2.0545,-3.0171,-0.1528,2.3151,rough,14.0,0,4.798
620,19.84,8.6124,-1.0183,2.0530,-2.9937,-0.1537,2.3717,slope,18.0,0,4.790
630,20.16,8.6248,-1.0121,2.0577,-3.0160,-0.1174,2.3358,slope,18.0,0,4.803
640,20.48,8.6217,-1.0197,2.0506,-3.0379,-0.0938,2.3276,rough,14.0,0,4.795
650,20.80,8.6145,-1.0142,2.0529,-3.0131,-0.1663,2.3570,rough,14.0,0,4.794
660,21.12,8.6144,-1.0188,2.0567,-3.0136,-0.1530,2.3873,slope,18.0,0,4.791
670,21.44,8.6266,-1.0184,2.0546,-3.0160,-0.1524,2.1866,rough,14.0,0,4.799
680,21.76,8.6227,-1.0105,2.0583,-3.0246,-0.1418,2.3255,rough,14.0,0,4.803
690,22.08,8.6115,-1.0108,2.0548,-3.0012,-0.1390,2.3596,slope,18.0,0,4.795
700,22.40,8.6264,-1.0132,2.0568,-3.0214,-0.1255,2.2483,slope,18.0,0,4.803
710,22.72,8.6162,-1.0259,2.0554,-3.0031,-0.1542,2.2366,rough,14.0,0,4.787
720,23.04,8.6209,-1.0152,2.0574,-3.0177,-0.1417,2.3573,slope,18.0,0,4.798
730,23.36,8.6107,-1.0236,2.0549,-2.9991,-0.1595,2.3963,rough,14.0,0,4.785
740,23.68,8.6190,-1.0116,2.0544,-3.0146,-0.1432,2.3184,rough,14.0,0,4.799
750,24.00,8.6317,-1.0317,2.0572,-3.0194,-0.1385,2.3200,rough,14.0,0,4.793
760,24.32,8.6212,-1.0330,2.0592,-3.0090,-0.1529,2.3779,rough,14.0,0,4.785
770,24.64,8.6239,-1.0161,2.0560,-3.0208,-0.1345,2.2856,rough,14.0,0,4.799
780,24.96,8.6212,-1.0246,2.0599,-3.0065,-0.1333,2.3949,rough,14.0,0,4.791
790,25.28,8.6198,-1.0012,2.0565,-3.0486,-0.1250,2.3741,rough,14.0,0,4.807
800,25.60,8.6009,-1.0097,2.0553,-2.9931,-0.1284,2.1871,slope,18.0,0,4.788
810,25.92,8.6329,-1.0175,2.0586,-3.0078,-0.1252,2.3767,rough,14.0,0,4.804
820,26.24,8.6133,-1.0114,2.0546,-3.0112,-0.1539,2.3067,rough,14.0,0,4.795
830,26.56,8.6418,-1.0505,2.0603,-3.0162,-0.1444,2.3106,rough,14.0,0,4.787
840,26.88,8.6364,-1.0344,2.0598,-3.0096,-0.1168,2.3269,rough,14.0,0,4.794
850,27.20,8.6132,-1.0228,2.0566,-3.0112,-0.1556,2.3657,rough,14.0,0,4.787
860,27.52,8.6282,-1.0227,2.0564,-3.0239,-0.1329,2.2908,rough,14.0,0,4.797
870,27.84,8.6228,-1.0050,2.0572,-3.0321,-0.1321,2.3115,slope,18.0,0,4.807
880,28.16,8.6129,-1.0137,2.0595,-3.0208,-0.1629,2.3341,slope,18.0,0,4.793
890,28.48,8.6326,-1.0077,2.0565,-3.0220,-0.1217,2.2496,rough,14.0,0,4.811
900,28.80,8.6235,-1.0120,2.0525,-3.0122,-0.1676,2.3563,rough,14.0,0,4.802
910,29.12,8.6194,-1.0123,2.0544,-3.0218,-0.1405,2.2595,slope,18.0,0,4.799
920,29.44,8.6078,-1.0071,2.0566,-3.0191,-0.1641,2.3290,rough,14.0,0,4.795
930,29.76,8.6131,-1.0193,2.0581,-3.0088,-0.1427,2.3887,rough,14.0,0,4.790
940,30.08,8.6188,-1.0183,2.0538,-3.0064,-0.1474,2.3201,slope,18.0,0,4.794
950,30.40,8.6108,-1.0135,2.0586,-3.0215,-0.1653,2.3627,slope,18.0,0,4.792
960,30.72,8.6222,-1.0157,2.0577,-3.0131,-0.1356,2.3298,rough,14.0,0,4.798
970,31.04,8.6257,-1.0202,2.0546,-3.0237,-0.1412,2.3140,rough,14.0,0,4.798
980,31.36,8.6233,-1.0211,2.0530,-3.0136,-0.1486,2.2409,slope,18.0,0,4.795
990,31.68,8.6204,-1.0173,2.0546,-3.0173,-0.1511,2.2646,slope,18.0,0,4.796
1000,32.00,8.6187,-1.0263,2.0588,-3.0035,-0.1448,2.4070,rough,14.0,0,4.788
1010,32.32,8.6091,-1.0162,2.0539,-3.0093,-0.1678,2.3435,slope,18.0,0,4.789
1020,32.64,8.6181,-1.0181,2.0563,-3.0092,-0.1464,2.2688,rough,14.0,0,4.794
1030,32.96,8.6314,-1.0060,2.0589,-3.0316,-0.1184,2.3210,rough,14.0,0,4.812
1040,33.28,8.6282,-1.0129,2.0580,-3.0199,-0.1162,2.3535,slope,18.0,0,4.805
1050,33.60,8.6281,-1.0286,2.0544,-3.0228,-0.1570,2.3391,rough,14.0,0,4.793
1060,33.92,8.6094,-1.0069,2.0550,-3.0202,-0.1226,2.3602,slope,18.0,0,4.796
1070,34.24,8.6116,-1.0183,2.0560,-3.0057,-0.1590,2.2520,rough,14.0,0,4.789
1080,34.56,8.6248,-1.0245,2.0551,-3.0223,-0.1487,2.3105,rough,14.0,0,4.794
1090,34.88,8.6146,-1.0087,2.0574,-3.0089,-0.1394,2.3524,slope,18.0,0,4.798
1100,35.20,8.6250,-1.0387,2.0582,-3.0092,-0.1616,2.3250,rough,14.0,0,4.784
1110,35.52,8.6169,-1.0203,2.0541,-3.0261,-0.1449,2.3559,rough,14.0,0,4.791
1120,35.84,8.6315,-1.0139,2.0580,-3.0031,-0.1263,2.2433,rough,14.0,0,4.806
1130,36.16,8.6048,-1.0155,2.0573,-2.9846,-0.1800,2.2034,rough,14.0,0,4.787
1140,36.48,8.6265,-1.0006,2.0560,-3.0318,-0.1379,2.2639,slope,18.0,0,4.812
1150,36.80,8.6191,-1.0328,2.0609,-3.0045,-0.1191,2.2288,rough,14.0,0,4.784
1160,37.12,8.6242,-1.0428,2.0599,-3.0054,-0.1433,2.3488,rough,14.0,0,4.780
1170,37.44,8.6177,-1.0159,2.0536,-3.0163,-0.1612,2.2938,rough,14.0,0,4.795
1180,37.76,8.6181,-1.0126,2.0542,-3.0164,-0.1385,2.3254,rough,14.0,0,4.798
1190,38.08,8.6259,-1.0281,2.0593,-3.0156,-0.1258,2.2317,slope,18.0,0,4.792
1200,38.40,8.6234,-1.0131,2.0556,-3.0182,-0.1374,2.3285,rough,14.0,0,4.801
1210,38.72,8.6291,-1.0332,2.0579,-3.0151,-0.1454,2.2911,rough,14.0,0,4.790
1220,39.04,8.6254,-1.0444,2.0622,-3.0283,-0.1073,2.2712,rough,14.0,0,4.780
1230,39.36,8.6122,-1.0120,2.0546,-3.0197,-0.1411,2.3289,rough,14.0,0,4.794
1240,39.68,8.6331,-1.0353,2.0577,-3.0197,-0.1445,2.2661,rough,14.0,0,4.792
1250,40.00,8.6320,-1.0379,2.0589,-3.0140,-0.1450,2.2845,rough,14.0,0,4.789
1260,40.32,8.6153,-1.0095,2.0571,-3.0215,-0.1442,2.3282,rough,14.0,0,4.798
1270,40.64,8.6098,-1.0113,2.0528,-2.9999,-0.1686,2.4107,slope,18.0,0,4.793
1280,40.96,8.6196,-1.0201,2.0564,-3.0181,-0.1511,2.3423,rough,14.0,0,4.793
1290,41.28,8.6185,-1.0242,2.0570,-3.0238,-0.1358,2.3068,rough,14.0,0,4.790
1300,41.60,8.6218,-1.0245,2.0571,-3.0183,-0.1410,2.3467,rough,14.0,0,4.792
1310,41.92,8.6289,-1.0288,2.0559,-3.0162,-0.1293,2.3164,rough,14.0,0,4.793
1320,42.24,8.6156,-1.0204,2.0548,-3.0027,-0.1464,2.2762,slope,18.0,0,4.790
1330,42.56,8.6284,-1.0276,2.0600,-3.0172,-0.1420,2.3837,rough,14.0,0,4.794
1340,42.88,8.6298,-1.0354,2.0549,-3.0289,-0.1422,2.3127,rough,14.0,0,4.789
1350,43.20,8.6251,-1.0456,2.0570,-3.0149,-0.1512,2.3363,rough,14.0,0,4.779
1360,43.52,8.6223,-1.0212,2.0573,-3.0170,-0.1477,2.3447,slope,18.0,0,4.794
1370,43.84,8.6183,-1.0223,2.0566,-3.0134,-0.1437,2.2891,slope,18.0,0,4.791
1380,44.16,8.6234,-1.0173,2.0578,-3.0241,-0.1359,2.3389,slope,18.0,0,4.798
1390,44.48,8.6145,-1.0040,2.0577,-3.0066,-0.1585,2.3203,rough,14.0,0,4.802
1400,44.80,8.6243,-1.0397,2.0597,-3.0140,-0.1417,2.3240,rough,14.0,0,4.782
1410,45.12,8.6207,-1.0161,2.0569,-3.0149,-0.1292,2.3817,rough,14.0,0,4.797
1420,45.44,8.6376,-1.0082,2.0551,-3.0304,-0.1198,2.2473,rough,14.0,0,4.814
1430,45.76,8.6171,-1.0130,2.0562,-3.0028,-0.1240,2.3210,rough,14.0,0,4.797
1440,46.08,8.6281,-1.0084,2.0570,-3.0276,-0.1211,2.2767,rough,14.0,0,4.808
1450,46.40,8.6131,-1.0201,2.0555,-3.0074,-0.1444,2.3274,slope,18.0,0,4.789
1460,46.72,8.6235,-1.0106,2.0581,-3.0238,-0.1172,2.2149,slope,18.0,0,4.803
1470,47.04,8.6023,-1.0380,2.0621,-2.9846,-0.1691,2.3705,rough,14.0,0,4.769
1480,47.36,8.6244,-1.0002,2.0572,-3.0510,-0.1195,2.3466,slope,18.0,0,4.811
1490,47.68,8.6124,-1.0131,2.0551,-3.0067,-0.1458,2.3558,slope,18.0,0,4.794
1500,48.00,8.6242,-1.0054,2.0569,-3.0255,-0.1257,2.2818,rough,14.0,0,4.807
1510,48.32,8.6219,-1.0128,2.0527,-3.0241,-0.1509,2.3362,rough,14.0,0,4.800
1520,48.64,8.6164,-1.0147,2.0568,-3.0160,-0.1401,2.3335,rough,14.0,0,4.795
1530,48.96,8.6148,-1.0122,2.0575,-3.0150,-0.1371,2.3643,rough,14.0,0,4.796
1540,49.28,8.6085,-1.0092,2.0514,-3.0006,-0.1727,2.3728,rough,14.0,0,4.794
1550,49.60,8.6201,-1.0124,2.0551,-3.0193,-0.1395,2.2610,slope,18.0,0,4.799
1560,49.92,8.6251,-1.0139,2.0541,-3.0339,-0.1254,2.3017,rough,14.0,0,4.802
1570,50.24,8.6362,-1.0401,2.0597,-3.0097,-0.1337,2.3195,rough,14.0,0,4.790
1580,50.56,8.6481,-1.0609,2.0624,-3.0169,-0.1384,2.3188,rough,14.0,0,4.783
1590,50.88,8.6389,-1.0441,2.0610,-3.0101,-0.1386,2.2862,rough,14.0,0,4.789
1600,51.20,8.6201,-1.0031,2.0575,-3.0226,-0.1350,2.2953,rough,14.0,0,4.806
1610,51.52,8.6304,-1.0303,2.0597,-3.0217,-0.1288,2.3195,rough,14.0,0,4.793
1620,51.84,8.6239,-1.0135,2.0531,-3.0336,-0.1133,2.3302,slope,18.0,0,4.801
1630,52.16,8.6173,-1.0203,2.0579,-3.0225,-0.1538,2.3554,rough,14.0,0,4.792
1640,52.48,8.6153,-1.0267,2.0542,-3.0159,-0.1578,2.2834,rough,14.0,0,4.786
1650,52.80,8.6258,-0.9963,2.0607,-3.0471,-0.1075,2.2841,rough,14.0,0,4.815
1660,53.12,8.6116,-1.0079,2.0531,-2.9976,-0.1169,2.2751,slope,18.0,0,4.797
1670,53.44,8.6256,-1.0291,2.0588,-3.0278,-0.1405,2.3793,rough,14.0,0,4.791
1680,53.76,8.6133,-1.0244,2.0516,-3.0171,-0.1790,2.2621,rough,14.0,0,4.786
1690,54.08,8.6189,-1.0173,2.0564,-3.0032,-0.1090,2.2222,rough,14.0,0,4.795
1700,54.40,8.6190,-1.0146,2.0557,-2.9970,-0.1472,2.2516,slope,18.0,0,4.797
1710,54.72,8.6195,-1.0134,2.0559,-3.0165,-0.1406,2.2831,slope,18.0,0,4.798
1720,55.04,8.6191,-1.0105,2.0567,-3.0217,-0.1345,2.3354,slope,18.0,0,4.800
1730,55.36,8.6127,-1.0154,2.0573,-3.0057,-0.1387,2.3092,rough,14.0,0,4.792
1740,55.68,8.6126,-1.0165,2.0585,-3.0144,-0.1609,2.3399,slope,18.0,0,4.791
1750,56.00,8.6158,-1.0179,2.0539,-3.0097,-0.1744,2.3830,rough,14.0,0,4.792
1760,56.32,8.6135,-1.0059,2.0555,-3.0226,-0.1464,2.3164,slope,18.0,0,4.800
1770,56.64,8.6285,-1.0191,2.0592,-3.0266,-0.1384,2.3242,rough,14.0,0,4.800
1780,56.96,8.6130,-1.0124,2.0570,-3.0054,-0.1463,2.3098,slope,18.0,0,4.795
1790,57.28,8.6143,-1.0093,2.0592,-3.0438,-0.1713,2.3805,slope,18.0,0,4.798
1800,57.60,8.6106,-1.0181,2.0517,-3.0068,-0.1650,2.2556,rough,14.0,0,4.789
1810,57.92,8.6105,-1.0110,2.0555,-3.0149,-0.1430,2.3414,rough,14.0,0,4.794
1820,58.24,8.6266,-1.0162,2.0552,-3.0246,-0.1263,2.2754,rough,14.0,0,4.801
1830,58.56,8.6074,-1.0133,2.0616,-2.9636,-0.1700,2.2194,rough,14.0,0,4.790
1840,58.88,8.6394,-1.0236,2.0551,-3.0263,-0.1343,2.2738,rough,14.0,0,4.804
1850,59.20,8.6337,-1.0403,2.0562,-3.0256,-0.1521,2.3822,rough,14.0,0,4.788
1860,59.52,8.6128,-1.0131,2.0535,-3.0245,-0.1458,2.3305,rough,14.0,0,4.794
1870,59.84,8.6311,-1.0158,2.0572,-3.0182,-0.1297,2.2798,rough,14.0,0,4.804
1880,60.16,8.6218,-1.0194,2.0549,-3.0221,-0.1420,2.2988,rough,14.0,0,4.795
1890,60.48,8.6134,-1.0113,2.0550,-3.0228,-0.1368,2.3472,rough,14.0,0,4.796
1900,60.80,8.6265,-1.0117,2.0544,-3.0283,-0.1273,2.2985,rough,14.0,0,4.804
1910,61.12,8.6154,-1.0218,2.0566,-3.0192,-0.1552,2.3238,rough,14.0,0,4.789
1920,61.44,8.6384,-1.0205,2.0566,-3.0353,-0.1319,2.2382,rough,14.0,0,4.806
1930,61.76,8.6395,-1.0410,2.0598,-3.0175,-0.1462,2.3169,rough,14.0,0,4.792
1940,62.08,8.6418,-1.0390,2.0558,-3.0390,-0.1263,2.2928,rough,14.0,0,4.795
1950,62.40,8.6305,-1.0136,2.0581,-3.0368,-0.0953,2.2111,rough,14.0,0,4.806
1960,62.72,8.6192,-1.0042,2.0547,-3.0288,-0.1166,2.3286,rough,14.0,0,4.805
1970,63.04,8.6271,-1.0215,2.0548,-3.0244,-0.1445,2.2530,rough,14.0,0,4.798
1980,63.36,8.6265,-1.0209,2.0526,-2.9957,-0.1178,2.2351,rough,14.0,0,4.798
1990,63.68,8.6272,-1.0308,2.0525,-3.0370,-0.1532,2.3979,rough,14.0,0,4.791
2000,64.00,8.6075,-1.0242,2.0575,-3.0090,-0.1512,2.3707,rough,14.0,0,4.782
2010,64.32,8.6512,-1.0467,2.0618,-3.0212,-0.1199,2.2862,rough,14.0,0,4.796
2020,64.64,8.6380,-1.0501,2.0615,-3.0130,-0.1375,2.3097,rough,14.0,0,4.784
2030,64.96,8.6070,-1.0120,2.0572,-3.0134,-0.1438,2.3245,slope,18.0,0,4.791
2040,65.28,8.6237,-1.0128,2.0578,-3.0202,-0.1344,2.3071,rough,14.0,0,4.802
2050,65.60,8.6135,-1.0210,2.0568,-3.0044,-0.1514,2.3251,slope,18.0,0,4.789
2060,65.92,8.6629,-1.0750,2.0638,-3.0188,-0.1377,2.2689,rough,14.0,0,4.783
2070,66.24,8.6368,-1.0351,2.0579,-3.0220,-0.1414,2.2774,rough,14.0,0,4.794
2080,66.56,8.6287,-1.0191,2.0607,-3.0329,-0.1381,2.3505,rough,14.0,0,4.800
2090,66.88,8.6232,-1.0022,2.0580,-3.0279,-0.1224,2.2741,slope,18.0,0,4.809
2100,67.20,8.6191,-1.0246,2.0570,-3.0155,-0.1487,2.3219,slope,18.0,0,4.790
2110,67.52,8.6154,-1.0109,2.0564,-3.0207,-0.1316,2.2892,slope,18.0,0,4.797
2120,67.84,8.6400,-1.0383,2.0621,-3.0130,-0.1297,2.3804,rough,14.0,0,4.794
2130,68.16,8.6203,-1.0261,2.0571,-3.0146,-0.1415,2.3445,rough,14.0,0,4.790
2140,68.48,8.6159,-1.0061,2.0557,-3.0270,-0.1394,2.3332,slope,18.0,0,4.801
2150,68.80,8.6120,-1.0274,2.0578,-2.9968,-0.1466,2.2904,rough,14.0,0,4.783
2160,69.12,8.6179,-1.0161,2.0555,-3.0134,-0.1382,2.3021,slope,18.0,0,4.795
2170,69.44,8.6203,-1.0246,2.0566,-3.0166,-0.1458,2.3113,rough,14.0,0,4.791
2180,69.76,8.6170,-1.0145,2.0537,-3.0218,-0.1481,2.3540,slope,18.0,0,4.796
2190,70.08,8.6221,-1.0121,2.0548,-3.0168,-0.1471,2.3206,slope,18.0,0,4.801
2200,70.40,8.6128,-1.0066,2.0580,-3.0145,-0.1241,2.3270,rough,14.0,0,4.799
2210,70.72,8.6164,-1.0116,2.0580,-2.9962,-0.1537,2.2563,rough,14.0,0,4.797
2220,71.04,8.6117,-1.0166,2.0518,-2.9987,-0.1664,2.3921,slope,18.0,0,4.791
2230,71.36,8.6143,-1.0133,2.0570,-3.0120,-0.1391,2.3525,rough,14.0,0,4.795
2240,71.68,8.6164,-1.0120,2.0568,-3.0147,-0.1382,2.3331,rough,14.0,0,4.797
2250,72.00,8.6192,-1.0197,2.0585,-3.0003,-0.1234,2.3705,rough,14.0,0,4.794
2260,72.32,8.6286,-1.0361,2.0589,-3.0093,-0.1331,2.2920,rough,14.0,0,4.788
2270,72.64,8.6156,-1.0147,2.0547,-3.0047,-0.1654,2.3411,rough,14.0,0,4.795
2280,72.96,8.6293,-1.0400,2.0578,-3.0091,-0.1651,2.3542,rough,14.0,0,4.786
2290,73.28,8.6203,-1.0094,2.0564,-3.0219,-0.1392,2.3328,slope,18.0,0,4.802
2300,73.60,8.6060,-1.0208,2.0582,-3.0129,-0.1362,2.3656,rough,14.0,0,4.784
2310,73.92,8.6314,-1.0274,2.0553,-3.0242,-0.1429,2.3431,rough,14.0,0,4.796
2320,74.24,8.6468,-1.0905,2.0677,-3.0086,-0.1377,2.3557,rough,14.0,0,4.761
2330,74.56,8.6328,-1.0549,2.0601,-2.9936,-0.1324,2.3489,rough,14.0,0,4.777
2340,74.88,8.6204,-0.9912,2.0606,-3.0146,-0.1416,2.2865,rough,14.0,0,4.815
2350,75.20,8.6304,-1.0115,2.0551,-3.0131,-0.1192,2.2354,rough,14.0,0,4.807
2360,75.52,8.6200,-1.0183,2.0561,-3.0307,-0.1205,2.2945,slope,18.0,0,4.795
2370,75.84,8.6130,-1.0162,2.0565,-3.0041,-0.1581,2.2597,slope,18.0,0,4.792
2380,76.16,8.6351,-1.0284,2.0541,-3.0373,-0.1308,2.2943,rough,14.0,0,4.798
2390,76.48,8.6159,-1.0164,2.0545,-3.0189,-0.1523,2.2593,rough,14.0,0,4.794
2400,76.80,8.6299,-1.0391,2.0590,-3.0117,-0.1437,2.3105,rough,14.0,0,4.787
2410,77.12,8.6373,-1.0368,2.0614,-3.0108,-0.1372,2.3866,rough,14.0,0,4.793
2420,77.44,8.6014,-1.0218,2.0605,-2.9937,-0.1541,2.3152,slope,18.0,0,4.780
2430,77.76,8.6369,-1.0336,2.0580,-3.0231,-0.1357,2.2681,rough,14.0,0,4.795
2440,78.08,8.6305,-1.0131,2.0582,-3.0302,-0.1176,2.3564,rough,14.0,0,4.806
2450,78.40,8.6182,-1.0193,2.0542,-3.0133,-0.1565,2.3007,rough,14.0,0,4.793
2460,78.72,8.6069,-1.0325,2.0579,-2.9754,-0.1527,2.3280,rough,14.0,0,4.776
2470,79.04,8.6274,-1.0150,2.0602,-3.0165,-0.1186,2.3711,rough,14.0,0,4.803
2480,79.36,8.6222,-1.0155,2.0537,-3.0159,-0.1545,2.2549,rough,14.0,0,4.799
2490,79.68,8.6202,-1.0115,2.0579,-3.0194,-0.1062,2.2092,slope,18.0,0,4.800
2500,80.00,8.6326,-1.0230,2.0574,-3.0203,-0.1404,2.3541,rough,14.0,0,4.800
2510,80.32,8.6134,-1.0185,2.0574,-3.0117,-0.1420,2.3727,slope,18.0,0,4.790
2520,80.64,8.6261,-1.0151,2.0530,-3.0155,-0.1464,2.2523,rough,14.0,0,4.802
2530,80.96,8.6208,-1.0227,2.0565,-3.0097,-0.1488,2.2765,rough,14.0,0,4.792
2540,81.28,8.6160,-1.0203,2.0589,-3.0077,-0.1367,2.3945,rough,14.0,0,4.791
2550,81.60,8.6274,-1.0019,2.0565,-3.0391,-0.1355,2.3354,rough,14.0,0,4.812
2560,81.92,8.6221,-1.0435,2.0607,-3.0046,-0.1492,2.2934,rough,14.0,0,4.778
2570,82.24,8.6175,-1.0201,2.0568,-3.0118,-0.1473,2.3029,rough,14.0,0,4.792
2580,82.56,8.6114,-1.0206,2.0559,-3.0093,-0.1534,2.3547,rough,14.0,0,4.787
2590,82.88,8.6264,-1.0234,2.0543,-3.0348,-0.1291,2.3306,rough,14.0,0,4.796
2600,83.20,8.6133,-1.0116,2.0529,-3.0146,-0.1483,2.2514,slope,18.0,0,4.795
2610,83.52,8.6330,-1.0414,2.0599,-3.0199,-0.1354,2.3033,rough,14.0,0,4.787
2620,83.84,8.6273,-1.0303,2.0572,-3.0218,-0.1351,2.3342,rough,14.0,0,4.791
2630,84.16,8.6223,-0.9956,2.0595,-3.0331,-0.1356,2.3320,rough,14.0,0,4.813
2640,84.48,8.6221,-1.0183,2.0590,-3.0039,-0.1179,2.4050,rough,14.0,0,4.796
2650,84.80,8.6183,-1.0109,2.0578,-3.0269,-0.1596,2.3415,rough,14.0,0,4.799
2660,85.12,8.6251,-1.0254,2.0552,-3.0167,-0.1332,2.3026,rough,14.0,0,4.793
2670,85.44,8.6285,-1.0489,2.0612,-3.0244,-0.1300,2.2767,rough,14.0,0,4.779
2680,85.76,8.6150,-1.0238,2.0555,-3.0078,-0.1713,2.3811,rough,14.0,0,4.788
2690,86.08,8.6154,-1.0210,2.0570,-3.0204,-0.1307,2.2960,slope,18.0,0,4.790
2700,86.40,8.6227,-1.0298,2.0590,-3.0187,-0.1312,2.2670,rough,14.0,0,4.788
2710,86.72,8.6351,-1.0278,2.0551,-3.0177,-0.1587,2.3035,rough,14.0,0,4.798
2720,87.04,8.6154,-1.0078,2.0550,-3.0242,-0.1498,2.3383,slope,18.0,0,4.800
2730,87.36,8.6212,-1.0151,2.0545,-3.0183,-0.1399,2.2377,rough,14.0,0,4.798
2740,87.68,8.6107,-1.0126,2.0576,-2.9852,-0.1356,2.2506,slope,18.0,0,4.793
2750,88.00,8.6130,-1.0394,2.0593,-3.0104,-0.1520,2.3943,rough,14.0,0,4.775
2760,88.32,8.6180,-1.0096,2.0534,-3.0153,-0.1571,2.3062,rough,14.0,0,4.800
2770,88.64,8.6162,-1.0212,2.0541,-3.0133,-0.1380,2.3060,rough,14.0,0,4.790
2780,88.96,8.6247,-1.0201,2.0541,-3.0093,-0.1460,2.3206,rough,14.0,0,4.797
2790,89.28,8.6271,-1.0236,2.0540,-3.0076,-0.1669,2.3517,rough,14.0,0,4.796
2800,89.60,8.6261,-1.0131,2.0574,-3.0265,-0.1108,2.2533,rough,14.0,0,4.803
2810,89.92,8.6234,-1.0167,2.0552,-3.0182,-0.1368,2.2996,slope,18.0,0,4.798
2820,90.24,8.6096,-1.0120,2.0550,-3.0021,-0.1682,2.2841,slope,18.0,0,4.793
2830,90.56,8.6274,-1.0148,2.0585,-3.0012,-0.1110,2.3618,rough,14.0,0,4.803
2840,90.88,8.6262,-1.0234,2.0590,-3.0141,-0.1262,2.3535,slope,18.0,0,4.796
2850,91.20,8.6470,-1.0177,2.0572,-3.0372,-0.1295,2.2590,rough,14.0,0,4.814
2860,91.52,8.6141,-1.0230,2.0562,-3.0049,-0.1506,2.3154,slope,18.0,0,4.788
2870,91.84,8.6180,-1.0228,2.0564,-3.0057,-0.1505,2.3507,rough,14.0,0,4.790
2880,92.16,8.6340,-1.0233,2.0534,-3.0177,-0.1618,2.3269,rough,14.0,0,4.801
2890,92.48,8.6296,-1.0582,2.0659,-3.0048,-0.1420,2.3215,rough,14.0,0,4.773
2900,92.80,8.6205,-1.0008,2.0568,-2.9819,-0.1215,2.2016,rough,14.0,0,4.808
2910,93.12,8.6122,-1.0094,2.0569,-3.0164,-0.1425,2.3532,rough,14.0,0,4.796
2920,93.44,8.6231,-1.0085,2.0580,-3.0095,-0.1181,2.3264,rough,14.0,0,4.804
2930,93.76,8.6201,-1.0195,2.0512,-3.0176,-0.1442,2.3674,rough,14.0,0,4.794
2940,94.08,8.6161,-1.0310,2.0573,-3.0038,-0.1580,2.3840,rough,14.0,0,4.783
2950,94.40,8.6155,-1.0098,2.0613,-2.9797,-0.1297,2.2140,slope,18.0,0,4.798
2960,94.72,8.6240,-1.0270,2.0607,-3.0241,-0.1463,2.4030,rough,14.0,0,4.791
2970,95.04,8.6124,-1.0203,2.0572,-3.0049,-0.1434,2.3735,rough,14.0,0,4.788
2980,95.36,8.6123,-1.0206,2.0586,-3.0077,-0.1583,2.3494,slope,18.0,0,4.788
2990,95.68,8.6241,-1.0195,2.0563,-3.0258,-0.1323,2.3440,rough,14.0,0,4.797
3000,96.00,8.6253,-1.0144,2.0554,-3.0124,-0.1284,2.2460,slope,18.0,0,4.801
3010,96.32,8.6080,-1.0090,2.0563,-3.0176,-0.1497,2.3692,slope,18.0,0,4.794
3020,96.64,8.6294,-1.0144,2.0558,-3.0245,-0.1103,2.2255,rough,14.0,0,4.804
3030,96.96,8.6180,-1.0296,2.0558,-3.0043,-0.1732,2.3926,slope,18.0,0,4.785
3040,97.28,8.5955,-1.0307,2.0637,-2.9723,-0.1733,2.2611,slope,18.0,0,4.769
3050,97.60,8.6225,-1.0160,2.0542,-3.0243,-0.1397,2.2506,rough,14.0,0,4.798
3060,97.92,8.6195,-1.0115,2.0572,-3.0117,-0.1331,2.3376,slope,18.0,0,4.800
3070,98.24,8.6205,-1.0172,2.0562,-3.0154,-0.1323,2.3286,slope,18.0,0,4.796
3080,98.56,8.6274,-1.0356,2.0560,-3.0304,-0.1413,2.3043,rough,14.0,0,4.787
3090,98.88,8.6277,-1.0474,2.0584,-2.9996,-0.1405,2.3271,rough,14.0,0,4.779
3100,99.20,8.6288,-1.0430,2.0592,-3.0156,-0.1516,2.3055,rough,14.0,0,4.783
3110,99.52,8.6082,-1.0302,2.0651,-2.9661,-0.1693,2.2216,rough,14.0,0,4.778
3120,99.84,8.6167,-1.0128,2.0597,-3.0198,-0.1308,2.3546,rough,14.0,0,4.797
3130,100.16,8.6321,-1.0256,2.0582,-3.0228,-0.1273,2.3087,rough,14.0,0,4.798
3140,100.48,8.6115,-1.0187,2.0550,-3.0103,-0.1553,2.3119,rough,14.0,0,4.789
3150,100.80,8.6140,-1.0169,2.0565,-3.0107,-0.1407,2.3414,rough,14.0,0,4.792
3160,101.12,8.6089,-1.0045,2.0580,-2.9963,-0.1424,2.3207,slope,18.0,0,4.798
3170,101.44,8.6139,-1.0083,2.0569,-3.0107,-0.1438,2.3156,slope,18.0,0,4.798
3180,101.76,8.6275,-0.9987,2.0601,-3.0371,-0.1272,2.3689,rough,14.0,0,4.814
3190,102.08,8.6230,-1.0314,2.0578,-3.0031,-0.1440,2.3605,rough,14.0,0,4.787
3200,102.40,8.6221,-1.0320,2.0584,-3.0036,-0.1395,2.3086,rough,14.0,0,4.786
3210,102.72,8.6138,-1.0099,2.0581,-3.0122,-0.1319,2.3921,rough,14.0,0,4.797
3220,103.04,8.6231,-1.0390,2.0568,-3.0131,-0.1619,2.2895,rough,14.0,0,4.782
3230,103.36,8.6262,-1.0287,2.0589,-3.0178,-0.1360,2.3523,rough,14.0,0,4.792
3240,103.68,8.6295,-1.0203,2.0600,-3.0139,-0.1209,2.3696,rough,14.0,0,4.800
3250,104.00,8.6195,-1.0191,2.0577,-3.0098,-0.1427,2.3061,slope,18.0,0,4.794
3260,104.32,8.6309,-1.0167,2.0567,-3.0038,-0.1236,2.1924,rough,14.0,0,4.804
3270,104.64,8.6127,-1.0257,2.0563,-3.0104,-0.1638,2.2953,rough,14.0,0,4.785
3280,104.96,8.6231,-1.0211,2.0554,-3.0255,-0.1336,2.2990,rough,14.0,0,4.795
3290,105.28,8.6174,-1.0125,2.0591,-3.0064,-0.1282,2.2486,rough,14.0,0,4.797
3300,105.60,8.6098,-1.0351,2.0547,-3.0149,-0.1797,2.2791,rough,14.0,0,4.776
3310,105.92,8.6081,-1.0218,2.0554,-3.0088,-0.1484,2.3687,rough,14.0,0,4.784
3320,106.24,8.6114,-1.0276,2.0595,-2.9973,-0.1498,2.3247,slope,18.0,0,4.782
3330,106.56,8.6196,-1.0184,2.0561,-3.0083,-0.1413,2.2566,slope,18.0,0,4.795
3340,106.88,8.6212,-1.0201,2.0600,-3.0135,-0.1303,2.3995,rough,14.0,0,4.795
3350,107.20,8.6159,-1.0248,2.0568,-3.0205,-0.1547,2.3255,rough,14.0,0,4.787
3360,107.52,8.6227,-1.0196,2.0604,-2.9958,-0.1429,2.2285,rough,14.0,0,4.796
3370,107.84,8.6114,-1.0167,2.0560,-3.0060,-0.1611,2.2618,slope,18.0,0,4.790
3380,108.16,8.6219,-1.0026,2.0568,-3.0469,-0.1628,2.3596,rough,14.0,0,4.808
3390,108.48,8.6265,-1.0351,2.0577,-3.0101,-0.1523,2.2121,rough,14.0,0,4.787
3400,108.80,8.6203,-1.0088,2.0574,-3.0130,-0.1342,2.3289,slope,18.0,0,4.802
3410,109.12,8.6215,-1.0422,2.0595,-3.0077,-0.1569,2.3344,rough,14.0,0,4.779
3420,109.44,8.6195,-1.0176,2.0575,-3.0273,-0.1411,2.3848,rough,14.0,0,4.795
3430,109.76,8.6238,-1.0053,2.0557,-3.0266,-0.1336,2.2597,rough,14.0,0,4.807
3440,110.08,8.6197,-1.0104,2.0554,-3.0192,-0.1364,2.3245,slope,18.0,0,4.801
3450,110.40,8.6220,-1.0222,2.0538,-3.0226,-0.1406,2.3416,rough,14.0,0,4.794
3460,110.72,8.6206,-1.0097,2.0547,-3.0257,-0.1324,2.2992,slope,18.0,0,4.802
3470,111.04,8.6308,-1.0129,2.0586,-3.0340,-0.0972,2.2049,slope,18.0,0,4.806
3480,111.36,8.6339,-1.0167,2.0553,-3.0280,-0.1331,2.2512,rough,14.0,0,4.806
3490,111.68,8.6234,-1.0197,2.0560,-3.0221,-0.1349,2.3130,slope,18.0,0,4.796
3500,112.00,8.6221,-1.0182,2.0550,-3.0269,-0.1346,2.3219,rough,14.0,0,4.796
3510,112.32,8.6305,-1.0244,2.0566,-3.0187,-0.1488,2.3152,rough,14.0,0,4.798
3520,112.64,8.6124,-1.0264,2.0561,-3.0113,-0.1592,2.3204,rough,14.0,0,4.784
3530,112.96,8.6219,-1.0195,2.0582,-3.0296,-0.1457,2.3848,slope,18.0,0,4.795
3540,113.28,8.6409,-1.0149,2.0584,-3.0221,-0.1096,2.2508,rough,14.0,0,4.812
3550,113.60,8.6084,-1.0079,2.0574,-3.0002,-0.1457,2.3075,rough,14.0,0,4.795
3560,113.92,8.6280,-1.0246,2.0594,-3.0198,-0.1353,2.3293,rough,14.0,0,4.796
3570,114.24,8.6276,-1.0139,2.0571,-3.0092,-0.1343,2.2050,rough,14.0,0,4.803
3580,114.56,8.6285,-1.0168,2.0558,-3.0209,-0.1558,2.3622,rough,14.0,0,4.802
3590,114.88,8.6115,-1.0356,2.0578,-3.0107,-0.1559,2.3744,rough,14.0,0,4.777
3600,115.20,8.6250,-1.0096,2.0567,-3.0221,-0.1261,2.2686,rough,14.0,0,4.805
3610,115.52,8.6129,-1.0096,2.0579,-2.9919,-0.1493,2.2733,rough,14.0,0,4.797
3620,115.84,8.6287,-1.0180,2.0541,-3.0043,-0.1260,2.2374,slope,18.0,0,4.801
3630,116.16,8.6205,-1.0280,2.0587,-3.0172,-0.1318,2.2867,slope,18.0,0,4.788
3640,116.48,8.6178,-1.0217,2.0554,-3.0113,-0.1560,2.3344,slope,18.0,0,4.791
3650,116.80,8.6163,-1.0122,2.0562,-3.0175,-0.1384,2.3410,slope,18.0,0,4.797
3660,117.12,8.6128,-1.0136,2.0594,-3.0161,-0.1639,2.3452,rough,14.0,0,4.794
3670,117.44,8.6439,-1.0497,2.0623,-3.0122,-0.1329,2.3190,rough,14.0,0,4.789
3680,117.76,8.6346,-1.0506,2.0573,-3.0139,-0.1547,2.2418,rough,14.0,0,4.782
3690,118.08,8.6261,-1.0107,2.0565,-3.0004,-0.1085,2.3316,rough,14.0,0,4.805
3700,118.40,8.6230,-1.0244,2.0547,-3.0224,-0.1388,2.2871,rough,14.0,0,4.793
3710,118.72,8.6161,-1.0023,2.0546,-3.0100,-0.1221,2.2819,rough,14.0,0,4.804
3720,119.04,8.6287,-1.0198,2.0554,-3.0214,-0.1448,2.2671,slope,18.0,0,4.800
3730,119.36,8.6352,-1.0351,2.0581,-3.0185,-0.1441,2.2555,rough,14.0,0,4.793
3740,119.68,8.6229,-1.0244,2.0562,-3.0152,-0.1486,2.3124,rough,14.0,0,4.793
3750,120.00,8.6229,-1.0221,2.0569,-3.0016,-0.1226,2.3169,rough,14.0,0,4.794
3760,120.32,8.6078,-1.0203,2.0553,-3.0287,-0.1293,2.3827,slope,18.0,0,4.785
3770,120.64,8.6265,-1.0068,2.0563,-3.0358,-0.1229,2.3397,rough,14.0,0,4.808
3780,120.96,8.6151,-1.0230,2.0566,-3.0117,-0.1463,2.3401,slope,18.0,0,4.788
3790,121.28,8.6247,-1.0091,2.0543,-3.0136,-0.1143,2.2526,rough,14.0,0,4.805
3800,121.60,8.6184,-1.0228,2.0507,-3.0177,-0.1786,2.2526,rough,14.0,0,4.791
3810,121.92,8.6192,-1.0218,2.0553,-3.0181,-0.1496,2.2906,rough,14.0,0,4.792
3820,122.24,8.6345,-1.0324,2.0578,-3.0215,-0.1336,2.2851,rough,14.0,0,4.795
3830,122.56,8.6250,-1.0249,2.0570,-3.0178,-0.1380,2.3110,rough,14.0,0,4.794
3840,122.88,8.6320,-1.0135,2.0534,-3.0218,-0.1503,2.2912,slope,18.0,0,4.807
3850,123.20,8.6377,-1.0293,2.0529,-3.0591,-0.1261,2.2669,slope,18.0,0,4.799
3860,123.52,8.6609,-1.0895,2.0638,-3.0309,-0.1369,2.3903,rough,14.0,0,4.772
3870,123.84,8.6319,-1.0419,2.0598,-3.0190,-0.1364,2.3578,rough,14.0,0,4.786
3880,124.16,8.6058,-0.9973,2.0613,-3.0091,-0.1522,2.3331,rough,14.0,0,4.801
3890,124.48,8.6126,-1.0240,2.0589,-2.9994,-0.1436,2.3741,slope,18.0,0,4.786
3900,124.80,8.6193,-1.0374,2.0571,-3.0253,-0.1419,2.3764,rough,14.0,0,4.781
3910,125.12,8.6132,-1.0109,2.0559,-3.0154,-0.1527,2.3519,rough,14.0,0,4.796
3920,125.44,8.6220,-1.0303,2.0538,-3.0098,-0.1605,2.2632,rough,14.0,0,4.788
3930,125.76,8.6157,-1.0078,2.0530,-3.0143,-0.1631,2.3244,slope,18.0,0,4.800
3940,126.08,8.6198,-1.0183,2.0568,-3.0107,-0.1350,2.3330,slope,18.0,0,4.795
3950,126.40,8.6280,-1.0389,2.0566,-3.0264,-0.1442,2.3115,rough,14.0,0,4.785
3960,126.72,8.6343,-1.0561,2.0603,-2.9957,-0.1335,2.3455,rough,14.0,0,4.777
3970,127.04,8.6213,-1.0122,2.0565,-2.9989,-0.1282,2.3660,slope,18.0,0,4.800
3980,127.36,8.6155,-1.0137,2.0616,-3.0009,-0.1376,2.2061,slope,18.0,0,4.795
3990,127.68,8.6283,-1.0342,2.0581,-3.0188,-0.1396,2.3125,rough,14.0,0,4.789
4000,128.00,8.6243,-1.0162,2.0532,-3.0172,-0.1597,2.3100,rough,14.0,0,4.799
4010,128.32,8.6340,-1.0063,2.0552,-3.0229,-0.1259,2.2703,rough,14.0,0,4.813
4020,128.64,8.6286,-1.0129,2.0578,-3.0175,-0.1207,2.2927,rough,14.0,0,4.805
4030,128.96,8.6203,-1.0050,2.0553,-3.0136,-0.1346,2.2390,rough,14.0,0,4.805
4040,129.28,8.6183,-1.0116,2.0553,-3.0168,-0.1394,2.3118,rough,14.0,0,4.799
4050,129.60,8.6067,-1.0083,2.0570,-2.9970,-0.1564,2.3187,slope,18.0,0,4.793
4060,129.92,8.6186,-1.0163,2.0586,-3.0419,-0.1731,2.3270,rough,14.0,0,4.796
4070,130.24,8.6275,-1.0299,2.0596,-3.0143,-0.1321,2.2421,rough,14.0,0,4.792
4080,130.56,8.6176,-1.0078,2.0535,-3.0222,-0.1481,2.2876,rough,14.0,0,4.801
4090,130.88,8.6242,-1.0112,2.0520,-3.0071,-0.1810,2.3685,slope,18.0,0,4.803
4100,131.20,8.6274,-1.0257,2.0575,-3.0110,-0.1446,2.2685,rough,14.0,0,4.795
4110,131.52,8.6267,-1.0210,2.0557,-3.0192,-0.1389,2.2762,rough,14.0,0,4.798
4120,131.84,8.6338,-1.0150,2.0528,-3.0151,-0.1551,2.4049,slope,18.0,0,4.807
4130,132.16,8.6155,-1.0216,2.0566,-3.0023,-0.1530,2.2834,slope,18.0,0,4.790
4140,132.48,8.6165,-1.0073,2.0569,-2.9996,-0.1406,2.2763,slope,18.0,0,4.801
4150,132.80,8.6229,-1.0160,2.0593,-3.0096,-0.1337,2.3962,rough,14.0,0,4.799
4160,133.12,8.6094,-1.0174,2.0566,-3.0149,-0.1561,2.3693,rough,14.0,0,4.788
4170,133.44,8.6274,-1.0204,2.0570,-3.0126,-0.1243,2.2813,rough,14.0,0,4.799
4180,133.76,8.6446,-1.0577,2.0627,-3.0083,-0.1431,2.3675,rough,14.0,0,4.783
4190,134.08,8.6592,-1.0935,2.0686,-3.0160,-0.1482,2.4115,rough,14.0,0,4.768
4200,134.40,8.6364,-1.0453,2.0596,-3.0149,-0.1480,2.3317,rough,14.0,0,4.787
4210,134.72,8.6176,-0.9912,2.0523,-3.0403,-0.1081,2.3901,rough,14.0,0,4.813
4220,135.04,8.6192,-1.0178,2.0593,-3.0086,-0.1212,2.4101,rough,14.0,0,4.795
4230,135.36,8.6220,-1.0212,2.0534,-3.0248,-0.1415,2.3299,rough,14.0,0,4.794
4240,135.68,8.6163,-1.0256,2.0570,-3.0103,-0.1546,2.3720,rough,14.0,0,4.787
4250,136.00,8.6195,-1.0118,2.0537,-3.0236,-0.1467,2.2905,rough,14.0,0,4.799
4260,136.32,8.6199,-1.0171,2.0567,-3.0171,-0.1406,2.3003,rough,14.0,0,4.796
4270,136.64,8.6246,-1.0222,2.0565,-3.0120,-0.1495,2.2933,rough,14.0,0,4.795
4280,136.96,8.6160,-1.0251,2.0587,-3.0087,-0.1445,2.3777,rough,14.0,0,4.787
4290,137.28,8.6128,-1.0059,2.0546,-3.0309,-0.1285,2.3834,rough,14.0,0,4.799
4300,137.60,8.6162,-1.0108,2.0524,-3.0359,-0.1383,2.3587,slope,18.0,0,4.798
4310,137.92,8.6217,-1.0153,2.0521,-3.0423,-0.1374,2.2889,slope,18.0,0,4.798
4320,138.24,8.6179,-1.0117,2.0541,-3.0186,-0.1473,2.2758,rough,14.0,0,4.798
4330,138.56,8.6220,-1.0122,2.0535,-3.0134,-0.1607,2.3018,rough,14.0,0,4.801
4340,138.88,8.6299,-1.0047,2.0561,-3.0254,-0.1349,2.2948,slope,18.0,0,4.812
4350,139.20,8.6456,-1.0665,2.0638,-3.0133,-0.1422,2.3576,rough,14.0,0,4.778
4360,139.52,8.6356,-1.0570,2.0622,-3.0014,-0.1361,2.3130,rough,14.0,0,4.778
4370,139.84,8.6115,-1.0117,2.0549,-3.0103,-0.1455,2.3279,rough,14.0,0,4.794
4380,140.16,8.6278,-1.0209,2.0531,-3.0369,-0.1330,2.3512,rough,14.0,0,4.798
4390,140.48,8.6140,-1.0122,2.0547,-3.0231,-0.1373,2.3490,slope,18.0,0,4.795
4400,140.80,8.6200,-1.0097,2.0587,-3.0191,-0.1124,2.2520,slope,18.0,0,4.801
4410,141.12,8.6078,-1.0282,2.0597,-2.9819,-0.1625,2.3072,slope,18.0,0,4.779
4420,141.44,8.6343,-1.0232,2.0548,-3.0009,-0.1229,2.2597,rough,14.0,0,4.801
4430,141.76,8.6174,-1.0090,2.0577,-3.0270,-0.1360,2.3153,rough,14.0,0,4.800
4440,142.08,8.6210,-1.0118,2.0557,-3.0171,-0.1369,2.2790,slope,18.0,0,4.800
4450,142.40,8.6295,-1.0028,2.0536,-3.0121,-0.0916,2.2338,slope,18.0,0,4.813
4460,142.72,8.6369,-1.0196,2.0550,-3.0190,-0.1483,2.2650,slope,18.0,0,4.806
4470,143.04,8.6244,-1.0145,2.0550,-3.0237,-0.1354,2.2598,rough,14.0,0,4.801
4480,143.36,8.6319,-1.0172,2.0582,-3.0217,-0.1231,2.3074,rough,14.0,0,4.804
4490,143.68,8.6090,-1.0169,2.0587,-3.0005,-0.1468,2.4058,rough,14.0,0,4.789
4500,144.00,8.6162,-1.0148,2.0554,-2.9995,-0.1253,2.3059,slope,18.0,0,4.795
4510,144.32,8.6187,-1.0138,2.0537,-3.0172,-0.1563,2.3507,rough,14.0,0,4.797
4520,144.64,8.6162,-1.0096,2.0539,-3.0179,-0.1447,2.2489,rough,14.0,0,4.799
4530,144.96,8.6271,-1.0379,2.0586,-3.0073,-0.1524,2.3649,rough,14.0,0,4.786
4540,145.28,8.6122,-1.0163,2.0578,-3.0305,-0.1676,2.3731,slope,18.0,0,4.791
4550,145.60,8.6238,-1.0190,2.0535,-3.0328,-0.1306,2.2936,rough,14.0,0,4.797
4560,145.92,8.6088,-1.0188,2.0563,-2.9543,-0.1483,2.1970,slope,18.0,0,4.787
4570,146.24,8.6177,-1.0311,2.0578,-3.0068,-0.1503,2.3646,rough,14.0,0,4.784
4580,146.56,8.6284,-1.0304,2.0574,-3.0107,-0.1515,2.2590,rough,14.0,0,4.792
4590,146.88,8.6219,-1.0191,2.0590,-3.0105,-0.1454,2.2280,rough,14.0,0,4.796
4600,147.20,8.6224,-1.0104,2.0548,-3.0138,-0.1392,2.3046,slope,18.0,0,4.802
4610,147.52,8.6310,-1.0168,2.0561,-3.0266,-0.1266,2.2540,rough,14.0,0,4.804
4620,147.84,8.6233,-1.0294,2.0575,-3.0144,-0.1475,2.3220,slope,18.0,0,4.789
4630,148.16,8.6039,-1.0116,2.0562,-2.9930,-0.1738,2.3226,slope,18.0,0,4.789
4640,148.48,8.6157,-1.0438,2.0604,-3.0160,-0.1397,2.2721,rough,14.0,0,4.774
4650,148.80,8.6157,-1.0103,2.0610,-2.9891,-0.1340,2.2383,slope,18.0,0,4.798
4660,149.12,8.6305,-1.0165,2.0563,-3.0222,-0.1384,2.3017,rough,14.0,0,4.804
4670,149.44,8.6207,-1.0155,2.0555,-3.0127,-0.1477,2.3237,slope,18.0,0,4.798
4680,149.76,8.6188,-1.0203,2.0582,-3.0131,-0.1473,2.3783,slope,18.0,0,4.793
4690,150.08,8.6156,-1.0267,2.0562,-3.0213,-0.1420,2.4281,slope,18.0,0,4.786
4700,150.40,8.6311,-1.0053,2.0557,-3.0263,-0.1351,2.2615,slope,18.0,0,4.812
4710,150.72,8.6134,-1.0313,2.0574,-3.0066,-0.1589,2.2977,rough,14.0,0,4.781
4720,151.04,8.6096,-1.0253,2.0600,-2.9774,-0.1647,2.2460,slope,18.0,0,4.783
4730,151.36,8.6135,-1.0195,2.0569,-3.0050,-0.1565,2.2735,rough,14.0,0,4.790
4740,151.68,8.6175,-1.0211,2.0546,-3.0262,-0.1367,2.3473,rough,14.0,0,4.791
4750,152.00,8.6213,-1.0138,2.0555,-3.0195,-0.1339,2.3210,rough,14.0,0,4.799
4760,152.32,8.6206,-1.0118,2.0577,-3.0173,-0.1331,2.3285,slope,18.0,0,4.800
4770,152.64,8.6286,-1.0058,2.0578,-3.0288,-0.1258,2.2546,rough,14.0,0,4.810
4780,152.96,8.6147,-1.0013,2.0604,-2.9937,-0.1498,2.2588,rough,14.0,0,4.804
4790,153.28,8.6272,-1.0340,2.0578,-3.0188,-0.1448,2.3212,rough,14.0,0,4.788
4800,153.60,8.6150,-1.0177,2.0551,-3.0117,-0.1590,2.3412,rough,14.0,0,4.792
4810,153.92,8.6239,-1.0168,2.0579,-3.0231,-0.1372,2.3359,slope,18.0,0,4.799
4820,154.24,8.6196,-1.0283,2.0548,-3.0116,-0.1649,2.3090,rough,14.0,0,4.787
4830,154.56,8.6272,-1.0182,2.0536,-3.0127,-0.1233,2.2350,rough,14.0,0,4.800
4840,154.88,8.6097,-1.0217,2.0560,-3.0089,-0.1563,2.3555,rough,14.0,0,4.786
4850,155.20,8.6287,-1.0260,2.0605,-2.9878,-0.1508,2.2302,rough,14.0,0,4.795
4860,155.52,8.6371,-0.9980,2.0585,-3.0417,-0.1243,2.2981,rough,14.0,0,4.821
4870,155.84,8.6178,-1.0144,2.0533,-3.0212,-0.1349,2.3593,rough,14.0,0,4.796
4880,156.16,8.6098,-1.0171,2.0560,-3.0047,-0.1667,2.4251,rough,14.0,0,4.789
4890,156.48,8.6350,-1.0245,2.0560,-3.0289,-0.1264,2.2551,rough,14.0,0,4.801
4900,156.80,8.6251,-0.9941,2.0600,-3.0368,-0.1305,2.3618,rough,14.0,0,4.816
4910,157.12,8.6234,-1.0136,2.0585,-3.0232,-0.1307,2.3574,rough,14.0,0,4.801
4920,157.44,8.6269,-1.0235,2.0555,-3.0267,-0.1374,2.2814,rough,14.0,0,4.796
4930,157.76,8.6190,-1.0315,2.0630,-3.0054,-0.1252,2.2584,rough,14.0,0,4.785
4940,158.08,8.6168,-1.0059,2.0560,-3.0223,-0.1520,2.3498,slope,18.0,0,4.802
4950,158.40,8.6153,-1.0066,2.0557,-3.0178,-0.1290,2.3316,rough,14.0,0,4.800
4960,158.72,8.6204,-1.0313,2.0521,-3.0194,-0.1854,2.2757,rough,14.0,0,4.786
4970,159.04,8.6177,-1.0133,2.0521,-3.0378,-0.1390,2.3281,slope,18.0,0,4.797
4980,159.36,8.6222,-1.0135,2.0588,-3.0160,-0.1362,2.3888,rough,14.0,0,4.800
4990,159.68,8.6194,-1.0155,2.0532,-3.0096,-0.1293,2.2414,slope,18.0,0,4.797
5000,160.00,8.6169,-1.0204,2.0559,-3.0100,-0.1536,2.3416,rough,14.0,0,4.791
5010,160.32,8.6248,-1.0125,2.0553,-3.0274,-0.1263,2.2888,slope,18.0,0,4.803
5020,160.64,8.6212,-0.9985,2.0569,-3.0244,-0.1445,2.2749,slope,18.0,0,4.810
5030,160.96,8.6014,-1.0247,2.0601,-2.9819,-0.1630,2.3291,rough,14.0,0,4.778
5040,161.28,8.6261,-1.0142,2.0495,-3.0214,-0.1820,2.2273,rough,14.0,0,4.802
5050,161.60,8.6240,-1.0096,2.0527,-3.0440,-0.1126,2.3594,slope,18.0,0,4.804
5060,161.92,8.6268,-0.9996,2.0580,-3.0290,-0.1353,2.3179,rough,14.0,0,4.813
5070,162.24,8.6116,-1.0125,2.0543,-3.0114,-0.1444,2.2899,slope,18.0,0,4.793
5080,162.56,8.6177,-1.0053,2.0502,-3.0156,-0.1687,2.2749,rough,14.0,0,4.803
5090,162.88,8.6160,-1.0103,2.0572,-3.0173,-0.1407,2.3715,slope,18.0,0,4.798
5100,163.20,8.6348,-1.0368,2.0585,-3.0259,-0.1386,2.3437,rough,14.0,0,4.792
5110,163.52,8.6252,-1.0059,2.0518,-3.0320,-0.1482,2.3954,slope,18.0,0,4.808
5120,163.84,8.6321,-1.0286,2.0580,-3.0007,-0.1531,2.2297,rough,14.0,0,4.796
5130,164.16,8.6242,-1.0277,2.0578,-3.0072,-0.1529,2.2826,rough,14.0,0,4.791
5140,164.48,8.6110,-1.0095,2.0597,-3.0082,-0.1192,2.2712,rough,14.0,0,4.795
5150,164.80,8.6146,-1.0151,2.0585,-3.0127,-0.1309,2.3117,rough,14.0,0,4.794
5160,165.12,8.6329,-1.0326,2.0548,-3.0155,-0.1608,2.3592,rough,14.0,0,4.793
5170,165.44,8.6226,-1.0382,2.0591,-3.0016,-0.1368,2.3770,rough,14.0,0,4.782
5180,165.76,8.6204,-1.0264,2.0579,-3.0048,-0.1345,2.3555,rough,14.0,0,4.789
5190,166.08,8.6293,-1.0221,2.0558,-3.0147,-0.1442,2.2819,rough,14.0,0,4.799
5200,166.40,8.6244,-0.9985,2.0572,-3.0520,-0.1249,2.3685,slope,18.0,0,4.812
5210,166.72,8.6354,-1.0014,2.0593,-3.0361,-0.1136,2.3117,rough,14.0,0,4.818
5220,167.04,8.6214,-1.0160,2.0560,-3.0206,-0.1332,2.3329,rough,14.0,0,4.798
5230,167.36,8.6203,-1.0149,2.0555,-3.0184,-0.1374,2.3153,rough,14.0,0,4.798
5240,167.68,8.6183,-1.0177,2.0584,-3.0106,-0.1440,2.3742,rough,14.0,0,4.794
5250,168.00,8.6065,-1.0275,2.0584,-3.0051,-0.1531,2.3561,slope,18.0,0,4.779
5260,168.32,8.6189,-1.0089,2.0558,-3.0197,-0.1222,2.2556,rough,14.0,0,4.801
5270,168.64,8.6184,-1.0242,2.0574,-3.0057,-0.1588,2.2699,rough,14.0,0,4.790
5280,168.96,8.6151,-1.0109,2.0567,-3.0076,-0.1478,2.3526,slope,18.0,0,4.797
5290,169.28,8.6231,-1.0162,2.0571,-2.9980,-0.1485,2.2285,rough,14.0,0,4.799
5300,169.60,8.6175,-1.0233,2.0583,-2.9999,-0.1280,2.3739,rough,14.0,0,4.790
5310,169.92,8.6261,-1.0413,2.0592,-3.0106,-0.1566,2.3833,rough,14.0,0,4.782
5320,170.24,8.6110,-1.0222,2.0585,-3.0213,-0.1708,2.3551,slope,18.0,0,4.786
5330,170.56,8.6245,-1.0259,2.0567,-3.0229,-0.1362,2.3328,rough,14.0,0,4.793
5340,170.88,8.6128,-1.0109,2.0553,-3.0113,-0.1526,2.3490,slope,18.0,0,4.795
5350,171.20,8.6283,-1.0198,2.0521,-3.0414,-0.1386,2.3519,rough,14.0,0,4.800
5360,171.52,8.6272,-1.0392,2.0594,-3.0132,-0.1478,2.3364,rough,14.0,0,4.785
5370,171.84,8.6349,-1.0117,2.0551,-3.0240,-0.1302,2.2567,rough,14.0,0,4.810
5380,172.16,8.6141,-1.0146,2.0580,-2.9960,-0.1317,2.3783,slope,18.0,0,4.794
5390,172.48,8.6366,-1.0349,2.0579,-3.0208,-0.1524,2.3605,rough,14.0,0,4.794
5400,172.80,8.6281,-0.9977,2.0573,-3.0308,-0.1414,2.3546,rough,14.0,0,4.816
5410,173.12,8.6173,-1.0147,2.0575,-3.0072,-0.1447,2.2856,rough,14.0,0,4.796
5420,173.44,8.6173,-1.0146,2.0557,-3.0189,-0.1493,2.3304,rough,14.0,0,4.796
5430,173.76,8.6277,-1.0115,2.0558,-3.0164,-0.1191,2.2580,rough,14.0,0,4.805
5440,174.08,8.6250,-1.0184,2.0591,-3.0247,-0.1298,2.3883,slope,18.0,0,4.798
5450,174.40,8.6245,-1.0239,2.0583,-3.0138,-0.1320,2.2525,slope,18.0,0,4.794
5460,174.72,8.6234,-1.0202,2.0582,-3.0088,-0.1522,2.3238,slope,18.0,0,4.796
5470,175.04,8.6190,-1.0143,2.0599,-2.9937,-0.1404,2.2215,slope,18.0,0,4.797
5480,175.36,8.6204,-1.0109,2.0563,-3.0152,-0.1302,2.2837,slope,18.0,0,4.801
5490,175.68,8.6233,-1.0271,2.0572,-3.0143,-0.1517,2.3372,rough,14.0,0,4.791
5500,176.00,8.6127,-1.0116,2.0593,-3.0157,-0.1652,2.3565,slope,18.0,0,4.795
5510,176.32,8.6255,-1.0218,2.0561,-3.0163,-0.1489,2.2785,rough,14.0,0,4.796
5520,176.64,8.6188,-1.0083,2.0562,-3.0229,-0.1396,2.3095,rough,14.0,0,4.801
5530,176.96,8.6132,-1.0226,2.0586,-3.0172,-0.1547,2.4069,rough,14.0,0,4.787
5540,177.28,8.6346,-1.0384,2.0574,-3.0150,-0.1566,2.3288,rough,14.0,0,4.790
5550,177.60,8.6224,-1.0302,2.0598,-3.0050,-0.1411,2.2702,rough,14.0,0,4.788
5560,177.92,8.6196,-1.0322,2.0604,-3.0085,-0.1391,2.2981,rough,14.0,0,4.785
5570,178.24,8.6235,-1.0290,2.0572,-3.0121,-0.1645,2.3811,rough,14.0,0,4.790
5580,178.56,8.6288,-1.0168,2.0526,-3.0454,-0.1239,2.3344,rough,14.0,0,4.802
5590,178.88,8.6071,-1.0047,2.0574,-3.0372,-0.1810,2.3537,rough,14.0,0,4.796
5600,179.20,8.6230,-1.0138,2.0511,-3.0412,-0.1371,2.2876,rough,14.0,0,4.800
5610,179.52,8.6234,-1.0373,2.0607,-3.0120,-0.1353,2.2732,rough,14.0,0,4.783
5620,179.84,8.6262,-1.0215,2.0576,-3.0260,-0.1405,2.3223,rough,14.0,0,4.797
5630,180.16,8.6358,-1.0178,2.0573,-3.0265,-0.1197,2.2590,rough,14.0,0,4.806
5640,180.48,8.6146,-1.0162,2.0533,-3.0133,-0.1491,2.3322,slope,18.0,0,4.793
5650,180.80,8.6046,-1.0130,2.0549,-3.0116,-0.1566,2.3554,slope,18.0,0,4.788
5660,181.12,8.6145,-1.0124,2.0545,-2.9852,-0.1871,2.1856,rough,14.0,0,4.796
5670,181.44,8.6193,-1.0065,2.0532,-3.0330,-0.1442,2.2266,slope,18.0,0,4.803
5680,181.76,8.6438,-1.0312,2.0574,-3.0295,-0.1346,2.2087,rough,14.0,0,4.802
5690,182.08,8.6237,-1.0191,2.0552,-3.0209,-0.1354,2.2856,slope,18.0,0,4.797
5700,182.40,8.6190,-0.9963,2.0555,-3.0274,-0.1263,2.3210,slope,18.0,0,4.810
5710,182.72,8.6424,-1.0584,2.0633,-3.0205,-0.1454,2.3644,rough,14.0,0,4.781
5720,183.04,8.6493,-1.0673,2.0624,-3.0060,-0.1327,2.2629,rough,14.0,0,4.780
5730,183.36,8.6080,-1.0151,2.0550,-3.0220,-0.1377,2.3631,rough,14.0,0,4.789
5740,183.68,8.6248,-1.0221,2.0539,-3.0106,-0.1531,2.2769,rough,14.0,0,4.796
5750,184.00,8.6230,-1.0176,2.0547,-3.0283,-0.1316,2.3007,rough,14.0,0,4.798
5760,184.32,8.6208,-1.0304,2.0515,-3.0174,-0.1837,2.2271,rough,14.0,0,4.787
5770,184.64,8.6219,-1.0062,2.0607,-3.0153,-0.1380,2.3355,rough,14.0,0,4.805
5780,184.96,8.6146,-1.0079,2.0546,-3.0148,-0.1432,2.3030,rough,14.0,0,4.799
5790,185.28,8.6256,-1.0127,2.0560,-3.0166,-0.1325,2.2652,rough,14.0,0,4.803
5800,185.60,8.6160,-1.0120,2.0495,-3.0278,-0.1657,2.2427,rough,14.0,0,4.797
5810,185.92,8.6217,-1.0129,2.0562,-3.0115,-0.1331,2.2693,rough,14.0,0,4.800
5820,186.24,8.6199,-1.0092,2.0593,-3.0300,-0.1429,2.3657,slope,18.0,0,4.802
5830,186.56,8.6258,-1.0101,2.0572,-3.0425,-0.1340,2.3523,rough,14.0,0,4.805
5840,186.88,8.6212,-1.0196,2.0539,-3.0266,-0.1437,2.3130,rough,14.0,0,4.795
5850,187.20,8.6114,-1.0228,2.0575,-3.0111,-0.1549,2.3842,rough,14.0,0,4.786
5860,187.52,8.6192,-1.0063,2.0552,-3.0172,-0.1343,2.3243,slope,18.0,0,4.803
5870,187.84,8.6087,-1.0103,2.0555,-3.0003,-0.1632,2.2129,slope,18.0,0,4.793
5880,188.16,8.6225,-1.0167,2.0547,-3.0258,-0.1408,2.2641,rough,14.0,0,4.798
5890,188.48,8.6219,-1.0149,2.0574,-3.0172,-0.1333,2.3259,rough,14.0,0,4.799
5900,188.80,8.6228,-1.0280,2.0582,-3.0191,-0.1572,2.3664,rough,14.0,0,4.790
5910,189.12,8.6247,-1.0194,2.0564,-3.0170,-0.1398,2.2849,rough,14.0,0,4.797
5920,189.44,8.6301,-1.0165,2.0560,-3.0178,-0.1282,2.2404,rough,14.0,0,4.803
5930,189.76,8.6226,-1.0148,2.0517,-3.0046,-0.1911,2.3742,rough,14.0,0,4.799
5940,190.08,8.6304,-1.0242,2.0577,-3.0037,-0.1464,2.2605,rough,14.0,0,4.798
5950,190.40,8.6160,-1.0258,2.0570,-3.0031,-0.1635,2.4224,rough,14.0,0,4.787
5960,190.72,8.6248,-1.0123,2.0543,-3.0223,-0.1377,2.2755,slope,18.0,0,4.803
5970,191.04,8.6190,-1.0274,2.0612,-3.0001,-0.1307,2.2609,rough,14.0,0,4.788
5980,191.36,8.6228,-1.0205,2.0537,-3.0063,-0.1481,2.3059,slope,18.0,0,4.795
5990,191.68,8.6330,-1.0090,2.0561,-3.0295,-0.1138,2.2325,rough,14.0,0,4.811
6000,192.00,8.6180,-1.0215,2.0592,-3.0092,-0.1358,2.3588,rough,14.0,0,4.791
6010,192.32,8.6223,-1.0218,2.0555,-3.0130,-0.1510,2.3199,slope,18.0,0,4.794
6020,192.64,8.6039,-0.9921,2.0611,-3.0227,-0.1532,2.3410,rough,14.0,0,4.803
6030,192.96,8.6206,-1.0099,2.0531,-3.0486,-0.1225,2.3917,rough,14.0,0,4.802
6040,193.28,8.6166,-1.0100,2.0536,-3.0070,-0.1331,2.2791,rough,14.0,0,4.799
6050,193.60,8.6276,-1.0151,2.0579,-3.0225,-0.1267,2.3171,rough,14.0,0,4.803
6060,193.92,8.6384,-1.0232,2.0585,-3.0326,-0.1215,2.3137,rough,14.0,0,4.804
6070,194.24,8.6170,-1.0191,2.0577,-3.0143,-0.1511,2.3683,rough,14.0,0,4.792
6080,194.56,8.6348,-1.0205,2.0597,-3.0186,-0.1250,2.3428,slope,18.0,0,4.804
6090,194.88,8.5961,-1.0230,2.0627,-2.9785,-0.1586,2.2997,rough,14.0,0,4.775
6100,195.20,8.6133,-1.0138,2.0538,-3.0121,-0.1539,2.3039,slope,18.0,0,4.794
6110,195.52,8.6199,-1.0096,2.0531,-3.0101,-0.1536,2.3534,slope,18.0,0,4.801
6120,195.84,8.6211,-1.0204,2.0554,-3.0158,-0.1511,2.3059,rough,14.0,0,4.794
6130,196.16,8.6240,-1.0144,2.0591,-3.0236,-0.1114,2.1962,rough,14.0,0,4.801
6140,196.48,8.6288,-1.0149,2.0487,-3.0304,-0.1700,2.2183,rough,14.0,0,4.804
6150,196.80,8.6193,-1.0150,2.0592,-3.0241,-0.1093,2.2316,rough,14.0,0,4.797
6160,197.12,8.6309,-1.0414,2.0603,-3.0209,-0.1320,2.2947,rough,14.0,0,4.786
6170,197.44,8.6225,-1.0239,2.0572,-3.0176,-0.1393,2.3510,rough,14.0,0,4.793
6180,197.76,8.6204,-1.0192,2.0568,-3.0210,-0.1378,2.3677,slope,18.0,0,4.795
6190,198.08,8.6112,-1.0141,2.0579,-3.0123,-0.1449,2.2917,rough,14.0,0,4.792
6200,198.40,8.6136,-1.0093,2.0557,-3.0153,-0.1421,2.3026,slope,18.0,0,4.797
6210,198.72,8.6293,-1.0433,2.0592,-3.0102,-0.1562,2.3029,rough,14.0,0,4.783
6220,199.04,8.6239,-1.0000,2.0546,-3.0261,-0.1578,2.3734,rough,14.0,0,4.811
6230,199.36,8.6326,-1.0212,2.0575,-3.0159,-0.1259,2.2793,rough,14.0,0,4.801
6240,199.68,8.6240,-1.0293,2.0569,-3.0186,-0.1480,2.3703,slope,18.0,0,4.790
6250,200.00,8.6226,-1.0141,2.0534,-3.0010,-0.1277,2.2697,slope,18.0,0,4.800
6260,200.32,8.6155,-1.0089,2.0548,-3.0114,-0.1459,2.3205,rough,14.0,0,4.799
6270,200.64,8.6049,-1.0129,2.0543,-3.0111,-0.1551,2.3412,rough,14.0,0,4.789
6280,200.96,8.6261,-1.0191,2.0574,-3.0181,-0.1469,2.3222,slope,18.0,0,4.799
6290,201.28,8.6251,-1.0099,2.0555,-3.0287,-0.1244,2.3019,rough,14.0,0,4.805
6300,201.60,8.6260,-1.0238,2.0551,-3.0162,-0.1578,2.3416,rough,14.0,0,4.795
6310,201.92,8.6150,-1.0203,2.0562,-3.0312,-0.1194,2.3146,slope,18.0,0,4.790
6320,202.24,8.6196,-1.0112,2.0530,-3.0112,-0.1678,2.3591,slope,18.0,0,4.800
6330,202.56,8.6130,-1.0109,2.0553,-2.9986,-0.1339,2.2786,slope,18.0,0,4.796
6340,202.88,8.6183,-1.0373,2.0595,-3.0157,-0.1413,2.3187,rough,14.0,0,4.780
6350,203.20,8.6246,-1.0160,2.0547,-3.0159,-0.1248,2.2638,slope,18.0,0,4.800
6360,203.52,8.6234,-1.0116,2.0536,-3.0370,-0.1166,2.3389,rough,14.0,0,4.802
6370,203.84,8.6093,-1.0106,2.0555,-3.0380,-0.1684,2.3447,slope,18.0,0,4.793
6380,204.16,8.6334,-1.0262,2.0557,-3.0289,-0.1322,2.2594,rough,14.0,0,4.798
6390,204.48,8.6315,-1.0183,2.0591,-3.0130,-0.1230,2.3342,slope,18.0,0,4.803
6400,204.80,8.6110,-1.0070,2.0579,-3.0071,-0.1388,2.2711,rough,14.0,0,4.797
6410,205.12,8.6240,-1.0250,2.0555,-3.0196,-0.1507,2.2685,slope,18.0,0,4.793
6420,205.44,8.6270,-1.0197,2.0563,-3.0200,-0.1394,2.2702,slope,18.0,0,4.799
6430,205.76,8.6123,-1.0187,2.0591,-3.0013,-0.1446,2.2559,rough,14.0,0,4.790
6440,206.08,8.6223,-1.0193,2.0554,-3.0117,-0.1496,2.3041,slope,18.0,0,4.796
6450,206.40,8.6198,-1.0083,2.0592,-2.9958,-0.1394,2.2361,rough,14.0,0,4.802
6460,206.72,8.6195,-1.0287,2.0560,-2.9935,-0.1348,2.3560,slope,18.0,0,4.787
6470,207.04,8.6124,-1.0018,2.0550,-3.0236,-0.1311,2.3383,rough,14.0,0,4.802
6480,207.36,8.6229,-1.0213,2.0576,-3.0195,-0.1343,2.3417,rough,14.0,0,4.795
6490,207.68,8.6197,-1.0296,2.0596,-3.0009,-0.1373,2.3262,rough,14.0,0,4.787
6500,208.00,8.6308,-1.0267,2.0554,-3.0128,-0.1610,2.3268,rough,14.0,0,4.796
6510,208.32,8.6246,-1.0186,2.0557,-3.0236,-0.1327,2.3251,rough,14.0,0,4.798
6520,208.64,8.6195,-1.0172,2.0550,-2.9978,-0.1769,2.3162,slope,18.0,0,4.796
6530,208.96,8.6202,-1.0245,2.0546,-3.0099,-0.1702,2.3439,rough,14.0,0,4.791
6540,209.28,8.6179,-1.0213,2.0563,-3.0167,-0.1475,2.3569,rough,14.0,0,4.791
6550,209.60,8.6150,-1.0225,2.0572,-3.0109,-0.1509,2.3769,rough,14.0,0,4.789
6560,209.92,8.6311,-1.0023,2.0593,-3.0356,-0.1090,2.3734,rough,14.0,0,4.814
6570,210.24,8.6203,-1.0106,2.0537,-3.0211,-0.1383,2.2609,slope,18.0,0,4.801
6580,210.56,8.6182,-1.0145,2.0558,-3.0142,-0.1451,2.3152,rough,14.0,0,4.797
6590,210.88,8.6168,-1.0330,2.0620,-2.9939,-0.1374,2.3740,slope,18.0,0,4.782
6600,211.20,8.6609,-1.0896,2.0663,-3.0100,-0.1398,2.3325,rough,14.0,0,4.772
6610,211.52,8.6596,-1.0837,2.0670,-3.0218,-0.1216,2.2890,rough,14.0,0,4.775
6620,211.84,8.6464,-1.0625,2.0601,-3.0164,-0.1564,2.3368,rough,14.0,0,4.781
6630,212.16,8.6110,-1.0101,2.0569,-3.0025,-0.1559,2.3686,rough,14.0,0,4.795
6640,212.48,8.6242,-1.0198,2.0551,-3.0208,-0.1457,2.2750,rough,14.0,0,4.797
6650,212.80,8.6225,-1.0179,2.0545,-3.0191,-0.1477,2.2300,rough,14.0,0,4.797
6660,213.12,8.6131,-1.0124,2.0564,-3.0097,-0.1454,2.3226,slope,18.0,0,4.795
6670,213.44,8.6303,-1.0281,2.0554,-3.0163,-0.1525,2.3141,rough,14.0,0,4.795
6680,213.76,8.6333,-1.0354,2.0590,-3.0150,-0.1362,2.3437,rough,14.0,0,4.792
6690,214.08,8.6264,-1.0403,2.0557,-3.0239,-0.1541,2.3263,rough,14.0,0,4.783
6700,214.40,8.6201,-1.0147,2.0508,-3.0304,-0.1602,2.3148,rough,14.0,0,4.798
6710,214.72,8.6277,-1.0210,2.0519,-2.9982,-0.1340,2.2529,slope,18.0,0,4.798
6720,215.04,8.6263,-1.0272,2.0549,-3.0348,-0.1304,2.3391,rough,14.0,0,4.793
6730,215.36,8.6279,-1.0174,2.0574,-3.0180,-0.1282,2.1946,rough,14.0,0,4.801
6740,215.68,8.6254,-1.0113,2.0543,-3.0297,-0.1287,2.2799,rough,14.0,0,4.804
6750,216.00,8.6193,-1.0347,2.0569,-3.0148,-0.1569,2.3434,rough,14.0,0,4.783
6760,216.32,8.6197,-1.0183,2.0507,-3.0427,-0.1423,2.3253,slope,18.0,0,4.795
6770,216.64,8.6179,-1.0181,2.0564,-3.0238,-0.1516,2.3292,rough,14.0,0,4.794
6780,216.96,8.6307,-1.0203,2.0553,-3.0248,-0.1400,2.2717,rough,14.0,0,4.801
6790,217.28,8.6318,-1.0232,2.0587,-3.0109,-0.1345,2.2992,slope,18.0,0,4.800
6800,217.60,8.6108,-1.0195,2.0544,-3.0079,-0.1727,2.3695,slope,18.0,0,4.788
6810,217.92,8.6248,-1.0186,2.0548,-3.0282,-0.1345,2.2833,rough,14.0,0,4.798
6820,218.24,8.6201,-1.0334,2.0568,-3.0107,-0.1425,2.3595,rough,14.0,0,4.784
6830,218.56,8.6263,-1.0170,2.0562,-3.0145,-0.1443,2.2569,rough,14.0,0,4.800
6840,218.88,8.6230,-1.0095,2.0565,-3.0217,-0.1169,2.2745,rough,14.0,0,4.803
6850,219.20,8.6354,-1.0404,2.0610,-3.0176,-0.1297,2.3333,rough,14.0,0,4.789
6860,219.52,8.6199,-1.0244,2.0551,-3.0092,-0.1705,2.3477,rough,14.0,0,4.790
6870,219.84,8.6166,-1.0263,2.0578,-3.0114,-0.1424,2.3844,rough,14.0,0,4.787
6880,220.16,8.6129,-1.0138,2.0564,-3.0109,-0.1422,2.3146,slope,18.0,0,4.794
6890,220.48,8.6215,-1.0233,2.0534,-3.0046,-0.1291,2.2848,rough,14.0,0,4.792
6900,220.80,8.6230,-1.0254,2.0577,-3.0368,-0.1163,2.2435,slope,18.0,0,4.792
6910,221.12,8.6201,-1.0239,2.0558,-3.0172,-0.1507,2.2870,rough,14.0,0,4.791
6920,221.44,8.6139,-1.0103,2.0461,-3.0137,-0.1692,2.1874,slope,18.0,0,4.797
6930,221.76,8.6194,-1.0135,2.0534,-3.0172,-0.1542,2.2623,slope,18.0,0,4.798
6940,222.08,8.6134,-1.0099,2.0528,-3.0249,-0.1363,2.3105,slope,18.0,0,4.797
6950,222.40,8.6161,-1.0156,2.0587,-3.0046,-0.1415,2.2503,slope,18.0,0,4.794
6960,222.72,8.6266,-1.0229,2.0561,-3.0196,-0.0948,2.1959,rough,14.0,0,4.796
6970,223.04,8.6259,-1.0156,2.0562,-3.0219,-0.1452,2.3481,rough,14.0,0,4.801
6980,223.36,8.6256,-1.0099,2.0549,-3.0234,-0.1303,2.2929,rough,14.0,0,4.805
6990,223.68,8.6194,-1.0021,2.0611,-2.9806,-0.1529,2.2142,rough,14.0,0,4.806
7000,224.00,8.6230,-1.0145,2.0558,-3.0247,-0.1408,2.3134,slope,18.0,0,4.800
7010,224.32,8.6224,-1.0129,2.0532,-3.0266,-0.1585,2.3814,slope,18.0,0,4.801
7020,224.64,8.6185,-1.0195,2.0540,-3.0166,-0.1550,2.2607,rough,14.0,0,4.793
7030,224.96,8.6230,-1.0161,2.0585,-3.0061,-0.1409,2.2950,slope,18.0,0,4.799
7040,225.28,8.6121,-1.0040,2.0574,-3.0259,-0.1496,2.3732,slope,18.0,0,4.800
7050,225.60,8.6276,-1.0138,2.0554,-3.0189,-0.1360,2.2763,rough,14.0,0,4.804
7060,225.92,8.6229,-1.0223,2.0570,-3.0114,-0.1340,2.3003,rough,14.0,0,4.794
7070,226.24,8.6357,-1.0180,2.0564,-3.0204,-0.1282,2.2584,rough,14.0,0,4.806
7080,226.56,8.6221,-1.0208,2.0563,-3.0142,-0.1426,2.2769,rough,14.0,0,4.795
7090,226.88,8.6158,-1.0177,2.0600,-2.9968,-0.1390,2.3356,rough,14.0,0,4.793
7100,227.20,8.6301,-1.0100,2.0566,-3.0139,-0.1275,2.1902,rough,14.0,0,4.808
7110,227.52,8.6130,-1.0045,2.0593,-3.0136,-0.1410,2.3768,rough,14.0,0,4.800
7120,227.84,8.6176,-1.0074,2.0574,-3.0132,-0.1317,2.2658,rough,14.0,0,4.801
7130,228.16,8.6237,-1.0093,2.0558,-3.0282,-0.1205,2.3292,rough,14.0,0,4.804
7140,228.48,8.6256,-1.0105,2.0537,-3.0279,-0.1338,2.2497,rough,14.0,0,4.805
7150,228.80,8.6160,-1.0268,2.0572,-3.0098,-0.1555,2.3678,rough,14.0,0,4.786
7160,229.12,8.6201,-1.0153,2.0567,-3.0184,-0.1323,2.2755,rough,14.0,0,4.797
7170,229.44,8.6146,-1.0084,2.0564,-3.0201,-0.1371,2.3520,slope,18.0,0,4.799
7180,229.76,8.6285,-1.0274,2.0578,-3.0165,-0.1463,2.3258,rough,14.0,0,4.794
7190,230.08,8.6410,-1.0573,2.0620,-3.0188,-0.1390,2.3476,rough,14.0,0,4.781
7200,230.40,8.6175,-1.0169,2.0506,-3.0276,-0.1562,2.3010,rough,14.0,0,4.794
7210,230.72,8.6187,-1.0209,2.0545,-3.0066,-0.1260,2.2970,slope,18.0,0,4.792
7220,231.04,8.6133,-1.0048,2.0538,-3.0122,-0.1188,2.3198,slope,18.0,0,4.800
7230,231.36,8.6359,-1.0291,2.0567,-3.0110,-0.1329,2.2793,rough,14.0,0,4.798
7240,231.68,8.6453,-1.0521,2.0595,-3.0196,-0.1410,2.3021,rough,14.0,0,4.788
7250,232.00,8.6208,-1.0324,2.0568,-3.0139,-0.1601,2.3643,rough,14.0,0,4.785
7260,232.32,8.6201,-1.0115,2.0545,-3.0214,-0.1426,2.2953,slope,18.0,0,4.800
7270,232.64,8.6244,-1.0124,2.0557,-3.0232,-0.1294,2.3099,rough,14.0,0,4.802
7280,232.96,8.6177,-1.0118,2.0536,-2.9976,-0.1445,2.3556,slope,18.0,0,4.798
7290,233.28,8.6184,-1.0161,2.0573,-3.0097,-0.1402,2.3395,rough,14.0,0,4.796
7300,233.60,8.6290,-1.0201,2.0532,-3.0363,-0.1350,2.3163,rough,14.0,0,4.800
7310,233.92,8.6308,-1.0213,2.0533,-3.0178,-0.1478,2.2880,rough,14.0,0,4.800
7320,234.24,8.6137,-1.0143,2.0537,-3.0232,-0.1510,2.2962,slope,18.0,0,4.794
7330,234.56,8.6180,-1.0240,2.0568,-3.0044,-0.1309,2.3385,rough,14.0,0,4.789
7340,234.88,8.6231,-1.0187,2.0563,-3.0107,-0.1470,2.2492,rough,14.0,0,4.797
7350,235.20,8.6274,-1.0115,2.0548,-3.0237,-0.1321,2.2480,rough,14.0,0,4.805
7360,235.52,8.6149,-1.0192,2.0538,-3.0188,-0.1539,2.3664,rough,14.0,0,4.791
7370,235.84,8.5957,-1.0385,2.0626,-2.9445,-0.1480,2.2449,slope,18.0,0,4.764
7380,236.16,8.6417,-1.0458,2.0636,-3.0201,-0.1386,2.3718,rough,14.0,0,4.790
7390,236.48,8.6229,-1.0287,2.0559,-3.0223,-0.1387,2.3400,rough,14.0,0,4.789
7400,236.80,8.6125,-1.0181,2.0528,-3.0085,-0.1276,2.3094,slope,18.0,0,4.790
7410,237.12,8.6211,-1.0175,2.0539,-3.0220,-0.1535,2.2210,rough,14.0,0,4.796
7420,237.44,8.6139,-1.0149,2.0565,-2.9732,-0.1173,2.1977,rough,14.0,0,4.793
7430,237.76,8.6288,-1.0266,2.0567,-3.0282,-0.1466,2.2697,rough,14.0,0,4.795
7440,238.08,8.6492,-1.0718,2.0636,-3.0115,-0.1443,2.3495,rough,14.0,0,4.776
7450,238.40,8.6388,-1.0537,2.0620,-3.0112,-0.1522,2.3820,rough,14.0,0,4.782
7460,238.72,8.6137,-0.9856,2.0640,-2.9997,-0.1649,2.2642,rough,14.0,0,4.815
7470,239.04,8.6174,-1.0200,2.0589,-3.0237,-0.1528,2.3770,slope,18.0,0,4.792
7480,239.36,8.6202,-1.0289,2.0606,-2.9948,-0.1410,2.2595,rough,14.0,0,4.787
7490,239.68,8.6230,-1.0222,2.0566,-3.0193,-0.1392,2.2830,rough,14.0,0,4.794
7500,240.00,8.6235,-1.0271,2.0603,-3.0086,-0.1322,2.3923,rough,14.0,0,4.791
7510,240.32,8.6290,-1.0031,2.0552,-3.0259,-0.1417,2.3065,rough,14.0,0,4.812
7520,240.64,8.6205,-1.0385,2.0562,-2.9982,-0.1446,2.3504,rough,14.0,0,4.781
7530,240.96,8.6195,-1.0114,2.0542,-3.0279,-0.1249,2.3268,rough,14.0,0,4.800
7540,241.28,8.6224,-1.0155,2.0539,-3.0074,-0.1242,2.2425,rough,14.0,0,4.799
7550,241.60,8.6211,-1.0245,2.0549,-3.0158,-0.1542,2.2739,rough,14.0,0,4.791
7560,241.92,8.6184,-1.0146,2.0520,-3.0364,-0.1349,2.3052,rough,14.0,0,4.797
7570,242.24,8.6195,-1.0028,2.0550,-3.0239,-0.1238,2.3400,rough,14.0,0,4.806
7580,242.56,8.6147,-1.0141,2.0533,-3.0090,-0.1382,2.3197,slope,18.0,0,4.794
7590,242.88,8.6134,-1.0151,2.0567,-3.0165,-0.1385,2.3072,slope,18.0,0,4.793
7600,243.20,8.6182,-1.0141,2.0542,-3.0204,-0.1465,2.3510,rough,14.0,0,4.797
7610,243.52,8.6081,-1.0066,2.0600,-2.9986,-0.1604,2.4407,rough,14.0,0,4.795
7620,243.84,8.6228,-1.0169,2.0555,-3.0224,-0.1659,2.3576,rough,14.0,0,4.798
7630,244.16,8.6109,-1.0361,2.0575,-3.0234,-0.1718,2.4245,rough,14.0,0,4.776
7640,244.48,8.6151,-1.0070,2.0547,-3.0122,-0.1505,2.3377,rough,14.0,0,4.800
7650,244.80,8.6260,-1.0239,2.0611,-2.9754,-0.1751,2.1484,rough,14.0,0,4.795
7660,245.12,8.6238,-1.0052,2.0588,-3.0290,-0.1298,2.3465,slope,18.0,0,4.807
7670,245.44,8.6210,-1.0133,2.0521,-2.9945,-0.1121,2.2145,slope,18.0,0,4.799
7680,245.76,8.6201,-1.0179,2.0586,-3.0027,-0.1241,2.3910,rough,14.0,0,4.795
7690,246.08,8.6249,-1.0142,2.0573,-3.0045,-0.1394,2.2534,rough,14.0,0,4.801
7700,246.40,8.6174,-1.0102,2.0549,-3.0091,-0.1305,2.2957,slope,18.0,0,4.799
7710,246.72,8.6203,-1.0030,2.0594,-3.0362,-0.1459,2.3567,rough,14.0,0,4.806
7720,247.04,8.6138,-1.0224,2.0562,-3.0090,-0.1571,2.3712,slope,18.0,0,4.788
7730,247.36,8.6245,-1.0268,2.0583,-3.0053,-0.1444,2.2522,rough,14.0,0,4.792
7740,247.68,8.6231,-1.0091,2.0552,-3.0090,-0.1521,2.3079,rough,14.0,0,4.804
7750,248.00,8.6200,-1.0184,2.0575,-3.0124,-0.1355,2.3459,slope,18.0,0,4.795
7760,248.32,8.6149,-1.0146,2.0536,-3.0112,-0.1609,2.2567,rough,14.0,0,4.794
7770,248.64,8.6250,-1.0346,2.0589,-3.0134,-0.1462,2.3423,rough,14.0,0,4.787
7780,248.96,8.6245,-1.0160,2.0534,-3.0264,-0.1467,2.2246,rough,14.0,0,4.800
7790,249.28,8.6224,-1.0165,2.0580,-3.0226,-0.1391,2.3402,slope,18.0,0,4.798
7800,249.60,8.6146,-1.0227,2.0585,-2.9885,-0.1473,2.2729,rough,14.0,0,4.788
7810,249.92,8.6220,-1.0204,2.0530,-3.0121,-0.1689,2.2891,slope,18.0,0,4.795
7820,250.24,8.6301,-1.0337,2.0602,-3.0163,-0.1285,2.3604,slope,18.0,0,4.791
7830,250.56,8.6119,-1.0069,2.0564,-3.0127,-0.1455,2.3229,slope,18.0,0,4.798
7840,250.88,8.6372,-1.0275,2.0576,-3.0219,-0.1366,2.2634,rough,14.0,0,4.800
7850,251.20,8.6257,-1.0137,2.0591,-3.0353,-0.1413,2.3646,rough,14.0,0,4.802
7860,251.52,8.6172,-1.0122,2.0547,-3.0166,-0.1465,2.2631,rough,14.0,0,4.798
7870,251.84,8.6114,-1.0177,2.0541,-3.0235,-0.1444,2.3728,rough,14.0,0,4.790
7880,252.16,8.6168,-0.9939,2.0598,-2.9953,-0.1532,2.2817,slope,18.0,0,4.811
7890,252.48,8.6100,-1.0156,2.0546,-3.0180,-0.1575,2.3162,rough,14.0,0,4.790
7900,252.80,8.6258,-1.0305,2.0553,-3.0061,-0.1436,2.3091,slope,18.0,0,4.790
7910,253.12,8.6198,-0.9946,2.0558,-3.0246,-0.1386,2.3397,rough,14.0,0,4.812
7920,253.44,8.6142,-1.0235,2.0570,-3.0054,-0.1385,2.2767,rough,14.0,0,4.787
7930,253.76,8.6152,-1.0143,2.0559,-3.0135,-0.1451,2.3211,slope,18.0,0,4.795
7940,254.08,8.6236,-1.0194,2.0584,-3.0176,-0.1342,2.3385,slope,18.0,0,4.797
7950,254.40,8.6582,-1.0744,2.0659,-3.0163,-0.1292,2.3725,rough,14.0,0,4.781
