step,time_s,x,y,z,roll,pitch,yaw,terrain,speed,target_idx,dist_to_target
10,0.32,-1.2124,0.8840,0.1847,-0.0000,-0.0337,-0.0000,rough,14.0,0,8.497
20,0.64,-0.7711,0.8701,0.1794,-0.0001,0.0022,-0.1123,flat,18.0,0,8.152
30,0.96,-0.2370,0.7887,0.1799,-0.0001,0.0000,-0.2782,flat,18.0,0,7.703
40,1.28,0.2828,0.6222,0.1799,-0.0003,-0.0000,-0.3988,flat,18.0,0,7.216
50,1.60,0.7841,0.3942,0.1798,-0.0004,-0.0000,-0.4916,flat,18.0,0,6.705
60,1.92,1.2662,0.1201,0.1798,-0.0003,-0.0000,-0.5665,flat,18.0,0,6.178
70,2.24,1.7299,-0.1900,0.1797,-0.0002,-0.0000,-0.6280,flat,18.0,0,5.641
80,2.56,2.1759,-0.5285,0.1797,-0.0002,-0.0000,-0.6812,flat,18.0,0,5.097
90,2.88,2.6049,-0.8908,0.1797,-0.0002,-0.0000,-0.7288,flat,18.0,0,4.548
100,3.20,3.0169,-1.2735,0.1797,-0.0002,-0.0000,-0.7732,flat,18.0,0,3.995
110,3.52,3.4123,-1.6745,0.1797,-0.0001,-0.0000,-0.8153,flat,18.0,0,3.440
120,3.84,3.7900,-2.0919,0.1797,-0.0001,0.0000,-0.8576,flat,18.0,0,2.883
130,4.16,4.1496,-2.5239,0.1797,-0.0001,0.0000,-0.9002,flat,18.0,0,2.327
140,4.48,4.4898,-2.9706,0.1797,-0.0002,0.0000,-0.9474,flat,18.0,0,1.770
150,4.80,4.8077,-3.4333,0.1797,-0.0002,-0.0000,-1.0070,flat,18.0,0,1.213
160,5.12,5.0805,-3.8925,0.1797,-0.0002,0.0001,-1.1053,flat,18.0,1,12.104
170,5.44,5.1230,-4.1795,0.1799,-0.0003,-0.0001,-1.6158,flat,18.0,1,12.389
180,5.76,5.0623,-4.5329,0.1796,-0.0013,0.0002,-2.1563,flat,18.0,1,12.703
190,6.08,4.8082,-4.8079,0.1799,0.0001,-0.0000,-2.5505,flat,18.0,1,12.887
200,6.40,4.4371,-5.0101,0.1799,0.0000,-0.0001,-2.9127,flat,18.0,1,12.978
210,6.72,3.9738,-5.0904,0.1799,0.0000,-0.0000,3.0430,flat,18.0,1,12.942
220,7.04,3.4774,-5.0160,0.1799,-0.0000,-0.0000,2.7999,flat,18.0,1,12.765
230,7.36,2.9935,-4.8152,0.1799,-0.0001,-0.0000,2.6210,flat,18.0,1,12.482
240,7.68,2.5406,-4.5255,0.1799,-0.0002,-0.0000,2.4911,flat,18.0,1,12.131
250,8.00,2.1174,-4.1769,0.1798,-0.0004,-0.0000,2.4000,flat,18.0,1,11.738
260,8.32,1.7247,-3.7897,0.1798,-0.0003,-0.0000,2.3194,flat,18.0,1,11.322
270,8.64,1.3590,-3.3706,0.1798,-0.0003,-0.0000,2.2469,flat,18.0,1,10.886
280,8.96,1.0198,-2.9247,0.1797,-0.0002,-0.0000,2.1817,flat,18.0,1,10.434
290,9.28,0.7069,-2.4566,0.1797,-0.0002,-0.0000,2.1231,flat,18.0,1,9.971
300,9.60,0.4202,-1.9701,0.1797,-0.0002,-0.0000,2.0705,flat,18.0,1,9.499
310,9.92,0.1573,-1.4693,0.1797,-0.0002,-0.0000,2.0245,flat,18.0,1,9.020
320,10.24,-0.0840,-0.9571,0.1797,-0.0001,-0.0000,1.9834,flat,18.0,1,8.538
330,10.56,-0.3053,-0.4349,0.1797,-0.0001,-0.0000,1.9452,flat,18.0,1,8.054
340,10.88,-0.5074,0.0958,0.1797,-0.0001,-0.0000,1.9092,flat,18.0,1,7.569
350,11.20,-0.6910,0.6337,0.1797,-0.0001,-0.0000,1.8748,flat,18.0,1,7.085
360,11.52,-0.8565,1.1778,0.1797,-0.0001,-0.0000,1.8410,flat,18.0,1,6.604
370,11.84,-1.0036,1.7271,0.1797,-0.0001,-0.0000,1.8067,flat,18.0,1,6.126
380,12.16,-1.1318,2.2807,0.1797,-0.0001,0.0000,1.7701,flat,18.0,1,5.654
390,12.48,-1.2023,2.8224,0.1799,-0.0002,0.0000,1.6005,flat,18.0,1,5.187
400,12.80,-1.2024,3.3752,0.1799,-0.0002,-0.0000,1.4625,flat,18.0,1,4.693
410,13.12,-1.1488,3.9371,0.1798,-0.0001,-0.0000,1.4537,flat,18.0,1,4.179
420,13.44,-1.0791,4.5024,0.1797,-0.0001,-0.0000,1.4274,flat,18.0,1,3.667
430,13.76,-0.9945,5.0658,0.1797,-0.0001,-0.0000,1.4020,flat,18.0,1,3.167
440,14.08,-0.8956,5.6265,0.1797,-0.0001,0.0000,1.3762,flat,18.0,1,2.685
450,14.40,-0.7862,6.1622,0.1799,0.0001,-0.0000,1.2512,flat,18.0,1,2.253
460,14.72,-0.5967,6.6563,0.1799,-0.0000,-0.0000,1.0777,flat,18.0,1,1.827
470,15.04,-0.3214,7.1092,0.1799,-0.0001,-0.0000,0.9219,flat,18.0,1,1.399
480,15.36,0.0236,7.5123,0.1799,-0.0001,0.0000,0.7737,flat,18.0,1,0.995
490,15.68,0.3643,7.8098,0.1771,0.0004,-0.0178,0.5294,flat,18.0,2,15.169
500,16.00,0.6536,7.9323,0.1798,0.0003,-0.0001,0.0750,flat,18.0,2,15.431
510,16.32,1.0193,7.9377,0.1799,0.0004,-0.0000,-0.4497,flat,18.0,2,15.640
520,16.64,1.3326,7.7346,0.1799,0.0001,-0.0001,-0.8040,flat,18.0,2,15.657
530,16.96,1.6033,7.3823,0.1799,0.0000,-0.0000,-1.0971,flat,18.0,2,15.537
540,17.28,1.7988,6.9290,0.1799,-0.0000,-0.0000,-1.3658,flat,18.0,2,15.304
550,17.60,1.8815,6.4130,0.1799,-0.0000,-0.0001,-1.5981,flat,18.0,2,14.962
560,17.92,1.8473,5.8750,0.1799,-0.0001,-0.0000,-1.7722,flat,18.0,2,14.536
570,18.24,1.7217,5.3422,0.1799,-0.0003,-0.0000,-1.8961,flat,18.0,2,14.059
580,18.56,1.5319,4.8231,0.1798,-0.0004,-0.0000,-1.9868,flat,18.0,2,13.553
590,18.88,1.2959,4.3188,0.1798,-0.0003,-0.0000,-2.0567,flat,18.0,2,13.027
600,19.20,1.0251,3.8284,0.1797,-0.0002,-0.0000,-2.1125,flat,18.0,2,12.490
610,19.52,0.7270,3.3514,0.1797,-0.0002,-0.0000,-2.1573,flat,18.0,2,11.944
620,19.84,0.4078,2.8863,0.1797,-0.0001,-0.0000,-2.1934,flat,18.0,2,11.392
630,20.16,0.0717,2.4312,0.1797,-0.0001,-0.0000,-2.2245,flat,18.0,2,10.836
640,20.48,-0.2786,1.9853,0.1797,-0.0001,-0.0000,-2.2516,flat,18.0,2,10.276
650,20.80,-0.6410,1.5478,0.1797,-0.0001,-0.0000,-2.2754,flat,18.0,2,9.714
660,21.12,-1.0138,1.1180,0.1797,-0.0001,-0.0000,-2.2969,flat,18.0,2,9.150
670,21.44,-1.3959,0.6953,0.1797,-0.0001,-0.0000,-2.3168,flat,18.0,2,8.585
680,21.76,-1.7865,0.2794,0.1797,-0.0001,-0.0000,-2.3348,flat,18.0,2,8.018
690,22.08,-2.1845,-0.1299,0.1797,-0.0001,-0.0000,-2.3511,flat,18.0,2,7.449
700,22.40,-2.5893,-0.5332,0.1797,-0.0001,-0.0000,-2.3661,flat,18.0,2,6.880
710,22.72,-3.0002,-0.9307,0.1797,-0.0001,-0.0000,-2.3802,flat,18.0,2,6.310
720,23.04,-3.4166,-1.3226,0.1797,-0.0000,-0.0000,-2.3937,flat,18.0,2,5.740
730,23.36,-3.8384,-1.7091,0.1797,-0.0000,-0.0000,-2.4065,flat,18.0,2,5.170
740,23.68,-4.2649,-2.0903,0.1797,-0.0000,-0.0000,-2.4187,flat,18.0,2,4.599
750,24.00,-4.6960,-2.4664,0.1797,-0.0000,0.0000,-2.4307,flat,18.0,2,4.028
760,24.32,-5.1315,-2.8373,0.1797,-0.0000,0.0000,-2.4426,flat,18.0,2,3.456
770,24.64,-5.5713,-3.2028,0.1797,-0.0000,0.0000,-2.4551,flat,18.0,2,2.885
780,24.96,-6.0156,-3.5624,0.1797,-0.0000,0.0000,-2.4688,flat,18.0,2,2.315
790,25.28,-6.4645,-3.9151,0.1797,-0.0001,0.0000,-2.4851,flat,18.0,2,1.744
800,25.60,-6.9183,-4.2584,0.1797,-0.0001,0.0000,-2.5076,flat,18.0,2,1.176
810,25.92,-7.3743,-4.5789,0.1798,-0.0001,0.0000,-2.5723,flat,18.0,3,1.090
820,26.24,-7.7840,-4.8122,0.1799,-0.0002,0.0011,-2.6182,flat,18.0,0,13.132
830,26.56,-8.0363,-5.0495,0.1799,-0.0004,0.0000,-2.0925,flat,18.0,0,13.391
840,26.88,-8.2043,-5.4094,0.1799,-0.0001,-0.0000,-1.5948,flat,18.0,0,13.578
850,27.20,-8.1900,-5.8032,0.1799,0.0002,-0.0000,-1.1985,flat,18.0,0,13.595
860,27.52,-7.9913,-6.2030,0.1799,0.0001,-0.0000,-0.9152,flat,18.0,0,13.442
870,27.84,-7.6543,-6.5642,0.1799,0.0001,-0.0000,-0.7035,flat,18.0,0,13.159
880,28.16,-7.2288,-6.8763,0.1799,0.0001,-0.0000,-0.5184,flat,18.0,0,12.792
890,28.48,-6.7419,-7.1235,0.1799,0.0001,-0.0000,-0.3587,flat,18.0,0,12.364
900,28.80,-6.2165,-7.3009,0.1799,0.0002,-0.0000,-0.2282,flat,18.0,0,11.891
910,29.12,-5.6688,-7.4145,0.1798,0.0004,-0.0000,-0.1224,flat,18.0,0,11.387
920,29.44,-5.1092,-7.4730,0.1798,0.0004,-0.0000,-0.0363,flat,18.0,0,10.863
930,29.76,-4.5443,-7.4851,0.1798,0.0003,-0.0000,0.0332,flat,18.0,0,10.324
940,30.08,-3.9791,-7.4598,0.1797,0.0002,-0.0000,0.0858,flat,18.0,0,9.776
950,30.40,-3.4147,-7.4059,0.1797,0.0002,-0.0000,0.1278,flat,18.0,0,9.222
960,30.72,-2.8522,-7.3291,0.1797,0.0001,-0.0000,0.1616,flat,18.0,0,8.665
970,31.04,-2.2916,-7.2338,0.1797,0.0001,-0.0000,0.1903,flat,18.0,0,8.104
980,31.36,-1.7330,-7.1226,0.1797,0.0001,-0.0000,0.2150,flat,18.0,0,7.541
990,31.68,-1.1766,-6.9979,0.1797,0.0001,-0.0000,0.2366,flat,18.0,0,6.976
1000,32.00,-0.6224,-6.8614,0.1797,0.0001,-0.0000,0.2557,flat,18.0,0,6.410
1010,32.32,-0.0704,-6.7144,0.1797,0.0001,-0.0000,0.2729,flat,18.0,0,5.843
1020,32.64,0.4795,-6.5580,0.1797,0.0001,-0.0000,0.2885,flat,18.0,0,5.275
1030,32.96,1.0271,-6.3932,0.1797,0.0001,-0.0000,0.3029,flat,18.0,0,4.706
1040,33.28,1.5725,-6.2205,0.1797,0.0000,-0.0000,0.3165,flat,18.0,0,4.138
1050,33.60,2.1156,-6.0404,0.1797,0.0000,-0.0000,0.3296,flat,18.0,0,3.569
1060,33.92,2.6563,-5.8532,0.1797,0.0000,0.0000,0.3427,flat,18.0,0,3.001
1070,34.24,3.1943,-5.6589,0.1797,0.0000,0.0000,0.3563,flat,18.0,0,2.433
1080,34.56,3.7290,-5.4573,0.1797,0.0001,0.0000,0.3714,flat,18.0,0,1.868
1090,34.88,4.2593,-5.2476,0.1797,0.0001,0.0000,0.3905,flat,18.0,0,1.307
1100,35.20,4.7811,-5.0280,0.1797,0.0001,0.0000,0.4227,flat,18.0,1,0.758
1110,35.52,5.1557,-4.8259,0.1799,-0.0002,0.0000,0.7197,flat,18.0,1,13.011
1120,35.84,5.4385,-4.5060,0.1799,-0.0000,-0.0000,1.0241,flat,18.0,1,12.803
1130,36.16,5.6571,-4.0753,0.1799,0.0000,-0.0000,1.3074,flat,18.0,1,12.479
1140,36.48,5.7657,-3.5723,0.1799,0.0001,-0.0000,1.5588,flat,18.0,1,12.056
1150,36.80,5.7498,-3.0389,0.1799,0.0001,-0.0000,1.7573,flat,18.0,1,11.561
1160,37.12,5.6308,-2.5087,0.1799,0.0002,-0.0000,1.8988,flat,18.0,1,11.029
1170,37.44,5.4390,-1.9940,0.1798,0.0004,-0.0000,2.0020,flat,18.0,1,10.481
1180,37.76,5.1950,-1.4969,0.1798,0.0004,-0.0000,2.0821,flat,18.0,1,9.928
1190,38.08,4.9114,-1.0171,0.1797,0.0002,-0.0000,2.1467,flat,18.0,1,9.373
1200,38.40,4.5969,-0.5536,0.1797,0.0002,-0.0000,2.2004,flat,18.0,1,8.822
1210,38.72,4.2575,-0.1055,0.1797,0.0002,-0.0000,2.2451,flat,18.0,1,8.275
1220,39.04,3.8981,0.3284,0.1797,0.0001,-0.0000,2.2831,flat,18.0,1,7.737
1230,39.36,3.5222,0.7501,0.1797,0.0001,-0.0000,2.3183,flat,18.0,1,7.208
1240,39.68,3.1314,1.1596,0.1797,0.0001,-0.0000,2.3507,flat,18.0,1,6.692
1250,40.00,2.7272,1.5570,0.1797,0.0001,-0.0000,2.3808,flat,18.0,1,6.193
1260,40.32,2.3112,1.9423,0.1797,0.0001,-0.0000,2.4100,flat,18.0,1,5.716
1270,40.64,1.8843,2.3156,0.1797,0.0001,0.0000,2.4380,flat,18.0,1,5.266
1280,40.96,1.4475,2.6769,0.1797,0.0001,-0.0000,2.4657,flat,18.0,1,4.852
1290,41.28,1.0009,3.0259,0.1797,0.0001,0.0000,2.4949,flat,18.0,1,4.484
1300,41.60,0.5444,3.3612,0.1797,0.0001,0.0000,2.5270,flat,18.0,1,4.176
1310,41.92,0.1649,3.6724,0.1798,-0.0018,0.0021,2.3081,flat,18.0,1,3.931
1320,42.24,-0.1364,4.0748,0.1799,0.0000,-0.0000,2.0606,flat,18.0,1,3.624
1330,42.56,-0.3551,4.5569,0.1799,-0.0000,-0.0000,1.8170,flat,18.0,1,3.257
1340,42.88,-0.4625,5.0848,0.1799,-0.0000,-0.0000,1.5918,flat,18.0,1,2.842
1350,43.20,-0.4529,5.6258,0.1799,-0.0001,-0.0000,1.4015,flat,18.0,1,2.391
1360,43.52,-0.3436,6.1552,0.1799,-0.0001,-0.0000,1.2463,flat,18.0,1,1.921
1370,43.84,-0.1531,6.6598,0.1799,-0.0001,-0.0000,1.1066,flat,18.0,1,1.448
1380,44.16,0.1079,7.1288,0.1799,-0.0002,-0.0000,0.9702,flat,18.0,1,0.987
1390,44.48,0.3643,7.4850,0.1785,-0.0002,-0.0080,0.7709,flat,18.0,2,14.898
1400,44.80,0.5560,7.5808,0.1776,-0.0131,0.0001,0.1257,flat,18.0,2,15.084
1410,45.12,0.8975,7.6105,0.1799,0.0004,0.0000,-0.3747,flat,18.0,2,15.303
1420,45.44,1.2198,7.4389,0.1799,0.0001,-0.0000,-0.7547,flat,18.0,2,15.352
1430,45.76,1.4966,7.1072,0.1799,0.0000,-0.0000,-1.0533,flat,18.0,2,15.255
1440,46.08,1.7060,6.6683,0.1799,-0.0000,-0.0000,-1.3293,flat,18.0,2,15.044
1450,46.40,1.8055,6.1603,0.1799,0.0000,-0.0000,-1.5717,flat,18.0,2,14.722
1460,46.72,1.7850,5.6242,0.1799,-0.0001,-0.0000,-1.7559,flat,18.0,2,14.309
1470,47.04,1.6675,5.0911,0.1799,-0.0002,-0.0000,-1.8878,flat,18.0,2,13.840
1480,47.36,1.4819,4.5717,0.1798,-0.0004,-0.0000,-1.9835,flat,18.0,2,13.338
1490,47.68,1.2474,4.0676,0.1798,-0.0003,-0.0000,-2.0568,flat,18.0,2,12.816
1500,48.00,0.9765,3.5782,0.1797,-0.0002,-0.0000,-2.1151,flat,18.0,2,12.281
1510,48.32,0.6772,3.1024,0.1797,-0.0002,-0.0000,-2.1623,flat,18.0,2,11.736
1520,48.64,0.3555,2.6395,0.1797,-0.0001,-0.0000,-2.1998,flat,18.0,2,11.186
1530,48.96,0.0165,2.1871,0.1797,-0.0001,-0.0000,-2.2321,flat,18.0,2,10.631
1540,49.28,-0.3372,1.7444,0.1797,-0.0001,-0.0000,-2.2601,flat,18.0,2,10.072
1550,49.60,-0.7033,1.3104,0.1797,-0.0001,-0.0000,-2.2849,flat,18.0,2,9.511
1560,49.92,-1.0802,0.8844,0.1797,-0.0001,-0.0000,-2.3076,flat,18.0,2,8.947
1570,50.24,-1.4669,0.4660,0.1797,-0.0001,-0.0000,-2.3283,flat,18.0,2,8.382
1580,50.56,-1.8622,0.0550,0.1797,-0.0001,-0.0000,-2.3469,flat,18.0,2,7.815
1590,50.88,-2.2652,-0.3492,0.1797,-0.0001,-0.0000,-2.3639,flat,18.0,2,7.248
1600,51.20,-2.6751,-0.7469,0.1797,-0.0001,-0.0000,-2.3797,flat,18.0,2,6.679
1610,51.52,-3.0913,-1.1385,0.1797,-0.0001,-0.0000,-2.3946,flat,18.0,2,6.110
1620,51.84,-3.5133,-1.5240,0.1797,-0.0001,-0.0000,-2.4087,flat,18.0,2,5.540
1630,52.16,-3.9406,-1.9038,0.1797,-0.0000,-0.0000,-2.4221,flat,18.0,2,4.969
1640,52.48,-4.3729,-2.2781,0.1797,-0.0000,-0.0000,-2.4349,flat,18.0,2,4.399
1650,52.80,-4.8099,-2.6468,0.1797,-0.0000,-0.0000,-2.4476,flat,18.0,2,3.828
1660,53.12,-5.2516,-3.0099,0.1797,-0.0000,0.0000,-2.4606,flat,18.0,2,3.257
1670,53.44,-5.6978,-3.3671,0.1797,-0.0000,0.0000,-2.4744,flat,18.0,2,2.687
1680,53.76,-6.1488,-3.7175,0.1797,-0.0001,0.0000,-2.4899,flat,18.0,2,2.116
1690,54.08,-6.6047,-4.0598,0.1797,-0.0001,0.0000,-2.5090,flat,18.0,2,1.547
1700,54.40,-7.0659,-4.3905,0.1797,-0.0001,0.0000,-2.5377,flat,18.0,2,0.980
1710,54.72,-7.5300,-4.6867,0.1798,-0.0000,0.0000,-2.6329,flat,18.0,3,0.912
1720,55.04,-7.8821,-4.8663,0.1798,0.0001,0.0001,-2.4637,flat,18.0,0,13.231
1730,55.36,-8.1311,-5.1574,0.1798,-0.0002,-0.0000,-1.9598,flat,18.0,0,13.491
1740,55.68,-8.2564,-5.5283,0.1799,0.0000,-0.0000,-1.4756,flat,18.0,0,13.638
1750,56.00,-8.1908,-5.9293,0.1799,0.0001,-0.0000,-1.1156,flat,18.0,0,13.609
1760,56.32,-7.9509,-6.3213,0.1799,0.0001,-0.0000,-0.8541,flat,18.0,0,13.417
1770,56.64,-7.5869,-6.6703,0.1799,0.0001,-0.0000,-0.6527,flat,18.0,0,13.109
1780,56.96,-7.1428,-6.9666,0.1799,0.0001,-0.0000,-0.4731,flat,18.0,0,12.725
1790,57.28,-6.6438,-7.1951,0.1799,0.0001,-0.0000,-0.3212,flat,18.0,0,12.283
1800,57.60,-6.1112,-7.3546,0.1799,0.0003,-0.0000,-0.1976,flat,18.0,0,11.801
1810,57.92,-5.5785,-7.4248,0.1799,0.0001,0.0000,0.0219,flat,18.0,0,11.303
1820,58.24,-5.0359,-7.3933,0.1799,0.0001,-0.0000,0.1925,flat,18.0,0,10.771
1830,58.56,-4.5032,-7.2726,0.1799,0.0002,-0.0000,0.3226,flat,18.0,0,10.225
1840,58.88,-3.9883,-7.0840,0.1798,0.0004,-0.0000,0.4295,flat,18.0,0,9.679
1850,59.20,-3.4951,-6.8407,0.1798,0.0004,-0.0000,0.5231,flat,18.0,0,9.139
1860,59.52,-3.0231,-6.5510,0.1798,0.0003,-0.0000,0.5992,flat,18.0,0,8.611
1870,59.84,-2.5695,-6.2405,0.1798,0.0002,-0.0001,0.5711,flat,18.0,0,8.099
1880,60.16,-2.0905,-5.9502,0.1798,-0.0003,-0.0000,0.4933,flat,18.0,0,7.571
1890,60.48,-1.5889,-5.6941,0.1797,-0.0003,-0.0000,0.4246,flat,18.0,0,7.032
1900,60.80,-1.0699,-5.4702,0.1797,-0.0002,-0.0000,0.3637,flat,18.0,0,6.485
1910,61.12,-0.5373,-5.2765,0.1797,-0.0002,-0.0000,0.3096,flat,18.0,0,5.930
1920,61.44,0.0058,-5.1105,0.1797,-0.0002,-0.0000,0.2612,flat,18.0,0,5.371
1930,61.76,0.5559,-4.9698,0.1797,-0.0001,-0.0000,0.2194,flat,18.0,0,4.810
1940,62.08,1.1114,-4.8511,0.1797,-0.0001,-0.0000,0.1815,flat,18.0,0,4.246
1950,62.40,1.6714,-4.7531,0.1797,-0.0001,-0.0000,0.1455,flat,18.0,0,3.681
1960,62.72,2.2348,-4.6748,0.1797,-0.0001,-0.0000,0.1106,flat,18.0,0,3.114
1970,63.04,2.8006,-4.6161,0.1797,-0.0001,-0.0000,0.0755,flat,18.0,0,2.546
1980,63.36,3.3676,-4.5773,0.1797,-0.0001,0.0000,0.0382,flat,18.0,0,1.978
1990,63.68,3.8959,-4.5618,0.1797,-0.0001,-0.0001,0.0149,flat,18.0,0,1.449
2000,64.00,4.4582,-4.5600,0.1798,-0.0003,-0.0000,-0.0524,flat,18.0,0,0.887
2010,64.32,4.9897,-4.5702,0.1798,-0.0005,0.0000,0.1226,flat,18.0,1,12.716
2020,64.64,5.4161,-4.4975,0.1799,-0.0002,0.0001,0.4852,flat,18.0,1,12.787
2030,64.96,5.7215,-4.2791,0.1799,-0.0001,-0.0001,0.8423,flat,18.0,1,12.692
2040,65.28,5.9791,-3.9180,0.1799,-0.0000,-0.0000,1.1508,flat,18.0,1,12.458
2050,65.60,6.1503,-3.4577,0.1799,0.0000,-0.0000,1.4347,flat,18.0,1,12.109
2060,65.92,6.1957,-2.9417,0.1799,0.0001,-0.0000,1.6772,flat,18.0,1,11.663
2070,66.24,6.1175,-2.4124,0.1799,0.0001,-0.0000,1.8567,flat,18.0,1,11.156
2080,66.56,5.9464,-1.8964,0.1799,0.0003,-0.0000,1.9844,flat,18.0,1,10.619
2090,66.88,5.7107,-1.3998,0.1798,0.0004,-0.0000,2.0800,flat,18.0,1,10.069
2100,67.20,5.4278,-0.9229,0.1798,0.0003,-0.0000,2.1544,flat,18.0,1,9.516
2110,67.52,5.1096,-0.4642,0.1797,0.0002,-0.0000,2.2140,flat,18.0,1,8.962
2120,67.84,4.7642,-0.0229,0.1797,0.0002,-0.0000,2.2656,flat,18.0,1,8.412
2130,68.16,4.3958,0.4018,0.1797,0.0002,-0.0000,2.3103,flat,18.0,1,7.869
2140,68.48,4.0084,0.8115,0.1797,0.0001,-0.0000,2.3500,flat,18.0,1,7.335
2150,68.80,3.6048,1.2068,0.1797,0.0001,-0.0000,2.3859,flat,18.0,1,6.813
2160,69.12,3.1869,1.5880,0.1797,0.0001,-0.0000,2.4197,flat,18.0,1,6.306
2170,69.44,2.7569,1.9557,0.1797,0.0001,-0.0000,2.4509,flat,18.0,1,5.820
2180,69.76,2.3155,2.3106,0.1797,0.0001,-0.0000,2.4810,flat,18.0,1,5.358
2190,70.08,1.8636,2.6526,0.1797,0.0001,-0.0000,2.5110,flat,18.0,1,4.930
2200,70.40,1.4015,2.9811,0.1797,0.0001,-0.0000,2.5416,flat,18.0,1,4.545
2210,70.72,0.9357,3.2794,0.1797,0.0001,-0.0000,2.5781,flat,18.0,1,4.231
2220,71.04,0.4703,3.5643,0.1797,0.0000,0.0002,2.5312,flat,18.0,1,3.983
2230,71.36,0.1118,3.8777,0.1799,-0.0001,-0.0000,2.2719,flat,18.0,1,3.744
2240,71.68,-0.1798,4.2941,0.1799,-0.0000,-0.0000,2.0169,flat,18.0,1,3.432
2250,72.00,-0.3790,4.7858,0.1799,-0.0001,-0.0000,1.7696,flat,18.0,1,3.062
2260,72.32,-0.4614,5.3178,0.1799,-0.0001,-0.0000,1.5414,flat,18.0,1,2.645
2270,72.64,-0.4249,5.8558,0.1799,-0.0001,0.0000,1.3546,flat,18.0,1,2.196
2280,72.96,-0.2905,6.3771,0.1799,-0.0001,0.0000,1.1982,flat,18.0,1,1.731
2290,73.28,-0.0752,6.8685,0.1799,-0.0001,0.0000,1.0534,flat,18.0,1,1.268
2300,73.60,0.2119,7.3197,0.1799,-0.0002,0.0000,0.9139,flat,18.0,1,0.829
2310,73.92,0.3902,7.5396,0.1796,-0.0004,-0.0014,0.3769,flat,18.0,2,14.958
2320,74.24,0.6629,7.6227,0.1790,-0.0048,0.0000,-0.0654,flat,18.0,2,15.179
2330,74.56,1.0193,7.5727,0.1799,0.0003,-0.0000,-0.5479,flat,18.0,2,15.342
2340,74.88,1.3191,7.3282,0.1799,0.0001,-0.0001,-0.8781,flat,18.0,2,15.322
2350,75.20,1.5755,6.9487,0.1799,0.0000,-0.0000,-1.1690,flat,18.0,2,15.179
2360,75.52,1.7436,6.4766,0.1799,-0.0000,-0.0000,-1.4318,flat,18.0,2,14.921
2370,75.84,1.7936,5.9519,0.1799,-0.0000,-0.0000,-1.6532,flat,18.0,2,14.558
2380,76.16,1.7303,5.4146,0.1799,-0.0001,-0.0000,-1.8145,flat,18.0,2,14.118
2390,76.48,1.5825,4.8865,0.1799,-0.0004,-0.0000,-1.9292,flat,18.0,2,13.633
2400,76.80,1.3756,4.3731,0.1798,-0.0004,-0.0000,-2.0146,flat,18.0,2,13.122
2410,77.12,1.1256,3.8748,0.1797,-0.0003,-0.0000,-2.0810,flat,18.0,2,12.594
2420,77.44,0.8428,3.3907,0.1797,-0.0002,-0.0000,-2.1344,flat,18.0,2,12.054
2430,77.76,0.5342,2.9201,0.1797,-0.0002,-0.0000,-2.1772,flat,18.0,2,11.507
2440,78.08,0.2056,2.4613,0.1797,-0.0001,-0.0000,-2.2124,flat,18.0,2,10.955
2450,78.40,-0.1392,2.0125,0.1797,-0.0001,-0.0000,-2.2428,flat,18.0,2,10.398
2460,78.72,-0.4977,1.5730,0.1797,-0.0001,-0.0000,-2.2694,flat,18.0,2,9.838
2470,79.04,-0.8679,1.1419,0.1797,-0.0001,-0.0000,-2.2931,flat,18.0,2,9.276
2480,79.36,-1.2484,0.7186,0.1797,-0.0001,-0.0000,-2.3150,flat,18.0,2,8.712
2490,79.68,-1.6381,0.3028,0.1797,-0.0001,-0.0000,-2.3348,flat,18.0,2,8.146
2500,80.00,-2.0362,-0.1059,0.1797,-0.0001,-0.0000,-2.3527,flat,18.0,2,7.579
2510,80.32,-2.4415,-0.5080,0.1797,-0.0001,-0.0000,-2.3691,flat,18.0,2,7.011
2520,80.64,-2.8535,-0.9037,0.1797,-0.0001,-0.0000,-2.3845,flat,18.0,2,6.442
2530,80.96,-3.2717,-1.2933,0.1797,-0.0001,-0.0000,-2.3991,flat,18.0,2,5.872
2540,81.28,-3.6954,-1.6771,0.1797,-0.0000,-0.0000,-2.4129,flat,18.0,2,5.302
2550,81.60,-4.1243,-2.0552,0.1797,-0.0000,-0.0000,-2.4261,flat,18.0,2,4.732
2560,81.92,-4.5581,-2.4278,0.1797,-0.0000,-0.0000,-2.4388,flat,18.0,2,4.161
2570,82.24,-4.9965,-2.7949,0.1797,-0.0000,0.0000,-2.4515,flat,18.0,2,3.590
2580,82.56,-5.4395,-3.1562,0.1797,-0.0000,0.0000,-2.4647,flat,18.0,2,3.019
2590,82.88,-5.8871,-3.5113,0.1797,-0.0001,0.0000,-2.4791,flat,18.0,2,2.449
2600,83.20,-6.3396,-3.8593,0.1797,-0.0001,0.0000,-2.4957,flat,18.0,2,1.879
2610,83.52,-6.7972,-4.1981,0.1797,-0.0001,0.0000,-2.5176,flat,18.0,2,1.310
2620,83.84,-7.2599,-4.5221,0.1797,-0.0001,0.0000,-2.5560,flat,18.0,3,0.746
2630,84.16,-7.7187,-4.7901,0.1811,-0.0002,0.0086,-2.6979,flat,18.0,0,13.066
2640,84.48,-8.0001,-4.9664,0.1799,-0.0003,0.0000,-2.2571,flat,18.0,0,13.352
2650,84.80,-8.1975,-5.2955,0.1799,-0.0001,0.0000,-1.7758,flat,18.0,0,13.564
2660,85.12,-8.2557,-5.6785,0.1799,0.0001,-0.0001,-1.3297,flat,18.0,0,13.650
2670,85.44,-8.1216,-6.0833,0.1799,0.0001,-0.0000,-1.0107,flat,18.0,0,13.557
2680,85.76,-7.8299,-6.4610,0.1799,0.0001,-0.0000,-0.7766,flat,18.0,0,13.317
2690,86.08,-7.4333,-6.7924,0.1799,0.0001,-0.0000,-0.5844,flat,18.0,0,12.978
2700,86.40,-6.9662,-7.0650,0.1799,0.0001,-0.0000,-0.4138,flat,18.0,0,12.571
2710,86.72,-6.4528,-7.2676,0.1799,0.0002,-0.0000,-0.2726,flat,18.0,0,12.113
2720,87.04,-5.9118,-7.4034,0.1799,0.0004,-0.0000,-0.1581,flat,18.0,0,11.620
2730,87.36,-5.3556,-7.4807,0.1798,0.0004,-0.0000,-0.0651,flat,18.0,0,11.102
2740,87.68,-4.7921,-7.5084,0.1798,0.0003,-0.0000,0.0105,flat,18.0,0,10.568
2750,88.00,-4.2266,-7.4952,0.1797,0.0002,-0.0000,0.0689,flat,18.0,0,10.023
2760,88.32,-3.6617,-7.4506,0.1797,0.0002,-0.0000,0.1147,flat,18.0,0,9.471
2770,88.64,-3.0987,-7.3810,0.1797,0.0001,-0.0000,0.1508,flat,18.0,0,8.915
2780,88.96,-2.5374,-7.2916,0.1797,0.0001,-0.0000,0.1812,flat,18.0,0,8.355
2790,89.28,-1.9782,-7.1855,0.1797,0.0001,-0.0000,0.2072,flat,18.0,0,7.793
2800,89.60,-1.4211,-7.0651,0.1797,0.0001,-0.0000,0.2299,flat,18.0,0,7.228
2810,89.92,-0.8661,-6.9323,0.1797,0.0001,-0.0000,0.2498,flat,18.0,0,6.663
2820,90.24,-0.3134,-6.7885,0.1797,0.0001,-0.0000,0.2675,flat,18.0,0,6.096
2830,90.56,0.2371,-6.6351,0.1797,0.0001,-0.0000,0.2836,flat,18.0,0,5.528
2840,90.88,0.7854,-6.4729,0.1797,0.0001,-0.0000,0.2984,flat,18.0,0,4.960
2850,91.20,1.3316,-6.3026,0.1797,0.0000,-0.0000,0.3122,flat,18.0,0,4.391
2860,91.52,1.8755,-6.1249,0.1797,0.0000,-0.0000,0.3253,flat,18.0,0,3.822
2870,91.84,2.4170,-5.9400,0.1797,0.0000,-0.0000,0.3382,flat,18.0,0,3.254
2880,92.16,2.9560,-5.7482,0.1797,0.0000,0.0000,0.3514,flat,18.0,0,2.686
2890,92.48,3.4921,-5.5492,0.1797,0.0000,0.0000,0.3655,flat,18.0,0,2.119
2900,92.80,4.0244,-5.3427,0.1797,0.0001,0.0000,0.3823,flat,18.0,0,1.555
2910,93.12,4.5507,-5.1272,0.1797,0.0001,0.0000,0.4062,flat,18.0,0,0.999
2920,93.44,5.0030,-4.9266,0.1798,-0.0002,0.0001,0.5900,flat,18.0,1,13.059
2930,93.76,5.3079,-4.6602,0.1799,-0.0000,-0.0000,0.9026,flat,18.0,1,12.904
2940,94.08,5.5596,-4.2701,0.1799,0.0000,-0.0000,1.1951,flat,18.0,1,12.625
2950,94.40,5.7169,-3.7912,0.1799,0.0001,-0.0000,1.4601,flat,18.0,1,12.239
2960,94.72,5.7511,-3.2652,0.1799,0.0001,0.0000,1.6822,flat,18.0,1,11.768
2970,95.04,5.6711,-2.7308,0.1799,0.0001,-0.0000,1.8457,flat,18.0,1,11.248
2980,95.36,5.5066,-2.2090,0.1799,0.0003,-0.0000,1.9619,flat,18.0,1,10.705
2990,95.68,5.2827,-1.7044,0.1798,0.0004,-0.0000,2.0502,flat,18.0,1,10.153
3000,96.00,5.0147,-1.2172,0.1798,0.0003,-0.0000,2.1204,flat,18.0,1,9.598
3010,96.32,4.7127,-0.7467,0.1797,0.0002,-0.0000,2.1781,flat,18.0,1,9.045
3020,96.64,4.3836,-0.2918,0.1797,0.0002,-0.0000,2.2267,flat,18.0,1,8.496
3030,96.96,4.0324,0.1481,0.1797,0.0001,-0.0000,2.2665,flat,18.0,1,7.955
3040,97.28,3.6637,0.5753,0.1797,0.0001,-0.0000,2.3025,flat,18.0,1,7.422
3050,97.60,3.2795,0.9905,0.1797,0.0001,-0.0000,2.3361,flat,18.0,1,6.900
3060,97.92,2.8812,1.3934,0.1797,0.0001,-0.0000,2.3670,flat,18.0,1,6.394
3070,98.24,2.4706,1.7844,0.1797,0.0001,-0.0000,2.3964,flat,18.0,1,5.907
3080,98.56,2.0486,2.1633,0.1797,0.0001,-0.0000,2.4250,flat,18.0,1,5.445
3090,98.88,1.6165,2.5303,0.1797,0.0001,-0.0000,2.4526,flat,18.0,1,5.015
3100,99.20,1.1744,2.8852,0.1797,0.0001,-0.0000,2.4810,flat,18.0,1,4.627
3110,99.52,0.7226,3.2270,0.1797,0.0001,0.0000,2.5117,flat,18.0,1,4.293
3120,99.84,0.3085,3.5390,0.1799,0.0003,0.0000,2.3779,flat,18.0,1,4.034
3130,100.16,-0.0129,3.9152,0.1799,-0.0000,-0.0000,2.1333,flat,18.0,1,3.740
3140,100.48,-0.2608,4.3785,0.1799,-0.0001,-0.0000,1.8900,flat,18.0,1,3.383
3150,100.80,-0.4043,4.8968,0.1799,-0.0001,-0.0000,1.6634,flat,18.0,1,2.975
3160,101.12,-0.4324,5.4378,0.1799,-0.0001,-0.0000,1.4626,flat,18.0,1,2.530
3170,101.44,-0.3557,5.9739,0.1799,-0.0001,0.0000,1.3008,flat,18.0,1,2.061
3180,101.76,-0.1935,6.4896,0.1799,-0.0001,-0.0000,1.1593,flat,18.0,1,1.584
3190,102.08,0.0410,6.9735,0.1799,-0.0002,-0.0000,1.0224,flat,18.0,1,1.115
3200,102.40,0.3250,7.3994,0.1796,-0.0001,-0.0008,0.9019,flat,18.0,2,14.805
3210,102.72,0.4853,7.5399,0.1801,0.0005,-0.0008,0.2536,flat,18.0,2,15.011
3220,103.04,0.7935,7.6126,0.1797,-0.0006,-0.0001,-0.2145,flat,18.0,2,15.245
3230,103.36,1.1361,7.5048,0.1799,-0.0000,-0.0000,-0.6454,flat,18.0,2,15.355
3240,103.68,1.4252,7.2179,0.1799,0.0000,-0.0000,-0.9593,flat,18.0,2,15.298
3250,104.00,1.6620,6.8097,0.1799,-0.0000,-0.0000,-1.2445,flat,18.0,2,15.125
3260,104.32,1.7989,6.3194,0.1799,-0.0001,-0.0000,-1.4970,flat,18.0,2,14.838
3270,104.64,1.8152,5.7878,0.1799,-0.0001,-0.0000,-1.7021,flat,18.0,2,14.450
3280,104.96,1.7254,5.2519,0.1799,-0.0001,-0.0000,-1.8512,flat,18.0,2,13.996
3290,105.28,1.5586,4.7279,0.1798,-0.0004,-0.0000,-1.9565,flat,18.0,2,13.503
3300,105.60,1.3379,4.2192,0.1798,-0.0004,-0.0000,-2.0360,flat,18.0,2,12.987
3310,105.92,1.0771,3.7254,0.1797,-0.0002,-0.0000,-2.0986,flat,18.0,2,12.455
3320,106.24,0.7858,3.2456,0.1797,-0.0002,-0.0000,-2.1492,flat,18.0,2,11.913
3330,106.56,0.4702,2.7791,0.1797,-0.0001,-0.0000,-2.1893,flat,18.0,2,11.365
3340,106.88,0.1360,2.3238,0.1797,-0.0001,-0.0000,-2.2232,flat,18.0,2,10.811
3350,107.20,-0.2136,1.8783,0.1797,-0.0001,-0.0000,-2.2525,flat,18.0,2,10.253
3360,107.52,-0.5764,1.4420,0.1797,-0.0001,-0.0000,-2.2782,flat,18.0,2,9.693
3370,107.84,-0.9504,1.0138,0.1797,-0.0001,-0.0000,-2.3015,flat,18.0,2,9.130
3380,108.16,-1.3344,0.5934,0.1797,-0.0001,-0.0000,-2.3229,flat,18.0,2,8.565
3390,108.48,-1.7275,0.1805,0.1797,-0.0001,-0.0000,-2.3421,flat,18.0,2,7.999
3400,108.80,-2.1286,-0.2254,0.1797,-0.0001,-0.0000,-2.3596,flat,18.0,2,7.432
3410,109.12,-2.5367,-0.6248,0.1797,-0.0001,-0.0000,-2.3757,flat,18.0,2,6.863
3420,109.44,-2.9514,-1.0178,0.1797,-0.0001,-0.0000,-2.3910,flat,18.0,2,6.294
3430,109.76,-3.3720,-1.4048,0.1797,-0.0001,-0.0000,-2.4054,flat,18.0,2,5.724
3440,110.08,-3.7981,-1.7859,0.1797,-0.0000,-0.0000,-2.4190,flat,18.0,2,5.154
3450,110.40,-4.2292,-2.1615,0.1797,-0.0000,-0.0000,-2.4319,flat,18.0,2,4.584
3460,110.72,-4.6651,-2.5315,0.1797,-0.0000,-0.0000,-2.4447,flat,18.0,2,4.013
3470,111.04,-5.1057,-2.8960,0.1797,-0.0000,0.0000,-2.4575,flat,18.0,2,3.442
3480,111.36,-5.5508,-3.2546,0.1797,-0.0000,0.0000,-2.4709,flat,18.0,2,2.872
3490,111.68,-6.0006,-3.6068,0.1797,-0.0001,0.0000,-2.4858,flat,18.0,2,2.301
3500,112.00,-6.4553,-3.9515,0.1797,-0.0001,0.0000,-2.5034,flat,18.0,2,1.731
3510,112.32,-6.9153,-4.2860,0.1797,-0.0001,0.0000,-2.5278,flat,18.0,2,1.163
3520,112.64,-7.3777,-4.5966,0.1798,-0.0001,-0.0000,-2.5947,flat,18.0,3,1.082
3530,112.96,-7.7961,-4.8183,0.1799,-0.0002,0.0011,-2.6227,flat,18.0,0,13.144
3540,113.28,-8.0512,-5.0475,0.1798,0.0011,-0.0017,-2.0758,flat,18.0,0,13.406
3550,113.60,-8.2109,-5.4074,0.1799,-0.0001,0.0000,-1.5865,flat,18.0,0,13.585
3560,113.92,-8.1931,-5.8017,0.1799,0.0002,-0.0000,-1.1931,flat,18.0,0,13.598
3570,114.24,-7.9917,-6.2013,0.1799,0.0001,-0.0000,-0.9114,flat,18.0,0,13.442
3580,114.56,-7.6529,-6.5619,0.1799,0.0001,-0.0000,-0.7005,flat,18.0,0,13.157
3590,114.88,-7.2263,-6.8732,0.1799,0.0001,-0.0000,-0.5159,flat,18.0,0,12.789
3600,115.20,-6.7386,-7.1194,0.1799,0.0001,-0.0000,-0.3568,flat,18.0,0,12.360
3610,115.52,-6.2253,-7.2742,0.1799,0.0001,-0.0000,-0.1471,flat,18.0,0,11.893
3620,115.84,-5.6815,-7.3345,0.1799,0.0001,-0.0000,0.0325,flat,18.0,0,11.380
3630,116.16,-5.1321,-7.3006,0.1799,0.0002,-0.0000,0.1698,flat,18.0,0,10.839
3640,116.48,-4.5898,-7.1941,0.1798,0.0004,-0.0000,0.2763,flat,18.0,0,10.288
3650,116.80,-4.0600,-7.0311,0.1798,0.0004,-0.0000,0.3647,flat,18.0,0,9.734
3660,117.12,-3.5454,-6.8218,0.1798,0.0003,-0.0000,0.4423,flat,18.0,0,9.183
3670,117.44,-3.0482,-6.5729,0.1798,0.0003,-0.0000,0.5138,flat,18.0,0,8.640
3680,117.76,-2.5696,-6.2883,0.1797,0.0002,-0.0000,0.5803,flat,18.0,0,8.109
3690,118.08,-2.0983,-5.9979,0.1798,-0.0002,-0.0000,0.5114,flat,18.0,0,7.588
3700,118.40,-1.6018,-5.7337,0.1798,-0.0003,-0.0000,0.4404,flat,18.0,0,7.052
3710,118.72,-1.0866,-5.5022,0.1797,-0.0002,-0.0000,0.3775,flat,18.0,0,6.506
3720,119.04,-0.5569,-5.3016,0.1797,-0.0002,-0.0000,0.3215,flat,18.0,0,5.953
3730,119.36,-0.0161,-5.1296,0.1797,-0.0002,-0.0000,0.2714,flat,18.0,0,5.395
3740,119.68,0.5330,-4.9837,0.1797,-0.0002,0.0000,0.2272,flat,18.0,0,4.834
3750,120.00,1.0874,-4.8609,0.1797,-0.0001,-0.0000,0.1882,flat,18.0,0,4.271
3760,120.32,1.6465,-4.7593,0.1797,-0.0001,-0.0000,0.1512,flat,18.0,0,3.706
3770,120.64,2.2093,-4.6780,0.1797,-0.0001,-0.0000,0.1154,flat,18.0,0,3.139
3780,120.96,2.7746,-4.6167,0.1797,-0.0001,-0.0000,0.0795,flat,18.0,0,2.572
3790,121.28,3.3413,-4.5757,0.1797,-0.0001,0.0000,0.0415,flat,18.0,0,2.004
3800,121.60,3.8824,-4.5582,0.1797,-0.0001,-0.0001,0.0159,flat,18.0,0,1.463
3810,121.92,4.4445,-4.5558,0.1798,-0.0003,-0.0000,-0.0516,flat,18.0,0,0.901
3820,122.24,4.9763,-4.5657,0.1798,-0.0005,0.0000,0.1222,flat,18.0,1,12.707
3830,122.56,5.4034,-4.4931,0.1799,-0.0002,0.0001,0.4836,flat,18.0,1,12.779
3840,122.88,5.7092,-4.2754,0.1799,-0.0001,-0.0001,0.8408,flat,18.0,1,12.684
3850,123.20,5.9672,-3.9147,0.1799,-0.0000,-0.0000,1.1493,flat,18.0,1,12.450
3860,123.52,6.1389,-3.4548,0.1799,0.0000,-0.0000,1.4333,flat,18.0,1,12.101
3870,123.84,6.1849,-2.9389,0.1799,0.0001,-0.0000,1.6757,flat,18.0,1,11.656
3880,124.16,6.1075,-2.4096,0.1799,0.0001,-0.0000,1.8556,flat,18.0,1,11.149
3890,124.48,5.9370,-1.8933,0.1799,0.0003,-0.0000,1.9836,flat,18.0,1,10.612
3900,124.80,5.7016,-1.3966,0.1798,0.0004,-0.0000,2.0793,flat,18.0,1,10.062
3910,125.12,5.4191,-0.9196,0.1798,0.0003,-0.0000,2.1539,flat,18.0,1,9.509
3920,125.44,5.1012,-0.4607,0.1797,0.0002,-0.0000,2.2136,flat,18.0,1,8.955
3930,125.76,4.7560,-0.0193,0.1797,0.0002,-0.0000,2.2652,flat,18.0,1,8.406
3940,126.08,4.3878,0.4055,0.1797,0.0002,-0.0000,2.3100,flat,18.0,1,7.863
3950,126.40,4.0005,0.8153,0.1797,0.0001,-0.0000,2.3497,flat,18.0,1,7.328
3960,126.72,3.5969,1.2108,0.1797,0.0001,-0.0000,2.3856,flat,18.0,1,6.806
3970,127.04,3.1792,1.5921,0.1797,0.0001,-0.0000,2.4195,flat,18.0,1,6.300
3980,127.36,2.7492,1.9598,0.1797,0.0001,-0.0000,2.4507,flat,18.0,1,5.813
3990,127.68,2.3080,2.3148,0.1797,0.0001,-0.0000,2.4809,flat,18.0,1,5.353
4000,128.00,1.8561,2.6568,0.1797,0.0001,-0.0000,2.5109,flat,18.0,1,4.925
4010,128.32,1.4010,2.9684,0.1798,0.0001,-0.0001,2.5494,flat,18.0,1,4.557
4020,128.64,0.9263,3.2798,0.1797,0.0001,-0.0000,2.5792,flat,18.0,1,4.231
4030,128.96,0.4607,3.5643,0.1797,0.0000,0.0002,2.5317,flat,18.0,1,3.985
4040,129.28,0.1025,3.8774,0.1799,-0.0001,-0.0000,2.2720,flat,18.0,1,3.746
4050,129.60,-0.1890,4.2936,0.1799,-0.0000,-0.0000,2.0165,flat,18.0,1,3.436
4060,129.92,-0.3879,4.7852,0.1799,-0.0001,-0.0000,1.7687,flat,18.0,1,3.066
4070,130.24,-0.4697,5.3172,0.1799,-0.0001,-0.0000,1.5400,flat,18.0,1,2.650
4080,130.56,-0.4324,5.8550,0.1799,-0.0001,0.0000,1.3531,flat,18.0,1,2.201
4090,130.88,-0.2972,6.3761,0.1799,-0.0001,0.0000,1.1968,flat,18.0,1,1.737
4100,131.20,-0.0812,6.8672,0.1799,-0.0001,0.0000,1.0521,flat,18.0,1,1.274
4110,131.52,0.2065,7.3181,0.1799,-0.0002,0.0000,0.9131,flat,18.0,1,0.835
4120,131.84,0.3852,7.5378,0.1796,-0.0004,-0.0013,0.3763,flat,18.0,2,14.953
4130,132.16,0.6581,7.6208,0.1790,-0.0048,0.0000,-0.0658,flat,18.0,2,15.175
4140,132.48,1.0144,7.5706,0.1799,0.0003,-0.0000,-0.5482,flat,18.0,2,15.337
4150,132.80,1.3142,7.3260,0.1799,0.0001,-0.0001,-0.8782,flat,18.0,2,15.317
4160,133.12,1.5706,6.9464,0.1799,0.0000,-0.0000,-1.1692,flat,18.0,2,15.174
4170,133.44,1.7387,6.4743,0.1799,-0.0000,-0.0000,-1.4319,flat,18.0,2,14.916
4180,133.76,1.7886,5.9496,0.1799,-0.0000,-0.0000,-1.6532,flat,18.0,2,14.553
4190,134.08,1.7253,5.4122,0.1799,-0.0001,-0.0000,-1.8144,flat,18.0,2,14.113
4200,134.40,1.5775,4.8842,0.1799,-0.0004,-0.0000,-1.9292,flat,18.0,2,13.628
4210,134.72,1.3707,4.3708,0.1798,-0.0004,-0.0000,-2.0145,flat,18.0,2,13.117
4220,135.04,1.1207,3.8724,0.1797,-0.0003,-0.0000,-2.0810,flat,18.0,2,12.589
4230,135.36,0.8380,3.3883,0.1797,-0.0002,-0.0000,-2.1344,flat,18.0,2,12.049
4240,135.68,0.5294,2.9177,0.1797,-0.0002,-0.0000,-2.1771,flat,18.0,2,11.502
4250,136.00,0.2008,2.4588,0.1797,-0.0001,-0.0000,-2.2123,flat,18.0,2,10.950
4260,136.32,-0.1439,2.0100,0.1797,-0.0001,-0.0000,-2.2427,flat,18.0,2,10.393
4270,136.64,-0.5024,1.5704,0.1797,-0.0001,-0.0000,-2.2693,flat,18.0,2,9.833
4280,136.96,-0.8725,1.1393,0.1797,-0.0001,-0.0000,-2.2930,flat,18.0,2,9.271
4290,137.28,-1.2529,0.7159,0.1797,-0.0001,-0.0000,-2.3149,flat,18.0,2,8.707
4300,137.60,-1.6426,0.3001,0.1797,-0.0001,-0.0000,-2.3347,flat,18.0,2,8.141
4310,137.92,-2.0406,-0.1086,0.1797,-0.0001,-0.0000,-2.3526,flat,18.0,2,7.574
4320,138.24,-2.4460,-0.5108,0.1797,-0.0001,-0.0000,-2.3690,flat,18.0,2,7.005
4330,138.56,-2.8579,-0.9065,0.1797,-0.0001,-0.0000,-2.3844,flat,18.0,2,6.436
4340,138.88,-3.2760,-1.2962,0.1797,-0.0001,-0.0000,-2.3990,flat,18.0,2,5.867
4350,139.20,-3.6997,-1.6800,0.1797,-0.0000,-0.0000,-2.4128,flat,18.0,2,5.297
4360,139.52,-4.1286,-2.0581,0.1797,-0.0000,-0.0000,-2.4260,flat,18.0,2,4.726
4370,139.84,-4.5623,-2.4308,0.1797,-0.0000,-0.0000,-2.4387,flat,18.0,2,4.156
4380,140.16,-5.0007,-2.7978,0.1797,-0.0000,0.0000,-2.4515,flat,18.0,2,3.585
4390,140.48,-5.4437,-3.1592,0.1797,-0.0000,0.0000,-2.4647,flat,18.0,2,3.014
4400,140.80,-5.8913,-3.5143,0.1797,-0.0001,0.0000,-2.4790,flat,18.0,2,2.444
4410,141.12,-6.3438,-3.8623,0.1797,-0.0001,0.0000,-2.4957,flat,18.0,2,1.874
4420,141.44,-6.8014,-4.2010,0.1797,-0.0001,0.0000,-2.5177,flat,18.0,2,1.305
4430,141.76,-7.2613,-4.5222,0.1797,-0.0001,0.0002,-2.5707,flat,18.0,3,1.215
4440,142.08,-7.7107,-4.7842,0.1789,-0.0002,-0.0056,-2.6888,flat,18.0,0,13.058
4450,142.40,-7.9880,-4.9306,0.1798,0.0045,0.0058,-2.2089,flat,18.0,0,13.339
4460,142.72,-8.1750,-5.2495,0.1799,-0.0002,-0.0000,-1.7272,flat,18.0,0,13.539
4470,143.04,-8.2159,-5.6357,0.1799,-0.0002,-0.0000,-1.2908,flat,18.0,0,13.606
4480,143.36,-8.0647,-6.0409,0.1799,-0.0001,-0.0001,-0.9846,flat,18.0,0,13.495
4490,143.68,-7.7613,-6.4154,0.1799,0.0000,-0.0000,-0.7599,flat,18.0,0,13.242
4500,144.00,-7.3577,-6.7434,0.1799,0.0000,-0.0000,-0.5701,flat,18.0,0,12.895
4510,144.32,-6.8861,-7.0112,0.1799,0.0001,-0.0000,-0.4034,flat,18.0,0,12.482
4520,144.64,-6.3702,-7.2094,0.1799,0.0002,-0.0000,-0.2656,flat,18.0,0,12.020
4530,144.96,-5.8279,-7.3419,0.1798,0.0004,-0.0000,-0.1538,flat,18.0,0,11.523
4540,145.28,-5.2711,-7.4171,0.1798,0.0004,-0.0000,-0.0628,flat,18.0,0,11.004
4550,145.60,-4.7073,-7.4437,0.1798,0.0003,-0.0000,0.0113,flat,18.0,0,10.468
4560,145.92,-4.1417,-7.4302,0.1797,0.0002,-0.0000,0.0683,flat,18.0,0,9.923
4570,146.24,-3.5766,-7.3860,0.1797,0.0002,-0.0000,0.1133,flat,18.0,0,9.370
4580,146.56,-3.0134,-7.3173,0.1797,0.0001,-0.0000,0.1488,flat,18.0,0,8.814
4590,146.88,-2.4519,-7.2291,0.1797,0.0001,-0.0000,0.1788,flat,18.0,0,8.254
4600,147.20,-1.8923,-7.1244,0.1797,0.0001,-0.0000,0.2046,flat,18.0,0,7.691
4610,147.52,-1.3348,-7.0055,0.1797,0.0001,-0.0000,0.2270,flat,18.0,0,7.127
4620,147.84,-0.7794,-6.8742,0.1797,0.0001,-0.0000,0.2467,flat,18.0,0,6.561
4630,148.16,-0.2262,-6.7322,0.1797,0.0001,-0.0000,0.2644,flat,18.0,0,5.994
4640,148.48,0.3248,-6.5805,0.1797,0.0001,-0.0000,0.2804,flat,18.0,0,5.426
4650,148.80,0.8737,-6.4201,0.1797,0.0001,-0.0000,0.2951,flat,18.0,0,4.858
4660,149.12,1.4204,-6.2516,0.1797,0.0000,-0.0000,0.3089,flat,18.0,0,4.289
4670,149.44,1.9649,-6.0757,0.1797,0.0000,-0.0000,0.3221,flat,18.0,0,3.721
4680,149.76,2.5070,-5.8926,0.1797,0.0000,-0.0000,0.3351,flat,18.0,0,3.152
4690,150.08,3.0465,-5.7024,0.1797,0.0000,0.0000,0.3485,flat,18.0,0,2.584
4700,150.40,3.5831,-5.5050,0.1797,0.0001,0.0000,0.3631,flat,18.0,0,2.018
4710,150.72,4.1156,-5.2998,0.1797,0.0001,0.0000,0.3807,flat,18.0,0,1.455
4720,151.04,4.6414,-5.0852,0.1797,0.0001,0.0000,0.4073,flat,18.0,0,0.902
4730,151.36,5.0587,-4.8884,0.1798,-0.0003,0.0000,0.6460,flat,18.0,1,13.040
4740,151.68,5.3529,-4.5983,0.1799,-0.0000,-0.0000,0.9565,flat,18.0,1,12.860
4750,152.00,5.5912,-4.1894,0.1799,0.0000,-0.0000,1.2450,flat,18.0,1,12.561
4760,152.32,5.7276,-3.6990,0.1799,0.0001,-0.0000,1.5036,flat,18.0,1,12.158
4770,152.64,5.7397,-3.1685,0.1799,0.0001,-0.0000,1.7149,flat,18.0,1,11.675
4780,152.96,5.6427,-2.6355,0.1799,0.0001,-0.0000,1.8688,flat,18.0,1,11.149
4790,153.28,5.4663,-2.1166,0.1798,0.0004,-0.0000,1.9790,flat,18.0,1,10.604
4800,153.60,5.2338,-1.6150,0.1798,0.0004,-0.0000,2.0636,flat,18.0,1,10.051
4810,153.92,4.9592,-1.1308,0.1797,0.0003,-0.0000,2.1312,flat,18.0,1,9.497
4820,154.24,4.6521,-0.6631,0.1797,0.0002,-0.0000,2.1871,flat,18.0,1,8.944
4830,154.56,4.3188,-0.2108,0.1797,0.0002,-0.0000,2.2341,flat,18.0,1,8.396
4840,154.88,3.9643,0.2267,0.1797,0.0001,-0.0000,2.2729,flat,18.0,1,7.856
4850,155.20,3.5928,0.6518,0.1797,0.0001,-0.0000,2.3085,flat,18.0,1,7.325
4860,155.52,3.2060,1.0649,0.1797,0.0001,-0.0000,2.3417,flat,18.0,1,6.806
4870,155.84,2.8055,1.4658,0.1797,0.0001,-0.0000,2.3721,flat,18.0,1,6.303
4880,156.16,2.3929,1.8546,0.1797,0.0001,-0.0000,2.4015,flat,18.0,1,5.820
4890,156.48,1.9690,2.2314,0.1797,0.0001,-0.0000,2.4298,flat,18.0,1,5.363
4900,156.80,1.5352,2.5963,0.1797,0.0001,-0.0000,2.4574,flat,18.0,1,4.941
4910,157.12,1.0914,2.9490,0.1797,0.0001,0.0000,2.4862,flat,18.0,1,4.561
4920,157.44,0.6379,3.2884,0.1797,0.0001,0.0000,2.5175,flat,18.0,1,4.239
4930,157.76,0.2348,3.5983,0.1799,0.0002,0.0000,2.3539,flat,18.0,1,3.989
4940,158.08,-0.0798,3.9826,0.1799,0.0000,-0.0000,2.1066,flat,18.0,1,3.694
4950,158.40,-0.3169,4.4527,0.1799,-0.0000,-0.0000,1.8613,flat,18.0,1,3.336
4960,158.72,-0.4461,4.9748,0.1799,-0.0000,-0.0000,1.6334,flat,18.0,1,2.928
4970,159.04,-0.4583,5.5159,0.1799,-0.0001,-0.0000,1.4353,flat,18.0,1,2.481
4980,159.36,-0.3670,6.0490,0.1799,-0.0001,-0.0000,1.2759,flat,18.0,1,2.014
4990,159.68,-0.1918,6.5597,0.1799,-0.0001,-0.0000,1.1348,flat,18.0,1,1.539
5000,160.00,0.0551,7.0368,0.1799,-0.0002,-0.0000,0.9979,flat,18.0,1,1.074
5010,160.32,0.3364,7.4397,0.1805,-0.0003,0.0053,0.8637,flat,18.0,2,14.845
5020,160.64,0.5032,7.5635,0.1735,-0.0353,0.0008,0.2102,flat,18.0,2,15.040
5030,160.96,0.8286,7.6204,0.1799,0.0003,-0.0000,-0.2772,flat,18.0,2,15.271
5040,161.28,1.1635,7.4883,0.1799,0.0001,-0.0000,-0.6887,flat,18.0,2,15.358
5050,161.60,1.4483,7.1839,0.1799,0.0000,-0.0001,-0.9943,flat,18.0,2,15.286
5060,161.92,1.6757,6.7639,0.1799,-0.0000,-0.0000,-1.2761,flat,18.0,2,15.099
5070,162.24,1.7994,6.2666,0.1799,0.0000,-0.0000,-1.5262,flat,18.0,2,14.798
5080,162.56,1.8019,5.7329,0.1799,-0.0001,-0.0000,-1.7234,flat,18.0,2,14.401
5090,162.88,1.7015,5.1978,0.1799,-0.0002,-0.0000,-1.8649,flat,18.0,2,13.940
5100,163.20,1.5277,4.6755,0.1798,-0.0004,-0.0000,-1.9664,flat,18.0,2,13.444
5110,163.52,1.3019,4.1683,0.1798,-0.0003,-0.0000,-2.0435,flat,18.0,2,12.925
5120,163.84,1.0375,3.6761,0.1797,-0.0002,-0.0000,-2.1044,flat,18.0,2,12.392
5130,164.16,0.7433,3.1976,0.1797,-0.0002,-0.0000,-2.1538,flat,18.0,2,11.850
5140,164.48,0.4256,2.7324,0.1797,-0.0001,-0.0000,-2.1929,flat,18.0,2,11.300
5150,164.80,0.0898,2.2780,0.1797,-0.0001,-0.0000,-2.2261,flat,18.0,2,10.746
5160,165.12,-0.2612,1.8334,0.1797,-0.0001,-0.0000,-2.2549,flat,18.0,2,10.188
5170,165.44,-0.6251,1.3978,0.1797,-0.0001,-0.0000,-2.2803,flat,18.0,2,9.627
5180,165.76,-1.0000,0.9703,0.1797,-0.0001,-0.0000,-2.3033,flat,18.0,2,9.064
5190,166.08,-1.3848,0.5505,0.1797,-0.0001,-0.0000,-2.3244,flat,18.0,2,8.499
5200,166.40,-1.7785,0.1381,0.1797,-0.0001,-0.0000,-2.3435,flat,18.0,2,7.933
5210,166.72,-2.1801,-0.2674,0.1797,-0.0001,-0.0000,-2.3607,flat,18.0,2,7.365
5220,167.04,-2.5887,-0.6663,0.1797,-0.0001,-0.0000,-2.3767,flat,18.0,2,6.797
5230,167.36,-3.0037,-1.0590,0.1797,-0.0001,-0.0000,-2.3918,flat,18.0,2,6.227
5240,167.68,-3.4247,-1.4457,0.1797,-0.0001,-0.0000,-2.4061,flat,18.0,2,5.658
5250,168.00,-3.8511,-1.8265,0.1797,-0.0000,-0.0000,-2.4196,flat,18.0,2,5.087
5260,168.32,-4.2825,-2.2018,0.1797,-0.0000,-0.0000,-2.4326,flat,18.0,2,4.517
5270,168.64,-4.7186,-2.5716,0.1797,-0.0000,-0.0000,-2.4452,flat,18.0,2,3.946
5280,168.96,-5.1594,-2.9358,0.1797,-0.0000,0.0000,-2.4581,flat,18.0,2,3.376
5290,169.28,-5.6047,-3.2941,0.1797,-0.0000,0.0000,-2.4716,flat,18.0,2,2.805
5300,169.60,-6.0548,-3.6459,0.1797,-0.0001,0.0000,-2.4867,flat,18.0,2,2.234
5310,169.92,-6.5097,-3.9900,0.1797,-0.0001,0.0000,-2.5048,flat,18.0,2,1.665
5320,170.24,-6.9699,-4.3235,0.1797,-0.0001,0.0000,-2.5305,flat,18.0,2,1.097
5330,170.56,-7.4328,-4.6295,0.1798,-0.0000,-0.0000,-2.6061,flat,18.0,3,1.020
5340,170.88,-7.8245,-4.8333,0.1798,-0.0002,0.0009,-2.5876,flat,18.0,0,13.173
5350,171.20,-8.0839,-5.0880,0.1798,-0.0001,-0.0000,-2.0610,flat,18.0,0,13.441
5360,171.52,-8.2423,-5.4510,0.1799,-0.0000,-0.0000,-1.5651,flat,18.0,0,13.619
5370,171.84,-8.2156,-5.8463,0.1799,0.0002,-0.0000,-1.1784,flat,18.0,0,13.625
5380,172.16,-8.0069,-6.2444,0.1799,0.0001,-0.0000,-0.9003,flat,18.0,0,13.462
5390,172.48,-7.6633,-6.6027,0.1799,0.0001,-0.0000,-0.6912,flat,18.0,0,13.174
5400,172.80,-7.2332,-6.9111,0.1799,0.0001,-0.0000,-0.5072,flat,18.0,0,12.803
5410,173.12,-6.7552,-7.1330,0.1799,0.0001,-0.0000,-0.2866,flat,18.0,0,12.379
5420,173.44,-6.2273,-7.2641,0.1799,0.0001,-0.0000,-0.0922,flat,18.0,0,11.893
5430,173.76,-5.6784,-7.2963,0.1799,0.0001,-0.0000,0.0693,flat,18.0,0,11.367
5440,174.08,-5.1285,-7.2438,0.1799,0.0003,-0.0000,0.1910,flat,18.0,0,10.822
5450,174.40,-4.5868,-7.1265,0.1798,0.0004,-0.0000,0.2877,flat,18.0,0,10.268
5460,174.72,-4.0571,-6.9578,0.1798,0.0004,-0.0000,0.3692,flat,18.0,0,9.713
5470,175.04,-3.5419,-6.7464,0.1798,0.0003,-0.0000,0.4415,flat,18.0,0,9.161
5480,175.36,-3.0431,-6.4981,0.1797,0.0002,-0.0000,0.5090,flat,18.0,0,8.618
5490,175.68,-2.5625,-6.2160,0.1797,0.0002,-0.0000,0.5742,flat,18.0,0,8.087
5500,176.00,-2.0856,-5.9333,0.1798,-0.0002,-0.0000,0.4927,flat,18.0,0,7.563
5510,176.32,-1.5839,-5.6776,0.1798,-0.0003,-0.0000,0.4235,flat,18.0,0,7.025
5520,176.64,-1.0647,-5.4543,0.1797,-0.0002,-0.0000,0.3623,flat,18.0,0,6.477
5530,176.96,-0.5318,-5.2614,0.1797,-0.0002,-0.0000,0.3080,flat,18.0,0,5.923
5540,177.28,0.0115,-5.0963,0.1797,-0.0002,-0.0000,0.2593,flat,18.0,0,5.364
5550,177.60,0.5619,-4.9567,0.1797,-0.0001,-0.0000,0.2172,flat,18.0,0,4.803
5560,177.92,1.1177,-4.8393,0.1797,-0.0001,-0.0000,0.1790,flat,18.0,0,4.239
5570,178.24,1.6779,-4.7426,0.1797,-0.0001,-0.0000,0.1429,flat,18.0,0,3.674
5580,178.56,2.2415,-4.6658,0.1797,-0.0001,-0.0000,0.1078,flat,18.0,0,3.107
5590,178.88,2.8073,-4.6087,0.1797,-0.0001,-0.0000,0.0726,flat,18.0,0,2.539
5600,179.20,3.3745,-4.5715,0.1797,-0.0001,0.0000,0.0351,flat,18.0,0,1.971
5610,179.52,3.9143,-4.5571,0.1797,-0.0001,-0.0001,0.0105,flat,18.0,0,1.431
5620,179.84,4.4778,-4.5579,0.1798,-0.0003,-0.0000,-0.0594,flat,18.0,0,0.868
5630,180.16,5.0059,-4.5702,0.1799,-0.0006,0.0000,0.1258,flat,18.0,1,12.721
5640,180.48,5.4251,-4.4969,0.1799,-0.0002,0.0001,0.4993,flat,18.0,1,12.790
5650,180.80,5.7272,-4.2728,0.1799,-0.0001,-0.0001,0.8543,flat,18.0,1,12.688
5660,181.12,5.9828,-3.9072,0.1799,-0.0000,-0.0000,1.1619,flat,18.0,1,12.449
5670,181.44,6.1498,-3.4440,0.1799,0.0000,-0.0000,1.4447,flat,18.0,1,12.096
5680,181.76,6.1906,-2.9263,0.1799,0.0000,-0.0000,1.6860,flat,18.0,1,11.647
5690,182.08,6.1087,-2.3972,0.1799,0.0001,-0.0000,1.8612,flat,18.0,1,11.138
5700,182.40,5.9353,-1.8816,0.1799,0.0003,-0.0000,1.9875,flat,18.0,1,10.600
5710,182.72,5.6980,-1.3856,0.1798,0.0004,-0.0000,2.0823,flat,18.0,1,10.051
5720,183.04,5.4140,-0.9092,0.1798,0.0003,-0.0000,2.1562,flat,18.0,1,9.497
5730,183.36,5.0950,-0.4509,0.1797,0.0002,-0.0000,2.2155,flat,18.0,1,8.944
5740,183.68,4.7489,-0.0101,0.1797,0.0002,-0.0000,2.2669,flat,18.0,1,8.394
5750,184.00,4.3800,0.4142,0.1797,0.0002,-0.0000,2.3114,flat,18.0,1,7.851
5760,184.32,3.9921,0.8235,0.1797,0.0001,-0.0000,2.3509,flat,18.0,1,7.318
5770,184.64,3.5881,1.2185,0.1797,0.0001,-0.0000,2.3867,flat,18.0,1,6.796
5780,184.96,3.1700,1.5994,0.1797,0.0001,-0.0000,2.4204,flat,18.0,1,6.290
5790,185.28,2.7397,1.9669,0.1797,0.0001,-0.0000,2.4515,flat,18.0,1,5.804
5800,185.60,2.2981,2.3215,0.1797,0.0001,-0.0000,2.4816,flat,18.0,1,5.344
5810,185.92,1.8465,2.6489,0.1797,0.0002,-0.0000,2.5437,flat,18.0,1,4.931
5820,186.24,1.3746,2.9553,0.1797,0.0002,-0.0000,2.6015,flat,18.0,1,4.568
5830,186.56,0.8856,3.2356,0.1797,0.0002,-0.0000,2.6625,flat,18.0,1,4.276
5840,186.88,0.4217,3.4753,0.1799,0.0004,0.0000,2.5489,flat,18.0,1,4.078
5850,187.20,0.0491,3.7868,0.1799,-0.0000,-0.0000,2.3007,flat,18.0,1,3.847
5860,187.52,-0.2612,4.2010,0.1799,-0.0000,-0.0000,2.0691,flat,18.0,1,3.548
5870,187.84,-0.4882,4.6852,0.1799,-0.0000,-0.0000,1.8483,flat,18.0,1,3.201
5880,188.16,-0.6140,5.2122,0.1799,-0.0001,-0.0000,1.6412,flat,18.0,1,2.819
5890,188.48,-0.6320,5.7557,0.1799,-0.0001,-0.0000,1.4533,flat,18.0,1,2.409
5900,188.80,-0.5508,6.2915,0.1799,-0.0001,-0.0000,1.2945,flat,18.0,1,1.987
5910,189.12,-0.3815,6.7882,0.1799,-0.0001,-0.0000,1.1001,flat,18.0,1,1.575
5920,189.44,-0.1173,7.2414,0.1799,-0.0001,-0.0000,0.9263,flat,18.0,1,1.167
5930,189.76,0.2248,7.6348,0.1799,-0.0000,0.0000,0.7504,flat,18.0,1,0.804
5940,190.08,0.4812,7.8256,0.1796,-0.0000,-0.0018,0.3316,flat,18.0,2,15.247
5950,190.40,0.8189,7.9139,0.1791,0.0004,-0.0048,-0.1561,flat,18.0,2,15.507
5960,190.72,1.1722,7.8286,0.1799,-0.0001,-0.0000,-0.6056,flat,18.0,2,15.639
5970,191.04,1.4663,7.5579,0.1799,0.0000,-0.0001,-0.9248,flat,18.0,2,15.594
5980,191.36,1.7127,7.1607,0.1799,-0.0000,-0.0000,-1.2109,flat,18.0,2,15.431
5990,191.68,1.8643,6.6773,0.1799,-0.0001,-0.0000,-1.4658,flat,18.0,2,15.152
6000,192.00,1.8966,6.1480,0.1799,-0.0001,0.0000,-1.6759,flat,18.0,2,14.773
6010,192.32,1.8203,5.6418,0.1799,-0.0000,-0.0000,-1.9246,flat,18.0,2,14.346
6020,192.64,1.6117,5.1688,0.1799,-0.0000,-0.0000,-2.1305,flat,18.0,2,13.858
6030,192.96,1.3041,4.7389,0.1799,-0.0001,-0.0000,-2.2867,flat,18.0,2,13.334
6040,193.28,0.9293,4.3537,0.1799,-0.0002,-0.0000,-2.4140,flat,18.0,2,12.797
6050,193.60,0.5056,4.0135,0.1799,-0.0002,-0.0000,-2.5436,flat,18.0,2,12.258
6060,193.92,0.0394,3.7249,0.1799,-0.0002,-0.0000,-2.6782,flat,18.0,2,11.729
6070,194.24,-0.4593,3.5005,0.1798,-0.0001,-0.0000,-2.7183,flat,18.0,2,11.229
6080,194.56,-0.9560,3.2600,0.1798,0.0003,-0.0000,-2.6308,flat,18.0,2,10.722
6090,194.88,-1.4346,2.9766,0.1798,0.0003,-0.0000,-2.5623,flat,18.0,2,10.198
6100,195.20,-1.8961,2.6605,0.1797,0.0002,-0.0000,-2.5061,flat,18.0,2,9.662
6110,195.52,-2.3417,2.3184,0.1797,0.0002,-0.0000,-2.4598,flat,18.0,2,9.118
6120,195.84,-2.7728,1.9557,0.1797,0.0001,-0.0000,-2.4215,flat,18.0,2,8.569
6130,196.16,-3.1918,1.5765,0.1797,0.0001,-0.0000,-2.3867,flat,18.0,2,8.015
6140,196.48,-3.5988,1.1824,0.1797,0.0001,-0.0000,-2.3556,flat,18.0,2,7.458
6150,196.80,-3.9945,0.7758,0.1797,0.0001,-0.0000,-2.3274,flat,18.0,2,6.898
6160,197.12,-4.3792,0.3580,0.1797,0.0001,-0.0000,-2.3011,flat,18.0,2,6.337
6170,197.44,-4.7534,-0.0697,0.1797,0.0001,-0.0000,-2.2770,flat,18.0,2,5.774
6180,197.76,-5.1179,-0.5060,0.1797,0.0001,-0.0000,-2.2545,flat,18.0,2,5.210
6190,198.08,-5.4730,-0.9506,0.1797,0.0001,-0.0000,-2.2327,flat,18.0,2,4.645
6200,198.40,-5.8187,-1.4030,0.1797,0.0001,-0.0000,-2.2112,flat,18.0,2,4.079
6210,198.72,-6.1549,-1.8627,0.1797,0.0001,-0.0000,-2.1896,flat,18.0,2,3.513
6220,199.04,-6.4811,-2.3295,0.1797,0.0001,0.0000,-2.1673,flat,18.0,2,2.946
6230,199.36,-6.7964,-2.8034,0.1797,0.0001,0.0000,-2.1432,flat,18.0,2,2.379
6240,199.68,-7.0993,-3.2843,0.1797,0.0001,0.0000,-2.1151,flat,18.0,2,1.814
6250,200.00,-7.3865,-3.7723,0.1797,0.0001,0.0000,-2.0780,flat,18.0,2,1.250
6260,200.32,-7.6468,-4.2654,0.1798,0.0003,0.0002,-2.0344,flat,18.0,3,0.993
6270,200.64,-7.8673,-4.6876,0.1798,-0.0002,0.0002,-1.9265,flat,18.0,0,13.213
6280,200.96,-7.9811,-5.0611,0.1799,-0.0001,-0.0000,-1.4541,flat,18.0,0,13.337
6290,201.28,-7.9061,-5.4697,0.1799,-0.0001,-0.0001,-1.1053,flat,18.0,0,13.285
6300,201.60,-7.6607,-5.8661,0.1799,-0.0000,-0.0000,-0.8543,flat,18.0,0,13.075
6310,201.92,-7.2951,-6.2193,0.1799,0.0000,-0.0000,-0.6597,flat,18.0,0,12.753
6320,202.24,-6.8518,-6.5207,0.1799,0.0001,-0.0000,-0.4867,flat,18.0,0,12.359
6330,202.56,-6.3554,-6.7567,0.1799,0.0001,-0.0000,-0.3410,flat,18.0,0,11.912
6340,202.88,-5.8257,-6.9271,0.1799,0.0003,-0.0000,-0.2217,flat,18.0,0,11.427
6350,203.20,-5.2761,-7.0385,0.1798,0.0004,-0.0000,-0.1243,flat,18.0,0,10.915
6360,203.52,-4.7158,-7.0988,0.1798,0.0004,-0.0000,-0.0445,flat,18.0,0,10.386
6370,203.84,-4.1503,-7.1162,0.1797,0.0003,-0.0000,0.0206,flat,18.0,0,9.843
6380,204.16,-3.5843,-7.0986,0.1797,0.0002,-0.0000,0.0699,flat,18.0,0,9.294
6390,204.48,-3.0188,-7.0539,0.1797,0.0001,-0.0000,0.1096,flat,18.0,0,8.739
6400,204.80,-2.4546,-6.9876,0.1797,0.0001,-0.0000,0.1422,flat,18.0,0,8.180
6410,205.12,-1.9456,-6.8955,0.1799,-0.0001,0.0000,0.3878,flat,18.0,0,7.667
6420,205.44,-1.5255,-6.6753,0.1801,0.0007,-0.0005,0.6183,flat,18.0,0,7.200
6430,205.76,-1.0633,-6.3635,0.1798,-0.0002,-0.0000,0.5534,flat,18.0,0,6.668
6440,206.08,-0.5780,-6.0777,0.1798,-0.0002,-0.0000,0.4922,flat,18.0,0,6.124
6450,206.40,-0.0751,-5.8203,0.1797,-0.0002,-0.0000,0.4366,flat,18.0,0,5.574
6460,206.72,0.4421,-5.5891,0.1797,-0.0002,-0.0000,0.3857,flat,18.0,0,5.018
6470,207.04,0.9705,-5.3830,0.1797,-0.0002,0.0000,0.3397,flat,18.0,0,4.458
6480,207.36,1.5070,-5.2002,0.1797,-0.0001,-0.0000,0.2982,flat,18.0,0,3.897
6490,207.68,2.0510,-5.0392,0.1797,-0.0001,-0.0000,0.2578,flat,18.0,0,3.334
6500,208.00,2.6011,-4.9000,0.1797,-0.0001,-0.0000,0.2173,flat,18.0,0,2.770
6510,208.32,3.1560,-4.7829,0.1797,-0.0001,0.0000,0.1749,flat,18.0,0,2.204
6520,208.64,3.7153,-4.6898,0.1797,-0.0002,-0.0000,0.1248,flat,18.0,0,1.638
6530,208.96,4.2768,-4.6256,0.1797,-0.0002,0.0000,0.0587,flat,18.0,0,1.073
6540,209.28,4.8287,-4.6025,0.1798,-0.0003,0.0001,0.0835,flat,18.0,1,12.697
6550,209.60,5.3137,-4.5448,0.1798,-0.0003,0.0001,0.3579,flat,18.0,1,12.797
6560,209.92,5.6776,-4.3723,0.1799,-0.0001,0.0000,0.6956,flat,18.0,1,12.763
6570,210.24,5.9548,-4.0691,0.1799,-0.0000,-0.0001,1.0151,flat,18.0,1,12.587
6580,210.56,6.1709,-3.6493,0.1799,0.0000,-0.0000,1.3135,flat,18.0,1,12.291
6590,210.88,6.2740,-3.1530,0.1799,0.0001,-0.0000,1.5796,flat,18.0,1,11.888
6600,211.20,6.2463,-2.6256,0.1799,0.0001,-0.0000,1.7868,flat,18.0,1,11.404
6610,211.52,6.1107,-2.1028,0.1799,0.0001,-0.0000,1.9365,flat,18.0,1,10.878
6620,211.84,5.8990,-1.5985,0.1798,0.0004,-0.0000,2.0449,flat,18.0,1,10.333
6630,212.16,5.6332,-1.1144,0.1798,0.0004,-0.0000,2.1283,flat,18.0,1,9.781
6640,212.48,5.3272,-0.6491,0.1797,0.0002,-0.0000,2.1931,flat,18.0,1,9.227
6650,212.80,4.9913,-0.2014,0.1797,0.0002,-0.0000,2.2473,flat,18.0,1,8.674
6660,213.12,4.6310,0.2292,0.1797,0.0002,-0.0000,2.2952,flat,18.0,1,8.127
6670,213.44,4.2500,0.6437,0.1797,0.0001,-0.0000,2.3374,flat,18.0,1,7.588
6680,213.76,3.8514,1.0433,0.1797,0.0001,-0.0000,2.3751,flat,18.0,1,7.060
6690,214.08,3.4378,1.4285,0.1797,0.0001,-0.0000,2.4104,flat,18.0,1,6.545
6700,214.40,3.0110,1.7997,0.1797,0.0001,-0.0000,2.4429,flat,18.0,1,6.048
6710,214.72,2.5727,2.1577,0.1797,0.0001,-0.0000,2.4736,flat,18.0,1,5.573
6720,215.04,2.1233,2.5028,0.1797,0.0001,-0.0000,2.5039,flat,18.0,1,5.127
6730,215.36,1.6635,2.8346,0.1797,0.0001,-0.0000,2.5343,flat,18.0,1,4.719
6740,215.68,1.1939,3.1524,0.1797,0.0001,-0.0000,2.5657,flat,18.0,1,4.361
6750,216.00,0.7147,3.4549,0.1797,0.0001,0.0000,2.5997,flat,18.0,1,4.066
6760,216.32,0.2870,3.7258,0.1799,0.0003,0.0000,2.4344,flat,18.0,1,3.854
6770,216.64,-0.0437,4.0787,0.1799,-0.0000,-0.0000,2.1736,flat,18.0,1,3.592
6780,216.96,-0.3027,4.5264,0.1799,-0.0001,-0.0000,1.9167,flat,18.0,1,3.263
6790,217.28,-0.4562,5.0376,0.1799,-0.0001,-0.0000,1.6710,flat,18.0,1,2.879
6800,217.60,-0.4864,5.5750,0.1799,-0.0001,0.0000,1.4529,flat,18.0,1,2.451
6810,217.92,-0.4034,6.1064,0.1799,-0.0001,0.0000,1.2786,flat,18.0,1,1.998
6820,218.24,-0.2292,6.6143,0.1799,-0.0001,-0.0000,1.1269,flat,18.0,1,1.536
6830,218.56,0.0219,7.0861,0.1799,-0.0001,-0.0000,0.9812,flat,18.0,1,1.083
6840,218.88,0.3099,7.4803,0.1805,-0.0002,0.0054,0.8372,flat,18.0,2,14.864
6850,219.20,0.4840,7.5985,0.1736,-0.0350,0.0007,0.1962,flat,18.0,2,15.059
6860,219.52,0.8121,7.6497,0.1799,0.0003,-0.0000,-0.2902,flat,18.0,2,15.286
6870,219.84,1.1457,7.5126,0.1799,0.0001,-0.0000,-0.6965,flat,18.0,2,15.367
6880,220.16,1.4299,7.2046,0.1799,0.0000,-0.0001,-1.0005,flat,18.0,2,15.291
6890,220.48,1.6558,6.7823,0.1799,-0.0000,-0.0000,-1.2812,flat,18.0,2,15.100
6900,220.80,1.7773,6.2837,0.1799,0.0000,-0.0000,-1.5297,flat,18.0,2,14.796
6910,221.12,1.7779,5.7495,0.1799,-0.0001,-0.0000,-1.7256,flat,18.0,2,14.397
6920,221.44,1.6763,5.2143,0.1799,-0.0002,-0.0000,-1.8658,flat,18.0,2,13.935
6930,221.76,1.5020,4.6919,0.1798,-0.0004,-0.0000,-1.9665,flat,18.0,2,13.438
6940,222.08,1.2762,4.1846,0.1798,-0.0003,-0.0000,-2.0431,flat,18.0,2,12.919
6950,222.40,1.0120,3.6921,0.1797,-0.0002,-0.0000,-2.1036,flat,18.0,2,12.385
6960,222.72,0.7183,3.2133,0.1797,-0.0002,-0.0000,-2.1527,flat,18.0,2,11.842
6970,223.04,0.4011,2.7476,0.1797,-0.0001,-0.0000,-2.1915,flat,18.0,2,11.292
6980,223.36,0.0660,2.2927,0.1797,-0.0001,-0.0000,-2.2245,flat,18.0,2,10.738
6990,223.68,-0.2843,1.8475,0.1797,-0.0001,-0.0000,-2.2532,flat,18.0,2,10.180
7000,224.00,-0.6474,1.4112,0.1797,-0.0001,-0.0000,-2.2784,flat,18.0,2,9.619
7010,224.32,-1.0215,0.9830,0.1797,-0.0001,-0.0000,-2.3013,flat,18.0,2,9.056
7020,224.64,-1.4055,0.5623,0.1797,-0.0001,-0.0000,-2.3223,flat,18.0,2,8.491
7030,224.96,-1.7983,0.1491,0.1797,-0.0001,-0.0000,-2.3413,flat,18.0,2,7.925
7040,225.28,-2.1990,-0.2573,0.1797,-0.0001,-0.0000,-2.3585,flat,18.0,2,7.357
7050,225.60,-2.6067,-0.6572,0.1797,-0.0001,-0.0000,-2.3744,flat,18.0,2,6.788
7060,225.92,-3.0208,-1.0510,0.1797,-0.0001,-0.0000,-2.3894,flat,18.0,2,6.219
7070,226.24,-3.4408,-1.4387,0.1797,-0.0001,-0.0000,-2.4036,flat,18.0,2,5.649
7080,226.56,-3.8663,-1.8206,0.1797,-0.0000,-0.0000,-2.4171,flat,18.0,2,5.079
7090,226.88,-4.2967,-2.1970,0.1797,-0.0000,-0.0000,-2.4300,flat,18.0,2,4.508
7100,227.20,-4.7319,-2.5680,0.1797,-0.0000,-0.0000,-2.4426,flat,18.0,2,3.938
7110,227.52,-5.1717,-2.9333,0.1797,-0.0000,0.0000,-2.4554,flat,18.0,2,3.367
7120,227.84,-5.6161,-3.2928,0.1797,-0.0000,0.0000,-2.4689,flat,18.0,2,2.796
7130,228.16,-6.0652,-3.6458,0.1797,-0.0001,0.0000,-2.4839,flat,18.0,2,2.226
7140,228.48,-6.5192,-3.9911,0.1797,-0.0001,0.0000,-2.5020,flat,18.0,2,1.656
7150,228.80,-6.9785,-4.3259,0.1797,-0.0001,0.0000,-2.5278,flat,18.0,2,1.089
7160,229.12,-7.4403,-4.6329,0.1798,-0.0000,0.0000,-2.6043,flat,18.0,3,1.012
7170,229.44,-7.8323,-4.8352,0.1798,-0.0003,0.0007,-2.5842,flat,18.0,0,13.181
7180,229.76,-8.0899,-5.0867,0.1783,0.0095,-0.0001,-2.0502,flat,18.0,0,13.447
7190,230.08,-8.2433,-5.4536,0.1799,-0.0000,0.0001,-1.5476,flat,18.0,0,13.620
7200,230.40,-8.2098,-5.8495,0.1799,0.0000,-0.0000,-1.1635,flat,18.0,0,13.620
7210,230.72,-7.9929,-6.2391,0.1799,0.0001,-0.0000,-0.8689,flat,18.0,0,13.448
7220,231.04,-7.6392,-6.5816,0.1799,0.0001,-0.0000,-0.6439,flat,18.0,0,13.147
7230,231.36,-7.1974,-6.8666,0.1799,0.0001,0.0000,-0.4380,flat,18.0,0,12.760
7240,231.68,-6.6944,-7.0729,0.1799,0.0001,-0.0000,-0.2560,flat,18.0,0,12.307
7250,232.00,-6.1562,-7.1944,0.1799,0.0001,-0.0000,-0.1033,flat,18.0,0,11.808
7260,232.32,-5.6015,-7.2373,0.1799,0.0003,-0.0000,0.0228,flat,18.0,0,11.278
7270,232.64,-5.0432,-7.2131,0.1798,0.0004,-0.0000,0.1203,flat,18.0,0,10.731
7280,232.96,-4.4880,-7.1365,0.1798,0.0003,-0.0000,0.1973,flat,18.0,0,10.175
7290,233.28,-3.9387,-7.0183,0.1797,0.0002,-0.0000,0.2609,flat,18.0,0,9.614
7300,233.60,-3.3967,-6.8658,0.1797,0.0002,-0.0000,0.3155,flat,18.0,0,9.051
7310,233.92,-2.8629,-6.6841,0.1797,0.0002,-0.0000,0.3640,flat,18.0,0,8.488
7320,234.24,-2.3382,-6.4767,0.1797,0.0002,0.0000,0.4080,flat,18.0,0,7.928
7330,234.56,-1.8239,-6.2466,0.1797,0.0001,0.0000,0.4486,flat,18.0,0,7.374
7340,234.88,-1.3202,-5.9956,0.1797,0.0001,0.0000,0.4905,flat,18.0,0,6.826
7350,235.20,-0.8212,-5.7441,0.1798,-0.0002,-0.0000,0.4362,flat,18.0,0,6.286
7360,235.52,-0.3047,-5.5142,0.1797,-0.0002,-0.0000,0.3779,flat,18.0,0,5.736
7370,235.84,0.2252,-5.3131,0.1797,-0.0002,-0.0000,0.3252,flat,18.0,0,5.180
7380,236.16,0.7656,-5.1387,0.1797,-0.0002,-0.0000,0.2771,flat,18.0,0,4.621
7390,236.48,1.3134,-4.9896,0.1797,-0.0001,-0.0000,0.2344,flat,18.0,0,4.059
7400,236.80,1.8667,-4.8629,0.1797,-0.0001,-0.0000,0.1946,flat,18.0,0,3.495
7410,237.12,2.4248,-4.7580,0.1797,-0.0001,-0.0000,0.1555,flat,18.0,0,2.930
7420,237.44,2.9864,-4.6748,0.1797,-0.0001,-0.0000,0.1153,flat,18.0,0,2.363
7430,237.76,3.5503,-4.6143,0.1797,-0.0002,-0.0000,0.0709,flat,18.0,0,1.797
7440,238.08,4.1147,-4.5797,0.1797,-0.0002,0.0000,0.0162,flat,18.0,0,1.231
7450,238.40,4.6740,-4.5764,0.1798,-0.0003,0.0001,-0.0232,flat,18.0,1,12.627
7460,238.72,5.1836,-4.5629,0.1798,-0.0003,0.0001,0.2428,flat,18.0,1,12.771
7470,239.04,5.5709,-4.4391,0.1799,-0.0001,0.0000,0.6085,flat,18.0,1,12.787
7480,239.36,5.8581,-4.1711,0.1799,-0.0000,-0.0001,0.9407,flat,18.0,1,12.644
7490,239.68,6.0945,-3.7754,0.1799,0.0000,-0.0000,1.2442,flat,18.0,1,12.374
7500,240.00,6.2282,-3.2929,0.1799,0.0001,-0.0000,1.5184,flat,18.0,1,11.993
7510,240.32,6.2314,-2.7689,0.1799,0.0001,0.0000,1.7412,flat,18.0,1,11.525
7520,240.64,6.1196,-2.2425,0.1799,0.0001,-0.0000,1.9035,flat,18.0,1,11.006
7530,240.96,5.9246,-1.7329,0.1799,0.0003,-0.0000,2.0195,flat,18.0,1,10.464
7540,241.28,5.6713,-1.2434,0.1798,0.0004,-0.0000,2.1079,flat,18.0,1,9.913
7550,241.60,5.3750,-0.7730,0.1797,0.0003,-0.0000,2.1767,flat,18.0,1,9.359
7560,241.92,5.0466,-0.3205,0.1797,0.0002,-0.0000,2.2330,flat,18.0,1,8.806
7570,242.24,4.6927,0.1147,0.1797,0.0002,-0.0000,2.2825,flat,18.0,1,8.257
7580,242.56,4.3171,0.5337,0.1797,0.0002,-0.0000,2.3257,flat,18.0,1,7.716
7590,242.88,3.9233,0.9378,0.1797,0.0001,-0.0000,2.3641,flat,18.0,1,7.185
7600,243.20,3.5140,1.3275,0.1797,0.0001,-0.0000,2.3995,flat,18.0,1,6.667
7610,243.52,3.0914,1.6915,0.1797,0.0002,-0.0000,2.4554,flat,18.0,1,6.176
7620,243.84,2.6498,2.0389,0.1797,0.0002,-0.0000,2.4999,flat,18.0,1,5.709
7630,244.16,2.1927,2.3677,0.1797,0.0002,-0.0000,2.5435,flat,18.0,1,5.274
7640,244.48,1.7214,2.6772,0.1797,0.0002,-0.0000,2.5871,flat,18.0,1,4.883
7650,244.80,1.2370,2.9663,0.1797,0.0002,-0.0000,2.6321,flat,18.0,1,4.549
7660,245.12,0.7404,3.2333,0.1797,0.0002,-0.0000,2.6807,flat,18.0,1,4.286
7670,245.44,0.2948,3.4708,0.1799,0.0003,-0.0000,2.5004,flat,18.0,1,4.103
7680,245.76,-0.0639,3.8035,0.1799,0.0000,-0.0000,2.2554,flat,18.0,1,3.861
7690,246.08,-0.3596,4.2329,0.1799,-0.0000,-0.0000,2.0233,flat,18.0,1,3.555
7700,246.40,-0.5668,4.7278,0.1799,-0.0000,-0.0000,1.8039,flat,18.0,1,3.202
7710,246.72,-0.6702,5.2603,0.1799,-0.0001,-0.0000,1.5992,flat,18.0,1,2.813
7720,247.04,-0.6659,5.8041,0.1799,-0.0001,-0.0000,1.4189,flat,18.0,1,2.397
7730,247.36,-0.5692,6.3342,0.1799,0.0001,0.0002,1.2517,flat,18.0,1,1.976
7740,247.68,-0.3809,6.8271,0.1799,-0.0001,0.0000,1.0738,flat,18.0,1,1.557
7750,248.00,-0.1042,7.2737,0.1799,-0.0001,-0.0000,0.9043,flat,18.0,1,1.148
7760,248.32,0.2467,7.6602,0.1799,-0.0000,0.0000,0.7295,flat,18.0,2,0.787
7770,248.64,0.4945,7.8297,0.1798,0.0009,-0.0013,0.2922,flat,18.0,2,15.257
7780,248.96,0.8420,7.9064,0.1793,0.0005,-0.0033,-0.2114,flat,18.0,2,15.514
7790,249.28,1.1884,7.8008,0.1799,0.0000,-0.0000,-0.6420,flat,18.0,2,15.626
7800,249.60,1.4791,7.5153,0.1799,0.0000,-0.0001,-0.9529,flat,18.0,2,15.568
7810,249.92,1.7185,7.1084,0.1799,-0.0000,-0.0000,-1.2365,flat,18.0,2,15.393
7820,250.24,1.8596,6.6189,0.1799,-0.0000,-0.0000,-1.4889,flat,18.0,2,15.105
7830,250.56,1.8809,6.0873,0.1799,-0.0001,-0.0000,-1.6943,flat,18.0,2,14.717
7840,250.88,1.7959,5.5501,0.1799,-0.0002,-0.0000,-1.8419,flat,18.0,2,14.262
7850,251.20,1.6341,5.0244,0.1798,-0.0004,-0.0000,-1.9471,flat,18.0,2,13.768
7860,251.52,1.4182,4.5133,0.1798,-0.0004,-0.0000,-2.0264,flat,18.0,2,13.251
7870,251.84,1.1624,4.0167,0.1797,-0.0002,-0.0000,-2.0886,flat,18.0,2,12.720
7880,252.16,0.8759,3.5338,0.1797,-0.0002,-0.0000,-2.1389,flat,18.0,2,12.177
7890,252.48,0.5653,3.0639,0.1797,-0.0001,-0.0000,-2.1787,flat,18.0,2,11.628
7900,252.80,0.2360,2.6049,0.1797,-0.0001,-0.0000,-2.2123,flat,18.0,2,11.074
7910,253.12,-0.1088,2.1555,0.1797,-0.0001,-0.0000,-2.2413,flat,18.0,2,10.516
7920,253.44,-0.4666,1.7149,0.1797,-0.0001,-0.0000,-2.2667,flat,18.0,2,9.956
7930,253.76,-0.8356,1.2824,0.1797,-0.0001,-0.0000,-2.2893,flat,18.0,2,9.393
7940,254.08,-1.2144,0.8573,0.1797,-0.0001,-0.0000,-2.3101,flat,18.0,2,8.828
7950,254.40,-1.6022,0.4393,0.1797,-0.0001,-0.0000,-2.3291,flat,18.0,2,8.261
7960,254.72,-1.9979,0.0280,0.1797,-0.0001,-0.0000,-2.3463,flat,18.0,2,7.694
7970,255.04,-2.4007,-0.3769,0.1797,-0.0001,-0.0000,-2.3620,flat,18.0,2,7.125
7980,255.36,-2.8099,-0.7759,0.1797,-0.0001,-0.0000,-2.3766,flat,18.0,2,6.556
7990,255.68,-3.2249,-1.1692,0.1797,-0.0000,-0.0000,-2.3905,flat,18.0,2,5.986
8000,256.00,-3.6454,-1.5568,0.1797,-0.0000,-0.0000,-2.4037,flat,18.0,2,5.415
8010,256.32,-4.0709,-1.9392,0.1797,-0.0000,-0.0000,-2.4163,flat,18.0,2,4.845
