step,time_s,x,y,z,roll,pitch,yaw,terrain,speed,target_idx,dist_to_target
10,0.32,2.0613,0.4848,0.3119,0.1221,-0.0331,0.0327,rough,14.0,0,6.364
20,0.64,2.3518,0.5047,0.2735,0.0588,0.1440,0.0300,slope,18.0,0,6.077
30,0.96,2.8366,0.5541,0.1582,-0.0908,0.3080,0.0631,slope,18.0,0,5.596
40,1.28,3.3539,0.6249,-0.0041,-0.1768,0.2813,0.1482,slope,18.0,0,5.079
50,1.60,3.7806,0.6968,-0.0876,-0.0845,0.1424,0.1923,rough,14.0,0,4.649
60,1.92,4.1845,0.8012,-0.1452,-0.1234,0.1652,0.2558,rough,14.0,0,4.233
70,2.24,4.6560,0.9378,-0.3567,-0.0100,0.6305,0.3297,rough,14.0,0,3.742
80,2.56,5.0345,1.0657,-0.5713,0.0663,0.4107,0.5628,rough,14.0,0,3.342
90,2.88,5.2470,1.1289,-0.6329,0.2850,0.0425,1.0203,rough,14.0,0,3.121
100,3.20,5.3641,1.3532,-0.6505,0.1903,-0.0159,1.4185,rough,14.0,0,2.949
110,3.52,5.4178,1.5974,-0.6583,0.1058,-0.1518,1.8787,rough,14.0,0,2.849
120,3.84,5.3306,1.8484,-0.6137,0.1311,-0.1799,2.2995,rough,14.0,0,2.909
130,4.16,5.0615,2.0554,-0.6479,-0.1572,0.2376,2.3016,rough,14.0,0,3.172
140,4.48,4.9228,2.2456,-0.6915,-0.1164,0.2655,1.9253,rough,14.0,0,3.317
150,4.80,4.8526,2.5402,-0.7259,-0.0308,0.1318,1.4658,rough,14.0,0,3.419
160,5.12,4.9256,2.9053,-0.7629,0.0257,0.0372,1.2964,rough,14.0,0,3.421
170,5.44,5.1337,3.3168,-0.9207,0.4821,0.4383,1.2878,rough,14.0,0,3.355
180,5.76,5.3215,3.7307,-1.1065,0.5300,0.3070,1.4018,rough,14.0,0,3.370
190,6.08,5.4438,4.0161,-1.1524,0.3924,-0.0311,1.0611,rough,14.0,0,3.422
200,6.40,5.6157,4.3078,-1.1614,0.1875,-0.1754,0.8897,rough,14.0,0,3.467
210,6.72,5.8681,4.5613,-1.1083,0.3744,-0.1889,0.8977,rough,14.0,0,3.461
220,7.04,6.1125,4.8065,-1.0934,0.4377,-0.0606,0.9178,rough,14.0,0,3.491
230,7.36,6.2622,4.9641,-1.0894,0.3527,-0.0150,0.7451,rough,14.0,0,3.531
240,7.68,6.4050,5.0137,-1.1245,0.2750,0.0716,0.3839,rough,14.0,0,3.496
250,8.00,6.6145,4.9692,-1.1633,0.3467,0.2380,-0.0136,rough,14.0,0,3.352
260,8.32,6.7667,4.8760,-1.1759,0.4881,0.0374,-0.0796,rough,14.0,0,3.198
270,8.64,6.8910,4.8687,-1.1695,0.5248,-0.4253,-0.3177,rough,14.0,0,3.136
280,8.96,7.0866,4.7774,-1.0953,0.5561,-0.3548,-0.2763,rough,14.0,0,2.973
290,9.28,7.2876,4.6871,-1.0009,0.5386,-0.2748,-0.5951,rough,14.0,0,2.816
300,9.60,7.2929,4.5643,-1.0732,0.6170,0.1142,-0.9289,rough,14.0,0,2.699
310,9.92,7.2090,4.5211,-1.1782,0.6618,-0.0021,-0.7502,rough,14.0,0,2.690
320,10.24,7.1239,4.4490,-1.2268,0.6920,-0.1058,-0.7515,rough,14.0,0,2.657
330,10.56,7.0926,4.3692,-1.2477,0.5987,-0.1801,-0.6475,rough,14.0,0,2.599
340,10.88,7.1102,4.3145,-1.2517,0.3801,0.0014,-0.3682,rough,14.0,0,2.542
350,11.20,7.1209,4.2765,-1.2634,0.3019,0.1182,-0.2645,rough,14.0,0,2.503
360,11.52,7.1317,4.3106,-1.2531,0.0932,-0.2474,-0.2694,rough,14.0,0,2.529
370,11.84,7.1450,4.2938,-1.2296,0.1521,-0.2421,-0.0341,rough,14.0,0,2.508
380,12.16,7.1576,4.2794,-1.2430,0.1904,-0.0767,-0.0217,rough,14.0,0,2.490
390,12.48,7.1586,4.2792,-1.2426,0.1921,-0.0755,-0.0122,rough,14.0,0,2.489
400,12.80,7.1580,4.2802,-1.2432,0.1947,-0.0693,-0.0104,rough,14.0,0,2.490
410,13.12,7.1583,4.2814,-1.2424,0.1955,-0.0747,-0.0023,rough,14.0,0,2.491
420,13.44,7.1579,4.2804,-1.2421,0.1967,-0.0756,-0.0127,rough,14.0,0,2.490
430,13.76,7.1580,4.2810,-1.2431,0.1968,-0.0680,-0.0106,rough,14.0,0,2.491
440,14.08,7.1581,4.2802,-1.2421,0.1971,-0.0757,-0.0148,rough,14.0,0,2.490
450,14.40,7.1581,4.2807,-1.2424,0.1973,-0.0733,-0.0130,rough,14.0,0,2.491
460,14.72,7.1588,4.2801,-1.2454,0.1960,-0.0528,-0.0144,rough,14.0,0,2.490
470,15.04,7.1582,4.2805,-1.2422,0.1974,-0.0745,-0.0134,rough,14.0,0,2.490
480,15.36,7.1577,4.2810,-1.2417,0.1971,-0.0778,-0.0105,rough,14.0,0,2.491
490,15.68,7.1588,4.2805,-1.2453,0.1966,-0.0533,-0.0133,rough,14.0,0,2.490
500,16.00,7.1582,4.2807,-1.2424,0.1974,-0.0732,-0.0131,rough,14.0,0,2.490
510,16.32,7.1581,4.2802,-1.2433,0.1966,-0.0674,-0.0147,rough,14.0,0,2.490
520,16.64,7.1589,4.2807,-1.2453,0.1968,-0.0531,-0.0128,rough,14.0,0,2.490
530,16.96,7.1579,4.2810,-1.2414,0.1969,-0.0803,-0.0096,rough,14.0,0,2.491
540,17.28,7.1582,4.2805,-1.2433,0.1970,-0.0671,-0.0134,rough,14.0,0,2.490
550,17.60,7.1589,4.2811,-1.2456,0.1967,-0.0506,-0.0108,rough,14.0,0,2.491
560,17.92,7.1579,4.2802,-1.2421,0.1969,-0.0754,-0.0148,rough,14.0,0,2.490
570,18.24,7.1583,4.2807,-1.2434,0.1971,-0.0663,-0.0130,rough,14.0,0,2.490
580,18.56,7.1584,4.2816,-1.2424,0.1966,-0.0737,-0.0035,rough,14.0,0,2.491
590,18.88,7.1580,4.2805,-1.2422,0.1973,-0.0745,-0.0134,rough,14.0,0,2.490
600,19.20,7.1581,4.2811,-1.2432,0.1970,-0.0673,-0.0108,rough,14.0,0,2.491
610,19.52,7.1581,4.2802,-1.2421,0.1972,-0.0754,-0.0149,rough,14.0,0,2.490
620,19.84,7.1584,4.2808,-1.2438,0.1967,-0.0633,-0.0117,rough,14.0,1,3.018
630,20.16,7.1349,4.2553,-1.2594,0.2229,0.0696,-0.1640,rough,14.0,1,3.010
640,20.48,7.0405,4.3106,-1.2815,-0.0411,-0.1509,-0.6094,rough,14.0,1,2.901
650,20.80,6.9613,4.2916,-1.2941,-0.0388,0.0210,-1.1374,rough,14.0,1,2.842
660,21.12,6.8702,4.2494,-1.2717,-0.0483,-0.0466,-1.7464,rough,14.0,1,2.787
670,21.44,6.8231,4.0761,-1.2597,0.0126,-0.1730,-2.2731,rough,14.0,1,2.845
680,21.76,6.6494,3.8374,-1.2256,-0.1178,-0.0904,-2.4209,rough,14.0,1,2.860
690,22.08,6.4103,3.6330,-1.2012,-0.0972,-0.0782,-2.5194,rough,14.0,1,2.836
700,22.40,6.0851,3.4791,-1.2092,0.1850,0.1775,-2.5600,rough,14.0,1,2.756
710,22.72,5.9190,3.3620,-1.2105,0.0874,-0.1670,-2.5895,rough,14.0,1,2.766
720,23.04,5.8419,3.3121,-1.1756,0.2350,-0.2941,-2.8195,rough,14.0,1,2.771
730,23.36,5.7330,3.2627,-1.1443,0.3262,-0.4733,-3.0826,rough,14.0,1,2.765
740,23.68,5.4991,3.2870,-1.0528,0.3884,-0.3673,3.0188,rough,14.0,1,2.648
750,24.00,5.2407,3.3905,-0.9833,0.4478,-0.3285,2.7350,rough,14.0,1,2.465
760,24.32,5.0199,3.5608,-0.8974,0.5451,-0.4321,2.3831,rough,14.0,1,2.243
770,24.64,4.7839,3.8250,-0.8365,0.3594,-0.1602,2.1721,rough,14.0,1,1.941
780,24.96,4.5756,4.1406,-0.8331,0.2980,0.0666,2.1001,rough,14.0,1,1.608
790,25.28,4.4366,4.4317,-0.8713,0.2753,0.1603,2.0061,rough,14.0,1,1.319
800,25.60,4.2834,4.6953,-0.9473,0.0234,0.3799,1.9462,rough,14.0,1,1.079
810,25.92,4.2043,4.9223,-1.0240,-0.0612,0.2200,1.8260,rough,14.0,2,11.702
820,26.24,4.1409,5.2830,-1.0734,-0.0057,0.0596,1.8078,rough,14.0,2,11.731
830,26.56,4.0494,5.6469,-1.0457,0.0107,-0.1706,1.8642,rough,14.0,2,11.745
840,26.88,3.9280,6.0239,-0.9694,0.0203,-0.2185,1.8942,rough,14.0,2,11.747
850,27.20,3.7351,6.4268,-0.9198,-0.2181,-0.0098,1.9184,rough,14.0,2,11.706
860,27.52,3.5261,6.8078,-0.9633,-0.4510,0.0468,1.9592,rough,14.0,2,11.657
870,27.84,3.3639,7.1217,-0.9604,-0.2821,-0.1177,2.1875,rough,14.0,2,11.639
880,28.16,3.1310,7.3850,-0.8974,-0.3741,-0.2553,2.3089,rough,14.0,2,11.545
890,28.48,2.8594,7.6086,-0.8185,-0.5585,-0.3901,2.5155,rough,14.0,2,11.408
900,28.80,2.5074,7.7702,-0.8006,-0.5669,-0.0110,2.3940,rough,14.0,2,11.180
910,29.12,2.2493,7.9281,-0.8338,-0.6033,-0.1531,2.5071,rough,14.0,2,11.039
920,29.44,1.9703,8.1626,-0.8173,-0.4498,-0.0250,2.5170,rough,14.0,2,10.928
930,29.76,1.7451,8.2848,-0.7863,-0.4825,-0.2573,2.6840,rough,14.0,2,10.809
940,30.08,1.5093,8.3737,-0.7232,-0.4843,-0.3509,2.8521,rough,14.0,2,10.667
950,30.40,1.2347,8.4270,-0.6446,-0.5211,-0.2557,2.8999,rough,14.0,2,10.477
960,30.72,0.9314,8.4604,-0.6154,-0.5836,-0.1382,2.9511,slope,18.0,2,10.255
970,31.04,0.5662,8.4847,-0.6327,-0.5719,0.0750,2.9867,slope,18.0,2,9.985
980,31.36,0.2829,8.5072,-0.6928,-0.4754,0.2074,3.0808,rough,14.0,2,9.782
990,31.68,0.0299,8.5128,-0.7582,-0.3815,0.1864,-3.0865,rough,14.0,2,9.594
1000,32.00,-0.2408,8.4700,-0.8316,-0.3564,0.2647,-2.9964,rough,14.0,2,9.364
1010,32.32,-0.4618,8.3881,-0.9350,-0.3746,0.3821,-3.1312,rough,14.0,2,9.145
1020,32.64,-0.5654,8.3248,-1.0001,-0.5592,0.2378,2.6310,rough,14.0,2,9.026
1030,32.96,-0.6477,8.3570,-1.0255,-0.5255,-0.0564,2.3342,rough,14.0,2,8.989
1040,33.28,-0.7513,8.3354,-1.0735,-0.4719,-0.2561,1.9829,rough,14.0,2,8.899
1050,33.60,-0.7997,8.3285,-1.0860,-0.3713,-0.3538,1.8133,rough,14.0,2,8.859
1060,33.92,-0.8325,8.3280,-1.0998,-0.3311,-0.3549,1.7137,rough,14.0,2,8.835
1070,34.24,-0.8490,8.3224,-1.1079,-0.3093,-0.3711,1.6690,rough,14.0,2,8.819
1080,34.56,-0.8605,8.3198,-1.1134,-0.2986,-0.3814,1.6451,rough,14.0,2,8.809
1090,34.88,-0.8814,8.3177,-1.1174,-0.2983,-0.4174,1.6535,rough,14.0,2,8.793
1100,35.20,-0.9065,8.3150,-1.1291,-0.2853,-0.4065,1.6546,rough,14.0,2,8.773
1110,35.52,-0.9400,8.3165,-1.1354,-0.2868,-0.4665,1.6581,rough,14.0,2,8.750
1120,35.84,-0.9584,8.3262,-1.1459,-0.2720,-0.4623,1.5998,rough,14.0,2,8.744
1130,36.16,-0.9790,8.3259,-1.1541,-0.2623,-0.4729,1.5923,rough,14.0,2,8.729
1140,36.48,-1.0011,8.3376,-1.1588,-0.2849,-0.4761,1.5465,rough,14.0,2,8.722
1150,36.80,-0.9978,8.3384,-1.1578,-0.2852,-0.4747,1.5455,rough,14.0,2,8.725
1160,37.12,-0.9975,8.3387,-1.1577,-0.2848,-0.4763,1.5449,rough,14.0,2,8.725
1170,37.44,-0.9969,8.3388,-1.1575,-0.2846,-0.4766,1.5451,rough,14.0,2,8.726
1180,37.76,-0.9964,8.3387,-1.1573,-0.2846,-0.4765,1.5454,rough,14.0,2,8.726
1190,38.08,-0.9968,8.3387,-1.1574,-0.2846,-0.4765,1.5452,rough,14.0,2,8.726
1200,38.40,-0.9967,8.3388,-1.1574,-0.2846,-0.4766,1.5452,rough,14.0,2,8.726
1210,38.72,-0.9964,8.3387,-1.1573,-0.2846,-0.4765,1.5455,rough,14.0,2,8.726
1220,39.04,-0.9968,8.3387,-1.1574,-0.2846,-0.4765,1.5452,rough,14.0,2,8.726
1230,39.36,-0.9967,8.3387,-1.1574,-0.2846,-0.4766,1.5452,rough,14.0,2,8.726
1240,39.68,-0.9964,8.3387,-1.1573,-0.2846,-0.4765,1.5455,rough,14.0,2,8.726
1250,40.00,-0.9968,8.3387,-1.1574,-0.2846,-0.4765,1.5452,rough,14.0,2,8.726
1260,40.32,-0.9967,8.3387,-1.1574,-0.2846,-0.4766,1.5452,rough,14.0,2,8.726
1270,40.64,-0.9964,8.3387,-1.1573,-0.2846,-0.4765,1.5455,rough,14.0,2,8.726
1280,40.96,-0.9968,8.3387,-1.1574,-0.2846,-0.4765,1.5452,rough,14.0,2,8.726
1290,41.28,-0.9967,8.3387,-1.1574,-0.2846,-0.4766,1.5452,rough,14.0,2,8.726
1300,41.60,-0.9964,8.3387,-1.1573,-0.2846,-0.4765,1.5455,rough,14.0,2,8.726
1310,41.92,-0.9968,8.3387,-1.1574,-0.2846,-0.4765,1.5452,rough,14.0,2,8.726
1320,42.24,-0.9967,8.3387,-1.1574,-0.2846,-0.4766,1.5452,rough,14.0,2,8.726
1330,42.56,-0.9964,8.3387,-1.1573,-0.2846,-0.4765,1.5455,rough,14.0,2,8.726
1340,42.88,-0.9968,8.3387,-1.1574,-0.2846,-0.4765,1.5452,rough,14.0,2,8.726
1350,43.20,-0.9967,8.3387,-1.1574,-0.2846,-0.4766,1.5452,rough,14.0,3,16.559
1360,43.52,-0.9964,8.3387,-1.1573,-0.2846,-0.4765,1.5455,rough,14.0,3,16.559
1370,43.84,-0.9968,8.3387,-1.1574,-0.2846,-0.4765,1.5452,rough,14.0,3,16.559
1380,44.16,-0.9967,8.3387,-1.1574,-0.2846,-0.4766,1.5452,rough,14.0,3,16.559
1390,44.48,-0.9964,8.3387,-1.1573,-0.2846,-0.4765,1.5455,rough,14.0,3,16.559
1400,44.80,-0.9968,8.3387,-1.1574,-0.2846,-0.4765,1.5452,rough,14.0,3,16.559
1410,45.12,-0.9967,8.3387,-1.1574,-0.2846,-0.4766,1.5452,rough,14.0,3,16.559
1420,45.44,-0.9964,8.3387,-1.1573,-0.2846,-0.4765,1.5455,rough,14.0,3,16.559
1430,45.76,-0.9968,8.3387,-1.1574,-0.2846,-0.4765,1.5452,rough,14.0,3,16.559
1440,46.08,-0.9967,8.3387,-1.1574,-0.2846,-0.4766,1.5452,rough,14.0,3,16.559
1450,46.40,-0.9964,8.3387,-1.1573,-0.2846,-0.4765,1.5455,rough,14.0,3,16.559
1460,46.72,-0.9968,8.3387,-1.1574,-0.2846,-0.4765,1.5452,rough,14.0,3,16.559
1470,47.04,-0.9967,8.3387,-1.1574,-0.2846,-0.4766,1.5452,rough,14.0,3,16.559
1480,47.36,-0.9964,8.3387,-1.1573,-0.2846,-0.4765,1.5455,rough,14.0,3,16.559
1490,47.68,-0.9968,8.3387,-1.1574,-0.2846,-0.4765,1.5452,rough,14.0,3,16.559
1500,48.00,-0.9967,8.3387,-1.1574,-0.2846,-0.4766,1.5452,rough,14.0,3,16.559
1510,48.32,-0.9964,8.3387,-1.1573,-0.2846,-0.4765,1.5455,rough,14.0,3,16.559
1520,48.64,-0.9968,8.3387,-1.1574,-0.2846,-0.4765,1.5452,rough,14.0,3,16.559
1530,48.96,-0.9967,8.3387,-1.1574,-0.2846,-0.4766,1.5452,rough,14.0,3,16.559
1540,49.28,-0.9964,8.3387,-1.1573,-0.2846,-0.4765,1.5455,rough,14.0,3,16.559
1550,49.60,-0.9968,8.3387,-1.1574,-0.2846,-0.4765,1.5452,rough,14.0,3,16.559
1560,49.92,-0.9967,8.3387,-1.1574,-0.2846,-0.4766,1.5452,rough,14.0,3,16.559
1570,50.24,-0.9964,8.3387,-1.1573,-0.2846,-0.4765,1.5455,rough,14.0,3,16.559
1580,50.56,-0.9968,8.3387,-1.1574,-0.2846,-0.4765,1.5452,rough,14.0,3,16.559
1590,50.88,-0.9967,8.3387,-1.1574,-0.2846,-0.4766,1.5452,rough,14.0,3,16.559
1600,51.20,-0.9964,8.3387,-1.1573,-0.2846,-0.4765,1.5455,rough,14.0,3,16.559
1610,51.52,-0.9968,8.3387,-1.1574,-0.2846,-0.4765,1.5452,rough,14.0,3,16.559
1620,51.84,-0.9967,8.3387,-1.1574,-0.2846,-0.4766,1.5452,rough,14.0,3,16.559
1630,52.16,-0.9964,8.3387,-1.1573,-0.2846,-0.4765,1.5455,rough,14.0,3,16.559
1640,52.48,-0.9968,8.3387,-1.1574,-0.2846,-0.4765,1.5452,rough,14.0,3,16.559
1650,52.80,-0.9967,8.3387,-1.1574,-0.2846,-0.4766,1.5452,rough,14.0,3,16.559
1660,53.12,-0.9964,8.3387,-1.1573,-0.2846,-0.4765,1.5455,rough,14.0,3,16.559
1670,53.44,-0.9968,8.3387,-1.1574,-0.2846,-0.4765,1.5452,rough,14.0,3,16.559
1680,53.76,-0.9967,8.3387,-1.1574,-0.2846,-0.4766,1.5452,rough,14.0,3,16.559
1690,54.08,-0.9964,8.3387,-1.1573,-0.2846,-0.4765,1.5455,rough,14.0,3,16.559
1700,54.40,-0.9968,8.3387,-1.1574,-0.2846,-0.4765,1.5452,rough,14.0,3,16.559
1710,54.72,-0.9967,8.3387,-1.1574,-0.2846,-0.4766,1.5452,rough,14.0,0,16.559
1720,55.04,-0.9964,8.3387,-1.1573,-0.2846,-0.4765,1.5455,rough,14.0,0,11.177
1730,55.36,-0.9968,8.3387,-1.1574,-0.2846,-0.4765,1.5452,rough,14.0,0,11.178
1740,55.68,-0.9967,8.3387,-1.1574,-0.2846,-0.4766,1.5452,rough,14.0,0,11.178
1750,56.00,-0.9964,8.3387,-1.1573,-0.2846,-0.4765,1.5455,rough,14.0,0,11.177
1760,56.32,-0.9968,8.3387,-1.1574,-0.2846,-0.4765,1.5452,rough,14.0,0,11.178
1770,56.64,-0.9967,8.3387,-1.1574,-0.2846,-0.4766,1.5452,rough,14.0,0,11.178
1780,56.96,-0.9964,8.3387,-1.1573,-0.2846,-0.4765,1.5455,rough,14.0,0,11.177
1790,57.28,-0.9968,8.3387,-1.1574,-0.2846,-0.4765,1.5452,rough,14.0,0,11.178
1800,57.60,-0.9967,8.3387,-1.1574,-0.2846,-0.4766,1.5452,rough,14.0,0,11.178
1810,57.92,-0.9964,8.3387,-1.1573,-0.2846,-0.4765,1.5455,rough,14.0,0,11.177
1820,58.24,-0.9968,8.3387,-1.1574,-0.2846,-0.4765,1.5452,rough,14.0,0,11.178
1830,58.56,-0.9967,8.3387,-1.1574,-0.2846,-0.4766,1.5452,rough,14.0,0,11.178
1840,58.88,-0.9964,8.3387,-1.1573,-0.2846,-0.4765,1.5455,rough,14.0,0,11.177
1850,59.20,-0.9968,8.3387,-1.1574,-0.2846,-0.4765,1.5452,rough,14.0,0,11.178
1860,59.52,-0.9967,8.3387,-1.1574,-0.2846,-0.4766,1.5452,rough,14.0,0,11.178
1870,59.84,-0.9964,8.3387,-1.1573,-0.2846,-0.4765,1.5455,rough,14.0,0,11.177
1880,60.16,-0.9968,8.3387,-1.1574,-0.2846,-0.4765,1.5452,rough,14.0,0,11.178
1890,60.48,-0.9967,8.3387,-1.1574,-0.2846,-0.4766,1.5452,rough,14.0,0,11.178
1900,60.80,-0.9964,8.3387,-1.1573,-0.2846,-0.4765,1.5455,rough,14.0,0,11.177
1910,61.12,-0.9968,8.3387,-1.1574,-0.2846,-0.4765,1.5452,rough,14.0,0,11.178
1920,61.44,-0.9967,8.3387,-1.1574,-0.2846,-0.4766,1.5452,rough,14.0,0,11.178
1930,61.76,-0.9964,8.3387,-1.1573,-0.2846,-0.4765,1.5455,rough,14.0,0,11.177
1940,62.08,-0.9968,8.3387,-1.1574,-0.2846,-0.4765,1.5452,rough,14.0,0,11.178
1950,62.40,-0.9967,8.3387,-1.1574,-0.2846,-0.4766,1.5452,rough,14.0,0,11.178
1960,62.72,-0.9964,8.3387,-1.1573,-0.2846,-0.4765,1.5455,rough,14.0,0,11.177
1970,63.04,-0.9968,8.3387,-1.1574,-0.2846,-0.4765,1.5452,rough,14.0,0,11.178
1980,63.36,-0.9967,8.3387,-1.1574,-0.2846,-0.4766,1.5452,rough,14.0,0,11.178
1990,63.68,-0.9964,8.3387,-1.1573,-0.2846,-0.4765,1.5455,rough,14.0,0,11.177
2000,64.00,-0.9968,8.3387,-1.1574,-0.2846,-0.4765,1.5452,rough,14.0,0,11.178
2010,64.32,-0.9967,8.3387,-1.1574,-0.2846,-0.4766,1.5452,rough,14.0,0,11.178
2020,64.64,-0.9964,8.3387,-1.1573,-0.2846,-0.4765,1.5455,rough,14.0,0,11.177
2030,64.96,-0.9968,8.3387,-1.1574,-0.2846,-0.4765,1.5452,rough,14.0,0,11.178
2040,65.28,-0.9967,8.3387,-1.1574,-0.2846,-0.4766,1.5452,rough,14.0,0,11.178
2050,65.60,-0.9964,8.3387,-1.1573,-0.2846,-0.4765,1.5455,rough,14.0,0,11.177
2060,65.92,-0.9968,8.3387,-1.1574,-0.2846,-0.4765,1.5452,rough,14.0,0,11.178
2070,66.24,-0.9967,8.3387,-1.1574,-0.2846,-0.4766,1.5452,rough,14.0,0,11.178
2080,66.56,-0.9964,8.3387,-1.1573,-0.2846,-0.4765,1.5455,rough,14.0,1,6.095
2090,66.88,-0.9968,8.3387,-1.1574,-0.2846,-0.4765,1.5452,rough,14.0,1,6.095
2100,67.20,-0.9967,8.3387,-1.1574,-0.2846,-0.4766,1.5452,rough,14.0,1,6.095
2110,67.52,-0.9964,8.3387,-1.1573,-0.2846,-0.4765,1.5455,rough,14.0,1,6.095
2120,67.84,-0.9968,8.3387,-1.1574,-0.2846,-0.4765,1.5452,rough,14.0,1,6.095
2130,68.16,-0.9967,8.3387,-1.1574,-0.2846,-0.4766,1.5452,rough,14.0,1,6.095
2140,68.48,-0.9964,8.3387,-1.1573,-0.2846,-0.4765,1.5455,rough,14.0,1,6.095
2150,68.80,-0.9968,8.3387,-1.1574,-0.2846,-0.4765,1.5452,rough,14.0,1,6.095
2160,69.12,-0.9967,8.3387,-1.1574,-0.2846,-0.4766,1.5452,rough,14.0,1,6.095
2170,69.44,-0.9964,8.3387,-1.1573,-0.2846,-0.4765,1.5455,rough,14.0,1,6.095
2180,69.76,-0.9968,8.3387,-1.1574,-0.2846,-0.4765,1.5452,rough,14.0,1,6.095
2190,70.08,-0.9967,8.3387,-1.1574,-0.2846,-0.4766,1.5452,rough,14.0,1,6.095
2200,70.40,-0.9964,8.3387,-1.1573,-0.2846,-0.4765,1.5455,rough,14.0,1,6.095
2210,70.72,-0.9968,8.3387,-1.1574,-0.2846,-0.4765,1.5452,rough,14.0,1,6.095
2220,71.04,-0.9967,8.3387,-1.1574,-0.2846,-0.4766,1.5452,rough,14.0,1,6.095
2230,71.36,-0.9964,8.3387,-1.1573,-0.2846,-0.4765,1.5455,rough,14.0,1,6.095
2240,71.68,-0.9968,8.3387,-1.1574,-0.2846,-0.4765,1.5452,rough,14.0,1,6.095
2250,72.00,-0.9967,8.3387,-1.1574,-0.2846,-0.4766,1.5452,rough,14.0,1,6.095
2260,72.32,-0.9964,8.3387,-1.1573,-0.2846,-0.4765,1.5455,rough,14.0,1,6.095
2270,72.64,-0.9968,8.3387,-1.1574,-0.2846,-0.4765,1.5452,rough,14.0,1,6.095
2280,72.96,-0.9967,8.3387,-1.1574,-0.2846,-0.4766,1.5452,rough,14.0,1,6.095
2290,73.28,-0.9964,8.3387,-1.1573,-0.2846,-0.4765,1.5455,rough,14.0,1,6.095
2300,73.60,-0.9968,8.3387,-1.1574,-0.2846,-0.4765,1.5452,rough,14.0,1,6.095
2310,73.92,-0.9967,8.3387,-1.1574,-0.2846,-0.4766,1.5452,rough,14.0,1,6.095
2320,74.24,-0.9964,8.3387,-1.1573,-0.2846,-0.4765,1.5455,rough,14.0,1,6.095
2330,74.56,-0.9968,8.3387,-1.1574,-0.2846,-0.4765,1.5452,rough,14.0,1,6.095
2340,74.88,-0.9967,8.3387,-1.1574,-0.2846,-0.4766,1.5452,rough,14.0,1,6.095
2350,75.20,-0.9964,8.3387,-1.1573,-0.2846,-0.4765,1.5455,rough,14.0,1,6.095
2360,75.52,-0.9968,8.3387,-1.1574,-0.2846,-0.4765,1.5452,rough,14.0,1,6.095
2370,75.84,-0.9967,8.3387,-1.1574,-0.2846,-0.4766,1.5452,rough,14.0,1,6.095
2380,76.16,-0.9964,8.3387,-1.1573,-0.2846,-0.4765,1.5455,rough,14.0,1,6.095
2390,76.48,-0.9968,8.3387,-1.1574,-0.2846,-0.4765,1.5452,rough,14.0,1,6.095
2400,76.80,-0.9967,8.3387,-1.1574,-0.2846,-0.4766,1.5452,rough,14.0,1,6.095
2410,77.12,-0.9964,8.3387,-1.1573,-0.2846,-0.4765,1.5455,rough,14.0,1,6.095
2420,77.44,-0.9968,8.3387,-1.1574,-0.2846,-0.4765,1.5452,rough,14.0,1,6.095
2430,77.76,-0.9967,8.3387,-1.1574,-0.2846,-0.4766,1.5452,rough,14.0,1,6.095
2440,78.08,-0.9964,8.3387,-1.1573,-0.2846,-0.4765,1.5455,rough,14.0,1,6.095
2450,78.40,-0.9968,8.3387,-1.1574,-0.2846,-0.4765,1.5452,rough,14.0,2,8.726
2460,78.72,-0.9967,8.3387,-1.1574,-0.2846,-0.4766,1.5452,rough,14.0,2,8.726
2470,79.04,-0.9964,8.3387,-1.1573,-0.2846,-0.4765,1.5455,rough,14.0,2,8.726
2480,79.36,-0.9968,8.3387,-1.1574,-0.2846,-0.4765,1.5452,rough,14.0,2,8.726
2490,79.68,-0.9967,8.3387,-1.1574,-0.2846,-0.4766,1.5452,rough,14.0,2,8.726
2500,80.00,-0.9964,8.3387,-1.1573,-0.2846,-0.4765,1.5455,rough,14.0,2,8.726
2510,80.32,-0.9968,8.3387,-1.1574,-0.2846,-0.4765,1.5452,rough,14.0,2,8.726
2520,80.64,-0.9967,8.3387,-1.1574,-0.2846,-0.4766,1.5452,rough,14.0,2,8.726
2530,80.96,-0.9964,8.3387,-1.1573,-0.2846,-0.4765,1.5455,rough,14.0,2,8.726
2540,81.28,-0.9968,8.3387,-1.1574,-0.2846,-0.4765,1.5452,rough,14.0,2,8.726
2550,81.60,-0.9967,8.3387,-1.1574,-0.2846,-0.4766,1.5452,rough,14.0,2,8.726
2560,81.92,-0.9964,8.3387,-1.1573,-0.2846,-0.4765,1.5455,rough,14.0,2,8.726
2570,82.24,-0.9968,8.3387,-1.1574,-0.2846,-0.4765,1.5452,rough,14.0,2,8.726
2580,82.56,-0.9967,8.3387,-1.1574,-0.2846,-0.4766,1.5452,rough,14.0,2,8.726
2590,82.88,-0.9964,8.3387,-1.1573,-0.2846,-0.4765,1.5455,rough,14.0,2,8.726
2600,83.20,-0.9968,8.3387,-1.1574,-0.2846,-0.4765,1.5452,rough,14.0,2,8.726
2610,83.52,-0.9967,8.3387,-1.1574,-0.2846,-0.4766,1.5452,rough,14.0,2,8.726
2620,83.84,-0.9964,8.3387,-1.1573,-0.2846,-0.4765,1.5455,rough,14.0,2,8.726
2630,84.16,-0.9968,8.3387,-1.1574,-0.2846,-0.4765,1.5452,rough,14.0,2,8.726
2640,84.48,-0.9967,8.3387,-1.1574,-0.2846,-0.4766,1.5452,rough,14.0,2,8.726
2650,84.80,-0.9964,8.3387,-1.1573,-0.2846,-0.4765,1.5455,rough,14.0,2,8.726
2660,85.12,-0.9968,8.3387,-1.1574,-0.2846,-0.4765,1.5452,rough,14.0,2,8.726
2670,85.44,-0.9967,8.3387,-1.1574,-0.2846,-0.4766,1.5452,rough,14.0,2,8.726
2680,85.76,-0.9964,8.3387,-1.1573,-0.2846,-0.4765,1.5455,rough,14.0,2,8.726
2690,86.08,-0.9968,8.3387,-1.1574,-0.2846,-0.4765,1.5452,rough,14.0,2,8.726
2700,86.40,-0.9967,8.3387,-1.1574,-0.2846,-0.4766,1.5452,rough,14.0,2,8.726
2710,86.72,-0.9964,8.3387,-1.1573,-0.2846,-0.4765,1.5455,rough,14.0,2,8.726
2720,87.04,-0.9968,8.3387,-1.1574,-0.2846,-0.4765,1.5452,rough,14.0,2,8.726
2730,87.36,-0.9967,8.3387,-1.1574,-0.2846,-0.4766,1.5452,rough,14.0,2,8.726
2740,87.68,-0.9964,8.3387,-1.1573,-0.2846,-0.4765,1.5455,rough,14.0,2,8.726
2750,88.00,-0.9968,8.3387,-1.1574,-0.2846,-0.4765,1.5452,rough,14.0,2,8.726
2760,88.32,-0.9967,8.3387,-1.1574,-0.2846,-0.4766,1.5452,rough,14.0,2,8.726
2770,88.64,-0.9964,8.3387,-1.1573,-0.2846,-0.4765,1.5455,rough,14.0,2,8.726
2780,88.96,-0.9968,8.3387,-1.1574,-0.2846,-0.4765,1.5452,rough,14.0,2,8.726
2790,89.28,-0.9967,8.3387,-1.1574,-0.2846,-0.4766,1.5452,rough,14.0,2,8.726
2800,89.60,-0.9964,8.3387,-1.1573,-0.2846,-0.4765,1.5455,rough,14.0,2,8.726
2810,89.92,-0.9968,8.3387,-1.1574,-0.2846,-0.4765,1.5452,rough,14.0,3,16.559
