step,time_s,x,y,z,roll,pitch,yaw,terrain,speed,target_idx,dist_to_target
10,0.32,-1.4580,0.8361,0.1825,0.1563,-0.1791,-0.1832,slope,18.0,0,6.032
20,0.64,-1.6601,0.8156,0.1364,0.0628,-0.2652,0.1333,slope,18.0,0,5.877
30,0.96,-1.8162,0.7999,0.0972,-0.0495,-0.2290,0.6528,slope,18.0,0,5.759
40,1.28,-1.7935,0.7621,0.1024,-0.1940,-0.1292,1.4091,slope,18.0,0,5.800
50,1.60,-1.8707,0.8158,0.0928,-0.2162,-0.0164,1.9123,slope,18.0,0,5.706
60,1.92,-2.0109,0.9803,0.0785,-0.2369,-0.0058,2.2002,rough,14.0,0,5.496
70,2.24,-2.2658,1.2426,0.0853,-0.2571,-0.0512,2.3671,rough,14.0,0,5.136
80,2.56,-2.5792,1.4902,0.1188,-0.2708,-0.1221,2.5069,slope,18.0,0,4.737
90,2.88,-2.9946,1.7355,0.1246,-0.3212,0.0960,2.5808,rough,14.0,0,4.256
100,3.20,-3.3399,1.9074,0.0699,-0.3654,0.1160,2.6801,rough,14.0,0,3.876
110,3.52,-3.6512,2.0431,0.0311,-0.2993,0.0943,2.7843,rough,14.0,0,3.545
120,3.84,-3.8063,2.0876,0.0514,-0.2938,-0.2179,3.0099,rough,14.0,0,3.395
130,4.16,-3.9608,1.9911,0.0312,-0.2975,-0.2207,-2.6688,rough,14.0,0,3.338
140,4.48,-4.0987,1.7865,0.0567,-0.3995,-0.1829,-2.2404,rough,14.0,0,3.378
150,4.80,-4.2843,1.5071,0.1021,-0.3687,-0.1621,-2.1358,rough,14.0,0,3.462
160,5.12,-4.5534,1.1833,0.0986,-0.1848,0.0216,-2.3009,rough,14.0,0,3.567
170,5.44,-4.7689,0.8809,0.1200,-0.3724,0.0054,-2.4292,rough,14.0,0,3.722
180,5.76,-4.9315,0.7107,0.1823,-0.3550,-0.5499,-2.3745,rough,14.0,0,3.806
190,6.08,-5.1688,0.5343,0.3291,-0.1026,-0.5988,-2.4079,rough,14.0,0,3.882
200,6.40,-5.3938,0.3200,0.5306,-0.1002,-0.6165,-2.4948,rough,14.0,0,4.018
210,6.72,-5.6660,0.0888,0.6972,-0.3013,-0.5116,-2.6286,rough,14.0,0,4.180
220,7.04,-6.0857,-0.0961,0.7331,-0.2783,0.0631,-2.9877,slope,18.0,0,4.304
230,7.36,-6.3862,-0.1738,0.7497,-0.3160,-0.2246,-2.9588,rough,14.0,0,4.366
240,7.68,-6.6851,-0.2240,0.8164,-0.1722,-0.2855,2.9250,rough,14.0,0,4.420
250,8.00,-6.9207,-0.1252,0.8777,0.0095,-0.2305,2.5094,rough,14.0,0,4.339
260,8.32,-7.1205,0.1053,0.9143,0.1135,-0.0963,2.2694,rough,14.0,0,4.137
270,8.64,-7.3210,0.3151,0.9209,0.0339,-0.0822,2.0614,rough,14.0,0,3.968
280,8.96,-7.4832,0.5632,0.9134,-0.1540,-0.1492,1.8457,rough,14.0,0,3.766
290,9.28,-7.4922,0.8836,0.9747,0.0405,-0.2524,1.6467,rough,14.0,0,3.461
300,9.60,-7.4765,1.1609,1.0590,0.1158,-0.3188,1.5362,rough,14.0,0,3.192
310,9.92,-7.4458,1.4309,1.1361,0.2234,-0.3799,1.4884,rough,14.0,0,2.927
320,10.24,-7.4076,1.7256,1.2293,0.2578,-0.2836,1.4830,rough,14.0,0,2.637
330,10.56,-7.3560,2.0397,1.2935,0.2979,-0.1860,1.4444,rough,14.0,0,2.326
340,10.88,-7.2374,2.3953,1.3242,0.3027,-0.0702,1.2400,rough,14.0,0,1.952
350,11.20,-7.1058,2.7487,1.3066,0.1684,0.0568,1.1495,rough,14.0,0,1.576
360,11.52,-6.9504,3.0273,1.2866,0.1935,0.0573,1.0725,rough,14.0,0,1.258
370,11.84,-6.7995,3.2880,1.2758,0.2210,0.1093,1.0778,rough,14.0,1,7.808
380,12.16,-6.6117,3.6010,1.2359,0.2211,0.0935,1.0196,rough,14.0,1,7.558
390,12.48,-6.4100,3.9640,1.1964,0.0648,0.1913,1.0056,rough,14.0,1,7.296
400,12.80,-6.2272,4.3189,1.1527,-0.1400,0.1629,0.9800,rough,14.0,1,7.068
410,13.12,-6.0224,4.6332,1.1373,-0.1505,-0.0511,0.9368,rough,14.0,1,6.837
420,13.44,-5.7706,4.9575,1.1650,-0.1223,-0.1081,0.8824,rough,14.0,1,6.572
430,13.76,-5.5094,5.2808,1.2060,-0.1542,-0.0846,0.8048,rough,14.0,1,6.312
440,14.08,-5.2462,5.5972,1.2377,-0.3024,-0.0723,0.7954,rough,14.0,1,6.068
450,14.40,-4.9697,5.9066,1.2431,-0.3723,0.0124,0.7796,rough,14.0,1,5.828
460,14.72,-4.6215,6.2317,1.1304,-0.2697,0.3414,0.6747,rough,14.0,1,5.542
470,15.04,-4.2935,6.5157,0.9416,-0.3263,0.4453,0.6430,rough,14.0,1,5.291
480,15.36,-4.0084,6.7370,0.7855,-0.2901,0.4080,0.6757,rough,14.0,1,5.085
490,15.68,-3.6897,6.9818,0.5740,-0.3256,0.5188,0.6197,rough,14.0,1,4.875
500,16.00,-3.3869,7.2862,0.2215,-0.3709,0.6812,0.4925,rough,14.0,1,4.731
510,16.32,-3.0018,7.6361,-0.3252,-0.3794,0.8002,0.2033,rough,14.0,1,4.579
520,16.64,-2.6477,8.0325,-0.7271,-0.1864,0.4304,0.8739,rough,14.0,1,4.537
530,16.96,-2.4827,8.2892,-0.8270,-0.2718,0.2022,0.8642,rough,14.0,1,4.589
540,17.28,-2.2784,8.5260,-0.8907,-0.2291,0.2483,0.7703,rough,14.0,1,4.618
550,17.60,-2.0425,8.6857,-0.9975,-0.0385,0.4283,0.6232,rough,14.0,1,4.589
560,17.92,-1.8684,8.7854,-1.0501,0.0000,0.2825,0.5116,rough,14.0,1,4.564
570,18.24,-1.7806,8.8484,-1.0572,0.0225,-0.0536,0.5601,rough,14.0,1,4.565
580,18.56,-1.7272,8.9188,-1.0462,0.0657,-0.3000,0.6093,rough,14.0,1,4.593
590,18.88,-1.7195,8.9666,-1.0325,0.1090,-0.4489,0.3869,rough,14.0,1,4.629
600,19.20,-1.6953,8.9855,-1.0018,0.1153,-0.8667,0.1991,rough,14.0,1,4.632
610,19.52,-1.7088,8.9859,-0.9838,0.0913,-1.2660,0.4750,rough,14.0,1,4.640
620,19.84,-1.7777,8.9422,-1.0437,3.0384,-0.9250,-2.5154,rough,14.0,1,4.641
630,20.16,-1.7572,8.9451,-1.1780,3.0816,-0.0582,-2.5463,rough,14.0,1,4.632
640,20.48,-1.6784,9.0034,-1.1818,3.0491,0.4239,-2.6266,rough,14.0,1,4.638
650,20.80,-1.6078,9.0466,-1.1093,3.0502,0.8480,-2.7523,rough,14.0,1,4.638
660,21.12,-1.5603,9.0614,-1.0216,2.9202,1.2460,-2.8509,rough,14.0,1,4.626
670,21.44,-1.5399,9.0624,-0.9367,0.8326,1.4409,1.3908,rough,14.0,1,4.616
680,21.76,-1.6640,8.9716,-0.9356,0.2754,0.4040,0.4944,rough,14.0,1,4.604
690,22.08,-1.8303,9.0635,-1.0338,0.0399,-0.4357,0.1948,rough,14.0,1,4.771
700,22.40,-1.7468,9.0866,-1.0288,0.1555,-0.4761,0.1789,rough,14.0,1,4.745
710,22.72,-1.7076,9.1207,-0.9894,0.0412,-0.6951,0.0625,rough,14.0,1,4.753
720,23.04,-1.6934,9.1369,-0.9762,0.0251,-0.6900,0.0949,rough,14.0,1,4.759
730,23.36,-1.6775,9.1416,-0.9626,0.0668,-0.6870,0.0298,rough,14.0,1,4.755
740,23.68,-1.6754,9.1484,-0.9593,0.0824,-0.6882,0.0085,rough,14.0,1,4.760
750,24.00,-1.6718,9.1490,-0.9566,0.1114,-0.6777,-0.0266,rough,14.0,1,4.758
760,24.32,-1.6687,9.1486,-0.9548,0.1349,-0.6643,-0.0597,rough,14.0,1,4.756
770,24.64,-1.6690,9.1510,-0.9537,0.1345,-0.6669,-0.0555,rough,14.0,1,4.759
780,24.96,-1.6670,9.1500,-0.9522,0.1481,-0.6627,-0.0747,rough,14.0,1,4.757
790,25.28,-1.6676,9.1512,-0.9524,0.1473,-0.6624,-0.0716,rough,14.0,1,4.758
800,25.60,-1.6683,9.1529,-0.9527,0.1463,-0.6611,-0.0677,rough,14.0,1,4.760
810,25.92,-1.6655,9.1500,-0.9509,0.1605,-0.6582,-0.0908,rough,14.0,1,4.756
820,26.24,-1.6653,9.1493,-0.9507,0.1607,-0.6596,-0.0922,rough,14.0,1,4.755
830,26.56,-1.6650,9.1485,-0.9506,0.1611,-0.6604,-0.0940,rough,14.0,1,4.754
840,26.88,-1.6646,9.1475,-0.9504,0.1615,-0.6613,-0.0962,rough,14.0,1,4.753
850,27.20,-1.6642,9.1462,-0.9502,0.1620,-0.6624,-0.0989,rough,14.0,1,4.752
860,27.52,-1.6636,9.1447,-0.9499,0.1627,-0.6638,-0.1023,rough,14.0,1,4.750
870,27.84,-1.6629,9.1428,-0.9496,0.1635,-0.6655,-0.1064,rough,14.0,1,4.748
880,28.16,-1.6621,9.1405,-0.9492,0.1644,-0.6676,-0.1115,rough,14.0,1,4.746
890,28.48,-1.6611,9.1376,-0.9489,0.1658,-0.6701,-0.1177,rough,14.0,1,4.743
900,28.80,-1.6603,9.1341,-0.9488,0.1678,-0.6729,-0.1253,rough,14.0,1,4.740
910,29.12,-1.6590,9.1295,-0.9483,0.1707,-0.6747,-0.1343,rough,14.0,1,4.735
920,29.44,-1.6580,9.1233,-0.9481,0.1770,-0.6733,-0.1443,rough,14.0,2,13.996
930,29.76,-1.6565,9.1157,-0.9478,0.1845,-0.6716,-0.1563,rough,14.0,2,13.990
940,30.08,-1.6548,9.1063,-0.9474,0.1934,-0.6694,-0.1706,rough,14.0,2,13.982
950,30.40,-1.6528,9.0949,-0.9470,0.2038,-0.6668,-0.1874,rough,14.0,2,13.973
960,30.72,-1.6503,9.0808,-0.9465,0.2158,-0.6635,-0.2069,rough,14.0,2,13.961
970,31.04,-1.6744,9.0629,-0.9708,0.2547,-0.6501,-0.2574,rough,14.0,2,13.966
980,31.36,-1.6957,9.0415,-0.9885,0.2652,-0.6473,-0.2861,rough,14.0,2,13.967
990,31.68,-1.7052,9.0133,-0.9992,0.2830,-0.6408,-0.3169,rough,14.0,2,13.955
1000,32.00,-1.6754,8.9821,-1.0009,0.3345,-0.6227,-0.2450,rough,14.0,2,13.911
1010,32.32,-1.6593,8.9499,-0.9617,0.5788,-0.9794,-0.3813,rough,14.0,2,13.878
1020,32.64,-1.6590,8.9117,-0.9578,1.7681,-1.1701,-1.5155,rough,14.0,2,13.851
1030,32.96,-1.7442,8.9290,-1.1468,2.6551,0.0078,-2.7302,rough,14.0,2,13.925
1040,33.28,-1.7645,8.9909,-1.2156,3.0825,0.1809,-2.6479,rough,14.0,2,13.983
1050,33.60,-1.6735,9.0316,-1.1838,3.0088,0.4039,-2.7346,rough,14.0,2,13.944
1060,33.92,-1.6048,9.0587,-1.1258,3.0381,0.7536,-2.8865,rough,14.0,2,13.913
1070,34.24,-1.5636,9.0651,-1.0550,2.9543,1.0166,-3.0006,rough,14.0,2,13.888
1080,34.56,-1.5396,9.0668,-1.0100,2.7879,1.1433,3.0987,rough,14.0,2,13.872
1090,34.88,-1.5083,9.0596,-0.9334,1.7747,1.3713,2.1546,rough,14.0,2,13.844
1100,35.20,-1.5576,8.9910,-0.8829,0.5274,0.8234,0.6812,rough,14.0,2,13.832
1110,35.52,-1.7805,8.9974,-1.0128,0.3159,-0.2279,-0.0506,rough,14.0,2,13.999
1120,35.84,-1.7479,9.0224,-1.0172,0.1473,-0.6255,-0.1799,rough,14.0,2,13.992
1130,36.16,-1.6603,8.9728,-0.9864,0.3735,-0.7224,-0.2354,rough,14.0,2,13.894
1140,36.48,-1.6540,8.9357,-0.9537,0.8073,-1.0884,-0.5793,rough,14.0,2,13.864
1150,36.80,-1.6741,8.9020,-0.9814,2.2521,-0.9662,-2.0866,rough,14.0,2,13.856
1160,37.12,-1.7540,8.9627,-1.1705,3.0824,0.0204,-2.7020,rough,14.0,2,13.956
1170,37.44,-1.7027,8.9956,-1.1951,3.0354,0.2673,-2.5683,rough,14.0,2,13.941
1180,37.76,-1.6546,9.0459,-1.1530,3.0187,0.5767,-2.7091,rough,14.0,2,13.940
1190,38.08,-1.5792,9.0750,-1.0818,3.0772,0.9478,-2.8261,rough,14.0,2,13.906
1200,38.40,-1.5479,9.0865,-1.0013,2.9038,1.2352,-2.9580,rough,14.0,2,13.891
1210,38.72,-1.5255,9.0862,-0.9218,1.1159,1.4492,1.5995,rough,14.0,2,13.875
1220,39.04,-1.6338,9.0065,-0.9035,0.3001,0.5400,0.4904,rough,14.0,2,13.898
1230,39.36,-1.8653,9.0958,-1.0135,0.0195,-0.6404,0.0903,rough,14.0,2,14.128
1240,39.68,-1.8229,9.1576,-1.0259,0.0379,-0.5751,0.3952,rough,14.0,2,14.139
1250,40.00,-1.7640,9.2153,-1.0008,0.0034,-0.7208,0.2622,rough,14.0,2,14.136
1260,40.32,-1.7050,9.2229,-0.9497,0.0642,-0.7483,0.1288,rough,14.0,2,14.099
1270,40.64,-1.6887,9.1989,-0.9553,0.2443,-0.6540,-0.1764,rough,14.0,2,14.071
1280,40.96,-1.7034,9.1537,-0.9810,0.3382,-0.5759,-0.3250,rough,14.0,2,14.050
1290,41.28,-1.6801,9.1241,-0.9656,0.3416,-0.5994,-0.3825,rough,14.0,3,14.674
1300,41.60,-1.6388,9.0790,-0.9459,0.3340,-0.5708,-0.4053,rough,14.0,3,14.617
1310,41.92,-1.6643,9.0496,-1.0230,0.2562,-0.3321,-0.2699,rough,14.0,3,14.599
1320,42.24,-1.6563,9.0356,-1.0265,0.2357,-0.3214,-0.2183,rough,14.0,3,14.583
1330,42.56,-1.6622,9.0231,-1.0293,0.2046,-0.3432,-0.1720,rough,14.0,3,14.573
1340,42.88,-1.6679,8.9876,-1.0057,0.3361,-0.6348,-0.2071,rough,14.0,3,14.543
1350,43.20,-1.6651,8.9552,-0.9644,0.5551,-1.0086,-0.3264,rough,14.0,3,14.512
1360,43.52,-1.6856,8.9281,-0.9684,2.0045,-1.2441,-1.6789,rough,14.0,3,14.494
1370,43.84,-1.7856,8.9602,-1.1828,2.9832,-0.0840,-2.8341,rough,14.0,3,14.562
1380,44.16,-1.7663,9.0302,-1.2012,3.0821,0.1670,-2.6936,rough,14.0,3,14.619
1390,44.48,-1.6696,9.0684,-1.1754,2.9928,0.4525,-2.7866,rough,14.0,3,14.618
1400,44.80,-1.5948,9.0870,-1.1161,3.1219,0.7408,-2.9085,rough,14.0,3,14.608
1410,45.12,-1.5736,9.0970,-1.0694,3.0775,0.8987,-2.9419,rough,14.0,3,14.609
1420,45.44,-1.5878,9.1162,-1.1212,3.0865,0.6616,-3.0488,rough,14.0,3,14.632
1430,45.76,-1.6024,9.1387,-1.1146,3.1344,0.6919,-2.9762,rough,14.0,3,14.658
1440,46.08,-1.5792,9.1474,-1.0904,3.0911,0.6847,-3.0820,rough,14.0,3,14.658
1450,46.40,-1.5748,9.1544,-1.0855,3.0604,0.6817,-3.1340,rough,14.0,3,14.663
1460,46.72,-1.5710,9.1591,-1.0808,3.0428,0.6837,3.1240,rough,14.0,3,14.666
1470,47.04,-1.5714,9.1635,-1.0805,3.0298,0.6765,3.1137,rough,14.0,3,14.670
1480,47.36,-1.5709,9.1660,-1.0792,3.0191,0.6717,3.1015,rough,14.0,3,14.672
1490,47.68,-1.5696,9.1664,-1.0782,3.0057,0.6664,3.0837,rough,14.0,3,14.672
1500,48.00,-1.5681,9.1661,-1.0771,2.9921,0.6611,3.0650,rough,14.0,3,14.671
1510,48.32,-1.5686,9.1672,-1.0771,2.9929,0.6618,3.0676,rough,14.0,3,14.673
1520,48.64,-1.5694,9.1687,-1.0775,2.9940,0.6609,3.0712,rough,14.0,3,14.674
1530,48.96,-1.5689,9.1680,-1.0784,2.9814,0.6506,3.0532,rough,14.0,3,14.673
1540,49.28,-1.5669,9.1667,-1.0758,2.9797,0.6577,3.0491,rough,14.0,3,14.671
1550,49.60,-1.5664,9.1656,-1.0754,2.9792,0.6588,3.0469,rough,14.0,3,14.670
1560,49.92,-1.5658,9.1643,-1.0751,2.9784,0.6597,3.0441,rough,14.0,3,14.669
1570,50.24,-1.5650,9.1627,-1.0747,2.9775,0.6609,3.0405,rough,14.0,3,14.667
1580,50.56,-1.5640,9.1606,-1.0742,2.9762,0.6623,3.0359,rough,14.0,3,14.665
1590,50.88,-1.5628,9.1579,-1.0735,2.9747,0.6642,3.0300,rough,14.0,3,14.662
1600,51.20,-1.5613,9.1545,-1.0728,2.9727,0.6665,3.0226,rough,14.0,3,14.658
1610,51.52,-1.5595,9.1501,-1.0720,2.9699,0.6694,3.0131,rough,14.0,3,14.653
1620,51.84,-1.5573,9.1446,-1.0709,2.9665,0.6731,3.0011,rough,14.0,3,14.647
1630,52.16,-1.5562,9.1375,-1.0708,2.9582,0.6715,2.9871,rough,14.0,3,14.640
1640,52.48,-1.5568,9.1286,-1.0723,2.9473,0.6689,2.9698,rough,14.0,3,14.632
1650,52.80,-1.5581,9.1173,-1.0746,2.9339,0.6654,2.9481,rough,14.0,0,6.958
1660,53.12,-1.5603,9.1028,-1.0780,2.9173,0.6608,2.9212,rough,14.0,0,6.946
1670,53.44,-1.5639,9.0844,-1.0830,2.8971,0.6544,2.8882,rough,14.0,0,6.930
1680,53.76,-1.5698,9.0609,-1.0905,2.8731,0.6458,2.8489,rough,14.0,0,6.910
1690,54.08,-1.6005,9.0381,-1.1187,2.8598,0.6386,2.8267,rough,14.0,0,6.872
1700,54.40,-1.6018,9.0096,-1.1304,2.8258,0.5712,2.8006,rough,14.0,0,6.851
1710,54.72,-1.5752,8.9697,-1.0998,2.6559,0.6247,2.7456,rough,14.0,0,6.842
1720,55.04,-1.5190,8.9074,-1.0233,2.3673,0.9034,2.3435,rough,14.0,0,6.839
1730,55.36,-1.4572,8.8346,-0.9596,1.8749,0.9559,1.8282,rough,14.0,0,6.834
1740,55.68,-1.4452,8.7367,-0.9142,1.2909,0.7337,1.3652,rough,14.0,0,6.777
1750,56.00,-1.5777,8.5443,-0.9807,1.2746,-0.1349,0.8630,rough,14.0,0,6.550
1760,56.32,-1.5031,8.5229,-1.0667,1.8007,-0.1751,1.3024,rough,14.0,0,6.592
1770,56.64,-1.5400,8.4477,-1.0990,2.2036,-0.0573,1.4410,rough,14.0,0,6.515
1780,56.96,-1.5690,8.3124,-1.1086,2.5597,0.1107,1.3040,rough,14.0,0,6.405
1790,57.28,-1.5258,8.1089,-1.2696,-2.7881,0.1183,1.4950,rough,14.0,0,6.309
1800,57.60,-1.5253,7.8538,-1.2701,-2.5750,0.2192,1.4701,rough,14.0,0,6.155
1810,57.92,-1.5138,7.5764,-1.2041,-2.5906,0.4138,1.5782,rough,14.0,0,6.003
1820,58.24,-1.4984,7.2987,-1.1001,-2.6233,0.3989,1.6928,rough,14.0,0,5.864
1830,58.56,-1.4103,7.0652,-1.0339,-2.6052,0.3713,1.9577,rough,14.0,0,5.820
1840,58.88,-1.2927,6.8666,-0.9880,-2.5512,0.1390,2.0255,rough,14.0,0,5.829
1850,59.20,-1.1818,6.7422,-1.0015,-2.5264,0.0122,2.1515,rough,14.0,0,5.873
1860,59.52,-1.0695,6.7157,-1.0536,-2.5231,-0.2623,2.5014,rough,14.0,0,5.963
1870,59.84,-0.9844,6.6921,-1.0979,-2.5899,-0.4102,2.6267,rough,14.0,0,6.030
1880,60.16,-0.8897,6.6610,-1.1491,-2.5480,-0.3286,2.4693,rough,14.0,0,6.104
1890,60.48,-0.8274,6.6350,-1.1742,-2.5101,-0.2109,2.4208,rough,14.0,0,6.150
1900,60.80,-0.7247,6.6060,-1.2297,-2.6316,-0.2937,2.6602,rough,14.0,0,6.234
1910,61.12,-0.6634,6.5833,-1.2590,-2.7540,-0.3936,2.6202,rough,14.0,0,6.281
1920,61.44,-0.5685,6.5515,-1.3170,-2.6795,-0.2423,2.4618,rough,14.0,0,6.357
1930,61.76,-0.4985,6.5312,-1.3508,-2.7463,-0.3314,2.5976,rough,14.0,0,6.415
1940,62.08,-0.4097,6.5121,-1.3927,-2.8422,-0.4340,2.7315,rough,14.0,0,6.491
1950,62.40,-0.3153,6.4978,-1.4274,-2.8382,-0.3534,2.5637,rough,14.0,0,6.574
1960,62.72,-0.2590,6.4793,-1.4488,-2.8408,-0.2971,2.5539,rough,14.0,0,6.620
1970,63.04,-0.1541,6.4721,-1.4934,-2.8882,-0.1914,2.8285,rough,14.0,0,6.717
1980,63.36,-0.1228,6.4991,-1.5065,-2.8762,-0.1696,2.7023,rough,14.0,0,6.755
1990,63.68,-0.0832,6.5079,-1.5173,-2.8792,-0.1524,2.6743,rough,14.0,0,6.795
2000,64.00,-0.0529,6.5276,-1.5282,-2.8938,-0.1592,2.7067,rough,14.0,0,6.831
2010,64.32,-0.0246,6.5435,-1.5380,-2.8977,-0.1452,2.6658,rough,14.0,0,6.863
2020,64.64,0.0055,6.5627,-1.5491,-2.9119,-0.1513,2.6978,rough,14.0,0,6.898
2030,64.96,0.0349,6.5745,-1.5581,-2.9262,-0.1635,2.7606,rough,14.0,0,6.929
2040,65.28,0.0634,6.5836,-1.5660,-2.9249,-0.1216,2.6482,rough,14.0,0,6.959
2050,65.60,0.0933,6.5865,-1.5723,-2.9370,-0.1324,2.7363,rough,14.0,0,6.988
2060,65.92,0.1210,6.5830,-1.5779,-2.9407,-0.1094,2.7133,rough,14.0,0,7.013
2070,66.24,0.1496,6.5836,-1.5840,-2.9456,-0.0891,2.6891,rough,14.0,0,7.040
2080,66.56,0.1936,6.5777,-1.5899,-2.9437,-0.0742,2.7191,rough,14.0,0,7.079
2090,66.88,0.2563,6.5639,-1.5962,-2.9370,-0.0538,2.7660,rough,14.0,0,7.134
2100,67.20,0.3149,6.5522,-1.6016,-2.9258,-0.0189,2.7346,rough,14.0,0,7.185
2110,67.52,0.3663,6.5390,-1.6065,-2.9396,-0.0288,2.7810,rough,14.0,0,7.230
2120,67.84,0.4188,6.5314,-1.6149,-2.9531,-0.0369,2.7763,rough,14.0,0,7.277
2130,68.16,0.4585,6.5305,-1.6185,-2.9461,-0.0339,2.7217,rough,14.0,0,7.314
2140,68.48,0.4964,6.5318,-1.6254,-2.9636,-0.0536,2.8129,rough,14.0,0,7.350
2150,68.80,0.5340,6.5310,-1.6291,-2.9688,-0.0740,2.8273,rough,14.0,0,7.386
2160,69.12,0.5463,6.5241,-1.6255,-2.9588,-0.0359,2.7979,rough,14.0,0,7.395
2170,69.44,0.5553,6.5252,-1.6268,-2.9686,-0.0423,2.8554,rough,14.0,0,7.404
2180,69.76,0.5447,6.5230,-1.6251,-2.9636,-0.0206,2.7452,rough,14.0,0,7.393
2190,70.08,0.5506,6.5290,-1.6320,-2.9829,-0.0924,2.9571,rough,14.0,0,7.401
2200,70.40,0.5409,6.5275,-1.6355,-2.9417,-0.0895,2.9011,rough,14.0,0,7.391
2210,70.72,0.5228,6.5430,-1.6279,-2.9570,-0.0043,2.5788,rough,14.0,0,7.379
2220,71.04,0.5323,6.5298,-1.6242,-2.9571,0.0123,2.5661,rough,14.0,0,7.384
2230,71.36,0.5537,6.5503,-1.6362,-2.9981,-0.1131,3.0633,rough,14.0,0,7.411
2240,71.68,0.5954,6.5835,-1.6406,-3.0333,-0.1183,3.1407,rough,14.0,0,7.461
2250,72.00,0.5740,6.5867,-1.6411,-3.0283,-0.1405,3.0743,rough,14.0,0,7.442
2260,72.32,0.5407,6.5889,-1.6443,-2.9987,-0.0486,2.8537,rough,14.0,1,1.528
2270,72.64,0.5054,6.5776,-1.6349,-2.9678,0.0328,2.2864,rough,14.0,1,1.523
2280,72.96,0.5164,6.6495,-1.6472,-3.0078,0.0790,1.6923,rough,14.0,1,1.592
2290,73.28,0.5347,6.7078,-1.6427,-3.0338,0.0885,1.2778,rough,14.0,1,1.646
2300,73.60,0.5349,6.6930,-1.6411,-3.0356,0.1082,1.2291,rough,14.0,1,1.632
2310,73.92,0.5472,6.7006,-1.6504,-3.0323,0.0918,1.4765,rough,14.0,1,1.637
2320,74.24,0.5533,6.6758,-1.6441,-3.0418,0.1164,1.7136,rough,14.0,1,1.612
2330,74.56,0.5577,6.6419,-1.6450,-3.0086,0.1184,1.7067,rough,14.0,1,1.578
2340,74.88,0.5548,6.6702,-1.6505,-3.0464,0.1451,1.5347,rough,14.0,1,1.606
2350,75.20,0.5410,6.6851,-1.6505,-3.0204,0.1202,1.4610,rough,14.0,1,1.623
2360,75.52,0.5543,6.6555,-1.6471,-3.0315,0.1487,1.6459,rough,14.0,1,1.592
2370,75.84,0.5634,6.6663,-1.6494,-3.0455,0.1562,1.5841,rough,14.0,1,1.601
2380,76.16,0.5547,6.6812,-1.6484,-3.0466,0.1371,1.5550,rough,14.0,1,1.617
2390,76.48,0.5651,6.7345,-1.6436,-3.0468,0.0489,1.5933,rough,14.0,1,1.668
2400,76.80,0.5669,6.7828,-1.6403,-3.0499,-0.0162,1.6014,rough,14.0,1,1.716
2410,77.12,0.5678,6.7954,-1.6394,-3.0472,-0.0369,1.6088,rough,14.0,1,1.728
2420,77.44,0.5633,6.7879,-1.6408,-3.0480,-0.0204,1.5857,rough,14.0,1,1.721
2430,77.76,0.5578,6.7888,-1.6414,-3.0528,-0.0099,1.5721,rough,14.0,1,1.723
2440,78.08,0.5615,6.7960,-1.6403,-3.0511,-0.0259,1.5907,rough,14.0,1,1.730
2450,78.40,0.5676,6.8023,-1.6388,-3.0438,-0.0483,1.6422,rough,14.0,1,1.735
2460,78.72,0.5704,6.7871,-1.6388,-3.0476,-0.0279,1.6719,rough,14.0,1,1.720
2470,79.04,0.5509,6.7421,-1.6463,-3.0358,0.0504,1.5351,rough,14.0,1,1.678
2480,79.36,0.5349,6.6704,-1.6480,-3.0347,0.1270,1.3934,rough,14.0,1,1.609
2490,79.68,0.5789,6.6674,-1.6470,-3.0406,0.1355,1.7029,rough,14.0,1,1.600
2500,80.00,0.5717,6.6453,-1.6516,-3.0116,0.1483,1.6289,rough,14.0,1,1.579
2510,80.32,0.5654,6.6478,-1.6467,-3.0463,0.1608,1.6047,rough,14.0,1,1.582
2520,80.64,0.5672,6.6609,-1.6477,-3.0421,0.1501,1.6345,rough,14.0,1,1.595
2530,80.96,0.5686,6.6627,-1.6476,-3.0403,0.1440,1.6349,rough,14.0,1,1.597
2540,81.28,0.5650,6.6612,-1.6482,-3.0426,0.1530,1.6169,rough,14.0,1,1.596
2550,81.60,0.5566,6.6664,-1.6488,-3.0486,0.1583,1.5646,rough,14.0,1,1.602
2560,81.92,0.5606,6.6682,-1.6488,-3.0441,0.1517,1.5969,rough,14.0,1,1.603
2570,82.24,0.5678,6.6933,-1.6458,-3.0415,0.1008,1.6228,rough,14.0,1,1.627
2580,82.56,0.5722,6.7493,-1.6414,-3.0438,0.0200,1.6718,rough,14.0,1,1.682
2590,82.88,0.5592,6.7284,-1.6454,-3.0494,0.0698,1.5672,rough,14.0,1,1.663
2600,83.20,0.5415,6.7081,-1.6496,-3.0286,0.0872,1.4852,rough,14.0,1,1.646
2610,83.52,0.5709,6.6824,-1.6459,-3.0455,0.1162,1.6222,rough,14.0,1,1.616
2620,83.84,0.5761,6.7226,-1.6477,-3.0479,0.0932,1.7064,rough,14.0,1,1.655
2630,84.16,0.5713,6.6814,-1.6466,-3.0374,0.1139,1.6374,rough,14.0,2,10.699
2640,84.48,0.5253,6.6229,-1.6444,-3.0722,0.1462,1.2952,rough,14.0,2,10.694
2650,84.80,0.4894,6.5959,-1.6333,3.1160,0.1812,0.5225,rough,14.0,2,10.703
2660,85.12,0.4845,6.5974,-1.6319,3.0234,0.1480,0.0639,rough,14.0,2,10.707
2670,85.44,0.4983,6.6137,-1.6350,3.0944,0.1526,0.4836,rough,14.0,2,10.708
2680,85.76,0.5038,6.5852,-1.6348,-3.0637,0.1531,1.3091,rough,14.0,2,10.685
2690,86.08,0.5462,6.5907,-1.6384,-3.0060,0.1115,1.7649,rough,14.0,2,10.657
2700,86.40,0.5601,6.6250,-1.6447,-3.0121,0.1168,1.5443,rough,14.0,2,10.670
2710,86.72,0.5213,6.7012,-1.6345,-3.0611,0.0817,1.0850,rough,14.0,2,10.750
2720,87.04,0.5210,6.7185,-1.6248,-3.0768,0.1658,0.4165,rough,14.0,2,10.762
2730,87.36,0.5200,6.7170,-1.6300,-3.1325,0.1401,0.1863,rough,14.0,2,10.761
2740,87.68,0.5216,6.6255,-1.6345,3.1250,0.1218,0.7127,rough,14.0,2,10.698
2750,88.00,0.5257,6.6061,-1.6420,-3.0767,0.1626,1.3132,rough,14.0,2,10.682
2760,88.32,0.5428,6.6179,-1.6412,-3.0660,0.1720,1.4437,rough,14.0,2,10.678
2770,88.64,0.5183,6.6409,-1.6392,-3.0861,0.1281,1.0333,rough,14.0,2,10.711
2780,88.96,0.5018,6.5860,-1.6362,3.0556,0.1753,0.3036,rough,14.0,2,10.687
2790,89.28,0.5053,6.5969,-1.6335,3.0390,0.1547,0.0864,rough,14.0,2,10.691
2800,89.60,0.5440,6.6105,-1.6368,3.0932,0.1094,0.5758,rough,14.0,2,10.672
2810,89.92,0.5220,6.5833,-1.6443,-3.0183,0.1852,1.4026,rough,14.0,2,10.670
