step,time_s,x,y,z,roll,pitch,yaw,terrain,speed,target_idx,dist_to_target
10,0.32,-1.2823,0.8525,0.2185,0.1947,-0.0077,-0.4057,rough,14.0,0,8.531
20,0.64,-0.9250,0.7253,0.2389,0.1083,-0.0464,-0.3564,rough,14.0,0,8.175
30,0.96,-0.4957,0.5618,0.2315,0.0449,0.0942,-0.3982,rough,14.0,0,7.742
40,1.28,-0.1106,0.3856,0.2134,0.0480,0.0213,-0.4465,rough,14.0,0,7.337
50,1.60,0.2683,0.1937,0.2140,0.0405,-0.0383,-0.4834,rough,14.0,0,6.928
60,1.92,0.6481,-0.0215,0.2325,0.0720,-0.0232,-0.5104,rough,14.0,0,6.504
70,2.24,1.0212,-0.2496,0.2377,0.1365,-0.0193,-0.5344,rough,14.0,0,6.077
80,2.56,1.4149,-0.4851,0.2162,0.1019,0.0910,-0.5544,rough,14.0,0,5.633
90,2.88,1.7787,-0.7200,0.1800,0.0909,0.0757,-0.5849,rough,14.0,0,5.211
100,3.20,2.1401,-0.9863,0.1450,0.1546,0.1429,-0.6068,rough,14.0,0,4.771
110,3.52,2.4903,-1.2518,0.0835,0.1958,0.1679,-0.6352,rough,14.0,0,4.339
120,3.84,2.8532,-1.5853,-0.0396,0.3935,0.4871,-0.5988,rough,14.0,0,3.850
130,4.16,3.1427,-1.8621,-0.1716,0.3496,0.2169,-0.6891,rough,14.0,0,3.452
140,4.48,3.4191,-2.1541,-0.2059,0.3564,0.1631,-0.7243,rough,14.0,0,3.051
150,4.80,3.6756,-2.4538,-0.2261,0.4312,0.0145,-0.7758,rough,14.0,0,2.656
160,5.12,3.9698,-2.7946,-0.2615,0.3322,0.1856,-0.7562,rough,14.0,0,2.207
170,5.44,4.2500,-3.1577,-0.3505,0.3532,0.0668,-0.8195,rough,14.0,0,1.748
180,5.76,4.5435,-3.4819,-0.3933,0.2345,0.0261,-0.8144,rough,14.0,0,1.312
190,6.08,4.7965,-3.7779,-0.3418,0.2432,-0.2325,-0.8712,rough,14.0,0,0.923
200,6.40,4.9565,-4.0047,-0.2984,0.1419,-0.2112,-0.5536,rough,14.0,1,12.169
210,6.72,5.1361,-4.1366,-0.2697,0.1577,-0.1283,-0.3120,rough,14.0,1,12.353
220,7.04,5.3302,-4.2467,-0.2498,0.2718,-0.1079,-0.0844,rough,14.0,1,12.522
230,7.36,5.5611,-4.2868,-0.2251,0.2268,-0.3063,0.2144,rough,14.0,1,12.641
240,7.68,5.8322,-4.2321,-0.1666,0.1966,-0.2870,0.4891,rough,14.0,1,12.690
250,8.00,6.0902,-4.0433,-0.0896,0.1082,-0.1403,0.7574,rough,14.0,1,12.617
260,8.32,6.3529,-3.7653,-0.0859,0.1385,0.0416,0.9593,rough,14.0,1,12.473
270,8.64,6.5576,-3.4726,-0.0799,0.1353,-0.1168,1.1108,rough,14.0,1,12.300
280,8.96,6.6847,-3.2232,0.0009,0.1276,-0.5247,1.2304,rough,14.0,1,12.137
290,9.28,6.7314,-2.9310,0.1225,-0.1125,-0.5325,1.3002,rough,14.0,1,11.901
300,9.60,6.7605,-2.5779,0.2163,-0.3281,-0.3509,1.3916,rough,14.0,1,11.607
310,9.92,6.7983,-2.2218,0.2709,-0.3714,-0.0816,1.4262,rough,14.0,1,11.318
320,10.24,6.8063,-1.7863,0.2303,-0.4130,0.0996,1.4712,rough,14.0,1,10.950
330,10.56,6.8384,-1.3391,0.1051,-0.3369,0.3346,1.5060,rough,14.0,1,10.591
340,10.88,6.8580,-0.9202,-0.0698,-0.2407,0.4317,1.5921,rough,14.0,1,10.255
350,11.20,6.8526,-0.5162,-0.1983,-0.1413,0.3086,1.6260,rough,14.0,1,9.922
360,11.52,6.8288,-0.1107,-0.2893,0.0334,0.2672,1.7396,rough,14.0,1,9.583
370,11.84,6.7481,0.2979,-0.3825,0.0828,0.2343,1.8162,rough,14.0,1,9.211
380,12.16,6.6369,0.7359,-0.5163,0.1560,0.3396,1.9058,rough,14.0,1,8.800
390,12.48,6.5902,0.7170,-0.5122,0.0592,0.3349,1.6782,rough,14.0,1,8.785
400,12.80,6.5764,0.7182,-0.5120,0.0323,0.3366,1.6070,rough,14.0,1,8.776
410,13.12,6.5718,0.7183,-0.5117,0.0231,0.3366,1.5831,rough,14.0,1,8.773
420,13.44,6.5703,0.7182,-0.5115,0.0209,0.3357,1.5753,rough,14.0,1,8.772
430,13.76,6.5697,0.7182,-0.5114,0.0200,0.3354,1.5726,rough,14.0,1,8.771
440,14.08,6.5694,0.7181,-0.5114,0.0200,0.3350,1.5718,rough,14.0,1,8.771
450,14.40,6.5693,0.7180,-0.5113,0.0202,0.3345,1.5715,rough,14.0,1,8.771
460,14.72,6.5692,0.7179,-0.5113,0.0206,0.3340,1.5715,rough,14.0,1,8.771
470,15.04,6.5691,0.7178,-0.5113,0.0209,0.3335,1.5714,rough,14.0,1,8.771
480,15.36,6.5690,0.7177,-0.5112,0.0210,0.3333,1.5713,rough,14.0,1,8.771
490,15.68,6.5689,0.7176,-0.5111,0.0210,0.3331,1.5713,rough,14.0,1,8.771
500,16.00,6.5688,0.7174,-0.5110,0.0211,0.3329,1.5713,rough,14.0,1,8.771
510,16.32,6.5687,0.7173,-0.5110,0.0212,0.3327,1.5713,rough,14.0,1,8.771
520,16.64,6.5686,0.7172,-0.5109,0.0212,0.3326,1.5712,rough,14.0,1,8.772
530,16.96,6.5685,0.7170,-0.5108,0.0213,0.3324,1.5712,rough,14.0,1,8.772
540,17.28,6.5684,0.7169,-0.5108,0.0213,0.3322,1.5712,rough,14.0,1,8.772
550,17.60,6.5683,0.7168,-0.5107,0.0214,0.3321,1.5712,rough,14.0,1,8.772
560,17.92,6.5682,0.7167,-0.5107,0.0214,0.3319,1.5712,rough,14.0,1,8.772
570,18.24,6.5681,0.7166,-0.5106,0.0215,0.3318,1.5712,rough,14.0,1,8.772
580,18.56,6.5680,0.7165,-0.5106,0.0215,0.3316,1.5712,rough,14.0,1,8.772
590,18.88,6.5679,0.7164,-0.5105,0.0216,0.3315,1.5712,rough,14.0,1,8.772
600,19.20,6.5678,0.7163,-0.5105,0.0216,0.3313,1.5712,rough,14.0,1,8.772
610,19.52,6.5677,0.7162,-0.5104,0.0217,0.3312,1.5712,rough,14.0,1,8.772
620,19.84,6.5676,0.7161,-0.5104,0.0217,0.3311,1.5712,rough,14.0,1,8.772
630,20.16,6.5676,0.7160,-0.5103,0.0217,0.3310,1.5712,rough,14.0,1,8.772
640,20.48,6.5675,0.7160,-0.5103,0.0218,0.3309,1.5712,rough,14.0,1,8.772
650,20.80,6.5674,0.7159,-0.5102,0.0218,0.3308,1.5712,rough,14.0,1,8.772
660,21.12,6.5673,0.7158,-0.5102,0.0218,0.3307,1.5711,rough,14.0,1,8.772
670,21.44,6.5672,0.7157,-0.5101,0.0218,0.3306,1.5711,rough,14.0,1,8.772
680,21.76,6.5671,0.7156,-0.5101,0.0219,0.3305,1.5711,rough,14.0,1,8.772
690,22.08,6.5670,0.7156,-0.5101,0.0219,0.3304,1.5711,rough,14.0,1,8.772
700,22.40,6.5669,0.7155,-0.5100,0.0220,0.3303,1.5711,rough,14.0,1,8.772
710,22.72,6.5668,0.7154,-0.5100,0.0220,0.3302,1.5711,rough,14.0,1,8.772
720,23.04,6.5668,0.7154,-0.5100,0.0220,0.3302,1.5711,rough,14.0,1,8.772
730,23.36,6.5667,0.7153,-0.5099,0.0221,0.3301,1.5711,rough,14.0,1,8.772
740,23.68,6.5666,0.7153,-0.5099,0.0221,0.3300,1.5711,rough,14.0,1,8.772
750,24.00,6.5665,0.7152,-0.5099,0.0221,0.3299,1.5711,rough,14.0,1,8.772
760,24.32,6.5664,0.7152,-0.5098,0.0222,0.3299,1.5711,rough,14.0,1,8.772
770,24.64,6.5663,0.7151,-0.5098,0.0222,0.3298,1.5711,rough,14.0,1,8.772
780,24.96,6.5662,0.7151,-0.5098,0.0222,0.3297,1.5711,rough,14.0,1,8.772
790,25.28,6.5662,0.7150,-0.5098,0.0222,0.3297,1.5711,rough,14.0,1,8.772
800,25.60,6.5661,0.7150,-0.5097,0.0222,0.3296,1.5711,rough,14.0,1,8.772
810,25.92,6.5660,0.7149,-0.5097,0.0222,0.3296,1.5711,rough,14.0,1,8.772
820,26.24,6.5659,0.7148,-0.5097,0.0222,0.3296,1.5711,rough,14.0,1,8.772
830,26.56,6.5658,0.7148,-0.5096,0.0222,0.3295,1.5711,rough,14.0,1,8.772
840,26.88,6.5657,0.7147,-0.5096,0.0223,0.3295,1.5711,rough,14.0,1,8.772
850,27.20,6.5657,0.7147,-0.5096,0.0223,0.3294,1.5711,rough,14.0,1,8.772
860,27.52,6.5656,0.7147,-0.5096,0.0223,0.3293,1.5711,rough,14.0,1,8.772
870,27.84,6.5655,0.7146,-0.5095,0.0223,0.3293,1.5711,rough,14.0,1,8.772
880,28.16,6.5654,0.7146,-0.5095,0.0223,0.3292,1.5711,rough,14.0,1,8.772
890,28.48,6.5654,0.7146,-0.5095,0.0224,0.3292,1.5711,rough,14.0,1,8.772
900,28.80,6.5653,0.7145,-0.5095,0.0224,0.3291,1.5711,rough,14.0,1,8.771
910,29.12,6.5652,0.7145,-0.5095,0.0224,0.3291,1.5711,rough,14.0,1,8.771
920,29.44,6.5651,0.7145,-0.5094,0.0224,0.3290,1.5711,rough,14.0,1,8.771
930,29.76,6.5650,0.7144,-0.5094,0.0224,0.3290,1.5711,rough,14.0,1,8.771
940,30.08,6.5650,0.7144,-0.5094,0.0225,0.3289,1.5711,rough,14.0,1,8.771
950,30.40,6.5649,0.7144,-0.5094,0.0225,0.3289,1.5711,rough,14.0,1,8.771
960,30.72,6.5648,0.7143,-0.5094,0.0225,0.3288,1.5711,rough,14.0,1,8.771
970,31.04,6.5647,0.7143,-0.5094,0.0225,0.3288,1.5711,rough,14.0,1,8.771
980,31.36,6.5647,0.7143,-0.5093,0.0225,0.3287,1.5711,rough,14.0,1,8.771
990,31.68,6.5646,0.7143,-0.5093,0.0225,0.3287,1.5711,rough,14.0,1,8.771
1000,32.00,6.5645,0.7143,-0.5093,0.0225,0.3287,1.5711,rough,14.0,1,8.771
1010,32.32,6.5644,0.7142,-0.5093,0.0225,0.3286,1.5711,rough,14.0,1,8.771
1020,32.64,6.5643,0.7142,-0.5093,0.0226,0.3286,1.5711,rough,14.0,1,8.771
1030,32.96,6.5643,0.7142,-0.5093,0.0226,0.3286,1.5710,rough,14.0,1,8.771
1040,33.28,6.5642,0.7142,-0.5092,0.0226,0.3285,1.5710,rough,14.0,1,8.771
1050,33.60,6.5641,0.7141,-0.5092,0.0226,0.3285,1.5710,rough,14.0,1,8.771
1060,33.92,6.5640,0.7141,-0.5092,0.0226,0.3285,1.5710,rough,14.0,1,8.771
1070,34.24,6.5640,0.7141,-0.5092,0.0226,0.3284,1.5710,rough,14.0,1,8.771
1080,34.56,6.5639,0.7141,-0.5092,0.0226,0.3284,1.5710,rough,14.0,1,8.771
1090,34.88,6.5638,0.7141,-0.5092,0.0226,0.3284,1.5710,rough,14.0,1,8.771
1100,35.20,6.5637,0.7141,-0.5092,0.0226,0.3284,1.5710,rough,14.0,1,8.771
1110,35.52,6.5637,0.7140,-0.5092,0.0226,0.3283,1.5710,rough,14.0,1,8.771
1120,35.84,6.5636,0.7140,-0.5091,0.0226,0.3283,1.5710,rough,14.0,1,8.771
1130,36.16,6.5635,0.7140,-0.5091,0.0226,0.3283,1.5710,rough,14.0,1,8.771
1140,36.48,6.5634,0.7140,-0.5091,0.0226,0.3283,1.5710,rough,14.0,1,8.771
1150,36.80,6.5634,0.7140,-0.5091,0.0226,0.3283,1.5710,rough,14.0,1,8.771
1160,37.12,6.5633,0.7140,-0.5091,0.0227,0.3282,1.5710,rough,14.0,1,8.771
1170,37.44,6.5632,0.7139,-0.5091,0.0227,0.3282,1.5710,rough,14.0,1,8.771
1180,37.76,6.5631,0.7139,-0.5091,0.0227,0.3282,1.5710,rough,14.0,1,8.771
1190,38.08,6.5631,0.7139,-0.5091,0.0227,0.3282,1.5710,rough,14.0,1,8.771
1200,38.40,6.5630,0.7139,-0.5091,0.0227,0.3282,1.5710,rough,14.0,1,8.771
1210,38.72,6.5629,0.7139,-0.5091,0.0227,0.3282,1.5710,rough,14.0,1,8.770
1220,39.04,6.5628,0.7139,-0.5091,0.0227,0.3281,1.5710,rough,14.0,1,8.770
1230,39.36,6.5628,0.7139,-0.5090,0.0227,0.3281,1.5710,rough,14.0,1,8.770
1240,39.68,6.5627,0.7139,-0.5090,0.0227,0.3281,1.5710,rough,14.0,1,8.770
1250,40.00,6.5626,0.7138,-0.5090,0.0227,0.3281,1.5710,rough,14.0,1,8.770
1260,40.32,6.5625,0.7138,-0.5090,0.0227,0.3281,1.5710,rough,14.0,1,8.770
1270,40.64,6.5625,0.7138,-0.5090,0.0227,0.3281,1.5710,rough,14.0,1,8.770
1280,40.96,6.5624,0.7138,-0.5090,0.0227,0.3281,1.5710,rough,14.0,1,8.770
1290,41.28,6.5623,0.7138,-0.5090,0.0227,0.3281,1.5710,rough,14.0,1,8.770
1300,41.60,6.5622,0.7138,-0.5090,0.0227,0.3280,1.5710,rough,14.0,1,8.770
1310,41.92,6.5622,0.7138,-0.5090,0.0227,0.3280,1.5710,rough,14.0,1,8.770
1320,42.24,6.5621,0.7138,-0.5090,0.0227,0.3280,1.5710,rough,14.0,1,8.770
1330,42.56,6.5620,0.7138,-0.5090,0.0227,0.3280,1.5710,rough,14.0,1,8.770
1340,42.88,6.5620,0.7138,-0.5090,0.0227,0.3280,1.5710,rough,14.0,1,8.770
1350,43.20,6.5619,0.7138,-0.5090,0.0227,0.3280,1.5710,rough,14.0,1,8.770
1360,43.52,6.5618,0.7138,-0.5090,0.0227,0.3280,1.5710,rough,14.0,1,8.770
1370,43.84,6.5617,0.7137,-0.5090,0.0227,0.3280,1.5710,rough,14.0,1,8.770
1380,44.16,6.5617,0.7137,-0.5090,0.0227,0.3280,1.5710,rough,14.0,1,8.770
1390,44.48,6.5616,0.7137,-0.5090,0.0227,0.3280,1.5710,rough,14.0,1,8.770
1400,44.80,6.5615,0.7137,-0.5089,0.0227,0.3280,1.5710,rough,14.0,1,8.770
1410,45.12,6.5614,0.7137,-0.5089,0.0227,0.3280,1.5710,rough,14.0,1,8.770
1420,45.44,6.5614,0.7137,-0.5089,0.0227,0.3280,1.5710,rough,14.0,1,8.770
1430,45.76,6.5613,0.7137,-0.5089,0.0227,0.3280,1.5710,rough,14.0,1,8.770
1440,46.08,6.5612,0.7137,-0.5089,0.0226,0.3280,1.5710,rough,14.0,1,8.770
1450,46.40,6.5612,0.7137,-0.5089,0.0226,0.3280,1.5710,rough,14.0,1,8.770
1460,46.72,6.5611,0.7137,-0.5089,0.0226,0.3280,1.5710,rough,14.0,1,8.769
1470,47.04,6.5610,0.7137,-0.5089,0.0226,0.3280,1.5710,rough,14.0,1,8.769
1480,47.36,6.5609,0.7137,-0.5089,0.0226,0.3280,1.5710,rough,14.0,1,8.769
1490,47.68,6.5609,0.7137,-0.5089,0.0226,0.3280,1.5710,rough,14.0,1,8.769
1500,48.00,6.5608,0.7137,-0.5089,0.0226,0.3280,1.5710,rough,14.0,1,8.769
1510,48.32,6.5607,0.7137,-0.5089,0.0226,0.3280,1.5710,rough,14.0,1,8.769
1520,48.64,6.5606,0.7137,-0.5089,0.0226,0.3280,1.5710,rough,14.0,1,8.769
1530,48.96,6.5606,0.7137,-0.5089,0.0226,0.3280,1.5710,rough,14.0,1,8.769
1540,49.28,6.5605,0.7137,-0.5089,0.0226,0.3280,1.5710,rough,14.0,1,8.769
1550,49.60,6.5604,0.7137,-0.5089,0.0226,0.3280,1.5710,rough,14.0,1,8.769
1560,49.92,6.5604,0.7136,-0.5089,0.0226,0.3280,1.5710,rough,14.0,1,8.769
1570,50.24,6.5603,0.7136,-0.5089,0.0226,0.3280,1.5710,rough,14.0,1,8.769
1580,50.56,6.5602,0.7136,-0.5089,0.0226,0.3280,1.5710,rough,14.0,1,8.769
1590,50.88,6.5601,0.7136,-0.5089,0.0226,0.3280,1.5710,rough,14.0,1,8.769
1600,51.20,6.5601,0.7136,-0.5089,0.0226,0.3280,1.5710,rough,14.0,1,8.769
1610,51.52,6.5600,0.7136,-0.5089,0.0226,0.3280,1.5710,rough,14.0,1,8.769
1620,51.84,6.5599,0.7136,-0.5089,0.0226,0.3280,1.5710,rough,14.0,1,8.769
1630,52.16,6.5599,0.7136,-0.5089,0.0226,0.3280,1.5710,rough,14.0,1,8.769
1640,52.48,6.5598,0.7136,-0.5089,0.0226,0.3280,1.5710,rough,14.0,1,8.769
1650,52.80,6.5597,0.7136,-0.5089,0.0226,0.3280,1.5710,rough,14.0,1,8.769
1660,53.12,6.5596,0.7136,-0.5089,0.0225,0.3280,1.5710,rough,14.0,1,8.769
1670,53.44,6.5596,0.7136,-0.5089,0.0225,0.3280,1.5710,rough,14.0,1,8.769
1680,53.76,6.5595,0.7136,-0.5089,0.0225,0.3280,1.5710,rough,14.0,1,8.769
1690,54.08,6.5594,0.7136,-0.5089,0.0225,0.3280,1.5710,rough,14.0,1,8.768
1700,54.40,6.5594,0.7136,-0.5089,0.0225,0.3280,1.5710,rough,14.0,1,8.768
1710,54.72,6.5593,0.7136,-0.5089,0.0225,0.3280,1.5710,rough,14.0,1,8.768
1720,55.04,6.5592,0.7136,-0.5089,0.0225,0.3280,1.5710,rough,14.0,1,8.768
1730,55.36,6.5591,0.7136,-0.5088,0.0225,0.3280,1.5710,rough,14.0,1,8.768
1740,55.68,6.5591,0.7136,-0.5088,0.0225,0.3280,1.5710,rough,14.0,1,8.768
1750,56.00,6.5590,0.7136,-0.5088,0.0225,0.3280,1.5710,rough,14.0,1,8.768
1760,56.32,6.5589,0.7136,-0.5088,0.0225,0.3280,1.5710,rough,14.0,1,8.768
1770,56.64,6.5589,0.7136,-0.5088,0.0225,0.3280,1.5710,rough,14.0,1,8.768
1780,56.96,6.5588,0.7136,-0.5088,0.0225,0.3280,1.5710,rough,14.0,1,8.768
1790,57.28,6.5587,0.7136,-0.5088,0.0225,0.3280,1.5710,rough,14.0,1,8.768
1800,57.60,6.5587,0.7136,-0.5088,0.0225,0.3281,1.5710,rough,14.0,1,8.768
1810,57.92,6.5586,0.7136,-0.5088,0.0225,0.3281,1.5710,rough,14.0,1,8.768
1820,58.24,6.5585,0.7136,-0.5088,0.0224,0.3281,1.5710,rough,14.0,1,8.768
1830,58.56,6.5584,0.7136,-0.5088,0.0224,0.3281,1.5710,rough,14.0,1,8.768
1840,58.88,6.5584,0.7136,-0.5088,0.0224,0.3281,1.5710,rough,14.0,1,8.768
1850,59.20,6.5583,0.7136,-0.5088,0.0224,0.3281,1.5710,rough,14.0,1,8.768
1860,59.52,6.5582,0.7136,-0.5088,0.0224,0.3281,1.5710,rough,14.0,1,8.768
1870,59.84,6.5582,0.7136,-0.5088,0.0224,0.3281,1.5710,rough,14.0,1,8.768
1880,60.16,6.5581,0.7136,-0.5088,0.0224,0.3281,1.5710,rough,14.0,1,8.768
1890,60.48,6.5580,0.7136,-0.5088,0.0224,0.3281,1.5710,rough,14.0,1,8.768
1900,60.80,6.5580,0.7136,-0.5088,0.0224,0.3281,1.5710,rough,14.0,1,8.768
1910,61.12,6.5579,0.7136,-0.5088,0.0224,0.3281,1.5710,rough,14.0,1,8.768
1920,61.44,6.5578,0.7136,-0.5088,0.0224,0.3281,1.5710,rough,14.0,1,8.767
1930,61.76,6.5577,0.7136,-0.5088,0.0224,0.3281,1.5710,rough,14.0,1,8.767
1940,62.08,6.5577,0.7136,-0.5088,0.0224,0.3281,1.5710,rough,14.0,1,8.767
1950,62.40,6.5576,0.7136,-0.5088,0.0224,0.3282,1.5710,rough,14.0,1,8.767
1960,62.72,6.5575,0.7136,-0.5088,0.0224,0.3282,1.5710,rough,14.0,1,8.767
1970,63.04,6.5575,0.7136,-0.5088,0.0223,0.3282,1.5710,rough,14.0,1,8.767
1980,63.36,6.5574,0.7136,-0.5088,0.0223,0.3282,1.5710,rough,14.0,1,8.767
1990,63.68,6.5573,0.7136,-0.5088,0.0223,0.3282,1.5710,rough,14.0,1,8.767
2000,64.00,6.5573,0.7136,-0.5088,0.0223,0.3282,1.5710,rough,14.0,1,8.767
2010,64.32,6.5572,0.7136,-0.5088,0.0223,0.3282,1.5710,rough,14.0,1,8.767
2020,64.64,6.5571,0.7136,-0.5088,0.0223,0.3282,1.5710,rough,14.0,1,8.767
2030,64.96,6.5570,0.7136,-0.5088,0.0223,0.3282,1.5710,rough,14.0,1,8.767
2040,65.28,6.5570,0.7136,-0.5088,0.0223,0.3282,1.5710,rough,14.0,1,8.767
2050,65.60,6.5569,0.7136,-0.5088,0.0223,0.3282,1.5710,rough,14.0,1,8.767
2060,65.92,6.5568,0.7136,-0.5088,0.0223,0.3282,1.5710,rough,14.0,1,8.767
2070,66.24,6.5568,0.7136,-0.5088,0.0223,0.3282,1.5710,rough,14.0,1,8.767
2080,66.56,6.5567,0.7136,-0.5088,0.0223,0.3283,1.5710,rough,14.0,1,8.767
2090,66.88,6.5566,0.7136,-0.5088,0.0223,0.3283,1.5710,rough,14.0,1,8.767
2100,67.20,6.5566,0.7136,-0.5088,0.0222,0.3283,1.5710,rough,14.0,1,8.767
2110,67.52,6.5565,0.7136,-0.5088,0.0222,0.3283,1.5710,rough,14.0,1,8.767
2120,67.84,6.5564,0.7136,-0.5088,0.0222,0.3283,1.5710,rough,14.0,1,8.767
2130,68.16,6.5564,0.7136,-0.5088,0.0222,0.3283,1.5710,rough,14.0,1,8.767
2140,68.48,6.5563,0.7136,-0.5088,0.0222,0.3283,1.5710,rough,14.0,1,8.767
2150,68.80,6.5562,0.7136,-0.5088,0.0222,0.3283,1.5710,rough,14.0,1,8.766
2160,69.12,6.5562,0.7136,-0.5088,0.0222,0.3283,1.5710,rough,14.0,1,8.766
2170,69.44,6.5561,0.7136,-0.5088,0.0222,0.3283,1.5710,rough,14.0,1,8.766
2180,69.76,6.5560,0.7136,-0.5088,0.0222,0.3283,1.5710,rough,14.0,1,8.766
2190,70.08,6.5559,0.7136,-0.5088,0.0222,0.3284,1.5710,rough,14.0,1,8.766
2200,70.40,6.5559,0.7136,-0.5088,0.0222,0.3284,1.5710,rough,14.0,1,8.766
2210,70.72,6.5558,0.7136,-0.5088,0.0222,0.3284,1.5710,rough,14.0,1,8.766
2220,71.04,6.5557,0.7136,-0.5088,0.0222,0.3284,1.5710,rough,14.0,1,8.766
2230,71.36,6.5557,0.7136,-0.5088,0.0221,0.3284,1.5710,rough,14.0,1,8.766
2240,71.68,6.5556,0.7136,-0.5088,0.0221,0.3284,1.5710,rough,14.0,1,8.766
2250,72.00,6.5555,0.7136,-0.5088,0.0221,0.3284,1.5710,rough,14.0,1,8.766
2260,72.32,6.5555,0.7136,-0.5088,0.0221,0.3284,1.5710,rough,14.0,1,8.766
2270,72.64,6.5554,0.7136,-0.5088,0.0221,0.3284,1.5710,rough,14.0,1,8.766
2280,72.96,6.5553,0.7136,-0.5088,0.0221,0.3284,1.5710,rough,14.0,1,8.766
2290,73.28,6.5553,0.7136,-0.5088,0.0221,0.3284,1.5710,rough,14.0,1,8.766
2300,73.60,6.5552,0.7136,-0.5088,0.0221,0.3285,1.5710,rough,14.0,1,8.766
2310,73.92,6.5551,0.7136,-0.5088,0.0221,0.3285,1.5710,rough,14.0,1,8.766
2320,74.24,6.5551,0.7136,-0.5088,0.0221,0.3285,1.5710,rough,14.0,1,8.766
2330,74.56,6.5550,0.7136,-0.5088,0.0221,0.3285,1.5710,rough,14.0,1,8.766
2340,74.88,6.5549,0.7136,-0.5088,0.0221,0.3285,1.5710,rough,14.0,1,8.766
2350,75.20,6.5549,0.7136,-0.5088,0.0221,0.3285,1.5710,rough,14.0,1,8.766
2360,75.52,6.5548,0.7136,-0.5088,0.0220,0.3285,1.5710,rough,14.0,1,8.766
2370,75.84,6.5547,0.7136,-0.5088,0.0220,0.3285,1.5710,rough,14.0,1,8.766
2380,76.16,6.5546,0.7136,-0.5088,0.0220,0.3285,1.5710,rough,14.0,1,8.765
2390,76.48,6.5546,0.7136,-0.5088,0.0220,0.3285,1.5710,rough,14.0,1,8.765
2400,76.80,6.5545,0.7136,-0.5088,0.0220,0.3285,1.5710,rough,14.0,1,8.765
2410,77.12,6.5544,0.7136,-0.5088,0.0220,0.3286,1.5710,rough,14.0,1,8.765
2420,77.44,6.5544,0.7136,-0.5088,0.0220,0.3286,1.5710,rough,14.0,1,8.765
2430,77.76,6.5543,0.7136,-0.5088,0.0220,0.3286,1.5710,rough,14.0,1,8.765
2440,78.08,6.5542,0.7136,-0.5088,0.0220,0.3286,1.5710,rough,14.0,1,8.765
2450,78.40,6.5542,0.7136,-0.5088,0.0220,0.3286,1.5710,rough,14.0,1,8.765
2460,78.72,6.5541,0.7136,-0.5088,0.0220,0.3286,1.5710,rough,14.0,1,8.765
2470,79.04,6.5540,0.7136,-0.5088,0.0220,0.3286,1.5710,rough,14.0,1,8.765
2480,79.36,6.5540,0.7136,-0.5088,0.0219,0.3286,1.5710,rough,14.0,1,8.765
2490,79.68,6.5539,0.7136,-0.5088,0.0219,0.3286,1.5710,rough,14.0,1,8.765
2500,80.00,6.5538,0.7136,-0.5088,0.0219,0.3286,1.5710,rough,14.0,1,8.765
2510,80.32,6.5538,0.7136,-0.5088,0.0219,0.3287,1.5710,rough,14.0,1,8.765
2520,80.64,6.5537,0.7136,-0.5088,0.0219,0.3287,1.5710,rough,14.0,1,8.765
2530,80.96,6.5536,0.7136,-0.5088,0.0219,0.3287,1.5710,rough,14.0,1,8.765
2540,81.28,6.5536,0.7136,-0.5088,0.0219,0.3287,1.5710,rough,14.0,1,8.765
2550,81.60,6.5535,0.7136,-0.5088,0.0219,0.3287,1.5710,rough,14.0,1,8.765
2560,81.92,6.5534,0.7136,-0.5088,0.0219,0.3287,1.5710,rough,14.0,1,8.765
2570,82.24,6.5534,0.7136,-0.5088,0.0219,0.3287,1.5710,rough,14.0,1,8.765
2580,82.56,6.5533,0.7136,-0.5088,0.0219,0.3287,1.5710,rough,14.0,1,8.765
2590,82.88,6.5532,0.7136,-0.5088,0.0219,0.3287,1.5710,rough,14.0,1,8.765
2600,83.20,6.5532,0.7136,-0.5088,0.0218,0.3287,1.5710,rough,14.0,1,8.765
2610,83.52,6.5531,0.7136,-0.5088,0.0218,0.3288,1.5710,rough,14.0,1,8.764
2620,83.84,6.5530,0.7136,-0.5088,0.0218,0.3288,1.5710,rough,14.0,1,8.764
2630,84.16,6.5530,0.7136,-0.5088,0.0218,0.3288,1.5710,rough,14.0,1,8.764
2640,84.48,6.5529,0.7136,-0.5088,0.0218,0.3288,1.5710,rough,14.0,1,8.764
2650,84.80,6.5528,0.7136,-0.5088,0.0218,0.3288,1.5710,rough,14.0,1,8.764
2660,85.12,6.5528,0.7136,-0.5088,0.0218,0.3288,1.5710,rough,14.0,1,8.764
2670,85.44,6.5527,0.7136,-0.5088,0.0218,0.3288,1.5710,rough,14.0,1,8.764
2680,85.76,6.5526,0.7136,-0.5088,0.0218,0.3288,1.5710,rough,14.0,1,8.764
2690,86.08,6.5526,0.7137,-0.5088,0.0218,0.3288,1.5710,rough,14.0,1,8.764
2700,86.40,6.5525,0.7137,-0.5088,0.0218,0.3288,1.5710,rough,14.0,1,8.764
2710,86.72,6.5524,0.7137,-0.5088,0.0218,0.3288,1.5710,rough,14.0,1,8.764
2720,87.04,6.5524,0.7137,-0.5088,0.0218,0.3289,1.5710,rough,14.0,1,8.764
2730,87.36,6.5523,0.7137,-0.5088,0.0217,0.3289,1.5710,rough,14.0,1,8.764
2740,87.68,6.5522,0.7137,-0.5088,0.0217,0.3289,1.5710,rough,14.0,1,8.764
2750,88.00,6.5522,0.7137,-0.5088,0.0217,0.3289,1.5710,rough,14.0,1,8.764
2760,88.32,6.5521,0.7137,-0.5088,0.0217,0.3289,1.5710,rough,14.0,1,8.764
2770,88.64,6.5520,0.7137,-0.5088,0.0217,0.3289,1.5710,rough,14.0,1,8.764
2780,88.96,6.5520,0.7137,-0.5088,0.0217,0.3289,1.5710,rough,14.0,1,8.764
2790,89.28,6.5519,0.7137,-0.5088,0.0217,0.3289,1.5710,rough,14.0,1,8.764
2800,89.60,6.5518,0.7137,-0.5088,0.0217,0.3289,1.5710,rough,14.0,1,8.764
2810,89.92,6.5518,0.7137,-0.5088,0.0217,0.3289,1.5710,rough,14.0,1,8.764
2820,90.24,6.5517,0.7137,-0.5088,0.0217,0.3290,1.5710,rough,14.0,1,8.764
2830,90.56,6.5516,0.7137,-0.5088,0.0217,0.3290,1.5710,rough,14.0,1,8.764
2840,90.88,6.5516,0.7137,-0.5088,0.0217,0.3290,1.5710,rough,14.0,1,8.763
2850,91.20,6.5515,0.7137,-0.5088,0.0216,0.3290,1.5710,rough,14.0,1,8.763
2860,91.52,6.5514,0.7137,-0.5088,0.0216,0.3290,1.5710,rough,14.0,1,8.763
2870,91.84,6.5514,0.7137,-0.5088,0.0216,0.3290,1.5710,rough,14.0,1,8.763
2880,92.16,6.5513,0.7137,-0.5088,0.0216,0.3290,1.5710,rough,14.0,1,8.763
2890,92.48,6.5512,0.7137,-0.5088,0.0216,0.3290,1.5710,rough,14.0,1,8.763
2900,92.80,6.5512,0.7137,-0.5088,0.0216,0.3290,1.5710,rough,14.0,1,8.763
2910,93.12,6.5511,0.7137,-0.5088,0.0216,0.3290,1.5710,rough,14.0,1,8.763
2920,93.44,6.5510,0.7137,-0.5088,0.0216,0.3291,1.5710,rough,14.0,1,8.763
2930,93.76,6.5510,0.7137,-0.5088,0.0216,0.3291,1.5710,rough,14.0,1,8.763
2940,94.08,6.5509,0.7137,-0.5088,0.0216,0.3291,1.5710,rough,14.0,1,8.763
2950,94.40,6.5508,0.7137,-0.5088,0.0216,0.3291,1.5710,rough,14.0,1,8.763
2960,94.72,6.5508,0.7137,-0.5088,0.0216,0.3291,1.5710,rough,14.0,1,8.763
2970,95.04,6.5507,0.7137,-0.5088,0.0216,0.3291,1.5710,rough,14.0,1,8.763
2980,95.36,6.5507,0.7137,-0.5088,0.0215,0.3291,1.5710,rough,14.0,1,8.763
2990,95.68,6.5506,0.7137,-0.5088,0.0215,0.3291,1.5710,rough,14.0,1,8.763
3000,96.00,6.5505,0.7137,-0.5088,0.0215,0.3291,1.5710,rough,14.0,1,8.763
3010,96.32,6.5505,0.7137,-0.5088,0.0215,0.3291,1.5710,rough,14.0,1,8.763
3020,96.64,6.5504,0.7137,-0.5088,0.0215,0.3292,1.5710,rough,14.0,1,8.763
3030,96.96,6.5503,0.7137,-0.5088,0.0215,0.3292,1.5710,rough,14.0,1,8.763
3040,97.28,6.5503,0.7137,-0.5088,0.0215,0.3292,1.5710,rough,14.0,1,8.763
3050,97.60,6.5502,0.7137,-0.5088,0.0215,0.3292,1.5710,rough,14.0,1,8.763
3060,97.92,6.5501,0.7137,-0.5088,0.0215,0.3292,1.5710,rough,14.0,1,8.763
3070,98.24,6.5501,0.7137,-0.5088,0.0215,0.3292,1.5710,rough,14.0,1,8.763
3080,98.56,6.5500,0.7137,-0.5088,0.0215,0.3292,1.5709,rough,14.0,1,8.762
3090,98.88,6.5499,0.7137,-0.5088,0.0215,0.3292,1.5709,rough,14.0,1,8.762
3100,99.20,6.5499,0.7137,-0.5088,0.0214,0.3292,1.5709,rough,14.0,1,8.762
3110,99.52,6.5498,0.7137,-0.5088,0.0214,0.3292,1.5709,rough,14.0,1,8.762
3120,99.84,6.5497,0.7137,-0.5088,0.0214,0.3293,1.5709,rough,14.0,1,8.762
3130,100.16,6.5497,0.7137,-0.5088,0.0214,0.3293,1.5709,rough,14.0,1,8.762
3140,100.48,6.5496,0.7137,-0.5088,0.0214,0.3293,1.5709,rough,14.0,1,8.762
3150,100.80,6.5495,0.7137,-0.5088,0.0214,0.3293,1.5709,rough,14.0,1,8.762
3160,101.12,6.5495,0.7137,-0.5088,0.0214,0.3293,1.5709,rough,14.0,1,8.762
3170,101.44,6.5494,0.7137,-0.5088,0.0214,0.3293,1.5709,rough,14.0,1,8.762
3180,101.76,6.5493,0.7137,-0.5088,0.0214,0.3293,1.5709,rough,14.0,1,8.762
3190,102.08,6.5493,0.7137,-0.5088,0.0214,0.3293,1.5709,rough,14.0,1,8.762
3200,102.40,6.5492,0.7137,-0.5088,0.0214,0.3293,1.5709,rough,14.0,1,8.762
3210,102.72,6.5492,0.7137,-0.5088,0.0214,0.3293,1.5709,rough,14.0,1,8.762
3220,103.04,6.5491,0.7137,-0.5088,0.0214,0.3294,1.5709,rough,14.0,1,8.762
3230,103.36,6.5490,0.7137,-0.5088,0.0213,0.3294,1.5709,rough,14.0,1,8.762
3240,103.68,6.5490,0.7137,-0.5088,0.0213,0.3294,1.5709,rough,14.0,1,8.762
3250,104.00,6.5489,0.7137,-0.5088,0.0213,0.3294,1.5709,rough,14.0,1,8.762
3260,104.32,6.5488,0.7137,-0.5088,0.0213,0.3294,1.5709,rough,14.0,1,8.762
3270,104.64,6.5488,0.7137,-0.5088,0.0213,0.3294,1.5709,rough,14.0,1,8.762
3280,104.96,6.5487,0.7137,-0.5088,0.0213,0.3294,1.5709,rough,14.0,1,8.762
3290,105.28,6.5486,0.7137,-0.5088,0.0213,0.3294,1.5709,rough,14.0,1,8.762
3300,105.60,6.5486,0.7137,-0.5088,0.0213,0.3294,1.5709,rough,14.0,1,8.762
3310,105.92,6.5485,0.7137,-0.5088,0.0213,0.3294,1.5709,rough,14.0,1,8.762
3320,106.24,6.5484,0.7137,-0.5088,0.0213,0.3294,1.5709,rough,14.0,1,8.761
3330,106.56,6.5484,0.7137,-0.5088,0.0213,0.3295,1.5709,rough,14.0,1,8.761
3340,106.88,6.5483,0.7137,-0.5088,0.0213,0.3295,1.5709,rough,14.0,1,8.761
3350,107.20,6.5483,0.7137,-0.5088,0.0212,0.3295,1.5709,rough,14.0,1,8.761
3360,107.52,6.5482,0.7137,-0.5088,0.0212,0.3295,1.5709,rough,14.0,1,8.761
3370,107.84,6.5481,0.7137,-0.5088,0.0212,0.3295,1.5709,rough,14.0,1,8.761
3380,108.16,6.5481,0.7137,-0.5088,0.0212,0.3295,1.5709,rough,14.0,1,8.761
3390,108.48,6.5480,0.7137,-0.5088,0.0212,0.3295,1.5709,rough,14.0,1,8.761
3400,108.80,6.5479,0.7137,-0.5088,0.0212,0.3295,1.5709,rough,14.0,1,8.761
3410,109.12,6.5479,0.7137,-0.5088,0.0212,0.3295,1.5709,rough,14.0,1,8.761
3420,109.44,6.5478,0.7137,-0.5088,0.0212,0.3295,1.5709,rough,14.0,1,8.761
3430,109.76,6.5477,0.7137,-0.5088,0.0212,0.3296,1.5709,rough,14.0,1,8.761
3440,110.08,6.5477,0.7137,-0.5088,0.0212,0.3296,1.5709,rough,14.0,1,8.761
3450,110.40,6.5476,0.7137,-0.5088,0.0212,0.3296,1.5709,rough,14.0,1,8.761
3460,110.72,6.5475,0.7137,-0.5088,0.0212,0.3296,1.5709,rough,14.0,1,8.761
3470,111.04,6.5475,0.7137,-0.5088,0.0212,0.3296,1.5709,rough,14.0,1,8.761
3480,111.36,6.5474,0.7138,-0.5088,0.0211,0.3296,1.5709,rough,14.0,1,8.761
3490,111.68,6.5474,0.7138,-0.5088,0.0211,0.3296,1.5709,rough,14.0,1,8.761
3500,112.00,6.5473,0.7138,-0.5088,0.0211,0.3296,1.5709,rough,14.0,1,8.761
3510,112.32,6.5472,0.7138,-0.5088,0.0211,0.3296,1.5709,rough,14.0,1,8.761
3520,112.64,6.5472,0.7138,-0.5088,0.0211,0.3296,1.5709,rough,14.0,1,8.761
3530,112.96,6.5471,0.7138,-0.5088,0.0211,0.3297,1.5709,rough,14.0,1,8.761
3540,113.28,6.5470,0.7138,-0.5088,0.0211,0.3297,1.5709,rough,14.0,1,8.761
3550,113.60,6.5470,0.7138,-0.5088,0.0211,0.3297,1.5709,rough,14.0,1,8.761
3560,113.92,6.5469,0.7138,-0.5088,0.0211,0.3297,1.5709,rough,14.0,1,8.760
3570,114.24,6.5469,0.7138,-0.5088,0.0211,0.3297,1.5709,rough,14.0,1,8.760
3580,114.56,6.5468,0.7138,-0.5088,0.0211,0.3297,1.5709,rough,14.0,1,8.760
3590,114.88,6.5467,0.7138,-0.5088,0.0211,0.3297,1.5709,rough,14.0,1,8.760
3600,115.20,6.5467,0.7138,-0.5088,0.0211,0.3297,1.5709,rough,14.0,1,8.760
3610,115.52,6.5466,0.7138,-0.5088,0.0210,0.3297,1.5709,rough,14.0,1,8.760
3620,115.84,6.5465,0.7138,-0.5088,0.0210,0.3297,1.5709,rough,14.0,1,8.760
3630,116.16,6.5465,0.7138,-0.5088,0.0210,0.3297,1.5709,rough,14.0,1,8.760
3640,116.48,6.5464,0.7138,-0.5088,0.0210,0.3298,1.5709,rough,14.0,1,8.760
3650,116.80,6.5463,0.7138,-0.5088,0.0210,0.3298,1.5709,rough,14.0,1,8.760
3660,117.12,6.5463,0.7138,-0.5088,0.0210,0.3298,1.5709,rough,14.0,1,8.760
3670,117.44,6.5462,0.7138,-0.5088,0.0210,0.3298,1.5709,rough,14.0,1,8.760
3680,117.76,6.5462,0.7138,-0.5088,0.0210,0.3298,1.5709,rough,14.0,1,8.760
3690,118.08,6.5461,0.7138,-0.5088,0.0210,0.3298,1.5709,rough,14.0,1,8.760
3700,118.40,6.5460,0.7138,-0.5088,0.0210,0.3298,1.5709,rough,14.0,1,8.760
3710,118.72,6.5460,0.7138,-0.5088,0.0210,0.3298,1.5709,rough,14.0,1,8.760
3720,119.04,6.5459,0.7138,-0.5088,0.0210,0.3298,1.5709,rough,14.0,1,8.760
3730,119.36,6.5458,0.7138,-0.5088,0.0210,0.3298,1.5709,rough,14.0,1,8.760
3740,119.68,6.5458,0.7138,-0.5088,0.0209,0.3299,1.5709,rough,14.0,1,8.760
3750,120.00,6.5457,0.7138,-0.5088,0.0209,0.3299,1.5709,rough,14.0,1,8.760
3760,120.32,6.5457,0.7138,-0.5088,0.0209,0.3299,1.5709,rough,14.0,1,8.760
3770,120.64,6.5456,0.7138,-0.5088,0.0209,0.3299,1.5709,rough,14.0,1,8.760
3780,120.96,6.5455,0.7138,-0.5088,0.0209,0.3299,1.5709,rough,14.0,1,8.760
3790,121.28,6.5455,0.7138,-0.5088,0.0209,0.3299,1.5709,rough,14.0,1,8.760
3800,121.60,6.5454,0.7138,-0.5088,0.0209,0.3299,1.5709,rough,14.0,1,8.759
3810,121.92,6.5453,0.7138,-0.5088,0.0209,0.3299,1.5709,rough,14.0,1,8.759
3820,122.24,6.5453,0.7138,-0.5088,0.0209,0.3299,1.5709,rough,14.0,1,8.759
3830,122.56,6.5452,0.7138,-0.5088,0.0209,0.3299,1.5709,rough,14.0,1,8.759
3840,122.88,6.5452,0.7138,-0.5088,0.0209,0.3299,1.5709,rough,14.0,1,8.759
3850,123.20,6.5451,0.7138,-0.5088,0.0209,0.3300,1.5709,rough,14.0,1,8.759
3860,123.52,6.5450,0.7138,-0.5088,0.0209,0.3300,1.5709,rough,14.0,1,8.759
3870,123.84,6.5450,0.7138,-0.5088,0.0208,0.3300,1.5709,rough,14.0,1,8.759
3880,124.16,6.5449,0.7138,-0.5088,0.0208,0.3300,1.5709,rough,14.0,1,8.759
3890,124.48,6.5448,0.7138,-0.5088,0.0208,0.3300,1.5709,rough,14.0,1,8.759
3900,124.80,6.5448,0.7138,-0.5088,0.0208,0.3300,1.5709,rough,14.0,1,8.759
3910,125.12,6.5447,0.7138,-0.5088,0.0208,0.3300,1.5709,rough,14.0,1,8.759
3920,125.44,6.5447,0.7138,-0.5088,0.0208,0.3300,1.5709,rough,14.0,1,8.759
3930,125.76,6.5446,0.7138,-0.5088,0.0208,0.3300,1.5709,rough,14.0,1,8.759
3940,126.08,6.5445,0.7138,-0.5088,0.0208,0.3300,1.5709,rough,14.0,1,8.759
3950,126.40,6.5445,0.7138,-0.5088,0.0208,0.3301,1.5709,rough,14.0,1,8.759
3960,126.72,6.5444,0.7138,-0.5088,0.0208,0.3301,1.5709,rough,14.0,1,8.759
3970,127.04,6.5443,0.7138,-0.5088,0.0208,0.3301,1.5709,rough,14.0,1,8.759
3980,127.36,6.5443,0.7138,-0.5088,0.0208,0.3301,1.5709,rough,14.0,1,8.759
3990,127.68,6.5442,0.7138,-0.5088,0.0208,0.3301,1.5709,rough,14.0,1,8.759
4000,128.00,6.5442,0.7138,-0.5088,0.0207,0.3301,1.5709,rough,14.0,1,8.759
4010,128.32,6.5441,0.7138,-0.5088,0.0207,0.3301,1.5709,rough,14.0,1,8.759
4020,128.64,6.5440,0.7138,-0.5088,0.0207,0.3301,1.5709,rough,14.0,1,8.759
4030,128.96,6.5440,0.7138,-0.5088,0.0207,0.3301,1.5709,rough,14.0,1,8.759
4040,129.28,6.5439,0.7138,-0.5088,0.0207,0.3301,1.5709,rough,14.0,1,8.759
4050,129.60,6.5439,0.7138,-0.5088,0.0207,0.3301,1.5709,rough,14.0,1,8.758
4060,129.92,6.5438,0.7138,-0.5088,0.0207,0.3302,1.5709,rough,14.0,1,8.758
4070,130.24,6.5437,0.7138,-0.5088,0.0207,0.3302,1.5709,rough,14.0,1,8.758
4080,130.56,6.5437,0.7138,-0.5088,0.0207,0.3302,1.5709,rough,14.0,1,8.758
4090,130.88,6.5436,0.7138,-0.5088,0.0207,0.3302,1.5709,rough,14.0,1,8.758
4100,131.20,6.5435,0.7138,-0.5088,0.0207,0.3302,1.5709,rough,14.0,1,8.758
4110,131.52,6.5435,0.7138,-0.5088,0.0207,0.3302,1.5709,rough,14.0,1,8.758
4120,131.84,6.5434,0.7138,-0.5088,0.0207,0.3302,1.5709,rough,14.0,1,8.758
4130,132.16,6.5434,0.7138,-0.5088,0.0206,0.3302,1.5709,rough,14.0,1,8.758
4140,132.48,6.5433,0.7138,-0.5088,0.0206,0.3302,1.5709,rough,14.0,1,8.758
4150,132.80,6.5432,0.7138,-0.5088,0.0206,0.3302,1.5709,rough,14.0,1,8.758
4160,133.12,6.5432,0.7138,-0.5088,0.0206,0.3302,1.5709,rough,14.0,1,8.758
4170,133.44,6.5431,0.7138,-0.5088,0.0206,0.3303,1.5709,rough,14.0,1,8.758
4180,133.76,6.5431,0.7138,-0.5088,0.0206,0.3303,1.5709,rough,14.0,1,8.758
4190,134.08,6.5430,0.7138,-0.5088,0.0206,0.3303,1.5709,rough,14.0,1,8.758
4200,134.40,6.5429,0.7138,-0.5088,0.0206,0.3303,1.5709,rough,14.0,1,8.758
4210,134.72,6.5429,0.7138,-0.5088,0.0206,0.3303,1.5709,rough,14.0,1,8.758
4220,135.04,6.5428,0.7138,-0.5088,0.0206,0.3303,1.5709,rough,14.0,1,8.758
4230,135.36,6.5428,0.7138,-0.5088,0.0206,0.3303,1.5709,rough,14.0,1,8.758
4240,135.68,6.5427,0.7138,-0.5088,0.0206,0.3303,1.5709,rough,14.0,1,8.758
4250,136.00,6.5426,0.7138,-0.5088,0.0206,0.3303,1.5709,rough,14.0,1,8.758
4260,136.32,6.5426,0.7138,-0.5088,0.0205,0.3303,1.5709,rough,14.0,1,8.758
4270,136.64,6.5425,0.7138,-0.5088,0.0205,0.3303,1.5709,rough,14.0,1,8.758
4280,136.96,6.5424,0.7138,-0.5088,0.0205,0.3304,1.5709,rough,14.0,1,8.758
4290,137.28,6.5424,0.7138,-0.5088,0.0205,0.3304,1.5709,rough,14.0,1,8.758
4300,137.60,6.5423,0.7138,-0.5088,0.0205,0.3304,1.5709,rough,14.0,1,8.758
4310,137.92,6.5423,0.7139,-0.5088,0.0205,0.3304,1.5709,rough,14.0,1,8.757
4320,138.24,6.5422,0.7139,-0.5088,0.0205,0.3304,1.5709,rough,14.0,1,8.757
4330,138.56,6.5421,0.7139,-0.5088,0.0205,0.3304,1.5709,rough,14.0,1,8.757
4340,138.88,6.5421,0.7139,-0.5088,0.0205,0.3304,1.5709,rough,14.0,1,8.757
4350,139.20,6.5420,0.7139,-0.5088,0.0205,0.3304,1.5709,rough,14.0,1,8.757
4360,139.52,6.5420,0.7139,-0.5088,0.0205,0.3304,1.5709,rough,14.0,1,8.757
4370,139.84,6.5419,0.7139,-0.5088,0.0205,0.3304,1.5709,rough,14.0,1,8.757
4380,140.16,6.5418,0.7139,-0.5088,0.0205,0.3304,1.5709,rough,14.0,1,8.757
4390,140.48,6.5418,0.7139,-0.5088,0.0205,0.3305,1.5709,rough,14.0,1,8.757
4400,140.80,6.5417,0.7139,-0.5088,0.0204,0.3305,1.5709,rough,14.0,1,8.757
4410,141.12,6.5417,0.7139,-0.5088,0.0204,0.3305,1.5709,rough,14.0,1,8.757
4420,141.44,6.5416,0.7139,-0.5088,0.0204,0.3305,1.5709,rough,14.0,1,8.757
4430,141.76,6.5415,0.7139,-0.5088,0.0204,0.3305,1.5709,rough,14.0,1,8.757
4440,142.08,6.5415,0.7139,-0.5088,0.0204,0.3305,1.5709,rough,14.0,1,8.757
4450,142.40,6.5414,0.7139,-0.5088,0.0204,0.3305,1.5709,rough,14.0,1,8.757
4460,142.72,6.5414,0.7139,-0.5088,0.0204,0.3305,1.5709,rough,14.0,1,8.757
4470,143.04,6.5413,0.7139,-0.5088,0.0204,0.3305,1.5709,rough,14.0,1,8.757
4480,143.36,6.5412,0.7139,-0.5088,0.0204,0.3305,1.5709,rough,14.0,1,8.757
4490,143.68,6.5412,0.7139,-0.5088,0.0204,0.3306,1.5709,rough,14.0,1,8.757
4500,144.00,6.5411,0.7139,-0.5088,0.0204,0.3306,1.5709,rough,14.0,1,8.757
4510,144.32,6.5411,0.7139,-0.5088,0.0204,0.3306,1.5709,rough,14.0,1,8.757
4520,144.64,6.5410,0.7139,-0.5088,0.0204,0.3306,1.5709,rough,14.0,1,8.757
4530,144.96,6.5409,0.7139,-0.5088,0.0203,0.3306,1.5709,rough,14.0,1,8.757
4540,145.28,6.5409,0.7139,-0.5088,0.0203,0.3306,1.5709,rough,14.0,1,8.757
4550,145.60,6.5408,0.7139,-0.5088,0.0203,0.3306,1.5709,rough,14.0,1,8.757
4560,145.92,6.5408,0.7139,-0.5088,0.0203,0.3306,1.5709,rough,14.0,1,8.756
4570,146.24,6.5407,0.7139,-0.5088,0.0203,0.3306,1.5709,rough,14.0,1,8.756
4580,146.56,6.5406,0.7139,-0.5088,0.0203,0.3306,1.5709,rough,14.0,1,8.756
4590,146.88,6.5406,0.7139,-0.5088,0.0203,0.3306,1.5709,rough,14.0,1,8.756
4600,147.20,6.5405,0.7139,-0.5088,0.0203,0.3306,1.5709,rough,14.0,1,8.756
4610,147.52,6.5405,0.7139,-0.5088,0.0203,0.3307,1.5709,rough,14.0,1,8.756
4620,147.84,6.5404,0.7139,-0.5088,0.0203,0.3307,1.5709,rough,14.0,1,8.756
4630,148.16,6.5403,0.7139,-0.5088,0.0203,0.3307,1.5709,rough,14.0,1,8.756
4640,148.48,6.5403,0.7139,-0.5088,0.0203,0.3307,1.5709,rough,14.0,1,8.756
4650,148.80,6.5402,0.7139,-0.5088,0.0203,0.3307,1.5709,rough,14.0,1,8.756
4660,149.12,6.5402,0.7139,-0.5088,0.0203,0.3307,1.5709,rough,14.0,1,8.756
4670,149.44,6.5401,0.7139,-0.5088,0.0202,0.3307,1.5709,rough,14.0,1,8.756
4680,149.76,6.5400,0.7139,-0.5088,0.0202,0.3307,1.5709,rough,14.0,1,8.756
4690,150.08,6.5400,0.7139,-0.5088,0.0202,0.3307,1.5709,rough,14.0,1,8.756
4700,150.40,6.5399,0.7139,-0.5088,0.0202,0.3307,1.5709,rough,14.0,1,8.756
4710,150.72,6.5399,0.7139,-0.5088,0.0202,0.3307,1.5709,rough,14.0,1,8.756
4720,151.04,6.5398,0.7139,-0.5088,0.0202,0.3308,1.5709,rough,14.0,1,8.756
4730,151.36,6.5397,0.7139,-0.5088,0.0202,0.3308,1.5709,rough,14.0,1,8.756
4740,151.68,6.5397,0.7139,-0.5088,0.0202,0.3308,1.5709,rough,14.0,1,8.756
4750,152.00,6.5396,0.7139,-0.5088,0.0202,0.3308,1.5709,rough,14.0,1,8.756
4760,152.32,6.5396,0.7139,-0.5088,0.0202,0.3308,1.5709,rough,14.0,1,8.756
4770,152.64,6.5395,0.7139,-0.5088,0.0202,0.3308,1.5709,rough,14.0,1,8.756
4780,152.96,6.5395,0.7139,-0.5088,0.0202,0.3308,1.5709,rough,14.0,1,8.756
4790,153.28,6.5394,0.7139,-0.5088,0.0202,0.3308,1.5709,rough,14.0,1,8.756
4800,153.60,6.5393,0.7139,-0.5088,0.0201,0.3308,1.5709,rough,14.0,1,8.756
4810,153.92,6.5393,0.7139,-0.5088,0.0201,0.3308,1.5709,rough,14.0,1,8.756
4820,154.24,6.5392,0.7139,-0.5088,0.0201,0.3308,1.5709,rough,14.0,1,8.756
4830,154.56,6.5392,0.7139,-0.5088,0.0201,0.3309,1.5709,rough,14.0,1,8.755
4840,154.88,6.5391,0.7139,-0.5088,0.0201,0.3309,1.5709,rough,14.0,1,8.755
4850,155.20,6.5390,0.7139,-0.5088,0.0201,0.3309,1.5709,rough,14.0,1,8.755
4860,155.52,6.5390,0.7139,-0.5088,0.0201,0.3309,1.5709,rough,14.0,1,8.755
4870,155.84,6.5389,0.7139,-0.5088,0.0201,0.3309,1.5709,rough,14.0,1,8.755
4880,156.16,6.5389,0.7139,-0.5088,0.0201,0.3309,1.5709,rough,14.0,1,8.755
4890,156.48,6.5388,0.7139,-0.5088,0.0201,0.3309,1.5709,rough,14.0,1,8.755
4900,156.80,6.5387,0.7139,-0.5088,0.0201,0.3309,1.5709,rough,14.0,1,8.755
4910,157.12,6.5387,0.7139,-0.5088,0.0201,0.3309,1.5709,rough,14.0,1,8.755
4920,157.44,6.5386,0.7139,-0.5088,0.0201,0.3309,1.5709,rough,14.0,1,8.755
4930,157.76,6.5386,0.7139,-0.5088,0.0201,0.3309,1.5709,rough,14.0,1,8.755
4940,158.08,6.5385,0.7139,-0.5088,0.0200,0.3310,1.5709,rough,14.0,1,8.755
4950,158.40,6.5385,0.7139,-0.5088,0.0200,0.3310,1.5709,rough,14.0,1,8.755
4960,158.72,6.5384,0.7139,-0.5088,0.0200,0.3310,1.5709,rough,14.0,1,8.755
4970,159.04,6.5383,0.7139,-0.5088,0.0200,0.3310,1.5709,rough,14.0,1,8.755
4980,159.36,6.5383,0.7139,-0.5088,0.0200,0.3310,1.5709,rough,14.0,1,8.755
4990,159.68,6.5382,0.7139,-0.5088,0.0200,0.3310,1.5709,rough,14.0,1,8.755
5000,160.00,6.5382,0.7139,-0.5088,0.0200,0.3310,1.5709,rough,14.0,1,8.755
5010,160.32,6.5381,0.7139,-0.5088,0.0200,0.3310,1.5709,rough,14.0,1,8.755
5020,160.64,6.5380,0.7139,-0.5088,0.0200,0.3310,1.5709,rough,14.0,1,8.755
5030,160.96,6.5380,0.7139,-0.5088,0.0200,0.3310,1.5709,rough,14.0,1,8.755
5040,161.28,6.5379,0.7139,-0.5088,0.0200,0.3310,1.5709,rough,14.0,1,8.755
5050,161.60,6.5379,0.7139,-0.5088,0.0200,0.3311,1.5709,rough,14.0,1,8.755
5060,161.92,6.5378,0.7139,-0.5088,0.0200,0.3311,1.5709,rough,14.0,1,8.755
5070,162.24,6.5378,0.7139,-0.5088,0.0199,0.3311,1.5709,rough,14.0,1,8.755
5080,162.56,6.5377,0.7139,-0.5088,0.0199,0.3311,1.5709,rough,14.0,1,8.755
5090,162.88,6.5376,0.7139,-0.5088,0.0199,0.3311,1.5709,rough,14.0,1,8.754
5100,163.20,6.5376,0.7139,-0.5088,0.0199,0.3311,1.5709,rough,14.0,1,8.754
5110,163.52,6.5375,0.7139,-0.5088,0.0199,0.3311,1.5709,rough,14.0,1,8.754
5120,163.84,6.5375,0.7139,-0.5088,0.0199,0.3311,1.5709,rough,14.0,1,8.754
5130,164.16,6.5374,0.7139,-0.5088,0.0199,0.3312,1.5709,rough,14.0,1,8.754
5140,164.48,6.5374,0.7139,-0.5088,0.0198,0.3312,1.5709,rough,14.0,1,8.754
5150,164.80,6.5373,0.7139,-0.5088,0.0198,0.3312,1.5709,rough,14.0,1,8.754
5160,165.12,6.5372,0.7139,-0.5088,0.0198,0.3312,1.5709,rough,14.0,1,8.754
5170,165.44,6.5372,0.7139,-0.5088,0.0199,0.3311,1.5709,rough,14.0,1,8.754
5180,165.76,6.5371,0.7139,-0.5088,0.0199,0.3311,1.5709,rough,14.0,1,8.754
5190,166.08,6.5371,0.7139,-0.5088,0.0199,0.3312,1.5709,rough,14.0,1,8.754
5200,166.40,6.5370,0.7139,-0.5088,0.0198,0.3312,1.5709,rough,14.0,1,8.754
5210,166.72,6.5370,0.7139,-0.5088,0.0198,0.3312,1.5709,rough,14.0,1,8.754
5220,167.04,6.5369,0.7138,-0.5088,0.0197,0.3313,1.5709,rough,14.0,1,8.754
5230,167.36,6.5369,0.7138,-0.5088,0.0197,0.3313,1.5709,rough,14.0,1,8.754
5240,167.68,6.5368,0.7139,-0.5088,0.0198,0.3312,1.5709,rough,14.0,1,8.754
5250,168.00,6.5368,0.7139,-0.5088,0.0198,0.3312,1.5709,rough,14.0,1,8.754
5260,168.32,6.5367,0.7139,-0.5088,0.0198,0.3312,1.5709,rough,14.0,1,8.754
5270,168.64,6.5366,0.7139,-0.5088,0.0198,0.3312,1.5709,rough,14.0,1,8.754
5280,168.96,6.5366,0.7139,-0.5088,0.0198,0.3313,1.5709,rough,14.0,1,8.754
5290,169.28,6.5365,0.7139,-0.5088,0.0197,0.3313,1.5709,rough,14.0,1,8.754
5300,169.60,6.5365,0.7138,-0.5088,0.0197,0.3313,1.5709,rough,14.0,1,8.754
5310,169.92,6.5364,0.7138,-0.5088,0.0196,0.3314,1.5709,rough,14.0,1,8.754
5320,170.24,6.5364,0.7138,-0.5088,0.0196,0.3314,1.5709,rough,14.0,1,8.754
5330,170.56,6.5363,0.7138,-0.5088,0.0196,0.3314,1.5709,rough,14.0,1,8.754
5340,170.88,6.5363,0.7138,-0.5088,0.0196,0.3314,1.5709,rough,14.0,1,8.754
5350,171.20,6.5362,0.7138,-0.5088,0.0196,0.3314,1.5709,rough,14.0,1,8.754
5360,171.52,6.5362,0.7138,-0.5088,0.0196,0.3314,1.5709,rough,14.0,1,8.754
5370,171.84,6.5361,0.7137,-0.5088,0.0196,0.3314,1.5709,rough,14.0,1,8.754
5380,172.16,6.5361,0.7137,-0.5088,0.0196,0.3314,1.5709,rough,14.0,1,8.754
5390,172.48,6.5360,0.7137,-0.5088,0.0196,0.3314,1.5709,rough,14.0,1,8.754
5400,172.80,6.5360,0.7137,-0.5088,0.0196,0.3314,1.5709,rough,14.0,1,8.754
5410,173.12,6.5359,0.7137,-0.5088,0.0196,0.3314,1.5709,rough,14.0,1,8.754
5420,173.44,6.5359,0.7137,-0.5088,0.0196,0.3314,1.5709,rough,14.0,1,8.754
5430,173.76,6.5358,0.7137,-0.5088,0.0195,0.3314,1.5709,rough,14.0,1,8.754
5440,174.08,6.5358,0.7137,-0.5088,0.0195,0.3314,1.5709,rough,14.0,1,8.754
5450,174.40,6.5357,0.7137,-0.5087,0.0195,0.3314,1.5709,rough,14.0,1,8.753
5460,174.72,6.5357,0.7137,-0.5087,0.0195,0.3314,1.5709,rough,14.0,1,8.753
5470,175.04,6.5356,0.7137,-0.5087,0.0195,0.3314,1.5709,rough,14.0,1,8.753
5480,175.36,6.5356,0.7137,-0.5087,0.0195,0.3314,1.5709,rough,14.0,1,8.753
5490,175.68,6.5355,0.7137,-0.5087,0.0195,0.3314,1.5709,rough,14.0,1,8.753
5500,176.00,6.5355,0.7136,-0.5087,0.0195,0.3314,1.5709,rough,14.0,1,8.753
5510,176.32,6.5355,0.7136,-0.5087,0.0195,0.3314,1.5709,rough,14.0,1,8.753
5520,176.64,6.5354,0.7136,-0.5087,0.0195,0.3314,1.5709,rough,14.0,1,8.753
5530,176.96,6.5354,0.7136,-0.5087,0.0195,0.3315,1.5709,rough,14.0,1,8.753
5540,177.28,6.5353,0.7136,-0.5087,0.0195,0.3315,1.5709,rough,14.0,1,8.753
5550,177.60,6.5353,0.7136,-0.5087,0.0195,0.3315,1.5709,rough,14.0,1,8.753
5560,177.92,6.5352,0.7136,-0.5087,0.0195,0.3314,1.5709,rough,14.0,1,8.753
5570,178.24,6.5352,0.7136,-0.5087,0.0195,0.3314,1.5709,rough,14.0,1,8.753
5580,178.56,6.5351,0.7137,-0.5087,0.0196,0.3314,1.5709,rough,14.0,1,8.753
5590,178.88,6.5351,0.7137,-0.5087,0.0196,0.3314,1.5709,rough,14.0,1,8.753
5600,179.20,6.5350,0.7137,-0.5087,0.0195,0.3314,1.5709,rough,14.0,1,8.753
5610,179.52,6.5350,0.7137,-0.5087,0.0195,0.3314,1.5709,rough,14.0,1,8.753
5620,179.84,6.5349,0.7136,-0.5087,0.0195,0.3314,1.5709,rough,14.0,1,8.753
5630,180.16,6.5349,0.7136,-0.5087,0.0195,0.3314,1.5709,rough,14.0,1,8.753
5640,180.48,6.5348,0.7136,-0.5087,0.0195,0.3314,1.5709,rough,14.0,1,8.753
5650,180.80,6.5348,0.7136,-0.5087,0.0194,0.3315,1.5709,rough,14.0,1,8.753
5660,181.12,6.5347,0.7136,-0.5087,0.0194,0.3315,1.5708,rough,14.0,1,8.753
5670,181.44,6.5347,0.7136,-0.5087,0.0194,0.3315,1.5708,rough,14.0,1,8.753
5680,181.76,6.5347,0.7136,-0.5087,0.0194,0.3315,1.5708,rough,14.0,1,8.753
5690,182.08,6.5346,0.7135,-0.5087,0.0194,0.3315,1.5708,rough,14.0,1,8.753
5700,182.40,6.5346,0.7135,-0.5087,0.0194,0.3315,1.5708,rough,14.0,1,8.753
5710,182.72,6.5345,0.7135,-0.5087,0.0194,0.3315,1.5708,rough,14.0,1,8.753
5720,183.04,6.5345,0.7135,-0.5087,0.0193,0.3315,1.5708,rough,14.0,1,8.753
5730,183.36,6.5344,0.7135,-0.5087,0.0193,0.3315,1.5708,rough,14.0,1,8.753
5740,183.68,6.5344,0.7135,-0.5087,0.0193,0.3315,1.5708,rough,14.0,1,8.753
5750,184.00,6.5344,0.7135,-0.5087,0.0193,0.3315,1.5708,rough,14.0,1,8.753
5760,184.32,6.5343,0.7135,-0.5087,0.0193,0.3315,1.5708,rough,14.0,1,8.753
5770,184.64,6.5343,0.7135,-0.5086,0.0193,0.3315,1.5708,rough,14.0,1,8.753
5780,184.96,6.5342,0.7134,-0.5086,0.0193,0.3315,1.5708,rough,14.0,1,8.753
5790,185.28,6.5342,0.7134,-0.5086,0.0193,0.3315,1.5708,rough,14.0,1,8.753
5800,185.60,6.5342,0.7134,-0.5086,0.0193,0.3315,1.5708,rough,14.0,1,8.753
5810,185.92,6.5341,0.7134,-0.5086,0.0193,0.3315,1.5708,rough,14.0,1,8.753
5820,186.24,6.5341,0.7134,-0.5086,0.0193,0.3315,1.5708,rough,14.0,1,8.753
5830,186.56,6.5341,0.7134,-0.5086,0.0193,0.3315,1.5708,rough,14.0,1,8.753
5840,186.88,6.5340,0.7134,-0.5086,0.0193,0.3315,1.5708,rough,14.0,1,8.753
5850,187.20,6.5340,0.7134,-0.5086,0.0193,0.3315,1.5708,rough,14.0,1,8.753
5860,187.52,6.5339,0.7134,-0.5086,0.0193,0.3315,1.5708,rough,14.0,1,8.753
5870,187.84,6.5339,0.7134,-0.5086,0.0193,0.3315,1.5708,rough,14.0,1,8.753
5880,188.16,6.5339,0.7134,-0.5086,0.0193,0.3315,1.5708,rough,14.0,1,8.753
5890,188.48,6.5338,0.7134,-0.5086,0.0192,0.3315,1.5708,rough,14.0,1,8.753
5900,188.80,6.5338,0.7134,-0.5086,0.0192,0.3315,1.5708,rough,14.0,1,8.753
5910,189.12,6.5337,0.7133,-0.5086,0.0192,0.3315,1.5708,rough,14.0,1,8.752
5920,189.44,6.5337,0.7133,-0.5086,0.0192,0.3315,1.5708,rough,14.0,1,8.752
5930,189.76,6.5337,0.7133,-0.5086,0.0192,0.3315,1.5708,rough,14.0,1,8.752
5940,190.08,6.5336,0.7133,-0.5086,0.0192,0.3315,1.5708,rough,14.0,1,8.752
5950,190.40,6.5336,0.7133,-0.5086,0.0192,0.3315,1.5708,rough,14.0,1,8.752
5960,190.72,6.5336,0.7133,-0.5086,0.0192,0.3315,1.5708,rough,14.0,1,8.752
5970,191.04,6.5335,0.7133,-0.5086,0.0192,0.3315,1.5708,rough,14.0,1,8.752
5980,191.36,6.5335,0.7134,-0.5086,0.0193,0.3315,1.5708,rough,14.0,1,8.752
5990,191.68,6.5335,0.7134,-0.5086,0.0193,0.3315,1.5708,rough,14.0,1,8.752
6000,192.00,6.5334,0.7134,-0.5086,0.0193,0.3315,1.5708,rough,14.0,1,8.752
6010,192.32,6.5334,0.7134,-0.5086,0.0193,0.3315,1.5708,rough,14.0,1,8.752
6020,192.64,6.5333,0.7134,-0.5086,0.0193,0.3315,1.5708,rough,14.0,1,8.752
6030,192.96,6.5333,0.7133,-0.5086,0.0193,0.3315,1.5708,rough,14.0,1,8.752
6040,193.28,6.5332,0.7133,-0.5086,0.0193,0.3315,1.5708,rough,14.0,1,8.752
6050,193.60,6.5332,0.7133,-0.5086,0.0192,0.3315,1.5708,rough,14.0,1,8.752
6060,193.92,6.5332,0.7133,-0.5086,0.0192,0.3315,1.5708,rough,14.0,1,8.752
6070,194.24,6.5331,0.7133,-0.5086,0.0192,0.3315,1.5708,rough,14.0,1,8.752
6080,194.56,6.5331,0.7133,-0.5086,0.0192,0.3315,1.5708,rough,14.0,1,8.752
6090,194.88,6.5330,0.7133,-0.5086,0.0192,0.3315,1.5708,rough,14.0,1,8.752
6100,195.20,6.5330,0.7133,-0.5086,0.0192,0.3315,1.5708,rough,14.0,1,8.752
6110,195.52,6.5330,0.7133,-0.5086,0.0192,0.3316,1.5708,rough,14.0,1,8.752
6120,195.84,6.5329,0.7133,-0.5086,0.0192,0.3315,1.5708,rough,14.0,1,8.752
6130,196.16,6.5329,0.7133,-0.5086,0.0192,0.3315,1.5708,rough,14.0,1,8.752
6140,196.48,6.5329,0.7133,-0.5086,0.0192,0.3315,1.5708,rough,14.0,1,8.752
6150,196.80,6.5328,0.7133,-0.5086,0.0192,0.3315,1.5708,rough,14.0,1,8.752
6160,197.12,6.5328,0.7133,-0.5085,0.0192,0.3315,1.5708,rough,14.0,1,8.752
6170,197.44,6.5327,0.7133,-0.5085,0.0192,0.3315,1.5708,rough,14.0,1,8.752
6180,197.76,6.5327,0.7133,-0.5085,0.0192,0.3316,1.5708,rough,14.0,1,8.752
6190,198.08,6.5327,0.7132,-0.5085,0.0192,0.3316,1.5708,rough,14.0,1,8.752
6200,198.40,6.5326,0.7132,-0.5085,0.0191,0.3316,1.5708,rough,14.0,1,8.752
6210,198.72,6.5326,0.7132,-0.5085,0.0191,0.3316,1.5708,rough,14.0,1,8.752
6220,199.04,6.5325,0.7132,-0.5085,0.0191,0.3316,1.5708,rough,14.0,1,8.752
6230,199.36,6.5325,0.7132,-0.5085,0.0191,0.3316,1.5708,rough,14.0,1,8.752
6240,199.68,6.5325,0.7132,-0.5085,0.0191,0.3316,1.5708,rough,14.0,1,8.752
6250,200.00,6.5324,0.7132,-0.5085,0.0191,0.3316,1.5708,rough,14.0,1,8.752
6260,200.32,6.5324,0.7132,-0.5085,0.0191,0.3316,1.5708,rough,14.0,1,8.752
6270,200.64,6.5324,0.7132,-0.5085,0.0191,0.3316,1.5708,rough,14.0,1,8.752
6280,200.96,6.5323,0.7132,-0.5085,0.0191,0.3316,1.5708,rough,14.0,1,8.752
6290,201.28,6.5323,0.7132,-0.5085,0.0191,0.3316,1.5708,rough,14.0,1,8.752
6300,201.60,6.5323,0.7131,-0.5085,0.0191,0.3316,1.5708,rough,14.0,1,8.752
6310,201.92,6.5322,0.7131,-0.5085,0.0190,0.3316,1.5708,rough,14.0,1,8.752
6320,202.24,6.5322,0.7131,-0.5085,0.0190,0.3316,1.5708,rough,14.0,1,8.752
6330,202.56,6.5322,0.7131,-0.5085,0.0190,0.3316,1.5708,rough,14.0,1,8.752
6340,202.88,6.5321,0.7131,-0.5085,0.0190,0.3316,1.5708,rough,14.0,1,8.752
6350,203.20,6.5321,0.7131,-0.5085,0.0190,0.3316,1.5708,rough,14.0,1,8.752
6360,203.52,6.5321,0.7131,-0.5085,0.0190,0.3316,1.5708,rough,14.0,1,8.752
6370,203.84,6.5320,0.7131,-0.5085,0.0190,0.3316,1.5708,rough,14.0,1,8.752
6380,204.16,6.5320,0.7131,-0.5085,0.0190,0.3316,1.5708,rough,14.0,1,8.752
6390,204.48,6.5320,0.7131,-0.5085,0.0190,0.3316,1.5708,rough,14.0,1,8.752
6400,204.80,6.5319,0.7131,-0.5085,0.0190,0.3316,1.5708,rough,14.0,1,8.752
6410,205.12,6.5319,0.7130,-0.5085,0.0190,0.3316,1.5708,rough,14.0,1,8.752
6420,205.44,6.5319,0.7130,-0.5085,0.0190,0.3316,1.5708,rough,14.0,1,8.752
6430,205.76,6.5318,0.7130,-0.5085,0.0190,0.3316,1.5708,rough,14.0,1,8.752
6440,206.08,6.5318,0.7130,-0.5085,0.0190,0.3316,1.5708,rough,14.0,1,8.752
6450,206.40,6.5318,0.7130,-0.5084,0.0190,0.3316,1.5708,rough,14.0,1,8.752
6460,206.72,6.5318,0.7130,-0.5084,0.0190,0.3316,1.5708,rough,14.0,1,8.752
6470,207.04,6.5317,0.7130,-0.5084,0.0190,0.3316,1.5708,rough,14.0,1,8.751
6480,207.36,6.5317,0.7130,-0.5084,0.0189,0.3316,1.5708,rough,14.0,1,8.751
6490,207.68,6.5317,0.7130,-0.5084,0.0189,0.3316,1.5708,rough,14.0,1,8.751
6500,208.00,6.5317,0.7130,-0.5084,0.0189,0.3316,1.5708,rough,14.0,1,8.751
6510,208.32,6.5316,0.7130,-0.5084,0.0189,0.3316,1.5708,rough,14.0,1,8.751
6520,208.64,6.5316,0.7130,-0.5084,0.0189,0.3316,1.5708,rough,14.0,1,8.751
6530,208.96,6.5316,0.7130,-0.5084,0.0189,0.3316,1.5708,rough,14.0,1,8.751
6540,209.28,6.5315,0.7130,-0.5084,0.0189,0.3316,1.5708,rough,14.0,1,8.751
6550,209.60,6.5315,0.7130,-0.5084,0.0190,0.3316,1.5708,rough,14.0,1,8.751
6560,209.92,6.5315,0.7130,-0.5084,0.0190,0.3315,1.5708,rough,14.0,1,8.751
6570,210.24,6.5315,0.7130,-0.5084,0.0190,0.3315,1.5708,rough,14.0,1,8.751
6580,210.56,6.5314,0.7130,-0.5084,0.0190,0.3315,1.5708,rough,14.0,1,8.751
6590,210.88,6.5314,0.7130,-0.5084,0.0190,0.3316,1.5708,rough,14.0,1,8.751
6600,211.20,6.5314,0.7130,-0.5084,0.0190,0.3316,1.5708,rough,14.0,1,8.751
6610,211.52,6.5313,0.7130,-0.5084,0.0190,0.3316,1.5708,rough,14.0,1,8.751
6620,211.84,6.5313,0.7130,-0.5084,0.0190,0.3316,1.5708,rough,14.0,1,8.751
6630,212.16,6.5313,0.7130,-0.5084,0.0190,0.3316,1.5708,rough,14.0,1,8.751
6640,212.48,6.5312,0.7130,-0.5084,0.0190,0.3316,1.5708,rough,14.0,1,8.751
6650,212.80,6.5312,0.7130,-0.5084,0.0190,0.3316,1.5708,rough,14.0,1,8.751
6660,213.12,6.5312,0.7129,-0.5084,0.0190,0.3316,1.5708,rough,14.0,1,8.751
6670,213.44,6.5311,0.7129,-0.5084,0.0189,0.3316,1.5708,rough,14.0,1,8.751
6680,213.76,6.5311,0.7129,-0.5084,0.0189,0.3316,1.5708,rough,14.0,1,8.751
6690,214.08,6.5311,0.7129,-0.5084,0.0189,0.3316,1.5708,rough,14.0,1,8.751
6700,214.40,6.5310,0.7129,-0.5084,0.0189,0.3316,1.5708,rough,14.0,1,8.751
6710,214.72,6.5310,0.7129,-0.5084,0.0189,0.3316,1.5708,rough,14.0,1,8.751
6720,215.04,6.5310,0.7129,-0.5084,0.0189,0.3316,1.5708,rough,14.0,1,8.751
6730,215.36,6.5309,0.7129,-0.5084,0.0189,0.3316,1.5708,rough,14.0,1,8.751
6740,215.68,6.5309,0.7129,-0.5084,0.0189,0.3316,1.5708,rough,14.0,1,8.751
6750,216.00,6.5309,0.7129,-0.5084,0.0189,0.3316,1.5708,rough,14.0,1,8.751
6760,216.32,6.5309,0.7129,-0.5084,0.0189,0.3316,1.5708,rough,14.0,1,8.751
6770,216.64,6.5308,0.7129,-0.5084,0.0189,0.3316,1.5708,rough,14.0,1,8.751
6780,216.96,6.5308,0.7129,-0.5084,0.0189,0.3316,1.5708,rough,14.0,1,8.751
6790,217.28,6.5308,0.7129,-0.5084,0.0189,0.3316,1.5708,rough,14.0,1,8.751
6800,217.60,6.5307,0.7128,-0.5084,0.0189,0.3316,1.5708,rough,14.0,1,8.751
6810,217.92,6.5307,0.7128,-0.5084,0.0189,0.3316,1.5707,rough,14.0,1,8.751
6820,218.24,6.5307,0.7128,-0.5084,0.0189,0.3316,1.5707,rough,14.0,1,8.751
6830,218.56,6.5307,0.7128,-0.5084,0.0188,0.3316,1.5707,rough,14.0,1,8.751
6840,218.88,6.5306,0.7128,-0.5084,0.0188,0.3316,1.5707,rough,14.0,1,8.751
6850,219.20,6.5306,0.7128,-0.5084,0.0188,0.3316,1.5707,rough,14.0,1,8.751
6860,219.52,6.5306,0.7128,-0.5083,0.0188,0.3316,1.5707,rough,14.0,1,8.751
6870,219.84,6.5306,0.7128,-0.5083,0.0188,0.3316,1.5707,rough,14.0,1,8.751
6880,220.16,6.5305,0.7128,-0.5083,0.0188,0.3316,1.5707,rough,14.0,1,8.751
6890,220.48,6.5305,0.7128,-0.5083,0.0188,0.3316,1.5707,rough,14.0,1,8.751
6900,220.80,6.5305,0.7128,-0.5083,0.0188,0.3316,1.5707,rough,14.0,1,8.751
6910,221.12,6.5305,0.7128,-0.5083,0.0188,0.3316,1.5707,rough,14.0,1,8.751
6920,221.44,6.5304,0.7128,-0.5083,0.0188,0.3316,1.5707,rough,14.0,1,8.751
6930,221.76,6.5304,0.7128,-0.5083,0.0188,0.3316,1.5707,rough,14.0,1,8.751
6940,222.08,6.5304,0.7128,-0.5083,0.0188,0.3316,1.5707,rough,14.0,1,8.751
6950,222.40,6.5304,0.7128,-0.5083,0.0188,0.3316,1.5707,rough,14.0,1,8.751
6960,222.72,6.5304,0.7127,-0.5083,0.0188,0.3316,1.5707,rough,14.0,1,8.751
6970,223.04,6.5303,0.7127,-0.5083,0.0188,0.3316,1.5707,rough,14.0,1,8.751
6980,223.36,6.5303,0.7127,-0.5083,0.0188,0.3316,1.5707,rough,14.0,1,8.751
6990,223.68,6.5303,0.7127,-0.5083,0.0188,0.3316,1.5707,rough,14.0,1,8.751
7000,224.00,6.5303,0.7127,-0.5083,0.0188,0.3316,1.5707,rough,14.0,1,8.751
7010,224.32,6.5302,0.7127,-0.5083,0.0188,0.3316,1.5707,rough,14.0,1,8.751
7020,224.64,6.5302,0.7127,-0.5083,0.0188,0.3316,1.5707,rough,14.0,1,8.751
7030,224.96,6.5302,0.7127,-0.5083,0.0188,0.3316,1.5707,rough,14.0,1,8.751
7040,225.28,6.5302,0.7127,-0.5083,0.0188,0.3316,1.5707,rough,14.0,1,8.751
7050,225.60,6.5302,0.7127,-0.5083,0.0188,0.3316,1.5707,rough,14.0,1,8.751
7060,225.92,6.5301,0.7127,-0.5083,0.0188,0.3316,1.5707,rough,14.0,1,8.751
7070,226.24,6.5301,0.7127,-0.5083,0.0188,0.3316,1.5707,rough,14.0,1,8.751
7080,226.56,6.5301,0.7127,-0.5083,0.0188,0.3316,1.5708,rough,14.0,1,8.751
7090,226.88,6.5301,0.7127,-0.5083,0.0188,0.3316,1.5708,rough,14.0,1,8.751
7100,227.20,6.5300,0.7127,-0.5083,0.0188,0.3316,1.5708,rough,14.0,1,8.751
7110,227.52,6.5300,0.7127,-0.5083,0.0188,0.3316,1.5707,rough,14.0,1,8.751
7120,227.84,6.5300,0.7127,-0.5083,0.0188,0.3316,1.5707,rough,14.0,1,8.751
7130,228.16,6.5299,0.7127,-0.5083,0.0188,0.3316,1.5707,rough,14.0,1,8.751
7140,228.48,6.5299,0.7127,-0.5083,0.0188,0.3316,1.5707,rough,14.0,1,8.751
7150,228.80,6.5299,0.7127,-0.5083,0.0188,0.3316,1.5707,rough,14.0,1,8.751
7160,229.12,6.5299,0.7127,-0.5083,0.0188,0.3316,1.5707,rough,14.0,1,8.751
7170,229.44,6.5298,0.7127,-0.5083,0.0188,0.3316,1.5707,rough,14.0,1,8.751
7180,229.76,6.5298,0.7127,-0.5083,0.0188,0.3316,1.5707,rough,14.0,1,8.751
7190,230.08,6.5298,0.7127,-0.5083,0.0188,0.3316,1.5707,rough,14.0,1,8.751
7200,230.40,6.5298,0.7127,-0.5083,0.0188,0.3316,1.5707,rough,14.0,1,8.751
7210,230.72,6.5297,0.7127,-0.5083,0.0188,0.3316,1.5707,rough,14.0,1,8.750
7220,231.04,6.5297,0.7127,-0.5083,0.0188,0.3316,1.5707,rough,14.0,1,8.750
7230,231.36,6.5297,0.7127,-0.5083,0.0188,0.3316,1.5707,rough,14.0,1,8.750
7240,231.68,6.5297,0.7127,-0.5083,0.0187,0.3316,1.5707,rough,14.0,1,8.750
7250,232.00,6.5296,0.7126,-0.5083,0.0187,0.3316,1.5707,rough,14.0,1,8.750
7260,232.32,6.5296,0.7126,-0.5083,0.0187,0.3316,1.5707,rough,14.0,1,8.750
7270,232.64,6.5296,0.7126,-0.5083,0.0187,0.3316,1.5707,rough,14.0,1,8.750
7280,232.96,6.5296,0.7127,-0.5083,0.0188,0.3316,1.5707,rough,14.0,1,8.750
7290,233.28,6.5295,0.7126,-0.5083,0.0188,0.3316,1.5707,rough,14.0,1,8.750
7300,233.60,6.5295,0.7126,-0.5083,0.0188,0.3316,1.5707,rough,14.0,1,8.750
7310,233.92,6.5295,0.7126,-0.5083,0.0187,0.3316,1.5707,rough,14.0,1,8.750
7320,234.24,6.5295,0.7126,-0.5083,0.0187,0.3316,1.5707,rough,14.0,1,8.750
7330,234.56,6.5294,0.7126,-0.5083,0.0187,0.3316,1.5707,rough,14.0,1,8.750
7340,234.88,6.5294,0.7126,-0.5083,0.0187,0.3316,1.5707,rough,14.0,1,8.750
7350,235.20,6.5294,0.7126,-0.5083,0.0187,0.3316,1.5707,rough,14.0,1,8.750
7360,235.52,6.5294,0.7126,-0.5082,0.0187,0.3316,1.5707,rough,14.0,1,8.750
7370,235.84,6.5293,0.7126,-0.5082,0.0187,0.3316,1.5707,rough,14.0,1,8.750
7380,236.16,6.5293,0.7126,-0.5082,0.0187,0.3316,1.5707,rough,14.0,1,8.750
7390,236.48,6.5293,0.7126,-0.5082,0.0187,0.3316,1.5707,rough,14.0,1,8.750
7400,236.80,6.5293,0.7126,-0.5082,0.0187,0.3316,1.5707,rough,14.0,1,8.750
7410,237.12,6.5292,0.7126,-0.5082,0.0187,0.3316,1.5707,rough,14.0,1,8.750
7420,237.44,6.5292,0.7126,-0.5082,0.0187,0.3317,1.5707,rough,14.0,1,8.750
7430,237.76,6.5292,0.7126,-0.5082,0.0187,0.3317,1.5707,rough,14.0,1,8.750
7440,238.08,6.5292,0.7126,-0.5082,0.0187,0.3317,1.5707,rough,14.0,1,8.750
7450,238.40,6.5291,0.7126,-0.5082,0.0187,0.3317,1.5707,rough,14.0,1,8.750
7460,238.72,6.5291,0.7126,-0.5082,0.0187,0.3317,1.5707,rough,14.0,1,8.750
7470,239.04,6.5291,0.7126,-0.5082,0.0187,0.3317,1.5707,rough,14.0,1,8.750
7480,239.36,6.5291,0.7125,-0.5082,0.0187,0.3317,1.5707,rough,14.0,1,8.750
7490,239.68,6.5291,0.7125,-0.5082,0.0187,0.3317,1.5707,rough,14.0,1,8.750
7500,240.00,6.5290,0.7125,-0.5082,0.0187,0.3317,1.5707,rough,14.0,1,8.750
7510,240.32,6.5290,0.7125,-0.5082,0.0186,0.3317,1.5707,rough,14.0,1,8.750
7520,240.64,6.5290,0.7125,-0.5082,0.0186,0.3317,1.5707,rough,14.0,1,8.750
7530,240.96,6.5290,0.7125,-0.5082,0.0186,0.3317,1.5707,rough,14.0,1,8.750
7540,241.28,6.5289,0.7125,-0.5082,0.0186,0.3317,1.5707,rough,14.0,1,8.750
7550,241.60,6.5289,0.7125,-0.5082,0.0186,0.3317,1.5707,rough,14.0,1,8.750
7560,241.92,6.5289,0.7125,-0.5082,0.0186,0.3317,1.5707,rough,14.0,1,8.750
7570,242.24,6.5289,0.7125,-0.5082,0.0186,0.3317,1.5707,rough,14.0,1,8.750
7580,242.56,6.5289,0.7125,-0.5082,0.0186,0.3317,1.5707,rough,14.0,1,8.750
7590,242.88,6.5288,0.7125,-0.5082,0.0186,0.3317,1.5707,rough,14.0,1,8.750
7600,243.20,6.5288,0.7125,-0.5082,0.0186,0.3317,1.5707,rough,14.0,1,8.750
7610,243.52,6.5288,0.7125,-0.5082,0.0186,0.3317,1.5707,rough,14.0,1,8.750
7620,243.84,6.5288,0.7125,-0.5082,0.0186,0.3317,1.5707,rough,14.0,1,8.750
7630,244.16,6.5288,0.7125,-0.5082,0.0186,0.3317,1.5707,rough,14.0,1,8.750
7640,244.48,6.5288,0.7125,-0.5082,0.0186,0.3317,1.5707,rough,14.0,1,8.750
7650,244.80,6.5287,0.7125,-0.5082,0.0186,0.3317,1.5707,rough,14.0,1,8.750
7660,245.12,6.5287,0.7125,-0.5082,0.0186,0.3317,1.5707,rough,14.0,1,8.750
7670,245.44,6.5287,0.7125,-0.5082,0.0186,0.3317,1.5707,rough,14.0,1,8.750
7680,245.76,6.5287,0.7125,-0.5082,0.0186,0.3317,1.5707,rough,14.0,1,8.750
7690,246.08,6.5287,0.7124,-0.5082,0.0186,0.3317,1.5707,rough,14.0,1,8.750
7700,246.40,6.5286,0.7124,-0.5082,0.0186,0.3317,1.5707,rough,14.0,1,8.750
7710,246.72,6.5286,0.7124,-0.5082,0.0186,0.3317,1.5707,rough,14.0,1,8.750
7720,247.04,6.5286,0.7124,-0.5082,0.0186,0.3317,1.5707,rough,14.0,1,8.750
7730,247.36,6.5286,0.7124,-0.5082,0.0186,0.3317,1.5707,rough,14.0,1,8.750
7740,247.68,6.5286,0.7124,-0.5082,0.0186,0.3317,1.5707,rough,14.0,1,8.750
7750,248.00,6.5286,0.7124,-0.5082,0.0186,0.3317,1.5707,rough,14.0,1,8.750
7760,248.32,6.5285,0.7124,-0.5082,0.0186,0.3317,1.5707,rough,14.0,1,8.750
7770,248.64,6.5285,0.7124,-0.5082,0.0186,0.3317,1.5707,rough,14.0,1,8.750
7780,248.96,6.5285,0.7124,-0.5082,0.0186,0.3317,1.5707,rough,14.0,1,8.750
7790,249.28,6.5285,0.7124,-0.5082,0.0186,0.3317,1.5707,rough,14.0,1,8.750
7800,249.60,6.5285,0.7124,-0.5082,0.0186,0.3317,1.5707,rough,14.0,1,8.750
7810,249.92,6.5285,0.7124,-0.5082,0.0186,0.3317,1.5707,rough,14.0,1,8.750
7820,250.24,6.5284,0.7124,-0.5082,0.0186,0.3317,1.5707,rough,14.0,1,8.750
7830,250.56,6.5284,0.7124,-0.5082,0.0185,0.3317,1.5707,rough,14.0,1,8.750
7840,250.88,6.5284,0.7124,-0.5082,0.0185,0.3317,1.5707,rough,14.0,1,8.750
7850,251.20,6.5284,0.7124,-0.5082,0.0185,0.3317,1.5707,rough,14.0,1,8.750
7860,251.52,6.5284,0.7124,-0.5082,0.0185,0.3317,1.5707,rough,14.0,1,8.750
7870,251.84,6.5284,0.7124,-0.5081,0.0185,0.3317,1.5707,rough,14.0,1,8.750
7880,252.16,6.5284,0.7124,-0.5081,0.0185,0.3317,1.5707,rough,14.0,1,8.750
7890,252.48,6.5283,0.7124,-0.5081,0.0185,0.3317,1.5707,rough,14.0,1,8.750
7900,252.80,6.5283,0.7124,-0.5081,0.0185,0.3317,1.5707,rough,14.0,1,8.750
7910,253.12,6.5283,0.7124,-0.5081,0.0185,0.3317,1.5707,rough,14.0,1,8.750
7920,253.44,6.5283,0.7124,-0.5081,0.0185,0.3317,1.5707,rough,14.0,1,8.750
7930,253.76,6.5283,0.7124,-0.5081,0.0185,0.3317,1.5707,rough,14.0,1,8.750
7940,254.08,6.5283,0.7123,-0.5081,0.0185,0.3317,1.5707,rough,14.0,1,8.750
7950,254.40,6.5283,0.7123,-0.5081,0.0185,0.3317,1.5707,rough,14.0,1,8.750
7960,254.72,6.5282,0.7124,-0.5081,0.0186,0.3316,1.5707,rough,14.0,1,8.750
7970,255.04,6.5282,0.7124,-0.5081,0.0186,0.3316,1.5707,rough,14.0,1,8.750
7980,255.36,6.5282,0.7124,-0.5081,0.0186,0.3316,1.5707,rough,14.0,1,8.750
7990,255.68,6.5282,0.7124,-0.5081,0.0186,0.3316,1.5707,rough,14.0,1,8.750
8000,256.00,6.5282,0.7124,-0.5081,0.0186,0.3316,1.5707,rough,14.0,1,8.750
8010,256.32,6.5281,0.7124,-0.5081,0.0186,0.3316,1.5707,rough,14.0,1,8.750
8020,256.64,6.5281,0.7124,-0.5081,0.0186,0.3316,1.5707,rough,14.0,1,8.750
8030,256.96,6.5281,0.7124,-0.5081,0.0186,0.3316,1.5707,rough,14.0,1,8.750
8040,257.28,6.5281,0.7124,-0.5081,0.0186,0.3316,1.5707,rough,14.0,1,8.750
8050,257.60,6.5281,0.7123,-0.5081,0.0186,0.3316,1.5707,rough,14.0,1,8.750
8060,257.92,6.5280,0.7123,-0.5081,0.0186,0.3316,1.5707,rough,14.0,1,8.750
8070,258.24,6.5280,0.7123,-0.5081,0.0185,0.3316,1.5707,rough,14.0,1,8.750
8080,258.56,6.5280,0.7123,-0.5081,0.0185,0.3316,1.5707,rough,14.0,1,8.750
8090,258.88,6.5280,0.7123,-0.5081,0.0185,0.3316,1.5707,rough,14.0,1,8.750
8100,259.20,6.5280,0.7123,-0.5081,0.0185,0.3317,1.5707,rough,14.0,1,8.750
8110,259.52,6.5279,0.7123,-0.5081,0.0185,0.3317,1.5707,rough,14.0,1,8.750
8120,259.84,6.5279,0.7123,-0.5081,0.0185,0.3317,1.5707,rough,14.0,1,8.750
8130,260.16,6.5279,0.7123,-0.5081,0.0185,0.3317,1.5707,rough,14.0,1,8.750
8140,260.48,6.5279,0.7123,-0.5081,0.0185,0.3317,1.5707,rough,14.0,1,8.750
