step,time_s,x,y,z,roll,pitch,yaw,terrain,speed,target_idx,dist_to_target
10,0.32,0.0821,-0.0578,0.2075,0.0000,-0.0794,-0.0002,rough,14.0,0,6.900
20,0.64,0.4602,-0.0606,0.2445,0.0130,-0.1153,-0.1199,rough,14.0,0,6.614
30,0.96,0.8318,-0.1179,0.3018,0.0206,-0.2103,-0.2008,rough,14.0,0,6.305
40,1.28,1.1966,-0.2052,0.3875,0.0454,-0.2777,-0.2776,rough,14.0,0,5.986
50,1.60,1.5520,-0.3257,0.5030,0.0887,-0.3221,-0.3607,rough,14.0,0,5.655
60,1.92,1.8831,-0.4701,0.6398,0.1118,-0.3981,-0.4208,rough,14.0,0,5.328
70,2.24,2.2102,-0.6357,0.7956,0.1394,-0.4260,-0.4789,rough,14.0,0,4.992
80,2.56,2.5369,-0.8193,0.9609,0.1768,-0.4199,-0.5422,rough,14.0,0,4.646
90,2.88,2.8554,-1.0261,1.1259,0.1976,-0.4141,-0.6064,rough,14.0,0,4.290
100,3.20,3.1646,-1.2577,1.2816,0.2217,-0.3786,-0.6678,rough,14.0,0,3.924
110,3.52,3.4689,-1.5145,1.4283,0.2383,-0.3432,-0.7240,rough,14.0,0,3.543
120,3.84,3.7676,-1.7887,1.5646,0.2556,-0.3020,-0.7741,rough,14.0,0,3.154
130,4.16,4.0565,-2.0816,1.6842,0.2616,-0.2635,-0.8207,rough,14.0,0,2.758
140,4.48,4.3346,-2.3923,1.7913,0.2666,-0.2389,-0.8640,rough,14.0,0,2.356
150,4.80,4.5979,-2.7178,1.8868,0.2776,-0.2118,-0.9154,rough,14.0,0,1.951
160,5.12,4.8453,-3.0625,1.9726,0.2874,-0.1914,-0.9711,rough,14.0,0,1.541
170,5.44,5.0600,-3.4184,2.0445,0.2997,-0.1659,-1.0430,rough,14.0,0,1.138
180,5.76,5.2465,-3.7844,2.1083,0.3448,-0.1097,-1.1086,rough,14.0,1,12.059
190,6.08,5.2092,-3.9988,2.0909,0.3467,0.0504,-1.6787,rough,14.0,1,12.248
200,6.40,5.0598,-4.2863,2.0305,0.2942,0.1848,-2.1080,rough,14.0,1,12.469
210,6.72,4.8474,-4.5141,1.9501,0.2231,0.2799,-2.4017,rough,14.0,1,12.619
220,7.04,4.5961,-4.6916,1.8531,0.1484,0.3299,-2.6407,rough,14.0,1,12.715
230,7.36,4.2673,-4.8143,1.7270,0.0917,0.3491,-2.8045,rough,14.0,1,12.745
240,7.68,3.9078,-4.9004,1.5896,0.0441,0.3594,-2.9254,rough,14.0,1,12.742
250,8.00,3.5275,-4.9556,1.4451,0.0114,0.3625,-3.0113,rough,14.0,1,12.715
260,8.32,3.1356,-4.9880,1.2969,-0.0109,0.3605,-3.0690,rough,14.0,1,12.676
270,8.64,2.7364,-5.0049,1.1469,-0.0257,0.3582,-3.1058,rough,14.0,1,12.632
280,8.96,2.3335,-5.0119,0.9966,-0.0353,0.3566,-3.1285,rough,14.0,1,12.590
290,9.28,1.9293,-5.0130,0.8471,-0.0418,0.3537,3.1412,rough,14.0,1,12.556
300,9.60,1.5251,-5.0106,0.6990,-0.0467,0.3503,3.1333,rough,14.0,1,12.531
310,9.92,1.1220,-5.0061,0.5527,-0.0500,0.3466,3.1288,rough,14.0,1,12.516
320,10.24,0.7205,-5.0004,0.4085,-0.0531,0.3436,3.1260,rough,14.0,1,12.514
330,10.56,0.3213,-4.9940,0.2665,-0.0560,0.3409,3.1241,rough,14.0,1,12.523
340,10.88,-0.0536,-4.9868,0.1810,-0.0587,0.1752,3.1059,rough,14.0,1,12.543
350,11.20,-0.4079,-4.9712,0.1464,-0.0695,-0.0212,3.0361,rough,14.0,1,12.562
360,11.52,-0.7564,-4.9198,0.1488,-0.0456,-0.0228,2.8253,rough,14.0,1,12.556
370,11.84,-1.1093,-4.7949,0.1567,-0.0404,-0.0262,2.6694,rough,14.0,1,12.487
380,12.16,-1.4406,-4.6050,0.1668,-0.0348,-0.0305,2.5330,rough,14.0,1,12.362
390,12.48,-1.7446,-4.3620,0.1772,-0.0291,-0.0278,2.3774,rough,14.0,1,12.189
400,12.80,-2.0162,-4.0693,0.1861,-0.0249,-0.0138,2.2421,rough,14.0,1,11.970
410,13.12,-2.2564,-3.7360,0.1979,-0.0226,-0.0216,2.1350,rough,14.0,1,11.713
420,13.44,-2.4648,-3.3684,0.2052,-0.0145,-0.0153,2.0366,rough,14.0,1,11.422
430,13.76,-2.6419,-2.9802,0.2127,-0.0217,-0.0124,1.9640,rough,14.0,1,11.110
440,14.08,-2.7891,-2.5765,0.2166,-0.0226,-0.0058,1.8926,rough,14.0,1,10.781
450,14.40,-2.9165,-2.1640,0.2195,-0.0250,-0.0037,1.8358,rough,14.0,1,10.444
460,14.72,-3.0232,-1.7422,0.2205,-0.0261,-0.0006,1.7863,rough,14.0,1,10.096
470,15.04,-3.1088,-1.3126,0.2161,-0.0257,0.0281,1.6982,rough,14.0,1,9.740
480,15.36,-3.1581,-0.8847,0.2199,-0.0251,0.0006,1.6196,rough,14.0,1,9.376
490,15.68,-3.1754,-0.4477,0.2197,-0.0244,0.0001,1.5493,rough,14.0,1,8.995
500,16.00,-3.1620,-0.0092,0.2194,-0.0240,-0.0005,1.4934,rough,14.0,1,8.603
510,16.32,-3.1273,0.4312,0.2190,-0.0227,0.0016,1.4572,rough,14.0,1,8.203
520,16.64,-3.0745,0.8670,0.2180,-0.0224,0.0028,1.4112,rough,14.0,1,7.803
530,16.96,-3.0028,1.3015,0.2163,-0.0223,0.0048,1.3771,rough,14.0,1,7.397
540,17.28,-2.9150,1.7356,0.2135,-0.0214,0.0080,1.3598,rough,14.0,1,6.987
550,17.60,-2.8198,2.1606,0.2092,-0.0200,0.0096,1.3419,rough,14.0,1,6.584
560,17.92,-2.7168,2.5940,0.2027,-0.0157,0.0162,1.3257,rough,14.0,1,6.174
570,18.24,-2.6069,3.0258,0.1942,-0.0125,0.0241,1.3067,rough,14.0,1,5.766
580,18.56,-2.4862,3.4464,0.1828,-0.0094,0.0272,1.2600,rough,14.0,1,5.366
590,18.88,-2.3491,3.8628,0.1702,-0.0078,0.0324,1.2187,rough,14.0,1,4.964
600,19.20,-2.1943,4.2744,0.1557,-0.0037,0.0331,1.1839,rough,14.0,1,4.560
610,19.52,-2.0251,4.6817,0.1400,-0.0016,0.0368,1.1463,rough,14.0,1,4.155
620,19.84,-1.8409,5.0814,0.1234,0.0023,0.0393,1.1067,rough,14.0,1,3.752
630,20.16,-1.6413,5.4721,0.1068,0.0031,0.0372,1.0631,rough,14.0,1,3.351
640,20.48,-1.4249,5.8522,0.0907,0.0040,0.0353,1.0166,rough,14.0,1,2.953
650,20.80,-1.1900,6.2157,0.0759,0.0047,0.0325,0.9599,rough,14.0,1,2.560
660,21.12,-0.9359,6.5697,0.0627,0.0057,0.0285,0.9032,rough,14.0,1,2.169
670,21.44,-0.6631,6.9041,0.0519,0.0059,0.0220,0.8412,rough,14.0,1,1.788
680,21.76,-0.3850,7.2159,0.0547,-0.0331,-0.0059,0.7698,rough,14.0,1,1.434
690,22.08,-0.1125,7.4969,0.0738,-0.0934,-0.0974,0.6936,rough,14.0,1,1.131
700,22.40,0.1648,7.7373,0.1308,-0.1114,-0.2384,0.6131,rough,14.0,1,0.884
710,22.72,0.3918,7.9090,0.1892,-0.1071,-0.3454,0.4089,rough,14.0,2,15.268
720,23.04,0.5697,7.9980,0.2533,-0.0438,-0.3364,0.1679,rough,14.0,2,15.439
730,23.36,0.7292,8.0301,0.3121,-0.0041,-0.3475,0.0511,rough,14.0,2,15.554
740,23.68,0.8680,8.0394,0.3625,0.0083,-0.3503,0.0149,rough,14.0,2,15.639
750,24.00,1.0009,8.0422,0.4111,0.0130,-0.3502,0.0016,rough,14.0,2,15.716
760,24.32,1.1311,8.0427,0.4588,0.0146,-0.3515,-0.0030,rough,14.0,2,15.791
770,24.64,1.2597,8.0424,0.5061,0.0151,-0.3541,-0.0047,rough,14.0,2,15.864
780,24.96,1.3878,8.0419,0.5534,0.0152,-0.3559,-0.0053,rough,14.0,2,15.938
790,25.28,1.5156,8.0412,0.6009,0.0151,-0.3559,-0.0057,rough,14.0,2,16.012
800,25.60,1.6428,8.0403,0.6483,0.0153,-0.3574,-0.0064,rough,14.0,2,16.087
810,25.92,1.7659,8.0384,0.6945,0.0175,-0.3599,-0.0134,rough,14.0,2,16.158
820,26.24,1.8922,8.0341,0.7419,0.0222,-0.3613,-0.0272,rough,14.0,2,16.231
830,26.56,2.0249,8.0237,0.7920,0.0343,-0.3606,-0.0626,rough,14.0,2,16.303
840,26.88,2.1715,7.9986,0.8474,0.0615,-0.3591,-0.1418,rough,14.0,2,16.373
850,27.20,2.3421,7.9456,0.9122,0.1174,-0.3558,-0.2923,rough,14.0,2,16.437
860,27.52,2.5667,7.8483,0.9967,0.2124,-0.2994,-0.6027,rough,14.0,2,16.502
870,27.84,2.7584,7.6670,1.0705,0.2854,-0.2392,-0.8866,rough,14.0,2,16.485
880,28.16,2.8866,7.4146,1.1202,0.3338,-0.1693,-1.1232,rough,14.0,2,16.378
890,28.48,3.0011,7.1268,1.1658,0.3546,-0.1144,-1.2937,rough,14.0,2,16.239
900,28.80,3.0185,6.7845,1.1760,0.3715,-0.0205,-1.5545,rough,14.0,2,15.999
910,29.12,2.9523,6.4049,1.1565,0.3672,0.0609,-1.7756,rough,14.0,2,15.677
920,29.44,2.8073,6.0267,1.1077,0.3419,0.1219,-1.9612,rough,14.0,2,15.305
930,29.76,2.6114,5.6596,1.0445,0.3276,0.1629,-2.0973,rough,14.0,2,14.906
940,30.08,2.3793,5.3299,0.9673,0.3095,0.1925,-2.2009,rough,14.0,2,14.508
950,30.40,2.1640,5.0600,0.8942,0.3204,0.1797,-2.1391,rough,14.0,2,14.165
960,30.72,1.9104,4.7365,0.8131,0.2912,0.2101,-2.2721,rough,14.0,2,13.758
970,31.04,1.6137,4.4433,0.7144,0.2576,0.2417,-2.3874,rough,14.0,2,13.340
980,31.36,1.2882,4.1842,0.6049,0.2233,0.2658,-2.4930,rough,14.0,2,12.927
990,31.68,0.9491,3.9608,0.4898,0.1905,0.2714,-2.6133,rough,14.0,2,12.529
1000,32.00,0.5793,3.7730,0.3699,0.1685,0.2750,-2.6725,rough,14.0,2,12.136
1010,32.32,0.2166,3.5784,0.2731,0.1454,0.2068,-2.6349,rough,14.0,2,11.744
1020,32.64,-0.1433,3.3705,0.2094,0.1161,0.1008,-2.6167,rough,14.0,2,11.345
1030,32.96,-0.4979,3.1476,0.1973,0.0286,-0.0138,-2.5986,rough,14.0,2,10.941
1040,33.28,-0.8703,2.9178,0.2051,0.0320,-0.0167,-2.5652,rough,14.0,2,10.520
1050,33.60,-1.2409,2.6713,0.2095,0.0258,-0.0004,-2.5342,rough,14.0,2,10.090
1060,33.92,-1.5975,2.4173,0.2157,0.0214,-0.0085,-2.5060,rough,14.0,2,9.664
1070,34.24,-1.9534,2.1517,0.2188,0.0177,-0.0056,-2.4820,rough,14.0,2,9.232
1080,34.56,-2.2992,1.8800,0.2202,0.0173,-0.0007,-2.4548,rough,14.0,2,8.802
1090,34.88,-2.6436,1.5931,0.2156,0.0170,0.0295,-2.4314,rough,14.0,2,8.362
1100,35.20,-2.9737,1.3060,0.2168,0.0193,0.0110,-2.4109,rough,14.0,2,7.931
1110,35.52,-3.3020,1.0082,0.2112,0.0225,0.0198,-2.3901,rough,14.0,2,7.494
1120,35.84,-3.6243,0.7041,0.2036,0.0244,0.0209,-2.3717,rough,14.0,2,7.057
1130,36.16,-3.9404,0.3955,0.1934,0.0286,0.0259,-2.3544,rough,14.0,2,6.620
1140,36.48,-4.2516,0.0798,0.1815,0.0298,0.0289,-2.3379,rough,14.0,2,6.181
1150,36.80,-4.5569,-0.2405,0.1686,0.0320,0.0298,-2.3219,rough,14.0,2,5.743
1160,37.12,-4.8568,-0.5665,0.1556,0.0326,0.0289,-2.3063,rough,14.0,2,5.304
1170,37.44,-5.1515,-0.8949,0.1435,0.0343,0.0256,-2.2910,rough,14.0,2,4.866
1180,37.76,-5.4427,-1.2286,0.1332,0.0350,0.0214,-2.2763,rough,14.0,2,4.427
1190,38.08,-5.7278,-1.5654,0.1254,0.0350,0.0148,-2.2614,rough,14.0,2,3.989
1200,38.40,-6.0077,-1.9066,0.1205,0.0354,0.0066,-2.2463,rough,14.0,2,3.550
1210,38.72,-6.2816,-2.2533,0.1192,0.0361,-0.0017,-2.2310,rough,14.0,2,3.112
1220,39.04,-6.5516,-2.6041,0.1217,0.0339,-0.0095,-2.2134,rough,14.0,2,2.672
1230,39.36,-6.8135,-2.9580,0.1287,0.0364,-0.0219,-2.1959,rough,14.0,2,2.235
1240,39.68,-7.0689,-3.3163,0.1385,0.0312,-0.0281,-2.1744,rough,14.0,2,1.799
1250,40.00,-7.3158,-3.6781,0.1518,0.0311,-0.0348,-2.1443,rough,14.0,2,1.365
1260,40.32,-7.5495,-4.0472,0.1681,0.0269,-0.0419,-2.0993,rough,14.0,2,0.933
1270,40.64,-7.7597,-4.4113,0.1864,0.0273,-0.0446,-2.1436,rough,14.0,3,0.815
1280,40.96,-7.9402,-4.6893,0.2012,0.0106,-0.0509,-1.8308,rough,14.0,0,13.286
1290,41.28,-8.0203,-4.9807,0.2167,-0.0095,-0.0524,-1.4737,rough,14.0,0,13.373
1300,41.60,-7.9805,-5.2901,0.2319,-0.0255,-0.0429,-1.2012,rough,14.0,0,13.347
1310,41.92,-7.8364,-5.6208,0.2461,-0.0320,-0.0334,-1.0409,rough,14.0,0,13.227
1320,42.24,-7.6289,-5.9290,0.2565,-0.0365,-0.0217,-0.8846,rough,14.0,0,13.050
1330,42.56,-7.3636,-6.2135,0.2626,-0.0383,-0.0097,-0.7398,rough,14.0,0,12.821
1340,42.88,-7.0488,-6.4682,0.2638,-0.0357,0.0027,-0.6193,rough,14.0,0,12.546
1350,43.20,-6.6945,-6.6911,0.2605,-0.0326,0.0135,-0.5186,rough,14.0,0,12.233
1360,43.52,-6.3087,-6.8839,0.2530,-0.0275,0.0229,-0.4410,rough,14.0,0,11.891
1370,43.84,-5.9089,-7.0500,0.2421,-0.0242,0.0290,-0.3741,rough,14.0,0,11.534
1380,44.16,-5.4948,-7.1943,0.2283,-0.0193,0.0354,-0.3224,rough,14.0,0,11.164
1390,44.48,-5.0789,-7.3159,0.2114,-0.0222,0.0369,-0.2680,rough,14.0,0,10.792
1400,44.80,-4.6540,-7.4188,0.1953,-0.0113,0.0406,-0.2127,rough,14.0,0,10.410
1410,45.12,-4.2430,-7.4751,0.1781,-0.0033,0.0434,-0.1036,rough,14.0,0,10.033
1420,45.44,-3.8050,-7.5072,0.1594,-0.0006,0.0425,-0.0624,rough,14.0,0,9.625
1430,45.76,-3.3688,-7.5272,0.1409,0.0038,0.0420,-0.0026,rough,14.0,0,9.218
1440,46.08,-2.9494,-7.5291,0.1240,0.0115,0.0396,0.1301,rough,14.0,0,8.823
1450,46.40,-2.5797,-7.4716,0.1104,0.0218,0.0322,0.3563,rough,14.0,0,8.456
1460,46.72,-2.2260,-7.3293,0.0991,0.0293,0.0225,0.5554,rough,14.0,0,8.075
1470,47.04,-1.9032,-7.1094,0.0919,0.0339,0.0106,0.7201,rough,14.0,0,7.696
1480,47.36,-1.6050,-6.8298,0.0892,0.0371,0.0026,0.8647,rough,14.0,0,7.323
1490,47.68,-1.3449,-6.5182,0.0896,0.0434,-0.0051,0.8220,rough,14.0,0,6.982
1500,48.00,-1.0478,-6.2178,0.0948,0.0371,-0.0124,0.7402,rough,14.0,0,6.614
1510,48.32,-0.8519,-6.2366,0.0906,0.0539,-0.0538,1.0109,rough,14.0,0,6.430
1520,48.64,-0.7490,-6.1674,0.0919,0.0188,-0.0427,1.5315,rough,14.0,0,6.312
1530,48.96,-0.7727,-6.0916,0.0952,0.0056,-0.0420,1.8028,rough,14.0,0,6.316
1540,49.28,-0.8135,-6.0979,0.0955,0.0056,-0.0417,1.8025,rough,14.0,0,6.357
1550,49.60,-0.8583,-6.1079,0.0957,0.0070,-0.0413,1.7823,rough,14.0,0,6.403
1560,49.92,-0.9078,-6.1141,0.0962,0.0113,-0.0403,1.6927,rough,14.0,0,6.452
1570,50.24,-0.9367,-6.1139,0.0967,0.0141,-0.0398,1.6376,rough,14.0,0,6.480
1580,50.56,-0.9526,-6.1126,0.0970,0.0158,-0.0397,1.6064,rough,14.0,0,6.495
1590,50.88,-0.9611,-6.1115,0.0972,0.0167,-0.0395,1.5892,rough,14.0,0,6.503
1600,51.20,-0.9655,-6.1108,0.0973,0.0171,-0.0395,1.5801,rough,14.0,0,6.508
1610,51.52,-0.9677,-6.1105,0.0973,0.0173,-0.0395,1.5753,rough,14.0,0,6.510
1620,51.84,-0.9687,-6.1103,0.0974,0.0175,-0.0395,1.5728,rough,14.0,0,6.510
1630,52.16,-0.9691,-6.1101,0.0974,0.0176,-0.0396,1.5715,rough,14.0,0,6.511
1640,52.48,-0.9692,-6.1101,0.0974,0.0175,-0.0396,1.5709,rough,14.0,0,6.511
1650,52.80,-0.9692,-6.1101,0.0974,0.0175,-0.0396,1.5707,rough,14.0,0,6.511
1660,53.12,-0.9692,-6.1100,0.0974,0.0175,-0.0396,1.5706,rough,14.0,0,6.511
1670,53.44,-0.9692,-6.1100,0.0974,0.0175,-0.0396,1.5706,rough,14.0,0,6.511
1680,53.76,-0.9691,-6.1100,0.0974,0.0174,-0.0396,1.5706,rough,14.0,0,6.511
1690,54.08,-0.9691,-6.1100,0.0974,0.0174,-0.0396,1.5706,rough,14.0,0,6.511
1700,54.40,-0.9690,-6.1100,0.0974,0.0174,-0.0396,1.5706,rough,14.0,0,6.511
1710,54.72,-0.9689,-6.1100,0.0974,0.0174,-0.0396,1.5705,rough,14.0,0,6.511
1720,55.04,-0.9689,-6.1100,0.0974,0.0174,-0.0396,1.5705,rough,14.0,0,6.511
1730,55.36,-0.9688,-6.1100,0.0974,0.0174,-0.0396,1.5705,rough,14.0,0,6.511
1740,55.68,-0.9687,-6.1100,0.0974,0.0175,-0.0397,1.5705,rough,14.0,0,6.510
1750,56.00,-0.9687,-6.1100,0.0974,0.0175,-0.0397,1.5705,rough,14.0,0,6.510
1760,56.32,-0.9686,-6.1100,0.0974,0.0175,-0.0397,1.5705,rough,14.0,0,6.510
1770,56.64,-0.9685,-6.1100,0.0974,0.0175,-0.0397,1.5705,rough,14.0,0,6.510
1780,56.96,-0.9685,-6.1100,0.0974,0.0175,-0.0397,1.5705,rough,14.0,0,6.510
1790,57.28,-0.9684,-6.1100,0.0974,0.0175,-0.0397,1.5705,rough,14.0,0,6.510
1800,57.60,-0.9683,-6.1100,0.0974,0.0175,-0.0397,1.5705,rough,14.0,0,6.510
1810,57.92,-0.9682,-6.1100,0.0974,0.0175,-0.0397,1.5705,rough,14.0,0,6.510
1820,58.24,-0.9682,-6.1100,0.0974,0.0175,-0.0397,1.5705,rough,14.0,0,6.510
1830,58.56,-0.9681,-6.1100,0.0974,0.0175,-0.0397,1.5705,rough,14.0,0,6.510
1840,58.88,-0.9680,-6.1100,0.0974,0.0175,-0.0397,1.5705,rough,14.0,0,6.510
1850,59.20,-0.9680,-6.1100,0.0974,0.0175,-0.0397,1.5705,rough,14.0,0,6.510
1860,59.52,-0.9679,-6.1100,0.0974,0.0175,-0.0397,1.5705,rough,14.0,0,6.510
1870,59.84,-0.9678,-6.1100,0.0974,0.0175,-0.0397,1.5705,rough,14.0,0,6.510
1880,60.16,-0.9678,-6.1100,0.0974,0.0175,-0.0397,1.5705,rough,14.0,0,6.510
1890,60.48,-0.9677,-6.1100,0.0974,0.0175,-0.0397,1.5705,rough,14.0,0,6.509
1900,60.80,-0.9676,-6.1100,0.0974,0.0175,-0.0397,1.5705,rough,14.0,0,6.509
1910,61.12,-0.9676,-6.1100,0.0974,0.0175,-0.0397,1.5705,rough,14.0,0,6.509
1920,61.44,-0.9675,-6.1100,0.0974,0.0175,-0.0397,1.5705,rough,14.0,0,6.509
1930,61.76,-0.9674,-6.1100,0.0974,0.0175,-0.0397,1.5705,rough,14.0,0,6.509
1940,62.08,-0.9674,-6.1100,0.0974,0.0175,-0.0397,1.5705,rough,14.0,0,6.509
1950,62.40,-0.9673,-6.1100,0.0974,0.0175,-0.0397,1.5705,rough,14.0,0,6.509
1960,62.72,-0.9672,-6.1100,0.0974,0.0175,-0.0397,1.5706,rough,14.0,0,6.509
1970,63.04,-0.9672,-6.1100,0.0974,0.0175,-0.0397,1.5706,rough,14.0,0,6.509
1980,63.36,-0.9671,-6.1100,0.0974,0.0175,-0.0397,1.5706,rough,14.0,0,6.509
1990,63.68,-0.9670,-6.1100,0.0974,0.0175,-0.0397,1.5706,rough,14.0,0,6.509
2000,64.00,-0.9670,-6.1100,0.0974,0.0175,-0.0397,1.5706,rough,14.0,0,6.509
2010,64.32,-0.9669,-6.1100,0.0974,0.0175,-0.0397,1.5706,rough,14.0,0,6.509
2020,64.64,-0.9668,-6.1100,0.0974,0.0175,-0.0397,1.5706,rough,14.0,0,6.509
2030,64.96,-0.9668,-6.1100,0.0974,0.0175,-0.0397,1.5706,rough,14.0,0,6.509
2040,65.28,-0.9667,-6.1100,0.0974,0.0175,-0.0397,1.5706,rough,14.0,0,6.509
2050,65.60,-0.9666,-6.1100,0.0974,0.0175,-0.0397,1.5706,rough,14.0,0,6.508
2060,65.92,-0.9666,-6.1100,0.0974,0.0175,-0.0397,1.5706,rough,14.0,0,6.508
2070,66.24,-0.9665,-6.1100,0.0974,0.0175,-0.0397,1.5706,rough,14.0,0,6.508
2080,66.56,-0.9664,-6.1100,0.0974,0.0175,-0.0397,1.5706,rough,14.0,0,6.508
2090,66.88,-0.9664,-6.1100,0.0974,0.0175,-0.0397,1.5706,rough,14.0,0,6.508
2100,67.20,-0.9663,-6.1100,0.0974,0.0175,-0.0397,1.5706,rough,14.0,0,6.508
2110,67.52,-0.9662,-6.1100,0.0974,0.0175,-0.0397,1.5706,rough,14.0,0,6.508
2120,67.84,-0.9662,-6.1100,0.0974,0.0175,-0.0397,1.5706,rough,14.0,0,6.508
2130,68.16,-0.9661,-6.1100,0.0974,0.0175,-0.0397,1.5706,rough,14.0,0,6.508
2140,68.48,-0.9660,-6.1100,0.0974,0.0175,-0.0397,1.5706,rough,14.0,0,6.508
2150,68.80,-0.9660,-6.1100,0.0974,0.0175,-0.0397,1.5706,rough,14.0,0,6.508
2160,69.12,-0.9659,-6.1100,0.0974,0.0175,-0.0397,1.5706,rough,14.0,0,6.508
2170,69.44,-0.9658,-6.1100,0.0974,0.0175,-0.0397,1.5706,rough,14.0,0,6.508
2180,69.76,-0.9658,-6.1100,0.0974,0.0175,-0.0397,1.5706,rough,14.0,0,6.508
2190,70.08,-0.9657,-6.1100,0.0974,0.0175,-0.0397,1.5706,rough,14.0,0,6.508
2200,70.40,-0.9656,-6.1100,0.0974,0.0175,-0.0397,1.5706,rough,14.0,0,6.507
2210,70.72,-0.9656,-6.1100,0.0974,0.0175,-0.0397,1.5706,rough,14.0,0,6.507
2220,71.04,-0.9655,-6.1100,0.0974,0.0175,-0.0397,1.5706,rough,14.0,0,6.507
2230,71.36,-0.9655,-6.1100,0.0974,0.0175,-0.0397,1.5706,rough,14.0,0,6.507
2240,71.68,-0.9654,-6.1100,0.0974,0.0175,-0.0397,1.5706,rough,14.0,0,6.507
2250,72.00,-0.9653,-6.1100,0.0974,0.0174,-0.0397,1.5706,rough,14.0,0,6.507
2260,72.32,-0.9653,-6.1100,0.0974,0.0175,-0.0397,1.5706,rough,14.0,0,6.507
2270,72.64,-0.9652,-6.1100,0.0974,0.0175,-0.0397,1.5706,rough,14.0,0,6.507
2280,72.96,-0.9651,-6.1100,0.0974,0.0174,-0.0397,1.5706,rough,14.0,0,6.507
2290,73.28,-0.9651,-6.1100,0.0974,0.0174,-0.0397,1.5706,rough,14.0,0,6.507
2300,73.60,-0.9650,-6.1100,0.0973,0.0174,-0.0397,1.5706,rough,14.0,0,6.507
2310,73.92,-0.9649,-6.1100,0.0973,0.0174,-0.0397,1.5706,rough,14.0,0,6.507
2320,74.24,-0.9649,-6.1100,0.0973,0.0174,-0.0397,1.5706,rough,14.0,0,6.507
2330,74.56,-0.9648,-6.1100,0.0973,0.0174,-0.0397,1.5706,rough,14.0,0,6.507
2340,74.88,-0.9648,-6.1100,0.0973,0.0174,-0.0397,1.5706,rough,14.0,0,6.507
2350,75.20,-0.9647,-6.1100,0.0973,0.0174,-0.0397,1.5706,rough,14.0,0,6.507
2360,75.52,-0.9646,-6.1100,0.0973,0.0174,-0.0397,1.5706,rough,14.0,0,6.507
2370,75.84,-0.9646,-6.1100,0.0973,0.0174,-0.0397,1.5706,rough,14.0,0,6.506
2380,76.16,-0.9645,-6.1100,0.0973,0.0174,-0.0397,1.5706,rough,14.0,0,6.506
2390,76.48,-0.9645,-6.1100,0.0973,0.0174,-0.0397,1.5706,rough,14.0,0,6.506
2400,76.80,-0.9644,-6.1100,0.0973,0.0174,-0.0397,1.5706,rough,14.0,0,6.506
2410,77.12,-0.9643,-6.1100,0.0973,0.0174,-0.0397,1.5706,rough,14.0,0,6.506
2420,77.44,-0.9643,-6.1100,0.0973,0.0174,-0.0397,1.5706,rough,14.0,0,6.506
2430,77.76,-0.9642,-6.1100,0.0973,0.0174,-0.0397,1.5706,rough,14.0,0,6.506
2440,78.08,-0.9641,-6.1100,0.0973,0.0174,-0.0397,1.5706,rough,14.0,0,6.506
2450,78.40,-0.9641,-6.1100,0.0973,0.0174,-0.0397,1.5706,rough,14.0,0,6.506
2460,78.72,-0.9640,-6.1100,0.0973,0.0174,-0.0397,1.5706,rough,14.0,0,6.506
2470,79.04,-0.9640,-6.1100,0.0973,0.0174,-0.0397,1.5706,rough,14.0,0,6.506
2480,79.36,-0.9639,-6.1100,0.0973,0.0174,-0.0397,1.5706,rough,14.0,0,6.506
2490,79.68,-0.9638,-6.1100,0.0973,0.0174,-0.0397,1.5706,rough,14.0,0,6.506
2500,80.00,-0.9638,-6.1100,0.0973,0.0174,-0.0397,1.5706,rough,14.0,0,6.506
2510,80.32,-0.9637,-6.1100,0.0973,0.0174,-0.0397,1.5706,rough,14.0,0,6.506
2520,80.64,-0.9637,-6.1100,0.0973,0.0174,-0.0397,1.5706,rough,14.0,0,6.506
2530,80.96,-0.9636,-6.1100,0.0973,0.0174,-0.0397,1.5706,rough,14.0,0,6.506
2540,81.28,-0.9635,-6.1100,0.0973,0.0174,-0.0397,1.5706,rough,14.0,0,6.505
2550,81.60,-0.9635,-6.1100,0.0973,0.0174,-0.0397,1.5706,rough,14.0,0,6.505
2560,81.92,-0.9634,-6.1100,0.0973,0.0174,-0.0397,1.5706,rough,14.0,0,6.505
2570,82.24,-0.9634,-6.1100,0.0973,0.0174,-0.0397,1.5706,rough,14.0,0,6.505
2580,82.56,-0.9633,-6.1100,0.0973,0.0174,-0.0397,1.5706,rough,14.0,0,6.505
2590,82.88,-0.9632,-6.1100,0.0973,0.0174,-0.0397,1.5706,rough,14.0,0,6.505
2600,83.20,-0.9632,-6.1100,0.0973,0.0174,-0.0397,1.5706,rough,14.0,0,6.505
2610,83.52,-0.9631,-6.1100,0.0973,0.0174,-0.0397,1.5706,rough,14.0,0,6.505
2620,83.84,-0.9631,-6.1100,0.0973,0.0174,-0.0397,1.5706,rough,14.0,0,6.505
2630,84.16,-0.9630,-6.1100,0.0973,0.0174,-0.0397,1.5706,rough,14.0,0,6.505
2640,84.48,-0.9629,-6.1100,0.0973,0.0174,-0.0397,1.5706,rough,14.0,0,6.505
2650,84.80,-0.9629,-6.1100,0.0973,0.0174,-0.0397,1.5706,rough,14.0,0,6.505
2660,85.12,-0.9628,-6.1100,0.0973,0.0174,-0.0397,1.5706,rough,14.0,0,6.505
2670,85.44,-0.9628,-6.1100,0.0973,0.0174,-0.0397,1.5706,rough,14.0,0,6.505
2680,85.76,-0.9627,-6.1100,0.0973,0.0174,-0.0397,1.5706,rough,14.0,0,6.505
2690,86.08,-0.9627,-6.1100,0.0973,0.0174,-0.0397,1.5706,rough,14.0,0,6.505
2700,86.40,-0.9626,-6.1100,0.0973,0.0174,-0.0397,1.5706,rough,14.0,0,6.505
2710,86.72,-0.9625,-6.1100,0.0973,0.0174,-0.0397,1.5706,rough,14.0,0,6.504
2720,87.04,-0.9625,-6.1100,0.0973,0.0174,-0.0397,1.5706,rough,14.0,0,6.504
2730,87.36,-0.9624,-6.1100,0.0973,0.0174,-0.0397,1.5706,rough,14.0,0,6.504
2740,87.68,-0.9624,-6.1100,0.0973,0.0174,-0.0397,1.5706,rough,14.0,0,6.504
2750,88.00,-0.9623,-6.1100,0.0973,0.0174,-0.0397,1.5706,rough,14.0,0,6.504
2760,88.32,-0.9622,-6.1100,0.0973,0.0174,-0.0397,1.5706,rough,14.0,0,6.504
2770,88.64,-0.9622,-6.1100,0.0973,0.0174,-0.0397,1.5706,rough,14.0,0,6.504
2780,88.96,-0.9621,-6.1100,0.0973,0.0174,-0.0397,1.5706,rough,14.0,0,6.504
2790,89.28,-0.9621,-6.1100,0.0973,0.0174,-0.0397,1.5706,rough,14.0,0,6.504
2800,89.60,-0.9620,-6.1100,0.0973,0.0174,-0.0397,1.5706,rough,14.0,0,6.504
2810,89.92,-0.9620,-6.1100,0.0973,0.0174,-0.0397,1.5706,rough,14.0,0,6.504
2820,90.24,-0.9619,-6.1100,0.0973,0.0174,-0.0397,1.5706,rough,14.0,0,6.504
2830,90.56,-0.9618,-6.1100,0.0973,0.0174,-0.0397,1.5706,rough,14.0,0,6.504
2840,90.88,-0.9618,-6.1100,0.0973,0.0174,-0.0397,1.5706,rough,14.0,0,6.504
2850,91.20,-0.9617,-6.1100,0.0973,0.0174,-0.0397,1.5706,rough,14.0,0,6.504
2860,91.52,-0.9617,-6.1100,0.0973,0.0174,-0.0396,1.5706,rough,14.0,0,6.504
2870,91.84,-0.9616,-6.1100,0.0973,0.0174,-0.0396,1.5706,rough,14.0,0,6.504
2880,92.16,-0.9616,-6.1100,0.0973,0.0174,-0.0396,1.5706,rough,14.0,0,6.504
2890,92.48,-0.9615,-6.1100,0.0973,0.0174,-0.0396,1.5706,rough,14.0,0,6.503
2900,92.80,-0.9615,-6.1100,0.0973,0.0174,-0.0396,1.5706,rough,14.0,0,6.503
2910,93.12,-0.9614,-6.1100,0.0973,0.0174,-0.0396,1.5706,rough,14.0,0,6.503
2920,93.44,-0.9613,-6.1100,0.0973,0.0174,-0.0396,1.5706,rough,14.0,0,6.503
2930,93.76,-0.9613,-6.1100,0.0973,0.0174,-0.0396,1.5706,rough,14.0,0,6.503
2940,94.08,-0.9612,-6.1100,0.0973,0.0174,-0.0396,1.5706,rough,14.0,0,6.503
2950,94.40,-0.9612,-6.1100,0.0973,0.0174,-0.0396,1.5706,rough,14.0,0,6.503
2960,94.72,-0.9611,-6.1100,0.0973,0.0174,-0.0396,1.5706,rough,14.0,0,6.503
2970,95.04,-0.9611,-6.1100,0.0973,0.0174,-0.0396,1.5706,rough,14.0,0,6.503
2980,95.36,-0.9610,-6.1100,0.0973,0.0174,-0.0396,1.5706,rough,14.0,0,6.503
2990,95.68,-0.9609,-6.1100,0.0973,0.0174,-0.0396,1.5706,rough,14.0,0,6.503
3000,96.00,-0.9609,-6.1100,0.0973,0.0174,-0.0396,1.5706,rough,14.0,0,6.503
3010,96.32,-0.9608,-6.1100,0.0973,0.0174,-0.0396,1.5706,rough,14.0,0,6.503
3020,96.64,-0.9608,-6.1100,0.0973,0.0174,-0.0396,1.5706,rough,14.0,0,6.503
3030,96.96,-0.9607,-6.1100,0.0973,0.0174,-0.0396,1.5706,rough,14.0,0,6.503
3040,97.28,-0.9607,-6.1100,0.0973,0.0174,-0.0396,1.5706,rough,14.0,0,6.503
3050,97.60,-0.9606,-6.1100,0.0973,0.0174,-0.0396,1.5706,rough,14.0,0,6.503
3060,97.92,-0.9606,-6.1100,0.0973,0.0174,-0.0396,1.5706,rough,14.0,0,6.503
3070,98.24,-0.9605,-6.1100,0.0973,0.0174,-0.0396,1.5706,rough,14.0,0,6.502
3080,98.56,-0.9604,-6.1100,0.0973,0.0174,-0.0396,1.5706,rough,14.0,0,6.502
3090,98.88,-0.9604,-6.1100,0.0973,0.0174,-0.0396,1.5706,rough,14.0,0,6.502
3100,99.20,-0.9603,-6.1100,0.0973,0.0174,-0.0396,1.5706,rough,14.0,0,6.502
3110,99.52,-0.9603,-6.1100,0.0973,0.0174,-0.0396,1.5706,rough,14.0,0,6.502
3120,99.84,-0.9602,-6.1100,0.0973,0.0174,-0.0396,1.5706,rough,14.0,0,6.502
3130,100.16,-0.9602,-6.1100,0.0973,0.0174,-0.0396,1.5706,rough,14.0,0,6.502
3140,100.48,-0.9601,-6.1100,0.0973,0.0174,-0.0396,1.5706,rough,14.0,0,6.502
3150,100.80,-0.9600,-6.1100,0.0973,0.0174,-0.0396,1.5706,rough,14.0,0,6.502
3160,101.12,-0.9600,-6.1100,0.0973,0.0174,-0.0396,1.5706,rough,14.0,0,6.502
3170,101.44,-0.9599,-6.1100,0.0973,0.0174,-0.0396,1.5706,rough,14.0,0,6.502
3180,101.76,-0.9599,-6.1100,0.0973,0.0174,-0.0396,1.5706,rough,14.0,0,6.502
3190,102.08,-0.9598,-6.1100,0.0973,0.0174,-0.0396,1.5706,rough,14.0,0,6.502
3200,102.40,-0.9598,-6.1100,0.0973,0.0174,-0.0396,1.5706,rough,14.0,0,6.502
3210,102.72,-0.9597,-6.1100,0.0973,0.0174,-0.0396,1.5706,rough,14.0,0,6.502
3220,103.04,-0.9597,-6.1100,0.0973,0.0174,-0.0396,1.5706,rough,14.0,0,6.502
3230,103.36,-0.9596,-6.1100,0.0973,0.0174,-0.0396,1.5706,rough,14.0,0,6.502
3240,103.68,-0.9596,-6.1100,0.0973,0.0174,-0.0396,1.5706,rough,14.0,0,6.502
3250,104.00,-0.9595,-6.1100,0.0973,0.0174,-0.0396,1.5706,rough,14.0,0,6.502
3260,104.32,-0.9594,-6.1100,0.0973,0.0174,-0.0396,1.5706,rough,14.0,0,6.501
3270,104.64,-0.9594,-6.1100,0.0973,0.0174,-0.0396,1.5706,rough,14.0,0,6.501
3280,104.96,-0.9593,-6.1100,0.0973,0.0174,-0.0396,1.5706,rough,14.0,0,6.501
3290,105.28,-0.9593,-6.1100,0.0973,0.0174,-0.0396,1.5706,rough,14.0,0,6.501
3300,105.60,-0.9592,-6.1100,0.0973,0.0174,-0.0396,1.5706,rough,14.0,0,6.501
3310,105.92,-0.9592,-6.1100,0.0972,0.0174,-0.0396,1.5706,rough,14.0,0,6.501
3320,106.24,-0.9591,-6.1100,0.0972,0.0174,-0.0396,1.5706,rough,14.0,0,6.501
3330,106.56,-0.9591,-6.1100,0.0972,0.0174,-0.0396,1.5706,rough,14.0,0,6.501
3340,106.88,-0.9590,-6.1100,0.0972,0.0174,-0.0396,1.5706,rough,14.0,0,6.501
3350,107.20,-0.9589,-6.1100,0.0972,0.0174,-0.0396,1.5706,rough,14.0,0,6.501
3360,107.52,-0.9589,-6.1100,0.0972,0.0174,-0.0396,1.5706,rough,14.0,0,6.501
3370,107.84,-0.9588,-6.1100,0.0972,0.0174,-0.0396,1.5706,rough,14.0,0,6.501
3380,108.16,-0.9588,-6.1100,0.0972,0.0174,-0.0396,1.5706,rough,14.0,0,6.501
3390,108.48,-0.9587,-6.1100,0.0972,0.0174,-0.0396,1.5706,rough,14.0,0,6.501
3400,108.80,-0.9587,-6.1100,0.0972,0.0174,-0.0396,1.5706,rough,14.0,0,6.501
3410,109.12,-0.9586,-6.1100,0.0972,0.0174,-0.0396,1.5706,rough,14.0,0,6.501
3420,109.44,-0.9586,-6.1100,0.0972,0.0174,-0.0396,1.5706,rough,14.0,0,6.501
3430,109.76,-0.9585,-6.1100,0.0972,0.0174,-0.0396,1.5706,rough,14.0,0,6.501
3440,110.08,-0.9585,-6.1100,0.0972,0.0174,-0.0396,1.5706,rough,14.0,0,6.501
3450,110.40,-0.9584,-6.1100,0.0972,0.0174,-0.0396,1.5706,rough,14.0,0,6.500
3460,110.72,-0.9583,-6.1100,0.0972,0.0174,-0.0396,1.5706,rough,14.0,0,6.500
3470,111.04,-0.9583,-6.1100,0.0972,0.0174,-0.0396,1.5706,rough,14.0,0,6.500
3480,111.36,-0.9582,-6.1100,0.0972,0.0174,-0.0396,1.5706,rough,14.0,0,6.500
3490,111.68,-0.9582,-6.1100,0.0972,0.0174,-0.0396,1.5706,rough,14.0,0,6.500
3500,112.00,-0.9581,-6.1100,0.0972,0.0174,-0.0396,1.5706,rough,14.0,0,6.500
3510,112.32,-0.9581,-6.1100,0.0972,0.0174,-0.0396,1.5706,rough,14.0,0,6.500
3520,112.64,-0.9580,-6.1100,0.0972,0.0174,-0.0396,1.5706,rough,14.0,0,6.500
3530,112.96,-0.9580,-6.1100,0.0972,0.0174,-0.0396,1.5706,rough,14.0,0,6.500
3540,113.28,-0.9579,-6.1100,0.0972,0.0174,-0.0396,1.5706,rough,14.0,0,6.500
3550,113.60,-0.9579,-6.1100,0.0972,0.0174,-0.0396,1.5706,rough,14.0,0,6.500
3560,113.92,-0.9578,-6.1100,0.0972,0.0174,-0.0396,1.5706,rough,14.0,0,6.500
3570,114.24,-0.9578,-6.1100,0.0972,0.0174,-0.0396,1.5706,rough,14.0,0,6.500
3580,114.56,-0.9577,-6.1100,0.0972,0.0174,-0.0396,1.5706,rough,14.0,0,6.500
3590,114.88,-0.9576,-6.1100,0.0972,0.0174,-0.0396,1.5706,rough,14.0,0,6.500
3600,115.20,-0.9576,-6.1100,0.0972,0.0174,-0.0396,1.5706,rough,14.0,0,6.500
3610,115.52,-0.9575,-6.1100,0.0972,0.0174,-0.0396,1.5706,rough,14.0,0,6.500
3620,115.84,-0.9575,-6.1100,0.0972,0.0174,-0.0396,1.5706,rough,14.0,0,6.500
3630,116.16,-0.9574,-6.1100,0.0972,0.0174,-0.0396,1.5706,rough,14.0,0,6.500
3640,116.48,-0.9574,-6.1100,0.0972,0.0174,-0.0396,1.5706,rough,14.0,0,6.499
3650,116.80,-0.9573,-6.1100,0.0972,0.0174,-0.0396,1.5706,rough,14.0,0,6.499
3660,117.12,-0.9573,-6.1100,0.0972,0.0174,-0.0396,1.5706,rough,14.0,0,6.499
3670,117.44,-0.9572,-6.1100,0.0972,0.0174,-0.0396,1.5706,rough,14.0,0,6.499
3680,117.76,-0.9572,-6.1100,0.0972,0.0174,-0.0396,1.5706,rough,14.0,0,6.499
3690,118.08,-0.9571,-6.1100,0.0972,0.0174,-0.0396,1.5706,rough,14.0,0,6.499
3700,118.40,-0.9571,-6.1100,0.0972,0.0174,-0.0396,1.5706,rough,14.0,0,6.499
3710,118.72,-0.9570,-6.1100,0.0972,0.0174,-0.0396,1.5706,rough,14.0,0,6.499
3720,119.04,-0.9569,-6.1100,0.0972,0.0174,-0.0396,1.5706,rough,14.0,0,6.499
3730,119.36,-0.9569,-6.1100,0.0972,0.0174,-0.0396,1.5706,rough,14.0,0,6.499
3740,119.68,-0.9568,-6.1100,0.0972,0.0174,-0.0396,1.5706,rough,14.0,0,6.499
3750,120.00,-0.9568,-6.1100,0.0972,0.0174,-0.0396,1.5706,rough,14.0,0,6.499
3760,120.32,-0.9567,-6.1100,0.0972,0.0174,-0.0396,1.5706,rough,14.0,0,6.499
3770,120.64,-0.9567,-6.1100,0.0972,0.0174,-0.0396,1.5706,rough,14.0,0,6.499
3780,120.96,-0.9566,-6.1100,0.0972,0.0174,-0.0396,1.5706,rough,14.0,0,6.499
3790,121.28,-0.9566,-6.1100,0.0972,0.0174,-0.0396,1.5706,rough,14.0,0,6.499
3800,121.60,-0.9565,-6.1100,0.0972,0.0174,-0.0396,1.5706,rough,14.0,0,6.499
3810,121.92,-0.9565,-6.1100,0.0972,0.0174,-0.0396,1.5706,rough,14.0,0,6.499
3820,122.24,-0.9564,-6.1100,0.0972,0.0174,-0.0396,1.5706,rough,14.0,0,6.499
3830,122.56,-0.9564,-6.1100,0.0972,0.0174,-0.0396,1.5706,rough,14.0,0,6.498
3840,122.88,-0.9563,-6.1100,0.0972,0.0174,-0.0396,1.5706,rough,14.0,0,6.498
3850,123.20,-0.9563,-6.1100,0.0972,0.0174,-0.0396,1.5706,rough,14.0,0,6.498
3860,123.52,-0.9562,-6.1100,0.0972,0.0174,-0.0396,1.5706,rough,14.0,0,6.498
3870,123.84,-0.9562,-6.1100,0.0972,0.0174,-0.0396,1.5706,rough,14.0,0,6.498
3880,124.16,-0.9561,-6.1100,0.0972,0.0174,-0.0396,1.5706,rough,14.0,0,6.498
3890,124.48,-0.9560,-6.1100,0.0972,0.0174,-0.0396,1.5706,rough,14.0,0,6.498
3900,124.80,-0.9560,-6.1100,0.0972,0.0174,-0.0396,1.5706,rough,14.0,0,6.498
3910,125.12,-0.9559,-6.1100,0.0972,0.0174,-0.0396,1.5706,rough,14.0,0,6.498
3920,125.44,-0.9559,-6.1100,0.0972,0.0174,-0.0396,1.5706,rough,14.0,0,6.498
3930,125.76,-0.9558,-6.1100,0.0972,0.0174,-0.0396,1.5706,rough,14.0,0,6.498
3940,126.08,-0.9558,-6.1100,0.0972,0.0174,-0.0396,1.5706,rough,14.0,0,6.498
3950,126.40,-0.9557,-6.1100,0.0972,0.0174,-0.0396,1.5706,rough,14.0,0,6.498
3960,126.72,-0.9557,-6.1100,0.0972,0.0174,-0.0396,1.5706,rough,14.0,0,6.498
3970,127.04,-0.9556,-6.1100,0.0972,0.0174,-0.0396,1.5706,rough,14.0,0,6.498
3980,127.36,-0.9556,-6.1100,0.0972,0.0174,-0.0396,1.5706,rough,14.0,0,6.498
3990,127.68,-0.9555,-6.1100,0.0972,0.0174,-0.0396,1.5706,rough,14.0,0,6.498
4000,128.00,-0.9555,-6.1100,0.0972,0.0174,-0.0396,1.5706,rough,14.0,0,6.498
4010,128.32,-0.9554,-6.1100,0.0972,0.0174,-0.0396,1.5706,rough,14.0,0,6.498
4020,128.64,-0.9554,-6.1100,0.0972,0.0174,-0.0396,1.5706,rough,14.0,0,6.498
4030,128.96,-0.9553,-6.1100,0.0972,0.0174,-0.0396,1.5706,rough,14.0,0,6.497
4040,129.28,-0.9553,-6.1100,0.0972,0.0174,-0.0396,1.5706,rough,14.0,0,6.497
4050,129.60,-0.9552,-6.1100,0.0972,0.0174,-0.0396,1.5706,rough,14.0,0,6.497
4060,129.92,-0.9552,-6.1100,0.0972,0.0174,-0.0396,1.5706,rough,14.0,0,6.497
4070,130.24,-0.9551,-6.1100,0.0972,0.0174,-0.0396,1.5706,rough,14.0,0,6.497
4080,130.56,-0.9551,-6.1100,0.0972,0.0174,-0.0396,1.5706,rough,14.0,0,6.497
4090,130.88,-0.9550,-6.1100,0.0972,0.0174,-0.0396,1.5706,rough,14.0,0,6.497
4100,131.20,-0.9549,-6.1100,0.0972,0.0174,-0.0396,1.5706,rough,14.0,0,6.497
4110,131.52,-0.9549,-6.1100,0.0972,0.0174,-0.0396,1.5706,rough,14.0,0,6.497
4120,131.84,-0.9548,-6.1100,0.0972,0.0174,-0.0396,1.5706,rough,14.0,0,6.497
4130,132.16,-0.9548,-6.1100,0.0972,0.0174,-0.0396,1.5706,rough,14.0,0,6.497
4140,132.48,-0.9547,-6.1100,0.0972,0.0174,-0.0396,1.5706,rough,14.0,0,6.497
4150,132.80,-0.9547,-6.1100,0.0972,0.0174,-0.0396,1.5706,rough,14.0,0,6.497
4160,133.12,-0.9546,-6.1100,0.0972,0.0174,-0.0396,1.5706,rough,14.0,0,6.497
4170,133.44,-0.9546,-6.1100,0.0972,0.0174,-0.0396,1.5706,rough,14.0,0,6.497
4180,133.76,-0.9545,-6.1100,0.0972,0.0174,-0.0396,1.5706,rough,14.0,0,6.497
4190,134.08,-0.9545,-6.1100,0.0972,0.0174,-0.0396,1.5706,rough,14.0,0,6.497
4200,134.40,-0.9544,-6.1100,0.0972,0.0174,-0.0396,1.5706,rough,14.0,0,6.497
4210,134.72,-0.9544,-6.1100,0.0972,0.0174,-0.0396,1.5706,rough,14.0,0,6.497
4220,135.04,-0.9543,-6.1100,0.0972,0.0174,-0.0396,1.5706,rough,14.0,0,6.497
4230,135.36,-0.9543,-6.1100,0.0972,0.0174,-0.0396,1.5706,rough,14.0,0,6.496
4240,135.68,-0.9542,-6.1100,0.0972,0.0174,-0.0396,1.5706,rough,14.0,0,6.496
4250,136.00,-0.9542,-6.1100,0.0972,0.0174,-0.0396,1.5706,rough,14.0,0,6.496
4260,136.32,-0.9541,-6.1100,0.0972,0.0174,-0.0396,1.5706,rough,14.0,0,6.496
4270,136.64,-0.9541,-6.1100,0.0972,0.0173,-0.0396,1.5706,rough,14.0,0,6.496
4280,136.96,-0.9540,-6.1100,0.0972,0.0173,-0.0396,1.5706,rough,14.0,0,6.496
4290,137.28,-0.9540,-6.1100,0.0972,0.0173,-0.0396,1.5706,rough,14.0,0,6.496
4300,137.60,-0.9539,-6.1100,0.0972,0.0173,-0.0396,1.5706,rough,14.0,0,6.496
4310,137.92,-0.9539,-6.1100,0.0972,0.0173,-0.0396,1.5706,rough,14.0,0,6.496
4320,138.24,-0.9538,-6.1100,0.0972,0.0173,-0.0396,1.5706,rough,14.0,0,6.496
4330,138.56,-0.9538,-6.1100,0.0972,0.0173,-0.0396,1.5706,rough,14.0,0,6.496
4340,138.88,-0.9537,-6.1100,0.0972,0.0173,-0.0396,1.5706,rough,14.0,0,6.496
4350,139.20,-0.9537,-6.1100,0.0972,0.0173,-0.0396,1.5706,rough,14.0,0,6.496
4360,139.52,-0.9536,-6.1100,0.0972,0.0173,-0.0396,1.5706,rough,14.0,0,6.496
4370,139.84,-0.9536,-6.1100,0.0972,0.0173,-0.0396,1.5706,rough,14.0,0,6.496
4380,140.16,-0.9535,-6.1100,0.0972,0.0173,-0.0396,1.5706,rough,14.0,0,6.496
4390,140.48,-0.9535,-6.1100,0.0972,0.0173,-0.0396,1.5706,rough,14.0,0,6.496
4400,140.80,-0.9534,-6.1100,0.0972,0.0173,-0.0396,1.5706,rough,14.0,0,6.496
4410,141.12,-0.9534,-6.1100,0.0972,0.0173,-0.0396,1.5706,rough,14.0,0,6.496
4420,141.44,-0.9533,-6.1100,0.0972,0.0173,-0.0396,1.5706,rough,14.0,0,6.496
4430,141.76,-0.9533,-6.1100,0.0972,0.0173,-0.0396,1.5706,rough,14.0,0,6.495
4440,142.08,-0.9532,-6.1100,0.0972,0.0173,-0.0396,1.5706,rough,14.0,0,6.495
4450,142.40,-0.9532,-6.1100,0.0972,0.0173,-0.0396,1.5706,rough,14.0,0,6.495
4460,142.72,-0.9531,-6.1100,0.0972,0.0173,-0.0396,1.5706,rough,14.0,0,6.495
4470,143.04,-0.9531,-6.1100,0.0971,0.0173,-0.0396,1.5706,rough,14.0,0,6.495
4480,143.36,-0.9530,-6.1100,0.0971,0.0173,-0.0396,1.5706,rough,14.0,0,6.495
4490,143.68,-0.9530,-6.1100,0.0971,0.0173,-0.0396,1.5706,rough,14.0,0,6.495
4500,144.00,-0.9529,-6.1100,0.0971,0.0173,-0.0396,1.5706,rough,14.0,0,6.495
4510,144.32,-0.9529,-6.1100,0.0971,0.0173,-0.0396,1.5706,rough,14.0,0,6.495
4520,144.64,-0.9528,-6.1100,0.0971,0.0173,-0.0396,1.5706,rough,14.0,0,6.495
4530,144.96,-0.9528,-6.1100,0.0971,0.0173,-0.0396,1.5706,rough,14.0,0,6.495
4540,145.28,-0.9527,-6.1100,0.0971,0.0173,-0.0396,1.5706,rough,14.0,0,6.495
4550,145.60,-0.9527,-6.1100,0.0971,0.0173,-0.0396,1.5706,rough,14.0,0,6.495
4560,145.92,-0.9526,-6.1100,0.0971,0.0173,-0.0396,1.5706,rough,14.0,0,6.495
4570,146.24,-0.9526,-6.1100,0.0971,0.0173,-0.0396,1.5706,rough,14.0,0,6.495
4580,146.56,-0.9525,-6.1100,0.0971,0.0173,-0.0396,1.5706,rough,14.0,0,6.495
4590,146.88,-0.9525,-6.1100,0.0971,0.0173,-0.0396,1.5706,rough,14.0,0,6.495
4600,147.20,-0.9524,-6.1100,0.0971,0.0173,-0.0396,1.5706,rough,14.0,0,6.495
4610,147.52,-0.9524,-6.1100,0.0971,0.0173,-0.0396,1.5706,rough,14.0,0,6.495
4620,147.84,-0.9523,-6.1100,0.0971,0.0173,-0.0396,1.5706,rough,14.0,0,6.495
4630,148.16,-0.9523,-6.1100,0.0971,0.0173,-0.0396,1.5706,rough,14.0,0,6.495
4640,148.48,-0.9522,-6.1100,0.0971,0.0173,-0.0396,1.5706,rough,14.0,0,6.494
4650,148.80,-0.9522,-6.1100,0.0971,0.0173,-0.0396,1.5706,rough,14.0,0,6.494
4660,149.12,-0.9521,-6.1100,0.0971,0.0173,-0.0396,1.5706,rough,14.0,0,6.494
4670,149.44,-0.9521,-6.1100,0.0971,0.0173,-0.0396,1.5706,rough,14.0,0,6.494
4680,149.76,-0.9520,-6.1100,0.0971,0.0173,-0.0396,1.5706,rough,14.0,0,6.494
4690,150.08,-0.9520,-6.1100,0.0971,0.0173,-0.0396,1.5706,rough,14.0,0,6.494
4700,150.40,-0.9519,-6.1100,0.0971,0.0173,-0.0396,1.5706,rough,14.0,0,6.494
4710,150.72,-0.9519,-6.1100,0.0971,0.0173,-0.0396,1.5706,rough,14.0,0,6.494
4720,151.04,-0.9518,-6.1100,0.0971,0.0173,-0.0396,1.5706,rough,14.0,0,6.494
4730,151.36,-0.9518,-6.1100,0.0971,0.0173,-0.0396,1.5706,rough,14.0,0,6.494
4740,151.68,-0.9517,-6.1100,0.0971,0.0173,-0.0396,1.5706,rough,14.0,0,6.494
4750,152.00,-0.9517,-6.1100,0.0971,0.0173,-0.0396,1.5706,rough,14.0,0,6.494
4760,152.32,-0.9516,-6.1100,0.0971,0.0173,-0.0396,1.5706,rough,14.0,0,6.494
4770,152.64,-0.9516,-6.1100,0.0971,0.0173,-0.0396,1.5706,rough,14.0,0,6.494
4780,152.96,-0.9515,-6.1100,0.0971,0.0173,-0.0396,1.5706,rough,14.0,0,6.494
4790,153.28,-0.9515,-6.1100,0.0971,0.0173,-0.0396,1.5706,rough,14.0,0,6.494
4800,153.60,-0.9514,-6.1100,0.0971,0.0173,-0.0396,1.5706,rough,14.0,0,6.494
4810,153.92,-0.9514,-6.1100,0.0971,0.0173,-0.0396,1.5706,rough,14.0,0,6.494
4820,154.24,-0.9513,-6.1100,0.0971,0.0173,-0.0396,1.5706,rough,14.0,0,6.494
4830,154.56,-0.9513,-6.1100,0.0971,0.0173,-0.0396,1.5706,rough,14.0,0,6.494
4840,154.88,-0.9512,-6.1100,0.0971,0.0173,-0.0396,1.5706,rough,14.0,0,6.493
4850,155.20,-0.9512,-6.1100,0.0971,0.0173,-0.0396,1.5706,rough,14.0,0,6.493
4860,155.52,-0.9511,-6.1100,0.0971,0.0173,-0.0396,1.5706,rough,14.0,0,6.493
4870,155.84,-0.9511,-6.1100,0.0971,0.0173,-0.0396,1.5706,rough,14.0,0,6.493
4880,156.16,-0.9510,-6.1100,0.0971,0.0173,-0.0396,1.5706,rough,14.0,0,6.493
4890,156.48,-0.9510,-6.1100,0.0971,0.0173,-0.0396,1.5706,rough,14.0,0,6.493
4900,156.80,-0.9509,-6.1100,0.0971,0.0173,-0.0396,1.5706,rough,14.0,0,6.493
4910,157.12,-0.9509,-6.1100,0.0971,0.0173,-0.0396,1.5706,rough,14.0,0,6.493
4920,157.44,-0.9508,-6.1100,0.0971,0.0173,-0.0396,1.5706,rough,14.0,0,6.493
4930,157.76,-0.9508,-6.1100,0.0971,0.0173,-0.0396,1.5706,rough,14.0,0,6.493
4940,158.08,-0.9507,-6.1100,0.0971,0.0173,-0.0396,1.5706,rough,14.0,0,6.493
4950,158.40,-0.9507,-6.1100,0.0971,0.0173,-0.0396,1.5706,rough,14.0,0,6.493
4960,158.72,-0.9506,-6.1100,0.0971,0.0173,-0.0396,1.5706,rough,14.0,0,6.493
4970,159.04,-0.9506,-6.1100,0.0971,0.0173,-0.0396,1.5706,rough,14.0,0,6.493
4980,159.36,-0.9505,-6.1100,0.0971,0.0173,-0.0396,1.5706,rough,14.0,0,6.493
4990,159.68,-0.9505,-6.1100,0.0971,0.0173,-0.0396,1.5706,rough,14.0,0,6.493
5000,160.00,-0.9504,-6.1100,0.0971,0.0173,-0.0396,1.5706,rough,14.0,0,6.493
5010,160.32,-0.9504,-6.1100,0.0971,0.0173,-0.0396,1.5706,rough,14.0,0,6.493
5020,160.64,-0.9503,-6.1100,0.0971,0.0173,-0.0396,1.5706,rough,14.0,0,6.493
5030,160.96,-0.9503,-6.1100,0.0971,0.0173,-0.0396,1.5706,rough,14.0,0,6.493
5040,161.28,-0.9502,-6.1100,0.0971,0.0173,-0.0396,1.5706,rough,14.0,0,6.493
5050,161.60,-0.9502,-6.1100,0.0971,0.0173,-0.0396,1.5706,rough,14.0,0,6.493
5060,161.92,-0.9501,-6.1100,0.0971,0.0173,-0.0396,1.5706,rough,14.0,0,6.492
5070,162.24,-0.9501,-6.1100,0.0971,0.0173,-0.0396,1.5706,rough,14.0,0,6.492
5080,162.56,-0.9500,-6.1100,0.0971,0.0173,-0.0396,1.5706,rough,14.0,0,6.492
5090,162.88,-0.9500,-6.1100,0.0971,0.0173,-0.0396,1.5706,rough,14.0,0,6.492
5100,163.20,-0.9500,-6.1100,0.0971,0.0173,-0.0396,1.5706,rough,14.0,0,6.492
5110,163.52,-0.9499,-6.1100,0.0971,0.0173,-0.0396,1.5706,rough,14.0,0,6.492
5120,163.84,-0.9499,-6.1100,0.0971,0.0173,-0.0396,1.5706,rough,14.0,0,6.492
5130,164.16,-0.9498,-6.1100,0.0971,0.0173,-0.0396,1.5706,rough,14.0,0,6.492
5140,164.48,-0.9498,-6.1100,0.0971,0.0173,-0.0396,1.5706,rough,14.0,0,6.492
5150,164.80,-0.9497,-6.1100,0.0971,0.0173,-0.0396,1.5706,rough,14.0,0,6.492
5160,165.12,-0.9497,-6.1100,0.0971,0.0173,-0.0396,1.5706,rough,14.0,0,6.492
5170,165.44,-0.9496,-6.1100,0.0971,0.0173,-0.0396,1.5706,rough,14.0,0,6.492
5180,165.76,-0.9496,-6.1100,0.0971,0.0173,-0.0396,1.5706,rough,14.0,0,6.492
5190,166.08,-0.9495,-6.1100,0.0971,0.0173,-0.0396,1.5706,rough,14.0,0,6.492
5200,166.40,-0.9495,-6.1100,0.0971,0.0173,-0.0396,1.5706,rough,14.0,0,6.492
5210,166.72,-0.9494,-6.1100,0.0971,0.0173,-0.0396,1.5706,rough,14.0,0,6.492
5220,167.04,-0.9494,-6.1100,0.0971,0.0173,-0.0396,1.5706,rough,14.0,0,6.492
5230,167.36,-0.9493,-6.1100,0.0971,0.0173,-0.0396,1.5706,rough,14.0,0,6.492
5240,167.68,-0.9493,-6.1100,0.0971,0.0173,-0.0396,1.5706,rough,14.0,0,6.492
5250,168.00,-0.9492,-6.1100,0.0971,0.0173,-0.0396,1.5706,rough,14.0,0,6.492
5260,168.32,-0.9492,-6.1100,0.0971,0.0173,-0.0396,1.5706,rough,14.0,0,6.492
5270,168.64,-0.9491,-6.1100,0.0971,0.0173,-0.0396,1.5706,rough,14.0,0,6.491
5280,168.96,-0.9491,-6.1100,0.0971,0.0173,-0.0396,1.5706,rough,14.0,0,6.491
5290,169.28,-0.9490,-6.1100,0.0971,0.0173,-0.0396,1.5706,rough,14.0,0,6.491
5300,169.60,-0.9490,-6.1100,0.0971,0.0173,-0.0396,1.5706,rough,14.0,0,6.491
5310,169.92,-0.9489,-6.1100,0.0971,0.0173,-0.0396,1.5706,rough,14.0,0,6.491
5320,170.24,-0.9489,-6.1100,0.0971,0.0173,-0.0396,1.5706,rough,14.0,0,6.491
5330,170.56,-0.9489,-6.1100,0.0971,0.0173,-0.0396,1.5706,rough,14.0,0,6.491
5340,170.88,-0.9488,-6.1100,0.0971,0.0173,-0.0396,1.5706,rough,14.0,0,6.491
5350,171.20,-0.9488,-6.1100,0.0971,0.0173,-0.0396,1.5706,rough,14.0,0,6.491
5360,171.52,-0.9487,-6.1100,0.0971,0.0173,-0.0396,1.5706,rough,14.0,0,6.491
5370,171.84,-0.9487,-6.1100,0.0971,0.0173,-0.0396,1.5706,rough,14.0,0,6.491
5380,172.16,-0.9486,-6.1100,0.0971,0.0173,-0.0396,1.5706,rough,14.0,0,6.491
5390,172.48,-0.9486,-6.1100,0.0971,0.0173,-0.0396,1.5706,rough,14.0,0,6.491
5400,172.80,-0.9485,-6.1100,0.0971,0.0173,-0.0396,1.5706,rough,14.0,0,6.491
5410,173.12,-0.9485,-6.1100,0.0971,0.0173,-0.0396,1.5706,rough,14.0,0,6.491
5420,173.44,-0.9484,-6.1100,0.0971,0.0173,-0.0396,1.5706,rough,14.0,0,6.491
5430,173.76,-0.9484,-6.1100,0.0971,0.0173,-0.0396,1.5706,rough,14.0,0,6.491
5440,174.08,-0.9483,-6.1100,0.0971,0.0173,-0.0396,1.5706,rough,14.0,0,6.491
5450,174.40,-0.9483,-6.1100,0.0971,0.0173,-0.0396,1.5706,rough,14.0,0,6.491
5460,174.72,-0.9482,-6.1100,0.0971,0.0173,-0.0396,1.5706,rough,14.0,0,6.491
5470,175.04,-0.9482,-6.1100,0.0971,0.0173,-0.0396,1.5706,rough,14.0,0,6.491
5480,175.36,-0.9481,-6.1100,0.0971,0.0173,-0.0396,1.5706,rough,14.0,0,6.491
5490,175.68,-0.9481,-6.1100,0.0971,0.0173,-0.0396,1.5706,rough,14.0,0,6.490
5500,176.00,-0.9481,-6.1100,0.0971,0.0173,-0.0396,1.5706,rough,14.0,0,6.490
5510,176.32,-0.9480,-6.1100,0.0971,0.0173,-0.0396,1.5706,rough,14.0,0,6.490
5520,176.64,-0.9480,-6.1100,0.0971,0.0173,-0.0396,1.5706,rough,14.0,0,6.490
5530,176.96,-0.9479,-6.1100,0.0971,0.0173,-0.0396,1.5706,rough,14.0,0,6.490
5540,177.28,-0.9479,-6.1100,0.0971,0.0173,-0.0396,1.5706,rough,14.0,0,6.490
5550,177.60,-0.9478,-6.1100,0.0971,0.0173,-0.0396,1.5706,rough,14.0,0,6.490
5560,177.92,-0.9478,-6.1100,0.0971,0.0173,-0.0396,1.5706,rough,14.0,0,6.490
5570,178.24,-0.9477,-6.1100,0.0971,0.0173,-0.0396,1.5706,rough,14.0,0,6.490
5580,178.56,-0.9477,-6.1100,0.0971,0.0173,-0.0396,1.5706,rough,14.0,0,6.490
5590,178.88,-0.9476,-6.1100,0.0971,0.0173,-0.0396,1.5706,rough,14.0,0,6.490
5600,179.20,-0.9476,-6.1100,0.0971,0.0173,-0.0396,1.5706,rough,14.0,0,6.490
5610,179.52,-0.9475,-6.1100,0.0971,0.0173,-0.0396,1.5706,rough,14.0,0,6.490
5620,179.84,-0.9475,-6.1100,0.0971,0.0173,-0.0396,1.5706,rough,14.0,0,6.490
5630,180.16,-0.9474,-6.1100,0.0971,0.0173,-0.0396,1.5706,rough,14.0,0,6.490
5640,180.48,-0.9474,-6.1100,0.0971,0.0173,-0.0396,1.5706,rough,14.0,0,6.490
5650,180.80,-0.9474,-6.1100,0.0971,0.0173,-0.0396,1.5706,rough,14.0,0,6.490
5660,181.12,-0.9473,-6.1100,0.0971,0.0173,-0.0396,1.5706,rough,14.0,0,6.490
5670,181.44,-0.9473,-6.1100,0.0971,0.0173,-0.0396,1.5706,rough,14.0,0,6.490
5680,181.76,-0.9472,-6.1100,0.0971,0.0173,-0.0396,1.5706,rough,14.0,0,6.490
5690,182.08,-0.9472,-6.1100,0.0971,0.0173,-0.0396,1.5706,rough,14.0,0,6.490
5700,182.40,-0.9471,-6.1100,0.0971,0.0173,-0.0396,1.5706,rough,14.0,0,6.490
5710,182.72,-0.9471,-6.1100,0.0971,0.0173,-0.0396,1.5706,rough,14.0,0,6.489
5720,183.04,-0.9470,-6.1100,0.0971,0.0173,-0.0396,1.5706,rough,14.0,0,6.489
5730,183.36,-0.9470,-6.1100,0.0971,0.0173,-0.0396,1.5706,rough,14.0,0,6.489
5740,183.68,-0.9469,-6.1100,0.0971,0.0173,-0.0396,1.5706,rough,14.0,0,6.489
5750,184.00,-0.9469,-6.1100,0.0970,0.0173,-0.0396,1.5706,rough,14.0,0,6.489
5760,184.32,-0.9468,-6.1100,0.0970,0.0173,-0.0396,1.5706,rough,14.0,0,6.489
5770,184.64,-0.9468,-6.1100,0.0970,0.0173,-0.0396,1.5706,rough,14.0,0,6.489
5780,184.96,-0.9468,-6.1100,0.0970,0.0173,-0.0396,1.5706,rough,14.0,0,6.489
5790,185.28,-0.9467,-6.1100,0.0970,0.0173,-0.0396,1.5706,rough,14.0,0,6.489
5800,185.60,-0.9467,-6.1100,0.0970,0.0173,-0.0396,1.5706,rough,14.0,0,6.489
5810,185.92,-0.9466,-6.1100,0.0970,0.0173,-0.0396,1.5706,rough,14.0,0,6.489
5820,186.24,-0.9466,-6.1100,0.0970,0.0173,-0.0396,1.5706,rough,14.0,0,6.489
5830,186.56,-0.9465,-6.1100,0.0970,0.0173,-0.0396,1.5706,rough,14.0,0,6.489
5840,186.88,-0.9465,-6.1100,0.0970,0.0173,-0.0396,1.5706,rough,14.0,0,6.489
5850,187.20,-0.9464,-6.1100,0.0970,0.0173,-0.0396,1.5706,rough,14.0,0,6.489
5860,187.52,-0.9464,-6.1100,0.0970,0.0173,-0.0396,1.5706,rough,14.0,0,6.489
5870,187.84,-0.9463,-6.1100,0.0970,0.0173,-0.0396,1.5706,rough,14.0,0,6.489
5880,188.16,-0.9463,-6.1100,0.0970,0.0173,-0.0396,1.5706,rough,14.0,0,6.489
5890,188.48,-0.9463,-6.1100,0.0970,0.0173,-0.0396,1.5706,rough,14.0,0,6.489
5900,188.80,-0.9462,-6.1100,0.0970,0.0173,-0.0396,1.5706,rough,14.0,0,6.489
5910,189.12,-0.9462,-6.1100,0.0970,0.0173,-0.0396,1.5706,rough,14.0,0,6.489
5920,189.44,-0.9461,-6.1100,0.0970,0.0173,-0.0396,1.5706,rough,14.0,0,6.489
5930,189.76,-0.9461,-6.1100,0.0970,0.0173,-0.0396,1.5706,rough,14.0,0,6.489
5940,190.08,-0.9460,-6.1100,0.0970,0.0173,-0.0396,1.5706,rough,14.0,0,6.488
5950,190.40,-0.9460,-6.1100,0.0970,0.0173,-0.0396,1.5706,rough,14.0,0,6.488
5960,190.72,-0.9459,-6.1100,0.0970,0.0173,-0.0396,1.5706,rough,14.0,0,6.488
5970,191.04,-0.9459,-6.1100,0.0970,0.0173,-0.0396,1.5706,rough,14.0,0,6.488
5980,191.36,-0.9458,-6.1100,0.0970,0.0173,-0.0396,1.5706,rough,14.0,0,6.488
5990,191.68,-0.9458,-6.1100,0.0970,0.0173,-0.0396,1.5706,rough,14.0,0,6.488
6000,192.00,-0.9458,-6.1100,0.0970,0.0173,-0.0396,1.5706,rough,14.0,0,6.488
6010,192.32,-0.9457,-6.1100,0.0970,0.0173,-0.0396,1.5706,rough,14.0,0,6.488
6020,192.64,-0.9457,-6.1100,0.0970,0.0173,-0.0396,1.5706,rough,14.0,0,6.488
6030,192.96,-0.9456,-6.1100,0.0970,0.0172,-0.0396,1.5706,rough,14.0,0,6.488
6040,193.28,-0.9456,-6.1100,0.0970,0.0172,-0.0396,1.5706,rough,14.0,0,6.488
6050,193.60,-0.9455,-6.1100,0.0970,0.0172,-0.0396,1.5706,rough,14.0,0,6.488
6060,193.92,-0.9455,-6.1100,0.0970,0.0172,-0.0396,1.5706,rough,14.0,0,6.488
6070,194.24,-0.9454,-6.1100,0.0970,0.0172,-0.0396,1.5706,rough,14.0,0,6.488
6080,194.56,-0.9454,-6.1100,0.0970,0.0172,-0.0396,1.5706,rough,14.0,0,6.488
6090,194.88,-0.9454,-6.1100,0.0970,0.0172,-0.0396,1.5706,rough,14.0,0,6.488
6100,195.20,-0.9453,-6.1100,0.0970,0.0172,-0.0396,1.5706,rough,14.0,0,6.488
6110,195.52,-0.9453,-6.1100,0.0970,0.0172,-0.0396,1.5706,rough,14.0,0,6.488
6120,195.84,-0.9452,-6.1100,0.0970,0.0172,-0.0396,1.5706,rough,14.0,0,6.488
6130,196.16,-0.9452,-6.1100,0.0970,0.0172,-0.0396,1.5706,rough,14.0,0,6.488
6140,196.48,-0.9451,-6.1100,0.0970,0.0172,-0.0396,1.5706,rough,14.0,0,6.488
6150,196.80,-0.9451,-6.1100,0.0970,0.0172,-0.0396,1.5706,rough,14.0,0,6.488
6160,197.12,-0.9450,-6.1100,0.0970,0.0172,-0.0396,1.5706,rough,14.0,0,6.488
6170,197.44,-0.9450,-6.1100,0.0970,0.0172,-0.0396,1.5706,rough,14.0,0,6.487
6180,197.76,-0.9450,-6.1100,0.0970,0.0172,-0.0396,1.5706,rough,14.0,0,6.487
6190,198.08,-0.9449,-6.1100,0.0970,0.0172,-0.0396,1.5706,rough,14.0,0,6.487
6200,198.40,-0.9449,-6.1100,0.0970,0.0172,-0.0396,1.5706,rough,14.0,0,6.487
6210,198.72,-0.9448,-6.1100,0.0970,0.0172,-0.0396,1.5706,rough,14.0,0,6.487
6220,199.04,-0.9448,-6.1100,0.0970,0.0172,-0.0396,1.5706,rough,14.0,0,6.487
6230,199.36,-0.9447,-6.1100,0.0970,0.0172,-0.0396,1.5706,rough,14.0,0,6.487
6240,199.68,-0.9447,-6.1100,0.0970,0.0172,-0.0396,1.5706,rough,14.0,0,6.487
6250,200.00,-0.9446,-6.1100,0.0970,0.0172,-0.0396,1.5706,rough,14.0,0,6.487
6260,200.32,-0.9446,-6.1100,0.0970,0.0172,-0.0396,1.5706,rough,14.0,0,6.487
6270,200.64,-0.9446,-6.1100,0.0970,0.0172,-0.0396,1.5706,rough,14.0,0,6.487
6280,200.96,-0.9445,-6.1100,0.0970,0.0172,-0.0396,1.5706,rough,14.0,0,6.487
6290,201.28,-0.9445,-6.1100,0.0970,0.0172,-0.0396,1.5706,rough,14.0,0,6.487
6300,201.60,-0.9444,-6.1100,0.0970,0.0172,-0.0396,1.5706,rough,14.0,0,6.487
6310,201.92,-0.9444,-6.1100,0.0970,0.0172,-0.0396,1.5706,rough,14.0,0,6.487
6320,202.24,-0.9443,-6.1100,0.0970,0.0172,-0.0396,1.5706,rough,14.0,0,6.487
6330,202.56,-0.9443,-6.1100,0.0970,0.0172,-0.0396,1.5706,rough,14.0,0,6.487
6340,202.88,-0.9442,-6.1100,0.0970,0.0172,-0.0396,1.5706,rough,14.0,0,6.487
6350,203.20,-0.9442,-6.1100,0.0970,0.0172,-0.0396,1.5706,rough,14.0,0,6.487
6360,203.52,-0.9442,-6.1100,0.0970,0.0172,-0.0396,1.5706,rough,14.0,0,6.487
6370,203.84,-0.9441,-6.1100,0.0970,0.0172,-0.0396,1.5706,rough,14.0,0,6.487
6380,204.16,-0.9441,-6.1100,0.0970,0.0172,-0.0396,1.5706,rough,14.0,0,6.487
6390,204.48,-0.9440,-6.1100,0.0970,0.0172,-0.0396,1.5706,rough,14.0,0,6.487
6400,204.80,-0.9440,-6.1100,0.0970,0.0172,-0.0396,1.5706,rough,14.0,0,6.486
6410,205.12,-0.9439,-6.1100,0.0970,0.0172,-0.0396,1.5706,rough,14.0,0,6.486
6420,205.44,-0.9439,-6.1100,0.0970,0.0172,-0.0396,1.5706,rough,14.0,0,6.486
6430,205.76,-0.9438,-6.1100,0.0970,0.0172,-0.0396,1.5706,rough,14.0,0,6.486
6440,206.08,-0.9438,-6.1100,0.0970,0.0172,-0.0396,1.5706,rough,14.0,0,6.486
6450,206.40,-0.9438,-6.1100,0.0970,0.0172,-0.0396,1.5706,rough,14.0,0,6.486
6460,206.72,-0.9437,-6.1100,0.0970,0.0172,-0.0396,1.5706,rough,14.0,0,6.486
6470,207.04,-0.9437,-6.1100,0.0970,0.0172,-0.0396,1.5706,rough,14.0,0,6.486
6480,207.36,-0.9436,-6.1100,0.0970,0.0172,-0.0396,1.5706,rough,14.0,0,6.486
6490,207.68,-0.9436,-6.1100,0.0970,0.0172,-0.0396,1.5706,rough,14.0,0,6.486
6500,208.00,-0.9435,-6.1100,0.0970,0.0172,-0.0396,1.5706,rough,14.0,0,6.486
6510,208.32,-0.9435,-6.1100,0.0970,0.0172,-0.0396,1.5706,rough,14.0,0,6.486
6520,208.64,-0.9435,-6.1100,0.0970,0.0172,-0.0396,1.5706,rough,14.0,0,6.486
6530,208.96,-0.9434,-6.1100,0.0970,0.0172,-0.0396,1.5706,rough,14.0,0,6.486
6540,209.28,-0.9434,-6.1100,0.0970,0.0172,-0.0396,1.5706,rough,14.0,0,6.486
6550,209.60,-0.9433,-6.1100,0.0970,0.0172,-0.0396,1.5706,rough,14.0,0,6.486
6560,209.92,-0.9433,-6.1100,0.0970,0.0172,-0.0396,1.5706,rough,14.0,0,6.486
6570,210.24,-0.9432,-6.1100,0.0970,0.0172,-0.0396,1.5706,rough,14.0,0,6.486
6580,210.56,-0.9432,-6.1100,0.0970,0.0172,-0.0396,1.5706,rough,14.0,0,6.486
6590,210.88,-0.9432,-6.1100,0.0970,0.0172,-0.0396,1.5706,rough,14.0,0,6.486
6600,211.20,-0.9431,-6.1100,0.0970,0.0172,-0.0396,1.5706,rough,14.0,0,6.486
6610,211.52,-0.9431,-6.1100,0.0970,0.0172,-0.0396,1.5706,rough,14.0,0,6.486
6620,211.84,-0.9430,-6.1100,0.0970,0.0172,-0.0396,1.5706,rough,14.0,0,6.486
6630,212.16,-0.9430,-6.1100,0.0970,0.0172,-0.0396,1.5706,rough,14.0,0,6.486
6640,212.48,-0.9429,-6.1100,0.0970,0.0172,-0.0396,1.5706,rough,14.0,0,6.485
6650,212.80,-0.9429,-6.1100,0.0970,0.0172,-0.0396,1.5706,rough,14.0,0,6.485
6660,213.12,-0.9429,-6.1100,0.0970,0.0172,-0.0396,1.5706,rough,14.0,0,6.485
6670,213.44,-0.9428,-6.1100,0.0970,0.0172,-0.0396,1.5706,rough,14.0,0,6.485
6680,213.76,-0.9428,-6.1100,0.0970,0.0172,-0.0396,1.5706,rough,14.0,0,6.485
6690,214.08,-0.9427,-6.1100,0.0970,0.0172,-0.0396,1.5706,rough,14.0,0,6.485
6700,214.40,-0.9427,-6.1100,0.0970,0.0172,-0.0396,1.5706,rough,14.0,0,6.485
6710,214.72,-0.9426,-6.1100,0.0970,0.0172,-0.0396,1.5706,rough,14.0,0,6.485
6720,215.04,-0.9426,-6.1100,0.0970,0.0172,-0.0396,1.5706,rough,14.0,0,6.485
6730,215.36,-0.9426,-6.1100,0.0970,0.0172,-0.0396,1.5706,rough,14.0,0,6.485
6740,215.68,-0.9425,-6.1100,0.0970,0.0172,-0.0396,1.5706,rough,14.0,0,6.485
6750,216.00,-0.9425,-6.1100,0.0970,0.0172,-0.0396,1.5706,rough,14.0,0,6.485
6760,216.32,-0.9424,-6.1100,0.0970,0.0172,-0.0396,1.5706,rough,14.0,0,6.485
6770,216.64,-0.9424,-6.1100,0.0970,0.0172,-0.0396,1.5706,rough,14.0,0,6.485
6780,216.96,-0.9423,-6.1100,0.0970,0.0172,-0.0396,1.5706,rough,14.0,0,6.485
6790,217.28,-0.9423,-6.1100,0.0970,0.0172,-0.0396,1.5706,rough,14.0,0,6.485
6800,217.60,-0.9423,-6.1100,0.0970,0.0172,-0.0396,1.5706,rough,14.0,0,6.485
6810,217.92,-0.9422,-6.1100,0.0970,0.0172,-0.0396,1.5706,rough,14.0,0,6.485
6820,218.24,-0.9422,-6.1100,0.0970,0.0172,-0.0396,1.5706,rough,14.0,0,6.485
6830,218.56,-0.9421,-6.1100,0.0970,0.0172,-0.0396,1.5706,rough,14.0,0,6.485
6840,218.88,-0.9421,-6.1100,0.0970,0.0172,-0.0396,1.5706,rough,14.0,0,6.485
6850,219.20,-0.9420,-6.1100,0.0970,0.0172,-0.0396,1.5706,rough,14.0,0,6.485
6860,219.52,-0.9420,-6.1100,0.0970,0.0172,-0.0396,1.5706,rough,14.0,0,6.485
6870,219.84,-0.9420,-6.1100,0.0970,0.0172,-0.0396,1.5706,rough,14.0,0,6.485
6880,220.16,-0.9419,-6.1100,0.0970,0.0172,-0.0396,1.5706,rough,14.0,0,6.484
6890,220.48,-0.9419,-6.1100,0.0970,0.0172,-0.0396,1.5706,rough,14.0,0,6.484
6900,220.80,-0.9418,-6.1100,0.0970,0.0172,-0.0396,1.5706,rough,14.0,0,6.484
6910,221.12,-0.9418,-6.1100,0.0970,0.0172,-0.0396,1.5706,rough,14.0,0,6.484
6920,221.44,-0.9417,-6.1100,0.0970,0.0172,-0.0396,1.5706,rough,14.0,0,6.484
6930,221.76,-0.9417,-6.1100,0.0970,0.0172,-0.0396,1.5706,rough,14.0,0,6.484
6940,222.08,-0.9417,-6.1100,0.0970,0.0172,-0.0396,1.5706,rough,14.0,0,6.484
6950,222.40,-0.9416,-6.1100,0.0970,0.0172,-0.0396,1.5706,rough,14.0,0,6.484
6960,222.72,-0.9416,-6.1100,0.0970,0.0172,-0.0396,1.5706,rough,14.0,0,6.484
6970,223.04,-0.9415,-6.1100,0.0970,0.0172,-0.0396,1.5706,rough,14.0,0,6.484
6980,223.36,-0.9415,-6.1100,0.0970,0.0172,-0.0396,1.5706,rough,14.0,0,6.484
6990,223.68,-0.9415,-6.1100,0.0970,0.0172,-0.0396,1.5706,rough,14.0,0,6.484
7000,224.00,-0.9414,-6.1100,0.0970,0.0172,-0.0396,1.5706,rough,14.0,0,6.484
7010,224.32,-0.9414,-6.1100,0.0970,0.0172,-0.0396,1.5706,rough,14.0,0,6.484
7020,224.64,-0.9413,-6.1100,0.0970,0.0172,-0.0396,1.5706,rough,14.0,0,6.484
7030,224.96,-0.9413,-6.1100,0.0970,0.0172,-0.0396,1.5706,rough,14.0,0,6.484
7040,225.28,-0.9412,-6.1100,0.0970,0.0172,-0.0396,1.5706,rough,14.0,0,6.484
7050,225.60,-0.9412,-6.1100,0.0970,0.0172,-0.0396,1.5706,rough,14.0,0,6.484
7060,225.92,-0.9412,-6.1100,0.0970,0.0172,-0.0396,1.5706,rough,14.0,0,6.484
7070,226.24,-0.9411,-6.1100,0.0970,0.0172,-0.0396,1.5706,rough,14.0,0,6.484
7080,226.56,-0.9411,-6.1100,0.0970,0.0172,-0.0396,1.5706,rough,14.0,0,6.484
7090,226.88,-0.9410,-6.1100,0.0970,0.0172,-0.0396,1.5706,rough,14.0,0,6.484
7100,227.20,-0.9410,-6.1100,0.0970,0.0172,-0.0396,1.5706,rough,14.0,0,6.484
7110,227.52,-0.9409,-6.1100,0.0970,0.0172,-0.0396,1.5706,rough,14.0,0,6.484
7120,227.84,-0.9409,-6.1100,0.0970,0.0172,-0.0396,1.5706,rough,14.0,0,6.484
7130,228.16,-0.9409,-6.1100,0.0970,0.0172,-0.0396,1.5706,rough,14.0,0,6.483
7140,228.48,-0.9408,-6.1100,0.0970,0.0172,-0.0396,1.5706,rough,14.0,0,6.483
7150,228.80,-0.9408,-6.1100,0.0970,0.0172,-0.0396,1.5706,rough,14.0,0,6.483
7160,229.12,-0.9407,-6.1100,0.0969,0.0172,-0.0396,1.5706,rough,14.0,0,6.483
7170,229.44,-0.9407,-6.1100,0.0969,0.0172,-0.0396,1.5706,rough,14.0,0,6.483
7180,229.76,-0.9407,-6.1100,0.0969,0.0172,-0.0396,1.5706,rough,14.0,0,6.483
7190,230.08,-0.9406,-6.1100,0.0969,0.0172,-0.0396,1.5706,rough,14.0,0,6.483
7200,230.40,-0.9406,-6.1100,0.0969,0.0172,-0.0396,1.5706,rough,14.0,0,6.483
7210,230.72,-0.9405,-6.1100,0.0969,0.0172,-0.0396,1.5706,rough,14.0,0,6.483
7220,231.04,-0.9405,-6.1100,0.0969,0.0172,-0.0396,1.5706,rough,14.0,0,6.483
7230,231.36,-0.9405,-6.1100,0.0969,0.0172,-0.0396,1.5706,rough,14.0,0,6.483
7240,231.68,-0.9404,-6.1100,0.0969,0.0172,-0.0396,1.5706,rough,14.0,0,6.483
7250,232.00,-0.9404,-6.1100,0.0969,0.0172,-0.0396,1.5706,rough,14.0,0,6.483
7260,232.32,-0.9403,-6.1100,0.0969,0.0172,-0.0396,1.5706,rough,14.0,0,6.483
7270,232.64,-0.9403,-6.1100,0.0969,0.0172,-0.0396,1.5706,rough,14.0,0,6.483
7280,232.96,-0.9402,-6.1100,0.0969,0.0172,-0.0396,1.5706,rough,14.0,0,6.483
7290,233.28,-0.9402,-6.1100,0.0969,0.0172,-0.0396,1.5706,rough,14.0,0,6.483
7300,233.60,-0.9402,-6.1100,0.0969,0.0172,-0.0396,1.5706,rough,14.0,0,6.483
7310,233.92,-0.9401,-6.1100,0.0969,0.0172,-0.0396,1.5706,rough,14.0,0,6.483
7320,234.24,-0.9401,-6.1100,0.0969,0.0172,-0.0396,1.5706,rough,14.0,0,6.483
7330,234.56,-0.9400,-6.1100,0.0969,0.0172,-0.0396,1.5706,rough,14.0,0,6.483
7340,234.88,-0.9400,-6.1100,0.0969,0.0172,-0.0396,1.5706,rough,14.0,0,6.483
7350,235.20,-0.9400,-6.1100,0.0969,0.0172,-0.0396,1.5706,rough,14.0,0,6.483
7360,235.52,-0.9399,-6.1100,0.0969,0.0172,-0.0396,1.5706,rough,14.0,0,6.483
7370,235.84,-0.9399,-6.1100,0.0969,0.0172,-0.0396,1.5706,rough,14.0,0,6.483
7380,236.16,-0.9398,-6.1100,0.0969,0.0172,-0.0396,1.5706,rough,14.0,0,6.482
7390,236.48,-0.9398,-6.1100,0.0969,0.0172,-0.0396,1.5706,rough,14.0,0,6.482
7400,236.80,-0.9398,-6.1100,0.0969,0.0172,-0.0396,1.5706,rough,14.0,0,6.482
7410,237.12,-0.9397,-6.1100,0.0969,0.0172,-0.0396,1.5706,rough,14.0,0,6.482
7420,237.44,-0.9397,-6.1100,0.0969,0.0172,-0.0396,1.5706,rough,14.0,0,6.482
7430,237.76,-0.9396,-6.1100,0.0969,0.0172,-0.0396,1.5706,rough,14.0,0,6.482
7440,238.08,-0.9396,-6.1100,0.0969,0.0172,-0.0396,1.5706,rough,14.0,0,6.482
7450,238.40,-0.9396,-6.1100,0.0969,0.0172,-0.0396,1.5706,rough,14.0,0,6.482
7460,238.72,-0.9395,-6.1100,0.0969,0.0172,-0.0396,1.5706,rough,14.0,0,6.482
7470,239.04,-0.9395,-6.1100,0.0969,0.0172,-0.0396,1.5706,rough,14.0,0,6.482
7480,239.36,-0.9394,-6.1100,0.0969,0.0172,-0.0396,1.5706,rough,14.0,0,6.482
7490,239.68,-0.9394,-6.1100,0.0969,0.0172,-0.0396,1.5706,rough,14.0,0,6.482
7500,240.00,-0.9394,-6.1100,0.0969,0.0172,-0.0396,1.5706,rough,14.0,0,6.482
7510,240.32,-0.9393,-6.1100,0.0969,0.0172,-0.0396,1.5706,rough,14.0,0,6.482
7520,240.64,-0.9393,-6.1100,0.0969,0.0172,-0.0396,1.5706,rough,14.0,0,6.482
7530,240.96,-0.9392,-6.1100,0.0969,0.0172,-0.0396,1.5706,rough,14.0,0,6.482
7540,241.28,-0.9392,-6.1100,0.0969,0.0172,-0.0396,1.5706,rough,14.0,0,6.482
7550,241.60,-0.9391,-6.1100,0.0969,0.0172,-0.0396,1.5706,rough,14.0,0,6.482
7560,241.92,-0.9391,-6.1100,0.0969,0.0172,-0.0396,1.5706,rough,14.0,0,6.482
7570,242.24,-0.9391,-6.1100,0.0969,0.0172,-0.0396,1.5706,rough,14.0,0,6.482
7580,242.56,-0.9390,-6.1100,0.0969,0.0172,-0.0396,1.5706,rough,14.0,0,6.482
7590,242.88,-0.9390,-6.1100,0.0969,0.0172,-0.0396,1.5706,rough,14.0,0,6.482
7600,243.20,-0.9389,-6.1100,0.0969,0.0172,-0.0396,1.5706,rough,14.0,0,6.482
7610,243.52,-0.9389,-6.1100,0.0969,0.0172,-0.0396,1.5706,rough,14.0,0,6.482
7620,243.84,-0.9389,-6.1100,0.0969,0.0172,-0.0396,1.5706,rough,14.0,0,6.482
7630,244.16,-0.9388,-6.1100,0.0969,0.0172,-0.0396,1.5706,rough,14.0,0,6.481
7640,244.48,-0.9388,-6.1100,0.0969,0.0172,-0.0396,1.5706,rough,14.0,0,6.481
7650,244.80,-0.9387,-6.1100,0.0969,0.0172,-0.0396,1.5706,rough,14.0,0,6.481
7660,245.12,-0.9387,-6.1100,0.0969,0.0172,-0.0396,1.5706,rough,14.0,0,6.481
7670,245.44,-0.9387,-6.1100,0.0969,0.0172,-0.0396,1.5706,rough,14.0,0,6.481
7680,245.76,-0.9386,-6.1100,0.0969,0.0172,-0.0396,1.5706,rough,14.0,0,6.481
7690,246.08,-0.9386,-6.1100,0.0969,0.0172,-0.0396,1.5706,rough,14.0,0,6.481
7700,246.40,-0.9385,-6.1100,0.0969,0.0172,-0.0396,1.5706,rough,14.0,0,6.481
7710,246.72,-0.9385,-6.1100,0.0969,0.0172,-0.0396,1.5706,rough,14.0,0,6.481
7720,247.04,-0.9385,-6.1100,0.0969,0.0172,-0.0396,1.5706,rough,14.0,0,6.481
7730,247.36,-0.9384,-6.1100,0.0969,0.0172,-0.0396,1.5706,rough,14.0,0,6.481
7740,247.68,-0.9384,-6.1100,0.0969,0.0172,-0.0396,1.5706,rough,14.0,0,6.481
7750,248.00,-0.9384,-6.1100,0.0969,0.0172,-0.0396,1.5706,rough,14.0,0,6.481
7760,248.32,-0.9383,-6.1100,0.0969,0.0172,-0.0396,1.5706,rough,14.0,0,6.481
7770,248.64,-0.9383,-6.1100,0.0969,0.0172,-0.0396,1.5706,rough,14.0,0,6.481
7780,248.96,-0.9382,-6.1100,0.0969,0.0172,-0.0396,1.5706,rough,14.0,0,6.481
7790,249.28,-0.9382,-6.1100,0.0969,0.0172,-0.0396,1.5706,rough,14.0,0,6.481
7800,249.60,-0.9382,-6.1100,0.0969,0.0172,-0.0396,1.5706,rough,14.0,0,6.481
7810,249.92,-0.9381,-6.1100,0.0969,0.0172,-0.0396,1.5706,rough,14.0,0,6.481
7820,250.24,-0.9381,-6.1100,0.0969,0.0172,-0.0396,1.5706,rough,14.0,0,6.481
7830,250.56,-0.9380,-6.1100,0.0969,0.0172,-0.0396,1.5706,rough,14.0,0,6.481
7840,250.88,-0.9380,-6.1100,0.0969,0.0172,-0.0396,1.5706,rough,14.0,0,6.481
7850,251.20,-0.9380,-6.1100,0.0969,0.0172,-0.0396,1.5706,rough,14.0,0,6.481
7860,251.52,-0.9379,-6.1100,0.0969,0.0172,-0.0396,1.5706,rough,14.0,0,6.481
7870,251.84,-0.9379,-6.1100,0.0969,0.0172,-0.0396,1.5706,rough,14.0,0,6.481
7880,252.16,-0.9378,-6.1100,0.0969,0.0172,-0.0396,1.5706,rough,14.0,0,6.481
7890,252.48,-0.9378,-6.1100,0.0969,0.0172,-0.0396,1.5706,rough,14.0,0,6.480
7900,252.80,-0.9378,-6.1100,0.0969,0.0172,-0.0396,1.5706,rough,14.0,0,6.480
7910,253.12,-0.9377,-6.1100,0.0969,0.0172,-0.0396,1.5706,rough,14.0,0,6.480
7920,253.44,-0.9377,-6.1100,0.0969,0.0172,-0.0396,1.5706,rough,14.0,0,6.480
7930,253.76,-0.9376,-6.1100,0.0969,0.0172,-0.0396,1.5706,rough,14.0,0,6.480
7940,254.08,-0.9376,-6.1100,0.0969,0.0172,-0.0396,1.5706,rough,14.0,0,6.480
