step,time_s,x,y,z,roll,pitch,yaw,terrain,speed,target_idx,dist_to_target
10,0.32,-1.2994,0.8845,0.1835,0.0003,-0.0353,0.0046,rough,14.0,0,6.138
20,0.64,-1.0232,0.8926,0.1798,-0.0008,-0.0002,0.4123,flat,18.0,0,6.369
30,0.96,-0.7196,1.0889,0.1799,-0.0001,-0.0000,0.8705,flat,18.0,0,6.535
40,1.28,-0.4997,1.4211,0.1799,-0.0001,-0.0001,1.2743,flat,18.0,0,6.583
50,1.60,-0.3972,1.8505,0.1799,-0.0000,-0.0000,1.6568,flat,18.0,0,6.509
60,1.92,-0.4660,2.3222,0.1799,-0.0001,-0.0000,1.9509,flat,18.0,0,6.289
70,2.24,-0.6843,2.7779,0.1799,0.0000,-0.0000,2.1693,flat,18.0,0,5.957
80,2.56,-1.0094,3.1907,0.1799,0.0001,-0.0000,2.3331,flat,18.0,0,5.553
90,2.88,-1.4029,3.5574,0.1799,0.0002,-0.0000,2.4655,flat,18.0,0,5.108
100,3.20,-1.8453,3.8797,0.1799,0.0003,-0.0000,2.5890,flat,18.0,0,4.637
110,3.52,-2.3267,4.1528,0.1799,0.0004,-0.0000,2.7037,flat,18.0,0,4.145
120,3.84,-2.8381,4.3743,0.1798,0.0004,-0.0000,2.8108,flat,18.0,0,3.638
130,4.16,-3.3714,4.5433,0.1798,0.0004,-0.0000,2.9124,flat,18.0,0,3.120
140,4.48,-3.9198,4.6593,0.1798,0.0004,-0.0000,3.0109,flat,18.0,0,2.594
150,4.80,-4.4768,4.7218,0.1798,0.0004,-0.0000,3.1104,flat,18.0,0,2.064
160,5.12,-5.0359,4.7283,0.1798,0.0004,0.0000,-3.0685,flat,18.0,0,1.533
170,5.44,-5.5870,4.6767,0.1798,0.0004,0.0000,-2.9523,flat,18.0,0,1.009
180,5.76,-6.0339,4.5995,0.1795,0.0001,-0.0014,-2.7088,flat,18.0,1,6.851
190,6.08,-6.2782,4.4421,0.1778,0.0138,-0.0003,-2.1273,flat,18.0,1,7.107
200,6.40,-6.4402,4.1213,0.1798,0.0001,0.0000,-1.6636,flat,18.0,1,7.304
210,6.72,-6.4552,3.7434,0.1799,-0.0002,-0.0000,-1.2122,flat,18.0,1,7.378
220,7.04,-6.2699,3.3635,0.1799,-0.0001,-0.0001,-0.8926,flat,18.0,1,7.276
230,7.36,-5.9323,3.0254,0.1799,-0.0000,-0.0000,-0.6483,flat,18.0,1,7.040
240,7.68,-5.4983,2.7458,0.1799,-0.0000,-0.0000,-0.4215,flat,18.0,1,6.718
250,8.00,-4.9968,2.5512,0.1799,0.0000,-0.0000,-0.2167,flat,18.0,1,6.325
260,8.32,-4.4579,2.4533,0.1799,0.0001,-0.0000,-0.0413,flat,18.0,1,5.879
270,8.64,-3.9054,2.4470,0.1799,0.0002,-0.0000,0.0998,flat,18.0,1,5.393
280,8.96,-3.3549,2.5149,0.1798,0.0004,-0.0000,0.2061,flat,18.0,1,4.884
290,9.28,-2.8125,2.6397,0.1798,0.0004,-0.0000,0.2918,flat,18.0,1,4.361
300,9.60,-2.2811,2.8101,0.1798,0.0003,-0.0000,0.3644,flat,18.0,1,3.829
310,9.92,-1.7623,3.0186,0.1797,0.0002,-0.0000,0.4286,flat,18.0,1,3.290
320,10.24,-1.2575,3.2602,0.1797,0.0002,-0.0000,0.4881,flat,18.0,1,2.749
330,10.56,-0.7683,3.5317,0.1797,0.0002,-0.0000,0.5463,flat,18.0,1,2.206
340,10.88,-0.2970,3.8316,0.1797,0.0002,-0.0000,0.6054,flat,18.0,1,1.664
350,11.20,0.1538,4.1588,0.1797,0.0002,0.0000,0.6687,flat,18.0,1,1.128
360,11.52,0.5543,4.4946,0.1798,0.0003,0.0003,0.6512,flat,18.0,2,9.374
370,11.84,0.9586,4.7472,0.1799,-0.0001,-0.0000,0.3719,flat,18.0,2,9.179
380,12.16,1.4461,4.9055,0.1799,-0.0001,0.0000,0.1192,flat,18.0,2,8.882
390,12.48,1.9780,4.9452,0.1799,-0.0001,0.0000,-0.0951,flat,18.0,2,8.495
400,12.80,2.5160,4.8744,0.1799,-0.0001,-0.0000,-0.2542,flat,18.0,2,8.045
410,13.12,3.0423,4.7211,0.1799,-0.0004,-0.0000,-0.3686,flat,18.0,2,7.557
420,13.44,3.5524,4.5089,0.1798,-0.0004,-0.0000,-0.4570,flat,18.0,2,7.047
430,13.76,4.0455,4.2521,0.1798,-0.0003,-0.0000,-0.5285,flat,18.0,2,6.522
440,14.08,4.5219,3.9604,0.1797,-0.0002,-0.0000,-0.5882,flat,18.0,2,5.987
450,14.40,4.9822,3.6403,0.1797,-0.0002,-0.0000,-0.6395,flat,18.0,2,5.445
460,14.72,5.4269,3.2964,0.1797,-0.0002,-0.0000,-0.6838,flat,18.0,2,4.898
470,15.04,5.8569,2.9329,0.1797,-0.0001,-0.0000,-0.7232,flat,18.0,2,4.349
480,15.36,6.2733,2.5524,0.1797,-0.0001,-0.0000,-0.7619,flat,18.0,2,3.796
490,15.68,6.6752,2.1559,0.1797,-0.0001,-0.0000,-0.7991,flat,18.0,2,3.243
500,16.00,7.0615,1.7445,0.1797,-0.0001,0.0000,-0.8374,flat,18.0,2,2.689
510,16.32,7.4307,1.3193,0.1797,-0.0001,0.0000,-0.8775,flat,18.0,2,2.136
520,16.64,7.7809,0.8807,0.1797,-0.0002,0.0000,-0.9235,flat,18.0,2,1.587
530,16.96,8.1083,0.4263,0.1797,-0.0002,0.0000,-0.9879,flat,18.0,2,1.042
540,17.28,8.3747,-0.0173,0.1798,0.0002,0.0001,-1.1787,flat,18.0,3,6.389
550,17.60,8.5302,-0.4752,0.1799,0.0000,-0.0000,-1.4947,flat,18.0,3,6.195
560,17.92,8.5432,-0.9852,0.1799,0.0000,-0.0000,-1.7604,flat,18.0,3,5.888
570,18.24,8.4205,-1.4961,0.1799,-0.0001,-0.0000,-1.9581,flat,18.0,3,5.496
580,18.56,8.1963,-1.9817,0.1799,-0.0001,-0.0000,-2.1060,flat,18.0,3,5.052
590,18.88,7.9000,-2.4365,0.1798,-0.0003,-0.0000,-2.2185,flat,18.0,3,4.576
600,19.20,7.5532,-2.8629,0.1798,-0.0004,-0.0000,-2.3053,flat,18.0,3,4.081
610,19.52,7.1694,-3.2564,0.1798,-0.0004,-0.0000,-2.3915,flat,18.0,3,3.579
620,19.84,6.7517,-3.6183,0.1798,-0.0004,-0.0000,-2.4781,flat,18.0,3,3.069
630,20.16,6.3032,-3.9457,0.1798,-0.0004,-0.0000,-2.5673,flat,18.0,3,2.553
640,20.48,5.8269,-4.2337,0.1798,-0.0004,-0.0000,-2.6627,flat,18.0,3,2.035
650,20.80,5.3259,-4.4756,0.1798,-0.0004,-0.0000,-2.7715,flat,18.0,3,1.518
660,21.12,4.8050,-4.6604,0.1799,-0.0001,0.0000,-2.9130,flat,18.0,3,1.013
670,21.44,4.2785,-4.7568,0.1799,0.0000,0.0001,-3.1129,flat,18.0,0,13.986
680,21.76,3.7418,-4.7505,0.1799,-0.0001,-0.0000,2.9803,flat,18.0,0,13.574
690,22.08,3.2571,-4.6640,0.1798,-0.0000,-0.0002,2.9100,flat,18.0,0,13.155
700,22.40,2.7271,-4.5226,0.1798,-0.0004,-0.0000,2.7943,flat,18.0,0,12.670
710,22.72,2.2114,-4.3215,0.1798,-0.0004,-0.0000,2.7081,flat,18.0,0,12.159
720,23.04,1.7106,-4.0767,0.1797,-0.0003,-0.0000,2.6410,flat,18.0,0,11.632
730,23.36,1.2240,-3.7987,0.1797,-0.0002,-0.0000,2.5869,flat,18.0,0,11.093
740,23.68,0.7507,-3.4943,0.1797,-0.0002,-0.0000,2.5434,flat,18.0,0,10.546
750,24.00,0.2893,-3.1696,0.1797,-0.0001,-0.0000,2.5077,flat,18.0,0,9.994
760,24.32,-0.1619,-2.8283,0.1797,-0.0001,-0.0000,2.4767,flat,18.0,0,9.438
770,24.64,-0.6038,-2.4730,0.1797,-0.0001,-0.0000,2.4496,flat,18.0,0,8.879
780,24.96,-1.0371,-2.1057,0.1797,-0.0001,-0.0000,2.4254,flat,18.0,0,8.317
790,25.28,-1.4624,-1.7279,0.1797,-0.0001,-0.0000,2.4030,flat,18.0,0,7.754
800,25.60,-1.8801,-1.3405,0.1797,-0.0001,-0.0000,2.3824,flat,18.0,0,7.189
810,25.92,-2.2904,-0.9444,0.1797,-0.0001,-0.0000,2.3637,flat,18.0,0,6.622
820,26.24,-2.6938,-0.5407,0.1797,-0.0001,-0.0000,2.3465,flat,18.0,0,6.055
830,26.56,-3.0905,-0.1301,0.1797,-0.0001,-0.0000,2.3302,flat,18.0,0,5.486
840,26.88,-3.4807,0.2871,0.1797,-0.0001,-0.0000,2.3145,flat,18.0,0,4.918
850,27.20,-3.8644,0.7103,0.1797,-0.0001,-0.0000,2.2994,flat,18.0,0,4.349
860,27.52,-4.2419,1.1392,0.1797,-0.0001,0.0000,2.2847,flat,18.0,0,3.779
870,27.84,-4.6130,1.5733,0.1797,-0.0001,0.0000,2.2702,flat,18.0,0,3.210
880,28.16,-4.9776,2.0128,0.1797,-0.0001,0.0000,2.2550,flat,18.0,0,2.641
890,28.48,-5.3350,2.4576,0.1797,-0.0001,0.0000,2.2382,flat,18.0,0,2.073
900,28.80,-5.6839,2.9080,0.1797,-0.0001,0.0000,2.2182,flat,18.0,0,1.505
910,29.12,-6.0214,3.3644,0.1797,-0.0001,0.0000,2.1904,flat,18.0,0,0.941
920,29.44,-6.2772,3.7665,0.1798,0.0003,0.0001,1.9145,flat,18.0,1,7.198
930,29.76,-6.3888,4.1512,0.1799,-0.0000,-0.0001,1.4719,flat,18.0,1,7.249
940,30.08,-6.3166,4.5838,0.1799,-0.0002,-0.0000,1.1371,flat,18.0,1,7.134
950,30.40,-6.0783,5.0002,0.1799,-0.0001,-0.0000,0.8876,flat,18.0,1,6.879
960,30.72,-5.7202,5.3696,0.1799,-0.0001,-0.0000,0.6944,flat,18.0,1,6.526
970,31.04,-5.2872,5.6852,0.1799,-0.0001,-0.0000,0.5240,flat,18.0,1,6.117
980,31.36,-4.8011,5.9371,0.1799,-0.0001,-0.0000,0.3725,flat,18.0,1,5.666
990,31.68,-4.2787,6.1215,0.1799,-0.0002,-0.0000,0.2399,flat,18.0,1,5.184
1000,32.00,-3.7337,6.2402,0.1799,-0.0004,-0.0000,0.1239,flat,18.0,1,4.679
1010,32.32,-3.1766,6.2978,0.1798,-0.0004,-0.0000,0.0217,flat,18.0,1,4.158
1020,32.64,-2.6150,6.2997,0.1798,-0.0004,-0.0000,-0.0672,flat,18.0,1,3.625
1030,32.96,-2.0550,6.2533,0.1798,-0.0003,-0.0000,-0.1429,flat,18.0,1,3.085
1040,33.28,-1.5001,6.1652,0.1797,-0.0003,-0.0000,-0.2112,flat,18.0,1,2.542
1050,33.60,-0.9532,6.0397,0.1797,-0.0002,-0.0000,-0.2770,flat,18.0,1,1.997
1060,33.92,-0.4180,5.8783,0.1797,-0.0003,0.0000,-0.3466,flat,18.0,1,1.455
1070,34.24,0.0996,5.6793,0.1798,-0.0004,0.0000,-0.4293,flat,18.0,1,0.920
1080,34.56,0.5993,5.4456,0.1798,-0.0002,-0.0001,-0.4606,flat,18.0,2,9.883
1090,34.88,1.1031,5.1881,0.1797,-0.0001,-0.0000,-0.4946,rough,14.0,2,9.327
1100,35.20,1.5670,4.9344,0.1797,-0.0001,-0.0001,-0.5161,flat,18.0,2,8.806
1110,35.52,2.0577,4.6495,0.1797,-0.0001,-0.0000,-0.5425,flat,18.0,2,8.245
1120,35.84,2.5418,4.3516,0.1797,-0.0001,-0.0000,-0.5660,flat,18.0,2,7.682
1130,36.16,3.0196,4.0424,0.1797,-0.0001,-0.0000,-0.5869,flat,18.0,2,7.117
1140,36.48,3.4916,3.7232,0.1797,-0.0001,-0.0000,-0.6059,flat,18.0,2,6.551
1150,36.80,3.9579,3.3950,0.1797,-0.0001,-0.0000,-0.6233,flat,18.0,2,5.983
1160,37.12,4.4190,3.0587,0.1797,-0.0001,-0.0000,-0.6395,flat,18.0,2,5.415
1170,37.44,4.8749,2.7149,0.1797,-0.0001,-0.0000,-0.6547,flat,18.0,2,4.847
1180,37.76,5.3257,2.3642,0.1797,-0.0001,-0.0000,-0.6692,flat,18.0,2,4.278
1190,38.08,5.7715,2.0069,0.1797,-0.0001,-0.0000,-0.6834,flat,18.0,2,3.708
1200,38.40,6.2122,1.6433,0.1797,-0.0001,0.0000,-0.6977,flat,18.0,2,3.139
1210,38.72,6.6474,1.2735,0.1797,-0.0001,0.0000,-0.7126,flat,18.0,2,2.570
1220,39.04,7.0765,0.8974,0.1797,-0.0001,0.0000,-0.7291,flat,18.0,2,2.001
1230,39.36,7.4982,0.5142,0.1797,-0.0001,0.0000,-0.7492,flat,18.0,2,1.434
1240,39.68,7.9092,0.1231,0.1797,-0.0001,0.0000,-0.7773,flat,18.0,2,0.870
1250,40.00,8.2199,-0.2225,0.1799,0.0003,-0.0000,-1.0337,flat,18.0,3,6.135
1260,40.32,8.4221,-0.6363,0.1799,-0.0000,-0.0000,-1.3687,flat,18.0,3,6.008
1270,40.64,8.4941,-1.1259,0.1800,0.0001,-0.0001,-1.6748,flat,18.0,3,5.766
1280,40.96,8.4161,-1.6359,0.1799,-0.0000,-0.0000,-1.9053,flat,18.0,3,5.418
1290,41.28,8.2180,-2.1261,0.1799,-0.0001,-0.0000,-2.0781,flat,18.0,3,5.001
1300,41.60,7.9350,-2.5829,0.1799,-0.0002,-0.0000,-2.2094,flat,18.0,3,4.544
1310,41.92,7.5920,-3.0081,0.1798,-0.0004,-0.0000,-2.3072,flat,18.0,3,4.062
1320,42.24,7.2077,-3.3977,0.1798,-0.0004,-0.0000,-2.4020,flat,18.0,3,3.569
1330,42.56,6.7865,-3.7529,0.1798,-0.0004,-0.0000,-2.4972,flat,18.0,3,3.067
1340,42.88,6.3321,-4.0701,0.1798,-0.0004,-0.0000,-2.5947,flat,18.0,3,2.558
1350,43.20,5.8485,-4.3440,0.1798,-0.0004,-0.0000,-2.6984,flat,18.0,3,2.046
1360,43.52,5.3399,-4.5672,0.1799,-0.0004,-0.0000,-2.8157,flat,18.0,3,1.534
1370,43.84,4.8122,-4.7285,0.1799,-0.0001,0.0000,-2.9663,flat,18.0,3,1.033
1380,44.16,4.2792,-4.7975,0.1799,-0.0030,0.0036,3.1198,flat,18.0,0,14.013
1390,44.48,3.7402,-4.7648,0.1799,-0.0001,-0.0000,2.9455,flat,18.0,0,13.582
1400,44.80,3.2442,-4.6577,0.1798,-0.0001,-0.0002,2.8661,flat,18.0,0,13.141
1410,45.12,2.7183,-4.4937,0.1798,-0.0004,-0.0000,2.7640,flat,18.0,0,12.644
1420,45.44,2.2069,-4.2772,0.1798,-0.0003,-0.0000,2.6865,flat,18.0,0,12.125
1430,45.76,1.7099,-4.0217,0.1797,-0.0002,-0.0000,2.6253,flat,18.0,0,11.592
1440,46.08,1.2263,-3.7360,0.1797,-0.0002,-0.0000,2.5756,flat,18.0,0,11.049
1450,46.40,0.7556,-3.4264,0.1797,-0.0001,-0.0000,2.5362,flat,18.0,0,10.500
1460,46.72,0.2957,-3.0984,0.1797,-0.0001,-0.0000,2.5028,flat,18.0,0,9.946
1470,47.04,-0.1546,-2.7549,0.1797,-0.0001,-0.0000,2.4737,flat,18.0,0,9.389
1480,47.36,-0.5961,-2.3982,0.1797,-0.0001,-0.0000,2.4481,flat,18.0,0,8.828
1490,47.68,-1.0293,-2.0303,0.1797,-0.0001,-0.0000,2.4252,flat,18.0,0,8.265
1500,48.00,-1.4550,-1.6523,0.1797,-0.0001,-0.0000,2.4040,flat,18.0,0,7.701
1510,48.32,-1.8735,-1.2653,0.1797,-0.0001,-0.0000,2.3844,flat,18.0,0,7.135
1520,48.64,-2.2850,-0.8701,0.1797,-0.0001,-0.0000,2.3666,flat,18.0,0,6.568
1530,48.96,-2.6898,-0.4675,0.1797,-0.0001,-0.0000,2.3501,flat,18.0,0,6.000
1540,49.28,-3.0883,-0.0583,0.1797,-0.0001,-0.0000,2.3346,flat,18.0,0,5.431
1550,49.60,-3.4806,0.3572,0.1797,-0.0001,-0.0000,2.3196,flat,18.0,0,4.862
1560,49.92,-3.8668,0.7785,0.1797,-0.0001,-0.0000,2.3051,flat,18.0,0,4.293
1570,50.24,-4.2469,1.2052,0.1797,-0.0000,0.0000,2.2909,flat,18.0,0,3.723
1580,50.56,-4.6210,1.6372,0.1797,-0.0000,0.0000,2.2768,flat,18.0,0,3.154
1590,50.88,-4.9887,2.0742,0.1797,-0.0001,0.0000,2.2621,flat,18.0,0,2.584
1600,51.20,-5.3494,2.5164,0.1797,-0.0001,0.0000,2.2459,flat,18.0,0,2.016
1610,51.52,-5.7018,2.9641,0.1797,-0.0001,0.0000,2.2262,flat,18.0,0,1.448
1620,51.84,-6.0428,3.4177,0.1797,-0.0001,0.0000,2.1983,flat,18.0,0,0.884
1630,52.16,-6.2883,3.8065,0.1798,0.0003,0.0000,1.8775,flat,18.0,1,7.202
1640,52.48,-6.3871,4.1962,0.1799,0.0001,-0.0000,1.4373,flat,18.0,1,7.241
1650,52.80,-6.3001,4.6298,0.1799,0.0001,-0.0000,1.1115,flat,18.0,1,7.114
1660,53.12,-6.0505,5.0428,0.1799,0.0000,-0.0000,0.8694,flat,18.0,1,6.850
1670,53.44,-5.6852,5.4078,0.1799,-0.0000,-0.0000,0.6796,flat,18.0,1,6.493
1680,53.76,-5.2473,5.7183,0.1799,-0.0001,-0.0000,0.5103,flat,18.0,1,6.080
1690,54.08,-4.7575,5.9645,0.1799,-0.0001,-0.0000,0.3601,flat,18.0,1,5.627
1700,54.40,-4.2326,6.1429,0.1799,-0.0002,-0.0000,0.2286,flat,18.0,1,5.143
1710,54.72,-3.6862,6.2557,0.1799,-0.0004,-0.0000,0.1136,flat,18.0,1,4.637
1720,55.04,-3.1284,6.3077,0.1798,-0.0004,-0.0000,0.0121,flat,18.0,1,4.115
1730,55.36,-2.5668,6.3044,0.1798,-0.0004,-0.0000,-0.0755,flat,18.0,1,3.581
1740,55.68,-2.0073,6.2533,0.1798,-0.0003,-0.0000,-0.1504,flat,18.0,1,3.041
1750,56.00,-1.4531,6.1611,0.1797,-0.0003,-0.0000,-0.2184,flat,18.0,1,2.498
1760,56.32,-0.9073,6.0317,0.1797,-0.0002,-0.0000,-0.2843,flat,18.0,1,1.953
1770,56.64,-0.3735,5.8663,0.1797,-0.0003,0.0000,-0.3546,flat,18.0,1,1.411
1780,56.96,0.1419,5.6630,0.1798,-0.0004,0.0000,-0.4383,flat,18.0,1,0.877
1790,57.28,0.6419,5.4264,0.1798,-0.0002,-0.0001,-0.4646,flat,18.0,2,9.837
1800,57.60,1.1448,5.1670,0.1797,-0.0001,-0.0000,-0.4978,flat,18.0,2,9.281
1810,57.92,1.6401,4.8912,0.1797,-0.0001,-0.0000,-0.5261,flat,18.0,2,8.721
1820,58.24,2.1285,4.6013,0.1797,-0.0001,-0.0000,-0.5509,flat,18.0,2,8.159
1830,58.56,2.6106,4.2993,0.1797,-0.0001,-0.0000,-0.5730,flat,18.0,2,7.595
1840,58.88,3.0867,3.9868,0.1797,-0.0001,-0.0000,-0.5928,flat,18.0,2,7.030
1850,59.20,3.5571,3.6648,0.1797,-0.0001,-0.0000,-0.6107,flat,18.0,2,6.463
1860,59.52,4.0223,3.3343,0.1797,-0.0001,-0.0000,-0.6273,flat,18.0,2,5.895
1870,59.84,4.4823,2.9962,0.1797,-0.0001,-0.0000,-0.6427,flat,18.0,2,5.327
1880,60.16,4.9373,2.6510,0.1797,-0.0001,-0.0000,-0.6572,flat,18.0,2,4.757
1890,60.48,5.3876,2.2991,0.1797,-0.0000,-0.0000,-0.6712,flat,18.0,2,4.188
1900,60.80,5.8329,1.9410,0.1797,-0.0000,-0.0000,-0.6849,flat,18.0,2,3.618
1910,61.12,6.2732,1.5768,0.1797,-0.0000,0.0000,-0.6987,flat,18.0,2,3.049
1920,61.44,6.7081,1.2065,0.1797,-0.0001,0.0000,-0.7132,flat,18.0,2,2.479
1930,61.76,7.1371,0.8301,0.1797,-0.0001,0.0000,-0.7296,flat,18.0,2,1.910
1940,62.08,7.5586,0.4468,0.1797,-0.0001,0.0000,-0.7498,flat,18.0,2,1.343
1950,62.40,7.9688,0.0554,0.1797,-0.0001,0.0000,-0.7793,flat,18.0,3,6.159
1960,62.72,8.2488,-0.2833,0.1799,0.0002,-0.0000,-1.0957,flat,18.0,3,6.113
1970,63.04,8.4316,-0.7150,0.1799,0.0000,-0.0000,-1.4269,flat,18.0,3,5.966
1980,63.36,8.4760,-1.2129,0.1799,0.0000,-0.0001,-1.7205,flat,18.0,3,5.701
1990,63.68,8.3739,-1.7215,0.1799,-0.0000,-0.0000,-1.9395,flat,18.0,3,5.337
2000,64.00,8.1587,-2.2064,0.1799,-0.0001,-0.0000,-2.1033,flat,18.0,3,4.911
2010,64.32,7.8636,-2.6576,0.1799,-0.0003,-0.0000,-2.2275,flat,18.0,3,4.448
2020,64.64,7.5130,-3.0773,0.1798,-0.0004,-0.0000,-2.3230,flat,18.0,3,3.963
2030,64.96,7.1222,-3.4611,0.1798,-0.0004,-0.0000,-2.4175,flat,18.0,3,3.469
2040,65.28,6.6953,-3.8105,0.1798,-0.0004,-0.0000,-2.5129,flat,18.0,3,2.965
2050,65.60,6.2360,-4.1211,0.1798,-0.0004,-0.0000,-2.6112,flat,18.0,3,2.455
2060,65.92,5.7480,-4.3871,0.1798,-0.0004,-0.0000,-2.7167,flat,18.0,3,1.943
2070,66.24,5.2357,-4.6009,0.1799,-0.0003,0.0000,-2.8386,flat,18.0,3,1.433
2080,66.56,4.7061,-4.7494,0.1799,-0.0001,0.0000,-3.0004,flat,18.0,3,0.936
2090,66.88,4.1734,-4.7986,0.1798,-0.0006,0.0006,3.0840,flat,18.0,0,13.933
2100,67.20,3.6336,-4.7476,0.1799,-0.0001,-0.0000,2.9197,flat,18.0,0,13.491
2110,67.52,3.1018,-4.6115,0.1799,-0.0004,-0.0000,2.8049,flat,18.0,0,13.005
2120,67.84,2.5835,-4.4160,0.1798,-0.0004,-0.0000,2.7196,flat,18.0,0,12.493
2130,68.16,2.0795,-4.1771,0.1797,-0.0003,-0.0000,2.6531,flat,18.0,0,11.964
2140,68.48,1.5891,-3.9051,0.1797,-0.0002,-0.0000,2.5997,flat,18.0,0,11.424
2150,68.80,1.1116,-3.6069,0.1797,-0.0002,-0.0000,2.5569,flat,18.0,0,10.877
2160,69.12,0.6456,-3.2885,0.1797,-0.0001,-0.0000,2.5217,flat,18.0,0,10.324
2170,69.44,0.1893,-2.9537,0.1797,-0.0001,-0.0000,2.4913,flat,18.0,0,9.768
2180,69.76,-0.2580,-2.6049,0.1797,-0.0001,-0.0000,2.4646,flat,18.0,0,9.208
2190,70.08,-0.6970,-2.2442,0.1797,-0.0001,-0.0000,2.4411,flat,18.0,0,8.646
2200,70.40,-1.1284,-1.8732,0.1797,-0.0001,-0.0000,2.4197,flat,18.0,0,8.082
2210,70.72,-1.5527,-1.4929,0.1797,-0.0001,-0.0000,2.3999,flat,18.0,0,7.517
2220,71.04,-1.9701,-1.1042,0.1797,-0.0001,-0.0000,2.3817,flat,18.0,0,6.950
2230,71.36,-2.3809,-0.7078,0.1797,-0.0001,-0.0000,2.3650,flat,18.0,0,6.382
2240,71.68,-2.7855,-0.3046,0.1797,-0.0001,-0.0000,2.3495,flat,18.0,0,5.813
2250,72.00,-3.1841,0.1050,0.1797,-0.0001,-0.0000,2.3348,flat,18.0,0,5.244
2260,72.32,-3.5768,0.5203,0.1797,-0.0001,-0.0000,2.3205,flat,18.0,0,4.675
2270,72.64,-3.9636,0.9413,0.1797,-0.0000,-0.0000,2.3066,flat,18.0,0,4.105
2280,72.96,-4.3446,1.3675,0.1797,-0.0000,0.0000,2.2930,flat,18.0,0,3.535
2290,73.28,-4.7197,1.7987,0.1797,-0.0000,0.0000,2.2792,flat,18.0,0,2.965
2300,73.60,-5.0885,2.2349,0.1797,-0.0001,0.0000,2.2647,flat,18.0,0,2.395
2310,73.92,-5.4503,2.6762,0.1797,-0.0001,0.0000,2.2483,flat,18.0,0,1.827
2320,74.24,-5.8035,3.1229,0.1797,-0.0001,0.0000,2.2276,flat,18.0,0,1.260
2330,74.56,-6.1412,3.5722,0.1797,-0.0001,0.0002,2.1794,flat,18.0,1,7.104
2340,74.88,-6.3396,3.9352,0.1799,0.0002,0.0000,1.7481,flat,18.0,1,7.231
2350,75.20,-6.3876,4.3419,0.1799,-0.0001,-0.0001,1.3361,flat,18.0,1,7.226
2360,75.52,-6.2495,4.7741,0.1799,-0.0001,-0.0000,1.0365,flat,18.0,1,7.056
2370,75.84,-5.9614,5.1742,0.1799,-0.0001,-0.0000,0.8103,flat,18.0,1,6.762
2380,76.16,-5.5714,5.5237,0.1799,-0.0001,-0.0000,0.6271,flat,18.0,1,6.386
2390,76.48,-5.1161,5.8156,0.1799,-0.0001,-0.0000,0.4627,flat,18.0,1,5.961
2400,76.80,-4.6141,6.0411,0.1799,-0.0001,-0.0000,0.3176,flat,18.0,1,5.498
2410,77.12,-4.0814,6.1987,0.1799,-0.0003,-0.0000,0.1908,flat,18.0,1,5.007
2420,77.44,-3.5305,6.2918,0.1798,-0.0004,-0.0000,0.0799,flat,18.0,1,4.496
2430,77.76,-2.9707,6.3255,0.1798,-0.0004,-0.0000,-0.0180,flat,18.0,1,3.970
2440,78.08,-2.4094,6.3059,0.1798,-0.0004,-0.0000,-0.1010,flat,18.0,1,3.434
2450,78.40,-1.8513,6.2408,0.1798,-0.0003,-0.0000,-0.1732,flat,18.0,1,2.893
2460,78.72,-1.2996,6.1361,0.1797,-0.0002,-0.0000,-0.2398,flat,18.0,1,2.349
2470,79.04,-0.7571,5.9949,0.1797,-0.0002,0.0000,-0.3060,flat,18.0,1,1.804
2480,79.36,-0.2282,5.8178,0.1798,-0.0003,0.0000,-0.3791,flat,18.0,1,1.264
2490,79.68,0.2775,5.6040,0.1798,-0.0004,0.0002,-0.4367,flat,18.0,2,10.235
2500,80.00,0.7823,5.3579,0.1797,-0.0002,-0.0000,-0.4762,flat,18.0,2,9.684
2510,80.32,1.2391,5.1172,0.1797,-0.0001,-0.0002,-0.4982,flat,18.0,2,9.176
2520,80.64,1.7335,4.8411,0.1797,-0.0001,-0.0000,-0.5267,flat,18.0,2,8.617
2530,80.96,2.2217,4.5509,0.1797,-0.0001,-0.0000,-0.5518,flat,18.0,2,8.055
2540,81.28,2.7033,4.2485,0.1797,-0.0001,-0.0000,-0.5742,flat,18.0,2,7.491
2550,81.60,3.1789,3.9354,0.1797,-0.0001,-0.0000,-0.5943,flat,18.0,2,6.926
2560,81.92,3.6488,3.6127,0.1797,-0.0001,-0.0000,-0.6125,flat,18.0,2,6.359
2570,82.24,4.1132,3.2814,0.1797,-0.0001,-0.0000,-0.6293,flat,18.0,2,5.792
2580,82.56,4.5724,2.9423,0.1797,-0.0001,-0.0000,-0.6450,flat,18.0,2,5.224
2590,82.88,5.0265,2.5960,0.1797,-0.0001,-0.0000,-0.6599,flat,18.0,2,4.655
2600,83.20,5.4756,2.2429,0.1797,-0.0001,-0.0000,-0.6741,flat,18.0,2,4.085
2610,83.52,5.9197,1.8835,0.1797,-0.0000,-0.0000,-0.6882,flat,18.0,2,3.516
2620,83.84,6.3586,1.5178,0.1797,-0.0001,0.0000,-0.7025,flat,18.0,2,2.946
2630,84.16,6.7919,1.1459,0.1797,-0.0001,0.0000,-0.7177,flat,18.0,2,2.377
2640,84.48,7.2188,0.7675,0.1797,-0.0001,0.0000,-0.7350,flat,18.0,2,1.809
2650,84.80,7.6376,0.3820,0.1797,-0.0001,0.0000,-0.7569,flat,18.0,2,1.242
2660,85.12,8.0346,-0.0023,0.1797,-0.0001,0.0003,-0.8241,flat,18.0,3,6.161
2670,85.44,8.2885,-0.3512,0.1799,0.0001,-0.0000,-1.1654,flat,18.0,3,6.096
2680,85.76,8.4469,-0.8011,0.1799,0.0000,-0.0000,-1.4917,flat,18.0,3,5.924
2690,86.08,8.4599,-1.3058,0.1799,0.0000,-0.0000,-1.7705,flat,18.0,3,5.634
2700,86.40,8.3318,-1.8118,0.1799,-0.0000,-0.0000,-1.9760,flat,18.0,3,5.255
2710,86.72,8.0985,-2.2903,0.1799,-0.0001,-0.0000,-2.1303,flat,18.0,3,4.819
2720,87.04,7.7905,-2.7357,0.1799,-0.0003,-0.0000,-2.2460,flat,18.0,3,4.350
2730,87.36,7.4319,-3.1489,0.1798,-0.0004,-0.0000,-2.3406,flat,18.0,3,3.862
2740,87.68,7.0342,-3.5264,0.1798,-0.0004,-0.0000,-2.4347,flat,18.0,3,3.366
2750,88.00,6.6011,-3.8692,0.1798,-0.0004,-0.0000,-2.5301,flat,18.0,3,2.860
2760,88.32,6.1363,-4.1723,0.1798,-0.0004,-0.0000,-2.6292,flat,18.0,3,2.349
2770,88.64,5.6437,-4.4297,0.1798,-0.0004,-0.0000,-2.7369,flat,18.0,3,1.837
2780,88.96,5.1278,-4.6329,0.1799,-0.0003,0.0000,-2.8640,flat,18.0,3,1.328
2790,89.28,4.5967,-4.7672,0.1799,-0.0001,0.0000,-3.0399,flat,18.0,3,0.838
2800,89.60,4.0628,-4.7955,0.1798,-0.0004,0.0002,3.0491,flat,18.0,0,13.846
2810,89.92,3.5629,-4.7326,0.1798,0.0000,0.0001,2.9377,rough,14.0,0,13.428
2820,90.24,3.0839,-4.6221,0.1798,-0.0002,-0.0002,2.8461,flat,18.0,0,12.999
2830,90.56,2.5606,-4.4477,0.1798,-0.0004,-0.0000,2.7485,flat,18.0,0,12.498
2840,90.88,2.0521,-4.2233,0.1798,-0.0003,-0.0000,2.6737,flat,18.0,0,11.977
2850,91.20,1.5580,-3.9614,0.1797,-0.0002,-0.0000,2.6143,flat,18.0,0,11.442
2860,91.52,1.0772,-3.6704,0.1797,-0.0002,-0.0000,2.5660,flat,18.0,0,10.899
2870,91.84,0.6094,-3.3562,0.1797,-0.0001,-0.0000,2.5277,flat,18.0,0,10.349
2880,92.16,0.1520,-3.0242,0.1797,-0.0001,-0.0000,2.4949,flat,18.0,0,9.794
2890,92.48,-0.2957,-2.6771,0.1797,-0.0001,-0.0000,2.4663,flat,18.0,0,9.236
2900,92.80,-0.7346,-2.3171,0.1797,-0.0001,-0.0000,2.4410,flat,18.0,0,8.676
2910,93.12,-1.1653,-1.9461,0.1797,-0.0001,-0.0000,2.4182,flat,18.0,0,8.113
2920,93.44,-1.5885,-1.5652,0.1797,-0.0001,-0.0000,2.3970,flat,18.0,0,7.548
2930,93.76,-2.0044,-1.1753,0.1797,-0.0001,-0.0000,2.3776,flat,18.0,0,6.982
2940,94.08,-2.4132,-0.7772,0.1797,-0.0001,-0.0000,2.3599,flat,18.0,0,6.415
2950,94.40,-2.8154,-0.3720,0.1797,-0.0001,-0.0000,2.3435,flat,18.0,0,5.847
2960,94.72,-3.2111,0.0399,0.1797,-0.0001,-0.0000,2.3279,flat,18.0,0,5.278
2970,95.04,-3.6005,0.4580,0.1797,-0.0001,-0.0000,2.3128,flat,18.0,0,4.709
2980,95.36,-3.9837,0.8819,0.1797,-0.0001,-0.0000,2.2982,flat,18.0,0,4.140
2990,95.68,-4.3608,1.3112,0.1797,-0.0001,0.0000,2.2839,flat,18.0,0,3.570
3000,96.00,-4.7317,1.7457,0.1797,-0.0001,0.0000,2.2695,flat,18.0,0,3.001
3010,96.32,-5.0960,2.1853,0.1797,-0.0001,0.0000,2.2543,flat,18.0,0,2.432
3020,96.64,-5.4529,2.6303,0.1797,-0.0001,0.0000,2.2370,flat,18.0,0,1.863
3030,96.96,-5.8008,3.0810,0.1797,-0.0001,0.0000,2.2155,flat,18.0,0,1.297
3040,97.28,-6.1330,3.5344,0.1797,-0.0001,0.0002,2.1668,flat,18.0,1,7.104
3050,97.60,-6.3274,3.8999,0.1799,0.0002,0.0000,1.7394,flat,18.0,1,7.225
3060,97.92,-6.3717,4.3089,0.1799,-0.0002,-0.0000,1.3319,flat,18.0,1,7.213
3070,98.24,-6.2312,4.7421,0.1799,-0.0001,-0.0000,1.0344,flat,18.0,1,7.039
3080,98.56,-5.9417,5.1426,0.1799,-0.0001,-0.0000,0.8096,flat,18.0,1,6.742
3090,98.88,-5.5513,5.4923,0.1799,-0.0001,-0.0000,0.6278,flat,18.0,1,6.364
3100,99.20,-5.0962,5.7849,0.1799,-0.0001,-0.0000,0.4646,flat,18.0,1,5.938
3110,99.52,-4.5945,6.0114,0.1799,-0.0001,-0.0000,0.3204,flat,18.0,1,5.474
3120,99.84,-4.0622,6.1706,0.1799,-0.0003,-0.0000,0.1943,flat,18.0,1,4.982
3130,100.16,-3.5116,6.2656,0.1798,-0.0004,-0.0000,0.0839,flat,18.0,1,4.471
3140,100.48,-2.9519,6.3016,0.1798,-0.0004,-0.0000,-0.0139,flat,18.0,1,3.945
3150,100.80,-2.3905,6.2841,0.1798,-0.0004,-0.0000,-0.0972,flat,18.0,1,3.409
3160,101.12,-1.8321,6.2212,0.1798,-0.0003,-0.0000,-0.1696,flat,18.0,1,2.868
3170,101.44,-1.2800,6.1185,0.1797,-0.0002,-0.0000,-0.2366,flat,18.0,1,2.323
3180,101.76,-0.7371,5.9790,0.1797,-0.0002,0.0000,-0.3033,flat,18.0,1,1.779
3190,102.08,-0.2080,5.8034,0.1798,-0.0003,0.0000,-0.3773,flat,18.0,1,1.239
3200,102.40,0.2976,5.5907,0.1798,-0.0004,0.0002,-0.4353,flat,18.0,2,10.211
3210,102.72,0.8024,5.3453,0.1797,-0.0002,-0.0000,-0.4752,flat,18.0,2,9.661
3220,103.04,1.2703,5.0989,0.1797,-0.0001,-0.0001,-0.4984,flat,18.0,2,9.140
3230,103.36,1.7647,4.8227,0.1797,-0.0001,-0.0000,-0.5269,flat,18.0,2,8.581
3240,103.68,2.2527,4.5324,0.1797,-0.0001,-0.0000,-0.5521,flat,18.0,2,8.020
3250,104.00,2.7343,4.2299,0.1797,-0.0001,-0.0000,-0.5746,flat,18.0,2,7.456
3260,104.32,3.2097,3.9165,0.1797,-0.0001,-0.0000,-0.5947,flat,18.0,2,6.890
3270,104.64,3.6794,3.5936,0.1797,-0.0001,-0.0000,-0.6131,flat,18.0,2,6.324
3280,104.96,4.1436,3.2621,0.1797,-0.0001,-0.0000,-0.6300,flat,18.0,2,5.756
3290,105.28,4.6025,2.9227,0.1797,-0.0001,-0.0000,-0.6457,flat,18.0,2,5.188
3300,105.60,5.0564,2.5761,0.1797,-0.0001,-0.0000,-0.6606,flat,18.0,2,4.619
3310,105.92,5.5052,2.2227,0.1797,-0.0001,-0.0000,-0.6750,flat,18.0,2,4.050
3320,106.24,5.9489,1.8628,0.1797,-0.0001,-0.0000,-0.6892,flat,18.0,2,3.481
3330,106.56,6.3874,1.4967,0.1797,-0.0001,0.0000,-0.7036,flat,18.0,2,2.911
3340,106.88,6.8201,1.1244,0.1797,-0.0001,0.0000,-0.7190,flat,18.0,2,2.342
3350,107.20,7.2464,0.7454,0.1797,-0.0001,0.0000,-0.7367,flat,18.0,2,1.774
3360,107.52,7.6644,0.3592,0.1797,-0.0001,0.0000,-0.7592,flat,18.0,2,1.208
3370,107.84,8.0600,-0.0259,0.1797,-0.0001,0.0003,-0.8275,flat,18.0,3,6.161
3380,108.16,8.3127,-0.3755,0.1799,0.0001,-0.0000,-1.1698,flat,18.0,3,6.098
3390,108.48,8.4692,-0.8259,0.1799,0.0000,-0.0000,-1.4970,flat,18.0,3,5.926
3400,108.80,8.4796,-1.3305,0.1799,0.0000,-0.0000,-1.7752,flat,18.0,3,5.637
3410,109.12,8.3489,-1.8355,0.1799,-0.0000,-0.0000,-1.9807,flat,18.0,3,5.257
3420,109.44,8.1133,-2.3128,0.1799,-0.0001,-0.0000,-2.1349,flat,18.0,3,4.822
3430,109.76,7.8031,-2.7568,0.1799,-0.0003,-0.0000,-2.2500,flat,18.0,3,4.353
3440,110.08,7.4428,-3.1682,0.1798,-0.0004,-0.0000,-2.3453,flat,18.0,3,3.866
3450,110.40,7.0432,-3.5439,0.1798,-0.0004,-0.0000,-2.4399,flat,18.0,3,3.369
3460,110.72,6.6083,-3.8845,0.1798,-0.0004,-0.0000,-2.5357,flat,18.0,3,2.864
3470,111.04,6.1418,-4.1851,0.1798,-0.0004,-0.0000,-2.6351,flat,18.0,3,2.353
3480,111.36,5.6477,-4.4398,0.1798,-0.0004,-0.0000,-2.7430,flat,18.0,3,1.840
3490,111.68,5.1305,-4.6400,0.1799,-0.0003,0.0000,-2.8701,flat,18.0,3,1.332
3500,112.00,4.5985,-4.7712,0.1799,-0.0001,0.0000,-3.0457,flat,18.0,3,0.841
3510,112.32,4.0643,-4.7967,0.1798,-0.0004,0.0002,3.0437,flat,18.0,0,13.848
3520,112.64,3.5645,-4.7313,0.1798,0.0000,0.0001,2.9332,rough,14.0,0,13.428
3530,112.96,3.0858,-4.6188,0.1798,-0.0002,-0.0002,2.8428,flat,18.0,0,12.998
3540,113.28,2.5629,-4.4428,0.1798,-0.0004,-0.0000,2.7462,flat,18.0,0,12.496
3550,113.60,2.0547,-4.2172,0.1798,-0.0003,-0.0000,2.6721,flat,18.0,0,11.975
3560,113.92,1.5608,-3.9545,0.1797,-0.0002,-0.0000,2.6133,flat,18.0,0,11.440
3570,114.24,1.0802,-3.6630,0.1797,-0.0002,-0.0000,2.5653,flat,18.0,0,10.895
3580,114.56,0.6125,-3.3486,0.1797,-0.0001,-0.0000,2.5274,flat,18.0,0,10.345
3590,114.88,0.1552,-3.0164,0.1797,-0.0001,-0.0000,2.4948,flat,18.0,0,9.791
3600,115.20,-0.2926,-2.6693,0.1797,-0.0001,-0.0000,2.4663,flat,18.0,0,9.233
3610,115.52,-0.7315,-2.3093,0.1797,-0.0001,-0.0000,2.4412,flat,18.0,0,8.672
3620,115.84,-1.1624,-1.9384,0.1797,-0.0001,-0.0000,2.4185,flat,18.0,0,8.109
3630,116.16,-1.5857,-1.5576,0.1797,-0.0001,-0.0000,2.3974,flat,18.0,0,7.544
3640,116.48,-2.0018,-1.1678,0.1797,-0.0001,-0.0000,2.3781,flat,18.0,0,6.978
3650,116.80,-2.4108,-0.7700,0.1797,-0.0001,-0.0000,2.3605,flat,18.0,0,6.411
3660,117.12,-2.8132,-0.3649,0.1797,-0.0001,-0.0000,2.3442,flat,18.0,0,5.843
3670,117.44,-3.2093,0.0467,0.1797,-0.0001,-0.0000,2.3286,flat,18.0,0,5.274
3680,117.76,-3.5990,0.4645,0.1797,-0.0001,-0.0000,2.3135,flat,18.0,0,4.705
3690,118.08,-3.9826,0.8881,0.1797,-0.0001,-0.0000,2.2990,flat,18.0,0,4.135
3700,118.40,-4.3600,1.3171,0.1797,-0.0001,0.0000,2.2848,flat,18.0,0,3.566
3710,118.72,-4.7313,1.7513,0.1797,-0.0001,0.0000,2.2704,flat,18.0,0,2.997
3720,119.04,-5.0960,2.1906,0.1797,-0.0001,0.0000,2.2552,flat,18.0,0,2.427
3730,119.36,-5.4534,2.6353,0.1797,-0.0001,0.0000,2.2380,flat,18.0,0,1.859
3740,119.68,-5.8017,3.0856,0.1797,-0.0001,0.0000,2.2166,flat,18.0,0,1.292
3750,120.00,-6.1344,3.5387,0.1797,-0.0001,0.0002,2.1678,flat,18.0,1,7.104
3760,120.32,-6.3291,3.9039,0.1799,0.0002,0.0000,1.7400,flat,18.0,1,7.226
3770,120.64,-6.3737,4.3127,0.1799,-0.0002,-0.0000,1.3321,flat,18.0,1,7.215
3780,120.96,-6.2334,4.7458,0.1799,-0.0001,-0.0000,1.0345,flat,18.0,1,7.041
3790,121.28,-5.9440,5.1462,0.1799,-0.0001,-0.0000,0.8096,flat,18.0,1,6.744
3800,121.60,-5.5536,5.4959,0.1799,-0.0001,-0.0000,0.6276,flat,18.0,1,6.367
3810,121.92,-5.0984,5.7883,0.1799,-0.0001,-0.0000,0.4643,flat,18.0,1,5.940
3820,122.24,-4.5966,6.0147,0.1799,-0.0001,-0.0000,0.3200,flat,18.0,1,5.476
3830,122.56,-4.0642,6.1737,0.1799,-0.0003,-0.0000,0.1939,flat,18.0,1,4.985
3840,122.88,-3.5136,6.2685,0.1798,-0.0004,-0.0000,0.0834,flat,18.0,1,4.473
3850,123.20,-2.9539,6.3042,0.1798,-0.0004,-0.0000,-0.0144,flat,18.0,1,3.947
3860,123.52,-2.3925,6.2865,0.1798,-0.0004,-0.0000,-0.0976,flat,18.0,1,3.412
3870,123.84,-1.8342,6.2233,0.1798,-0.0003,-0.0000,-0.1700,flat,18.0,1,2.870
3880,124.16,-1.2820,6.1204,0.1797,-0.0002,-0.0000,-0.2369,flat,18.0,1,2.326
3890,124.48,-0.7392,5.9807,0.1797,-0.0002,0.0000,-0.3036,flat,18.0,1,1.782
3900,124.80,-0.2101,5.8050,0.1798,-0.0003,0.0000,-0.3775,flat,18.0,1,1.242
3910,125.12,0.2955,5.5921,0.1798,-0.0004,0.0002,-0.4355,flat,18.0,2,10.213
3920,125.44,0.8003,5.3466,0.1797,-0.0002,-0.0000,-0.4753,flat,18.0,2,9.663
3930,125.76,1.3007,5.0820,0.1797,-0.0001,-0.0000,-0.5065,flat,18.0,2,9.106
3940,126.08,1.7939,4.8018,0.1797,-0.0001,-0.0000,-0.5337,flat,18.0,2,8.546
3950,126.40,2.2804,4.5082,0.1797,-0.0001,-0.0000,-0.5577,flat,18.0,2,7.983
3960,126.72,2.7606,4.2030,0.1797,-0.0001,-0.0000,-0.5791,flat,18.0,2,7.418
3970,127.04,3.2350,3.8875,0.1797,-0.0001,-0.0000,-0.5983,flat,18.0,2,6.852
3980,127.36,3.7038,3.5629,0.1797,-0.0001,-0.0000,-0.6159,flat,18.0,2,6.285
3990,127.68,4.1674,3.2300,0.1797,-0.0001,-0.0000,-0.6321,flat,18.0,2,5.717
4000,128.00,4.6258,2.8897,0.1797,-0.0001,-0.0000,-0.6472,flat,18.0,2,5.149
4010,128.32,5.0794,2.5424,0.1797,-0.0001,-0.0000,-0.6616,flat,18.0,2,4.579
4020,128.64,5.5280,2.1885,0.1797,-0.0000,-0.0000,-0.6755,flat,18.0,2,4.010
4030,128.96,5.9718,1.8285,0.1797,-0.0000,-0.0000,-0.6892,flat,18.0,2,3.440
4040,129.28,6.4104,1.4624,0.1797,-0.0000,0.0000,-0.7032,flat,18.0,2,2.871
4050,129.60,6.8435,1.0902,0.1797,-0.0001,0.0000,-0.7182,flat,18.0,2,2.301
4060,129.92,7.2703,0.7116,0.1797,-0.0001,0.0000,-0.7356,flat,18.0,2,1.733
4070,130.24,7.6888,0.3258,0.1797,-0.0001,0.0000,-0.7579,flat,18.0,2,1.166
4080,130.56,8.0748,-0.0500,0.1798,-0.0001,0.0004,-0.8562,flat,18.0,3,6.154
4090,130.88,8.3201,-0.4075,0.1799,0.0000,-0.0000,-1.1977,flat,18.0,3,6.082
4100,131.20,8.4657,-0.8647,0.1799,-0.0001,-0.0000,-1.5215,flat,18.0,3,5.899
4110,131.52,8.4631,-1.3712,0.1799,-0.0002,0.0000,-1.7911,flat,18.0,3,5.600
4120,131.84,8.3229,-1.8750,0.1799,-0.0001,-0.0000,-1.9945,flat,18.0,3,5.215
4130,132.16,8.0803,-2.3497,0.1799,-0.0001,-0.0000,-2.1454,flat,18.0,3,4.776
4140,132.48,7.7653,-2.7913,0.1798,-0.0003,-0.0000,-2.2574,flat,18.0,3,4.305
4150,132.80,7.4018,-3.2000,0.1798,-0.0004,-0.0000,-2.3525,flat,18.0,3,3.817
4160,133.12,6.9995,-3.5731,0.1798,-0.0004,-0.0000,-2.4470,flat,18.0,3,3.319
4170,133.44,6.5621,-3.9109,0.1798,-0.0004,-0.0000,-2.5430,flat,18.0,3,2.813
4180,133.76,6.0933,-4.2083,0.1798,-0.0004,-0.0000,-2.6430,flat,18.0,3,2.302
4190,134.08,5.5973,-4.4591,0.1798,-0.0004,-0.0000,-2.7521,flat,18.0,3,1.790
4200,134.40,5.0786,-4.6544,0.1799,-0.0002,0.0000,-2.8823,flat,18.0,3,1.282
4210,134.72,4.5463,-4.7786,0.1799,-0.0001,0.0000,-3.0661,flat,18.0,0,14.207
4220,135.04,4.0116,-4.7944,0.1799,-0.0002,0.0001,3.0263,flat,18.0,0,13.807
4230,135.36,3.4730,-4.7139,0.1799,-0.0002,-0.0000,2.8805,flat,18.0,0,13.349
4240,135.68,2.9450,-4.5576,0.1798,-0.0004,-0.0000,2.7764,flat,18.0,0,12.853
4250,136.00,2.4311,-4.3475,0.1798,-0.0003,-0.0000,2.6977,flat,18.0,0,12.335
4260,136.32,1.9313,-4.0976,0.1797,-0.0002,-0.0000,2.6357,flat,18.0,0,11.803
4270,136.64,1.4448,-3.8170,0.1797,-0.0002,-0.0000,2.5855,flat,18.0,0,11.260
4280,136.96,0.9711,-3.5121,0.1797,-0.0001,-0.0000,2.5457,flat,18.0,0,10.711
4290,137.28,0.5081,-3.1885,0.1797,-0.0001,-0.0000,2.5121,flat,18.0,0,10.157
4300,137.60,0.0546,-2.8492,0.1797,-0.0001,-0.0000,2.4829,flat,18.0,0,9.600
4310,137.92,-0.3901,-2.4967,0.1797,-0.0001,-0.0000,2.4573,flat,18.0,0,9.039
4320,138.24,-0.8268,-2.1328,0.1797,-0.0001,-0.0000,2.4345,flat,18.0,0,8.476
4330,138.56,-1.2560,-1.7589,0.1797,-0.0001,-0.0000,2.4137,flat,18.0,0,7.912
4340,138.88,-1.6783,-1.3760,0.1797,-0.0001,-0.0000,2.3943,flat,18.0,0,7.346
4350,139.20,-2.0937,-0.9849,0.1797,-0.0001,-0.0000,2.3766,flat,18.0,0,6.779
4360,139.52,-2.5027,-0.5864,0.1797,-0.0001,-0.0000,2.3603,flat,18.0,0,6.211
4370,139.84,-2.9055,-0.1813,0.1797,-0.0001,-0.0000,2.3451,flat,18.0,0,5.642
4380,140.16,-3.3024,0.2300,0.1797,-0.0001,-0.0000,2.3306,flat,18.0,0,5.073
4390,140.48,-3.6933,0.6470,0.1797,-0.0000,-0.0000,2.3164,flat,18.0,0,4.503
4400,140.80,-4.0785,1.0696,0.1797,-0.0000,-0.0000,2.3027,flat,18.0,0,3.933
4410,141.12,-4.4578,1.4973,0.1797,-0.0000,0.0000,2.2890,flat,18.0,0,3.363
4420,141.44,-4.8311,1.9299,0.1797,-0.0000,0.0000,2.2751,flat,18.0,0,2.793
4430,141.76,-5.1980,2.3675,0.1797,-0.0001,0.0000,2.2602,flat,18.0,0,2.224
4440,142.08,-5.5574,2.8103,0.1797,-0.0001,0.0000,2.2429,flat,18.0,0,1.656
4450,142.40,-5.9074,3.2587,0.1797,-0.0001,0.0000,2.2199,flat,18.0,0,1.089
4460,142.72,-6.2125,3.6864,0.1798,0.0001,0.0003,2.0703,flat,18.0,1,7.150
4470,143.04,-6.3738,4.0503,0.1799,0.0001,-0.0001,1.6124,flat,18.0,1,7.248
4480,143.36,-6.3655,4.4734,0.1799,0.0002,-0.0001,1.2327,flat,18.0,1,7.191
4490,143.68,-6.1772,4.8996,0.1799,0.0000,-0.0000,0.9598,flat,18.0,1,6.979
4500,144.00,-5.8529,5.2850,0.1799,-0.0000,-0.0000,0.7530,flat,18.0,1,6.656
4510,144.32,-5.4411,5.6185,0.1799,-0.0000,-0.0000,0.5757,flat,18.0,1,6.264
4520,144.64,-4.9700,5.8910,0.1799,-0.0001,-0.0000,0.4171,flat,18.0,1,5.826
4530,144.96,-4.4572,6.0959,0.1799,-0.0002,-0.0000,0.2777,flat,18.0,1,5.354
4540,145.28,-3.9179,6.2337,0.1799,-0.0003,-0.0000,0.1560,flat,18.0,1,4.856
4550,145.60,-3.3635,6.3084,0.1798,-0.0004,-0.0000,0.0492,flat,18.0,1,4.340
4560,145.92,-2.8026,6.3253,0.1798,-0.0004,-0.0000,-0.0445,flat,18.0,1,3.811
4570,146.24,-2.2419,6.2912,0.1798,-0.0004,-0.0000,-0.1236,flat,18.0,1,3.273
4580,146.56,-1.6854,6.2137,0.1798,-0.0003,-0.0000,-0.1936,flat,18.0,1,2.730
4590,146.88,-1.1361,6.0978,0.1797,-0.0002,-0.0000,-0.2595,flat,18.0,1,2.186
4600,147.20,-0.5971,5.9458,0.1797,-0.0002,0.0000,-0.3268,flat,18.0,1,1.642
4610,147.52,-0.0736,5.7577,0.1798,-0.0003,0.0000,-0.4041,flat,18.0,1,1.104
4620,147.84,0.4268,5.5327,0.1798,-0.0003,-0.0001,-0.4505,flat,18.0,2,10.073
4630,148.16,0.9328,5.2804,0.1797,-0.0001,-0.0000,-0.4859,flat,18.0,2,9.518
4640,148.48,1.3873,5.0361,0.1797,-0.0001,-0.0001,-0.5070,flat,18.0,2,9.009
4650,148.80,1.8803,4.7556,0.1797,-0.0001,-0.0000,-0.5346,flat,18.0,2,8.449
4660,149.12,2.3664,4.4616,0.1797,-0.0001,-0.0000,-0.5588,flat,18.0,2,7.887
4670,149.44,2.8462,4.1558,0.1797,-0.0001,-0.0000,-0.5804,flat,18.0,2,7.322
4680,149.76,3.3201,3.8397,0.1797,-0.0001,-0.0000,-0.5999,flat,18.0,2,6.757
4690,150.08,3.7883,3.5143,0.1797,-0.0001,-0.0000,-0.6177,flat,18.0,2,6.190
4700,150.40,4.2511,3.1806,0.1797,-0.0001,-0.0000,-0.6341,flat,18.0,2,5.622
4710,150.72,4.7087,2.8393,0.1797,-0.0001,-0.0000,-0.6495,flat,18.0,2,5.053
4720,151.04,5.1614,2.4910,0.1797,-0.0001,-0.0000,-0.6642,flat,18.0,2,4.484
4730,151.36,5.6090,2.1360,0.1797,-0.0001,-0.0000,-0.6784,flat,18.0,2,3.915
4740,151.68,6.0516,1.7746,0.1797,-0.0000,-0.0000,-0.6924,flat,18.0,2,3.345
4750,152.00,6.4888,1.4071,0.1797,-0.0001,0.0000,-0.7069,flat,18.0,2,2.776
4760,152.32,6.9203,1.0333,0.1797,-0.0001,0.0000,-0.7226,flat,18.0,2,2.207
4770,152.64,7.3451,0.6529,0.1797,-0.0001,0.0000,-0.7409,flat,18.0,2,1.639
4780,152.96,7.7608,0.2650,0.1797,-0.0001,0.0000,-0.7651,flat,18.0,2,1.073
4790,153.28,8.1179,-0.0955,0.1798,0.0001,0.0002,-0.9270,flat,18.0,3,6.152
4800,153.60,8.3486,-0.4769,0.1799,-0.0000,-0.0000,-1.2652,flat,18.0,3,6.057
4810,153.92,8.4668,-0.9489,0.1799,-0.0001,-0.0000,-1.5823,flat,18.0,3,5.849
4820,154.24,8.4342,-1.4590,0.1799,-0.0001,0.0000,-1.8357,flat,18.0,3,5.528
4830,154.56,8.2710,-1.9585,0.1799,-0.0001,-0.0000,-2.0267,flat,18.0,3,5.129
4840,154.88,8.0128,-2.4270,0.1799,-0.0002,-0.0000,-2.1693,flat,18.0,3,4.681
4850,155.20,7.6872,-2.8632,0.1798,-0.0004,-0.0000,-2.2743,flat,18.0,3,4.205
4860,155.52,7.3164,-3.2654,0.1798,-0.0004,-0.0000,-2.3688,flat,18.0,3,3.714
4870,155.84,6.9078,-3.6329,0.1798,-0.0004,-0.0000,-2.4631,flat,18.0,3,3.215
4880,156.16,6.4648,-3.9644,0.1798,-0.0004,-0.0000,-2.5592,flat,18.0,3,2.707
4890,156.48,5.9913,-4.2545,0.1798,-0.0004,-0.0000,-2.6602,flat,18.0,3,2.196
4900,156.80,5.4911,-4.4968,0.1798,-0.0004,-0.0000,-2.7721,flat,18.0,3,1.683
4910,157.12,4.9695,-4.6814,0.1799,-0.0002,0.0000,-2.9093,flat,18.0,3,1.178
4920,157.44,4.4397,-4.7853,0.1799,-0.0002,-0.0002,-3.1051,flat,18.0,0,14.129
4930,157.76,3.9008,-4.7851,0.1799,-0.0001,0.0000,2.9958,flat,18.0,0,13.717
4940,158.08,3.4374,-4.7079,0.1798,-0.0000,0.0001,2.9129,rough,14.0,0,13.318
4950,158.40,2.9255,-4.5759,0.1798,-0.0003,-0.0001,2.8138,flat,18.0,0,12.851
4960,158.72,2.4067,-4.3849,0.1798,-0.0004,-0.0000,2.7240,flat,18.0,0,12.344
4970,159.04,1.9025,-4.1482,0.1798,-0.0003,-0.0000,2.6545,flat,18.0,0,11.818
4980,159.36,1.4125,-3.8768,0.1797,-0.0002,-0.0000,2.5988,flat,18.0,0,11.280
4990,159.68,0.9358,-3.5782,0.1797,-0.0002,-0.0000,2.5538,flat,18.0,0,10.734
5000,160.00,0.4712,-3.2583,0.1797,-0.0001,-0.0000,2.5174,flat,18.0,0,10.183
5010,160.32,0.0169,-2.9215,0.1797,-0.0001,-0.0000,2.4859,flat,18.0,0,9.627
5020,160.64,-0.4282,-2.5703,0.1797,-0.0001,-0.0000,2.4584,flat,18.0,0,9.068
5030,160.96,-0.8645,-2.2069,0.1797,-0.0001,-0.0000,2.4340,flat,18.0,0,8.507
5040,161.28,-1.2930,-1.8328,0.1797,-0.0001,-0.0000,2.4117,flat,18.0,0,7.944
5050,161.60,-1.7140,-1.4491,0.1797,-0.0001,-0.0000,2.3910,flat,18.0,0,7.378
5060,161.92,-2.1277,-1.0566,0.1797,-0.0001,-0.0000,2.3722,flat,18.0,0,6.812
5070,162.24,-2.5344,-0.6564,0.1797,-0.0001,-0.0000,2.3549,flat,18.0,0,6.245
5080,162.56,-2.9347,-0.2491,0.1797,-0.0001,-0.0000,2.3388,flat,18.0,0,5.676
5090,162.88,-3.3285,0.1647,0.1797,-0.0001,-0.0000,2.3233,flat,18.0,0,5.108
5100,163.20,-3.7161,0.5846,0.1797,-0.0001,-0.0000,2.3083,flat,18.0,0,4.538
5110,163.52,-4.0975,1.0101,0.1797,-0.0001,-0.0000,2.2939,flat,18.0,0,3.969
5120,163.84,-4.4727,1.4410,0.1797,-0.0001,0.0000,2.2796,flat,18.0,0,3.399
5130,164.16,-4.8417,1.8770,0.1797,-0.0001,0.0000,2.2651,flat,18.0,0,2.830
5140,164.48,-5.2038,2.3182,0.1797,-0.0001,0.0000,2.2494,flat,18.0,0,2.261
5150,164.80,-5.5583,2.7649,0.1797,-0.0001,0.0000,2.2312,flat,18.0,0,1.693
5160,165.12,-5.9029,3.2173,0.1797,-0.0001,0.0000,2.2075,flat,18.0,0,1.127
5170,165.44,-6.2024,3.6492,0.1798,0.0001,0.0003,2.0595,flat,18.0,1,7.148
5180,165.76,-6.3605,4.0151,0.1799,0.0001,-0.0001,1.6033,flat,18.0,1,7.239
5190,166.08,-6.3484,4.4403,0.1799,0.0001,-0.0001,1.2288,flat,18.0,1,7.177
5200,166.40,-6.1580,4.8671,0.1799,0.0000,-0.0000,0.9582,flat,18.0,1,6.961
5210,166.72,-5.8326,5.2528,0.1799,-0.0000,-0.0000,0.7527,flat,18.0,1,6.635
5220,167.04,-5.4207,5.5866,0.1799,-0.0000,-0.0000,0.5768,flat,18.0,1,6.241
5230,167.36,-4.9498,5.8599,0.1799,-0.0001,-0.0000,0.4193,flat,18.0,1,5.802
5240,167.68,-4.4374,6.0661,0.1799,-0.0002,-0.0000,0.2808,flat,18.0,1,5.329
5250,168.00,-3.8984,6.2056,0.1799,-0.0003,-0.0000,0.1597,flat,18.0,1,4.831
5260,168.32,-3.3443,6.2823,0.1798,-0.0004,-0.0000,0.0533,flat,18.0,1,4.314
5270,168.64,-2.7833,6.3015,0.1798,-0.0004,-0.0000,-0.0404,flat,18.0,1,3.785
5280,168.96,-2.2224,6.2697,0.1798,-0.0004,-0.0000,-0.1198,flat,18.0,1,3.247
5290,169.28,-1.6656,6.1944,0.1798,-0.0003,-0.0000,-0.1900,flat,18.0,1,2.704
5300,169.60,-1.1159,6.0804,0.1797,-0.0002,-0.0000,-0.2564,flat,18.0,1,2.160
5310,169.92,-0.5766,5.9302,0.1797,-0.0002,0.0000,-0.3242,flat,18.0,1,1.616
5320,170.24,-0.0529,5.7433,0.1798,-0.0003,0.0000,-0.4026,flat,18.0,1,1.079
5330,170.56,0.4472,5.5194,0.1798,-0.0003,-0.0001,-0.4493,flat,18.0,2,10.048
5340,170.88,0.9534,5.2677,0.1797,-0.0001,-0.0000,-0.4849,flat,18.0,2,9.494
5350,171.20,1.4190,5.0176,0.1797,-0.0001,-0.0001,-0.5072,flat,18.0,2,8.973
5360,171.52,1.9118,4.7370,0.1797,-0.0001,-0.0000,-0.5348,flat,18.0,2,8.413
5370,171.84,2.3979,4.4429,0.1797,-0.0001,-0.0000,-0.5591,flat,18.0,2,7.851
5380,172.16,2.8776,4.1370,0.1797,-0.0001,-0.0000,-0.5808,flat,18.0,2,7.286
5390,172.48,3.3512,3.8206,0.1797,-0.0001,-0.0000,-0.6004,flat,18.0,2,6.721
5400,172.80,3.8192,3.4950,0.1797,-0.0001,-0.0000,-0.6183,flat,18.0,2,6.154
5410,173.12,4.2818,3.1611,0.1797,-0.0001,-0.0000,-0.6348,flat,18.0,2,5.586
5420,173.44,4.7392,2.8195,0.1797,-0.0001,-0.0000,-0.6503,flat,18.0,2,5.017
5430,173.76,5.1916,2.4708,0.1797,-0.0001,-0.0000,-0.6650,flat,18.0,2,4.448
5440,174.08,5.6389,2.1154,0.1797,-0.0001,-0.0000,-0.6793,flat,18.0,2,3.879
5450,174.40,6.0810,1.7537,0.1797,-0.0001,-0.0000,-0.6935,flat,18.0,2,3.310
5460,174.72,6.5179,1.3857,0.1797,-0.0001,0.0000,-0.7081,flat,18.0,2,2.740
5470,175.04,6.9488,1.0114,0.1797,-0.0001,0.0000,-0.7240,flat,18.0,2,2.172
5480,175.36,7.3729,0.6304,0.1797,-0.0001,0.0000,-0.7428,flat,18.0,2,1.604
5490,175.68,7.7876,0.2417,0.1797,-0.0001,0.0000,-0.7677,flat,18.0,2,1.038
5500,176.00,8.1433,-0.1196,0.1798,0.0001,0.0002,-0.9308,flat,18.0,3,6.152
5510,176.32,8.3726,-0.5016,0.1799,-0.0000,-0.0000,-1.2699,flat,18.0,3,6.058
5520,176.64,8.4885,-0.9739,0.1799,-0.0001,-0.0000,-1.5876,flat,18.0,3,5.851
5530,176.96,8.4533,-1.4837,0.1799,-0.0001,0.0000,-1.8406,flat,18.0,3,5.531
5540,177.28,8.2876,-1.9822,0.1799,-0.0001,-0.0000,-2.0314,flat,18.0,3,5.131
5550,177.60,8.0271,-2.4493,0.1799,-0.0002,-0.0000,-2.1739,flat,18.0,3,4.685
5560,177.92,7.6993,-2.8840,0.1798,-0.0004,-0.0000,-2.2787,flat,18.0,3,4.208
5570,178.24,7.3268,-3.2844,0.1798,-0.0004,-0.0000,-2.3737,flat,18.0,3,3.718
5580,178.56,6.9163,-3.6499,0.1798,-0.0004,-0.0000,-2.4684,flat,18.0,3,3.219
5590,178.88,6.4715,-3.9791,0.1798,-0.0004,-0.0000,-2.5650,flat,18.0,3,2.711
5600,179.20,5.9962,-4.2667,0.1798,-0.0004,-0.0000,-2.6663,flat,18.0,3,2.199
5610,179.52,5.4946,-4.5061,0.1798,-0.0004,-0.0000,-2.7783,flat,18.0,3,1.687
5620,179.84,4.9718,-4.6876,0.1799,-0.0002,0.0000,-2.9155,flat,18.0,3,1.181
5630,180.16,4.4412,-4.7886,0.1799,-0.0002,-0.0002,-3.1106,flat,18.0,0,14.132
5640,180.48,3.9021,-4.7854,0.1799,-0.0001,0.0001,2.9911,flat,18.0,0,13.718
5650,180.80,3.4389,-4.7061,0.1798,-0.0000,0.0001,2.9088,rough,14.0,0,13.318
5660,181.12,2.9273,-4.5722,0.1798,-0.0003,-0.0001,2.8109,flat,18.0,0,12.850
5670,181.44,2.4088,-4.3797,0.1798,-0.0004,-0.0000,2.7220,flat,18.0,0,12.341
5680,181.76,1.9049,-4.1419,0.1797,-0.0003,-0.0000,2.6531,flat,18.0,0,11.815
5690,182.08,1.4152,-3.8699,0.1797,-0.0002,-0.0000,2.5979,flat,18.0,0,11.277
5700,182.40,0.9387,-3.5708,0.1797,-0.0002,-0.0000,2.5533,flat,18.0,0,10.731
5710,182.72,0.4742,-3.2507,0.1797,-0.0001,-0.0000,2.5171,flat,18.0,0,10.179
5720,183.04,0.0198,-2.9138,0.1797,-0.0001,-0.0000,2.4858,flat,18.0,0,9.624
5730,183.36,-0.4252,-2.5626,0.1797,-0.0001,-0.0000,2.4584,flat,18.0,0,9.065
5740,183.68,-0.8616,-2.1992,0.1797,-0.0001,-0.0000,2.4342,flat,18.0,0,8.503
5750,184.00,-1.2902,-1.8251,0.1797,-0.0001,-0.0000,2.4120,flat,18.0,0,7.940
5760,184.32,-1.7114,-1.4416,0.1797,-0.0001,-0.0000,2.3914,flat,18.0,0,7.374
5770,184.64,-2.1252,-1.0493,0.1797,-0.0001,-0.0000,2.3727,flat,18.0,0,6.808
5780,184.96,-2.5322,-0.6492,0.1797,-0.0001,-0.0000,2.3555,flat,18.0,0,6.240
5790,185.28,-2.9327,-0.2421,0.1797,-0.0001,-0.0000,2.3394,flat,18.0,0,5.672
5800,185.60,-3.3269,0.1714,0.1797,-0.0001,-0.0000,2.3240,flat,18.0,0,5.103
5810,185.92,-3.7148,0.5910,0.1797,-0.0001,-0.0000,2.3091,flat,18.0,0,4.534
5820,186.24,-4.0965,1.0163,0.1797,-0.0001,-0.0000,2.2947,flat,18.0,0,3.965
5830,186.56,-4.4721,1.4468,0.1797,-0.0001,0.0000,2.2805,flat,18.0,0,3.395
5840,186.88,-4.8415,1.8825,0.1797,-0.0001,0.0000,2.2660,flat,18.0,0,2.826
5850,187.20,-5.2040,2.3235,0.1797,-0.0001,0.0000,2.2503,flat,18.0,0,2.257
5860,187.52,-5.5589,2.7698,0.1797,-0.0001,0.0000,2.2322,flat,18.0,0,1.689
5870,187.84,-5.9040,3.2218,0.1797,-0.0001,0.0000,2.2085,flat,18.0,0,1.123
5880,188.16,-6.2040,3.6534,0.1798,0.0001,0.0003,2.0603,flat,18.0,1,7.148
5890,188.48,-6.3623,4.0191,0.1799,0.0001,-0.0001,1.6039,flat,18.0,1,7.241
5900,188.80,-6.3505,4.4441,0.1799,0.0001,-0.0001,1.2289,flat,18.0,1,7.179
5910,189.12,-6.1602,4.8709,0.1799,0.0000,-0.0000,0.9583,flat,18.0,1,6.963
5920,189.44,-5.8349,5.2565,0.1799,-0.0000,-0.0000,0.7526,flat,18.0,1,6.637
5930,189.76,-5.4229,5.5902,0.1799,-0.0000,-0.0000,0.5766,flat,18.0,1,6.243
5940,190.08,-4.9519,5.8634,0.1799,-0.0001,-0.0000,0.4190,flat,18.0,1,5.804
5950,190.40,-4.4395,6.0694,0.1799,-0.0002,-0.0000,0.2803,flat,18.0,1,5.331
5960,190.72,-3.9005,6.2087,0.1799,-0.0003,-0.0000,0.1592,flat,18.0,1,4.833
5970,191.04,-3.3463,6.2852,0.1798,-0.0004,-0.0000,0.0528,flat,18.0,1,4.317
5980,191.36,-2.7854,6.3041,0.1798,-0.0004,-0.0000,-0.0409,flat,18.0,1,3.787
5990,191.68,-2.2245,6.2720,0.1798,-0.0004,-0.0000,-0.1202,flat,18.0,1,3.250
6000,192.00,-1.6677,6.1964,0.1798,-0.0003,-0.0000,-0.1904,flat,18.0,1,2.707
6010,192.32,-1.1180,6.0822,0.1797,-0.0002,-0.0000,-0.2567,flat,18.0,1,2.163
6020,192.64,-0.5788,5.9318,0.1797,-0.0002,0.0000,-0.3245,flat,18.0,1,1.619
6030,192.96,-0.0551,5.7448,0.1798,-0.0003,0.0000,-0.4028,flat,18.0,1,1.081
6040,193.28,0.4450,5.5207,0.1798,-0.0003,-0.0001,-0.4495,flat,18.0,2,10.051
6050,193.60,0.9512,5.2690,0.1797,-0.0001,-0.0000,-0.4851,flat,18.0,2,9.496
6060,193.92,1.4494,4.9994,0.1797,-0.0001,-0.0000,-0.5151,flat,18.0,2,8.938
6070,194.24,1.9405,4.7150,0.1797,-0.0001,-0.0000,-0.5412,flat,18.0,2,8.377
6080,194.56,2.4251,4.4178,0.1797,-0.0001,-0.0000,-0.5644,flat,18.0,2,7.814
6090,194.88,2.9035,4.1093,0.1797,-0.0001,-0.0000,-0.5851,flat,18.0,2,7.249
6100,195.20,3.3762,3.7910,0.1797,-0.0001,-0.0000,-0.6038,flat,18.0,2,6.682
6110,195.52,3.8434,3.4638,0.1797,-0.0001,-0.0000,-0.6209,flat,18.0,2,6.115
6120,195.84,4.3054,3.1286,0.1797,-0.0001,-0.0000,-0.6367,flat,18.0,2,5.547
6130,196.16,4.7624,2.7861,0.1797,-0.0001,-0.0000,-0.6516,flat,18.0,2,4.978
6140,196.48,5.2145,2.4368,0.1797,-0.0001,-0.0000,-0.6658,flat,18.0,2,4.409
6150,196.80,5.6617,2.0811,0.1797,-0.0000,-0.0000,-0.6796,flat,18.0,2,3.839
6160,197.12,6.1039,1.7192,0.1797,-0.0000,-0.0000,-0.6933,flat,18.0,2,3.269
6170,197.44,6.5410,1.3513,0.1797,-0.0001,0.0000,-0.7076,flat,18.0,2,2.700
6180,197.76,6.9723,0.9772,0.1797,-0.0001,0.0000,-0.7231,flat,18.0,2,2.131
6190,198.08,7.3968,0.5966,0.1797,-0.0001,0.0000,-0.7415,flat,18.0,2,1.563
6200,198.40,7.8121,0.2085,0.1797,-0.0001,0.0000,-0.7663,flat,18.0,2,0.997
6210,198.72,8.1550,-0.1448,0.1798,0.0002,0.0001,-0.9603,flat,18.0,3,6.143
6220,199.04,8.3774,-0.5363,0.1799,-0.0000,-0.0000,-1.2980,flat,18.0,3,6.039
6230,199.36,8.4818,-1.0141,0.1799,0.0000,-0.0000,-1.6146,flat,18.0,3,5.822
6240,199.68,8.4343,-1.5246,0.1799,0.0000,-0.0000,-1.8605,flat,18.0,3,5.492
6250,200.00,8.2592,-2.0210,0.1799,-0.0001,-0.0000,-2.0442,flat,18.0,3,5.088
6260,200.32,7.9925,-2.4854,0.1799,-0.0002,-0.0000,-2.1835,flat,18.0,3,4.638
6270,200.64,7.6606,-2.9178,0.1798,-0.0004,-0.0000,-2.2859,flat,18.0,3,4.159
6280,200.96,7.2851,-3.3154,0.1798,-0.0004,-0.0000,-2.3808,flat,18.0,3,3.669
6290,201.28,6.8718,-3.6784,0.1798,-0.0004,-0.0000,-2.4756,flat,18.0,3,3.168
6300,201.60,6.4246,-4.0047,0.1798,-0.0004,-0.0000,-2.5725,flat,18.0,3,2.660
6310,201.92,5.9473,-4.2888,0.1798,-0.0004,-0.0000,-2.6745,flat,18.0,3,2.148
6320,202.24,5.4438,-4.5240,0.1798,-0.0004,-0.0000,-2.7881,flat,18.0,3,1.636
6330,202.56,4.9197,-4.7002,0.1799,-0.0001,0.0000,-2.9294,flat,18.0,3,1.132
6340,202.88,4.3888,-4.7909,0.1799,-0.0000,-0.0002,-3.1223,flat,18.0,0,14.093
6350,203.20,3.8495,-4.7798,0.1799,-0.0001,-0.0001,2.9777,flat,18.0,0,13.675
6360,203.52,3.3132,-4.6737,0.1799,-0.0003,-0.0000,2.8458,flat,18.0,0,13.203
6370,203.84,2.7894,-4.4994,0.1798,-0.0004,-0.0000,2.7506,flat,18.0,0,12.700
6380,204.16,2.2798,-4.2762,0.1798,-0.0003,-0.0000,2.6776,flat,18.0,0,12.177
6390,204.48,1.7841,-4.0162,0.1797,-0.0002,-0.0000,2.6196,flat,18.0,0,11.641
6400,204.80,1.3014,-3.7278,0.1797,-0.0002,-0.0000,2.5725,flat,18.0,0,11.096
6410,205.12,0.8313,-3.4168,0.1797,-0.0001,-0.0000,2.5351,flat,18.0,0,10.545
6420,205.44,0.3712,-3.0881,0.1797,-0.0001,-0.0000,2.5029,flat,18.0,0,9.990
6430,205.76,-0.0796,-2.7447,0.1797,-0.0001,-0.0000,2.4749,flat,18.0,0,9.432
6440,206.08,-0.5219,-2.3886,0.1797,-0.0001,-0.0000,2.4502,flat,18.0,0,8.870
6450,206.40,-0.9563,-2.0215,0.1797,-0.0001,-0.0000,2.4281,flat,18.0,0,8.307
6460,206.72,-1.3834,-1.6449,0.1797,-0.0001,-0.0000,2.4077,flat,18.0,0,7.742
6470,207.04,-1.8036,-1.2595,0.1797,-0.0001,-0.0000,2.3888,flat,18.0,0,7.176
6480,207.36,-2.2170,-0.8661,0.1797,-0.0001,-0.0000,2.3716,flat,18.0,0,6.608
6490,207.68,-2.6241,-0.4655,0.1797,-0.0001,-0.0000,2.3557,flat,18.0,0,6.040
6500,208.00,-3.0251,-0.0585,0.1797,-0.0001,-0.0000,2.3407,flat,18.0,0,5.471
6510,208.32,-3.4202,0.3546,0.1797,-0.0001,-0.0000,2.3263,flat,18.0,0,4.902
6520,208.64,-3.8094,0.7733,0.1797,-0.0000,-0.0000,2.3123,flat,18.0,0,4.332
6530,208.96,-4.1928,1.1974,0.1797,-0.0000,-0.0000,2.2986,flat,18.0,0,3.762
6540,209.28,-4.5704,1.6266,0.1797,-0.0000,0.0000,2.2849,flat,18.0,0,3.192
6550,209.60,-4.9418,2.0607,0.1797,-0.0000,0.0000,2.2708,flat,18.0,0,2.622
6560,209.92,-5.3066,2.4998,0.1797,-0.0001,0.0000,2.2554,flat,18.0,0,2.053
6570,210.24,-5.6636,2.9443,0.1797,-0.0001,0.0000,2.2368,flat,18.0,0,1.485
6580,210.56,-6.0099,3.3944,0.1797,-0.0001,0.0000,2.2108,flat,18.0,0,0.921
6590,210.88,-6.2739,3.7904,0.1798,0.0003,0.0001,1.9315,flat,18.0,1,7.191
6600,211.20,-6.3915,4.1723,0.1799,-0.0000,-0.0001,1.4856,flat,18.0,1,7.249
6610,211.52,-6.3258,4.6035,0.1799,-0.0002,-0.0000,1.1460,flat,18.0,1,7.142
6620,211.84,-6.0921,5.0205,0.1799,-0.0001,-0.0000,0.8934,flat,18.0,1,6.892
6630,212.16,-5.7368,5.3906,0.1799,-0.0001,-0.0000,0.6982,flat,18.0,1,6.544
6640,212.48,-5.3052,5.7071,0.1799,-0.0001,-0.0000,0.5261,flat,18.0,1,6.137
6650,212.80,-4.8198,5.9597,0.1799,-0.0001,-0.0000,0.3733,flat,18.0,1,5.688
6660,213.12,-4.2977,6.1442,0.1799,-0.0002,-0.0000,0.2394,flat,18.0,1,5.207
6670,213.44,-3.7528,6.2625,0.1799,-0.0004,-0.0000,0.1225,flat,18.0,1,4.703
6680,213.76,-3.1956,6.3193,0.1798,-0.0004,-0.0000,0.0196,flat,18.0,1,4.182
6690,214.08,-2.6342,6.3200,0.1798,-0.0004,-0.0000,-0.0696,flat,18.0,1,3.650
6700,214.40,-2.0744,6.2722,0.1798,-0.0003,-0.0000,-0.1453,flat,18.0,1,3.111
6710,214.72,-1.5197,6.1828,0.1797,-0.0003,-0.0000,-0.2136,flat,18.0,1,2.567
6720,215.04,-0.9731,6.0559,0.1797,-0.0002,-0.0000,-0.2793,flat,18.0,1,2.022
6730,215.36,-0.4382,5.8933,0.1797,-0.0003,0.0000,-0.3484,flat,18.0,1,1.480
6740,215.68,0.0793,5.6935,0.1798,-0.0004,0.0000,-0.4300,flat,18.0,1,0.944
6750,216.00,0.5793,5.4590,0.1798,-0.0002,-0.0001,-0.4615,flat,18.0,2,9.907
6760,216.32,1.0750,5.2065,0.1797,-0.0001,0.0003,-0.4921,rough,14.0,2,9.360
6770,216.64,1.5359,4.9536,0.1797,-0.0001,-0.0001,-0.5157,flat,18.0,2,8.842
6780,216.96,2.0268,4.6688,0.1797,-0.0001,-0.0000,-0.5421,flat,18.0,2,8.281
6790,217.28,2.5110,4.3711,0.1797,-0.0001,-0.0000,-0.5655,flat,18.0,2,7.718
6800,217.60,2.9890,4.0621,0.1797,-0.0001,-0.0000,-0.5865,flat,18.0,2,7.153
6810,217.92,3.4611,3.7431,0.1797,-0.0001,-0.0000,-0.6054,flat,18.0,2,6.587
6820,218.24,3.9277,3.4152,0.1797,-0.0001,-0.0000,-0.6228,flat,18.0,2,6.019
6830,218.56,4.3889,3.0791,0.1797,-0.0001,-0.0000,-0.6389,flat,18.0,2,5.451
6840,218.88,4.8451,2.7356,0.1797,-0.0001,-0.0000,-0.6540,flat,18.0,2,4.883
6850,219.20,5.2962,2.3852,0.1797,-0.0001,-0.0000,-0.6685,flat,18.0,2,4.314
6860,219.52,5.7423,2.0283,0.1797,-0.0001,-0.0000,-0.6826,flat,18.0,2,3.744
6870,219.84,6.1833,1.6651,0.1797,-0.0000,0.0000,-0.6967,flat,18.0,2,3.175
6880,220.16,6.6189,1.2957,0.1797,-0.0001,0.0000,-0.7114,flat,18.0,2,2.605
6890,220.48,7.0485,0.9200,0.1797,-0.0001,0.0000,-0.7277,flat,18.0,2,2.037
6900,220.80,7.4709,0.5375,0.1797,-0.0001,0.0000,-0.7474,flat,18.0,2,1.469
6910,221.12,7.8830,0.1470,0.1797,-0.0001,0.0000,-0.7745,flat,18.0,2,0.905
6920,221.44,8.1949,-0.1978,0.1799,0.0003,-0.0000,-1.0298,flat,18.0,3,6.134
6930,221.76,8.3986,-0.6112,0.1799,-0.0000,-0.0000,-1.3639,flat,18.0,3,6.007
6940,222.08,8.4732,-1.1006,0.1799,0.0001,-0.0000,-1.6702,flat,18.0,3,5.764
6950,222.40,8.3976,-1.6113,0.1799,-0.0000,-0.0000,-1.9005,flat,18.0,3,5.415
6960,222.72,8.2019,-2.1026,0.1799,-0.0001,-0.0000,-2.0734,flat,18.0,3,4.998
6970,223.04,7.9212,-2.5608,0.1799,-0.0002,-0.0000,-2.2049,flat,18.0,3,4.541
6980,223.36,7.5801,-2.9876,0.1798,-0.0004,-0.0000,-2.3027,flat,18.0,3,4.058
6990,223.68,7.1976,-3.3791,0.1798,-0.0004,-0.0000,-2.3970,flat,18.0,3,3.566
7000,224.00,6.7783,-3.7363,0.1798,-0.0004,-0.0000,-2.4916,flat,18.0,3,3.063
7010,224.32,6.3257,-4.0560,0.1798,-0.0004,-0.0000,-2.5888,flat,18.0,3,2.554
7020,224.64,5.8438,-4.3325,0.1798,-0.0004,-0.0000,-2.6922,flat,18.0,3,2.042
7030,224.96,5.3366,-4.5588,0.1799,-0.0004,-0.0000,-2.8095,flat,18.0,3,1.530
7040,225.28,4.8100,-4.7232,0.1799,-0.0001,0.0000,-2.9602,flat,18.0,3,1.030
7050,225.60,4.2776,-4.7948,0.1799,-0.0030,0.0036,3.1259,flat,18.0,0,14.010
7060,225.92,3.7387,-4.7653,0.1799,-0.0001,-0.0000,2.9499,rough,14.0,0,13.582
7070,226.24,3.2957,-4.6745,0.1798,-0.0001,-0.0003,2.8937,flat,18.0,0,13.191
7080,226.56,2.7682,-4.5244,0.1798,-0.0004,-0.0001,2.7842,flat,18.0,0,12.701
7090,226.88,2.2538,-4.3183,0.1798,-0.0004,-0.0000,2.7014,flat,18.0,0,12.187
7100,227.20,1.7540,-4.0701,0.1797,-0.0002,-0.0000,2.6366,flat,18.0,0,11.658
7110,227.52,1.2680,-3.7900,0.1797,-0.0002,-0.0000,2.5842,flat,18.0,0,11.117
7120,227.84,0.7952,-3.4844,0.1797,-0.0001,-0.0000,2.5423,flat,18.0,0,10.569
7130,228.16,0.3338,-3.1591,0.1797,-0.0001,-0.0000,2.5075,flat,18.0,0,10.017
7140,228.48,-0.1177,-2.8178,0.1797,-0.0001,-0.0000,2.4773,flat,18.0,0,9.460
7150,228.80,-0.5601,-2.4627,0.1797,-0.0001,-0.0000,2.4508,flat,18.0,0,8.900
7160,229.12,-0.9940,-2.0959,0.1797,-0.0001,-0.0000,2.4271,flat,18.0,0,8.338
7170,229.44,-1.4202,-1.7189,0.1797,-0.0001,-0.0000,2.4053,flat,18.0,0,7.774
7180,229.76,-1.8389,-1.3324,0.1797,-0.0001,-0.0000,2.3852,flat,18.0,0,7.209
7190,230.08,-2.2505,-0.9375,0.1797,-0.0001,-0.0000,2.3668,flat,18.0,0,6.642
7200,230.40,-2.6553,-0.5351,0.1797,-0.0001,-0.0000,2.3500,flat,18.0,0,6.074
7210,230.72,-3.0536,-0.1258,0.1797,-0.0001,-0.0000,2.3340,flat,18.0,0,5.506
7220,231.04,-3.4455,0.2898,0.1797,-0.0001,-0.0000,2.3187,flat,18.0,0,4.937
7230,231.36,-3.8312,0.7115,0.1797,-0.0001,-0.0000,2.3039,flat,18.0,0,4.368
7240,231.68,-4.2108,1.1387,0.1797,-0.0001,0.0000,2.2896,flat,18.0,0,3.798
7250,232.00,-4.5841,1.5711,0.1797,-0.0001,0.0000,2.2753,flat,18.0,0,3.229
7260,232.32,-4.9511,2.0087,0.1797,-0.0001,0.0000,2.2605,flat,18.0,0,2.660
7270,232.64,-5.3111,2.4515,0.1797,-0.0001,0.0000,2.2442,flat,18.0,0,2.091
7280,232.96,-5.6629,2.8999,0.1797,-0.0001,0.0000,2.2249,flat,18.0,0,1.523
7290,233.28,-6.0036,3.3541,0.1797,-0.0001,0.0000,2.1981,flat,18.0,0,0.959
7300,233.60,-6.2626,3.7539,0.1798,0.0003,0.0001,1.9217,flat,18.0,1,7.186
7310,233.92,-6.3767,4.1377,0.1799,-0.0001,-0.0001,1.4791,flat,18.0,1,7.239
7320,234.24,-6.3078,4.5706,0.1799,-0.0002,-0.0000,1.1431,flat,18.0,1,7.126
7330,234.56,-6.0724,4.9880,0.1799,-0.0001,-0.0000,0.8922,flat,18.0,1,6.873
7340,234.88,-5.7163,5.3584,0.1799,-0.0001,-0.0000,0.6983,flat,18.0,1,6.522
7350,235.20,-5.2847,5.6753,0.1799,-0.0001,-0.0000,0.5276,flat,18.0,1,6.113
7360,235.52,-4.7996,5.9288,0.1799,-0.0001,-0.0000,0.3758,flat,18.0,1,5.663
7370,235.84,-4.2778,6.1147,0.1799,-0.0002,-0.0000,0.2427,flat,18.0,1,5.181
7380,236.16,-3.7332,6.2349,0.1799,-0.0004,-0.0000,0.1264,flat,18.0,1,4.677
7390,236.48,-3.1763,6.2938,0.1798,-0.0004,-0.0000,0.0238,flat,18.0,1,4.156
7400,236.80,-2.6148,6.2969,0.1798,-0.0004,-0.0000,-0.0655,flat,18.0,1,3.624
7410,237.12,-2.0547,6.2513,0.1798,-0.0003,-0.0000,-0.1416,flat,18.0,1,3.084
7420,237.44,-1.4998,6.1640,0.1797,-0.0003,-0.0000,-0.2101,flat,18.0,1,2.541
7430,237.76,-0.9528,6.0390,0.1797,-0.0002,-0.0000,-0.2762,flat,18.0,1,1.996
7440,238.08,-0.4174,5.8780,0.1797,-0.0003,0.0000,-0.3461,flat,18.0,1,1.454
7450,238.40,0.1002,5.6794,0.1798,-0.0004,0.0000,-0.4290,flat,18.0,1,0.919
7460,238.72,0.5999,5.4458,0.1798,-0.0002,-0.0001,-0.4604,flat,18.0,2,9.882
7470,239.04,1.1037,5.1885,0.1797,-0.0001,-0.0000,-0.4944,rough,14.0,2,9.327
7480,239.36,1.5677,4.9349,0.1797,-0.0001,-0.0001,-0.5159,flat,18.0,2,8.805
7490,239.68,2.0584,4.6500,0.1797,-0.0001,-0.0000,-0.5424,flat,18.0,2,8.244
7500,240.00,2.5425,4.3522,0.1797,-0.0001,-0.0000,-0.5659,flat,18.0,2,7.681
7510,240.32,3.0203,4.0430,0.1797,-0.0001,-0.0000,-0.5869,flat,18.0,2,7.117
7520,240.64,3.4923,3.7238,0.1797,-0.0001,-0.0000,-0.6059,flat,18.0,2,6.550
7530,240.96,3.9586,3.3956,0.1797,-0.0001,-0.0000,-0.6234,flat,18.0,2,5.983
7540,241.28,4.4197,3.0593,0.1797,-0.0001,-0.0000,-0.6395,flat,18.0,2,5.415
7550,241.60,4.8755,2.7155,0.1797,-0.0001,-0.0000,-0.6547,flat,18.0,2,4.847
7560,241.92,5.3264,2.3647,0.1797,-0.0001,-0.0000,-0.6693,flat,18.0,2,4.278
7570,242.24,5.7721,2.0074,0.1797,-0.0001,-0.0000,-0.6835,flat,18.0,2,3.708
7580,242.56,6.2127,1.6438,0.1797,-0.0001,0.0000,-0.6978,flat,18.0,2,3.139
7590,242.88,6.6478,1.2740,0.1797,-0.0001,0.0000,-0.7127,flat,18.0,2,2.570
7600,243.20,7.0769,0.8977,0.1797,-0.0001,0.0000,-0.7293,flat,18.0,2,2.001
7610,243.52,7.4985,0.5145,0.1797,-0.0001,0.0000,-0.7494,flat,18.0,2,1.434
7620,243.84,7.9094,0.1233,0.1797,-0.0001,0.0000,-0.7775,flat,18.0,2,0.870
7630,244.16,8.2201,-0.2223,0.1799,0.0003,-0.0000,-1.0339,flat,18.0,3,6.135
7640,244.48,8.4222,-0.6362,0.1799,-0.0000,-0.0000,-1.3689,flat,18.0,3,6.009
7650,244.80,8.4941,-1.1259,0.1800,0.0001,-0.0001,-1.6750,flat,18.0,3,5.766
7660,245.12,8.4160,-1.6359,0.1799,-0.0000,-0.0000,-1.9054,flat,18.0,3,5.418
7670,245.44,8.2179,-2.1261,0.1799,-0.0001,-0.0000,-2.0782,flat,18.0,3,5.001
7680,245.76,7.9348,-2.5829,0.1799,-0.0002,-0.0000,-2.2094,flat,18.0,3,4.544
7690,246.08,7.5919,-3.0081,0.1798,-0.0004,-0.0000,-2.3073,flat,18.0,3,4.062
7700,246.40,7.2075,-3.3976,0.1798,-0.0004,-0.0000,-2.4020,flat,18.0,3,3.569
7710,246.72,6.7863,-3.7528,0.1798,-0.0004,-0.0000,-2.4972,flat,18.0,3,3.067
7720,247.04,6.3320,-4.0701,0.1798,-0.0004,-0.0000,-2.5947,flat,18.0,3,2.558
7730,247.36,5.8483,-4.3439,0.1798,-0.0004,-0.0000,-2.6984,flat,18.0,3,2.045
7740,247.68,5.3397,-4.5672,0.1799,-0.0004,-0.0000,-2.8157,flat,18.0,3,1.534
7750,248.00,4.8120,-4.7285,0.1799,-0.0001,0.0000,-2.9663,flat,18.0,3,1.033
7760,248.32,4.2791,-4.7975,0.1799,-0.0030,0.0036,3.1198,flat,18.0,0,14.013
7770,248.64,3.7401,-4.7647,0.1799,-0.0001,-0.0000,2.9456,rough,14.0,0,13.582
7780,248.96,3.2974,-4.6721,0.1798,-0.0001,-0.0003,2.8897,flat,18.0,0,13.190
7790,249.28,2.7702,-4.5200,0.1798,-0.0004,-0.0001,2.7816,flat,18.0,0,12.700
7800,249.60,2.2561,-4.3125,0.1798,-0.0004,-0.0000,2.6996,flat,18.0,0,12.185
7810,249.92,1.7566,-4.0635,0.1797,-0.0002,-0.0000,2.6353,flat,18.0,0,11.655
7820,250.24,1.2709,-3.7826,0.1797,-0.0002,-0.0000,2.5834,flat,18.0,0,11.114
7830,250.56,0.7982,-3.4767,0.1797,-0.0001,-0.0000,2.5419,flat,18.0,0,10.566
7840,250.88,0.3369,-3.1512,0.1797,-0.0001,-0.0000,2.5072,flat,18.0,0,10.013
7850,251.20,-0.1146,-2.8097,0.1797,-0.0001,-0.0000,2.4772,flat,18.0,0,9.456
7860,251.52,-0.5570,-2.4547,0.1797,-0.0001,-0.0000,2.4509,flat,18.0,0,8.896
7870,251.84,-0.9910,-2.0879,0.1797,-0.0001,-0.0000,2.4273,flat,18.0,0,8.334
7880,252.16,-1.4173,-1.7109,0.1797,-0.0001,-0.0000,2.4056,flat,18.0,0,7.770
7890,252.48,-1.8362,-1.3246,0.1797,-0.0001,-0.0000,2.3856,flat,18.0,0,7.205
7900,252.80,-2.2480,-0.9299,0.1797,-0.0001,-0.0000,2.3674,flat,18.0,0,6.638
7910,253.12,-2.6530,-0.5277,0.1797,-0.0001,-0.0000,2.3506,flat,18.0,0,6.070
7920,253.44,-3.0516,-0.1186,0.1797,-0.0001,-0.0000,2.3347,flat,18.0,0,5.501
7930,253.76,-3.4439,0.2968,0.1797,-0.0001,-0.0000,2.3195,flat,18.0,0,4.933
7940,254.08,-3.8299,0.7181,0.1797,-0.0001,-0.0000,2.3047,flat,18.0,0,4.363
7950,254.40,-4.2098,1.1450,0.1797,-0.0001,0.0000,2.2904,flat,18.0,0,3.794
7960,254.72,-4.5836,1.5771,0.1797,-0.0001,0.0000,2.2762,flat,18.0,0,3.224
7970,255.04,-4.9510,2.0144,0.1797,-0.0001,0.0000,2.2615,flat,18.0,0,2.655
7980,255.36,-5.3114,2.4569,0.1797,-0.0001,0.0000,2.2453,flat,18.0,0,2.086
7990,255.68,-5.6636,2.9048,0.1797,-0.0001,0.0000,2.2259,flat,18.0,0,1.519
8000,256.00,-6.0049,3.3587,0.1797,-0.0001,0.0000,2.1992,flat,18.0,0,0.954
8010,256.32,-6.2643,3.7582,0.1798,0.0003,0.0001,1.9226,flat,18.0,1,7.187
8020,256.64,-6.3787,4.1418,0.1799,-0.0001,-0.0001,1.4796,flat,18.0,1,7.240
8030,256.96,-6.3100,4.5746,0.1799,-0.0002,-0.0000,1.1433,flat,18.0,1,7.128
