step,time_s,x,y,z,roll,pitch,yaw,terrain,speed,target_idx,dist_to_target
10,0.32,2.1821,0.5010,0.1852,0.0000,-0.0438,0.0000,rough,14.0,0,6.243
20,0.64,2.6624,0.5061,0.1797,0.0001,-0.0006,0.0348,flat,18.0,0,5.777
30,0.96,3.2257,0.5335,0.1797,0.0002,-0.0001,0.1005,flat,18.0,0,5.228
40,1.28,3.7870,0.5967,0.1797,0.0002,-0.0000,0.1552,flat,18.0,0,4.673
50,1.60,4.3453,0.6901,0.1797,0.0002,-0.0000,0.2029,flat,18.0,0,4.114
60,1.92,4.8987,0.8097,0.1797,0.0001,-0.0000,0.2439,flat,18.0,0,3.553
70,2.24,5.4464,0.9515,0.1797,0.0001,-0.0000,0.2808,flat,18.0,0,2.990
80,2.56,5.9885,1.1134,0.1797,0.0001,-0.0000,0.3169,flat,18.0,0,2.427
90,2.88,6.5236,1.2950,0.1797,0.0001,0.0000,0.3543,flat,18.0,0,1.863
100,3.20,7.0496,1.4965,0.1797,0.0001,0.0000,0.3965,flat,18.0,0,1.300
110,3.52,7.5603,1.7174,0.1797,0.0001,0.0003,0.4706,flat,18.0,1,5.048
120,3.84,7.9056,1.9389,0.1799,-0.0002,0.0000,0.7992,flat,18.0,1,5.096
130,4.16,8.1429,2.2431,0.1799,-0.0001,-0.0000,1.0975,rough,14.0,1,5.040
140,4.48,8.2985,2.5916,0.1799,-0.0001,-0.0000,1.3276,flat,18.0,1,4.923
150,4.80,8.3912,3.0682,0.1800,-0.0002,-0.0000,1.6356,flat,18.0,1,4.708
160,5.12,8.3328,3.5772,0.1799,-0.0000,-0.0000,1.8854,flat,18.0,1,4.387
170,5.44,8.1446,4.0661,0.1799,0.0001,-0.0000,2.0756,flat,18.0,1,3.995
180,5.76,7.8629,4.5175,0.1799,0.0001,-0.0000,2.2240,flat,18.0,1,3.562
190,6.08,7.5141,4.9303,0.1798,0.0003,-0.0000,2.3403,flat,18.0,1,3.103
200,6.40,7.1178,5.2992,0.1799,0.0003,-0.0000,2.4605,flat,18.0,1,2.636
210,6.72,6.6782,5.6221,0.1799,0.0002,-0.0000,2.5923,flat,18.0,1,2.161
220,7.04,6.2000,5.8867,0.1799,0.0001,-0.0000,2.7455,flat,18.0,1,1.685
230,7.36,5.6918,6.0755,0.1799,0.0000,0.0000,2.9431,flat,18.0,1,1.216
240,7.68,5.1751,6.1576,0.1799,0.0000,0.0000,-3.0298,flat,18.0,2,0.772
250,8.00,4.6193,6.0966,0.1798,-0.0000,-0.0000,-2.9978,flat,18.0,2,12.425
260,8.32,4.0575,6.0108,0.1797,0.0001,-0.0000,-2.9647,flat,18.0,2,11.865
270,8.64,3.4980,5.9070,0.1797,0.0001,-0.0000,-2.9378,flat,18.0,2,11.303
280,8.96,2.9405,5.7884,0.1797,0.0001,-0.0000,-2.9150,flat,18.0,2,10.738
290,9.28,2.3850,5.6574,0.1797,0.0001,-0.0000,-2.8956,flat,18.0,2,10.171
300,9.60,1.8315,5.5158,0.1797,0.0001,-0.0000,-2.8787,flat,18.0,2,9.602
310,9.92,1.2798,5.3651,0.1797,0.0001,-0.0000,-2.8641,flat,18.0,2,9.033
320,10.24,0.7299,5.2063,0.1797,0.0000,-0.0000,-2.8512,flat,18.0,2,8.462
330,10.56,0.1816,5.0406,0.1797,0.0000,-0.0000,-2.8399,flat,18.0,2,7.891
340,10.88,-0.3651,4.8687,0.1797,0.0000,-0.0000,-2.8297,flat,18.0,2,7.320
350,11.20,-0.9103,4.6914,0.1797,0.0000,-0.0000,-2.8206,flat,18.0,2,6.747
360,11.52,-1.4542,4.5091,0.1797,0.0000,-0.0000,-2.8123,flat,18.0,2,6.175
370,11.84,-1.9967,4.3223,0.1797,0.0000,-0.0000,-2.8046,flat,18.0,2,5.602
380,12.16,-2.5379,4.1314,0.1797,0.0000,-0.0000,-2.7975,flat,18.0,2,5.029
390,12.48,-3.0780,3.9367,0.1797,0.0000,-0.0000,-2.7909,flat,18.0,2,4.456
400,12.80,-3.6167,3.7384,0.1797,0.0000,-0.0000,-2.7845,flat,18.0,2,3.883
410,13.12,-4.1543,3.5367,0.1797,0.0000,-0.0000,-2.7782,flat,18.0,2,3.310
420,13.44,-4.6905,3.3316,0.1797,0.0000,0.0000,-2.7719,flat,18.0,2,2.737
430,13.76,-5.2253,3.1231,0.1797,0.0000,0.0000,-2.7651,flat,18.0,2,2.165
440,14.08,-5.7583,2.9110,0.1797,0.0000,0.0000,-2.7575,flat,18.0,2,1.593
450,14.40,-6.2890,2.6949,0.1797,0.0000,0.0000,-2.7476,flat,18.0,2,1.024
460,14.72,-6.7633,2.4928,0.1798,-0.0003,0.0000,-2.6037,flat,18.0,3,10.696
470,15.04,-7.1300,2.2217,0.1799,0.0000,-0.0000,-2.3445,flat,18.0,3,10.527
480,15.36,-7.4428,1.8360,0.1799,0.0000,-0.0000,-2.1164,flat,18.0,3,10.250
490,15.68,-7.6884,1.3684,0.1799,0.0000,-0.0000,-1.9084,flat,18.0,3,9.890
500,16.00,-7.8470,0.8465,0.1799,0.0001,-0.0000,-1.7284,flat,18.0,3,9.462
510,16.32,-7.9168,0.2979,0.1799,0.0001,-0.0000,-1.5817,flat,18.0,3,8.986
520,16.64,-7.9095,-0.2592,0.1798,0.0004,-0.0000,-1.4698,flat,18.0,3,8.478
530,16.96,-7.8429,-0.8147,0.1798,0.0004,-0.0000,-1.3860,flat,18.0,3,7.950
540,17.28,-7.7312,-1.3650,0.1797,0.0003,-0.0000,-1.3200,flat,18.0,3,7.411
550,17.60,-7.5842,-1.9089,0.1797,0.0002,-0.0000,-1.2663,flat,18.0,3,6.863
560,17.92,-7.4085,-2.4456,0.1797,0.0002,-0.0000,-1.2217,flat,18.0,3,6.309
570,18.24,-7.2094,-2.9744,0.1797,0.0001,-0.0000,-1.1851,flat,18.0,3,5.753
580,18.56,-6.9911,-3.4966,0.1797,0.0001,-0.0000,-1.1525,flat,18.0,3,5.194
590,18.88,-6.7559,-4.0123,0.1797,0.0001,-0.0000,-1.1227,flat,18.0,3,4.632
600,19.20,-6.5053,-4.5212,0.1797,0.0001,-0.0000,-1.0950,flat,18.0,3,4.070
610,19.52,-6.2407,-5.0233,0.1797,0.0001,-0.0000,-1.0684,flat,18.0,3,3.506
620,19.84,-5.9627,-5.5182,0.1797,0.0001,-0.0000,-1.0422,flat,18.0,3,2.941
630,20.16,-5.6718,-6.0051,0.1797,0.0001,0.0000,-1.0150,flat,18.0,3,2.377
640,20.48,-5.3677,-6.4826,0.1797,0.0001,0.0000,-0.9850,flat,18.0,3,1.813
650,20.80,-5.0494,-6.9480,0.1797,0.0001,0.0000,-0.9477,flat,18.0,3,1.251
660,21.12,-4.7178,-7.3925,0.1797,0.0001,0.0003,-0.8763,flat,18.0,0,16.019
670,21.44,-4.4084,-7.6887,0.1799,-0.0002,-0.0000,-0.5770,flat,18.0,0,15.949
680,21.76,-3.9899,-7.9156,0.1799,-0.0000,-0.0000,-0.2938,flat,18.0,0,15.761
690,22.08,-3.4928,-8.0387,0.1799,-0.0000,-0.0001,-0.0448,flat,18.0,0,15.459
700,22.40,-2.9595,-8.0415,0.1799,0.0001,-0.0000,0.1525,flat,18.0,0,15.060
710,22.72,-2.4246,-7.9411,0.1799,0.0002,-0.0000,0.2944,flat,18.0,0,14.598
720,23.04,-1.9024,-7.7671,0.1798,0.0004,-0.0000,0.3959,flat,18.0,0,14.100
730,23.36,-1.3952,-7.5411,0.1798,0.0003,-0.0000,0.4729,flat,18.0,0,13.579
740,23.68,-0.9029,-7.2766,0.1797,0.0002,-0.0000,0.5333,flat,18.0,0,13.045
750,24.00,-0.4242,-6.9826,0.1797,0.0002,-0.0000,0.5823,flat,18.0,0,12.500
760,24.32,0.0415,-6.6653,0.1797,0.0001,-0.0000,0.6207,flat,18.0,0,11.950
770,24.64,0.4965,-6.3301,0.1797,0.0001,-0.0000,0.6533,flat,18.0,0,11.394
780,24.96,0.9421,-5.9800,0.1797,0.0001,-0.0000,0.6816,flat,18.0,0,10.835
790,25.28,1.3789,-5.6173,0.1797,0.0001,-0.0000,0.7063,flat,18.0,0,10.273
800,25.60,1.8078,-5.2437,0.1797,0.0001,-0.0000,0.7285,flat,18.0,0,9.709
810,25.92,2.2295,-4.8606,0.1797,0.0001,-0.0000,0.7488,flat,18.0,0,9.143
820,26.24,2.6441,-4.4689,0.1797,0.0001,-0.0000,0.7671,flat,18.0,0,8.575
830,26.56,3.0522,-4.0695,0.1797,0.0001,-0.0000,0.7835,flat,18.0,0,8.006
840,26.88,3.4542,-3.6635,0.1797,0.0001,-0.0000,0.7984,flat,18.0,0,7.437
850,27.20,3.8505,-3.2514,0.1797,0.0000,-0.0000,0.8124,flat,18.0,0,6.867
860,27.52,4.2413,-2.8338,0.1797,0.0000,-0.0000,0.8254,flat,18.0,0,6.296
870,27.84,4.6269,-2.4110,0.1797,0.0000,-0.0000,0.8377,flat,18.0,0,5.724
880,28.16,5.0076,-1.9837,0.1797,0.0000,-0.0000,0.8491,flat,18.0,0,5.153
890,28.48,5.3836,-1.5521,0.1797,0.0000,-0.0000,0.8600,flat,18.0,0,4.581
900,28.80,5.7551,-1.1164,0.1797,0.0000,-0.0000,0.8706,flat,18.0,0,4.009
910,29.12,6.1219,-0.6768,0.1797,0.0000,-0.0000,0.8811,flat,18.0,0,3.436
920,29.44,6.4840,-0.2334,0.1797,0.0000,0.0000,0.8919,flat,18.0,0,2.864
930,29.76,6.8411,0.2138,0.1797,0.0000,0.0000,0.9033,flat,18.0,0,2.292
940,30.08,7.1927,0.6649,0.1797,0.0000,0.0000,0.9162,flat,18.0,0,1.720
950,30.40,7.5374,1.1202,0.1797,0.0001,0.0000,0.9321,flat,18.0,0,1.149
960,30.72,7.8550,1.5645,0.1798,0.0001,0.0002,1.0205,flat,18.0,1,5.350
970,31.04,8.0722,1.9970,0.1799,0.0001,-0.0000,1.3262,flat,18.0,1,5.166
980,31.36,8.1624,2.4536,0.1799,0.0002,-0.0003,1.5474,flat,18.0,1,4.911
990,31.68,8.1540,2.9633,0.1800,-0.0000,-0.0000,1.7763,flat,18.0,1,4.578
1000,32.00,8.0227,3.4763,0.1799,0.0001,-0.0000,1.9636,flat,18.0,1,4.174
1010,32.32,7.7960,3.9616,0.1799,0.0001,-0.0000,2.1090,flat,18.0,1,3.731
1020,32.64,7.4984,4.4144,0.1799,0.0003,-0.0000,2.2241,flat,18.0,1,3.263
1030,32.96,7.1497,4.8348,0.1798,0.0004,-0.0000,2.3220,flat,18.0,1,2.783
1040,33.28,6.7602,5.2147,0.1798,0.0004,-0.0000,2.4293,flat,18.0,1,2.302
1050,33.60,6.3313,5.5518,0.1799,0.0003,-0.0000,2.5535,flat,18.0,1,1.821
1060,33.92,5.8651,5.8323,0.1799,0.0001,0.0000,2.7122,flat,18.0,1,1.347
1070,34.24,5.3705,6.0323,0.1799,0.0000,0.0000,2.9549,flat,18.0,1,0.896
1080,34.56,4.8414,6.0952,0.1783,0.0001,0.0107,3.1070,flat,18.0,2,12.636
1090,34.88,4.2809,6.1042,0.1796,0.0003,0.0011,-3.0950,flat,18.0,2,12.107
1100,35.20,3.7173,6.0703,0.1797,0.0002,0.0001,-3.0332,flat,18.0,2,11.564
1110,35.52,3.1552,6.0031,0.1797,0.0002,0.0000,-2.9849,flat,18.0,2,11.013
1120,35.84,2.5960,5.9095,0.1797,0.0001,-0.0000,-2.9475,flat,18.0,2,10.457
1130,36.16,2.0396,5.7958,0.1797,0.0001,-0.0000,-2.9168,flat,18.0,2,9.897
1140,36.48,1.4858,5.6652,0.1797,0.0001,-0.0000,-2.8908,flat,18.0,2,9.334
1150,36.80,0.9347,5.5205,0.1797,0.0001,-0.0000,-2.8684,flat,18.0,2,8.769
1160,37.12,0.3862,5.3637,0.1797,0.0001,-0.0000,-2.8489,flat,18.0,2,8.202
1170,37.44,-0.1599,5.1963,0.1797,0.0001,-0.0000,-2.8319,flat,18.0,2,7.634
1180,37.76,-0.7036,5.0197,0.1797,0.0001,-0.0000,-2.8167,flat,18.0,2,7.066
1190,38.08,-1.2450,4.8350,0.1797,0.0000,-0.0000,-2.8031,flat,18.0,2,6.496
1200,38.40,-1.7842,4.6430,0.1797,0.0000,-0.0000,-2.7908,flat,18.0,2,5.925
1210,38.72,-2.3213,4.4444,0.1797,0.0000,-0.0000,-2.7795,flat,18.0,2,5.355
1220,39.04,-2.8563,4.2398,0.1797,0.0000,-0.0000,-2.7690,flat,18.0,2,4.783
1230,39.36,-3.3894,4.0296,0.1797,0.0000,-0.0000,-2.7591,flat,18.0,2,4.212
1240,39.68,-3.9205,3.8141,0.1797,0.0000,-0.0000,-2.7495,flat,18.0,2,3.641
1250,40.00,-4.4495,3.5936,0.1797,0.0000,-0.0000,-2.7401,flat,18.0,2,3.069
1260,40.32,-4.9762,3.3680,0.1797,0.0000,0.0000,-2.7303,flat,18.0,2,2.498
1270,40.64,-5.5005,3.1374,0.1797,0.0000,0.0000,-2.7198,flat,18.0,2,1.928
1280,40.96,-6.0216,2.9012,0.1797,0.0000,0.0000,-2.7073,flat,18.0,2,1.360
1290,41.28,-6.5379,2.6585,0.1797,0.0001,0.0000,-2.6895,flat,18.0,3,0.798
1300,41.60,-6.9431,2.4249,0.1799,-0.0001,0.0000,-2.4435,flat,18.0,3,10.674
1310,41.92,-7.2766,2.0802,0.1799,0.0000,-0.0000,-2.2067,flat,18.0,3,10.433
1320,42.24,-7.5534,1.6420,0.1799,0.0000,-0.0000,-1.9911,flat,18.0,3,10.102
1330,42.56,-7.7495,1.1384,0.1799,0.0000,-0.0000,-1.8004,flat,18.0,3,9.697
1340,42.88,-7.8563,0.5980,0.1799,0.0001,-0.0000,-1.6423,flat,18.0,3,9.237
1350,43.20,-7.8812,0.0425,0.1799,0.0003,-0.0000,-1.5166,flat,18.0,3,8.739
1360,43.52,-7.8398,-0.5148,0.1798,0.0004,-0.0000,-1.4236,flat,18.0,3,8.217
1370,43.84,-7.7486,-1.0682,0.1798,0.0003,-0.0000,-1.3517,flat,18.0,3,7.681
1380,44.16,-7.6186,-1.6159,0.1797,0.0002,-0.0000,-1.2938,flat,18.0,3,7.136
1390,44.48,-7.4577,-2.1569,0.1797,0.0002,-0.0000,-1.2459,flat,18.0,3,6.585
1400,44.80,-7.2713,-2.6903,0.1797,0.0001,-0.0000,-1.2071,flat,18.0,3,6.029
1410,45.12,-7.0646,-3.2170,0.1797,0.0001,-0.0000,-1.1733,flat,18.0,3,5.470
1420,45.44,-6.8402,-3.7373,0.1797,0.0001,-0.0000,-1.1427,flat,18.0,3,4.910
1430,45.76,-6.5999,-4.2511,0.1797,0.0001,-0.0000,-1.1146,flat,18.0,3,4.347
1440,46.08,-6.3453,-4.7584,0.1797,0.0001,-0.0000,-1.0880,flat,18.0,3,3.783
1450,46.40,-6.0772,-5.2589,0.1797,0.0001,-0.0000,-1.0622,flat,18.0,3,3.219
1460,46.72,-5.7961,-5.7520,0.1797,0.0001,0.0000,-1.0361,flat,18.0,3,2.654
1470,47.04,-5.5022,-6.2369,0.1797,0.0001,0.0000,-1.0083,flat,18.0,3,2.090
1480,47.36,-5.1949,-6.7115,0.1797,0.0001,0.0000,-0.9759,flat,18.0,3,1.526
1490,47.68,-4.8726,-7.1716,0.1797,0.0001,0.0000,-0.9319,flat,18.0,3,0.967
1500,48.00,-4.5737,-7.5369,0.1799,-0.0003,-0.0000,-0.7130,flat,18.0,0,15.989
1510,48.32,-4.2030,-7.7963,0.1799,0.0000,-0.0000,-0.4194,flat,18.0,0,15.853
1520,48.64,-3.7365,-7.9710,0.1799,-0.0000,-0.0000,-0.1530,flat,18.0,0,15.601
1530,48.96,-3.2141,-8.0283,0.1799,0.0000,-0.0000,0.0699,flat,18.0,0,15.242
1540,49.28,-2.6770,-7.9717,0.1799,0.0001,-0.0000,0.2352,flat,18.0,0,14.804
1550,49.60,-2.1481,-7.8282,0.1799,0.0003,-0.0000,0.3525,flat,18.0,0,14.320
1560,49.92,-1.6338,-7.6244,0.1798,0.0004,-0.0000,0.4391,flat,18.0,0,13.808
1570,50.24,-1.1345,-7.3767,0.1797,0.0003,-0.0000,0.5063,flat,18.0,0,13.279
1580,50.56,-0.6493,-7.0958,0.1797,0.0002,-0.0000,0.5599,flat,18.0,0,12.738
1590,50.88,-0.1775,-6.7890,0.1797,0.0002,-0.0000,0.6027,flat,18.0,0,12.190
1600,51.20,0.2827,-6.4621,0.1797,0.0001,-0.0000,0.6377,flat,18.0,0,11.636
1610,51.52,0.7329,-6.1191,0.1797,0.0001,-0.0000,0.6678,flat,18.0,0,11.079
1620,51.84,1.1742,-5.7625,0.1797,0.0001,-0.0000,0.6939,flat,18.0,0,10.518
1630,52.16,1.6072,-5.3944,0.1797,0.0001,-0.0000,0.7171,flat,18.0,0,9.955
1640,52.48,2.0327,-5.0161,0.1797,0.0001,-0.0000,0.7382,flat,18.0,0,9.389
1650,52.80,2.4511,-4.6289,0.1797,0.0001,-0.0000,0.7574,flat,18.0,0,8.822
1660,53.12,2.8627,-4.2336,0.1797,0.0001,-0.0000,0.7746,flat,18.0,0,8.254
1670,53.44,3.2681,-3.8311,0.1797,0.0001,-0.0000,0.7901,flat,18.0,0,7.685
1680,53.76,3.6677,-3.4224,0.1797,0.0001,-0.0000,0.8044,flat,18.0,0,7.115
1690,54.08,4.0617,-3.0079,0.1797,0.0000,-0.0000,0.8179,flat,18.0,0,6.544
1700,54.40,4.4504,-2.5881,0.1797,0.0000,-0.0000,0.8305,flat,18.0,0,5.973
1710,54.72,4.8340,-2.1635,0.1797,0.0000,-0.0000,0.8423,flat,18.0,0,5.402
1720,55.04,5.2129,-1.7344,0.1797,0.0000,-0.0000,0.8534,flat,18.0,0,4.830
1730,55.36,5.5872,-1.3012,0.1797,0.0000,-0.0000,0.8641,flat,18.0,0,4.258
1740,55.68,5.9569,-0.8640,0.1797,0.0000,-0.0000,0.8746,flat,18.0,0,3.686
1750,56.00,6.3219,-0.4230,0.1797,0.0000,0.0000,0.8852,flat,18.0,0,3.113
1760,56.32,6.6821,0.0218,0.1797,0.0000,0.0000,0.8962,flat,18.0,0,2.541
1770,56.64,7.0371,0.4705,0.1797,0.0000,0.0000,0.9084,flat,18.0,0,1.969
1780,56.96,7.3859,0.9233,0.1797,0.0000,0.0000,0.9227,flat,18.0,0,1.397
1790,57.28,7.7266,1.3804,0.1797,0.0001,0.0000,0.9420,flat,18.0,0,0.827
1800,57.60,7.9847,1.7977,0.1799,-0.0001,-0.0000,1.2022,flat,18.0,1,5.254
1810,57.92,8.1259,2.2237,0.1799,0.0000,-0.0000,1.4587,rough,14.0,1,5.042
1820,58.24,8.1595,2.6671,0.1799,0.0001,-0.0001,1.6502,flat,18.0,1,4.768
1830,58.56,8.0929,3.1890,0.1799,0.0000,-0.0000,1.8707,flat,18.0,1,4.394
1840,58.88,7.9132,3.6908,0.1799,0.0001,-0.0000,2.0340,flat,18.0,1,3.968
1850,59.20,7.6519,4.1616,0.1799,0.0002,-0.0000,2.1646,flat,18.0,1,3.510
1860,59.52,7.3288,4.6013,0.1798,0.0004,-0.0000,2.2655,flat,18.0,1,3.033
1870,59.84,6.9623,5.0047,0.1798,0.0004,0.0000,2.3666,flat,18.0,1,2.552
1880,60.16,6.5558,5.3673,0.1798,0.0004,-0.0000,2.4794,flat,18.0,1,2.070
1890,60.48,6.1107,5.6823,0.1799,0.0002,0.0000,2.6158,flat,18.0,1,1.591
1900,60.80,5.6308,5.9317,0.1799,0.0000,0.0000,2.8029,flat,18.0,1,1.125
1910,61.12,5.1309,6.0732,0.1800,0.0003,-0.0002,3.0506,flat,18.0,2,12.904
1920,61.44,4.5759,6.1094,0.1793,0.0002,0.0035,3.1363,flat,18.0,2,12.388
1930,61.76,4.0129,6.1033,0.1797,0.0003,0.0004,-3.0717,flat,18.0,2,11.854
1940,62.08,3.4498,6.0568,0.1797,0.0002,0.0000,-3.0148,flat,18.0,2,11.308
1950,62.40,2.8885,5.9794,0.1797,0.0002,0.0000,-2.9693,flat,18.0,2,10.755
1960,62.72,2.3306,5.8775,0.1797,0.0001,-0.0000,-2.9346,flat,18.0,2,10.197
1970,63.04,1.7754,5.7567,0.1797,0.0001,-0.0000,-2.9054,flat,18.0,2,9.637
1980,63.36,1.2229,5.6199,0.1797,0.0001,-0.0000,-2.8805,flat,18.0,2,9.073
1990,63.68,0.6731,5.4696,0.1797,0.0001,-0.0000,-2.8590,flat,18.0,2,8.508
2000,64.00,0.1259,5.3076,0.1797,0.0001,-0.0000,-2.8402,flat,18.0,2,7.941
2010,64.32,-0.4188,5.1355,0.1797,0.0001,-0.0000,-2.8237,flat,18.0,2,7.373
2020,64.64,-0.9611,4.9545,0.1797,0.0001,-0.0000,-2.8090,flat,18.0,2,6.804
2030,64.96,-1.5012,4.7656,0.1797,0.0000,-0.0000,-2.7957,flat,18.0,2,6.234
2040,65.28,-2.0390,4.5696,0.1797,0.0000,-0.0000,-2.7836,flat,18.0,2,5.663
2050,65.60,-2.5747,4.3671,0.1797,0.0000,-0.0000,-2.7724,flat,18.0,2,5.093
2060,65.92,-3.1083,4.1587,0.1797,0.0000,-0.0000,-2.7620,flat,18.0,2,4.521
2070,66.24,-3.6398,3.9448,0.1797,0.0000,-0.0000,-2.7520,flat,18.0,2,3.950
2080,66.56,-4.1693,3.7255,0.1797,0.0000,-0.0000,-2.7423,flat,18.0,2,3.379
2090,66.88,-4.6966,3.5012,0.1797,0.0000,0.0000,-2.7326,flat,18.0,2,2.808
2100,67.20,-5.2215,3.2717,0.1797,0.0000,0.0000,-2.7224,flat,18.0,2,2.237
2110,67.52,-5.7435,3.0368,0.1797,0.0000,0.0000,-2.7109,flat,18.0,2,1.668
2120,67.84,-6.2618,2.7960,0.1797,0.0000,0.0000,-2.6964,flat,18.0,2,1.102
2130,68.16,-6.7444,2.5641,0.1798,-0.0001,0.0002,-2.5916,flat,18.0,3,10.760
2140,68.48,-7.0996,2.2989,0.1799,0.0001,0.0003,-2.3489,flat,18.0,3,10.593
2150,68.80,-7.4109,1.9183,0.1799,0.0000,-0.0000,-2.1217,flat,18.0,3,10.319
2160,69.12,-7.6588,1.4520,0.1799,0.0001,-0.0000,-1.9146,flat,18.0,3,9.958
2170,69.44,-7.8204,0.9310,0.1799,0.0001,-0.0000,-1.7351,flat,18.0,3,9.530
2180,69.76,-7.8939,0.3828,0.1799,0.0001,-0.0000,-1.5887,flat,18.0,3,9.054
2190,70.08,-7.8903,-0.1745,0.1798,0.0004,-0.0000,-1.4763,flat,18.0,3,8.546
2200,70.40,-7.8274,-0.7305,0.1798,0.0004,-0.0000,-1.3924,flat,18.0,3,8.018
2210,70.72,-7.7193,-1.2817,0.1797,0.0003,-0.0000,-1.3264,flat,18.0,3,7.479
2220,71.04,-7.5758,-1.8266,0.1797,0.0002,-0.0000,-1.2727,flat,18.0,3,6.931
2230,71.36,-7.4035,-2.3645,0.1797,0.0002,-0.0000,-1.2282,flat,18.0,3,6.377
2240,71.68,-7.2079,-2.8947,0.1797,0.0001,-0.0000,-1.1918,flat,18.0,3,5.821
2250,72.00,-6.9931,-3.4185,0.1797,0.0001,-0.0000,-1.1593,flat,18.0,3,5.261
2260,72.32,-6.7614,-3.9359,0.1797,0.0001,-0.0000,-1.1298,flat,18.0,3,4.700
2270,72.64,-6.5145,-4.4467,0.1797,0.0001,-0.0000,-1.1023,flat,18.0,3,4.137
2280,72.96,-6.2536,-4.9509,0.1797,0.0001,-0.0000,-1.0761,flat,18.0,3,3.573
2290,73.28,-5.9795,-5.4481,0.1797,0.0001,-0.0000,-1.0503,flat,18.0,3,3.008
2300,73.60,-5.6926,-5.9376,0.1797,0.0001,0.0000,-1.0237,flat,18.0,3,2.443
2310,73.92,-5.3926,-6.4182,0.1797,0.0001,0.0000,-0.9946,flat,18.0,3,1.879
2320,74.24,-5.0789,-6.8874,0.1797,0.0001,0.0000,-0.9592,flat,18.0,3,1.317
2330,74.56,-4.7492,-7.3395,0.1797,0.0002,0.0000,-0.9069,flat,18.0,0,0.759
2340,74.88,-4.4483,-7.6518,0.1799,-0.0001,-0.0000,-0.6157,flat,18.0,0,15.958
2350,75.20,-4.0426,-7.8890,0.1799,0.0000,-0.0000,-0.3293,flat,18.0,0,15.785
2360,75.52,-3.5836,-8.0239,0.1799,0.0000,-0.0000,-0.1123,flat,18.0,0,15.518
2370,75.84,-3.0570,-8.0603,0.1799,0.0001,-0.0000,0.1043,flat,18.0,0,15.145
2380,76.16,-2.5207,-7.9853,0.1799,0.0001,-0.0000,0.2610,flat,18.0,0,14.699
2390,76.48,-1.9948,-7.8284,0.1798,0.0004,-0.0000,0.3723,flat,18.0,0,14.209
2400,76.80,-1.4839,-7.6144,0.1798,0.0004,-0.0000,0.4552,flat,18.0,0,13.694
2410,77.12,-0.9881,-7.3586,0.1797,0.0002,-0.0000,0.5199,flat,18.0,0,13.163
2420,77.44,-0.5064,-7.0711,0.1797,0.0002,-0.0000,0.5718,flat,18.0,0,12.621
2430,77.76,-0.0381,-6.7586,0.1797,0.0001,-0.0000,0.6130,flat,18.0,0,12.072
2440,78.08,0.4190,-6.4270,0.1797,0.0001,-0.0000,0.6472,flat,18.0,0,11.518
2450,78.40,0.8661,-6.0796,0.1797,0.0001,-0.0000,0.6767,flat,18.0,0,10.960
2460,78.72,1.3044,-5.7190,0.1797,0.0001,-0.0000,0.7024,flat,18.0,0,10.398
2470,79.04,1.7344,-5.3472,0.1797,0.0001,-0.0000,0.7253,flat,18.0,0,9.835
2480,79.36,2.1570,-4.9655,0.1797,0.0001,-0.0000,0.7463,flat,18.0,0,9.269
2490,79.68,2.5723,-4.5748,0.1797,0.0001,-0.0000,0.7652,flat,18.0,0,8.702
2500,80.00,2.9810,-4.1762,0.1797,0.0001,-0.0000,0.7821,flat,18.0,0,8.134
2510,80.32,3.3834,-3.7708,0.1797,0.0001,-0.0000,0.7975,flat,18.0,0,7.565
2520,80.64,3.7799,-3.3591,0.1797,0.0001,-0.0000,0.8118,flat,18.0,0,6.995
2530,80.96,4.1708,-2.9417,0.1797,0.0000,-0.0000,0.8252,flat,18.0,0,6.424
2540,81.28,4.5564,-2.5190,0.1797,0.0000,-0.0000,0.8377,flat,18.0,0,5.853
2550,81.60,4.9370,-2.0917,0.1797,0.0000,-0.0000,0.8494,flat,18.0,0,5.281
2560,81.92,5.3128,-1.6600,0.1797,0.0000,-0.0000,0.8605,flat,18.0,0,4.709
2570,82.24,5.6840,-1.2241,0.1797,0.0000,-0.0000,0.8712,flat,18.0,0,4.137
2580,82.56,6.0505,-0.7844,0.1797,0.0000,-0.0000,0.8818,flat,18.0,0,3.565
2590,82.88,6.4123,-0.3407,0.1797,0.0000,0.0000,0.8926,flat,18.0,0,2.993
2600,83.20,6.7691,0.1067,0.1797,0.0000,0.0000,0.9040,flat,18.0,0,2.421
2610,83.52,7.1205,0.5581,0.1797,0.0000,0.0000,0.9166,flat,18.0,0,1.849
2620,83.84,7.4654,1.0136,0.1797,0.0001,0.0000,0.9317,flat,18.0,0,1.277
2630,84.16,7.7986,1.4703,0.1797,0.0001,0.0002,0.9690,flat,18.0,1,5.389
2640,84.48,8.0307,1.8909,0.1799,0.0000,-0.0000,1.2685,flat,18.0,1,5.215
2650,84.80,8.1452,2.3188,0.1799,0.0001,0.0000,1.5117,rough,14.0,1,4.990
2660,85.12,8.1561,2.7783,0.1799,0.0001,-0.0001,1.7027,flat,18.0,1,4.694
2670,85.44,8.0623,3.2978,0.1799,0.0000,0.0000,1.9090,flat,18.0,1,4.307
2680,85.76,7.8632,3.7936,0.1799,0.0001,-0.0000,2.0639,flat,18.0,1,3.872
2690,86.08,7.5874,4.2575,0.1799,0.0003,-0.0000,2.1885,flat,18.0,1,3.410
2700,86.40,7.2539,4.6904,0.1798,0.0004,-0.0000,2.2862,flat,18.0,1,2.931
2710,86.72,6.8788,5.0852,0.1798,0.0004,-0.0000,2.3891,flat,18.0,1,2.450
2720,87.04,6.4640,5.4388,0.1798,0.0004,-0.0000,2.5058,flat,18.0,1,1.968
2730,87.36,6.0110,5.7417,0.1799,0.0001,0.0000,2.6498,flat,18.0,1,1.490
2740,87.68,5.5251,5.9737,0.1799,0.0000,0.0000,2.8554,flat,18.0,1,1.030
2750,88.00,5.0155,6.0829,0.1800,0.0002,-0.0003,3.0731,flat,18.0,2,12.798
2760,88.32,4.4563,6.1096,0.1795,0.0003,0.0022,-3.1262,flat,18.0,2,12.275
2770,88.64,3.8929,6.0924,0.1797,0.0003,0.0002,-3.0562,flat,18.0,2,11.737
2780,88.96,3.3302,6.0376,0.1797,0.0002,0.0000,-3.0030,flat,18.0,2,11.189
2790,89.28,2.7696,5.9538,0.1797,0.0002,0.0000,-2.9606,flat,18.0,2,10.635
2800,89.60,2.2124,5.8472,0.1797,0.0001,-0.0000,-2.9275,flat,18.0,2,10.076
2810,89.92,1.6577,5.7224,0.1797,0.0001,-0.0000,-2.8995,flat,18.0,2,9.515
2820,90.24,1.1058,5.5824,0.1797,0.0001,-0.0000,-2.8755,flat,18.0,2,8.951
2830,90.56,0.5565,5.4295,0.1797,0.0001,-0.0000,-2.8548,flat,18.0,2,8.385
2840,90.88,0.0098,5.2653,0.1797,0.0001,-0.0000,-2.8367,flat,18.0,2,7.818
2850,91.20,-0.5345,5.0913,0.1797,0.0001,-0.0000,-2.8207,flat,18.0,2,7.249
2860,91.52,-1.0764,4.9087,0.1797,0.0001,-0.0000,-2.8064,flat,18.0,2,6.680
2870,91.84,-1.6160,4.7184,0.1797,0.0000,-0.0000,-2.7935,flat,18.0,2,6.110
2880,92.16,-2.1535,4.5212,0.1797,0.0000,-0.0000,-2.7817,flat,18.0,2,5.539
2890,92.48,-2.6889,4.3178,0.1797,0.0000,-0.0000,-2.7708,flat,18.0,2,4.968
2900,92.80,-3.2222,4.1085,0.1797,0.0000,-0.0000,-2.7605,flat,18.0,2,4.397
2910,93.12,-3.7535,3.8938,0.1797,0.0000,-0.0000,-2.7507,flat,18.0,2,3.826
2920,93.44,-4.2827,3.6738,0.1797,0.0000,-0.0000,-2.7411,flat,18.0,2,3.254
2930,93.76,-4.8097,3.4488,0.1797,0.0000,0.0000,-2.7313,flat,18.0,2,2.683
2940,94.08,-5.3342,3.2186,0.1797,0.0000,0.0000,-2.7210,flat,18.0,2,2.113
2950,94.40,-5.8558,2.9831,0.1797,0.0000,0.0000,-2.7091,flat,18.0,2,1.544
2960,94.72,-6.3733,2.7413,0.1797,0.0001,0.0000,-2.6935,flat,18.0,2,0.979
2970,95.04,-6.8327,2.5119,0.1798,-0.0003,0.0000,-2.5431,flat,18.0,3,10.731
2980,95.36,-7.1865,2.2117,0.1799,0.0000,-0.0000,-2.2928,flat,18.0,3,10.533
2990,95.68,-7.4874,1.8055,0.1799,0.0000,-0.0000,-2.0692,flat,18.0,3,10.235
3000,96.00,-7.7155,1.3233,0.1799,0.0000,-0.0000,-1.8674,flat,18.0,3,9.857
3010,96.32,-7.8550,0.7936,0.1799,0.0001,-0.0000,-1.6960,flat,18.0,3,9.416
3020,96.64,-7.9082,0.2417,0.1799,0.0002,-0.0000,-1.5571,flat,18.0,3,8.931
3030,96.96,-7.8881,-0.3157,0.1798,0.0004,-0.0000,-1.4530,flat,18.0,3,8.417
3040,97.28,-7.8126,-0.8707,0.1798,0.0004,-0.0000,-1.3741,flat,18.0,3,7.886
3050,97.60,-7.6946,-1.4203,0.1797,0.0002,-0.0000,-1.3114,flat,18.0,3,7.345
3060,97.92,-7.5431,-1.9634,0.1797,0.0002,-0.0000,-1.2600,flat,18.0,3,6.795
3070,98.24,-7.3640,-2.4991,0.1797,0.0002,-0.0000,-1.2178,flat,18.0,3,6.241
3080,98.56,-7.1630,-3.0276,0.1797,0.0001,-0.0000,-1.1825,flat,18.0,3,5.683
3090,98.88,-6.9433,-3.5495,0.1797,0.0001,-0.0000,-1.1508,flat,18.0,3,5.124
3100,99.20,-6.7072,-4.0650,0.1797,0.0001,-0.0000,-1.1218,flat,18.0,3,4.562
3110,99.52,-6.4562,-4.5740,0.1797,0.0001,-0.0000,-1.0946,flat,18.0,3,3.998
3120,99.84,-6.1914,-5.0762,0.1797,0.0001,-0.0000,-1.0686,flat,18.0,3,3.434
3130,100.16,-5.9136,-5.5712,0.1797,0.0001,0.0000,-1.0427,flat,18.0,3,2.869
3140,100.48,-5.6229,-6.0583,0.1797,0.0001,0.0000,-1.0157,flat,18.0,3,2.305
3150,100.80,-5.3191,-6.5360,0.1797,0.0001,0.0000,-0.9855,flat,18.0,3,1.741
3160,101.12,-5.0011,-7.0011,0.1797,0.0001,0.0000,-0.9472,flat,18.0,3,1.180
3170,101.44,-4.6844,-7.4292,0.1798,0.0000,0.0004,-0.8290,flat,18.0,0,16.013
3180,101.76,-4.3583,-7.7085,0.1799,-0.0000,-0.0001,-0.5294,flat,18.0,0,15.921
3190,102.08,-3.9241,-7.9214,0.1799,-0.0000,-0.0000,-0.2512,flat,18.0,0,15.714
3200,102.40,-3.4181,-8.0253,0.1799,-0.0000,-0.0000,-0.0090,flat,18.0,0,15.393
3210,102.72,-2.8827,-8.0098,0.1799,0.0001,-0.0000,0.1782,flat,18.0,0,14.982
3220,103.04,-2.3492,-7.8959,0.1799,0.0002,-0.0000,0.3122,flat,18.0,0,14.512
3230,103.36,-1.8291,-7.7127,0.1798,0.0004,-0.0000,0.4088,flat,18.0,0,14.009
3240,103.68,-1.3241,-7.4803,0.1798,0.0003,-0.0000,0.4825,flat,18.0,0,13.486
3250,104.00,-0.8337,-7.2110,0.1797,0.0002,-0.0000,0.5408,flat,18.0,0,12.950
3260,104.32,-0.3569,-6.9134,0.1797,0.0002,-0.0000,0.5878,flat,18.0,0,12.404
3270,104.64,0.1073,-6.5935,0.1797,0.0001,-0.0000,0.6251,flat,18.0,0,11.852
3280,104.96,0.5612,-6.2562,0.1797,0.0001,-0.0000,0.6569,flat,18.0,0,11.296
3290,105.28,1.0058,-5.9045,0.1797,0.0001,-0.0000,0.6845,flat,18.0,0,10.736
3300,105.60,1.4418,-5.5405,0.1797,0.0001,-0.0000,0.7087,flat,18.0,0,10.174
3310,105.92,1.8700,-5.1659,0.1797,0.0001,-0.0000,0.7305,flat,18.0,0,9.609
3320,106.24,2.2911,-4.7819,0.1797,0.0001,-0.0000,0.7505,flat,18.0,0,9.043
3330,106.56,2.7052,-4.3895,0.1797,0.0001,-0.0000,0.7684,flat,18.0,0,8.475
3340,106.88,3.1128,-3.9896,0.1797,0.0001,-0.0000,0.7845,flat,18.0,0,7.906
3350,107.20,3.5145,-3.5831,0.1797,0.0001,-0.0000,0.7992,flat,18.0,0,7.337
3360,107.52,3.9105,-3.1707,0.1797,0.0000,-0.0000,0.8130,flat,18.0,0,6.766
3370,107.84,4.3011,-2.7528,0.1797,0.0000,-0.0000,0.8259,flat,18.0,0,6.195
3380,108.16,4.6866,-2.3299,0.1797,0.0000,-0.0000,0.8380,flat,18.0,0,5.624
3390,108.48,5.0672,-1.9024,0.1797,0.0000,-0.0000,0.8494,flat,18.0,0,5.052
3400,108.80,5.4431,-1.4707,0.1797,0.0000,-0.0000,0.8602,flat,18.0,0,4.480
3410,109.12,5.8145,-1.0350,0.1797,0.0000,-0.0000,0.8708,flat,18.0,0,3.908
3420,109.44,6.1812,-0.5953,0.1797,0.0000,0.0000,0.8813,flat,18.0,0,3.336
3430,109.76,6.5432,-0.1519,0.1797,0.0000,0.0000,0.8921,flat,18.0,0,2.763
3440,110.08,6.9002,0.2954,0.1797,0.0000,0.0000,0.9037,flat,18.0,0,2.191
3450,110.40,7.2514,0.7466,0.1797,0.0000,0.0000,0.9170,flat,18.0,0,1.619
3460,110.72,7.5956,1.2020,0.1797,0.0001,0.0000,0.9338,flat,18.0,0,1.049
3470,111.04,7.8961,1.6336,0.1798,-0.0002,0.0001,1.0802,flat,18.0,1,5.322
3480,111.36,8.0914,2.0737,0.1799,0.0002,0.0006,1.3721,rough,14.0,1,5.124
3490,111.68,8.1602,2.4881,0.1799,0.0001,-0.0003,1.5472,flat,18.0,1,4.886
3500,112.00,8.1509,2.9983,0.1799,-0.0001,-0.0000,1.7778,flat,18.0,1,4.554
3510,112.32,8.0185,3.5106,0.1799,0.0001,-0.0000,1.9668,flat,18.0,1,4.152
3520,112.64,7.7902,3.9947,0.1799,0.0001,-0.0000,2.1131,flat,18.0,1,3.710
3530,112.96,7.4905,4.4460,0.1799,0.0003,-0.0000,2.2286,flat,18.0,1,3.243
3540,113.28,7.1399,4.8641,0.1798,0.0004,-0.0000,2.3280,flat,18.0,1,2.764
3550,113.60,6.7481,5.2414,0.1798,0.0004,-0.0000,2.4369,flat,18.0,1,2.284
3560,113.92,6.3166,5.5750,0.1799,0.0003,-0.0000,2.5633,flat,18.0,1,1.804
3570,114.24,5.8480,5.8508,0.1799,0.0001,0.0000,2.7253,flat,18.0,1,1.331
3580,114.56,5.3517,6.0440,0.1799,0.0000,0.0000,2.9750,flat,18.0,1,0.882
3590,114.88,4.8177,6.1051,0.1798,0.0003,0.0003,3.1062,flat,18.0,2,12.616
3600,115.20,4.2551,6.1148,0.1798,0.0003,0.0000,-3.0944,flat,18.0,2,12.086
3610,115.52,3.6914,6.0806,0.1797,0.0002,-0.0000,-3.0323,flat,18.0,2,11.543
3620,115.84,3.1294,6.0128,0.1797,0.0002,-0.0000,-2.9839,flat,18.0,2,10.992
3630,116.16,2.5703,5.9187,0.1797,0.0001,-0.0000,-2.9462,flat,18.0,2,10.436
3640,116.48,2.0140,5.8042,0.1797,0.0001,-0.0000,-2.9155,flat,18.0,2,9.876
3650,116.80,1.4605,5.6729,0.1797,0.0001,-0.0000,-2.8894,flat,18.0,2,9.313
3660,117.12,0.9096,5.5274,0.1797,0.0001,-0.0000,-2.8669,flat,18.0,2,8.748
3670,117.44,0.3613,5.3698,0.1797,0.0001,-0.0000,-2.8474,flat,18.0,2,8.182
3680,117.76,-0.1845,5.2016,0.1797,0.0001,-0.0000,-2.8303,flat,18.0,2,7.614
3690,118.08,-0.7279,5.0242,0.1797,0.0001,-0.0000,-2.8151,flat,18.0,2,7.045
3700,118.40,-1.2689,4.8386,0.1797,0.0000,-0.0000,-2.8015,flat,18.0,2,6.475
3710,118.72,-1.8078,4.6456,0.1797,0.0000,-0.0000,-2.7891,flat,18.0,2,5.905
3720,119.04,-2.3445,4.4461,0.1797,0.0000,-0.0000,-2.7777,flat,18.0,2,5.334
3730,119.36,-2.8792,4.2405,0.1797,0.0000,-0.0000,-2.7672,flat,18.0,2,4.763
3740,119.68,-3.4119,4.0294,0.1797,0.0000,-0.0000,-2.7572,flat,18.0,2,4.192
3750,120.00,-3.9425,3.8129,0.1797,0.0000,-0.0000,-2.7476,flat,18.0,2,3.620
3760,120.32,-4.4710,3.5913,0.1797,0.0000,-0.0000,-2.7380,flat,18.0,2,3.049
3770,120.64,-4.9973,3.3647,0.1797,0.0000,0.0000,-2.7282,flat,18.0,2,2.478
3780,120.96,-5.5210,3.1329,0.1797,0.0000,0.0000,-2.7176,flat,18.0,2,1.908
3790,121.28,-6.0415,2.8955,0.1797,0.0000,0.0000,-2.7049,flat,18.0,2,1.340
3800,121.60,-6.5571,2.6516,0.1797,0.0001,0.0000,-2.6866,flat,18.0,3,0.778
3810,121.92,-6.9613,2.4168,0.1799,-0.0001,0.0000,-2.4402,flat,18.0,3,10.670
3820,122.24,-7.2940,2.0707,0.1799,0.0000,-0.0000,-2.2036,flat,18.0,3,10.429
3830,122.56,-7.5697,1.6316,0.1799,0.0000,-0.0000,-1.9880,flat,18.0,3,10.097
3840,122.88,-7.7644,1.1273,0.1799,0.0000,-0.0000,-1.7973,flat,18.0,3,9.692
3850,123.20,-7.8696,0.5866,0.1799,0.0001,-0.0000,-1.6394,flat,18.0,3,9.231
3860,123.52,-7.8929,0.0309,0.1799,0.0003,-0.0000,-1.5141,flat,18.0,3,8.733
3870,123.84,-7.8502,-0.5262,0.1798,0.0004,-0.0000,-1.4214,flat,18.0,3,8.211
3880,124.16,-7.7577,-1.0795,0.1798,0.0003,-0.0000,-1.3496,flat,18.0,3,7.676
3890,124.48,-7.6266,-1.6269,0.1797,0.0002,-0.0000,-1.2919,flat,18.0,3,7.130
3900,124.80,-7.4647,-2.1676,0.1797,0.0002,-0.0000,-1.2440,flat,18.0,3,6.579
3910,125.12,-7.2773,-2.7006,0.1797,0.0001,-0.0000,-1.2053,flat,18.0,3,6.023
3920,125.44,-7.0696,-3.2269,0.1797,0.0001,-0.0000,-1.1715,flat,18.0,3,5.465
3930,125.76,-6.8442,-3.7468,0.1797,0.0001,-0.0000,-1.1410,flat,18.0,3,4.904
3940,126.08,-6.6031,-4.2602,0.1797,0.0001,-0.0000,-1.1129,flat,18.0,3,4.341
3950,126.40,-6.3476,-4.7670,0.1797,0.0001,-0.0000,-1.0863,flat,18.0,3,3.778
3960,126.72,-6.0786,-5.2670,0.1797,0.0001,-0.0000,-1.0604,flat,18.0,3,3.213
3970,127.04,-5.7966,-5.7596,0.1797,0.0001,0.0000,-1.0343,flat,18.0,3,2.648
3980,127.36,-5.5018,-6.2439,0.1797,0.0001,0.0000,-1.0064,flat,18.0,3,2.084
3990,127.68,-5.1937,-6.7179,0.1797,0.0001,0.0000,-0.9740,flat,18.0,3,1.521
4000,128.00,-4.8704,-7.1773,0.1797,0.0001,0.0000,-0.9298,flat,18.0,3,0.961
4010,128.32,-4.5706,-7.5419,0.1799,-0.0003,-0.0000,-0.7107,flat,18.0,0,15.989
4020,128.64,-4.1990,-7.8008,0.1799,0.0000,-0.0000,-0.4172,flat,18.0,0,15.852
4030,128.96,-3.7320,-7.9747,0.1799,-0.0000,-0.0000,-0.1509,flat,18.0,0,15.600
4040,129.28,-3.2093,-8.0310,0.1799,0.0000,-0.0000,0.0714,flat,18.0,0,15.240
4050,129.60,-2.6721,-7.9735,0.1799,0.0001,-0.0000,0.2363,flat,18.0,0,14.802
4060,129.92,-2.1434,-7.8295,0.1799,0.0003,-0.0000,0.3534,flat,18.0,0,14.317
4070,130.24,-1.6292,-7.6252,0.1798,0.0004,-0.0000,0.4398,flat,18.0,0,13.805
4080,130.56,-1.1301,-7.3771,0.1797,0.0003,-0.0000,0.5068,flat,18.0,0,13.276
4090,130.88,-0.6451,-7.0960,0.1797,0.0002,-0.0000,0.5604,flat,18.0,0,12.735
4100,131.20,-0.1734,-6.7889,0.1797,0.0002,-0.0000,0.6031,flat,18.0,0,12.187
4110,131.52,0.2867,-6.4618,0.1797,0.0001,-0.0000,0.6381,flat,18.0,0,11.633
4120,131.84,0.7368,-6.1187,0.1797,0.0001,-0.0000,0.6681,flat,18.0,0,11.076
4130,132.16,1.1779,-5.7619,0.1797,0.0001,-0.0000,0.6943,flat,18.0,0,10.515
4140,132.48,1.6108,-5.3936,0.1797,0.0001,-0.0000,0.7174,flat,18.0,0,9.952
4150,132.80,2.0362,-5.0153,0.1797,0.0001,-0.0000,0.7385,flat,18.0,0,9.386
4160,133.12,2.4545,-4.6279,0.1797,0.0001,-0.0000,0.7577,flat,18.0,0,8.819
4170,133.44,2.8661,-4.2324,0.1797,0.0001,-0.0000,0.7748,flat,18.0,0,8.251
4180,133.76,3.2713,-3.8299,0.1797,0.0001,-0.0000,0.7904,flat,18.0,0,7.682
4190,134.08,3.6708,-3.4210,0.1797,0.0001,-0.0000,0.8047,flat,18.0,0,7.112
4200,134.40,4.0647,-3.0065,0.1797,0.0000,-0.0000,0.8181,flat,18.0,0,6.541
4210,134.72,4.4533,-2.5865,0.1797,0.0000,-0.0000,0.8307,flat,18.0,0,5.970
4220,135.04,4.8368,-2.1618,0.1797,0.0000,-0.0000,0.8425,flat,18.0,0,5.399
4230,135.36,5.2156,-1.7326,0.1797,0.0000,-0.0000,0.8536,flat,18.0,0,4.827
4240,135.68,5.5898,-1.2994,0.1797,0.0000,-0.0000,0.8643,flat,18.0,0,4.255
4250,136.00,5.9593,-0.8621,0.1797,0.0000,-0.0000,0.8748,flat,18.0,0,3.683
4260,136.32,6.3243,-0.4210,0.1797,0.0000,0.0000,0.8854,flat,18.0,0,3.110
4270,136.64,6.6844,0.0239,0.1797,0.0000,0.0000,0.8965,flat,18.0,0,2.538
4280,136.96,7.0392,0.4727,0.1797,0.0000,0.0000,0.9086,flat,18.0,0,1.966
4290,137.28,7.3879,0.9255,0.1797,0.0000,0.0000,0.9229,flat,18.0,0,1.394
4300,137.60,7.7285,1.3827,0.1797,0.0001,0.0000,0.9423,flat,18.0,0,0.824
4310,137.92,7.9865,1.8001,0.1799,-0.0001,-0.0000,1.2026,flat,18.0,1,5.253
4320,138.24,8.1257,2.2370,0.1799,-0.0004,0.0002,1.4473,rough,14.0,1,5.032
4330,138.56,8.1673,2.6821,0.1799,0.0000,-0.0001,1.6318,flat,18.0,1,4.764
4340,138.88,8.1101,3.2033,0.1799,0.0001,-0.0000,1.8596,flat,18.0,1,4.400
4350,139.20,7.9357,3.7055,0.1799,0.0001,-0.0000,2.0288,flat,18.0,1,3.979
4360,139.52,7.6769,4.1766,0.1799,0.0002,-0.0000,2.1631,flat,18.0,1,3.526
4370,139.84,7.3544,4.6157,0.1798,0.0004,-0.0000,2.2668,flat,18.0,1,3.052
4380,140.16,6.9874,5.0179,0.1798,0.0004,0.0000,2.3695,flat,18.0,1,2.573
4390,140.48,6.5798,5.3790,0.1798,0.0004,-0.0000,2.4839,flat,18.0,1,2.092
4400,140.80,6.1333,5.6920,0.1799,0.0002,-0.0000,2.6214,flat,18.0,1,1.614
4410,141.12,5.6518,5.9390,0.1799,0.0000,0.0000,2.8079,flat,18.0,1,1.147
4420,141.44,5.1501,6.0787,0.1800,0.0003,-0.0002,3.0508,flat,18.0,2,12.924
4430,141.76,4.5935,6.1152,0.1798,0.0004,0.0001,3.1413,flat,18.0,2,12.407
4440,142.08,4.0299,6.1064,0.1798,0.0003,0.0000,-3.0681,flat,18.0,2,11.871
4450,142.40,3.4668,6.0580,0.1797,0.0002,-0.0000,-3.0123,flat,18.0,2,11.324
4460,142.72,2.9055,5.9793,0.1797,0.0002,-0.0000,-2.9678,flat,18.0,2,10.771
4470,143.04,2.3478,5.8765,0.1797,0.0001,-0.0000,-2.9335,flat,18.0,2,10.213
4480,143.36,1.7926,5.7551,0.1797,0.0001,-0.0000,-2.9047,flat,18.0,2,9.652
4490,143.68,1.2401,5.6179,0.1797,0.0001,-0.0000,-2.8801,flat,18.0,2,9.088
4500,144.00,0.6903,5.4674,0.1797,0.0001,-0.0000,-2.8588,flat,18.0,2,8.523
4510,144.32,0.1430,5.3054,0.1797,0.0001,-0.0000,-2.8403,flat,18.0,2,7.956
4520,144.64,-0.4018,5.1334,0.1797,0.0001,-0.0000,-2.8240,flat,18.0,2,7.388
4530,144.96,-0.9442,4.9525,0.1797,0.0001,-0.0000,-2.8094,flat,18.0,2,6.818
4540,145.28,-1.4844,4.7639,0.1797,0.0000,-0.0000,-2.7963,flat,18.0,2,6.248
4550,145.60,-2.0223,4.5682,0.1797,0.0000,-0.0000,-2.7843,flat,18.0,2,5.678
4560,145.92,-2.5582,4.3661,0.1797,0.0000,-0.0000,-2.7733,flat,18.0,2,5.107
4570,146.24,-3.0921,4.1582,0.1797,0.0000,-0.0000,-2.7630,flat,18.0,2,4.536
4580,146.56,-3.6239,3.9448,0.1797,0.0000,-0.0000,-2.7532,flat,18.0,2,3.964
4590,146.88,-4.1536,3.7261,0.1797,0.0000,-0.0000,-2.7436,flat,18.0,2,3.393
4600,147.20,-4.6812,3.5024,0.1797,0.0000,0.0000,-2.7340,flat,18.0,2,2.822
4610,147.52,-5.2065,3.2737,0.1797,0.0000,0.0000,-2.7239,flat,18.0,2,2.251
4620,147.84,-5.7290,3.0396,0.1797,0.0000,0.0000,-2.7126,flat,18.0,2,1.682
4630,148.16,-6.2478,2.7997,0.1797,0.0000,0.0000,-2.6984,flat,18.0,2,1.115
4640,148.48,-6.7310,2.5688,0.1798,-0.0001,0.0002,-2.5941,flat,18.0,3,10.762
4650,148.80,-7.0990,2.2925,0.1799,0.0000,-0.0000,-2.3414,flat,18.0,3,10.587
4660,149.12,-7.4118,1.9051,0.1799,0.0000,-0.0000,-2.1147,flat,18.0,3,10.306
4670,149.44,-7.6572,1.4365,0.1799,0.0000,-0.0000,-1.9082,flat,18.0,3,9.943
4680,149.76,-7.8160,0.9143,0.1799,0.0001,-0.0000,-1.7302,flat,18.0,3,9.513
4690,150.08,-7.8871,0.3656,0.1799,0.0001,-0.0000,-1.5851,flat,18.0,3,9.036
4700,150.40,-7.8817,-0.1918,0.1798,0.0004,-0.0000,-1.4739,flat,18.0,3,8.526
4710,150.72,-7.8174,-0.7477,0.1798,0.0004,-0.0000,-1.3907,flat,18.0,3,7.998
4720,151.04,-7.7084,-1.2988,0.1797,0.0003,-0.0000,-1.3252,flat,18.0,3,7.458
4730,151.36,-7.5643,-1.8436,0.1797,0.0002,-0.0000,-1.2718,flat,18.0,3,6.910
4740,151.68,-7.3915,-2.3814,0.1797,0.0002,-0.0000,-1.2277,flat,18.0,3,6.357
4750,152.00,-7.1957,-2.9116,0.1797,0.0001,-0.0000,-1.1914,flat,18.0,3,5.800
4760,152.32,-6.9807,-3.4354,0.1797,0.0001,-0.0000,-1.1591,flat,18.0,3,5.240
4770,152.64,-6.7489,-3.9527,0.1797,0.0001,-0.0000,-1.1296,flat,18.0,3,4.679
4780,152.96,-6.5019,-4.4635,0.1797,0.0001,-0.0000,-1.1022,flat,18.0,3,4.116
4790,153.28,-6.2410,-4.9677,0.1797,0.0001,-0.0000,-1.0760,flat,18.0,3,3.552
4800,153.60,-5.9668,-5.4648,0.1797,0.0001,-0.0000,-1.0502,flat,18.0,3,2.987
4810,153.92,-5.6799,-5.9543,0.1797,0.0001,0.0000,-1.0236,flat,18.0,3,2.422
4820,154.24,-5.3799,-6.4349,0.1797,0.0001,0.0000,-0.9944,flat,18.0,3,1.858
4830,154.56,-5.0660,-6.9038,0.1797,0.0001,0.0000,-0.9585,flat,18.0,3,1.296
4840,154.88,-4.7392,-7.3530,0.1797,0.0001,0.0003,-0.8905,flat,18.0,0,16.013
4850,155.20,-4.4355,-7.6522,0.1799,-0.0002,-0.0000,-0.5911,flat,18.0,0,15.948
4860,155.52,-4.0214,-7.8832,0.1799,-0.0000,-0.0000,-0.3070,flat,18.0,0,15.765
4870,155.84,-3.5271,-8.0120,0.1799,-0.0000,-0.0001,-0.0563,flat,18.0,0,15.467
4880,156.16,-2.9945,-8.0206,0.1799,0.0001,-0.0000,0.1439,flat,18.0,0,15.072
4890,156.48,-2.4590,-7.9248,0.1799,0.0002,-0.0000,0.2879,flat,18.0,0,14.612
4900,156.80,-1.9359,-7.7542,0.1798,0.0004,-0.0000,0.3908,flat,18.0,0,14.115
4910,157.12,-1.4277,-7.5308,0.1798,0.0003,-0.0000,0.4686,flat,18.0,0,13.595
4920,157.44,-0.9344,-7.2685,0.1797,0.0002,-0.0000,0.5296,flat,18.0,0,13.061
4930,157.76,-0.4547,-6.9763,0.1797,0.0002,-0.0000,0.5790,flat,18.0,0,12.517
4940,158.08,0.0119,-6.6605,0.1797,0.0001,-0.0000,0.6177,flat,18.0,0,11.966
4950,158.40,0.4679,-6.3266,0.1797,0.0001,-0.0000,0.6506,flat,18.0,0,11.411
4960,158.72,0.9144,-5.9778,0.1797,0.0001,-0.0000,0.6790,flat,18.0,0,10.852
4970,159.04,1.3521,-5.6161,0.1797,0.0001,-0.0000,0.7038,flat,18.0,0,10.290
4980,159.36,1.7819,-5.2437,0.1797,0.0001,-0.0000,0.7261,flat,18.0,0,9.726
4990,159.68,2.2044,-4.8616,0.1797,0.0001,-0.0000,0.7464,flat,18.0,0,9.160
5000,160.00,2.6200,-4.4709,0.1797,0.0001,-0.0000,0.7648,flat,18.0,0,8.592
5010,160.32,3.0289,-4.0725,0.1797,0.0001,-0.0000,0.7812,flat,18.0,0,8.024
5020,160.64,3.4318,-3.6673,0.1797,0.0001,-0.0000,0.7962,flat,18.0,0,7.454
5030,160.96,3.8290,-3.2561,0.1797,0.0000,-0.0000,0.8102,flat,18.0,0,6.884
5040,161.28,4.2207,-2.8393,0.1797,0.0000,-0.0000,0.8233,flat,18.0,0,6.313
5050,161.60,4.6073,-2.4174,0.1797,0.0000,-0.0000,0.8355,flat,18.0,0,5.742
5060,161.92,4.9889,-1.9909,0.1797,0.0000,-0.0000,0.8470,flat,18.0,0,5.170
5070,162.24,5.3658,-1.5600,0.1797,0.0000,-0.0000,0.8580,flat,18.0,0,4.598
5080,162.56,5.7381,-1.1251,0.1797,0.0000,-0.0000,0.8685,flat,18.0,0,4.026
5090,162.88,6.1058,-0.6863,0.1797,0.0000,-0.0000,0.8791,flat,18.0,0,3.454
5100,163.20,6.4688,-0.2437,0.1797,0.0000,0.0000,0.8898,flat,18.0,0,2.882
5110,163.52,6.8269,0.2028,0.1797,0.0000,0.0000,0.9012,flat,18.0,0,2.309
5120,163.84,7.1794,0.6532,0.1797,0.0000,0.0000,0.9140,flat,18.0,0,1.737
5130,164.16,7.5252,1.1077,0.1797,0.0001,0.0000,0.9298,flat,18.0,0,1.166
5140,164.48,7.8439,1.5512,0.1798,0.0001,0.0002,1.0179,flat,18.0,1,5.353
5150,164.80,8.0622,1.9833,0.1799,0.0001,-0.0000,1.3230,flat,18.0,1,5.169
5160,165.12,8.1507,2.3989,0.1798,0.0001,0.0001,1.5183,rough,14.0,1,4.939
5170,165.44,8.1608,2.8908,0.1799,-0.0000,-0.0000,1.7315,flat,18.0,1,4.628
5180,165.76,8.0522,3.4073,0.1799,0.0001,-0.0000,1.9327,flat,18.0,1,4.237
5190,166.08,7.8409,3.8979,0.1799,0.0001,-0.0000,2.0858,flat,18.0,1,3.801
5200,166.40,7.5544,4.3557,0.1799,0.0003,-0.0000,2.2081,flat,18.0,1,3.338
5210,166.72,7.2126,4.7815,0.1798,0.0004,-0.0000,2.3068,flat,18.0,1,2.860
5220,167.04,6.8292,5.1672,0.1798,0.0004,-0.0000,2.4133,flat,18.0,1,2.380
5230,167.36,6.4058,5.5107,0.1799,0.0003,-0.0000,2.5351,flat,18.0,1,1.900
5240,167.68,5.9444,5.8000,0.1799,0.0001,0.0000,2.6876,flat,18.0,1,1.425
5250,168.00,5.4522,6.0130,0.1799,0.0000,0.0000,2.9112,flat,18.0,1,0.969
5260,168.32,4.9294,6.0971,0.1799,0.0010,0.0012,3.0872,flat,18.0,2,12.720
5270,168.64,4.3682,6.1172,0.1798,0.0004,0.0000,-3.1099,flat,18.0,2,12.194
5280,168.96,3.8044,6.0913,0.1798,0.0003,-0.0000,-3.0438,flat,18.0,2,11.653
5290,169.28,3.2421,6.0299,0.1797,0.0002,-0.0000,-2.9933,flat,18.0,2,11.104
5300,169.60,2.6822,5.9407,0.1797,0.0001,-0.0000,-2.9533,flat,18.0,2,10.548
5310,169.92,2.1254,5.8301,0.1797,0.0001,-0.0000,-2.9214,flat,18.0,2,9.989
5320,170.24,1.5713,5.7021,0.1797,0.0001,-0.0000,-2.8944,flat,18.0,2,9.427
5330,170.56,1.0199,5.5593,0.1797,0.0001,-0.0000,-2.8712,flat,18.0,2,8.863
5340,170.88,0.4711,5.4040,0.1797,0.0001,-0.0000,-2.8511,flat,18.0,2,8.296
5350,171.20,-0.0752,5.2378,0.1797,0.0001,-0.0000,-2.8335,flat,18.0,2,7.729
5360,171.52,-0.6190,5.0621,0.1797,0.0001,-0.0000,-2.8179,flat,18.0,2,7.160
5370,171.84,-1.1605,4.8780,0.1797,0.0000,-0.0000,-2.8040,flat,18.0,2,6.590
5380,172.16,-1.6998,4.6865,0.1797,0.0000,-0.0000,-2.7914,flat,18.0,2,6.020
5390,172.48,-2.2369,4.4882,0.1797,0.0000,-0.0000,-2.7798,flat,18.0,2,5.450
5400,172.80,-2.7720,4.2837,0.1797,0.0000,-0.0000,-2.7691,flat,18.0,2,4.879
5410,173.12,-3.3050,4.0735,0.1797,0.0000,-0.0000,-2.7590,flat,18.0,2,4.307
5420,173.44,-3.8360,3.8580,0.1797,0.0000,-0.0000,-2.7493,flat,18.0,2,3.736
5430,173.76,-4.3649,3.6373,0.1797,0.0000,-0.0000,-2.7397,flat,18.0,2,3.165
5440,174.08,-4.8916,3.4116,0.1797,0.0000,0.0000,-2.7300,flat,18.0,2,2.594
5450,174.40,-5.4158,3.1808,0.1797,0.0000,0.0000,-2.7196,flat,18.0,2,2.023
5460,174.72,-5.9370,2.9444,0.1797,0.0000,0.0000,-2.7074,flat,18.0,2,1.455
5470,175.04,-6.4537,2.7018,0.1797,0.0001,0.0000,-2.6909,flat,18.0,2,0.891
5480,175.36,-6.8875,2.4718,0.1799,-0.0002,0.0000,-2.4936,flat,18.0,3,10.705
5490,175.68,-7.2302,2.1489,0.1799,0.0000,-0.0000,-2.2489,flat,18.0,3,10.485
5500,176.00,-7.5194,1.7260,0.1799,0.0000,-0.0000,-2.0292,flat,18.0,3,10.170
5510,176.32,-7.7316,1.2324,0.1799,0.0000,-0.0000,-1.8329,flat,18.0,3,9.778
5520,176.64,-7.8544,0.6969,0.1799,0.0001,-0.0000,-1.6684,flat,18.0,3,9.327
5530,176.96,-7.8931,0.1429,0.1799,0.0002,-0.0000,-1.5362,flat,18.0,3,8.835
5540,177.28,-7.8621,-0.4146,0.1798,0.0004,-0.0000,-1.4380,flat,18.0,3,8.317
5550,177.60,-7.7785,-0.9688,0.1798,0.0003,-0.0000,-1.3627,flat,18.0,3,7.784
5560,177.92,-7.6545,-1.5175,0.1797,0.0002,-0.0000,-1.3026,flat,18.0,3,7.240
5570,178.24,-7.4983,-2.0596,0.1797,0.0002,-0.0000,-1.2530,flat,18.0,3,6.689
5580,178.56,-7.3156,-2.5942,0.1797,0.0001,-0.0000,-1.2126,flat,18.0,3,6.134
5590,178.88,-7.1118,-3.1218,0.1797,0.0001,-0.0000,-1.1781,flat,18.0,3,5.576
5600,179.20,-6.8899,-3.6430,0.1797,0.0001,-0.0000,-1.1470,flat,18.0,3,5.016
5610,179.52,-6.6518,-4.1578,0.1797,0.0001,-0.0000,-1.1185,flat,18.0,3,4.454
5620,179.84,-6.3991,-4.6660,0.1797,0.0001,-0.0000,-1.0916,flat,18.0,3,3.890
5630,180.16,-6.1328,-5.1674,0.1797,0.0001,-0.0000,-1.0657,flat,18.0,3,3.326
5640,180.48,-5.8535,-5.6616,0.1797,0.0001,0.0000,-1.0397,flat,18.0,3,2.761
5650,180.80,-5.5614,-6.1477,0.1797,0.0001,0.0000,-1.0124,flat,18.0,3,2.196
5660,181.12,-5.2561,-6.6241,0.1797,0.0001,0.0000,-0.9812,flat,18.0,3,1.633
5670,181.44,-4.9362,-7.0868,0.1797,0.0001,0.0000,-0.9403,flat,18.0,3,1.072
5680,181.76,-4.6307,-7.4849,0.1798,-0.0001,0.0002,-0.7712,flat,18.0,0,16.003
5690,182.08,-4.2820,-7.7543,0.1799,0.0000,-0.0000,-0.4742,flat,18.0,0,15.889
5700,182.40,-3.8310,-7.9489,0.1799,-0.0000,-0.0000,-0.2018,flat,18.0,0,15.659
5710,182.72,-3.3162,-8.0298,0.1799,0.0000,-0.0000,0.0316,flat,18.0,0,15.319
5720,183.04,-2.7793,-7.9932,0.1799,0.0001,-0.0000,0.2075,flat,18.0,0,14.894
5730,183.36,-2.2480,-7.8641,0.1799,0.0003,-0.0000,0.3329,flat,18.0,0,14.417
5740,183.68,-1.7308,-7.6703,0.1798,0.0004,-0.0000,0.4243,flat,18.0,0,13.909
5750,184.00,-1.2287,-7.4300,0.1798,0.0003,-0.0000,0.4947,flat,18.0,0,13.383
5760,184.32,-0.7409,-7.1548,0.1797,0.0002,-0.0000,0.5506,flat,18.0,0,12.844
5770,184.64,-0.2666,-6.8524,0.1797,0.0002,-0.0000,0.5954,flat,18.0,0,12.297
5780,184.96,0.1955,-6.5290,0.1797,0.0001,-0.0000,0.6315,flat,18.0,0,11.745
5790,185.28,0.6476,-6.1888,0.1797,0.0001,-0.0000,0.6625,flat,18.0,0,11.188
5800,185.60,1.0905,-5.8346,0.1797,0.0001,-0.0000,0.6893,flat,18.0,0,10.627
5810,185.92,1.5249,-5.4684,0.1797,0.0001,-0.0000,0.7130,flat,18.0,0,10.065
5820,186.24,1.9518,-5.0920,0.1797,0.0001,-0.0000,0.7344,flat,18.0,0,9.500
5830,186.56,2.3715,-4.7063,0.1797,0.0001,-0.0000,0.7540,flat,18.0,0,8.933
5840,186.88,2.7843,-4.3124,0.1797,0.0001,-0.0000,0.7716,flat,18.0,0,8.365
5850,187.20,3.1908,-3.9112,0.1797,0.0001,-0.0000,0.7874,flat,18.0,0,7.796
5860,187.52,3.5914,-3.5036,0.1797,0.0001,-0.0000,0.8019,flat,18.0,0,7.226
5870,187.84,3.9864,-3.0901,0.1797,0.0000,-0.0000,0.8155,flat,18.0,0,6.656
5880,188.16,4.3760,-2.6712,0.1797,0.0000,-0.0000,0.8283,flat,18.0,0,6.085
5890,188.48,4.7605,-2.2474,0.1797,0.0000,-0.0000,0.8402,flat,18.0,0,5.513
5900,188.80,5.1402,-1.8191,0.1797,0.0000,-0.0000,0.8515,flat,18.0,0,4.941
5910,189.12,5.5153,-1.3866,0.1797,0.0000,-0.0000,0.8622,flat,18.0,0,4.369
5920,189.44,5.8857,-0.9501,0.1797,0.0000,-0.0000,0.8727,flat,18.0,0,3.797
5930,189.76,6.2516,-0.5097,0.1797,0.0000,0.0000,0.8833,flat,18.0,0,3.225
5940,190.08,6.6127,-0.0656,0.1797,0.0000,0.0000,0.8942,flat,18.0,0,2.653
5950,190.40,6.9686,0.3824,0.1797,0.0000,0.0000,0.9061,flat,18.0,0,2.081
5960,190.72,7.3187,0.8344,0.1797,0.0000,0.0000,0.9198,flat,18.0,0,1.509
5970,191.04,7.6611,1.2907,0.1797,0.0001,0.0000,0.9378,flat,18.0,0,0.938
5980,191.36,7.9421,1.7134,0.1799,-0.0002,-0.0000,1.1415,flat,18.0,1,5.290
5990,191.68,8.1099,2.1481,0.1799,0.0001,0.0001,1.4151,flat,18.0,1,5.084
6000,192.00,8.1629,2.5808,0.1799,0.0000,-0.0003,1.5804,flat,18.0,1,4.827
6010,192.32,8.1322,3.0996,0.1799,0.0001,-0.0000,1.8198,flat,18.0,1,4.479
6020,192.64,7.9782,3.6072,0.1799,0.0001,-0.0000,1.9983,flat,18.0,1,4.067
6030,192.96,7.7343,4.0850,0.1799,0.0002,-0.0000,2.1383,flat,18.0,1,3.618
6040,193.28,7.4229,4.5303,0.1798,0.0003,-0.0000,2.2472,flat,18.0,1,3.147
6050,193.60,7.0641,4.9408,0.1798,0.0004,0.0000,2.3482,flat,18.0,1,2.669
6060,193.92,6.6646,5.3101,0.1798,0.0004,-0.0000,2.4596,flat,18.0,1,2.188
6070,194.24,6.2256,5.6339,0.1799,0.0002,-0.0000,2.5911,flat,18.0,1,1.709
6080,194.56,5.7505,5.8960,0.1799,0.0000,0.0000,2.7642,flat,18.0,1,1.239
6090,194.88,5.2518,6.0687,0.1799,0.0000,0.0000,3.0468,flat,18.0,2,0.798
6100,195.20,4.7060,6.1112,0.1798,0.0003,0.0002,3.1237,flat,18.0,2,12.512
6110,195.52,4.1427,6.1118,0.1798,0.0003,0.0000,-3.0813,flat,18.0,2,11.979
6120,195.84,3.5794,6.0704,0.1797,0.0002,-0.0000,-3.0224,flat,18.0,2,11.434
6130,196.16,3.0176,5.9973,0.1797,0.0002,-0.0000,-2.9757,flat,18.0,2,10.882
6140,196.48,2.4592,5.8988,0.1797,0.0001,-0.0000,-2.9399,flat,18.0,2,10.325
6150,196.80,1.9035,5.7809,0.1797,0.0001,-0.0000,-2.9101,flat,18.0,2,9.765
6160,197.12,1.3505,5.6466,0.1797,0.0001,-0.0000,-2.8847,flat,18.0,2,9.201
6170,197.44,0.8001,5.4986,0.1797,0.0001,-0.0000,-2.8629,flat,18.0,2,8.636
6180,197.76,0.2523,5.3388,0.1797,0.0001,-0.0000,-2.8438,flat,18.0,2,8.069
6190,198.08,-0.2930,5.1686,0.1797,0.0001,-0.0000,-2.8271,flat,18.0,2,7.501
6200,198.40,-0.8358,4.9895,0.1797,0.0001,-0.0000,-2.8122,flat,18.0,2,6.932
6210,198.72,-1.3764,4.8023,0.1797,0.0000,-0.0000,-2.7988,flat,18.0,2,6.362
6220,199.04,-1.9148,4.6080,0.1797,0.0000,-0.0000,-2.7866,flat,18.0,2,5.792
6230,199.36,-2.4511,4.4071,0.1797,0.0000,-0.0000,-2.7754,flat,18.0,2,5.221
6240,199.68,-2.9854,4.2003,0.1797,0.0000,-0.0000,-2.7650,flat,18.0,2,4.650
6250,200.00,-3.5176,3.9880,0.1797,0.0000,-0.0000,-2.7551,flat,18.0,2,4.079
6260,200.32,-4.0478,3.7704,0.1797,0.0000,-0.0000,-2.7455,flat,18.0,2,3.507
6270,200.64,-4.5758,3.5477,0.1797,0.0000,0.0000,-2.7359,flat,18.0,2,2.936
6280,200.96,-5.1015,3.3199,0.1797,0.0000,0.0000,-2.7260,flat,18.0,2,2.365
6290,201.28,-5.6246,3.0870,0.1797,0.0000,0.0000,-2.7150,flat,18.0,2,1.796
6300,201.60,-6.1443,2.8483,0.1797,0.0000,0.0000,-2.7016,flat,18.0,2,1.228
6310,201.92,-6.6486,2.6112,0.1797,0.0000,0.0003,-2.6424,flat,18.0,3,10.784
6320,202.24,-7.0307,2.3578,0.1799,0.0000,-0.0000,-2.3892,flat,18.0,3,10.631
6330,202.56,-7.3536,1.9899,0.1799,0.0000,-0.0000,-2.1587,flat,18.0,3,10.369
6340,202.88,-7.6146,1.5355,0.1799,0.0000,-0.0000,-1.9475,flat,18.0,3,10.022
6350,203.20,-7.7914,1.0216,0.1799,0.0001,-0.0000,-1.7630,flat,18.0,3,9.604
6360,203.52,-7.8793,0.4765,0.1799,0.0001,-0.0000,-1.6117,flat,18.0,3,9.134
6370,203.84,-7.8879,-0.0802,0.1799,0.0003,-0.0000,-1.4934,flat,18.0,3,8.630
6380,204.16,-7.8341,-0.6368,0.1798,0.0004,-0.0000,-1.4057,flat,18.0,3,8.105
6390,204.48,-7.7332,-1.1890,0.1798,0.0003,-0.0000,-1.3372,flat,18.0,3,7.567
6400,204.80,-7.5955,-1.7351,0.1797,0.0002,-0.0000,-1.2817,flat,18.0,3,7.020
6410,205.12,-7.4281,-2.2745,0.1797,0.0002,-0.0000,-1.2355,flat,18.0,3,6.468
6420,205.44,-7.2364,-2.8060,0.1797,0.0001,-0.0000,-1.1983,flat,18.0,3,5.911
6430,205.76,-7.0250,-3.3311,0.1797,0.0001,-0.0000,-1.1653,flat,18.0,3,5.352
6440,206.08,-6.7965,-3.8497,0.1797,0.0001,-0.0000,-1.1353,flat,18.0,3,4.791
6450,206.40,-6.5524,-4.3618,0.1797,0.0001,-0.0000,-1.1076,flat,18.0,3,4.228
6460,206.72,-6.2942,-4.8674,0.1797,0.0001,-0.0000,-1.0812,flat,18.0,3,3.664
6470,207.04,-6.0226,-5.3660,0.1797,0.0001,-0.0000,-1.0554,flat,18.0,3,3.100
6480,207.36,-5.7382,-5.8571,0.1797,0.0001,0.0000,-1.0291,flat,18.0,3,2.535
6490,207.68,-5.4409,-6.3395,0.1797,0.0001,0.0000,-1.0006,flat,18.0,3,1.971
6500,208.00,-5.1300,-6.8111,0.1797,0.0001,0.0000,-0.9666,flat,18.0,3,1.408
6510,208.32,-4.8034,-7.2670,0.1797,0.0002,0.0000,-0.9187,flat,18.0,3,0.849
6520,208.64,-4.5054,-7.5978,0.1799,-0.0003,-0.0000,-0.6508,flat,18.0,0,15.971
6530,208.96,-4.1119,-7.8440,0.1799,-0.0000,-0.0000,-0.3615,flat,18.0,0,15.811
6540,209.28,-3.6305,-7.9960,0.1799,-0.0001,-0.0000,-0.1020,flat,18.0,0,15.536
6550,209.60,-3.1019,-8.0281,0.1799,0.0001,-0.0000,0.1086,flat,18.0,0,15.157
6560,209.92,-2.5653,-7.9509,0.1799,0.0001,-0.0000,0.2630,flat,18.0,0,14.708
6570,210.24,-2.0393,-7.7931,0.1798,0.0004,-0.0000,0.3726,flat,18.0,0,14.217
6580,210.56,-1.5281,-7.5790,0.1798,0.0004,-0.0000,0.4545,flat,18.0,0,13.701
6590,210.88,-1.0319,-7.3236,0.1797,0.0002,-0.0000,0.5185,flat,18.0,0,13.169
6600,211.20,-0.5496,-7.0368,0.1797,0.0002,-0.0000,0.5699,flat,18.0,0,12.626
6610,211.52,-0.0805,-6.7252,0.1797,0.0001,-0.0000,0.6105,flat,18.0,0,12.077
6620,211.84,0.3775,-6.3947,0.1797,0.0001,-0.0000,0.6444,flat,18.0,0,11.522
6630,212.16,0.8258,-6.0487,0.1797,0.0001,-0.0000,0.6736,flat,18.0,0,10.964
6640,212.48,1.2652,-5.6894,0.1797,0.0001,-0.0000,0.6991,flat,18.0,0,10.403
6650,212.80,1.6965,-5.3190,0.1797,0.0001,-0.0000,0.7218,flat,18.0,0,9.839
6660,213.12,2.1205,-4.9388,0.1797,0.0001,-0.0000,0.7425,flat,18.0,0,9.273
6670,213.44,2.5374,-4.5497,0.1797,0.0001,-0.0000,0.7613,flat,18.0,0,8.706
6680,213.76,2.9476,-4.1527,0.1797,0.0001,-0.0000,0.7781,flat,18.0,0,8.138
6690,214.08,3.3517,-3.7489,0.1797,0.0001,-0.0000,0.7933,flat,18.0,0,7.568
6700,214.40,3.7500,-3.3389,0.1797,0.0001,-0.0000,0.8075,flat,18.0,0,6.998
6710,214.72,4.1428,-2.9231,0.1797,0.0000,-0.0000,0.8207,flat,18.0,0,6.427
6720,215.04,4.5304,-2.5022,0.1797,0.0000,-0.0000,0.8332,flat,18.0,0,5.856
6730,215.36,4.9129,-2.0766,0.1797,0.0000,-0.0000,0.8448,flat,18.0,0,5.284
6740,215.68,5.2908,-1.6466,0.1797,0.0000,-0.0000,0.8558,flat,18.0,0,4.713
6750,216.00,5.6640,-1.2124,0.1797,0.0000,-0.0000,0.8664,flat,18.0,0,4.141
6760,216.32,6.0326,-0.7744,0.1797,0.0000,-0.0000,0.8769,flat,18.0,0,3.568
6770,216.64,6.3966,-0.3325,0.1797,0.0000,0.0000,0.8876,flat,18.0,0,2.996
6780,216.96,6.7557,0.1132,0.1797,0.0000,0.0000,0.8988,flat,18.0,0,2.424
6790,217.28,7.1094,0.5627,0.1797,0.0000,0.0000,0.9113,flat,18.0,0,1.852
6800,217.60,7.4567,1.0164,0.1797,0.0001,0.0000,0.9263,flat,18.0,0,1.280
6810,217.92,7.7925,1.4713,0.1797,0.0001,0.0002,0.9633,flat,18.0,1,5.385
6820,218.24,8.0266,1.8900,0.1799,-0.0000,-0.0000,1.2632,flat,18.0,1,5.213
6830,218.56,8.1388,2.3179,0.1799,-0.0000,0.0001,1.4794,rough,14.0,1,4.986
6840,218.88,8.1669,2.7862,0.1799,0.0001,-0.0000,1.6831,flat,18.0,1,4.698
6850,219.20,8.0833,3.3057,0.1799,0.0001,-0.0000,1.8971,flat,18.0,1,4.319
6860,219.52,7.8899,3.8023,0.1799,0.0001,-0.0000,2.0579,flat,18.0,1,3.891
6870,219.84,7.6169,4.2666,0.1799,0.0002,-0.0000,2.1864,flat,18.0,1,3.432
6880,220.16,7.2843,4.6993,0.1798,0.0004,-0.0000,2.2866,flat,18.0,1,2.956
6890,220.48,6.9091,5.0933,0.1798,0.0004,-0.0000,2.3911,flat,18.0,1,2.477
6900,220.80,6.4936,5.4458,0.1799,0.0003,-0.0000,2.5089,flat,18.0,1,1.996
6910,221.12,6.0395,5.7473,0.1799,0.0001,0.0000,2.6534,flat,18.0,1,1.519
6920,221.44,5.5524,5.9780,0.1799,0.0000,0.0000,2.8564,flat,18.0,1,1.057
6930,221.76,5.0415,6.0880,0.1800,0.0002,-0.0003,3.0683,flat,18.0,2,12.824
6940,222.08,4.4810,6.1172,0.1798,0.0004,0.0001,-3.1254,flat,18.0,2,12.301
6950,222.40,3.9172,6.0996,0.1798,0.0003,-0.0000,-3.0557,flat,18.0,2,11.762
6960,222.72,3.3545,6.0446,0.1797,0.0002,-0.0000,-3.0026,flat,18.0,2,11.214
6970,223.04,2.7939,5.9605,0.1797,0.0002,-0.0000,-2.9604,flat,18.0,2,10.660
6980,223.36,2.2366,5.8538,0.1797,0.0001,-0.0000,-2.9274,flat,18.0,2,10.101
6990,223.68,1.6820,5.7290,0.1797,0.0001,-0.0000,-2.8994,flat,18.0,2,9.540
7000,224.00,1.1300,5.5890,0.1797,0.0001,-0.0000,-2.8756,flat,18.0,2,8.976
7010,224.32,0.5807,5.4360,0.1797,0.0001,-0.0000,-2.8549,flat,18.0,2,8.410
7020,224.64,0.0339,5.2719,0.1797,0.0001,-0.0000,-2.8369,flat,18.0,2,7.842
7030,224.96,-0.5104,5.0980,0.1797,0.0001,-0.0000,-2.8209,flat,18.0,2,7.274
7040,225.28,-1.0523,4.9155,0.1797,0.0001,-0.0000,-2.8067,flat,18.0,2,6.704
7050,225.60,-1.5921,4.7254,0.1797,0.0000,-0.0000,-2.7938,flat,18.0,2,6.134
7060,225.92,-2.1296,4.5284,0.1797,0.0000,-0.0000,-2.7821,flat,18.0,2,5.564
7070,226.24,-2.6651,4.3251,0.1797,0.0000,-0.0000,-2.7712,flat,18.0,2,4.993
7080,226.56,-3.1985,4.1160,0.1797,0.0000,-0.0000,-2.7610,flat,18.0,2,4.422
7090,226.88,-3.7299,3.9016,0.1797,0.0000,-0.0000,-2.7512,flat,18.0,2,3.850
7100,227.20,-4.2592,3.6819,0.1797,0.0000,-0.0000,-2.7417,flat,18.0,2,3.279
7110,227.52,-4.7864,3.4572,0.1797,0.0000,0.0000,-2.7320,flat,18.0,2,2.708
7120,227.84,-5.3111,3.2274,0.1797,0.0000,0.0000,-2.7218,flat,18.0,2,2.137
7130,228.16,-5.8330,2.9922,0.1797,0.0000,0.0000,-2.7101,flat,18.0,2,1.568
7140,228.48,-6.3508,2.7510,0.1797,0.0001,0.0000,-2.6948,flat,18.0,2,1.003
7150,228.80,-6.8108,2.5222,0.1798,-0.0003,0.0000,-2.5450,flat,18.0,3,10.735
7160,229.12,-7.1653,2.2227,0.1799,0.0000,-0.0000,-2.2949,flat,18.0,3,10.538
7170,229.44,-7.4670,1.8171,0.1799,0.0000,-0.0000,-2.0715,flat,18.0,3,10.240
7180,229.76,-7.6962,1.3354,0.1799,0.0000,-0.0000,-1.8699,flat,18.0,3,9.862
7190,230.08,-7.8369,0.8061,0.1799,0.0001,-0.0000,-1.6986,flat,18.0,3,9.421
7200,230.40,-7.8915,0.2544,0.1799,0.0002,-0.0000,-1.5598,flat,18.0,3,8.936
7210,230.72,-7.8729,-0.3032,0.1798,0.0004,-0.0000,-1.4555,flat,18.0,3,8.422
7220,231.04,-7.7987,-0.8584,0.1798,0.0004,-0.0000,-1.3764,flat,18.0,3,7.891
7230,231.36,-7.6821,-1.4083,0.1797,0.0002,-0.0000,-1.3137,flat,18.0,3,7.349
7240,231.68,-7.5318,-1.9517,0.1797,0.0002,-0.0000,-1.2623,flat,18.0,3,6.800
7250,232.00,-7.3539,-2.4879,0.1797,0.0002,-0.0000,-1.2201,flat,18.0,3,6.245
7260,232.32,-7.1540,-3.0168,0.1797,0.0001,-0.0000,-1.1847,flat,18.0,3,5.688
7270,232.64,-6.9356,-3.5393,0.1797,0.0001,-0.0000,-1.1530,flat,18.0,3,5.128
7280,232.96,-6.7006,-4.0553,0.1797,0.0001,-0.0000,-1.1240,flat,18.0,3,4.566
7290,233.28,-6.4508,-4.5649,0.1797,0.0001,-0.0000,-1.0969,flat,18.0,3,4.003
7300,233.60,-6.1871,-5.0677,0.1797,0.0001,-0.0000,-1.0709,flat,18.0,3,3.439
7310,233.92,-5.9104,-5.5633,0.1797,0.0001,0.0000,-1.0450,flat,18.0,3,2.874
7320,234.24,-5.6209,-6.0512,0.1797,0.0001,0.0000,-1.0181,flat,18.0,3,2.309
7330,234.56,-5.3182,-6.5297,0.1797,0.0001,0.0000,-0.9879,flat,18.0,3,1.745
7340,234.88,-5.0014,-6.9957,0.1797,0.0001,0.0000,-0.9498,flat,18.0,3,1.184
7350,235.20,-4.6859,-7.4247,0.1798,0.0000,0.0004,-0.8320,flat,18.0,0,16.012
7360,235.52,-4.3610,-7.7046,0.1799,-0.0000,-0.0001,-0.5322,flat,18.0,0,15.921
7370,235.84,-3.9276,-7.9183,0.1799,-0.0000,-0.0000,-0.2537,flat,18.0,0,15.715
7380,236.16,-3.4222,-8.0234,0.1799,-0.0000,-0.0000,-0.0111,flat,18.0,0,15.395
7390,236.48,-2.8869,-8.0089,0.1799,0.0001,-0.0000,0.1767,flat,18.0,0,14.984
7400,236.80,-2.3532,-7.8958,0.1799,0.0002,-0.0000,0.3111,flat,18.0,0,14.515
7410,237.12,-1.8330,-7.7132,0.1798,0.0004,-0.0000,0.4080,flat,18.0,0,14.012
7420,237.44,-1.3279,-7.4811,0.1798,0.0003,-0.0000,0.4819,flat,18.0,0,13.489
7430,237.76,-0.8374,-7.2122,0.1797,0.0002,-0.0000,0.5403,flat,18.0,0,12.953
7440,238.08,-0.3603,-6.9148,0.1797,0.0002,-0.0000,0.5874,flat,18.0,0,12.407
7450,238.40,0.1039,-6.5951,0.1797,0.0001,-0.0000,0.6247,flat,18.0,0,11.856
7460,238.72,0.5580,-6.2580,0.1797,0.0001,-0.0000,0.6566,flat,18.0,0,11.299
7470,239.04,1.0026,-5.9064,0.1797,0.0001,-0.0000,0.6842,flat,18.0,0,10.740
7480,239.36,1.4387,-5.5425,0.1797,0.0001,-0.0000,0.7084,flat,18.0,0,10.177
7490,239.68,1.8670,-5.1680,0.1797,0.0001,-0.0000,0.7303,flat,18.0,0,9.613
7500,240.00,2.2881,-4.7842,0.1797,0.0001,-0.0000,0.7503,flat,18.0,0,9.047
7510,240.32,2.7023,-4.3918,0.1797,0.0001,-0.0000,0.7682,flat,18.0,0,8.479
7520,240.64,3.1100,-3.9920,0.1797,0.0001,-0.0000,0.7843,flat,18.0,0,7.910
7530,240.96,3.5117,-3.5856,0.1797,0.0001,-0.0000,0.7991,flat,18.0,0,7.340
7540,241.28,3.9078,-3.1732,0.1797,0.0000,-0.0000,0.8129,flat,18.0,0,6.770
7550,241.60,4.2985,-2.7554,0.1797,0.0000,-0.0000,0.8258,flat,18.0,0,6.199
7560,241.92,4.6840,-2.3325,0.1797,0.0000,-0.0000,0.8379,flat,18.0,0,5.627
7570,242.24,5.0646,-1.9051,0.1797,0.0000,-0.0000,0.8493,flat,18.0,0,5.056
7580,242.56,5.4406,-1.4734,0.1797,0.0000,-0.0000,0.8601,flat,18.0,0,4.484
7590,242.88,5.8120,-1.0377,0.1797,0.0000,-0.0000,0.8706,flat,18.0,0,3.912
7600,243.20,6.1788,-0.5981,0.1797,0.0000,0.0000,0.8812,flat,18.0,0,3.339
7610,243.52,6.5409,-0.1547,0.1797,0.0000,0.0000,0.8920,flat,18.0,0,2.767
7620,243.84,6.8979,0.2925,0.1797,0.0000,0.0000,0.9036,flat,18.0,0,2.195
7630,244.16,7.2492,0.7437,0.1797,0.0000,0.0000,0.9169,flat,18.0,0,1.623
7640,244.48,7.5934,1.1991,0.1797,0.0001,0.0000,0.9336,flat,18.0,0,1.052
7650,244.80,7.8940,1.6307,0.1798,-0.0002,0.0001,1.0800,flat,18.0,1,5.323
7660,245.12,8.0895,2.0707,0.1799,0.0002,0.0006,1.3719,rough,14.0,1,5.124
7670,245.44,8.1583,2.4851,0.1799,0.0001,-0.0003,1.5469,flat,18.0,1,4.887
7680,245.76,8.1492,2.9954,0.1799,-0.0000,-0.0000,1.7774,flat,18.0,1,4.554
7690,246.08,8.0170,3.5078,0.1799,0.0001,-0.0000,1.9663,flat,18.0,1,4.153
7700,246.40,7.7890,3.9921,0.1799,0.0001,-0.0000,2.1125,flat,18.0,1,3.710
7710,246.72,7.4896,4.4436,0.1799,0.0003,-0.0000,2.2281,flat,18.0,1,3.243
7720,247.04,7.1391,4.8620,0.1798,0.0004,-0.0000,2.3273,flat,18.0,1,2.764
7730,247.36,6.7476,5.2395,0.1798,0.0004,-0.0000,2.4361,flat,18.0,1,2.284
7740,247.68,6.3164,5.5734,0.1799,0.0003,-0.0000,2.5624,flat,18.0,1,1.804
7750,248.00,5.8480,5.8496,0.1799,0.0001,0.0000,2.7243,flat,18.0,1,1.331
7760,248.32,5.3519,6.0433,0.1799,0.0000,0.0000,2.9738,flat,18.0,1,0.882
7770,248.64,4.8181,6.1050,0.1798,0.0003,0.0003,3.1050,flat,18.0,2,12.617
7780,248.96,4.2555,6.1154,0.1798,0.0003,0.0000,-3.0952,flat,18.0,2,12.087
7790,249.28,3.6918,6.0815,0.1797,0.0002,-0.0000,-3.0329,flat,18.0,2,11.544
7800,249.60,3.1298,6.0141,0.1797,0.0002,-0.0000,-2.9843,flat,18.0,2,10.993
7810,249.92,2.5706,5.9202,0.1797,0.0001,-0.0000,-2.9465,flat,18.0,2,10.437
7820,250.24,2.0144,5.8058,0.1797,0.0001,-0.0000,-2.9156,flat,18.0,2,9.877
7830,250.56,1.4608,5.6746,0.1797,0.0001,-0.0000,-2.8895,flat,18.0,2,9.314
7840,250.88,0.9099,5.5292,0.1797,0.0001,-0.0000,-2.8670,flat,18.0,2,8.749
7850,251.20,0.3616,5.3716,0.1797,0.0001,-0.0000,-2.8474,flat,18.0,2,8.183
7860,251.52,-0.1841,5.2034,0.1797,0.0001,-0.0000,-2.8303,flat,18.0,2,7.615
7870,251.84,-0.7275,5.0260,0.1797,0.0001,-0.0000,-2.8150,flat,18.0,2,7.046
7880,252.16,-1.2685,4.8403,0.1797,0.0000,-0.0000,-2.8014,flat,18.0,2,6.476
7890,252.48,-1.8074,4.6474,0.1797,0.0000,-0.0000,-2.7890,flat,18.0,2,5.906
7900,252.80,-2.3441,4.4478,0.1797,0.0000,-0.0000,-2.7776,flat,18.0,2,5.335
7910,253.12,-2.8787,4.2421,0.1797,0.0000,-0.0000,-2.7670,flat,18.0,2,4.764
7920,253.44,-3.4113,4.0309,0.1797,0.0000,-0.0000,-2.7570,flat,18.0,2,4.193
7930,253.76,-3.9419,3.8143,0.1797,0.0000,-0.0000,-2.7474,flat,18.0,2,3.622
7940,254.08,-4.4704,3.5926,0.1797,0.0000,-0.0000,-2.7378,flat,18.0,2,3.050
7950,254.40,-4.9966,3.3659,0.1797,0.0000,0.0000,-2.7280,flat,18.0,2,2.480
7960,254.72,-5.5203,3.1340,0.1797,0.0000,0.0000,-2.7173,flat,18.0,2,1.910
7970,255.04,-6.0407,2.8965,0.1797,0.0000,0.0000,-2.7046,flat,18.0,2,1.342
7980,255.36,-6.5562,2.6524,0.1797,0.0001,0.0000,-2.6864,flat,18.0,3,0.779
7990,255.68,-6.9604,2.4174,0.1799,-0.0001,0.0000,-2.4400,flat,18.0,3,10.671
8000,256.00,-7.2930,2.0712,0.1799,0.0000,-0.0000,-2.2034,flat,18.0,3,10.429
8010,256.32,-7.5687,1.6321,0.1799,0.0000,-0.0000,-1.9879,flat,18.0,3,10.098
8020,256.64,-7.7634,1.1277,0.1799,0.0000,-0.0000,-1.7973,flat,18.0,3,9.692
8030,256.96,-7.8685,0.5870,0.1799,0.0001,-0.0000,-1.6394,flat,18.0,3,9.231
8040,257.28,-7.8918,0.0314,0.1799,0.0003,-0.0000,-1.5141,flat,18.0,3,8.733
8050,257.60,-7.8491,-0.5258,0.1798,0.0004,-0.0000,-1.4214,flat,18.0,3,8.211
8060,257.92,-7.7566,-1.0791,0.1798,0.0003,-0.0000,-1.3497,flat,18.0,3,7.675
8070,258.24,-7.6256,-1.6265,0.1797,0.0002,-0.0000,-1.2920,flat,18.0,3,7.130
8080,258.56,-7.4637,-2.1672,0.1797,0.0002,-0.0000,-1.2441,flat,18.0,3,6.578
8090,258.88,-7.2764,-2.7002,0.1797,0.0001,-0.0000,-1.2054,flat,18.0,3,6.023
