step,time_s,x,y,z,roll,pitch,yaw,terrain,speed,target_idx,dist_to_target
10,0.32,-0.1103,1.4505,0.1830,0.0002,-0.0291,0.0042,rough,14.0,0,4.152
20,0.64,0.2065,1.4590,0.1798,-0.0009,0.0002,0.3778,flat,18.0,0,4.237
30,0.96,0.5508,1.6441,0.1799,-0.0000,-0.0001,0.7440,flat,18.0,0,4.192
40,1.28,0.8459,1.9914,0.1799,-0.0000,-0.0000,1.0488,flat,18.0,0,4.019
50,1.60,1.0598,2.4405,0.1799,0.0000,-0.0000,1.3526,flat,18.0,0,3.761
60,1.92,1.1437,2.9512,0.1799,0.0001,-0.0000,1.6408,flat,18.0,0,3.421
70,2.24,1.0813,3.4730,0.1799,0.0001,-0.0000,1.8701,flat,18.0,0,3.012
80,2.56,0.9017,3.9699,0.1799,0.0001,0.0000,2.0488,flat,18.0,0,2.561
90,2.88,0.6333,4.4284,0.1799,0.0001,-0.0000,2.2018,flat,18.0,0,2.087
100,3.20,0.2950,4.8431,0.1799,0.0002,0.0000,2.3355,flat,18.0,0,1.600
110,3.52,-0.0959,5.1998,0.1799,0.0000,0.0000,2.5016,flat,18.0,0,1.115
120,3.84,-0.5298,5.4803,0.1799,0.0003,-0.0002,2.6180,flat,18.0,1,1.952
130,4.16,-0.9574,5.7696,0.1799,-0.0000,0.0000,2.4304,flat,18.0,1,1.602
140,4.48,-1.3189,6.1368,0.1799,-0.0000,-0.0000,2.2267,flat,18.0,1,1.269
150,4.80,-1.5961,6.5659,0.1799,0.0000,0.0000,1.9252,flat,18.0,1,0.990
160,5.12,-1.7346,7.0315,0.1799,0.0000,0.0000,1.4126,flat,18.0,2,0.791
170,5.44,-1.6476,7.3921,0.1799,-0.0000,-0.0001,0.9768,flat,18.0,2,8.525
180,5.76,-1.3717,7.7014,0.1799,0.0000,-0.0000,0.6653,flat,18.0,2,8.441
190,6.08,-0.9714,7.9595,0.1799,-0.0000,-0.0000,0.3831,flat,18.0,2,8.246
200,6.40,-0.4866,8.1228,0.1799,-0.0001,-0.0000,0.1255,flat,18.0,2,7.949
210,6.72,0.0438,8.1653,0.1799,-0.0001,0.0000,-0.0938,flat,18.0,2,7.562
220,7.04,0.5808,8.0949,0.1799,-0.0001,-0.0000,-0.2573,flat,18.0,2,7.112
230,7.36,1.1054,7.9398,0.1799,-0.0003,-0.0000,-0.3759,flat,18.0,2,6.624
240,7.68,1.6125,7.7237,0.1798,-0.0004,-0.0000,-0.4681,flat,18.0,2,6.115
250,8.00,2.1012,7.4613,0.1798,-0.0003,-0.0000,-0.5433,flat,18.0,2,5.590
260,8.32,2.5716,7.1623,0.1797,-0.0002,-0.0000,-0.6070,flat,18.0,2,5.056
270,8.64,3.0241,6.8334,0.1797,-0.0002,-0.0000,-0.6625,flat,18.0,2,4.515
280,8.96,3.4593,6.4794,0.1797,-0.0002,-0.0000,-0.7119,flat,18.0,2,3.969
290,9.28,3.8772,6.1040,0.1797,-0.0002,-0.0000,-0.7584,flat,18.0,2,3.421
300,9.60,4.2772,5.7091,0.1797,-0.0002,-0.0000,-0.8039,flat,18.0,2,2.870
310,9.92,4.6576,5.2964,0.1797,-0.0002,0.0000,-0.8517,flat,18.0,2,2.319
320,10.24,5.0164,4.8672,0.1797,-0.0002,-0.0000,-0.9040,flat,18.0,2,1.770
330,10.56,5.3513,4.4191,0.1797,-0.0002,0.0000,-0.9725,flat,18.0,2,1.222
340,10.88,5.6472,3.9524,0.1798,-0.0003,-0.0001,-1.0347,flat,18.0,3,3.124
350,11.20,5.9423,3.4751,0.1798,0.0001,-0.0000,-0.9865,rough,14.0,3,2.586
360,11.52,6.1878,3.1111,0.1797,0.0001,0.0001,-0.9544,rough,14.0,3,2.167
370,11.84,6.5031,2.6835,0.1797,0.0002,-0.0001,-0.9040,flat,18.0,3,1.665
380,12.16,6.8576,2.2576,0.1797,0.0003,0.0000,-0.8322,flat,18.0,3,1.153
390,12.48,7.2207,1.8929,0.1795,0.0003,-0.0011,-0.7380,flat,18.0,0,9.127
400,12.80,7.4036,1.6767,0.1745,-0.0335,-0.0008,-1.2128,flat,18.0,0,9.381
410,13.12,7.5077,1.3237,0.1799,0.0001,0.0001,-1.7514,flat,18.0,0,9.623
420,13.44,7.4138,0.9699,0.1799,-0.0000,-0.0001,-2.1631,flat,18.0,0,9.697
430,13.76,7.1342,0.6522,0.1799,-0.0000,-0.0000,-2.4623,flat,18.0,0,9.605
440,14.08,6.7327,0.3846,0.1799,-0.0000,-0.0000,-2.7302,flat,18.0,0,9.402
450,14.40,6.2479,0.2058,0.1799,-0.0001,0.0000,-2.9725,flat,18.0,0,9.100
460,14.72,5.7157,0.1386,0.1799,-0.0001,-0.0000,3.1027,flat,18.0,0,8.712
470,15.04,5.1716,0.1787,0.1799,-0.0001,-0.0000,2.9450,flat,18.0,0,8.262
480,15.36,4.6350,0.3006,0.1799,-0.0004,-0.0000,2.8323,flat,18.0,0,7.775
490,15.68,4.1113,0.4814,0.1798,-0.0004,-0.0000,2.7456,flat,18.0,0,7.267
500,16.00,3.6018,0.7069,0.1798,-0.0003,-0.0000,2.6759,flat,18.0,0,6.744
510,16.32,3.1066,0.9676,0.1797,-0.0002,-0.0000,2.6178,flat,18.0,0,6.211
520,16.64,2.6252,1.2569,0.1797,-0.0002,-0.0000,2.5680,flat,18.0,0,5.671
530,16.96,2.1577,1.5701,0.1797,-0.0001,-0.0000,2.5258,flat,18.0,0,5.127
540,17.28,1.7029,1.9030,0.1797,-0.0001,-0.0000,2.4882,flat,18.0,0,4.580
550,17.60,1.2602,2.2530,0.1797,-0.0001,-0.0000,2.4531,flat,18.0,0,4.032
560,17.92,0.8297,2.6185,0.1797,-0.0001,-0.0000,2.4190,flat,18.0,0,3.482
570,18.24,0.4115,2.9987,0.1797,-0.0001,-0.0000,2.3838,flat,18.0,0,2.933
580,18.56,0.0076,3.3935,0.1797,-0.0001,0.0000,2.3474,flat,18.0,0,2.386
590,18.88,-0.3797,3.8027,0.1797,-0.0001,0.0000,2.3061,flat,18.0,0,1.843
600,19.20,-0.7458,4.2262,0.1797,-0.0002,0.0000,2.2541,flat,18.0,0,1.310
610,19.52,-1.0832,4.6662,0.1798,-0.0003,0.0000,2.1651,flat,18.0,0,0.802
620,19.84,-1.3599,5.1335,0.1799,-0.0003,-0.0000,2.0246,flat,18.0,1,2.262
630,20.16,-1.5551,5.5706,0.1798,-0.0002,0.0001,1.8959,rough,14.0,1,1.877
640,20.48,-1.7042,6.0599,0.1799,-0.0000,-0.0000,1.7327,flat,18.0,1,1.478
650,20.80,-1.7691,6.5886,0.1799,-0.0000,0.0000,1.4764,flat,18.0,1,1.083
660,21.12,-1.7006,7.0756,0.1799,0.0001,0.0003,1.1198,flat,18.0,2,8.424
670,21.44,-1.4911,7.4060,0.1799,0.0000,-0.0000,0.7821,flat,18.0,2,8.395
680,21.76,-1.1322,7.6907,0.1799,0.0000,-0.0000,0.4976,rough,14.0,2,8.232
690,22.08,-0.7373,7.8803,0.1799,-0.0000,-0.0001,0.2877,flat,18.0,2,8.008
700,22.40,-0.2306,8.0027,0.1799,-0.0000,-0.0000,0.0416,flat,18.0,2,7.673
710,22.72,0.3065,8.0033,0.1799,-0.0001,-0.0000,-0.1563,flat,18.0,2,7.257
720,23.04,0.8409,7.9008,0.1799,-0.0002,-0.0000,-0.2993,flat,18.0,2,6.789
730,23.36,1.3606,7.7241,0.1798,-0.0004,-0.0000,-0.4063,flat,18.0,2,6.291
740,23.68,1.8625,7.4926,0.1798,-0.0004,-0.0000,-0.4915,flat,18.0,2,5.775
750,24.00,2.3461,7.2188,0.1798,-0.0003,-0.0000,-0.5621,flat,18.0,2,5.246
760,24.32,2.8116,6.9109,0.1797,-0.0002,-0.0000,-0.6229,flat,18.0,2,4.709
770,24.64,3.2593,6.5747,0.1797,-0.0002,-0.0000,-0.6764,flat,18.0,2,4.166
780,24.96,3.6899,6.2145,0.1797,-0.0002,-0.0000,-0.7246,flat,18.0,2,3.619
790,25.28,4.1027,5.8337,0.1797,-0.0002,-0.0000,-0.7716,flat,18.0,2,3.070
800,25.60,4.4968,5.4336,0.1797,-0.0002,0.0000,-0.8187,flat,18.0,2,2.520
810,25.92,4.8696,5.0157,0.1797,-0.0002,0.0000,-0.8698,flat,18.0,2,1.970
820,26.24,5.2197,4.5794,0.1797,-0.0002,0.0000,-0.9319,flat,18.0,2,1.422
830,26.56,5.5388,4.1235,0.1798,-0.0003,0.0000,-1.0193,flat,18.0,2,0.878
840,26.88,5.8283,3.6488,0.1798,0.0001,-0.0000,-0.9988,flat,18.0,3,2.785
850,27.20,6.0908,3.2509,0.1797,0.0001,0.0001,-0.9644,rough,14.0,3,2.329
860,27.52,6.3649,2.8687,0.1797,0.0001,-0.0003,-0.9252,flat,18.0,3,1.882
870,27.84,6.7104,2.4317,0.1797,0.0002,-0.0000,-0.8628,flat,18.0,3,1.361
880,28.16,7.0811,2.0287,0.1798,0.0003,0.0000,-0.7701,flat,18.0,3,0.867
890,28.48,7.3293,1.7834,0.1794,0.0005,-0.0036,-1.0460,flat,18.0,0,9.270
900,28.80,7.4826,1.4829,0.1792,-0.0035,-0.0001,-1.5305,flat,18.0,0,9.533
910,29.12,7.4738,1.1130,0.1799,-0.0001,0.0001,-2.0145,flat,18.0,0,9.685
920,29.44,7.2630,0.7805,0.1799,-0.0000,-0.0000,-2.3508,flat,18.0,0,9.654
930,29.76,6.9038,0.4894,0.1799,-0.0000,-0.0000,-2.6249,flat,18.0,0,9.491
940,30.08,6.4482,0.2706,0.1799,-0.0001,-0.0000,-2.8788,flat,18.0,0,9.227
950,30.40,5.9306,0.1576,0.1799,-0.0001,0.0000,-3.1011,flat,18.0,0,8.871
960,30.72,5.3877,0.1566,0.1799,-0.0001,-0.0000,3.0017,flat,18.0,0,8.443
970,31.04,4.8470,0.2488,0.1799,-0.0003,-0.0000,2.8740,flat,18.0,0,7.969
980,31.36,4.3178,0.4080,0.1798,-0.0004,-0.0000,2.7783,flat,18.0,0,7.468
990,31.68,3.8024,0.6167,0.1798,-0.0003,-0.0000,2.7025,flat,18.0,0,6.950
1000,32.00,3.3014,0.8641,0.1797,-0.0002,-0.0000,2.6402,flat,18.0,0,6.421
1010,32.32,2.8145,1.1424,0.1797,-0.0002,-0.0000,2.5874,flat,18.0,0,5.884
1020,32.64,2.3413,1.4464,0.1797,-0.0002,-0.0000,2.5422,flat,18.0,0,5.341
1030,32.96,1.8815,1.7716,0.1797,-0.0001,-0.0000,2.5033,flat,18.0,0,4.795
1040,33.28,1.4339,2.1148,0.1797,-0.0001,-0.0000,2.4672,flat,18.0,0,4.247
1050,33.60,0.9984,2.4742,0.1797,-0.0001,-0.0000,2.4330,flat,18.0,0,3.698
1060,33.92,0.5751,2.8484,0.1797,-0.0001,-0.0000,2.3983,flat,18.0,0,3.149
1070,34.24,0.1651,3.2373,0.1797,-0.0001,0.0000,2.3624,flat,18.0,0,2.600
1080,34.56,-0.2293,3.6406,0.1797,-0.0001,0.0000,2.3237,flat,18.0,0,2.055
1090,34.88,-0.6045,4.0583,0.1797,-0.0002,0.0000,2.2771,flat,18.0,0,1.518
1100,35.20,-0.9554,4.4915,0.1797,-0.0002,0.0000,2.2082,flat,18.0,0,0.997
1110,35.52,-1.2555,4.9457,0.1799,-0.0001,-0.0000,2.0814,flat,18.0,1,2.436
1120,35.84,-1.4928,5.4153,0.1799,-0.0001,0.0003,1.9391,rough,14.0,1,2.011
1130,36.16,-1.6482,5.8544,0.1798,-0.0002,-0.0003,1.8131,flat,18.0,1,1.641
1140,36.48,-1.7576,6.3821,0.1799,-0.0001,-0.0000,1.5859,flat,18.0,1,1.233
1150,36.80,-1.7421,6.8964,0.1799,-0.0000,0.0000,1.2853,flat,18.0,1,0.864
1160,37.12,-1.5967,7.2755,0.1799,0.0001,-0.0000,0.9065,flat,18.0,2,8.424
1170,37.44,-1.2888,7.5792,0.1799,0.0000,-0.0000,0.6103,flat,18.0,2,8.307
1180,37.76,-0.9548,7.7837,0.1799,-0.0001,-0.0000,0.3929,flat,18.0,2,8.134
1190,38.08,-0.4947,7.9530,0.1799,-0.0000,-0.0000,0.1693,flat,18.0,2,7.853
1200,38.40,0.0309,8.0185,0.1799,0.0000,-0.0000,-0.0602,flat,18.0,2,7.478
1210,38.72,0.5693,7.9666,0.1799,-0.0001,-0.0000,-0.2296,flat,18.0,2,7.034
1220,39.04,1.0973,7.8259,0.1799,-0.0003,-0.0000,-0.3536,flat,18.0,2,6.551
1230,39.36,1.6086,7.6212,0.1798,-0.0004,-0.0000,-0.4493,flat,18.0,2,6.043
1240,39.68,2.1017,7.3682,0.1798,-0.0003,-0.0000,-0.5270,flat,18.0,2,5.521
1250,40.00,2.5765,7.0771,0.1797,-0.0002,-0.0000,-0.5926,flat,18.0,2,4.988
1260,40.32,3.0332,6.7549,0.1797,-0.0002,-0.0000,-0.6497,flat,18.0,2,4.448
1270,40.64,3.4726,6.4065,0.1797,-0.0002,-0.0000,-0.7004,flat,18.0,2,3.903
1280,40.96,3.8946,6.0360,0.1797,-0.0002,-0.0000,-0.7477,flat,18.0,2,3.355
1290,41.28,4.2983,5.6456,0.1797,-0.0002,-0.0000,-0.7946,flat,18.0,2,2.805
1300,41.60,4.6822,5.2365,0.1797,-0.0002,0.0000,-0.8436,flat,18.0,2,2.255
1310,41.92,5.0438,4.8098,0.1797,-0.0002,0.0000,-0.8988,flat,18.0,2,1.706
1320,42.24,5.3803,4.3637,0.1797,-0.0003,0.0000,-0.9706,flat,18.0,2,1.160
1330,42.56,5.6768,3.8980,0.1798,-0.0003,-0.0001,-1.0207,flat,18.0,3,3.065
1340,42.88,5.9654,3.4416,0.1798,0.0001,0.0003,-0.9814,rough,14.0,3,2.547
1350,43.20,6.2129,3.0820,0.1797,0.0001,0.0000,-0.9470,rough,14.0,3,2.129
1360,43.52,6.5315,2.6564,0.1797,0.0002,-0.0001,-0.8973,flat,18.0,3,1.627
1370,43.84,6.8889,2.2332,0.1797,0.0003,0.0000,-0.8250,flat,18.0,3,1.115
1380,44.16,7.2388,1.8849,0.1805,0.0002,0.0055,-0.7689,flat,18.0,0,9.147
1390,44.48,7.4112,1.6589,0.1773,-0.0164,-0.0004,-1.2677,flat,18.0,0,9.395
1400,44.80,7.5010,1.2999,0.1799,0.0002,0.0001,-1.8043,flat,18.0,0,9.627
1410,45.12,7.3861,0.9496,0.1799,0.0001,-0.0000,-2.1993,flat,18.0,0,9.682
1420,45.44,7.0912,0.6358,0.1799,0.0000,-0.0001,-2.4902,flat,18.0,0,9.576
1430,45.76,6.6799,0.3752,0.1799,-0.0000,-0.0000,-2.7558,flat,18.0,0,9.362
1440,46.08,6.1887,0.2064,0.1799,0.0000,-0.0000,-2.9970,flat,18.0,0,9.051
1450,46.40,5.6539,0.1505,0.1799,-0.0001,-0.0000,3.0834,flat,18.0,0,8.655
1460,46.72,5.1099,0.2000,0.1799,-0.0001,-0.0000,2.9328,flat,18.0,0,8.201
1470,47.04,4.5744,0.3284,0.1798,-0.0004,-0.0000,2.8232,flat,18.0,0,7.712
1480,47.36,4.0520,0.5140,0.1798,-0.0004,-0.0000,2.7385,flat,18.0,0,7.201
1490,47.68,3.5438,0.7432,0.1797,-0.0003,-0.0000,2.6700,flat,18.0,0,6.677
1500,48.00,3.0499,1.0067,0.1797,-0.0002,-0.0000,2.6129,flat,18.0,0,6.144
1510,48.32,2.5697,1.2984,0.1797,-0.0002,-0.0000,2.5638,flat,18.0,0,5.603
1520,48.64,2.1035,1.6136,0.1797,-0.0001,-0.0000,2.5223,flat,18.0,0,5.059
1530,48.96,1.6498,1.9481,0.1797,-0.0001,-0.0000,2.4849,flat,18.0,0,4.512
1540,49.28,1.2082,2.2995,0.1797,-0.0001,-0.0000,2.4499,flat,18.0,0,3.963
1550,49.60,0.7788,2.6665,0.1797,-0.0001,-0.0000,2.4157,flat,18.0,0,3.414
1560,49.92,0.3620,3.0480,0.1797,-0.0001,-0.0000,2.3803,flat,18.0,0,2.865
1570,50.24,-0.0404,3.4442,0.1797,-0.0001,0.0000,2.3435,flat,18.0,0,2.318
1580,50.56,-0.4257,3.8548,0.1797,-0.0001,0.0000,2.3012,flat,18.0,0,1.776
1590,50.88,-0.7891,4.2800,0.1797,-0.0002,0.0000,2.2466,flat,18.0,0,1.245
1600,51.20,-1.1193,4.7193,0.1798,-0.0003,0.0003,2.1366,flat,18.0,1,2.653
1610,51.52,-1.3916,5.1935,0.1799,-0.0002,-0.0000,2.0043,flat,18.0,1,2.208
1620,51.84,-1.5670,5.6002,0.1798,-0.0002,0.0001,1.8894,rough,14.0,1,1.853
1630,52.16,-1.7154,6.1014,0.1799,-0.0000,-0.0000,1.7161,flat,18.0,1,1.447
1640,52.48,-1.7710,6.6293,0.1799,-0.0000,0.0000,1.4534,flat,18.0,1,1.055
1650,52.80,-1.6941,7.1029,0.1799,-0.0001,0.0002,1.0938,flat,18.0,2,8.431
1660,53.12,-1.4699,7.4282,0.1799,0.0000,-0.0001,0.7597,flat,18.0,2,8.387
1670,53.44,-1.1025,7.7089,0.1799,0.0000,-0.0000,0.4763,rough,14.0,2,8.217
1680,53.76,-0.6922,7.8964,0.1799,-0.0001,-0.0001,0.2617,flat,18.0,2,7.980
1690,54.08,-0.1807,8.0062,0.1799,-0.0002,0.0000,0.0215,flat,18.0,2,7.636
1700,54.40,0.3576,7.9957,0.1799,-0.0001,-0.0000,-0.1722,flat,18.0,2,7.213
1710,54.72,0.8909,7.8849,0.1799,-0.0002,-0.0000,-0.3109,flat,18.0,2,6.741
1720,55.04,1.4090,7.7021,0.1798,-0.0004,-0.0000,-0.4153,flat,18.0,2,6.241
1730,55.36,1.9092,7.4662,0.1798,-0.0004,-0.0000,-0.4987,flat,18.0,2,5.724
1740,55.68,2.3911,7.1888,0.1797,-0.0003,-0.0000,-0.5682,flat,18.0,2,5.194
1750,56.00,2.8549,6.8780,0.1797,-0.0002,-0.0000,-0.6281,flat,18.0,2,4.656
1760,56.32,3.3010,6.5394,0.1797,-0.0002,-0.0000,-0.6811,flat,18.0,2,4.113
1770,56.64,3.7300,6.1772,0.1797,-0.0002,-0.0000,-0.7290,flat,18.0,2,3.566
1780,56.96,4.1411,5.7945,0.1797,-0.0002,-0.0000,-0.7759,flat,18.0,2,3.016
1790,57.28,4.5333,5.3928,0.1797,-0.0002,0.0000,-0.8232,flat,18.0,2,2.466
1800,57.60,4.9041,4.9733,0.1797,-0.0002,0.0000,-0.8748,flat,18.0,2,1.917
1810,57.92,5.2519,4.5351,0.1797,-0.0002,0.0000,-0.9386,flat,18.0,2,1.368
1820,58.24,5.5673,4.0775,0.1798,-0.0003,0.0000,-1.0301,flat,18.0,2,0.826
1830,58.56,5.8579,3.6022,0.1798,0.0001,-0.0000,-0.9941,flat,18.0,3,2.732
1840,58.88,6.1152,3.2159,0.1797,0.0001,0.0001,-0.9604,rough,14.0,3,2.288
1850,59.20,6.3980,2.8250,0.1797,0.0001,-0.0002,-0.9191,flat,18.0,3,1.830
1860,59.52,6.7462,2.3906,0.1797,0.0002,-0.0000,-0.8555,flat,18.0,3,1.310
1870,59.84,7.1196,1.9923,0.1798,0.0003,0.0000,-0.7572,flat,18.0,3,0.821
1880,60.16,7.3483,1.7600,0.1796,0.0004,-0.0018,-1.0895,flat,18.0,0,9.297
1890,60.48,7.4926,1.4453,0.1795,-0.0021,-0.0001,-1.5921,flat,18.0,0,9.558
1900,60.80,7.4617,1.0793,0.1799,0.0001,-0.0000,-2.0569,flat,18.0,0,9.690
1910,61.12,7.2323,0.7503,0.1799,0.0001,-0.0001,-2.3795,flat,18.0,0,9.642
1920,61.44,6.8621,0.4643,0.1799,0.0000,-0.0000,-2.6516,flat,18.0,0,9.469
1930,61.76,6.3988,0.2549,0.1799,-0.0000,-0.0000,-2.9035,flat,18.0,0,9.195
1940,62.08,5.8768,0.1528,0.1799,-0.0000,-0.0000,-3.1239,flat,18.0,0,8.831
1950,62.40,5.3334,0.1628,0.1799,-0.0001,-0.0000,2.9871,flat,18.0,0,8.397
1960,62.72,4.7936,0.2628,0.1799,-0.0003,-0.0000,2.8634,flat,18.0,0,7.920
1970,63.04,4.2657,0.4274,0.1798,-0.0004,-0.0000,2.7701,flat,18.0,0,7.417
1980,63.36,3.7518,0.6405,0.1798,-0.0003,-0.0000,2.6958,flat,18.0,0,6.897
1990,63.68,3.2522,0.8912,0.1797,-0.0002,-0.0000,2.6346,flat,18.0,0,6.367
2000,64.00,2.7666,1.1722,0.1797,-0.0002,-0.0000,2.5826,flat,18.0,0,5.829
2010,64.32,2.2948,1.4785,0.1797,-0.0002,-0.0000,2.5381,flat,18.0,0,5.286
2020,64.64,1.8363,1.8056,0.1797,-0.0001,-0.0000,2.4996,flat,18.0,0,4.740
2030,64.96,1.3898,2.1505,0.1797,-0.0001,-0.0000,2.4638,flat,18.0,0,4.192
2040,65.28,0.9555,2.5113,0.1797,-0.0001,-0.0000,2.4296,flat,18.0,0,3.643
2050,65.60,0.5334,2.8870,0.1797,-0.0001,-0.0000,2.3948,flat,18.0,0,3.093
2060,65.92,0.1249,3.2773,0.1797,-0.0001,0.0000,2.3588,flat,18.0,0,2.545
2070,66.24,-0.2679,3.6820,0.1797,-0.0001,0.0000,2.3195,flat,18.0,0,2.000
2080,66.56,-0.6409,4.1011,0.1797,-0.0002,0.0000,2.2719,flat,18.0,0,1.464
2090,66.88,-0.9888,4.5361,0.1798,-0.0003,0.0000,2.1987,flat,18.0,0,0.946
2100,67.20,-1.2832,4.9932,0.1799,-0.0002,-0.0000,2.0669,flat,18.0,1,2.391
2110,67.52,-1.5092,5.4554,0.1798,-0.0001,0.0002,1.9287,rough,14.0,1,1.976
2120,67.84,-1.6637,5.9070,0.1798,-0.0001,-0.0002,1.7935,flat,18.0,1,1.599
2130,68.16,-1.7624,6.4355,0.1799,-0.0001,0.0000,1.5583,flat,18.0,1,1.194
2140,68.48,-1.7326,6.9446,0.1799,-0.0000,0.0000,1.2497,flat,18.0,1,0.830
2150,68.80,-1.5727,7.3081,0.1799,0.0001,-0.0000,0.8729,flat,18.0,2,8.419
2160,69.12,-1.2510,7.6073,0.1799,0.0000,-0.0000,0.5817,rough,14.0,2,8.289
2170,69.44,-0.9147,7.8025,0.1799,-0.0000,-0.0003,0.3784,flat,18.0,2,8.111
2180,69.76,-0.4436,7.9651,0.1799,-0.0000,-0.0000,0.1449,flat,18.0,2,7.820
2190,70.08,0.0849,8.0178,0.1799,-0.0001,0.0000,-0.0775,flat,18.0,2,7.436
2200,70.40,0.6230,7.9560,0.1799,-0.0001,-0.0000,-0.2439,flat,18.0,2,6.987
2210,70.72,1.1495,7.8079,0.1799,-0.0003,-0.0000,-0.3643,flat,18.0,2,6.501
2220,71.04,1.6590,7.5978,0.1798,-0.0004,-0.0000,-0.4578,flat,18.0,2,5.992
2230,71.36,2.1503,7.3405,0.1798,-0.0003,-0.0000,-0.5341,flat,18.0,2,5.468
2240,71.68,2.6232,7.0460,0.1797,-0.0002,-0.0000,-0.5987,flat,18.0,2,4.934
2250,72.00,3.0782,6.7210,0.1797,-0.0002,-0.0000,-0.6551,flat,18.0,2,4.394
2260,72.32,3.5158,6.3702,0.1797,-0.0002,-0.0000,-0.7052,flat,18.0,2,3.848
2270,72.64,3.9360,5.9977,0.1797,-0.0002,-0.0000,-0.7525,flat,18.0,2,3.300
2280,72.96,4.3378,5.6053,0.1797,-0.0002,-0.0000,-0.7993,flat,18.0,2,2.750
2290,73.28,4.7195,5.1944,0.1797,-0.0002,0.0000,-0.8488,flat,18.0,2,2.200
2300,73.60,5.0788,4.7658,0.1797,-0.0002,-0.0000,-0.9051,flat,18.0,2,1.651
2310,73.92,5.4122,4.3177,0.1798,-0.0003,0.0000,-0.9793,flat,18.0,2,1.105
2320,74.24,5.7060,3.8497,0.1798,-0.0002,-0.0001,-1.0159,flat,18.0,3,3.011
2330,74.56,5.9897,3.4050,0.1798,0.0001,0.0003,-0.9780,rough,14.0,3,2.504
2340,74.88,6.2384,3.0462,0.1797,0.0001,0.0000,-0.9435,rough,14.0,3,2.088
2350,75.20,6.5585,2.6220,0.1797,0.0002,-0.0001,-0.8930,flat,18.0,3,1.586
2360,75.52,6.9177,2.2012,0.1797,0.0003,0.0000,-0.8182,flat,18.0,3,1.076
2370,75.84,7.2522,1.8741,0.1768,0.0007,-0.0191,-0.8046,flat,18.0,0,9.164
2380,76.16,7.4159,1.6341,0.1779,-0.0125,-0.0003,-1.3158,flat,18.0,0,9.410
2390,76.48,7.4878,1.2700,0.1799,-0.0000,0.0001,-1.8475,flat,18.0,0,9.628
2400,76.80,7.3528,0.9232,0.1799,-0.0000,-0.0001,-2.2306,flat,18.0,0,9.665
2410,77.12,7.0434,0.6136,0.1799,-0.0000,-0.0000,-2.5176,flat,18.0,0,9.546
2420,77.44,6.6223,0.3607,0.1799,-0.0000,-0.0000,-2.7812,flat,18.0,0,9.322
2430,77.76,6.1251,0.2034,0.1799,-0.0001,0.0000,-3.0168,flat,18.0,0,9.001
2440,78.08,5.5878,0.1588,0.1799,-0.0001,-0.0000,3.0665,flat,18.0,0,8.598
2450,78.40,5.0443,0.2174,0.1799,-0.0002,-0.0000,2.9199,flat,18.0,0,8.139
2460,78.72,4.5100,0.3525,0.1798,-0.0004,-0.0000,2.8135,flat,18.0,0,7.648
2470,79.04,3.9890,0.5431,0.1798,-0.0004,-0.0000,2.7307,flat,18.0,0,7.136
2480,79.36,3.4823,0.7762,0.1797,-0.0003,-0.0000,2.6636,flat,18.0,0,6.610
2490,79.68,2.9899,1.0430,0.1797,-0.0002,-0.0000,2.6074,flat,18.0,0,6.076
2500,80.00,2.5112,1.3373,0.1797,-0.0002,-0.0000,2.5589,flat,18.0,0,5.535
2510,80.32,2.0464,1.6548,0.1797,-0.0001,-0.0000,2.5181,flat,18.0,0,4.991
2520,80.64,1.5941,1.9912,0.1797,-0.0001,-0.0000,2.4810,flat,18.0,0,4.443
2530,80.96,1.1539,2.3444,0.1797,-0.0001,-0.0000,2.4460,flat,18.0,0,3.895
2540,81.28,0.7259,2.7130,0.1797,-0.0001,-0.0000,2.4117,flat,18.0,0,3.345
2550,81.60,0.3107,3.0963,0.1797,-0.0001,-0.0000,2.3761,flat,18.0,0,2.797
2560,81.92,-0.0898,3.4942,0.1797,-0.0001,0.0000,2.3388,flat,18.0,0,2.250
2570,82.24,-0.4727,3.9065,0.1797,-0.0001,0.0000,2.2954,flat,18.0,0,1.709
2580,82.56,-0.8332,4.3337,0.1797,-0.0002,0.0000,2.2377,flat,18.0,0,1.181
2590,82.88,-1.1557,4.7765,0.1798,-0.0002,-0.0001,2.1239,flat,18.0,1,2.597
2600,83.20,-1.4219,5.2544,0.1799,-0.0001,-0.0000,1.9852,flat,18.0,1,2.154
2610,83.52,-1.5953,5.6832,0.1798,-0.0002,-0.0003,1.8691,flat,18.0,1,1.782
2620,83.84,-1.7332,6.2028,0.1799,-0.0000,-0.0000,1.6700,flat,18.0,1,1.368
2630,84.16,-1.7634,6.7282,0.1799,-0.0000,0.0000,1.3952,flat,18.0,1,0.982
2640,84.48,-1.6620,7.1686,0.1799,0.0001,0.0001,1.0223,flat,18.0,2,8.432
2650,84.80,-1.4055,7.4856,0.1799,0.0000,-0.0000,0.7050,flat,18.0,2,8.360
2660,85.12,-1.0532,7.7353,0.1799,-0.0000,0.0000,0.4485,rough,14.0,2,8.189
2670,85.44,-0.6275,7.9174,0.1799,-0.0000,-0.0000,0.2321,flat,18.0,2,7.940
2680,85.76,-0.1109,8.0139,0.1799,0.0000,-0.0000,-0.0080,flat,18.0,2,7.586
2690,86.08,0.4275,7.9892,0.1799,-0.0001,-0.0000,-0.1917,flat,18.0,2,7.156
2700,86.40,0.9591,7.8683,0.1799,-0.0002,-0.0000,-0.3253,flat,18.0,2,6.680
2710,86.72,1.4750,7.6781,0.1798,-0.0004,-0.0000,-0.4267,flat,18.0,2,6.178
2720,87.04,1.9729,7.4364,0.1798,-0.0004,-0.0000,-0.5083,flat,18.0,2,5.658
2730,87.36,2.4524,7.1543,0.1797,-0.0003,-0.0000,-0.5765,flat,18.0,2,5.128
2740,87.68,2.9138,6.8397,0.1797,-0.0002,-0.0000,-0.6354,flat,18.0,2,4.589
2750,88.00,3.3577,6.4978,0.1797,-0.0002,-0.0000,-0.6876,flat,18.0,2,4.045
2760,88.32,3.7844,6.1328,0.1797,-0.0002,-0.0000,-0.7352,flat,18.0,2,3.498
2770,88.64,4.1930,5.7475,0.1797,-0.0002,-0.0000,-0.7821,flat,18.0,2,2.948
2780,88.96,4.5825,5.3433,0.1797,-0.0002,0.0000,-0.8300,flat,18.0,2,2.398
2790,89.28,4.9502,4.9214,0.1797,-0.0002,0.0000,-0.8825,flat,18.0,2,1.849
2800,89.60,5.2944,4.4806,0.1797,-0.0002,0.0000,-0.9487,flat,18.0,2,1.301
2810,89.92,5.6042,4.0203,0.1798,-0.0003,0.0000,-1.0465,flat,18.0,3,0.760
2820,90.24,5.8942,3.5439,0.1798,0.0001,-0.0000,-0.9923,flat,18.0,3,2.667
2830,90.56,6.1448,3.1684,0.1797,0.0001,0.0001,-0.9590,rough,14.0,3,2.236
2840,90.88,6.4356,2.7685,0.1797,0.0001,-0.0002,-0.9142,flat,18.0,3,1.767
2850,91.20,6.7857,2.3369,0.1797,0.0002,-0.0000,-0.8474,flat,18.0,3,1.251
2860,91.52,7.1618,1.9452,0.1798,0.0003,0.0001,-0.7391,flat,18.0,0,0.771
2870,91.84,7.3697,1.7257,0.1798,0.0005,-0.0004,-1.1291,flat,18.0,0,9.330
2880,92.16,7.5038,1.3974,0.1797,-0.0010,-0.0000,-1.6464,flat,18.0,0,9.588
2890,92.48,7.4516,1.0357,0.1799,-0.0001,-0.0000,-2.0908,flat,18.0,0,9.700
2900,92.80,7.2050,0.7103,0.1799,-0.0000,-0.0000,-2.4065,flat,18.0,0,9.638
2910,93.12,6.8242,0.4300,0.1799,-0.0000,-0.0000,-2.6778,flat,18.0,0,9.455
2920,93.44,6.3534,0.2305,0.1799,-0.0001,-0.0000,-2.9262,flat,18.0,0,9.172
2930,93.76,5.8277,0.1403,0.1799,-0.0001,0.0000,3.1414,flat,18.0,0,8.799
2940,94.08,5.2838,0.1604,0.1799,-0.0001,-0.0000,2.9723,flat,18.0,0,8.360
2950,94.40,4.7450,0.2680,0.1799,-0.0003,-0.0000,2.8525,flat,18.0,0,7.879
2960,94.72,4.2185,0.4384,0.1798,-0.0004,-0.0000,2.7615,flat,18.0,0,7.375
2970,95.04,3.7061,0.6558,0.1798,-0.0003,-0.0000,2.6888,flat,18.0,0,6.854
2980,95.36,3.2080,0.9100,0.1797,-0.0002,-0.0000,2.6287,flat,18.0,0,6.323
2990,95.68,2.7239,1.1939,0.1797,-0.0002,-0.0000,2.5775,flat,18.0,0,5.784
3000,96.00,2.2536,1.5027,0.1797,-0.0002,-0.0000,2.5338,flat,18.0,0,5.241
3010,96.32,1.7964,1.8318,0.1797,-0.0001,-0.0000,2.4956,flat,18.0,0,4.695
3020,96.64,1.3512,2.1785,0.1797,-0.0001,-0.0000,2.4601,flat,18.0,0,4.146
3030,96.96,0.9182,2.5410,0.1797,-0.0001,-0.0000,2.4260,flat,18.0,0,3.597
3040,97.28,0.4974,2.9182,0.1797,-0.0001,-0.0000,2.3911,flat,18.0,0,3.047
3050,97.60,0.0905,3.3100,0.1797,-0.0001,0.0000,2.3551,flat,18.0,0,2.499
3060,97.92,-0.3006,3.7162,0.1797,-0.0001,0.0000,2.3153,flat,18.0,0,1.955
3070,98.24,-0.6714,4.1367,0.1797,-0.0002,0.0000,2.2667,flat,18.0,0,1.420
3080,98.56,-1.0164,4.5733,0.1798,-0.0003,0.0000,2.1896,flat,18.0,0,0.904
3090,98.88,-1.3052,5.0334,0.1799,-0.0002,-0.0000,2.0561,flat,18.0,1,2.354
3100,99.20,-1.5173,5.4758,0.1798,-0.0002,0.0002,1.9276,rough,14.0,1,1.959
3110,99.52,-1.6709,5.9271,0.1798,-0.0002,-0.0002,1.7900,flat,18.0,1,1.583
3120,99.84,-1.7673,6.4550,0.1799,-0.0001,0.0000,1.5498,flat,18.0,1,1.182
3130,100.16,-1.7329,6.9618,0.1799,-0.0000,0.0000,1.2361,flat,18.0,1,0.822
3140,100.48,-1.5666,7.3224,0.1799,0.0001,-0.0000,0.8606,flat,18.0,2,8.420
3150,100.80,-1.2395,7.6198,0.1799,0.0000,-0.0000,0.5705,flat,18.0,2,8.286
3160,101.12,-0.8519,7.8346,0.1799,-0.0001,-0.0001,0.3454,flat,18.0,2,8.076
3170,101.44,-0.3572,7.9822,0.1799,-0.0002,0.0000,0.0953,flat,18.0,2,7.761
3180,101.76,0.1772,8.0096,0.1799,-0.0001,-0.0000,-0.1156,flat,18.0,2,7.359
3190,102.08,0.7140,7.9282,0.1799,-0.0001,-0.0000,-0.2703,flat,18.0,2,6.901
3200,102.40,1.2376,7.7664,0.1799,-0.0004,-0.0000,-0.3838,flat,18.0,2,6.409
3210,102.72,1.7438,7.5464,0.1798,-0.0004,-0.0000,-0.4730,flat,18.0,2,5.896
3220,103.04,2.2318,7.2817,0.1798,-0.0003,-0.0000,-0.5464,flat,18.0,2,5.369
3230,103.36,2.7016,6.9813,0.1797,-0.0002,-0.0000,-0.6089,flat,18.0,2,4.834
3240,103.68,3.1537,6.6515,0.1797,-0.0002,-0.0000,-0.6640,flat,18.0,2,4.292
3250,104.00,3.5884,6.2968,0.1797,-0.0002,-0.0000,-0.7132,flat,18.0,2,3.746
3260,104.32,4.0056,5.9208,0.1797,-0.0002,-0.0000,-0.7601,flat,18.0,2,3.197
3270,104.64,4.4045,5.5253,0.1797,-0.0002,0.0000,-0.8067,flat,18.0,2,2.647
3280,104.96,4.7830,5.1117,0.1797,-0.0002,0.0000,-0.8566,flat,18.0,2,2.097
3290,105.28,5.1388,4.6802,0.1797,-0.0002,-0.0000,-0.9149,flat,18.0,2,1.548
3300,105.60,5.4671,4.2292,0.1798,-0.0003,0.0000,-0.9940,flat,18.0,2,1.002
3310,105.92,5.7596,3.7586,0.1798,-0.0001,-0.0001,-1.0026,flat,18.0,3,2.910
3320,106.24,6.0420,3.3279,0.1798,0.0001,0.0002,-0.9665,rough,14.0,3,2.415
3330,106.56,6.3081,2.9543,0.1797,0.0001,-0.0003,-0.9311,flat,18.0,3,1.977
3340,106.88,6.6512,2.5141,0.1797,0.0002,-0.0000,-0.8728,flat,18.0,3,1.452
3350,107.20,7.0185,2.1034,0.1798,0.0003,0.0000,-0.7910,flat,18.0,3,0.949
3360,107.52,7.3095,1.8272,0.1789,0.0000,-0.0054,-0.9332,flat,18.0,0,9.235
3370,107.84,7.4735,1.5538,0.1787,-0.0073,-0.0001,-1.4132,flat,18.0,0,9.495
3380,108.16,7.5090,1.1827,0.1798,-0.0002,0.0001,-1.9304,flat,18.0,0,9.686
3390,108.48,7.3367,0.8427,0.1799,-0.0000,-0.0000,-2.2906,flat,18.0,0,9.689
3400,108.80,7.0020,0.5417,0.1799,-0.0000,-0.0000,-2.5696,flat,18.0,0,9.547
3410,109.12,6.5636,0.3044,0.1799,-0.0001,-0.0000,-2.8286,flat,18.0,0,9.304
3420,109.44,6.0558,0.1681,0.1799,-0.0001,0.0000,-3.0578,flat,18.0,0,8.966
3430,109.76,5.5151,0.1446,0.1799,-0.0001,-0.0000,3.0345,flat,18.0,0,8.550
3440,110.08,4.9727,0.2198,0.1799,-0.0002,-0.0000,2.8976,flat,18.0,0,8.083
3450,110.40,4.4407,0.3666,0.1798,-0.0004,-0.0000,2.7967,flat,18.0,0,7.587
3460,110.72,3.9222,0.5659,0.1798,-0.0004,-0.0000,2.7175,flat,18.0,0,7.072
3470,111.04,3.4181,0.8056,0.1797,-0.0002,-0.0000,2.6529,flat,18.0,0,6.544
3480,111.36,2.9281,1.0777,0.1797,-0.0002,-0.0000,2.5985,flat,18.0,0,6.008
3490,111.68,2.4517,1.3763,0.1797,-0.0002,-0.0000,2.5515,flat,18.0,0,5.467
3500,112.00,1.9891,1.6972,0.1797,-0.0001,-0.0000,2.5120,flat,18.0,0,4.921
3510,112.32,1.5386,2.0364,0.1797,-0.0001,-0.0000,2.4755,flat,18.0,0,4.374
3520,112.64,1.1001,2.3921,0.1797,-0.0001,-0.0000,2.4411,flat,18.0,0,3.824
3530,112.96,0.6738,2.7628,0.1797,-0.0001,-0.0000,2.4068,flat,18.0,0,3.275
3540,113.28,0.2604,3.1481,0.1797,-0.0001,-0.0000,2.3713,flat,18.0,0,2.726
3550,113.60,-0.1381,3.5479,0.1797,-0.0001,0.0000,2.3338,flat,18.0,0,2.180
3560,113.92,-0.5185,3.9621,0.1797,-0.0002,0.0000,2.2896,flat,18.0,0,1.640
3570,114.24,-0.8760,4.3912,0.1797,-0.0002,0.0000,2.2288,flat,18.0,0,1.114
3580,114.56,-1.1910,4.8375,0.1798,-0.0001,-0.0001,2.1102,flat,18.0,1,2.538
3590,114.88,-1.4512,5.3189,0.1799,-0.0001,-0.0000,1.9663,rough,14.0,1,2.096
3600,115.20,-1.6101,5.7273,0.1798,-0.0002,-0.0004,1.8569,flat,18.0,1,1.746
3610,115.52,-1.7414,6.2475,0.1799,-0.0000,-0.0000,1.6526,flat,18.0,1,1.335
3620,115.84,-1.7618,6.7707,0.1799,-0.0000,0.0000,1.3699,flat,18.0,1,0.954
3630,116.16,-1.6503,7.1952,0.1799,0.0001,0.0000,0.9926,flat,18.0,2,8.434
3640,116.48,-1.3803,7.5091,0.1799,0.0000,-0.0000,0.6818,flat,18.0,2,8.350
3650,116.80,-1.0203,7.7540,0.1799,-0.0000,0.0000,0.4263,rough,14.0,2,8.172
3660,117.12,-0.5893,7.9284,0.1799,-0.0000,-0.0000,0.2128,flat,18.0,2,7.915
3670,117.44,-0.0695,8.0155,0.1799,-0.0000,-0.0000,-0.0231,flat,18.0,2,7.554
3680,117.76,0.4690,7.9827,0.1799,-0.0001,-0.0000,-0.2029,flat,18.0,2,7.120
3690,118.08,0.9997,7.8560,0.1799,-0.0002,-0.0000,-0.3337,flat,18.0,2,6.642
3700,118.40,1.5142,7.6615,0.1798,-0.0004,-0.0000,-0.4333,flat,18.0,2,6.138
3710,118.72,2.0107,7.4165,0.1798,-0.0004,-0.0000,-0.5137,flat,18.0,2,5.618
3720,119.04,2.4889,7.1318,0.1797,-0.0003,-0.0000,-0.5812,flat,18.0,2,5.087
3730,119.36,2.9490,6.8149,0.1797,-0.0002,-0.0000,-0.6396,flat,18.0,2,4.548
3740,119.68,3.3915,6.4711,0.1797,-0.0002,-0.0000,-0.6914,flat,18.0,2,4.004
3750,120.00,3.8168,6.1045,0.1797,-0.0002,-0.0000,-0.7388,flat,18.0,2,3.456
3760,120.32,4.2241,5.7177,0.1797,-0.0002,-0.0000,-0.7857,flat,18.0,2,2.906
3770,120.64,4.6120,5.3121,0.1797,-0.0002,0.0000,-0.8339,flat,18.0,2,2.356
3780,120.96,4.9779,4.8888,0.1797,-0.0002,-0.0000,-0.8872,flat,18.0,2,1.807
3790,121.28,5.3200,4.4465,0.1797,-0.0002,0.0000,-0.9549,flat,18.0,2,1.259
3800,121.60,5.6224,3.9865,0.1798,-0.0005,0.0002,-1.0254,flat,18.0,3,3.165
3810,121.92,5.9197,3.5089,0.1798,0.0001,-0.0000,-0.9857,rough,14.0,3,2.625
3820,122.24,6.1655,3.1448,0.1797,0.0001,0.0001,-0.9544,rough,14.0,3,2.205
3830,122.56,6.4656,2.7363,0.1797,0.0001,-0.0002,-0.9085,flat,18.0,3,1.725
3840,122.88,6.8183,2.3071,0.1797,0.0002,-0.0000,-0.8408,flat,18.0,3,1.209
3850,123.20,7.1898,1.9258,0.1814,0.0003,0.0113,-0.7395,flat,18.0,0,9.086
3860,123.52,7.3817,1.7072,0.1800,0.0013,-0.0004,-1.1727,flat,18.0,0,9.349
3870,123.84,7.5030,1.3685,0.1799,0.0000,0.0000,-1.7046,flat,18.0,0,9.600
3880,124.16,7.4294,1.0108,0.1799,0.0001,-0.0000,-2.1306,flat,18.0,0,9.692
3890,124.48,7.1655,0.6890,0.1799,0.0001,-0.0001,-2.4351,flat,18.0,0,9.614
3900,124.80,6.7742,0.4148,0.1799,0.0000,-0.0000,-2.7043,flat,18.0,0,9.420
3910,125.12,6.2961,0.2252,0.1799,0.0000,-0.0000,-2.9509,flat,18.0,0,9.128
3920,125.44,5.7670,0.1463,0.1799,-0.0000,-0.0000,3.1197,flat,18.0,0,8.748
3930,125.76,5.2229,0.1768,0.1799,-0.0001,-0.0000,2.9589,flat,18.0,0,8.303
3940,126.08,4.6852,0.2915,0.1799,-0.0003,-0.0000,2.8426,flat,18.0,0,7.819
3950,126.40,4.1600,0.4670,0.1798,-0.0004,-0.0000,2.7538,flat,18.0,0,7.312
3960,126.72,3.6490,0.6884,0.1798,-0.0003,-0.0000,2.6826,flat,18.0,0,6.790
3970,127.04,3.1523,0.9457,0.1797,-0.0002,-0.0000,2.6234,flat,18.0,0,6.258
3980,127.36,2.6695,1.2322,0.1797,-0.0002,-0.0000,2.5730,flat,18.0,0,5.719
3990,127.68,2.2005,1.5431,0.1797,-0.0002,-0.0000,2.5300,flat,18.0,0,5.176
4000,128.00,1.7444,1.8740,0.1797,-0.0001,-0.0000,2.4921,flat,18.0,0,4.629
4010,128.32,1.3004,2.2223,0.1797,-0.0001,-0.0000,2.4567,flat,18.0,0,4.081
4020,128.64,0.8686,2.5862,0.1797,-0.0001,-0.0000,2.4226,flat,18.0,0,3.531
4030,128.96,0.4491,2.9649,0.1797,-0.0001,-0.0000,2.3875,flat,18.0,0,2.982
4040,129.28,0.0437,3.3582,0.1797,-0.0001,0.0000,2.3512,flat,18.0,0,2.434
4050,129.60,-0.3455,3.7658,0.1797,-0.0001,0.0000,2.3106,flat,18.0,0,1.891
4060,129.92,-0.7138,4.1878,0.1797,-0.0002,0.0000,2.2601,flat,18.0,0,1.357
4070,130.24,-1.0549,4.6263,0.1798,-0.0003,0.0000,2.1766,flat,18.0,0,0.846
4080,130.56,-1.3374,5.0901,0.1799,-0.0003,-0.0000,2.0365,flat,18.0,1,2.302
4090,130.88,-1.5417,5.5364,0.1798,-0.0002,0.0002,1.9052,rough,14.0,1,1.907
4100,131.20,-1.6922,6.0134,0.1799,-0.0000,-0.0000,1.7516,flat,18.0,1,1.514
4110,131.52,-1.7678,6.5424,0.1799,-0.0000,0.0000,1.5017,flat,18.0,1,1.116
4120,131.84,-1.7123,7.0364,0.1799,0.0001,0.0003,1.1554,flat,18.0,2,8.417
4130,132.16,-1.5188,7.3725,0.1799,0.0001,-0.0000,0.8102,flat,18.0,2,8.402
4140,132.48,-1.1865,7.6522,0.1799,-0.0001,0.0002,0.5353,rough,14.0,2,8.258
4150,132.80,-0.8358,7.8367,0.1799,-0.0000,-0.0002,0.3413,flat,18.0,2,8.064
4160,133.12,-0.3504,7.9838,0.1799,-0.0000,-0.0000,0.1031,flat,18.0,2,7.756
4170,133.44,0.1824,8.0156,0.1799,-0.0000,-0.0000,-0.1114,flat,18.0,2,7.359
4180,133.76,0.7193,7.9365,0.1799,-0.0001,-0.0000,-0.2673,flat,18.0,2,6.903
4190,134.08,1.2430,7.7763,0.1799,-0.0004,-0.0000,-0.3822,flat,18.0,2,6.412
4200,134.40,1.7493,7.5570,0.1798,-0.0004,-0.0000,-0.4723,flat,18.0,2,5.900
4210,134.72,2.2373,7.2926,0.1798,-0.0003,-0.0000,-0.5463,flat,18.0,2,5.374
4220,135.04,2.7069,6.9922,0.1797,-0.0002,-0.0000,-0.6094,flat,18.0,2,4.839
4230,135.36,3.1588,6.6623,0.1797,-0.0002,-0.0000,-0.6645,flat,18.0,2,4.297
4240,135.68,3.5933,6.3073,0.1797,-0.0002,-0.0000,-0.7137,flat,18.0,2,3.751
4250,136.00,4.0102,5.9311,0.1797,-0.0002,-0.0000,-0.7611,flat,18.0,2,3.203
4260,136.32,4.4085,5.5353,0.1797,-0.0002,0.0000,-0.8081,flat,18.0,2,2.653
4270,136.64,4.7862,5.1212,0.1797,-0.0002,0.0000,-0.8584,flat,18.0,2,2.103
4280,136.96,5.1413,4.6890,0.1797,-0.0002,-0.0000,-0.9172,flat,18.0,2,1.555
4290,137.28,5.4685,4.2372,0.1798,-0.0003,0.0000,-0.9966,flat,18.0,2,1.009
4300,137.60,5.7598,3.7657,0.1798,-0.0001,-0.0001,-1.0051,flat,18.0,3,2.914
4310,137.92,6.0411,3.3344,0.1798,0.0001,0.0002,-0.9688,rough,14.0,3,2.420
4320,138.24,6.3063,2.9603,0.1797,0.0001,-0.0003,-0.9334,flat,18.0,3,1.982
4330,138.56,6.6483,2.5193,0.1797,0.0002,-0.0000,-0.8750,flat,18.0,3,1.457
4340,138.88,7.0147,2.1076,0.1798,0.0003,0.0000,-0.7935,flat,18.0,3,0.953
4350,139.20,7.3049,1.8306,0.1789,0.0000,-0.0054,-0.9359,flat,18.0,0,9.229
4360,139.52,7.4683,1.5569,0.1787,-0.0073,-0.0001,-1.4152,flat,18.0,0,9.489
4370,139.84,7.5030,1.1858,0.1798,-0.0002,0.0001,-1.9318,flat,18.0,0,9.679
4380,140.16,7.3301,0.8459,0.1799,-0.0000,-0.0000,-2.2916,flat,18.0,0,9.681
4390,140.48,6.9949,0.5450,0.1799,-0.0000,-0.0000,-2.5705,flat,18.0,0,9.540
4400,140.80,6.5563,0.3080,0.1799,-0.0001,-0.0000,-2.8294,flat,18.0,0,9.296
4410,141.12,6.0483,0.1721,0.1799,-0.0001,0.0000,-3.0585,flat,18.0,0,8.957
4420,141.44,5.5076,0.1489,0.1799,-0.0001,-0.0000,3.0339,flat,18.0,0,8.541
4430,141.76,4.9652,0.2244,0.1799,-0.0002,-0.0000,2.8972,flat,18.0,0,8.075
4440,142.08,4.4332,0.3714,0.1798,-0.0004,-0.0000,2.7964,flat,18.0,0,7.578
4450,142.40,3.9148,0.5708,0.1798,-0.0004,-0.0000,2.7172,flat,18.0,0,7.063
4460,142.72,3.4108,0.8107,0.1797,-0.0002,-0.0000,2.6526,flat,18.0,0,6.535
4470,143.04,2.9208,1.0829,0.1797,-0.0002,-0.0000,2.5982,flat,18.0,0,6.000
4480,143.36,2.4445,1.3817,0.1797,-0.0002,-0.0000,2.5512,flat,18.0,0,5.458
4490,143.68,1.9820,1.7027,0.1797,-0.0001,-0.0000,2.5117,flat,18.0,0,4.913
4500,144.00,1.5316,2.0420,0.1797,-0.0001,-0.0000,2.4752,flat,18.0,0,4.365
4510,144.32,1.0933,2.3979,0.1797,-0.0001,-0.0000,2.4407,flat,18.0,0,3.816
4520,144.64,0.6671,2.7688,0.1797,-0.0001,-0.0000,2.4064,flat,18.0,0,3.266
4530,144.96,0.2539,3.1543,0.1797,-0.0001,0.0000,2.3709,flat,18.0,0,2.717
4540,145.28,-0.1444,3.5542,0.1797,-0.0001,0.0000,2.3333,flat,18.0,0,2.171
4550,145.60,-0.5245,3.9686,0.1797,-0.0002,0.0000,2.2888,flat,18.0,0,1.631
4560,145.92,-0.8816,4.3980,0.1797,-0.0002,0.0000,2.2275,flat,18.0,0,1.106
4570,146.24,-1.1957,4.8446,0.1799,-0.0001,-0.0001,2.1078,flat,18.0,1,2.532
4580,146.56,-1.4503,5.3183,0.1799,-0.0002,0.0006,1.9693,rough,14.0,1,2.096
4590,146.88,-1.6121,5.7322,0.1798,-0.0002,-0.0003,1.8598,flat,18.0,1,1.742
4600,147.20,-1.7444,6.2551,0.1799,-0.0001,-0.0000,1.6482,flat,18.0,1,1.330
4610,147.52,-1.7623,6.7779,0.1799,-0.0000,0.0000,1.3644,flat,18.0,1,0.950
4620,147.84,-1.6482,7.2009,0.1799,0.0001,-0.0000,0.9866,flat,18.0,2,8.435
4630,148.16,-1.3754,7.5142,0.1799,0.0000,-0.0000,0.6769,flat,18.0,2,8.348
4640,148.48,-1.0117,7.7588,0.1799,-0.0001,0.0003,0.4325,rough,14.0,2,8.168
4650,148.80,-0.5684,7.9396,0.1799,-0.0000,-0.0000,0.2071,flat,18.0,2,7.905
4660,149.12,-0.0474,8.0232,0.1799,-0.0001,0.0000,-0.0250,flat,18.0,2,7.542
4670,149.44,0.4913,7.9886,0.1799,-0.0001,-0.0000,-0.2067,flat,18.0,2,7.107
4680,149.76,1.0214,7.8598,0.1799,-0.0003,-0.0000,-0.3370,flat,18.0,2,6.629
4690,150.08,1.5354,7.6636,0.1798,-0.0004,-0.0000,-0.4364,flat,18.0,2,6.125
4700,150.40,2.0311,7.4171,0.1798,-0.0004,-0.0000,-0.5166,flat,18.0,2,5.605
4710,150.72,2.5084,7.1310,0.1797,-0.0003,-0.0000,-0.5839,flat,18.0,2,5.073
4720,151.04,2.9677,6.8128,0.1797,-0.0002,-0.0000,-0.6422,flat,18.0,2,4.534
4730,151.36,3.4094,6.4679,0.1797,-0.0002,-0.0000,-0.6937,flat,18.0,2,3.990
4740,151.68,3.8338,6.1002,0.1797,-0.0002,-0.0000,-0.7412,flat,18.0,2,3.442
4750,152.00,4.2400,5.7124,0.1797,-0.0002,-0.0000,-0.7884,flat,18.0,2,2.893
4760,152.32,4.6266,5.3058,0.1797,-0.0002,0.0000,-0.8370,flat,18.0,2,2.343
4770,152.64,4.9913,4.8814,0.1797,-0.0002,-0.0000,-0.8908,flat,18.0,2,1.794
4780,152.96,5.3317,4.4378,0.1797,-0.0002,0.0000,-0.9594,flat,18.0,2,1.247
4790,153.28,5.6318,3.9766,0.1798,-0.0005,0.0002,-1.0315,flat,18.0,3,3.152
4800,153.60,5.9262,3.4976,0.1798,0.0001,-0.0000,-0.9898,rough,14.0,3,2.613
4810,153.92,6.1703,3.1328,0.1797,0.0001,0.0001,-0.9576,rough,14.0,3,2.194
4820,154.24,6.4842,2.7043,0.1797,0.0002,-0.0001,-0.9072,flat,18.0,3,1.692
4830,154.56,6.8374,2.2769,0.1797,0.0003,0.0000,-0.8363,flat,18.0,3,1.179
4840,154.88,7.1991,1.9096,0.1796,0.0003,-0.0006,-0.7448,flat,18.0,0,9.101
4850,155.20,7.3806,1.6918,0.1745,-0.0336,-0.0007,-1.2171,flat,18.0,0,9.354
4860,155.52,7.4834,1.3394,0.1799,0.0001,0.0001,-1.7534,flat,18.0,0,9.594
4870,155.84,7.3887,0.9855,0.1799,-0.0000,-0.0001,-2.1644,flat,18.0,0,9.668
4880,156.16,7.1085,0.6678,0.1799,-0.0000,-0.0000,-2.4633,flat,18.0,0,9.575
4890,156.48,6.7066,0.4004,0.1799,-0.0000,-0.0000,-2.7311,flat,18.0,0,9.371
4900,156.80,6.2216,0.2220,0.1799,-0.0001,0.0000,-2.9733,flat,18.0,0,9.069
4910,157.12,5.6893,0.1553,0.1799,-0.0001,-0.0000,3.1019,flat,18.0,0,8.680
4920,157.44,5.1452,0.1957,0.1799,-0.0001,-0.0000,2.9444,flat,18.0,0,8.231
4930,157.76,4.6087,0.3180,0.1799,-0.0004,-0.0000,2.8318,flat,18.0,0,7.744
4940,158.08,4.0851,0.4991,0.1798,-0.0004,-0.0000,2.7451,flat,18.0,0,7.236
4950,158.40,3.5757,0.7249,0.1798,-0.0003,-0.0000,2.6753,flat,18.0,0,6.713
4960,158.72,3.0807,0.9859,0.1797,-0.0002,-0.0000,2.6171,flat,18.0,0,6.180
4970,159.04,2.5995,1.2755,0.1797,-0.0002,-0.0000,2.5673,flat,18.0,0,5.640
4980,159.36,2.1323,1.5891,0.1797,-0.0001,-0.0000,2.5250,flat,18.0,0,5.096
4990,159.68,1.6778,1.9223,0.1797,-0.0001,-0.0000,2.4873,flat,18.0,0,4.550
5000,160.00,1.2355,2.2727,0.1797,-0.0001,-0.0000,2.4520,flat,18.0,0,4.001
5010,160.32,0.8054,2.6387,0.1797,-0.0001,-0.0000,2.4177,flat,18.0,0,3.452
5020,160.64,0.3878,3.0194,0.1797,-0.0001,-0.0000,2.3823,flat,18.0,0,2.903
5030,160.96,-0.0153,3.4148,0.1797,-0.0001,0.0000,2.3455,flat,18.0,0,2.356
5040,161.28,-0.4016,3.8246,0.1797,-0.0001,0.0000,2.3036,flat,18.0,0,1.813
5050,161.60,-0.7663,4.2490,0.1797,-0.0002,0.0000,2.2502,flat,18.0,0,1.282
5060,161.92,-1.1014,4.6900,0.1798,-0.0003,0.0000,2.1570,flat,18.0,1,0.777
5070,162.24,-1.3748,5.1595,0.1799,-0.0002,-0.0000,2.0147,flat,18.0,1,2.239
5080,162.56,-1.5658,5.5987,0.1798,-0.0002,0.0001,1.8863,rough,14.0,1,1.854
5090,162.88,-1.7130,6.1006,0.1799,-0.0000,-0.0000,1.7143,flat,18.0,1,1.447
5100,163.20,-1.7677,6.6289,0.1799,-0.0000,0.0000,1.4534,flat,18.0,1,1.053
5110,163.52,-1.6909,7.1028,0.1799,-0.0001,0.0002,1.0946,flat,18.0,2,8.428
5120,163.84,-1.4671,7.4281,0.1799,0.0000,-0.0001,0.7602,flat,18.0,2,8.385
5130,164.16,-1.1072,7.7049,0.1799,-0.0000,0.0005,0.4793,rough,14.0,2,8.219
5140,164.48,-0.6890,7.8978,0.1799,-0.0000,-0.0000,0.2584,flat,18.0,2,7.979
5150,164.80,-0.1763,8.0067,0.1799,0.0000,-0.0001,0.0168,flat,18.0,2,7.632
5160,165.12,0.3617,7.9947,0.1799,-0.0001,-0.0000,-0.1736,flat,18.0,2,7.209
5170,165.44,0.8949,7.8833,0.1799,-0.0002,-0.0000,-0.3119,flat,18.0,2,6.737
5180,165.76,1.4128,7.7001,0.1798,-0.0004,-0.0000,-0.4160,flat,18.0,2,6.237
5190,166.08,1.9129,7.4637,0.1798,-0.0004,-0.0000,-0.4993,flat,18.0,2,5.719
5200,166.40,2.3947,7.1860,0.1797,-0.0003,-0.0000,-0.5687,flat,18.0,2,5.190
5210,166.72,2.8583,6.8750,0.1797,-0.0002,-0.0000,-0.6285,flat,18.0,2,4.652
5220,167.04,3.3043,6.5363,0.1797,-0.0002,-0.0000,-0.6815,flat,18.0,2,4.108
5230,167.36,3.7332,6.1739,0.1797,-0.0002,-0.0000,-0.7293,flat,18.0,2,3.561
5240,167.68,4.1442,5.7911,0.1797,-0.0002,-0.0000,-0.7762,flat,18.0,2,3.012
5250,168.00,4.5363,5.3892,0.1797,-0.0002,0.0000,-0.8236,flat,18.0,2,2.461
5260,168.32,4.9069,4.9696,0.1797,-0.0002,0.0000,-0.8751,flat,18.0,2,1.912
5270,168.64,5.2545,4.5314,0.1797,-0.0002,0.0000,-0.9391,flat,18.0,2,1.364
5280,168.96,5.5696,4.0736,0.1798,-0.0003,0.0000,-1.0310,flat,18.0,2,0.821
5290,169.28,5.8599,3.5982,0.1798,0.0001,-0.0000,-0.9948,flat,18.0,3,2.728
5300,169.60,6.1168,3.2117,0.1797,0.0001,0.0001,-0.9608,rough,14.0,3,2.284
5310,169.92,6.4069,2.8110,0.1797,0.0001,-0.0002,-0.9175,flat,18.0,3,1.815
5320,170.24,6.7557,2.3775,0.1797,0.0002,-0.0000,-0.8530,flat,18.0,3,1.296
5330,170.56,7.1301,1.9809,0.1798,0.0003,0.0000,-0.7526,flat,18.0,3,0.809
5340,170.88,7.3597,1.7502,0.1796,0.0004,-0.0018,-1.0861,flat,18.0,0,9.311
5350,171.20,7.5051,1.4353,0.1795,-0.0021,-0.0001,-1.5899,flat,18.0,0,9.573
5360,171.52,7.4749,1.0693,0.1799,0.0001,-0.0000,-2.0558,flat,18.0,0,9.706
5370,171.84,7.2460,0.7403,0.1799,0.0001,-0.0001,-2.3788,flat,18.0,0,9.659
5380,172.16,6.8762,0.4542,0.1799,0.0000,-0.0000,-2.6509,flat,18.0,0,9.486
5390,172.48,6.4130,0.2445,0.1799,-0.0000,-0.0000,-2.9029,flat,18.0,0,9.213
5400,172.80,5.8912,0.1422,0.1799,-0.0000,-0.0000,-3.1234,flat,18.0,0,8.849
5410,173.12,5.3478,0.1520,0.1799,-0.0001,-0.0000,2.9875,flat,18.0,0,8.415
5420,173.44,4.8080,0.2517,0.1799,-0.0003,-0.0000,2.8636,flat,18.0,0,7.938
5430,173.76,4.2800,0.4162,0.1798,-0.0004,-0.0000,2.7703,flat,18.0,0,7.435
5440,174.08,3.7661,0.6291,0.1798,-0.0003,-0.0000,2.6961,flat,18.0,0,6.915
5450,174.40,3.2664,0.8797,0.1797,-0.0002,-0.0000,2.6349,flat,18.0,0,6.385
5460,174.72,2.7807,1.1607,0.1797,-0.0002,-0.0000,2.5829,flat,18.0,0,5.847
5470,175.04,2.3088,1.4668,0.1797,-0.0002,-0.0000,2.5384,flat,18.0,0,5.304
5480,175.36,1.8502,1.7938,0.1797,-0.0001,-0.0000,2.4999,flat,18.0,0,4.758
5490,175.68,1.4036,2.1385,0.1797,-0.0001,-0.0000,2.4642,flat,18.0,0,4.210
5500,176.00,0.9691,2.4992,0.1797,-0.0001,-0.0000,2.4301,flat,18.0,0,3.660
5510,176.32,0.5467,2.8747,0.1797,-0.0001,-0.0000,2.3954,flat,18.0,0,3.111
5520,176.64,0.1380,3.2648,0.1797,-0.0001,0.0000,2.3596,flat,18.0,0,2.563
5530,176.96,-0.2553,3.6692,0.1797,-0.0001,0.0000,2.3206,flat,18.0,0,2.018
5540,177.28,-0.6289,4.0879,0.1797,-0.0002,0.0000,2.2734,flat,18.0,0,1.481
5550,177.60,-0.9778,4.5223,0.1797,-0.0003,0.0000,2.2019,flat,18.0,0,0.962
5560,177.92,-1.2738,4.9785,0.1799,-0.0001,-0.0000,2.0729,flat,18.0,1,2.405
5570,178.24,-1.5024,5.4391,0.1798,-0.0001,0.0002,1.9350,rough,14.0,1,1.990
5580,178.56,-1.6557,5.8784,0.1798,-0.0002,-0.0003,1.8064,flat,18.0,1,1.622
5590,178.88,-1.7612,6.4062,0.1799,-0.0001,-0.0000,1.5750,flat,18.0,1,1.216
5600,179.20,-1.7399,6.9182,0.1799,-0.0000,0.0000,1.2696,flat,18.0,1,0.850
5610,179.52,-1.5870,7.2936,0.1799,0.0001,-0.0000,0.8901,flat,18.0,2,8.424
5620,179.84,-1.2724,7.5951,0.1799,0.0000,-0.0000,0.5964,flat,18.0,2,8.301
5630,180.16,-0.9107,7.8072,0.1799,-0.0000,-0.0003,0.3720,flat,18.0,2,8.110
5640,180.48,-0.4379,7.9672,0.1799,-0.0000,-0.0000,0.1392,flat,18.0,2,7.816
5650,180.80,0.0916,8.0170,0.1799,-0.0001,-0.0000,-0.0812,flat,18.0,2,7.430
5660,181.12,0.6296,7.9533,0.1799,-0.0001,-0.0000,-0.2464,flat,18.0,2,6.981
5670,181.44,1.1558,7.8040,0.1799,-0.0003,-0.0000,-0.3661,flat,18.0,2,6.493
5680,181.76,1.6651,7.5930,0.1798,-0.0004,-0.0000,-0.4591,flat,18.0,2,5.984
5690,182.08,2.1560,7.3351,0.1798,-0.0003,-0.0000,-0.5351,flat,18.0,2,5.460
5700,182.40,2.6287,7.0401,0.1797,-0.0002,-0.0000,-0.5995,flat,18.0,2,4.926
5710,182.72,3.0835,6.7146,0.1797,-0.0002,-0.0000,-0.6558,flat,18.0,2,4.385
5720,183.04,3.5209,6.3636,0.1797,-0.0002,-0.0000,-0.7058,flat,18.0,2,3.840
5730,183.36,3.9409,5.9908,0.1797,-0.0002,-0.0000,-0.7530,flat,18.0,2,3.291
5740,183.68,4.3425,5.5981,0.1797,-0.0002,-0.0000,-0.7998,flat,18.0,2,2.741
5750,184.00,4.7241,5.1871,0.1797,-0.0002,0.0000,-0.8492,flat,18.0,2,2.191
5760,184.32,5.0832,4.7583,0.1797,-0.0002,-0.0000,-0.9057,flat,18.0,2,1.643
5770,184.64,5.4163,4.3101,0.1798,-0.0003,0.0000,-0.9802,flat,18.0,2,1.096
5780,184.96,5.7095,3.8418,0.1798,-0.0002,-0.0001,-1.0171,flat,18.0,3,3.003
5790,185.28,5.9927,3.3969,0.1798,0.0001,0.0003,-0.9787,rough,14.0,3,2.497
5800,185.60,6.2411,3.0382,0.1797,0.0001,0.0000,-0.9437,rough,14.0,3,2.081
5810,185.92,6.5688,2.6045,0.1797,0.0002,-0.0001,-0.8908,flat,18.0,3,1.568
5820,186.24,6.9288,2.1851,0.1798,0.0003,0.0000,-0.8145,flat,18.0,3,1.060
5830,186.56,7.2644,1.8604,0.1768,0.0007,-0.0194,-0.7992,flat,18.0,0,9.180
5840,186.88,7.4295,1.6213,0.1779,-0.0125,-0.0003,-1.3125,flat,18.0,0,9.427
5850,187.20,7.5023,1.2568,0.1799,0.0000,0.0001,-1.8461,flat,18.0,0,9.647
5860,187.52,7.3679,0.9101,0.1799,-0.0000,-0.0001,-2.2298,flat,18.0,0,9.684
5870,187.84,7.0589,0.6005,0.1799,-0.0000,-0.0000,-2.5170,flat,18.0,0,9.566
5880,188.16,6.6381,0.3474,0.1799,-0.0000,-0.0000,-2.7807,flat,18.0,0,9.343
5890,188.48,6.1411,0.1899,0.1799,-0.0001,0.0000,-3.0164,flat,18.0,0,9.022
5900,188.80,5.6038,0.1451,0.1799,-0.0001,-0.0000,3.0668,flat,18.0,0,8.619
5910,189.12,5.0603,0.2036,0.1799,-0.0002,-0.0000,2.9201,flat,18.0,0,8.161
5920,189.44,4.5260,0.3386,0.1798,-0.0004,-0.0000,2.8136,flat,18.0,0,7.669
5930,189.76,4.0050,0.5292,0.1798,-0.0004,-0.0000,2.7309,flat,18.0,0,7.157
5940,190.08,3.4983,0.7622,0.1797,-0.0003,-0.0000,2.6637,flat,18.0,0,6.632
5950,190.40,3.0058,1.0289,0.1797,-0.0002,-0.0000,2.6075,flat,18.0,0,6.097
5960,190.72,2.5271,1.3232,0.1797,-0.0002,-0.0000,2.5591,flat,18.0,0,5.557
5970,191.04,2.0623,1.6405,0.1797,-0.0001,-0.0000,2.5183,flat,18.0,0,5.012
5980,191.36,1.6098,1.9768,0.1797,-0.0001,-0.0000,2.4813,flat,18.0,0,4.465
5990,191.68,1.1694,2.3299,0.1797,-0.0001,-0.0000,2.4464,flat,18.0,0,3.916
6000,192.00,0.7413,2.6983,0.1797,-0.0001,-0.0000,2.4122,flat,18.0,0,3.366
6010,192.32,0.3258,3.0814,0.1797,-0.0001,-0.0000,2.3768,flat,18.0,0,2.817
6020,192.64,-0.0751,3.4790,0.1797,-0.0001,0.0000,2.3397,flat,18.0,0,2.270
6030,192.96,-0.4585,3.8910,0.1797,-0.0001,0.0000,2.2968,flat,18.0,0,1.729
6040,193.28,-0.8198,4.3177,0.1797,-0.0002,0.0000,2.2402,flat,18.0,0,1.200
6050,193.60,-1.1441,4.7600,0.1798,-0.0002,-0.0001,2.1291,flat,18.0,1,2.613
6060,193.92,-1.4127,5.2364,0.1799,-0.0001,-0.0000,1.9902,flat,18.0,1,2.169
6070,194.24,-1.5864,5.6569,0.1798,-0.0002,0.0001,1.8686,flat,18.0,1,1.804
6080,194.56,-1.7269,6.1719,0.1799,-0.0000,-0.0000,1.6848,flat,18.0,1,1.391
6090,194.88,-1.7652,6.6984,0.1799,-0.0000,0.0000,1.4138,flat,18.0,1,1.004
6100,195.20,-1.6726,7.1446,0.1799,0.0001,0.0001,1.0468,flat,18.0,2,8.431
6110,195.52,-1.4269,7.4639,0.1799,0.0000,-0.0000,0.7236,flat,18.0,2,8.367
6120,195.84,-1.0895,7.7121,0.1799,-0.0000,0.0000,0.4730,rough,14.0,2,8.207
6130,196.16,-0.7009,7.8890,0.1799,-0.0000,-0.0001,0.2775,flat,18.0,2,7.983
6140,196.48,-0.1929,8.0064,0.1799,-0.0001,-0.0000,0.0339,flat,18.0,2,7.645
6150,196.80,0.3446,8.0022,0.1799,-0.0001,-0.0000,-0.1636,flat,18.0,2,7.227
6160,197.12,0.8783,7.8958,0.1799,-0.0002,-0.0000,-0.3052,flat,18.0,2,6.758
6170,197.44,1.3970,7.7160,0.1798,-0.0004,-0.0000,-0.4113,flat,18.0,2,6.260
6180,197.76,1.8979,7.4820,0.1798,-0.0004,-0.0000,-0.4959,flat,18.0,2,5.743
6190,198.08,2.3803,7.2059,0.1797,-0.0003,-0.0000,-0.5662,flat,18.0,2,5.214
6200,198.40,2.8446,6.8961,0.1797,-0.0002,-0.0000,-0.6267,flat,18.0,2,4.677
6210,198.72,3.2911,6.5582,0.1797,-0.0002,-0.0000,-0.6799,flat,18.0,2,4.134
6220,199.04,3.7205,6.1965,0.1797,-0.0002,-0.0000,-0.7279,flat,18.0,2,3.587
6230,199.36,4.1319,5.8143,0.1797,-0.0002,-0.0000,-0.7752,flat,18.0,2,3.038
6240,199.68,4.5243,5.4128,0.1797,-0.0002,0.0000,-0.8228,flat,18.0,2,2.488
6250,200.00,4.8952,4.9935,0.1797,-0.0002,0.0000,-0.8744,flat,18.0,2,1.939
6260,200.32,5.2432,4.5554,0.1797,-0.0002,0.0000,-0.9381,flat,18.0,2,1.390
6270,200.64,5.5590,4.0978,0.1798,-0.0003,0.0000,-1.0285,flat,18.0,2,0.848
6280,200.96,5.8506,3.6228,0.1798,0.0001,-0.0000,-0.9933,flat,18.0,3,2.752
6290,201.28,6.1155,3.2264,0.1797,0.0001,0.0001,-0.9589,rough,14.0,3,2.294
6300,201.60,6.4065,2.8258,0.1797,0.0001,-0.0002,-0.9170,flat,18.0,3,1.823
6310,201.92,6.7556,2.3918,0.1797,0.0002,-0.0000,-0.8543,flat,18.0,3,1.302
6320,202.24,7.1297,1.9934,0.1798,0.0003,0.0000,-0.7577,flat,18.0,3,0.812
6330,202.56,7.3583,1.7608,0.1796,0.0004,-0.0017,-1.0896,flat,18.0,0,9.306
6340,202.88,7.5026,1.4463,0.1795,-0.0021,-0.0001,-1.5918,flat,18.0,0,9.566
6350,203.20,7.4719,1.0802,0.1799,0.0001,-0.0000,-2.0564,flat,18.0,0,9.698
6360,203.52,7.2427,0.7511,0.1799,0.0001,-0.0001,-2.3791,flat,18.0,0,9.651
6370,203.84,6.8726,0.4650,0.1799,0.0000,-0.0000,-2.6511,flat,18.0,0,9.477
6380,204.16,6.4094,0.2553,0.1799,-0.0000,-0.0000,-2.9028,flat,18.0,0,9.204
6390,204.48,5.8875,0.1529,0.1799,-0.0000,-0.0000,-3.1231,flat,18.0,0,8.840
6400,204.80,5.3440,0.1625,0.1799,-0.0001,-0.0000,2.9878,flat,18.0,0,8.405
6410,205.12,4.8042,0.2620,0.1799,-0.0003,-0.0000,2.8640,flat,18.0,0,7.928
6420,205.44,4.2761,0.4263,0.1798,-0.0004,-0.0000,2.7708,flat,18.0,0,7.425
6430,205.76,3.7620,0.6390,0.1798,-0.0003,-0.0000,2.6966,flat,18.0,0,6.906
6440,206.08,3.2622,0.8893,0.1797,-0.0002,-0.0000,2.6354,flat,18.0,0,6.375
6450,206.40,2.7764,1.1700,0.1797,-0.0002,-0.0000,2.5834,flat,18.0,0,5.838
6460,206.72,2.3044,1.4759,0.1797,-0.0002,-0.0000,2.5390,flat,18.0,0,5.295
6470,207.04,1.8455,1.8027,0.1797,-0.0001,-0.0000,2.5005,flat,18.0,0,4.748
6480,207.36,1.3987,2.1471,0.1797,-0.0001,-0.0000,2.4647,flat,18.0,0,4.200
6490,207.68,0.9641,2.5076,0.1797,-0.0001,-0.0000,2.4306,flat,18.0,0,3.651
6500,208.00,0.5416,2.8829,0.1797,-0.0001,-0.0000,2.3959,flat,18.0,0,3.101
6510,208.32,0.1327,3.2728,0.1797,-0.0001,0.0000,2.3600,flat,18.0,0,2.553
6520,208.64,-0.2607,3.6770,0.1797,-0.0001,0.0000,2.3209,flat,18.0,0,2.008
6530,208.96,-0.6343,4.0956,0.1797,-0.0002,0.0000,2.2734,flat,18.0,0,1.472
6540,209.28,-0.9830,4.5301,0.1797,-0.0003,0.0000,2.2011,flat,18.0,0,0.953
6550,209.60,-1.2782,4.9865,0.1799,-0.0001,-0.0000,2.0713,flat,18.0,1,2.397
6560,209.92,-1.5012,5.4367,0.1798,-0.0002,0.0002,1.9394,rough,14.0,1,1.992
6570,210.24,-1.6602,5.8865,0.1798,-0.0001,-0.0002,1.8035,flat,18.0,1,1.616
6580,210.56,-1.7640,6.4142,0.1799,-0.0001,0.0000,1.5698,flat,18.0,1,1.212
6590,210.88,-1.7400,6.9253,0.1799,-0.0000,0.0000,1.2634,flat,18.0,1,0.847
6600,211.20,-1.5841,7.2994,0.1799,0.0002,-0.0000,0.8840,flat,18.0,2,8.425
6610,211.52,-1.2670,7.6001,0.1799,0.0000,-0.0000,0.5913,flat,18.0,2,8.299
6620,211.84,-0.8960,7.8153,0.1799,-0.0000,-0.0002,0.3787,flat,18.0,2,8.102
6630,212.16,-0.4164,7.9780,0.1799,0.0001,-0.0000,0.1310,flat,18.0,2,7.805
6640,212.48,0.1140,8.0248,0.1799,-0.0000,-0.0000,-0.0874,flat,18.0,2,7.418
6650,212.80,0.6517,7.9584,0.1799,-0.0001,-0.0000,-0.2500,flat,18.0,2,6.967
6660,213.12,1.1774,7.8072,0.1799,-0.0003,-0.0000,-0.3693,flat,18.0,2,6.480
6670,213.44,1.6860,7.5944,0.1798,-0.0004,-0.0000,-0.4621,flat,18.0,2,5.970
6680,213.76,2.1762,7.3351,0.1798,-0.0003,-0.0000,-0.5379,flat,18.0,2,5.446
6690,214.08,2.6480,7.0387,0.1797,-0.0002,-0.0000,-0.6022,flat,18.0,2,4.912
6700,214.40,3.1019,6.7120,0.1797,-0.0002,-0.0000,-0.6582,flat,18.0,2,4.372
6710,214.72,3.5385,6.3598,0.1797,-0.0002,-0.0000,-0.7081,flat,18.0,2,3.826
6720,215.04,3.9576,5.9861,0.1797,-0.0002,-0.0000,-0.7555,flat,18.0,2,3.278
6730,215.36,4.3581,5.5924,0.1797,-0.0002,-0.0000,-0.8025,flat,18.0,2,2.728
6740,215.68,4.7384,5.1804,0.1797,-0.0002,0.0000,-0.8523,flat,18.0,2,2.178
6750,216.00,5.0961,4.7504,0.1797,-0.0002,-0.0000,-0.9094,flat,18.0,2,1.630
6760,216.32,5.4274,4.3010,0.1798,-0.0003,0.0000,-0.9850,flat,18.0,2,1.084
6770,216.64,5.7180,3.8313,0.1798,-0.0002,-0.0001,-1.0228,flat,18.0,3,2.989
6780,216.96,5.9987,3.3854,0.1798,0.0001,0.0003,-0.9826,rough,14.0,3,2.485
6790,217.28,6.2518,3.0179,0.1798,0.0001,-0.0004,-0.9483,flat,18.0,3,2.060
6800,217.60,6.5874,2.5729,0.1797,0.0002,-0.0000,-0.8882,flat,18.0,3,1.536
6810,217.92,6.9484,2.1558,0.1798,0.0003,0.0000,-0.8084,flat,18.0,3,1.032
6820,218.24,7.2616,1.8523,0.1786,0.0001,-0.0071,-0.8648,flat,18.0,0,9.181
6830,218.56,7.4235,1.5976,0.1783,-0.0096,-0.0002,-1.3670,flat,18.0,0,9.431
6840,218.88,7.4773,1.2282,0.1800,0.0005,0.0000,-1.8980,flat,18.0,0,9.637
6850,219.20,7.3218,0.8856,0.1799,0.0001,-0.0000,-2.2647,flat,18.0,0,9.655
6860,219.52,6.9986,0.5806,0.1799,0.0000,-0.0000,-2.5460,flat,18.0,0,9.525
6870,219.84,6.5682,0.3359,0.1799,-0.0000,-0.0000,-2.8075,flat,18.0,0,9.290
6880,220.16,6.0650,0.1895,0.1799,0.0000,-0.0000,-3.0424,flat,18.0,0,8.960
6890,220.48,5.5260,0.1569,0.1799,-0.0001,-0.0000,3.0478,flat,18.0,0,8.551
6900,220.80,4.9831,0.2251,0.1799,-0.0002,-0.0000,2.9071,flat,18.0,0,8.088
6910,221.12,4.4501,0.3669,0.1798,-0.0004,-0.0000,2.8036,flat,18.0,0,7.593
6920,221.44,3.9307,0.5627,0.1798,-0.0004,-0.0000,2.7226,flat,18.0,0,7.080
6930,221.76,3.4257,0.7999,0.1797,-0.0002,-0.0000,2.6568,flat,18.0,0,6.554
6940,222.08,2.9349,1.0700,0.1797,-0.0002,-0.0000,2.6014,flat,18.0,0,6.019
6950,222.40,2.4578,1.3672,0.1797,-0.0002,-0.0000,2.5536,flat,18.0,0,5.478
6960,222.72,1.9947,1.6872,0.1797,-0.0001,-0.0000,2.5134,flat,18.0,0,4.933
6970,223.04,1.5438,2.0257,0.1797,-0.0001,-0.0000,2.4765,flat,18.0,0,4.385
6980,223.36,1.1052,2.3810,0.1797,-0.0001,-0.0000,2.4417,flat,18.0,0,3.836
6990,223.68,0.6787,2.7514,0.1797,-0.0001,-0.0000,2.4072,flat,18.0,0,3.287
7000,224.00,0.2653,3.1366,0.1797,-0.0001,-0.0000,2.3715,flat,18.0,0,2.738
7010,224.32,-0.1332,3.5363,0.1797,-0.0001,0.0000,2.3338,flat,18.0,0,2.192
7020,224.64,-0.5136,3.9505,0.1797,-0.0002,0.0000,2.2894,flat,18.0,0,1.652
7030,224.96,-0.8710,4.3797,0.1797,-0.0002,0.0000,2.2287,flat,18.0,0,1.126
7040,225.28,-1.1863,4.8261,0.1798,-0.0001,-0.0001,2.1112,flat,18.0,1,2.549
7050,225.60,-1.4470,5.3072,0.1799,-0.0001,-0.0000,1.9677,flat,18.0,1,2.107
7060,225.92,-1.6123,5.7358,0.1798,-0.0002,-0.0003,1.8547,flat,18.0,1,1.738
7070,226.24,-1.7422,6.2595,0.1799,-0.0001,-0.0000,1.6442,flat,18.0,1,1.325
7080,226.56,-1.7581,6.7824,0.1799,-0.0000,0.0000,1.3616,flat,18.0,1,0.944
7090,226.88,-1.6428,7.2048,0.1799,0.0001,-0.0000,0.9835,flat,18.0,2,8.432
7100,227.20,-1.3686,7.5176,0.1799,0.0000,-0.0000,0.6744,flat,18.0,2,8.344
7110,227.52,-1.0020,7.7632,0.1799,0.0000,-0.0003,0.4232,flat,18.0,2,8.162
7120,227.84,-0.5403,7.9429,0.1799,-0.0000,-0.0000,0.1833,flat,18.0,2,7.884
7130,228.16,-0.0158,8.0149,0.1799,-0.0001,0.0000,-0.0443,flat,18.0,2,7.512
7140,228.48,0.5230,7.9704,0.1799,-0.0001,-0.0000,-0.2199,flat,18.0,2,7.071
7150,228.80,1.0521,7.8348,0.1799,-0.0003,-0.0000,-0.3459,flat,18.0,2,6.590
7160,229.12,1.5648,7.6341,0.1798,-0.0004,-0.0000,-0.4428,flat,18.0,2,6.083
7170,229.44,2.0594,7.3843,0.1798,-0.0003,-0.0000,-0.5214,flat,18.0,2,5.561
7180,229.76,2.5357,7.0959,0.1797,-0.0002,-0.0000,-0.5875,flat,18.0,2,5.029
7190,230.08,2.9940,6.7761,0.1797,-0.0002,-0.0000,-0.6451,flat,18.0,2,4.489
7200,230.40,3.4348,6.4299,0.1797,-0.0002,-0.0000,-0.6962,flat,18.0,2,3.944
7210,230.72,3.8585,6.0612,0.1797,-0.0002,-0.0000,-0.7434,flat,18.0,2,3.396
7220,231.04,4.2639,5.6724,0.1797,-0.0002,-0.0000,-0.7901,flat,18.0,2,2.846
7230,231.36,4.6499,5.2651,0.1797,-0.0002,0.0000,-0.8386,flat,18.0,2,2.296
7240,231.68,5.0138,4.8402,0.1797,-0.0002,-0.0000,-0.8926,flat,18.0,2,1.747
7250,232.00,5.3532,4.3961,0.1797,-0.0002,0.0000,-0.9624,flat,18.0,2,1.200
7260,232.32,5.6528,3.9328,0.1798,-0.0003,-0.0002,-1.0269,flat,18.0,3,3.106
7270,232.64,5.9457,3.4652,0.1798,0.0001,0.0003,-0.9846,rough,14.0,3,2.577
7280,232.96,6.1920,3.1045,0.1797,0.0001,0.0000,-0.9502,rough,14.0,3,2.160
7290,233.28,6.5091,2.6781,0.1797,0.0002,-0.0001,-0.9004,flat,18.0,3,1.657
7300,233.60,6.8653,2.2534,0.1797,0.0003,0.0000,-0.8290,flat,18.0,3,1.145
7310,233.92,7.2295,1.8897,0.1795,0.0003,-0.0011,-0.7348,flat,18.0,0,9.137
7320,234.24,7.4134,1.6741,0.1745,-0.0335,-0.0008,-1.2101,flat,18.0,0,9.391
7330,234.56,7.5184,1.3212,0.1799,0.0001,0.0001,-1.7491,flat,18.0,0,9.634
7340,234.88,7.4254,0.9673,0.1799,-0.0000,-0.0001,-2.1615,flat,18.0,0,9.709
7350,235.20,7.1465,0.6493,0.1799,-0.0000,-0.0000,-2.4610,flat,18.0,0,9.617
7360,235.52,6.7455,0.3814,0.1799,-0.0000,-0.0000,-2.7288,flat,18.0,0,9.414
7370,235.84,6.2610,0.2021,0.1799,-0.0001,0.0000,-2.9713,flat,18.0,0,9.112
7380,236.16,5.7289,0.1342,0.1799,-0.0001,-0.0000,3.1038,flat,18.0,0,8.725
7390,236.48,5.1848,0.1737,0.1799,-0.0001,-0.0000,2.9459,flat,18.0,0,8.275
7400,236.80,4.6481,0.2951,0.1799,-0.0004,-0.0000,2.8331,flat,18.0,0,7.789
7410,237.12,4.1242,0.4756,0.1798,-0.0004,-0.0000,2.7463,flat,18.0,0,7.280
7420,237.44,3.6146,0.7007,0.1798,-0.0003,-0.0000,2.6765,flat,18.0,0,6.757
7430,237.76,3.1192,0.9611,0.1797,-0.0002,-0.0000,2.6184,flat,18.0,0,6.224
7440,238.08,2.6376,1.2500,0.1797,-0.0002,-0.0000,2.5687,flat,18.0,0,5.685
7450,238.40,2.1699,1.5629,0.1797,-0.0001,-0.0000,2.5266,flat,18.0,0,5.141
7460,238.72,1.7148,1.8954,0.1797,-0.0001,-0.0000,2.4890,flat,18.0,0,4.594
7470,239.04,1.2718,2.2451,0.1797,-0.0001,-0.0000,2.4539,flat,18.0,0,4.045
7480,239.36,0.8410,2.6103,0.1797,-0.0001,-0.0000,2.4199,flat,18.0,0,3.496
7490,239.68,0.4225,2.9901,0.1797,-0.0001,-0.0000,2.3848,flat,18.0,0,2.946
7500,240.00,0.0181,3.3845,0.1797,-0.0001,0.0000,2.3485,flat,18.0,0,2.399
7510,240.32,-0.3697,3.7932,0.1797,-0.0001,0.0000,2.3075,flat,18.0,0,1.856
7520,240.64,-0.7365,4.2163,0.1797,-0.0002,0.0000,2.2560,flat,18.0,0,1.323
7530,240.96,-1.0752,4.6558,0.1798,-0.0003,0.0000,2.1687,flat,18.0,0,0.814
7540,241.28,-1.3536,5.1220,0.1799,-0.0003,-0.0000,2.0283,flat,18.0,1,2.273
7550,241.60,-1.5504,5.5583,0.1798,-0.0002,0.0001,1.8999,rough,14.0,1,1.888
7560,241.92,-1.6982,6.0358,0.1799,-0.0000,-0.0000,1.7446,flat,18.0,1,1.497
7570,242.24,-1.7697,6.5644,0.1799,-0.0000,0.0000,1.4907,flat,18.0,1,1.101
7580,242.56,-1.7084,7.0551,0.1799,0.0001,0.0003,1.1389,flat,18.0,2,8.422
7590,242.88,-1.5075,7.3885,0.1799,0.0000,-0.0000,0.7972,flat,18.0,2,8.400
7600,243.20,-1.1547,7.6759,0.1799,0.0000,-0.0000,0.5121,rough,14.0,2,8.243
7610,243.52,-0.7815,7.8612,0.1799,-0.0000,-0.0001,0.3139,flat,18.0,2,8.033
7620,243.84,-0.2821,7.9955,0.1799,-0.0000,-0.0000,0.0666,flat,18.0,2,7.709
7630,244.16,0.2535,8.0089,0.1799,-0.0001,-0.0000,-0.1377,flat,18.0,2,7.301
7640,244.48,0.7890,7.9162,0.1799,-0.0001,-0.0000,-0.2860,flat,18.0,2,6.837
7650,244.80,1.3104,7.7463,0.1798,-0.0004,-0.0000,-0.3962,flat,18.0,2,6.342
7660,245.12,1.8143,7.5200,0.1798,-0.0004,-0.0000,-0.4834,flat,18.0,2,5.828
7670,245.44,2.2997,7.2501,0.1798,-0.0003,-0.0000,-0.5554,flat,18.0,2,5.301
7680,245.76,2.7670,6.9454,0.1797,-0.0002,-0.0000,-0.6171,flat,18.0,2,4.764
7690,246.08,3.2165,6.6118,0.1797,-0.0002,-0.0000,-0.6713,flat,18.0,2,4.222
7700,246.40,3.6488,6.2539,0.1797,-0.0002,-0.0000,-0.7199,flat,18.0,2,3.675
7710,246.72,4.0633,5.8750,0.1797,-0.0002,-0.0000,-0.7671,flat,18.0,2,3.126
7720,247.04,4.4593,5.4767,0.1797,-0.0002,0.0000,-0.8142,flat,18.0,2,2.576
7730,247.36,4.8342,5.0605,0.1797,-0.0002,0.0000,-0.8648,flat,18.0,2,2.027
7740,247.68,5.1864,4.6259,0.1797,-0.0002,-0.0000,-0.9254,flat,18.0,2,1.478
7750,248.00,5.5091,4.1719,0.1798,-0.0003,0.0000,-1.0092,flat,18.0,2,0.934
7760,248.32,5.7983,3.6983,0.1798,-0.0000,-0.0001,-1.0035,flat,18.0,3,2.841
7770,248.64,6.0660,3.2885,0.1797,0.0001,0.0001,-0.9684,rough,14.0,3,2.372
7780,248.96,6.3312,2.9149,0.1797,0.0001,-0.0003,-0.9312,flat,18.0,3,1.936
7790,249.28,6.6741,2.4754,0.1797,0.0002,-0.0000,-0.8705,flat,18.0,3,1.413
7800,249.60,7.0420,2.0676,0.1798,0.0003,0.0000,-0.7829,flat,18.0,3,0.916
7810,249.92,7.3098,1.8075,0.1792,0.0000,-0.0049,-1.0009,flat,18.0,0,9.243
7820,250.24,7.4697,1.5205,0.1790,-0.0053,-0.0001,-1.4717,flat,18.0,0,9.505
7830,250.56,7.4833,1.1483,0.1799,0.0002,-0.0000,-1.9797,flat,18.0,0,9.678
7840,250.88,7.2905,0.8127,0.1799,0.0001,-0.0000,-2.3234,flat,18.0,0,9.663
7850,251.20,6.9428,0.5167,0.1799,0.0000,-0.0000,-2.5987,flat,18.0,0,9.510
7860,251.52,6.4954,0.2888,0.1799,-0.0000,-0.0000,-2.8555,flat,18.0,0,9.256
7870,251.84,5.9821,0.1642,0.1799,-0.0000,-0.0000,-3.0831,flat,18.0,0,8.909
7880,252.16,5.4404,0.1530,0.1799,-0.0001,-0.0000,3.0169,flat,18.0,0,8.486
7890,252.48,4.8988,0.2373,0.1799,-0.0002,-0.0000,2.8849,flat,18.0,0,8.016
7900,252.80,4.3683,0.3907,0.1798,-0.0004,-0.0000,2.7868,flat,18.0,0,7.517
7910,253.12,3.8515,0.5952,0.1798,-0.0003,-0.0000,2.7093,flat,18.0,0,7.000
7920,253.44,3.3491,0.8391,0.1797,-0.0002,-0.0000,2.6459,flat,18.0,0,6.472
7930,253.76,2.8608,1.1146,0.1797,-0.0002,-0.0000,2.5923,flat,18.0,0,5.936
7940,254.08,2.3862,1.4162,0.1797,-0.0002,-0.0000,2.5461,flat,18.0,0,5.393
7950,254.40,1.9253,1.7396,0.1797,-0.0001,-0.0000,2.5069,flat,18.0,0,4.848
7960,254.72,1.4764,2.0812,0.1797,-0.0001,-0.0000,2.4706,flat,18.0,0,4.300
7970,255.04,1.0397,2.4390,0.1797,-0.0001,-0.0000,2.4362,flat,18.0,0,3.751
7980,255.36,0.6152,2.8118,0.1797,-0.0001,-0.0000,2.4017,flat,18.0,0,3.201
7990,255.68,0.2039,3.1993,0.1797,-0.0001,0.0000,2.3660,flat,18.0,0,2.653
8000,256.00,-0.1922,3.6012,0.1797,-0.0001,0.0000,2.3277,flat,18.0,0,2.107
8010,256.32,-0.5694,4.0175,0.1797,-0.0002,0.0000,2.2821,flat,18.0,0,1.569
8020,256.64,-0.9231,4.4491,0.1797,-0.0002,0.0000,2.2168,flat,18.0,0,1.045
8030,256.96,-1.2288,4.9004,0.1799,-0.0000,-0.0001,2.0943,flat,18.0,1,2.478
8040,257.28,-1.4772,5.3775,0.1799,-0.0001,0.0005,1.9482,rough,14.0,1,2.044
8050,257.60,-1.6333,5.8045,0.1798,-0.0002,-0.0003,1.8322,flat,18.0,1,1.682
8060,257.92,-1.7519,6.3311,0.1799,-0.0001,-0.0000,1.6113,flat,18.0,1,1.271
8070,258.24,-1.7499,6.8494,0.1799,-0.0000,0.0000,1.3181,flat,18.0,1,0.897
8080,258.56,-1.6180,7.2444,0.1799,0.0002,-0.0000,0.9379,flat,18.0,2,8.428
8090,258.88,-1.3240,7.5521,0.1799,0.0000,-0.0000,0.6376,flat,18.0,2,8.323
8100,259.20,-0.9880,7.7674,0.1799,-0.0001,-0.0000,0.4120,rough,14.0,2,8.152
8110,259.52,-0.5541,7.9367,0.1799,-0.0000,-0.0000,0.2010,flat,18.0,2,7.892
8120,259.84,-0.0329,8.0181,0.1799,0.0000,-0.0000,-0.0349,flat,18.0,2,7.527
