step,time_s,x,y,z,roll,pitch,yaw,terrain,speed,target_idx,dist_to_target
10,0.32,0.1048,-0.0580,0.1847,-0.0000,-0.0346,-0.0000,rough,14.0,0,5.317
20,0.64,0.5471,-0.0717,0.1794,-0.0001,0.0020,-0.1107,flat,18.0,0,4.972
30,0.96,1.0797,-0.1524,0.1799,-0.0001,-0.0000,-0.2839,flat,18.0,0,4.532
40,1.28,1.5949,-0.3223,0.1799,-0.0002,-0.0000,-0.4165,flat,18.0,0,4.060
50,1.60,2.0868,-0.5596,0.1798,-0.0004,-0.0000,-0.5243,flat,18.0,0,3.566
60,1.92,2.5545,-0.8503,0.1798,-0.0004,-0.0000,-0.6107,flat,18.0,0,3.059
70,2.24,2.9991,-1.1802,0.1798,-0.0003,0.0000,-0.6852,flat,18.0,0,2.546
80,2.56,3.4130,-1.5430,0.1798,-0.0004,0.0000,-0.7691,flat,18.0,0,2.037
90,2.88,3.7898,-1.9396,0.1798,-0.0004,0.0000,-0.8679,flat,18.0,0,1.533
100,3.20,4.1222,-2.3707,0.1799,-0.0002,0.0000,-0.9993,flat,18.0,0,1.042
110,3.52,4.3774,-2.8182,0.1799,0.0000,-0.0000,-1.2363,flat,18.0,1,7.519
120,3.84,4.5125,-3.2986,0.1799,-0.0002,0.0000,-1.5199,flat,18.0,1,7.269
130,4.16,4.5180,-3.7638,0.1798,-0.0002,-0.0001,-1.6810,flat,18.0,1,6.958
140,4.48,4.4378,-4.2826,0.1799,-0.0000,-0.0000,-1.8764,flat,18.0,1,6.564
150,4.80,4.2555,-4.7889,0.1799,-0.0001,-0.0000,-2.0223,flat,18.0,1,6.114
160,5.12,4.0003,-5.2697,0.1798,-0.0004,-0.0000,-2.1336,flat,18.0,1,5.631
170,5.44,3.6911,-5.7267,0.1798,-0.0003,-0.0000,-2.2155,flat,18.0,1,5.127
180,5.76,3.3453,-6.1606,0.1797,-0.0003,-0.0000,-2.2851,flat,18.0,1,4.612
190,6.08,2.9692,-6.5692,0.1797,-0.0002,-0.0000,-2.3530,flat,18.0,1,4.091
200,6.40,2.5656,-6.9519,0.1797,-0.0002,-0.0000,-2.4198,flat,18.0,1,3.564
210,6.72,2.1364,-7.3093,0.1797,-0.0002,-0.0000,-2.4873,flat,18.0,1,3.033
220,7.04,1.6836,-7.6385,0.1797,-0.0003,-0.0000,-2.5572,flat,18.0,1,2.500
230,7.36,1.2088,-7.9358,0.1798,-0.0003,-0.0000,-2.6330,flat,18.0,1,1.965
240,7.68,0.7137,-8.1960,0.1798,-0.0004,0.0000,-2.7215,flat,18.0,1,1.434
250,8.00,0.2007,-8.4089,0.1799,-0.0003,0.0000,-2.8417,flat,18.0,1,0.914
260,8.32,-0.2910,-8.5389,0.1799,0.0001,-0.0000,-3.1141,flat,18.0,2,5.488
270,8.64,-0.7870,-8.5255,0.1799,0.0000,-0.0000,2.8816,flat,18.0,2,5.222
280,8.96,-1.1932,-8.4065,0.1798,-0.0002,0.0000,2.7398,flat,18.0,2,4.933
290,9.28,-1.6566,-8.1762,0.1799,-0.0001,-0.0000,2.5604,flat,18.0,2,4.540
300,9.60,-2.0857,-7.8582,0.1799,-0.0002,-0.0000,2.4218,flat,18.0,2,4.099
310,9.92,-2.4732,-7.4814,0.1799,-0.0003,-0.0000,2.3048,flat,18.0,2,3.635
320,10.24,-2.8196,-7.0592,0.1799,-0.0003,-0.0000,2.1883,flat,18.0,2,3.156
330,10.56,-3.1203,-6.5976,0.1799,-0.0003,-0.0000,2.0705,flat,18.0,2,2.665
340,10.88,-3.3685,-6.1029,0.1799,-0.0003,-0.0000,1.9481,flat,18.0,2,2.168
350,11.20,-3.5566,-5.5821,0.1799,-0.0002,-0.0000,1.8140,flat,18.0,2,1.668
360,11.52,-3.6734,-5.0441,0.1799,-0.0001,0.0000,1.6528,flat,18.0,2,1.174
370,11.84,-3.6959,-4.5057,0.1799,-0.0002,-0.0001,1.4928,flat,18.0,3,10.896
380,12.16,-3.6470,-3.9407,0.1798,-0.0001,-0.0000,1.4577,flat,18.0,3,10.337
390,12.48,-3.5790,-3.3758,0.1797,-0.0001,-0.0000,1.4284,flat,18.0,3,9.774
400,12.80,-3.4949,-2.8122,0.1797,-0.0001,-0.0000,1.4036,flat,18.0,3,9.209
410,13.12,-3.3970,-2.2501,0.1797,-0.0001,-0.0000,1.3824,flat,18.0,3,8.642
420,13.44,-3.2875,-1.6895,0.1797,-0.0001,-0.0000,1.3640,flat,18.0,3,8.073
430,13.76,-3.1679,-1.1304,0.1797,-0.0001,-0.0000,1.3479,flat,18.0,3,7.504
440,14.08,-3.0394,-0.5728,0.1797,-0.0001,-0.0000,1.3337,flat,18.0,3,6.933
450,14.40,-2.9031,-0.0168,0.1797,-0.0000,-0.0000,1.3210,flat,18.0,3,6.362
460,14.72,-2.7599,0.5379,0.1797,-0.0000,-0.0000,1.3096,flat,18.0,3,5.790
470,15.04,-2.6103,1.0911,0.1797,-0.0000,-0.0000,1.2991,flat,18.0,3,5.218
480,15.36,-2.4550,1.6429,0.1797,-0.0000,-0.0000,1.2893,flat,18.0,3,4.646
490,15.68,-2.2944,2.1934,0.1797,-0.0000,-0.0000,1.2801,flat,18.0,3,4.073
500,16.00,-2.1287,2.7424,0.1797,-0.0000,-0.0000,1.2712,flat,18.0,3,3.500
510,16.32,-1.9581,3.2899,0.1797,-0.0000,0.0000,1.2624,flat,18.0,3,2.927
520,16.64,-1.7827,3.8358,0.1797,-0.0000,0.0000,1.2533,flat,18.0,3,2.354
530,16.96,-1.6023,4.3797,0.1797,-0.0000,0.0000,1.2432,flat,18.0,3,1.781
540,17.28,-1.4164,4.9211,0.1797,-0.0000,0.0000,1.2308,flat,18.0,3,1.210
550,17.60,-1.2322,5.4488,0.1797,-0.0000,0.0003,1.1639,flat,18.0,0,10.407
560,17.92,-1.0279,5.8064,0.1798,0.0002,0.0000,0.7838,flat,18.0,0,10.610
570,18.24,-0.7160,6.0434,0.1799,0.0001,-0.0001,0.3936,flat,18.0,0,10.668
580,18.56,-0.3019,6.1837,0.1799,-0.0000,-0.0000,0.0245,flat,18.0,0,10.609
590,18.88,0.1744,6.1684,0.1799,-0.0001,-0.0000,-0.2727,flat,18.0,0,10.400
600,19.20,0.6536,6.0038,0.1799,-0.0001,-0.0000,-0.4897,flat,18.0,0,10.069
610,19.52,1.1044,5.7286,0.1799,-0.0001,-0.0000,-0.6503,flat,18.0,0,9.657
620,19.84,1.5196,5.3800,0.1798,-0.0003,-0.0000,-0.7613,flat,18.0,0,9.196
630,20.16,1.8994,4.9853,0.1798,-0.0004,-0.0000,-0.8566,flat,18.0,0,8.711
640,20.48,2.2478,4.5539,0.1798,-0.0004,-0.0000,-0.9418,flat,18.0,0,8.205
650,20.80,2.5640,4.0928,0.1798,-0.0003,-0.0000,-1.0175,flat,18.0,0,7.683
660,21.12,2.8488,3.6077,0.1797,-0.0002,-0.0000,-1.0846,flat,18.0,0,7.150
670,21.44,3.1036,3.1035,0.1797,-0.0002,-0.0000,-1.1442,flat,18.0,0,6.608
680,21.76,3.3293,2.5842,0.1797,-0.0002,-0.0000,-1.1974,flat,18.0,0,6.059
690,22.08,3.5289,2.0530,0.1797,-0.0002,-0.0000,-1.2448,flat,18.0,0,5.505
700,22.40,3.7045,1.5137,0.1797,-0.0001,-0.0000,-1.2854,flat,18.0,0,4.949
710,22.72,3.8591,0.9673,0.1797,-0.0001,-0.0000,-1.3231,flat,18.0,0,4.390
720,23.04,3.9937,0.4150,0.1797,-0.0001,-0.0000,-1.3587,flat,18.0,0,3.829
730,23.36,4.1090,-0.1420,0.1797,-0.0001,-0.0000,-1.3930,flat,18.0,0,3.267
740,23.68,4.2053,-0.7027,0.1797,-0.0001,-0.0000,-1.4271,flat,18.0,0,2.704
750,24.00,4.2826,-1.2662,0.1797,-0.0001,0.0000,-1.4626,flat,18.0,0,2.141
760,24.32,4.3397,-1.8312,0.1797,-0.0001,0.0000,-1.5022,flat,18.0,0,1.579
770,24.64,4.3736,-2.3961,0.1797,-0.0002,0.0000,-1.5537,flat,18.0,0,1.020
780,24.96,4.3762,-2.9521,0.1798,-0.0001,0.0000,-1.6716,flat,18.0,1,7.420
790,25.28,4.3012,-3.4856,0.1799,-0.0001,-0.0000,-1.8455,flat,18.0,1,6.987
800,25.60,4.1434,-3.9808,0.1798,-0.0001,-0.0002,-1.9498,flat,18.0,1,6.534
810,25.92,3.9251,-4.4834,0.1798,-0.0004,-0.0000,-2.0535,flat,18.0,1,6.040
820,26.24,3.6550,-4.9653,0.1798,-0.0004,-0.0000,-2.1360,flat,18.0,1,5.527
830,26.56,3.3454,-5.4284,0.1797,-0.0002,-0.0000,-2.1999,flat,18.0,1,5.002
840,26.88,3.0066,-5.8730,0.1797,-0.0002,-0.0000,-2.2566,flat,18.0,1,4.470
850,27.20,2.6426,-6.2971,0.1797,-0.0002,-0.0000,-2.3127,flat,18.0,1,3.934
860,27.52,2.2547,-6.7002,0.1797,-0.0002,-0.0000,-2.3668,flat,18.0,1,3.396
870,27.84,1.8452,-7.0815,0.1797,-0.0002,-0.0000,-2.4207,flat,18.0,1,2.856
880,28.16,1.4153,-7.4401,0.1797,-0.0002,-0.0000,-2.4781,flat,18.0,1,2.315
890,28.48,0.9655,-7.7745,0.1797,-0.0002,-0.0000,-2.5425,flat,18.0,1,1.774
900,28.80,0.4959,-8.0778,0.1798,-0.0003,0.0000,-2.6225,flat,18.0,1,1.239
910,29.12,0.0101,-8.3354,0.1798,-0.0002,0.0003,-2.7569,flat,18.0,2,5.493
920,29.44,-0.4363,-8.4804,0.1799,0.0000,-0.0000,-3.0947,flat,18.0,2,5.360
930,29.76,-0.9273,-8.4754,0.1799,0.0000,-0.0000,2.8875,flat,18.0,2,5.112
940,30.08,-1.4152,-8.3190,0.1799,-0.0000,-0.0000,2.6651,flat,18.0,2,4.763
950,30.40,-1.8676,-8.0506,0.1799,-0.0001,-0.0000,2.4968,flat,18.0,2,4.350
960,30.72,-2.2788,-7.7048,0.1799,-0.0003,-0.0000,2.3702,flat,18.0,2,3.899
970,31.04,-2.6475,-7.3074,0.1799,-0.0003,-0.0000,2.2524,flat,18.0,2,3.429
980,31.36,-2.9739,-6.8667,0.1799,-0.0003,-0.0000,2.1344,flat,18.0,2,2.946
990,31.68,-3.2510,-6.3892,0.1799,-0.0003,-0.0000,2.0140,flat,18.0,2,2.452
1000,32.00,-3.4720,-5.8814,0.1799,-0.0003,-0.0000,1.8867,flat,18.0,2,1.954
1010,32.32,-3.6280,-5.3510,0.1799,-0.0001,-0.0000,1.7426,flat,18.0,2,1.456
1020,32.64,-3.7054,-4.8096,0.1799,-0.0001,0.0000,1.5589,flat,18.0,2,0.970
1030,32.96,-3.6804,-4.2634,0.1798,-0.0000,-0.0001,1.4672,flat,18.0,3,10.658
1040,33.28,-3.6175,-3.6977,0.1798,-0.0001,-0.0000,1.4363,flat,18.0,3,10.095
1050,33.60,-3.5378,-3.1336,0.1797,-0.0001,-0.0000,1.4109,flat,18.0,3,9.530
1060,33.92,-3.4441,-2.5709,0.1797,-0.0001,-0.0000,1.3892,flat,18.0,3,8.963
1070,34.24,-3.3384,-2.0096,0.1797,-0.0001,-0.0000,1.3706,flat,18.0,3,8.395
1080,34.56,-3.2224,-1.4498,0.1797,-0.0001,-0.0000,1.3543,flat,18.0,3,7.825
1090,34.88,-3.0975,-0.8914,0.1797,-0.0001,-0.0000,1.3399,flat,18.0,3,7.255
1100,35.20,-2.9646,-0.3345,0.1797,-0.0000,-0.0000,1.3272,flat,18.0,3,6.683
1110,35.52,-2.8248,0.2210,0.1797,-0.0000,-0.0000,1.3157,flat,18.0,3,6.112
1120,35.84,-2.6786,0.7752,0.1797,-0.0000,-0.0000,1.3053,flat,18.0,3,5.539
1130,36.16,-2.5268,1.3281,0.1797,-0.0000,-0.0000,1.2957,flat,18.0,3,4.967
1140,36.48,-2.3696,1.8796,0.1797,-0.0000,-0.0000,1.2867,flat,18.0,3,4.394
1150,36.80,-2.2076,2.4298,0.1797,-0.0000,-0.0000,1.2781,flat,18.0,3,3.821
1160,37.12,-2.0408,2.9786,0.1797,-0.0000,-0.0000,1.2697,flat,18.0,3,3.248
1170,37.44,-1.8694,3.5260,0.1797,-0.0000,0.0000,1.2613,flat,18.0,3,2.675
1180,37.76,-1.6934,4.0717,0.1797,-0.0000,0.0000,1.2523,flat,18.0,3,2.102
1190,38.08,-1.5125,4.6154,0.1797,-0.0000,0.0000,1.2420,flat,18.0,3,1.529
1200,38.40,-1.3260,5.1561,0.1797,-0.0000,0.0000,1.2282,flat,18.0,3,0.958
1210,38.72,-1.1528,5.6160,0.1798,0.0004,0.0001,0.9852,flat,18.0,0,10.509
1220,39.04,-0.8925,5.9045,0.1799,0.0002,-0.0000,0.5952,flat,18.0,0,10.629
1230,39.36,-0.5323,6.1020,0.1799,0.0000,-0.0001,0.2125,flat,18.0,0,10.636
1240,39.68,-0.0796,6.1722,0.1799,-0.0000,-0.0000,-0.1312,flat,18.0,0,10.505
1250,40.00,0.4038,6.0811,0.1799,-0.0000,-0.0000,-0.3856,flat,18.0,0,10.232
1260,40.32,0.8721,5.8583,0.1799,-0.0001,-0.0000,-0.5736,flat,18.0,0,9.856
1270,40.64,1.3055,5.5436,0.1799,-0.0002,-0.0000,-0.7072,flat,18.0,0,9.417
1280,40.96,1.7037,5.1712,0.1798,-0.0004,-0.0000,-0.8079,flat,18.0,0,8.943
1290,41.28,2.0686,4.7582,0.1798,-0.0004,-0.0000,-0.8981,flat,18.0,0,8.447
1300,41.60,2.4019,4.3120,0.1798,-0.0004,-0.0000,-0.9785,flat,18.0,0,7.933
1310,41.92,2.7032,3.8388,0.1797,-0.0003,-0.0000,-1.0499,flat,18.0,0,7.405
1320,42.24,2.9737,3.3443,0.1797,-0.0002,-0.0000,-1.1133,flat,18.0,0,6.868
1330,42.56,3.2147,2.8326,0.1797,-0.0002,-0.0000,-1.1697,flat,18.0,0,6.322
1340,42.88,3.4280,2.3074,0.1797,-0.0002,-0.0000,-1.2202,flat,18.0,0,5.771
1350,43.20,3.6161,1.7721,0.1797,-0.0002,-0.0000,-1.2641,flat,18.0,0,5.215
1360,43.52,3.7818,1.2293,0.1797,-0.0001,-0.0000,-1.3032,flat,18.0,0,4.658
1370,43.84,3.9269,0.6800,0.1797,-0.0001,-0.0000,-1.3399,flat,18.0,0,4.098
1380,44.16,4.0524,0.1254,0.1797,-0.0001,-0.0000,-1.3749,flat,18.0,0,3.537
1390,44.48,4.1588,-0.4335,0.1797,-0.0001,-0.0000,-1.4091,flat,18.0,0,2.974
1400,44.80,4.2462,-0.9955,0.1797,-0.0001,-0.0000,-1.4439,flat,18.0,0,2.411
1410,45.12,4.3139,-1.5598,0.1797,-0.0001,0.0000,-1.4811,flat,18.0,0,1.848
1420,45.44,4.3602,-2.1250,0.1797,-0.0002,0.0000,-1.5258,flat,18.0,0,1.288
1430,45.76,4.3809,-2.6880,0.1797,-0.0002,0.0001,-1.5974,flat,18.0,1,7.618
1440,46.08,4.3513,-3.2309,0.1799,-0.0001,-0.0000,-1.7682,flat,18.0,1,7.202
1450,46.40,4.2286,-3.7500,0.1799,-0.0002,0.0004,-1.9056,rough,14.0,1,6.753
1460,46.72,4.0397,-4.2452,0.1799,-0.0003,-0.0001,-2.0061,flat,18.0,1,6.281
1470,47.04,3.7932,-4.7371,0.1798,-0.0004,-0.0000,-2.0986,flat,18.0,1,5.777
1480,47.36,3.5013,-5.2090,0.1798,-0.0003,-0.0000,-2.1709,flat,18.0,1,5.257
1490,47.68,3.1756,-5.6627,0.1797,-0.0002,-0.0000,-2.2294,flat,18.0,1,4.728
1500,48.00,2.8235,-6.0968,0.1797,-0.0002,-0.0000,-2.2858,flat,18.0,1,4.194
1510,48.32,2.4469,-6.5099,0.1797,-0.0002,-0.0000,-2.3414,flat,18.0,1,3.657
1520,48.64,2.0474,-6.9018,0.1797,-0.0002,-0.0000,-2.3948,flat,18.0,1,3.118
1530,48.96,1.6271,-7.2713,0.1797,-0.0002,-0.0000,-2.4503,flat,18.0,1,2.577
1540,49.28,1.1867,-7.6174,0.1797,-0.0002,-0.0000,-2.5107,flat,18.0,1,2.036
1550,49.60,0.7265,-7.9367,0.1797,-0.0003,0.0000,-2.5817,flat,18.0,1,1.497
1560,49.92,0.2467,-8.2195,0.1798,-0.0004,0.0000,-2.6773,flat,18.0,1,0.968
1570,50.24,-0.2153,-8.4255,0.1799,0.0001,0.0000,-2.9231,flat,18.0,2,5.435
1580,50.56,-0.6869,-8.5006,0.1799,-0.0001,-0.0000,3.0252,flat,18.0,2,5.249
1590,50.88,-1.1507,-8.4189,0.1799,0.0000,-0.0003,2.8146,flat,18.0,2,4.962
1600,51.20,-1.6247,-8.2254,0.1799,-0.0001,-0.0000,2.6104,flat,18.0,2,4.597
1610,51.52,-2.0632,-7.9310,0.1799,-0.0001,-0.0000,2.4512,flat,18.0,2,4.175
1620,51.84,-2.4590,-7.5663,0.1799,-0.0003,-0.0000,2.3278,flat,18.0,2,3.721
1630,52.16,-2.8122,-7.1528,0.1799,-0.0003,-0.0000,2.2069,flat,18.0,2,3.250
1640,52.48,-3.1195,-6.6974,0.1799,-0.0003,-0.0000,2.0852,flat,18.0,2,2.765
1650,52.80,-3.3738,-6.2067,0.1799,-0.0003,-0.0000,1.9599,flat,18.0,2,2.271
1660,53.12,-3.5673,-5.6882,0.1799,-0.0002,-0.0000,1.8250,flat,18.0,2,1.774
1670,53.44,-3.6901,-5.1510,0.1799,-0.0001,0.0000,1.6674,flat,18.0,2,1.281
1680,53.76,-3.7248,-4.6110,0.1799,-0.0001,0.0000,1.4608,flat,18.0,2,0.807
1690,54.08,-3.6632,-4.0572,0.1798,-0.0001,-0.0000,1.4332,flat,18.0,3,10.454
1700,54.40,-3.5819,-3.4927,0.1797,-0.0001,-0.0000,1.4094,flat,18.0,3,9.888
1710,54.72,-3.4874,-2.9297,0.1797,-0.0001,-0.0000,1.3893,flat,18.0,3,9.320
1720,55.04,-3.3819,-2.3680,0.1797,-0.0001,-0.0000,1.3719,flat,18.0,3,8.751
1730,55.36,-3.2668,-1.8077,0.1797,-0.0001,-0.0000,1.3568,flat,18.0,3,8.181
1740,55.68,-3.1433,-1.2487,0.1797,-0.0000,-0.0000,1.3435,flat,18.0,3,7.610
1750,56.00,-3.0125,-0.6910,0.1797,-0.0000,-0.0000,1.3317,flat,18.0,3,7.038
1760,56.32,-2.8753,-0.1346,0.1797,-0.0000,-0.0000,1.3211,flat,18.0,3,6.466
1770,56.64,-2.7322,0.4206,0.1797,-0.0000,-0.0000,1.3115,flat,18.0,3,5.893
1780,56.96,-2.5839,0.9747,0.1797,-0.0000,-0.0000,1.3028,flat,18.0,3,5.320
1790,57.28,-2.4307,1.5276,0.1797,-0.0000,-0.0000,1.2946,flat,18.0,3,4.747
1800,57.60,-2.2731,2.0793,0.1797,-0.0000,-0.0000,1.2869,flat,18.0,3,4.174
1810,57.92,-2.1112,2.6299,0.1797,-0.0000,-0.0000,1.2795,flat,18.0,3,3.600
1820,58.24,-1.9453,3.1794,0.1797,-0.0000,-0.0000,1.2722,flat,18.0,3,3.027
1830,58.56,-1.7754,3.7275,0.1797,-0.0000,0.0000,1.2647,flat,18.0,3,2.453
1840,58.88,-1.6013,4.2741,0.1797,-0.0000,0.0000,1.2565,flat,18.0,3,1.880
1850,59.20,-1.4228,4.8187,0.1797,-0.0000,0.0000,1.2466,flat,18.0,3,1.307
1860,59.52,-1.2420,5.3573,0.1797,-0.0000,0.0002,1.2151,flat,18.0,0,10.334
1870,59.84,-1.0558,5.7412,0.1798,0.0003,0.0000,0.8431,flat,18.0,0,10.567
1880,60.16,-0.7585,5.9913,0.1799,0.0001,-0.0000,0.4521,flat,18.0,0,10.642
1890,60.48,-0.3596,6.1502,0.1799,0.0000,-0.0000,0.0784,flat,18.0,0,10.604
1900,60.80,0.1116,6.1601,0.1799,-0.0001,-0.0000,-0.2335,flat,18.0,0,10.417
1910,61.12,0.5932,6.0158,0.1799,-0.0001,-0.0000,-0.4603,flat,18.0,0,10.101
1920,61.44,1.0495,5.7549,0.1799,-0.0001,-0.0000,-0.6293,flat,18.0,0,9.699
1930,61.76,1.4699,5.4152,0.1798,-0.0003,-0.0000,-0.7461,flat,18.0,0,9.245
1940,62.08,1.8547,5.0267,0.1798,-0.0004,-0.0000,-0.8431,flat,18.0,0,8.763
1950,62.40,2.2077,4.6004,0.1798,-0.0004,-0.0000,-0.9298,flat,18.0,0,8.259
1960,62.72,2.5287,4.1432,0.1798,-0.0003,-0.0000,-1.0070,flat,18.0,0,7.740
1970,63.04,2.8179,3.6613,0.1797,-0.0003,-0.0000,-1.0755,flat,18.0,0,7.208
1980,63.36,3.0768,3.1596,0.1797,-0.0002,-0.0000,-1.1363,flat,18.0,0,6.667
1990,63.68,3.3065,2.6422,0.1797,-0.0002,-0.0000,-1.1905,flat,18.0,0,6.120
2000,64.00,3.5095,2.1124,0.1797,-0.0002,-0.0000,-1.2391,flat,18.0,0,5.566
2010,64.32,3.6880,1.5741,0.1797,-0.0001,-0.0000,-1.2805,flat,18.0,0,5.010
2020,64.64,3.8451,1.0284,0.1797,-0.0001,-0.0000,-1.3187,flat,18.0,0,4.452
2030,64.96,3.9820,0.4768,0.1797,-0.0001,-0.0000,-1.3547,flat,18.0,0,3.892
2040,65.28,4.0994,-0.0797,0.1797,-0.0001,-0.0000,-1.3893,flat,18.0,0,3.330
2050,65.60,4.1978,-0.6400,0.1797,-0.0001,-0.0000,-1.4236,flat,18.0,0,2.767
2060,65.92,4.2771,-1.2032,0.1797,-0.0001,-0.0000,-1.4589,flat,18.0,0,2.204
2070,66.24,4.3363,-1.7681,0.1797,-0.0001,0.0000,-1.4980,flat,18.0,0,1.642
2080,66.56,4.3727,-2.3332,0.1797,-0.0002,0.0000,-1.5478,flat,18.0,0,1.082
2090,66.88,4.3795,-2.8921,0.1798,-0.0001,0.0000,-1.6482,flat,18.0,1,7.466
2100,67.20,4.3182,-3.4280,0.1799,-0.0001,-0.0000,-1.8254,flat,18.0,1,7.040
2110,67.52,4.1704,-3.9249,0.1798,-0.0001,-0.0001,-1.9304,flat,18.0,1,6.591
2120,67.84,3.9620,-4.4304,0.1798,-0.0004,-0.0000,-2.0387,flat,18.0,1,6.102
2130,68.16,3.6993,-4.9152,0.1798,-0.0004,-0.0000,-2.1252,flat,18.0,1,5.593
2140,68.48,3.3947,-5.3808,0.1797,-0.0003,-0.0000,-2.1918,flat,18.0,1,5.069
2150,68.80,3.0596,-5.8279,0.1797,-0.0002,-0.0000,-2.2493,flat,18.0,1,4.539
2160,69.12,2.6988,-6.2545,0.1797,-0.0002,-0.0000,-2.3061,flat,18.0,1,4.005
2170,69.44,2.3136,-6.6597,0.1797,-0.0002,-0.0000,-2.3612,flat,18.0,1,3.467
2180,69.76,1.9063,-7.0432,0.1797,-0.0002,-0.0000,-2.4154,flat,18.0,1,2.928
2190,70.08,1.4784,-7.4040,0.1797,-0.0002,-0.0000,-2.4728,flat,18.0,1,2.387
2200,70.40,1.0303,-7.7405,0.1797,-0.0002,-0.0000,-2.5366,flat,18.0,1,1.847
2210,70.72,0.5624,-8.0469,0.1798,-0.0003,0.0000,-2.6145,flat,18.0,1,1.310
2220,71.04,0.0753,-8.3117,0.1798,-0.0004,0.0000,-2.7280,flat,18.0,2,5.514
2230,71.36,-0.3716,-8.4691,0.1799,0.0000,-0.0000,-3.0586,flat,18.0,2,5.386
2240,71.68,-0.8597,-8.4814,0.1799,-0.0001,-0.0000,2.9168,flat,18.0,2,5.149
2250,72.00,-1.3500,-8.3391,0.1799,-0.0001,-0.0000,2.6861,flat,18.0,2,4.807
2260,72.32,-1.8071,-8.0806,0.1799,-0.0001,-0.0000,2.5133,flat,18.0,2,4.398
2270,72.64,-2.2234,-7.7418,0.1799,-0.0003,-0.0000,2.3844,flat,18.0,2,3.949
2280,72.96,-2.5973,-7.3500,0.1799,-0.0003,-0.0000,2.2672,flat,18.0,2,3.481
2290,73.28,-2.9294,-6.9144,0.1799,-0.0003,-0.0000,2.1498,flat,18.0,2,2.998
2300,73.60,-3.2135,-6.4413,0.1799,-0.0003,-0.0000,2.0304,flat,18.0,2,2.505
2310,73.92,-3.4425,-5.9371,0.1799,-0.0003,-0.0000,1.9047,flat,18.0,2,2.006
2320,74.24,-3.6080,-5.4093,0.1799,-0.0001,-0.0000,1.7636,flat,18.0,2,1.508
2330,74.56,-3.6970,-4.8686,0.1799,-0.0001,0.0000,1.5866,flat,18.0,2,1.020
2340,74.88,-3.6838,-4.3245,0.1799,-0.0001,-0.0001,1.4759,flat,18.0,3,10.718
2350,75.20,-3.6256,-3.7588,0.1798,-0.0001,-0.0000,1.4430,flat,18.0,3,10.156
2360,75.52,-3.5495,-3.1945,0.1797,-0.0001,-0.0000,1.4163,flat,18.0,3,9.592
2370,75.84,-3.4588,-2.6314,0.1797,-0.0001,-0.0000,1.3936,flat,18.0,3,9.025
2380,76.16,-3.3555,-2.0699,0.1797,-0.0001,-0.0000,1.3741,flat,18.0,3,8.457
2390,76.48,-3.2414,-1.5099,0.1797,-0.0001,-0.0000,1.3571,flat,18.0,3,7.888
2400,76.80,-3.1181,-0.9513,0.1797,-0.0001,-0.0000,1.3422,flat,18.0,3,7.318
2410,77.12,-2.9865,-0.3942,0.1797,-0.0000,-0.0000,1.3290,flat,18.0,3,6.747
2420,77.44,-2.8476,0.1614,0.1797,-0.0000,-0.0000,1.3171,flat,18.0,3,6.175
2430,77.76,-2.7022,0.7157,0.1797,-0.0000,-0.0000,1.3063,flat,18.0,3,5.603
2440,78.08,-2.5508,1.2686,0.1797,-0.0000,-0.0000,1.2963,flat,18.0,3,5.031
2450,78.40,-2.3940,1.8201,0.1797,-0.0000,-0.0000,1.2871,flat,18.0,3,4.458
2460,78.72,-2.2322,2.3703,0.1797,-0.0000,-0.0000,1.2783,flat,18.0,3,3.885
2470,79.04,-2.0655,2.9191,0.1797,-0.0000,-0.0000,1.2697,flat,18.0,3,3.312
2480,79.36,-1.8941,3.4665,0.1797,-0.0000,0.0000,1.2611,flat,18.0,3,2.739
2490,79.68,-1.7180,4.0121,0.1797,-0.0000,0.0000,1.2520,flat,18.0,3,2.166
2500,80.00,-1.5369,4.5558,0.1797,-0.0000,0.0000,1.2417,flat,18.0,3,1.594
2510,80.32,-1.3502,5.0965,0.1797,-0.0000,0.0000,1.2282,flat,18.0,3,1.022
2520,80.64,-1.1768,5.5730,0.1798,0.0003,0.0001,1.0217,flat,18.0,0,10.484
2530,80.96,-0.9272,5.8731,0.1799,0.0002,-0.0000,0.6326,flat,18.0,0,10.619
2540,81.28,-0.5768,6.0794,0.1799,0.0001,-0.0001,0.2481,flat,18.0,0,10.636
2550,81.60,-0.1303,6.1647,0.1799,-0.0000,-0.0000,-0.1019,flat,18.0,0,10.520
2560,81.92,0.3527,6.0883,0.1799,-0.0001,-0.0000,-0.3634,flat,18.0,0,10.258
2570,82.24,0.8238,5.8766,0.1799,-0.0001,-0.0000,-0.5574,flat,18.0,0,9.890
2580,82.56,1.2608,5.5694,0.1799,-0.0002,-0.0000,-0.6965,flat,18.0,0,9.456
2590,82.88,1.6627,5.2015,0.1798,-0.0004,-0.0000,-0.7982,flat,18.0,0,8.984
2600,83.20,2.0308,4.7923,0.1798,-0.0004,-0.0000,-0.8892,flat,18.0,0,8.490
2610,83.52,2.3674,4.3491,0.1798,-0.0004,-0.0000,-0.9705,flat,18.0,0,7.977
2620,83.84,2.6721,3.8785,0.1798,-0.0003,-0.0000,-1.0428,flat,18.0,0,7.451
2630,84.16,2.9458,3.3860,0.1797,-0.0002,-0.0000,-1.1069,flat,18.0,0,6.914
2640,84.48,3.1899,2.8760,0.1797,-0.0002,-0.0000,-1.1639,flat,18.0,0,6.369
2650,84.80,3.4060,2.3521,0.1797,-0.0002,-0.0000,-1.2149,flat,18.0,0,5.818
2660,85.12,3.5968,1.8177,0.1797,-0.0002,-0.0000,-1.2595,flat,18.0,0,5.263
2670,85.44,3.7648,1.2757,0.1797,-0.0001,-0.0000,-1.2990,flat,18.0,0,4.706
2680,85.76,3.9122,0.7270,0.1797,-0.0001,-0.0000,-1.3359,flat,18.0,0,4.146
2690,86.08,4.0399,0.1730,0.1797,-0.0001,-0.0000,-1.3711,flat,18.0,0,3.585
2700,86.40,4.1484,-0.3855,0.1797,-0.0001,-0.0000,-1.4053,flat,18.0,0,3.022
2710,86.72,4.2379,-0.9472,0.1797,-0.0001,-0.0000,-1.4400,flat,18.0,0,2.459
2720,87.04,4.3079,-1.5113,0.1797,-0.0001,0.0000,-1.4770,flat,18.0,0,1.897
2730,87.36,4.3565,-2.0764,0.1797,-0.0001,0.0000,-1.5207,flat,18.0,0,1.336
2740,87.68,4.3796,-2.6404,0.1797,-0.0002,0.0000,-1.5851,flat,18.0,1,7.652
2750,88.00,4.3579,-3.1851,0.1799,-0.0000,0.0000,-1.7525,flat,18.0,1,7.240
2760,88.32,4.2411,-3.7134,0.1799,-0.0001,-0.0000,-1.9036,rough,14.0,1,6.787
2770,88.64,4.0653,-4.1907,0.1798,-0.0002,-0.0001,-1.9897,flat,18.0,1,6.336
2780,88.96,3.8269,-4.6857,0.1798,-0.0004,-0.0000,-2.0860,flat,18.0,1,5.835
2790,89.28,3.5410,-5.1603,0.1798,-0.0003,-0.0000,-2.1618,flat,18.0,1,5.318
2800,89.60,3.2195,-5.6166,0.1797,-0.0002,-0.0000,-2.2216,flat,18.0,1,4.790
2810,89.92,2.8710,-6.0532,0.1797,-0.0002,-0.0000,-2.2786,flat,18.0,1,4.257
2820,90.24,2.4974,-6.4688,0.1797,-0.0002,-0.0000,-2.3349,flat,18.0,1,3.722
2830,90.56,2.1005,-6.8631,0.1797,-0.0002,-0.0000,-2.3889,flat,18.0,1,3.183
2840,90.88,1.6825,-7.2349,0.1797,-0.0002,-0.0000,-2.4445,flat,18.0,1,2.643
2850,91.20,1.2442,-7.5834,0.1797,-0.0002,-0.0000,-2.5046,flat,18.0,1,2.102
2860,91.52,0.7858,-7.9056,0.1797,-0.0003,0.0000,-2.5745,flat,18.0,1,1.563
2870,91.84,0.3077,-8.1923,0.1798,-0.0004,0.0000,-2.6664,flat,18.0,1,1.032
2880,92.16,-0.1602,-8.4085,0.1798,0.0001,0.0001,-2.8872,flat,18.0,2,5.453
2890,92.48,-0.6262,-8.5001,0.1799,-0.0000,-0.0000,3.0535,flat,18.0,2,5.279
2900,92.80,-1.1064,-8.4314,0.1799,-0.0000,0.0003,2.8229,flat,18.0,2,4.993
2910,93.12,-1.5777,-8.2444,0.1800,0.0001,-0.0000,2.6249,flat,18.0,2,4.632
2920,93.44,-2.0199,-7.9571,0.1799,-0.0000,-0.0000,2.4631,flat,18.0,2,4.213
2930,93.76,-2.4194,-7.5973,0.1799,-0.0003,-0.0000,2.3384,flat,18.0,2,3.760
2940,94.08,-2.7764,-7.1878,0.1799,-0.0003,-0.0000,2.2180,flat,18.0,2,3.290
2950,94.40,-3.0883,-6.7359,0.1799,-0.0003,-0.0000,2.0969,flat,18.0,2,2.805
2960,94.72,-3.3481,-6.2482,0.1799,-0.0003,-0.0000,1.9726,flat,18.0,2,2.312
2970,95.04,-3.5481,-5.7321,0.1799,-0.0002,-0.0000,1.8393,flat,18.0,2,1.815
2980,95.36,-3.6786,-5.1963,0.1799,-0.0001,-0.0000,1.6848,flat,18.0,2,1.320
2990,95.68,-3.7232,-4.6555,0.1799,-0.0001,0.0000,1.4832,flat,18.0,2,0.844
3000,96.00,-3.6729,-4.1006,0.1798,-0.0001,-0.0001,1.4511,flat,18.0,3,10.498
3010,96.32,-3.6012,-3.5355,0.1797,-0.0001,-0.0000,1.4232,flat,18.0,3,9.934
3020,96.64,-3.5143,-2.9719,0.1797,-0.0001,-0.0000,1.4000,flat,18.0,3,9.368
3030,96.96,-3.4145,-2.4098,0.1797,-0.0001,-0.0000,1.3801,flat,18.0,3,8.800
3040,97.28,-3.3039,-1.8491,0.1797,-0.0001,-0.0000,1.3629,flat,18.0,3,8.231
3050,97.60,-3.1837,-1.2899,0.1797,-0.0001,-0.0000,1.3478,flat,18.0,3,7.661
3060,97.92,-3.0552,-0.7321,0.1797,-0.0000,-0.0000,1.3345,flat,18.0,3,7.090
3070,98.24,-2.9194,-0.1757,0.1797,-0.0000,-0.0000,1.3226,flat,18.0,3,6.518
3080,98.56,-2.7771,0.3794,0.1797,-0.0000,-0.0000,1.3119,flat,18.0,3,5.946
3090,98.88,-2.6289,0.9332,0.1797,-0.0000,-0.0000,1.3020,flat,18.0,3,5.374
3100,99.20,-2.4752,1.4857,0.1797,-0.0000,-0.0000,1.2929,flat,18.0,3,4.801
3110,99.52,-2.3166,2.0369,0.1797,-0.0000,-0.0000,1.2844,flat,18.0,3,4.228
3120,99.84,-2.1533,2.5869,0.1797,-0.0000,-0.0000,1.2762,flat,18.0,3,3.655
3130,100.16,-1.9856,3.1355,0.1797,-0.0000,-0.0000,1.2681,flat,18.0,3,3.082
3140,100.48,-1.8133,3.6826,0.1797,-0.0000,0.0000,1.2598,flat,18.0,3,2.508
3150,100.80,-1.6366,4.2281,0.1797,-0.0000,0.0000,1.2509,flat,18.0,3,1.935
3160,101.12,-1.4549,4.7715,0.1797,-0.0000,0.0000,1.2403,flat,18.0,3,1.363
3170,101.44,-1.2674,5.3114,0.1797,-0.0001,0.0000,1.2250,flat,18.0,0,10.309
3180,101.76,-1.0865,5.7116,0.1798,0.0003,0.0000,0.8715,flat,18.0,0,10.557
3190,102.08,-0.7960,5.9687,0.1799,0.0001,-0.0000,0.4809,flat,18.0,0,10.640
3200,102.40,-0.4049,6.1362,0.1799,0.0000,-0.0000,0.1055,flat,18.0,0,10.611
3210,102.72,0.0636,6.1587,0.1799,-0.0000,-0.0000,-0.2144,flat,18.0,0,10.435
3220,103.04,0.5458,6.0250,0.1799,-0.0000,-0.0000,-0.4470,flat,18.0,0,10.127
3230,103.36,1.0048,5.7713,0.1799,-0.0001,-0.0000,-0.6182,flat,18.0,0,9.730
3240,103.68,1.4279,5.4364,0.1799,-0.0003,-0.0000,-0.7379,flat,18.0,0,9.278
3250,104.00,1.8156,5.0512,0.1798,-0.0004,-0.0000,-0.8355,flat,18.0,0,8.797
3260,104.32,2.1713,4.6277,0.1798,-0.0004,-0.0000,-0.9228,flat,18.0,0,8.295
3270,104.64,2.4951,4.1729,0.1798,-0.0003,-0.0000,-1.0005,flat,18.0,0,7.776
3280,104.96,2.7872,3.6930,0.1797,-0.0003,-0.0000,-1.0694,flat,18.0,0,7.246
3290,105.28,3.0489,3.1929,0.1797,-0.0002,-0.0000,-1.1307,flat,18.0,0,6.705
3300,105.60,3.2813,2.6769,0.1797,-0.0002,-0.0000,-1.1853,flat,18.0,0,6.158
3310,105.92,3.4870,2.1482,0.1797,-0.0002,-0.0000,-1.2342,flat,18.0,0,5.605
3320,106.24,3.6680,1.6107,0.1797,-0.0001,-0.0000,-1.2760,flat,18.0,0,5.049
3330,106.56,3.8275,1.0658,0.1797,-0.0001,-0.0000,-1.3144,flat,18.0,0,4.491
3340,106.88,3.9667,0.5147,0.1797,-0.0001,-0.0000,-1.3505,flat,18.0,0,3.930
3350,107.20,4.0864,-0.0412,0.1797,-0.0001,-0.0000,-1.3852,flat,18.0,0,3.369
3360,107.52,4.1871,-0.6011,0.1797,-0.0001,-0.0000,-1.4194,flat,18.0,0,2.806
3370,107.84,4.2687,-1.1640,0.1797,-0.0001,-0.0000,-1.4546,flat,18.0,0,2.243
3380,108.16,4.3303,-1.7287,0.1797,-0.0001,0.0000,-1.4934,flat,18.0,0,1.681
3390,108.48,4.3694,-2.2938,0.1797,-0.0002,0.0000,-1.5421,flat,18.0,0,1.121
3400,108.80,4.3797,-2.8532,0.1798,-0.0001,0.0000,-1.6392,flat,18.0,1,7.495
3410,109.12,4.3235,-3.3898,0.1799,-0.0001,-0.0000,-1.8174,flat,18.0,1,7.070
3420,109.44,4.1787,-3.8884,0.1798,-0.0001,-0.0003,-1.9275,flat,18.0,1,6.622
3430,109.76,3.9714,-4.3944,0.1798,-0.0004,-0.0001,-2.0360,flat,18.0,1,6.132
3440,110.08,3.7101,-4.8800,0.1798,-0.0004,-0.0000,-2.1224,flat,18.0,1,5.623
3450,110.40,3.4068,-5.3464,0.1797,-0.0003,-0.0000,-2.1892,flat,18.0,1,5.099
3460,110.72,3.0729,-5.7945,0.1797,-0.0002,-0.0000,-2.2464,flat,18.0,1,4.568
3470,111.04,2.7133,-6.2224,0.1797,-0.0002,-0.0000,-2.3026,flat,18.0,1,4.034
3480,111.36,2.3295,-6.6292,0.1797,-0.0002,-0.0000,-2.3574,flat,18.0,1,3.496
3490,111.68,1.9237,-7.0145,0.1797,-0.0002,-0.0000,-2.4110,flat,18.0,1,2.956
3500,112.00,1.4974,-7.3772,0.1797,-0.0002,-0.0000,-2.4676,flat,18.0,1,2.415
3510,112.32,1.0511,-7.7160,0.1797,-0.0002,-0.0000,-2.5304,flat,18.0,1,1.874
3520,112.64,0.5850,-8.0256,0.1798,-0.0003,0.0000,-2.6065,flat,18.0,1,1.337
3530,112.96,0.0996,-8.2946,0.1798,-0.0004,0.0000,-2.7162,flat,18.0,1,0.813
3540,113.28,-0.3502,-8.4645,0.1799,0.0001,-0.0000,-3.0289,flat,18.0,2,5.393
3550,113.60,-0.8357,-8.4911,0.1799,0.0001,-0.0001,2.9375,flat,18.0,2,5.169
3560,113.92,-1.3274,-8.3608,0.1799,-0.0000,-0.0000,2.7029,flat,18.0,2,4.836
3570,114.24,-1.7877,-8.1106,0.1799,-0.0001,-0.0000,2.5253,flat,18.0,2,4.433
3580,114.56,-2.2066,-7.7770,0.1799,-0.0002,-0.0000,2.3924,flat,18.0,2,3.987
3590,114.88,-2.5830,-7.3883,0.1799,-0.0003,-0.0000,2.2743,flat,18.0,2,3.521
3600,115.20,-2.9177,-6.9553,0.1799,-0.0003,-0.0000,2.1563,flat,18.0,2,3.040
3610,115.52,-3.2045,-6.4841,0.1799,-0.0003,-0.0000,2.0366,flat,18.0,2,2.548
3620,115.84,-3.4364,-5.9813,0.1799,-0.0003,-0.0000,1.9110,flat,18.0,2,2.050
3630,116.16,-3.6052,-5.4544,0.1799,-0.0001,-0.0000,1.7713,flat,18.0,2,1.552
3640,116.48,-3.6986,-4.9138,0.1799,-0.0001,0.0000,1.5984,flat,18.0,2,1.062
3650,116.80,-3.6907,-4.3724,0.1799,-0.0001,-0.0002,1.4718,flat,18.0,3,10.766
3660,117.12,-3.6303,-3.8067,0.1798,-0.0001,-0.0000,1.4401,flat,18.0,3,10.204
3670,117.44,-3.5527,-3.2424,0.1797,-0.0001,-0.0000,1.4142,flat,18.0,3,9.639
3680,117.76,-3.4608,-2.6794,0.1797,-0.0001,-0.0000,1.3922,flat,18.0,3,9.072
3690,118.08,-3.3568,-2.1179,0.1797,-0.0001,-0.0000,1.3733,flat,18.0,3,8.504
3700,118.40,-3.2423,-1.5578,0.1797,-0.0001,-0.0000,1.3568,flat,18.0,3,7.934
3710,118.72,-3.1187,-0.9992,0.1797,-0.0001,-0.0000,1.3422,flat,18.0,3,7.364
3720,119.04,-2.9872,-0.4420,0.1797,-0.0000,-0.0000,1.3294,flat,18.0,3,6.793
3730,119.36,-2.8485,0.1138,0.1797,-0.0000,-0.0000,1.3178,flat,18.0,3,6.221
3740,119.68,-2.7036,0.6683,0.1797,-0.0000,-0.0000,1.3073,flat,18.0,3,5.649
3750,120.00,-2.5528,1.2214,0.1797,-0.0000,-0.0000,1.2976,flat,18.0,3,5.076
3760,120.32,-2.3968,1.7733,0.1797,-0.0000,-0.0000,1.2886,flat,18.0,3,4.503
3770,120.64,-2.2358,2.3238,0.1797,-0.0000,-0.0000,1.2801,flat,18.0,3,3.930
3780,120.96,-2.0701,2.8730,0.1797,-0.0000,-0.0000,1.2718,flat,18.0,3,3.357
3790,121.28,-1.8999,3.4208,0.1797,-0.0000,0.0000,1.2635,flat,18.0,3,2.784
3800,121.60,-1.7251,3.9670,0.1797,-0.0000,0.0000,1.2547,flat,18.0,3,2.211
3810,121.92,-1.5456,4.5113,0.1797,-0.0000,0.0000,1.2449,flat,18.0,3,1.638
3820,122.24,-1.3606,5.0529,0.1797,-0.0000,0.0000,1.2322,flat,18.0,3,1.067
3830,122.56,-1.1878,5.5456,0.1798,0.0002,0.0002,1.0620,flat,18.0,0,10.466
3840,122.88,-0.9504,5.8599,0.1799,0.0002,-0.0000,0.6743,flat,18.0,0,10.618
3850,123.20,-0.6109,6.0754,0.1799,0.0001,-0.0001,0.2877,flat,18.0,0,10.648
3860,123.52,-0.1725,6.1768,0.1799,-0.0000,-0.0000,-0.0692,flat,18.0,0,10.548
3870,123.84,0.3094,6.1167,0.1799,-0.0000,-0.0000,-0.3405,flat,18.0,0,10.300
3880,124.16,0.7830,5.9172,0.1799,-0.0000,-0.0000,-0.5405,flat,18.0,0,9.942
3890,124.48,1.2235,5.6180,0.1799,-0.0002,-0.0000,-0.6854,flat,18.0,0,9.514
3900,124.80,1.6289,5.2548,0.1798,-0.0003,-0.0000,-0.7889,flat,18.0,0,9.045
3910,125.12,1.9999,4.8492,0.1798,-0.0004,-0.0000,-0.8811,flat,18.0,0,8.553
3920,125.44,2.3395,4.4090,0.1798,-0.0004,-0.0000,-0.9635,flat,18.0,0,8.042
3930,125.76,2.6470,3.9407,0.1798,-0.0003,-0.0000,-1.0366,flat,18.0,0,7.517
3940,126.08,2.9234,3.4499,0.1797,-0.0002,-0.0000,-1.1016,flat,18.0,0,6.981
3950,126.40,3.1701,2.9413,0.1797,-0.0002,-0.0000,-1.1593,flat,18.0,0,6.436
3960,126.72,3.3885,2.4185,0.1797,-0.0002,-0.0000,-1.2109,flat,18.0,0,5.886
3970,127.04,3.5812,1.8848,0.1797,-0.0002,0.0000,-1.2562,flat,18.0,0,5.332
3980,127.36,3.7510,1.3434,0.1797,-0.0001,-0.0000,-1.2959,flat,18.0,0,4.775
3990,127.68,3.9001,0.7953,0.1797,-0.0001,-0.0000,-1.3330,flat,18.0,0,4.215
4000,128.00,4.0293,0.2416,0.1797,-0.0001,-0.0000,-1.3683,flat,18.0,0,3.654
4010,128.32,4.1393,-0.3165,0.1797,-0.0001,-0.0000,-1.4025,flat,18.0,0,3.091
4020,128.64,4.2304,-0.8781,0.1797,-0.0001,-0.0000,-1.4370,flat,18.0,0,2.528
4030,128.96,4.3021,-1.4420,0.1797,-0.0001,0.0000,-1.4734,flat,18.0,0,1.966
4040,129.28,4.3528,-2.0072,0.1797,-0.0001,0.0000,-1.5158,flat,18.0,0,1.404
4050,129.60,4.3788,-2.5714,0.1797,-0.0002,0.0000,-1.5756,flat,18.0,0,0.847
4060,129.92,4.3650,-3.1193,0.1799,-0.0001,-0.0000,-1.7313,flat,18.0,1,7.292
4070,130.24,4.2589,-3.6491,0.1799,-0.0001,-0.0000,-1.8888,flat,18.0,1,6.844
4080,130.56,4.0835,-4.1398,0.1798,-0.0002,-0.0001,-1.9844,flat,18.0,1,6.383
4090,130.88,3.8479,-4.6361,0.1798,-0.0004,-0.0000,-2.0811,flat,18.0,1,5.883
4100,131.20,3.5644,-5.1119,0.1798,-0.0003,-0.0000,-2.1575,flat,18.0,1,5.366
4110,131.52,3.2448,-5.5694,0.1797,-0.0002,-0.0000,-2.2176,flat,18.0,1,4.838
4120,131.84,2.8980,-6.0078,0.1797,-0.0002,-0.0000,-2.2741,flat,18.0,1,4.305
4130,132.16,2.5264,-6.4253,0.1797,-0.0002,-0.0000,-2.3300,flat,18.0,1,3.769
4140,132.48,2.1314,-6.8217,0.1797,-0.0002,-0.0000,-2.3835,flat,18.0,1,3.229
4150,132.80,1.7154,-7.1959,0.1797,-0.0002,-0.0000,-2.4383,flat,18.0,1,2.689
4160,133.12,1.2792,-7.5470,0.1797,-0.0002,-0.0000,-2.4974,flat,18.0,1,2.148
4170,133.44,0.8232,-7.8727,0.1797,-0.0002,0.0000,-2.5654,flat,18.0,1,1.608
4180,133.76,0.3474,-8.1642,0.1798,-0.0004,0.0000,-2.6538,flat,18.0,1,1.076
4190,134.08,-0.1253,-8.3908,0.1798,0.0001,0.0001,-2.8500,flat,18.0,2,5.458
4200,134.40,-0.5851,-8.4978,0.1799,-0.0001,-0.0000,3.0874,flat,18.0,2,5.298
4210,134.72,-1.0805,-8.4428,0.1799,-0.0002,0.0000,2.8158,flat,18.0,2,5.014
4220,135.04,-1.5596,-8.2482,0.1799,-0.0001,-0.0000,2.6087,flat,18.0,2,4.642
4230,135.36,-1.9991,-7.9530,0.1799,-0.0001,-0.0000,2.4536,flat,18.0,2,4.215
4240,135.68,-2.3972,-7.5893,0.1799,-0.0003,-0.0000,2.3338,flat,18.0,2,3.758
4250,136.00,-2.7535,-7.1780,0.1799,-0.0003,-0.0000,2.2161,flat,18.0,2,3.283
4260,136.32,-3.0654,-6.7253,0.1799,-0.0003,-0.0000,2.0976,flat,18.0,2,2.796
4270,136.64,-3.3260,-6.2376,0.1799,-0.0003,-0.0000,1.9757,flat,18.0,2,2.301
4280,136.96,-3.5279,-5.7219,0.1799,-0.0002,-0.0000,1.8446,flat,18.0,2,1.802
4290,137.28,-3.6615,-5.1865,0.1799,-0.0001,0.0000,1.6920,flat,18.0,2,1.306
4300,137.60,-3.7101,-4.6459,0.1799,-0.0001,0.0000,1.4901,flat,18.0,2,0.829
4310,137.92,-3.6631,-4.0913,0.1798,-0.0000,-0.0001,1.4562,flat,18.0,3,10.487
4320,138.24,-3.5942,-3.5260,0.1797,-0.0001,-0.0000,1.4273,flat,18.0,3,9.923
4330,138.56,-3.5095,-2.9623,0.1797,-0.0001,-0.0000,1.4033,flat,18.0,3,9.358
4340,138.88,-3.4116,-2.4000,0.1797,-0.0001,-0.0000,1.3828,flat,18.0,3,8.790
4350,139.20,-3.3023,-1.8392,0.1797,-0.0001,-0.0000,1.3650,flat,18.0,3,8.221
4360,139.52,-3.1833,-1.2798,0.1797,-0.0001,-0.0000,1.3495,flat,18.0,3,7.651
4370,139.84,-3.0557,-0.7219,0.1797,-0.0000,-0.0000,1.3358,flat,18.0,3,7.080
4380,140.16,-2.9206,-0.1654,0.1797,-0.0000,-0.0000,1.3235,flat,18.0,3,6.509
4390,140.48,-2.7787,0.3897,0.1797,-0.0000,-0.0000,1.3124,flat,18.0,3,5.937
4400,140.80,-2.6308,0.9435,0.1797,-0.0000,-0.0000,1.3024,flat,18.0,3,5.365
4410,141.12,-2.4774,1.4960,0.1797,-0.0000,-0.0000,1.2930,flat,18.0,3,4.792
4420,141.44,-2.3188,2.0471,0.1797,-0.0000,-0.0000,1.2842,flat,18.0,3,4.219
4430,141.76,-2.1554,2.5970,0.1797,-0.0000,-0.0000,1.2758,flat,18.0,3,3.646
4440,142.08,-1.9873,3.1454,0.1797,-0.0000,-0.0000,1.2675,flat,18.0,3,3.073
4450,142.40,-1.8148,3.6924,0.1797,-0.0000,0.0000,1.2590,flat,18.0,3,2.500
4460,142.72,-1.6375,4.2377,0.1797,-0.0000,0.0000,1.2498,flat,18.0,3,1.927
4470,143.04,-1.4552,4.7807,0.1797,-0.0000,0.0000,1.2388,flat,18.0,3,1.354
4480,143.36,-1.2669,5.3201,0.1797,-0.0001,0.0000,1.2230,flat,18.0,0,10.316
4490,143.68,-1.0852,5.7195,0.1798,0.0003,0.0000,0.8692,flat,18.0,0,10.563
4500,144.00,-0.7942,5.9760,0.1799,0.0001,-0.0000,0.4785,flat,18.0,0,10.645
4510,144.32,-0.4024,6.1428,0.1799,0.0000,-0.0000,0.1032,flat,18.0,0,10.616
4520,144.64,0.0662,6.1643,0.1799,-0.0000,-0.0000,-0.2159,flat,18.0,0,10.439
4530,144.96,0.5483,6.0297,0.1799,-0.0001,-0.0000,-0.4475,flat,18.0,0,10.131
4540,145.28,1.0071,5.7753,0.1799,-0.0001,-0.0000,-0.6193,flat,18.0,0,9.733
4550,145.60,1.4301,5.4400,0.1799,-0.0003,-0.0000,-0.7386,flat,18.0,0,9.280
4560,145.92,1.8175,5.0546,0.1798,-0.0004,-0.0000,-0.8361,flat,18.0,0,8.800
4570,146.24,2.1730,4.6308,0.1798,-0.0004,-0.0000,-0.9233,flat,18.0,0,8.298
4580,146.56,2.4966,4.1758,0.1798,-0.0003,-0.0000,-1.0010,flat,18.0,0,7.779
4590,146.88,2.7885,3.6957,0.1797,-0.0003,-0.0000,-1.0699,flat,18.0,0,7.248
4600,147.20,3.0500,3.1955,0.1797,-0.0002,-0.0000,-1.1311,flat,18.0,0,6.708
4610,147.52,3.2822,2.6794,0.1797,-0.0002,-0.0000,-1.1857,flat,18.0,0,6.160
4620,147.84,3.4877,2.1506,0.1797,-0.0002,-0.0000,-1.2345,flat,18.0,0,5.607
4630,148.16,3.6685,1.6131,0.1797,-0.0001,-0.0000,-1.2763,flat,18.0,0,5.051
4640,148.48,3.8279,1.0682,0.1797,-0.0001,-0.0000,-1.3146,flat,18.0,0,4.493
4650,148.80,3.9670,0.5171,0.1797,-0.0001,-0.0000,-1.3507,flat,18.0,0,3.933
4660,149.12,4.0866,-0.0389,0.1797,-0.0001,-0.0000,-1.3854,flat,18.0,0,3.371
4670,149.44,4.1872,-0.5988,0.1797,-0.0001,-0.0000,-1.4196,flat,18.0,0,2.808
4680,149.76,4.2688,-1.1617,0.1797,-0.0001,-0.0000,-1.4547,flat,18.0,0,2.245
4690,150.08,4.3303,-1.7264,0.1797,-0.0001,0.0000,-1.4934,flat,18.0,0,1.683
4700,150.40,4.3694,-2.2915,0.1797,-0.0002,0.0000,-1.5421,flat,18.0,0,1.123
4710,150.72,4.3797,-2.8510,0.1798,-0.0001,0.0000,-1.6388,flat,18.0,1,7.496
4720,151.04,4.3237,-3.3877,0.1799,-0.0001,-0.0000,-1.8171,flat,18.0,1,7.072
4730,151.36,4.1791,-3.8863,0.1798,-0.0001,-0.0003,-1.9271,flat,18.0,1,6.624
4740,151.68,3.9720,-4.3923,0.1798,-0.0004,-0.0001,-2.0357,flat,18.0,1,6.134
4750,152.00,3.7107,-4.8780,0.1798,-0.0004,-0.0000,-2.1221,flat,18.0,1,5.625
4760,152.32,3.4076,-5.3445,0.1797,-0.0003,-0.0000,-2.1890,flat,18.0,1,5.101
4770,152.64,3.0738,-5.7926,0.1797,-0.0002,-0.0000,-2.2461,flat,18.0,1,4.570
4780,152.96,2.7143,-6.2206,0.1797,-0.0002,-0.0000,-2.3024,flat,18.0,1,4.036
4790,153.28,2.3306,-6.6275,0.1797,-0.0002,-0.0000,-2.3571,flat,18.0,1,3.498
4800,153.60,1.9249,-7.0129,0.1797,-0.0002,-0.0000,-2.4108,flat,18.0,1,2.958
4810,153.92,1.4987,-7.3757,0.1797,-0.0002,-0.0000,-2.4673,flat,18.0,1,2.417
4820,154.24,1.0525,-7.7147,0.1797,-0.0002,-0.0000,-2.5301,flat,18.0,1,1.876
4830,154.56,0.5864,-8.0244,0.1798,-0.0003,0.0000,-2.6061,flat,18.0,1,1.339
4840,154.88,0.1012,-8.2937,0.1798,-0.0004,0.0000,-2.7156,flat,18.0,1,0.815
4850,155.20,-0.3485,-8.4638,0.1799,0.0001,-0.0000,-3.0282,flat,18.0,2,5.394
4860,155.52,-0.8339,-8.4908,0.1799,0.0001,-0.0001,2.9381,flat,18.0,2,5.170
4870,155.84,-1.3257,-8.3607,0.1799,-0.0000,-0.0000,2.7034,flat,18.0,2,4.836
4880,156.16,-1.7861,-8.1108,0.1799,-0.0001,-0.0000,2.5257,flat,18.0,2,4.433
4890,156.48,-2.2051,-7.7773,0.1799,-0.0002,-0.0000,2.3928,flat,18.0,2,3.988
4900,156.80,-2.5817,-7.3888,0.1799,-0.0003,-0.0000,2.2747,flat,18.0,2,3.522
4910,157.12,-2.9165,-6.9559,0.1799,-0.0003,-0.0000,2.1567,flat,18.0,2,3.041
4920,157.44,-3.2034,-6.4848,0.1799,-0.0003,-0.0000,2.0370,flat,18.0,2,2.549
4930,157.76,-3.4355,-5.9821,0.1799,-0.0003,-0.0000,1.9115,flat,18.0,2,2.051
4940,158.08,-3.6046,-5.4553,0.1799,-0.0001,-0.0000,1.7718,flat,18.0,2,1.552
4950,158.40,-3.6982,-4.9147,0.1799,-0.0001,0.0000,1.5990,flat,18.0,2,1.063
4960,158.72,-3.6906,-4.3733,0.1799,-0.0001,-0.0002,1.4723,flat,18.0,3,10.766
4970,159.04,-3.6306,-3.8076,0.1798,-0.0001,-0.0000,1.4405,flat,18.0,3,10.204
4980,159.36,-3.5532,-3.2433,0.1797,-0.0001,-0.0000,1.4145,flat,18.0,3,9.640
4990,159.68,-3.4615,-2.6803,0.1797,-0.0001,-0.0000,1.3925,flat,18.0,3,9.073
5000,160.00,-3.3576,-2.1187,0.1797,-0.0001,-0.0000,1.3734,flat,18.0,3,8.505
5010,160.32,-3.2432,-1.5586,0.1797,-0.0001,-0.0000,1.3569,flat,18.0,3,7.935
5020,160.64,-3.1197,-1.0000,0.1797,-0.0001,-0.0000,1.3423,flat,18.0,3,7.365
5030,160.96,-2.9882,-0.4428,0.1797,-0.0000,-0.0000,1.3294,flat,18.0,3,6.794
5040,161.28,-2.8496,0.1130,0.1797,-0.0000,-0.0000,1.3178,flat,18.0,3,6.222
5050,161.60,-2.7046,0.6674,0.1797,-0.0000,-0.0000,1.3073,flat,18.0,3,5.650
5060,161.92,-2.5538,1.2206,0.1797,-0.0000,-0.0000,1.2976,flat,18.0,3,5.077
5070,162.24,-2.3978,1.7724,0.1797,-0.0000,-0.0000,1.2886,flat,18.0,3,4.505
5080,162.56,-2.2368,2.3229,0.1797,-0.0000,-0.0000,1.2800,flat,18.0,3,3.931
5090,162.88,-2.0711,2.8721,0.1797,-0.0000,-0.0000,1.2717,flat,18.0,3,3.358
5100,163.20,-1.9008,3.4199,0.1797,-0.0000,0.0000,1.2634,flat,18.0,3,2.785
5110,163.52,-1.7260,3.9660,0.1797,-0.0000,0.0000,1.2546,flat,18.0,3,2.212
5120,163.84,-1.5464,4.5103,0.1797,-0.0000,0.0000,1.2448,flat,18.0,3,1.640
5130,164.16,-1.3613,5.0519,0.1797,-0.0000,0.0000,1.2321,flat,18.0,3,1.068
5140,164.48,-1.1885,5.5446,0.1798,0.0002,0.0002,1.0618,flat,18.0,0,10.466
5150,164.80,-0.9510,5.8588,0.1799,0.0002,-0.0000,0.6742,flat,18.0,0,10.618
5160,165.12,-0.6114,6.0743,0.1799,0.0001,-0.0001,0.2876,flat,18.0,0,10.648
5170,165.44,-0.1730,6.1756,0.1799,-0.0000,-0.0000,-0.0693,flat,18.0,0,10.547
5180,165.76,0.3090,6.1155,0.1799,-0.0000,-0.0000,-0.3405,flat,18.0,0,10.299
5190,166.08,0.7825,5.9160,0.1799,-0.0000,-0.0000,-0.5405,flat,18.0,0,9.941
5200,166.40,1.2231,5.6168,0.1799,-0.0002,-0.0000,-0.6853,flat,18.0,0,9.513
5210,166.72,1.6285,5.2536,0.1798,-0.0003,-0.0000,-0.7888,flat,18.0,0,9.044
5220,167.04,1.9996,4.8480,0.1798,-0.0004,-0.0000,-0.8810,flat,18.0,0,8.552
5230,167.36,2.3391,4.4078,0.1798,-0.0004,-0.0000,-0.9634,flat,18.0,0,8.041
5240,167.68,2.6467,3.9396,0.1798,-0.0003,-0.0000,-1.0365,flat,18.0,0,7.516
5250,168.00,2.9231,3.4488,0.1797,-0.0002,-0.0000,-1.1015,flat,18.0,0,6.980
5260,168.32,3.1699,2.9402,0.1797,-0.0002,-0.0000,-1.1592,flat,18.0,0,6.435
5270,168.64,3.3883,2.4174,0.1797,-0.0002,-0.0000,-1.2108,flat,18.0,0,5.885
5280,168.96,3.5811,1.8838,0.1797,-0.0002,-0.0000,-1.2560,flat,18.0,0,5.330
5290,169.28,3.7509,1.3424,0.1797,-0.0001,-0.0000,-1.2958,flat,18.0,0,4.774
5300,169.60,3.9000,0.7943,0.1797,-0.0001,-0.0000,-1.3330,flat,18.0,0,4.214
5310,169.92,4.0293,0.2406,0.1797,-0.0001,-0.0000,-1.3682,flat,18.0,0,3.653
5320,170.24,4.1393,-0.3175,0.1797,-0.0001,-0.0000,-1.4025,flat,18.0,0,3.090
5330,170.56,4.2304,-0.8790,0.1797,-0.0001,-0.0000,-1.4369,flat,18.0,0,2.528
5340,170.88,4.3021,-1.4430,0.1797,-0.0001,0.0000,-1.4734,flat,18.0,0,1.965
5350,171.20,4.3529,-2.0081,0.1797,-0.0001,0.0000,-1.5158,flat,18.0,0,1.403
5360,171.52,4.3789,-2.5724,0.1797,-0.0002,0.0000,-1.5757,flat,18.0,0,0.847
5370,171.84,4.3649,-3.1203,0.1799,-0.0001,-0.0000,-1.7316,flat,18.0,1,7.291
5380,172.16,4.2588,-3.6500,0.1799,-0.0001,-0.0000,-1.8889,flat,18.0,1,6.843
5390,172.48,4.0833,-4.1407,0.1798,-0.0002,-0.0001,-1.9845,flat,18.0,1,6.383
5400,172.80,3.8476,-4.6369,0.1798,-0.0004,-0.0000,-2.0812,flat,18.0,1,5.882
5410,173.12,3.5640,-5.1127,0.1798,-0.0003,-0.0000,-2.1576,flat,18.0,1,5.365
5420,173.44,3.2444,-5.5703,0.1797,-0.0002,-0.0000,-2.2177,flat,18.0,1,4.837
5430,173.76,2.8976,-6.0085,0.1797,-0.0002,-0.0000,-2.2742,flat,18.0,1,4.304
5440,174.08,2.5259,-6.4260,0.1797,-0.0002,-0.0000,-2.3301,flat,18.0,1,3.768
5450,174.40,2.1309,-6.8224,0.1797,-0.0002,-0.0000,-2.3836,flat,18.0,1,3.229
5460,174.72,1.7149,-7.1966,0.1797,-0.0002,-0.0000,-2.4384,flat,18.0,1,2.688
5470,175.04,1.2786,-7.5476,0.1797,-0.0002,-0.0000,-2.4975,flat,18.0,1,2.147
5480,175.36,0.8225,-7.8733,0.1797,-0.0002,0.0000,-2.5656,flat,18.0,1,1.608
5490,175.68,0.3467,-8.1647,0.1798,-0.0004,0.0000,-2.6540,flat,18.0,1,1.075
5500,176.00,-0.1260,-8.3911,0.1798,0.0001,0.0001,-2.8503,flat,18.0,2,5.458
5510,176.32,-0.5858,-8.4981,0.1799,-0.0001,-0.0000,3.0871,flat,18.0,2,5.298
5520,176.64,-1.0638,-8.4444,0.1799,0.0003,-0.0000,2.8437,rough,14.0,2,5.023
5530,176.96,-1.5291,-8.2732,0.1799,-0.0001,-0.0000,2.6488,flat,18.0,2,4.677
5540,177.28,-1.9764,-7.9969,0.1799,-0.0000,-0.0000,2.4805,flat,18.0,2,4.264
5550,177.60,-2.3812,-7.6442,0.1799,-0.0003,-0.0000,2.3527,flat,18.0,2,3.815
5560,177.92,-2.7429,-7.2402,0.1799,-0.0003,-0.0000,2.2318,flat,18.0,2,3.347
5570,178.24,-3.0602,-6.7928,0.1799,-0.0003,-0.0000,2.1104,flat,18.0,2,2.864
5580,178.56,-3.3260,-6.3088,0.1799,-0.0003,-0.0000,1.9862,flat,18.0,2,2.372
5590,178.88,-3.5328,-5.7954,0.1799,-0.0002,-0.0000,1.8540,flat,18.0,2,1.875
5600,179.20,-3.6712,-5.2611,0.1799,-0.0001,0.0000,1.7027,flat,18.0,2,1.380
5610,179.52,-3.7260,-4.7195,0.1799,-0.0001,0.0000,1.5079,flat,18.0,2,0.900
5620,179.84,-3.6781,-4.1719,0.1798,-0.0001,-0.0001,1.4396,flat,18.0,3,10.569
5630,180.16,-3.6001,-3.6072,0.1797,-0.0001,-0.0000,1.4145,flat,18.0,3,10.003
5640,180.48,-3.5085,-3.0439,0.1797,-0.0001,-0.0000,1.3936,flat,18.0,3,9.436
5650,180.80,-3.4053,-2.4819,0.1797,-0.0001,-0.0000,1.3756,flat,18.0,3,8.867
5660,181.12,-3.2922,-1.9213,0.1797,-0.0001,-0.0000,1.3600,flat,18.0,3,8.297
5670,181.44,-3.1705,-1.3621,0.1797,-0.0000,-0.0000,1.3462,flat,18.0,3,7.726
5680,181.76,-3.0413,-0.8041,0.1797,-0.0000,-0.0000,1.3341,flat,18.0,3,7.155
5690,182.08,-2.9053,-0.2474,0.1797,-0.0000,-0.0000,1.3232,flat,18.0,3,6.583
5700,182.40,-2.7634,0.3080,0.1797,-0.0000,-0.0000,1.3134,flat,18.0,3,6.010
5710,182.72,-2.6161,0.8623,0.1797,-0.0000,-0.0000,1.3044,flat,18.0,3,5.437
5720,183.04,-2.4638,1.4154,0.1797,-0.0000,-0.0000,1.2961,flat,18.0,3,4.864
5730,183.36,-2.3070,1.9674,0.1797,-0.0000,-0.0000,1.2883,flat,18.0,3,4.291
5740,183.68,-2.1459,2.5182,0.1797,-0.0000,-0.0000,1.2808,flat,18.0,3,3.717
5750,184.00,-1.9807,3.0678,0.1797,-0.0000,-0.0000,1.2735,flat,18.0,3,3.144
5760,184.32,-1.8115,3.6162,0.1797,-0.0000,0.0000,1.2660,flat,18.0,3,2.570
5770,184.64,-1.6381,4.1630,0.1797,-0.0000,0.0000,1.2579,flat,18.0,3,1.997
5780,184.96,-1.4604,4.7080,0.1797,-0.0000,0.0000,1.2485,flat,18.0,3,1.424
5790,185.28,-1.2774,5.2501,0.1797,-0.0000,0.0000,1.2353,flat,18.0,3,0.853
5800,185.60,-1.1041,5.6755,0.1798,0.0004,0.0001,0.9199,flat,18.0,0,10.535
5810,185.92,-0.8259,5.9454,0.1799,0.0001,-0.0000,0.5294,flat,18.0,0,10.633
5820,186.24,-0.4483,6.1261,0.1799,0.0000,-0.0001,0.1504,flat,18.0,0,10.621
5830,186.56,0.0141,6.1689,0.1799,-0.0001,-0.0000,-0.1796,flat,18.0,0,10.464
5840,186.88,0.4973,6.0527,0.1799,-0.0001,-0.0000,-0.4200,flat,18.0,0,10.171
5850,187.20,0.9603,5.8118,0.1799,-0.0001,-0.0000,-0.5999,flat,18.0,0,9.783
5860,187.52,1.3877,5.4851,0.1799,-0.0003,-0.0000,-0.7254,flat,18.0,0,9.336
5870,187.84,1.7795,5.1051,0.1798,-0.0004,-0.0000,-0.8245,flat,18.0,0,8.859
5880,188.16,2.1389,4.6857,0.1798,-0.0004,-0.0000,-0.9132,flat,18.0,0,8.359
5890,188.48,2.4663,4.2342,0.1798,-0.0003,-0.0000,-0.9922,flat,18.0,0,7.843
5900,188.80,2.7618,3.7568,0.1797,-0.0003,-0.0000,-1.0623,flat,18.0,0,7.313
5910,189.12,3.0267,3.2588,0.1797,-0.0002,-0.0000,-1.1246,flat,18.0,0,6.774
5920,189.44,3.2622,2.7443,0.1797,-0.0002,-0.0000,-1.1800,flat,18.0,0,6.227
5930,189.76,3.4704,2.2168,0.1797,-0.0002,-0.0000,-1.2296,flat,18.0,0,5.675
5940,190.08,3.6537,1.6799,0.1797,-0.0001,-0.0000,-1.2724,flat,18.0,0,5.120
5950,190.40,3.8150,1.1357,0.1797,-0.0001,-0.0000,-1.3111,flat,18.0,0,4.562
5960,190.72,3.9559,0.5852,0.1797,-0.0001,-0.0000,-1.3475,flat,18.0,0,4.001
5970,191.04,4.0773,0.0296,0.1797,-0.0001,-0.0000,-1.3823,flat,18.0,0,3.440
5980,191.36,4.1796,-0.5300,0.1797,-0.0001,-0.0000,-1.4166,flat,18.0,0,2.877
5990,191.68,4.2628,-1.0926,0.1797,-0.0001,-0.0000,-1.4516,flat,18.0,0,2.314
6000,192.00,4.3262,-1.6573,0.1797,-0.0001,0.0000,-1.4896,flat,18.0,0,1.752
6010,192.32,4.3675,-2.2226,0.1797,-0.0002,0.0000,-1.5365,flat,18.0,0,1.191
6020,192.64,4.3814,-2.7841,0.1798,-0.0002,0.0000,-1.6194,flat,18.0,1,7.547
6030,192.96,4.3386,-3.3240,0.1799,-0.0001,-0.0000,-1.7941,flat,18.0,1,7.127
6040,193.28,4.2054,-3.8267,0.1799,-0.0001,-0.0001,-1.9104,flat,18.0,1,6.683
6050,193.60,4.0079,-4.3330,0.1799,-0.0003,-0.0000,-2.0193,flat,18.0,1,6.200
6060,193.92,3.7549,-4.8219,0.1798,-0.0004,-0.0000,-2.1098,flat,18.0,1,5.694
6070,194.24,3.4575,-5.2911,0.1798,-0.0003,-0.0000,-2.1799,flat,18.0,1,5.173
6080,194.56,3.1278,-5.7420,0.1797,-0.0002,-0.0000,-2.2381,flat,18.0,1,4.643
6090,194.88,2.7719,-6.1727,0.1797,-0.0002,-0.0000,-2.2950,flat,18.0,1,4.110
6100,195.20,2.3914,-6.5821,0.1797,-0.0002,-0.0000,-2.3506,flat,18.0,1,3.573
6110,195.52,1.9883,-6.9700,0.1797,-0.0002,-0.0000,-2.4046,flat,18.0,1,3.034
6120,195.84,1.5643,-7.3352,0.1797,-0.0002,-0.0000,-2.4612,flat,18.0,1,2.493
6130,196.16,1.1202,-7.6767,0.1797,-0.0002,-0.0000,-2.5234,flat,18.0,1,1.953
6140,196.48,0.6561,-7.9898,0.1798,-0.0003,0.0000,-2.5976,flat,18.0,1,1.415
6150,196.80,0.1725,-8.2640,0.1798,-0.0004,0.0000,-2.7006,flat,18.0,1,0.889
6160,197.12,-0.2810,-8.4477,0.1799,0.0001,-0.0000,-2.9897,flat,18.0,2,5.417
6170,197.44,-0.7620,-8.4927,0.1799,-0.0001,-0.0000,2.9706,flat,18.0,2,5.206
6180,197.76,-1.2556,-8.3783,0.1799,-0.0001,-0.0000,2.7274,flat,18.0,2,4.881
6190,198.08,-1.7207,-8.1396,0.1799,-0.0001,-0.0000,2.5439,flat,18.0,2,4.483
6200,198.40,-2.1449,-7.8142,0.1799,-0.0002,-0.0000,2.4076,flat,18.0,2,4.040
6210,198.72,-2.5271,-7.4317,0.1799,-0.0003,-0.0000,2.2902,flat,18.0,2,3.575
6220,199.04,-2.8679,-7.0042,0.1799,-0.0003,-0.0000,2.1729,flat,18.0,2,3.095
6230,199.36,-3.1620,-6.5380,0.1799,-0.0003,-0.0000,2.0542,flat,18.0,2,2.604
6240,199.68,-3.4024,-6.0393,0.1799,-0.0003,-0.0000,1.9302,flat,18.0,2,2.106
6250,200.00,-3.5811,-5.5155,0.1799,-0.0002,-0.0000,1.7932,flat,18.0,2,1.607
6260,200.32,-3.6866,-4.9761,0.1799,-0.0001,0.0000,1.6262,flat,18.0,2,1.115
6270,200.64,-3.6934,-4.4366,0.1799,-0.0002,-0.0002,1.4830,flat,18.0,3,10.828
6280,200.96,-3.6386,-3.8710,0.1798,-0.0001,-0.0000,1.4484,flat,18.0,3,10.268
6290,201.28,-3.5655,-3.3064,0.1797,-0.0001,-0.0000,1.4210,flat,18.0,3,9.704
6300,201.60,-3.4773,-2.7431,0.1797,-0.0001,-0.0000,1.3976,flat,18.0,3,9.138
6310,201.92,-3.3763,-2.1813,0.1797,-0.0001,-0.0000,1.3776,flat,18.0,3,8.570
6320,202.24,-3.2641,-1.6209,0.1797,-0.0001,-0.0000,1.3602,flat,18.0,3,8.001
6330,202.56,-3.1424,-1.0621,0.1797,-0.0001,-0.0000,1.3450,flat,18.0,3,7.431
6340,202.88,-3.0124,-0.5047,0.1797,-0.0000,-0.0000,1.3314,flat,18.0,3,6.860
6350,203.20,-2.8748,0.0512,0.1797,-0.0000,-0.0000,1.3193,flat,18.0,3,6.289
6360,203.52,-2.7307,0.6058,0.1797,-0.0000,-0.0000,1.3084,flat,18.0,3,5.717
6370,203.84,-2.5805,1.1589,0.1797,-0.0000,-0.0000,1.2983,flat,18.0,3,5.144
6380,204.16,-2.4248,1.7108,0.1797,-0.0000,-0.0000,1.2889,flat,18.0,3,4.572
6390,204.48,-2.2639,2.2613,0.1797,-0.0000,-0.0000,1.2801,flat,18.0,3,3.999
6400,204.80,-2.0983,2.8104,0.1797,-0.0000,-0.0000,1.2715,flat,18.0,3,3.426
6410,205.12,-1.9279,3.3580,0.1797,-0.0000,0.0000,1.2629,flat,18.0,3,2.853
6420,205.44,-1.7528,3.9041,0.1797,-0.0000,0.0000,1.2540,flat,18.0,3,2.280
6430,205.76,-1.5728,4.4482,0.1797,-0.0000,0.0000,1.2440,flat,18.0,3,1.707
6440,206.08,-1.3873,4.9896,0.1797,-0.0000,0.0000,1.2315,flat,18.0,3,1.135
6450,206.40,-1.2118,5.4957,0.1798,0.0001,0.0002,1.0967,flat,18.0,0,10.436
6460,206.72,-0.9853,5.8234,0.1798,0.0002,0.0000,0.7111,flat,18.0,0,10.604
6470,207.04,-0.6552,6.0466,0.1799,0.0001,-0.0001,0.3234,flat,18.0,0,10.643
6480,207.36,-0.2242,6.1619,0.1799,-0.0000,-0.0000,-0.0381,flat,18.0,0,10.556
6490,207.68,0.2565,6.1169,0.1799,-0.0001,-0.0000,-0.3175,flat,18.0,0,10.321
6500,208.00,0.7323,5.9291,0.1799,-0.0001,-0.0000,-0.5230,flat,18.0,0,9.971
6510,208.32,1.1766,5.6381,0.1799,-0.0001,-0.0000,-0.6732,flat,18.0,0,9.548
6520,208.64,1.5857,5.2799,0.1798,-0.0003,-0.0000,-0.7787,flat,18.0,0,9.081
6530,208.96,1.9601,4.8783,0.1798,-0.0004,-0.0000,-0.8719,flat,18.0,0,8.591
6540,209.28,2.3030,4.4414,0.1798,-0.0004,-0.0000,-0.9551,flat,18.0,0,8.082
6550,209.60,2.6140,3.9758,0.1798,-0.0003,-0.0000,-1.0291,flat,18.0,0,7.558
6560,209.92,2.8938,3.4872,0.1797,-0.0002,-0.0000,-1.0947,flat,18.0,0,7.023
6570,210.24,3.1438,2.9804,0.1797,-0.0002,-0.0000,-1.1531,flat,18.0,0,6.479
6580,210.56,3.3652,2.4590,0.1797,-0.0002,-0.0000,-1.2052,flat,18.0,0,5.930
6590,210.88,3.5608,1.9263,0.1797,-0.0002,0.0000,-1.2513,flat,18.0,0,5.375
6600,211.20,3.7331,1.3858,0.1797,-0.0001,-0.0000,-1.2914,flat,18.0,0,4.819
6610,211.52,3.8845,0.8384,0.1797,-0.0001,-0.0000,-1.3287,flat,18.0,0,4.259
6620,211.84,4.0161,0.2853,0.1797,-0.0001,-0.0000,-1.3642,flat,18.0,0,3.698
6630,212.16,4.1283,-0.2723,0.1797,-0.0001,-0.0000,-1.3985,flat,18.0,0,3.136
6640,212.48,4.2216,-0.8335,0.1797,-0.0001,-0.0000,-1.4330,flat,18.0,0,2.573
6650,212.80,4.2956,-1.3972,0.1797,-0.0001,0.0000,-1.4693,flat,18.0,0,2.010
6660,213.12,4.3487,-1.9622,0.1797,-0.0001,0.0000,-1.5109,flat,18.0,0,1.449
6670,213.44,4.3774,-2.5266,0.1797,-0.0002,0.0000,-1.5686,flat,18.0,0,0.891
6680,213.76,4.3694,-3.0770,0.1799,-0.0000,0.0000,-1.7153,flat,18.0,1,7.325
6690,214.08,4.2718,-3.6079,0.1799,-0.0001,-0.0000,-1.8769,flat,18.0,1,6.881
6700,214.40,4.1063,-4.0882,0.1798,-0.0001,-0.0002,-1.9675,flat,18.0,1,6.435
6710,214.72,3.8791,-4.5874,0.1798,-0.0004,-0.0000,-2.0682,flat,18.0,1,5.938
6720,215.04,3.6018,-5.0659,0.1798,-0.0004,-0.0000,-2.1481,flat,18.0,1,5.423
6730,215.36,3.2866,-5.5258,0.1797,-0.0002,-0.0000,-2.2100,flat,18.0,1,4.897
6740,215.68,2.9432,-5.9666,0.1797,-0.0002,-0.0000,-2.2671,flat,18.0,1,4.365
6750,216.00,2.5746,-6.3866,0.1797,-0.0002,-0.0000,-2.3237,flat,18.0,1,3.830
6760,216.32,2.1822,-6.7852,0.1797,-0.0002,-0.0000,-2.3779,flat,18.0,1,3.291
6770,216.64,1.7684,-7.1616,0.1797,-0.0002,-0.0000,-2.4329,flat,18.0,1,2.752
6780,216.96,1.3341,-7.5149,0.1797,-0.0002,-0.0000,-2.4919,flat,18.0,1,2.211
6790,217.28,0.8798,-7.8431,0.1797,-0.0002,0.0000,-2.5592,flat,18.0,1,1.671
6800,217.60,0.4057,-8.1378,0.1798,-0.0004,0.0000,-2.6448,flat,18.0,1,1.138
6810,217.92,-0.0725,-8.3737,0.1798,-0.0000,0.0001,-2.8182,flat,18.0,2,5.475
6820,218.24,-0.5277,-8.4945,0.1799,-0.0000,-0.0000,3.1177,flat,18.0,2,5.325
6830,218.56,-1.0143,-8.4550,0.1799,-0.0001,0.0005,2.8588,rough,14.0,2,5.055
6840,218.88,-1.4726,-8.2950,0.1799,0.0001,-0.0000,2.6681,flat,18.0,2,4.718
6850,219.20,-1.9245,-8.0280,0.1799,-0.0000,-0.0000,2.4961,flat,18.0,2,4.310
6860,219.52,-2.3340,-7.6819,0.1799,-0.0002,-0.0000,2.3659,flat,18.0,2,3.863
6870,219.84,-2.7003,-7.2829,0.1799,-0.0003,-0.0000,2.2454,flat,18.0,2,3.396
6880,220.16,-3.0231,-6.8401,0.1799,-0.0003,-0.0000,2.1245,flat,18.0,2,2.914
6890,220.48,-3.2953,-6.3599,0.1799,-0.0003,-0.0000,2.0011,flat,18.0,2,2.423
6900,220.80,-3.5095,-5.8496,0.1799,-0.0002,-0.0000,1.8704,flat,18.0,2,1.926
6910,221.12,-3.6566,-5.3172,0.1799,-0.0001,-0.0000,1.7221,flat,18.0,2,1.430
6920,221.44,-3.7225,-4.7755,0.1799,-0.0001,0.0000,1.5332,flat,18.0,2,0.947
6930,221.76,-3.6842,-4.2305,0.1798,-0.0001,-0.0001,1.4447,flat,18.0,3,10.627
6940,222.08,-3.6091,-3.6656,0.1798,-0.0001,-0.0000,1.4189,flat,18.0,3,10.062
6950,222.40,-3.5198,-3.1020,0.1797,-0.0001,-0.0000,1.3972,flat,18.0,3,9.495
6960,222.72,-3.4186,-2.5399,0.1797,-0.0001,-0.0000,1.3786,flat,18.0,3,8.926
6970,223.04,-3.3072,-1.9791,0.1797,-0.0001,-0.0000,1.3624,flat,18.0,3,8.357
6980,223.36,-3.1868,-1.4196,0.1797,-0.0001,-0.0000,1.3483,flat,18.0,3,7.786
6990,223.68,-3.0586,-0.8615,0.1797,-0.0000,-0.0000,1.3357,flat,18.0,3,7.215
7000,224.00,-2.9236,-0.3047,0.1797,-0.0000,-0.0000,1.3246,flat,18.0,3,6.643
7010,224.32,-2.7824,0.2509,0.1797,-0.0000,-0.0000,1.3145,flat,18.0,3,6.070
7020,224.64,-2.6356,0.8052,0.1797,-0.0000,-0.0000,1.3053,flat,18.0,3,5.498
7030,224.96,-2.4838,1.3584,0.1797,-0.0000,-0.0000,1.2968,flat,18.0,3,4.925
7040,225.28,-2.3274,1.9104,0.1797,-0.0000,-0.0000,1.2888,flat,18.0,3,4.351
7050,225.60,-2.1666,2.4613,0.1797,-0.0000,-0.0000,1.2812,flat,18.0,3,3.778
7060,225.92,-2.0016,3.0109,0.1797,-0.0000,-0.0000,1.2737,flat,18.0,3,3.204
7070,226.24,-1.8325,3.5593,0.1797,-0.0000,0.0000,1.2661,flat,18.0,3,2.631
7080,226.56,-1.6592,4.1062,0.1797,-0.0000,0.0000,1.2581,flat,18.0,3,2.058
7090,226.88,-1.4815,4.6512,0.1797,-0.0000,0.0000,1.2487,flat,18.0,3,1.485
7100,227.20,-1.2986,5.1935,0.1797,-0.0000,0.0000,1.2359,flat,18.0,3,0.913
7110,227.52,-1.1278,5.6385,0.1798,0.0004,0.0001,0.9578,flat,18.0,0,10.515
7120,227.84,-0.8599,5.9189,0.1799,0.0002,-0.0000,0.5675,flat,18.0,0,10.626
7130,228.16,-0.4924,6.1095,0.1799,0.0000,-0.0001,0.1861,flat,18.0,0,10.625
7140,228.48,-0.0354,6.1684,0.1799,-0.0000,-0.0000,-0.1529,flat,18.0,0,10.484
7150,228.80,0.4483,6.0665,0.1799,-0.0000,-0.0000,-0.4019,flat,18.0,0,10.202
7160,229.12,0.9143,5.8358,0.1799,-0.0001,-0.0000,-0.5848,flat,18.0,0,9.821
7170,229.44,1.3451,5.5159,0.1799,-0.0002,-0.0000,-0.7150,flat,18.0,0,9.379
7180,229.76,1.7405,5.1402,0.1798,-0.0004,-0.0000,-0.8151,flat,18.0,0,8.903
7190,230.08,2.1030,4.7245,0.1798,-0.0004,-0.0000,-0.9047,flat,18.0,0,8.406
7200,230.40,2.4337,4.2759,0.1798,-0.0004,-0.0000,-0.9846,flat,18.0,0,7.891
7210,230.72,2.7324,3.8009,0.1797,-0.0003,-0.0000,-1.0555,flat,18.0,0,7.362
7220,231.04,3.0004,3.3047,0.1797,-0.0002,-0.0000,-1.1185,flat,18.0,0,6.824
7230,231.36,3.2388,2.7918,0.1797,-0.0002,-0.0000,-1.1745,flat,18.0,0,6.278
7240,231.68,3.4497,2.2655,0.1797,-0.0002,-0.0000,-1.2247,flat,18.0,0,5.726
7250,232.00,3.6355,1.7294,0.1797,-0.0002,-0.0000,-1.2681,flat,18.0,0,5.171
7260,232.32,3.7990,1.1859,0.1797,-0.0001,-0.0000,-1.3072,flat,18.0,0,4.613
7270,232.64,3.9421,0.6360,0.1797,-0.0001,-0.0000,-1.3437,flat,18.0,0,4.053
7280,232.96,4.0655,0.0809,0.1797,-0.0001,-0.0000,-1.3787,flat,18.0,0,3.492
7290,233.28,4.1698,-0.4783,0.1797,-0.0001,-0.0000,-1.4129,flat,18.0,0,2.929
7300,233.60,4.2551,-1.0407,0.1797,-0.0001,-0.0000,-1.4478,flat,18.0,0,2.366
7310,233.92,4.3206,-1.6052,0.1797,-0.0001,0.0000,-1.4855,flat,18.0,0,1.803
7320,234.24,4.3643,-2.1705,0.1797,-0.0002,0.0000,-1.5311,flat,18.0,0,1.243
7330,234.56,4.3814,-2.7325,0.1797,-0.0002,0.0000,-1.6099,flat,18.0,1,7.585
7340,234.88,4.3445,-3.2734,0.1799,-0.0000,-0.0000,-1.7841,flat,18.0,1,7.167
7350,235.20,4.2114,-3.7990,0.1799,-0.0002,-0.0000,-1.9263,flat,18.0,1,6.707
7360,235.52,4.0051,-4.3062,0.1798,-0.0004,-0.0000,-2.0334,flat,18.0,1,6.215
7370,235.84,3.7450,-4.7930,0.1798,-0.0004,-0.0000,-2.1186,flat,18.0,1,5.704
7380,236.16,3.4437,-5.2607,0.1797,-0.0003,-0.0000,-2.1852,flat,18.0,1,5.180
7390,236.48,3.1114,-5.7104,0.1797,-0.0002,-0.0000,-2.2415,flat,18.0,1,4.648
7400,236.80,2.7540,-6.1407,0.1797,-0.0002,-0.0000,-2.2961,flat,18.0,1,4.112
7410,237.12,2.3729,-6.5506,0.1797,-0.0002,-0.0000,-2.3496,flat,18.0,1,3.573
7420,237.44,1.9701,-6.9397,0.1797,-0.0002,-0.0000,-2.4016,flat,18.0,1,3.032
7430,237.76,1.5472,-7.3070,0.1797,-0.0002,-0.0000,-2.4560,flat,18.0,1,2.490
7440,238.08,1.1048,-7.6509,0.1797,-0.0002,-0.0000,-2.5158,flat,18.0,1,1.948
7450,238.40,0.6430,-7.9679,0.1797,-0.0003,0.0000,-2.5874,flat,18.0,1,1.408
7460,238.72,0.1620,-8.2473,0.1798,-0.0004,0.0000,-2.6875,flat,18.0,1,0.880
7470,239.04,-0.2879,-8.4359,0.1799,0.0001,-0.0000,-2.9766,flat,18.0,2,5.404
7480,239.36,-0.7669,-8.4871,0.1799,-0.0000,-0.0000,2.9792,flat,18.0,2,5.198
7490,239.68,-1.1975,-8.4002,0.1798,-0.0001,0.0000,2.8082,flat,18.0,2,4.925
7500,240.00,-1.6673,-8.2040,0.1799,-0.0001,-0.0000,2.6068,flat,18.0,2,4.562
7510,240.32,-2.1041,-7.9080,0.1799,-0.0001,-0.0000,2.4466,flat,18.0,2,4.142
7520,240.64,-2.4977,-7.5415,0.1799,-0.0003,-0.0000,2.3220,flat,18.0,2,3.689
7530,240.96,-2.8484,-7.1260,0.1799,-0.0003,-0.0000,2.1995,flat,18.0,2,3.218
7540,241.28,-3.1523,-6.6683,0.1799,-0.0003,-0.0000,2.0762,flat,18.0,2,2.734
7550,241.60,-3.4020,-6.1754,0.1799,-0.0003,-0.0000,1.9490,flat,18.0,2,2.242
7560,241.92,-3.5899,-5.6551,0.1799,-0.0002,-0.0000,1.8117,flat,18.0,2,1.746
7570,242.24,-3.7053,-5.1168,0.1799,-0.0001,0.0000,1.6506,flat,18.0,2,1.254
7580,242.56,-3.7305,-4.5778,0.1799,-0.0001,0.0000,1.4398,flat,18.0,3,10.974
7590,242.88,-3.6654,-4.0201,0.1798,-0.0001,-0.0000,1.4333,flat,18.0,3,10.419
7600,243.20,-3.5841,-3.4557,0.1797,-0.0001,-0.0000,1.4092,flat,18.0,3,9.853
7610,243.52,-3.4895,-2.8928,0.1797,-0.0001,-0.0000,1.3889,flat,18.0,3,9.285
7620,243.84,-3.3838,-2.3312,0.1797,-0.0001,-0.0000,1.3714,flat,18.0,3,8.716
7630,244.16,-3.2683,-1.7710,0.1797,-0.0001,-0.0000,1.3561,flat,18.0,3,8.146
7640,244.48,-3.1444,-1.2122,0.1797,-0.0000,-0.0000,1.3426,flat,18.0,3,7.575
7650,244.80,-3.0132,-0.6546,0.1797,-0.0000,-0.0000,1.3307,flat,18.0,3,7.004
7660,245.12,-2.8753,-0.0984,0.1797,-0.0000,-0.0000,1.3200,flat,18.0,3,6.431
7670,245.44,-2.7316,0.4567,0.1797,-0.0000,-0.0000,1.3103,flat,18.0,3,5.859
7680,245.76,-2.5826,1.0105,0.1797,-0.0000,-0.0000,1.3014,flat,18.0,3,5.286
7690,246.08,-2.4287,1.5632,0.1797,-0.0000,-0.0000,1.2932,flat,18.0,3,4.713
7700,246.40,-2.2702,2.1147,0.1797,-0.0000,-0.0000,1.2854,flat,18.0,3,4.139
7710,246.72,-2.1075,2.6650,0.1797,-0.0000,-0.0000,1.2779,flat,18.0,3,3.566
7720,247.04,-1.9407,3.2141,0.1797,-0.0000,-0.0000,1.2704,flat,18.0,3,2.993
7730,247.36,-1.7698,3.7618,0.1797,-0.0000,0.0000,1.2627,flat,18.0,3,2.419
7740,247.68,-1.5946,4.3080,0.1797,-0.0000,0.0000,1.2543,flat,18.0,3,1.846
7750,248.00,-1.4149,4.8521,0.1797,-0.0000,0.0000,1.2441,flat,18.0,3,1.273
7760,248.32,-1.2328,5.3901,0.1797,-0.0000,0.0002,1.2119,flat,18.0,0,10.357
7770,248.64,-1.0453,5.7725,0.1798,0.0003,0.0000,0.8391,flat,18.0,0,10.589
7780,248.96,-0.7470,6.0215,0.1799,0.0001,-0.0000,0.4477,flat,18.0,0,10.663
7790,249.28,-0.3472,6.1790,0.1799,0.0000,-0.0000,0.0740,flat,18.0,0,10.624
7800,249.60,0.1242,6.1869,0.1799,-0.0001,-0.0000,-0.2375,flat,18.0,0,10.437
7810,249.92,0.6052,6.0406,0.1799,-0.0001,-0.0000,-0.4636,flat,18.0,0,10.120
7820,250.24,1.0607,5.7781,0.1799,-0.0001,-0.0000,-0.6320,flat,18.0,0,9.718
7830,250.56,1.4803,5.4373,0.1798,-0.0003,-0.0000,-0.7484,flat,18.0,0,9.263
7840,250.88,1.8642,5.0479,0.1798,-0.0004,-0.0000,-0.8454,flat,18.0,0,8.780
7850,251.20,2.2164,4.6207,0.1798,-0.0004,-0.0000,-0.9321,flat,18.0,0,8.277
7860,251.52,2.5364,4.1627,0.1798,-0.0003,-0.0000,-1.0092,flat,18.0,0,7.757
7870,251.84,2.8246,3.6801,0.1797,-0.0003,-0.0000,-1.0776,flat,18.0,0,7.226
7880,252.16,3.0825,3.1779,0.1797,-0.0002,-0.0000,-1.1383,flat,18.0,0,6.684
7890,252.48,3.3112,2.6601,0.1797,-0.0002,-0.0000,-1.1923,flat,18.0,0,6.136
7900,252.80,3.5133,2.1298,0.1797,-0.0002,-0.0000,-1.2408,flat,18.0,0,5.583
7910,253.12,3.6910,1.5912,0.1797,-0.0001,-0.0000,-1.2821,flat,18.0,0,5.027
7920,253.44,3.8473,1.0453,0.1797,-0.0001,-0.0000,-1.3201,flat,18.0,0,4.469
7930,253.76,3.9834,0.4935,0.1797,-0.0001,-0.0000,-1.3560,flat,18.0,0,3.908
7940,254.08,4.1002,-0.0632,0.1797,-0.0001,-0.0000,-1.3904,flat,18.0,0,3.346
7950,254.40,4.1981,-0.6237,0.1797,-0.0001,-0.0000,-1.4244,flat,18.0,0,2.783
7960,254.72,4.2769,-1.1870,0.1797,-0.0001,-0.0000,-1.4595,flat,18.0,0,2.220
7970,255.04,4.3358,-1.7520,0.1797,-0.0001,0.0000,-1.4982,flat,18.0,0,1.658
7980,255.36,4.3722,-2.3172,0.1797,-0.0002,0.0000,-1.5472,flat,18.0,0,1.098
7990,255.68,4.3795,-2.8764,0.1798,-0.0001,0.0000,-1.6457,flat,18.0,1,7.478
8000,256.00,4.3198,-3.4126,0.1799,-0.0001,-0.0000,-1.8228,flat,18.0,1,7.052
