step,time_s,x,y,z,roll,pitch,yaw,terrain,speed,target_idx,dist_to_target
10,0.32,0.1049,-0.0580,0.1847,-0.0000,-0.0353,-0.0000,rough,14.0,0,5.317
20,0.64,0.5498,-0.0713,0.1794,-0.0001,0.0019,-0.1071,flat,18.0,0,4.970
30,0.96,1.0846,-0.1493,0.1799,-0.0001,0.0000,-0.2741,flat,18.0,0,4.531
40,1.28,1.6029,-0.3138,0.1799,-0.0003,-0.0000,-0.4030,flat,18.0,0,4.061
50,1.60,2.0990,-0.5441,0.1798,-0.0004,-0.0000,-0.5088,flat,18.0,0,3.571
60,1.92,2.5715,-0.8272,0.1798,-0.0004,-0.0000,-0.5955,flat,18.0,0,3.069
70,2.24,3.0218,-1.1502,0.1798,-0.0003,0.0000,-0.6684,flat,18.0,0,2.562
80,2.56,3.4425,-1.5056,0.1798,-0.0004,0.0000,-0.7514,flat,18.0,0,2.059
90,2.88,3.8253,-1.8950,0.1798,-0.0004,0.0000,-0.8518,flat,18.0,0,1.566
100,3.20,4.1617,-2.3197,0.1799,-0.0001,0.0000,-0.9910,flat,18.0,0,1.089
110,3.52,4.4168,-2.7669,0.1799,0.0001,-0.0000,-1.2386,flat,18.0,1,7.584
120,3.84,4.5516,-3.2459,0.1799,0.0000,-0.0000,-1.5304,flat,18.0,1,7.334
130,4.16,4.5489,-3.7670,0.1799,-0.0000,-0.0000,-1.7648,flat,18.0,1,6.979
140,4.48,4.4243,-4.2855,0.1799,-0.0001,-0.0000,-1.9391,flat,18.0,1,6.552
150,4.80,4.2104,-4.7826,0.1799,-0.0003,-0.0000,-2.0680,flat,18.0,1,6.081
160,5.12,3.9329,-5.2541,0.1798,-0.0004,-0.0000,-2.1675,flat,18.0,1,5.584
170,5.44,3.6086,-5.7036,0.1798,-0.0003,-0.0000,-2.2403,flat,18.0,1,5.068
180,5.76,3.2519,-6.1295,0.1797,-0.0002,-0.0000,-2.3074,flat,18.0,1,4.545
190,6.08,2.8665,-6.5301,0.1797,-0.0002,-0.0000,-2.3732,flat,18.0,1,4.016
200,6.40,2.4549,-6.9060,0.1797,-0.0002,-0.0000,-2.4382,flat,18.0,1,3.482
210,6.72,2.0189,-7.2565,0.1797,-0.0002,-0.0000,-2.5041,flat,18.0,1,2.943
220,7.04,1.5604,-7.5789,0.1797,-0.0002,-0.0000,-2.5728,flat,18.0,1,2.401
230,7.36,1.0809,-7.8695,0.1798,-0.0003,-0.0000,-2.6480,flat,18.0,1,1.857
240,7.68,0.5820,-8.1224,0.1798,-0.0004,0.0000,-2.7377,flat,18.0,1,1.314
250,8.00,0.0665,-8.3266,0.1799,-0.0003,0.0000,-2.8651,flat,18.0,2,0.779
260,8.32,-0.4110,-8.4306,0.1799,0.0001,-0.0000,3.1007,flat,18.0,2,5.332
270,8.64,-0.9076,-8.3834,0.1799,0.0000,-0.0000,2.8274,flat,18.0,2,5.040
280,8.96,-1.3899,-8.1958,0.1799,-0.0000,-0.0000,2.6230,flat,18.0,2,4.660
290,9.28,-1.8342,-7.9074,0.1799,-0.0001,-0.0000,2.4684,flat,18.0,2,4.226
300,9.60,-2.2390,-7.5498,0.1799,-0.0003,-0.0000,2.3512,flat,18.0,2,3.760
310,9.92,-2.6025,-7.1449,0.1798,-0.0004,-0.0000,2.2374,flat,18.0,2,3.279
320,10.24,-2.9242,-6.6989,0.1798,-0.0004,-0.0000,2.1237,flat,18.0,2,2.785
330,10.56,-3.1978,-6.2179,0.1799,-0.0004,-0.0000,2.0081,flat,18.0,2,2.282
340,10.88,-3.4168,-5.7082,0.1799,-0.0003,-0.0000,1.8859,flat,18.0,2,1.776
350,11.20,-3.5733,-5.1770,0.1799,-0.0002,-0.0000,1.7476,flat,18.0,2,1.274
360,11.52,-3.6541,-4.6348,0.1799,-0.0001,0.0000,1.5710,flat,18.0,3,0.791
370,11.84,-3.6451,-4.0750,0.1798,-0.0002,-0.0000,1.5201,flat,18.0,3,10.466
380,12.16,-3.6104,-3.5097,0.1797,-0.0002,-0.0000,1.4726,flat,18.0,3,9.912
390,12.48,-3.5501,-2.9458,0.1797,-0.0001,-0.0000,1.4351,flat,18.0,3,9.353
400,12.80,-3.4691,-2.3834,0.1797,-0.0001,-0.0000,1.4037,flat,18.0,3,8.790
410,13.12,-3.3709,-1.8228,0.1797,-0.0001,-0.0000,1.3771,flat,18.0,3,8.225
420,13.44,-3.2580,-1.2641,0.1797,-0.0001,-0.0000,1.3542,flat,18.0,3,7.658
430,13.76,-3.1325,-0.7074,0.1797,-0.0001,-0.0000,1.3343,flat,18.0,3,7.090
440,14.08,-2.9962,-0.1527,0.1797,-0.0001,-0.0000,1.3167,flat,18.0,3,6.520
450,14.40,-2.8502,0.4000,0.1797,-0.0001,-0.0000,1.3010,flat,18.0,3,5.950
460,14.72,-2.6956,0.9508,0.1797,-0.0001,-0.0000,1.2869,flat,18.0,3,5.378
470,15.04,-2.5334,1.4996,0.1797,-0.0000,-0.0000,1.2739,flat,18.0,3,4.807
480,15.36,-2.3640,2.0466,0.1797,-0.0000,-0.0000,1.2618,flat,18.0,3,4.234
490,15.68,-2.1881,2.5916,0.1797,-0.0000,-0.0000,1.2504,flat,18.0,3,3.662
500,16.00,-2.0061,3.1347,0.1797,-0.0000,-0.0000,1.2394,flat,18.0,3,3.089
510,16.32,-1.8180,3.6757,0.1797,-0.0000,0.0000,1.2283,flat,18.0,3,2.516
520,16.64,-1.6239,4.2143,0.1797,-0.0000,0.0000,1.2167,flat,18.0,3,1.944
530,16.96,-1.4236,4.7502,0.1797,-0.0000,0.0000,1.2037,flat,18.0,3,1.372
540,17.28,-1.2162,5.2823,0.1797,-0.0001,0.0000,1.1870,flat,18.0,3,0.801
550,17.60,-1.0234,5.6889,0.1798,0.0004,0.0001,0.8663,flat,18.0,0,10.506
560,17.92,-0.7318,5.9446,0.1799,0.0001,-0.0000,0.4764,flat,18.0,0,10.588
570,18.24,-0.3387,6.1110,0.1799,0.0000,-0.0000,0.1019,flat,18.0,0,10.559
580,18.56,0.1307,6.1319,0.1799,-0.0001,-0.0000,-0.2160,flat,18.0,0,10.384
590,18.88,0.6132,5.9968,0.1799,-0.0001,-0.0000,-0.4467,flat,18.0,0,10.077
600,19.20,1.0722,5.7426,0.1799,-0.0001,-0.0000,-0.6189,flat,18.0,0,9.680
610,19.52,1.4954,5.4075,0.1799,-0.0003,-0.0000,-0.7380,flat,18.0,0,9.230
620,19.84,1.8830,5.0223,0.1798,-0.0004,-0.0000,-0.8356,flat,18.0,0,8.751
630,20.16,2.2386,4.5987,0.1798,-0.0004,-0.0000,-0.9231,flat,18.0,0,8.250
640,20.48,2.5622,4.1438,0.1798,-0.0003,-0.0000,-1.0011,flat,18.0,0,7.733
650,20.80,2.8539,3.6638,0.1797,-0.0003,-0.0000,-1.0704,flat,18.0,0,7.204
660,21.12,3.1151,3.1635,0.1797,-0.0002,-0.0000,-1.1322,flat,18.0,0,6.665
670,21.44,3.3468,2.6472,0.1797,-0.0002,-0.0000,-1.1873,flat,18.0,0,6.118
680,21.76,3.5512,2.1181,0.1797,-0.0002,-0.0000,-1.2369,flat,18.0,0,5.567
690,22.08,3.7306,1.5799,0.1797,-0.0002,-0.0000,-1.2800,flat,18.0,0,5.012
700,22.40,3.8878,1.0345,0.1797,-0.0001,-0.0000,-1.3191,flat,18.0,0,4.455
710,22.72,4.0243,0.4829,0.1797,-0.0001,-0.0000,-1.3561,flat,18.0,0,3.895
720,23.04,4.1408,-0.0735,0.1797,-0.0001,-0.0000,-1.3920,flat,18.0,0,3.334
730,23.36,4.2375,-0.6338,0.1797,-0.0001,-0.0000,-1.4278,flat,18.0,0,2.773
740,23.68,4.3142,-1.1969,0.1797,-0.0001,0.0000,-1.4653,flat,18.0,0,2.211
750,24.00,4.3694,-1.7615,0.1797,-0.0001,0.0000,-1.5081,flat,18.0,0,1.651
760,24.32,4.3997,-2.3258,0.1797,-0.0002,0.0000,-1.5661,flat,18.0,0,1.093
770,24.64,4.3947,-2.8812,0.1798,-0.0001,0.0000,-1.6874,flat,18.0,1,7.485
780,24.96,4.3113,-3.4136,0.1799,-0.0001,-0.0000,-1.8582,flat,18.0,1,7.045
790,25.28,4.1470,-3.9071,0.1798,-0.0001,-0.0002,-1.9616,flat,18.0,1,6.586
800,25.60,3.9227,-4.4069,0.1798,-0.0004,-0.0001,-2.0634,flat,18.0,1,6.087
810,25.92,3.6478,-4.8865,0.1798,-0.0004,-0.0000,-2.1441,flat,18.0,1,5.570
820,26.24,3.3344,-5.3476,0.1797,-0.0002,-0.0000,-2.2066,flat,18.0,1,5.040
830,26.56,2.9925,-5.7896,0.1797,-0.0002,-0.0000,-2.2636,flat,18.0,1,4.505
840,26.88,2.6255,-6.2111,0.1797,-0.0002,-0.0000,-2.3198,flat,18.0,1,3.966
850,27.20,2.2346,-6.6114,0.1797,-0.0002,-0.0000,-2.3736,flat,18.0,1,3.423
860,27.52,1.8224,-6.9899,0.1797,-0.0002,-0.0000,-2.4276,flat,18.0,1,2.878
870,27.84,1.3900,-7.3458,0.1797,-0.0002,-0.0000,-2.4849,flat,18.0,1,2.331
880,28.16,0.9378,-7.6773,0.1797,-0.0002,-0.0000,-2.5492,flat,18.0,1,1.783
890,28.48,0.4661,-7.9778,0.1798,-0.0003,0.0000,-2.6288,flat,18.0,1,1.236
900,28.80,-0.0215,-8.2327,0.1798,-0.0002,0.0003,-2.7621,flat,18.0,2,5.392
910,29.12,-0.4671,-8.3748,0.1799,-0.0000,-0.0000,-3.1010,flat,18.0,2,5.255
920,29.44,-0.9560,-8.3660,0.1799,-0.0002,0.0000,2.8826,flat,18.0,2,5.002
930,29.76,-1.4182,-8.2194,0.1799,-0.0000,-0.0000,2.6957,flat,18.0,2,4.670
940,30.08,-1.8744,-7.9657,0.1799,-0.0001,-0.0000,2.5132,flat,18.0,2,4.267
950,30.40,-2.2870,-7.6269,0.1799,-0.0002,-0.0000,2.3755,flat,18.0,2,3.821
960,30.72,-2.6559,-7.2317,0.1799,-0.0003,-0.0000,2.2528,flat,18.0,2,3.353
970,31.04,-2.9812,-6.7915,0.1799,-0.0003,-0.0000,2.1308,flat,18.0,2,2.870
980,31.36,-3.2561,-6.3131,0.1799,-0.0003,-0.0000,2.0076,flat,18.0,2,2.376
990,31.68,-3.4737,-5.8039,0.1799,-0.0002,-0.0000,1.8792,flat,18.0,2,1.877
1000,32.00,-3.6260,-5.2720,0.1799,-0.0001,-0.0000,1.7375,flat,18.0,2,1.379
1010,32.32,-3.7013,-4.7285,0.1799,-0.0001,0.0000,1.5639,flat,18.0,2,0.896
1020,32.64,-3.6830,-4.1761,0.1798,-0.0001,-0.0001,1.4887,flat,18.0,3,10.574
1030,32.96,-3.6314,-3.6110,0.1797,-0.0001,-0.0000,1.4490,flat,18.0,3,10.015
1040,33.28,-3.5582,-3.0475,0.1797,-0.0001,-0.0000,1.4171,flat,18.0,3,9.453
1050,33.60,-3.4675,-2.4856,0.1797,-0.0001,-0.0000,1.3903,flat,18.0,3,8.888
1060,33.92,-3.3621,-1.9254,0.1797,-0.0001,-0.0000,1.3673,flat,18.0,3,8.321
1070,34.24,-3.2439,-1.3670,0.1797,-0.0001,-0.0000,1.3474,flat,18.0,3,7.752
1080,34.56,-3.1149,-0.8104,0.1797,-0.0001,-0.0000,1.3301,flat,18.0,3,7.183
1090,34.88,-2.9764,-0.2557,0.1797,-0.0001,-0.0000,1.3147,flat,18.0,3,6.612
1100,35.20,-2.8294,0.2974,0.1797,-0.0000,-0.0000,1.3010,flat,18.0,3,6.040
1110,35.52,-2.6750,0.8486,0.1797,-0.0000,-0.0000,1.2885,flat,18.0,3,5.469
1120,35.84,-2.5138,1.3983,0.1797,-0.0000,-0.0000,1.2772,flat,18.0,3,4.896
1130,36.16,-2.3463,1.9462,0.1797,-0.0000,-0.0000,1.2666,flat,18.0,3,4.323
1140,36.48,-2.1731,2.4926,0.1797,-0.0000,-0.0000,1.2566,flat,18.0,3,3.750
1150,36.80,-1.9945,3.0372,0.1797,-0.0000,-0.0000,1.2469,flat,18.0,3,3.177
1160,37.12,-1.8105,3.5801,0.1797,-0.0000,0.0000,1.2372,flat,18.0,3,2.604
1170,37.44,-1.6214,4.1210,0.1797,-0.0000,0.0000,1.2272,flat,18.0,3,2.031
1180,37.76,-1.4268,4.6596,0.1797,-0.0000,0.0000,1.2160,flat,18.0,3,1.458
1190,38.08,-1.2261,5.1951,0.1797,-0.0000,0.0000,1.2020,flat,18.0,3,0.887
1200,38.40,-1.0409,5.6282,0.1798,0.0004,0.0001,0.9209,flat,18.0,0,10.462
1210,38.72,-0.7632,5.8980,0.1799,0.0001,-0.0000,0.5308,flat,18.0,0,10.562
1220,39.04,-0.3853,6.0794,0.1799,0.0000,-0.0001,0.1524,flat,18.0,0,10.551
1230,39.36,0.0774,6.1232,0.1799,-0.0001,-0.0000,-0.1776,flat,18.0,0,10.397
1240,39.68,0.5612,6.0079,0.1799,-0.0001,-0.0000,-0.4181,flat,18.0,0,10.106
1250,40.00,1.0247,5.7680,0.1799,-0.0001,-0.0000,-0.5983,flat,18.0,0,9.720
1260,40.32,1.4526,5.4419,0.1799,-0.0003,-0.0000,-0.7240,flat,18.0,0,9.275
1270,40.64,1.8449,5.0625,0.1798,-0.0004,-0.0000,-0.8232,flat,18.0,0,8.800
1280,40.96,2.2046,4.6437,0.1798,-0.0004,-0.0000,-0.9121,flat,18.0,0,8.302
1290,41.28,2.5324,4.1926,0.1798,-0.0003,-0.0000,-0.9916,flat,18.0,0,7.787
1300,41.60,2.8281,3.7154,0.1797,-0.0003,-0.0000,-1.0622,flat,18.0,0,7.260
1310,41.92,3.0929,3.2175,0.1797,-0.0002,-0.0000,-1.1251,flat,18.0,0,6.722
1320,42.24,3.3280,2.7029,0.1797,-0.0002,-0.0000,-1.1812,flat,18.0,0,6.176
1330,42.56,3.5354,2.1752,0.1797,-0.0002,-0.0000,-1.2316,flat,18.0,0,5.625
1340,42.88,3.7174,1.6377,0.1797,-0.0002,-0.0000,-1.2758,flat,18.0,0,5.071
1350,43.20,3.8768,1.0931,0.1797,-0.0001,-0.0000,-1.3154,flat,18.0,0,4.514
1360,43.52,4.0152,0.5421,0.1797,-0.0001,-0.0000,-1.3528,flat,18.0,0,3.955
1370,43.84,4.1335,-0.0139,0.1797,-0.0001,-0.0000,-1.3889,flat,18.0,0,3.394
1380,44.16,4.2319,-0.5738,0.1797,-0.0001,-0.0000,-1.4248,flat,18.0,0,2.833
1390,44.48,4.3102,-1.1367,0.1797,-0.0001,0.0000,-1.4622,flat,18.0,0,2.271
1400,44.80,4.3672,-1.7012,0.1797,-0.0001,0.0000,-1.5042,flat,18.0,0,1.710
1410,45.12,4.3997,-2.2657,0.1797,-0.0002,0.0000,-1.5594,flat,18.0,0,1.153
1420,45.44,4.3988,-2.8232,0.1798,-0.0002,0.0000,-1.6702,flat,18.0,1,7.530
1430,45.76,4.3252,-3.3572,0.1799,-0.0000,-0.0000,-1.8443,flat,18.0,1,7.094
1440,46.08,4.1675,-3.8542,0.1798,-0.0001,-0.0003,-1.9520,flat,18.0,1,6.637
1450,46.40,3.9484,-4.3542,0.1798,-0.0003,-0.0001,-2.0542,flat,18.0,1,6.141
1460,46.72,3.6780,-4.8358,0.1798,-0.0004,-0.0000,-2.1369,flat,18.0,1,5.625
1470,47.04,3.3680,-5.2987,0.1797,-0.0002,-0.0000,-2.2008,flat,18.0,1,5.097
1480,47.36,3.0288,-5.7428,0.1797,-0.0002,-0.0000,-2.2577,flat,18.0,1,4.561
1490,47.68,2.6643,-6.1665,0.1797,-0.0002,-0.0000,-2.3139,flat,18.0,1,4.022
1500,48.00,2.2758,-6.5691,0.1797,-0.0002,-0.0000,-2.3680,flat,18.0,1,3.480
1510,48.32,1.8659,-6.9500,0.1797,-0.0002,-0.0000,-2.4216,flat,18.0,1,2.935
1520,48.64,1.4356,-7.3085,0.1797,-0.0002,-0.0000,-2.4784,flat,18.0,1,2.388
1530,48.96,0.9856,-7.6428,0.1797,-0.0002,-0.0000,-2.5416,flat,18.0,1,1.840
1540,49.28,0.5160,-7.9472,0.1798,-0.0003,0.0000,-2.6188,flat,18.0,1,1.293
1550,49.60,0.0277,-8.2102,0.1798,-0.0004,0.0000,-2.7320,flat,18.0,2,0.753
1560,49.92,-0.4179,-8.3652,0.1799,0.0001,-0.0000,-3.0656,flat,18.0,2,5.273
1570,50.24,-0.9043,-8.3742,0.1799,0.0000,-0.0001,2.9062,flat,18.0,2,5.033
1580,50.56,-1.3682,-8.2386,0.1798,-0.0001,-0.0001,2.7193,flat,18.0,2,4.708
1590,50.88,-1.8286,-7.9959,0.1799,-0.0001,0.0000,2.5298,flat,18.0,2,4.311
1600,51.20,-2.2458,-7.6644,0.1799,-0.0002,-0.0000,2.3885,flat,18.0,2,3.868
1610,51.52,-2.6192,-7.2744,0.1799,-0.0003,-0.0000,2.2656,flat,18.0,2,3.402
1620,51.84,-2.9494,-6.8385,0.1799,-0.0003,-0.0000,2.1436,flat,18.0,2,2.920
1630,52.16,-3.2298,-6.3638,0.1799,-0.0003,-0.0000,2.0206,flat,18.0,2,2.427
1640,52.48,-3.4538,-5.8575,0.1799,-0.0003,-0.0000,1.8931,flat,18.0,2,1.928
1650,52.80,-3.6134,-5.3275,0.1799,-0.0001,-0.0000,1.7533,flat,18.0,2,1.430
1660,53.12,-3.6975,-4.7845,0.1799,-0.0001,0.0000,1.5845,flat,18.0,2,0.944
1670,53.44,-3.6869,-4.2342,0.1798,-0.0001,-0.0001,1.4937,flat,18.0,3,10.631
1680,53.76,-3.6381,-3.6690,0.1798,-0.0001,-0.0000,1.4530,flat,18.0,3,10.073
1690,54.08,-3.5671,-3.1054,0.1797,-0.0001,-0.0000,1.4204,flat,18.0,3,9.511
1700,54.40,-3.4782,-2.5433,0.1797,-0.0001,-0.0000,1.3930,flat,18.0,3,8.946
1710,54.72,-3.3743,-1.9829,0.1797,-0.0001,-0.0000,1.3697,flat,18.0,3,8.379
1720,55.04,-3.2575,-1.4243,0.1797,-0.0001,-0.0000,1.3495,flat,18.0,3,7.811
1730,55.36,-3.1296,-0.8675,0.1797,-0.0001,-0.0000,1.3318,flat,18.0,3,7.241
1740,55.68,-2.9920,-0.3126,0.1797,-0.0001,-0.0000,1.3162,flat,18.0,3,6.671
1750,56.00,-2.8459,0.2406,0.1797,-0.0000,-0.0000,1.3023,flat,18.0,3,6.100
1760,56.32,-2.6921,0.7920,0.1797,-0.0000,-0.0000,1.2897,flat,18.0,3,5.528
1770,56.64,-2.5316,1.3418,0.1797,-0.0000,-0.0000,1.2782,flat,18.0,3,4.955
1780,56.96,-2.3647,1.8900,0.1797,-0.0000,-0.0000,1.2676,flat,18.0,3,4.383
1790,57.28,-2.1920,2.4364,0.1797,-0.0000,-0.0000,1.2575,flat,18.0,3,3.810
1800,57.60,-2.0139,2.9812,0.1797,-0.0000,-0.0000,1.2477,flat,18.0,3,3.236
1810,57.92,-1.8304,3.5243,0.1797,-0.0000,0.0000,1.2381,flat,18.0,3,2.663
1820,58.24,-1.6417,4.0654,0.1797,-0.0000,0.0000,1.2281,flat,18.0,3,2.090
1830,58.56,-1.4476,4.6042,0.1797,-0.0000,0.0000,1.2170,flat,18.0,3,1.518
1840,58.88,-1.2475,5.1400,0.1797,-0.0000,0.0000,1.2035,flat,18.0,3,0.946
1850,59.20,-1.0634,5.5925,0.1798,0.0004,0.0001,0.9599,flat,18.0,0,10.443
1860,59.52,-0.7962,5.8730,0.1799,0.0001,-0.0000,0.5697,flat,18.0,0,10.556
1870,59.84,-0.4288,6.0645,0.1799,0.0000,-0.0001,0.1890,flat,18.0,0,10.557
1880,60.16,0.0284,6.1246,0.1799,-0.0000,-0.0000,-0.1502,flat,18.0,0,10.418
1890,60.48,0.5126,6.0241,0.1799,-0.0000,-0.0000,-0.3996,flat,18.0,0,10.139
1900,60.80,0.9791,5.7945,0.1799,-0.0001,-0.0000,-0.5828,flat,18.0,0,9.760
1910,61.12,1.4105,5.4755,0.1799,-0.0002,-0.0000,-0.7134,flat,18.0,0,9.320
1920,61.44,1.8064,5.1005,0.1798,-0.0004,-0.0000,-0.8137,flat,18.0,0,8.847
1930,61.76,2.1693,4.6853,0.1798,-0.0004,-0.0000,-0.9036,flat,18.0,0,8.351
1940,62.08,2.5004,4.2372,0.1798,-0.0004,-0.0000,-0.9839,flat,18.0,0,7.838
1950,62.40,2.7993,3.7624,0.1797,-0.0003,-0.0000,-1.0554,flat,18.0,0,7.311
1960,62.72,3.0671,3.2664,0.1797,-0.0002,-0.0000,-1.1190,flat,18.0,0,6.774
1970,63.04,3.3053,2.7533,0.1797,-0.0002,-0.0000,-1.1758,flat,18.0,0,6.230
1980,63.36,3.5154,2.2268,0.1797,-0.0002,-0.0000,-1.2267,flat,18.0,0,5.679
1990,63.68,3.6999,1.6901,0.1797,-0.0002,0.0000,-1.2717,flat,18.0,0,5.125
2000,64.00,3.8615,1.1462,0.1797,-0.0001,-0.0000,-1.3115,flat,18.0,0,4.568
2010,64.32,4.0020,0.5958,0.1797,-0.0001,-0.0000,-1.3491,flat,18.0,0,4.009
2020,64.64,4.1223,0.0403,0.1797,-0.0001,-0.0000,-1.3852,flat,18.0,0,3.449
2030,64.96,4.2227,-0.5193,0.1797,-0.0001,-0.0000,-1.4211,flat,18.0,0,2.887
2040,65.28,4.3032,-1.0819,0.1797,-0.0001,-0.0000,-1.4582,flat,18.0,0,2.326
2050,65.60,4.3624,-1.6464,0.1797,-0.0001,0.0000,-1.4995,flat,18.0,0,1.765
2060,65.92,4.3976,-2.2110,0.1797,-0.0002,0.0000,-1.5529,flat,18.0,0,1.207
2070,66.24,4.4009,-2.7702,0.1798,-0.0002,-0.0000,-1.6543,flat,18.0,1,7.570
2080,66.56,4.3368,-3.3060,0.1799,-0.0001,-0.0000,-1.8292,flat,18.0,1,7.139
2090,66.88,4.1867,-3.8076,0.1798,-0.0000,0.0002,-1.9488,flat,18.0,1,6.683
2100,67.20,3.9723,-4.3063,0.1798,-0.0003,-0.0001,-2.0450,flat,18.0,1,6.190
2110,67.52,3.7064,-4.7899,0.1798,-0.0004,-0.0000,-2.1298,flat,18.0,1,5.676
2120,67.84,3.3997,-5.2546,0.1797,-0.0002,-0.0000,-2.1951,flat,18.0,1,5.148
2130,68.16,3.0631,-5.7006,0.1797,-0.0002,-0.0000,-2.2522,flat,18.0,1,4.614
2140,68.48,2.7010,-6.1263,0.1797,-0.0002,-0.0000,-2.3085,flat,18.0,1,4.075
2150,68.80,2.3148,-6.5310,0.1797,-0.0002,-0.0000,-2.3628,flat,18.0,1,3.533
2160,69.12,1.9068,-6.9141,0.1797,-0.0002,-0.0000,-2.4164,flat,18.0,1,2.988
2170,69.44,1.4785,-7.2748,0.1797,-0.0002,-0.0000,-2.4727,flat,18.0,1,2.441
2180,69.76,1.0303,-7.6115,0.1797,-0.0002,-0.0000,-2.5351,flat,18.0,1,1.893
2190,70.08,0.5627,-7.9192,0.1798,-0.0003,0.0000,-2.6103,flat,18.0,1,1.346
2200,70.40,0.0760,-8.1869,0.1798,-0.0004,0.0000,-2.7179,flat,18.0,1,0.805
2210,70.72,-0.3729,-8.3555,0.1799,0.0001,-0.0000,-3.0303,flat,18.0,2,5.290
2220,71.04,-0.8557,-8.3806,0.1799,-0.0002,0.0000,2.9364,flat,18.0,2,5.062
2230,71.36,-1.3214,-8.2568,0.1798,-0.0001,-0.0002,2.7396,flat,18.0,2,4.743
2240,71.68,-1.7857,-8.0245,0.1799,-0.0001,-0.0000,2.5462,flat,18.0,2,4.352
2250,72.00,-2.2071,-7.7003,0.1799,-0.0001,-0.0000,2.4006,flat,18.0,2,3.913
2260,72.32,-2.5847,-7.3151,0.1799,-0.0003,-0.0000,2.2776,flat,18.0,2,3.449
2270,72.64,-2.9194,-6.8835,0.1799,-0.0003,-0.0000,2.1555,flat,18.0,2,2.968
2280,72.96,-3.2050,-6.4122,0.1799,-0.0003,-0.0000,2.0327,flat,18.0,2,2.476
2290,73.28,-3.4348,-5.9086,0.1799,-0.0003,-0.0000,1.9059,flat,18.0,2,1.977
2300,73.60,-3.6011,-5.3806,0.1799,-0.0002,-0.0000,1.7678,flat,18.0,2,1.478
2310,73.92,-3.6932,-4.8382,0.1799,-0.0001,0.0000,1.6032,flat,18.0,2,0.991
2320,74.24,-3.6904,-4.2899,0.1798,-0.0001,-0.0001,1.4978,flat,18.0,3,10.686
2330,74.56,-3.6439,-3.7247,0.1798,-0.0002,-0.0000,1.4564,flat,18.0,3,10.128
2340,74.88,-3.5748,-3.1609,0.1797,-0.0001,-0.0000,1.4232,flat,18.0,3,9.566
2350,75.20,-3.4874,-2.5987,0.1797,-0.0001,-0.0000,1.3954,flat,18.0,3,9.002
2360,75.52,-3.3848,-2.0381,0.1797,-0.0001,-0.0000,1.3717,flat,18.0,3,8.435
2370,75.84,-3.2691,-1.4793,0.1797,-0.0001,-0.0000,1.3513,flat,18.0,3,7.867
2380,76.16,-3.1422,-0.9224,0.1797,-0.0001,-0.0000,1.3334,flat,18.0,3,7.298
2390,76.48,-3.0055,-0.3673,0.1797,-0.0001,-0.0000,1.3177,flat,18.0,3,6.727
2400,76.80,-2.8601,0.1861,0.1797,-0.0001,-0.0000,1.3036,flat,18.0,3,6.156
2410,77.12,-2.7071,0.7377,0.1797,-0.0000,-0.0000,1.2909,flat,18.0,3,5.584
2420,77.44,-2.5472,1.2876,0.1797,-0.0000,-0.0000,1.2794,flat,18.0,3,5.012
2430,77.76,-2.3809,1.8359,0.1797,-0.0000,-0.0000,1.2686,flat,18.0,3,4.439
2440,78.08,-2.2089,2.3826,0.1797,-0.0000,-0.0000,1.2585,flat,18.0,3,3.866
2450,78.40,-2.0313,2.9276,0.1797,-0.0000,-0.0000,1.2488,flat,18.0,3,3.293
2460,78.72,-1.8484,3.4708,0.1797,-0.0000,-0.0000,1.2391,flat,18.0,3,2.720
2470,79.04,-1.6602,4.0121,0.1797,-0.0000,0.0000,1.2292,flat,18.0,3,2.147
2480,79.36,-1.4667,4.5512,0.1797,-0.0000,0.0000,1.2183,flat,18.0,3,1.574
2490,79.68,-1.2673,5.0874,0.1797,-0.0000,0.0000,1.2051,flat,18.0,3,1.002
2500,80.00,-1.0832,5.5577,0.1798,0.0003,0.0001,0.9986,flat,18.0,0,10.423
2510,80.32,-0.8270,5.8499,0.1799,0.0002,-0.0000,0.6088,flat,18.0,0,10.550
2520,80.64,-0.4700,6.0509,0.1799,0.0000,-0.0001,0.2259,flat,18.0,0,10.563
2530,80.96,-0.0191,6.1269,0.1799,-0.0001,-0.0000,-0.1196,flat,18.0,0,10.439
2540,81.28,0.4647,6.0412,0.1799,-0.0001,-0.0000,-0.3754,flat,18.0,0,10.172
2550,81.60,0.9343,5.8230,0.1799,-0.0001,-0.0000,-0.5668,flat,18.0,0,9.802
2560,81.92,1.3692,5.5114,0.1799,-0.0002,-0.0000,-0.7029,flat,18.0,0,9.367
2570,82.24,1.7688,5.1409,0.1798,-0.0004,-0.0000,-0.8042,flat,18.0,0,8.896
2580,82.56,2.1348,4.7293,0.1798,-0.0004,-0.0000,-0.8951,flat,18.0,0,8.402
2590,82.88,2.4691,4.2842,0.1798,-0.0004,-0.0000,-0.9764,flat,18.0,0,7.891
2600,83.20,2.7711,3.8118,0.1798,-0.0003,-0.0000,-1.0487,flat,18.0,0,7.365
2610,83.52,3.0420,3.3176,0.1797,-0.0002,-0.0000,-1.1130,flat,18.0,0,6.829
2620,83.84,3.2831,2.8061,0.1797,-0.0002,-0.0000,-1.1704,flat,18.0,0,6.285
2630,84.16,3.4958,2.2808,0.1797,-0.0002,-0.0000,-1.2219,flat,18.0,0,5.735
2640,84.48,3.6828,1.7450,0.1797,-0.0002,0.0000,-1.2675,flat,18.0,0,5.181
2650,84.80,3.8465,1.2018,0.1797,-0.0001,-0.0000,-1.3076,flat,18.0,0,4.625
2660,85.12,3.9891,0.6520,0.1797,-0.0001,-0.0000,-1.3454,flat,18.0,0,4.066
2670,85.44,4.1113,0.0969,0.1797,-0.0001,-0.0000,-1.3817,flat,18.0,0,3.506
2680,85.76,4.2138,-0.4623,0.1797,-0.0001,-0.0000,-1.4175,flat,18.0,0,2.944
2690,86.08,4.2962,-1.0247,0.1797,-0.0001,-0.0000,-1.4544,flat,18.0,0,2.383
2700,86.40,4.3577,-1.5890,0.1797,-0.0001,0.0000,-1.4951,flat,18.0,0,1.822
2710,86.72,4.3954,-2.1538,0.1797,-0.0002,0.0000,-1.5467,flat,18.0,0,1.263
2720,87.04,4.4031,-2.7145,0.1798,-0.0002,0.0001,-1.6385,flat,18.0,1,7.613
2730,87.36,4.3480,-3.2522,0.1799,-0.0001,-0.0000,-1.8135,flat,18.0,1,7.185
2740,87.68,4.2023,-3.7666,0.1799,-0.0002,0.0004,-1.9407,rough,14.0,1,6.722
2750,88.00,3.9964,-4.2560,0.1798,-0.0003,-0.0001,-2.0354,flat,18.0,1,6.241
2760,88.32,3.7354,-4.7417,0.1798,-0.0004,-0.0000,-2.1223,flat,18.0,1,5.729
2770,88.64,3.4322,-5.2082,0.1797,-0.0003,-0.0000,-2.1892,flat,18.0,1,5.202
2780,88.96,3.0983,-5.6562,0.1797,-0.0002,-0.0000,-2.2464,flat,18.0,1,4.668
2790,89.28,2.7387,-6.0840,0.1797,-0.0002,-0.0000,-2.3028,flat,18.0,1,4.130
2800,89.60,2.3549,-6.4908,0.1797,-0.0002,-0.0000,-2.3574,flat,18.0,1,3.588
2810,89.92,1.9490,-6.8762,0.1797,-0.0002,-0.0000,-2.4108,flat,18.0,1,3.043
2820,90.24,1.5227,-7.2392,0.1797,-0.0002,-0.0000,-2.4668,flat,18.0,1,2.497
2830,90.56,1.0766,-7.5785,0.1797,-0.0002,-0.0000,-2.5283,flat,18.0,1,1.949
2840,90.88,0.6109,-7.8896,0.1797,-0.0003,0.0000,-2.6017,flat,18.0,1,1.402
2850,91.20,0.1261,-8.1621,0.1798,-0.0004,0.0000,-2.7041,flat,18.0,1,0.859
2860,91.52,-0.3267,-8.3437,0.1799,0.0001,-0.0000,-2.9951,flat,18.0,2,5.305
2870,91.84,-0.8058,-8.3860,0.1800,0.0002,-0.0000,2.9599,flat,18.0,2,5.091
2880,92.16,-1.2722,-8.2731,0.1799,-0.0001,-0.0003,2.7644,flat,18.0,2,4.779
2890,92.48,-1.7405,-8.0526,0.1799,-0.0001,-0.0000,2.5630,flat,18.0,2,4.394
2900,92.80,-2.1662,-7.7362,0.1799,-0.0001,-0.0000,2.4131,flat,18.0,2,3.959
2910,93.12,-2.5483,-7.3561,0.1799,-0.0003,-0.0000,2.2899,flat,18.0,2,3.497
2920,93.44,-2.8875,-6.9288,0.1799,-0.0003,-0.0000,2.1678,flat,18.0,2,3.017
2930,93.76,-3.1784,-6.4612,0.1799,-0.0003,-0.0000,2.0453,flat,18.0,2,2.526
2940,94.08,-3.4142,-5.9605,0.1799,-0.0003,-0.0000,1.9191,flat,18.0,2,2.028
2950,94.40,-3.5873,-5.4346,0.1799,-0.0002,-0.0000,1.7827,flat,18.0,2,1.528
2960,94.72,-3.6876,-4.8931,0.1799,-0.0001,0.0000,1.6218,flat,18.0,2,1.039
2970,95.04,-3.6937,-4.3468,0.1799,-0.0002,-0.0001,1.5024,flat,18.0,3,10.742
2980,95.36,-3.6498,-3.7815,0.1798,-0.0002,-0.0000,1.4600,flat,18.0,3,10.184
2990,95.68,-3.5827,-3.2176,0.1797,-0.0001,-0.0000,1.4264,flat,18.0,3,9.623
3000,96.00,-3.4971,-2.6552,0.1797,-0.0001,-0.0000,1.3981,flat,18.0,3,9.059
3010,96.32,-3.3959,-2.0944,0.1797,-0.0001,-0.0000,1.3740,flat,18.0,3,8.492
3020,96.64,-3.2815,-1.5355,0.1797,-0.0001,-0.0000,1.3532,flat,18.0,3,7.924
3030,96.96,-3.1556,-0.9784,0.1797,-0.0001,-0.0000,1.3351,flat,18.0,3,7.355
3040,97.28,-3.0199,-0.4231,0.1797,-0.0001,-0.0000,1.3192,flat,18.0,3,6.785
3050,97.60,-2.8754,0.1305,0.1797,-0.0001,-0.0000,1.3050,flat,18.0,3,6.213
3060,97.92,-2.7231,0.6823,0.1797,-0.0000,-0.0000,1.2922,flat,18.0,3,5.642
3070,98.24,-2.5638,1.2324,0.1797,-0.0000,-0.0000,1.2805,flat,18.0,3,5.069
3080,98.56,-2.3982,1.7808,0.1797,-0.0000,-0.0000,1.2697,flat,18.0,3,4.497
3090,98.88,-2.2267,2.3276,0.1797,-0.0000,-0.0000,1.2595,flat,18.0,3,3.924
3100,99.20,-2.0496,2.8728,0.1797,-0.0000,-0.0000,1.2497,flat,18.0,3,3.351
3110,99.52,-1.8672,3.4162,0.1797,-0.0000,-0.0000,1.2400,flat,18.0,3,2.777
3120,99.84,-1.6796,3.9577,0.1797,-0.0000,0.0000,1.2302,flat,18.0,3,2.204
3130,100.16,-1.4866,4.4970,0.1797,-0.0000,0.0000,1.2194,flat,18.0,3,1.632
3140,100.48,-1.2878,5.0336,0.1797,-0.0000,0.0000,1.2066,flat,18.0,3,1.060
3150,100.80,-1.1026,5.5200,0.1798,0.0002,0.0002,1.0367,flat,18.0,0,10.400
3160,101.12,-0.8576,5.8248,0.1799,0.0002,-0.0000,0.6480,flat,18.0,0,10.543
3170,101.44,-0.5110,6.0348,0.1799,0.0001,-0.0001,0.2631,flat,18.0,0,10.567
3180,101.76,-0.0669,6.1264,0.1799,-0.0000,-0.0000,-0.0897,flat,18.0,0,10.458
3190,102.08,0.4164,6.0563,0.1799,0.0000,-0.0000,-0.3559,flat,18.0,0,10.204
3200,102.40,0.8886,5.8493,0.1799,-0.0001,-0.0000,-0.5504,flat,18.0,0,9.842
3210,102.72,1.3270,5.5454,0.1799,-0.0002,-0.0000,-0.6920,flat,18.0,0,9.412
3220,103.04,1.7303,5.1795,0.1798,-0.0004,-0.0000,-0.7945,flat,18.0,0,8.944
3230,103.36,2.0995,4.7717,0.1798,-0.0004,-0.0000,-0.8864,flat,18.0,0,8.452
3240,103.68,2.4369,4.3296,0.1798,-0.0004,-0.0000,-0.9686,flat,18.0,0,7.942
3250,104.00,2.7422,3.8597,0.1798,-0.0003,-0.0000,-1.0418,flat,18.0,0,7.418
3260,104.32,3.0161,3.3675,0.1797,-0.0002,-0.0000,-1.1069,flat,18.0,0,6.883
3270,104.64,3.2602,2.8575,0.1797,-0.0002,-0.0000,-1.1650,flat,18.0,0,6.339
3280,104.96,3.4756,2.3335,0.1797,-0.0002,-0.0000,-1.2170,flat,18.0,0,5.790
3290,105.28,3.6651,1.7984,0.1797,-0.0002,0.0000,-1.2634,flat,18.0,0,5.236
3300,105.60,3.8309,1.2559,0.1797,-0.0001,-0.0000,-1.3038,flat,18.0,0,4.680
3310,105.92,3.9755,0.7067,0.1797,-0.0001,-0.0000,-1.3417,flat,18.0,0,4.121
3320,106.24,4.0998,0.1521,0.1797,-0.0001,-0.0000,-1.3781,flat,18.0,0,3.561
3330,106.56,4.2042,-0.4068,0.1797,-0.0001,-0.0000,-1.4139,flat,18.0,0,3.000
3340,106.88,4.2887,-0.9689,0.1797,-0.0001,-0.0000,-1.4506,flat,18.0,0,2.438
3350,107.20,4.3523,-1.5331,0.1797,-0.0001,0.0000,-1.4907,flat,18.0,0,1.877
3360,107.52,4.3927,-2.0980,0.1797,-0.0002,0.0000,-1.5407,flat,18.0,0,1.318
3370,107.84,4.4035,-2.6600,0.1798,-0.0003,0.0000,-1.6227,flat,18.0,1,0.765
3380,108.16,4.3579,-3.1996,0.1799,-0.0000,-0.0000,-1.7977,flat,18.0,1,7.229
3390,108.48,4.2176,-3.7235,0.1799,-0.0002,-0.0000,-1.9374,rough,14.0,1,6.763
3400,108.80,4.0196,-4.2068,0.1798,-0.0002,-0.0001,-2.0256,flat,18.0,1,6.291
3410,109.12,3.7634,-4.6945,0.1798,-0.0004,-0.0000,-2.1146,flat,18.0,1,5.780
3420,109.44,3.4639,-5.1628,0.1797,-0.0003,-0.0000,-2.1832,flat,18.0,1,5.255
3430,109.76,3.1327,-5.6128,0.1797,-0.0002,-0.0000,-2.2408,flat,18.0,1,4.721
3440,110.08,2.7756,-6.0426,0.1797,-0.0002,-0.0000,-2.2972,flat,18.0,1,4.183
3450,110.40,2.3941,-6.4515,0.1797,-0.0002,-0.0000,-2.3522,flat,18.0,1,3.642
3460,110.72,1.9903,-6.8391,0.1797,-0.0002,-0.0000,-2.4055,flat,18.0,1,3.097
3470,111.04,1.5660,-7.2043,0.1797,-0.0002,-0.0000,-2.4611,flat,18.0,1,2.551
3480,111.36,1.1218,-7.5460,0.1797,-0.0002,-0.0000,-2.5218,flat,18.0,1,2.003
3490,111.68,0.6580,-7.8603,0.1797,-0.0003,0.0000,-2.5936,flat,18.0,1,1.456
3500,112.00,0.1750,-8.1373,0.1798,-0.0004,0.0000,-2.6916,flat,18.0,1,0.913
3510,112.32,-0.2822,-8.3308,0.1799,0.0001,-0.0000,-2.9592,flat,18.0,2,5.320
3520,112.64,-0.7564,-8.3890,0.1799,-0.0002,-0.0000,2.9921,flat,18.0,2,5.118
3530,112.96,-1.2253,-8.2890,0.1799,-0.0001,-0.0002,2.7857,flat,18.0,2,4.813
3540,113.28,-1.6958,-8.0795,0.1799,-0.0002,-0.0000,2.5807,flat,18.0,2,4.435
3550,113.60,-2.1258,-7.7712,0.1799,-0.0001,-0.0000,2.4257,flat,18.0,2,4.004
3560,113.92,-2.5123,-7.3962,0.1799,-0.0003,-0.0000,2.3021,flat,18.0,2,3.543
3570,114.24,-2.8559,-6.9733,0.1799,-0.0003,-0.0000,2.1799,flat,18.0,2,3.066
3580,114.56,-3.1519,-6.5094,0.1799,-0.0003,-0.0000,2.0575,flat,18.0,2,2.576
3590,114.88,-3.3935,-6.0117,0.1799,-0.0003,-0.0000,1.9319,flat,18.0,2,2.078
3600,115.20,-3.5732,-5.4879,0.1799,-0.0002,-0.0000,1.7970,flat,18.0,2,1.578
3610,115.52,-3.6813,-4.9473,0.1799,-0.0001,0.0000,1.6396,flat,18.0,2,1.087
3620,115.84,-3.6970,-4.4032,0.1799,-0.0002,-0.0002,1.5067,flat,18.0,3,10.797
3630,116.16,-3.6552,-3.8378,0.1798,-0.0002,-0.0000,1.4639,flat,18.0,3,10.240
3640,116.48,-3.5902,-3.2737,0.1797,-0.0001,-0.0000,1.4294,flat,18.0,3,9.679
3650,116.80,-3.5063,-2.7112,0.1797,-0.0001,-0.0000,1.4007,flat,18.0,3,9.115
3660,117.12,-3.4065,-2.1502,0.1797,-0.0001,-0.0000,1.3762,flat,18.0,3,8.549
3670,117.44,-3.2933,-1.5911,0.1797,-0.0001,-0.0000,1.3552,flat,18.0,3,7.981
3680,117.76,-3.1685,-1.0338,0.1797,-0.0001,-0.0000,1.3368,flat,18.0,3,7.412
3690,118.08,-3.0337,-0.4783,0.1797,-0.0001,-0.0000,1.3207,flat,18.0,3,6.841
3700,118.40,-2.8900,0.0754,0.1797,-0.0001,-0.0000,1.3063,flat,18.0,3,6.270
3710,118.72,-2.7385,0.6273,0.1797,-0.0000,-0.0000,1.2934,flat,18.0,3,5.699
3720,119.04,-2.5799,1.1776,0.1797,-0.0000,-0.0000,1.2816,flat,18.0,3,5.126
3730,119.36,-2.4148,1.7262,0.1797,-0.0000,-0.0000,1.2707,flat,18.0,3,4.554
3740,119.68,-2.2439,2.2732,0.1797,-0.0000,-0.0000,1.2605,flat,18.0,3,3.981
3750,120.00,-2.0674,2.8185,0.1797,-0.0000,-0.0000,1.2507,flat,18.0,3,3.408
3760,120.32,-1.8855,3.3621,0.1797,-0.0000,-0.0000,1.2410,flat,18.0,3,2.835
3770,120.64,-1.6984,3.9038,0.1797,-0.0000,0.0000,1.2312,flat,18.0,3,2.261
3780,120.96,-1.5060,4.4434,0.1797,-0.0000,0.0000,1.2206,flat,18.0,3,1.689
3790,121.28,-1.3078,4.9803,0.1797,-0.0000,0.0000,1.2081,flat,18.0,3,1.117
3800,121.60,-1.1204,5.4814,0.1798,0.0001,0.0003,1.0742,flat,18.0,0,10.376
3810,121.92,-0.8869,5.7997,0.1799,0.0002,-0.0000,0.6871,flat,18.0,0,10.535
3820,122.24,-0.5505,6.0181,0.1799,0.0001,-0.0001,0.3007,flat,18.0,0,10.570
3830,122.56,-0.1141,6.1247,0.1799,-0.0000,-0.0000,-0.0574,flat,18.0,0,10.476
3840,122.88,0.3678,6.0700,0.1799,-0.0001,-0.0000,-0.3302,flat,18.0,0,10.235
3850,123.20,0.8428,5.8752,0.1799,-0.0001,-0.0000,-0.5330,flat,18.0,0,9.882
3860,123.52,1.2849,5.5794,0.1799,-0.0001,-0.0000,-0.6803,flat,18.0,0,9.458
3870,123.84,1.6918,5.2183,0.1798,-0.0003,-0.0000,-0.7848,flat,18.0,0,8.992
3880,124.16,2.0640,4.8144,0.1798,-0.0004,-0.0000,-0.8777,flat,18.0,0,8.503
3890,124.48,2.4047,4.3754,0.1798,-0.0004,-0.0000,-0.9608,flat,18.0,0,7.994
3900,124.80,2.7132,3.9080,0.1798,-0.0003,-0.0000,-1.0349,flat,18.0,0,7.471
3910,125.12,2.9902,3.4178,0.1797,-0.0002,-0.0000,-1.1007,flat,18.0,0,6.937
3920,125.44,3.2372,2.9094,0.1797,-0.0002,-0.0000,-1.1594,flat,18.0,0,6.394
3930,125.76,3.4553,2.3867,0.1797,-0.0002,-0.0000,-1.2120,flat,18.0,0,5.845
3940,126.08,3.6474,1.8525,0.1797,-0.0002,-0.0000,-1.2592,flat,18.0,0,5.292
3950,126.40,3.8154,1.3108,0.1797,-0.0001,-0.0000,-1.2998,flat,18.0,0,4.736
3960,126.72,3.9621,0.7622,0.1797,-0.0001,-0.0000,-1.3380,flat,18.0,0,4.178
3970,127.04,4.0884,0.2081,0.1797,-0.0001,-0.0000,-1.3745,flat,18.0,0,3.618
3980,127.36,4.1948,-0.3504,0.1797,-0.0001,-0.0000,-1.4103,flat,18.0,0,3.056
3990,127.68,4.2813,-0.9122,0.1797,-0.0001,-0.0000,-1.4468,flat,18.0,0,2.495
4000,128.00,4.3471,-1.4763,0.1797,-0.0001,0.0000,-1.4864,flat,18.0,0,1.934
4010,128.32,4.3900,-2.0412,0.1797,-0.0002,0.0000,-1.5351,flat,18.0,0,1.374
4020,128.64,4.4043,-2.6039,0.1798,-0.0003,0.0000,-1.6117,flat,18.0,0,0.820
4030,128.96,4.3670,-3.1461,0.1799,-0.0001,-0.0000,-1.7807,flat,18.0,1,7.274
4040,129.28,4.2354,-3.6716,0.1799,-0.0002,-0.0000,-1.9253,flat,18.0,1,6.811
4050,129.60,4.0425,-4.1565,0.1798,-0.0002,-0.0001,-2.0155,flat,18.0,1,6.342
4060,129.92,3.7913,-4.6463,0.1798,-0.0004,-0.0000,-2.1066,flat,18.0,1,5.833
4070,130.24,3.4955,-5.1165,0.1798,-0.0003,-0.0000,-2.1770,flat,18.0,1,5.308
4080,130.56,3.1671,-5.5683,0.1797,-0.0002,-0.0000,-2.2351,flat,18.0,1,4.775
4090,130.88,2.8125,-6.0003,0.1797,-0.0002,-0.0000,-2.2916,flat,18.0,1,4.238
4100,131.20,2.4334,-6.4112,0.1797,-0.0002,-0.0000,-2.3468,flat,18.0,1,3.696
4110,131.52,2.0317,-6.8010,0.1797,-0.0002,-0.0000,-2.4000,flat,18.0,1,3.152
4120,131.84,1.6095,-7.1685,0.1797,-0.0002,-0.0000,-2.4553,flat,18.0,1,2.606
4130,132.16,1.1673,-7.5127,0.1797,-0.0002,-0.0000,-2.5153,flat,18.0,1,2.058
4140,132.48,0.7055,-7.8302,0.1797,-0.0003,0.0000,-2.5856,flat,18.0,1,1.511
4150,132.80,0.2244,-8.1115,0.1798,-0.0004,0.0000,-2.6796,flat,18.0,1,0.967
4160,133.12,-0.2379,-8.3162,0.1799,0.0002,0.0000,-2.9237,flat,18.0,2,5.333
4170,133.44,-0.7071,-8.3913,0.1799,0.0000,-0.0000,3.0181,flat,18.0,2,5.144
4180,133.76,-1.1793,-8.3047,0.1799,-0.0000,-0.0002,2.8033,flat,18.0,2,4.847
4190,134.08,-1.6501,-8.1055,0.1799,-0.0002,0.0000,2.5989,flat,18.0,2,4.476
4200,134.40,-2.0846,-7.8057,0.1799,-0.0001,-0.0000,2.4392,flat,18.0,2,4.049
4210,134.72,-2.4754,-7.4361,0.1799,-0.0003,-0.0000,2.3144,flat,18.0,2,3.590
4220,135.04,-2.8234,-7.0177,0.1799,-0.0003,-0.0000,2.1922,flat,18.0,2,3.114
4230,135.36,-3.1245,-6.5576,0.1799,-0.0003,-0.0000,2.0699,flat,18.0,2,2.625
4240,135.68,-3.3718,-6.0629,0.1799,-0.0003,-0.0000,1.9448,flat,18.0,2,2.128
4250,136.00,-3.5582,-5.5413,0.1799,-0.0002,-0.0000,1.8113,flat,18.0,2,1.628
4260,136.32,-3.6741,-5.0019,0.1799,-0.0001,-0.0000,1.6570,flat,18.0,2,1.135
4270,136.64,-3.7003,-4.4592,0.1799,-0.0002,-0.0001,1.5118,flat,18.0,3,10.852
4280,136.96,-3.6605,-3.8945,0.1798,-0.0002,-0.0000,1.4678,flat,18.0,3,10.296
4290,137.28,-3.5977,-3.3302,0.1797,-0.0001,-0.0000,1.4326,flat,18.0,3,9.736
4300,137.60,-3.5155,-2.7675,0.1797,-0.0001,-0.0000,1.4034,flat,18.0,3,9.172
4310,137.92,-3.4172,-2.2064,0.1797,-0.0001,-0.0000,1.3785,flat,18.0,3,8.606
4320,138.24,-3.3053,-1.6471,0.1797,-0.0001,-0.0000,1.3571,flat,18.0,3,8.038
4330,138.56,-3.1816,-1.0896,0.1797,-0.0001,-0.0000,1.3386,flat,18.0,3,7.469
4340,138.88,-3.0477,-0.5339,0.1797,-0.0001,-0.0000,1.3222,flat,18.0,3,6.899
4350,139.20,-2.9049,0.0199,0.1797,-0.0001,-0.0000,1.3077,flat,18.0,3,6.328
4360,139.52,-2.7541,0.5721,0.1797,-0.0000,-0.0000,1.2946,flat,18.0,3,5.756
4370,139.84,-2.5961,1.1225,0.1797,-0.0000,-0.0000,1.2827,flat,18.0,3,5.184
4380,140.16,-2.4317,1.6713,0.1797,-0.0000,-0.0000,1.2718,flat,18.0,3,4.611
4390,140.48,-2.2614,2.2185,0.1797,-0.0000,-0.0000,1.2615,flat,18.0,3,4.038
4400,140.80,-2.0854,2.7639,0.1797,-0.0000,-0.0000,1.2516,flat,18.0,3,3.465
4410,141.12,-1.9041,3.3077,0.1797,-0.0000,-0.0000,1.2420,flat,18.0,3,2.892
4420,141.44,-1.7175,3.8496,0.1797,-0.0000,0.0000,1.2322,flat,18.0,3,2.319
4430,141.76,-1.5256,4.3894,0.1797,-0.0000,0.0000,1.2217,flat,18.0,3,1.746
4440,142.08,-1.3280,4.9266,0.1797,-0.0000,0.0000,1.2094,flat,18.0,3,1.174
4450,142.40,-1.1372,5.4405,0.1798,0.0000,0.0003,1.1114,flat,18.0,0,10.350
4460,142.72,-0.9155,5.7737,0.1798,0.0002,0.0000,0.7263,flat,18.0,0,10.526
4470,143.04,-0.5891,6.0000,0.1799,0.0001,-0.0001,0.3384,flat,18.0,0,10.571
4480,143.36,-0.1610,6.1211,0.1799,-0.0000,-0.0000,-0.0250,flat,18.0,0,10.493
4490,143.68,0.3194,6.0827,0.1799,0.0000,-0.0000,-0.3098,flat,18.0,0,10.265
4500,144.00,0.7965,5.8998,0.1799,-0.0000,-0.0000,-0.5160,flat,18.0,0,9.921
4510,144.32,1.2422,5.6123,0.1799,-0.0001,-0.0000,-0.6680,flat,18.0,0,9.502
4520,144.64,1.6527,5.2563,0.1798,-0.0003,-0.0000,-0.7749,flat,18.0,0,9.039
4530,144.96,2.0282,4.8563,0.1798,-0.0004,-0.0000,-0.8688,flat,18.0,0,8.552
4540,145.28,2.3720,4.4205,0.1798,-0.0004,-0.0000,-0.9529,flat,18.0,0,8.046
4550,145.60,2.6837,3.9557,0.1798,-0.0003,-0.0000,-1.0279,flat,18.0,0,7.524
4560,145.92,2.9638,3.4675,0.1797,-0.0002,-0.0000,-1.0945,flat,18.0,0,6.991
4570,146.24,3.2138,2.9608,0.1797,-0.0002,-0.0000,-1.1539,flat,18.0,0,6.449
4580,146.56,3.4347,2.4393,0.1797,-0.0002,-0.0000,-1.2070,flat,18.0,0,5.900
4590,146.88,3.6293,1.9061,0.1797,-0.0002,-0.0000,-1.2549,flat,18.0,0,5.347
4600,147.20,3.7995,1.3651,0.1797,-0.0001,-0.0000,-1.2959,flat,18.0,0,4.791
4610,147.52,3.9483,0.8171,0.1797,-0.0001,-0.0000,-1.3343,flat,18.0,0,4.233
4620,147.84,4.0766,0.2635,0.1797,-0.0001,-0.0000,-1.3709,flat,18.0,0,3.673
4630,148.16,4.1850,-0.2946,0.1797,-0.0001,-0.0000,-1.4067,flat,18.0,0,3.112
4640,148.48,4.2735,-0.8562,0.1797,-0.0001,-0.0000,-1.4431,flat,18.0,0,2.551
4650,148.80,4.3414,-1.4200,0.1797,-0.0001,0.0000,-1.4822,flat,18.0,0,1.989
4660,149.12,4.3868,-1.9850,0.1797,-0.0002,0.0000,-1.5295,flat,18.0,0,1.430
4670,149.44,4.4044,-2.5483,0.1798,-0.0003,0.0000,-1.6015,flat,18.0,0,0.875
4680,149.76,4.3750,-3.0930,0.1799,-0.0000,0.0000,-1.7638,flat,18.0,1,7.317
4690,150.08,4.2522,-3.6200,0.1799,-0.0001,-0.0000,-1.9128,flat,18.0,1,6.859
4700,150.40,4.0646,-4.1066,0.1798,-0.0002,-0.0001,-2.0052,flat,18.0,1,6.391
4710,150.72,3.8185,-4.5985,0.1798,-0.0004,-0.0000,-2.0984,flat,18.0,1,5.884
4720,151.04,3.5267,-5.0705,0.1798,-0.0003,-0.0000,-2.1707,flat,18.0,1,5.361
4730,151.36,3.2011,-5.5242,0.1797,-0.0002,-0.0000,-2.2294,flat,18.0,1,4.828
4740,151.68,2.8490,-5.9583,0.1797,-0.0002,-0.0000,-2.2860,flat,18.0,1,4.291
4750,152.00,2.4723,-6.3713,0.1797,-0.0002,-0.0000,-2.3415,flat,18.0,1,3.751
4760,152.32,2.0727,-6.7633,0.1797,-0.0002,-0.0000,-2.3947,flat,18.0,1,3.206
4770,152.64,1.6525,-7.1330,0.1797,-0.0002,-0.0000,-2.4496,flat,18.0,1,2.661
4780,152.96,1.2122,-7.4794,0.1797,-0.0002,-0.0000,-2.5090,flat,18.0,1,2.113
4790,153.28,0.7524,-7.8000,0.1797,-0.0002,0.0000,-2.5779,flat,18.0,1,1.565
4800,153.60,0.2732,-8.0855,0.1798,-0.0004,0.0000,-2.6683,flat,18.0,1,1.021
4810,153.92,-0.1949,-8.3004,0.1798,0.0001,0.0001,-2.8873,flat,18.0,2,5.344
4820,154.24,-0.6582,-8.3909,0.1799,-0.0001,-0.0000,3.0515,flat,18.0,2,5.169
4830,154.56,-1.1353,-8.3203,0.1799,0.0001,0.0002,2.8171,flat,18.0,2,4.880
4840,154.88,-1.6045,-8.1304,0.1799,0.0000,-0.0000,2.6166,flat,18.0,2,4.516
4850,155.20,-2.0433,-7.8392,0.1799,-0.0000,-0.0000,2.4533,flat,18.0,2,4.094
4860,155.52,-2.4384,-7.4753,0.1799,-0.0002,-0.0000,2.3266,flat,18.0,2,3.637
4870,155.84,-2.7907,-7.0614,0.1799,-0.0003,-0.0000,2.2044,flat,18.0,2,3.163
4880,156.16,-3.0968,-6.6052,0.1799,-0.0003,-0.0000,2.0821,flat,18.0,2,2.674
4890,156.48,-3.3498,-6.1136,0.1799,-0.0003,-0.0000,1.9575,flat,18.0,2,2.178
4900,156.80,-3.5426,-5.5943,0.1799,-0.0002,-0.0000,1.8252,flat,18.0,2,1.678
4910,157.12,-3.6661,-5.0562,0.1799,-0.0001,0.0000,1.6740,flat,18.0,2,1.183
4920,157.44,-3.7035,-4.5137,0.1799,-0.0002,0.0001,1.5129,flat,18.0,3,10.906
4930,157.76,-3.6655,-3.9510,0.1798,-0.0002,-0.0000,1.4720,flat,18.0,3,10.352
4940,158.08,-3.6049,-3.3865,0.1797,-0.0001,-0.0000,1.4358,flat,18.0,3,9.792
4950,158.40,-3.5244,-2.8236,0.1797,-0.0001,-0.0000,1.4060,flat,18.0,3,9.228
4960,158.72,-3.4276,-2.2623,0.1797,-0.0001,-0.0000,1.3808,flat,18.0,3,8.662
4970,159.04,-3.3169,-1.7028,0.1797,-0.0001,-0.0000,1.3591,flat,18.0,3,8.095
4980,159.36,-3.1943,-1.1451,0.1797,-0.0001,-0.0000,1.3403,flat,18.0,3,7.526
4990,159.68,-3.0614,-0.5893,0.1797,-0.0001,-0.0000,1.3238,flat,18.0,3,6.956
5000,160.00,-2.9194,-0.0353,0.1797,-0.0001,-0.0000,1.3091,flat,18.0,3,6.385
5010,160.32,-2.7694,0.5171,0.1797,-0.0000,-0.0000,1.2959,flat,18.0,3,5.813
5020,160.64,-2.6121,1.0677,0.1797,-0.0000,-0.0000,1.2839,flat,18.0,3,5.241
5030,160.96,-2.4484,1.6166,0.1797,-0.0000,-0.0000,1.2728,flat,18.0,3,4.668
5040,161.28,-2.2786,2.1639,0.1797,-0.0000,-0.0000,1.2625,flat,18.0,3,4.095
5050,161.60,-2.1031,2.7096,0.1797,-0.0000,-0.0000,1.2526,flat,18.0,3,3.522
5060,161.92,-1.9223,3.2535,0.1797,-0.0000,-0.0000,1.2430,flat,18.0,3,2.949
5070,162.24,-1.7363,3.7956,0.1797,-0.0000,0.0000,1.2332,flat,18.0,3,2.376
5080,162.56,-1.5449,4.3357,0.1797,-0.0000,0.0000,1.2228,flat,18.0,3,1.803
5090,162.88,-1.3480,4.8732,0.1797,-0.0000,0.0000,1.2108,flat,18.0,3,1.231
5100,163.20,-1.1530,5.3976,0.1797,-0.0000,0.0003,1.1468,flat,18.0,0,10.322
5110,163.52,-0.9429,5.7474,0.1798,0.0002,0.0000,0.7653,flat,18.0,0,10.517
5120,163.84,-0.6264,5.9811,0.1799,0.0001,-0.0001,0.3765,flat,18.0,0,10.571
5130,164.16,-0.2073,6.1159,0.1799,-0.0000,-0.0000,0.0096,flat,18.0,0,10.507
5140,164.48,0.2707,6.0934,0.1799,-0.0002,-0.0000,-0.2823,flat,18.0,0,10.294
5150,164.80,0.7499,5.9235,0.1799,-0.0001,-0.0000,-0.4968,flat,18.0,0,9.960
5160,165.12,1.1994,5.6449,0.1799,-0.0001,-0.0000,-0.6551,flat,18.0,0,9.547
5170,165.44,1.6134,5.2943,0.1798,-0.0003,-0.0000,-0.7649,flat,18.0,0,9.087
5180,165.76,1.9921,4.8982,0.1798,-0.0004,-0.0000,-0.8599,flat,18.0,0,8.602
5190,166.08,2.3392,4.4656,0.1798,-0.0004,-0.0000,-0.9450,flat,18.0,0,8.097
5200,166.40,2.6540,4.0034,0.1798,-0.0003,-0.0000,-1.0208,flat,18.0,0,7.577
5210,166.72,2.9372,3.5174,0.1797,-0.0002,-0.0000,-1.0882,flat,18.0,0,7.044
5220,167.04,3.1902,3.0124,0.1797,-0.0002,-0.0000,-1.1482,flat,18.0,0,6.503
5230,167.36,3.4138,2.4922,0.1797,-0.0002,-0.0000,-1.2020,flat,18.0,0,5.956
5240,167.68,3.6110,1.9600,0.1797,-0.0002,-0.0000,-1.2503,flat,18.0,0,5.403
5250,168.00,3.7835,1.4197,0.1797,-0.0001,-0.0000,-1.2919,flat,18.0,0,4.847
5260,168.32,3.9344,0.8724,0.1797,-0.0001,-0.0000,-1.3305,flat,18.0,0,4.289
5270,168.64,4.0648,0.3193,0.1797,-0.0001,-0.0000,-1.3673,flat,18.0,0,3.730
5280,168.96,4.1751,-0.2384,0.1797,-0.0001,-0.0000,-1.4031,flat,18.0,0,3.169
5290,169.28,4.2656,-0.7997,0.1797,-0.0001,-0.0000,-1.4394,flat,18.0,0,2.607
5300,169.60,4.3357,-1.3634,0.1797,-0.0001,0.0000,-1.4781,flat,18.0,0,2.046
5310,169.92,4.3835,-1.9283,0.1797,-0.0002,0.0000,-1.5242,flat,18.0,0,1.486
5320,170.24,4.4043,-2.4919,0.1797,-0.0002,0.0000,-1.5921,flat,18.0,0,0.930
5330,170.56,4.3819,-3.0394,0.1799,-0.0000,-0.0000,-1.7455,flat,18.0,1,7.361
5340,170.88,4.2685,-3.5678,0.1799,-0.0001,-0.0000,-1.9000,flat,18.0,1,6.907
5350,171.20,4.0863,-4.0561,0.1798,-0.0002,-0.0002,-1.9947,flat,18.0,1,6.441
5360,171.52,3.8455,-4.5501,0.1798,-0.0004,-0.0000,-2.0900,flat,18.0,1,5.936
5370,171.84,3.5576,-5.0239,0.1798,-0.0003,-0.0000,-2.1643,flat,18.0,1,5.414
5380,172.16,3.2349,-5.4795,0.1797,-0.0002,-0.0000,-2.2237,flat,18.0,1,4.882
5390,172.48,2.8854,-5.9156,0.1797,-0.0002,-0.0000,-2.2803,flat,18.0,1,4.345
5400,172.80,2.5111,-6.3307,0.1797,-0.0002,-0.0000,-2.3360,flat,18.0,1,3.805
5410,173.12,2.1137,-6.7249,0.1797,-0.0002,-0.0000,-2.3893,flat,18.0,1,3.261
5420,173.44,1.6955,-7.0968,0.1797,-0.0002,-0.0000,-2.4440,flat,18.0,1,2.715
5430,173.76,1.2573,-7.4457,0.1797,-0.0002,-0.0000,-2.5027,flat,18.0,1,2.168
5440,174.08,0.7994,-7.7692,0.1797,-0.0002,0.0000,-2.5703,flat,18.0,1,1.620
5450,174.40,0.3221,-8.0587,0.1798,-0.0004,0.0000,-2.6575,flat,18.0,1,1.075
5460,174.72,-0.1516,-8.2835,0.1798,0.0001,0.0001,-2.8514,flat,18.0,2,5.356
5470,175.04,-0.6094,-8.3896,0.1799,-0.0000,-0.0000,3.0807,flat,18.0,2,5.193
5480,175.36,-1.0946,-8.3324,0.1799,-0.0001,0.0005,2.8276,rough,14.0,2,4.909
5490,175.68,-1.5580,-8.1543,0.1799,-0.0000,-0.0000,2.6362,flat,18.0,2,4.556
5500,176.00,-2.0013,-7.8721,0.1799,-0.0000,-0.0000,2.4679,flat,18.0,2,4.138
5510,176.32,-2.4009,-7.5141,0.1799,-0.0002,-0.0000,2.3389,flat,18.0,2,3.684
5520,176.64,-2.7574,-7.1049,0.1799,-0.0003,-0.0000,2.2166,flat,18.0,2,3.211
5530,176.96,-3.0684,-6.6526,0.1799,-0.0003,-0.0000,2.0944,flat,18.0,2,2.724
5540,177.28,-3.3270,-6.1642,0.1799,-0.0003,-0.0000,1.9703,flat,18.0,2,2.228
5550,177.60,-3.5262,-5.6474,0.1799,-0.0002,-0.0000,1.8391,flat,18.0,2,1.728
5560,177.92,-3.6571,-5.1106,0.1799,-0.0001,-0.0000,1.6904,flat,18.0,2,1.232
5570,178.24,-3.7058,-4.5673,0.1799,-0.0001,0.0000,1.5029,flat,18.0,3,0.760
5580,178.56,-3.6703,-4.0077,0.1798,-0.0001,-0.0000,1.4763,flat,18.0,3,10.408
5590,178.88,-3.6119,-3.4429,0.1797,-0.0001,-0.0000,1.4391,flat,18.0,3,9.848
5600,179.20,-3.5333,-2.8799,0.1797,-0.0001,-0.0000,1.4088,flat,18.0,3,9.285
5610,179.52,-3.4380,-2.3184,0.1797,-0.0001,-0.0000,1.3832,flat,18.0,3,8.719
5620,179.84,-3.3286,-1.7588,0.1797,-0.0001,-0.0000,1.3612,flat,18.0,3,8.152
5630,180.16,-3.2072,-1.2009,0.1797,-0.0001,-0.0000,1.3421,flat,18.0,3,7.583
5640,180.48,-3.0752,-0.6449,0.1797,-0.0001,-0.0000,1.3253,flat,18.0,3,7.013
5650,180.80,-2.9341,-0.0907,0.1797,-0.0001,-0.0000,1.3105,flat,18.0,3,6.442
5660,181.12,-2.7848,0.4618,0.1797,-0.0000,-0.0000,1.2971,flat,18.0,3,5.870
5670,181.44,-2.6283,1.0126,0.1797,-0.0000,-0.0000,1.2850,flat,18.0,3,5.298
5680,181.76,-2.4651,1.5617,0.1797,-0.0000,-0.0000,1.2739,flat,18.0,3,4.726
5690,182.08,-2.2959,2.1092,0.1797,-0.0000,-0.0000,1.2635,flat,18.0,3,4.153
5700,182.40,-2.1210,2.6550,0.1797,-0.0000,-0.0000,1.2536,flat,18.0,3,3.580
5710,182.72,-1.9407,3.1991,0.1797,-0.0000,-0.0000,1.2439,flat,18.0,3,3.007
5720,183.04,-1.7552,3.7414,0.1797,-0.0000,0.0000,1.2342,flat,18.0,3,2.433
5730,183.36,-1.5644,4.2817,0.1797,-0.0000,0.0000,1.2239,flat,18.0,3,1.861
5740,183.68,-1.3680,4.8195,0.1797,-0.0000,0.0000,1.2121,flat,18.0,3,1.288
5750,184.00,-1.1686,5.3509,0.1797,-0.0000,0.0002,1.1798,flat,18.0,0,10.290
5760,184.32,-0.9694,5.7196,0.1798,0.0003,0.0000,0.8044,flat,18.0,0,10.506
5770,184.64,-0.6626,5.9611,0.1799,0.0001,-0.0001,0.4147,flat,18.0,0,10.570
5780,184.96,-0.2531,6.1087,0.1799,-0.0000,-0.0000,0.0447,flat,18.0,0,10.520
5790,185.28,0.2223,6.1031,0.1799,0.0001,-0.0000,-0.2602,flat,18.0,0,10.321
5800,185.60,0.7030,5.9460,0.1799,-0.0000,-0.0000,-0.4796,flat,18.0,0,9.997
5810,185.92,1.1561,5.6763,0.1799,-0.0001,-0.0000,-0.6416,flat,18.0,0,9.590
5820,186.24,1.5736,5.3314,0.1798,-0.0003,-0.0000,-0.7548,flat,18.0,0,9.134
5830,186.56,1.9556,4.9394,0.1798,-0.0004,-0.0000,-0.8508,flat,18.0,0,8.651
5840,186.88,2.3058,4.5102,0.1798,-0.0004,-0.0000,-0.9369,flat,18.0,0,8.148
5850,187.20,2.6239,4.0507,0.1798,-0.0003,-0.0000,-1.0136,flat,18.0,0,7.629
5860,187.52,2.9103,3.5668,0.1797,-0.0003,-0.0000,-1.0818,flat,18.0,0,7.098
5870,187.84,3.1661,3.0635,0.1797,-0.0002,-0.0000,-1.1425,flat,18.0,0,6.558
5880,188.16,3.3927,2.5447,0.1797,-0.0002,-0.0000,-1.1968,flat,18.0,0,6.010
5890,188.48,3.5924,2.0136,0.1797,-0.0002,-0.0000,-1.2457,flat,18.0,0,5.458
5900,188.80,3.7672,1.4739,0.1797,-0.0001,-0.0000,-1.2880,flat,18.0,0,4.903
5910,189.12,3.9202,0.9272,0.1797,-0.0001,-0.0000,-1.3268,flat,18.0,0,4.345
5920,189.44,4.0526,0.3746,0.1797,-0.0001,-0.0000,-1.3637,flat,18.0,0,3.786
5930,189.76,4.1649,-0.1827,0.1797,-0.0001,-0.0000,-1.3996,flat,18.0,0,3.225
5940,190.08,4.2574,-0.7436,0.1797,-0.0001,-0.0000,-1.4357,flat,18.0,0,2.663
5950,190.40,4.3295,-1.3071,0.1797,-0.0001,0.0000,-1.4740,flat,18.0,0,2.102
5960,190.72,4.3797,-1.8720,0.1797,-0.0002,0.0000,-1.5190,flat,18.0,0,1.541
5970,191.04,4.4036,-2.4359,0.1797,-0.0002,0.0000,-1.5832,flat,18.0,0,0.985
5980,191.36,4.3877,-2.9861,0.1799,-0.0000,0.0000,-1.7274,flat,18.0,1,7.403
5990,191.68,4.2838,-3.5159,0.1799,-0.0001,-0.0000,-1.8865,flat,18.0,1,6.954
6000,192.00,4.1073,-4.0058,0.1798,-0.0001,-0.0002,-1.9840,flat,18.0,1,6.490
6010,192.32,3.8718,-4.5019,0.1798,-0.0004,-0.0000,-2.0813,flat,18.0,1,5.987
6020,192.64,3.5881,-4.9776,0.1798,-0.0003,-0.0000,-2.1577,flat,18.0,1,5.467
6030,192.96,3.2684,-5.4350,0.1797,-0.0002,-0.0000,-2.2180,flat,18.0,1,4.935
6040,193.28,2.9215,-5.8731,0.1797,-0.0002,-0.0000,-2.2747,flat,18.0,1,4.399
6050,193.60,2.5496,-6.2904,0.1797,-0.0002,-0.0000,-2.3306,flat,18.0,1,3.859
6060,193.92,2.1544,-6.6866,0.1797,-0.0002,-0.0000,-2.3840,flat,18.0,1,3.315
6070,194.24,1.7382,-7.0608,0.1797,-0.0002,-0.0000,-2.4384,flat,18.0,1,2.770
6080,194.56,1.3019,-7.4121,0.1797,-0.0002,-0.0000,-2.4966,flat,18.0,1,2.223
6090,194.88,0.8460,-7.7384,0.1797,-0.0002,-0.0000,-2.5630,flat,18.0,1,1.675
6100,195.20,0.3706,-8.0318,0.1798,-0.0004,0.0000,-2.6473,flat,18.0,1,1.129
6110,195.52,-0.1082,-8.2664,0.1798,-0.0000,0.0001,-2.8189,flat,18.0,2,5.367
6120,195.84,-0.5611,-8.3860,0.1799,-0.0001,-0.0000,3.1150,flat,18.0,2,5.214
6130,196.16,-1.0534,-8.3447,0.1799,-0.0002,0.0000,2.8333,rough,14.0,2,4.938
6140,196.48,-1.5114,-8.1772,0.1799,0.0001,-0.0000,2.6554,flat,18.0,2,4.594
6150,196.80,-1.9591,-7.9041,0.1799,-0.0000,-0.0000,2.4828,flat,18.0,2,4.181
6160,197.12,-2.3631,-7.5524,0.1799,-0.0002,-0.0000,2.3512,flat,18.0,2,3.730
6170,197.44,-2.7237,-7.1478,0.1799,-0.0003,-0.0000,2.2288,flat,18.0,2,3.259
6180,197.76,-3.0396,-6.6995,0.1799,-0.0003,-0.0000,2.1067,flat,18.0,2,2.773
6190,198.08,-3.3038,-6.2144,0.1799,-0.0003,-0.0000,1.9829,flat,18.0,2,2.277
6200,198.40,-3.5092,-5.7001,0.1799,-0.0002,-0.0000,1.8527,flat,18.0,2,1.778
6210,198.72,-3.6475,-5.1648,0.1799,-0.0001,-0.0000,1.7066,flat,18.0,2,1.281
6220,199.04,-3.7053,-4.6212,0.1799,-0.0001,0.0000,1.5238,flat,18.0,2,0.805
6230,199.36,-3.6748,-4.0642,0.1798,-0.0001,-0.0000,1.4806,flat,18.0,3,10.464
6240,199.68,-3.6187,-3.4993,0.1797,-0.0001,-0.0000,1.4424,flat,18.0,3,9.904
6250,200.00,-3.5419,-2.9361,0.1797,-0.0001,-0.0000,1.4116,flat,18.0,3,9.341
6260,200.32,-3.4482,-2.3744,0.1797,-0.0001,-0.0000,1.3855,flat,18.0,3,8.776
6270,200.64,-3.3401,-1.8146,0.1797,-0.0001,-0.0000,1.3632,flat,18.0,3,8.208
6280,200.96,-3.2198,-1.2566,0.1797,-0.0001,-0.0000,1.3439,flat,18.0,3,7.640
6290,201.28,-3.0888,-0.7004,0.1797,-0.0001,-0.0000,1.3269,flat,18.0,3,7.070
6300,201.60,-2.9485,-0.1460,0.1797,-0.0001,-0.0000,1.3119,flat,18.0,3,6.499
6310,201.92,-2.8000,0.4067,0.1797,-0.0000,-0.0000,1.2984,flat,18.0,3,5.927
6320,202.24,-2.6442,0.9577,0.1797,-0.0000,-0.0000,1.2862,flat,18.0,3,5.355
6330,202.56,-2.4816,1.5069,0.1797,-0.0000,-0.0000,1.2750,flat,18.0,3,4.783
6340,202.88,-2.3130,2.0546,0.1797,-0.0000,-0.0000,1.2645,flat,18.0,3,4.210
6350,203.20,-2.1387,2.6006,0.1797,-0.0000,-0.0000,1.2546,flat,18.0,3,3.637
6360,203.52,-1.9589,3.1448,0.1797,-0.0000,-0.0000,1.2449,flat,18.0,3,3.064
6370,203.84,-1.7739,3.6873,0.1797,-0.0000,0.0000,1.2352,flat,18.0,3,2.491
6380,204.16,-1.5837,4.2278,0.1797,-0.0000,0.0000,1.2250,flat,18.0,3,1.918
6390,204.48,-1.3879,4.7659,0.1797,-0.0000,0.0000,1.2134,flat,18.0,3,1.345
6400,204.80,-1.1858,5.3005,0.1797,-0.0001,0.0000,1.1985,flat,18.0,0,0.774
6410,205.12,-0.9947,5.6903,0.1799,0.0004,0.0000,0.8431,flat,18.0,0,10.493
6420,205.44,-0.6974,5.9405,0.1799,0.0001,-0.0000,0.4532,flat,18.0,0,10.568
6430,205.76,-0.2981,6.1001,0.1799,0.0000,-0.0000,0.0803,flat,18.0,0,10.532
6440,206.08,0.1736,6.1108,0.1799,-0.0001,-0.0000,-0.2317,flat,18.0,0,10.348
6450,206.40,0.6558,5.9674,0.1799,-0.0001,-0.0000,-0.4586,flat,18.0,0,10.034
6460,206.72,1.1125,5.7073,0.1799,-0.0001,-0.0000,-0.6277,flat,18.0,0,9.634
6470,207.04,1.5335,5.3684,0.1798,-0.0003,-0.0000,-0.7446,flat,18.0,0,9.181
6480,207.36,1.9188,4.9805,0.1798,-0.0004,-0.0000,-0.8417,flat,18.0,0,8.701
6490,207.68,2.2723,4.5547,0.1798,-0.0004,-0.0000,-0.9287,flat,18.0,0,8.199
6500,208.00,2.5936,4.0979,0.1798,-0.0003,-0.0000,-1.0063,flat,18.0,0,7.682
6510,208.32,2.8830,3.6162,0.1797,-0.0003,-0.0000,-1.0753,flat,18.0,0,7.152
6520,208.64,3.1419,3.1146,0.1797,-0.0002,-0.0000,-1.1367,flat,18.0,0,6.612
6530,208.96,3.3713,2.5972,0.1797,-0.0002,-0.0000,-1.1917,flat,18.0,0,6.066
6540,209.28,3.5736,2.0673,0.1797,-0.0002,-0.0000,-1.2410,flat,18.0,0,5.514
6550,209.60,3.7508,1.5283,0.1797,-0.0002,-0.0000,-1.2839,flat,18.0,0,4.959
6560,209.92,3.9059,0.9823,0.1797,-0.0001,-0.0000,-1.3230,flat,18.0,0,4.401
6570,210.24,4.0403,0.4303,0.1797,-0.0001,-0.0000,-1.3600,flat,18.0,0,3.842
6580,210.56,4.1546,-0.1266,0.1797,-0.0001,-0.0000,-1.3960,flat,18.0,0,3.281
6590,210.88,4.2491,-0.6872,0.1797,-0.0001,-0.0000,-1.4320,flat,18.0,0,2.719
6600,211.20,4.3234,-1.2505,0.1797,-0.0001,0.0000,-1.4700,flat,18.0,0,2.158
6610,211.52,4.3759,-1.8153,0.1797,-0.0001,0.0000,-1.5139,flat,18.0,0,1.597
6620,211.84,4.4027,-2.3795,0.1797,-0.0002,0.0000,-1.5749,flat,18.0,0,1.041
6630,212.16,4.3923,-2.9324,0.1799,-0.0001,0.0000,-1.7074,flat,18.0,1,7.446
6640,212.48,4.2984,-3.4634,0.1799,-0.0001,-0.0000,-1.8731,flat,18.0,1,7.001
6650,212.80,4.1277,-3.9549,0.1798,-0.0001,-0.0002,-1.9728,flat,18.0,1,6.540
6660,213.12,3.8977,-4.4531,0.1798,-0.0004,-0.0000,-2.0725,flat,18.0,1,6.038
6670,213.44,3.6183,-4.9307,0.1798,-0.0003,-0.0000,-2.1510,flat,18.0,1,5.519
6680,213.76,3.3017,-5.3899,0.1797,-0.0002,-0.0000,-2.2123,flat,18.0,1,4.989
6690,214.08,2.9573,-5.8300,0.1797,-0.0002,-0.0000,-2.2691,flat,18.0,1,4.453
6700,214.40,2.5879,-6.2494,0.1797,-0.0002,-0.0000,-2.3251,flat,18.0,1,3.913
6710,214.72,2.1949,-6.6478,0.1797,-0.0002,-0.0000,-2.3786,flat,18.0,1,3.370
6720,215.04,1.7807,-7.0242,0.1797,-0.0002,-0.0000,-2.4328,flat,18.0,1,2.825
6730,215.36,1.3464,-7.3779,0.1797,-0.0002,-0.0000,-2.4905,flat,18.0,1,2.278
6740,215.68,0.8925,-7.7069,0.1797,-0.0002,-0.0000,-2.5557,flat,18.0,1,1.730
6750,216.00,0.4190,-8.0041,0.1798,-0.0003,0.0000,-2.6375,flat,18.0,1,1.183
6760,216.32,-0.0642,-8.2489,0.1798,-0.0002,0.0003,-2.7879,flat,18.0,2,5.380
6770,216.64,-0.5131,-8.3810,0.1799,0.0000,-0.0000,-3.1357,flat,18.0,2,5.235
6780,216.96,-1.0043,-8.3563,0.1799,0.0001,-0.0000,2.8547,flat,18.0,2,4.971
6790,217.28,-1.4643,-8.1988,0.1799,-0.0000,-0.0000,2.6762,flat,18.0,2,4.633
6800,217.60,-1.9163,-7.9355,0.1799,-0.0000,-0.0000,2.4981,flat,18.0,2,4.225
6810,217.92,-2.3247,-7.5902,0.1799,-0.0002,-0.0000,2.3635,flat,18.0,2,3.776
6820,218.24,-2.6895,-7.1904,0.1799,-0.0003,-0.0000,2.2410,flat,18.0,2,3.307
6830,218.56,-3.0102,-6.7461,0.1799,-0.0003,-0.0000,2.1189,flat,18.0,2,2.822
6840,218.88,-3.2798,-6.2644,0.1799,-0.0003,-0.0000,1.9954,flat,18.0,2,2.327
6850,219.20,-3.4915,-5.7526,0.1799,-0.0002,-0.0000,1.8662,flat,18.0,2,1.828
6860,219.52,-3.6370,-5.2190,0.1799,-0.0001,-0.0000,1.7224,flat,18.0,2,1.330
6870,219.84,-3.7038,-4.6754,0.1799,-0.0001,0.0000,1.5444,flat,18.0,2,0.851
6880,220.16,-3.6791,-4.1207,0.1798,-0.0001,-0.0001,1.4848,flat,18.0,3,10.519
6890,220.48,-3.6254,-3.5557,0.1797,-0.0001,-0.0000,1.4458,flat,18.0,3,9.960
6900,220.80,-3.5504,-2.9923,0.1797,-0.0001,-0.0000,1.4145,flat,18.0,3,9.398
6910,221.12,-3.4583,-2.4306,0.1797,-0.0001,-0.0000,1.3880,flat,18.0,3,8.832
6920,221.44,-3.3515,-1.8705,0.1797,-0.0001,-0.0000,1.3653,flat,18.0,3,8.265
6930,221.76,-3.2323,-1.3123,0.1797,-0.0001,-0.0000,1.3457,flat,18.0,3,7.697
6940,222.08,-3.1023,-0.7559,0.1797,-0.0001,-0.0000,1.3285,flat,18.0,3,7.127
6950,222.40,-2.9630,-0.2013,0.1797,-0.0001,-0.0000,1.3133,flat,18.0,3,6.556
6960,222.72,-2.8152,0.3515,0.1797,-0.0000,-0.0000,1.2997,flat,18.0,3,5.985
6970,223.04,-2.6601,0.9026,0.1797,-0.0000,-0.0000,1.2874,flat,18.0,3,5.413
6980,223.36,-2.4982,1.4521,0.1797,-0.0000,-0.0000,1.2761,flat,18.0,3,4.840
6990,223.68,-2.3302,1.9999,0.1797,-0.0000,-0.0000,1.2655,flat,18.0,3,4.267
7000,224.00,-2.1564,2.5460,0.1797,-0.0000,-0.0000,1.2555,flat,18.0,3,3.694
7010,224.32,-1.9772,3.0905,0.1797,-0.0000,-0.0000,1.2458,flat,18.0,3,3.121
7020,224.64,-1.7927,3.6331,0.1797,-0.0000,0.0000,1.2362,flat,18.0,3,2.548
7030,224.96,-1.6030,4.1738,0.1797,-0.0000,0.0000,1.2260,flat,18.0,3,1.975
7040,225.28,-1.4077,4.7122,0.1797,-0.0000,0.0000,1.2147,flat,18.0,3,1.403
7050,225.60,-1.2064,5.2472,0.1797,-0.0000,0.0000,1.2002,flat,18.0,3,0.831
7060,225.92,-1.0188,5.6593,0.1798,0.0004,0.0001,0.8818,flat,18.0,0,10.478
7070,226.24,-0.7311,5.9190,0.1799,0.0001,-0.0000,0.4919,flat,18.0,0,10.565
7080,226.56,-0.3424,6.0898,0.1799,0.0000,-0.0000,0.1161,flat,18.0,0,10.542
7090,226.88,0.1253,6.1174,0.1799,0.0000,-0.0000,-0.2069,flat,18.0,0,10.373
7100,227.20,0.6084,5.9878,0.1799,-0.0000,-0.0000,-0.4407,flat,18.0,0,10.070
7110,227.52,1.0685,5.7374,0.1799,-0.0001,-0.0000,-0.6132,flat,18.0,0,9.676
7120,227.84,1.4929,5.4047,0.1799,-0.0003,-0.0000,-0.7343,flat,18.0,0,9.228
7130,228.16,1.8817,5.0210,0.1798,-0.0004,-0.0000,-0.8324,flat,18.0,0,8.750
7140,228.48,2.2384,4.5987,0.1798,-0.0004,-0.0000,-0.9204,flat,18.0,0,8.250
7150,228.80,2.5629,4.1447,0.1798,-0.0003,-0.0000,-0.9989,flat,18.0,0,7.734
7160,229.12,2.8555,3.6653,0.1797,-0.0003,-0.0000,-1.0688,flat,18.0,0,7.205
7170,229.44,3.1173,3.1655,0.1797,-0.0002,-0.0000,-1.1309,flat,18.0,0,6.666
7180,229.76,3.3496,2.6495,0.1797,-0.0002,-0.0000,-1.1864,flat,18.0,0,6.120
7190,230.08,3.5545,2.1207,0.1797,-0.0002,-0.0000,-1.2363,flat,18.0,0,5.569
7200,230.40,3.7341,1.5825,0.1797,-0.0002,-0.0000,-1.2799,flat,18.0,0,5.014
7210,230.72,3.8913,1.0371,0.1797,-0.0001,-0.0000,-1.3192,flat,18.0,0,4.457
7220,231.04,4.0278,0.4856,0.1797,-0.0001,-0.0000,-1.3564,flat,18.0,0,3.898
7230,231.36,4.1441,-0.0708,0.1797,-0.0001,-0.0000,-1.3924,flat,18.0,0,3.337
7240,231.68,4.2405,-0.6311,0.1797,-0.0001,-0.0000,-1.4284,flat,18.0,0,2.775
7250,232.00,4.3168,-1.1942,0.1797,-0.0001,0.0000,-1.4660,flat,18.0,0,2.214
7260,232.32,4.3716,-1.7589,0.1797,-0.0001,0.0000,-1.5090,flat,18.0,0,1.653
7270,232.64,4.4014,-2.3232,0.1797,-0.0002,0.0000,-1.5671,flat,18.0,0,1.096
7280,232.96,4.3959,-2.8786,0.1798,-0.0001,0.0000,-1.6882,flat,18.0,1,7.487
7290,233.28,4.3121,-3.4110,0.1799,-0.0001,-0.0000,-1.8586,flat,18.0,1,7.047
7300,233.60,4.1475,-3.9044,0.1798,-0.0001,-0.0002,-1.9619,flat,18.0,1,6.588
7310,233.92,3.9232,-4.4043,0.1798,-0.0004,-0.0001,-2.0636,flat,18.0,1,6.089
7320,234.24,3.6481,-4.8838,0.1798,-0.0004,-0.0000,-2.1441,flat,18.0,1,5.572
7330,234.56,3.3347,-5.3449,0.1797,-0.0002,-0.0000,-2.2066,flat,18.0,1,5.042
7340,234.88,2.9929,-5.7870,0.1797,-0.0002,-0.0000,-2.2634,flat,18.0,1,4.507
7350,235.20,2.6259,-6.2085,0.1797,-0.0002,-0.0000,-2.3196,flat,18.0,1,3.967
7360,235.52,2.2351,-6.6090,0.1797,-0.0002,-0.0000,-2.3733,flat,18.0,1,3.424
7370,235.84,1.8231,-6.9877,0.1797,-0.0002,-0.0000,-2.4273,flat,18.0,1,2.879
7380,236.16,1.3908,-7.3437,0.1797,-0.0002,-0.0000,-2.4845,flat,18.0,1,2.332
7390,236.48,0.9387,-7.6754,0.1797,-0.0002,-0.0000,-2.5487,flat,18.0,1,1.784
7400,236.80,0.4672,-7.9762,0.1798,-0.0003,0.0000,-2.6281,flat,18.0,1,1.238
7410,237.12,-0.0203,-8.2315,0.1798,-0.0002,0.0003,-2.7610,flat,18.0,2,5.392
7420,237.44,-0.4656,-8.3739,0.1799,-0.0000,-0.0000,-3.0999,flat,18.0,2,5.255
7430,237.76,-0.9545,-8.3656,0.1799,-0.0002,0.0000,2.8835,flat,18.0,2,5.002
7440,238.08,-1.4168,-8.2194,0.1799,-0.0000,-0.0000,2.6964,flat,18.0,2,4.670
7450,238.40,-1.8731,-7.9660,0.1799,-0.0001,-0.0000,2.5138,flat,18.0,2,4.268
7460,238.72,-2.2859,-7.6275,0.1799,-0.0002,-0.0000,2.3759,flat,18.0,2,3.822
7470,239.04,-2.6549,-7.2325,0.1799,-0.0003,-0.0000,2.2532,flat,18.0,2,3.354
7480,239.36,-2.9803,-6.7923,0.1799,-0.0003,-0.0000,2.1311,flat,18.0,2,2.871
7490,239.68,-3.2554,-6.3140,0.1799,-0.0003,-0.0000,2.0079,flat,18.0,2,2.377
7500,240.00,-3.4732,-5.8049,0.1799,-0.0002,-0.0000,1.8796,flat,18.0,2,1.878
7510,240.32,-3.6257,-5.2731,0.1799,-0.0001,-0.0000,1.7379,flat,18.0,2,1.380
7520,240.64,-3.7012,-4.7296,0.1799,-0.0001,0.0000,1.5644,flat,18.0,2,0.897
7530,240.96,-3.6831,-4.1772,0.1798,-0.0001,-0.0001,1.4891,flat,18.0,3,10.575
7540,241.28,-3.6318,-3.6121,0.1797,-0.0001,-0.0000,1.4493,flat,18.0,3,10.016
7550,241.60,-3.5588,-3.0486,0.1797,-0.0001,-0.0000,1.4174,flat,18.0,3,9.454
7560,241.92,-3.4682,-2.4866,0.1797,-0.0001,-0.0000,1.3904,flat,18.0,3,8.889
7570,242.24,-3.3628,-1.9264,0.1797,-0.0001,-0.0000,1.3674,flat,18.0,3,8.322
7580,242.56,-3.2447,-1.3680,0.1797,-0.0001,-0.0000,1.3475,flat,18.0,3,7.754
7590,242.88,-3.1158,-0.8115,0.1797,-0.0001,-0.0000,1.3301,flat,18.0,3,7.184
7600,243.20,-2.9773,-0.2567,0.1797,-0.0001,-0.0000,1.3147,flat,18.0,3,6.613
7610,243.52,-2.8303,0.2963,0.1797,-0.0000,-0.0000,1.3010,flat,18.0,3,6.042
7620,243.84,-2.6759,0.8476,0.1797,-0.0000,-0.0000,1.2885,flat,18.0,3,5.470
7630,244.16,-2.5147,1.3972,0.1797,-0.0000,-0.0000,1.2771,flat,18.0,3,4.897
7640,244.48,-2.3472,1.9452,0.1797,-0.0000,-0.0000,1.2665,flat,18.0,3,4.325
7650,244.80,-2.1740,2.4915,0.1797,-0.0000,-0.0000,1.2565,flat,18.0,3,3.752
7660,245.12,-1.9953,3.0361,0.1797,-0.0000,-0.0000,1.2468,flat,18.0,3,3.179
7670,245.44,-1.8114,3.5790,0.1797,-0.0000,0.0000,1.2371,flat,18.0,3,2.605
7680,245.76,-1.6222,4.1199,0.1797,-0.0000,0.0000,1.2271,flat,18.0,3,2.032
7690,246.08,-1.4275,4.6585,0.1797,-0.0000,0.0000,1.2159,flat,18.0,3,1.460
7700,246.40,-1.2268,5.1940,0.1797,-0.0000,0.0000,1.2019,flat,18.0,3,0.888
7710,246.72,-1.0416,5.6270,0.1798,0.0004,0.0001,0.9208,flat,18.0,0,10.461
7720,247.04,-0.7639,5.8968,0.1799,0.0001,-0.0000,0.5307,flat,18.0,0,10.561
7730,247.36,-0.3859,6.0782,0.1799,0.0000,-0.0001,0.1524,flat,18.0,0,10.550
7740,247.68,0.0768,6.1220,0.1799,-0.0001,-0.0000,-0.1776,flat,18.0,0,10.396
7750,248.00,0.5606,6.0067,0.1799,-0.0001,-0.0000,-0.4181,flat,18.0,0,10.105
7760,248.32,1.0241,5.7667,0.1799,-0.0001,-0.0000,-0.5982,flat,18.0,0,9.719
7770,248.64,1.4520,5.4407,0.1799,-0.0003,-0.0000,-0.7239,flat,18.0,0,9.274
7780,248.96,1.8443,5.0613,0.1798,-0.0004,-0.0000,-0.8231,flat,18.0,0,8.799
7790,249.28,2.2041,4.6425,0.1798,-0.0004,-0.0000,-0.9121,flat,18.0,0,8.301
7800,249.60,2.5319,4.1914,0.1798,-0.0003,-0.0000,-0.9915,flat,18.0,0,7.786
7810,249.92,2.8276,3.7143,0.1797,-0.0003,-0.0000,-1.0621,flat,18.0,0,7.258
7820,250.24,3.0925,3.2163,0.1797,-0.0002,-0.0000,-1.1250,flat,18.0,0,6.721
7830,250.56,3.3277,2.7018,0.1797,-0.0002,-0.0000,-1.1812,flat,18.0,0,6.175
7840,250.88,3.5351,2.1741,0.1797,-0.0002,-0.0000,-1.2316,flat,18.0,0,5.624
7850,251.20,3.7172,1.6367,0.1797,-0.0002,-0.0000,-1.2758,flat,18.0,0,5.070
7860,251.52,3.8766,1.0920,0.1797,-0.0001,-0.0000,-1.3154,flat,18.0,0,4.513
7870,251.84,4.0150,0.5411,0.1797,-0.0001,-0.0000,-1.3527,flat,18.0,0,3.954
7880,252.16,4.1333,-0.0149,0.1797,-0.0001,-0.0000,-1.3888,flat,18.0,0,3.393
7890,252.48,4.2318,-0.5749,0.1797,-0.0001,-0.0000,-1.4247,flat,18.0,0,2.832
7900,252.80,4.3101,-1.1377,0.1797,-0.0001,0.0000,-1.4621,flat,18.0,0,2.270
7910,253.12,4.3672,-1.7023,0.1797,-0.0001,0.0000,-1.5042,flat,18.0,0,1.709
7920,253.44,4.3996,-2.2668,0.1797,-0.0002,0.0000,-1.5595,flat,18.0,0,1.152
7930,253.76,4.3987,-2.8243,0.1798,-0.0002,0.0000,-1.6704,flat,18.0,1,7.529
7940,254.08,4.3250,-3.3582,0.1799,-0.0000,-0.0000,-1.8445,flat,18.0,1,7.094
7950,254.40,4.1672,-3.8552,0.1798,-0.0001,-0.0003,-1.9522,flat,18.0,1,6.636
7960,254.72,3.9481,-4.3551,0.1798,-0.0003,-0.0001,-2.0544,flat,18.0,1,6.140
7970,255.04,3.6776,-4.8367,0.1798,-0.0004,-0.0000,-2.1370,flat,18.0,1,5.624
7980,255.36,3.3675,-5.2996,0.1797,-0.0002,-0.0000,-2.2009,flat,18.0,1,5.096
7990,255.68,3.0283,-5.7437,0.1797,-0.0002,-0.0000,-2.2578,flat,18.0,1,4.560
8000,256.00,2.6637,-6.1673,0.1797,-0.0002,-0.0000,-2.3140,flat,18.0,1,4.021
