step,time_s,x,y,z,roll,pitch,yaw,terrain,speed,target_idx,dist_to_target
10,0.32,-1.2984,0.8845,0.1834,0.0003,-0.0351,0.0045,rough,14.0,0,6.139
20,0.64,-1.0205,0.8926,0.1798,-0.0008,-0.0001,0.4109,flat,18.0,0,6.371
30,0.96,-0.7162,1.0878,0.1799,-0.0001,-0.0000,0.8654,flat,18.0,0,6.538
40,1.28,-0.4946,1.4198,0.1799,-0.0001,-0.0001,1.2649,flat,18.0,0,6.588
50,1.60,-0.3876,1.8508,0.1799,0.0000,-0.0000,1.6443,flat,18.0,0,6.518
60,1.92,-0.4507,2.3244,0.1799,0.0000,-0.0000,1.9384,flat,18.0,0,6.303
70,2.24,-0.6638,2.7835,0.1799,0.0000,-0.0000,2.1586,flat,18.0,0,5.976
80,2.56,-0.9840,3.2003,0.1799,0.0001,-0.0000,2.3223,flat,18.0,0,5.576
90,2.88,-1.3733,3.5713,0.1799,0.0002,-0.0000,2.4531,flat,18.0,0,5.136
100,3.20,-1.8115,3.8985,0.1799,0.0003,-0.0000,2.5762,flat,18.0,0,4.669
110,3.52,-2.2892,4.1772,0.1799,0.0004,-0.0000,2.6914,flat,18.0,0,4.182
120,3.84,-2.7976,4.4044,0.1798,0.0004,-0.0000,2.8000,flat,18.0,0,3.680
130,4.16,-3.3287,4.5786,0.1798,0.0004,-0.0000,2.9042,flat,18.0,0,3.167
140,4.48,-3.8755,4.6985,0.1798,0.0004,-0.0000,3.0068,flat,18.0,0,2.645
150,4.80,-4.4314,4.7626,0.1798,0.0004,-0.0000,3.1126,flat,18.0,0,2.119
160,5.12,-4.9887,4.7672,0.1798,0.0004,0.0000,-3.0564,flat,18.0,0,1.591
170,5.44,-5.5347,4.7080,0.1799,0.0002,0.0000,-2.9220,flat,18.0,0,1.070
180,5.76,-5.9897,4.6085,0.1796,0.0001,-0.0015,-2.6677,flat,18.0,1,6.806
190,6.08,-6.2473,4.4091,0.1800,0.0013,-0.0003,-2.0829,flat,18.0,1,7.079
200,6.40,-6.3969,4.0941,0.1799,-0.0002,-0.0001,-1.6341,flat,18.0,1,7.264
210,6.72,-6.4027,3.7360,0.1799,0.0000,-0.0001,-1.2190,flat,18.0,1,7.327
220,7.04,-6.2214,3.3606,0.1799,0.0000,-0.0000,-0.8924,flat,18.0,1,7.229
230,7.36,-5.8853,3.0264,0.1799,0.0000,-0.0000,-0.6421,flat,18.0,1,6.994
240,7.68,-5.4512,2.7514,0.1799,0.0000,-0.0000,-0.4101,flat,18.0,1,6.672
250,8.00,-4.9487,2.5636,0.1799,0.0001,-0.0000,-0.1992,flat,18.0,1,6.276
260,8.32,-4.4089,2.4758,0.1799,0.0001,-0.0000,-0.0182,flat,18.0,1,5.825
270,8.64,-3.8574,2.4826,0.1799,0.0002,-0.0000,0.1242,flat,18.0,1,5.334
280,8.96,-3.3096,2.5641,0.1798,0.0004,-0.0000,0.2312,flat,18.0,1,4.820
290,9.28,-2.7714,2.7027,0.1798,0.0004,-0.0000,0.3176,flat,18.0,1,4.292
300,9.60,-2.2453,2.8870,0.1798,0.0003,-0.0000,0.3910,flat,18.0,1,3.754
310,9.92,-1.7329,3.1094,0.1797,0.0002,-0.0000,0.4560,flat,18.0,1,3.211
320,10.24,-1.2356,3.3649,0.1797,0.0002,-0.0000,0.5163,flat,18.0,1,2.664
330,10.56,-0.7550,3.6503,0.1797,0.0002,-0.0000,0.5753,flat,18.0,1,2.114
340,10.88,-0.2926,3.9642,0.1797,0.0002,-0.0000,0.6330,flat,18.0,1,1.564
350,11.20,0.1474,4.3039,0.1797,0.0002,0.0000,0.6996,flat,18.0,1,1.016
360,11.52,0.5282,4.6312,0.1798,0.0003,0.0000,0.6029,flat,18.0,2,9.470
370,11.84,0.9261,4.8611,0.1799,-0.0001,0.0002,0.3305,rough,14.0,2,9.272
380,12.16,1.3336,4.9822,0.1799,-0.0001,-0.0002,0.1475,flat,18.0,2,9.018
390,12.48,1.8565,5.0353,0.1799,-0.0001,-0.0000,-0.0832,flat,18.0,2,8.646
400,12.80,2.3918,4.9707,0.1799,-0.0001,-0.0000,-0.2538,flat,18.0,2,8.201
410,13.12,2.9155,4.8170,0.1799,-0.0003,-0.0000,-0.3772,flat,18.0,2,7.715
420,13.44,3.4218,4.6001,0.1798,-0.0004,-0.0000,-0.4713,flat,18.0,2,7.203
430,13.76,3.9095,4.3360,0.1798,-0.0003,-0.0000,-0.5467,flat,18.0,2,6.676
440,14.08,4.3791,4.0354,0.1797,-0.0002,-0.0000,-0.6093,flat,18.0,2,6.138
450,14.40,4.8315,3.7054,0.1797,-0.0002,-0.0000,-0.6629,flat,18.0,2,5.592
460,14.72,5.2674,3.3511,0.1797,-0.0002,-0.0000,-0.7095,flat,18.0,2,5.041
470,15.04,5.6875,2.9765,0.1797,-0.0001,-0.0000,-0.7514,flat,18.0,2,4.486
480,15.36,6.0926,2.5842,0.1797,-0.0001,-0.0000,-0.7908,flat,18.0,2,3.928
490,15.68,6.4823,2.1761,0.1797,-0.0001,-0.0000,-0.8293,flat,18.0,2,3.369
500,16.00,6.8555,1.7535,0.1797,-0.0001,0.0000,-0.8679,flat,18.0,2,2.808
510,16.32,7.2118,1.3176,0.1797,-0.0001,0.0000,-0.9078,flat,18.0,2,2.247
520,16.64,7.5495,0.8682,0.1797,-0.0002,0.0000,-0.9532,flat,18.0,2,1.687
530,16.96,7.8649,0.4038,0.1797,-0.0002,0.0000,-1.0129,flat,18.0,2,1.126
540,17.28,8.1278,-0.0564,0.1798,0.0001,0.0001,-1.1691,flat,18.0,3,6.186
550,17.60,8.2859,-0.5112,0.1799,0.0001,-0.0001,-1.4914,flat,18.0,3,5.987
560,17.92,8.3007,-1.0183,0.1799,0.0000,-0.0000,-1.7620,flat,18.0,3,5.675
570,18.24,8.1768,-1.5266,0.1799,-0.0000,-0.0000,-1.9662,flat,18.0,3,5.276
580,18.56,7.9485,-2.0083,0.1799,-0.0001,-0.0000,-2.1192,flat,18.0,3,4.825
590,18.88,7.6458,-2.4574,0.1799,-0.0003,-0.0000,-2.2350,flat,18.0,3,4.341
600,19.20,7.2920,-2.8755,0.1798,-0.0004,-0.0000,-2.3276,flat,18.0,3,3.838
610,19.52,6.8994,-3.2582,0.1798,-0.0004,-0.0000,-2.4204,flat,18.0,3,3.326
620,19.84,6.4714,-3.6068,0.1798,-0.0004,-0.0000,-2.5150,flat,18.0,3,2.805
630,20.16,6.0114,-3.9163,0.1798,-0.0004,-0.0000,-2.6141,flat,18.0,3,2.276
640,20.48,5.5230,-4.1805,0.1798,-0.0004,-0.0000,-2.7228,flat,18.0,3,1.742
650,20.80,5.0105,-4.3901,0.1799,-0.0002,0.0000,-2.8534,flat,18.0,3,1.206
660,21.12,4.4865,-4.5239,0.1799,-0.0001,-0.0001,-3.0404,flat,18.0,0,14.001
670,21.44,3.9541,-4.5555,0.1799,-0.0001,0.0000,3.0402,flat,18.0,0,13.608
680,21.76,3.4154,-4.4818,0.1799,-0.0001,-0.0000,2.8873,flat,18.0,0,13.152
690,22.08,2.8872,-4.3288,0.1798,-0.0004,-0.0000,2.7798,flat,18.0,0,12.656
700,22.40,2.3732,-4.1204,0.1798,-0.0004,-0.0000,2.6987,flat,18.0,0,12.137
710,22.72,1.8738,-3.8710,0.1797,-0.0002,-0.0000,2.6350,flat,18.0,0,11.603
720,23.04,1.3880,-3.5900,0.1797,-0.0002,-0.0000,2.5834,flat,18.0,0,11.059
730,23.36,0.9153,-3.2840,0.1797,-0.0001,-0.0000,2.5422,flat,18.0,0,10.509
740,23.68,0.4537,-2.9588,0.1797,-0.0001,-0.0000,2.5078,flat,18.0,0,9.954
750,24.00,0.0020,-2.6175,0.1797,-0.0001,-0.0000,2.4779,flat,18.0,0,9.395
760,24.32,-0.4406,-2.2628,0.1797,-0.0001,-0.0000,2.4515,flat,18.0,0,8.833
770,24.64,-0.8749,-1.8963,0.1797,-0.0001,-0.0000,2.4280,flat,18.0,0,8.269
780,24.96,-1.3014,-1.5196,0.1797,-0.0001,-0.0000,2.4063,flat,18.0,0,7.703
790,25.28,-1.7206,-1.1336,0.1797,-0.0001,-0.0000,2.3862,flat,18.0,0,7.136
800,25.60,-2.1326,-0.7392,0.1797,-0.0001,-0.0000,2.3679,flat,18.0,0,6.567
810,25.92,-2.5378,-0.3371,0.1797,-0.0001,-0.0000,2.3510,flat,18.0,0,5.998
820,26.24,-2.9365,0.0717,0.1797,-0.0001,-0.0000,2.3350,flat,18.0,0,5.428
830,26.56,-3.3288,0.4870,0.1797,-0.0001,-0.0000,2.3196,flat,18.0,0,4.857
840,26.88,-3.7147,0.9083,0.1797,-0.0001,-0.0000,2.3045,flat,18.0,0,4.287
850,27.20,-4.0944,1.3352,0.1797,-0.0001,0.0000,2.2899,flat,18.0,0,3.715
860,27.52,-4.4678,1.7675,0.1797,-0.0001,0.0000,2.2752,flat,18.0,0,3.144
870,27.84,-4.8345,2.2051,0.1797,-0.0001,0.0000,2.2598,flat,18.0,0,2.573
880,28.16,-5.1938,2.6480,0.1797,-0.0001,0.0000,2.2426,flat,18.0,0,2.003
890,28.48,-5.5442,3.0968,0.1797,-0.0001,0.0000,2.2213,flat,18.0,0,1.434
900,28.80,-5.8818,3.5516,0.1797,-0.0001,0.0000,2.1896,flat,18.0,0,0.870
910,29.12,-6.1236,3.9421,0.1798,0.0003,0.0000,1.8684,flat,18.0,1,7.017
920,29.44,-6.2192,4.3341,0.1799,0.0001,-0.0000,1.4309,flat,18.0,1,7.059
930,29.76,-6.1291,4.7694,0.1799,0.0001,-0.0000,1.1084,flat,18.0,1,6.936
940,30.08,-5.8775,5.1828,0.1799,0.0000,-0.0000,0.8675,flat,18.0,1,6.678
950,30.40,-5.5111,5.5476,0.1799,-0.0000,-0.0000,0.6784,flat,18.0,1,6.328
960,30.72,-5.0727,5.8579,0.1799,-0.0001,-0.0000,0.5093,flat,18.0,1,5.923
970,31.04,-4.5827,6.1035,0.1799,-0.0001,-0.0000,0.3587,flat,18.0,1,5.478
980,31.36,-4.0578,6.2810,0.1799,-0.0002,-0.0000,0.2261,flat,18.0,1,5.003
990,31.68,-3.5113,6.3923,0.1799,-0.0004,-0.0000,0.1095,flat,18.0,1,4.506
1000,32.00,-2.9535,6.4418,0.1798,-0.0004,-0.0000,0.0059,flat,18.0,1,3.992
1010,32.32,-2.3925,6.4348,0.1798,-0.0004,-0.0000,-0.0837,flat,18.0,1,3.467
1020,32.64,-1.8341,6.3790,0.1798,-0.0004,-0.0000,-0.1611,flat,18.0,1,2.936
1030,32.96,-1.2820,6.2807,0.1798,-0.0003,-0.0000,-0.2325,flat,18.0,1,2.402
1040,33.28,-0.7396,6.1432,0.1797,-0.0003,0.0000,-0.3036,flat,18.0,1,1.869
1050,33.60,-0.2120,5.9672,0.1798,-0.0003,0.0000,-0.3828,flat,18.0,1,1.344
1060,33.92,0.2939,5.7487,0.1798,-0.0004,0.0000,-0.4755,flat,18.0,1,0.836
1070,34.24,0.7858,5.4959,0.1798,-0.0002,-0.0001,-0.4982,flat,18.0,2,9.766
1080,34.56,1.2789,5.2195,0.1797,-0.0001,-0.0000,-0.5325,flat,18.0,2,9.209
1090,34.88,1.7636,4.9264,0.1797,-0.0001,-0.0000,-0.5619,flat,18.0,2,8.648
1100,35.20,2.2407,4.6191,0.1797,-0.0001,-0.0000,-0.5878,flat,18.0,2,8.084
1110,35.52,2.7107,4.2994,0.1797,-0.0001,-0.0000,-0.6109,flat,18.0,2,7.519
1120,35.84,3.1741,3.9688,0.1797,-0.0001,-0.0000,-0.6316,flat,18.0,2,6.952
1130,36.16,3.6312,3.6287,0.1797,-0.0001,-0.0000,-0.6504,flat,18.0,2,6.383
1140,36.48,4.0823,3.2799,0.1797,-0.0001,-0.0000,-0.6678,flat,18.0,2,5.814
1150,36.80,4.5278,2.9233,0.1797,-0.0001,-0.0000,-0.6841,flat,18.0,2,5.244
1160,37.12,4.9677,2.5594,0.1797,-0.0001,-0.0000,-0.6995,flat,18.0,2,4.674
1170,37.44,5.4021,2.1887,0.1797,-0.0001,-0.0000,-0.7145,flat,18.0,2,4.103
1180,37.76,5.8310,1.8116,0.1797,-0.0001,-0.0000,-0.7295,flat,18.0,2,3.532
1190,38.08,6.2542,1.4280,0.1797,-0.0001,0.0000,-0.7450,flat,18.0,2,2.960
1200,38.40,6.6711,1.0379,0.1797,-0.0001,0.0000,-0.7615,flat,18.0,2,2.390
1210,38.72,7.0809,0.6411,0.1797,-0.0001,0.0000,-0.7796,flat,18.0,2,1.820
1220,39.04,7.4817,0.2371,0.1797,-0.0001,0.0000,-0.8021,flat,18.0,2,1.253
1230,39.36,7.8661,-0.1717,0.1797,-0.0001,0.0002,-0.8526,flat,18.0,3,5.922
1240,39.68,8.1168,-0.5288,0.1799,0.0001,-0.0000,-1.1892,flat,18.0,3,5.849
1250,40.00,8.2554,-0.9492,0.1798,-0.0003,0.0002,-1.4690,flat,18.0,3,5.682
1260,40.32,8.2804,-1.4376,0.1799,-0.0001,-0.0000,-1.7586,flat,18.0,3,5.412
1270,40.64,8.1572,-1.9378,0.1799,-0.0001,-0.0000,-1.9836,flat,18.0,3,5.040
1280,40.96,7.9197,-2.4095,0.1799,-0.0001,-0.0000,-2.1511,flat,18.0,3,4.606
1290,41.28,7.6021,-2.8443,0.1799,-0.0003,-0.0000,-2.2757,flat,18.0,3,4.134
1300,41.60,7.2311,-3.2415,0.1798,-0.0004,-0.0000,-2.3818,flat,18.0,3,3.642
1310,41.92,6.8180,-3.6005,0.1798,-0.0004,-0.0000,-2.4879,flat,18.0,3,3.137
1320,42.24,6.3674,-3.9186,0.1798,-0.0004,-0.0000,-2.5961,flat,18.0,3,2.621
1330,42.56,5.8843,-4.1896,0.1798,-0.0004,-0.0000,-2.7096,flat,18.0,3,2.097
1340,42.88,5.3739,-4.4057,0.1799,-0.0003,-0.0000,-2.8358,flat,18.0,3,1.568
1350,43.20,4.8436,-4.5557,0.1799,-0.0001,0.0000,-2.9910,flat,18.0,3,1.038
1360,43.52,4.3079,-4.6142,0.1798,-0.0032,0.0037,3.0960,flat,18.0,0,13.918
1370,43.84,3.7683,-4.5692,0.1799,-0.0001,0.0000,2.9285,flat,18.0,0,13.476
1380,44.16,3.2606,-4.4445,0.1798,-0.0001,-0.0002,2.8378,flat,18.0,0,13.011
1390,44.48,2.7382,-4.2658,0.1798,-0.0004,-0.0000,2.7435,flat,18.0,0,12.503
1400,44.80,2.2301,-4.0389,0.1798,-0.0003,-0.0000,2.6711,flat,18.0,0,11.977
1410,45.12,1.7361,-3.7757,0.1797,-0.0002,-0.0000,2.6134,flat,18.0,0,11.438
1420,45.44,1.2553,-3.4842,0.1797,-0.0002,-0.0000,2.5665,flat,18.0,0,10.891
1430,45.76,0.7870,-3.1704,0.1797,-0.0001,-0.0000,2.5292,flat,18.0,0,10.338
1440,46.08,0.3289,-2.8391,0.1797,-0.0001,-0.0000,2.4970,flat,18.0,0,9.781
1450,46.40,-0.1198,-2.4929,0.1797,-0.0001,-0.0000,2.4689,flat,18.0,0,9.220
1460,46.72,-0.5598,-2.1341,0.1797,-0.0001,-0.0000,2.4440,flat,18.0,0,8.657
1470,47.04,-0.9918,-1.7644,0.1797,-0.0001,-0.0000,2.4216,flat,18.0,0,8.093
1480,47.36,-1.4164,-1.3849,0.1797,-0.0001,-0.0000,2.4008,flat,18.0,0,7.526
1490,47.68,-1.8338,-0.9966,0.1797,-0.0001,-0.0000,2.3816,flat,18.0,0,6.958
1500,48.00,-2.2443,-0.6002,0.1797,-0.0001,-0.0000,2.3641,flat,18.0,0,6.389
1510,48.32,-2.6482,-0.1966,0.1797,-0.0001,-0.0000,2.3478,flat,18.0,0,5.819
1520,48.64,-3.0458,0.2135,0.1797,-0.0001,-0.0000,2.3323,flat,18.0,0,5.249
1530,48.96,-3.4371,0.6299,0.1797,-0.0001,-0.0000,2.3173,flat,18.0,0,4.678
1540,49.28,-3.8223,1.0521,0.1797,-0.0001,-0.0000,2.3026,flat,18.0,0,4.107
1550,49.60,-4.2012,1.4797,0.1797,-0.0001,0.0000,2.2882,flat,18.0,0,3.536
1560,49.92,-4.5739,1.9126,0.1797,-0.0001,0.0000,2.2736,flat,18.0,0,2.965
1570,50.24,-4.9399,2.3507,0.1797,-0.0001,0.0000,2.2581,flat,18.0,0,2.394
1580,50.56,-5.2982,2.7943,0.1797,-0.0001,0.0000,2.2402,flat,18.0,0,1.824
1590,50.88,-5.6470,3.2436,0.1797,-0.0001,0.0000,2.2172,flat,18.0,0,1.256
1600,51.20,-5.9784,3.6959,0.1797,-0.0001,0.0002,2.1635,flat,18.0,1,6.919
1610,51.52,-6.1720,4.0614,0.1799,0.0002,0.0000,1.7362,flat,18.0,1,7.046
1620,51.84,-6.2151,4.4717,0.1799,-0.0002,-0.0000,1.3294,flat,18.0,1,7.041
1630,52.16,-6.0732,4.9053,0.1799,-0.0001,-0.0000,1.0326,flat,18.0,1,6.875
1640,52.48,-5.7826,5.3056,0.1799,-0.0001,-0.0000,0.8079,flat,18.0,1,6.586
1650,52.80,-5.3915,5.6548,0.1799,-0.0001,-0.0000,0.6258,flat,18.0,1,6.218
1660,53.12,-4.9359,5.9464,0.1799,-0.0001,-0.0000,0.4618,flat,18.0,1,5.800
1670,53.44,-4.4337,6.1714,0.1799,-0.0001,-0.0000,0.3164,flat,18.0,1,5.346
1680,53.76,-3.9009,6.3283,0.1799,-0.0003,-0.0000,0.1887,flat,18.0,1,4.863
1690,54.08,-3.3501,6.4201,0.1799,-0.0004,-0.0000,0.0762,flat,18.0,1,4.360
1700,54.40,-2.7905,6.4515,0.1798,-0.0004,-0.0000,-0.0237,flat,18.0,1,3.842
1710,54.72,-2.2298,6.4285,0.1798,-0.0004,-0.0000,-0.1089,flat,18.0,1,3.315
1720,55.04,-1.6731,6.3588,0.1798,-0.0003,-0.0000,-0.1838,flat,18.0,1,2.783
1730,55.36,-1.1236,6.2480,0.1797,-0.0003,-0.0000,-0.2544,flat,18.0,1,2.249
1740,55.68,-0.5851,6.0987,0.1798,-0.0003,0.0000,-0.3266,flat,18.0,1,1.717
1750,56.00,-0.0634,5.9103,0.1798,-0.0004,0.0000,-0.4099,flat,18.0,1,1.196
1760,56.32,0.4300,5.6821,0.1798,-0.0004,-0.0001,-0.4721,flat,18.0,2,10.161
1770,56.64,0.9293,5.4188,0.1797,-0.0002,-0.0000,-0.5091,flat,18.0,2,9.606
1780,56.96,1.4197,5.1372,0.1797,-0.0001,-0.0000,-0.5416,flat,18.0,2,9.047
1790,57.28,1.9021,4.8396,0.1797,-0.0001,-0.0000,-0.5699,flat,18.0,2,8.485
1800,57.60,2.3771,4.5284,0.1797,-0.0001,-0.0000,-0.5949,flat,18.0,2,7.921
1810,57.92,2.8451,4.2054,0.1797,-0.0001,-0.0000,-0.6172,flat,18.0,2,7.355
1820,58.24,3.3066,3.8719,0.1797,-0.0001,-0.0000,-0.6373,flat,18.0,2,6.788
1830,58.56,3.7619,3.5291,0.1797,-0.0001,-0.0000,-0.6557,flat,18.0,2,6.219
1840,58.88,4.2114,3.1780,0.1797,-0.0001,-0.0000,-0.6727,flat,18.0,2,5.650
1850,59.20,4.6552,2.8191,0.1797,-0.0001,-0.0000,-0.6887,flat,18.0,2,5.080
1860,59.52,5.0934,2.4532,0.1797,-0.0001,-0.0000,-0.7039,flat,18.0,2,4.509
1870,59.84,5.5262,2.0806,0.1797,-0.0001,-0.0000,-0.7189,flat,18.0,2,3.938
1880,60.16,5.9536,1.7016,0.1797,-0.0001,-0.0000,-0.7340,flat,18.0,2,3.367
1890,60.48,6.3750,1.3162,0.1797,-0.0001,0.0000,-0.7497,flat,18.0,2,2.796
1900,60.80,6.7900,0.9242,0.1797,-0.0001,0.0000,-0.7665,flat,18.0,2,2.225
1910,61.12,7.1974,0.5253,0.1797,-0.0001,0.0000,-0.7855,flat,18.0,2,1.656
1920,61.44,7.5950,0.1191,0.1797,-0.0001,0.0000,-0.8103,flat,18.0,2,1.090
1930,61.76,7.9467,-0.2674,0.1798,0.0000,0.0003,-0.9451,flat,18.0,3,5.909
1940,62.08,8.1704,-0.6504,0.1799,0.0000,-0.0000,-1.2922,flat,18.0,3,5.808
1950,62.40,8.2677,-1.0689,0.1798,0.0002,-0.0004,-1.5142,flat,18.0,3,5.618
1960,62.72,8.2696,-1.5625,0.1799,-0.0000,0.0000,-1.7961,flat,18.0,3,5.334
1970,63.04,8.1265,-2.0591,0.1799,-0.0001,-0.0000,-2.0147,flat,18.0,3,4.953
1980,63.36,7.8739,-2.5238,0.1799,-0.0001,-0.0000,-2.1769,flat,18.0,3,4.514
1990,63.68,7.5447,-2.9514,0.1799,-0.0003,-0.0000,-2.2970,flat,18.0,3,4.039
2000,64.00,7.1650,-3.3400,0.1798,-0.0004,-0.0000,-2.4046,flat,18.0,3,3.547
2010,64.32,6.7435,-3.6902,0.1798,-0.0004,-0.0000,-2.5126,flat,18.0,3,3.041
2020,64.64,6.2850,-3.9976,0.1798,-0.0004,-0.0000,-2.6230,flat,18.0,3,2.525
2030,64.96,5.7948,-4.2558,0.1799,-0.0004,-0.0000,-2.7397,flat,18.0,3,2.000
2040,65.28,5.2786,-4.4565,0.1799,-0.0002,-0.0000,-2.8710,flat,18.0,3,1.471
2050,65.60,4.7448,-4.5875,0.1799,-0.0001,0.0000,-3.0363,flat,18.0,3,0.942
2060,65.92,4.2084,-4.6209,0.1799,-0.0001,-0.0000,3.0502,flat,18.0,0,13.846
2070,66.24,3.6687,-4.5526,0.1799,-0.0001,-0.0000,2.8969,flat,18.0,0,13.389
2080,66.56,3.1631,-4.4134,0.1798,-0.0001,-0.0002,2.8119,flat,18.0,0,12.917
2090,66.88,2.6440,-4.2215,0.1798,-0.0003,-0.0000,2.7244,flat,18.0,0,12.404
2100,67.20,2.1392,-3.9849,0.1797,-0.0003,-0.0000,2.6563,flat,18.0,0,11.874
2110,67.52,1.6483,-3.7145,0.1797,-0.0002,-0.0000,2.6017,flat,18.0,0,11.332
2120,67.84,1.1705,-3.4173,0.1797,-0.0002,-0.0000,2.5578,flat,18.0,0,10.783
2130,68.16,0.7044,-3.0993,0.1797,-0.0001,-0.0000,2.5219,flat,18.0,0,10.229
2140,68.48,0.2483,-2.7646,0.1797,-0.0001,-0.0000,2.4909,flat,18.0,0,9.671
2150,68.80,-0.1986,-2.4157,0.1797,-0.0001,-0.0000,2.4637,flat,18.0,0,9.110
2160,69.12,-0.6371,-2.0545,0.1797,-0.0001,-0.0000,2.4396,flat,18.0,0,8.547
2170,69.44,-1.0677,-1.6829,0.1797,-0.0001,-0.0000,2.4178,flat,18.0,0,7.981
2180,69.76,-1.4911,-1.3018,0.1797,-0.0001,-0.0000,2.3975,flat,18.0,0,7.414
2190,70.08,-1.9074,-0.9121,0.1797,-0.0001,-0.0000,2.3788,flat,18.0,0,6.846
2200,70.40,-2.3169,-0.5145,0.1797,-0.0001,-0.0000,2.3617,flat,18.0,0,6.277
2210,70.72,-2.7200,-0.1099,0.1797,-0.0001,-0.0000,2.3457,flat,18.0,0,5.707
2220,71.04,-3.1168,0.3011,0.1797,-0.0001,-0.0000,2.3304,flat,18.0,0,5.136
2230,71.36,-3.5074,0.7182,0.1797,-0.0001,-0.0000,2.3156,flat,18.0,0,4.566
2240,71.68,-3.8919,1.1410,0.1797,-0.0001,-0.0000,2.3011,flat,18.0,0,3.994
2250,72.00,-4.2703,1.5692,0.1797,-0.0001,0.0000,2.2868,flat,18.0,0,3.423
2260,72.32,-4.6423,2.0026,0.1797,-0.0001,0.0000,2.2722,flat,18.0,0,2.852
2270,72.64,-5.0076,2.4412,0.1797,-0.0001,0.0000,2.2565,flat,18.0,0,2.281
2280,72.96,-5.3650,2.8853,0.1797,-0.0001,0.0000,2.2380,flat,18.0,0,1.711
2290,73.28,-5.7123,3.3352,0.1797,-0.0001,0.0000,2.2134,flat,18.0,0,1.144
2300,73.60,-6.0248,3.7747,0.1798,-0.0001,0.0004,2.0993,flat,18.0,1,6.949
2310,73.92,-6.1940,4.1375,0.1799,0.0001,-0.0000,1.6487,flat,18.0,1,7.057
2320,74.24,-6.2003,4.5587,0.1799,-0.0002,0.0000,1.2643,flat,18.0,1,7.020
2330,74.56,-6.0257,4.9886,0.1799,-0.0001,-0.0000,0.9835,flat,18.0,1,6.826
2340,74.88,-5.7113,5.3794,0.1799,-0.0001,-0.0000,0.7704,flat,18.0,1,6.518
2350,75.20,-5.3059,5.7181,0.1799,-0.0001,-0.0000,0.5921,flat,18.0,1,6.139
2360,75.52,-4.8397,5.9970,0.1799,-0.0001,-0.0000,0.4317,flat,18.0,1,5.713
2370,75.84,-4.3303,6.2086,0.1799,-0.0001,-0.0000,0.2898,flat,18.0,1,5.252
2380,76.16,-3.7931,6.3523,0.1799,-0.0003,-0.0000,0.1653,flat,18.0,1,4.765
2390,76.48,-3.2399,6.4317,0.1798,-0.0004,-0.0000,0.0555,flat,18.0,1,4.259
2400,76.80,-2.6796,6.4517,0.1798,-0.0004,-0.0000,-0.0418,flat,18.0,1,3.739
2410,77.12,-2.1194,6.4188,0.1798,-0.0004,-0.0000,-0.1244,flat,18.0,1,3.210
2420,77.44,-1.5638,6.3407,0.1798,-0.0003,-0.0000,-0.1981,flat,18.0,1,2.677
2430,77.76,-1.0162,6.2220,0.1797,-0.0003,-0.0000,-0.2684,flat,18.0,1,2.144
2440,78.08,-0.4805,6.0650,0.1798,-0.0003,0.0000,-0.3419,flat,18.0,1,1.614
2450,78.40,0.0370,5.8684,0.1798,-0.0004,0.0000,-0.4282,flat,18.0,1,1.095
2460,78.72,0.5292,5.6313,0.1798,-0.0003,-0.0002,-0.4785,flat,18.0,2,10.052
2470,79.04,1.0268,5.3648,0.1797,-0.0002,-0.0000,-0.5159,flat,18.0,2,9.496
2480,79.36,1.5156,5.0798,0.1797,-0.0001,-0.0000,-0.5475,flat,18.0,2,8.937
2490,79.68,1.9965,4.7794,0.1797,-0.0001,-0.0000,-0.5751,flat,18.0,2,8.374
2500,80.00,2.4701,4.4657,0.1797,-0.0001,-0.0000,-0.5995,flat,18.0,2,7.810
2510,80.32,2.9367,4.1405,0.1797,-0.0001,-0.0000,-0.6213,flat,18.0,2,7.243
2520,80.64,3.3970,3.8051,0.1797,-0.0001,-0.0000,-0.6411,flat,18.0,2,6.676
2530,80.96,3.8511,3.4606,0.1797,-0.0001,-0.0000,-0.6592,flat,18.0,2,6.107
2540,81.28,4.2994,3.1079,0.1797,-0.0001,-0.0000,-0.6760,flat,18.0,2,5.537
2550,81.60,4.7421,2.7476,0.1797,-0.0001,-0.0000,-0.6918,flat,18.0,2,4.967
2560,81.92,5.1793,2.3803,0.1797,-0.0001,-0.0000,-0.7069,flat,18.0,2,4.396
2570,82.24,5.6110,2.0065,0.1797,-0.0001,-0.0000,-0.7218,flat,18.0,2,3.825
2580,82.56,6.0372,1.6262,0.1797,-0.0001,-0.0000,-0.7370,flat,18.0,2,3.254
2590,82.88,6.4574,1.2395,0.1797,-0.0001,0.0000,-0.7529,flat,18.0,2,2.683
2600,83.20,6.8710,0.8461,0.1797,-0.0001,0.0000,-0.7700,flat,18.0,2,2.113
2610,83.52,7.2767,0.4458,0.1797,-0.0001,0.0000,-0.7898,flat,18.0,2,1.544
2620,83.84,7.6718,0.0381,0.1797,-0.0001,0.0000,-0.8166,flat,18.0,2,0.980
2630,84.16,7.9967,-0.3336,0.1798,0.0002,0.0000,-1.0151,flat,18.0,3,5.897
2640,84.48,8.2020,-0.7382,0.1799,-0.0000,-0.0000,-1.3598,flat,18.0,3,5.775
2650,84.80,8.2771,-1.2222,0.1799,0.0001,-0.0001,-1.6752,flat,18.0,3,5.533
2660,85.12,8.1985,-1.7277,0.1799,-0.0000,-0.0000,-1.9159,flat,18.0,3,5.184
2670,85.44,7.9949,-2.2121,0.1799,-0.0001,-0.0000,-2.0972,flat,18.0,3,4.764
2680,85.76,7.7027,-2.6604,0.1799,-0.0002,-0.0000,-2.2348,flat,18.0,3,4.301
2690,86.08,7.3490,-3.0735,0.1798,-0.0003,-0.0000,-2.3401,flat,18.0,3,3.812
2700,86.40,6.9519,-3.4477,0.1798,-0.0004,-0.0000,-2.4444,flat,18.0,3,3.311
2710,86.72,6.5160,-3.7837,0.1798,-0.0004,-0.0000,-2.5501,flat,18.0,3,2.797
2720,87.04,6.0458,-4.0755,0.1798,-0.0004,-0.0000,-2.6600,flat,18.0,3,2.275
2730,87.36,5.5465,-4.3163,0.1799,-0.0003,-0.0000,-2.7794,flat,18.0,3,1.747
2740,87.68,5.0238,-4.4964,0.1799,-0.0001,0.0000,-2.9208,flat,18.0,3,1.216
2750,88.00,4.4916,-4.5951,0.1799,-0.0002,-0.0001,-3.1117,flat,18.0,0,14.049
2760,88.32,3.9528,-4.5908,0.1799,-0.0001,-0.0000,2.9866,flat,18.0,0,13.630
2770,88.64,3.4238,-4.4913,0.1799,-0.0002,0.0004,2.8613,flat,18.0,0,13.164
2780,88.96,2.9086,-4.3214,0.1787,0.0001,0.0070,2.7761,flat,18.0,0,12.667
2790,89.28,2.3955,-4.1121,0.1797,-0.0003,0.0007,2.6981,flat,18.0,0,12.147
2800,89.60,1.8961,-3.8624,0.1797,-0.0002,0.0001,2.6349,flat,18.0,0,11.613
2810,89.92,1.4102,-3.5815,0.1797,-0.0002,0.0000,2.5838,flat,18.0,0,11.069
2820,90.24,0.9373,-3.2757,0.1797,-0.0001,-0.0000,2.5430,flat,18.0,0,10.518
2830,90.56,0.4754,-2.9508,0.1797,-0.0001,-0.0000,2.5088,flat,18.0,0,9.963
2840,90.88,0.0232,-2.6100,0.1797,-0.0001,-0.0000,2.4790,flat,18.0,0,9.404
2850,91.20,-0.4199,-2.2558,0.1797,-0.0001,-0.0000,2.4529,flat,18.0,0,8.842
2860,91.52,-0.8547,-1.8899,0.1797,-0.0001,-0.0000,2.4295,flat,18.0,0,8.278
2870,91.84,-1.2819,-1.5139,0.1797,-0.0001,-0.0000,2.4080,flat,18.0,0,7.712
2880,92.16,-1.7018,-1.1286,0.1797,-0.0001,-0.0000,2.3881,flat,18.0,0,7.145
2890,92.48,-2.1145,-0.7349,0.1797,-0.0001,-0.0000,2.3698,flat,18.0,0,6.576
2900,92.80,-2.5205,-0.3337,0.1797,-0.0001,-0.0000,2.3530,flat,18.0,0,6.007
2910,93.12,-2.9201,0.0744,0.1797,-0.0001,-0.0000,2.3371,flat,18.0,0,5.437
2920,93.44,-3.3133,0.4888,0.1797,-0.0001,-0.0000,2.3218,flat,18.0,0,4.866
2930,93.76,-3.7003,0.9093,0.1797,-0.0001,-0.0000,2.3069,flat,18.0,0,4.295
2940,94.08,-4.0810,1.3353,0.1797,-0.0001,0.0000,2.2923,flat,18.0,0,3.724
2950,94.40,-4.4555,1.7667,0.1797,-0.0001,0.0000,2.2777,flat,18.0,0,3.153
2960,94.72,-4.8234,2.2033,0.1797,-0.0001,0.0000,2.2625,flat,18.0,0,2.582
2970,95.04,-5.1839,2.6454,0.1797,-0.0001,0.0000,2.2454,flat,18.0,0,2.011
2980,95.36,-5.5356,3.0931,0.1797,-0.0001,0.0000,2.2244,flat,18.0,0,1.442
2990,95.68,-5.8747,3.5469,0.1797,-0.0001,0.0000,2.1932,flat,18.0,0,0.878
3000,96.00,-6.1179,3.9365,0.1798,0.0003,0.0000,1.8719,flat,18.0,1,7.012
3010,96.32,-6.2148,4.3281,0.1799,0.0001,-0.0000,1.4342,flat,18.0,1,7.055
3020,96.64,-6.1261,4.7633,0.1799,0.0001,-0.0000,1.1104,flat,18.0,1,6.933
3030,96.96,-5.8755,5.1771,0.1799,0.0000,-0.0000,0.8691,flat,18.0,1,6.676
3040,97.28,-5.5098,5.5424,0.1799,-0.0000,-0.0000,0.6799,flat,18.0,1,6.326
3050,97.60,-5.0720,5.8531,0.1799,-0.0001,-0.0000,0.5107,flat,18.0,1,5.922
3060,97.92,-4.5823,6.0994,0.1799,-0.0001,-0.0000,0.3600,flat,18.0,1,5.477
3070,98.24,-4.0576,6.2775,0.1799,-0.0002,-0.0000,0.2273,flat,18.0,1,5.002
3080,98.56,-3.5113,6.3894,0.1799,-0.0004,-0.0000,0.1106,flat,18.0,1,4.505
3090,98.88,-2.9536,6.4396,0.1798,-0.0004,-0.0000,0.0069,flat,18.0,1,3.991
3100,99.20,-2.3926,6.4331,0.1798,-0.0004,-0.0000,-0.0829,flat,18.0,1,3.466
3110,99.52,-1.8341,6.3778,0.1798,-0.0004,-0.0000,-0.1604,flat,18.0,1,2.935
3120,99.84,-1.2820,6.2798,0.1798,-0.0003,-0.0000,-0.2319,flat,18.0,1,2.401
3130,100.16,-0.7396,6.1426,0.1797,-0.0003,0.0000,-0.3031,flat,18.0,1,1.869
3140,100.48,-0.2119,5.9669,0.1798,-0.0003,0.0000,-0.3824,flat,18.0,1,1.343
3150,100.80,0.2940,5.7486,0.1798,-0.0004,0.0000,-0.4753,flat,18.0,1,0.836
3160,101.12,0.7860,5.4958,0.1798,-0.0002,-0.0001,-0.4980,flat,18.0,2,9.766
3170,101.44,1.2791,5.2196,0.1797,-0.0001,-0.0000,-0.5324,flat,18.0,2,9.208
3180,101.76,1.7639,4.9265,0.1797,-0.0001,-0.0000,-0.5619,flat,18.0,2,8.647
3190,102.08,2.2410,4.6192,0.1797,-0.0001,-0.0000,-0.5878,flat,18.0,2,8.084
3200,102.40,2.7110,4.2995,0.1797,-0.0001,-0.0000,-0.6108,flat,18.0,2,7.518
3210,102.72,3.1744,3.9690,0.1797,-0.0001,-0.0000,-0.6315,flat,18.0,2,6.951
3220,103.04,3.6315,3.6289,0.1797,-0.0001,-0.0000,-0.6504,flat,18.0,2,6.383
3230,103.36,4.0826,3.2801,0.1797,-0.0001,-0.0000,-0.6678,flat,18.0,2,5.814
3240,103.68,4.5281,2.9235,0.1797,-0.0001,-0.0000,-0.6841,flat,18.0,2,5.244
3250,104.00,4.9679,2.5596,0.1797,-0.0001,-0.0000,-0.6995,flat,18.0,2,4.673
3260,104.32,5.4023,2.1889,0.1797,-0.0001,-0.0000,-0.7145,flat,18.0,2,4.103
3270,104.64,5.8313,1.8118,0.1797,-0.0001,-0.0000,-0.7296,flat,18.0,2,3.532
3280,104.96,6.2544,1.4282,0.1797,-0.0001,0.0000,-0.7451,flat,18.0,2,2.960
3290,105.28,6.6713,1.0381,0.1797,-0.0001,0.0000,-0.7615,flat,18.0,2,2.390
3300,105.60,7.0811,0.6412,0.1797,-0.0001,0.0000,-0.7797,flat,18.0,2,1.820
3310,105.92,7.4818,0.2372,0.1797,-0.0001,0.0000,-0.8022,flat,18.0,2,1.253
3320,106.24,7.8662,-0.1716,0.1797,-0.0001,0.0002,-0.8527,flat,18.0,3,5.922
3330,106.56,8.1169,-0.5288,0.1799,0.0001,-0.0000,-1.1893,flat,18.0,3,5.850
3340,106.88,8.2555,-0.9492,0.1798,-0.0003,0.0002,-1.4691,flat,18.0,3,5.682
3350,107.20,8.2804,-1.4376,0.1799,-0.0001,-0.0000,-1.7586,flat,18.0,3,5.412
3360,107.52,8.1572,-1.9378,0.1799,-0.0001,-0.0000,-1.9835,flat,18.0,3,5.040
3370,107.84,7.9197,-2.4095,0.1799,-0.0001,-0.0000,-2.1511,flat,18.0,3,4.606
3380,108.16,7.6021,-2.8443,0.1799,-0.0003,-0.0000,-2.2757,flat,18.0,3,4.134
3390,108.48,7.2311,-3.2415,0.1798,-0.0004,-0.0000,-2.3818,flat,18.0,3,3.642
3400,108.80,6.8180,-3.6005,0.1798,-0.0004,-0.0000,-2.4879,flat,18.0,3,3.137
3410,109.12,6.3674,-3.9186,0.1798,-0.0004,-0.0000,-2.5961,flat,18.0,3,2.621
3420,109.44,5.8843,-4.1896,0.1798,-0.0004,-0.0000,-2.7096,flat,18.0,3,2.097
3430,109.76,5.3739,-4.4057,0.1799,-0.0003,-0.0000,-2.8358,flat,18.0,3,1.568
3440,110.08,4.8436,-4.5558,0.1799,-0.0001,0.0000,-2.9910,flat,18.0,3,1.038
3450,110.40,4.3079,-4.6142,0.1798,-0.0032,0.0037,3.0960,flat,18.0,0,13.918
3460,110.72,3.7683,-4.5692,0.1799,-0.0001,0.0000,2.9285,flat,18.0,0,13.476
3470,111.04,3.2606,-4.4445,0.1798,-0.0001,-0.0002,2.8378,flat,18.0,0,13.011
3480,111.36,2.7382,-4.2658,0.1798,-0.0004,-0.0000,2.7435,flat,18.0,0,12.503
3490,111.68,2.2301,-4.0389,0.1798,-0.0003,-0.0000,2.6711,flat,18.0,0,11.977
3500,112.00,1.7361,-3.7757,0.1797,-0.0002,-0.0000,2.6134,flat,18.0,0,11.438
3510,112.32,1.2553,-3.4842,0.1797,-0.0002,-0.0000,2.5666,flat,18.0,0,10.891
3520,112.64,0.7870,-3.1704,0.1797,-0.0001,-0.0000,2.5292,flat,18.0,0,10.338
3530,112.96,0.3289,-2.8391,0.1797,-0.0001,-0.0000,2.4970,flat,18.0,0,9.781
3540,113.28,-0.1198,-2.4929,0.1797,-0.0001,-0.0000,2.4689,flat,18.0,0,9.220
3550,113.60,-0.5598,-2.1341,0.1797,-0.0001,-0.0000,2.4440,flat,18.0,0,8.657
3560,113.92,-0.9918,-1.7644,0.1797,-0.0001,-0.0000,2.4216,flat,18.0,0,8.093
3570,114.24,-1.4164,-1.3849,0.1797,-0.0001,-0.0000,2.4008,flat,18.0,0,7.526
3580,114.56,-1.8338,-0.9966,0.1797,-0.0001,-0.0000,2.3816,flat,18.0,0,6.958
3590,114.88,-2.2443,-0.6002,0.1797,-0.0001,-0.0000,2.3641,flat,18.0,0,6.389
3600,115.20,-2.6482,-0.1966,0.1797,-0.0001,-0.0000,2.3478,flat,18.0,0,5.819
3610,115.52,-3.0458,0.2135,0.1797,-0.0001,-0.0000,2.3323,flat,18.0,0,5.249
3620,115.84,-3.4371,0.6299,0.1797,-0.0001,-0.0000,2.3173,flat,18.0,0,4.678
3630,116.16,-3.8223,1.0520,0.1797,-0.0001,-0.0000,2.3026,flat,18.0,0,4.107
3640,116.48,-4.2013,1.4797,0.1797,-0.0001,0.0000,2.2882,flat,18.0,0,3.536
3650,116.80,-4.5739,1.9126,0.1797,-0.0001,0.0000,2.2736,flat,18.0,0,2.965
3660,117.12,-4.9399,2.3507,0.1797,-0.0001,0.0000,2.2581,flat,18.0,0,2.394
3670,117.44,-5.2982,2.7942,0.1797,-0.0001,0.0000,2.2402,flat,18.0,0,1.824
3680,117.76,-5.6470,3.2436,0.1797,-0.0001,0.0000,2.2171,flat,18.0,0,1.256
3690,118.08,-5.9784,3.6959,0.1797,-0.0001,0.0002,2.1635,flat,18.0,1,6.919
3700,118.40,-6.1720,4.0614,0.1799,0.0002,0.0000,1.7362,flat,18.0,1,7.046
3710,118.72,-6.2151,4.4717,0.1799,-0.0002,-0.0000,1.3294,flat,18.0,1,7.041
3720,119.04,-6.0731,4.9053,0.1799,-0.0001,-0.0000,1.0326,flat,18.0,1,6.875
3730,119.36,-5.7826,5.3056,0.1799,-0.0001,-0.0000,0.8079,flat,18.0,1,6.586
3740,119.68,-5.3915,5.6548,0.1799,-0.0001,-0.0000,0.6258,flat,18.0,1,6.218
3750,120.00,-4.9359,5.9464,0.1799,-0.0001,-0.0000,0.4618,flat,18.0,1,5.800
3760,120.32,-4.4337,6.1714,0.1799,-0.0001,-0.0000,0.3164,flat,18.0,1,5.346
3770,120.64,-3.9009,6.3283,0.1799,-0.0003,-0.0000,0.1887,flat,18.0,1,4.863
3780,120.96,-3.3500,6.4201,0.1799,-0.0004,-0.0000,0.0762,flat,18.0,1,4.360
3790,121.28,-2.7905,6.4515,0.1798,-0.0004,-0.0000,-0.0237,flat,18.0,1,3.842
3800,121.60,-2.2298,6.4285,0.1798,-0.0004,-0.0000,-0.1089,flat,18.0,1,3.315
3810,121.92,-1.6730,6.3588,0.1798,-0.0003,-0.0000,-0.1838,flat,18.0,1,2.783
3820,122.24,-1.1236,6.2480,0.1797,-0.0003,-0.0000,-0.2544,flat,18.0,1,2.249
3830,122.56,-0.5851,6.0986,0.1798,-0.0003,0.0000,-0.3266,flat,18.0,1,1.717
3840,122.88,-0.0633,5.9103,0.1798,-0.0004,0.0000,-0.4099,flat,18.0,1,1.196
3850,123.20,0.4300,5.6821,0.1798,-0.0004,-0.0001,-0.4721,flat,18.0,2,10.161
3860,123.52,0.9293,5.4188,0.1797,-0.0002,-0.0000,-0.5091,flat,18.0,2,9.606
3870,123.84,1.4197,5.1371,0.1797,-0.0001,-0.0000,-0.5416,flat,18.0,2,9.047
3880,124.16,1.9022,4.8396,0.1797,-0.0001,-0.0000,-0.5699,flat,18.0,2,8.485
3890,124.48,2.3771,4.5284,0.1797,-0.0001,-0.0000,-0.5949,flat,18.0,2,7.921
3900,124.80,2.8451,4.2054,0.1797,-0.0001,-0.0000,-0.6172,flat,18.0,2,7.355
3910,125.12,3.3066,3.8719,0.1797,-0.0001,-0.0000,-0.6373,flat,18.0,2,6.788
3920,125.44,3.7619,3.5291,0.1797,-0.0001,-0.0000,-0.6557,flat,18.0,2,6.219
3930,125.76,4.2114,3.1779,0.1797,-0.0001,-0.0000,-0.6727,flat,18.0,2,5.650
3940,126.08,4.6552,2.8191,0.1797,-0.0001,-0.0000,-0.6887,flat,18.0,2,5.080
3950,126.40,5.0934,2.4532,0.1797,-0.0001,-0.0000,-0.7039,flat,18.0,2,4.509
3960,126.72,5.5263,2.0806,0.1797,-0.0001,-0.0000,-0.7189,flat,18.0,2,3.938
3970,127.04,5.9536,1.7016,0.1797,-0.0001,-0.0000,-0.7340,flat,18.0,2,3.367
3980,127.36,6.3750,1.3162,0.1797,-0.0001,0.0000,-0.7497,flat,18.0,2,2.796
3990,127.68,6.7900,0.9241,0.1797,-0.0001,0.0000,-0.7665,flat,18.0,2,2.225
4000,128.00,7.1974,0.5253,0.1797,-0.0001,0.0000,-0.7855,flat,18.0,2,1.656
4010,128.32,7.5950,0.1191,0.1797,-0.0001,0.0000,-0.8103,flat,18.0,2,1.090
4020,128.64,7.9467,-0.2674,0.1798,0.0000,0.0003,-0.9451,flat,18.0,3,5.909
4030,128.96,8.1704,-0.6504,0.1799,0.0000,-0.0000,-1.2922,flat,18.0,3,5.808
4040,129.28,8.2677,-1.0689,0.1798,0.0002,-0.0004,-1.5142,flat,18.0,3,5.618
4050,129.60,8.2696,-1.5625,0.1799,-0.0000,0.0000,-1.7961,flat,18.0,3,5.334
4060,129.92,8.1265,-2.0591,0.1799,-0.0001,-0.0000,-2.0147,flat,18.0,3,4.953
4070,130.24,7.8739,-2.5238,0.1799,-0.0001,-0.0000,-2.1769,flat,18.0,3,4.514
4080,130.56,7.5448,-2.9514,0.1799,-0.0003,-0.0000,-2.2970,flat,18.0,3,4.039
4090,130.88,7.1650,-3.3400,0.1798,-0.0004,-0.0000,-2.4046,flat,18.0,3,3.547
4100,131.20,6.7435,-3.6902,0.1798,-0.0004,-0.0000,-2.5126,flat,18.0,3,3.041
4110,131.52,6.2850,-3.9976,0.1798,-0.0004,-0.0000,-2.6230,flat,18.0,3,2.525
4120,131.84,5.7948,-4.2558,0.1799,-0.0004,-0.0000,-2.7397,flat,18.0,3,2.000
4130,132.16,5.2786,-4.4565,0.1799,-0.0002,-0.0000,-2.8710,flat,18.0,3,1.471
4140,132.48,4.7448,-4.5875,0.1799,-0.0001,0.0000,-3.0363,flat,18.0,3,0.942
4150,132.80,4.2084,-4.6209,0.1799,-0.0001,-0.0000,3.0502,flat,18.0,0,13.846
4160,133.12,3.6687,-4.5526,0.1799,-0.0001,-0.0000,2.8969,flat,18.0,0,13.389
4170,133.44,3.1631,-4.4133,0.1798,-0.0001,-0.0002,2.8119,flat,18.0,0,12.917
4180,133.76,2.6440,-4.2214,0.1798,-0.0003,-0.0000,2.7244,flat,18.0,0,12.404
4190,134.08,2.1392,-3.9849,0.1797,-0.0003,-0.0000,2.6563,flat,18.0,0,11.874
4200,134.40,1.6483,-3.7145,0.1797,-0.0002,-0.0000,2.6017,flat,18.0,0,11.332
4210,134.72,1.1705,-3.4173,0.1797,-0.0002,-0.0000,2.5577,flat,18.0,0,10.783
4220,135.04,0.7044,-3.0993,0.1797,-0.0001,-0.0000,2.5219,flat,18.0,0,10.229
4230,135.36,0.2483,-2.7645,0.1797,-0.0001,-0.0000,2.4909,flat,18.0,0,9.671
4240,135.68,-0.1986,-2.4156,0.1797,-0.0001,-0.0000,2.4637,flat,18.0,0,9.110
4250,136.00,-0.6370,-2.0545,0.1797,-0.0001,-0.0000,2.4396,flat,18.0,0,8.547
4260,136.32,-1.0677,-1.6828,0.1797,-0.0001,-0.0000,2.4178,flat,18.0,0,7.981
4270,136.64,-1.4911,-1.3017,0.1797,-0.0001,-0.0000,2.3975,flat,18.0,0,7.414
4280,136.96,-1.9074,-0.9120,0.1797,-0.0001,-0.0000,2.3788,flat,18.0,0,6.846
4290,137.28,-2.3169,-0.5144,0.1797,-0.0001,-0.0000,2.3617,flat,18.0,0,6.277
4300,137.60,-2.7199,-0.1098,0.1797,-0.0001,-0.0000,2.3457,flat,18.0,0,5.707
4310,137.92,-3.1168,0.3012,0.1797,-0.0001,-0.0000,2.3304,flat,18.0,0,5.136
4320,138.24,-3.5074,0.7183,0.1797,-0.0001,-0.0000,2.3156,flat,18.0,0,4.566
4330,138.56,-3.8919,1.1411,0.1797,-0.0001,-0.0000,2.3011,flat,18.0,0,3.994
4340,138.88,-4.2702,1.5693,0.1797,-0.0001,0.0000,2.2868,flat,18.0,0,3.423
4350,139.20,-4.6423,2.0027,0.1797,-0.0001,0.0000,2.2722,flat,18.0,0,2.852
4360,139.52,-5.0076,2.4413,0.1797,-0.0001,0.0000,2.2565,flat,18.0,0,2.281
4370,139.84,-5.3650,2.8853,0.1797,-0.0001,0.0000,2.2380,flat,18.0,0,1.711
4380,140.16,-5.7123,3.3352,0.1797,-0.0001,0.0000,2.2135,flat,18.0,0,1.144
4390,140.48,-6.0248,3.7747,0.1798,-0.0001,0.0004,2.0993,flat,18.0,1,6.949
4400,140.80,-6.1940,4.1375,0.1799,0.0001,-0.0000,1.6487,flat,18.0,1,7.057
4410,141.12,-6.2004,4.5588,0.1799,-0.0002,0.0000,1.2644,flat,18.0,1,7.020
4420,141.44,-6.0258,4.9887,0.1799,-0.0001,-0.0000,0.9835,flat,18.0,1,6.826
4430,141.76,-5.7113,5.3794,0.1799,-0.0001,-0.0000,0.7704,flat,18.0,1,6.518
4440,142.08,-5.3059,5.7182,0.1799,-0.0001,-0.0000,0.5921,flat,18.0,1,6.139
4450,142.40,-4.8397,5.9971,0.1799,-0.0001,-0.0000,0.4317,flat,18.0,1,5.713
4460,142.72,-4.3304,6.2086,0.1799,-0.0001,-0.0000,0.2898,flat,18.0,1,5.252
4470,143.04,-3.7932,6.3523,0.1799,-0.0003,-0.0000,0.1653,flat,18.0,1,4.765
4480,143.36,-3.2399,6.4317,0.1798,-0.0004,-0.0000,0.0555,flat,18.0,1,4.259
4490,143.68,-2.6796,6.4518,0.1798,-0.0004,-0.0000,-0.0418,flat,18.0,1,3.739
4500,144.00,-2.1194,6.4189,0.1798,-0.0004,-0.0000,-0.1244,flat,18.0,1,3.210
4510,144.32,-1.5638,6.3407,0.1798,-0.0003,-0.0000,-0.1981,flat,18.0,1,2.677
4520,144.64,-1.0162,6.2220,0.1797,-0.0003,-0.0000,-0.2684,flat,18.0,1,2.144
4530,144.96,-0.4805,6.0650,0.1798,-0.0003,0.0000,-0.3419,flat,18.0,1,1.614
4540,145.28,0.0370,5.8684,0.1798,-0.0004,0.0000,-0.4282,flat,18.0,1,1.095
4550,145.60,0.5292,5.6313,0.1798,-0.0003,-0.0002,-0.4784,flat,18.0,2,10.052
4560,145.92,1.0268,5.3648,0.1797,-0.0002,-0.0000,-0.5159,flat,18.0,2,9.496
4570,146.24,1.5156,5.0798,0.1797,-0.0001,-0.0000,-0.5475,flat,18.0,2,8.937
4580,146.56,1.9965,4.7795,0.1797,-0.0001,-0.0000,-0.5751,flat,18.0,2,8.374
4590,146.88,2.4701,4.4658,0.1797,-0.0001,-0.0000,-0.5995,flat,18.0,2,7.810
4600,147.20,2.9367,4.1406,0.1797,-0.0001,-0.0000,-0.6213,flat,18.0,2,7.244
4610,147.52,3.3970,3.8052,0.1797,-0.0001,-0.0000,-0.6411,flat,18.0,2,6.676
4620,147.84,3.8511,3.4607,0.1797,-0.0001,-0.0000,-0.6592,flat,18.0,2,6.107
4630,148.16,4.2994,3.1079,0.1797,-0.0001,-0.0000,-0.6760,flat,18.0,2,5.537
4640,148.48,4.7421,2.7476,0.1797,-0.0001,-0.0000,-0.6918,flat,18.0,2,4.967
4650,148.80,5.1793,2.3804,0.1797,-0.0001,-0.0000,-0.7069,flat,18.0,2,4.397
4660,149.12,5.6110,2.0065,0.1797,-0.0001,-0.0000,-0.7218,flat,18.0,2,3.826
4670,149.44,6.0372,1.6263,0.1797,-0.0001,-0.0000,-0.7370,flat,18.0,2,3.254
4680,149.76,6.4574,1.2395,0.1797,-0.0001,0.0000,-0.7529,flat,18.0,2,2.683
4690,150.08,6.8710,0.8462,0.1797,-0.0001,0.0000,-0.7700,flat,18.0,2,2.113
4700,150.40,7.2767,0.4459,0.1797,-0.0001,0.0000,-0.7898,flat,18.0,2,1.544
4710,150.72,7.6718,0.0381,0.1797,-0.0001,0.0000,-0.8166,flat,18.0,2,0.980
4720,151.04,7.9967,-0.3336,0.1798,0.0002,0.0000,-1.0151,flat,18.0,3,5.897
4730,151.36,8.2020,-0.7381,0.1799,-0.0000,-0.0000,-1.3598,flat,18.0,3,5.775
4740,151.68,8.2771,-1.2221,0.1799,0.0001,-0.0001,-1.6752,flat,18.0,3,5.533
4750,152.00,8.1984,-1.7277,0.1799,-0.0000,-0.0000,-1.9159,flat,18.0,3,5.184
4760,152.32,7.9949,-2.2121,0.1799,-0.0001,-0.0000,-2.0972,flat,18.0,3,4.764
4770,152.64,7.7027,-2.6603,0.1799,-0.0002,-0.0000,-2.2348,flat,18.0,3,4.301
4780,152.96,7.3490,-3.0735,0.1798,-0.0003,-0.0000,-2.3401,flat,18.0,3,3.812
4790,153.28,6.9519,-3.4476,0.1798,-0.0004,-0.0000,-2.4444,flat,18.0,3,3.311
4800,153.60,6.5160,-3.7837,0.1798,-0.0004,-0.0000,-2.5501,flat,18.0,3,2.797
4810,153.92,6.0458,-4.0755,0.1798,-0.0004,-0.0000,-2.6599,flat,18.0,3,2.275
4820,154.24,5.5465,-4.3163,0.1799,-0.0003,-0.0000,-2.7794,flat,18.0,3,1.747
4830,154.56,5.0238,-4.4963,0.1799,-0.0001,0.0000,-2.9208,flat,18.0,3,1.216
4840,154.88,4.4916,-4.5951,0.1799,-0.0002,-0.0001,-3.1117,flat,18.0,0,14.049
4850,155.20,3.9528,-4.5908,0.1799,-0.0001,-0.0000,2.9866,flat,18.0,0,13.630
4860,155.52,3.4238,-4.4913,0.1799,-0.0002,0.0004,2.8613,flat,18.0,0,13.164
4870,155.84,2.9087,-4.3214,0.1787,0.0001,0.0070,2.7761,flat,18.0,0,12.667
4880,156.16,2.3955,-4.1122,0.1797,-0.0003,0.0007,2.6981,flat,18.0,0,12.147
4890,156.48,1.8961,-3.8625,0.1797,-0.0002,0.0001,2.6349,flat,18.0,0,11.613
4900,156.80,1.4102,-3.5815,0.1797,-0.0002,0.0000,2.5838,flat,18.0,0,11.069
4910,157.12,0.9373,-3.2757,0.1797,-0.0001,-0.0000,2.5430,flat,18.0,0,10.518
4920,157.44,0.4754,-2.9508,0.1797,-0.0001,-0.0000,2.5088,flat,18.0,0,9.963
4930,157.76,0.0232,-2.6101,0.1797,-0.0001,-0.0000,2.4791,flat,18.0,0,9.404
4940,158.08,-0.4199,-2.2558,0.1797,-0.0001,-0.0000,2.4529,flat,18.0,0,8.842
4950,158.40,-0.8547,-1.8900,0.1797,-0.0001,-0.0000,2.4295,flat,18.0,0,8.278
4960,158.72,-1.2819,-1.5139,0.1797,-0.0001,-0.0000,2.4080,flat,18.0,0,7.712
4970,159.04,-1.7018,-1.1287,0.1797,-0.0001,-0.0000,2.3881,flat,18.0,0,7.145
4980,159.36,-2.1145,-0.7350,0.1797,-0.0001,-0.0000,2.3698,flat,18.0,0,6.576
4990,159.68,-2.5205,-0.3337,0.1797,-0.0001,-0.0000,2.3530,flat,18.0,0,6.007
5000,160.00,-2.9201,0.0743,0.1797,-0.0001,-0.0000,2.3371,flat,18.0,0,5.437
5010,160.32,-3.3134,0.4887,0.1797,-0.0001,-0.0000,2.3218,flat,18.0,0,4.866
5020,160.64,-3.7003,0.9092,0.1797,-0.0001,-0.0000,2.3069,flat,18.0,0,4.295
5030,160.96,-4.0811,1.3352,0.1797,-0.0001,0.0000,2.2923,flat,18.0,0,3.724
5040,161.28,-4.4555,1.7666,0.1797,-0.0001,0.0000,2.2777,flat,18.0,0,3.153
5050,161.60,-4.8234,2.2033,0.1797,-0.0001,0.0000,2.2625,flat,18.0,0,2.582
5060,161.92,-5.1839,2.6453,0.1797,-0.0001,0.0000,2.2454,flat,18.0,0,2.012
5070,162.24,-5.5356,3.0931,0.1797,-0.0001,0.0000,2.2244,flat,18.0,0,1.443
5080,162.56,-5.8747,3.5469,0.1797,-0.0001,0.0000,2.1932,flat,18.0,0,0.878
5090,162.88,-6.1178,3.9365,0.1798,0.0003,0.0000,1.8719,flat,18.0,1,7.012
5100,163.20,-6.2148,4.3280,0.1799,0.0001,-0.0000,1.4342,flat,18.0,1,7.055
5110,163.52,-6.1261,4.7632,0.1799,0.0001,-0.0000,1.1104,flat,18.0,1,6.933
5120,163.84,-5.8754,5.1770,0.1799,0.0000,-0.0000,0.8691,flat,18.0,1,6.676
5130,164.16,-5.5097,5.5423,0.1799,-0.0000,-0.0000,0.6799,flat,18.0,1,6.326
5140,164.48,-5.0719,5.8531,0.1799,-0.0001,-0.0000,0.5107,flat,18.0,1,5.922
5150,164.80,-4.5823,6.0993,0.1799,-0.0001,-0.0000,0.3600,flat,18.0,1,5.477
5160,165.12,-4.0576,6.2775,0.1799,-0.0002,-0.0000,0.2273,flat,18.0,1,5.002
5170,165.44,-3.5112,6.3894,0.1799,-0.0004,-0.0000,0.1106,flat,18.0,1,4.505
5180,165.76,-2.9535,6.4395,0.1798,-0.0004,-0.0000,0.0069,flat,18.0,1,3.991
5190,166.08,-2.3925,6.4331,0.1798,-0.0004,-0.0000,-0.0829,flat,18.0,1,3.466
5200,166.40,-1.8341,6.3777,0.1798,-0.0004,-0.0000,-0.1604,flat,18.0,1,2.935
5210,166.72,-1.2819,6.2797,0.1798,-0.0003,-0.0000,-0.2319,flat,18.0,1,2.401
5220,167.04,-0.7395,6.1426,0.1797,-0.0003,0.0000,-0.3031,flat,18.0,1,1.869
5230,167.36,-0.2118,5.9669,0.1798,-0.0003,0.0000,-0.3824,flat,18.0,1,1.343
5240,167.68,0.2941,5.7486,0.1798,-0.0004,0.0000,-0.4753,flat,18.0,1,0.836
5250,168.00,0.7860,5.4958,0.1798,-0.0002,-0.0001,-0.4980,flat,18.0,2,9.766
5260,168.32,1.2792,5.2195,0.1797,-0.0001,-0.0000,-0.5324,flat,18.0,2,9.208
5270,168.64,1.7639,4.9265,0.1797,-0.0001,-0.0000,-0.5618,flat,18.0,2,8.647
5280,168.96,2.2411,4.6192,0.1797,-0.0001,-0.0000,-0.5878,flat,18.0,2,8.084
5290,169.28,2.7111,4.2995,0.1797,-0.0001,-0.0000,-0.6108,flat,18.0,2,7.518
5300,169.60,3.1745,3.9690,0.1797,-0.0001,-0.0000,-0.6315,flat,18.0,2,6.951
5310,169.92,3.6316,3.6289,0.1797,-0.0001,-0.0000,-0.6504,flat,18.0,2,6.383
5320,170.24,4.0827,3.2801,0.1797,-0.0001,-0.0000,-0.6678,flat,18.0,2,5.814
5330,170.56,4.5281,2.9234,0.1797,-0.0001,-0.0000,-0.6841,flat,18.0,2,5.244
5340,170.88,4.9680,2.5595,0.1797,-0.0001,-0.0000,-0.6995,flat,18.0,2,4.673
5350,171.20,5.4024,2.1889,0.1797,-0.0001,-0.0000,-0.7145,flat,18.0,2,4.103
5360,171.52,5.8313,1.8117,0.1797,-0.0001,-0.0000,-0.7296,flat,18.0,2,3.531
5370,171.84,6.2545,1.4282,0.1797,-0.0001,0.0000,-0.7451,flat,18.0,2,2.960
5380,172.16,6.6714,1.0380,0.1797,-0.0001,0.0000,-0.7615,flat,18.0,2,2.389
5390,172.48,7.0811,0.6412,0.1797,-0.0001,0.0000,-0.7797,flat,18.0,2,1.820
5400,172.80,7.4819,0.2372,0.1797,-0.0001,0.0000,-0.8022,flat,18.0,2,1.252
5410,173.12,7.8663,-0.1717,0.1797,-0.0001,0.0002,-0.8527,flat,18.0,3,5.922
5420,173.44,8.1169,-0.5289,0.1799,0.0001,-0.0000,-1.1893,flat,18.0,3,5.850
5430,173.76,8.2555,-0.9492,0.1798,-0.0003,0.0002,-1.4691,flat,18.0,3,5.682
5440,174.08,8.2804,-1.4377,0.1799,-0.0001,-0.0000,-1.7584,flat,18.0,3,5.412
5450,174.40,8.1572,-1.9380,0.1799,-0.0001,-0.0000,-1.9834,flat,18.0,3,5.040
5460,174.72,7.9198,-2.4096,0.1799,-0.0001,-0.0000,-2.1510,flat,18.0,3,4.606
5470,175.04,7.6022,-2.8444,0.1799,-0.0003,-0.0000,-2.2757,flat,18.0,3,4.134
5480,175.36,7.2312,-3.2416,0.1798,-0.0004,-0.0000,-2.3818,flat,18.0,3,3.642
5490,175.68,6.8181,-3.6006,0.1798,-0.0004,-0.0000,-2.4879,flat,18.0,3,3.137
5500,176.00,6.3675,-3.9188,0.1798,-0.0004,-0.0000,-2.5961,flat,18.0,3,2.622
5510,176.32,5.8844,-4.1897,0.1798,-0.0004,-0.0000,-2.7097,flat,18.0,3,2.097
5520,176.64,5.3740,-4.4058,0.1799,-0.0003,-0.0000,-2.8358,flat,18.0,3,1.568
5530,176.96,4.8437,-4.5558,0.1799,-0.0001,0.0000,-2.9911,flat,18.0,3,1.038
5540,177.28,4.3080,-4.6143,0.1798,-0.0032,0.0037,3.0960,flat,18.0,0,13.919
5550,177.60,3.7684,-4.5692,0.1799,-0.0001,0.0000,2.9285,flat,18.0,0,13.476
5560,177.92,3.2607,-4.4445,0.1798,-0.0001,-0.0002,2.8377,flat,18.0,0,13.011
5570,178.24,2.7382,-4.2658,0.1798,-0.0004,-0.0000,2.7435,flat,18.0,0,12.503
5580,178.56,2.2302,-4.0389,0.1798,-0.0003,-0.0000,2.6711,flat,18.0,0,11.977
5590,178.88,1.7362,-3.7757,0.1797,-0.0002,-0.0000,2.6134,flat,18.0,0,11.438
5600,179.20,1.2554,-3.4842,0.1797,-0.0002,-0.0000,2.5665,flat,18.0,0,10.891
5610,179.52,0.7871,-3.1704,0.1797,-0.0001,-0.0000,2.5292,flat,18.0,0,10.338
5620,179.84,0.3290,-2.8391,0.1797,-0.0001,-0.0000,2.4970,flat,18.0,0,9.781
5630,180.16,-0.1197,-2.4929,0.1797,-0.0001,-0.0000,2.4689,flat,18.0,0,9.220
5640,180.48,-0.5597,-2.1341,0.1797,-0.0001,-0.0000,2.4440,flat,18.0,0,8.658
5650,180.80,-0.9917,-1.7643,0.1797,-0.0001,-0.0000,2.4216,flat,18.0,0,8.093
5660,181.12,-1.4163,-1.3849,0.1797,-0.0001,-0.0000,2.4008,flat,18.0,0,7.526
5670,181.44,-1.8337,-0.9966,0.1797,-0.0001,-0.0000,2.3816,flat,18.0,0,6.958
5680,181.76,-2.2442,-0.6002,0.1797,-0.0001,-0.0000,2.3641,flat,18.0,0,6.389
5690,182.08,-2.6481,-0.1966,0.1797,-0.0001,-0.0000,2.3478,flat,18.0,0,5.820
5700,182.40,-3.0457,0.2136,0.1797,-0.0001,-0.0000,2.3323,flat,18.0,0,5.249
5710,182.72,-3.4370,0.6299,0.1797,-0.0001,-0.0000,2.3173,flat,18.0,0,4.678
5720,183.04,-3.8222,1.0521,0.1797,-0.0001,-0.0000,2.3026,flat,18.0,0,4.107
5730,183.36,-4.2012,1.4797,0.1797,-0.0001,0.0000,2.2882,flat,18.0,0,3.536
5740,183.68,-4.5739,1.9126,0.1797,-0.0001,0.0000,2.2736,flat,18.0,0,2.965
5750,184.00,-4.9398,2.3507,0.1797,-0.0001,0.0000,2.2581,flat,18.0,0,2.394
5760,184.32,-5.2982,2.7942,0.1797,-0.0001,0.0000,2.2402,flat,18.0,0,1.824
5770,184.64,-5.6469,3.2436,0.1797,-0.0001,0.0000,2.2172,flat,18.0,0,1.256
5780,184.96,-5.9784,3.6958,0.1797,-0.0001,0.0002,2.1635,flat,18.0,1,6.919
5790,185.28,-6.1720,4.0614,0.1799,0.0002,0.0000,1.7362,flat,18.0,1,7.046
5800,185.60,-6.2150,4.4717,0.1799,-0.0002,-0.0000,1.3294,flat,18.0,1,7.041
5810,185.92,-6.0732,4.9053,0.1799,-0.0001,-0.0000,1.0326,flat,18.0,1,6.875
5820,186.24,-5.7826,5.3056,0.1799,-0.0001,-0.0000,0.8079,flat,18.0,1,6.586
5830,186.56,-5.3915,5.6548,0.1799,-0.0001,-0.0000,0.6259,flat,18.0,1,6.218
5840,186.88,-4.9359,5.9464,0.1799,-0.0001,-0.0000,0.4619,flat,18.0,1,5.800
5850,187.20,-4.4337,6.1714,0.1799,-0.0001,-0.0000,0.3164,flat,18.0,1,5.346
5860,187.52,-3.9009,6.3284,0.1799,-0.0003,-0.0000,0.1887,flat,18.0,1,4.863
5870,187.84,-3.3501,6.4201,0.1799,-0.0004,-0.0000,0.0762,flat,18.0,1,4.360
5880,188.16,-2.7905,6.4515,0.1798,-0.0004,-0.0000,-0.0237,flat,18.0,1,3.842
5890,188.48,-2.2299,6.4285,0.1798,-0.0004,-0.0000,-0.1089,flat,18.0,1,3.315
5900,188.80,-1.6731,6.3589,0.1798,-0.0003,-0.0000,-0.1838,flat,18.0,1,2.783
5910,189.12,-1.1236,6.2480,0.1797,-0.0003,-0.0000,-0.2544,flat,18.0,1,2.249
5920,189.44,-0.5851,6.0987,0.1798,-0.0003,0.0000,-0.3266,flat,18.0,1,1.717
5930,189.76,-0.0634,5.9104,0.1798,-0.0004,0.0000,-0.4099,flat,18.0,1,1.196
5940,190.08,0.4300,5.6821,0.1798,-0.0004,-0.0001,-0.4721,flat,18.0,2,10.161
5950,190.40,0.9293,5.4188,0.1797,-0.0002,-0.0000,-0.5091,flat,18.0,2,9.606
5960,190.72,1.4197,5.1372,0.1797,-0.0001,-0.0000,-0.5416,flat,18.0,2,9.047
5970,191.04,1.9021,4.8397,0.1797,-0.0001,-0.0000,-0.5699,flat,18.0,2,8.486
5980,191.36,2.3771,4.5285,0.1797,-0.0001,-0.0000,-0.5949,flat,18.0,2,7.921
5990,191.68,2.8451,4.2054,0.1797,-0.0001,-0.0000,-0.6172,flat,18.0,2,7.355
6000,192.00,3.3066,3.8720,0.1797,-0.0001,-0.0000,-0.6373,flat,18.0,2,6.788
6010,192.32,3.7619,3.5292,0.1797,-0.0001,-0.0000,-0.6557,flat,18.0,2,6.219
6020,192.64,4.2113,3.1780,0.1797,-0.0001,-0.0000,-0.6727,flat,18.0,2,5.650
6030,192.96,4.6551,2.8192,0.1797,-0.0001,-0.0000,-0.6887,flat,18.0,2,5.080
6040,193.28,5.0934,2.4532,0.1797,-0.0001,-0.0000,-0.7039,flat,18.0,2,4.509
6050,193.60,5.5262,2.0807,0.1797,-0.0001,-0.0000,-0.7189,flat,18.0,2,3.938
6060,193.92,5.9535,1.7017,0.1797,-0.0001,-0.0000,-0.7340,flat,18.0,2,3.367
6070,194.24,6.3750,1.3162,0.1797,-0.0001,0.0000,-0.7497,flat,18.0,2,2.796
6080,194.56,6.7899,0.9242,0.1797,-0.0001,0.0000,-0.7665,flat,18.0,2,2.225
6090,194.88,7.1974,0.5253,0.1797,-0.0001,0.0000,-0.7855,flat,18.0,2,1.656
6100,195.20,7.5950,0.1192,0.1797,-0.0001,0.0000,-0.8103,flat,18.0,2,1.090
6110,195.52,7.9467,-0.2674,0.1798,0.0000,0.0003,-0.9451,flat,18.0,3,5.909
6120,195.84,8.1704,-0.6504,0.1799,0.0000,-0.0000,-1.2922,flat,18.0,3,5.808
6130,196.16,8.2676,-1.0688,0.1798,0.0002,-0.0004,-1.5142,flat,18.0,3,5.618
6140,196.48,8.2695,-1.5625,0.1799,-0.0000,0.0000,-1.7961,flat,18.0,3,5.334
6150,196.80,8.1265,-2.0590,0.1799,-0.0001,-0.0000,-2.0147,flat,18.0,3,4.953
6160,197.12,7.8738,-2.5237,0.1799,-0.0001,-0.0000,-2.1769,flat,18.0,3,4.514
6170,197.44,7.5447,-2.9514,0.1799,-0.0003,-0.0000,-2.2970,flat,18.0,3,4.039
6180,197.76,7.1650,-3.3400,0.1798,-0.0004,-0.0000,-2.4046,flat,18.0,3,3.547
6190,198.08,6.7435,-3.6901,0.1798,-0.0004,-0.0000,-2.5126,flat,18.0,3,3.041
6200,198.40,6.2850,-3.9976,0.1798,-0.0004,-0.0000,-2.6230,flat,18.0,3,2.525
6210,198.72,5.7947,-4.2558,0.1799,-0.0004,-0.0000,-2.7397,flat,18.0,3,2.000
6220,199.04,5.2786,-4.4565,0.1799,-0.0002,-0.0000,-2.8710,flat,18.0,3,1.471
6230,199.36,4.7447,-4.5875,0.1799,-0.0001,0.0000,-3.0363,flat,18.0,3,0.942
6240,199.68,4.2083,-4.6208,0.1799,-0.0001,-0.0000,3.0502,flat,18.0,0,13.846
6250,200.00,3.6686,-4.5526,0.1799,-0.0001,-0.0000,2.8969,flat,18.0,0,13.389
6260,200.32,3.1631,-4.4133,0.1798,-0.0001,-0.0002,2.8119,flat,18.0,0,12.917
6270,200.64,2.6439,-4.2214,0.1798,-0.0003,-0.0000,2.7244,flat,18.0,0,12.404
6280,200.96,2.1392,-3.9849,0.1797,-0.0003,-0.0000,2.6563,flat,18.0,0,11.874
6290,201.28,1.6483,-3.7144,0.1797,-0.0002,-0.0000,2.6017,flat,18.0,0,11.332
6300,201.60,1.1705,-3.4173,0.1797,-0.0002,-0.0000,2.5578,flat,18.0,0,10.783
6310,201.92,0.7044,-3.0993,0.1797,-0.0001,-0.0000,2.5219,flat,18.0,0,10.229
6320,202.24,0.2483,-2.7645,0.1797,-0.0001,-0.0000,2.4909,flat,18.0,0,9.671
6330,202.56,-0.1986,-2.4156,0.1797,-0.0001,-0.0000,2.4637,flat,18.0,0,9.110
6340,202.88,-0.6371,-2.0545,0.1797,-0.0001,-0.0000,2.4396,flat,18.0,0,8.547
6350,203.20,-1.0677,-1.6829,0.1797,-0.0001,-0.0000,2.4178,flat,18.0,0,7.981
6360,203.52,-1.4911,-1.3018,0.1797,-0.0001,-0.0000,2.3975,flat,18.0,0,7.414
6370,203.84,-1.9074,-0.9120,0.1797,-0.0001,-0.0000,2.3788,flat,18.0,0,6.846
6380,204.16,-2.3169,-0.5144,0.1797,-0.0001,-0.0000,2.3617,flat,18.0,0,6.277
6390,204.48,-2.7200,-0.1099,0.1797,-0.0001,-0.0000,2.3457,flat,18.0,0,5.707
6400,204.80,-3.1168,0.3012,0.1797,-0.0001,-0.0000,2.3304,flat,18.0,0,5.136
6410,205.12,-3.5074,0.7182,0.1797,-0.0001,-0.0000,2.3156,flat,18.0,0,4.566
6420,205.44,-3.8919,1.1411,0.1797,-0.0001,-0.0000,2.3011,flat,18.0,0,3.994
6430,205.76,-4.2703,1.5693,0.1797,-0.0001,0.0000,2.2868,flat,18.0,0,3.423
6440,206.08,-4.6423,2.0027,0.1797,-0.0001,0.0000,2.2722,flat,18.0,0,2.852
6450,206.40,-5.0076,2.4413,0.1797,-0.0001,0.0000,2.2565,flat,18.0,0,2.281
6460,206.72,-5.3650,2.8853,0.1797,-0.0001,0.0000,2.2380,flat,18.0,0,1.711
6470,207.04,-5.7123,3.3352,0.1797,-0.0001,0.0000,2.2134,flat,18.0,0,1.144
6480,207.36,-6.0248,3.7747,0.1798,-0.0001,0.0004,2.0993,flat,18.0,1,6.949
6490,207.68,-6.1940,4.1375,0.1799,0.0001,-0.0000,1.6487,flat,18.0,1,7.057
6500,208.00,-6.2004,4.5588,0.1799,-0.0002,0.0000,1.2643,flat,18.0,1,7.020
6510,208.32,-6.0258,4.9887,0.1799,-0.0001,-0.0000,0.9835,flat,18.0,1,6.826
6520,208.64,-5.7113,5.3794,0.1799,-0.0001,-0.0000,0.7704,flat,18.0,1,6.518
6530,208.96,-5.3059,5.7182,0.1799,-0.0001,-0.0000,0.5921,flat,18.0,1,6.139
6540,209.28,-4.8397,5.9971,0.1799,-0.0001,-0.0000,0.4317,flat,18.0,1,5.713
6550,209.60,-4.3304,6.2086,0.1799,-0.0001,-0.0000,0.2898,flat,18.0,1,5.252
6560,209.92,-3.7932,6.3523,0.1799,-0.0003,-0.0000,0.1653,flat,18.0,1,4.765
6570,210.24,-3.2399,6.4317,0.1798,-0.0004,-0.0000,0.0555,flat,18.0,1,4.259
6580,210.56,-2.6796,6.4517,0.1798,-0.0004,-0.0000,-0.0418,flat,18.0,1,3.739
6590,210.88,-2.1194,6.4189,0.1798,-0.0004,-0.0000,-0.1244,flat,18.0,1,3.210
6600,211.20,-1.5638,6.3407,0.1798,-0.0003,-0.0000,-0.1981,flat,18.0,1,2.677
6610,211.52,-1.0162,6.2220,0.1797,-0.0003,-0.0000,-0.2684,flat,18.0,1,2.144
6620,211.84,-0.4805,6.0650,0.1798,-0.0003,0.0000,-0.3419,flat,18.0,1,1.614
6630,212.16,0.0370,5.8684,0.1798,-0.0004,0.0000,-0.4282,flat,18.0,1,1.095
6640,212.48,0.5292,5.6313,0.1798,-0.0003,-0.0002,-0.4784,flat,18.0,2,10.052
6650,212.80,1.0268,5.3648,0.1797,-0.0002,-0.0000,-0.5159,flat,18.0,2,9.496
6660,213.12,1.5156,5.0798,0.1797,-0.0001,-0.0000,-0.5475,flat,18.0,2,8.937
6670,213.44,1.9965,4.7794,0.1797,-0.0001,-0.0000,-0.5751,flat,18.0,2,8.374
6680,213.76,2.4701,4.4658,0.1797,-0.0001,-0.0000,-0.5995,flat,18.0,2,7.810
6690,214.08,2.9367,4.1406,0.1797,-0.0001,-0.0000,-0.6213,flat,18.0,2,7.244
6700,214.40,3.3970,3.8052,0.1797,-0.0001,-0.0000,-0.6411,flat,18.0,2,6.676
6710,214.72,3.8511,3.4607,0.1797,-0.0001,-0.0000,-0.6592,flat,18.0,2,6.107
6720,215.04,4.2994,3.1079,0.1797,-0.0001,-0.0000,-0.6760,flat,18.0,2,5.537
6730,215.36,4.7421,2.7476,0.1797,-0.0001,-0.0000,-0.6918,flat,18.0,2,4.967
6740,215.68,5.1793,2.3804,0.1797,-0.0001,-0.0000,-0.7069,flat,18.0,2,4.397
6750,216.00,5.6110,2.0065,0.1797,-0.0001,-0.0000,-0.7218,flat,18.0,2,3.826
6760,216.32,6.0372,1.6262,0.1797,-0.0001,-0.0000,-0.7370,flat,18.0,2,3.254
6770,216.64,6.4574,1.2395,0.1797,-0.0001,0.0000,-0.7529,flat,18.0,2,2.683
6780,216.96,6.8710,0.8461,0.1797,-0.0001,0.0000,-0.7700,flat,18.0,2,2.113
6790,217.28,7.2767,0.4459,0.1797,-0.0001,0.0000,-0.7898,flat,18.0,2,1.544
6800,217.60,7.6718,0.0381,0.1797,-0.0001,0.0000,-0.8166,flat,18.0,2,0.980
6810,217.92,7.9967,-0.3336,0.1798,0.0002,0.0000,-1.0151,flat,18.0,3,5.897
6820,218.24,8.2020,-0.7381,0.1799,-0.0000,-0.0000,-1.3598,flat,18.0,3,5.775
6830,218.56,8.2771,-1.2221,0.1799,0.0001,-0.0001,-1.6752,flat,18.0,3,5.533
6840,218.88,8.1985,-1.7277,0.1799,-0.0000,-0.0000,-1.9159,flat,18.0,3,5.184
6850,219.20,7.9949,-2.2121,0.1799,-0.0001,-0.0000,-2.0972,flat,18.0,3,4.764
6860,219.52,7.7027,-2.6604,0.1799,-0.0002,-0.0000,-2.2348,flat,18.0,3,4.301
6870,219.84,7.3490,-3.0735,0.1798,-0.0003,-0.0000,-2.3401,flat,18.0,3,3.812
6880,220.16,6.9519,-3.4476,0.1798,-0.0004,-0.0000,-2.4444,flat,18.0,3,3.311
6890,220.48,6.5160,-3.7836,0.1798,-0.0004,-0.0000,-2.5501,flat,18.0,3,2.797
6900,220.80,6.0458,-4.0755,0.1798,-0.0004,-0.0000,-2.6599,flat,18.0,3,2.275
6910,221.12,5.5465,-4.3163,0.1799,-0.0003,-0.0000,-2.7794,flat,18.0,3,1.747
6920,221.44,5.0238,-4.4963,0.1799,-0.0001,0.0000,-2.9208,flat,18.0,3,1.216
6930,221.76,4.4916,-4.5951,0.1799,-0.0002,-0.0001,-3.1117,flat,18.0,0,14.049
6940,222.08,3.9528,-4.5908,0.1799,-0.0001,-0.0000,2.9866,flat,18.0,0,13.630
6950,222.40,3.4238,-4.4913,0.1799,-0.0002,0.0004,2.8613,flat,18.0,0,13.164
6960,222.72,2.9086,-4.3214,0.1787,0.0001,0.0070,2.7761,flat,18.0,0,12.667
6970,223.04,2.3955,-4.1121,0.1797,-0.0003,0.0007,2.6980,flat,18.0,0,12.147
6980,223.36,1.8961,-3.8624,0.1797,-0.0002,0.0001,2.6349,flat,18.0,0,11.613
6990,223.68,1.4102,-3.5814,0.1797,-0.0002,0.0000,2.5838,flat,18.0,0,11.069
7000,224.00,0.9373,-3.2756,0.1797,-0.0001,-0.0000,2.5430,flat,18.0,0,10.518
7010,224.32,0.4754,-2.9507,0.1797,-0.0001,-0.0000,2.5088,flat,18.0,0,9.963
7020,224.64,0.0233,-2.6099,0.1797,-0.0001,-0.0000,2.4790,flat,18.0,0,9.404
7030,224.96,-0.4198,-2.2557,0.1797,-0.0001,-0.0000,2.4529,flat,18.0,0,8.842
7040,225.28,-0.8546,-1.8898,0.1797,-0.0001,-0.0000,2.4295,flat,18.0,0,8.278
7050,225.60,-1.2818,-1.5138,0.1797,-0.0001,-0.0000,2.4080,flat,18.0,0,7.712
7060,225.92,-1.7017,-1.1285,0.1797,-0.0001,-0.0000,2.3881,flat,18.0,0,7.145
7070,226.24,-2.1145,-0.7348,0.1797,-0.0001,-0.0000,2.3698,flat,18.0,0,6.576
7080,226.56,-2.5205,-0.3336,0.1797,-0.0001,-0.0000,2.3530,flat,18.0,0,6.007
7090,226.88,-2.9201,0.0745,0.1797,-0.0001,-0.0000,2.3372,flat,18.0,0,5.437
7100,227.20,-3.3133,0.4889,0.1797,-0.0001,-0.0000,2.3218,flat,18.0,0,4.866
7110,227.52,-3.7003,0.9093,0.1797,-0.0001,-0.0000,2.3069,flat,18.0,0,4.295
7120,227.84,-4.0810,1.3354,0.1797,-0.0001,0.0000,2.2924,flat,18.0,0,3.724
7130,228.16,-4.4555,1.7668,0.1797,-0.0001,0.0000,2.2778,flat,18.0,0,3.153
7140,228.48,-4.8233,2.2034,0.1797,-0.0001,0.0000,2.2625,flat,18.0,0,2.582
7150,228.80,-5.1839,2.6454,0.1797,-0.0001,0.0000,2.2454,flat,18.0,0,2.011
7160,229.12,-5.5356,3.0932,0.1797,-0.0001,0.0000,2.2244,flat,18.0,0,1.442
7170,229.44,-5.8748,3.5470,0.1797,-0.0001,0.0000,2.1932,flat,18.0,0,0.878
7180,229.76,-6.1179,3.9366,0.1798,0.0003,0.0000,1.8719,flat,18.0,1,7.012
7190,230.08,-6.2148,4.3281,0.1799,0.0001,-0.0000,1.4342,flat,18.0,1,7.055
7200,230.40,-6.1261,4.7633,0.1799,0.0001,-0.0000,1.1104,flat,18.0,1,6.933
7210,230.72,-5.8755,5.1771,0.1799,0.0000,-0.0000,0.8691,flat,18.0,1,6.676
7220,231.04,-5.5098,5.5424,0.1799,-0.0000,-0.0000,0.6799,flat,18.0,1,6.326
7230,231.36,-5.0720,5.8532,0.1799,-0.0001,-0.0000,0.5107,flat,18.0,1,5.922
7240,231.68,-4.5824,6.0994,0.1799,-0.0001,-0.0000,0.3600,flat,18.0,1,5.477
7250,232.00,-4.0576,6.2775,0.1799,-0.0002,-0.0000,0.2273,flat,18.0,1,5.002
7260,232.32,-3.5113,6.3895,0.1799,-0.0004,-0.0000,0.1106,flat,18.0,1,4.505
7270,232.64,-2.9536,6.4396,0.1798,-0.0004,-0.0000,0.0069,flat,18.0,1,3.991
7280,232.96,-2.3926,6.4331,0.1798,-0.0004,-0.0000,-0.0829,flat,18.0,1,3.466
7290,233.28,-1.8342,6.3778,0.1798,-0.0004,-0.0000,-0.1604,flat,18.0,1,2.935
7300,233.60,-1.2820,6.2798,0.1798,-0.0003,-0.0000,-0.2319,flat,18.0,1,2.401
7310,233.92,-0.7396,6.1426,0.1797,-0.0003,0.0000,-0.3031,flat,18.0,1,1.869
7320,234.24,-0.2119,5.9669,0.1798,-0.0003,0.0000,-0.3824,flat,18.0,1,1.344
7330,234.56,0.2940,5.7486,0.1798,-0.0004,0.0000,-0.4753,flat,18.0,1,0.836
7340,234.88,0.7860,5.4958,0.1798,-0.0002,-0.0001,-0.4980,flat,18.0,2,9.766
7350,235.20,1.2791,5.2196,0.1797,-0.0001,-0.0000,-0.5324,flat,18.0,2,9.208
7360,235.52,1.7639,4.9265,0.1797,-0.0001,-0.0000,-0.5619,flat,18.0,2,8.647
7370,235.84,2.2410,4.6192,0.1797,-0.0001,-0.0000,-0.5878,flat,18.0,2,8.084
7380,236.16,2.7110,4.2995,0.1797,-0.0001,-0.0000,-0.6108,flat,18.0,2,7.518
7390,236.48,3.1744,3.9690,0.1797,-0.0001,-0.0000,-0.6315,flat,18.0,2,6.951
7400,236.80,3.6315,3.6289,0.1797,-0.0001,-0.0000,-0.6504,flat,18.0,2,6.383
7410,237.12,4.0826,3.2801,0.1797,-0.0001,-0.0000,-0.6678,flat,18.0,2,5.814
7420,237.44,4.5281,2.9235,0.1797,-0.0001,-0.0000,-0.6841,flat,18.0,2,5.244
7430,237.76,4.9679,2.5596,0.1797,-0.0001,-0.0000,-0.6995,flat,18.0,2,4.673
7440,238.08,5.4023,2.1889,0.1797,-0.0001,-0.0000,-0.7145,flat,18.0,2,4.103
7450,238.40,5.8312,1.8118,0.1797,-0.0001,-0.0000,-0.7296,flat,18.0,2,3.532
7460,238.72,6.2544,1.4282,0.1797,-0.0001,0.0000,-0.7451,flat,18.0,2,2.960
7470,239.04,6.6713,1.0381,0.1797,-0.0001,0.0000,-0.7615,flat,18.0,2,2.390
7480,239.36,7.0810,0.6412,0.1797,-0.0001,0.0000,-0.7797,flat,18.0,2,1.820
7490,239.68,7.4818,0.2372,0.1797,-0.0001,0.0000,-0.8022,flat,18.0,2,1.253
7500,240.00,7.8662,-0.1716,0.1797,-0.0001,0.0002,-0.8527,flat,18.0,3,5.922
7510,240.32,8.1169,-0.5288,0.1799,0.0001,-0.0000,-1.1893,flat,18.0,3,5.850
7520,240.64,8.2554,-0.9491,0.1798,-0.0003,0.0002,-1.4691,flat,18.0,3,5.682
7530,240.96,8.2804,-1.4376,0.1799,-0.0001,-0.0000,-1.7586,flat,18.0,3,5.412
7540,241.28,8.1572,-1.9378,0.1799,-0.0001,-0.0000,-1.9836,flat,18.0,3,5.040
7550,241.60,7.9197,-2.4095,0.1799,-0.0001,-0.0000,-2.1511,flat,18.0,3,4.606
7560,241.92,7.6020,-2.8443,0.1799,-0.0003,-0.0000,-2.2757,flat,18.0,3,4.134
7570,242.24,7.2311,-3.2415,0.1798,-0.0004,-0.0000,-2.3818,flat,18.0,3,3.642
7580,242.56,6.8180,-3.6005,0.1798,-0.0004,-0.0000,-2.4879,flat,18.0,3,3.137
7590,242.88,6.3674,-3.9186,0.1798,-0.0004,-0.0000,-2.5961,flat,18.0,3,2.621
7600,243.20,5.8842,-4.1896,0.1798,-0.0004,-0.0000,-2.7096,flat,18.0,3,2.097
7610,243.52,5.3739,-4.4057,0.1799,-0.0003,-0.0000,-2.8358,flat,18.0,3,1.568
7620,243.84,4.8436,-4.5557,0.1799,-0.0001,0.0000,-2.9910,flat,18.0,3,1.038
7630,244.16,4.3078,-4.6142,0.1798,-0.0032,0.0037,3.0960,flat,18.0,0,13.918
7640,244.48,3.7683,-4.5692,0.1799,-0.0001,0.0000,2.9285,flat,18.0,0,13.475
7650,244.80,3.2606,-4.4444,0.1798,-0.0001,-0.0002,2.8378,flat,18.0,0,13.011
7660,245.12,2.7381,-4.2658,0.1798,-0.0004,-0.0000,2.7435,flat,18.0,0,12.503
7670,245.44,2.2300,-4.0389,0.1798,-0.0003,-0.0000,2.6711,flat,18.0,0,11.977
7680,245.76,1.7360,-3.7757,0.1797,-0.0002,-0.0000,2.6134,flat,18.0,0,11.438
7690,246.08,1.2552,-3.4842,0.1797,-0.0002,-0.0000,2.5665,flat,18.0,0,10.891
7700,246.40,0.7869,-3.1704,0.1797,-0.0001,-0.0000,2.5292,flat,18.0,0,10.338
7710,246.72,0.3288,-2.8390,0.1797,-0.0001,-0.0000,2.4970,flat,18.0,0,9.781
7720,247.04,-0.1198,-2.4929,0.1797,-0.0001,-0.0000,2.4689,flat,18.0,0,9.220
7730,247.36,-0.5599,-2.1341,0.1797,-0.0001,-0.0000,2.4440,flat,18.0,0,8.657
7740,247.68,-0.9918,-1.7643,0.1797,-0.0001,-0.0000,2.4216,flat,18.0,0,8.093
7750,248.00,-1.4165,-1.3849,0.1797,-0.0001,-0.0000,2.4008,flat,18.0,0,7.526
7760,248.32,-1.8339,-0.9965,0.1797,-0.0001,-0.0000,2.3816,flat,18.0,0,6.958
7770,248.64,-2.2443,-0.6001,0.1797,-0.0001,-0.0000,2.3641,flat,18.0,0,6.389
7780,248.96,-2.6482,-0.1966,0.1797,-0.0001,-0.0000,2.3478,flat,18.0,0,5.819
7790,249.28,-3.0458,0.2136,0.1797,-0.0001,-0.0000,2.3323,flat,18.0,0,5.249
7800,249.60,-3.4372,0.6299,0.1797,-0.0001,-0.0000,2.3173,flat,18.0,0,4.678
7810,249.92,-3.8223,1.0521,0.1797,-0.0001,-0.0000,2.3026,flat,18.0,0,4.107
7820,250.24,-4.2013,1.4798,0.1797,-0.0001,0.0000,2.2882,flat,18.0,0,3.536
7830,250.56,-4.5739,1.9127,0.1797,-0.0001,0.0000,2.2736,flat,18.0,0,2.965
7840,250.88,-4.9399,2.3508,0.1797,-0.0001,0.0000,2.2581,flat,18.0,0,2.394
7850,251.20,-5.2982,2.7943,0.1797,-0.0001,0.0000,2.2402,flat,18.0,0,1.824
7860,251.52,-5.6470,3.2436,0.1797,-0.0001,0.0000,2.2172,flat,18.0,0,1.256
7870,251.84,-5.9784,3.6959,0.1797,-0.0001,0.0002,2.1635,flat,18.0,1,6.919
7880,252.16,-6.1720,4.0615,0.1799,0.0002,0.0000,1.7362,flat,18.0,1,7.046
7890,252.48,-6.2151,4.4717,0.1799,-0.0002,-0.0000,1.3294,flat,18.0,1,7.042
7900,252.80,-6.0732,4.9053,0.1799,-0.0001,-0.0000,1.0326,flat,18.0,1,6.875
7910,253.12,-5.7826,5.3057,0.1799,-0.0001,-0.0000,0.8079,flat,18.0,1,6.586
7920,253.44,-5.3916,5.6549,0.1799,-0.0001,-0.0000,0.6258,flat,18.0,1,6.218
7930,253.76,-4.9359,5.9464,0.1799,-0.0001,-0.0000,0.4618,flat,18.0,1,5.800
7940,254.08,-4.4337,6.1715,0.1799,-0.0001,-0.0000,0.3164,flat,18.0,1,5.346
7950,254.40,-3.9009,6.3284,0.1799,-0.0003,-0.0000,0.1887,flat,18.0,1,4.863
7960,254.72,-3.3501,6.4201,0.1799,-0.0004,-0.0000,0.0762,flat,18.0,1,4.360
7970,255.04,-2.7905,6.4516,0.1798,-0.0004,-0.0000,-0.0237,flat,18.0,1,3.842
7980,255.36,-2.2299,6.4285,0.1798,-0.0004,-0.0000,-0.1089,flat,18.0,1,3.315
7990,255.68,-1.6731,6.3589,0.1798,-0.0003,-0.0000,-0.1838,flat,18.0,1,2.783
8000,256.00,-1.1236,6.2480,0.1797,-0.0003,-0.0000,-0.2544,flat,18.0,1,2.249
8010,256.32,-0.5851,6.0987,0.1798,-0.0003,0.0000,-0.3266,flat,18.0,1,1.717
8020,256.64,-0.0634,5.9104,0.1798,-0.0004,0.0000,-0.4099,flat,18.0,1,1.196
8030,256.96,0.4300,5.6821,0.1798,-0.0004,-0.0001,-0.4721,flat,18.0,2,10.161
