step,time_s,x,y,z,roll,pitch,yaw,terrain,speed,target_idx,dist_to_target
10,0.32,1.0685,-0.7750,0.1846,-0.0000,-0.0324,-0.0000,rough,14.0,0,5.685
20,0.64,1.5033,-0.7895,0.1793,-0.0000,0.0028,-0.1230,flat,18.0,0,5.355
30,0.96,2.0289,-0.8787,0.1799,-0.0000,-0.0000,-0.3129,flat,18.0,0,4.925
40,1.28,2.5348,-1.0644,0.1799,-0.0002,-0.0000,-0.4549,flat,18.0,0,4.454
50,1.60,3.0145,-1.3212,0.1798,-0.0004,-0.0000,-0.5672,flat,18.0,0,3.958
60,1.92,3.4689,-1.6323,0.1798,-0.0003,-0.0000,-0.6522,flat,18.0,0,3.444
70,2.24,3.8972,-1.9811,0.1798,-0.0003,-0.0000,-0.7302,flat,18.0,0,2.923
80,2.56,4.2941,-2.3631,0.1798,-0.0004,-0.0000,-0.8125,flat,18.0,0,2.400
90,2.88,4.6583,-2.7772,0.1798,-0.0004,-0.0000,-0.9021,flat,18.0,0,1.873
100,3.20,4.9842,-3.2226,0.1798,-0.0004,-0.0000,-1.0063,flat,18.0,0,1.347
110,3.52,5.2600,-3.6976,0.1799,-0.0002,0.0000,-1.1422,flat,18.0,0,0.827
120,3.84,5.3545,-3.9741,0.1796,0.0004,-0.0013,-0.6746,flat,18.0,1,12.275
130,4.16,5.6247,-4.1288,0.1774,-0.0002,0.0032,-0.1509,flat,18.0,1,12.517
140,4.48,6.0041,-4.1646,0.1799,0.0000,0.0000,0.3523,flat,18.0,1,12.694
150,4.80,6.3524,-3.9940,0.1799,-0.0000,-0.0001,0.6994,flat,18.0,1,12.680
160,5.12,6.6657,-3.6622,0.1799,0.0000,-0.0000,0.9630,flat,18.0,1,12.518
170,5.44,6.9211,-3.2283,0.1799,0.0000,-0.0000,1.2034,flat,18.0,1,12.253
180,5.76,7.0867,-2.7242,0.1799,0.0001,0.0000,1.4144,flat,18.0,1,11.898
190,6.08,7.1514,-2.1823,0.1799,0.0001,-0.0000,1.5927,flat,18.0,1,11.469
200,6.40,7.1236,-1.6305,0.1799,0.0003,-0.0000,1.7228,flat,18.0,1,10.992
210,6.72,7.0276,-1.0829,0.1798,0.0004,-0.0000,1.8165,flat,18.0,1,10.485
220,7.04,6.8819,-0.5431,0.1798,0.0003,-0.0000,1.8883,flat,18.0,1,9.961
230,7.36,6.6984,-0.0123,0.1797,0.0002,-0.0000,1.9454,flat,18.0,1,9.425
240,7.68,6.4851,0.5095,0.1797,0.0002,-0.0000,1.9920,flat,18.0,1,8.882
250,8.00,6.2480,1.0218,0.1797,0.0001,-0.0000,2.0288,flat,18.0,1,8.333
260,8.32,5.9921,1.5266,0.1797,0.0001,-0.0000,2.0606,flat,18.0,1,7.780
270,8.64,5.7203,2.0242,0.1797,0.0001,-0.0000,2.0886,flat,18.0,1,7.225
280,8.96,5.4346,2.5151,0.1797,0.0001,-0.0000,2.1135,flat,18.0,1,6.667
290,9.28,5.1366,2.9995,0.1797,0.0001,-0.0000,2.1359,flat,18.0,1,6.107
300,9.60,4.8278,3.4778,0.1797,0.0001,-0.0000,2.1564,flat,18.0,1,5.547
310,9.92,4.5092,3.9502,0.1797,0.0001,-0.0000,2.1755,flat,18.0,1,4.985
320,10.24,4.1817,4.4167,0.1797,0.0001,-0.0000,2.1935,flat,18.0,1,4.424
330,10.56,3.8457,4.8775,0.1797,0.0001,-0.0000,2.2108,flat,18.0,1,3.863
340,10.88,3.5017,5.3325,0.1797,0.0001,-0.0000,2.2278,flat,18.0,1,3.302
350,11.20,3.1500,5.7814,0.1797,0.0001,0.0000,2.2452,flat,18.0,1,2.744
360,11.52,2.7905,6.2235,0.1797,0.0001,0.0000,2.2638,flat,18.0,1,2.189
370,11.84,2.4230,6.6578,0.1797,0.0001,0.0000,2.2852,flat,18.0,1,1.642
380,12.16,2.0465,7.0817,0.1797,0.0001,0.0000,2.3139,flat,18.0,1,1.113
390,12.48,1.6776,7.4692,0.1798,0.0001,0.0004,2.4228,flat,18.0,2,15.652
400,12.80,1.3392,7.7030,0.1799,-0.0001,-0.0000,2.7749,flat,18.0,2,15.635
410,13.12,0.8949,7.8421,0.1799,0.0001,-0.0000,3.0965,flat,18.0,2,15.491
420,13.44,0.3946,7.8387,0.1799,0.0001,0.0000,-2.9293,flat,18.0,2,15.210
430,13.76,-0.1116,7.7043,0.1799,0.0001,-0.0000,-2.7393,flat,18.0,2,14.826
440,14.08,-0.5972,7.4724,0.1799,0.0002,-0.0000,-2.6032,flat,18.0,2,14.376
450,14.40,-1.0563,7.1746,0.1798,0.0004,-0.0000,-2.5057,flat,18.0,2,13.889
460,14.72,-1.4936,6.8326,0.1798,0.0003,-0.0000,-2.4366,flat,18.0,2,13.378
470,15.04,-1.9077,6.4602,0.1797,0.0002,-0.0000,-2.3742,flat,18.0,2,12.854
480,15.36,-2.3007,6.0617,0.1797,0.0002,-0.0000,-2.3209,flat,18.0,2,12.319
490,15.68,-2.6742,5.6424,0.1797,0.0002,-0.0000,-2.2746,flat,18.0,2,11.777
500,16.00,-3.0307,5.2066,0.1797,0.0001,-0.0000,-2.2348,flat,18.0,2,11.229
510,16.32,-3.3720,4.7562,0.1797,0.0001,-0.0000,-2.1992,flat,18.0,2,10.676
520,16.64,-3.6989,4.2934,0.1797,0.0001,-0.0000,-2.1673,flat,18.0,2,10.118
530,16.96,-4.0125,3.8199,0.1797,0.0001,-0.0000,-2.1387,flat,18.0,2,9.558
540,17.28,-4.3137,3.3372,0.1797,0.0001,-0.0000,-2.1129,flat,18.0,2,8.995
550,17.60,-4.6034,2.8465,0.1797,0.0001,-0.0000,-2.0895,flat,18.0,2,8.430
560,17.92,-4.8823,2.3488,0.1797,0.0001,-0.0000,-2.0683,flat,18.0,2,7.863
570,18.24,-5.1514,1.8451,0.1797,0.0001,-0.0000,-2.0490,flat,18.0,2,7.295
580,18.56,-5.4113,1.3360,0.1797,0.0001,-0.0000,-2.0312,flat,18.0,2,6.725
590,18.88,-5.6626,0.8222,0.1797,0.0001,-0.0000,-2.0148,flat,18.0,2,6.155
600,19.20,-5.9058,0.3041,0.1797,0.0001,-0.0000,-1.9995,flat,18.0,2,5.584
610,19.52,-6.1414,-0.2177,0.1797,0.0001,-0.0000,-1.9850,flat,18.0,2,5.013
620,19.84,-6.3696,-0.7430,0.1797,0.0000,-0.0000,-1.9712,flat,18.0,2,4.441
630,20.16,-6.5908,-1.2715,0.1797,0.0000,-0.0000,-1.9578,flat,18.0,2,3.869
640,20.48,-6.8048,-1.8029,0.1797,0.0000,-0.0000,-1.9444,flat,18.0,2,3.297
650,20.80,-7.0117,-2.3371,0.1797,0.0000,0.0000,-1.9305,flat,18.0,2,2.724
660,21.12,-7.2111,-2.8739,0.1797,0.0001,0.0000,-1.9154,flat,18.0,2,2.152
670,21.44,-7.4018,-3.4131,0.1797,0.0001,0.0000,-1.8974,flat,18.0,2,1.580
680,21.76,-7.5815,-3.9543,0.1797,0.0001,0.0000,-1.8714,flat,18.0,2,1.010
690,22.08,-7.7390,-4.4717,0.1799,0.0003,0.0000,-1.9746,flat,18.0,0,0.798
700,22.40,-7.8548,-4.8296,0.1798,-0.0003,0.0001,-1.6472,rough,14.0,0,13.203
710,22.72,-7.8678,-5.2034,0.1799,0.0000,-0.0001,-1.2651,flat,18.0,0,13.230
720,23.04,-7.7374,-5.5640,0.1798,0.0002,0.0001,-1.0755,flat,18.0,0,13.124
730,23.36,-7.4759,-5.9523,0.1799,0.0001,0.0000,-0.8326,flat,18.0,0,12.900
740,23.68,-7.1006,-6.3000,0.1799,0.0000,-0.0000,-0.6394,flat,18.0,0,12.572
750,24.00,-6.6504,-6.5940,0.1799,0.0001,-0.0000,-0.4674,flat,18.0,0,12.173
760,24.32,-6.1492,-6.8215,0.1799,0.0001,-0.0000,-0.3234,flat,18.0,0,11.722
770,24.64,-5.6163,-6.9832,0.1799,0.0003,-0.0000,-0.2057,flat,18.0,0,11.234
780,24.96,-5.0648,-7.0861,0.1798,0.0004,-0.0000,-0.1096,flat,18.0,0,10.721
790,25.28,-4.5035,-7.1384,0.1798,0.0004,-0.0000,-0.0308,flat,18.0,0,10.190
800,25.60,-3.9377,-7.1481,0.1797,0.0002,-0.0000,0.0331,flat,18.0,0,9.647
810,25.92,-3.3721,-7.1236,0.1797,0.0002,-0.0000,0.0812,flat,18.0,0,9.097
820,26.24,-2.8071,-7.0726,0.1797,0.0001,-0.0000,0.1202,flat,18.0,0,8.542
830,26.56,-2.2436,-7.0004,0.1797,0.0001,-0.0000,0.1525,flat,18.0,0,7.983
840,26.88,-1.6818,-6.9103,0.1797,0.0001,-0.0000,0.1801,flat,18.0,0,7.422
850,27.20,-1.1218,-6.8050,0.1797,0.0001,-0.0000,0.2040,flat,18.0,0,6.858
860,27.52,-0.5638,-6.6865,0.1797,0.0001,-0.0000,0.2251,flat,18.0,0,6.293
870,27.84,-0.0079,-6.5564,0.1797,0.0001,-0.0000,0.2440,flat,18.0,0,5.727
880,28.16,0.5458,-6.4160,0.1797,0.0001,-0.0000,0.2611,flat,18.0,0,5.160
890,28.48,1.0974,-6.2661,0.1797,0.0001,-0.0000,0.2769,flat,18.0,0,4.592
900,28.80,1.6468,-6.1076,0.1797,0.0001,-0.0000,0.2918,flat,18.0,0,4.024
910,29.12,2.1939,-5.9409,0.1797,0.0001,-0.0000,0.3062,flat,18.0,0,3.456
920,29.44,2.7385,-5.7664,0.1797,0.0001,0.0000,0.3206,flat,18.0,0,2.889
930,29.76,3.2803,-5.5841,0.1797,0.0001,0.0000,0.3356,flat,18.0,0,2.322
940,30.08,3.8185,-5.3936,0.1797,0.0001,0.0000,0.3526,flat,18.0,0,1.758
950,30.40,4.3517,-5.1938,0.1797,0.0001,0.0000,0.3748,flat,18.0,0,1.200
960,30.72,4.8654,-4.9905,0.1797,0.0001,0.0003,0.4493,flat,18.0,1,13.079
970,31.04,5.2514,-4.7650,0.1799,-0.0000,-0.0000,0.7109,flat,18.0,1,12.984
980,31.36,5.5634,-4.4378,0.1799,0.0000,-0.0000,0.9420,flat,18.0,1,12.783
990,31.68,5.8346,-4.0011,0.1799,0.0001,-0.0000,1.1615,flat,18.0,1,12.478
1000,32.00,6.0244,-3.4975,0.1799,0.0001,0.0000,1.3540,flat,18.0,1,12.092
1010,32.32,6.1238,-2.9561,0.1799,0.0001,-0.0000,1.5144,flat,18.0,1,11.645
1020,32.64,6.1404,-2.4002,0.1799,0.0003,-0.0000,1.6382,flat,18.0,1,11.155
1030,32.96,6.0919,-1.8432,0.1798,0.0004,-0.0000,1.7280,flat,18.0,1,10.640
1040,33.28,5.9952,-1.2901,0.1798,0.0003,-0.0000,1.7966,flat,18.0,1,10.110
1050,33.60,5.8619,-0.7425,0.1797,0.0002,-0.0000,1.8508,flat,18.0,1,9.568
1060,33.92,5.6995,-0.2012,0.1797,0.0002,-0.0000,1.8941,flat,18.0,1,9.020
1070,34.24,5.5143,0.3335,0.1797,0.0001,-0.0000,1.9287,flat,18.0,1,8.468
1080,34.56,5.3108,0.8628,0.1797,0.0001,-0.0000,1.9585,flat,18.0,1,7.912
1090,34.88,5.0918,1.3869,0.1797,0.0001,-0.0000,1.9845,flat,18.0,1,7.354
1100,35.20,4.8591,1.9061,0.1797,0.0001,-0.0000,2.0075,flat,18.0,1,6.793
1110,35.52,4.6147,2.4205,0.1797,0.0001,-0.0000,2.0281,flat,18.0,1,6.231
1120,35.84,4.3596,2.9304,0.1797,0.0001,-0.0000,2.0468,flat,18.0,1,5.669
1130,36.16,4.0951,3.4359,0.1797,0.0001,-0.0000,2.0640,flat,18.0,1,5.105
1140,36.48,3.8219,3.9371,0.1797,0.0001,-0.0000,2.0801,flat,18.0,1,4.541
1150,36.80,3.5407,4.4341,0.1797,0.0001,-0.0000,2.0955,flat,18.0,1,3.977
1160,37.12,3.2518,4.9269,0.1797,0.0001,-0.0000,2.1104,flat,18.0,1,3.414
1170,37.44,2.9556,5.4152,0.1797,0.0001,0.0000,2.1254,flat,18.0,1,2.853
1180,37.76,2.6521,5.8987,0.1797,0.0001,0.0000,2.1411,flat,18.0,1,2.294
1190,38.08,2.3410,6.3766,0.1797,0.0001,0.0000,2.1587,flat,18.0,1,1.741
1200,38.40,2.0216,6.8474,0.1797,0.0001,0.0000,2.1805,flat,18.0,1,1.202
1210,38.72,1.7018,7.2973,0.1797,0.0001,0.0003,2.2525,flat,18.0,2,15.531
1220,39.04,1.4148,7.5686,0.1799,-0.0002,-0.0000,2.6115,flat,18.0,2,15.572
1230,39.36,1.0165,7.7603,0.1799,0.0000,-0.0000,2.9507,flat,18.0,2,15.494
1240,39.68,0.5363,7.8258,0.1799,0.0001,-0.0000,-3.0374,flat,18.0,2,15.277
1250,40.00,0.0285,7.7479,0.1799,0.0001,-0.0000,-2.8190,flat,18.0,2,14.937
1260,40.32,-0.4679,7.5560,0.1799,0.0001,-0.0000,-2.6582,flat,18.0,2,14.514
1270,40.64,-0.9382,7.2847,0.1799,0.0003,-0.0000,-2.5438,flat,18.0,2,14.043
1280,40.96,-1.3845,6.9592,0.1798,0.0003,-0.0000,-2.4649,flat,18.0,2,13.541
1290,41.28,-1.8081,6.5991,0.1797,0.0002,-0.0000,-2.3990,flat,18.0,2,13.023
1300,41.60,-2.2091,6.2107,0.1797,0.0002,-0.0000,-2.3412,flat,18.0,2,12.494
1310,41.92,-2.5898,5.7991,0.1797,0.0002,-0.0000,-2.2912,flat,18.0,2,11.955
1320,42.24,-2.9521,5.3693,0.1797,0.0001,-0.0000,-2.2486,flat,18.0,2,11.410
1330,42.56,-3.2985,4.9240,0.1797,0.0001,-0.0000,-2.2108,flat,18.0,2,10.859
1340,42.88,-3.6299,4.4653,0.1797,0.0001,-0.0000,-2.1770,flat,18.0,2,10.304
1350,43.20,-3.9474,3.9951,0.1797,0.0001,-0.0000,-2.1467,flat,18.0,2,9.745
1360,43.52,-4.2518,3.5150,0.1797,0.0001,-0.0000,-2.1194,flat,18.0,2,9.183
1370,43.84,-4.5442,3.0263,0.1797,0.0001,-0.0000,-2.0947,flat,18.0,2,8.618
1380,44.16,-4.8254,2.5303,0.1797,0.0001,-0.0000,-2.0724,flat,18.0,2,8.052
1390,44.48,-5.0962,2.0278,0.1797,0.0001,-0.0000,-2.0520,flat,18.0,2,7.485
1400,44.80,-5.3574,1.5196,0.1797,0.0001,-0.0000,-2.0334,flat,18.0,2,6.916
1410,45.12,-5.6096,1.0064,0.1797,0.0001,-0.0000,-2.0163,flat,18.0,2,6.346
1420,45.44,-5.8534,0.4888,0.1797,0.0001,-0.0000,-2.0003,flat,18.0,2,5.776
1430,45.76,-6.0892,-0.0327,0.1797,0.0001,-0.0000,-1.9853,flat,18.0,2,5.205
1440,46.08,-6.3175,-0.5579,0.1797,0.0001,-0.0000,-1.9711,flat,18.0,2,4.633
1450,46.40,-6.5385,-1.0864,0.1797,0.0000,-0.0000,-1.9573,flat,18.0,2,4.061
1460,46.72,-6.7523,-1.6179,0.1797,0.0000,-0.0000,-1.9437,flat,18.0,2,3.489
1470,47.04,-6.9589,-2.1522,0.1797,0.0000,0.0000,-1.9299,flat,18.0,2,2.916
1480,47.36,-7.1579,-2.6891,0.1797,0.0001,0.0000,-1.9151,flat,18.0,2,2.344
1490,47.68,-7.3486,-3.2286,0.1797,0.0001,0.0000,-1.8981,flat,18.0,2,1.772
1500,48.00,-7.5293,-3.7703,0.1797,0.0001,0.0000,-1.8756,flat,18.0,2,1.201
1510,48.32,-7.6895,-4.3064,0.1797,0.0001,0.0001,-1.8802,flat,18.0,3,0.934
1520,48.64,-7.8231,-4.7362,0.1798,-0.0002,0.0003,-1.8019,rough,14.0,0,13.170
1530,48.96,-7.8925,-5.0600,0.1798,-0.0001,0.0001,-1.4432,rough,14.0,0,13.248
1540,49.28,-7.8288,-5.4134,0.1799,-0.0001,0.0001,-1.1687,rough,14.0,0,13.204
1550,49.60,-7.6463,-5.7745,0.1799,-0.0001,-0.0001,-0.9366,flat,18.0,0,13.051
1560,49.92,-7.3181,-6.1436,0.1799,0.0000,-0.0000,-0.7263,flat,18.0,0,12.766
1570,50.24,-6.8995,-6.4649,0.1799,0.0001,-0.0000,-0.5440,flat,18.0,0,12.398
1580,50.56,-6.4192,-6.7239,0.1799,0.0001,-0.0000,-0.3870,flat,18.0,0,11.968
1590,50.88,-5.8991,-6.9156,0.1799,0.0002,-0.0000,-0.2577,flat,18.0,0,11.496
1600,51.20,-5.3549,-7.0450,0.1798,0.0004,-0.0000,-0.1523,flat,18.0,0,10.993
1610,51.52,-4.7974,-7.1200,0.1798,0.0004,-0.0000,-0.0660,flat,18.0,0,10.470
1620,51.84,-4.2331,-7.1488,0.1798,0.0003,-0.0000,0.0047,flat,18.0,0,9.932
1630,52.16,-3.6672,-7.1394,0.1797,0.0002,-0.0000,0.0593,flat,18.0,0,9.385
1640,52.48,-3.1016,-7.1004,0.1797,0.0002,-0.0000,0.1025,flat,18.0,0,8.832
1650,52.80,-2.5374,-7.0379,0.1797,0.0001,-0.0000,0.1374,flat,18.0,0,8.274
1660,53.12,-1.9746,-6.9562,0.1797,0.0001,-0.0000,0.1669,flat,18.0,0,7.714
1670,53.44,-1.4137,-6.8581,0.1797,0.0001,-0.0000,0.1924,flat,18.0,0,7.151
1680,53.76,-0.8546,-6.7460,0.1797,0.0001,-0.0000,0.2147,flat,18.0,0,6.587
1690,54.08,-0.2976,-6.6217,0.1797,0.0001,-0.0000,0.2345,flat,18.0,0,6.021
1700,54.40,0.2573,-6.4864,0.1797,0.0001,-0.0000,0.2523,flat,18.0,0,5.454
1710,54.72,0.8100,-6.3414,0.1797,0.0001,-0.0000,0.2686,flat,18.0,0,4.887
1720,55.04,1.3607,-6.1874,0.1797,0.0001,-0.0000,0.2838,flat,18.0,0,4.319
1730,55.36,1.9091,-6.0251,0.1797,0.0001,-0.0000,0.2983,flat,18.0,0,3.751
1740,55.68,2.4551,-5.8549,0.1797,0.0001,-0.0000,0.3125,flat,18.0,0,3.183
1750,56.00,2.9985,-5.6770,0.1797,0.0001,0.0000,0.3270,flat,18.0,0,2.616
1760,56.32,3.5389,-5.4912,0.1797,0.0001,0.0000,0.3426,flat,18.0,0,2.050
1770,56.64,4.0752,-5.2968,0.1797,0.0001,0.0000,0.3614,flat,18.0,0,1.488
1780,56.96,4.6049,-5.0925,0.1797,0.0001,0.0000,0.3890,flat,18.0,0,0.935
1790,57.28,5.0590,-4.8940,0.1799,-0.0003,0.0000,0.5715,flat,18.0,1,13.045
1800,57.60,5.4104,-4.6105,0.1799,-0.0000,-0.0000,0.8330,flat,18.0,1,12.891
1810,57.92,5.7113,-4.2143,0.1799,0.0000,-0.0000,1.0625,flat,18.0,1,12.628
1820,58.24,5.9413,-3.7382,0.1799,0.0000,-0.0000,1.2686,flat,18.0,1,12.278
1830,58.56,6.0828,-3.2109,0.1799,0.0001,-0.0000,1.4442,flat,18.0,1,11.857
1840,58.88,6.1363,-2.6595,0.1799,0.0002,-0.0000,1.5853,flat,18.0,1,11.384
1850,59.20,6.1158,-2.1021,0.1798,0.0004,-0.0000,1.6891,flat,18.0,1,10.880
1860,59.52,6.0400,-1.5468,0.1798,0.0003,-0.0000,1.7664,flat,18.0,1,10.355
1870,59.84,5.9229,-0.9964,0.1797,0.0002,-0.0000,1.8266,flat,18.0,1,9.819
1880,60.16,5.7734,-0.4520,0.1797,0.0002,-0.0000,1.8750,flat,18.0,1,9.273
1890,60.48,5.5982,0.0856,0.1797,0.0001,-0.0000,1.9129,flat,18.0,1,8.723
1900,60.80,5.4031,0.6175,0.1797,0.0001,-0.0000,1.9448,flat,18.0,1,8.169
1910,61.12,5.1912,1.1441,0.1797,0.0001,-0.0000,1.9724,flat,18.0,1,7.611
1920,61.44,4.9649,1.6656,0.1797,0.0001,-0.0000,1.9967,flat,18.0,1,7.052
1930,61.76,4.7260,2.1823,0.1797,0.0001,-0.0000,2.0184,flat,18.0,1,6.490
1940,62.08,4.4759,2.6944,0.1797,0.0001,-0.0000,2.0379,flat,18.0,1,5.928
1950,62.40,4.2159,3.2020,0.1797,0.0001,-0.0000,2.0558,flat,18.0,1,5.365
1960,62.72,3.9469,3.7053,0.1797,0.0001,-0.0000,2.0723,flat,18.0,1,4.801
1970,63.04,3.6695,4.2044,0.1797,0.0001,-0.0000,2.0880,flat,18.0,1,4.237
1980,63.36,3.3843,4.6993,0.1797,0.0001,-0.0000,2.1031,flat,18.0,1,3.673
1990,63.68,3.0917,5.1898,0.1797,0.0001,-0.0000,2.1180,flat,18.0,1,3.111
2000,64.00,2.7918,5.6758,0.1797,0.0001,0.0000,2.1333,flat,18.0,1,2.551
2010,64.32,2.4845,6.1566,0.1797,0.0001,0.0000,2.1498,flat,18.0,1,1.995
2020,64.64,2.1693,6.6311,0.1797,0.0001,0.0000,2.1691,flat,18.0,1,1.448
2030,64.96,1.8452,7.0966,0.1797,0.0001,0.0000,2.1958,flat,18.0,1,0.924
2040,65.28,1.5562,7.4634,0.1798,-0.0003,0.0001,2.4355,flat,18.0,2,15.573
2050,65.60,1.2153,7.6935,0.1799,-0.0000,-0.0001,2.7867,flat,18.0,2,15.554
2060,65.92,0.7690,7.8282,0.1799,0.0000,-0.0000,3.1095,flat,18.0,2,15.409
2070,66.24,0.2683,7.8190,0.1799,-0.0000,-0.0000,-2.9155,flat,18.0,2,15.125
2080,66.56,-0.2364,7.6786,0.1799,0.0001,-0.0000,-2.7299,flat,18.0,2,14.739
2090,66.88,-0.7200,7.4421,0.1799,0.0002,-0.0000,-2.5953,flat,18.0,2,14.288
2100,67.20,-1.1770,7.1406,0.1798,0.0004,-0.0000,-2.4990,flat,18.0,2,13.800
2110,67.52,-1.6119,6.7955,0.1798,0.0003,-0.0000,-2.4301,flat,18.0,2,13.289
2120,67.84,-2.0234,6.4204,0.1797,0.0002,-0.0000,-2.3675,flat,18.0,2,12.765
2130,68.16,-2.4137,6.0192,0.1797,0.0002,-0.0000,-2.3142,flat,18.0,2,12.230
2140,68.48,-2.7843,5.5976,0.1797,0.0002,-0.0000,-2.2679,flat,18.0,2,11.688
2150,68.80,-3.1380,5.1593,0.1797,0.0001,-0.0000,-2.2280,flat,18.0,2,11.140
2160,69.12,-3.4762,4.7066,0.1797,0.0001,-0.0000,-2.1922,flat,18.0,2,10.587
2170,69.44,-3.7999,4.2415,0.1797,0.0001,-0.0000,-2.1601,flat,18.0,2,10.030
2180,69.76,-4.1101,3.7658,0.1797,0.0001,-0.0000,-2.1313,flat,18.0,2,9.469
2190,70.08,-4.4078,3.2808,0.1797,0.0001,-0.0000,-2.1054,flat,18.0,2,8.906
2200,70.40,-4.6938,2.7880,0.1797,0.0001,-0.0000,-2.0819,flat,18.0,2,8.341
2210,70.72,-4.9691,2.2882,0.1797,0.0001,-0.0000,-2.0606,flat,18.0,2,7.774
2220,71.04,-5.2343,1.7824,0.1797,0.0001,-0.0000,-2.0412,flat,18.0,2,7.206
2230,71.36,-5.4903,1.2714,0.1797,0.0001,-0.0000,-2.0234,flat,18.0,2,6.636
2240,71.68,-5.7375,0.7556,0.1797,0.0001,-0.0000,-2.0068,flat,18.0,2,6.066
2250,72.00,-5.9766,0.2356,0.1797,0.0001,-0.0000,-1.9914,flat,18.0,2,5.495
2260,72.32,-6.2080,-0.2881,0.1797,0.0001,-0.0000,-1.9768,flat,18.0,2,4.924
2270,72.64,-6.4319,-0.8153,0.1797,0.0000,-0.0000,-1.9629,flat,18.0,2,4.352
2280,72.96,-6.6486,-1.3456,0.1797,0.0000,-0.0000,-1.9493,flat,18.0,2,3.780
2290,73.28,-6.8581,-1.8787,0.1797,0.0000,-0.0000,-1.9356,flat,18.0,2,3.208
2300,73.60,-7.0604,-2.4146,0.1797,0.0000,0.0000,-1.9215,flat,18.0,2,2.635
2310,73.92,-7.2547,-2.9531,0.1797,0.0001,0.0000,-1.9059,flat,18.0,2,2.063
2320,74.24,-7.4402,-3.4940,0.1797,0.0001,0.0000,-1.8869,flat,18.0,2,1.491
2330,74.56,-7.6139,-4.0366,0.1797,0.0001,0.0000,-1.8581,flat,18.0,2,0.921
2340,74.88,-7.7653,-4.5471,0.1799,0.0000,0.0002,-1.9395,flat,18.0,0,13.110
2350,75.20,-7.8673,-4.8836,0.1798,-0.0003,0.0001,-1.6278,flat,18.0,0,13.217
2360,75.52,-7.8760,-5.2248,0.1799,-0.0001,-0.0001,-1.2884,flat,18.0,0,13.239
2370,75.84,-7.7452,-5.5961,0.1799,0.0000,-0.0001,-1.0452,flat,18.0,0,13.134
2380,76.16,-7.4694,-5.9837,0.1799,0.0001,-0.0000,-0.8084,flat,18.0,0,12.897
2390,76.48,-7.0840,-6.3260,0.1799,0.0000,-0.0000,-0.6186,flat,18.0,0,12.559
2400,76.80,-6.6267,-6.6130,0.1799,0.0001,-0.0000,-0.4499,flat,18.0,0,12.153
2410,77.12,-6.1211,-6.8330,0.1799,0.0002,-0.0000,-0.3094,flat,18.0,0,11.697
2420,77.44,-5.5856,-6.9880,0.1799,0.0004,-0.0000,-0.1947,flat,18.0,0,11.205
2430,77.76,-5.0327,-7.0852,0.1798,0.0004,-0.0000,-0.1009,flat,18.0,0,10.690
2440,78.08,-4.4707,-7.1329,0.1798,0.0004,-0.0000,-0.0241,flat,18.0,0,10.157
2450,78.40,-3.9048,-7.1390,0.1797,0.0002,-0.0000,0.0375,flat,18.0,0,9.613
2460,78.72,-3.3391,-7.1120,0.1797,0.0002,-0.0000,0.0847,flat,18.0,0,9.062
2470,79.04,-2.7742,-7.0592,0.1797,0.0001,-0.0000,0.1226,flat,18.0,0,8.507
2480,79.36,-2.2107,-6.9856,0.1797,0.0001,-0.0000,0.1542,flat,18.0,0,7.947
2490,79.68,-1.6489,-6.8946,0.1797,0.0001,-0.0000,0.1813,flat,18.0,0,7.386
2500,80.00,-1.0890,-6.7887,0.1797,0.0001,-0.0000,0.2049,flat,18.0,0,6.822
2510,80.32,-0.5310,-6.6697,0.1797,0.0001,-0.0000,0.2257,flat,18.0,0,6.256
2520,80.64,0.0249,-6.5393,0.1797,0.0001,-0.0000,0.2442,flat,18.0,0,5.690
2530,80.96,0.5787,-6.3988,0.1797,0.0001,-0.0000,0.2611,flat,18.0,0,5.123
2540,81.28,1.1304,-6.2489,0.1797,0.0001,-0.0000,0.2767,flat,18.0,0,4.555
2550,81.60,1.6798,-6.0905,0.1797,0.0001,-0.0000,0.2915,flat,18.0,0,3.987
2560,81.92,2.2270,-5.9240,0.1797,0.0001,-0.0000,0.3057,flat,18.0,0,3.419
2570,82.24,2.7717,-5.7498,0.1797,0.0001,0.0000,0.3200,flat,18.0,0,2.852
2580,82.56,3.3136,-5.5678,0.1797,0.0001,0.0000,0.3350,flat,18.0,0,2.285
2590,82.88,3.8520,-5.3776,0.1797,0.0001,0.0000,0.3521,flat,18.0,0,1.721
2600,83.20,4.3852,-5.1781,0.1797,0.0001,0.0000,0.3747,flat,18.0,0,1.163
2610,83.52,4.8890,-4.9790,0.1798,0.0001,0.0003,0.4694,flat,18.0,1,13.075
2620,83.84,5.2688,-4.7443,0.1799,0.0000,-0.0000,0.7333,flat,18.0,1,12.970
2630,84.16,5.5767,-4.4079,0.1799,0.0000,-0.0000,0.9615,flat,18.0,1,12.760
2640,84.48,5.8419,-3.9643,0.1799,0.0001,-0.0000,1.1787,flat,18.0,1,12.447
2650,84.80,6.0242,-3.4564,0.1799,0.0001,-0.0000,1.3685,flat,18.0,1,12.055
2660,85.12,6.1164,-2.9130,0.1799,0.0001,-0.0000,1.5257,flat,18.0,1,11.603
2670,85.44,6.1271,-2.3566,0.1799,0.0003,-0.0000,1.6461,flat,18.0,1,11.110
2680,85.76,6.0744,-1.7998,0.1798,0.0004,-0.0000,1.7337,flat,18.0,1,10.594
2690,86.08,5.9747,-1.2470,0.1797,0.0003,-0.0000,1.8008,flat,18.0,1,10.062
2700,86.40,5.8391,-0.6997,0.1797,0.0002,-0.0000,1.8540,flat,18.0,1,9.520
2710,86.72,5.6750,-0.1589,0.1797,0.0002,-0.0000,1.8963,flat,18.0,1,8.972
2720,87.04,5.4886,0.3755,0.1797,0.0001,-0.0000,1.9305,flat,18.0,1,8.419
2730,87.36,5.2842,0.9046,0.1797,0.0001,-0.0000,1.9599,flat,18.0,1,7.863
2740,87.68,5.0644,1.4285,0.1797,0.0001,-0.0000,1.9856,flat,18.0,1,7.304
2750,88.00,4.8313,1.9475,0.1797,0.0001,-0.0000,2.0084,flat,18.0,1,6.743
2760,88.32,4.5863,2.4618,0.1797,0.0001,-0.0000,2.0288,flat,18.0,1,6.181
2770,88.64,4.3310,2.9715,0.1797,0.0001,-0.0000,2.0473,flat,18.0,1,5.618
2780,88.96,4.0662,3.4770,0.1797,0.0001,-0.0000,2.0644,flat,18.0,1,5.055
2790,89.28,3.7928,3.9781,0.1797,0.0001,-0.0000,2.0804,flat,18.0,1,4.491
2800,89.60,3.5115,4.4751,0.1797,0.0001,-0.0000,2.0957,flat,18.0,1,3.927
2810,89.92,3.2225,4.9678,0.1797,0.0001,-0.0000,2.1106,flat,18.0,1,3.364
2820,90.24,2.9262,5.4560,0.1797,0.0001,0.0000,2.1256,flat,18.0,1,2.803
2830,90.56,2.6225,5.9395,0.1797,0.0001,0.0000,2.1414,flat,18.0,1,2.245
2840,90.88,2.3113,6.4172,0.1797,0.0001,0.0000,2.1592,flat,18.0,1,1.692
2850,91.20,1.9917,6.8876,0.1797,0.0001,0.0000,2.1816,flat,18.0,1,1.155
2860,91.52,1.6715,7.3364,0.1797,0.0001,0.0003,2.2553,flat,18.0,2,15.543
2870,91.84,1.3837,7.6070,0.1799,-0.0002,-0.0000,2.6150,flat,18.0,2,15.584
2880,92.16,0.9848,7.7976,0.1799,0.0000,-0.0000,2.9544,flat,18.0,2,15.506
2890,92.48,0.5044,7.8613,0.1799,0.0001,-0.0000,-3.0337,flat,18.0,2,15.289
2900,92.80,-0.0032,7.7814,0.1799,0.0001,-0.0000,-2.8157,flat,18.0,2,14.948
2910,93.12,-0.4989,7.5878,0.1799,0.0001,-0.0000,-2.6552,flat,18.0,2,14.526
2920,93.44,-0.9683,7.3150,0.1799,0.0003,-0.0000,-2.5410,flat,18.0,2,14.054
2930,93.76,-1.4138,6.9883,0.1798,0.0003,-0.0000,-2.4624,flat,18.0,2,13.552
2940,94.08,-1.8363,6.6271,0.1797,0.0002,-0.0000,-2.3963,flat,18.0,2,13.035
2950,94.40,-2.2363,6.2376,0.1797,0.0002,-0.0000,-2.3385,flat,18.0,2,12.505
2960,94.72,-2.6158,5.8249,0.1797,0.0002,-0.0000,-2.2884,flat,18.0,2,11.966
2970,95.04,-2.9769,5.3942,0.1797,0.0001,-0.0000,-2.2458,flat,18.0,2,11.421
2980,95.36,-3.3221,4.9479,0.1797,0.0001,-0.0000,-2.2080,flat,18.0,2,10.871
2990,95.68,-3.6522,4.4882,0.1797,0.0001,-0.0000,-2.1741,flat,18.0,2,10.315
3000,96.00,-3.9683,4.0170,0.1797,0.0001,-0.0000,-2.1437,flat,18.0,2,9.756
3010,96.32,-4.2713,3.5360,0.1797,0.0001,-0.0000,-2.1164,flat,18.0,2,9.194
3020,96.64,-4.5622,3.0465,0.1797,0.0001,-0.0000,-2.0917,flat,18.0,2,8.630
3030,96.96,-4.8420,2.5496,0.1797,0.0001,-0.0000,-2.0694,flat,18.0,2,8.064
3040,97.28,-5.1113,2.0463,0.1797,0.0001,-0.0000,-2.0490,flat,18.0,2,7.496
3050,97.60,-5.3710,1.5373,0.1797,0.0001,-0.0000,-2.0304,flat,18.0,2,6.928
3060,97.92,-5.6217,1.0234,0.1797,0.0001,-0.0000,-2.0133,flat,18.0,2,6.358
3070,98.24,-5.8639,0.5050,0.1797,0.0001,-0.0000,-1.9973,flat,18.0,2,5.787
3080,98.56,-6.0983,-0.0172,0.1797,0.0001,-0.0000,-1.9824,flat,18.0,2,5.216
3090,98.88,-6.3250,-0.5431,0.1797,0.0001,-0.0000,-1.9682,flat,18.0,2,4.644
3100,99.20,-6.5445,-1.0722,0.1797,0.0000,-0.0000,-1.9545,flat,18.0,2,4.072
3110,99.52,-6.7568,-1.6043,0.1797,0.0000,-0.0000,-1.9409,flat,18.0,2,3.500
3120,99.84,-6.9618,-2.1392,0.1797,0.0000,0.0000,-1.9271,flat,18.0,2,2.928
3130,100.16,-7.1594,-2.6767,0.1797,0.0001,0.0000,-1.9125,flat,18.0,2,2.355
3140,100.48,-7.3488,-3.2167,0.1797,0.0001,0.0000,-1.8956,flat,18.0,2,1.783
3150,100.80,-7.5281,-3.7590,0.1797,0.0001,0.0000,-1.8733,flat,18.0,2,1.212
3160,101.12,-7.6873,-4.2956,0.1797,0.0001,0.0001,-1.8785,flat,18.0,3,0.942
3170,101.44,-7.8202,-4.7260,0.1798,-0.0002,0.0003,-1.8004,flat,18.0,0,13.167
3180,101.76,-7.8856,-5.0472,0.1798,0.0000,0.0002,-1.4494,rough,14.0,0,13.241
3190,102.08,-7.8298,-5.3852,0.1799,-0.0000,0.0000,-1.1887,rough,14.0,0,13.203
3200,102.40,-7.6557,-5.7440,0.1799,-0.0001,-0.0001,-0.9451,flat,18.0,0,13.058
3210,102.72,-7.3314,-6.1149,0.1799,0.0000,-0.0000,-0.7334,flat,18.0,0,12.776
3220,103.04,-6.9155,-6.4382,0.1799,0.0001,-0.0000,-0.5507,flat,18.0,0,12.409
3230,103.36,-6.4371,-6.6999,0.1799,0.0001,-0.0000,-0.3929,flat,18.0,0,11.982
3240,103.68,-5.9182,-6.8944,0.1799,0.0002,-0.0000,-0.2628,flat,18.0,0,11.510
3250,104.00,-5.3748,-7.0264,0.1798,0.0004,-0.0000,-0.1568,flat,18.0,0,11.009
3260,104.32,-4.8177,-7.1039,0.1798,0.0004,-0.0000,-0.0700,flat,18.0,0,10.486
3270,104.64,-4.2536,-7.1349,0.1798,0.0003,-0.0000,0.0011,flat,18.0,0,9.948
3280,104.96,-3.6877,-7.1274,0.1797,0.0002,-0.0000,0.0563,flat,18.0,0,9.401
3290,105.28,-3.1220,-7.0902,0.1797,0.0002,-0.0000,0.0998,flat,18.0,0,8.848
3300,105.60,-2.5577,-7.0291,0.1797,0.0001,-0.0000,0.1349,flat,18.0,0,8.291
3310,105.92,-1.9947,-6.9488,0.1797,0.0001,-0.0000,0.1647,flat,18.0,0,7.731
3320,106.24,-1.4336,-6.8520,0.1797,0.0001,-0.0000,0.1903,flat,18.0,0,7.168
3330,106.56,-0.8743,-6.7411,0.1797,0.0001,-0.0000,0.2127,flat,18.0,0,6.604
3340,106.88,-0.3171,-6.6179,0.1797,0.0001,-0.0000,0.2326,flat,18.0,0,6.038
3350,107.20,0.2381,-6.4837,0.1797,0.0001,-0.0000,0.2504,flat,18.0,0,5.471
3360,107.52,0.7911,-6.3397,0.1797,0.0001,-0.0000,0.2668,flat,18.0,0,4.904
3370,107.84,1.3420,-6.1868,0.1797,0.0001,-0.0000,0.2820,flat,18.0,0,4.336
3380,108.16,1.8907,-6.0255,0.1797,0.0001,-0.0000,0.2965,flat,18.0,0,3.768
3390,108.48,2.4371,-5.8563,0.1797,0.0001,-0.0000,0.3107,flat,18.0,0,3.200
3400,108.80,2.9808,-5.6793,0.1797,0.0001,0.0000,0.3252,flat,18.0,0,2.633
3410,109.12,3.5215,-5.4945,0.1797,0.0001,0.0000,0.3408,flat,18.0,0,2.067
3420,109.44,4.0583,-5.3011,0.1797,0.0001,0.0000,0.3593,flat,18.0,0,1.505
3430,109.76,4.5886,-5.0979,0.1797,0.0001,0.0000,0.3865,flat,18.0,0,0.951
3440,110.08,5.0436,-4.9006,0.1799,-0.0003,0.0000,0.5683,flat,18.0,1,13.047
3450,110.40,5.3957,-4.6186,0.1799,-0.0000,-0.0000,0.8301,flat,18.0,1,12.894
3460,110.72,5.6974,-4.2235,0.1799,0.0000,-0.0000,1.0596,flat,18.0,1,12.632
3470,111.04,5.9286,-3.7482,0.1799,0.0000,-0.0000,1.2658,flat,18.0,1,12.282
3480,111.36,6.0713,-3.2213,0.1799,0.0001,-0.0000,1.4417,flat,18.0,1,11.861
3490,111.68,6.1262,-2.6700,0.1799,0.0002,-0.0000,1.5831,flat,18.0,1,11.389
3500,112.00,6.1068,-2.1125,0.1798,0.0004,-0.0000,1.6873,flat,18.0,1,10.885
3510,112.32,6.0320,-1.5571,0.1798,0.0003,-0.0000,1.7648,flat,18.0,1,10.361
3520,112.64,5.9157,-1.0066,0.1797,0.0002,-0.0000,1.8252,flat,18.0,1,9.824
3530,112.96,5.7670,-0.4619,0.1797,0.0002,-0.0000,1.8737,flat,18.0,1,9.279
3540,113.28,5.5925,0.0759,0.1797,0.0001,-0.0000,1.9116,flat,18.0,1,8.728
3550,113.60,5.3981,0.6080,0.1797,0.0001,-0.0000,1.9436,flat,18.0,1,8.174
3560,113.92,5.1868,1.1348,0.1797,0.0001,-0.0000,1.9713,flat,18.0,1,7.617
3570,114.24,4.9611,1.6566,0.1797,0.0001,-0.0000,1.9956,flat,18.0,1,7.057
3580,114.56,4.7227,2.1736,0.1797,0.0001,-0.0000,2.0173,flat,18.0,1,6.496
3590,114.88,4.4733,2.6860,0.1797,0.0001,-0.0000,2.0368,flat,18.0,1,5.933
3600,115.20,4.2138,3.1939,0.1797,0.0001,-0.0000,2.0547,flat,18.0,1,5.370
3610,115.52,3.9454,3.6975,0.1797,0.0001,-0.0000,2.0712,flat,18.0,1,4.806
3620,115.84,3.6686,4.1969,0.1797,0.0001,-0.0000,2.0869,flat,18.0,1,4.242
3630,116.16,3.3840,4.6921,0.1797,0.0001,-0.0000,2.1020,flat,18.0,1,3.679
3640,116.48,3.0919,5.1830,0.1797,0.0001,-0.0000,2.1169,flat,18.0,1,3.116
3650,116.80,2.7925,5.6693,0.1797,0.0001,0.0000,2.1321,flat,18.0,1,2.556
3660,117.12,2.4858,6.1504,0.1797,0.0001,0.0000,2.1486,flat,18.0,1,2.000
3670,117.44,2.1711,6.6253,0.1797,0.0001,0.0000,2.1679,flat,18.0,1,1.453
3680,117.76,1.8476,7.0913,0.1797,0.0001,0.0000,2.1944,flat,18.0,1,0.928
3690,118.08,1.5592,7.4586,0.1798,-0.0003,0.0001,2.4340,flat,18.0,2,15.571
3700,118.40,1.2187,7.6890,0.1799,-0.0000,-0.0001,2.7852,flat,18.0,2,15.553
3710,118.72,0.8402,7.8088,0.1799,0.0000,-0.0001,3.0317,flat,18.0,2,15.433
3720,119.04,0.3553,7.8382,0.1799,0.0003,-0.0000,-2.9818,flat,18.0,2,15.188
3730,119.36,-0.1515,7.7310,0.1799,0.0001,-0.0000,-2.7758,flat,18.0,2,14.827
3740,119.68,-0.6418,7.5171,0.1799,0.0001,-0.0000,-2.6265,flat,18.0,2,14.392
3750,120.00,-1.1051,7.2305,0.1798,0.0004,-0.0000,-2.5198,flat,18.0,2,13.914
3760,120.32,-1.5453,6.8946,0.1798,0.0003,-0.0000,-2.4459,flat,18.0,2,13.407
3770,120.64,-1.9624,6.5264,0.1797,0.0002,-0.0000,-2.3815,flat,18.0,2,12.887
3780,120.96,-2.3573,6.1308,0.1797,0.0002,-0.0000,-2.3256,flat,18.0,2,12.355
3790,121.28,-2.7319,5.7134,0.1797,0.0002,-0.0000,-2.2771,flat,18.0,2,11.815
3800,121.60,-3.0887,5.2785,0.1797,0.0001,-0.0000,-2.2356,flat,18.0,2,11.269
3810,121.92,-3.4297,4.8286,0.1797,0.0001,-0.0000,-2.1985,flat,18.0,2,10.717
3820,122.24,-3.7559,4.3657,0.1797,0.0001,-0.0000,-2.1653,flat,18.0,2,10.161
3830,122.56,-4.0681,3.8916,0.1797,0.0001,-0.0000,-2.1355,flat,18.0,2,9.601
3840,122.88,-4.3675,3.4081,0.1797,0.0001,-0.0000,-2.1087,flat,18.0,2,9.039
3850,123.20,-4.6548,2.9162,0.1797,0.0001,-0.0000,-2.0845,flat,18.0,2,8.474
3860,123.52,-4.9311,2.4173,0.1797,0.0001,-0.0000,-2.0625,flat,18.0,2,7.908
3870,123.84,-5.1972,1.9121,0.1797,0.0001,-0.0000,-2.0425,flat,18.0,2,7.340
3880,124.16,-5.4536,1.4014,0.1797,0.0001,-0.0000,-2.0242,flat,18.0,2,6.771
3890,124.48,-5.7012,0.8858,0.1797,0.0001,-0.0000,-2.0072,flat,18.0,2,6.201
3900,124.80,-5.9404,0.3660,0.1797,0.0001,-0.0000,-1.9915,flat,18.0,2,5.630
3910,125.12,-6.1717,-0.1577,0.1797,0.0001,-0.0000,-1.9766,flat,18.0,2,5.059
3920,125.44,-6.3955,-0.6848,0.1797,0.0001,-0.0000,-1.9625,flat,18.0,2,4.487
3930,125.76,-6.6119,-1.2152,0.1797,0.0000,-0.0000,-1.9487,flat,18.0,2,3.915
3940,126.08,-6.8212,-1.7485,0.1797,0.0000,-0.0000,-1.9351,flat,18.0,2,3.343
3950,126.40,-7.0231,-2.2845,0.1797,0.0000,0.0000,-1.9210,flat,18.0,2,2.770
3960,126.72,-7.2173,-2.8232,0.1797,0.0001,0.0000,-1.9058,flat,18.0,2,2.198
3970,127.04,-7.4029,-3.3642,0.1797,0.0001,0.0000,-1.8879,flat,18.0,2,1.626
3980,127.36,-7.5776,-3.9073,0.1797,0.0001,0.0000,-1.8625,flat,18.0,2,1.056
3990,127.68,-7.7286,-4.4319,0.1798,0.0002,0.0000,-1.9405,flat,18.0,3,0.828
4000,128.00,-7.8446,-4.8055,0.1798,-0.0004,0.0001,-1.6931,rough,14.0,0,13.192
4010,128.32,-7.8792,-5.1325,0.1799,-0.0001,-0.0000,-1.3441,rough,14.0,0,13.238
4020,128.64,-7.7796,-5.4817,0.1799,0.0001,-0.0003,-1.1096,flat,18.0,0,13.159
4030,128.96,-7.5356,-5.8772,0.1799,0.0001,-0.0001,-0.8561,flat,18.0,0,12.952
4040,129.28,-7.1707,-6.2305,0.1799,0.0000,-0.0000,-0.6606,flat,18.0,0,12.632
4050,129.60,-6.7277,-6.5319,0.1799,0.0000,-0.0000,-0.4866,flat,18.0,0,12.239
4060,129.92,-6.2315,-6.7677,0.1799,0.0001,-0.0000,-0.3401,flat,18.0,0,11.792
4070,130.24,-5.7016,-6.9376,0.1799,0.0003,-0.0000,-0.2202,flat,18.0,0,11.308
4080,130.56,-5.1520,-7.0480,0.1798,0.0004,-0.0000,-0.1221,flat,18.0,0,10.797
4090,130.88,-4.5916,-7.1071,0.1798,0.0004,-0.0000,-0.0419,flat,18.0,0,10.267
4100,131.20,-4.0261,-7.1230,0.1797,0.0003,-0.0000,0.0237,flat,18.0,0,9.725
4110,131.52,-3.4603,-7.1036,0.1797,0.0002,-0.0000,0.0732,flat,18.0,0,9.176
4120,131.84,-2.8950,-7.0570,0.1797,0.0001,-0.0000,0.1131,flat,18.0,0,8.621
4130,132.16,-2.3311,-6.9887,0.1797,0.0001,-0.0000,0.1460,flat,18.0,0,8.063
4140,132.48,-1.7687,-6.9023,0.1797,0.0001,-0.0000,0.1740,flat,18.0,0,7.502
4150,132.80,-1.2081,-6.8004,0.1797,0.0001,-0.0000,0.1983,flat,18.0,0,6.938
4160,133.12,-0.6495,-6.6851,0.1797,0.0001,-0.0000,0.2196,flat,18.0,0,6.373
4170,133.44,-0.0930,-6.5580,0.1797,0.0001,-0.0000,0.2387,flat,18.0,0,5.807
4180,133.76,0.4615,-6.4205,0.1797,0.0001,-0.0000,0.2559,flat,18.0,0,5.240
4190,134.08,1.0139,-6.2735,0.1797,0.0001,-0.0000,0.2718,flat,18.0,0,4.672
4200,134.40,1.5641,-6.1178,0.1797,0.0001,-0.0000,0.2867,flat,18.0,0,4.104
4210,134.72,2.1120,-5.9539,0.1797,0.0001,-0.0000,0.3011,flat,18.0,0,3.536
4220,135.04,2.6576,-5.7822,0.1797,0.0001,0.0000,0.3153,flat,18.0,0,2.969
4230,135.36,3.2004,-5.6027,0.1797,0.0001,0.0000,0.3301,flat,18.0,0,2.402
4240,135.68,3.7399,-5.4152,0.1797,0.0001,0.0000,0.3466,flat,18.0,0,1.837
4250,136.00,4.2747,-5.2187,0.1797,0.0001,0.0000,0.3676,flat,18.0,0,1.278
4260,136.32,4.7979,-5.0143,0.1797,0.0001,0.0002,0.4191,flat,18.0,1,13.082
4270,136.64,5.1956,-4.8022,0.1799,-0.0001,0.0000,0.6778,flat,18.0,1,13.001
4280,136.96,5.5265,-4.4706,0.1799,0.0000,-0.0000,0.9236,flat,18.0,1,12.800
4290,137.28,5.8034,-4.0404,0.1799,0.0000,-0.0000,1.1449,flat,18.0,1,12.502
4300,137.60,6.0005,-3.5410,0.1799,0.0000,-0.0000,1.3403,flat,18.0,1,12.122
4310,137.92,6.1072,-3.0017,0.1799,0.0001,-0.0000,1.5023,flat,18.0,1,11.678
4320,138.24,6.1302,-2.4463,0.1799,0.0003,-0.0000,1.6290,flat,18.0,1,11.191
4330,138.56,6.0865,-1.8891,0.1798,0.0004,-0.0000,1.7210,flat,18.0,1,10.678
4340,138.88,5.9937,-1.3355,0.1798,0.0003,-0.0000,1.7909,flat,18.0,1,10.148
4350,139.20,5.8634,-0.7873,0.1797,0.0002,-0.0000,1.8460,flat,18.0,1,9.608
4360,139.52,5.7035,-0.2453,0.1797,0.0002,-0.0000,1.8902,flat,18.0,1,9.060
4370,139.84,5.5204,0.2900,0.1797,0.0001,-0.0000,1.9253,flat,18.0,1,8.508
4380,140.16,5.3188,0.8199,0.1797,0.0001,-0.0000,1.9554,flat,18.0,1,7.953
4390,140.48,5.1013,1.3446,0.1797,0.0001,-0.0000,1.9817,flat,18.0,1,7.394
4400,140.80,4.8702,1.8644,0.1797,0.0001,-0.0000,2.0049,flat,18.0,1,6.834
4410,141.12,4.6271,2.3794,0.1797,0.0001,-0.0000,2.0256,flat,18.0,1,6.272
4420,141.44,4.3733,2.8899,0.1797,0.0001,-0.0000,2.0445,flat,18.0,1,5.709
4430,141.76,4.1100,3.3960,0.1797,0.0001,-0.0000,2.0618,flat,18.0,1,5.146
4440,142.08,3.8380,3.8979,0.1797,0.0001,-0.0000,2.0779,flat,18.0,1,4.582
4450,142.40,3.5578,4.3955,0.1797,0.0001,-0.0000,2.0933,flat,18.0,1,4.018
4460,142.72,3.2700,4.8888,0.1797,0.0001,-0.0000,2.1083,flat,18.0,1,3.455
4470,143.04,2.9748,5.3778,0.1797,0.0001,0.0000,2.1233,flat,18.0,1,2.893
4480,143.36,2.6723,5.8620,0.1797,0.0001,0.0000,2.1389,flat,18.0,1,2.334
4490,143.68,2.3623,6.3407,0.1797,0.0001,0.0000,2.1562,flat,18.0,1,1.781
4500,144.00,2.0441,6.8124,0.1797,0.0001,0.0000,2.1776,flat,18.0,1,1.240
4510,144.32,1.7196,7.2703,0.1797,0.0001,0.0002,2.2260,flat,18.0,2,15.521
4520,144.64,1.4385,7.5567,0.1799,-0.0003,-0.0000,2.5769,flat,18.0,2,15.576
4530,144.96,1.0513,7.7574,0.1799,-0.0000,-0.0000,2.9190,flat,18.0,2,15.511
4540,145.28,0.5767,7.8378,0.1799,-0.0000,-0.0000,-3.0594,flat,18.0,2,15.309
4550,145.60,0.0695,7.7725,0.1799,0.0000,-0.0000,-2.8351,flat,18.0,2,14.979
4560,145.92,-0.4287,7.5898,0.1799,0.0001,-0.0000,-2.6712,flat,18.0,2,14.563
4570,146.24,-0.9015,7.3247,0.1799,0.0003,-0.0000,-2.5530,flat,18.0,2,14.096
4580,146.56,-1.3498,7.0033,0.1798,0.0003,-0.0000,-2.4713,flat,18.0,2,13.596
4590,146.88,-1.7754,6.6460,0.1797,0.0002,-0.0000,-2.4047,flat,18.0,2,13.080
4600,147.20,-2.1783,6.2599,0.1797,0.0002,-0.0000,-2.3457,flat,18.0,2,12.551
4610,147.52,-2.5606,5.8501,0.1797,0.0002,-0.0000,-2.2951,flat,18.0,2,12.013
4620,147.84,-2.9243,5.4217,0.1797,0.0002,-0.0000,-2.2518,flat,18.0,2,11.469
4630,148.16,-3.2718,4.9776,0.1797,0.0001,-0.0000,-2.2136,flat,18.0,2,10.919
4640,148.48,-3.6043,4.5198,0.1797,0.0001,-0.0000,-2.1793,flat,18.0,2,10.364
4650,148.80,-3.9227,4.0504,0.1797,0.0001,-0.0000,-2.1486,flat,18.0,2,9.805
4660,149.12,-4.2280,3.5709,0.1797,0.0001,-0.0000,-2.1210,flat,18.0,2,9.243
4670,149.44,-4.5211,3.0828,0.1797,0.0001,-0.0000,-2.0961,flat,18.0,2,8.679
4680,149.76,-4.8029,2.5872,0.1797,0.0001,-0.0000,-2.0736,flat,18.0,2,8.114
4690,150.08,-5.0742,2.0851,0.1797,0.0001,-0.0000,-2.0530,flat,18.0,2,7.546
4700,150.40,-5.3359,1.5772,0.1797,0.0001,-0.0000,-2.0343,flat,18.0,2,6.977
4710,150.72,-5.5885,1.0642,0.1797,0.0001,-0.0000,-2.0170,flat,18.0,2,6.408
4720,151.04,-5.8326,0.5468,0.1797,0.0001,-0.0000,-2.0009,flat,18.0,2,5.837
4730,151.36,-6.0687,0.0254,0.1797,0.0001,-0.0000,-1.9859,flat,18.0,2,5.266
4740,151.68,-6.2973,-0.4997,0.1797,0.0001,-0.0000,-1.9716,flat,18.0,2,4.695
4750,152.00,-6.5185,-1.0280,0.1797,0.0000,-0.0000,-1.9578,flat,18.0,2,4.123
4760,152.32,-6.7325,-1.5594,0.1797,0.0000,-0.0000,-1.9442,flat,18.0,2,3.550
4770,152.64,-6.9393,-2.0936,0.1797,0.0000,-0.0000,-1.9304,flat,18.0,2,2.978
4780,152.96,-7.1387,-2.6305,0.1797,0.0001,0.0000,-1.9158,flat,18.0,2,2.406
4790,153.28,-7.3298,-3.1699,0.1797,0.0001,0.0000,-1.8992,flat,18.0,2,1.833
4800,153.60,-7.5112,-3.7116,0.1797,0.0001,0.0000,-1.8776,flat,18.0,2,1.262
4810,153.92,-7.6751,-4.2514,0.1797,0.0002,0.0002,-1.8608,flat,18.0,3,0.980
4820,154.24,-7.8122,-4.7001,0.1798,-0.0002,0.0004,-1.8297,rough,14.0,0,13.158
4830,154.56,-7.8900,-5.0251,0.1798,-0.0001,-0.0002,-1.4690,rough,14.0,0,13.244
4840,154.88,-7.8379,-5.3766,0.1799,-0.0000,0.0001,-1.1863,rough,14.0,0,13.210
4850,155.20,-7.6516,-5.7563,0.1799,-0.0001,-0.0000,-0.9418,flat,18.0,0,13.055
4860,155.52,-7.3256,-6.1265,0.1799,0.0000,-0.0000,-0.7304,flat,18.0,0,12.772
4870,155.84,-6.9087,-6.4489,0.1799,0.0000,-0.0000,-0.5478,flat,18.0,0,12.404
4880,156.16,-6.4294,-6.7095,0.1799,0.0001,-0.0000,-0.3904,flat,18.0,0,11.976
4890,156.48,-5.9100,-6.9028,0.1799,0.0002,-0.0000,-0.2607,flat,18.0,0,11.504
4900,156.80,-5.3663,-7.0337,0.1798,0.0004,-0.0000,-0.1549,flat,18.0,0,11.002
4910,157.12,-4.8090,-7.1102,0.1798,0.0004,-0.0000,-0.0683,flat,18.0,0,10.479
4920,157.44,-4.2448,-7.1403,0.1798,0.0003,-0.0000,0.0026,flat,18.0,0,9.941
4930,157.76,-3.6789,-7.1320,0.1797,0.0002,-0.0000,0.0575,flat,18.0,0,9.394
4940,158.08,-3.1132,-7.0940,0.1797,0.0002,-0.0000,0.1009,flat,18.0,0,8.841
4950,158.40,-2.5490,-7.0324,0.1797,0.0001,-0.0000,0.1359,flat,18.0,0,8.284
4960,158.72,-1.9861,-6.9515,0.1797,0.0001,-0.0000,0.1656,flat,18.0,0,7.723
4970,159.04,-1.4250,-6.8542,0.1797,0.0001,-0.0000,0.1912,flat,18.0,0,7.161
4980,159.36,-0.8659,-6.7428,0.1797,0.0001,-0.0000,0.2135,flat,18.0,0,6.596
4990,159.68,-0.3087,-6.6191,0.1797,0.0001,-0.0000,0.2334,flat,18.0,0,6.030
5000,160.00,0.2463,-6.4845,0.1797,0.0001,-0.0000,0.2512,flat,18.0,0,5.464
5010,160.32,0.7993,-6.3401,0.1797,0.0001,-0.0000,0.2675,flat,18.0,0,4.896
5020,160.64,1.3501,-6.1868,0.1797,0.0001,-0.0000,0.2827,flat,18.0,0,4.328
5030,160.96,1.8987,-6.0251,0.1797,0.0001,-0.0000,0.2972,flat,18.0,0,3.760
5040,161.28,2.4449,-5.8555,0.1797,0.0001,-0.0000,0.3114,flat,18.0,0,3.192
5050,161.60,2.9885,-5.6781,0.1797,0.0001,0.0000,0.3259,flat,18.0,0,2.625
5060,161.92,3.5291,-5.4929,0.1797,0.0001,0.0000,0.3415,flat,18.0,0,2.060
5070,162.24,4.0657,-5.2992,0.1797,0.0001,0.0000,0.3601,flat,18.0,0,1.497
5080,162.56,4.5957,-5.0955,0.1797,0.0001,0.0000,0.3875,flat,18.0,0,0.944
5090,162.88,5.0503,-4.8977,0.1799,-0.0003,0.0000,0.5696,flat,18.0,1,13.046
5100,163.20,5.3908,-4.6277,0.1799,0.0001,0.0003,0.8228,flat,18.0,1,12.901
5110,163.52,5.6911,-4.2402,0.1799,0.0000,-0.0000,1.0512,flat,18.0,1,12.645
5120,163.84,5.9253,-3.7674,0.1799,0.0001,-0.0000,1.2582,flat,18.0,1,12.298
5130,164.16,6.0715,-3.2419,0.1799,0.0001,-0.0000,1.4358,flat,18.0,1,11.880
5140,164.48,6.1294,-2.6912,0.1799,0.0002,-0.0000,1.5787,flat,18.0,1,11.410
5150,164.80,6.1122,-2.1337,0.1798,0.0004,-0.0000,1.6842,flat,18.0,1,10.906
5160,165.12,6.0392,-1.5782,0.1798,0.0004,-0.0000,1.7625,flat,18.0,1,10.382
5170,165.44,5.9241,-1.0275,0.1797,0.0002,-0.0000,1.8234,flat,18.0,1,9.846
5180,165.76,5.7763,-0.4827,0.1797,0.0002,-0.0000,1.8723,flat,18.0,1,9.301
5190,166.08,5.6026,0.0554,0.1797,0.0001,-0.0000,1.9106,flat,18.0,1,8.751
5200,166.40,5.4087,0.5876,0.1797,0.0001,-0.0000,1.9427,flat,18.0,1,8.197
5210,166.72,5.1979,1.1146,0.1797,0.0001,-0.0000,1.9705,flat,18.0,1,7.640
5220,167.04,4.9725,1.6365,0.1797,0.0001,-0.0000,1.9950,flat,18.0,1,7.080
5230,167.36,4.7345,2.1536,0.1797,0.0001,-0.0000,2.0167,flat,18.0,1,6.519
5240,167.68,4.4853,2.6661,0.1797,0.0001,-0.0000,2.0363,flat,18.0,1,5.956
5250,168.00,4.2261,3.1741,0.1797,0.0001,-0.0000,2.0543,flat,18.0,1,5.393
5260,168.32,3.9578,3.6778,0.1797,0.0001,-0.0000,2.0709,flat,18.0,1,4.829
5270,168.64,3.6812,4.1773,0.1797,0.0001,-0.0000,2.0866,flat,18.0,1,4.265
5280,168.96,3.3967,4.6726,0.1797,0.0001,-0.0000,2.1017,flat,18.0,1,3.702
5290,169.28,3.1048,5.1636,0.1797,0.0001,-0.0000,2.1166,flat,18.0,1,3.139
5300,169.60,2.8056,5.6499,0.1797,0.0001,0.0000,2.1318,flat,18.0,1,2.579
5310,169.92,2.4990,6.1312,0.1797,0.0001,0.0000,2.1482,flat,18.0,1,2.023
5320,170.24,2.1845,6.6063,0.1797,0.0001,0.0000,2.1673,flat,18.0,1,1.475
5330,170.56,1.8613,7.0727,0.1797,0.0001,0.0000,2.1934,flat,18.0,1,0.949
5340,170.88,1.5672,7.4587,0.1798,-0.0002,0.0002,2.4009,flat,18.0,2,15.576
5350,171.20,1.2373,7.6946,0.1799,-0.0000,-0.0001,2.7543,flat,18.0,2,15.568
5360,171.52,0.7993,7.8410,0.1799,0.0000,-0.0000,3.0803,flat,18.0,2,15.436
5370,171.84,0.3018,7.8452,0.1799,0.0001,0.0000,-2.9387,flat,18.0,2,15.165
5380,172.16,-0.2041,7.7157,0.1799,0.0001,-0.0000,-2.7448,flat,18.0,2,14.787
5390,172.48,-0.6899,7.4864,0.1799,0.0002,-0.0000,-2.6052,flat,18.0,2,14.342
5400,172.80,-1.1488,7.1896,0.1798,0.0004,-0.0000,-2.5054,flat,18.0,2,13.857
5410,173.12,-1.5855,6.8474,0.1798,0.0003,-0.0000,-2.4351,flat,18.0,2,13.347
5420,173.44,-1.9988,6.4744,0.1797,0.0002,-0.0000,-2.3718,flat,18.0,2,12.824
5430,173.76,-2.3904,6.0750,0.1797,0.0002,-0.0000,-2.3177,flat,18.0,2,12.291
5440,174.08,-2.7623,5.6546,0.1797,0.0002,-0.0000,-2.2707,flat,18.0,2,11.749
5450,174.40,-3.1168,5.2174,0.1797,0.0001,-0.0000,-2.2302,flat,18.0,2,11.202
5460,174.72,-3.4558,4.7655,0.1797,0.0001,-0.0000,-2.1940,flat,18.0,2,10.649
5470,175.04,-3.7802,4.3010,0.1797,0.0001,-0.0000,-2.1615,flat,18.0,2,10.092
5480,175.36,-4.0910,3.8258,0.1797,0.0001,-0.0000,-2.1324,flat,18.0,2,9.532
5490,175.68,-4.3891,3.3412,0.1797,0.0001,-0.0000,-2.1062,flat,18.0,2,8.969
5500,176.00,-4.6754,2.8486,0.1797,0.0001,-0.0000,-2.0825,flat,18.0,2,8.404
5510,176.32,-4.9509,2.3490,0.1797,0.0001,-0.0000,-2.0610,flat,18.0,2,7.837
5520,176.64,-5.2163,1.8434,0.1797,0.0001,-0.0000,-2.0414,flat,18.0,2,7.269
5530,176.96,-5.4723,1.3323,0.1797,0.0001,-0.0000,-2.0234,flat,18.0,2,6.700
5540,177.28,-5.7195,0.8166,0.1797,0.0001,-0.0000,-2.0068,flat,18.0,2,6.130
5550,177.60,-5.9586,0.2966,0.1797,0.0001,-0.0000,-1.9913,flat,18.0,2,5.559
5560,177.92,-6.1898,-0.2272,0.1797,0.0001,-0.0000,-1.9766,flat,18.0,2,4.987
5570,178.24,-6.4137,-0.7543,0.1797,0.0000,-0.0000,-1.9627,flat,18.0,2,4.416
5580,178.56,-6.6302,-1.2847,0.1797,0.0000,-0.0000,-1.9491,flat,18.0,2,3.843
5590,178.88,-6.8397,-1.8179,0.1797,0.0000,-0.0000,-1.9355,flat,18.0,2,3.271
5600,179.20,-7.0418,-2.3539,0.1797,0.0000,0.0000,-1.9214,flat,18.0,2,2.699
5610,179.52,-7.2362,-2.8924,0.1797,0.0001,0.0000,-1.9061,flat,18.0,2,2.126
5620,179.84,-7.4218,-3.4334,0.1797,0.0001,0.0000,-1.8877,flat,18.0,2,1.555
5630,180.16,-7.5963,-3.9762,0.1797,0.0001,0.0000,-1.8608,flat,18.0,2,0.984
5640,180.48,-7.7476,-4.4948,0.1799,0.0003,0.0000,-1.9656,flat,18.0,0,0.779
5650,180.80,-7.8566,-4.8485,0.1798,-0.0003,0.0001,-1.6567,flat,18.0,0,13.205
5660,181.12,-7.8814,-5.1731,0.1799,-0.0001,-0.0000,-1.3289,flat,18.0,0,13.242
5670,181.44,-7.7818,-5.5159,0.1799,0.0001,-0.0000,-1.1007,rough,14.0,0,13.164
5680,181.76,-7.5402,-5.8980,0.1799,0.0001,-0.0001,-0.8533,flat,18.0,0,12.958
5690,182.08,-7.1741,-6.2505,0.1799,0.0000,-0.0000,-0.6581,flat,18.0,0,12.638
5700,182.40,-6.7303,-6.5509,0.1799,0.0001,-0.0000,-0.4841,flat,18.0,0,12.245
5710,182.72,-6.2334,-6.7856,0.1799,0.0001,-0.0000,-0.3377,flat,18.0,0,11.798
5720,183.04,-5.7031,-6.9543,0.1799,0.0003,-0.0000,-0.2179,flat,18.0,0,11.313
5730,183.36,-5.1532,-7.0635,0.1798,0.0004,-0.0000,-0.1200,flat,18.0,0,10.802
5740,183.68,-4.5926,-7.1214,0.1798,0.0004,-0.0000,-0.0399,flat,18.0,0,10.272
5750,184.00,-4.0271,-7.1361,0.1797,0.0003,-0.0000,0.0255,flat,18.0,0,9.730
5760,184.32,-3.4613,-7.1157,0.1797,0.0002,-0.0000,0.0748,flat,18.0,0,9.181
5770,184.64,-2.8961,-7.0683,0.1797,0.0001,-0.0000,0.1146,flat,18.0,0,8.626
5780,184.96,-2.3323,-6.9991,0.1797,0.0001,-0.0000,0.1474,flat,18.0,0,8.067
5790,185.28,-1.7700,-6.9118,0.1797,0.0001,-0.0000,0.1754,flat,18.0,0,7.506
5800,185.60,-1.2096,-6.8092,0.1797,0.0001,-0.0000,0.1996,flat,18.0,0,6.942
5810,185.92,-0.6512,-6.6931,0.1797,0.0001,-0.0000,0.2209,flat,18.0,0,6.377
5820,186.24,-0.0948,-6.5654,0.1797,0.0001,-0.0000,0.2399,flat,18.0,0,5.811
5830,186.56,0.4596,-6.4272,0.1797,0.0001,-0.0000,0.2571,flat,18.0,0,5.244
5840,186.88,1.0118,-6.2795,0.1797,0.0001,-0.0000,0.2730,flat,18.0,0,4.676
5850,187.20,1.5618,-6.1232,0.1797,0.0001,-0.0000,0.2879,flat,18.0,0,4.108
5860,187.52,2.1096,-5.9587,0.1797,0.0001,-0.0000,0.3022,flat,18.0,0,3.540
5870,187.84,2.6549,-5.7863,0.1797,0.0001,0.0000,0.3164,flat,18.0,0,2.973
5880,188.16,3.1975,-5.6063,0.1797,0.0001,0.0000,0.3312,flat,18.0,0,2.406
5890,188.48,3.7368,-5.4182,0.1797,0.0001,0.0000,0.3477,flat,18.0,0,1.842
5900,188.80,4.2715,-5.2211,0.1797,0.0001,0.0000,0.3685,flat,18.0,0,1.282
5910,189.12,4.7946,-5.0162,0.1797,0.0001,0.0002,0.4198,flat,18.0,1,13.083
5920,189.44,5.1921,-4.8038,0.1799,-0.0001,0.0000,0.6785,flat,18.0,1,13.002
5930,189.76,5.5230,-4.4719,0.1799,0.0000,-0.0000,0.9241,flat,18.0,1,12.800
5940,190.08,5.7998,-4.0414,0.1799,0.0000,-0.0000,1.1452,flat,18.0,1,12.502
5950,190.40,5.9968,-3.5419,0.1799,0.0000,-0.0000,1.3405,flat,18.0,1,12.121
5960,190.72,6.1033,-3.0025,0.1799,0.0001,-0.0000,1.5023,flat,18.0,1,11.677
5970,191.04,6.1263,-2.4471,0.1799,0.0003,-0.0000,1.6290,flat,18.0,1,11.190
5980,191.36,6.0827,-1.8899,0.1798,0.0004,-0.0000,1.7209,flat,18.0,1,10.677
5990,191.68,5.9899,-1.3363,0.1798,0.0003,-0.0000,1.7907,flat,18.0,1,10.147
6000,192.00,5.8597,-0.7880,0.1797,0.0002,-0.0000,1.8458,flat,18.0,1,9.607
6010,192.32,5.7000,-0.2460,0.1797,0.0002,-0.0000,1.8900,flat,18.0,1,9.059
6020,192.64,5.5170,0.2894,0.1797,0.0001,-0.0000,1.9250,flat,18.0,1,8.507
6030,192.96,5.3155,0.8193,0.1797,0.0001,-0.0000,1.9551,flat,18.0,1,7.951
6040,193.28,5.0982,1.3441,0.1797,0.0001,-0.0000,1.9814,flat,18.0,1,7.393
6050,193.60,4.8672,1.8640,0.1797,0.0001,-0.0000,2.0046,flat,18.0,1,6.833
6060,193.92,4.6243,2.3791,0.1797,0.0001,-0.0000,2.0253,flat,18.0,1,6.271
6070,194.24,4.3707,2.8897,0.1797,0.0001,-0.0000,2.0441,flat,18.0,1,5.708
6080,194.56,4.1075,3.3959,0.1797,0.0001,-0.0000,2.0614,flat,18.0,1,5.144
6090,194.88,3.8356,3.8978,0.1797,0.0001,-0.0000,2.0776,flat,18.0,1,4.580
6100,195.20,3.5556,4.3955,0.1797,0.0001,-0.0000,2.0930,flat,18.0,1,4.017
6110,195.52,3.2680,4.8890,0.1797,0.0001,-0.0000,2.1079,flat,18.0,1,3.454
6120,195.84,2.9730,5.3781,0.1797,0.0001,0.0000,2.1229,flat,18.0,1,2.892
6130,196.16,2.6707,5.8624,0.1797,0.0001,0.0000,2.1385,flat,18.0,1,2.333
6140,196.48,2.3609,6.3412,0.1797,0.0001,0.0000,2.1558,flat,18.0,1,1.780
6150,196.80,2.0429,6.8131,0.1797,0.0001,0.0000,2.1772,flat,18.0,1,1.239
6160,197.12,1.7186,7.2711,0.1797,0.0001,0.0002,2.2257,flat,18.0,2,15.521
6170,197.44,1.4376,7.5575,0.1799,-0.0003,-0.0000,2.5766,flat,18.0,2,15.577
6180,197.76,1.0686,7.7521,0.1799,0.0000,0.0001,2.9046,rough,14.0,2,15.517
6190,198.08,0.6543,7.8372,0.1799,0.0001,-0.0001,-3.1393,flat,18.0,2,15.352
6200,198.40,0.1521,7.8105,0.1799,0.0001,0.0000,-2.8914,flat,18.0,2,15.055
6210,198.72,-0.3507,7.6562,0.1799,0.0001,-0.0000,-2.7094,flat,18.0,2,14.660
6220,199.04,-0.8304,7.4096,0.1799,0.0003,-0.0000,-2.5797,flat,18.0,2,14.205
6230,199.36,-1.2838,7.1006,0.1798,0.0004,-0.0000,-2.4880,flat,18.0,2,13.713
6240,199.68,-1.7151,6.7507,0.1797,0.0003,-0.0000,-2.4199,flat,18.0,2,13.201
6250,200.00,-2.1228,6.3711,0.1797,0.0002,-0.0000,-2.3580,flat,18.0,2,12.676
6260,200.32,-2.5094,5.9661,0.1797,0.0002,-0.0000,-2.3052,flat,18.0,2,12.140
6270,200.64,-2.8766,5.5414,0.1797,0.0002,-0.0000,-2.2599,flat,18.0,2,11.597
6280,200.96,-3.2270,5.1002,0.1797,0.0001,-0.0000,-2.2202,flat,18.0,2,11.049
6290,201.28,-3.5619,4.6448,0.1797,0.0001,-0.0000,-2.1848,flat,18.0,2,10.495
6300,201.60,-3.8824,4.1773,0.1797,0.0001,-0.0000,-2.1530,flat,18.0,2,9.937
6310,201.92,-4.1894,3.6993,0.1797,0.0001,-0.0000,-2.1244,flat,18.0,2,9.377
6320,202.24,-4.4838,3.2122,0.1797,0.0001,-0.0000,-2.0987,flat,18.0,2,8.813
6330,202.56,-4.7666,2.7174,0.1797,0.0001,-0.0000,-2.0754,flat,18.0,2,8.248
6340,202.88,-5.0387,2.2159,0.1797,0.0001,-0.0000,-2.0543,flat,18.0,2,7.681
6350,203.20,-5.3008,1.7084,0.1797,0.0001,-0.0000,-2.0350,flat,18.0,2,7.112
6360,203.52,-5.5537,1.1957,0.1797,0.0001,-0.0000,-2.0172,flat,18.0,2,6.543
6370,203.84,-5.7979,0.6784,0.1797,0.0001,-0.0000,-2.0008,flat,18.0,2,5.973
6380,204.16,-6.0339,0.1570,0.1797,0.0001,-0.0000,-1.9854,flat,18.0,2,5.402
6390,204.48,-6.2621,-0.3681,0.1797,0.0001,-0.0000,-1.9709,flat,18.0,2,4.830
6400,204.80,-6.4829,-0.8966,0.1797,0.0000,-0.0000,-1.9570,flat,18.0,2,4.258
6410,205.12,-6.6965,-1.4282,0.1797,0.0000,-0.0000,-1.9433,flat,18.0,2,3.686
6420,205.44,-6.9029,-1.9626,0.1797,0.0000,-0.0000,-1.9295,flat,18.0,2,3.114
6430,205.76,-7.1018,-2.4997,0.1797,0.0001,0.0000,-1.9152,flat,18.0,2,2.541
6440,206.08,-7.2927,-3.0393,0.1797,0.0001,0.0000,-1.8991,flat,18.0,2,1.969
6450,206.40,-7.4743,-3.5813,0.1797,0.0001,0.0000,-1.8791,flat,18.0,2,1.398
6460,206.72,-7.6434,-4.1246,0.1797,0.0001,0.0000,-1.8469,flat,18.0,2,0.829
6470,207.04,-7.7878,-4.6129,0.1799,-0.0006,0.0002,-1.8726,rough,14.0,0,13.133
6480,207.36,-7.8733,-4.9315,0.1798,-0.0003,-0.0001,-1.5466,flat,18.0,0,13.224
6490,207.68,-7.8511,-5.2747,0.1799,0.0000,0.0002,-1.2378,rough,14.0,0,13.217
6500,208.00,-7.6996,-5.6434,0.1799,-0.0001,-0.0001,-0.9988,flat,18.0,0,13.093
6510,208.32,-7.4010,-6.0241,0.1799,0.0000,-0.0000,-0.7744,flat,18.0,0,12.834
6520,208.64,-7.0015,-6.3583,0.1799,0.0000,-0.0000,-0.5881,flat,18.0,0,12.482
6530,208.96,-6.5344,-6.6344,0.1799,0.0001,-0.0000,-0.4247,flat,18.0,0,12.066
6540,209.28,-6.0227,-6.8434,0.1799,0.0002,-0.0000,-0.2892,flat,18.0,0,11.602
6550,209.60,-5.4836,-6.9885,0.1798,0.0004,-0.0000,-0.1786,flat,18.0,0,11.106
6560,209.92,-4.9288,-7.0774,0.1798,0.0004,-0.0000,-0.0881,flat,18.0,0,10.587
6570,210.24,-4.3658,-7.1183,0.1798,0.0003,-0.0000,-0.0140,flat,18.0,0,10.052
6580,210.56,-3.7998,-7.1188,0.1797,0.0002,-0.0000,0.0448,flat,18.0,0,9.506
6590,210.88,-3.2340,-7.0880,0.1797,0.0002,-0.0000,0.0904,flat,18.0,0,8.955
6600,211.20,-2.6693,-7.0321,0.1797,0.0001,-0.0000,0.1269,flat,18.0,0,8.398
6610,211.52,-2.1060,-6.9562,0.1797,0.0001,-0.0000,0.1577,flat,18.0,0,7.839
6620,211.84,-1.5443,-6.8633,0.1797,0.0001,-0.0000,0.1841,flat,18.0,0,7.276
6630,212.16,-0.9845,-6.7558,0.1797,0.0001,-0.0000,0.2071,flat,18.0,0,6.712
6640,212.48,-0.4267,-6.6356,0.1797,0.0001,-0.0000,0.2275,flat,18.0,0,6.147
6650,212.80,0.1290,-6.5043,0.1797,0.0001,-0.0000,0.2458,flat,18.0,0,5.580
6660,213.12,0.6827,-6.3628,0.1797,0.0001,-0.0000,0.2624,flat,18.0,0,5.013
6670,213.44,1.2342,-6.2123,0.1797,0.0001,-0.0000,0.2779,flat,18.0,0,4.445
6680,213.76,1.7835,-6.0533,0.1797,0.0001,-0.0000,0.2925,flat,18.0,0,3.877
6690,214.08,2.3305,-5.8862,0.1797,0.0001,-0.0000,0.3068,flat,18.0,0,3.309
6700,214.40,2.8750,-5.7114,0.1797,0.0001,0.0000,0.3211,flat,18.0,0,2.742
6710,214.72,3.4166,-5.5288,0.1797,0.0001,0.0000,0.3364,flat,18.0,0,2.176
6720,215.04,3.9544,-5.3378,0.1797,0.0001,0.0000,0.3542,flat,18.0,0,1.613
6730,215.36,4.4866,-5.1372,0.1797,0.0001,0.0000,0.3788,flat,18.0,0,1.057
6740,215.68,4.9673,-4.9414,0.1798,-0.0002,0.0001,0.5166,flat,18.0,1,13.062
6750,216.00,5.3333,-4.6844,0.1799,0.0000,-0.0000,0.7817,flat,18.0,1,12.935
6760,216.32,5.6454,-4.3087,0.1799,0.0000,-0.0000,1.0148,flat,18.0,1,12.692
6770,216.64,5.8928,-3.8474,0.1799,0.0000,-0.0000,1.2264,flat,18.0,1,12.359
6780,216.96,6.0539,-3.3285,0.1799,0.0001,-0.0000,1.4092,flat,18.0,1,11.951
6790,217.28,6.1256,-2.7804,0.1799,0.0001,-0.0000,1.5576,flat,18.0,1,11.488
6800,217.60,6.1195,-2.2232,0.1798,0.0004,-0.0000,1.6691,flat,18.0,1,10.989
6810,217.92,6.0545,-1.6671,0.1798,0.0004,-0.0000,1.7511,flat,18.0,1,10.468
6820,218.24,5.9455,-1.1155,0.1797,0.0002,-0.0000,1.8144,flat,18.0,1,9.933
6830,218.56,5.8026,-0.5697,0.1797,0.0002,-0.0000,1.8650,flat,18.0,1,9.389
6840,218.88,5.6327,-0.0305,0.1797,0.0001,-0.0000,1.9049,flat,18.0,1,8.840
6850,219.20,5.4418,0.5026,0.1797,0.0001,-0.0000,1.9378,flat,18.0,1,8.286
6860,219.52,5.2335,1.0304,0.1797,0.0001,-0.0000,1.9663,flat,18.0,1,7.730
6870,219.84,5.0104,1.5531,0.1797,0.0001,-0.0000,1.9913,flat,18.0,1,7.170
6880,220.16,4.7743,2.0710,0.1797,0.0001,-0.0000,2.0134,flat,18.0,1,6.609
6890,220.48,4.5267,2.5841,0.1797,0.0001,-0.0000,2.0334,flat,18.0,1,6.047
6900,220.80,4.2690,3.0929,0.1797,0.0001,-0.0000,2.0515,flat,18.0,1,5.484
6910,221.12,4.0021,3.5973,0.1797,0.0001,-0.0000,2.0684,flat,18.0,1,4.920
6920,221.44,3.7268,4.0974,0.1797,0.0001,-0.0000,2.0842,flat,18.0,1,4.356
6930,221.76,3.4435,4.5933,0.1797,0.0001,-0.0000,2.0993,flat,18.0,1,3.793
6940,222.08,3.1527,5.0850,0.1797,0.0001,-0.0000,2.1142,flat,18.0,1,3.230
6950,222.40,2.8547,5.5721,0.1797,0.0001,0.0000,2.1294,flat,18.0,1,2.669
6960,222.72,2.5492,6.0542,0.1797,0.0001,0.0000,2.1455,flat,18.0,1,2.112
6970,223.04,2.2360,6.5304,0.1797,0.0001,0.0000,2.1640,flat,18.0,1,1.562
6980,223.36,1.9142,6.9984,0.1797,0.0001,0.0000,2.1884,flat,18.0,1,1.031
6990,223.68,1.6154,7.4049,0.1798,-0.0001,0.0003,2.3623,flat,18.0,2,15.563
7000,224.00,1.2973,7.6473,0.1799,-0.0001,-0.0001,2.7169,flat,18.0,2,15.565
7010,224.32,0.8689,7.8069,0.1799,0.0000,-0.0000,3.0468,flat,18.0,2,15.447
7020,224.64,0.3746,7.8280,0.1799,0.0000,-0.0001,-2.9610,flat,18.0,2,15.190
7030,224.96,-0.1322,7.7116,0.1799,0.0001,-0.0000,-2.7634,flat,18.0,2,14.821
7040,225.28,-0.6212,7.4919,0.1799,0.0002,-0.0000,-2.6194,flat,18.0,2,14.381
7050,225.60,-1.0833,7.2019,0.1798,0.0004,-0.0000,-2.5156,flat,18.0,2,13.899
7060,225.92,-1.5227,6.8642,0.1798,0.0003,-0.0000,-2.4434,flat,18.0,2,13.391
7070,226.24,-1.9391,6.4949,0.1797,0.0002,-0.0000,-2.3797,flat,18.0,2,12.870
7080,226.56,-2.3336,6.0986,0.1797,0.0002,-0.0000,-2.3247,flat,18.0,2,12.337
7090,226.88,-2.7082,5.6808,0.1797,0.0002,-0.0000,-2.2769,flat,18.0,2,11.796
7100,227.20,-3.0652,5.2459,0.1797,0.0001,-0.0000,-2.2360,flat,18.0,2,11.249
7110,227.52,-3.4066,4.7960,0.1797,0.0001,-0.0000,-2.1994,flat,18.0,2,10.697
7120,227.84,-3.7333,4.3334,0.1797,0.0001,-0.0000,-2.1667,flat,18.0,2,10.141
7130,228.16,-4.0463,3.8598,0.1797,0.0001,-0.0000,-2.1372,flat,18.0,2,9.581
7140,228.48,-4.3466,3.3767,0.1797,0.0001,-0.0000,-2.1108,flat,18.0,2,9.018
7150,228.80,-4.6351,2.8854,0.1797,0.0001,-0.0000,-2.0868,flat,18.0,2,8.453
7160,229.12,-4.9126,2.3871,0.1797,0.0001,-0.0000,-2.0651,flat,18.0,2,7.887
7170,229.44,-5.1800,1.8826,0.1797,0.0001,-0.0000,-2.0453,flat,18.0,2,7.319
7180,229.76,-5.4380,1.3726,0.1797,0.0001,-0.0000,-2.0272,flat,18.0,2,6.750
7190,230.08,-5.6871,0.8578,0.1797,0.0001,-0.0000,-2.0104,flat,18.0,2,6.180
7200,230.40,-5.9280,0.3387,0.1797,0.0001,-0.0000,-1.9948,flat,18.0,2,5.609
7210,230.72,-6.1610,-0.1842,0.1797,0.0001,-0.0000,-1.9801,flat,18.0,2,5.038
7220,231.04,-6.3866,-0.7106,0.1797,0.0000,-0.0000,-1.9660,flat,18.0,2,4.466
7230,231.36,-6.6050,-1.2402,0.1797,0.0000,-0.0000,-1.9523,flat,18.0,2,3.894
7240,231.68,-6.8161,-1.7727,0.1797,0.0000,-0.0000,-1.9387,flat,18.0,2,3.321
7250,232.00,-7.0200,-2.3081,0.1797,0.0000,0.0000,-1.9247,flat,18.0,2,2.749
7260,232.32,-7.2162,-2.8460,0.1797,0.0001,0.0000,-1.9095,flat,18.0,2,2.177
7270,232.64,-7.4037,-3.3863,0.1797,0.0001,0.0000,-1.8914,flat,18.0,2,1.605
7280,232.96,-7.5803,-3.9287,0.1797,0.0001,0.0000,-1.8657,flat,18.0,2,1.034
7290,233.28,-7.7326,-4.4524,0.1798,0.0002,0.0000,-1.9438,flat,18.0,3,0.814
7300,233.60,-7.8507,-4.8248,0.1798,-0.0003,0.0001,-1.7022,rough,14.0,0,13.199
7310,233.92,-7.8884,-5.1508,0.1799,-0.0001,-0.0000,-1.3510,flat,18.0,0,13.248
7320,234.24,-7.7833,-5.5158,0.1799,0.0001,-0.0003,-1.1017,flat,18.0,0,13.166
7330,234.56,-7.5354,-5.9100,0.1799,0.0001,-0.0001,-0.8500,flat,18.0,0,12.955
7340,234.88,-7.1679,-6.2617,0.1799,0.0000,-0.0000,-0.6551,flat,18.0,0,12.633
7350,235.20,-6.7230,-6.5612,0.1799,0.0001,-0.0000,-0.4814,flat,18.0,0,12.239
7360,235.52,-6.2254,-6.7947,0.1799,0.0001,-0.0000,-0.3353,flat,18.0,0,11.792
7370,235.84,-5.6947,-6.9622,0.1799,0.0003,-0.0000,-0.2158,flat,18.0,0,11.306
7380,236.16,-5.1446,-7.0703,0.1798,0.0004,-0.0000,-0.1182,flat,18.0,0,10.795
7390,236.48,-4.5839,-7.1273,0.1798,0.0004,-0.0000,-0.0383,flat,18.0,0,10.265
7400,236.80,-4.0183,-7.1411,0.1797,0.0003,-0.0000,0.0269,flat,18.0,0,9.723
7410,237.12,-3.4526,-7.1200,0.1797,0.0002,-0.0000,0.0760,flat,18.0,0,9.173
7420,237.44,-2.8874,-7.0719,0.1797,0.0001,-0.0000,0.1157,flat,18.0,0,8.618
7430,237.76,-2.3236,-7.0022,0.1797,0.0001,-0.0000,0.1483,flat,18.0,0,8.060
7440,238.08,-1.7614,-6.9144,0.1797,0.0001,-0.0000,0.1763,flat,18.0,0,7.499
7450,238.40,-1.2011,-6.8112,0.1797,0.0001,-0.0000,0.2004,flat,18.0,0,6.935
7460,238.72,-0.6428,-6.6947,0.1797,0.0001,-0.0000,0.2217,flat,18.0,0,6.370
7470,239.04,-0.0864,-6.5665,0.1797,0.0001,-0.0000,0.2407,flat,18.0,0,5.804
7480,239.36,0.4678,-6.4279,0.1797,0.0001,-0.0000,0.2579,flat,18.0,0,5.237
7490,239.68,1.0199,-6.2798,0.1797,0.0001,-0.0000,0.2737,flat,18.0,0,4.669
7500,240.00,1.5698,-6.1231,0.1797,0.0001,-0.0000,0.2886,flat,18.0,0,4.101
7510,240.32,2.1174,-5.9582,0.1797,0.0001,-0.0000,0.3029,flat,18.0,0,3.533
7520,240.64,2.6626,-5.7855,0.1797,0.0001,0.0000,0.3171,flat,18.0,0,2.965
7530,240.96,3.2051,-5.6050,0.1797,0.0001,0.0000,0.3319,flat,18.0,0,2.399
7540,241.28,3.7443,-5.4165,0.1797,0.0001,0.0000,0.3484,flat,18.0,0,1.834
7550,241.60,4.2787,-5.2190,0.1797,0.0001,0.0000,0.3694,flat,18.0,0,1.275
7560,241.92,4.8015,-5.0137,0.1797,0.0001,0.0002,0.4210,flat,18.0,1,13.082
7570,242.24,5.1986,-4.8007,0.1799,-0.0001,0.0000,0.6799,flat,18.0,1,13.001
7580,242.56,5.5153,-4.4866,0.1799,0.0000,-0.0001,0.9152,flat,18.0,1,12.811
7590,242.88,5.7946,-4.0593,0.1799,0.0001,-0.0000,1.1373,flat,18.0,1,12.516
7600,243.20,5.9947,-3.5619,0.1799,0.0001,0.0000,1.3329,flat,18.0,1,12.138
7610,243.52,6.1046,-3.0234,0.1799,0.0001,-0.0000,1.4971,flat,18.0,1,11.697
7620,243.84,6.1304,-2.4683,0.1799,0.0003,-0.0000,1.6252,flat,18.0,1,11.211
7630,244.16,6.0888,-1.9111,0.1798,0.0004,-0.0000,1.7181,flat,18.0,1,10.698
7640,244.48,5.9975,-1.3573,0.1798,0.0003,-0.0000,1.7886,flat,18.0,1,10.169
7650,244.80,5.8685,-0.8089,0.1797,0.0002,-0.0000,1.8442,flat,18.0,1,9.629
7660,245.12,5.7096,-0.2666,0.1797,0.0002,-0.0000,1.8887,flat,18.0,1,9.082
7670,245.44,5.5272,0.2689,0.1797,0.0001,-0.0000,1.9240,flat,18.0,1,8.530
7680,245.76,5.3263,0.7990,0.1797,0.0001,-0.0000,1.9543,flat,18.0,1,7.974
7690,246.08,5.1094,1.3240,0.1797,0.0001,-0.0000,1.9807,flat,18.0,1,7.416
7700,246.40,4.8788,1.8439,0.1797,0.0001,-0.0000,2.0040,flat,18.0,1,6.856
7710,246.72,4.6361,2.3591,0.1797,0.0001,-0.0000,2.0248,flat,18.0,1,6.294
7720,247.04,4.3828,2.8698,0.1797,0.0001,-0.0000,2.0437,flat,18.0,1,5.731
7730,247.36,4.1198,3.3761,0.1797,0.0001,-0.0000,2.0611,flat,18.0,1,5.168
7740,247.68,3.8481,3.8781,0.1797,0.0001,-0.0000,2.0773,flat,18.0,1,4.604
7750,248.00,3.5683,4.3759,0.1797,0.0001,-0.0000,2.0926,flat,18.0,1,4.040
7760,248.32,3.2809,4.8695,0.1797,0.0001,-0.0000,2.1076,flat,18.0,1,3.477
7770,248.64,2.9860,5.3587,0.1797,0.0001,0.0000,2.1226,flat,18.0,1,2.915
7780,248.96,2.6839,5.8431,0.1797,0.0001,0.0000,2.1381,flat,18.0,1,2.356
7790,249.28,2.3742,6.3221,0.1797,0.0001,0.0000,2.1554,flat,18.0,1,1.802
7800,249.60,2.0564,6.7942,0.1797,0.0001,0.0000,2.1765,flat,18.0,1,1.260
7810,249.92,1.7291,7.2553,0.1797,0.0001,0.0000,2.2085,flat,18.0,2,0.754
7820,250.24,1.4494,7.5595,0.1799,-0.0003,0.0000,2.5442,flat,18.0,2,15.585
7830,250.56,1.0729,7.7678,0.1799,-0.0000,-0.0000,2.8891,flat,18.0,2,15.532
7840,250.88,0.6043,7.8607,0.1799,0.0001,-0.0000,-3.0860,flat,18.0,2,15.344
7850,251.20,0.0983,7.8076,0.1799,0.0001,-0.0000,-2.8543,flat,18.0,2,15.024
7860,251.52,-0.4016,7.6339,0.1799,0.0001,-0.0000,-2.6829,flat,18.0,2,14.615
7870,251.84,-0.8765,7.3745,0.1799,0.0003,-0.0000,-2.5611,flat,18.0,2,14.151
7880,252.16,-1.3263,7.0567,0.1798,0.0003,-0.0000,-2.4763,flat,18.0,2,13.654
7890,252.48,-1.7537,6.7016,0.1797,0.0002,-0.0000,-2.4093,flat,18.0,2,13.139
7900,252.80,-2.1579,6.3175,0.1797,0.0002,-0.0000,-2.3492,flat,18.0,2,12.612
7910,253.12,-2.5414,5.9091,0.1797,0.0002,-0.0000,-2.2979,flat,18.0,2,12.075
7920,253.44,-2.9060,5.4817,0.1797,0.0002,-0.0000,-2.2539,flat,18.0,2,11.531
7930,253.76,-3.2542,5.0383,0.1797,0.0001,-0.0000,-2.2152,flat,18.0,2,10.981
7940,254.08,-3.5873,4.5811,0.1797,0.0001,-0.0000,-2.1806,flat,18.0,2,10.427
7950,254.40,-3.9061,4.1121,0.1797,0.0001,-0.0000,-2.1495,flat,18.0,2,9.868
7960,254.72,-4.2117,3.6330,0.1797,0.0001,-0.0000,-2.1216,flat,18.0,2,9.307
7970,255.04,-4.5050,3.1451,0.1797,0.0001,-0.0000,-2.0964,flat,18.0,2,8.743
7980,255.36,-4.7869,2.6496,0.1797,0.0001,-0.0000,-2.0737,flat,18.0,2,8.177
7990,255.68,-5.0582,2.1474,0.1797,0.0001,-0.0000,-2.0530,flat,18.0,2,7.610
8000,256.00,-5.3197,1.6396,0.1797,0.0001,-0.0000,-2.0340,flat,18.0,2,7.041
8010,256.32,-5.5722,1.1266,0.1797,0.0001,-0.0000,-2.0166,flat,18.0,2,6.472
8020,256.64,-5.8161,0.6091,0.1797,0.0001,-0.0000,-2.0004,flat,18.0,2,5.901
8030,256.96,-6.0520,0.0875,0.1797,0.0001,-0.0000,-1.9853,flat,18.0,2,5.330
8040,257.28,-6.2802,-0.4376,0.1797,0.0001,-0.0000,-1.9710,flat,18.0,2,4.759
8050,257.60,-6.5011,-0.9661,0.1797,0.0000,-0.0000,-1.9572,flat,18.0,2,4.187
8060,257.92,-6.7149,-1.4976,0.1797,0.0000,-0.0000,-1.9436,flat,18.0,2,3.615
