step,time_s,x,y,z,roll,pitch,yaw,terrain,speed,target_idx,dist_to_target
10,0.32,-0.1093,1.4505,0.1830,0.0002,-0.0288,0.0042,rough,14.0,0,4.152
20,0.64,0.2090,1.4588,0.1798,-0.0009,0.0003,0.3746,flat,18.0,0,4.238
30,0.96,0.5593,1.6446,0.1799,0.0000,-0.0001,0.7341,flat,18.0,0,4.195
40,1.28,0.8606,1.9914,0.1799,-0.0000,-0.0000,1.0307,flat,18.0,0,4.026
50,1.60,1.0837,2.4394,0.1799,0.0000,-0.0000,1.3244,flat,18.0,0,3.777
60,1.92,1.1827,2.9508,0.1799,0.0002,0.0000,1.6023,flat,18.0,0,3.448
70,2.24,1.1409,3.4780,0.1799,0.0001,-0.0000,1.8288,flat,18.0,0,3.054
80,2.56,0.9829,3.9850,0.1799,0.0001,0.0000,2.0041,flat,18.0,0,2.619
90,2.88,0.7364,4.4583,0.1799,0.0001,-0.0000,2.1531,flat,18.0,0,2.163
100,3.20,0.4189,4.8924,0.1799,0.0003,0.0000,2.2799,flat,18.0,0,1.697
110,3.52,0.0489,5.2744,0.1799,0.0001,0.0000,2.4260,flat,18.0,0,1.243
120,3.84,-0.3704,5.5908,0.1799,0.0000,0.0000,2.6374,flat,18.0,0,0.819
130,4.16,-0.7973,5.8487,0.1799,-0.0000,-0.0000,2.4697,flat,18.0,1,1.537
140,4.48,-1.1604,6.1994,0.1799,0.0000,-0.0000,2.2367,flat,18.0,1,1.179
150,4.80,-1.4370,6.6243,0.1799,0.0000,-0.0000,1.9206,flat,18.0,1,0.855
160,5.12,-1.5596,7.0296,0.1799,0.0001,0.0000,1.3889,flat,18.0,2,8.278
170,5.44,-1.4653,7.3795,0.1799,-0.0000,-0.0001,0.9650,flat,18.0,2,8.359
180,5.76,-1.1889,7.6841,0.1799,-0.0000,0.0003,0.6545,flat,18.0,2,8.277
190,6.08,-0.8274,7.9199,0.1799,-0.0000,-0.0001,0.4142,flat,18.0,2,8.105
200,6.40,-0.3506,8.0959,0.1799,0.0000,-0.0000,0.1508,flat,18.0,2,7.825
210,6.72,0.1767,8.1521,0.1799,-0.0000,-0.0000,-0.0746,flat,18.0,2,7.452
220,7.04,0.7138,8.0922,0.1799,-0.0001,-0.0000,-0.2438,flat,18.0,2,7.012
230,7.36,1.2394,7.9439,0.1799,-0.0003,-0.0000,-0.3673,flat,18.0,2,6.532
240,7.68,1.7476,7.7321,0.1798,-0.0004,-0.0000,-0.4627,flat,18.0,2,6.029
250,8.00,2.2370,7.4724,0.1798,-0.0003,-0.0000,-0.5403,flat,18.0,2,5.509
260,8.32,2.7078,7.1748,0.1797,-0.0002,-0.0000,-0.6052,flat,18.0,2,4.979
270,8.64,3.1608,6.8467,0.1797,-0.0002,-0.0000,-0.6611,flat,18.0,2,4.442
280,8.96,3.5964,6.4933,0.1797,-0.0002,-0.0000,-0.7109,flat,18.0,2,3.901
290,9.28,4.0138,6.1183,0.1797,-0.0002,-0.0000,-0.7595,flat,18.0,2,3.357
300,9.60,4.4125,5.7231,0.1797,-0.0002,-0.0000,-0.8072,flat,18.0,2,2.811
310,9.92,4.7906,5.3093,0.1797,-0.0002,0.0000,-0.8574,flat,18.0,2,2.267
320,10.24,5.1462,4.8778,0.1797,-0.0002,-0.0000,-0.9138,flat,18.0,2,1.724
330,10.56,5.4761,4.4266,0.1797,-0.0003,0.0000,-0.9873,flat,18.0,2,1.186
340,10.88,5.7632,3.9563,0.1798,-0.0004,-0.0001,-1.0540,flat,18.0,3,3.043
350,11.20,6.0493,3.4769,0.1798,0.0002,-0.0000,-0.9950,rough,14.0,3,2.506
360,11.52,6.2970,3.1052,0.1798,0.0001,-0.0003,-0.9578,flat,18.0,3,2.077
370,11.84,6.6285,2.6595,0.1797,0.0002,-0.0000,-0.8900,flat,18.0,3,1.546
380,12.16,6.9885,2.2439,0.1798,0.0003,0.0000,-0.8044,flat,18.0,3,1.028
390,12.48,7.3037,1.9415,0.1786,0.0001,-0.0069,-0.8588,flat,18.0,0,9.185
400,12.80,7.4673,1.6887,0.1783,-0.0096,-0.0001,-1.3621,flat,18.0,0,9.435
410,13.12,7.5230,1.3196,0.1800,0.0005,0.0000,-1.8957,flat,18.0,0,9.639
420,13.44,7.3691,0.9781,0.1799,0.0001,-0.0000,-2.2652,flat,18.0,0,9.654
430,13.76,7.0468,0.6748,0.1799,0.0000,-0.0000,-2.5488,flat,18.0,0,9.518
440,14.08,6.6168,0.4320,0.1799,-0.0000,-0.0000,-2.8126,flat,18.0,0,9.279
450,14.40,6.1138,0.2884,0.1799,0.0000,-0.0000,-3.0497,flat,18.0,0,8.942
460,14.72,5.5752,0.2599,0.1799,-0.0001,-0.0000,3.0396,flat,18.0,0,8.526
470,15.04,5.0333,0.3326,0.1799,-0.0002,-0.0000,2.8983,flat,18.0,0,8.057
480,15.36,4.5020,0.4792,0.1798,-0.0004,-0.0000,2.7945,flat,18.0,0,7.557
490,15.68,3.9847,0.6798,0.1798,-0.0004,-0.0000,2.7133,flat,18.0,0,7.039
500,16.00,3.4821,0.9218,0.1797,-0.0002,-0.0000,2.6472,flat,18.0,0,6.508
510,16.32,2.9940,1.1967,0.1797,-0.0002,-0.0000,2.5918,flat,18.0,0,5.968
520,16.64,2.5200,1.4985,0.1797,-0.0002,-0.0000,2.5439,flat,18.0,0,5.422
530,16.96,2.0601,1.8230,0.1797,-0.0001,-0.0000,2.5036,flat,18.0,0,4.873
540,17.28,1.6127,2.1661,0.1797,-0.0001,-0.0000,2.4667,flat,18.0,0,4.320
550,17.60,1.1776,2.5257,0.1797,-0.0001,-0.0000,2.4319,flat,18.0,0,3.766
560,17.92,0.7548,2.9004,0.1797,-0.0001,-0.0000,2.3970,flat,18.0,0,3.210
570,18.24,0.3452,3.2898,0.1797,-0.0001,-0.0000,2.3616,flat,18.0,0,2.654
580,18.56,-0.0493,3.6935,0.1797,-0.0001,0.0000,2.3240,flat,18.0,0,2.099
590,18.88,-0.4258,4.1114,0.1797,-0.0001,0.0000,2.2805,flat,18.0,0,1.547
600,19.20,-0.7800,4.5437,0.1797,-0.0002,0.0000,2.2222,flat,18.0,0,1.002
610,19.52,-1.0899,4.9915,0.1799,-0.0000,-0.0000,2.0963,flat,18.0,1,2.379
620,19.84,-1.3365,5.4667,0.1799,-0.0001,0.0005,1.9362,rough,14.0,1,1.929
630,20.16,-1.4806,5.8685,0.1798,-0.0003,0.0000,1.8090,rough,14.0,1,1.571
640,20.48,-1.5876,6.3739,0.1799,-0.0000,-0.0000,1.6158,flat,18.0,1,1.147
650,20.80,-1.5886,6.8931,0.1799,0.0001,0.0002,1.3236,flat,18.0,2,8.243
660,21.12,-1.4632,7.2989,0.1799,0.0001,0.0000,1.0180,flat,18.0,2,8.318
670,21.44,-1.2317,7.5938,0.1799,0.0001,0.0001,0.7308,rough,14.0,2,8.266
680,21.76,-0.9368,7.8200,0.1799,0.0000,-0.0002,0.5173,flat,18.0,2,8.139
690,22.08,-0.4956,8.0329,0.1799,-0.0000,-0.0000,0.2525,flat,18.0,2,7.902
700,22.40,0.0160,8.1384,0.1799,0.0000,-0.0001,0.0067,flat,18.0,2,7.566
710,22.72,0.5527,8.1208,0.1799,-0.0001,-0.0000,-0.1856,flat,18.0,2,7.150
720,23.04,1.0836,8.0028,0.1799,-0.0002,-0.0000,-0.3253,flat,18.0,2,6.684
730,23.36,1.5983,7.8124,0.1798,-0.0004,-0.0000,-0.4306,flat,18.0,2,6.189
740,23.68,2.0942,7.5686,0.1798,-0.0004,-0.0000,-0.5148,flat,18.0,2,5.675
750,24.00,2.5712,7.2832,0.1797,-0.0003,-0.0000,-0.5844,flat,18.0,2,5.150
760,24.32,3.0301,6.9648,0.1797,-0.0002,-0.0000,-0.6431,flat,18.0,2,4.615
770,24.64,3.4715,6.6195,0.1797,-0.0002,-0.0000,-0.6947,flat,18.0,2,4.076
780,24.96,3.8948,6.2515,0.1797,-0.0002,-0.0000,-0.7442,flat,18.0,2,3.533
790,25.28,4.2991,5.8625,0.1797,-0.0002,-0.0000,-0.7931,flat,18.0,2,2.989
800,25.60,4.6832,5.4541,0.1797,-0.0002,0.0000,-0.8432,flat,18.0,2,2.445
810,25.92,5.0450,5.0272,0.1797,-0.0002,-0.0000,-0.8984,flat,18.0,2,1.902
820,26.24,5.3825,4.5809,0.1797,-0.0002,0.0000,-0.9663,flat,18.0,2,1.362
830,26.56,5.6847,4.1149,0.1798,-0.0004,0.0000,-1.0639,flat,18.0,2,0.833
840,26.88,5.9592,3.6330,0.1798,0.0001,-0.0000,-1.0163,flat,18.0,3,2.678
850,27.20,6.2145,3.2339,0.1797,0.0001,0.0001,-0.9729,rough,14.0,3,2.222
860,27.52,6.5215,2.8031,0.1797,0.0002,-0.0001,-0.9150,flat,18.0,3,1.716
870,27.84,6.8711,2.3751,0.1798,0.0003,0.0000,-0.8382,flat,18.0,3,1.192
880,28.16,7.2325,2.0075,0.1797,0.0003,-0.0000,-0.7457,flat,18.0,0,9.094
890,28.48,7.4146,1.7897,0.1745,-0.0335,-0.0006,-1.2167,flat,18.0,0,9.346
900,28.80,7.5177,1.4386,0.1799,0.0000,0.0001,-1.7530,flat,18.0,0,9.583
910,29.12,7.4233,1.0850,0.1799,-0.0000,-0.0001,-2.1665,flat,18.0,0,9.653
920,29.44,7.1432,0.7693,0.1799,-0.0000,-0.0000,-2.4672,flat,18.0,0,9.555
930,29.76,6.7412,0.5041,0.1799,-0.0000,-0.0000,-2.7371,flat,18.0,0,9.345
940,30.08,6.2559,0.3288,0.1799,-0.0001,-0.0000,-2.9814,flat,18.0,0,9.036
950,30.40,5.7237,0.2665,0.1799,-0.0001,-0.0000,3.0927,flat,18.0,0,8.640
960,30.72,5.1805,0.3120,0.1799,-0.0001,-0.0000,2.9350,flat,18.0,0,8.184
970,31.04,4.6455,0.4394,0.1799,-0.0004,-0.0000,2.8222,flat,18.0,0,7.692
980,31.36,4.1240,0.6257,0.1798,-0.0004,-0.0000,2.7353,flat,18.0,0,7.178
990,31.68,3.6171,0.8566,0.1798,-0.0003,-0.0000,2.6653,flat,18.0,0,6.650
1000,32.00,3.1248,1.1225,0.1797,-0.0002,-0.0000,2.6071,flat,18.0,0,6.113
1010,32.32,2.6468,1.4170,0.1797,-0.0002,-0.0000,2.5572,flat,18.0,0,5.569
1020,32.64,2.1829,1.7354,0.1797,-0.0001,-0.0000,2.5148,flat,18.0,0,5.020
1030,32.96,1.7319,2.0733,0.1797,-0.0001,-0.0000,2.4770,flat,18.0,0,4.468
1040,33.28,1.2933,2.4284,0.1797,-0.0001,-0.0000,2.4417,flat,18.0,0,3.914
1050,33.60,0.8670,2.7988,0.1797,-0.0001,-0.0000,2.4070,flat,18.0,0,3.359
1060,33.92,0.4536,3.1841,0.1797,-0.0001,-0.0000,2.3715,flat,18.0,0,2.803
1070,34.24,0.0547,3.5839,0.1797,-0.0001,0.0000,2.3349,flat,18.0,0,2.248
1080,34.56,-0.3272,3.9979,0.1797,-0.0001,0.0000,2.2931,flat,18.0,0,1.695
1090,34.88,-0.6877,4.4258,0.1797,-0.0002,0.0000,2.2409,flat,18.0,0,1.148
1100,35.20,-1.0130,4.8683,0.1798,-0.0001,-0.0000,2.1372,flat,18.0,1,2.502
1110,35.52,-1.2819,5.3411,0.1799,-0.0001,-0.0000,1.9774,flat,18.0,1,2.046
1120,35.84,-1.4491,5.7623,0.1798,-0.0002,0.0001,1.8452,rough,14.0,1,1.664
1130,36.16,-1.5694,6.2426,0.1799,-0.0000,-0.0000,1.6760,flat,18.0,1,1.254
1140,36.48,-1.6019,6.7687,0.1799,-0.0000,0.0000,1.4040,flat,18.0,1,0.837
1150,36.80,-1.5057,7.2075,0.1799,0.0001,0.0000,1.1001,flat,18.0,2,8.312
1160,37.12,-1.2965,7.5310,0.1799,0.0000,0.0002,0.7898,rough,14.0,2,8.289
1170,37.44,-1.0303,7.7580,0.1798,-0.0000,-0.0000,0.5774,rough,14.0,2,8.183
1180,37.76,-0.6276,7.9841,0.1799,-0.0000,-0.0000,0.3282,flat,18.0,2,7.979
1190,38.08,-0.1312,8.1234,0.1799,-0.0001,-0.0000,0.0748,flat,18.0,2,7.670
1200,38.40,0.4028,8.1399,0.1799,-0.0001,-0.0000,-0.1363,flat,18.0,2,7.274
1210,38.72,0.9371,8.0473,0.1799,-0.0001,-0.0000,-0.2902,flat,18.0,2,6.820
1220,39.04,1.4567,7.8750,0.1799,-0.0004,-0.0000,-0.4036,flat,18.0,2,6.332
1230,39.36,1.9580,7.6447,0.1798,-0.0004,-0.0000,-0.4929,flat,18.0,2,5.823
1240,39.68,2.4401,7.3700,0.1798,-0.0003,-0.0000,-0.5664,flat,18.0,2,5.300
1250,40.00,2.9040,7.0601,0.1797,-0.0002,-0.0000,-0.6276,flat,18.0,2,4.768
1260,40.32,3.3502,6.7217,0.1797,-0.0002,-0.0000,-0.6809,flat,18.0,2,4.229
1270,40.64,3.7787,6.3597,0.1797,-0.0002,-0.0000,-0.7305,flat,18.0,2,3.687
1280,40.96,4.1882,5.9765,0.1797,-0.0002,-0.0000,-0.7798,flat,18.0,2,3.144
1290,41.28,4.5781,5.5732,0.1797,-0.0002,0.0000,-0.8291,flat,18.0,2,2.599
1300,41.60,4.9461,5.1514,0.1797,-0.0002,-0.0000,-0.8823,flat,18.0,2,2.056
1310,41.92,5.2909,4.7104,0.1797,-0.0002,0.0000,-0.9459,flat,18.0,2,1.515
1320,42.24,5.6043,4.2498,0.1798,-0.0003,0.0000,-1.0318,flat,18.0,2,0.982
1330,42.56,5.8776,3.7700,0.1798,-0.0002,-0.0000,-1.0355,flat,18.0,3,2.831
1340,42.88,6.1527,3.3241,0.1798,0.0001,0.0003,-0.9852,rough,14.0,3,2.328
1350,43.20,6.4249,2.9296,0.1797,0.0001,-0.0002,-0.9341,flat,18.0,3,1.868
1360,43.52,6.7662,2.4923,0.1797,0.0002,-0.0000,-0.8635,flat,18.0,3,1.341
1370,43.84,7.1366,2.0931,0.1798,0.0003,0.0000,-0.7608,flat,18.0,3,0.834
1380,44.16,7.3650,1.8595,0.1796,0.0004,-0.0016,-1.0917,flat,18.0,0,9.273
1390,44.48,7.5084,1.5462,0.1795,-0.0021,-0.0001,-1.5947,flat,18.0,0,9.530
1400,44.80,7.4769,1.1799,0.1799,0.0001,-0.0000,-2.0603,flat,18.0,0,9.658
1410,45.12,7.2468,0.8533,0.1799,0.0001,-0.0001,-2.3842,flat,18.0,0,9.605
1420,45.44,6.8761,0.5697,0.1799,0.0000,-0.0000,-2.6586,flat,18.0,0,9.425
1430,45.76,6.4120,0.3637,0.1799,-0.0000,-0.0000,-2.9125,flat,18.0,0,9.145
1440,46.08,5.8898,0.2665,0.1799,-0.0000,-0.0000,-3.1347,flat,18.0,0,8.774
1450,46.40,5.3471,0.2823,0.1799,-0.0001,-0.0000,2.9763,flat,18.0,0,8.333
1460,46.72,4.8088,0.3882,0.1799,-0.0003,-0.0000,2.8525,flat,18.0,0,7.849
1470,47.04,4.2831,0.5587,0.1798,-0.0004,-0.0000,2.7591,flat,18.0,0,7.341
1480,47.36,3.7718,0.7774,0.1798,-0.0003,-0.0000,2.6847,flat,18.0,0,6.817
1490,47.68,3.2752,1.0337,0.1797,-0.0002,-0.0000,2.6234,flat,18.0,0,6.282
1500,48.00,2.7930,1.3203,0.1797,-0.0002,-0.0000,2.5713,flat,18.0,0,5.739
1510,48.32,2.3249,1.6321,0.1797,-0.0002,-0.0000,2.5266,flat,18.0,0,5.192
1520,48.64,1.8703,1.9646,0.1797,-0.0001,-0.0000,2.4879,flat,18.0,0,4.641
1530,48.96,1.4280,2.3147,0.1797,-0.0001,-0.0000,2.4520,flat,18.0,0,4.088
1540,49.28,0.9980,2.6807,0.1797,-0.0001,-0.0000,2.4174,flat,18.0,0,3.533
1550,49.60,0.5806,3.0616,0.1797,-0.0001,-0.0000,2.3822,flat,18.0,0,2.977
1560,49.92,0.1771,3.4571,0.1797,-0.0001,0.0000,2.3462,flat,18.0,0,2.421
1570,50.24,-0.2103,3.8668,0.1797,-0.0001,0.0000,2.3065,flat,18.0,0,1.867
1580,50.56,-0.5778,4.2904,0.1797,-0.0002,0.0000,2.2592,flat,18.0,0,1.318
1590,50.88,-0.9206,4.7298,0.1798,-0.0003,0.0000,2.1861,flat,18.0,1,2.642
1600,51.20,-1.2046,5.1892,0.1799,-0.0001,-0.0000,2.0289,flat,18.0,1,2.189
1610,51.52,-1.4038,5.6355,0.1798,-0.0002,0.0002,1.8864,rough,14.0,1,1.777
1620,51.84,-1.5337,6.0782,0.1798,-0.0002,-0.0004,1.7473,flat,18.0,1,1.390
1630,52.16,-1.6055,6.6069,0.1799,-0.0001,0.0000,1.4929,flat,18.0,1,0.962
1640,52.48,-1.5470,7.0852,0.1799,0.0002,0.0000,1.1888,flat,18.0,2,8.292
1650,52.80,-1.3669,7.4389,0.1799,0.0001,-0.0000,0.8560,flat,18.0,2,8.303
1660,53.12,-1.1032,7.6901,0.1799,-0.0001,-0.0000,0.6215,rough,14.0,2,8.207
1670,53.44,-0.7438,7.9134,0.1799,0.0000,-0.0001,0.3937,flat,18.0,2,8.032
1680,53.76,-0.2620,8.0811,0.1799,-0.0000,-0.0000,0.1322,flat,18.0,2,7.746
1690,54.08,0.2668,8.1275,0.1799,-0.0001,-0.0000,-0.0907,flat,18.0,2,7.368
1700,54.40,0.8034,8.0590,0.1799,-0.0001,-0.0000,-0.2562,flat,18.0,2,6.924
1710,54.72,1.3274,7.9043,0.1799,-0.0003,-0.0000,-0.3772,flat,18.0,2,6.442
1720,55.04,1.8337,7.6874,0.1798,-0.0004,-0.0000,-0.4712,flat,18.0,2,5.937
1730,55.36,2.3210,7.4234,0.1798,-0.0003,-0.0000,-0.5480,flat,18.0,2,5.417
1740,55.68,2.7897,7.1221,0.1797,-0.0002,-0.0000,-0.6120,flat,18.0,2,4.887
1750,56.00,3.2406,6.7909,0.1797,-0.0002,-0.0000,-0.6671,flat,18.0,2,4.350
1760,56.32,3.6741,6.4349,0.1797,-0.0002,-0.0000,-0.7169,flat,18.0,2,3.808
1770,56.64,4.0889,6.0574,0.1797,-0.0002,-0.0000,-0.7662,flat,18.0,2,3.265
1780,56.96,4.4845,5.6595,0.1797,-0.0002,0.0000,-0.8149,flat,18.0,2,2.720
1790,57.28,4.8588,5.2429,0.1797,-0.0002,0.0000,-0.8666,flat,18.0,2,2.177
1800,57.60,5.2104,4.8073,0.1797,-0.0002,-0.0000,-0.9270,flat,18.0,2,1.634
1810,57.92,5.5335,4.3522,0.1798,-0.0003,0.0000,-1.0056,flat,18.0,2,1.098
1820,58.24,5.8140,3.8772,0.1798,-0.0002,-0.0001,-1.0417,flat,18.0,3,2.951
1830,58.56,6.0932,3.4188,0.1798,0.0001,0.0004,-0.9912,rough,14.0,3,2.435
1840,58.88,6.3561,3.0319,0.1798,0.0001,-0.0003,-0.9448,flat,18.0,3,1.985
1850,59.20,6.6929,2.5897,0.1797,0.0002,-0.0000,-0.8780,flat,18.0,3,1.454
1860,59.52,7.0578,2.1805,0.1798,0.0003,0.0000,-0.7872,flat,18.0,3,0.939
1870,59.84,7.3254,1.9174,0.1792,0.0001,-0.0046,-1.0033,flat,18.0,0,9.214
1880,60.16,7.4842,1.6317,0.1790,-0.0052,-0.0001,-1.4733,flat,18.0,0,9.473
1890,60.48,7.4975,1.2594,0.1799,0.0002,-0.0000,-1.9825,flat,18.0,0,9.642
1900,60.80,7.3041,0.9256,0.1799,0.0001,-0.0000,-2.3274,flat,18.0,0,9.621
1910,61.12,6.9559,0.6318,0.1799,0.0000,-0.0000,-2.6047,flat,18.0,0,9.462
1920,61.44,6.5079,0.4067,0.1799,-0.0000,-0.0000,-2.8635,flat,18.0,0,9.201
1930,61.76,5.9943,0.2864,0.1799,-0.0000,-0.0000,-3.0928,flat,18.0,0,8.846
1940,62.08,5.4530,0.2805,0.1799,-0.0001,-0.0000,3.0068,flat,18.0,0,8.417
1950,62.40,4.9128,0.3703,0.1799,-0.0002,-0.0000,2.8748,flat,18.0,0,7.940
1960,62.72,4.3841,0.5292,0.1798,-0.0004,-0.0000,2.7765,flat,18.0,0,7.436
1970,63.04,3.8698,0.7390,0.1798,-0.0003,-0.0000,2.6989,flat,18.0,0,6.914
1980,63.36,3.3701,0.9882,0.1797,-0.0002,-0.0000,2.6353,flat,18.0,0,6.381
1990,63.68,2.8850,1.2690,0.1797,-0.0002,-0.0000,2.5816,flat,18.0,0,5.840
2000,64.00,2.4138,1.5757,0.1797,-0.0002,-0.0000,2.5352,flat,18.0,0,5.293
2010,64.32,1.9565,1.9042,0.1797,-0.0001,-0.0000,2.4959,flat,18.0,0,4.743
2020,64.64,1.5117,2.2508,0.1797,-0.0001,-0.0000,2.4594,flat,18.0,0,4.190
2030,64.96,1.0791,2.6135,0.1797,-0.0001,-0.0000,2.4248,flat,18.0,0,3.636
2040,65.28,0.6589,2.9913,0.1797,-0.0001,-0.0000,2.3897,flat,18.0,0,3.080
2050,65.60,0.2524,3.3837,0.1797,-0.0001,0.0000,2.3539,flat,18.0,0,2.524
2060,65.92,-0.1386,3.7904,0.1797,-0.0001,0.0000,2.3152,flat,18.0,0,1.970
2070,66.24,-0.5106,4.2112,0.1797,-0.0002,0.0000,2.2696,flat,18.0,0,1.419
2080,66.56,-0.8590,4.6472,0.1797,-0.0002,0.0000,2.2040,flat,18.0,0,0.876
2090,66.88,-1.1556,5.1007,0.1799,-0.0001,-0.0000,2.0607,flat,18.0,1,2.273
2100,67.20,-1.3766,5.5627,0.1799,-0.0001,0.0002,1.9100,rough,14.0,1,1.842
2110,67.52,-1.5119,5.9826,0.1798,-0.0003,-0.0004,1.7857,flat,18.0,1,1.472
2120,67.84,-1.6029,6.5083,0.1799,-0.0001,-0.0000,1.5451,flat,18.0,1,1.041
2130,68.16,-1.5683,7.0050,0.1799,0.0000,0.0001,1.2547,flat,18.0,2,8.275
2140,68.48,-1.4152,7.3828,0.1799,0.0001,0.0000,0.9305,flat,18.0,2,8.317
2150,68.80,-1.1635,7.6541,0.1799,-0.0000,-0.0000,0.6718,rough,14.0,2,8.239
2160,69.12,-0.8447,7.8735,0.1799,0.0001,-0.0001,0.4598,flat,18.0,2,8.092
2170,69.44,-0.3844,8.0664,0.1799,-0.0001,-0.0000,0.1971,flat,18.0,2,7.833
2180,69.76,0.1359,8.1446,0.1799,-0.0001,0.0000,-0.0380,flat,18.0,2,7.478
2190,70.08,0.6733,8.1029,0.1799,-0.0001,-0.0000,-0.2200,flat,18.0,2,7.049
2200,70.40,1.2010,7.9669,0.1799,-0.0002,-0.0000,-0.3508,flat,18.0,2,6.576
2210,70.72,1.7117,7.7634,0.1798,-0.0004,-0.0000,-0.4507,flat,18.0,2,6.076
2220,71.04,2.2033,7.5096,0.1798,-0.0004,-0.0000,-0.5314,flat,18.0,2,5.559
2230,71.36,2.6762,7.2162,0.1797,-0.0003,-0.0000,-0.5983,flat,18.0,2,5.031
2240,71.68,3.1312,6.8914,0.1797,-0.0002,-0.0000,-0.6551,flat,18.0,2,4.496
2250,72.00,3.5687,6.5407,0.1797,-0.0002,-0.0000,-0.7057,flat,18.0,2,3.955
2260,72.32,3.9877,6.1680,0.1797,-0.0002,-0.0000,-0.7554,flat,18.0,2,3.412
2270,72.64,4.3876,5.7744,0.1797,-0.0002,-0.0000,-0.8041,flat,18.0,2,2.868
2280,72.96,4.7667,5.3618,0.1797,-0.0002,0.0000,-0.8551,flat,18.0,2,2.324
2290,73.28,5.1233,4.9305,0.1797,-0.0002,-0.0000,-0.9125,flat,18.0,2,1.782
2300,73.60,5.4541,4.4797,0.1797,-0.0003,0.0000,-0.9849,flat,18.0,2,1.243
2310,73.92,5.7418,4.0109,0.1798,-0.0005,0.0002,-1.0626,flat,18.0,3,3.097
2320,74.24,6.0225,3.5274,0.1798,0.0002,-0.0000,-1.0071,flat,18.0,3,2.560
2330,74.56,6.2746,3.1411,0.1797,0.0001,0.0001,-0.9633,flat,18.0,3,2.117
2340,74.88,6.6008,2.6944,0.1797,0.0002,-0.0000,-0.8996,flat,18.0,3,1.589
2350,75.20,6.9569,2.2748,0.1798,0.0003,0.0000,-0.8154,flat,18.0,3,1.070
2360,75.52,7.2925,1.9504,0.1768,0.0007,-0.0193,-0.7978,flat,18.0,0,9.171
2370,75.84,7.4582,1.7122,0.1779,-0.0125,-0.0003,-1.3115,flat,18.0,0,9.417
2380,76.16,7.5315,1.3483,0.1799,-0.0000,0.0001,-1.8464,flat,18.0,0,9.634
2390,76.48,7.3973,1.0026,0.1799,-0.0000,-0.0001,-2.2326,flat,18.0,0,9.667
2400,76.80,7.0884,0.6951,0.1799,-0.0000,-0.0000,-2.5218,flat,18.0,0,9.544
2410,77.12,6.6674,0.4446,0.1799,-0.0000,-0.0000,-2.7877,flat,18.0,0,9.314
2420,77.44,6.1701,0.2907,0.1799,-0.0001,0.0000,-3.0256,flat,18.0,0,8.987
2430,77.76,5.6330,0.2509,0.1799,-0.0001,-0.0000,3.0568,flat,18.0,0,8.578
2440,78.08,5.0907,0.3150,0.1799,-0.0002,-0.0000,2.9099,flat,18.0,0,8.113
2450,78.40,4.5581,0.4555,0.1798,-0.0004,-0.0000,2.8032,flat,18.0,0,7.615
2460,78.72,4.0394,0.6516,0.1798,-0.0004,-0.0000,2.7202,flat,18.0,0,7.098
2470,79.04,3.5355,0.8901,0.1797,-0.0003,-0.0000,2.6530,flat,18.0,0,6.568
2480,79.36,3.0461,1.1622,0.1797,-0.0002,-0.0000,2.5966,flat,18.0,0,6.029
2490,79.68,2.5707,1.4617,0.1797,-0.0002,-0.0000,2.5481,flat,18.0,0,5.484
2500,80.00,2.1096,1.7843,0.1797,-0.0001,-0.0000,2.5072,flat,18.0,0,4.934
2510,80.32,1.6610,2.1257,0.1797,-0.0001,-0.0000,2.4700,flat,18.0,0,4.382
2520,80.64,1.2247,2.4838,0.1797,-0.0001,-0.0000,2.4352,flat,18.0,0,3.828
2530,80.96,0.8007,2.8571,0.1797,-0.0001,-0.0000,2.4004,flat,18.0,0,3.273
2540,81.28,0.3898,3.2451,0.1797,-0.0001,-0.0000,2.3651,flat,18.0,0,2.717
2550,81.60,-0.0064,3.6475,0.1797,-0.0001,0.0000,2.3280,flat,18.0,0,2.161
2560,81.92,-0.3850,4.0639,0.1797,-0.0001,0.0000,2.2854,flat,18.0,0,1.609
2570,82.24,-0.7417,4.4945,0.1797,-0.0002,0.0000,2.2300,flat,18.0,0,1.063
2580,82.56,-1.0575,4.9402,0.1798,-0.0000,-0.0000,2.1131,flat,18.0,1,2.430
2590,82.88,-1.3159,5.4195,0.1799,-0.0001,-0.0000,1.9488,rough,14.0,1,1.973
2600,83.20,-1.4657,5.8221,0.1798,-0.0003,0.0000,1.8245,rough,14.0,1,1.611
2610,83.52,-1.5785,6.3153,0.1799,-0.0000,-0.0000,1.6437,flat,18.0,1,1.194
2620,83.84,-1.5934,6.8388,0.1799,-0.0000,0.0000,1.3646,flat,18.0,2,8.224
2630,84.16,-1.4815,7.2603,0.1798,0.0001,0.0000,1.0570,flat,18.0,2,8.316
2640,84.48,-1.2531,7.5748,0.1799,0.0000,0.0002,0.7477,rough,14.0,2,8.274
2650,84.80,-0.9737,7.7965,0.1799,-0.0000,-0.0000,0.5352,flat,18.0,2,8.156
2660,85.12,-0.5493,8.0142,0.1799,-0.0000,-0.0000,0.2840,flat,18.0,2,7.934
2670,85.44,-0.0439,8.1344,0.1799,0.0001,-0.0000,0.0329,flat,18.0,2,7.609
2680,85.76,0.4921,8.1306,0.1799,-0.0001,-0.0000,-0.1661,flat,18.0,2,7.201
2690,86.08,1.0245,8.0227,0.1799,-0.0002,-0.0000,-0.3112,flat,18.0,2,6.740
2700,86.40,1.5412,7.8395,0.1798,-0.0004,-0.0000,-0.4198,flat,18.0,2,6.248
2710,86.72,2.0393,7.6011,0.1798,-0.0004,-0.0000,-0.5060,flat,18.0,2,5.736
2720,87.04,2.5184,7.3200,0.1798,-0.0003,-0.0000,-0.5772,flat,18.0,2,5.211
2730,87.36,2.9793,7.0050,0.1797,-0.0002,-0.0000,-0.6369,flat,18.0,2,4.678
2740,87.68,3.4226,6.6624,0.1797,-0.0002,-0.0000,-0.6891,flat,18.0,2,4.139
2750,88.00,3.8480,6.2969,0.1797,-0.0002,-0.0000,-0.7387,flat,18.0,2,3.597
2760,88.32,4.2544,5.9101,0.1797,-0.0002,-0.0000,-0.7878,flat,18.0,2,3.053
2770,88.64,4.6408,5.5037,0.1797,-0.0002,0.0000,-0.8376,flat,18.0,2,2.508
2780,88.96,5.0051,5.0790,0.1797,-0.0002,-0.0000,-0.8918,flat,18.0,2,1.965
2790,89.28,5.3456,4.6348,0.1797,-0.0002,0.0000,-0.9579,flat,18.0,2,1.425
2800,89.60,5.6525,4.1709,0.1798,-0.0004,0.0000,-1.0503,flat,18.0,2,0.894
2810,89.92,5.9269,3.6898,0.1798,0.0001,-0.0000,-1.0211,flat,18.0,3,2.740
2820,90.24,6.1873,3.2787,0.1798,0.0001,0.0002,-0.9769,rough,14.0,3,2.272
2830,90.56,6.4777,2.8664,0.1797,0.0002,-0.0002,-0.9229,flat,18.0,3,1.788
2840,90.88,6.8239,2.4339,0.1797,0.0003,-0.0000,-0.8503,flat,18.0,3,1.262
2850,91.20,7.1993,2.0419,0.1798,0.0003,0.0000,-0.7408,flat,18.0,0,9.050
2860,91.52,7.4080,1.8219,0.1798,0.0005,-0.0003,-1.1286,flat,18.0,0,9.328
2870,91.84,7.5422,1.4953,0.1797,-0.0010,-0.0000,-1.6449,flat,18.0,0,9.582
2880,92.16,7.4906,1.1333,0.1799,-0.0001,-0.0000,-2.0920,flat,18.0,0,9.691
2890,92.48,7.2444,0.8100,0.1799,-0.0000,-0.0000,-2.4095,flat,18.0,0,9.624
2900,92.80,6.8637,0.5315,0.1799,-0.0000,-0.0000,-2.6830,flat,18.0,0,9.435
2910,93.12,6.3927,0.3348,0.1799,-0.0001,-0.0000,-2.9334,flat,18.0,0,9.145
2920,93.44,5.8671,0.2486,0.1799,-0.0001,0.0000,3.1326,flat,18.0,0,8.766
2930,93.76,5.3239,0.2734,0.1799,-0.0001,-0.0000,2.9633,flat,18.0,0,8.320
2940,94.08,4.7865,0.3860,0.1799,-0.0003,-0.0000,2.8433,flat,18.0,0,7.834
2950,94.40,4.2619,0.5613,0.1798,-0.0004,-0.0000,2.7521,flat,18.0,0,7.323
2960,94.72,3.7518,0.7836,0.1798,-0.0003,-0.0000,2.6792,flat,18.0,0,6.798
2970,95.04,3.2564,1.0427,0.1797,-0.0002,-0.0000,2.6190,flat,18.0,0,6.262
2980,95.36,2.7752,1.3314,0.1797,-0.0002,-0.0000,2.5676,flat,18.0,0,5.719
2990,95.68,2.3081,1.6449,0.1797,-0.0002,-0.0000,2.5239,flat,18.0,0,5.171
3000,96.00,1.8543,1.9786,0.1797,-0.0001,-0.0000,2.4856,flat,18.0,0,4.620
3010,96.32,1.4127,2.3298,0.1797,-0.0001,-0.0000,2.4500,flat,18.0,0,4.066
3020,96.64,0.9833,2.6967,0.1797,-0.0001,-0.0000,2.4157,flat,18.0,0,3.511
3030,96.96,0.5664,3.0783,0.1797,-0.0001,-0.0000,2.3806,flat,18.0,0,2.955
3040,97.28,0.1635,3.4745,0.1797,-0.0001,0.0000,2.3448,flat,18.0,0,2.399
3050,97.60,-0.2233,3.8847,0.1797,-0.0001,0.0000,2.3051,flat,18.0,0,1.845
3060,97.92,-0.5902,4.3087,0.1797,-0.0002,0.0000,2.2576,flat,18.0,0,1.296
3070,98.24,-0.9321,4.7487,0.1798,-0.0003,0.0000,2.1831,flat,18.0,1,2.623
3080,98.56,-1.2145,5.2090,0.1799,-0.0001,-0.0000,2.0251,flat,18.0,1,2.170
3090,98.88,-1.4083,5.6444,0.1798,-0.0002,0.0001,1.8849,rough,14.0,1,1.769
3100,99.20,-1.5374,6.0870,0.1798,-0.0002,-0.0003,1.7451,flat,18.0,1,1.384
3110,99.52,-1.6078,6.6154,0.1799,-0.0001,0.0000,1.4887,flat,18.0,1,0.957
3120,99.84,-1.5472,7.0912,0.1799,0.0001,0.0001,1.1932,flat,18.0,2,8.295
3130,100.16,-1.3687,7.4484,0.1799,0.0001,-0.0000,0.8634,flat,18.0,2,8.309
3140,100.48,-1.1078,7.7000,0.1799,-0.0001,-0.0000,0.6284,rough,14.0,2,8.216
3150,100.80,-0.7605,7.9194,0.1799,0.0000,-0.0001,0.4089,flat,18.0,2,8.050
3160,101.12,-0.2829,8.0926,0.1799,-0.0001,-0.0000,0.1462,flat,18.0,2,7.769
3170,101.44,0.2441,8.1454,0.1799,-0.0001,0.0000,-0.0796,flat,18.0,2,7.397
3180,101.76,0.7808,8.0821,0.1799,-0.0001,-0.0000,-0.2500,flat,18.0,2,6.957
3190,102.08,1.3054,7.9306,0.1799,-0.0003,-0.0000,-0.3731,flat,18.0,2,6.477
3200,102.40,1.8123,7.7158,0.1798,-0.0004,-0.0000,-0.4683,flat,18.0,2,5.973
3210,102.72,2.3001,7.4533,0.1798,-0.0003,-0.0000,-0.5460,flat,18.0,2,5.454
3220,103.04,2.7693,7.1529,0.1797,-0.0002,-0.0000,-0.6104,flat,18.0,2,4.924
3230,103.36,3.2207,6.8224,0.1797,-0.0002,-0.0000,-0.6658,flat,18.0,2,4.387
3240,103.68,3.6545,6.4671,0.1797,-0.0002,-0.0000,-0.7158,flat,18.0,2,3.846
3250,104.00,4.0697,6.0900,0.1797,-0.0002,-0.0000,-0.7653,flat,18.0,2,3.303
3260,104.32,4.4657,5.6925,0.1797,-0.0002,0.0000,-0.8141,flat,18.0,2,2.758
3270,104.64,4.8402,5.2762,0.1797,-0.0002,0.0000,-0.8657,flat,18.0,2,2.215
3280,104.96,5.1923,4.8411,0.1797,-0.0002,-0.0000,-0.9254,flat,18.0,2,1.673
3290,105.28,5.5165,4.3863,0.1798,-0.0003,0.0000,-1.0025,flat,18.0,2,1.136
3300,105.60,5.7968,3.9118,0.1798,-0.0003,-0.0001,-1.0549,flat,18.0,3,2.988
3310,105.92,6.0821,3.4325,0.1798,0.0002,-0.0000,-0.9942,flat,18.0,3,2.452
3320,106.24,6.3442,3.0416,0.1798,0.0001,-0.0003,-0.9507,flat,18.0,3,2.000
3330,106.56,6.6784,2.5979,0.1797,0.0002,-0.0000,-0.8826,flat,18.0,3,1.471
3340,106.88,7.0412,2.1872,0.1798,0.0003,0.0000,-0.7912,flat,18.0,3,0.957
3350,107.20,7.3323,1.9117,0.1789,0.0000,-0.0054,-0.9315,flat,18.0,0,9.223
3360,107.52,7.4968,1.6394,0.1787,-0.0073,-0.0001,-1.4131,flat,18.0,0,9.481
3370,107.84,7.5324,1.2682,0.1798,-0.0002,0.0001,-1.9326,flat,18.0,0,9.669
3380,108.16,7.3597,0.9301,0.1799,0.0000,-0.0000,-2.2947,flat,18.0,0,9.668
3390,108.48,7.0246,0.6314,0.1799,-0.0000,-0.0000,-2.5759,flat,18.0,0,9.521
3400,108.80,6.5857,0.3972,0.1799,-0.0001,-0.0000,-2.8372,flat,18.0,0,9.271
3410,109.12,6.0776,0.2654,0.1799,-0.0001,0.0000,-3.0683,flat,18.0,0,8.926
3420,109.44,5.5372,0.2477,0.1799,-0.0001,-0.0000,3.0233,flat,18.0,0,8.504
3430,109.76,4.9961,0.3291,0.1799,-0.0002,-0.0000,2.8864,flat,18.0,0,8.031
3440,110.08,4.4661,0.4819,0.1798,-0.0004,-0.0000,2.7854,flat,18.0,0,7.529
3450,110.40,3.9503,0.6871,0.1798,-0.0004,-0.0000,2.7060,flat,18.0,0,7.009
3460,110.72,3.4492,0.9328,0.1797,-0.0002,-0.0000,2.6413,flat,18.0,0,6.477
3470,111.04,2.9626,1.2106,0.1797,-0.0002,-0.0000,2.5867,flat,18.0,0,5.936
3480,111.36,2.4899,1.5149,0.1797,-0.0002,-0.0000,2.5396,flat,18.0,0,5.390
3490,111.68,2.0313,1.8413,0.1797,-0.0001,-0.0000,2.4999,flat,18.0,0,4.840
3500,112.00,1.5850,2.1860,0.1797,-0.0001,-0.0000,2.4634,flat,18.0,0,4.287
3510,112.32,1.1510,2.5471,0.1797,-0.0001,-0.0000,2.4288,flat,18.0,0,3.733
3520,112.64,0.7292,2.9231,0.1797,-0.0001,-0.0000,2.3940,flat,18.0,0,3.177
3530,112.96,0.3208,3.3138,0.1797,-0.0001,-0.0000,2.3587,flat,18.0,0,2.621
3540,113.28,-0.0726,3.7186,0.1797,-0.0001,0.0000,2.3211,flat,18.0,0,2.066
3550,113.60,-0.4477,4.1375,0.1797,-0.0001,0.0000,2.2772,flat,18.0,0,1.514
3560,113.92,-0.8003,4.5709,0.1797,-0.0002,0.0000,2.2174,flat,18.0,0,0.969
3570,114.24,-1.1074,5.0204,0.1799,-0.0000,-0.0000,2.0898,flat,18.0,1,2.351
3580,114.56,-1.3412,5.4754,0.1799,-0.0001,0.0002,1.9389,rough,14.0,1,1.922
3590,114.88,-1.4859,5.8764,0.1798,-0.0003,0.0000,1.8072,rough,14.0,1,1.565
3600,115.20,-1.5919,6.3815,0.1799,-0.0000,-0.0000,1.6125,flat,18.0,1,1.142
3610,115.52,-1.5912,6.8999,0.1799,0.0001,0.0002,1.3179,flat,18.0,2,8.248
3620,115.84,-1.4638,7.3023,0.1799,0.0001,0.0000,1.0089,flat,18.0,2,8.320
3630,116.16,-1.2213,7.6019,0.1799,0.0000,0.0001,0.7120,rough,14.0,2,8.261
3640,116.48,-0.9268,7.8217,0.1799,0.0001,-0.0004,0.5016,flat,18.0,2,8.131
3650,116.80,-0.4867,8.0290,0.1799,-0.0000,-0.0000,0.2474,flat,18.0,2,7.892
3660,117.12,0.0254,8.1315,0.1799,-0.0002,0.0000,0.0049,flat,18.0,2,7.554
3670,117.44,0.5627,8.1120,0.1799,-0.0001,-0.0000,-0.1887,flat,18.0,2,7.137
3680,117.76,1.0934,7.9923,0.1799,-0.0002,-0.0000,-0.3275,flat,18.0,2,6.670
3690,118.08,1.6078,7.8008,0.1798,-0.0004,-0.0000,-0.4321,flat,18.0,2,6.174
3700,118.40,2.1035,7.5562,0.1798,-0.0004,-0.0000,-0.5158,flat,18.0,2,5.660
3710,118.72,2.5803,7.2704,0.1797,-0.0003,-0.0000,-0.5852,flat,18.0,2,5.134
3720,119.04,3.0390,6.9516,0.1797,-0.0002,-0.0000,-0.6437,flat,18.0,2,4.599
3730,119.36,3.4801,6.6059,0.1797,-0.0002,-0.0000,-0.6952,flat,18.0,2,4.060
3740,119.68,3.9033,6.2378,0.1797,-0.0002,-0.0000,-0.7447,flat,18.0,2,3.517
3750,120.00,4.3074,5.8485,0.1797,-0.0002,-0.0000,-0.7935,flat,18.0,2,2.973
3760,120.32,4.6913,5.4399,0.1797,-0.0002,0.0000,-0.8436,flat,18.0,2,2.428
3770,120.64,5.0530,5.0129,0.1797,-0.0002,-0.0000,-0.8989,flat,18.0,2,1.886
3780,120.96,5.3902,4.5665,0.1797,-0.0002,0.0000,-0.9673,flat,18.0,2,1.346
3790,121.28,5.6917,4.1003,0.1798,-0.0004,0.0000,-1.0662,flat,18.0,2,0.818
3800,121.60,5.9650,3.6182,0.1798,0.0002,-0.0000,-1.0176,flat,18.0,3,2.663
3810,121.92,6.2271,3.2089,0.1798,0.0001,0.0002,-0.9711,rough,14.0,3,2.197
3820,122.24,6.5348,2.7790,0.1797,0.0002,-0.0001,-0.9123,flat,18.0,3,1.691
3830,122.56,6.8856,2.3526,0.1798,0.0003,0.0000,-0.8336,flat,18.0,3,1.169
3840,122.88,7.2485,1.9880,0.1796,0.0003,-0.0006,-0.7378,flat,18.0,0,9.116
3850,123.20,7.4324,1.7721,0.1745,-0.0335,-0.0007,-1.2114,flat,18.0,0,9.369
3860,123.52,7.5370,1.4205,0.1799,0.0000,0.0001,-1.7501,flat,18.0,0,9.608
3870,123.84,7.4439,1.0669,0.1799,-0.0000,-0.0001,-2.1646,flat,18.0,0,9.679
3880,124.16,7.1647,0.7512,0.1799,-0.0000,-0.0000,-2.4658,flat,18.0,0,9.583
3890,124.48,6.7633,0.4857,0.1799,-0.0000,-0.0000,-2.7359,flat,18.0,0,9.373
3900,124.80,6.2784,0.3099,0.1799,-0.0001,-0.0000,-2.9804,flat,18.0,0,9.065
3910,125.12,5.7463,0.2471,0.1799,-0.0001,-0.0000,3.0935,flat,18.0,0,8.670
3920,125.44,5.2032,0.2923,0.1799,-0.0001,-0.0000,2.9355,flat,18.0,0,8.214
3930,125.76,4.6682,0.4194,0.1799,-0.0004,-0.0000,2.8225,flat,18.0,0,7.722
3940,126.08,4.1465,0.6055,0.1798,-0.0004,-0.0000,2.7356,flat,18.0,0,7.208
3950,126.40,3.6396,0.8362,0.1798,-0.0003,-0.0000,2.6656,flat,18.0,0,6.680
3960,126.72,3.1473,1.1021,0.1797,-0.0002,-0.0000,2.6073,flat,18.0,0,6.143
3970,127.04,2.6691,1.3964,0.1797,-0.0002,-0.0000,2.5574,flat,18.0,0,5.599
3980,127.36,2.2051,1.7147,0.1797,-0.0001,-0.0000,2.5152,flat,18.0,0,5.050
3990,127.68,1.7540,2.0525,0.1797,-0.0001,-0.0000,2.4775,flat,18.0,0,4.498
4000,128.00,1.3152,2.4073,0.1797,-0.0001,-0.0000,2.4422,flat,18.0,0,3.945
4010,128.32,0.8887,2.7775,0.1797,-0.0001,-0.0000,2.4077,flat,18.0,0,3.389
4020,128.64,0.4749,3.1625,0.1797,-0.0001,-0.0000,2.3725,flat,18.0,0,2.833
4030,128.96,0.0754,3.5619,0.1797,-0.0001,0.0000,2.3361,flat,18.0,0,2.278
4040,129.28,-0.3071,3.9755,0.1797,-0.0001,0.0000,2.2949,flat,18.0,0,1.724
4050,129.60,-0.6687,4.4028,0.1797,-0.0002,0.0000,2.2439,flat,18.0,0,1.177
4060,129.92,-0.9958,4.8444,0.1798,-0.0001,-0.0000,2.1426,flat,18.0,1,2.526
4070,130.24,-1.2673,5.3158,0.1799,-0.0001,-0.0000,1.9839,flat,18.0,1,2.069
4080,130.56,-1.4373,5.7361,0.1798,-0.0002,0.0001,1.8529,rough,14.0,1,1.686
4090,130.88,-1.5585,6.2047,0.1799,-0.0001,-0.0001,1.6944,flat,18.0,1,1.284
4100,131.20,-1.6011,6.7319,0.1799,-0.0001,0.0000,1.4265,flat,18.0,1,0.863
4110,131.52,-1.5135,7.1823,0.1799,0.0001,0.0001,1.1255,flat,18.0,2,8.307
4120,131.84,-1.3052,7.5213,0.1799,0.0001,-0.0000,0.7975,rough,14.0,2,8.291
4130,132.16,-1.0389,7.7533,0.1798,-0.0001,-0.0000,0.5818,rough,14.0,2,8.187
4140,132.48,-0.6376,7.9807,0.1799,-0.0000,-0.0000,0.3323,flat,18.0,2,7.985
4150,132.80,-0.1420,8.1219,0.1799,-0.0001,-0.0000,0.0783,flat,18.0,2,7.677
4160,133.12,0.3915,8.1401,0.1799,-0.0001,-0.0000,-0.1335,flat,18.0,2,7.282
4170,133.44,0.9260,8.0489,0.1799,-0.0001,-0.0000,-0.2882,flat,18.0,2,6.829
4180,133.76,1.4459,7.8777,0.1799,-0.0004,-0.0000,-0.4019,flat,18.0,2,6.341
4190,134.08,1.9475,7.6483,0.1798,-0.0004,-0.0000,-0.4915,flat,18.0,2,5.832
4200,134.40,2.4300,7.3743,0.1798,-0.0003,-0.0000,-0.5652,flat,18.0,2,5.310
4210,134.72,2.8942,7.0649,0.1797,-0.0002,-0.0000,-0.6266,flat,18.0,2,4.777
4220,135.04,3.3407,6.7270,0.1797,-0.0002,-0.0000,-0.6800,flat,18.0,2,4.239
4230,135.36,3.7696,6.3654,0.1797,-0.0002,-0.0000,-0.7295,flat,18.0,2,3.697
4240,135.68,4.1795,5.9825,0.1797,-0.0002,-0.0000,-0.7788,flat,18.0,2,3.154
4250,136.00,4.5698,5.5797,0.1797,-0.0002,0.0000,-0.8279,flat,18.0,2,2.609
4260,136.32,4.9384,5.1584,0.1797,-0.0002,-0.0000,-0.8808,flat,18.0,2,2.066
4270,136.64,5.2838,4.7179,0.1797,-0.0002,0.0000,-0.9441,flat,18.0,2,1.524
4280,136.96,5.5982,4.2577,0.1798,-0.0003,0.0000,-1.0292,flat,18.0,2,0.991
4290,137.28,5.8729,3.7785,0.1798,-0.0002,-0.0000,-1.0331,flat,18.0,3,2.840
4300,137.60,6.1420,3.3433,0.1798,0.0001,0.0002,-0.9859,rough,14.0,3,2.348
4310,137.92,6.4213,2.9383,0.1797,0.0002,-0.0002,-0.9337,flat,18.0,3,1.876
4320,138.24,6.7628,2.5009,0.1797,0.0002,-0.0000,-0.8639,flat,18.0,3,1.348
4330,138.56,7.1330,2.1009,0.1798,0.0003,0.0000,-0.7629,flat,18.0,3,0.840
4340,138.88,7.3611,1.8664,0.1796,0.0004,-0.0016,-1.0930,flat,18.0,0,9.267
4350,139.20,7.5041,1.5532,0.1795,-0.0021,-0.0001,-1.5955,flat,18.0,0,9.523
4360,139.52,7.4723,1.1869,0.1799,0.0001,-0.0000,-2.0606,flat,18.0,0,9.651
4370,139.84,7.2420,0.8603,0.1799,0.0001,-0.0001,-2.3843,flat,18.0,0,9.597
4380,140.16,6.8712,0.5766,0.1799,0.0000,-0.0000,-2.6587,flat,18.0,0,9.418
4390,140.48,6.4071,0.3706,0.1799,-0.0000,-0.0000,-2.9125,flat,18.0,0,9.137
4400,140.80,5.8849,0.2734,0.1799,-0.0000,-0.0000,-3.1346,flat,18.0,0,8.766
4410,141.12,5.3421,0.2892,0.1799,-0.0001,-0.0000,2.9764,flat,18.0,0,8.325
4420,141.44,4.8039,0.3950,0.1799,-0.0003,-0.0000,2.8527,flat,18.0,0,7.841
4430,141.76,4.2780,0.5654,0.1798,-0.0004,-0.0000,2.7593,flat,18.0,0,7.333
4440,142.08,3.7667,0.7841,0.1798,-0.0003,-0.0000,2.6849,flat,18.0,0,6.808
4450,142.40,3.2701,1.0403,0.1797,-0.0002,-0.0000,2.6235,flat,18.0,0,6.274
4460,142.72,2.7879,1.3268,0.1797,-0.0002,-0.0000,2.5714,flat,18.0,0,5.731
4470,143.04,2.3197,1.6385,0.1797,-0.0002,-0.0000,2.5267,flat,18.0,0,5.184
4480,143.36,1.8651,1.9709,0.1797,-0.0001,-0.0000,2.4880,flat,18.0,0,4.633
4490,143.68,1.4228,2.3210,0.1797,-0.0001,-0.0000,2.4521,flat,18.0,0,4.080
4500,144.00,0.9928,2.6870,0.1797,-0.0001,-0.0000,2.4175,flat,18.0,0,3.525
4510,144.32,0.5753,3.0678,0.1797,-0.0001,-0.0000,2.3822,flat,18.0,0,2.969
4520,144.64,0.1719,3.4634,0.1797,-0.0001,0.0000,2.3462,flat,18.0,0,2.413
4530,144.96,-0.2155,3.8730,0.1797,-0.0001,0.0000,2.3063,flat,18.0,0,1.859
4540,145.28,-0.5828,4.2967,0.1797,-0.0002,0.0000,2.2588,flat,18.0,0,1.310
4550,145.60,-0.9253,4.7363,0.1798,-0.0003,0.0000,2.1849,flat,18.0,1,2.635
4560,145.92,-1.2087,5.1961,0.1799,-0.0001,-0.0000,2.0274,flat,18.0,1,2.182
4570,146.24,-1.4072,5.6426,0.1798,-0.0002,0.0002,1.8844,rough,14.0,1,1.770
4580,146.56,-1.5361,6.0854,0.1798,-0.0002,-0.0003,1.7450,flat,18.0,1,1.385
4590,146.88,-1.6066,6.6139,0.1799,-0.0001,0.0000,1.4894,flat,18.0,1,0.957
4600,147.20,-1.5463,7.0900,0.1799,0.0001,0.0001,1.1942,flat,18.0,2,8.293
4610,147.52,-1.3683,7.4474,0.1799,0.0001,-0.0000,0.8643,flat,18.0,2,8.308
4620,147.84,-1.1078,7.6992,0.1799,-0.0001,-0.0000,0.6294,rough,14.0,2,8.216
4630,148.16,-0.7607,7.9188,0.1799,0.0000,-0.0001,0.4096,flat,18.0,2,8.049
4640,148.48,-0.2834,8.0923,0.1799,-0.0001,-0.0000,0.1469,flat,18.0,2,7.770
4650,148.80,0.2436,8.1454,0.1799,-0.0001,0.0000,-0.0790,flat,18.0,2,7.397
4660,149.12,0.7803,8.0824,0.1799,-0.0001,-0.0000,-0.2496,flat,18.0,2,6.957
4670,149.44,1.3049,7.9311,0.1799,-0.0003,-0.0000,-0.3728,flat,18.0,2,6.477
4680,149.76,1.8118,7.7164,0.1798,-0.0004,-0.0000,-0.4682,flat,18.0,2,5.974
4690,150.08,2.2997,7.4539,0.1798,-0.0003,-0.0000,-0.5459,flat,18.0,2,5.454
4700,150.40,2.7689,7.1536,0.1797,-0.0002,-0.0000,-0.6103,flat,18.0,2,4.925
4710,150.72,3.2203,6.8232,0.1797,-0.0002,-0.0000,-0.6656,flat,18.0,2,4.388
4720,151.04,3.6542,6.4679,0.1797,-0.0002,-0.0000,-0.7157,flat,18.0,2,3.847
4730,151.36,4.0695,6.0909,0.1797,-0.0002,-0.0000,-0.7653,flat,18.0,2,3.304
4740,151.68,4.4654,5.6934,0.1797,-0.0002,0.0000,-0.8141,flat,18.0,2,2.759
4750,152.00,4.8400,5.2771,0.1797,-0.0002,0.0000,-0.8657,flat,18.0,2,2.215
4760,152.32,5.1920,4.8418,0.1797,-0.0002,-0.0000,-0.9256,flat,18.0,2,1.673
4770,152.64,5.5162,4.3870,0.1798,-0.0003,0.0000,-1.0026,flat,18.0,2,1.137
4780,152.96,5.7965,3.9125,0.1798,-0.0003,-0.0001,-1.0550,flat,18.0,3,2.989
4790,153.28,6.0818,3.4331,0.1798,0.0002,-0.0000,-0.9942,rough,14.0,3,2.453
4800,153.60,6.3363,3.0520,0.1798,0.0001,-0.0003,-0.9528,flat,18.0,3,2.013
4810,153.92,6.6696,2.6076,0.1797,0.0002,-0.0000,-0.8845,flat,18.0,3,1.484
4820,154.24,7.0317,2.1959,0.1798,0.0003,0.0000,-0.7939,flat,18.0,3,0.969
4830,154.56,7.3221,1.9192,0.1789,0.0000,-0.0053,-0.9343,flat,18.0,0,9.211
4840,154.88,7.4857,1.6466,0.1787,-0.0073,-0.0001,-1.4150,flat,18.0,0,9.468
4850,155.20,7.5207,1.2756,0.1798,-0.0002,0.0001,-1.9338,flat,18.0,0,9.655
4860,155.52,7.3474,0.9375,0.1799,0.0000,-0.0000,-2.2955,flat,18.0,0,9.653
4870,155.84,7.0119,0.6389,0.1799,-0.0000,-0.0000,-2.5766,flat,18.0,0,9.506
4880,156.16,6.5728,0.4049,0.1799,-0.0001,-0.0000,-2.8379,flat,18.0,0,9.256
4890,156.48,6.0646,0.2735,0.1799,-0.0001,0.0000,-3.0689,flat,18.0,0,8.911
4900,156.80,5.5242,0.2561,0.1799,-0.0001,-0.0000,3.0228,flat,18.0,0,8.488
4910,157.12,4.9831,0.3377,0.1799,-0.0002,-0.0000,2.8860,flat,18.0,0,8.015
4920,157.44,4.4532,0.4907,0.1798,-0.0004,-0.0000,2.7850,flat,18.0,0,7.513
4930,157.76,3.9374,0.6961,0.1798,-0.0004,-0.0000,2.7057,flat,18.0,0,6.993
4940,158.08,3.4364,0.9420,0.1797,-0.0002,-0.0000,2.6409,flat,18.0,0,6.461
4950,158.40,2.9499,1.2200,0.1797,-0.0002,-0.0000,2.5864,flat,18.0,0,5.921
4960,158.72,2.4773,1.5244,0.1797,-0.0002,-0.0000,2.5392,flat,18.0,0,5.374
4970,159.04,2.0189,1.8510,0.1797,-0.0001,-0.0000,2.4996,flat,18.0,0,4.824
4980,159.36,1.5727,2.1959,0.1797,-0.0001,-0.0000,2.4630,flat,18.0,0,4.272
4990,159.68,1.1389,2.5571,0.1797,-0.0001,-0.0000,2.4283,flat,18.0,0,3.717
5000,160.00,0.7173,2.9334,0.1797,-0.0001,-0.0000,2.3934,flat,18.0,0,3.162
5010,160.32,0.3093,3.3243,0.1797,-0.0001,0.0000,2.3579,flat,18.0,0,2.606
5020,160.64,-0.0837,3.7295,0.1797,-0.0001,0.0000,2.3201,flat,18.0,0,2.051
5030,160.96,-0.4582,4.1487,0.1797,-0.0002,0.0000,2.2759,flat,18.0,0,1.499
5040,161.28,-0.8101,4.5825,0.1797,-0.0002,0.0000,2.2151,flat,18.0,0,0.954
5050,161.60,-1.1146,5.0326,0.1799,-0.0001,-0.0000,2.0813,flat,18.0,1,2.339
5060,161.92,-1.3495,5.5008,0.1799,-0.0001,0.0003,1.9270,rough,14.0,1,1.898
5070,162.24,-1.4899,5.9037,0.1798,-0.0003,0.0000,1.7966,flat,18.0,1,1.540
5080,162.56,-1.5923,6.4212,0.1799,-0.0000,-0.0000,1.5918,flat,18.0,1,1.108
5090,162.88,-1.5806,6.9331,0.1799,-0.0001,0.0001,1.3026,flat,18.0,2,8.254
5100,163.20,-1.4457,7.3307,0.1799,0.0001,0.0000,0.9901,flat,18.0,2,8.318
5110,163.52,-1.2026,7.6213,0.1799,0.0000,0.0001,0.7048,rough,14.0,2,8.255
5120,163.84,-0.9001,7.8431,0.1799,0.0000,-0.0002,0.4936,flat,18.0,2,8.121
5130,164.16,-0.4526,8.0478,0.1799,-0.0000,-0.0000,0.2316,flat,18.0,2,7.876
5140,164.48,0.0624,8.1433,0.1799,0.0000,-0.0001,-0.0115,flat,18.0,2,7.533
5150,164.80,0.5994,8.1164,0.1799,-0.0001,-0.0000,-0.1990,flat,18.0,2,7.112
5160,165.12,1.1291,7.9913,0.1799,-0.0002,-0.0000,-0.3353,flat,18.0,2,6.644
5170,165.44,1.6423,7.7958,0.1798,-0.0004,-0.0000,-0.4385,flat,18.0,2,6.147
5180,165.76,2.1365,7.5481,0.1798,-0.0004,-0.0000,-0.5213,flat,18.0,2,5.632
5190,166.08,2.6119,7.2596,0.1797,-0.0003,-0.0000,-0.5899,flat,18.0,2,5.105
5200,166.40,3.0693,6.9386,0.1797,-0.0002,-0.0000,-0.6479,flat,18.0,2,4.571
5210,166.72,3.5091,6.5911,0.1797,-0.0002,-0.0000,-0.6990,flat,18.0,2,4.031
5220,167.04,3.9307,6.2213,0.1797,-0.0002,-0.0000,-0.7487,flat,18.0,2,3.488
5230,167.36,4.3333,5.8304,0.1797,-0.0002,-0.0000,-0.7975,flat,18.0,2,2.944
5240,167.68,4.7153,5.4203,0.1797,-0.0002,0.0000,-0.8479,flat,18.0,2,2.400
5250,168.00,5.0751,4.9916,0.1797,-0.0002,-0.0000,-0.9040,flat,18.0,2,1.857
5260,168.32,5.4100,4.5435,0.1797,-0.0002,0.0000,-0.9735,flat,18.0,2,1.318
5270,168.64,5.7082,4.0757,0.1798,-0.0004,0.0000,-1.0755,flat,18.0,3,3.167
5280,168.96,5.9850,3.5941,0.1798,0.0002,-0.0000,-1.0102,flat,18.0,3,2.632
5290,169.28,6.2356,3.2066,0.1797,0.0001,0.0001,-0.9683,rough,14.0,3,2.188
5300,169.60,6.5447,2.7773,0.1797,0.0002,-0.0001,-0.9103,flat,18.0,3,1.682
5310,169.92,6.8963,2.3513,0.1798,0.0003,0.0000,-0.8326,flat,18.0,3,1.158
5320,170.24,7.2597,1.9868,0.1796,0.0003,-0.0005,-0.7373,flat,18.0,0,9.127
5330,170.56,7.4438,1.7710,0.1745,-0.0335,-0.0007,-1.2109,flat,18.0,0,9.380
5340,170.88,7.5486,1.4195,0.1799,0.0000,0.0001,-1.7494,flat,18.0,0,9.619
5350,171.20,7.4557,1.0658,0.1799,-0.0000,-0.0001,-2.1640,flat,18.0,0,9.690
5360,171.52,7.1768,0.7499,0.1799,-0.0000,-0.0000,-2.4653,flat,18.0,0,9.594
5370,171.84,6.7755,0.4842,0.1799,-0.0000,-0.0000,-2.7353,flat,18.0,0,9.384
5380,172.16,6.2907,0.3082,0.1799,-0.0001,-0.0000,-2.9797,flat,18.0,0,9.076
5390,172.48,5.7587,0.2451,0.1799,-0.0001,-0.0000,3.0942,flat,18.0,0,8.681
5400,172.80,5.2154,0.2898,0.1799,-0.0001,-0.0000,2.9362,flat,18.0,0,8.225
5410,173.12,4.6803,0.4166,0.1799,-0.0004,-0.0000,2.8232,flat,18.0,0,7.733
5420,173.44,4.1586,0.6023,0.1798,-0.0004,-0.0000,2.7362,flat,18.0,0,7.219
5430,173.76,3.6514,0.8327,0.1798,-0.0003,-0.0000,2.6663,flat,18.0,0,6.691
5440,174.08,3.1589,1.0982,0.1797,-0.0002,-0.0000,2.6081,flat,18.0,0,6.154
5450,174.40,2.6805,1.3922,0.1797,-0.0002,-0.0000,2.5582,flat,18.0,0,5.610
5460,174.72,2.2163,1.7101,0.1797,-0.0001,-0.0000,2.5160,flat,18.0,0,5.061
5470,175.04,1.7649,2.0475,0.1797,-0.0001,-0.0000,2.4784,flat,18.0,0,4.509
5480,175.36,1.3257,2.4019,0.1797,-0.0001,-0.0000,2.4432,flat,18.0,0,3.955
5490,175.68,0.8988,2.7717,0.1797,-0.0001,-0.0000,2.4087,flat,18.0,0,3.400
5500,176.00,0.4846,3.1563,0.1797,-0.0001,-0.0000,2.3736,flat,18.0,0,2.844
5510,176.32,0.0846,3.5553,0.1797,-0.0001,0.0000,2.3374,flat,18.0,0,2.288
5520,176.64,-0.2985,3.9683,0.1797,-0.0001,0.0000,2.2963,flat,18.0,0,1.735
5530,176.96,-0.6609,4.3952,0.1797,-0.0002,0.0000,2.2459,flat,18.0,0,1.187
5540,177.28,-0.9909,4.8361,0.1798,-0.0003,-0.0000,2.1477,flat,18.0,1,2.534
5550,177.60,-1.2643,5.3059,0.1799,-0.0001,-0.0000,1.9915,flat,18.0,1,2.079
5560,177.92,-1.4371,5.7246,0.1798,-0.0003,0.0001,1.8585,rough,14.0,1,1.698
5570,178.24,-1.5607,6.1924,0.1799,-0.0001,-0.0001,1.6994,flat,18.0,1,1.296
5580,178.56,-1.6060,6.7196,0.1799,-0.0000,0.0000,1.4318,flat,18.0,1,0.876
5590,178.88,-1.5210,7.1712,0.1799,0.0001,0.0001,1.1305,flat,18.0,2,8.308
5600,179.20,-1.3149,7.5108,0.1799,0.0001,-0.0000,0.8014,rough,14.0,2,8.294
5610,179.52,-1.0498,7.7435,0.1798,-0.0001,-0.0000,0.5861,rough,14.0,2,8.191
5620,179.84,-0.6710,7.9625,0.1799,-0.0000,-0.0001,0.3542,flat,18.0,2,8.002
5630,180.16,-0.1803,8.1132,0.1799,-0.0001,-0.0000,0.0975,flat,18.0,2,7.702
5640,180.48,0.3518,8.1413,0.1799,-0.0001,-0.0000,-0.1185,flat,18.0,2,7.313
5650,180.80,0.8870,8.0579,0.1799,-0.0001,-0.0000,-0.2776,flat,18.0,2,6.863
5660,181.12,1.4083,7.8921,0.1799,-0.0003,-0.0000,-0.3939,flat,18.0,2,6.377
5670,181.44,1.9114,7.6667,0.1798,-0.0004,-0.0000,-0.4851,flat,18.0,2,5.870
5680,181.76,2.3954,7.3959,0.1798,-0.0003,-0.0000,-0.5599,flat,18.0,2,5.348
5690,182.08,2.8610,7.0890,0.1797,-0.0002,-0.0000,-0.6221,flat,18.0,2,4.817
5700,182.40,3.3088,6.7532,0.1797,-0.0002,-0.0000,-0.6760,flat,18.0,2,4.279
5710,182.72,3.7391,6.3933,0.1797,-0.0002,-0.0000,-0.7257,flat,18.0,2,3.737
5720,183.04,4.1505,6.0121,0.1797,-0.0002,-0.0000,-0.7751,flat,18.0,2,3.194
5730,183.36,4.5424,5.6107,0.1797,-0.0002,0.0000,-0.8242,flat,18.0,2,2.649
5740,183.68,4.9125,5.1907,0.1797,-0.0002,-0.0000,-0.8768,flat,18.0,2,2.106
5750,184.00,5.2598,4.7515,0.1797,-0.0002,-0.0000,-0.9391,flat,18.0,2,1.564
5760,184.32,5.5768,4.2927,0.1798,-0.0003,0.0000,-1.0219,flat,18.0,2,1.030
5770,184.64,5.8514,3.8144,0.1798,-0.0002,-0.0000,-1.0421,flat,18.0,3,2.881
5780,184.96,6.1302,3.3564,0.1798,0.0001,0.0004,-0.9891,rough,14.0,3,2.366
5790,185.28,6.4008,2.9605,0.1797,0.0001,-0.0002,-0.9389,flat,18.0,3,1.906
5800,185.60,6.7400,2.5213,0.1797,0.0002,-0.0000,-0.8691,flat,18.0,3,1.378
5810,185.92,7.1082,2.1188,0.1798,0.0003,0.0000,-0.7696,flat,18.0,3,0.869
5820,186.24,7.3572,1.8733,0.1794,0.0005,-0.0035,-1.0445,flat,18.0,0,9.261
5830,186.56,7.5105,1.5743,0.1792,-0.0035,-0.0001,-1.5296,flat,18.0,0,9.520
5840,186.88,7.5021,1.2042,0.1799,-0.0001,0.0001,-2.0162,flat,18.0,0,9.670
5850,187.20,7.2913,0.8737,0.1799,-0.0000,-0.0000,-2.3544,flat,18.0,0,9.634
5860,187.52,6.9320,0.5848,0.1799,-0.0000,-0.0000,-2.6307,flat,18.0,0,9.465
5870,187.84,6.4761,0.3690,0.1799,-0.0001,-0.0000,-2.8868,flat,18.0,0,9.195
5880,188.16,5.9583,0.2603,0.1799,-0.0001,0.0000,-3.1110,flat,18.0,0,8.833
5890,188.48,5.4160,0.2647,0.1799,-0.0001,-0.0000,2.9915,flat,18.0,0,8.398
5900,188.80,4.8767,0.3626,0.1799,-0.0003,-0.0000,2.8636,flat,18.0,0,7.918
5910,189.12,4.3495,0.5274,0.1798,-0.0004,-0.0000,2.7677,flat,18.0,0,7.411
5920,189.44,3.8367,0.7417,0.1798,-0.0003,-0.0000,2.6918,flat,18.0,0,6.888
5930,189.76,3.3386,0.9945,0.1797,-0.0002,-0.0000,2.6293,flat,18.0,0,6.354
5940,190.08,2.8549,1.2782,0.1797,-0.0002,-0.0000,2.5764,flat,18.0,0,5.813
5950,190.40,2.3852,1.5875,0.1797,-0.0002,-0.0000,2.5310,flat,18.0,0,5.265
5960,190.72,1.9293,1.9179,0.1797,-0.0001,-0.0000,2.4920,flat,18.0,0,4.715
5970,191.04,1.4856,2.2662,0.1797,-0.0001,-0.0000,2.4559,flat,18.0,0,4.162
5980,191.36,1.0543,2.6306,0.1797,-0.0001,-0.0000,2.4214,flat,18.0,0,3.607
5990,191.68,0.6352,3.0097,0.1797,-0.0001,-0.0000,2.3863,flat,18.0,0,3.051
6000,192.00,0.2300,3.4036,0.1797,-0.0001,0.0000,2.3507,flat,18.0,0,2.495
6010,192.32,-0.1596,3.8115,0.1797,-0.0001,0.0000,2.3118,flat,18.0,0,1.941
6020,192.64,-0.5299,4.2335,0.1797,-0.0002,0.0000,2.2660,flat,18.0,0,1.390
6030,192.96,-0.8766,4.6707,0.1797,-0.0002,0.0000,2.1985,flat,18.0,0,0.848
6040,193.28,-1.1687,5.1261,0.1799,-0.0001,-0.0000,2.0491,flat,18.0,1,2.249
6050,193.60,-1.3806,5.5796,0.1798,-0.0002,0.0002,1.9037,rough,14.0,1,1.826
6060,193.92,-1.5133,6.0004,0.1798,-0.0003,-0.0004,1.7792,flat,18.0,1,1.456
6070,194.24,-1.6009,6.5263,0.1799,-0.0001,-0.0000,1.5373,flat,18.0,1,1.025
6080,194.56,-1.5624,7.0213,0.1799,0.0000,0.0001,1.2450,flat,18.0,2,8.277
6090,194.88,-1.4052,7.3965,0.1799,0.0001,0.0000,0.9211,flat,18.0,2,8.315
6100,195.20,-1.1420,7.6727,0.1799,-0.0000,0.0000,0.6539,rough,14.0,2,8.231
6110,195.52,-0.8104,7.8929,0.1799,0.0000,-0.0001,0.4389,flat,18.0,2,8.075
6120,195.84,-0.3420,8.0780,0.1799,-0.0000,-0.0000,0.1742,flat,18.0,2,7.807
6130,196.16,0.1816,8.1453,0.1799,-0.0000,-0.0000,-0.0586,flat,18.0,2,7.444
6140,196.48,0.7186,8.0936,0.1799,-0.0001,-0.0000,-0.2334,flat,18.0,2,7.010
6150,196.80,1.2450,7.9507,0.1799,-0.0003,-0.0000,-0.3607,flat,18.0,2,6.533
6160,197.12,1.7540,7.7422,0.1798,-0.0004,-0.0000,-0.4584,flat,18.0,2,6.032
6170,197.44,2.2440,7.4845,0.1798,-0.0004,-0.0000,-0.5377,flat,18.0,2,5.514
6180,197.76,2.7154,7.1881,0.1797,-0.0002,-0.0000,-0.6035,flat,18.0,2,4.985
6190,198.08,3.1688,6.8609,0.1797,-0.0002,-0.0000,-0.6596,flat,18.0,2,4.449
6200,198.40,3.6048,6.5082,0.1797,-0.0002,-0.0000,-0.7099,flat,18.0,2,3.908
6210,198.72,4.0223,6.1337,0.1797,-0.0002,-0.0000,-0.7595,flat,18.0,2,3.365
6220,199.04,4.4205,5.7385,0.1797,-0.0002,-0.0000,-0.8082,flat,18.0,2,2.821
6230,199.36,4.7978,5.3243,0.1797,-0.0002,0.0000,-0.8594,flat,18.0,2,2.277
6240,199.68,5.1526,4.8914,0.1797,-0.0002,-0.0000,-0.9177,flat,18.0,2,1.734
6250,200.00,5.4807,4.4390,0.1798,-0.0003,0.0000,-0.9920,flat,18.0,2,1.197
6260,200.32,5.7656,3.9673,0.1798,-0.0004,-0.0001,-1.0588,flat,18.0,3,3.049
6270,200.64,6.0438,3.4944,0.1798,0.0001,0.0004,-1.0050,rough,14.0,3,2.522
6280,200.96,6.2821,3.1317,0.1797,0.0001,0.0000,-0.9620,flat,18.0,3,2.105
6290,201.28,6.6091,2.6856,0.1797,0.0002,-0.0001,-0.8981,flat,18.0,3,1.577
6300,201.60,6.9658,2.2668,0.1798,0.0003,0.0000,-0.8134,flat,18.0,3,1.058
6310,201.92,7.3020,1.9434,0.1768,0.0007,-0.0194,-0.7951,flat,18.0,0,9.183
6320,202.24,7.4684,1.7056,0.1779,-0.0125,-0.0003,-1.3097,flat,18.0,0,9.429
6330,202.56,7.5423,1.3417,0.1799,-0.0000,0.0001,-1.8454,flat,18.0,0,9.646
6340,202.88,7.4085,0.9959,0.1799,-0.0000,-0.0001,-2.2318,flat,18.0,0,9.680
6350,203.20,7.0999,0.6883,0.1799,-0.0000,-0.0000,-2.5212,flat,18.0,0,9.557
6360,203.52,6.6791,0.4376,0.1799,-0.0000,-0.0000,-2.7871,flat,18.0,0,9.328
6370,203.84,6.1819,0.2835,0.1799,-0.0001,0.0000,-3.0250,flat,18.0,0,9.001
6380,204.16,5.6449,0.2435,0.1799,-0.0001,-0.0000,3.0572,flat,18.0,0,8.592
6390,204.48,5.1025,0.3073,0.1799,-0.0002,-0.0000,2.9102,flat,18.0,0,8.127
6400,204.80,4.5699,0.4476,0.1798,-0.0004,-0.0000,2.8035,flat,18.0,0,7.629
6410,205.12,4.0512,0.6436,0.1798,-0.0004,-0.0000,2.7206,flat,18.0,0,7.112
6420,205.44,3.5471,0.8819,0.1797,-0.0003,-0.0000,2.6533,flat,18.0,0,6.582
6430,205.76,3.0576,1.1538,0.1797,-0.0002,-0.0000,2.5969,flat,18.0,0,6.043
6440,206.08,2.5822,1.4532,0.1797,-0.0002,-0.0000,2.5485,flat,18.0,0,5.498
6450,206.40,2.1209,1.7756,0.1797,-0.0001,-0.0000,2.5076,flat,18.0,0,4.949
6460,206.72,1.6722,2.1168,0.1797,-0.0001,-0.0000,2.4705,flat,18.0,0,4.396
6470,207.04,1.2357,2.4747,0.1797,-0.0001,-0.0000,2.4357,flat,18.0,0,3.842
6480,207.36,0.8115,2.8478,0.1797,-0.0001,-0.0000,2.4011,flat,18.0,0,3.287
6490,207.68,0.4003,3.2356,0.1797,-0.0001,-0.0000,2.3658,flat,18.0,0,2.731
6500,208.00,0.0037,3.6376,0.1797,-0.0001,0.0000,2.3289,flat,18.0,0,2.175
6510,208.32,-0.3753,4.0538,0.1797,-0.0001,0.0000,2.2865,flat,18.0,0,1.622
6520,208.64,-0.7326,4.4840,0.1797,-0.0002,0.0000,2.2318,flat,18.0,0,1.076
6530,208.96,-1.0510,4.9293,0.1798,-0.0001,-0.0000,2.1202,flat,18.0,1,2.441
6540,209.28,-1.3078,5.3982,0.1799,-0.0001,0.0006,1.9617,rough,14.0,1,1.993
6550,209.60,-1.4615,5.7962,0.1798,-0.0003,0.0000,1.8345,rough,14.0,1,1.635
6560,209.92,-1.5766,6.2769,0.1799,-0.0000,-0.0000,1.6631,flat,18.0,1,1.227
6570,210.24,-1.6018,6.8017,0.1799,-0.0000,0.0000,1.3860,flat,18.0,1,0.814
6580,210.56,-1.4980,7.2317,0.1799,0.0001,0.0000,1.0740,flat,18.0,2,8.317
6590,210.88,-1.2706,7.5549,0.1799,0.0001,0.0003,0.7524,rough,14.0,2,8.279
6600,211.20,-0.9930,7.7783,0.1799,-0.0000,-0.0000,0.5416,rough,14.0,2,8.163
6610,211.52,-0.5919,7.9894,0.1799,-0.0000,-0.0000,0.3075,flat,18.0,2,7.953
6620,211.84,-0.0911,8.1201,0.1799,-0.0000,-0.0000,0.0547,flat,18.0,2,7.637
6630,212.16,0.4436,8.1269,0.1799,-0.0001,-0.0000,-0.1510,flat,18.0,2,7.235
6640,212.48,0.9771,8.0270,0.1799,-0.0001,-0.0000,-0.2999,flat,18.0,2,6.777
6650,212.80,1.4955,7.8497,0.1798,-0.0004,-0.0000,-0.4108,flat,18.0,2,6.287
6660,213.12,1.9955,7.6158,0.1798,-0.0004,-0.0000,-0.4985,flat,18.0,2,5.776
6670,213.44,2.4764,7.3384,0.1798,-0.0003,-0.0000,-0.5709,flat,18.0,2,5.252
6680,213.76,2.9390,7.0263,0.1797,-0.0002,-0.0000,-0.6315,flat,18.0,2,4.720
6690,214.08,3.3840,6.6862,0.1797,-0.0002,-0.0000,-0.6843,flat,18.0,2,4.181
6700,214.40,3.8113,6.3227,0.1797,-0.0002,-0.0000,-0.7338,flat,18.0,2,3.639
6710,214.72,4.2196,5.9381,0.1797,-0.0002,-0.0000,-0.7829,flat,18.0,2,3.095
6720,215.04,4.6082,5.5336,0.1797,-0.0002,0.0000,-0.8323,flat,18.0,2,2.550
6730,215.36,4.9748,5.1107,0.1797,-0.0002,-0.0000,-0.8859,flat,18.0,2,2.007
6740,215.68,5.3179,4.6685,0.1797,-0.0002,0.0000,-0.9506,flat,18.0,2,1.466
6750,216.00,5.6286,4.2066,0.1798,-0.0003,0.0000,-1.0397,flat,18.0,2,0.934
6760,216.32,5.9026,3.7264,0.1798,-0.0000,-0.0000,-1.0270,flat,18.0,3,2.783
6770,216.64,6.1674,3.3034,0.1798,0.0001,0.0002,-0.9811,rough,14.0,3,2.303
6780,216.96,6.4560,2.8899,0.1797,0.0002,-0.0001,-0.9270,flat,18.0,3,1.820
6790,217.28,6.8004,2.4557,0.1797,0.0003,-0.0000,-0.8550,flat,18.0,3,1.293
6800,217.60,7.1740,2.0611,0.1798,0.0003,0.0000,-0.7481,flat,18.0,0,9.020
6810,217.92,7.3810,1.8390,0.1798,0.0005,-0.0002,-1.1340,flat,18.0,0,9.296
6820,218.24,7.5136,1.5126,0.1797,-0.0010,-0.0000,-1.6483,flat,18.0,0,9.549
6830,218.56,7.4606,1.1507,0.1799,-0.0001,-0.0000,-2.0942,flat,18.0,0,9.656
6840,218.88,7.2134,0.8275,0.1799,-0.0000,-0.0000,-2.4112,flat,18.0,0,9.588
6850,219.20,6.8320,0.5494,0.1799,-0.0000,-0.0000,-2.6846,flat,18.0,0,9.398
6860,219.52,6.3606,0.3533,0.1799,-0.0001,-0.0000,-2.9349,flat,18.0,0,9.108
6870,219.84,5.8348,0.2678,0.1799,-0.0001,0.0000,3.1312,flat,18.0,0,8.729
6880,220.16,5.2916,0.2934,0.1799,-0.0001,-0.0000,2.9622,flat,18.0,0,8.282
6890,220.48,4.7543,0.4066,0.1799,-0.0003,-0.0000,2.8423,flat,18.0,0,7.796
6900,220.80,4.2299,0.5823,0.1798,-0.0004,-0.0000,2.7512,flat,18.0,0,7.286
6910,221.12,3.7200,0.8051,0.1798,-0.0003,-0.0000,2.6783,flat,18.0,0,6.760
6920,221.44,3.2249,1.0646,0.1797,-0.0002,-0.0000,2.6180,flat,18.0,0,6.224
6930,221.76,2.7440,1.3538,0.1797,-0.0002,-0.0000,2.5667,flat,18.0,0,5.681
6940,222.08,2.2772,1.6677,0.1797,-0.0002,-0.0000,2.5228,flat,18.0,0,5.133
6950,222.40,1.8238,2.0020,0.1797,-0.0001,-0.0000,2.4844,flat,18.0,0,4.582
6960,222.72,1.3827,2.3537,0.1797,-0.0001,-0.0000,2.4487,flat,18.0,0,4.029
6970,223.04,0.9539,2.7212,0.1797,-0.0001,-0.0000,2.4141,flat,18.0,0,3.474
6980,223.36,0.5377,3.1035,0.1797,-0.0001,-0.0000,2.3788,flat,18.0,0,2.918
6990,223.68,0.1357,3.5004,0.1797,-0.0001,0.0000,2.3426,flat,18.0,0,2.362
7000,224.00,-0.2500,3.9114,0.1797,-0.0001,0.0000,2.3022,flat,18.0,0,1.808
7010,224.32,-0.6152,4.3363,0.1797,-0.0002,0.0000,2.2537,flat,18.0,0,1.260
7020,224.64,-0.9521,4.7749,0.1798,-0.0002,0.0002,2.1631,flat,18.0,1,2.596
7030,224.96,-1.2316,5.2404,0.1799,-0.0001,-0.0000,2.0118,flat,18.0,1,2.140
7040,225.28,-1.4199,5.6786,0.1798,-0.0002,0.0001,1.8727,rough,14.0,1,1.738
7050,225.60,-1.5469,6.1339,0.1798,-0.0002,-0.0002,1.7241,flat,18.0,1,1.344
7060,225.92,-1.6060,6.6622,0.1799,-0.0001,0.0000,1.4633,flat,18.0,1,0.919
7070,226.24,-1.5344,7.1271,0.1799,0.0002,0.0000,1.1651,flat,18.0,2,8.300
7080,226.56,-1.3439,7.4756,0.1799,0.0001,-0.0000,0.8349,rough,14.0,2,8.301
7090,226.88,-1.0904,7.7125,0.1798,-0.0001,-0.0000,0.6210,rough,14.0,2,8.208
7100,227.20,-0.7411,7.9299,0.1799,0.0000,-0.0001,0.4021,flat,18.0,2,8.040
7110,227.52,-0.2620,8.1004,0.1799,-0.0001,-0.0000,0.1399,flat,18.0,2,7.758
7120,227.84,0.2657,8.1499,0.1799,-0.0001,0.0000,-0.0850,flat,18.0,2,7.383
7130,228.16,0.8021,8.0838,0.1799,-0.0001,-0.0000,-0.2542,flat,18.0,2,6.942
7140,228.48,1.3261,7.9301,0.1799,-0.0003,-0.0000,-0.3765,flat,18.0,2,6.462
7150,228.80,1.8323,7.7136,0.1798,-0.0004,-0.0000,-0.4714,flat,18.0,2,5.958
7160,229.12,2.3193,7.4495,0.1798,-0.0003,-0.0000,-0.5487,flat,18.0,2,5.438
7170,229.44,2.7878,7.1479,0.1797,-0.0002,-0.0000,-0.6128,flat,18.0,2,4.908
7180,229.76,3.2385,6.8163,0.1797,-0.0002,-0.0000,-0.6678,flat,18.0,2,4.371
7190,230.08,3.6716,6.4600,0.1797,-0.0002,-0.0000,-0.7179,flat,18.0,2,3.830
7200,230.40,4.0859,6.0821,0.1797,-0.0002,-0.0000,-0.7676,flat,18.0,2,3.287
7210,230.72,4.4808,5.6837,0.1797,-0.0002,0.0000,-0.8166,flat,18.0,2,2.743
7220,231.04,4.8543,5.2664,0.1797,-0.0002,0.0000,-0.8685,flat,18.0,2,2.200
7230,231.36,5.2051,4.8302,0.1797,-0.0002,-0.0000,-0.9290,flat,18.0,2,1.658
7240,231.68,5.5275,4.3743,0.1798,-0.0003,0.0000,-1.0071,flat,18.0,2,1.121
7250,232.00,5.8053,3.8988,0.1798,-0.0003,-0.0001,-1.0602,flat,18.0,3,2.973
7260,232.32,6.0763,3.4364,0.1798,0.0001,0.0004,-1.0058,rough,14.0,3,2.459
7270,232.64,6.3200,3.0665,0.1798,0.0001,-0.0004,-0.9622,flat,18.0,3,2.035
7280,232.96,6.6495,2.6206,0.1797,0.0002,-0.0000,-0.8913,flat,18.0,3,1.507
7290,233.28,7.0087,2.2067,0.1798,0.0003,0.0000,-0.7999,flat,18.0,3,0.994
7300,233.60,7.2970,1.9281,0.1789,0.0000,-0.0053,-0.9408,flat,18.0,0,9.184
7310,233.92,7.4590,1.6547,0.1787,-0.0073,-0.0001,-1.4203,flat,18.0,0,9.441
7320,234.24,7.4920,1.2837,0.1798,-0.0002,0.0001,-1.9376,flat,18.0,0,9.626
7330,234.56,7.3170,0.9460,0.1799,0.0000,-0.0000,-2.2983,flat,18.0,0,9.622
7340,234.88,6.9804,0.6479,0.1799,-0.0000,-0.0000,-2.5793,flat,18.0,0,9.475
7350,235.20,6.5404,0.4149,0.1799,-0.0001,-0.0000,-2.8405,flat,18.0,0,9.224
7360,235.52,6.0317,0.2846,0.1799,-0.0001,0.0000,-3.0714,flat,18.0,0,8.878
7370,235.84,5.4913,0.2685,0.1799,-0.0001,-0.0000,3.0207,flat,18.0,0,8.455
7380,236.16,4.9504,0.3513,0.1799,-0.0002,-0.0000,2.8842,flat,18.0,0,7.981
7390,236.48,4.4208,0.5052,0.1798,-0.0004,-0.0000,2.7834,flat,18.0,0,7.479
7400,236.80,3.9053,0.7115,0.1798,-0.0004,-0.0000,2.7041,flat,18.0,0,6.959
7410,237.12,3.4047,0.9582,0.1797,-0.0002,-0.0000,2.6394,flat,18.0,0,6.427
7420,237.44,2.9187,1.2369,0.1797,-0.0002,-0.0000,2.5848,flat,18.0,0,5.887
7430,237.76,2.4466,1.5421,0.1797,-0.0002,-0.0000,2.5376,flat,18.0,0,5.340
7440,238.08,1.9887,1.8696,0.1797,-0.0001,-0.0000,2.4978,flat,18.0,0,4.790
7450,238.40,1.5433,2.2153,0.1797,-0.0001,-0.0000,2.4611,flat,18.0,0,4.238
7460,238.72,1.1102,2.5773,0.1797,-0.0001,-0.0000,2.4263,flat,18.0,0,3.684
7470,239.04,0.6895,2.9544,0.1797,-0.0001,-0.0000,2.3911,flat,18.0,0,3.128
7480,239.36,0.2824,3.3463,0.1797,-0.0001,0.0000,2.3554,flat,18.0,0,2.572
7490,239.68,-0.1093,3.7524,0.1797,-0.0001,0.0000,2.3170,flat,18.0,0,2.018
7500,240.00,-0.4822,4.1727,0.1797,-0.0002,0.0000,2.2721,flat,18.0,0,1.466
7510,240.32,-0.8322,4.6079,0.1797,-0.0002,0.0000,2.2091,flat,18.0,0,0.923
7520,240.64,-1.1334,5.0599,0.1799,-0.0001,-0.0000,2.0736,flat,18.0,1,2.313
7530,240.96,-1.3601,5.5188,0.1799,-0.0001,0.0002,1.9230,rough,14.0,1,1.882
7540,241.28,-1.4994,5.9291,0.1798,-0.0003,-0.0004,1.7984,flat,18.0,1,1.519
7550,241.60,-1.5987,6.4512,0.1799,-0.0000,-0.0000,1.5736,flat,18.0,1,1.086
7560,241.92,-1.5786,6.9598,0.1799,-0.0001,0.0001,1.2780,flat,18.0,2,8.264
7570,242.24,-1.4352,7.3428,0.1799,0.0001,0.0000,0.9514,flat,18.0,2,8.315
7580,242.56,-1.1709,7.6368,0.1799,-0.0000,0.0003,0.6635,rough,14.0,2,8.236
7590,242.88,-0.8498,7.8551,0.1799,0.0000,-0.0001,0.4540,flat,18.0,2,8.086
7600,243.20,-0.3876,8.0460,0.1799,-0.0001,-0.0000,0.1927,flat,18.0,2,7.824
7610,243.52,0.1338,8.1221,0.1799,-0.0001,0.0000,-0.0407,flat,18.0,2,7.465
7620,243.84,0.6714,8.0790,0.1799,-0.0001,-0.0000,-0.2212,flat,18.0,2,7.034
7630,244.16,1.1993,7.9425,0.1799,-0.0003,-0.0000,-0.3508,flat,18.0,2,6.560
7640,244.48,1.7101,7.7391,0.1798,-0.0004,-0.0000,-0.4500,flat,18.0,2,6.059
7650,244.80,2.2022,7.4856,0.1798,-0.0004,-0.0000,-0.5302,flat,18.0,2,5.542
7660,245.12,2.6755,7.1928,0.1797,-0.0003,-0.0000,-0.5970,flat,18.0,2,5.014
7670,245.44,3.1309,6.8686,0.1797,-0.0002,-0.0000,-0.6539,flat,18.0,2,4.478
7680,245.76,3.5688,6.5184,0.1797,-0.0002,-0.0000,-0.7044,flat,18.0,2,3.937
7690,246.08,3.9885,6.1462,0.1797,-0.0002,-0.0000,-0.7538,flat,18.0,2,3.394
7700,246.40,4.3891,5.7533,0.1797,-0.0002,-0.0000,-0.8022,flat,18.0,2,2.849
7710,246.72,4.7691,5.3414,0.1797,-0.0002,0.0000,-0.8529,flat,18.0,2,2.305
7720,247.04,5.1266,4.9110,0.1797,-0.0002,-0.0000,-0.9102,flat,18.0,2,1.762
7730,247.36,5.4582,4.4609,0.1797,-0.0003,0.0000,-0.9828,flat,18.0,2,1.224
7740,247.68,5.7466,3.9929,0.1798,-0.0005,0.0002,-1.0619,flat,18.0,3,3.081
7750,248.00,6.0278,3.5100,0.1798,0.0002,-0.0000,-1.0053,rough,14.0,3,2.544
7760,248.32,6.2658,3.1442,0.1797,0.0001,0.0001,-0.9652,rough,14.0,3,2.126
7770,248.64,6.5837,2.7071,0.1797,0.0002,-0.0001,-0.9023,flat,18.0,3,1.610
7780,248.96,6.9385,2.2862,0.1798,0.0003,0.0000,-0.8188,flat,18.0,3,1.091
7790,249.28,7.2730,1.9603,0.1768,0.0007,-0.0191,-0.8018,flat,18.0,0,9.150
7800,249.60,7.4376,1.7214,0.1779,-0.0125,-0.0003,-1.3144,flat,18.0,0,9.394
7810,249.92,7.5100,1.3576,0.1799,-0.0000,0.0001,-1.8483,flat,18.0,0,9.610
7820,250.24,7.3750,1.0121,0.1799,-0.0000,-0.0001,-2.2339,flat,18.0,0,9.643
7830,250.56,7.0654,0.7048,0.1799,-0.0000,-0.0000,-2.5230,flat,18.0,0,9.519
7840,250.88,6.6440,0.4546,0.1799,-0.0000,-0.0000,-2.7889,flat,18.0,0,9.289
7850,251.20,6.1464,0.3013,0.1799,-0.0001,0.0000,-3.0268,flat,18.0,0,8.962
7860,251.52,5.6094,0.2622,0.1799,-0.0001,-0.0000,3.0557,flat,18.0,0,8.552
7870,251.84,5.0670,0.3268,0.1799,-0.0002,-0.0000,2.9089,flat,18.0,0,8.087
7880,252.16,4.5347,0.4678,0.1798,-0.0004,-0.0000,2.8023,flat,18.0,0,7.590
7890,252.48,4.0162,0.6644,0.1798,-0.0004,-0.0000,2.7194,flat,18.0,0,7.072
7900,252.80,3.5124,0.9033,0.1797,-0.0003,-0.0000,2.6521,flat,18.0,0,6.542
7910,253.12,3.0233,1.1758,0.1797,-0.0002,-0.0000,2.5957,flat,18.0,0,6.003
7920,253.44,2.5483,1.4758,0.1797,-0.0002,-0.0000,2.5471,flat,18.0,0,5.458
7930,253.76,2.0874,1.7988,0.1797,-0.0001,-0.0000,2.5061,flat,18.0,0,4.909
7940,254.08,1.6393,2.1407,0.1797,-0.0001,-0.0000,2.4689,flat,18.0,0,4.357
7950,254.40,1.2035,2.4994,0.1797,-0.0001,-0.0000,2.4339,flat,18.0,0,3.803
7960,254.72,0.7799,2.8732,0.1797,-0.0001,-0.0000,2.3990,flat,18.0,0,3.247
7970,255.04,0.3697,3.2618,0.1797,-0.0001,-0.0000,2.3634,flat,18.0,0,2.691
7980,255.36,-0.0257,3.6648,0.1797,-0.0001,0.0000,2.3260,flat,18.0,0,2.136
7990,255.68,-0.4032,4.0820,0.1797,-0.0001,0.0000,2.2828,flat,18.0,0,1.584
8000,256.00,-0.7587,4.5134,0.1797,-0.0002,0.0000,2.2261,flat,18.0,0,1.038
8010,256.32,-1.0721,4.9604,0.1799,-0.0000,-0.0000,2.1076,flat,18.0,1,2.410
8020,256.64,-1.3236,5.4327,0.1799,-0.0001,0.0005,1.9478,rough,14.0,1,1.961
8030,256.96,-1.4721,5.8328,0.1798,-0.0003,0.0000,1.8205,rough,14.0,1,1.602
8040,257.28,-1.5828,6.3261,0.1799,-0.0000,-0.0000,1.6386,flat,18.0,1,1.186
8050,257.60,-1.5949,6.8490,0.1799,-0.0000,0.0000,1.3577,flat,18.0,2,8.230
8060,257.92,-1.4804,7.2657,0.1799,0.0001,0.0000,1.0451,flat,18.0,2,8.317
8070,258.24,-1.2466,7.5778,0.1799,0.0000,0.0002,0.7363,rough,14.0,2,8.270
8080,258.56,-0.9636,7.7980,0.1799,-0.0000,-0.0000,0.5240,flat,18.0,2,8.149
8090,258.88,-0.5361,8.0123,0.1799,-0.0000,-0.0000,0.2750,flat,18.0,2,7.922
8100,259.20,-0.0289,8.1284,0.1799,0.0001,-0.0000,0.0252,flat,18.0,2,7.594
8110,259.52,0.5074,8.1207,0.1799,-0.0001,-0.0000,-0.1715,flat,18.0,2,7.183
8120,259.84,1.0394,8.0100,0.1799,-0.0002,-0.0000,-0.3148,flat,18.0,2,6.721
