step,time_s,x,y,z,roll,pitch,yaw,terrain,speed,target_idx,dist_to_target
10,0.32,2.1822,0.5010,0.1853,0.0000,-0.0444,0.0000,rough,14.0,0,6.243
20,0.64,2.6653,0.5056,0.1797,0.0001,-0.0008,0.0309,flat,18.0,0,5.774
30,0.96,3.2301,0.5298,0.1797,0.0002,-0.0001,0.0880,flat,18.0,0,5.225
40,1.28,3.7935,0.5854,0.1797,0.0002,-0.0000,0.1364,flat,18.0,0,4.670
50,1.60,4.3544,0.6678,0.1797,0.0002,-0.0000,0.1784,flat,18.0,0,4.113
60,1.92,4.9111,0.7731,0.1797,0.0001,-0.0000,0.2147,flat,18.0,0,3.554
70,2.24,5.4638,0.8985,0.1797,0.0001,-0.0000,0.2489,flat,18.0,0,2.994
80,2.56,6.0118,1.0427,0.1797,0.0001,0.0000,0.2827,flat,18.0,0,2.433
90,2.88,6.5538,1.2055,0.1797,0.0001,0.0000,0.3182,flat,18.0,0,1.873
100,3.20,7.0876,1.3876,0.1797,0.0001,0.0000,0.3591,flat,18.0,0,1.316
110,3.52,7.6091,1.5917,0.1797,0.0002,0.0000,0.4192,flat,18.0,1,5.178
120,3.84,7.9812,1.7956,0.1799,-0.0003,0.0000,0.7397,flat,18.0,1,5.253
130,4.16,8.2469,2.1131,0.1799,-0.0001,-0.0000,1.0826,flat,18.0,1,5.206
140,4.48,8.4344,2.5429,0.1799,0.0000,-0.0000,1.4189,flat,18.0,1,5.059
150,4.80,8.4818,3.0386,0.1799,0.0000,-0.0000,1.7220,flat,18.0,1,4.799
160,5.12,8.3777,3.5445,0.1799,0.0000,-0.0000,1.9521,flat,18.0,1,4.442
170,5.44,8.1561,4.0233,0.1799,0.0001,-0.0000,2.1235,flat,18.0,1,4.024
180,5.76,7.8513,4.4650,0.1799,0.0002,-0.0000,2.2551,flat,18.0,1,3.569
190,6.08,7.4893,4.8692,0.1798,0.0003,-0.0000,2.3641,flat,18.0,1,3.096
200,6.40,7.0834,5.2323,0.1798,0.0004,-0.0000,2.4769,flat,18.0,1,2.614
210,6.72,6.6375,5.5516,0.1799,0.0003,-0.0000,2.5976,flat,18.0,1,2.126
220,7.04,6.1560,5.8174,0.1799,0.0002,-0.0000,2.7334,flat,18.0,1,1.637
230,7.36,5.6457,6.0161,0.1799,0.0001,0.0000,2.9004,flat,18.0,1,1.157
240,7.68,5.1209,6.1182,0.1799,0.0003,-0.0001,3.0890,flat,18.0,2,12.909
250,8.00,4.5619,6.1339,0.1798,0.0003,0.0000,-3.1106,flat,18.0,2,12.383
260,8.32,3.9983,6.1083,0.1798,0.0003,-0.0000,-3.0432,flat,18.0,2,11.841
270,8.64,3.4360,6.0463,0.1797,0.0002,-0.0000,-2.9916,flat,18.0,2,11.291
280,8.96,2.8764,5.9561,0.1797,0.0001,-0.0000,-2.9509,flat,18.0,2,10.735
290,9.28,2.3200,5.8442,0.1797,0.0001,-0.0000,-2.9186,flat,18.0,2,10.175
300,9.60,1.7664,5.7146,0.1797,0.0001,-0.0000,-2.8914,flat,18.0,2,9.613
310,9.92,1.2154,5.5701,0.1797,0.0001,-0.0000,-2.8680,flat,18.0,2,9.048
320,10.24,0.6672,5.4130,0.1797,0.0001,-0.0000,-2.8477,flat,18.0,2,8.481
330,10.56,0.1216,5.2449,0.1797,0.0001,-0.0000,-2.8300,flat,18.0,2,7.912
340,10.88,-0.4216,5.0673,0.1797,0.0001,-0.0000,-2.8143,flat,18.0,2,7.343
350,11.20,-0.9624,4.8813,0.1797,0.0001,-0.0000,-2.8003,flat,18.0,2,6.773
360,11.52,-1.5009,4.6878,0.1797,0.0000,-0.0000,-2.7877,flat,18.0,2,6.202
370,11.84,-2.0373,4.4875,0.1797,0.0000,-0.0000,-2.7761,flat,18.0,2,5.631
380,12.16,-2.5716,4.2810,0.1797,0.0000,-0.0000,-2.7654,flat,18.0,2,5.059
390,12.48,-3.1039,4.0689,0.1797,0.0000,-0.0000,-2.7554,flat,18.0,2,4.487
400,12.80,-3.6341,3.8515,0.1797,0.0000,-0.0000,-2.7458,flat,18.0,2,3.914
410,13.12,-4.1623,3.6289,0.1797,0.0000,-0.0000,-2.7364,flat,18.0,2,3.342
420,13.44,-4.6883,3.4015,0.1797,0.0000,0.0000,-2.7269,flat,18.0,2,2.769
430,13.76,-5.2119,3.1690,0.1797,0.0000,0.0000,-2.7169,flat,18.0,2,2.197
440,14.08,-5.7327,2.9313,0.1797,0.0000,0.0000,-2.7055,flat,18.0,2,1.625
450,14.40,-6.2496,2.6876,0.1797,0.0001,0.0000,-2.6907,flat,18.0,2,1.055
460,14.72,-6.7201,2.4551,0.1798,-0.0002,0.0001,-2.5639,flat,18.0,3,10.649
470,15.04,-7.0807,2.1640,0.1799,0.0000,-0.0000,-2.3142,flat,18.0,3,10.458
480,15.36,-7.3878,1.7653,0.1799,0.0000,-0.0000,-2.0906,flat,18.0,3,10.166
490,15.68,-7.6247,1.2888,0.1799,0.0001,-0.0000,-1.8886,flat,18.0,3,9.793
500,16.00,-7.7744,0.7623,0.1799,0.0001,-0.0000,-1.7156,flat,18.0,3,9.357
510,16.32,-7.8382,0.2118,0.1799,0.0002,-0.0000,-1.5753,flat,18.0,3,8.875
520,16.64,-7.8278,-0.3460,0.1798,0.0004,-0.0000,-1.4685,flat,18.0,3,8.364
530,16.96,-7.7608,-0.9021,0.1798,0.0004,-0.0000,-1.3880,flat,18.0,3,7.835
540,17.28,-7.6505,-1.4533,0.1797,0.0002,-0.0000,-1.3244,flat,18.0,3,7.295
550,17.60,-7.5060,-1.9983,0.1797,0.0002,-0.0000,-1.2725,flat,18.0,3,6.747
560,17.92,-7.3337,-2.5364,0.1797,0.0002,-0.0000,-1.2298,flat,18.0,3,6.193
570,18.24,-7.1390,-3.0673,0.1797,0.0001,-0.0000,-1.1943,flat,18.0,3,5.637
580,18.56,-6.9257,-3.5919,0.1797,0.0001,-0.0000,-1.1626,flat,18.0,3,5.078
590,18.88,-6.6957,-4.1102,0.1797,0.0001,-0.0000,-1.1336,flat,18.0,3,4.517
600,19.20,-6.4508,-4.6223,0.1797,0.0001,-0.0000,-1.1067,flat,18.0,3,3.955
610,19.52,-6.1922,-5.1278,0.1797,0.0001,-0.0000,-1.0809,flat,18.0,3,3.392
620,19.84,-5.9205,-5.6264,0.1797,0.0001,-0.0000,-1.0554,flat,18.0,3,2.829
630,20.16,-5.6360,-6.1175,0.1797,0.0001,0.0000,-1.0290,flat,18.0,3,2.266
640,20.48,-5.3387,-6.5998,0.1797,0.0001,0.0000,-1.0000,flat,18.0,3,1.704
650,20.80,-5.0276,-7.0704,0.1797,0.0001,0.0000,-0.9640,flat,18.0,3,1.146
660,21.12,-4.7182,-7.5058,0.1798,0.0000,0.0004,-0.8509,flat,18.0,0,16.086
670,21.44,-4.4001,-7.7893,0.1799,-0.0000,-0.0001,-0.5514,flat,18.0,0,16.004
680,21.76,-3.9723,-8.0094,0.1799,-0.0000,-0.0000,-0.2723,flat,18.0,0,15.807
690,22.08,-3.4698,-8.1231,0.1799,-0.0000,-0.0001,-0.0278,flat,18.0,0,15.496
700,22.40,-2.9348,-8.1173,0.1799,0.0001,-0.0000,0.1633,flat,18.0,0,15.093
710,22.72,-2.3999,-8.0113,0.1799,0.0002,-0.0000,0.3004,flat,18.0,0,14.628
720,23.04,-1.8780,-7.8343,0.1798,0.0004,-0.0000,0.3988,flat,18.0,0,14.129
730,23.36,-1.3709,-7.6069,0.1798,0.0003,-0.0000,0.4737,flat,18.0,0,13.609
740,23.68,-0.8783,-7.3420,0.1797,0.0002,-0.0000,0.5328,flat,18.0,0,13.074
750,24.00,-0.3991,-7.0483,0.1797,0.0002,-0.0000,0.5807,flat,18.0,0,12.531
760,24.32,0.0673,-6.7318,0.1797,0.0001,-0.0000,0.6182,flat,18.0,0,11.981
770,24.64,0.5234,-6.3977,0.1797,0.0001,-0.0000,0.6504,flat,18.0,0,11.426
780,24.96,0.9701,-6.0489,0.1797,0.0001,-0.0000,0.6782,flat,18.0,0,10.867
790,25.28,1.4084,-5.6877,0.1797,0.0001,-0.0000,0.7025,flat,18.0,0,10.306
800,25.60,1.8388,-5.3158,0.1797,0.0001,-0.0000,0.7244,flat,18.0,0,9.743
810,25.92,2.2621,-4.9344,0.1797,0.0001,-0.0000,0.7444,flat,18.0,0,9.177
820,26.24,2.6785,-4.5445,0.1797,0.0001,-0.0000,0.7625,flat,18.0,0,8.610
830,26.56,3.0885,-4.1471,0.1797,0.0001,-0.0000,0.7787,flat,18.0,0,8.042
840,26.88,3.4925,-3.7429,0.1797,0.0001,-0.0000,0.7936,flat,18.0,0,7.474
850,27.20,3.8909,-3.3328,0.1797,0.0000,-0.0000,0.8073,flat,18.0,0,6.904
860,27.52,4.2838,-2.9171,0.1797,0.0000,-0.0000,0.8203,flat,18.0,0,6.334
870,27.84,4.6717,-2.4964,0.1797,0.0000,-0.0000,0.8325,flat,18.0,0,5.763
880,28.16,5.0546,-2.0710,0.1797,0.0000,-0.0000,0.8440,flat,18.0,0,5.192
890,28.48,5.4328,-1.6412,0.1797,0.0000,-0.0000,0.8550,flat,18.0,0,4.621
900,28.80,5.8063,-1.2074,0.1797,0.0000,-0.0000,0.8656,flat,18.0,0,4.050
910,29.12,6.1753,-0.7697,0.1797,0.0000,0.0000,0.8763,flat,18.0,0,3.478
920,29.44,6.5395,-0.3281,0.1797,0.0000,0.0000,0.8872,flat,18.0,0,2.907
930,29.76,6.8985,0.1174,0.1797,0.0000,0.0000,0.8990,flat,18.0,0,2.336
940,30.08,7.2518,0.5669,0.1797,0.0000,0.0000,0.9125,flat,18.0,0,1.766
950,30.40,7.5978,1.0207,0.1797,0.0001,0.0000,0.9298,flat,18.0,0,1.197
960,30.72,7.9231,1.4702,0.1797,0.0001,0.0003,0.9956,flat,18.0,1,5.466
970,31.04,8.1442,1.8914,0.1799,0.0001,-0.0000,1.3045,flat,18.0,1,5.292
980,31.36,8.2448,2.3681,0.1800,-0.0000,-0.0002,1.5661,flat,18.0,1,5.029
990,31.68,8.2248,2.8804,0.1799,0.0003,0.0000,1.8022,flat,18.0,1,4.684
1000,32.00,8.0792,3.3896,0.1799,0.0001,-0.0000,1.9873,flat,18.0,1,4.269
1010,32.32,7.8408,3.8699,0.1799,0.0002,-0.0000,2.1285,flat,18.0,1,3.815
1020,32.64,7.5338,4.3184,0.1798,0.0003,-0.0000,2.2375,flat,18.0,1,3.335
1030,32.96,7.1791,4.7347,0.1798,0.0004,-0.0000,2.3328,flat,18.0,1,2.845
1040,33.28,6.7850,5.1127,0.1798,0.0004,-0.0000,2.4342,flat,18.0,1,2.352
1050,33.60,6.3534,5.4510,0.1798,0.0004,-0.0000,2.5468,flat,18.0,1,1.857
1060,33.92,5.8868,5.7393,0.1799,0.0002,0.0000,2.6816,flat,18.0,1,1.366
1070,34.24,5.3903,5.9603,0.1799,0.0000,0.0000,2.8656,flat,18.0,1,0.895
1080,34.56,4.8602,6.0849,0.1798,0.0001,0.0001,3.0111,flat,18.0,2,12.650
1090,34.88,4.3044,6.1446,0.1798,0.0004,-0.0000,3.1204,flat,18.0,2,12.142
1100,35.20,3.7422,6.1462,0.1798,0.0004,-0.0000,-3.0776,flat,18.0,2,11.613
1110,35.52,3.1798,6.1023,0.1797,0.0003,-0.0000,-3.0133,flat,18.0,2,11.071
1120,35.84,2.6195,6.0237,0.1797,0.0002,-0.0000,-2.9630,flat,18.0,2,10.520
1130,36.16,2.0629,5.9176,0.1797,0.0001,-0.0000,-2.9238,flat,18.0,2,9.964
1140,36.48,1.5099,5.7905,0.1797,0.0001,-0.0000,-2.8920,flat,18.0,2,9.404
1150,36.80,0.9600,5.6462,0.1797,0.0001,-0.0000,-2.8649,flat,18.0,2,8.841
1160,37.12,0.4133,5.4871,0.1797,0.0001,-0.0000,-2.8416,flat,18.0,2,8.276
1170,37.44,-0.1304,5.3155,0.1797,0.0001,-0.0000,-2.8212,flat,18.0,2,7.709
1180,37.76,-0.6712,5.1329,0.1797,0.0001,-0.0000,-2.8032,flat,18.0,2,7.141
1190,38.08,-1.2091,4.9407,0.1797,0.0001,-0.0000,-2.7871,flat,18.0,2,6.572
1200,38.40,-1.7444,4.7399,0.1797,0.0001,-0.0000,-2.7725,flat,18.0,2,6.002
1210,38.72,-2.2770,4.5314,0.1797,0.0000,-0.0000,-2.7592,flat,18.0,2,5.432
1220,39.04,-2.8071,4.3158,0.1797,0.0000,-0.0000,-2.7469,flat,18.0,2,4.861
1230,39.36,-3.3348,4.0938,0.1797,0.0000,-0.0000,-2.7353,flat,18.0,2,4.290
1240,39.68,-3.8599,3.8656,0.1797,0.0000,-0.0000,-2.7241,flat,18.0,2,3.718
1250,40.00,-4.3825,3.6316,0.1797,0.0000,-0.0000,-2.7130,flat,18.0,2,3.146
1260,40.32,-4.9023,3.3918,0.1797,0.0000,0.0000,-2.7017,flat,18.0,2,2.575
1270,40.64,-5.4191,3.1461,0.1797,0.0000,0.0000,-2.6895,flat,18.0,2,2.003
1280,40.96,-5.9321,2.8941,0.1797,0.0000,0.0000,-2.6752,flat,18.0,2,1.433
1290,41.28,-6.4394,2.6349,0.1797,0.0001,0.0000,-2.6553,flat,18.0,2,0.865
1300,41.60,-6.8640,2.3869,0.1799,-0.0002,0.0000,-2.4577,flat,18.0,3,10.617
1310,41.92,-7.2013,2.0475,0.1799,0.0000,-0.0000,-2.2202,flat,18.0,3,10.380
1320,42.24,-7.4828,1.6135,0.1799,0.0000,-0.0000,-2.0050,flat,18.0,3,10.052
1330,42.56,-7.6854,1.1128,0.1799,0.0000,-0.0000,-1.8142,flat,18.0,3,9.650
1340,42.88,-7.7993,0.5740,0.1799,0.0001,-0.0000,-1.6559,flat,18.0,3,9.192
1350,43.20,-7.8317,0.0189,0.1799,0.0003,-0.0000,-1.5292,flat,18.0,3,8.697
1360,43.52,-7.7973,-0.5390,0.1798,0.0004,-0.0000,-1.4351,flat,18.0,3,8.177
1370,43.84,-7.7123,-1.0936,0.1798,0.0003,-0.0000,-1.3626,flat,18.0,3,7.642
1380,44.16,-7.5884,-1.6427,0.1797,0.0002,-0.0000,-1.3044,flat,18.0,3,7.098
1390,44.48,-7.4333,-2.1855,0.1797,0.0002,-0.0000,-1.2563,flat,18.0,3,6.548
1400,44.80,-7.2525,-2.7210,0.1797,0.0001,-0.0000,-1.2175,flat,18.0,3,5.993
1410,45.12,-7.0513,-3.2499,0.1797,0.0001,-0.0000,-1.1838,flat,18.0,3,5.435
1420,45.44,-6.8325,-3.7727,0.1797,0.0001,-0.0000,-1.1534,flat,18.0,3,4.876
1430,45.76,-6.5978,-4.2892,0.1797,0.0001,-0.0000,-1.1256,flat,18.0,3,4.314
1440,46.08,-6.3488,-4.7995,0.1797,0.0001,-0.0000,-1.0993,flat,18.0,3,3.751
1450,46.40,-6.0864,-5.3032,0.1797,0.0001,-0.0000,-1.0739,flat,18.0,3,3.188
1460,46.72,-5.8112,-5.7999,0.1797,0.0001,0.0000,-1.0485,flat,18.0,3,2.625
1470,47.04,-5.5234,-6.2888,0.1797,0.0001,0.0000,-1.0217,flat,18.0,3,2.062
1480,47.36,-5.2226,-6.7682,0.1797,0.0001,0.0000,-0.9910,flat,18.0,3,1.501
1490,47.68,-4.9073,-7.2344,0.1797,0.0001,0.0000,-0.9507,flat,18.0,3,0.945
1500,48.00,-4.6164,-7.6065,0.1798,-0.0003,-0.0000,-0.7351,flat,18.0,0,16.064
1510,48.32,-4.2531,-7.8706,0.1799,0.0000,-0.0000,-0.4413,flat,18.0,0,15.938
1520,48.64,-3.7919,-8.0538,0.1799,0.0000,-0.0000,-0.1743,flat,18.0,0,15.697
1530,48.96,-3.2719,-8.1214,0.1799,0.0000,-0.0000,0.0529,flat,18.0,0,15.346
1540,49.28,-2.7342,-8.0738,0.1799,0.0001,-0.0000,0.2214,flat,18.0,0,14.915
1550,49.60,-2.2037,-7.9375,0.1799,0.0003,-0.0000,0.3412,flat,18.0,0,14.435
1560,49.92,-1.6873,-7.7396,0.1798,0.0004,-0.0000,0.4293,flat,18.0,0,13.927
1570,50.24,-1.1857,-7.4968,0.1797,0.0003,-0.0000,0.4974,flat,18.0,0,13.400
1580,50.56,-0.6982,-7.2203,0.1797,0.0002,-0.0000,0.5517,flat,18.0,0,12.862
1590,50.88,-0.2239,-6.9174,0.1797,0.0002,-0.0000,0.5951,flat,18.0,0,12.315
1600,51.20,0.2386,-6.5941,0.1797,0.0001,-0.0000,0.6304,flat,18.0,0,11.763
1610,51.52,0.6913,-6.2544,0.1797,0.0001,-0.0000,0.6607,flat,18.0,0,11.207
1620,51.84,1.1350,-5.9010,0.1797,0.0001,-0.0000,0.6871,flat,18.0,0,10.647
1630,52.16,1.5705,-5.5358,0.1797,0.0001,-0.0000,0.7103,flat,18.0,0,10.085
1640,52.48,1.9984,-5.1605,0.1797,0.0001,-0.0000,0.7314,flat,18.0,0,9.521
1650,52.80,2.4194,-4.7761,0.1797,0.0001,-0.0000,0.7507,flat,18.0,0,8.955
1660,53.12,2.8336,-4.3836,0.1797,0.0001,-0.0000,0.7680,flat,18.0,0,8.387
1670,53.44,3.2416,-3.9838,0.1797,0.0001,-0.0000,0.7837,flat,18.0,0,7.819
1680,53.76,3.6438,-3.5777,0.1797,0.0001,-0.0000,0.7980,flat,18.0,0,7.250
1690,54.08,4.0404,-3.1657,0.1797,0.0000,-0.0000,0.8115,flat,18.0,0,6.680
1700,54.40,4.4318,-2.7484,0.1797,0.0000,-0.0000,0.8241,flat,18.0,0,6.110
1710,54.72,4.8181,-2.3262,0.1797,0.0000,-0.0000,0.8361,flat,18.0,0,5.539
1720,55.04,5.1996,-1.8994,0.1797,0.0000,-0.0000,0.8473,flat,18.0,0,4.968
1730,55.36,5.5764,-1.4685,0.1797,0.0000,-0.0000,0.8581,flat,18.0,0,4.397
1740,55.68,5.9486,-1.0335,0.1797,0.0000,-0.0000,0.8687,flat,18.0,0,3.825
1750,56.00,6.3162,-0.5946,0.1797,0.0000,0.0000,0.8795,flat,18.0,0,3.254
1760,56.32,6.6789,-0.1519,0.1797,0.0000,0.0000,0.8906,flat,18.0,0,2.683
1770,56.64,7.0362,0.2948,0.1797,0.0000,0.0000,0.9029,flat,18.0,0,2.112
1780,56.96,7.3873,0.7455,0.1797,0.0001,0.0000,0.9175,flat,18.0,0,1.542
1790,57.28,7.7301,1.2008,0.1797,0.0001,0.0000,0.9376,flat,18.0,0,0.974
1800,57.60,8.0181,1.6259,0.1798,-0.0002,-0.0000,1.1168,flat,18.0,1,5.406
1810,57.92,8.2006,2.0790,0.1799,0.0001,-0.0000,1.4236,flat,18.0,1,5.197
1820,58.24,8.2480,2.5449,0.1799,-0.0001,-0.0000,1.6389,flat,18.0,1,4.915
1830,58.56,8.1870,3.0641,0.1799,0.0000,-0.0000,1.8671,flat,18.0,1,4.544
1840,58.88,8.0088,3.5647,0.1799,0.0001,-0.0000,2.0360,flat,18.0,1,4.115
1850,59.20,7.7464,4.0342,0.1799,0.0002,-0.0000,2.1685,flat,18.0,1,3.653
1860,59.52,7.4215,4.4726,0.1798,0.0004,-0.0000,2.2692,flat,18.0,1,3.169
1870,59.84,7.0532,4.8757,0.1798,0.0004,-0.0000,2.3672,flat,18.0,1,2.679
1880,60.16,6.6459,5.2404,0.1798,0.0004,-0.0000,2.4723,flat,18.0,1,2.185
1890,60.48,6.2017,5.5623,0.1799,0.0003,-0.0000,2.5916,flat,18.0,1,1.691
1900,60.80,5.7234,5.8289,0.1799,0.0001,0.0000,2.7395,flat,18.0,1,1.206
1910,61.12,5.2167,6.0177,0.1799,0.0002,-0.0001,2.9379,flat,18.0,2,12.970
1920,61.44,4.6692,6.1156,0.1798,0.0004,-0.0001,3.0603,flat,18.0,2,12.479
1930,61.76,4.1096,6.1495,0.1798,0.0004,-0.0000,-3.1242,flat,18.0,2,11.960
1940,62.08,3.5468,6.1306,0.1798,0.0003,-0.0000,-3.0491,flat,18.0,2,11.424
1950,62.40,2.9851,6.0713,0.1797,0.0002,-0.0000,-2.9917,flat,18.0,2,10.878
1960,62.72,2.4259,5.9809,0.1797,0.0002,-0.0000,-2.9459,flat,18.0,2,10.324
1970,63.04,1.8709,5.8659,0.1797,0.0001,-0.0000,-2.9109,flat,18.0,2,9.766
1980,63.36,1.3190,5.7318,0.1797,0.0001,-0.0000,-2.8814,flat,18.0,2,9.205
1990,63.68,0.7702,5.5817,0.1797,0.0001,-0.0000,-2.8560,flat,18.0,2,8.641
2000,64.00,0.2245,5.4179,0.1797,0.0001,-0.0000,-2.8341,flat,18.0,2,8.075
2010,64.32,-0.3182,5.2423,0.1797,0.0001,-0.0000,-2.8148,flat,18.0,2,7.508
2020,64.64,-0.8581,5.0563,0.1797,0.0001,-0.0000,-2.7978,flat,18.0,2,6.940
2030,64.96,-1.3952,4.8613,0.1797,0.0001,-0.0000,-2.7824,flat,18.0,2,6.370
2040,65.28,-1.9297,4.6580,0.1797,0.0000,-0.0000,-2.7685,flat,18.0,2,5.800
2050,65.60,-2.4617,4.4474,0.1797,0.0000,-0.0000,-2.7558,flat,18.0,2,5.229
2060,65.92,-2.9912,4.2300,0.1797,0.0000,-0.0000,-2.7438,flat,18.0,2,4.658
2070,66.24,-3.5183,4.0064,0.1797,0.0000,-0.0000,-2.7325,flat,18.0,2,4.086
2080,66.56,-4.0429,3.7768,0.1797,0.0000,-0.0000,-2.7215,flat,18.0,2,3.515
2090,66.88,-4.5649,3.5414,0.1797,0.0000,0.0000,-2.7106,flat,18.0,2,2.943
2100,67.20,-5.0841,3.3003,0.1797,0.0000,0.0000,-2.6992,flat,18.0,2,2.371
2110,67.52,-5.6001,3.0533,0.1797,0.0000,0.0000,-2.6866,flat,18.0,2,1.800
2120,67.84,-6.1119,2.7998,0.1797,0.0001,0.0000,-2.6711,flat,18.0,2,1.230
2130,68.16,-6.6071,2.5471,0.1797,0.0001,0.0003,-2.6089,flat,18.0,3,10.713
2140,68.48,-6.9830,2.2767,0.1799,0.0000,-0.0000,-2.3612,flat,18.0,3,10.541
2150,68.80,-7.3012,1.8964,0.1799,0.0000,-0.0000,-2.1353,flat,18.0,3,10.265
2160,69.12,-7.5549,1.4335,0.1799,0.0000,-0.0000,-1.9290,flat,18.0,3,9.906
2170,69.44,-7.7238,0.9149,0.1799,0.0001,-0.0000,-1.7504,flat,18.0,3,9.479
2180,69.76,-7.8057,0.3678,0.1799,0.0001,-0.0000,-1.6047,flat,18.0,3,9.005
2190,70.08,-7.8110,-0.1897,0.1799,0.0004,-0.0000,-1.4913,flat,18.0,3,8.498
2200,70.40,-7.7563,-0.7468,0.1798,0.0004,-0.0000,-1.4066,flat,18.0,3,7.972
2210,70.72,-7.6561,-1.2997,0.1797,0.0003,-0.0000,-1.3403,flat,18.0,3,7.433
2220,71.04,-7.5202,-1.8467,0.1797,0.0002,-0.0000,-1.2865,flat,18.0,3,6.886
2230,71.36,-7.3555,-2.3871,0.1797,0.0002,-0.0000,-1.2420,flat,18.0,3,6.334
2240,71.68,-7.1673,-2.9201,0.1797,0.0001,-0.0000,-1.2057,flat,18.0,3,5.778
2250,72.00,-6.9599,-3.4471,0.1797,0.0001,-0.0000,-1.1735,flat,18.0,3,5.219
2260,72.32,-6.7357,-3.9679,0.1797,0.0001,-0.0000,-1.1442,flat,18.0,3,4.659
2270,72.64,-6.4962,-4.4824,0.1797,0.0001,-0.0000,-1.1171,flat,18.0,3,4.097
2280,72.96,-6.2429,-4.9907,0.1797,0.0001,-0.0000,-1.0913,flat,18.0,3,3.534
2290,73.28,-5.9764,-5.4923,0.1797,0.0001,-0.0000,-1.0660,flat,18.0,3,2.970
2300,73.60,-5.6973,-5.9866,0.1797,0.0001,0.0000,-1.0403,flat,18.0,3,2.407
2310,73.92,-5.4055,-6.4728,0.1797,0.0001,0.0000,-1.0124,flat,18.0,3,1.845
2320,74.24,-5.1003,-6.9483,0.1797,0.0001,0.0000,-0.9792,flat,18.0,3,1.285
2330,74.56,-4.7828,-7.4062,0.1797,0.0001,0.0002,-0.9167,flat,18.0,0,16.079
2340,74.88,-4.4892,-7.7113,0.1799,-0.0002,-0.0000,-0.6180,flat,18.0,0,16.026
2350,75.20,-4.0834,-7.9501,0.1799,-0.0000,-0.0000,-0.3330,flat,18.0,0,15.855
2360,75.52,-3.5945,-8.0904,0.1799,-0.0000,-0.0000,-0.0792,flat,18.0,0,15.570
2370,75.84,-3.0631,-8.1106,0.1799,0.0001,-0.0000,0.1259,flat,18.0,0,15.183
2380,76.16,-2.5265,-8.0245,0.1799,0.0002,-0.0000,0.2734,flat,18.0,0,14.729
2390,76.48,-2.0012,-7.8614,0.1798,0.0004,-0.0000,0.3787,flat,18.0,0,14.236
2400,76.80,-1.4906,-7.6443,0.1798,0.0004,-0.0000,0.4579,flat,18.0,0,13.720
2410,77.12,-0.9946,-7.3873,0.1797,0.0002,-0.0000,0.5199,flat,18.0,0,13.188
2420,77.44,-0.5123,-7.0998,0.1797,0.0002,-0.0000,0.5700,flat,18.0,0,12.646
2430,77.76,-0.0429,-6.7883,0.1797,0.0001,-0.0000,0.6094,flat,18.0,0,12.097
2440,78.08,0.4158,-6.4583,0.1797,0.0001,-0.0000,0.6426,flat,18.0,0,11.543
2450,78.40,0.8649,-6.1131,0.1797,0.0001,-0.0000,0.6713,flat,18.0,0,10.985
2460,78.72,1.3054,-5.7549,0.1797,0.0001,-0.0000,0.6963,flat,18.0,0,10.425
2470,79.04,1.7379,-5.3857,0.1797,0.0001,-0.0000,0.7185,flat,18.0,0,9.862
2480,79.36,2.1632,-5.0068,0.1797,0.0001,-0.0000,0.7389,flat,18.0,0,9.297
2490,79.68,2.5816,-4.6193,0.1797,0.0001,-0.0000,0.7574,flat,18.0,0,8.730
2500,80.00,2.9935,-4.2239,0.1797,0.0001,-0.0000,0.7740,flat,18.0,0,8.162
2510,80.32,3.3992,-3.8217,0.1797,0.0001,-0.0000,0.7891,flat,18.0,0,7.594
2520,80.64,3.7994,-3.4134,0.1797,0.0000,-0.0000,0.8031,flat,18.0,0,7.024
2530,80.96,4.1941,-2.9994,0.1797,0.0000,-0.0000,0.8162,flat,18.0,0,6.454
2540,81.28,4.5835,-2.5802,0.1797,0.0000,-0.0000,0.8286,flat,18.0,0,5.884
2550,81.60,4.9681,-2.1563,0.1797,0.0000,-0.0000,0.8402,flat,18.0,0,5.313
2560,81.92,5.3479,-1.7280,0.1797,0.0000,-0.0000,0.8513,flat,18.0,0,4.742
2570,82.24,5.7230,-1.2956,0.1797,0.0000,-0.0000,0.8620,flat,18.0,0,4.170
2580,82.56,6.0936,-0.8592,0.1797,0.0000,-0.0000,0.8726,flat,18.0,0,3.599
2590,82.88,6.4594,-0.4189,0.1797,0.0000,0.0000,0.8834,flat,18.0,0,3.028
2600,83.20,6.8203,0.0252,0.1797,0.0000,0.0000,0.8949,flat,18.0,0,2.456
2610,83.52,7.1755,0.4733,0.1797,0.0000,0.0000,0.9079,flat,18.0,0,1.886
2620,83.84,7.5239,0.9257,0.1797,0.0001,0.0000,0.9241,flat,18.0,0,1.316
2630,84.16,7.8623,1.3826,0.1797,0.0001,0.0000,0.9487,flat,18.0,1,5.498
2640,84.48,8.1035,1.7954,0.1799,-0.0000,-0.0000,1.2414,flat,18.0,1,5.335
2650,84.80,8.2362,2.2774,0.1799,0.0002,0.0000,1.5381,rough,14.0,1,5.084
2660,85.12,8.2448,2.7510,0.1799,-0.0001,-0.0000,1.7203,flat,18.0,1,4.780
2670,85.44,8.1431,3.2665,0.1799,0.0001,-0.0000,1.9268,flat,18.0,1,4.391
2680,85.76,7.9346,3.7568,0.1799,0.0001,-0.0000,2.0844,flat,18.0,1,3.952
2690,86.08,7.6487,4.2144,0.1799,0.0003,-0.0000,2.2083,flat,18.0,1,3.484
2700,86.40,7.3066,4.6405,0.1798,0.0004,-0.0000,2.3057,flat,18.0,1,2.998
2710,86.72,6.9233,5.0284,0.1798,0.0004,-0.0000,2.4072,flat,18.0,1,2.508
2720,87.04,6.5014,5.3772,0.1798,0.0004,-0.0000,2.5179,flat,18.0,1,2.015
2730,87.36,6.0430,5.6786,0.1799,0.0002,-0.0000,2.6465,flat,18.0,1,1.524
2740,87.68,5.5525,5.9179,0.1799,0.0001,0.0000,2.8128,flat,18.0,1,1.046
2750,88.00,5.0377,6.0630,0.1799,0.0003,-0.0001,2.9763,flat,18.0,2,12.813
2760,88.32,4.4862,6.1407,0.1799,0.0004,-0.0000,3.0911,flat,18.0,2,12.313
2770,88.64,3.9251,6.1580,0.1798,0.0004,-0.0000,-3.0999,flat,18.0,2,11.789
2780,88.96,3.3624,6.1261,0.1798,0.0003,-0.0000,-3.0304,flat,18.0,2,11.250
2790,89.28,2.8014,6.0567,0.1797,0.0002,-0.0000,-2.9766,flat,18.0,2,10.701
2800,89.60,2.2435,5.9580,0.1797,0.0002,-0.0000,-2.9341,flat,18.0,2,10.146
2810,89.92,1.6896,5.8365,0.1797,0.0001,-0.0000,-2.9008,flat,18.0,2,9.587
2820,90.24,1.1388,5.6969,0.1797,0.0001,-0.0000,-2.8724,flat,18.0,2,9.025
2830,90.56,0.5911,5.5419,0.1797,0.0001,-0.0000,-2.8481,flat,18.0,2,8.461
2840,90.88,0.0465,5.3738,0.1797,0.0001,-0.0000,-2.8269,flat,18.0,2,7.895
2850,91.20,-0.4951,5.1943,0.1797,0.0001,-0.0000,-2.8083,flat,18.0,2,7.327
2860,91.52,-1.0339,5.0049,0.1797,0.0001,-0.0000,-2.7917,flat,18.0,2,6.758
2870,91.84,-1.5699,4.8065,0.1797,0.0001,-0.0000,-2.7768,flat,18.0,2,6.189
2880,92.16,-2.1034,4.6003,0.1797,0.0000,-0.0000,-2.7632,flat,18.0,2,5.618
2890,92.48,-2.6343,4.3868,0.1797,0.0000,-0.0000,-2.7506,flat,18.0,2,5.047
2900,92.80,-3.1627,4.1667,0.1797,0.0000,-0.0000,-2.7388,flat,18.0,2,4.476
2910,93.12,-3.6886,3.9404,0.1797,0.0000,-0.0000,-2.7276,flat,18.0,2,3.905
2920,93.44,-4.2120,3.7082,0.1797,0.0000,-0.0000,-2.7165,flat,18.0,2,3.333
2930,93.76,-4.7328,3.4702,0.1797,0.0000,0.0000,-2.7054,flat,18.0,2,2.761
2940,94.08,-5.2506,3.2265,0.1797,0.0000,0.0000,-2.6937,flat,18.0,2,2.190
2950,94.40,-5.7650,2.9766,0.1797,0.0000,0.0000,-2.6803,flat,18.0,2,1.619
2960,94.72,-6.2745,2.7200,0.1797,0.0001,0.0000,-2.6630,flat,18.0,2,1.050
2970,95.04,-6.7371,2.4734,0.1798,-0.0002,0.0001,-2.5341,flat,18.0,3,10.671
2980,95.36,-7.0805,2.1810,0.1799,0.0001,0.0003,-2.2969,flat,18.0,3,10.474
2990,95.68,-7.3806,1.7808,0.1799,0.0000,-0.0000,-2.0781,flat,18.0,3,10.178
3000,96.00,-7.6129,1.3002,0.1799,0.0001,0.0000,-1.8787,flat,18.0,3,9.800
3010,96.32,-7.7581,0.7718,0.1799,0.0001,-0.0000,-1.7085,flat,18.0,3,9.359
3020,96.64,-7.8183,0.2205,0.1799,0.0002,-0.0000,-1.5707,flat,18.0,3,8.875
3030,96.96,-7.8057,-0.3376,0.1798,0.0004,-0.0000,-1.4662,flat,18.0,3,8.362
3040,97.28,-7.7376,-0.8938,0.1798,0.0004,-0.0000,-1.3872,flat,18.0,3,7.832
3050,97.60,-7.6269,-1.4451,0.1797,0.0002,-0.0000,-1.3246,flat,18.0,3,7.291
3060,97.92,-7.4826,-1.9904,0.1797,0.0002,-0.0000,-1.2734,flat,18.0,3,6.742
3070,98.24,-7.3108,-2.5287,0.1797,0.0002,-0.0000,-1.2315,flat,18.0,3,6.189
3080,98.56,-7.1171,-3.0601,0.1797,0.0001,-0.0000,-1.1964,flat,18.0,3,5.632
3090,98.88,-6.9048,-3.5853,0.1797,0.0001,-0.0000,-1.1650,flat,18.0,3,5.073
3100,99.20,-6.6762,-4.1044,0.1797,0.0001,-0.0000,-1.1364,flat,18.0,3,4.512
3110,99.52,-6.4328,-4.6172,0.1797,0.0001,-0.0000,-1.1097,flat,18.0,3,3.949
3120,99.84,-6.1757,-5.1236,0.1797,0.0001,-0.0000,-1.0842,flat,18.0,3,3.386
3130,100.16,-5.9056,-5.6232,0.1797,0.0001,-0.0000,-1.0589,flat,18.0,3,2.823
3140,100.48,-5.6230,-6.1154,0.1797,0.0001,0.0000,-1.0328,flat,18.0,3,2.260
3150,100.80,-5.3275,-6.5989,0.1797,0.0001,0.0000,-1.0040,flat,18.0,3,1.698
3160,101.12,-5.0183,-7.0710,0.1797,0.0001,0.0000,-0.9682,flat,18.0,3,1.139
3170,101.44,-4.7109,-7.5078,0.1798,0.0000,0.0004,-0.8552,flat,18.0,0,16.081
3180,101.76,-4.3946,-7.7919,0.1799,-0.0000,-0.0000,-0.5554,flat,18.0,0,16.001
3190,102.08,-3.9681,-8.0131,0.1799,0.0000,-0.0000,-0.2757,flat,18.0,0,15.806
3200,102.40,-3.4666,-8.1282,0.1799,0.0000,-0.0001,-0.0303,flat,18.0,0,15.497
3210,102.72,-2.9318,-8.1236,0.1799,0.0001,-0.0000,0.1619,flat,18.0,0,15.095
3220,103.04,-2.3969,-8.0184,0.1799,0.0002,-0.0000,0.2995,flat,18.0,0,14.631
3230,103.36,-1.8749,-7.8418,0.1798,0.0004,-0.0000,0.3983,flat,18.0,0,14.132
3240,103.68,-1.3678,-7.6147,0.1798,0.0003,-0.0000,0.4735,flat,18.0,0,13.612
3250,104.00,-0.8752,-7.3499,0.1797,0.0002,-0.0000,0.5328,flat,18.0,0,13.078
3260,104.32,-0.3960,-7.0562,0.1797,0.0002,-0.0000,0.5808,flat,18.0,0,12.534
3270,104.64,0.0703,-6.7397,0.1797,0.0001,-0.0000,0.6185,flat,18.0,0,11.984
3280,104.96,0.5263,-6.4055,0.1797,0.0001,-0.0000,0.6507,flat,18.0,0,11.429
3290,105.28,0.9730,-6.0566,0.1797,0.0001,-0.0000,0.6785,flat,18.0,0,10.871
3300,105.60,1.4110,-5.6952,0.1797,0.0001,-0.0000,0.7029,flat,18.0,0,10.310
3310,105.92,1.8413,-5.3231,0.1797,0.0001,-0.0000,0.7248,flat,18.0,0,9.746
3320,106.24,2.2644,-4.9415,0.1797,0.0001,-0.0000,0.7449,flat,18.0,0,9.181
3330,106.56,2.6807,-4.5515,0.1797,0.0001,-0.0000,0.7630,flat,18.0,0,8.614
3340,106.88,3.0904,-4.1538,0.1797,0.0001,-0.0000,0.7793,flat,18.0,0,8.046
3350,107.20,3.4942,-3.7494,0.1797,0.0001,-0.0000,0.7941,flat,18.0,0,7.478
3360,107.52,3.8923,-3.3391,0.1797,0.0000,-0.0000,0.8079,flat,18.0,0,6.908
3370,107.84,4.2850,-2.9232,0.1797,0.0000,-0.0000,0.8209,flat,18.0,0,6.338
3380,108.16,4.6725,-2.5022,0.1797,0.0000,-0.0000,0.8332,flat,18.0,0,5.767
3390,108.48,5.0552,-2.0765,0.1797,0.0000,-0.0000,0.8447,flat,18.0,0,5.196
3400,108.80,5.4331,-1.6465,0.1797,0.0000,-0.0000,0.8556,flat,18.0,0,4.625
3410,109.12,5.8064,-1.2125,0.1797,0.0000,-0.0000,0.8663,flat,18.0,0,4.054
3420,109.44,6.1750,-0.7745,0.1797,0.0000,0.0000,0.8769,flat,18.0,0,3.482
3430,109.76,6.5389,-0.3327,0.1797,0.0000,0.0000,0.8879,flat,18.0,0,2.911
3440,110.08,6.8977,0.1130,0.1797,0.0000,0.0000,0.8997,flat,18.0,0,2.340
3450,110.40,7.2506,0.5628,0.1797,0.0000,0.0000,0.9132,flat,18.0,0,1.770
3460,110.72,7.5963,1.0169,0.1797,0.0001,0.0000,0.9305,flat,18.0,0,1.201
3470,111.04,7.9214,1.4666,0.1797,0.0001,0.0003,0.9962,flat,18.0,1,5.468
3480,111.36,8.1423,1.8881,0.1799,0.0001,-0.0000,1.3049,flat,18.0,1,5.293
3490,111.68,8.2428,2.3649,0.1800,-0.0000,-0.0002,1.5661,flat,18.0,1,5.030
3500,112.00,8.2229,2.8773,0.1799,0.0002,-0.0000,1.8020,flat,18.0,1,4.685
3510,112.32,8.0774,3.3865,0.1799,0.0001,-0.0000,1.9869,flat,18.0,1,4.269
3520,112.64,7.8392,3.8670,0.1799,0.0002,-0.0000,2.1280,flat,18.0,1,3.815
3530,112.96,7.5324,4.3157,0.1798,0.0003,-0.0000,2.2369,flat,18.0,1,3.335
3540,113.28,7.1779,4.7322,0.1798,0.0004,-0.0000,2.3321,flat,18.0,1,2.845
3550,113.60,6.7841,5.1106,0.1798,0.0004,-0.0000,2.4334,flat,18.0,1,2.352
3560,113.92,6.3528,5.4492,0.1798,0.0004,-0.0000,2.5460,flat,18.0,1,1.856
3570,114.24,5.8864,5.7378,0.1799,0.0002,0.0000,2.6806,flat,18.0,1,1.366
3580,114.56,5.3902,5.9593,0.1799,0.0000,0.0000,2.8646,flat,18.0,1,0.895
3590,114.88,4.8598,6.0845,0.1798,0.0001,0.0001,3.0095,flat,18.0,2,12.650
3600,115.20,4.3041,6.1451,0.1798,0.0004,-0.0000,3.1192,flat,18.0,2,12.142
3610,115.52,3.7420,6.1473,0.1798,0.0004,-0.0000,-3.0785,flat,18.0,2,11.613
3620,115.84,3.1795,6.1038,0.1797,0.0003,-0.0000,-3.0138,flat,18.0,2,11.071
3630,116.16,2.6193,6.0255,0.1797,0.0002,-0.0000,-2.9634,flat,18.0,2,10.520
3640,116.48,2.0626,5.9196,0.1797,0.0001,-0.0000,-2.9240,flat,18.0,2,9.964
3650,116.80,1.5096,5.7926,0.1797,0.0001,-0.0000,-2.8921,flat,18.0,2,9.404
3660,117.12,0.9598,5.6483,0.1797,0.0001,-0.0000,-2.8650,flat,18.0,2,8.842
3670,117.44,0.4130,5.4894,0.1797,0.0001,-0.0000,-2.8416,flat,18.0,2,8.277
3680,117.76,-0.1307,5.3177,0.1797,0.0001,-0.0000,-2.8211,flat,18.0,2,7.710
3690,118.08,-0.6714,5.1351,0.1797,0.0001,-0.0000,-2.8031,flat,18.0,2,7.142
3700,118.40,-1.2093,4.9429,0.1797,0.0001,-0.0000,-2.7869,flat,18.0,2,6.573
3710,118.72,-1.7445,4.7420,0.1797,0.0001,-0.0000,-2.7724,flat,18.0,2,6.003
3720,119.04,-2.2771,4.5334,0.1797,0.0000,-0.0000,-2.7590,flat,18.0,2,5.433
3730,119.36,-2.8072,4.3178,0.1797,0.0000,-0.0000,-2.7467,flat,18.0,2,4.862
3740,119.68,-3.3348,4.0956,0.1797,0.0000,-0.0000,-2.7350,flat,18.0,2,4.290
3750,120.00,-3.8598,3.8673,0.1797,0.0000,-0.0000,-2.7238,flat,18.0,2,3.719
3760,120.32,-4.3823,3.6331,0.1797,0.0000,-0.0000,-2.7127,flat,18.0,2,3.147
3770,120.64,-4.9021,3.3931,0.1797,0.0000,0.0000,-2.7014,flat,18.0,2,2.576
3780,120.96,-5.4188,3.1473,0.1797,0.0000,0.0000,-2.6892,flat,18.0,2,2.004
3790,121.28,-5.9317,2.8951,0.1797,0.0000,0.0000,-2.6749,flat,18.0,2,1.434
3800,121.60,-6.4389,2.6357,0.1797,0.0001,0.0000,-2.6549,flat,18.0,2,0.866
3810,121.92,-6.8634,2.3875,0.1799,-0.0002,0.0000,-2.4573,flat,18.0,3,10.618
3820,122.24,-7.2006,2.0480,0.1799,0.0000,-0.0000,-2.2199,flat,18.0,3,10.380
3830,122.56,-7.4821,1.6139,0.1799,0.0000,-0.0000,-2.0048,flat,18.0,3,10.052
3840,122.88,-7.6845,1.1131,0.1799,0.0000,-0.0000,-1.8140,flat,18.0,3,9.650
3850,123.20,-7.7984,0.5743,0.1799,0.0001,-0.0000,-1.6558,flat,18.0,3,9.192
3860,123.52,-7.8308,0.0191,0.1799,0.0003,-0.0000,-1.5292,flat,18.0,3,8.696
3870,123.84,-7.7963,-0.5388,0.1798,0.0004,-0.0000,-1.4351,flat,18.0,3,8.177
3880,124.16,-7.7114,-1.0934,0.1798,0.0003,-0.0000,-1.3626,flat,18.0,3,7.642
3890,124.48,-7.5874,-1.6425,0.1797,0.0002,-0.0000,-1.3045,flat,18.0,3,7.098
3900,124.80,-7.4323,-2.1853,0.1797,0.0002,-0.0000,-1.2564,flat,18.0,3,6.547
3910,125.12,-7.2516,-2.7208,0.1797,0.0001,-0.0000,-1.2176,flat,18.0,3,5.993
3920,125.44,-7.0505,-3.2497,0.1797,0.0001,-0.0000,-1.1839,flat,18.0,3,5.435
3930,125.76,-6.8317,-3.7725,0.1797,0.0001,-0.0000,-1.1535,flat,18.0,3,4.875
3940,126.08,-6.5970,-4.2891,0.1797,0.0001,-0.0000,-1.1257,flat,18.0,3,4.314
3950,126.40,-6.3481,-4.7994,0.1797,0.0001,-0.0000,-1.0994,flat,18.0,3,3.751
3960,126.72,-6.0857,-5.3031,0.1797,0.0001,-0.0000,-1.0741,flat,18.0,3,3.188
3970,127.04,-5.8106,-5.7999,0.1797,0.0001,0.0000,-1.0486,flat,18.0,3,2.624
3980,127.36,-5.5229,-6.2888,0.1797,0.0001,0.0000,-1.0218,flat,18.0,3,2.061
3990,127.68,-5.2221,-6.7683,0.1797,0.0001,0.0000,-0.9912,flat,18.0,3,1.500
4000,128.00,-4.9069,-7.2345,0.1797,0.0001,0.0000,-0.9508,flat,18.0,3,0.944
4010,128.32,-4.6161,-7.6067,0.1798,-0.0003,-0.0000,-0.7352,flat,18.0,0,16.064
4020,128.64,-4.2529,-7.8708,0.1799,0.0000,-0.0000,-0.4415,flat,18.0,0,15.938
4030,128.96,-3.7917,-8.0540,0.1799,0.0000,-0.0000,-0.1744,flat,18.0,0,15.697
4040,129.28,-3.2717,-8.1217,0.1799,0.0000,-0.0000,0.0528,flat,18.0,0,15.347
4050,129.60,-2.7341,-8.0741,0.1799,0.0001,-0.0000,0.2214,flat,18.0,0,14.915
4060,129.92,-2.2035,-7.9379,0.1799,0.0003,-0.0000,0.3412,flat,18.0,0,14.435
4070,130.24,-1.6871,-7.7399,0.1798,0.0004,-0.0000,0.4293,flat,18.0,0,13.927
4080,130.56,-1.1856,-7.4972,0.1797,0.0003,-0.0000,0.4974,flat,18.0,0,13.400
4090,130.88,-0.6980,-7.2207,0.1797,0.0002,-0.0000,0.5517,flat,18.0,0,12.862
4100,131.20,-0.2238,-6.9177,0.1797,0.0002,-0.0000,0.5951,flat,18.0,0,12.315
4110,131.52,0.2388,-6.5945,0.1797,0.0001,-0.0000,0.6304,flat,18.0,0,11.763
4120,131.84,0.6915,-6.2548,0.1797,0.0001,-0.0000,0.6608,flat,18.0,0,11.207
4130,132.16,1.1351,-5.9013,0.1797,0.0001,-0.0000,0.6871,flat,18.0,0,10.647
4140,132.48,1.5706,-5.5361,0.1797,0.0001,-0.0000,0.7104,flat,18.0,0,10.085
4150,132.80,1.9985,-5.1608,0.1797,0.0001,-0.0000,0.7314,flat,18.0,0,9.521
4160,133.12,2.4195,-4.7764,0.1797,0.0001,-0.0000,0.7507,flat,18.0,0,8.955
4170,133.44,2.8337,-4.3839,0.1797,0.0001,-0.0000,0.7680,flat,18.0,0,8.388
4180,133.76,3.2417,-3.9841,0.1797,0.0001,-0.0000,0.7837,flat,18.0,0,7.819
4190,134.08,3.6439,-3.5780,0.1797,0.0001,-0.0000,0.7981,flat,18.0,0,7.250
4200,134.40,4.0405,-3.1660,0.1797,0.0000,-0.0000,0.8115,flat,18.0,0,6.680
4210,134.72,4.4318,-2.7487,0.1797,0.0000,-0.0000,0.8242,flat,18.0,0,6.110
4220,135.04,4.8181,-2.3264,0.1797,0.0000,-0.0000,0.8361,flat,18.0,0,5.539
4230,135.36,5.1996,-1.8997,0.1797,0.0000,-0.0000,0.8474,flat,18.0,0,4.968
4240,135.68,5.5764,-1.4687,0.1797,0.0000,-0.0000,0.8582,flat,18.0,0,4.397
4250,136.00,5.9486,-1.0337,0.1797,0.0000,-0.0000,0.8688,flat,18.0,0,3.825
4260,136.32,6.3162,-0.5948,0.1797,0.0000,0.0000,0.8795,flat,18.0,0,3.254
4270,136.64,6.6788,-0.1521,0.1797,0.0000,0.0000,0.8907,flat,18.0,0,2.683
4280,136.96,7.0362,0.2946,0.1797,0.0000,0.0000,0.9030,flat,18.0,0,2.112
4290,137.28,7.3873,0.7454,0.1797,0.0001,0.0000,0.9176,flat,18.0,0,1.542
4300,137.60,7.7301,1.2006,0.1797,0.0001,0.0000,0.9377,flat,18.0,0,0.974
4310,137.92,8.0180,1.6258,0.1798,-0.0002,-0.0000,1.1168,flat,18.0,1,5.406
4320,138.24,8.2006,2.0789,0.1799,0.0001,-0.0000,1.4236,flat,18.0,1,5.197
4330,138.56,8.2479,2.5447,0.1799,-0.0001,-0.0000,1.6389,flat,18.0,1,4.915
4340,138.88,8.1869,3.0639,0.1799,0.0000,-0.0000,1.8671,flat,18.0,1,4.544
4350,139.20,8.0087,3.5646,0.1799,0.0001,-0.0000,2.0359,flat,18.0,1,4.115
4360,139.52,7.7464,4.0341,0.1799,0.0002,-0.0000,2.1685,flat,18.0,1,3.653
4370,139.84,7.4214,4.4725,0.1798,0.0004,-0.0000,2.2692,flat,18.0,1,3.169
4380,140.16,7.0531,4.8756,0.1798,0.0004,-0.0000,2.3672,flat,18.0,1,2.679
4390,140.48,6.6459,5.2403,0.1798,0.0004,-0.0000,2.4723,flat,18.0,1,2.185
4400,140.80,6.2016,5.5622,0.1799,0.0003,-0.0000,2.5915,flat,18.0,1,1.691
4410,141.12,5.7234,5.8289,0.1799,0.0001,0.0000,2.7395,flat,18.0,1,1.205
4420,141.44,5.2167,6.0177,0.1799,0.0001,-0.0001,2.9379,flat,18.0,2,12.970
4430,141.76,4.6698,6.1140,0.1792,0.0003,-0.0044,3.0502,flat,18.0,2,12.479
4440,142.08,4.1102,6.1533,0.1797,0.0004,-0.0005,-3.1316,flat,18.0,2,11.962
4450,142.40,3.5474,6.1383,0.1798,0.0004,-0.0001,-3.0542,flat,18.0,2,11.428
4460,142.72,2.9856,6.0817,0.1797,0.0002,-0.0000,-2.9952,flat,18.0,2,10.882
4470,143.04,2.4263,5.9932,0.1797,0.0002,-0.0000,-2.9483,flat,18.0,2,10.329
4480,143.36,1.8712,5.8793,0.1797,0.0001,-0.0000,-2.9123,flat,18.0,2,9.772
4490,143.68,1.3192,5.7460,0.1797,0.0001,-0.0000,-2.8822,flat,18.0,2,9.211
4500,144.00,0.7705,5.5963,0.1797,0.0001,-0.0000,-2.8564,flat,18.0,2,8.647
4510,144.32,0.2248,5.4327,0.1797,0.0001,-0.0000,-2.8341,flat,18.0,2,8.082
4520,144.64,-0.3178,5.2571,0.1797,0.0001,-0.0000,-2.8145,flat,18.0,2,7.514
4530,144.96,-0.8575,5.0709,0.1797,0.0001,-0.0000,-2.7972,flat,18.0,2,6.946
4540,145.28,-1.3945,4.8755,0.1797,0.0001,-0.0000,-2.7816,flat,18.0,2,6.377
4550,145.60,-1.9287,4.6718,0.1797,0.0001,-0.0000,-2.7675,flat,18.0,2,5.807
4560,145.92,-2.4604,4.4606,0.1797,0.0000,-0.0000,-2.7545,flat,18.0,2,5.236
4570,146.24,-2.9896,4.2426,0.1797,0.0000,-0.0000,-2.7424,flat,18.0,2,4.665
4580,146.56,-3.5163,4.0182,0.1797,0.0000,-0.0000,-2.7310,flat,18.0,2,4.093
4590,146.88,-4.0404,3.7878,0.1797,0.0000,-0.0000,-2.7198,flat,18.0,2,3.522
4600,147.20,-4.5620,3.5515,0.1797,0.0000,0.0000,-2.7087,flat,18.0,2,2.950
4610,147.52,-5.0807,3.3095,0.1797,0.0000,0.0000,-2.6972,flat,18.0,2,2.379
4620,147.84,-5.5962,3.0614,0.1797,0.0000,0.0000,-2.6845,flat,18.0,2,1.808
4630,148.16,-6.1074,2.8069,0.1797,0.0001,0.0000,-2.6688,flat,18.0,2,1.238
4640,148.48,-6.6019,2.5529,0.1797,0.0001,0.0003,-2.6065,flat,18.0,3,10.717
4650,148.80,-6.9773,2.2813,0.1799,0.0000,-0.0000,-2.3592,flat,18.0,3,10.544
4660,149.12,-7.2953,1.9002,0.1799,0.0000,-0.0000,-2.1336,flat,18.0,3,10.266
4670,149.44,-7.5485,1.4367,0.1799,0.0000,-0.0000,-1.9278,flat,18.0,3,9.907
4680,149.76,-7.7169,0.9177,0.1799,0.0001,-0.0000,-1.7497,flat,18.0,3,9.480
4690,150.08,-7.7984,0.3705,0.1799,0.0001,-0.0000,-1.6044,flat,18.0,3,9.005
4700,150.40,-7.8037,-0.1870,0.1799,0.0004,-0.0000,-1.4913,flat,18.0,3,8.498
4710,150.72,-7.7490,-0.7442,0.1798,0.0004,-0.0000,-1.4069,flat,18.0,3,7.971
4720,151.04,-7.6490,-1.2971,0.1797,0.0003,-0.0000,-1.3408,flat,18.0,3,7.432
4730,151.36,-7.5134,-1.8442,0.1797,0.0002,-0.0000,-1.2871,flat,18.0,3,6.885
4740,151.68,-7.3490,-2.3848,0.1797,0.0002,-0.0000,-1.2427,flat,18.0,3,6.333
4750,152.00,-7.1612,-2.9180,0.1797,0.0001,-0.0000,-1.2065,flat,18.0,3,5.777
4760,152.32,-6.9542,-3.4451,0.1797,0.0001,-0.0000,-1.1743,flat,18.0,3,5.218
4770,152.64,-6.7304,-3.9661,0.1797,0.0001,-0.0000,-1.1451,flat,18.0,3,4.657
4780,152.96,-6.4915,-4.4809,0.1797,0.0001,-0.0000,-1.1180,flat,18.0,3,4.095
4790,153.28,-6.2386,-4.9894,0.1797,0.0001,-0.0000,-1.0923,flat,18.0,3,3.532
4800,153.60,-5.9726,-5.4913,0.1797,0.0001,-0.0000,-1.0670,flat,18.0,3,2.969
4810,153.92,-5.6940,-5.9860,0.1797,0.0001,0.0000,-1.0413,flat,18.0,3,2.405
4820,154.24,-5.4027,-6.4724,0.1797,0.0001,0.0000,-1.0135,flat,18.0,3,1.843
4830,154.56,-5.0980,-6.9483,0.1797,0.0001,0.0000,-0.9802,flat,18.0,3,1.283
4840,154.88,-4.7810,-7.4065,0.1797,0.0001,0.0002,-0.9178,flat,18.0,0,16.078
4850,155.20,-4.4879,-7.7119,0.1799,-0.0001,-0.0000,-0.6190,flat,18.0,0,16.026
4860,155.52,-4.0824,-7.9508,0.1799,-0.0000,-0.0000,-0.3339,flat,18.0,0,15.855
4870,155.84,-3.5937,-8.0915,0.1799,0.0000,-0.0000,-0.0801,flat,18.0,0,15.570
4880,156.16,-3.0625,-8.1120,0.1799,0.0001,-0.0000,0.1254,flat,18.0,0,15.184
4890,156.48,-2.5258,-8.0260,0.1799,0.0002,-0.0000,0.2732,flat,18.0,0,14.730
4900,156.80,-2.0005,-7.8630,0.1798,0.0004,-0.0000,0.3786,flat,18.0,0,14.237
4910,157.12,-1.4899,-7.6460,0.1798,0.0004,-0.0000,0.4578,flat,18.0,0,13.721
4920,157.44,-0.9940,-7.3890,0.1797,0.0002,-0.0000,0.5199,flat,18.0,0,13.189
4930,157.76,-0.5116,-7.1015,0.1797,0.0002,-0.0000,0.5700,flat,18.0,0,12.647
4940,158.08,-0.0422,-6.7900,0.1797,0.0001,-0.0000,0.6094,flat,18.0,0,12.098
4950,158.40,0.4164,-6.4600,0.1797,0.0001,-0.0000,0.6427,flat,18.0,0,11.544
4960,158.72,0.8655,-6.1147,0.1797,0.0001,-0.0000,0.6713,flat,18.0,0,10.986
4970,159.04,1.3060,-5.7565,0.1797,0.0001,-0.0000,0.6964,flat,18.0,0,10.425
4980,159.36,1.7385,-5.3873,0.1797,0.0001,-0.0000,0.7186,flat,18.0,0,9.862
4990,159.68,2.1637,-5.0084,0.1797,0.0001,-0.0000,0.7390,flat,18.0,0,9.297
5000,160.00,2.5821,-4.6208,0.1797,0.0001,-0.0000,0.7575,flat,18.0,0,8.731
5010,160.32,2.9939,-4.2254,0.1797,0.0001,-0.0000,0.7741,flat,18.0,0,8.163
5020,160.64,3.3996,-3.8232,0.1797,0.0001,-0.0000,0.7892,flat,18.0,0,7.595
5030,160.96,3.7997,-3.4148,0.1797,0.0000,-0.0000,0.8032,flat,18.0,0,7.025
5040,161.28,4.1943,-3.0007,0.1797,0.0000,-0.0000,0.8163,flat,18.0,0,6.455
5050,161.60,4.5838,-2.5815,0.1797,0.0000,-0.0000,0.8287,flat,18.0,0,5.884
5060,161.92,4.9682,-2.1576,0.1797,0.0000,-0.0000,0.8403,flat,18.0,0,5.314
5070,162.24,5.3480,-1.7292,0.1797,0.0000,-0.0000,0.8514,flat,18.0,0,4.742
5080,162.56,5.7231,-1.2967,0.1797,0.0000,-0.0000,0.8621,flat,18.0,0,4.171
5090,162.88,6.0936,-0.8603,0.1797,0.0000,-0.0000,0.8727,flat,18.0,0,3.600
5100,163.20,6.4594,-0.4200,0.1797,0.0000,0.0000,0.8835,flat,18.0,0,3.028
5110,163.52,6.8201,0.0242,0.1797,0.0000,0.0000,0.8951,flat,18.0,0,2.457
5120,163.84,7.1753,0.4724,0.1797,0.0000,0.0000,0.9081,flat,18.0,0,1.887
5130,164.16,7.5236,0.9248,0.1797,0.0001,0.0000,0.9243,flat,18.0,0,1.317
5140,164.48,7.8619,1.3818,0.1797,0.0001,0.0000,0.9488,flat,18.0,1,5.498
5150,164.80,8.1030,1.7947,0.1799,-0.0000,-0.0000,1.2415,flat,18.0,1,5.335
5160,165.12,8.2358,2.2767,0.1799,0.0002,0.0000,1.5381,flat,18.0,1,5.084
5170,165.44,8.2264,2.7968,0.1799,0.0001,-0.0000,1.7862,flat,18.0,1,4.737
5180,165.76,8.0894,3.3085,0.1799,0.0001,-0.0000,1.9725,flat,18.0,1,4.323
5190,166.08,7.8582,3.7925,0.1799,0.0002,-0.0000,2.1144,flat,18.0,1,3.868
5200,166.40,7.5580,4.2452,0.1798,0.0003,-0.0000,2.2251,flat,18.0,1,3.389
5210,166.72,7.2086,4.6669,0.1798,0.0004,-0.0000,2.3182,flat,18.0,1,2.897
5220,167.04,6.8202,5.0511,0.1798,0.0004,-0.0000,2.4172,flat,18.0,1,2.403
5230,167.36,6.3946,5.3967,0.1798,0.0004,-0.0000,2.5266,flat,18.0,1,1.907
5240,167.68,5.9337,5.6945,0.1799,0.0002,-0.0000,2.6563,flat,18.0,1,1.414
5250,168.00,5.4419,5.9283,0.1799,0.0001,0.0000,2.8310,flat,18.0,1,0.939
5260,168.32,4.9144,6.0688,0.1798,0.0008,-0.0007,2.9955,flat,18.0,2,12.697
5270,168.64,4.3599,6.1365,0.1798,0.0004,-0.0000,3.1080,flat,18.0,2,12.192
5280,168.96,3.7981,6.1447,0.1798,0.0004,-0.0000,-3.0870,flat,18.0,2,11.665
5290,169.28,3.2355,6.1059,0.1797,0.0003,-0.0000,-3.0204,flat,18.0,2,11.124
5300,169.60,2.6750,6.0311,0.1797,0.0002,-0.0000,-2.9687,flat,18.0,2,10.574
5310,169.92,2.1178,5.9281,0.1797,0.0001,-0.0000,-2.9281,flat,18.0,2,10.018
5320,170.24,1.5644,5.8033,0.1797,0.0001,-0.0000,-2.8956,flat,18.0,2,9.459
5330,170.56,1.0142,5.6609,0.1797,0.0001,-0.0000,-2.8680,flat,18.0,2,8.897
5340,170.88,0.4671,5.5035,0.1797,0.0001,-0.0000,-2.8442,flat,18.0,2,8.332
5350,171.20,-0.0769,5.3333,0.1797,0.0001,-0.0000,-2.8234,flat,18.0,2,7.765
5360,171.52,-0.6180,5.1519,0.1797,0.0001,-0.0000,-2.8051,flat,18.0,2,7.198
5370,171.84,-1.1563,4.9608,0.1797,0.0001,-0.0000,-2.7888,flat,18.0,2,6.629
5380,172.16,-1.6918,4.7609,0.1797,0.0001,-0.0000,-2.7740,flat,18.0,2,6.059
5390,172.48,-2.2247,4.5532,0.1797,0.0000,-0.0000,-2.7606,flat,18.0,2,5.489
5400,172.80,-2.7551,4.3383,0.1797,0.0000,-0.0000,-2.7481,flat,18.0,2,4.918
5410,173.12,-3.2830,4.1169,0.1797,0.0000,-0.0000,-2.7364,flat,18.0,2,4.346
5420,173.44,-3.8083,3.8893,0.1797,0.0000,-0.0000,-2.7251,flat,18.0,2,3.775
5430,173.76,-4.3311,3.6558,0.1797,0.0000,-0.0000,-2.7140,flat,18.0,2,3.203
5440,174.08,-4.8512,3.4165,0.1797,0.0000,0.0000,-2.7027,flat,18.0,2,2.631
5450,174.40,-5.3683,3.1714,0.1797,0.0000,0.0000,-2.6907,flat,18.0,2,2.060
5460,174.72,-5.8816,2.9200,0.1797,0.0000,0.0000,-2.6766,flat,18.0,2,1.490
5470,175.04,-6.3896,2.6614,0.1797,0.0001,0.0000,-2.6575,flat,18.0,2,0.921
5480,175.36,-6.8274,2.4145,0.1799,-0.0002,0.0000,-2.4829,flat,18.0,3,10.635
5490,175.68,-7.1700,2.0862,0.1799,0.0000,-0.0000,-2.2425,flat,18.0,3,10.408
5500,176.00,-7.4582,1.6603,0.1799,0.0000,-0.0000,-2.0254,flat,18.0,3,10.088
5510,176.32,-7.6693,1.1649,0.1799,0.0001,-0.0000,-1.8319,flat,18.0,3,9.693
5520,176.64,-7.7919,0.6287,0.1799,0.0001,-0.0000,-1.6701,flat,18.0,3,9.240
5530,176.96,-7.8318,0.0744,0.1799,0.0002,-0.0000,-1.5402,flat,18.0,3,8.747
5540,177.28,-7.8032,-0.4836,0.1798,0.0004,-0.0000,-1.4433,flat,18.0,3,8.229
5550,177.60,-7.7227,-1.0386,0.1798,0.0003,-0.0000,-1.3690,flat,18.0,3,7.696
5560,177.92,-7.6022,-1.5884,0.1797,0.0002,-0.0000,-1.3097,flat,18.0,3,7.153
5570,178.24,-7.4498,-2.1318,0.1797,0.0002,-0.0000,-1.2607,flat,18.0,3,6.603
5580,178.56,-7.2714,-2.6680,0.1797,0.0001,-0.0000,-1.2211,flat,18.0,3,6.048
5590,178.88,-7.0721,-3.1975,0.1797,0.0001,-0.0000,-1.1870,flat,18.0,3,5.491
5600,179.20,-6.8549,-3.7209,0.1797,0.0001,-0.0000,-1.1563,flat,18.0,3,4.931
5610,179.52,-6.6217,-4.2381,0.1797,0.0001,-0.0000,-1.1282,flat,18.0,3,4.370
5620,179.84,-6.3741,-4.7490,0.1797,0.0001,-0.0000,-1.1019,flat,18.0,3,3.807
5630,180.16,-6.1130,-5.2533,0.1797,0.0001,-0.0000,-1.0765,flat,18.0,3,3.244
5640,180.48,-5.8391,-5.7508,0.1797,0.0001,0.0000,-1.0511,flat,18.0,3,2.681
5650,180.80,-5.5526,-6.2405,0.1797,0.0001,0.0000,-1.0245,flat,18.0,3,2.118
5660,181.12,-5.2531,-6.7210,0.1797,0.0001,0.0000,-0.9944,flat,18.0,3,1.556
5670,181.44,-4.9393,-7.1888,0.1797,0.0001,0.0000,-0.9555,flat,18.0,3,0.999
5680,181.76,-4.6460,-7.5781,0.1798,-0.0002,0.0001,-0.7656,flat,18.0,0,16.071
5690,182.08,-4.2942,-7.8471,0.1799,0.0000,-0.0000,-0.4701,flat,18.0,0,15.956
5700,182.40,-3.8411,-8.0404,0.1799,0.0001,-0.0000,-0.2004,flat,18.0,0,15.726
5710,182.72,-3.3254,-8.1198,0.1799,0.0001,0.0000,0.0298,flat,18.0,0,15.386
5720,183.04,-2.7877,-8.0832,0.1799,0.0001,-0.0000,0.2069,flat,18.0,0,14.961
5730,183.36,-2.2559,-7.9545,0.1799,0.0003,-0.0000,0.3310,flat,18.0,0,14.485
5740,183.68,-1.7380,-7.7617,0.1798,0.0004,-0.0000,0.4216,flat,18.0,0,13.978
5750,184.00,-1.2350,-7.5229,0.1798,0.0003,-0.0000,0.4913,flat,18.0,0,13.453
5760,184.32,-0.7461,-7.2494,0.1797,0.0002,-0.0000,0.5468,flat,18.0,0,12.916
5770,184.64,-0.2706,-6.9488,0.1797,0.0002,-0.0000,0.5912,flat,18.0,0,12.370
5780,184.96,0.1930,-6.6274,0.1797,0.0001,-0.0000,0.6271,flat,18.0,0,11.818
5790,185.28,0.6467,-6.2892,0.1797,0.0001,-0.0000,0.6579,flat,18.0,0,11.262
5800,185.60,1.0912,-5.9370,0.1797,0.0001,-0.0000,0.6846,flat,18.0,0,10.703
5810,185.92,1.5274,-5.5729,0.1797,0.0001,-0.0000,0.7081,flat,18.0,0,10.141
5820,186.24,1.9561,-5.1986,0.1797,0.0001,-0.0000,0.7294,flat,18.0,0,9.577
5830,186.56,2.3778,-4.8150,0.1797,0.0001,-0.0000,0.7488,flat,18.0,0,9.011
5840,186.88,2.7926,-4.4233,0.1797,0.0001,-0.0000,0.7664,flat,18.0,0,8.444
5850,187.20,3.2012,-4.0242,0.1797,0.0001,-0.0000,0.7822,flat,18.0,0,7.876
5860,187.52,3.6040,-3.6187,0.1797,0.0001,-0.0000,0.7967,flat,18.0,0,7.307
5870,187.84,4.0011,-3.2073,0.1797,0.0000,-0.0000,0.8102,flat,18.0,0,6.737
5880,188.16,4.3930,-2.7905,0.1797,0.0000,-0.0000,0.8229,flat,18.0,0,6.167
5890,188.48,4.7798,-2.3687,0.1797,0.0000,-0.0000,0.8349,flat,18.0,0,5.596
5900,188.80,5.1617,-1.9424,0.1797,0.0000,-0.0000,0.8463,flat,18.0,0,5.025
5910,189.12,5.5390,-1.5118,0.1797,0.0000,-0.0000,0.8571,flat,18.0,0,4.454
5920,189.44,5.9117,-1.0772,0.1797,0.0000,-0.0000,0.8677,flat,18.0,0,3.882
5930,189.76,6.2797,-0.6387,0.1797,0.0000,0.0000,0.8784,flat,18.0,0,3.311
5940,190.08,6.6429,-0.1964,0.1797,0.0000,0.0000,0.8895,flat,18.0,0,2.740
5950,190.40,7.0008,0.2499,0.1797,0.0000,0.0000,0.9016,flat,18.0,0,2.169
5960,190.72,7.3526,0.7003,0.1797,0.0000,0.0000,0.9159,flat,18.0,0,1.599
5970,191.04,7.6964,1.1551,0.1797,0.0001,0.0000,0.9352,flat,18.0,0,1.030
5980,191.36,7.9941,1.5856,0.1798,-0.0002,0.0001,1.0857,flat,18.0,1,5.421
5990,191.68,8.1883,2.0304,0.1799,0.0000,-0.0000,1.3961,flat,18.0,1,5.222
6000,192.00,8.2469,2.4947,0.1799,-0.0003,0.0001,1.6159,flat,18.0,1,4.947
6010,192.32,8.1990,3.0126,0.1799,0.0002,0.0000,1.8470,flat,18.0,1,4.584
6020,192.64,8.0309,3.5160,0.1799,0.0001,-0.0000,2.0211,flat,18.0,1,4.160
6030,192.96,7.7758,3.9888,0.1799,0.0002,-0.0000,2.1565,flat,18.0,1,3.700
6040,193.28,7.4561,4.4302,0.1798,0.0004,-0.0000,2.2597,flat,18.0,1,3.218
6050,193.60,7.0918,4.8372,0.1798,0.0004,-0.0000,2.3571,flat,18.0,1,2.728
6060,193.92,6.6883,5.2057,0.1798,0.0004,-0.0000,2.4613,flat,18.0,1,2.235
6070,194.24,6.2477,5.5323,0.1799,0.0003,-0.0000,2.5787,flat,18.0,1,1.740
6080,194.56,5.7726,5.8052,0.1799,0.0001,0.0000,2.7227,flat,18.0,1,1.253
6090,194.88,5.2703,6.0047,0.1799,0.0000,0.0000,2.9282,flat,18.0,2,13.017
6100,195.20,4.7247,6.1089,0.1798,0.0004,-0.0001,3.0491,flat,18.0,2,12.529
6110,195.52,4.1658,6.1487,0.1798,0.0004,-0.0000,-3.1330,flat,18.0,2,12.013
6120,195.84,3.6030,6.1345,0.1798,0.0003,-0.0000,-3.0557,flat,18.0,2,11.478
6130,196.16,3.0411,6.0788,0.1797,0.0002,-0.0000,-2.9969,flat,18.0,2,10.933
6140,196.48,2.4816,5.9912,0.1797,0.0002,-0.0000,-2.9500,flat,18.0,2,10.380
6150,196.80,1.9262,5.8783,0.1797,0.0001,-0.0000,-2.9142,flat,18.0,2,9.822
6160,197.12,1.3740,5.7460,0.1797,0.0001,-0.0000,-2.8841,flat,18.0,2,9.261
6170,197.44,0.8249,5.5974,0.1797,0.0001,-0.0000,-2.8584,flat,18.0,2,8.698
6180,197.76,0.2789,5.4349,0.1797,0.0001,-0.0000,-2.8362,flat,18.0,2,8.132
6190,198.08,-0.2641,5.2604,0.1797,0.0001,-0.0000,-2.8167,flat,18.0,2,7.565
6200,198.40,-0.8043,5.0754,0.1797,0.0001,-0.0000,-2.7994,flat,18.0,2,6.996
6210,198.72,-1.3417,4.8812,0.1797,0.0001,-0.0000,-2.7839,flat,18.0,2,6.427
6220,199.04,-1.8764,4.6787,0.1797,0.0001,-0.0000,-2.7699,flat,18.0,2,5.857
6230,199.36,-2.4087,4.4688,0.1797,0.0000,-0.0000,-2.7570,flat,18.0,2,5.286
6240,199.68,-2.9384,4.2521,0.1797,0.0000,-0.0000,-2.7450,flat,18.0,2,4.715
6250,200.00,-3.4657,4.0290,0.1797,0.0000,-0.0000,-2.7336,flat,18.0,2,4.144
6260,200.32,-3.9905,3.8000,0.1797,0.0000,-0.0000,-2.7226,flat,18.0,2,3.572
6270,200.64,-4.5128,3.5652,0.1797,0.0000,0.0000,-2.7117,flat,18.0,2,3.000
6280,200.96,-5.0323,3.3247,0.1797,0.0000,0.0000,-2.7003,flat,18.0,2,2.428
6290,201.28,-5.5487,3.0783,0.1797,0.0000,0.0000,-2.6879,flat,18.0,2,1.857
6300,201.60,-6.0610,2.8255,0.1797,0.0001,0.0000,-2.6728,flat,18.0,2,1.287
6310,201.92,-6.5640,2.5684,0.1797,0.0000,0.0002,-2.6343,flat,18.0,3,10.724
6320,202.24,-6.9485,2.3089,0.1799,0.0000,-0.0000,-2.3853,flat,18.0,3,10.563
6330,202.56,-7.2719,1.9386,0.1799,0.0000,-0.0000,-2.1572,flat,18.0,3,10.296
6340,202.88,-7.5331,1.4828,0.1799,0.0001,-0.0000,-1.9487,flat,18.0,3,9.945
6350,203.20,-7.7110,0.9684,0.1799,0.0001,-0.0000,-1.7669,flat,18.0,3,9.525
6360,203.52,-7.8012,0.4232,0.1799,0.0001,-0.0000,-1.6179,flat,18.0,3,9.054
6370,203.84,-7.8135,-0.1338,0.1799,0.0004,-0.0000,-1.5011,flat,18.0,3,8.550
6380,204.16,-7.7640,-0.6912,0.1798,0.0004,-0.0000,-1.4141,flat,18.0,3,8.025
6390,204.48,-7.6679,-1.2446,0.1797,0.0003,-0.0000,-1.3463,flat,18.0,3,7.488
6400,204.80,-7.5352,-1.7923,0.1797,0.0002,-0.0000,-1.2914,flat,18.0,3,6.941
6410,205.12,-7.3731,-2.3334,0.1797,0.0002,-0.0000,-1.2459,flat,18.0,3,6.389
6420,205.44,-7.1870,-2.8671,0.1797,0.0001,-0.0000,-1.2092,flat,18.0,3,5.834
6430,205.76,-6.9815,-3.3947,0.1797,0.0001,-0.0000,-1.1766,flat,18.0,3,5.275
6440,206.08,-6.7588,-3.9161,0.1797,0.0001,-0.0000,-1.1470,flat,18.0,3,4.715
6450,206.40,-6.5208,-4.4313,0.1797,0.0001,-0.0000,-1.1197,flat,18.0,3,4.153
6460,206.72,-6.2688,-4.9402,0.1797,0.0001,-0.0000,-1.0938,flat,18.0,3,3.590
6470,207.04,-6.0037,-5.4424,0.1797,0.0001,-0.0000,-1.0686,flat,18.0,3,3.027
6480,207.36,-5.7258,-5.9376,0.1797,0.0001,0.0000,-1.0429,flat,18.0,3,2.463
6490,207.68,-5.4353,-6.4246,0.1797,0.0001,0.0000,-1.0154,flat,18.0,3,1.901
6500,208.00,-5.1314,-6.9014,0.1797,0.0001,0.0000,-0.9829,flat,18.0,3,1.341
6510,208.32,-4.8125,-7.3634,0.1797,0.0002,0.0000,-0.9376,flat,18.0,0,16.078
6520,208.64,-4.5238,-7.6838,0.1799,-0.0002,-0.0000,-0.6480,flat,18.0,0,16.037
6530,208.96,-4.1284,-7.9299,0.1799,0.0000,-0.0000,-0.3605,flat,18.0,0,15.878
6540,209.28,-3.6460,-8.0814,0.1799,0.0001,-0.0000,-0.1046,flat,18.0,0,15.603
6550,209.60,-3.1170,-8.1134,0.1799,0.0001,0.0000,0.1061,flat,18.0,0,15.225
6560,209.92,-2.5798,-8.0370,0.1799,0.0001,-0.0000,0.2610,flat,18.0,0,14.777
6570,210.24,-2.0531,-7.8804,0.1798,0.0004,-0.0000,0.3695,flat,18.0,0,14.287
6580,210.56,-1.5410,-7.6679,0.1798,0.0004,-0.0000,0.4508,flat,18.0,0,13.772
6590,210.88,-1.0436,-7.4144,0.1797,0.0002,-0.0000,0.5143,flat,18.0,0,13.242
6600,211.20,-0.5599,-7.1297,0.1797,0.0002,-0.0000,0.5654,flat,18.0,0,12.701
6610,211.52,-0.0893,-6.8202,0.1797,0.0001,-0.0000,0.6058,flat,18.0,0,12.152
6620,211.84,0.3704,-6.4920,0.1797,0.0001,-0.0000,0.6395,flat,18.0,0,11.599
6630,212.16,0.8204,-6.1481,0.1797,0.0001,-0.0000,0.6686,flat,18.0,0,11.041
6640,212.48,1.2617,-5.7912,0.1797,0.0001,-0.0000,0.6939,flat,18.0,0,10.481
6650,212.80,1.6950,-5.4230,0.1797,0.0001,-0.0000,0.7164,flat,18.0,0,9.918
6660,213.12,2.1210,-5.0451,0.1797,0.0001,-0.0000,0.7369,flat,18.0,0,9.353
6670,213.44,2.5401,-4.6583,0.1797,0.0001,-0.0000,0.7556,flat,18.0,0,8.787
6680,213.76,2.9526,-4.2637,0.1797,0.0001,-0.0000,0.7724,flat,18.0,0,8.219
6690,214.08,3.3589,-3.8622,0.1797,0.0001,-0.0000,0.7877,flat,18.0,0,7.651
6700,214.40,3.7596,-3.4544,0.1797,0.0000,-0.0000,0.8017,flat,18.0,0,7.081
6710,214.72,4.1548,-3.0410,0.1797,0.0000,-0.0000,0.8149,flat,18.0,0,6.511
6720,215.04,4.5448,-2.6223,0.1797,0.0000,-0.0000,0.8273,flat,18.0,0,5.941
6730,215.36,4.9299,-2.1988,0.1797,0.0000,-0.0000,0.8391,flat,18.0,0,5.370
6740,215.68,5.3101,-1.7710,0.1797,0.0000,-0.0000,0.8502,flat,18.0,0,4.799
6750,216.00,5.6858,-1.3389,0.1797,0.0000,-0.0000,0.8609,flat,18.0,0,4.227
6760,216.32,6.0568,-0.9030,0.1797,0.0000,-0.0000,0.8715,flat,18.0,0,3.656
6770,216.64,6.4231,-0.4631,0.1797,0.0000,0.0000,0.8823,flat,18.0,0,3.085
6780,216.96,6.7845,-0.0194,0.1797,0.0000,0.0000,0.8937,flat,18.0,0,2.513
6790,217.28,7.1403,0.4284,0.1797,0.0000,0.0000,0.9065,flat,18.0,0,1.943
6800,217.60,7.4894,0.8803,0.1797,0.0001,0.0000,0.9222,flat,18.0,0,1.373
6810,217.92,7.8291,1.3367,0.1797,0.0001,0.0000,0.9455,flat,18.0,0,0.806
6820,218.24,8.0834,1.7513,0.1799,-0.0002,-0.0000,1.2108,flat,18.0,1,5.354
6830,218.56,8.2300,2.2269,0.1799,-0.0001,-0.0001,1.5143,flat,18.0,1,5.114
6840,218.88,8.2474,2.6990,0.1798,0.0001,-0.0001,1.6928,flat,18.0,1,4.815
6850,219.20,8.1588,3.2158,0.1799,0.0001,-0.0000,1.9086,flat,18.0,1,4.433
6860,219.52,7.9594,3.7092,0.1799,0.0001,-0.0000,2.0702,flat,18.0,1,3.998
6870,219.84,7.6803,4.1701,0.1799,0.0003,-0.0000,2.1975,flat,18.0,1,3.532
6880,220.16,7.3428,4.5996,0.1798,0.0004,-0.0000,2.2958,flat,18.0,1,3.047
6890,220.48,6.9635,4.9913,0.1798,0.0004,-0.0000,2.3967,flat,18.0,1,2.557
6900,220.80,6.5453,5.3443,0.1798,0.0004,-0.0000,2.5063,flat,18.0,1,2.065
6910,221.12,6.0905,5.6510,0.1799,0.0003,-0.0000,2.6324,flat,18.0,1,1.573
6920,221.44,5.6028,5.8974,0.1799,0.0001,0.0000,2.7934,flat,18.0,1,1.092
6930,221.76,5.0917,6.0529,0.1799,0.0002,-0.0001,2.9641,flat,18.0,2,12.861
6940,222.08,4.5421,6.1358,0.1799,0.0003,-0.0000,3.0806,flat,18.0,2,12.364
6950,222.40,3.9814,6.1587,0.1798,0.0004,-0.0000,-3.1080,flat,18.0,2,11.842
6960,222.72,3.4187,6.1311,0.1798,0.0003,-0.0000,-3.0365,flat,18.0,2,11.304
6970,223.04,2.8575,6.0650,0.1797,0.0002,-0.0000,-2.9815,flat,18.0,2,10.756
6980,223.36,2.2991,5.9690,0.1797,0.0002,-0.0000,-2.9378,flat,18.0,2,10.202
6990,223.68,1.7449,5.8495,0.1797,0.0001,-0.0000,-2.9038,flat,18.0,2,9.643
7000,224.00,1.1938,5.7116,0.1797,0.0001,-0.0000,-2.8751,flat,18.0,2,9.082
7010,224.32,0.6458,5.5581,0.1797,0.0001,-0.0000,-2.8504,flat,18.0,2,8.518
7020,224.64,0.1009,5.3912,0.1797,0.0001,-0.0000,-2.8289,flat,18.0,2,7.952
7030,224.96,-0.4410,5.2128,0.1797,0.0001,-0.0000,-2.8101,flat,18.0,2,7.384
7040,225.28,-0.9800,5.0243,0.1797,0.0001,-0.0000,-2.7933,flat,18.0,2,6.815
7050,225.60,-1.5164,4.8268,0.1797,0.0001,-0.0000,-2.7782,flat,18.0,2,6.246
7060,225.92,-2.0501,4.6213,0.1797,0.0000,-0.0000,-2.7645,flat,18.0,2,5.675
7070,226.24,-2.5812,4.4085,0.1797,0.0000,-0.0000,-2.7518,flat,18.0,2,5.105
7080,226.56,-3.1099,4.1890,0.1797,0.0000,-0.0000,-2.7400,flat,18.0,2,4.533
7090,226.88,-3.6360,3.9633,0.1797,0.0000,-0.0000,-2.7287,flat,18.0,2,3.962
7100,227.20,-4.1597,3.7317,0.1797,0.0000,-0.0000,-2.7176,flat,18.0,2,3.390
7110,227.52,-4.6807,3.4943,0.1797,0.0000,0.0000,-2.7066,flat,18.0,2,2.818
7120,227.84,-5.1989,3.2511,0.1797,0.0000,0.0000,-2.6949,flat,18.0,2,2.247
7130,228.16,-5.7136,3.0019,0.1797,0.0000,0.0000,-2.6818,flat,18.0,2,1.676
7140,228.48,-6.2238,2.7460,0.1797,0.0001,0.0000,-2.6651,flat,18.0,2,1.107
7150,228.80,-6.6975,2.4981,0.1798,-0.0001,0.0002,-2.5579,flat,18.0,3,10.685
7160,229.12,-7.0547,2.2089,0.1799,0.0001,0.0004,-2.3109,rough,14.0,3,10.494
7170,229.44,-7.3530,1.8252,0.1799,0.0000,-0.0000,-2.0992,flat,18.0,3,10.212
7180,229.76,-7.5935,1.3510,0.1799,0.0000,-0.0000,-1.8967,flat,18.0,3,9.841
7190,230.08,-7.7475,0.8260,0.1799,0.0001,-0.0000,-1.7239,flat,18.0,3,9.406
7200,230.40,-7.8157,0.2762,0.1799,0.0002,-0.0000,-1.5832,flat,18.0,3,8.925
7210,230.72,-7.8097,-0.2817,0.1798,0.0004,-0.0000,-1.4753,flat,18.0,3,8.414
7220,231.04,-7.7464,-0.8383,0.1798,0.0004,-0.0000,-1.3943,flat,18.0,3,7.886
7230,231.36,-7.6396,-1.3902,0.1797,0.0002,-0.0000,-1.3303,flat,18.0,3,7.345
7240,231.68,-7.4983,-1.9361,0.1797,0.0002,-0.0000,-1.2782,flat,18.0,3,6.797
7250,232.00,-7.3291,-2.4752,0.1797,0.0002,-0.0000,-1.2353,flat,18.0,3,6.244
7260,232.32,-7.1373,-3.0072,0.1797,0.0001,-0.0000,-1.1997,flat,18.0,3,5.688
7270,232.64,-6.9268,-3.5330,0.1797,0.0001,-0.0000,-1.1680,flat,18.0,3,5.129
7280,232.96,-6.6997,-4.0527,0.1797,0.0001,-0.0000,-1.1392,flat,18.0,3,4.568
7290,233.28,-6.4577,-4.5662,0.1797,0.0001,-0.0000,-1.1123,flat,18.0,3,4.006
7300,233.60,-6.2019,-5.0732,0.1797,0.0001,-0.0000,-1.0867,flat,18.0,3,3.443
7310,233.92,-5.9332,-5.5735,0.1797,0.0001,-0.0000,-1.0615,flat,18.0,3,2.879
7320,234.24,-5.6518,-6.0666,0.1797,0.0001,0.0000,-1.0355,flat,18.0,3,2.316
7330,234.56,-5.3577,-6.5510,0.1797,0.0001,0.0000,-1.0071,flat,18.0,3,1.754
7340,234.88,-5.0499,-7.0244,0.1797,0.0001,0.0000,-0.9724,flat,18.0,3,1.195
7350,235.20,-4.7358,-7.4728,0.1797,0.0001,0.0003,-0.8902,flat,18.0,0,16.081
7360,235.52,-4.4317,-7.7654,0.1799,-0.0000,-0.0000,-0.5853,flat,18.0,0,16.014
7370,235.84,-4.0148,-7.9951,0.1799,0.0000,-0.0000,-0.3029,flat,18.0,0,15.831
7380,236.16,-3.5194,-8.1217,0.1799,0.0002,0.0000,-0.0556,flat,18.0,0,15.533
7390,236.48,-2.9857,-8.1288,0.1799,0.0001,-0.0000,0.1439,flat,18.0,0,15.138
7400,236.80,-2.4499,-8.0325,0.1799,0.0002,-0.0000,0.2878,flat,18.0,0,14.679
7410,237.12,-1.9264,-7.8620,0.1798,0.0004,-0.0000,0.3897,flat,18.0,0,14.183
7420,237.44,-1.4178,-7.6392,0.1798,0.0003,-0.0000,0.4668,flat,18.0,0,13.665
7430,237.76,-0.9238,-7.3778,0.1797,0.0002,-0.0000,0.5274,flat,18.0,0,13.132
7440,238.08,-0.4434,-7.0867,0.1797,0.0002,-0.0000,0.5764,flat,18.0,0,12.589
7450,238.40,0.0241,-6.7721,0.1797,0.0001,-0.0000,0.6150,flat,18.0,0,12.039
7460,238.72,0.4812,-6.4396,0.1797,0.0001,-0.0000,0.6477,flat,18.0,0,11.485
7470,239.04,0.9287,-6.0920,0.1797,0.0001,-0.0000,0.6759,flat,18.0,0,10.927
7480,239.36,1.3676,-5.7318,0.1797,0.0001,-0.0000,0.7006,flat,18.0,0,10.366
7490,239.68,1.7986,-5.3607,0.1797,0.0001,-0.0000,0.7227,flat,18.0,0,9.803
7500,240.00,2.2224,-4.9800,0.1797,0.0001,-0.0000,0.7429,flat,18.0,0,9.238
7510,240.32,2.6393,-4.5908,0.1797,0.0001,-0.0000,0.7613,flat,18.0,0,8.671
7520,240.64,3.0497,-4.1938,0.1797,0.0001,-0.0000,0.7777,flat,18.0,0,8.103
7530,240.96,3.4541,-3.7901,0.1797,0.0001,-0.0000,0.7927,flat,18.0,0,7.534
7540,241.28,3.8527,-3.3803,0.1797,0.0000,-0.0000,0.8066,flat,18.0,0,6.965
7550,241.60,4.2460,-2.9650,0.1797,0.0000,-0.0000,0.8196,flat,18.0,0,6.395
7560,241.92,4.6340,-2.5444,0.1797,0.0000,-0.0000,0.8320,flat,18.0,0,5.824
7570,242.24,5.0171,-2.1192,0.1797,0.0000,-0.0000,0.8435,flat,18.0,0,5.253
7580,242.56,5.3955,-1.6897,0.1797,0.0000,-0.0000,0.8546,flat,18.0,0,4.682
7590,242.88,5.7693,-1.2560,0.1797,0.0000,-0.0000,0.8652,flat,18.0,0,4.111
7600,243.20,6.1384,-0.8185,0.1797,0.0000,0.0000,0.8759,flat,18.0,0,3.539
7610,243.52,6.5027,-0.3770,0.1797,0.0000,0.0000,0.8868,flat,18.0,0,2.968
7620,243.84,6.8620,0.0683,0.1797,0.0000,0.0000,0.8984,flat,18.0,0,2.397
7630,244.16,7.2156,0.5177,0.1797,0.0000,0.0000,0.9117,flat,18.0,0,1.827
7640,244.48,7.5621,0.9713,0.1797,0.0001,0.0000,0.9284,flat,18.0,0,1.257
7650,244.80,7.8954,1.4263,0.1797,0.0001,0.0002,0.9704,flat,18.0,1,5.483
7660,245.12,8.1247,1.8423,0.1799,-0.0001,-0.0000,1.2755,flat,18.0,1,5.314
7670,245.44,8.2394,2.3178,0.1799,0.0000,-0.0002,1.5464,flat,18.0,1,5.059
7680,245.76,8.2312,2.8254,0.1800,-0.0001,-0.0000,1.7821,flat,18.0,1,4.723
7690,246.08,8.0968,3.3368,0.1799,0.0001,-0.0000,1.9707,flat,18.0,1,4.313
7700,246.40,7.8665,3.8204,0.1799,0.0001,-0.0000,2.1152,flat,18.0,1,3.861
7710,246.72,7.5658,4.2721,0.1798,0.0003,-0.0000,2.2277,flat,18.0,1,3.384
7720,247.04,7.2153,4.6923,0.1798,0.0004,-0.0000,2.3224,flat,18.0,1,2.894
7730,247.36,6.8253,5.0744,0.1798,0.0004,-0.0000,2.4229,flat,18.0,1,2.401
7740,247.68,6.3977,5.4174,0.1798,0.0004,-0.0000,2.5340,flat,18.0,1,1.906
7750,248.00,5.9347,5.7116,0.1799,0.0002,-0.0000,2.6656,flat,18.0,1,1.415
7760,248.32,5.4409,5.9409,0.1799,0.0001,0.0000,2.8423,flat,18.0,1,0.940
7770,248.64,4.9147,6.0748,0.1798,0.0000,0.0001,2.9975,flat,18.0,2,12.699
7780,248.96,4.3602,6.1419,0.1798,0.0004,-0.0000,3.1093,flat,18.0,2,12.194
7790,249.28,3.7983,6.1494,0.1798,0.0004,-0.0000,-3.0860,flat,18.0,2,11.667
7800,249.60,3.2358,6.1099,0.1797,0.0003,-0.0000,-3.0196,flat,18.0,2,11.126
7810,249.92,2.6753,6.0347,0.1797,0.0002,-0.0000,-2.9680,flat,18.0,2,10.576
7820,250.24,2.1182,5.9313,0.1797,0.0001,-0.0000,-2.9275,flat,18.0,2,10.020
7830,250.56,1.5649,5.8063,0.1797,0.0001,-0.0000,-2.8951,flat,18.0,2,9.461
7840,250.88,1.0147,5.6636,0.1797,0.0001,-0.0000,-2.8675,flat,18.0,2,8.898
7850,251.20,0.4677,5.5059,0.1797,0.0001,-0.0000,-2.8438,flat,18.0,2,8.333
7860,251.52,-0.0763,5.3355,0.1797,0.0001,-0.0000,-2.8231,flat,18.0,2,7.767
7870,251.84,-0.6174,5.1539,0.1797,0.0001,-0.0000,-2.8048,flat,18.0,2,7.199
7880,252.16,-1.1556,4.9626,0.1797,0.0001,-0.0000,-2.7885,flat,18.0,2,6.630
7890,252.48,-1.6910,4.7625,0.1797,0.0001,-0.0000,-2.7738,flat,18.0,2,6.060
7900,252.80,-2.2239,4.5547,0.1797,0.0000,-0.0000,-2.7603,flat,18.0,2,5.490
7910,253.12,-2.7542,4.3397,0.1797,0.0000,-0.0000,-2.7479,flat,18.0,2,4.919
7920,253.44,-3.2820,4.1182,0.1797,0.0000,-0.0000,-2.7361,flat,18.0,2,4.348
7930,253.76,-3.8073,3.8904,0.1797,0.0000,-0.0000,-2.7249,flat,18.0,2,3.776
7940,254.08,-4.3301,3.6568,0.1797,0.0000,-0.0000,-2.7138,flat,18.0,2,3.204
7950,254.40,-4.8502,3.4175,0.1797,0.0000,0.0000,-2.7026,flat,18.0,2,2.633
7960,254.72,-5.3672,3.1722,0.1797,0.0000,0.0000,-2.6905,flat,18.0,2,2.062
7970,255.04,-5.8805,2.9207,0.1797,0.0000,0.0000,-2.6765,flat,18.0,2,1.491
7980,255.36,-6.3884,2.6621,0.1797,0.0001,0.0000,-2.6574,flat,18.0,2,0.922
7990,255.68,-6.8263,2.4152,0.1799,-0.0002,0.0000,-2.4828,flat,18.0,3,10.635
8000,256.00,-7.1689,2.0868,0.1799,0.0000,-0.0000,-2.2425,flat,18.0,3,10.408
8010,256.32,-7.4571,1.6608,0.1799,0.0000,-0.0000,-2.0254,flat,18.0,3,10.089
8020,256.64,-7.6681,1.1654,0.1799,0.0001,-0.0000,-1.8320,flat,18.0,3,9.693
8030,256.96,-7.7908,0.6293,0.1799,0.0001,-0.0000,-1.6702,flat,18.0,3,9.240
8040,257.28,-7.8308,0.0750,0.1799,0.0002,-0.0000,-1.5402,flat,18.0,3,8.747
8050,257.60,-7.8021,-0.4830,0.1798,0.0004,-0.0000,-1.4434,flat,18.0,3,8.229
8060,257.92,-7.7217,-1.0381,0.1798,0.0003,-0.0000,-1.3691,flat,18.0,3,7.696
8070,258.24,-7.6013,-1.5878,0.1797,0.0002,-0.0000,-1.3098,flat,18.0,3,7.153
8080,258.56,-7.4490,-2.1313,0.1797,0.0002,-0.0000,-1.2608,flat,18.0,3,6.603
8090,258.88,-7.2706,-2.6675,0.1797,0.0001,-0.0000,-1.2212,flat,18.0,3,6.048
