step,time_s,x,y,z,roll,pitch,yaw,terrain,speed,target_idx,dist_to_target
10,0.32,-0.0575,1.3663,0.3158,0.1992,-0.1174,0.2156,rough,14.0,0,4.247
20,0.64,0.2227,1.4232,0.3473,0.1765,-0.1203,0.4923,rough,14.0,0,4.276
30,0.96,0.4916,1.5865,0.3823,0.1425,-0.1268,0.7319,rough,14.0,0,4.221
40,1.28,0.7716,1.8724,0.3743,0.1308,0.1274,0.9598,rough,14.0,0,4.086
50,1.60,0.9902,2.1651,0.3118,0.2528,0.2101,1.2122,rough,14.0,0,3.947
60,1.92,1.1241,2.5104,0.2172,0.3464,0.1686,1.4968,rough,14.0,0,3.745
70,2.24,1.2776,2.6934,0.1405,0.2834,0.0428,2.1033,rough,14.0,0,3.702
80,2.56,1.3629,2.7435,0.1324,0.2509,-0.1138,2.1018,rough,14.0,0,3.723
90,2.88,1.4455,2.8120,0.0783,0.2310,0.0472,2.1406,rough,14.0,0,3.731
100,3.20,1.5100,2.8546,0.0580,0.2225,0.0463,2.1463,rough,14.0,0,3.746
110,3.52,1.6024,2.9562,0.0139,0.2979,-0.0128,2.4468,rough,14.0,0,3.745
120,3.84,1.7002,3.0905,-0.0483,0.4124,-0.1133,2.6105,rough,14.0,0,3.731
130,4.16,1.7118,3.2136,-0.1048,0.3097,-0.1826,2.9839,rough,14.0,0,3.663
140,4.48,1.6922,3.2480,-0.1014,0.3341,-0.2620,3.1333,rough,14.0,0,3.627
150,4.80,1.6425,3.3191,-0.0872,0.2693,-0.6481,-2.9020,rough,14.0,0,3.544
160,5.12,1.6148,3.3571,-0.0280,1.4737,-1.3759,2.1695,rough,14.0,0,3.499
170,5.44,1.6634,3.2833,-0.2618,2.8855,0.2550,0.2469,rough,14.0,0,3.582
180,5.76,1.7439,3.3376,-0.3391,2.8723,0.4320,0.3259,rough,14.0,0,3.614
190,6.08,1.6022,3.3647,-0.2610,2.7465,0.5567,0.1725,rough,14.0,0,3.484
200,6.40,1.4802,3.4972,-0.2618,2.9150,0.8089,0.6147,rough,14.0,0,3.307
210,6.72,1.4236,3.6492,-0.3222,-2.9108,0.8585,1.4564,rough,14.0,0,3.173
220,7.04,1.4295,3.7619,-0.4493,-2.8079,0.4709,1.6800,rough,14.0,0,3.115
230,7.36,1.4528,3.7361,-0.4392,-2.8694,0.4746,1.5936,rough,14.0,0,3.148
240,7.68,1.4655,3.6357,-0.3765,-2.8824,0.5389,1.5278,rough,14.0,0,3.215
250,8.00,1.5160,3.5766,-0.3711,-2.7788,0.4282,1.7617,rough,14.0,0,3.290
260,8.32,1.5867,3.4047,-0.2942,-2.8109,0.5044,1.8329,rough,14.0,0,3.448
270,8.64,1.7287,3.1940,-0.2728,-2.6919,0.1010,2.0486,rough,14.0,0,3.689
280,8.96,1.9193,3.0282,-0.2841,-2.6086,-0.0218,2.2753,rough,14.0,0,3.941
290,9.28,2.1482,2.9881,-0.3499,-2.6120,-0.2758,2.8745,rough,14.0,0,4.147
300,9.60,2.4031,3.0728,-0.4911,-2.8479,-0.4771,-2.6205,rough,14.0,0,4.307
310,9.92,2.5355,3.2284,-0.6037,-2.8870,-0.4541,-2.6179,rough,14.0,0,4.335
320,10.24,2.7184,3.3529,-0.6965,-2.7909,-0.3947,-2.6979,rough,14.0,0,4.432
330,10.56,2.9576,3.4175,-0.7597,-2.7669,-0.2098,-2.7676,rough,14.0,0,4.615
340,10.88,3.1647,3.5140,-0.8108,-2.7633,-0.1569,-2.7944,rough,14.0,0,4.761
350,11.20,3.3211,3.6141,-0.8532,-2.7679,-0.1410,-2.8309,rough,14.0,0,4.866
360,11.52,3.4505,3.7303,-0.8963,-2.7720,-0.0817,-2.9029,rough,14.0,0,4.944
370,11.84,3.5891,3.8406,-0.9370,-2.8134,-0.1071,-2.8121,rough,14.0,0,5.037
380,12.16,3.7043,3.9361,-0.9707,-2.8436,-0.0354,-2.9815,rough,14.0,0,5.117
390,12.48,3.7243,3.9600,-0.9758,-2.8418,-0.0443,-2.8988,rough,14.0,0,5.129
400,12.80,3.6982,3.9686,-0.9730,-2.8264,-0.1529,-2.6109,rough,14.0,0,5.102
410,13.12,3.6678,4.0067,-0.9865,-2.8396,-0.1496,-2.6262,rough,14.0,0,5.061
420,13.44,3.5813,4.0434,-1.0057,-2.8880,-0.1582,-2.6020,rough,14.0,0,4.968
430,13.76,3.4682,4.0904,-1.0211,-2.9124,-0.1621,-2.5720,rough,14.0,0,4.846
440,14.08,3.4140,4.2120,-1.0505,-2.9102,-0.1484,-2.7472,rough,14.0,0,4.761
450,14.40,3.4367,4.2128,-1.0499,-2.8831,-0.0946,-2.9491,rough,14.0,0,4.783
460,14.72,3.5240,4.2147,-1.0553,-2.8826,-0.0732,-2.9160,rough,14.0,0,4.866
470,15.04,3.6359,4.2684,-1.0686,-2.8658,-0.0501,-2.9715,rough,14.0,0,4.961
480,15.36,3.6915,4.2720,-1.0635,-2.8410,-0.0439,-2.9777,rough,14.0,0,5.015
490,15.68,3.6555,4.2708,-1.0669,-2.8562,-0.0510,-2.9792,rough,14.0,0,4.980
500,16.00,3.5529,4.2865,-1.0788,-2.9185,-0.0783,-2.9544,rough,14.0,0,4.876
510,16.32,3.4912,4.2953,-1.0735,-2.9173,-0.1436,-2.7374,rough,14.0,0,4.815
520,16.64,3.4961,4.2966,-1.0727,-2.8940,-0.0977,-2.9401,rough,14.0,0,4.819
530,16.96,3.5566,4.2961,-1.0756,-2.8934,-0.0810,-2.9391,rough,14.0,0,4.878
540,17.28,3.6446,4.3001,-1.0769,-2.8708,-0.0559,-2.9699,rough,14.0,0,4.962
550,17.60,3.6733,4.3015,-1.0732,-2.8504,-0.0528,-2.9710,rough,14.0,0,4.990
560,17.92,3.6173,4.3063,-1.0774,-2.8908,-0.1126,-2.7012,rough,14.0,0,4.934
570,18.24,3.5232,4.3539,-1.0889,-2.9319,-0.1493,-2.7034,rough,14.0,0,4.832
580,18.56,3.5117,4.3714,-1.0899,-2.8999,-0.1049,-2.9812,rough,14.0,0,4.817
590,18.88,3.5551,4.3710,-1.0921,-2.8999,-0.0929,-2.9795,rough,14.0,0,4.859
600,19.20,3.6315,4.3739,-1.0947,-2.8875,-0.0834,-2.9507,rough,14.0,0,4.933
610,19.52,3.6750,4.3818,-1.0905,-2.8547,-0.1133,-2.7835,rough,14.0,0,4.973
620,19.84,3.6568,4.3909,-1.0931,-2.8786,-0.1299,-2.6894,rough,14.0,0,4.954
630,20.16,3.5811,4.3974,-1.0993,-2.9160,-0.1387,-2.7696,rough,14.0,0,4.878
640,20.48,3.4973,4.4173,-1.1004,-2.9101,-0.1192,-2.9879,rough,14.0,0,4.792
650,20.80,3.4723,4.4182,-1.0982,-2.9131,-0.1180,-2.9836,rough,14.0,0,4.768
660,21.12,3.5162,4.4179,-1.1005,-2.9038,-0.1172,-2.9838,rough,14.0,0,4.811
670,21.44,3.6108,4.4193,-1.1044,-2.9024,-0.0887,-2.9681,rough,14.0,0,4.903
680,21.76,3.6779,4.4228,-1.1012,-2.8629,-0.0733,-2.9710,rough,14.0,0,4.968
690,22.08,3.6819,4.4230,-1.1010,-2.8608,-0.0725,-2.9707,rough,14.0,0,4.972
700,22.40,3.6364,4.4215,-1.1034,-2.8851,-0.0856,-2.9728,rough,14.0,0,4.927
710,22.72,3.5550,4.4228,-1.1049,-2.9242,-0.1382,-2.8210,rough,14.0,0,4.848
720,23.04,3.5245,4.4292,-1.1036,-2.9095,-0.1261,-2.9438,rough,14.0,0,4.816
730,23.36,3.5546,4.4305,-1.1056,-2.9096,-0.1179,-2.9455,rough,14.0,0,4.845
740,23.68,3.6236,4.4360,-1.1077,-2.8944,-0.0862,-3.0009,rough,14.0,0,4.912
750,24.00,3.6538,4.4369,-1.1061,-2.8775,-0.0790,-2.9990,rough,14.0,0,4.941
760,24.32,3.6364,4.4352,-1.1047,-2.8888,-0.1288,-2.7914,rough,14.0,0,4.924
770,24.64,3.5723,4.4499,-1.1116,-2.9358,-0.1393,-2.7862,rough,14.0,0,4.859
780,24.96,3.5317,4.4601,-1.1106,-2.9104,-0.1156,-3.0046,rough,14.0,0,4.817
790,25.28,3.5507,4.4600,-1.1116,-2.9074,-0.1146,-3.0049,rough,14.0,0,4.835
800,25.60,3.6100,4.4616,-1.1163,-2.9261,-0.0891,-2.9780,rough,14.0,0,4.893
810,25.92,3.6300,4.4639,-1.1123,-2.9093,-0.1373,-2.7574,rough,14.0,0,4.912
820,26.24,3.6098,4.4838,-1.1177,-2.9298,-0.1430,-2.7397,rough,14.0,0,4.888
830,26.56,3.5783,4.4943,-1.1207,-2.9089,-0.1111,-3.0265,rough,14.0,0,4.856
840,26.88,3.5903,4.4952,-1.1213,-2.9126,-0.1196,-2.9736,rough,14.0,0,4.867
850,27.20,3.6210,4.4958,-1.1212,-2.9042,-0.1112,-2.9702,rough,14.0,0,4.897
860,27.52,3.6122,4.4943,-1.1203,-2.9167,-0.1388,-2.8238,rough,14.0,0,4.889
870,27.84,3.5901,4.5044,-1.1231,-2.9103,-0.1138,-3.0104,rough,14.0,0,4.865
880,28.16,3.6102,4.5047,-1.1239,-2.9095,-0.1083,-3.0078,rough,14.0,0,4.885
890,28.48,3.6276,4.5051,-1.1235,-2.9030,-0.1036,-3.0062,rough,14.0,0,4.902
900,28.80,3.6117,4.5045,-1.1239,-2.9097,-0.1073,-3.0087,rough,14.0,0,4.886
910,29.12,3.5991,4.5053,-1.1237,-2.9117,-0.1117,-3.0054,rough,14.0,0,4.874
920,29.44,3.6116,4.5061,-1.1241,-2.9094,-0.1095,-3.0011,rough,14.0,0,4.886
930,29.76,3.6203,4.5062,-1.1241,-2.9071,-0.1073,-3.0006,rough,14.0,0,4.894
940,30.08,3.6182,4.5062,-1.1241,-2.9077,-0.1079,-3.0004,rough,14.0,0,4.892
950,30.40,3.6074,4.5061,-1.1242,-2.9111,-0.1108,-3.0006,rough,14.0,0,4.882
960,30.72,3.6016,4.5072,-1.1242,-2.9119,-0.1138,-2.9959,rough,14.0,0,4.876
970,31.04,3.6128,4.5088,-1.1244,-2.9084,-0.1105,-2.9988,rough,14.0,0,4.886
980,31.36,3.6215,4.5089,-1.1246,-2.9066,-0.1082,-2.9983,rough,14.0,0,4.895
990,31.68,3.6233,4.5090,-1.1245,-2.9060,-0.1078,-2.9981,rough,14.0,0,4.897
1000,32.00,3.6167,4.5089,-1.1246,-2.9082,-0.1096,-2.9981,rough,14.0,0,4.890
1010,32.32,3.5996,4.5120,-1.1249,-2.9160,-0.1231,-2.9460,rough,14.0,0,4.873
1020,32.64,3.6254,4.5223,-1.1280,-2.9085,-0.1070,-3.0138,rough,14.0,0,4.896
1030,32.96,3.6468,4.5230,-1.1269,-2.8970,-0.1016,-3.0124,rough,14.0,0,4.917
1040,33.28,3.6308,4.5224,-1.1273,-2.9036,-0.1054,-3.0150,rough,14.0,0,4.902
1050,33.60,3.6065,4.5223,-1.1275,-2.9113,-0.1122,-3.0149,rough,14.0,0,4.878
1060,33.92,3.6044,4.5233,-1.1276,-2.9109,-0.1144,-3.0105,rough,14.0,0,4.875
1070,34.24,3.6066,4.5243,-1.1278,-2.9110,-0.1146,-3.0056,rough,14.0,0,4.877
1080,34.56,3.6036,4.5252,-1.1279,-2.9128,-0.1153,-3.0004,rough,14.0,0,4.874
1090,34.88,3.6067,4.5271,-1.1283,-2.9110,-0.1157,-3.0027,rough,14.0,0,4.877
1100,35.20,3.6125,4.5273,-1.1283,-2.9080,-0.1159,-3.0024,rough,14.0,0,4.883
1110,35.52,3.6105,4.5273,-1.1283,-2.9078,-0.1178,-3.0026,rough,14.0,0,4.881
1120,35.84,3.6033,4.5280,-1.1282,-2.9127,-0.1159,-2.9977,rough,14.0,0,4.873
1130,36.16,3.6122,4.5375,-1.1321,-2.9265,-0.1018,-3.0154,rough,14.0,0,4.880
1140,36.48,3.6254,4.5385,-1.1307,-2.9056,-0.1110,-3.0178,rough,14.0,0,4.893
1150,36.80,3.6347,4.5386,-1.1305,-2.9025,-0.1082,-3.0174,rough,14.0,0,4.902
1160,37.12,3.6386,4.5387,-1.1305,-2.9012,-0.1072,-3.0171,rough,14.0,0,4.906
1170,37.44,3.6346,4.5389,-1.1288,-2.9216,-0.1378,-2.7914,rough,14.0,0,4.902
1180,37.76,3.6238,4.5481,-1.1305,-2.9315,-0.1385,-2.7766,rough,14.0,0,4.890
1190,38.08,3.6091,4.5565,-1.1340,-2.9174,-0.1168,-2.9889,rough,14.0,0,4.874
1200,38.40,3.6042,4.5575,-1.1340,-2.9198,-0.1176,-2.9835,rough,14.0,0,4.869
1210,38.72,3.6064,4.5586,-1.1342,-2.9198,-0.1184,-2.9776,rough,14.0,0,4.871
1220,39.04,3.6126,4.5603,-1.1345,-2.9163,-0.1178,-2.9820,rough,14.0,0,4.877
1230,39.36,3.6232,4.5604,-1.1345,-2.9111,-0.1178,-2.9822,rough,14.0,0,4.887
1240,39.68,3.6314,4.5606,-1.1344,-2.9068,-0.1178,-2.9822,rough,14.0,0,4.895
1250,40.00,3.6376,4.5607,-1.1344,-2.9035,-0.1178,-2.9822,rough,14.0,0,4.901
1260,40.32,3.6377,4.5608,-1.1344,-2.9035,-0.1179,-2.9819,rough,14.0,0,4.901
1270,40.64,3.6311,4.5607,-1.1333,-2.9238,-0.1342,-2.8254,rough,14.0,0,4.895
1280,40.96,3.6221,4.5757,-1.1379,-2.9128,-0.1138,-3.0112,rough,14.0,0,4.883
1290,41.28,3.6149,4.5757,-1.1379,-2.9168,-0.1138,-3.0111,rough,14.0,0,4.876
1300,41.60,3.6059,4.5761,-1.1378,-2.9206,-0.1141,-3.0087,rough,14.0,0,4.867
1310,41.92,3.6063,4.5780,-1.1383,-2.9210,-0.1138,-3.0112,rough,14.0,0,4.867
1320,42.24,3.6084,4.5811,-1.1452,-2.9475,-0.1087,-3.0509,rough,14.0,0,4.869
1330,42.56,3.6151,4.5821,-1.1396,-2.9215,-0.1108,-3.0151,rough,14.0,0,4.875
1340,42.88,3.6321,4.5825,-1.1391,-2.9087,-0.1132,-3.0167,rough,14.0,0,4.892
1350,43.20,3.6478,4.5828,-1.1390,-2.9003,-0.1130,-3.0170,rough,14.0,0,4.907
1360,43.52,3.6614,4.5830,-1.1388,-2.8931,-0.1129,-3.0174,rough,14.0,0,4.920
1370,43.84,3.6631,4.5828,-1.1377,-2.9006,-0.1314,-2.8909,rough,14.0,0,4.922
1380,44.16,3.6578,4.5954,-1.1395,-2.9212,-0.1344,-2.8010,rough,14.0,0,4.915
1390,44.48,3.6680,4.6143,-1.1431,-2.9226,-0.1312,-2.7980,rough,14.0,0,4.921
1400,44.80,3.6924,4.6313,-1.1467,-2.9045,-0.1189,-2.8859,rough,14.0,0,4.943
1410,45.12,3.7093,4.6366,-1.1475,-2.9062,-0.1084,-2.8805,rough,14.0,0,4.958
1420,45.44,3.7304,4.6474,-1.1494,-2.9003,-0.1059,-2.8745,rough,14.0,0,4.977
1430,45.76,3.7475,4.6550,-1.1507,-2.8977,-0.0987,-2.8778,rough,14.0,0,4.993
1440,46.08,3.7582,4.6616,-1.1520,-2.8966,-0.0936,-2.8813,rough,14.0,0,5.002
1450,46.40,3.7599,4.6696,-1.1534,-2.8988,-0.0897,-2.8956,rough,14.0,0,5.003
1460,46.72,3.7681,4.6765,-1.1541,-2.8996,-0.0899,-2.8901,rough,14.0,0,5.010
1470,47.04,3.7961,4.6841,-1.1549,-2.8935,-0.0836,-2.8858,rough,14.0,0,5.036
1480,47.36,3.8326,4.6884,-1.1543,-2.8876,-0.0645,-2.8775,rough,14.0,0,5.072
1490,47.68,3.8219,4.6881,-1.1549,-2.8907,-0.0711,-2.8790,rough,14.0,0,5.061
1500,48.00,3.7705,4.6875,-1.1556,-2.9069,-0.0881,-2.8777,rough,14.0,0,5.010
1510,48.32,3.7226,4.6912,-1.1566,-2.9227,-0.1045,-2.8691,rough,14.0,0,4.963
1520,48.64,3.6769,4.6912,-1.1572,-2.9508,-0.1011,-2.8648,rough,14.0,0,4.917
1530,48.96,3.6407,4.6976,-1.1585,-2.9537,-0.1007,-3.0113,rough,14.0,0,4.881
1540,49.28,3.6140,4.6971,-1.1587,-2.9637,-0.1057,-3.0122,rough,14.0,0,4.854
1550,49.60,3.6127,4.6991,-1.1588,-2.9684,-0.1006,-3.0091,rough,14.0,0,4.853
1560,49.92,3.6309,4.6995,-1.1588,-2.9554,-0.1062,-3.0105,rough,14.0,0,4.871
1570,50.24,3.6569,4.7000,-1.1587,-2.9457,-0.1012,-3.0101,rough,14.0,0,4.896
1580,50.56,3.6893,4.7024,-1.1587,-2.9315,-0.0976,-3.0150,rough,14.0,0,4.928
1590,50.88,3.7189,4.7029,-1.1585,-2.9210,-0.0910,-3.0148,rough,14.0,0,4.957
1600,51.20,3.7447,4.7034,-1.1583,-2.9118,-0.0853,-3.0146,rough,14.0,0,4.983
1610,51.52,3.7536,4.7068,-1.1586,-2.9202,-0.0914,-2.8913,rough,14.0,0,4.991
1620,51.84,3.7732,4.7132,-1.1593,-2.9155,-0.0875,-2.8902,rough,14.0,0,5.009
1630,52.16,3.8105,4.7164,-1.1594,-2.8959,-0.0893,-2.8868,rough,14.0,0,5.046
1640,52.48,3.8554,4.7173,-1.1586,-2.8925,-0.0609,-2.8811,rough,14.0,0,5.090
1650,52.80,3.8584,4.7175,-1.1584,-2.8918,-0.0591,-2.8803,rough,14.0,0,5.093
1660,53.12,3.8194,4.7174,-1.1594,-2.8946,-0.0862,-2.8832,rough,14.0,0,5.054
1670,53.44,3.7959,4.7192,-1.1599,-2.9074,-0.0885,-2.8754,rough,14.0,0,5.031
1680,53.76,3.7913,4.7215,-1.1603,-2.9109,-0.0891,-2.8717,rough,14.0,0,5.026
1690,54.08,3.8043,4.7246,-1.1607,-2.9078,-0.0865,-2.8684,rough,14.0,0,5.038
1700,54.40,3.8361,4.7285,-1.1609,-2.8995,-0.0656,-2.9385,rough,14.0,0,5.069
1710,54.72,3.8703,4.7293,-1.1598,-2.8951,-0.0434,-2.9331,rough,14.0,0,5.103
1720,55.04,3.8559,4.7289,-1.1606,-2.8981,-0.0532,-2.9352,rough,14.0,0,5.089
1730,55.36,3.8059,4.7289,-1.1612,-2.9015,-0.0961,-2.8691,rough,14.0,0,5.039
1740,55.68,3.7612,4.7300,-1.1619,-2.9299,-0.0935,-2.8569,rough,14.0,0,4.995
1750,56.00,3.7086,4.7330,-1.1628,-2.9479,-0.1086,-2.8557,rough,14.0,0,4.942
1760,56.32,3.6694,4.7368,-1.1639,-2.9568,-0.1011,-3.0014,rough,14.0,0,4.903
1770,56.64,3.6372,4.7423,-1.1651,-2.9736,-0.0996,-3.0349,rough,14.0,0,4.870
1780,56.96,3.6057,4.7423,-1.1651,-2.9890,-0.0998,-3.0307,rough,14.0,0,4.839
1790,57.28,3.6171,4.7428,-1.1653,-2.9819,-0.1035,-3.0298,rough,14.0,0,4.850
1800,57.60,3.6432,4.7433,-1.1652,-2.9714,-0.0997,-3.0290,rough,14.0,0,4.876
1810,57.92,3.6674,4.7439,-1.1650,-2.9577,-0.1009,-3.0296,rough,14.0,0,4.900
1820,58.24,3.6909,4.7443,-1.1648,-2.9493,-0.0959,-3.0291,rough,14.0,0,4.923
1830,58.56,3.7081,4.7462,-1.1649,-2.9517,-0.1027,-2.9066,rough,14.0,0,4.940
1840,58.88,3.7184,4.7471,-1.1647,-2.9457,-0.1022,-2.9149,rough,14.0,0,4.950
1850,59.20,3.7375,4.7482,-1.1646,-2.9419,-0.0940,-2.9159,rough,14.0,0,4.969
1860,59.52,3.7662,4.7500,-1.1646,-2.9314,-0.0889,-2.9145,rough,14.0,0,4.997
1870,59.84,3.8074,4.7524,-1.1645,-2.9173,-0.0804,-2.9120,rough,14.0,0,5.037
1880,60.16,3.8647,4.7545,-1.1643,-2.8948,-0.0712,-2.9096,rough,14.0,0,5.094
1890,60.48,3.9112,4.7552,-1.1626,-2.8923,-0.0350,-2.9029,rough,14.0,0,5.140
1900,60.80,3.9074,4.7552,-1.1628,-2.8935,-0.0371,-2.9032,rough,14.0,0,5.136
1910,61.12,3.8553,4.7541,-1.1643,-2.8988,-0.0724,-2.9107,rough,14.0,0,5.085
1920,61.44,3.8097,4.7535,-1.1647,-2.9116,-0.0871,-2.9118,rough,14.0,0,5.040
1930,61.76,3.7639,4.7536,-1.1652,-2.9344,-0.0896,-2.9113,rough,14.0,0,4.994
1940,62.08,3.7287,4.7547,-1.1656,-2.9454,-0.1005,-2.9112,rough,14.0,0,4.959
1950,62.40,3.7031,4.7554,-1.1660,-2.9577,-0.1022,-2.9129,rough,14.0,0,4.934
1960,62.72,3.6910,4.7561,-1.1662,-2.9630,-0.1043,-2.9134,rough,14.0,0,4.922
1970,63.04,3.6934,4.7568,-1.1663,-2.9592,-0.1075,-2.9151,rough,14.0,0,4.924
1980,63.36,3.7131,4.7577,-1.1662,-2.9546,-0.1000,-2.9161,rough,14.0,0,4.943
1990,63.68,3.7412,4.7591,-1.1661,-2.9424,-0.0973,-2.9158,rough,14.0,0,4.971
2000,64.00,3.7789,4.7605,-1.1660,-2.9327,-0.0843,-2.9152,rough,14.0,0,5.008
2010,64.32,3.8304,4.7626,-1.1658,-2.9138,-0.0751,-2.9110,rough,14.0,0,5.059
2020,64.64,3.8891,4.7636,-1.1654,-2.8994,-0.0541,-2.9085,rough,14.0,0,5.117
2030,64.96,3.9095,4.7643,-1.1644,-2.8958,-0.0400,-2.9044,rough,14.0,0,5.137
2040,65.28,3.8795,4.7641,-1.1655,-2.8995,-0.0610,-2.9067,rough,14.0,0,5.107
2050,65.60,3.8451,4.7636,-1.1658,-2.9078,-0.0740,-2.9081,rough,14.0,0,5.073
2060,65.92,3.8310,4.7634,-1.1659,-2.9143,-0.0753,-2.9076,rough,14.0,0,5.059
2070,66.24,3.8324,4.7636,-1.1659,-2.9079,-0.0825,-2.9091,rough,14.0,0,5.061
2080,66.56,3.8515,4.7641,-1.1658,-2.9014,-0.0779,-2.9088,rough,14.0,0,5.079
2090,66.88,3.8780,4.7644,-1.1656,-2.8996,-0.0627,-2.9064,rough,14.0,0,5.106
2100,67.20,3.8933,4.7636,-1.1652,-2.8993,-0.0500,-2.9100,rough,14.0,0,5.121
2110,67.52,3.8768,4.7630,-1.1654,-2.9000,-0.0607,-2.9138,rough,14.0,0,5.105
2120,67.84,3.8554,4.7628,-1.1656,-2.9035,-0.0708,-2.9149,rough,14.0,0,5.084
2130,68.16,3.8503,4.7628,-1.1657,-2.9064,-0.0706,-2.9144,rough,14.0,0,5.078
2140,68.48,3.8582,4.7631,-1.1656,-2.9010,-0.0721,-2.9150,rough,14.0,0,5.086
2150,68.80,3.8685,4.7633,-1.1656,-2.8995,-0.0675,-2.9143,rough,14.0,0,5.096
2160,69.12,3.8808,4.7634,-1.1655,-2.9003,-0.0584,-2.9125,rough,14.0,0,5.109
2170,69.44,3.8823,4.7635,-1.1655,-2.9004,-0.0574,-2.9122,rough,14.0,0,5.110
2180,69.76,3.8730,4.7635,-1.1656,-2.9002,-0.0639,-2.9131,rough,14.0,0,5.101
2190,70.08,3.8605,4.7635,-1.1657,-2.8989,-0.0738,-2.9146,rough,14.0,0,5.088
2200,70.40,3.8548,4.7636,-1.1657,-2.8994,-0.0768,-2.9149,rough,14.0,0,5.083
2210,70.72,3.8567,4.7636,-1.1657,-2.8995,-0.0755,-2.9145,rough,14.0,0,5.085
2220,71.04,3.8641,4.7638,-1.1657,-2.8985,-0.0720,-2.9139,rough,14.0,0,5.092
2230,71.36,3.8756,4.7639,-1.1656,-2.9001,-0.0626,-2.9120,rough,14.0,0,5.103
2240,71.68,3.8794,4.7641,-1.1656,-2.9003,-0.0600,-2.9114,rough,14.0,0,5.107
2250,72.00,3.8724,4.7641,-1.1656,-2.9002,-0.0648,-2.9120,rough,14.0,0,5.100
2260,72.32,3.8670,4.7641,-1.1657,-2.9001,-0.0686,-2.9124,rough,14.0,0,5.095
2270,72.64,3.8765,4.7643,-1.1656,-2.9002,-0.0622,-2.9112,rough,14.0,0,5.104
2280,72.96,3.8784,4.7644,-1.1656,-2.9003,-0.0609,-2.9108,rough,14.0,0,5.106
2290,73.28,3.8696,4.7644,-1.1657,-2.9001,-0.0671,-2.9116,rough,14.0,0,5.097
2300,73.60,3.8685,4.7645,-1.1657,-2.9001,-0.0679,-2.9116,rough,14.0,0,5.096
2310,73.92,3.8783,4.7647,-1.1657,-2.9002,-0.0613,-2.9103,rough,14.0,0,5.106
2320,74.24,3.8785,4.7647,-1.1657,-2.9002,-0.0612,-2.9101,rough,14.0,0,5.106
2330,74.56,3.8691,4.7647,-1.1658,-2.9001,-0.0677,-2.9110,rough,14.0,0,5.097
2340,74.88,3.8721,4.7649,-1.1658,-2.9002,-0.0658,-2.9105,rough,14.0,0,5.100
2350,75.20,3.8757,4.7650,-1.1657,-2.9002,-0.0634,-2.9099,rough,14.0,0,5.103
2360,75.52,3.8698,4.7650,-1.1658,-2.9001,-0.0675,-2.9104,rough,14.0,0,5.097
2370,75.84,3.8746,4.7651,-1.1658,-2.9002,-0.0643,-2.9097,rough,14.0,0,5.102
2380,76.16,3.8756,4.7652,-1.1658,-2.9002,-0.0638,-2.9094,rough,14.0,0,5.103
2390,76.48,3.8694,4.7653,-1.1658,-2.9001,-0.0680,-2.9100,rough,14.0,0,5.097
2400,76.80,3.8751,4.7654,-1.1658,-2.9002,-0.0642,-2.9091,rough,14.0,0,5.103
2410,77.12,3.8735,4.7655,-1.1658,-2.9001,-0.0655,-2.9092,rough,14.0,0,5.101
2420,77.44,3.8731,4.7656,-1.1658,-2.9001,-0.0657,-2.9090,rough,14.0,0,5.101
2430,77.76,3.8738,4.7657,-1.1659,-2.9001,-0.0654,-2.9088,rough,14.0,0,5.101
2440,78.08,3.8745,4.7658,-1.1659,-2.9001,-0.0650,-2.9085,rough,14.0,0,5.102
2450,78.40,3.8727,4.7658,-1.1659,-2.9001,-0.0663,-2.9086,rough,14.0,0,5.100
2460,78.72,3.8755,4.7659,-1.1659,-2.9001,-0.0645,-2.9081,rough,14.0,0,5.103
2470,79.04,3.8724,4.7660,-1.1659,-2.9001,-0.0667,-2.9083,rough,14.0,0,5.100
2480,79.36,3.8774,4.7661,-1.1659,-2.9002,-0.0634,-2.9075,rough,14.0,0,5.105
2490,79.68,3.8727,4.7662,-1.1659,-2.9001,-0.0667,-2.9079,rough,14.0,0,5.100
2500,80.00,3.8754,4.7663,-1.1659,-2.9001,-0.0648,-2.9074,rough,14.0,0,5.103
2510,80.32,3.8789,4.7664,-1.1659,-2.9002,-0.0626,-2.9068,rough,14.0,0,5.106
2520,80.64,3.8729,4.7664,-1.1660,-2.9001,-0.0668,-2.9074,rough,14.0,0,5.100
2530,80.96,3.8777,4.7666,-1.1660,-2.9002,-0.0636,-2.9066,rough,14.0,0,5.105
2540,81.28,3.8787,4.7667,-1.1660,-2.9002,-0.0630,-2.9064,rough,14.0,0,5.106
2550,81.60,3.8725,4.7667,-1.1660,-2.9001,-0.0673,-2.9069,rough,14.0,0,5.100
2560,81.92,3.8784,4.7669,-1.1660,-2.9001,-0.0634,-2.9061,rough,14.0,0,5.106
2570,82.24,3.8769,4.7669,-1.1660,-2.9001,-0.0645,-2.9061,rough,14.0,0,5.104
2580,82.56,3.8768,4.7670,-1.1660,-2.9001,-0.0646,-2.9059,rough,14.0,0,5.104
2590,82.88,3.8777,4.7671,-1.1660,-2.9001,-0.0642,-2.9056,rough,14.0,0,5.105
2600,83.20,3.8751,4.7672,-1.1661,-2.9001,-0.0660,-2.9057,rough,14.0,0,5.102
2610,83.52,3.8784,4.7673,-1.1660,-2.9001,-0.0638,-2.9052,rough,14.0,0,5.106
2620,83.84,3.8746,4.7674,-1.1661,-2.9001,-0.0665,-2.9055,rough,14.0,0,5.102
2630,84.16,3.8791,4.7675,-1.1661,-2.9001,-0.0635,-2.9048,rough,14.0,0,5.106
2640,84.48,3.8752,4.7675,-1.1661,-2.9001,-0.0662,-2.9051,rough,14.0,0,5.102
2650,84.80,3.8798,4.7677,-1.1661,-2.9001,-0.0632,-2.9044,rough,14.0,0,5.107
2660,85.12,3.8770,4.7677,-1.1661,-2.9001,-0.0652,-2.9045,rough,14.0,0,5.104
2670,85.44,3.8757,4.7678,-1.1661,-2.9001,-0.0661,-2.9045,rough,14.0,0,5.103
2680,85.76,3.8813,4.7680,-1.1661,-2.9001,-0.0624,-2.9037,rough,14.0,0,5.108
2690,86.08,3.8761,4.7680,-1.1662,-2.9001,-0.0661,-2.9041,rough,14.0,0,5.103
2700,86.40,3.8784,4.7681,-1.1662,-2.9001,-0.0645,-2.9037,rough,14.0,0,5.106
2710,86.72,3.8817,4.7682,-1.1661,-2.9001,-0.0624,-2.9031,rough,14.0,0,5.109
2720,87.04,3.8754,4.7683,-1.1662,-2.9000,-0.0668,-2.9037,rough,14.0,0,5.103
2730,87.36,3.8802,4.7684,-1.1662,-2.9001,-0.0636,-2.9030,rough,14.0,0,5.107
2740,87.68,3.8811,4.7685,-1.1662,-2.9001,-0.0631,-2.9027,rough,14.0,0,5.108
2750,88.00,3.8750,4.7685,-1.1663,-2.9000,-0.0673,-2.9032,rough,14.0,0,5.102
2760,88.32,3.8811,4.7687,-1.1662,-2.9001,-0.0633,-2.9024,rough,14.0,0,5.108
2770,88.64,3.8798,4.7688,-1.1662,-2.9001,-0.0643,-2.9023,rough,14.0,0,5.107
2780,88.96,3.8799,4.7688,-1.1663,-2.9001,-0.0642,-2.9021,rough,14.0,0,5.107
2790,89.28,3.8812,4.7689,-1.1663,-2.9001,-0.0635,-2.9018,rough,14.0,0,5.108
2800,89.60,3.8790,4.7690,-1.1663,-2.9001,-0.0650,-2.9019,rough,14.0,0,5.106
2810,89.92,3.8782,4.7691,-1.1663,-2.9001,-0.0657,-2.9018,rough,14.0,0,5.105
2820,90.24,3.8822,4.7692,-1.1663,-2.9001,-0.0631,-2.9012,rough,14.0,0,5.109
2830,90.56,3.8777,4.7693,-1.1663,-2.9000,-0.0662,-2.9015,rough,14.0,0,5.105
2840,90.88,3.8819,4.7694,-1.1663,-2.9001,-0.0634,-2.9009,rough,14.0,0,5.109
2850,91.20,3.8788,4.7695,-1.1664,-2.9000,-0.0656,-2.9011,rough,14.0,0,5.106
2860,91.52,3.8820,4.7696,-1.1663,-2.9001,-0.0635,-2.9006,rough,14.0,0,5.109
2870,91.84,3.8814,4.7697,-1.1664,-2.9001,-0.0640,-2.9004,rough,14.0,0,5.108
2880,92.16,3.8776,4.7697,-1.1664,-2.9000,-0.0667,-2.9007,rough,14.0,0,5.104
2890,92.48,3.8845,4.7699,-1.1664,-2.9001,-0.0621,-2.8998,rough,14.0,0,5.111
2900,92.80,3.8817,4.7700,-1.1664,-2.9001,-0.0641,-2.8999,rough,14.0,0,5.109
2910,93.12,3.8805,4.7700,-1.1664,-2.9001,-0.0650,-2.8999,rough,14.0,0,5.107
2920,93.44,3.8863,4.7702,-1.1664,-2.9001,-0.0611,-2.8990,rough,14.0,0,5.113
2930,93.76,3.8813,4.7702,-1.1664,-2.9000,-0.0646,-2.8994,rough,14.0,0,5.108
2940,94.08,3.8781,4.7703,-1.1665,-2.9000,-0.0669,-2.8996,rough,14.0,0,5.105
2950,94.40,3.8867,4.7705,-1.1664,-2.9001,-0.0611,-2.8985,rough,14.0,0,5.113
2960,94.72,3.8856,4.7706,-1.1664,-2.9001,-0.0619,-2.8984,rough,14.0,0,5.112
2970,95.04,3.8776,4.7706,-1.1665,-2.9000,-0.0675,-2.8992,rough,14.0,0,5.104
2980,95.36,3.8844,4.7707,-1.1665,-2.9001,-0.0629,-2.8982,rough,14.0,0,5.111
2990,95.68,3.8874,4.7708,-1.1665,-2.9001,-0.0610,-2.8977,rough,14.0,0,5.114
3000,96.00,3.8795,4.7709,-1.1665,-2.9000,-0.0665,-2.8985,rough,14.0,0,5.106
3010,96.32,3.8797,4.7710,-1.1666,-2.9000,-0.0664,-2.8983,rough,14.0,0,5.106
3020,96.64,3.8913,4.7712,-1.1665,-2.9002,-0.0585,-2.8968,rough,14.0,0,5.118
3030,96.96,3.8932,4.7713,-1.1665,-2.9002,-0.0573,-2.8964,rough,14.0,0,5.120
3040,97.28,3.8842,4.7713,-1.1666,-2.9001,-0.0636,-2.8972,rough,14.0,0,5.111
3050,97.60,3.8772,4.7713,-1.1666,-2.9000,-0.0685,-2.8978,rough,14.0,0,5.104
3060,97.92,3.8885,4.7715,-1.1666,-2.9001,-0.0608,-2.8964,rough,14.0,0,5.115
3070,98.24,3.8958,4.7713,-1.1665,-2.9002,-0.0553,-2.8972,rough,14.0,0,5.122
3080,98.56,3.8923,4.7702,-1.1663,-2.9002,-0.0558,-2.9032,rough,14.0,0,5.119
3090,98.88,3.8758,4.7702,-1.1665,-2.9002,-0.0672,-2.9049,rough,14.0,0,5.103
3100,99.20,3.8724,4.7702,-1.1665,-2.8993,-0.0706,-2.9054,rough,14.0,0,5.099
3110,99.52,3.8837,4.7704,-1.1664,-2.9003,-0.0620,-2.9037,rough,14.0,0,5.110
3120,99.84,3.8908,4.7706,-1.1664,-2.9004,-0.0572,-2.9027,rough,14.0,0,5.117
3130,100.16,3.8870,4.7706,-1.1664,-2.9004,-0.0599,-2.9029,rough,14.0,0,5.114
3140,100.48,3.8762,4.7706,-1.1665,-2.9002,-0.0673,-2.9040,rough,14.0,0,5.103
3150,100.80,3.8816,4.7708,-1.1665,-2.9003,-0.0637,-2.9032,rough,14.0,0,5.108
3160,101.12,3.8877,4.7709,-1.1665,-2.9004,-0.0597,-2.9024,rough,14.0,0,5.114
3170,101.44,3.8829,4.7709,-1.1665,-2.9003,-0.0630,-2.9027,rough,14.0,0,5.110
3180,101.76,3.8749,4.7710,-1.1666,-2.9002,-0.0685,-2.9035,rough,14.0,0,5.102
3190,102.08,3.8839,4.7711,-1.1665,-2.9003,-0.0625,-2.9023,rough,14.0,0,5.111
3200,102.40,3.8888,4.7713,-1.1665,-2.9004,-0.0592,-2.9016,rough,14.0,0,5.115
3210,102.72,3.8829,4.7713,-1.1666,-2.9003,-0.0634,-2.9021,rough,14.0,0,5.110
3220,103.04,3.8787,4.7714,-1.1666,-2.9002,-0.0663,-2.9024,rough,14.0,0,5.105
3230,103.36,3.8864,4.7715,-1.1666,-2.9003,-0.0612,-2.9013,rough,14.0,0,5.113
3240,103.68,3.8843,4.7716,-1.1666,-2.9003,-0.0627,-2.9014,rough,14.0,0,5.111
3250,104.00,3.8790,4.7716,-1.1667,-2.9002,-0.0664,-2.9018,rough,14.0,0,5.106
3260,104.32,3.8846,4.7718,-1.1666,-2.9003,-0.0627,-2.9010,rough,14.0,0,5.111
3270,104.64,3.8805,4.7718,-1.1667,-2.9002,-0.0656,-2.9013,rough,14.0,0,5.107
3280,104.96,3.8839,4.7720,-1.1667,-2.9003,-0.0633,-2.9007,rough,14.0,0,5.110
3290,105.28,3.8882,4.7721,-1.1666,-2.9003,-0.0605,-2.9001,rough,14.0,0,5.115
3300,105.60,3.8816,4.7721,-1.1667,-2.9002,-0.0651,-2.9007,rough,14.0,0,5.108
3310,105.92,3.8828,4.7722,-1.1667,-2.9003,-0.0643,-2.9003,rough,14.0,0,5.109
3320,106.24,3.8851,4.7723,-1.1667,-2.9003,-0.0628,-2.8999,rough,14.0,0,5.112
3330,106.56,3.8804,4.7724,-1.1668,-2.9002,-0.0661,-2.9003,rough,14.0,0,5.107
3340,106.88,3.8877,4.7725,-1.1667,-2.9003,-0.0612,-2.8993,rough,14.0,0,5.114
3350,107.20,3.8876,4.7726,-1.1667,-2.9003,-0.0614,-2.8991,rough,14.0,0,5.114
3360,107.52,3.8805,4.7727,-1.1668,-2.9002,-0.0663,-2.8998,rough,14.0,0,5.107
3370,107.84,3.8858,4.7728,-1.1668,-2.9003,-0.0628,-2.8990,rough,14.0,0,5.112
3380,108.16,3.8838,4.7729,-1.1668,-2.9002,-0.0643,-2.8990,rough,14.0,0,5.110
3390,108.48,3.8834,4.7730,-1.1668,-2.9002,-0.0646,-2.8989,rough,14.0,0,5.110
3400,108.80,3.8899,4.7731,-1.1668,-2.9003,-0.0603,-2.8980,rough,14.0,0,5.116
3410,109.12,3.8855,4.7732,-1.1668,-2.9003,-0.0633,-2.8983,rough,14.0,0,5.112
3420,109.44,3.8829,4.7732,-1.1669,-2.9002,-0.0652,-2.8985,rough,14.0,0,5.109
3430,109.76,3.8876,4.7734,-1.1668,-2.9003,-0.0621,-2.8978,rough,14.0,0,5.114
3440,110.08,3.8826,4.7734,-1.1669,-2.9002,-0.0656,-2.8982,rough,14.0,0,5.109
3450,110.40,3.8865,4.7736,-1.1669,-2.9003,-0.0630,-2.8976,rough,14.0,0,5.113
3460,110.72,3.8843,4.7736,-1.1669,-2.9002,-0.0646,-2.8976,rough,14.0,0,5.111
3470,111.04,3.8872,4.7737,-1.1669,-2.9003,-0.0627,-2.8971,rough,14.0,0,5.113
3480,111.36,3.8841,4.7738,-1.1669,-2.9002,-0.0649,-2.8973,rough,14.0,0,5.110
3490,111.68,3.8896,4.7740,-1.1669,-2.9003,-0.0613,-2.8965,rough,14.0,0,5.116
3500,112.00,3.8853,4.7740,-1.1669,-2.9002,-0.0643,-2.8968,rough,14.0,0,5.112
3510,112.32,3.8876,4.7741,-1.1669,-2.9003,-0.0628,-2.8964,rough,14.0,0,5.114
3520,112.64,3.8863,4.7742,-1.1670,-2.9002,-0.0638,-2.8964,rough,14.0,0,5.112
3530,112.96,3.8865,4.7743,-1.1670,-2.9002,-0.0637,-2.8962,rough,14.0,0,5.113
3540,113.28,3.8879,4.7744,-1.1670,-2.9002,-0.0629,-2.8959,rough,14.0,0,5.114
3550,113.60,3.8860,4.7745,-1.1670,-2.9002,-0.0643,-2.8959,rough,14.0,0,5.112
3560,113.92,3.8901,4.7746,-1.1670,-2.9003,-0.0615,-2.8952,rough,14.0,0,5.116
3570,114.24,3.8847,4.7747,-1.1670,-2.9002,-0.0654,-2.8956,rough,14.0,0,5.111
3580,114.56,3.8913,4.7747,-1.1670,-2.9043,-0.0447,-2.9603,rough,14.0,0,5.117
3590,114.88,3.8937,4.7752,-1.1670,-2.9004,-0.0591,-2.8957,rough,14.0,0,5.120
3600,115.20,3.8850,4.7752,-1.1671,-2.9003,-0.0651,-2.8966,rough,14.0,0,5.111
3610,115.52,3.8846,4.7753,-1.1671,-2.9003,-0.0655,-2.8964,rough,14.0,0,5.111
3620,115.84,3.8967,4.7757,-1.1671,-2.9005,-0.0573,-2.8959,rough,14.0,0,5.123
3630,116.16,3.9004,4.7746,-1.1668,-2.9006,-0.0517,-2.9049,rough,14.0,0,5.126
3640,116.48,3.8872,4.7746,-1.1670,-2.9008,-0.0608,-2.9066,rough,14.0,0,5.113
3650,116.80,3.8711,4.7745,-1.1671,-2.9028,-0.0689,-2.9075,rough,14.0,0,5.097
3660,117.12,3.8638,4.7745,-1.1672,-2.9014,-0.0756,-2.9086,rough,14.0,0,5.090
3670,117.44,3.8702,4.7747,-1.1672,-2.9002,-0.0729,-2.9081,rough,14.0,0,5.097
3680,117.76,3.8825,4.7748,-1.1671,-2.9003,-0.0648,-2.9066,rough,14.0,0,5.109
3690,118.08,3.8946,4.7750,-1.1670,-2.9009,-0.0562,-2.9049,rough,14.0,0,5.121
3700,118.40,3.8958,4.7751,-1.1670,-2.9009,-0.0554,-2.9046,rough,14.0,0,5.122
3710,118.72,3.8861,4.7751,-1.1671,-2.9008,-0.0621,-2.9055,rough,14.0,0,5.112
3720,119.04,3.8783,4.7751,-1.1672,-2.9007,-0.0675,-2.9062,rough,14.0,0,5.104
3730,119.36,3.8883,4.7753,-1.1671,-2.9008,-0.0608,-2.9050,rough,14.0,0,5.114
3740,119.68,3.8941,4.7755,-1.1671,-2.9009,-0.0569,-2.9041,rough,14.0,0,5.120
3750,120.00,3.8890,4.7755,-1.1671,-2.9008,-0.0605,-2.9045,rough,14.0,0,5.115
3760,120.32,3.8807,4.7755,-1.1672,-2.9007,-0.0662,-2.9053,rough,14.0,0,5.107
3770,120.64,3.8892,4.7757,-1.1672,-2.9008,-0.0605,-2.9042,rough,14.0,0,5.115
3780,120.96,3.8935,4.7758,-1.1671,-2.9009,-0.0576,-2.9035,rough,14.0,0,5.119
3790,121.28,3.8870,4.7758,-1.1672,-2.9008,-0.0622,-2.9041,rough,14.0,0,5.113
3800,121.60,3.8823,4.7759,-1.1672,-2.9007,-0.0655,-2.9044,rough,14.0,0,5.108
3810,121.92,3.8893,4.7760,-1.1672,-2.9008,-0.0608,-2.9035,rough,14.0,0,5.115
3820,122.24,3.8866,4.7761,-1.1672,-2.9008,-0.0627,-2.9036,rough,14.0,0,5.113
3830,122.56,3.8854,4.7762,-1.1673,-2.9007,-0.0636,-2.9036,rough,14.0,0,5.111
3840,122.88,3.8910,4.7763,-1.1672,-2.9008,-0.0599,-2.9028,rough,14.0,0,5.117
3850,123.20,3.8857,4.7764,-1.1673,-2.9007,-0.0636,-2.9032,rough,14.0,0,5.112
3860,123.52,3.8868,4.7765,-1.1673,-2.9007,-0.0629,-2.9029,rough,14.0,0,5.113
3870,123.84,3.8855,4.7766,-1.1673,-2.9007,-0.0639,-2.9029,rough,14.0,0,5.111
3880,124.16,3.8889,4.7767,-1.1673,-2.9008,-0.0617,-2.9023,rough,14.0,0,5.115
3890,124.48,3.8863,4.7767,-1.1673,-2.9007,-0.0636,-2.9024,rough,14.0,0,5.112
3900,124.80,3.8873,4.7768,-1.1673,-2.9007,-0.0630,-2.9021,rough,14.0,0,5.113
3910,125.12,3.8884,4.7769,-1.1673,-2.9007,-0.0623,-2.9018,rough,14.0,0,5.114
3920,125.44,3.8858,4.7770,-1.1674,-2.9007,-0.0642,-2.9020,rough,14.0,0,5.112
3930,125.76,3.8893,4.7771,-1.1674,-2.9008,-0.0618,-2.9014,rough,14.0,0,5.115
3940,126.08,3.8891,4.7772,-1.1674,-2.9007,-0.0621,-2.9012,rough,14.0,0,5.115
3950,126.40,3.8854,4.7773,-1.1674,-2.9007,-0.0647,-2.9015,rough,14.0,0,5.111
3960,126.72,3.8924,4.7774,-1.1674,-2.9008,-0.0600,-2.9005,rough,14.0,0,5.118
3970,127.04,3.8897,4.7775,-1.1674,-2.9007,-0.0619,-2.9007,rough,14.0,0,5.115
3980,127.36,3.8837,4.7775,-1.1675,-2.9007,-0.0661,-2.9012,rough,14.0,0,5.109
3990,127.68,3.8921,4.7777,-1.1674,-2.9008,-0.0605,-2.9000,rough,14.0,0,5.118
4000,128.00,3.8931,4.7778,-1.1674,-2.9008,-0.0599,-2.8998,rough,14.0,0,5.119
4010,128.32,3.8844,4.7778,-1.1675,-2.9007,-0.0659,-2.9006,rough,14.0,0,5.110
4020,128.64,3.8885,4.7780,-1.1675,-2.9007,-0.0632,-2.8999,rough,14.0,0,5.114
4030,128.96,3.8988,4.7781,-1.1674,-2.9008,-0.0562,-2.8986,rough,14.0,0,5.124
4040,129.28,3.8983,4.7782,-1.1674,-2.9008,-0.0566,-2.8985,rough,14.0,0,5.124
4050,129.60,3.8869,4.7782,-1.1675,-2.9007,-0.0646,-2.8996,rough,14.0,0,5.113
4060,129.92,3.8838,4.7783,-1.1676,-2.9006,-0.0667,-2.8998,rough,14.0,0,5.110
4070,130.24,3.8959,4.7785,-1.1675,-2.9008,-0.0586,-2.8982,rough,14.0,0,5.121
4080,130.56,3.9019,4.7788,-1.1675,-2.9009,-0.0544,-2.8988,rough,14.0,0,5.127
4090,130.88,3.8967,4.7789,-1.1675,-2.9009,-0.0579,-2.8996,rough,14.0,0,5.122
4100,131.20,3.8845,4.7789,-1.1676,-2.9007,-0.0663,-2.9008,rough,14.0,0,5.110
4110,131.52,3.8889,4.7790,-1.1676,-2.9008,-0.0634,-2.9002,rough,14.0,0,5.114
4120,131.84,3.8996,4.7792,-1.1676,-2.9009,-0.0562,-2.8988,rough,14.0,0,5.125
4130,132.16,3.8994,4.7793,-1.1676,-2.9009,-0.0564,-2.8986,rough,14.0,0,5.125
4140,132.48,3.8882,4.7793,-1.1677,-2.9008,-0.0641,-2.8997,rough,14.0,0,5.114
4150,132.80,3.8854,4.7793,-1.1677,-2.9007,-0.0661,-2.8999,rough,14.0,0,5.111
4160,133.12,3.8977,4.7795,-1.1676,-2.9009,-0.0578,-2.8983,rough,14.0,0,5.123
4170,133.44,3.9041,4.7792,-1.1675,-2.9012,-0.0519,-2.9028,rough,14.0,0,5.129
4180,133.76,3.8998,4.7786,-1.1675,-2.9012,-0.0539,-2.9063,rough,14.0,0,5.125
4190,134.08,3.8847,4.7786,-1.1676,-2.9011,-0.0643,-2.9078,rough,14.0,0,5.110
4200,134.40,3.8774,4.7787,-1.1677,-2.8983,-0.0725,-2.9093,rough,14.0,0,5.103
4210,134.72,3.8731,4.7786,-1.1677,-2.9006,-0.0726,-2.9089,rough,14.0,0,5.099
4220,135.04,3.8776,4.7788,-1.1677,-2.9000,-0.0702,-2.9084,rough,14.0,0,5.103
4230,135.36,3.8783,4.7790,-1.1677,-2.8956,-0.0753,-2.9095,rough,14.0,0,5.104
4240,135.68,3.8780,4.7790,-1.1677,-2.8972,-0.0737,-2.9089,rough,14.0,0,5.104
4250,136.00,3.8785,4.7791,-1.1677,-2.8959,-0.0750,-2.9091,rough,14.0,0,5.104
4260,136.32,3.8797,4.7792,-1.1677,-2.8978,-0.0721,-2.9083,rough,14.0,0,5.105
4270,136.64,3.8853,4.7792,-1.1677,-2.9003,-0.0654,-2.9068,rough,14.0,0,5.111
4280,136.96,3.8992,4.7794,-1.1676,-2.9012,-0.0552,-2.9048,rough,14.0,0,5.125
4290,137.28,3.9046,4.7784,-1.1674,-2.9015,-0.0495,-2.9097,rough,14.0,0,5.130
4300,137.60,3.8953,4.7780,-1.1674,-2.9014,-0.0552,-2.9126,rough,14.0,0,5.121
4310,137.92,3.8757,4.7779,-1.1676,-2.9013,-0.0687,-2.9146,rough,14.0,0,5.102
4320,138.24,3.8641,4.7779,-1.1677,-2.9024,-0.0749,-2.9153,rough,14.0,0,5.090
4330,138.56,3.8652,4.7780,-1.1677,-2.9022,-0.0745,-2.9151,rough,14.0,0,5.091
4340,138.88,3.8810,4.7782,-1.1676,-2.9011,-0.0655,-2.9136,rough,14.0,0,5.107
4350,139.20,3.8962,4.7784,-1.1675,-2.9015,-0.0550,-2.9116,rough,14.0,0,5.122
4360,139.52,3.9006,4.7785,-1.1675,-2.9016,-0.0521,-2.9109,rough,14.0,0,5.126
4370,139.84,3.8941,4.7786,-1.1675,-2.9015,-0.0567,-2.9115,rough,14.0,0,5.120
4380,140.16,3.8805,4.7785,-1.1676,-2.9013,-0.0660,-2.9129,rough,14.0,0,5.106
4390,140.48,3.8830,4.7786,-1.1676,-2.9014,-0.0643,-2.9124,rough,14.0,0,5.109
4400,140.80,3.8916,4.7788,-1.1676,-2.9015,-0.0586,-2.9113,rough,14.0,0,5.117
4410,141.12,3.8893,4.7789,-1.1676,-2.9014,-0.0602,-2.9114,rough,14.0,0,5.115
4420,141.44,3.8836,4.7789,-1.1677,-2.9014,-0.0642,-2.9118,rough,14.0,0,5.109
4430,141.76,3.8883,4.7790,-1.1676,-2.9014,-0.0611,-2.9111,rough,14.0,0,5.114
4440,142.08,3.8845,4.7791,-1.1677,-2.9013,-0.0638,-2.9114,rough,14.0,0,5.110
4450,142.40,3.8887,4.7792,-1.1677,-2.9014,-0.0610,-2.9107,rough,14.0,0,5.114
4460,142.72,3.8856,4.7793,-1.1677,-2.9013,-0.0632,-2.9109,rough,14.0,0,5.111
4470,143.04,3.8883,4.7794,-1.1677,-2.9014,-0.0614,-2.9104,rough,14.0,0,5.114
4480,143.36,3.8871,4.7794,-1.1677,-2.9014,-0.0624,-2.9104,rough,14.0,0,5.113
4490,143.68,3.8870,4.7795,-1.1677,-2.9014,-0.0625,-2.9102,rough,14.0,0,5.113
4500,144.00,3.8878,4.7796,-1.1677,-2.9014,-0.0620,-2.9100,rough,14.0,0,5.113
4510,144.32,3.8885,4.7797,-1.1677,-2.9014,-0.0616,-2.9097,rough,14.0,0,5.114
4520,144.64,3.8866,4.7798,-1.1678,-2.9013,-0.0630,-2.9098,rough,14.0,0,5.112
4530,144.96,3.8892,4.7799,-1.1678,-2.9014,-0.0613,-2.9093,rough,14.0,0,5.115
4540,145.28,3.8858,4.7800,-1.1678,-2.9013,-0.0637,-2.9095,rough,14.0,0,5.111
4550,145.60,3.8904,4.7801,-1.1678,-2.9014,-0.0607,-2.9088,rough,14.0,0,5.116
4560,145.92,3.8865,4.7801,-1.1678,-2.9013,-0.0634,-2.9091,rough,14.0,0,5.112
4570,146.24,3.8908,4.7803,-1.1678,-2.9014,-0.0606,-2.9084,rough,14.0,0,5.116
4580,146.56,3.8877,4.7803,-1.1678,-2.9013,-0.0629,-2.9086,rough,14.0,0,5.113
4590,146.88,3.8904,4.7804,-1.1678,-2.9014,-0.0610,-2.9081,rough,14.0,0,5.116
4600,147.20,3.8894,4.7805,-1.1678,-2.9013,-0.0619,-2.9081,rough,14.0,0,5.115
4610,147.52,3.8895,4.7806,-1.1679,-2.9013,-0.0618,-2.9079,rough,14.0,0,5.115
4620,147.84,3.8905,4.7807,-1.1679,-2.9013,-0.0613,-2.9076,rough,14.0,0,5.116
4630,148.16,3.8879,4.7808,-1.1679,-2.9013,-0.0631,-2.9077,rough,14.0,0,5.113
4640,148.48,3.8910,4.7809,-1.1679,-2.9013,-0.0611,-2.9072,rough,14.0,0,5.116
4650,148.80,3.8870,4.7809,-1.1679,-2.9013,-0.0639,-2.9074,rough,14.0,0,5.112
4660,149.12,3.8911,4.7810,-1.1679,-2.9013,-0.0612,-2.9068,rough,14.0,0,5.116
4670,149.44,3.8892,4.7811,-1.1679,-2.9013,-0.0626,-2.9069,rough,14.0,0,5.114
4680,149.76,3.8906,4.7812,-1.1679,-2.9013,-0.0617,-2.9065,rough,14.0,0,5.116
4690,150.08,3.8896,4.7813,-1.1679,-2.9013,-0.0624,-2.9065,rough,14.0,0,5.115
4700,150.40,3.8898,4.7814,-1.1680,-2.9013,-0.0624,-2.9063,rough,14.0,0,5.115
4710,150.72,3.8898,4.7815,-1.1680,-2.9013,-0.0625,-2.9061,rough,14.0,0,5.115
4720,151.04,3.8897,4.7816,-1.1680,-2.9013,-0.0627,-2.9059,rough,14.0,0,5.115
4730,151.36,3.8930,4.7817,-1.1680,-2.9013,-0.0605,-2.9054,rough,14.0,0,5.118
4740,151.68,3.8889,4.7817,-1.1680,-2.9013,-0.0634,-2.9057,rough,14.0,0,5.114
4750,152.00,3.8921,4.7819,-1.1680,-2.9013,-0.0612,-2.9051,rough,14.0,0,5.117
4760,152.32,3.8960,4.7820,-1.1680,-2.9014,-0.0587,-2.9045,rough,14.0,0,5.121
4770,152.64,3.8890,4.7820,-1.1681,-2.9013,-0.0636,-2.9051,rough,14.0,0,5.114
4780,152.96,3.8897,4.7821,-1.1681,-2.9013,-0.0632,-2.9049,rough,14.0,0,5.115
4790,153.28,3.8969,4.7823,-1.1680,-2.9014,-0.0584,-2.9039,rough,14.0,0,5.122
4800,153.60,3.8932,4.7823,-1.1681,-2.9013,-0.0610,-2.9041,rough,14.0,0,5.118
4810,153.92,3.8910,4.7824,-1.1681,-2.9013,-0.0625,-2.9042,rough,14.0,0,5.116
4820,154.24,3.8957,4.7825,-1.1681,-2.9013,-0.0595,-2.9035,rough,14.0,0,5.121
4830,154.56,3.8907,4.7826,-1.1681,-2.9013,-0.0629,-2.9039,rough,14.0,0,5.116
4840,154.88,3.8943,4.7827,-1.1681,-2.9013,-0.0606,-2.9033,rough,14.0,0,5.119
4850,155.20,3.8917,4.7827,-1.1681,-2.9013,-0.0624,-2.9034,rough,14.0,0,5.117
4860,155.52,3.8939,4.7829,-1.1681,-2.9013,-0.0610,-2.9030,rough,14.0,0,5.119
4870,155.84,3.8937,4.7829,-1.1681,-2.9013,-0.0612,-2.9029,rough,14.0,0,5.119
4880,156.16,3.8933,4.7830,-1.1682,-2.9013,-0.0616,-2.9027,rough,14.0,0,5.118
4890,156.48,3.8942,4.7831,-1.1682,-2.9013,-0.0610,-2.9024,rough,14.0,0,5.119
4900,156.80,3.8961,4.7832,-1.1682,-2.9013,-0.0599,-2.9021,rough,14.0,0,5.121
4910,157.12,3.8908,4.7833,-1.1682,-2.9012,-0.0636,-2.9025,rough,14.0,0,5.116
4920,157.44,3.8975,4.7834,-1.1682,-2.9013,-0.0591,-2.9016,rough,14.0,0,5.122
4930,157.76,3.8967,4.7835,-1.1682,-2.9013,-0.0597,-2.9015,rough,14.0,0,5.122
4940,158.08,3.8925,4.7836,-1.1682,-2.9013,-0.0626,-2.9018,rough,14.0,0,5.117
4950,158.40,3.8944,4.7837,-1.1682,-2.9013,-0.0615,-2.9014,rough,14.0,0,5.119
4960,158.72,3.8939,4.7838,-1.1683,-2.9013,-0.0619,-2.9013,rough,14.0,0,5.119
4970,159.04,3.8934,4.7838,-1.1683,-2.9012,-0.0623,-2.9011,rough,14.0,0,5.118
4980,159.36,3.8941,4.7839,-1.1683,-2.9013,-0.0619,-2.9009,rough,14.0,0,5.119
4990,159.68,3.8948,4.7840,-1.1683,-2.9012,-0.0616,-2.9006,rough,14.0,0,5.120
5000,160.00,3.8955,4.7841,-1.1683,-2.9013,-0.0612,-2.9004,rough,14.0,0,5.120
5010,160.32,3.8938,4.7842,-1.1683,-2.9012,-0.0624,-2.9004,rough,14.0,0,5.119
5020,160.64,3.8979,4.7846,-1.1683,-2.9014,-0.0595,-2.9012,rough,14.0,0,5.123
5030,160.96,3.8927,4.7846,-1.1684,-2.9013,-0.0630,-2.9020,rough,14.0,0,5.117
5040,161.28,3.8984,4.7848,-1.1684,-2.9014,-0.0592,-2.9012,rough,14.0,0,5.123
5050,161.60,3.9012,4.7851,-1.1684,-2.9015,-0.0572,-2.9023,rough,14.0,0,5.126
5060,161.92,3.8921,4.7851,-1.1685,-2.9014,-0.0633,-2.9035,rough,14.0,0,5.117
5070,162.24,3.8911,4.7852,-1.1685,-2.9014,-0.0641,-2.9035,rough,14.0,0,5.116
5080,162.56,3.9012,4.7854,-1.1684,-2.9015,-0.0573,-2.9022,rough,14.0,0,5.126
5090,162.88,3.9016,4.7855,-1.1684,-2.9015,-0.0571,-2.9019,rough,14.0,0,5.126
5100,163.20,3.8923,4.7855,-1.1685,-2.9014,-0.0635,-2.9028,rough,14.0,0,5.117
5110,163.52,3.8956,4.7856,-1.1685,-2.9015,-0.0613,-2.9023,rough,14.0,0,5.120
5120,163.84,3.8997,4.7857,-1.1685,-2.9015,-0.0587,-2.9016,rough,14.0,0,5.124
5130,164.16,3.8941,4.7858,-1.1685,-2.9014,-0.0626,-2.9021,rough,14.0,0,5.119
5140,164.48,3.8994,4.7859,-1.1685,-2.9015,-0.0590,-2.9013,rough,14.0,0,5.124
5150,164.80,3.9019,4.7863,-1.1686,-2.9016,-0.0571,-2.9026,rough,14.0,0,5.126
5160,165.12,3.8939,4.7863,-1.1686,-2.9015,-0.0626,-2.9035,rough,14.0,0,5.118
5170,165.44,3.8981,4.7864,-1.1686,-2.9016,-0.0598,-2.9029,rough,14.0,0,5.123
5180,165.76,3.9030,4.7866,-1.1686,-2.9017,-0.0566,-2.9022,rough,14.0,0,5.127
5190,166.08,3.8970,4.7866,-1.1686,-2.9016,-0.0608,-2.9027,rough,14.0,0,5.121
5200,166.40,3.8926,4.7867,-1.1687,-2.9015,-0.0638,-2.9030,rough,14.0,0,5.117
5210,166.72,3.9041,4.7867,-1.1686,-2.9057,-0.0402,-2.9657,rough,14.0,0,5.129
5220,167.04,3.9086,4.7875,-1.1687,-2.9019,-0.0525,-2.9045,rough,14.0,0,5.133
5230,167.36,3.9012,4.7875,-1.1687,-2.9019,-0.0576,-2.9055,rough,14.0,0,5.125
5240,167.68,3.8905,4.7875,-1.1688,-2.9017,-0.0649,-2.9065,rough,14.0,0,5.115
5250,168.00,3.8979,4.7877,-1.1688,-2.9018,-0.0599,-2.9055,rough,14.0,0,5.122
5260,168.32,3.9056,4.7878,-1.1687,-2.9019,-0.0548,-2.9045,rough,14.0,0,5.130
5270,168.64,3.9025,4.7879,-1.1688,-2.9019,-0.0570,-2.9046,rough,14.0,0,5.127
5280,168.96,3.8922,4.7879,-1.1689,-2.9017,-0.0641,-2.9056,rough,14.0,0,5.117
5290,169.28,3.8979,4.7880,-1.1688,-2.9018,-0.0603,-2.9048,rough,14.0,0,5.122
5300,169.60,3.9040,4.7882,-1.1688,-2.9019,-0.0562,-2.9039,rough,14.0,0,5.128
5310,169.92,3.8993,4.7882,-1.1688,-2.9018,-0.0595,-2.9043,rough,14.0,0,5.124
5320,170.24,3.8960,4.7883,-1.1689,-2.9018,-0.0618,-2.9045,rough,14.0,0,5.120
5330,170.56,3.8997,4.7884,-1.1689,-2.9018,-0.0594,-2.9039,rough,14.0,0,5.124
5340,170.88,3.8963,4.7885,-1.1689,-2.9018,-0.0618,-2.9041,rough,14.0,0,5.121
5350,171.20,3.9010,4.7886,-1.1689,-2.9018,-0.0587,-2.9034,rough,14.0,0,5.125
5360,171.52,3.8972,4.7886,-1.1689,-2.9018,-0.0614,-2.9037,rough,14.0,0,5.121
5370,171.84,3.9017,4.7888,-1.1689,-2.9018,-0.0584,-2.9030,rough,14.0,0,5.126
5380,172.16,3.8999,4.7891,-1.1690,-2.9019,-0.0594,-2.9049,rough,14.0,0,5.124
5390,172.48,3.8985,4.7892,-1.1690,-2.9019,-0.0604,-2.9050,rough,14.0,0,5.123
5400,172.80,3.8981,4.7893,-1.1690,-2.9019,-0.0607,-2.9049,rough,14.0,0,5.122
5410,173.12,3.8978,4.7894,-1.1690,-2.9019,-0.0611,-2.9047,rough,14.0,0,5.122
5420,173.44,3.8984,4.7894,-1.1690,-2.9019,-0.0607,-2.9045,rough,14.0,0,5.123
5430,173.76,3.8990,4.7895,-1.1690,-2.9019,-0.0604,-2.9042,rough,14.0,0,5.123
5440,174.08,3.8995,4.7896,-1.1691,-2.9019,-0.0602,-2.9040,rough,14.0,0,5.124
5450,174.40,3.8998,4.7897,-1.1691,-2.9019,-0.0600,-2.9038,rough,14.0,0,5.124
5460,174.72,3.9000,4.7898,-1.1691,-2.9019,-0.0600,-2.9036,rough,14.0,0,5.124
5470,175.04,3.8990,4.7899,-1.1691,-2.9019,-0.0608,-2.9035,rough,14.0,0,5.123
5480,175.36,3.9023,4.7903,-1.1691,-2.9020,-0.0583,-2.9048,rough,14.0,0,5.126
5490,175.68,3.8976,4.7903,-1.1692,-2.9020,-0.0615,-2.9053,rough,14.0,0,5.122
5500,176.00,3.9012,4.7904,-1.1692,-2.9020,-0.0592,-2.9048,rough,14.0,0,5.125
5510,176.32,3.8986,4.7905,-1.1692,-2.9020,-0.0610,-2.9049,rough,14.0,0,5.123
5520,176.64,3.8996,4.7906,-1.1692,-2.9020,-0.0605,-2.9046,rough,14.0,0,5.123
5530,176.96,3.9003,4.7907,-1.1692,-2.9020,-0.0600,-2.9044,rough,14.0,0,5.124
5540,177.28,3.9022,4.7908,-1.1692,-2.9020,-0.0588,-2.9040,rough,14.0,0,5.126
5550,177.60,3.9013,4.7912,-1.1693,-2.9021,-0.0592,-2.9058,rough,14.0,0,5.125
5560,177.92,3.9007,4.7912,-1.1693,-2.9021,-0.0596,-2.9058,rough,14.0,0,5.125
5570,178.24,3.9011,4.7913,-1.1693,-2.9021,-0.0595,-2.9056,rough,14.0,0,5.125
5580,178.56,3.9014,4.7914,-1.1693,-2.9021,-0.0593,-2.9054,rough,14.0,0,5.125
5590,178.88,3.8991,4.7915,-1.1693,-2.9021,-0.0610,-2.9055,rough,14.0,0,5.123
5600,179.20,3.9015,4.7916,-1.1693,-2.9021,-0.0595,-2.9050,rough,14.0,0,5.125
5610,179.52,3.9013,4.7917,-1.1693,-2.9021,-0.0596,-2.9049,rough,14.0,0,5.125
5620,179.84,3.9009,4.7918,-1.1693,-2.9021,-0.0600,-2.9048,rough,14.0,0,5.125
5630,180.16,3.9017,4.7919,-1.1694,-2.9021,-0.0595,-2.9045,rough,14.0,0,5.125
5640,180.48,3.9045,4.7923,-1.1694,-2.9023,-0.0575,-2.9059,rough,14.0,0,5.128
5650,180.80,3.8991,4.7923,-1.1694,-2.9022,-0.0611,-2.9065,rough,14.0,0,5.123
5660,181.12,3.9054,4.7924,-1.1694,-2.9023,-0.0569,-2.9056,rough,14.0,0,5.129
5670,181.44,3.9041,4.7925,-1.1694,-2.9022,-0.0579,-2.9056,rough,14.0,0,5.128
5680,181.76,3.8994,4.7926,-1.1695,-2.9022,-0.0611,-2.9059,rough,14.0,0,5.123
5690,182.08,3.9060,4.7926,-1.1695,-2.9063,-0.0411,-2.9686,rough,14.0,0,5.130
5700,182.40,3.9023,4.7930,-1.1695,-2.9023,-0.0591,-2.9073,rough,14.0,0,5.126
5710,182.72,3.8997,4.7931,-1.1695,-2.9023,-0.0608,-2.9075,rough,14.0,0,5.123
5720,183.04,3.9039,4.7932,-1.1695,-2.9024,-0.0581,-2.9069,rough,14.0,0,5.127
5730,183.36,3.9009,4.7933,-1.1696,-2.9023,-0.0602,-2.9070,rough,14.0,0,5.124
5740,183.68,3.9013,4.7934,-1.1696,-2.9023,-0.0601,-2.9068,rough,14.0,0,5.125
5750,184.00,3.9015,4.7935,-1.1696,-2.9023,-0.0600,-2.9066,rough,14.0,0,5.125
5760,184.32,3.9026,4.7936,-1.1696,-2.9023,-0.0593,-2.9063,rough,14.0,0,5.126
5770,184.64,3.9024,4.7937,-1.1696,-2.9023,-0.0595,-2.9061,rough,14.0,0,5.126
5780,184.96,3.9032,4.7938,-1.1696,-2.9023,-0.0591,-2.9059,rough,14.0,0,5.127
5790,185.28,3.9038,4.7938,-1.1696,-2.9023,-0.0587,-2.9056,rough,14.0,0,5.127
5800,185.60,3.9052,4.7942,-1.1697,-2.9025,-0.0576,-2.9073,rough,14.0,0,5.129
5810,185.92,3.9021,4.7943,-1.1697,-2.9024,-0.0597,-2.9076,rough,14.0,0,5.126
5820,186.24,3.9045,4.7944,-1.1697,-2.9025,-0.0581,-2.9071,rough,14.0,0,5.128
5830,186.56,3.9033,4.7945,-1.1697,-2.9025,-0.0590,-2.9071,rough,14.0,0,5.127
5840,186.88,3.9019,4.7945,-1.1697,-2.9024,-0.0601,-2.9071,rough,14.0,0,5.125
5850,187.20,3.9061,4.7947,-1.1697,-2.9025,-0.0573,-2.9064,rough,14.0,0,5.129
5860,187.52,3.9075,4.7950,-1.1698,-2.9026,-0.0562,-2.9080,rough,14.0,0,5.131
5870,187.84,3.9007,4.7951,-1.1698,-2.9025,-0.0608,-2.9088,rough,14.0,0,5.124
5880,188.16,3.9057,4.7952,-1.1698,-2.9026,-0.0575,-2.9081,rough,14.0,0,5.129
5890,188.48,3.9032,4.7953,-1.1698,-2.9026,-0.0593,-2.9082,rough,14.0,0,5.126
5900,188.80,3.9041,4.7954,-1.1698,-2.9026,-0.0587,-2.9079,rough,14.0,0,5.127
5910,189.12,3.9048,4.7955,-1.1698,-2.9026,-0.0583,-2.9077,rough,14.0,0,5.128
5920,189.44,3.9051,4.7956,-1.1698,-2.9026,-0.0582,-2.9075,rough,14.0,0,5.128
5930,189.76,3.9018,4.7956,-1.1699,-2.9025,-0.0605,-2.9077,rough,14.0,0,5.125
5940,190.08,3.9095,4.7957,-1.1699,-2.9067,-0.0398,-2.9698,rough,14.0,0,5.133
5950,190.40,3.9069,4.7961,-1.1699,-2.9027,-0.0569,-2.9089,rough,14.0,0,5.130
5960,190.72,3.9006,4.7962,-1.1700,-2.9026,-0.0612,-2.9095,rough,14.0,0,5.124
5970,191.04,3.9081,4.7963,-1.1699,-2.9027,-0.0562,-2.9085,rough,14.0,0,5.131
5980,191.36,3.9081,4.7964,-1.1699,-2.9027,-0.0563,-2.9083,rough,14.0,0,5.131
5990,191.68,3.9009,4.7964,-1.1700,-2.9026,-0.0613,-2.9089,rough,14.0,0,5.124
6000,192.00,3.9076,4.7966,-1.1700,-2.9027,-0.0568,-2.9080,rough,14.0,0,5.131
6010,192.32,3.9113,4.7970,-1.1700,-2.9029,-0.0541,-2.9092,rough,14.0,0,5.134
6020,192.64,3.9032,4.7970,-1.1701,-2.9028,-0.0596,-2.9103,rough,14.0,0,5.126
6030,192.96,3.9025,4.7971,-1.1701,-2.9028,-0.0601,-2.9103,rough,14.0,0,5.126
6040,193.28,3.9124,4.7972,-1.1700,-2.9029,-0.0534,-2.9090,rough,14.0,0,5.135
6050,193.60,3.9126,4.7973,-1.1700,-2.9029,-0.0534,-2.9088,rough,14.0,0,5.136
6060,193.92,3.9031,4.7973,-1.1701,-2.9028,-0.0600,-2.9097,rough,14.0,0,5.126
6070,194.24,3.9057,4.7974,-1.1701,-2.9028,-0.0583,-2.9092,rough,14.0,0,5.129
6080,194.56,3.9088,4.7976,-1.1701,-2.9028,-0.0563,-2.9087,rough,14.0,0,5.132
6090,194.88,3.9023,4.7976,-1.1702,-2.9027,-0.0608,-2.9092,rough,14.0,0,5.125
6100,195.20,3.9075,4.7977,-1.1701,-2.9028,-0.0573,-2.9084,rough,14.0,0,5.130
6110,195.52,3.9141,4.7982,-1.1701,-2.9030,-0.0526,-2.9096,rough,14.0,0,5.137
6120,195.84,3.9089,4.7982,-1.1702,-2.9030,-0.0562,-2.9102,rough,14.0,0,5.132
6130,196.16,3.9003,4.7982,-1.1703,-2.9029,-0.0621,-2.9110,rough,14.0,0,5.123
6140,196.48,3.9079,4.7984,-1.1702,-2.9029,-0.0570,-2.9100,rough,14.0,0,5.131
6150,196.80,3.9113,4.7985,-1.1702,-2.9030,-0.0548,-2.9094,rough,14.0,0,5.134
6160,197.12,3.9039,4.7985,-1.1703,-2.9029,-0.0600,-2.9101,rough,14.0,0,5.127
6170,197.44,3.9037,4.7986,-1.1703,-2.9029,-0.0601,-2.9099,rough,14.0,0,5.127
6180,197.76,3.9150,4.7987,-1.1703,-2.9071,-0.0370,-2.9712,rough,14.0,0,5.138
6190,198.08,3.9160,4.7992,-1.1703,-2.9032,-0.0516,-2.9104,rough,14.0,0,5.139
6200,198.40,3.9059,4.7992,-1.1704,-2.9030,-0.0585,-2.9114,rough,14.0,0,5.129
6210,198.72,3.9033,4.7992,-1.1704,-2.9030,-0.0603,-2.9115,rough,14.0,0,5.126
6220,199.04,3.9116,4.7994,-1.1703,-2.9031,-0.0547,-2.9104,rough,14.0,0,5.134
6230,199.36,3.9101,4.7995,-1.1704,-2.9031,-0.0559,-2.9104,rough,14.0,0,5.133
6240,199.68,3.9051,4.7995,-1.1704,-2.9030,-0.0594,-2.9108,rough,14.0,0,5.128
6250,200.00,3.9102,4.7996,-1.1704,-2.9031,-0.0560,-2.9100,rough,14.0,0,5.133
6260,200.32,3.9055,4.7997,-1.1704,-2.9030,-0.0593,-2.9104,rough,14.0,0,5.128
6270,200.64,3.9078,4.7998,-1.1704,-2.9030,-0.0577,-2.9100,rough,14.0,0,5.130
6280,200.96,3.9107,4.7999,-1.1704,-2.9031,-0.0559,-2.9095,rough,14.0,0,5.133
6290,201.28,3.9063,4.7999,-1.1705,-2.9030,-0.0590,-2.9098,rough,14.0,0,5.129
6300,201.60,3.9106,4.8000,-1.1705,-2.9071,-0.0405,-2.9719,rough,14.0,0,5.133
6310,201.92,3.9060,4.8004,-1.1705,-2.9031,-0.0590,-2.9116,rough,14.0,0,5.129
6320,202.24,3.9092,4.8005,-1.1705,-2.9032,-0.0569,-2.9112,rough,14.0,0,5.132
6330,202.56,3.9061,4.8006,-1.1706,-2.9031,-0.0591,-2.9114,rough,14.0,0,5.129
6340,202.88,3.9108,4.8007,-1.1705,-2.9032,-0.0559,-2.9107,rough,14.0,0,5.133
6350,203.20,3.9080,4.8008,-1.1706,-2.9031,-0.0579,-2.9108,rough,14.0,0,5.131
6360,203.52,3.9064,4.8008,-1.1706,-2.9031,-0.0591,-2.9108,rough,14.0,0,5.129
6370,203.84,3.9111,4.8010,-1.1706,-2.9032,-0.0560,-2.9101,rough,14.0,0,5.134
6380,204.16,3.9062,4.8010,-1.1706,-2.9031,-0.0594,-2.9105,rough,14.0,0,5.129
6390,204.48,3.9124,4.8011,-1.1706,-2.9072,-0.0397,-2.9722,rough,14.0,0,5.135
6400,204.80,3.9140,4.8016,-1.1706,-2.9033,-0.0539,-2.9115,rough,14.0,0,5.136
6410,205.12,3.9057,4.8016,-1.1707,-2.9032,-0.0596,-2.9123,rough,14.0,0,5.128
6420,205.44,3.9092,4.8017,-1.1707,-2.9033,-0.0573,-2.9117,rough,14.0,0,5.132
6430,205.76,3.9131,4.8018,-1.1707,-2.9033,-0.0547,-2.9111,rough,14.0,0,5.135
6440,206.08,3.9073,4.8018,-1.1707,-2.9032,-0.0588,-2.9116,rough,14.0,0,5.130
6450,206.40,3.9118,4.8020,-1.1707,-2.9033,-0.0557,-2.9109,rough,14.0,0,5.134
6460,206.72,3.9122,4.8021,-1.1707,-2.9033,-0.0556,-2.9107,rough,14.0,0,5.135
6470,207.04,3.9055,4.8021,-1.1708,-2.9032,-0.0603,-2.9113,rough,14.0,0,5.128
6480,207.36,3.9132,4.8021,-1.1708,-2.9074,-0.0396,-2.9727,rough,14.0,0,5.135
6490,207.68,3.9162,4.8027,-1.1708,-2.9035,-0.0527,-2.9120,rough,14.0,0,5.138
6500,208.00,3.9082,4.8027,-1.1708,-2.9034,-0.0583,-2.9128,rough,14.0,0,5.130
6510,208.32,3.9074,4.8028,-1.1709,-2.9034,-0.0588,-2.9127,rough,14.0,0,5.130
6520,208.64,3.9171,4.8029,-1.1708,-2.9035,-0.0523,-2.9114,rough,14.0,0,5.139
6530,208.96,3.9181,4.8033,-1.1708,-2.9036,-0.0514,-2.9134,rough,14.0,0,5.140
6540,209.28,3.9073,4.8033,-1.1709,-2.9035,-0.0588,-2.9146,rough,14.0,0,5.129
6550,209.60,3.9039,4.8034,-1.1710,-2.9035,-0.0611,-2.9148,rough,14.0,0,5.126
6560,209.92,3.9145,4.8036,-1.1709,-2.9036,-0.0540,-2.9134,rough,14.0,0,5.137
6570,210.24,3.9175,4.8037,-1.1709,-2.9036,-0.0520,-2.9129,rough,14.0,0,5.140
6580,210.56,3.9096,4.8037,-1.1710,-2.9035,-0.0575,-2.9136,rough,14.0,0,5.132
6590,210.88,3.9089,4.8038,-1.1710,-2.9035,-0.0581,-2.9135,rough,14.0,0,5.131
6600,211.20,3.9143,4.8039,-1.1710,-2.9036,-0.0545,-2.9128,rough,14.0,0,5.136
6610,211.52,3.9088,4.8039,-1.1710,-2.9035,-0.0583,-2.9132,rough,14.0,0,5.131
6620,211.84,3.9103,4.8040,-1.1710,-2.9035,-0.0574,-2.9128,rough,14.0,0,5.132
6630,212.16,3.9185,4.8041,-1.1710,-2.9076,-0.0365,-2.9738,rough,14.0,0,5.140
6640,212.48,3.9153,4.8046,-1.1710,-2.9037,-0.0538,-2.9143,rough,14.0,0,5.137
6650,212.80,3.9048,4.8046,-1.1711,-2.9036,-0.0610,-2.9154,rough,14.0,0,5.127
6660,213.12,3.9094,4.8047,-1.1711,-2.9037,-0.0579,-2.9147,rough,14.0,0,5.131
6670,213.44,3.9195,4.8049,-1.1710,-2.9038,-0.0511,-2.9134,rough,14.0,0,5.141
6680,213.76,3.9188,4.8049,-1.1711,-2.9038,-0.0517,-2.9133,rough,14.0,0,5.141
6690,214.08,3.9083,4.8049,-1.1712,-2.9036,-0.0589,-2.9143,rough,14.0,0,5.130
6700,214.40,3.9098,4.8050,-1.1712,-2.9036,-0.0579,-2.9139,rough,14.0,0,5.132
6710,214.72,3.9172,4.8052,-1.1711,-2.9037,-0.0530,-2.9129,rough,14.0,0,5.139
6720,215.04,3.9136,4.8052,-1.1712,-2.9037,-0.0556,-2.9131,rough,14.0,0,5.136
6730,215.36,3.9112,4.8053,-1.1712,-2.9036,-0.0573,-2.9132,rough,14.0,0,5.133
6740,215.68,3.9151,4.8054,-1.1712,-2.9037,-0.0547,-2.9126,rough,14.0,0,5.137
6750,216.00,3.9093,4.8054,-1.1712,-2.9036,-0.0588,-2.9131,rough,14.0,0,5.131
6760,216.32,3.9137,4.8055,-1.1712,-2.9037,-0.0558,-2.9124,rough,14.0,0,5.136
6770,216.64,3.9151,4.8060,-1.1713,-2.9038,-0.0546,-2.9143,rough,14.0,0,5.137
6780,216.96,3.9084,4.8060,-1.1713,-2.9037,-0.0592,-2.9151,rough,14.0,0,5.130
6790,217.28,3.9151,4.8061,-1.1713,-2.9038,-0.0547,-2.9141,rough,14.0,0,5.137
6800,217.60,3.9175,4.8062,-1.1713,-2.9038,-0.0531,-2.9137,rough,14.0,0,5.139
6810,217.92,3.9103,4.8063,-1.1713,-2.9037,-0.0582,-2.9143,rough,14.0,0,5.132
6820,218.24,3.9144,4.8064,-1.1713,-2.9038,-0.0554,-2.9137,rough,14.0,0,5.136
6830,218.56,3.9199,4.8068,-1.1713,-2.9040,-0.0515,-2.9150,rough,14.0,0,5.142
6840,218.88,3.9136,4.8069,-1.1714,-2.9039,-0.0558,-2.9159,rough,14.0,0,5.135
6850,219.20,3.9085,4.8069,-1.1714,-2.9039,-0.0593,-2.9163,rough,14.0,0,5.130
6860,219.52,3.9175,4.8071,-1.1714,-2.9040,-0.0532,-2.9151,rough,14.0,0,5.139
6870,219.84,3.9189,4.8072,-1.1714,-2.9040,-0.0524,-2.9148,rough,14.0,0,5.140
6880,220.16,3.9106,4.8072,-1.1715,-2.9039,-0.0581,-2.9155,rough,14.0,0,5.132
6890,220.48,3.9138,4.8073,-1.1715,-2.9039,-0.0560,-2.9150,rough,14.0,0,5.135
6900,220.80,3.9173,4.8074,-1.1714,-2.9039,-0.0537,-2.9144,rough,14.0,0,5.139
6910,221.12,3.9111,4.8074,-1.1715,-2.9039,-0.0580,-2.9149,rough,14.0,0,5.133
6920,221.44,3.9151,4.8076,-1.1715,-2.9039,-0.0553,-2.9143,rough,14.0,0,5.137
6930,221.76,3.9150,4.8076,-1.1715,-2.9039,-0.0556,-2.9141,rough,14.0,0,5.137
6940,222.08,3.9145,4.8077,-1.1715,-2.9039,-0.0560,-2.9140,rough,14.0,0,5.136
6950,222.40,3.9136,4.8078,-1.1715,-2.9039,-0.0567,-2.9139,rough,14.0,0,5.135
6960,222.72,3.9165,4.8082,-1.1716,-2.9040,-0.0544,-2.9155,rough,14.0,0,5.138
6970,223.04,3.9114,4.8083,-1.1716,-2.9040,-0.0579,-2.9163,rough,14.0,0,5.133
6980,223.36,3.9172,4.8084,-1.1716,-2.9041,-0.0540,-2.9155,rough,14.0,0,5.139
6990,223.68,3.9154,4.8085,-1.1716,-2.9040,-0.0553,-2.9155,rough,14.0,0,5.137
7000,224.00,3.9145,4.8086,-1.1716,-2.9040,-0.0560,-2.9154,rough,14.0,0,5.136
7010,224.32,3.9142,4.8086,-1.1716,-2.9040,-0.0563,-2.9153,rough,14.0,0,5.136
7020,224.64,3.9146,4.8087,-1.1716,-2.9040,-0.0561,-2.9150,rough,14.0,0,5.136
7030,224.96,3.9145,4.8088,-1.1717,-2.9040,-0.0563,-2.9149,rough,14.0,0,5.136
7040,225.28,3.9150,4.8089,-1.1717,-2.9040,-0.0560,-2.9146,rough,14.0,0,5.136
7050,225.60,3.9163,4.8090,-1.1717,-2.9040,-0.0552,-2.9143,rough,14.0,0,5.138
7060,225.92,3.9145,4.8094,-1.1717,-2.9042,-0.0562,-2.9166,rough,14.0,0,5.136
7070,226.24,3.9172,4.8095,-1.1717,-2.9042,-0.0543,-2.9164,rough,14.0,0,5.139
7080,226.56,3.9157,4.8096,-1.1718,-2.9042,-0.0554,-2.9164,rough,14.0,0,5.137
7090,226.88,3.9151,4.8096,-1.1718,-2.9042,-0.0559,-2.9162,rough,14.0,0,5.136
7100,227.20,3.9204,4.8098,-1.1717,-2.9042,-0.0524,-2.9155,rough,14.0,0,5.142
7110,227.52,3.9148,4.8098,-1.1718,-2.9041,-0.0563,-2.9159,rough,14.0,0,5.136
7120,227.84,3.9160,4.8099,-1.1718,-2.9042,-0.0555,-2.9156,rough,14.0,0,5.137
7130,228.16,3.9176,4.8100,-1.1718,-2.9042,-0.0546,-2.9152,rough,14.0,0,5.139
7140,228.48,3.9154,4.8100,-1.1718,-2.9041,-0.0562,-2.9153,rough,14.0,0,5.137
7150,228.80,3.9192,4.8105,-1.1719,-2.9043,-0.0533,-2.9169,rough,14.0,0,5.140
7160,229.12,3.9126,4.8105,-1.1719,-2.9043,-0.0578,-2.9178,rough,14.0,0,5.134
7170,229.44,3.9171,4.8107,-1.1719,-2.9043,-0.0547,-2.9171,rough,14.0,0,5.138
7180,229.76,3.9217,4.8108,-1.1719,-2.9044,-0.0517,-2.9164,rough,14.0,0,5.143
7190,230.08,3.9154,4.8108,-1.1719,-2.9043,-0.0561,-2.9170,rough,14.0,0,5.137
7200,230.40,3.9159,4.8109,-1.1719,-2.9043,-0.0558,-2.9167,rough,14.0,0,5.137
7210,230.72,3.9230,4.8110,-1.1720,-2.9084,-0.0359,-2.9770,rough,14.0,0,5.144
7220,231.04,3.9187,4.8114,-1.1720,-2.9045,-0.0537,-2.9186,rough,14.0,0,5.140
7230,231.36,3.9107,4.8115,-1.1721,-2.9044,-0.0592,-2.9194,rough,14.0,0,5.132
7240,231.68,3.9191,4.8116,-1.1720,-2.9045,-0.0535,-2.9183,rough,14.0,0,5.140
7250,232.00,3.9273,4.8118,-1.1720,-2.9046,-0.0480,-2.9172,rough,14.0,0,5.148
7260,232.32,3.9246,4.8118,-1.1720,-2.9045,-0.0500,-2.9173,rough,14.0,0,5.146
7270,232.64,3.9122,4.8118,-1.1721,-2.9044,-0.0585,-2.9185,rough,14.0,0,5.133
7280,232.96,3.9117,4.8119,-1.1721,-2.9044,-0.0589,-2.9184,rough,14.0,0,5.133
7290,233.28,3.9244,4.8121,-1.1720,-2.9045,-0.0503,-2.9168,rough,14.0,0,5.145
7300,233.60,3.9304,4.8126,-1.1721,-2.9048,-0.0459,-2.9185,rough,14.0,0,5.151
7310,233.92,3.9246,4.8126,-1.1721,-2.9047,-0.0499,-2.9191,rough,14.0,0,5.146
7320,234.24,3.9117,4.8126,-1.1722,-2.9045,-0.0588,-2.9204,rough,14.0,0,5.133
7330,234.56,3.9138,4.8127,-1.1722,-2.9046,-0.0574,-2.9199,rough,14.0,0,5.135
7340,234.88,3.9255,4.8128,-1.1721,-2.9047,-0.0495,-2.9184,rough,14.0,0,5.146
7350,235.20,3.9274,4.8129,-1.1721,-2.9047,-0.0483,-2.9180,rough,14.0,0,5.148
7360,235.52,3.9185,4.8129,-1.1722,-2.9046,-0.0545,-2.9189,rough,14.0,0,5.139
7370,235.84,3.9108,4.8129,-1.1723,-2.9045,-0.0598,-2.9195,rough,14.0,0,5.132
7380,236.16,3.9205,4.8131,-1.1722,-2.9046,-0.0532,-2.9183,rough,14.0,0,5.141
7390,236.48,3.9308,4.8136,-1.1722,-2.9049,-0.0460,-2.9191,rough,14.0,0,5.152
7400,236.80,3.9295,4.8137,-1.1722,-2.9049,-0.0469,-2.9196,rough,14.0,0,5.150
7410,237.12,3.9172,4.8137,-1.1723,-2.9047,-0.0553,-2.9208,rough,14.0,0,5.138
7420,237.44,3.9122,4.8137,-1.1724,-2.9047,-0.0588,-2.9212,rough,14.0,0,5.133
7430,237.76,3.9230,4.8139,-1.1723,-2.9048,-0.0515,-2.9198,rough,14.0,0,5.144
7440,238.08,3.9291,4.8140,-1.1723,-2.9049,-0.0474,-2.9189,rough,14.0,0,5.150
7450,238.40,3.9244,4.8141,-1.1723,-2.9048,-0.0507,-2.9193,rough,14.0,0,5.145
7460,238.72,3.9125,4.8141,-1.1724,-2.9047,-0.0589,-2.9204,rough,14.0,0,5.133
7470,239.04,3.9156,4.8142,-1.1724,-2.9047,-0.0569,-2.9199,rough,14.0,0,5.136
7480,239.36,3.9280,4.8143,-1.1723,-2.9048,-0.0485,-2.9183,rough,14.0,0,5.149
7490,239.68,3.9317,4.8148,-1.1724,-2.9050,-0.0456,-2.9204,rough,14.0,0,5.152
7500,240.00,3.9236,4.8148,-1.1724,-2.9050,-0.0512,-2.9212,rough,14.0,0,5.144
7510,240.32,3.9120,4.8148,-1.1725,-2.9048,-0.0592,-2.9224,rough,14.0,0,5.133
7520,240.64,3.9173,4.8150,-1.1725,-2.9049,-0.0557,-2.9216,rough,14.0,0,5.138
7530,240.96,3.9275,4.8151,-1.1724,-2.9050,-0.0488,-2.9203,rough,14.0,0,5.148
7540,241.28,3.9269,4.8152,-1.1725,-2.9050,-0.0493,-2.9201,rough,14.0,0,5.147
7550,241.60,3.9167,4.8152,-1.1726,-2.9048,-0.0564,-2.9211,rough,14.0,0,5.137
7560,241.92,3.9178,4.8153,-1.1726,-2.9049,-0.0556,-2.9208,rough,14.0,0,5.138
7570,242.24,3.9245,4.8154,-1.1725,-2.9049,-0.0512,-2.9199,rough,14.0,0,5.145
7580,242.56,3.9203,4.8154,-1.1726,-2.9049,-0.0542,-2.9202,rough,14.0,0,5.141
7590,242.88,3.9170,4.8155,-1.1726,-2.9048,-0.0565,-2.9203,rough,14.0,0,5.138
7600,243.20,3.9240,4.8156,-1.1726,-2.9049,-0.0518,-2.9194,rough,14.0,0,5.144
7610,243.52,3.9212,4.8157,-1.1726,-2.9049,-0.0538,-2.9195,rough,14.0,0,5.142
7620,243.84,3.9192,4.8158,-1.1726,-2.9048,-0.0552,-2.9195,rough,14.0,0,5.140
7630,244.16,3.9231,4.8159,-1.1726,-2.9049,-0.0526,-2.9189,rough,14.0,0,5.144
7640,244.48,3.9197,4.8159,-1.1726,-2.9048,-0.0550,-2.9191,rough,14.0,0,5.140
7650,244.80,3.9235,4.8160,-1.1726,-2.9049,-0.0525,-2.9185,rough,14.0,0,5.144
7660,245.12,3.9188,4.8161,-1.1727,-2.9048,-0.0559,-2.9189,rough,14.0,0,5.139
7670,245.44,3.9245,4.8162,-1.1727,-2.9089,-0.0369,-2.9789,rough,14.0,0,5.145
7680,245.76,3.9253,4.8167,-1.1727,-2.9050,-0.0511,-2.9204,rough,14.0,0,5.146
7690,246.08,3.9188,4.8167,-1.1728,-2.9050,-0.0556,-2.9210,rough,14.0,0,5.139
7700,246.40,3.9231,4.8168,-1.1727,-2.9050,-0.0528,-2.9204,rough,14.0,0,5.143
7710,246.72,3.9197,4.8169,-1.1728,-2.9050,-0.0551,-2.9206,rough,14.0,0,5.140
7720,247.04,3.9226,4.8170,-1.1728,-2.9050,-0.0532,-2.9201,rough,14.0,0,5.143
7730,247.36,3.9256,4.8171,-1.1727,-2.9050,-0.0513,-2.9195,rough,14.0,0,5.146
7740,247.68,3.9190,4.8171,-1.1728,-2.9049,-0.0559,-2.9201,rough,14.0,0,5.139
7750,248.00,3.9232,4.8172,-1.1728,-2.9050,-0.0530,-2.9194,rough,14.0,0,5.144
7760,248.32,3.9285,4.8177,-1.1728,-2.9052,-0.0491,-2.9212,rough,14.0,0,5.149
7770,248.64,3.9221,4.8177,-1.1729,-2.9052,-0.0535,-2.9220,rough,14.0,0,5.142
7780,248.96,3.9167,4.8178,-1.1729,-2.9051,-0.0573,-2.9224,rough,14.0,0,5.137
7790,249.28,3.9249,4.8179,-1.1729,-2.9052,-0.0518,-2.9213,rough,14.0,0,5.145
7800,249.60,3.9254,4.8180,-1.1729,-2.9052,-0.0515,-2.9211,rough,14.0,0,5.146
7810,249.92,3.9187,4.8180,-1.1729,-2.9051,-0.0562,-2.9217,rough,14.0,0,5.139
7820,250.24,3.9248,4.8182,-1.1729,-2.9052,-0.0521,-2.9208,rough,14.0,0,5.145
7830,250.56,3.9265,4.8182,-1.1729,-2.9052,-0.0510,-2.9204,rough,14.0,0,5.147
7840,250.88,3.9186,4.8183,-1.1730,-2.9051,-0.0565,-2.9211,rough,14.0,0,5.139
7850,251.20,3.9217,4.8184,-1.1730,-2.9051,-0.0544,-2.9206,rough,14.0,0,5.142
