step,time_s,x,y,z,roll,pitch,yaw,terrain,speed,target_idx,dist_to_target
10,0.32,-1.4148,0.8631,0.2146,0.1240,-0.1311,-0.0848,rough,14.0,0,6.053
20,0.64,-1.3781,0.8615,0.2028,0.1395,-0.2080,-0.0271,rough,14.0,0,6.085
30,0.96,-1.2041,0.8558,0.2339,0.0910,-0.1300,0.1303,rough,14.0,0,6.234
40,1.28,-0.9542,0.8865,0.2586,0.0639,-0.1153,0.5373,rough,14.0,0,6.431
50,1.60,-0.7297,1.0185,0.2793,0.0295,-0.0979,0.8615,rough,14.0,0,6.560
60,1.92,-0.5486,1.1947,0.2971,0.1047,-0.0683,1.1008,rough,14.0,0,6.638
70,2.24,-0.4513,1.4403,0.3209,0.0444,-0.1190,1.3390,rough,14.0,0,6.619
80,2.56,-0.4448,1.7629,0.3592,-0.0222,-0.1324,1.6145,rough,14.0,0,6.497
90,2.88,-0.5148,2.1163,0.3851,-0.0984,-0.0719,1.7781,rough,14.0,0,6.307
100,3.20,-0.6056,2.4672,0.4007,-0.1252,-0.0539,1.9439,rough,14.0,0,6.114
110,3.52,-0.7334,2.8027,0.4305,-0.0786,-0.1542,2.1112,rough,14.0,0,5.904
120,3.84,-0.9076,3.1477,0.4631,0.0793,-0.1958,2.2290,rough,14.0,0,5.661
130,4.16,-1.1507,3.4819,0.5051,0.1911,-0.0871,2.3625,rough,14.0,0,5.368
140,4.48,-1.4426,3.7645,0.5450,0.2166,-0.0752,2.4794,rough,14.0,0,5.047
150,4.80,-1.7261,4.0220,0.5575,0.3931,-0.1954,2.5311,rough,14.0,0,4.748
160,5.12,-1.9912,4.1906,0.6155,0.2594,-0.2625,2.4478,rough,14.0,0,4.480
170,5.44,-2.2007,4.3597,0.7266,0.2093,-0.4721,2.4348,rough,14.0,0,4.274
180,5.76,-2.4016,4.5457,0.8067,0.1124,-0.3150,2.3123,rough,14.0,0,4.085
190,6.08,-2.5748,4.7695,0.8865,0.0451,-0.3469,2.3490,rough,14.0,0,3.939
200,6.40,-2.7998,5.0440,0.9214,0.2419,-0.2289,2.4561,rough,14.0,0,3.769
210,6.72,-3.1459,5.3107,0.8948,0.1933,0.1766,2.5409,rough,14.0,0,3.509
220,7.04,-3.3663,5.4982,0.8916,0.2147,-0.2524,2.5647,rough,14.0,0,3.369
230,7.36,-3.6359,5.6893,0.9546,0.2077,-0.2581,2.6719,rough,14.0,0,3.207
240,7.68,-3.8786,5.8356,1.0319,0.2832,-0.4632,2.7145,rough,14.0,0,3.070
250,8.00,-4.1718,5.9652,1.1532,0.2287,-0.3295,2.8609,rough,14.0,0,2.905
260,8.32,-4.5498,6.0992,1.1820,0.4226,-0.1357,3.0676,rough,14.0,0,2.708
270,8.64,-5.0018,6.1208,1.1646,0.4412,0.1878,-2.9261,rough,14.0,0,2.426
280,8.96,-5.3710,6.0297,1.1258,0.3649,-0.0007,-2.7838,rough,14.0,0,2.143
290,9.28,-5.7213,5.8510,1.1301,0.1846,-0.0740,-2.6966,rough,14.0,0,1.822
300,9.60,-6.0879,5.6172,1.1183,0.0242,0.0721,-2.5786,rough,14.0,0,1.477
310,9.92,-6.4234,5.3725,1.0668,-0.0589,0.1180,-2.4234,rough,14.0,0,1.183
320,10.24,-6.6530,5.1540,1.0799,-0.0358,-0.1415,-2.2441,rough,14.0,0,0.980
330,10.56,-6.7715,4.8885,1.1444,-0.1545,-0.3425,-2.0300,rough,14.0,1,7.574
340,10.88,-6.8207,4.6195,1.1819,-0.2870,-0.1896,-1.7797,rough,14.0,1,7.635
350,11.20,-6.8189,4.3609,1.2097,-0.2263,-0.1359,-1.4636,rough,14.0,1,7.653
360,11.52,-6.7274,4.0736,1.2229,-0.1856,-0.1242,-1.1982,rough,14.0,1,7.595
370,11.84,-6.5615,3.7864,1.2245,-0.2641,0.0652,-1.0623,rough,14.0,1,7.475
380,12.16,-6.3247,3.4599,1.1479,-0.1300,0.3404,-0.9027,rough,14.0,1,7.307
390,12.48,-6.0483,3.1682,0.9671,-0.0621,0.4931,-0.7647,rough,14.0,1,7.111
400,12.80,-5.7627,2.9140,0.7718,0.1631,0.5685,-0.5872,rough,14.0,1,6.912
410,13.12,-5.4995,2.7698,0.6804,0.1427,0.0971,-0.4979,rough,14.0,1,6.711
420,13.44,-5.1036,2.5953,0.6022,0.1231,0.2621,-0.3198,rough,14.0,1,6.406
430,13.76,-4.6891,2.5077,0.4905,0.0727,0.3859,-0.1688,rough,14.0,1,6.063
440,14.08,-4.2257,2.3516,0.2686,0.3948,0.5770,-0.0178,rough,14.0,1,5.720
450,14.40,-3.8464,2.2459,0.1220,0.4965,0.2507,0.0068,rough,14.0,1,5.444
460,14.72,-3.5378,2.1661,0.1036,0.4256,-0.2275,-0.1606,rough,14.0,1,5.227
470,15.04,-3.1516,2.0989,0.1856,0.3144,-0.3051,0.0127,rough,14.0,1,4.952
480,15.36,-2.7484,2.1137,0.2828,0.2340,-0.1874,0.1173,rough,14.0,1,4.627
490,15.68,-2.3364,2.1622,0.3444,0.2568,-0.1554,0.2251,rough,14.0,1,4.286
500,16.00,-1.9525,2.2629,0.4159,0.2478,-0.1947,0.2938,rough,14.0,1,3.940
510,16.32,-1.5276,2.3951,0.4513,0.2733,-0.0306,0.4089,rough,14.0,1,3.555
520,16.64,-1.1329,2.5834,0.4289,0.1678,0.0428,0.5019,rough,14.0,1,3.160
530,16.96,-0.7743,2.7946,0.4310,0.1192,-0.0297,0.5432,rough,14.0,1,2.777
540,17.28,-0.4091,3.0568,0.4005,-0.0155,0.0806,0.5967,rough,14.0,1,2.359
550,17.60,0.0002,3.3797,0.2350,-0.1514,0.6102,0.5946,rough,14.0,1,1.882
560,17.92,0.1669,3.6619,0.0201,-0.6137,0.5565,-0.1412,rough,14.0,1,1.556
570,18.24,0.2196,3.7494,-0.0680,-0.6302,0.2594,-0.4329,rough,14.0,1,1.454
580,18.56,0.2844,3.7879,-0.1152,-0.6591,-0.0463,-0.5848,rough,14.0,1,1.394
590,18.88,0.4359,3.8985,-0.2499,-0.5285,-0.1069,-0.5466,rough,14.0,1,1.239
600,19.20,0.6944,3.9498,-0.3275,-0.5160,0.0985,-0.1610,rough,14.0,1,1.138
610,19.52,0.9791,4.0555,-0.3902,-0.6076,0.2063,0.2448,rough,14.0,1,1.043
620,19.84,1.2804,4.2586,-0.5351,-0.4420,0.5035,0.5457,rough,14.0,1,0.954
630,20.16,1.5223,4.5248,-0.8168,-0.1929,0.7076,0.8401,rough,14.0,1,0.913
640,20.48,1.6831,4.8416,-1.0866,-0.1774,0.6149,1.0353,rough,14.0,1,0.916
650,20.80,1.7488,5.1428,-1.2208,-0.3571,0.4980,1.2307,rough,14.0,1,0.951
660,21.12,1.8159,5.3513,-1.3079,-0.2801,0.3182,1.6993,rough,14.0,1,1.051
670,21.44,1.7441,5.5257,-1.3369,-0.2299,-0.0355,2.0697,rough,14.0,1,1.043
680,21.76,1.5412,5.7659,-1.3686,-0.1737,0.1363,2.3607,rough,14.0,1,1.008
690,22.08,1.3492,5.9242,-1.3925,-0.0619,0.1211,2.5823,rough,14.0,1,1.005
700,22.40,1.2192,6.0010,-1.3764,-0.1462,-0.2889,2.7779,rough,14.0,1,1.009
710,22.72,1.0204,6.0810,-1.3737,0.0002,-0.3173,2.9658,rough,14.0,1,1.022
720,23.04,0.7103,6.2109,-1.3873,0.3762,-0.1232,-2.9613,rough,14.0,1,1.132
730,23.36,0.4777,6.1795,-1.3471,0.3193,-0.3575,-2.7400,rough,14.0,1,1.143
740,23.68,0.2212,6.0833,-1.2633,0.2487,-0.4230,-2.4156,rough,14.0,1,1.156
750,24.00,0.0198,5.9193,-1.1536,0.1817,-0.4810,-2.1713,rough,14.0,1,1.144
760,24.32,-0.0915,5.7256,-1.0232,0.0771,-0.6336,-1.9056,rough,14.0,1,1.099
770,24.64,-0.1181,5.5096,-0.8913,-0.0633,-0.5939,-1.7323,rough,14.0,1,1.012
780,24.96,-0.1271,5.3488,-0.7898,-0.1272,-0.6212,-1.6846,rough,14.0,1,0.964
790,25.28,-0.1530,5.2495,-0.7112,-0.0742,-0.6775,-1.7791,rough,14.0,1,0.967
800,25.60,-0.1949,5.2001,-0.6595,0.0561,-0.7172,-2.0273,rough,14.0,1,1.002
810,25.92,-0.2479,5.1910,-0.6355,0.1063,-0.7301,-2.1573,rough,14.0,1,1.053
820,26.24,-0.2972,5.1832,-0.6153,0.2570,-0.7042,-2.4534,rough,14.0,1,1.102
830,26.56,-0.3481,5.1595,-0.5849,0.3139,-0.6761,-2.6070,rough,14.0,1,1.150
840,26.88,-0.4163,5.1047,-0.5226,0.2140,-0.6975,-2.5484,rough,14.0,1,1.216
850,27.20,-0.5056,5.0593,-0.4461,0.0829,-0.7188,-2.3297,rough,14.0,1,1.306
860,27.52,-0.6185,4.9871,-0.3410,-0.0880,-0.7147,-2.0169,rough,14.0,1,1.422
870,27.84,-0.6847,4.8714,-0.2232,-0.2473,-0.6791,-1.7748,rough,14.0,1,1.500
880,28.16,-0.7177,4.7488,-0.1195,-0.3148,-0.6489,-1.6518,rough,14.0,1,1.554
890,28.48,-0.7391,4.6260,-0.0333,-0.3035,-0.6157,-1.5894,rough,14.0,1,1.605
900,28.80,-0.7460,4.5145,0.0469,-0.2886,-0.6227,-1.5761,rough,14.0,1,1.647
910,29.12,-0.7471,4.3996,0.1122,-0.2805,-0.5343,-1.5947,rough,14.0,1,1.691
920,29.44,-0.7644,4.2960,0.1749,-0.2383,-0.4785,-1.6849,rough,14.0,1,1.751
930,29.76,-0.7649,4.1869,0.2242,-0.2400,-0.4680,-1.6820,rough,14.0,1,1.803
940,30.08,-0.7811,4.0613,0.2915,-0.2750,-0.4426,-1.5959,rough,14.0,1,1.882
950,30.40,-0.7729,3.9359,0.3291,-0.2767,-0.3646,-1.5848,rough,14.0,1,1.947
960,30.72,-0.7588,3.7871,0.3681,-0.2994,-0.2261,-1.5701,rough,14.0,1,2.027
970,31.04,-0.6998,3.5982,0.3876,-0.3237,-0.0629,-1.4062,rough,14.0,1,2.110
980,31.36,-0.5401,3.3743,0.3992,-0.4038,-0.1934,-0.9332,rough,14.0,1,2.171
990,31.68,-0.3043,3.1335,0.3816,-0.2009,0.0368,-0.6406,rough,14.0,1,2.240
1000,32.00,-0.0521,3.0867,0.3348,-0.3867,0.0565,-0.3304,rough,14.0,1,2.170
1010,32.32,0.2745,3.1100,0.2530,-0.4536,0.2971,-0.0101,rough,14.0,1,2.042
1020,32.64,0.3689,3.0973,0.2361,-0.3796,0.3596,0.4146,rough,14.0,1,2.032
1030,32.96,0.3388,3.1781,0.1981,-0.3230,0.4616,0.3836,rough,14.0,1,1.960
1040,33.28,0.3152,3.2050,0.2011,-0.2752,0.4421,0.4184,rough,14.0,1,1.939
1050,33.60,0.3153,3.2050,0.2011,-0.2759,0.4431,0.4185,rough,14.0,1,1.939
1060,33.92,0.3152,3.2050,0.2011,-0.2760,0.4434,0.4188,rough,14.0,1,1.939
1070,34.24,0.3152,3.2050,0.2011,-0.2760,0.4435,0.4191,rough,14.0,1,1.939
1080,34.56,0.3151,3.2050,0.2011,-0.2760,0.4435,0.4193,rough,14.0,1,1.939
1090,34.88,0.3151,3.2050,0.2011,-0.2759,0.4436,0.4195,rough,14.0,1,1.939
1100,35.20,0.3150,3.2050,0.2011,-0.2759,0.4436,0.4197,rough,14.0,1,1.939
1110,35.52,0.3150,3.2051,0.2011,-0.2758,0.4436,0.4198,rough,14.0,1,1.939
1120,35.84,0.3149,3.2051,0.2011,-0.2757,0.4436,0.4199,rough,14.0,1,1.939
1130,36.16,0.3149,3.2051,0.2011,-0.2757,0.4436,0.4200,rough,14.0,1,1.939
1140,36.48,0.3149,3.2052,0.2011,-0.2756,0.4436,0.4201,rough,14.0,1,1.939
1150,36.80,0.3148,3.2052,0.2011,-0.2755,0.4435,0.4201,rough,14.0,1,1.939
1160,37.12,0.3148,3.2052,0.2011,-0.2754,0.4435,0.4202,rough,14.0,1,1.939
1170,37.44,0.3148,3.2053,0.2011,-0.2753,0.4435,0.4203,rough,14.0,1,1.939
1180,37.76,0.3147,3.2053,0.2011,-0.2752,0.4434,0.4203,rough,14.0,1,1.939
1190,38.08,0.3147,3.2054,0.2011,-0.2751,0.4434,0.4204,rough,14.0,1,1.939
1200,38.40,0.3147,3.2054,0.2011,-0.2750,0.4434,0.4204,rough,14.0,1,1.939
1210,38.72,0.3146,3.2055,0.2011,-0.2749,0.4433,0.4205,rough,14.0,1,1.939
1220,39.04,0.3146,3.2055,0.2011,-0.2748,0.4433,0.4205,rough,14.0,1,1.939
1230,39.36,0.3145,3.2056,0.2011,-0.2747,0.4433,0.4206,rough,14.0,1,1.939
1240,39.68,0.3145,3.2056,0.2011,-0.2746,0.4432,0.4206,rough,14.0,1,1.939
1250,40.00,0.3145,3.2056,0.2011,-0.2745,0.4432,0.4207,rough,14.0,1,1.939
1260,40.32,0.3144,3.2057,0.2011,-0.2744,0.4431,0.4207,rough,14.0,1,1.939
1270,40.64,0.3144,3.2057,0.2011,-0.2743,0.4431,0.4208,rough,14.0,1,1.939
1280,40.96,0.3144,3.2058,0.2012,-0.2742,0.4431,0.4209,rough,14.0,1,1.939
1290,41.28,0.3143,3.2058,0.2012,-0.2741,0.4430,0.4209,rough,14.0,1,1.939
1300,41.60,0.3143,3.2059,0.2012,-0.2740,0.4430,0.4210,rough,14.0,1,1.939
1310,41.92,0.3143,3.2059,0.2012,-0.2739,0.4430,0.4210,rough,14.0,1,1.939
1320,42.24,0.3142,3.2060,0.2012,-0.2738,0.4429,0.4211,rough,14.0,1,1.939
1330,42.56,0.3142,3.2060,0.2012,-0.2737,0.4429,0.4211,rough,14.0,1,1.939
1340,42.88,0.3142,3.2060,0.2012,-0.2736,0.4428,0.4212,rough,14.0,1,1.939
1350,43.20,0.3141,3.2061,0.2012,-0.2735,0.4428,0.4212,rough,14.0,1,1.939
1360,43.52,0.3141,3.2061,0.2012,-0.2734,0.4428,0.4213,rough,14.0,1,1.939
1370,43.84,0.3140,3.2062,0.2012,-0.2733,0.4427,0.4213,rough,14.0,1,1.939
1380,44.16,0.3140,3.2062,0.2012,-0.2732,0.4427,0.4214,rough,14.0,1,1.939
1390,44.48,0.3140,3.2063,0.2012,-0.2731,0.4427,0.4214,rough,14.0,1,1.939
1400,44.80,0.3139,3.2063,0.2012,-0.2730,0.4426,0.4215,rough,14.0,1,1.939
1410,45.12,0.3139,3.2063,0.2012,-0.2729,0.4426,0.4215,rough,14.0,1,1.938
1420,45.44,0.3139,3.2064,0.2012,-0.2728,0.4426,0.4216,rough,14.0,1,1.938
1430,45.76,0.3138,3.2064,0.2012,-0.2727,0.4425,0.4216,rough,14.0,1,1.938
1440,46.08,0.3138,3.2065,0.2012,-0.2727,0.4425,0.4217,rough,14.0,1,1.938
1450,46.40,0.3138,3.2065,0.2012,-0.2726,0.4424,0.4218,rough,14.0,1,1.938
1460,46.72,0.3137,3.2066,0.2012,-0.2725,0.4424,0.4218,rough,14.0,1,1.938
1470,47.04,0.3137,3.2066,0.2012,-0.2724,0.4424,0.4219,rough,14.0,1,1.938
1480,47.36,0.3137,3.2066,0.2012,-0.2723,0.4423,0.4219,rough,14.0,1,1.938
1490,47.68,0.3136,3.2067,0.2012,-0.2722,0.4423,0.4220,rough,14.0,1,1.938
1500,48.00,0.3136,3.2067,0.2012,-0.2721,0.4423,0.4220,rough,14.0,1,1.938
1510,48.32,0.3136,3.2068,0.2012,-0.2720,0.4422,0.4221,rough,14.0,1,1.938
1520,48.64,0.3135,3.2068,0.2012,-0.2719,0.4422,0.4221,rough,14.0,1,1.938
1530,48.96,0.3135,3.2069,0.2012,-0.2718,0.4422,0.4222,rough,14.0,1,1.938
1540,49.28,0.3134,3.2069,0.2012,-0.2717,0.4421,0.4222,rough,14.0,1,1.938
1550,49.60,0.3134,3.2069,0.2012,-0.2716,0.4421,0.4223,rough,14.0,1,1.938
1560,49.92,0.3134,3.2070,0.2012,-0.2715,0.4421,0.4223,rough,14.0,1,1.938
1570,50.24,0.3133,3.2070,0.2012,-0.2714,0.4420,0.4224,rough,14.0,1,1.938
1580,50.56,0.3133,3.2071,0.2012,-0.2713,0.4420,0.4224,rough,14.0,1,1.938
1590,50.88,0.3133,3.2071,0.2012,-0.2712,0.4419,0.4225,rough,14.0,1,1.938
1600,51.20,0.3132,3.2072,0.2012,-0.2711,0.4419,0.4225,rough,14.0,1,1.938
1610,51.52,0.3132,3.2072,0.2012,-0.2710,0.4419,0.4226,rough,14.0,1,1.938
1620,51.84,0.3132,3.2072,0.2012,-0.2709,0.4418,0.4226,rough,14.0,1,1.938
1630,52.16,0.3131,3.2073,0.2012,-0.2708,0.4418,0.4227,rough,14.0,1,1.938
1640,52.48,0.3131,3.2073,0.2012,-0.2707,0.4418,0.4227,rough,14.0,1,1.938
1650,52.80,0.3131,3.2074,0.2012,-0.2707,0.4417,0.4228,rough,14.0,1,1.938
1660,53.12,0.3130,3.2074,0.2012,-0.2706,0.4417,0.4228,rough,14.0,1,1.938
1670,53.44,0.3130,3.2075,0.2012,-0.2705,0.4417,0.4229,rough,14.0,1,1.938
1680,53.76,0.3130,3.2075,0.2012,-0.2704,0.4416,0.4229,rough,14.0,1,1.938
1690,54.08,0.3129,3.2075,0.2012,-0.2703,0.4416,0.4230,rough,14.0,1,1.938
1700,54.40,0.3129,3.2076,0.2012,-0.2702,0.4416,0.4230,rough,14.0,1,1.938
1710,54.72,0.3129,3.2076,0.2012,-0.2701,0.4415,0.4231,rough,14.0,1,1.938
1720,55.04,0.3128,3.2077,0.2012,-0.2700,0.4415,0.4231,rough,14.0,1,1.937
1730,55.36,0.3128,3.2077,0.2012,-0.2699,0.4415,0.4232,rough,14.0,1,1.937
1740,55.68,0.3128,3.2077,0.2012,-0.2698,0.4414,0.4232,rough,14.0,1,1.937
1750,56.00,0.3127,3.2078,0.2012,-0.2697,0.4414,0.4233,rough,14.0,1,1.937
1760,56.32,0.3127,3.2078,0.2012,-0.2696,0.4413,0.4233,rough,14.0,1,1.937
1770,56.64,0.3127,3.2079,0.2012,-0.2695,0.4413,0.4234,rough,14.0,1,1.937
1780,56.96,0.3126,3.2079,0.2012,-0.2694,0.4413,0.4234,rough,14.0,1,1.937
1790,57.28,0.3126,3.2080,0.2012,-0.2693,0.4412,0.4235,rough,14.0,1,1.937
1800,57.60,0.3126,3.2080,0.2012,-0.2693,0.4412,0.4235,rough,14.0,1,1.937
1810,57.92,0.3125,3.2080,0.2012,-0.2692,0.4412,0.4236,rough,14.0,1,1.937
1820,58.24,0.3125,3.2081,0.2012,-0.2691,0.4411,0.4236,rough,14.0,1,1.937
1830,58.56,0.3124,3.2081,0.2012,-0.2690,0.4411,0.4237,rough,14.0,1,1.937
1840,58.88,0.3124,3.2082,0.2012,-0.2689,0.4411,0.4237,rough,14.0,1,1.937
1850,59.20,0.3124,3.2082,0.2012,-0.2688,0.4410,0.4238,rough,14.0,1,1.937
1860,59.52,0.3123,3.2082,0.2012,-0.2687,0.4410,0.4238,rough,14.0,1,1.937
1870,59.84,0.3123,3.2083,0.2012,-0.2686,0.4410,0.4239,rough,14.0,1,1.937
1880,60.16,0.3123,3.2083,0.2012,-0.2685,0.4409,0.4239,rough,14.0,1,1.937
1890,60.48,0.3122,3.2084,0.2012,-0.2684,0.4409,0.4240,rough,14.0,1,1.937
1900,60.80,0.3122,3.2084,0.2012,-0.2683,0.4409,0.4240,rough,14.0,1,1.937
1910,61.12,0.3122,3.2085,0.2012,-0.2682,0.4408,0.4241,rough,14.0,1,1.937
1920,61.44,0.3121,3.2085,0.2012,-0.2681,0.4408,0.4241,rough,14.0,1,1.937
1930,61.76,0.3121,3.2085,0.2012,-0.2681,0.4408,0.4242,rough,14.0,1,1.937
1940,62.08,0.3121,3.2086,0.2012,-0.2680,0.4407,0.4242,rough,14.0,1,1.937
1950,62.40,0.3120,3.2086,0.2012,-0.2679,0.4407,0.4243,rough,14.0,1,1.937
1960,62.72,0.3120,3.2087,0.2012,-0.2678,0.4407,0.4243,rough,14.0,1,1.937
1970,63.04,0.3120,3.2087,0.2012,-0.2677,0.4406,0.4244,rough,14.0,1,1.937
1980,63.36,0.3055,3.2225,0.1982,-0.2573,0.4515,0.4287,rough,14.0,1,1.925
1990,63.68,0.3057,3.2251,0.1976,-0.2677,0.4591,0.4227,rough,14.0,1,1.922
2000,64.00,0.3057,3.2254,0.1976,-0.2689,0.4599,0.4220,rough,14.0,1,1.922
2010,64.32,0.3056,3.2254,0.1977,-0.2689,0.4599,0.4220,rough,14.0,1,1.922
2020,64.64,0.3054,3.2254,0.1977,-0.2688,0.4597,0.4220,rough,14.0,1,1.922
2030,64.96,0.3053,3.2254,0.1978,-0.2687,0.4595,0.4219,rough,14.0,1,1.922
2040,65.28,0.3051,3.2254,0.1978,-0.2686,0.4593,0.4219,rough,14.0,1,1.922
2050,65.60,0.3050,3.2255,0.1979,-0.2685,0.4592,0.4218,rough,14.0,1,1.922
2060,65.92,0.3049,3.2255,0.1979,-0.2684,0.4590,0.4218,rough,14.0,1,1.922
2070,66.24,0.3048,3.2255,0.1980,-0.2683,0.4589,0.4218,rough,14.0,1,1.922
2080,66.56,0.3048,3.2255,0.1980,-0.2682,0.4588,0.4217,rough,14.0,1,1.922
2090,66.88,0.3047,3.2255,0.1980,-0.2681,0.4586,0.4217,rough,14.0,1,1.922
2100,67.20,0.3046,3.2256,0.1981,-0.2681,0.4585,0.4216,rough,14.0,1,1.922
2110,67.52,0.3045,3.2256,0.1981,-0.2680,0.4584,0.4215,rough,14.0,1,1.922
2120,67.84,0.3044,3.2256,0.1981,-0.2679,0.4582,0.4214,rough,14.0,1,1.922
2130,68.16,0.3044,3.2256,0.1981,-0.2678,0.4581,0.4214,rough,14.0,1,1.922
2140,68.48,0.3043,3.2257,0.1982,-0.2677,0.4580,0.4213,rough,14.0,1,1.922
2150,68.80,0.3042,3.2257,0.1982,-0.2676,0.4579,0.4212,rough,14.0,1,1.922
2160,69.12,0.3042,3.2257,0.1982,-0.2675,0.4577,0.4211,rough,14.0,1,1.922
2170,69.44,0.3041,3.2258,0.1982,-0.2674,0.4577,0.4211,rough,14.0,1,1.922
2180,69.76,0.3041,3.2258,0.1982,-0.2674,0.4576,0.4211,rough,14.0,1,1.922
2190,70.08,0.3040,3.2259,0.1982,-0.2673,0.4576,0.4211,rough,14.0,1,1.922
2200,70.40,0.3040,3.2259,0.1982,-0.2672,0.4576,0.4212,rough,14.0,1,1.922
2210,70.72,0.3040,3.2259,0.1982,-0.2671,0.4576,0.4212,rough,14.0,1,1.922
2220,71.04,0.3040,3.2260,0.1982,-0.2671,0.4576,0.4213,rough,14.0,1,1.922
2230,71.36,0.3039,3.2260,0.1982,-0.2670,0.4576,0.4213,rough,14.0,1,1.922
2240,71.68,0.3039,3.2261,0.1982,-0.2669,0.4576,0.4214,rough,14.0,1,1.922
2250,72.00,0.3039,3.2261,0.1982,-0.2668,0.4576,0.4214,rough,14.0,1,1.922
2260,72.32,0.3038,3.2262,0.1982,-0.2668,0.4575,0.4214,rough,14.0,1,1.922
2270,72.64,0.3038,3.2262,0.1982,-0.2667,0.4575,0.4215,rough,14.0,1,1.922
2280,72.96,0.3038,3.2262,0.1982,-0.2666,0.4575,0.4215,rough,14.0,1,1.922
2290,73.28,0.3037,3.2263,0.1982,-0.2665,0.4575,0.4216,rough,14.0,1,1.922
2300,73.60,0.3037,3.2263,0.1982,-0.2664,0.4575,0.4216,rough,14.0,1,1.922
2310,73.92,0.3037,3.2264,0.1982,-0.2664,0.4575,0.4216,rough,14.0,1,1.922
2320,74.24,0.3036,3.2264,0.1982,-0.2663,0.4575,0.4217,rough,14.0,1,1.922
2330,74.56,0.3036,3.2265,0.1982,-0.2662,0.4575,0.4217,rough,14.0,1,1.922
2340,74.88,0.3036,3.2265,0.1982,-0.2661,0.4574,0.4217,rough,14.0,1,1.922
2350,75.20,0.3036,3.2265,0.1982,-0.2661,0.4574,0.4218,rough,14.0,1,1.922
2360,75.52,0.3035,3.2266,0.1982,-0.2660,0.4574,0.4218,rough,14.0,1,1.922
2370,75.84,0.3035,3.2266,0.1982,-0.2659,0.4574,0.4219,rough,14.0,1,1.922
2380,76.16,0.3035,3.2267,0.1982,-0.2658,0.4574,0.4219,rough,14.0,1,1.921
2390,76.48,0.3034,3.2267,0.1982,-0.2658,0.4574,0.4219,rough,14.0,1,1.921
2400,76.80,0.3034,3.2268,0.1982,-0.2657,0.4574,0.4220,rough,14.0,1,1.921
2410,77.12,0.3034,3.2268,0.1982,-0.2656,0.4573,0.4220,rough,14.0,1,1.921
2420,77.44,0.3033,3.2268,0.1982,-0.2655,0.4573,0.4221,rough,14.0,1,1.921
2430,77.76,0.3033,3.2269,0.1982,-0.2655,0.4573,0.4221,rough,14.0,1,1.921
2440,78.08,0.3033,3.2269,0.1982,-0.2654,0.4573,0.4221,rough,14.0,1,1.921
2450,78.40,0.3033,3.2270,0.1982,-0.2653,0.4573,0.4222,rough,14.0,1,1.921
2460,78.72,0.3032,3.2270,0.1982,-0.2652,0.4573,0.4222,rough,14.0,1,1.921
2470,79.04,0.3032,3.2270,0.1982,-0.2652,0.4573,0.4222,rough,14.0,1,1.921
2480,79.36,0.3032,3.2271,0.1982,-0.2651,0.4573,0.4223,rough,14.0,1,1.921
2490,79.68,0.3031,3.2271,0.1981,-0.2650,0.4572,0.4223,rough,14.0,1,1.921
2500,80.00,0.3031,3.2272,0.1981,-0.2649,0.4572,0.4224,rough,14.0,1,1.921
2510,80.32,0.3031,3.2272,0.1981,-0.2649,0.4572,0.4224,rough,14.0,1,1.921
2520,80.64,0.3030,3.2273,0.1981,-0.2648,0.4572,0.4224,rough,14.0,1,1.921
2530,80.96,0.3030,3.2273,0.1981,-0.2647,0.4572,0.4225,rough,14.0,1,1.921
2540,81.28,0.3030,3.2273,0.1981,-0.2646,0.4572,0.4225,rough,14.0,1,1.921
2550,81.60,0.3030,3.2274,0.1981,-0.2645,0.4572,0.4225,rough,14.0,1,1.921
2560,81.92,0.3029,3.2274,0.1981,-0.2645,0.4571,0.4226,rough,14.0,1,1.921
2570,82.24,0.3029,3.2275,0.1981,-0.2644,0.4571,0.4226,rough,14.0,1,1.921
2580,82.56,0.3029,3.2275,0.1981,-0.2643,0.4571,0.4227,rough,14.0,1,1.921
2590,82.88,0.3028,3.2276,0.1981,-0.2642,0.4571,0.4227,rough,14.0,1,1.921
2600,83.20,0.3028,3.2276,0.1981,-0.2642,0.4571,0.4227,rough,14.0,1,1.921
2610,83.52,0.3028,3.2276,0.1981,-0.2641,0.4571,0.4228,rough,14.0,1,1.921
2620,83.84,0.3027,3.2277,0.1981,-0.2640,0.4571,0.4228,rough,14.0,1,1.921
2630,84.16,0.3027,3.2277,0.1981,-0.2639,0.4570,0.4229,rough,14.0,1,1.921
2640,84.48,0.3027,3.2278,0.1981,-0.2639,0.4570,0.4229,rough,14.0,1,1.921
2650,84.80,0.3026,3.2278,0.1981,-0.2638,0.4570,0.4229,rough,14.0,1,1.921
2660,85.12,0.3026,3.2279,0.1981,-0.2637,0.4570,0.4230,rough,14.0,1,1.921
2670,85.44,0.3026,3.2279,0.1981,-0.2636,0.4570,0.4230,rough,14.0,1,1.921
2680,85.76,0.3026,3.2279,0.1981,-0.2636,0.4570,0.4230,rough,14.0,1,1.921
2690,86.08,0.3025,3.2280,0.1981,-0.2635,0.4570,0.4231,rough,14.0,1,1.920
2700,86.40,0.3025,3.2280,0.1981,-0.2634,0.4570,0.4231,rough,14.0,1,1.920
2710,86.72,0.3025,3.2281,0.1981,-0.2633,0.4569,0.4232,rough,14.0,1,1.920
2720,87.04,0.3024,3.2281,0.1981,-0.2633,0.4569,0.4232,rough,14.0,1,1.920
2730,87.36,0.3024,3.2281,0.1981,-0.2632,0.4569,0.4232,rough,14.0,1,1.920
2740,87.68,0.3024,3.2282,0.1981,-0.2631,0.4569,0.4233,rough,14.0,1,1.920
2750,88.00,0.3023,3.2282,0.1981,-0.2630,0.4569,0.4233,rough,14.0,1,1.920
2760,88.32,0.3023,3.2283,0.1981,-0.2630,0.4569,0.4233,rough,14.0,1,1.920
2770,88.64,0.3023,3.2283,0.1981,-0.2629,0.4569,0.4234,rough,14.0,1,1.920
2780,88.96,0.3023,3.2284,0.1981,-0.2628,0.4568,0.4234,rough,14.0,1,1.920
2790,89.28,0.3022,3.2284,0.1981,-0.2627,0.4568,0.4235,rough,14.0,1,1.920
2800,89.60,0.3022,3.2284,0.1981,-0.2627,0.4568,0.4235,rough,14.0,1,1.920
2810,89.92,0.3022,3.2285,0.1981,-0.2626,0.4568,0.4235,rough,14.0,1,1.920
2820,90.24,0.3021,3.2285,0.1981,-0.2625,0.4568,0.4236,rough,14.0,1,1.920
2830,90.56,0.3021,3.2286,0.1981,-0.2624,0.4568,0.4236,rough,14.0,1,1.920
2840,90.88,0.3021,3.2286,0.1981,-0.2624,0.4568,0.4236,rough,14.0,1,1.920
2850,91.20,0.3020,3.2287,0.1981,-0.2623,0.4568,0.4237,rough,14.0,1,1.920
2860,91.52,0.3020,3.2287,0.1980,-0.2622,0.4567,0.4237,rough,14.0,1,1.920
2870,91.84,0.3020,3.2287,0.1980,-0.2621,0.4567,0.4238,rough,14.0,1,1.920
2880,92.16,0.3020,3.2288,0.1980,-0.2620,0.4567,0.4238,rough,14.0,1,1.920
2890,92.48,0.3019,3.2288,0.1980,-0.2620,0.4567,0.4238,rough,14.0,1,1.920
2900,92.80,0.3019,3.2289,0.1980,-0.2619,0.4567,0.4239,rough,14.0,1,1.920
2910,93.12,0.3019,3.2289,0.1980,-0.2618,0.4567,0.4239,rough,14.0,1,1.920
2920,93.44,0.3018,3.2289,0.1980,-0.2617,0.4567,0.4240,rough,14.0,1,1.920
2930,93.76,0.3018,3.2290,0.1980,-0.2617,0.4566,0.4240,rough,14.0,1,1.920
2940,94.08,0.3018,3.2290,0.1980,-0.2616,0.4566,0.4240,rough,14.0,1,1.920
2950,94.40,0.3017,3.2291,0.1980,-0.2615,0.4566,0.4241,rough,14.0,1,1.920
2960,94.72,0.3017,3.2291,0.1980,-0.2614,0.4566,0.4241,rough,14.0,1,1.920
2970,95.04,0.3017,3.2292,0.1980,-0.2614,0.4566,0.4241,rough,14.0,1,1.920
2980,95.36,0.3016,3.2292,0.1980,-0.2613,0.4566,0.4242,rough,14.0,1,1.920
2990,95.68,0.3016,3.2292,0.1980,-0.2612,0.4566,0.4242,rough,14.0,1,1.919
3000,96.00,0.3016,3.2293,0.1980,-0.2611,0.4565,0.4243,rough,14.0,1,1.919
3010,96.32,0.3016,3.2293,0.1980,-0.2611,0.4565,0.4243,rough,14.0,1,1.919
3020,96.64,0.3015,3.2294,0.1980,-0.2610,0.4565,0.4243,rough,14.0,1,1.919
3030,96.96,0.3015,3.2294,0.1980,-0.2609,0.4565,0.4244,rough,14.0,1,1.919
3040,97.28,0.3015,3.2295,0.1980,-0.2608,0.4565,0.4244,rough,14.0,1,1.919
3050,97.60,0.3014,3.2295,0.1980,-0.2608,0.4565,0.4244,rough,14.0,1,1.919
3060,97.92,0.3014,3.2295,0.1980,-0.2607,0.4565,0.4245,rough,14.0,1,1.919
3070,98.24,0.3014,3.2296,0.1980,-0.2606,0.4565,0.4245,rough,14.0,1,1.919
3080,98.56,0.3013,3.2296,0.1980,-0.2605,0.4564,0.4246,rough,14.0,1,1.919
3090,98.88,0.3013,3.2297,0.1980,-0.2605,0.4564,0.4246,rough,14.0,1,1.919
3100,99.20,0.3013,3.2297,0.1980,-0.2604,0.4564,0.4246,rough,14.0,1,1.919
3110,99.52,0.3013,3.2298,0.1980,-0.2603,0.4564,0.4247,rough,14.0,1,1.919
3120,99.84,0.3012,3.2298,0.1980,-0.2602,0.4564,0.4247,rough,14.0,1,1.919
3130,100.16,0.3012,3.2298,0.1980,-0.2602,0.4564,0.4247,rough,14.0,1,1.919
3140,100.48,0.3012,3.2299,0.1980,-0.2601,0.4564,0.4248,rough,14.0,1,1.919
3150,100.80,0.3011,3.2299,0.1980,-0.2600,0.4563,0.4248,rough,14.0,1,1.919
3160,101.12,0.3011,3.2300,0.1980,-0.2599,0.4563,0.4249,rough,14.0,1,1.919
3170,101.44,0.3011,3.2300,0.1980,-0.2599,0.4563,0.4249,rough,14.0,1,1.919
3180,101.76,0.3010,3.2300,0.1980,-0.2598,0.4563,0.4249,rough,14.0,1,1.919
3190,102.08,0.3010,3.2301,0.1980,-0.2597,0.4563,0.4250,rough,14.0,1,1.919
3200,102.40,0.3010,3.2301,0.1980,-0.2596,0.4563,0.4250,rough,14.0,1,1.919
3210,102.72,0.3010,3.2302,0.1980,-0.2596,0.4563,0.4250,rough,14.0,1,1.919
3220,103.04,0.3009,3.2302,0.1980,-0.2595,0.4563,0.4251,rough,14.0,1,1.919
3230,103.36,0.3009,3.2303,0.1979,-0.2594,0.4562,0.4251,rough,14.0,1,1.919
3240,103.68,0.3009,3.2303,0.1979,-0.2593,0.4562,0.4252,rough,14.0,1,1.919
3250,104.00,0.3008,3.2303,0.1979,-0.2593,0.4562,0.4252,rough,14.0,1,1.919
3260,104.32,0.3008,3.2304,0.1979,-0.2592,0.4562,0.4252,rough,14.0,1,1.919
3270,104.64,0.3008,3.2304,0.1979,-0.2591,0.4562,0.4253,rough,14.0,1,1.919
3280,104.96,0.3007,3.2305,0.1979,-0.2590,0.4562,0.4253,rough,14.0,1,1.919
3290,105.28,0.3007,3.2305,0.1979,-0.2589,0.4562,0.4253,rough,14.0,1,1.918
3300,105.60,0.3007,3.2306,0.1979,-0.2589,0.4561,0.4254,rough,14.0,1,1.918
3310,105.92,0.3007,3.2306,0.1979,-0.2588,0.4561,0.4254,rough,14.0,1,1.918
3320,106.24,0.3006,3.2306,0.1979,-0.2587,0.4561,0.4255,rough,14.0,1,1.918
3330,106.56,0.3006,3.2307,0.1979,-0.2586,0.4561,0.4255,rough,14.0,1,1.918
3340,106.88,0.3006,3.2307,0.1979,-0.2586,0.4561,0.4255,rough,14.0,1,1.918
3350,107.20,0.3005,3.2308,0.1979,-0.2585,0.4561,0.4256,rough,14.0,1,1.918
3360,107.52,0.3005,3.2308,0.1979,-0.2584,0.4561,0.4256,rough,14.0,1,1.918
3370,107.84,0.3005,3.2308,0.1979,-0.2583,0.4560,0.4257,rough,14.0,1,1.918
3380,108.16,0.3004,3.2309,0.1979,-0.2583,0.4560,0.4257,rough,14.0,1,1.918
3390,108.48,0.3004,3.2309,0.1979,-0.2582,0.4560,0.4257,rough,14.0,1,1.918
3400,108.80,0.3004,3.2310,0.1979,-0.2581,0.4560,0.4258,rough,14.0,1,1.918
3410,109.12,0.3004,3.2310,0.1979,-0.2580,0.4560,0.4258,rough,14.0,1,1.918
3420,109.44,0.3003,3.2311,0.1979,-0.2580,0.4560,0.4258,rough,14.0,1,1.918
3430,109.76,0.3003,3.2311,0.1979,-0.2579,0.4560,0.4259,rough,14.0,1,1.918
3440,110.08,0.3003,3.2311,0.1979,-0.2578,0.4560,0.4259,rough,14.0,1,1.918
3450,110.40,0.3002,3.2312,0.1979,-0.2577,0.4559,0.4260,rough,14.0,1,1.918
3460,110.72,0.3002,3.2312,0.1979,-0.2577,0.4559,0.4260,rough,14.0,1,1.918
3470,111.04,0.3002,3.2313,0.1979,-0.2576,0.4559,0.4260,rough,14.0,1,1.918
3480,111.36,0.3001,3.2313,0.1979,-0.2575,0.4559,0.4261,rough,14.0,1,1.918
3490,111.68,0.3001,3.2314,0.1979,-0.2574,0.4559,0.4261,rough,14.0,1,1.918
3500,112.00,0.3001,3.2314,0.1979,-0.2574,0.4559,0.4261,rough,14.0,1,1.918
3510,112.32,0.3000,3.2314,0.1979,-0.2573,0.4559,0.4262,rough,14.0,1,1.918
3520,112.64,0.3000,3.2315,0.1979,-0.2572,0.4558,0.4262,rough,14.0,1,1.918
3530,112.96,0.3000,3.2315,0.1979,-0.2571,0.4558,0.4263,rough,14.0,1,1.918
3540,113.28,0.3000,3.2316,0.1979,-0.2571,0.4558,0.4263,rough,14.0,1,1.918
3550,113.60,0.2999,3.2316,0.1979,-0.2570,0.4558,0.4263,rough,14.0,1,1.918
3560,113.92,0.2999,3.2316,0.1979,-0.2569,0.4558,0.4264,rough,14.0,1,1.918
3570,114.24,0.2999,3.2317,0.1979,-0.2568,0.4558,0.4264,rough,14.0,1,1.918
3580,114.56,0.2998,3.2317,0.1979,-0.2568,0.4558,0.4264,rough,14.0,1,1.918
3590,114.88,0.2998,3.2318,0.1979,-0.2567,0.4558,0.4265,rough,14.0,1,1.918
3600,115.20,0.2998,3.2318,0.1978,-0.2566,0.4557,0.4265,rough,14.0,1,1.917
3610,115.52,0.2997,3.2319,0.1978,-0.2565,0.4557,0.4266,rough,14.0,1,1.917
3620,115.84,0.2997,3.2319,0.1978,-0.2565,0.4557,0.4266,rough,14.0,1,1.917
3630,116.16,0.2997,3.2319,0.1978,-0.2564,0.4557,0.4266,rough,14.0,1,1.917
3640,116.48,0.2997,3.2320,0.1978,-0.2563,0.4557,0.4267,rough,14.0,1,1.917
3650,116.80,0.2996,3.2320,0.1978,-0.2562,0.4557,0.4267,rough,14.0,1,1.917
3660,117.12,0.2996,3.2321,0.1978,-0.2562,0.4557,0.4267,rough,14.0,1,1.917
3670,117.44,0.2996,3.2321,0.1978,-0.2561,0.4556,0.4268,rough,14.0,1,1.917
3680,117.76,0.2995,3.2322,0.1978,-0.2560,0.4556,0.4268,rough,14.0,1,1.917
3690,118.08,0.2995,3.2322,0.1978,-0.2559,0.4556,0.4269,rough,14.0,1,1.917
3700,118.40,0.2995,3.2322,0.1978,-0.2559,0.4556,0.4269,rough,14.0,1,1.917
3710,118.72,0.2994,3.2323,0.1978,-0.2558,0.4556,0.4269,rough,14.0,1,1.917
3720,119.04,0.2994,3.2323,0.1978,-0.2557,0.4556,0.4270,rough,14.0,1,1.917
3730,119.36,0.2994,3.2324,0.1978,-0.2556,0.4556,0.4270,rough,14.0,1,1.917
3740,119.68,0.2994,3.2324,0.1978,-0.2556,0.4555,0.4270,rough,14.0,1,1.917
3750,120.00,0.2993,3.2324,0.1978,-0.2555,0.4555,0.4271,rough,14.0,1,1.917
3760,120.32,0.2993,3.2325,0.1978,-0.2554,0.4555,0.4271,rough,14.0,1,1.917
3770,120.64,0.2993,3.2325,0.1978,-0.2553,0.4555,0.4272,rough,14.0,1,1.917
3780,120.96,0.2992,3.2326,0.1978,-0.2553,0.4555,0.4272,rough,14.0,1,1.917
3790,121.28,0.2992,3.2326,0.1978,-0.2552,0.4555,0.4272,rough,14.0,1,1.917
3800,121.60,0.2992,3.2327,0.1978,-0.2551,0.4555,0.4273,rough,14.0,1,1.917
3810,121.92,0.2991,3.2327,0.1978,-0.2550,0.4555,0.4273,rough,14.0,1,1.917
3820,122.24,0.2991,3.2327,0.1978,-0.2550,0.4554,0.4273,rough,14.0,1,1.917
3830,122.56,0.2991,3.2328,0.1978,-0.2549,0.4554,0.4274,rough,14.0,1,1.917
3840,122.88,0.2991,3.2328,0.1978,-0.2548,0.4554,0.4274,rough,14.0,1,1.917
3850,123.20,0.2990,3.2329,0.1978,-0.2547,0.4554,0.4275,rough,14.0,1,1.917
3860,123.52,0.2990,3.2329,0.1978,-0.2547,0.4554,0.4275,rough,14.0,1,1.917
3870,123.84,0.2990,3.2329,0.1978,-0.2546,0.4554,0.4275,rough,14.0,1,1.917
3880,124.16,0.2989,3.2330,0.1978,-0.2545,0.4554,0.4276,rough,14.0,1,1.917
3890,124.48,0.2989,3.2330,0.1978,-0.2544,0.4553,0.4276,rough,14.0,1,1.917
3900,124.80,0.2989,3.2331,0.1978,-0.2543,0.4553,0.4276,rough,14.0,1,1.916
3910,125.12,0.2988,3.2331,0.1978,-0.2543,0.4553,0.4277,rough,14.0,1,1.916
3920,125.44,0.2988,3.2332,0.1978,-0.2542,0.4553,0.4277,rough,14.0,1,1.916
3930,125.76,0.2988,3.2332,0.1978,-0.2541,0.4553,0.4278,rough,14.0,1,1.916
3940,126.08,0.2988,3.2332,0.1978,-0.2540,0.4553,0.4278,rough,14.0,1,1.916
3950,126.40,0.2987,3.2333,0.1978,-0.2540,0.4553,0.4278,rough,14.0,1,1.916
3960,126.72,0.2987,3.2333,0.1977,-0.2539,0.4552,0.4279,rough,14.0,1,1.916
3970,127.04,0.2987,3.2334,0.1977,-0.2538,0.4552,0.4279,rough,14.0,1,1.916
3980,127.36,0.2986,3.2334,0.1977,-0.2537,0.4552,0.4279,rough,14.0,1,1.916
3990,127.68,0.2986,3.2335,0.1977,-0.2537,0.4552,0.4280,rough,14.0,1,1.916
4000,128.00,0.2986,3.2335,0.1977,-0.2536,0.4552,0.4280,rough,14.0,1,1.916
4010,128.32,0.2985,3.2335,0.1977,-0.2535,0.4552,0.4280,rough,14.0,1,1.916
4020,128.64,0.2985,3.2336,0.1977,-0.2534,0.4552,0.4281,rough,14.0,1,1.916
4030,128.96,0.2985,3.2336,0.1977,-0.2534,0.4552,0.4281,rough,14.0,1,1.916
4040,129.28,0.2985,3.2337,0.1977,-0.2533,0.4551,0.4282,rough,14.0,1,1.916
4050,129.60,0.2984,3.2337,0.1977,-0.2532,0.4551,0.4282,rough,14.0,1,1.916
4060,129.92,0.2984,3.2337,0.1977,-0.2531,0.4551,0.4282,rough,14.0,1,1.916
4070,130.24,0.2984,3.2338,0.1977,-0.2531,0.4551,0.4283,rough,14.0,1,1.916
4080,130.56,0.2983,3.2338,0.1977,-0.2530,0.4551,0.4283,rough,14.0,1,1.916
4090,130.88,0.2983,3.2339,0.1977,-0.2529,0.4551,0.4283,rough,14.0,1,1.916
4100,131.20,0.2983,3.2339,0.1977,-0.2528,0.4551,0.4284,rough,14.0,1,1.916
4110,131.52,0.2982,3.2340,0.1977,-0.2528,0.4550,0.4284,rough,14.0,1,1.916
4120,131.84,0.2982,3.2340,0.1977,-0.2527,0.4550,0.4285,rough,14.0,1,1.916
4130,132.16,0.2982,3.2340,0.1977,-0.2526,0.4550,0.4285,rough,14.0,1,1.916
4140,132.48,0.2982,3.2341,0.1977,-0.2525,0.4550,0.4285,rough,14.0,1,1.916
4150,132.80,0.2981,3.2341,0.1977,-0.2525,0.4550,0.4286,rough,14.0,1,1.916
4160,133.12,0.2981,3.2342,0.1977,-0.2524,0.4550,0.4286,rough,14.0,1,1.916
4170,133.44,0.2981,3.2342,0.1977,-0.2523,0.4550,0.4286,rough,14.0,1,1.916
4180,133.76,0.2980,3.2343,0.1977,-0.2522,0.4549,0.4287,rough,14.0,1,1.916
4190,134.08,0.2980,3.2343,0.1977,-0.2522,0.4549,0.4287,rough,14.0,1,1.916
4200,134.40,0.2980,3.2343,0.1977,-0.2521,0.4549,0.4288,rough,14.0,1,1.916
4210,134.72,0.2979,3.2344,0.1977,-0.2520,0.4549,0.4288,rough,14.0,1,1.915
4220,135.04,0.2979,3.2344,0.1977,-0.2519,0.4549,0.4288,rough,14.0,1,1.915
4230,135.36,0.2979,3.2345,0.1977,-0.2519,0.4549,0.4289,rough,14.0,1,1.915
4240,135.68,0.2979,3.2345,0.1977,-0.2518,0.4549,0.4289,rough,14.0,1,1.915
4250,136.00,0.2978,3.2345,0.1977,-0.2517,0.4549,0.4289,rough,14.0,1,1.915
4260,136.32,0.2978,3.2346,0.1977,-0.2516,0.4548,0.4290,rough,14.0,1,1.915
4270,136.64,0.2978,3.2346,0.1977,-0.2516,0.4548,0.4290,rough,14.0,1,1.915
4280,136.96,0.2977,3.2347,0.1977,-0.2515,0.4548,0.4291,rough,14.0,1,1.915
4290,137.28,0.2977,3.2347,0.1977,-0.2514,0.4548,0.4291,rough,14.0,1,1.915
4300,137.60,0.2977,3.2348,0.1977,-0.2513,0.4548,0.4291,rough,14.0,1,1.915
4310,137.92,0.2976,3.2348,0.1977,-0.2513,0.4548,0.4292,rough,14.0,1,1.915
4320,138.24,0.2976,3.2348,0.1977,-0.2511,0.4549,0.4296,rough,14.0,1,1.915
4330,138.56,0.2976,3.2348,0.1977,-0.2510,0.4550,0.4298,rough,14.0,1,1.915
4340,138.88,0.2975,3.2348,0.1977,-0.2510,0.4550,0.4300,rough,14.0,1,1.915
4350,139.20,0.2975,3.2348,0.1977,-0.2509,0.4551,0.4301,rough,14.0,1,1.915
4360,139.52,0.2975,3.2349,0.1977,-0.2508,0.4551,0.4302,rough,14.0,1,1.915
4370,139.84,0.2974,3.2349,0.1977,-0.2508,0.4551,0.4302,rough,14.0,1,1.915
4380,140.16,0.2974,3.2349,0.1977,-0.2507,0.4551,0.4303,rough,14.0,1,1.915
4390,140.48,0.2974,3.2350,0.1977,-0.2506,0.4551,0.4304,rough,14.0,1,1.915
4400,140.80,0.2973,3.2350,0.1977,-0.2506,0.4550,0.4304,rough,14.0,1,1.915
4410,141.12,0.2973,3.2351,0.1977,-0.2505,0.4550,0.4305,rough,14.0,1,1.915
4420,141.44,0.2973,3.2351,0.1977,-0.2504,0.4550,0.4305,rough,14.0,1,1.915
4430,141.76,0.2972,3.2351,0.1977,-0.2503,0.4550,0.4305,rough,14.0,1,1.915
4440,142.08,0.2972,3.2352,0.1977,-0.2502,0.4550,0.4306,rough,14.0,1,1.915
4450,142.40,0.2972,3.2352,0.1977,-0.2502,0.4550,0.4306,rough,14.0,1,1.915
4460,142.72,0.2971,3.2353,0.1977,-0.2501,0.4550,0.4306,rough,14.0,1,1.915
4470,143.04,0.2971,3.2353,0.1976,-0.2500,0.4549,0.4307,rough,14.0,1,1.915
4480,143.36,0.2971,3.2354,0.1976,-0.2499,0.4549,0.4307,rough,14.0,1,1.915
4490,143.68,0.2970,3.2354,0.1976,-0.2499,0.4549,0.4307,rough,14.0,1,1.915
4500,144.00,0.2970,3.2354,0.1976,-0.2498,0.4549,0.4308,rough,14.0,1,1.915
4510,144.32,0.2970,3.2355,0.1976,-0.2497,0.4549,0.4308,rough,14.0,1,1.915
4520,144.64,0.2969,3.2355,0.1976,-0.2496,0.4549,0.4308,rough,14.0,1,1.915
4530,144.96,0.2969,3.2356,0.1976,-0.2495,0.4548,0.4309,rough,14.0,1,1.915
4540,145.28,0.2969,3.2356,0.1976,-0.2495,0.4548,0.4309,rough,14.0,1,1.915
4550,145.60,0.2968,3.2357,0.1976,-0.2494,0.4548,0.4309,rough,14.0,1,1.915
4560,145.92,0.2968,3.2357,0.1976,-0.2493,0.4548,0.4310,rough,14.0,1,1.914
4570,146.24,0.2968,3.2358,0.1976,-0.2492,0.4548,0.4310,rough,14.0,1,1.914
4580,146.56,0.2968,3.2358,0.1976,-0.2492,0.4547,0.4310,rough,14.0,1,1.914
4590,146.88,0.2967,3.2358,0.1976,-0.2491,0.4547,0.4311,rough,14.0,1,1.914
4600,147.20,0.2967,3.2359,0.1976,-0.2490,0.4547,0.4311,rough,14.0,1,1.914
4610,147.52,0.2967,3.2359,0.1976,-0.2489,0.4547,0.4311,rough,14.0,1,1.914
4620,147.84,0.2966,3.2360,0.1976,-0.2488,0.4547,0.4312,rough,14.0,1,1.914
4630,148.16,0.2966,3.2360,0.1976,-0.2488,0.4547,0.4312,rough,14.0,1,1.914
4640,148.48,0.2966,3.2361,0.1976,-0.2487,0.4546,0.4312,rough,14.0,1,1.914
4650,148.80,0.2965,3.2361,0.1976,-0.2486,0.4546,0.4313,rough,14.0,1,1.914
4660,149.12,0.2965,3.2361,0.1976,-0.2485,0.4546,0.4313,rough,14.0,1,1.914
4670,149.44,0.2965,3.2362,0.1976,-0.2485,0.4546,0.4313,rough,14.0,1,1.914
4680,149.76,0.2964,3.2362,0.1976,-0.2484,0.4546,0.4314,rough,14.0,1,1.914
4690,150.08,0.2964,3.2363,0.1976,-0.2483,0.4546,0.4314,rough,14.0,1,1.914
4700,150.40,0.2964,3.2363,0.1976,-0.2482,0.4545,0.4314,rough,14.0,1,1.914
4710,150.72,0.2963,3.2364,0.1976,-0.2481,0.4545,0.4315,rough,14.0,1,1.914
4720,151.04,0.2963,3.2364,0.1976,-0.2481,0.4545,0.4315,rough,14.0,1,1.914
4730,151.36,0.2963,3.2365,0.1976,-0.2480,0.4545,0.4315,rough,14.0,1,1.914
4740,151.68,0.2963,3.2365,0.1976,-0.2479,0.4545,0.4316,rough,14.0,1,1.914
4750,152.00,0.2962,3.2365,0.1976,-0.2478,0.4545,0.4316,rough,14.0,1,1.914
4760,152.32,0.2962,3.2366,0.1976,-0.2478,0.4544,0.4316,rough,14.0,1,1.914
4770,152.64,0.2962,3.2366,0.1976,-0.2477,0.4544,0.4317,rough,14.0,1,1.914
4780,152.96,0.2961,3.2367,0.1976,-0.2476,0.4544,0.4317,rough,14.0,1,1.914
4790,153.28,0.2961,3.2367,0.1976,-0.2475,0.4544,0.4317,rough,14.0,1,1.914
4800,153.60,0.2961,3.2368,0.1976,-0.2474,0.4544,0.4318,rough,14.0,1,1.914
4810,153.92,0.2960,3.2368,0.1976,-0.2474,0.4543,0.4318,rough,14.0,1,1.914
4820,154.24,0.2960,3.2369,0.1975,-0.2473,0.4543,0.4318,rough,14.0,1,1.914
4830,154.56,0.2960,3.2369,0.1975,-0.2472,0.4543,0.4318,rough,14.0,1,1.914
4840,154.88,0.2959,3.2369,0.1975,-0.2471,0.4543,0.4319,rough,14.0,1,1.914
4850,155.20,0.2959,3.2370,0.1975,-0.2471,0.4543,0.4319,rough,14.0,1,1.914
4860,155.52,0.2959,3.2370,0.1975,-0.2470,0.4543,0.4319,rough,14.0,1,1.913
4870,155.84,0.2958,3.2371,0.1975,-0.2469,0.4542,0.4320,rough,14.0,1,1.913
4880,156.16,0.2958,3.2371,0.1975,-0.2468,0.4542,0.4320,rough,14.0,1,1.913
4890,156.48,0.2958,3.2372,0.1975,-0.2467,0.4542,0.4320,rough,14.0,1,1.913
4900,156.80,0.2958,3.2372,0.1975,-0.2467,0.4542,0.4321,rough,14.0,1,1.913
4910,157.12,0.2957,3.2373,0.1975,-0.2466,0.4542,0.4321,rough,14.0,1,1.913
4920,157.44,0.2957,3.2373,0.1975,-0.2465,0.4542,0.4321,rough,14.0,1,1.913
4930,157.76,0.2957,3.2373,0.1975,-0.2464,0.4541,0.4322,rough,14.0,1,1.913
4940,158.08,0.2956,3.2374,0.1975,-0.2464,0.4541,0.4322,rough,14.0,1,1.913
4950,158.40,0.2956,3.2374,0.1975,-0.2463,0.4541,0.4322,rough,14.0,1,1.913
4960,158.72,0.2956,3.2375,0.1975,-0.2462,0.4541,0.4323,rough,14.0,1,1.913
4970,159.04,0.2955,3.2375,0.1975,-0.2461,0.4541,0.4323,rough,14.0,1,1.913
4980,159.36,0.2955,3.2376,0.1975,-0.2460,0.4540,0.4323,rough,14.0,1,1.913
4990,159.68,0.2955,3.2376,0.1975,-0.2460,0.4540,0.4324,rough,14.0,1,1.913
5000,160.00,0.2954,3.2377,0.1975,-0.2459,0.4540,0.4324,rough,14.0,1,1.913
5010,160.32,0.2954,3.2377,0.1975,-0.2458,0.4540,0.4324,rough,14.0,1,1.913
5020,160.64,0.2954,3.2377,0.1975,-0.2457,0.4540,0.4325,rough,14.0,1,1.913
5030,160.96,0.2953,3.2378,0.1975,-0.2457,0.4540,0.4325,rough,14.0,1,1.913
5040,161.28,0.2953,3.2378,0.1975,-0.2456,0.4539,0.4325,rough,14.0,1,1.913
5050,161.60,0.2953,3.2379,0.1975,-0.2455,0.4539,0.4326,rough,14.0,1,1.913
5060,161.92,0.2953,3.2379,0.1975,-0.2454,0.4539,0.4326,rough,14.0,1,1.913
5070,162.24,0.2952,3.2380,0.1975,-0.2453,0.4539,0.4326,rough,14.0,1,1.913
5080,162.56,0.2952,3.2380,0.1975,-0.2453,0.4539,0.4327,rough,14.0,1,1.913
5090,162.88,0.2952,3.2380,0.1975,-0.2452,0.4539,0.4327,rough,14.0,1,1.913
5100,163.20,0.2951,3.2381,0.1975,-0.2451,0.4538,0.4327,rough,14.0,1,1.913
5110,163.52,0.2951,3.2381,0.1975,-0.2450,0.4538,0.4327,rough,14.0,1,1.913
5120,163.84,0.2951,3.2382,0.1975,-0.2450,0.4538,0.4328,rough,14.0,1,1.913
5130,164.16,0.2950,3.2382,0.1975,-0.2449,0.4538,0.4328,rough,14.0,1,1.913
5140,164.48,0.2950,3.2383,0.1975,-0.2448,0.4538,0.4328,rough,14.0,1,1.913
5150,164.80,0.2950,3.2383,0.1975,-0.2447,0.4538,0.4329,rough,14.0,1,1.912
5160,165.12,0.2949,3.2384,0.1975,-0.2446,0.4537,0.4329,rough,14.0,1,1.912
5170,165.44,0.2949,3.2384,0.1974,-0.2446,0.4537,0.4329,rough,14.0,1,1.912
5180,165.76,0.2949,3.2384,0.1974,-0.2445,0.4537,0.4330,rough,14.0,1,1.912
5190,166.08,0.2948,3.2385,0.1974,-0.2444,0.4537,0.4330,rough,14.0,1,1.912
5200,166.40,0.2948,3.2385,0.1974,-0.2443,0.4537,0.4330,rough,14.0,1,1.912
5210,166.72,0.2948,3.2386,0.1974,-0.2443,0.4536,0.4331,rough,14.0,1,1.912
5220,167.04,0.2948,3.2386,0.1974,-0.2442,0.4536,0.4331,rough,14.0,1,1.912
5230,167.36,0.2947,3.2387,0.1974,-0.2441,0.4536,0.4331,rough,14.0,1,1.912
5240,167.68,0.2947,3.2387,0.1974,-0.2440,0.4536,0.4332,rough,14.0,1,1.912
5250,168.00,0.2947,3.2388,0.1974,-0.2439,0.4536,0.4332,rough,14.0,1,1.912
5260,168.32,0.2946,3.2388,0.1974,-0.2439,0.4536,0.4332,rough,14.0,1,1.912
5270,168.64,0.2946,3.2388,0.1974,-0.2438,0.4535,0.4333,rough,14.0,1,1.912
5280,168.96,0.2946,3.2389,0.1974,-0.2437,0.4535,0.4333,rough,14.0,1,1.912
5290,169.28,0.2945,3.2389,0.1974,-0.2436,0.4535,0.4333,rough,14.0,1,1.912
5300,169.60,0.2945,3.2390,0.1974,-0.2436,0.4535,0.4334,rough,14.0,1,1.912
5310,169.92,0.2945,3.2390,0.1974,-0.2435,0.4535,0.4334,rough,14.0,1,1.912
5320,170.24,0.2944,3.2391,0.1974,-0.2434,0.4535,0.4334,rough,14.0,1,1.912
5330,170.56,0.2944,3.2391,0.1974,-0.2433,0.4534,0.4334,rough,14.0,1,1.912
5340,170.88,0.2944,3.2392,0.1974,-0.2432,0.4534,0.4335,rough,14.0,1,1.912
5350,171.20,0.2943,3.2392,0.1974,-0.2432,0.4534,0.4335,rough,14.0,1,1.912
5360,171.52,0.2943,3.2392,0.1974,-0.2431,0.4534,0.4335,rough,14.0,1,1.912
5370,171.84,0.2943,3.2393,0.1974,-0.2430,0.4534,0.4336,rough,14.0,1,1.912
5380,172.16,0.2943,3.2393,0.1974,-0.2429,0.4533,0.4336,rough,14.0,1,1.912
5390,172.48,0.2942,3.2394,0.1974,-0.2429,0.4533,0.4336,rough,14.0,1,1.912
5400,172.80,0.2942,3.2394,0.1974,-0.2428,0.4533,0.4337,rough,14.0,1,1.912
5410,173.12,0.2942,3.2395,0.1974,-0.2427,0.4533,0.4337,rough,14.0,1,1.912
5420,173.44,0.2941,3.2395,0.1974,-0.2426,0.4533,0.4337,rough,14.0,1,1.912
5430,173.76,0.2941,3.2396,0.1974,-0.2425,0.4533,0.4338,rough,14.0,1,1.912
5440,174.08,0.2941,3.2396,0.1974,-0.2425,0.4532,0.4338,rough,14.0,1,1.911
5450,174.40,0.2940,3.2396,0.1974,-0.2424,0.4532,0.4338,rough,14.0,1,1.911
5460,174.72,0.2940,3.2397,0.1974,-0.2423,0.4532,0.4339,rough,14.0,1,1.911
5470,175.04,0.2940,3.2397,0.1974,-0.2422,0.4532,0.4339,rough,14.0,1,1.911
5480,175.36,0.2939,3.2398,0.1974,-0.2422,0.4532,0.4339,rough,14.0,1,1.911
5490,175.68,0.2939,3.2398,0.1974,-0.2421,0.4532,0.4340,rough,14.0,1,1.911
5500,176.00,0.2939,3.2399,0.1974,-0.2420,0.4531,0.4340,rough,14.0,1,1.911
5510,176.32,0.2938,3.2399,0.1973,-0.2419,0.4531,0.4340,rough,14.0,1,1.911
5520,176.64,0.2938,3.2400,0.1973,-0.2418,0.4531,0.4341,rough,14.0,1,1.911
5530,176.96,0.2938,3.2400,0.1973,-0.2418,0.4531,0.4341,rough,14.0,1,1.911
5540,177.28,0.2938,3.2400,0.1973,-0.2417,0.4531,0.4341,rough,14.0,1,1.911
5550,177.60,0.2937,3.2401,0.1973,-0.2416,0.4530,0.4341,rough,14.0,1,1.911
5560,177.92,0.2937,3.2401,0.1973,-0.2415,0.4530,0.4342,rough,14.0,1,1.911
5570,178.24,0.2937,3.2402,0.1973,-0.2415,0.4530,0.4342,rough,14.0,1,1.911
5580,178.56,0.2936,3.2402,0.1973,-0.2414,0.4530,0.4342,rough,14.0,1,1.911
5590,178.88,0.2936,3.2403,0.1973,-0.2413,0.4530,0.4343,rough,14.0,1,1.911
5600,179.20,0.2936,3.2403,0.1973,-0.2412,0.4530,0.4343,rough,14.0,1,1.911
5610,179.52,0.2935,3.2404,0.1973,-0.2411,0.4529,0.4343,rough,14.0,1,1.911
5620,179.84,0.2935,3.2404,0.1973,-0.2411,0.4529,0.4344,rough,14.0,1,1.911
5630,180.16,0.2935,3.2404,0.1973,-0.2410,0.4529,0.4344,rough,14.0,1,1.911
5640,180.48,0.2934,3.2405,0.1973,-0.2409,0.4529,0.4344,rough,14.0,1,1.911
5650,180.80,0.2934,3.2405,0.1973,-0.2408,0.4529,0.4345,rough,14.0,1,1.911
5660,181.12,0.2934,3.2406,0.1973,-0.2408,0.4528,0.4345,rough,14.0,1,1.911
5670,181.44,0.2933,3.2406,0.1973,-0.2407,0.4528,0.4345,rough,14.0,1,1.911
5680,181.76,0.2933,3.2407,0.1973,-0.2406,0.4528,0.4346,rough,14.0,1,1.911
5690,182.08,0.2933,3.2407,0.1973,-0.2405,0.4528,0.4346,rough,14.0,1,1.911
5700,182.40,0.2933,3.2407,0.1973,-0.2404,0.4528,0.4346,rough,14.0,1,1.911
5710,182.72,0.2932,3.2408,0.1973,-0.2404,0.4528,0.4347,rough,14.0,1,1.911
5720,183.04,0.2932,3.2408,0.1973,-0.2403,0.4527,0.4347,rough,14.0,1,1.911
5730,183.36,0.2932,3.2409,0.1973,-0.2402,0.4527,0.4347,rough,14.0,1,1.910
5740,183.68,0.2931,3.2409,0.1973,-0.2401,0.4527,0.4348,rough,14.0,1,1.910
5750,184.00,0.2931,3.2410,0.1973,-0.2401,0.4527,0.4348,rough,14.0,1,1.910
5760,184.32,0.2931,3.2410,0.1973,-0.2400,0.4527,0.4348,rough,14.0,1,1.910
5770,184.64,0.2930,3.2411,0.1973,-0.2399,0.4527,0.4348,rough,14.0,1,1.910
5780,184.96,0.2930,3.2411,0.1973,-0.2398,0.4526,0.4349,rough,14.0,1,1.910
5790,185.28,0.2930,3.2411,0.1973,-0.2397,0.4526,0.4349,rough,14.0,1,1.910
5800,185.60,0.2929,3.2412,0.1973,-0.2397,0.4526,0.4349,rough,14.0,1,1.910
5810,185.92,0.2929,3.2412,0.1973,-0.2396,0.4526,0.4350,rough,14.0,1,1.910
5820,186.24,0.2929,3.2413,0.1973,-0.2395,0.4526,0.4350,rough,14.0,1,1.910
5830,186.56,0.2928,3.2413,0.1973,-0.2394,0.4525,0.4350,rough,14.0,1,1.910
5840,186.88,0.2928,3.2414,0.1972,-0.2394,0.4525,0.4351,rough,14.0,1,1.910
5850,187.20,0.2928,3.2414,0.1972,-0.2393,0.4525,0.4351,rough,14.0,1,1.910
5860,187.52,0.2928,3.2415,0.1972,-0.2392,0.4525,0.4351,rough,14.0,1,1.910
5870,187.84,0.2927,3.2415,0.1972,-0.2391,0.4525,0.4352,rough,14.0,1,1.910
5880,188.16,0.2927,3.2415,0.1972,-0.2390,0.4525,0.4352,rough,14.0,1,1.910
5890,188.48,0.2927,3.2416,0.1972,-0.2390,0.4524,0.4352,rough,14.0,1,1.910
5900,188.80,0.2926,3.2416,0.1972,-0.2389,0.4524,0.4353,rough,14.0,1,1.910
5910,189.12,0.2926,3.2417,0.1972,-0.2388,0.4524,0.4353,rough,14.0,1,1.910
5920,189.44,0.2926,3.2417,0.1972,-0.2387,0.4524,0.4353,rough,14.0,1,1.910
5930,189.76,0.2925,3.2418,0.1972,-0.2387,0.4524,0.4354,rough,14.0,1,1.910
5940,190.08,0.2925,3.2418,0.1972,-0.2386,0.4523,0.4354,rough,14.0,1,1.910
5950,190.40,0.2925,3.2419,0.1972,-0.2385,0.4523,0.4354,rough,14.0,1,1.910
5960,190.72,0.2924,3.2419,0.1972,-0.2384,0.4523,0.4354,rough,14.0,1,1.910
5970,191.04,0.2924,3.2419,0.1972,-0.2383,0.4523,0.4355,rough,14.0,1,1.910
5980,191.36,0.2924,3.2420,0.1972,-0.2383,0.4523,0.4355,rough,14.0,1,1.910
5990,191.68,0.2923,3.2420,0.1972,-0.2382,0.4523,0.4355,rough,14.0,1,1.910
6000,192.00,0.2923,3.2421,0.1972,-0.2381,0.4522,0.4356,rough,14.0,1,1.910
6010,192.32,0.2923,3.2421,0.1972,-0.2380,0.4522,0.4356,rough,14.0,1,1.910
6020,192.64,0.2923,3.2422,0.1972,-0.2380,0.4522,0.4356,rough,14.0,1,1.909
6030,192.96,0.2922,3.2422,0.1972,-0.2379,0.4522,0.4357,rough,14.0,1,1.909
6040,193.28,0.2922,3.2423,0.1972,-0.2378,0.4522,0.4357,rough,14.0,1,1.909
6050,193.60,0.2922,3.2423,0.1972,-0.2377,0.4522,0.4357,rough,14.0,1,1.909
6060,193.92,0.2921,3.2423,0.1972,-0.2376,0.4521,0.4358,rough,14.0,1,1.909
6070,194.24,0.2921,3.2424,0.1972,-0.2376,0.4521,0.4358,rough,14.0,1,1.909
6080,194.56,0.2921,3.2424,0.1972,-0.2375,0.4521,0.4358,rough,14.0,1,1.909
6090,194.88,0.2920,3.2425,0.1972,-0.2374,0.4521,0.4359,rough,14.0,1,1.909
6100,195.20,0.2920,3.2425,0.1972,-0.2373,0.4521,0.4359,rough,14.0,1,1.909
6110,195.52,0.2920,3.2426,0.1972,-0.2373,0.4520,0.4359,rough,14.0,1,1.909
6120,195.84,0.2919,3.2426,0.1972,-0.2372,0.4520,0.4360,rough,14.0,1,1.909
6130,196.16,0.2919,3.2427,0.1972,-0.2371,0.4520,0.4360,rough,14.0,1,1.909
6140,196.48,0.2919,3.2427,0.1972,-0.2370,0.4520,0.4360,rough,14.0,1,1.909
6150,196.80,0.2918,3.2427,0.1972,-0.2369,0.4520,0.4360,rough,14.0,1,1.909
6160,197.12,0.2918,3.2428,0.1972,-0.2369,0.4520,0.4361,rough,14.0,1,1.909
6170,197.44,0.2918,3.2428,0.1971,-0.2368,0.4519,0.4361,rough,14.0,1,1.909
6180,197.76,0.2918,3.2429,0.1971,-0.2367,0.4519,0.4361,rough,14.0,1,1.909
6190,198.08,0.2917,3.2429,0.1971,-0.2366,0.4519,0.4362,rough,14.0,1,1.909
6200,198.40,0.2917,3.2430,0.1971,-0.2365,0.4519,0.4362,rough,14.0,1,1.909
6210,198.72,0.2917,3.2430,0.1971,-0.2365,0.4519,0.4362,rough,14.0,1,1.909
6220,199.04,0.2916,3.2431,0.1971,-0.2364,0.4518,0.4363,rough,14.0,1,1.909
6230,199.36,0.2916,3.2431,0.1971,-0.2363,0.4518,0.4363,rough,14.0,1,1.909
6240,199.68,0.2916,3.2431,0.1971,-0.2362,0.4518,0.4363,rough,14.0,1,1.909
6250,200.00,0.2915,3.2432,0.1971,-0.2362,0.4518,0.4364,rough,14.0,1,1.909
6260,200.32,0.2915,3.2432,0.1971,-0.2361,0.4518,0.4364,rough,14.0,1,1.909
6270,200.64,0.2915,3.2433,0.1971,-0.2360,0.4518,0.4364,rough,14.0,1,1.909
6280,200.96,0.2914,3.2433,0.1971,-0.2359,0.4517,0.4365,rough,14.0,1,1.909
6290,201.28,0.2914,3.2434,0.1971,-0.2358,0.4517,0.4365,rough,14.0,1,1.909
6300,201.60,0.2914,3.2434,0.1971,-0.2358,0.4517,0.4365,rough,14.0,1,1.909
6310,201.92,0.2913,3.2435,0.1971,-0.2357,0.4517,0.4365,rough,14.0,1,1.908
6320,202.24,0.2913,3.2435,0.1971,-0.2356,0.4517,0.4366,rough,14.0,1,1.908
6330,202.56,0.2913,3.2435,0.1971,-0.2355,0.4516,0.4366,rough,14.0,1,1.908
6340,202.88,0.2913,3.2436,0.1971,-0.2355,0.4516,0.4366,rough,14.0,1,1.908
6350,203.20,0.2912,3.2436,0.1971,-0.2354,0.4516,0.4367,rough,14.0,1,1.908
6360,203.52,0.2912,3.2437,0.1971,-0.2353,0.4516,0.4367,rough,14.0,1,1.908
6370,203.84,0.2912,3.2437,0.1971,-0.2352,0.4516,0.4367,rough,14.0,1,1.908
6380,204.16,0.2911,3.2438,0.1971,-0.2351,0.4516,0.4368,rough,14.0,1,1.908
6390,204.48,0.2911,3.2438,0.1971,-0.2351,0.4515,0.4368,rough,14.0,1,1.908
6400,204.80,0.2911,3.2439,0.1971,-0.2350,0.4515,0.4368,rough,14.0,1,1.908
6410,205.12,0.2910,3.2439,0.1971,-0.2349,0.4515,0.4369,rough,14.0,1,1.908
6420,205.44,0.2910,3.2439,0.1971,-0.2348,0.4515,0.4369,rough,14.0,1,1.908
6430,205.76,0.2910,3.2440,0.1971,-0.2348,0.4515,0.4369,rough,14.0,1,1.908
6440,206.08,0.2821,3.2642,0.1844,-0.2442,0.4696,0.4246,rough,14.0,1,1.891
6450,206.40,0.2494,3.3188,0.1686,-0.2587,0.3389,0.2880,rough,14.0,1,1.848
6460,206.72,0.2137,3.3902,0.1403,-0.3341,0.2551,0.1464,rough,14.0,1,1.791
6470,207.04,0.2054,3.4319,0.1154,-0.4521,0.2820,0.0114,rough,14.0,1,1.755
6480,207.36,0.2070,3.4443,0.1071,-0.4821,0.2898,-0.0317,rough,14.0,1,1.743
6490,207.68,0.2050,3.4487,0.1057,-0.4950,0.2897,-0.0554,rough,14.0,1,1.739
6500,208.00,0.2055,3.4510,0.1043,-0.5017,0.2887,-0.0657,rough,14.0,1,1.737
6510,208.32,0.2043,3.4521,0.1042,-0.5044,0.2888,-0.0717,rough,14.0,1,1.736
6520,208.64,0.2041,3.4527,0.1041,-0.5059,0.2886,-0.0743,rough,14.0,1,1.736
6530,208.96,0.2041,3.4530,0.1039,-0.5067,0.2886,-0.0756,rough,14.0,1,1.735
6540,209.28,0.2041,3.4532,0.1038,-0.5071,0.2888,-0.0762,rough,14.0,1,1.735
6550,209.60,0.2056,3.4534,0.1033,-0.5078,0.2865,-0.0755,rough,14.0,1,1.735
6560,209.92,0.2073,3.4544,0.1019,-0.5077,0.2886,-0.0725,rough,14.0,1,1.733
6570,210.24,0.2062,3.4549,0.1020,-0.5085,0.2901,-0.0751,rough,14.0,1,1.733
6580,210.56,0.2073,3.4552,0.1015,-0.5094,0.2883,-0.0751,rough,14.0,1,1.732
6590,210.88,0.2066,3.4554,0.1016,-0.5096,0.2896,-0.0761,rough,14.0,1,1.732
6600,211.20,0.2075,3.4556,0.1013,-0.5100,0.2885,-0.0758,rough,14.0,1,1.732
6610,211.52,0.2066,3.4557,0.1014,-0.5099,0.2904,-0.0766,rough,14.0,1,1.732
6620,211.84,0.2070,3.4559,0.1012,-0.5102,0.2900,-0.0765,rough,14.0,1,1.732
6630,212.16,0.2076,3.4560,0.1009,-0.5105,0.2893,-0.0761,rough,14.0,1,1.731
6640,212.48,0.2066,3.4562,0.1011,-0.5103,0.2913,-0.0770,rough,14.0,1,1.732
6650,212.80,0.2072,3.4563,0.1009,-0.5105,0.2907,-0.0767,rough,14.0,1,1.731
6660,213.12,0.2072,3.4565,0.1008,-0.5108,0.2910,-0.0769,rough,14.0,1,1.731
6670,213.44,0.2073,3.4567,0.1006,-0.5110,0.2911,-0.0769,rough,14.0,1,1.731
6680,213.76,0.2074,3.4568,0.1005,-0.5110,0.2913,-0.0768,rough,14.0,1,1.731
6690,214.08,0.2072,3.4570,0.1005,-0.5110,0.2920,-0.0771,rough,14.0,1,1.731
6700,214.40,0.2086,3.4571,0.1000,-0.5116,0.2899,-0.0762,rough,14.0,1,1.730
6710,214.72,0.2082,3.4573,0.1000,-0.5117,0.2909,-0.0766,rough,14.0,1,1.730
6720,215.04,0.2078,3.4574,0.1000,-0.5115,0.2921,-0.0770,rough,14.0,1,1.730
6730,215.36,0.2086,3.4576,0.0997,-0.5120,0.2909,-0.0765,rough,14.0,1,1.730
6740,215.68,0.2079,3.4578,0.0998,-0.5117,0.2926,-0.0771,rough,14.0,1,1.730
6750,216.00,0.2086,3.4579,0.0995,-0.5123,0.2915,-0.0768,rough,14.0,1,1.729
6760,216.32,0.2079,3.4581,0.0996,-0.5120,0.2931,-0.0773,rough,14.0,1,1.729
6770,216.64,0.2083,3.4583,0.0994,-0.5125,0.2926,-0.0772,rough,14.0,1,1.729
6780,216.96,0.2088,3.4585,0.0991,-0.5126,0.2921,-0.0769,rough,14.0,1,1.729
6790,217.28,0.2092,3.4587,0.0989,-0.5128,0.2917,-0.0766,rough,14.0,1,1.728
6800,217.60,0.2094,3.4589,0.0987,-0.5129,0.2918,-0.0764,rough,14.0,1,1.728
6810,217.92,0.2097,3.4591,0.0985,-0.5131,0.2915,-0.0763,rough,14.0,1,1.728
6820,218.24,0.2081,3.4594,0.0989,-0.5127,0.2944,-0.0774,rough,14.0,1,1.728
6830,218.56,0.2084,3.4596,0.0987,-0.5129,0.2943,-0.0775,rough,14.0,1,1.728
6840,218.88,0.2084,3.4599,0.0986,-0.5130,0.2945,-0.0775,rough,14.0,1,1.727
6850,219.20,0.2084,3.4602,0.0985,-0.5132,0.2947,-0.0775,rough,14.0,1,1.727
6860,219.52,0.2084,3.4604,0.0983,-0.5133,0.2950,-0.0776,rough,14.0,1,1.727
6870,219.84,0.2084,3.4607,0.0982,-0.5135,0.2952,-0.0777,rough,14.0,1,1.727
6880,220.16,0.2084,3.4609,0.0981,-0.5137,0.2955,-0.0779,rough,14.0,1,1.726
6890,220.48,0.2084,3.4612,0.0980,-0.5138,0.2957,-0.0780,rough,14.0,1,1.726
6900,220.80,0.2084,3.4614,0.0979,-0.5140,0.2960,-0.0781,rough,14.0,1,1.726
6910,221.12,0.2084,3.4616,0.0978,-0.5141,0.2962,-0.0783,rough,14.0,1,1.726
6920,221.44,0.2084,3.4619,0.0977,-0.5143,0.2965,-0.0784,rough,14.0,1,1.726
6930,221.76,0.2084,3.4621,0.0976,-0.5144,0.2967,-0.0785,rough,14.0,1,1.725
6940,222.08,0.2084,3.4623,0.0975,-0.5146,0.2970,-0.0787,rough,14.0,1,1.725
6950,222.40,0.2099,3.4626,0.0969,-0.5152,0.2949,-0.0776,rough,14.0,1,1.724
6960,222.72,0.2098,3.4628,0.0968,-0.5154,0.2952,-0.0779,rough,14.0,1,1.724
6970,223.04,0.2095,3.4631,0.0968,-0.5154,0.2960,-0.0781,rough,14.0,1,1.724
6980,223.36,0.2091,3.4633,0.0968,-0.5156,0.2968,-0.0785,rough,14.0,1,1.724
6990,223.68,0.2088,3.4636,0.0968,-0.5157,0.2976,-0.0789,rough,14.0,1,1.724
7000,224.00,0.2085,3.4638,0.0968,-0.5154,0.2984,-0.0791,rough,14.0,1,1.724
7010,224.32,0.2099,3.4641,0.0962,-0.5161,0.2963,-0.0782,rough,14.0,1,1.723
7020,224.64,0.2096,3.4643,0.0962,-0.5162,0.2971,-0.0786,rough,14.0,1,1.723
7030,224.96,0.2091,3.4646,0.0962,-0.5164,0.2980,-0.0791,rough,14.0,1,1.723
7040,225.28,0.2087,3.4648,0.0962,-0.5161,0.2991,-0.0794,rough,14.0,1,1.723
7050,225.60,0.2099,3.4651,0.0958,-0.5167,0.2973,-0.0786,rough,14.0,1,1.722
7060,225.92,0.2093,3.4654,0.0959,-0.5168,0.2986,-0.0792,rough,14.0,1,1.722
7070,226.24,0.2087,3.4656,0.0959,-0.5165,0.2999,-0.0796,rough,14.0,1,1.722
7080,226.56,0.2099,3.4659,0.0954,-0.5172,0.2981,-0.0789,rough,14.0,1,1.721
7090,226.88,0.2093,3.4662,0.0955,-0.5173,0.2993,-0.0795,rough,14.0,1,1.721
7100,227.20,0.2087,3.4664,0.0956,-0.5170,0.3006,-0.0800,rough,14.0,1,1.721
7110,227.52,0.2099,3.4666,0.0951,-0.5177,0.2988,-0.0793,rough,14.0,1,1.721
7120,227.84,0.2093,3.4669,0.0952,-0.5178,0.3001,-0.0800,rough,14.0,1,1.721
7130,228.16,0.2087,3.4671,0.0952,-0.5175,0.3014,-0.0804,rough,14.0,1,1.721
7140,228.48,0.2097,3.4673,0.0948,-0.5181,0.3000,-0.0798,rough,14.0,1,1.720
7150,228.80,0.2089,3.4675,0.0949,-0.5178,0.3017,-0.0805,rough,14.0,1,1.720
7160,229.12,0.2099,3.4678,0.0945,-0.5184,0.3001,-0.0799,rough,14.0,1,1.719
7170,229.44,0.2089,3.4681,0.0947,-0.5181,0.3022,-0.0806,rough,14.0,1,1.720
7180,229.76,0.2097,3.4684,0.0944,-0.5187,0.3010,-0.0801,rough,14.0,1,1.719
7190,230.08,0.2104,3.4686,0.0940,-0.5189,0.3002,-0.0797,rough,14.0,1,1.719
7200,230.40,0.2094,3.4689,0.0942,-0.5190,0.3020,-0.0806,rough,14.0,1,1.719
7210,230.72,0.2102,3.4691,0.0939,-0.5192,0.3009,-0.0801,rough,14.0,1,1.718
7220,231.04,0.2091,3.4695,0.0941,-0.5193,0.3029,-0.0811,rough,14.0,1,1.718
7230,231.36,0.2100,3.4697,0.0937,-0.5195,0.3018,-0.0806,rough,14.0,1,1.718
7240,231.68,0.2089,3.4699,0.0939,-0.5192,0.3040,-0.0815,rough,14.0,1,1.718
7250,232.00,0.2097,3.4702,0.0935,-0.5198,0.3027,-0.0810,rough,14.0,1,1.717
7260,232.32,0.2102,3.4704,0.0933,-0.5200,0.3022,-0.0807,rough,14.0,1,1.717
7270,232.64,0.2105,3.4706,0.0931,-0.5201,0.3020,-0.0805,rough,14.0,1,1.717
7280,232.96,0.2092,3.4710,0.0933,-0.5202,0.3044,-0.0816,rough,14.0,1,1.717
7290,233.28,0.2097,3.4712,0.0930,-0.5204,0.3037,-0.0813,rough,14.0,1,1.716
7300,233.60,0.2102,3.4715,0.0928,-0.5206,0.3032,-0.0811,rough,14.0,1,1.716
7310,233.92,0.2105,3.4717,0.0926,-0.5208,0.3030,-0.0810,rough,14.0,1,1.716
7320,234.24,0.2091,3.4719,0.0929,-0.5205,0.3058,-0.0822,rough,14.0,1,1.716
7330,234.56,0.2092,3.4723,0.0927,-0.5211,0.3056,-0.0822,rough,14.0,1,1.716
7340,234.88,0.2095,3.4725,0.0925,-0.5212,0.3054,-0.0821,rough,14.0,1,1.715
7350,235.20,0.2098,3.4728,0.0923,-0.5214,0.3052,-0.0820,rough,14.0,1,1.715
7360,235.52,0.2100,3.4730,0.0921,-0.5216,0.3051,-0.0819,rough,14.0,1,1.715
7370,235.84,0.2101,3.4733,0.0920,-0.5217,0.3053,-0.0820,rough,14.0,1,1.714
7380,236.16,0.2101,3.4735,0.0919,-0.5219,0.3056,-0.0821,rough,14.0,1,1.714
7390,236.48,0.2098,3.4738,0.0918,-0.5220,0.3062,-0.0824,rough,14.0,1,1.714
7400,236.80,0.2093,3.4741,0.0919,-0.5222,0.3073,-0.0828,rough,14.0,1,1.714
7410,237.12,0.2108,3.4743,0.0913,-0.5224,0.3053,-0.0819,rough,14.0,1,1.713
7420,237.44,0.2110,3.4745,0.0912,-0.5226,0.3054,-0.0820,rough,14.0,1,1.713
7430,237.76,0.2111,3.4747,0.0910,-0.5228,0.3056,-0.0821,rough,14.0,1,1.713
7440,238.08,0.2111,3.4748,0.0909,-0.5230,0.3058,-0.0822,rough,14.0,1,1.712
7450,238.40,0.2112,3.4750,0.0907,-0.5233,0.3060,-0.0823,rough,14.0,1,1.712
7460,238.72,0.2113,3.4752,0.0906,-0.5235,0.3062,-0.0824,rough,14.0,1,1.712
7470,239.04,0.2114,3.4754,0.0905,-0.5236,0.3064,-0.0825,rough,14.0,1,1.712
7480,239.36,0.2115,3.4756,0.0903,-0.5238,0.3066,-0.0825,rough,14.0,1,1.712
7490,239.68,0.2115,3.4758,0.0902,-0.5240,0.3068,-0.0826,rough,14.0,1,1.711
7500,240.00,0.2116,3.4760,0.0901,-0.5242,0.3070,-0.0827,rough,14.0,1,1.711
7510,240.32,0.2117,3.4762,0.0900,-0.5244,0.3072,-0.0828,rough,14.0,1,1.711
7520,240.64,0.2117,3.4764,0.0898,-0.5246,0.3074,-0.0828,rough,14.0,1,1.711
7530,240.96,0.2118,3.4766,0.0897,-0.5247,0.3076,-0.0829,rough,14.0,1,1.711
7540,241.28,0.2118,3.4767,0.0896,-0.5249,0.3078,-0.0830,rough,14.0,1,1.710
7550,241.60,0.2119,3.4769,0.0895,-0.5251,0.3080,-0.0831,rough,14.0,1,1.710
7560,241.92,0.2119,3.4771,0.0894,-0.5252,0.3082,-0.0831,rough,14.0,1,1.710
7570,242.24,0.2120,3.4773,0.0893,-0.5254,0.3084,-0.0832,rough,14.0,1,1.710
7580,242.56,0.2120,3.4775,0.0892,-0.5256,0.3086,-0.0833,rough,14.0,1,1.710
7590,242.88,0.2121,3.4777,0.0890,-0.5257,0.3088,-0.0834,rough,14.0,1,1.709
7600,243.20,0.2121,3.4779,0.0889,-0.5259,0.3090,-0.0834,rough,14.0,1,1.709
7610,243.52,0.2121,3.4781,0.0888,-0.5260,0.3092,-0.0835,rough,14.0,1,1.709
7620,243.84,0.2122,3.4783,0.0887,-0.5262,0.3094,-0.0836,rough,14.0,1,1.709
7630,244.16,0.2122,3.4785,0.0886,-0.5263,0.3096,-0.0837,rough,14.0,1,1.709
7640,244.48,0.2122,3.4787,0.0885,-0.5265,0.3098,-0.0838,rough,14.0,1,1.709
7650,244.80,0.2123,3.4789,0.0884,-0.5266,0.3099,-0.0838,rough,14.0,1,1.708
7660,245.12,0.2123,3.4791,0.0883,-0.5268,0.3101,-0.0839,rough,14.0,1,1.708
7670,245.44,0.2123,3.4792,0.0882,-0.5269,0.3103,-0.0840,rough,14.0,1,1.708
7680,245.76,0.2123,3.4794,0.0881,-0.5271,0.3105,-0.0841,rough,14.0,1,1.708
7690,246.08,0.2123,3.4796,0.0880,-0.5272,0.3107,-0.0842,rough,14.0,1,1.708
7700,246.40,0.2124,3.4798,0.0879,-0.5273,0.3109,-0.0843,rough,14.0,1,1.707
7710,246.72,0.2124,3.4800,0.0878,-0.5275,0.3111,-0.0843,rough,14.0,1,1.707
7720,247.04,0.2124,3.4802,0.0877,-0.5276,0.3113,-0.0844,rough,14.0,1,1.707
7730,247.36,0.2124,3.4804,0.0876,-0.5278,0.3114,-0.0845,rough,14.0,1,1.707
7740,247.68,0.2124,3.4806,0.0875,-0.5279,0.3116,-0.0846,rough,14.0,1,1.707
7750,248.00,0.2125,3.4808,0.0874,-0.5280,0.3118,-0.0847,rough,14.0,1,1.706
7760,248.32,0.2125,3.4810,0.0873,-0.5282,0.3120,-0.0847,rough,14.0,1,1.706
7770,248.64,0.2125,3.4812,0.0872,-0.5283,0.3122,-0.0848,rough,14.0,1,1.706
7780,248.96,0.2125,3.4814,0.0872,-0.5284,0.3124,-0.0849,rough,14.0,1,1.706
7790,249.28,0.2125,3.4816,0.0871,-0.5286,0.3126,-0.0850,rough,14.0,1,1.706
7800,249.60,0.2125,3.4818,0.0870,-0.5287,0.3127,-0.0851,rough,14.0,1,1.706
7810,249.92,0.2125,3.4819,0.0869,-0.5288,0.3129,-0.0852,rough,14.0,1,1.705
7820,250.24,0.2125,3.4821,0.0868,-0.5290,0.3131,-0.0852,rough,14.0,1,1.705
7830,250.56,0.2125,3.4823,0.0867,-0.5291,0.3133,-0.0853,rough,14.0,1,1.705
7840,250.88,0.2125,3.4825,0.0866,-0.5292,0.3135,-0.0854,rough,14.0,1,1.705
7850,251.20,0.2126,3.4827,0.0865,-0.5293,0.3136,-0.0855,rough,14.0,1,1.705
7860,251.52,0.2126,3.4829,0.0864,-0.5295,0.3138,-0.0856,rough,14.0,1,1.704
7870,251.84,0.2126,3.4831,0.0863,-0.5296,0.3140,-0.0856,rough,14.0,1,1.704
7880,252.16,0.2126,3.4833,0.0863,-0.5297,0.3142,-0.0857,rough,14.0,1,1.704
7890,252.48,0.2126,3.4835,0.0862,-0.5299,0.3144,-0.0858,rough,14.0,1,1.704
7900,252.80,0.2126,3.4837,0.0861,-0.5300,0.3146,-0.0859,rough,14.0,1,1.704
7910,253.12,0.2126,3.4839,0.0860,-0.5301,0.3147,-0.0860,rough,14.0,1,1.704
7920,253.44,0.2126,3.4840,0.0859,-0.5302,0.3149,-0.0861,rough,14.0,1,1.703
7930,253.76,0.2126,3.4842,0.0858,-0.5304,0.3151,-0.0861,rough,14.0,1,1.703
7940,254.08,0.2126,3.4844,0.0857,-0.5305,0.3153,-0.0862,rough,14.0,1,1.703
7950,254.40,0.2126,3.4846,0.0856,-0.5306,0.3154,-0.0863,rough,14.0,1,1.703
7960,254.72,0.2126,3.4848,0.0856,-0.5307,0.3156,-0.0864,rough,14.0,1,1.703
7970,255.04,0.2126,3.4850,0.0855,-0.5308,0.3158,-0.0865,rough,14.0,1,1.702
7980,255.36,0.2126,3.4852,0.0854,-0.5310,0.3160,-0.0866,rough,14.0,1,1.702
7990,255.68,0.2126,3.4854,0.0853,-0.5311,0.3162,-0.0866,rough,14.0,1,1.702
8000,256.00,0.2126,3.4856,0.0852,-0.5312,0.3163,-0.0867,rough,14.0,1,1.702
8010,256.32,0.2126,3.4858,0.0851,-0.5313,0.3165,-0.0868,rough,14.0,1,1.702
8020,256.64,0.2126,3.4859,0.0850,-0.5315,0.3167,-0.0869,rough,14.0,1,1.702
8030,256.96,0.2126,3.4861,0.0850,-0.5316,0.3169,-0.0870,rough,14.0,1,1.701
8040,257.28,0.2126,3.4863,0.0849,-0.5317,0.3170,-0.0871,rough,14.0,1,1.701
8050,257.60,0.2126,3.4865,0.0848,-0.5318,0.3172,-0.0871,rough,14.0,1,1.701
8060,257.92,0.2126,3.4867,0.0847,-0.5319,0.3174,-0.0872,rough,14.0,1,1.701
8070,258.24,0.2126,3.4869,0.0846,-0.5321,0.3176,-0.0873,rough,14.0,1,1.701
8080,258.56,0.2126,3.4871,0.0845,-0.5322,0.3177,-0.0874,rough,14.0,1,1.700
8090,258.88,0.2126,3.4873,0.0845,-0.5323,0.3179,-0.0875,rough,14.0,1,1.700
8100,259.20,0.2126,3.4874,0.0844,-0.5324,0.3181,-0.0876,rough,14.0,1,1.700
8110,259.52,0.2126,3.4876,0.0843,-0.5325,0.3183,-0.0876,rough,14.0,1,1.700
