step,time_s,x,y,z,roll,pitch,yaw,terrain,speed,target_idx,dist_to_target
10,0.32,-0.0575,1.3668,0.3161,0.1996,-0.1161,0.2119,rough,14.0,0,4.247
20,0.64,0.2222,1.4240,0.3473,0.1689,-0.1291,0.4846,rough,14.0,0,4.275
30,0.96,0.4992,1.5878,0.3824,0.1399,-0.1289,0.7238,rough,14.0,0,4.223
40,1.28,0.7884,1.8799,0.3758,0.1804,0.1708,0.9914,rough,14.0,0,4.088
50,1.60,1.0018,2.1989,0.3008,0.2429,0.2248,1.1882,rough,14.0,0,3.926
60,1.92,1.1475,2.5311,0.2082,0.3326,0.1579,1.4388,rough,14.0,0,3.743
70,2.24,1.3371,2.6926,0.1197,0.2566,0.1700,1.8597,rough,14.0,0,3.743
80,2.56,1.4414,2.7766,0.1348,0.2413,-0.3024,2.0500,rough,14.0,0,3.753
90,2.88,1.4354,2.8430,0.1370,1.3264,-1.2598,0.6959,rough,14.0,0,3.701
100,3.20,1.5021,2.8033,-0.0930,2.8353,-0.1731,-0.9841,rough,14.0,0,3.777
110,3.52,1.5554,2.9088,-0.1381,2.8020,-0.0086,-0.7898,rough,14.0,0,3.742
120,3.84,1.6425,3.0140,-0.1814,2.7271,0.1043,-0.5447,rough,14.0,0,3.736
130,4.16,1.6889,3.1335,-0.2555,2.8437,0.2296,-0.2918,rough,14.0,0,3.695
140,4.48,1.6816,3.1916,-0.2574,2.8062,0.2157,-0.1177,rough,14.0,0,3.653
150,4.80,1.6528,3.2021,-0.2467,2.8396,0.3636,0.1352,rough,14.0,0,3.624
160,5.12,1.6382,3.2116,-0.2335,2.9049,0.4553,0.2931,rough,14.0,0,3.607
170,5.44,1.6223,3.2443,-0.2412,2.8736,0.4667,0.3170,rough,14.0,0,3.574
180,5.76,1.5977,3.3052,-0.2593,2.8373,0.4597,0.3647,rough,14.0,0,3.517
190,6.08,1.5652,3.3754,-0.2851,2.8200,0.4630,0.3757,rough,14.0,0,3.448
200,6.40,1.4711,3.4810,-0.2810,2.8048,0.5987,0.3622,rough,14.0,0,3.310
210,6.72,1.3903,3.5922,-0.3014,2.8410,0.6573,0.3705,rough,14.0,0,3.179
220,7.04,1.3214,3.7351,-0.4124,2.8470,0.4466,0.5229,rough,14.0,0,3.040
230,7.36,1.1928,3.7977,-0.4300,2.8643,0.5011,0.9633,rough,14.0,0,2.898
240,7.68,1.0871,3.8030,-0.4307,2.9046,0.5466,1.3183,rough,14.0,0,2.809
250,8.00,1.0582,3.8021,-0.4349,3.0197,0.5452,1.5059,rough,14.0,0,2.787
260,8.32,1.0397,3.7873,-0.4275,3.0274,0.5395,1.5146,rough,14.0,0,2.781
270,8.64,1.0266,3.7921,-0.4305,3.0412,0.5365,1.5334,rough,14.0,0,2.767
280,8.96,1.0201,3.7927,-0.4306,3.0523,0.5393,1.5494,rough,14.0,0,2.762
290,9.28,1.0178,3.7924,-0.4304,3.0571,0.5387,1.5596,rough,14.0,0,2.760
300,9.60,1.0181,3.7909,-0.4296,3.0561,0.5333,1.5667,rough,14.0,0,2.761
310,9.92,1.0203,3.7887,-0.4286,3.0570,0.5326,1.5703,rough,14.0,0,2.764
320,10.24,1.0233,3.7866,-0.4277,3.0588,0.5344,1.5719,rough,14.0,0,2.768
330,10.56,1.0267,3.7865,-0.4277,3.0600,0.5363,1.5727,rough,14.0,0,2.771
340,10.88,1.0304,3.7882,-0.4285,3.0601,0.5374,1.5735,rough,14.0,0,2.773
350,11.20,1.0343,3.7899,-0.4293,3.0601,0.5387,1.5740,rough,14.0,0,2.775
360,11.52,1.0384,3.7917,-0.4301,3.0599,0.5401,1.5743,rough,14.0,0,2.777
370,11.84,1.0416,3.7942,-0.4314,3.0644,0.5420,1.5827,rough,14.0,0,2.778
380,12.16,1.0476,3.7979,-0.4331,3.0718,0.5456,1.5977,rough,14.0,0,2.781
390,12.48,1.0601,3.8049,-0.4364,3.0874,0.5528,1.6293,rough,14.0,0,2.786
400,12.80,1.0851,3.8170,-0.4417,3.1127,0.5660,1.6830,rough,14.0,0,2.800
410,13.12,1.1311,3.8399,-0.4515,-3.1147,0.5744,1.7808,rough,14.0,0,2.824
420,13.44,1.2136,3.8713,-0.4750,-2.9527,0.5771,1.9482,rough,14.0,0,2.874
430,13.76,1.3443,3.8676,-0.4867,-2.7063,0.4815,2.1933,rough,14.0,0,2.986
440,14.08,1.5293,3.7508,-0.4578,-2.5394,0.2876,2.2688,rough,14.0,0,3.205
450,14.40,1.7762,3.6150,-0.4687,-2.4820,-0.0795,2.5213,rough,14.0,0,3.486
460,14.72,2.0066,3.6686,-0.6170,-2.8899,-0.6066,-2.8322,rough,14.0,0,3.657
470,15.04,2.1986,3.7989,-0.7629,-2.9231,-0.5885,-2.6527,rough,14.0,0,3.766
480,15.36,2.4181,3.8795,-0.8661,-2.9408,-0.3060,-2.7086,rough,14.0,0,3.931
490,15.68,2.5951,4.0165,-0.9352,-2.9019,-0.1007,-2.7397,rough,14.0,0,4.042
500,16.00,2.7465,4.1342,-0.9781,-2.9128,-0.0819,-2.8620,rough,14.0,0,4.145
510,16.32,2.9664,4.2266,-1.0161,-2.9807,-0.1905,-2.8797,rough,14.0,0,4.326
520,16.64,3.1991,4.2499,-1.0420,-2.9229,-0.1540,-2.9109,rough,14.0,0,4.544
530,16.96,3.4431,4.2546,-1.0597,-2.8901,-0.1143,-2.9076,rough,14.0,0,4.778
540,17.28,3.6858,4.2700,-1.0647,-2.8504,-0.0418,-2.8938,rough,14.0,0,5.010
550,17.60,3.8860,4.2821,-1.0458,-2.7945,0.0378,-2.9528,rough,14.0,0,5.201
560,17.92,3.9642,4.2877,-1.0391,-2.7962,0.0909,-2.9293,rough,14.0,0,5.276
570,18.24,3.9302,4.2867,-1.0424,-2.8051,0.0774,-2.9347,rough,14.0,0,5.243
580,18.56,3.8028,4.2838,-1.0540,-2.8106,-0.0212,-2.8951,rough,14.0,0,5.120
590,18.88,3.5901,4.2775,-1.0730,-2.8954,-0.0750,-2.9073,rough,14.0,0,4.915
600,19.20,3.4640,4.2786,-1.0672,-2.8934,-0.1126,-2.8964,rough,14.0,0,4.792
610,19.52,3.4066,4.2801,-1.0628,-2.8962,-0.1368,-2.8956,rough,14.0,0,4.736
620,19.84,3.4189,4.2813,-1.0640,-2.8973,-0.1344,-2.8877,rough,14.0,0,4.748
630,20.16,3.4999,4.2828,-1.0699,-2.8983,-0.1078,-2.8739,rough,14.0,0,4.826
640,20.48,3.6319,4.2910,-1.0752,-2.8752,-0.0761,-2.8864,rough,14.0,0,4.952
650,20.80,3.7451,4.2992,-1.0650,-2.8313,-0.0283,-2.9539,rough,14.0,0,5.060
660,21.12,3.7664,4.3014,-1.0624,-2.8210,-0.0383,-2.8950,rough,14.0,0,5.081
670,21.44,3.6920,4.2991,-1.0694,-2.8379,-0.0691,-2.9036,rough,14.0,0,5.009
680,21.76,3.5462,4.2959,-1.0772,-2.9109,-0.0885,-2.8924,rough,14.0,0,4.868
690,22.08,3.4282,4.3003,-1.0691,-2.9002,-0.1359,-2.8905,rough,14.0,0,4.752
700,22.40,3.3881,4.3031,-1.0666,-2.9079,-0.1430,-2.8827,rough,14.0,0,4.713
710,22.72,3.4229,4.3049,-1.0695,-2.9026,-0.1391,-2.8775,rough,14.0,0,4.746
720,23.04,3.5222,4.3070,-1.0768,-2.9020,-0.1088,-2.8662,rough,14.0,0,4.842
730,23.36,3.6600,4.3157,-1.0792,-2.8731,-0.0636,-2.8812,rough,14.0,0,4.974
740,23.68,3.7536,4.3241,-1.0699,-2.8268,-0.0454,-2.8931,rough,14.0,0,5.063
750,24.00,3.7563,4.3256,-1.0699,-2.8268,-0.0409,-2.9008,rough,14.0,0,5.065
760,24.32,3.6654,4.3226,-1.0785,-2.8560,-0.0686,-2.9078,rough,14.0,0,4.977
770,24.64,3.5190,4.3212,-1.0808,-2.9053,-0.1093,-2.8993,rough,14.0,0,4.835
780,24.96,3.4207,4.3254,-1.0740,-2.9084,-0.1383,-2.8899,rough,14.0,0,4.739
790,25.28,3.4000,4.3267,-1.0726,-2.9126,-0.1411,-2.8859,rough,14.0,0,4.718
800,25.60,3.4529,4.3278,-1.0768,-2.9040,-0.1345,-2.8808,rough,14.0,0,4.770
810,25.92,3.5712,4.3281,-1.0836,-2.8970,-0.0840,-2.9451,rough,14.0,0,4.884
820,26.24,3.7053,4.3320,-1.0775,-2.8402,-0.0514,-2.9446,rough,14.0,0,5.014
830,26.56,3.7443,4.3332,-1.0737,-2.8337,-0.0334,-2.9395,rough,14.0,0,5.052
840,26.88,3.6871,4.3315,-1.0791,-2.8467,-0.0573,-2.9458,rough,14.0,0,4.997
850,27.20,3.5572,4.3301,-1.0900,-2.9144,-0.1149,-2.9339,rough,14.0,0,4.870
860,27.52,3.4741,4.3327,-1.0796,-2.8991,-0.1155,-2.9448,rough,14.0,0,4.789
870,27.84,3.4618,4.3361,-1.0791,-2.8989,-0.1194,-2.9456,rough,14.0,0,4.776
880,28.16,3.5208,4.3355,-1.0825,-2.8986,-0.1009,-2.9421,rough,14.0,0,4.834
890,28.48,3.6247,4.3382,-1.0848,-2.8832,-0.0741,-2.9232,rough,14.0,0,4.934
900,28.80,3.6960,4.3417,-1.0805,-2.8417,-0.0627,-2.9280,rough,14.0,0,5.003
910,29.12,3.6780,4.3414,-1.0824,-2.8520,-0.0624,-2.9293,rough,14.0,0,4.985
920,29.44,3.5958,4.3388,-1.0869,-2.8976,-0.0839,-2.9320,rough,14.0,0,4.906
930,29.76,3.5050,4.3526,-1.0864,-2.9088,-0.1236,-2.8814,rough,14.0,0,4.814
940,30.08,3.4694,4.3564,-1.0844,-2.9079,-0.1384,-2.8753,rough,14.0,0,4.779
950,30.40,3.5124,4.3612,-1.0878,-2.9003,-0.1086,-2.9543,rough,14.0,0,4.820
960,30.72,3.6105,4.3645,-1.0922,-2.8991,-0.0789,-2.9360,rough,14.0,0,4.914
970,31.04,3.6946,4.3672,-1.0874,-2.8453,-0.0634,-2.9350,rough,14.0,0,4.996
980,31.36,3.7072,4.3678,-1.0865,-2.8458,-0.0526,-2.9335,rough,14.0,0,5.008
990,31.68,3.6455,4.3662,-1.0901,-2.8729,-0.0760,-2.9383,rough,14.0,0,4.948
1000,32.00,3.5534,4.3647,-1.0907,-2.9010,-0.0983,-2.9505,rough,14.0,0,4.859
1010,32.32,3.5045,4.3652,-1.0882,-2.9016,-0.1112,-2.9526,rough,14.0,0,4.811
1020,32.64,3.5070,4.3652,-1.0884,-2.9017,-0.1107,-2.9522,rough,14.0,0,4.813
1030,32.96,3.5608,4.3647,-1.0912,-2.9014,-0.0964,-2.9495,rough,14.0,0,4.866
1040,33.28,3.6378,4.3695,-1.0920,-2.8815,-0.0854,-2.9145,rough,14.0,0,4.940
1050,33.60,3.6791,4.3712,-1.0890,-2.8550,-0.0731,-2.9139,rough,14.0,0,4.980
1060,33.92,3.6694,4.3709,-1.0894,-2.8601,-0.0756,-2.9143,rough,14.0,0,4.970
1070,34.24,3.6118,4.3690,-1.0925,-2.8921,-0.0909,-2.9167,rough,14.0,0,4.915
1080,34.56,3.5393,4.3705,-1.0916,-2.9049,-0.1094,-2.9251,rough,14.0,0,4.844
1090,34.88,3.5168,4.3738,-1.0910,-2.9056,-0.1175,-2.9199,rough,14.0,0,4.821
1100,35.20,3.5459,4.3768,-1.0932,-2.9059,-0.1109,-2.9178,rough,14.0,0,4.849
1110,35.52,3.6118,4.3797,-1.0967,-2.8977,-0.1069,-2.8913,rough,14.0,0,4.912
1120,35.84,3.6376,4.3820,-1.0938,-2.8795,-0.0920,-2.8982,rough,14.0,0,4.937
1130,36.16,3.6149,4.3813,-1.0948,-2.8918,-0.0971,-2.8999,rough,14.0,0,4.915
1140,36.48,3.5617,4.3814,-1.0953,-2.9079,-0.1110,-2.9038,rough,14.0,0,4.863
1150,36.80,3.5539,4.3819,-1.0949,-2.9079,-0.1134,-2.9025,rough,14.0,0,4.855
1160,37.12,3.5900,4.3849,-1.1041,-2.9201,-0.1205,-2.9393,rough,14.0,0,4.890
1170,37.44,3.6150,4.3860,-1.0967,-2.8941,-0.0894,-2.9413,rough,14.0,0,4.914
1180,37.76,3.5904,4.3853,-1.0977,-2.9061,-0.0958,-2.9428,rough,14.0,0,4.890
1190,38.08,3.5766,4.3865,-1.0969,-2.9046,-0.0997,-2.9423,rough,14.0,0,4.876
1200,38.40,3.5947,4.3885,-1.0979,-2.9033,-0.0978,-2.9317,rough,14.0,0,4.894
1210,38.72,3.5853,4.3926,-1.0987,-2.9061,-0.1019,-2.9293,rough,14.0,0,4.884
1220,39.04,3.5913,4.3976,-1.0999,-2.9064,-0.1049,-2.9146,rough,14.0,0,4.888
1230,39.36,3.5877,4.4023,-1.1014,-2.9114,-0.1123,-2.8911,rough,14.0,0,4.884
1240,39.68,3.5927,4.4071,-1.1025,-2.9072,-0.0997,-2.9487,rough,14.0,0,4.888
1250,40.00,3.5889,4.4120,-1.1034,-2.9090,-0.1067,-2.9280,rough,14.0,0,4.883
1260,40.32,3.5931,4.4241,-1.1062,-2.9066,-0.1070,-2.9484,rough,14.0,0,4.884
1270,40.64,3.5878,4.4284,-1.1070,-2.9110,-0.1111,-2.9311,rough,14.0,0,4.878
1280,40.96,3.5945,4.4333,-1.1077,-2.9087,-0.1123,-2.9215,rough,14.0,0,4.884
1290,41.28,3.5855,4.4371,-1.1090,-2.9147,-0.1199,-2.9029,rough,14.0,0,4.874
1300,41.60,3.5938,4.4494,-1.1120,-2.9122,-0.1190,-2.9224,rough,14.0,0,4.880
1310,41.92,3.5860,4.4533,-1.1126,-2.9164,-0.1242,-2.9040,rough,14.0,0,4.871
1320,42.24,3.6004,4.4680,-1.1168,-2.9167,-0.1040,-2.9786,rough,14.0,0,4.882
1330,42.56,3.5882,4.4715,-1.1163,-2.9120,-0.1126,-2.9776,rough,14.0,0,4.870
1340,42.88,3.6031,4.4730,-1.1163,-2.9104,-0.1229,-2.9123,rough,14.0,0,4.884
1350,43.20,3.5886,4.4736,-1.1168,-2.9166,-0.1277,-2.9092,rough,14.0,0,4.870
1360,43.52,3.5983,4.4751,-1.1169,-2.9129,-0.1250,-2.9116,rough,14.0,0,4.879
1370,43.84,3.5924,4.4761,-1.1172,-2.9152,-0.1278,-2.9073,rough,14.0,0,4.873
1380,44.16,3.6014,4.4765,-1.1171,-2.9115,-0.1237,-2.9152,rough,14.0,0,4.882
1390,44.48,3.5896,4.4772,-1.1176,-2.9167,-0.1277,-2.9125,rough,14.0,0,4.870
1400,44.80,3.6009,4.4791,-1.1178,-2.9128,-0.1256,-2.9104,rough,14.0,0,4.881
1410,45.12,3.5952,4.4785,-1.1179,-2.9150,-0.1262,-2.9139,rough,14.0,0,4.875
1420,45.44,3.5955,4.4807,-1.1186,-2.9124,-0.1125,-2.9781,rough,14.0,0,4.875
1430,45.76,3.6005,4.4800,-1.1180,-2.9127,-0.1249,-2.9151,rough,14.0,0,4.880
1440,46.08,3.5920,4.4812,-1.1183,-2.9156,-0.1287,-2.9102,rough,14.0,0,4.872
1450,46.40,3.6050,4.4820,-1.1183,-2.9108,-0.1241,-2.9157,rough,14.0,0,4.884
1460,46.72,3.5928,4.4820,-1.1186,-2.9159,-0.1274,-2.9158,rough,14.0,0,4.872
1470,47.04,3.6014,4.4842,-1.1193,-2.9112,-0.1116,-2.9790,rough,14.0,0,4.880
1480,47.36,3.6012,4.4825,-1.1186,-2.9126,-0.1239,-2.9220,rough,14.0,0,4.880
1490,47.68,3.5929,4.4837,-1.1188,-2.9152,-0.1279,-2.9155,rough,14.0,0,4.872
1500,48.00,3.6034,4.4842,-1.1189,-2.9124,-0.1257,-2.9130,rough,14.0,0,4.882
1510,48.32,3.5980,4.4840,-1.1190,-2.9142,-0.1270,-2.9139,rough,14.0,0,4.877
1520,48.64,3.5935,4.4855,-1.1192,-2.9132,-0.1327,-2.9087,rough,14.0,0,4.872
1530,48.96,3.6062,4.4862,-1.1192,-2.9104,-0.1262,-2.9132,rough,14.0,0,4.884
1540,49.28,3.6013,4.4850,-1.1191,-2.9126,-0.1253,-2.9191,rough,14.0,0,4.880
1550,49.60,3.5926,4.4863,-1.1193,-2.9137,-0.1312,-2.9134,rough,14.0,0,4.871
1560,49.92,3.5986,4.4886,-1.1201,-2.9081,-0.1171,-2.9821,rough,14.0,0,4.877
1570,50.24,3.6113,4.4875,-1.1194,-2.9085,-0.1233,-2.9202,rough,14.0,0,4.889
1580,50.56,3.5946,4.4878,-1.1198,-2.9153,-0.1280,-2.9182,rough,14.0,0,4.873
1590,50.88,3.5946,4.4893,-1.1199,-2.9129,-0.1323,-2.9115,rough,14.0,0,4.873
1600,51.20,3.6063,4.4905,-1.1201,-2.9105,-0.1280,-2.9123,rough,14.0,0,4.884
1610,51.52,3.6085,4.4894,-1.1198,-2.9100,-0.1248,-2.9179,rough,14.0,0,4.886
1620,51.84,3.5938,4.4901,-1.1200,-2.9138,-0.1303,-2.9150,rough,14.0,0,4.872
1630,52.16,3.6012,4.4918,-1.1203,-2.9112,-0.1299,-2.9136,rough,14.0,0,4.878
1640,52.48,3.6148,4.4912,-1.1200,-2.9078,-0.1238,-2.9167,rough,14.0,0,4.892
1650,52.80,3.5976,4.4912,-1.1204,-2.9143,-0.1285,-2.9163,rough,14.0,0,4.875
1660,53.12,3.5930,4.4928,-1.1205,-2.9173,-0.1285,-2.9086,rough,14.0,0,4.870
1670,53.44,3.6082,4.4941,-1.1208,-2.9096,-0.1276,-2.9163,rough,14.0,0,4.885
1680,53.76,3.6135,4.4931,-1.1205,-2.9083,-0.1235,-2.9216,rough,14.0,0,4.890
1690,54.08,3.5997,4.4931,-1.1208,-2.9137,-0.1276,-2.9205,rough,14.0,0,4.877
1700,54.40,3.5940,4.4943,-1.1210,-2.9163,-0.1293,-2.9138,rough,14.0,0,4.871
1710,54.72,3.5967,4.4959,-1.1210,-2.9148,-0.1279,-2.9143,rough,14.0,0,4.873
1720,55.04,3.6034,4.4960,-1.1212,-2.9087,-0.1329,-2.9158,rough,14.0,0,4.880
1730,55.36,3.6056,4.4960,-1.1213,-2.9111,-0.1291,-2.9146,rough,14.0,0,4.882
1740,55.68,3.6118,4.4961,-1.1212,-2.9099,-0.1266,-2.9139,rough,14.0,0,4.888
1750,56.00,3.6134,4.4956,-1.1210,-2.9090,-0.1253,-2.9164,rough,14.0,0,4.890
1760,56.32,3.6050,4.4955,-1.1212,-2.9121,-0.1276,-2.9163,rough,14.0,0,4.881
1770,56.64,3.6017,4.4956,-1.1212,-2.9107,-0.1314,-2.9168,rough,14.0,0,4.878
1780,56.96,3.5972,4.4965,-1.1214,-2.9139,-0.1319,-2.9114,rough,14.0,0,4.874
1790,57.28,3.5981,4.4982,-1.1217,-2.9168,-0.1270,-2.9126,rough,14.0,0,4.874
1800,57.60,3.6032,4.4997,-1.1220,-2.9115,-0.1293,-2.9195,rough,14.0,0,4.879
1810,57.92,3.6122,4.4998,-1.1220,-2.9090,-0.1271,-2.9191,rough,14.0,0,4.888
1820,58.24,3.6186,4.4995,-1.1219,-2.9076,-0.1241,-2.9205,rough,14.0,0,4.894
1830,58.56,3.6121,4.4995,-1.1219,-2.9097,-0.1259,-2.9205,rough,14.0,0,4.888
1840,58.88,3.6043,4.4994,-1.1220,-2.9115,-0.1289,-2.9206,rough,14.0,0,4.880
1850,59.20,3.5991,4.5001,-1.1222,-2.9144,-0.1297,-2.9168,rough,14.0,0,4.875
1860,59.52,3.5949,4.5018,-1.1224,-2.9187,-0.1275,-2.9120,rough,14.0,0,4.870
1870,59.84,3.6037,4.5032,-1.1227,-2.9140,-0.1268,-2.9172,rough,14.0,0,4.879
1880,60.16,3.6076,4.5034,-1.1227,-2.9078,-0.1325,-2.9186,rough,14.0,0,4.882
1890,60.48,3.6054,4.5034,-1.1227,-2.9094,-0.1323,-2.9182,rough,14.0,0,4.880
1900,60.80,3.6005,4.5035,-1.1228,-2.9158,-0.1281,-2.9153,rough,14.0,0,4.875
1910,61.12,3.5945,4.5058,-1.1233,-2.9116,-0.1177,-2.9835,rough,14.0,0,4.869
1920,61.44,3.6081,4.5166,-1.1262,-2.9095,-0.1368,-2.9280,rough,14.0,0,4.880
1930,61.76,3.6330,4.5183,-1.1255,-2.9022,-0.1266,-2.9199,rough,14.0,0,4.904
1940,62.08,3.6369,4.5170,-1.1250,-2.9007,-0.1224,-2.9272,rough,14.0,0,4.908
1950,62.40,3.6195,4.5168,-1.1253,-2.9070,-0.1270,-2.9274,rough,14.0,0,4.891
1960,62.72,3.6056,4.5165,-1.1254,-2.9149,-0.1264,-2.9265,rough,14.0,0,4.878
1970,63.04,3.5932,4.5175,-1.1256,-2.9220,-0.1260,-2.9215,rough,14.0,0,4.866
1980,63.36,3.5971,4.5191,-1.1259,-2.9214,-0.1267,-2.9155,rough,14.0,0,4.869
1990,63.68,3.6102,4.5201,-1.1260,-2.9142,-0.1261,-2.9204,rough,14.0,0,4.882
2000,64.00,3.6207,4.5203,-1.1259,-2.9077,-0.1275,-2.9209,rough,14.0,0,4.892
2010,64.32,3.6225,4.5204,-1.1259,-2.9025,-0.1328,-2.9219,rough,14.0,0,4.894
2020,64.64,3.6196,4.5204,-1.1259,-2.9037,-0.1334,-2.9216,rough,14.0,0,4.891
2030,64.96,3.6124,4.5202,-1.1260,-2.9128,-0.1270,-2.9195,rough,14.0,0,4.884
2040,65.28,3.6012,4.5200,-1.1261,-2.9193,-0.1264,-2.9187,rough,14.0,0,4.873
2050,65.60,3.5945,4.5217,-1.1261,-2.9208,-0.1261,-2.9199,rough,14.0,0,4.866
2060,65.92,3.6126,4.5319,-1.1289,-2.9174,-0.1242,-2.9305,rough,14.0,0,4.882
2070,66.24,3.6319,4.5324,-1.1283,-2.9040,-0.1255,-2.9317,rough,14.0,0,4.901
2080,66.56,3.6432,4.5326,-1.1282,-2.8990,-0.1243,-2.9316,rough,14.0,0,4.912
2090,66.88,3.6501,4.5328,-1.1282,-2.8972,-0.1221,-2.9310,rough,14.0,0,4.918
2100,67.20,3.6468,4.5328,-1.1282,-2.8981,-0.1230,-2.9309,rough,14.0,0,4.915
2110,67.52,3.6358,4.5327,-1.1283,-2.9018,-0.1260,-2.9309,rough,14.0,0,4.904
2120,67.84,3.6284,4.5326,-1.1283,-2.9038,-0.1283,-2.9308,rough,14.0,0,4.897
2130,68.16,3.6184,4.5324,-1.1284,-2.9116,-0.1253,-2.9295,rough,14.0,0,4.887
2140,68.48,3.6054,4.5322,-1.1286,-2.9187,-0.1250,-2.9287,rough,14.0,0,4.875
2150,68.80,3.5930,4.5331,-1.1287,-2.9252,-0.1257,-2.9232,rough,14.0,0,4.862
2160,69.12,3.5969,4.5352,-1.1294,-2.9170,-0.1169,-2.9881,rough,14.0,0,4.866
2170,69.44,3.6117,4.5353,-1.1290,-2.9164,-0.1258,-2.9228,rough,14.0,0,4.880
2180,69.76,3.6237,4.5355,-1.1289,-2.9101,-0.1258,-2.9229,rough,14.0,0,4.892
2190,70.08,3.6326,4.5357,-1.1288,-2.9054,-0.1258,-2.9229,rough,14.0,0,4.901
2200,70.40,3.6310,4.5357,-1.1289,-2.9063,-0.1258,-2.9225,rough,14.0,0,4.899
2210,70.72,3.6208,4.5355,-1.1289,-2.9118,-0.1259,-2.9219,rough,14.0,0,4.889
2220,71.04,3.6082,4.5353,-1.1291,-2.9185,-0.1260,-2.9212,rough,14.0,0,4.877
2230,71.36,3.5951,4.5369,-1.1296,-2.9174,-0.1167,-2.9898,rough,14.0,0,4.864
2240,71.68,3.6106,4.5467,-1.1322,-2.9240,-0.1222,-2.9345,rough,14.0,0,4.877
2250,72.00,3.6324,4.5474,-1.1314,-2.9073,-0.1240,-2.9361,rough,14.0,0,4.898
2260,72.32,3.6481,4.5477,-1.1312,-2.8969,-0.1260,-2.9370,rough,14.0,0,4.914
2270,72.64,3.6591,4.5479,-1.1311,-2.8941,-0.1226,-2.9363,rough,14.0,0,4.924
2280,72.96,3.6661,4.5480,-1.1310,-2.8920,-0.1207,-2.9358,rough,14.0,0,4.931
2290,73.28,3.6614,4.5480,-1.1310,-2.8934,-0.1220,-2.9357,rough,14.0,0,4.927
2300,73.60,3.6509,4.5479,-1.1311,-2.8968,-0.1249,-2.9357,rough,14.0,0,4.916
2310,73.92,3.6444,4.5479,-1.1312,-2.8966,-0.1293,-2.9363,rough,14.0,0,4.910
2320,74.24,3.6389,4.5478,-1.1312,-2.9021,-0.1261,-2.9350,rough,14.0,0,4.905
2330,74.56,3.6295,4.5476,-1.1313,-2.9085,-0.1245,-2.9339,rough,14.0,0,4.895
2340,74.88,3.6179,4.5474,-1.1314,-2.9148,-0.1244,-2.9332,rough,14.0,0,4.884
2350,75.20,3.6038,4.5472,-1.1316,-2.9223,-0.1245,-2.9326,rough,14.0,0,4.870
2360,75.52,3.5934,4.5483,-1.1318,-2.9284,-0.1254,-2.9253,rough,14.0,0,4.860
2370,75.84,3.6002,4.5500,-1.1319,-2.9244,-0.1254,-2.9257,rough,14.0,0,4.866
2380,76.16,3.6135,4.5501,-1.1319,-2.9181,-0.1253,-2.9261,rough,14.0,0,4.879
2390,76.48,3.6242,4.5503,-1.1319,-2.9126,-0.1253,-2.9261,rough,14.0,0,4.890
2400,76.80,3.6326,4.5505,-1.1318,-2.9082,-0.1254,-2.9260,rough,14.0,0,4.898
2410,77.12,3.6388,4.5506,-1.1317,-2.9049,-0.1254,-2.9259,rough,14.0,0,4.904
2420,77.44,3.6431,4.5507,-1.1317,-2.9026,-0.1254,-2.9257,rough,14.0,0,4.908
2430,77.76,3.6429,4.5519,-1.1327,-2.8980,-0.1161,-2.9946,rough,14.0,0,4.908
2440,78.08,3.6362,4.5517,-1.1320,-2.9059,-0.1248,-2.9314,rough,14.0,0,4.901
2450,78.40,3.6269,4.5515,-1.1321,-2.9110,-0.1247,-2.9309,rough,14.0,0,4.892
2460,78.72,3.6154,4.5514,-1.1322,-2.9172,-0.1248,-2.9302,rough,14.0,0,4.881
2470,79.04,3.6014,4.5514,-1.1324,-2.9249,-0.1250,-2.9282,rough,14.0,0,4.867
2480,79.36,3.5912,4.5535,-1.1328,-2.9218,-0.1163,-2.9925,rough,14.0,0,4.857
2490,79.68,3.6068,4.5551,-1.1328,-2.9214,-0.1249,-2.9289,rough,14.0,0,4.872
2500,80.00,3.6238,4.5554,-1.1329,-2.9134,-0.1249,-2.9295,rough,14.0,0,4.888
2510,80.32,3.6383,4.5556,-1.1328,-2.9058,-0.1249,-2.9297,rough,14.0,0,4.903
2520,80.64,3.6506,4.5559,-1.1327,-2.8993,-0.1249,-2.9298,rough,14.0,0,4.915
2530,80.96,3.6546,4.5560,-1.1326,-2.8933,-0.1298,-2.9309,rough,14.0,0,4.919
2540,81.28,3.6550,4.5561,-1.1326,-2.8911,-0.1323,-2.9313,rough,14.0,0,4.919
2550,81.60,3.6529,4.5561,-1.1326,-2.8917,-0.1330,-2.9311,rough,14.0,0,4.917
2560,81.92,3.6483,4.5559,-1.1327,-2.8996,-0.1264,-2.9289,rough,14.0,0,4.912
2570,82.24,3.6388,4.5558,-1.1328,-2.9057,-0.1252,-2.9280,rough,14.0,0,4.903
2580,82.56,3.6272,4.5556,-1.1329,-2.9120,-0.1252,-2.9273,rough,14.0,0,4.892
2590,82.88,3.6134,4.5554,-1.1330,-2.9194,-0.1253,-2.9266,rough,14.0,0,4.878
2600,83.20,3.5971,4.5557,-1.1333,-2.9284,-0.1256,-2.9236,rough,14.0,0,4.862
2610,83.52,3.6040,4.5663,-1.1366,-2.9303,-0.1249,-2.9396,rough,14.0,0,4.867
2620,83.84,3.6253,4.5670,-1.1354,-2.9149,-0.1233,-2.9408,rough,14.0,0,4.888
2630,84.16,3.6434,4.5674,-1.1351,-2.9047,-0.1233,-2.9412,rough,14.0,0,4.905
2640,84.48,3.6594,4.5677,-1.1350,-2.8961,-0.1233,-2.9415,rough,14.0,0,4.921
2650,84.80,3.6672,4.5679,-1.1349,-2.8902,-0.1256,-2.9421,rough,14.0,0,4.929
2660,85.12,3.6745,4.5679,-1.1349,-2.8889,-0.1227,-2.9414,rough,14.0,0,4.936
2670,85.44,3.6702,4.5679,-1.1349,-2.8904,-0.1238,-2.9413,rough,14.0,0,4.932
2680,85.76,3.6662,4.5679,-1.1349,-2.8909,-0.1257,-2.9413,rough,14.0,0,4.928
2690,86.08,3.6647,4.5680,-1.1349,-2.8881,-0.1300,-2.9421,rough,14.0,0,4.926
2700,86.40,3.6618,4.5680,-1.1350,-2.8888,-0.1312,-2.9420,rough,14.0,0,4.923
2710,86.72,3.6579,4.5679,-1.1350,-2.8954,-0.1257,-2.9401,rough,14.0,0,4.920
2720,87.04,3.6490,4.5677,-1.1351,-2.9017,-0.1239,-2.9390,rough,14.0,0,4.911
2730,87.36,3.6381,4.5675,-1.1352,-2.9077,-0.1237,-2.9383,rough,14.0,0,4.900
2740,87.68,3.6251,4.5673,-1.1353,-2.9146,-0.1238,-2.9376,rough,14.0,0,4.888
2750,88.00,3.6098,4.5671,-1.1355,-2.9228,-0.1239,-2.9369,rough,14.0,0,4.872
2760,88.32,3.5943,4.5676,-1.1356,-2.9308,-0.1245,-2.9322,rough,14.0,0,4.857
2770,88.64,3.6020,4.5698,-1.1363,-2.9212,-0.1160,-2.9950,rough,14.0,0,4.864
2780,88.96,3.6239,4.5699,-1.1358,-2.9162,-0.1246,-2.9320,rough,14.0,0,4.886
2790,89.28,3.6431,4.5703,-1.1356,-2.9060,-0.1245,-2.9323,rough,14.0,0,4.905
2800,89.60,3.6603,4.5706,-1.1355,-2.8969,-0.1245,-2.9326,rough,14.0,0,4.921
2810,89.92,3.6704,4.5709,-1.1354,-2.8889,-0.1278,-2.9336,rough,14.0,0,4.931
2820,90.24,3.6718,4.5709,-1.1354,-2.8890,-0.1270,-2.9332,rough,14.0,0,4.933
2830,90.56,3.6695,4.5710,-1.1354,-2.8866,-0.1314,-2.9339,rough,14.0,0,4.930
2840,90.88,3.6662,4.5710,-1.1354,-2.8874,-0.1326,-2.9338,rough,14.0,0,4.927
2850,91.20,3.6615,4.5708,-1.1355,-2.8953,-0.1260,-2.9316,rough,14.0,0,4.923
2860,91.52,3.6520,4.5706,-1.1356,-2.9014,-0.1249,-2.9307,rough,14.0,0,4.913
2870,91.84,3.6407,4.5704,-1.1357,-2.9075,-0.1248,-2.9300,rough,14.0,0,4.902
2880,92.16,3.6274,4.5702,-1.1358,-2.9147,-0.1249,-2.9293,rough,14.0,0,4.889
2890,92.48,3.6117,4.5700,-1.1359,-2.9231,-0.1250,-2.9285,rough,14.0,0,4.874
2900,92.80,3.5961,4.5708,-1.1359,-2.9294,-0.1246,-2.9314,rough,14.0,0,4.858
2910,93.12,3.6154,4.5809,-1.1386,-2.9207,-0.1281,-2.9436,rough,14.0,0,4.875
2920,93.44,3.6473,4.5816,-1.1380,-2.9052,-0.1233,-2.9437,rough,14.0,0,4.907
2930,93.76,3.6764,4.5821,-1.1377,-2.8893,-0.1235,-2.9446,rough,14.0,0,4.935
2940,94.08,3.6801,4.5822,-1.1376,-2.8855,-0.1258,-2.9451,rough,14.0,0,4.939
2950,94.40,3.6633,4.5819,-1.1378,-2.8964,-0.1236,-2.9436,rough,14.0,0,4.922
2960,94.72,3.6446,4.5816,-1.1379,-2.9068,-0.1232,-2.9425,rough,14.0,0,4.904
2970,95.04,3.6239,4.5813,-1.1381,-2.9178,-0.1233,-2.9416,rough,14.0,0,4.884
2980,95.36,3.6008,4.5811,-1.1384,-2.9302,-0.1235,-2.9395,rough,14.0,0,4.861
2990,95.68,3.5973,4.5824,-1.1386,-2.9332,-0.1245,-2.9320,rough,14.0,0,4.857
3000,96.00,3.6106,4.5845,-1.1388,-2.9260,-0.1243,-2.9343,rough,14.0,0,4.870
3010,96.32,3.6206,4.5846,-1.1388,-2.9207,-0.1242,-2.9344,rough,14.0,0,4.880
3020,96.64,3.6279,4.5848,-1.1387,-2.9169,-0.1243,-2.9343,rough,14.0,0,4.887
3030,96.96,3.6326,4.5849,-1.1387,-2.9145,-0.1243,-2.9341,rough,14.0,0,4.892
3040,97.28,3.6348,4.5850,-1.1386,-2.9133,-0.1243,-2.9338,rough,14.0,0,4.894
3050,97.60,3.6347,4.5850,-1.1386,-2.9134,-0.1244,-2.9335,rough,14.0,0,4.894
3060,97.92,3.6323,4.5850,-1.1387,-2.9147,-0.1244,-2.9331,rough,14.0,0,4.891
3070,98.24,3.6273,4.5849,-1.1387,-2.9174,-0.1245,-2.9327,rough,14.0,0,4.886
3080,98.56,3.6199,4.5848,-1.1388,-2.9214,-0.1245,-2.9322,rough,14.0,0,4.879
3090,98.88,3.6096,4.5846,-1.1389,-2.9269,-0.1246,-2.9316,rough,14.0,0,4.869
3100,99.20,3.5991,4.5856,-1.1389,-2.9308,-0.1241,-2.9348,rough,14.0,0,4.859
3110,99.52,3.5981,4.5876,-1.1396,-2.9256,-0.1157,-2.9971,rough,14.0,0,4.857
3120,99.84,3.6095,4.5875,-1.1394,-2.9270,-0.1242,-2.9346,rough,14.0,0,4.868
3130,100.16,3.6176,4.5876,-1.1394,-2.9229,-0.1242,-2.9345,rough,14.0,0,4.876
3140,100.48,3.6229,4.5877,-1.1393,-2.9202,-0.1242,-2.9343,rough,14.0,0,4.882
3150,100.80,3.6253,4.5878,-1.1393,-2.9189,-0.1243,-2.9341,rough,14.0,0,4.884
3160,101.12,3.6252,4.5878,-1.1393,-2.9190,-0.1243,-2.9337,rough,14.0,0,4.884
3170,101.44,3.6223,4.5878,-1.1393,-2.9206,-0.1244,-2.9333,rough,14.0,0,4.881
3180,101.76,3.6168,4.5877,-1.1394,-2.9236,-0.1244,-2.9329,rough,14.0,0,4.876
3190,102.08,3.6082,4.5876,-1.1395,-2.9281,-0.1245,-2.9324,rough,14.0,0,4.867
3200,102.40,3.5994,4.5886,-1.1395,-2.9313,-0.1240,-2.9357,rough,14.0,0,4.858
3210,102.72,3.5990,4.5907,-1.1404,-2.9259,-0.1163,-2.9984,rough,14.0,0,4.858
3220,103.04,3.6110,4.5906,-1.1400,-2.9252,-0.1259,-2.9364,rough,14.0,0,4.869
3230,103.36,3.6219,4.5908,-1.1400,-2.9195,-0.1260,-2.9364,rough,14.0,0,4.880
3240,103.68,3.6322,4.5910,-1.1399,-2.9142,-0.1258,-2.9363,rough,14.0,0,4.890
3250,104.00,3.6427,4.5912,-1.1398,-2.9093,-0.1251,-2.9361,rough,14.0,0,4.900
3260,104.32,3.6555,4.5915,-1.1397,-2.9033,-0.1241,-2.9360,rough,14.0,0,4.913
3270,104.64,3.6723,4.5918,-1.1395,-2.8944,-0.1240,-2.9363,rough,14.0,0,4.929
3280,104.96,3.6889,4.5945,-1.1400,-2.8833,-0.1240,-2.9521,rough,14.0,0,4.945
3290,105.28,3.6784,4.5944,-1.1401,-2.8888,-0.1246,-2.9515,rough,14.0,0,4.935
3300,105.60,3.6647,4.5942,-1.1402,-2.8969,-0.1235,-2.9504,rough,14.0,0,4.922
3310,105.92,3.6514,4.5939,-1.1403,-2.9038,-0.1238,-2.9497,rough,14.0,0,4.909
3320,106.24,3.6389,4.5938,-1.1405,-2.9102,-0.1242,-2.9491,rough,14.0,0,4.896
3330,106.56,3.6267,4.5936,-1.1406,-2.9167,-0.1243,-2.9485,rough,14.0,0,4.884
3340,106.88,3.6144,4.5934,-1.1407,-2.9233,-0.1243,-2.9479,rough,14.0,0,4.872
3350,107.20,3.6021,4.5936,-1.1409,-2.9303,-0.1246,-2.9446,rough,14.0,0,4.860
3360,107.52,3.6002,4.5950,-1.1409,-2.9296,-0.1281,-2.9377,rough,14.0,0,4.858
3370,107.84,3.6168,4.5954,-1.1409,-2.9247,-0.1243,-2.9354,rough,14.0,0,4.874
3380,108.16,3.6401,4.5958,-1.1407,-2.9139,-0.1224,-2.9352,rough,14.0,0,4.897
3390,108.48,3.6721,4.5976,-1.1407,-2.8904,-0.1292,-2.9441,rough,14.0,0,4.928
3400,108.80,3.6988,4.5979,-1.1405,-2.8841,-0.1195,-2.9427,rough,14.0,0,4.955
3410,109.12,3.6908,4.5978,-1.1406,-2.8887,-0.1195,-2.9422,rough,14.0,0,4.947
3420,109.44,3.6601,4.5974,-1.1408,-2.9012,-0.1241,-2.9418,rough,14.0,0,4.916
3430,109.76,3.6390,4.5971,-1.1410,-2.9088,-0.1287,-2.9420,rough,14.0,0,4.896
3440,110.08,3.6314,4.5969,-1.1411,-2.9184,-0.1219,-2.9398,rough,14.0,0,4.888
3450,110.40,3.6309,4.5970,-1.1411,-2.9133,-0.1287,-2.9410,rough,14.0,0,4.888
3460,110.72,3.6418,4.5971,-1.1410,-2.9117,-0.1235,-2.9398,rough,14.0,0,4.898
3470,111.04,3.6622,4.5976,-1.1408,-2.8964,-0.1290,-2.9416,rough,14.0,0,4.919
3480,111.36,3.6960,4.5980,-1.1406,-2.8883,-0.1169,-2.9396,rough,14.0,0,4.952
3490,111.68,3.7120,4.5992,-1.1407,-2.8898,-0.1038,-2.9438,rough,14.0,0,4.967
3500,112.00,3.6973,4.5992,-1.1408,-2.8874,-0.1161,-2.9462,rough,14.0,0,4.953
3510,112.32,3.6566,4.5986,-1.1412,-2.9056,-0.1203,-2.9454,rough,14.0,0,4.913
3520,112.64,3.6205,4.5981,-1.1415,-2.9228,-0.1230,-2.9447,rough,14.0,0,4.877
3530,112.96,3.5973,4.5985,-1.1416,-2.9363,-0.1210,-2.9392,rough,14.0,0,4.854
3540,113.28,3.6031,4.6006,-1.1425,-2.9273,-0.1145,-3.0006,rough,14.0,0,4.860
3550,113.60,3.6281,4.6008,-1.1419,-2.9221,-0.1204,-2.9389,rough,14.0,0,4.884
3560,113.92,3.6596,4.6016,-1.1416,-2.8997,-0.1275,-2.9412,rough,14.0,0,4.915
3570,114.24,3.7036,4.6030,-1.1422,-2.8900,-0.0971,-3.0033,rough,14.0,0,4.958
3580,114.56,3.7323,4.6053,-1.1415,-2.8874,-0.0919,-2.9465,rough,14.0,0,4.986
3590,114.88,3.7131,4.6068,-1.1423,-2.8883,-0.1036,-2.9566,rough,14.0,0,4.967
3600,115.20,3.6658,4.6063,-1.1427,-2.9021,-0.1176,-2.9582,rough,14.0,0,4.921
3610,115.52,3.6186,4.6054,-1.1432,-2.9283,-0.1163,-2.9564,rough,14.0,0,4.874
3620,115.84,3.5918,4.6061,-1.1432,-2.9423,-0.1161,-2.9497,rough,14.0,0,4.848
3630,116.16,3.6110,4.6074,-1.1435,-2.9345,-0.1166,-2.9438,rough,14.0,0,4.866
3640,116.48,3.6361,4.6080,-1.1433,-2.9153,-0.1242,-2.9458,rough,14.0,0,4.891
3650,116.80,3.6725,4.6085,-1.1430,-2.9011,-0.1178,-2.9451,rough,14.0,0,4.927
3660,117.12,3.7110,4.6091,-1.1426,-2.8856,-0.1117,-2.9447,rough,14.0,0,4.965
3670,117.44,3.7244,4.6103,-1.1429,-2.8863,-0.1010,-2.9498,rough,14.0,0,4.978
3680,117.76,3.7085,4.6102,-1.1430,-2.8888,-0.1084,-2.9510,rough,14.0,0,4.962
3690,118.08,3.6654,4.6097,-1.1433,-2.9047,-0.1170,-2.9512,rough,14.0,0,4.920
3700,118.40,3.6229,4.6089,-1.1437,-2.9285,-0.1156,-2.9495,rough,14.0,0,4.878
3710,118.72,3.5944,4.6093,-1.1440,-2.9437,-0.1156,-2.9443,rough,14.0,0,4.850
3720,119.04,3.6077,4.6106,-1.1441,-2.9383,-0.1160,-2.9381,rough,14.0,0,4.863
3730,119.36,3.6285,4.6111,-1.1439,-2.9216,-0.1235,-2.9398,rough,14.0,0,4.883
3740,119.68,3.6559,4.6126,-1.1440,-2.9065,-0.1228,-2.9467,rough,14.0,0,4.910
3750,120.00,3.6927,4.6132,-1.1437,-2.8920,-0.1165,-2.9464,rough,14.0,0,4.946
3760,120.32,3.7218,4.6145,-1.1438,-2.8898,-0.0995,-2.9504,rough,14.0,0,4.974
3770,120.64,3.7270,4.6146,-1.1437,-2.8914,-0.0942,-2.9493,rough,14.0,0,4.979
3780,120.96,3.6992,4.6146,-1.1439,-2.8888,-0.1153,-2.9534,rough,14.0,0,4.952
3790,121.28,3.6637,4.6140,-1.1442,-2.9065,-0.1169,-2.9522,rough,14.0,0,4.917
3800,121.60,3.6398,4.6136,-1.1445,-2.9214,-0.1142,-2.9507,rough,14.0,0,4.894
3810,121.92,3.6230,4.6134,-1.1446,-2.9244,-0.1216,-2.9516,rough,14.0,0,4.877
3820,122.24,3.6130,4.6133,-1.1447,-2.9300,-0.1213,-2.9511,rough,14.0,0,4.867
3830,122.56,3.6074,4.6132,-1.1448,-2.9330,-0.1213,-2.9507,rough,14.0,0,4.862
3840,122.88,3.6063,4.6136,-1.1449,-2.9401,-0.1140,-2.9458,rough,14.0,0,4.861
3850,123.20,3.6025,4.6149,-1.1451,-2.9437,-0.1141,-2.9379,rough,14.0,0,4.857
3860,123.52,3.6036,4.6166,-1.1453,-2.9434,-0.1133,-2.9388,rough,14.0,0,4.858
3870,123.84,3.6059,4.6177,-1.1470,-2.9671,-0.0898,-2.9365,slope,18.0,0,4.860
3880,124.16,3.6126,4.6270,-1.1475,-2.9431,-0.1095,-2.9461,rough,14.0,0,4.865
3890,124.48,3.6316,4.6274,-1.1473,-2.9331,-0.1094,-2.9458,rough,14.0,0,4.883
3900,124.80,3.6550,4.6280,-1.1471,-2.9143,-0.1173,-2.9477,rough,14.0,0,4.906
3910,125.12,3.6901,4.6285,-1.1468,-2.9007,-0.1109,-2.9470,rough,14.0,0,4.941
3920,125.44,3.7273,4.6314,-1.1471,-2.8866,-0.1012,-2.9612,rough,14.0,0,4.977
3930,125.76,3.7352,4.6314,-1.1470,-2.8908,-0.0913,-2.9587,rough,14.0,0,4.985
3940,126.08,3.7146,4.6313,-1.1472,-2.8922,-0.1032,-2.9607,rough,14.0,0,4.964
3950,126.40,3.6907,4.6310,-1.1474,-2.9014,-0.1075,-2.9607,rough,14.0,0,4.941
3960,126.72,3.6673,4.6307,-1.1476,-2.9111,-0.1108,-2.9605,rough,14.0,0,4.918
3970,127.04,3.6533,4.6304,-1.1477,-2.9202,-0.1089,-2.9594,rough,14.0,0,4.904
3980,127.36,3.6469,4.6303,-1.1478,-2.9243,-0.1080,-2.9588,rough,14.0,0,4.898
3990,127.68,3.6463,4.6303,-1.1478,-2.9247,-0.1079,-2.9585,rough,14.0,0,4.897
4000,128.00,3.6515,4.6304,-1.1478,-2.9220,-0.1079,-2.9583,rough,14.0,0,4.902
4010,128.32,3.6638,4.6308,-1.1476,-2.9093,-0.1156,-2.9601,rough,14.0,0,4.914
4020,128.64,3.6869,4.6312,-1.1474,-2.9010,-0.1108,-2.9594,rough,14.0,0,4.937
4030,128.96,3.7137,4.6315,-1.1472,-2.8933,-0.1027,-2.9581,rough,14.0,0,4.963
4040,129.28,3.7201,4.6316,-1.1472,-2.8922,-0.1002,-2.9574,rough,14.0,0,4.970
4050,129.60,3.7051,4.6314,-1.1473,-2.8962,-0.1050,-2.9578,rough,14.0,0,4.955
4060,129.92,3.6842,4.6312,-1.1475,-2.9042,-0.1089,-2.9578,rough,14.0,0,4.934
4070,130.24,3.6681,4.6309,-1.1476,-2.9137,-0.1078,-2.9568,rough,14.0,0,4.919
4080,130.56,3.6604,4.6310,-1.1477,-2.9116,-0.1156,-2.9581,rough,14.0,0,4.911
4090,130.88,3.6633,4.6309,-1.1477,-2.9140,-0.1108,-2.9568,rough,14.0,0,4.914
4100,131.20,3.6745,4.6311,-1.1476,-2.9094,-0.1090,-2.9564,rough,14.0,0,4.925
4110,131.52,3.6947,4.6315,-1.1474,-2.8999,-0.1076,-2.9564,rough,14.0,0,4.945
4120,131.84,3.7130,4.6317,-1.1473,-2.8939,-0.1030,-2.9556,rough,14.0,0,4.963
4130,132.16,3.7135,4.6318,-1.1472,-2.8907,-0.1067,-2.9564,rough,14.0,0,4.963
4140,132.48,3.7019,4.6316,-1.1474,-2.8978,-0.1057,-2.9554,rough,14.0,0,4.952
4150,132.80,3.6830,4.6314,-1.1475,-2.9049,-0.1094,-2.9554,rough,14.0,0,4.933
4160,133.12,3.6687,4.6311,-1.1476,-2.9137,-0.1079,-2.9544,rough,14.0,0,4.919
4170,133.44,3.6628,4.6312,-1.1477,-2.9107,-0.1156,-2.9558,rough,14.0,0,4.913
4180,133.76,3.6678,4.6312,-1.1477,-2.9120,-0.1109,-2.9545,rough,14.0,0,4.918
4190,134.08,3.6813,4.6315,-1.1475,-2.9063,-0.1090,-2.9542,rough,14.0,0,4.931
4200,134.40,3.6965,4.6317,-1.1474,-2.9001,-0.1067,-2.9538,rough,14.0,0,4.946
4210,134.72,3.7070,4.6319,-1.1473,-2.8964,-0.1044,-2.9533,rough,14.0,0,4.957
4220,135.04,3.7097,4.6319,-1.1473,-2.8955,-0.1039,-2.9530,rough,14.0,0,4.959
4230,135.36,3.7031,4.6319,-1.1474,-2.8979,-0.1053,-2.9529,rough,14.0,0,4.953
4240,135.68,3.6916,4.6317,-1.1475,-2.9021,-0.1077,-2.9528,rough,14.0,0,4.942
4250,136.00,3.6775,4.6317,-1.1476,-2.9028,-0.1161,-2.9542,rough,14.0,0,4.928
4260,136.32,3.6755,4.6315,-1.1476,-2.9095,-0.1094,-2.9522,rough,14.0,0,4.926
4270,136.64,3.6818,4.6318,-1.1475,-2.9004,-0.1164,-2.9538,rough,14.0,0,4.932
4280,136.96,3.6985,4.6319,-1.1474,-2.8993,-0.1069,-2.9517,rough,14.0,0,4.948
4290,137.28,3.7106,4.6321,-1.1473,-2.8953,-0.1039,-2.9512,rough,14.0,0,4.960
4300,137.60,3.7090,4.6321,-1.1473,-2.8960,-0.1043,-2.9509,rough,14.0,0,4.959
4310,137.92,3.6969,4.6320,-1.1474,-2.9004,-0.1068,-2.9509,rough,14.0,0,4.947
4320,138.24,3.6817,4.6318,-1.1476,-2.9071,-0.1086,-2.9505,rough,14.0,0,4.932
4330,138.56,3.6747,4.6317,-1.1476,-2.9086,-0.1115,-2.9508,rough,14.0,0,4.925
4340,138.88,3.6788,4.6318,-1.1476,-2.9083,-0.1091,-2.9500,rough,14.0,0,4.929
4350,139.20,3.6933,4.6320,-1.1475,-2.9016,-0.1079,-2.9499,rough,14.0,0,4.943
4360,139.52,3.7058,4.6322,-1.1474,-2.8973,-0.1051,-2.9494,rough,14.0,0,4.956
4370,139.84,3.7119,4.6323,-1.1473,-2.8951,-0.1039,-2.9490,rough,14.0,0,4.962
4380,140.16,3.7041,4.6322,-1.1474,-2.8980,-0.1055,-2.9489,rough,14.0,0,4.954
4390,140.48,3.6909,4.6321,-1.1475,-2.9028,-0.1084,-2.9488,rough,14.0,0,4.941
4400,140.80,3.6784,4.6319,-1.1476,-2.9071,-0.1113,-2.9489,rough,14.0,0,4.929
4410,141.12,3.6769,4.6320,-1.1476,-2.9037,-0.1166,-2.9499,rough,14.0,0,4.927
4420,141.44,3.6895,4.6322,-1.1475,-2.9020,-0.1105,-2.9485,rough,14.0,0,4.940
4430,141.76,3.7042,4.6324,-1.1474,-2.8979,-0.1058,-2.9475,rough,14.0,0,4.954
4440,142.08,3.7113,4.6337,-1.1477,-2.8952,-0.1031,-2.9550,rough,14.0,0,4.961
4450,142.40,3.7028,4.6336,-1.1477,-2.8987,-0.1045,-2.9549,rough,14.0,0,4.952
4460,142.72,3.6887,4.6335,-1.1479,-2.9038,-0.1075,-2.9550,rough,14.0,0,4.938
4470,143.04,3.6753,4.6333,-1.1480,-2.9087,-0.1104,-2.9550,rough,14.0,0,4.925
4480,143.36,3.6715,4.6332,-1.1480,-2.9125,-0.1083,-2.9541,rough,14.0,0,4.922
4490,143.68,3.6766,4.6333,-1.1480,-2.9106,-0.1072,-2.9537,rough,14.0,0,4.927
4500,144.00,3.6903,4.6336,-1.1479,-2.9032,-0.1074,-2.9539,rough,14.0,0,4.940
4510,144.32,3.7027,4.6338,-1.1478,-2.8989,-0.1046,-2.9533,rough,14.0,0,4.952
4520,144.64,3.7100,4.6339,-1.1477,-2.8963,-0.1031,-2.9529,rough,14.0,0,4.959
4530,144.96,3.7121,4.6340,-1.1477,-2.8956,-0.1027,-2.9527,rough,14.0,0,4.961
4540,145.28,3.7061,4.6339,-1.1477,-2.8978,-0.1040,-2.9525,rough,14.0,0,4.956
4550,145.60,3.6951,4.6338,-1.1478,-2.9018,-0.1064,-2.9524,rough,14.0,0,4.945
4560,145.92,3.6809,4.6336,-1.1479,-2.9081,-0.1079,-2.9521,rough,14.0,0,4.931
4570,146.24,3.6747,4.6336,-1.1480,-2.9092,-0.1108,-2.9524,rough,14.0,0,4.925
4580,146.56,3.6795,4.6336,-1.1480,-2.9086,-0.1084,-2.9516,rough,14.0,0,4.929
4590,146.88,3.6945,4.6339,-1.1478,-2.9016,-0.1073,-2.9515,rough,14.0,0,4.944
4600,147.20,3.7072,4.6341,-1.1477,-2.8975,-0.1040,-2.9509,rough,14.0,0,4.957
4610,147.52,3.7135,4.6342,-1.1477,-2.8953,-0.1027,-2.9505,rough,14.0,0,4.963
4620,147.84,3.7060,4.6341,-1.1477,-2.8981,-0.1043,-2.9504,rough,14.0,0,4.955
4630,148.16,3.6931,4.6339,-1.1479,-2.9027,-0.1070,-2.9503,rough,14.0,0,4.943
4640,148.48,3.6777,4.6339,-1.1480,-2.9041,-0.1156,-2.9517,rough,14.0,0,4.928
4650,148.80,3.6744,4.6337,-1.1480,-2.9114,-0.1088,-2.9497,rough,14.0,0,4.924
4660,149.12,3.6794,4.6339,-1.1480,-2.9031,-0.1158,-2.9512,rough,14.0,0,4.929
4670,149.44,3.6951,4.6341,-1.1478,-2.9020,-0.1069,-2.9492,rough,14.0,0,4.945
4680,149.76,3.7066,4.6343,-1.1478,-2.8980,-0.1043,-2.9487,rough,14.0,0,4.956
4690,150.08,3.7131,4.6344,-1.1477,-2.8957,-0.1030,-2.9483,rough,14.0,0,4.962
4700,150.40,3.7121,4.6344,-1.1477,-2.8961,-0.1032,-2.9481,rough,14.0,0,4.961
4710,150.72,3.7052,4.6343,-1.1478,-2.8986,-0.1047,-2.9480,rough,14.0,0,4.955
4720,151.04,3.6931,4.6342,-1.1479,-2.9030,-0.1073,-2.9479,rough,14.0,0,4.943
4730,151.36,3.6786,4.6341,-1.1480,-2.9040,-0.1157,-2.9492,rough,14.0,0,4.928
4740,151.68,3.6761,4.6339,-1.1480,-2.9109,-0.1089,-2.9472,rough,14.0,0,4.926
4750,152.00,3.6853,4.6342,-1.1479,-2.9043,-0.1111,-2.9478,rough,14.0,0,4.935
4760,152.32,3.7012,4.6356,-1.1482,-2.9001,-0.1044,-2.9543,rough,14.0,0,4.950
4770,152.64,3.7120,4.6358,-1.1481,-2.8964,-0.1019,-2.9541,rough,14.0,0,4.961
4780,152.96,3.7124,4.6358,-1.1481,-2.8963,-0.1018,-2.9539,rough,14.0,0,4.961
4790,153.28,3.7026,4.6357,-1.1481,-2.8998,-0.1039,-2.9538,rough,14.0,0,4.952
4800,153.60,3.6878,4.6355,-1.1483,-2.9052,-0.1071,-2.9538,rough,14.0,0,4.937
4810,153.92,3.6750,4.6353,-1.1484,-2.9116,-0.1077,-2.9533,rough,14.0,0,4.925
4820,154.24,3.6715,4.6353,-1.1484,-2.9144,-0.1066,-2.9527,rough,14.0,0,4.921
4830,154.56,3.6782,4.6355,-1.1484,-2.9081,-0.1101,-2.9534,rough,14.0,0,4.928
4840,154.88,3.6946,4.6358,-1.1482,-2.9016,-0.1075,-2.9530,rough,14.0,0,4.944
4850,155.20,3.7121,4.6360,-1.1481,-2.8964,-0.1022,-2.9520,rough,14.0,0,4.961
4860,155.52,3.7187,4.6361,-1.1480,-2.8942,-0.1008,-2.9516,rough,14.0,0,4.968
4870,155.84,3.7065,4.6359,-1.1481,-2.8987,-0.1033,-2.9516,rough,14.0,0,4.956
4880,156.16,3.6880,4.6357,-1.1483,-2.9054,-0.1073,-2.9517,rough,14.0,0,4.937
4890,156.48,3.6718,4.6355,-1.1484,-2.9136,-0.1078,-2.9511,rough,14.0,0,4.921
4900,156.80,3.6646,4.6354,-1.1485,-2.9184,-0.1067,-2.9503,rough,14.0,0,4.914
4910,157.12,3.6654,4.6355,-1.1485,-2.9118,-0.1144,-2.9519,rough,14.0,0,4.915
4920,157.44,3.6785,4.6357,-1.1484,-2.9100,-0.1081,-2.9504,rough,14.0,0,4.928
4930,157.76,3.7000,4.6360,-1.1482,-2.9000,-0.1063,-2.9504,rough,14.0,0,4.949
4940,158.08,3.7195,4.6363,-1.1480,-2.8940,-0.1010,-2.9495,rough,14.0,0,4.968
4950,158.40,3.7205,4.6365,-1.1480,-2.8869,-0.1092,-2.9514,rough,14.0,0,4.969
4960,158.72,3.7133,4.6363,-1.1481,-2.8951,-0.1039,-2.9495,rough,14.0,0,4.962
4970,159.04,3.6951,4.6361,-1.1482,-2.9029,-0.1063,-2.9491,rough,14.0,0,4.944
4980,159.36,3.6763,4.6358,-1.1484,-2.9103,-0.1097,-2.9491,rough,14.0,0,4.926
4990,159.68,3.6688,4.6357,-1.1485,-2.9165,-0.1069,-2.9480,rough,14.0,0,4.918
5000,160.00,3.6710,4.6358,-1.1485,-2.9127,-0.1103,-2.9485,rough,14.0,0,4.921
5010,160.32,3.6838,4.6360,-1.1483,-2.9078,-0.1079,-2.9480,rough,14.0,0,4.933
5020,160.64,3.6993,4.6362,-1.1482,-2.9017,-0.1053,-2.9476,rough,14.0,0,4.948
5030,160.96,3.7107,4.6377,-1.1485,-2.8977,-0.1013,-2.9551,rough,14.0,0,4.959
5040,161.28,3.7162,4.6378,-1.1484,-2.8957,-0.1002,-2.9548,rough,14.0,0,4.965
5050,161.60,3.7106,4.6377,-1.1485,-2.8978,-0.1014,-2.9546,rough,14.0,0,4.959
5060,161.92,3.6996,4.6376,-1.1486,-2.9018,-0.1038,-2.9546,rough,14.0,0,4.949
5070,162.24,3.6838,4.6374,-1.1487,-2.9075,-0.1072,-2.9546,rough,14.0,0,4.933
5080,162.56,3.6724,4.6372,-1.1488,-2.9147,-0.1059,-2.9537,rough,14.0,0,4.922
5090,162.88,3.6693,4.6373,-1.1488,-2.9102,-0.1136,-2.9552,rough,14.0,0,4.919
5100,163.20,3.6771,4.6374,-1.1488,-2.9099,-0.1088,-2.9540,rough,14.0,0,4.926
5110,163.52,3.6952,4.6377,-1.1486,-2.9026,-0.1060,-2.9536,rough,14.0,0,4.944
5120,163.84,3.7128,4.6379,-1.1485,-2.8971,-0.1013,-2.9527,rough,14.0,0,4.961
5130,164.16,3.7194,4.6380,-1.1484,-2.8948,-0.0998,-2.9523,rough,14.0,0,4.968
5140,164.48,3.7072,4.6379,-1.1485,-2.8993,-0.1024,-2.9523,rough,14.0,0,4.956
5150,164.80,3.6888,4.6377,-1.1487,-2.9060,-0.1064,-2.9524,rough,14.0,0,4.938
5160,165.12,3.6725,4.6374,-1.1488,-2.9141,-0.1071,-2.9518,rough,14.0,0,4.922
5170,165.44,3.6653,4.6373,-1.1489,-2.9188,-0.1060,-2.9511,rough,14.0,0,4.915
5180,165.76,3.6660,4.6375,-1.1489,-2.9123,-0.1137,-2.9526,rough,14.0,0,4.915
5190,166.08,3.6774,4.6376,-1.1488,-2.9102,-0.1089,-2.9515,rough,14.0,0,4.927
5200,166.40,3.6989,4.6380,-1.1486,-2.9012,-0.1059,-2.9512,rough,14.0,0,4.948
5210,166.72,3.7193,4.6382,-1.1484,-2.8950,-0.1002,-2.9502,rough,14.0,0,4.968
5220,167.04,3.7223,4.6384,-1.1484,-2.8886,-0.1062,-2.9516,rough,14.0,0,4.971
5230,167.36,3.7150,4.6382,-1.1485,-2.8956,-0.1025,-2.9501,rough,14.0,0,4.964
5240,167.68,3.6963,4.6380,-1.1486,-2.9034,-0.1052,-2.9499,rough,14.0,0,4.945
5250,168.00,3.6740,4.6378,-1.1488,-2.9080,-0.1142,-2.9511,rough,14.0,0,4.923
5260,168.32,3.6618,4.6375,-1.1489,-2.9189,-0.1090,-2.9492,rough,14.0,0,4.911
5270,168.64,3.6574,4.6374,-1.1490,-2.9226,-0.1072,-2.9484,rough,14.0,0,4.907
5280,168.96,3.6607,4.6375,-1.1489,-2.9217,-0.1062,-2.9480,rough,14.0,0,4.910
5290,169.28,3.6716,4.6379,-1.1488,-2.9098,-0.1139,-2.9497,rough,14.0,0,4.921
5300,169.60,3.6949,4.6382,-1.1486,-2.9023,-0.1078,-2.9487,rough,14.0,0,4.944
5310,169.92,3.7182,4.6398,-1.1489,-2.8957,-0.0989,-2.9560,rough,14.0,0,4.967
5320,170.24,3.7226,4.6400,-1.1488,-2.8892,-0.1044,-2.9574,rough,14.0,0,4.971
5330,170.56,3.7177,4.6399,-1.1488,-2.8940,-0.1017,-2.9563,rough,14.0,0,4.966
5340,170.88,3.7011,4.6397,-1.1490,-2.9019,-0.1029,-2.9557,rough,14.0,0,4.950
5350,171.20,3.6801,4.6394,-1.1492,-2.9111,-0.1053,-2.9554,rough,14.0,0,4.929
5360,171.52,3.6650,4.6393,-1.1493,-2.9133,-0.1128,-2.9565,rough,14.0,0,4.914
5370,171.84,3.6603,4.6391,-1.1493,-2.9197,-0.1080,-2.9550,rough,14.0,0,4.909
5380,172.16,3.6633,4.6392,-1.1493,-2.9195,-0.1063,-2.9544,rough,14.0,0,4.912
5390,172.48,3.6742,4.6394,-1.1492,-2.9146,-0.1052,-2.9541,rough,14.0,0,4.923
5400,172.80,3.6933,4.6397,-1.1491,-2.9051,-0.1045,-2.9542,rough,14.0,0,4.942
5410,173.12,3.7098,4.6400,-1.1489,-2.8992,-0.1009,-2.9536,rough,14.0,0,4.958
5420,173.44,3.7199,4.6401,-1.1488,-2.8956,-0.0989,-2.9531,rough,14.0,0,4.968
5430,173.76,3.7136,4.6401,-1.1489,-2.8979,-0.1002,-2.9530,rough,14.0,0,4.962
5440,174.08,3.7009,4.6399,-1.1490,-2.9025,-0.1029,-2.9530,rough,14.0,0,4.949
5450,174.40,3.6834,4.6397,-1.1491,-2.9089,-0.1067,-2.9531,rough,14.0,0,4.932
5460,174.72,3.6703,4.6395,-1.1493,-2.9170,-0.1053,-2.9521,rough,14.0,0,4.919
5470,175.04,3.6652,4.6396,-1.1493,-2.9136,-0.1129,-2.9535,rough,14.0,0,4.914
5480,175.36,3.6707,4.6396,-1.1493,-2.9146,-0.1082,-2.9522,rough,14.0,0,4.920
5490,175.68,3.6846,4.6398,-1.1491,-2.9087,-0.1063,-2.9519,rough,14.0,0,4.933
5500,176.00,3.7006,4.6401,-1.1490,-2.9027,-0.1032,-2.9513,rough,14.0,0,4.949
5510,176.32,3.7119,4.6402,-1.1489,-2.8988,-0.1008,-2.9508,rough,14.0,0,4.960
5520,176.64,3.7182,4.6404,-1.1489,-2.8965,-0.0995,-2.9505,rough,14.0,0,4.966
5530,176.96,3.7185,4.6404,-1.1489,-2.8964,-0.0995,-2.9502,rough,14.0,0,4.967
5540,177.28,3.7114,4.6403,-1.1489,-2.8990,-0.1010,-2.9501,rough,14.0,0,4.960
5550,177.60,3.6993,4.6402,-1.1490,-2.9034,-0.1036,-2.9500,rough,14.0,0,4.948
5560,177.92,3.6830,4.6399,-1.1492,-2.9105,-0.1056,-2.9497,rough,14.0,0,4.932
5570,178.24,3.6742,4.6399,-1.1492,-2.9128,-0.1087,-2.9500,rough,14.0,0,4.923
5580,178.56,3.6761,4.6399,-1.1492,-2.9137,-0.1064,-2.9492,rough,14.0,0,4.925
5590,178.88,3.6877,4.6401,-1.1491,-2.9079,-0.1060,-2.9491,rough,14.0,0,4.936
5600,179.20,3.6975,4.6403,-1.1491,-2.9042,-0.1041,-2.9487,rough,14.0,0,4.946
5610,179.52,3.7017,4.6417,-1.1494,-2.9029,-0.1013,-2.9567,rough,14.0,0,4.950
5620,179.84,3.6988,4.6417,-1.1494,-2.9039,-0.1022,-2.9568,rough,14.0,0,4.947
5630,180.16,3.6907,4.6416,-1.1495,-2.9068,-0.1040,-2.9567,rough,14.0,0,4.939
5640,180.48,3.6796,4.6416,-1.1496,-2.9061,-0.1123,-2.9581,rough,14.0,0,4.928
5650,180.80,3.6783,4.6415,-1.1496,-2.9109,-0.1072,-2.9566,rough,14.0,0,4.927
5660,181.12,3.6853,4.6416,-1.1495,-2.9087,-0.1054,-2.9561,rough,14.0,0,4.934
5670,181.44,3.6950,4.6418,-1.1495,-2.9054,-0.1032,-2.9555,rough,14.0,0,4.943
5680,181.76,3.7000,4.6419,-1.1494,-2.9036,-0.1021,-2.9551,rough,14.0,0,4.948
5690,182.08,3.6998,4.6419,-1.1494,-2.9037,-0.1022,-2.9549,rough,14.0,0,4.948
5700,182.40,3.6944,4.6418,-1.1495,-2.9057,-0.1034,-2.9547,rough,14.0,0,4.943
5710,182.72,3.6846,4.6417,-1.1496,-2.9093,-0.1055,-2.9547,rough,14.0,0,4.933
5720,183.04,3.6793,4.6416,-1.1496,-2.9130,-0.1044,-2.9540,rough,14.0,0,4.928
5730,183.36,3.6822,4.6419,-1.1496,-2.9052,-0.1122,-2.9557,rough,14.0,0,4.931
5740,183.68,3.6940,4.6419,-1.1495,-2.9056,-0.1040,-2.9537,rough,14.0,0,4.942
5750,184.00,3.7017,4.6421,-1.1494,-2.9032,-0.1020,-2.9532,rough,14.0,0,4.950
5760,184.32,3.7042,4.6421,-1.1494,-2.9023,-0.1015,-2.9529,rough,14.0,0,4.952
5770,184.64,3.7015,4.6421,-1.1494,-2.9033,-0.1021,-2.9527,rough,14.0,0,4.950
5780,184.96,3.6936,4.6420,-1.1495,-2.9062,-0.1038,-2.9526,rough,14.0,0,4.942
5790,185.28,3.6822,4.6419,-1.1496,-2.9114,-0.1049,-2.9523,rough,14.0,0,4.931
5800,185.60,3.6767,4.6419,-1.1496,-2.9085,-0.1123,-2.9536,rough,14.0,0,4.925
5810,185.92,3.6840,4.6420,-1.1496,-2.9098,-0.1059,-2.9520,rough,14.0,0,4.932
5820,186.24,3.6936,4.6421,-1.1495,-2.9064,-0.1039,-2.9515,rough,14.0,0,4.942
5830,186.56,3.6987,4.6422,-1.1495,-2.9045,-0.1029,-2.9511,rough,14.0,0,4.947
5840,186.88,3.6986,4.6422,-1.1495,-2.9046,-0.1029,-2.9508,rough,14.0,0,4.947
5850,187.20,3.6933,4.6422,-1.1495,-2.9065,-0.1041,-2.9507,rough,14.0,0,4.942
5860,187.52,3.6844,4.6421,-1.1496,-2.9107,-0.1049,-2.9503,rough,14.0,0,4.933
5870,187.84,3.6829,4.6421,-1.1496,-2.9090,-0.1080,-2.9508,rough,14.0,0,4.931
5880,188.16,3.6878,4.6422,-1.1496,-2.9086,-0.1053,-2.9499,rough,14.0,0,4.936
5890,188.48,3.6920,4.6423,-1.1495,-2.9071,-0.1045,-2.9496,rough,14.0,0,4.940
5900,188.80,3.6931,4.6423,-1.1495,-2.9067,-0.1043,-2.9493,rough,14.0,0,4.941
5910,189.12,3.6895,4.6423,-1.1495,-2.9080,-0.1051,-2.9491,rough,14.0,0,4.938
5920,189.44,3.6864,4.6422,-1.1496,-2.9092,-0.1058,-2.9489,rough,14.0,0,4.935
5930,189.76,3.6881,4.6423,-1.1496,-2.9080,-0.1063,-2.9488,rough,14.0,0,4.936
5940,190.08,3.6918,4.6438,-1.1502,-2.9075,-0.1010,-2.9564,rough,14.0,0,4.940
5950,190.40,3.6840,4.6440,-1.1507,-2.9104,-0.1003,-2.9578,rough,14.0,0,4.932
5960,190.72,3.6708,4.6442,-1.1509,-2.9124,-0.1064,-2.9603,rough,14.0,0,4.919
5970,191.04,3.6610,4.6442,-1.1511,-2.9233,-0.0992,-2.9598,rough,14.0,0,4.909
5980,191.36,3.6512,4.6444,-1.1512,-2.9268,-0.1014,-2.9616,rough,14.0,0,4.900
5990,191.68,3.6409,4.6447,-1.1514,-2.9284,-0.1061,-2.9639,rough,14.0,0,4.889
6000,192.00,3.6302,4.6448,-1.1513,-2.9381,-0.1023,-2.9644,rough,14.0,0,4.879
6010,192.32,3.6270,4.6449,-1.1509,-2.9374,-0.1077,-2.9647,rough,14.0,0,4.876
6020,192.64,3.6392,4.6451,-1.1508,-2.9339,-0.1042,-2.9641,rough,14.0,0,4.888
6030,192.96,3.6657,4.6458,-1.1506,-2.9167,-0.1080,-2.9660,rough,14.0,0,4.914
6040,193.28,3.7080,4.6468,-1.1503,-2.9015,-0.0985,-2.9665,rough,14.0,0,4.955
6050,193.60,3.7413,4.6475,-1.1502,-2.8926,-0.0877,-2.9663,rough,14.0,0,4.988
6060,193.92,3.7571,4.6478,-1.1501,-2.8938,-0.0761,-2.9650,rough,14.0,0,5.004
6070,194.24,3.7614,4.6479,-1.1501,-2.8939,-0.0731,-2.9643,rough,14.0,0,5.008
6080,194.56,3.7555,4.6479,-1.1501,-2.8938,-0.0772,-2.9648,rough,14.0,0,5.002
6090,194.88,3.7394,4.6478,-1.1502,-2.8935,-0.0883,-2.9665,rough,14.0,0,4.986
6100,195.20,3.7201,4.6476,-1.1503,-2.8984,-0.0949,-2.9668,rough,14.0,0,4.967
6110,195.52,3.7108,4.6476,-1.1504,-2.8957,-0.1044,-2.9684,rough,14.0,0,4.958
6120,195.84,3.7133,4.6476,-1.1504,-2.8985,-0.0993,-2.9671,rough,14.0,0,4.960
6130,196.16,3.7247,4.6478,-1.1503,-2.8959,-0.0950,-2.9667,rough,14.0,0,4.972
6140,196.48,3.7313,4.6480,-1.1503,-2.8930,-0.0944,-2.9668,rough,14.0,0,4.978
6150,196.80,3.7404,4.6481,-1.1503,-2.8934,-0.0880,-2.9656,rough,14.0,0,4.987
6160,197.12,3.7402,4.6482,-1.1503,-2.8935,-0.0882,-2.9655,rough,14.0,0,4.987
6170,197.44,3.7333,4.6482,-1.1503,-2.8933,-0.0930,-2.9661,rough,14.0,0,4.980
6180,197.76,3.7380,4.6483,-1.1503,-2.8934,-0.0899,-2.9655,rough,14.0,0,4.985
6190,198.08,3.7385,4.6484,-1.1503,-2.8934,-0.0896,-2.9653,rough,14.0,0,4.985
6200,198.40,3.7322,4.6484,-1.1504,-2.8933,-0.0940,-2.9658,rough,14.0,0,4.979
6210,198.72,3.7375,4.6485,-1.1503,-2.8934,-0.0904,-2.9651,rough,14.0,0,4.984
6220,199.04,3.7385,4.6486,-1.1503,-2.8934,-0.0898,-2.9649,rough,14.0,0,4.985
6230,199.36,3.7328,4.6486,-1.1504,-2.8933,-0.0937,-2.9654,rough,14.0,0,4.979
6240,199.68,3.7386,4.6487,-1.1504,-2.8934,-0.0898,-2.9646,rough,14.0,0,4.985
6250,200.00,3.7402,4.6488,-1.1503,-2.8934,-0.0888,-2.9643,rough,14.0,0,4.987
6260,200.32,3.7349,4.6488,-1.1504,-2.8933,-0.0925,-2.9647,rough,14.0,0,4.981
6270,200.64,3.7392,4.6489,-1.1504,-2.8934,-0.0897,-2.9641,rough,14.0,0,4.986
6280,200.96,3.7363,4.6489,-1.1504,-2.8933,-0.0917,-2.9643,rough,14.0,0,4.983
6290,201.28,3.7380,4.6490,-1.1504,-2.8934,-0.0906,-2.9640,rough,14.0,0,4.985
6300,201.60,3.7357,4.6491,-1.1504,-2.8933,-0.0923,-2.9641,rough,14.0,0,4.982
6310,201.92,3.7379,4.6491,-1.1504,-2.8933,-0.0908,-2.9637,rough,14.0,0,4.984
6320,202.24,3.7360,4.6492,-1.1504,-2.8933,-0.0921,-2.9638,rough,14.0,0,4.983
6330,202.56,3.7387,4.6493,-1.1504,-2.8933,-0.0904,-2.9634,rough,14.0,0,4.985
6340,202.88,3.7373,4.6493,-1.1504,-2.8933,-0.0914,-2.9634,rough,14.0,0,4.984
6350,203.20,3.7383,4.6494,-1.1504,-2.8933,-0.0908,-2.9631,rough,14.0,0,4.985
6360,203.52,3.7385,4.6495,-1.1505,-2.8933,-0.0907,-2.9630,rough,14.0,0,4.985
6370,203.84,3.7379,4.6495,-1.1505,-2.8933,-0.0912,-2.9629,rough,14.0,0,4.984
6380,204.16,3.7376,4.6496,-1.1505,-2.8933,-0.0914,-2.9628,rough,14.0,0,4.984
6390,204.48,3.7424,4.6497,-1.1505,-2.8934,-0.0882,-2.9621,rough,14.0,0,4.989
6400,204.80,3.7371,4.6497,-1.1505,-2.8933,-0.0920,-2.9626,rough,14.0,0,4.984
6410,205.12,3.7377,4.6498,-1.1505,-2.8933,-0.0916,-2.9624,rough,14.0,0,4.984
6420,205.44,3.7432,4.6499,-1.1505,-2.8934,-0.0879,-2.9616,rough,14.0,0,4.990
6430,205.76,3.7387,4.6499,-1.1505,-2.8933,-0.0911,-2.9620,rough,14.0,0,4.985
6440,206.08,3.7349,4.6500,-1.1506,-2.8932,-0.0937,-2.9623,rough,14.0,0,4.981
6450,206.40,3.7434,4.6501,-1.1505,-2.8934,-0.0880,-2.9612,rough,14.0,0,4.990
6460,206.72,3.7447,4.6502,-1.1505,-2.8934,-0.0872,-2.9609,rough,14.0,0,4.991
6470,207.04,3.7370,4.6502,-1.1506,-2.8932,-0.0925,-2.9617,rough,14.0,0,4.983
6480,207.36,3.7394,4.6503,-1.1506,-2.8933,-0.0909,-2.9612,rough,14.0,0,4.986
6490,207.68,3.7419,4.6504,-1.1506,-2.8933,-0.0893,-2.9608,rough,14.0,0,4.988
6500,208.00,3.7375,4.6504,-1.1506,-2.8932,-0.0924,-2.9612,rough,14.0,0,4.984
6510,208.32,3.7427,4.6505,-1.1506,-2.8933,-0.0888,-2.9605,rough,14.0,0,4.989
6520,208.64,3.7408,4.6506,-1.1506,-2.8933,-0.0902,-2.9605,rough,14.0,0,4.987
6530,208.96,3.7395,4.6506,-1.1506,-2.8933,-0.0912,-2.9606,rough,14.0,0,4.986
6540,209.28,3.7435,4.6507,-1.1506,-2.8933,-0.0885,-2.9600,rough,14.0,0,4.990
6550,209.60,3.7384,4.6507,-1.1506,-2.8932,-0.0921,-2.9604,rough,14.0,0,4.985
6560,209.92,3.7422,4.6508,-1.1506,-2.8933,-0.0895,-2.9599,rough,14.0,0,4.988
6570,210.24,3.7420,4.6509,-1.1506,-2.8933,-0.0898,-2.9597,rough,14.0,0,4.988
6580,210.56,3.7381,4.6509,-1.1507,-2.8932,-0.0925,-2.9600,rough,14.0,0,4.984
6590,210.88,3.7428,4.6511,-1.1506,-2.8933,-0.0893,-2.9594,rough,14.0,0,4.989
6600,211.20,3.7395,4.6511,-1.1507,-2.8932,-0.0916,-2.9596,rough,14.0,0,4.986
6610,211.52,3.7429,4.6512,-1.1507,-2.8933,-0.0894,-2.9591,rough,14.0,0,4.989
6620,211.84,3.7393,4.6512,-1.1507,-2.8932,-0.0920,-2.9594,rough,14.0,0,4.985
6630,212.16,3.7415,4.6513,-1.1507,-2.8932,-0.0905,-2.9590,rough,14.0,0,4.988
6640,212.48,3.7437,4.6514,-1.1507,-2.8933,-0.0891,-2.9586,rough,14.0,0,4.990
6650,212.80,3.7391,4.6514,-1.1507,-2.8932,-0.0923,-2.9590,rough,14.0,0,4.985
6660,213.12,3.7443,4.6515,-1.1507,-2.8933,-0.0888,-2.9583,rough,14.0,0,4.990
6670,213.44,3.7424,4.6516,-1.1507,-2.8932,-0.0902,-2.9583,rough,14.0,0,4.988
6680,213.76,3.7411,4.6517,-1.1507,-2.8932,-0.0911,-2.9583,rough,14.0,0,4.987
6690,214.08,3.7452,4.6518,-1.1507,-2.8933,-0.0884,-2.9577,rough,14.0,0,4.991
6700,214.40,3.7403,4.6518,-1.1508,-2.8932,-0.0918,-2.9581,rough,14.0,0,4.986
6710,214.72,3.7443,4.6519,-1.1507,-2.8932,-0.0891,-2.9576,rough,14.0,0,4.990
6720,215.04,3.7444,4.6520,-1.1508,-2.8932,-0.0892,-2.9574,rough,14.0,0,4.990
6730,215.36,3.7408,4.6520,-1.1508,-2.8932,-0.0917,-2.9577,rough,14.0,0,4.987
6740,215.68,3.7459,4.6521,-1.1508,-2.8933,-0.0883,-2.9570,rough,14.0,0,4.992
6750,216.00,3.7418,4.6521,-1.1508,-2.8932,-0.0912,-2.9573,rough,14.0,0,4.988
6760,216.32,3.7437,4.6522,-1.1508,-2.8932,-0.0899,-2.9569,rough,14.0,0,4.990
6770,216.64,3.7458,4.6523,-1.1508,-2.8932,-0.0886,-2.9566,rough,14.0,0,4.992
6780,216.96,3.7410,4.6523,-1.1508,-2.8931,-0.0919,-2.9570,rough,14.0,0,4.987
6790,217.28,3.7462,4.6525,-1.1508,-2.8932,-0.0884,-2.9563,rough,14.0,0,4.992
6800,217.60,3.7442,4.6525,-1.1508,-2.8932,-0.0899,-2.9564,rough,14.0,0,4.990
6810,217.92,3.7429,4.6526,-1.1509,-2.8932,-0.0907,-2.9563,rough,14.0,0,4.989
6820,218.24,3.7471,4.6527,-1.1508,-2.8932,-0.0880,-2.9558,rough,14.0,0,4.993
6830,218.56,3.7423,4.6527,-1.1509,-2.8931,-0.0914,-2.9561,rough,14.0,0,4.988
6840,218.88,3.7445,4.6528,-1.1509,-2.8932,-0.0899,-2.9558,rough,14.0,0,4.990
6850,219.20,3.7429,4.6528,-1.1509,-2.8931,-0.0910,-2.9558,rough,14.0,0,4.989
6860,219.52,3.7439,4.6529,-1.1509,-2.8931,-0.0905,-2.9556,rough,14.0,0,4.990
6870,219.84,3.7444,4.6530,-1.1509,-2.8932,-0.0902,-2.9554,rough,14.0,0,4.990
6880,220.16,3.7442,4.6531,-1.1509,-2.8932,-0.0904,-2.9552,rough,14.0,0,4.990
6890,220.48,3.7453,4.6534,-1.1511,-2.8974,-0.0756,-3.0108,rough,14.0,0,4.991
6900,220.80,3.7432,4.6539,-1.1510,-2.8934,-0.0908,-2.9582,rough,14.0,0,4.989
6910,221.12,3.7457,4.6540,-1.1510,-2.8934,-0.0891,-2.9578,rough,14.0,0,4.991
6920,221.44,3.7442,4.6541,-1.1511,-2.8934,-0.0903,-2.9578,rough,14.0,0,4.990
6930,221.76,3.7433,4.6542,-1.1511,-2.8934,-0.0909,-2.9578,rough,14.0,0,4.989
6940,222.08,3.7478,4.6543,-1.1511,-2.8934,-0.0880,-2.9572,rough,14.0,0,4.993
6950,222.40,3.7432,4.6543,-1.1511,-2.8934,-0.0912,-2.9575,rough,14.0,0,4.989
6960,222.72,3.7455,4.6544,-1.1511,-2.8934,-0.0896,-2.9571,rough,14.0,0,4.991
6970,223.04,3.7441,4.6544,-1.1511,-2.8934,-0.0907,-2.9572,rough,14.0,0,4.990
6980,223.36,3.7451,4.6545,-1.1511,-2.8934,-0.0901,-2.9569,rough,14.0,0,4.991
6990,223.68,3.7455,4.6546,-1.1511,-2.8934,-0.0898,-2.9567,rough,14.0,0,4.991
7000,224.00,3.7453,4.6547,-1.1511,-2.8934,-0.0900,-2.9566,rough,14.0,0,4.991
7010,224.32,3.7455,4.6547,-1.1511,-2.8934,-0.0900,-2.9565,rough,14.0,0,4.991
7020,224.64,3.7441,4.6548,-1.1512,-2.8933,-0.0910,-2.9565,rough,14.0,0,4.990
7030,224.96,3.7462,4.6549,-1.1512,-2.8934,-0.0896,-2.9561,rough,14.0,0,4.992
7040,225.28,3.7457,4.6549,-1.1512,-2.8934,-0.0901,-2.9560,rough,14.0,0,4.991
7050,225.60,3.7455,4.6550,-1.1512,-2.8933,-0.0903,-2.9559,rough,14.0,0,4.991
7060,225.92,3.7458,4.6551,-1.1512,-2.8933,-0.0901,-2.9557,rough,14.0,0,4.991
7070,226.24,3.7456,4.6551,-1.1512,-2.8933,-0.0903,-2.9556,rough,14.0,0,4.991
7080,226.56,3.7468,4.6560,-1.1513,-2.8936,-0.0892,-2.9584,rough,14.0,0,4.992
7090,226.88,3.7465,4.6561,-1.1513,-2.8936,-0.0894,-2.9584,rough,14.0,0,4.992
7100,227.20,3.7455,4.6561,-1.1513,-2.8936,-0.0901,-2.9584,rough,14.0,0,4.991
7110,227.52,3.7470,4.6562,-1.1513,-2.8936,-0.0893,-2.9581,rough,14.0,0,4.992
7120,227.84,3.7467,4.6563,-1.1514,-2.8936,-0.0895,-2.9580,rough,14.0,0,4.992
7130,228.16,3.7469,4.6563,-1.1514,-2.8936,-0.0895,-2.9578,rough,14.0,0,4.992
7140,228.48,3.7453,4.6564,-1.1514,-2.8936,-0.0906,-2.9578,rough,14.0,0,4.990
7150,228.80,3.7472,4.6565,-1.1514,-2.8936,-0.0894,-2.9575,rough,14.0,0,4.992
7160,229.12,3.7464,4.6565,-1.1514,-2.8936,-0.0900,-2.9574,rough,14.0,0,4.992
7170,229.44,3.7500,4.6566,-1.1514,-2.8936,-0.0876,-2.9569,rough,14.0,0,4.995
7180,229.76,3.7445,4.6567,-1.1514,-2.8935,-0.0915,-2.9574,rough,14.0,0,4.990
7190,230.08,3.7490,4.6568,-1.1514,-2.8936,-0.0884,-2.9567,rough,14.0,0,4.994
7200,230.40,3.7545,4.6577,-1.1515,-2.8939,-0.0844,-2.9589,rough,14.0,0,4.999
7210,230.72,3.7489,4.6577,-1.1515,-2.8938,-0.0882,-2.9596,rough,14.0,0,4.994
7220,231.04,3.7442,4.6577,-1.1516,-2.8938,-0.0915,-2.9600,rough,14.0,0,4.989
7230,231.36,3.7521,4.6579,-1.1515,-2.8939,-0.0862,-2.9590,rough,14.0,0,4.997
7240,231.68,3.7527,4.6579,-1.1515,-2.8939,-0.0858,-2.9588,rough,14.0,0,4.998
7250,232.00,3.7443,4.6579,-1.1516,-2.8937,-0.0917,-2.9596,rough,14.0,0,4.989
7260,232.32,3.7462,4.6580,-1.1516,-2.8938,-0.0904,-2.9592,rough,14.0,0,4.991
7270,232.64,3.7530,4.6581,-1.1516,-2.8939,-0.0858,-2.9584,rough,14.0,0,4.998
7280,232.96,3.7497,4.6582,-1.1516,-2.8938,-0.0881,-2.9586,rough,14.0,0,4.995
7290,233.28,3.7471,4.6582,-1.1516,-2.8938,-0.0900,-2.9587,rough,14.0,0,4.992
7300,233.60,3.7500,4.6583,-1.1516,-2.8938,-0.0881,-2.9583,rough,14.0,0,4.995
7310,233.92,3.7459,4.6583,-1.1517,-2.8937,-0.0909,-2.9586,rough,14.0,0,4.991
7320,234.24,3.7516,4.6585,-1.1516,-2.8938,-0.0871,-2.9578,rough,14.0,0,4.996
7330,234.56,3.7501,4.6585,-1.1516,-2.8938,-0.0883,-2.9579,rough,14.0,0,4.995
7340,234.88,3.7450,4.6585,-1.1517,-2.8937,-0.0918,-2.9583,rough,14.0,0,4.990
7350,235.20,3.7517,4.6587,-1.1517,-2.8938,-0.0873,-2.9574,rough,14.0,0,4.996
7360,235.52,3.7513,4.6587,-1.1517,-2.8938,-0.0877,-2.9573,rough,14.0,0,4.996
7370,235.84,3.7472,4.6588,-1.1517,-2.8937,-0.0905,-2.9576,rough,14.0,0,4.992
7380,236.16,3.7518,4.6589,-1.1517,-2.8938,-0.0874,-2.9570,rough,14.0,0,4.997
7390,236.48,3.7484,4.6589,-1.1517,-2.8937,-0.0898,-2.9572,rough,14.0,0,4.993
7400,236.80,3.7525,4.6593,-1.1519,-2.8980,-0.0731,-3.0119,rough,14.0,0,4.997
7410,237.12,3.7491,4.6598,-1.1518,-2.8940,-0.0891,-2.9600,rough,14.0,0,4.994
7420,237.44,3.7502,4.6599,-1.1519,-2.8940,-0.0883,-2.9597,rough,14.0,0,4.995
7430,237.76,3.7485,4.6600,-1.1519,-2.8940,-0.0896,-2.9598,rough,14.0,0,4.993
7440,238.08,3.7502,4.6601,-1.1519,-2.8940,-0.0885,-2.9595,rough,14.0,0,4.995
7450,238.40,3.7501,4.6601,-1.1519,-2.8940,-0.0887,-2.9594,rough,14.0,0,4.995
7460,238.72,3.7503,4.6602,-1.1519,-2.8940,-0.0886,-2.9592,rough,14.0,0,4.995
7470,239.04,3.7498,4.6603,-1.1519,-2.8940,-0.0890,-2.9591,rough,14.0,0,4.994
7480,239.36,3.7496,4.6603,-1.1519,-2.8940,-0.0892,-2.9590,rough,14.0,0,4.994
7490,239.68,3.7497,4.6604,-1.1519,-2.8940,-0.0892,-2.9588,rough,14.0,0,4.994
7500,240.00,3.7501,4.6605,-1.1519,-2.8940,-0.0890,-2.9587,rough,14.0,0,4.995
7510,240.32,3.7498,4.6605,-1.1519,-2.8940,-0.0893,-2.9586,rough,14.0,0,4.994
7520,240.64,3.7519,4.6606,-1.1519,-2.8940,-0.0879,-2.9582,rough,14.0,0,4.996
7530,240.96,3.7501,4.6607,-1.1520,-2.8940,-0.0892,-2.9582,rough,14.0,0,4.995
7540,241.28,3.7508,4.6607,-1.1520,-2.8940,-0.0888,-2.9580,rough,14.0,0,4.995
7550,241.60,3.7518,4.6608,-1.1520,-2.8940,-0.0881,-2.9578,rough,14.0,0,4.996
7560,241.92,3.7530,4.6609,-1.1520,-2.8940,-0.0874,-2.9575,rough,14.0,0,4.997
7570,242.24,3.7505,4.6609,-1.1520,-2.8940,-0.0892,-2.9576,rough,14.0,0,4.995
7580,242.56,3.7524,4.6610,-1.1520,-2.8940,-0.0880,-2.9573,rough,14.0,0,4.997
7590,242.88,3.7507,4.6611,-1.1520,-2.8939,-0.0892,-2.9573,rough,14.0,0,4.995
7600,243.20,3.7543,4.6620,-1.1521,-2.8943,-0.0865,-2.9598,rough,14.0,0,4.999
7610,243.52,3.7502,4.6620,-1.1521,-2.8942,-0.0892,-2.9603,rough,14.0,0,4.994
7620,243.84,3.7527,4.6621,-1.1521,-2.8942,-0.0876,-2.9599,rough,14.0,0,4.997
7630,244.16,3.7523,4.6622,-1.1522,-2.8942,-0.0879,-2.9598,rough,14.0,0,4.997
7640,244.48,3.7511,4.6622,-1.1522,-2.8942,-0.0889,-2.9598,rough,14.0,0,4.995
7650,244.80,3.7524,4.6623,-1.1522,-2.8942,-0.0881,-2.9595,rough,14.0,0,4.997
7660,245.12,3.7529,4.6624,-1.1522,-2.8942,-0.0878,-2.9593,rough,14.0,0,4.997
7670,245.44,3.7525,4.6624,-1.1522,-2.8942,-0.0882,-2.9592,rough,14.0,0,4.997
7680,245.76,3.7525,4.6625,-1.1522,-2.8942,-0.0882,-2.9591,rough,14.0,0,4.997
7690,246.08,3.7527,4.6626,-1.1522,-2.8942,-0.0881,-2.9589,rough,14.0,0,4.997
7700,246.40,3.7533,4.6626,-1.1522,-2.8942,-0.0878,-2.9587,rough,14.0,0,4.997
7710,246.72,3.7540,4.6627,-1.1522,-2.8942,-0.0874,-2.9585,rough,14.0,0,4.998
7720,247.04,3.7510,4.6628,-1.1522,-2.8941,-0.0895,-2.9587,rough,14.0,0,4.995
7730,247.36,3.7565,4.6629,-1.1522,-2.8942,-0.0858,-2.9579,rough,14.0,0,5.001
7740,247.68,3.7528,4.6629,-1.1523,-2.8942,-0.0884,-2.9582,rough,14.0,0,4.997
7750,248.00,3.7539,4.6630,-1.1523,-2.8942,-0.0877,-2.9579,rough,14.0,0,4.998
7760,248.32,3.7521,4.6630,-1.1523,-2.8941,-0.0890,-2.9580,rough,14.0,0,4.996
7770,248.64,3.7548,4.6639,-1.1524,-2.8944,-0.0870,-2.9603,rough,14.0,0,4.999
7780,248.96,3.7538,4.6640,-1.1524,-2.8944,-0.0876,-2.9607,rough,14.0,0,4.998
7790,249.28,3.7520,4.6640,-1.1524,-2.8944,-0.0889,-2.9608,rough,14.0,0,4.996
7800,249.60,3.7547,4.6641,-1.1524,-2.8944,-0.0871,-2.9603,rough,14.0,0,4.999
7810,249.92,3.7534,4.6642,-1.1524,-2.8944,-0.0881,-2.9603,rough,14.0,0,4.997
7820,250.24,3.7544,4.6643,-1.1524,-2.8944,-0.0874,-2.9601,rough,14.0,0,4.998
7830,250.56,3.7537,4.6643,-1.1525,-2.8944,-0.0880,-2.9600,rough,14.0,0,4.998
7840,250.88,3.7542,4.6644,-1.1525,-2.8944,-0.0877,-2.9598,rough,14.0,0,4.998
7850,251.20,3.7540,4.6645,-1.1525,-2.8944,-0.0879,-2.9597,rough,14.0,0,4.998
