step,time_s,x,y,z,roll,pitch,yaw,terrain,speed,target_idx,dist_to_target
10,0.32,-1.4649,0.8638,0.1886,0.0624,-0.2300,0.1551,rough,14.0,0,6.011
20,0.64,-1.5057,0.8915,0.1850,0.0360,-0.2787,0.2949,rough,14.0,0,5.962
30,0.96,-1.2958,0.9430,0.2324,-0.0232,-0.2231,0.5968,rough,14.0,0,6.110
40,1.28,-1.0615,1.0888,0.2734,0.0193,-0.1201,0.9218,rough,14.0,0,6.236
50,1.60,-0.8998,1.3459,0.3085,-0.0128,-0.0735,1.2228,rough,14.0,0,6.256
60,1.92,-0.8162,1.5924,0.3264,-0.0326,-0.0645,1.3755,rough,14.0,0,6.224
70,2.24,-0.7736,1.8817,0.3552,-0.0303,-0.0980,1.6653,rough,14.0,0,6.148
80,2.56,-0.8231,2.2108,0.3740,-0.0939,-0.0963,1.9248,rough,14.0,0,5.985
90,2.88,-0.9274,2.5396,0.4091,0.0132,-0.1532,2.1171,rough,14.0,0,5.785
100,3.20,-1.1050,2.8463,0.4626,0.0499,-0.2113,2.2817,rough,14.0,0,5.532
110,3.52,-1.3644,3.1173,0.5378,0.0128,-0.1934,2.4345,rough,14.0,0,5.219
120,3.84,-1.6556,3.3699,0.6019,0.0496,-0.1452,2.5778,rough,14.0,0,4.885
130,4.16,-2.0473,3.5550,0.6142,-0.0923,0.0210,2.7205,rough,14.0,0,4.470
140,4.48,-2.3952,3.6686,0.6260,-0.1846,-0.1377,2.7968,rough,14.0,0,4.110
150,4.80,-2.7442,3.7638,0.6890,-0.2254,-0.3056,2.9364,rough,14.0,0,3.752
160,5.12,-3.0763,3.8165,0.8297,-0.2270,-0.4724,3.0052,rough,14.0,0,3.416
170,5.44,-3.4632,3.8572,0.9431,-0.1923,-0.2858,3.1114,rough,14.0,0,3.027
180,5.76,-3.9038,3.8225,0.9865,-0.2825,0.1372,3.1274,rough,14.0,0,2.594
190,6.08,-4.3747,3.7201,0.8343,-0.3844,0.2355,3.0346,rough,14.0,0,2.149
200,6.40,-4.7659,3.7048,0.7351,-0.0632,-0.0638,2.7362,rough,14.0,0,1.773
210,6.72,-4.9883,3.7547,0.7791,-0.2405,-0.4048,3.0487,rough,14.0,0,1.546
220,7.04,-5.3075,3.7514,0.8774,-0.2809,-0.2718,-3.1392,rough,14.0,0,1.244
230,7.36,-5.6405,3.7376,0.9956,-0.2974,-0.3845,3.0937,rough,14.0,0,0.946
240,7.68,-5.9392,3.7811,1.0928,-0.1021,-0.2322,2.8400,rough,14.0,1,6.864
250,8.00,-6.0934,3.8439,1.1362,-0.0458,-0.2626,2.5686,rough,14.0,1,7.004
260,8.32,-6.2594,4.0511,1.1748,0.0240,-0.0792,2.2473,rough,14.0,1,7.134
270,8.64,-6.4096,4.3375,1.1494,0.1432,0.1158,1.9180,rough,14.0,1,7.248
280,8.96,-6.5078,4.6315,1.1031,0.1220,0.1710,1.5897,rough,14.0,1,7.322
290,9.28,-6.5133,4.9339,1.0710,0.0594,0.0617,1.3388,rough,14.0,1,7.315
300,9.60,-6.4515,5.2436,1.0611,0.0056,-0.0526,1.1046,rough,14.0,1,7.253
310,9.92,-6.2760,5.5277,1.0914,0.0196,-0.1317,0.9423,rough,14.0,1,7.090
320,10.24,-6.0382,5.8228,1.1184,0.0333,-0.0412,0.8026,rough,14.0,1,6.878
330,10.56,-5.7597,6.1295,1.0836,-0.0883,0.1116,0.6551,rough,14.0,1,6.643
340,10.88,-5.4312,6.4057,1.0274,-0.2836,0.2048,0.5053,rough,14.0,1,6.370
350,11.20,-5.1036,6.6214,0.9632,-0.4244,0.1889,0.3906,rough,14.0,1,6.101
360,11.52,-4.6988,6.7977,0.8529,-0.4718,0.3082,0.2186,rough,14.0,1,5.760
370,11.84,-4.2851,6.9440,0.6938,-0.6031,0.2024,0.0536,rough,14.0,1,5.415
380,12.16,-3.8797,7.0051,0.6161,-0.6371,0.0579,0.0146,rough,14.0,1,5.059
390,12.48,-3.4052,7.0825,0.4035,-0.7306,0.3116,-0.1245,rough,14.0,1,4.656
400,12.80,-2.9090,7.1288,-0.0130,-0.7703,0.5920,-0.4683,rough,14.0,1,4.236
410,13.12,-2.2791,7.1012,-0.5306,-0.6545,0.5726,-0.5004,rough,14.0,1,3.682
420,13.44,-1.8055,6.9303,-0.6527,-0.5121,0.0655,-0.5658,rough,14.0,1,3.194
430,13.76,-1.4161,6.7183,-0.6860,-0.5270,0.0414,-0.5683,rough,14.0,1,2.754
440,14.08,-0.9737,6.4887,-0.8159,-0.6764,0.3455,-0.7326,rough,14.0,1,2.263
450,14.40,-0.5361,6.2246,-1.0562,-0.5890,0.2900,-0.7944,rough,14.0,1,1.757
460,14.72,-0.2179,5.9930,-1.1265,-0.5795,-0.0650,-0.6293,rough,14.0,1,1.365
470,15.04,0.1128,5.7702,-1.0910,-0.4705,-0.1807,-0.5653,rough,14.0,1,0.972
480,15.36,0.5059,5.5345,-1.0392,-0.5171,-0.1014,-0.6364,rough,14.0,2,10.011
490,15.68,0.8958,5.2739,-1.0365,-0.5815,0.0668,-0.7091,rough,14.0,2,9.543
500,16.00,1.2255,5.0545,-1.0905,-0.6861,-0.1129,-0.5751,rough,14.0,2,9.148
510,16.32,1.6263,4.8555,-1.0846,-0.7363,0.0359,-0.6663,rough,14.0,2,8.710
520,16.64,1.8639,4.8566,-1.0677,-0.9359,-0.5242,-0.2369,rough,14.0,2,8.526
530,16.96,2.1818,4.8231,-0.9657,-0.9048,-0.3077,-0.0314,rough,14.0,2,8.261
540,17.28,2.5692,4.6495,-0.8956,-0.1464,-0.3079,-0.2386,rough,14.0,2,7.855
550,17.60,2.9735,4.5107,-0.8941,-0.1863,0.1438,-0.3991,rough,14.0,2,7.462
560,17.92,3.3385,4.3708,-0.9175,-0.2384,-0.0201,-0.4475,rough,14.0,2,7.101
570,18.24,3.6866,4.2129,-0.8791,-0.2501,-0.2152,-0.4690,rough,14.0,2,6.742
580,18.56,4.0165,4.0055,-0.7901,-0.1233,-0.2697,-0.5128,rough,14.0,2,6.362
590,18.88,4.4314,3.7684,-0.7405,-0.1381,0.1243,-0.6126,rough,14.0,2,5.905
600,19.20,4.7966,3.5413,-0.7901,-0.1943,0.0979,-0.6522,rough,14.0,2,5.491
610,19.52,5.1480,3.2840,-0.9140,-0.3973,0.2156,-0.8569,rough,14.0,2,5.066
620,19.84,5.4303,3.1020,-0.9605,-0.5576,-0.0891,-0.8185,rough,14.0,2,4.745
630,20.16,5.7439,2.8121,-0.9806,-0.5923,-0.0758,-1.0413,rough,14.0,2,4.322
640,20.48,5.9792,2.5220,-0.9623,-0.5276,-0.1109,-0.8794,rough,14.0,2,3.949
650,20.80,6.3336,2.1586,-1.0561,-0.5048,0.2525,-1.0269,rough,14.0,2,3.444
660,21.12,6.5803,1.8840,-1.0800,-0.3918,-0.1736,-0.8648,rough,14.0,2,3.075
670,21.44,6.8246,1.6275,-0.9763,-0.3960,-0.4369,-0.8165,rough,14.0,2,2.724
680,21.76,7.0756,1.3369,-0.8112,-0.3225,-0.4329,-0.8733,rough,14.0,2,2.341
690,22.08,7.3245,1.0409,-0.6683,-0.3184,-0.3956,-0.9421,rough,14.0,2,1.955
700,22.40,7.5738,0.7300,-0.5592,-0.4614,-0.3491,-0.9665,rough,14.0,2,1.558
710,22.72,7.7516,0.5282,-0.4933,-0.5205,-0.5545,-0.7683,rough,14.0,2,1.291
720,23.04,7.9655,0.4072,-0.4132,-0.5582,-0.5193,-0.8202,rough,14.0,2,1.080
730,23.36,8.2121,0.3702,-0.4275,-0.5589,-0.6274,-0.9731,rough,14.0,2,0.959
740,23.68,8.4136,0.4380,-0.5210,-0.4090,-0.5701,-1.0374,rough,14.0,2,0.997
750,24.00,8.5251,0.6087,-0.6721,-0.2046,-0.6993,-1.1436,rough,14.0,2,1.170
760,24.32,8.6048,0.8313,-0.8467,-0.0072,-0.7759,-1.2428,rough,14.0,2,1.399
770,24.64,8.6919,0.9808,-0.9453,0.0669,-0.6012,-1.3794,rough,14.0,2,1.558
780,24.96,8.7507,1.0270,-0.9750,0.0695,-0.5445,-1.4340,rough,14.0,2,1.614
790,25.28,8.7962,0.9334,-0.8997,0.0530,-0.6329,-1.4342,rough,14.0,2,1.532
800,25.60,8.8232,0.7523,-0.7553,0.1145,-0.7397,-1.5000,rough,14.0,2,1.363
810,25.92,8.8707,0.5642,-0.6228,0.0005,-0.5843,-1.4616,rough,14.0,2,1.199
820,26.24,8.9000,0.3465,-0.4490,0.0025,-0.7670,-1.4786,rough,14.0,2,1.011
830,26.56,8.9428,0.0868,-0.2683,-0.0791,-0.6231,-1.5148,rough,14.0,2,0.813
840,26.88,8.9743,-0.1719,-0.1070,-0.1730,-0.6343,-1.5217,rough,14.0,3,6.730
850,27.20,9.0016,-0.4337,0.0757,-0.2363,-0.6381,-1.5085,rough,14.0,3,6.587
860,27.52,9.0315,-0.6609,0.2161,-0.3053,-0.5933,-1.5023,rough,14.0,3,6.474
870,27.84,9.0749,-0.8815,0.3651,-0.3781,-0.6470,-1.4374,rough,14.0,3,6.382
880,28.16,9.1192,-1.1014,0.5135,-0.3855,-0.5919,-1.3736,rough,14.0,3,6.297
890,28.48,9.1821,-1.2890,0.6513,-0.3980,-0.6397,-1.2755,rough,14.0,3,6.253
900,28.80,9.2606,-1.4082,0.7263,-0.4509,-0.6622,-1.0382,rough,14.0,3,6.261
910,29.12,9.3682,-1.4373,0.7303,-0.4968,-0.5863,-0.7620,rough,14.0,3,6.341
920,29.44,9.5098,-1.4232,0.7168,-0.3763,-0.6127,-0.9252,rough,14.0,3,6.472
930,29.76,9.6276,-1.4018,0.7032,-0.2310,-0.6662,-1.1390,rough,14.0,3,6.586
940,30.08,9.7194,-1.4061,0.7006,-0.1749,-0.6639,-1.2826,rough,14.0,3,6.665
950,30.40,9.7942,-1.4868,0.7478,-0.1744,-0.6131,-1.3926,rough,14.0,3,6.695
960,30.72,9.8412,-1.6498,0.8465,-0.1607,-0.5574,-1.4700,rough,14.0,3,6.666
970,31.04,9.8782,-1.8996,0.9681,-0.2175,-0.4443,-1.5138,rough,14.0,3,6.598
980,31.36,9.9014,-2.1588,1.0658,-0.2201,-0.3395,-1.5624,rough,14.0,3,6.522
990,31.68,9.8926,-2.4830,1.1503,-0.1624,-0.1845,-1.7506,rough,14.0,3,6.406
1000,32.00,9.7895,-2.8347,1.1721,-0.0590,0.0613,-1.8767,rough,14.0,3,6.205
1010,32.32,9.6367,-3.2102,1.1054,-0.0456,0.2597,-2.0344,rough,14.0,3,5.967
1020,32.64,9.4034,-3.5961,0.9370,0.0110,0.5827,-2.1819,rough,14.0,3,5.666
1030,32.96,9.1655,-3.8935,0.6933,-0.0197,0.5923,-2.3295,rough,14.0,3,5.390
1040,33.28,8.9108,-4.1727,0.4572,-0.1925,0.6185,-2.4194,rough,14.0,3,5.112
1050,33.60,8.6631,-4.4386,0.2425,-0.4790,0.5203,-2.5685,rough,14.0,3,4.855
1060,33.92,8.3282,-4.6840,0.0166,-0.4095,0.4704,-2.5893,rough,14.0,3,4.525
1070,34.24,7.9736,-4.9236,-0.2351,-0.4988,0.4541,-2.7934,rough,14.0,3,4.189
1080,34.56,7.6887,-5.1035,-0.3615,-0.5291,-0.0417,-2.7611,rough,14.0,3,3.930
1090,34.88,7.3645,-5.2725,-0.3738,-0.4601,-0.1905,-2.7692,rough,14.0,3,3.643
1100,35.20,7.0300,-5.4110,-0.2829,-0.4234,-0.3410,-2.8515,rough,14.0,3,3.353
1110,35.52,6.5544,-5.5470,-0.2934,-0.4078,0.3380,-3.1167,rough,14.0,3,2.945
1120,35.84,6.1525,-5.5992,-0.4067,-0.3798,-0.0100,3.0571,rough,14.0,3,2.596
1130,36.16,5.7322,-5.4608,-0.4808,0.1183,0.0637,2.8953,rough,14.0,3,2.158
1140,36.48,5.3848,-5.3832,-0.4637,0.0577,-0.0874,2.9289,rough,14.0,3,1.815
1150,36.80,4.9938,-5.3087,-0.4253,-0.0497,-0.2093,2.8462,rough,14.0,3,1.444
1160,37.12,4.5306,-5.1796,-0.4259,-0.1397,0.1978,2.7231,rough,14.0,3,1.003
1170,37.44,4.1448,-4.9966,-0.5124,-0.0770,0.1958,2.6767,rough,14.0,0,14.040
1180,37.76,3.7373,-4.7639,-0.6815,0.0275,0.3979,2.6530,rough,14.0,0,13.580
1190,38.08,3.4095,-4.5973,-0.7379,-0.0469,0.0207,2.6256,rough,14.0,0,13.224
1200,38.40,3.0311,-4.4158,-0.7600,-0.2093,-0.0892,2.6352,rough,14.0,0,12.821
1210,38.72,2.6429,-4.2221,-0.7355,-0.2381,-0.0187,2.6103,rough,14.0,0,12.404
1220,39.04,2.2507,-4.0112,-0.7904,-0.4185,-0.1279,2.5443,rough,14.0,0,11.973
1230,39.36,1.8682,-3.7839,-0.8491,-0.2437,0.1830,2.6697,rough,14.0,0,11.539
1240,39.68,1.6397,-3.6470,-0.7895,-0.1939,-0.4787,2.7514,rough,14.0,0,11.279
1250,40.00,1.3399,-3.5022,-0.6629,-0.0611,-0.4361,2.7771,rough,14.0,0,10.964
1260,40.32,1.0404,-3.3777,-0.5087,-0.0064,-0.5125,2.7963,rough,14.0,0,10.663
1270,40.64,0.6844,-3.2528,-0.3920,-0.0496,-0.2147,2.7995,rough,14.0,0,10.325
1280,40.96,0.3069,-3.1096,-0.3089,0.0117,-0.1697,2.7607,rough,14.0,0,9.962
1290,41.28,-0.0582,-2.9353,-0.2398,0.1092,-0.1971,2.7175,rough,14.0,0,9.587
1300,41.60,-0.3851,-2.7662,-0.1256,0.1574,-0.3876,2.6531,rough,14.0,0,9.244
1310,41.92,-0.7163,-2.5651,-0.0036,0.1578,-0.2940,2.6076,rough,14.0,0,8.875
1320,42.24,-1.0678,-2.3313,0.0957,0.2341,-0.2253,2.5845,rough,14.0,0,8.470
1330,42.56,-1.4748,-2.0874,0.1131,0.1397,0.0756,2.6073,rough,14.0,0,8.024
1340,42.88,-1.8241,-1.8601,0.0981,0.1432,-0.0015,2.5574,rough,14.0,0,7.630
1350,43.20,-2.1676,-1.6105,0.1045,0.1513,-0.0406,2.5240,rough,14.0,0,7.223
1360,43.52,-2.4845,-1.3384,0.1269,0.2844,-0.0544,2.5083,rough,14.0,0,6.817
1370,43.84,-2.8302,-1.0746,0.1465,0.2822,-0.0040,2.4960,rough,14.0,0,6.402
1380,44.16,-3.1923,-0.7789,0.1020,0.3428,0.2054,2.5401,rough,14.0,0,5.954
1390,44.48,-3.4944,-0.5277,0.0619,0.3619,-0.0669,2.4270,rough,14.0,0,5.579
1400,44.80,-3.8024,-0.2506,0.1033,0.3366,-0.1818,2.3631,rough,14.0,0,5.182
1410,45.12,-4.1273,0.0576,0.1415,0.2393,-0.0701,2.3472,rough,14.0,0,4.752
1420,45.44,-4.4285,0.3857,0.1525,0.2441,0.0471,2.3759,rough,14.0,0,4.319
1430,45.76,-4.6832,0.7089,0.1111,0.1574,0.0298,2.2576,rough,14.0,0,3.914
1440,46.08,-4.8816,0.9943,0.1454,0.2068,-0.3552,2.1574,rough,14.0,0,3.570
1450,46.40,-5.0805,1.2846,0.2843,0.1911,-0.4702,2.1065,rough,14.0,0,3.222
1460,46.72,-5.2266,1.5792,0.4236,0.1814,-0.5620,2.0577,rough,14.0,0,2.893
1470,47.04,-5.4123,1.9073,0.5360,0.1880,-0.3681,2.1397,rough,14.0,0,2.517
1480,47.36,-5.6686,2.2422,0.6109,0.0585,-0.1840,2.1778,rough,14.0,0,2.107
1490,47.68,-5.8395,2.5469,0.7196,0.1290,-0.4243,2.1032,rough,14.0,0,1.761
1500,48.00,-5.9782,2.8642,0.8486,0.3233,-0.5501,1.9487,rough,14.0,0,1.415
1510,48.32,-6.0846,3.2097,0.9923,0.2791,-0.4088,1.8470,rough,14.0,0,1.055
1520,48.64,-6.1813,3.5778,1.1104,0.2073,-0.2422,1.7839,rough,14.0,1,7.142
1530,48.96,-6.1753,3.8627,1.1588,0.2162,-0.1717,1.5131,rough,14.0,1,7.081
1540,49.28,-6.1177,4.2220,1.1499,-0.0211,-0.0213,1.2806,rough,14.0,1,6.971
1550,49.60,-6.0148,4.5707,1.1450,-0.1283,-0.0241,1.0621,rough,14.0,1,6.834
1560,49.92,-5.8247,4.8907,1.1596,-0.1428,-0.1102,0.9152,rough,14.0,1,6.627
1570,50.24,-5.5724,5.1965,1.1899,-0.1051,-0.0851,0.7777,rough,14.0,1,6.373
1580,50.56,-5.3254,5.4840,1.2279,-0.2527,-0.1283,0.6527,rough,14.0,1,6.138
1590,50.88,-5.0213,5.7230,1.2743,-0.2742,-0.1455,0.5584,rough,14.0,1,5.856
1600,51.20,-4.6009,5.9699,1.2469,-0.3049,0.2711,0.3359,rough,14.0,1,5.473
1610,51.52,-4.1856,6.1423,1.0866,-0.3508,0.2708,0.1288,rough,14.0,1,5.097
1620,51.84,-3.8009,6.1576,0.9501,-0.1343,0.3728,0.0817,rough,14.0,1,4.725
1630,52.16,-3.7958,6.1718,0.9526,-0.1310,0.4083,0.0078,rough,14.0,1,4.723
1640,52.48,-3.7933,6.1775,0.9519,-0.1406,0.4079,-0.0237,rough,14.0,1,4.722
1650,52.80,-3.7923,6.1794,0.9516,-0.1443,0.4069,-0.0344,rough,14.0,1,4.721
1660,53.12,-3.7927,6.1800,0.9517,-0.1447,0.4082,-0.0377,rough,14.0,1,4.722
1670,53.44,-3.7929,6.1802,0.9518,-0.1448,0.4087,-0.0389,rough,14.0,1,4.722
1680,53.76,-3.7930,6.1803,0.9518,-0.1448,0.4089,-0.0393,rough,14.0,1,4.722
1690,54.08,-3.7920,6.1804,0.9514,-0.1457,0.4070,-0.0392,rough,14.0,1,4.721
1700,54.40,-3.7920,6.1804,0.9514,-0.1457,0.4069,-0.0391,rough,14.0,1,4.721
1710,54.72,-3.7919,6.1804,0.9514,-0.1457,0.4069,-0.0390,rough,14.0,1,4.721
1720,55.04,-3.7919,6.1805,0.9514,-0.1456,0.4068,-0.0390,rough,14.0,1,4.721
1730,55.36,-3.7919,6.1805,0.9513,-0.1456,0.4068,-0.0390,rough,14.0,1,4.721
1740,55.68,-3.7918,6.1805,0.9513,-0.1456,0.4068,-0.0390,rough,14.0,1,4.721
1750,56.00,-3.7918,6.1806,0.9513,-0.1456,0.4068,-0.0390,rough,14.0,1,4.721
1760,56.32,-3.7918,6.1806,0.9513,-0.1456,0.4068,-0.0390,rough,14.0,1,4.721
1770,56.64,-3.7917,6.1807,0.9513,-0.1456,0.4067,-0.0390,rough,14.0,1,4.721
1780,56.96,-3.7917,6.1807,0.9513,-0.1456,0.4067,-0.0389,rough,14.0,1,4.721
1790,57.28,-3.7917,6.1807,0.9513,-0.1455,0.4068,-0.0390,rough,14.0,1,4.721
1800,57.60,-3.7917,6.1808,0.9513,-0.1455,0.4068,-0.0390,rough,14.0,1,4.721
1810,57.92,-3.7917,6.1808,0.9513,-0.1454,0.4069,-0.0390,rough,14.0,1,4.721
1820,58.24,-3.7917,6.1809,0.9512,-0.1454,0.4069,-0.0390,rough,14.0,1,4.721
1830,58.56,-3.7917,6.1809,0.9512,-0.1454,0.4070,-0.0390,rough,14.0,1,4.721
1840,58.88,-3.7917,6.1810,0.9512,-0.1453,0.4070,-0.0390,rough,14.0,1,4.721
1850,59.20,-3.7917,6.1810,0.9512,-0.1453,0.4071,-0.0390,rough,14.0,1,4.721
1860,59.52,-3.7917,6.1810,0.9512,-0.1452,0.4071,-0.0390,rough,14.0,1,4.721
1870,59.84,-3.7917,6.1811,0.9512,-0.1452,0.4072,-0.0391,rough,14.0,1,4.721
1880,60.16,-3.7922,6.1811,0.9514,-0.1447,0.4082,-0.0391,rough,14.0,1,4.721
1890,60.48,-3.7921,6.1812,0.9514,-0.1447,0.4082,-0.0392,rough,14.0,1,4.721
1900,60.80,-3.7921,6.1812,0.9514,-0.1447,0.4082,-0.0393,rough,14.0,1,4.721
1910,61.12,-3.7921,6.1812,0.9514,-0.1447,0.4082,-0.0393,rough,14.0,1,4.721
1920,61.44,-3.7920,6.1813,0.9513,-0.1447,0.4081,-0.0393,rough,14.0,1,4.721
1930,61.76,-3.7920,6.1813,0.9513,-0.1447,0.4081,-0.0393,rough,14.0,1,4.721
1940,62.08,-3.7920,6.1814,0.9513,-0.1447,0.4081,-0.0393,rough,14.0,1,4.721
1950,62.40,-3.7919,6.1814,0.9513,-0.1446,0.4081,-0.0393,rough,14.0,1,4.721
1960,62.72,-3.7919,6.1814,0.9513,-0.1446,0.4081,-0.0393,rough,14.0,1,4.721
1970,63.04,-3.7919,6.1815,0.9513,-0.1446,0.4081,-0.0393,rough,14.0,1,4.721
1980,63.36,-3.7919,6.1815,0.9513,-0.1446,0.4081,-0.0393,rough,14.0,1,4.721
1990,63.68,-3.7918,6.1815,0.9512,-0.1446,0.4081,-0.0393,rough,14.0,1,4.721
2000,64.00,-3.7918,6.1816,0.9512,-0.1446,0.4081,-0.0393,rough,14.0,1,4.721
2010,64.32,-3.7918,6.1816,0.9512,-0.1445,0.4081,-0.0393,rough,14.0,1,4.721
2020,64.64,-3.7917,6.1817,0.9512,-0.1445,0.4081,-0.0393,rough,14.0,1,4.721
2030,64.96,-3.7917,6.1817,0.9512,-0.1445,0.4081,-0.0393,rough,14.0,1,4.721
2040,65.28,-3.7917,6.1817,0.9512,-0.1444,0.4081,-0.0393,rough,14.0,1,4.721
2050,65.60,-3.7917,6.1818,0.9512,-0.1444,0.4082,-0.0393,rough,14.0,1,4.721
2060,65.92,-3.7917,6.1818,0.9512,-0.1444,0.4082,-0.0393,rough,14.0,1,4.721
2070,66.24,-3.7917,6.1819,0.9512,-0.1443,0.4083,-0.0393,rough,14.0,1,4.721
2080,66.56,-3.7917,6.1819,0.9512,-0.1443,0.4083,-0.0394,rough,14.0,1,4.721
2090,66.88,-3.7917,6.1819,0.9512,-0.1442,0.4084,-0.0394,rough,14.0,1,4.721
2100,67.20,-3.7917,6.1820,0.9512,-0.1442,0.4085,-0.0394,rough,14.0,1,4.721
2110,67.52,-3.7917,6.1820,0.9512,-0.1442,0.4085,-0.0394,rough,14.0,1,4.721
2120,67.84,-3.7917,6.1821,0.9512,-0.1441,0.4085,-0.0394,rough,14.0,1,4.721
2130,68.16,-3.7921,6.1821,0.9513,-0.1438,0.4093,-0.0395,rough,14.0,1,4.722
2140,68.48,-3.7920,6.1821,0.9513,-0.1437,0.4093,-0.0396,rough,14.0,1,4.722
2150,68.80,-3.7920,6.1822,0.9513,-0.1437,0.4093,-0.0396,rough,14.0,1,4.722
2160,69.12,-3.7920,6.1822,0.9512,-0.1437,0.4093,-0.0396,rough,14.0,1,4.722
2170,69.44,-3.7920,6.1822,0.9512,-0.1437,0.4093,-0.0396,rough,14.0,1,4.722
2180,69.76,-3.7919,6.1823,0.9512,-0.1437,0.4093,-0.0396,rough,14.0,1,4.722
2190,70.08,-3.7919,6.1823,0.9512,-0.1437,0.4093,-0.0396,rough,14.0,1,4.722
2200,70.40,-3.7919,6.1823,0.9512,-0.1436,0.4093,-0.0396,rough,14.0,1,4.721
2210,70.72,-3.7918,6.1824,0.9512,-0.1436,0.4093,-0.0396,rough,14.0,1,4.721
2220,71.04,-3.7918,6.1824,0.9512,-0.1436,0.4093,-0.0396,rough,14.0,1,4.721
2230,71.36,-3.7918,6.1824,0.9511,-0.1436,0.4093,-0.0396,rough,14.0,1,4.721
2240,71.68,-3.7918,6.1825,0.9511,-0.1436,0.4093,-0.0396,rough,14.0,1,4.721
2250,72.00,-3.7917,6.1825,0.9511,-0.1435,0.4093,-0.0396,rough,14.0,1,4.721
2260,72.32,-3.7917,6.1826,0.9511,-0.1435,0.4093,-0.0396,rough,14.0,1,4.721
2270,72.64,-3.7917,6.1826,0.9511,-0.1434,0.4094,-0.0396,rough,14.0,1,4.721
2280,72.96,-3.7917,6.1826,0.9511,-0.1434,0.4094,-0.0397,rough,14.0,1,4.721
2290,73.28,-3.7917,6.1827,0.9511,-0.1434,0.4095,-0.0397,rough,14.0,1,4.721
2300,73.60,-3.7917,6.1827,0.9511,-0.1433,0.4095,-0.0397,rough,14.0,1,4.721
2310,73.92,-3.7917,6.1827,0.9511,-0.1433,0.4096,-0.0397,rough,14.0,1,4.721
2320,74.24,-3.7917,6.1828,0.9511,-0.1432,0.4096,-0.0397,rough,14.0,1,4.721
2330,74.56,-3.7917,6.1828,0.9511,-0.1432,0.4097,-0.0397,rough,14.0,1,4.721
2340,74.88,-3.7923,6.1828,0.9513,-0.1426,0.4109,-0.0398,rough,14.0,1,4.722
2350,75.20,-3.7922,6.1829,0.9513,-0.1426,0.4108,-0.0399,rough,14.0,1,4.722
2360,75.52,-3.7922,6.1829,0.9513,-0.1426,0.4109,-0.0400,rough,14.0,1,4.722
2370,75.84,-3.7922,6.1830,0.9513,-0.1426,0.4109,-0.0400,rough,14.0,1,4.722
2380,76.16,-3.7922,6.1830,0.9512,-0.1426,0.4109,-0.0400,rough,14.0,1,4.722
2390,76.48,-3.7921,6.1830,0.9512,-0.1426,0.4109,-0.0400,rough,14.0,1,4.722
2400,76.80,-3.7921,6.1831,0.9512,-0.1425,0.4109,-0.0400,rough,14.0,1,4.722
2410,77.12,-3.7921,6.1831,0.9512,-0.1425,0.4109,-0.0400,rough,14.0,1,4.722
2420,77.44,-3.7921,6.1831,0.9512,-0.1425,0.4109,-0.0400,rough,14.0,1,4.722
2430,77.76,-3.7920,6.1831,0.9512,-0.1425,0.4109,-0.0400,rough,14.0,1,4.722
2440,78.08,-3.7920,6.1832,0.9512,-0.1424,0.4109,-0.0400,rough,14.0,1,4.722
2450,78.40,-3.7920,6.1832,0.9512,-0.1424,0.4109,-0.0400,rough,14.0,1,4.722
2460,78.72,-3.7920,6.1832,0.9511,-0.1424,0.4109,-0.0400,rough,14.0,1,4.722
2470,79.04,-3.7919,6.1833,0.9511,-0.1424,0.4109,-0.0400,rough,14.0,1,4.722
2480,79.36,-3.7919,6.1833,0.9511,-0.1423,0.4109,-0.0401,rough,14.0,1,4.722
2490,79.68,-3.7919,6.1833,0.9511,-0.1423,0.4109,-0.0401,rough,14.0,1,4.722
2500,80.00,-3.7919,6.1834,0.9511,-0.1423,0.4109,-0.0401,rough,14.0,1,4.722
2510,80.32,-3.7918,6.1834,0.9511,-0.1423,0.4109,-0.0401,rough,14.0,1,4.722
2520,80.64,-3.7918,6.1834,0.9511,-0.1422,0.4109,-0.0401,rough,14.0,1,4.722
2530,80.96,-3.7918,6.1835,0.9511,-0.1422,0.4109,-0.0401,rough,14.0,1,4.722
2540,81.28,-3.7918,6.1835,0.9510,-0.1422,0.4109,-0.0401,rough,14.0,1,4.722
2550,81.60,-3.7917,6.1835,0.9510,-0.1422,0.4109,-0.0401,rough,14.0,1,4.722
2560,81.92,-3.7917,6.1836,0.9510,-0.1421,0.4110,-0.0401,rough,14.0,1,4.722
2570,82.24,-3.7917,6.1836,0.9510,-0.1421,0.4110,-0.0401,rough,14.0,1,4.722
2580,82.56,-3.7917,6.1836,0.9510,-0.1420,0.4111,-0.0401,rough,14.0,1,4.722
2590,82.88,-3.7917,6.1837,0.9510,-0.1420,0.4111,-0.0401,rough,14.0,1,4.722
2600,83.20,-3.7917,6.1837,0.9510,-0.1420,0.4112,-0.0401,rough,14.0,1,4.722
2610,83.52,-3.7917,6.1837,0.9510,-0.1419,0.4112,-0.0401,rough,14.0,1,4.722
2620,83.84,-3.7917,6.1838,0.9510,-0.1419,0.4113,-0.0401,rough,14.0,1,4.722
2630,84.16,-3.7917,6.1838,0.9510,-0.1418,0.4114,-0.0402,rough,14.0,1,4.722
2640,84.48,-3.7921,6.1838,0.9511,-0.1414,0.4122,-0.0402,rough,14.0,1,4.722
2650,84.80,-3.7921,6.1839,0.9511,-0.1414,0.4122,-0.0403,rough,14.0,1,4.722
2660,85.12,-3.7920,6.1839,0.9511,-0.1414,0.4122,-0.0404,rough,14.0,1,4.722
2670,85.44,-3.7920,6.1839,0.9511,-0.1414,0.4122,-0.0404,rough,14.0,1,4.722
2680,85.76,-3.7920,6.1840,0.9511,-0.1413,0.4122,-0.0404,rough,14.0,1,4.722
2690,86.08,-3.7920,6.1840,0.9511,-0.1413,0.4122,-0.0404,rough,14.0,1,4.722
2700,86.40,-3.7919,6.1840,0.9511,-0.1413,0.4123,-0.0404,rough,14.0,1,4.722
2710,86.72,-3.7919,6.1840,0.9511,-0.1413,0.4123,-0.0404,rough,14.0,1,4.722
2720,87.04,-3.7919,6.1841,0.9510,-0.1412,0.4123,-0.0404,rough,14.0,1,4.722
2730,87.36,-3.7919,6.1841,0.9510,-0.1412,0.4123,-0.0404,rough,14.0,1,4.722
2740,87.68,-3.7918,6.1841,0.9510,-0.1412,0.4123,-0.0404,rough,14.0,1,4.722
2750,88.00,-3.7918,6.1842,0.9510,-0.1412,0.4123,-0.0404,rough,14.0,1,4.722
2760,88.32,-3.7918,6.1842,0.9510,-0.1411,0.4123,-0.0404,rough,14.0,1,4.722
2770,88.64,-3.7918,6.1842,0.9510,-0.1411,0.4123,-0.0404,rough,14.0,1,4.722
2780,88.96,-3.7918,6.1843,0.9510,-0.1411,0.4123,-0.0404,rough,14.0,1,4.722
2790,89.28,-3.7917,6.1843,0.9510,-0.1410,0.4123,-0.0404,rough,14.0,1,4.722
2800,89.60,-3.7917,6.1843,0.9509,-0.1410,0.4123,-0.0404,rough,14.0,1,4.722
2810,89.92,-3.7917,6.1844,0.9509,-0.1410,0.4124,-0.0404,rough,14.0,1,4.722
2820,90.24,-3.7917,6.1844,0.9509,-0.1409,0.4124,-0.0404,rough,14.0,1,4.722
2830,90.56,-3.7917,6.1844,0.9509,-0.1409,0.4125,-0.0405,rough,14.0,1,4.722
2840,90.88,-3.7917,6.1845,0.9509,-0.1408,0.4125,-0.0405,rough,14.0,1,4.722
2850,91.20,-3.7917,6.1845,0.9509,-0.1408,0.4126,-0.0405,rough,14.0,1,4.722
2860,91.52,-3.7917,6.1845,0.9509,-0.1408,0.4126,-0.0405,rough,14.0,1,4.722
2870,91.84,-3.7917,6.1845,0.9509,-0.1407,0.4127,-0.0405,rough,14.0,1,4.722
2880,92.16,-3.7917,6.1846,0.9509,-0.1407,0.4127,-0.0405,rough,14.0,1,4.722
2890,92.48,-3.7917,6.1846,0.9509,-0.1406,0.4128,-0.0405,rough,14.0,1,4.722
2900,92.80,-3.7922,6.1846,0.9511,-0.1401,0.4139,-0.0405,rough,14.0,1,4.722
2910,93.12,-3.7922,6.1847,0.9511,-0.1401,0.4139,-0.0407,rough,14.0,1,4.722
2920,93.44,-3.7921,6.1847,0.9511,-0.1401,0.4140,-0.0408,rough,14.0,1,4.722
2930,93.76,-3.7921,6.1847,0.9511,-0.1400,0.4140,-0.0408,rough,14.0,1,4.722
2940,94.08,-3.7921,6.1848,0.9511,-0.1400,0.4140,-0.0408,rough,14.0,1,4.722
2950,94.40,-3.7921,6.1848,0.9511,-0.1400,0.4140,-0.0408,rough,14.0,1,4.722
2960,94.72,-3.7921,6.1848,0.9511,-0.1399,0.4140,-0.0409,rough,14.0,1,4.722
2970,95.04,-3.7920,6.1848,0.9510,-0.1399,0.4141,-0.0409,rough,14.0,1,4.722
2980,95.36,-3.7920,6.1849,0.9510,-0.1399,0.4141,-0.0409,rough,14.0,1,4.722
2990,95.68,-3.7920,6.1849,0.9510,-0.1398,0.4141,-0.0409,rough,14.0,1,4.722
3000,96.00,-3.7920,6.1849,0.9510,-0.1398,0.4141,-0.0409,rough,14.0,1,4.722
3010,96.32,-3.7920,6.1849,0.9510,-0.1398,0.4141,-0.0409,rough,14.0,1,4.722
3020,96.64,-3.7919,6.1850,0.9510,-0.1397,0.4141,-0.0409,rough,14.0,1,4.722
3030,96.96,-3.7919,6.1850,0.9510,-0.1397,0.4141,-0.0409,rough,14.0,1,4.722
3040,97.28,-3.7919,6.1850,0.9510,-0.1397,0.4142,-0.0409,rough,14.0,1,4.722
3050,97.60,-3.7919,6.1850,0.9510,-0.1397,0.4142,-0.0409,rough,14.0,1,4.722
3060,97.92,-3.7918,6.1851,0.9509,-0.1396,0.4142,-0.0409,rough,14.0,1,4.722
3070,98.24,-3.7918,6.1851,0.9509,-0.1396,0.4142,-0.0409,rough,14.0,1,4.722
3080,98.56,-3.7918,6.1851,0.9509,-0.1396,0.4142,-0.0409,rough,14.0,1,4.722
3090,98.88,-3.7918,6.1852,0.9509,-0.1395,0.4142,-0.0409,rough,14.0,1,4.722
3100,99.20,-3.7918,6.1852,0.9509,-0.1395,0.4142,-0.0409,rough,14.0,1,4.722
3110,99.52,-3.7917,6.1852,0.9509,-0.1395,0.4143,-0.0409,rough,14.0,1,4.722
3120,99.84,-3.7917,6.1852,0.9509,-0.1394,0.4143,-0.0409,rough,14.0,1,4.722
3130,100.16,-3.7917,6.1853,0.9509,-0.1394,0.4143,-0.0409,rough,14.0,1,4.722
3140,100.48,-3.7917,6.1853,0.9508,-0.1394,0.4143,-0.0409,rough,14.0,1,4.722
3150,100.80,-3.7916,6.1853,0.9508,-0.1394,0.4143,-0.0409,rough,14.0,1,4.722
3160,101.12,-3.7916,6.1854,0.9508,-0.1393,0.4144,-0.0409,rough,14.0,1,4.722
3170,101.44,-3.7916,6.1854,0.9508,-0.1393,0.4144,-0.0410,rough,14.0,1,4.722
3180,101.76,-3.7916,6.1854,0.9508,-0.1392,0.4145,-0.0410,rough,14.0,1,4.722
3190,102.08,-3.7916,6.1854,0.9508,-0.1392,0.4145,-0.0410,rough,14.0,1,4.722
3200,102.40,-3.7916,6.1855,0.9508,-0.1391,0.4146,-0.0410,rough,14.0,1,4.722
3210,102.72,-3.7916,6.1855,0.9508,-0.1391,0.4146,-0.0410,rough,14.0,1,4.722
3220,103.04,-3.7916,6.1855,0.9508,-0.1390,0.4147,-0.0410,rough,14.0,1,4.722
3230,103.36,-3.7920,6.1855,0.9510,-0.1386,0.4156,-0.0411,rough,14.0,1,4.722
3240,103.68,-3.7920,6.1856,0.9510,-0.1386,0.4156,-0.0412,rough,14.0,1,4.722
3250,104.00,-3.7920,6.1856,0.9510,-0.1386,0.4156,-0.0412,rough,14.0,1,4.722
3260,104.32,-3.7920,6.1856,0.9509,-0.1385,0.4157,-0.0413,rough,14.0,1,4.722
3270,104.64,-3.7919,6.1857,0.9509,-0.1385,0.4157,-0.0413,rough,14.0,1,4.722
3280,104.96,-3.7919,6.1857,0.9509,-0.1385,0.4157,-0.0413,rough,14.0,1,4.722
3290,105.28,-3.7919,6.1857,0.9509,-0.1384,0.4157,-0.0413,rough,14.0,1,4.722
3300,105.60,-3.7919,6.1857,0.9509,-0.1384,0.4157,-0.0413,rough,14.0,1,4.722
3310,105.92,-3.7919,6.1858,0.9509,-0.1384,0.4158,-0.0413,rough,14.0,1,4.722
3320,106.24,-3.7918,6.1858,0.9509,-0.1383,0.4158,-0.0413,rough,14.0,1,4.722
3330,106.56,-3.7918,6.1858,0.9509,-0.1383,0.4158,-0.0413,rough,14.0,1,4.722
3340,106.88,-3.7918,6.1858,0.9509,-0.1383,0.4158,-0.0413,rough,14.0,1,4.722
3350,107.20,-3.7918,6.1859,0.9508,-0.1382,0.4158,-0.0413,rough,14.0,1,4.722
3360,107.52,-3.7918,6.1859,0.9508,-0.1382,0.4159,-0.0413,rough,14.0,1,4.722
3370,107.84,-3.7917,6.1859,0.9508,-0.1382,0.4159,-0.0413,rough,14.0,1,4.722
3380,108.16,-3.7917,6.1859,0.9508,-0.1381,0.4159,-0.0413,rough,14.0,1,4.722
3390,108.48,-3.7917,6.1860,0.9508,-0.1381,0.4159,-0.0413,rough,14.0,1,4.722
3400,108.80,-3.7917,6.1860,0.9508,-0.1381,0.4159,-0.0413,rough,14.0,1,4.722
3410,109.12,-3.7917,6.1860,0.9508,-0.1380,0.4160,-0.0413,rough,14.0,1,4.722
3420,109.44,-3.7916,6.1860,0.9508,-0.1380,0.4160,-0.0414,rough,14.0,1,4.722
3430,109.76,-3.7916,6.1861,0.9508,-0.1380,0.4160,-0.0414,rough,14.0,1,4.722
3440,110.08,-3.7916,6.1861,0.9507,-0.1379,0.4160,-0.0414,rough,14.0,1,4.722
3450,110.40,-3.7916,6.1861,0.9507,-0.1379,0.4160,-0.0414,rough,14.0,1,4.722
3460,110.72,-3.7916,6.1862,0.9507,-0.1378,0.4161,-0.0414,rough,14.0,1,4.722
3470,111.04,-3.7916,6.1862,0.9507,-0.1378,0.4161,-0.0414,rough,14.0,1,4.722
3480,111.36,-3.7916,6.1862,0.9507,-0.1377,0.4162,-0.0414,rough,14.0,1,4.722
3490,111.68,-3.7916,6.1862,0.9507,-0.1377,0.4163,-0.0414,rough,14.0,1,4.722
3500,112.00,-3.7916,6.1863,0.9507,-0.1377,0.4163,-0.0414,rough,14.0,1,4.722
3510,112.32,-3.7916,6.1863,0.9507,-0.1376,0.4164,-0.0414,rough,14.0,1,4.722
3520,112.64,-3.7919,6.1863,0.9509,-0.1372,0.4172,-0.0414,rough,14.0,1,4.722
3530,112.96,-3.7921,6.1864,0.9509,-0.1370,0.4175,-0.0416,rough,14.0,1,4.723
3540,113.28,-3.7920,6.1864,0.9509,-0.1370,0.4176,-0.0417,rough,14.0,1,4.723
3550,113.60,-3.7920,6.1864,0.9509,-0.1370,0.4176,-0.0417,rough,14.0,1,4.723
3560,113.92,-3.7920,6.1864,0.9509,-0.1369,0.4177,-0.0418,rough,14.0,1,4.723
3570,114.24,-3.7920,6.1865,0.9509,-0.1369,0.4177,-0.0418,rough,14.0,1,4.723
3580,114.56,-3.7920,6.1865,0.9509,-0.1369,0.4177,-0.0418,rough,14.0,1,4.723
3590,114.88,-3.7919,6.1865,0.9509,-0.1368,0.4177,-0.0418,rough,14.0,1,4.723
3600,115.20,-3.7919,6.1865,0.9509,-0.1368,0.4178,-0.0418,rough,14.0,1,4.723
3610,115.52,-3.7919,6.1865,0.9508,-0.1367,0.4178,-0.0418,rough,14.0,1,4.723
3620,115.84,-3.7919,6.1866,0.9508,-0.1367,0.4178,-0.0418,rough,14.0,1,4.722
3630,116.16,-3.7919,6.1866,0.9508,-0.1367,0.4178,-0.0418,rough,14.0,1,4.722
3640,116.48,-3.7918,6.1866,0.9508,-0.1366,0.4179,-0.0418,rough,14.0,1,4.722
3650,116.80,-3.7918,6.1866,0.9508,-0.1366,0.4179,-0.0418,rough,14.0,1,4.722
3660,117.12,-3.7918,6.1866,0.9508,-0.1366,0.4179,-0.0418,rough,14.0,1,4.722
3670,117.44,-3.7918,6.1867,0.9508,-0.1365,0.4179,-0.0418,rough,14.0,1,4.722
3680,117.76,-3.7918,6.1867,0.9508,-0.1365,0.4180,-0.0418,rough,14.0,1,4.722
3690,118.08,-3.7917,6.1867,0.9508,-0.1365,0.4180,-0.0418,rough,14.0,1,4.722
3700,118.40,-3.7917,6.1867,0.9507,-0.1364,0.4180,-0.0419,rough,14.0,1,4.722
3710,118.72,-3.7917,6.1868,0.9507,-0.1364,0.4180,-0.0419,rough,14.0,1,4.722
3720,119.04,-3.7917,6.1868,0.9507,-0.1363,0.4180,-0.0419,rough,14.0,1,4.722
3730,119.36,-3.7917,6.1868,0.9507,-0.1363,0.4181,-0.0419,rough,14.0,1,4.722
3740,119.68,-3.7916,6.1868,0.9507,-0.1363,0.4181,-0.0419,rough,14.0,1,4.722
3750,120.00,-3.7916,6.1868,0.9507,-0.1362,0.4181,-0.0419,rough,14.0,1,4.722
3760,120.32,-3.7916,6.1869,0.9507,-0.1362,0.4181,-0.0419,rough,14.0,1,4.722
3770,120.64,-3.7916,6.1869,0.9507,-0.1362,0.4182,-0.0419,rough,14.0,1,4.722
3780,120.96,-3.7916,6.1869,0.9507,-0.1361,0.4182,-0.0419,rough,14.0,1,4.722
3790,121.28,-3.7915,6.1869,0.9507,-0.1361,0.4182,-0.0419,rough,14.0,1,4.722
3800,121.60,-3.7915,6.1870,0.9506,-0.1361,0.4182,-0.0419,rough,14.0,1,4.722
3810,121.92,-3.7915,6.1870,0.9506,-0.1360,0.4183,-0.0419,rough,14.0,1,4.722
3820,122.24,-3.7915,6.1870,0.9506,-0.1360,0.4183,-0.0419,rough,14.0,1,4.722
3830,122.56,-3.7915,6.1870,0.9506,-0.1360,0.4183,-0.0419,rough,14.0,1,4.722
3840,122.88,-3.7914,6.1871,0.9506,-0.1359,0.4183,-0.0419,rough,14.0,1,4.722
3850,123.20,-3.7914,6.1871,0.9506,-0.1359,0.4184,-0.0420,rough,14.0,1,4.722
3860,123.52,-3.7914,6.1871,0.9506,-0.1358,0.4184,-0.0420,rough,14.0,1,4.722
3870,123.84,-3.7914,6.1871,0.9506,-0.1358,0.4185,-0.0420,rough,14.0,1,4.722
3880,124.16,-3.7914,6.1872,0.9506,-0.1357,0.4186,-0.0420,rough,14.0,1,4.722
3890,124.48,-3.7914,6.1872,0.9506,-0.1357,0.4186,-0.0420,rough,14.0,1,4.722
3900,124.80,-3.7914,6.1872,0.9506,-0.1356,0.4187,-0.0420,rough,14.0,1,4.722
3910,125.12,-3.7920,6.1872,0.9508,-0.1351,0.4198,-0.0421,rough,14.0,1,4.723
3920,125.44,-3.7919,6.1873,0.9508,-0.1350,0.4199,-0.0422,rough,14.0,1,4.723
3930,125.76,-3.7919,6.1873,0.9508,-0.1350,0.4199,-0.0423,rough,14.0,1,4.723
3940,126.08,-3.7919,6.1873,0.9508,-0.1350,0.4200,-0.0423,rough,14.0,1,4.723
3950,126.40,-3.7919,6.1873,0.9508,-0.1349,0.4200,-0.0423,rough,14.0,1,4.723
3960,126.72,-3.7919,6.1874,0.9508,-0.1349,0.4200,-0.0423,rough,14.0,1,4.723
3970,127.04,-3.7918,6.1874,0.9507,-0.1348,0.4201,-0.0424,rough,14.0,1,4.723
3980,127.36,-3.7918,6.1874,0.9507,-0.1348,0.4201,-0.0424,rough,14.0,1,4.723
3990,127.68,-3.7918,6.1874,0.9507,-0.1348,0.4201,-0.0424,rough,14.0,1,4.723
4000,128.00,-3.7918,6.1874,0.9507,-0.1347,0.4201,-0.0424,rough,14.0,1,4.723
4010,128.32,-3.7918,6.1875,0.9507,-0.1347,0.4202,-0.0424,rough,14.0,1,4.723
4020,128.64,-3.7917,6.1875,0.9507,-0.1346,0.4202,-0.0424,rough,14.0,1,4.723
4030,128.96,-3.7917,6.1875,0.9507,-0.1346,0.4202,-0.0424,rough,14.0,1,4.723
4040,129.28,-3.7917,6.1875,0.9507,-0.1346,0.4203,-0.0424,rough,14.0,1,4.723
4050,129.60,-3.7917,6.1875,0.9507,-0.1345,0.4203,-0.0424,rough,14.0,1,4.723
4060,129.92,-3.7917,6.1876,0.9507,-0.1345,0.4203,-0.0424,rough,14.0,1,4.723
4070,130.24,-3.7917,6.1876,0.9506,-0.1344,0.4203,-0.0424,rough,14.0,1,4.722
4080,130.56,-3.7916,6.1876,0.9506,-0.1344,0.4204,-0.0424,rough,14.0,1,4.722
4090,130.88,-3.7916,6.1876,0.9506,-0.1344,0.4204,-0.0424,rough,14.0,1,4.722
4100,131.20,-3.7916,6.1876,0.9506,-0.1343,0.4204,-0.0425,rough,14.0,1,4.722
4110,131.52,-3.7916,6.1877,0.9506,-0.1343,0.4205,-0.0425,rough,14.0,1,4.722
4120,131.84,-3.7916,6.1877,0.9506,-0.1342,0.4205,-0.0425,rough,14.0,1,4.722
4130,132.16,-3.7915,6.1877,0.9506,-0.1342,0.4205,-0.0425,rough,14.0,1,4.722
4140,132.48,-3.7915,6.1877,0.9506,-0.1342,0.4205,-0.0425,rough,14.0,1,4.722
4150,132.80,-3.7915,6.1877,0.9506,-0.1341,0.4206,-0.0425,rough,14.0,1,4.722
4160,133.12,-3.7915,6.1878,0.9506,-0.1341,0.4206,-0.0425,rough,14.0,1,4.722
4170,133.44,-3.7915,6.1878,0.9505,-0.1340,0.4206,-0.0425,rough,14.0,1,4.722
4180,133.76,-3.7914,6.1878,0.9505,-0.1340,0.4207,-0.0425,rough,14.0,1,4.722
4190,134.08,-3.7914,6.1878,0.9505,-0.1340,0.4207,-0.0425,rough,14.0,1,4.722
4200,134.40,-3.7914,6.1879,0.9505,-0.1339,0.4207,-0.0425,rough,14.0,1,4.722
4210,134.72,-3.7914,6.1879,0.9505,-0.1339,0.4207,-0.0425,rough,14.0,1,4.722
4220,135.04,-3.7914,6.1879,0.9505,-0.1338,0.4208,-0.0425,rough,14.0,1,4.722
4230,135.36,-3.7913,6.1879,0.9505,-0.1338,0.4208,-0.0425,rough,14.0,1,4.722
4240,135.68,-3.7913,6.1879,0.9505,-0.1338,0.4208,-0.0426,rough,14.0,1,4.722
4250,136.00,-3.7913,6.1880,0.9505,-0.1337,0.4208,-0.0426,rough,14.0,1,4.722
4260,136.32,-3.7913,6.1880,0.9505,-0.1337,0.4209,-0.0426,rough,14.0,1,4.722
4270,136.64,-3.7913,6.1880,0.9505,-0.1336,0.4209,-0.0426,rough,14.0,1,4.722
4280,136.96,-3.7913,6.1880,0.9504,-0.1336,0.4210,-0.0426,rough,14.0,1,4.722
4290,137.28,-3.7913,6.1881,0.9504,-0.1335,0.4211,-0.0426,rough,14.0,1,4.722
4300,137.60,-3.7913,6.1881,0.9504,-0.1335,0.4211,-0.0426,rough,14.0,1,4.722
4310,137.92,-3.7913,6.1881,0.9504,-0.1334,0.4212,-0.0426,rough,14.0,1,4.722
4320,138.24,-3.7913,6.1881,0.9504,-0.1334,0.4212,-0.0426,rough,14.0,1,4.722
4330,138.56,-3.7918,6.1881,0.9506,-0.1328,0.4224,-0.0427,rough,14.0,1,4.723
4340,138.88,-3.7918,6.1882,0.9506,-0.1328,0.4225,-0.0429,rough,14.0,1,4.723
4350,139.20,-3.7918,6.1882,0.9506,-0.1328,0.4225,-0.0429,rough,14.0,1,4.723
4360,139.52,-3.7917,6.1882,0.9506,-0.1327,0.4225,-0.0429,rough,14.0,1,4.723
4370,139.84,-3.7917,6.1882,0.9506,-0.1327,0.4226,-0.0430,rough,14.0,1,4.723
4380,140.16,-3.7917,6.1883,0.9506,-0.1326,0.4226,-0.0430,rough,14.0,1,4.723
4390,140.48,-3.7917,6.1883,0.9506,-0.1326,0.4226,-0.0430,rough,14.0,1,4.723
4400,140.80,-3.7917,6.1883,0.9506,-0.1325,0.4227,-0.0430,rough,14.0,1,4.723
4410,141.12,-3.7917,6.1883,0.9506,-0.1325,0.4227,-0.0430,rough,14.0,1,4.723
4420,141.44,-3.7916,6.1883,0.9506,-0.1325,0.4227,-0.0430,rough,14.0,1,4.723
4430,141.76,-3.7916,6.1883,0.9506,-0.1324,0.4228,-0.0430,rough,14.0,1,4.723
4440,142.08,-3.7916,6.1884,0.9506,-0.1324,0.4228,-0.0430,rough,14.0,1,4.723
4450,142.40,-3.7916,6.1884,0.9505,-0.1323,0.4228,-0.0430,rough,14.0,1,4.723
4460,142.72,-3.7916,6.1884,0.9505,-0.1323,0.4229,-0.0430,rough,14.0,1,4.723
4470,143.04,-3.7915,6.1884,0.9505,-0.1322,0.4229,-0.0430,rough,14.0,1,4.723
4480,143.36,-3.7915,6.1884,0.9505,-0.1322,0.4229,-0.0431,rough,14.0,1,4.723
4490,143.68,-3.7915,6.1885,0.9505,-0.1321,0.4230,-0.0431,rough,14.0,1,4.723
4500,144.00,-3.7915,6.1885,0.9505,-0.1321,0.4230,-0.0431,rough,14.0,1,4.723
4510,144.32,-3.7915,6.1885,0.9505,-0.1321,0.4230,-0.0431,rough,14.0,1,4.723
4520,144.64,-3.7914,6.1885,0.9505,-0.1320,0.4231,-0.0431,rough,14.0,1,4.723
4530,144.96,-3.7914,6.1885,0.9505,-0.1320,0.4231,-0.0431,rough,14.0,1,4.723
4540,145.28,-3.7914,6.1885,0.9505,-0.1319,0.4231,-0.0431,rough,14.0,1,4.722
4550,145.60,-3.7914,6.1886,0.9504,-0.1319,0.4232,-0.0431,rough,14.0,1,4.722
4560,145.92,-3.7914,6.1886,0.9504,-0.1318,0.4232,-0.0431,rough,14.0,1,4.722
4570,146.24,-3.7914,6.1886,0.9504,-0.1318,0.4232,-0.0431,rough,14.0,1,4.722
4580,146.56,-3.7913,6.1886,0.9504,-0.1318,0.4233,-0.0431,rough,14.0,1,4.722
4590,146.88,-3.7913,6.1886,0.9504,-0.1317,0.4233,-0.0431,rough,14.0,1,4.722
4600,147.20,-3.7913,6.1887,0.9504,-0.1317,0.4233,-0.0432,rough,14.0,1,4.722
4610,147.52,-3.7913,6.1887,0.9504,-0.1316,0.4234,-0.0432,rough,14.0,1,4.722
4620,147.84,-3.7913,6.1887,0.9504,-0.1316,0.4234,-0.0432,rough,14.0,1,4.722
4630,148.16,-3.7912,6.1887,0.9504,-0.1315,0.4234,-0.0432,rough,14.0,1,4.722
4640,148.48,-3.7912,6.1887,0.9504,-0.1315,0.4235,-0.0432,rough,14.0,1,4.722
4650,148.80,-3.7912,6.1888,0.9504,-0.1315,0.4235,-0.0432,rough,14.0,1,4.722
4660,149.12,-3.7912,6.1888,0.9503,-0.1314,0.4235,-0.0432,rough,14.0,1,4.722
4670,149.44,-3.7912,6.1888,0.9503,-0.1314,0.4236,-0.0432,rough,14.0,1,4.722
4680,149.76,-3.7911,6.1888,0.9503,-0.1313,0.4236,-0.0432,rough,14.0,1,4.722
4690,150.08,-3.7911,6.1889,0.9503,-0.1313,0.4236,-0.0432,rough,14.0,1,4.722
4700,150.40,-3.7911,6.1889,0.9503,-0.1313,0.4236,-0.0432,rough,14.0,1,4.722
4710,150.72,-3.7911,6.1889,0.9503,-0.1312,0.4237,-0.0432,rough,14.0,1,4.722
4720,151.04,-3.7911,6.1889,0.9503,-0.1312,0.4237,-0.0432,rough,14.0,1,4.722
4730,151.36,-3.7911,6.1889,0.9503,-0.1311,0.4238,-0.0433,rough,14.0,1,4.722
4740,151.68,-3.7911,6.1890,0.9503,-0.1311,0.4238,-0.0433,rough,14.0,1,4.722
4750,152.00,-3.7911,6.1890,0.9503,-0.1310,0.4239,-0.0433,rough,14.0,1,4.722
4760,152.32,-3.7915,6.1890,0.9504,-0.1305,0.4249,-0.0433,rough,14.0,1,4.723
4770,152.64,-3.7915,6.1890,0.9504,-0.1305,0.4249,-0.0435,rough,14.0,1,4.723
4780,152.96,-3.7915,6.1891,0.9504,-0.1305,0.4250,-0.0435,rough,14.0,1,4.723
4790,153.28,-3.7914,6.1891,0.9504,-0.1304,0.4250,-0.0435,rough,14.0,1,4.723
4800,153.60,-3.7914,6.1891,0.9504,-0.1304,0.4250,-0.0435,rough,14.0,1,4.723
4810,153.92,-3.7914,6.1891,0.9504,-0.1303,0.4251,-0.0436,rough,14.0,1,4.723
4820,154.24,-3.7914,6.1891,0.9504,-0.1303,0.4251,-0.0436,rough,14.0,1,4.723
4830,154.56,-3.7914,6.1891,0.9504,-0.1302,0.4252,-0.0436,rough,14.0,1,4.723
4840,154.88,-3.7913,6.1892,0.9504,-0.1302,0.4252,-0.0436,rough,14.0,1,4.723
4850,155.20,-3.7913,6.1892,0.9504,-0.1301,0.4252,-0.0436,rough,14.0,1,4.723
4860,155.52,-3.7913,6.1892,0.9504,-0.1301,0.4253,-0.0436,rough,14.0,1,4.723
4870,155.84,-3.7913,6.1892,0.9504,-0.1301,0.4253,-0.0436,rough,14.0,1,4.723
4880,156.16,-3.7913,6.1892,0.9503,-0.1300,0.4253,-0.0436,rough,14.0,1,4.723
4890,156.48,-3.7913,6.1893,0.9503,-0.1300,0.4254,-0.0436,rough,14.0,1,4.723
4900,156.80,-3.7912,6.1893,0.9503,-0.1299,0.4254,-0.0436,rough,14.0,1,4.722
4910,157.12,-3.7912,6.1893,0.9503,-0.1299,0.4255,-0.0436,rough,14.0,1,4.722
4920,157.44,-3.7912,6.1893,0.9503,-0.1298,0.4255,-0.0437,rough,14.0,1,4.722
4930,157.76,-3.7912,6.1893,0.9503,-0.1298,0.4255,-0.0437,rough,14.0,1,4.722
4940,158.08,-3.7912,6.1893,0.9503,-0.1297,0.4256,-0.0437,rough,14.0,1,4.722
4950,158.40,-3.7911,6.1894,0.9503,-0.1297,0.4256,-0.0437,rough,14.0,1,4.722
4960,158.72,-3.7911,6.1894,0.9503,-0.1296,0.4256,-0.0437,rough,14.0,1,4.722
4970,159.04,-3.7911,6.1894,0.9503,-0.1296,0.4257,-0.0437,rough,14.0,1,4.722
4980,159.36,-3.7911,6.1894,0.9502,-0.1296,0.4257,-0.0437,rough,14.0,1,4.722
4990,159.68,-3.7911,6.1894,0.9502,-0.1295,0.4257,-0.0437,rough,14.0,1,4.722
5000,160.00,-3.7910,6.1895,0.9502,-0.1295,0.4258,-0.0437,rough,14.0,1,4.722
5010,160.32,-3.7910,6.1895,0.9502,-0.1294,0.4258,-0.0437,rough,14.0,1,4.722
5020,160.64,-3.7910,6.1895,0.9502,-0.1294,0.4258,-0.0437,rough,14.0,1,4.722
5030,160.96,-3.7910,6.1895,0.9502,-0.1293,0.4259,-0.0438,rough,14.0,1,4.722
5040,161.28,-3.7910,6.1895,0.9502,-0.1293,0.4259,-0.0438,rough,14.0,1,4.722
5050,161.60,-3.7910,6.1896,0.9502,-0.1292,0.4259,-0.0438,rough,14.0,1,4.722
5060,161.92,-3.7909,6.1896,0.9502,-0.1292,0.4260,-0.0438,rough,14.0,1,4.722
5070,162.24,-3.7909,6.1896,0.9502,-0.1292,0.4260,-0.0438,rough,14.0,1,4.722
5080,162.56,-3.7909,6.1896,0.9502,-0.1291,0.4261,-0.0438,rough,14.0,1,4.722
5090,162.88,-3.7909,6.1896,0.9501,-0.1291,0.4261,-0.0438,rough,14.0,1,4.722
5100,163.20,-3.7909,6.1897,0.9501,-0.1290,0.4262,-0.0438,rough,14.0,1,4.722
5110,163.52,-3.7909,6.1897,0.9501,-0.1289,0.4262,-0.0438,rough,14.0,1,4.722
5120,163.84,-3.7909,6.1897,0.9501,-0.1289,0.4263,-0.0438,rough,14.0,1,4.722
5130,164.16,-3.7909,6.1897,0.9501,-0.1288,0.4264,-0.0439,rough,14.0,1,4.722
5140,164.48,-3.7909,6.1897,0.9501,-0.1288,0.4264,-0.0439,rough,14.0,1,4.722
5150,164.80,-3.7914,6.1898,0.9503,-0.1282,0.4276,-0.0439,rough,14.0,1,4.723
5160,165.12,-3.7914,6.1898,0.9503,-0.1282,0.4276,-0.0441,rough,14.0,1,4.723
5170,165.44,-3.7914,6.1898,0.9503,-0.1281,0.4277,-0.0441,rough,14.0,1,4.723
5180,165.76,-3.7913,6.1898,0.9503,-0.1281,0.4278,-0.0442,rough,14.0,1,4.723
5190,166.08,-3.7913,6.1899,0.9503,-0.1280,0.4278,-0.0442,rough,14.0,1,4.723
5200,166.40,-3.7913,6.1899,0.9503,-0.1280,0.4278,-0.0442,rough,14.0,1,4.723
5210,166.72,-3.7913,6.1899,0.9503,-0.1279,0.4279,-0.0442,rough,14.0,1,4.723
5220,167.04,-3.7913,6.1899,0.9503,-0.1279,0.4279,-0.0442,rough,14.0,1,4.723
5230,167.36,-3.7913,6.1899,0.9503,-0.1278,0.4280,-0.0442,rough,14.0,1,4.723
5240,167.68,-3.7912,6.1899,0.9503,-0.1278,0.4280,-0.0442,rough,14.0,1,4.723
5250,168.00,-3.7912,6.1899,0.9503,-0.1277,0.4281,-0.0442,rough,14.0,1,4.723
5260,168.32,-3.7912,6.1900,0.9503,-0.1277,0.4281,-0.0443,rough,14.0,1,4.723
5270,168.64,-3.7912,6.1900,0.9502,-0.1276,0.4281,-0.0443,rough,14.0,1,4.723
5280,168.96,-3.7912,6.1900,0.9502,-0.1276,0.4282,-0.0443,rough,14.0,1,4.723
5290,169.28,-3.7912,6.1900,0.9502,-0.1275,0.4282,-0.0443,rough,14.0,1,4.723
5300,169.60,-3.7911,6.1900,0.9502,-0.1275,0.4283,-0.0443,rough,14.0,1,4.723
5310,169.92,-3.7911,6.1900,0.9502,-0.1274,0.4283,-0.0443,rough,14.0,1,4.723
5320,170.24,-3.7911,6.1900,0.9502,-0.1274,0.4283,-0.0443,rough,14.0,1,4.723
5330,170.56,-3.7911,6.1901,0.9502,-0.1273,0.4284,-0.0443,rough,14.0,1,4.723
5340,170.88,-3.7911,6.1901,0.9502,-0.1273,0.4284,-0.0443,rough,14.0,1,4.723
5350,171.20,-3.7910,6.1901,0.9502,-0.1272,0.4285,-0.0443,rough,14.0,1,4.722
5360,171.52,-3.7910,6.1901,0.9502,-0.1272,0.4285,-0.0444,rough,14.0,1,4.722
5370,171.84,-3.7910,6.1901,0.9502,-0.1272,0.4285,-0.0444,rough,14.0,1,4.722
5380,172.16,-3.7910,6.1901,0.9501,-0.1271,0.4286,-0.0444,rough,14.0,1,4.722
5390,172.48,-3.7910,6.1902,0.9501,-0.1271,0.4286,-0.0444,rough,14.0,1,4.722
5400,172.80,-3.7910,6.1902,0.9501,-0.1270,0.4287,-0.0444,rough,14.0,1,4.722
5410,173.12,-3.7909,6.1902,0.9501,-0.1270,0.4287,-0.0444,rough,14.0,1,4.722
5420,173.44,-3.7909,6.1902,0.9501,-0.1269,0.4287,-0.0444,rough,14.0,1,4.722
5430,173.76,-3.7909,6.1902,0.9501,-0.1269,0.4288,-0.0444,rough,14.0,1,4.722
5440,174.08,-3.7909,6.1903,0.9501,-0.1268,0.4288,-0.0444,rough,14.0,1,4.722
5450,174.40,-3.7908,6.1903,0.9501,-0.1266,0.4289,-0.0443,rough,14.0,1,4.722
5460,174.72,-3.7908,6.1903,0.9501,-0.1265,0.4289,-0.0443,rough,14.0,1,4.722
5470,175.04,-3.7908,6.1903,0.9501,-0.1265,0.4290,-0.0443,rough,14.0,1,4.722
5480,175.36,-3.7908,6.1903,0.9501,-0.1264,0.4290,-0.0443,rough,14.0,1,4.722
5490,175.68,-3.7907,6.1903,0.9500,-0.1263,0.4291,-0.0443,rough,14.0,1,4.722
5500,176.00,-3.7907,6.1904,0.9500,-0.1263,0.4291,-0.0443,rough,14.0,1,4.722
5510,176.32,-3.7907,6.1904,0.9500,-0.1262,0.4292,-0.0443,rough,14.0,1,4.722
5520,176.64,-3.7907,6.1904,0.9500,-0.1262,0.4292,-0.0444,rough,14.0,1,4.722
5530,176.96,-3.7906,6.1904,0.9500,-0.1261,0.4293,-0.0444,rough,14.0,1,4.722
5540,177.28,-3.7906,6.1905,0.9500,-0.1260,0.4293,-0.0444,rough,14.0,1,4.722
5550,177.60,-3.7906,6.1905,0.9500,-0.1260,0.4294,-0.0444,rough,14.0,1,4.722
5560,177.92,-3.7906,6.1905,0.9500,-0.1259,0.4295,-0.0444,rough,14.0,1,4.722
5570,178.24,-3.7906,6.1906,0.9500,-0.1258,0.4296,-0.0444,rough,14.0,1,4.722
5580,178.56,-3.7906,6.1906,0.9500,-0.1258,0.4296,-0.0444,rough,14.0,1,4.722
5590,178.88,-3.7909,6.1906,0.9501,-0.1254,0.4304,-0.0444,rough,14.0,1,4.722
5600,179.20,-3.7911,6.1906,0.9502,-0.1252,0.4309,-0.0446,rough,14.0,1,4.723
5610,179.52,-3.7910,6.1907,0.9502,-0.1251,0.4310,-0.0447,rough,14.0,1,4.723
5620,179.84,-3.7910,6.1907,0.9501,-0.1251,0.4311,-0.0447,rough,14.0,1,4.723
5630,180.16,-3.7910,6.1907,0.9501,-0.1250,0.4311,-0.0448,rough,14.0,1,4.723
5640,180.48,-3.7910,6.1907,0.9501,-0.1249,0.4312,-0.0448,rough,14.0,1,4.723
5650,180.80,-3.7910,6.1908,0.9501,-0.1249,0.4312,-0.0448,rough,14.0,1,4.723
5660,181.12,-3.7909,6.1908,0.9501,-0.1248,0.4313,-0.0448,rough,14.0,1,4.723
5670,181.44,-3.7909,6.1908,0.9501,-0.1248,0.4314,-0.0448,rough,14.0,1,4.723
5680,181.76,-3.7909,6.1908,0.9501,-0.1247,0.4314,-0.0448,rough,14.0,1,4.723
5690,182.08,-3.7909,6.1909,0.9501,-0.1246,0.4315,-0.0448,rough,14.0,1,4.722
5700,182.40,-3.7908,6.1909,0.9501,-0.1246,0.4315,-0.0449,rough,14.0,1,4.722
5710,182.72,-3.7908,6.1909,0.9500,-0.1245,0.4316,-0.0449,rough,14.0,1,4.722
5720,183.04,-3.7908,6.1909,0.9500,-0.1245,0.4316,-0.0449,rough,14.0,1,4.722
5730,183.36,-3.7908,6.1909,0.9500,-0.1244,0.4317,-0.0449,rough,14.0,1,4.722
5740,183.68,-3.7907,6.1910,0.9500,-0.1244,0.4317,-0.0449,rough,14.0,1,4.722
5750,184.00,-3.7907,6.1910,0.9500,-0.1243,0.4318,-0.0449,rough,14.0,1,4.722
5760,184.32,-3.7907,6.1910,0.9500,-0.1242,0.4318,-0.0449,rough,14.0,1,4.722
5770,184.64,-3.7907,6.1910,0.9500,-0.1242,0.4319,-0.0449,rough,14.0,1,4.722
5780,184.96,-3.7906,6.1911,0.9500,-0.1241,0.4319,-0.0450,rough,14.0,1,4.722
5790,185.28,-3.7906,6.1911,0.9500,-0.1241,0.4320,-0.0450,rough,14.0,1,4.722
5800,185.60,-3.7906,6.1911,0.9499,-0.1240,0.4320,-0.0450,rough,14.0,1,4.722
5810,185.92,-3.7906,6.1911,0.9499,-0.1240,0.4321,-0.0450,rough,14.0,1,4.722
5820,186.24,-3.7905,6.1912,0.9499,-0.1239,0.4321,-0.0450,rough,14.0,1,4.722
5830,186.56,-3.7905,6.1912,0.9499,-0.1239,0.4322,-0.0450,rough,14.0,1,4.722
5840,186.88,-3.7905,6.1912,0.9499,-0.1238,0.4322,-0.0450,rough,14.0,1,4.722
5850,187.20,-3.7905,6.1912,0.9499,-0.1237,0.4323,-0.0450,rough,14.0,1,4.722
5860,187.52,-3.7904,6.1913,0.9499,-0.1237,0.4323,-0.0451,rough,14.0,1,4.722
5870,187.84,-3.7904,6.1913,0.9499,-0.1236,0.4324,-0.0451,rough,14.0,1,4.722
5880,188.16,-3.7904,6.1913,0.9498,-0.1236,0.4324,-0.0451,rough,14.0,1,4.722
5890,188.48,-3.7904,6.1913,0.9498,-0.1235,0.4325,-0.0451,rough,14.0,1,4.722
5900,188.80,-3.7904,6.1914,0.9498,-0.1235,0.4325,-0.0451,rough,14.0,1,4.722
5910,189.12,-3.7903,6.1914,0.9498,-0.1234,0.4326,-0.0451,rough,14.0,1,4.722
5920,189.44,-3.7903,6.1914,0.9498,-0.1234,0.4326,-0.0451,rough,14.0,1,4.722
5930,189.76,-3.7903,6.1914,0.9498,-0.1233,0.4327,-0.0451,rough,14.0,1,4.722
5940,190.08,-3.7903,6.1915,0.9498,-0.1232,0.4328,-0.0452,rough,14.0,1,4.722
5950,190.40,-3.7903,6.1915,0.9498,-0.1232,0.4329,-0.0452,rough,14.0,1,4.722
5960,190.72,-3.7903,6.1915,0.9498,-0.1231,0.4330,-0.0452,rough,14.0,1,4.722
5970,191.04,-3.7908,6.1915,0.9500,-0.1226,0.4341,-0.0452,rough,14.0,1,4.723
5980,191.36,-3.7907,6.1916,0.9500,-0.1225,0.4342,-0.0454,rough,14.0,1,4.723
5990,191.68,-3.7907,6.1916,0.9500,-0.1225,0.4342,-0.0454,rough,14.0,1,4.723
6000,192.00,-3.7907,6.1916,0.9500,-0.1224,0.4343,-0.0455,rough,14.0,1,4.723
6010,192.32,-3.7907,6.1917,0.9499,-0.1224,0.4343,-0.0455,rough,14.0,1,4.723
6020,192.64,-3.7907,6.1917,0.9499,-0.1223,0.4344,-0.0455,rough,14.0,1,4.722
6030,192.96,-3.7906,6.1917,0.9499,-0.1223,0.4344,-0.0455,rough,14.0,1,4.722
6040,193.28,-3.7906,6.1917,0.9499,-0.1222,0.4345,-0.0455,rough,14.0,1,4.722
6050,193.60,-3.7906,6.1918,0.9499,-0.1221,0.4345,-0.0455,rough,14.0,1,4.722
6060,193.92,-3.7906,6.1918,0.9499,-0.1221,0.4346,-0.0455,rough,14.0,1,4.722
6070,194.24,-3.7905,6.1918,0.9499,-0.1220,0.4346,-0.0456,rough,14.0,1,4.722
6080,194.56,-3.7905,6.1918,0.9499,-0.1220,0.4347,-0.0456,rough,14.0,1,4.722
6090,194.88,-3.7905,6.1918,0.9499,-0.1219,0.4347,-0.0456,rough,14.0,1,4.722
6100,195.20,-3.7905,6.1919,0.9498,-0.1219,0.4348,-0.0456,rough,14.0,1,4.722
6110,195.52,-3.7904,6.1919,0.9498,-0.1218,0.4348,-0.0456,rough,14.0,1,4.722
6120,195.84,-3.7904,6.1919,0.9498,-0.1218,0.4349,-0.0456,rough,14.0,1,4.722
6130,196.16,-3.7904,6.1919,0.9498,-0.1217,0.4349,-0.0456,rough,14.0,1,4.722
6140,196.48,-3.7904,6.1920,0.9498,-0.1217,0.4350,-0.0456,rough,14.0,1,4.722
6150,196.80,-3.7903,6.1920,0.9498,-0.1216,0.4350,-0.0456,rough,14.0,1,4.722
6160,197.12,-3.7903,6.1920,0.9498,-0.1215,0.4351,-0.0457,rough,14.0,1,4.722
6170,197.44,-3.7903,6.1920,0.9498,-0.1215,0.4351,-0.0457,rough,14.0,1,4.722
6180,197.76,-3.7903,6.1921,0.9498,-0.1214,0.4352,-0.0457,rough,14.0,1,4.722
6190,198.08,-3.7903,6.1921,0.9497,-0.1214,0.4352,-0.0457,rough,14.0,1,4.722
6200,198.40,-3.7902,6.1921,0.9497,-0.1213,0.4353,-0.0457,rough,14.0,1,4.722
6210,198.72,-3.7902,6.1921,0.9497,-0.1213,0.4353,-0.0457,rough,14.0,1,4.722
6220,199.04,-3.7902,6.1922,0.9497,-0.1212,0.4354,-0.0457,rough,14.0,1,4.722
6230,199.36,-3.7902,6.1922,0.9497,-0.1212,0.4354,-0.0457,rough,14.0,1,4.722
6240,199.68,-3.7901,6.1922,0.9497,-0.1211,0.4355,-0.0457,rough,14.0,1,4.722
6250,200.00,-3.7901,6.1922,0.9497,-0.1211,0.4355,-0.0458,rough,14.0,1,4.722
6260,200.32,-3.7901,6.1923,0.9497,-0.1210,0.4356,-0.0458,rough,14.0,1,4.722
6270,200.64,-3.7901,6.1923,0.9496,-0.1210,0.4356,-0.0458,rough,14.0,1,4.722
6280,200.96,-3.7900,6.1923,0.9496,-0.1209,0.4357,-0.0458,rough,14.0,1,4.722
6290,201.28,-3.7900,6.1923,0.9496,-0.1208,0.4357,-0.0458,rough,14.0,1,4.722
6300,201.60,-3.7900,6.1924,0.9496,-0.1208,0.4358,-0.0458,rough,14.0,1,4.722
6310,201.92,-3.7900,6.1924,0.9496,-0.1207,0.4359,-0.0458,rough,14.0,1,4.722
6320,202.24,-3.7900,6.1924,0.9496,-0.1207,0.4360,-0.0458,rough,14.0,1,4.722
6330,202.56,-3.7904,6.1924,0.9498,-0.1202,0.4369,-0.0459,rough,14.0,1,4.722
6340,202.88,-3.7904,6.1925,0.9498,-0.1202,0.4370,-0.0460,rough,14.0,1,4.722
6350,203.20,-3.7904,6.1925,0.9498,-0.1201,0.4371,-0.0461,rough,14.0,1,4.722
6360,203.52,-3.7904,6.1925,0.9498,-0.1201,0.4371,-0.0461,rough,14.0,1,4.722
6370,203.84,-3.7903,6.1926,0.9497,-0.1200,0.4372,-0.0461,rough,14.0,1,4.722
6380,204.16,-3.7903,6.1926,0.9497,-0.1199,0.4372,-0.0461,rough,14.0,1,4.722
6390,204.48,-3.7903,6.1926,0.9497,-0.1199,0.4373,-0.0461,rough,14.0,1,4.722
6400,204.80,-3.7903,6.1926,0.9497,-0.1198,0.4373,-0.0461,rough,14.0,1,4.722
6410,205.12,-3.7903,6.1926,0.9497,-0.1198,0.4374,-0.0461,rough,14.0,1,4.722
6420,205.44,-3.7902,6.1927,0.9497,-0.1197,0.4374,-0.0462,rough,14.0,1,4.722
6430,205.76,-3.7902,6.1927,0.9497,-0.1197,0.4375,-0.0462,rough,14.0,1,4.722
6440,206.08,-3.7902,6.1927,0.9497,-0.1196,0.4375,-0.0462,rough,14.0,1,4.722
6450,206.40,-3.7902,6.1927,0.9497,-0.1196,0.4376,-0.0462,rough,14.0,1,4.722
6460,206.72,-3.7901,6.1928,0.9497,-0.1195,0.4376,-0.0462,rough,14.0,1,4.722
6470,207.04,-3.7901,6.1928,0.9496,-0.1195,0.4377,-0.0462,rough,14.0,1,4.722
6480,207.36,-3.7901,6.1928,0.9496,-0.1194,0.4377,-0.0462,rough,14.0,1,4.722
6490,207.68,-3.7901,6.1928,0.9496,-0.1194,0.4378,-0.0462,rough,14.0,1,4.722
6500,208.00,-3.7901,6.1929,0.9496,-0.1193,0.4378,-0.0462,rough,14.0,1,4.722
6510,208.32,-3.7900,6.1929,0.9496,-0.1193,0.4378,-0.0463,rough,14.0,1,4.722
6520,208.64,-3.7900,6.1929,0.9496,-0.1192,0.4379,-0.0463,rough,14.0,1,4.722
6530,208.96,-3.7900,6.1929,0.9496,-0.1192,0.4379,-0.0463,rough,14.0,1,4.722
6540,209.28,-3.7900,6.1930,0.9496,-0.1191,0.4380,-0.0463,rough,14.0,1,4.722
6550,209.60,-3.7899,6.1930,0.9496,-0.1191,0.4380,-0.0463,rough,14.0,1,4.722
6560,209.92,-3.7899,6.1930,0.9495,-0.1190,0.4381,-0.0463,rough,14.0,1,4.722
6570,210.24,-3.7899,6.1930,0.9495,-0.1190,0.4381,-0.0463,rough,14.0,1,4.722
6580,210.56,-3.7899,6.1931,0.9495,-0.1189,0.4382,-0.0463,rough,14.0,1,4.722
6590,210.88,-3.7899,6.1931,0.9495,-0.1188,0.4382,-0.0463,rough,14.0,1,4.722
6600,211.20,-3.7898,6.1931,0.9495,-0.1188,0.4383,-0.0463,rough,14.0,1,4.722
6610,211.52,-3.7898,6.1931,0.9495,-0.1187,0.4383,-0.0464,rough,14.0,1,4.722
6620,211.84,-3.7898,6.1932,0.9495,-0.1187,0.4384,-0.0464,rough,14.0,1,4.722
6630,212.16,-3.7898,6.1932,0.9495,-0.1186,0.4385,-0.0464,rough,14.0,1,4.722
6640,212.48,-3.7898,6.1932,0.9495,-0.1186,0.4385,-0.0464,rough,14.0,1,4.722
6650,212.80,-3.7902,6.1932,0.9497,-0.1181,0.4396,-0.0464,rough,14.0,1,4.722
6660,213.12,-3.7903,6.1933,0.9497,-0.1180,0.4397,-0.0466,rough,14.0,1,4.722
6670,213.44,-3.7902,6.1933,0.9497,-0.1180,0.4398,-0.0466,rough,14.0,1,4.722
6680,213.76,-3.7902,6.1933,0.9496,-0.1179,0.4398,-0.0467,rough,14.0,1,4.722
6690,214.08,-3.7902,6.1933,0.9496,-0.1179,0.4399,-0.0467,rough,14.0,1,4.722
6700,214.40,-3.7902,6.1934,0.9496,-0.1178,0.4399,-0.0467,rough,14.0,1,4.722
6710,214.72,-3.7902,6.1934,0.9496,-0.1178,0.4400,-0.0467,rough,14.0,1,4.722
6720,215.04,-3.7901,6.1934,0.9496,-0.1177,0.4400,-0.0467,rough,14.0,1,4.722
6730,215.36,-3.7901,6.1934,0.9496,-0.1177,0.4401,-0.0467,rough,14.0,1,4.722
6740,215.68,-3.7901,6.1935,0.9496,-0.1176,0.4401,-0.0467,rough,14.0,1,4.722
6750,216.00,-3.7901,6.1935,0.9496,-0.1175,0.4402,-0.0467,rough,14.0,1,4.722
6760,216.32,-3.7900,6.1935,0.9496,-0.1175,0.4402,-0.0467,rough,14.0,1,4.722
6770,216.64,-3.7900,6.1935,0.9495,-0.1174,0.4403,-0.0468,rough,14.0,1,4.722
6780,216.96,-3.7900,6.1935,0.9495,-0.1174,0.4403,-0.0468,rough,14.0,1,4.722
6790,217.28,-3.7900,6.1936,0.9495,-0.1173,0.4404,-0.0468,rough,14.0,1,4.722
6800,217.60,-3.7900,6.1936,0.9495,-0.1173,0.4404,-0.0468,rough,14.0,1,4.722
6810,217.92,-3.7899,6.1936,0.9495,-0.1172,0.4404,-0.0468,rough,14.0,1,4.722
6820,218.24,-3.7899,6.1936,0.9495,-0.1172,0.4405,-0.0468,rough,14.0,1,4.722
6830,218.56,-3.7899,6.1937,0.9495,-0.1171,0.4405,-0.0468,rough,14.0,1,4.722
6840,218.88,-3.7899,6.1937,0.9495,-0.1171,0.4406,-0.0468,rough,14.0,1,4.722
6850,219.20,-3.7899,6.1937,0.9495,-0.1170,0.4406,-0.0468,rough,14.0,1,4.722
6860,219.52,-3.7898,6.1937,0.9495,-0.1170,0.4407,-0.0468,rough,14.0,1,4.722
6870,219.84,-3.7898,6.1938,0.9494,-0.1169,0.4407,-0.0469,rough,14.0,1,4.722
6880,220.16,-3.7898,6.1938,0.9494,-0.1169,0.4408,-0.0469,rough,14.0,1,4.722
6890,220.48,-3.7898,6.1938,0.9494,-0.1168,0.4408,-0.0469,rough,14.0,1,4.722
6900,220.80,-3.7897,6.1938,0.9494,-0.1168,0.4409,-0.0469,rough,14.0,1,4.722
6910,221.12,-3.7897,6.1939,0.9494,-0.1167,0.4409,-0.0469,rough,14.0,1,4.722
6920,221.44,-3.7897,6.1939,0.9494,-0.1167,0.4409,-0.0469,rough,14.0,1,4.722
6930,221.76,-3.7897,6.1939,0.9494,-0.1166,0.4410,-0.0469,rough,14.0,1,4.722
6940,222.08,-3.7897,6.1939,0.9494,-0.1166,0.4410,-0.0469,rough,14.0,1,4.722
6950,222.40,-3.7896,6.1940,0.9494,-0.1165,0.4411,-0.0469,rough,14.0,1,4.722
6960,222.72,-3.7896,6.1940,0.9493,-0.1165,0.4411,-0.0469,rough,14.0,1,4.722
6970,223.04,-3.7896,6.1940,0.9493,-0.1164,0.4412,-0.0470,rough,14.0,1,4.722
6980,223.36,-3.7896,6.1940,0.9493,-0.1164,0.4412,-0.0470,rough,14.0,1,4.722
6990,223.68,-3.7896,6.1941,0.9493,-0.1163,0.4413,-0.0470,rough,14.0,1,4.722
7000,224.00,-3.7895,6.1941,0.9493,-0.1163,0.4413,-0.0470,rough,14.0,1,4.722
7010,224.32,-3.7895,6.1941,0.9493,-0.1162,0.4414,-0.0470,rough,14.0,1,4.722
7020,224.64,-3.7895,6.1941,0.9493,-0.1162,0.4415,-0.0470,rough,14.0,1,4.722
7030,224.96,-3.7900,6.1942,0.9495,-0.1156,0.4426,-0.0471,rough,14.0,1,4.722
7040,225.28,-3.7900,6.1942,0.9495,-0.1156,0.4427,-0.0472,rough,14.0,1,4.722
7050,225.60,-3.7900,6.1942,0.9495,-0.1156,0.4428,-0.0472,rough,14.0,1,4.722
7060,225.92,-3.7900,6.1942,0.9495,-0.1155,0.4428,-0.0473,rough,14.0,1,4.722
7070,226.24,-3.7900,6.1943,0.9495,-0.1155,0.4429,-0.0473,rough,14.0,1,4.722
7080,226.56,-3.7900,6.1943,0.9495,-0.1154,0.4429,-0.0473,rough,14.0,1,4.722
7090,226.88,-3.7899,6.1943,0.9495,-0.1154,0.4430,-0.0473,rough,14.0,1,4.722
7100,227.20,-3.7899,6.1943,0.9494,-0.1153,0.4430,-0.0473,rough,14.0,1,4.722
7110,227.52,-3.7899,6.1943,0.9494,-0.1153,0.4430,-0.0473,rough,14.0,1,4.722
7120,227.84,-3.7899,6.1944,0.9494,-0.1152,0.4431,-0.0473,rough,14.0,1,4.722
7130,228.16,-3.7898,6.1944,0.9494,-0.1152,0.4431,-0.0473,rough,14.0,1,4.722
7140,228.48,-3.7898,6.1944,0.9494,-0.1151,0.4432,-0.0474,rough,14.0,1,4.722
7150,228.80,-3.7898,6.1944,0.9494,-0.1151,0.4432,-0.0474,rough,14.0,1,4.722
7160,229.12,-3.7898,6.1945,0.9494,-0.1150,0.4433,-0.0474,rough,14.0,1,4.722
7170,229.44,-3.7898,6.1945,0.9494,-0.1150,0.4433,-0.0474,rough,14.0,1,4.722
7180,229.76,-3.7897,6.1945,0.9494,-0.1149,0.4434,-0.0474,rough,14.0,1,4.722
7190,230.08,-3.7897,6.1945,0.9494,-0.1149,0.4434,-0.0474,rough,14.0,1,4.722
7200,230.40,-3.7897,6.1945,0.9493,-0.1148,0.4434,-0.0474,rough,14.0,1,4.722
7210,230.72,-3.7897,6.1946,0.9493,-0.1148,0.4435,-0.0474,rough,14.0,1,4.722
7220,231.04,-3.7896,6.1946,0.9493,-0.1148,0.4434,-0.0474,rough,14.0,1,4.722
7230,231.36,-3.7896,6.1946,0.9493,-0.1147,0.4435,-0.0474,rough,14.0,1,4.722
7240,231.68,-3.7896,6.1946,0.9493,-0.1147,0.4435,-0.0474,rough,14.0,1,4.722
7250,232.00,-3.7895,6.1947,0.9493,-0.1146,0.4435,-0.0474,rough,14.0,1,4.722
7260,232.32,-3.7895,6.1947,0.9492,-0.1146,0.4435,-0.0474,rough,14.0,1,4.722
7270,232.64,-3.7894,6.1947,0.9492,-0.1146,0.4435,-0.0474,rough,14.0,1,4.722
7280,232.96,-3.7894,6.1947,0.9492,-0.1145,0.4436,-0.0474,rough,14.0,1,4.722
7290,233.28,-3.7894,6.1948,0.9492,-0.1145,0.4436,-0.0474,rough,14.0,1,4.722
7300,233.60,-3.7894,6.1948,0.9492,-0.1145,0.4436,-0.0474,rough,14.0,1,4.722
7310,233.92,-3.7893,6.1948,0.9492,-0.1144,0.4436,-0.0474,rough,14.0,1,4.722
7320,234.24,-3.7893,6.1948,0.9492,-0.1143,0.4437,-0.0475,rough,14.0,1,4.722
7330,234.56,-3.7893,6.1949,0.9492,-0.1143,0.4438,-0.0475,rough,14.0,1,4.722
7340,234.88,-3.7893,6.1949,0.9492,-0.1142,0.4438,-0.0475,rough,14.0,1,4.722
7350,235.20,-3.7893,6.1949,0.9492,-0.1142,0.4439,-0.0475,rough,14.0,1,4.722
7360,235.52,-3.7893,6.1949,0.9491,-0.1141,0.4440,-0.0475,rough,14.0,1,4.722
7370,235.84,-3.7893,6.1950,0.9491,-0.1141,0.4441,-0.0475,rough,14.0,1,4.722
7380,236.16,-3.7893,6.1950,0.9491,-0.1140,0.4441,-0.0475,rough,14.0,1,4.722
7390,236.48,-3.7893,6.1950,0.9491,-0.1139,0.4442,-0.0475,rough,14.0,1,4.722
7400,236.80,-3.7893,6.1950,0.9491,-0.1139,0.4443,-0.0476,rough,14.0,1,4.722
7410,237.12,-3.7897,6.1950,0.9493,-0.1135,0.4452,-0.0476,rough,14.0,1,4.722
7420,237.44,-3.7898,6.1951,0.9493,-0.1134,0.4454,-0.0477,rough,14.0,1,4.722
7430,237.76,-3.7897,6.1951,0.9493,-0.1133,0.4455,-0.0478,rough,14.0,1,4.722
7440,238.08,-3.7897,6.1951,0.9493,-0.1133,0.4455,-0.0478,rough,14.0,1,4.722
7450,238.40,-3.7897,6.1951,0.9493,-0.1133,0.4455,-0.0478,rough,14.0,1,4.722
7460,238.72,-3.7897,6.1952,0.9493,-0.1133,0.4456,-0.0478,rough,14.0,1,4.722
7470,239.04,-3.7897,6.1952,0.9493,-0.1133,0.4456,-0.0478,rough,14.0,1,4.722
7480,239.36,-3.7897,6.1952,0.9493,-0.1133,0.4456,-0.0478,rough,14.0,1,4.722
7490,239.68,-3.7897,6.1952,0.9493,-0.1133,0.4456,-0.0479,rough,14.0,1,4.722
7500,240.00,-3.7896,6.1952,0.9492,-0.1133,0.4457,-0.0479,rough,14.0,1,4.722
7510,240.32,-3.7896,6.1952,0.9492,-0.1132,0.4457,-0.0479,rough,14.0,1,4.722
7520,240.64,-3.7896,6.1952,0.9492,-0.1132,0.4457,-0.0479,rough,14.0,1,4.722
7530,240.96,-3.7896,6.1952,0.9492,-0.1132,0.4457,-0.0479,rough,14.0,1,4.722
7540,241.28,-3.7896,6.1952,0.9492,-0.1132,0.4458,-0.0479,rough,14.0,1,4.722
7550,241.60,-3.7896,6.1952,0.9492,-0.1132,0.4458,-0.0479,rough,14.0,1,4.722
7560,241.92,-3.7896,6.1952,0.9492,-0.1132,0.4458,-0.0479,rough,14.0,1,4.722
7570,242.24,-3.7896,6.1952,0.9492,-0.1132,0.4458,-0.0479,rough,14.0,1,4.722
7580,242.56,-3.7896,6.1953,0.9492,-0.1131,0.4458,-0.0479,rough,14.0,1,4.722
7590,242.88,-3.7896,6.1953,0.9492,-0.1131,0.4459,-0.0479,rough,14.0,1,4.722
7600,243.20,-3.7896,6.1953,0.9492,-0.1131,0.4459,-0.0479,rough,14.0,1,4.722
7610,243.52,-3.7896,6.1953,0.9492,-0.1131,0.4459,-0.0479,rough,14.0,1,4.722
7620,243.84,-3.7895,6.1953,0.9492,-0.1131,0.4459,-0.0479,rough,14.0,1,4.722
7630,244.16,-3.7895,6.1953,0.9492,-0.1131,0.4459,-0.0479,rough,14.0,1,4.722
7640,244.48,-3.7895,6.1953,0.9492,-0.1131,0.4460,-0.0479,rough,14.0,1,4.722
7650,244.80,-3.7895,6.1953,0.9492,-0.1131,0.4460,-0.0479,rough,14.0,1,4.722
7660,245.12,-3.7895,6.1953,0.9492,-0.1131,0.4460,-0.0479,rough,14.0,1,4.722
7670,245.44,-3.7895,6.1953,0.9492,-0.1130,0.4460,-0.0479,rough,14.0,1,4.722
7680,245.76,-3.7895,6.1953,0.9492,-0.1130,0.4460,-0.0479,rough,14.0,1,4.722
7690,246.08,-3.7895,6.1953,0.9492,-0.1130,0.4461,-0.0480,rough,14.0,1,4.722
7700,246.40,-3.7895,6.1953,0.9492,-0.1130,0.4461,-0.0480,rough,14.0,1,4.722
7710,246.72,-3.7895,6.1953,0.9492,-0.1130,0.4461,-0.0480,rough,14.0,1,4.722
7720,247.04,-3.7895,6.1953,0.9492,-0.1130,0.4461,-0.0480,rough,14.0,1,4.722
7730,247.36,-3.7895,6.1952,0.9492,-0.1130,0.4461,-0.0480,rough,14.0,1,4.722
7740,247.68,-3.7895,6.1952,0.9492,-0.1130,0.4461,-0.0480,rough,14.0,1,4.722
7750,248.00,-3.7895,6.1952,0.9492,-0.1130,0.4462,-0.0480,rough,14.0,1,4.722
7760,248.32,-3.7895,6.1952,0.9492,-0.1130,0.4462,-0.0480,rough,14.0,1,4.722
7770,248.64,-3.7895,6.1952,0.9492,-0.1130,0.4462,-0.0480,rough,14.0,1,4.722
7780,248.96,-3.7895,6.1952,0.9492,-0.1130,0.4462,-0.0480,rough,14.0,1,4.722
7790,249.28,-3.7895,6.1952,0.9492,-0.1130,0.4462,-0.0480,rough,14.0,1,4.722
7800,249.60,-3.7895,6.1952,0.9492,-0.1129,0.4462,-0.0480,rough,14.0,1,4.722
7810,249.92,-3.7895,6.1952,0.9492,-0.1129,0.4462,-0.0480,rough,14.0,1,4.722
7820,250.24,-3.7895,6.1952,0.9492,-0.1129,0.4463,-0.0480,rough,14.0,1,4.722
7830,250.56,-3.7895,6.1952,0.9492,-0.1129,0.4463,-0.0480,rough,14.0,1,4.722
7840,250.88,-3.7895,6.1952,0.9492,-0.1129,0.4463,-0.0480,rough,14.0,1,4.722
7850,251.20,-3.7895,6.1952,0.9492,-0.1129,0.4463,-0.0480,rough,14.0,1,4.722
7860,251.52,-3.7895,6.1952,0.9492,-0.1129,0.4463,-0.0480,rough,14.0,1,4.722
7870,251.84,-3.7895,6.1952,0.9492,-0.1129,0.4463,-0.0480,rough,14.0,1,4.722
7880,252.16,-3.7895,6.1952,0.9492,-0.1129,0.4463,-0.0480,rough,14.0,1,4.722
7890,252.48,-3.7895,6.1951,0.9492,-0.1129,0.4463,-0.0480,rough,14.0,1,4.722
7900,252.80,-3.7895,6.1951,0.9492,-0.1129,0.4464,-0.0480,rough,14.0,1,4.722
7910,253.12,-3.7895,6.1951,0.9492,-0.1129,0.4464,-0.0480,rough,14.0,1,4.722
7920,253.44,-3.7895,6.1951,0.9492,-0.1129,0.4464,-0.0480,rough,14.0,1,4.722
7930,253.76,-3.7895,6.1951,0.9492,-0.1129,0.4464,-0.0480,rough,14.0,1,4.722
7940,254.08,-3.7895,6.1951,0.9492,-0.1129,0.4464,-0.0480,rough,14.0,1,4.722
