step,time_s,x,y,z,roll,pitch,yaw,terrain,speed,target_idx,dist_to_target
10,0.32,0.0961,-0.0669,0.2007,0.0393,-0.0496,0.0026,rough,14.0,0,5.318
20,0.64,0.4656,-0.0792,0.2193,0.0204,-0.0882,-0.0577,rough,14.0,0,5.028
30,0.96,0.8698,-0.1330,0.2417,0.0736,-0.0884,-0.1356,rough,14.0,0,4.694
40,1.28,1.2960,-0.2190,0.2521,0.1136,0.0122,-0.2118,rough,14.0,0,4.335
50,1.60,1.7127,-0.3427,0.2311,0.1130,0.0675,-0.3161,rough,14.0,0,3.968
60,1.92,2.1033,-0.5058,0.2025,0.1183,0.0581,-0.4243,rough,14.0,0,3.599
70,2.24,2.4645,-0.6877,0.1922,0.1526,-0.0343,-0.5021,rough,14.0,0,3.244
80,2.56,2.8557,-0.9279,0.1689,0.2056,0.2292,-0.5269,rough,14.0,0,2.836
90,2.88,3.1991,-1.1664,0.0784,0.1581,0.1654,-0.6285,rough,14.0,0,2.468
100,3.20,3.5626,-1.4424,-0.0463,0.0332,0.3961,-0.7174,rough,14.0,0,2.076
110,3.52,3.8143,-1.6666,-0.1004,-0.0511,0.0247,-0.8398,rough,14.0,0,1.790
120,3.84,4.0823,-1.9845,-0.1401,-0.1323,0.0641,-0.9257,rough,14.0,0,1.430
130,4.16,4.3305,-2.3339,-0.1751,-0.1442,0.1937,-1.0344,rough,14.0,0,1.077
140,4.48,4.5368,-2.7135,-0.2552,-0.1358,0.2163,-1.2033,rough,14.0,1,7.704
150,4.80,4.6225,-3.1032,-0.3192,0.1073,0.2870,-1.3251,rough,14.0,1,7.484
160,5.12,4.6557,-3.4203,-0.3578,0.1466,0.0098,-1.5316,rough,14.0,1,7.290
170,5.44,4.5825,-3.8187,-0.4139,0.3520,0.0683,-1.7133,rough,14.0,1,6.971
180,5.76,4.4677,-4.2228,-0.4539,0.3764,0.1020,-1.8407,rough,14.0,1,6.625
190,6.08,4.3152,-4.6092,-0.4909,0.3684,0.0813,-1.9690,rough,14.0,1,6.268
200,6.40,4.1279,-4.9782,-0.5280,0.3072,0.0232,-2.0955,rough,14.0,1,5.900
210,6.72,3.9098,-5.3320,-0.5420,0.2343,-0.0180,-2.1734,rough,14.0,1,5.521
220,7.04,3.6609,-5.6429,-0.5077,0.2679,-0.1431,-2.2570,rough,14.0,1,5.144
230,7.36,3.3985,-5.9005,-0.4230,0.3440,-0.3599,-2.3740,rough,14.0,1,4.786
240,7.68,3.1268,-6.0762,-0.3039,0.3968,-0.4410,-2.5862,rough,14.0,1,4.463
250,8.00,2.8254,-6.1723,-0.1804,0.5596,-0.6851,-2.7028,rough,14.0,1,4.155
260,8.32,2.5672,-6.2132,-0.0412,0.5847,-0.6043,-2.9099,rough,14.0,1,3.916
270,8.64,2.2967,-6.1456,0.0159,0.5657,-0.5505,-2.8897,rough,14.0,1,3.732
280,8.96,2.0756,-6.0394,0.0310,0.3501,-0.7074,-2.6132,rough,14.0,1,3.623
290,9.28,1.8502,-5.9868,0.0837,0.0030,-0.6928,-2.3709,rough,14.0,1,3.488
300,9.60,1.6066,-5.9701,0.1763,0.1042,-0.6167,-2.2711,rough,14.0,1,3.325
310,9.92,1.4974,-6.0622,0.2775,-0.1845,-0.6595,-1.7433,rough,14.0,1,3.183
320,10.24,1.5098,-6.2760,0.4105,-0.3126,-0.6773,-1.5931,rough,14.0,1,3.041
330,10.56,1.5133,-6.4999,0.5922,-0.3081,-0.7134,-1.5443,rough,14.0,1,2.896
340,10.88,1.5350,-6.6898,0.7411,-0.4018,-0.7128,-1.4948,rough,14.0,1,2.796
350,11.20,1.6251,-6.8491,0.8482,-0.5494,-0.7208,-1.2794,rough,14.0,1,2.779
360,11.52,1.7293,-6.9177,0.8760,-0.3531,-0.7844,-1.4603,rough,14.0,1,2.832
370,11.84,1.8046,-6.9133,0.8524,-0.3292,-0.7731,-1.4352,rough,14.0,1,2.899
380,12.16,1.9006,-6.8697,0.7756,-0.2485,-0.7607,-1.4355,rough,14.0,1,3.004
390,12.48,1.9959,-6.8002,0.6766,-0.1453,-0.7691,-1.4742,rough,14.0,1,3.121
400,12.80,2.0374,-6.6954,0.5778,-0.2286,-0.7530,-1.3868,rough,14.0,1,3.210
410,13.12,2.1205,-6.5659,0.4441,-0.4104,-0.6759,-1.1425,rough,14.0,1,3.349
420,13.44,2.2503,-6.4110,0.2691,-0.4948,-0.5918,-1.0651,rough,14.0,1,3.542
430,13.76,2.4708,-6.2412,0.0286,-0.3820,-0.7468,-1.4912,rough,14.0,1,3.820
440,14.08,2.6775,-6.0215,-0.2608,-0.2252,-0.7728,-1.6813,rough,14.0,1,4.114
450,14.40,2.7140,-5.7422,-0.4957,-0.2685,-0.7127,-1.6098,rough,14.0,1,4.307
460,14.72,2.6948,-5.5643,-0.6268,-0.2809,-0.5796,-1.5665,rough,14.0,1,4.403
470,15.04,2.6898,-5.5340,-0.6434,-0.2857,-0.5887,-1.5584,rough,14.0,1,4.418
480,15.36,2.6967,-5.6567,-0.5664,-0.3333,-0.5955,-1.5506,rough,14.0,1,4.346
490,15.68,2.7092,-5.8472,-0.4244,-0.3939,-0.7447,-1.4179,rough,14.0,1,4.241
500,16.00,2.7495,-5.9525,-0.3296,-0.3454,-0.7634,-1.4088,rough,14.0,1,4.212
510,16.32,2.7989,-6.0035,-0.3047,-0.3112,-0.6800,-1.3652,rough,14.0,1,4.224
520,16.64,2.8991,-6.0046,-0.3270,-0.2848,-0.6246,-1.2311,rough,14.0,1,4.307
530,16.96,2.9756,-5.9438,-0.3862,-0.1243,-0.7136,-1.2920,rough,14.0,1,4.405
540,17.28,3.0219,-5.8426,-0.4712,-0.0194,-0.7526,-1.3828,rough,14.0,1,4.499
550,17.60,3.0620,-5.8412,-0.4694,0.0473,-0.7554,-1.4935,rough,14.0,1,4.533
560,17.92,3.0792,-5.8894,-0.4356,0.0111,-0.7772,-1.4949,rough,14.0,1,4.521
570,18.24,3.0950,-5.9387,-0.3959,0.0183,-0.7335,-1.5627,rough,14.0,1,4.508
580,18.56,3.1072,-6.0226,-0.3438,-0.0446,-0.6759,-1.5720,rough,14.0,1,4.474
590,18.88,3.1336,-6.2019,-0.2291,-0.1974,-0.5951,-1.5691,rough,14.0,1,4.406
600,19.20,3.1432,-6.4049,-0.0709,-0.2516,-0.7567,-1.5167,rough,14.0,1,4.319
610,19.52,3.1730,-6.5020,-0.0174,-0.3068,-0.7369,-1.6053,rough,14.0,1,4.303
620,19.84,3.1696,-6.6188,0.0590,-0.3861,-0.6554,-1.5921,rough,14.0,1,4.251
630,20.16,3.1720,-6.8109,0.1843,-0.4787,-0.6187,-1.5781,rough,14.0,1,4.179
640,20.48,3.1792,-7.0502,0.3451,-0.5469,-0.6331,-1.5485,rough,14.0,1,4.103
650,20.80,3.2087,-7.3167,0.4786,-0.6127,-0.5832,-1.6040,rough,14.0,1,4.055
660,21.12,3.2426,-7.5758,0.6223,-0.5493,-0.6198,-1.6500,rough,14.0,1,4.030
670,21.44,3.2401,-7.7937,0.7729,-0.5150,-0.6990,-1.6845,rough,14.0,1,3.991
680,21.76,3.2325,-7.9864,0.9210,-0.3964,-0.7194,-1.7976,rough,14.0,1,3.961
690,22.08,3.2421,-8.1500,1.0418,-0.5019,-0.6763,-1.5987,rough,14.0,1,3.959
700,22.40,3.3398,-8.2233,1.0343,-0.6512,-0.4814,-1.2430,rough,14.0,1,4.054
710,22.72,3.4867,-8.2199,0.9415,-0.6289,-0.4243,-1.2003,rough,14.0,1,4.201
720,23.04,3.6332,-8.2099,0.8499,-0.6487,-0.3870,-1.1581,rough,14.0,1,4.347
730,23.36,3.7868,-8.2244,0.7739,-0.6521,-0.3726,-1.1578,rough,14.0,1,4.500
740,23.68,3.9245,-8.2810,0.7238,-0.5759,-0.3096,-1.1786,rough,14.0,1,4.637
750,24.00,4.0808,-8.4215,0.7265,-0.5657,-0.2052,-1.2768,rough,14.0,1,4.793
760,24.32,4.1869,-8.6708,0.7552,-0.5903,-0.2207,-1.5763,rough,14.0,1,4.909
770,24.64,4.2216,-8.9659,0.8208,-0.6411,-0.3638,-1.8138,rough,14.0,1,4.971
780,24.96,4.2376,-9.2398,0.8707,-0.6527,-0.5447,-1.9351,rough,14.0,1,5.028
790,25.28,4.3041,-9.4714,0.8799,-0.5623,-0.5939,-1.9797,rough,14.0,1,5.139
800,25.60,4.2651,-9.7063,0.9958,-0.4749,-0.7626,-2.1852,rough,14.0,1,5.158
810,25.92,4.2071,-9.8611,1.1264,-0.3949,-0.8212,-2.2743,rough,14.0,1,5.145
820,26.24,4.2418,-9.9298,1.1225,-0.2049,-0.8415,-2.4693,rough,14.0,1,5.198
830,26.56,4.2978,-9.9751,1.1064,0.1626,-0.8767,-2.7976,rough,14.0,1,5.266
840,26.88,4.3116,-9.9277,1.0586,0.7610,-0.5993,2.5169,rough,14.0,1,5.264
850,27.20,4.2953,-9.6694,0.9587,0.8112,-0.3048,2.2180,rough,14.0,1,5.177
860,27.52,4.2285,-9.3606,0.9280,0.8239,-0.4100,2.1565,rough,14.0,1,5.042
870,27.84,4.2432,-9.0174,0.8120,0.6593,-0.3773,2.3420,rough,14.0,1,4.999
880,28.16,4.2141,-8.7985,0.7804,0.5404,-0.4525,2.5665,rough,14.0,1,4.946
890,28.48,4.1092,-8.6321,0.7972,0.3818,-0.4501,2.7995,rough,14.0,1,4.829
900,28.80,3.9299,-8.4847,0.8497,0.5487,-0.4023,2.7156,rough,14.0,1,4.644
910,29.12,3.5970,-8.2855,0.9256,0.7487,-0.3054,2.7692,rough,14.0,1,4.309
920,29.44,3.2608,-8.0634,0.9602,0.7473,-0.4711,2.8301,rough,14.0,1,3.983
930,29.76,3.0653,-7.8168,0.9278,0.6667,-0.5398,2.8383,rough,14.0,1,3.815
940,30.08,2.9669,-7.5078,0.7981,0.6177,-0.5452,2.8801,rough,14.0,1,3.775
950,30.40,2.8407,-7.1627,0.6566,0.6894,-0.3435,2.7798,rough,14.0,1,3.747
960,30.72,2.5976,-6.7848,0.4802,0.7868,-0.1763,2.8152,rough,14.0,1,3.662
970,31.04,2.3633,-6.3480,0.1674,0.7249,-0.3196,3.0899,rough,14.0,1,3.671
980,31.36,2.2037,-5.9105,-0.1075,0.3735,-0.7240,-2.6605,rough,14.0,1,3.804
990,31.68,2.2317,-5.5400,-0.4241,-0.2334,-0.6789,-1.9786,rough,14.0,1,4.072
1000,32.00,2.2369,-5.1974,-0.6170,-0.6410,-0.5734,-1.5808,rough,14.0,1,4.319
1010,32.32,2.2200,-4.9923,-0.7110,-0.5604,-0.4829,-1.4745,rough,14.0,1,4.460
1020,32.64,2.2325,-5.0463,-0.6931,-0.5576,-0.4497,-1.4927,rough,14.0,1,4.428
1030,32.96,2.2713,-5.3169,-0.5718,-0.6493,-0.5245,-1.4203,rough,14.0,1,4.257
1040,33.28,2.3021,-5.6149,-0.4140,-0.5155,-0.5419,-1.4313,rough,14.0,1,4.072
1050,33.60,2.3870,-5.8724,-0.2593,-0.5537,-0.6325,-1.3286,rough,14.0,1,3.969
1060,33.92,2.5088,-6.0641,-0.1516,-0.5075,-0.6676,-1.3269,rough,14.0,1,3.951
1070,34.24,2.6660,-6.2005,-0.0977,-0.4428,-0.7262,-1.4126,rough,14.0,1,4.005
1080,34.56,2.7233,-6.2436,-0.0750,-0.4716,-0.7897,-1.3891,rough,14.0,1,4.031
1090,34.88,2.7866,-6.1893,-0.1429,-0.4443,-0.6378,-1.2391,rough,14.0,1,4.114
1100,35.20,2.9415,-6.0441,-0.3083,-0.3553,-0.5350,-1.0807,rough,14.0,1,4.322
1110,35.52,3.0116,-5.8403,-0.4691,-0.1202,-0.7446,-1.2091,rough,14.0,1,4.492
1120,35.84,3.0696,-5.7568,-0.5172,0.0665,-0.7128,-1.4003,rough,14.0,1,4.587
1130,36.16,3.1171,-5.8737,-0.4468,-0.0072,-0.7310,-1.4772,rough,14.0,1,4.562
1140,36.48,3.1272,-5.8695,-0.4470,0.0528,-0.7357,-1.5495,rough,14.0,1,4.572
1150,36.80,3.1342,-5.8826,-0.4334,0.0541,-0.7507,-1.5797,rough,14.0,1,4.571
1160,37.12,3.1399,-5.9456,-0.3890,0.0084,-0.7340,-1.5890,rough,14.0,1,4.542
1170,37.44,3.1509,-6.0802,-0.3114,-0.0905,-0.6118,-1.5846,rough,14.0,1,4.482
1180,37.76,3.1639,-6.2925,-0.1625,-0.1910,-0.7036,-1.5474,rough,14.0,1,4.389
1190,38.08,3.1907,-6.4494,-0.0606,-0.3167,-0.7509,-1.5120,rough,14.0,1,4.342
1200,38.40,3.2132,-6.6181,0.0375,-0.4128,-0.6033,-1.5570,rough,14.0,1,4.291
1210,38.72,3.2298,-6.8524,0.1804,-0.4986,-0.6086,-1.5364,rough,14.0,1,4.218
1220,39.04,3.2506,-7.1026,0.3206,-0.5814,-0.5508,-1.5277,rough,14.0,1,4.155
1230,39.36,3.2762,-7.3657,0.4663,-0.5523,-0.5819,-1.6208,rough,14.0,1,4.108
1240,39.68,3.2653,-7.6034,0.6256,-0.5578,-0.5949,-1.6039,rough,14.0,1,4.047
1250,40.00,3.2747,-7.8199,0.7749,-0.4955,-0.6909,-1.6659,rough,14.0,1,4.022
1260,40.32,3.2627,-8.0183,0.9260,-0.3578,-0.7163,-1.8034,rough,14.0,1,3.989
1270,40.64,3.2367,-8.2050,1.0890,-0.4675,-0.7022,-1.6383,rough,14.0,1,3.951
1280,40.96,3.3135,-8.3021,1.1101,-0.7603,-0.5644,-1.2029,rough,14.0,1,4.026
1290,41.28,3.4874,-8.3453,1.0363,-0.6228,-0.5751,-1.2809,rough,14.0,1,4.199
1300,41.60,3.6856,-8.3443,0.9101,-0.5600,-0.6077,-1.4024,rough,14.0,1,4.397
1310,41.92,3.7828,-8.3339,0.8526,-0.6106,-0.5310,-1.2531,rough,14.0,1,4.495
1320,42.24,3.8989,-8.3947,0.8110,-0.5696,-0.3580,-1.2311,rough,14.0,1,4.611
1330,42.56,4.0227,-8.5481,0.8146,-0.5589,-0.2244,-1.3727,rough,14.0,1,4.738
1340,42.88,4.1101,-8.7561,0.8266,-0.5170,-0.2987,-1.5942,rough,14.0,1,4.839
1350,43.20,4.1474,-9.0486,0.9066,-0.5823,-0.4461,-1.8475,rough,14.0,1,4.909
1360,43.52,4.1639,-9.3145,0.9703,-0.6560,-0.6472,-1.9346,rough,14.0,1,4.970
1370,43.84,4.2722,-9.5384,0.9223,-0.6384,-0.6316,-1.9248,rough,14.0,1,5.123
1380,44.16,4.3469,-9.7138,0.9398,-0.2651,-0.7932,-2.3090,rough,14.0,1,5.238
1390,44.48,4.3285,-9.8615,1.0280,0.1269,-0.8742,-2.7699,rough,14.0,1,5.261
1400,44.80,4.2404,-9.8889,1.1074,0.4293,-0.8122,2.9886,rough,14.0,1,5.185
1410,45.12,4.2075,-9.7771,1.0883,0.2420,-0.8369,-3.1274,rough,14.0,1,5.121
1420,45.44,4.3046,-9.6560,0.9296,0.2712,-0.8232,3.0952,rough,14.0,1,5.183
1430,45.76,4.3869,-9.4762,0.8167,0.5250,-0.5740,2.4798,rough,14.0,1,5.221
1440,46.08,4.3266,-9.2252,0.7854,0.6396,-0.4865,2.3203,rough,14.0,1,5.113
1450,46.40,4.2171,-8.9507,0.8143,0.5908,-0.4161,2.4194,rough,14.0,1,4.965
1460,46.72,4.1037,-8.7231,0.8293,0.4667,-0.4076,2.8051,rough,14.0,1,4.830
1470,47.04,3.9264,-8.6213,0.9162,0.4899,-0.4959,2.6862,rough,14.0,1,4.646
1480,47.36,3.6374,-8.4222,1.0170,0.6876,-0.4893,2.6711,rough,14.0,1,4.350
1490,47.68,3.3543,-8.1364,0.9618,0.7623,-0.2249,2.7983,rough,14.0,1,4.072
1500,48.00,3.1584,-7.8528,0.8859,0.7858,-0.4828,2.6727,rough,14.0,1,3.902
1510,48.32,3.0698,-7.4947,0.7008,0.7013,-0.5001,2.7489,rough,14.0,1,3.878
1520,48.64,3.0597,-7.1184,0.4808,0.5904,-0.5433,2.8787,rough,14.0,1,3.969
1530,48.96,2.9808,-6.7194,0.2361,0.7465,-0.2090,2.7652,rough,14.0,1,4.038
1540,49.28,2.7864,-6.3002,-0.0489,0.7922,-0.0899,2.8569,rough,14.0,1,4.056
1550,49.60,2.5576,-5.8543,-0.3783,0.7153,-0.3768,3.0048,rough,14.0,1,4.115
1560,49.92,2.3764,-5.4421,-0.5684,0.5594,-0.5711,-3.1106,rough,14.0,1,4.244
1570,50.24,2.2215,-5.1790,-0.6257,0.4123,-0.7098,3.1288,rough,14.0,1,4.322
1580,50.56,2.1100,-5.0434,-0.6063,0.4981,-0.5538,2.8115,rough,14.0,1,4.349
1590,50.88,1.9150,-4.9256,-0.5715,0.6244,-0.2900,2.8204,rough,14.0,1,4.318
1600,51.20,1.5962,-4.8134,-0.4917,0.5712,-0.3879,3.0607,rough,14.0,1,4.226
1610,51.52,1.2480,-4.7557,-0.4069,0.4146,-0.2992,-2.9962,rough,14.0,1,4.097
1620,51.84,0.9110,-4.7947,-0.3116,0.4164,-0.4600,-2.8643,rough,14.0,1,3.911
1630,52.16,0.6599,-4.8781,-0.1633,0.2459,-0.6465,-2.7434,rough,14.0,1,3.736
1640,52.48,0.4899,-4.9486,-0.0051,0.0962,-0.8327,-2.4976,rough,14.0,1,3.610
1650,52.80,0.3866,-5.0063,0.1126,-0.2002,-0.8209,-2.0788,rough,14.0,1,3.523
1660,53.12,0.4110,-5.1197,0.1665,-0.4819,-0.6952,-1.6889,rough,14.0,1,3.423
1670,53.44,0.5443,-5.2555,0.1675,-0.5830,-0.7468,-1.5168,rough,14.0,1,3.343
1680,53.76,0.7291,-5.3517,0.1212,-0.6006,-0.6992,-1.3314,rough,14.0,1,3.329
1690,54.08,0.8262,-5.3811,0.1113,-0.4489,-0.6991,-1.3835,rough,14.0,1,3.346
1700,54.40,0.9213,-5.4131,0.0863,-0.4375,-0.5718,-1.2711,rough,14.0,1,3.363
1710,54.72,1.0176,-5.4405,0.0894,-0.3246,-0.6969,-1.2243,rough,14.0,1,3.387
1720,55.04,1.1249,-5.4428,0.0472,-0.3583,-0.6357,-1.2893,rough,14.0,1,3.442
1730,55.36,1.2177,-5.5593,0.0810,-0.4245,-0.5084,-1.3903,rough,14.0,1,3.395
1740,55.68,1.2970,-5.7682,0.2034,-0.4993,-0.6469,-1.3120,rough,14.0,1,3.274
1750,56.00,1.4182,-5.9947,0.2964,-0.5716,-0.4829,-1.3008,rough,14.0,1,3.178
1760,56.32,1.5272,-6.1833,0.3431,-0.4582,-0.4829,-1.3017,rough,14.0,1,3.118
1770,56.64,1.6130,-6.4076,0.4723,-0.4741,-0.6199,-1.2936,rough,14.0,1,3.032
1780,56.96,1.7032,-6.6127,0.6055,-0.5258,-0.6425,-1.2986,rough,14.0,1,2.977
1790,57.28,1.8184,-6.7609,0.7031,-0.6350,-0.6936,-1.0203,rough,14.0,1,2.990
1800,57.60,1.9797,-6.8107,0.6946,-0.5203,-0.6153,-0.9682,rough,14.0,1,3.102
1810,57.92,2.1123,-6.7207,0.5866,-0.3983,-0.6864,-1.0768,rough,14.0,1,3.262
1820,58.24,2.2475,-6.5567,0.4033,-0.3813,-0.7169,-1.1694,rough,14.0,1,3.462
1830,58.56,2.4397,-6.3740,0.1654,-0.2746,-0.7668,-1.6234,rough,14.0,1,3.721
1840,58.88,2.6649,-6.1752,-0.1171,-0.2808,-0.7443,-1.6013,rough,14.0,1,4.018
1850,59.20,2.7858,-5.9052,-0.3743,-0.4813,-0.7417,-1.1724,rough,14.0,1,4.269
1860,59.52,2.8886,-5.6867,-0.5776,-0.4138,-0.4808,-0.9451,rough,14.0,1,4.480
1870,59.84,2.9580,-5.6259,-0.6145,-0.3837,-0.3835,-0.5358,rough,14.0,1,4.572
1880,60.16,3.0776,-5.6847,-0.5515,-0.1605,-0.6396,-0.7946,rough,14.0,1,4.635
1890,60.48,3.2537,-5.8454,-0.4505,-0.1531,-0.5445,-1.0586,rough,14.0,1,4.692
1900,60.80,3.3979,-6.0360,-0.3647,-0.2017,-0.4042,-1.2065,rough,14.0,1,4.718
1910,61.12,3.4891,-6.2297,-0.2812,-0.1907,-0.4495,-1.2955,rough,14.0,1,4.707
1920,61.44,3.5910,-6.4787,-0.1928,-0.3284,-0.4426,-1.3898,rough,14.0,1,4.693
1930,61.76,3.6578,-6.7433,-0.1009,-0.4075,-0.4060,-1.4851,rough,14.0,1,4.657
1940,62.08,3.6963,-7.0128,0.0236,-0.3312,-0.5367,-1.6254,rough,14.0,1,4.607
1950,62.40,3.6789,-7.2552,0.1783,-0.3231,-0.5865,-1.6376,rough,14.0,1,4.526
1960,62.72,3.6524,-7.4835,0.3314,-0.2917,-0.6058,-1.6596,rough,14.0,1,4.450
1970,63.04,3.6244,-7.6995,0.4917,-0.2707,-0.6522,-1.6788,rough,14.0,1,4.385
1980,63.36,3.5910,-7.9013,0.6495,-0.2525,-0.6907,-1.6681,rough,14.0,1,4.326
1990,63.68,3.5777,-8.0915,0.7950,-0.3482,-0.6792,-1.5985,rough,14.0,1,4.297
2000,64.00,3.5937,-8.2613,0.9044,-0.4633,-0.6407,-1.5225,rough,14.0,1,4.307
2010,64.32,3.6440,-8.4032,0.9792,-0.4977,-0.6934,-1.5032,rough,14.0,1,4.356
2020,64.64,3.7620,-8.5654,1.0045,-0.4486,-0.7538,-1.8128,rough,14.0,1,4.479
2030,64.96,3.7817,-8.7031,1.0702,-0.4132,-0.7270,-1.9643,rough,14.0,1,4.507
2040,65.28,3.7938,-8.9019,1.1465,-0.2822,-0.8173,-2.2448,rough,14.0,1,4.539
2050,65.60,3.7892,-9.0076,1.2039,0.0848,-0.8766,-2.8104,rough,14.0,1,4.548
2060,65.92,3.7982,-8.9728,1.1750,0.0270,-0.8633,-2.6931,rough,14.0,1,4.552
2070,66.24,3.8461,-8.9076,1.0956,0.2035,-0.8139,-2.9024,rough,14.0,1,4.591
2080,66.56,3.8598,-8.8680,1.0786,0.4227,-0.7582,2.9849,rough,14.0,1,4.600
2090,66.88,3.7510,-8.7510,1.1062,0.6467,-0.5902,2.6898,rough,14.0,1,4.480
2100,67.20,3.6632,-8.4389,0.9909,0.6302,-0.5521,2.7302,rough,14.0,1,4.376
2110,67.52,3.5126,-8.0527,0.8037,0.7034,-0.1686,2.7720,rough,14.0,1,4.235
2120,67.84,3.3135,-7.6996,0.6569,0.6963,-0.4122,2.7555,rough,14.0,1,4.078
2130,68.16,3.1471,-7.4033,0.5841,0.6336,-0.5434,2.8393,rough,14.0,1,3.974
2140,68.48,3.0395,-7.1235,0.4941,0.5353,-0.6278,3.0060,rough,14.0,1,3.948
2150,68.80,2.8329,-6.8116,0.3890,0.5437,-0.5033,-3.0712,rough,14.0,1,3.865
2160,69.12,2.5640,-6.4635,0.1904,0.6106,-0.5416,-2.9999,rough,14.0,1,3.782
2170,69.44,2.4459,-6.0304,-0.1540,0.6231,-0.5472,-2.9882,rough,14.0,1,3.920
2180,69.76,2.3969,-5.5574,-0.5114,0.3672,-0.6551,-2.7540,rough,14.0,1,4.181
2190,70.08,2.2918,-5.0948,-0.6849,0.1098,-0.7499,-2.6031,rough,14.0,1,4.432
2200,70.40,2.2731,-4.9044,-0.7662,0.4299,-0.3666,2.6106,rough,14.0,1,4.561
2210,70.72,2.0670,-4.8074,-0.7089,0.4626,-0.4002,2.9175,rough,14.0,1,4.505
2220,71.04,1.7672,-4.7287,-0.6105,0.4932,-0.3039,3.0354,rough,14.0,1,4.391
2230,71.36,1.4380,-4.6654,-0.5179,0.4096,-0.4278,-3.0191,rough,14.0,1,4.269
2240,71.68,1.0589,-4.7142,-0.3964,0.3750,-0.3241,-2.8152,rough,14.0,1,4.047
2250,72.00,0.7840,-4.8054,-0.2573,0.3190,-0.6027,-2.7311,rough,14.0,1,3.850
2260,72.32,0.5573,-4.9357,-0.0725,0.1875,-0.7428,-2.6610,rough,14.0,1,3.646
2270,72.64,0.3762,-5.0056,0.1161,0.2217,-0.8647,-2.6622,rough,14.0,1,3.520
2280,72.96,0.2369,-5.0874,0.2837,0.2742,-0.8528,-2.8424,rough,14.0,1,3.401
2290,73.28,0.1323,-5.0697,0.3651,0.3121,-0.8372,-2.9467,rough,14.0,1,3.390
2300,73.60,0.1317,-4.9312,0.2729,0.6196,-0.6684,2.8835,rough,14.0,1,3.524
2310,73.92,0.2746,-4.7063,0.0344,0.6242,-0.6290,2.6930,rough,14.0,1,3.778
2320,74.24,0.3951,-4.4709,-0.1548,0.5847,-0.3229,2.6465,rough,14.0,1,4.037
2330,74.56,0.4189,-4.3505,-0.2114,0.5222,-0.3887,2.6266,rough,14.0,1,4.159
2340,74.88,0.3163,-4.2589,-0.1581,0.3619,-0.5505,2.7053,rough,14.0,1,4.221
2350,75.20,0.1419,-4.1597,-0.0820,0.3914,-0.5281,2.8426,rough,14.0,1,4.280
2360,75.52,-0.0030,-4.1051,0.0106,0.3323,-0.5367,2.9013,rough,14.0,1,4.307
2370,75.84,-0.1681,-4.0465,0.0766,0.4187,-0.4870,2.9312,rough,14.0,1,4.341
2380,76.16,-0.3772,-3.9814,0.1569,0.4041,-0.5175,3.1210,rough,14.0,1,4.385
2390,76.48,-0.6486,-3.9673,0.2837,0.3206,-0.5573,-2.8490,rough,14.0,1,4.386
2400,76.80,-0.8812,-4.0069,0.4247,0.1654,-0.6446,-2.5581,rough,14.0,1,4.350
2410,77.12,-1.0764,-4.1170,0.6083,0.0979,-0.7766,-2.4164,rough,14.0,1,4.252
2420,77.44,-1.1932,-4.2424,0.7773,0.0796,-0.8266,-2.4125,rough,14.0,1,4.139
2430,77.76,-1.3072,-4.3789,0.9533,0.0094,-0.8084,-2.3685,rough,14.0,1,4.019
2440,78.08,-1.4195,-4.5204,1.1299,-0.0207,-0.7948,-2.3468,rough,14.0,1,3.898
2450,78.40,-1.4703,-4.6294,1.2294,-0.1870,-0.7103,-2.0980,rough,14.0,1,3.800
2460,78.72,-1.4224,-4.7023,1.2502,-0.2657,-0.7150,-1.9130,rough,14.0,1,3.719
2470,79.04,-1.3432,-4.7490,1.2237,-0.3234,-0.6820,-1.7816,rough,14.0,1,3.659
2480,79.36,-1.3251,-4.8105,1.2561,-0.0822,-0.7276,-2.1470,rough,14.0,1,3.595
2490,79.68,-1.4214,-4.9038,1.3664,-0.1139,-0.6600,-2.1730,rough,14.0,1,3.522
2500,80.00,-1.5473,-5.0316,1.4946,-0.0314,-0.6096,-2.3136,rough,14.0,1,3.425
2510,80.32,-1.7853,-5.2593,1.6313,0.0723,-0.3338,-2.2187,rough,14.0,1,3.275
2520,80.64,-2.0568,-5.5825,1.6593,0.2488,-0.0150,-1.9914,rough,14.0,1,3.080
2530,80.96,-2.2082,-5.9635,1.6550,0.2041,0.0442,-1.8074,rough,14.0,1,2.820
2540,81.28,-2.2769,-6.4092,1.5926,0.1426,0.2978,-1.5731,rough,14.0,1,2.496
2550,81.60,-2.2846,-6.8426,1.4652,0.2475,0.3058,-1.4104,rough,14.0,1,2.181
2560,81.92,-2.2408,-7.3230,1.1641,0.3329,0.4633,-1.2584,rough,14.0,1,1.844
2570,82.24,-2.1891,-7.8259,0.7962,0.5240,0.5712,-1.2164,rough,14.0,1,1.569
2580,82.56,-2.1776,-8.3722,0.4218,0.6245,0.4824,-1.2612,rough,14.0,1,1.466
2590,82.88,-2.1496,-8.8373,0.1770,0.5660,0.3393,-1.3748,rough,14.0,1,1.517
2600,83.20,-2.0985,-9.2166,0.0401,0.5761,0.2262,-1.2550,rough,14.0,1,1.634
2610,83.52,-1.9660,-9.5668,-0.0569,0.5653,0.1386,-1.0000,rough,14.0,1,1.745
2620,83.84,-1.7693,-9.8556,-0.1357,0.5367,0.0669,-0.6928,rough,14.0,1,1.837
2630,84.16,-1.5202,-10.0309,-0.1539,0.4185,-0.0669,-0.4109,rough,14.0,1,1.862
2640,84.48,-1.3050,-10.1543,-0.1288,0.2890,-0.3760,-0.1660,rough,14.0,1,1.896
2650,84.80,-1.1201,-10.1893,-0.0434,0.2169,-0.4600,-0.0961,rough,14.0,1,1.881
2660,85.12,-0.9452,-10.2350,0.0207,0.3336,-0.5180,-0.0631,rough,14.0,1,1.896
2670,85.44,-0.8389,-10.2677,0.0814,0.3931,-0.6837,-0.0995,rough,14.0,1,1.919
2680,85.76,-0.7596,-10.2794,0.1451,0.4568,-0.8879,-0.2306,rough,14.0,1,1.927
2690,86.08,-0.7617,-10.3095,0.1338,0.5289,-0.8374,-0.3625,rough,14.0,1,1.957
2700,86.40,-0.7742,-10.3497,0.1117,0.5489,-0.8109,-0.4372,rough,14.0,1,1.997
2710,86.72,-0.7311,-10.4433,0.0980,0.5366,-0.6146,-0.4380,rough,14.0,1,2.090
2720,87.04,-0.7001,-10.5386,0.0721,0.5413,-0.4463,-0.4584,rough,14.0,1,2.185
2730,87.36,-0.6527,-10.6044,0.0990,0.3829,-0.5654,-0.3338,rough,14.0,1,2.252
2740,87.68,-0.5800,-10.6470,0.1408,0.3064,-0.6530,-0.2588,rough,14.0,1,2.298
2750,88.00,-0.4042,-10.7713,0.1199,0.4335,-0.6202,0.1821,rough,14.0,1,2.438
2760,88.32,-0.2838,-10.8878,0.1249,0.4342,-0.7994,0.4502,rough,14.0,1,2.570
2770,88.64,-0.1959,-10.9829,0.1061,0.1660,-0.8269,0.5555,rough,14.0,1,2.680
2780,88.96,-0.1612,-10.9983,0.1165,-0.5163,-0.8277,1.3906,rough,14.0,1,2.702
2790,89.28,-0.2169,-10.9545,0.0997,-0.6738,-0.5842,1.7987,rough,14.0,1,2.648
2800,89.60,-0.3328,-10.8657,0.1553,-0.9233,-0.6722,2.3436,rough,14.0,1,2.541
2810,89.92,-0.6243,-10.7742,0.0197,-0.5755,-0.0243,2.3006,rough,14.0,1,2.423
2820,90.24,-0.9105,-10.5263,-0.0256,-0.5762,-0.0193,1.9120,rough,14.0,1,2.182
2830,90.56,-1.0729,-10.1807,-0.0232,-0.4723,-0.1678,1.8237,rough,14.0,1,1.863
2840,90.88,-1.2218,-9.8821,0.0169,-0.5350,-0.4302,1.8507,rough,14.0,1,1.612
2850,91.20,-1.3330,-9.5369,0.1692,-0.5336,-0.4699,1.8158,rough,14.0,1,1.337
2860,91.52,-1.4280,-9.2594,0.3124,-0.5023,-0.5193,1.8788,rough,14.0,1,1.155
2870,91.84,-1.5173,-9.0454,0.4200,-0.4506,-0.5055,1.8548,rough,14.0,1,1.062
2880,92.16,-1.6243,-8.7928,0.5370,-0.5665,-0.5649,1.8133,rough,14.0,1,1.013
2890,92.48,-1.7196,-8.5278,0.6233,-0.6264,-0.4942,1.6163,rough,14.0,1,1.023
2900,92.80,-1.7977,-8.2569,0.7250,-0.3665,-0.7022,1.2153,rough,14.0,1,1.090
2910,93.12,-1.7873,-8.0586,0.8596,0.0182,-0.8030,0.6997,rough,14.0,1,1.115
2920,93.44,-1.6784,-7.9514,0.9924,0.2923,-0.7592,0.2151,rough,14.0,1,1.047
2930,93.76,-1.4580,-7.9923,1.1488,0.4686,-0.6691,-0.1462,rough,14.0,1,0.829
2940,94.08,-1.3182,-8.0837,1.2123,0.1915,-0.7884,0.3905,rough,14.0,2,4.588
2950,94.40,-1.3087,-8.0793,1.2197,-0.0163,-0.7718,0.6645,rough,14.0,2,4.588
2960,94.72,-1.3784,-8.0336,1.1905,-0.3097,-0.7276,1.0810,rough,14.0,2,4.517
2970,95.04,-1.5399,-7.9027,1.1294,-0.5115,-0.6024,1.3747,rough,14.0,2,4.331
2980,95.36,-1.7567,-7.7506,1.0714,-0.5732,-0.6507,1.5543,rough,14.0,2,4.107
2990,95.68,-1.8619,-7.6677,1.0565,-0.5724,-0.5737,1.8362,rough,14.0,2,3.991
3000,96.00,-1.9539,-7.5033,1.1295,-0.5414,-0.5967,1.9796,rough,14.0,2,3.805
3010,96.32,-2.0569,-7.2598,1.2525,-0.3352,-0.5224,1.9684,rough,14.0,2,3.541
3020,96.64,-2.2037,-6.9329,1.4321,-0.2773,-0.4635,1.9781,rough,14.0,2,3.184
3030,96.96,-2.3759,-6.5640,1.5497,-0.2660,-0.2761,1.9261,rough,14.0,2,2.778
3040,97.28,-2.5265,-6.1699,1.6231,-0.1171,-0.1083,1.9802,rough,14.0,2,2.357
3050,97.60,-2.6755,-5.7400,1.6467,0.0480,0.0027,1.9688,rough,14.0,2,1.902
3060,97.92,-2.7765,-5.3977,1.7099,0.1780,-0.3244,1.9374,rough,14.0,2,1.545
3070,98.24,-2.8757,-4.9739,1.7461,0.4154,-0.1080,2.0755,rough,14.0,2,1.113
3080,98.56,-3.0537,-4.5864,1.7524,0.3951,0.0105,2.0642,rough,14.0,3,10.832
3090,98.88,-3.2848,-4.1788,1.6374,0.2709,0.2733,2.0696,rough,14.0,3,10.481
3100,99.20,-3.4451,-3.7864,1.5001,0.3490,0.3634,1.9713,rough,14.0,3,10.137
3110,99.52,-3.5526,-3.4200,1.3788,0.3267,0.2767,1.8379,rough,14.0,3,9.810
3120,99.84,-3.6277,-3.0246,1.2664,0.3176,0.2309,1.7501,rough,14.0,3,9.450
3130,100.16,-3.6933,-2.5887,1.1320,0.2919,0.3406,1.7376,rough,14.0,3,9.052
3140,100.48,-3.7656,-2.1648,0.9552,0.2744,0.4321,1.7485,rough,14.0,3,8.672
3150,100.80,-3.8388,-1.7575,0.7388,0.2482,0.4943,1.7525,rough,14.0,3,8.313
3160,101.12,-3.8902,-1.3552,0.5174,0.3158,0.5103,1.7555,rough,14.0,3,7.956
3170,101.44,-3.9355,-0.9772,0.3376,0.3376,0.3767,1.7059,rough,14.0,3,7.623
3180,101.76,-3.9536,-0.5989,0.2096,0.3011,0.2298,1.5765,rough,14.0,3,7.284
3190,102.08,-3.9250,-0.1915,0.1205,0.2627,0.1543,1.4782,rough,14.0,3,6.902
3200,102.40,-3.8712,0.2216,0.0728,0.1872,0.0828,1.4016,rough,14.0,3,6.508
3210,102.72,-3.7877,0.6567,0.0206,0.1385,0.1157,1.3612,rough,14.0,3,6.082
3220,103.04,-3.6866,1.0695,-0.0166,0.0738,0.0487,1.3012,rough,14.0,3,5.671
3230,103.36,-3.5827,1.4656,-0.0335,-0.0283,-0.1152,1.2516,rough,14.0,3,5.274
3240,103.68,-3.4871,1.8337,0.0145,-0.2009,-0.3570,1.2619,rough,14.0,3,4.909
3250,104.00,-3.3748,2.1926,0.1516,-0.1831,-0.4266,1.2948,rough,14.0,3,4.544
3260,104.32,-3.2521,2.5318,0.3272,-0.0416,-0.5327,1.2906,rough,14.0,3,4.192
3270,104.64,-3.1181,2.8708,0.5054,0.1140,-0.4872,1.2771,rough,14.0,3,3.836
3280,104.96,-2.9411,3.2702,0.5974,0.3947,-0.1836,1.2854,rough,14.0,3,3.407
3290,105.28,-2.8165,3.6474,0.6823,0.3932,-0.2118,1.2045,rough,14.0,3,3.030
3300,105.60,-2.6581,4.0437,0.7602,0.3378,-0.1914,1.1533,rough,14.0,3,2.623
3310,105.92,-2.4742,4.4510,0.8081,0.2446,-0.0473,1.1532,rough,14.0,3,2.197
3320,106.24,-2.2576,4.8791,0.7553,0.3373,0.3413,1.2005,rough,14.0,3,1.743
3330,106.56,-1.9483,5.2918,0.4427,0.8521,0.4885,1.6142,rough,14.0,3,1.242
3340,106.88,-1.6477,5.7492,-0.0674,0.6574,0.6688,1.7546,rough,14.0,0,10.883
3350,107.20,-1.4021,6.1946,-0.4372,0.4486,0.4004,1.6222,rough,14.0,0,11.134
3360,107.52,-1.2566,6.5018,-0.6589,0.2171,0.5558,1.1263,rough,14.0,0,11.328
3370,107.84,-1.0913,6.7880,-0.8591,0.1543,0.6638,0.8036,rough,14.0,0,11.502
3380,108.16,-0.8811,6.9823,-1.0644,0.0094,0.6414,0.4018,rough,14.0,0,11.580
3390,108.48,-0.6683,7.1023,-1.1904,-0.1427,0.2907,0.1190,rough,14.0,0,11.596
3400,108.80,-0.3513,7.1287,-1.2700,-0.0401,0.1101,0.0489,rough,14.0,0,11.490
3410,109.12,0.0627,7.0567,-1.3693,0.2458,0.2316,-0.0340,rough,14.0,0,11.264
3420,109.44,0.4400,7.0040,-1.4468,0.2623,0.1369,-0.1697,rough,14.0,0,11.080
3430,109.76,0.7441,6.9301,-1.4440,0.2709,-0.1919,-0.3423,rough,14.0,0,10.910
3440,110.08,0.9924,6.7972,-1.3662,0.3286,-0.4119,-0.5286,rough,14.0,0,10.706
3450,110.40,1.2972,6.5541,-1.3182,0.4023,-0.0886,-0.5682,rough,14.0,0,10.385
3460,110.72,1.5925,6.3152,-1.2654,0.4302,-0.1783,-0.6911,rough,14.0,0,10.074
3470,111.04,1.9408,6.0509,-1.2806,0.2292,0.0413,-0.7141,rough,14.0,0,9.732
3480,111.36,2.1699,5.8136,-1.2198,0.2393,-0.3234,-0.8538,rough,14.0,0,9.448
3490,111.68,2.4378,5.5469,-1.1249,0.0020,-0.2899,-0.8566,rough,14.0,0,9.132
3500,112.00,2.6666,5.2876,-1.0111,0.0201,-0.3348,-0.9201,rough,14.0,0,8.834
3510,112.32,2.9535,4.9659,-0.9448,-0.1770,-0.1282,-0.9526,rough,14.0,0,8.470
3520,112.64,3.2283,4.5968,-0.9482,-0.2004,-0.0589,-1.0126,rough,14.0,0,8.066
3530,112.96,3.4355,4.2503,-0.8992,-0.1508,-0.2147,-1.0295,rough,14.0,0,7.698
3540,113.28,3.6396,3.9118,-0.7941,-0.1482,-0.3170,-1.0499,rough,14.0,0,7.343
3550,113.60,3.8504,3.5432,-0.6912,-0.1939,-0.2140,-1.0940,rough,14.0,0,6.960
3560,113.92,4.0880,3.1389,-0.6527,-0.3306,0.0430,-1.1389,rough,14.0,0,6.547
3570,114.24,4.3015,2.7584,-0.7142,-0.2539,0.0249,-1.0925,rough,14.0,0,6.165
3580,114.56,4.4870,2.3870,-0.7180,-0.1186,-0.0403,-1.1388,rough,14.0,0,5.799
3590,114.88,4.6629,2.0683,-0.6558,-0.1767,-0.1932,-1.1526,rough,14.0,0,5.492
3600,115.20,4.8299,1.7240,-0.6046,-0.1526,-0.1719,-1.1607,rough,14.0,0,5.165
3610,115.52,4.9759,1.3669,-0.5625,-0.1329,-0.0182,-1.2416,rough,14.0,0,4.831
3620,115.84,5.1737,1.0043,-0.6114,-0.4129,0.1350,-1.2826,rough,14.0,0,4.510
3630,116.16,5.2915,0.6920,-0.6027,-0.4861,-0.2523,-1.2087,rough,14.0,0,4.233
3640,116.48,5.3689,0.2992,-0.5180,-0.2395,-0.3450,-1.3007,rough,14.0,0,3.875
3650,116.80,5.4318,-0.0745,-0.4177,-0.0389,-0.3077,-1.3474,rough,14.0,0,3.541
3660,117.12,5.5094,-0.4392,-0.2984,-0.0368,-0.3019,-1.4187,rough,14.0,0,3.230
3670,117.44,5.5879,-0.8413,-0.2316,-0.1199,-0.0816,-1.4923,rough,14.0,0,2.900
3680,117.76,5.6174,-1.2789,-0.2196,-0.1352,0.0159,-1.6532,rough,14.0,0,2.538
3690,118.08,5.5591,-1.7090,-0.2377,-0.1021,0.0538,-1.7671,rough,14.0,0,2.153
3700,118.40,5.4589,-2.1068,-0.2426,-0.0366,-0.0526,-1.8128,rough,14.0,0,1.786
3710,118.72,5.3061,-2.5205,-0.2495,0.1893,0.0156,-1.8776,rough,14.0,0,1.390
3720,119.04,5.1594,-2.8633,-0.2560,0.2420,0.0418,-1.9616,rough,14.0,0,1.073
3730,119.36,4.9884,-3.1967,-0.2895,0.2414,0.1128,-2.1058,rough,14.0,1,0.783
3740,119.68,4.7732,-3.5556,-0.3461,0.2692,0.2163,-2.1216,rough,14.0,1,7.287
3750,120.00,4.5393,-3.8908,-0.4309,0.2669,0.2024,-2.2032,rough,14.0,1,6.891
3760,120.32,4.2591,-4.2116,-0.5287,0.3207,0.2880,-2.2636,rough,14.0,1,6.470
3770,120.64,3.9846,-4.5077,-0.6307,0.3412,0.2295,-2.3690,rough,14.0,1,6.070
3780,120.96,3.6879,-4.7631,-0.6902,0.3036,0.0493,-2.4926,rough,14.0,1,5.679
3790,121.28,3.3314,-5.0197,-0.7393,0.2448,0.1406,-2.5487,rough,14.0,1,5.240
3800,121.60,2.9438,-5.2094,-0.7888,0.4399,0.1757,-2.5421,rough,14.0,1,4.821
3810,121.92,2.7088,-5.3430,-0.7453,0.3945,-0.4245,-2.7054,rough,14.0,1,4.557
3820,122.24,2.4571,-5.4629,-0.6011,0.3295,-0.6720,-2.6523,rough,14.0,1,4.289
3830,122.56,2.2216,-5.5973,-0.3780,0.1513,-0.7792,-2.5212,rough,14.0,1,4.025
3840,122.88,1.9913,-5.7977,-0.1152,0.0198,-0.6867,-2.4349,rough,14.0,1,3.720
3850,123.20,1.7772,-5.9755,0.1166,0.0725,-0.7191,-2.4476,rough,14.0,1,3.442
3860,123.52,1.5120,-6.1552,0.3333,0.1499,-0.6802,-2.3790,rough,14.0,1,3.127
3870,123.84,1.3536,-6.3121,0.5535,0.2255,-0.8814,-2.4703,rough,14.0,1,2.904
3880,124.16,1.2267,-6.4007,0.7124,0.4166,-0.8669,-2.8613,rough,14.0,1,2.751
3890,124.48,1.1372,-6.3554,0.7556,0.4284,-0.8697,-2.9790,rough,14.0,1,2.722
3900,124.80,1.1781,-6.2013,0.5953,0.3825,-0.8465,-3.0061,rough,14.0,1,2.864
3910,125.12,1.2598,-5.9227,0.3085,0.5305,-0.6457,-3.0812,rough,14.0,1,3.130
3920,125.44,1.2945,-5.6657,0.1163,0.3137,-0.6098,-2.7028,rough,14.0,1,3.354
3930,125.76,1.1449,-5.4847,0.0528,0.0343,-0.6995,-2.1257,rough,14.0,1,3.417
3940,126.08,0.9770,-5.3690,0.0376,0.0562,-0.7927,-1.7843,rough,14.0,1,3.429
3950,126.40,1.0190,-5.3101,-0.0294,-0.1895,-0.7319,-1.4229,rough,14.0,1,3.501
3960,126.72,1.0615,-5.2865,-0.0530,-0.1901,-0.7059,-1.4284,rough,14.0,1,3.542
3970,127.04,1.0814,-5.3394,-0.0129,-0.1468,-0.7423,-1.5001,rough,14.0,1,3.507
3980,127.36,1.1016,-5.3969,0.0225,-0.1852,-0.7394,-1.5343,rough,14.0,1,3.468
3990,127.68,1.1145,-5.4850,0.0843,-0.2586,-0.7226,-1.5236,rough,14.0,1,3.400
4000,128.00,1.1309,-5.5950,0.1407,-0.3384,-0.6209,-1.5326,rough,14.0,1,3.317
4010,128.32,1.1555,-5.7002,0.2028,-0.4401,-0.5957,-1.5351,rough,14.0,1,3.244
4020,128.64,1.1624,-5.7871,0.2684,-0.4846,-0.7064,-1.4683,rough,14.0,1,3.178
4030,128.96,1.1885,-5.8936,0.3422,-0.4529,-0.8214,-1.5429,rough,14.0,1,3.108
4040,129.28,1.2016,-5.9738,0.4010,-0.5588,-0.7869,-1.4866,rough,14.0,1,3.053
4050,129.60,1.2318,-6.0365,0.4200,-0.6186,-0.6452,-1.4459,rough,14.0,1,3.024
4060,129.92,1.3304,-6.1616,0.4540,-0.6349,-0.5403,-1.3966,rough,14.0,1,2.996
4070,130.24,1.4386,-6.3343,0.5117,-0.6705,-0.5477,-1.1514,rough,14.0,1,2.950
4080,130.56,1.5858,-6.5095,0.5703,-0.5443,-0.5389,-1.1563,rough,14.0,1,2.946
4090,130.88,1.7228,-6.6477,0.6260,-0.5825,-0.6523,-1.1864,rough,14.0,1,2.973
4100,131.20,1.8727,-6.7590,0.6812,-0.6539,-0.6019,-0.8771,rough,14.0,1,3.037
4110,131.52,2.0682,-6.7635,0.6344,-0.5265,-0.6098,-0.8914,rough,14.0,1,3.202
4120,131.84,2.2319,-6.6680,0.5181,-0.4748,-0.6603,-1.0003,rough,14.0,1,3.392
4130,132.16,2.4657,-6.5330,0.3092,-0.3440,-0.7511,-1.5539,rough,14.0,1,3.662
4140,132.48,2.5995,-6.2992,0.0252,-0.0616,-0.8196,-1.9556,rough,14.0,1,3.897
4150,132.80,2.7229,-6.0062,-0.2749,-0.0035,-0.7935,-1.8692,rough,14.0,1,4.160
4160,133.12,2.7577,-5.7294,-0.5079,-0.3030,-0.7064,-1.4565,rough,14.0,1,4.350
4170,133.44,2.7697,-5.5497,-0.6434,-0.1974,-0.4939,-1.4796,rough,14.0,1,4.470
4180,133.76,2.7889,-5.4964,-0.6704,-0.1300,-0.5203,-1.4963,rough,14.0,1,4.518
4190,134.08,2.8099,-5.5948,-0.6161,-0.1158,-0.4924,-1.4863,rough,14.0,1,4.473
4200,134.40,2.8860,-5.8108,-0.4842,-0.2027,-0.6886,-1.2762,rough,14.0,1,4.405
4210,134.72,2.9812,-5.9803,-0.3501,-0.1583,-0.6607,-1.3120,rough,14.0,1,4.390
4220,135.04,3.0120,-6.0197,-0.3257,-0.0653,-0.7468,-1.4195,rough,14.0,1,4.395
4230,135.36,3.0618,-6.1099,-0.2771,-0.1235,-0.6590,-1.4820,rough,14.0,1,4.390
4240,135.68,3.1059,-6.2882,-0.1566,-0.2485,-0.7066,-1.4731,rough,14.0,1,4.340
4250,136.00,3.1439,-6.4867,-0.0095,-0.3548,-0.7281,-1.4520,rough,14.0,1,4.284
4260,136.32,3.1939,-6.7032,0.0985,-0.4947,-0.5540,-1.5289,rough,14.0,1,4.240
4270,136.64,3.2151,-6.9492,0.2535,-0.5542,-0.6260,-1.4831,rough,14.0,1,4.170
4280,136.96,3.2554,-7.2191,0.3904,-0.5995,-0.5519,-1.5526,rough,14.0,1,4.126
4290,137.28,3.2637,-7.4806,0.5472,-0.5819,-0.5779,-1.5621,rough,14.0,1,4.070
4300,137.60,3.2834,-7.7083,0.6930,-0.6163,-0.6062,-1.4975,rough,14.0,1,4.047
4310,137.92,3.3013,-7.9354,0.8430,-0.4017,-0.7034,-1.7219,rough,14.0,1,4.035
4320,138.24,3.2634,-8.1415,1.0235,-0.3690,-0.7269,-1.7578,rough,14.0,1,3.981
4330,138.56,3.2591,-8.3283,1.1704,-0.4517,-0.7378,-1.6373,rough,14.0,1,3.971
4340,138.88,3.3710,-8.4434,1.1913,-0.6109,-0.5996,-1.3129,rough,14.0,1,4.084
4350,139.20,3.5759,-8.4541,1.0720,-0.5081,-0.6654,-1.4304,rough,14.0,1,4.289
4360,139.52,3.8170,-8.4179,0.8845,-0.4196,-0.7395,-1.6541,rough,14.0,1,4.529
4370,139.84,3.9079,-8.4051,0.8215,-0.4786,-0.5239,-1.4031,rough,14.0,1,4.620
4380,140.16,4.0226,-8.5042,0.7944,-0.5307,-0.2623,-1.3687,rough,14.0,1,4.737
4390,140.48,4.0904,-8.6892,0.8308,-0.5237,-0.2760,-1.4756,rough,14.0,1,4.814
4400,140.80,4.1506,-8.9877,0.8909,-0.5726,-0.4021,-1.7496,rough,14.0,1,4.904
4410,141.12,4.1718,-9.2910,0.9488,-0.6484,-0.5863,-1.9052,rough,14.0,1,4.973
4420,141.44,4.2949,-9.5276,0.9010,-0.6057,-0.5656,-1.8965,rough,14.0,1,5.143
4430,141.76,4.3424,-9.7314,0.9511,-0.3722,-0.7526,-2.1674,rough,14.0,1,5.239
4440,142.08,4.2782,-9.9377,1.0999,-0.1178,-0.8415,-2.5023,rough,14.0,1,5.235
4450,142.40,4.1496,-10.0575,1.2833,-0.0988,-0.8694,-2.5727,rough,14.0,1,5.151
4460,142.72,4.1243,-10.1166,1.3381,-0.2073,-0.8453,-2.4191,rough,14.0,1,5.148
4470,143.04,4.2324,-10.1473,1.2370,-0.3134,-0.7935,-2.2232,rough,14.0,1,5.260
4480,143.36,4.3790,-10.1300,1.1124,-0.0271,-0.8395,-2.3720,rough,14.0,1,5.392
4490,143.68,4.5367,-10.1215,0.9787,0.1294,-0.6836,-2.7085,rough,14.0,1,5.538
4500,144.00,4.6465,-10.1044,0.9068,0.1424,-0.6541,-2.8554,rough,14.0,1,5.637
4510,144.32,4.6158,-10.1570,0.9516,0.1133,-0.6805,-2.8207,rough,14.0,1,5.625
4520,144.64,4.4191,-10.2371,1.1233,0.1928,-0.7321,-2.8443,rough,14.0,1,5.466
4530,144.96,4.3165,-10.1791,1.1753,0.4972,-0.7611,3.0305,rough,14.0,1,5.350
4540,145.28,4.2546,-10.0122,1.1496,0.8313,-0.4090,2.3448,rough,14.0,1,5.236
4550,145.60,4.2591,-9.6651,0.9860,0.8035,-0.4087,2.2612,rough,14.0,1,5.141
4560,145.92,4.3172,-9.3241,0.8215,0.7015,-0.3902,2.2378,rough,14.0,1,5.122
4570,146.24,4.3817,-9.0126,0.7050,0.6338,-0.3507,2.2673,rough,14.0,1,5.136
4580,146.56,4.3911,-8.7754,0.6336,0.5606,-0.4552,2.4235,rough,14.0,1,5.120
4590,146.88,4.3540,-8.5508,0.6022,0.5259,-0.4271,2.4945,rough,14.0,1,5.070
4600,147.20,4.2986,-8.3471,0.5779,0.5471,-0.2894,2.7076,rough,14.0,1,5.010
4610,147.52,4.1110,-8.1692,0.5863,0.4686,-0.3460,-3.0916,rough,14.0,1,4.826
4620,147.84,3.7811,-8.1354,0.7079,0.5035,-0.5314,-3.1017,rough,14.0,1,4.498
4630,148.16,3.4216,-8.1125,0.8889,0.5260,-0.5734,-3.0796,rough,14.0,1,4.140
4640,148.48,3.1347,-8.0688,1.0603,0.5923,-0.6758,3.0837,rough,14.0,1,3.857
4650,148.80,2.9208,-7.9394,1.1260,0.5276,-0.6449,3.1003,rough,14.0,1,3.656
4660,149.12,2.7599,-7.7446,1.1127,0.5320,-0.5935,3.0861,rough,14.0,1,3.525
4670,149.44,2.6240,-7.5415,1.0625,0.3228,-0.7131,-2.8125,rough,14.0,1,3.433
4680,149.76,2.3604,-7.3222,1.0572,0.3227,-0.7311,-2.6623,rough,14.0,1,3.241
4690,150.08,2.0165,-7.0414,0.9025,0.5631,-0.5035,-2.6807,rough,14.0,1,3.027
4700,150.40,1.7806,-6.6998,0.6614,0.4426,-0.7217,-2.5564,rough,14.0,1,2.991
4710,150.72,1.5815,-6.2829,0.3942,0.1270,-0.7158,-2.3363,rough,14.0,1,3.090
4720,151.04,1.4323,-5.8766,0.2240,-0.0125,-0.8607,-2.0469,rough,14.0,1,3.276
4730,151.36,1.4029,-5.5388,-0.0045,-0.2814,-0.5218,-1.6350,rough,14.0,1,3.520
4740,151.68,1.3747,-5.3173,-0.1154,-0.2284,-0.6291,-1.5775,rough,14.0,1,3.684
4750,152.00,1.3730,-5.2344,-0.1681,-0.2515,-0.6000,-1.5663,rough,14.0,1,3.751
4760,152.32,1.3748,-5.2582,-0.1583,-0.2619,-0.5705,-1.5348,rough,14.0,1,3.733
4770,152.64,1.3798,-5.3335,-0.1070,-0.2421,-0.6121,-1.5431,rough,14.0,1,3.673
4780,152.96,1.3933,-5.4658,-0.0395,-0.3108,-0.5129,-1.5712,rough,14.0,1,3.573
4790,153.28,1.3952,-5.5883,0.0277,-0.2847,-0.5252,-1.6255,rough,14.0,1,3.476
4800,153.60,1.3885,-5.6934,0.1017,-0.2859,-0.6009,-1.6316,rough,14.0,1,3.389
4810,153.92,1.3821,-5.7690,0.1627,-0.3438,-0.6776,-1.5354,rough,14.0,1,3.326
4820,154.24,1.3878,-5.8586,0.2143,-0.3549,-0.6822,-1.4915,rough,14.0,1,3.261
4830,154.56,1.4131,-5.9770,0.2774,-0.4021,-0.5687,-1.5305,rough,14.0,1,3.188
4840,154.88,1.4264,-6.0884,0.3335,-0.4132,-0.5275,-1.5398,rough,14.0,1,3.115
4850,155.20,1.4632,-6.1521,0.3554,-0.4080,-0.5395,-1.4837,rough,14.0,1,3.094
4860,155.52,1.5029,-6.2258,0.3813,-0.2409,-0.6980,-1.7149,rough,14.0,1,3.071
4870,155.84,1.5090,-6.3221,0.4435,-0.3364,-0.6782,-1.5395,rough,14.0,1,3.010
4880,156.16,1.5266,-6.4325,0.5309,-0.3251,-0.7102,-1.5107,rough,14.0,1,2.949
4890,156.48,1.5476,-6.4716,0.5536,-0.3457,-0.7025,-1.5036,rough,14.0,1,2.940
4900,156.80,1.5682,-6.5022,0.5709,-0.3654,-0.6987,-1.4853,rough,14.0,1,2.937
4910,157.12,1.5959,-6.5262,0.5767,-0.3882,-0.6857,-1.4691,rough,14.0,1,2.943
4920,157.44,1.6250,-6.5404,0.5730,-0.3979,-0.6758,-1.4717,rough,14.0,1,2.958
4930,157.76,1.6477,-6.5581,0.5754,-0.3962,-0.6744,-1.4931,rough,14.0,1,2.965
4940,158.08,1.6650,-6.5859,0.5882,-0.3930,-0.6666,-1.5129,rough,14.0,1,2.962
4950,158.40,1.7278,-6.6070,0.5939,-0.5458,-0.6320,-1.2547,rough,14.0,1,3.000
4960,158.72,1.8780,-6.6128,0.5486,-0.6949,-0.4576,-0.7995,rough,14.0,1,3.120
4970,159.04,2.1503,-6.6042,0.4679,-0.6788,-0.4180,-0.7018,rough,14.0,1,3.354
4980,159.36,2.4040,-6.5439,0.3482,-0.6595,-0.5185,-0.9879,rough,14.0,1,3.603
4990,159.68,2.7126,-6.4162,0.0939,-0.6004,-0.6645,-1.1502,rough,14.0,1,3.934
5000,160.00,2.9535,-6.2252,-0.1639,-0.1789,-0.7367,-1.5339,rough,14.0,1,4.238
5010,160.32,3.0115,-6.0630,-0.2939,-0.0710,-0.7324,-1.4503,rough,14.0,1,4.371
5020,160.64,3.0292,-5.9873,-0.3503,0.0053,-0.7473,-1.5047,rough,14.0,1,4.426
5030,160.96,3.0498,-5.9802,-0.3581,0.0090,-0.7439,-1.5330,rough,14.0,1,4.448
5040,161.28,3.0664,-6.0187,-0.3326,-0.0276,-0.7352,-1.5481,rough,14.0,1,4.441
5050,161.60,3.0887,-6.1341,-0.2670,-0.1251,-0.6400,-1.5528,rough,14.0,1,4.401
5060,161.92,3.1084,-6.3339,-0.1209,-0.2280,-0.7494,-1.5047,rough,14.0,1,4.321
5070,162.24,3.1418,-6.5232,0.0193,-0.3596,-0.7408,-1.4940,rough,14.0,1,4.266
5080,162.56,3.1791,-6.7395,0.1321,-0.4983,-0.5640,-1.5544,rough,14.0,1,4.212
5090,162.88,3.1930,-6.9879,0.2942,-0.5466,-0.6406,-1.5173,rough,14.0,1,4.137
5100,163.20,3.2368,-7.2570,0.4242,-0.6324,-0.5523,-1.5487,rough,14.0,1,4.098
5110,163.52,3.2529,-7.5042,0.5682,-0.5946,-0.5717,-1.5551,rough,14.0,1,4.055
5120,163.84,3.2729,-7.7365,0.7196,-0.6208,-0.6233,-1.5066,rough,14.0,1,4.032
5130,164.16,3.2830,-7.9664,0.8755,-0.4054,-0.7042,-1.7200,rough,14.0,1,4.013
5140,164.48,3.2551,-8.1684,1.0481,-0.4279,-0.7032,-1.6801,rough,14.0,1,3.971
5150,164.80,3.2814,-8.3331,1.1647,-0.5782,-0.6838,-1.4623,rough,14.0,1,3.993
5160,165.12,3.4136,-8.4251,1.1508,-0.6205,-0.5893,-1.3018,rough,14.0,1,4.126
5170,165.44,3.6300,-8.4202,1.0103,-0.4936,-0.6755,-1.4560,rough,14.0,1,4.342
5180,165.76,3.8353,-8.3828,0.8571,-0.4210,-0.6905,-1.5755,rough,14.0,1,4.547
5190,166.08,3.9222,-8.4203,0.8146,-0.5186,-0.4450,-1.3542,rough,14.0,1,4.634
5200,166.40,4.0335,-8.5579,0.8137,-0.5471,-0.2303,-1.4011,rough,14.0,1,4.750
5210,166.72,4.1076,-8.7758,0.8427,-0.5630,-0.3024,-1.5790,rough,14.0,1,4.838
5220,167.04,4.1432,-9.0850,0.9244,-0.6530,-0.3707,-1.8314,rough,14.0,1,4.910
5230,167.36,4.1907,-9.3540,0.9613,-0.7566,-0.5732,-1.8086,rough,14.0,1,5.004
5240,167.68,4.3199,-9.5795,0.9136,-0.4761,-0.7211,-2.0303,rough,14.0,1,5.179
5250,168.00,4.3652,-9.7765,0.9528,-0.0619,-0.8201,-2.5140,rough,14.0,1,5.273
5260,168.32,4.3279,-9.8750,1.0327,0.3796,-0.8599,-3.1032,rough,14.0,1,5.264
5270,168.64,4.2427,-9.7945,1.0605,0.6952,-0.6212,2.5214,rough,14.0,1,5.160
5280,168.96,4.2922,-9.5773,0.9155,0.6092,-0.6608,2.6060,rough,14.0,1,5.152
5290,169.28,4.3249,-9.4499,0.8464,0.5392,-0.7045,2.6475,rough,14.0,1,5.155
5300,169.60,4.3038,-9.3431,0.8354,0.5132,-0.7017,2.6704,rough,14.0,1,5.112
5310,169.92,4.3687,-9.2199,0.7440,0.4627,-0.5847,2.5844,rough,14.0,1,5.154
5320,170.24,4.4230,-9.1058,0.6842,0.4043,-0.5877,2.6644,rough,14.0,1,5.190
5330,170.56,4.4189,-9.0156,0.6756,0.3377,-0.6656,2.7114,rough,14.0,1,5.173
5340,170.88,4.3639,-8.9306,0.6988,0.3359,-0.6800,2.7514,rough,14.0,1,5.108
5350,171.20,4.2974,-8.8676,0.7378,0.3695,-0.6740,2.7681,rough,14.0,1,5.035
5360,171.52,4.2017,-8.8210,0.7971,0.3308,-0.6258,2.9251,rough,14.0,1,4.936
5370,171.84,4.0420,-8.7818,0.8971,0.3314,-0.5566,2.9936,rough,14.0,1,4.773
5380,172.16,3.9234,-8.7415,0.9732,0.3885,-0.7049,2.9510,rough,14.0,1,4.651
5390,172.48,3.7690,-8.6686,1.0483,0.4291,-0.7501,3.0316,rough,14.0,1,4.492
5400,172.80,3.7005,-8.5719,1.0534,0.3433,-0.7789,-3.0989,rough,14.0,1,4.418
5410,173.12,3.6732,-8.3746,0.9362,0.1732,-0.8299,-2.6250,rough,14.0,1,4.385
5420,173.44,3.7177,-8.2823,0.8464,-0.3255,-0.6772,-1.7842,rough,14.0,1,4.430
5430,173.76,3.7634,-8.2480,0.8015,-0.5252,-0.5324,-1.3923,rough,14.0,1,4.476
5440,174.08,3.8525,-8.2819,0.7844,-0.5754,-0.4788,-1.2690,rough,14.0,1,4.565
5450,174.40,3.9599,-8.3902,0.7698,-0.5096,-0.3440,-1.2777,rough,14.0,1,4.672
5460,174.72,4.0495,-8.5554,0.8073,-0.4823,-0.3112,-1.3947,rough,14.0,1,4.766
5470,175.04,4.1047,-8.7636,0.8434,-0.5324,-0.3341,-1.4948,rough,14.0,1,4.834
5480,175.36,4.1702,-9.0965,0.9030,-0.6956,-0.3525,-1.8103,rough,14.0,1,4.938
5490,175.68,4.2415,-9.3723,0.9092,-0.7505,-0.5670,-1.8162,rough,14.0,1,5.057
5500,176.00,4.3564,-9.5934,0.8919,-0.3670,-0.7558,-2.1003,rough,14.0,1,5.218
5510,176.32,4.3757,-9.7749,0.9473,-0.0638,-0.8405,-2.4997,rough,14.0,1,5.282
5520,176.64,4.3053,-9.8958,1.0608,0.2772,-0.8714,-2.9939,rough,14.0,1,5.249
5530,176.96,4.2051,-9.8522,1.1294,0.3481,-0.8339,3.0588,rough,14.0,1,5.140
5540,177.28,4.2154,-9.7570,1.0701,0.1031,-0.8590,-2.9577,rough,14.0,1,5.123
5550,177.60,4.3331,-9.6302,0.9039,0.3615,-0.8485,3.0477,rough,14.0,1,5.204
5560,177.92,4.3936,-9.5107,0.8199,0.4856,-0.5897,2.6806,rough,14.0,1,5.235
5570,178.24,4.3152,-9.4245,0.8439,0.5500,-0.7017,2.6516,rough,14.0,1,5.140
5580,178.56,4.2515,-9.3083,0.8802,0.4175,-0.7408,2.7878,rough,14.0,1,5.054
5590,178.88,4.3149,-9.1868,0.7803,0.3707,-0.7281,2.7964,rough,14.0,1,5.095
5600,179.20,4.3732,-9.1120,0.7246,0.3391,-0.6858,2.7479,rough,14.0,1,5.141
5610,179.52,4.3655,-9.0537,0.7228,0.2732,-0.7365,2.8302,rough,14.0,1,5.125
5620,179.84,4.3105,-9.0013,0.7609,0.2609,-0.7683,2.8890,rough,14.0,1,5.064
5630,180.16,4.2475,-8.9588,0.8065,0.2958,-0.7623,2.9129,rough,14.0,1,4.996
5640,180.48,4.1704,-8.9277,0.8536,0.3145,-0.6969,2.9614,rough,14.0,1,4.916
5650,180.80,4.0333,-8.8951,0.9409,0.3682,-0.5833,3.0161,rough,14.0,1,4.776
5660,181.12,3.9468,-8.8760,1.0097,0.3993,-0.6384,2.9659,rough,14.0,1,4.688
5670,181.44,3.8727,-8.8509,1.0595,0.4749,-0.7328,2.8909,rough,14.0,1,4.611
5680,181.76,3.7628,-8.7870,1.1224,0.4069,-0.8209,3.0506,rough,14.0,1,4.496
5690,182.08,3.7480,-8.6761,1.0736,0.2821,-0.8247,-3.0492,rough,14.0,1,4.471
5700,182.40,3.8042,-8.5228,0.9329,0.3735,-0.6857,-3.0310,rough,14.0,1,4.519
5710,182.72,3.8164,-8.3869,0.8408,0.3372,-0.6635,-2.8539,rough,14.0,1,4.528
5720,183.04,3.7333,-8.3335,0.8593,-0.0197,-0.7299,-2.3016,rough,14.0,1,4.445
5730,183.36,3.6693,-8.3793,0.9376,-0.2354,-0.7639,-1.9552,rough,14.0,1,4.381
5740,183.68,3.6980,-8.4717,0.9691,-0.0060,-0.8136,-2.4256,rough,14.0,1,4.411
5750,184.00,3.6789,-8.5099,1.0089,-0.0757,-0.8060,-2.3404,rough,14.0,1,4.394
5760,184.32,3.6520,-8.5412,1.0522,-0.0563,-0.8075,-2.3726,rough,14.0,1,4.368
5770,184.64,3.6275,-8.5767,1.0955,-0.0635,-0.8062,-2.3727,rough,14.0,1,4.345
5780,184.96,3.6170,-8.6019,1.1214,-0.0854,-0.8075,-2.3540,rough,14.0,1,4.336
5790,185.28,3.6328,-8.6091,1.1136,-0.1381,-0.8031,-2.2943,rough,14.0,1,4.352
5800,185.60,3.6797,-8.6033,1.0733,-0.1341,-0.8086,-2.3467,rough,14.0,1,4.399
5810,185.92,3.7107,-8.5657,1.0230,-0.1002,-0.7993,-2.3832,rough,14.0,1,4.428
5820,186.24,3.6910,-8.5345,1.0169,-0.0761,-0.8065,-2.3764,rough,14.0,1,4.406
5830,186.56,3.6882,-8.5197,1.0077,-0.0984,-0.7984,-2.3200,rough,14.0,1,4.403
5840,186.88,3.6895,-8.5127,1.0032,-0.0630,-0.8060,-2.3710,rough,14.0,1,4.404
5850,187.20,3.6955,-8.5069,0.9937,-0.0801,-0.8017,-2.3442,rough,14.0,1,4.410
5860,187.52,3.6981,-8.5052,0.9914,-0.0831,-0.8052,-2.3400,rough,14.0,1,4.412
5870,187.84,3.6971,-8.5049,0.9916,-0.0712,-0.8042,-2.3575,rough,14.0,1,4.411
5880,188.16,3.6938,-8.5034,0.9917,-0.0537,-0.7987,-2.3812,rough,14.0,1,4.408
5890,188.48,3.6910,-8.5138,1.0025,-0.0707,-0.8047,-2.3620,rough,14.0,1,4.406
5900,188.80,3.6915,-8.5310,1.0137,-0.0861,-0.8039,-2.3566,rough,14.0,1,4.407
5910,189.12,3.7000,-8.5517,1.0211,-0.1094,-0.8037,-2.3514,rough,14.0,1,4.416
5920,189.44,3.6967,-8.5676,1.0349,-0.1327,-0.8046,-2.3282,rough,14.0,1,4.414
5930,189.76,3.6821,-8.5865,1.0588,-0.1217,-0.8032,-2.3507,rough,14.0,1,4.400
5940,190.08,3.6887,-8.5981,1.0621,-0.1328,-0.8066,-2.3531,rough,14.0,1,4.407
5950,190.40,3.7089,-8.5846,1.0363,-0.1208,-0.8007,-2.3759,rough,14.0,1,4.427
5960,190.72,3.6967,-8.5624,1.0312,-0.1222,-0.8057,-2.3417,rough,14.0,1,4.413
5970,191.04,3.6965,-8.5484,1.0214,-0.1041,-0.8029,-2.3533,rough,14.0,1,4.413
5980,191.36,3.7010,-8.5412,1.0137,-0.0932,-0.8064,-2.3674,rough,14.0,1,4.417
5990,191.68,3.6914,-8.5337,1.0159,-0.1110,-0.8035,-2.3194,rough,14.0,1,4.407
6000,192.00,3.6872,-8.5356,1.0204,-0.0844,-0.8047,-2.3593,rough,14.0,1,4.403
6010,192.32,3.6910,-8.5394,1.0199,-0.0921,-0.8044,-2.3555,rough,14.0,1,4.407
6020,192.64,3.7009,-8.5456,1.0163,-0.1070,-0.8035,-2.3496,rough,14.0,1,4.417
6030,192.96,3.6954,-8.5491,1.0230,-0.1045,-0.8035,-2.3517,rough,14.0,1,4.412
6040,193.28,3.6920,-8.5574,1.0311,-0.1120,-0.8027,-2.3449,rough,14.0,1,4.409
6050,193.60,3.6980,-8.5705,1.0353,-0.1253,-0.8026,-2.3445,rough,14.0,1,4.415
6060,193.92,3.7048,-8.5759,1.0361,-0.1310,-0.8264,-2.3635,rough,14.0,1,4.422
6070,194.24,3.6923,-8.5420,1.0206,-0.0985,-0.8049,-2.3517,rough,14.0,1,4.408
6080,194.56,3.6953,-8.5172,1.0017,-0.0749,-0.8059,-2.3636,rough,14.0,1,4.410
6090,194.88,3.6944,-8.4975,0.9888,-0.0729,-0.8047,-2.3440,rough,14.0,1,4.409
6100,195.20,3.6857,-8.4786,0.9824,-0.0450,-0.8045,-2.3579,rough,14.0,1,4.399
6110,195.52,3.6813,-8.4611,0.9739,-0.0286,-0.8051,-2.3598,rough,14.0,1,4.394
6120,195.84,3.6832,-8.4623,0.9732,-0.0348,-0.8045,-2.3536,rough,14.0,1,4.396
6130,196.16,3.6879,-8.4714,0.9756,-0.0410,-0.8036,-2.3588,rough,14.0,1,4.401
6140,196.48,3.6916,-8.4818,0.9797,-0.0519,-0.8028,-2.3573,rough,14.0,1,4.405
6150,196.80,3.6960,-8.4948,0.9853,-0.0751,-0.8032,-2.3391,rough,14.0,1,4.410
6160,197.12,3.6965,-8.5104,0.9957,-0.0799,-0.8036,-2.3493,rough,14.0,1,4.411
6170,197.44,3.6713,-8.5141,1.0185,-0.0484,-0.8069,-2.3760,rough,14.0,1,4.386
6180,197.76,3.6534,-8.5244,1.0382,-0.0764,-0.7989,-2.3218,rough,14.0,1,4.369
6190,198.08,3.6380,-8.5369,1.0587,-0.0761,-0.7984,-2.3191,rough,14.0,1,4.354
6200,198.40,3.6226,-8.5526,1.0829,-0.0411,-0.8069,-2.3762,rough,14.0,1,4.339
6210,198.72,3.6069,-8.5715,1.1080,-0.0450,-0.8062,-2.3734,rough,14.0,1,4.324
6220,199.04,3.5921,-8.5926,1.1343,-0.0524,-0.8071,-2.3688,rough,14.0,1,4.310
6230,199.36,3.5867,-8.6059,1.1471,-0.0727,-0.8039,-2.3452,rough,14.0,1,4.306
6240,199.68,3.6035,-8.6117,1.1385,-0.1152,-0.8042,-2.3011,rough,14.0,1,4.323
6250,200.00,3.6444,-8.6096,1.1052,-0.1323,-0.8064,-2.3173,rough,14.0,1,4.364
6260,200.32,3.7095,-8.6004,1.0468,-0.1696,-0.8031,-2.3196,rough,14.0,1,4.428
6270,200.64,3.6949,-8.5661,1.0345,-0.1194,-0.8042,-2.3493,rough,14.0,1,4.412
6280,200.96,3.6898,-8.5457,1.0243,-0.0890,-0.8011,-2.3673,rough,14.0,1,4.406
6290,201.28,3.6957,-8.5376,1.0151,-0.0901,-0.8051,-2.3621,rough,14.0,1,4.411
6300,201.60,3.6974,-8.5262,1.0059,-0.0889,-0.8038,-2.3526,rough,14.0,1,4.413
6310,201.92,3.6925,-8.4975,0.9905,-0.0513,-0.8067,-2.3765,rough,14.0,1,4.407
6320,202.24,3.6970,-8.4733,0.9692,-0.0694,-0.7995,-2.3248,rough,14.0,1,4.410
6330,202.56,3.6874,-8.4560,0.9653,-0.0364,-0.8029,-2.3491,rough,14.0,1,4.400
6340,202.88,3.6926,-8.4791,0.9768,-0.0577,-0.8012,-2.3461,rough,14.0,1,4.406
6350,203.20,3.6989,-8.5068,0.9920,-0.0625,-0.8071,-2.3757,rough,14.0,1,4.413
6360,203.52,3.6955,-8.5334,1.0120,-0.0903,-0.8029,-2.3573,rough,14.0,1,4.411
6370,203.84,3.6980,-8.5683,1.0333,-0.1116,-0.8013,-2.3651,rough,14.0,1,4.415
6380,204.16,3.7062,-8.6042,1.0518,-0.1527,-0.8036,-2.3481,rough,14.0,1,4.425
6390,204.48,3.6985,-8.6093,1.0624,-0.1617,-0.8079,-2.3304,rough,14.0,1,4.418
6400,204.80,3.7055,-8.6086,1.0566,-0.1925,-0.8064,-2.2878,rough,14.0,1,4.425
6410,205.12,3.7050,-8.5988,1.0497,-0.1655,-0.8052,-2.3198,rough,14.0,1,4.424
6420,205.44,3.7042,-8.5853,1.0399,-0.1322,-0.8008,-2.3569,rough,14.0,1,4.422
6430,205.76,3.6925,-8.5692,1.0386,-0.1225,-0.8024,-2.3422,rough,14.0,1,4.410
6440,206.08,3.6727,-8.5538,1.0440,-0.1088,-0.8028,-2.3246,rough,14.0,1,4.389
6450,206.40,3.6665,-8.5521,1.0477,-0.0917,-0.8034,-2.3434,rough,14.0,1,4.383
6460,206.72,3.6658,-8.5587,1.0528,-0.0893,-0.8038,-2.3534,rough,14.0,1,4.382
6470,207.04,3.6722,-8.5667,1.0533,-0.0997,-0.8040,-2.3528,rough,14.0,1,4.389
6480,207.36,3.6862,-8.5781,1.0498,-0.1214,-0.8029,-2.3461,rough,14.0,1,4.404
6490,207.68,3.7085,-8.5927,1.0443,-0.1074,-0.8146,-2.4103,rough,14.0,1,4.427
6500,208.00,3.6931,-8.5624,1.0331,-0.1081,-0.8010,-2.3587,rough,14.0,1,4.410
6510,208.32,3.6963,-8.5148,0.9990,-0.0784,-0.8044,-2.3567,rough,14.0,1,4.411
6520,208.64,3.6930,-8.4674,0.9689,-0.0402,-0.8040,-2.3619,rough,14.0,1,4.406
6530,208.96,3.6947,-8.4626,0.9649,-0.0238,-0.8114,-2.3885,rough,14.0,1,4.408
6540,209.28,3.6726,-8.5048,1.0104,-0.0524,-0.8034,-2.3605,rough,14.0,1,4.387
6550,209.60,3.6547,-8.5516,1.0568,-0.0739,-0.8046,-2.3580,rough,14.0,1,4.371
6560,209.92,3.6388,-8.6004,1.1029,-0.1100,-0.8054,-2.3368,rough,14.0,1,4.358
6570,210.24,3.6382,-8.6331,1.1281,-0.1551,-0.8145,-2.2998,rough,14.0,1,4.359
6580,210.56,3.6634,-8.6583,1.1262,-0.2378,-0.8129,-2.2233,rough,14.0,1,4.386
6590,210.88,3.7070,-8.6757,1.1053,-0.3059,-0.8168,-2.1814,rough,14.0,1,4.431
6600,211.20,3.7445,-8.6989,1.0840,-0.5839,-0.6356,-1.7507,rough,14.0,1,4.470
6610,211.52,3.7637,-8.8279,1.1380,-0.7313,-0.5088,-1.5306,rough,14.0,1,4.501
6620,211.84,3.8266,-9.0705,1.2159,-0.6700,-0.6515,-1.7017,rough,14.0,1,4.595
6630,212.16,3.9060,-9.3293,1.2244,-0.5248,-0.6941,-2.0203,rough,14.0,1,4.720
6640,212.48,4.0642,-9.4878,1.1315,-0.5502,-0.6883,-1.9966,rough,14.0,1,4.909
6650,212.80,4.3024,-9.6324,0.9448,-0.5147,-0.6666,-2.0457,rough,14.0,1,5.175
6660,213.12,4.4736,-9.6978,0.8345,-0.0608,-0.7786,-2.3133,rough,14.0,1,5.357
6670,213.44,4.5335,-9.8403,0.8609,0.1237,-0.6553,-2.5860,rough,14.0,1,5.452
6680,213.76,4.4284,-9.9275,0.9794,0.4058,-0.8055,-2.9672,rough,14.0,1,5.376
6690,214.08,4.2732,-9.9579,1.1067,0.5340,-0.8041,2.8886,rough,14.0,1,5.237
6700,214.40,4.1566,-9.7836,1.1379,0.7252,-0.5204,2.4135,rough,14.0,1,5.074
6710,214.72,4.1642,-9.4618,1.0109,0.6770,-0.5867,2.4397,rough,14.0,1,5.000
6720,215.04,4.3145,-9.1625,0.7733,0.5471,-0.4913,2.4110,rough,14.0,1,5.091
6730,215.36,4.4825,-8.9359,0.6168,0.4896,-0.5142,2.3050,rough,14.0,1,5.227
6740,215.68,4.6282,-8.6801,0.4324,0.5973,-0.4304,2.4799,rough,14.0,1,5.350
6750,216.00,4.7470,-8.4780,0.2728,0.6688,-0.3349,2.3698,rough,14.0,1,5.460
6760,216.32,4.8378,-8.1780,0.0738,0.6967,-0.4415,2.4661,rough,14.0,1,5.552
6770,216.64,4.9306,-7.8411,-0.1714,0.7403,-0.2812,2.3630,rough,14.0,1,5.666
6780,216.96,4.9911,-7.5759,-0.2719,0.4990,-0.2404,2.5680,rough,14.0,1,5.756
6790,217.28,5.0018,-7.4491,-0.3214,0.4360,-0.2570,2.6952,rough,14.0,1,5.785
6800,217.60,4.7627,-7.2653,-0.2601,0.5291,-0.1803,2.7767,rough,14.0,1,5.582
6810,217.92,4.4676,-7.0919,-0.2226,0.5669,-0.1345,2.9646,rough,14.0,1,5.331
6820,218.24,4.1327,-6.9658,-0.1949,0.5720,-0.4072,3.0326,rough,14.0,1,5.039
6830,218.56,3.7525,-6.9425,-0.0393,0.4344,-0.4606,-3.0562,rough,14.0,1,4.682
6840,218.88,3.4041,-6.9617,0.1410,0.4606,-0.5607,-3.0823,rough,14.0,1,4.345
6850,219.20,3.1068,-6.9711,0.3463,0.4749,-0.6976,-3.1362,rough,14.0,1,4.061
6860,219.52,2.7860,-6.8848,0.4717,0.6271,-0.4942,3.1212,rough,14.0,1,3.794
6870,219.84,2.4187,-6.7593,0.5393,0.7260,-0.4331,-3.0546,rough,14.0,1,3.513
6880,220.16,2.0683,-6.5675,0.4573,0.7289,-0.3581,-2.9760,rough,14.0,1,3.304
6890,220.48,1.7338,-6.3224,0.3563,0.5255,-0.4863,-2.9071,rough,14.0,1,3.179
6900,220.80,1.4341,-6.1424,0.3699,0.3565,-0.7252,-2.7659,rough,14.0,1,3.081
6910,221.12,1.2988,-6.0911,0.4273,0.2300,-0.8592,-2.6713,rough,14.0,1,3.026
6920,221.44,1.2092,-6.0136,0.4187,0.5160,-0.6848,3.0711,rough,14.0,1,3.027
6930,221.76,1.1478,-5.8137,0.3136,0.4461,-0.8220,-2.9528,rough,14.0,1,3.148
6940,222.08,1.1007,-5.6324,0.1876,-0.1561,-0.7888,-1.9555,rough,14.0,1,3.269
6950,222.40,1.0642,-5.4774,0.0924,-0.1674,-0.7333,-1.6100,rough,14.0,1,3.380
6960,222.72,1.0438,-5.3607,0.0101,-0.1451,-0.7708,-1.5268,rough,14.0,1,3.470
6970,223.04,1.0552,-5.2664,-0.0685,-0.1495,-0.6843,-1.5133,rough,14.0,1,3.557
6980,223.36,1.0712,-5.2684,-0.0683,-0.1501,-0.6876,-1.5098,rough,14.0,1,3.563
6990,223.68,1.0779,-5.3372,-0.0170,-0.1439,-0.7458,-1.5191,rough,14.0,1,3.507
7000,224.00,1.0937,-5.3974,0.0239,-0.1777,-0.7379,-1.5438,rough,14.0,1,3.464
7010,224.32,1.1042,-5.4830,0.0862,-0.2455,-0.7251,-1.5308,rough,14.0,1,3.396
7020,224.64,1.1185,-5.5848,0.1411,-0.3229,-0.6404,-1.5343,rough,14.0,1,3.319
7030,224.96,1.1394,-5.6976,0.2096,-0.4267,-0.6128,-1.5358,rough,14.0,1,3.237
7040,225.28,1.1476,-5.7872,0.2760,-0.4825,-0.7075,-1.4738,rough,14.0,1,3.169
7050,225.60,1.1759,-5.8621,0.3212,-0.4588,-0.7970,-1.5058,rough,14.0,1,3.126
7060,225.92,1.1993,-5.9336,0.3704,-0.5332,-0.7886,-1.4762,rough,14.0,1,3.083
7070,226.24,1.2239,-5.9924,0.3961,-0.6064,-0.6831,-1.4149,rough,14.0,1,3.053
7080,226.56,1.2741,-6.0726,0.4170,-0.6362,-0.5485,-1.4335,rough,14.0,1,3.024
7090,226.88,1.3447,-6.1191,0.4098,-0.6320,-0.4788,-1.3494,rough,14.0,1,3.037
7100,227.20,1.4470,-6.1265,0.3499,-0.5483,-0.3964,-1.2670,rough,14.0,1,3.101
7110,227.52,1.5347,-6.1017,0.2808,-0.4208,-0.4366,-1.3363,rough,14.0,1,3.181
7120,227.84,1.6063,-6.1532,0.2885,-0.4151,-0.4912,-1.3380,rough,14.0,1,3.196
7130,228.16,1.6911,-6.2999,0.3577,-0.4618,-0.5939,-1.2942,rough,14.0,1,3.161
7140,228.48,1.7812,-6.5145,0.4944,-0.4881,-0.6182,-1.2915,rough,14.0,1,3.098
7150,228.80,1.8928,-6.6957,0.6225,-0.5860,-0.6896,-1.0373,rough,14.0,1,3.087
7160,229.12,2.0400,-6.7992,0.6730,-0.4631,-0.6785,-0.9578,rough,14.0,1,3.160
7170,229.44,2.1860,-6.8067,0.6664,-0.3930,-0.7097,-1.0914,rough,14.0,1,3.285
7180,229.76,2.3503,-6.7406,0.5411,-0.2278,-0.7678,-1.5806,rough,14.0,1,3.461
7190,230.08,2.4844,-6.6061,0.3731,-0.3243,-0.7653,-1.5887,rough,14.0,1,3.642
7200,230.40,2.6676,-6.4272,0.1171,-0.2491,-0.7834,-1.6738,rough,14.0,1,3.890
7210,230.72,2.7761,-6.1656,-0.1475,-0.2065,-0.7619,-1.5489,rough,14.0,1,4.117
7220,231.04,2.9170,-5.9071,-0.4161,-0.3497,-0.6245,-1.1169,rough,14.0,1,4.376
7230,231.36,2.9758,-5.7308,-0.5410,0.0368,-0.7066,-1.3122,rough,14.0,1,4.525
7240,231.68,3.0351,-5.7490,-0.5294,0.0919,-0.6714,-1.4701,rough,14.0,1,4.563
7250,232.00,3.0712,-5.8806,-0.4360,0.0288,-0.6959,-1.5401,rough,14.0,1,4.519
7260,232.32,3.0616,-5.8361,-0.4759,0.0997,-0.7491,-1.5772,rough,14.0,1,4.536
7270,232.64,3.0581,-5.8311,-0.4811,0.1364,-0.7447,-1.6312,rough,14.0,1,4.536
7280,232.96,3.0449,-5.8516,-0.4644,0.1172,-0.7449,-1.6052,rough,14.0,1,4.513
7290,233.28,3.0380,-5.8329,-0.4813,0.1258,-0.7476,-1.6131,rough,14.0,1,4.518
7300,233.60,3.0283,-5.8344,-0.4809,0.1285,-0.7499,-1.6188,rough,14.0,1,4.509
7310,233.92,3.0099,-5.8267,-0.4912,0.1731,-0.7390,-1.6852,rough,14.0,1,4.498
7320,234.24,2.9776,-5.8307,-0.4919,0.1491,-0.7426,-1.6492,rough,14.0,1,4.469
7330,234.56,2.9738,-5.8410,-0.4836,0.1033,-0.7446,-1.5818,rough,14.0,1,4.460
7340,234.88,2.9724,-5.8370,-0.4864,0.1105,-0.7489,-1.5926,rough,14.0,1,4.461
7350,235.20,2.9752,-5.8423,-0.4819,0.0928,-0.7477,-1.5665,rough,14.0,1,4.461
7360,235.52,2.9778,-5.8391,-0.4839,0.1045,-0.7500,-1.5845,rough,14.0,1,4.465
7370,235.84,2.9765,-5.8351,-0.4876,0.1203,-0.7482,-1.6070,rough,14.0,1,4.466
7380,236.16,2.9735,-5.8372,-0.4860,0.1108,-0.7496,-1.5929,rough,14.0,1,4.462
7390,236.48,2.9739,-5.8400,-0.4835,0.0981,-0.7503,-1.5743,rough,14.0,1,4.461
7400,236.80,2.9752,-5.8378,-0.4853,0.1199,-0.7482,-1.6066,rough,14.0,1,4.463
7410,237.12,2.9728,-5.8409,-0.4829,0.1085,-0.7490,-1.5896,rough,14.0,1,4.460
7420,237.44,2.9751,-5.8383,-0.4849,0.1004,-0.7500,-1.5776,rough,14.0,1,4.463
7430,237.76,2.9741,-5.8368,-0.4864,0.1242,-0.7477,-1.6130,rough,14.0,1,4.463
7440,238.08,2.9729,-5.8410,-0.4827,0.1076,-0.7491,-1.5883,rough,14.0,1,4.460
7450,238.40,2.9746,-5.8386,-0.4848,0.0995,-0.7499,-1.5763,rough,14.0,1,4.462
7460,238.72,2.9742,-5.8368,-0.4863,0.1236,-0.7478,-1.6120,rough,14.0,1,4.463
7470,239.04,2.9730,-5.8410,-0.4827,0.1077,-0.7491,-1.5883,rough,14.0,1,4.460
7480,239.36,2.9746,-5.8385,-0.4848,0.0996,-0.7499,-1.5764,rough,14.0,1,4.462
7490,239.68,2.9741,-5.8369,-0.4863,0.1234,-0.7478,-1.6117,rough,14.0,1,4.463
7500,240.00,2.9728,-5.8409,-0.4829,0.1077,-0.7491,-1.5884,rough,14.0,1,4.460
7510,240.32,2.9752,-5.8381,-0.4851,0.1000,-0.7500,-1.5770,rough,14.0,1,4.463
7520,240.64,2.9753,-5.8376,-0.4854,0.1119,-0.7493,-1.5948,rough,14.0,1,4.463
7530,240.96,2.9745,-5.8394,-0.4853,0.0918,-0.7445,-1.5650,rough,14.0,1,4.462
7540,241.28,2.9754,-5.8379,-0.4852,0.1006,-0.7503,-1.5779,rough,14.0,1,4.463
7550,241.60,2.9755,-5.8376,-0.4854,0.1121,-0.7493,-1.5949,rough,14.0,1,4.464
7560,241.92,2.9723,-5.8397,-0.4839,0.1095,-0.7493,-1.5911,rough,14.0,1,4.460
7570,242.24,2.9749,-5.8370,-0.4861,0.1070,-0.7496,-1.5874,rough,14.0,1,4.464
7580,242.56,2.9734,-5.8382,-0.4851,0.1119,-0.7493,-1.5946,rough,14.0,1,4.462
7590,242.88,2.9744,-5.8398,-0.4839,0.0973,-0.7489,-1.5731,rough,14.0,1,4.461
7600,243.20,2.9744,-5.8359,-0.4871,0.1148,-0.7489,-1.5989,rough,14.0,1,4.464
7610,243.52,2.9754,-5.8381,-0.4850,0.1115,-0.7495,-1.5940,rough,14.0,1,4.463
7620,243.84,2.9725,-5.8403,-0.4834,0.1037,-0.7495,-1.5825,rough,14.0,1,4.460
7630,244.16,2.9724,-5.8479,-0.4765,0.1022,-0.7498,-1.5817,rough,14.0,1,4.455
7640,244.48,2.9748,-5.8443,-0.4794,0.0880,-0.7510,-1.5596,rough,14.0,1,4.459
7650,244.80,2.9799,-5.8390,-0.4841,0.1047,-0.7500,-1.5878,rough,14.0,1,4.467
7660,245.12,2.9763,-5.8346,-0.4882,0.1231,-0.7479,-1.6114,rough,14.0,1,4.466
7670,245.44,2.9726,-5.8371,-0.4862,0.1076,-0.7501,-1.5883,rough,14.0,1,4.462
7680,245.76,2.9735,-5.8377,-0.4857,0.0998,-0.7502,-1.5768,rough,14.0,1,4.462
7690,246.08,2.9729,-5.8381,-0.4853,0.1148,-0.7489,-1.5990,rough,14.0,1,4.461
7700,246.40,2.9743,-5.8409,-0.4827,0.0998,-0.7494,-1.5768,rough,14.0,1,4.461
7710,246.72,2.9733,-5.8354,-0.4878,0.1182,-0.7485,-1.6040,rough,14.0,1,4.463
7720,247.04,2.9732,-5.8378,-0.4861,0.1028,-0.7474,-1.5810,rough,14.0,1,4.462
7730,247.36,2.9737,-5.8393,-0.4843,0.0912,-0.7502,-1.5642,rough,14.0,1,4.461
7740,247.68,2.9763,-5.8353,-0.4875,0.1187,-0.7484,-1.6046,rough,14.0,1,4.466
7750,248.00,2.9737,-5.8375,-0.4857,0.1110,-0.7496,-1.5932,rough,14.0,1,4.462
7760,248.32,2.9723,-5.8406,-0.4831,0.1066,-0.7494,-1.5868,rough,14.0,1,4.459
7770,248.64,2.9743,-5.8369,-0.4864,0.1075,-0.7492,-1.5882,rough,14.0,1,4.463
7780,248.96,2.9723,-5.8373,-0.4861,0.1111,-0.7494,-1.5934,rough,14.0,1,4.461
7790,249.28,2.9751,-5.8394,-0.4840,0.0990,-0.7496,-1.5756,rough,14.0,1,4.462
7800,249.60,2.9757,-5.8364,-0.4865,0.1226,-0.7479,-1.6105,rough,14.0,1,4.464
7810,249.92,2.9769,-5.8401,-0.4835,0.0961,-0.7482,-1.5713,rough,14.0,1,4.463
7820,250.24,2.9776,-5.8357,-0.4870,0.1179,-0.7484,-1.6037,rough,14.0,1,4.466
7830,250.56,2.9734,-5.8374,-0.4859,0.1145,-0.7491,-1.5985,rough,14.0,1,4.462
7840,250.88,2.9739,-5.8380,-0.4852,0.1088,-0.7497,-1.5901,rough,14.0,1,4.462
7850,251.20,2.9745,-5.8400,-0.4837,0.0989,-0.7489,-1.5755,rough,14.0,1,4.462
7860,251.52,2.9743,-5.8356,-0.4875,0.1170,-0.7485,-1.6022,rough,14.0,1,4.464
7870,251.84,2.9736,-5.8377,-0.4856,0.1108,-0.7495,-1.5930,rough,14.0,1,4.462
