step,time_s,x,y,z,roll,pitch,yaw,terrain,speed,target_idx,dist_to_target
10,0.32,0.9878,-0.8053,0.1894,0.1578,-0.1516,0.1932,rough,14.0,0,5.726
20,0.64,1.3164,-0.7432,0.1809,0.1519,-0.0155,0.1444,rough,14.0,0,5.522
30,0.96,1.6863,-0.7111,0.1820,0.1305,0.0136,-0.0015,rough,14.0,0,5.281
40,1.28,2.0943,-0.7746,0.1654,0.1476,0.0548,-0.1783,rough,14.0,0,4.959
50,1.60,2.4751,-0.8686,0.1686,0.1887,-0.0940,-0.2723,rough,14.0,0,4.644
60,1.92,2.8931,-1.0209,0.1478,0.2594,0.1873,-0.3244,rough,14.0,0,4.273
70,2.24,3.2757,-1.1831,0.0721,0.1770,0.1710,-0.4422,rough,14.0,0,3.927
80,2.56,3.6743,-1.3820,-0.0745,-0.0773,0.2883,-0.6139,rough,14.0,0,3.555
90,2.88,4.0226,-1.5756,-0.1473,-0.3149,0.1496,-0.7354,rough,14.0,0,3.228
100,3.20,4.3076,-1.8394,-0.1805,-0.2137,-0.0294,-0.7603,rough,14.0,0,2.875
110,3.52,4.6207,-2.1867,-0.2221,-0.1477,0.2249,-0.8723,rough,14.0,0,2.443
120,3.84,4.8630,-2.5324,-0.2828,0.0432,0.1895,-0.9472,rough,14.0,0,2.045
130,4.16,5.0601,-2.8400,-0.2795,0.0957,-0.1235,-1.0377,rough,14.0,0,1.704
140,4.48,5.2053,-3.2030,-0.2328,0.2867,-0.2431,-1.1398,rough,14.0,0,1.325
150,4.80,5.3522,-3.6067,-0.1679,0.3009,-0.0976,-1.1956,rough,14.0,0,0.914
160,5.12,5.4229,-3.9308,-0.1607,0.3924,0.0469,-0.9507,rough,14.0,1,12.259
170,5.44,5.4384,-4.0407,-0.1838,0.3221,-0.1814,-0.5021,rough,14.0,1,12.367
180,5.76,5.6372,-4.1740,-0.1817,0.3227,-0.1671,-0.1756,rough,14.0,1,12.563
190,6.08,5.9192,-4.2263,-0.1462,0.2530,-0.2288,0.2427,rough,14.0,1,12.718
200,6.40,6.1722,-4.1702,-0.1146,0.0513,-0.2036,0.6055,rough,14.0,1,12.766
210,6.72,6.4887,-3.9881,-0.1167,0.2380,0.1458,0.8364,rough,14.0,1,12.733
220,7.04,6.6748,-3.7824,-0.1273,0.2239,-0.0882,0.9387,rough,14.0,1,12.629
230,7.36,6.7852,-3.6376,-0.0526,0.3869,-0.6491,0.8168,rough,14.0,1,12.550
240,7.68,6.8751,-3.4108,0.0032,-0.0895,-0.5475,0.9153,rough,14.0,1,12.392
250,8.00,6.9790,-3.1646,0.1190,-0.3743,-0.5697,1.1687,rough,14.0,1,12.226
260,8.32,7.0860,-2.8836,0.2877,-0.3899,-0.4657,1.3198,rough,14.0,1,12.035
270,8.64,7.1074,-2.5566,0.3774,-0.4838,-0.3251,1.5097,rough,14.0,1,11.764
280,8.96,7.1443,-2.0809,0.4044,-0.2782,0.1933,1.5293,rough,14.0,1,11.380
290,9.28,7.1506,-1.6266,0.3021,-0.2497,0.3164,1.5503,rough,14.0,1,11.003
300,9.60,7.1369,-1.1858,0.1334,-0.2689,0.3972,1.5843,rough,14.0,1,10.632
310,9.92,7.1074,-0.7812,-0.0526,-0.2268,0.4156,1.6412,rough,14.0,1,10.286
320,10.24,7.0584,-0.3903,-0.1989,-0.1349,0.3418,1.7359,rough,14.0,1,9.944
330,10.56,6.9891,0.0035,-0.3085,-0.0127,0.2512,1.8284,rough,14.0,1,9.591
340,10.88,6.8819,0.4298,-0.4186,0.1425,0.3373,1.9023,rough,14.0,1,9.193
350,11.20,6.7793,0.7773,-0.5354,0.2416,0.3508,2.1500,rough,14.0,1,8.861
360,11.52,6.8403,0.8114,-0.5455,0.2323,0.1770,2.3753,rough,14.0,1,8.875
370,11.84,6.9068,0.8929,-0.5829,0.3447,0.1357,2.6740,rough,14.0,1,8.857
380,12.16,6.9551,1.0247,-0.6516,0.4525,0.0933,2.9602,rough,14.0,1,8.792
390,12.48,6.9588,1.0782,-0.6777,0.4725,0.0464,3.0617,rough,14.0,1,8.755
400,12.80,6.9557,1.1070,-0.6920,0.4780,-0.0012,-3.1398,rough,14.0,1,8.732
410,13.12,6.9547,1.1074,-0.6924,0.4789,0.0010,-3.1405,rough,14.0,1,8.731
420,13.44,6.9546,1.1073,-0.6923,0.4790,0.0005,-3.1406,rough,14.0,1,8.731
430,13.76,6.9544,1.1072,-0.6922,0.4790,0.0003,-3.1403,rough,14.0,1,8.731
440,14.08,6.9539,1.1068,-0.6920,0.4791,0.0001,-3.1396,rough,14.0,1,8.731
450,14.40,6.9544,1.1064,-0.6917,0.4790,0.0000,-3.1400,rough,14.0,1,8.731
460,14.72,6.9545,1.1061,-0.6916,0.4790,0.0002,-3.1404,rough,14.0,1,8.732
470,15.04,6.9545,1.1060,-0.6915,0.4789,0.0003,-3.1407,rough,14.0,1,8.732
480,15.36,6.9545,1.1059,-0.6915,0.4789,0.0004,-3.1409,rough,14.0,1,8.732
490,15.68,6.9545,1.1059,-0.6915,0.4789,0.0004,-3.1409,rough,14.0,1,8.732
500,16.00,6.9545,1.1059,-0.6915,0.4789,0.0005,-3.1410,rough,14.0,1,8.732
510,16.32,6.9545,1.1059,-0.6914,0.4789,0.0005,-3.1410,rough,14.0,1,8.732
520,16.64,6.9545,1.1058,-0.6914,0.4789,0.0005,-3.1410,rough,14.0,1,8.732
530,16.96,6.9545,1.1058,-0.6914,0.4789,0.0005,-3.1410,rough,14.0,1,8.732
540,17.28,6.9547,1.1058,-0.6922,0.4788,0.0057,-3.1411,rough,14.0,1,8.732
550,17.60,6.9547,1.1070,-0.6921,0.4788,0.0021,3.1398,rough,14.0,1,8.731
560,17.92,6.9547,1.1080,-0.6925,0.4787,0.0020,3.1392,rough,14.0,1,8.730
570,18.24,6.9549,1.1092,-0.6932,0.4788,0.0019,3.1396,rough,14.0,1,8.730
580,18.56,6.9548,1.1100,-0.6936,0.4788,0.0008,-3.1415,rough,14.0,1,8.729
590,18.88,6.9547,1.1101,-0.6937,0.4789,0.0006,-3.1410,rough,14.0,1,8.729
600,19.20,6.9546,1.1100,-0.6936,0.4790,0.0005,-3.1404,rough,14.0,1,8.729
610,19.52,6.9545,1.1096,-0.6934,0.4791,0.0001,-3.1396,rough,14.0,1,8.729
620,19.84,6.9545,1.1089,-0.6931,0.4791,-0.0004,-3.1388,rough,14.0,1,8.729
630,20.16,6.9543,1.1079,-0.6926,0.4791,-0.0010,-3.1378,rough,14.0,1,8.730
640,20.48,6.9545,1.1070,-0.6921,0.4790,-0.0007,-3.1385,rough,14.0,1,8.731
650,20.80,6.9545,1.1065,-0.6918,0.4790,-0.0002,-3.1396,rough,14.0,1,8.731
660,21.12,6.9545,1.1062,-0.6916,0.4790,0.0001,-3.1402,rough,14.0,1,8.731
670,21.44,6.9545,1.1061,-0.6915,0.4789,0.0003,-3.1406,rough,14.0,1,8.732
680,21.76,6.9545,1.1060,-0.6915,0.4789,0.0004,-3.1408,rough,14.0,1,8.732
690,22.08,6.9545,1.1059,-0.6915,0.4789,0.0004,-3.1409,rough,14.0,1,8.732
700,22.40,6.9545,1.1059,-0.6915,0.4789,0.0005,-3.1410,rough,14.0,1,8.732
710,22.72,6.9545,1.1059,-0.6914,0.4789,0.0005,-3.1410,rough,14.0,1,8.732
720,23.04,6.9545,1.1058,-0.6914,0.4789,0.0005,-3.1410,rough,14.0,1,8.732
730,23.36,6.9545,1.1058,-0.6914,0.4789,0.0005,-3.1410,rough,14.0,1,8.732
740,23.68,6.9545,1.1058,-0.6914,0.4789,0.0004,-3.1411,rough,14.0,1,8.732
750,24.00,6.9547,1.1067,-0.6920,0.4789,0.0025,3.1402,rough,14.0,1,8.731
760,24.32,6.9547,1.1076,-0.6924,0.4787,0.0019,3.1394,rough,14.0,1,8.731
770,24.64,6.9549,1.1088,-0.6930,0.4787,0.0021,3.1390,rough,14.0,1,8.730
780,24.96,6.9548,1.1099,-0.6936,0.4788,0.0009,3.1414,rough,14.0,1,8.729
790,25.28,6.9548,1.1101,-0.6937,0.4789,0.0007,-3.1411,rough,14.0,1,8.729
800,25.60,6.9547,1.1100,-0.6937,0.4790,0.0006,-3.1406,rough,14.0,1,8.729
810,25.92,6.9545,1.1097,-0.6935,0.4791,0.0003,-3.1399,rough,14.0,1,8.729
820,26.24,6.9545,1.1092,-0.6932,0.4791,-0.0002,-3.1391,rough,14.0,1,8.729
830,26.56,6.9545,1.1083,-0.6927,0.4791,-0.0008,-3.1382,rough,14.0,1,8.730
840,26.88,6.9544,1.1072,-0.6922,0.4791,-0.0009,-3.1382,rough,14.0,1,8.731
850,27.20,6.9545,1.1066,-0.6919,0.4790,-0.0003,-3.1393,rough,14.0,1,8.731
860,27.52,6.9545,1.1063,-0.6917,0.4790,0.0000,-3.1401,rough,14.0,1,8.731
870,27.84,6.9545,1.1061,-0.6916,0.4789,0.0002,-3.1405,rough,14.0,1,8.732
880,28.16,6.9545,1.1060,-0.6915,0.4789,0.0003,-3.1408,rough,14.0,1,8.732
890,28.48,6.9545,1.1059,-0.6915,0.4789,0.0004,-3.1409,rough,14.0,1,8.732
900,28.80,6.9545,1.1059,-0.6915,0.4789,0.0005,-3.1410,rough,14.0,1,8.732
910,29.12,6.9545,1.1059,-0.6914,0.4789,0.0005,-3.1410,rough,14.0,1,8.732
920,29.44,6.9545,1.1059,-0.6914,0.4789,0.0005,-3.1410,rough,14.0,1,8.732
930,29.76,6.9545,1.1058,-0.6914,0.4789,0.0005,-3.1410,rough,14.0,1,8.732
940,30.08,6.9545,1.1058,-0.6914,0.4789,0.0004,-3.1410,rough,14.0,1,8.732
950,30.40,6.9547,1.1065,-0.6920,0.4789,0.0027,3.1404,rough,14.0,1,8.731
960,30.72,6.9547,1.1074,-0.6923,0.4787,0.0019,3.1395,rough,14.0,1,8.731
970,31.04,6.9548,1.1085,-0.6928,0.4787,0.0021,3.1390,rough,14.0,1,8.730
980,31.36,6.9549,1.1098,-0.6935,0.4788,0.0011,3.1410,rough,14.0,1,8.729
990,31.68,6.9548,1.1101,-0.6937,0.4789,0.0007,-3.1412,rough,14.0,1,8.729
1000,32.00,6.9547,1.1100,-0.6937,0.4790,0.0006,-3.1407,rough,14.0,1,8.729
1010,32.32,6.9546,1.1098,-0.6936,0.4791,0.0003,-3.1400,rough,14.0,1,8.729
1020,32.64,6.9545,1.1093,-0.6933,0.4791,-0.0001,-3.1392,rough,14.0,1,8.729
1030,32.96,6.9545,1.1085,-0.6928,0.4791,-0.0007,-3.1384,rough,14.0,1,8.730
1040,33.28,6.9544,1.1074,-0.6923,0.4791,-0.0010,-3.1379,rough,14.0,1,8.730
1050,33.60,6.9545,1.1067,-0.6919,0.4790,-0.0004,-3.1391,rough,14.0,1,8.731
1060,33.92,6.9545,1.1063,-0.6917,0.4790,-0.0000,-3.1399,rough,14.0,1,8.731
1070,34.24,6.9545,1.1061,-0.6916,0.4789,0.0002,-3.1404,rough,14.0,1,8.732
1080,34.56,6.9545,1.1060,-0.6915,0.4789,0.0003,-3.1407,rough,14.0,1,8.732
1090,34.88,6.9545,1.1059,-0.6915,0.4789,0.0004,-3.1409,rough,14.0,1,8.732
1100,35.20,6.9545,1.1059,-0.6915,0.4789,0.0004,-3.1410,rough,14.0,1,8.732
1110,35.52,6.9545,1.1059,-0.6915,0.4789,0.0005,-3.1410,rough,14.0,1,8.732
1120,35.84,6.9545,1.1059,-0.6914,0.4789,0.0005,-3.1410,rough,14.0,1,8.732
1130,36.16,6.9545,1.1058,-0.6914,0.4789,0.0005,-3.1410,rough,14.0,1,8.732
1140,36.48,6.9545,1.1058,-0.6914,0.4789,0.0005,-3.1410,rough,14.0,1,8.732
1150,36.80,6.9547,1.1063,-0.6919,0.4789,0.0031,3.1407,rough,14.0,1,8.732
1160,37.12,6.9547,1.1072,-0.6922,0.4787,0.0019,3.1396,rough,14.0,1,8.731
1170,37.44,6.9548,1.1083,-0.6927,0.4787,0.0020,3.1391,rough,14.0,1,8.730
1180,37.76,6.9549,1.1096,-0.6934,0.4788,0.0014,3.1405,rough,14.0,1,8.729
1190,38.08,6.9548,1.1100,-0.6937,0.4789,0.0007,-3.1413,rough,14.0,1,8.729
1200,38.40,6.9547,1.1101,-0.6937,0.4790,0.0006,-3.1408,rough,14.0,1,8.729
1210,38.72,6.9546,1.1099,-0.6936,0.4791,0.0004,-3.1402,rough,14.0,1,8.729
1220,39.04,6.9545,1.1094,-0.6934,0.4791,-0.0000,-3.1394,rough,14.0,1,8.729
1230,39.36,6.9545,1.1087,-0.6929,0.4791,-0.0006,-3.1385,rough,14.0,1,8.730
1240,39.68,6.9543,1.1076,-0.6924,0.4791,-0.0011,-3.1376,rough,14.0,1,8.730
1250,40.00,6.9545,1.1068,-0.6920,0.4790,-0.0005,-3.1389,rough,14.0,1,8.731
1260,40.32,6.9545,1.1064,-0.6917,0.4790,-0.0001,-3.1398,rough,14.0,1,8.731
1270,40.64,6.9545,1.1062,-0.6916,0.4790,0.0002,-3.1404,rough,14.0,1,8.732
1280,40.96,6.9545,1.1060,-0.6915,0.4789,0.0003,-3.1407,rough,14.0,1,8.732
1290,41.28,6.9545,1.1059,-0.6915,0.4789,0.0004,-3.1408,rough,14.0,1,8.732
1300,41.60,6.9545,1.1059,-0.6915,0.4789,0.0004,-3.1409,rough,14.0,1,8.732
1310,41.92,6.9545,1.1059,-0.6915,0.4789,0.0005,-3.1410,rough,14.0,1,8.732
1320,42.24,6.9545,1.1059,-0.6914,0.4789,0.0005,-3.1410,rough,14.0,1,8.732
1330,42.56,6.9545,1.1058,-0.6914,0.4789,0.0005,-3.1410,rough,14.0,1,8.732
1340,42.88,6.9545,1.1058,-0.6914,0.4789,0.0005,-3.1410,rough,14.0,1,8.732
1350,43.20,6.9547,1.1058,-0.6922,0.4788,0.0057,-3.1411,rough,14.0,1,8.732
1360,43.52,6.9547,1.1070,-0.6921,0.4788,0.0021,3.1398,rough,14.0,1,8.731
1370,43.84,6.9547,1.1080,-0.6925,0.4787,0.0020,3.1392,rough,14.0,1,8.730
1380,44.16,6.9549,1.1092,-0.6932,0.4788,0.0019,3.1396,rough,14.0,1,8.730
1390,44.48,6.9548,1.1100,-0.6936,0.4788,0.0008,-3.1415,rough,14.0,1,8.729
1400,44.80,6.9547,1.1101,-0.6937,0.4789,0.0006,-3.1410,rough,14.0,1,8.729
1410,45.12,6.9546,1.1100,-0.6936,0.4790,0.0005,-3.1404,rough,14.0,1,8.729
1420,45.44,6.9545,1.1096,-0.6934,0.4791,0.0001,-3.1396,rough,14.0,1,8.729
1430,45.76,6.9545,1.1089,-0.6931,0.4791,-0.0004,-3.1388,rough,14.0,1,8.729
1440,46.08,6.9543,1.1079,-0.6926,0.4791,-0.0010,-3.1378,rough,14.0,1,8.730
1450,46.40,6.9545,1.1070,-0.6921,0.4790,-0.0007,-3.1385,rough,14.0,1,8.731
1460,46.72,6.9545,1.1065,-0.6918,0.4790,-0.0002,-3.1396,rough,14.0,1,8.731
1470,47.04,6.9545,1.1062,-0.6916,0.4790,0.0001,-3.1402,rough,14.0,1,8.731
1480,47.36,6.9545,1.1061,-0.6915,0.4789,0.0003,-3.1406,rough,14.0,1,8.732
1490,47.68,6.9545,1.1060,-0.6915,0.4789,0.0004,-3.1408,rough,14.0,1,8.732
1500,48.00,6.9545,1.1059,-0.6915,0.4789,0.0004,-3.1409,rough,14.0,1,8.732
1510,48.32,6.9545,1.1059,-0.6915,0.4789,0.0005,-3.1410,rough,14.0,1,8.732
1520,48.64,6.9545,1.1059,-0.6914,0.4789,0.0005,-3.1410,rough,14.0,1,8.732
1530,48.96,6.9545,1.1058,-0.6914,0.4789,0.0005,-3.1410,rough,14.0,1,8.732
1540,49.28,6.9545,1.1058,-0.6914,0.4789,0.0005,-3.1410,rough,14.0,1,8.732
1550,49.60,6.9545,1.1058,-0.6914,0.4789,0.0004,-3.1411,rough,14.0,1,8.732
1560,49.92,6.9547,1.1066,-0.6920,0.4789,0.0026,3.1403,rough,14.0,1,8.731
1570,50.24,6.9547,1.1075,-0.6923,0.4787,0.0019,3.1394,rough,14.0,1,8.731
1580,50.56,6.9549,1.1086,-0.6929,0.4787,0.0021,3.1390,rough,14.0,1,8.730
1590,50.88,6.9548,1.1099,-0.6935,0.4788,0.0010,3.1412,rough,14.0,1,8.729
1600,51.20,6.9548,1.1101,-0.6937,0.4789,0.0007,-3.1412,rough,14.0,1,8.729
1610,51.52,6.9547,1.1100,-0.6937,0.4790,0.0006,-3.1406,rough,14.0,1,8.729
1620,51.84,6.9546,1.1098,-0.6935,0.4791,0.0003,-3.1399,rough,14.0,1,8.729
1630,52.16,6.9545,1.1092,-0.6933,0.4791,-0.0002,-3.1391,rough,14.0,1,8.729
1640,52.48,6.9545,1.1084,-0.6928,0.4791,-0.0007,-3.1383,rough,14.0,1,8.730
1650,52.80,6.9544,1.1073,-0.6922,0.4791,-0.0009,-3.1380,rough,14.0,1,8.731
1660,53.12,6.9545,1.1067,-0.6919,0.4790,-0.0004,-3.1392,rough,14.0,1,8.731
1670,53.44,6.9545,1.1063,-0.6917,0.4790,-0.0000,-3.1400,rough,14.0,1,8.731
1680,53.76,6.9545,1.1061,-0.6916,0.4789,0.0002,-3.1405,rough,14.0,1,8.732
1690,54.08,6.9545,1.1060,-0.6915,0.4789,0.0003,-3.1407,rough,14.0,1,8.732
1700,54.40,6.9545,1.1059,-0.6915,0.4789,0.0004,-3.1409,rough,14.0,1,8.732
1710,54.72,6.9545,1.1059,-0.6915,0.4789,0.0004,-3.1410,rough,14.0,1,8.732
1720,55.04,6.9545,1.1059,-0.6914,0.4789,0.0005,-3.1410,rough,14.0,1,8.732
1730,55.36,6.9545,1.1059,-0.6914,0.4789,0.0005,-3.1410,rough,14.0,1,8.732
1740,55.68,6.9545,1.1058,-0.6914,0.4789,0.0005,-3.1410,rough,14.0,1,8.732
1750,56.00,6.9545,1.1058,-0.6914,0.4789,0.0004,-3.1410,rough,14.0,1,8.732
1760,56.32,6.9547,1.1063,-0.6919,0.4789,0.0031,3.1407,rough,14.0,1,8.732
1770,56.64,6.9547,1.1072,-0.6922,0.4787,0.0019,3.1396,rough,14.0,1,8.731
1780,56.96,6.9548,1.1083,-0.6927,0.4787,0.0020,3.1391,rough,14.0,1,8.730
1790,57.28,6.9549,1.1096,-0.6934,0.4788,0.0014,3.1405,rough,14.0,1,8.729
1800,57.60,6.9548,1.1100,-0.6937,0.4789,0.0007,-3.1413,rough,14.0,1,8.729
1810,57.92,6.9547,1.1101,-0.6937,0.4790,0.0006,-3.1408,rough,14.0,1,8.729
1820,58.24,6.9546,1.1099,-0.6936,0.4791,0.0004,-3.1402,rough,14.0,1,8.729
1830,58.56,6.9545,1.1094,-0.6934,0.4791,-0.0000,-3.1394,rough,14.0,1,8.729
1840,58.88,6.9545,1.1087,-0.6929,0.4791,-0.0006,-3.1385,rough,14.0,1,8.730
1850,59.20,6.9543,1.1076,-0.6924,0.4791,-0.0011,-3.1376,rough,14.0,1,8.730
1860,59.52,6.9545,1.1068,-0.6920,0.4790,-0.0005,-3.1389,rough,14.0,1,8.731
1870,59.84,6.9545,1.1064,-0.6917,0.4790,-0.0001,-3.1398,rough,14.0,1,8.731
1880,60.16,6.9545,1.1062,-0.6916,0.4790,0.0002,-3.1404,rough,14.0,1,8.732
1890,60.48,6.9545,1.1060,-0.6915,0.4789,0.0003,-3.1407,rough,14.0,1,8.732
1900,60.80,6.9545,1.1059,-0.6915,0.4789,0.0004,-3.1408,rough,14.0,1,8.732
1910,61.12,6.9545,1.1059,-0.6915,0.4789,0.0004,-3.1409,rough,14.0,1,8.732
1920,61.44,6.9545,1.1059,-0.6915,0.4789,0.0005,-3.1410,rough,14.0,1,8.732
1930,61.76,6.9545,1.1059,-0.6914,0.4789,0.0005,-3.1410,rough,14.0,1,8.732
1940,62.08,6.9545,1.1058,-0.6914,0.4789,0.0005,-3.1410,rough,14.0,1,8.732
1950,62.40,6.9545,1.1058,-0.6914,0.4789,0.0005,-3.1410,rough,14.0,1,8.732
1960,62.72,6.9548,1.1061,-0.6919,0.4788,0.0036,3.1410,rough,14.0,1,8.732
1970,63.04,6.9547,1.1071,-0.6921,0.4788,0.0020,3.1397,rough,14.0,1,8.731
1980,63.36,6.9547,1.1081,-0.6926,0.4787,0.0020,3.1392,rough,14.0,1,8.730
1990,63.68,6.9549,1.1094,-0.6933,0.4788,0.0017,3.1399,rough,14.0,1,8.729
2000,64.00,6.9548,1.1100,-0.6936,0.4788,0.0008,-3.1414,rough,14.0,1,8.729
2010,64.32,6.9547,1.1101,-0.6937,0.4789,0.0006,-3.1409,rough,14.0,1,8.729
2020,64.64,6.9546,1.1099,-0.6936,0.4790,0.0005,-3.1403,rough,14.0,1,8.729
2030,64.96,6.9545,1.1095,-0.6934,0.4791,0.0001,-3.1396,rough,14.0,1,8.729
2040,65.28,6.9545,1.1088,-0.6930,0.4791,-0.0004,-3.1387,rough,14.0,1,8.730
2050,65.60,6.9542,1.1078,-0.6925,0.4791,-0.0010,-3.1376,rough,14.0,1,8.730
2060,65.92,6.9545,1.1069,-0.6920,0.4790,-0.0006,-3.1387,rough,14.0,1,8.731
2070,66.24,6.9545,1.1065,-0.6918,0.4790,-0.0002,-3.1397,rough,14.0,1,8.731
2080,66.56,6.9545,1.1062,-0.6916,0.4790,0.0001,-3.1403,rough,14.0,1,8.731
2090,66.88,6.9545,1.1060,-0.6915,0.4789,0.0003,-3.1406,rough,14.0,1,8.732
2100,67.20,6.9545,1.1060,-0.6915,0.4789,0.0004,-3.1408,rough,14.0,1,8.732
2110,67.52,6.9545,1.1059,-0.6915,0.4789,0.0004,-3.1409,rough,14.0,1,8.732
2120,67.84,6.9545,1.1059,-0.6915,0.4789,0.0005,-3.1410,rough,14.0,1,8.732
2130,68.16,6.9545,1.1059,-0.6914,0.4789,0.0005,-3.1410,rough,14.0,1,8.732
2140,68.48,6.9545,1.1058,-0.6914,0.4789,0.0005,-3.1410,rough,14.0,1,8.732
2150,68.80,6.9545,1.1058,-0.6914,0.4789,0.0005,-3.1410,rough,14.0,1,8.732
2160,69.12,6.9545,1.1058,-0.6914,0.4789,0.0004,-3.1411,rough,14.0,1,8.732
2170,69.44,6.9547,1.1068,-0.6920,0.4789,0.0024,3.1401,rough,14.0,1,8.731
2180,69.76,6.9547,1.1077,-0.6924,0.4787,0.0019,3.1393,rough,14.0,1,8.730
2190,70.08,6.9549,1.1089,-0.6930,0.4787,0.0021,3.1391,rough,14.0,1,8.730
2200,70.40,6.9548,1.1100,-0.6936,0.4788,0.0009,3.1415,rough,14.0,1,8.729
2210,70.72,6.9548,1.1101,-0.6937,0.4789,0.0006,-3.1411,rough,14.0,1,8.729
2220,71.04,6.9547,1.1100,-0.6937,0.4790,0.0005,-3.1405,rough,14.0,1,8.729
2230,71.36,6.9545,1.1097,-0.6935,0.4791,0.0002,-3.1398,rough,14.0,1,8.729
2240,71.68,6.9545,1.1091,-0.6932,0.4791,-0.0003,-3.1390,rough,14.0,1,8.729
2250,72.00,6.9545,1.1081,-0.6927,0.4791,-0.0009,-3.1381,rough,14.0,1,8.730
2260,72.32,6.9544,1.1071,-0.6921,0.4791,-0.0008,-3.1383,rough,14.0,1,8.731
2270,72.64,6.9545,1.1066,-0.6918,0.4790,-0.0003,-3.1394,rough,14.0,1,8.731
2280,72.96,6.9545,1.1063,-0.6917,0.4790,0.0001,-3.1401,rough,14.0,1,8.731
2290,73.28,6.9545,1.1061,-0.6916,0.4789,0.0002,-3.1405,rough,14.0,1,8.732
2300,73.60,6.9545,1.1060,-0.6915,0.4789,0.0004,-3.1408,rough,14.0,1,8.732
2310,73.92,6.9545,1.1059,-0.6915,0.4789,0.0004,-3.1409,rough,14.0,1,8.732
2320,74.24,6.9545,1.1059,-0.6915,0.4789,0.0005,-3.1410,rough,14.0,1,8.732
2330,74.56,6.9545,1.1059,-0.6914,0.4789,0.0005,-3.1410,rough,14.0,1,8.732
2340,74.88,6.9545,1.1059,-0.6914,0.4789,0.0005,-3.1410,rough,14.0,1,8.732
2350,75.20,6.9545,1.1058,-0.6914,0.4789,0.0005,-3.1410,rough,14.0,1,8.732
2360,75.52,6.9545,1.1058,-0.6914,0.4789,0.0004,-3.1410,rough,14.0,1,8.732
2370,75.84,6.9547,1.1064,-0.6919,0.4789,0.0029,3.1405,rough,14.0,1,8.731
2380,76.16,6.9547,1.1073,-0.6922,0.4787,0.0019,3.1395,rough,14.0,1,8.731
2390,76.48,6.9548,1.1084,-0.6928,0.4787,0.0021,3.1390,rough,14.0,1,8.730
2400,76.80,6.9549,1.1097,-0.6935,0.4788,0.0013,3.1407,rough,14.0,1,8.729
2410,77.12,6.9548,1.1101,-0.6937,0.4789,0.0007,-3.1413,rough,14.0,1,8.729
2420,77.44,6.9547,1.1101,-0.6937,0.4790,0.0006,-3.1407,rough,14.0,1,8.729
2430,77.76,6.9546,1.1098,-0.6936,0.4791,0.0004,-3.1401,rough,14.0,1,8.729
2440,78.08,6.9545,1.1094,-0.6933,0.4791,-0.0001,-3.1393,rough,14.0,1,8.729
2450,78.40,6.9545,1.1086,-0.6929,0.4791,-0.0006,-3.1385,rough,14.0,1,8.730
2460,78.72,6.9543,1.1075,-0.6923,0.4791,-0.0010,-3.1378,rough,14.0,1,8.730
2470,79.04,6.9545,1.1068,-0.6919,0.4790,-0.0005,-3.1390,rough,14.0,1,8.731
2480,79.36,6.9545,1.1064,-0.6917,0.4790,-0.0001,-3.1399,rough,14.0,1,8.731
2490,79.68,6.9545,1.1061,-0.6916,0.4789,0.0002,-3.1404,rough,14.0,1,8.732
2500,80.00,6.9545,1.1060,-0.6915,0.4789,0.0003,-3.1407,rough,14.0,1,8.732
2510,80.32,6.9545,1.1059,-0.6915,0.4789,0.0004,-3.1409,rough,14.0,1,8.732
2520,80.64,6.9545,1.1059,-0.6915,0.4789,0.0004,-3.1409,rough,14.0,1,8.732
2530,80.96,6.9545,1.1059,-0.6915,0.4789,0.0005,-3.1410,rough,14.0,1,8.732
2540,81.28,6.9545,1.1059,-0.6914,0.4789,0.0005,-3.1410,rough,14.0,1,8.732
2550,81.60,6.9545,1.1058,-0.6914,0.4789,0.0005,-3.1410,rough,14.0,1,8.732
2560,81.92,6.9545,1.1058,-0.6914,0.4789,0.0005,-3.1410,rough,14.0,1,8.732
2570,82.24,6.9548,1.1061,-0.6919,0.4788,0.0036,3.1410,rough,14.0,1,8.732
2580,82.56,6.9547,1.1071,-0.6921,0.4788,0.0020,3.1397,rough,14.0,1,8.731
2590,82.88,6.9547,1.1081,-0.6926,0.4787,0.0020,3.1392,rough,14.0,1,8.730
2600,83.20,6.9549,1.1094,-0.6933,0.4788,0.0017,3.1399,rough,14.0,1,8.729
2610,83.52,6.9548,1.1100,-0.6936,0.4788,0.0008,-3.1414,rough,14.0,1,8.729
2620,83.84,6.9547,1.1101,-0.6937,0.4789,0.0006,-3.1409,rough,14.0,1,8.729
2630,84.16,6.9546,1.1099,-0.6936,0.4790,0.0005,-3.1403,rough,14.0,1,8.729
2640,84.48,6.9545,1.1095,-0.6934,0.4791,0.0001,-3.1396,rough,14.0,1,8.729
2650,84.80,6.9545,1.1088,-0.6930,0.4791,-0.0004,-3.1387,rough,14.0,1,8.730
2660,85.12,6.9542,1.1078,-0.6925,0.4791,-0.0010,-3.1376,rough,14.0,1,8.730
2670,85.44,6.9545,1.1069,-0.6920,0.4790,-0.0006,-3.1387,rough,14.0,1,8.731
2680,85.76,6.9545,1.1065,-0.6918,0.4790,-0.0002,-3.1397,rough,14.0,1,8.731
2690,86.08,6.9545,1.1062,-0.6916,0.4790,0.0001,-3.1403,rough,14.0,1,8.731
2700,86.40,6.9545,1.1060,-0.6915,0.4789,0.0003,-3.1406,rough,14.0,1,8.732
2710,86.72,6.9545,1.1060,-0.6915,0.4789,0.0004,-3.1408,rough,14.0,1,8.732
2720,87.04,6.9545,1.1059,-0.6915,0.4789,0.0004,-3.1409,rough,14.0,1,8.732
2730,87.36,6.9545,1.1059,-0.6915,0.4789,0.0005,-3.1410,rough,14.0,1,8.732
2740,87.68,6.9545,1.1059,-0.6914,0.4789,0.0005,-3.1410,rough,14.0,1,8.732
2750,88.00,6.9545,1.1058,-0.6914,0.4789,0.0005,-3.1410,rough,14.0,1,8.732
2760,88.32,6.9545,1.1058,-0.6914,0.4789,0.0005,-3.1410,rough,14.0,1,8.732
2770,88.64,6.9545,1.1058,-0.6914,0.4789,0.0004,-3.1411,rough,14.0,1,8.732
2780,88.96,6.9547,1.1069,-0.6921,0.4788,0.0022,3.1399,rough,14.0,1,8.731
2790,89.28,6.9547,1.1078,-0.6925,0.4787,0.0019,3.1393,rough,14.0,1,8.730
2800,89.60,6.9549,1.1091,-0.6931,0.4788,0.0020,3.1393,rough,14.0,1,8.730
2810,89.92,6.9548,1.1100,-0.6936,0.4788,0.0008,-3.1415,rough,14.0,1,8.729
2820,90.24,6.9548,1.1101,-0.6937,0.4789,0.0006,-3.1410,rough,14.0,1,8.729
2830,90.56,6.9547,1.1100,-0.6936,0.4790,0.0005,-3.1404,rough,14.0,1,8.729
2840,90.88,6.9545,1.1096,-0.6935,0.4791,0.0002,-3.1397,rough,14.0,1,8.729
2850,91.20,6.9545,1.1090,-0.6931,0.4791,-0.0003,-3.1389,rough,14.0,1,8.729
2860,91.52,6.9544,1.1080,-0.6926,0.4791,-0.0009,-3.1379,rough,14.0,1,8.730
2870,91.84,6.9545,1.1071,-0.6921,0.4790,-0.0007,-3.1384,rough,14.0,1,8.731
2880,92.16,6.9545,1.1065,-0.6918,0.4790,-0.0002,-3.1395,rough,14.0,1,8.731
2890,92.48,6.9545,1.1062,-0.6916,0.4790,0.0001,-3.1402,rough,14.0,1,8.731
2900,92.80,6.9545,1.1061,-0.6916,0.4789,0.0003,-3.1406,rough,14.0,1,8.732
2910,93.12,6.9545,1.1060,-0.6915,0.4789,0.0004,-3.1408,rough,14.0,1,8.732
2920,93.44,6.9545,1.1059,-0.6915,0.4789,0.0004,-3.1409,rough,14.0,1,8.732
2930,93.76,6.9545,1.1059,-0.6915,0.4789,0.0005,-3.1410,rough,14.0,1,8.732
2940,94.08,6.9545,1.1059,-0.6914,0.4789,0.0005,-3.1410,rough,14.0,1,8.732
2950,94.40,6.9545,1.1059,-0.6914,0.4789,0.0005,-3.1410,rough,14.0,1,8.732
2960,94.72,6.9545,1.1058,-0.6914,0.4789,0.0005,-3.1410,rough,14.0,1,8.732
2970,95.04,6.9545,1.1058,-0.6914,0.4789,0.0004,-3.1410,rough,14.0,1,8.732
2980,95.36,6.9547,1.1067,-0.6920,0.4789,0.0025,3.1402,rough,14.0,1,8.731
2990,95.68,6.9547,1.1076,-0.6924,0.4787,0.0019,3.1394,rough,14.0,1,8.731
3000,96.00,6.9549,1.1088,-0.6930,0.4787,0.0021,3.1390,rough,14.0,1,8.730
3010,96.32,6.9548,1.1099,-0.6936,0.4788,0.0009,3.1414,rough,14.0,1,8.729
3020,96.64,6.9548,1.1101,-0.6937,0.4789,0.0007,-3.1411,rough,14.0,1,8.729
3030,96.96,6.9547,1.1100,-0.6937,0.4790,0.0006,-3.1406,rough,14.0,1,8.729
3040,97.28,6.9545,1.1097,-0.6935,0.4791,0.0003,-3.1399,rough,14.0,1,8.729
3050,97.60,6.9545,1.1092,-0.6932,0.4791,-0.0002,-3.1391,rough,14.0,1,8.729
3060,97.92,6.9545,1.1083,-0.6927,0.4791,-0.0008,-3.1382,rough,14.0,1,8.730
3070,98.24,6.9544,1.1072,-0.6922,0.4791,-0.0009,-3.1382,rough,14.0,1,8.731
3080,98.56,6.9545,1.1066,-0.6919,0.4790,-0.0003,-3.1393,rough,14.0,1,8.731
3090,98.88,6.9545,1.1063,-0.6917,0.4790,0.0000,-3.1401,rough,14.0,1,8.731
3100,99.20,6.9545,1.1061,-0.6916,0.4789,0.0002,-3.1405,rough,14.0,1,8.732
3110,99.52,6.9545,1.1060,-0.6915,0.4789,0.0003,-3.1408,rough,14.0,1,8.732
3120,99.84,6.9545,1.1059,-0.6915,0.4789,0.0004,-3.1409,rough,14.0,1,8.732
3130,100.16,6.9545,1.1059,-0.6915,0.4789,0.0005,-3.1410,rough,14.0,1,8.732
3140,100.48,6.9545,1.1059,-0.6914,0.4789,0.0005,-3.1410,rough,14.0,1,8.732
3150,100.80,6.9545,1.1059,-0.6914,0.4789,0.0005,-3.1410,rough,14.0,1,8.732
3160,101.12,6.9545,1.1058,-0.6914,0.4789,0.0005,-3.1410,rough,14.0,1,8.732
3170,101.44,6.9545,1.1058,-0.6914,0.4789,0.0004,-3.1410,rough,14.0,1,8.732
3180,101.76,6.9547,1.1063,-0.6919,0.4789,0.0031,3.1407,rough,14.0,1,8.732
3190,102.08,6.9547,1.1072,-0.6922,0.4787,0.0019,3.1396,rough,14.0,1,8.731
3200,102.40,6.9548,1.1083,-0.6927,0.4787,0.0020,3.1391,rough,14.0,1,8.730
3210,102.72,6.9549,1.1096,-0.6934,0.4788,0.0014,3.1405,rough,14.0,1,8.729
3220,103.04,6.9548,1.1100,-0.6936,0.4789,0.0007,-3.1413,rough,14.0,1,8.729
3230,103.36,6.9547,1.1101,-0.6937,0.4790,0.0006,-3.1408,rough,14.0,1,8.729
3240,103.68,6.9546,1.1099,-0.6936,0.4791,0.0004,-3.1402,rough,14.0,1,8.729
3250,104.00,6.9545,1.1094,-0.6934,0.4791,-0.0000,-3.1394,rough,14.0,1,8.729
3260,104.32,6.9545,1.1087,-0.6929,0.4791,-0.0006,-3.1385,rough,14.0,1,8.730
3270,104.64,6.9543,1.1076,-0.6924,0.4791,-0.0011,-3.1376,rough,14.0,1,8.730
3280,104.96,6.9545,1.1068,-0.6920,0.4790,-0.0005,-3.1389,rough,14.0,1,8.731
3290,105.28,6.9545,1.1064,-0.6917,0.4790,-0.0001,-3.1398,rough,14.0,1,8.731
3300,105.60,6.9545,1.1062,-0.6916,0.4790,0.0002,-3.1404,rough,14.0,1,8.732
3310,105.92,6.9545,1.1060,-0.6915,0.4789,0.0003,-3.1407,rough,14.0,1,8.732
3320,106.24,6.9545,1.1059,-0.6915,0.4789,0.0004,-3.1408,rough,14.0,1,8.732
3330,106.56,6.9545,1.1059,-0.6915,0.4789,0.0004,-3.1409,rough,14.0,1,8.732
3340,106.88,6.9545,1.1059,-0.6915,0.4789,0.0005,-3.1410,rough,14.0,1,8.732
3350,107.20,6.9545,1.1059,-0.6914,0.4789,0.0005,-3.1410,rough,14.0,1,8.732
3360,107.52,6.9545,1.1058,-0.6914,0.4789,0.0005,-3.1410,rough,14.0,1,8.732
3370,107.84,6.9545,1.1058,-0.6914,0.4789,0.0005,-3.1410,rough,14.0,1,8.732
3380,108.16,6.9547,1.1058,-0.6922,0.4788,0.0057,-3.1411,rough,14.0,1,8.732
3390,108.48,6.9547,1.1070,-0.6921,0.4788,0.0021,3.1398,rough,14.0,1,8.731
3400,108.80,6.9547,1.1080,-0.6925,0.4787,0.0020,3.1392,rough,14.0,1,8.730
3410,109.12,6.9549,1.1092,-0.6932,0.4788,0.0019,3.1396,rough,14.0,1,8.730
3420,109.44,6.9548,1.1100,-0.6936,0.4788,0.0008,-3.1415,rough,14.0,1,8.729
3430,109.76,6.9547,1.1101,-0.6937,0.4789,0.0006,-3.1410,rough,14.0,1,8.729
3440,110.08,6.9546,1.1100,-0.6936,0.4790,0.0005,-3.1404,rough,14.0,1,8.729
3450,110.40,6.9545,1.1096,-0.6934,0.4791,0.0001,-3.1396,rough,14.0,1,8.729
3460,110.72,6.9545,1.1089,-0.6931,0.4791,-0.0004,-3.1388,rough,14.0,1,8.729
3470,111.04,6.9543,1.1079,-0.6926,0.4791,-0.0010,-3.1378,rough,14.0,1,8.730
3480,111.36,6.9545,1.1070,-0.6921,0.4790,-0.0007,-3.1385,rough,14.0,1,8.731
3490,111.68,6.9545,1.1065,-0.6918,0.4790,-0.0002,-3.1396,rough,14.0,1,8.731
3500,112.00,6.9545,1.1062,-0.6916,0.4790,0.0001,-3.1402,rough,14.0,1,8.731
3510,112.32,6.9545,1.1061,-0.6915,0.4789,0.0003,-3.1406,rough,14.0,1,8.732
3520,112.64,6.9545,1.1060,-0.6915,0.4789,0.0004,-3.1408,rough,14.0,1,8.732
3530,112.96,6.9545,1.1059,-0.6915,0.4789,0.0004,-3.1409,rough,14.0,1,8.732
3540,113.28,6.9545,1.1059,-0.6915,0.4789,0.0005,-3.1410,rough,14.0,1,8.732
3550,113.60,6.9545,1.1059,-0.6914,0.4789,0.0005,-3.1410,rough,14.0,1,8.732
3560,113.92,6.9545,1.1058,-0.6914,0.4789,0.0005,-3.1410,rough,14.0,1,8.732
3570,114.24,6.9545,1.1058,-0.6914,0.4789,0.0005,-3.1410,rough,14.0,1,8.732
3580,114.56,6.9545,1.1058,-0.6914,0.4789,0.0004,-3.1411,rough,14.0,1,8.732
3590,114.88,6.9547,1.1068,-0.6920,0.4789,0.0024,3.1401,rough,14.0,1,8.731
3600,115.20,6.9547,1.1077,-0.6924,0.4787,0.0019,3.1393,rough,14.0,1,8.730
3610,115.52,6.9549,1.1089,-0.6930,0.4787,0.0021,3.1391,rough,14.0,1,8.730
3620,115.84,6.9548,1.1100,-0.6936,0.4788,0.0009,3.1415,rough,14.0,1,8.729
3630,116.16,6.9548,1.1101,-0.6937,0.4789,0.0006,-3.1411,rough,14.0,1,8.729
3640,116.48,6.9547,1.1100,-0.6937,0.4790,0.0005,-3.1405,rough,14.0,1,8.729
3650,116.80,6.9545,1.1097,-0.6935,0.4791,0.0002,-3.1398,rough,14.0,1,8.729
3660,117.12,6.9545,1.1091,-0.6932,0.4791,-0.0003,-3.1390,rough,14.0,1,8.729
3670,117.44,6.9545,1.1082,-0.6927,0.4791,-0.0009,-3.1381,rough,14.0,1,8.730
3680,117.76,6.9544,1.1071,-0.6921,0.4791,-0.0008,-3.1383,rough,14.0,1,8.731
3690,118.08,6.9545,1.1066,-0.6918,0.4790,-0.0003,-3.1394,rough,14.0,1,8.731
3700,118.40,6.9545,1.1063,-0.6917,0.4790,0.0000,-3.1401,rough,14.0,1,8.731
3710,118.72,6.9545,1.1061,-0.6916,0.4789,0.0002,-3.1405,rough,14.0,1,8.732
3720,119.04,6.9545,1.1060,-0.6915,0.4789,0.0004,-3.1408,rough,14.0,1,8.732
3730,119.36,6.9545,1.1059,-0.6915,0.4789,0.0004,-3.1409,rough,14.0,1,8.732
3740,119.68,6.9545,1.1059,-0.6915,0.4789,0.0005,-3.1410,rough,14.0,1,8.732
3750,120.00,6.9545,1.1059,-0.6914,0.4789,0.0005,-3.1410,rough,14.0,1,8.732
3760,120.32,6.9545,1.1059,-0.6914,0.4789,0.0005,-3.1410,rough,14.0,1,8.732
3770,120.64,6.9545,1.1058,-0.6914,0.4789,0.0005,-3.1410,rough,14.0,1,8.732
3780,120.96,6.9545,1.1058,-0.6914,0.4789,0.0004,-3.1410,rough,14.0,1,8.732
3790,121.28,6.9547,1.1066,-0.6920,0.4789,0.0026,3.1403,rough,14.0,1,8.731
3800,121.60,6.9547,1.1075,-0.6923,0.4787,0.0019,3.1394,rough,14.0,1,8.731
3810,121.92,6.9549,1.1086,-0.6929,0.4787,0.0021,3.1390,rough,14.0,1,8.730
3820,122.24,6.9548,1.1099,-0.6935,0.4788,0.0010,3.1412,rough,14.0,1,8.729
3830,122.56,6.9548,1.1101,-0.6937,0.4789,0.0007,-3.1412,rough,14.0,1,8.729
3840,122.88,6.9547,1.1100,-0.6937,0.4790,0.0006,-3.1406,rough,14.0,1,8.729
3850,123.20,6.9546,1.1098,-0.6935,0.4791,0.0003,-3.1399,rough,14.0,1,8.729
3860,123.52,6.9545,1.1092,-0.6933,0.4791,-0.0002,-3.1391,rough,14.0,1,8.729
3870,123.84,6.9545,1.1084,-0.6928,0.4791,-0.0007,-3.1383,rough,14.0,1,8.730
3880,124.16,6.9544,1.1073,-0.6922,0.4791,-0.0009,-3.1380,rough,14.0,1,8.731
3890,124.48,6.9545,1.1067,-0.6919,0.4790,-0.0004,-3.1392,rough,14.0,1,8.731
3900,124.80,6.9545,1.1063,-0.6917,0.4790,-0.0000,-3.1400,rough,14.0,1,8.731
3910,125.12,6.9545,1.1061,-0.6916,0.4789,0.0002,-3.1405,rough,14.0,1,8.732
3920,125.44,6.9545,1.1060,-0.6915,0.4789,0.0003,-3.1407,rough,14.0,1,8.732
3930,125.76,6.9545,1.1059,-0.6915,0.4789,0.0004,-3.1409,rough,14.0,1,8.732
3940,126.08,6.9545,1.1059,-0.6915,0.4789,0.0004,-3.1410,rough,14.0,1,8.732
3950,126.40,6.9545,1.1059,-0.6915,0.4789,0.0005,-3.1410,rough,14.0,1,8.732
3960,126.72,6.9545,1.1059,-0.6914,0.4789,0.0005,-3.1410,rough,14.0,1,8.732
3970,127.04,6.9545,1.1058,-0.6914,0.4789,0.0005,-3.1410,rough,14.0,1,8.732
3980,127.36,6.9545,1.1058,-0.6914,0.4789,0.0004,-3.1410,rough,14.0,1,8.732
3990,127.68,6.9547,1.1063,-0.6919,0.4789,0.0031,3.1407,rough,14.0,1,8.732
4000,128.00,6.9547,1.1072,-0.6922,0.4787,0.0019,3.1396,rough,14.0,1,8.731
4010,128.32,6.9548,1.1083,-0.6927,0.4787,0.0020,3.1391,rough,14.0,1,8.730
4020,128.64,6.9549,1.1096,-0.6934,0.4788,0.0014,3.1405,rough,14.0,1,8.729
4030,128.96,6.9548,1.1100,-0.6937,0.4789,0.0007,-3.1413,rough,14.0,1,8.729
4040,129.28,6.9547,1.1101,-0.6937,0.4790,0.0006,-3.1408,rough,14.0,1,8.729
4050,129.60,6.9546,1.1099,-0.6936,0.4791,0.0004,-3.1402,rough,14.0,1,8.729
4060,129.92,6.9545,1.1094,-0.6934,0.4791,-0.0000,-3.1394,rough,14.0,1,8.729
4070,130.24,6.9545,1.1087,-0.6929,0.4791,-0.0006,-3.1385,rough,14.0,1,8.730
4080,130.56,6.9543,1.1076,-0.6924,0.4791,-0.0011,-3.1376,rough,14.0,1,8.730
4090,130.88,6.9545,1.1068,-0.6920,0.4790,-0.0005,-3.1389,rough,14.0,1,8.731
4100,131.20,6.9545,1.1064,-0.6917,0.4790,-0.0001,-3.1398,rough,14.0,1,8.731
4110,131.52,6.9545,1.1062,-0.6916,0.4790,0.0002,-3.1404,rough,14.0,1,8.732
4120,131.84,6.9545,1.1060,-0.6915,0.4789,0.0003,-3.1407,rough,14.0,1,8.732
4130,132.16,6.9545,1.1059,-0.6915,0.4789,0.0004,-3.1408,rough,14.0,1,8.732
4140,132.48,6.9545,1.1059,-0.6915,0.4789,0.0004,-3.1409,rough,14.0,1,8.732
4150,132.80,6.9545,1.1059,-0.6915,0.4789,0.0005,-3.1410,rough,14.0,1,8.732
4160,133.12,6.9545,1.1059,-0.6914,0.4789,0.0005,-3.1410,rough,14.0,1,8.732
4170,133.44,6.9545,1.1058,-0.6914,0.4789,0.0005,-3.1410,rough,14.0,1,8.732
4180,133.76,6.9545,1.1058,-0.6914,0.4789,0.0005,-3.1410,rough,14.0,1,8.732
4190,134.08,6.9545,1.1058,-0.6914,0.4789,0.0004,-3.1411,rough,14.0,1,8.732
4200,134.40,6.9547,1.1069,-0.6921,0.4788,0.0022,3.1399,rough,14.0,1,8.731
4210,134.72,6.9547,1.1078,-0.6925,0.4787,0.0019,3.1393,rough,14.0,1,8.730
4220,135.04,6.9549,1.1091,-0.6931,0.4788,0.0020,3.1393,rough,14.0,1,8.730
4230,135.36,6.9548,1.1100,-0.6936,0.4788,0.0008,-3.1415,rough,14.0,1,8.729
4240,135.68,6.9548,1.1101,-0.6937,0.4789,0.0006,-3.1410,rough,14.0,1,8.729
4250,136.00,6.9547,1.1100,-0.6936,0.4790,0.0005,-3.1404,rough,14.0,1,8.729
4260,136.32,6.9545,1.1096,-0.6935,0.4791,0.0002,-3.1397,rough,14.0,1,8.729
4270,136.64,6.9545,1.1090,-0.6931,0.4791,-0.0003,-3.1389,rough,14.0,1,8.729
4280,136.96,6.9544,1.1080,-0.6926,0.4791,-0.0009,-3.1379,rough,14.0,1,8.730
4290,137.28,6.9545,1.1071,-0.6921,0.4790,-0.0007,-3.1384,rough,14.0,1,8.731
4300,137.60,6.9545,1.1065,-0.6918,0.4790,-0.0002,-3.1395,rough,14.0,1,8.731
4310,137.92,6.9545,1.1062,-0.6916,0.4790,0.0001,-3.1402,rough,14.0,1,8.731
4320,138.24,6.9545,1.1061,-0.6916,0.4789,0.0003,-3.1406,rough,14.0,1,8.732
4330,138.56,6.9545,1.1060,-0.6915,0.4789,0.0004,-3.1408,rough,14.0,1,8.732
4340,138.88,6.9545,1.1059,-0.6915,0.4789,0.0004,-3.1409,rough,14.0,1,8.732
4350,139.20,6.9545,1.1059,-0.6915,0.4789,0.0005,-3.1410,rough,14.0,1,8.732
4360,139.52,6.9545,1.1059,-0.6914,0.4789,0.0005,-3.1410,rough,14.0,1,8.732
4370,139.84,6.9545,1.1059,-0.6914,0.4789,0.0005,-3.1410,rough,14.0,1,8.732
4380,140.16,6.9545,1.1058,-0.6914,0.4789,0.0005,-3.1410,rough,14.0,1,8.732
4390,140.48,6.9545,1.1058,-0.6914,0.4789,0.0004,-3.1410,rough,14.0,1,8.732
4400,140.80,6.9547,1.1066,-0.6920,0.4789,0.0026,3.1403,rough,14.0,1,8.731
4410,141.12,6.9547,1.1075,-0.6923,0.4787,0.0019,3.1394,rough,14.0,1,8.731
4420,141.44,6.9549,1.1086,-0.6929,0.4787,0.0021,3.1390,rough,14.0,1,8.730
4430,141.76,6.9548,1.1099,-0.6935,0.4788,0.0010,3.1412,rough,14.0,1,8.729
4440,142.08,6.9548,1.1101,-0.6937,0.4789,0.0007,-3.1412,rough,14.0,1,8.729
4450,142.40,6.9547,1.1100,-0.6937,0.4790,0.0006,-3.1406,rough,14.0,1,8.729
4460,142.72,6.9546,1.1098,-0.6935,0.4791,0.0003,-3.1399,rough,14.0,1,8.729
4470,143.04,6.9545,1.1092,-0.6933,0.4791,-0.0002,-3.1391,rough,14.0,1,8.729
4480,143.36,6.9545,1.1084,-0.6928,0.4791,-0.0007,-3.1383,rough,14.0,1,8.730
4490,143.68,6.9544,1.1073,-0.6922,0.4791,-0.0009,-3.1380,rough,14.0,1,8.731
4500,144.00,6.9545,1.1067,-0.6919,0.4790,-0.0004,-3.1392,rough,14.0,1,8.731
4510,144.32,6.9545,1.1063,-0.6917,0.4790,-0.0000,-3.1400,rough,14.0,1,8.731
4520,144.64,6.9545,1.1061,-0.6916,0.4789,0.0002,-3.1405,rough,14.0,1,8.732
4530,144.96,6.9545,1.1060,-0.6915,0.4789,0.0003,-3.1407,rough,14.0,1,8.732
4540,145.28,6.9545,1.1059,-0.6915,0.4789,0.0004,-3.1409,rough,14.0,1,8.732
4550,145.60,6.9545,1.1059,-0.6915,0.4789,0.0004,-3.1410,rough,14.0,1,8.732
4560,145.92,6.9545,1.1059,-0.6914,0.4789,0.0005,-3.1410,rough,14.0,1,8.732
4570,146.24,6.9545,1.1059,-0.6914,0.4789,0.0005,-3.1410,rough,14.0,1,8.732
4580,146.56,6.9545,1.1058,-0.6914,0.4789,0.0005,-3.1410,rough,14.0,1,8.732
4590,146.88,6.9545,1.1058,-0.6914,0.4789,0.0004,-3.1410,rough,14.0,1,8.732
4600,147.20,6.9547,1.1064,-0.6919,0.4789,0.0029,3.1405,rough,14.0,1,8.731
4610,147.52,6.9547,1.1073,-0.6922,0.4787,0.0019,3.1395,rough,14.0,1,8.731
4620,147.84,6.9548,1.1084,-0.6928,0.4787,0.0021,3.1391,rough,14.0,1,8.730
4630,148.16,6.9549,1.1097,-0.6935,0.4788,0.0013,3.1407,rough,14.0,1,8.729
4640,148.48,6.9548,1.1101,-0.6937,0.4789,0.0007,-3.1413,rough,14.0,1,8.729
4650,148.80,6.9547,1.1101,-0.6937,0.4790,0.0006,-3.1407,rough,14.0,1,8.729
4660,149.12,6.9546,1.1098,-0.6936,0.4791,0.0004,-3.1401,rough,14.0,1,8.729
4670,149.44,6.9545,1.1094,-0.6933,0.4791,-0.0001,-3.1393,rough,14.0,1,8.729
4680,149.76,6.9545,1.1086,-0.6929,0.4791,-0.0006,-3.1385,rough,14.0,1,8.730
4690,150.08,6.9543,1.1075,-0.6923,0.4791,-0.0010,-3.1378,rough,14.0,1,8.730
4700,150.40,6.9545,1.1068,-0.6919,0.4790,-0.0005,-3.1390,rough,14.0,1,8.731
4710,150.72,6.9545,1.1064,-0.6917,0.4790,-0.0001,-3.1399,rough,14.0,1,8.731
4720,151.04,6.9545,1.1061,-0.6916,0.4789,0.0002,-3.1404,rough,14.0,1,8.732
4730,151.36,6.9545,1.1060,-0.6915,0.4789,0.0003,-3.1407,rough,14.0,1,8.732
4740,151.68,6.9545,1.1059,-0.6915,0.4789,0.0004,-3.1409,rough,14.0,1,8.732
4750,152.00,6.9545,1.1059,-0.6915,0.4789,0.0004,-3.1409,rough,14.0,1,8.732
4760,152.32,6.9545,1.1059,-0.6915,0.4789,0.0005,-3.1410,rough,14.0,1,8.732
4770,152.64,6.9545,1.1059,-0.6914,0.4789,0.0005,-3.1410,rough,14.0,1,8.732
4780,152.96,6.9545,1.1058,-0.6914,0.4789,0.0005,-3.1410,rough,14.0,1,8.732
4790,153.28,6.9545,1.1058,-0.6914,0.4789,0.0005,-3.1410,rough,14.0,1,8.732
4800,153.60,6.9548,1.1061,-0.6919,0.4788,0.0036,3.1410,rough,14.0,1,8.732
4810,153.92,6.9547,1.1071,-0.6921,0.4788,0.0020,3.1397,rough,14.0,1,8.731
4820,154.24,6.9547,1.1081,-0.6926,0.4787,0.0020,3.1392,rough,14.0,1,8.730
4830,154.56,6.9549,1.1094,-0.6933,0.4788,0.0017,3.1399,rough,14.0,1,8.729
4840,154.88,6.9548,1.1100,-0.6936,0.4788,0.0008,-3.1414,rough,14.0,1,8.729
4850,155.20,6.9547,1.1101,-0.6937,0.4789,0.0006,-3.1409,rough,14.0,1,8.729
4860,155.52,6.9546,1.1099,-0.6936,0.4790,0.0005,-3.1403,rough,14.0,1,8.729
4870,155.84,6.9545,1.1095,-0.6934,0.4791,0.0001,-3.1396,rough,14.0,1,8.729
4880,156.16,6.9545,1.1088,-0.6930,0.4791,-0.0004,-3.1387,rough,14.0,1,8.730
4890,156.48,6.9542,1.1078,-0.6925,0.4791,-0.0010,-3.1376,rough,14.0,1,8.730
4900,156.80,6.9545,1.1069,-0.6920,0.4790,-0.0006,-3.1387,rough,14.0,1,8.731
4910,157.12,6.9545,1.1065,-0.6918,0.4790,-0.0002,-3.1397,rough,14.0,1,8.731
4920,157.44,6.9545,1.1062,-0.6916,0.4790,0.0001,-3.1403,rough,14.0,1,8.731
4930,157.76,6.9545,1.1060,-0.6915,0.4789,0.0003,-3.1406,rough,14.0,1,8.732
4940,158.08,6.9545,1.1060,-0.6915,0.4789,0.0004,-3.1408,rough,14.0,1,8.732
4950,158.40,6.9545,1.1059,-0.6915,0.4789,0.0004,-3.1409,rough,14.0,1,8.732
4960,158.72,6.9545,1.1059,-0.6915,0.4789,0.0005,-3.1410,rough,14.0,1,8.732
4970,159.04,6.9545,1.1059,-0.6914,0.4789,0.0005,-3.1410,rough,14.0,1,8.732
4980,159.36,6.9545,1.1058,-0.6914,0.4789,0.0005,-3.1410,rough,14.0,1,8.732
4990,159.68,6.9545,1.1058,-0.6914,0.4789,0.0005,-3.1410,rough,14.0,1,8.732
5000,160.00,6.9545,1.1058,-0.6914,0.4789,0.0004,-3.1411,rough,14.0,1,8.732
5010,160.32,6.9547,1.1067,-0.6920,0.4789,0.0025,3.1402,rough,14.0,1,8.731
5020,160.64,6.9547,1.1076,-0.6924,0.4787,0.0019,3.1394,rough,14.0,1,8.731
5030,160.96,6.9549,1.1088,-0.6930,0.4787,0.0021,3.1390,rough,14.0,1,8.730
5040,161.28,6.9548,1.1099,-0.6936,0.4788,0.0009,3.1414,rough,14.0,1,8.729
5050,161.60,6.9548,1.1101,-0.6937,0.4789,0.0007,-3.1411,rough,14.0,1,8.729
5060,161.92,6.9547,1.1100,-0.6937,0.4790,0.0006,-3.1406,rough,14.0,1,8.729
5070,162.24,6.9545,1.1097,-0.6935,0.4791,0.0003,-3.1399,rough,14.0,1,8.729
5080,162.56,6.9545,1.1092,-0.6932,0.4791,-0.0002,-3.1391,rough,14.0,1,8.729
5090,162.88,6.9545,1.1083,-0.6927,0.4791,-0.0008,-3.1382,rough,14.0,1,8.730
5100,163.20,6.9544,1.1072,-0.6922,0.4791,-0.0009,-3.1382,rough,14.0,1,8.731
5110,163.52,6.9545,1.1066,-0.6919,0.4790,-0.0003,-3.1393,rough,14.0,1,8.731
5120,163.84,6.9545,1.1063,-0.6917,0.4790,0.0000,-3.1401,rough,14.0,1,8.731
5130,164.16,6.9545,1.1061,-0.6916,0.4789,0.0002,-3.1405,rough,14.0,1,8.732
5140,164.48,6.9545,1.1060,-0.6915,0.4789,0.0003,-3.1408,rough,14.0,1,8.732
5150,164.80,6.9545,1.1059,-0.6915,0.4789,0.0004,-3.1409,rough,14.0,1,8.732
5160,165.12,6.9545,1.1059,-0.6915,0.4789,0.0005,-3.1410,rough,14.0,1,8.732
5170,165.44,6.9545,1.1059,-0.6914,0.4789,0.0005,-3.1410,rough,14.0,1,8.732
5180,165.76,6.9545,1.1059,-0.6914,0.4789,0.0005,-3.1410,rough,14.0,1,8.732
5190,166.08,6.9545,1.1058,-0.6914,0.4789,0.0005,-3.1410,rough,14.0,1,8.732
5200,166.40,6.9545,1.1058,-0.6914,0.4789,0.0004,-3.1410,rough,14.0,1,8.732
5210,166.72,6.9547,1.1064,-0.6919,0.4789,0.0029,3.1405,rough,14.0,1,8.731
5220,167.04,6.9547,1.1073,-0.6922,0.4787,0.0019,3.1395,rough,14.0,1,8.731
5230,167.36,6.9548,1.1084,-0.6928,0.4787,0.0021,3.1390,rough,14.0,1,8.730
5240,167.68,6.9549,1.1097,-0.6935,0.4788,0.0013,3.1407,rough,14.0,1,8.729
5250,168.00,6.9548,1.1101,-0.6937,0.4789,0.0007,-3.1413,rough,14.0,1,8.729
5260,168.32,6.9547,1.1101,-0.6937,0.4790,0.0006,-3.1407,rough,14.0,1,8.729
5270,168.64,6.9546,1.1098,-0.6936,0.4791,0.0004,-3.1401,rough,14.0,1,8.729
5280,168.96,6.9545,1.1094,-0.6933,0.4791,-0.0001,-3.1393,rough,14.0,1,8.729
5290,169.28,6.9545,1.1086,-0.6929,0.4791,-0.0006,-3.1385,rough,14.0,1,8.730
5300,169.60,6.9543,1.1075,-0.6923,0.4791,-0.0010,-3.1378,rough,14.0,1,8.730
5310,169.92,6.9545,1.1068,-0.6919,0.4790,-0.0005,-3.1390,rough,14.0,1,8.731
5320,170.24,6.9545,1.1064,-0.6917,0.4790,-0.0001,-3.1399,rough,14.0,1,8.731
5330,170.56,6.9545,1.1061,-0.6916,0.4789,0.0002,-3.1404,rough,14.0,1,8.732
5340,170.88,6.9545,1.1060,-0.6915,0.4789,0.0003,-3.1407,rough,14.0,1,8.732
5350,171.20,6.9545,1.1059,-0.6915,0.4789,0.0004,-3.1409,rough,14.0,1,8.732
5360,171.52,6.9545,1.1059,-0.6915,0.4789,0.0004,-3.1409,rough,14.0,1,8.732
5370,171.84,6.9545,1.1059,-0.6915,0.4789,0.0005,-3.1410,rough,14.0,1,8.732
5380,172.16,6.9545,1.1059,-0.6914,0.4789,0.0005,-3.1410,rough,14.0,1,8.732
5390,172.48,6.9545,1.1058,-0.6914,0.4789,0.0005,-3.1410,rough,14.0,1,8.732
5400,172.80,6.9545,1.1058,-0.6914,0.4789,0.0005,-3.1410,rough,14.0,1,8.732
5410,173.12,6.9547,1.1062,-0.6919,0.4788,0.0033,3.1408,rough,14.0,1,8.732
5420,173.44,6.9547,1.1072,-0.6922,0.4788,0.0020,3.1397,rough,14.0,1,8.731
5430,173.76,6.9548,1.1082,-0.6927,0.4787,0.0020,3.1391,rough,14.0,1,8.730
5440,174.08,6.9549,1.1095,-0.6933,0.4788,0.0016,3.1402,rough,14.0,1,8.729
5450,174.40,6.9548,1.1100,-0.6936,0.4789,0.0007,-3.1414,rough,14.0,1,8.729
5460,174.72,6.9547,1.1101,-0.6937,0.4789,0.0006,-3.1409,rough,14.0,1,8.729
5470,175.04,6.9546,1.1099,-0.6936,0.4790,0.0004,-3.1402,rough,14.0,1,8.729
5480,175.36,6.9545,1.1095,-0.6934,0.4791,0.0000,-3.1395,rough,14.0,1,8.729
5490,175.68,6.9545,1.1088,-0.6930,0.4791,-0.0005,-3.1386,rough,14.0,1,8.730
5500,176.00,6.9542,1.1077,-0.6924,0.4791,-0.0011,-3.1375,rough,14.0,1,8.730
5510,176.32,6.9545,1.1069,-0.6920,0.4790,-0.0006,-3.1388,rough,14.0,1,8.731
5520,176.64,6.9545,1.1064,-0.6918,0.4790,-0.0001,-3.1397,rough,14.0,1,8.731
5530,176.96,6.9545,1.1062,-0.6916,0.4790,0.0001,-3.1403,rough,14.0,1,8.731
5540,177.28,6.9545,1.1060,-0.6915,0.4789,0.0003,-3.1406,rough,14.0,1,8.732
5550,177.60,6.9545,1.1060,-0.6915,0.4789,0.0004,-3.1408,rough,14.0,1,8.732
5560,177.92,6.9545,1.1059,-0.6915,0.4789,0.0004,-3.1409,rough,14.0,1,8.732
5570,178.24,6.9545,1.1059,-0.6915,0.4789,0.0005,-3.1410,rough,14.0,1,8.732
5580,178.56,6.9545,1.1059,-0.6914,0.4789,0.0005,-3.1410,rough,14.0,1,8.732
5590,178.88,6.9545,1.1058,-0.6914,0.4789,0.0005,-3.1410,rough,14.0,1,8.732
5600,179.20,6.9545,1.1058,-0.6914,0.4789,0.0005,-3.1410,rough,14.0,1,8.732
5610,179.52,6.9547,1.1058,-0.6922,0.4788,0.0057,-3.1411,rough,14.0,1,8.732
5620,179.84,6.9547,1.1070,-0.6921,0.4788,0.0021,3.1398,rough,14.0,1,8.731
5630,180.16,6.9547,1.1080,-0.6925,0.4787,0.0020,3.1392,rough,14.0,1,8.730
5640,180.48,6.9549,1.1092,-0.6932,0.4788,0.0019,3.1396,rough,14.0,1,8.730
5650,180.80,6.9548,1.1100,-0.6936,0.4788,0.0008,-3.1415,rough,14.0,1,8.729
5660,181.12,6.9547,1.1101,-0.6937,0.4789,0.0006,-3.1410,rough,14.0,1,8.729
5670,181.44,6.9546,1.1100,-0.6936,0.4790,0.0005,-3.1404,rough,14.0,1,8.729
5680,181.76,6.9545,1.1096,-0.6934,0.4791,0.0001,-3.1396,rough,14.0,1,8.729
5690,182.08,6.9545,1.1089,-0.6931,0.4791,-0.0004,-3.1388,rough,14.0,1,8.729
5700,182.40,6.9543,1.1079,-0.6926,0.4791,-0.0010,-3.1378,rough,14.0,1,8.730
5710,182.72,6.9545,1.1070,-0.6921,0.4790,-0.0007,-3.1385,rough,14.0,1,8.731
5720,183.04,6.9545,1.1065,-0.6918,0.4790,-0.0002,-3.1396,rough,14.0,1,8.731
5730,183.36,6.9545,1.1062,-0.6916,0.4790,0.0001,-3.1402,rough,14.0,1,8.731
5740,183.68,6.9545,1.1061,-0.6915,0.4789,0.0003,-3.1406,rough,14.0,1,8.732
5750,184.00,6.9545,1.1060,-0.6915,0.4789,0.0004,-3.1408,rough,14.0,1,8.732
5760,184.32,6.9545,1.1059,-0.6915,0.4789,0.0004,-3.1409,rough,14.0,1,8.732
5770,184.64,6.9545,1.1059,-0.6915,0.4789,0.0005,-3.1410,rough,14.0,1,8.732
5780,184.96,6.9545,1.1059,-0.6914,0.4789,0.0005,-3.1410,rough,14.0,1,8.732
5790,185.28,6.9545,1.1058,-0.6914,0.4789,0.0005,-3.1410,rough,14.0,1,8.732
5800,185.60,6.9545,1.1058,-0.6914,0.4789,0.0005,-3.1410,rough,14.0,1,8.732
5810,185.92,6.9545,1.1058,-0.6914,0.4789,0.0004,-3.1411,rough,14.0,1,8.732
5820,186.24,6.9547,1.1067,-0.6920,0.4789,0.0025,3.1402,rough,14.0,1,8.731
5830,186.56,6.9547,1.1076,-0.6924,0.4787,0.0019,3.1394,rough,14.0,1,8.731
5840,186.88,6.9549,1.1088,-0.6930,0.4787,0.0021,3.1390,rough,14.0,1,8.730
5850,187.20,6.9548,1.1099,-0.6936,0.4788,0.0009,3.1414,rough,14.0,1,8.729
5860,187.52,6.9548,1.1101,-0.6937,0.4789,0.0007,-3.1411,rough,14.0,1,8.729
5870,187.84,6.9547,1.1100,-0.6937,0.4790,0.0006,-3.1406,rough,14.0,1,8.729
5880,188.16,6.9545,1.1097,-0.6935,0.4791,0.0003,-3.1399,rough,14.0,1,8.729
5890,188.48,6.9545,1.1092,-0.6932,0.4791,-0.0002,-3.1391,rough,14.0,1,8.729
5900,188.80,6.9545,1.1083,-0.6927,0.4791,-0.0008,-3.1382,rough,14.0,1,8.730
5910,189.12,6.9544,1.1072,-0.6922,0.4791,-0.0009,-3.1382,rough,14.0,1,8.731
5920,189.44,6.9545,1.1066,-0.6919,0.4790,-0.0003,-3.1393,rough,14.0,1,8.731
5930,189.76,6.9545,1.1063,-0.6917,0.4790,0.0000,-3.1401,rough,14.0,1,8.731
5940,190.08,6.9545,1.1061,-0.6916,0.4789,0.0002,-3.1405,rough,14.0,1,8.732
5950,190.40,6.9545,1.1060,-0.6915,0.4789,0.0003,-3.1408,rough,14.0,1,8.732
5960,190.72,6.9545,1.1059,-0.6915,0.4789,0.0004,-3.1409,rough,14.0,1,8.732
5970,191.04,6.9545,1.1059,-0.6915,0.4789,0.0005,-3.1410,rough,14.0,1,8.732
5980,191.36,6.9545,1.1059,-0.6914,0.4789,0.0005,-3.1410,rough,14.0,1,8.732
5990,191.68,6.9545,1.1059,-0.6914,0.4789,0.0005,-3.1410,rough,14.0,1,8.732
6000,192.00,6.9545,1.1058,-0.6914,0.4789,0.0005,-3.1410,rough,14.0,1,8.732
6010,192.32,6.9545,1.1058,-0.6914,0.4789,0.0004,-3.1410,rough,14.0,1,8.732
6020,192.64,6.9547,1.1063,-0.6919,0.4789,0.0031,3.1407,rough,14.0,1,8.732
6030,192.96,6.9547,1.1072,-0.6922,0.4787,0.0019,3.1396,rough,14.0,1,8.731
6040,193.28,6.9548,1.1083,-0.6927,0.4787,0.0020,3.1391,rough,14.0,1,8.730
6050,193.60,6.9549,1.1096,-0.6934,0.4788,0.0014,3.1405,rough,14.0,1,8.729
6060,193.92,6.9548,1.1100,-0.6936,0.4789,0.0007,-3.1413,rough,14.0,1,8.729
6070,194.24,6.9547,1.1101,-0.6937,0.4790,0.0006,-3.1408,rough,14.0,1,8.729
6080,194.56,6.9546,1.1099,-0.6936,0.4791,0.0004,-3.1402,rough,14.0,1,8.729
6090,194.88,6.9545,1.1094,-0.6934,0.4791,-0.0000,-3.1394,rough,14.0,1,8.729
6100,195.20,6.9545,1.1087,-0.6929,0.4791,-0.0006,-3.1385,rough,14.0,1,8.730
6110,195.52,6.9543,1.1076,-0.6924,0.4791,-0.0011,-3.1376,rough,14.0,1,8.730
6120,195.84,6.9545,1.1068,-0.6920,0.4790,-0.0005,-3.1389,rough,14.0,1,8.731
6130,196.16,6.9545,1.1064,-0.6917,0.4790,-0.0001,-3.1398,rough,14.0,1,8.731
6140,196.48,6.9545,1.1062,-0.6916,0.4790,0.0002,-3.1404,rough,14.0,1,8.732
6150,196.80,6.9545,1.1060,-0.6915,0.4789,0.0003,-3.1407,rough,14.0,1,8.732
6160,197.12,6.9545,1.1059,-0.6915,0.4789,0.0004,-3.1408,rough,14.0,1,8.732
6170,197.44,6.9545,1.1059,-0.6915,0.4789,0.0004,-3.1409,rough,14.0,1,8.732
6180,197.76,6.9545,1.1059,-0.6915,0.4789,0.0005,-3.1410,rough,14.0,1,8.732
6190,198.08,6.9545,1.1059,-0.6914,0.4789,0.0005,-3.1410,rough,14.0,1,8.732
6200,198.40,6.9545,1.1058,-0.6914,0.4789,0.0005,-3.1410,rough,14.0,1,8.732
6210,198.72,6.9545,1.1058,-0.6914,0.4789,0.0005,-3.1410,rough,14.0,1,8.732
6220,199.04,6.9547,1.1058,-0.6922,0.4788,0.0057,-3.1411,rough,14.0,1,8.732
6230,199.36,6.9547,1.1070,-0.6921,0.4788,0.0021,3.1398,rough,14.0,1,8.731
6240,199.68,6.9547,1.1080,-0.6925,0.4787,0.0020,3.1392,rough,14.0,1,8.730
6250,200.00,6.9549,1.1092,-0.6932,0.4788,0.0019,3.1396,rough,14.0,1,8.730
6260,200.32,6.9548,1.1100,-0.6936,0.4788,0.0008,-3.1415,rough,14.0,1,8.729
6270,200.64,6.9547,1.1101,-0.6937,0.4789,0.0006,-3.1410,rough,14.0,1,8.729
6280,200.96,6.9546,1.1100,-0.6936,0.4790,0.0005,-3.1404,rough,14.0,1,8.729
6290,201.28,6.9545,1.1096,-0.6934,0.4791,0.0001,-3.1396,rough,14.0,1,8.729
6300,201.60,6.9545,1.1089,-0.6931,0.4791,-0.0004,-3.1388,rough,14.0,1,8.729
6310,201.92,6.9543,1.1079,-0.6926,0.4791,-0.0010,-3.1378,rough,14.0,1,8.730
6320,202.24,6.9545,1.1070,-0.6921,0.4790,-0.0007,-3.1385,rough,14.0,1,8.731
6330,202.56,6.9545,1.1065,-0.6918,0.4790,-0.0002,-3.1396,rough,14.0,1,8.731
6340,202.88,6.9545,1.1062,-0.6916,0.4790,0.0001,-3.1402,rough,14.0,1,8.731
6350,203.20,6.9545,1.1061,-0.6915,0.4789,0.0003,-3.1406,rough,14.0,1,8.732
6360,203.52,6.9545,1.1060,-0.6915,0.4789,0.0004,-3.1408,rough,14.0,1,8.732
6370,203.84,6.9545,1.1059,-0.6915,0.4789,0.0004,-3.1409,rough,14.0,1,8.732
6380,204.16,6.9545,1.1059,-0.6915,0.4789,0.0005,-3.1410,rough,14.0,1,8.732
6390,204.48,6.9545,1.1059,-0.6914,0.4789,0.0005,-3.1410,rough,14.0,1,8.732
6400,204.80,6.9545,1.1058,-0.6914,0.4789,0.0005,-3.1410,rough,14.0,1,8.732
6410,205.12,6.9545,1.1058,-0.6914,0.4789,0.0005,-3.1410,rough,14.0,1,8.732
6420,205.44,6.9545,1.1058,-0.6914,0.4789,0.0004,-3.1411,rough,14.0,1,8.732
6430,205.76,6.9547,1.1068,-0.6920,0.4789,0.0024,3.1401,rough,14.0,1,8.731
6440,206.08,6.9547,1.1077,-0.6924,0.4787,0.0019,3.1393,rough,14.0,1,8.730
6450,206.40,6.9549,1.1089,-0.6930,0.4787,0.0021,3.1391,rough,14.0,1,8.730
6460,206.72,6.9548,1.1100,-0.6936,0.4788,0.0009,3.1415,rough,14.0,1,8.729
6470,207.04,6.9548,1.1101,-0.6937,0.4789,0.0006,-3.1411,rough,14.0,1,8.729
6480,207.36,6.9547,1.1100,-0.6937,0.4790,0.0005,-3.1405,rough,14.0,1,8.729
6490,207.68,6.9545,1.1097,-0.6935,0.4791,0.0002,-3.1398,rough,14.0,1,8.729
6500,208.00,6.9545,1.1091,-0.6932,0.4791,-0.0003,-3.1390,rough,14.0,1,8.729
6510,208.32,6.9545,1.1082,-0.6927,0.4791,-0.0009,-3.1381,rough,14.0,1,8.730
6520,208.64,6.9544,1.1071,-0.6921,0.4791,-0.0008,-3.1383,rough,14.0,1,8.731
6530,208.96,6.9545,1.1066,-0.6918,0.4790,-0.0003,-3.1394,rough,14.0,1,8.731
6540,209.28,6.9545,1.1063,-0.6917,0.4790,0.0000,-3.1401,rough,14.0,1,8.731
6550,209.60,6.9545,1.1061,-0.6916,0.4789,0.0002,-3.1405,rough,14.0,1,8.732
6560,209.92,6.9545,1.1060,-0.6915,0.4789,0.0004,-3.1408,rough,14.0,1,8.732
6570,210.24,6.9545,1.1059,-0.6915,0.4789,0.0004,-3.1409,rough,14.0,1,8.732
6580,210.56,6.9545,1.1059,-0.6915,0.4789,0.0005,-3.1410,rough,14.0,1,8.732
6590,210.88,6.9545,1.1059,-0.6914,0.4789,0.0005,-3.1410,rough,14.0,1,8.732
6600,211.20,6.9545,1.1059,-0.6914,0.4789,0.0005,-3.1410,rough,14.0,1,8.732
6610,211.52,6.9545,1.1058,-0.6914,0.4789,0.0005,-3.1410,rough,14.0,1,8.732
6620,211.84,6.9545,1.1058,-0.6914,0.4789,0.0004,-3.1410,rough,14.0,1,8.732
6630,212.16,6.9547,1.1065,-0.6920,0.4789,0.0027,3.1404,rough,14.0,1,8.731
6640,212.48,6.9547,1.1074,-0.6923,0.4787,0.0019,3.1395,rough,14.0,1,8.731
6650,212.80,6.9548,1.1085,-0.6928,0.4787,0.0021,3.1390,rough,14.0,1,8.730
6660,213.12,6.9549,1.1098,-0.6935,0.4788,0.0011,3.1410,rough,14.0,1,8.729
6670,213.44,6.9548,1.1101,-0.6937,0.4789,0.0007,-3.1412,rough,14.0,1,8.729
6680,213.76,6.9547,1.1100,-0.6937,0.4790,0.0006,-3.1407,rough,14.0,1,8.729
6690,214.08,6.9546,1.1098,-0.6936,0.4791,0.0003,-3.1400,rough,14.0,1,8.729
6700,214.40,6.9545,1.1093,-0.6933,0.4791,-0.0001,-3.1392,rough,14.0,1,8.729
6710,214.72,6.9545,1.1085,-0.6928,0.4791,-0.0007,-3.1384,rough,14.0,1,8.730
6720,215.04,6.9544,1.1074,-0.6923,0.4791,-0.0010,-3.1379,rough,14.0,1,8.730
6730,215.36,6.9545,1.1067,-0.6919,0.4790,-0.0004,-3.1391,rough,14.0,1,8.731
6740,215.68,6.9545,1.1063,-0.6917,0.4790,-0.0000,-3.1400,rough,14.0,1,8.731
6750,216.00,6.9545,1.1061,-0.6916,0.4789,0.0002,-3.1404,rough,14.0,1,8.732
6760,216.32,6.9545,1.1060,-0.6915,0.4789,0.0003,-3.1407,rough,14.0,1,8.732
6770,216.64,6.9545,1.1059,-0.6915,0.4789,0.0004,-3.1409,rough,14.0,1,8.732
6780,216.96,6.9545,1.1059,-0.6915,0.4789,0.0004,-3.1410,rough,14.0,1,8.732
6790,217.28,6.9545,1.1059,-0.6915,0.4789,0.0005,-3.1410,rough,14.0,1,8.732
6800,217.60,6.9545,1.1059,-0.6914,0.4789,0.0005,-3.1410,rough,14.0,1,8.732
6810,217.92,6.9545,1.1058,-0.6914,0.4789,0.0005,-3.1410,rough,14.0,1,8.732
6820,218.24,6.9545,1.1058,-0.6914,0.4789,0.0005,-3.1410,rough,14.0,1,8.732
6830,218.56,6.9548,1.1061,-0.6919,0.4788,0.0036,3.1410,rough,14.0,1,8.732
6840,218.88,6.9547,1.1071,-0.6921,0.4788,0.0020,3.1397,rough,14.0,1,8.731
6850,219.20,6.9547,1.1081,-0.6926,0.4787,0.0020,3.1392,rough,14.0,1,8.730
6860,219.52,6.9549,1.1094,-0.6933,0.4788,0.0017,3.1399,rough,14.0,1,8.729
6870,219.84,6.9548,1.1100,-0.6936,0.4788,0.0008,-3.1414,rough,14.0,1,8.729
6880,220.16,6.9547,1.1101,-0.6937,0.4789,0.0006,-3.1409,rough,14.0,1,8.729
6890,220.48,6.9546,1.1099,-0.6936,0.4790,0.0005,-3.1403,rough,14.0,1,8.729
6900,220.80,6.9545,1.1095,-0.6934,0.4791,0.0001,-3.1395,rough,14.0,1,8.729
6910,221.12,6.9545,1.1088,-0.6930,0.4791,-0.0004,-3.1387,rough,14.0,1,8.730
6920,221.44,6.9542,1.1078,-0.6925,0.4791,-0.0010,-3.1376,rough,14.0,1,8.730
6930,221.76,6.9545,1.1069,-0.6920,0.4790,-0.0006,-3.1387,rough,14.0,1,8.731
6940,222.08,6.9545,1.1065,-0.6918,0.4790,-0.0002,-3.1397,rough,14.0,1,8.731
6950,222.40,6.9545,1.1062,-0.6916,0.4790,0.0001,-3.1403,rough,14.0,1,8.731
6960,222.72,6.9545,1.1060,-0.6915,0.4789,0.0003,-3.1406,rough,14.0,1,8.732
6970,223.04,6.9545,1.1060,-0.6915,0.4789,0.0004,-3.1408,rough,14.0,1,8.732
6980,223.36,6.9545,1.1059,-0.6915,0.4789,0.0004,-3.1409,rough,14.0,1,8.732
6990,223.68,6.9545,1.1059,-0.6915,0.4789,0.0005,-3.1410,rough,14.0,1,8.732
7000,224.00,6.9545,1.1059,-0.6914,0.4789,0.0005,-3.1410,rough,14.0,1,8.732
7010,224.32,6.9545,1.1058,-0.6914,0.4789,0.0005,-3.1410,rough,14.0,1,8.732
7020,224.64,6.9545,1.1058,-0.6914,0.4789,0.0005,-3.1410,rough,14.0,1,8.732
7030,224.96,6.9545,1.1058,-0.6914,0.4789,0.0004,-3.1411,rough,14.0,1,8.732
7040,225.28,6.9547,1.1068,-0.6920,0.4789,0.0024,3.1401,rough,14.0,1,8.731
7050,225.60,6.9547,1.1077,-0.6924,0.4787,0.0019,3.1393,rough,14.0,1,8.730
7060,225.92,6.9549,1.1089,-0.6930,0.4787,0.0021,3.1391,rough,14.0,1,8.730
7070,226.24,6.9548,1.1100,-0.6936,0.4788,0.0009,3.1415,rough,14.0,1,8.729
7080,226.56,6.9548,1.1101,-0.6937,0.4789,0.0006,-3.1411,rough,14.0,1,8.729
7090,226.88,6.9547,1.1100,-0.6937,0.4790,0.0005,-3.1405,rough,14.0,1,8.729
7100,227.20,6.9545,1.1097,-0.6935,0.4791,0.0002,-3.1398,rough,14.0,1,8.729
7110,227.52,6.9545,1.1091,-0.6932,0.4791,-0.0003,-3.1390,rough,14.0,1,8.729
7120,227.84,6.9545,1.1082,-0.6927,0.4791,-0.0009,-3.1381,rough,14.0,1,8.730
7130,228.16,6.9544,1.1071,-0.6921,0.4791,-0.0008,-3.1383,rough,14.0,1,8.731
7140,228.48,6.9545,1.1066,-0.6918,0.4790,-0.0003,-3.1394,rough,14.0,1,8.731
7150,228.80,6.9545,1.1063,-0.6917,0.4790,0.0000,-3.1401,rough,14.0,1,8.731
7160,229.12,6.9545,1.1061,-0.6916,0.4789,0.0002,-3.1405,rough,14.0,1,8.732
7170,229.44,6.9545,1.1060,-0.6915,0.4789,0.0004,-3.1408,rough,14.0,1,8.732
7180,229.76,6.9545,1.1059,-0.6915,0.4789,0.0004,-3.1409,rough,14.0,1,8.732
7190,230.08,6.9545,1.1059,-0.6915,0.4789,0.0005,-3.1410,rough,14.0,1,8.732
7200,230.40,6.9545,1.1059,-0.6914,0.4789,0.0005,-3.1410,rough,14.0,1,8.732
7210,230.72,6.9545,1.1059,-0.6914,0.4789,0.0005,-3.1410,rough,14.0,1,8.732
7220,231.04,6.9545,1.1058,-0.6914,0.4789,0.0005,-3.1410,rough,14.0,1,8.732
7230,231.36,6.9545,1.1058,-0.6914,0.4789,0.0004,-3.1410,rough,14.0,1,8.732
7240,231.68,6.9547,1.1066,-0.6920,0.4789,0.0026,3.1403,rough,14.0,1,8.731
7250,232.00,6.9547,1.1075,-0.6923,0.4787,0.0019,3.1394,rough,14.0,1,8.731
7260,232.32,6.9549,1.1086,-0.6929,0.4787,0.0021,3.1390,rough,14.0,1,8.730
7270,232.64,6.9548,1.1099,-0.6935,0.4788,0.0010,3.1412,rough,14.0,1,8.729
7280,232.96,6.9548,1.1101,-0.6937,0.4789,0.0007,-3.1412,rough,14.0,1,8.729
7290,233.28,6.9547,1.1100,-0.6937,0.4790,0.0006,-3.1406,rough,14.0,1,8.729
7300,233.60,6.9546,1.1098,-0.6935,0.4791,0.0003,-3.1399,rough,14.0,1,8.729
7310,233.92,6.9545,1.1092,-0.6933,0.4791,-0.0002,-3.1391,rough,14.0,1,8.729
7320,234.24,6.9545,1.1084,-0.6928,0.4791,-0.0007,-3.1383,rough,14.0,1,8.730
7330,234.56,6.9544,1.1073,-0.6922,0.4791,-0.0009,-3.1380,rough,14.0,1,8.731
7340,234.88,6.9545,1.1067,-0.6919,0.4790,-0.0004,-3.1392,rough,14.0,1,8.731
7350,235.20,6.9545,1.1063,-0.6917,0.4790,-0.0000,-3.1400,rough,14.0,1,8.731
7360,235.52,6.9545,1.1061,-0.6916,0.4789,0.0002,-3.1405,rough,14.0,1,8.732
7370,235.84,6.9545,1.1060,-0.6915,0.4789,0.0003,-3.1407,rough,14.0,1,8.732
7380,236.16,6.9545,1.1059,-0.6915,0.4789,0.0004,-3.1409,rough,14.0,1,8.732
7390,236.48,6.9545,1.1059,-0.6915,0.4789,0.0004,-3.1410,rough,14.0,1,8.732
7400,236.80,6.9545,1.1059,-0.6915,0.4789,0.0005,-3.1410,rough,14.0,1,8.732
7410,237.12,6.9545,1.1059,-0.6914,0.4789,0.0005,-3.1410,rough,14.0,1,8.732
7420,237.44,6.9545,1.1058,-0.6914,0.4789,0.0005,-3.1410,rough,14.0,1,8.732
7430,237.76,6.9545,1.1058,-0.6914,0.4789,0.0004,-3.1410,rough,14.0,1,8.732
7440,238.08,6.9547,1.1063,-0.6919,0.4789,0.0031,3.1407,rough,14.0,1,8.732
7450,238.40,6.9547,1.1072,-0.6922,0.4787,0.0019,3.1396,rough,14.0,1,8.731
7460,238.72,6.9548,1.1083,-0.6927,0.4787,0.0020,3.1391,rough,14.0,1,8.730
7470,239.04,6.9549,1.1096,-0.6934,0.4788,0.0014,3.1405,rough,14.0,1,8.729
7480,239.36,6.9548,1.1100,-0.6937,0.4789,0.0007,-3.1413,rough,14.0,1,8.729
7490,239.68,6.9547,1.1101,-0.6937,0.4790,0.0006,-3.1408,rough,14.0,1,8.729
7500,240.00,6.9546,1.1099,-0.6936,0.4791,0.0004,-3.1402,rough,14.0,1,8.729
7510,240.32,6.9545,1.1094,-0.6934,0.4791,-0.0000,-3.1394,rough,14.0,1,8.729
7520,240.64,6.9545,1.1087,-0.6929,0.4791,-0.0006,-3.1385,rough,14.0,1,8.730
7530,240.96,6.9543,1.1076,-0.6924,0.4791,-0.0011,-3.1376,rough,14.0,1,8.730
7540,241.28,6.9545,1.1068,-0.6920,0.4790,-0.0005,-3.1389,rough,14.0,1,8.731
7550,241.60,6.9545,1.1064,-0.6917,0.4790,-0.0001,-3.1398,rough,14.0,1,8.731
7560,241.92,6.9545,1.1062,-0.6916,0.4790,0.0002,-3.1404,rough,14.0,1,8.732
7570,242.24,6.9545,1.1060,-0.6915,0.4789,0.0003,-3.1407,rough,14.0,1,8.732
7580,242.56,6.9545,1.1059,-0.6915,0.4789,0.0004,-3.1408,rough,14.0,1,8.732
7590,242.88,6.9545,1.1059,-0.6915,0.4789,0.0004,-3.1409,rough,14.0,1,8.732
7600,243.20,6.9545,1.1059,-0.6915,0.4789,0.0005,-3.1410,rough,14.0,1,8.732
7610,243.52,6.9545,1.1059,-0.6914,0.4789,0.0005,-3.1410,rough,14.0,1,8.732
7620,243.84,6.9545,1.1058,-0.6914,0.4789,0.0005,-3.1410,rough,14.0,1,8.732
7630,244.16,6.9545,1.1058,-0.6914,0.4789,0.0005,-3.1410,rough,14.0,1,8.732
7640,244.48,6.9545,1.1058,-0.6914,0.4789,0.0004,-3.1411,rough,14.0,1,8.732
7650,244.80,6.9547,1.1069,-0.6921,0.4788,0.0022,3.1399,rough,14.0,1,8.731
7660,245.12,6.9547,1.1078,-0.6925,0.4787,0.0019,3.1393,rough,14.0,1,8.730
7670,245.44,6.9549,1.1091,-0.6931,0.4788,0.0020,3.1393,rough,14.0,1,8.730
7680,245.76,6.9548,1.1100,-0.6936,0.4788,0.0008,-3.1415,rough,14.0,1,8.729
7690,246.08,6.9548,1.1101,-0.6937,0.4789,0.0006,-3.1410,rough,14.0,1,8.729
7700,246.40,6.9547,1.1100,-0.6936,0.4790,0.0005,-3.1404,rough,14.0,1,8.729
7710,246.72,6.9545,1.1096,-0.6935,0.4791,0.0002,-3.1397,rough,14.0,1,8.729
7720,247.04,6.9545,1.1090,-0.6931,0.4791,-0.0003,-3.1389,rough,14.0,1,8.729
7730,247.36,6.9544,1.1080,-0.6926,0.4791,-0.0009,-3.1379,rough,14.0,1,8.730
7740,247.68,6.9545,1.1071,-0.6921,0.4790,-0.0007,-3.1384,rough,14.0,1,8.731
7750,248.00,6.9545,1.1065,-0.6918,0.4790,-0.0002,-3.1395,rough,14.0,1,8.731
7760,248.32,6.9545,1.1062,-0.6916,0.4790,0.0001,-3.1402,rough,14.0,1,8.731
7770,248.64,6.9545,1.1061,-0.6916,0.4789,0.0003,-3.1406,rough,14.0,1,8.732
7780,248.96,6.9545,1.1060,-0.6915,0.4789,0.0004,-3.1408,rough,14.0,1,8.732
7790,249.28,6.9545,1.1059,-0.6915,0.4789,0.0004,-3.1409,rough,14.0,1,8.732
7800,249.60,6.9545,1.1059,-0.6915,0.4789,0.0005,-3.1410,rough,14.0,1,8.732
7810,249.92,6.9545,1.1059,-0.6914,0.4789,0.0005,-3.1410,rough,14.0,1,8.732
7820,250.24,6.9545,1.1059,-0.6914,0.4789,0.0005,-3.1410,rough,14.0,1,8.732
7830,250.56,6.9545,1.1058,-0.6914,0.4789,0.0005,-3.1410,rough,14.0,1,8.732
7840,250.88,6.9545,1.1058,-0.6914,0.4789,0.0004,-3.1410,rough,14.0,1,8.732
7850,251.20,6.9547,1.1066,-0.6920,0.4789,0.0026,3.1403,rough,14.0,1,8.731
7860,251.52,6.9547,1.1075,-0.6923,0.4787,0.0019,3.1394,rough,14.0,1,8.731
7870,251.84,6.9549,1.1086,-0.6929,0.4787,0.0021,3.1390,rough,14.0,1,8.730
7880,252.16,6.9548,1.1099,-0.6935,0.4788,0.0010,3.1412,rough,14.0,1,8.729
7890,252.48,6.9548,1.1101,-0.6937,0.4789,0.0007,-3.1412,rough,14.0,1,8.729
7900,252.80,6.9547,1.1100,-0.6937,0.4790,0.0006,-3.1406,rough,14.0,1,8.729
7910,253.12,6.9546,1.1098,-0.6935,0.4791,0.0003,-3.1399,rough,14.0,1,8.729
7920,253.44,6.9545,1.1092,-0.6933,0.4791,-0.0002,-3.1391,rough,14.0,1,8.729
7930,253.76,6.9545,1.1084,-0.6928,0.4791,-0.0007,-3.1383,rough,14.0,1,8.730
7940,254.08,6.9544,1.1073,-0.6922,0.4791,-0.0009,-3.1380,rough,14.0,1,8.731
7950,254.40,6.9545,1.1067,-0.6919,0.4790,-0.0004,-3.1392,rough,14.0,1,8.731
7960,254.72,6.9545,1.1063,-0.6917,0.4790,-0.0000,-3.1400,rough,14.0,1,8.731
7970,255.04,6.9545,1.1061,-0.6916,0.4789,0.0002,-3.1405,rough,14.0,1,8.732
7980,255.36,6.9545,1.1060,-0.6915,0.4789,0.0003,-3.1407,rough,14.0,1,8.732
7990,255.68,6.9545,1.1059,-0.6915,0.4789,0.0004,-3.1409,rough,14.0,1,8.732
8000,256.00,6.9545,1.1059,-0.6915,0.4789,0.0004,-3.1410,rough,14.0,1,8.732
8010,256.32,6.9545,1.1059,-0.6914,0.4789,0.0005,-3.1410,rough,14.0,1,8.732
8020,256.64,6.9545,1.1059,-0.6914,0.4789,0.0005,-3.1410,rough,14.0,1,8.732
8030,256.96,6.9545,1.1058,-0.6914,0.4789,0.0005,-3.1410,rough,14.0,1,8.732
8040,257.28,6.9545,1.1058,-0.6914,0.4789,0.0004,-3.1410,rough,14.0,1,8.732
