step,time_s,x,y,z,roll,pitch,yaw,terrain,speed,target_idx,dist_to_target
10,0.32,0.0960,-0.0668,0.2007,0.0392,-0.0490,0.0026,rough,14.0,0,5.318
20,0.64,0.4631,-0.0796,0.2192,0.0205,-0.0876,-0.0608,rough,14.0,0,5.029
30,0.96,0.8644,-0.1340,0.2413,0.0732,-0.0877,-0.1389,rough,14.0,0,4.698
40,1.28,1.2818,-0.2224,0.2516,0.1187,0.0104,-0.2190,rough,14.0,0,4.342
50,1.60,1.6934,-0.3469,0.2298,0.1103,0.0635,-0.3343,rough,14.0,0,3.977
60,1.92,2.0847,-0.5048,0.2028,0.1084,0.0703,-0.4240,rough,14.0,0,3.611
70,2.24,2.4441,-0.6891,0.1946,0.1377,-0.0303,-0.4951,rough,14.0,0,3.254
80,2.56,2.8285,-0.9312,0.1678,0.1940,0.2045,-0.5437,rough,14.0,0,2.847
90,2.88,3.1736,-1.1616,0.0804,0.1517,0.1646,-0.6470,rough,14.0,0,2.483
100,3.20,3.5730,-1.4167,-0.0744,-0.0790,0.3133,-0.7004,rough,14.0,0,2.097
110,3.52,3.8738,-1.6051,-0.1226,-0.1325,-0.0204,-0.8160,rough,14.0,0,1.837
120,3.84,4.1468,-1.9028,-0.1527,-0.2142,0.0144,-0.9037,rough,14.0,0,1.506
130,4.16,4.3920,-2.2646,-0.1809,-0.1453,0.1360,-1.0490,rough,14.0,0,1.153
140,4.48,4.6007,-2.6295,-0.2617,-0.1991,0.1550,-1.2589,rough,14.0,0,0.859
150,4.80,4.6744,-2.9918,-0.3059,-0.0936,0.0749,-1.4767,rough,14.0,1,7.600
160,5.12,4.6243,-3.3931,-0.3636,0.2138,0.1539,-1.6419,rough,14.0,1,7.285
170,5.44,4.5293,-3.7905,-0.4243,0.3279,0.1482,-1.7829,rough,14.0,1,6.949
180,5.76,4.3895,-4.1841,-0.4808,0.3855,0.1587,-1.8857,rough,14.0,1,6.588
190,6.08,4.2346,-4.5533,-0.5278,0.3693,0.0827,-1.9990,rough,14.0,1,6.237
200,6.40,4.0347,-4.9223,-0.5660,0.3409,0.0371,-2.1019,rough,14.0,1,5.857
210,6.72,3.8076,-5.2751,-0.5829,0.2829,-0.0260,-2.1932,rough,14.0,1,5.468
220,7.04,3.5428,-5.5890,-0.5461,0.3081,-0.1310,-2.2806,rough,14.0,1,5.074
230,7.36,3.2673,-5.8372,-0.4785,0.4025,-0.3195,-2.3881,rough,14.0,1,4.708
240,7.68,2.9828,-6.0295,-0.3411,0.4447,-0.5012,-2.5140,rough,14.0,1,4.365
250,8.00,2.7392,-6.1294,-0.1886,0.5596,-0.6505,-2.7514,rough,14.0,1,4.105
260,8.32,2.4742,-6.1243,-0.0888,0.5823,-0.5594,-2.9039,rough,14.0,1,3.888
270,8.64,2.2346,-5.9947,-0.0896,0.5872,-0.6424,-2.9173,rough,14.0,1,3.774
280,8.96,2.1104,-5.9249,-0.0779,-0.0386,-0.7202,-2.1752,rough,14.0,1,3.723
290,9.28,2.0313,-5.8579,-0.0829,-0.3128,-0.7642,-1.9231,rough,14.0,1,3.708
300,9.60,1.9350,-5.8280,-0.0553,-0.3199,-0.6293,-1.9113,rough,14.0,1,3.658
310,9.92,1.7972,-5.9046,0.0561,-0.2105,-0.6384,-1.9267,rough,14.0,1,3.506
320,10.24,1.6681,-6.1237,0.2484,-0.1503,-0.6491,-1.9209,rough,14.0,1,3.261
330,10.56,1.5626,-6.3754,0.4576,-0.1002,-0.7093,-1.8981,rough,14.0,1,3.014
340,10.88,1.5007,-6.5829,0.6725,-0.2380,-0.7866,-1.7057,rough,14.0,1,2.834
350,11.20,1.5428,-6.7575,0.7994,-0.4832,-0.7150,-1.3947,rough,14.0,1,2.762
360,11.52,1.6697,-6.8736,0.8534,-0.5152,-0.7660,-1.3257,rough,14.0,1,2.804
370,11.84,1.7525,-6.8871,0.8424,-0.3840,-0.7847,-1.4165,rough,14.0,1,2.867
380,12.16,1.8313,-6.8452,0.7752,-0.2739,-0.7889,-1.4693,rough,14.0,1,2.957
390,12.48,1.9085,-6.7498,0.6629,-0.4398,-0.7221,-1.2032,rough,14.0,1,3.072
400,12.80,2.0718,-6.6013,0.4784,-0.6935,-0.3989,-0.5552,rough,14.0,1,3.289
410,13.12,2.2827,-6.3971,0.2531,-0.6247,-0.4918,-0.8077,rough,14.0,1,3.577
420,13.44,2.5917,-6.1799,-0.0884,-0.6184,-0.5900,-1.1296,rough,14.0,1,3.954
430,13.76,2.8377,-5.9168,-0.3850,-0.4116,-0.6789,-1.1685,rough,14.0,1,4.305
440,14.08,2.9431,-5.7256,-0.5430,-0.1775,-0.5301,-1.1622,rough,14.0,1,4.501
450,14.40,2.9682,-5.6699,-0.5866,0.1085,-0.6391,-1.3792,rough,14.0,1,4.554
460,14.72,3.0186,-5.7756,-0.5147,0.0997,-0.7221,-1.4899,rough,14.0,1,4.534
470,15.04,3.0442,-5.9487,-0.3809,0.0419,-0.7524,-1.5461,rough,14.0,1,4.460
480,15.36,3.0764,-6.1289,-0.2673,-0.1075,-0.6558,-1.5640,rough,14.0,1,4.393
490,15.68,3.0969,-6.3520,-0.1043,-0.2193,-0.7607,-1.5238,rough,14.0,1,4.302
500,16.00,3.1227,-6.5067,0.0122,-0.3308,-0.7378,-1.5030,rough,14.0,1,4.256
510,16.32,3.1512,-6.6838,0.1113,-0.4444,-0.6066,-1.5428,rough,14.0,1,4.208
520,16.64,3.1680,-6.9070,0.2594,-0.4795,-0.6475,-1.5192,rough,14.0,1,4.141
530,16.96,3.1972,-7.1572,0.3915,-0.5793,-0.5761,-1.5620,rough,14.0,1,4.088
540,17.28,3.2390,-7.4264,0.5262,-0.5632,-0.6059,-1.6289,rough,14.0,1,4.058
550,17.60,3.2302,-7.6687,0.6937,-0.5923,-0.6219,-1.6019,rough,14.0,1,4.001
560,17.92,3.2361,-7.8901,0.8476,-0.4465,-0.7085,-1.7568,rough,14.0,1,3.975
570,18.24,3.2278,-8.0780,0.9930,-0.3898,-0.7147,-1.7868,rough,14.0,1,3.949
580,18.56,3.2749,-8.2119,1.0672,-0.6131,-0.5791,-1.3741,rough,14.0,1,3.989
590,18.88,3.4146,-8.2476,0.9982,-0.6660,-0.4522,-1.2043,rough,14.0,1,4.128
600,19.20,3.5570,-8.2510,0.9245,-0.6512,-0.4180,-1.1620,rough,14.0,1,4.270
610,19.52,3.6993,-8.2719,0.8564,-0.6653,-0.4111,-1.1466,rough,14.0,1,4.412
620,19.84,3.8355,-8.3129,0.8015,-0.6066,-0.3852,-1.1457,rough,14.0,1,4.547
630,20.16,3.9990,-8.4190,0.7533,-0.5146,-0.2491,-1.2630,rough,14.0,1,4.711
640,20.48,4.0827,-8.6001,0.7983,-0.5253,-0.3153,-1.4058,rough,14.0,1,4.801
650,20.80,4.1590,-8.8323,0.8207,-0.6411,-0.3486,-1.5856,rough,14.0,1,4.894
660,21.12,4.2120,-9.1286,0.8732,-0.6298,-0.5289,-1.8024,rough,14.0,1,4.984
670,21.44,4.3033,-9.4004,0.8551,-0.4636,-0.6408,-2.0934,rough,14.0,1,5.123
680,21.76,4.3366,-9.5645,0.8937,-0.2145,-0.8298,-2.3757,rough,14.0,1,5.192
690,22.08,4.3033,-9.6753,0.9478,0.1301,-0.8498,-2.9524,rough,14.0,1,5.186
700,22.40,4.2459,-9.6279,0.9865,0.2618,-0.8439,3.0793,rough,14.0,1,5.119
710,22.72,4.3106,-9.4922,0.8640,0.2950,-0.7906,3.0899,rough,14.0,1,5.150
720,23.04,4.3732,-9.4319,0.8108,0.5467,-0.6600,2.5096,rough,14.0,1,5.198
730,23.36,4.3747,-9.1829,0.7344,0.6092,-0.4619,2.2935,rough,14.0,1,5.154
740,23.68,4.3605,-8.9230,0.7033,0.5468,-0.4409,2.3666,rough,14.0,1,5.104
750,24.00,4.2867,-8.6958,0.6941,0.4583,-0.4880,2.6219,rough,14.0,1,5.010
760,24.32,4.2429,-8.5455,0.6866,0.4311,-0.5060,2.7000,rough,14.0,1,4.958
770,24.64,4.1061,-8.4297,0.7195,0.4185,-0.3790,2.8228,rough,14.0,1,4.818
780,24.96,3.7770,-8.2334,0.7882,0.6341,-0.3905,2.9466,rough,14.0,1,4.490
790,25.28,3.4611,-8.0290,0.8049,0.6253,-0.3810,3.0759,rough,14.0,1,4.185
800,25.60,3.2368,-7.8730,0.8389,0.6423,-0.6513,3.0054,rough,14.0,1,3.978
810,25.92,3.0496,-7.6927,0.8547,0.6937,-0.4658,2.7349,rough,14.0,1,3.819
820,26.24,2.8983,-7.4247,0.7957,0.6309,-0.5167,2.8791,rough,14.0,1,3.728
830,26.56,2.6910,-7.1589,0.7424,0.7032,-0.3433,2.8561,rough,14.0,1,3.606
840,26.88,2.3652,-6.8678,0.6629,0.7530,-0.2488,2.9528,rough,14.0,1,3.417
850,27.20,1.9901,-6.4824,0.4035,0.7071,-0.1740,3.0722,rough,14.0,1,3.286
860,27.52,1.7009,-6.0778,0.2163,0.5218,-0.4668,3.1079,rough,14.0,1,3.316
870,27.84,1.3792,-5.7228,0.1260,0.4995,-0.4764,-2.9550,rough,14.0,1,3.360
880,28.16,1.1830,-5.5312,0.0751,0.1478,-0.6574,-2.4065,rough,14.0,1,3.399
890,28.48,0.9489,-5.3687,0.0576,0.2789,-0.8526,-2.1444,rough,14.0,1,3.415
900,28.80,0.9379,-5.2479,-0.0456,-0.1986,-0.6913,-1.5302,rough,14.0,1,3.516
910,29.12,0.9886,-5.1648,-0.1276,-0.2354,-0.5525,-1.3687,rough,14.0,1,3.613
920,29.44,1.0541,-5.1811,-0.1256,-0.2146,-0.5981,-1.3663,rough,14.0,1,3.631
930,29.76,1.1204,-5.3189,-0.0352,-0.2493,-0.7198,-1.3536,rough,14.0,1,3.545
940,30.08,1.2101,-5.5128,0.0575,-0.3780,-0.5660,-1.4093,rough,14.0,1,3.429
950,30.40,1.2798,-5.7722,0.2117,-0.4793,-0.6596,-1.3764,rough,14.0,1,3.260
960,30.72,1.3857,-6.0027,0.3117,-0.5751,-0.4728,-1.3206,rough,14.0,1,3.150
970,31.04,1.4958,-6.1853,0.3587,-0.5088,-0.4394,-1.2562,rough,14.0,1,3.094
980,31.36,1.6032,-6.4097,0.4655,-0.5712,-0.5772,-1.2159,rough,14.0,1,3.023
990,31.68,1.7115,-6.6297,0.6187,-0.5661,-0.6346,-1.2392,rough,14.0,1,2.974
1000,32.00,1.8359,-6.7900,0.7221,-0.5920,-0.6783,-1.0304,rough,14.0,1,2.989
1010,32.32,1.9981,-6.8410,0.7206,-0.5278,-0.6081,-0.9406,rough,14.0,1,3.103
1020,32.64,2.1333,-6.7667,0.6318,-0.4107,-0.6972,-1.0548,rough,14.0,1,3.258
1030,32.96,2.3022,-6.6313,0.4580,-0.3811,-0.7300,-1.2613,rough,14.0,1,3.471
1040,33.28,2.4569,-6.4422,0.2256,-0.2514,-0.7840,-1.6627,rough,14.0,1,3.700
1050,33.60,2.6192,-6.2298,-0.0495,-0.2300,-0.7950,-1.7279,rough,14.0,1,3.950
1060,33.92,2.7460,-5.9480,-0.3320,-0.4516,-0.7542,-1.2845,rough,14.0,1,4.212
1070,34.24,2.8237,-5.6926,-0.5544,-0.3411,-0.5200,-1.1663,rough,14.0,1,4.425
1080,34.56,2.8685,-5.5831,-0.6364,-0.1030,-0.4283,-1.3347,rough,14.0,1,4.527
1090,34.88,2.9380,-5.6481,-0.5986,-0.0861,-0.5094,-1.1714,rough,14.0,1,4.543
1100,35.20,3.0041,-5.8028,-0.5040,0.0426,-0.7376,-1.3600,rough,14.0,1,4.507
1110,35.52,3.0790,-5.9820,-0.3553,-0.0790,-0.7449,-1.4200,rough,14.0,1,4.471
1120,35.84,3.1503,-6.2087,-0.2230,-0.2470,-0.6007,-1.4788,rough,14.0,1,4.418
1130,36.16,3.1867,-6.4166,-0.0800,-0.3344,-0.7402,-1.4464,rough,14.0,1,4.353
1140,36.48,3.2331,-6.6495,0.0478,-0.4458,-0.5499,-1.5372,rough,14.0,1,4.297
1150,36.80,3.2602,-6.8987,0.1918,-0.5131,-0.6097,-1.5164,rough,14.0,1,4.230
1160,37.12,3.2791,-7.1718,0.3439,-0.5686,-0.5290,-1.5803,rough,14.0,1,4.162
1170,37.44,3.2886,-7.4309,0.5003,-0.5027,-0.6116,-1.6535,rough,14.0,1,4.105
1180,37.76,3.2750,-7.6674,0.6662,-0.5487,-0.6244,-1.6113,rough,14.0,1,4.045
1190,38.08,3.2656,-7.8918,0.8293,-0.3288,-0.7232,-1.8800,rough,14.0,1,4.004
1200,38.40,3.2176,-8.0925,1.0125,-0.4110,-0.7222,-1.7665,rough,14.0,1,3.938
1210,38.72,3.2729,-8.2143,1.0712,-0.6371,-0.5677,-1.3374,rough,14.0,1,3.987
1220,39.04,3.4145,-8.2413,0.9995,-0.6365,-0.4712,-1.2284,rough,14.0,1,4.128
1230,39.36,3.5682,-8.2129,0.8897,-0.6460,-0.3943,-1.1754,rough,14.0,1,4.282
1240,39.68,3.7272,-8.2020,0.7892,-0.6704,-0.3446,-1.1502,rough,14.0,1,4.442
1250,40.00,3.8783,-8.2314,0.7322,-0.5970,-0.3342,-1.1913,rough,14.0,1,4.592
1260,40.32,4.0126,-8.3693,0.7317,-0.4903,-0.3373,-1.2639,rough,14.0,1,4.724
1270,40.64,4.1251,-8.5796,0.7779,-0.5651,-0.2084,-1.4730,rough,14.0,1,4.842
1280,40.96,4.2125,-8.8059,0.7735,-0.5821,-0.2912,-1.6597,rough,14.0,1,4.945
1290,41.28,4.2471,-9.0818,0.8295,-0.5926,-0.5575,-1.8462,rough,14.0,1,5.012
1300,41.60,4.2994,-9.3651,0.8549,-0.4937,-0.6775,-2.1435,rough,14.0,1,5.112
1310,41.92,4.3202,-9.5110,0.8792,-0.0537,-0.8179,-2.6494,rough,14.0,1,5.163
1320,42.24,4.2906,-9.5512,0.9097,0.2674,-0.8526,3.0757,rough,14.0,1,5.144
1330,42.56,4.3130,-9.4460,0.8531,0.3631,-0.7980,2.9460,rough,14.0,1,5.142
1340,42.88,4.3580,-9.3200,0.7798,0.5015,-0.6362,2.5893,rough,14.0,1,5.161
1350,43.20,4.3678,-9.1084,0.7330,0.5143,-0.5861,2.4102,rough,14.0,1,5.135
1360,43.52,4.3809,-8.8725,0.6719,0.4877,-0.4963,2.4565,rough,14.0,1,5.119
1370,43.84,4.3265,-8.6891,0.6596,0.4294,-0.5261,2.6977,rough,14.0,1,5.049
1380,44.16,4.2665,-8.5869,0.6864,0.3353,-0.5394,2.8291,rough,14.0,1,4.984
1390,44.48,4.1437,-8.4966,0.7356,0.3667,-0.4753,2.8273,rough,14.0,1,4.858
1400,44.80,3.8364,-8.3393,0.8323,0.6390,-0.4126,2.9137,rough,14.0,1,4.548
1410,45.12,3.4700,-8.1749,0.9206,0.6368,-0.3858,3.0636,rough,14.0,1,4.186
1420,45.44,3.2282,-8.0372,0.9668,0.5906,-0.6908,3.1379,rough,14.0,1,3.953
1430,45.76,3.0983,-7.8695,0.9422,0.5010,-0.7038,-3.1246,rough,14.0,1,3.841
1440,46.08,3.0612,-7.6653,0.8212,0.4030,-0.7419,-3.0169,rough,14.0,1,3.835
1450,46.40,3.1086,-7.4171,0.6266,0.3615,-0.7475,-2.9930,rough,14.0,1,3.933
1460,46.72,3.1937,-7.1426,0.3912,0.1558,-0.8069,-2.7645,rough,14.0,1,4.089
1470,47.04,3.2603,-6.8589,0.1638,0.3684,-0.7005,-2.9293,rough,14.0,1,4.244
1480,47.36,3.2018,-6.5726,0.0054,0.6239,-0.3121,2.8241,rough,14.0,1,4.300
1490,47.68,2.9873,-6.2769,-0.1283,0.6723,0.0678,2.7171,rough,14.0,1,4.242
1500,48.00,2.7221,-5.9348,-0.3306,0.8186,0.1259,2.8703,rough,14.0,1,4.200
1510,48.32,2.5763,-5.6333,-0.5380,0.6428,-0.2679,2.8867,rough,14.0,1,4.267
1520,48.64,2.3499,-5.3913,-0.5830,0.6170,-0.6170,3.1051,rough,14.0,1,4.260
1530,48.96,2.1330,-5.2872,-0.4965,0.1962,-0.7412,-2.8286,rough,14.0,1,4.183
1540,49.28,2.0520,-5.2660,-0.4545,-0.2083,-0.7824,-2.2949,rough,14.0,1,4.144
1550,49.60,1.9756,-5.2731,-0.4081,-0.4292,-0.6509,-1.8645,rough,14.0,1,4.088
1560,49.92,1.8557,-5.3820,-0.2706,-0.3145,-0.6711,-1.9024,rough,14.0,1,3.927
1570,50.24,1.7182,-5.5833,-0.0871,-0.1708,-0.6504,-1.9088,rough,14.0,1,3.685
1580,50.56,1.5714,-5.8884,0.1386,-0.0555,-0.6096,-1.9388,rough,14.0,1,3.360
1590,50.88,1.4660,-6.1902,0.3775,-0.1121,-0.7497,-1.9218,rough,14.0,1,3.069
1600,51.20,1.3941,-6.4366,0.6300,-0.2498,-0.8301,-1.7880,rough,14.0,1,2.848
1610,51.52,1.3973,-6.6286,0.7861,-0.5049,-0.6845,-1.5096,rough,14.0,1,2.724
1620,51.84,1.5180,-6.7763,0.8379,-0.5722,-0.6909,-1.2833,rough,14.0,1,2.731
1630,52.16,1.6512,-6.8355,0.8143,-0.6204,-0.7112,-1.1502,rough,14.0,1,2.808
1640,52.48,1.7739,-6.8253,0.7751,-0.5178,-0.7427,-1.2097,rough,14.0,1,2.918
1650,52.80,1.9147,-6.7429,0.6585,-0.6671,-0.6113,-0.8164,rough,14.0,1,3.081
1660,53.12,2.1269,-6.5687,0.4398,-0.5865,-0.5300,-0.7985,rough,14.0,1,3.353
1670,53.44,2.3175,-6.3281,0.1713,-0.5781,-0.5749,-0.9988,rough,14.0,1,3.644
1680,53.76,2.5954,-6.0723,-0.1859,-0.4900,-0.6811,-1.3416,rough,14.0,1,4.018
1690,54.08,2.7527,-5.7258,-0.5359,0.1254,-0.6485,-2.1416,rough,14.0,1,4.348
1700,54.40,2.7257,-5.3876,-0.7153,0.1616,-0.6732,-2.0197,rough,14.0,1,4.540
1710,54.72,2.6702,-5.3388,-0.7492,-0.1651,-0.5032,-1.9502,rough,14.0,1,4.530
1720,55.04,2.5508,-5.5453,-0.5950,-0.1590,-0.6792,-1.8792,rough,14.0,1,4.305
1730,55.36,2.4870,-5.7989,-0.3713,-0.2623,-0.8032,-1.7667,rough,14.0,1,4.094
1740,55.68,2.4731,-6.0166,-0.1786,-0.3187,-0.7658,-1.6252,rough,14.0,1,3.950
1750,56.00,2.5479,-6.1742,-0.0704,-0.5822,-0.6097,-1.1947,rough,14.0,1,3.921
1760,56.32,2.7112,-6.2467,-0.0679,-0.6059,-0.6741,-1.1543,rough,14.0,1,4.019
1770,56.64,2.8490,-6.2444,-0.1132,-0.5018,-0.5648,-1.0966,rough,14.0,1,4.138
1780,56.96,2.9818,-6.2675,-0.1352,-0.4277,-0.5968,-1.1219,rough,14.0,1,4.242
1790,57.28,3.0873,-6.3702,-0.0814,-0.4228,-0.6812,-1.2015,rough,14.0,1,4.285
1800,57.60,3.1828,-6.4787,-0.0371,-0.4433,-0.6327,-1.3056,rough,14.0,1,4.322
1810,57.92,3.2595,-6.6639,0.0448,-0.4984,-0.4910,-1.4548,rough,14.0,1,4.316
1820,58.24,3.2994,-6.8961,0.1732,-0.5318,-0.5988,-1.4216,rough,14.0,1,4.268
1830,58.56,3.3476,-7.1699,0.3072,-0.5549,-0.5211,-1.5311,rough,14.0,1,4.228
1840,58.88,3.3569,-7.4363,0.4646,-0.4253,-0.6383,-1.6804,rough,14.0,1,4.171
1850,59.20,3.3340,-7.6766,0.6374,-0.4708,-0.6453,-1.6573,rough,14.0,1,4.102
1860,59.52,3.3054,-7.8996,0.8122,-0.3161,-0.7375,-1.8433,rough,14.0,1,4.043
1870,59.84,3.2506,-8.1003,0.9972,-0.3965,-0.7104,-1.7454,rough,14.0,1,3.970
1880,60.16,3.2497,-8.2692,1.1267,-0.4929,-0.6751,-1.5470,rough,14.0,1,3.962
1890,60.48,3.3589,-8.3647,1.1394,-0.6206,-0.6241,-1.3450,rough,14.0,1,4.071
1900,60.80,3.5557,-8.3717,1.0115,-0.5345,-0.6350,-1.4111,rough,14.0,1,4.267
1910,61.12,3.7823,-8.3047,0.8335,-0.4457,-0.6279,-1.5389,rough,14.0,1,4.494
1920,61.44,3.8722,-8.2890,0.7824,-0.4821,-0.5672,-1.3848,rough,14.0,1,4.584
1930,61.76,3.9623,-8.3652,0.7586,-0.4870,-0.3856,-1.3121,rough,14.0,1,4.674
1940,62.08,4.0529,-8.5266,0.7916,-0.4785,-0.3152,-1.4066,rough,14.0,1,4.768
1950,62.40,4.1006,-8.7180,0.8287,-0.4879,-0.3562,-1.5030,rough,14.0,1,4.826
1960,62.72,4.1568,-9.0317,0.8935,-0.5968,-0.4367,-1.7994,rough,14.0,1,4.916
1970,63.04,4.1972,-9.3217,0.9463,-0.7027,-0.6373,-1.9166,rough,14.0,1,5.004
1980,63.36,4.3014,-9.5466,0.9119,-0.5966,-0.6262,-1.9646,rough,14.0,1,5.153
1990,63.68,4.3317,-9.7210,0.9545,-0.2679,-0.8098,-2.3510,rough,14.0,1,5.226
2000,64.00,4.2829,-9.8609,1.0604,0.0729,-0.8743,-2.7880,rough,14.0,1,5.217
2010,64.32,4.1885,-9.8854,1.1615,0.1354,-0.8706,-2.9434,rough,14.0,1,5.134
2020,64.64,4.1943,-9.8499,1.1339,-0.1490,-0.8520,-2.6025,rough,14.0,1,5.129
2030,64.96,4.3210,-9.8353,1.0185,-0.0765,-0.8478,-2.5438,rough,14.0,1,5.246
2040,65.28,4.4262,-9.8670,0.9547,0.5814,-0.6877,2.9190,rough,14.0,1,5.356
2050,65.60,4.3976,-9.7248,0.9020,0.6549,-0.3326,2.4822,rough,14.0,1,5.290
2060,65.92,4.2264,-9.4925,0.9566,0.7653,-0.4644,2.3344,rough,14.0,1,5.068
2070,66.24,4.0885,-9.2069,1.0031,0.6488,-0.4429,2.4199,rough,14.0,1,4.876
2080,66.56,4.0374,-8.9130,0.9577,0.6850,-0.3490,2.4527,rough,14.0,1,4.782
2090,66.88,4.0140,-8.6608,0.8704,0.5913,-0.2350,2.4499,rough,14.0,1,4.736
2100,67.20,3.9601,-8.3474,0.7670,0.6827,-0.0075,2.4349,rough,14.0,1,4.672
2110,67.52,3.7218,-8.0014,0.6623,0.7009,-0.0785,2.5820,rough,14.0,1,4.447
2120,67.84,3.4022,-7.7083,0.6088,0.7066,-0.2273,2.7143,rough,14.0,1,4.164
2130,68.16,3.1260,-7.4949,0.6585,0.6669,-0.4737,2.7570,rough,14.0,1,3.933
2140,68.48,2.9103,-7.2559,0.6809,0.6299,-0.4900,2.8328,rough,14.0,1,3.785
2150,68.80,2.6134,-7.0154,0.6741,0.7379,-0.3227,2.8863,rough,14.0,1,3.584
2160,69.12,2.2502,-6.7366,0.5759,0.7732,-0.1781,3.0716,rough,14.0,1,3.374
2170,69.44,1.8992,-6.4045,0.3598,0.6498,-0.3502,-3.1134,rough,14.0,1,3.258
2180,69.76,1.5622,-6.0881,0.2650,0.4194,-0.4475,-2.9473,rough,14.0,1,3.210
2190,70.08,1.2954,-5.8863,0.2758,0.4791,-0.7941,-2.8909,rough,14.0,1,3.180
2200,70.40,1.1007,-5.7751,0.3044,0.1058,-0.7168,-2.2413,rough,14.0,1,3.151
2210,70.72,1.1637,-5.8179,0.2926,-0.4830,-0.7413,-1.4518,rough,14.0,1,3.154
2220,71.04,1.2648,-5.8250,0.2523,-0.5925,-0.6091,-1.1471,rough,14.0,1,3.209
2230,71.36,1.4721,-5.9079,0.2050,-0.5876,-0.3727,-1.1237,rough,14.0,1,3.279
2240,71.68,1.6092,-6.0592,0.2291,-0.4474,-0.4340,-1.2083,rough,14.0,1,3.263
2250,72.00,1.7347,-6.2874,0.3323,-0.4902,-0.5467,-1.2497,rough,14.0,1,3.202
2260,72.32,1.8409,-6.4733,0.4436,-0.5182,-0.5997,-1.1988,rough,14.0,1,3.170
2270,72.64,1.9798,-6.5894,0.5059,-0.6032,-0.6378,-0.9347,rough,14.0,1,3.218
2280,72.96,2.1684,-6.6216,0.4821,-0.5194,-0.5631,-0.9356,rough,14.0,1,3.361
2290,73.28,2.3428,-6.5709,0.3923,-0.4767,-0.6920,-1.1351,rough,14.0,1,3.537
2300,73.60,2.5153,-6.4601,0.2190,-0.2655,-0.7947,-1.6739,rough,14.0,1,3.741
2310,73.92,2.6736,-6.2550,-0.0494,-0.1844,-0.7947,-1.7667,rough,14.0,1,3.983
2320,74.24,2.7836,-6.0028,-0.3005,-0.4036,-0.6811,-1.2774,rough,14.0,1,4.212
2330,74.56,2.8963,-5.7757,-0.5156,-0.2441,-0.5570,-1.1163,rough,14.0,1,4.434
2340,74.88,2.9669,-5.7210,-0.5491,0.0063,-0.6778,-1.2536,rough,14.0,1,4.523
2350,75.20,3.0295,-5.8306,-0.4814,0.0388,-0.7414,-1.4474,rough,14.0,1,4.512
2360,75.52,3.0738,-5.9591,-0.3800,-0.0560,-0.7370,-1.4551,rough,14.0,1,4.479
2370,75.84,3.1216,-6.1149,-0.2906,-0.1525,-0.5967,-1.5148,rough,14.0,1,4.439
2380,76.16,3.1518,-6.3285,-0.1382,-0.2543,-0.7234,-1.4685,rough,14.0,1,4.362
2390,76.48,3.1970,-6.4984,-0.0316,-0.3870,-0.6682,-1.4548,rough,14.0,1,4.327
2400,76.80,3.2418,-6.7356,0.0993,-0.4841,-0.5232,-1.5465,rough,14.0,1,4.272
2410,77.12,3.2587,-6.9760,0.2408,-0.5321,-0.6091,-1.4810,rough,14.0,1,4.203
2420,77.44,3.2944,-7.2516,0.3832,-0.5376,-0.5568,-1.6079,rough,14.0,1,4.155
2430,77.76,3.2905,-7.5001,0.5447,-0.5367,-0.5980,-1.5939,rough,14.0,1,4.092
2440,78.08,3.2968,-7.7272,0.6978,-0.5639,-0.6392,-1.5653,rough,14.0,1,4.057
2450,78.40,3.2914,-7.9457,0.8549,-0.3157,-0.7258,-1.8465,rough,14.0,1,4.024
2460,78.72,3.2507,-8.1260,1.0164,-0.4336,-0.6928,-1.6891,rough,14.0,1,3.969
2470,79.04,3.2787,-8.2696,1.1138,-0.5764,-0.6173,-1.4269,rough,14.0,1,3.991
2480,79.36,3.3918,-8.3470,1.1030,-0.6759,-0.5561,-1.2321,rough,14.0,1,4.104
2490,79.68,3.6010,-8.3650,0.9783,-0.5103,-0.6544,-1.4494,rough,14.0,1,4.313
2500,80.00,3.8150,-8.3132,0.8206,-0.4118,-0.6474,-1.5871,rough,14.0,1,4.527
2510,80.32,3.8921,-8.3035,0.7786,-0.4629,-0.5665,-1.4119,rough,14.0,1,4.604
2520,80.64,3.9834,-8.3851,0.7552,-0.4754,-0.3680,-1.3270,rough,14.0,1,4.695
2530,80.96,4.0569,-8.5510,0.8021,-0.4456,-0.3561,-1.4194,rough,14.0,1,4.773
2540,81.28,4.1190,-8.7774,0.8327,-0.5324,-0.3713,-1.5940,rough,14.0,1,4.849
2550,81.60,4.1489,-9.0888,0.9147,-0.5907,-0.4875,-1.8504,rough,14.0,1,4.916
2560,81.92,4.1884,-9.3664,0.9713,-0.6989,-0.6292,-1.8927,rough,14.0,1,5.004
2570,82.24,4.2918,-9.5897,0.9350,-0.5579,-0.6739,-1.9648,rough,14.0,1,5.154
2580,82.56,4.2930,-9.8095,1.0224,-0.3288,-0.8032,-2.2967,rough,14.0,1,5.212
2590,82.88,4.2114,-9.9536,1.1626,-0.1842,-0.8334,-2.4978,rough,14.0,1,5.177
2600,83.20,4.1976,-10.0163,1.2108,-0.2337,-0.8366,-2.4027,rough,14.0,1,5.183
2610,83.52,4.2661,-10.0523,1.1669,-0.1137,-0.8449,-2.4551,rough,14.0,1,5.260
2620,83.84,4.3219,-10.0800,1.1395,0.3874,-0.9030,-3.0109,rough,14.0,1,5.322
2630,84.16,4.3198,-9.9667,1.0545,0.7019,-0.3541,2.4724,rough,14.0,1,5.284
2640,84.48,4.2689,-9.7198,0.9959,0.7974,-0.3958,2.2355,rough,14.0,1,5.165
2650,84.80,4.2541,-9.3794,0.9030,0.7903,-0.4838,2.2452,rough,14.0,1,5.071
2660,85.12,4.3609,-9.0483,0.7320,0.6867,-0.3275,2.2680,rough,14.0,1,5.120
2670,85.44,4.4474,-8.8223,0.6119,0.5405,-0.4030,2.4717,rough,14.0,1,5.180
2680,85.76,4.4431,-8.6434,0.5709,0.5651,-0.5497,2.5467,rough,14.0,1,5.163
2690,86.08,4.4084,-8.4942,0.5520,0.4963,-0.5059,2.5916,rough,14.0,1,5.122
2700,86.40,4.3551,-8.3262,0.5371,0.4892,-0.4405,2.7018,rough,14.0,1,5.067
2710,86.72,4.2108,-8.1073,0.5144,0.4727,-0.3590,3.0631,rough,14.0,1,4.929
2720,87.04,3.8742,-8.0047,0.5875,0.5242,-0.3997,3.1217,rough,14.0,1,4.599
2730,87.36,3.4951,-7.9583,0.7348,0.5853,-0.4683,3.1177,rough,14.0,1,4.225
2740,87.68,3.2089,-7.8546,0.8403,0.6781,-0.5707,2.8717,rough,14.0,1,3.952
2750,88.00,2.9948,-7.6652,0.8821,0.6613,-0.5076,2.8083,rough,14.0,1,3.770
2760,88.32,2.8024,-7.4109,0.8590,0.6164,-0.4906,2.8963,rough,14.0,1,3.638
2770,88.64,2.5262,-7.1123,0.8040,0.7095,-0.3477,2.9085,rough,14.0,1,3.468
2780,88.96,2.1237,-6.7422,0.6096,0.7901,-0.0122,3.0579,rough,14.0,1,3.261
2790,89.28,1.7998,-6.3440,0.3368,0.6602,-0.3527,3.0514,rough,14.0,1,3.216
2800,89.60,1.4646,-5.9941,0.2488,0.4466,-0.4985,-3.0207,rough,14.0,1,3.210
2810,89.92,1.2009,-5.7607,0.2427,0.3656,-0.6911,-2.7011,rough,14.0,1,3.222
2820,90.24,1.1604,-5.7343,0.2181,-0.3259,-0.7335,-1.7816,rough,14.0,1,3.219
2830,90.56,1.2097,-5.7991,0.2612,-0.5413,-0.6919,-1.3185,rough,14.0,1,3.196
2840,90.88,1.3466,-5.9230,0.2654,-0.6020,-0.4202,-1.1987,rough,14.0,1,3.185
2850,91.20,1.5038,-6.0774,0.2754,-0.4410,-0.3846,-1.2753,rough,14.0,1,3.176
2860,91.52,1.6063,-6.3108,0.3983,-0.4768,-0.5886,-1.2822,rough,14.0,1,3.089
2870,91.84,1.6967,-6.5652,0.5630,-0.4855,-0.6297,-1.3481,rough,14.0,1,3.000
2880,92.16,1.7866,-6.7459,0.7002,-0.5746,-0.7202,-1.1546,rough,14.0,1,2.971
2890,92.48,1.9273,-6.8292,0.7373,-0.6009,-0.6289,-0.9156,rough,14.0,1,3.048
2900,92.80,2.0759,-6.7718,0.6407,-0.4139,-0.6874,-1.0509,rough,14.0,1,3.205
2910,93.12,2.2072,-6.6302,0.4832,-0.4005,-0.6964,-1.1214,rough,14.0,1,3.390
2920,93.44,2.3919,-6.4357,0.2394,-0.1928,-0.7887,-1.6861,rough,14.0,1,3.648
2930,93.76,2.5904,-6.2378,-0.0197,-0.3928,-0.8007,-1.5114,rough,14.0,1,3.922
2940,94.08,2.7442,-5.9764,-0.3064,-0.4816,-0.7498,-1.2431,rough,14.0,1,4.194
2950,94.40,2.8448,-5.7136,-0.5481,-0.3200,-0.4859,-1.1143,rough,14.0,1,4.429
2960,94.72,2.9082,-5.6111,-0.6119,-0.4806,-0.4041,-0.5595,rough,14.0,1,4.541
2970,95.04,3.0060,-5.6684,-0.5766,-0.2108,-0.6286,-0.6451,rough,14.0,1,4.586
2980,95.36,3.1869,-5.7855,-0.4867,-0.1789,-0.6096,-0.9536,rough,14.0,1,4.668
2990,95.68,3.3551,-5.9821,-0.3850,-0.2431,-0.4662,-1.1534,rough,14.0,1,4.708
3000,96.00,3.4525,-6.1686,-0.3001,-0.1646,-0.4189,-1.2550,rough,14.0,1,4.703
3010,96.32,3.5655,-6.4142,-0.2289,-0.3291,-0.4293,-1.3525,rough,14.0,1,4.696
3020,96.64,3.6368,-6.6619,-0.1307,-0.3784,-0.4058,-1.4470,rough,14.0,1,4.666
3030,96.96,3.6850,-6.9554,-0.0056,-0.3561,-0.5175,-1.5979,rough,14.0,1,4.614
3040,97.28,3.6719,-7.2118,0.1545,-0.3198,-0.5772,-1.6449,rough,14.0,1,4.530
3050,97.60,3.6422,-7.4545,0.3180,-0.2860,-0.6114,-1.6722,rough,14.0,1,4.446
3060,97.92,3.6096,-7.6758,0.4800,-0.2530,-0.6473,-1.7093,rough,14.0,1,4.374
3070,98.24,3.5668,-7.8885,0.6491,-0.2210,-0.6972,-1.7270,rough,14.0,1,4.304
3080,98.56,3.5401,-8.0603,0.7889,-0.3015,-0.6874,-1.6324,rough,14.0,1,4.262
3090,98.88,3.5368,-8.2531,0.9297,-0.4130,-0.6758,-1.5726,rough,14.0,1,4.250
3100,99.20,3.5772,-8.4169,1.0368,-0.4160,-0.7002,-1.5939,rough,14.0,1,4.289
3110,99.52,3.6945,-8.5422,1.0347,-0.4015,-0.7903,-1.8480,rough,14.0,1,4.410
3120,99.84,3.7676,-8.6157,1.0099,0.1040,-0.7289,-2.7515,rough,14.0,1,4.487
3130,100.16,3.7326,-8.5593,1.0212,0.3102,-0.7813,-3.0886,rough,14.0,1,4.449
3140,100.48,3.6912,-8.3765,0.9183,0.0305,-0.8165,-2.4248,rough,14.0,1,4.403
3150,100.80,3.6987,-8.2976,0.8623,-0.3223,-0.6993,-1.8129,rough,14.0,1,4.411
3160,101.12,3.7239,-8.2935,0.8536,-0.5266,-0.5891,-1.4387,rough,14.0,1,4.436
3170,101.44,3.7823,-8.3680,0.8767,-0.5828,-0.5888,-1.3145,rough,14.0,1,4.494
3180,101.76,3.8603,-8.5267,0.9125,-0.6060,-0.4244,-1.3767,rough,14.0,1,4.575
3190,102.08,3.9323,-8.7510,0.9817,-0.6653,-0.2738,-1.5673,rough,14.0,1,4.661
3200,102.40,4.0258,-8.9856,0.9928,-0.4910,-0.6016,-1.7795,rough,14.0,1,4.780
3210,102.72,4.1347,-9.2649,0.9741,-0.5940,-0.6200,-1.9364,rough,14.0,1,4.931
3220,103.04,4.2987,-9.4973,0.8863,-0.6095,-0.6163,-1.9557,rough,14.0,1,5.139
3230,103.36,4.4008,-9.6600,0.8829,-0.1238,-0.8247,-2.4016,rough,14.0,1,5.277
3240,103.68,4.4119,-9.7754,0.9238,0.3598,-0.8333,-3.0232,rough,14.0,1,5.317
3250,104.00,4.2928,-9.7443,0.9981,0.6428,-0.7541,2.6267,rough,14.0,1,5.194
3260,104.32,4.2159,-9.4889,0.9691,0.6465,-0.6077,2.5271,rough,14.0,1,5.057
3270,104.64,4.2899,-9.2212,0.8166,0.5868,-0.5976,2.4956,rough,14.0,1,5.076
3280,104.96,4.4120,-9.0137,0.6849,0.4874,-0.5840,2.3796,rough,14.0,1,5.166
3290,105.28,4.5043,-8.7801,0.5503,0.4961,-0.5003,2.5337,rough,14.0,1,5.234
3300,105.60,4.5568,-8.6211,0.4853,0.5725,-0.6241,2.6422,rough,14.0,1,5.275
3310,105.92,4.5936,-8.4944,0.4181,0.6727,-0.5433,2.3753,rough,14.0,1,5.307
3320,106.24,4.6597,-8.2571,0.2697,0.7282,-0.3672,2.4366,rough,14.0,1,5.372
3330,106.56,4.7234,-7.9006,0.0397,0.6732,-0.4798,2.5747,rough,14.0,1,5.454
3340,106.88,4.7780,-7.5290,-0.1822,0.5791,-0.5551,2.7534,rough,14.0,1,5.551
3350,107.20,4.6993,-7.3152,-0.2344,0.6398,-0.3627,2.6362,rough,14.0,1,5.510
3360,107.52,4.4633,-7.1531,-0.1930,0.5294,-0.1893,2.7955,rough,14.0,1,5.312
3370,107.84,4.1033,-6.9969,-0.1621,0.6449,-0.2654,2.8456,rough,14.0,1,5.002
3380,108.16,3.7105,-6.8909,-0.0458,0.5367,-0.3326,2.9642,rough,14.0,1,4.658
3390,108.48,3.3479,-6.7991,0.0894,0.5491,-0.4204,3.0154,rough,14.0,1,4.347
3400,108.80,2.9937,-6.7265,0.2433,0.5762,-0.4861,3.0737,rough,14.0,1,4.047
3410,109.12,2.6050,-6.6500,0.3568,0.7047,-0.4603,-3.1131,rough,14.0,1,3.729
3420,109.44,2.2918,-6.5023,0.3416,0.6765,-0.4073,-3.0302,rough,14.0,1,3.528
3430,109.76,1.9720,-6.2744,0.2409,0.6084,-0.5370,-2.9466,rough,14.0,1,3.395
3440,110.08,1.6851,-6.0674,0.2021,0.2202,-0.6047,-2.7060,rough,14.0,1,3.312
3450,110.40,1.4140,-5.9404,0.2597,0.2233,-0.8594,-2.3618,rough,14.0,1,3.216
3460,110.72,1.3851,-5.9532,0.2941,-0.2168,-0.8061,-1.8131,rough,14.0,1,3.187
3470,111.04,1.4473,-5.9778,0.2417,-0.4876,-0.4446,-1.3952,rough,14.0,1,3.210
3480,111.36,1.5654,-6.0915,0.2614,-0.4691,-0.3669,-1.1149,rough,14.0,1,3.210
3490,111.68,1.7113,-6.2861,0.3436,-0.5308,-0.5083,-1.1563,rough,14.0,1,3.185
3500,112.00,1.8422,-6.5049,0.4700,-0.5554,-0.5941,-1.1559,rough,14.0,1,3.153
3510,112.32,1.9783,-6.6581,0.5621,-0.5505,-0.6436,-0.9813,rough,14.0,1,3.180
3520,112.64,2.1325,-6.7246,0.5887,-0.4396,-0.6626,-1.0144,rough,14.0,1,3.278
3530,112.96,2.2825,-6.7184,0.5520,-0.3990,-0.7299,-1.1967,rough,14.0,1,3.411
3540,113.28,2.4654,-6.6444,0.4175,-0.3291,-0.7903,-1.5785,rough,14.0,1,3.608
3550,113.60,2.6760,-6.4919,0.1755,-0.3161,-0.7649,-1.5690,rough,14.0,1,3.865
3560,113.92,2.8713,-6.2785,-0.0983,-0.1849,-0.7738,-1.6451,rough,14.0,1,4.140
3570,114.24,2.9643,-6.0989,-0.2602,-0.1270,-0.6904,-1.3986,rough,14.0,1,4.312
3580,114.56,3.0061,-6.0007,-0.3364,-0.0269,-0.7470,-1.4269,rough,14.0,1,4.400
3590,114.88,3.0416,-5.9835,-0.3535,-0.0076,-0.7470,-1.4934,rough,14.0,1,4.439
3600,115.20,3.0675,-6.0250,-0.3375,-0.0334,-0.6792,-1.5337,rough,14.0,1,4.439
3610,115.52,3.1012,-6.1580,-0.2514,-0.1615,-0.6330,-1.5379,rough,14.0,1,4.400
3620,115.84,3.1172,-6.3585,-0.1010,-0.2232,-0.7748,-1.4914,rough,14.0,1,4.317
3630,116.16,3.1586,-6.5336,0.0129,-0.3786,-0.6915,-1.4808,rough,14.0,1,4.277
3640,116.48,3.1966,-6.7544,0.1314,-0.5086,-0.5517,-1.5539,rough,14.0,1,4.223
3650,116.80,3.2155,-7.0006,0.2833,-0.5535,-0.6279,-1.5297,rough,14.0,1,4.154
3660,117.12,3.2413,-7.2615,0.4193,-0.5960,-0.5412,-1.5804,rough,14.0,1,4.101
3670,117.44,3.2453,-7.5007,0.5703,-0.6045,-0.5669,-1.5524,rough,14.0,1,4.048
3680,117.76,3.2612,-7.7270,0.7194,-0.6275,-0.6196,-1.5097,rough,14.0,1,4.022
3690,118.08,3.2775,-7.9348,0.8590,-0.5857,-0.6494,-1.4984,rough,14.0,1,4.011
3700,118.40,3.2964,-8.1182,0.9817,-0.5071,-0.6414,-1.5209,rough,14.0,1,4.015
3710,118.72,3.3330,-8.2660,1.0732,-0.5571,-0.6175,-1.4393,rough,14.0,1,4.046
3720,119.04,3.4342,-8.3685,1.0889,-0.5532,-0.6453,-1.4254,rough,14.0,1,4.146
3730,119.36,3.6151,-8.3863,0.9881,-0.4281,-0.6856,-1.5990,rough,14.0,1,4.327
3740,119.68,3.7613,-8.3497,0.8719,-0.4514,-0.6825,-1.5577,rough,14.0,1,4.473
3750,120.00,3.8078,-8.3854,0.8746,-0.5538,-0.5940,-1.3375,rough,14.0,1,4.520
3760,120.32,3.8959,-8.5230,0.8863,-0.5862,-0.3825,-1.3732,rough,14.0,1,4.611
3770,120.64,3.9726,-8.7325,0.9381,-0.6521,-0.2636,-1.5359,rough,14.0,1,4.700
3780,120.96,4.0475,-9.0145,0.9830,-0.5060,-0.5412,-1.8154,rough,14.0,1,4.805
3790,121.28,4.1194,-9.2979,1.0007,-0.6323,-0.6517,-1.9535,rough,14.0,1,4.923
3800,121.60,4.2510,-9.5337,0.9432,-0.6400,-0.6240,-1.9136,rough,14.0,1,5.101
3810,121.92,4.3569,-9.7165,0.9347,-0.2667,-0.7911,-2.2844,rough,14.0,1,5.249
3820,122.24,4.3542,-9.8612,1.0082,0.2140,-0.8756,-2.8330,rough,14.0,1,5.286
3830,122.56,4.2815,-9.8728,1.0661,0.6112,-0.7838,2.7705,rough,14.0,1,5.219
3840,122.88,4.2372,-9.6494,1.0054,0.6604,-0.6242,2.5055,rough,14.0,1,5.116
3850,123.20,4.3241,-9.3425,0.8171,0.5991,-0.6007,2.4967,rough,14.0,1,5.132
3860,123.52,4.4719,-9.0916,0.6442,0.5271,-0.4494,2.3680,rough,14.0,1,5.236
3870,123.84,4.5813,-8.8278,0.5127,0.5257,-0.4058,2.3332,rough,14.0,1,5.314
3880,124.16,4.6585,-8.5753,0.3822,0.6632,-0.3901,2.3759,rough,14.0,1,5.375
3890,124.48,4.7254,-8.3431,0.2432,0.6900,-0.3868,2.3972,rough,14.0,1,5.437
3900,124.80,4.7734,-8.0513,0.0698,0.6776,-0.4893,2.6006,rough,14.0,1,5.493
3910,125.12,4.8246,-7.6938,-0.1377,0.5550,-0.5991,2.7364,rough,14.0,1,5.576
3920,125.44,4.7419,-7.4567,-0.1892,0.4807,-0.6567,2.9900,rough,14.0,1,5.527
3930,125.76,4.6008,-7.3913,-0.1290,0.4951,-0.6192,3.0585,rough,14.0,1,5.399
3940,126.08,4.3125,-7.3611,-0.0053,0.5529,-0.3562,3.0885,rough,14.0,1,5.121
3950,126.40,3.9226,-7.3057,0.1075,0.5662,-0.3948,3.0951,rough,14.0,1,4.751
3960,126.72,3.5167,-7.2984,0.2729,0.5159,-0.4143,-3.1332,rough,14.0,1,4.358
3970,127.04,3.2178,-7.2746,0.4453,0.4928,-0.6389,3.0395,rough,14.0,1,4.075
3980,127.36,2.9468,-7.1843,0.6074,0.5099,-0.6441,3.0789,rough,14.0,1,3.841
3990,127.68,2.6096,-7.0544,0.7108,0.6461,-0.4550,3.1032,rough,14.0,1,3.566
4000,128.00,2.2390,-6.9024,0.7378,0.6615,-0.3366,-3.1041,rough,14.0,1,3.288
4010,128.32,1.8773,-6.7100,0.6445,0.8076,-0.3949,3.1110,rough,14.0,1,3.067
4020,128.64,1.5563,-6.4931,0.5645,0.5501,-0.5438,-2.9772,rough,14.0,1,2.933
4030,128.96,1.3227,-6.2504,0.5312,0.5030,-0.7969,-2.9606,rough,14.0,1,2.926
4040,129.28,1.2622,-6.0775,0.4278,0.7556,-0.5532,2.6462,rough,14.0,1,3.012
4050,129.60,1.1627,-5.8045,0.3008,0.8055,-0.4558,2.9994,rough,14.0,1,3.164
4060,129.92,1.1230,-5.5478,0.1204,0.4873,-0.4275,-3.1033,rough,14.0,1,3.352
4070,130.24,1.0235,-5.3470,0.0098,0.5170,-0.6230,-2.8056,rough,14.0,1,3.471
4080,130.56,0.8305,-5.1167,-0.0902,0.1332,-0.7357,-2.2627,rough,14.0,1,3.585
4090,130.88,0.6756,-4.9544,-0.1286,0.0045,-0.7475,-2.3102,rough,14.0,1,3.671
4100,131.20,0.5491,-4.9475,-0.0597,0.2459,-0.7376,-2.7606,rough,14.0,1,3.632
4110,131.52,0.3930,-4.9468,0.0627,0.4867,-0.7288,-3.0855,rough,14.0,1,3.581
4120,131.84,0.3300,-4.8424,0.0547,0.6974,-0.6195,2.7576,rough,14.0,1,3.662
4130,132.16,0.3102,-4.6660,-0.0348,0.7194,-0.3715,2.4771,rough,14.0,1,3.826
4140,132.48,0.2439,-4.5119,-0.0307,0.6521,-0.4839,2.5967,rough,14.0,1,3.958
4150,132.80,0.1498,-4.4022,0.0062,0.5418,-0.6188,2.7349,rough,14.0,1,4.044
4160,133.12,0.0535,-4.3101,0.0430,0.5230,-0.5432,2.7986,rough,14.0,1,4.115
4170,133.44,-0.0399,-4.2526,0.0998,0.4317,-0.5681,2.9066,rough,14.0,1,4.155
4180,133.76,-0.1864,-4.2139,0.1762,0.4327,-0.5551,2.9634,rough,14.0,1,4.173
4190,134.08,-0.3747,-4.1643,0.2575,0.4588,-0.5176,3.0738,rough,14.0,1,4.202
4200,134.40,-0.6068,-4.1353,0.3685,0.3710,-0.6038,-2.9760,rough,14.0,1,4.219
4210,134.72,-0.8638,-4.1676,0.5309,0.2518,-0.7117,-2.6971,rough,14.0,1,4.188
4220,135.04,-1.0870,-4.2613,0.7156,0.2127,-0.7841,-2.5126,rough,14.0,1,4.109
4230,135.36,-1.2052,-4.3630,0.8711,0.1494,-0.8145,-2.4578,rough,14.0,1,4.021
4240,135.68,-1.3079,-4.4821,1.0229,0.1218,-0.7998,-2.4451,rough,14.0,1,3.917
4250,136.00,-1.4077,-4.6004,1.1763,0.1040,-0.8044,-2.4445,rough,14.0,1,3.817
4260,136.32,-1.4840,-4.6927,1.2807,-0.0628,-0.7305,-2.2372,rough,14.0,1,3.741
4270,136.64,-1.4957,-4.7773,1.3299,-0.0354,-0.7404,-2.3162,rough,14.0,1,3.661
4280,136.96,-1.5859,-4.8771,1.4147,-0.0153,-0.6002,-2.4342,rough,14.0,1,3.584
4290,137.28,-1.7290,-4.9790,1.5426,-0.0421,-0.6073,-2.4064,rough,14.0,1,3.524
4300,137.60,-1.9979,-5.2434,1.6016,0.2405,-0.0613,-2.0324,rough,14.0,1,3.365
4310,137.92,-2.1513,-5.5933,1.6399,0.1844,-0.0875,-1.8327,rough,14.0,1,3.113
4320,138.24,-2.2400,-6.0273,1.6500,0.1626,0.0812,-1.6946,rough,14.0,1,2.783
4330,138.56,-2.2626,-6.4644,1.5796,0.1436,0.3355,-1.5324,rough,14.0,1,2.444
4340,138.88,-2.2415,-6.9311,1.4092,0.2042,0.5295,-1.4088,rough,14.0,1,2.089
4350,139.20,-2.1970,-7.3864,1.1392,0.2704,0.5886,-1.3925,rough,14.0,1,1.772
4360,139.52,-2.1928,-7.8096,0.8184,0.3956,0.6921,-1.4400,rough,14.0,1,1.578
4370,139.84,-2.1994,-8.2369,0.4941,0.4693,0.6169,-1.5024,rough,14.0,1,1.492
4380,140.16,-2.2114,-8.6118,0.2501,0.4922,0.4540,-1.5584,rough,14.0,1,1.522
4390,140.48,-2.2236,-8.9862,0.0700,0.5214,0.3535,-1.4984,rough,14.0,1,1.639
4400,140.80,-2.2076,-9.3359,-0.0641,0.5746,0.2291,-1.2360,rough,14.0,1,1.790
4410,141.12,-2.0811,-9.6690,-0.1615,0.5720,0.1161,-0.9426,rough,14.0,1,1.899
4420,141.44,-1.8754,-9.9497,-0.2104,0.5620,-0.0093,-0.6529,rough,14.0,1,1.976
4430,141.76,-1.6254,-10.1380,-0.2210,0.4816,-0.1736,-0.3867,rough,14.0,1,2.005
4440,142.08,-1.4018,-10.2395,-0.1833,0.3335,-0.3783,-0.2132,rough,14.0,1,2.009
4450,142.40,-1.2024,-10.2740,-0.1033,0.2373,-0.4471,-0.1317,rough,14.0,1,1.982
4460,142.72,-1.0040,-10.3083,-0.0372,0.2803,-0.3628,-0.0831,rough,14.0,1,1.977
4470,143.04,-0.8977,-10.3434,0.0270,0.3103,-0.5328,-0.0870,rough,14.0,1,1.999
4480,143.36,-0.8053,-10.3577,0.0831,0.3981,-0.7863,-0.1945,rough,14.0,1,2.007
4490,143.68,-0.7606,-10.3795,0.1132,0.4574,-0.8368,-0.3080,rough,14.0,1,2.027
4500,144.00,-0.7150,-10.4573,0.1077,0.4949,-0.6383,-0.3658,rough,14.0,1,2.104
4510,144.32,-0.6504,-10.5657,0.1046,0.4768,-0.4462,-0.3433,rough,14.0,1,2.213
4520,144.64,-0.6135,-10.6073,0.1308,0.3349,-0.5887,-0.2646,rough,14.0,1,2.256
4530,144.96,-0.5315,-10.6608,0.1452,0.4093,-0.6435,-0.2050,rough,14.0,1,2.315
4540,145.28,-0.3453,-10.7864,0.1711,0.6487,-0.6904,0.0917,rough,14.0,1,2.461
4550,145.60,-0.2320,-10.9056,0.1303,0.5744,-0.6891,0.0910,rough,14.0,1,2.597
4560,145.92,-0.1514,-10.9908,0.1421,0.2289,-0.9241,0.3850,rough,14.0,1,2.696
4570,146.24,-0.1446,-11.0666,0.0744,-0.2112,-0.8938,0.9754,rough,14.0,1,2.772
4580,146.56,-0.1246,-11.1396,0.0225,-0.0080,-0.8118,0.7477,rough,14.0,1,2.848
4590,146.88,-0.0506,-11.2487,-0.0185,-0.0290,-0.7702,0.9863,rough,14.0,1,2.970
4600,147.20,-0.0098,-11.3298,-0.0546,-0.4715,-0.6708,1.7406,rough,14.0,1,3.058
4610,147.52,-0.0800,-11.3766,-0.1168,-0.4851,-0.6185,1.7894,rough,14.0,1,3.089
4620,147.84,-0.1565,-11.3544,-0.1315,-0.5185,-0.6296,1.8789,rough,14.0,1,3.052
4630,148.16,-0.2552,-11.2906,-0.1134,-0.4736,-0.5315,1.9289,rough,14.0,1,2.973
4640,148.48,-0.3552,-11.0877,-0.0194,-0.3071,-0.3908,1.7840,rough,14.0,1,2.758
4650,148.80,-0.5138,-10.7699,0.0945,-0.5462,-0.3462,1.8696,rough,14.0,1,2.425
4660,149.12,-0.7573,-10.4490,0.0946,-0.8429,-0.1865,1.7430,rough,14.0,1,2.096
4670,149.44,-0.9208,-10.1572,0.1180,-0.8761,-0.2727,1.6761,rough,14.0,1,1.816
4680,149.76,-0.9938,-9.9323,0.1186,-0.3955,-0.6815,1.3544,rough,14.0,1,1.604
4690,150.08,-1.0336,-9.7494,0.1923,-0.4185,-0.6242,1.5900,rough,14.0,1,1.433
4700,150.40,-1.0530,-9.5398,0.3145,-0.5115,-0.5954,1.6144,rough,14.0,1,1.235
4710,150.72,-1.1624,-9.3045,0.4321,-0.6927,-0.6164,1.8739,rough,14.0,1,1.053
4720,151.04,-1.2996,-9.1491,0.4698,-0.4331,-0.6519,1.5614,rough,14.0,1,0.989
4730,151.36,-1.4074,-9.0911,0.4522,-0.5556,-0.4404,1.8858,rough,14.0,1,1.014
4740,151.68,-1.5608,-9.0714,0.3874,-0.5191,-0.3786,1.8887,rough,14.0,1,1.112
4750,152.00,-1.6707,-8.9642,0.3989,-0.5529,-0.4379,1.8607,rough,14.0,1,1.137
4760,152.32,-1.7599,-8.7442,0.4778,-0.6163,-0.4886,1.8494,rough,14.0,1,1.119
4770,152.64,-1.8441,-8.4467,0.5810,-0.5890,-0.5323,1.5745,rough,14.0,1,1.136
4780,152.96,-1.8607,-8.1715,0.7309,-0.3677,-0.6943,1.2570,rough,14.0,1,1.163
4790,153.28,-1.7926,-7.9674,0.9126,-0.2519,-0.7414,1.0931,rough,14.0,1,1.148
4800,153.60,-1.7009,-7.7788,1.0760,-0.2150,-0.7061,0.9720,rough,14.0,1,1.144
4810,153.92,-1.5704,-7.6082,1.2523,-0.0491,-0.7163,0.7064,rough,14.0,1,1.137
4820,154.24,-1.3874,-7.4533,1.4122,0.0696,-0.5573,0.4705,rough,14.0,1,1.125
4830,154.56,-1.1822,-7.3398,1.5393,0.1365,-0.4552,0.2490,rough,14.0,1,1.117
4840,154.88,-0.9850,-7.2528,1.6083,-0.0568,-0.4705,0.1294,rough,14.0,1,1.134
4850,155.20,-0.6910,-7.2338,1.6669,-0.0837,-0.1657,-0.1528,rough,14.0,1,1.120
4860,155.52,-0.3991,-7.2888,1.6929,-0.1317,-0.1159,-0.4066,rough,14.0,1,1.109
4870,155.84,-0.1842,-7.4384,1.7326,-0.0345,-0.1817,-0.6246,rough,14.0,1,1.056
4880,156.16,0.0435,-7.7023,1.7419,0.0904,0.0744,-0.9126,rough,14.0,1,0.997
4890,156.48,0.1471,-7.9374,1.7500,0.1396,-0.0198,-1.1999,rough,14.0,1,0.954
4900,156.80,0.1409,-8.2466,1.7240,0.2423,0.0932,-1.5751,rough,14.0,1,0.859
4910,157.12,0.0312,-8.5812,1.6647,0.2667,0.2830,-1.9280,rough,14.0,2,5.704
4920,157.44,-0.1272,-8.8967,1.5615,0.1337,0.4702,-2.1173,rough,14.0,2,5.877
4930,157.76,-0.4749,-9.2494,1.2089,0.5972,1.1141,-2.0924,rough,14.0,2,6.008
4940,158.08,-0.9355,-9.7214,0.4156,-0.9448,1.1718,2.5785,rough,14.0,2,6.242
4950,158.40,-1.6246,-10.3521,-0.1875,-1.8276,0.3980,2.7811,rough,14.0,2,6.625
4960,158.72,-2.3237,-10.6646,-0.3439,0.5494,0.6964,0.5894,rough,14.0,2,6.795
4970,159.04,-2.9377,-10.8893,-0.3753,-2.9359,-1.4244,-2.9383,rough,14.0,2,6.961
4980,159.36,-3.1517,-10.9885,-0.4941,-3.1161,-0.2882,-2.4874,rough,14.0,2,7.053
4990,159.68,-3.0623,-10.9529,-0.5664,2.9867,-0.2896,-2.2674,rough,14.0,2,7.019
5000,160.00,-2.9625,-10.8053,-0.6107,2.9194,-0.0822,-1.6197,rough,14.0,2,6.876
5010,160.32,-2.9256,-10.6510,-0.6235,2.9040,-0.0384,-1.6348,rough,14.0,2,6.723
5020,160.64,-2.8988,-10.5116,-0.6304,3.0031,-0.0992,-1.6258,rough,14.0,2,6.586
5030,160.96,-2.8941,-10.5340,-0.6349,2.9576,-0.1046,-1.7283,rough,14.0,2,6.608
5040,161.28,-2.8488,-10.5432,-0.6428,2.9429,-0.0612,-1.6251,rough,14.0,2,6.620
5050,161.60,-2.8048,-10.5777,-0.6506,2.9235,-0.0275,-1.6349,rough,14.0,2,6.658
5060,161.92,-2.7644,-10.5856,-0.6587,2.9054,0.0079,-1.6425,rough,14.0,2,6.669
5070,162.24,-2.7207,-10.5720,-0.6681,2.9137,0.0058,-1.6725,rough,14.0,2,6.659
5080,162.56,-2.6740,-10.5418,-0.6786,2.9137,0.0226,-1.6564,rough,14.0,2,6.632
5090,162.88,-2.6297,-10.5338,-0.6880,2.8980,0.0516,-1.6904,rough,14.0,2,6.629
5100,163.20,-2.5794,-10.5339,-0.6978,2.9215,0.0319,-1.6882,rough,14.0,2,6.634
5110,163.52,-2.5319,-10.5172,-0.7065,2.9147,0.0304,-1.7296,rough,14.0,2,6.623
5120,163.84,-2.4901,-10.5431,-0.7138,2.8447,0.0889,-1.7467,rough,14.0,2,6.653
5130,164.16,-2.4847,-10.6509,-0.7334,2.7583,0.1548,-1.7803,rough,14.0,2,6.761
5140,164.48,-2.4821,-10.8532,-0.7501,2.7495,-0.0064,-1.6757,rough,14.0,2,6.962
5150,164.80,-2.4577,-10.9607,-0.7535,2.7630,-0.1008,-1.6531,slope,18.0,2,7.072
5160,165.12,-2.4417,-11.0169,-0.7564,2.7449,-0.2023,-1.6342,slope,18.0,2,7.129
5170,165.44,-2.4342,-11.0187,-0.7566,2.7926,-0.1724,-1.6525,slope,18.0,2,7.132
5180,165.76,-2.4306,-10.9939,-0.7603,2.8067,-0.1183,-1.6712,slope,18.0,2,7.108
5190,166.08,-2.4131,-10.9188,-0.7569,2.8183,-0.0063,-1.7132,slope,18.0,2,7.035
5200,166.40,-2.4192,-10.7954,-0.7515,2.8060,0.1442,-1.7458,rough,14.0,2,6.912
5210,166.72,-2.4405,-10.8443,-0.7534,2.7904,0.0572,-1.7236,rough,14.0,2,6.958
5220,167.04,-2.4615,-11.0472,-0.7528,2.7325,-0.2270,-1.6091,rough,14.0,2,7.157
5230,167.36,-2.4482,-11.1007,-0.7479,2.7890,-0.2105,-1.6074,rough,14.0,2,7.212
5240,167.68,-2.4477,-11.0348,-0.7577,2.7897,-0.1806,-1.6274,rough,14.0,2,7.146
5250,168.00,-2.4388,-10.9675,-0.7582,2.7892,-0.1033,-1.6800,slope,18.0,2,7.081
5260,168.32,-2.4361,-10.9171,-0.7598,2.7956,-0.0402,-1.6828,rough,14.0,2,7.031
5270,168.64,-2.4393,-10.9445,-0.7607,2.7988,-0.0683,-1.6856,slope,18.0,2,7.058
5280,168.96,-2.4357,-10.9302,-0.7574,2.7944,-0.0428,-1.6731,slope,18.0,2,7.044
5290,169.28,-2.4395,-10.9260,-0.7642,2.8158,-0.0181,-1.6811,slope,18.0,2,7.039
5300,169.60,-2.4543,-10.8978,-0.7565,2.7737,-0.0193,-1.6786,rough,14.0,2,7.010
5310,169.92,-2.4550,-10.9093,-0.7590,2.7696,-0.0492,-1.6597,rough,14.0,2,7.021
5320,170.24,-2.4534,-10.9711,-0.7571,2.7703,-0.1115,-1.6461,rough,14.0,2,7.083
5330,170.56,-2.4457,-11.0552,-0.7551,2.7908,-0.1994,-1.6329,rough,14.0,2,7.167
5340,170.88,-2.4404,-11.0355,-0.7550,2.7479,-0.2256,-1.6122,slope,18.0,2,7.148
5350,171.20,-2.4379,-10.9808,-0.7582,2.7860,-0.1182,-1.6576,slope,18.0,2,7.094
5360,171.52,-2.4125,-10.8615,-0.7560,2.8269,0.0465,-1.7291,rough,14.0,2,6.979
5370,171.84,-2.4354,-10.8075,-0.7519,2.7585,0.1439,-1.7512,rough,14.0,2,6.922
5380,172.16,-2.4517,-10.9185,-0.7561,2.7776,-0.0467,-1.6927,rough,14.0,2,7.030
5390,172.48,-2.4380,-10.9551,-0.7578,2.7940,-0.0811,-1.6674,slope,18.0,2,7.068
5400,172.80,-2.4321,-10.9465,-0.7598,2.8008,-0.0754,-1.6743,slope,18.0,2,7.061
5410,173.12,-2.4479,-10.9280,-0.7572,2.7807,-0.0534,-1.6690,rough,14.0,2,7.040
5420,173.44,-2.4414,-10.9488,-0.7588,2.7852,-0.0743,-1.6863,slope,18.0,2,7.062
5430,173.76,-2.4476,-10.9725,-0.7599,2.7687,-0.0884,-1.6071,slope,18.0,2,7.085
5440,174.08,-2.4396,-11.0646,-0.7550,2.8016,-0.2112,-1.6365,slope,18.0,2,7.177
5450,174.40,-2.4374,-11.0283,-0.7587,2.7742,-0.1840,-1.6310,slope,18.0,2,7.141
5460,174.72,-2.4353,-11.0222,-0.7562,2.7725,-0.1927,-1.6279,slope,18.0,2,7.135
5470,175.04,-2.4355,-10.9983,-0.7596,2.7884,-0.1291,-1.6339,slope,18.0,2,7.112
5480,175.36,-2.4343,-10.9543,-0.7574,2.7976,-0.0720,-1.6647,slope,18.0,2,7.068
5490,175.68,-2.4307,-10.9216,-0.7593,2.7976,-0.0419,-1.6717,rough,14.0,2,7.036
5500,176.00,-2.4428,-10.9431,-0.7579,2.7752,-0.0543,-1.6703,slope,18.0,2,7.056
5510,176.32,-2.4453,-10.9961,-0.7645,2.7560,-0.1329,-1.6693,slope,18.0,2,7.108
5520,176.64,-2.4375,-10.9872,-0.7580,2.7908,-0.1235,-1.6642,slope,18.0,2,7.100
5530,176.96,-2.4426,-10.9520,-0.7577,2.7830,-0.0773,-1.6780,slope,18.0,2,7.065
5540,177.28,-2.4515,-10.8959,-0.7576,2.7649,-0.0095,-1.6672,rough,14.0,2,7.008
5550,177.60,-2.4510,-10.8755,-0.7555,2.7819,0.0066,-1.7200,rough,14.0,2,6.988
5560,177.92,-2.4656,-10.9250,-0.7510,2.7375,-0.0987,-1.6641,slope,18.0,2,7.035
5570,178.24,-2.4470,-11.0229,-0.7602,2.7647,-0.1552,-1.5810,rough,14.0,2,7.135
5580,178.56,-2.4390,-11.0568,-0.7554,2.8016,-0.2005,-1.6290,rough,14.0,2,7.169
5590,178.88,-2.4422,-11.0206,-0.7564,2.7784,-0.1669,-1.6167,rough,14.0,2,7.133
5600,179.20,-2.4347,-10.9638,-0.7578,2.7975,-0.0933,-1.6636,slope,18.0,2,7.077
5610,179.52,-2.4359,-10.9370,-0.7576,2.7970,-0.0580,-1.6672,slope,18.0,2,7.051
5620,179.84,-2.4443,-10.9920,-0.7572,2.7847,-0.1238,-1.6528,slope,18.0,2,7.104
5630,180.16,-2.4505,-11.0594,-0.7548,2.7645,-0.2199,-1.6278,rough,14.0,2,7.171
5640,180.48,-2.4462,-11.0313,-0.7537,2.7530,-0.2136,-1.6286,rough,14.0,2,7.143
5650,180.80,-2.4489,-11.0062,-0.7558,2.7472,-0.1704,-1.6131,rough,14.0,2,7.118
5660,181.12,-2.4424,-10.9785,-0.7568,2.7793,-0.1164,-1.6365,rough,14.0,2,7.091
5670,181.44,-2.4358,-10.9065,-0.7566,2.7919,-0.0033,-1.6949,rough,14.0,2,7.020
5680,181.76,-2.4599,-10.8943,-0.7565,2.7664,-0.0220,-1.6726,rough,14.0,2,7.005
5690,182.08,-2.4569,-10.9220,-0.7554,2.7704,-0.0508,-1.6640,rough,14.0,2,7.033
5700,182.40,-2.4458,-11.0109,-0.7570,2.7709,-0.1637,-1.6595,rough,14.0,2,7.123
5710,182.72,-2.4483,-11.0678,-0.7538,2.7899,-0.2077,-1.6004,rough,14.0,2,7.179
5720,183.04,-2.4418,-11.0140,-0.7550,2.7742,-0.1660,-1.5902,rough,14.0,2,7.126
5730,183.36,-2.4410,-10.9790,-0.7585,2.7887,-0.1138,-1.6776,slope,18.0,2,7.092
5740,183.68,-2.4388,-10.9653,-0.7598,2.7823,-0.0738,-1.6768,slope,18.0,2,7.078
5750,184.00,-2.4432,-10.8443,-0.7546,2.7653,0.0770,-1.7011,rough,14.0,2,6.958
5760,184.32,-2.4613,-10.8587,-0.7591,2.8012,0.0140,-1.7127,rough,14.0,2,6.970
5770,184.64,-2.4637,-10.9026,-0.7534,2.7641,-0.0553,-1.6922,rough,14.0,2,7.013
5780,184.96,-2.4528,-10.9772,-0.7557,2.7634,-0.1219,-1.6463,slope,18.0,2,7.089
5790,185.28,-2.4390,-11.0324,-0.7559,2.7626,-0.2085,-1.6252,rough,14.0,2,7.145
5800,185.60,-2.4357,-11.0223,-0.7559,2.7808,-0.1846,-1.6275,slope,18.0,2,7.135
5810,185.92,-2.4294,-10.9580,-0.7594,2.8037,-0.0842,-1.6705,slope,18.0,2,7.072
5820,186.24,-2.4517,-10.9390,-0.7578,2.7649,-0.0596,-1.6834,slope,18.0,2,7.051
5830,186.56,-2.4384,-10.9387,-0.7576,2.7905,-0.0567,-1.6521,slope,18.0,2,7.052
5840,186.88,-2.4376,-10.9963,-0.7602,2.7844,-0.1312,-1.6700,rough,14.0,2,7.109
5850,187.20,-2.4315,-10.9443,-0.7596,2.8052,-0.0715,-1.6598,slope,18.0,2,7.059
5860,187.52,-2.4148,-10.8180,-0.7532,2.8129,0.1175,-1.7209,rough,14.0,2,6.935
5870,187.84,-2.4683,-10.8052,-0.7522,2.7732,0.0620,-1.7133,slope,18.0,2,6.916
5880,188.16,-2.4800,-10.8470,-0.7496,2.7475,-0.0205,-1.6979,rough,14.0,2,6.956
5890,188.48,-2.4711,-10.7859,-0.7535,2.7562,0.0906,-1.7096,rough,14.0,2,6.896
5900,188.80,-2.4798,-10.8409,-0.7526,2.7704,0.0050,-1.6985,rough,14.0,2,6.950
5910,189.12,-2.4796,-10.8918,-0.7609,2.7990,-0.0673,-1.6718,rough,14.0,2,7.001
5920,189.44,-2.4729,-10.8729,-0.7556,2.7727,-0.0303,-1.6799,rough,14.0,2,6.983
5930,189.76,-2.4652,-10.8518,-0.7541,2.7715,0.0207,-1.6923,rough,14.0,2,6.963
5940,190.08,-2.4528,-10.8316,-0.7544,2.7743,0.0737,-1.7062,rough,14.0,2,6.944
5950,190.40,-2.4664,-10.8697,-0.7579,2.7729,-0.0343,-1.6924,rough,14.0,2,6.980
5960,190.72,-2.4695,-10.9334,-0.7494,2.7304,-0.1033,-1.6402,slope,18.0,2,7.043
5970,191.04,-2.4559,-11.0212,-0.7529,2.7372,-0.2043,-1.6318,rough,14.0,2,7.132
5980,191.36,-2.4462,-11.0641,-0.7547,2.7893,-0.2083,-1.6227,rough,14.0,2,7.176
5990,191.68,-2.4450,-11.0238,-0.7551,2.7574,-0.1908,-1.6080,rough,14.0,2,7.136
6000,192.00,-2.4340,-11.0004,-0.7596,2.8019,-0.1329,-1.6370,slope,18.0,2,7.114
6010,192.32,-2.4344,-11.0244,-0.7558,2.7813,-0.1869,-1.6135,slope,18.0,2,7.138
6020,192.64,-2.4199,-10.9882,-0.7649,2.8350,-0.0811,-1.6793,slope,18.0,2,7.103
6030,192.96,-2.4305,-10.9383,-0.7574,2.8057,-0.0569,-1.6711,slope,18.0,2,7.053
6040,193.28,-2.4443,-10.9880,-0.7581,2.7767,-0.1248,-1.6565,rough,14.0,2,7.100
6050,193.60,-2.4347,-10.9428,-0.7584,2.7904,-0.0731,-1.6647,slope,18.0,2,7.057
6060,193.92,-2.4338,-10.9014,-0.7570,2.7994,-0.0007,-1.6831,rough,14.0,2,7.016
6070,194.24,-2.4473,-10.9596,-0.7590,2.7748,-0.0937,-1.6592,slope,18.0,2,7.072
6080,194.56,-2.4419,-10.9866,-0.7568,2.7659,-0.1420,-1.6371,slope,18.0,2,7.099
6090,194.88,-2.4314,-10.9374,-0.7577,2.8059,-0.0551,-1.6428,slope,18.0,2,7.052
6100,195.20,-2.4595,-10.8949,-0.7577,2.7509,-0.0098,-1.6590,rough,14.0,2,7.006
6110,195.52,-2.4503,-10.8840,-0.7606,2.7767,-0.0297,-1.7013,rough,14.0,2,6.996
6120,195.84,-2.4430,-10.9102,-0.7614,2.7952,-0.0315,-1.7064,rough,14.0,2,7.023
6130,196.16,-2.4504,-10.8897,-0.7573,2.7691,-0.0002,-1.6736,rough,14.0,2,7.002
6140,196.48,-2.4369,-10.9781,-0.7605,2.8002,-0.1019,-1.6768,slope,18.0,2,7.091
6150,196.80,-2.4369,-10.9692,-0.7588,2.7952,-0.1050,-1.6749,slope,18.0,2,7.083
6160,197.12,-2.4297,-10.8966,-0.7561,2.7826,0.0274,-1.6980,rough,14.0,2,7.011
6170,197.44,-2.4445,-10.9453,-0.7559,2.7754,-0.0720,-1.6927,rough,14.0,2,7.058
6180,197.76,-2.4360,-10.9673,-0.7581,2.7982,-0.0972,-1.6811,slope,18.0,2,7.081
6190,198.08,-2.4290,-10.9437,-0.7578,2.8069,-0.0626,-1.6738,slope,18.0,2,7.058
6200,198.40,-2.4353,-10.9468,-0.7581,2.7973,-0.0701,-1.6692,slope,18.0,2,7.060
6210,198.72,-2.4333,-10.9529,-0.7610,2.7882,-0.0764,-1.6656,slope,18.0,2,7.067
6220,199.04,-2.4317,-10.9570,-0.7571,2.8041,-0.0764,-1.6836,slope,18.0,2,7.071
6230,199.36,-2.4372,-10.9379,-0.7575,2.7961,-0.0594,-1.6688,rough,14.0,2,7.051
6240,199.68,-2.4382,-10.9428,-0.7569,2.7851,-0.0519,-1.6813,slope,18.0,2,7.056
6250,200.00,-2.4462,-10.9550,-0.7581,2.7825,-0.0764,-1.6750,slope,18.0,2,7.067
6260,200.32,-2.4466,-11.0299,-0.7549,2.7608,-0.1903,-1.6022,slope,18.0,2,7.142
6270,200.64,-2.4405,-11.0361,-0.7550,2.7646,-0.2085,-1.6109,slope,18.0,2,7.149
6280,200.96,-2.4389,-11.0282,-0.7568,2.7759,-0.1937,-1.6038,rough,14.0,2,7.141
6290,201.28,-2.4455,-11.0354,-0.7555,2.7672,-0.1971,-1.6266,rough,14.0,2,7.147
6300,201.60,-2.4454,-11.0477,-0.7549,2.7747,-0.2055,-1.6247,rough,14.0,2,7.159
6310,201.92,-2.4413,-11.0202,-0.7638,2.7527,-0.1632,-1.6430,rough,14.0,2,7.133
6320,202.24,-2.4403,-10.9618,-0.7583,2.7818,-0.0957,-1.6689,slope,18.0,2,7.075
6330,202.56,-2.4575,-10.8633,-0.7550,2.7671,0.0223,-1.6826,rough,14.0,2,6.975
6340,202.88,-2.4717,-10.8799,-0.7552,2.7718,-0.0365,-1.6806,rough,14.0,2,6.990
6350,203.20,-2.4627,-10.8939,-0.7549,2.7711,-0.0367,-1.6854,rough,14.0,2,7.005
6360,203.52,-2.4524,-10.9049,-0.7565,2.7771,-0.0282,-1.6842,rough,14.0,2,7.017
6370,203.84,-2.4384,-10.9590,-0.7614,2.7998,-0.0863,-1.6544,slope,18.0,2,7.072
6380,204.16,-2.4342,-10.9392,-0.7582,2.8044,-0.0663,-1.6744,slope,18.0,2,7.053
6390,204.48,-2.4619,-10.8813,-0.7558,2.7591,-0.0028,-1.6813,rough,14.0,2,6.992
6400,204.80,-2.4706,-10.8726,-0.7592,2.7883,-0.0144,-1.6651,rough,14.0,2,6.983
6410,205.12,-2.4588,-10.9068,-0.7547,2.7595,-0.0572,-1.6801,rough,14.0,2,7.018
6420,205.44,-2.4596,-10.9114,-0.7568,2.7764,-0.0554,-1.6775,rough,14.0,2,7.022
6430,205.76,-2.4374,-10.9622,-0.7585,2.7942,-0.0942,-1.6851,slope,18.0,2,7.076
6440,206.08,-2.4344,-10.9647,-0.7575,2.8033,-0.0958,-1.6920,slope,18.0,2,7.078
6450,206.40,-2.4286,-10.9628,-0.7576,2.8114,-0.0902,-1.6786,slope,18.0,2,7.077
6460,206.72,-2.4317,-10.9530,-0.7572,2.8087,-0.0795,-1.6812,slope,18.0,2,7.067
6470,207.04,-2.4554,-10.9261,-0.7580,2.7586,-0.0452,-1.6547,rough,14.0,2,7.038
6480,207.36,-2.4398,-10.9593,-0.7617,2.7922,-0.1090,-1.6557,slope,18.0,2,7.072
6490,207.68,-2.4394,-10.9693,-0.7589,2.7925,-0.1058,-1.6723,slope,18.0,2,7.082
6500,208.00,-2.4381,-10.9397,-0.7589,2.7888,-0.0632,-1.6688,slope,18.0,2,7.053
6510,208.32,-2.4374,-10.9512,-0.7581,2.7967,-0.0795,-1.6735,slope,18.0,2,7.065
6520,208.64,-2.4347,-10.9600,-0.7582,2.7994,-0.0875,-1.6695,slope,18.0,2,7.074
6530,208.96,-2.4378,-10.9425,-0.7580,2.7933,-0.0639,-1.6623,slope,18.0,2,7.056
6540,209.28,-2.4438,-10.9625,-0.7580,2.7835,-0.0936,-1.6741,slope,18.0,2,7.075
6550,209.60,-2.4440,-10.9979,-0.7587,2.7765,-0.1342,-1.6593,rough,14.0,2,7.110
6560,209.92,-2.4410,-10.9847,-0.7571,2.7977,-0.1078,-1.6515,slope,18.0,2,7.097
6570,210.24,-2.4231,-10.8845,-0.7575,2.8113,0.0376,-1.7079,rough,14.0,2,7.000
6580,210.56,-2.4533,-10.8872,-0.7548,2.7760,-0.0046,-1.7054,rough,14.0,2,6.999
6590,210.88,-2.4473,-10.9875,-0.7586,2.7705,-0.1252,-1.6387,slope,18.0,2,7.100
6600,211.20,-2.4430,-11.0599,-0.7549,2.7958,-0.2045,-1.6292,rough,14.0,2,7.172
6610,211.52,-2.4395,-10.9929,-0.7615,2.7873,-0.1126,-1.6696,slope,18.0,2,7.106
6620,211.84,-2.4330,-10.9387,-0.7597,2.8059,-0.0489,-1.6597,slope,18.0,2,7.053
6630,212.16,-2.4478,-10.8718,-0.7559,2.7796,0.0152,-1.7084,rough,14.0,2,6.985
6640,212.48,-2.4682,-10.8912,-0.7547,2.7629,-0.0415,-1.6649,rough,14.0,2,7.001
6650,212.80,-2.4545,-10.9349,-0.7558,2.7690,-0.0653,-1.6568,slope,18.0,2,7.046
6660,213.12,-2.4458,-10.9395,-0.7566,2.7776,-0.0643,-1.6880,rough,14.0,2,7.052
6670,213.44,-2.4358,-10.9402,-0.7583,2.7954,-0.0645,-1.6760,slope,18.0,2,7.054
6680,213.76,-2.4306,-10.9686,-0.7577,2.8043,-0.0935,-1.6955,slope,18.0,2,7.083
6690,214.08,-2.4187,-10.9641,-0.7577,2.8319,-0.0934,-1.6902,slope,18.0,2,7.080
6700,214.40,-2.4167,-10.9665,-0.7581,2.8323,-0.0926,-1.6748,slope,18.0,2,7.082
6710,214.72,-2.4226,-11.0185,-0.7596,2.8113,-0.1620,-1.6534,slope,18.0,2,7.133
6720,215.04,-2.4230,-11.0392,-0.7558,2.8121,-0.1947,-1.6089,slope,18.0,2,7.154
6730,215.36,-2.4134,-11.0244,-0.7574,2.8161,-0.1968,-1.6597,slope,18.0,2,7.140
6740,215.68,-2.4082,-10.9846,-0.7604,2.8494,-0.1316,-1.6768,slope,18.0,2,7.101
6750,216.00,-2.3900,-10.9007,-0.7566,2.8713,0.0031,-1.7047,rough,14.0,2,7.020
6760,216.32,-2.4240,-10.9678,-0.7580,2.8225,-0.0977,-1.6739,rough,14.0,2,7.083
6770,216.64,-2.4276,-11.0418,-0.7557,2.7976,-0.2069,-1.6248,slope,18.0,2,7.156
6780,216.96,-2.4235,-11.0483,-0.7564,2.8287,-0.1940,-1.6541,slope,18.0,2,7.163
6790,217.28,-2.4189,-10.9925,-0.7594,2.8181,-0.1215,-1.6718,slope,18.0,2,7.108
6800,217.60,-2.4196,-10.8783,-0.7551,2.8067,0.0419,-1.7049,rough,14.0,2,6.994
6810,217.92,-2.4706,-10.8766,-0.7553,2.7757,-0.0338,-1.6933,rough,14.0,2,6.987
6820,218.24,-2.4615,-10.8871,-0.7543,2.7702,-0.0174,-1.6814,rough,14.0,2,6.998
6830,218.56,-2.4477,-10.8937,-0.7558,2.7699,0.0042,-1.6720,rough,14.0,2,7.006
6840,218.88,-2.4487,-10.9308,-0.7578,2.7754,-0.0505,-1.6621,rough,14.0,2,7.043
6850,219.20,-2.4342,-10.9837,-0.7578,2.8012,-0.1163,-1.6756,slope,18.0,2,7.097
6860,219.52,-2.4251,-10.9533,-0.7577,2.8132,-0.0717,-1.6838,slope,18.0,2,7.068
6870,219.84,-2.4438,-10.9874,-0.7573,2.7664,-0.1419,-1.6669,slope,18.0,2,7.100
6880,220.16,-2.4276,-10.9611,-0.7594,2.8095,-0.0704,-1.6891,slope,18.0,2,7.076
6890,220.48,-2.4291,-10.9168,-0.7572,2.8078,-0.0271,-1.6670,rough,14.0,2,7.032
6900,220.80,-2.4433,-11.0194,-0.7584,2.7886,-0.1567,-1.6398,rough,14.0,2,7.132
6910,221.12,-2.4368,-11.0418,-0.7558,2.7823,-0.2074,-1.6358,slope,18.0,2,7.155
6920,221.44,-2.4281,-10.9387,-0.7583,2.8172,-0.0504,-1.6532,slope,18.0,2,7.053
6930,221.76,-2.4511,-10.7968,-0.7515,2.7628,0.1195,-1.7477,rough,14.0,2,6.910
6940,222.08,-2.4845,-10.8456,-0.7498,2.7572,0.0059,-1.7076,rough,14.0,2,6.954
6950,222.40,-2.4717,-10.8354,-0.7536,2.7726,0.0191,-1.7134,rough,14.0,2,6.946
6960,222.72,-2.4710,-10.8406,-0.7533,2.7633,0.0168,-1.6896,rough,14.0,2,6.951
6970,223.04,-2.4693,-10.8369,-0.7557,2.7563,0.0337,-1.6671,rough,14.0,2,6.947
6980,223.36,-2.4642,-10.9061,-0.7542,2.7645,-0.0488,-1.6659,rough,14.0,2,7.017
6990,223.68,-2.4503,-10.9244,-0.7578,2.7790,-0.0449,-1.6684,rough,14.0,2,7.036
7000,224.00,-2.4431,-10.9720,-0.7608,2.7674,-0.0963,-1.6573,rough,14.0,2,7.085
7010,224.32,-2.4489,-11.0465,-0.7544,2.7616,-0.2068,-1.5934,rough,14.0,2,7.158
7020,224.64,-2.4497,-11.0243,-0.7585,2.7514,-0.1755,-1.6305,rough,14.0,2,7.136
7030,224.96,-2.4422,-10.9940,-0.7570,2.7903,-0.1278,-1.6633,rough,14.0,2,7.107
7040,225.28,-2.4220,-10.8447,-0.7540,2.7966,0.0922,-1.7301,rough,14.0,2,6.961
7050,225.60,-2.4214,-10.7373,-0.7466,2.7555,0.2534,-1.7776,rough,14.0,2,6.854
7060,225.92,-2.4540,-10.8034,-0.7532,2.7865,0.0920,-1.6896,slope,18.0,2,6.916
7070,226.24,-2.4702,-10.9898,-0.7510,2.7147,-0.1845,-1.6039,rough,14.0,2,7.099
7080,226.56,-2.4547,-11.1177,-0.7438,2.7863,-0.2148,-1.6247,rough,14.0,2,7.228
7090,226.88,-2.4518,-11.0904,-0.7508,2.7839,-0.2216,-1.6277,rough,14.0,2,7.201
7100,227.20,-2.4363,-10.9105,-0.7563,2.7880,-0.0205,-1.7116,rough,14.0,2,7.024
7110,227.52,-2.4629,-10.8524,-0.7540,2.7637,0.0280,-1.6772,rough,14.0,2,6.964
7120,227.84,-2.4723,-10.8950,-0.7540,2.7574,-0.0533,-1.6733,rough,14.0,2,7.005
7130,228.16,-2.4604,-10.9363,-0.7544,2.7701,-0.0700,-1.6593,slope,18.0,2,7.047
7140,228.48,-2.4451,-10.9700,-0.7575,2.7811,-0.0965,-1.6410,slope,18.0,2,7.082
7150,228.80,-2.4572,-10.9213,-0.7554,2.7769,-0.0556,-1.6943,slope,18.0,2,7.033
7160,229.12,-2.4480,-10.9468,-0.7585,2.7651,-0.0597,-1.6489,slope,18.0,2,7.059
7170,229.44,-2.4469,-11.0405,-0.7554,2.7900,-0.1756,-1.6270,rough,14.0,2,7.152
7180,229.76,-2.4420,-11.0347,-0.7554,2.7809,-0.1884,-1.6260,slope,18.0,2,7.147
7190,230.08,-2.4448,-10.9960,-0.7569,2.7831,-0.1278,-1.6403,rough,14.0,2,7.108
7200,230.40,-2.4331,-10.9229,-0.7571,2.7941,-0.0284,-1.6911,rough,14.0,2,7.037
7210,230.72,-2.4513,-10.9630,-0.7562,2.7676,-0.0991,-1.6505,rough,14.0,2,7.075
7220,231.04,-2.4460,-11.0669,-0.7545,2.7838,-0.2204,-1.6305,rough,14.0,2,7.178
7230,231.36,-2.4394,-11.0180,-0.7560,2.7598,-0.1957,-1.6371,rough,14.0,2,7.131
7240,231.68,-2.4478,-11.0133,-0.7562,2.7874,-0.1396,-1.6275,rough,14.0,2,7.125
7250,232.00,-2.4383,-10.9524,-0.7579,2.7946,-0.0751,-1.6695,slope,18.0,2,7.066
7260,232.32,-2.4151,-10.8967,-0.7560,2.8233,0.0165,-1.6883,rough,14.0,2,7.013
7270,232.64,-2.4577,-10.9147,-0.7573,2.7749,-0.0513,-1.6396,rough,14.0,2,7.026
7280,232.96,-2.4576,-11.0174,-0.7531,2.7281,-0.2031,-1.6167,rough,14.0,2,7.128
7290,233.28,-2.4392,-11.0611,-0.7558,2.8023,-0.2086,-1.6245,rough,14.0,2,7.173
7300,233.60,-2.4266,-10.9561,-0.7586,2.8089,-0.0894,-1.6812,slope,18.0,2,7.071
7310,233.92,-2.4263,-10.9489,-0.7578,2.8171,-0.0665,-1.6631,slope,18.0,2,7.064
7320,234.24,-2.4347,-10.9786,-0.7576,2.8031,-0.1090,-1.6365,slope,18.0,2,7.092
7330,234.56,-2.4397,-10.9627,-0.7622,2.7920,-0.1134,-1.6538,slope,18.0,2,7.076
7340,234.88,-2.4343,-10.9253,-0.7574,2.7935,-0.0285,-1.6827,slope,18.0,2,7.039
7350,235.20,-2.4608,-10.9202,-0.7569,2.7751,-0.0667,-1.6770,rough,14.0,2,7.031
7360,235.52,-2.4500,-11.0644,-0.7539,2.7710,-0.2190,-1.5850,rough,14.0,2,7.176
7370,235.84,-2.4492,-11.0556,-0.7561,2.7803,-0.2003,-1.6321,rough,14.0,2,7.167
7380,236.16,-2.4361,-10.9444,-0.7586,2.7862,-0.0787,-1.6765,slope,18.0,2,7.058
7390,236.48,-2.4692,-10.8693,-0.7535,2.7711,-0.0080,-1.6840,rough,14.0,2,6.980
7400,236.80,-2.4662,-10.9433,-0.7511,2.7318,-0.1046,-1.6262,slope,18.0,2,7.053
7410,237.12,-2.4364,-10.9626,-0.7631,2.7950,-0.1155,-1.6724,slope,18.0,2,7.076
7420,237.44,-2.4328,-10.9461,-0.7626,2.8019,-0.0960,-1.6792,slope,18.0,2,7.060
7430,237.76,-2.4360,-10.9026,-0.7570,2.7838,-0.0034,-1.6969,rough,14.0,2,7.017
7440,238.08,-2.4574,-10.9403,-0.7557,2.7737,-0.0673,-1.6531,rough,14.0,2,7.051
7450,238.40,-2.4442,-11.0368,-0.7608,2.7503,-0.1816,-1.5738,rough,14.0,2,7.149
7460,238.72,-2.4422,-11.0457,-0.7561,2.7903,-0.1945,-1.6061,rough,14.0,2,7.158
7470,239.04,-2.4325,-10.9919,-0.7657,2.7833,-0.1136,-1.6813,slope,18.0,2,7.106
7480,239.36,-2.4513,-10.9349,-0.7579,2.7743,-0.0624,-1.6527,slope,18.0,2,7.047
7490,239.68,-2.4421,-10.9655,-0.7595,2.7889,-0.0993,-1.6495,slope,18.0,2,7.078
7500,240.00,-2.4431,-10.9332,-0.7576,2.7832,-0.0524,-1.6659,slope,18.0,2,7.046
7510,240.32,-2.4437,-10.9240,-0.7597,2.7876,-0.0269,-1.6679,rough,14.0,2,7.037
7520,240.64,-2.4393,-10.9104,-0.7572,2.7838,-0.0176,-1.6799,rough,14.0,2,7.024
7530,240.96,-2.4420,-10.9344,-0.7586,2.7855,-0.0518,-1.6851,rough,14.0,2,7.047
7540,241.28,-2.4376,-10.9323,-0.7576,2.7929,-0.0519,-1.6841,slope,18.0,2,7.046
7550,241.60,-2.4450,-10.9933,-0.7584,2.7790,-0.1305,-1.6702,rough,14.0,2,7.105
7560,241.92,-2.4430,-11.0138,-0.7562,2.7794,-0.1617,-1.6385,rough,14.0,2,7.126
7570,242.24,-2.4341,-10.9057,-0.7601,2.8140,-0.0101,-1.6901,slope,18.0,2,7.020
7580,242.56,-2.4324,-10.8181,-0.7523,2.7718,0.1270,-1.7398,rough,14.0,2,6.933
7590,242.88,-2.4682,-10.8033,-0.7528,2.7548,0.0868,-1.6750,slope,18.0,2,6.914
7600,243.20,-2.4700,-10.8779,-0.7559,2.7661,-0.0551,-1.6971,rough,14.0,2,6.988
7610,243.52,-2.4528,-10.9562,-0.7571,2.7792,-0.1039,-1.6816,rough,14.0,2,7.068
7620,243.84,-2.4452,-11.0538,-0.7554,2.7862,-0.2048,-1.6412,rough,14.0,2,7.166
7630,244.16,-2.4401,-11.0116,-0.7562,2.7632,-0.1821,-1.6372,slope,18.0,2,7.124
7640,244.48,-2.4418,-10.9505,-0.7591,2.7885,-0.0740,-1.6444,slope,18.0,2,7.063
7650,244.80,-2.4426,-10.9368,-0.7575,2.7866,-0.0601,-1.6765,slope,18.0,2,7.050
7660,245.12,-2.4492,-10.9717,-0.7581,2.7804,-0.1111,-1.6531,slope,18.0,2,7.084
7670,245.44,-2.4485,-11.0620,-0.7555,2.7840,-0.2067,-1.6360,rough,14.0,2,7.173
7680,245.76,-2.4418,-11.0346,-0.7549,2.7727,-0.2012,-1.6357,rough,14.0,2,7.147
7690,246.08,-2.4398,-10.9610,-0.7579,2.8041,-0.0699,-1.6582,slope,18.0,2,7.074
7700,246.40,-2.4335,-10.8678,-0.7551,2.7770,0.0574,-1.7062,rough,14.0,2,6.982
7710,246.72,-2.4520,-10.9584,-0.7565,2.7635,-0.1107,-1.6653,rough,14.0,2,7.070
7720,247.04,-2.4376,-10.9795,-0.7585,2.7929,-0.1139,-1.6760,slope,18.0,2,7.093
7730,247.36,-2.4338,-10.9377,-0.7574,2.7987,-0.0541,-1.6707,slope,18.0,2,7.052
7740,247.68,-2.4473,-11.0418,-0.7557,2.7500,-0.2196,-1.6343,rough,14.0,2,7.153
7750,248.00,-2.4436,-11.0410,-0.7546,2.7590,-0.2136,-1.5983,rough,14.0,2,7.153
7760,248.32,-2.4314,-10.9292,-0.7587,2.8018,-0.0495,-1.6762,slope,18.0,2,7.044
7770,248.64,-2.4379,-10.8467,-0.7536,2.7777,0.0723,-1.7312,rough,14.0,2,6.961
7780,248.96,-2.4710,-10.9107,-0.7533,2.7511,-0.0670,-1.6403,slope,18.0,2,7.020
7790,249.28,-2.4563,-10.9946,-0.7541,2.7505,-0.1521,-1.6283,rough,14.0,2,7.105
