step,time_s,x,y,z,roll,pitch,yaw,terrain,speed,target_idx,dist_to_target
10,0.32,2.1841,0.4995,0.3152,0.0789,-0.0597,0.1815,rough,14.0,0,6.241
20,0.64,2.6649,0.6322,0.2128,-0.0645,0.3030,0.2282,rough,14.0,0,5.742
30,0.96,3.1113,0.7394,0.0393,-0.0368,0.3910,0.2238,rough,14.0,0,5.283
40,1.28,3.4832,0.8453,-0.0651,-0.1163,0.1347,0.2505,rough,14.0,0,4.897
50,1.60,3.9189,0.9652,-0.1230,-0.1569,0.1722,0.2393,rough,14.0,0,4.445
60,1.92,4.3852,1.0964,-0.2666,-0.2057,0.4309,0.2046,rough,14.0,0,3.961
70,2.24,4.8437,1.2065,-0.5020,-0.0697,0.3353,0.1141,rough,14.0,0,3.489
80,2.56,5.2707,1.2407,-0.6348,0.0863,0.3950,0.1510,rough,14.0,0,3.067
90,2.88,5.6413,1.3201,-0.6726,0.0078,-0.0847,0.2470,rough,14.0,0,2.689
100,3.20,6.1774,1.5298,-0.7873,-0.3913,0.6423,0.1610,rough,14.0,0,2.117
110,3.52,6.5934,1.7210,-0.9648,-0.5044,0.4642,0.0350,rough,14.0,0,1.670
120,3.84,6.9699,1.8129,-1.0801,-0.5230,0.1190,0.0944,rough,14.0,0,1.283
130,4.16,7.4070,1.8671,-1.1277,-0.5098,0.1326,0.1045,rough,14.0,0,0.843
140,4.48,7.8164,1.9226,-1.2540,-0.3040,0.3860,0.2353,rough,14.0,1,5.049
150,4.80,8.0382,2.0453,-1.3354,-0.1739,0.2080,0.5991,rough,14.0,1,5.107
160,5.12,8.2505,2.2799,-1.3926,-0.0662,0.2025,0.8906,rough,14.0,1,5.093
170,5.44,8.4072,2.5668,-1.4434,-0.0398,0.0941,1.0990,rough,14.0,1,5.022
180,5.76,8.5186,2.8590,-1.4443,-0.0644,-0.0769,1.2879,rough,14.0,1,4.933
190,6.08,8.5682,3.1148,-1.4072,-0.1256,-0.2269,1.3777,rough,14.0,1,4.829
200,6.40,8.5750,3.3047,-1.3541,-0.3199,-0.4039,1.5021,rough,14.0,1,4.734
210,6.72,8.5822,3.4887,-1.2631,-0.3250,-0.5158,1.5987,rough,14.0,1,4.648
220,7.04,8.5231,3.7024,-1.1847,-0.5190,-0.5095,1.6540,rough,14.0,1,4.495
230,7.36,8.4296,3.8550,-1.1378,-0.6441,-0.5670,1.8841,rough,14.0,1,4.343
240,7.68,8.2672,3.9931,-1.1063,-0.6977,-0.4669,2.0784,rough,14.0,1,4.137
250,8.00,8.0566,4.1750,-1.0582,-0.6984,-0.3616,2.3403,rough,14.0,1,3.870
260,8.32,8.0180,4.1951,-1.0589,-0.6906,-0.2566,2.5199,rough,14.0,1,3.827
270,8.64,7.8696,4.0059,-1.2222,-0.7064,-0.2275,2.8570,rough,14.0,1,3.775
280,8.96,7.6848,3.8479,-1.3792,-0.8268,-0.1713,2.2147,rough,14.0,1,3.691
290,9.28,7.6253,3.8548,-1.3538,-0.5871,-0.4779,2.1386,rough,14.0,1,3.636
300,9.60,7.6085,3.8735,-1.3820,-0.2345,-0.5976,1.9456,rough,14.0,1,3.612
310,9.92,7.5539,3.8421,-1.4042,-0.1266,-0.6270,1.8192,rough,14.0,1,3.582
320,10.24,7.5302,3.8608,-1.3968,-0.0638,-0.6184,1.6862,rough,14.0,1,3.552
330,10.56,7.5143,3.8629,-1.3868,-0.0530,-0.6836,1.6414,rough,14.0,1,3.538
340,10.88,7.5222,3.8713,-1.3916,-0.0104,-0.6324,1.5596,rough,14.0,1,3.540
350,11.20,7.5252,3.8713,-1.3906,-0.0102,-0.6327,1.5661,rough,14.0,1,3.542
360,11.52,7.5262,3.8716,-1.3892,-0.0117,-0.6381,1.5702,rough,14.0,1,3.543
370,11.84,7.5263,3.8714,-1.3897,-0.0121,-0.6349,1.5735,rough,14.0,1,3.543
380,12.16,7.5237,3.8710,-1.3922,-0.0400,-0.6363,1.5978,rough,14.0,1,3.541
390,12.48,7.5211,3.8709,-1.3920,-0.0328,-0.6328,1.5948,rough,14.0,1,3.539
400,12.80,7.5174,3.8714,-1.3897,-0.0277,-0.6394,1.5923,rough,14.0,1,3.536
410,13.12,7.5155,3.8709,-1.3906,-0.0203,-0.6312,1.5883,rough,14.0,1,3.535
420,13.44,7.5142,3.8706,-1.3911,-0.0132,-0.6257,1.5823,rough,14.0,1,3.534
430,13.76,7.5127,3.8711,-1.3890,-0.0117,-0.6350,1.5796,rough,14.0,1,3.532
440,14.08,7.5125,3.8713,-1.3886,-0.0091,-0.6368,1.5751,rough,14.0,1,3.532
450,14.40,7.5129,3.8717,-1.3879,-0.0079,-0.6407,1.5705,rough,14.0,1,3.532
460,14.72,7.5153,3.8716,-1.3889,-0.0058,-0.6384,1.5627,rough,14.0,1,3.534
470,15.04,7.5211,3.8717,-1.3904,-0.0031,-0.6378,1.5454,rough,14.0,1,3.539
480,15.36,7.5333,3.8712,-1.3907,0.0095,-0.6323,1.5335,rough,14.0,1,3.549
490,15.68,7.5349,3.8721,-1.4019,-0.0354,-0.6366,1.5422,rough,14.0,1,3.550
500,16.00,7.5484,3.8707,-1.3965,-0.0233,-0.6366,1.5419,rough,14.0,1,3.563
510,16.32,7.5577,3.8702,-1.3953,-0.0159,-0.6289,1.5510,rough,14.0,1,3.571
520,16.64,7.5706,3.8670,-1.3908,0.0206,-0.6340,1.5399,rough,14.0,1,3.583
530,16.96,7.5827,3.8535,-1.4001,0.0351,-0.6333,1.5204,rough,14.0,1,3.601
540,17.28,7.6005,3.8399,-1.4101,0.0483,-0.6368,1.5045,rough,14.0,1,3.623
550,17.60,7.6140,3.8366,-1.4126,0.0369,-0.6334,1.5194,rough,14.0,1,3.636
560,17.92,7.6235,3.8348,-1.4140,0.0284,-0.6335,1.5335,rough,14.0,1,3.645
570,18.24,7.6312,3.8333,-1.4164,0.0211,-0.6269,1.5457,rough,14.0,1,3.653
580,18.56,7.6362,3.8325,-1.4163,0.0178,-0.6312,1.5513,rough,14.0,1,3.657
590,18.88,7.6397,3.8324,-1.4173,0.0139,-0.6261,1.5580,rough,14.0,1,3.660
600,19.20,7.6427,3.8318,-1.4166,0.0127,-0.6330,1.5598,rough,14.0,1,3.663
610,19.52,7.6441,3.8315,-1.4164,0.0101,-0.6348,1.5636,rough,14.0,1,3.665
620,19.84,7.6464,3.8298,-1.4170,0.0108,-0.6372,1.5601,rough,14.0,1,3.667
630,20.16,7.6445,3.8323,-1.4166,0.0005,-0.6291,1.5770,rough,14.0,1,3.664
640,20.48,7.6420,3.8346,-1.4143,-0.0006,-0.6339,1.5818,rough,14.0,1,3.661
650,20.80,7.6380,3.8371,-1.4125,-0.0041,-0.6343,1.5882,rough,14.0,1,3.656
660,21.12,7.6314,3.8414,-1.4092,-0.0100,-0.6342,1.5981,rough,14.0,1,3.649
670,21.44,7.6212,3.8488,-1.4037,-0.0187,-0.6340,1.6128,rough,14.0,1,3.636
680,21.76,7.6055,3.8629,-1.3933,-0.0315,-0.6336,1.6345,rough,14.0,1,3.615
690,22.08,7.5818,3.8715,-1.3873,-0.0492,-0.6296,1.6642,rough,14.0,1,3.591
700,22.40,7.5471,3.8696,-1.3881,-0.0738,-0.6304,1.7049,rough,14.0,1,3.562
710,22.72,7.5195,3.8490,-1.4019,-0.0776,-0.6419,1.7018,rough,14.0,1,3.550
720,23.04,7.5151,3.8683,-1.3854,-0.0240,-0.6735,1.5884,rough,14.0,1,3.536
730,23.36,7.5244,3.8720,-1.3912,-0.0082,-0.6440,1.5355,rough,14.0,1,3.541
740,23.68,7.5366,3.8712,-1.3898,0.0111,-0.6344,1.5350,rough,14.0,1,3.552
750,24.00,7.5392,3.8708,-1.3978,-0.0435,-0.6314,1.5670,rough,14.0,1,3.555
760,24.32,7.5415,3.8712,-1.3952,-0.0406,-0.6357,1.5760,rough,14.0,1,3.556
770,24.64,7.5404,3.8709,-1.3960,-0.0420,-0.6303,1.5813,rough,14.0,1,3.556
780,24.96,7.5374,3.8711,-1.3956,-0.0476,-0.6334,1.5881,rough,14.0,1,3.553
790,25.28,7.5340,3.8714,-1.3947,-0.0519,-0.6383,1.5933,rough,14.0,1,3.550
800,25.60,7.5324,3.8712,-1.3949,-0.0498,-0.6342,1.5955,rough,14.0,1,3.549
810,25.92,7.5295,3.8713,-1.3938,-0.0486,-0.6363,1.5990,rough,14.0,1,3.546
820,26.24,7.5267,3.8710,-1.3936,-0.0428,-0.6327,1.5978,rough,14.0,1,3.544
830,26.56,7.5232,3.8711,-1.3922,-0.0387,-0.6348,1.5983,rough,14.0,1,3.541
840,26.88,7.5201,3.8709,-1.3919,-0.0287,-0.6309,1.5915,rough,14.0,1,3.538
850,27.20,7.5170,3.8714,-1.3896,-0.0259,-0.6391,1.5905,rough,14.0,1,3.536
860,27.52,7.5154,3.8711,-1.3897,-0.0202,-0.6361,1.5865,rough,14.0,1,3.534
870,27.84,7.5141,3.8713,-1.3889,-0.0161,-0.6379,1.5823,rough,14.0,1,3.533
880,28.16,7.5137,3.8710,-1.3895,-0.0113,-0.6337,1.5771,rough,14.0,1,3.533
890,28.48,7.5135,3.8715,-1.3882,-0.0110,-0.6405,1.5744,rough,14.0,1,3.532
900,28.80,7.5151,3.8711,-1.3903,-0.0065,-0.6307,1.5674,rough,14.0,1,3.534
910,29.12,7.5177,3.8715,-1.3897,-0.0073,-0.6377,1.5600,rough,14.0,1,3.536
920,29.44,7.5252,3.8716,-1.3910,-0.0011,-0.6353,1.5411,rough,14.0,1,3.542
930,29.76,7.5339,3.8712,-1.3901,0.0058,-0.6320,1.5452,rough,14.0,1,3.550
940,30.08,7.5376,3.8711,-1.3963,-0.0449,-0.6368,1.5724,rough,14.0,1,3.553
950,30.40,7.5379,3.8709,-1.3965,-0.0437,-0.6305,1.5793,rough,14.0,1,3.553
960,30.72,7.5355,3.8713,-1.3956,-0.0490,-0.6347,1.5870,rough,14.0,1,3.551
970,31.04,7.5349,3.8710,-1.3962,-0.0485,-0.6312,1.5891,rough,14.0,1,3.551
980,31.36,7.5328,3.8714,-1.3943,-0.0507,-0.6385,1.5942,rough,14.0,1,3.549
990,31.68,7.5303,3.8714,-1.3936,-0.0500,-0.6384,1.5986,rough,14.0,1,3.547
1000,32.00,7.5282,3.8710,-1.3943,-0.0438,-0.6310,1.5965,rough,14.0,1,3.545
1010,32.32,7.5259,3.8707,-1.3945,-0.0373,-0.6261,1.5936,rough,14.0,1,3.543
1020,32.64,7.5224,3.8711,-1.3919,-0.0362,-0.6355,1.5959,rough,14.0,1,3.540
1030,32.96,7.5199,3.8705,-1.3933,-0.0231,-0.6217,1.5873,rough,14.0,1,3.538
1040,33.28,7.5173,3.8711,-1.3907,-0.0223,-0.6331,1.5866,rough,14.0,1,3.536
1050,33.60,7.5155,3.8713,-1.3894,-0.0199,-0.6378,1.5849,rough,14.0,1,3.534
1060,33.92,7.5151,3.8709,-1.3905,-0.0140,-0.6300,1.5797,rough,14.0,1,3.534
1070,34.24,7.5142,3.8714,-1.3889,-0.0137,-0.6380,1.5779,rough,14.0,1,3.533
1080,34.56,7.5146,3.8711,-1.3897,-0.0102,-0.6337,1.5734,rough,14.0,1,3.534
1090,34.88,7.5155,3.8716,-1.3887,-0.0106,-0.6406,1.5690,rough,14.0,1,3.534
1100,35.20,7.5188,3.8712,-1.3911,-0.0072,-0.6310,1.5600,rough,14.0,1,3.537
1110,35.52,7.5242,3.8714,-1.3913,-0.0059,-0.6325,1.5529,rough,14.0,1,3.542
1120,35.84,7.5293,3.8715,-1.3895,-0.0041,-0.6364,1.5577,rough,14.0,1,3.546
1130,36.16,7.5315,3.8710,-1.3958,-0.0602,-0.6317,1.6095,rough,14.0,1,3.548
1140,36.48,7.5261,3.8712,-1.3926,-0.0536,-0.6390,1.6127,rough,14.0,1,3.543
1150,36.80,7.5218,3.8707,-1.3927,-0.0401,-0.6307,1.6056,rough,14.0,1,3.540
1160,37.12,7.5167,3.8710,-1.3900,-0.0327,-0.6381,1.6027,rough,14.0,1,3.535
1170,37.44,7.5131,3.8710,-1.3888,-0.0234,-0.6385,1.5961,rough,14.0,1,3.532
1180,37.76,7.5120,3.8708,-1.3896,-0.0121,-0.6313,1.5835,rough,14.0,1,3.532
1190,38.08,7.5114,3.8706,-1.3903,-0.0056,-0.6255,1.5768,rough,14.0,1,3.531
1200,38.40,7.5110,3.8711,-1.3885,-0.0048,-0.6348,1.5727,rough,14.0,1,3.531
1210,38.72,7.5121,3.8716,-1.3876,-0.0039,-0.6412,1.5658,rough,14.0,1,3.531
1220,39.04,7.5173,3.8720,-1.3888,0.0003,-0.6407,1.5473,rough,14.0,1,3.535
1230,39.36,7.5305,3.8710,-1.3919,0.0113,-0.6309,1.5232,rough,14.0,1,3.547
1240,39.68,7.5410,3.8718,-1.4015,-0.0351,-0.6563,1.5523,rough,14.0,1,3.556
1250,40.00,7.5457,3.8704,-1.3969,-0.0314,-0.6307,1.5630,rough,14.0,1,3.560
1260,40.32,7.5483,3.8708,-1.3949,-0.0321,-0.6334,1.5712,rough,14.0,1,3.562
1270,40.64,7.5483,3.8711,-1.3939,-0.0353,-0.6361,1.5787,rough,14.0,1,3.562
1280,40.96,7.5465,3.8709,-1.3951,-0.0372,-0.6303,1.5823,rough,14.0,1,3.561
1290,41.28,7.5430,3.8710,-1.3948,-0.0427,-0.6332,1.5879,rough,14.0,1,3.558
1300,41.60,7.5383,3.8713,-1.3947,-0.0495,-0.6363,1.5937,rough,14.0,1,3.554
1310,41.92,7.5333,3.8715,-1.3947,-0.0537,-0.6377,1.5974,rough,14.0,1,3.549
1320,42.24,7.5312,3.8711,-1.3946,-0.0491,-0.6344,1.5967,rough,14.0,1,3.548
1330,42.56,7.5281,3.8713,-1.3934,-0.0471,-0.6364,1.5997,rough,14.0,1,3.545
1340,42.88,7.5253,3.8710,-1.3932,-0.0407,-0.6327,1.5977,rough,14.0,1,3.543
1350,43.20,7.5217,3.8711,-1.3918,-0.0361,-0.6348,1.5976,rough,14.0,1,3.540
1360,43.52,7.5181,3.8712,-1.3901,-0.0277,-0.6383,1.5916,rough,14.0,1,3.537
1370,43.84,7.5171,3.8707,-1.3914,-0.0188,-0.6288,1.5835,rough,14.0,1,3.536
1380,44.16,7.5152,3.8711,-1.3897,-0.0181,-0.6357,1.5837,rough,14.0,1,3.534
1390,44.48,7.5144,3.8713,-1.3890,-0.0149,-0.6375,1.5798,rough,14.0,1,3.533
1400,44.80,7.5144,3.8711,-1.3897,-0.0110,-0.6333,1.5753,rough,14.0,1,3.533
1410,45.12,7.5146,3.8713,-1.3895,-0.0099,-0.6345,1.5723,rough,14.0,1,3.534
1420,45.44,7.5166,3.8711,-1.3907,-0.0070,-0.6304,1.5649,rough,14.0,1,3.535
1430,45.76,7.5200,3.8713,-1.3915,-0.0073,-0.6308,1.5572,rough,14.0,1,3.538
1440,46.08,7.5259,3.8717,-1.3900,-0.0057,-0.6376,1.5533,rough,14.0,1,3.543
1450,46.40,7.5302,3.8714,-1.3896,-0.0037,-0.6347,1.5602,rough,14.0,1,3.547
1460,46.72,7.5300,3.8713,-1.3937,-0.0473,-0.6383,1.5943,rough,14.0,1,3.547
1470,47.04,7.5281,3.8711,-1.3936,-0.0437,-0.6349,1.5950,rough,14.0,1,3.545
1480,47.36,7.5256,3.8713,-1.3925,-0.0409,-0.6373,1.5953,rough,14.0,1,3.543
1490,47.68,7.5236,3.8710,-1.3925,-0.0349,-0.6336,1.5919,rough,14.0,1,3.541
1500,48.00,7.5208,3.8714,-1.3904,-0.0315,-0.6405,1.5905,rough,14.0,1,3.539
1510,48.32,7.5191,3.8710,-1.3917,-0.0215,-0.6295,1.5831,rough,14.0,1,3.538
1520,48.64,7.5175,3.8714,-1.3899,-0.0217,-0.6379,1.5831,rough,14.0,1,3.536
1530,48.96,7.5173,3.8710,-1.3911,-0.0170,-0.6301,1.5793,rough,14.0,1,3.536
1540,49.28,7.5166,3.8714,-1.3895,-0.0177,-0.6383,1.5786,rough,14.0,1,3.535
1550,49.60,7.5169,3.8711,-1.3903,-0.0148,-0.6341,1.5754,rough,14.0,1,3.536
1560,49.92,7.5171,3.8716,-1.3891,-0.0158,-0.6409,1.5736,rough,14.0,1,3.535
1570,50.24,7.5187,3.8717,-1.3895,-0.0150,-0.6405,1.5686,rough,14.0,1,3.537
1580,50.56,7.5215,3.8718,-1.3899,-0.0143,-0.6401,1.5639,rough,14.0,1,3.539
1590,50.88,7.5232,3.8715,-1.3903,-0.0140,-0.6352,1.5700,rough,14.0,1,3.541
1600,51.20,7.5234,3.8713,-1.3905,-0.0146,-0.6332,1.5736,rough,14.0,1,3.541
1610,51.52,7.5226,3.8710,-1.3914,-0.0153,-0.6287,1.5759,rough,14.0,1,3.540
1620,51.84,7.5207,3.8714,-1.3903,-0.0196,-0.6356,1.5787,rough,14.0,1,3.539
1630,52.16,7.5191,3.8714,-1.3903,-0.0210,-0.6368,1.5797,rough,14.0,1,3.537
1640,52.48,7.5184,3.8715,-1.3899,-0.0208,-0.6385,1.5796,rough,14.0,1,3.537
1650,52.80,7.5187,3.8710,-1.3914,-0.0176,-0.6307,1.5769,rough,14.0,1,3.537
1660,53.12,7.5192,3.8708,-1.3925,-0.0154,-0.6252,1.5744,rough,14.0,1,3.538
1670,53.44,7.5194,3.8713,-1.3908,-0.0177,-0.6349,1.5738,rough,14.0,1,3.538
1680,53.76,7.5190,3.8718,-1.3894,-0.0207,-0.6419,1.5767,rough,14.0,1,3.537
1690,54.08,7.5188,3.8717,-1.3893,-0.0210,-0.6427,1.5772,rough,14.0,1,3.537
1700,54.40,7.5189,3.8714,-1.3902,-0.0199,-0.6374,1.5776,rough,14.0,1,3.537
1710,54.72,7.5187,3.8716,-1.3899,-0.0201,-0.6390,1.5771,rough,14.0,1,3.537
1720,55.04,7.5187,3.8716,-1.3895,-0.0206,-0.6414,1.5770,rough,14.0,1,3.537
1730,55.36,7.5189,3.8713,-1.3905,-0.0197,-0.6359,1.5776,rough,14.0,1,3.537
1740,55.68,7.5184,3.8715,-1.3900,-0.0207,-0.6385,1.5791,rough,14.0,1,3.537
1750,56.00,7.5185,3.8712,-1.3908,-0.0189,-0.6336,1.5784,rough,14.0,1,3.537
1760,56.32,7.5180,3.8713,-1.3905,-0.0185,-0.6349,1.5781,rough,14.0,1,3.536
1770,56.64,7.5183,3.8710,-1.3913,-0.0160,-0.6307,1.5755,rough,14.0,1,3.537
1780,56.96,7.5183,3.8714,-1.3900,-0.0174,-0.6376,1.5748,rough,14.0,1,3.537
1790,57.28,7.5198,3.8708,-1.3924,-0.0143,-0.6259,1.5712,rough,14.0,1,3.538
1800,57.60,7.5200,3.8715,-1.3905,-0.0173,-0.6362,1.5719,rough,14.0,1,3.538
1810,57.92,7.5206,3.8715,-1.3910,-0.0163,-0.6338,1.5702,rough,14.0,1,3.539
1820,58.24,7.5223,3.8713,-1.3912,-0.0138,-0.6316,1.5692,rough,14.0,1,3.540
1830,58.56,7.5225,3.8716,-1.3899,-0.0162,-0.6372,1.5733,rough,14.0,1,3.540
1840,58.88,7.5219,3.8714,-1.3905,-0.0172,-0.6342,1.5761,rough,14.0,1,3.540
1850,59.20,7.5203,3.8712,-1.3910,-0.0189,-0.6322,1.5779,rough,14.0,1,3.538
1860,59.52,7.5191,3.8713,-1.3907,-0.0201,-0.6346,1.5789,rough,14.0,1,3.537
1870,59.84,7.5183,3.8715,-1.3899,-0.0210,-0.6384,1.5800,rough,14.0,1,3.537
1880,60.16,7.5183,3.8712,-1.3907,-0.0181,-0.6343,1.5772,rough,14.0,1,3.537
1890,60.48,7.5180,3.8715,-1.3894,-0.0194,-0.6411,1.5771,rough,14.0,1,3.536
1900,60.80,7.5186,3.8717,-1.3896,-0.0187,-0.6407,1.5747,rough,14.0,1,3.537
1910,61.12,7.5194,3.8716,-1.3899,-0.0187,-0.6397,1.5734,rough,14.0,1,3.537
1920,61.44,7.5196,3.8714,-1.3905,-0.0185,-0.6362,1.5746,rough,14.0,1,3.538
1930,61.76,7.5193,3.8718,-1.3897,-0.0201,-0.6404,1.5759,rough,14.0,1,3.537
1940,62.08,7.5191,3.8716,-1.3901,-0.0200,-0.6377,1.5772,rough,14.0,1,3.537
1950,62.40,7.5190,3.8712,-1.3913,-0.0189,-0.6310,1.5783,rough,14.0,1,3.537
1960,62.72,7.5189,3.8708,-1.3923,-0.0171,-0.6257,1.5777,rough,14.0,1,3.537
1970,63.04,7.5183,3.8712,-1.3905,-0.0186,-0.6353,1.5776,rough,14.0,1,3.537
1980,63.36,7.5184,3.8714,-1.3902,-0.0182,-0.6373,1.5758,rough,14.0,1,3.537
1990,63.68,7.5190,3.8711,-1.3911,-0.0170,-0.6325,1.5747,rough,14.0,1,3.537
2000,64.00,7.5187,3.8714,-1.3901,-0.0193,-0.6383,1.5764,rough,14.0,1,3.537
2010,64.32,7.5191,3.8716,-1.3900,-0.0193,-0.6390,1.5752,rough,14.0,1,3.537
2020,64.64,7.5188,3.8717,-1.3893,-0.0212,-0.6427,1.5776,rough,14.0,1,3.537
2030,64.96,7.5190,3.8714,-1.3903,-0.0198,-0.6375,1.5771,rough,14.0,1,3.537
2040,65.28,7.5186,3.8717,-1.3896,-0.0208,-0.6404,1.5780,rough,14.0,1,3.537
2050,65.60,7.5187,3.8715,-1.3899,-0.0203,-0.6393,1.5776,rough,14.0,1,3.537
2060,65.92,7.5186,3.8715,-1.3901,-0.0201,-0.6379,1.5780,rough,14.0,1,3.537
2070,66.24,7.5191,3.8710,-1.3916,-0.0173,-0.6301,1.5755,rough,14.0,1,3.538
2080,66.56,7.5197,3.8709,-1.3922,-0.0164,-0.6270,1.5746,rough,14.0,1,3.538
2090,66.88,7.5189,3.8716,-1.3898,-0.0203,-0.6395,1.5772,rough,14.0,1,3.537
2100,67.20,7.5191,3.8713,-1.3906,-0.0190,-0.6356,1.5763,rough,14.0,1,3.537
2110,67.52,7.5195,3.8710,-1.3917,-0.0175,-0.6296,1.5758,rough,14.0,1,3.538
2120,67.84,7.5191,3.8714,-1.3907,-0.0190,-0.6345,1.5768,rough,14.0,1,3.537
2130,68.16,7.5194,3.8713,-1.3910,-0.0181,-0.6337,1.5752,rough,14.0,1,3.538
2140,68.48,7.5191,3.8715,-1.3902,-0.0193,-0.6375,1.5760,rough,14.0,1,3.537
2150,68.80,7.5190,3.8715,-1.3901,-0.0196,-0.6382,1.5765,rough,14.0,1,3.537
2160,69.12,7.5191,3.8713,-1.3907,-0.0192,-0.6349,1.5771,rough,14.0,1,3.537
2170,69.44,7.5197,3.8706,-1.3933,-0.0152,-0.6207,1.5750,rough,14.0,1,3.538
2180,69.76,7.5195,3.8710,-1.3919,-0.0168,-0.6284,1.5748,rough,14.0,1,3.538
2190,70.08,7.5188,3.8718,-1.3894,-0.0210,-0.6418,1.5777,rough,14.0,1,3.537
2200,70.40,7.5188,3.8717,-1.3894,-0.0207,-0.6422,1.5770,rough,14.0,1,3.537
2210,70.72,7.5195,3.8714,-1.3906,-0.0185,-0.6361,1.5748,rough,14.0,1,3.538
2220,71.04,7.5197,3.8711,-1.3914,-0.0175,-0.6311,1.5750,rough,14.0,1,3.538
2230,71.36,7.5198,3.8706,-1.3932,-0.0155,-0.6210,1.5754,rough,14.0,1,3.538
2240,71.68,7.5190,3.8713,-1.3909,-0.0192,-0.6334,1.5778,rough,14.0,1,3.537
2250,72.00,7.5192,3.8711,-1.3913,-0.0179,-0.6320,1.5757,rough,14.0,1,3.538
2260,72.32,7.5190,3.8716,-1.3901,-0.0197,-0.6384,1.5763,rough,14.0,1,3.537
2270,72.64,7.5192,3.8712,-1.3914,-0.0183,-0.6311,1.5767,rough,14.0,1,3.537
2280,72.96,7.5186,3.8718,-1.3893,-0.0214,-0.6422,1.5784,rough,14.0,1,3.537
2290,73.28,7.5191,3.8718,-1.3893,-0.0205,-0.6428,1.5758,rough,14.0,1,3.537
2300,73.60,7.5192,3.8715,-1.3901,-0.0198,-0.6386,1.5765,rough,14.0,1,3.537
2310,73.92,7.5193,3.8711,-1.3914,-0.0180,-0.6312,1.5762,rough,14.0,1,3.538
2320,74.24,7.5187,3.8715,-1.3901,-0.0201,-0.6382,1.5776,rough,14.0,1,3.537
2330,74.56,7.5188,3.8714,-1.3902,-0.0199,-0.6380,1.5774,rough,14.0,1,3.537
2340,74.88,7.5187,3.8717,-1.3896,-0.0206,-0.6407,1.5773,rough,14.0,1,3.537
2350,75.20,7.5190,3.8715,-1.3904,-0.0194,-0.6366,1.5766,rough,14.0,1,3.537
2360,75.52,7.5196,3.8710,-1.3920,-0.0164,-0.6282,1.5738,rough,14.0,1,3.538
2370,75.84,7.5190,3.8718,-1.3894,-0.0208,-0.6421,1.5767,rough,14.0,1,3.537
2380,76.16,7.5190,3.8716,-1.3900,-0.0202,-0.6385,1.5774,rough,14.0,1,3.537
2390,76.48,7.5190,3.8712,-1.3911,-0.0188,-0.6322,1.5774,rough,14.0,1,3.537
2400,76.80,7.5186,3.8716,-1.3900,-0.0202,-0.6383,1.5777,rough,14.0,1,3.537
2410,77.12,7.5193,3.8711,-1.3915,-0.0175,-0.6306,1.5753,rough,14.0,1,3.538
2420,77.44,7.5188,3.8718,-1.3893,-0.0210,-0.6424,1.5772,rough,14.0,1,3.537
2430,77.76,7.5188,3.8715,-1.3900,-0.0203,-0.6385,1.5778,rough,14.0,1,3.537
2440,78.08,7.5191,3.8712,-1.3912,-0.0185,-0.6320,1.5769,rough,14.0,1,3.537
2450,78.40,7.5192,3.8711,-1.3912,-0.0181,-0.6321,1.5760,rough,14.0,1,3.537
2460,78.72,7.5189,3.8716,-1.3901,-0.0198,-0.6385,1.5765,rough,14.0,1,3.537
2470,79.04,7.5191,3.8712,-1.3914,-0.0183,-0.6311,1.5769,rough,14.0,1,3.537
2480,79.36,7.5187,3.8717,-1.3894,-0.0208,-0.6418,1.5773,rough,14.0,1,3.537
2490,79.68,7.5189,3.8715,-1.3902,-0.0197,-0.6377,1.5767,rough,14.0,1,3.537
2500,80.00,7.5188,3.8714,-1.3901,-0.0202,-0.6385,1.5777,rough,14.0,1,3.537
2510,80.32,7.5196,3.8711,-1.3916,-0.0170,-0.6306,1.5743,rough,14.0,1,3.538
2520,80.64,7.5193,3.8714,-1.3906,-0.0188,-0.6355,1.5756,rough,14.0,1,3.537
2530,80.96,7.5194,3.8710,-1.3919,-0.0173,-0.6283,1.5760,rough,14.0,1,3.538
2540,81.28,7.5187,3.8717,-1.3895,-0.0208,-0.6411,1.5775,rough,14.0,1,3.537
2550,81.60,7.5189,3.8715,-1.3903,-0.0196,-0.6370,1.5767,rough,14.0,1,3.537
2560,81.92,7.5188,3.8714,-1.3902,-0.0200,-0.6377,1.5776,rough,14.0,1,3.537
2570,82.24,7.5187,3.8717,-1.3897,-0.0206,-0.6404,1.5775,rough,14.0,1,3.537
2580,82.56,7.5189,3.8715,-1.3904,-0.0193,-0.6362,1.5767,rough,14.0,1,3.537
2590,82.88,7.5190,3.8714,-1.3904,-0.0195,-0.6370,1.5767,rough,14.0,1,3.537
2600,83.20,7.5187,3.8717,-1.3898,-0.0205,-0.6396,1.5776,rough,14.0,1,3.537
2610,83.52,7.5187,3.8717,-1.3894,-0.0209,-0.6421,1.5774,rough,14.0,1,3.537
2620,83.84,7.5194,3.8713,-1.3906,-0.0187,-0.6358,1.5754,rough,14.0,1,3.538
2630,84.16,7.5195,3.8710,-1.3915,-0.0178,-0.6305,1.5759,rough,14.0,1,3.538
2640,84.48,7.5191,3.8714,-1.3906,-0.0193,-0.6353,1.5770,rough,14.0,1,3.537
2650,84.80,7.5190,3.8714,-1.3904,-0.0195,-0.6368,1.5768,rough,14.0,1,3.537
2660,85.12,7.5187,3.8716,-1.3898,-0.0205,-0.6394,1.5777,rough,14.0,1,3.537
2670,85.44,7.5187,3.8717,-1.3894,-0.0208,-0.6419,1.5774,rough,14.0,1,3.537
2680,85.76,7.5190,3.8713,-1.3905,-0.0194,-0.6360,1.5769,rough,14.0,1,3.537
2690,86.08,7.5192,3.8710,-1.3917,-0.0176,-0.6299,1.5760,rough,14.0,1,3.538
2700,86.40,7.5193,3.8714,-1.3907,-0.0183,-0.6348,1.5750,rough,14.0,1,3.537
2710,86.72,7.5194,3.8713,-1.3909,-0.0185,-0.6340,1.5758,rough,14.0,1,3.538
2720,87.04,7.5190,3.8715,-1.3902,-0.0196,-0.6377,1.5767,rough,14.0,1,3.537
2730,87.36,7.5187,3.8716,-1.3896,-0.0207,-0.6411,1.5775,rough,14.0,1,3.537
2740,87.68,7.5190,3.8713,-1.3907,-0.0191,-0.6350,1.5769,rough,14.0,1,3.537
2750,88.00,7.5193,3.8709,-1.3921,-0.0170,-0.6274,1.5758,rough,14.0,1,3.538
2760,88.32,7.5188,3.8715,-1.3899,-0.0201,-0.6390,1.5773,rough,14.0,1,3.537
2770,88.64,7.5192,3.8712,-1.3908,-0.0185,-0.6345,1.5756,rough,14.0,1,3.537
2780,88.96,7.5193,3.8709,-1.3921,-0.0175,-0.6269,1.5770,rough,14.0,1,3.538
2790,89.28,7.5190,3.8711,-1.3916,-0.0181,-0.6300,1.5772,rough,14.0,1,3.537
2800,89.60,7.5186,3.8715,-1.3900,-0.0198,-0.6383,1.5774,rough,14.0,1,3.537
2810,89.92,7.5191,3.8712,-1.3909,-0.0180,-0.6342,1.5753,rough,14.0,1,3.537
2820,90.24,7.5190,3.8716,-1.3899,-0.0201,-0.6395,1.5768,rough,14.0,1,3.537
2830,90.56,7.5189,3.8714,-1.3901,-0.0197,-0.6381,1.5770,rough,14.0,1,3.537
2840,90.88,7.5191,3.8712,-1.3909,-0.0186,-0.6342,1.5763,rough,14.0,1,3.537
2850,91.20,7.5188,3.8714,-1.3904,-0.0197,-0.6365,1.5776,rough,14.0,1,3.537
2860,91.52,7.5184,3.8716,-1.3896,-0.0204,-0.6406,1.5778,rough,14.0,1,3.537
2870,91.84,7.5186,3.8714,-1.3900,-0.0196,-0.6385,1.5772,rough,14.0,1,3.537
2880,92.16,7.5190,3.8715,-1.3902,-0.0190,-0.6380,1.5754,rough,14.0,1,3.537
2890,92.48,7.5194,3.8715,-1.3902,-0.0189,-0.6382,1.5747,rough,14.0,1,3.537
2900,92.80,7.5192,3.8714,-1.3902,-0.0199,-0.6378,1.5770,rough,14.0,1,3.537
2910,93.12,7.5193,3.8710,-1.3915,-0.0180,-0.6305,1.5766,rough,14.0,1,3.538
2920,93.44,7.5195,3.8714,-1.3907,-0.0183,-0.6351,1.5745,rough,14.0,1,3.538
2930,93.76,7.5197,3.8710,-1.3919,-0.0169,-0.6285,1.5749,rough,14.0,1,3.538
2940,94.08,7.5188,3.8718,-1.3893,-0.0212,-0.6423,1.5777,rough,14.0,1,3.537
2950,94.40,7.5187,3.8715,-1.3900,-0.0204,-0.6384,1.5781,rough,14.0,1,3.537
2960,94.72,7.5191,3.8711,-1.3915,-0.0181,-0.6303,1.5768,rough,14.0,1,3.537
2970,95.04,7.5187,3.8717,-1.3897,-0.0203,-0.6402,1.5770,rough,14.0,1,3.537
2980,95.36,7.5190,3.8715,-1.3905,-0.0192,-0.6360,1.5763,rough,14.0,1,3.537
2990,95.68,7.5189,3.8713,-1.3905,-0.0195,-0.6360,1.5773,rough,14.0,1,3.537
3000,96.00,7.5193,3.8710,-1.3916,-0.0180,-0.6304,1.5765,rough,14.0,1,3.538
3010,96.32,7.5193,3.8714,-1.3907,-0.0185,-0.6350,1.5754,rough,14.0,1,3.537
3020,96.64,7.5190,3.8714,-1.3903,-0.0200,-0.6373,1.5776,rough,14.0,1,3.537
3030,96.96,7.5188,3.8717,-1.3898,-0.0204,-0.6398,1.5772,rough,14.0,1,3.537
3040,97.28,7.5190,3.8715,-1.3906,-0.0192,-0.6356,1.5764,rough,14.0,1,3.537
3050,97.60,7.5189,3.8713,-1.3906,-0.0194,-0.6356,1.5773,rough,14.0,1,3.537
3060,97.92,7.5193,3.8710,-1.3917,-0.0178,-0.6298,1.5765,rough,14.0,1,3.538
3070,98.24,7.5194,3.8714,-1.3908,-0.0181,-0.6346,1.5747,rough,14.0,1,3.538
3080,98.56,7.5194,3.8713,-1.3909,-0.0184,-0.6341,1.5756,rough,14.0,1,3.538
3090,98.88,7.5190,3.8715,-1.3901,-0.0196,-0.6379,1.5765,rough,14.0,1,3.537
3100,99.20,7.5185,3.8716,-1.3895,-0.0211,-0.6415,1.5785,rough,14.0,1,3.537
3110,99.52,7.5190,3.8713,-1.3909,-0.0188,-0.6340,1.5766,rough,14.0,1,3.537
3120,99.84,7.5194,3.8709,-1.3920,-0.0172,-0.6277,1.5759,rough,14.0,1,3.538
3130,100.16,7.5188,3.8716,-1.3898,-0.0204,-0.6396,1.5774,rough,14.0,1,3.537
3140,100.48,7.5190,3.8713,-1.3906,-0.0191,-0.6354,1.5767,rough,14.0,1,3.537
3150,100.80,7.5196,3.8710,-1.3916,-0.0174,-0.6302,1.5753,rough,14.0,1,3.538
3160,101.12,7.5192,3.8714,-1.3907,-0.0190,-0.6350,1.5764,rough,14.0,1,3.537
3170,101.44,7.5190,3.8714,-1.3904,-0.0197,-0.6369,1.5772,rough,14.0,1,3.537
3180,101.76,7.5186,3.8716,-1.3898,-0.0206,-0.6395,1.5780,rough,14.0,1,3.537
3190,102.08,7.5188,3.8711,-1.3914,-0.0184,-0.6309,1.5776,rough,14.0,1,3.537
3200,102.40,7.5192,3.8708,-1.3924,-0.0160,-0.6254,1.5753,rough,14.0,1,3.538
3210,102.72,7.5191,3.8712,-1.3907,-0.0182,-0.6350,1.5752,rough,14.0,1,3.537
3220,103.04,7.5195,3.8711,-1.3915,-0.0177,-0.6307,1.5755,rough,14.0,1,3.538
3230,103.36,7.5191,3.8714,-1.3906,-0.0192,-0.6354,1.5767,rough,14.0,1,3.537
3240,103.68,7.5189,3.8714,-1.3904,-0.0197,-0.6367,1.5775,rough,14.0,1,3.537
3250,104.00,7.5188,3.8716,-1.3898,-0.0203,-0.6393,1.5773,rough,14.0,1,3.537
3260,104.32,7.5186,3.8717,-1.3893,-0.0212,-0.6422,1.5782,rough,14.0,1,3.537
3270,104.64,7.5194,3.8713,-1.3906,-0.0187,-0.6360,1.5753,rough,14.0,1,3.538
3280,104.96,7.5196,3.8710,-1.3915,-0.0177,-0.6306,1.5757,rough,14.0,1,3.538
3290,105.28,7.5191,3.8714,-1.3906,-0.0193,-0.6354,1.5768,rough,14.0,1,3.537
3300,105.60,7.5189,3.8713,-1.3905,-0.0196,-0.6359,1.5776,rough,14.0,1,3.537
3310,105.92,7.5192,3.8710,-1.3916,-0.0180,-0.6300,1.5768,rough,14.0,1,3.538
3320,106.24,7.5194,3.8714,-1.3908,-0.0183,-0.6348,1.5748,rough,14.0,1,3.538
3330,106.56,7.5194,3.8713,-1.3909,-0.0185,-0.6341,1.5756,rough,14.0,1,3.538
3340,106.88,7.5191,3.8715,-1.3901,-0.0196,-0.6380,1.5764,rough,14.0,1,3.537
3350,107.20,7.5186,3.8716,-1.3894,-0.0212,-0.6417,1.5784,rough,14.0,1,3.537
3360,107.52,7.5191,3.8713,-1.3908,-0.0189,-0.6344,1.5766,rough,14.0,1,3.537
3370,107.84,7.5193,3.8715,-1.3904,-0.0185,-0.6373,1.5741,rough,14.0,1,3.537
3380,108.16,7.5193,3.8715,-1.3902,-0.0191,-0.6381,1.5751,rough,14.0,1,3.537
3390,108.48,7.5192,3.8713,-1.3905,-0.0193,-0.6359,1.5767,rough,14.0,1,3.537
3400,108.80,7.5193,3.8710,-1.3917,-0.0180,-0.6296,1.5771,rough,14.0,1,3.538
3410,109.12,7.5188,3.8715,-1.3899,-0.0202,-0.6396,1.5772,rough,14.0,1,3.537
3420,109.44,7.5190,3.8713,-1.3907,-0.0190,-0.6352,1.5766,rough,14.0,1,3.537
3430,109.76,7.5200,3.8707,-1.3932,-0.0150,-0.6215,1.5739,rough,14.0,1,3.538
3440,110.08,7.5193,3.8714,-1.3907,-0.0190,-0.6346,1.5765,rough,14.0,1,3.537
3450,110.40,7.5192,3.8712,-1.3909,-0.0189,-0.6338,1.5770,rough,14.0,1,3.537
3460,110.72,7.5194,3.8708,-1.3924,-0.0167,-0.6257,1.5759,rough,14.0,1,3.538
3470,111.04,7.5191,3.8713,-1.3909,-0.0187,-0.6339,1.5763,rough,14.0,1,3.537
3480,111.36,7.5191,3.8712,-1.3909,-0.0190,-0.6342,1.5769,rough,14.0,1,3.537
3490,111.68,7.5186,3.8715,-1.3901,-0.0203,-0.6379,1.5784,rough,14.0,1,3.537
3500,112.00,7.5189,3.8712,-1.3909,-0.0181,-0.6338,1.5760,rough,14.0,1,3.537
3510,112.32,7.5189,3.8716,-1.3897,-0.0198,-0.6407,1.5759,rough,14.0,1,3.537
3520,112.64,7.5192,3.8713,-1.3906,-0.0191,-0.6355,1.5764,rough,14.0,1,3.537
3530,112.96,7.5191,3.8710,-1.3915,-0.0184,-0.6305,1.5776,rough,14.0,1,3.538
3540,113.28,7.5186,3.8714,-1.3901,-0.0199,-0.6383,1.5777,rough,14.0,1,3.537
3550,113.60,7.5189,3.8716,-1.3900,-0.0195,-0.6390,1.5759,rough,14.0,1,3.537
3560,113.92,7.5189,3.8717,-1.3894,-0.0209,-0.6423,1.5771,rough,14.0,1,3.537
3570,114.24,7.5189,3.8714,-1.3903,-0.0199,-0.6373,1.5777,rough,14.0,1,3.537
3580,114.56,7.5188,3.8717,-1.3897,-0.0206,-0.6401,1.5775,rough,14.0,1,3.537
3590,114.88,7.5190,3.8715,-1.3905,-0.0193,-0.6360,1.5766,rough,14.0,1,3.537
3600,115.20,7.5188,3.8713,-1.3905,-0.0195,-0.6359,1.5775,rough,14.0,1,3.537
3610,115.52,7.5193,3.8710,-1.3918,-0.0174,-0.6295,1.5756,rough,14.0,1,3.538
3620,115.84,7.5188,3.8716,-1.3896,-0.0206,-0.6410,1.5773,rough,14.0,1,3.537
3630,116.16,7.5189,3.8712,-1.3908,-0.0191,-0.6343,1.5776,rough,14.0,1,3.537
3640,116.48,7.5185,3.8715,-1.3896,-0.0204,-0.6410,1.5777,rough,14.0,1,3.537
3650,116.80,7.5189,3.8717,-1.3897,-0.0198,-0.6405,1.5758,rough,14.0,1,3.537
3660,117.12,7.5192,3.8715,-1.3903,-0.0194,-0.6370,1.5762,rough,14.0,1,3.537
3670,117.44,7.5188,3.8715,-1.3900,-0.0205,-0.6388,1.5782,rough,14.0,1,3.537
3680,117.76,7.5195,3.8711,-1.3915,-0.0173,-0.6310,1.5748,rough,14.0,1,3.538
3690,118.08,7.5197,3.8706,-1.3933,-0.0154,-0.6205,1.5754,rough,14.0,1,3.538
3700,118.40,7.5196,3.8710,-1.3920,-0.0163,-0.6282,1.5739,rough,14.0,1,3.538
3710,118.72,7.5189,3.8718,-1.3894,-0.0207,-0.6419,1.5768,rough,14.0,1,3.537
3720,119.04,7.5188,3.8717,-1.3893,-0.0210,-0.6427,1.5773,rough,14.0,1,3.537
3730,119.36,7.5190,3.8714,-1.3902,-0.0197,-0.6376,1.5769,rough,14.0,1,3.537
3740,119.68,7.5187,3.8717,-1.3896,-0.0208,-0.6405,1.5777,rough,14.0,1,3.537
3750,120.00,7.5189,3.8715,-1.3904,-0.0195,-0.6363,1.5769,rough,14.0,1,3.537
3760,120.32,7.5196,3.8710,-1.3921,-0.0161,-0.6276,1.5738,rough,14.0,1,3.538
3770,120.64,7.5192,3.8715,-1.3902,-0.0190,-0.6379,1.5751,rough,14.0,1,3.537
3780,120.96,7.5189,3.8717,-1.3894,-0.0210,-0.6422,1.5774,rough,14.0,1,3.537
3790,121.28,7.5188,3.8714,-1.3903,-0.0199,-0.6371,1.5778,rough,14.0,1,3.537
3800,121.60,7.5187,3.8717,-1.3897,-0.0205,-0.6399,1.5776,rough,14.0,1,3.537
3810,121.92,7.5189,3.8714,-1.3905,-0.0192,-0.6357,1.5767,rough,14.0,1,3.537
3820,122.24,7.5190,3.8714,-1.3905,-0.0193,-0.6364,1.5766,rough,14.0,1,3.537
3830,122.56,7.5187,3.8716,-1.3899,-0.0203,-0.6390,1.5775,rough,14.0,1,3.537
3840,122.88,7.5187,3.8716,-1.3895,-0.0207,-0.6415,1.5773,rough,14.0,1,3.537
3850,123.20,7.5190,3.8713,-1.3906,-0.0192,-0.6355,1.5767,rough,14.0,1,3.537
3860,123.52,7.5193,3.8710,-1.3917,-0.0175,-0.6295,1.5758,rough,14.0,1,3.538
3870,123.84,7.5187,3.8716,-1.3896,-0.0207,-0.6410,1.5775,rough,14.0,1,3.537
3880,124.16,7.5190,3.8713,-1.3907,-0.0192,-0.6350,1.5768,rough,14.0,1,3.537
3890,124.48,7.5193,3.8710,-1.3919,-0.0174,-0.6288,1.5759,rough,14.0,1,3.538
3900,124.80,7.5187,3.8716,-1.3897,-0.0205,-0.6404,1.5775,rough,14.0,1,3.537
3910,125.12,7.5190,3.8713,-1.3908,-0.0189,-0.6342,1.5768,rough,14.0,1,3.537
3920,125.44,7.5194,3.8709,-1.3920,-0.0173,-0.6280,1.5761,rough,14.0,1,3.538
3930,125.76,7.5187,3.8716,-1.3898,-0.0205,-0.6399,1.5775,rough,14.0,1,3.537
3940,126.08,7.5189,3.8713,-1.3906,-0.0191,-0.6355,1.5768,rough,14.0,1,3.537
3950,126.40,7.5196,3.8710,-1.3916,-0.0175,-0.6300,1.5755,rough,14.0,1,3.538
3960,126.72,7.5192,3.8714,-1.3907,-0.0190,-0.6348,1.5766,rough,14.0,1,3.537
3970,127.04,7.5192,3.8712,-1.3910,-0.0185,-0.6336,1.5761,rough,14.0,1,3.537
3980,127.36,7.5194,3.8709,-1.3920,-0.0174,-0.6278,1.5763,rough,14.0,1,3.538
3990,127.68,7.5187,3.8716,-1.3898,-0.0205,-0.6396,1.5778,rough,14.0,1,3.537
4000,128.00,7.5191,3.8713,-1.3907,-0.0187,-0.6350,1.5759,rough,14.0,1,3.537
4010,128.32,7.5199,3.8706,-1.3932,-0.0149,-0.6211,1.5741,rough,14.0,1,3.538
4020,128.64,7.5192,3.8713,-1.3908,-0.0190,-0.6342,1.5767,rough,14.0,1,3.537
4030,128.96,7.5186,3.8718,-1.3892,-0.0212,-0.6426,1.5778,rough,14.0,1,3.537
4040,129.28,7.5191,3.8716,-1.3900,-0.0197,-0.6390,1.5761,rough,14.0,1,3.537
4050,129.60,7.5191,3.8714,-1.3902,-0.0195,-0.6377,1.5764,rough,14.0,1,3.537
4060,129.92,7.5190,3.8712,-1.3908,-0.0188,-0.6343,1.5767,rough,14.0,1,3.537
4070,130.24,7.5188,3.8716,-1.3900,-0.0201,-0.6388,1.5772,rough,14.0,1,3.537
4080,130.56,7.5192,3.8711,-1.3915,-0.0179,-0.6308,1.5761,rough,14.0,1,3.538
4090,130.88,7.5187,3.8718,-1.3893,-0.0212,-0.6422,1.5779,rough,14.0,1,3.537
4100,131.20,7.5190,3.8717,-1.3893,-0.0205,-0.6428,1.5761,rough,14.0,1,3.537
4110,131.52,7.5191,3.8714,-1.3902,-0.0198,-0.6381,1.5769,rough,14.0,1,3.537
4120,131.84,7.5193,3.8710,-1.3916,-0.0175,-0.6305,1.5755,rough,14.0,1,3.538
4130,132.16,7.5195,3.8714,-1.3907,-0.0181,-0.6350,1.5743,rough,14.0,1,3.538
4140,132.48,7.5197,3.8710,-1.3919,-0.0168,-0.6284,1.5747,rough,14.0,1,3.538
4150,132.80,7.5189,3.8718,-1.3893,-0.0211,-0.6423,1.5774,rough,14.0,1,3.537
4160,133.12,7.5188,3.8715,-1.3900,-0.0204,-0.6385,1.5779,rough,14.0,1,3.537
4170,133.44,7.5186,3.8713,-1.3905,-0.0198,-0.6357,1.5784,rough,14.0,1,3.537
4180,133.76,7.5187,3.8714,-1.3902,-0.0193,-0.6377,1.5767,rough,14.0,1,3.537
4190,134.08,7.5194,3.8712,-1.3910,-0.0176,-0.6337,1.5743,rough,14.0,1,3.538
4200,134.40,7.5195,3.8709,-1.3922,-0.0169,-0.6265,1.5759,rough,14.0,1,3.538
4210,134.72,7.5190,3.8713,-1.3908,-0.0192,-0.6345,1.5772,rough,14.0,1,3.537
4220,135.04,7.5194,3.8713,-1.3910,-0.0181,-0.6337,1.5751,rough,14.0,1,3.538
4230,135.36,7.5191,3.8715,-1.3902,-0.0193,-0.6374,1.5760,rough,14.0,1,3.537
4240,135.68,7.5190,3.8714,-1.3901,-0.0196,-0.6381,1.5765,rough,14.0,1,3.537
4250,136.00,7.5191,3.8713,-1.3907,-0.0192,-0.6348,1.5771,rough,14.0,1,3.537
4260,136.32,7.5194,3.8708,-1.3926,-0.0165,-0.6248,1.5760,rough,14.0,1,3.538
4270,136.64,7.5191,3.8712,-1.3908,-0.0187,-0.6349,1.5762,rough,14.0,1,3.537
4280,136.96,7.5190,3.8715,-1.3902,-0.0194,-0.6378,1.5762,rough,14.0,1,3.537
4290,137.28,7.5186,3.8716,-1.3895,-0.0210,-0.6413,1.5781,rough,14.0,1,3.537
4300,137.60,7.5191,3.8713,-1.3909,-0.0187,-0.6340,1.5763,rough,14.0,1,3.537
4310,137.92,7.5193,3.8709,-1.3920,-0.0174,-0.6279,1.5766,rough,14.0,1,3.538
4320,138.24,7.5190,3.8712,-1.3914,-0.0183,-0.6311,1.5769,rough,14.0,1,3.537
4330,138.56,7.5184,3.8715,-1.3900,-0.0207,-0.6384,1.5791,rough,14.0,1,3.537
4340,138.88,7.5187,3.8712,-1.3908,-0.0182,-0.6343,1.5765,rough,14.0,1,3.537
4350,139.20,7.5185,3.8716,-1.3895,-0.0197,-0.6411,1.5766,rough,14.0,1,3.537
4360,139.52,7.5191,3.8718,-1.3894,-0.0196,-0.6423,1.5743,rough,14.0,1,3.537
4370,139.84,7.5193,3.8716,-1.3899,-0.0195,-0.6391,1.5753,rough,14.0,1,3.537
4380,140.16,7.5193,3.8715,-1.3901,-0.0193,-0.6382,1.5756,rough,14.0,1,3.537
4390,140.48,7.5192,3.8713,-1.3906,-0.0194,-0.6355,1.5771,rough,14.0,1,3.537
4400,140.80,7.5193,3.8709,-1.3919,-0.0175,-0.6286,1.5763,rough,14.0,1,3.538
4410,141.12,7.5187,3.8716,-1.3898,-0.0205,-0.6400,1.5777,rough,14.0,1,3.537
4420,141.44,7.5192,3.8711,-1.3913,-0.0179,-0.6317,1.5758,rough,14.0,1,3.537
4430,141.76,7.5189,3.8715,-1.3902,-0.0196,-0.6379,1.5763,rough,14.0,1,3.537
4440,142.08,7.5192,3.8712,-1.3915,-0.0182,-0.6305,1.5767,rough,14.0,1,3.537
4450,142.40,7.5185,3.8717,-1.3894,-0.0211,-0.6414,1.5783,rough,14.0,1,3.537
4460,142.72,7.5190,3.8714,-1.3905,-0.0191,-0.6360,1.5762,rough,14.0,1,3.537
4470,143.04,7.5189,3.8713,-1.3905,-0.0194,-0.6359,1.5772,rough,14.0,1,3.537
4480,143.36,7.5192,3.8710,-1.3916,-0.0178,-0.6301,1.5762,rough,14.0,1,3.538
4490,143.68,7.5193,3.8714,-1.3907,-0.0184,-0.6350,1.5752,rough,14.0,1,3.537
4500,144.00,7.5190,3.8714,-1.3903,-0.0199,-0.6373,1.5774,rough,14.0,1,3.537
4510,144.32,7.5186,3.8717,-1.3897,-0.0208,-0.6400,1.5782,rough,14.0,1,3.537
4520,144.64,7.5186,3.8714,-1.3901,-0.0200,-0.6380,1.5777,rough,14.0,1,3.537
4530,144.96,7.5189,3.8716,-1.3900,-0.0195,-0.6387,1.5759,rough,14.0,1,3.537
4540,145.28,7.5188,3.8717,-1.3894,-0.0208,-0.6420,1.5771,rough,14.0,1,3.537
4550,145.60,7.5191,3.8713,-1.3906,-0.0188,-0.6356,1.5759,rough,14.0,1,3.537
4560,145.92,7.5196,3.8710,-1.3916,-0.0174,-0.6302,1.5753,rough,14.0,1,3.538
4570,146.24,7.5192,3.8714,-1.3906,-0.0190,-0.6351,1.5765,rough,14.0,1,3.537
4580,146.56,7.5189,3.8714,-1.3904,-0.0197,-0.6368,1.5773,rough,14.0,1,3.537
4590,146.88,7.5193,3.8708,-1.3924,-0.0169,-0.6258,1.5763,rough,14.0,1,3.538
4600,147.20,7.5187,3.8712,-1.3907,-0.0195,-0.6347,1.5784,rough,14.0,1,3.537
4610,147.52,7.5182,3.8716,-1.3894,-0.0205,-0.6414,1.5784,rough,14.0,1,3.536
4620,147.84,7.5184,3.8717,-1.3895,-0.0197,-0.6409,1.5766,rough,14.0,1,3.537
4630,148.16,7.5194,3.8713,-1.3909,-0.0174,-0.6340,1.5736,rough,14.0,1,3.538
4640,148.48,7.5196,3.8712,-1.3910,-0.0179,-0.6335,1.5746,rough,14.0,1,3.538
4650,148.80,7.5196,3.8709,-1.3920,-0.0172,-0.6276,1.5758,rough,14.0,1,3.538
4660,149.12,7.5187,3.8716,-1.3898,-0.0208,-0.6398,1.5782,rough,14.0,1,3.537
4670,149.44,7.5190,3.8713,-1.3907,-0.0189,-0.6354,1.5762,rough,14.0,1,3.537
4680,149.76,7.5196,3.8710,-1.3917,-0.0173,-0.6298,1.5751,rough,14.0,1,3.538
4690,150.08,7.5192,3.8714,-1.3907,-0.0189,-0.6347,1.5763,rough,14.0,1,3.537
4700,150.40,7.5191,3.8712,-1.3909,-0.0189,-0.6339,1.5769,rough,14.0,1,3.537
4710,150.72,7.5194,3.8708,-1.3924,-0.0166,-0.6257,1.5758,rough,14.0,1,3.538
4720,151.04,7.5191,3.8713,-1.3909,-0.0187,-0.6340,1.5763,rough,14.0,1,3.537
4730,151.36,7.5191,3.8718,-1.3893,-0.0202,-0.6426,1.5752,rough,14.0,1,3.537
4740,151.68,7.5193,3.8716,-1.3899,-0.0198,-0.6392,1.5759,rough,14.0,1,3.537
4750,152.00,7.5192,3.8715,-1.3901,-0.0195,-0.6381,1.5761,rough,14.0,1,3.537
4760,152.32,7.5191,3.8713,-1.3907,-0.0190,-0.6350,1.5765,rough,14.0,1,3.537
4770,152.64,7.5198,3.8706,-1.3932,-0.0151,-0.6212,1.5745,rough,14.0,1,3.538
4780,152.96,7.5191,3.8713,-1.3908,-0.0191,-0.6339,1.5771,rough,14.0,1,3.537
4790,153.28,7.5190,3.8718,-1.3893,-0.0204,-0.6424,1.5759,rough,14.0,1,3.537
4800,153.60,7.5191,3.8716,-1.3899,-0.0200,-0.6391,1.5767,rough,14.0,1,3.537
4810,153.92,7.5190,3.8714,-1.3902,-0.0197,-0.6378,1.5768,rough,14.0,1,3.537
4820,154.24,7.5191,3.8712,-1.3909,-0.0185,-0.6341,1.5760,rough,14.0,1,3.537
4830,154.56,7.5194,3.8708,-1.3924,-0.0168,-0.6255,1.5763,rough,14.0,1,3.538
4840,154.88,7.5187,3.8713,-1.3907,-0.0196,-0.6349,1.5784,rough,14.0,1,3.537
4850,155.20,7.5187,3.8714,-1.3903,-0.0191,-0.6370,1.5767,rough,14.0,1,3.537
4860,155.52,7.5186,3.8717,-1.3895,-0.0202,-0.6412,1.5769,rough,14.0,1,3.537
4870,155.84,7.5192,3.8715,-1.3905,-0.0188,-0.6361,1.5756,rough,14.0,1,3.537
4880,156.16,7.5193,3.8710,-1.3919,-0.0174,-0.6285,1.5761,rough,14.0,1,3.538
4890,156.48,7.5190,3.8715,-1.3901,-0.0194,-0.6382,1.5761,rough,14.0,1,3.537
4900,156.80,7.5186,3.8716,-1.3895,-0.0210,-0.6416,1.5780,rough,14.0,1,3.537
4910,157.12,7.5189,3.8712,-1.3908,-0.0190,-0.6344,1.5772,rough,14.0,1,3.537
4920,157.44,7.5186,3.8716,-1.3895,-0.0205,-0.6414,1.5774,rough,14.0,1,3.537
4930,157.76,7.5191,3.8713,-1.3908,-0.0188,-0.6344,1.5764,rough,14.0,1,3.537
4940,158.08,7.5192,3.8715,-1.3903,-0.0187,-0.6375,1.5748,rough,14.0,1,3.537
4950,158.40,7.5193,3.8715,-1.3901,-0.0191,-0.6383,1.5751,rough,14.0,1,3.537
4960,158.72,7.5192,3.8713,-1.3906,-0.0193,-0.6356,1.5768,rough,14.0,1,3.537
4970,159.04,7.5192,3.8709,-1.3918,-0.0179,-0.6291,1.5771,rough,14.0,1,3.538
4980,159.36,7.5187,3.8715,-1.3901,-0.0199,-0.6382,1.5773,rough,14.0,1,3.537
4990,159.68,7.5188,3.8716,-1.3898,-0.0202,-0.6397,1.5770,rough,14.0,1,3.537
5000,160.00,7.5186,3.8717,-1.3893,-0.0213,-0.6427,1.5781,rough,14.0,1,3.537
5010,160.32,7.5192,3.8714,-1.3902,-0.0195,-0.6382,1.5760,rough,14.0,1,3.537
5020,160.64,7.5194,3.8711,-1.3915,-0.0177,-0.6308,1.5758,rough,14.0,1,3.538
5030,160.96,7.5188,3.8715,-1.3901,-0.0200,-0.6382,1.5772,rough,14.0,1,3.537
5040,161.28,7.5187,3.8713,-1.3906,-0.0196,-0.6354,1.5781,rough,14.0,1,3.537
5050,161.60,7.5188,3.8714,-1.3902,-0.0193,-0.6376,1.5765,rough,14.0,1,3.537
5060,161.92,7.5191,3.8714,-1.3902,-0.0196,-0.6381,1.5763,rough,14.0,1,3.537
5070,162.24,7.5193,3.8711,-1.3915,-0.0178,-0.6307,1.5762,rough,14.0,1,3.538
5080,162.56,7.5194,3.8714,-1.3906,-0.0184,-0.6353,1.5750,rough,14.0,1,3.538
5090,162.88,7.5195,3.8710,-1.3919,-0.0171,-0.6283,1.5755,rough,14.0,1,3.538
5100,163.20,7.5186,3.8717,-1.3894,-0.0212,-0.6415,1.5782,rough,14.0,1,3.537
5110,163.52,7.5188,3.8714,-1.3903,-0.0196,-0.6369,1.5772,rough,14.0,1,3.537
5120,163.84,7.5185,3.8717,-1.3895,-0.0206,-0.6413,1.5775,rough,14.0,1,3.537
5130,164.16,7.5192,3.8715,-1.3905,-0.0187,-0.6359,1.5753,rough,14.0,1,3.537
5140,164.48,7.5194,3.8710,-1.3919,-0.0172,-0.6283,1.5759,rough,14.0,1,3.538
5150,164.80,7.5187,3.8717,-1.3896,-0.0207,-0.6410,1.5773,rough,14.0,1,3.537
5160,165.12,7.5190,3.8715,-1.3903,-0.0195,-0.6369,1.5766,rough,14.0,1,3.537
5170,165.44,7.5188,3.8714,-1.3902,-0.0200,-0.6378,1.5776,rough,14.0,1,3.537
5180,165.76,7.5188,3.8717,-1.3896,-0.0206,-0.6405,1.5774,rough,14.0,1,3.537
5190,166.08,7.5190,3.8715,-1.3904,-0.0194,-0.6364,1.5766,rough,14.0,1,3.537
5200,166.40,7.5196,3.8710,-1.3920,-0.0163,-0.6280,1.5738,rough,14.0,1,3.538
5210,166.72,7.5192,3.8715,-1.3901,-0.0191,-0.6383,1.5751,rough,14.0,1,3.537
5220,167.04,7.5189,3.8717,-1.3893,-0.0211,-0.6424,1.5774,rough,14.0,1,3.537
5230,167.36,7.5188,3.8714,-1.3902,-0.0201,-0.6375,1.5779,rough,14.0,1,3.537
5240,167.68,7.5187,3.8717,-1.3897,-0.0206,-0.6402,1.5777,rough,14.0,1,3.537
5250,168.00,7.5189,3.8714,-1.3905,-0.0192,-0.6357,1.5768,rough,14.0,1,3.537
5260,168.32,7.5190,3.8710,-1.3915,-0.0177,-0.6306,1.5763,rough,14.0,1,3.537
5270,168.64,7.5188,3.8714,-1.3902,-0.0192,-0.6376,1.5762,rough,14.0,1,3.537
5280,168.96,7.5191,3.8717,-1.3898,-0.0199,-0.6397,1.5759,rough,14.0,1,3.537
5290,169.28,7.5190,3.8715,-1.3904,-0.0198,-0.6364,1.5775,rough,14.0,1,3.537
5300,169.60,7.5195,3.8710,-1.3920,-0.0164,-0.6280,1.5742,rough,14.0,1,3.538
5310,169.92,7.5192,3.8715,-1.3901,-0.0190,-0.6383,1.5750,rough,14.0,1,3.537
5320,170.24,7.5189,3.8717,-1.3893,-0.0210,-0.6424,1.5773,rough,14.0,1,3.537
5330,170.56,7.5189,3.8714,-1.3902,-0.0200,-0.6374,1.5778,rough,14.0,1,3.537
5340,170.88,7.5192,3.8708,-1.3924,-0.0169,-0.6257,1.5766,rough,14.0,1,3.538
5350,171.20,7.5188,3.8712,-1.3906,-0.0188,-0.6353,1.5767,rough,14.0,1,3.537
5360,171.52,7.5192,3.8715,-1.3903,-0.0189,-0.6376,1.5749,rough,14.0,1,3.537
5370,171.84,7.5193,3.8712,-1.3913,-0.0183,-0.6314,1.5764,rough,14.0,1,3.538
5380,172.16,7.5191,3.8711,-1.3912,-0.0183,-0.6320,1.5765,rough,14.0,1,3.537
5390,172.48,7.5189,3.8714,-1.3903,-0.0194,-0.6370,1.5768,rough,14.0,1,3.537
5400,172.80,7.5190,3.8713,-1.3908,-0.0188,-0.6342,1.5766,rough,14.0,1,3.537
5410,173.12,7.5194,3.8709,-1.3920,-0.0172,-0.6280,1.5760,rough,14.0,1,3.538
5420,173.44,7.5188,3.8716,-1.3898,-0.0204,-0.6398,1.5775,rough,14.0,1,3.537
5430,173.76,7.5189,3.8713,-1.3906,-0.0191,-0.6356,1.5767,rough,14.0,1,3.537
5440,174.08,7.5196,3.8710,-1.3916,-0.0175,-0.6302,1.5754,rough,14.0,1,3.538
5450,174.40,7.5192,3.8714,-1.3906,-0.0191,-0.6350,1.5765,rough,14.0,1,3.537
5460,174.72,7.5189,3.8714,-1.3904,-0.0197,-0.6367,1.5773,rough,14.0,1,3.537
5470,175.04,7.5193,3.8708,-1.3924,-0.0168,-0.6257,1.5764,rough,14.0,1,3.538
5480,175.36,7.5189,3.8713,-1.3906,-0.0189,-0.6355,1.5765,rough,14.0,1,3.537
5490,175.68,7.5194,3.8710,-1.3916,-0.0177,-0.6303,1.5758,rough,14.0,1,3.538
5500,176.00,7.5190,3.8714,-1.3906,-0.0192,-0.6352,1.5769,rough,14.0,1,3.537
5510,176.32,7.5190,3.8714,-1.3905,-0.0194,-0.6365,1.5767,rough,14.0,1,3.537
5520,176.64,7.5188,3.8716,-1.3899,-0.0204,-0.6392,1.5775,rough,14.0,1,3.537
5530,176.96,7.5187,3.8717,-1.3895,-0.0208,-0.6418,1.5773,rough,14.0,1,3.537
5540,177.28,7.5190,3.8714,-1.3905,-0.0194,-0.6360,1.5768,rough,14.0,1,3.537
5550,177.60,7.5192,3.8710,-1.3915,-0.0182,-0.6305,1.5770,rough,14.0,1,3.538
5560,177.92,7.5194,3.8714,-1.3907,-0.0185,-0.6352,1.5751,rough,14.0,1,3.538
5570,178.24,7.5195,3.8710,-1.3919,-0.0171,-0.6282,1.5756,rough,14.0,1,3.538
5580,178.56,7.5186,3.8717,-1.3895,-0.0212,-0.6413,1.5783,rough,14.0,1,3.537
5590,178.88,7.5188,3.8714,-1.3903,-0.0196,-0.6367,1.5773,rough,14.0,1,3.537
5600,179.20,7.5185,3.8717,-1.3896,-0.0204,-0.6408,1.5775,rough,14.0,1,3.537
5610,179.52,7.5192,3.8714,-1.3908,-0.0182,-0.6345,1.5750,rough,14.0,1,3.537
5620,179.84,7.5193,3.8713,-1.3909,-0.0184,-0.6336,1.5759,rough,14.0,1,3.538
5630,180.16,7.5189,3.8715,-1.3903,-0.0195,-0.6372,1.5768,rough,14.0,1,3.537
5640,180.48,7.5190,3.8714,-1.3902,-0.0193,-0.6376,1.5760,rough,14.0,1,3.537
5650,180.80,7.5197,3.8711,-1.3915,-0.0169,-0.6311,1.5737,rough,14.0,1,3.538
5660,181.12,7.5200,3.8707,-1.3931,-0.0152,-0.6216,1.5742,rough,14.0,1,3.538
5670,181.44,7.5193,3.8714,-1.3907,-0.0192,-0.6346,1.5768,rough,14.0,1,3.537
5680,181.76,7.5191,3.8712,-1.3909,-0.0190,-0.6337,1.5773,rough,14.0,1,3.537
5690,182.08,7.5193,3.8709,-1.3921,-0.0173,-0.6275,1.5763,rough,14.0,1,3.538
5700,182.40,7.5187,3.8715,-1.3899,-0.0203,-0.6392,1.5777,rough,14.0,1,3.537
5710,182.72,7.5186,3.8715,-1.3901,-0.0201,-0.6378,1.5781,rough,14.0,1,3.537
5720,183.04,7.5191,3.8710,-1.3916,-0.0173,-0.6300,1.5756,rough,14.0,1,3.538
5730,183.36,7.5196,3.8709,-1.3922,-0.0164,-0.6267,1.5747,rough,14.0,1,3.538
5740,183.68,7.5189,3.8716,-1.3899,-0.0202,-0.6392,1.5772,rough,14.0,1,3.537
5750,184.00,7.5190,3.8713,-1.3907,-0.0189,-0.6351,1.5764,rough,14.0,1,3.537
5760,184.32,7.5199,3.8707,-1.3932,-0.0149,-0.6213,1.5739,rough,14.0,1,3.538
5770,184.64,7.5193,3.8714,-1.3907,-0.0190,-0.6345,1.5766,rough,14.0,1,3.537
5780,184.96,7.5191,3.8712,-1.3909,-0.0189,-0.6337,1.5771,rough,14.0,1,3.537
5790,185.28,7.5186,3.8715,-1.3901,-0.0203,-0.6381,1.5783,rough,14.0,1,3.537
5800,185.60,7.5189,3.8712,-1.3909,-0.0182,-0.6341,1.5760,rough,14.0,1,3.537
5810,185.92,7.5189,3.8716,-1.3897,-0.0199,-0.6409,1.5759,rough,14.0,1,3.537
5820,186.24,7.5192,3.8714,-1.3906,-0.0192,-0.6358,1.5764,rough,14.0,1,3.537
5830,186.56,7.5187,3.8716,-1.3899,-0.0207,-0.6391,1.5782,rough,14.0,1,3.537
5840,186.88,7.5186,3.8716,-1.3896,-0.0206,-0.6406,1.5777,rough,14.0,1,3.537
5850,187.20,7.5191,3.8711,-1.3912,-0.0180,-0.6324,1.5758,rough,14.0,1,3.537
5860,187.52,7.5189,3.8716,-1.3900,-0.0198,-0.6387,1.5763,rough,14.0,1,3.537
5870,187.84,7.5192,3.8712,-1.3913,-0.0184,-0.6315,1.5768,rough,14.0,1,3.537
5880,188.16,7.5185,3.8718,-1.3892,-0.0215,-0.6425,1.5785,rough,14.0,1,3.537
5890,188.48,7.5192,3.8716,-1.3900,-0.0197,-0.6390,1.5759,rough,14.0,1,3.537
5900,188.80,7.5191,3.8715,-1.3902,-0.0195,-0.6378,1.5762,rough,14.0,1,3.537
5910,189.12,7.5191,3.8712,-1.3908,-0.0189,-0.6346,1.5765,rough,14.0,1,3.537
5920,189.44,7.5187,3.8715,-1.3901,-0.0203,-0.6382,1.5781,rough,14.0,1,3.537
5930,189.76,7.5190,3.8712,-1.3908,-0.0183,-0.6343,1.5758,rough,14.0,1,3.537
5940,190.08,7.5190,3.8716,-1.3899,-0.0199,-0.6393,1.5763,rough,14.0,1,3.537
5950,190.40,7.5190,3.8714,-1.3902,-0.0196,-0.6379,1.5766,rough,14.0,1,3.537
5960,190.72,7.5192,3.8712,-1.3909,-0.0185,-0.6342,1.5758,rough,14.0,1,3.537
5970,191.04,7.5194,3.8708,-1.3923,-0.0169,-0.6261,1.5762,rough,14.0,1,3.538
5980,191.36,7.5190,3.8713,-1.3910,-0.0187,-0.6334,1.5765,rough,14.0,1,3.537
5990,191.68,7.5192,3.8712,-1.3910,-0.0184,-0.6335,1.5759,rough,14.0,1,3.537
6000,192.00,7.5188,3.8716,-1.3899,-0.0204,-0.6393,1.5776,rough,14.0,1,3.537
6010,192.32,7.5193,3.8714,-1.3903,-0.0185,-0.6373,1.5744,rough,14.0,1,3.537
6020,192.64,7.5196,3.8711,-1.3914,-0.0174,-0.6312,1.5748,rough,14.0,1,3.538
6030,192.96,7.5198,3.8706,-1.3932,-0.0155,-0.6213,1.5753,rough,14.0,1,3.538
6040,193.28,7.5190,3.8713,-1.3909,-0.0193,-0.6336,1.5778,rough,14.0,1,3.537
6050,193.60,7.5192,3.8711,-1.3912,-0.0180,-0.6322,1.5758,rough,14.0,1,3.537
6060,193.92,7.5190,3.8715,-1.3902,-0.0194,-0.6375,1.5761,rough,14.0,1,3.537
6070,194.24,7.5189,3.8715,-1.3900,-0.0202,-0.6387,1.5773,rough,14.0,1,3.537
6080,194.56,7.5195,3.8711,-1.3915,-0.0173,-0.6309,1.5749,rough,14.0,1,3.538
6090,194.88,7.5197,3.8706,-1.3933,-0.0154,-0.6204,1.5754,rough,14.0,1,3.538
6100,195.20,7.5195,3.8710,-1.3920,-0.0169,-0.6281,1.5753,rough,14.0,1,3.538
6110,195.52,7.5193,3.8715,-1.3902,-0.0185,-0.6380,1.5739,rough,14.0,1,3.537
6120,195.84,7.5191,3.8717,-1.3893,-0.0207,-0.6428,1.5763,rough,14.0,1,3.537
6130,196.16,7.5191,3.8714,-1.3901,-0.0200,-0.6383,1.5770,rough,14.0,1,3.537
6140,196.48,7.5194,3.8710,-1.3915,-0.0176,-0.6308,1.5755,rough,14.0,1,3.538
6150,196.80,7.5192,3.8714,-1.3907,-0.0187,-0.6352,1.5755,rough,14.0,1,3.537
6160,197.12,7.5189,3.8714,-1.3903,-0.0200,-0.6373,1.5777,rough,14.0,1,3.537
6170,197.44,7.5187,3.8716,-1.3900,-0.0201,-0.6387,1.5772,rough,14.0,1,3.537
6180,197.76,7.5187,3.8716,-1.3896,-0.0206,-0.6413,1.5771,rough,14.0,1,3.537
6190,198.08,7.5189,3.8713,-1.3906,-0.0196,-0.6357,1.5776,rough,14.0,1,3.537
6200,198.40,7.5184,3.8715,-1.3900,-0.0206,-0.6382,1.5791,rough,14.0,1,3.537
6210,198.72,7.5187,3.8712,-1.3908,-0.0181,-0.6341,1.5765,rough,14.0,1,3.537
6220,199.04,7.5185,3.8716,-1.3896,-0.0197,-0.6410,1.5765,rough,14.0,1,3.537
6230,199.36,7.5191,3.8718,-1.3894,-0.0195,-0.6421,1.5742,rough,14.0,1,3.537
6240,199.68,7.5194,3.8716,-1.3900,-0.0194,-0.6391,1.5751,rough,14.0,1,3.537
6250,200.00,7.5194,3.8715,-1.3901,-0.0192,-0.6383,1.5752,rough,14.0,1,3.537
6260,200.32,7.5192,3.8713,-1.3905,-0.0193,-0.6359,1.5768,rough,14.0,1,3.537
6270,200.64,7.5193,3.8710,-1.3917,-0.0180,-0.6295,1.5771,rough,14.0,1,3.538
6280,200.96,7.5187,3.8715,-1.3899,-0.0202,-0.6395,1.5773,rough,14.0,1,3.537
6290,201.28,7.5192,3.8713,-1.3907,-0.0186,-0.6351,1.5756,rough,14.0,1,3.537
6300,201.60,7.5200,3.8707,-1.3932,-0.0149,-0.6214,1.5738,rough,14.0,1,3.538
6310,201.92,7.5193,3.8714,-1.3907,-0.0189,-0.6346,1.5763,rough,14.0,1,3.538
6320,202.24,7.5192,3.8712,-1.3909,-0.0189,-0.6338,1.5768,rough,14.0,1,3.537
6330,202.56,7.5194,3.8709,-1.3921,-0.0171,-0.6274,1.5758,rough,14.0,1,3.538
6340,202.88,7.5188,3.8716,-1.3899,-0.0203,-0.6395,1.5773,rough,14.0,1,3.537
6350,203.20,7.5190,3.8713,-1.3907,-0.0190,-0.6353,1.5766,rough,14.0,1,3.537
6360,203.52,7.5200,3.8707,-1.3932,-0.0150,-0.6216,1.5739,rough,14.0,1,3.538
6370,203.84,7.5193,3.8714,-1.3907,-0.0190,-0.6347,1.5764,rough,14.0,1,3.537
6380,204.16,7.5192,3.8712,-1.3909,-0.0189,-0.6339,1.5770,rough,14.0,1,3.537
6390,204.48,7.5194,3.8708,-1.3924,-0.0167,-0.6259,1.5759,rough,14.0,1,3.538
6400,204.80,7.5189,3.8713,-1.3908,-0.0193,-0.6342,1.5775,rough,14.0,1,3.537
6410,205.12,7.5191,3.8718,-1.3893,-0.0203,-0.6426,1.5755,rough,14.0,1,3.537
6420,205.44,7.5192,3.8716,-1.3899,-0.0199,-0.6391,1.5763,rough,14.0,1,3.537
6430,205.76,7.5191,3.8714,-1.3902,-0.0196,-0.6380,1.5765,rough,14.0,1,3.537
6440,206.08,7.5190,3.8712,-1.3908,-0.0189,-0.6345,1.5768,rough,14.0,1,3.537
6450,206.40,7.5188,3.8716,-1.3900,-0.0202,-0.6389,1.5773,rough,14.0,1,3.537
6460,206.72,7.5192,3.8713,-1.3911,-0.0185,-0.6324,1.5766,rough,14.0,1,3.537
6470,207.04,7.5192,3.8712,-1.3912,-0.0182,-0.6327,1.5758,rough,14.0,1,3.538
6480,207.36,7.5197,3.8706,-1.3933,-0.0148,-0.6208,1.5741,rough,14.0,1,3.538
6490,207.68,7.5192,3.8713,-1.3909,-0.0187,-0.6337,1.5763,rough,14.0,1,3.537
6500,208.00,7.5187,3.8718,-1.3893,-0.0209,-0.6423,1.5773,rough,14.0,1,3.537
6510,208.32,7.5193,3.8716,-1.3900,-0.0195,-0.6388,1.5756,rough,14.0,1,3.537
6520,208.64,7.5192,3.8715,-1.3902,-0.0193,-0.6377,1.5759,rough,14.0,1,3.537
6530,208.96,7.5191,3.8713,-1.3907,-0.0193,-0.6348,1.5774,rough,14.0,1,3.537
6540,209.28,7.5185,3.8715,-1.3901,-0.0203,-0.6376,1.5788,rough,14.0,1,3.537
6550,209.60,7.5188,3.8711,-1.3909,-0.0180,-0.6336,1.5762,rough,14.0,1,3.537
6560,209.92,7.5187,3.8713,-1.3906,-0.0183,-0.6350,1.5764,rough,14.0,1,3.537
6570,210.24,7.5181,3.8715,-1.3899,-0.0197,-0.6383,1.5783,rough,14.0,1,3.536
6580,210.56,7.5187,3.8711,-1.3914,-0.0167,-0.6305,1.5756,rough,14.0,1,3.537
6590,210.88,7.5195,3.8708,-1.3925,-0.0147,-0.6250,1.5728,rough,14.0,1,3.538
6600,211.20,7.5200,3.8711,-1.3920,-0.0155,-0.6284,1.5720,rough,14.0,1,3.538
6610,211.52,7.5199,3.8713,-1.3909,-0.0175,-0.6342,1.5733,rough,14.0,1,3.538
6620,211.84,7.5198,3.8713,-1.3907,-0.0180,-0.6351,1.5740,rough,14.0,1,3.538
6630,212.16,7.5195,3.8718,-1.3898,-0.0195,-0.6398,1.5747,rough,14.0,1,3.537
6640,212.48,7.5194,3.8716,-1.3902,-0.0193,-0.6377,1.5755,rough,14.0,1,3.537
6650,212.80,7.5194,3.8713,-1.3912,-0.0186,-0.6322,1.5765,rough,14.0,1,3.538
6660,213.12,7.5192,3.8712,-1.3911,-0.0186,-0.6329,1.5766,rough,14.0,1,3.537
6670,213.44,7.5187,3.8714,-1.3904,-0.0199,-0.6364,1.5780,rough,14.0,1,3.537
6680,213.76,7.5184,3.8716,-1.3896,-0.0205,-0.6406,1.5781,rough,14.0,1,3.537
6690,214.08,7.5184,3.8714,-1.3900,-0.0195,-0.6384,1.5774,rough,14.0,1,3.537
6700,214.40,7.5188,3.8715,-1.3901,-0.0188,-0.6379,1.5755,rough,14.0,1,3.537
6710,214.72,7.5196,3.8713,-1.3912,-0.0175,-0.6321,1.5743,rough,14.0,1,3.538
6720,215.04,7.5195,3.8712,-1.3910,-0.0184,-0.6335,1.5757,rough,14.0,1,3.538
6730,215.36,7.5194,3.8709,-1.3922,-0.0174,-0.6267,1.5769,rough,14.0,1,3.538
6740,215.68,7.5189,3.8713,-1.3908,-0.0191,-0.6342,1.5771,rough,14.0,1,3.537
6750,216.00,7.5192,3.8718,-1.3893,-0.0202,-0.6427,1.5752,rough,14.0,1,3.537
6760,216.32,7.5193,3.8716,-1.3899,-0.0198,-0.6394,1.5759,rough,14.0,1,3.537
6770,216.64,7.5189,3.8717,-1.3894,-0.0211,-0.6419,1.5776,rough,14.0,1,3.537
6780,216.96,7.5191,3.8713,-1.3906,-0.0190,-0.6356,1.5763,rough,14.0,1,3.537
6790,217.28,7.5195,3.8710,-1.3917,-0.0175,-0.6298,1.5757,rough,14.0,1,3.538
6800,217.60,7.5191,3.8714,-1.3907,-0.0191,-0.6347,1.5768,rough,14.0,1,3.537
6810,217.92,7.5195,3.8713,-1.3909,-0.0182,-0.6339,1.5752,rough,14.0,1,3.538
6820,218.24,7.5191,3.8715,-1.3902,-0.0194,-0.6378,1.5760,rough,14.0,1,3.537
6830,218.56,7.5187,3.8716,-1.3895,-0.0211,-0.6416,1.5781,rough,14.0,1,3.537
6840,218.88,7.5189,3.8712,-1.3908,-0.0192,-0.6346,1.5772,rough,14.0,1,3.537
6850,219.20,7.5188,3.8714,-1.3905,-0.0195,-0.6360,1.5775,rough,14.0,1,3.537
6860,219.52,7.5187,3.8710,-1.3913,-0.0177,-0.6310,1.5769,rough,14.0,1,3.537
6870,219.84,7.5184,3.8714,-1.3901,-0.0190,-0.6379,1.5769,rough,14.0,1,3.537
6880,220.16,7.5189,3.8715,-1.3902,-0.0184,-0.6374,1.5748,rough,14.0,1,3.537
6890,220.48,7.5196,3.8713,-1.3912,-0.0174,-0.6320,1.5743,rough,14.0,1,3.538
6900,220.80,7.5195,3.8712,-1.3910,-0.0184,-0.6335,1.5757,rough,14.0,1,3.538
6910,221.12,7.5194,3.8709,-1.3922,-0.0174,-0.6267,1.5769,rough,14.0,1,3.538
6920,221.44,7.5190,3.8713,-1.3908,-0.0191,-0.6343,1.5771,rough,14.0,1,3.537
6930,221.76,7.5190,3.8718,-1.3893,-0.0202,-0.6427,1.5753,rough,14.0,1,3.537
6940,222.08,7.5192,3.8716,-1.3899,-0.0199,-0.6391,1.5763,rough,14.0,1,3.537
6950,222.40,7.5191,3.8715,-1.3902,-0.0196,-0.6380,1.5765,rough,14.0,1,3.537
6960,222.72,7.5190,3.8712,-1.3908,-0.0189,-0.6345,1.5768,rough,14.0,1,3.537
6970,223.04,7.5188,3.8716,-1.3899,-0.0202,-0.6391,1.5773,rough,14.0,1,3.537
6980,223.36,7.5189,3.8714,-1.3903,-0.0194,-0.6374,1.5764,rough,14.0,1,3.537
6990,223.68,7.5194,3.8711,-1.3915,-0.0175,-0.6308,1.5752,rough,14.0,1,3.538
7000,224.00,7.5191,3.8714,-1.3906,-0.0190,-0.6354,1.5762,rough,14.0,1,3.537
7010,224.32,7.5189,3.8714,-1.3904,-0.0196,-0.6368,1.5772,rough,14.0,1,3.537
7020,224.64,7.5193,3.8708,-1.3924,-0.0169,-0.6258,1.5762,rough,14.0,1,3.538
7030,224.96,7.5186,3.8713,-1.3905,-0.0198,-0.6358,1.5784,rough,14.0,1,3.537
7040,225.28,7.5187,3.8714,-1.3902,-0.0193,-0.6377,1.5768,rough,14.0,1,3.537
7050,225.60,7.5194,3.8712,-1.3910,-0.0176,-0.6337,1.5743,rough,14.0,1,3.538
7060,225.92,7.5195,3.8709,-1.3922,-0.0169,-0.6266,1.5759,rough,14.0,1,3.538
7070,226.24,7.5190,3.8713,-1.3907,-0.0193,-0.6346,1.5773,rough,14.0,1,3.537
7080,226.56,7.5194,3.8713,-1.3910,-0.0181,-0.6337,1.5751,rough,14.0,1,3.538
7090,226.88,7.5191,3.8715,-1.3902,-0.0193,-0.6374,1.5760,rough,14.0,1,3.537
7100,227.20,7.5190,3.8714,-1.3901,-0.0196,-0.6381,1.5764,rough,14.0,1,3.537
7110,227.52,7.5191,3.8713,-1.3907,-0.0191,-0.6347,1.5770,rough,14.0,1,3.537
7120,227.84,7.5194,3.8708,-1.3926,-0.0165,-0.6248,1.5760,rough,14.0,1,3.538
7130,228.16,7.5191,3.8712,-1.3908,-0.0187,-0.6348,1.5761,rough,14.0,1,3.537
7140,228.48,7.5192,3.8715,-1.3903,-0.0186,-0.6376,1.5746,rough,14.0,1,3.537
7150,228.80,7.5193,3.8715,-1.3901,-0.0191,-0.6383,1.5750,rough,14.0,1,3.537
7160,229.12,7.5192,3.8713,-1.3906,-0.0193,-0.6358,1.5766,rough,14.0,1,3.537
7170,229.44,7.5193,3.8710,-1.3917,-0.0180,-0.6295,1.5770,rough,14.0,1,3.538
7180,229.76,7.5188,3.8715,-1.3899,-0.0202,-0.6395,1.5772,rough,14.0,1,3.537
7190,230.08,7.5190,3.8713,-1.3907,-0.0189,-0.6352,1.5765,rough,14.0,1,3.537
7200,230.40,7.5200,3.8707,-1.3932,-0.0150,-0.6215,1.5738,rough,14.0,1,3.538
7210,230.72,7.5193,3.8714,-1.3907,-0.0190,-0.6347,1.5764,rough,14.0,1,3.537
7220,231.04,7.5192,3.8712,-1.3909,-0.0189,-0.6339,1.5769,rough,14.0,1,3.537
7230,231.36,7.5194,3.8709,-1.3921,-0.0171,-0.6275,1.5759,rough,14.0,1,3.538
7240,231.68,7.5188,3.8716,-1.3898,-0.0203,-0.6396,1.5774,rough,14.0,1,3.537
7250,232.00,7.5190,3.8713,-1.3907,-0.0190,-0.6353,1.5767,rough,14.0,1,3.537
7260,232.32,7.5199,3.8707,-1.3932,-0.0150,-0.6215,1.5740,rough,14.0,1,3.538
7270,232.64,7.5193,3.8714,-1.3907,-0.0191,-0.6345,1.5766,rough,14.0,1,3.537
7280,232.96,7.5191,3.8712,-1.3909,-0.0189,-0.6337,1.5771,rough,14.0,1,3.537
7290,233.28,7.5193,3.8708,-1.3924,-0.0166,-0.6255,1.5760,rough,14.0,1,3.538
7300,233.60,7.5191,3.8713,-1.3907,-0.0188,-0.6354,1.5762,rough,14.0,1,3.537
7310,233.92,7.5193,3.8710,-1.3917,-0.0178,-0.6298,1.5763,rough,14.0,1,3.538
7320,234.24,7.5194,3.8714,-1.3908,-0.0183,-0.6346,1.5752,rough,14.0,1,3.538
7330,234.56,7.5194,3.8713,-1.3909,-0.0186,-0.6341,1.5759,rough,14.0,1,3.538
7340,234.88,7.5190,3.8715,-1.3902,-0.0196,-0.6378,1.5768,rough,14.0,1,3.537
7350,235.20,7.5187,3.8716,-1.3896,-0.0207,-0.6411,1.5776,rough,14.0,1,3.537
7360,235.52,7.5190,3.8713,-1.3907,-0.0191,-0.6347,1.5769,rough,14.0,1,3.537
7370,235.84,7.5192,3.8715,-1.3903,-0.0185,-0.6375,1.5743,rough,14.0,1,3.537
7380,236.16,7.5192,3.8715,-1.3901,-0.0192,-0.6383,1.5753,rough,14.0,1,3.537
7390,236.48,7.5192,3.8713,-1.3906,-0.0193,-0.6354,1.5769,rough,14.0,1,3.537
7400,236.80,7.5193,3.8709,-1.3919,-0.0174,-0.6286,1.5761,rough,14.0,1,3.538
7410,237.12,7.5187,3.8716,-1.3897,-0.0205,-0.6401,1.5776,rough,14.0,1,3.537
7420,237.44,7.5190,3.8712,-1.3911,-0.0186,-0.6329,1.5767,rough,14.0,1,3.537
7430,237.76,7.5194,3.8708,-1.3923,-0.0168,-0.6261,1.5760,rough,14.0,1,3.538
7440,238.08,7.5191,3.8713,-1.3909,-0.0187,-0.6337,1.5764,rough,14.0,1,3.537
7450,238.40,7.5191,3.8712,-1.3909,-0.0189,-0.6339,1.5769,rough,14.0,1,3.537
7460,238.72,7.5186,3.8715,-1.3901,-0.0202,-0.6376,1.5784,rough,14.0,1,3.537
7470,239.04,7.5189,3.8711,-1.3910,-0.0180,-0.6336,1.5760,rough,14.0,1,3.537
7480,239.36,7.5189,3.8713,-1.3907,-0.0185,-0.6350,1.5762,rough,14.0,1,3.537
7490,239.68,7.5184,3.8715,-1.3900,-0.0200,-0.6383,1.5782,rough,14.0,1,3.537
7500,240.00,7.5189,3.8711,-1.3915,-0.0171,-0.6305,1.5756,rough,14.0,1,3.537
7510,240.32,7.5198,3.8708,-1.3926,-0.0152,-0.6250,1.5730,rough,14.0,1,3.538
7520,240.64,7.5194,3.8714,-1.3907,-0.0188,-0.6351,1.5758,rough,14.0,1,3.538
7530,240.96,7.5194,3.8710,-1.3920,-0.0173,-0.6280,1.5761,rough,14.0,1,3.538
7540,241.28,7.5192,3.8715,-1.3902,-0.0187,-0.6379,1.5746,rough,14.0,1,3.537
7550,241.60,7.5189,3.8717,-1.3894,-0.0208,-0.6421,1.5770,rough,14.0,1,3.537
7560,241.92,7.5192,3.8713,-1.3906,-0.0189,-0.6358,1.5759,rough,14.0,1,3.537
7570,242.24,7.5196,3.8710,-1.3915,-0.0175,-0.6307,1.5753,rough,14.0,1,3.538
7580,242.56,7.5192,3.8714,-1.3906,-0.0191,-0.6355,1.5764,rough,14.0,1,3.537
7590,242.88,7.5196,3.8710,-1.3920,-0.0164,-0.6278,1.5742,rough,14.0,1,3.538
7600,243.20,7.5192,3.8715,-1.3901,-0.0192,-0.6381,1.5755,rough,14.0,1,3.537
7610,243.52,7.5188,3.8717,-1.3894,-0.0211,-0.6422,1.5777,rough,14.0,1,3.537
7620,243.84,7.5192,3.8713,-1.3907,-0.0186,-0.6355,1.5755,rough,14.0,1,3.537
7630,244.16,7.5197,3.8710,-1.3916,-0.0172,-0.6305,1.5747,rough,14.0,1,3.538
7640,244.48,7.5193,3.8714,-1.3906,-0.0189,-0.6354,1.5759,rough,14.0,1,3.537
7650,244.80,7.5194,3.8710,-1.3919,-0.0174,-0.6284,1.5762,rough,14.0,1,3.538
7660,245.12,7.5186,3.8717,-1.3895,-0.0208,-0.6412,1.5777,rough,14.0,1,3.537
7670,245.44,7.5189,3.8714,-1.3904,-0.0194,-0.6366,1.5768,rough,14.0,1,3.537
7680,245.76,7.5190,3.8712,-1.3910,-0.0187,-0.6336,1.5766,rough,14.0,1,3.537
7690,246.08,7.5194,3.8709,-1.3921,-0.0170,-0.6272,1.5760,rough,14.0,1,3.538
7700,246.40,7.5188,3.8715,-1.3899,-0.0202,-0.6391,1.5774,rough,14.0,1,3.537
7710,246.72,7.5192,3.8712,-1.3908,-0.0185,-0.6346,1.5756,rough,14.0,1,3.537
7720,247.04,7.5193,3.8709,-1.3921,-0.0175,-0.6269,1.5771,rough,14.0,1,3.538
7730,247.36,7.5189,3.8710,-1.3915,-0.0181,-0.6301,1.5773,rough,14.0,1,3.537
7740,247.68,7.5186,3.8715,-1.3900,-0.0198,-0.6383,1.5774,rough,14.0,1,3.537
7750,248.00,7.5190,3.8712,-1.3909,-0.0179,-0.6342,1.5753,rough,14.0,1,3.537
7760,248.32,7.5192,3.8716,-1.3899,-0.0196,-0.6396,1.5755,rough,14.0,1,3.537
7770,248.64,7.5189,3.8717,-1.3894,-0.0210,-0.6418,1.5774,rough,14.0,1,3.537
7780,248.96,7.5191,3.8713,-1.3906,-0.0189,-0.6355,1.5762,rough,14.0,1,3.537
7790,249.28,7.5195,3.8710,-1.3917,-0.0174,-0.6297,1.5756,rough,14.0,1,3.538
7800,249.60,7.5191,3.8714,-1.3907,-0.0190,-0.6346,1.5767,rough,14.0,1,3.537
7810,249.92,7.5195,3.8713,-1.3909,-0.0181,-0.6339,1.5751,rough,14.0,1,3.538
7820,250.24,7.5192,3.8715,-1.3902,-0.0193,-0.6378,1.5759,rough,14.0,1,3.537
7830,250.56,7.5187,3.8717,-1.3894,-0.0211,-0.6418,1.5780,rough,14.0,1,3.537
7840,250.88,7.5189,3.8713,-1.3906,-0.0195,-0.6358,1.5772,rough,14.0,1,3.537
7850,251.20,7.5185,3.8715,-1.3900,-0.0206,-0.6383,1.5787,rough,14.0,1,3.537
7860,251.52,7.5188,3.8712,-1.3908,-0.0182,-0.6342,1.5763,rough,14.0,1,3.537
7870,251.84,7.5187,3.8716,-1.3896,-0.0198,-0.6410,1.5763,rough,14.0,1,3.537
7880,252.16,7.5194,3.8713,-1.3908,-0.0184,-0.6345,1.5753,rough,14.0,1,3.538
7890,252.48,7.5188,3.8717,-1.3894,-0.0211,-0.6416,1.5779,rough,14.0,1,3.537
7900,252.80,7.5187,3.8715,-1.3902,-0.0201,-0.6376,1.5779,rough,14.0,1,3.537
7910,253.12,7.5191,3.8712,-1.3910,-0.0181,-0.6337,1.5757,rough,14.0,1,3.537
7920,253.44,7.5189,3.8716,-1.3900,-0.0201,-0.6389,1.5771,rough,14.0,1,3.537
7930,253.76,7.5190,3.8712,-1.3911,-0.0188,-0.6324,1.5772,rough,14.0,1,3.537
7940,254.08,7.5186,3.8716,-1.3898,-0.0204,-0.6394,1.5776,rough,14.0,1,3.537
