step,time_s,x,y,z,roll,pitch,yaw,terrain,speed,target_idx,dist_to_target
10,0.32,2.1824,0.5010,0.1857,0.0000,-0.0398,0.0000,rough,14.0,0,6.242
20,0.64,2.6138,0.5076,0.1799,0.0001,0.0000,0.0429,rough,14.0,0,5.823
30,0.96,3.0530,0.5293,0.1799,0.0001,0.0000,0.0900,rough,14.0,0,5.395
40,1.28,3.4911,0.5715,0.1799,0.0001,-0.0000,0.1307,rough,14.0,0,4.963
50,1.60,3.9276,0.6312,0.1799,0.0001,-0.0000,0.1670,rough,14.0,0,4.529
60,1.92,4.3621,0.7067,0.1799,0.0001,-0.0000,0.2001,rough,14.0,0,4.093
70,2.24,4.7938,0.7966,0.1799,0.0001,0.0000,0.2295,rough,14.0,0,3.656
80,2.56,5.2225,0.8991,0.1799,0.0001,-0.0000,0.2564,rough,14.0,0,3.218
90,2.88,5.6481,1.0131,0.1799,0.0001,-0.0000,0.2829,rough,14.0,0,2.780
100,3.20,6.0703,1.1384,0.1799,0.0001,0.0000,0.3097,rough,14.0,0,2.341
110,3.52,6.4884,1.2750,0.1799,0.0001,0.0000,0.3377,rough,14.0,0,1.903
120,3.84,6.8923,1.4144,0.1894,0.0285,-0.0619,0.3692,rough,14.0,0,1.478
130,4.16,7.2405,1.5523,0.2534,0.0270,-0.3071,0.3897,rough,14.0,0,1.104
140,4.48,7.4931,1.6716,0.3678,-0.0097,-0.5425,0.3434,rough,14.0,0,0.824
150,4.80,7.6797,1.7576,0.4910,-0.2369,-0.5187,0.7873,rough,14.0,1,5.089
160,5.12,7.8290,1.8949,0.5877,-0.2758,-0.4348,1.0438,rough,14.0,1,5.079
170,5.44,7.9575,2.0766,0.6735,-0.2285,-0.3311,1.2055,rough,14.0,1,5.029
180,5.76,8.0516,2.2869,0.7487,-0.2281,-0.3001,1.3527,rough,14.0,1,4.944
190,6.08,8.1081,2.5053,0.8157,-0.2322,-0.3090,1.4580,rough,14.0,1,4.836
200,6.40,8.1444,2.7277,0.8802,-0.1989,-0.3130,1.5315,rough,14.0,1,4.717
210,6.72,8.1227,2.9593,0.9442,-0.2016,-0.3220,1.7006,rough,14.0,1,4.555
220,7.04,8.0296,3.2284,1.0290,-0.2470,-0.3239,1.9159,rough,14.0,1,4.320
230,7.36,7.8959,3.4689,1.1058,-0.3336,-0.2863,2.0794,rough,14.0,1,4.073
240,7.68,7.7046,3.7014,1.1719,-0.3823,-0.2286,2.2651,rough,14.0,1,3.785
250,8.00,7.4416,3.9234,1.2255,-0.4354,-0.1169,2.4504,rough,14.0,1,3.444
260,8.32,7.1127,4.0931,1.2160,-0.5124,0.0536,2.6189,rough,14.0,1,3.075
270,8.64,6.7395,4.2183,1.1668,-0.5851,0.1652,2.7174,rough,14.0,1,2.695
280,8.96,6.3434,4.3344,1.0966,-0.6530,0.1067,2.7232,rough,14.0,1,2.307
290,9.28,6.2127,4.3519,1.0541,-0.5636,0.2602,3.0033,rough,14.0,1,2.194
300,9.60,6.2128,4.3400,1.0468,-0.5672,0.2464,2.9864,rough,14.0,1,2.201
310,9.92,6.2127,4.3351,1.0436,-0.5686,0.2393,2.9754,rough,14.0,1,2.204
320,10.24,6.2127,4.3331,1.0423,-0.5692,0.2363,2.9707,rough,14.0,1,2.206
330,10.56,6.2127,4.3324,1.0418,-0.5693,0.2355,2.9693,rough,14.0,1,2.206
340,10.88,6.2127,4.3322,1.0417,-0.5694,0.2353,2.9689,rough,14.0,1,2.206
350,11.20,6.2127,4.3321,1.0416,-0.5694,0.2353,2.9688,rough,14.0,1,2.206
360,11.52,6.2126,4.3321,1.0416,-0.5694,0.2356,2.9692,rough,14.0,1,2.206
370,11.84,6.2126,4.3318,1.0414,-0.5694,0.2353,2.9687,rough,14.0,1,2.206
380,12.16,6.2126,4.3318,1.0414,-0.5695,0.2353,2.9687,rough,14.0,1,2.206
390,12.48,6.2125,4.3317,1.0413,-0.5695,0.2354,2.9686,rough,14.0,1,2.206
400,12.80,6.2125,4.3317,1.0413,-0.5695,0.2354,2.9686,rough,14.0,1,2.206
410,13.12,6.2125,4.3316,1.0412,-0.5695,0.2354,2.9687,rough,14.0,1,2.206
420,13.44,6.2125,4.3315,1.0411,-0.5695,0.2354,2.9686,rough,14.0,1,2.207
430,13.76,6.2125,4.3315,1.0411,-0.5696,0.2354,2.9686,rough,14.0,1,2.207
440,14.08,6.2124,4.3314,1.0410,-0.5696,0.2354,2.9685,rough,14.0,1,2.207
450,14.40,6.2123,4.3313,1.0410,-0.5698,0.2352,2.9683,rough,14.0,1,2.206
460,14.72,6.2122,4.3313,1.0409,-0.5699,0.2353,2.9684,rough,14.0,1,2.206
470,15.04,6.2121,4.3313,1.0409,-0.5699,0.2353,2.9683,rough,14.0,1,2.206
480,15.36,6.2121,4.3313,1.0409,-0.5699,0.2354,2.9683,rough,14.0,1,2.206
490,15.68,6.2121,4.3313,1.0408,-0.5699,0.2354,2.9683,rough,14.0,1,2.206
500,16.00,6.2121,4.3312,1.0408,-0.5700,0.2355,2.9682,rough,14.0,1,2.206
510,16.32,6.2121,4.3312,1.0408,-0.5700,0.2355,2.9682,rough,14.0,1,2.206
520,16.64,6.2122,4.3312,1.0408,-0.5698,0.2358,2.9684,rough,14.0,1,2.207
530,16.96,6.2123,4.3311,1.0407,-0.5698,0.2358,2.9683,rough,14.0,1,2.207
540,17.28,6.2122,4.3310,1.0407,-0.5698,0.2358,2.9683,rough,14.0,1,2.207
550,17.60,6.2122,4.3310,1.0406,-0.5698,0.2359,2.9682,rough,14.0,1,2.207
560,17.92,6.2122,4.3309,1.0406,-0.5699,0.2357,2.9681,rough,14.0,1,2.207
570,18.24,6.2120,4.3309,1.0405,-0.5700,0.2356,2.9680,rough,14.0,1,2.207
580,18.56,6.2120,4.3309,1.0405,-0.5700,0.2357,2.9681,rough,14.0,1,2.207
590,18.88,6.2120,4.3308,1.0405,-0.5701,0.2357,2.9681,rough,14.0,1,2.207
600,19.20,6.2120,4.3308,1.0404,-0.5701,0.2358,2.9680,rough,14.0,1,2.207
610,19.52,6.2121,4.3308,1.0405,-0.5699,0.2361,2.9682,rough,14.0,1,2.207
620,19.84,6.2122,4.3307,1.0404,-0.5698,0.2360,2.9681,rough,14.0,1,2.207
630,20.16,6.2122,4.3306,1.0404,-0.5698,0.2360,2.9681,rough,14.0,1,2.207
640,20.48,6.2122,4.3306,1.0403,-0.5698,0.2360,2.9681,rough,14.0,1,2.207
650,20.80,6.2122,4.3305,1.0403,-0.5699,0.2360,2.9681,rough,14.0,1,2.207
660,21.12,6.2121,4.3304,1.0402,-0.5699,0.2360,2.9681,rough,14.0,1,2.207
670,21.44,6.2121,4.3304,1.0402,-0.5698,0.2360,2.9681,rough,14.0,1,2.207
680,21.76,6.2121,4.3303,1.0402,-0.5699,0.2360,2.9680,rough,14.0,1,2.207
690,22.08,6.2121,4.3303,1.0401,-0.5699,0.2360,2.9680,rough,14.0,1,2.207
700,22.40,6.2121,4.3302,1.0401,-0.5699,0.2361,2.9680,rough,14.0,1,2.207
710,22.72,6.2121,4.3302,1.0401,-0.5699,0.2361,2.9680,rough,14.0,1,2.207
720,23.04,6.2121,4.3302,1.0400,-0.5699,0.2361,2.9680,rough,14.0,1,2.207
730,23.36,6.2121,4.3301,1.0400,-0.5699,0.2361,2.9680,rough,14.0,1,2.207
740,23.68,6.2120,4.3301,1.0399,-0.5700,0.2361,2.9679,rough,14.0,1,2.207
750,24.00,6.2120,4.3300,1.0399,-0.5700,0.2361,2.9679,rough,14.0,1,2.207
760,24.32,6.2120,4.3300,1.0399,-0.5700,0.2361,2.9679,rough,14.0,1,2.207
770,24.64,6.2120,4.3300,1.0399,-0.5699,0.2362,2.9681,rough,14.0,1,2.207
780,24.96,6.2120,4.3299,1.0398,-0.5700,0.2361,2.9679,rough,14.0,1,2.207
790,25.28,6.2120,4.3299,1.0398,-0.5700,0.2362,2.9679,rough,14.0,1,2.207
800,25.60,6.2120,4.3298,1.0397,-0.5700,0.2362,2.9679,rough,14.0,1,2.207
810,25.92,6.2119,4.3298,1.0397,-0.5700,0.2362,2.9678,rough,14.0,1,2.207
820,26.24,6.2119,4.3298,1.0397,-0.5699,0.2364,2.9682,rough,14.0,1,2.207
830,26.56,6.2119,4.3297,1.0397,-0.5701,0.2362,2.9678,rough,14.0,1,2.207
840,26.88,6.2119,4.3297,1.0396,-0.5701,0.2362,2.9678,rough,14.0,1,2.207
850,27.20,6.2119,4.3296,1.0396,-0.5701,0.2362,2.9678,rough,14.0,1,2.207
860,27.52,6.2119,4.3296,1.0396,-0.5701,0.2363,2.9678,rough,14.0,1,2.207
870,27.84,6.2119,4.3296,1.0396,-0.5701,0.2364,2.9679,rough,14.0,1,2.207
880,28.16,6.2119,4.3295,1.0395,-0.5701,0.2363,2.9677,rough,14.0,1,2.207
890,28.48,6.2118,4.3295,1.0395,-0.5701,0.2363,2.9677,rough,14.0,1,2.207
900,28.80,6.2118,4.3295,1.0395,-0.5701,0.2363,2.9677,rough,14.0,1,2.207
910,29.12,6.2118,4.3294,1.0394,-0.5702,0.2363,2.9677,rough,14.0,1,2.207
920,29.44,6.2118,4.3294,1.0394,-0.5702,0.2364,2.9677,rough,14.0,1,2.207
930,29.76,6.2118,4.3293,1.0394,-0.5702,0.2363,2.9676,rough,14.0,1,2.207
940,30.08,6.2118,4.3293,1.0393,-0.5702,0.2364,2.9676,rough,14.0,1,2.207
950,30.40,6.2118,4.3293,1.0393,-0.5702,0.2364,2.9676,rough,14.0,1,2.207
960,30.72,6.2118,4.3293,1.0393,-0.5702,0.2364,2.9676,rough,14.0,1,2.207
970,31.04,6.2118,4.3292,1.0393,-0.5702,0.2364,2.9676,rough,14.0,1,2.207
980,31.36,6.2117,4.3292,1.0392,-0.5702,0.2364,2.9676,rough,14.0,1,2.207
990,31.68,6.2117,4.3292,1.0392,-0.5702,0.2364,2.9676,rough,14.0,1,2.207
1000,32.00,6.2117,4.3291,1.0392,-0.5702,0.2364,2.9676,rough,14.0,1,2.207
1010,32.32,6.2117,4.3291,1.0392,-0.5702,0.2364,2.9675,rough,14.0,1,2.207
1020,32.64,6.2117,4.3291,1.0392,-0.5703,0.2365,2.9675,rough,14.0,1,2.207
1030,32.96,6.2117,4.3291,1.0391,-0.5702,0.2364,2.9675,rough,14.0,1,2.208
1040,33.28,6.2117,4.3290,1.0391,-0.5703,0.2365,2.9675,rough,14.0,1,2.208
1050,33.60,6.2117,4.3290,1.0391,-0.5703,0.2365,2.9675,rough,14.0,1,2.208
1060,33.92,6.2117,4.3290,1.0391,-0.5703,0.2365,2.9675,rough,14.0,1,2.208
1070,34.24,6.2117,4.3290,1.0390,-0.5703,0.2365,2.9675,rough,14.0,1,2.208
1080,34.56,6.2117,4.3289,1.0390,-0.5702,0.2365,2.9675,rough,14.0,1,2.208
1090,34.88,6.2117,4.3289,1.0390,-0.5703,0.2365,2.9675,rough,14.0,1,2.208
1100,35.20,6.2117,4.3289,1.0390,-0.5703,0.2366,2.9675,rough,14.0,1,2.208
1110,35.52,6.2117,4.3288,1.0390,-0.5703,0.2366,2.9675,rough,14.0,1,2.208
1120,35.84,6.2117,4.3288,1.0389,-0.5703,0.2366,2.9675,rough,14.0,1,2.208
1130,36.16,6.2117,4.3288,1.0389,-0.5703,0.2366,2.9674,rough,14.0,1,2.208
1140,36.48,6.2117,4.3288,1.0389,-0.5703,0.2366,2.9674,rough,14.0,1,2.208
1150,36.80,6.2117,4.3287,1.0389,-0.5703,0.2366,2.9674,rough,14.0,1,2.208
1160,37.12,6.2116,4.3287,1.0389,-0.5703,0.2366,2.9674,rough,14.0,1,2.208
1170,37.44,6.2116,4.3287,1.0388,-0.5703,0.2366,2.9674,rough,14.0,1,2.208
1180,37.76,6.2116,4.3286,1.0388,-0.5703,0.2366,2.9674,rough,14.0,1,2.208
1190,38.08,6.2116,4.3286,1.0388,-0.5703,0.2366,2.9674,rough,14.0,1,2.208
1200,38.40,6.2116,4.3286,1.0388,-0.5703,0.2367,2.9674,rough,14.0,1,2.208
1210,38.72,6.2116,4.3286,1.0388,-0.5703,0.2366,2.9674,rough,14.0,1,2.208
1220,39.04,6.2116,4.3285,1.0387,-0.5703,0.2367,2.9674,rough,14.0,1,2.208
1230,39.36,6.2116,4.3285,1.0387,-0.5702,0.2367,2.9674,rough,14.0,1,2.208
1240,39.68,6.2116,4.3285,1.0387,-0.5703,0.2367,2.9673,rough,14.0,1,2.208
1250,40.00,6.2116,4.3284,1.0387,-0.5703,0.2367,2.9674,rough,14.0,1,2.208
1260,40.32,6.2116,4.3284,1.0387,-0.5703,0.2367,2.9674,rough,14.0,1,2.208
1270,40.64,6.2116,4.3284,1.0386,-0.5703,0.2367,2.9673,rough,14.0,1,2.208
1280,40.96,6.2116,4.3284,1.0386,-0.5702,0.2368,2.9675,rough,14.0,1,2.208
1290,41.28,6.2116,4.3283,1.0386,-0.5703,0.2367,2.9673,rough,14.0,1,2.208
1300,41.60,6.2116,4.3283,1.0386,-0.5703,0.2367,2.9673,rough,14.0,1,2.208
1310,41.92,6.2116,4.3283,1.0386,-0.5703,0.2368,2.9673,rough,14.0,1,2.208
1320,42.24,6.2116,4.3283,1.0385,-0.5703,0.2368,2.9673,rough,14.0,1,2.208
1330,42.56,6.2116,4.3283,1.0386,-0.5702,0.2370,2.9677,rough,14.0,1,2.208
1340,42.88,6.2116,4.3282,1.0385,-0.5703,0.2368,2.9673,rough,14.0,1,2.208
1350,43.20,6.2116,4.3282,1.0385,-0.5703,0.2368,2.9673,rough,14.0,1,2.208
1360,43.52,6.2116,4.3282,1.0385,-0.5703,0.2368,2.9673,rough,14.0,1,2.208
1370,43.84,6.2116,4.3281,1.0385,-0.5703,0.2368,2.9673,rough,14.0,1,2.208
1380,44.16,6.2116,4.3281,1.0385,-0.5703,0.2369,2.9674,rough,14.0,1,2.208
1390,44.48,6.2116,4.3281,1.0384,-0.5703,0.2368,2.9672,rough,14.0,1,2.208
1400,44.80,6.2116,4.3280,1.0384,-0.5703,0.2368,2.9673,rough,14.0,1,2.208
1410,45.12,6.2116,4.3280,1.0384,-0.5703,0.2368,2.9672,rough,14.0,1,2.208
1420,45.44,6.2116,4.3280,1.0384,-0.5703,0.2368,2.9673,rough,14.0,1,2.208
1430,45.76,6.2116,4.3280,1.0383,-0.5703,0.2369,2.9672,rough,14.0,1,2.208
1440,46.08,6.2116,4.3279,1.0383,-0.5703,0.2368,2.9672,rough,14.0,1,2.208
1450,46.40,6.2116,4.3279,1.0383,-0.5703,0.2369,2.9672,rough,14.0,1,2.208
1460,46.72,6.2116,4.3279,1.0383,-0.5703,0.2369,2.9672,rough,14.0,1,2.208
1470,47.04,6.2116,4.3279,1.0383,-0.5703,0.2369,2.9672,rough,14.0,1,2.208
1480,47.36,6.2116,4.3278,1.0382,-0.5703,0.2369,2.9672,rough,14.0,1,2.208
1490,47.68,6.2116,4.3278,1.0382,-0.5703,0.2369,2.9672,rough,14.0,1,2.208
1500,48.00,6.2116,4.3278,1.0382,-0.5703,0.2369,2.9672,rough,14.0,1,2.208
1510,48.32,6.2116,4.3278,1.0382,-0.5703,0.2369,2.9672,rough,14.0,1,2.208
1520,48.64,6.2116,4.3277,1.0382,-0.5703,0.2369,2.9672,rough,14.0,1,2.208
1530,48.96,6.2116,4.3277,1.0382,-0.5703,0.2369,2.9672,rough,14.0,1,2.208
1540,49.28,6.2116,4.3277,1.0381,-0.5703,0.2369,2.9672,rough,14.0,1,2.208
1550,49.60,6.2116,4.3277,1.0381,-0.5703,0.2369,2.9672,rough,14.0,1,2.208
1560,49.92,6.2116,4.3276,1.0381,-0.5703,0.2369,2.9672,rough,14.0,1,2.208
1570,50.24,6.2116,4.3276,1.0381,-0.5703,0.2369,2.9672,rough,14.0,1,2.208
1580,50.56,6.2116,4.3276,1.0381,-0.5703,0.2369,2.9672,rough,14.0,1,2.208
1590,50.88,6.2116,4.3276,1.0380,-0.5703,0.2369,2.9671,rough,14.0,1,2.208
1600,51.20,6.2116,4.3275,1.0380,-0.5703,0.2369,2.9672,rough,14.0,1,2.208
1610,51.52,6.2116,4.3275,1.0380,-0.5703,0.2369,2.9671,rough,14.0,1,2.208
1620,51.84,6.2116,4.3275,1.0380,-0.5703,0.2370,2.9672,rough,14.0,1,2.208
1630,52.16,6.2115,4.3275,1.0380,-0.5703,0.2370,2.9671,rough,14.0,1,2.208
1640,52.48,6.2115,4.3274,1.0380,-0.5703,0.2369,2.9671,rough,14.0,1,2.208
1650,52.80,6.2115,4.3274,1.0379,-0.5703,0.2370,2.9671,rough,14.0,1,2.208
1660,53.12,6.2115,4.3274,1.0379,-0.5703,0.2370,2.9671,rough,14.0,1,2.208
1670,53.44,6.2115,4.3274,1.0379,-0.5703,0.2370,2.9671,rough,14.0,1,2.208
1680,53.76,6.2115,4.3273,1.0379,-0.5703,0.2370,2.9671,rough,14.0,1,2.208
1690,54.08,6.2115,4.3273,1.0379,-0.5703,0.2370,2.9671,rough,14.0,1,2.209
1700,54.40,6.2115,4.3273,1.0379,-0.5703,0.2370,2.9671,rough,14.0,1,2.209
1710,54.72,6.2115,4.3273,1.0379,-0.5703,0.2370,2.9671,rough,14.0,1,2.209
1720,55.04,6.2115,4.3272,1.0378,-0.5703,0.2370,2.9671,rough,14.0,1,2.209
1730,55.36,6.2115,4.3272,1.0378,-0.5703,0.2370,2.9671,rough,14.0,1,2.209
1740,55.68,6.2115,4.3272,1.0378,-0.5703,0.2370,2.9671,rough,14.0,1,2.209
1750,56.00,6.2115,4.3272,1.0378,-0.5703,0.2370,2.9671,rough,14.0,1,2.209
1760,56.32,6.2115,4.3272,1.0378,-0.5703,0.2370,2.9671,rough,14.0,1,2.209
1770,56.64,6.2115,4.3271,1.0378,-0.5703,0.2371,2.9671,rough,14.0,1,2.209
1780,56.96,6.2115,4.3271,1.0377,-0.5703,0.2371,2.9671,rough,14.0,1,2.209
1790,57.28,6.2115,4.3271,1.0377,-0.5702,0.2372,2.9672,rough,14.0,1,2.209
1800,57.60,6.2115,4.3271,1.0377,-0.5703,0.2371,2.9671,rough,14.0,1,2.209
1810,57.92,6.2115,4.3270,1.0377,-0.5703,0.2370,2.9670,rough,14.0,1,2.209
1820,58.24,6.2115,4.3270,1.0377,-0.5703,0.2371,2.9671,rough,14.0,1,2.209
1830,58.56,6.2115,4.3270,1.0377,-0.5703,0.2371,2.9671,rough,14.0,1,2.209
1840,58.88,6.2115,4.3270,1.0377,-0.5702,0.2373,2.9675,rough,14.0,1,2.209
1850,59.20,6.2115,4.3269,1.0376,-0.5703,0.2371,2.9670,rough,14.0,1,2.209
1860,59.52,6.2115,4.3269,1.0376,-0.5703,0.2371,2.9670,rough,14.0,1,2.209
1870,59.84,6.2115,4.3269,1.0376,-0.5703,0.2371,2.9670,rough,14.0,1,2.209
1880,60.16,6.2115,4.3269,1.0376,-0.5703,0.2371,2.9670,rough,14.0,1,2.209
1890,60.48,6.2115,4.3269,1.0376,-0.5703,0.2372,2.9672,rough,14.0,1,2.209
1900,60.80,6.2115,4.3268,1.0375,-0.5703,0.2371,2.9670,rough,14.0,1,2.209
1910,61.12,6.2115,4.3268,1.0375,-0.5703,0.2371,2.9670,rough,14.0,1,2.209
1920,61.44,6.2115,4.3268,1.0375,-0.5703,0.2371,2.9670,rough,14.0,1,2.209
1930,61.76,6.2115,4.3268,1.0375,-0.5703,0.2371,2.9670,rough,14.0,1,2.209
1940,62.08,6.2115,4.3267,1.0375,-0.5703,0.2372,2.9670,rough,14.0,1,2.209
1950,62.40,6.2115,4.3267,1.0375,-0.5703,0.2371,2.9670,rough,14.0,1,2.209
1960,62.72,6.2115,4.3267,1.0375,-0.5703,0.2372,2.9670,rough,14.0,1,2.209
1970,63.04,6.2115,4.3267,1.0374,-0.5703,0.2372,2.9670,rough,14.0,1,2.209
1980,63.36,6.2115,4.3267,1.0374,-0.5703,0.2372,2.9670,rough,14.0,1,2.209
1990,63.68,6.2115,4.3266,1.0374,-0.5703,0.2372,2.9670,rough,14.0,1,2.209
2000,64.00,6.2115,4.3266,1.0374,-0.5703,0.2372,2.9670,rough,14.0,1,2.209
2010,64.32,6.2115,4.3266,1.0374,-0.5703,0.2372,2.9670,rough,14.0,1,2.209
2020,64.64,6.2115,4.3266,1.0374,-0.5703,0.2372,2.9670,rough,14.0,1,2.209
2030,64.96,6.2115,4.3265,1.0373,-0.5703,0.2372,2.9670,rough,14.0,1,2.209
2040,65.28,6.2115,4.3265,1.0373,-0.5703,0.2372,2.9670,rough,14.0,1,2.209
2050,65.60,6.2115,4.3265,1.0373,-0.5703,0.2372,2.9669,rough,14.0,1,2.209
2060,65.92,6.2115,4.3265,1.0373,-0.5703,0.2372,2.9670,rough,14.0,1,2.209
2070,66.24,6.2115,4.3265,1.0373,-0.5703,0.2372,2.9670,rough,14.0,1,2.209
2080,66.56,6.2115,4.3264,1.0373,-0.5703,0.2372,2.9670,rough,14.0,1,2.209
2090,66.88,6.2115,4.3264,1.0373,-0.5703,0.2372,2.9669,rough,14.0,1,2.209
2100,67.20,6.2115,4.3264,1.0372,-0.5703,0.2372,2.9669,rough,14.0,1,2.209
2110,67.52,6.2115,4.3264,1.0372,-0.5703,0.2372,2.9669,rough,14.0,1,2.209
2120,67.84,6.2115,4.3263,1.0372,-0.5703,0.2372,2.9669,rough,14.0,1,2.209
2130,68.16,6.2115,4.3263,1.0372,-0.5703,0.2372,2.9669,rough,14.0,1,2.209
2140,68.48,6.2115,4.3263,1.0372,-0.5703,0.2372,2.9669,rough,14.0,1,2.209
2150,68.80,6.2115,4.3263,1.0372,-0.5703,0.2372,2.9669,rough,14.0,1,2.209
2160,69.12,6.2115,4.3263,1.0372,-0.5703,0.2372,2.9669,rough,14.0,1,2.209
2170,69.44,6.2115,4.3262,1.0371,-0.5703,0.2373,2.9669,rough,14.0,1,2.209
2180,69.76,6.2115,4.3262,1.0371,-0.5703,0.2373,2.9669,rough,14.0,1,2.209
2190,70.08,6.2115,4.3262,1.0371,-0.5703,0.2373,2.9669,rough,14.0,1,2.209
2200,70.40,6.2115,4.3262,1.0371,-0.5703,0.2372,2.9669,rough,14.0,1,2.209
2210,70.72,6.2115,4.3262,1.0371,-0.5703,0.2372,2.9669,rough,14.0,1,2.209
2220,71.04,6.2115,4.3261,1.0371,-0.5703,0.2373,2.9669,rough,14.0,1,2.209
2230,71.36,6.2115,4.3261,1.0371,-0.5703,0.2373,2.9669,rough,14.0,1,2.209
2240,71.68,6.2115,4.3261,1.0370,-0.5703,0.2373,2.9669,rough,14.0,1,2.209
2250,72.00,6.2115,4.3261,1.0370,-0.5702,0.2373,2.9669,rough,14.0,1,2.209
2260,72.32,6.2115,4.3261,1.0370,-0.5703,0.2373,2.9669,rough,14.0,1,2.209
2270,72.64,6.2115,4.3260,1.0370,-0.5703,0.2373,2.9669,rough,14.0,1,2.209
2280,72.96,6.2115,4.3260,1.0370,-0.5703,0.2373,2.9669,rough,14.0,1,2.209
2290,73.28,6.2115,4.3260,1.0370,-0.5703,0.2373,2.9669,rough,14.0,1,2.209
2300,73.60,6.2115,4.3260,1.0370,-0.5702,0.2374,2.9670,rough,14.0,1,2.209
2310,73.92,6.2115,4.3260,1.0369,-0.5703,0.2373,2.9668,rough,14.0,1,2.209
2320,74.24,6.2115,4.3259,1.0369,-0.5703,0.2373,2.9669,rough,14.0,1,2.209
2330,74.56,6.2115,4.3259,1.0369,-0.5703,0.2373,2.9669,rough,14.0,1,2.209
2340,74.88,6.2115,4.3259,1.0369,-0.5703,0.2373,2.9669,rough,14.0,1,2.209
2350,75.20,6.2115,4.3260,1.0369,-0.5702,0.2376,2.9672,rough,14.0,1,2.209
2360,75.52,6.2115,4.3259,1.0369,-0.5703,0.2373,2.9668,rough,14.0,1,2.209
2370,75.84,6.2115,4.3258,1.0369,-0.5703,0.2374,2.9668,rough,14.0,1,2.209
2380,76.16,6.2115,4.3258,1.0369,-0.5703,0.2374,2.9668,rough,14.0,1,2.209
2390,76.48,6.2115,4.3258,1.0368,-0.5703,0.2374,2.9668,rough,14.0,1,2.209
2400,76.80,6.2115,4.3258,1.0369,-0.5703,0.2375,2.9670,rough,14.0,1,2.209
2410,77.12,6.2114,4.3258,1.0368,-0.5703,0.2373,2.9668,rough,14.0,1,2.209
2420,77.44,6.2114,4.3257,1.0368,-0.5703,0.2374,2.9668,rough,14.0,1,2.209
2430,77.76,6.2114,4.3257,1.0368,-0.5703,0.2374,2.9668,rough,14.0,1,2.209
2440,78.08,6.2114,4.3257,1.0368,-0.5703,0.2374,2.9668,rough,14.0,1,2.209
2450,78.40,6.2115,4.3257,1.0368,-0.5703,0.2374,2.9668,rough,14.0,1,2.209
2460,78.72,6.2114,4.3257,1.0367,-0.5703,0.2374,2.9668,rough,14.0,1,2.209
2470,79.04,6.2114,4.3257,1.0367,-0.5703,0.2374,2.9668,rough,14.0,1,2.209
2480,79.36,6.2114,4.3256,1.0367,-0.5703,0.2374,2.9668,rough,14.0,1,2.210
2490,79.68,6.2114,4.3256,1.0367,-0.5703,0.2374,2.9668,rough,14.0,1,2.210
2500,80.00,6.2114,4.3256,1.0367,-0.5703,0.2374,2.9668,rough,14.0,1,2.210
2510,80.32,6.2114,4.3256,1.0367,-0.5703,0.2374,2.9668,rough,14.0,1,2.210
2520,80.64,6.2114,4.3256,1.0367,-0.5703,0.2374,2.9668,rough,14.0,1,2.210
2530,80.96,6.2114,4.3255,1.0367,-0.5703,0.2374,2.9668,rough,14.0,1,2.210
2540,81.28,6.2114,4.3255,1.0366,-0.5703,0.2374,2.9668,rough,14.0,1,2.210
2550,81.60,6.2114,4.3255,1.0366,-0.5703,0.2374,2.9668,rough,14.0,1,2.210
2560,81.92,6.2114,4.3255,1.0366,-0.5703,0.2374,2.9667,rough,14.0,1,2.210
2570,82.24,6.2114,4.3255,1.0366,-0.5703,0.2374,2.9668,rough,14.0,1,2.210
2580,82.56,6.2114,4.3255,1.0366,-0.5703,0.2375,2.9668,rough,14.0,1,2.210
2590,82.88,6.2114,4.3254,1.0366,-0.5703,0.2375,2.9668,rough,14.0,1,2.210
2600,83.20,6.2114,4.3254,1.0366,-0.5703,0.2375,2.9668,rough,14.0,1,2.210
2610,83.52,6.2114,4.3254,1.0366,-0.5703,0.2374,2.9667,rough,14.0,1,2.210
2620,83.84,6.2114,4.3254,1.0365,-0.5703,0.2375,2.9667,rough,14.0,1,2.210
2630,84.16,6.2114,4.3254,1.0365,-0.5703,0.2375,2.9667,rough,14.0,1,2.210
2640,84.48,6.2114,4.3253,1.0365,-0.5703,0.2375,2.9667,rough,14.0,1,2.210
2650,84.80,6.2114,4.3253,1.0365,-0.5703,0.2375,2.9667,rough,14.0,1,2.210
2660,85.12,6.2114,4.3253,1.0365,-0.5703,0.2375,2.9667,rough,14.0,1,2.210
2670,85.44,6.2114,4.3253,1.0365,-0.5703,0.2375,2.9667,rough,14.0,1,2.210
2680,85.76,6.2114,4.3253,1.0365,-0.5703,0.2375,2.9667,rough,14.0,1,2.210
2690,86.08,6.2114,4.3253,1.0365,-0.5703,0.2375,2.9667,rough,14.0,1,2.210
2700,86.40,6.2114,4.3252,1.0365,-0.5703,0.2375,2.9667,rough,14.0,1,2.210
2710,86.72,6.2114,4.3252,1.0364,-0.5703,0.2375,2.9667,rough,14.0,1,2.210
2720,87.04,6.2114,4.3252,1.0364,-0.5703,0.2375,2.9667,rough,14.0,1,2.210
2730,87.36,6.2114,4.3252,1.0364,-0.5703,0.2375,2.9667,rough,14.0,1,2.210
2740,87.68,6.2114,4.3252,1.0364,-0.5703,0.2375,2.9667,rough,14.0,1,2.210
2750,88.00,6.2114,4.3252,1.0364,-0.5703,0.2375,2.9667,rough,14.0,1,2.210
2760,88.32,6.2114,4.3251,1.0364,-0.5702,0.2375,2.9667,rough,14.0,1,2.210
2770,88.64,6.2114,4.3251,1.0364,-0.5703,0.2375,2.9667,rough,14.0,1,2.210
2780,88.96,6.2114,4.3251,1.0364,-0.5703,0.2375,2.9667,rough,14.0,1,2.210
2790,89.28,6.2114,4.3251,1.0363,-0.5703,0.2375,2.9667,rough,14.0,1,2.210
2800,89.60,6.2114,4.3251,1.0363,-0.5703,0.2375,2.9667,rough,14.0,1,2.210
2810,89.92,6.2114,4.3251,1.0363,-0.5702,0.2376,2.9668,rough,14.0,1,2.210
2820,90.24,6.2114,4.3250,1.0363,-0.5703,0.2375,2.9667,rough,14.0,1,2.210
2830,90.56,6.2114,4.3250,1.0363,-0.5703,0.2376,2.9667,rough,14.0,1,2.210
2840,90.88,6.2114,4.3250,1.0363,-0.5703,0.2376,2.9667,rough,14.0,1,2.210
2850,91.20,6.2114,4.3250,1.0363,-0.5703,0.2376,2.9667,rough,14.0,1,2.210
2860,91.52,6.2114,4.3250,1.0363,-0.5702,0.2378,2.9671,rough,14.0,1,2.210
2870,91.84,6.2114,4.3249,1.0362,-0.5703,0.2375,2.9666,rough,14.0,1,2.210
2880,92.16,6.2114,4.3249,1.0362,-0.5703,0.2376,2.9667,rough,14.0,1,2.210
2890,92.48,6.2114,4.3249,1.0362,-0.5703,0.2376,2.9667,rough,14.0,1,2.210
2900,92.80,6.2114,4.3249,1.0362,-0.5703,0.2376,2.9667,rough,14.0,1,2.210
2910,93.12,6.2114,4.3249,1.0362,-0.5703,0.2377,2.9668,rough,14.0,1,2.210
2920,93.44,6.2114,4.3249,1.0362,-0.5703,0.2376,2.9666,rough,14.0,1,2.210
2930,93.76,6.2114,4.3249,1.0362,-0.5703,0.2376,2.9667,rough,14.0,1,2.210
2940,94.08,6.2114,4.3248,1.0362,-0.5703,0.2376,2.9666,rough,14.0,1,2.210
2950,94.40,6.2114,4.3248,1.0362,-0.5703,0.2376,2.9666,rough,14.0,1,2.210
2960,94.72,6.2114,4.3248,1.0362,-0.5703,0.2376,2.9666,rough,14.0,1,2.210
2970,95.04,6.2114,4.3248,1.0361,-0.5703,0.2376,2.9666,rough,14.0,1,2.210
2980,95.36,6.2114,4.3248,1.0361,-0.5703,0.2376,2.9666,rough,14.0,1,2.210
2990,95.68,6.2114,4.3248,1.0361,-0.5703,0.2376,2.9666,rough,14.0,1,2.210
3000,96.00,6.2114,4.3247,1.0361,-0.5703,0.2376,2.9666,rough,14.0,1,2.210
3010,96.32,6.2114,4.3247,1.0361,-0.5703,0.2376,2.9666,rough,14.0,1,2.210
3020,96.64,6.2114,4.3247,1.0361,-0.5703,0.2376,2.9666,rough,14.0,1,2.210
3030,96.96,6.2114,4.3247,1.0361,-0.5703,0.2376,2.9666,rough,14.0,1,2.210
3040,97.28,6.2114,4.3247,1.0361,-0.5703,0.2376,2.9666,rough,14.0,1,2.210
3050,97.60,6.2114,4.3247,1.0361,-0.5703,0.2376,2.9666,rough,14.0,1,2.210
3060,97.92,6.2114,4.3247,1.0360,-0.5703,0.2376,2.9666,rough,14.0,1,2.210
3070,98.24,6.2114,4.3246,1.0360,-0.5703,0.2376,2.9666,rough,14.0,1,2.210
3080,98.56,6.2114,4.3246,1.0360,-0.5703,0.2376,2.9666,rough,14.0,1,2.210
3090,98.88,6.2114,4.3246,1.0360,-0.5703,0.2377,2.9666,rough,14.0,1,2.210
3100,99.20,6.2114,4.3246,1.0360,-0.5703,0.2377,2.9666,rough,14.0,1,2.210
3110,99.52,6.2114,4.3246,1.0360,-0.5703,0.2377,2.9666,rough,14.0,1,2.210
3120,99.84,6.2114,4.3246,1.0360,-0.5703,0.2376,2.9666,rough,14.0,1,2.210
3130,100.16,6.2114,4.3245,1.0360,-0.5703,0.2377,2.9666,rough,14.0,1,2.210
3140,100.48,6.2114,4.3245,1.0360,-0.5703,0.2377,2.9666,rough,14.0,1,2.210
3150,100.80,6.2114,4.3245,1.0359,-0.5703,0.2377,2.9666,rough,14.0,1,2.210
3160,101.12,6.2114,4.3245,1.0359,-0.5703,0.2377,2.9666,rough,14.0,1,2.210
3170,101.44,6.2114,4.3245,1.0359,-0.5703,0.2376,2.9666,rough,14.0,1,2.210
3180,101.76,6.2114,4.3245,1.0359,-0.5703,0.2377,2.9666,rough,14.0,1,2.210
3190,102.08,6.2114,4.3245,1.0359,-0.5703,0.2377,2.9666,rough,14.0,1,2.210
3200,102.40,6.2114,4.3244,1.0359,-0.5703,0.2377,2.9666,rough,14.0,1,2.210
3210,102.72,6.2114,4.3244,1.0359,-0.5703,0.2377,2.9665,rough,14.0,1,2.210
3220,103.04,6.2114,4.3244,1.0359,-0.5702,0.2377,2.9665,rough,14.0,1,2.210
3230,103.36,6.2114,4.3244,1.0359,-0.5703,0.2377,2.9666,rough,14.0,1,2.210
3240,103.68,6.2114,4.3244,1.0359,-0.5703,0.2377,2.9666,rough,14.0,1,2.210
3250,104.00,6.2114,4.3244,1.0358,-0.5703,0.2377,2.9666,rough,14.0,1,2.210
3260,104.32,6.2114,4.3244,1.0358,-0.5703,0.2377,2.9666,rough,14.0,1,2.210
3270,104.64,6.2114,4.3243,1.0358,-0.5702,0.2377,2.9666,rough,14.0,1,2.210
3280,104.96,6.2114,4.3243,1.0358,-0.5703,0.2377,2.9665,rough,14.0,1,2.210
3290,105.28,6.2114,4.3243,1.0358,-0.5703,0.2377,2.9665,rough,14.0,1,2.210
3300,105.60,6.2114,4.3243,1.0358,-0.5703,0.2377,2.9665,rough,14.0,1,2.210
3310,105.92,6.2114,4.3243,1.0358,-0.5703,0.2377,2.9665,rough,14.0,1,2.210
3320,106.24,6.2114,4.3243,1.0358,-0.5702,0.2378,2.9667,rough,14.0,1,2.210
3330,106.56,6.2114,4.3242,1.0358,-0.5703,0.2377,2.9665,rough,14.0,1,2.210
3340,106.88,6.2114,4.3242,1.0358,-0.5703,0.2377,2.9665,rough,14.0,1,2.210
3350,107.20,6.2114,4.3242,1.0357,-0.5703,0.2377,2.9665,rough,14.0,1,2.210
3360,107.52,6.2114,4.3242,1.0357,-0.5703,0.2377,2.9665,rough,14.0,1,2.210
3370,107.84,6.2114,4.3243,1.0358,-0.5702,0.2380,2.9669,rough,14.0,1,2.210
3380,108.16,6.2114,4.3242,1.0357,-0.5703,0.2377,2.9665,rough,14.0,1,2.210
3390,108.48,6.2114,4.3242,1.0357,-0.5703,0.2378,2.9665,rough,14.0,1,2.210
3400,108.80,6.2114,4.3242,1.0357,-0.5703,0.2378,2.9665,rough,14.0,1,2.210
3410,109.12,6.2114,4.3241,1.0357,-0.5703,0.2377,2.9665,rough,14.0,1,2.210
3420,109.44,6.2114,4.3241,1.0357,-0.5702,0.2379,2.9667,rough,14.0,1,2.210
3430,109.76,6.2114,4.3241,1.0357,-0.5703,0.2377,2.9665,rough,14.0,1,2.210
3440,110.08,6.2114,4.3241,1.0357,-0.5703,0.2378,2.9665,rough,14.0,1,2.210
3450,110.40,6.2114,4.3241,1.0356,-0.5703,0.2378,2.9665,rough,14.0,1,2.210
3460,110.72,6.2114,4.3241,1.0356,-0.5703,0.2378,2.9665,rough,14.0,1,2.210
3470,111.04,6.2114,4.3240,1.0356,-0.5703,0.2378,2.9664,rough,14.0,1,2.210
3480,111.36,6.2114,4.3240,1.0356,-0.5703,0.2378,2.9665,rough,14.0,1,2.210
3490,111.68,6.2114,4.3240,1.0356,-0.5703,0.2378,2.9665,rough,14.0,1,2.210
3500,112.00,6.2114,4.3240,1.0356,-0.5703,0.2378,2.9665,rough,14.0,1,2.210
3510,112.32,6.2113,4.3240,1.0356,-0.5703,0.2378,2.9665,rough,14.0,1,2.210
3520,112.64,6.2113,4.3240,1.0356,-0.5703,0.2378,2.9665,rough,14.0,1,2.210
3530,112.96,6.2113,4.3240,1.0356,-0.5703,0.2378,2.9665,rough,14.0,1,2.211
3540,113.28,6.2113,4.3240,1.0356,-0.5703,0.2378,2.9665,rough,14.0,1,2.211
3550,113.60,6.2113,4.3239,1.0356,-0.5703,0.2378,2.9665,rough,14.0,1,2.211
3560,113.92,6.2113,4.3239,1.0355,-0.5703,0.2378,2.9665,rough,14.0,1,2.211
3570,114.24,6.2113,4.3239,1.0355,-0.5703,0.2378,2.9665,rough,14.0,1,2.211
3580,114.56,6.2113,4.3239,1.0355,-0.5703,0.2378,2.9664,rough,14.0,1,2.211
3590,114.88,6.2113,4.3239,1.0355,-0.5703,0.2378,2.9665,rough,14.0,1,2.211
3600,115.20,6.2113,4.3239,1.0355,-0.5703,0.2378,2.9665,rough,14.0,1,2.211
3610,115.52,6.2113,4.3239,1.0355,-0.5703,0.2378,2.9664,rough,14.0,1,2.211
3620,115.84,6.2113,4.3239,1.0355,-0.5703,0.2378,2.9665,rough,14.0,1,2.211
3630,116.16,6.2113,4.3238,1.0355,-0.5703,0.2378,2.9664,rough,14.0,1,2.211
3640,116.48,6.2113,4.3238,1.0355,-0.5703,0.2378,2.9665,rough,14.0,1,2.211
3650,116.80,6.2113,4.3238,1.0355,-0.5703,0.2378,2.9665,rough,14.0,1,2.211
3660,117.12,6.2113,4.3238,1.0355,-0.5703,0.2378,2.9665,rough,14.0,1,2.211
3670,117.44,6.2113,4.3238,1.0354,-0.5703,0.2378,2.9664,rough,14.0,1,2.211
3680,117.76,6.2113,4.3238,1.0354,-0.5702,0.2378,2.9664,rough,14.0,1,2.211
3690,118.08,6.2113,4.3238,1.0354,-0.5703,0.2378,2.9664,rough,14.0,1,2.211
3700,118.40,6.2113,4.3238,1.0354,-0.5703,0.2379,2.9664,rough,14.0,1,2.211
3710,118.72,6.2113,4.3237,1.0354,-0.5703,0.2379,2.9664,rough,14.0,1,2.211
3720,119.04,6.2113,4.3237,1.0354,-0.5703,0.2379,2.9664,rough,14.0,1,2.211
3730,119.36,6.2113,4.3237,1.0354,-0.5702,0.2378,2.9664,rough,14.0,1,2.211
3740,119.68,6.2113,4.3237,1.0354,-0.5703,0.2379,2.9664,rough,14.0,1,2.211
3750,120.00,6.2113,4.3237,1.0354,-0.5703,0.2379,2.9664,rough,14.0,1,2.211
3760,120.32,6.2113,4.3237,1.0354,-0.5703,0.2379,2.9664,rough,14.0,1,2.211
3770,120.64,6.2113,4.3237,1.0354,-0.5703,0.2379,2.9664,rough,14.0,1,2.211
3780,120.96,6.2113,4.3237,1.0354,-0.5702,0.2379,2.9664,rough,14.0,1,2.211
3790,121.28,6.2113,4.3236,1.0353,-0.5703,0.2379,2.9664,rough,14.0,1,2.211
3800,121.60,6.2113,4.3236,1.0353,-0.5703,0.2379,2.9664,rough,14.0,1,2.211
3810,121.92,6.2113,4.3236,1.0353,-0.5703,0.2379,2.9664,rough,14.0,1,2.211
3820,122.24,6.2113,4.3236,1.0353,-0.5703,0.2379,2.9664,rough,14.0,1,2.211
3830,122.56,6.2113,4.3236,1.0353,-0.5702,0.2380,2.9666,rough,14.0,1,2.211
3840,122.88,6.2113,4.3236,1.0353,-0.5703,0.2379,2.9664,rough,14.0,1,2.211
3850,123.20,6.2113,4.3236,1.0353,-0.5703,0.2379,2.9664,rough,14.0,1,2.211
3860,123.52,6.2113,4.3236,1.0353,-0.5703,0.2379,2.9664,rough,14.0,1,2.211
3870,123.84,6.2113,4.3235,1.0353,-0.5703,0.2379,2.9664,rough,14.0,1,2.211
3880,124.16,6.2113,4.3236,1.0353,-0.5702,0.2381,2.9668,rough,14.0,1,2.211
3890,124.48,6.2113,4.3235,1.0353,-0.5703,0.2379,2.9664,rough,14.0,1,2.211
3900,124.80,6.2113,4.3235,1.0352,-0.5703,0.2379,2.9664,rough,14.0,1,2.211
3910,125.12,6.2113,4.3235,1.0352,-0.5703,0.2379,2.9664,rough,14.0,1,2.211
3920,125.44,6.2113,4.3235,1.0352,-0.5703,0.2379,2.9664,rough,14.0,1,2.211
3930,125.76,6.2113,4.3235,1.0352,-0.5702,0.2380,2.9665,rough,14.0,1,2.211
3940,126.08,6.2113,4.3235,1.0352,-0.5703,0.2379,2.9664,rough,14.0,1,2.211
3950,126.40,6.2113,4.3234,1.0352,-0.5703,0.2379,2.9664,rough,14.0,1,2.211
3960,126.72,6.2113,4.3234,1.0352,-0.5703,0.2379,2.9664,rough,14.0,1,2.211
3970,127.04,6.2113,4.3234,1.0352,-0.5703,0.2379,2.9664,rough,14.0,1,2.211
3980,127.36,6.2113,4.3234,1.0352,-0.5703,0.2379,2.9663,rough,14.0,1,2.211
3990,127.68,6.2113,4.3234,1.0352,-0.5703,0.2379,2.9664,rough,14.0,1,2.211
4000,128.00,6.2113,4.3234,1.0352,-0.5703,0.2379,2.9664,rough,14.0,1,2.211
4010,128.32,6.2113,4.3234,1.0352,-0.5703,0.2379,2.9663,rough,14.0,1,2.211
4020,128.64,6.2113,4.3234,1.0352,-0.5703,0.2379,2.9664,rough,14.0,1,2.211
4030,128.96,6.2113,4.3234,1.0351,-0.5703,0.2379,2.9664,rough,14.0,1,2.211
4040,129.28,6.2113,4.3233,1.0351,-0.5703,0.2379,2.9663,rough,14.0,1,2.211
4050,129.60,6.2113,4.3233,1.0351,-0.5703,0.2379,2.9664,rough,14.0,1,2.211
4060,129.92,6.2113,4.3233,1.0351,-0.5703,0.2380,2.9664,rough,14.0,1,2.211
4070,130.24,6.2113,4.3233,1.0351,-0.5703,0.2380,2.9664,rough,14.0,1,2.211
4080,130.56,6.2113,4.3233,1.0351,-0.5703,0.2380,2.9664,rough,14.0,1,2.211
4090,130.88,6.2113,4.3233,1.0351,-0.5703,0.2379,2.9663,rough,14.0,1,2.211
4100,131.20,6.2113,4.3233,1.0351,-0.5703,0.2380,2.9663,rough,14.0,1,2.211
4110,131.52,6.2113,4.3233,1.0351,-0.5703,0.2380,2.9663,rough,14.0,1,2.211
4120,131.84,6.2113,4.3233,1.0351,-0.5703,0.2380,2.9663,rough,14.0,1,2.211
4130,132.16,6.2113,4.3232,1.0351,-0.5703,0.2380,2.9663,rough,14.0,1,2.211
4140,132.48,6.2113,4.3232,1.0351,-0.5703,0.2379,2.9663,rough,14.0,1,2.211
4150,132.80,6.2113,4.3232,1.0351,-0.5703,0.2380,2.9663,rough,14.0,1,2.211
4160,133.12,6.2113,4.3232,1.0350,-0.5703,0.2380,2.9663,rough,14.0,1,2.211
4170,133.44,6.2113,4.3232,1.0350,-0.5703,0.2380,2.9663,rough,14.0,1,2.211
4180,133.76,6.2113,4.3232,1.0350,-0.5703,0.2380,2.9663,rough,14.0,1,2.211
4190,134.08,6.2113,4.3232,1.0350,-0.5702,0.2380,2.9663,rough,14.0,1,2.211
4200,134.40,6.2113,4.3232,1.0350,-0.5703,0.2380,2.9663,rough,14.0,1,2.211
4210,134.72,6.2113,4.3231,1.0350,-0.5703,0.2380,2.9663,rough,14.0,1,2.211
4220,135.04,6.2113,4.3231,1.0350,-0.5703,0.2380,2.9663,rough,14.0,1,2.211
4230,135.36,6.2113,4.3231,1.0350,-0.5703,0.2380,2.9663,rough,14.0,1,2.211
4240,135.68,6.2113,4.3231,1.0350,-0.5702,0.2380,2.9663,rough,14.0,1,2.211
4250,136.00,6.2113,4.3231,1.0350,-0.5703,0.2380,2.9663,rough,14.0,1,2.211
4260,136.32,6.2113,4.3231,1.0350,-0.5703,0.2380,2.9663,rough,14.0,1,2.211
4270,136.64,6.2113,4.3231,1.0350,-0.5703,0.2380,2.9663,rough,14.0,1,2.211
4280,136.96,6.2113,4.3231,1.0350,-0.5703,0.2380,2.9663,rough,14.0,1,2.211
4290,137.28,6.2113,4.3231,1.0349,-0.5702,0.2380,2.9663,rough,14.0,1,2.211
4300,137.60,6.2113,4.3231,1.0349,-0.5703,0.2380,2.9663,rough,14.0,1,2.211
4310,137.92,6.2113,4.3230,1.0349,-0.5703,0.2380,2.9663,rough,14.0,1,2.211
4320,138.24,6.2113,4.3230,1.0349,-0.5703,0.2380,2.9663,rough,14.0,1,2.211
4330,138.56,6.2113,4.3230,1.0349,-0.5703,0.2380,2.9663,rough,14.0,1,2.211
4340,138.88,6.2113,4.3230,1.0349,-0.5702,0.2381,2.9665,rough,14.0,1,2.211
4350,139.20,6.2113,4.3230,1.0349,-0.5703,0.2380,2.9663,rough,14.0,1,2.211
4360,139.52,6.2113,4.3230,1.0349,-0.5703,0.2380,2.9663,rough,14.0,1,2.211
4370,139.84,6.2113,4.3230,1.0349,-0.5703,0.2380,2.9663,rough,14.0,1,2.211
4380,140.16,6.2113,4.3230,1.0349,-0.5703,0.2380,2.9663,rough,14.0,1,2.211
4390,140.48,6.2113,4.3230,1.0349,-0.5702,0.2383,2.9667,rough,14.0,1,2.211
4400,140.80,6.2113,4.3230,1.0349,-0.5703,0.2380,2.9663,rough,14.0,1,2.211
4410,141.12,6.2113,4.3229,1.0349,-0.5703,0.2380,2.9663,rough,14.0,1,2.211
4420,141.44,6.2113,4.3229,1.0349,-0.5703,0.2380,2.9663,rough,14.0,1,2.211
4430,141.76,6.2113,4.3229,1.0348,-0.5703,0.2380,2.9663,rough,14.0,1,2.211
4440,142.08,6.2113,4.3229,1.0349,-0.5702,0.2382,2.9664,rough,14.0,1,2.211
4450,142.40,6.2113,4.3229,1.0348,-0.5703,0.2380,2.9663,rough,14.0,1,2.211
4460,142.72,6.2113,4.3229,1.0348,-0.5703,0.2381,2.9663,rough,14.0,1,2.211
4470,143.04,6.2113,4.3229,1.0348,-0.5703,0.2381,2.9663,rough,14.0,1,2.211
4480,143.36,6.2113,4.3229,1.0348,-0.5703,0.2381,2.9663,rough,14.0,1,2.211
4490,143.68,6.2113,4.3229,1.0348,-0.5703,0.2381,2.9662,rough,14.0,1,2.211
4500,144.00,6.2113,4.3229,1.0348,-0.5703,0.2380,2.9662,rough,14.0,1,2.211
4510,144.32,6.2113,4.3228,1.0348,-0.5703,0.2381,2.9663,rough,14.0,1,2.211
4520,144.64,6.2113,4.3228,1.0348,-0.5703,0.2381,2.9663,rough,14.0,1,2.211
4530,144.96,6.2113,4.3228,1.0348,-0.5703,0.2381,2.9663,rough,14.0,1,2.211
4540,145.28,6.2113,4.3228,1.0348,-0.5703,0.2381,2.9663,rough,14.0,1,2.211
4550,145.60,6.2113,4.3228,1.0348,-0.5703,0.2381,2.9662,rough,14.0,1,2.211
4560,145.92,6.2113,4.3228,1.0348,-0.5703,0.2381,2.9663,rough,14.0,1,2.211
4570,146.24,6.2113,4.3228,1.0348,-0.5703,0.2381,2.9663,rough,14.0,1,2.211
4580,146.56,6.2113,4.3228,1.0347,-0.5703,0.2381,2.9663,rough,14.0,1,2.211
4590,146.88,6.2113,4.3228,1.0347,-0.5703,0.2381,2.9663,rough,14.0,1,2.211
4600,147.20,6.2113,4.3228,1.0347,-0.5703,0.2381,2.9662,rough,14.0,1,2.211
4610,147.52,6.2113,4.3227,1.0347,-0.5703,0.2381,2.9662,rough,14.0,1,2.211
4620,147.84,6.2113,4.3227,1.0347,-0.5703,0.2381,2.9662,rough,14.0,1,2.211
4630,148.16,6.2113,4.3227,1.0347,-0.5703,0.2381,2.9662,rough,14.0,1,2.211
4640,148.48,6.2113,4.3227,1.0347,-0.5703,0.2381,2.9662,rough,14.0,1,2.211
4650,148.80,6.2113,4.3227,1.0347,-0.5702,0.2381,2.9662,rough,14.0,1,2.211
4660,149.12,6.2113,4.3227,1.0347,-0.5703,0.2381,2.9662,rough,14.0,1,2.211
4670,149.44,6.2113,4.3227,1.0347,-0.5703,0.2381,2.9662,rough,14.0,1,2.211
4680,149.76,6.2113,4.3227,1.0347,-0.5703,0.2381,2.9662,rough,14.0,1,2.211
4690,150.08,6.2113,4.3227,1.0347,-0.5703,0.2381,2.9662,rough,14.0,1,2.211
4700,150.40,6.2113,4.3227,1.0347,-0.5702,0.2381,2.9662,rough,14.0,1,2.211
4710,150.72,6.2113,4.3227,1.0347,-0.5703,0.2381,2.9662,rough,14.0,1,2.211
4720,151.04,6.2113,4.3226,1.0347,-0.5703,0.2381,2.9662,rough,14.0,1,2.211
4730,151.36,6.2113,4.3226,1.0347,-0.5703,0.2381,2.9662,rough,14.0,1,2.211
4740,151.68,6.2113,4.3226,1.0346,-0.5703,0.2381,2.9662,rough,14.0,1,2.211
4750,152.00,6.2113,4.3226,1.0346,-0.5702,0.2381,2.9662,rough,14.0,1,2.211
4760,152.32,6.2113,4.3226,1.0346,-0.5703,0.2381,2.9662,rough,14.0,1,2.211
4770,152.64,6.2113,4.3226,1.0346,-0.5703,0.2381,2.9662,rough,14.0,1,2.211
4780,152.96,6.2113,4.3226,1.0346,-0.5703,0.2381,2.9662,rough,14.0,1,2.211
4790,153.28,6.2113,4.3226,1.0346,-0.5703,0.2381,2.9662,rough,14.0,1,2.211
4800,153.60,6.2113,4.3226,1.0346,-0.5702,0.2381,2.9662,rough,14.0,1,2.211
4810,153.92,6.2113,4.3226,1.0346,-0.5703,0.2381,2.9662,rough,14.0,1,2.211
4820,154.24,6.2113,4.3226,1.0346,-0.5703,0.2381,2.9662,rough,14.0,1,2.211
4830,154.56,6.2113,4.3225,1.0346,-0.5703,0.2381,2.9662,rough,14.0,1,2.211
4840,154.88,6.2113,4.3225,1.0346,-0.5703,0.2381,2.9662,rough,14.0,1,2.211
4850,155.20,6.2113,4.3226,1.0346,-0.5702,0.2382,2.9664,rough,14.0,1,2.211
4860,155.52,6.2113,4.3225,1.0346,-0.5703,0.2381,2.9662,rough,14.0,1,2.211
4870,155.84,6.2113,4.3225,1.0346,-0.5703,0.2381,2.9662,rough,14.0,1,2.211
4880,156.16,6.2113,4.3225,1.0346,-0.5703,0.2381,2.9662,rough,14.0,1,2.211
4890,156.48,6.2113,4.3225,1.0346,-0.5703,0.2382,2.9662,rough,14.0,1,2.211
4900,156.80,6.2113,4.3226,1.0346,-0.5702,0.2384,2.9666,rough,14.0,1,2.211
4910,157.12,6.2113,4.3225,1.0345,-0.5703,0.2381,2.9662,rough,14.0,1,2.211
4920,157.44,6.2113,4.3225,1.0345,-0.5703,0.2382,2.9662,rough,14.0,1,2.211
4930,157.76,6.2113,4.3225,1.0345,-0.5703,0.2382,2.9662,rough,14.0,1,2.211
4940,158.08,6.2113,4.3225,1.0345,-0.5703,0.2382,2.9662,rough,14.0,1,2.211
4950,158.40,6.2113,4.3225,1.0345,-0.5702,0.2383,2.9663,rough,14.0,1,2.211
4960,158.72,6.2113,4.3224,1.0345,-0.5703,0.2381,2.9662,rough,14.0,1,2.211
4970,159.04,6.2113,4.3224,1.0345,-0.5703,0.2382,2.9662,rough,14.0,1,2.211
4980,159.36,6.2113,4.3224,1.0345,-0.5703,0.2382,2.9662,rough,14.0,1,2.211
4990,159.68,6.2113,4.3224,1.0345,-0.5703,0.2382,2.9662,rough,14.0,1,2.211
5000,160.00,6.2113,4.3224,1.0345,-0.5703,0.2382,2.9661,rough,14.0,1,2.211
5010,160.32,6.2113,4.3224,1.0345,-0.5703,0.2381,2.9662,rough,14.0,1,2.211
5020,160.64,6.2113,4.3224,1.0345,-0.5703,0.2382,2.9662,rough,14.0,1,2.211
5030,160.96,6.2113,4.3224,1.0345,-0.5703,0.2382,2.9662,rough,14.0,1,2.211
5040,161.28,6.2113,4.3224,1.0345,-0.5703,0.2382,2.9662,rough,14.0,1,2.211
5050,161.60,6.2113,4.3224,1.0345,-0.5703,0.2382,2.9662,rough,14.0,1,2.211
5060,161.92,6.2113,4.3223,1.0344,-0.5703,0.2382,2.9662,rough,14.0,1,2.211
5070,162.24,6.2113,4.3223,1.0344,-0.5703,0.2382,2.9662,rough,14.0,1,2.211
5080,162.56,6.2113,4.3223,1.0344,-0.5703,0.2382,2.9662,rough,14.0,1,2.211
5090,162.88,6.2113,4.3223,1.0344,-0.5703,0.2382,2.9662,rough,14.0,1,2.211
5100,163.20,6.2113,4.3223,1.0344,-0.5703,0.2382,2.9662,rough,14.0,1,2.211
5110,163.52,6.2113,4.3223,1.0344,-0.5702,0.2382,2.9661,rough,14.0,1,2.212
5120,163.84,6.2113,4.3223,1.0344,-0.5703,0.2382,2.9662,rough,14.0,1,2.212
5130,164.16,6.2113,4.3223,1.0344,-0.5703,0.2382,2.9662,rough,14.0,1,2.212
5140,164.48,6.2113,4.3223,1.0344,-0.5703,0.2382,2.9662,rough,14.0,1,2.212
5150,164.80,6.2113,4.3223,1.0344,-0.5703,0.2382,2.9662,rough,14.0,1,2.212
5160,165.12,6.2113,4.3223,1.0344,-0.5702,0.2382,2.9661,rough,14.0,1,2.212
5170,165.44,6.2113,4.3223,1.0344,-0.5703,0.2382,2.9662,rough,14.0,1,2.212
5180,165.76,6.2113,4.3223,1.0344,-0.5703,0.2382,2.9662,rough,14.0,1,2.212
5190,166.08,6.2113,4.3223,1.0344,-0.5703,0.2382,2.9662,rough,14.0,1,2.212
5200,166.40,6.2112,4.3222,1.0344,-0.5703,0.2382,2.9662,rough,14.0,1,2.212
5210,166.72,6.2112,4.3222,1.0344,-0.5702,0.2382,2.9661,rough,14.0,1,2.212
5220,167.04,6.2112,4.3222,1.0344,-0.5703,0.2382,2.9661,rough,14.0,1,2.212
5230,167.36,6.2112,4.3222,1.0344,-0.5703,0.2382,2.9662,rough,14.0,1,2.212
5240,167.68,6.2112,4.3222,1.0344,-0.5703,0.2382,2.9661,rough,14.0,1,2.212
5250,168.00,6.2112,4.3222,1.0343,-0.5703,0.2382,2.9661,rough,14.0,1,2.212
5260,168.32,6.2112,4.3222,1.0343,-0.5702,0.2382,2.9661,rough,14.0,1,2.212
5270,168.64,6.2112,4.3222,1.0343,-0.5703,0.2382,2.9661,rough,14.0,1,2.212
5280,168.96,6.2112,4.3222,1.0343,-0.5703,0.2382,2.9661,rough,14.0,1,2.212
5290,169.28,6.2112,4.3222,1.0343,-0.5703,0.2382,2.9661,rough,14.0,1,2.212
5300,169.60,6.2112,4.3222,1.0343,-0.5703,0.2382,2.9661,rough,14.0,1,2.212
5310,169.92,6.2112,4.3222,1.0343,-0.5702,0.2382,2.9662,rough,14.0,1,2.212
5320,170.24,6.2112,4.3221,1.0343,-0.5703,0.2382,2.9661,rough,14.0,1,2.212
5330,170.56,6.2112,4.3221,1.0343,-0.5703,0.2382,2.9661,rough,14.0,1,2.212
5340,170.88,6.2112,4.3221,1.0343,-0.5703,0.2382,2.9661,rough,14.0,1,2.212
5350,171.20,6.2112,4.3221,1.0343,-0.5703,0.2382,2.9661,rough,14.0,1,2.212
5360,171.52,6.2112,4.3221,1.0343,-0.5702,0.2383,2.9663,rough,14.0,1,2.212
5370,171.84,6.2112,4.3221,1.0343,-0.5703,0.2382,2.9661,rough,14.0,1,2.212
5380,172.16,6.2112,4.3221,1.0343,-0.5703,0.2382,2.9661,rough,14.0,1,2.212
5390,172.48,6.2112,4.3221,1.0343,-0.5703,0.2382,2.9661,rough,14.0,1,2.212
5400,172.80,6.2112,4.3221,1.0343,-0.5703,0.2382,2.9661,rough,14.0,1,2.212
5410,173.12,6.2112,4.3221,1.0343,-0.5701,0.2385,2.9665,rough,14.0,1,2.212
5420,173.44,6.2112,4.3221,1.0343,-0.5703,0.2382,2.9661,rough,14.0,1,2.212
5430,173.76,6.2112,4.3221,1.0343,-0.5703,0.2382,2.9661,rough,14.0,1,2.212
5440,174.08,6.2112,4.3221,1.0342,-0.5703,0.2383,2.9661,rough,14.0,1,2.212
5450,174.40,6.2112,4.3221,1.0342,-0.5703,0.2383,2.9661,rough,14.0,1,2.212
5460,174.72,6.2113,4.3221,1.0343,-0.5702,0.2384,2.9663,rough,14.0,1,2.212
5470,175.04,6.2112,4.3220,1.0342,-0.5703,0.2382,2.9661,rough,14.0,1,2.212
5480,175.36,6.2112,4.3220,1.0342,-0.5703,0.2383,2.9661,rough,14.0,1,2.212
5490,175.68,6.2112,4.3220,1.0342,-0.5703,0.2383,2.9661,rough,14.0,1,2.212
5500,176.00,6.2112,4.3220,1.0342,-0.5703,0.2383,2.9661,rough,14.0,1,2.212
5510,176.32,6.2113,4.3220,1.0342,-0.5703,0.2383,2.9660,rough,14.0,1,2.212
5520,176.64,6.2112,4.3220,1.0342,-0.5703,0.2382,2.9661,rough,14.0,1,2.212
5530,176.96,6.2112,4.3220,1.0342,-0.5703,0.2383,2.9661,rough,14.0,1,2.212
5540,177.28,6.2112,4.3220,1.0342,-0.5703,0.2383,2.9661,rough,14.0,1,2.212
5550,177.60,6.2112,4.3220,1.0342,-0.5703,0.2383,2.9661,rough,14.0,1,2.212
5560,177.92,6.2112,4.3220,1.0342,-0.5703,0.2383,2.9661,rough,14.0,1,2.212
5570,178.24,6.2112,4.3220,1.0342,-0.5702,0.2383,2.9661,rough,14.0,1,2.212
5580,178.56,6.2112,4.3220,1.0342,-0.5703,0.2383,2.9661,rough,14.0,1,2.212
5590,178.88,6.2112,4.3220,1.0342,-0.5703,0.2383,2.9661,rough,14.0,1,2.212
5600,179.20,6.2112,4.3220,1.0342,-0.5703,0.2383,2.9661,rough,14.0,1,2.212
5610,179.52,6.2112,4.3219,1.0342,-0.5702,0.2383,2.9661,rough,14.0,1,2.212
5620,179.84,6.2112,4.3219,1.0342,-0.5702,0.2383,2.9661,rough,14.0,1,2.212
5630,180.16,6.2112,4.3219,1.0342,-0.5703,0.2383,2.9661,rough,14.0,1,2.212
5640,180.48,6.2112,4.3219,1.0342,-0.5703,0.2383,2.9661,rough,14.0,1,2.212
5650,180.80,6.2112,4.3219,1.0341,-0.5703,0.2383,2.9661,rough,14.0,1,2.212
5660,181.12,6.2112,4.3219,1.0341,-0.5703,0.2383,2.9661,rough,14.0,1,2.212
5670,181.44,6.2112,4.3219,1.0341,-0.5702,0.2383,2.9661,rough,14.0,1,2.212
5680,181.76,6.2112,4.3219,1.0341,-0.5703,0.2383,2.9661,rough,14.0,1,2.212
5690,182.08,6.2112,4.3219,1.0341,-0.5703,0.2383,2.9661,rough,14.0,1,2.212
5700,182.40,6.2112,4.3219,1.0341,-0.5703,0.2383,2.9661,rough,14.0,1,2.212
5710,182.72,6.2112,4.3219,1.0341,-0.5703,0.2383,2.9661,rough,14.0,1,2.212
5720,183.04,6.2112,4.3219,1.0341,-0.5702,0.2383,2.9661,rough,14.0,1,2.212
5730,183.36,6.2112,4.3219,1.0341,-0.5703,0.2383,2.9661,rough,14.0,1,2.212
5740,183.68,6.2112,4.3219,1.0341,-0.5703,0.2383,2.9661,rough,14.0,1,2.212
5750,184.00,6.2112,4.3218,1.0341,-0.5703,0.2383,2.9661,rough,14.0,1,2.212
5760,184.32,6.2112,4.3218,1.0341,-0.5703,0.2383,2.9661,rough,14.0,1,2.212
5770,184.64,6.2112,4.3218,1.0341,-0.5702,0.2383,2.9661,rough,14.0,1,2.212
5780,184.96,6.2112,4.3218,1.0341,-0.5703,0.2383,2.9661,rough,14.0,1,2.212
5790,185.28,6.2112,4.3218,1.0341,-0.5703,0.2383,2.9661,rough,14.0,1,2.212
5800,185.60,6.2112,4.3218,1.0341,-0.5703,0.2383,2.9661,rough,14.0,1,2.212
5810,185.92,6.2112,4.3218,1.0341,-0.5702,0.2383,2.9660,rough,14.0,1,2.212
5820,186.24,6.2112,4.3218,1.0341,-0.5702,0.2383,2.9661,rough,14.0,1,2.212
5830,186.56,6.2112,4.3218,1.0341,-0.5703,0.2383,2.9661,rough,14.0,1,2.212
5840,186.88,6.2112,4.3218,1.0341,-0.5703,0.2383,2.9661,rough,14.0,1,2.212
5850,187.20,6.2112,4.3218,1.0341,-0.5703,0.2383,2.9661,rough,14.0,1,2.212
5860,187.52,6.2112,4.3218,1.0341,-0.5703,0.2383,2.9661,rough,14.0,1,2.212
5870,187.84,6.2112,4.3218,1.0341,-0.5702,0.2384,2.9662,rough,14.0,1,2.212
5880,188.16,6.2112,4.3218,1.0340,-0.5703,0.2383,2.9660,rough,14.0,1,2.212
5890,188.48,6.2112,4.3218,1.0340,-0.5703,0.2383,2.9661,rough,14.0,1,2.212
5900,188.80,6.2112,4.3218,1.0340,-0.5703,0.2383,2.9661,rough,14.0,1,2.212
5910,189.12,6.2112,4.3217,1.0340,-0.5703,0.2383,2.9661,rough,14.0,1,2.212
5920,189.44,6.2112,4.3218,1.0341,-0.5701,0.2386,2.9664,rough,14.0,1,2.212
5930,189.76,6.2112,4.3217,1.0340,-0.5703,0.2383,2.9660,rough,14.0,1,2.212
5940,190.08,6.2112,4.3217,1.0340,-0.5703,0.2383,2.9661,rough,14.0,1,2.212
5950,190.40,6.2112,4.3217,1.0340,-0.5703,0.2383,2.9661,rough,14.0,1,2.212
5960,190.72,6.2112,4.3217,1.0340,-0.5703,0.2383,2.9661,rough,14.0,1,2.212
5970,191.04,6.2112,4.3217,1.0340,-0.5702,0.2384,2.9662,rough,14.0,1,2.212
5980,191.36,6.2112,4.3217,1.0340,-0.5703,0.2383,2.9660,rough,14.0,1,2.212
5990,191.68,6.2112,4.3217,1.0340,-0.5703,0.2383,2.9661,rough,14.0,1,2.212
6000,192.00,6.2112,4.3217,1.0340,-0.5703,0.2383,2.9660,rough,14.0,1,2.212
6010,192.32,6.2112,4.3217,1.0340,-0.5702,0.2383,2.9660,rough,14.0,1,2.212
6020,192.64,6.2112,4.3217,1.0340,-0.5703,0.2383,2.9660,rough,14.0,1,2.212
6030,192.96,6.2112,4.3217,1.0340,-0.5702,0.2383,2.9660,rough,14.0,1,2.212
6040,193.28,6.2112,4.3217,1.0340,-0.5703,0.2383,2.9660,rough,14.0,1,2.212
6050,193.60,6.2112,4.3217,1.0340,-0.5703,0.2383,2.9660,rough,14.0,1,2.212
6060,193.92,6.2112,4.3217,1.0340,-0.5703,0.2383,2.9660,rough,14.0,1,2.212
6070,194.24,6.2112,4.3216,1.0340,-0.5703,0.2384,2.9660,rough,14.0,1,2.212
6080,194.56,6.2112,4.3216,1.0340,-0.5702,0.2383,2.9660,rough,14.0,1,2.212
6090,194.88,6.2112,4.3216,1.0340,-0.5703,0.2384,2.9660,rough,14.0,1,2.212
6100,195.20,6.2112,4.3216,1.0340,-0.5703,0.2384,2.9660,rough,14.0,1,2.212
6110,195.52,6.2112,4.3216,1.0339,-0.5703,0.2384,2.9660,rough,14.0,1,2.212
6120,195.84,6.2112,4.3216,1.0339,-0.5703,0.2384,2.9660,rough,14.0,1,2.212
6130,196.16,6.2112,4.3216,1.0339,-0.5702,0.2383,2.9660,rough,14.0,1,2.212
6140,196.48,6.2112,4.3216,1.0339,-0.5703,0.2384,2.9660,rough,14.0,1,2.212
6150,196.80,6.2112,4.3216,1.0339,-0.5703,0.2384,2.9660,rough,14.0,1,2.212
6160,197.12,6.2112,4.3216,1.0339,-0.5703,0.2384,2.9660,rough,14.0,1,2.212
6170,197.44,6.2112,4.3216,1.0339,-0.5703,0.2384,2.9660,rough,14.0,1,2.212
6180,197.76,6.2112,4.3216,1.0339,-0.5702,0.2383,2.9660,rough,14.0,1,2.212
6190,198.08,6.2112,4.3216,1.0339,-0.5703,0.2384,2.9660,rough,14.0,1,2.212
6200,198.40,6.2112,4.3216,1.0339,-0.5703,0.2384,2.9660,rough,14.0,1,2.212
6210,198.72,6.2112,4.3216,1.0339,-0.5702,0.2383,2.9660,rough,14.0,1,2.212
6220,199.04,6.2112,4.3216,1.0339,-0.5703,0.2384,2.9660,rough,14.0,1,2.212
6230,199.36,6.2112,4.3215,1.0339,-0.5702,0.2383,2.9660,rough,14.0,1,2.212
6240,199.68,6.2112,4.3215,1.0339,-0.5703,0.2384,2.9660,rough,14.0,1,2.212
6250,200.00,6.2112,4.3215,1.0339,-0.5703,0.2384,2.9660,rough,14.0,1,2.212
6260,200.32,6.2112,4.3215,1.0339,-0.5703,0.2384,2.9660,rough,14.0,1,2.212
6270,200.64,6.2112,4.3215,1.0339,-0.5703,0.2384,2.9660,rough,14.0,1,2.212
6280,200.96,6.2112,4.3215,1.0339,-0.5702,0.2383,2.9660,rough,14.0,1,2.212
6290,201.28,6.2112,4.3215,1.0339,-0.5703,0.2384,2.9660,rough,14.0,1,2.212
6300,201.60,6.2112,4.3215,1.0339,-0.5703,0.2384,2.9660,rough,14.0,1,2.212
6310,201.92,6.2112,4.3215,1.0339,-0.5703,0.2384,2.9660,rough,14.0,1,2.212
6320,202.24,6.2112,4.3215,1.0339,-0.5703,0.2384,2.9660,rough,14.0,1,2.212
6330,202.56,6.2112,4.3215,1.0339,-0.5702,0.2384,2.9660,rough,14.0,1,2.212
6340,202.88,6.2112,4.3215,1.0339,-0.5703,0.2384,2.9660,rough,14.0,1,2.212
6350,203.20,6.2112,4.3215,1.0339,-0.5703,0.2384,2.9660,rough,14.0,1,2.212
6360,203.52,6.2112,4.3215,1.0339,-0.5703,0.2384,2.9660,rough,14.0,1,2.212
6370,203.84,6.2112,4.3215,1.0338,-0.5703,0.2384,2.9660,rough,14.0,1,2.212
6380,204.16,6.2112,4.3215,1.0339,-0.5702,0.2385,2.9662,rough,14.0,1,2.212
6390,204.48,6.2112,4.3215,1.0338,-0.5703,0.2384,2.9660,rough,14.0,1,2.212
6400,204.80,6.2112,4.3215,1.0338,-0.5703,0.2384,2.9660,rough,14.0,1,2.212
6410,205.12,6.2112,4.3214,1.0338,-0.5702,0.2384,2.9660,rough,14.0,1,2.212
6420,205.44,6.2112,4.3214,1.0338,-0.5703,0.2384,2.9660,rough,14.0,1,2.212
6430,205.76,6.2112,4.3215,1.0339,-0.5701,0.2386,2.9664,rough,14.0,1,2.212
6440,206.08,6.2112,4.3214,1.0338,-0.5703,0.2384,2.9660,rough,14.0,1,2.212
6450,206.40,6.2112,4.3214,1.0338,-0.5703,0.2384,2.9660,rough,14.0,1,2.212
6460,206.72,6.2112,4.3214,1.0338,-0.5703,0.2384,2.9660,rough,14.0,1,2.212
6470,207.04,6.2112,4.3214,1.0338,-0.5703,0.2384,2.9660,rough,14.0,1,2.212
6480,207.36,6.2112,4.3214,1.0338,-0.5702,0.2385,2.9661,rough,14.0,1,2.212
6490,207.68,6.2112,4.3214,1.0338,-0.5703,0.2384,2.9660,rough,14.0,1,2.212
6500,208.00,6.2112,4.3214,1.0338,-0.5703,0.2384,2.9660,rough,14.0,1,2.212
6510,208.32,6.2112,4.3214,1.0338,-0.5703,0.2384,2.9660,rough,14.0,1,2.212
6520,208.64,6.2112,4.3214,1.0338,-0.5703,0.2384,2.9660,rough,14.0,1,2.212
6530,208.96,6.2112,4.3214,1.0338,-0.5703,0.2384,2.9659,rough,14.0,1,2.212
6540,209.28,6.2112,4.3214,1.0338,-0.5702,0.2384,2.9660,rough,14.0,1,2.212
6550,209.60,6.2112,4.3214,1.0338,-0.5703,0.2384,2.9660,rough,14.0,1,2.212
6560,209.92,6.2112,4.3214,1.0338,-0.5703,0.2384,2.9660,rough,14.0,1,2.212
6570,210.24,6.2112,4.3214,1.0338,-0.5703,0.2384,2.9660,rough,14.0,1,2.212
6580,210.56,6.2112,4.3214,1.0338,-0.5703,0.2384,2.9660,rough,14.0,1,2.212
6590,210.88,6.2112,4.3214,1.0338,-0.5702,0.2384,2.9660,rough,14.0,1,2.212
6600,211.20,6.2112,4.3214,1.0338,-0.5703,0.2384,2.9660,rough,14.0,1,2.212
6610,211.52,6.2112,4.3213,1.0338,-0.5702,0.2384,2.9660,rough,14.0,1,2.212
6620,211.84,6.2112,4.3213,1.0338,-0.5703,0.2384,2.9660,rough,14.0,1,2.212
6630,212.16,6.2112,4.3213,1.0338,-0.5703,0.2384,2.9660,rough,14.0,1,2.212
6640,212.48,6.2112,4.3213,1.0337,-0.5702,0.2384,2.9660,rough,14.0,1,2.212
6650,212.80,6.2112,4.3213,1.0337,-0.5703,0.2384,2.9660,rough,14.0,1,2.212
6660,213.12,6.2112,4.3213,1.0337,-0.5703,0.2384,2.9660,rough,14.0,1,2.212
6670,213.44,6.2112,4.3213,1.0337,-0.5703,0.2384,2.9660,rough,14.0,1,2.212
6680,213.76,6.2112,4.3213,1.0337,-0.5703,0.2384,2.9660,rough,14.0,1,2.212
6690,214.08,6.2112,4.3213,1.0337,-0.5702,0.2384,2.9660,rough,14.0,1,2.212
6700,214.40,6.2112,4.3213,1.0337,-0.5703,0.2384,2.9660,rough,14.0,1,2.212
6710,214.72,6.2112,4.3213,1.0337,-0.5703,0.2384,2.9660,rough,14.0,1,2.212
6720,215.04,6.2112,4.3213,1.0337,-0.5703,0.2384,2.9660,rough,14.0,1,2.212
6730,215.36,6.2112,4.3213,1.0337,-0.5703,0.2384,2.9660,rough,14.0,1,2.212
6740,215.68,6.2112,4.3213,1.0337,-0.5702,0.2384,2.9659,rough,14.0,1,2.212
6750,216.00,6.2112,4.3213,1.0337,-0.5703,0.2384,2.9660,rough,14.0,1,2.212
6760,216.32,6.2112,4.3213,1.0337,-0.5703,0.2384,2.9660,rough,14.0,1,2.212
6770,216.64,6.2112,4.3213,1.0337,-0.5703,0.2384,2.9660,rough,14.0,1,2.212
6780,216.96,6.2112,4.3213,1.0337,-0.5703,0.2384,2.9660,rough,14.0,1,2.212
6790,217.28,6.2112,4.3213,1.0337,-0.5702,0.2384,2.9659,rough,14.0,1,2.212
6800,217.60,6.2112,4.3213,1.0337,-0.5703,0.2384,2.9660,rough,14.0,1,2.212
6810,217.92,6.2112,4.3212,1.0337,-0.5702,0.2384,2.9659,rough,14.0,1,2.212
6820,218.24,6.2112,4.3212,1.0337,-0.5703,0.2384,2.9660,rough,14.0,1,2.212
6830,218.56,6.2112,4.3212,1.0337,-0.5703,0.2384,2.9660,rough,14.0,1,2.212
6840,218.88,6.2112,4.3212,1.0337,-0.5702,0.2384,2.9660,rough,14.0,1,2.212
6850,219.20,6.2112,4.3212,1.0337,-0.5703,0.2384,2.9659,rough,14.0,1,2.212
6860,219.52,6.2112,4.3212,1.0337,-0.5703,0.2384,2.9660,rough,14.0,1,2.212
6870,219.84,6.2112,4.3212,1.0337,-0.5703,0.2384,2.9660,rough,14.0,1,2.212
6880,220.16,6.2112,4.3212,1.0337,-0.5703,0.2385,2.9660,rough,14.0,1,2.212
6890,220.48,6.2112,4.3212,1.0337,-0.5702,0.2385,2.9661,rough,14.0,1,2.212
6900,220.80,6.2112,4.3212,1.0337,-0.5703,0.2384,2.9659,rough,14.0,1,2.212
6910,221.12,6.2112,4.3212,1.0337,-0.5703,0.2385,2.9660,rough,14.0,1,2.212
6920,221.44,6.2112,4.3212,1.0337,-0.5703,0.2385,2.9660,rough,14.0,1,2.212
6930,221.76,6.2112,4.3212,1.0337,-0.5703,0.2385,2.9660,rough,14.0,1,2.212
6940,222.08,6.2112,4.3213,1.0337,-0.5701,0.2387,2.9663,rough,14.0,1,2.212
6950,222.40,6.2112,4.3212,1.0336,-0.5703,0.2384,2.9659,rough,14.0,1,2.212
6960,222.72,6.2112,4.3212,1.0336,-0.5703,0.2385,2.9660,rough,14.0,1,2.212
6970,223.04,6.2112,4.3212,1.0336,-0.5703,0.2385,2.9660,rough,14.0,1,2.212
6980,223.36,6.2112,4.3212,1.0336,-0.5703,0.2385,2.9660,rough,14.0,1,2.212
6990,223.68,6.2112,4.3212,1.0337,-0.5702,0.2386,2.9661,rough,14.0,1,2.212
7000,224.00,6.2112,4.3212,1.0336,-0.5702,0.2384,2.9659,rough,14.0,1,2.212
7010,224.32,6.2112,4.3212,1.0336,-0.5702,0.2384,2.9659,rough,14.0,1,2.212
7020,224.64,6.2112,4.3212,1.0336,-0.5703,0.2385,2.9659,rough,14.0,1,2.212
7030,224.96,6.2112,4.3212,1.0336,-0.5703,0.2385,2.9659,rough,14.0,1,2.212
7040,225.28,6.2112,4.3211,1.0336,-0.5703,0.2384,2.9659,rough,14.0,1,2.212
7050,225.60,6.2112,4.3211,1.0336,-0.5702,0.2384,2.9659,rough,14.0,1,2.212
7060,225.92,6.2112,4.3211,1.0336,-0.5703,0.2385,2.9659,rough,14.0,1,2.212
7070,226.24,6.2112,4.3211,1.0336,-0.5703,0.2385,2.9659,rough,14.0,1,2.212
7080,226.56,6.2112,4.3211,1.0336,-0.5703,0.2385,2.9659,rough,14.0,1,2.212
7090,226.88,6.2112,4.3211,1.0336,-0.5703,0.2385,2.9659,rough,14.0,1,2.212
7100,227.20,6.2112,4.3211,1.0336,-0.5702,0.2385,2.9659,rough,14.0,1,2.212
7110,227.52,6.2112,4.3211,1.0336,-0.5703,0.2385,2.9659,rough,14.0,1,2.212
7120,227.84,6.2112,4.3211,1.0336,-0.5703,0.2385,2.9659,rough,14.0,1,2.212
7130,228.16,6.2112,4.3211,1.0336,-0.5703,0.2385,2.9659,rough,14.0,1,2.212
7140,228.48,6.2112,4.3211,1.0336,-0.5703,0.2385,2.9659,rough,14.0,1,2.212
7150,228.80,6.2112,4.3211,1.0336,-0.5702,0.2385,2.9659,rough,14.0,1,2.212
7160,229.12,6.2112,4.3211,1.0336,-0.5703,0.2385,2.9659,rough,14.0,1,2.212
7170,229.44,6.2112,4.3211,1.0336,-0.5703,0.2385,2.9659,rough,14.0,1,2.212
7180,229.76,6.2112,4.3211,1.0336,-0.5703,0.2385,2.9659,rough,14.0,1,2.212
7190,230.08,6.2112,4.3211,1.0336,-0.5703,0.2385,2.9659,rough,14.0,1,2.212
7200,230.40,6.2112,4.3211,1.0336,-0.5702,0.2385,2.9659,rough,14.0,1,2.212
7210,230.72,6.2112,4.3211,1.0336,-0.5702,0.2385,2.9659,rough,14.0,1,2.212
7220,231.04,6.2112,4.3211,1.0336,-0.5703,0.2385,2.9659,rough,14.0,1,2.212
7230,231.36,6.2112,4.3211,1.0336,-0.5703,0.2385,2.9659,rough,14.0,1,2.212
7240,231.68,6.2112,4.3211,1.0336,-0.5703,0.2385,2.9659,rough,14.0,1,2.212
7250,232.00,6.2112,4.3211,1.0336,-0.5702,0.2385,2.9659,rough,14.0,1,2.212
7260,232.32,6.2112,4.3211,1.0336,-0.5703,0.2385,2.9659,rough,14.0,1,2.212
7270,232.64,6.2112,4.3211,1.0336,-0.5703,0.2385,2.9659,rough,14.0,1,2.212
7280,232.96,6.2112,4.3211,1.0336,-0.5703,0.2385,2.9659,rough,14.0,1,2.212
7290,233.28,6.2112,4.3210,1.0336,-0.5703,0.2385,2.9659,rough,14.0,1,2.212
7300,233.60,6.2112,4.3210,1.0335,-0.5702,0.2385,2.9659,rough,14.0,1,2.212
7310,233.92,6.2112,4.3210,1.0335,-0.5703,0.2385,2.9659,rough,14.0,1,2.212
7320,234.24,6.2112,4.3210,1.0335,-0.5703,0.2385,2.9659,rough,14.0,1,2.212
7330,234.56,6.2112,4.3210,1.0335,-0.5703,0.2385,2.9659,rough,14.0,1,2.212
7340,234.88,6.2112,4.3210,1.0335,-0.5703,0.2385,2.9659,rough,14.0,1,2.212
7350,235.20,6.2112,4.3210,1.0335,-0.5702,0.2385,2.9659,rough,14.0,1,2.212
7360,235.52,6.2112,4.3210,1.0335,-0.5703,0.2385,2.9659,rough,14.0,1,2.212
7370,235.84,6.2112,4.3210,1.0335,-0.5703,0.2385,2.9659,rough,14.0,1,2.212
7380,236.16,6.2112,4.3210,1.0335,-0.5703,0.2385,2.9659,rough,14.0,1,2.212
7390,236.48,6.2112,4.3210,1.0335,-0.5703,0.2385,2.9659,rough,14.0,1,2.212
7400,236.80,6.2112,4.3210,1.0335,-0.5702,0.2386,2.9661,rough,14.0,1,2.212
7410,237.12,6.2112,4.3210,1.0335,-0.5702,0.2385,2.9659,rough,14.0,1,2.212
7420,237.44,6.2112,4.3210,1.0335,-0.5703,0.2385,2.9659,rough,14.0,1,2.212
7430,237.76,6.2112,4.3210,1.0335,-0.5703,0.2385,2.9659,rough,14.0,1,2.212
7440,238.08,6.2112,4.3210,1.0335,-0.5703,0.2385,2.9659,rough,14.0,1,2.212
7450,238.40,6.2112,4.3211,1.0336,-0.5701,0.2387,2.9663,rough,14.0,1,2.212
7460,238.72,6.2112,4.3210,1.0335,-0.5702,0.2385,2.9659,rough,14.0,1,2.212
7470,239.04,6.2112,4.3210,1.0335,-0.5703,0.2385,2.9659,rough,14.0,1,2.212
7480,239.36,6.2112,4.3210,1.0335,-0.5703,0.2385,2.9659,rough,14.0,1,2.212
7490,239.68,6.2112,4.3210,1.0335,-0.5703,0.2385,2.9659,rough,14.0,1,2.212
7500,240.00,6.2112,4.3210,1.0335,-0.5702,0.2386,2.9660,rough,14.0,1,2.212
7510,240.32,6.2112,4.3210,1.0335,-0.5702,0.2385,2.9659,rough,14.0,1,2.212
7520,240.64,6.2112,4.3210,1.0335,-0.5703,0.2385,2.9659,rough,14.0,1,2.212
7530,240.96,6.2112,4.3210,1.0335,-0.5703,0.2385,2.9659,rough,14.0,1,2.212
7540,241.28,6.2112,4.3210,1.0335,-0.5703,0.2385,2.9659,rough,14.0,1,2.212
7550,241.60,6.2112,4.3209,1.0335,-0.5703,0.2385,2.9658,rough,14.0,1,2.212
7560,241.92,6.2112,4.3209,1.0335,-0.5702,0.2385,2.9659,rough,14.0,1,2.212
7570,242.24,6.2112,4.3209,1.0335,-0.5703,0.2385,2.9659,rough,14.0,1,2.212
7580,242.56,6.2112,4.3209,1.0335,-0.5703,0.2385,2.9659,rough,14.0,1,2.212
7590,242.88,6.2112,4.3209,1.0335,-0.5703,0.2385,2.9659,rough,14.0,1,2.212
7600,243.20,6.2112,4.3209,1.0335,-0.5703,0.2385,2.9659,rough,14.0,1,2.212
7610,243.52,6.2112,4.3209,1.0335,-0.5702,0.2385,2.9659,rough,14.0,1,2.212
7620,243.84,6.2112,4.3209,1.0335,-0.5703,0.2385,2.9659,rough,14.0,1,2.212
7630,244.16,6.2112,4.3209,1.0335,-0.5703,0.2385,2.9659,rough,14.0,1,2.212
7640,244.48,6.2112,4.3209,1.0335,-0.5703,0.2385,2.9659,rough,14.0,1,2.212
7650,244.80,6.2112,4.3209,1.0335,-0.5703,0.2385,2.9659,rough,14.0,1,2.212
7660,245.12,6.2112,4.3209,1.0335,-0.5702,0.2385,2.9659,rough,14.0,1,2.212
7670,245.44,6.2112,4.3209,1.0335,-0.5703,0.2385,2.9659,rough,14.0,1,2.212
7680,245.76,6.2112,4.3209,1.0335,-0.5703,0.2385,2.9659,rough,14.0,1,2.212
7690,246.08,6.2112,4.3209,1.0334,-0.5703,0.2385,2.9659,rough,14.0,1,2.212
7700,246.40,6.2112,4.3209,1.0334,-0.5703,0.2385,2.9659,rough,14.0,1,2.212
7710,246.72,6.2112,4.3209,1.0334,-0.5702,0.2385,2.9659,rough,14.0,1,2.212
7720,247.04,6.2112,4.3209,1.0334,-0.5703,0.2385,2.9659,rough,14.0,1,2.212
7730,247.36,6.2112,4.3209,1.0334,-0.5703,0.2385,2.9659,rough,14.0,1,2.212
7740,247.68,6.2112,4.3209,1.0334,-0.5703,0.2385,2.9659,rough,14.0,1,2.212
7750,248.00,6.2112,4.3209,1.0334,-0.5703,0.2385,2.9659,rough,14.0,1,2.212
7760,248.32,6.2112,4.3209,1.0334,-0.5702,0.2385,2.9659,rough,14.0,1,2.212
7770,248.64,6.2112,4.3209,1.0334,-0.5703,0.2385,2.9659,rough,14.0,1,2.212
7780,248.96,6.2112,4.3209,1.0334,-0.5703,0.2385,2.9659,rough,14.0,1,2.212
7790,249.28,6.2112,4.3209,1.0334,-0.5703,0.2385,2.9659,rough,14.0,1,2.212
7800,249.60,6.2112,4.3209,1.0334,-0.5703,0.2385,2.9659,rough,14.0,1,2.212
7810,249.92,6.2112,4.3208,1.0334,-0.5702,0.2385,2.9659,rough,14.0,1,2.212
7820,250.24,6.2112,4.3209,1.0334,-0.5702,0.2385,2.9659,rough,14.0,1,2.212
7830,250.56,6.2112,4.3209,1.0334,-0.5703,0.2385,2.9659,rough,14.0,1,2.212
7840,250.88,6.2112,4.3208,1.0334,-0.5703,0.2385,2.9659,rough,14.0,1,2.212
7850,251.20,6.2112,4.3208,1.0334,-0.5703,0.2385,2.9659,rough,14.0,1,2.212
7860,251.52,6.2112,4.3208,1.0334,-0.5702,0.2385,2.9659,rough,14.0,1,2.212
7870,251.84,6.2112,4.3208,1.0334,-0.5702,0.2385,2.9659,rough,14.0,1,2.212
7880,252.16,6.2112,4.3208,1.0334,-0.5703,0.2385,2.9659,rough,14.0,1,2.212
7890,252.48,6.2112,4.3208,1.0334,-0.5703,0.2385,2.9659,rough,14.0,1,2.212
7900,252.80,6.2112,4.3208,1.0334,-0.5703,0.2385,2.9659,rough,14.0,1,2.212
7910,253.12,6.2112,4.3209,1.0334,-0.5702,0.2386,2.9660,rough,14.0,1,2.212
7920,253.44,6.2112,4.3208,1.0334,-0.5702,0.2385,2.9659,rough,14.0,1,2.212
7930,253.76,6.2112,4.3208,1.0334,-0.5703,0.2385,2.9659,rough,14.0,1,2.212
7940,254.08,6.2112,4.3208,1.0334,-0.5703,0.2385,2.9659,rough,14.0,1,2.212
7950,254.40,6.2112,4.3208,1.0334,-0.5703,0.2385,2.9659,rough,14.0,1,2.212
7960,254.72,6.2112,4.3209,1.0334,-0.5701,0.2388,2.9663,rough,14.0,1,2.212
7970,255.04,6.2112,4.3208,1.0334,-0.5702,0.2385,2.9659,rough,14.0,1,2.212
7980,255.36,6.2112,4.3208,1.0334,-0.5703,0.2385,2.9659,rough,14.0,1,2.212
7990,255.68,6.2112,4.3208,1.0334,-0.5703,0.2386,2.9659,rough,14.0,1,2.212
8000,256.00,6.2112,4.3208,1.0334,-0.5703,0.2386,2.9659,rough,14.0,1,2.212
8010,256.32,6.2112,4.3208,1.0334,-0.5702,0.2386,2.9660,rough,14.0,1,2.212
8020,256.64,6.2112,4.3208,1.0334,-0.5702,0.2385,2.9659,rough,14.0,1,2.212
8030,256.96,6.2112,4.3208,1.0334,-0.5702,0.2386,2.9659,rough,14.0,1,2.212
8040,257.28,6.2112,4.3208,1.0334,-0.5703,0.2386,2.9659,rough,14.0,1,2.212
8050,257.60,6.2112,4.3208,1.0334,-0.5703,0.2386,2.9659,rough,14.0,1,2.212
8060,257.92,6.2112,4.3208,1.0334,-0.5703,0.2385,2.9658,rough,14.0,1,2.212
8070,258.24,6.2112,4.3208,1.0334,-0.5702,0.2385,2.9659,rough,14.0,1,2.212
8080,258.56,6.2112,4.3208,1.0334,-0.5703,0.2386,2.9659,rough,14.0,1,2.212
8090,258.88,6.2112,4.3208,1.0334,-0.5703,0.2386,2.9659,rough,14.0,1,2.212
8100,259.20,6.2112,4.3208,1.0334,-0.5703,0.2386,2.9659,rough,14.0,1,2.212
8110,259.52,6.2112,4.3208,1.0334,-0.5703,0.2386,2.9659,rough,14.0,1,2.212
8120,259.84,6.2112,4.3208,1.0333,-0.5702,0.2385,2.9659,rough,14.0,1,2.212
8130,260.16,6.2112,4.3208,1.0333,-0.5703,0.2386,2.9659,rough,14.0,1,2.212
8140,260.48,6.2112,4.3208,1.0333,-0.5703,0.2386,2.9659,rough,14.0,1,2.212
8150,260.80,6.2112,4.3208,1.0333,-0.5703,0.2386,2.9659,rough,14.0,1,2.212
