step,time_s,x,y,z,roll,pitch,yaw,terrain,speed,target_idx,dist_to_target
10,0.32,-0.1095,1.4507,0.1838,0.0002,-0.0181,0.0051,rough,14.0,0,4.152
20,0.64,0.1593,1.4493,0.1795,-0.0009,0.0010,0.3104,rough,14.0,0,4.231
30,0.96,0.4347,1.5507,0.1797,0.0001,-0.0000,0.5975,rough,14.0,0,4.232
40,1.28,0.6861,1.7597,0.1798,-0.0001,0.0003,0.8313,rough,14.0,0,4.146
50,1.60,0.9001,2.0405,0.1798,-0.0004,-0.0001,1.0438,rough,14.0,0,4.005
60,1.92,1.0697,2.3763,0.1798,-0.0004,-0.0001,1.2584,rough,14.0,0,3.819
70,2.24,1.1783,2.7534,0.1798,0.0000,0.0003,1.4770,rough,14.0,0,3.592
80,2.56,1.2064,3.1541,0.1798,0.0001,-0.0000,1.6859,rough,14.0,0,3.320
90,2.88,1.1494,3.5589,0.1799,-0.0000,0.0002,1.8564,rough,14.0,0,3.008
100,3.20,1.0212,3.9504,0.1799,-0.0001,0.0000,1.9910,rough,14.0,0,2.670
110,3.52,0.8408,4.3375,0.1806,-0.0005,-0.0050,2.0749,rough,14.0,0,2.313
120,3.84,0.6336,4.6815,0.1910,-0.0089,-0.0722,2.1897,rough,14.0,0,1.974
130,4.16,0.3744,4.9733,0.2125,-0.1014,-0.0897,2.2959,rough,14.0,0,1.629
140,4.48,0.0913,5.2320,0.2589,-0.1537,-0.1589,2.4401,rough,14.0,0,1.292
150,4.80,-0.2464,5.4139,0.2984,-0.3594,-0.1133,2.5855,rough,14.0,0,0.935
160,5.12,-0.5587,5.5615,0.3493,-0.3514,-0.2086,2.6546,rough,14.0,1,1.866
170,5.44,-0.9004,5.7457,0.4410,-0.3312,-0.2437,2.5067,rough,14.0,1,1.629
180,5.76,-1.2071,5.9669,0.5240,-0.3309,-0.2806,2.3663,rough,14.0,1,1.416
190,6.08,-1.4715,6.2399,0.6267,-0.3090,-0.2297,2.1777,rough,14.0,1,1.217
200,6.40,-1.6645,6.5032,0.7053,-0.3035,-0.3349,2.0570,rough,14.0,1,1.080
210,6.72,-1.8277,6.8088,0.8323,-0.1572,-0.4109,1.7650,rough,14.0,1,0.984
220,7.04,-1.8838,7.0984,0.9695,-0.0240,-0.4708,1.4393,rough,14.0,1,0.906
230,7.36,-1.8491,7.2976,1.0651,0.0147,-0.4349,1.3666,rough,14.0,1,0.833
240,7.68,-1.7780,7.4587,1.1455,0.0884,-0.4121,1.1494,rough,14.0,2,8.671
250,8.00,-1.6341,7.6163,1.2210,0.1972,-0.3556,0.8838,rough,14.0,2,8.623
260,8.32,-1.4632,7.7917,1.3055,0.2805,-0.2906,0.5954,rough,14.0,2,8.566
270,8.64,-1.2758,7.9330,1.3671,0.2799,-0.2101,0.3728,rough,14.0,2,8.484
280,8.96,-1.0325,7.9947,1.4105,0.3014,-0.1596,0.1280,rough,14.0,2,8.316
290,9.28,-0.7098,7.9438,1.4344,0.3585,-0.1061,-0.1631,rough,14.0,2,8.022
300,9.60,-0.3677,7.8081,1.4432,0.4504,0.0012,-0.3403,rough,14.0,2,7.665
310,9.92,-0.0713,7.6430,1.4323,0.5019,0.0198,-0.4735,rough,14.0,2,7.329
320,10.24,0.2302,7.4311,1.3929,0.5616,0.1609,-0.5518,rough,14.0,2,6.960
330,10.56,0.5217,7.1901,1.2994,0.5217,0.2448,-0.6947,rough,14.0,2,6.583
340,10.88,0.8196,6.9007,1.1446,0.5258,0.4319,-0.8010,rough,14.0,2,6.171
350,11.20,1.0554,6.6034,0.9702,0.4194,0.4524,-0.9486,rough,14.0,2,5.807
360,11.52,1.2437,6.2703,0.7780,0.3841,0.4484,-1.0434,rough,14.0,2,5.465
370,11.84,1.3895,5.9227,0.5986,0.3310,0.4097,-1.1842,rough,14.0,2,5.158
380,12.16,1.5299,5.5706,0.4565,0.2647,0.2783,-1.1557,rough,14.0,2,4.863
390,12.48,1.7331,5.1926,0.3252,0.1889,0.3289,-1.0490,rough,14.0,2,4.513
400,12.80,1.9383,4.8568,0.2328,0.1310,0.1995,-0.9740,rough,14.0,2,4.191
410,13.12,2.1721,4.5477,0.1782,0.0157,-0.0314,-0.9070,rough,14.0,2,3.864
420,13.44,2.4487,4.2227,0.1798,-0.0002,-0.0002,-0.8216,rough,14.0,2,3.504
430,13.76,2.7479,3.9244,0.1799,0.0001,-0.0000,-0.7372,rough,14.0,2,3.143
440,14.08,3.0731,3.6514,0.1799,0.0001,-0.0000,-0.6554,rough,14.0,2,2.777
450,14.40,3.4211,3.4050,0.1799,0.0001,-0.0000,-0.5738,rough,14.0,2,2.409
460,14.72,3.7887,3.1869,0.1799,0.0001,-0.0000,-0.4890,rough,14.0,2,2.041
470,15.04,4.1710,2.9984,0.1799,0.0001,0.0001,-0.3838,rough,14.0,2,1.682
480,15.36,4.5685,2.8499,0.1798,0.0001,-0.0000,-0.2615,rough,14.0,2,1.335
490,15.68,4.9718,2.7505,0.1798,0.0001,0.0000,-0.0752,rough,14.0,2,1.013
500,16.00,5.3767,2.7312,0.1799,0.0002,-0.0003,0.0987,rough,14.0,3,2.705
510,16.32,5.7625,2.7444,0.2104,0.0437,-0.1522,0.0122,rough,14.0,3,2.352
520,16.64,6.1896,2.7005,0.2262,0.2196,-0.0096,-0.0117,rough,14.0,3,1.947
530,16.96,6.5015,2.6658,0.3101,0.2221,-0.4000,-0.1805,rough,14.0,3,1.657
540,17.28,6.9017,2.5221,0.3837,0.5250,-0.2262,-0.2664,rough,14.0,3,1.243
550,17.60,7.2391,2.3608,0.4616,0.5458,-0.2615,-0.4472,rough,14.0,3,0.876
560,17.92,7.4329,2.2086,0.4867,0.4937,-0.0321,-0.8599,rough,14.0,0,9.207
570,18.24,7.4891,1.9476,0.4320,0.5538,0.1547,-1.2782,rough,14.0,0,9.354
580,18.56,7.4458,1.6767,0.3450,0.4894,0.2895,-1.6870,rough,14.0,0,9.420
590,18.88,7.3706,1.4299,0.2864,0.3581,0.2039,-2.0116,rough,14.0,0,9.454
600,19.20,7.2267,1.1742,0.2212,0.1467,0.1130,-2.2661,rough,14.0,0,9.437
610,19.52,6.9991,0.9322,0.1809,0.0000,0.0086,-2.4347,rough,14.0,0,9.350
620,19.84,6.7001,0.7152,0.1798,0.0002,0.0001,-2.6245,rough,14.0,0,9.199
630,20.16,6.3511,0.5365,0.1799,-0.0000,-0.0004,-2.8129,rough,14.0,0,8.999
640,20.48,5.9619,0.4159,0.1798,-0.0001,0.0000,-2.9855,rough,14.0,0,8.745
650,20.80,5.5479,0.3594,0.1799,-0.0001,-0.0000,3.1368,rough,14.0,0,8.444
660,21.12,5.1244,0.3689,0.1799,-0.0001,-0.0000,3.0078,rough,14.0,0,8.105
670,21.44,4.7024,0.4321,0.1799,0.0001,-0.0000,2.9077,rough,14.0,0,7.740
680,21.76,4.2846,0.5382,0.1799,-0.0001,0.0001,2.8348,rough,14.0,0,7.356
690,22.08,3.8738,0.6734,0.1799,-0.0002,0.0000,2.7723,rough,14.0,0,6.962
700,22.40,3.4723,0.8350,0.1799,-0.0002,-0.0000,2.7146,rough,14.0,0,6.562
710,22.72,3.0790,1.0200,0.1799,-0.0001,-0.0000,2.6654,rough,14.0,0,6.154
720,23.04,2.6945,1.2245,0.1799,-0.0001,-0.0000,2.6211,rough,14.0,0,5.742
730,23.36,2.3188,1.4461,0.1799,-0.0001,-0.0000,2.5801,rough,14.0,0,5.326
740,23.68,1.9520,1.6833,0.1799,-0.0001,-0.0000,2.5419,rough,14.0,0,4.908
750,24.00,1.5942,1.9347,0.1799,-0.0001,-0.0000,2.5058,rough,14.0,0,4.488
760,24.32,1.2454,2.1992,0.1799,-0.0001,-0.0000,2.4717,rough,14.0,0,4.066
770,24.64,0.9065,2.4756,0.1799,-0.0001,0.0000,2.4395,rough,14.0,0,3.643
780,24.96,0.5770,2.7629,0.1799,-0.0001,0.0000,2.4051,rough,14.0,0,3.221
790,25.28,0.2584,3.0613,0.1799,-0.0001,0.0000,2.3677,rough,14.0,0,2.799
800,25.60,-0.0500,3.3661,0.1819,0.0055,-0.0061,2.3508,rough,14.0,0,2.382
810,25.92,-0.3512,3.6840,0.1834,0.0106,0.0025,2.3193,rough,14.0,0,1.962
820,26.24,-0.6449,4.0070,0.1797,-0.0011,0.0033,2.2895,rough,14.0,0,1.551
830,26.56,-0.9210,4.3383,0.1798,-0.0001,-0.0002,2.2393,rough,14.0,0,1.154
840,26.88,-1.1737,4.6732,0.1838,-0.0094,-0.0227,2.1589,rough,14.0,1,0.789
850,27.20,-1.3696,4.9881,0.2254,0.0143,-0.1924,2.0647,rough,14.0,1,2.408
860,27.52,-1.5448,5.2978,0.3102,-0.0067,-0.2999,1.9992,rough,14.0,1,2.138
870,27.84,-1.7176,5.6417,0.4033,-0.0858,-0.2449,1.9108,rough,14.0,1,1.864
880,28.16,-1.8447,5.9659,0.4905,-0.1363,-0.3053,1.8555,rough,14.0,1,1.629
890,28.48,-1.9383,6.2856,0.6014,-0.1162,-0.3636,1.7799,rough,14.0,1,1.421
900,28.80,-2.0077,6.5764,0.7077,-0.1358,-0.3825,1.7221,rough,14.0,1,1.267
910,29.12,-2.0525,6.8237,0.8199,-0.1320,-0.4353,1.6816,rough,14.0,1,1.169
920,29.44,-2.0911,7.0130,0.9081,-0.1395,-0.4542,1.7059,rough,14.0,1,1.130
930,29.76,-2.1445,7.1578,0.9746,-0.1471,-0.4387,1.7318,rough,14.0,1,1.145
940,30.08,-2.1740,7.3236,1.0511,-0.1030,-0.4218,1.6396,rough,14.0,1,1.156
950,30.40,-2.1910,7.4646,1.1108,-0.0979,-0.4104,1.6215,rough,14.0,1,1.175
960,30.72,-2.2012,7.6042,1.1722,-0.0913,-0.4116,1.5892,rough,14.0,1,1.205
970,31.04,-2.2046,7.7419,1.2239,-0.0865,-0.3620,1.5730,rough,14.0,1,1.242
980,31.36,-2.2052,7.8784,1.2719,-0.0858,-0.2968,1.5626,rough,14.0,1,1.290
990,31.68,-2.2163,8.0226,1.3062,-0.1138,-0.2496,1.5142,rough,14.0,1,1.363
1000,32.00,-2.2193,8.1857,1.3446,-0.0950,-0.2444,1.3816,rough,14.0,1,1.451
1010,32.32,-2.1896,8.4139,1.3901,-0.0398,-0.2280,1.0527,rough,14.0,1,1.568
1020,32.64,-2.0495,8.6401,1.4421,-0.0078,-0.2045,0.6907,rough,14.0,1,1.635
1030,32.96,-1.8156,8.7265,1.4965,0.0676,-0.2394,0.3318,rough,14.0,1,1.573
1040,33.28,-1.5120,8.7176,1.5419,0.1961,-0.1603,-0.0274,rough,14.0,1,1.435
1050,33.60,-1.1941,8.6091,1.5699,0.2556,-0.0787,-0.3426,rough,14.0,1,1.251
1060,33.92,-0.9274,8.4587,1.5701,0.3162,0.0347,-0.5015,rough,14.0,1,1.093
1070,34.24,-0.7098,8.2686,1.5449,0.3400,0.0702,-0.7246,rough,14.0,1,0.950
1080,34.56,-0.5205,8.0077,1.4872,0.3440,0.1911,-0.9558,rough,14.0,1,0.810
1090,34.88,-0.3133,7.6481,1.3875,0.3858,0.2730,-0.9821,rough,14.0,2,7.528
1100,35.20,-0.0989,7.2711,1.2460,0.3489,0.3704,-1.0303,rough,14.0,2,7.137
1110,35.52,0.0992,6.9059,1.0664,0.3181,0.4205,-1.0750,rough,14.0,2,6.772
1120,35.84,0.2699,6.5494,0.8722,0.2828,0.4851,-1.0777,rough,14.0,2,6.441
1130,36.16,0.4419,6.1865,0.6641,0.2115,0.4861,-1.1106,rough,14.0,2,6.113
1140,36.48,0.6035,5.8537,0.4923,0.2449,0.3640,-1.0232,rough,14.0,2,5.817
1150,36.80,0.7132,5.7029,0.4332,0.1724,0.3524,-1.2735,rough,14.0,2,5.653
1160,37.12,0.7534,5.6861,0.4283,0.0961,0.3783,-1.4769,rough,14.0,2,5.610
1170,37.44,0.7665,5.6817,0.4276,0.0715,0.3805,-1.5466,rough,14.0,2,5.596
1180,37.76,0.7704,5.6808,0.4276,0.0641,0.3816,-1.5683,rough,14.0,2,5.592
1190,38.08,0.7715,5.6795,0.4270,0.0587,0.3787,-1.5754,rough,14.0,2,5.590
1200,38.40,0.7716,5.6794,0.4269,0.0576,0.3779,-1.5765,rough,14.0,2,5.590
1210,38.72,0.7712,5.6795,0.4269,0.0570,0.3775,-1.5771,rough,14.0,2,5.591
1220,39.04,0.7711,5.6795,0.4269,0.0566,0.3769,-1.5769,rough,14.0,2,5.591
1230,39.36,0.7706,5.6795,0.4269,0.0561,0.3766,-1.5772,rough,14.0,2,5.591
1240,39.68,0.7704,5.6796,0.4269,0.0558,0.3760,-1.5769,rough,14.0,2,5.591
1250,40.00,0.7703,5.6796,0.4269,0.0555,0.3756,-1.5768,rough,14.0,2,5.591
1260,40.32,0.7702,5.6797,0.4269,0.0552,0.3752,-1.5767,rough,14.0,2,5.592
1270,40.64,0.7701,5.6797,0.4269,0.0548,0.3748,-1.5767,rough,14.0,2,5.592
1280,40.96,0.7697,5.6798,0.4269,0.0543,0.3744,-1.5771,rough,14.0,2,5.592
1290,41.28,0.7695,5.6798,0.4269,0.0540,0.3739,-1.5768,rough,14.0,2,5.592
1300,41.60,0.7694,5.6798,0.4269,0.0537,0.3735,-1.5767,rough,14.0,2,5.592
1310,41.92,0.7693,5.6799,0.4269,0.0534,0.3730,-1.5767,rough,14.0,2,5.593
1320,42.24,0.7691,5.6799,0.4269,0.0530,0.3726,-1.5767,rough,14.0,2,5.593
1330,42.56,0.7688,5.6800,0.4269,0.0525,0.3723,-1.5771,rough,14.0,2,5.593
1340,42.88,0.7686,5.6800,0.4269,0.0522,0.3717,-1.5768,rough,14.0,2,5.593
1350,43.20,0.7685,5.6800,0.4269,0.0519,0.3713,-1.5767,rough,14.0,2,5.593
1360,43.52,0.7683,5.6801,0.4269,0.0515,0.3709,-1.5766,rough,14.0,2,5.593
1370,43.84,0.7682,5.6801,0.4269,0.0512,0.3705,-1.5766,rough,14.0,2,5.594
1380,44.16,0.7679,5.6802,0.4269,0.0508,0.3702,-1.5770,rough,14.0,2,5.594
1390,44.48,0.7677,5.6802,0.4269,0.0504,0.3696,-1.5767,rough,14.0,2,5.594
1400,44.80,0.7676,5.6803,0.4269,0.0501,0.3692,-1.5766,rough,14.0,2,5.594
1410,45.12,0.7673,5.6804,0.4270,0.0498,0.3689,-1.5768,rough,14.0,2,5.595
1420,45.44,0.7671,5.6804,0.4270,0.0497,0.3687,-1.5765,rough,14.0,2,5.595
1430,45.76,0.7669,5.6806,0.4271,0.0495,0.3686,-1.5768,rough,14.0,2,5.595
1440,46.08,0.7667,5.6806,0.4271,0.0494,0.3684,-1.5765,rough,14.0,2,5.595
1450,46.40,0.7666,5.6807,0.4272,0.0494,0.3683,-1.5764,rough,14.0,2,5.595
1460,46.72,0.7665,5.6808,0.4272,0.0493,0.3682,-1.5764,rough,14.0,2,5.595
1470,47.04,0.7663,5.6808,0.4273,0.0492,0.3681,-1.5764,rough,14.0,2,5.596
1480,47.36,0.7660,5.6810,0.4273,0.0489,0.3681,-1.5769,rough,14.0,2,5.596
1490,47.68,0.7658,5.6810,0.4273,0.0489,0.3679,-1.5765,rough,14.0,2,5.596
1500,48.00,0.7657,5.6810,0.4274,0.0489,0.3678,-1.5764,rough,14.0,2,5.596
1510,48.32,0.7656,5.6811,0.4274,0.0488,0.3677,-1.5764,rough,14.0,2,5.596
1520,48.64,0.7654,5.6812,0.4274,0.0488,0.3676,-1.5764,rough,14.0,2,5.597
1530,48.96,0.7651,5.6813,0.4275,0.0485,0.3677,-1.5770,rough,14.0,2,5.597
1540,49.28,0.7649,5.6813,0.4275,0.0485,0.3675,-1.5765,rough,14.0,2,5.597
1550,49.60,0.7648,5.6813,0.4275,0.0485,0.3674,-1.5764,rough,14.0,2,5.597
1560,49.92,0.7647,5.6814,0.4275,0.0485,0.3673,-1.5764,rough,14.0,2,5.597
1570,50.24,0.7646,5.6814,0.4276,0.0484,0.3673,-1.5764,rough,14.0,2,5.597
1580,50.56,0.7643,5.6816,0.4276,0.0482,0.3675,-1.5770,rough,14.0,2,5.598
1590,50.88,0.7641,5.6815,0.4276,0.0482,0.3672,-1.5765,rough,14.0,2,5.598
1600,51.20,0.7639,5.6815,0.4276,0.0482,0.3671,-1.5764,rough,14.0,2,5.598
1610,51.52,0.7635,5.6816,0.4277,0.0480,0.3671,-1.5766,rough,14.0,2,5.598
1620,51.84,0.7634,5.6816,0.4277,0.0480,0.3670,-1.5764,rough,14.0,2,5.599
1630,52.16,0.7631,5.6817,0.4277,0.0476,0.3670,-1.5772,rough,14.0,2,5.599
1640,52.48,0.7629,5.6817,0.4277,0.0479,0.3669,-1.5765,rough,14.0,2,5.599
1650,52.80,0.7627,5.6817,0.4277,0.0479,0.3669,-1.5764,rough,14.0,2,5.599
1660,53.12,0.7626,5.6818,0.4277,0.0478,0.3668,-1.5763,rough,14.0,2,5.599
1670,53.44,0.7625,5.6818,0.4277,0.0478,0.3668,-1.5763,rough,14.0,2,5.600
1680,53.76,0.7622,5.6818,0.4277,0.0473,0.3668,-1.5773,rough,14.0,2,5.600
1690,54.08,0.7620,5.6819,0.4278,0.0476,0.3667,-1.5766,rough,14.0,2,5.600
1700,54.40,0.7618,5.6819,0.4278,0.0476,0.3667,-1.5764,rough,14.0,2,5.600
1710,54.72,0.7617,5.6819,0.4278,0.0476,0.3667,-1.5763,rough,14.0,2,5.600
1720,55.04,0.7616,5.6819,0.4278,0.0476,0.3666,-1.5763,rough,14.0,2,5.600
1730,55.36,0.7615,5.6819,0.4278,0.0476,0.3666,-1.5763,rough,14.0,2,5.600
1740,55.68,0.7611,5.6820,0.4278,0.0474,0.3666,-1.5766,rough,14.0,2,5.601
1750,56.00,0.7610,5.6820,0.4278,0.0474,0.3666,-1.5763,rough,14.0,2,5.601
1760,56.32,0.7608,5.6820,0.4278,0.0474,0.3665,-1.5763,rough,14.0,2,5.601
1770,56.64,0.7607,5.6820,0.4278,0.0474,0.3665,-1.5763,rough,14.0,2,5.601
1780,56.96,0.7606,5.6820,0.4278,0.0474,0.3665,-1.5763,rough,14.0,2,5.601
1790,57.28,0.7602,5.6821,0.4278,0.0472,0.3665,-1.5766,rough,14.0,2,5.602
1800,57.60,0.7601,5.6821,0.4278,0.0472,0.3665,-1.5763,rough,14.0,2,5.602
1810,57.92,0.7597,5.6821,0.4278,0.0471,0.3665,-1.5766,rough,14.0,2,5.602
1820,58.24,0.7596,5.6821,0.4278,0.0472,0.3664,-1.5763,rough,14.0,2,5.602
1830,58.56,0.7594,5.6822,0.4278,0.0472,0.3664,-1.5763,rough,14.0,2,5.602
1840,58.88,0.7591,5.6822,0.4278,0.0470,0.3664,-1.5766,rough,14.0,2,5.603
1850,59.20,0.7589,5.6822,0.4278,0.0470,0.3664,-1.5763,rough,14.0,2,5.603
1860,59.52,0.7588,5.6822,0.4278,0.0470,0.3664,-1.5762,rough,14.0,2,5.603
1870,59.84,0.7587,5.6822,0.4278,0.0470,0.3664,-1.5762,rough,14.0,2,5.603
1880,60.16,0.7586,5.6822,0.4278,0.0470,0.3664,-1.5762,rough,14.0,2,5.603
1890,60.48,0.7583,5.6823,0.4278,0.0469,0.3664,-1.5766,rough,14.0,2,5.604
1900,60.80,0.7581,5.6823,0.4278,0.0469,0.3663,-1.5763,rough,14.0,2,5.604
1910,61.12,0.7580,5.6823,0.4278,0.0469,0.3663,-1.5762,rough,14.0,2,5.604
1920,61.44,0.7579,5.6823,0.4278,0.0469,0.3663,-1.5762,rough,14.0,2,5.604
1930,61.76,0.7577,5.6823,0.4278,0.0469,0.3663,-1.5762,rough,14.0,2,5.604
1940,62.08,0.7575,5.6823,0.4278,0.0468,0.3664,-1.5765,rough,14.0,2,5.604
1950,62.40,0.7573,5.6823,0.4278,0.0468,0.3663,-1.5763,rough,14.0,2,5.604
1960,62.72,0.7572,5.6823,0.4278,0.0468,0.3663,-1.5762,rough,14.0,2,5.604
1970,63.04,0.7571,5.6823,0.4278,0.0468,0.3663,-1.5762,rough,14.0,2,5.605
1980,63.36,0.7570,5.6823,0.4278,0.0468,0.3663,-1.5762,rough,14.0,2,5.605
1990,63.68,0.7568,5.6824,0.4278,0.0467,0.3664,-1.5764,rough,14.0,2,5.605
2000,64.00,0.7566,5.6823,0.4278,0.0467,0.3663,-1.5763,rough,14.0,2,5.605
2010,64.32,0.7564,5.6824,0.4278,0.0466,0.3663,-1.5763,rough,14.0,2,5.605
2020,64.64,0.7562,5.6824,0.4278,0.0466,0.3663,-1.5762,rough,14.0,2,5.605
2030,64.96,0.7561,5.6824,0.4278,0.0466,0.3663,-1.5762,rough,14.0,2,5.605
2040,65.28,0.7559,5.6825,0.4278,0.0466,0.3664,-1.5763,rough,14.0,2,5.606
2050,65.60,0.7558,5.6824,0.4278,0.0466,0.3663,-1.5762,rough,14.0,2,5.606
2060,65.92,0.7557,5.6824,0.4278,0.0466,0.3663,-1.5762,rough,14.0,2,5.606
2070,66.24,0.7556,5.6824,0.4278,0.0466,0.3663,-1.5762,rough,14.0,2,5.606
2080,66.56,0.7555,5.6824,0.4278,0.0466,0.3663,-1.5761,rough,14.0,2,5.606
2090,66.88,0.7553,5.6825,0.4278,0.0466,0.3665,-1.5762,rough,14.0,2,5.606
2100,67.20,0.7552,5.6824,0.4278,0.0465,0.3663,-1.5762,rough,14.0,2,5.606
2110,67.52,0.7551,5.6824,0.4278,0.0465,0.3663,-1.5762,rough,14.0,2,5.606
2120,67.84,0.7550,5.6824,0.4278,0.0465,0.3663,-1.5761,rough,14.0,2,5.607
2130,68.16,0.7549,5.6824,0.4278,0.0465,0.3663,-1.5761,rough,14.0,2,5.607
2140,68.48,0.7547,5.6824,0.4278,0.0464,0.3663,-1.5762,rough,14.0,2,5.607
2150,68.80,0.7546,5.6824,0.4278,0.0465,0.3663,-1.5762,rough,14.0,2,5.607
2160,69.12,0.7545,5.6824,0.4277,0.0464,0.3663,-1.5761,rough,14.0,2,5.607
2170,69.44,0.7544,5.6824,0.4277,0.0464,0.3663,-1.5761,rough,14.0,2,5.607
2180,69.76,0.7543,5.6824,0.4277,0.0464,0.3663,-1.5761,rough,14.0,2,5.607
2190,70.08,0.7542,5.6824,0.4277,0.0464,0.3663,-1.5762,rough,14.0,2,5.607
2200,70.40,0.7541,5.6825,0.4277,0.0464,0.3663,-1.5761,rough,14.0,2,5.607
2210,70.72,0.7540,5.6825,0.4277,0.0464,0.3663,-1.5761,rough,14.0,2,5.607
2220,71.04,0.7539,5.6824,0.4277,0.0464,0.3663,-1.5761,rough,14.0,2,5.608
2230,71.36,0.7538,5.6824,0.4277,0.0463,0.3663,-1.5761,rough,14.0,2,5.608
2240,71.68,0.7537,5.6824,0.4277,0.0463,0.3663,-1.5761,rough,14.0,2,5.608
2250,72.00,0.7535,5.6825,0.4277,0.0463,0.3663,-1.5761,rough,14.0,2,5.608
2260,72.32,0.7534,5.6824,0.4277,0.0463,0.3663,-1.5761,rough,14.0,2,5.608
2270,72.64,0.7533,5.6824,0.4277,0.0463,0.3663,-1.5761,rough,14.0,2,5.608
2280,72.96,0.7532,5.6825,0.4277,0.0463,0.3663,-1.5761,rough,14.0,2,5.608
2290,73.28,0.7531,5.6825,0.4277,0.0463,0.3663,-1.5761,rough,14.0,2,5.608
2300,73.60,0.7530,5.6825,0.4277,0.0463,0.3663,-1.5761,rough,14.0,2,5.608
2310,73.92,0.7529,5.6825,0.4277,0.0462,0.3663,-1.5761,rough,14.0,2,5.608
2320,74.24,0.7528,5.6825,0.4277,0.0462,0.3663,-1.5761,rough,14.0,2,5.609
2330,74.56,0.7527,5.6825,0.4277,0.0462,0.3663,-1.5761,rough,14.0,2,5.609
2340,74.88,0.7526,5.6825,0.4277,0.0462,0.3663,-1.5761,rough,14.0,2,5.609
2350,75.20,0.7525,5.6825,0.4277,0.0462,0.3664,-1.5761,rough,14.0,2,5.609
2360,75.52,0.7524,5.6825,0.4277,0.0462,0.3663,-1.5761,rough,14.0,2,5.609
2370,75.84,0.7523,5.6825,0.4277,0.0462,0.3663,-1.5761,rough,14.0,2,5.609
2380,76.16,0.7522,5.6825,0.4277,0.0462,0.3663,-1.5761,rough,14.0,2,5.609
2390,76.48,0.7521,5.6825,0.4276,0.0462,0.3663,-1.5761,rough,14.0,2,5.609
2400,76.80,0.7520,5.6825,0.4277,0.0462,0.3664,-1.5761,rough,14.0,2,5.609
2410,77.12,0.7519,5.6825,0.4277,0.0462,0.3664,-1.5761,rough,14.0,2,5.609
2420,77.44,0.7518,5.6825,0.4276,0.0461,0.3663,-1.5761,rough,14.0,2,5.609
2430,77.76,0.7517,5.6825,0.4276,0.0461,0.3663,-1.5761,rough,14.0,2,5.610
2440,78.08,0.7515,5.6825,0.4276,0.0461,0.3663,-1.5761,rough,14.0,2,5.610
2450,78.40,0.7514,5.6826,0.4276,0.0462,0.3664,-1.5760,rough,14.0,2,5.610
2460,78.72,0.7513,5.6825,0.4276,0.0461,0.3663,-1.5761,rough,14.0,2,5.610
2470,79.04,0.7512,5.6825,0.4276,0.0461,0.3663,-1.5761,rough,14.0,2,5.610
2480,79.36,0.7511,5.6825,0.4276,0.0460,0.3663,-1.5761,rough,14.0,2,5.610
2490,79.68,0.7510,5.6825,0.4276,0.0460,0.3663,-1.5761,rough,14.0,2,5.610
2500,80.00,0.7509,5.6826,0.4276,0.0461,0.3664,-1.5760,rough,14.0,2,5.610
2510,80.32,0.7508,5.6825,0.4276,0.0460,0.3663,-1.5761,rough,14.0,2,5.610
2520,80.64,0.7507,5.6825,0.4276,0.0460,0.3663,-1.5761,rough,14.0,2,5.610
2530,80.96,0.7506,5.6825,0.4276,0.0460,0.3663,-1.5760,rough,14.0,2,5.611
2540,81.28,0.7505,5.6825,0.4276,0.0460,0.3663,-1.5760,rough,14.0,2,5.611
2550,81.60,0.7504,5.6826,0.4276,0.0461,0.3665,-1.5760,rough,14.0,2,5.611
2560,81.92,0.7503,5.6825,0.4276,0.0460,0.3663,-1.5761,rough,14.0,2,5.611
2570,82.24,0.7502,5.6825,0.4276,0.0459,0.3663,-1.5760,rough,14.0,2,5.611
2580,82.56,0.7501,5.6825,0.4276,0.0459,0.3663,-1.5760,rough,14.0,2,5.611
2590,82.88,0.7500,5.6825,0.4276,0.0459,0.3663,-1.5760,rough,14.0,2,5.611
2600,83.20,0.7499,5.6827,0.4276,0.0461,0.3666,-1.5760,rough,14.0,2,5.611
2610,83.52,0.7498,5.6826,0.4276,0.0459,0.3664,-1.5760,rough,14.0,2,5.611
2620,83.84,0.7497,5.6825,0.4276,0.0459,0.3663,-1.5760,rough,14.0,2,5.611
2630,84.16,0.7496,5.6825,0.4276,0.0459,0.3663,-1.5760,rough,14.0,2,5.611
2640,84.48,0.7495,5.6825,0.4275,0.0459,0.3663,-1.5760,rough,14.0,2,5.612
2650,84.80,0.7494,5.6826,0.4275,0.0458,0.3664,-1.5760,rough,14.0,2,5.612
2660,85.12,0.7493,5.6826,0.4275,0.0459,0.3664,-1.5760,rough,14.0,2,5.612
2670,85.44,0.7492,5.6825,0.4275,0.0458,0.3663,-1.5760,rough,14.0,2,5.612
2680,85.76,0.7491,5.6825,0.4275,0.0458,0.3663,-1.5760,rough,14.0,2,5.612
2690,86.08,0.7490,5.6825,0.4275,0.0458,0.3663,-1.5760,rough,14.0,2,5.612
2700,86.40,0.7489,5.6826,0.4275,0.0458,0.3664,-1.5760,rough,14.0,2,5.612
2710,86.72,0.7488,5.6826,0.4275,0.0458,0.3664,-1.5760,rough,14.0,2,5.612
2720,87.04,0.7487,5.6826,0.4275,0.0458,0.3664,-1.5760,rough,14.0,2,5.612
2730,87.36,0.7486,5.6826,0.4275,0.0458,0.3664,-1.5760,rough,14.0,2,5.612
2740,87.68,0.7485,5.6826,0.4275,0.0458,0.3664,-1.5760,rough,14.0,2,5.612
2750,88.00,0.7484,5.6826,0.4275,0.0457,0.3664,-1.5760,rough,14.0,2,5.613
2760,88.32,0.7483,5.6826,0.4275,0.0458,0.3664,-1.5760,rough,14.0,2,5.613
2770,88.64,0.7482,5.6826,0.4275,0.0457,0.3664,-1.5760,rough,14.0,2,5.613
2780,88.96,0.7481,5.6826,0.4275,0.0457,0.3664,-1.5760,rough,14.0,2,5.613
2790,89.28,0.7480,5.6826,0.4275,0.0457,0.3664,-1.5760,rough,14.0,2,5.613
2800,89.60,0.7479,5.6826,0.4275,0.0457,0.3664,-1.5760,rough,14.0,2,5.613
2810,89.92,0.7478,5.6826,0.4275,0.0457,0.3664,-1.5760,rough,14.0,2,5.613
2820,90.24,0.7477,5.6826,0.4275,0.0457,0.3664,-1.5760,rough,14.0,2,5.613
2830,90.56,0.7476,5.6826,0.4275,0.0456,0.3664,-1.5760,rough,14.0,2,5.613
2840,90.88,0.7475,5.6826,0.4275,0.0456,0.3664,-1.5760,rough,14.0,2,5.613
2850,91.20,0.7474,5.6826,0.4275,0.0456,0.3664,-1.5760,rough,14.0,2,5.613
2860,91.52,0.7473,5.6826,0.4275,0.0457,0.3665,-1.5760,rough,14.0,2,5.614
2870,91.84,0.7472,5.6826,0.4275,0.0456,0.3664,-1.5760,rough,14.0,2,5.614
2880,92.16,0.7471,5.6826,0.4275,0.0456,0.3664,-1.5760,rough,14.0,2,5.614
2890,92.48,0.7470,5.6826,0.4274,0.0456,0.3664,-1.5760,rough,14.0,2,5.614
2900,92.80,0.7469,5.6826,0.4274,0.0456,0.3664,-1.5760,rough,14.0,2,5.614
2910,93.12,0.7468,5.6826,0.4275,0.0456,0.3665,-1.5760,rough,14.0,2,5.614
2920,93.44,0.7467,5.6826,0.4274,0.0456,0.3664,-1.5760,rough,14.0,2,5.614
2930,93.76,0.7466,5.6826,0.4274,0.0455,0.3664,-1.5760,rough,14.0,2,5.614
2940,94.08,0.7465,5.6826,0.4274,0.0455,0.3664,-1.5760,rough,14.0,2,5.614
2950,94.40,0.7464,5.6826,0.4274,0.0455,0.3664,-1.5760,rough,14.0,2,5.614
2960,94.72,0.7463,5.6827,0.4274,0.0456,0.3665,-1.5759,rough,14.0,2,5.614
2970,95.04,0.7463,5.6826,0.4274,0.0455,0.3664,-1.5760,rough,14.0,2,5.615
2980,95.36,0.7462,5.6826,0.4274,0.0455,0.3664,-1.5760,rough,14.0,2,5.615
2990,95.68,0.7461,5.6826,0.4274,0.0455,0.3664,-1.5759,rough,14.0,2,5.615
3000,96.00,0.7460,5.6826,0.4274,0.0455,0.3664,-1.5759,rough,14.0,2,5.615
3010,96.32,0.7459,5.6827,0.4274,0.0456,0.3666,-1.5759,rough,14.0,2,5.615
3020,96.64,0.7458,5.6826,0.4274,0.0454,0.3664,-1.5760,rough,14.0,2,5.615
3030,96.96,0.7457,5.6826,0.4274,0.0454,0.3664,-1.5760,rough,14.0,2,5.615
3040,97.28,0.7456,5.6826,0.4274,0.0454,0.3664,-1.5759,rough,14.0,2,5.615
3050,97.60,0.7455,5.6826,0.4274,0.0454,0.3664,-1.5759,rough,14.0,2,5.615
3060,97.92,0.7454,5.6827,0.4274,0.0455,0.3666,-1.5759,rough,14.0,2,5.615
3070,98.24,0.7453,5.6826,0.4274,0.0454,0.3664,-1.5759,rough,14.0,2,5.615
3080,98.56,0.7452,5.6826,0.4274,0.0454,0.3664,-1.5759,rough,14.0,2,5.615
3090,98.88,0.7451,5.6826,0.4274,0.0454,0.3664,-1.5759,rough,14.0,2,5.616
3100,99.20,0.7450,5.6826,0.4274,0.0454,0.3664,-1.5759,rough,14.0,2,5.616
3110,99.52,0.7449,5.6828,0.4274,0.0455,0.3667,-1.5759,rough,14.0,2,5.616
3120,99.84,0.7448,5.6827,0.4274,0.0453,0.3665,-1.5759,rough,14.0,2,5.616
3130,100.16,0.7447,5.6826,0.4274,0.0453,0.3664,-1.5759,rough,14.0,2,5.616
3140,100.48,0.7446,5.6826,0.4273,0.0453,0.3664,-1.5759,rough,14.0,2,5.616
3150,100.80,0.7445,5.6826,0.4273,0.0453,0.3664,-1.5759,rough,14.0,2,5.616
3160,101.12,0.7444,5.6827,0.4273,0.0453,0.3665,-1.5759,rough,14.0,2,5.616
3170,101.44,0.7444,5.6827,0.4273,0.0453,0.3665,-1.5759,rough,14.0,2,5.616
3180,101.76,0.7443,5.6827,0.4273,0.0453,0.3664,-1.5759,rough,14.0,2,5.616
3190,102.08,0.7442,5.6827,0.4273,0.0453,0.3664,-1.5759,rough,14.0,2,5.616
3200,102.40,0.7441,5.6827,0.4273,0.0453,0.3664,-1.5759,rough,14.0,2,5.617
3210,102.72,0.7440,5.6827,0.4273,0.0453,0.3665,-1.5759,rough,14.0,2,5.617
3220,103.04,0.7439,5.6827,0.4273,0.0452,0.3665,-1.5759,rough,14.0,2,5.617
3230,103.36,0.7438,5.6827,0.4273,0.0452,0.3665,-1.5759,rough,14.0,2,5.617
3240,103.68,0.7437,5.6827,0.4273,0.0452,0.3665,-1.5759,rough,14.0,2,5.617
3250,104.00,0.7436,5.6827,0.4273,0.0452,0.3665,-1.5759,rough,14.0,2,5.617
3260,104.32,0.7435,5.6827,0.4273,0.0452,0.3665,-1.5759,rough,14.0,2,5.617
3270,104.64,0.7434,5.6827,0.4273,0.0452,0.3665,-1.5759,rough,14.0,2,5.617
3280,104.96,0.7433,5.6827,0.4273,0.0452,0.3665,-1.5759,rough,14.0,2,5.617
3290,105.28,0.7432,5.6827,0.4273,0.0452,0.3665,-1.5759,rough,14.0,2,5.617
3300,105.60,0.7431,5.6827,0.4273,0.0451,0.3665,-1.5759,rough,14.0,2,5.617
3310,105.92,0.7430,5.6827,0.4273,0.0451,0.3665,-1.5759,rough,14.0,2,5.617
3320,106.24,0.7430,5.6827,0.4273,0.0452,0.3665,-1.5759,rough,14.0,2,5.618
3330,106.56,0.7429,5.6827,0.4273,0.0451,0.3665,-1.5759,rough,14.0,2,5.618
3340,106.88,0.7428,5.6827,0.4273,0.0451,0.3665,-1.5759,rough,14.0,2,5.618
3350,107.20,0.7427,5.6827,0.4273,0.0451,0.3665,-1.5759,rough,14.0,2,5.618
3360,107.52,0.7426,5.6827,0.4273,0.0451,0.3665,-1.5759,rough,14.0,2,5.618
3370,107.84,0.7425,5.6827,0.4273,0.0451,0.3665,-1.5759,rough,14.0,2,5.618
3380,108.16,0.7424,5.6827,0.4273,0.0451,0.3665,-1.5759,rough,14.0,2,5.618
3390,108.48,0.7423,5.6827,0.4273,0.0451,0.3665,-1.5759,rough,14.0,2,5.618
3400,108.80,0.7422,5.6827,0.4272,0.0450,0.3665,-1.5759,rough,14.0,2,5.618
3410,109.12,0.7421,5.6827,0.4273,0.0451,0.3665,-1.5759,rough,14.0,2,5.618
3420,109.44,0.7420,5.6828,0.4273,0.0451,0.3666,-1.5759,rough,14.0,2,5.618
3430,109.76,0.7420,5.6827,0.4272,0.0450,0.3665,-1.5759,rough,14.0,2,5.618
3440,110.08,0.7419,5.6827,0.4272,0.0450,0.3665,-1.5759,rough,14.0,2,5.619
3450,110.40,0.7418,5.6827,0.4272,0.0450,0.3665,-1.5759,rough,14.0,2,5.619
3460,110.72,0.7417,5.6827,0.4272,0.0450,0.3665,-1.5759,rough,14.0,2,5.619
3470,111.04,0.7416,5.6828,0.4272,0.0450,0.3666,-1.5758,rough,14.0,2,5.619
3480,111.36,0.7415,5.6827,0.4272,0.0450,0.3665,-1.5759,rough,14.0,2,5.619
3490,111.68,0.7414,5.6827,0.4272,0.0450,0.3665,-1.5759,rough,14.0,2,5.619
3500,112.00,0.7413,5.6827,0.4272,0.0449,0.3665,-1.5759,rough,14.0,2,5.619
3510,112.32,0.7412,5.6827,0.4272,0.0449,0.3665,-1.5759,rough,14.0,2,5.619
3520,112.64,0.7411,5.6828,0.4272,0.0450,0.3666,-1.5758,rough,14.0,2,5.619
3530,112.96,0.7410,5.6827,0.4272,0.0449,0.3665,-1.5759,rough,14.0,2,5.619
3540,113.28,0.7410,5.6827,0.4272,0.0449,0.3665,-1.5759,rough,14.0,2,5.619
3550,113.60,0.7409,5.6827,0.4272,0.0449,0.3665,-1.5758,rough,14.0,2,5.619
3560,113.92,0.7408,5.6827,0.4272,0.0449,0.3665,-1.5758,rough,14.0,2,5.620
3570,114.24,0.7407,5.6828,0.4272,0.0450,0.3667,-1.5758,rough,14.0,2,5.620
3580,114.56,0.7406,5.6827,0.4272,0.0449,0.3665,-1.5759,rough,14.0,2,5.620
3590,114.88,0.7405,5.6827,0.4272,0.0448,0.3665,-1.5758,rough,14.0,2,5.620
3600,115.20,0.7404,5.6827,0.4272,0.0448,0.3665,-1.5758,rough,14.0,2,5.620
3610,115.52,0.7403,5.6828,0.4272,0.0449,0.3666,-1.5758,rough,14.0,2,5.620
3620,115.84,0.7402,5.6829,0.4272,0.0450,0.3668,-1.5758,rough,14.0,2,5.620
3630,116.16,0.7402,5.6828,0.4272,0.0448,0.3665,-1.5758,rough,14.0,2,5.620
3640,116.48,0.7401,5.6827,0.4272,0.0448,0.3665,-1.5758,rough,14.0,2,5.620
3650,116.80,0.7400,5.6827,0.4272,0.0448,0.3665,-1.5758,rough,14.0,2,5.620
3660,117.12,0.7399,5.6827,0.4272,0.0448,0.3665,-1.5758,rough,14.0,2,5.620
3670,117.44,0.7398,5.6828,0.4272,0.0448,0.3666,-1.5758,rough,14.0,2,5.620
3680,117.76,0.7397,5.6828,0.4272,0.0448,0.3666,-1.5758,rough,14.0,2,5.621
3690,118.08,0.7396,5.6827,0.4271,0.0447,0.3665,-1.5758,rough,14.0,2,5.621
3700,118.40,0.7395,5.6827,0.4271,0.0447,0.3665,-1.5758,rough,14.0,2,5.621
3710,118.72,0.7394,5.6828,0.4271,0.0447,0.3665,-1.5758,rough,14.0,2,5.621
3720,119.04,0.7393,5.6828,0.4271,0.0447,0.3666,-1.5758,rough,14.0,2,5.621
3730,119.36,0.7393,5.6828,0.4271,0.0447,0.3666,-1.5758,rough,14.0,2,5.621
3740,119.68,0.7392,5.6828,0.4271,0.0447,0.3665,-1.5758,rough,14.0,2,5.621
3750,120.00,0.7391,5.6828,0.4271,0.0447,0.3665,-1.5758,rough,14.0,2,5.621
3760,120.32,0.7390,5.6828,0.4271,0.0447,0.3665,-1.5758,rough,14.0,2,5.621
3770,120.64,0.7389,5.6828,0.4271,0.0447,0.3665,-1.5758,rough,14.0,2,5.621
3780,120.96,0.7388,5.6828,0.4271,0.0447,0.3666,-1.5758,rough,14.0,2,5.621
3790,121.28,0.7387,5.6828,0.4271,0.0446,0.3666,-1.5758,rough,14.0,2,5.621
3800,121.60,0.7386,5.6828,0.4271,0.0446,0.3665,-1.5758,rough,14.0,2,5.621
3810,121.92,0.7385,5.6828,0.4271,0.0446,0.3666,-1.5758,rough,14.0,2,5.622
3820,122.24,0.7385,5.6828,0.4271,0.0446,0.3666,-1.5758,rough,14.0,2,5.622
3830,122.56,0.7384,5.6828,0.4271,0.0446,0.3666,-1.5758,rough,14.0,2,5.622
3840,122.88,0.7383,5.6828,0.4271,0.0446,0.3666,-1.5758,rough,14.0,2,5.622
3850,123.20,0.7382,5.6828,0.4271,0.0446,0.3666,-1.5758,rough,14.0,2,5.622
3860,123.52,0.7381,5.6828,0.4271,0.0446,0.3666,-1.5758,rough,14.0,2,5.622
3870,123.84,0.7380,5.6828,0.4271,0.0446,0.3666,-1.5758,rough,14.0,2,5.622
3880,124.16,0.7379,5.6828,0.4271,0.0446,0.3666,-1.5758,rough,14.0,2,5.622
3890,124.48,0.7378,5.6828,0.4271,0.0445,0.3666,-1.5758,rough,14.0,2,5.622
3900,124.80,0.7378,5.6828,0.4271,0.0445,0.3666,-1.5758,rough,14.0,2,5.622
3910,125.12,0.7377,5.6828,0.4271,0.0445,0.3666,-1.5758,rough,14.0,2,5.622
3920,125.44,0.7376,5.6828,0.4271,0.0445,0.3666,-1.5758,rough,14.0,2,5.622
3930,125.76,0.7375,5.6829,0.4271,0.0446,0.3667,-1.5758,rough,14.0,2,5.623
3940,126.08,0.7374,5.6828,0.4271,0.0445,0.3666,-1.5758,rough,14.0,2,5.623
3950,126.40,0.7373,5.6828,0.4271,0.0445,0.3666,-1.5758,rough,14.0,2,5.623
3960,126.72,0.7372,5.6828,0.4270,0.0445,0.3666,-1.5758,rough,14.0,2,5.623
3970,127.04,0.7371,5.6828,0.4270,0.0445,0.3666,-1.5758,rough,14.0,2,5.623
3980,127.36,0.7370,5.6829,0.4271,0.0445,0.3667,-1.5758,rough,14.0,2,5.623
3990,127.68,0.7370,5.6828,0.4270,0.0444,0.3666,-1.5758,rough,14.0,2,5.623
4000,128.00,0.7369,5.6828,0.4270,0.0444,0.3666,-1.5758,rough,14.0,2,5.623
4010,128.32,0.7368,5.6828,0.4270,0.0444,0.3666,-1.5758,rough,14.0,2,5.623
4020,128.64,0.7367,5.6828,0.4270,0.0444,0.3666,-1.5758,rough,14.0,2,5.623
4030,128.96,0.7366,5.6829,0.4270,0.0445,0.3667,-1.5757,rough,14.0,2,5.623
4040,129.28,0.7365,5.6828,0.4270,0.0444,0.3666,-1.5758,rough,14.0,2,5.623
4050,129.60,0.7364,5.6828,0.4270,0.0444,0.3666,-1.5758,rough,14.0,2,5.623
4060,129.92,0.7364,5.6828,0.4270,0.0444,0.3666,-1.5758,rough,14.0,2,5.624
4070,130.24,0.7363,5.6828,0.4270,0.0444,0.3666,-1.5758,rough,14.0,2,5.624
4080,130.56,0.7362,5.6829,0.4270,0.0445,0.3668,-1.5757,rough,14.0,2,5.624
4090,130.88,0.7361,5.6828,0.4270,0.0443,0.3666,-1.5758,rough,14.0,2,5.624
4100,131.20,0.7360,5.6828,0.4270,0.0443,0.3666,-1.5758,rough,14.0,2,5.624
4110,131.52,0.7359,5.6828,0.4270,0.0443,0.3666,-1.5758,rough,14.0,2,5.624
4120,131.84,0.7358,5.6828,0.4270,0.0443,0.3666,-1.5758,rough,14.0,2,5.624
4130,132.16,0.7357,5.6830,0.4270,0.0444,0.3669,-1.5757,rough,14.0,2,5.624
4140,132.48,0.7357,5.6828,0.4270,0.0443,0.3666,-1.5758,rough,14.0,2,5.624
4150,132.80,0.7356,5.6828,0.4270,0.0443,0.3666,-1.5758,rough,14.0,2,5.624
4160,133.12,0.7355,5.6828,0.4270,0.0443,0.3666,-1.5757,rough,14.0,2,5.624
4170,133.44,0.7354,5.6828,0.4270,0.0443,0.3666,-1.5757,rough,14.0,2,5.624
4180,133.76,0.7353,5.6829,0.4270,0.0442,0.3667,-1.5758,rough,14.0,2,5.625
4190,134.08,0.7352,5.6829,0.4270,0.0443,0.3666,-1.5758,rough,14.0,2,5.625
4200,134.40,0.7351,5.6828,0.4270,0.0442,0.3666,-1.5757,rough,14.0,2,5.625
4210,134.72,0.7351,5.6829,0.4270,0.0442,0.3667,-1.5757,rough,14.0,2,5.625
4220,135.04,0.7350,5.6829,0.4270,0.0442,0.3666,-1.5757,rough,14.0,2,5.625
4230,135.36,0.7349,5.6829,0.4270,0.0442,0.3667,-1.5758,rough,14.0,2,5.625
4240,135.68,0.7348,5.6829,0.4270,0.0442,0.3667,-1.5757,rough,14.0,2,5.625
4250,136.00,0.7347,5.6829,0.4269,0.0442,0.3666,-1.5757,rough,14.0,2,5.625
4260,136.32,0.7346,5.6829,0.4269,0.0442,0.3666,-1.5757,rough,14.0,2,5.625
4270,136.64,0.7345,5.6829,0.4269,0.0442,0.3666,-1.5757,rough,14.0,2,5.625
4280,136.96,0.7344,5.6829,0.4269,0.0442,0.3666,-1.5757,rough,14.0,2,5.625
4290,137.28,0.7344,5.6829,0.4269,0.0442,0.3667,-1.5757,rough,14.0,2,5.625
4300,137.60,0.7343,5.6829,0.4269,0.0441,0.3666,-1.5757,rough,14.0,2,5.625
4310,137.92,0.7342,5.6829,0.4269,0.0441,0.3666,-1.5757,rough,14.0,2,5.626
4320,138.24,0.7341,5.6829,0.4269,0.0441,0.3666,-1.5757,rough,14.0,2,5.626
4330,138.56,0.7340,5.6829,0.4269,0.0441,0.3666,-1.5757,rough,14.0,2,5.626
4340,138.88,0.7339,5.6829,0.4269,0.0441,0.3667,-1.5757,rough,14.0,2,5.626
4350,139.20,0.7339,5.6829,0.4269,0.0441,0.3666,-1.5757,rough,14.0,2,5.626
4360,139.52,0.7338,5.6829,0.4269,0.0441,0.3666,-1.5757,rough,14.0,2,5.626
4370,139.84,0.7337,5.6829,0.4269,0.0441,0.3666,-1.5757,rough,14.0,2,5.626
4380,140.16,0.7336,5.6829,0.4269,0.0441,0.3666,-1.5757,rough,14.0,2,5.626
4390,140.48,0.7335,5.6829,0.4269,0.0441,0.3667,-1.5757,rough,14.0,2,5.626
4400,140.80,0.7334,5.6829,0.4269,0.0440,0.3667,-1.5757,rough,14.0,2,5.626
4410,141.12,0.7333,5.6829,0.4269,0.0441,0.3667,-1.5757,rough,14.0,2,5.626
4420,141.44,0.7333,5.6829,0.4269,0.0440,0.3667,-1.5757,rough,14.0,2,5.626
4430,141.76,0.7332,5.6829,0.4269,0.0440,0.3667,-1.5757,rough,14.0,2,5.626
4440,142.08,0.7331,5.6829,0.4269,0.0441,0.3667,-1.5757,rough,14.0,2,5.627
4450,142.40,0.7330,5.6829,0.4269,0.0440,0.3667,-1.5757,rough,14.0,2,5.627
4460,142.72,0.7329,5.6829,0.4269,0.0440,0.3667,-1.5757,rough,14.0,2,5.627
4470,143.04,0.7328,5.6829,0.4269,0.0440,0.3667,-1.5757,rough,14.0,2,5.627
4480,143.36,0.7327,5.6829,0.4269,0.0440,0.3667,-1.5757,rough,14.0,2,5.627
4490,143.68,0.7327,5.6830,0.4269,0.0440,0.3668,-1.5757,rough,14.0,2,5.627
4500,144.00,0.7326,5.6829,0.4269,0.0439,0.3667,-1.5757,rough,14.0,2,5.627
4510,144.32,0.7325,5.6829,0.4269,0.0439,0.3667,-1.5757,rough,14.0,2,5.627
4520,144.64,0.7324,5.6829,0.4269,0.0439,0.3667,-1.5757,rough,14.0,2,5.627
4530,144.96,0.7323,5.6829,0.4268,0.0439,0.3667,-1.5757,rough,14.0,2,5.627
4540,145.28,0.7322,5.6830,0.4269,0.0440,0.3668,-1.5757,rough,14.0,2,5.627
4550,145.60,0.7322,5.6829,0.4268,0.0439,0.3667,-1.5757,rough,14.0,2,5.627
4560,145.92,0.7321,5.6829,0.4268,0.0439,0.3667,-1.5757,rough,14.0,2,5.627
4570,146.24,0.7320,5.6829,0.4268,0.0439,0.3667,-1.5757,rough,14.0,2,5.628
4580,146.56,0.7319,5.6829,0.4268,0.0439,0.3667,-1.5757,rough,14.0,2,5.628
4590,146.88,0.7318,5.6830,0.4269,0.0440,0.3668,-1.5756,rough,14.0,2,5.628
4600,147.20,0.7317,5.6829,0.4268,0.0438,0.3667,-1.5757,rough,14.0,2,5.628
4610,147.52,0.7316,5.6830,0.4268,0.0439,0.3667,-1.5757,rough,14.0,2,5.628
4620,147.84,0.7316,5.6829,0.4268,0.0438,0.3667,-1.5757,rough,14.0,2,5.628
4630,148.16,0.7315,5.6829,0.4268,0.0438,0.3667,-1.5757,rough,14.0,2,5.628
4640,148.48,0.7314,5.6831,0.4269,0.0439,0.3670,-1.5756,rough,14.0,2,5.628
4650,148.80,0.7313,5.6829,0.4268,0.0438,0.3667,-1.5757,rough,14.0,2,5.628
4660,149.12,0.7312,5.6829,0.4268,0.0438,0.3667,-1.5757,rough,14.0,2,5.628
4670,149.44,0.7311,5.6829,0.4268,0.0438,0.3667,-1.5757,rough,14.0,2,5.628
4680,149.76,0.7311,5.6829,0.4268,0.0438,0.3667,-1.5757,rough,14.0,2,5.628
4690,150.08,0.7310,5.6829,0.4268,0.0438,0.3667,-1.5757,rough,14.0,2,5.629
4700,150.40,0.7309,5.6830,0.4268,0.0438,0.3667,-1.5757,rough,14.0,2,5.629
4710,150.72,0.7308,5.6829,0.4268,0.0437,0.3667,-1.5757,rough,14.0,2,5.629
4720,151.04,0.7307,5.6829,0.4268,0.0437,0.3667,-1.5757,rough,14.0,2,5.629
4730,151.36,0.7306,5.6829,0.4268,0.0437,0.3667,-1.5757,rough,14.0,2,5.629
4740,151.68,0.7306,5.6830,0.4268,0.0437,0.3668,-1.5757,rough,14.0,2,5.629
4750,152.00,0.7305,5.6830,0.4268,0.0437,0.3667,-1.5757,rough,14.0,2,5.629
4760,152.32,0.7304,5.6829,0.4268,0.0437,0.3667,-1.5757,rough,14.0,2,5.629
4770,152.64,0.7303,5.6829,0.4268,0.0437,0.3667,-1.5757,rough,14.0,2,5.629
4780,152.96,0.7302,5.6829,0.4268,0.0437,0.3667,-1.5757,rough,14.0,2,5.629
4790,153.28,0.7301,5.6829,0.4268,0.0437,0.3667,-1.5756,rough,14.0,2,5.629
4800,153.60,0.7301,5.6830,0.4268,0.0437,0.3668,-1.5757,rough,14.0,2,5.629
4810,153.92,0.7300,5.6830,0.4268,0.0437,0.3668,-1.5757,rough,14.0,2,5.629
4820,154.24,0.7299,5.6830,0.4268,0.0436,0.3667,-1.5757,rough,14.0,2,5.629
4830,154.56,0.7298,5.6830,0.4267,0.0436,0.3667,-1.5756,rough,14.0,2,5.630
4840,154.88,0.7297,5.6830,0.4267,0.0436,0.3667,-1.5756,rough,14.0,2,5.630
4850,155.20,0.7296,5.6830,0.4268,0.0436,0.3668,-1.5756,rough,14.0,2,5.630
4860,155.52,0.7296,5.6830,0.4267,0.0436,0.3667,-1.5756,rough,14.0,2,5.630
4870,155.84,0.7295,5.6830,0.4267,0.0436,0.3667,-1.5756,rough,14.0,2,5.630
4880,156.16,0.7294,5.6830,0.4267,0.0436,0.3667,-1.5756,rough,14.0,2,5.630
4890,156.48,0.7293,5.6830,0.4267,0.0436,0.3667,-1.5756,rough,14.0,2,5.630
4900,156.80,0.7292,5.6830,0.4267,0.0436,0.3668,-1.5756,rough,14.0,2,5.630
4910,157.12,0.7291,5.6830,0.4267,0.0435,0.3667,-1.5756,rough,14.0,2,5.630
4920,157.44,0.7291,5.6830,0.4267,0.0435,0.3667,-1.5756,rough,14.0,2,5.630
4930,157.76,0.7290,5.6830,0.4267,0.0435,0.3667,-1.5756,rough,14.0,2,5.630
4940,158.08,0.7289,5.6830,0.4267,0.0435,0.3667,-1.5756,rough,14.0,2,5.630
4950,158.40,0.7288,5.6830,0.4267,0.0436,0.3668,-1.5756,rough,14.0,2,5.630
4960,158.72,0.7287,5.6830,0.4267,0.0435,0.3667,-1.5756,rough,14.0,2,5.631
4970,159.04,0.7287,5.6830,0.4267,0.0435,0.3667,-1.5756,rough,14.0,2,5.631
4980,159.36,0.7286,5.6830,0.4267,0.0435,0.3667,-1.5756,rough,14.0,2,5.631
4990,159.68,0.7285,5.6830,0.4267,0.0435,0.3667,-1.5756,rough,14.0,2,5.631
5000,160.00,0.7284,5.6831,0.4267,0.0435,0.3669,-1.5756,rough,14.0,2,5.631
5010,160.32,0.7283,5.6830,0.4267,0.0435,0.3668,-1.5756,rough,14.0,2,5.631
5020,160.64,0.7282,5.6830,0.4267,0.0434,0.3667,-1.5756,rough,14.0,2,5.631
5030,160.96,0.7282,5.6830,0.4267,0.0434,0.3667,-1.5756,rough,14.0,2,5.631
5040,161.28,0.7281,5.6830,0.4267,0.0434,0.3667,-1.5756,rough,14.0,2,5.631
5050,161.60,0.7280,5.6831,0.4267,0.0435,0.3669,-1.5756,rough,14.0,2,5.631
5060,161.92,0.7279,5.6830,0.4267,0.0434,0.3668,-1.5756,rough,14.0,2,5.631
5070,162.24,0.7278,5.6830,0.4267,0.0434,0.3668,-1.5756,rough,14.0,2,5.631
5080,162.56,0.7277,5.6830,0.4267,0.0434,0.3668,-1.5756,rough,14.0,2,5.631
5090,162.88,0.7277,5.6830,0.4267,0.0434,0.3668,-1.5756,rough,14.0,2,5.632
5100,163.20,0.7276,5.6831,0.4267,0.0435,0.3669,-1.5755,rough,14.0,2,5.632
5110,163.52,0.7275,5.6830,0.4267,0.0434,0.3668,-1.5756,rough,14.0,2,5.632
5120,163.84,0.7274,5.6830,0.4267,0.0433,0.3668,-1.5756,rough,14.0,2,5.632
5130,164.16,0.7273,5.6830,0.4266,0.0433,0.3668,-1.5756,rough,14.0,2,5.632
5140,164.48,0.7273,5.6830,0.4266,0.0433,0.3668,-1.5756,rough,14.0,2,5.632
5150,164.80,0.7272,5.6832,0.4267,0.0435,0.3670,-1.5755,rough,14.0,2,5.632
5160,165.12,0.7271,5.6830,0.4266,0.0433,0.3668,-1.5756,rough,14.0,2,5.632
5170,165.44,0.7270,5.6830,0.4266,0.0433,0.3668,-1.5756,rough,14.0,2,5.632
5180,165.76,0.7269,5.6830,0.4266,0.0433,0.3668,-1.5756,rough,14.0,2,5.632
5190,166.08,0.7269,5.6830,0.4266,0.0433,0.3668,-1.5756,rough,14.0,2,5.632
5200,166.40,0.7268,5.6830,0.4266,0.0433,0.3668,-1.5756,rough,14.0,2,5.632
5210,166.72,0.7267,5.6831,0.4266,0.0433,0.3668,-1.5756,rough,14.0,2,5.632
5220,167.04,0.7266,5.6830,0.4266,0.0433,0.3668,-1.5756,rough,14.0,2,5.632
5230,167.36,0.7265,5.6830,0.4266,0.0432,0.3668,-1.5756,rough,14.0,2,5.633
5240,167.68,0.7264,5.6830,0.4266,0.0432,0.3668,-1.5756,rough,14.0,2,5.633
5250,168.00,0.7264,5.6831,0.4266,0.0432,0.3668,-1.5756,rough,14.0,2,5.633
5260,168.32,0.7263,5.6831,0.4266,0.0432,0.3668,-1.5756,rough,14.0,2,5.633
5270,168.64,0.7262,5.6830,0.4266,0.0432,0.3668,-1.5756,rough,14.0,2,5.633
5280,168.96,0.7261,5.6830,0.4266,0.0432,0.3668,-1.5756,rough,14.0,2,5.633
5290,169.28,0.7260,5.6830,0.4266,0.0432,0.3668,-1.5756,rough,14.0,2,5.633
5300,169.60,0.7260,5.6830,0.4266,0.0432,0.3668,-1.5756,rough,14.0,2,5.633
5310,169.92,0.7259,5.6831,0.4266,0.0432,0.3668,-1.5756,rough,14.0,2,5.633
5320,170.24,0.7258,5.6830,0.4266,0.0432,0.3668,-1.5756,rough,14.0,2,5.633
5330,170.56,0.7257,5.6830,0.4266,0.0432,0.3668,-1.5756,rough,14.0,2,5.633
5340,170.88,0.7256,5.6830,0.4266,0.0431,0.3668,-1.5756,rough,14.0,2,5.633
5350,171.20,0.7256,5.6830,0.4266,0.0431,0.3668,-1.5756,rough,14.0,2,5.633
5360,171.52,0.7255,5.6831,0.4266,0.0432,0.3669,-1.5756,rough,14.0,2,5.634
5370,171.84,0.7254,5.6831,0.4266,0.0431,0.3668,-1.5756,rough,14.0,2,5.634
5380,172.16,0.7253,5.6831,0.4266,0.0431,0.3668,-1.5756,rough,14.0,2,5.634
5390,172.48,0.7252,5.6831,0.4266,0.0431,0.3668,-1.5756,rough,14.0,2,5.634
5400,172.80,0.7252,5.6831,0.4266,0.0431,0.3668,-1.5756,rough,14.0,2,5.634
5410,173.12,0.7251,5.6831,0.4266,0.0431,0.3669,-1.5756,rough,14.0,2,5.634
5420,173.44,0.7250,5.6831,0.4266,0.0431,0.3668,-1.5756,rough,14.0,2,5.634
5430,173.76,0.7249,5.6831,0.4265,0.0431,0.3668,-1.5756,rough,14.0,2,5.634
5440,174.08,0.7248,5.6831,0.4265,0.0431,0.3668,-1.5756,rough,14.0,2,5.634
5450,174.40,0.7248,5.6831,0.4265,0.0430,0.3668,-1.5755,rough,14.0,2,5.634
5460,174.72,0.7247,5.6831,0.4266,0.0431,0.3669,-1.5755,rough,14.0,2,5.634
5470,175.04,0.7246,5.6831,0.4265,0.0430,0.3668,-1.5756,rough,14.0,2,5.634
5480,175.36,0.7245,5.6831,0.4265,0.0430,0.3668,-1.5756,rough,14.0,2,5.634
5490,175.68,0.7244,5.6831,0.4265,0.0430,0.3668,-1.5755,rough,14.0,2,5.634
5500,176.00,0.7244,5.6831,0.4265,0.0430,0.3668,-1.5755,rough,14.0,2,5.635
5510,176.32,0.7243,5.6831,0.4265,0.0431,0.3669,-1.5755,rough,14.0,2,5.635
5520,176.64,0.7242,5.6831,0.4265,0.0430,0.3668,-1.5756,rough,14.0,2,5.635
5530,176.96,0.7241,5.6831,0.4265,0.0430,0.3668,-1.5755,rough,14.0,2,5.635
5540,177.28,0.7240,5.6831,0.4265,0.0430,0.3668,-1.5755,rough,14.0,2,5.635
5550,177.60,0.7240,5.6831,0.4265,0.0430,0.3668,-1.5755,rough,14.0,2,5.635
5560,177.92,0.7239,5.6832,0.4265,0.0430,0.3670,-1.5755,rough,14.0,2,5.635
5570,178.24,0.7238,5.6831,0.4265,0.0429,0.3668,-1.5755,rough,14.0,2,5.635
5580,178.56,0.7237,5.6831,0.4265,0.0429,0.3668,-1.5755,rough,14.0,2,5.635
5590,178.88,0.7236,5.6831,0.4265,0.0429,0.3668,-1.5755,rough,14.0,2,5.635
5600,179.20,0.7236,5.6831,0.4265,0.0429,0.3668,-1.5755,rough,14.0,2,5.635
5610,179.52,0.7235,5.6832,0.4265,0.0430,0.3671,-1.5755,rough,14.0,2,5.635
5620,179.84,0.7234,5.6831,0.4265,0.0429,0.3669,-1.5755,rough,14.0,2,5.635
5630,180.16,0.7233,5.6831,0.4265,0.0429,0.3668,-1.5755,rough,14.0,2,5.635
5640,180.48,0.7233,5.6831,0.4265,0.0429,0.3668,-1.5755,rough,14.0,2,5.636
5650,180.80,0.7232,5.6831,0.4265,0.0429,0.3668,-1.5755,rough,14.0,2,5.636
5660,181.12,0.7231,5.6833,0.4265,0.0430,0.3671,-1.5754,rough,14.0,2,5.636
5670,181.44,0.7230,5.6831,0.4265,0.0429,0.3669,-1.5755,rough,14.0,2,5.636
5680,181.76,0.7229,5.6831,0.4265,0.0428,0.3668,-1.5755,rough,14.0,2,5.636
5690,182.08,0.7229,5.6831,0.4265,0.0428,0.3668,-1.5755,rough,14.0,2,5.636
5700,182.40,0.7228,5.6831,0.4265,0.0428,0.3668,-1.5755,rough,14.0,2,5.636
5710,182.72,0.7227,5.6831,0.4265,0.0428,0.3669,-1.5755,rough,14.0,2,5.636
5720,183.04,0.7226,5.6831,0.4265,0.0428,0.3669,-1.5755,rough,14.0,2,5.636
5730,183.36,0.7225,5.6831,0.4265,0.0428,0.3669,-1.5755,rough,14.0,2,5.636
5740,183.68,0.7225,5.6831,0.4265,0.0428,0.3669,-1.5755,rough,14.0,2,5.636
5750,184.00,0.7224,5.6831,0.4264,0.0428,0.3669,-1.5755,rough,14.0,2,5.636
5760,184.32,0.7223,5.6831,0.4265,0.0428,0.3669,-1.5755,rough,14.0,2,5.636
5770,184.64,0.7222,5.6831,0.4264,0.0428,0.3669,-1.5755,rough,14.0,2,5.637
5780,184.96,0.7222,5.6831,0.4264,0.0427,0.3669,-1.5755,rough,14.0,2,5.637
5790,185.28,0.7221,5.6831,0.4264,0.0427,0.3669,-1.5755,rough,14.0,2,5.637
5800,185.60,0.7220,5.6831,0.4264,0.0427,0.3669,-1.5755,rough,14.0,2,5.637
5810,185.92,0.7219,5.6832,0.4264,0.0427,0.3669,-1.5755,rough,14.0,2,5.637
5820,186.24,0.7218,5.6832,0.4264,0.0427,0.3669,-1.5755,rough,14.0,2,5.637
5830,186.56,0.7218,5.6831,0.4264,0.0427,0.3669,-1.5755,rough,14.0,2,5.637
5840,186.88,0.7217,5.6831,0.4264,0.0427,0.3669,-1.5755,rough,14.0,2,5.637
5850,187.20,0.7216,5.6831,0.4264,0.0427,0.3669,-1.5755,rough,14.0,2,5.637
5860,187.52,0.7215,5.6831,0.4264,0.0427,0.3669,-1.5755,rough,14.0,2,5.637
5870,187.84,0.7215,5.6832,0.4264,0.0427,0.3669,-1.5755,rough,14.0,2,5.637
5880,188.16,0.7214,5.6831,0.4264,0.0427,0.3669,-1.5755,rough,14.0,2,5.637
5890,188.48,0.7213,5.6831,0.4264,0.0426,0.3669,-1.5755,rough,14.0,2,5.637
5900,188.80,0.7212,5.6831,0.4264,0.0426,0.3669,-1.5755,rough,14.0,2,5.637
5910,189.12,0.7211,5.6831,0.4264,0.0426,0.3669,-1.5755,rough,14.0,2,5.637
5920,189.44,0.7211,5.6832,0.4264,0.0427,0.3670,-1.5755,rough,14.0,2,5.638
5930,189.76,0.7210,5.6832,0.4264,0.0426,0.3669,-1.5755,rough,14.0,2,5.638
5940,190.08,0.7209,5.6832,0.4264,0.0426,0.3669,-1.5755,rough,14.0,2,5.638
5950,190.40,0.7208,5.6832,0.4264,0.0426,0.3669,-1.5755,rough,14.0,2,5.638
5960,190.72,0.7208,5.6832,0.4264,0.0426,0.3669,-1.5755,rough,14.0,2,5.638
5970,191.04,0.7207,5.6832,0.4264,0.0426,0.3670,-1.5755,rough,14.0,2,5.638
5980,191.36,0.7206,5.6832,0.4264,0.0426,0.3669,-1.5755,rough,14.0,2,5.638
5990,191.68,0.7205,5.6832,0.4264,0.0426,0.3669,-1.5755,rough,14.0,2,5.638
6000,192.00,0.7204,5.6832,0.4264,0.0425,0.3669,-1.5755,rough,14.0,2,5.638
6010,192.32,0.7204,5.6832,0.4264,0.0426,0.3669,-1.5755,rough,14.0,2,5.638
6020,192.64,0.7203,5.6832,0.4264,0.0426,0.3670,-1.5755,rough,14.0,2,5.638
6030,192.96,0.7202,5.6832,0.4264,0.0425,0.3669,-1.5755,rough,14.0,2,5.638
6040,193.28,0.7201,5.6832,0.4264,0.0425,0.3669,-1.5755,rough,14.0,2,5.638
6050,193.60,0.7201,5.6832,0.4264,0.0425,0.3669,-1.5755,rough,14.0,2,5.638
6060,193.92,0.7200,5.6832,0.4264,0.0425,0.3669,-1.5755,rough,14.0,2,5.639
6070,194.24,0.7199,5.6833,0.4264,0.0426,0.3670,-1.5754,rough,14.0,2,5.639
6080,194.56,0.7198,5.6832,0.4263,0.0425,0.3669,-1.5755,rough,14.0,2,5.639
6090,194.88,0.7198,5.6832,0.4263,0.0425,0.3669,-1.5755,rough,14.0,2,5.639
6100,195.20,0.7197,5.6832,0.4263,0.0425,0.3669,-1.5755,rough,14.0,2,5.639
6110,195.52,0.7196,5.6832,0.4263,0.0425,0.3669,-1.5755,rough,14.0,2,5.639
6120,195.84,0.7195,5.6833,0.4264,0.0426,0.3671,-1.5754,rough,14.0,2,5.639
6130,196.16,0.7195,5.6832,0.4263,0.0424,0.3669,-1.5755,rough,14.0,2,5.639
6140,196.48,0.7194,5.6832,0.4263,0.0424,0.3669,-1.5755,rough,14.0,2,5.639
6150,196.80,0.7193,5.6832,0.4263,0.0424,0.3669,-1.5755,rough,14.0,2,5.639
6160,197.12,0.7192,5.6832,0.4263,0.0424,0.3669,-1.5754,rough,14.0,2,5.639
6170,197.44,0.7191,5.6833,0.4264,0.0425,0.3672,-1.5754,rough,14.0,2,5.639
6180,197.76,0.7191,5.6832,0.4263,0.0424,0.3669,-1.5755,rough,14.0,2,5.639
6190,198.08,0.7190,5.6832,0.4263,0.0424,0.3669,-1.5755,rough,14.0,2,5.639
6200,198.40,0.7189,5.6832,0.4263,0.0424,0.3669,-1.5754,rough,14.0,2,5.640
6210,198.72,0.7188,5.6832,0.4263,0.0424,0.3670,-1.5754,rough,14.0,2,5.640
6220,199.04,0.7188,5.6832,0.4263,0.0424,0.3670,-1.5755,rough,14.0,2,5.640
6230,199.36,0.7187,5.6832,0.4263,0.0424,0.3670,-1.5755,rough,14.0,2,5.640
6240,199.68,0.7186,5.6832,0.4263,0.0423,0.3669,-1.5754,rough,14.0,2,5.640
6250,200.00,0.7185,5.6832,0.4263,0.0423,0.3669,-1.5754,rough,14.0,2,5.640
6260,200.32,0.7185,5.6832,0.4263,0.0423,0.3669,-1.5754,rough,14.0,2,5.640
6270,200.64,0.7184,5.6832,0.4263,0.0423,0.3670,-1.5754,rough,14.0,2,5.640
6280,200.96,0.7183,5.6832,0.4263,0.0423,0.3670,-1.5754,rough,14.0,2,5.640
6290,201.28,0.7182,5.6832,0.4263,0.0423,0.3669,-1.5754,rough,14.0,2,5.640
6300,201.60,0.7182,5.6832,0.4263,0.0423,0.3669,-1.5754,rough,14.0,2,5.640
6310,201.92,0.7181,5.6832,0.4263,0.0423,0.3669,-1.5754,rough,14.0,2,5.640
6320,202.24,0.7180,5.6832,0.4263,0.0423,0.3669,-1.5754,rough,14.0,2,5.640
6330,202.56,0.7179,5.6832,0.4263,0.0423,0.3670,-1.5754,rough,14.0,2,5.640
6340,202.88,0.7179,5.6832,0.4263,0.0423,0.3669,-1.5754,rough,14.0,2,5.640
6350,203.20,0.7178,5.6832,0.4263,0.0422,0.3669,-1.5754,rough,14.0,2,5.641
6360,203.52,0.7177,5.6832,0.4263,0.0422,0.3669,-1.5754,rough,14.0,2,5.641
6370,203.84,0.7176,5.6832,0.4263,0.0422,0.3669,-1.5754,rough,14.0,2,5.641
6380,204.16,0.7176,5.6833,0.4263,0.0423,0.3670,-1.5754,rough,14.0,2,5.641
6390,204.48,0.7175,5.6832,0.4262,0.0422,0.3670,-1.5754,rough,14.0,2,5.641
6400,204.80,0.7174,5.6832,0.4262,0.0422,0.3669,-1.5754,rough,14.0,2,5.641
6410,205.12,0.7173,5.6833,0.4263,0.0422,0.3670,-1.5754,rough,14.0,2,5.641
6420,205.44,0.7173,5.6832,0.4262,0.0422,0.3670,-1.5754,rough,14.0,2,5.641
6430,205.76,0.7172,5.6833,0.4263,0.0422,0.3670,-1.5754,rough,14.0,2,5.641
6440,206.08,0.7171,5.6832,0.4262,0.0422,0.3670,-1.5754,rough,14.0,2,5.641
6450,206.40,0.7170,5.6832,0.4262,0.0422,0.3670,-1.5754,rough,14.0,2,5.641
6460,206.72,0.7170,5.6832,0.4262,0.0421,0.3670,-1.5754,rough,14.0,2,5.641
6470,207.04,0.7169,5.6832,0.4262,0.0421,0.3670,-1.5754,rough,14.0,2,5.641
6480,207.36,0.7168,5.6833,0.4262,0.0422,0.3671,-1.5754,rough,14.0,2,5.641
6490,207.68,0.7167,5.6832,0.4262,0.0421,0.3670,-1.5754,rough,14.0,2,5.642
6500,208.00,0.7167,5.6832,0.4262,0.0421,0.3670,-1.5754,rough,14.0,2,5.642
6510,208.32,0.7166,5.6832,0.4262,0.0421,0.3670,-1.5754,rough,14.0,2,5.642
6520,208.64,0.7165,5.6832,0.4262,0.0421,0.3670,-1.5754,rough,14.0,2,5.642
6530,208.96,0.7164,5.6833,0.4262,0.0422,0.3671,-1.5754,rough,14.0,2,5.642
6540,209.28,0.7164,5.6833,0.4262,0.0421,0.3670,-1.5754,rough,14.0,2,5.642
6550,209.60,0.7163,5.6832,0.4262,0.0421,0.3670,-1.5754,rough,14.0,2,5.642
6560,209.92,0.7162,5.6833,0.4262,0.0421,0.3670,-1.5754,rough,14.0,2,5.642
6570,210.24,0.7161,5.6833,0.4262,0.0421,0.3670,-1.5754,rough,14.0,2,5.642
6580,210.56,0.7161,5.6833,0.4262,0.0421,0.3671,-1.5754,rough,14.0,2,5.642
6590,210.88,0.7160,5.6833,0.4262,0.0420,0.3670,-1.5754,rough,14.0,2,5.642
6600,211.20,0.7159,5.6833,0.4262,0.0420,0.3670,-1.5754,rough,14.0,2,5.642
6610,211.52,0.7158,5.6833,0.4262,0.0420,0.3670,-1.5754,rough,14.0,2,5.642
6620,211.84,0.7158,5.6833,0.4262,0.0420,0.3670,-1.5754,rough,14.0,2,5.642
6630,212.16,0.7157,5.6834,0.4262,0.0421,0.3672,-1.5753,rough,14.0,2,5.643
6640,212.48,0.7156,5.6833,0.4262,0.0420,0.3670,-1.5754,rough,14.0,2,5.643
6650,212.80,0.7155,5.6833,0.4262,0.0420,0.3670,-1.5754,rough,14.0,2,5.643
6660,213.12,0.7155,5.6833,0.4262,0.0420,0.3670,-1.5754,rough,14.0,2,5.643
6670,213.44,0.7154,5.6833,0.4262,0.0420,0.3670,-1.5754,rough,14.0,2,5.643
6680,213.76,0.7153,5.6834,0.4262,0.0421,0.3673,-1.5753,rough,14.0,2,5.643
6690,214.08,0.7152,5.6833,0.4262,0.0420,0.3670,-1.5754,rough,14.0,2,5.643
6700,214.40,0.7152,5.6833,0.4262,0.0419,0.3670,-1.5754,rough,14.0,2,5.643
6710,214.72,0.7151,5.6833,0.4262,0.0419,0.3670,-1.5754,rough,14.0,2,5.643
6720,215.04,0.7150,5.6833,0.4261,0.0419,0.3670,-1.5754,rough,14.0,2,5.643
6730,215.36,0.7149,5.6833,0.4262,0.0419,0.3670,-1.5754,rough,14.0,2,5.643
6740,215.68,0.7149,5.6833,0.4261,0.0419,0.3670,-1.5754,rough,14.0,2,5.643
6750,216.00,0.7148,5.6833,0.4261,0.0419,0.3670,-1.5754,rough,14.0,2,5.643
6760,216.32,0.7147,5.6833,0.4261,0.0419,0.3670,-1.5754,rough,14.0,2,5.643
6770,216.64,0.7147,5.6833,0.4261,0.0419,0.3670,-1.5754,rough,14.0,2,5.643
6780,216.96,0.7146,5.6833,0.4261,0.0419,0.3671,-1.5754,rough,14.0,2,5.644
6790,217.28,0.7145,5.6833,0.4261,0.0419,0.3670,-1.5754,rough,14.0,2,5.644
6800,217.60,0.7144,5.6833,0.4261,0.0419,0.3670,-1.5754,rough,14.0,2,5.644
6810,217.92,0.7144,5.6833,0.4261,0.0419,0.3671,-1.5754,rough,14.0,2,5.644
6820,218.24,0.7143,5.6833,0.4261,0.0418,0.3670,-1.5754,rough,14.0,2,5.644
6830,218.56,0.7142,5.6833,0.4261,0.0418,0.3670,-1.5754,rough,14.0,2,5.644
6840,218.88,0.7141,5.6833,0.4261,0.0419,0.3671,-1.5754,rough,14.0,2,5.644
6850,219.20,0.7141,5.6833,0.4261,0.0418,0.3670,-1.5754,rough,14.0,2,5.644
6860,219.52,0.7140,5.6833,0.4261,0.0418,0.3670,-1.5754,rough,14.0,2,5.644
6870,219.84,0.7139,5.6833,0.4261,0.0418,0.3670,-1.5754,rough,14.0,2,5.644
6880,220.16,0.7138,5.6833,0.4261,0.0418,0.3670,-1.5753,rough,14.0,2,5.644
6890,220.48,0.7138,5.6833,0.4261,0.0418,0.3671,-1.5753,rough,14.0,2,5.644
6900,220.80,0.7137,5.6833,0.4261,0.0418,0.3670,-1.5754,rough,14.0,2,5.644
6910,221.12,0.7136,5.6833,0.4261,0.0418,0.3670,-1.5753,rough,14.0,2,5.644
6920,221.44,0.7136,5.6833,0.4261,0.0418,0.3670,-1.5753,rough,14.0,2,5.644
6930,221.76,0.7135,5.6833,0.4261,0.0418,0.3670,-1.5753,rough,14.0,2,5.644
6940,222.08,0.7134,5.6834,0.4261,0.0418,0.3671,-1.5753,rough,14.0,2,5.645
6950,222.40,0.7133,5.6833,0.4261,0.0417,0.3670,-1.5754,rough,14.0,2,5.645
6960,222.72,0.7133,5.6833,0.4261,0.0417,0.3670,-1.5753,rough,14.0,2,5.645
6970,223.04,0.7132,5.6833,0.4261,0.0417,0.3670,-1.5753,rough,14.0,2,5.645
6980,223.36,0.7131,5.6833,0.4261,0.0417,0.3670,-1.5753,rough,14.0,2,5.645
6990,223.68,0.7130,5.6834,0.4261,0.0418,0.3671,-1.5753,rough,14.0,2,5.645
7000,224.00,0.7130,5.6833,0.4261,0.0417,0.3670,-1.5753,rough,14.0,2,5.645
7010,224.32,0.7129,5.6834,0.4261,0.0417,0.3671,-1.5753,rough,14.0,2,5.645
7020,224.64,0.7128,5.6833,0.4261,0.0417,0.3670,-1.5753,rough,14.0,2,5.645
7030,224.96,0.7128,5.6833,0.4261,0.0417,0.3670,-1.5753,rough,14.0,2,5.645
7040,225.28,0.7127,5.6834,0.4261,0.0417,0.3672,-1.5753,rough,14.0,2,5.645
7050,225.60,0.7126,5.6833,0.4261,0.0417,0.3671,-1.5753,rough,14.0,2,5.645
7060,225.92,0.7125,5.6833,0.4260,0.0416,0.3670,-1.5753,rough,14.0,2,5.645
7070,226.24,0.7125,5.6833,0.4260,0.0416,0.3670,-1.5753,rough,14.0,2,5.645
7080,226.56,0.7124,5.6833,0.4260,0.0416,0.3670,-1.5753,rough,14.0,2,5.645
7090,226.88,0.7123,5.6834,0.4261,0.0417,0.3672,-1.5753,rough,14.0,2,5.646
7100,227.20,0.7123,5.6833,0.4260,0.0416,0.3671,-1.5753,rough,14.0,2,5.646
7110,227.52,0.7122,5.6833,0.4260,0.0416,0.3670,-1.5753,rough,14.0,2,5.646
7120,227.84,0.7121,5.6833,0.4260,0.0416,0.3670,-1.5753,rough,14.0,2,5.646
7130,228.16,0.7120,5.6833,0.4260,0.0416,0.3670,-1.5753,rough,14.0,2,5.646
7140,228.48,0.7120,5.6835,0.4261,0.0417,0.3672,-1.5753,rough,14.0,2,5.646
7150,228.80,0.7119,5.6834,0.4260,0.0416,0.3671,-1.5753,rough,14.0,2,5.646
7160,229.12,0.7118,5.6833,0.4260,0.0416,0.3671,-1.5753,rough,14.0,2,5.646
7170,229.44,0.7118,5.6833,0.4260,0.0416,0.3671,-1.5753,rough,14.0,2,5.646
7180,229.76,0.7117,5.6833,0.4260,0.0415,0.3671,-1.5753,rough,14.0,2,5.646
7190,230.08,0.7116,5.6835,0.4261,0.0417,0.3673,-1.5752,rough,14.0,2,5.646
7200,230.40,0.7115,5.6834,0.4260,0.0415,0.3671,-1.5753,rough,14.0,2,5.646
7210,230.72,0.7115,5.6834,0.4260,0.0415,0.3671,-1.5753,rough,14.0,2,5.646
7220,231.04,0.7114,5.6834,0.4260,0.0415,0.3671,-1.5753,rough,14.0,2,5.646
7230,231.36,0.7113,5.6834,0.4260,0.0415,0.3671,-1.5753,rough,14.0,2,5.646
7240,231.68,0.7113,5.6834,0.4260,0.0415,0.3671,-1.5753,rough,14.0,2,5.647
7250,232.00,0.7112,5.6834,0.4260,0.0415,0.3671,-1.5753,rough,14.0,2,5.647
7260,232.32,0.7111,5.6834,0.4260,0.0415,0.3671,-1.5753,rough,14.0,2,5.647
7270,232.64,0.7110,5.6834,0.4260,0.0415,0.3671,-1.5753,rough,14.0,2,5.647
7280,232.96,0.7110,5.6834,0.4260,0.0415,0.3671,-1.5753,rough,14.0,2,5.647
7290,233.28,0.7109,5.6834,0.4260,0.0415,0.3671,-1.5753,rough,14.0,2,5.647
7300,233.60,0.7108,5.6834,0.4260,0.0415,0.3671,-1.5753,rough,14.0,2,5.647
7310,233.92,0.7108,5.6834,0.4260,0.0414,0.3671,-1.5753,rough,14.0,2,5.647
7320,234.24,0.7107,5.6834,0.4260,0.0414,0.3671,-1.5753,rough,14.0,2,5.647
7330,234.56,0.7106,5.6834,0.4260,0.0414,0.3671,-1.5753,rough,14.0,2,5.647
7340,234.88,0.7105,5.6834,0.4260,0.0414,0.3671,-1.5753,rough,14.0,2,5.647
7350,235.20,0.7105,5.6834,0.4260,0.0414,0.3671,-1.5753,rough,14.0,2,5.647
7360,235.52,0.7104,5.6834,0.4260,0.0414,0.3671,-1.5753,rough,14.0,2,5.647
7370,235.84,0.7103,5.6834,0.4260,0.0414,0.3671,-1.5753,rough,14.0,2,5.647
7380,236.16,0.7103,5.6834,0.4260,0.0414,0.3671,-1.5753,rough,14.0,2,5.647
7390,236.48,0.7102,5.6834,0.4260,0.0414,0.3671,-1.5753,rough,14.0,2,5.648
7400,236.80,0.7101,5.6834,0.4260,0.0414,0.3672,-1.5753,rough,14.0,2,5.648
7410,237.12,0.7101,5.6834,0.4260,0.0414,0.3672,-1.5753,rough,14.0,2,5.648
7420,237.44,0.7100,5.6834,0.4259,0.0413,0.3671,-1.5753,rough,14.0,2,5.648
7430,237.76,0.7099,5.6834,0.4259,0.0413,0.3671,-1.5753,rough,14.0,2,5.648
7440,238.08,0.7098,5.6834,0.4259,0.0413,0.3671,-1.5753,rough,14.0,2,5.648
7450,238.40,0.7098,5.6834,0.4259,0.0414,0.3672,-1.5753,rough,14.0,2,5.648
7460,238.72,0.7097,5.6834,0.4259,0.0413,0.3671,-1.5753,rough,14.0,2,5.648
7470,239.04,0.7096,5.6834,0.4259,0.0413,0.3671,-1.5753,rough,14.0,2,5.648
7480,239.36,0.7096,5.6834,0.4259,0.0413,0.3671,-1.5753,rough,14.0,2,5.648
7490,239.68,0.7095,5.6834,0.4259,0.0413,0.3671,-1.5753,rough,14.0,2,5.648
7500,240.00,0.7094,5.6835,0.4259,0.0413,0.3672,-1.5753,rough,14.0,2,5.648
7510,240.32,0.7093,5.6834,0.4259,0.0413,0.3671,-1.5753,rough,14.0,2,5.648
7520,240.64,0.7093,5.6834,0.4259,0.0413,0.3671,-1.5753,rough,14.0,2,5.648
7530,240.96,0.7092,5.6834,0.4259,0.0413,0.3671,-1.5753,rough,14.0,2,5.648
7540,241.28,0.7091,5.6834,0.4259,0.0413,0.3671,-1.5753,rough,14.0,2,5.648
7550,241.60,0.7091,5.6835,0.4259,0.0413,0.3672,-1.5752,rough,14.0,2,5.649
7560,241.92,0.7090,5.6834,0.4259,0.0412,0.3671,-1.5753,rough,14.0,2,5.649
7570,242.24,0.7089,5.6834,0.4259,0.0412,0.3671,-1.5753,rough,14.0,2,5.649
7580,242.56,0.7089,5.6834,0.4259,0.0412,0.3671,-1.5753,rough,14.0,2,5.649
7590,242.88,0.7088,5.6834,0.4259,0.0412,0.3671,-1.5753,rough,14.0,2,5.649
7600,243.20,0.7087,5.6835,0.4259,0.0413,0.3673,-1.5752,rough,14.0,2,5.649
7610,243.52,0.7087,5.6835,0.4259,0.0412,0.3672,-1.5753,rough,14.0,2,5.649
7620,243.84,0.7086,5.6834,0.4259,0.0412,0.3671,-1.5753,rough,14.0,2,5.649
7630,244.16,0.7085,5.6834,0.4259,0.0412,0.3671,-1.5753,rough,14.0,2,5.649
7640,244.48,0.7084,5.6834,0.4259,0.0412,0.3671,-1.5753,rough,14.0,2,5.649
7650,244.80,0.7084,5.6835,0.4259,0.0413,0.3673,-1.5752,rough,14.0,2,5.649
7660,245.12,0.7083,5.6834,0.4259,0.0412,0.3671,-1.5753,rough,14.0,2,5.649
7670,245.44,0.7082,5.6834,0.4259,0.0411,0.3671,-1.5753,rough,14.0,2,5.649
7680,245.76,0.7082,5.6834,0.4259,0.0411,0.3671,-1.5752,rough,14.0,2,5.649
7690,246.08,0.7081,5.6834,0.4259,0.0411,0.3671,-1.5752,rough,14.0,2,5.649
7700,246.40,0.7080,5.6836,0.4259,0.0413,0.3674,-1.5752,rough,14.0,2,5.650
7710,246.72,0.7080,5.6834,0.4259,0.0411,0.3672,-1.5753,rough,14.0,2,5.650
7720,247.04,0.7079,5.6834,0.4259,0.0411,0.3671,-1.5752,rough,14.0,2,5.650
7730,247.36,0.7078,5.6834,0.4259,0.0411,0.3671,-1.5752,rough,14.0,2,5.650
7740,247.68,0.7077,5.6834,0.4259,0.0411,0.3671,-1.5752,rough,14.0,2,5.650
7750,248.00,0.7077,5.6834,0.4259,0.0411,0.3672,-1.5752,rough,14.0,2,5.650
7760,248.32,0.7076,5.6835,0.4259,0.0411,0.3672,-1.5752,rough,14.0,2,5.650
7770,248.64,0.7075,5.6834,0.4258,0.0411,0.3671,-1.5752,rough,14.0,2,5.650
7780,248.96,0.7075,5.6834,0.4258,0.0411,0.3671,-1.5752,rough,14.0,2,5.650
7790,249.28,0.7074,5.6834,0.4258,0.0411,0.3671,-1.5752,rough,14.0,2,5.650
7800,249.60,0.7073,5.6835,0.4258,0.0411,0.3672,-1.5752,rough,14.0,2,5.650
7810,249.92,0.7073,5.6835,0.4258,0.0411,0.3672,-1.5752,rough,14.0,2,5.650
7820,250.24,0.7072,5.6834,0.4258,0.0410,0.3671,-1.5752,rough,14.0,2,5.650
7830,250.56,0.7071,5.6834,0.4258,0.0410,0.3671,-1.5752,rough,14.0,2,5.650
7840,250.88,0.7071,5.6834,0.4258,0.0410,0.3671,-1.5752,rough,14.0,2,5.650
7850,251.20,0.7070,5.6834,0.4258,0.0410,0.3671,-1.5752,rough,14.0,2,5.650
7860,251.52,0.7069,5.6835,0.4258,0.0410,0.3672,-1.5752,rough,14.0,2,5.651
7870,251.84,0.7068,5.6835,0.4258,0.0410,0.3672,-1.5752,rough,14.0,2,5.651
7880,252.16,0.7068,5.6835,0.4258,0.0410,0.3671,-1.5752,rough,14.0,2,5.651
7890,252.48,0.7067,5.6835,0.4258,0.0410,0.3671,-1.5752,rough,14.0,2,5.651
7900,252.80,0.7066,5.6835,0.4258,0.0410,0.3672,-1.5752,rough,14.0,2,5.651
7910,253.12,0.7066,5.6835,0.4258,0.0410,0.3672,-1.5752,rough,14.0,2,5.651
7920,253.44,0.7065,5.6835,0.4258,0.0410,0.3672,-1.5752,rough,14.0,2,5.651
7930,253.76,0.7064,5.6835,0.4258,0.0409,0.3672,-1.5752,rough,14.0,2,5.651
7940,254.08,0.7064,5.6835,0.4258,0.0409,0.3672,-1.5752,rough,14.0,2,5.651
7950,254.40,0.7063,5.6835,0.4258,0.0409,0.3672,-1.5752,rough,14.0,2,5.651
7960,254.72,0.7062,5.6835,0.4258,0.0410,0.3672,-1.5752,rough,14.0,2,5.651
7970,255.04,0.7062,5.6835,0.4258,0.0409,0.3672,-1.5752,rough,14.0,2,5.651
7980,255.36,0.7061,5.6835,0.4258,0.0409,0.3672,-1.5752,rough,14.0,2,5.651
7990,255.68,0.7060,5.6835,0.4258,0.0409,0.3672,-1.5752,rough,14.0,2,5.651
8000,256.00,0.7060,5.6835,0.4258,0.0409,0.3672,-1.5752,rough,14.0,2,5.651
8010,256.32,0.7059,5.6836,0.4258,0.0410,0.3673,-1.5752,rough,14.0,2,5.651
8020,256.64,0.7058,5.6835,0.4258,0.0409,0.3672,-1.5752,rough,14.0,2,5.652
8030,256.96,0.7058,5.6835,0.4258,0.0409,0.3672,-1.5752,rough,14.0,2,5.652
8040,257.28,0.7057,5.6835,0.4258,0.0409,0.3672,-1.5752,rough,14.0,2,5.652
8050,257.60,0.7056,5.6835,0.4258,0.0408,0.3672,-1.5752,rough,14.0,2,5.652
8060,257.92,0.7056,5.6836,0.4258,0.0409,0.3673,-1.5752,rough,14.0,2,5.652
8070,258.24,0.7055,5.6835,0.4258,0.0408,0.3672,-1.5752,rough,14.0,2,5.652
8080,258.56,0.7054,5.6835,0.4258,0.0408,0.3672,-1.5752,rough,14.0,2,5.652
8090,258.88,0.7054,5.6835,0.4258,0.0408,0.3672,-1.5752,rough,14.0,2,5.652
8100,259.20,0.7053,5.6835,0.4258,0.0408,0.3672,-1.5752,rough,14.0,2,5.652
8110,259.52,0.7052,5.6836,0.4258,0.0409,0.3673,-1.5752,rough,14.0,2,5.652
8120,259.84,0.7052,5.6835,0.4258,0.0408,0.3672,-1.5752,rough,14.0,2,5.652
8130,260.16,0.7051,5.6835,0.4257,0.0408,0.3672,-1.5752,rough,14.0,2,5.652
8140,260.48,0.7050,5.6835,0.4257,0.0408,0.3672,-1.5752,rough,14.0,2,5.652
