step,time_s,x,y,z,roll,pitch,yaw,terrain,speed,target_idx,dist_to_target
10,0.32,-1.2946,0.8843,0.1838,-0.0011,-0.0264,0.0118,rough,14.0,0,6.143
20,0.64,-1.0372,0.8872,0.1798,0.0000,-0.0006,0.3796,rough,14.0,0,6.360
30,0.96,-0.7883,1.0162,0.1797,0.0000,-0.0000,0.7430,rough,14.0,0,6.510
40,1.28,-0.5999,1.2395,0.1798,-0.0000,-0.0003,1.0308,rough,14.0,0,6.572
50,1.60,-0.4620,1.5162,0.1798,-0.0003,-0.0000,1.3176,rough,14.0,0,6.578
60,1.92,-0.3820,1.8499,0.1798,0.0000,-0.0001,1.6063,rough,14.0,0,6.524
70,2.24,-0.4040,2.2154,0.1799,0.0000,-0.0000,1.8473,rough,14.0,0,6.381
80,2.56,-0.5123,2.5780,0.1839,0.0113,-0.0155,2.0239,rough,14.0,0,6.173
90,2.88,-0.6998,2.9305,0.1925,0.0104,-0.0244,2.1645,rough,14.0,0,5.908
100,3.20,-0.9568,3.2640,0.1951,-0.0070,0.0424,2.2797,rough,14.0,0,5.592
110,3.52,-1.2359,3.5583,0.1764,-0.0167,-0.0057,2.3968,rough,14.0,0,5.274
120,3.84,-1.5552,3.8341,0.1804,-0.0004,-0.0036,2.4882,rough,14.0,0,4.929
130,4.16,-1.8971,4.0748,0.1856,-0.0059,-0.0289,2.5802,rough,14.0,0,4.576
140,4.48,-2.2530,4.2608,0.2165,-0.0631,-0.1201,2.6680,rough,14.0,0,4.219
150,4.80,-2.6465,4.4334,0.2364,-0.1021,-0.0600,2.7400,rough,14.0,0,3.833
160,5.12,-3.0588,4.5804,0.2478,-0.1221,0.0136,2.8105,rough,14.0,0,3.435
170,5.44,-3.4778,4.7084,0.2364,-0.1291,0.0485,2.8603,rough,14.0,0,3.038
180,5.76,-3.8901,4.8056,0.2180,-0.1249,0.0297,2.9325,rough,14.0,0,2.653
190,6.08,-4.3090,4.8744,0.2066,-0.1212,0.0247,3.0106,rough,14.0,0,2.268
200,6.40,-4.7330,4.8992,0.2020,-0.0820,0.0371,3.1142,rough,14.0,0,1.877
210,6.72,-5.1517,4.8884,0.2000,-0.0563,0.0051,-3.0634,rough,14.0,0,1.493
220,7.04,-5.5534,4.8509,0.2039,-0.0038,-0.0563,-2.9681,rough,14.0,0,1.131
230,7.36,-5.9403,4.7618,0.2250,-0.0191,-0.0227,-2.8165,rough,14.0,1,0.780
240,7.68,-6.1652,4.6442,0.2245,-0.0145,0.0412,-2.4217,rough,14.0,1,6.979
250,8.00,-6.3540,4.4427,0.2165,0.0005,0.0540,-2.0731,rough,14.0,1,7.182
260,8.32,-6.4711,4.1724,0.2015,0.0099,0.0456,-1.7587,rough,14.0,1,7.328
270,8.64,-6.5229,3.8780,0.1869,0.0226,0.0396,-1.3921,rough,14.0,1,7.421
280,8.96,-6.4437,3.5343,0.1750,-0.0269,-0.0041,-1.2236,rough,14.0,1,7.407
290,9.28,-6.3014,3.2164,0.1779,0.0101,-0.0001,-1.0128,rough,14.0,1,7.342
300,9.60,-6.0863,2.9225,0.1800,0.0000,-0.0016,-0.8275,rough,14.0,1,7.217
310,9.92,-5.8080,2.6418,0.1813,-0.0046,-0.0038,-0.6562,rough,14.0,1,7.044
320,10.24,-5.4862,2.4153,0.1846,-0.0118,-0.0219,-0.5016,rough,14.0,1,6.829
330,10.56,-5.1346,2.2363,0.1845,0.0068,0.0150,-0.3926,rough,14.0,1,6.582
340,10.88,-4.7470,2.0890,0.1810,0.0008,0.0078,-0.2310,rough,14.0,1,6.303
350,11.20,-4.3403,2.0001,0.1797,-0.0009,0.0002,-0.0922,rough,14.0,1,5.994
360,11.52,-3.9166,1.9679,0.1799,-0.0000,-0.0001,0.0425,rough,14.0,1,5.652
370,11.84,-3.4921,1.9940,0.1814,-0.0039,-0.0056,0.1445,rough,14.0,1,5.288
380,12.16,-3.0678,2.0674,0.1913,-0.0388,-0.0249,0.1759,rough,14.0,1,4.904
390,12.48,-2.6486,2.1566,0.1922,-0.0532,0.0148,0.2295,rough,14.0,1,4.523
400,12.80,-2.2419,2.2702,0.1896,-0.0445,0.0074,0.3242,rough,14.0,1,4.143
410,13.12,-1.8393,2.4234,0.1837,-0.0011,0.0253,0.4096,rough,14.0,1,3.747
420,13.44,-1.4584,2.5996,0.1800,0.0010,-0.0005,0.4853,rough,14.0,1,3.357
430,13.76,-1.0964,2.8038,0.1866,-0.0018,-0.0255,0.5512,rough,14.0,1,2.965
440,14.08,-0.7503,3.0201,0.1984,0.0118,-0.0291,0.6509,rough,14.0,1,2.580
450,14.40,-0.4198,3.2786,0.1896,0.0300,0.0277,0.7577,rough,14.0,1,2.178
460,14.72,-0.1256,3.5675,0.1832,0.0117,0.0066,0.9236,rough,14.0,1,1.776
470,15.04,0.0826,3.8875,0.1777,0.0003,-0.0137,1.2002,rough,14.0,1,1.394
480,15.36,0.1890,4.2413,0.1798,0.0002,-0.0007,1.6289,rough,14.0,1,1.040
490,15.68,0.1694,4.5337,0.1797,0.0001,-0.0001,2.1501,rough,14.0,1,0.836
500,16.00,-0.0104,4.7435,0.1924,-0.0009,-0.0866,2.5416,rough,14.0,1,0.878
510,16.32,-0.2962,4.8674,0.1911,-0.0739,-0.0088,3.0029,rough,14.0,1,1.117
520,16.64,-0.5910,4.9069,0.1962,-0.0635,0.0260,-2.7878,rough,14.0,1,1.402
530,16.96,-0.8470,4.8260,0.1938,-0.0195,0.0684,-2.4153,rough,14.0,1,1.667
540,17.28,-1.0294,4.6745,0.1850,-0.0016,0.0338,-2.1226,rough,14.0,1,1.874
550,17.60,-1.1464,4.4405,0.1803,-0.0021,-0.0017,-1.8111,rough,14.0,1,2.050
560,17.92,-1.2161,4.1502,0.1806,-0.0007,0.0056,-1.3809,rough,14.0,1,2.221
570,18.24,-1.1359,3.8544,0.1806,-0.0005,-0.0049,-1.0784,rough,14.0,1,2.293
580,18.56,-0.9679,3.5756,0.1867,-0.0062,-0.0394,-0.7837,rough,14.0,1,2.323
590,18.88,-0.7231,3.3907,0.1953,-0.0169,-0.0050,-0.4722,rough,14.0,1,2.277
600,19.20,-0.4575,3.2808,0.1897,-0.0035,0.0443,-0.2404,rough,14.0,1,2.197
610,19.52,-0.1825,3.2221,0.1825,0.0074,0.0078,0.1391,rough,14.0,1,2.104
620,19.84,0.1335,3.2859,0.1805,0.0042,0.0004,0.4670,rough,14.0,1,1.917
630,20.16,0.4385,3.4542,0.1799,0.0005,0.0001,0.7506,rough,14.0,1,1.668
640,20.48,0.6323,3.6817,0.1798,-0.0002,0.0001,1.0729,rough,14.0,1,1.411
650,20.80,0.7740,3.9703,0.1798,-0.0006,-0.0000,1.4541,rough,14.0,1,1.113
660,21.12,0.8074,4.2900,0.1806,-0.0004,-0.0055,1.8435,rough,14.0,2,0.793
670,21.44,0.7634,4.6111,0.1808,-0.0048,0.0006,1.6491,rough,14.0,2,9.263
680,21.76,0.7379,4.8581,0.2052,0.0014,-0.1781,1.2939,rough,14.0,2,9.424
690,22.08,0.7672,4.9209,0.2103,-0.0059,-0.2148,1.5369,rough,14.0,2,9.436
700,22.40,0.7642,4.9361,0.2148,-0.0073,-0.2277,1.5728,rough,14.0,2,9.447
710,22.72,0.7637,4.9368,0.2151,-0.0078,-0.2290,1.5717,rough,14.0,2,9.448
720,23.04,0.7635,4.9369,0.2152,-0.0078,-0.2291,1.5716,rough,14.0,2,9.448
730,23.36,0.7633,4.9369,0.2152,-0.0078,-0.2291,1.5716,rough,14.0,2,9.448
740,23.68,0.7632,4.9370,0.2152,-0.0078,-0.2291,1.5716,rough,14.0,2,9.449
750,24.00,0.7630,4.9370,0.2152,-0.0078,-0.2290,1.5715,rough,14.0,2,9.449
760,24.32,0.7628,4.9370,0.2152,-0.0078,-0.2290,1.5715,rough,14.0,2,9.449
770,24.64,0.7627,4.9370,0.2152,-0.0078,-0.2290,1.5715,rough,14.0,2,9.449
780,24.96,0.7625,4.9371,0.2152,-0.0078,-0.2290,1.5715,rough,14.0,2,9.449
790,25.28,0.7624,4.9371,0.2152,-0.0078,-0.2289,1.5715,rough,14.0,2,9.449
800,25.60,0.7623,4.9372,0.2152,-0.0078,-0.2289,1.5715,rough,14.0,2,9.449
810,25.92,0.7621,4.9372,0.2152,-0.0078,-0.2289,1.5715,rough,14.0,2,9.450
820,26.24,0.7620,4.9372,0.2152,-0.0078,-0.2288,1.5715,rough,14.0,2,9.450
830,26.56,0.7618,4.9373,0.2152,-0.0078,-0.2288,1.5715,rough,14.0,2,9.450
840,26.88,0.7617,4.9373,0.2152,-0.0078,-0.2288,1.5715,rough,14.0,2,9.450
850,27.20,0.7615,4.9373,0.2152,-0.0078,-0.2288,1.5715,rough,14.0,2,9.450
860,27.52,0.7614,4.9373,0.2152,-0.0078,-0.2287,1.5715,rough,14.0,2,9.450
870,27.84,0.7613,4.9374,0.2152,-0.0078,-0.2287,1.5714,rough,14.0,2,9.450
880,28.16,0.7611,4.9374,0.2152,-0.0078,-0.2287,1.5714,rough,14.0,2,9.450
890,28.48,0.7610,4.9374,0.2152,-0.0078,-0.2287,1.5714,rough,14.0,2,9.451
900,28.80,0.7609,4.9374,0.2152,-0.0077,-0.2286,1.5714,rough,14.0,2,9.451
910,29.12,0.7608,4.9375,0.2152,-0.0077,-0.2286,1.5714,rough,14.0,2,9.451
920,29.44,0.7607,4.9375,0.2152,-0.0077,-0.2286,1.5714,rough,14.0,2,9.451
930,29.76,0.7606,4.9375,0.2152,-0.0077,-0.2286,1.5714,rough,14.0,2,9.451
940,30.08,0.7605,4.9376,0.2152,-0.0077,-0.2286,1.5713,rough,14.0,2,9.451
950,30.40,0.7604,4.9376,0.2152,-0.0077,-0.2286,1.5713,rough,14.0,2,9.451
960,30.72,0.7603,4.9376,0.2152,-0.0077,-0.2285,1.5714,rough,14.0,2,9.451
970,31.04,0.7602,4.9376,0.2152,-0.0077,-0.2285,1.5714,rough,14.0,2,9.451
980,31.36,0.7601,4.9376,0.2152,-0.0077,-0.2285,1.5714,rough,14.0,2,9.451
990,31.68,0.7600,4.9376,0.2152,-0.0077,-0.2285,1.5714,rough,14.0,2,9.452
1000,32.00,0.7599,4.9376,0.2152,-0.0077,-0.2285,1.5714,rough,14.0,2,9.452
1010,32.32,0.7598,4.9377,0.2152,-0.0077,-0.2284,1.5714,rough,14.0,2,9.452
1020,32.64,0.7597,4.9377,0.2152,-0.0077,-0.2284,1.5713,rough,14.0,2,9.452
1030,32.96,0.7596,4.9377,0.2152,-0.0077,-0.2284,1.5713,rough,14.0,2,9.452
1040,33.28,0.7595,4.9377,0.2152,-0.0077,-0.2284,1.5713,rough,14.0,2,9.452
1050,33.60,0.7594,4.9377,0.2152,-0.0077,-0.2284,1.5713,rough,14.0,2,9.452
1060,33.92,0.7593,4.9378,0.2152,-0.0077,-0.2284,1.5713,rough,14.0,2,9.452
1070,34.24,0.7592,4.9378,0.2152,-0.0077,-0.2283,1.5713,rough,14.0,2,9.452
1080,34.56,0.7591,4.9378,0.2152,-0.0077,-0.2283,1.5713,rough,14.0,2,9.452
1090,34.88,0.7590,4.9378,0.2152,-0.0077,-0.2283,1.5713,rough,14.0,2,9.452
1100,35.20,0.7589,4.9378,0.2153,-0.0077,-0.2283,1.5713,rough,14.0,2,9.452
1110,35.52,0.7589,4.9379,0.2153,-0.0077,-0.2283,1.5713,rough,14.0,2,9.453
1120,35.84,0.7588,4.9379,0.2153,-0.0077,-0.2283,1.5713,rough,14.0,2,9.453
1130,36.16,0.7587,4.9379,0.2153,-0.0077,-0.2283,1.5712,rough,14.0,2,9.453
1140,36.48,0.7587,4.9379,0.2153,-0.0077,-0.2282,1.5712,rough,14.0,2,9.453
1150,36.80,0.7586,4.9380,0.2153,-0.0077,-0.2282,1.5712,rough,14.0,2,9.453
1160,37.12,0.7585,4.9380,0.2153,-0.0077,-0.2282,1.5712,rough,14.0,2,9.453
1170,37.44,0.7585,4.9380,0.2153,-0.0077,-0.2282,1.5712,rough,14.0,2,9.453
1180,37.76,0.7584,4.9379,0.2153,-0.0077,-0.2282,1.5712,rough,14.0,2,9.453
1190,38.08,0.7584,4.9380,0.2153,-0.0077,-0.2282,1.5712,rough,14.0,2,9.453
1200,38.40,0.7583,4.9380,0.2153,-0.0077,-0.2282,1.5712,rough,14.0,2,9.453
1210,38.72,0.7582,4.9380,0.2153,-0.0077,-0.2282,1.5712,rough,14.0,2,9.453
1220,39.04,0.7582,4.9380,0.2153,-0.0077,-0.2282,1.5712,rough,14.0,2,9.453
1230,39.36,0.7581,4.9380,0.2153,-0.0077,-0.2281,1.5712,rough,14.0,2,9.453
1240,39.68,0.7580,4.9380,0.2153,-0.0077,-0.2281,1.5712,rough,14.0,2,9.453
1250,40.00,0.7580,4.9380,0.2153,-0.0077,-0.2281,1.5712,rough,14.0,2,9.453
1260,40.32,0.7579,4.9380,0.2153,-0.0077,-0.2281,1.5712,rough,14.0,2,9.453
1270,40.64,0.7579,4.9380,0.2153,-0.0077,-0.2281,1.5712,rough,14.0,2,9.453
1280,40.96,0.7578,4.9381,0.2153,-0.0077,-0.2281,1.5712,rough,14.0,2,9.454
1290,41.28,0.7578,4.9381,0.2153,-0.0077,-0.2281,1.5712,rough,14.0,2,9.454
1300,41.60,0.7577,4.9381,0.2153,-0.0077,-0.2281,1.5712,rough,14.0,2,9.454
1310,41.92,0.7577,4.9381,0.2153,-0.0077,-0.2281,1.5712,rough,14.0,2,9.454
1320,42.24,0.7576,4.9381,0.2153,-0.0077,-0.2281,1.5712,rough,14.0,2,9.454
1330,42.56,0.7576,4.9381,0.2153,-0.0077,-0.2280,1.5712,rough,14.0,2,9.454
1340,42.88,0.7575,4.9381,0.2153,-0.0077,-0.2280,1.5712,rough,14.0,2,9.454
1350,43.20,0.7575,4.9381,0.2153,-0.0077,-0.2280,1.5712,rough,14.0,2,9.454
1360,43.52,0.7574,4.9381,0.2153,-0.0077,-0.2280,1.5712,rough,14.0,2,9.454
1370,43.84,0.7574,4.9381,0.2153,-0.0077,-0.2280,1.5712,rough,14.0,2,9.454
1380,44.16,0.7573,4.9382,0.2153,-0.0077,-0.2280,1.5712,rough,14.0,2,9.454
1390,44.48,0.7573,4.9382,0.2153,-0.0077,-0.2280,1.5712,rough,14.0,2,9.454
1400,44.80,0.7573,4.9382,0.2153,-0.0077,-0.2280,1.5712,rough,14.0,2,9.454
1410,45.12,0.7572,4.9382,0.2153,-0.0077,-0.2280,1.5712,rough,14.0,2,9.454
1420,45.44,0.7572,4.9382,0.2153,-0.0077,-0.2280,1.5712,rough,14.0,2,9.454
1430,45.76,0.7571,4.9382,0.2153,-0.0077,-0.2280,1.5712,rough,14.0,2,9.454
1440,46.08,0.7571,4.9382,0.2153,-0.0077,-0.2280,1.5712,rough,14.0,2,9.454
1450,46.40,0.7571,4.9382,0.2153,-0.0077,-0.2280,1.5712,rough,14.0,2,9.454
1460,46.72,0.7570,4.9382,0.2153,-0.0077,-0.2280,1.5712,rough,14.0,2,9.454
1470,47.04,0.7570,4.9382,0.2153,-0.0077,-0.2279,1.5712,rough,14.0,2,9.454
1480,47.36,0.7569,4.9382,0.2153,-0.0077,-0.2279,1.5712,rough,14.0,2,9.454
1490,47.68,0.7569,4.9382,0.2153,-0.0077,-0.2279,1.5712,rough,14.0,2,9.454
1500,48.00,0.7569,4.9382,0.2153,-0.0077,-0.2279,1.5712,rough,14.0,2,9.454
1510,48.32,0.7568,4.9382,0.2153,-0.0077,-0.2279,1.5711,rough,14.0,2,9.454
1520,48.64,0.7568,4.9382,0.2153,-0.0077,-0.2279,1.5711,rough,14.0,2,9.454
1530,48.96,0.7568,4.9382,0.2153,-0.0077,-0.2279,1.5711,rough,14.0,2,9.454
1540,49.28,0.7567,4.9382,0.2153,-0.0077,-0.2279,1.5711,rough,14.0,2,9.455
1550,49.60,0.7567,4.9382,0.2153,-0.0077,-0.2279,1.5711,rough,14.0,2,9.455
1560,49.92,0.7566,4.9382,0.2153,-0.0077,-0.2279,1.5711,rough,14.0,2,9.455
1570,50.24,0.7566,4.9382,0.2153,-0.0077,-0.2279,1.5711,rough,14.0,2,9.455
1580,50.56,0.7566,4.9382,0.2153,-0.0076,-0.2279,1.5711,rough,14.0,2,9.455
1590,50.88,0.7565,4.9382,0.2153,-0.0076,-0.2279,1.5711,rough,14.0,2,9.455
1600,51.20,0.7565,4.9382,0.2153,-0.0076,-0.2279,1.5711,rough,14.0,2,9.455
1610,51.52,0.7565,4.9382,0.2153,-0.0076,-0.2279,1.5711,rough,14.0,2,9.455
1620,51.84,0.7564,4.9382,0.2153,-0.0076,-0.2279,1.5711,rough,14.0,2,9.455
1630,52.16,0.7564,4.9382,0.2153,-0.0076,-0.2279,1.5711,rough,14.0,2,9.455
1640,52.48,0.7563,4.9382,0.2153,-0.0076,-0.2278,1.5711,rough,14.0,2,9.455
1650,52.80,0.7563,4.9382,0.2153,-0.0076,-0.2278,1.5711,rough,14.0,2,9.455
1660,53.12,0.7563,4.9382,0.2153,-0.0076,-0.2278,1.5711,rough,14.0,2,9.455
1670,53.44,0.7562,4.9382,0.2152,-0.0076,-0.2278,1.5711,rough,14.0,2,9.455
1680,53.76,0.7562,4.9382,0.2152,-0.0076,-0.2278,1.5711,rough,14.0,2,9.455
1690,54.08,0.7562,4.9382,0.2152,-0.0076,-0.2278,1.5711,rough,14.0,2,9.455
1700,54.40,0.7561,4.9382,0.2152,-0.0076,-0.2278,1.5711,rough,14.0,2,9.455
1710,54.72,0.7561,4.9382,0.2152,-0.0076,-0.2278,1.5711,rough,14.0,2,9.455
1720,55.04,0.7561,4.9382,0.2152,-0.0076,-0.2278,1.5711,rough,14.0,2,9.455
1730,55.36,0.7560,4.9382,0.2152,-0.0076,-0.2278,1.5711,rough,14.0,2,9.455
1740,55.68,0.7560,4.9382,0.2152,-0.0076,-0.2278,1.5711,rough,14.0,2,9.455
1750,56.00,0.7559,4.9382,0.2152,-0.0076,-0.2278,1.5711,rough,14.0,2,9.455
1760,56.32,0.7559,4.9382,0.2152,-0.0076,-0.2278,1.5711,rough,14.0,2,9.455
1770,56.64,0.7559,4.9382,0.2152,-0.0076,-0.2278,1.5711,rough,14.0,2,9.455
1780,56.96,0.7558,4.9382,0.2152,-0.0076,-0.2278,1.5711,rough,14.0,2,9.455
1790,57.28,0.7558,4.9382,0.2152,-0.0076,-0.2278,1.5711,rough,14.0,2,9.455
1800,57.60,0.7558,4.9382,0.2152,-0.0076,-0.2278,1.5711,rough,14.0,2,9.455
1810,57.92,0.7557,4.9382,0.2152,-0.0076,-0.2277,1.5711,rough,14.0,2,9.455
1820,58.24,0.7557,4.9382,0.2152,-0.0076,-0.2277,1.5711,rough,14.0,2,9.455
1830,58.56,0.7557,4.9382,0.2152,-0.0076,-0.2277,1.5711,rough,14.0,2,9.455
1840,58.88,0.7556,4.9382,0.2152,-0.0076,-0.2277,1.5711,rough,14.0,2,9.455
1850,59.20,0.7556,4.9382,0.2152,-0.0076,-0.2277,1.5711,rough,14.0,2,9.455
1860,59.52,0.7555,4.9382,0.2152,-0.0076,-0.2277,1.5711,rough,14.0,2,9.455
1870,59.84,0.7555,4.9382,0.2152,-0.0076,-0.2277,1.5711,rough,14.0,2,9.455
1880,60.16,0.7555,4.9382,0.2152,-0.0076,-0.2277,1.5711,rough,14.0,2,9.456
1890,60.48,0.7554,4.9382,0.2152,-0.0076,-0.2277,1.5711,rough,14.0,2,9.456
1900,60.80,0.7554,4.9382,0.2152,-0.0076,-0.2277,1.5711,rough,14.0,2,9.456
1910,61.12,0.7554,4.9382,0.2152,-0.0076,-0.2277,1.5711,rough,14.0,2,9.456
1920,61.44,0.7553,4.9382,0.2152,-0.0076,-0.2277,1.5711,rough,14.0,2,9.456
1930,61.76,0.7553,4.9382,0.2152,-0.0076,-0.2277,1.5711,rough,14.0,2,9.456
1940,62.08,0.7553,4.9382,0.2152,-0.0076,-0.2277,1.5711,rough,14.0,2,9.456
1950,62.40,0.7552,4.9382,0.2152,-0.0076,-0.2277,1.5711,rough,14.0,2,9.456
1960,62.72,0.7552,4.9382,0.2152,-0.0076,-0.2277,1.5711,rough,14.0,2,9.456
1970,63.04,0.7552,4.9382,0.2152,-0.0076,-0.2277,1.5711,rough,14.0,2,9.456
1980,63.36,0.7551,4.9382,0.2152,-0.0076,-0.2277,1.5711,rough,14.0,2,9.456
1990,63.68,0.7551,4.9382,0.2152,-0.0076,-0.2276,1.5711,rough,14.0,2,9.456
2000,64.00,0.7550,4.9382,0.2152,-0.0076,-0.2276,1.5711,rough,14.0,2,9.456
2010,64.32,0.7550,4.9382,0.2152,-0.0076,-0.2276,1.5711,rough,14.0,2,9.456
2020,64.64,0.7550,4.9382,0.2152,-0.0076,-0.2276,1.5711,rough,14.0,2,9.456
2030,64.96,0.7549,4.9382,0.2152,-0.0076,-0.2276,1.5711,rough,14.0,2,9.456
2040,65.28,0.7549,4.9382,0.2152,-0.0076,-0.2276,1.5711,rough,14.0,2,9.456
2050,65.60,0.7549,4.9382,0.2152,-0.0076,-0.2276,1.5711,rough,14.0,2,9.456
2060,65.92,0.7548,4.9382,0.2152,-0.0076,-0.2276,1.5711,rough,14.0,2,9.456
2070,66.24,0.7548,4.9382,0.2152,-0.0076,-0.2276,1.5711,rough,14.0,2,9.456
2080,66.56,0.7548,4.9382,0.2152,-0.0076,-0.2276,1.5711,rough,14.0,2,9.456
2090,66.88,0.7547,4.9382,0.2152,-0.0076,-0.2276,1.5711,rough,14.0,2,9.456
2100,67.20,0.7547,4.9382,0.2152,-0.0076,-0.2276,1.5711,rough,14.0,2,9.456
2110,67.52,0.7547,4.9382,0.2152,-0.0076,-0.2276,1.5711,rough,14.0,2,9.456
2120,67.84,0.7546,4.9382,0.2152,-0.0076,-0.2276,1.5711,rough,14.0,2,9.456
2130,68.16,0.7546,4.9382,0.2152,-0.0076,-0.2276,1.5711,rough,14.0,2,9.456
2140,68.48,0.7546,4.9382,0.2152,-0.0076,-0.2276,1.5711,rough,14.0,2,9.456
2150,68.80,0.7545,4.9382,0.2152,-0.0076,-0.2276,1.5711,rough,14.0,2,9.456
2160,69.12,0.7545,4.9382,0.2152,-0.0076,-0.2276,1.5711,rough,14.0,2,9.456
2170,69.44,0.7545,4.9382,0.2152,-0.0076,-0.2275,1.5711,rough,14.0,2,9.456
2180,69.76,0.7544,4.9382,0.2152,-0.0076,-0.2275,1.5711,rough,14.0,2,9.456
2190,70.08,0.7544,4.9382,0.2152,-0.0076,-0.2275,1.5711,rough,14.0,2,9.456
2200,70.40,0.7543,4.9382,0.2152,-0.0076,-0.2275,1.5711,rough,14.0,2,9.456
2210,70.72,0.7543,4.9382,0.2152,-0.0076,-0.2275,1.5711,rough,14.0,2,9.456
2220,71.04,0.7543,4.9382,0.2152,-0.0076,-0.2275,1.5711,rough,14.0,2,9.457
2230,71.36,0.7542,4.9382,0.2152,-0.0076,-0.2275,1.5711,rough,14.0,2,9.457
2240,71.68,0.7542,4.9382,0.2152,-0.0076,-0.2275,1.5711,rough,14.0,2,9.457
2250,72.00,0.7542,4.9382,0.2152,-0.0076,-0.2275,1.5711,rough,14.0,2,9.457
2260,72.32,0.7541,4.9382,0.2152,-0.0076,-0.2275,1.5711,rough,14.0,2,9.457
2270,72.64,0.7541,4.9382,0.2152,-0.0076,-0.2275,1.5711,rough,14.0,2,9.457
2280,72.96,0.7541,4.9382,0.2152,-0.0076,-0.2275,1.5711,rough,14.0,2,9.457
2290,73.28,0.7540,4.9382,0.2152,-0.0076,-0.2275,1.5711,rough,14.0,2,9.457
2300,73.60,0.7540,4.9382,0.2152,-0.0076,-0.2275,1.5711,rough,14.0,2,9.457
2310,73.92,0.7540,4.9382,0.2152,-0.0076,-0.2275,1.5711,rough,14.0,2,9.457
2320,74.24,0.7539,4.9382,0.2152,-0.0076,-0.2275,1.5711,rough,14.0,2,9.457
2330,74.56,0.7539,4.9382,0.2152,-0.0076,-0.2275,1.5711,rough,14.0,2,9.457
2340,74.88,0.7539,4.9382,0.2152,-0.0076,-0.2275,1.5711,rough,14.0,2,9.457
2350,75.20,0.7538,4.9382,0.2152,-0.0076,-0.2275,1.5711,rough,14.0,2,9.457
2360,75.52,0.7538,4.9382,0.2152,-0.0076,-0.2274,1.5711,rough,14.0,2,9.457
2370,75.84,0.7538,4.9382,0.2152,-0.0076,-0.2274,1.5711,rough,14.0,2,9.457
2380,76.16,0.7537,4.9382,0.2152,-0.0076,-0.2274,1.5711,rough,14.0,2,9.457
2390,76.48,0.7537,4.9382,0.2152,-0.0076,-0.2274,1.5711,rough,14.0,2,9.457
2400,76.80,0.7537,4.9382,0.2152,-0.0076,-0.2274,1.5711,rough,14.0,2,9.457
2410,77.12,0.7536,4.9382,0.2152,-0.0076,-0.2274,1.5711,rough,14.0,2,9.457
2420,77.44,0.7536,4.9382,0.2152,-0.0076,-0.2274,1.5711,rough,14.0,2,9.457
2430,77.76,0.7536,4.9382,0.2152,-0.0076,-0.2274,1.5711,rough,14.0,2,9.457
2440,78.08,0.7535,4.9382,0.2152,-0.0076,-0.2274,1.5711,rough,14.0,2,9.457
2450,78.40,0.7535,4.9382,0.2152,-0.0076,-0.2274,1.5711,rough,14.0,2,9.457
2460,78.72,0.7535,4.9382,0.2152,-0.0076,-0.2274,1.5711,rough,14.0,2,9.457
2470,79.04,0.7534,4.9382,0.2152,-0.0076,-0.2274,1.5711,rough,14.0,2,9.457
2480,79.36,0.7534,4.9382,0.2152,-0.0076,-0.2274,1.5711,rough,14.0,2,9.457
2490,79.68,0.7534,4.9382,0.2152,-0.0076,-0.2274,1.5711,rough,14.0,2,9.457
2500,80.00,0.7533,4.9382,0.2152,-0.0076,-0.2274,1.5711,rough,14.0,2,9.457
2510,80.32,0.7533,4.9382,0.2152,-0.0076,-0.2274,1.5711,rough,14.0,2,9.457
2520,80.64,0.7533,4.9382,0.2152,-0.0076,-0.2274,1.5711,rough,14.0,2,9.457
2530,80.96,0.7532,4.9382,0.2152,-0.0076,-0.2274,1.5711,rough,14.0,2,9.457
2540,81.28,0.7532,4.9382,0.2152,-0.0076,-0.2274,1.5711,rough,14.0,2,9.457
2550,81.60,0.7532,4.9382,0.2152,-0.0076,-0.2273,1.5711,rough,14.0,2,9.457
2560,81.92,0.7531,4.9382,0.2152,-0.0076,-0.2273,1.5711,rough,14.0,2,9.457
2570,82.24,0.7531,4.9382,0.2152,-0.0076,-0.2273,1.5711,rough,14.0,2,9.457
2580,82.56,0.7531,4.9382,0.2152,-0.0076,-0.2273,1.5711,rough,14.0,2,9.457
2590,82.88,0.7530,4.9382,0.2152,-0.0076,-0.2273,1.5711,rough,14.0,2,9.458
2600,83.20,0.7530,4.9382,0.2152,-0.0076,-0.2273,1.5711,rough,14.0,2,9.458
2610,83.52,0.7530,4.9382,0.2152,-0.0076,-0.2273,1.5711,rough,14.0,2,9.458
2620,83.84,0.7530,4.9382,0.2152,-0.0076,-0.2273,1.5711,rough,14.0,2,9.458
2630,84.16,0.7529,4.9382,0.2152,-0.0076,-0.2273,1.5711,rough,14.0,2,9.458
2640,84.48,0.7529,4.9382,0.2152,-0.0076,-0.2273,1.5711,rough,14.0,2,9.458
2650,84.80,0.7529,4.9382,0.2152,-0.0076,-0.2273,1.5711,rough,14.0,2,9.458
2660,85.12,0.7528,4.9382,0.2152,-0.0076,-0.2273,1.5711,rough,14.0,2,9.458
2670,85.44,0.7528,4.9382,0.2152,-0.0076,-0.2273,1.5711,rough,14.0,2,9.458
2680,85.76,0.7528,4.9382,0.2152,-0.0076,-0.2273,1.5711,rough,14.0,2,9.458
2690,86.08,0.7527,4.9382,0.2152,-0.0076,-0.2273,1.5711,rough,14.0,2,9.458
2700,86.40,0.7527,4.9382,0.2152,-0.0076,-0.2273,1.5711,rough,14.0,2,9.458
2710,86.72,0.7527,4.9382,0.2152,-0.0076,-0.2273,1.5711,rough,14.0,2,9.458
2720,87.04,0.7526,4.9382,0.2152,-0.0076,-0.2273,1.5711,rough,14.0,2,9.458
2730,87.36,0.7526,4.9382,0.2152,-0.0076,-0.2273,1.5711,rough,14.0,2,9.458
2740,87.68,0.7526,4.9382,0.2152,-0.0076,-0.2273,1.5711,rough,14.0,2,9.458
2750,88.00,0.7525,4.9382,0.2152,-0.0076,-0.2272,1.5711,rough,14.0,2,9.458
2760,88.32,0.7525,4.9382,0.2151,-0.0076,-0.2272,1.5711,rough,14.0,2,9.458
2770,88.64,0.7525,4.9382,0.2151,-0.0076,-0.2272,1.5711,rough,14.0,2,9.458
2780,88.96,0.7524,4.9382,0.2151,-0.0076,-0.2272,1.5711,rough,14.0,2,9.458
2790,89.28,0.7524,4.9382,0.2151,-0.0076,-0.2272,1.5711,rough,14.0,2,9.458
2800,89.60,0.7524,4.9382,0.2151,-0.0075,-0.2272,1.5711,rough,14.0,2,9.458
2810,89.92,0.7523,4.9382,0.2151,-0.0075,-0.2272,1.5711,rough,14.0,2,9.458
2820,90.24,0.7523,4.9382,0.2151,-0.0075,-0.2272,1.5711,rough,14.0,2,9.458
2830,90.56,0.7523,4.9382,0.2151,-0.0075,-0.2272,1.5711,rough,14.0,2,9.458
2840,90.88,0.7522,4.9382,0.2151,-0.0075,-0.2272,1.5711,rough,14.0,2,9.458
2850,91.20,0.7522,4.9382,0.2151,-0.0075,-0.2272,1.5711,rough,14.0,2,9.458
2860,91.52,0.7522,4.9382,0.2151,-0.0075,-0.2272,1.5711,rough,14.0,2,9.458
2870,91.84,0.7522,4.9382,0.2151,-0.0075,-0.2272,1.5711,rough,14.0,2,9.458
2880,92.16,0.7521,4.9382,0.2151,-0.0075,-0.2272,1.5711,rough,14.0,2,9.458
2890,92.48,0.7521,4.9382,0.2151,-0.0075,-0.2272,1.5711,rough,14.0,2,9.458
2900,92.80,0.7521,4.9382,0.2151,-0.0075,-0.2272,1.5711,rough,14.0,2,9.458
2910,93.12,0.7520,4.9382,0.2151,-0.0075,-0.2272,1.5711,rough,14.0,2,9.458
2920,93.44,0.7520,4.9382,0.2151,-0.0075,-0.2272,1.5711,rough,14.0,2,9.458
2930,93.76,0.7520,4.9382,0.2151,-0.0075,-0.2272,1.5711,rough,14.0,2,9.458
2940,94.08,0.7519,4.9382,0.2151,-0.0075,-0.2272,1.5711,rough,14.0,2,9.458
2950,94.40,0.7519,4.9382,0.2151,-0.0075,-0.2271,1.5711,rough,14.0,2,9.458
2960,94.72,0.7519,4.9383,0.2151,-0.0075,-0.2271,1.5711,rough,14.0,2,9.458
2970,95.04,0.7518,4.9383,0.2151,-0.0075,-0.2271,1.5711,rough,14.0,2,9.459
2980,95.36,0.7518,4.9383,0.2151,-0.0075,-0.2271,1.5711,rough,14.0,2,9.459
2990,95.68,0.7518,4.9383,0.2151,-0.0075,-0.2271,1.5711,rough,14.0,2,9.459
3000,96.00,0.7518,4.9383,0.2151,-0.0075,-0.2271,1.5711,rough,14.0,2,9.459
3010,96.32,0.7517,4.9383,0.2151,-0.0075,-0.2271,1.5711,rough,14.0,2,9.459
3020,96.64,0.7517,4.9383,0.2151,-0.0075,-0.2271,1.5711,rough,14.0,2,9.459
3030,96.96,0.7517,4.9383,0.2151,-0.0075,-0.2271,1.5711,rough,14.0,2,9.459
3040,97.28,0.7516,4.9383,0.2151,-0.0075,-0.2271,1.5711,rough,14.0,2,9.459
3050,97.60,0.7516,4.9383,0.2151,-0.0075,-0.2271,1.5711,rough,14.0,2,9.459
3060,97.92,0.7516,4.9383,0.2151,-0.0075,-0.2271,1.5711,rough,14.0,2,9.459
3070,98.24,0.7515,4.9383,0.2151,-0.0075,-0.2271,1.5711,rough,14.0,2,9.459
3080,98.56,0.7515,4.9383,0.2151,-0.0075,-0.2271,1.5711,rough,14.0,2,9.459
3090,98.88,0.7515,4.9383,0.2151,-0.0075,-0.2271,1.5711,rough,14.0,2,9.459
3100,99.20,0.7514,4.9383,0.2151,-0.0075,-0.2271,1.5711,rough,14.0,2,9.459
3110,99.52,0.7514,4.9383,0.2151,-0.0075,-0.2271,1.5711,rough,14.0,2,9.459
3120,99.84,0.7514,4.9383,0.2151,-0.0075,-0.2271,1.5711,rough,14.0,2,9.459
3130,100.16,0.7514,4.9383,0.2151,-0.0075,-0.2271,1.5711,rough,14.0,2,9.459
3140,100.48,0.7513,4.9383,0.2151,-0.0075,-0.2271,1.5711,rough,14.0,2,9.459
3150,100.80,0.7513,4.9383,0.2151,-0.0075,-0.2271,1.5711,rough,14.0,2,9.459
3160,101.12,0.7513,4.9383,0.2151,-0.0075,-0.2270,1.5711,rough,14.0,2,9.459
3170,101.44,0.7512,4.9383,0.2151,-0.0075,-0.2270,1.5711,rough,14.0,2,9.459
3180,101.76,0.7512,4.9383,0.2151,-0.0075,-0.2270,1.5711,rough,14.0,2,9.459
3190,102.08,0.7512,4.9383,0.2151,-0.0075,-0.2270,1.5711,rough,14.0,2,9.459
3200,102.40,0.7511,4.9383,0.2151,-0.0075,-0.2270,1.5711,rough,14.0,2,9.459
3210,102.72,0.7511,4.9383,0.2151,-0.0075,-0.2270,1.5711,rough,14.0,2,9.459
3220,103.04,0.7511,4.9383,0.2151,-0.0075,-0.2270,1.5711,rough,14.0,2,9.459
3230,103.36,0.7511,4.9383,0.2151,-0.0075,-0.2270,1.5711,rough,14.0,2,9.459
3240,103.68,0.7510,4.9383,0.2151,-0.0075,-0.2270,1.5711,rough,14.0,2,9.459
3250,104.00,0.7510,4.9383,0.2151,-0.0075,-0.2270,1.5711,rough,14.0,2,9.459
3260,104.32,0.7510,4.9383,0.2151,-0.0075,-0.2270,1.5711,rough,14.0,2,9.459
3270,104.64,0.7509,4.9383,0.2151,-0.0075,-0.2270,1.5711,rough,14.0,2,9.459
3280,104.96,0.7509,4.9383,0.2151,-0.0075,-0.2270,1.5711,rough,14.0,2,9.459
3290,105.28,0.7509,4.9383,0.2151,-0.0075,-0.2270,1.5711,rough,14.0,2,9.459
3300,105.60,0.7508,4.9383,0.2151,-0.0075,-0.2270,1.5711,rough,14.0,2,9.459
3310,105.92,0.7508,4.9383,0.2151,-0.0075,-0.2270,1.5711,rough,14.0,2,9.459
3320,106.24,0.7508,4.9383,0.2151,-0.0075,-0.2270,1.5711,rough,14.0,2,9.459
3330,106.56,0.7508,4.9383,0.2151,-0.0075,-0.2270,1.5711,rough,14.0,2,9.459
3340,106.88,0.7507,4.9383,0.2151,-0.0075,-0.2270,1.5711,rough,14.0,2,9.459
3350,107.20,0.7507,4.9383,0.2151,-0.0075,-0.2270,1.5711,rough,14.0,2,9.459
3360,107.52,0.7507,4.9383,0.2151,-0.0075,-0.2270,1.5711,rough,14.0,2,9.459
3370,107.84,0.7506,4.9383,0.2151,-0.0075,-0.2269,1.5711,rough,14.0,2,9.459
3380,108.16,0.7506,4.9383,0.2151,-0.0075,-0.2269,1.5711,rough,14.0,2,9.460
3390,108.48,0.7506,4.9383,0.2151,-0.0075,-0.2269,1.5711,rough,14.0,2,9.460
3400,108.80,0.7506,4.9383,0.2151,-0.0075,-0.2269,1.5711,rough,14.0,2,9.460
3410,109.12,0.7505,4.9383,0.2151,-0.0075,-0.2269,1.5711,rough,14.0,2,9.460
3420,109.44,0.7505,4.9383,0.2151,-0.0075,-0.2269,1.5711,rough,14.0,2,9.460
3430,109.76,0.7505,4.9383,0.2151,-0.0075,-0.2269,1.5711,rough,14.0,2,9.460
3440,110.08,0.7504,4.9383,0.2151,-0.0075,-0.2269,1.5711,rough,14.0,2,9.460
3450,110.40,0.7504,4.9383,0.2151,-0.0075,-0.2269,1.5711,rough,14.0,2,9.460
3460,110.72,0.7504,4.9383,0.2151,-0.0075,-0.2269,1.5711,rough,14.0,2,9.460
3470,111.04,0.7504,4.9383,0.2151,-0.0075,-0.2269,1.5711,rough,14.0,2,9.460
3480,111.36,0.7503,4.9383,0.2151,-0.0075,-0.2269,1.5711,rough,14.0,2,9.460
3490,111.68,0.7503,4.9383,0.2151,-0.0075,-0.2269,1.5711,rough,14.0,2,9.460
3500,112.00,0.7503,4.9383,0.2151,-0.0075,-0.2269,1.5711,rough,14.0,2,9.460
3510,112.32,0.7502,4.9383,0.2151,-0.0075,-0.2269,1.5711,rough,14.0,2,9.460
3520,112.64,0.7502,4.9383,0.2151,-0.0075,-0.2269,1.5711,rough,14.0,2,9.460
3530,112.96,0.7502,4.9383,0.2151,-0.0075,-0.2269,1.5711,rough,14.0,2,9.460
3540,113.28,0.7502,4.9383,0.2151,-0.0075,-0.2269,1.5711,rough,14.0,2,9.460
3550,113.60,0.7501,4.9383,0.2151,-0.0075,-0.2269,1.5711,rough,14.0,2,9.460
3560,113.92,0.7501,4.9383,0.2151,-0.0075,-0.2269,1.5711,rough,14.0,2,9.460
3570,114.24,0.7501,4.9383,0.2151,-0.0075,-0.2269,1.5711,rough,14.0,2,9.460
3580,114.56,0.7500,4.9383,0.2151,-0.0075,-0.2269,1.5711,rough,14.0,2,9.460
3590,114.88,0.7500,4.9383,0.2151,-0.0075,-0.2268,1.5711,rough,14.0,2,9.460
3600,115.20,0.7500,4.9383,0.2151,-0.0075,-0.2268,1.5711,rough,14.0,2,9.460
3610,115.52,0.7500,4.9383,0.2151,-0.0075,-0.2268,1.5711,rough,14.0,2,9.460
3620,115.84,0.7499,4.9383,0.2151,-0.0075,-0.2268,1.5711,rough,14.0,2,9.460
3630,116.16,0.7499,4.9383,0.2151,-0.0075,-0.2268,1.5711,rough,14.0,2,9.460
3640,116.48,0.7499,4.9383,0.2151,-0.0075,-0.2268,1.5711,rough,14.0,2,9.460
3650,116.80,0.7498,4.9383,0.2151,-0.0075,-0.2268,1.5711,rough,14.0,2,9.460
3660,117.12,0.7498,4.9383,0.2151,-0.0075,-0.2268,1.5711,rough,14.0,2,9.460
3670,117.44,0.7498,4.9383,0.2151,-0.0075,-0.2268,1.5711,rough,14.0,2,9.460
3680,117.76,0.7498,4.9383,0.2151,-0.0075,-0.2268,1.5711,rough,14.0,2,9.460
3690,118.08,0.7497,4.9383,0.2151,-0.0075,-0.2268,1.5711,rough,14.0,2,9.460
3700,118.40,0.7497,4.9383,0.2151,-0.0075,-0.2268,1.5711,rough,14.0,2,9.460
3710,118.72,0.7497,4.9383,0.2151,-0.0075,-0.2268,1.5711,rough,14.0,2,9.460
3720,119.04,0.7496,4.9383,0.2151,-0.0075,-0.2268,1.5711,rough,14.0,2,9.460
3730,119.36,0.7496,4.9383,0.2151,-0.0075,-0.2268,1.5711,rough,14.0,2,9.460
3740,119.68,0.7496,4.9383,0.2151,-0.0075,-0.2268,1.5711,rough,14.0,2,9.460
3750,120.00,0.7496,4.9383,0.2151,-0.0075,-0.2268,1.5711,rough,14.0,2,9.460
3760,120.32,0.7495,4.9383,0.2151,-0.0075,-0.2268,1.5711,rough,14.0,2,9.460
3770,120.64,0.7495,4.9383,0.2151,-0.0075,-0.2268,1.5711,rough,14.0,2,9.460
3780,120.96,0.7495,4.9383,0.2151,-0.0075,-0.2268,1.5711,rough,14.0,2,9.460
3790,121.28,0.7495,4.9383,0.2151,-0.0075,-0.2268,1.5711,rough,14.0,2,9.460
3800,121.60,0.7494,4.9383,0.2151,-0.0075,-0.2268,1.5711,rough,14.0,2,9.460
3810,121.92,0.7494,4.9383,0.2151,-0.0075,-0.2268,1.5711,rough,14.0,2,9.461
3820,122.24,0.7494,4.9383,0.2151,-0.0075,-0.2267,1.5711,rough,14.0,2,9.461
3830,122.56,0.7493,4.9383,0.2151,-0.0075,-0.2267,1.5711,rough,14.0,2,9.461
3840,122.88,0.7493,4.9383,0.2151,-0.0075,-0.2267,1.5711,rough,14.0,2,9.461
3850,123.20,0.7493,4.9383,0.2151,-0.0075,-0.2267,1.5711,rough,14.0,2,9.461
3860,123.52,0.7493,4.9383,0.2151,-0.0075,-0.2267,1.5711,rough,14.0,2,9.461
3870,123.84,0.7492,4.9383,0.2151,-0.0075,-0.2267,1.5711,rough,14.0,2,9.461
3880,124.16,0.7492,4.9383,0.2151,-0.0075,-0.2267,1.5711,rough,14.0,2,9.461
3890,124.48,0.7492,4.9383,0.2151,-0.0075,-0.2267,1.5711,rough,14.0,2,9.461
3900,124.80,0.7492,4.9383,0.2151,-0.0075,-0.2267,1.5711,rough,14.0,2,9.461
3910,125.12,0.7491,4.9383,0.2151,-0.0075,-0.2267,1.5711,rough,14.0,2,9.461
3920,125.44,0.7491,4.9383,0.2151,-0.0075,-0.2267,1.5711,rough,14.0,2,9.461
3930,125.76,0.7491,4.9383,0.2151,-0.0075,-0.2267,1.5711,rough,14.0,2,9.461
3940,126.08,0.7490,4.9383,0.2151,-0.0075,-0.2267,1.5711,rough,14.0,2,9.461
3950,126.40,0.7490,4.9383,0.2151,-0.0075,-0.2267,1.5711,rough,14.0,2,9.461
3960,126.72,0.7490,4.9383,0.2151,-0.0075,-0.2267,1.5711,rough,14.0,2,9.461
3970,127.04,0.7490,4.9383,0.2151,-0.0075,-0.2267,1.5711,rough,14.0,2,9.461
3980,127.36,0.7489,4.9383,0.2151,-0.0075,-0.2267,1.5711,rough,14.0,2,9.461
3990,127.68,0.7489,4.9383,0.2151,-0.0075,-0.2267,1.5711,rough,14.0,2,9.461
4000,128.00,0.7489,4.9383,0.2151,-0.0075,-0.2267,1.5711,rough,14.0,2,9.461
4010,128.32,0.7489,4.9383,0.2151,-0.0075,-0.2267,1.5711,rough,14.0,2,9.461
4020,128.64,0.7488,4.9383,0.2151,-0.0075,-0.2267,1.5711,rough,14.0,2,9.461
4030,128.96,0.7488,4.9383,0.2150,-0.0075,-0.2267,1.5711,rough,14.0,2,9.461
4040,129.28,0.7488,4.9383,0.2150,-0.0075,-0.2267,1.5711,rough,14.0,2,9.461
4050,129.60,0.7487,4.9383,0.2150,-0.0075,-0.2267,1.5711,rough,14.0,2,9.461
4060,129.92,0.7487,4.9383,0.2150,-0.0075,-0.2266,1.5711,rough,14.0,2,9.461
4070,130.24,0.7487,4.9383,0.2150,-0.0075,-0.2266,1.5711,rough,14.0,2,9.461
4080,130.56,0.7487,4.9383,0.2150,-0.0075,-0.2266,1.5711,rough,14.0,2,9.461
4090,130.88,0.7486,4.9383,0.2150,-0.0075,-0.2266,1.5711,rough,14.0,2,9.461
4100,131.20,0.7486,4.9383,0.2150,-0.0075,-0.2266,1.5711,rough,14.0,2,9.461
4110,131.52,0.7486,4.9383,0.2150,-0.0075,-0.2266,1.5711,rough,14.0,2,9.461
4120,131.84,0.7486,4.9383,0.2150,-0.0075,-0.2266,1.5711,rough,14.0,2,9.461
4130,132.16,0.7485,4.9383,0.2150,-0.0075,-0.2266,1.5711,rough,14.0,2,9.461
4140,132.48,0.7485,4.9383,0.2150,-0.0075,-0.2266,1.5711,rough,14.0,2,9.461
4150,132.80,0.7485,4.9383,0.2150,-0.0075,-0.2266,1.5711,rough,14.0,2,9.461
4160,133.12,0.7485,4.9383,0.2150,-0.0075,-0.2266,1.5711,rough,14.0,2,9.461
4170,133.44,0.7484,4.9383,0.2150,-0.0075,-0.2266,1.5711,rough,14.0,2,9.461
4180,133.76,0.7484,4.9383,0.2150,-0.0075,-0.2266,1.5711,rough,14.0,2,9.461
4190,134.08,0.7484,4.9383,0.2150,-0.0075,-0.2266,1.5711,rough,14.0,2,9.461
4200,134.40,0.7484,4.9383,0.2150,-0.0075,-0.2266,1.5711,rough,14.0,2,9.461
4210,134.72,0.7483,4.9383,0.2150,-0.0075,-0.2266,1.5711,rough,14.0,2,9.461
4220,135.04,0.7483,4.9383,0.2150,-0.0075,-0.2266,1.5711,rough,14.0,2,9.461
4230,135.36,0.7483,4.9383,0.2150,-0.0075,-0.2266,1.5711,rough,14.0,2,9.461
4240,135.68,0.7482,4.9383,0.2150,-0.0075,-0.2266,1.5711,rough,14.0,2,9.461
4250,136.00,0.7482,4.9383,0.2150,-0.0075,-0.2266,1.5711,rough,14.0,2,9.461
4260,136.32,0.7482,4.9383,0.2150,-0.0074,-0.2266,1.5711,rough,14.0,2,9.461
4270,136.64,0.7482,4.9383,0.2150,-0.0074,-0.2266,1.5711,rough,14.0,2,9.462
4280,136.96,0.7481,4.9383,0.2150,-0.0074,-0.2266,1.5711,rough,14.0,2,9.462
4290,137.28,0.7481,4.9383,0.2150,-0.0074,-0.2266,1.5711,rough,14.0,2,9.462
4300,137.60,0.7481,4.9383,0.2150,-0.0074,-0.2265,1.5711,rough,14.0,2,9.462
4310,137.92,0.7481,4.9383,0.2150,-0.0074,-0.2265,1.5711,rough,14.0,2,9.462
4320,138.24,0.7480,4.9383,0.2150,-0.0074,-0.2265,1.5711,rough,14.0,2,9.462
4330,138.56,0.7480,4.9383,0.2150,-0.0074,-0.2265,1.5711,rough,14.0,2,9.462
4340,138.88,0.7480,4.9383,0.2150,-0.0074,-0.2265,1.5711,rough,14.0,2,9.462
4350,139.20,0.7480,4.9383,0.2150,-0.0074,-0.2265,1.5711,rough,14.0,2,9.462
4360,139.52,0.7479,4.9383,0.2150,-0.0074,-0.2265,1.5711,rough,14.0,2,9.462
4370,139.84,0.7479,4.9383,0.2150,-0.0074,-0.2265,1.5711,rough,14.0,2,9.462
4380,140.16,0.7479,4.9383,0.2150,-0.0074,-0.2265,1.5711,rough,14.0,2,9.462
4390,140.48,0.7479,4.9383,0.2150,-0.0074,-0.2265,1.5711,rough,14.0,2,9.462
4400,140.80,0.7478,4.9383,0.2150,-0.0074,-0.2265,1.5711,rough,14.0,2,9.462
4410,141.12,0.7478,4.9383,0.2150,-0.0074,-0.2265,1.5711,rough,14.0,2,9.462
4420,141.44,0.7478,4.9383,0.2150,-0.0074,-0.2265,1.5711,rough,14.0,2,9.462
4430,141.76,0.7478,4.9383,0.2150,-0.0074,-0.2265,1.5711,rough,14.0,2,9.462
4440,142.08,0.7477,4.9383,0.2150,-0.0074,-0.2265,1.5711,rough,14.0,2,9.462
4450,142.40,0.7477,4.9383,0.2150,-0.0074,-0.2265,1.5711,rough,14.0,2,9.462
4460,142.72,0.7477,4.9383,0.2150,-0.0074,-0.2265,1.5711,rough,14.0,2,9.462
4470,143.04,0.7477,4.9383,0.2150,-0.0074,-0.2265,1.5711,rough,14.0,2,9.462
4480,143.36,0.7476,4.9383,0.2150,-0.0074,-0.2265,1.5711,rough,14.0,2,9.462
4490,143.68,0.7476,4.9383,0.2150,-0.0074,-0.2265,1.5711,rough,14.0,2,9.462
4500,144.00,0.7476,4.9383,0.2150,-0.0074,-0.2265,1.5711,rough,14.0,2,9.462
4510,144.32,0.7476,4.9383,0.2150,-0.0074,-0.2265,1.5711,rough,14.0,2,9.462
4520,144.64,0.7475,4.9383,0.2150,-0.0074,-0.2265,1.5711,rough,14.0,2,9.462
4530,144.96,0.7475,4.9383,0.2150,-0.0074,-0.2265,1.5711,rough,14.0,2,9.462
4540,145.28,0.7475,4.9383,0.2150,-0.0074,-0.2265,1.5711,rough,14.0,2,9.462
4550,145.60,0.7475,4.9383,0.2150,-0.0074,-0.2264,1.5711,rough,14.0,2,9.462
4560,145.92,0.7474,4.9383,0.2150,-0.0074,-0.2264,1.5711,rough,14.0,2,9.462
4570,146.24,0.7474,4.9383,0.2150,-0.0074,-0.2264,1.5711,rough,14.0,2,9.462
4580,146.56,0.7474,4.9383,0.2150,-0.0074,-0.2264,1.5711,rough,14.0,2,9.462
4590,146.88,0.7474,4.9383,0.2150,-0.0074,-0.2264,1.5711,rough,14.0,2,9.462
4600,147.20,0.7473,4.9383,0.2150,-0.0074,-0.2264,1.5711,rough,14.0,2,9.462
4610,147.52,0.7473,4.9383,0.2150,-0.0074,-0.2264,1.5711,rough,14.0,2,9.462
4620,147.84,0.7473,4.9383,0.2150,-0.0074,-0.2264,1.5711,rough,14.0,2,9.462
4630,148.16,0.7473,4.9383,0.2150,-0.0074,-0.2264,1.5711,rough,14.0,2,9.462
4640,148.48,0.7472,4.9383,0.2150,-0.0074,-0.2264,1.5711,rough,14.0,2,9.462
4650,148.80,0.7472,4.9383,0.2150,-0.0074,-0.2264,1.5711,rough,14.0,2,9.462
4660,149.12,0.7472,4.9383,0.2150,-0.0074,-0.2264,1.5711,rough,14.0,2,9.462
4670,149.44,0.7472,4.9383,0.2150,-0.0074,-0.2264,1.5711,rough,14.0,2,9.462
4680,149.76,0.7471,4.9383,0.2150,-0.0074,-0.2264,1.5711,rough,14.0,2,9.462
4690,150.08,0.7471,4.9383,0.2150,-0.0074,-0.2264,1.5711,rough,14.0,2,9.462
4700,150.40,0.7471,4.9383,0.2150,-0.0074,-0.2264,1.5711,rough,14.0,2,9.462
4710,150.72,0.7471,4.9383,0.2150,-0.0074,-0.2264,1.5711,rough,14.0,2,9.462
4720,151.04,0.7470,4.9383,0.2150,-0.0074,-0.2264,1.5711,rough,14.0,2,9.462
4730,151.36,0.7470,4.9383,0.2150,-0.0074,-0.2264,1.5711,rough,14.0,2,9.462
4740,151.68,0.7470,4.9383,0.2150,-0.0074,-0.2264,1.5711,rough,14.0,2,9.462
4750,152.00,0.7470,4.9383,0.2150,-0.0074,-0.2264,1.5711,rough,14.0,2,9.462
4760,152.32,0.7469,4.9383,0.2150,-0.0074,-0.2264,1.5711,rough,14.0,2,9.463
4770,152.64,0.7469,4.9383,0.2150,-0.0074,-0.2264,1.5711,rough,14.0,2,9.463
4780,152.96,0.7469,4.9383,0.2150,-0.0074,-0.2264,1.5711,rough,14.0,2,9.463
4790,153.28,0.7469,4.9383,0.2150,-0.0074,-0.2264,1.5711,rough,14.0,2,9.463
4800,153.60,0.7469,4.9383,0.2150,-0.0074,-0.2264,1.5711,rough,14.0,2,9.463
4810,153.92,0.7468,4.9383,0.2150,-0.0074,-0.2264,1.5711,rough,14.0,2,9.463
4820,154.24,0.7468,4.9383,0.2150,-0.0074,-0.2263,1.5711,rough,14.0,2,9.463
4830,154.56,0.7468,4.9383,0.2150,-0.0074,-0.2263,1.5711,rough,14.0,2,9.463
4840,154.88,0.7468,4.9383,0.2150,-0.0074,-0.2263,1.5711,rough,14.0,2,9.463
4850,155.20,0.7467,4.9383,0.2150,-0.0074,-0.2263,1.5711,rough,14.0,2,9.463
4860,155.52,0.7467,4.9383,0.2150,-0.0074,-0.2263,1.5711,rough,14.0,2,9.463
4870,155.84,0.7467,4.9383,0.2150,-0.0074,-0.2263,1.5711,rough,14.0,2,9.463
4880,156.16,0.7467,4.9383,0.2150,-0.0074,-0.2263,1.5711,rough,14.0,2,9.463
4890,156.48,0.7466,4.9383,0.2150,-0.0074,-0.2263,1.5711,rough,14.0,2,9.463
4900,156.80,0.7466,4.9383,0.2150,-0.0074,-0.2263,1.5711,rough,14.0,2,9.463
4910,157.12,0.7466,4.9383,0.2150,-0.0074,-0.2263,1.5711,rough,14.0,2,9.463
4920,157.44,0.7466,4.9383,0.2150,-0.0074,-0.2263,1.5711,rough,14.0,2,9.463
4930,157.76,0.7466,4.9383,0.2150,-0.0074,-0.2263,1.5711,rough,14.0,2,9.463
4940,158.08,0.7465,4.9383,0.2150,-0.0074,-0.2263,1.5711,rough,14.0,2,9.463
4950,158.40,0.7465,4.9383,0.2150,-0.0074,-0.2263,1.5711,rough,14.0,2,9.463
4960,158.72,0.7465,4.9383,0.2150,-0.0074,-0.2263,1.5711,rough,14.0,2,9.463
4970,159.04,0.7465,4.9383,0.2150,-0.0074,-0.2263,1.5711,rough,14.0,2,9.463
4980,159.36,0.7464,4.9383,0.2150,-0.0074,-0.2263,1.5711,rough,14.0,2,9.463
4990,159.68,0.7464,4.9383,0.2150,-0.0074,-0.2263,1.5711,rough,14.0,2,9.463
5000,160.00,0.7464,4.9383,0.2150,-0.0074,-0.2263,1.5711,rough,14.0,2,9.463
5010,160.32,0.7464,4.9383,0.2150,-0.0074,-0.2263,1.5711,rough,14.0,2,9.463
5020,160.64,0.7464,4.9383,0.2150,-0.0074,-0.2263,1.5711,rough,14.0,2,9.463
5030,160.96,0.7463,4.9383,0.2150,-0.0074,-0.2263,1.5711,rough,14.0,2,9.463
5040,161.28,0.7463,4.9383,0.2150,-0.0074,-0.2263,1.5711,rough,14.0,2,9.463
5050,161.60,0.7463,4.9383,0.2150,-0.0074,-0.2263,1.5711,rough,14.0,2,9.463
5060,161.92,0.7463,4.9383,0.2150,-0.0074,-0.2263,1.5711,rough,14.0,2,9.463
5070,162.24,0.7462,4.9383,0.2150,-0.0074,-0.2263,1.5711,rough,14.0,2,9.463
5080,162.56,0.7462,4.9383,0.2150,-0.0074,-0.2263,1.5711,rough,14.0,2,9.463
5090,162.88,0.7462,4.9383,0.2150,-0.0074,-0.2263,1.5711,rough,14.0,2,9.463
5100,163.20,0.7462,4.9383,0.2150,-0.0074,-0.2262,1.5711,rough,14.0,2,9.463
5110,163.52,0.7462,4.9383,0.2150,-0.0074,-0.2262,1.5711,rough,14.0,2,9.463
5120,163.84,0.7461,4.9383,0.2150,-0.0074,-0.2262,1.5711,rough,14.0,2,9.463
5130,164.16,0.7461,4.9383,0.2150,-0.0074,-0.2262,1.5711,rough,14.0,2,9.463
5140,164.48,0.7461,4.9383,0.2150,-0.0074,-0.2262,1.5711,rough,14.0,2,9.463
5150,164.80,0.7461,4.9383,0.2150,-0.0074,-0.2262,1.5711,rough,14.0,2,9.463
5160,165.12,0.7461,4.9383,0.2150,-0.0074,-0.2262,1.5711,rough,14.0,2,9.463
5170,165.44,0.7460,4.9383,0.2150,-0.0074,-0.2262,1.5711,rough,14.0,2,9.463
5180,165.76,0.7460,4.9383,0.2150,-0.0074,-0.2262,1.5711,rough,14.0,2,9.463
5190,166.08,0.7460,4.9383,0.2150,-0.0074,-0.2262,1.5711,rough,14.0,2,9.463
5200,166.40,0.7460,4.9383,0.2150,-0.0074,-0.2262,1.5711,rough,14.0,2,9.463
5210,166.72,0.7459,4.9383,0.2150,-0.0074,-0.2262,1.5711,rough,14.0,2,9.463
5220,167.04,0.7459,4.9383,0.2150,-0.0074,-0.2262,1.5711,rough,14.0,2,9.463
5230,167.36,0.7459,4.9383,0.2150,-0.0074,-0.2262,1.5711,rough,14.0,2,9.463
5240,167.68,0.7459,4.9383,0.2150,-0.0074,-0.2262,1.5711,rough,14.0,2,9.463
5250,168.00,0.7459,4.9383,0.2150,-0.0074,-0.2262,1.5711,rough,14.0,2,9.463
5260,168.32,0.7458,4.9383,0.2150,-0.0074,-0.2262,1.5711,rough,14.0,2,9.463
5270,168.64,0.7458,4.9383,0.2150,-0.0074,-0.2262,1.5711,rough,14.0,2,9.463
5280,168.96,0.7458,4.9383,0.2150,-0.0074,-0.2262,1.5711,rough,14.0,2,9.463
5290,169.28,0.7458,4.9383,0.2150,-0.0074,-0.2262,1.5711,rough,14.0,2,9.463
5300,169.60,0.7458,4.9383,0.2150,-0.0074,-0.2262,1.5711,rough,14.0,2,9.463
5310,169.92,0.7457,4.9383,0.2150,-0.0074,-0.2262,1.5711,rough,14.0,2,9.464
5320,170.24,0.7457,4.9383,0.2150,-0.0074,-0.2262,1.5711,rough,14.0,2,9.464
5330,170.56,0.7457,4.9383,0.2150,-0.0074,-0.2262,1.5711,rough,14.0,2,9.464
5340,170.88,0.7457,4.9383,0.2150,-0.0074,-0.2262,1.5711,rough,14.0,2,9.464
5350,171.20,0.7456,4.9383,0.2150,-0.0074,-0.2262,1.5711,rough,14.0,2,9.464
5360,171.52,0.7456,4.9383,0.2150,-0.0074,-0.2262,1.5711,rough,14.0,2,9.464
5370,171.84,0.7456,4.9383,0.2150,-0.0074,-0.2262,1.5711,rough,14.0,2,9.464
5380,172.16,0.7456,4.9383,0.2150,-0.0074,-0.2262,1.5711,rough,14.0,2,9.464
5390,172.48,0.7456,4.9383,0.2150,-0.0074,-0.2262,1.5711,rough,14.0,2,9.464
5400,172.80,0.7455,4.9383,0.2150,-0.0074,-0.2261,1.5711,rough,14.0,2,9.464
5410,173.12,0.7455,4.9383,0.2150,-0.0074,-0.2261,1.5711,rough,14.0,2,9.464
5420,173.44,0.7455,4.9383,0.2150,-0.0074,-0.2261,1.5711,rough,14.0,2,9.464
5430,173.76,0.7455,4.9383,0.2150,-0.0074,-0.2261,1.5711,rough,14.0,2,9.464
5440,174.08,0.7455,4.9383,0.2150,-0.0074,-0.2261,1.5711,rough,14.0,2,9.464
5450,174.40,0.7454,4.9383,0.2150,-0.0074,-0.2261,1.5711,rough,14.0,2,9.464
5460,174.72,0.7454,4.9383,0.2150,-0.0074,-0.2261,1.5711,rough,14.0,2,9.464
5470,175.04,0.7454,4.9383,0.2150,-0.0074,-0.2261,1.5711,rough,14.0,2,9.464
5480,175.36,0.7454,4.9383,0.2150,-0.0074,-0.2261,1.5711,rough,14.0,2,9.464
5490,175.68,0.7454,4.9383,0.2150,-0.0074,-0.2261,1.5711,rough,14.0,2,9.464
5500,176.00,0.7453,4.9383,0.2150,-0.0074,-0.2261,1.5711,rough,14.0,2,9.464
5510,176.32,0.7453,4.9383,0.2150,-0.0074,-0.2261,1.5711,rough,14.0,2,9.464
5520,176.64,0.7453,4.9383,0.2150,-0.0074,-0.2261,1.5711,rough,14.0,2,9.464
5530,176.96,0.7453,4.9383,0.2150,-0.0074,-0.2261,1.5711,rough,14.0,2,9.464
5540,177.28,0.7453,4.9383,0.2150,-0.0074,-0.2261,1.5711,rough,14.0,2,9.464
5550,177.60,0.7452,4.9383,0.2150,-0.0074,-0.2261,1.5711,rough,14.0,2,9.464
5560,177.92,0.7452,4.9383,0.2150,-0.0074,-0.2261,1.5711,rough,14.0,2,9.464
5570,178.24,0.7452,4.9383,0.2150,-0.0074,-0.2261,1.5711,rough,14.0,2,9.464
5580,178.56,0.7452,4.9383,0.2150,-0.0074,-0.2261,1.5711,rough,14.0,2,9.464
5590,178.88,0.7452,4.9383,0.2150,-0.0074,-0.2261,1.5711,rough,14.0,2,9.464
5600,179.20,0.7451,4.9383,0.2150,-0.0074,-0.2261,1.5711,rough,14.0,2,9.464
5610,179.52,0.7451,4.9383,0.2150,-0.0074,-0.2261,1.5711,rough,14.0,2,9.464
5620,179.84,0.7451,4.9383,0.2150,-0.0074,-0.2261,1.5711,rough,14.0,2,9.464
5630,180.16,0.7451,4.9383,0.2150,-0.0074,-0.2261,1.5711,rough,14.0,2,9.464
5640,180.48,0.7450,4.9383,0.2150,-0.0074,-0.2261,1.5711,rough,14.0,2,9.464
5650,180.80,0.7450,4.9383,0.2149,-0.0074,-0.2261,1.5711,rough,14.0,2,9.464
5660,181.12,0.7450,4.9383,0.2149,-0.0074,-0.2261,1.5711,rough,14.0,2,9.464
5670,181.44,0.7450,4.9383,0.2149,-0.0074,-0.2261,1.5711,rough,14.0,2,9.464
5680,181.76,0.7450,4.9383,0.2149,-0.0074,-0.2261,1.5711,rough,14.0,2,9.464
5690,182.08,0.7449,4.9383,0.2149,-0.0074,-0.2261,1.5711,rough,14.0,2,9.464
5700,182.40,0.7449,4.9383,0.2149,-0.0074,-0.2261,1.5711,rough,14.0,2,9.464
5710,182.72,0.7449,4.9383,0.2149,-0.0074,-0.2260,1.5711,rough,14.0,2,9.464
5720,183.04,0.7449,4.9383,0.2149,-0.0074,-0.2260,1.5711,rough,14.0,2,9.464
5730,183.36,0.7449,4.9383,0.2149,-0.0074,-0.2260,1.5711,rough,14.0,2,9.464
5740,183.68,0.7448,4.9383,0.2149,-0.0074,-0.2260,1.5711,rough,14.0,2,9.464
5750,184.00,0.7448,4.9383,0.2149,-0.0074,-0.2260,1.5711,rough,14.0,2,9.464
5760,184.32,0.7448,4.9383,0.2149,-0.0074,-0.2260,1.5711,rough,14.0,2,9.464
5770,184.64,0.7448,4.9383,0.2149,-0.0074,-0.2260,1.5711,rough,14.0,2,9.464
5780,184.96,0.7448,4.9383,0.2149,-0.0074,-0.2260,1.5711,rough,14.0,2,9.464
5790,185.28,0.7447,4.9383,0.2149,-0.0074,-0.2260,1.5711,rough,14.0,2,9.464
5800,185.60,0.7447,4.9383,0.2149,-0.0074,-0.2260,1.5711,rough,14.0,2,9.464
5810,185.92,0.7447,4.9383,0.2149,-0.0074,-0.2260,1.5711,rough,14.0,2,9.464
5820,186.24,0.7447,4.9383,0.2149,-0.0074,-0.2260,1.5711,rough,14.0,2,9.464
5830,186.56,0.7447,4.9383,0.2149,-0.0074,-0.2260,1.5711,rough,14.0,2,9.464
5840,186.88,0.7446,4.9383,0.2149,-0.0074,-0.2260,1.5711,rough,14.0,2,9.464
5850,187.20,0.7446,4.9383,0.2149,-0.0074,-0.2260,1.5711,rough,14.0,2,9.464
5860,187.52,0.7446,4.9383,0.2149,-0.0074,-0.2260,1.5711,rough,14.0,2,9.464
5870,187.84,0.7446,4.9383,0.2149,-0.0074,-0.2260,1.5711,rough,14.0,2,9.464
5880,188.16,0.7446,4.9383,0.2149,-0.0074,-0.2260,1.5711,rough,14.0,2,9.464
5890,188.48,0.7445,4.9383,0.2149,-0.0074,-0.2260,1.5711,rough,14.0,2,9.464
5900,188.80,0.7445,4.9383,0.2149,-0.0074,-0.2260,1.5711,rough,14.0,2,9.464
5910,189.12,0.7445,4.9383,0.2149,-0.0074,-0.2260,1.5711,rough,14.0,2,9.465
5920,189.44,0.7445,4.9383,0.2149,-0.0074,-0.2260,1.5711,rough,14.0,2,9.465
5930,189.76,0.7445,4.9383,0.2149,-0.0074,-0.2260,1.5711,rough,14.0,2,9.465
5940,190.08,0.7445,4.9383,0.2149,-0.0074,-0.2260,1.5711,rough,14.0,2,9.465
5950,190.40,0.7444,4.9383,0.2149,-0.0074,-0.2260,1.5711,rough,14.0,2,9.465
5960,190.72,0.7444,4.9383,0.2149,-0.0074,-0.2260,1.5711,rough,14.0,2,9.465
5970,191.04,0.7444,4.9383,0.2149,-0.0074,-0.2260,1.5711,rough,14.0,2,9.465
5980,191.36,0.7444,4.9383,0.2149,-0.0074,-0.2260,1.5711,rough,14.0,2,9.465
5990,191.68,0.7444,4.9383,0.2149,-0.0074,-0.2260,1.5711,rough,14.0,2,9.465
6000,192.00,0.7443,4.9383,0.2149,-0.0074,-0.2260,1.5711,rough,14.0,2,9.465
6010,192.32,0.7443,4.9383,0.2149,-0.0073,-0.2260,1.5711,rough,14.0,2,9.465
6020,192.64,0.7443,4.9383,0.2149,-0.0073,-0.2260,1.5711,rough,14.0,2,9.465
6030,192.96,0.7443,4.9383,0.2149,-0.0073,-0.2259,1.5711,rough,14.0,2,9.465
6040,193.28,0.7443,4.9383,0.2149,-0.0073,-0.2259,1.5711,rough,14.0,2,9.465
6050,193.60,0.7442,4.9383,0.2149,-0.0073,-0.2259,1.5711,rough,14.0,2,9.465
6060,193.92,0.7442,4.9383,0.2149,-0.0073,-0.2259,1.5711,rough,14.0,2,9.465
6070,194.24,0.7442,4.9383,0.2149,-0.0073,-0.2259,1.5711,rough,14.0,2,9.465
6080,194.56,0.7442,4.9383,0.2149,-0.0073,-0.2259,1.5711,rough,14.0,2,9.465
6090,194.88,0.7442,4.9383,0.2149,-0.0073,-0.2259,1.5711,rough,14.0,2,9.465
6100,195.20,0.7441,4.9383,0.2149,-0.0073,-0.2259,1.5711,rough,14.0,2,9.465
6110,195.52,0.7441,4.9383,0.2149,-0.0073,-0.2259,1.5711,rough,14.0,2,9.465
6120,195.84,0.7441,4.9383,0.2149,-0.0073,-0.2259,1.5711,rough,14.0,2,9.465
6130,196.16,0.7441,4.9383,0.2149,-0.0073,-0.2259,1.5711,rough,14.0,2,9.465
6140,196.48,0.7441,4.9383,0.2149,-0.0073,-0.2259,1.5711,rough,14.0,2,9.465
6150,196.80,0.7440,4.9383,0.2149,-0.0073,-0.2259,1.5711,rough,14.0,2,9.465
6160,197.12,0.7440,4.9383,0.2149,-0.0073,-0.2259,1.5711,rough,14.0,2,9.465
6170,197.44,0.7440,4.9383,0.2149,-0.0073,-0.2259,1.5711,rough,14.0,2,9.465
6180,197.76,0.7440,4.9383,0.2149,-0.0073,-0.2259,1.5711,rough,14.0,2,9.465
6190,198.08,0.7440,4.9383,0.2149,-0.0073,-0.2259,1.5711,rough,14.0,2,9.465
6200,198.40,0.7439,4.9383,0.2149,-0.0073,-0.2259,1.5711,rough,14.0,2,9.465
6210,198.72,0.7439,4.9383,0.2149,-0.0073,-0.2259,1.5711,rough,14.0,2,9.465
6220,199.04,0.7439,4.9383,0.2149,-0.0073,-0.2259,1.5711,rough,14.0,2,9.465
6230,199.36,0.7439,4.9383,0.2149,-0.0073,-0.2259,1.5711,rough,14.0,2,9.465
6240,199.68,0.7439,4.9383,0.2149,-0.0073,-0.2259,1.5711,rough,14.0,2,9.465
6250,200.00,0.7439,4.9383,0.2149,-0.0073,-0.2259,1.5711,rough,14.0,2,9.465
6260,200.32,0.7438,4.9383,0.2149,-0.0073,-0.2259,1.5711,rough,14.0,2,9.465
6270,200.64,0.7438,4.9383,0.2149,-0.0073,-0.2259,1.5711,rough,14.0,2,9.465
6280,200.96,0.7438,4.9383,0.2149,-0.0073,-0.2259,1.5711,rough,14.0,2,9.465
6290,201.28,0.7438,4.9383,0.2149,-0.0073,-0.2259,1.5711,rough,14.0,2,9.465
6300,201.60,0.7438,4.9383,0.2149,-0.0073,-0.2259,1.5711,rough,14.0,2,9.465
6310,201.92,0.7437,4.9383,0.2149,-0.0073,-0.2259,1.5711,rough,14.0,2,9.465
6320,202.24,0.7437,4.9383,0.2149,-0.0073,-0.2259,1.5711,rough,14.0,2,9.465
6330,202.56,0.7437,4.9383,0.2149,-0.0073,-0.2259,1.5711,rough,14.0,2,9.465
6340,202.88,0.7437,4.9383,0.2149,-0.0073,-0.2259,1.5711,rough,14.0,2,9.465
6350,203.20,0.7437,4.9383,0.2149,-0.0073,-0.2259,1.5711,rough,14.0,2,9.465
6360,203.52,0.7436,4.9383,0.2149,-0.0073,-0.2259,1.5711,rough,14.0,2,9.465
6370,203.84,0.7436,4.9383,0.2149,-0.0073,-0.2258,1.5711,rough,14.0,2,9.465
6380,204.16,0.7436,4.9383,0.2149,-0.0073,-0.2258,1.5711,rough,14.0,2,9.465
6390,204.48,0.7436,4.9383,0.2149,-0.0073,-0.2258,1.5711,rough,14.0,2,9.465
6400,204.80,0.7436,4.9383,0.2149,-0.0073,-0.2258,1.5711,rough,14.0,2,9.465
6410,205.12,0.7436,4.9383,0.2149,-0.0073,-0.2258,1.5711,rough,14.0,2,9.465
6420,205.44,0.7435,4.9383,0.2149,-0.0073,-0.2258,1.5711,rough,14.0,2,9.465
6430,205.76,0.7435,4.9383,0.2149,-0.0073,-0.2258,1.5711,rough,14.0,2,9.465
6440,206.08,0.7435,4.9383,0.2149,-0.0073,-0.2258,1.5711,rough,14.0,2,9.465
6450,206.40,0.7435,4.9383,0.2149,-0.0073,-0.2258,1.5711,rough,14.0,2,9.465
6460,206.72,0.7435,4.9383,0.2149,-0.0073,-0.2258,1.5711,rough,14.0,2,9.465
6470,207.04,0.7434,4.9383,0.2149,-0.0073,-0.2258,1.5711,rough,14.0,2,9.465
6480,207.36,0.7434,4.9383,0.2149,-0.0073,-0.2258,1.5711,rough,14.0,2,9.465
6490,207.68,0.7434,4.9383,0.2149,-0.0073,-0.2258,1.5711,rough,14.0,2,9.465
6500,208.00,0.7434,4.9383,0.2149,-0.0073,-0.2258,1.5711,rough,14.0,2,9.465
6510,208.32,0.7434,4.9383,0.2149,-0.0073,-0.2258,1.5711,rough,14.0,2,9.465
6520,208.64,0.7434,4.9383,0.2149,-0.0073,-0.2258,1.5711,rough,14.0,2,9.465
6530,208.96,0.7433,4.9383,0.2149,-0.0073,-0.2258,1.5711,rough,14.0,2,9.465
6540,209.28,0.7433,4.9383,0.2149,-0.0073,-0.2258,1.5711,rough,14.0,2,9.465
6550,209.60,0.7433,4.9383,0.2149,-0.0073,-0.2258,1.5711,rough,14.0,2,9.466
6560,209.92,0.7433,4.9383,0.2149,-0.0073,-0.2258,1.5711,rough,14.0,2,9.466
6570,210.24,0.7433,4.9383,0.2149,-0.0073,-0.2258,1.5711,rough,14.0,2,9.466
6580,210.56,0.7432,4.9383,0.2149,-0.0073,-0.2258,1.5711,rough,14.0,2,9.466
6590,210.88,0.7432,4.9383,0.2149,-0.0073,-0.2258,1.5711,rough,14.0,2,9.466
6600,211.20,0.7432,4.9383,0.2149,-0.0073,-0.2258,1.5711,rough,14.0,2,9.466
6610,211.52,0.7432,4.9383,0.2149,-0.0073,-0.2258,1.5711,rough,14.0,2,9.466
6620,211.84,0.7432,4.9383,0.2149,-0.0073,-0.2258,1.5711,rough,14.0,2,9.466
6630,212.16,0.7432,4.9383,0.2149,-0.0073,-0.2258,1.5711,rough,14.0,2,9.466
6640,212.48,0.7431,4.9383,0.2149,-0.0073,-0.2258,1.5711,rough,14.0,2,9.466
6650,212.80,0.7431,4.9383,0.2149,-0.0073,-0.2258,1.5711,rough,14.0,2,9.466
6660,213.12,0.7431,4.9383,0.2149,-0.0073,-0.2258,1.5711,rough,14.0,2,9.466
6670,213.44,0.7431,4.9383,0.2149,-0.0073,-0.2258,1.5711,rough,14.0,2,9.466
6680,213.76,0.7431,4.9383,0.2149,-0.0073,-0.2258,1.5711,rough,14.0,2,9.466
6690,214.08,0.7430,4.9383,0.2149,-0.0073,-0.2258,1.5711,rough,14.0,2,9.466
6700,214.40,0.7430,4.9383,0.2149,-0.0073,-0.2258,1.5711,rough,14.0,2,9.466
6710,214.72,0.7430,4.9383,0.2149,-0.0073,-0.2258,1.5711,rough,14.0,2,9.466
6720,215.04,0.7430,4.9383,0.2149,-0.0073,-0.2257,1.5711,rough,14.0,2,9.466
6730,215.36,0.7430,4.9383,0.2149,-0.0073,-0.2257,1.5711,rough,14.0,2,9.466
6740,215.68,0.7430,4.9383,0.2149,-0.0073,-0.2257,1.5711,rough,14.0,2,9.466
6750,216.00,0.7429,4.9383,0.2149,-0.0073,-0.2257,1.5711,rough,14.0,2,9.466
6760,216.32,0.7429,4.9383,0.2149,-0.0073,-0.2257,1.5711,rough,14.0,2,9.466
6770,216.64,0.7429,4.9383,0.2149,-0.0073,-0.2257,1.5710,rough,14.0,2,9.466
6780,216.96,0.7429,4.9383,0.2149,-0.0073,-0.2257,1.5710,rough,14.0,2,9.466
6790,217.28,0.7429,4.9383,0.2149,-0.0073,-0.2257,1.5710,rough,14.0,2,9.466
6800,217.60,0.7428,4.9383,0.2149,-0.0073,-0.2257,1.5710,rough,14.0,2,9.466
6810,217.92,0.7428,4.9383,0.2149,-0.0073,-0.2257,1.5710,rough,14.0,2,9.466
6820,218.24,0.7428,4.9383,0.2149,-0.0073,-0.2257,1.5710,rough,14.0,2,9.466
6830,218.56,0.7428,4.9383,0.2149,-0.0073,-0.2257,1.5710,rough,14.0,2,9.466
6840,218.88,0.7428,4.9383,0.2149,-0.0073,-0.2257,1.5710,rough,14.0,2,9.466
6850,219.20,0.7428,4.9383,0.2149,-0.0073,-0.2257,1.5710,rough,14.0,2,9.466
6860,219.52,0.7427,4.9383,0.2149,-0.0073,-0.2257,1.5710,rough,14.0,2,9.466
6870,219.84,0.7427,4.9383,0.2149,-0.0073,-0.2257,1.5710,rough,14.0,2,9.466
6880,220.16,0.7427,4.9383,0.2149,-0.0073,-0.2257,1.5710,rough,14.0,2,9.466
6890,220.48,0.7427,4.9383,0.2149,-0.0073,-0.2257,1.5710,rough,14.0,2,9.466
6900,220.80,0.7427,4.9383,0.2149,-0.0073,-0.2257,1.5710,rough,14.0,2,9.466
6910,221.12,0.7427,4.9383,0.2149,-0.0073,-0.2257,1.5710,rough,14.0,2,9.466
6920,221.44,0.7426,4.9383,0.2149,-0.0073,-0.2257,1.5710,rough,14.0,2,9.466
6930,221.76,0.7426,4.9383,0.2149,-0.0073,-0.2257,1.5710,rough,14.0,2,9.466
6940,222.08,0.7426,4.9383,0.2149,-0.0073,-0.2257,1.5710,rough,14.0,2,9.466
6950,222.40,0.7426,4.9383,0.2149,-0.0073,-0.2257,1.5710,rough,14.0,2,9.466
6960,222.72,0.7426,4.9383,0.2149,-0.0073,-0.2257,1.5710,rough,14.0,2,9.466
6970,223.04,0.7426,4.9383,0.2149,-0.0073,-0.2257,1.5710,rough,14.0,2,9.466
6980,223.36,0.7425,4.9383,0.2149,-0.0073,-0.2257,1.5710,rough,14.0,2,9.466
6990,223.68,0.7425,4.9383,0.2149,-0.0073,-0.2257,1.5710,rough,14.0,2,9.466
7000,224.00,0.7425,4.9383,0.2149,-0.0073,-0.2257,1.5710,rough,14.0,2,9.466
7010,224.32,0.7425,4.9383,0.2149,-0.0073,-0.2257,1.5710,rough,14.0,2,9.466
7020,224.64,0.7425,4.9383,0.2149,-0.0073,-0.2257,1.5710,rough,14.0,2,9.466
7030,224.96,0.7424,4.9383,0.2149,-0.0073,-0.2257,1.5710,rough,14.0,2,9.466
7040,225.28,0.7424,4.9383,0.2149,-0.0073,-0.2257,1.5710,rough,14.0,2,9.466
7050,225.60,0.7424,4.9383,0.2149,-0.0073,-0.2257,1.5710,rough,14.0,2,9.466
7060,225.92,0.7424,4.9383,0.2149,-0.0073,-0.2257,1.5710,rough,14.0,2,9.466
7070,226.24,0.7424,4.9383,0.2149,-0.0073,-0.2257,1.5710,rough,14.0,2,9.466
7080,226.56,0.7424,4.9383,0.2149,-0.0073,-0.2256,1.5710,rough,14.0,2,9.466
7090,226.88,0.7423,4.9383,0.2149,-0.0073,-0.2256,1.5710,rough,14.0,2,9.466
7100,227.20,0.7423,4.9383,0.2149,-0.0073,-0.2256,1.5710,rough,14.0,2,9.466
7110,227.52,0.7423,4.9383,0.2149,-0.0073,-0.2256,1.5710,rough,14.0,2,9.466
7120,227.84,0.7423,4.9383,0.2149,-0.0073,-0.2256,1.5710,rough,14.0,2,9.466
7130,228.16,0.7423,4.9383,0.2149,-0.0073,-0.2256,1.5710,rough,14.0,2,9.466
7140,228.48,0.7423,4.9383,0.2149,-0.0073,-0.2256,1.5710,rough,14.0,2,9.466
7150,228.80,0.7422,4.9383,0.2149,-0.0073,-0.2256,1.5710,rough,14.0,2,9.466
7160,229.12,0.7422,4.9383,0.2149,-0.0073,-0.2256,1.5710,rough,14.0,2,9.466
7170,229.44,0.7422,4.9383,0.2149,-0.0073,-0.2256,1.5710,rough,14.0,2,9.466
7180,229.76,0.7422,4.9383,0.2149,-0.0073,-0.2256,1.5710,rough,14.0,2,9.466
7190,230.08,0.7422,4.9383,0.2149,-0.0073,-0.2256,1.5710,rough,14.0,2,9.466
7200,230.40,0.7422,4.9383,0.2149,-0.0073,-0.2256,1.5710,rough,14.0,2,9.466
7210,230.72,0.7421,4.9383,0.2149,-0.0073,-0.2256,1.5710,rough,14.0,2,9.466
7220,231.04,0.7421,4.9383,0.2149,-0.0073,-0.2256,1.5710,rough,14.0,2,9.466
7230,231.36,0.7421,4.9383,0.2149,-0.0073,-0.2256,1.5710,rough,14.0,2,9.466
7240,231.68,0.7421,4.9383,0.2149,-0.0073,-0.2256,1.5710,rough,14.0,2,9.466
7250,232.00,0.7421,4.9383,0.2149,-0.0073,-0.2256,1.5710,rough,14.0,2,9.467
7260,232.32,0.7421,4.9383,0.2149,-0.0073,-0.2256,1.5710,rough,14.0,2,9.467
7270,232.64,0.7420,4.9384,0.2149,-0.0073,-0.2256,1.5710,rough,14.0,2,9.467
7280,232.96,0.7420,4.9384,0.2149,-0.0073,-0.2256,1.5710,rough,14.0,2,9.467
7290,233.28,0.7420,4.9384,0.2149,-0.0073,-0.2256,1.5710,rough,14.0,2,9.467
7300,233.60,0.7420,4.9384,0.2149,-0.0073,-0.2256,1.5710,rough,14.0,2,9.467
7310,233.92,0.7420,4.9384,0.2149,-0.0073,-0.2256,1.5710,rough,14.0,2,9.467
7320,234.24,0.7420,4.9384,0.2149,-0.0073,-0.2256,1.5710,rough,14.0,2,9.467
7330,234.56,0.7419,4.9384,0.2149,-0.0073,-0.2256,1.5710,rough,14.0,2,9.467
7340,234.88,0.7419,4.9384,0.2149,-0.0073,-0.2256,1.5710,rough,14.0,2,9.467
7350,235.20,0.7419,4.9384,0.2149,-0.0073,-0.2256,1.5710,rough,14.0,2,9.467
7360,235.52,0.7419,4.9384,0.2149,-0.0073,-0.2256,1.5710,rough,14.0,2,9.467
7370,235.84,0.7419,4.9384,0.2149,-0.0073,-0.2256,1.5710,rough,14.0,2,9.467
7380,236.16,0.7419,4.9384,0.2149,-0.0073,-0.2256,1.5710,rough,14.0,2,9.467
7390,236.48,0.7418,4.9384,0.2149,-0.0073,-0.2256,1.5710,rough,14.0,2,9.467
7400,236.80,0.7418,4.9384,0.2149,-0.0073,-0.2256,1.5710,rough,14.0,2,9.467
7410,237.12,0.7418,4.9384,0.2149,-0.0073,-0.2256,1.5710,rough,14.0,2,9.467
7420,237.44,0.7418,4.9384,0.2149,-0.0073,-0.2256,1.5710,rough,14.0,2,9.467
7430,237.76,0.7418,4.9384,0.2149,-0.0073,-0.2256,1.5710,rough,14.0,2,9.467
7440,238.08,0.7418,4.9384,0.2149,-0.0073,-0.2256,1.5710,rough,14.0,2,9.467
7450,238.40,0.7417,4.9384,0.2149,-0.0073,-0.2256,1.5710,rough,14.0,2,9.467
7460,238.72,0.7417,4.9384,0.2149,-0.0073,-0.2255,1.5710,rough,14.0,2,9.467
7470,239.04,0.7417,4.9384,0.2149,-0.0073,-0.2255,1.5710,rough,14.0,2,9.467
7480,239.36,0.7417,4.9384,0.2149,-0.0073,-0.2255,1.5710,rough,14.0,2,9.467
7490,239.68,0.7417,4.9384,0.2149,-0.0073,-0.2255,1.5710,rough,14.0,2,9.467
7500,240.00,0.7417,4.9384,0.2149,-0.0073,-0.2255,1.5710,rough,14.0,2,9.467
7510,240.32,0.7416,4.9384,0.2149,-0.0073,-0.2255,1.5710,rough,14.0,2,9.467
7520,240.64,0.7416,4.9384,0.2149,-0.0073,-0.2255,1.5710,rough,14.0,2,9.467
7530,240.96,0.7416,4.9384,0.2149,-0.0073,-0.2255,1.5710,rough,14.0,2,9.467
7540,241.28,0.7416,4.9384,0.2149,-0.0073,-0.2255,1.5710,rough,14.0,2,9.467
7550,241.60,0.7416,4.9384,0.2149,-0.0073,-0.2255,1.5710,rough,14.0,2,9.467
7560,241.92,0.7416,4.9384,0.2149,-0.0073,-0.2255,1.5710,rough,14.0,2,9.467
7570,242.24,0.7415,4.9384,0.2149,-0.0073,-0.2255,1.5710,rough,14.0,2,9.467
7580,242.56,0.7415,4.9384,0.2149,-0.0073,-0.2255,1.5710,rough,14.0,2,9.467
7590,242.88,0.7415,4.9384,0.2149,-0.0073,-0.2255,1.5710,rough,14.0,2,9.467
7600,243.20,0.7415,4.9384,0.2149,-0.0073,-0.2255,1.5710,rough,14.0,2,9.467
7610,243.52,0.7415,4.9384,0.2149,-0.0073,-0.2255,1.5710,rough,14.0,2,9.467
7620,243.84,0.7415,4.9384,0.2149,-0.0073,-0.2255,1.5710,rough,14.0,2,9.467
7630,244.16,0.7415,4.9384,0.2149,-0.0073,-0.2255,1.5710,rough,14.0,2,9.467
7640,244.48,0.7414,4.9384,0.2149,-0.0073,-0.2255,1.5710,rough,14.0,2,9.467
7650,244.80,0.7414,4.9384,0.2149,-0.0073,-0.2255,1.5710,rough,14.0,2,9.467
7660,245.12,0.7414,4.9384,0.2149,-0.0073,-0.2255,1.5710,rough,14.0,2,9.467
7670,245.44,0.7414,4.9384,0.2149,-0.0073,-0.2255,1.5710,rough,14.0,2,9.467
7680,245.76,0.7414,4.9384,0.2149,-0.0073,-0.2255,1.5710,rough,14.0,2,9.467
7690,246.08,0.7414,4.9384,0.2149,-0.0073,-0.2255,1.5710,rough,14.0,2,9.467
7700,246.40,0.7413,4.9384,0.2149,-0.0073,-0.2255,1.5710,rough,14.0,2,9.467
7710,246.72,0.7413,4.9384,0.2149,-0.0073,-0.2255,1.5710,rough,14.0,2,9.467
7720,247.04,0.7413,4.9384,0.2149,-0.0073,-0.2255,1.5710,rough,14.0,2,9.467
7730,247.36,0.7413,4.9384,0.2149,-0.0073,-0.2255,1.5710,rough,14.0,2,9.467
7740,247.68,0.7413,4.9384,0.2149,-0.0073,-0.2255,1.5710,rough,14.0,2,9.467
7750,248.00,0.7413,4.9384,0.2148,-0.0073,-0.2255,1.5710,rough,14.0,2,9.467
7760,248.32,0.7412,4.9384,0.2148,-0.0073,-0.2255,1.5710,rough,14.0,2,9.467
7770,248.64,0.7412,4.9384,0.2148,-0.0073,-0.2255,1.5710,rough,14.0,2,9.467
7780,248.96,0.7412,4.9384,0.2148,-0.0073,-0.2255,1.5710,rough,14.0,2,9.467
7790,249.28,0.7412,4.9384,0.2148,-0.0073,-0.2255,1.5710,rough,14.0,2,9.467
7800,249.60,0.7412,4.9384,0.2148,-0.0073,-0.2255,1.5710,rough,14.0,2,9.467
7810,249.92,0.7412,4.9384,0.2148,-0.0073,-0.2255,1.5710,rough,14.0,2,9.467
7820,250.24,0.7412,4.9384,0.2148,-0.0073,-0.2255,1.5710,rough,14.0,2,9.467
7830,250.56,0.7411,4.9384,0.2148,-0.0073,-0.2255,1.5710,rough,14.0,2,9.467
7840,250.88,0.7411,4.9384,0.2148,-0.0073,-0.2255,1.5710,rough,14.0,2,9.467
7850,251.20,0.7411,4.9384,0.2148,-0.0073,-0.2255,1.5710,rough,14.0,2,9.467
7860,251.52,0.7411,4.9384,0.2148,-0.0073,-0.2254,1.5710,rough,14.0,2,9.467
7870,251.84,0.7411,4.9384,0.2148,-0.0073,-0.2254,1.5710,rough,14.0,2,9.467
7880,252.16,0.7411,4.9384,0.2148,-0.0073,-0.2254,1.5710,rough,14.0,2,9.467
7890,252.48,0.7410,4.9384,0.2148,-0.0073,-0.2254,1.5710,rough,14.0,2,9.467
7900,252.80,0.7410,4.9384,0.2148,-0.0073,-0.2254,1.5710,rough,14.0,2,9.467
7910,253.12,0.7410,4.9384,0.2148,-0.0073,-0.2254,1.5710,rough,14.0,2,9.467
7920,253.44,0.7410,4.9384,0.2148,-0.0073,-0.2254,1.5710,rough,14.0,2,9.467
7930,253.76,0.7410,4.9384,0.2148,-0.0073,-0.2254,1.5710,rough,14.0,2,9.467
7940,254.08,0.7410,4.9384,0.2148,-0.0073,-0.2254,1.5710,rough,14.0,2,9.467
7950,254.40,0.7410,4.9384,0.2148,-0.0073,-0.2254,1.5710,rough,14.0,2,9.467
7960,254.72,0.7409,4.9384,0.2148,-0.0073,-0.2254,1.5710,rough,14.0,2,9.467
7970,255.04,0.7409,4.9384,0.2148,-0.0073,-0.2254,1.5710,rough,14.0,2,9.467
7980,255.36,0.7409,4.9384,0.2148,-0.0073,-0.2254,1.5710,rough,14.0,2,9.467
7990,255.68,0.7409,4.9384,0.2148,-0.0073,-0.2254,1.5710,rough,14.0,2,9.467
8000,256.00,0.7409,4.9384,0.2148,-0.0073,-0.2254,1.5710,rough,14.0,2,9.467
8010,256.32,0.7409,4.9384,0.2148,-0.0073,-0.2254,1.5710,rough,14.0,2,9.468
8020,256.64,0.7408,4.9384,0.2148,-0.0073,-0.2254,1.5710,rough,14.0,2,9.468
8030,256.96,0.7408,4.9384,0.2148,-0.0073,-0.2254,1.5710,rough,14.0,2,9.468
8040,257.28,0.7408,4.9384,0.2148,-0.0073,-0.2254,1.5710,rough,14.0,2,9.468
