step,time_s,x,y,z,roll,pitch,yaw,terrain,speed,target_idx,dist_to_target
10,0.32,-0.1084,1.4507,0.1838,0.0002,-0.0176,0.0050,rough,14.0,0,4.153
20,0.64,0.1616,1.4494,0.1795,-0.0008,0.0011,0.3071,rough,14.0,0,4.231
30,0.96,0.4415,1.5512,0.1798,-0.0000,0.0003,0.5925,rough,14.0,0,4.234
40,1.28,0.7016,1.7620,0.1799,-0.0001,-0.0002,0.8109,rough,14.0,0,4.151
50,1.60,0.9225,2.0403,0.1798,0.0000,-0.0003,1.0216,rough,14.0,0,4.016
60,1.92,1.0943,2.3776,0.1799,0.0001,0.0001,1.1964,rough,14.0,0,3.833
70,2.24,1.2225,2.7472,0.1799,-0.0000,0.0001,1.4200,rough,14.0,0,3.625
80,2.56,1.2740,3.1464,0.1799,0.0000,-0.0000,1.6329,rough,14.0,0,3.374
90,2.88,1.2397,3.5531,0.1799,-0.0004,-0.0000,1.8136,rough,14.0,0,3.082
100,3.20,1.1280,3.9622,0.1799,0.0001,0.0000,1.9097,rough,14.0,0,2.753
110,3.52,0.9803,4.3660,0.1810,-0.0006,-0.0076,1.9857,rough,14.0,0,2.422
120,3.84,0.8046,4.7141,0.1970,-0.0256,-0.1049,2.1009,rough,14.0,0,2.121
130,4.16,0.6396,4.8463,0.2055,-0.0474,-0.1058,1.8401,rough,14.0,0,1.921
140,4.48,0.6149,4.8820,0.2708,-0.0203,-0.7707,1.6541,rough,14.0,0,1.886
150,4.80,0.6050,4.9513,0.2946,-2.9716,-1.4917,-1.7573,rough,14.0,0,1.857
160,5.12,0.3780,4.9781,0.1876,2.8866,-0.7169,-2.6369,rough,14.0,0,1.631
170,5.44,0.0485,4.9570,0.0876,-3.0646,0.0946,-3.0873,rough,14.0,0,1.328
180,5.76,-0.1853,4.9688,0.0406,3.0627,0.0482,-2.8647,rough,14.0,0,1.110
190,6.08,-0.2506,4.9803,0.0407,3.0681,0.0416,-2.6435,rough,14.0,0,1.047
200,6.40,-0.3154,4.9363,0.0380,3.0886,0.0488,-2.5870,rough,14.0,0,1.012
210,6.72,-0.3333,4.8630,0.0344,3.0914,0.0288,-2.6279,rough,14.0,0,1.037
220,7.04,-0.3248,4.7687,0.0300,3.1125,0.0281,-2.4965,rough,14.0,0,1.101
230,7.36,-0.3222,4.6693,0.0252,3.1205,0.0082,-2.4465,rough,14.0,0,1.168
240,7.68,-0.3243,4.5632,0.0207,3.1400,0.0035,-2.2566,rough,14.0,0,1.241
250,8.00,-0.3288,4.5199,0.0198,3.1411,-0.0024,-2.3523,rough,14.0,0,1.270
260,8.32,-0.3287,4.5101,0.0200,3.1415,-0.0007,-2.3185,rough,14.0,0,1.277
270,8.64,-0.3288,4.5003,0.0201,3.1415,-0.0003,-2.3211,rough,14.0,0,1.285
280,8.96,-0.3288,4.4904,0.0201,3.1416,-0.0001,-2.2976,rough,14.0,0,1.292
290,9.28,-0.3288,4.4805,0.0200,3.1416,-0.0001,-2.2809,rough,14.0,0,1.299
300,9.60,-0.3288,4.4707,0.0201,3.1416,-0.0000,-2.2927,rough,14.0,0,1.307
310,9.92,-0.3288,4.4608,0.0201,3.1416,-0.0000,-2.3029,rough,14.0,0,1.314
320,10.24,-0.3288,4.4509,0.0201,3.1416,-0.0000,-2.2848,rough,14.0,0,1.322
330,10.56,-0.3288,4.4411,0.0200,3.1416,-0.0000,-2.2659,rough,14.0,0,1.330
340,10.88,-0.3288,4.4312,0.0200,-3.1416,-0.0000,-2.2560,rough,14.0,0,1.337
350,11.20,-0.3288,4.4213,0.0201,-3.1416,-0.0000,-2.2747,rough,14.0,0,1.345
360,11.52,-0.3288,4.4115,0.0201,-3.1416,-0.0000,-2.2716,rough,14.0,0,1.352
370,11.84,-0.3288,4.4016,0.0200,-3.1416,0.0000,-2.2678,rough,14.0,0,1.360
380,12.16,-0.3288,4.3917,0.0201,-3.1416,0.0000,-2.3105,rough,14.0,0,1.368
390,12.48,-0.3288,4.3818,0.0201,-3.1416,0.0000,-2.1869,rough,14.0,0,1.376
400,12.80,-0.3288,4.3720,0.0202,-3.1416,0.0000,-2.2367,rough,14.0,0,1.383
410,13.12,-0.3288,4.3621,0.0202,-3.1416,0.0000,-2.2740,rough,14.0,0,1.391
420,13.44,-0.3288,4.3522,0.0202,-3.1416,0.0000,-2.1668,rough,14.0,0,1.399
430,13.76,-0.3288,4.3424,0.0202,-3.1416,0.0000,-2.2233,rough,14.0,0,1.407
440,14.08,-0.3288,4.3325,0.0202,-3.1416,0.0000,-2.2628,rough,14.0,0,1.415
450,14.40,-0.3288,4.3226,0.0202,-3.1416,0.0000,-2.1616,rough,14.0,0,1.423
460,14.72,-0.3288,4.3128,0.0202,-3.1416,0.0000,-2.2185,rough,14.0,0,1.430
470,15.04,-0.3288,4.3029,0.0202,-3.1416,0.0000,-2.2662,rough,14.0,0,1.438
480,15.36,-0.3288,4.2930,0.0202,-3.1416,0.0000,-2.1635,rough,14.0,0,1.446
490,15.68,-0.3288,4.2832,0.0202,-3.1416,0.0000,-2.2207,rough,14.0,0,1.454
500,16.00,-0.3288,4.2733,0.0202,-3.1416,0.0000,-2.1322,rough,14.0,0,1.462
510,16.32,-0.3288,4.2634,0.0202,-3.1416,0.0000,-2.1856,rough,14.0,0,1.470
520,16.64,-0.3288,4.2535,0.0202,-3.1416,0.0000,-2.2304,rough,14.0,0,1.478
530,16.96,-0.3288,4.2437,0.0202,-3.1416,0.0000,-2.1402,rough,14.0,0,1.487
540,17.28,-0.3288,4.2338,0.0202,-3.1416,0.0000,-2.1946,rough,14.0,0,1.495
550,17.60,-0.3288,4.2239,0.0202,-3.1416,0.0000,-2.1106,rough,14.0,0,1.503
560,17.92,-0.3288,4.2140,0.0202,-3.1416,0.0000,-2.1488,rough,14.0,0,1.511
570,18.24,-0.3288,4.2042,0.0202,-3.1416,0.0000,-2.2047,rough,14.0,0,1.519
580,18.56,-0.3288,4.1943,0.0202,-3.1416,0.0000,-2.1189,rough,14.0,0,1.527
590,18.88,-0.3288,4.1844,0.0202,-3.1416,0.0000,-2.1708,rough,14.0,0,1.536
600,19.20,-0.3288,4.1746,0.0201,-3.1416,0.0000,-2.0909,rough,14.0,0,1.544
610,19.52,-0.3288,4.1647,0.0201,-3.1416,0.0000,-2.1277,rough,14.0,0,1.552
620,19.84,-0.3288,4.1548,0.0201,-3.1416,0.0000,-2.1809,rough,14.0,0,1.560
630,20.16,-0.3288,4.1449,0.0201,-3.1416,0.0000,-2.0991,rough,14.0,0,1.569
640,20.48,-0.3288,4.1351,0.0201,-3.1416,0.0000,-2.1489,rough,14.0,0,1.577
650,20.80,-0.3288,4.1252,0.0201,-3.1416,0.0000,-2.1912,rough,14.0,0,1.585
660,21.12,-0.3288,4.1153,0.0201,-3.1416,0.0000,-2.1080,rough,14.0,0,1.594
670,21.44,-0.3288,4.1054,0.0201,-3.1416,0.0000,-2.1589,rough,14.0,0,1.602
680,21.76,-0.3288,4.0956,0.0201,-3.1416,0.0000,-2.0810,rough,14.0,0,1.610
690,22.08,-0.3288,4.0857,0.0201,-3.1416,0.0000,-2.1287,rough,14.0,0,1.619
700,22.40,-0.3288,4.0758,0.0200,-3.1416,0.0000,-2.1698,rough,14.0,0,1.627
710,22.72,-0.3288,4.0659,0.0201,-3.1416,0.0000,-2.0900,rough,14.0,0,1.635
720,23.04,-0.3288,4.0561,0.0201,-3.1416,0.0000,-2.1387,rough,14.0,0,1.644
730,23.36,-0.3288,4.0462,0.0201,-3.1416,0.0000,-2.0644,rough,14.0,0,1.652
740,23.68,-0.3288,4.0363,0.0200,-3.1416,0.0000,-2.1102,rough,14.0,0,1.661
750,24.00,-0.3288,4.0266,0.0200,-3.1416,-0.0000,-2.1446,rough,14.0,0,1.669
760,24.32,-0.3288,4.0179,0.0200,-3.1416,-0.0000,-2.0532,rough,14.0,0,1.677
770,24.64,-0.3288,4.0106,0.0200,-3.1415,-0.0001,-2.0631,rough,14.0,0,1.683
780,24.96,-0.3287,4.0046,0.0200,-3.1414,-0.0002,-2.0895,rough,14.0,0,1.688
790,25.28,-0.3287,4.0001,0.0200,-3.1414,-0.0002,-2.1047,rough,14.0,0,1.692
800,25.60,-0.3287,3.9969,0.0200,-3.1414,-0.0003,-2.1204,rough,14.0,0,1.695
810,25.92,-0.3287,3.9952,0.0200,-3.1414,-0.0003,-2.1359,rough,14.0,0,1.696
820,26.24,-0.3287,3.9949,0.0200,-3.1414,-0.0002,-2.0469,rough,14.0,0,1.697
830,26.56,-0.3287,3.9961,0.0200,-3.1414,-0.0002,-2.0610,rough,14.0,0,1.696
840,26.88,-0.3286,3.9986,0.0200,-3.1414,-0.0002,-2.0902,rough,14.0,0,1.693
850,27.20,-0.3286,4.0026,0.0200,-3.1414,-0.0002,-2.1056,rough,14.0,0,1.690
860,27.52,-0.3286,4.0080,0.0200,-3.1414,-0.0002,-2.1209,rough,14.0,0,1.685
870,27.84,-0.3285,4.0147,0.0200,-3.1415,-0.0001,-2.1356,rough,14.0,0,1.680
880,28.16,-0.3286,4.0227,0.0200,-3.1416,0.0000,-2.0422,rough,14.0,0,1.673
890,28.48,-0.3286,4.0318,0.0200,-3.1416,-0.0000,-2.0657,rough,14.0,0,1.665
900,28.80,-0.3286,4.0413,0.0200,-3.1416,-0.0000,-2.1122,rough,14.0,0,1.657
910,29.12,-0.3286,4.0508,0.0200,-3.1416,0.0000,-2.1526,rough,14.0,0,1.649
920,29.44,-0.3286,4.0602,0.0200,-3.1416,0.0000,-2.0757,rough,14.0,0,1.640
930,29.76,-0.3286,4.0697,0.0200,-3.1416,0.0000,-2.1229,rough,14.0,0,1.632
940,30.08,-0.3286,4.0792,0.0200,-3.1416,0.0000,-2.1638,rough,14.0,0,1.624
950,30.40,-0.3286,4.0886,0.0200,-3.1416,0.0000,-2.0850,rough,14.0,0,1.616
960,30.72,-0.3286,4.0981,0.0200,-3.1416,0.0000,-2.1332,rough,14.0,0,1.608
970,31.04,-0.3286,4.1075,0.0200,-3.1416,0.0000,-2.1748,rough,14.0,0,1.600
980,31.36,-0.3286,4.1170,0.0201,-3.1416,0.0000,-2.0941,rough,14.0,0,1.592
990,31.68,-0.3286,4.1265,0.0201,-3.1416,0.0000,-2.1433,rough,14.0,0,1.584
1000,32.00,-0.3286,4.1359,0.0201,-3.1416,0.0000,-2.1856,rough,14.0,0,1.576
1010,32.32,-0.3286,4.1454,0.0201,-3.1416,0.0000,-2.1031,rough,14.0,0,1.568
1020,32.64,-0.3286,4.1549,0.0201,-3.1416,0.0000,-2.1533,rough,14.0,0,1.560
1030,32.96,-0.3286,4.1643,0.0201,-3.1416,0.0000,-2.1963,rough,14.0,0,1.552
1040,33.28,-0.3286,4.1738,0.0201,-3.1416,0.0000,-2.1120,rough,14.0,0,1.544
1050,33.60,-0.3286,4.1833,0.0201,-3.1416,0.0000,-2.1632,rough,14.0,0,1.537
1060,33.92,-0.3286,4.1927,0.0201,-3.1416,0.0000,-2.2069,rough,14.0,0,1.529
1070,34.24,-0.3286,4.2022,0.0201,-3.1416,0.0000,-2.1208,rough,14.0,0,1.521
1080,34.56,-0.3286,4.2116,0.0201,-3.1416,0.0000,-2.1730,rough,14.0,0,1.513
1090,34.88,-0.3286,4.2211,0.0201,-3.1416,0.0000,-2.2175,rough,14.0,0,1.505
1100,35.20,-0.3286,4.2306,0.0202,-3.1416,0.0000,-2.1295,rough,14.0,0,1.497
1110,35.52,-0.3286,4.2400,0.0202,-3.1416,0.0000,-2.1827,rough,14.0,0,1.490
1120,35.84,-0.3286,4.2495,0.0202,-3.1416,0.0000,-2.2280,rough,14.0,0,1.482
1130,36.16,-0.3286,4.2589,0.0202,-3.1416,0.0000,-2.1382,rough,14.0,0,1.474
1140,36.48,-0.3286,4.2684,0.0202,-3.1416,0.0000,-2.1925,rough,14.0,0,1.466
1150,36.80,-0.3286,4.2779,0.0202,-3.1416,0.0000,-2.2379,rough,14.0,0,1.459
1160,37.12,-0.3286,4.2873,0.0202,-3.1416,0.0000,-2.1465,rough,14.0,0,1.451
1170,37.44,-0.3286,4.2968,0.0202,-3.1416,0.0000,-2.2017,rough,14.0,0,1.443
1180,37.76,-0.3286,4.3062,0.0200,-3.1416,0.0000,-2.2762,rough,14.0,0,1.436
1190,38.08,-0.3286,4.3157,0.0200,-3.1416,0.0000,-2.1922,rough,14.0,0,1.428
1200,38.40,-0.3286,4.3252,0.0201,-3.1416,0.0000,-2.2428,rough,14.0,0,1.421
1210,38.72,-0.3286,4.3346,0.0201,-3.1416,0.0000,-2.1461,rough,14.0,0,1.413
1220,39.04,-0.3286,4.3441,0.0201,-3.1416,0.0000,-2.1825,rough,14.0,0,1.406
1230,39.36,-0.3286,4.3535,0.0201,-3.1416,0.0000,-2.2375,rough,14.0,0,1.398
1240,39.68,-0.3286,4.3630,0.0201,-3.1416,0.0000,-2.2778,rough,14.0,0,1.391
1250,40.00,-0.3286,4.3725,0.0201,-3.1416,0.0000,-2.1659,rough,14.0,0,1.383
1260,40.32,-0.3286,4.3819,0.0201,-3.1416,0.0000,-2.1746,rough,14.0,0,1.376
1270,40.64,-0.3286,4.3914,0.0201,-3.1416,0.0000,-2.1986,rough,14.0,0,1.368
1280,40.96,-0.3286,4.4008,0.0201,-3.1416,0.0000,-2.2454,rough,14.0,0,1.361
1290,41.28,-0.3286,4.4103,0.0201,-3.1416,0.0000,-2.2447,rough,14.0,0,1.353
1300,41.60,-0.3286,4.4197,0.0200,-3.1416,0.0000,-2.2323,rough,14.0,0,1.346
1310,41.92,-0.3286,4.4292,0.0201,-3.1416,0.0000,-2.2629,rough,14.0,0,1.339
1320,42.24,-0.3286,4.4387,0.0201,-3.1416,0.0000,-2.2797,rough,14.0,0,1.331
1330,42.56,-0.3286,4.4481,0.0201,-3.1416,0.0000,-2.2651,rough,14.0,0,1.324
1340,42.88,-0.3286,4.4576,0.0199,-3.1416,0.0000,-2.2004,rough,14.0,0,1.317
1350,43.20,-0.3286,4.4670,0.0200,-3.1416,0.0000,-2.3648,rough,14.0,0,1.310
1360,43.52,-0.3286,4.4765,0.0200,-3.1416,0.0000,-2.2844,rough,14.0,0,1.303
1370,43.84,-0.3286,4.4860,0.0200,-3.1416,0.0000,-2.3014,rough,14.0,0,1.295
1380,44.16,-0.3286,4.4954,0.0200,-3.1416,0.0000,-2.2826,rough,14.0,0,1.288
1390,44.48,-0.3286,4.5049,0.0199,-3.1416,0.0000,-2.2252,rough,14.0,0,1.281
1400,44.80,-0.3286,4.5143,0.0200,-3.1416,0.0000,-2.3924,rough,14.0,0,1.274
1410,45.12,-0.3286,4.5238,0.0200,-3.1416,0.0000,-2.3072,rough,14.0,0,1.267
1420,45.44,-0.3286,4.5322,0.0199,-3.1416,0.0000,-2.2786,rough,14.0,0,1.261
1430,45.76,-0.3286,4.5406,0.0200,-3.1416,0.0000,-2.2507,rough,14.0,0,1.255
1440,46.08,-0.3286,4.5468,0.0200,-3.1416,-0.0000,-2.4159,rough,14.0,0,1.250
1450,46.40,-0.3286,4.5513,0.0200,-3.1416,-0.0000,-2.3478,rough,14.0,0,1.247
1460,46.72,-0.3289,4.5548,0.0200,3.1415,0.0002,-2.3158,rough,14.0,0,1.244
1470,47.04,-0.3302,4.5515,0.0200,3.1412,0.0004,-2.2620,rough,14.0,0,1.246
1480,47.36,-0.3302,4.5495,0.0200,3.1415,0.0001,-2.3809,rough,14.0,0,1.247
1490,47.68,-0.3302,4.5484,0.0201,3.1415,0.0001,-2.4022,rough,14.0,0,1.248
1500,48.00,-0.3302,4.5472,0.0200,3.1416,0.0000,-2.3138,rough,14.0,0,1.249
1510,48.32,-0.3302,4.5461,0.0199,3.1416,0.0000,-2.2603,rough,14.0,0,1.250
1520,48.64,-0.3302,4.5449,0.0200,3.1416,0.0000,-2.2519,rough,14.0,0,1.250
1530,48.96,-0.3302,4.5438,0.0200,3.1416,0.0000,-2.3790,rough,14.0,0,1.251
1540,49.28,-0.3302,4.5426,0.0201,-3.1416,0.0000,-2.4078,rough,14.0,0,1.252
1550,49.60,-0.3302,4.5415,0.0200,-3.1416,0.0000,-2.3185,rough,14.0,0,1.253
1560,49.92,-0.3302,4.5404,0.0200,-3.1416,0.0000,-2.3134,rough,14.0,0,1.254
1570,50.24,-0.3302,4.5392,0.0200,-3.1416,0.0000,-2.2797,rough,14.0,0,1.255
1580,50.56,-0.3302,4.5381,0.0200,-3.1416,0.0000,-2.2494,rough,14.0,0,1.256
1590,50.88,-0.3302,4.5369,0.0200,-3.1416,0.0000,-2.3781,rough,14.0,0,1.256
1600,51.20,-0.3302,4.5358,0.0201,-3.1416,0.0000,-2.4087,rough,14.0,0,1.257
1610,51.52,-0.3302,4.5346,0.0200,-3.1416,0.0000,-2.3414,rough,14.0,0,1.258
1620,51.84,-0.3302,4.5335,0.0200,-3.1416,0.0000,-2.3126,rough,14.0,0,1.259
1630,52.16,-0.3302,4.5323,0.0200,-3.1416,0.0000,-2.3086,rough,14.0,0,1.260
1640,52.48,-0.3302,4.5312,0.0200,-3.1416,0.0000,-2.2764,rough,14.0,0,1.261
1650,52.80,-0.3302,4.5301,0.0200,-3.1416,0.0000,-2.2472,rough,14.0,0,1.261
1660,53.12,-0.3302,4.5289,0.0200,-3.1416,0.0000,-2.2434,rough,14.0,0,1.262
1670,53.44,-0.3302,4.5278,0.0200,-3.1416,0.0000,-2.3723,rough,14.0,0,1.263
1680,53.76,-0.3302,4.5266,0.0200,-3.1416,0.0000,-2.3681,rough,14.0,0,1.264
1690,54.08,-0.3302,4.5255,0.0201,-3.1416,0.0000,-2.3948,rough,14.0,0,1.265
1700,54.40,-0.3302,4.5243,0.0200,-3.1416,0.0000,-2.3079,rough,14.0,0,1.266
1710,54.72,-0.3302,4.5232,0.0200,-3.1416,0.0000,-2.3093,rough,14.0,0,1.266
1720,55.04,-0.3302,4.5221,0.0201,-3.1416,0.0000,-2.3014,rough,14.0,0,1.267
1730,55.36,-0.3302,4.5209,0.0200,-3.1416,0.0000,-2.2438,rough,14.0,0,1.268
1740,55.68,-0.3302,4.5198,0.0200,-3.1416,0.0000,-2.2453,rough,14.0,0,1.269
1750,56.00,-0.3302,4.5186,0.0200,-3.1416,0.0000,-2.2358,rough,14.0,0,1.270
1760,56.32,-0.3302,4.5175,0.0201,-3.1416,0.0000,-2.3661,rough,14.0,0,1.271
1770,56.64,-0.3302,4.5163,0.0201,-3.1416,0.0000,-2.3638,rough,14.0,0,1.272
1780,56.96,-0.3302,4.5152,0.0201,-3.1416,0.0000,-2.3922,rough,14.0,0,1.272
1790,57.28,-0.3302,4.5140,0.0200,-3.1416,0.0000,-2.3057,rough,14.0,0,1.273
1800,57.60,-0.3302,4.5129,0.0200,-3.1416,0.0000,-2.3085,rough,14.0,0,1.274
1810,57.92,-0.3302,4.5118,0.0201,-3.1416,0.0000,-2.3010,rough,14.0,0,1.275
1820,58.24,-0.3302,4.5106,0.0201,-3.1416,0.0000,-2.2971,rough,14.0,0,1.276
1830,58.56,-0.3302,4.5095,0.0200,-3.1416,0.0000,-2.2659,rough,14.0,0,1.277
1840,58.88,-0.3302,4.5083,0.0200,-3.1416,0.0000,-2.2636,rough,14.0,0,1.278
1850,59.20,-0.3302,4.5072,0.0200,-3.1416,0.0000,-2.2347,rough,14.0,0,1.278
1860,59.52,-0.3302,4.5060,0.0200,-3.1416,0.0000,-2.2346,rough,14.0,0,1.279
1870,59.84,-0.3302,4.5049,0.0201,-3.1416,0.0000,-2.2306,rough,14.0,0,1.280
1880,60.16,-0.3302,4.5037,0.0201,-3.1416,0.0000,-2.2283,rough,14.0,0,1.281
1890,60.48,-0.3302,4.5026,0.0201,-3.1416,0.0000,-2.3604,rough,14.0,0,1.282
1900,60.80,-0.3302,4.5014,0.0201,-3.1416,0.0000,-2.3604,rough,14.0,0,1.283
1910,61.12,-0.3302,4.5003,0.0201,-3.1416,0.0000,-2.3577,rough,14.0,0,1.284
1920,61.44,-0.3302,4.4992,0.0201,-3.1416,0.0000,-2.3562,rough,14.0,0,1.284
1930,61.76,-0.3302,4.4980,0.0201,-3.1416,0.0000,-2.3554,rough,14.0,0,1.285
1940,62.08,-0.3302,4.4969,0.0201,-3.1416,0.0000,-2.3550,rough,14.0,0,1.286
1950,62.40,-0.3302,4.4957,0.0201,-3.1416,0.0000,-2.3547,rough,14.0,0,1.287
1960,62.72,-0.3302,4.4946,0.0201,-3.1416,0.0000,-2.3546,rough,14.0,0,1.288
1970,63.04,-0.3302,4.4934,0.0201,-3.1416,0.0000,-2.3546,rough,14.0,0,1.289
1980,63.36,-0.3302,4.4923,0.0201,-3.1416,0.0000,-2.3545,rough,14.0,0,1.290
1990,63.68,-0.3302,4.4911,0.0201,-3.1416,0.0000,-2.3545,rough,14.0,0,1.290
2000,64.00,-0.3302,4.4900,0.0201,-3.1416,0.0000,-2.3545,rough,14.0,0,1.291
2010,64.32,-0.3302,4.4888,0.0201,-3.1416,0.0000,-2.3545,rough,14.0,0,1.292
2020,64.64,-0.3302,4.4877,0.0201,-3.1416,0.0000,-2.3545,rough,14.0,0,1.293
2030,64.96,-0.3302,4.4865,0.0201,-3.1416,0.0000,-2.3545,rough,14.0,0,1.294
2040,65.28,-0.3302,4.4854,0.0201,-3.1416,0.0000,-2.3545,rough,14.0,0,1.295
2050,65.60,-0.3302,4.4843,0.0201,-3.1416,0.0000,-2.3545,rough,14.0,0,1.296
2060,65.92,-0.3302,4.4831,0.0201,-3.1416,0.0000,-2.3545,rough,14.0,0,1.297
2070,66.24,-0.3302,4.4820,0.0201,-3.1416,0.0000,-2.2026,rough,14.0,0,1.297
2080,66.56,-0.3302,4.4808,0.0201,-3.1416,0.0000,-2.3670,rough,14.0,0,1.298
2090,66.88,-0.3302,4.4797,0.0200,-3.1416,0.0000,-2.2858,rough,14.0,0,1.299
2100,67.20,-0.3302,4.4785,0.0200,-3.1416,0.0000,-2.3017,rough,14.0,0,1.300
2110,67.52,-0.3302,4.4774,0.0200,-3.1416,0.0000,-2.2828,rough,14.0,0,1.301
2120,67.84,-0.3302,4.4762,0.0200,-3.1416,0.0000,-2.2955,rough,14.0,0,1.302
2130,68.16,-0.3302,4.4751,0.0201,-3.1416,0.0000,-2.2780,rough,14.0,0,1.303
2140,68.48,-0.3302,4.4739,0.0199,3.1416,-0.0000,-2.2583,rough,14.0,0,1.303
2150,68.80,-0.3302,4.4728,0.0200,3.1416,-0.0000,-2.2783,rough,14.0,0,1.304
2160,69.12,-0.3302,4.4716,0.0200,3.1416,-0.0000,-2.2545,rough,14.0,0,1.305
2170,69.44,-0.3302,4.4705,0.0201,-3.1416,0.0000,-2.2744,rough,14.0,0,1.306
2180,69.76,-0.3302,4.4693,0.0199,-3.1416,0.0000,-2.2135,rough,14.0,0,1.307
2190,70.08,-0.3302,4.4682,0.0200,-3.1416,0.0000,-2.2336,rough,14.0,0,1.308
2200,70.40,-0.3302,4.4670,0.0200,-3.1416,0.0000,-2.2474,rough,14.0,0,1.309
2210,70.72,-0.3302,4.4659,0.0201,-3.1416,0.0000,-2.2684,rough,14.0,0,1.310
2220,71.04,-0.3302,4.4647,0.0200,-3.1416,0.0000,-2.2024,rough,14.0,0,1.310
2230,71.36,-0.3302,4.4636,0.0200,-3.1416,0.0000,-2.3438,rough,14.0,0,1.311
2240,71.68,-0.3302,4.4624,0.0200,-3.1416,0.0000,-2.2074,rough,14.0,0,1.312
2250,72.00,-0.3302,4.4613,0.0201,-3.1416,0.0000,-2.2180,rough,14.0,0,1.313
2260,72.32,-0.3302,4.4601,0.0200,-3.1416,0.0000,-2.2005,rough,14.0,0,1.314
2270,72.64,-0.3302,4.4590,0.0200,-3.1416,0.0000,-2.3608,rough,14.0,0,1.315
2280,72.96,-0.3302,4.4578,0.0200,-3.1416,0.0000,-2.3197,rough,14.0,0,1.316
2290,73.28,-0.3302,4.4567,0.0201,-3.1416,0.0000,-2.3394,rough,14.0,0,1.317
2300,73.60,-0.3302,4.4555,0.0201,-3.1416,0.0000,-2.1960,rough,14.0,0,1.317
2310,73.92,-0.3302,4.4544,0.0201,-3.1416,0.0000,-2.3571,rough,14.0,0,1.318
2320,74.24,-0.3302,4.4532,0.0200,-3.1416,0.0000,-2.2738,rough,14.0,0,1.319
2330,74.56,-0.3302,4.4521,0.0200,-3.1416,0.0000,-2.2938,rough,14.0,0,1.320
2340,74.88,-0.3302,4.4509,0.0201,-3.1416,0.0000,-2.3089,rough,14.0,0,1.321
2350,75.20,-0.3302,4.4498,0.0202,-3.1416,0.0000,-2.3563,rough,14.0,0,1.322
2360,75.52,-0.3302,4.4487,0.0200,-3.1416,0.0000,-2.2693,rough,14.0,0,1.323
2370,75.84,-0.3302,4.4475,0.0200,-3.1416,0.0000,-2.2872,rough,14.0,0,1.324
2380,76.16,-0.3302,4.4464,0.0201,-3.1416,0.0000,-2.3058,rough,14.0,0,1.324
2390,76.48,-0.3302,4.4452,0.0202,-3.1416,0.0000,-2.3549,rough,14.0,0,1.325
2400,76.80,-0.3302,4.4441,0.0200,-3.1416,0.0000,-2.2680,rough,14.0,0,1.326
2410,77.12,-0.3302,4.4429,0.0200,-3.1416,0.0000,-2.2855,rough,14.0,0,1.327
2420,77.44,-0.3302,4.4418,0.0201,-3.1416,0.0000,-2.3050,rough,14.0,0,1.328
2430,77.76,-0.3302,4.4406,0.0201,-3.1416,0.0000,-2.3305,rough,14.0,0,1.329
2440,78.08,-0.3302,4.4395,0.0201,-3.1416,0.0000,-2.1917,rough,14.0,0,1.330
2450,78.40,-0.3302,4.4383,0.0201,-3.1416,0.0000,-2.3300,rough,14.0,0,1.331
2460,78.72,-0.3302,4.4371,0.0201,-3.1416,0.0000,-2.1920,rough,14.0,0,1.332
2470,79.04,-0.3302,4.4360,0.0201,-3.1416,0.0000,-2.2106,rough,14.0,0,1.332
2480,79.36,-0.3302,4.4348,0.0201,-3.1416,0.0000,-2.2354,rough,14.0,0,1.333
2490,79.68,-0.3302,4.4337,0.0201,-3.1416,0.0000,-2.2629,rough,14.0,0,1.334
2500,80.00,-0.3302,4.4325,0.0201,-3.1416,0.0000,-2.2791,rough,14.0,0,1.335
2510,80.32,-0.3302,4.4314,0.0201,-3.1416,0.0000,-2.3009,rough,14.0,0,1.336
2520,80.64,-0.3302,4.4302,0.0202,-3.1416,0.0000,-2.3283,rough,14.0,0,1.337
2530,80.96,-0.3302,4.4291,0.0201,-3.1416,0.0000,-2.1905,rough,14.0,0,1.338
2540,81.28,-0.3302,4.4279,0.0201,-3.1416,0.0000,-2.2093,rough,14.0,0,1.339
2550,81.60,-0.3302,4.4268,0.0201,-3.1416,0.0000,-2.2345,rough,14.0,0,1.340
2560,81.92,-0.3302,4.4256,0.0201,-3.1416,0.0000,-2.2625,rough,14.0,0,1.340
2570,82.24,-0.3302,4.4245,0.0201,-3.1416,0.0000,-2.2788,rough,14.0,0,1.341
2580,82.56,-0.3302,4.4233,0.0202,-3.1416,0.0000,-2.3426,rough,14.0,0,1.342
2590,82.88,-0.3302,4.4222,0.0201,-3.1416,0.0000,-2.2985,rough,14.0,0,1.343
2600,83.20,-0.3302,4.4210,0.0201,-3.1416,0.0000,-2.1759,rough,14.0,0,1.344
2610,83.52,-0.3302,4.4199,0.0201,-3.1416,0.0000,-2.3237,rough,14.0,0,1.345
2620,83.84,-0.3302,4.4187,0.0201,-3.1416,0.0000,-2.1893,rough,14.0,0,1.346
2630,84.16,-0.3302,4.4176,0.0200,-3.1416,0.0000,-2.1878,rough,14.0,0,1.347
2640,84.48,-0.3302,4.4164,0.0200,-3.1416,0.0000,-2.2074,rough,14.0,0,1.348
2650,84.80,-0.3302,4.4153,0.0201,-3.1416,0.0000,-2.2495,rough,14.0,0,1.348
2660,85.12,-0.3302,4.4141,0.0200,-3.1416,0.0000,-2.2314,rough,14.0,0,1.349
2670,85.44,-0.3302,4.4130,0.0201,-3.1416,0.0000,-2.2612,rough,14.0,0,1.350
2680,85.76,-0.3302,4.4118,0.0201,-3.1416,0.0000,-2.2572,rough,14.0,0,1.351
2690,86.08,-0.3302,4.4107,0.0200,-3.1416,0.0000,-2.2556,rough,14.0,0,1.352
2700,86.40,-0.3302,4.4095,0.0200,-3.1416,0.0000,-2.2548,rough,14.0,0,1.353
2710,86.72,-0.3302,4.4084,0.0200,-3.1416,0.0000,-2.2540,rough,14.0,0,1.354
2720,87.04,-0.3302,4.4072,0.0200,-3.1416,0.0000,-2.2535,rough,14.0,0,1.355
2730,87.36,-0.3302,4.4060,0.0200,-3.1416,0.0000,-2.2533,rough,14.0,0,1.356
2740,87.68,-0.3302,4.4049,0.0200,-3.1416,0.0000,-2.2531,rough,14.0,0,1.357
2750,88.00,-0.3302,4.4037,0.0200,-3.1416,0.0000,-2.2531,rough,14.0,0,1.357
2760,88.32,-0.3302,4.4026,0.0200,-3.1416,0.0000,-2.2531,rough,14.0,0,1.358
2770,88.64,-0.3302,4.4014,0.0200,-3.1416,0.0000,-2.2531,rough,14.0,0,1.359
2780,88.96,-0.3302,4.4003,0.0200,-3.1416,0.0000,-2.2531,rough,14.0,0,1.360
2790,89.28,-0.3302,4.3991,0.0200,-3.1416,0.0000,-2.2531,rough,14.0,0,1.361
2800,89.60,-0.3302,4.3980,0.0200,-3.1416,0.0000,-2.2531,rough,14.0,0,1.362
2810,89.92,-0.3302,4.3968,0.0200,-3.1416,0.0000,-2.2531,rough,14.0,0,1.363
2820,90.24,-0.3302,4.3957,0.0200,-3.1416,0.0000,-2.2531,rough,14.0,0,1.364
2830,90.56,-0.3302,4.3945,0.0200,-3.1416,0.0000,-2.2960,rough,14.0,0,1.365
2840,90.88,-0.3302,4.3934,0.0201,-3.1416,0.0000,-2.1754,rough,14.0,0,1.366
2850,91.20,-0.3302,4.3922,0.0200,-3.1416,0.0000,-2.1815,rough,14.0,0,1.366
2860,91.52,-0.3302,4.3910,0.0200,-3.1416,0.0000,-2.2237,rough,14.0,0,1.367
2870,91.84,-0.3302,4.3899,0.0201,-3.1416,0.0000,-2.2589,rough,14.0,0,1.368
2880,92.16,-0.3302,4.3887,0.0202,-3.1416,0.0000,-2.3332,rough,14.0,0,1.369
2890,92.48,-0.3302,4.3876,0.0201,-3.1416,0.0000,-2.3125,rough,14.0,0,1.370
2900,92.80,-0.3302,4.3864,0.0201,-3.1416,0.0000,-2.1861,rough,14.0,0,1.371
2910,93.12,-0.3302,4.3853,0.0201,-3.1416,0.0000,-2.2392,rough,14.0,0,1.372
2920,93.44,-0.3302,4.3841,0.0201,-3.1416,0.0000,-2.2681,rough,14.0,0,1.373
2930,93.76,-0.3302,4.3830,0.0201,-3.1416,0.0000,-2.1612,rough,14.0,0,1.374
2940,94.08,-0.3302,4.3818,0.0201,-3.1416,0.0000,-2.1642,rough,14.0,0,1.375
2950,94.40,-0.3302,4.3807,0.0201,-3.1416,0.0000,-2.2015,rough,14.0,0,1.376
2960,94.72,-0.3302,4.3795,0.0201,-3.1416,0.0000,-2.2466,rough,14.0,0,1.376
2970,95.04,-0.3302,4.3783,0.0201,-3.1416,0.0000,-2.2857,rough,14.0,0,1.377
2980,95.36,-0.3302,4.3772,0.0201,-3.1416,0.0000,-2.1696,rough,14.0,0,1.378
2990,95.68,-0.3302,4.3760,0.0201,-3.1416,0.0000,-2.2145,rough,14.0,0,1.379
3000,96.00,-0.3302,4.3749,0.0201,-3.1416,0.0000,-2.2532,rough,14.0,0,1.380
3010,96.32,-0.3302,4.3737,0.0202,-3.1416,0.0000,-2.3043,rough,14.0,0,1.381
3020,96.64,-0.3302,4.3726,0.0201,-3.1416,0.0000,-2.1792,rough,14.0,0,1.382
3030,96.96,-0.3302,4.3714,0.0201,-3.1416,0.0000,-2.2356,rough,14.0,0,1.383
3040,97.28,-0.3302,4.3703,0.0202,-3.1416,0.0000,-2.2654,rough,14.0,0,1.384
3050,97.60,-0.3302,4.3691,0.0201,-3.1416,0.0000,-2.1600,rough,14.0,0,1.385
3060,97.92,-0.3302,4.3679,0.0201,-3.1416,0.0000,-2.1679,rough,14.0,0,1.386
3070,98.24,-0.3302,4.3668,0.0201,-3.1416,0.0000,-2.1922,rough,14.0,0,1.386
3080,98.56,-0.3302,4.3656,0.0201,-3.1416,0.0000,-2.2424,rough,14.0,0,1.387
3090,98.88,-0.3302,4.3645,0.0202,-3.1416,0.0000,-2.3204,rough,14.0,0,1.388
3100,99.20,-0.3302,4.3633,0.0201,-3.1416,0.0000,-2.3192,rough,14.0,0,1.389
3110,99.52,-0.3302,4.3622,0.0200,-3.1416,0.0000,-2.2794,rough,14.0,0,1.390
3120,99.84,-0.3302,4.3610,0.0201,-3.1416,0.0000,-2.1671,rough,14.0,0,1.391
3130,100.16,-0.3302,4.3599,0.0201,-3.1416,0.0000,-2.2276,rough,14.0,0,1.392
3140,100.48,-0.3302,4.3587,0.0201,-3.1416,0.0000,-2.2601,rough,14.0,0,1.393
3150,100.80,-0.3302,4.3575,0.0201,-3.1416,0.0000,-2.1575,rough,14.0,0,1.394
3160,101.12,-0.3302,4.3564,0.0201,-3.1416,0.0000,-2.2030,rough,14.0,0,1.395
3170,101.44,-0.3302,4.3552,0.0201,-3.1416,0.0000,-2.2477,rough,14.0,0,1.396
3180,101.76,-0.3302,4.3541,0.0201,-3.1416,0.0000,-2.1501,rough,14.0,0,1.397
3190,102.08,-0.3302,4.3529,0.0201,-3.1416,0.0000,-2.1856,rough,14.0,0,1.397
3200,102.40,-0.3303,4.3517,0.0201,-3.1416,0.0000,-2.2392,rough,14.0,0,1.398
3210,102.72,-0.3303,4.3506,0.0202,-3.1416,0.0000,-2.2923,rough,14.0,0,1.399
3220,103.04,-0.3303,4.3494,0.0201,-3.1416,0.0000,-2.1729,rough,14.0,0,1.400
3230,103.36,-0.3303,4.3483,0.0201,-3.1416,0.0000,-2.2321,rough,14.0,0,1.401
3240,103.68,-0.3303,4.3471,0.0201,-3.1416,0.0000,-2.2726,rough,14.0,0,1.402
3250,104.00,-0.3303,4.3460,0.0201,-3.1416,0.0000,-2.1635,rough,14.0,0,1.403
3260,104.32,-0.3303,4.3448,0.0201,-3.1416,0.0000,-2.2252,rough,14.0,0,1.404
3270,104.64,-0.3303,4.3436,0.0201,-3.1416,0.0000,-2.2581,rough,14.0,0,1.405
3280,104.96,-0.3303,4.3425,0.0201,-3.1416,0.0000,-2.1566,rough,14.0,0,1.406
3290,105.28,-0.3303,4.3413,0.0201,-3.1416,0.0000,-2.2184,rough,14.0,0,1.407
3300,105.60,-0.3303,4.3402,0.0200,-3.1416,0.0000,-2.1939,rough,14.0,0,1.408
3310,105.92,-0.3303,4.3390,0.0201,-3.1416,0.0000,-2.2437,rough,14.0,0,1.409
3320,106.24,-0.3303,4.3378,0.0201,-3.1416,0.0000,-2.1470,rough,14.0,0,1.409
3330,106.56,-0.3303,4.3367,0.0201,-3.1416,0.0000,-2.1833,rough,14.0,0,1.410
3340,106.88,-0.3303,4.3355,0.0201,-3.1416,0.0000,-2.2379,rough,14.0,0,1.411
3350,107.20,-0.3303,4.3344,0.0201,-3.1416,0.0000,-2.1420,rough,14.0,0,1.412
3360,107.52,-0.3303,4.3332,0.0201,-3.1416,0.0000,-2.1790,rough,14.0,0,1.413
3370,107.84,-0.3303,4.3321,0.0201,-3.1416,0.0000,-2.2356,rough,14.0,0,1.414
3380,108.16,-0.3303,4.3309,0.0201,-3.1416,0.0000,-2.1397,rough,14.0,0,1.415
3390,108.48,-0.3303,4.3297,0.0201,-3.1416,0.0000,-2.1771,rough,14.0,0,1.416
3400,108.80,-0.3303,4.3286,0.0201,-3.1416,0.0000,-2.2346,rough,14.0,0,1.417
3410,109.12,-0.3303,4.3274,0.0201,-3.1416,0.0000,-2.1388,rough,14.0,0,1.418
3420,109.44,-0.3303,4.3263,0.0201,-3.1416,0.0000,-2.1764,rough,14.0,0,1.419
3430,109.76,-0.3303,4.3251,0.0201,-3.1416,0.0000,-2.2342,rough,14.0,0,1.420
3440,110.08,-0.3303,4.3239,0.0201,-3.1416,0.0000,-2.1384,rough,14.0,0,1.421
3450,110.40,-0.3303,4.3228,0.0201,-3.1416,0.0000,-2.1760,rough,14.0,0,1.422
3460,110.72,-0.3303,4.3216,0.0201,-3.1416,0.0000,-2.2340,rough,14.0,0,1.422
3470,111.04,-0.3303,4.3204,0.0201,-3.1416,0.0000,-2.1382,rough,14.0,0,1.423
3480,111.36,-0.3303,4.3193,0.0201,-3.1416,0.0000,-2.1759,rough,14.0,0,1.424
3490,111.68,-0.3303,4.3181,0.0201,-3.1416,0.0000,-2.2339,rough,14.0,0,1.425
3500,112.00,-0.3303,4.3170,0.0201,-3.1416,0.0000,-2.1381,rough,14.0,0,1.426
3510,112.32,-0.3303,4.3158,0.0201,-3.1416,0.0000,-2.1758,rough,14.0,0,1.427
3520,112.64,-0.3303,4.3146,0.0201,-3.1416,0.0000,-2.2339,rough,14.0,0,1.428
3530,112.96,-0.3303,4.3135,0.0201,-3.1416,0.0000,-2.1381,rough,14.0,0,1.429
3540,113.28,-0.3303,4.3123,0.0201,-3.1416,0.0000,-2.1401,rough,14.0,0,1.430
3550,113.60,-0.3303,4.3112,0.0200,-3.1416,0.0000,-2.2569,rough,14.0,0,1.431
3560,113.92,-0.3303,4.3100,0.0201,-3.1416,0.0000,-2.1582,rough,14.0,0,1.432
3570,114.24,-0.3303,4.3088,0.0201,-3.1416,0.0000,-2.2147,rough,14.0,0,1.433
3580,114.56,-0.3303,4.3077,0.0201,-3.1416,0.0000,-2.2626,rough,14.0,0,1.434
3590,114.88,-0.3303,4.3065,0.0202,-3.1416,0.0000,-2.1617,rough,14.0,0,1.435
3600,115.20,-0.3303,4.3054,0.0202,-3.1416,0.0000,-2.2187,rough,14.0,0,1.436
3610,115.52,-0.3303,4.3042,0.0202,-3.1416,0.0000,-2.1305,rough,14.0,0,1.436
3620,115.84,-0.3303,4.3030,0.0202,-3.1416,0.0000,-2.1673,rough,14.0,0,1.437
3630,116.16,-0.3303,4.3019,0.0202,-3.1416,0.0000,-2.2240,rough,14.0,0,1.438
3640,116.48,-0.3303,4.3007,0.0202,-3.1416,0.0000,-2.1349,rough,14.0,0,1.439
3650,116.80,-0.3303,4.2995,0.0202,-3.1416,0.0000,-2.1752,rough,14.0,0,1.440
3660,117.12,-0.3303,4.2984,0.0202,-3.1416,0.0000,-2.2303,rough,14.0,0,1.441
3670,117.44,-0.3303,4.2972,0.0202,-3.1416,0.0000,-2.1401,rough,14.0,0,1.442
3680,117.76,-0.3303,4.2961,0.0202,-3.1416,0.0000,-2.1945,rough,14.0,0,1.443
3690,118.08,-0.3303,4.2949,0.0202,-3.1416,0.0000,-2.2371,rough,14.0,0,1.444
3700,118.40,-0.3303,4.2937,0.0202,-3.1416,0.0000,-2.1458,rough,14.0,0,1.445
3710,118.72,-0.3303,4.2926,0.0202,-3.1416,0.0000,-2.2009,rough,14.0,0,1.446
3720,119.04,-0.3303,4.2914,0.0202,-3.1416,0.0000,-2.2446,rough,14.0,0,1.447
3730,119.36,-0.3303,4.2903,0.0202,-3.1416,0.0000,-2.1518,rough,14.0,0,1.448
3740,119.68,-0.3303,4.2891,0.0202,-3.1416,0.0000,-2.2076,rough,14.0,0,1.449
3750,120.00,-0.3303,4.2879,0.0202,-3.1416,0.0000,-2.2544,rough,14.0,0,1.450
3760,120.32,-0.3303,4.2868,0.0202,-3.1416,0.0000,-2.1580,rough,14.0,0,1.451
3770,120.64,-0.3303,4.2856,0.0202,-3.1416,0.0000,-2.2145,rough,14.0,0,1.451
3780,120.96,-0.3303,4.2845,0.0202,-3.1416,0.0000,-2.1270,rough,14.0,0,1.452
3790,121.28,-0.3303,4.2833,0.0202,-3.1416,0.0000,-2.1645,rough,14.0,0,1.453
3800,121.60,-0.3303,4.2821,0.0202,-3.1416,0.0000,-2.2217,rough,14.0,0,1.454
3810,121.92,-0.3303,4.2810,0.0202,-3.1416,0.0000,-2.1330,rough,14.0,0,1.455
3820,122.24,-0.3303,4.2798,0.0202,-3.1416,0.0000,-2.1731,rough,14.0,0,1.456
3830,122.56,-0.3303,4.2786,0.0202,-3.1416,0.0000,-2.2290,rough,14.0,0,1.457
3840,122.88,-0.3303,4.2775,0.0202,-3.1416,0.0000,-2.1390,rough,14.0,0,1.458
3850,123.20,-0.3303,4.2763,0.0202,-3.1416,0.0000,-2.1933,rough,14.0,0,1.459
3860,123.52,-0.3303,4.2752,0.0202,-3.1416,0.0000,-2.2384,rough,14.0,0,1.460
3870,123.84,-0.3303,4.2740,0.0202,-3.1416,0.0000,-2.1470,rough,14.0,0,1.461
3880,124.16,-0.3303,4.2728,0.0202,-3.1416,0.0000,-2.2022,rough,14.0,0,1.462
3890,124.48,-0.3303,4.2717,0.0202,-3.1416,0.0000,-2.2486,rough,14.0,0,1.463
3900,124.80,-0.3303,4.2705,0.0202,-3.1416,0.0000,-2.1547,rough,14.0,0,1.464
3910,125.12,-0.3303,4.2694,0.0202,-3.1416,0.0000,-2.2108,rough,14.0,0,1.465
3920,125.44,-0.3303,4.2682,0.0202,-3.1416,0.0000,-2.1240,rough,14.0,0,1.466
3930,125.76,-0.3303,4.2670,0.0202,-3.1416,0.0000,-2.1633,rough,14.0,0,1.467
3940,126.08,-0.3303,4.2659,0.0202,-3.1416,0.0000,-2.2209,rough,14.0,0,1.468
3950,126.40,-0.3303,4.2647,0.0202,-3.1416,0.0000,-2.1323,rough,14.0,0,1.468
3960,126.72,-0.3303,4.2636,0.0202,-3.1416,0.0000,-2.1858,rough,14.0,0,1.469
3970,127.04,-0.3303,4.2624,0.0202,-3.1416,0.0000,-2.2306,rough,14.0,0,1.470
3980,127.36,-0.3303,4.2612,0.0202,-3.1416,0.0000,-2.1403,rough,14.0,0,1.471
3990,127.68,-0.3303,4.2601,0.0202,-3.1416,0.0000,-2.1948,rough,14.0,0,1.472
4000,128.00,-0.3303,4.2589,0.0202,-3.1416,0.0000,-2.2406,rough,14.0,0,1.473
4010,128.32,-0.3303,4.2578,0.0202,-3.1416,0.0000,-2.1490,rough,14.0,0,1.474
4020,128.64,-0.3303,4.2566,0.0202,-3.1416,0.0000,-2.2045,rough,14.0,0,1.475
4030,128.96,-0.3303,4.2554,0.0202,-3.1416,0.0000,-2.1187,rough,14.0,0,1.476
4040,129.28,-0.3303,4.2543,0.0202,-3.1416,0.0000,-2.1577,rough,14.0,0,1.477
4050,129.60,-0.3303,4.2531,0.0202,-3.1416,0.0000,-2.2146,rough,14.0,0,1.478
4060,129.92,-0.3303,4.2520,0.0202,-3.1416,0.0000,-2.1271,rough,14.0,0,1.479
4070,130.24,-0.3303,4.2508,0.0202,-3.1416,0.0000,-2.1800,rough,14.0,0,1.480
4080,130.56,-0.3303,4.2496,0.0202,-3.1416,0.0000,-2.2248,rough,14.0,0,1.481
4090,130.88,-0.3303,4.2485,0.0202,-3.1416,0.0000,-2.1356,rough,14.0,0,1.482
4100,131.20,-0.3303,4.2473,0.0202,-3.1416,0.0000,-2.1894,rough,14.0,0,1.483
4110,131.52,-0.3303,4.2462,0.0202,-3.1416,0.0000,-2.2349,rough,14.0,0,1.484
4120,131.84,-0.3303,4.2450,0.0202,-3.1416,0.0000,-2.1443,rough,14.0,0,1.485
4130,132.16,-0.3303,4.2438,0.0202,-3.1416,0.0000,-2.1992,rough,14.0,0,1.486
4140,132.48,-0.3303,4.2427,0.0202,-3.1416,0.0000,-2.1143,rough,14.0,0,1.487
4150,132.80,-0.3303,4.2415,0.0202,-3.1416,0.0000,-2.1531,rough,14.0,0,1.487
4160,133.12,-0.3303,4.2404,0.0202,-3.1416,0.0000,-2.2092,rough,14.0,0,1.488
4170,133.44,-0.3303,4.2392,0.0202,-3.1416,0.0000,-2.1226,rough,14.0,0,1.489
4180,133.76,-0.3303,4.2380,0.0202,-3.1416,0.0000,-2.1750,rough,14.0,0,1.490
4190,134.08,-0.3303,4.2369,0.0202,-3.1416,0.0000,-2.2194,rough,14.0,0,1.491
4200,134.40,-0.3303,4.2357,0.0202,-3.1416,0.0000,-2.1310,rough,14.0,0,1.492
4210,134.72,-0.3303,4.2346,0.0202,-3.1416,0.0000,-2.1844,rough,14.0,0,1.493
4220,135.04,-0.3303,4.2334,0.0201,-3.1416,0.0000,-2.2295,rough,14.0,0,1.494
4230,135.36,-0.3303,4.2323,0.0202,-3.1416,0.0000,-2.1398,rough,14.0,0,1.495
4240,135.68,-0.3302,4.2311,0.0202,-3.1416,0.0000,-2.1942,rough,14.0,0,1.496
4250,136.00,-0.3302,4.2299,0.0202,-3.1416,0.0000,-2.1102,rough,14.0,0,1.497
4260,136.32,-0.3302,4.2288,0.0202,-3.1416,0.0000,-2.1486,rough,14.0,0,1.498
4270,136.64,-0.3302,4.2276,0.0202,-3.1416,0.0000,-2.2042,rough,14.0,0,1.499
4280,136.96,-0.3302,4.2265,0.0202,-3.1416,0.0000,-2.1184,rough,14.0,0,1.500
4290,137.28,-0.3302,4.2253,0.0202,-3.1416,0.0000,-2.1703,rough,14.0,0,1.501
4300,137.60,-0.3302,4.2241,0.0202,-3.1416,0.0000,-2.2144,rough,14.0,0,1.502
4310,137.92,-0.3302,4.2230,0.0202,-3.1416,0.0000,-2.1269,rough,14.0,0,1.503
4320,138.24,-0.3302,4.2218,0.0202,-3.1416,0.0000,-2.1798,rough,14.0,0,1.504
4330,138.56,-0.3302,4.2207,0.0201,-3.1416,0.0000,-2.2245,rough,14.0,0,1.505
4340,138.88,-0.3302,4.2195,0.0202,-3.1416,0.0000,-2.1357,rough,14.0,0,1.506
4350,139.20,-0.3302,4.2183,0.0202,-3.1416,0.0000,-2.1896,rough,14.0,0,1.507
4360,139.52,-0.3302,4.2172,0.0202,-3.1416,0.0000,-2.1064,rough,14.0,0,1.508
4370,139.84,-0.3302,4.2160,0.0201,-3.1416,0.0000,-2.1444,rough,14.0,0,1.508
4380,140.16,-0.3302,4.2149,0.0202,-3.1416,0.0000,-2.1998,rough,14.0,0,1.509
4390,140.48,-0.3302,4.2137,0.0202,-3.1416,0.0000,-2.1148,rough,14.0,0,1.510
4400,140.80,-0.3302,4.2126,0.0201,-3.1416,0.0000,-2.1663,rough,14.0,0,1.511
4410,141.12,-0.3302,4.2114,0.0202,-3.1416,0.0000,-2.2101,rough,14.0,0,1.512
4420,141.44,-0.3302,4.2102,0.0202,-3.1416,0.0000,-2.1233,rough,14.0,0,1.513
4430,141.76,-0.3302,4.2091,0.0202,-3.1416,0.0000,-2.1758,rough,14.0,0,1.514
4440,142.08,-0.3302,4.2079,0.0201,-3.1416,0.0000,-2.2202,rough,14.0,0,1.515
4450,142.40,-0.3302,4.2068,0.0202,-3.1416,0.0000,-2.1321,rough,14.0,0,1.516
4460,142.72,-0.3302,4.2056,0.0202,-3.1416,0.0000,-2.1856,rough,14.0,0,1.517
4470,143.04,-0.3302,4.2044,0.0201,-3.1416,0.0000,-2.1031,rough,14.0,0,1.518
4480,143.36,-0.3302,4.2033,0.0201,-3.1416,0.0000,-2.1408,rough,14.0,0,1.519
4490,143.68,-0.3302,4.2021,0.0201,-3.1416,0.0000,-2.1958,rough,14.0,0,1.520
4500,144.00,-0.3302,4.2010,0.0201,-3.1416,0.0000,-2.1115,rough,14.0,0,1.521
4510,144.32,-0.3302,4.1998,0.0201,-3.1416,0.0000,-2.1626,rough,14.0,0,1.522
4520,144.64,-0.3302,4.1987,0.0201,-3.1416,0.0000,-2.2061,rough,14.0,0,1.523
4530,144.96,-0.3302,4.1975,0.0202,-3.1416,0.0000,-2.1200,rough,14.0,0,1.524
4540,145.28,-0.3302,4.1963,0.0201,-3.1416,0.0000,-2.1722,rough,14.0,0,1.525
4550,145.60,-0.3302,4.1952,0.0201,-3.1416,0.0000,-2.2163,rough,14.0,0,1.526
4560,145.92,-0.3302,4.1940,0.0201,-3.1416,0.0000,-2.1288,rough,14.0,0,1.527
4570,146.24,-0.3302,4.1929,0.0201,-3.1416,0.0000,-2.1820,rough,14.0,0,1.528
4580,146.56,-0.3302,4.1917,0.0201,-3.1416,0.0000,-2.1001,rough,14.0,0,1.529
4590,146.88,-0.3302,4.1905,0.0201,-3.1416,0.0000,-2.1376,rough,14.0,0,1.530
4600,147.20,-0.3302,4.1894,0.0201,-3.1416,0.0000,-2.1922,rough,14.0,0,1.531
4610,147.52,-0.3302,4.1882,0.0201,-3.1416,0.0000,-2.1085,rough,14.0,0,1.532
4620,147.84,-0.3302,4.1871,0.0201,-3.1416,0.0000,-2.1593,rough,14.0,0,1.532
4630,148.16,-0.3302,4.1859,0.0201,-3.1416,0.0000,-2.2026,rough,14.0,0,1.533
4640,148.48,-0.3302,4.1848,0.0201,-3.1416,0.0000,-2.1172,rough,14.0,0,1.534
4650,148.80,-0.3302,4.1836,0.0201,-3.1416,0.0000,-2.1690,rough,14.0,0,1.535
4660,149.12,-0.3302,4.1824,0.0201,-3.1416,0.0000,-2.2130,rough,14.0,0,1.536
4670,149.44,-0.3302,4.1813,0.0201,-3.1416,0.0000,-2.1261,rough,14.0,0,1.537
4680,149.76,-0.3302,4.1801,0.0201,-3.1416,0.0000,-2.1789,rough,14.0,0,1.538
4690,150.08,-0.3302,4.1790,0.0201,-3.1416,0.0000,-2.0975,rough,14.0,0,1.539
4700,150.40,-0.3302,4.1778,0.0201,-3.1416,0.0000,-2.1349,rough,14.0,0,1.540
4710,150.72,-0.3302,4.1767,0.0201,-3.1416,0.0000,-2.1892,rough,14.0,0,1.541
4720,151.04,-0.3302,4.1755,0.0201,-3.1416,0.0000,-2.1060,rough,14.0,0,1.542
4730,151.36,-0.3302,4.1743,0.0201,-3.1416,0.0000,-2.1565,rough,14.0,0,1.543
4740,151.68,-0.3302,4.1732,0.0201,-3.1416,0.0000,-2.1996,rough,14.0,0,1.544
4750,152.00,-0.3302,4.1720,0.0201,-3.1416,0.0000,-2.1147,rough,14.0,0,1.545
4760,152.32,-0.3302,4.1709,0.0201,-3.1416,0.0000,-2.1662,rough,14.0,0,1.546
4770,152.64,-0.3302,4.1697,0.0201,-3.1416,0.0000,-2.0871,rough,14.0,0,1.547
4780,152.96,-0.3302,4.1686,0.0201,-3.1416,0.0000,-2.1236,rough,14.0,0,1.548
4790,153.28,-0.3302,4.1674,0.0201,-3.1416,0.0000,-2.1764,rough,14.0,0,1.549
4800,153.60,-0.3302,4.1662,0.0201,-3.1416,0.0000,-2.0954,rough,14.0,0,1.550
4810,153.92,-0.3302,4.1651,0.0201,-3.1416,0.0000,-2.1447,rough,14.0,0,1.551
4820,154.24,-0.3302,4.1639,0.0201,-3.1416,0.0000,-2.1868,rough,14.0,0,1.552
4830,154.56,-0.3302,4.1628,0.0201,-3.1416,0.0000,-2.1040,rough,14.0,0,1.553
4840,154.88,-0.3302,4.1616,0.0201,-3.1416,0.0000,-2.1543,rough,14.0,0,1.554
4850,155.20,-0.3302,4.1605,0.0201,-3.1416,0.0000,-2.1973,rough,14.0,0,1.555
4860,155.52,-0.3302,4.1593,0.0201,-3.1416,0.0000,-2.1128,rough,14.0,0,1.556
4870,155.84,-0.3302,4.1581,0.0201,-3.1416,0.0000,-2.1641,rough,14.0,0,1.557
4880,156.16,-0.3302,4.1570,0.0201,-3.1416,0.0000,-2.0853,rough,14.0,0,1.558
4890,156.48,-0.3302,4.1558,0.0201,-3.1416,0.0000,-2.1217,rough,14.0,0,1.559
4900,156.80,-0.3302,4.1547,0.0201,-3.1416,0.0000,-2.1743,rough,14.0,0,1.560
4910,157.12,-0.3302,4.1535,0.0201,-3.1416,0.0000,-2.0936,rough,14.0,0,1.561
4920,157.44,-0.3302,4.1524,0.0201,-3.1416,0.0000,-2.1428,rough,14.0,0,1.561
4930,157.76,-0.3302,4.1512,0.0201,-3.1416,0.0000,-2.1847,rough,14.0,0,1.562
4940,158.08,-0.3302,4.1500,0.0201,-3.1416,0.0000,-2.1023,rough,14.0,0,1.563
4950,158.40,-0.3302,4.1489,0.0201,-3.1416,0.0000,-2.1524,rough,14.0,0,1.564
4960,158.72,-0.3302,4.1477,0.0201,-3.1416,0.0000,-2.1951,rough,14.0,0,1.565
4970,159.04,-0.3302,4.1466,0.0201,-3.1416,0.0000,-2.1112,rough,14.0,0,1.566
4980,159.36,-0.3302,4.1454,0.0201,-3.1416,0.0000,-2.1624,rough,14.0,0,1.567
4990,159.68,-0.3302,4.1443,0.0201,-3.1416,0.0000,-2.0839,rough,14.0,0,1.568
5000,160.00,-0.3302,4.1431,0.0201,-3.1416,0.0000,-2.1202,rough,14.0,0,1.569
5010,160.32,-0.3302,4.1419,0.0201,-3.1416,0.0000,-2.1728,rough,14.0,0,1.570
5020,160.64,-0.3302,4.1408,0.0201,-3.1416,0.0000,-2.0924,rough,14.0,0,1.571
5030,160.96,-0.3302,4.1396,0.0201,-3.1416,0.0000,-2.1414,rough,14.0,0,1.572
5040,161.28,-0.3302,4.1385,0.0201,-3.1416,0.0000,-2.1833,rough,14.0,0,1.573
5050,161.60,-0.3302,4.1373,0.0201,-3.1416,0.0000,-2.1011,rough,14.0,0,1.574
5060,161.92,-0.3302,4.1362,0.0201,-3.1416,0.0000,-2.1511,rough,14.0,0,1.575
5070,162.24,-0.3302,4.1350,0.0201,-3.1416,0.0000,-2.1937,rough,14.0,0,1.576
5080,162.56,-0.3302,4.1339,0.0201,-3.1416,0.0000,-2.1101,rough,14.0,0,1.577
5090,162.88,-0.3302,4.1327,0.0201,-3.1416,0.0000,-2.1611,rough,14.0,0,1.578
5100,163.20,-0.3302,4.1315,0.0201,-3.1416,0.0000,-2.0828,rough,14.0,0,1.579
5110,163.52,-0.3302,4.1304,0.0201,-3.1416,0.0000,-2.1190,rough,14.0,0,1.580
5120,163.84,-0.3302,4.1292,0.0201,-3.1416,0.0000,-2.1715,rough,14.0,0,1.581
5130,164.16,-0.3302,4.1281,0.0201,-3.1416,0.0000,-2.0914,rough,14.0,0,1.582
5140,164.48,-0.3302,4.1269,0.0201,-3.1416,0.0000,-2.1403,rough,14.0,0,1.583
5150,164.80,-0.3302,4.1258,0.0201,-3.1416,0.0000,-2.1821,rough,14.0,0,1.584
5160,165.12,-0.3302,4.1246,0.0201,-3.1416,0.0000,-2.1002,rough,14.0,0,1.585
5170,165.44,-0.3302,4.1235,0.0201,-3.1416,0.0000,-2.1502,rough,14.0,0,1.586
5180,165.76,-0.3302,4.1223,0.0201,-3.1416,0.0000,-2.0738,rough,14.0,0,1.587
5190,166.08,-0.3302,4.1211,0.0201,-3.1416,0.0000,-2.1093,rough,14.0,0,1.588
5200,166.40,-0.3302,4.1200,0.0201,-3.1416,0.0000,-2.1604,rough,14.0,0,1.589
5210,166.72,-0.3302,4.1188,0.0201,-3.1416,0.0000,-2.0822,rough,14.0,0,1.590
5220,167.04,-0.3302,4.1177,0.0201,-3.1416,0.0000,-2.1301,rough,14.0,0,1.591
5230,167.36,-0.3302,4.1165,0.0201,-3.1416,0.0000,-2.1711,rough,14.0,0,1.592
5240,167.68,-0.3302,4.1154,0.0201,-3.1416,0.0000,-2.0910,rough,14.0,0,1.593
5250,168.00,-0.3302,4.1142,0.0201,-3.1416,0.0000,-2.1398,rough,14.0,0,1.594
5260,168.32,-0.3302,4.1131,0.0200,-3.1416,0.0000,-2.1816,rough,14.0,0,1.595
5270,168.64,-0.3302,4.1119,0.0201,-3.1416,0.0000,-2.1000,rough,14.0,0,1.596
5280,168.96,-0.3302,4.1107,0.0201,-3.1416,0.0000,-2.1500,rough,14.0,0,1.597
5290,169.28,-0.3302,4.1096,0.0201,-3.1416,0.0000,-2.0736,rough,14.0,0,1.598
5300,169.60,-0.3302,4.1084,0.0200,-3.1416,0.0000,-2.1092,rough,14.0,0,1.599
5310,169.92,-0.3302,4.1073,0.0201,-3.1416,0.0000,-2.1606,rough,14.0,0,1.600
5320,170.24,-0.3302,4.1061,0.0201,-3.1416,0.0000,-2.0823,rough,14.0,0,1.600
5330,170.56,-0.3302,4.1050,0.0201,-3.1416,0.0000,-2.1302,rough,14.0,0,1.601
5340,170.88,-0.3302,4.1038,0.0200,-3.1416,0.0000,-2.1715,rough,14.0,0,1.602
5350,171.20,-0.3302,4.1027,0.0201,-3.1416,0.0000,-2.0914,rough,14.0,0,1.603
5360,171.52,-0.3302,4.1015,0.0201,-3.1416,0.0000,-2.1403,rough,14.0,0,1.604
5370,171.84,-0.3302,4.1003,0.0201,-3.1416,0.0000,-2.0656,rough,14.0,0,1.605
5380,172.16,-0.3302,4.0992,0.0200,-3.1416,0.0000,-2.1007,rough,14.0,0,1.606
5390,172.48,-0.3302,4.0980,0.0201,-3.1416,0.0000,-2.1508,rough,14.0,0,1.607
5400,172.80,-0.3302,4.0969,0.0201,-3.1416,0.0000,-2.0742,rough,14.0,0,1.608
5410,173.12,-0.3302,4.0957,0.0200,-3.1416,0.0000,-2.1100,rough,14.0,0,1.609
5420,173.44,-0.3302,4.0946,0.0201,-3.1416,0.0000,-2.1615,rough,14.0,0,1.610
5430,173.76,-0.3302,4.0934,0.0201,-3.1416,0.0000,-2.0830,rough,14.0,0,1.611
5440,174.08,-0.3302,4.0923,0.0201,-3.1416,0.0000,-2.1310,rough,14.0,0,1.612
5450,174.40,-0.3302,4.0911,0.0200,-3.1416,0.0000,-2.1723,rough,14.0,0,1.613
5460,174.72,-0.3302,4.0900,0.0201,-3.1416,0.0000,-2.0921,rough,14.0,0,1.614
5470,175.04,-0.3302,4.0888,0.0201,-3.1416,0.0000,-2.1411,rough,14.0,0,1.615
5480,175.36,-0.3302,4.0876,0.0201,-3.1416,0.0000,-2.0663,rough,14.0,0,1.616
5490,175.68,-0.3302,4.0865,0.0200,-3.1416,0.0000,-2.1013,rough,14.0,0,1.617
5500,176.00,-0.3302,4.0853,0.0201,-3.1416,0.0000,-2.1516,rough,14.0,0,1.618
5510,176.32,-0.3302,4.0842,0.0201,-3.1416,0.0000,-2.0749,rough,14.0,0,1.619
5520,176.64,-0.3302,4.0830,0.0200,-3.1416,0.0000,-2.1219,rough,14.0,0,1.620
5530,176.96,-0.3302,4.0819,0.0200,-3.1416,0.0000,-2.1624,rough,14.0,0,1.621
5540,177.28,-0.3302,4.0807,0.0201,-3.1416,0.0000,-2.0838,rough,14.0,0,1.622
5550,177.60,-0.3302,4.0796,0.0201,-3.1416,0.0000,-2.1319,rough,14.0,0,1.623
5560,177.92,-0.3302,4.0784,0.0200,-3.1416,0.0000,-2.1732,rough,14.0,0,1.624
5570,178.24,-0.3302,4.0773,0.0201,-3.1416,0.0000,-2.0930,rough,14.0,0,1.625
5580,178.56,-0.3302,4.0761,0.0201,-3.1416,0.0000,-2.1422,rough,14.0,0,1.626
5590,178.88,-0.3302,4.0749,0.0201,-3.1416,0.0000,-2.0672,rough,14.0,0,1.627
5600,179.20,-0.3302,4.0738,0.0200,-3.1416,0.0000,-2.1023,rough,14.0,0,1.628
5610,179.52,-0.3302,4.0726,0.0200,-3.1416,0.0000,-2.1529,rough,14.0,0,1.629
5620,179.84,-0.3302,4.0715,0.0201,-3.1416,0.0000,-2.0760,rough,14.0,0,1.630
5630,180.16,-0.3302,4.0703,0.0200,-3.1416,0.0000,-2.1231,rough,14.0,0,1.631
5640,180.48,-0.3302,4.0692,0.0200,-3.1416,0.0000,-2.1639,rough,14.0,0,1.632
5650,180.80,-0.3302,4.0680,0.0201,-3.1416,0.0000,-2.0851,rough,14.0,0,1.633
5660,181.12,-0.3302,4.0669,0.0200,-3.1416,0.0000,-2.1333,rough,14.0,0,1.634
5670,181.44,-0.3302,4.0657,0.0200,-3.1416,0.0000,-2.0599,rough,14.0,0,1.635
5680,181.76,-0.3302,4.0646,0.0200,-3.1416,0.0000,-2.0945,rough,14.0,0,1.636
5690,182.08,-0.3302,4.0634,0.0200,-3.1416,0.0000,-2.1439,rough,14.0,0,1.637
5700,182.40,-0.3302,4.0622,0.0200,-3.1416,0.0000,-2.0686,rough,14.0,0,1.638
5710,182.72,-0.3302,4.0611,0.0200,-3.1416,0.0000,-2.1149,rough,14.0,0,1.639
5720,183.04,-0.3302,4.0599,0.0200,-3.1416,0.0000,-2.1548,rough,14.0,0,1.640
5730,183.36,-0.3302,4.0588,0.0200,-3.1416,0.0000,-2.0776,rough,14.0,0,1.641
5740,183.68,-0.3302,4.0576,0.0200,-3.1416,0.0000,-2.1249,rough,14.0,0,1.642
5750,184.00,-0.3302,4.0565,0.0200,-3.1416,0.0000,-2.1657,rough,14.0,0,1.643
5760,184.32,-0.3302,4.0553,0.0200,-3.1416,0.0000,-2.0869,rough,14.0,0,1.644
5770,184.64,-0.3302,4.0542,0.0200,-3.1416,0.0000,-2.1353,rough,14.0,0,1.645
5780,184.96,-0.3302,4.0530,0.0200,-3.1416,0.0000,-2.0615,rough,14.0,0,1.646
5790,185.28,-0.3302,4.0519,0.0200,-3.1416,0.0000,-2.0962,rough,14.0,0,1.647
5800,185.60,-0.3302,4.0507,0.0200,-3.1416,0.0000,-2.1461,rough,14.0,0,1.648
5810,185.92,-0.3302,4.0496,0.0200,-3.1416,0.0000,-2.0704,rough,14.0,0,1.649
5820,186.24,-0.3302,4.0484,0.0200,-3.1416,0.0000,-2.1169,rough,14.0,0,1.650
5830,186.56,-0.3302,4.0473,0.0200,-3.1416,0.0000,-2.1572,rough,14.0,0,1.651
5840,186.88,-0.3302,4.0461,0.0200,-3.1416,0.0000,-2.0796,rough,14.0,0,1.652
5850,187.20,-0.3302,4.0449,0.0200,-3.1416,0.0000,-2.1272,rough,14.0,0,1.653
5860,187.52,-0.3302,4.0438,0.0200,-3.1416,0.0000,-2.0549,rough,14.0,0,1.654
5870,187.84,-0.3302,4.0426,0.0200,-3.1416,0.0000,-2.0890,rough,14.0,0,1.655
5880,188.16,-0.3302,4.0415,0.0200,-3.1416,0.0000,-2.1381,rough,14.0,0,1.656
5890,188.48,-0.3302,4.0403,0.0200,-3.1416,0.0000,-2.0638,rough,14.0,0,1.657
5900,188.80,-0.3302,4.0392,0.0200,-3.1416,0.0000,-2.1096,rough,14.0,0,1.658
5910,189.12,-0.3302,4.0380,0.0200,-3.1416,0.0000,-2.1498,rough,14.0,0,1.659
5920,189.44,-0.3302,4.0369,0.0200,-3.1416,0.0000,-2.0735,rough,14.0,0,1.660
5930,189.76,-0.3302,4.0357,0.0200,-3.1416,0.0000,-2.1204,rough,14.0,0,1.661
5940,190.08,-0.3302,4.0346,0.0200,-3.1416,0.0000,-2.0493,rough,14.0,0,1.662
5950,190.40,-0.3302,4.0336,0.0200,-3.1416,-0.0000,-2.0795,rough,14.0,0,1.662
5960,190.72,-0.3302,4.0329,0.0200,-3.1416,-0.0001,-2.1249,rough,14.0,0,1.663
5970,191.04,-0.3302,4.0323,0.0200,-3.1416,-0.0000,-2.0530,rough,14.0,0,1.664
5980,191.36,-0.3302,4.0317,0.0200,-3.1416,-0.0000,-2.0864,rough,14.0,0,1.664
5990,191.68,-0.3303,4.0317,0.0200,-3.1416,-0.0000,-2.1287,rough,14.0,0,1.664
6000,192.00,-0.3303,4.0323,0.0200,-3.1416,-0.0000,-2.0534,rough,14.0,0,1.664
6010,192.32,-0.3303,4.0330,0.0200,3.1416,0.0000,-2.0866,rough,14.0,0,1.663
6020,192.64,-0.3303,4.0342,0.0200,-3.1416,-0.0000,-2.1307,rough,14.0,0,1.662
6030,192.96,-0.3303,4.0354,0.0200,-3.1416,-0.0000,-2.0578,rough,14.0,0,1.661
6040,193.28,-0.3303,4.0367,0.0200,-3.1416,-0.0000,-2.0903,rough,14.0,0,1.660
6050,193.60,-0.3303,4.0380,0.0200,-3.1416,-0.0000,-2.1396,rough,14.0,0,1.659
6060,193.92,-0.3303,4.0393,0.0200,-3.1416,-0.0000,-2.0650,rough,14.0,0,1.657
6070,194.24,-0.3303,4.0406,0.0200,-3.1416,-0.0000,-2.1109,rough,14.0,0,1.656
6080,194.56,-0.3303,4.0419,0.0200,-3.1416,-0.0000,-2.1513,rough,14.0,0,1.655
6090,194.88,-0.3303,4.0432,0.0200,-3.1416,-0.0000,-2.0747,rough,14.0,0,1.654
6100,195.20,-0.3303,4.0445,0.0200,-3.1416,-0.0000,-2.1218,rough,14.0,0,1.653
6110,195.52,-0.3303,4.0458,0.0200,-3.1416,0.0000,-2.1623,rough,14.0,0,1.652
6120,195.84,-0.3303,4.0471,0.0200,-3.1416,0.0000,-2.0841,rough,14.0,0,1.651
6130,196.16,-0.3303,4.0484,0.0200,-3.1416,0.0000,-2.1323,rough,14.0,0,1.650
6140,196.48,-0.3303,4.0497,0.0200,-3.1416,0.0000,-2.0590,rough,14.0,0,1.649
6150,196.80,-0.3303,4.0510,0.0200,-3.1416,0.0000,-2.0935,rough,14.0,0,1.647
6160,197.12,-0.3303,4.0523,0.0200,-3.1416,0.0000,-2.1431,rough,14.0,0,1.646
6170,197.44,-0.3303,4.0536,0.0200,-3.1416,0.0000,-2.0679,rough,14.0,0,1.645
6180,197.76,-0.3303,4.0549,0.0200,-3.1416,0.0000,-2.1142,rough,14.0,0,1.644
6190,198.08,-0.3303,4.0562,0.0200,-3.1416,0.0000,-2.1542,rough,14.0,0,1.643
6200,198.40,-0.3303,4.0575,0.0200,-3.1416,0.0000,-2.0771,rough,14.0,0,1.642
6210,198.72,-0.3303,4.0588,0.0200,-3.1416,0.0000,-2.1244,rough,14.0,0,1.641
6220,199.04,-0.3303,4.0601,0.0200,-3.1416,0.0000,-2.1652,rough,14.0,0,1.640
6230,199.36,-0.3303,4.0613,0.0200,-3.1416,0.0000,-2.0865,rough,14.0,0,1.639
6240,199.68,-0.3303,4.0626,0.0200,-3.1416,0.0000,-2.1349,rough,14.0,0,1.637
6250,200.00,-0.3303,4.0639,0.0200,-3.1416,0.0000,-2.0612,rough,14.0,0,1.636
6260,200.32,-0.3303,4.0652,0.0200,-3.1416,0.0000,-2.0958,rough,14.0,0,1.635
6270,200.64,-0.3303,4.0665,0.0200,-3.1416,0.0000,-2.1457,rough,14.0,0,1.634
6280,200.96,-0.3303,4.0678,0.0200,-3.1416,0.0000,-2.0700,rough,14.0,0,1.633
6290,201.28,-0.3303,4.0691,0.0200,-3.1416,0.0000,-2.1165,rough,14.0,0,1.632
6300,201.60,-0.3303,4.0704,0.0200,-3.1416,0.0000,-2.1566,rough,14.0,0,1.631
6310,201.92,-0.3303,4.0717,0.0201,-3.1416,0.0000,-2.0790,rough,14.0,0,1.630
6320,202.24,-0.3303,4.0730,0.0200,-3.1416,0.0000,-2.1266,rough,14.0,0,1.629
6330,202.56,-0.3303,4.0743,0.0200,-3.1416,0.0000,-2.1675,rough,14.0,0,1.627
6340,202.88,-0.3303,4.0756,0.0200,-3.1416,0.0000,-2.0883,rough,14.0,0,1.626
6350,203.20,-0.3303,4.0769,0.0200,-3.1416,0.0000,-2.1370,rough,14.0,0,1.625
6360,203.52,-0.3303,4.0782,0.0200,-3.1416,0.0000,-2.0629,rough,14.0,0,1.624
6370,203.84,-0.3303,4.0795,0.0200,-3.1416,0.0000,-2.0977,rough,14.0,0,1.623
6380,204.16,-0.3303,4.0808,0.0201,-3.1416,0.0000,-2.1475,rough,14.0,0,1.622
6390,204.48,-0.3303,4.0821,0.0201,-3.1416,0.0000,-2.0715,rough,14.0,0,1.621
6400,204.80,-0.3303,4.0834,0.0200,-3.1416,0.0000,-2.1182,rough,14.0,0,1.620
6410,205.12,-0.3303,4.0847,0.0200,-3.1416,0.0000,-2.1584,rough,14.0,0,1.619
6420,205.44,-0.3303,4.0860,0.0201,-3.1416,0.0000,-2.0805,rough,14.0,0,1.618
6430,205.76,-0.3303,4.0873,0.0200,-3.1416,0.0000,-2.1282,rough,14.0,0,1.616
6440,206.08,-0.3303,4.0886,0.0200,-3.1416,0.0000,-2.1694,rough,14.0,0,1.615
6450,206.40,-0.3303,4.0899,0.0201,-3.1416,0.0000,-2.0896,rough,14.0,0,1.614
6460,206.72,-0.3303,4.0912,0.0201,-3.1416,0.0000,-2.1383,rough,14.0,0,1.613
6470,207.04,-0.3303,4.0925,0.0200,-3.1416,0.0000,-2.0640,rough,14.0,0,1.612
6480,207.36,-0.3303,4.0938,0.0200,-3.1416,0.0000,-2.0989,rough,14.0,0,1.611
6490,207.68,-0.3303,4.0951,0.0201,-3.1416,0.0000,-2.1489,rough,14.0,0,1.610
6500,208.00,-0.3303,4.0964,0.0201,-3.1416,0.0000,-2.0727,rough,14.0,0,1.609
6510,208.32,-0.3303,4.0977,0.0200,-3.1416,0.0000,-2.1083,rough,14.0,0,1.608
6520,208.64,-0.3303,4.0990,0.0201,-3.1416,0.0000,-2.1596,rough,14.0,0,1.607
6530,208.96,-0.3303,4.1003,0.0201,-3.1416,0.0000,-2.0814,rough,14.0,0,1.605
6540,209.28,-0.3303,4.1016,0.0201,-3.1416,0.0000,-2.1292,rough,14.0,0,1.604
6550,209.60,-0.3303,4.1029,0.0200,-3.1416,0.0000,-2.1704,rough,14.0,0,1.603
6560,209.92,-0.3303,4.1042,0.0201,-3.1416,0.0000,-2.0905,rough,14.0,0,1.602
6570,210.24,-0.3303,4.1055,0.0201,-3.1416,0.0000,-2.1393,rough,14.0,0,1.601
6580,210.56,-0.3303,4.1068,0.0200,-3.1416,0.0000,-2.1813,rough,14.0,0,1.600
6590,210.88,-0.3303,4.1081,0.0201,-3.1416,0.0000,-2.0997,rough,14.0,0,1.599
6600,211.20,-0.3303,4.1094,0.0201,-3.1416,0.0000,-2.1496,rough,14.0,0,1.598
6610,211.52,-0.3303,4.1107,0.0201,-3.1416,0.0000,-2.0733,rough,14.0,0,1.597
6620,211.84,-0.3303,4.1120,0.0201,-3.1416,0.0000,-2.1089,rough,14.0,0,1.595
6630,212.16,-0.3303,4.1133,0.0201,-3.1416,0.0000,-2.1600,rough,14.0,0,1.594
6640,212.48,-0.3303,4.1146,0.0201,-3.1416,0.0000,-2.0818,rough,14.0,0,1.593
6650,212.80,-0.3303,4.1159,0.0201,-3.1416,0.0000,-2.1296,rough,14.0,0,1.592
6660,213.12,-0.3303,4.1172,0.0201,-3.1416,0.0000,-2.1706,rough,14.0,0,1.591
6670,213.44,-0.3303,4.1185,0.0201,-3.1416,0.0000,-2.0906,rough,14.0,0,1.590
6680,213.76,-0.3303,4.1198,0.0201,-3.1416,0.0000,-2.1394,rough,14.0,0,1.589
6690,214.08,-0.3303,4.1211,0.0201,-3.1416,0.0000,-2.1813,rough,14.0,0,1.588
6700,214.40,-0.3303,4.1224,0.0201,-3.1416,0.0000,-2.0995,rough,14.0,0,1.587
6710,214.72,-0.3303,4.1237,0.0201,-3.1416,0.0000,-2.1493,rough,14.0,0,1.586
6720,215.04,-0.3303,4.1250,0.0201,-3.1416,0.0000,-2.0731,rough,14.0,0,1.585
6730,215.36,-0.3303,4.1263,0.0201,-3.1416,0.0000,-2.1086,rough,14.0,0,1.583
6740,215.68,-0.3303,4.1276,0.0201,-3.1416,0.0000,-2.1596,rough,14.0,0,1.582
6750,216.00,-0.3303,4.1289,0.0201,-3.1416,0.0000,-2.0815,rough,14.0,0,1.581
6760,216.32,-0.3303,4.1302,0.0201,-3.1416,0.0000,-2.1177,rough,14.0,0,1.580
6770,216.64,-0.3303,4.1315,0.0201,-3.1416,0.0000,-2.1701,rough,14.0,0,1.579
6780,216.96,-0.3303,4.1328,0.0201,-3.1416,0.0000,-2.0901,rough,14.0,0,1.578
6790,217.28,-0.3303,4.1341,0.0201,-3.1416,0.0000,-2.1389,rough,14.0,0,1.577
6800,217.60,-0.3303,4.1354,0.0201,-3.1416,0.0000,-2.1806,rough,14.0,0,1.576
6810,217.92,-0.3303,4.1367,0.0201,-3.1416,0.0000,-2.0989,rough,14.0,0,1.575
6820,218.24,-0.3303,4.1380,0.0201,-3.1416,0.0000,-2.1486,rough,14.0,0,1.574
6830,218.56,-0.3303,4.1393,0.0201,-3.1416,0.0000,-2.1910,rough,14.0,0,1.572
6840,218.88,-0.3303,4.1406,0.0201,-3.1416,0.0000,-2.1078,rough,14.0,0,1.571
6850,219.20,-0.3303,4.1419,0.0201,-3.1416,0.0000,-2.1587,rough,14.0,0,1.570
6860,219.52,-0.3303,4.1432,0.0201,-3.1416,0.0000,-2.0808,rough,14.0,0,1.569
6870,219.84,-0.3303,4.1445,0.0201,-3.1416,0.0000,-2.1169,rough,14.0,0,1.568
6880,220.16,-0.3303,4.1458,0.0201,-3.1416,0.0000,-2.1689,rough,14.0,0,1.567
6890,220.48,-0.3303,4.1471,0.0201,-3.1416,0.0000,-2.0892,rough,14.0,0,1.566
6900,220.80,-0.3303,4.1484,0.0201,-3.1416,0.0000,-2.1259,rough,14.0,0,1.565
6910,221.12,-0.3303,4.1497,0.0201,-3.1416,0.0000,-2.1792,rough,14.0,0,1.564
6920,221.44,-0.3303,4.1510,0.0201,-3.1416,0.0000,-2.0977,rough,14.0,0,1.563
6930,221.76,-0.3303,4.1523,0.0201,-3.1416,0.0000,-2.1473,rough,14.0,0,1.562
6940,222.08,-0.3303,4.1536,0.0201,-3.1416,0.0000,-2.1897,rough,14.0,0,1.560
6950,222.40,-0.3303,4.1549,0.0201,-3.1416,0.0000,-2.1065,rough,14.0,0,1.559
6960,222.72,-0.3303,4.1562,0.0201,-3.1416,0.0000,-2.1571,rough,14.0,0,1.558
6970,223.04,-0.3303,4.1575,0.0201,-3.1416,0.0000,-2.2002,rough,14.0,0,1.557
6980,223.36,-0.3303,4.1588,0.0201,-3.1416,0.0000,-2.1155,rough,14.0,0,1.556
6990,223.68,-0.3303,4.1601,0.0201,-3.1416,0.0000,-2.1671,rough,14.0,0,1.555
7000,224.00,-0.3303,4.1614,0.0201,-3.1416,0.0000,-2.0878,rough,14.0,0,1.554
7010,224.32,-0.3303,4.1627,0.0201,-3.1416,0.0000,-2.1245,rough,14.0,0,1.553
7020,224.64,-0.3303,4.1640,0.0201,-3.1416,0.0000,-2.1773,rough,14.0,0,1.552
7030,224.96,-0.3303,4.1653,0.0201,-3.1416,0.0000,-2.0961,rough,14.0,0,1.551
7040,225.28,-0.3303,4.1666,0.0201,-3.1416,0.0000,-2.1455,rough,14.0,0,1.550
7050,225.60,-0.3303,4.1679,0.0201,-3.1416,0.0000,-2.1877,rough,14.0,0,1.548
7060,225.92,-0.3303,4.1692,0.0201,-3.1416,0.0000,-2.1048,rough,14.0,0,1.547
7070,226.24,-0.3303,4.1705,0.0201,-3.1416,0.0000,-2.1552,rough,14.0,0,1.546
7080,226.56,-0.3303,4.1718,0.0201,-3.1416,0.0000,-2.1982,rough,14.0,0,1.545
7090,226.88,-0.3303,4.1731,0.0201,-3.1416,0.0000,-2.1135,rough,14.0,0,1.544
7100,227.20,-0.3303,4.1744,0.0201,-3.1416,0.0000,-2.1650,rough,14.0,0,1.543
7110,227.52,-0.3303,4.1757,0.0201,-3.1416,0.0000,-2.2086,rough,14.0,0,1.542
7120,227.84,-0.3303,4.1770,0.0201,-3.1416,0.0000,-2.1224,rough,14.0,0,1.541
7130,228.16,-0.3303,4.1783,0.0201,-3.1416,0.0000,-2.1749,rough,14.0,0,1.540
7140,228.48,-0.3303,4.1796,0.0201,-3.1416,0.0000,-2.0942,rough,14.0,0,1.539
7150,228.80,-0.3303,4.1809,0.0201,-3.1416,0.0000,-2.1313,rough,14.0,0,1.538
7160,229.12,-0.3303,4.1822,0.0201,-3.1416,0.0000,-2.1852,rough,14.0,0,1.537
7170,229.44,-0.3303,4.1835,0.0201,-3.1416,0.0000,-2.1027,rough,14.0,0,1.535
7180,229.76,-0.3303,4.1848,0.0201,-3.1416,0.0000,-2.1528,rough,14.0,0,1.534
7190,230.08,-0.3303,4.1861,0.0201,-3.1416,0.0000,-2.1956,rough,14.0,0,1.533
7200,230.40,-0.3303,4.1874,0.0201,-3.1416,0.0000,-2.1113,rough,14.0,0,1.532
7210,230.72,-0.3303,4.1887,0.0201,-3.1416,0.0000,-2.1624,rough,14.0,0,1.531
7220,231.04,-0.3303,4.1900,0.0201,-3.1416,0.0000,-2.2060,rough,14.0,0,1.530
7230,231.36,-0.3303,4.1913,0.0201,-3.1416,0.0000,-2.1200,rough,14.0,0,1.529
7240,231.68,-0.3303,4.1926,0.0201,-3.1416,0.0000,-2.1721,rough,14.0,0,1.528
7250,232.00,-0.3303,4.1939,0.0201,-3.1416,0.0000,-2.2163,rough,14.0,0,1.527
7260,232.32,-0.3303,4.1952,0.0201,-3.1416,0.0000,-2.1288,rough,14.0,0,1.526
7270,232.64,-0.3303,4.1965,0.0201,-3.1416,0.0000,-2.1820,rough,14.0,0,1.525
7280,232.96,-0.3303,4.1978,0.0201,-3.1416,0.0000,-2.1001,rough,14.0,0,1.524
7290,233.28,-0.3303,4.1991,0.0201,-3.1416,0.0000,-2.1376,rough,14.0,0,1.522
7300,233.60,-0.3303,4.2004,0.0201,-3.1416,0.0000,-2.1922,rough,14.0,0,1.521
7310,233.92,-0.3303,4.2017,0.0201,-3.1416,0.0000,-2.1085,rough,14.0,0,1.520
7320,234.24,-0.3303,4.2030,0.0201,-3.1416,0.0000,-2.1593,rough,14.0,0,1.519
7330,234.56,-0.3303,4.2043,0.0201,-3.1416,0.0000,-2.2026,rough,14.0,0,1.518
7340,234.88,-0.3303,4.2056,0.0202,-3.1416,0.0000,-2.1171,rough,14.0,0,1.517
7350,235.20,-0.3303,4.2069,0.0201,-3.1416,0.0000,-2.1689,rough,14.0,0,1.516
7360,235.52,-0.3303,4.2082,0.0201,-3.1416,0.0000,-2.2130,rough,14.0,0,1.515
7370,235.84,-0.3303,4.2095,0.0202,-3.1416,0.0000,-2.1258,rough,14.0,0,1.514
7380,236.16,-0.3303,4.2108,0.0201,-3.1416,0.0000,-2.1786,rough,14.0,0,1.513
7390,236.48,-0.3303,4.2121,0.0201,-3.1416,0.0000,-2.2232,rough,14.0,0,1.512
7400,236.80,-0.3303,4.2134,0.0202,-3.1416,0.0000,-2.1346,rough,14.0,0,1.511
7410,237.12,-0.3303,4.2147,0.0202,-3.1416,0.0000,-2.1884,rough,14.0,0,1.510
7420,237.44,-0.3303,4.2160,0.0202,-3.1416,0.0000,-2.1054,rough,14.0,0,1.508
7430,237.76,-0.3303,4.2173,0.0202,-3.1416,0.0000,-2.1435,rough,14.0,0,1.507
7440,238.08,-0.3303,4.2186,0.0202,-3.1416,0.0000,-2.1984,rough,14.0,0,1.506
7450,238.40,-0.3303,4.2199,0.0202,-3.1416,0.0000,-2.1137,rough,14.0,0,1.505
7460,238.72,-0.3303,4.2212,0.0201,-3.1416,0.0000,-2.1650,rough,14.0,0,1.504
7470,239.04,-0.3303,4.2225,0.0202,-3.1416,0.0000,-2.2087,rough,14.0,0,1.503
7480,239.36,-0.3303,4.2238,0.0202,-3.1416,0.0000,-2.1222,rough,14.0,0,1.502
7490,239.68,-0.3303,4.2251,0.0202,-3.1416,0.0000,-2.1745,rough,14.0,0,1.501
7500,240.00,-0.3303,4.2264,0.0201,-3.1416,0.0000,-2.2190,rough,14.0,0,1.500
7510,240.32,-0.3303,4.2277,0.0202,-3.1416,0.0000,-2.1308,rough,14.0,0,1.499
7520,240.64,-0.3303,4.2290,0.0202,-3.1416,0.0000,-2.1842,rough,14.0,0,1.498
7530,240.96,-0.3303,4.2303,0.0201,-3.1416,0.0000,-2.2293,rough,14.0,0,1.497
7540,241.28,-0.3303,4.2316,0.0202,-3.1416,0.0000,-2.1396,rough,14.0,0,1.496
7550,241.60,-0.3303,4.2329,0.0202,-3.1416,0.0000,-2.1940,rough,14.0,0,1.495
7560,241.92,-0.3303,4.2342,0.0202,-3.1416,0.0000,-2.1100,rough,14.0,0,1.493
7570,242.24,-0.3303,4.2355,0.0202,-3.1416,0.0000,-2.1485,rough,14.0,0,1.492
7580,242.56,-0.3303,4.2368,0.0202,-3.1416,0.0000,-2.2040,rough,14.0,0,1.491
7590,242.88,-0.3303,4.2381,0.0202,-3.1416,0.0000,-2.1183,rough,14.0,0,1.490
7600,243.20,-0.3303,4.2394,0.0202,-3.1416,0.0000,-2.1573,rough,14.0,0,1.489
7610,243.52,-0.3303,4.2407,0.0202,-3.1416,0.0000,-2.2141,rough,14.0,0,1.488
7620,243.84,-0.3303,4.2420,0.0202,-3.1416,0.0000,-2.1267,rough,14.0,0,1.487
7630,244.16,-0.3303,4.2433,0.0202,-3.1416,0.0000,-2.1795,rough,14.0,0,1.486
7640,244.48,-0.3303,4.2446,0.0202,-3.1416,0.0000,-2.2244,rough,14.0,0,1.485
7650,244.80,-0.3303,4.2459,0.0202,-3.1416,0.0000,-2.1353,rough,14.0,0,1.484
7660,245.12,-0.3303,4.2472,0.0202,-3.1416,0.0000,-2.1891,rough,14.0,0,1.483
7670,245.44,-0.3303,4.2485,0.0201,-3.1416,0.0000,-2.2346,rough,14.0,0,1.482
7680,245.76,-0.3303,4.2498,0.0202,-3.1416,0.0000,-2.1440,rough,14.0,0,1.481
7690,246.08,-0.3303,4.2511,0.0202,-3.1416,0.0000,-2.1990,rough,14.0,0,1.480
7700,246.40,-0.3303,4.2524,0.0202,-3.1416,0.0000,-2.1141,rough,14.0,0,1.478
7710,246.72,-0.3303,4.2538,0.0202,-3.1416,0.0000,-2.1528,rough,14.0,0,1.477
7720,247.04,-0.3303,4.2551,0.0202,-3.1416,0.0000,-2.2089,rough,14.0,0,1.476
7730,247.36,-0.3303,4.2564,0.0202,-3.1416,0.0000,-2.1224,rough,14.0,0,1.475
7740,247.68,-0.3303,4.2577,0.0202,-3.1416,0.0000,-2.1616,rough,14.0,0,1.474
7750,248.00,-0.3303,4.2590,0.0202,-3.1416,0.0000,-2.2190,rough,14.0,0,1.473
7760,248.32,-0.3303,4.2603,0.0202,-3.1416,0.0000,-2.1307,rough,14.0,0,1.472
7770,248.64,-0.3303,4.2616,0.0202,-3.1416,0.0000,-2.1840,rough,14.0,0,1.471
7780,248.96,-0.3303,4.2629,0.0202,-3.1416,0.0000,-2.2292,rough,14.0,0,1.470
7790,249.28,-0.3303,4.2642,0.0202,-3.1416,0.0000,-2.1392,rough,14.0,0,1.469
7800,249.60,-0.3303,4.2655,0.0202,-3.1416,0.0000,-2.1935,rough,14.0,0,1.468
7810,249.92,-0.3303,4.2668,0.0202,-3.1416,0.0000,-2.2386,rough,14.0,0,1.467
7820,250.24,-0.3303,4.2681,0.0202,-3.1416,0.0000,-2.1472,rough,14.0,0,1.466
7830,250.56,-0.3303,4.2694,0.0202,-3.1416,0.0000,-2.2024,rough,14.0,0,1.465
7840,250.88,-0.3303,4.2707,0.0202,-3.1416,0.0000,-2.2488,rough,14.0,0,1.464
7850,251.20,-0.3303,4.2720,0.0202,-3.1416,0.0000,-2.1548,rough,14.0,0,1.463
7860,251.52,-0.3303,4.2733,0.0202,-3.1416,0.0000,-2.2109,rough,14.0,0,1.461
7870,251.84,-0.3303,4.2746,0.0202,-3.1416,0.0000,-2.1241,rough,14.0,0,1.460
7880,252.16,-0.3303,4.2759,0.0202,-3.1416,0.0000,-2.1621,rough,14.0,0,1.459
7890,252.48,-0.3303,4.2772,0.0202,-3.1416,0.0000,-2.2193,rough,14.0,0,1.458
7900,252.80,-0.3303,4.2785,0.0202,-3.1416,0.0000,-2.1310,rough,14.0,0,1.457
7910,253.12,-0.3303,4.2798,0.0202,-3.1416,0.0000,-2.1709,rough,14.0,0,1.456
7920,253.44,-0.3303,4.2811,0.0202,-3.1416,0.0000,-2.2274,rough,14.0,0,1.455
7930,253.76,-0.3303,4.2824,0.0202,-3.1416,0.0000,-2.1377,rough,14.0,0,1.454
7940,254.08,-0.3303,4.2837,0.0202,-3.1416,0.0000,-2.1919,rough,14.0,0,1.453
