step,time_s,x,y,z,roll,pitch,yaw,terrain,speed,target_idx,dist_to_target
10,0.32,1.0678,-0.7750,0.1839,-0.0000,-0.0331,-0.0000,rough,14.0,0,5.685
20,0.64,1.4715,-0.7820,0.1793,0.0001,0.0031,-0.1386,rough,14.0,0,5.383
30,0.96,1.8829,-0.8488,0.1799,-0.0001,-0.0000,-0.2755,rough,14.0,0,5.046
40,1.28,2.2869,-0.9729,0.1799,-0.0001,-0.0000,-0.3763,rough,14.0,0,4.683
50,1.60,2.6780,-1.1363,0.1799,0.0001,-0.0000,-0.4668,rough,14.0,0,4.309
60,1.92,3.0525,-1.3364,0.1799,-0.0000,-0.0000,-0.5493,rough,14.0,0,3.923
70,2.24,3.4154,-1.5685,0.1799,-0.0002,-0.0000,-0.6082,rough,14.0,0,3.526
80,2.56,3.7636,-1.8218,0.1799,-0.0002,-0.0000,-0.6667,rough,14.0,0,3.128
90,2.88,4.0943,-2.0953,0.1799,-0.0002,0.0000,-0.7287,rough,14.0,0,2.728
100,3.20,4.4050,-2.3893,0.1799,-0.0002,0.0000,-0.7950,rough,14.0,0,2.329
110,3.52,4.6943,-2.7037,0.1799,-0.0002,-0.0000,-0.8646,rough,14.0,0,1.930
120,3.84,4.9612,-3.0373,0.1799,-0.0001,0.0001,-0.9446,rough,14.0,0,1.532
130,4.16,5.1985,-3.3885,0.1788,-0.0069,-0.0019,-1.0322,rough,14.0,0,1.141
140,4.48,5.3778,-3.7392,0.2010,0.0309,-0.1040,-1.1445,rough,14.0,1,0.782
150,4.80,5.4444,-3.8634,0.1990,-0.0215,-0.1542,-0.5653,rough,14.0,1,12.204
160,5.12,5.6346,-3.9771,0.2373,0.0142,-0.1899,-0.2404,rough,14.0,1,12.380
170,5.44,5.8683,-3.9863,0.2907,-0.0870,-0.2697,0.0974,rough,14.0,1,12.477
180,5.76,6.0499,-3.9226,0.3414,-0.1254,-0.2844,0.2153,rough,14.0,1,12.490
190,6.08,6.2490,-3.8395,0.3942,-0.1407,-0.2660,0.3677,rough,14.0,1,12.496
200,6.40,6.4369,-3.7152,0.4488,-0.1944,-0.2595,0.5626,rough,14.0,1,12.464
210,6.72,6.6572,-3.5195,0.5039,-0.2668,-0.1744,0.7598,rough,14.0,1,12.387
220,7.04,6.8646,-3.2458,0.5342,-0.2975,-0.0346,0.9366,rough,14.0,1,12.242
230,7.36,7.0227,-2.9171,0.5268,-0.3673,0.0438,1.1036,rough,14.0,1,12.032
240,7.68,7.1386,-2.5486,0.4910,-0.3972,0.1235,1.2472,rough,14.0,1,11.774
250,8.00,7.2054,-2.1619,0.4320,-0.4301,0.1333,1.3921,rough,14.0,1,11.481
260,8.32,7.2343,-1.7569,0.3662,-0.4150,0.1534,1.5217,rough,14.0,1,11.158
270,8.64,7.2121,-1.3629,0.3155,-0.3889,0.0516,1.6778,rough,14.0,1,10.820
280,8.96,7.1825,-0.9236,0.2599,-0.1766,0.1459,1.7356,rough,14.0,1,10.446
290,9.28,7.0966,-0.5117,0.2168,-0.1073,0.0968,1.8116,rough,14.0,1,10.064
300,9.60,6.9861,-0.1079,0.1900,-0.0448,0.0117,1.8754,rough,14.0,1,9.677
310,9.92,6.8533,0.3052,0.1783,0.0076,-0.0021,1.9157,rough,14.0,1,9.271
320,10.24,6.6984,0.7154,0.1797,0.0009,-0.0002,1.9507,rough,14.0,1,8.856
330,10.56,6.5324,1.1194,0.1798,0.0002,-0.0000,1.9911,rough,14.0,1,8.440
340,10.88,6.3499,1.5177,0.1799,0.0001,-0.0000,2.0276,rough,14.0,1,8.020
350,11.20,6.1527,1.9098,0.1799,0.0001,-0.0000,2.0590,rough,14.0,1,7.597
360,11.52,5.9431,2.2960,0.1799,0.0001,-0.0000,2.0860,rough,14.0,1,7.172
370,11.84,5.7217,2.6463,0.1942,-0.0430,-0.0394,2.1033,rough,14.0,1,6.765
380,12.16,5.4990,3.0059,0.1786,0.0178,0.0144,2.0898,rough,14.0,1,6.353
390,12.48,5.2917,3.3102,0.2175,-0.0648,-0.1750,2.0749,rough,14.0,1,5.991
400,12.80,5.1071,3.6328,0.2230,-0.1699,-0.0466,1.8926,rough,14.0,1,5.634
410,13.12,4.9824,3.8667,0.3073,-0.3439,-0.6288,2.0502,rough,14.0,1,5.384
420,13.44,4.7951,4.1153,0.3738,-0.4231,-0.2938,1.9987,rough,14.0,1,5.078
430,13.76,4.5956,4.4024,0.4602,-0.5976,-0.4512,2.1521,rough,14.0,1,4.738
440,14.08,4.3565,4.6499,0.5505,-0.6323,-0.3831,2.1730,rough,14.0,1,4.395
450,14.40,4.1173,4.9287,0.6374,-0.6429,-0.3122,2.2124,rough,14.0,1,4.033
460,14.72,3.8633,5.2304,0.7509,-0.6482,-0.3175,2.2622,rough,14.0,1,3.645
470,15.04,3.5918,5.5175,0.8809,-0.6607,-0.3380,2.3493,rough,14.0,1,3.254
480,15.36,3.2891,5.7825,0.9963,-0.6578,-0.3195,2.3818,rough,14.0,1,2.853
490,15.68,2.9777,6.0260,1.1039,-0.6681,-0.2962,2.4031,rough,14.0,1,2.457
500,16.00,2.6555,6.2568,1.1713,-0.6358,-0.2283,2.4038,rough,14.0,1,2.061
510,16.32,2.3316,6.5074,1.2445,-0.6548,-0.2309,2.4060,rough,14.0,1,1.652
520,16.64,2.0139,6.8005,1.3401,-0.6121,-0.2295,2.3932,rough,14.0,1,1.222
530,16.96,1.7044,7.0613,1.4416,-0.5984,-0.2956,2.4294,rough,14.0,1,0.819
540,17.28,1.4121,7.1819,1.4629,-0.6629,-0.0344,2.8105,rough,14.0,2,15.262
550,17.60,1.1331,7.1608,1.3904,-0.6086,0.2325,-3.0560,rough,14.0,2,15.077
560,17.92,0.8542,7.0478,1.2577,-0.5376,0.4287,-2.7748,rough,14.0,2,14.820
570,18.24,0.5816,6.8671,1.0934,-0.4038,0.4907,-2.4469,rough,14.0,2,14.514
580,18.56,0.3653,6.6145,0.9120,-0.2887,0.4664,-2.2225,rough,14.0,2,14.182
590,18.88,0.1905,6.3327,0.7413,-0.2045,0.5015,-1.9891,rough,14.0,2,13.851
600,19.20,0.0714,5.9897,0.5539,-0.1249,0.4658,-1.8373,rough,14.0,2,13.504
610,19.52,-0.0446,5.6200,0.3790,-0.1160,0.3994,-1.8926,rough,14.0,2,13.137
620,19.84,-0.1933,5.2457,0.2548,0.0073,0.3155,-1.9113,rough,14.0,2,12.749
630,20.16,-0.3231,4.8890,0.1952,-0.0182,0.0795,-1.9635,rough,14.0,2,12.387
640,20.48,-0.4949,4.5034,0.1764,0.0227,0.0004,-1.9977,rough,14.0,2,11.977
650,20.80,-0.6762,4.1105,0.1797,0.0012,-0.0000,-2.0483,rough,14.0,2,11.556
660,21.12,-0.8779,3.7371,0.1868,0.0028,-0.0450,-2.0836,rough,14.0,2,11.139
670,21.44,-1.1115,3.3582,0.1834,0.0509,0.0198,-2.1176,rough,14.0,2,10.698
680,21.76,-1.3395,2.9873,0.1844,0.0081,0.0124,-2.1541,rough,14.0,2,10.266
690,22.08,-1.5845,2.6271,0.1801,-0.0022,0.0003,-2.1850,rough,14.0,2,9.833
700,22.40,-1.8404,2.2731,0.1824,0.0041,-0.0196,-2.2121,rough,14.0,2,9.397
710,22.72,-2.1005,1.9330,0.2009,0.0037,-0.0628,-2.2451,rough,14.0,2,8.970
720,23.04,-2.3801,1.5879,0.2198,-0.0074,-0.0181,-2.2734,rough,14.0,2,8.526
730,23.36,-2.6781,1.2464,0.2159,-0.0122,0.0515,-2.3022,rough,14.0,2,8.072
740,23.68,-2.9752,0.9221,0.1898,-0.0285,0.0562,-2.3339,rough,14.0,2,7.633
750,24.00,-3.2761,0.6200,0.1806,-0.0127,-0.0116,-2.3557,rough,14.0,2,7.208
760,24.32,-3.5827,0.3158,0.1952,-0.0218,-0.0461,-2.3795,rough,14.0,2,6.778
770,24.64,-3.9054,0.0218,0.2158,-0.0117,-0.0483,-2.4042,rough,14.0,2,6.346
780,24.96,-4.2364,-0.2752,0.2229,-0.0340,-0.0192,-2.4296,rough,14.0,2,5.908
790,25.28,-4.5831,-0.5656,0.2077,-0.0248,0.0454,-2.4594,rough,14.0,2,5.466
800,25.60,-4.9264,-0.8382,0.1928,-0.0128,0.0245,-2.4878,rough,14.0,2,5.042
810,25.92,-5.2088,-0.9870,0.1889,0.0204,-0.0190,-2.2991,rough,14.0,2,4.758
820,26.24,-5.4883,-1.3198,0.1965,-0.0275,-0.0497,-2.2756,rough,14.0,2,4.325
830,26.56,-5.7750,-1.6579,0.2172,-0.0164,-0.0396,-2.2602,rough,14.0,2,3.885
840,26.88,-6.0597,-2.0145,0.2243,-0.0308,0.0322,-2.2453,rough,14.0,2,3.431
850,27.20,-6.3376,-2.3632,0.2015,-0.0066,0.0397,-2.2309,rough,14.0,2,2.989
860,27.52,-6.6085,-2.7176,0.1880,-0.0049,0.0494,-2.2136,rough,14.0,2,2.545
870,27.84,-6.8614,-3.0643,0.1850,-0.0208,-0.0322,-2.1943,rough,14.0,2,2.119
880,28.16,-7.1101,-3.4284,0.1930,-0.0440,-0.0243,-2.1727,rough,14.0,2,1.680
890,28.48,-7.3526,-3.7931,0.2027,-0.0408,-0.0206,-2.1470,rough,14.0,2,1.245
900,28.80,-7.5897,-4.1759,0.1905,-0.0314,0.0378,-2.1162,rough,14.0,3,0.799
910,29.12,-7.8071,-4.5200,0.1813,-0.0079,0.0024,-2.1193,rough,14.0,0,13.152
920,29.44,-7.9293,-4.8056,0.1796,-0.0004,-0.0017,-1.8010,rough,14.0,0,13.277
930,29.76,-7.9985,-5.1106,0.1797,0.0002,0.0000,-1.4805,rough,14.0,0,13.356
940,30.08,-7.9638,-5.4236,0.1799,0.0000,-0.0001,-1.1990,rough,14.0,0,13.339
950,30.40,-7.8209,-5.7492,0.1851,-0.0007,-0.0354,-1.0291,rough,14.0,0,13.223
960,30.72,-7.6027,-6.0654,0.1920,-0.0363,-0.0324,-0.8809,rough,14.0,0,13.039
970,31.04,-7.3402,-6.3502,0.1983,-0.0453,0.0199,-0.7376,rough,14.0,0,12.816
980,31.36,-7.0329,-6.6056,0.1893,-0.0271,0.0357,-0.6156,rough,14.0,0,12.552
990,31.68,-6.6912,-6.8258,0.1808,-0.0010,0.0064,-0.5202,rough,14.0,0,12.255
1000,32.00,-6.3175,-7.0176,0.1794,0.0011,-0.0018,-0.4048,rough,14.0,0,11.927
1010,32.32,-5.9220,-7.1776,0.1814,-0.0005,-0.0107,-0.3004,rough,14.0,0,11.576
1020,32.64,-5.5042,-7.2974,0.1795,-0.0141,0.0205,-0.2154,rough,14.0,0,11.199
1030,32.96,-5.0938,-7.3876,0.1908,0.0135,-0.0235,-0.1877,rough,14.0,0,10.825
1040,33.28,-4.6820,-7.4721,0.1970,0.0419,-0.0109,-0.1401,rough,14.0,0,10.452
1050,33.60,-4.2493,-7.5301,0.1944,0.0490,0.0143,-0.0674,rough,14.0,0,10.055
1060,33.92,-3.8126,-7.5518,0.1886,0.0437,0.0244,-0.0081,rough,14.0,0,9.646
1070,34.24,-3.3801,-7.5476,0.1853,0.0170,-0.0012,0.0448,rough,14.0,0,9.235
1080,34.56,-2.9473,-7.5139,0.1854,-0.0347,-0.0262,0.0917,rough,14.0,0,8.816
1090,34.88,-2.5050,-7.4637,0.1854,-0.0308,-0.0021,0.1286,rough,14.0,0,8.383
1100,35.20,-2.0683,-7.3957,0.1866,-0.0340,0.0013,0.1594,rough,14.0,0,7.951
1110,35.52,-1.6400,-7.3243,0.1874,-0.0086,-0.0383,0.1873,rough,14.0,0,7.526
1120,35.84,-1.2057,-7.2441,0.1988,0.0136,-0.0321,0.2137,rough,14.0,0,7.094
1130,36.16,-0.7718,-7.1535,0.2146,0.0440,-0.0243,0.2378,rough,14.0,0,6.659
1140,36.48,-0.3354,-7.0491,0.2182,0.0636,0.0054,0.2548,rough,14.0,0,6.218
1150,36.80,0.0996,-6.9248,0.1946,0.0121,0.0611,0.2746,rough,14.0,0,5.770
1160,37.12,0.5180,-6.8050,0.1821,0.0056,0.0058,0.2812,rough,14.0,0,5.340
1170,37.44,0.9433,-6.6798,0.1798,-0.0002,0.0007,0.2895,rough,14.0,0,4.903
1180,37.76,1.3669,-6.5506,0.1799,0.0000,-0.0001,0.3080,rough,14.0,0,4.466
1190,38.08,1.7884,-6.4144,0.1805,-0.0003,-0.0039,0.3216,rough,14.0,0,4.029
1200,38.40,2.2054,-6.2702,0.1857,-0.0190,-0.0158,0.3308,rough,14.0,0,3.594
1210,38.72,2.6157,-6.1204,0.1938,-0.0471,-0.0250,0.3407,rough,14.0,0,3.164
1220,39.04,3.0362,-5.9646,0.1903,-0.0490,0.0056,0.3582,rough,14.0,0,2.723
1230,39.36,3.4481,-5.8038,0.1877,-0.0395,0.0013,0.3813,rough,14.0,0,2.290
1240,39.68,3.8568,-5.6384,0.1789,0.0043,-0.0112,0.4062,rough,14.0,0,1.861
1250,40.00,4.2543,-5.4620,0.1845,-0.0028,-0.0297,0.4273,rough,14.0,0,1.441
1260,40.32,4.6424,-5.2713,0.1925,-0.0395,-0.0336,0.4548,rough,14.0,0,1.028
1270,40.64,4.9895,-5.0845,0.2050,-0.0377,-0.0371,0.5916,rough,14.0,1,13.205
1280,40.96,5.2324,-4.8811,0.2253,-0.0395,-0.0934,0.7972,rough,14.0,1,13.088
1290,41.28,5.4528,-4.5747,0.2403,-0.1647,-0.0255,0.9675,rough,14.0,1,12.872
1300,41.60,5.6252,-4.2386,0.2530,-0.2052,-0.0287,1.1325,rough,14.0,1,12.619
1310,41.92,5.7421,-3.8552,0.2596,-0.2531,0.0194,1.2644,rough,14.0,1,12.307
1320,42.24,5.8275,-3.4530,0.2409,-0.2537,0.0398,1.3838,rough,14.0,1,11.971
1330,42.56,5.8898,-3.0399,0.2196,-0.2076,0.0128,1.4655,rough,14.0,1,11.620
1340,42.88,5.9198,-2.6215,0.2024,-0.1117,0.0085,1.5695,rough,14.0,1,11.254
1350,43.20,5.9188,-2.1961,0.1799,0.0015,-0.0010,1.6392,rough,14.0,1,10.873
1360,43.52,5.8792,-1.7652,0.1789,0.0036,0.0000,1.7118,rough,14.0,1,10.471
1370,43.84,5.8134,-1.3355,0.1798,0.0006,-0.0000,1.7761,rough,14.0,1,10.061
1380,44.16,5.7206,-0.9093,0.1799,0.0002,-0.0000,1.8294,rough,14.0,1,9.643
1390,44.48,5.6052,-0.4874,0.1799,0.0001,-0.0000,1.8745,rough,14.0,1,9.219
1400,44.80,5.4709,-0.0701,0.1799,0.0001,-0.0000,1.9135,rough,14.0,1,8.791
1410,45.12,5.3252,0.3441,0.1799,0.0001,-0.0000,1.9248,rough,14.0,1,8.360
1420,45.44,5.1699,0.7581,0.1799,0.0001,-0.0000,1.9441,rough,14.0,1,7.926
1430,45.76,5.0065,1.1696,0.1799,0.0000,-0.0000,1.9618,rough,14.0,1,7.490
1440,46.08,4.8358,1.5784,0.1799,0.0000,-0.0000,1.9780,rough,14.0,1,7.053
1450,46.40,4.6585,1.9848,0.1799,0.0000,-0.0000,1.9931,rough,14.0,1,6.616
1460,46.72,4.4750,2.3888,0.1799,0.0000,-0.0000,2.0071,rough,14.0,1,6.178
1470,47.04,4.2858,2.7903,0.1799,0.0000,-0.0000,2.0203,rough,14.0,1,5.740
1480,47.36,4.0913,3.1896,0.1799,0.0000,-0.0000,2.0328,rough,14.0,1,5.301
1490,47.68,3.8918,3.5865,0.1799,0.0000,-0.0000,2.0447,rough,14.0,1,4.863
1500,48.00,3.6816,3.9824,0.1840,-0.0147,0.0306,2.0537,rough,14.0,1,4.420
1510,48.32,3.4996,4.3114,0.2231,-0.0251,-0.2884,2.0672,rough,14.0,1,4.048
1520,48.64,3.2606,4.6778,0.2526,-0.2253,-0.1659,2.0482,rough,14.0,1,3.612
1530,48.96,3.0654,4.9712,0.3315,-0.3843,-0.4271,2.1694,rough,14.0,1,3.261
1540,49.28,2.8176,5.2733,0.4747,-0.5119,-0.3751,2.1946,rough,14.0,1,2.870
1550,49.60,2.5673,5.5238,0.5934,-0.5178,-0.3478,2.2777,rough,14.0,1,2.518
1560,49.92,2.2856,5.7656,0.6984,-0.5576,-0.3544,2.2837,rough,14.0,1,2.156
1570,50.24,2.0073,6.0548,0.8174,-0.5550,-0.2774,2.2794,rough,14.0,1,1.759
1580,50.56,1.7372,6.3529,0.9427,-0.5826,-0.3559,2.2925,rough,14.0,1,1.362
1590,50.88,1.4696,6.6472,1.0797,-0.5490,-0.3630,2.2667,rough,14.0,1,0.973
1600,51.20,1.2255,6.8736,1.1903,-0.6197,-0.3055,2.4799,rough,14.0,2,14.904
1610,51.52,0.9507,6.9620,1.2080,-0.6599,-0.0502,2.8638,rough,14.0,2,14.808
1620,51.84,0.6680,6.9436,1.1506,-0.5859,0.1697,-3.0616,rough,14.0,2,14.626
1630,52.16,0.3726,6.8338,1.0506,-0.5249,0.2763,-2.7775,rough,14.0,2,14.365
1640,52.48,0.0800,6.6579,0.9247,-0.4031,0.3313,-2.5362,rough,14.0,2,14.054
1650,52.80,-0.1888,6.4122,0.7797,-0.3291,0.3875,-2.3412,rough,14.0,2,13.699
1660,53.12,-0.4148,6.1186,0.6215,-0.2488,0.4116,-2.1590,rough,14.0,2,13.329
1670,53.44,-0.6087,5.7873,0.4550,-0.1640,0.4316,-2.0133,rough,14.0,2,12.946
1680,53.76,-0.7282,5.4385,0.3062,-0.1393,0.3858,-1.8500,rough,14.0,2,12.591
1690,54.08,-0.8174,5.0885,0.2147,-0.0204,0.1333,-1.7154,rough,14.0,2,12.253
1700,54.40,-0.8429,4.7056,0.1809,0.0101,0.0184,-1.5521,rough,14.0,2,11.928
1710,54.72,-0.8278,4.2986,0.1796,0.0012,-0.0004,-1.5151,rough,14.0,2,11.611
1720,55.04,-0.8154,3.8731,0.1754,-0.0193,0.0034,-1.6335,rough,14.0,2,11.284
1730,55.36,-0.8631,3.4473,0.1929,0.0268,-0.0403,-1.6863,rough,14.0,2,10.925
1740,55.68,-0.9279,3.0107,0.1928,0.0164,0.0197,-1.7676,rough,14.0,2,10.552
1750,56.00,-1.0234,2.5901,0.1825,0.0022,0.0118,-1.8308,rough,14.0,2,10.175
1760,56.32,-1.1400,2.1762,0.1802,-0.0046,-0.0038,-1.8948,rough,14.0,2,9.793
1770,56.64,-1.2803,1.7664,0.1817,-0.0094,-0.0029,-1.9439,rough,14.0,2,9.401
1780,56.96,-1.4393,1.3639,0.1836,-0.0150,-0.0078,-1.9874,rough,14.0,2,9.005
1790,57.28,-1.6189,0.9635,0.1830,-0.0151,0.0044,-2.0162,rough,14.0,2,8.598
1800,57.60,-1.8132,0.5669,0.1804,-0.0020,0.0017,-2.0405,rough,14.0,2,8.187
1810,57.92,-2.0149,0.1770,0.1798,-0.0001,0.0000,-2.0730,rough,14.0,2,7.777
1820,58.24,-2.2296,-0.2038,0.1799,-0.0001,0.0000,-2.1109,rough,14.0,2,7.367
1830,58.56,-2.4590,-0.5761,0.1810,0.0026,-0.0046,-2.1453,rough,14.0,2,6.954
1840,58.88,-2.7010,-0.9315,0.1889,0.0226,-0.0321,-2.1698,rough,14.0,2,6.545
1850,59.20,-2.9592,-1.2839,0.1945,0.0486,-0.0108,-2.1992,rough,14.0,2,6.127
1860,59.52,-3.2247,-1.6362,0.1938,0.0488,0.0106,-2.2312,rough,14.0,2,5.705
1870,59.84,-3.4988,-1.9816,0.1845,0.0097,0.0152,-2.2654,rough,14.0,2,5.284
1880,60.16,-3.7805,-2.3020,0.1818,0.0133,-0.0082,-2.3086,rough,14.0,2,4.873
1890,60.48,-4.0768,-2.6153,0.1913,0.0243,-0.0235,-2.3445,rough,14.0,2,4.456
1900,60.80,-4.3829,-2.9160,0.2020,0.0208,-0.0470,-2.3804,rough,14.0,2,4.040
1910,61.12,-4.7127,-3.2108,0.2122,0.0640,0.0036,-2.4087,rough,14.0,2,3.609
1920,61.44,-5.0452,-3.5069,0.1982,0.0408,0.0541,-2.4427,rough,14.0,2,3.178
1930,61.76,-5.3802,-3.7834,0.1848,0.0020,0.0320,-2.4798,rough,14.0,2,2.757
1940,62.08,-5.7255,-4.0418,0.1801,0.0012,-0.0029,-2.5171,rough,14.0,2,2.338
1950,62.40,-6.0764,-4.2797,0.1909,0.0155,-0.0516,-2.5647,rough,14.0,2,1.925
1960,62.72,-6.4565,-4.4935,0.1932,0.0738,-0.0129,-2.6137,rough,14.0,2,1.498
1970,63.04,-6.8461,-4.7020,0.1954,0.0530,0.0245,-2.6683,rough,14.0,2,1.069
1980,63.36,-7.2297,-4.8852,0.1852,0.0065,0.0282,-2.7363,rough,14.0,3,1.190
1990,63.68,-7.6232,-5.0294,0.1799,0.0003,0.0004,-2.8340,rough,14.0,3,0.809
2000,64.00,-7.8301,-5.0800,0.1777,0.0014,0.0128,-2.4477,rough,14.0,0,13.187
2010,64.32,-8.0230,-5.2968,0.1798,0.0002,-0.0005,-2.0707,rough,14.0,0,13.390
2020,64.64,-8.1470,-5.5618,0.1797,0.0000,0.0000,-1.7339,rough,14.0,0,13.532
2030,64.96,-8.1938,-5.8470,0.1850,0.0015,-0.0384,-1.4017,rough,14.0,0,13.603
2040,65.28,-8.1290,-6.1463,0.2017,-0.0260,-0.0649,-1.1588,rough,14.0,0,13.571
2050,65.60,-7.9888,-6.4552,0.2197,-0.0145,-0.0424,-0.9441,rough,14.0,0,13.473
2060,65.92,-7.7302,-6.7540,0.2212,-0.0321,0.0267,-0.7845,rough,14.0,0,13.264
2070,66.24,-7.4192,-7.0191,0.2045,-0.0054,0.0569,-0.6460,rough,14.0,0,13.006
2080,66.56,-7.0823,-7.2382,0.1859,-0.0017,0.0353,-0.5193,rough,14.0,0,12.721
2090,66.88,-6.7219,-7.4311,0.1827,-0.0084,-0.0124,-0.4071,rough,14.0,0,12.413
2100,67.20,-6.3308,-7.5887,0.1889,-0.0228,-0.0295,-0.2988,rough,14.0,0,12.072
2110,67.52,-5.9110,-7.6946,0.1963,-0.0503,-0.0071,-0.2273,rough,14.0,0,11.695
2120,67.84,-5.4890,-7.7869,0.1873,-0.0417,0.0323,-0.1756,rough,14.0,0,11.315
2130,68.16,-5.0836,-7.8622,0.1843,0.0036,-0.0090,-0.1417,rough,14.0,0,10.951
2140,68.48,-4.6537,-7.9194,0.1831,0.0173,-0.0007,-0.0603,rough,14.0,0,10.560
2150,68.80,-4.2204,-7.9420,0.1820,0.0118,0.0007,0.0012,rough,14.0,0,10.159
2160,69.12,-3.7848,-7.9380,0.1822,0.0101,-0.0032,0.0569,rough,14.0,0,9.748
2170,69.44,-3.3517,-7.9083,0.1847,-0.0068,-0.0215,0.0972,rough,14.0,0,9.333
2180,69.76,-2.9221,-7.8588,0.1910,-0.0276,-0.0659,0.1195,rough,14.0,0,8.915
2190,70.08,-2.4747,-7.7927,0.2017,-0.0521,0.0065,0.1481,rough,14.0,0,8.477
2200,70.40,-2.0335,-7.7172,0.1896,-0.0443,0.0478,0.1801,rough,14.0,0,8.041
2210,70.72,-1.6086,-7.6382,0.1900,-0.0167,-0.0031,0.2082,rough,14.0,0,7.620
2220,71.04,-1.1805,-7.5481,0.1893,0.0260,-0.0198,0.2306,rough,14.0,0,7.193
2230,71.36,-0.7506,-7.4472,0.1987,0.0438,-0.0136,0.2554,rough,14.0,0,6.762
2240,71.68,-0.3235,-7.3335,0.2036,0.0477,-0.0068,0.2762,rough,14.0,0,6.328
2250,72.00,0.1118,-7.2047,0.1899,0.0322,0.0390,0.2947,rough,14.0,0,5.881
2260,72.32,0.5295,-7.0714,0.1820,0.0057,0.0095,0.3042,rough,14.0,0,5.449
2270,72.64,0.9519,-6.9369,0.1800,0.0005,-0.0005,0.3166,rough,14.0,0,5.014
2280,72.96,1.3715,-6.7943,0.1795,-0.0000,0.0020,0.3382,rough,14.0,0,4.578
2290,73.28,1.7854,-6.6448,0.1816,-0.0050,-0.0067,0.3542,rough,14.0,0,4.145
2300,73.60,2.1919,-6.4877,0.1877,-0.0203,-0.0186,0.3654,rough,14.0,0,3.716
2310,73.92,2.5894,-6.3256,0.2005,-0.0488,-0.0587,0.3786,rough,14.0,0,3.294
2320,74.24,3.0090,-6.1481,0.2013,-0.0576,0.0236,0.3975,rough,14.0,0,2.847
2330,74.56,3.4122,-5.9730,0.1933,-0.0598,0.0134,0.4191,rough,14.0,0,2.418
2340,74.88,3.8146,-5.7917,0.1827,-0.0115,0.0046,0.4495,rough,14.0,0,1.989
2350,75.20,4.2030,-5.5984,0.1820,-0.0087,-0.0170,0.4812,rough,14.0,0,1.570
2360,75.52,4.5865,-5.3895,0.1937,-0.0342,-0.0312,0.5108,rough,14.0,0,1.153
2370,75.84,4.9529,-5.1781,0.2037,-0.0156,-0.0340,0.5964,rough,14.0,1,0.766
2380,76.16,5.2229,-4.9548,0.2235,-0.0353,-0.0703,0.8022,rough,14.0,1,13.155
2390,76.48,5.4206,-4.6585,0.2409,-0.1305,-0.0510,0.9741,rough,14.0,1,12.940
2400,76.80,5.5847,-4.3127,0.2491,-0.1965,-0.0266,1.1300,rough,14.0,1,12.674
2410,77.12,5.7051,-3.9379,0.2544,-0.2166,-0.0195,1.2696,rough,14.0,1,12.370
2420,77.44,5.7894,-3.5244,0.2384,-0.2401,0.0577,1.3817,rough,14.0,1,12.021
2430,77.76,5.8493,-3.1292,0.2252,-0.2210,0.0249,1.4534,rough,14.0,1,11.684
2440,78.08,5.8887,-2.7138,0.1995,-0.0970,0.0059,1.5568,rough,14.0,1,11.324
2450,78.40,5.8884,-2.2848,0.1750,0.0266,0.0034,1.6370,rough,14.0,1,10.938
2460,78.72,5.8493,-1.8565,0.1796,0.0013,0.0000,1.7082,rough,14.0,1,10.539
2470,79.04,5.7855,-1.4262,0.1799,0.0003,0.0000,1.7717,rough,14.0,1,10.128
2480,79.36,5.6947,-0.9993,0.1799,0.0002,-0.0000,1.8242,rough,14.0,1,9.709
2490,79.68,5.5815,-0.5766,0.1799,0.0001,-0.0000,1.8687,rough,14.0,1,9.285
2500,80.00,5.4496,-0.1583,0.1799,0.0001,-0.0000,1.9072,rough,14.0,1,8.856
2510,80.32,5.3016,0.2554,0.1799,0.0001,-0.0000,1.9410,rough,14.0,1,8.424
2520,80.64,5.1394,0.6641,0.1799,0.0001,-0.0000,1.9695,rough,14.0,1,7.990
2530,80.96,4.9657,1.0685,0.1799,0.0001,-0.0000,1.9953,rough,14.0,1,7.554
2540,81.28,4.7814,1.4687,0.1799,0.0001,-0.0000,2.0192,rough,14.0,1,7.117
2550,81.60,4.5875,1.8647,0.1799,0.0001,-0.0000,2.0417,rough,14.0,1,6.679
2560,81.92,4.3847,2.2565,0.1799,0.0001,-0.0000,2.0631,rough,14.0,1,6.239
2570,82.24,4.1734,2.6441,0.1799,0.0001,-0.0000,2.0837,rough,14.0,1,5.799
2580,82.56,3.9541,3.0273,0.1799,0.0001,-0.0000,2.1040,rough,14.0,1,5.358
2590,82.88,3.7270,3.4058,0.1799,0.0001,-0.0000,2.1242,rough,14.0,1,4.917
2600,83.20,3.4922,3.7795,0.1799,0.0001,0.0000,2.1449,rough,14.0,1,4.476
2610,83.52,3.2585,4.1377,0.1949,-0.0447,-0.0418,2.1217,rough,14.0,1,4.048
2620,83.84,3.0215,4.5085,0.1835,-0.0115,0.0008,2.1120,rough,14.0,1,3.608
2630,84.16,2.7743,4.7866,0.2438,-0.2461,-0.1652,2.1196,rough,14.0,1,3.240
2640,84.48,2.5553,5.0649,0.3101,-0.3205,-0.3391,2.1427,rough,14.0,1,2.888
2650,84.80,2.3214,5.3720,0.4563,-0.4320,-0.3968,2.1699,rough,14.0,1,2.503
2660,85.12,2.0925,5.6492,0.5924,-0.4019,-0.3672,2.1684,rough,14.0,1,2.148
2670,85.44,1.8499,5.9815,0.7312,-0.4733,-0.3673,2.1559,rough,14.0,1,1.740
2680,85.76,1.6270,6.2883,0.8647,-0.4767,-0.4065,2.1506,rough,14.0,1,1.364
2690,86.08,1.4102,6.6007,1.0337,-0.4944,-0.4604,2.1431,rough,14.0,1,0.990
2700,86.40,1.2183,6.8423,1.1697,-0.5373,-0.4211,2.2969,rough,14.0,2,14.875
2710,86.72,0.9712,6.9714,1.2175,-0.6486,-0.1645,2.7021,rough,14.0,2,14.828
2720,87.04,0.6871,6.9874,1.1884,-0.6175,0.0875,3.1010,rough,14.0,2,14.673
2730,87.36,0.3951,6.9110,1.1021,-0.5460,0.2475,-2.8721,rough,14.0,2,14.441
2740,87.68,0.0977,6.7647,0.9878,-0.4221,0.3153,-2.6092,rough,14.0,2,14.152
2750,88.00,-0.1723,6.5367,0.8483,-0.3300,0.3668,-2.3956,rough,14.0,2,13.811
2760,88.32,-0.4066,6.2754,0.7009,-0.2512,0.3970,-2.1932,rough,14.0,2,13.464
2770,88.64,-0.6019,5.9567,0.5369,-0.1858,0.4450,-2.0051,rough,14.0,2,13.090
2780,88.96,-0.7321,5.6000,0.3725,-0.1390,0.3561,-1.8849,rough,14.0,2,12.722
2790,89.28,-0.8460,5.2317,0.2520,-0.0504,0.2547,-1.7409,rough,14.0,2,12.354
2800,89.60,-0.9021,4.8375,0.1893,-0.0081,0.0895,-1.6859,rough,14.0,2,12.000
2810,89.92,-0.9633,4.4310,0.1796,0.0010,0.0008,-1.7684,rough,14.0,2,11.635
2820,90.24,-1.0544,4.0161,0.1799,-0.0001,0.0000,-1.8700,rough,14.0,2,11.249
2830,90.56,-1.1867,3.6041,0.1840,0.0047,-0.0231,-1.9131,rough,14.0,2,10.842
2840,90.88,-1.3426,3.2038,0.1867,0.0217,0.0087,-1.9754,rough,14.0,2,10.432
2850,91.20,-1.5221,2.8153,0.1803,0.0009,0.0074,-2.0297,rough,14.0,2,10.018
2860,91.52,-1.7186,2.4361,0.1803,-0.0000,-0.0028,-2.0760,rough,14.0,2,9.600
2870,91.84,-1.9274,2.0721,0.1908,0.0050,-0.0639,-2.1232,rough,14.0,2,9.188
2880,92.16,-2.1556,1.7028,0.2109,-0.0268,-0.0353,-2.1710,rough,14.0,2,8.759
2890,92.48,-2.4114,1.3441,0.2149,-0.0367,-0.0034,-2.2141,rough,14.0,2,8.320
2900,92.80,-2.6812,0.9918,0.2011,-0.0431,0.0608,-2.2591,rough,14.0,2,7.878
2910,93.12,-2.9601,0.6667,0.1868,-0.0235,0.0136,-2.2921,rough,14.0,2,7.449
2920,93.44,-3.2478,0.3473,0.1841,-0.0077,-0.0155,-2.3272,rough,14.0,2,7.020
2930,93.76,-3.5357,0.0362,0.1959,-0.0385,-0.0582,-2.3623,rough,14.0,2,6.596
2940,94.08,-3.8473,-0.2665,0.2160,-0.0364,-0.0397,-2.3992,rough,14.0,2,6.163
2950,94.40,-4.1720,-0.5672,0.2118,-0.0612,0.0143,-2.4391,rough,14.0,2,5.723
2960,94.72,-4.5170,-0.8454,0.1976,-0.0322,0.0407,-2.4809,rough,14.0,2,5.288
2970,95.04,-4.8632,-1.1042,0.1869,-0.0206,0.0119,-2.5223,rough,14.0,2,4.869
2980,95.36,-5.0542,-1.0957,0.1832,0.0045,0.0229,-1.9390,rough,14.0,2,4.759
2990,95.68,-5.1453,-1.0805,0.1887,0.0249,-0.0179,-1.7580,rough,14.0,2,4.718
3000,96.00,-5.1818,-1.0855,0.1859,0.0112,0.0002,-1.6220,rough,14.0,2,4.692
3010,96.32,-5.1986,-1.0825,0.1891,0.0149,-0.0089,-1.6071,rough,14.0,2,4.685
3020,96.64,-5.2114,-1.0835,0.1895,0.0128,-0.0096,-1.5984,rough,14.0,2,4.677
3030,96.96,-5.2195,-1.0835,0.1896,0.0115,-0.0094,-1.5864,rough,14.0,2,4.672
3040,97.28,-5.2234,-1.0836,0.1897,0.0107,-0.0095,-1.5785,rough,14.0,2,4.670
3050,97.60,-5.2254,-1.0838,0.1897,0.0103,-0.0096,-1.5745,rough,14.0,2,4.669
3060,97.92,-5.2263,-1.0838,0.1897,0.0101,-0.0096,-1.5725,rough,14.0,2,4.668
3070,98.24,-5.2268,-1.0839,0.1897,0.0100,-0.0097,-1.5714,rough,14.0,2,4.668
3080,98.56,-5.2269,-1.0840,0.1897,0.0101,-0.0097,-1.5708,rough,14.0,2,4.668
3090,98.88,-5.2269,-1.0840,0.1897,0.0102,-0.0097,-1.5706,rough,14.0,2,4.668
3100,99.20,-5.2269,-1.0840,0.1897,0.0103,-0.0097,-1.5705,rough,14.0,2,4.668
3110,99.52,-5.2268,-1.0841,0.1897,0.0103,-0.0097,-1.5704,rough,14.0,2,4.668
3120,99.84,-5.2266,-1.0841,0.1897,0.0103,-0.0097,-1.5703,rough,14.0,2,4.668
3130,100.16,-5.2264,-1.0842,0.1897,0.0104,-0.0097,-1.5702,rough,14.0,2,4.668
3140,100.48,-5.2262,-1.0843,0.1897,0.0104,-0.0098,-1.5701,rough,14.0,2,4.668
3150,100.80,-5.2259,-1.0843,0.1897,0.0105,-0.0098,-1.5701,rough,14.0,2,4.668
3160,101.12,-5.2257,-1.0844,0.1897,0.0105,-0.0098,-1.5701,rough,14.0,2,4.668
3170,101.44,-5.2255,-1.0845,0.1897,0.0106,-0.0098,-1.5701,rough,14.0,2,4.668
3180,101.76,-5.2252,-1.0845,0.1897,0.0106,-0.0098,-1.5701,rough,14.0,2,4.668
3190,102.08,-5.2250,-1.0846,0.1897,0.0107,-0.0098,-1.5701,rough,14.0,2,4.668
3200,102.40,-5.2248,-1.0846,0.1897,0.0107,-0.0098,-1.5702,rough,14.0,2,4.668
3210,102.72,-5.2246,-1.0847,0.1897,0.0108,-0.0098,-1.5702,rough,14.0,2,4.668
3220,103.04,-5.2243,-1.0847,0.1897,0.0108,-0.0098,-1.5702,rough,14.0,2,4.668
3230,103.36,-5.2241,-1.0847,0.1897,0.0109,-0.0098,-1.5702,rough,14.0,2,4.669
3240,103.68,-5.2240,-1.0847,0.1897,0.0109,-0.0098,-1.5702,rough,14.0,2,4.669
3250,104.00,-5.2238,-1.0847,0.1897,0.0109,-0.0098,-1.5703,rough,14.0,2,4.669
3260,104.32,-5.2236,-1.0847,0.1897,0.0110,-0.0098,-1.5703,rough,14.0,2,4.669
3270,104.64,-5.2234,-1.0847,0.1897,0.0110,-0.0099,-1.5703,rough,14.0,2,4.669
3280,104.96,-5.2232,-1.0847,0.1897,0.0110,-0.0099,-1.5703,rough,14.0,2,4.669
3290,105.28,-5.2231,-1.0847,0.1897,0.0111,-0.0099,-1.5703,rough,14.0,2,4.669
3300,105.60,-5.2229,-1.0847,0.1897,0.0111,-0.0099,-1.5703,rough,14.0,2,4.669
3310,105.92,-5.2227,-1.0847,0.1897,0.0111,-0.0099,-1.5703,rough,14.0,2,4.669
3320,106.24,-5.2226,-1.0847,0.1897,0.0112,-0.0099,-1.5703,rough,14.0,2,4.670
3330,106.56,-5.2224,-1.0847,0.1897,0.0112,-0.0099,-1.5703,rough,14.0,2,4.670
3340,106.88,-5.2223,-1.0847,0.1897,0.0112,-0.0099,-1.5703,rough,14.0,2,4.670
3350,107.20,-5.2221,-1.0847,0.1897,0.0113,-0.0099,-1.5703,rough,14.0,2,4.670
3360,107.52,-5.2220,-1.0847,0.1897,0.0113,-0.0099,-1.5703,rough,14.0,2,4.670
3370,107.84,-5.2218,-1.0847,0.1897,0.0113,-0.0099,-1.5703,rough,14.0,2,4.670
3380,108.16,-5.2217,-1.0847,0.1897,0.0113,-0.0099,-1.5704,rough,14.0,2,4.670
3390,108.48,-5.2215,-1.0847,0.1897,0.0114,-0.0099,-1.5704,rough,14.0,2,4.670
3400,108.80,-5.2214,-1.0847,0.1897,0.0114,-0.0099,-1.5704,rough,14.0,2,4.670
3410,109.12,-5.2212,-1.0847,0.1897,0.0114,-0.0099,-1.5704,rough,14.0,2,4.670
3420,109.44,-5.2211,-1.0847,0.1897,0.0115,-0.0099,-1.5704,rough,14.0,2,4.670
3430,109.76,-5.2210,-1.0847,0.1897,0.0115,-0.0099,-1.5704,rough,14.0,2,4.670
3440,110.08,-5.2208,-1.0847,0.1897,0.0115,-0.0099,-1.5704,rough,14.0,2,4.671
3450,110.40,-5.2207,-1.0847,0.1897,0.0115,-0.0099,-1.5704,rough,14.0,2,4.671
3460,110.72,-5.2206,-1.0847,0.1897,0.0116,-0.0099,-1.5704,rough,14.0,2,4.671
3470,111.04,-5.2204,-1.0847,0.1897,0.0116,-0.0099,-1.5704,rough,14.0,2,4.671
3480,111.36,-5.2203,-1.0847,0.1897,0.0116,-0.0099,-1.5704,rough,14.0,2,4.671
3490,111.68,-5.2202,-1.0847,0.1897,0.0116,-0.0099,-1.5704,rough,14.0,2,4.671
3500,112.00,-5.2201,-1.0847,0.1897,0.0116,-0.0099,-1.5704,rough,14.0,2,4.671
3510,112.32,-5.2199,-1.0847,0.1897,0.0117,-0.0099,-1.5704,rough,14.0,2,4.671
3520,112.64,-5.2198,-1.0847,0.1897,0.0117,-0.0099,-1.5704,rough,14.0,2,4.671
3530,112.96,-5.2197,-1.0847,0.1897,0.0117,-0.0099,-1.5704,rough,14.0,2,4.671
3540,113.28,-5.2196,-1.0847,0.1897,0.0117,-0.0099,-1.5704,rough,14.0,2,4.671
3550,113.60,-5.2195,-1.0847,0.1897,0.0118,-0.0099,-1.5704,rough,14.0,2,4.671
3560,113.92,-5.2194,-1.0847,0.1897,0.0118,-0.0099,-1.5704,rough,14.0,2,4.671
3570,114.24,-5.2193,-1.0847,0.1897,0.0118,-0.0099,-1.5704,rough,14.0,2,4.671
3580,114.56,-5.2191,-1.0847,0.1897,0.0118,-0.0099,-1.5704,rough,14.0,2,4.671
3590,114.88,-5.2190,-1.0847,0.1897,0.0118,-0.0099,-1.5704,rough,14.0,2,4.672
3600,115.20,-5.2189,-1.0847,0.1897,0.0119,-0.0099,-1.5704,rough,14.0,2,4.672
3610,115.52,-5.2188,-1.0847,0.1897,0.0119,-0.0099,-1.5705,rough,14.0,2,4.672
3620,115.84,-5.2187,-1.0847,0.1897,0.0119,-0.0099,-1.5705,rough,14.0,2,4.672
3630,116.16,-5.2186,-1.0847,0.1897,0.0119,-0.0099,-1.5705,rough,14.0,2,4.672
3640,116.48,-5.2185,-1.0847,0.1897,0.0119,-0.0099,-1.5705,rough,14.0,2,4.672
3650,116.80,-5.2184,-1.0847,0.1897,0.0120,-0.0099,-1.5705,rough,14.0,2,4.672
3660,117.12,-5.2183,-1.0847,0.1897,0.0120,-0.0099,-1.5705,rough,14.0,2,4.672
3670,117.44,-5.2182,-1.0847,0.1897,0.0120,-0.0099,-1.5705,rough,14.0,2,4.672
3680,117.76,-5.2181,-1.0847,0.1897,0.0120,-0.0099,-1.5705,rough,14.0,2,4.672
3690,118.08,-5.2180,-1.0847,0.1897,0.0120,-0.0099,-1.5705,rough,14.0,2,4.672
3700,118.40,-5.2179,-1.0847,0.1897,0.0120,-0.0099,-1.5705,rough,14.0,2,4.672
3710,118.72,-5.2178,-1.0847,0.1897,0.0121,-0.0099,-1.5705,rough,14.0,2,4.672
3720,119.04,-5.2178,-1.0847,0.1897,0.0121,-0.0099,-1.5705,rough,14.0,2,4.672
3730,119.36,-5.2177,-1.0847,0.1897,0.0121,-0.0099,-1.5705,rough,14.0,2,4.672
3740,119.68,-5.2176,-1.0847,0.1897,0.0121,-0.0099,-1.5705,rough,14.0,2,4.672
3750,120.00,-5.2175,-1.0847,0.1897,0.0121,-0.0099,-1.5705,rough,14.0,2,4.672
3760,120.32,-5.2174,-1.0847,0.1897,0.0121,-0.0099,-1.5705,rough,14.0,2,4.672
3770,120.64,-5.2173,-1.0847,0.1897,0.0122,-0.0099,-1.5705,rough,14.0,2,4.673
3780,120.96,-5.2172,-1.0847,0.1897,0.0122,-0.0099,-1.5705,rough,14.0,2,4.673
3790,121.28,-5.2172,-1.0847,0.1897,0.0122,-0.0099,-1.5705,rough,14.0,2,4.673
3800,121.60,-5.2171,-1.0847,0.1897,0.0122,-0.0099,-1.5705,rough,14.0,2,4.673
3810,121.92,-5.2170,-1.0847,0.1897,0.0122,-0.0099,-1.5705,rough,14.0,2,4.673
3820,122.24,-5.2169,-1.0847,0.1897,0.0122,-0.0099,-1.5705,rough,14.0,2,4.673
3830,122.56,-5.2168,-1.0847,0.1897,0.0122,-0.0099,-1.5705,rough,14.0,2,4.673
3840,122.88,-5.2168,-1.0847,0.1897,0.0123,-0.0099,-1.5705,rough,14.0,2,4.673
3850,123.20,-5.2167,-1.0847,0.1897,0.0123,-0.0099,-1.5705,rough,14.0,2,4.673
3860,123.52,-5.2166,-1.0847,0.1897,0.0123,-0.0099,-1.5705,rough,14.0,2,4.673
3870,123.84,-5.2165,-1.0847,0.1897,0.0123,-0.0099,-1.5705,rough,14.0,2,4.673
3880,124.16,-5.2165,-1.0847,0.1897,0.0123,-0.0099,-1.5705,rough,14.0,2,4.673
3890,124.48,-5.2164,-1.0847,0.1897,0.0123,-0.0099,-1.5705,rough,14.0,2,4.673
3900,124.80,-5.2163,-1.0847,0.1897,0.0123,-0.0099,-1.5705,rough,14.0,2,4.673
3910,125.12,-5.2163,-1.0847,0.1897,0.0124,-0.0099,-1.5705,rough,14.0,2,4.673
3920,125.44,-5.2162,-1.0847,0.1897,0.0124,-0.0099,-1.5705,rough,14.0,2,4.673
3930,125.76,-5.2161,-1.0847,0.1897,0.0124,-0.0099,-1.5705,rough,14.0,2,4.673
3940,126.08,-5.2160,-1.0847,0.1897,0.0124,-0.0099,-1.5705,rough,14.0,2,4.673
3950,126.40,-5.2160,-1.0847,0.1897,0.0124,-0.0099,-1.5705,rough,14.0,2,4.673
3960,126.72,-5.2159,-1.0847,0.1897,0.0124,-0.0099,-1.5705,rough,14.0,2,4.673
3970,127.04,-5.2158,-1.0847,0.1897,0.0124,-0.0099,-1.5705,rough,14.0,2,4.673
3980,127.36,-5.2158,-1.0847,0.1897,0.0124,-0.0099,-1.5705,rough,14.0,2,4.673
3990,127.68,-5.2157,-1.0847,0.1897,0.0125,-0.0099,-1.5705,rough,14.0,2,4.673
4000,128.00,-5.2156,-1.0847,0.1897,0.0125,-0.0099,-1.5705,rough,14.0,2,4.673
4010,128.32,-5.2156,-1.0847,0.1897,0.0125,-0.0099,-1.5705,rough,14.0,2,4.674
4020,128.64,-5.2155,-1.0847,0.1897,0.0125,-0.0099,-1.5705,rough,14.0,2,4.674
4030,128.96,-5.2154,-1.0847,0.1897,0.0125,-0.0099,-1.5705,rough,14.0,2,4.674
4040,129.28,-5.2154,-1.0847,0.1897,0.0125,-0.0099,-1.5705,rough,14.0,2,4.674
4050,129.60,-5.2153,-1.0847,0.1897,0.0125,-0.0099,-1.5705,rough,14.0,2,4.674
4060,129.92,-5.2152,-1.0847,0.1897,0.0125,-0.0099,-1.5705,rough,14.0,2,4.674
4070,130.24,-5.2152,-1.0847,0.1897,0.0125,-0.0099,-1.5706,rough,14.0,2,4.674
4080,130.56,-5.2151,-1.0847,0.1897,0.0126,-0.0099,-1.5706,rough,14.0,2,4.674
4090,130.88,-5.2150,-1.0847,0.1897,0.0126,-0.0099,-1.5706,rough,14.0,2,4.674
4100,131.20,-5.2150,-1.0847,0.1897,0.0126,-0.0099,-1.5706,rough,14.0,2,4.674
4110,131.52,-5.2149,-1.0847,0.1897,0.0126,-0.0099,-1.5706,rough,14.0,2,4.674
4120,131.84,-5.2148,-1.0847,0.1897,0.0126,-0.0099,-1.5706,rough,14.0,2,4.674
4130,132.16,-5.2148,-1.0847,0.1897,0.0126,-0.0099,-1.5706,rough,14.0,2,4.674
4140,132.48,-5.2147,-1.0847,0.1897,0.0126,-0.0099,-1.5706,rough,14.0,2,4.674
4150,132.80,-5.2146,-1.0847,0.1897,0.0126,-0.0099,-1.5706,rough,14.0,2,4.674
4160,133.12,-5.2146,-1.0847,0.1897,0.0127,-0.0099,-1.5706,rough,14.0,2,4.674
4170,133.44,-5.2145,-1.0847,0.1897,0.0127,-0.0099,-1.5706,rough,14.0,2,4.674
4180,133.76,-5.2144,-1.0847,0.1897,0.0127,-0.0099,-1.5706,rough,14.0,2,4.674
4190,134.08,-5.2144,-1.0847,0.1897,0.0127,-0.0099,-1.5706,rough,14.0,2,4.674
4200,134.40,-5.2143,-1.0847,0.1897,0.0127,-0.0099,-1.5706,rough,14.0,2,4.674
4210,134.72,-5.2142,-1.0847,0.1897,0.0127,-0.0099,-1.5706,rough,14.0,2,4.674
4220,135.04,-5.2142,-1.0847,0.1897,0.0127,-0.0099,-1.5706,rough,14.0,2,4.674
4230,135.36,-5.2141,-1.0847,0.1897,0.0127,-0.0099,-1.5706,rough,14.0,2,4.674
4240,135.68,-5.2141,-1.0847,0.1897,0.0127,-0.0099,-1.5706,rough,14.0,2,4.674
4250,136.00,-5.2140,-1.0847,0.1897,0.0128,-0.0099,-1.5706,rough,14.0,2,4.674
4260,136.32,-5.2139,-1.0847,0.1897,0.0128,-0.0099,-1.5706,rough,14.0,2,4.674
4270,136.64,-5.2139,-1.0847,0.1897,0.0128,-0.0099,-1.5706,rough,14.0,2,4.675
4280,136.96,-5.2138,-1.0847,0.1897,0.0128,-0.0099,-1.5706,rough,14.0,2,4.675
4290,137.28,-5.2137,-1.0847,0.1897,0.0128,-0.0099,-1.5706,rough,14.0,2,4.675
4300,137.60,-5.2137,-1.0847,0.1897,0.0128,-0.0099,-1.5706,rough,14.0,2,4.675
4310,137.92,-5.2136,-1.0847,0.1897,0.0128,-0.0099,-1.5706,rough,14.0,2,4.675
4320,138.24,-5.2135,-1.0847,0.1897,0.0128,-0.0099,-1.5706,rough,14.0,2,4.675
4330,138.56,-5.2135,-1.0847,0.1897,0.0129,-0.0099,-1.5706,rough,14.0,2,4.675
4340,138.88,-5.2134,-1.0847,0.1897,0.0129,-0.0099,-1.5706,rough,14.0,2,4.675
4350,139.20,-5.2133,-1.0847,0.1897,0.0129,-0.0099,-1.5706,rough,14.0,2,4.675
4360,139.52,-5.2133,-1.0847,0.1897,0.0129,-0.0099,-1.5706,rough,14.0,2,4.675
4370,139.84,-5.2132,-1.0847,0.1897,0.0129,-0.0099,-1.5706,rough,14.0,2,4.675
4380,140.16,-5.2131,-1.0847,0.1897,0.0129,-0.0099,-1.5706,rough,14.0,2,4.675
4390,140.48,-5.2131,-1.0847,0.1897,0.0129,-0.0099,-1.5706,rough,14.0,2,4.675
4400,140.80,-5.2130,-1.0847,0.1897,0.0129,-0.0099,-1.5706,rough,14.0,2,4.675
4410,141.12,-5.2130,-1.0847,0.1897,0.0129,-0.0099,-1.5706,rough,14.0,2,4.675
4420,141.44,-5.2129,-1.0847,0.1897,0.0130,-0.0099,-1.5706,rough,14.0,2,4.675
4430,141.76,-5.2128,-1.0847,0.1897,0.0130,-0.0099,-1.5706,rough,14.0,2,4.675
4440,142.08,-5.2128,-1.0847,0.1897,0.0130,-0.0099,-1.5706,rough,14.0,2,4.675
4450,142.40,-5.2127,-1.0847,0.1897,0.0130,-0.0099,-1.5706,rough,14.0,2,4.675
4460,142.72,-5.2126,-1.0847,0.1897,0.0130,-0.0099,-1.5706,rough,14.0,2,4.675
4470,143.04,-5.2126,-1.0847,0.1897,0.0130,-0.0099,-1.5706,rough,14.0,2,4.675
4480,143.36,-5.2125,-1.0847,0.1897,0.0130,-0.0099,-1.5706,rough,14.0,2,4.675
4490,143.68,-5.2124,-1.0847,0.1897,0.0130,-0.0099,-1.5706,rough,14.0,2,4.675
4500,144.00,-5.2124,-1.0847,0.1897,0.0130,-0.0099,-1.5706,rough,14.0,2,4.675
4510,144.32,-5.2123,-1.0847,0.1897,0.0131,-0.0099,-1.5706,rough,14.0,2,4.675
4520,144.64,-5.2123,-1.0847,0.1897,0.0131,-0.0099,-1.5706,rough,14.0,2,4.675
4530,144.96,-5.2122,-1.0847,0.1897,0.0131,-0.0099,-1.5706,rough,14.0,2,4.675
4540,145.28,-5.2121,-1.0847,0.1897,0.0131,-0.0099,-1.5706,rough,14.0,2,4.675
4550,145.60,-5.2121,-1.0847,0.1897,0.0131,-0.0099,-1.5706,rough,14.0,2,4.676
4560,145.92,-5.2120,-1.0847,0.1897,0.0131,-0.0099,-1.5706,rough,14.0,2,4.676
4570,146.24,-5.2119,-1.0847,0.1897,0.0131,-0.0099,-1.5706,rough,14.0,2,4.676
4580,146.56,-5.2119,-1.0847,0.1897,0.0131,-0.0099,-1.5706,rough,14.0,2,4.676
4590,146.88,-5.2118,-1.0847,0.1897,0.0131,-0.0099,-1.5706,rough,14.0,2,4.676
4600,147.20,-5.2118,-1.0847,0.1897,0.0132,-0.0099,-1.5706,rough,14.0,2,4.676
4610,147.52,-5.2117,-1.0847,0.1897,0.0132,-0.0099,-1.5706,rough,14.0,2,4.676
4620,147.84,-5.2116,-1.0847,0.1897,0.0132,-0.0099,-1.5706,rough,14.0,2,4.676
4630,148.16,-5.2116,-1.0847,0.1897,0.0132,-0.0099,-1.5706,rough,14.0,2,4.676
4640,148.48,-5.2115,-1.0847,0.1897,0.0132,-0.0099,-1.5706,rough,14.0,2,4.676
4650,148.80,-5.2114,-1.0847,0.1897,0.0132,-0.0099,-1.5706,rough,14.0,2,4.676
4660,149.12,-5.2114,-1.0847,0.1897,0.0132,-0.0099,-1.5706,rough,14.0,2,4.676
4670,149.44,-5.2113,-1.0847,0.1897,0.0132,-0.0099,-1.5706,rough,14.0,2,4.676
4680,149.76,-5.2113,-1.0847,0.1897,0.0132,-0.0099,-1.5706,rough,14.0,2,4.676
4690,150.08,-5.2112,-1.0847,0.1897,0.0133,-0.0099,-1.5706,rough,14.0,2,4.676
4700,150.40,-5.2111,-1.0847,0.1897,0.0133,-0.0099,-1.5706,rough,14.0,2,4.676
4710,150.72,-5.2111,-1.0847,0.1897,0.0133,-0.0099,-1.5706,rough,14.0,2,4.676
4720,151.04,-5.2110,-1.0847,0.1897,0.0133,-0.0099,-1.5706,rough,14.0,2,4.676
4730,151.36,-5.2110,-1.0847,0.1897,0.0133,-0.0099,-1.5706,rough,14.0,2,4.676
4740,151.68,-5.2109,-1.0847,0.1897,0.0133,-0.0099,-1.5706,rough,14.0,2,4.676
4750,152.00,-5.2108,-1.0847,0.1897,0.0133,-0.0099,-1.5706,rough,14.0,2,4.676
4760,152.32,-5.2108,-1.0847,0.1897,0.0133,-0.0099,-1.5706,rough,14.0,2,4.676
4770,152.64,-5.2107,-1.0847,0.1897,0.0133,-0.0099,-1.5706,rough,14.0,2,4.676
4780,152.96,-5.2106,-1.0847,0.1896,0.0134,-0.0099,-1.5706,rough,14.0,2,4.676
4790,153.28,-5.2106,-1.0847,0.1896,0.0134,-0.0099,-1.5706,rough,14.0,2,4.676
4800,153.60,-5.2105,-1.0847,0.1896,0.0134,-0.0099,-1.5706,rough,14.0,2,4.676
4810,153.92,-5.2105,-1.0847,0.1896,0.0134,-0.0099,-1.5706,rough,14.0,2,4.676
4820,154.24,-5.2104,-1.0847,0.1896,0.0134,-0.0099,-1.5706,rough,14.0,2,4.676
4830,154.56,-5.2103,-1.0847,0.1896,0.0134,-0.0099,-1.5706,rough,14.0,2,4.677
4840,154.88,-5.2103,-1.0847,0.1896,0.0134,-0.0099,-1.5706,rough,14.0,2,4.677
4850,155.20,-5.2102,-1.0847,0.1896,0.0134,-0.0099,-1.5706,rough,14.0,2,4.677
4860,155.52,-5.2102,-1.0847,0.1896,0.0134,-0.0099,-1.5706,rough,14.0,2,4.677
4870,155.84,-5.2101,-1.0847,0.1896,0.0135,-0.0099,-1.5706,rough,14.0,2,4.677
4880,156.16,-5.2100,-1.0847,0.1896,0.0135,-0.0099,-1.5706,rough,14.0,2,4.677
4890,156.48,-5.2100,-1.0847,0.1896,0.0135,-0.0099,-1.5706,rough,14.0,2,4.677
4900,156.80,-5.2099,-1.0847,0.1896,0.0135,-0.0099,-1.5706,rough,14.0,2,4.677
4910,157.12,-5.2099,-1.0847,0.1896,0.0135,-0.0099,-1.5706,rough,14.0,2,4.677
4920,157.44,-5.2098,-1.0847,0.1896,0.0135,-0.0099,-1.5706,rough,14.0,2,4.677
4930,157.76,-5.2097,-1.0847,0.1896,0.0135,-0.0099,-1.5706,rough,14.0,2,4.677
4940,158.08,-5.2097,-1.0847,0.1896,0.0135,-0.0099,-1.5706,rough,14.0,2,4.677
4950,158.40,-5.2096,-1.0847,0.1896,0.0135,-0.0099,-1.5706,rough,14.0,2,4.677
4960,158.72,-5.2096,-1.0847,0.1896,0.0136,-0.0099,-1.5706,rough,14.0,2,4.677
4970,159.04,-5.2095,-1.0847,0.1896,0.0136,-0.0099,-1.5706,rough,14.0,2,4.677
4980,159.36,-5.2094,-1.0847,0.1896,0.0136,-0.0099,-1.5706,rough,14.0,2,4.677
4990,159.68,-5.2094,-1.0847,0.1896,0.0136,-0.0099,-1.5706,rough,14.0,2,4.677
5000,160.00,-5.2093,-1.0847,0.1896,0.0136,-0.0099,-1.5706,rough,14.0,2,4.677
5010,160.32,-5.2093,-1.0847,0.1896,0.0136,-0.0099,-1.5706,rough,14.0,2,4.677
5020,160.64,-5.2092,-1.0847,0.1896,0.0136,-0.0099,-1.5706,rough,14.0,2,4.677
5030,160.96,-5.2092,-1.0847,0.1896,0.0136,-0.0099,-1.5706,rough,14.0,2,4.677
5040,161.28,-5.2091,-1.0847,0.1896,0.0136,-0.0099,-1.5706,rough,14.0,2,4.677
5050,161.60,-5.2090,-1.0847,0.1896,0.0136,-0.0099,-1.5706,rough,14.0,2,4.677
5060,161.92,-5.2090,-1.0847,0.1896,0.0137,-0.0099,-1.5706,rough,14.0,2,4.677
5070,162.24,-5.2089,-1.0847,0.1896,0.0137,-0.0099,-1.5706,rough,14.0,2,4.677
5080,162.56,-5.2089,-1.0847,0.1896,0.0137,-0.0099,-1.5706,rough,14.0,2,4.677
5090,162.88,-5.2088,-1.0847,0.1896,0.0137,-0.0099,-1.5706,rough,14.0,2,4.677
5100,163.20,-5.2087,-1.0847,0.1896,0.0137,-0.0099,-1.5706,rough,14.0,2,4.677
5110,163.52,-5.2087,-1.0847,0.1896,0.0137,-0.0099,-1.5706,rough,14.0,2,4.677
5120,163.84,-5.2086,-1.0847,0.1896,0.0137,-0.0099,-1.5706,rough,14.0,2,4.678
5130,164.16,-5.2086,-1.0847,0.1896,0.0137,-0.0099,-1.5706,rough,14.0,2,4.678
5140,164.48,-5.2085,-1.0847,0.1896,0.0137,-0.0099,-1.5706,rough,14.0,2,4.678
5150,164.80,-5.2084,-1.0847,0.1896,0.0138,-0.0099,-1.5706,rough,14.0,2,4.678
5160,165.12,-5.2084,-1.0847,0.1896,0.0138,-0.0099,-1.5706,rough,14.0,2,4.678
5170,165.44,-5.2083,-1.0847,0.1896,0.0138,-0.0099,-1.5706,rough,14.0,2,4.678
5180,165.76,-5.2083,-1.0847,0.1896,0.0138,-0.0099,-1.5706,rough,14.0,2,4.678
5190,166.08,-5.2082,-1.0847,0.1896,0.0138,-0.0099,-1.5706,rough,14.0,2,4.678
5200,166.40,-5.2082,-1.0847,0.1896,0.0138,-0.0099,-1.5706,rough,14.0,2,4.678
5210,166.72,-5.2081,-1.0847,0.1896,0.0138,-0.0099,-1.5706,rough,14.0,2,4.678
5220,167.04,-5.2080,-1.0847,0.1896,0.0138,-0.0099,-1.5706,rough,14.0,2,4.678
5230,167.36,-5.2080,-1.0847,0.1896,0.0138,-0.0099,-1.5706,rough,14.0,2,4.678
5240,167.68,-5.2079,-1.0847,0.1896,0.0138,-0.0099,-1.5706,rough,14.0,2,4.678
5250,168.00,-5.2079,-1.0847,0.1896,0.0139,-0.0099,-1.5706,rough,14.0,2,4.678
5260,168.32,-5.2078,-1.0847,0.1896,0.0139,-0.0099,-1.5706,rough,14.0,2,4.678
5270,168.64,-5.2078,-1.0847,0.1896,0.0139,-0.0099,-1.5706,rough,14.0,2,4.678
5280,168.96,-5.2077,-1.0847,0.1896,0.0139,-0.0099,-1.5706,rough,14.0,2,4.678
5290,169.28,-5.2076,-1.0847,0.1896,0.0139,-0.0099,-1.5706,rough,14.0,2,4.678
5300,169.60,-5.2076,-1.0847,0.1896,0.0139,-0.0099,-1.5706,rough,14.0,2,4.678
5310,169.92,-5.2075,-1.0847,0.1896,0.0139,-0.0099,-1.5706,rough,14.0,2,4.678
5320,170.24,-5.2075,-1.0847,0.1896,0.0139,-0.0099,-1.5706,rough,14.0,2,4.678
5330,170.56,-5.2074,-1.0847,0.1896,0.0139,-0.0099,-1.5706,rough,14.0,2,4.678
5340,170.88,-5.2074,-1.0847,0.1896,0.0139,-0.0099,-1.5706,rough,14.0,2,4.678
5350,171.20,-5.2073,-1.0847,0.1896,0.0140,-0.0099,-1.5706,rough,14.0,2,4.678
5360,171.52,-5.2072,-1.0847,0.1896,0.0140,-0.0099,-1.5706,rough,14.0,2,4.678
5370,171.84,-5.2072,-1.0847,0.1896,0.0140,-0.0099,-1.5706,rough,14.0,2,4.678
5380,172.16,-5.2071,-1.0847,0.1896,0.0140,-0.0099,-1.5706,rough,14.0,2,4.678
5390,172.48,-5.2071,-1.0847,0.1896,0.0140,-0.0099,-1.5706,rough,14.0,2,4.678
5400,172.80,-5.2070,-1.0847,0.1896,0.0140,-0.0099,-1.5706,rough,14.0,2,4.678
5410,173.12,-5.2070,-1.0847,0.1896,0.0140,-0.0099,-1.5706,rough,14.0,2,4.678
5420,173.44,-5.2069,-1.0847,0.1896,0.0140,-0.0099,-1.5706,rough,14.0,2,4.678
5430,173.76,-5.2069,-1.0847,0.1896,0.0140,-0.0099,-1.5706,rough,14.0,2,4.679
5440,174.08,-5.2068,-1.0847,0.1896,0.0140,-0.0099,-1.5706,rough,14.0,2,4.679
5450,174.40,-5.2067,-1.0847,0.1896,0.0141,-0.0099,-1.5706,rough,14.0,2,4.679
5460,174.72,-5.2067,-1.0847,0.1896,0.0141,-0.0099,-1.5706,rough,14.0,2,4.679
5470,175.04,-5.2066,-1.0847,0.1896,0.0141,-0.0099,-1.5706,rough,14.0,2,4.679
5480,175.36,-5.2066,-1.0847,0.1896,0.0141,-0.0099,-1.5706,rough,14.0,2,4.679
5490,175.68,-5.2065,-1.0847,0.1896,0.0141,-0.0099,-1.5706,rough,14.0,2,4.679
5500,176.00,-5.2065,-1.0847,0.1896,0.0141,-0.0099,-1.5706,rough,14.0,2,4.679
5510,176.32,-5.2064,-1.0847,0.1896,0.0141,-0.0099,-1.5706,rough,14.0,2,4.679
5520,176.64,-5.2064,-1.0847,0.1896,0.0141,-0.0099,-1.5706,rough,14.0,2,4.679
5530,176.96,-5.2063,-1.0847,0.1896,0.0141,-0.0099,-1.5706,rough,14.0,2,4.679
5540,177.28,-5.2062,-1.0847,0.1896,0.0141,-0.0099,-1.5706,rough,14.0,2,4.679
5550,177.60,-5.2062,-1.0847,0.1896,0.0142,-0.0099,-1.5706,rough,14.0,2,4.679
5560,177.92,-5.2061,-1.0847,0.1896,0.0142,-0.0099,-1.5706,rough,14.0,2,4.679
5570,178.24,-5.2061,-1.0847,0.1896,0.0142,-0.0099,-1.5706,rough,14.0,2,4.679
5580,178.56,-5.2060,-1.0847,0.1896,0.0142,-0.0099,-1.5706,rough,14.0,2,4.679
5590,178.88,-5.2060,-1.0847,0.1896,0.0142,-0.0099,-1.5706,rough,14.0,2,4.679
5600,179.20,-5.2059,-1.0847,0.1896,0.0142,-0.0099,-1.5706,rough,14.0,2,4.679
5610,179.52,-5.2059,-1.0847,0.1896,0.0142,-0.0099,-1.5706,rough,14.0,2,4.679
5620,179.84,-5.2058,-1.0847,0.1896,0.0142,-0.0099,-1.5706,rough,14.0,2,4.679
5630,180.16,-5.2057,-1.0847,0.1896,0.0142,-0.0099,-1.5706,rough,14.0,2,4.679
5640,180.48,-5.2057,-1.0847,0.1896,0.0142,-0.0099,-1.5706,rough,14.0,2,4.679
5650,180.80,-5.2056,-1.0847,0.1896,0.0143,-0.0099,-1.5706,rough,14.0,2,4.679
5660,181.12,-5.2056,-1.0847,0.1896,0.0143,-0.0099,-1.5706,rough,14.0,2,4.679
5670,181.44,-5.2055,-1.0847,0.1896,0.0143,-0.0099,-1.5706,rough,14.0,2,4.679
5680,181.76,-5.2055,-1.0847,0.1896,0.0143,-0.0099,-1.5706,rough,14.0,2,4.679
5690,182.08,-5.2054,-1.0847,0.1896,0.0143,-0.0099,-1.5706,rough,14.0,2,4.679
5700,182.40,-5.2054,-1.0847,0.1896,0.0143,-0.0099,-1.5706,rough,14.0,2,4.679
5710,182.72,-5.2053,-1.0847,0.1896,0.0143,-0.0099,-1.5706,rough,14.0,2,4.679
5720,183.04,-5.2053,-1.0847,0.1896,0.0143,-0.0099,-1.5706,rough,14.0,2,4.679
5730,183.36,-5.2052,-1.0847,0.1896,0.0143,-0.0099,-1.5706,rough,14.0,2,4.679
5740,183.68,-5.2052,-1.0847,0.1896,0.0143,-0.0099,-1.5706,rough,14.0,2,4.680
5750,184.00,-5.2051,-1.0847,0.1896,0.0144,-0.0099,-1.5706,rough,14.0,2,4.680
5760,184.32,-5.2050,-1.0847,0.1896,0.0144,-0.0099,-1.5706,rough,14.0,2,4.680
5770,184.64,-5.2050,-1.0847,0.1896,0.0144,-0.0099,-1.5706,rough,14.0,2,4.680
5780,184.96,-5.2049,-1.0847,0.1896,0.0144,-0.0099,-1.5706,rough,14.0,2,4.680
5790,185.28,-5.2049,-1.0847,0.1896,0.0144,-0.0099,-1.5706,rough,14.0,2,4.680
5800,185.60,-5.2048,-1.0847,0.1896,0.0144,-0.0099,-1.5706,rough,14.0,2,4.680
5810,185.92,-5.2048,-1.0847,0.1896,0.0144,-0.0099,-1.5706,rough,14.0,2,4.680
5820,186.24,-5.2047,-1.0847,0.1896,0.0144,-0.0099,-1.5706,rough,14.0,2,4.680
5830,186.56,-5.2047,-1.0847,0.1896,0.0144,-0.0099,-1.5706,rough,14.0,2,4.680
5840,186.88,-5.2046,-1.0847,0.1896,0.0144,-0.0099,-1.5706,rough,14.0,2,4.680
5850,187.20,-5.2046,-1.0847,0.1896,0.0144,-0.0099,-1.5706,rough,14.0,2,4.680
5860,187.52,-5.2045,-1.0847,0.1896,0.0145,-0.0099,-1.5706,rough,14.0,2,4.680
5870,187.84,-5.2045,-1.0847,0.1896,0.0145,-0.0099,-1.5706,rough,14.0,2,4.680
5880,188.16,-5.2044,-1.0847,0.1896,0.0145,-0.0099,-1.5706,rough,14.0,2,4.680
5890,188.48,-5.2044,-1.0847,0.1896,0.0145,-0.0099,-1.5706,rough,14.0,2,4.680
5900,188.80,-5.2043,-1.0847,0.1896,0.0145,-0.0099,-1.5706,rough,14.0,2,4.680
5910,189.12,-5.2042,-1.0847,0.1896,0.0145,-0.0099,-1.5706,rough,14.0,2,4.680
5920,189.44,-5.2042,-1.0847,0.1896,0.0145,-0.0099,-1.5706,rough,14.0,2,4.680
5930,189.76,-5.2041,-1.0847,0.1896,0.0145,-0.0099,-1.5706,rough,14.0,2,4.680
5940,190.08,-5.2041,-1.0847,0.1896,0.0145,-0.0099,-1.5706,rough,14.0,2,4.680
5950,190.40,-5.2040,-1.0847,0.1896,0.0145,-0.0099,-1.5706,rough,14.0,2,4.680
5960,190.72,-5.2040,-1.0847,0.1896,0.0146,-0.0099,-1.5706,rough,14.0,2,4.680
5970,191.04,-5.2039,-1.0847,0.1896,0.0146,-0.0099,-1.5706,rough,14.0,2,4.680
5980,191.36,-5.2039,-1.0847,0.1896,0.0146,-0.0099,-1.5706,rough,14.0,2,4.680
5990,191.68,-5.2038,-1.0847,0.1896,0.0146,-0.0099,-1.5706,rough,14.0,2,4.680
6000,192.00,-5.2038,-1.0847,0.1896,0.0146,-0.0099,-1.5706,rough,14.0,2,4.680
6010,192.32,-5.2037,-1.0847,0.1896,0.0146,-0.0099,-1.5706,rough,14.0,2,4.680
6020,192.64,-5.2037,-1.0847,0.1896,0.0146,-0.0099,-1.5706,rough,14.0,2,4.680
6030,192.96,-5.2036,-1.0847,0.1896,0.0146,-0.0099,-1.5706,rough,14.0,2,4.680
6040,193.28,-5.2036,-1.0847,0.1896,0.0146,-0.0099,-1.5706,rough,14.0,2,4.680
6050,193.60,-5.2035,-1.0847,0.1896,0.0146,-0.0099,-1.5706,rough,14.0,2,4.680
6060,193.92,-5.2035,-1.0847,0.1896,0.0146,-0.0099,-1.5706,rough,14.0,2,4.680
6070,194.24,-5.2034,-1.0847,0.1896,0.0147,-0.0099,-1.5706,rough,14.0,2,4.680
6080,194.56,-5.2034,-1.0847,0.1896,0.0147,-0.0099,-1.5706,rough,14.0,2,4.681
6090,194.88,-5.2033,-1.0847,0.1896,0.0147,-0.0099,-1.5706,rough,14.0,2,4.681
6100,195.20,-5.2033,-1.0847,0.1896,0.0147,-0.0099,-1.5706,rough,14.0,2,4.681
6110,195.52,-5.2032,-1.0847,0.1896,0.0147,-0.0099,-1.5706,rough,14.0,2,4.681
6120,195.84,-5.2032,-1.0847,0.1896,0.0147,-0.0099,-1.5706,rough,14.0,2,4.681
6130,196.16,-5.2031,-1.0847,0.1896,0.0147,-0.0099,-1.5706,rough,14.0,2,4.681
6140,196.48,-5.2031,-1.0847,0.1896,0.0147,-0.0099,-1.5706,rough,14.0,2,4.681
6150,196.80,-5.2030,-1.0847,0.1896,0.0147,-0.0099,-1.5706,rough,14.0,2,4.681
6160,197.12,-5.2030,-1.0847,0.1896,0.0147,-0.0099,-1.5706,rough,14.0,2,4.681
6170,197.44,-5.2029,-1.0847,0.1896,0.0147,-0.0099,-1.5706,rough,14.0,2,4.681
6180,197.76,-5.2029,-1.0847,0.1896,0.0148,-0.0099,-1.5706,rough,14.0,2,4.681
6190,198.08,-5.2028,-1.0847,0.1896,0.0148,-0.0099,-1.5706,rough,14.0,2,4.681
6200,198.40,-5.2028,-1.0847,0.1896,0.0148,-0.0099,-1.5706,rough,14.0,2,4.681
6210,198.72,-5.2027,-1.0847,0.1896,0.0148,-0.0099,-1.5706,rough,14.0,2,4.681
6220,199.04,-5.2027,-1.0847,0.1896,0.0148,-0.0099,-1.5706,rough,14.0,2,4.681
6230,199.36,-5.2026,-1.0847,0.1896,0.0148,-0.0099,-1.5706,rough,14.0,2,4.681
6240,199.68,-5.2026,-1.0847,0.1896,0.0148,-0.0099,-1.5706,rough,14.0,2,4.681
6250,200.00,-5.2025,-1.0847,0.1896,0.0148,-0.0099,-1.5706,rough,14.0,2,4.681
6260,200.32,-5.2024,-1.0847,0.1896,0.0148,-0.0099,-1.5706,rough,14.0,2,4.681
6270,200.64,-5.2024,-1.0847,0.1896,0.0148,-0.0099,-1.5706,rough,14.0,2,4.681
6280,200.96,-5.2023,-1.0847,0.1896,0.0148,-0.0099,-1.5706,rough,14.0,2,4.681
6290,201.28,-5.2023,-1.0847,0.1896,0.0149,-0.0099,-1.5706,rough,14.0,2,4.681
6300,201.60,-5.2022,-1.0847,0.1896,0.0149,-0.0099,-1.5706,rough,14.0,2,4.681
6310,201.92,-5.2022,-1.0847,0.1896,0.0149,-0.0099,-1.5706,rough,14.0,2,4.681
6320,202.24,-5.2021,-1.0847,0.1896,0.0149,-0.0099,-1.5706,rough,14.0,2,4.681
6330,202.56,-5.2021,-1.0847,0.1896,0.0149,-0.0099,-1.5706,rough,14.0,2,4.681
6340,202.88,-5.2020,-1.0847,0.1896,0.0149,-0.0099,-1.5706,rough,14.0,2,4.681
6350,203.20,-5.2020,-1.0847,0.1896,0.0149,-0.0099,-1.5706,rough,14.0,2,4.681
6360,203.52,-5.2019,-1.0847,0.1896,0.0149,-0.0099,-1.5706,rough,14.0,2,4.681
6370,203.84,-5.2019,-1.0847,0.1896,0.0149,-0.0099,-1.5706,rough,14.0,2,4.681
6380,204.16,-5.2019,-1.0847,0.1896,0.0149,-0.0099,-1.5706,rough,14.0,2,4.681
6390,204.48,-5.2018,-1.0847,0.1896,0.0149,-0.0099,-1.5706,rough,14.0,2,4.681
6400,204.80,-5.2018,-1.0847,0.1896,0.0150,-0.0099,-1.5706,rough,14.0,2,4.681
6410,205.12,-5.2017,-1.0847,0.1896,0.0150,-0.0099,-1.5706,rough,14.0,2,4.681
6420,205.44,-5.2017,-1.0847,0.1896,0.0150,-0.0099,-1.5706,rough,14.0,2,4.682
6430,205.76,-5.2016,-1.0847,0.1896,0.0150,-0.0099,-1.5706,rough,14.0,2,4.682
6440,206.08,-5.2016,-1.0847,0.1896,0.0150,-0.0099,-1.5706,rough,14.0,2,4.682
6450,206.40,-5.2015,-1.0847,0.1896,0.0150,-0.0099,-1.5706,rough,14.0,2,4.682
6460,206.72,-5.2015,-1.0847,0.1896,0.0150,-0.0099,-1.5706,rough,14.0,2,4.682
6470,207.04,-5.2014,-1.0847,0.1896,0.0150,-0.0099,-1.5706,rough,14.0,2,4.682
6480,207.36,-5.2014,-1.0847,0.1896,0.0150,-0.0099,-1.5706,rough,14.0,2,4.682
6490,207.68,-5.2013,-1.0847,0.1896,0.0150,-0.0099,-1.5706,rough,14.0,2,4.682
6500,208.00,-5.2013,-1.0847,0.1896,0.0150,-0.0099,-1.5706,rough,14.0,2,4.682
6510,208.32,-5.2012,-1.0847,0.1896,0.0150,-0.0099,-1.5706,rough,14.0,2,4.682
6520,208.64,-5.2012,-1.0847,0.1896,0.0151,-0.0099,-1.5706,rough,14.0,2,4.682
6530,208.96,-5.2011,-1.0847,0.1896,0.0151,-0.0099,-1.5706,rough,14.0,2,4.682
6540,209.28,-5.2011,-1.0847,0.1896,0.0151,-0.0099,-1.5706,rough,14.0,2,4.682
6550,209.60,-5.2010,-1.0847,0.1896,0.0151,-0.0099,-1.5706,rough,14.0,2,4.682
6560,209.92,-5.2010,-1.0847,0.1896,0.0151,-0.0099,-1.5706,rough,14.0,2,4.682
6570,210.24,-5.2009,-1.0847,0.1896,0.0151,-0.0099,-1.5706,rough,14.0,2,4.682
6580,210.56,-5.2009,-1.0847,0.1896,0.0151,-0.0099,-1.5706,rough,14.0,2,4.682
6590,210.88,-5.2008,-1.0847,0.1896,0.0151,-0.0099,-1.5706,rough,14.0,2,4.682
6600,211.20,-5.2008,-1.0847,0.1896,0.0151,-0.0099,-1.5706,rough,14.0,2,4.682
6610,211.52,-5.2007,-1.0847,0.1896,0.0151,-0.0099,-1.5706,rough,14.0,2,4.682
6620,211.84,-5.2007,-1.0847,0.1896,0.0151,-0.0099,-1.5706,rough,14.0,2,4.682
6630,212.16,-5.2006,-1.0847,0.1896,0.0152,-0.0099,-1.5706,rough,14.0,2,4.682
6640,212.48,-5.2006,-1.0847,0.1896,0.0152,-0.0099,-1.5706,rough,14.0,2,4.682
6650,212.80,-5.2005,-1.0847,0.1896,0.0152,-0.0099,-1.5706,rough,14.0,2,4.682
6660,213.12,-5.2005,-1.0847,0.1896,0.0152,-0.0099,-1.5706,rough,14.0,2,4.682
6670,213.44,-5.2004,-1.0847,0.1896,0.0152,-0.0099,-1.5706,rough,14.0,2,4.682
6680,213.76,-5.2004,-1.0847,0.1896,0.0152,-0.0099,-1.5706,rough,14.0,2,4.682
6690,214.08,-5.2003,-1.0847,0.1896,0.0152,-0.0099,-1.5706,rough,14.0,2,4.682
6700,214.40,-5.2003,-1.0847,0.1896,0.0152,-0.0099,-1.5706,rough,14.0,2,4.682
6710,214.72,-5.2003,-1.0847,0.1896,0.0152,-0.0099,-1.5706,rough,14.0,2,4.682
6720,215.04,-5.2002,-1.0847,0.1896,0.0152,-0.0099,-1.5706,rough,14.0,2,4.682
6730,215.36,-5.2002,-1.0847,0.1896,0.0152,-0.0099,-1.5706,rough,14.0,2,4.682
6740,215.68,-5.2001,-1.0847,0.1896,0.0152,-0.0099,-1.5706,rough,14.0,2,4.682
6750,216.00,-5.2001,-1.0847,0.1896,0.0153,-0.0099,-1.5706,rough,14.0,2,4.682
6760,216.32,-5.2000,-1.0847,0.1896,0.0153,-0.0099,-1.5706,rough,14.0,2,4.682
6770,216.64,-5.2000,-1.0847,0.1896,0.0153,-0.0099,-1.5706,rough,14.0,2,4.682
6780,216.96,-5.1999,-1.0847,0.1896,0.0153,-0.0099,-1.5706,rough,14.0,2,4.683
6790,217.28,-5.1999,-1.0847,0.1896,0.0153,-0.0099,-1.5706,rough,14.0,2,4.683
6800,217.60,-5.1998,-1.0847,0.1896,0.0153,-0.0099,-1.5706,rough,14.0,2,4.683
6810,217.92,-5.1998,-1.0847,0.1896,0.0153,-0.0099,-1.5706,rough,14.0,2,4.683
6820,218.24,-5.1997,-1.0847,0.1896,0.0153,-0.0099,-1.5706,rough,14.0,2,4.683
6830,218.56,-5.1997,-1.0847,0.1896,0.0153,-0.0099,-1.5706,rough,14.0,2,4.683
6840,218.88,-5.1996,-1.0847,0.1896,0.0153,-0.0099,-1.5706,rough,14.0,2,4.683
6850,219.20,-5.1996,-1.0847,0.1896,0.0153,-0.0099,-1.5706,rough,14.0,2,4.683
6860,219.52,-5.1995,-1.0847,0.1896,0.0153,-0.0099,-1.5706,rough,14.0,2,4.683
6870,219.84,-5.1995,-1.0847,0.1896,0.0154,-0.0099,-1.5706,rough,14.0,2,4.683
6880,220.16,-5.1995,-1.0847,0.1896,0.0154,-0.0099,-1.5706,rough,14.0,2,4.683
6890,220.48,-5.1994,-1.0847,0.1896,0.0154,-0.0099,-1.5706,rough,14.0,2,4.683
6900,220.80,-5.1994,-1.0847,0.1896,0.0154,-0.0099,-1.5706,rough,14.0,2,4.683
6910,221.12,-5.1993,-1.0847,0.1896,0.0154,-0.0099,-1.5706,rough,14.0,2,4.683
6920,221.44,-5.1993,-1.0847,0.1896,0.0154,-0.0099,-1.5706,rough,14.0,2,4.683
6930,221.76,-5.1992,-1.0847,0.1896,0.0154,-0.0099,-1.5706,rough,14.0,2,4.683
6940,222.08,-5.1992,-1.0847,0.1896,0.0154,-0.0099,-1.5706,rough,14.0,2,4.683
6950,222.40,-5.1991,-1.0847,0.1896,0.0154,-0.0099,-1.5706,rough,14.0,2,4.683
6960,222.72,-5.1991,-1.0847,0.1896,0.0154,-0.0099,-1.5706,rough,14.0,2,4.683
6970,223.04,-5.1990,-1.0847,0.1896,0.0154,-0.0099,-1.5706,rough,14.0,2,4.683
6980,223.36,-5.1990,-1.0847,0.1896,0.0154,-0.0099,-1.5706,rough,14.0,2,4.683
6990,223.68,-5.1989,-1.0847,0.1896,0.0155,-0.0099,-1.5706,rough,14.0,2,4.683
7000,224.00,-5.1989,-1.0847,0.1896,0.0155,-0.0099,-1.5706,rough,14.0,2,4.683
7010,224.32,-5.1989,-1.0847,0.1896,0.0155,-0.0099,-1.5706,rough,14.0,2,4.683
7020,224.64,-5.1988,-1.0847,0.1896,0.0155,-0.0099,-1.5706,rough,14.0,2,4.683
7030,224.96,-5.1988,-1.0847,0.1896,0.0155,-0.0099,-1.5706,rough,14.0,2,4.683
7040,225.28,-5.1987,-1.0847,0.1896,0.0155,-0.0099,-1.5706,rough,14.0,2,4.683
7050,225.60,-5.1987,-1.0847,0.1896,0.0155,-0.0099,-1.5706,rough,14.0,2,4.683
7060,225.92,-5.1986,-1.0847,0.1896,0.0155,-0.0099,-1.5706,rough,14.0,2,4.683
7070,226.24,-5.1986,-1.0847,0.1896,0.0155,-0.0099,-1.5706,rough,14.0,2,4.683
7080,226.56,-5.1985,-1.0847,0.1896,0.0155,-0.0099,-1.5706,rough,14.0,2,4.683
7090,226.88,-5.1985,-1.0847,0.1896,0.0155,-0.0099,-1.5706,rough,14.0,2,4.683
7100,227.20,-5.1984,-1.0847,0.1896,0.0155,-0.0099,-1.5706,rough,14.0,2,4.683
7110,227.52,-5.1984,-1.0847,0.1896,0.0156,-0.0099,-1.5706,rough,14.0,2,4.683
7120,227.84,-5.1984,-1.0847,0.1896,0.0156,-0.0099,-1.5706,rough,14.0,2,4.683
7130,228.16,-5.1983,-1.0847,0.1896,0.0156,-0.0099,-1.5706,rough,14.0,2,4.683
7140,228.48,-5.1983,-1.0847,0.1896,0.0156,-0.0099,-1.5706,rough,14.0,2,4.683
7150,228.80,-5.1982,-1.0847,0.1896,0.0156,-0.0099,-1.5706,rough,14.0,2,4.683
7160,229.12,-5.1982,-1.0847,0.1896,0.0156,-0.0099,-1.5706,rough,14.0,2,4.684
7170,229.44,-5.1981,-1.0847,0.1896,0.0156,-0.0099,-1.5706,rough,14.0,2,4.684
7180,229.76,-5.1981,-1.0847,0.1896,0.0156,-0.0099,-1.5706,rough,14.0,2,4.684
7190,230.08,-5.1980,-1.0847,0.1896,0.0156,-0.0099,-1.5706,rough,14.0,2,4.684
7200,230.40,-5.1980,-1.0847,0.1896,0.0156,-0.0099,-1.5706,rough,14.0,2,4.684
7210,230.72,-5.1980,-1.0847,0.1896,0.0156,-0.0099,-1.5706,rough,14.0,2,4.684
7220,231.04,-5.1979,-1.0847,0.1896,0.0156,-0.0099,-1.5706,rough,14.0,2,4.684
7230,231.36,-5.1979,-1.0847,0.1896,0.0156,-0.0099,-1.5706,rough,14.0,2,4.684
7240,231.68,-5.1978,-1.0847,0.1896,0.0157,-0.0099,-1.5706,rough,14.0,2,4.684
7250,232.00,-5.1978,-1.0847,0.1896,0.0157,-0.0099,-1.5706,rough,14.0,2,4.684
7260,232.32,-5.1977,-1.0847,0.1896,0.0157,-0.0099,-1.5706,rough,14.0,2,4.684
7270,232.64,-5.1977,-1.0847,0.1896,0.0157,-0.0099,-1.5706,rough,14.0,2,4.684
7280,232.96,-5.1976,-1.0847,0.1896,0.0157,-0.0099,-1.5706,rough,14.0,2,4.684
7290,233.28,-5.1976,-1.0847,0.1896,0.0157,-0.0099,-1.5706,rough,14.0,2,4.684
7300,233.60,-5.1976,-1.0847,0.1896,0.0157,-0.0099,-1.5706,rough,14.0,2,4.684
7310,233.92,-5.1975,-1.0847,0.1896,0.0157,-0.0099,-1.5706,rough,14.0,2,4.684
7320,234.24,-5.1975,-1.0847,0.1896,0.0157,-0.0099,-1.5706,rough,14.0,2,4.684
7330,234.56,-5.1974,-1.0847,0.1896,0.0157,-0.0099,-1.5706,rough,14.0,2,4.684
7340,234.88,-5.1974,-1.0847,0.1896,0.0157,-0.0099,-1.5706,rough,14.0,2,4.684
7350,235.20,-5.1973,-1.0847,0.1896,0.0157,-0.0099,-1.5706,rough,14.0,2,4.684
7360,235.52,-5.1973,-1.0847,0.1896,0.0157,-0.0099,-1.5706,rough,14.0,2,4.684
7370,235.84,-5.1973,-1.0847,0.1896,0.0158,-0.0099,-1.5706,rough,14.0,2,4.684
7380,236.16,-5.1972,-1.0847,0.1896,0.0158,-0.0099,-1.5706,rough,14.0,2,4.684
7390,236.48,-5.1972,-1.0847,0.1896,0.0158,-0.0099,-1.5706,rough,14.0,2,4.684
7400,236.80,-5.1971,-1.0847,0.1896,0.0158,-0.0099,-1.5706,rough,14.0,2,4.684
7410,237.12,-5.1971,-1.0847,0.1896,0.0158,-0.0099,-1.5706,rough,14.0,2,4.684
7420,237.44,-5.1970,-1.0847,0.1896,0.0158,-0.0099,-1.5706,rough,14.0,2,4.684
7430,237.76,-5.1970,-1.0847,0.1896,0.0158,-0.0099,-1.5706,rough,14.0,2,4.684
7440,238.08,-5.1969,-1.0847,0.1896,0.0158,-0.0099,-1.5706,rough,14.0,2,4.684
7450,238.40,-5.1969,-1.0847,0.1896,0.0158,-0.0099,-1.5706,rough,14.0,2,4.684
7460,238.72,-5.1969,-1.0847,0.1896,0.0158,-0.0099,-1.5706,rough,14.0,2,4.684
7470,239.04,-5.1968,-1.0847,0.1896,0.0158,-0.0099,-1.5706,rough,14.0,2,4.684
7480,239.36,-5.1968,-1.0847,0.1896,0.0158,-0.0099,-1.5706,rough,14.0,2,4.684
7490,239.68,-5.1967,-1.0847,0.1896,0.0158,-0.0099,-1.5706,rough,14.0,2,4.684
7500,240.00,-5.1967,-1.0847,0.1896,0.0159,-0.0099,-1.5706,rough,14.0,2,4.684
7510,240.32,-5.1966,-1.0847,0.1896,0.0159,-0.0099,-1.5706,rough,14.0,2,4.684
7520,240.64,-5.1966,-1.0847,0.1896,0.0159,-0.0099,-1.5706,rough,14.0,2,4.684
7530,240.96,-5.1966,-1.0847,0.1896,0.0159,-0.0099,-1.5706,rough,14.0,2,4.684
7540,241.28,-5.1965,-1.0847,0.1896,0.0159,-0.0099,-1.5706,rough,14.0,2,4.684
7550,241.60,-5.1965,-1.0847,0.1896,0.0159,-0.0099,-1.5706,rough,14.0,2,4.684
7560,241.92,-5.1964,-1.0847,0.1896,0.0159,-0.0099,-1.5706,rough,14.0,2,4.685
7570,242.24,-5.1964,-1.0847,0.1896,0.0159,-0.0099,-1.5706,rough,14.0,2,4.685
7580,242.56,-5.1963,-1.0847,0.1896,0.0159,-0.0099,-1.5706,rough,14.0,2,4.685
7590,242.88,-5.1963,-1.0847,0.1896,0.0159,-0.0099,-1.5706,rough,14.0,2,4.685
7600,243.20,-5.1963,-1.0847,0.1896,0.0159,-0.0099,-1.5706,rough,14.0,2,4.685
7610,243.52,-5.1962,-1.0847,0.1896,0.0159,-0.0099,-1.5706,rough,14.0,2,4.685
7620,243.84,-5.1962,-1.0847,0.1896,0.0159,-0.0099,-1.5706,rough,14.0,2,4.685
7630,244.16,-5.1961,-1.0847,0.1896,0.0160,-0.0099,-1.5706,rough,14.0,2,4.685
7640,244.48,-5.1961,-1.0847,0.1896,0.0160,-0.0099,-1.5706,rough,14.0,2,4.685
7650,244.80,-5.1961,-1.0847,0.1896,0.0160,-0.0099,-1.5706,rough,14.0,2,4.685
7660,245.12,-5.1960,-1.0847,0.1896,0.0160,-0.0099,-1.5706,rough,14.0,2,4.685
7670,245.44,-5.1960,-1.0847,0.1896,0.0160,-0.0099,-1.5706,rough,14.0,2,4.685
7680,245.76,-5.1959,-1.0847,0.1896,0.0160,-0.0099,-1.5706,rough,14.0,2,4.685
7690,246.08,-5.1959,-1.0847,0.1896,0.0160,-0.0099,-1.5706,rough,14.0,2,4.685
7700,246.40,-5.1958,-1.0847,0.1896,0.0160,-0.0099,-1.5706,rough,14.0,2,4.685
7710,246.72,-5.1958,-1.0847,0.1896,0.0160,-0.0099,-1.5706,rough,14.0,2,4.685
7720,247.04,-5.1958,-1.0847,0.1896,0.0160,-0.0099,-1.5706,rough,14.0,2,4.685
7730,247.36,-5.1957,-1.0847,0.1896,0.0160,-0.0099,-1.5706,rough,14.0,2,4.685
7740,247.68,-5.1957,-1.0847,0.1896,0.0160,-0.0099,-1.5706,rough,14.0,2,4.685
7750,248.00,-5.1956,-1.0847,0.1896,0.0160,-0.0099,-1.5706,rough,14.0,2,4.685
7760,248.32,-5.1956,-1.0847,0.1896,0.0161,-0.0099,-1.5706,rough,14.0,2,4.685
7770,248.64,-5.1956,-1.0847,0.1896,0.0161,-0.0099,-1.5706,rough,14.0,2,4.685
7780,248.96,-5.1955,-1.0847,0.1896,0.0161,-0.0099,-1.5706,rough,14.0,2,4.685
7790,249.28,-5.1955,-1.0847,0.1896,0.0161,-0.0099,-1.5706,rough,14.0,2,4.685
7800,249.60,-5.1954,-1.0847,0.1896,0.0161,-0.0099,-1.5706,rough,14.0,2,4.685
7810,249.92,-5.1954,-1.0847,0.1896,0.0161,-0.0099,-1.5706,rough,14.0,2,4.685
7820,250.24,-5.1953,-1.0847,0.1896,0.0161,-0.0099,-1.5706,rough,14.0,2,4.685
7830,250.56,-5.1953,-1.0847,0.1896,0.0161,-0.0099,-1.5706,rough,14.0,2,4.685
7840,250.88,-5.1953,-1.0847,0.1896,0.0161,-0.0099,-1.5706,rough,14.0,2,4.685
7850,251.20,-5.1952,-1.0847,0.1896,0.0161,-0.0099,-1.5706,rough,14.0,2,4.685
7860,251.52,-5.1952,-1.0847,0.1896,0.0161,-0.0099,-1.5706,rough,14.0,2,4.685
7870,251.84,-5.1951,-1.0847,0.1896,0.0161,-0.0099,-1.5706,rough,14.0,2,4.685
