step,time_s,x,y,z,roll,pitch,yaw,terrain,speed,target_idx,dist_to_target
10,0.32,-0.1596,1.4500,0.1733,-0.0000,-0.0140,0.0000,flat,18.0,0,4.140
20,0.64,0.0828,1.4507,0.1793,-0.0000,0.0029,0.0799,flat,18.0,0,4.206
30,0.96,0.4023,1.4964,0.1798,-0.0013,-0.0002,0.4966,flat,18.0,0,4.270
40,1.28,0.7449,1.7419,0.1799,0.0000,-0.0001,0.8346,flat,18.0,0,4.189
50,1.60,1.0119,2.1114,0.1799,-0.0000,-0.0000,1.1655,flat,18.0,0,4.004
60,1.92,1.1687,2.5642,0.1799,0.0001,-0.0001,1.5413,flat,18.0,0,3.730
70,2.24,1.1508,3.0463,0.1799,0.0002,-0.0001,1.8858,flat,18.0,0,3.357
80,2.56,0.9643,3.5136,0.1793,0.0025,0.0001,2.0856,flat,18.0,0,2.897
90,2.88,0.6887,3.9549,0.1798,0.0001,0.0001,2.2154,transition,15.0,0,2.401
100,3.20,0.4275,4.2656,0.1799,-0.0000,0.0001,2.3478,transition,15.0,0,2.004
110,3.52,0.1227,4.5439,0.1799,0.0001,-0.0001,2.4458,rough,14.0,0,1.594
120,3.84,-0.1584,4.7604,0.1889,-0.0458,-0.0007,2.5112,rough,14.0,0,1.239
130,4.16,-0.4047,4.9230,0.1971,-0.0598,-0.0377,2.5711,rough,14.0,1,2.523
140,4.48,-0.6415,5.0624,0.2094,-0.0711,-0.0962,2.3788,rough,14.0,1,2.338
150,4.80,-0.8174,5.2075,0.2476,-0.0726,-0.2455,2.1991,rough,14.0,1,2.172
160,5.12,-0.9656,5.3882,0.3021,-0.0874,-0.3772,2.0663,slope,18.0,1,1.982
170,5.44,-1.1359,5.6837,0.4123,-0.1408,-0.3579,1.9603,slope,18.0,1,1.690
180,5.76,-1.2989,6.0585,0.5586,-0.1783,-0.3630,1.8873,slope,18.0,1,1.341
190,6.08,-1.4111,6.3743,0.6830,-0.1963,-0.4036,1.8470,slope,18.0,1,1.070
200,6.40,-1.5236,6.7556,0.8422,-0.1893,-0.3975,1.7741,slope,18.0,2,8.125
210,6.72,-1.6107,7.1600,1.0229,-0.1527,-0.4366,1.7471,slope,18.0,2,8.383
220,7.04,-1.6797,7.5201,1.1760,-0.0661,-0.4065,1.5782,slope,18.0,2,8.615
230,7.36,-1.6706,7.8789,1.3204,-0.0384,-0.3252,1.5280,slope,18.0,2,8.789
240,7.68,-1.6643,8.3049,1.4393,-0.0636,-0.2522,1.4565,slope,18.0,2,9.013
250,8.00,-1.6355,8.6507,1.5122,-0.0886,-0.2279,1.2597,slope,18.0,2,9.186
260,8.32,-1.5518,8.8957,1.5698,-0.0855,-0.2556,1.1134,slope,18.0,2,9.265
270,8.64,-1.4612,9.0805,1.6245,-0.0258,-0.2936,0.9180,slope,18.0,2,9.306
280,8.96,-1.3760,9.2217,1.6713,0.0051,-0.3054,0.7182,slope,18.0,2,9.329
290,9.28,-1.2497,9.2850,1.7143,0.0691,-0.3168,0.5071,slope,18.0,2,9.272
300,9.60,-1.1102,9.3155,1.7545,0.1416,-0.2837,0.2872,slope,18.0,2,9.186
310,9.92,-0.9591,9.3057,1.7888,0.2075,-0.2428,0.0475,slope,18.0,2,9.066
320,10.24,-0.7969,9.2634,1.8121,0.2591,-0.1597,-0.1559,slope,18.0,2,8.917
330,10.56,-0.6498,9.2218,1.8289,0.3018,-0.1215,-0.1990,slope,18.0,2,8.780
340,10.88,-0.5018,9.1846,1.8457,0.3046,-0.1180,-0.2337,slope,18.0,2,8.646
350,11.20,-0.3184,9.1116,1.8571,0.3125,-0.0656,-0.3511,slope,18.0,2,8.463
360,11.52,-0.1235,9.0145,1.8652,0.3003,-0.0426,-0.4518,slope,18.0,2,8.255
370,11.84,0.0392,8.9127,1.8681,0.2946,-0.0360,-0.5507,rough,14.0,2,8.067
380,12.16,0.1979,8.7964,1.8762,0.2930,-0.0466,-0.6252,rough,14.0,2,7.872
390,12.48,0.3722,8.6544,1.8803,0.2913,-0.0346,-0.6746,rough,14.0,2,7.648
400,12.80,0.5548,8.4867,1.8935,0.3059,-0.0669,-0.7328,rough,14.0,2,7.400
410,13.12,0.7603,8.2745,1.9038,0.3578,0.0131,-0.7424,rough,14.0,2,7.105
420,13.44,0.9933,8.0307,1.8637,0.4039,0.0878,-0.7443,rough,14.0,2,6.768
430,13.76,1.2669,7.7322,1.8043,0.5951,0.2529,-0.6689,rough,14.0,2,6.364
440,14.08,1.6170,7.4115,1.6647,0.5595,0.2032,-0.6775,slope,18.0,2,5.889
450,14.40,2.0347,7.0305,1.5117,0.6200,0.2552,-0.7124,slope,18.0,2,5.324
460,14.72,2.4195,6.6294,1.3612,0.6357,0.2475,-0.7643,slope,18.0,2,4.769
470,15.04,2.8047,6.2071,1.1915,0.6663,0.2950,-0.7674,slope,18.0,2,4.198
480,15.36,3.1570,5.7922,0.9679,0.6493,0.3143,-0.7399,rough,14.0,2,3.657
490,15.68,3.4625,5.3883,0.7313,0.6746,0.3039,-0.7410,rough,14.0,2,3.159
500,16.00,3.7404,5.0129,0.5502,0.6549,0.2890,-0.8185,rough,14.0,2,2.704
510,16.32,3.9623,4.6907,0.4390,0.5394,0.2058,-0.9925,rough,14.0,2,2.330
520,16.64,4.1587,4.3838,0.3273,0.4390,0.3143,-0.9264,rough,14.0,2,1.993
530,16.96,4.3729,4.1029,0.2621,0.3131,0.0488,-1.0032,rough,14.0,2,1.664
540,17.28,4.5908,3.8001,0.2371,0.2465,0.1207,-0.9156,rough,14.0,2,1.336
550,17.60,4.7915,3.5801,0.1955,0.0710,0.0130,-0.8608,rough,14.0,2,1.075
560,17.92,5.0080,3.3046,0.1879,0.0476,0.0227,-0.8935,rough,14.0,3,3.274
570,18.24,5.2906,2.9684,0.1797,-0.0003,0.0014,-0.8817,slope,18.0,3,2.874
580,18.56,5.5791,2.6284,0.1798,0.0001,0.0002,-0.8433,transition,15.0,3,2.480
590,18.88,5.8826,2.3363,0.1798,-0.0003,0.0002,-0.6727,slope,18.0,3,2.105
600,19.20,6.2694,2.0690,0.1799,0.0000,0.0002,-0.5322,rough,14.0,3,1.671
610,19.52,6.5870,1.8943,0.1799,0.0000,0.0000,-0.4280,rough,14.0,3,1.336
620,19.84,6.8098,1.7797,0.2104,0.0192,-0.1894,-0.3873,rough,14.0,3,1.111
630,20.16,7.1307,1.6082,0.2377,0.1905,-0.0320,-0.2940,rough,14.0,0,9.161
640,20.48,7.2653,1.5131,0.2546,0.1876,-0.1862,-0.0981,slope,18.0,0,9.323
650,20.80,7.2876,1.4869,0.2600,0.1175,-0.4032,0.2793,slope,18.0,0,9.354
660,21.12,7.1481,1.4947,0.2313,0.0379,-0.2868,0.9478,slope,18.0,0,9.225
670,21.44,7.0056,1.5746,0.2107,-0.1322,0.0072,1.8470,rough,14.0,0,9.062
680,21.76,6.9196,1.6385,0.2168,-0.1284,-0.0616,2.1742,rough,14.0,0,8.957
690,22.08,6.6733,1.8621,0.2076,-0.1638,0.0061,2.4342,rough,14.0,0,8.639
700,22.40,6.3994,2.1139,0.2070,-0.0625,-0.1036,2.3905,rough,14.0,0,8.286
710,22.72,6.0994,2.3989,0.1852,0.0164,0.0517,2.3442,rough,14.0,0,7.898
720,23.04,5.8529,2.6238,0.1984,-0.0694,-0.0487,2.2665,rough,14.0,0,7.584
730,23.36,5.6359,2.8907,0.1960,-0.0804,0.0516,2.1310,rough,14.0,0,7.285
740,23.68,5.4891,3.1184,0.2016,-0.0487,-0.1114,2.0622,rough,14.0,0,7.069
750,24.00,5.3911,3.2906,0.2237,-0.0127,-0.2854,2.0290,rough,14.0,0,6.920
760,24.32,5.1983,3.5769,0.2284,-0.2037,-0.0142,1.9861,rough,14.0,0,6.651
770,24.64,5.0384,3.7718,0.2851,-0.3214,-0.3122,2.2245,rough,14.0,0,6.444
780,24.96,4.8246,3.9502,0.3103,-0.4683,-0.2914,2.3232,rough,14.0,0,6.192
790,25.28,4.5707,4.1387,0.3293,-0.4450,-0.0195,2.3616,rough,14.0,0,5.901
800,25.60,4.3473,4.2689,0.3232,-0.5568,0.0301,2.4336,rough,14.0,0,5.654
810,25.92,4.2597,4.2847,0.3026,-0.5550,0.1180,2.7078,rough,14.0,0,5.565
820,26.24,4.2313,4.2245,0.2818,-0.3119,0.2040,-3.0174,rough,14.0,0,5.551
830,26.56,4.1096,4.1300,0.2347,-0.1674,0.0992,-2.6259,rough,14.0,0,5.455
840,26.88,3.8615,3.9592,0.1856,0.0023,0.0350,-2.4209,flat,18.0,0,5.261
850,27.20,3.5815,3.6688,0.1777,-0.0070,-0.0074,-2.3646,flat,18.0,0,5.088
860,27.52,3.1919,3.3275,0.1798,-0.0003,-0.0002,-2.4938,flat,18.0,0,4.865
870,27.84,2.7529,3.0332,0.1799,-0.0001,0.0001,-2.6093,flat,18.0,0,4.622
880,28.16,2.2844,2.7826,0.1799,0.0000,0.0002,-2.7517,flat,18.0,0,4.380
890,28.48,1.7790,2.6034,0.1799,-0.0006,0.0005,-2.8698,flat,18.0,0,4.114
900,28.80,1.2577,2.4720,0.1798,-0.0001,0.0001,-2.9882,flat,18.0,0,3.858
910,29.12,0.7404,2.4114,0.1799,-0.0001,-0.0000,3.0751,flat,18.0,0,3.605
920,29.44,0.2292,2.4656,0.1799,-0.0001,-0.0000,2.8703,flat,18.0,0,3.312
930,29.76,-0.2544,2.6208,0.1807,-0.0043,-0.0016,2.6863,flat,18.0,0,2.989
940,30.08,-0.6942,2.8615,0.1918,-0.0093,-0.0240,2.5176,flat,18.0,0,2.646
950,30.40,-1.0932,3.1714,0.1900,-0.0151,0.0319,2.3534,flat,18.0,0,2.293
960,30.72,-1.4268,3.5472,0.1810,-0.0024,0.0107,2.1702,flat,18.0,0,1.931
970,31.04,-1.6665,3.9419,0.1802,-0.0017,-0.0016,1.9253,flat,18.0,0,1.597
980,31.36,-1.7849,4.3212,0.1980,0.0264,-0.0740,1.6348,slope,18.0,0,1.292
990,31.68,-1.7724,4.6887,0.2251,0.1049,-0.1073,1.3451,slope,18.0,1,0.975
1000,32.00,-1.6337,5.1748,0.2787,0.1359,-0.1257,1.3091,slope,18.0,1,2.280
1010,32.32,-1.5069,5.6616,0.4012,0.0926,-0.2840,1.3113,slope,18.0,1,1.777
1020,32.64,-1.4017,6.0840,0.5625,0.0515,-0.4047,1.3412,slope,18.0,1,1.342
1030,32.96,-1.3250,6.4716,0.7336,-0.0228,-0.4429,1.3757,slope,18.0,2,7.826
1040,33.28,-1.2367,6.8721,0.9279,0.0005,-0.4373,1.3260,slope,18.0,2,7.919
1050,33.60,-1.1028,7.2975,1.1311,0.0418,-0.4187,1.2687,slope,18.0,2,8.003
1060,33.92,-0.9578,7.7623,1.3363,0.0402,-0.4025,1.2513,slope,18.0,2,8.124
1070,34.24,-0.8295,8.1803,1.5026,0.0134,-0.3787,1.1866,slope,18.0,2,8.258
1080,34.56,-0.7034,8.5212,1.6230,-0.0143,-0.3296,1.0657,slope,18.0,2,8.365
1090,34.88,-0.5695,8.7730,1.7171,0.0218,-0.3287,0.9118,slope,18.0,2,8.423
1100,35.20,-0.4145,8.9435,1.7936,0.0588,-0.3224,0.7798,slope,18.0,2,8.419
1110,35.52,-0.2421,9.0586,1.8565,0.1106,-0.2868,0.6150,slope,18.0,2,8.371
1120,35.84,-0.0962,9.1590,1.9087,0.1661,-0.2700,0.4792,slope,18.0,2,8.336
1130,36.16,0.0331,9.2338,1.9478,0.1801,-0.2404,0.3742,slope,18.0,2,8.298
1140,36.48,0.1565,9.2933,1.9774,0.1843,-0.2135,0.2835,slope,18.0,2,8.255
1150,36.80,0.2724,9.3381,2.0014,0.1769,-0.1785,0.2126,slope,18.0,2,8.209
1160,37.12,0.3765,9.3680,2.0209,0.1777,-0.1573,0.1541,slope,18.0,2,8.161
1170,37.44,0.4750,9.3856,2.0369,0.1764,-0.1532,0.0886,slope,18.0,2,8.109
1180,37.76,0.5927,9.3696,2.0531,0.1937,-0.1545,-0.0682,slope,18.0,2,8.020
1190,38.08,0.7381,9.3163,2.0661,0.2149,-0.1436,-0.2716,slope,18.0,2,7.885
1200,38.40,0.8950,9.2431,2.0805,0.2046,-0.1144,-0.4150,slope,18.0,2,7.728
1210,38.72,1.0562,9.1456,2.0965,0.2017,-0.1106,-0.5297,slope,18.0,2,7.550
1220,39.04,1.2222,9.0314,2.1133,0.1995,-0.1204,-0.6139,slope,18.0,2,7.357
1230,39.36,1.4000,8.8865,2.1344,0.2140,-0.0806,-0.6653,slope,18.0,2,7.133
1240,39.68,1.6028,8.7054,2.1466,0.2123,-0.0388,-0.7217,rough,14.0,2,6.865
1250,40.00,1.7741,8.5322,2.1529,0.2432,-0.0045,-0.7640,rough,14.0,2,6.623
1260,40.32,1.9764,8.3080,2.1307,0.3025,0.1490,-0.7739,rough,14.0,2,6.322
1270,40.64,2.1865,8.0819,2.0829,0.2871,0.1274,-0.8226,rough,14.0,2,6.015
1280,40.96,2.4225,7.7687,2.0279,0.4469,0.2656,-0.7905,rough,14.0,2,5.623
1290,41.28,2.6761,7.4450,1.9205,0.4341,0.1249,-0.8431,rough,14.0,2,5.212
1300,41.60,2.9428,7.0846,1.8214,0.5469,0.2322,-0.8270,rough,14.0,2,4.763
1310,41.92,3.2503,6.6856,1.6858,0.5838,0.3272,-0.8352,slope,18.0,2,4.260
1320,42.24,3.5898,6.2121,1.4436,0.6259,0.3684,-0.7952,slope,18.0,2,3.677
1330,42.56,3.9183,5.7097,1.1516,0.6707,0.3463,-0.8064,slope,18.0,2,3.079
1340,42.88,4.1994,5.1754,0.8515,0.6619,0.2711,-0.8646,rough,14.0,2,2.488
1350,43.20,4.4681,4.6533,0.5909,0.6615,0.2232,-0.8581,rough,14.0,2,1.922
1360,43.52,4.7493,4.2382,0.4252,0.6481,0.0972,-0.8326,rough,14.0,2,1.433
1370,43.84,4.9674,3.9416,0.3206,0.4851,0.2885,-1.0642,rough,14.0,2,1.077
1380,44.16,5.1381,3.6406,0.2477,0.1441,0.1949,-1.1956,rough,14.0,3,3.331
1390,44.48,5.2401,3.3175,0.2103,0.0815,0.0844,-1.2601,rough,14.0,3,3.075
1400,44.80,5.3783,2.9641,0.1857,-0.0013,0.0399,-1.1331,slope,18.0,3,2.792
1410,45.12,5.5473,2.6113,0.1798,-0.0001,-0.0003,-1.0668,transition,15.0,3,2.505
1420,45.44,5.7658,2.2919,0.1799,-0.0009,-0.0001,-0.8083,flat,18.0,3,2.208
1430,45.76,6.0900,2.0033,0.1798,0.0002,0.0002,-0.5904,transition,15.0,3,1.841
1440,46.08,6.4086,1.8109,0.1799,0.0001,0.0000,-0.4521,rough,14.0,3,1.512
1450,46.40,6.6919,1.6686,0.1855,0.0368,0.0105,-0.3435,rough,14.0,3,1.237
1460,46.72,6.9531,1.5658,0.2094,0.0943,-0.1007,-0.2802,rough,14.0,0,0.998
1470,47.04,7.2117,1.4393,0.2295,0.2091,-0.0632,-0.0707,rough,14.0,0,9.306
1480,47.36,7.2718,1.4328,0.2454,0.1356,-0.3000,0.1361,slope,18.0,0,9.363
1490,47.68,7.1798,1.4561,0.2307,0.0728,-0.2694,0.5218,slope,18.0,0,9.270
1500,48.00,7.0367,1.4888,0.2089,-0.0682,-0.1056,1.3868,rough,14.0,0,9.127
1510,48.32,6.9232,1.5477,0.2000,-0.1055,0.0051,2.0291,rough,14.0,0,8.999
1520,48.64,6.7543,1.7202,0.1914,-0.0511,0.0368,2.3579,rough,14.0,0,8.772
1530,48.96,6.4691,1.9746,0.1798,0.0007,0.0003,2.4158,rough,14.0,0,8.407
1540,49.28,6.1754,2.2205,0.1777,-0.0019,-0.0089,2.3854,rough,14.0,0,8.038
1550,49.60,5.8975,2.4873,0.1795,0.0006,0.0000,2.3197,rough,14.0,0,7.677
1560,49.92,5.6724,2.7184,0.1791,0.0020,0.0038,2.2239,rough,14.0,0,7.381
1570,50.24,5.4886,2.9634,0.1783,0.0096,0.0011,2.1350,rough,14.0,0,7.121
1580,50.56,5.3304,3.1587,0.2071,-0.1047,-0.0501,2.0994,rough,14.0,0,6.906
1590,50.88,5.1761,3.3907,0.2114,-0.0927,0.0191,2.1223,rough,14.0,0,6.685
1600,51.20,5.0058,3.5688,0.2056,-0.1182,-0.0182,2.3107,rough,14.0,0,6.469
1610,51.52,4.9523,3.5790,0.2097,-0.1456,0.0142,2.5754,rough,14.0,0,6.415
1620,51.84,4.9523,3.5565,0.1931,-0.0533,0.0304,2.9107,rough,14.0,0,6.421
1630,52.16,4.8695,3.5788,0.1891,-0.0043,0.0595,3.0301,rough,14.0,0,6.336
1640,52.48,4.6900,3.5888,0.1813,-0.0023,0.0080,3.1198,rough,14.0,0,6.162
1650,52.80,4.3416,3.5863,0.1798,-0.0001,-0.0007,-3.1113,transition,15.0,0,5.831
1660,53.12,3.8684,3.5685,0.1799,-0.0001,-0.0003,-3.1261,flat,18.0,0,5.392
1670,53.44,3.3064,3.5654,0.1799,-0.0001,-0.0001,3.1204,flat,18.0,0,4.871
1680,53.76,2.7486,3.5824,0.1799,-0.0001,-0.0000,3.0879,flat,18.0,0,4.355
1690,54.08,2.1898,3.6181,0.1799,-0.0002,-0.0000,3.0357,flat,18.0,0,3.841
1700,54.40,1.6374,3.6824,0.1799,0.0001,0.0000,2.9800,flat,18.0,0,3.332
1710,54.72,1.0942,3.7782,0.1799,-0.0000,0.0000,2.9144,flat,18.0,0,2.830
1720,55.04,0.5658,3.9079,0.1799,0.0001,0.0000,2.8349,flat,18.0,0,2.337
1730,55.36,0.0686,4.0736,0.1799,-0.0001,0.0001,2.7420,flat,18.0,0,1.867
1740,55.68,-0.3439,4.2558,0.1799,-0.0001,0.0001,2.6706,transition,15.0,0,1.468
1750,56.00,-0.6455,4.4156,0.1799,-0.0001,0.0000,2.5742,slope,18.0,0,1.175
1760,56.32,-0.9517,4.6372,0.1841,-0.0219,-0.0016,2.3598,slope,18.0,1,2.734
1770,56.64,-1.1797,4.8666,0.1995,-0.0023,-0.1335,2.1257,slope,18.0,1,2.509
1780,56.96,-1.3657,5.2139,0.2736,0.0371,-0.2646,1.9279,rough,14.0,1,2.184
1790,57.28,-1.4788,5.4852,0.3534,-0.0071,-0.3286,1.8306,rough,14.0,1,1.940
1800,57.60,-1.5838,5.8257,0.4600,-0.0823,-0.3455,1.7622,slope,18.0,1,1.644
1810,57.92,-1.6685,6.1893,0.5839,-0.1373,-0.3425,1.7076,slope,18.0,1,1.347
1820,58.24,-1.7121,6.4822,0.6995,-0.1305,-0.4199,1.6703,slope,18.0,1,1.126
1830,58.56,-1.7527,6.8469,0.8618,-0.1241,-0.4500,1.6182,slope,18.0,2,8.371
1840,58.88,-1.7744,7.2634,1.0556,-0.1061,-0.4302,1.6307,slope,18.0,2,8.576
1850,59.20,-1.8004,7.7278,1.2551,-0.0921,-0.3893,1.6266,slope,18.0,2,8.823
1860,59.52,-1.8294,8.1939,1.3958,-0.0909,-0.2614,1.5397,slope,18.0,2,9.090
1870,59.84,-1.8276,8.5765,1.4699,-0.1301,-0.1710,1.3696,slope,18.0,2,9.301
1880,60.16,-1.7821,8.8528,1.5198,-0.1019,-0.2243,1.1477,slope,18.0,2,9.424
1890,60.48,-1.7066,9.0503,1.5685,-0.0540,-0.2861,0.9310,slope,18.0,2,9.481
1900,60.80,-1.6106,9.1978,1.6115,-0.0481,-0.2741,0.7471,slope,18.0,2,9.496
1910,61.12,-1.4862,9.2633,1.6575,0.0058,-0.3158,0.5612,slope,18.0,2,9.440
1920,61.44,-1.3465,9.2957,1.6967,0.0870,-0.3045,0.3576,slope,18.0,2,9.353
1930,61.76,-1.1948,9.2945,1.7302,0.1800,-0.2651,0.1366,slope,18.0,2,9.237
1940,62.08,-1.0319,9.2647,1.7624,0.2389,-0.2143,-0.0854,slope,18.0,2,9.094
1950,62.40,-0.8680,9.2159,1.7864,0.2768,-0.1448,-0.1999,slope,18.0,2,8.939
1960,62.72,-0.7077,9.1711,1.8036,0.3101,-0.1151,-0.2352,slope,18.0,2,8.789
1970,63.04,-0.5255,9.1021,1.8191,0.3224,-0.0833,-0.3424,slope,18.0,2,8.608
1980,63.36,-0.3303,9.0014,1.8269,0.3228,-0.0572,-0.4525,slope,18.0,2,8.396
1990,63.68,-0.1439,8.8885,1.8289,0.3108,-0.0256,-0.5394,rough,14.0,2,8.183
2000,64.00,0.0151,8.7766,1.8332,0.3160,-0.0299,-0.5966,rough,14.0,2,7.990
2010,64.32,0.1866,8.6399,1.8403,0.3262,-0.0638,-0.6687,rough,14.0,2,7.772
2020,64.64,0.3825,8.4653,1.8479,0.3262,-0.0297,-0.7193,rough,14.0,2,7.509
2030,64.96,0.5795,8.2420,1.8495,0.4378,0.0478,-0.7260,rough,14.0,2,7.213
2040,65.28,0.8188,8.0086,1.8143,0.4229,0.0875,-0.7402,rough,14.0,2,6.879
2050,65.60,1.0916,7.7044,1.7477,0.5945,0.2276,-0.6789,slope,18.0,2,6.471
2060,65.92,1.4778,7.3464,1.5944,0.5927,0.2203,-0.6178,slope,18.0,2,5.945
2070,66.24,1.9097,6.9747,1.4410,0.6447,0.2204,-0.6267,slope,18.0,2,5.376
2080,66.56,2.3225,6.5920,1.3025,0.6664,0.1980,-0.6865,slope,18.0,2,4.813
2090,66.88,2.7379,6.2156,1.1758,0.6750,0.2465,-0.7200,slope,18.0,2,4.252
2100,67.20,3.1055,5.8108,0.9672,0.6525,0.3141,-0.7258,rough,14.0,2,3.707
2110,67.52,3.4159,5.4170,0.7420,0.6818,0.3066,-0.7175,rough,14.0,2,3.213
2120,67.84,3.7014,5.0600,0.5631,0.6484,0.2425,-0.7879,rough,14.0,2,2.764
2130,68.16,3.9125,4.7569,0.4514,0.5973,0.2005,-0.9922,rough,14.0,2,2.410
2140,68.48,4.0896,4.4696,0.3502,0.4809,0.3163,-1.0265,rough,14.0,2,2.098
2150,68.80,4.3086,4.1588,0.2677,0.3235,0.1440,-0.9867,rough,14.0,2,1.748
2160,69.12,4.4634,3.8681,0.2398,0.3039,0.0603,-1.0598,rough,14.0,2,1.480
2170,69.44,4.6517,3.6068,0.1976,0.0383,0.0659,-1.0476,rough,14.0,2,1.216
2180,69.76,4.7921,3.3554,0.1833,0.0115,0.0069,-1.0576,transition,15.0,2,1.037
2190,70.08,4.9800,3.0575,0.1804,-0.0009,-0.0045,-0.9885,flat,18.0,3,3.194
2200,70.40,5.2443,2.6683,0.1797,-0.0000,0.0007,-0.9268,flat,18.0,3,2.810
2210,70.72,5.5592,2.3282,0.1799,-0.0003,0.0002,-0.6779,flat,18.0,3,2.418
2220,71.04,5.9310,2.0678,0.1799,0.0001,-0.0000,-0.4653,transition,15.0,3,2.006
2230,71.36,6.3000,1.9058,0.1799,0.0001,0.0001,-0.3595,rough,14.0,3,1.623
2240,71.68,6.6321,1.7805,0.1897,0.0361,-0.0179,-0.2892,rough,14.0,3,1.289
2250,72.00,6.8704,1.6991,0.2072,0.0065,-0.1842,-0.2864,rough,14.0,3,1.056
2260,72.32,7.1843,1.5666,0.2490,0.1705,-0.0576,-0.2150,slope,18.0,0,9.227
2270,72.64,7.3226,1.5021,0.2566,0.0937,-0.3665,0.1196,slope,18.0,0,9.379
2280,72.96,7.2932,1.5076,0.2700,0.1204,-0.4867,0.4301,slope,18.0,0,9.350
2290,73.28,7.1718,1.5396,0.2422,0.0259,-0.3056,1.3019,rough,14.0,0,9.227
2300,73.60,7.0640,1.6640,0.2367,-0.1661,-0.0852,1.9568,rough,14.0,0,9.077
2310,73.92,6.9329,1.7789,0.2389,-0.1621,-0.1378,2.2869,rough,14.0,0,8.910
2320,74.24,6.6427,2.0688,0.1995,-0.1122,0.0034,2.3294,rough,14.0,0,8.527
2330,74.56,6.4213,2.2964,0.2255,-0.0523,-0.2112,2.2720,rough,14.0,0,8.234
2340,74.88,6.1590,2.6007,0.2019,-0.1291,0.0208,2.1514,rough,14.0,0,7.877
2350,75.20,5.9685,2.8421,0.2364,-0.1939,-0.1572,2.1255,rough,14.0,0,7.613
2360,75.52,5.7753,3.1491,0.2347,-0.2944,0.0312,1.9435,rough,14.0,0,7.330
2370,75.84,5.6383,3.3892,0.2724,-0.3319,-0.2773,2.1264,rough,14.0,0,7.126
2380,76.16,5.4035,3.6651,0.3117,-0.4538,-0.0196,2.2433,rough,14.0,0,6.824
2390,76.48,5.1751,3.8390,0.3191,-0.5316,-0.2051,2.4619,rough,14.0,0,6.559
2400,76.80,4.8672,4.0180,0.3573,-0.5649,-0.1122,2.5714,rough,14.0,0,6.217
2410,77.12,4.5609,4.1948,0.3518,-0.4897,0.0645,2.6086,rough,14.0,0,5.879
2420,77.44,4.2989,4.3009,0.3144,-0.5448,0.1202,2.6240,rough,14.0,0,5.600
2430,77.76,4.2267,4.3073,0.3024,-0.5277,0.1453,2.9889,rough,14.0,0,5.528
2440,78.08,4.1588,4.2295,0.2732,-0.3082,0.1367,-2.7347,rough,14.0,0,5.479
2450,78.40,3.9474,4.1001,0.2159,-0.1183,0.0481,-2.4870,rough,14.0,0,5.305
2460,78.72,3.6715,3.8768,0.1819,0.0134,0.0075,-2.2956,flat,18.0,0,5.104
2470,79.04,3.3845,3.5397,0.1790,-0.0043,-0.0006,-2.3018,flat,18.0,0,4.953
2480,79.36,3.0153,3.1769,0.1799,-0.0002,0.0001,-2.4356,flat,18.0,0,4.777
2490,79.68,2.5984,2.8590,0.1799,-0.0000,-0.0002,-2.5616,flat,18.0,0,4.588
2500,80.00,2.1433,2.5891,0.1799,-0.0000,-0.0002,-2.6952,flat,18.0,0,4.393
2510,80.32,1.6573,2.3793,0.1799,-0.0002,0.0000,-2.8601,flat,18.0,0,4.190
2520,80.64,1.1469,2.2515,0.1799,-0.0001,-0.0000,-3.0539,flat,18.0,0,3.965
2530,80.96,0.6260,2.2256,0.1799,-0.0001,-0.0000,3.0144,flat,18.0,0,3.707
2540,81.28,0.1189,2.3105,0.1799,-0.0000,-0.0000,2.8225,flat,18.0,0,3.409
2550,81.60,-0.3566,2.4898,0.1810,-0.0032,-0.0042,2.6460,flat,18.0,0,3.085
2560,81.92,-0.7837,2.7347,0.1850,0.0102,-0.0108,2.4811,flat,18.0,0,2.757
2570,82.24,-1.1738,3.0545,0.1867,-0.0207,0.0071,2.3087,flat,18.0,0,2.408
2580,82.56,-1.5067,3.4476,0.1814,-0.0048,0.0048,2.1285,flat,18.0,0,2.041
2590,82.88,-1.7458,3.8693,0.1796,-0.0050,-0.0069,1.8889,flat,18.0,0,1.691
2600,83.20,-1.8634,4.2865,0.1992,0.0362,-0.0675,1.5022,slope,18.0,0,1.360
2610,83.52,-1.7892,4.6739,0.2256,0.1116,-0.0913,1.2008,slope,18.0,1,0.997
2620,83.84,-1.5905,5.1139,0.2692,0.1395,-0.1412,1.1561,slope,18.0,1,2.327
2630,84.16,-1.3908,5.5186,0.3561,0.1807,-0.2902,1.1273,slope,18.0,1,1.888
2640,84.48,-1.2037,5.8822,0.4834,0.1444,-0.3914,1.0498,slope,18.0,1,1.499
2650,84.80,-1.0076,6.1842,0.6321,0.1725,-0.4061,0.9919,slope,18.0,1,1.186
2660,85.12,-0.8230,6.4536,0.7739,0.1778,-0.4234,0.9925,slope,18.0,2,7.363
2670,85.44,-0.5846,6.7687,0.9433,0.2328,-0.3918,0.8572,slope,18.0,2,7.293
2680,85.76,-0.2603,7.1109,1.1446,0.2729,-0.4187,0.7326,slope,18.0,2,7.185
2690,86.08,0.0900,7.4000,1.3437,0.3238,-0.4505,0.5970,rough,14.0,2,7.055
2700,86.40,0.3914,7.5899,1.5058,0.3328,-0.4151,0.4804,rough,14.0,2,6.929
2710,86.72,0.7192,7.7492,1.6755,0.3375,-0.4588,0.4492,rough,14.0,2,6.778
2720,87.04,1.0363,7.9136,1.8308,0.2769,-0.3882,0.4036,rough,14.0,2,6.655
2730,87.36,1.3568,8.0407,1.9482,0.2667,-0.3095,0.3745,rough,14.0,2,6.521
2740,87.68,1.6903,8.1601,2.0448,0.2719,-0.2399,0.3261,slope,18.0,2,6.387
2750,88.00,2.0557,8.2867,2.1325,0.2570,-0.2172,0.2899,slope,18.0,2,6.257
2760,88.32,2.3961,8.3904,2.2058,0.2234,-0.2259,0.2120,slope,18.0,2,6.144
2770,88.64,2.7513,8.4139,2.2631,0.2918,-0.1888,0.0827,slope,18.0,2,5.973
2780,88.96,3.1057,8.4002,2.3233,0.3095,-0.1728,-0.0596,slope,18.0,2,5.786
2790,89.28,3.4552,8.3385,2.3860,0.3262,-0.2027,-0.1930,slope,18.0,2,5.575
2800,89.60,3.8250,8.2380,2.4535,0.3302,-0.1811,-0.2867,slope,18.0,2,5.334
2810,89.92,4.2032,8.1141,2.5260,0.3478,-0.1768,-0.3185,slope,18.0,2,5.087
