step,time_s,x,y,z,roll,pitch,yaw,terrain,speed,target_idx,dist_to_target
10,0.32,-0.1252,1.4415,0.2272,0.0399,-0.0603,-0.0014,rough,14.0,0,4.157
20,0.64,0.1317,1.4431,0.2549,0.0005,-0.1140,0.3133,rough,14.0,0,4.228
30,0.96,0.3362,1.5521,0.2867,-0.0320,-0.1779,0.4935,rough,14.0,0,4.194
40,1.28,0.5663,1.7225,0.3388,-0.0911,-0.2014,0.7202,rough,14.0,0,4.128
50,1.60,0.7481,1.9610,0.3994,-0.1394,-0.2221,0.9355,rough,14.0,0,3.997
60,1.92,0.8883,2.2737,0.4483,-0.2501,-0.1752,1.1424,rough,14.0,0,3.801
70,2.24,0.9777,2.6286,0.4978,-0.2768,-0.1181,1.3581,rough,14.0,0,3.562
80,2.56,0.9950,3.0325,0.5150,-0.3133,-0.0187,1.5403,rough,14.0,0,3.261
90,2.88,0.9444,3.4482,0.4938,-0.3030,0.0803,1.7172,rough,14.0,0,2.927
100,3.20,0.8349,3.8576,0.4542,-0.3115,0.1138,1.8507,rough,14.0,0,2.576
110,3.52,0.6808,4.2542,0.3881,-0.2931,0.1729,1.9659,rough,14.0,0,2.219
120,3.84,0.4918,4.6253,0.3059,-0.2738,0.2068,2.0708,rough,14.0,0,1.869
130,4.16,0.2717,4.9712,0.2261,-0.2216,0.1800,2.1846,rough,14.0,0,1.532
140,4.48,0.0198,5.2943,0.1456,-0.0992,0.1735,2.3056,rough,14.0,0,1.211
150,4.80,-0.2651,5.5730,0.1012,0.0309,0.1535,2.4616,rough,14.0,0,0.921
160,5.12,-0.5652,5.7935,0.0746,0.0506,0.0067,2.4752,rough,14.0,1,1.641
170,5.44,-0.8808,6.0600,0.0730,0.0323,0.0056,2.3571,rough,14.0,1,1.317
180,5.76,-1.1458,6.3637,0.0716,0.0305,0.0037,2.2148,rough,14.0,1,1.014
190,6.08,-1.3668,6.6946,0.0712,0.0455,0.0192,1.9774,rough,14.0,2,7.957
200,6.40,-1.4806,7.0047,0.0707,0.0298,0.0070,1.5664,rough,14.0,2,8.196
210,6.72,-1.4686,7.2969,0.0689,0.0268,0.0128,1.2369,rough,14.0,2,8.322
220,7.04,-1.3515,7.5983,0.0652,0.0243,0.0140,1.0141,rough,14.0,2,8.370
230,7.36,-1.1686,7.8463,0.0615,0.0219,0.0130,0.7762,rough,14.0,2,8.347
240,7.68,-0.9021,8.0808,0.0571,0.0217,0.0141,0.5660,rough,14.0,2,8.258
250,8.00,-0.5748,8.2527,0.0528,0.0210,0.0100,0.3966,rough,14.0,2,8.098
260,8.32,-0.2556,8.3868,0.0681,-0.0145,-0.0658,0.2436,rough,14.0,2,7.934
270,8.64,0.0681,8.4684,0.1119,-0.0032,-0.1861,0.1232,rough,14.0,2,7.742
280,8.96,0.3802,8.5087,0.1927,-0.0112,-0.3448,0.0619,rough,14.0,2,7.541
290,9.28,0.7120,8.5238,0.3150,0.0184,-0.3478,0.0140,rough,14.0,2,7.316
300,9.60,1.0292,8.5282,0.4305,0.0210,-0.3505,0.0074,rough,14.0,2,7.101
310,9.92,1.3406,8.5304,0.5450,0.0230,-0.3555,0.0015,rough,14.0,2,6.896
320,10.24,1.6462,8.5308,0.6586,0.0241,-0.3569,-0.0025,rough,14.0,2,6.701
330,10.56,1.9450,8.5301,0.7706,0.0243,-0.3606,-0.0054,rough,14.0,2,6.519
340,10.88,2.2367,8.5287,0.8810,0.0240,-0.3636,-0.0072,rough,14.0,2,6.348
350,11.20,2.5214,8.5267,0.9896,0.0235,-0.3658,-0.0083,rough,14.0,2,6.190
360,11.52,2.7983,8.5245,1.0961,0.0227,-0.3692,-0.0089,rough,14.0,2,6.044
370,11.84,3.0677,8.5222,1.2005,0.0218,-0.3704,-0.0093,rough,14.0,2,5.912
380,12.16,3.3289,8.5197,1.3024,0.0209,-0.3740,-0.0098,rough,14.0,2,5.792
390,12.48,3.4509,8.5072,1.3614,-0.0394,-0.4506,0.1381,rough,14.0,2,5.730
400,12.80,3.4467,8.5336,1.3678,-0.0389,-0.4946,0.1501,rough,14.0,2,5.755
410,13.12,3.4392,8.5556,1.3862,-0.0314,-0.6431,0.1296,rough,14.0,2,5.778
420,13.44,3.4515,8.5713,1.3672,-0.0227,-0.4740,0.1078,rough,14.0,2,5.788
430,13.76,3.4637,8.5933,1.3649,-0.0180,-0.4268,0.0979,rough,14.0,2,5.803
440,14.08,3.4651,8.6163,1.3590,-0.0292,-0.3823,0.1284,rough,14.0,2,5.823
450,14.40,3.4728,8.6456,1.3558,-0.0420,-0.3387,0.1632,rough,14.0,2,5.847
460,14.72,3.4896,8.6818,1.3870,-0.0612,-0.4882,0.2146,rough,14.0,2,5.873
470,15.04,3.4825,8.7218,1.3661,-0.0360,-0.3714,0.1494,rough,14.0,2,5.913
480,15.36,3.4842,8.7683,1.3680,-0.0299,-0.3737,0.1337,rough,14.0,2,5.955
490,15.68,3.4778,8.8041,1.3664,-0.0095,-0.3748,0.0799,rough,14.0,2,5.990
500,16.00,3.4689,8.8153,1.3633,0.0086,-0.3760,0.0316,rough,14.0,2,6.004
510,16.32,3.4665,8.8223,1.3621,0.0175,-0.3730,0.0086,rough,14.0,2,6.011
520,16.64,3.4647,8.8253,1.3618,0.0225,-0.3744,-0.0046,rough,14.0,2,6.015
530,16.96,3.4641,8.8259,1.3615,0.0242,-0.3742,-0.0100,rough,14.0,2,6.016
540,17.28,3.4637,8.8252,1.3613,0.0251,-0.3740,-0.0128,rough,14.0,2,6.015
550,17.60,3.4634,8.8237,1.3612,0.0257,-0.3740,-0.0145,rough,14.0,2,6.014
560,17.92,3.4631,8.8219,1.3610,0.0260,-0.3740,-0.0154,rough,14.0,2,6.012
570,18.24,3.4630,8.8197,1.3609,0.0261,-0.3740,-0.0160,rough,14.0,2,6.011
580,18.56,3.4628,8.8175,1.3608,0.0262,-0.3740,-0.0163,rough,14.0,2,6.008
590,18.88,3.4627,8.8151,1.3607,0.0262,-0.3740,-0.0164,rough,14.0,2,6.006
600,19.20,3.4626,8.8128,1.3606,0.0262,-0.3740,-0.0165,rough,14.0,2,6.004
610,19.52,3.4625,8.8103,1.3605,0.0262,-0.3740,-0.0166,rough,14.0,2,6.002
620,19.84,3.4624,8.8079,1.3605,0.0261,-0.3740,-0.0166,rough,14.0,2,6.000
630,20.16,3.4624,8.8055,1.3604,0.0261,-0.3740,-0.0166,rough,14.0,2,5.998
640,20.48,3.4623,8.8030,1.3603,0.0260,-0.3741,-0.0167,rough,14.0,2,5.995
650,20.80,3.4622,8.8006,1.3602,0.0260,-0.3741,-0.0167,rough,14.0,2,5.993
660,21.12,3.4621,8.7981,1.3601,0.0259,-0.3741,-0.0167,rough,14.0,2,5.991
670,21.44,3.4620,8.7957,1.3600,0.0259,-0.3741,-0.0166,rough,14.0,2,5.989
680,21.76,3.4619,8.7933,1.3599,0.0258,-0.3741,-0.0166,rough,14.0,2,5.987
690,22.08,3.4618,8.7908,1.3598,0.0258,-0.3741,-0.0166,rough,14.0,2,5.984
700,22.40,3.4618,8.7884,1.3598,0.0257,-0.3741,-0.0166,rough,14.0,2,5.982
710,22.72,3.4617,8.7860,1.3597,0.0257,-0.3742,-0.0166,rough,14.0,2,5.980
720,23.04,3.4616,8.7835,1.3596,0.0256,-0.3742,-0.0166,rough,14.0,2,5.978
730,23.36,3.4615,8.7811,1.3595,0.0256,-0.3742,-0.0166,rough,14.0,2,5.976
740,23.68,3.4614,8.7787,1.3594,0.0256,-0.3742,-0.0166,rough,14.0,2,5.973
750,24.00,3.4613,8.7763,1.3593,0.0255,-0.3742,-0.0166,rough,14.0,2,5.971
760,24.32,3.4613,8.7739,1.3592,0.0255,-0.3742,-0.0166,rough,14.0,2,5.969
770,24.64,3.4612,8.7714,1.3592,0.0254,-0.3742,-0.0165,rough,14.0,2,5.967
780,24.96,3.4611,8.7690,1.3591,0.0254,-0.3742,-0.0165,rough,14.0,2,5.965
790,25.28,3.4610,8.7666,1.3590,0.0254,-0.3743,-0.0165,rough,14.0,2,5.962
800,25.60,3.4609,8.7642,1.3589,0.0253,-0.3743,-0.0165,rough,14.0,2,5.960
810,25.92,3.4608,8.7618,1.3588,0.0253,-0.3743,-0.0165,rough,14.0,2,5.958
820,26.24,3.4607,8.7593,1.3587,0.0252,-0.3743,-0.0165,rough,14.0,2,5.956
830,26.56,3.4607,8.7569,1.3586,0.0252,-0.3743,-0.0165,rough,14.0,2,5.954
840,26.88,3.4606,8.7545,1.3586,0.0252,-0.3743,-0.0165,rough,14.0,2,5.952
850,27.20,3.4605,8.7521,1.3585,0.0251,-0.3743,-0.0165,rough,14.0,2,5.949
860,27.52,3.4604,8.7497,1.3584,0.0251,-0.3744,-0.0165,rough,14.0,2,5.947
870,27.84,3.4603,8.7472,1.3583,0.0250,-0.3744,-0.0165,rough,14.0,2,5.945
880,28.16,3.4604,8.7448,1.3583,0.0246,-0.3744,-0.0153,rough,14.0,2,5.943
890,28.48,3.4605,8.7426,1.3583,0.0241,-0.3744,-0.0142,rough,14.0,2,5.941
900,28.80,3.4606,8.7408,1.3583,0.0239,-0.3745,-0.0135,rough,14.0,2,5.939
910,29.12,3.4606,8.7392,1.3582,0.0237,-0.3745,-0.0131,rough,14.0,2,5.937
920,29.44,3.4606,8.7376,1.3582,0.0236,-0.3745,-0.0129,rough,14.0,2,5.936
930,29.76,3.4605,8.7361,1.3581,0.0236,-0.3745,-0.0128,rough,14.0,2,5.935
940,30.08,3.4605,8.7347,1.3581,0.0235,-0.3745,-0.0127,rough,14.0,2,5.933
950,30.40,3.4604,8.7332,1.3581,0.0235,-0.3746,-0.0127,rough,14.0,2,5.932
960,30.72,3.4604,8.7318,1.3580,0.0235,-0.3746,-0.0127,rough,14.0,2,5.931
970,31.04,3.4604,8.7303,1.3580,0.0234,-0.3746,-0.0127,rough,14.0,2,5.929
980,31.36,3.4603,8.7289,1.3579,0.0234,-0.3746,-0.0127,rough,14.0,2,5.928
990,31.68,3.4603,8.7275,1.3579,0.0234,-0.3746,-0.0126,rough,14.0,2,5.927
1000,32.00,3.4602,8.7261,1.3578,0.0234,-0.3746,-0.0126,rough,14.0,2,5.926
1010,32.32,3.4602,8.7246,1.3578,0.0234,-0.3746,-0.0126,rough,14.0,2,5.924
1020,32.64,3.4601,8.7232,1.3577,0.0234,-0.3746,-0.0126,rough,14.0,2,5.923
1030,32.96,3.4601,8.7218,1.3577,0.0234,-0.3746,-0.0126,rough,14.0,2,5.922
1040,33.28,3.4600,8.7204,1.3576,0.0233,-0.3746,-0.0126,rough,14.0,2,5.920
1050,33.60,3.4600,8.7189,1.3576,0.0233,-0.3746,-0.0126,rough,14.0,2,5.919
1060,33.92,3.4599,8.7175,1.3575,0.0233,-0.3747,-0.0126,rough,14.0,2,5.918
1070,34.24,3.4599,8.7161,1.3575,0.0233,-0.3747,-0.0126,rough,14.0,2,5.917
1080,34.56,3.4598,8.7147,1.3574,0.0233,-0.3747,-0.0126,rough,14.0,2,5.915
1090,34.88,3.4598,8.7132,1.3574,0.0233,-0.3747,-0.0126,rough,14.0,2,5.914
1100,35.20,3.4597,8.7118,1.3573,0.0232,-0.3747,-0.0126,rough,14.0,2,5.913
1110,35.52,3.4597,8.7104,1.3573,0.0232,-0.3747,-0.0126,rough,14.0,2,5.911
1120,35.84,3.4596,8.7090,1.3572,0.0232,-0.3747,-0.0126,rough,14.0,2,5.910
1130,36.16,3.4596,8.7075,1.3572,0.0232,-0.3747,-0.0126,rough,14.0,2,5.909
1140,36.48,3.4595,8.7061,1.3571,0.0232,-0.3747,-0.0126,rough,14.0,2,5.908
1150,36.80,3.4595,8.7047,1.3571,0.0232,-0.3747,-0.0126,rough,14.0,2,5.906
1160,37.12,3.4594,8.7033,1.3570,0.0232,-0.3748,-0.0126,rough,14.0,2,5.905
1170,37.44,3.4594,8.7018,1.3570,0.0231,-0.3748,-0.0126,rough,14.0,2,5.904
1180,37.76,3.4593,8.7004,1.3569,0.0231,-0.3748,-0.0127,rough,14.0,2,5.902
1190,38.08,3.4593,8.6990,1.3569,0.0231,-0.3748,-0.0127,rough,14.0,2,5.901
1200,38.40,3.4592,8.6975,1.3568,0.0231,-0.3748,-0.0125,rough,14.0,2,5.900
1210,38.72,3.4592,8.6961,1.3568,0.0230,-0.3748,-0.0125,rough,14.0,2,5.899
1220,39.04,3.4592,8.6948,1.3568,0.0230,-0.3748,-0.0124,rough,14.0,2,5.897
1230,39.36,3.4591,8.6934,1.3567,0.0230,-0.3748,-0.0124,rough,14.0,2,5.896
1240,39.68,3.4591,8.6920,1.3567,0.0230,-0.3748,-0.0124,rough,14.0,2,5.895
1250,40.00,3.4590,8.6906,1.3566,0.0230,-0.3748,-0.0124,rough,14.0,2,5.894
1260,40.32,3.4590,8.6893,1.3566,0.0230,-0.3748,-0.0124,rough,14.0,2,5.892
1270,40.64,3.4589,8.6879,1.3565,0.0230,-0.3749,-0.0124,rough,14.0,2,5.891
1280,40.96,3.4589,8.6866,1.3565,0.0229,-0.3749,-0.0124,rough,14.0,2,5.890
1290,41.28,3.4588,8.6852,1.3564,0.0229,-0.3749,-0.0124,rough,14.0,2,5.889
1300,41.60,3.4588,8.6838,1.3564,0.0229,-0.3749,-0.0124,rough,14.0,2,5.887
1310,41.92,3.4588,8.6825,1.3564,0.0229,-0.3749,-0.0124,rough,14.0,2,5.886
1320,42.24,3.4587,8.6811,1.3563,0.0229,-0.3749,-0.0124,rough,14.0,2,5.885
1330,42.56,3.4587,8.6797,1.3563,0.0229,-0.3749,-0.0124,rough,14.0,2,5.884
1340,42.88,3.4586,8.6784,1.3562,0.0229,-0.3749,-0.0124,rough,14.0,2,5.883
1350,43.20,3.4586,8.6770,1.3562,0.0229,-0.3749,-0.0124,rough,14.0,2,5.881
1360,43.52,3.4585,8.6757,1.3561,0.0229,-0.3749,-0.0124,rough,14.0,2,5.880
1370,43.84,3.4585,8.6743,1.3561,0.0229,-0.3749,-0.0124,rough,14.0,2,5.879
1380,44.16,3.4585,8.6729,1.3561,0.0228,-0.3750,-0.0123,rough,14.0,2,5.878
1390,44.48,3.4585,8.6716,1.3560,0.0225,-0.3750,-0.0115,rough,14.0,2,5.876
1400,44.80,3.4586,8.6704,1.3561,0.0222,-0.3750,-0.0105,rough,14.0,2,5.875
1410,45.12,3.4587,8.6695,1.3561,0.0219,-0.3750,-0.0099,rough,14.0,2,5.874
1420,45.44,3.4587,8.6688,1.3561,0.0218,-0.3750,-0.0096,rough,14.0,2,5.874
1430,45.76,3.4588,8.6682,1.3561,0.0217,-0.3751,-0.0094,rough,14.0,2,5.873
1440,46.08,3.4587,8.6676,1.3561,0.0217,-0.3751,-0.0093,rough,14.0,2,5.873
1450,46.40,3.4587,8.6670,1.3560,0.0217,-0.3751,-0.0092,rough,14.0,2,5.872
1460,46.72,3.4587,8.6664,1.3560,0.0216,-0.3751,-0.0092,rough,14.0,2,5.872
1470,47.04,3.4587,8.6659,1.3560,0.0216,-0.3751,-0.0092,rough,14.0,2,5.871
1480,47.36,3.4587,8.6654,1.3560,0.0216,-0.3751,-0.0092,rough,14.0,2,5.871
1490,47.68,3.4587,8.6648,1.3560,0.0216,-0.3751,-0.0091,rough,14.0,2,5.870
1500,48.00,3.4587,8.6643,1.3560,0.0216,-0.3751,-0.0091,rough,14.0,2,5.870
1510,48.32,3.4586,8.6638,1.3559,0.0216,-0.3751,-0.0091,rough,14.0,2,5.869
1520,48.64,3.4586,8.6632,1.3559,0.0216,-0.3751,-0.0091,rough,14.0,2,5.869
1530,48.96,3.4586,8.6627,1.3559,0.0216,-0.3751,-0.0091,rough,14.0,2,5.868
1540,49.28,3.4586,8.6621,1.3559,0.0216,-0.3751,-0.0092,rough,14.0,2,5.868
1550,49.60,3.4586,8.6616,1.3559,0.0216,-0.3751,-0.0092,rough,14.0,2,5.867
1560,49.92,3.4586,8.6610,1.3559,0.0216,-0.3751,-0.0092,rough,14.0,2,5.867
1570,50.24,3.4585,8.6604,1.3558,0.0216,-0.3751,-0.0092,rough,14.0,2,5.866
1580,50.56,3.4585,8.6598,1.3558,0.0216,-0.3751,-0.0092,rough,14.0,2,5.866
1590,50.88,3.4585,8.6592,1.3558,0.0216,-0.3751,-0.0092,rough,14.0,2,5.865
1600,51.20,3.4585,8.6586,1.3558,0.0216,-0.3751,-0.0092,rough,14.0,2,5.865
1610,51.52,3.4585,8.6580,1.3558,0.0216,-0.3751,-0.0092,rough,14.0,2,5.864
1620,51.84,3.4584,8.6574,1.3557,0.0216,-0.3751,-0.0092,rough,14.0,2,5.863
1630,52.16,3.4584,8.6568,1.3557,0.0216,-0.3751,-0.0092,rough,14.0,2,5.863
1640,52.48,3.4584,8.6562,1.3557,0.0216,-0.3751,-0.0092,rough,14.0,2,5.862
1650,52.80,3.4584,8.6556,1.3557,0.0216,-0.3751,-0.0092,rough,14.0,2,5.862
1660,53.12,3.4584,8.6550,1.3557,0.0216,-0.3752,-0.0092,rough,14.0,2,5.861
1670,53.44,3.4583,8.6544,1.3556,0.0216,-0.3752,-0.0092,rough,14.0,2,5.861
1680,53.76,3.4583,8.6538,1.3556,0.0216,-0.3752,-0.0092,rough,14.0,2,5.860
1690,54.08,3.4583,8.6532,1.3556,0.0216,-0.3752,-0.0092,rough,14.0,2,5.860
1700,54.40,3.4583,8.6526,1.3556,0.0216,-0.3752,-0.0092,rough,14.0,2,5.859
1710,54.72,3.4583,8.6520,1.3556,0.0216,-0.3752,-0.0092,rough,14.0,2,5.859
1720,55.04,3.4582,8.6514,1.3555,0.0216,-0.3752,-0.0092,rough,14.0,2,5.858
1730,55.36,3.4582,8.6508,1.3555,0.0216,-0.3752,-0.0092,rough,14.0,2,5.858
1740,55.68,3.4582,8.6502,1.3555,0.0216,-0.3752,-0.0092,rough,14.0,2,5.857
1750,56.00,3.4582,8.6496,1.3555,0.0215,-0.3752,-0.0092,rough,14.0,2,5.856
1760,56.32,3.4582,8.6490,1.3555,0.0215,-0.3752,-0.0091,rough,14.0,2,5.856
1770,56.64,3.4582,8.6484,1.3555,0.0215,-0.3752,-0.0091,rough,14.0,2,5.855
1780,56.96,3.4581,8.6479,1.3554,0.0215,-0.3752,-0.0090,rough,14.0,2,5.855
1790,57.28,3.4581,8.6473,1.3554,0.0214,-0.3751,-0.0090,rough,14.0,2,5.854
1800,57.60,3.4581,8.6468,1.3554,0.0215,-0.3752,-0.0090,rough,14.0,2,5.854
1810,57.92,3.4581,8.6462,1.3554,0.0215,-0.3752,-0.0090,rough,14.0,2,5.853
1820,58.24,3.4581,8.6457,1.3554,0.0215,-0.3752,-0.0090,rough,14.0,2,5.853
1830,58.56,3.4580,8.6451,1.3554,0.0215,-0.3752,-0.0090,rough,14.0,2,5.852
1840,58.88,3.4580,8.6446,1.3553,0.0215,-0.3752,-0.0090,rough,14.0,2,5.852
1850,59.20,3.4580,8.6441,1.3553,0.0215,-0.3752,-0.0090,rough,14.0,2,5.851
1860,59.52,3.4580,8.6435,1.3553,0.0215,-0.3752,-0.0090,rough,14.0,2,5.851
1870,59.84,3.4580,8.6430,1.3553,0.0214,-0.3752,-0.0090,rough,14.0,2,5.850
1880,60.16,3.4580,8.6424,1.3553,0.0214,-0.3752,-0.0090,rough,14.0,2,5.850
1890,60.48,3.4579,8.6419,1.3553,0.0214,-0.3752,-0.0090,rough,14.0,2,5.849
1900,60.80,3.4579,8.6413,1.3552,0.0214,-0.3752,-0.0090,rough,14.0,2,5.849
1910,61.12,3.4579,8.6408,1.3552,0.0214,-0.3752,-0.0090,rough,14.0,2,5.848
1920,61.44,3.4579,8.6403,1.3552,0.0214,-0.3752,-0.0090,rough,14.0,2,5.848
1930,61.76,3.4579,8.6397,1.3552,0.0214,-0.3752,-0.0090,rough,14.0,2,5.848
1940,62.08,3.4578,8.6392,1.3552,0.0214,-0.3752,-0.0090,rough,14.0,2,5.847
1950,62.40,3.4578,8.6386,1.3551,0.0214,-0.3752,-0.0090,rough,14.0,2,5.847
1960,62.72,3.4578,8.6381,1.3551,0.0214,-0.3752,-0.0090,rough,14.0,2,5.846
1970,63.04,3.4578,8.6375,1.3551,0.0214,-0.3752,-0.0090,rough,14.0,2,5.846
1980,63.36,3.4578,8.6370,1.3551,0.0214,-0.3752,-0.0090,rough,14.0,2,5.845
1990,63.68,3.4578,8.6365,1.3551,0.0214,-0.3752,-0.0090,rough,14.0,2,5.845
2000,64.00,3.4577,8.6359,1.3551,0.0214,-0.3752,-0.0090,rough,14.0,2,5.844
2010,64.32,3.4577,8.6354,1.3550,0.0214,-0.3753,-0.0090,rough,14.0,2,5.844
2020,64.64,3.4577,8.6348,1.3550,0.0214,-0.3753,-0.0090,rough,14.0,2,5.843
2030,64.96,3.4577,8.6343,1.3550,0.0214,-0.3753,-0.0090,rough,14.0,2,5.843
2040,65.28,3.4577,8.6337,1.3550,0.0214,-0.3753,-0.0090,rough,14.0,2,5.842
2050,65.60,3.4576,8.6332,1.3550,0.0214,-0.3753,-0.0090,rough,14.0,2,5.842
2060,65.92,3.4576,8.6327,1.3550,0.0214,-0.3753,-0.0090,rough,14.0,2,5.841
2070,66.24,3.4576,8.6321,1.3549,0.0214,-0.3753,-0.0090,rough,14.0,2,5.841
2080,66.56,3.4576,8.6316,1.3549,0.0214,-0.3753,-0.0090,rough,14.0,2,5.840
2090,66.88,3.4576,8.6310,1.3549,0.0214,-0.3753,-0.0090,rough,14.0,2,5.840
2100,67.20,3.4576,8.6305,1.3549,0.0214,-0.3753,-0.0090,rough,14.0,2,5.839
2110,67.52,3.4575,8.6299,1.3549,0.0214,-0.3753,-0.0090,rough,14.0,2,5.839
2120,67.84,3.4575,8.6294,1.3549,0.0214,-0.3753,-0.0090,rough,14.0,2,5.838
2130,68.16,3.4575,8.6289,1.3548,0.0214,-0.3753,-0.0090,rough,14.0,2,5.838
2140,68.48,3.4575,8.6283,1.3548,0.0214,-0.3753,-0.0090,rough,14.0,2,5.837
2150,68.80,3.4575,8.6278,1.3548,0.0214,-0.3753,-0.0090,rough,14.0,2,5.837
2160,69.12,3.4574,8.6272,1.3548,0.0214,-0.3753,-0.0090,rough,14.0,2,5.836
2170,69.44,3.4574,8.6267,1.3548,0.0214,-0.3753,-0.0090,rough,14.0,2,5.836
2180,69.76,3.4574,8.6261,1.3548,0.0214,-0.3753,-0.0090,rough,14.0,2,5.835
2190,70.08,3.4574,8.6256,1.3547,0.0214,-0.3753,-0.0090,rough,14.0,2,5.835
2200,70.40,3.4574,8.6250,1.3547,0.0214,-0.3753,-0.0090,rough,14.0,2,5.834
2210,70.72,3.4574,8.6245,1.3547,0.0214,-0.3753,-0.0090,rough,14.0,2,5.834
2220,71.04,3.4573,8.6240,1.3547,0.0214,-0.3753,-0.0090,rough,14.0,2,5.833
2230,71.36,3.4573,8.6234,1.3547,0.0214,-0.3753,-0.0090,rough,14.0,2,5.833
2240,71.68,3.4573,8.6229,1.3546,0.0214,-0.3753,-0.0090,rough,14.0,2,5.832
2250,72.00,3.4573,8.6223,1.3546,0.0214,-0.3753,-0.0090,rough,14.0,2,5.832
2260,72.32,3.4573,8.6218,1.3546,0.0214,-0.3753,-0.0090,rough,14.0,2,5.831
2270,72.64,3.4572,8.6212,1.3546,0.0214,-0.3753,-0.0090,rough,14.0,2,5.831
2280,72.96,3.4572,8.6207,1.3546,0.0214,-0.3753,-0.0090,rough,14.0,2,5.830
2290,73.28,3.4572,8.6202,1.3546,0.0213,-0.3753,-0.0090,rough,14.0,2,5.830
2300,73.60,3.4572,8.6196,1.3545,0.0213,-0.3753,-0.0090,rough,14.0,2,5.829
2310,73.92,3.4572,8.6191,1.3545,0.0213,-0.3753,-0.0090,rough,14.0,2,5.829
2320,74.24,3.4572,8.6185,1.3545,0.0213,-0.3753,-0.0090,rough,14.0,2,5.828
2330,74.56,3.4571,8.6180,1.3545,0.0213,-0.3753,-0.0090,rough,14.0,2,5.828
2340,74.88,3.4571,8.6174,1.3545,0.0213,-0.3753,-0.0090,rough,14.0,2,5.827
2350,75.20,3.4571,8.6169,1.3545,0.0213,-0.3753,-0.0090,rough,14.0,2,5.827
2360,75.52,3.4571,8.6163,1.3544,0.0213,-0.3753,-0.0090,rough,14.0,2,5.826
2370,75.84,3.4571,8.6158,1.3544,0.0213,-0.3753,-0.0090,rough,14.0,2,5.826
2380,76.16,3.4570,8.6153,1.3544,0.0213,-0.3753,-0.0090,rough,14.0,2,5.825
2390,76.48,3.4570,8.6147,1.3544,0.0213,-0.3753,-0.0090,rough,14.0,2,5.825
2400,76.80,3.4570,8.6142,1.3544,0.0213,-0.3753,-0.0090,rough,14.0,2,5.825
2410,77.12,3.4570,8.6136,1.3544,0.0213,-0.3753,-0.0090,rough,14.0,2,5.824
2420,77.44,3.4570,8.6131,1.3543,0.0213,-0.3753,-0.0090,rough,14.0,2,5.824
2430,77.76,3.4570,8.6125,1.3543,0.0213,-0.3753,-0.0090,rough,14.0,2,5.823
2440,78.08,3.4569,8.6120,1.3543,0.0213,-0.3753,-0.0090,rough,14.0,2,5.823
2450,78.40,3.4569,8.6114,1.3543,0.0213,-0.3753,-0.0090,rough,14.0,2,5.822
2460,78.72,3.4569,8.6109,1.3543,0.0213,-0.3753,-0.0090,rough,14.0,2,5.822
2470,79.04,3.4569,8.6104,1.3543,0.0213,-0.3753,-0.0090,rough,14.0,2,5.821
2480,79.36,3.4569,8.6098,1.3542,0.0213,-0.3753,-0.0090,rough,14.0,2,5.821
2490,79.68,3.4568,8.6093,1.3542,0.0213,-0.3753,-0.0090,rough,14.0,2,5.820
2500,80.00,3.4568,8.6087,1.3542,0.0213,-0.3753,-0.0090,rough,14.0,2,5.820
2510,80.32,3.4568,8.6082,1.3542,0.0213,-0.3753,-0.0090,rough,14.0,2,5.819
2520,80.64,3.4568,8.6076,1.3542,0.0213,-0.3753,-0.0090,rough,14.0,2,5.819
2530,80.96,3.4568,8.6071,1.3541,0.0213,-0.3753,-0.0090,rough,14.0,2,5.818
2540,81.28,3.4568,8.6065,1.3541,0.0213,-0.3753,-0.0090,rough,14.0,2,5.818
2550,81.60,3.4567,8.6060,1.3541,0.0213,-0.3753,-0.0090,rough,14.0,2,5.817
2560,81.92,3.4567,8.6054,1.3541,0.0213,-0.3753,-0.0090,rough,14.0,2,5.817
2570,82.24,3.4567,8.6049,1.3541,0.0213,-0.3753,-0.0090,rough,14.0,2,5.816
2580,82.56,3.4567,8.6044,1.3541,0.0213,-0.3754,-0.0090,rough,14.0,2,5.816
2590,82.88,3.4567,8.6038,1.3540,0.0213,-0.3754,-0.0090,rough,14.0,2,5.815
2600,83.20,3.4566,8.6033,1.3540,0.0213,-0.3754,-0.0090,rough,14.0,2,5.815
2610,83.52,3.4566,8.6027,1.3540,0.0213,-0.3754,-0.0090,rough,14.0,2,5.814
2620,83.84,3.4566,8.6022,1.3540,0.0213,-0.3754,-0.0090,rough,14.0,2,5.814
2630,84.16,3.4566,8.6016,1.3540,0.0213,-0.3754,-0.0090,rough,14.0,2,5.813
2640,84.48,3.4566,8.6011,1.3540,0.0213,-0.3754,-0.0090,rough,14.0,2,5.813
2650,84.80,3.4566,8.6005,1.3539,0.0213,-0.3754,-0.0090,rough,14.0,2,5.812
2660,85.12,3.4565,8.6000,1.3539,0.0213,-0.3754,-0.0090,rough,14.0,2,5.812
2670,85.44,3.4565,8.5994,1.3539,0.0213,-0.3754,-0.0090,rough,14.0,2,5.811
2680,85.76,3.4565,8.5989,1.3539,0.0213,-0.3754,-0.0090,rough,14.0,2,5.811
2690,86.08,3.4565,8.5984,1.3539,0.0213,-0.3754,-0.0090,rough,14.0,2,5.810
2700,86.40,3.4565,8.5978,1.3539,0.0213,-0.3754,-0.0090,rough,14.0,2,5.810
2710,86.72,3.4564,8.5973,1.3538,0.0212,-0.3754,-0.0090,rough,14.0,2,5.809
2720,87.04,3.4564,8.5967,1.3538,0.0212,-0.3754,-0.0090,rough,14.0,2,5.809
2730,87.36,3.4564,8.5962,1.3538,0.0212,-0.3754,-0.0090,rough,14.0,2,5.808
2740,87.68,3.4564,8.5956,1.3538,0.0212,-0.3754,-0.0090,rough,14.0,2,5.808
2750,88.00,3.4564,8.5951,1.3538,0.0212,-0.3754,-0.0090,rough,14.0,2,5.807
2760,88.32,3.4564,8.5945,1.3538,0.0212,-0.3754,-0.0090,rough,14.0,2,5.807
2770,88.64,3.4563,8.5940,1.3537,0.0212,-0.3754,-0.0090,rough,14.0,2,5.806
2780,88.96,3.4563,8.5934,1.3537,0.0212,-0.3754,-0.0090,rough,14.0,2,5.806
2790,89.28,3.4563,8.5929,1.3537,0.0212,-0.3754,-0.0090,rough,14.0,2,5.805
2800,89.60,3.4563,8.5924,1.3537,0.0212,-0.3754,-0.0090,rough,14.0,2,5.805
2810,89.92,3.4563,8.5918,1.3537,0.0212,-0.3754,-0.0090,rough,14.0,2,5.804
2820,90.24,3.4562,8.5913,1.3536,0.0212,-0.3754,-0.0090,rough,14.0,2,5.804
2830,90.56,3.4562,8.5907,1.3536,0.0212,-0.3754,-0.0090,rough,14.0,2,5.803
2840,90.88,3.4562,8.5902,1.3536,0.0212,-0.3754,-0.0090,rough,14.0,2,5.803
2850,91.20,3.4562,8.5896,1.3536,0.0212,-0.3754,-0.0090,rough,14.0,2,5.802
2860,91.52,3.4562,8.5891,1.3536,0.0212,-0.3754,-0.0090,rough,14.0,2,5.802
2870,91.84,3.4562,8.5885,1.3536,0.0212,-0.3754,-0.0090,rough,14.0,2,5.801
2880,92.16,3.4561,8.5880,1.3535,0.0212,-0.3754,-0.0090,rough,14.0,2,5.801
2890,92.48,3.4561,8.5874,1.3535,0.0212,-0.3754,-0.0090,rough,14.0,2,5.800
2900,92.80,3.4561,8.5869,1.3535,0.0212,-0.3754,-0.0090,rough,14.0,2,5.800
2910,93.12,3.4561,8.5863,1.3535,0.0212,-0.3754,-0.0090,rough,14.0,2,5.799
2920,93.44,3.4561,8.5858,1.3535,0.0212,-0.3754,-0.0090,rough,14.0,2,5.799
2930,93.76,3.4560,8.5852,1.3535,0.0212,-0.3754,-0.0090,rough,14.0,2,5.798
2940,94.08,3.4560,8.5847,1.3534,0.0212,-0.3754,-0.0090,rough,14.0,2,5.798
2950,94.40,3.4560,8.5842,1.3534,0.0212,-0.3754,-0.0090,rough,14.0,2,5.798
2960,94.72,3.4560,8.5836,1.3534,0.0212,-0.3754,-0.0090,rough,14.0,2,5.797
2970,95.04,3.4560,8.5831,1.3534,0.0212,-0.3754,-0.0090,rough,14.0,2,5.797
2980,95.36,3.4560,8.5825,1.3534,0.0211,-0.3754,-0.0090,rough,14.0,2,5.796
2990,95.68,3.4559,8.5820,1.3534,0.0211,-0.3754,-0.0090,rough,14.0,2,5.796
3000,96.00,3.4559,8.5814,1.3533,0.0211,-0.3754,-0.0090,rough,14.0,2,5.795
3010,96.32,3.4559,8.5809,1.3533,0.0211,-0.3754,-0.0090,rough,14.0,2,5.795
3020,96.64,3.4559,8.5803,1.3533,0.0211,-0.3754,-0.0090,rough,14.0,2,5.794
3030,96.96,3.4559,8.5798,1.3533,0.0211,-0.3754,-0.0090,rough,14.0,2,5.794
3040,97.28,3.4558,8.5792,1.3533,0.0211,-0.3754,-0.0090,rough,14.0,2,5.793
3050,97.60,3.4558,8.5787,1.3533,0.0211,-0.3754,-0.0090,rough,14.0,2,5.793
3060,97.92,3.4558,8.5781,1.3532,0.0211,-0.3754,-0.0090,rough,14.0,2,5.792
3070,98.24,3.4558,8.5776,1.3532,0.0211,-0.3754,-0.0090,rough,14.0,2,5.792
3080,98.56,3.4558,8.5770,1.3532,0.0211,-0.3754,-0.0090,rough,14.0,2,5.791
3090,98.88,3.4558,8.5765,1.3532,0.0211,-0.3754,-0.0090,rough,14.0,2,5.791
3100,99.20,3.4557,8.5759,1.3532,0.0211,-0.3754,-0.0090,rough,14.0,2,5.790
3110,99.52,3.4557,8.5754,1.3532,0.0211,-0.3754,-0.0090,rough,14.0,2,5.790
3120,99.84,3.4557,8.5749,1.3531,0.0211,-0.3754,-0.0090,rough,14.0,2,5.789
3130,100.16,3.4557,8.5743,1.3531,0.0211,-0.3754,-0.0090,rough,14.0,2,5.789
3140,100.48,3.4557,8.5738,1.3531,0.0211,-0.3754,-0.0090,rough,14.0,2,5.788
3150,100.80,3.4557,8.5732,1.3531,0.0211,-0.3754,-0.0090,rough,14.0,2,5.788
3160,101.12,3.4556,8.5727,1.3531,0.0211,-0.3754,-0.0090,rough,14.0,2,5.787
3170,101.44,3.4556,8.5721,1.3530,0.0211,-0.3754,-0.0090,rough,14.0,2,5.787
3180,101.76,3.4556,8.5716,1.3530,0.0211,-0.3754,-0.0090,rough,14.0,2,5.786
3190,102.08,3.4556,8.5710,1.3530,0.0211,-0.3754,-0.0090,rough,14.0,2,5.786
3200,102.40,3.4556,8.5705,1.3530,0.0211,-0.3754,-0.0090,rough,14.0,2,5.785
3210,102.72,3.4555,8.5699,1.3530,0.0211,-0.3754,-0.0090,rough,14.0,2,5.785
3220,103.04,3.4555,8.5694,1.3530,0.0211,-0.3754,-0.0090,rough,14.0,2,5.784
3230,103.36,3.4555,8.5688,1.3529,0.0210,-0.3754,-0.0090,rough,14.0,2,5.784
3240,103.68,3.4555,8.5683,1.3529,0.0210,-0.3754,-0.0090,rough,14.0,2,5.783
3250,104.00,3.4555,8.5677,1.3529,0.0210,-0.3754,-0.0090,rough,14.0,2,5.783
3260,104.32,3.4555,8.5672,1.3529,0.0210,-0.3754,-0.0090,rough,14.0,2,5.782
3270,104.64,3.4554,8.5666,1.3529,0.0210,-0.3754,-0.0090,rough,14.0,2,5.782
3280,104.96,3.4554,8.5661,1.3529,0.0210,-0.3754,-0.0090,rough,14.0,2,5.781
3290,105.28,3.4554,8.5655,1.3528,0.0210,-0.3754,-0.0090,rough,14.0,2,5.781
3300,105.60,3.4554,8.5650,1.3528,0.0210,-0.3754,-0.0090,rough,14.0,2,5.780
3310,105.92,3.4554,8.5644,1.3528,0.0210,-0.3754,-0.0090,rough,14.0,2,5.780
3320,106.24,3.4553,8.5639,1.3528,0.0210,-0.3754,-0.0090,rough,14.0,2,5.779
3330,106.56,3.4553,8.5634,1.3528,0.0210,-0.3754,-0.0090,rough,14.0,2,5.779
3340,106.88,3.4553,8.5628,1.3528,0.0210,-0.3754,-0.0090,rough,14.0,2,5.778
3350,107.20,3.4553,8.5623,1.3527,0.0210,-0.3754,-0.0090,rough,14.0,2,5.778
3360,107.52,3.4553,8.5617,1.3527,0.0210,-0.3754,-0.0090,rough,14.0,2,5.777
3370,107.84,3.4553,8.5612,1.3527,0.0210,-0.3754,-0.0090,rough,14.0,2,5.777
3380,108.16,3.4552,8.5606,1.3527,0.0210,-0.3754,-0.0090,rough,14.0,2,5.776
3390,108.48,3.4552,8.5601,1.3527,0.0210,-0.3754,-0.0090,rough,14.0,2,5.776
3400,108.80,3.4552,8.5595,1.3527,0.0210,-0.3754,-0.0090,rough,14.0,2,5.775
3410,109.12,3.4552,8.5590,1.3526,0.0210,-0.3754,-0.0090,rough,14.0,2,5.775
3420,109.44,3.4552,8.5584,1.3526,0.0210,-0.3754,-0.0090,rough,14.0,2,5.774
3430,109.76,3.4551,8.5579,1.3526,0.0210,-0.3754,-0.0090,rough,14.0,2,5.774
3440,110.08,3.4551,8.5573,1.3526,0.0210,-0.3754,-0.0090,rough,14.0,2,5.773
3450,110.40,3.4551,8.5568,1.3526,0.0210,-0.3754,-0.0090,rough,14.0,2,5.773
3460,110.72,3.4551,8.5562,1.3526,0.0210,-0.3754,-0.0090,rough,14.0,2,5.772
3470,111.04,3.4551,8.5557,1.3525,0.0210,-0.3754,-0.0090,rough,14.0,2,5.772
3480,111.36,3.4550,8.5551,1.3525,0.0210,-0.3754,-0.0091,rough,14.0,2,5.771
3490,111.68,3.4550,8.5545,1.3525,0.0210,-0.3754,-0.0092,rough,14.0,2,5.771
3500,112.00,3.4550,8.5538,1.3525,0.0210,-0.3754,-0.0092,rough,14.0,2,5.770
3510,112.32,3.4550,8.5532,1.3524,0.0210,-0.3754,-0.0092,rough,14.0,2,5.770
3520,112.64,3.4549,8.5526,1.3524,0.0210,-0.3754,-0.0093,rough,14.0,2,5.769
3530,112.96,3.4549,8.5519,1.3524,0.0210,-0.3754,-0.0093,rough,14.0,2,5.769
3540,113.28,3.4549,8.5513,1.3524,0.0210,-0.3754,-0.0093,rough,14.0,2,5.768
3550,113.60,3.4549,8.5506,1.3524,0.0210,-0.3754,-0.0093,rough,14.0,2,5.767
3560,113.92,3.4548,8.5500,1.3523,0.0210,-0.3754,-0.0093,rough,14.0,2,5.767
3570,114.24,3.4548,8.5493,1.3523,0.0210,-0.3754,-0.0093,rough,14.0,2,5.766
3580,114.56,3.4548,8.5486,1.3523,0.0210,-0.3754,-0.0093,rough,14.0,2,5.766
3590,114.88,3.4548,8.5480,1.3523,0.0209,-0.3754,-0.0093,rough,14.0,2,5.765
3600,115.20,3.4548,8.5473,1.3523,0.0209,-0.3754,-0.0093,rough,14.0,2,5.764
3610,115.52,3.4547,8.5466,1.3522,0.0210,-0.3754,-0.0096,rough,14.0,2,5.764
3620,115.84,3.4544,8.5454,1.3521,0.0215,-0.3753,-0.0109,rough,14.0,2,5.763
3630,116.16,3.4543,8.5438,1.3520,0.0217,-0.3753,-0.0116,rough,14.0,2,5.761
3640,116.48,3.4541,8.5420,1.3519,0.0219,-0.3753,-0.0121,rough,14.0,2,5.760
3650,116.80,3.4540,8.5401,1.3519,0.0219,-0.3754,-0.0123,rough,14.0,2,5.758
3660,117.12,3.4539,8.5382,1.3518,0.0219,-0.3754,-0.0124,rough,14.0,2,5.756
3670,117.44,3.4538,8.5362,1.3517,0.0219,-0.3754,-0.0125,rough,14.0,2,5.755
3680,117.76,3.4538,8.5342,1.3517,0.0219,-0.3754,-0.0126,rough,14.0,2,5.753
3690,118.08,3.4537,8.5322,1.3516,0.0219,-0.3754,-0.0126,rough,14.0,2,5.751
3700,118.40,3.4536,8.5302,1.3516,0.0219,-0.3754,-0.0126,rough,14.0,2,5.749
3710,118.72,3.4536,8.5281,1.3515,0.0218,-0.3754,-0.0126,rough,14.0,2,5.747
3720,119.04,3.4535,8.5261,1.3514,0.0218,-0.3754,-0.0126,rough,14.0,2,5.746
3730,119.36,3.4534,8.5241,1.3514,0.0218,-0.3755,-0.0126,rough,14.0,2,5.744
3740,119.68,3.4534,8.5221,1.3513,0.0217,-0.3755,-0.0126,rough,14.0,2,5.742
3750,120.00,3.4533,8.5200,1.3513,0.0217,-0.3755,-0.0126,rough,14.0,2,5.740
3760,120.32,3.4532,8.5180,1.3512,0.0217,-0.3755,-0.0126,rough,14.0,2,5.738
3770,120.64,3.4528,8.5160,1.3510,0.0216,-0.3755,-0.0126,rough,14.0,2,5.737
3780,120.96,3.4525,8.5139,1.3509,0.0216,-0.3755,-0.0126,rough,14.0,2,5.735
3790,121.28,3.4525,8.5119,1.3508,0.0216,-0.3755,-0.0126,rough,14.0,2,5.733
3800,121.60,3.4525,8.5098,1.3508,0.0215,-0.3755,-0.0126,rough,14.0,2,5.731
3810,121.92,3.4525,8.5078,1.3507,0.0215,-0.3755,-0.0126,rough,14.0,2,5.729
3820,122.24,3.4524,8.5058,1.3507,0.0214,-0.3755,-0.0126,rough,14.0,2,5.728
3830,122.56,3.4524,8.5037,1.3507,0.0214,-0.3755,-0.0126,rough,14.0,2,5.726
3840,122.88,3.4524,8.5017,1.3506,0.0213,-0.3755,-0.0126,rough,14.0,2,5.724
3850,123.20,3.4524,8.4997,1.3506,0.0213,-0.3755,-0.0126,rough,14.0,2,5.722
3860,123.52,3.4524,8.4977,1.3506,0.0213,-0.3755,-0.0126,rough,14.0,2,5.720
3870,123.84,3.4524,8.4956,1.3505,0.0212,-0.3755,-0.0126,rough,14.0,2,5.718
3880,124.16,3.4524,8.4936,1.3505,0.0212,-0.3755,-0.0126,rough,14.0,2,5.717
3890,124.48,3.4524,8.4916,1.3505,0.0211,-0.3755,-0.0126,rough,14.0,2,5.715
3900,124.80,3.4524,8.4896,1.3504,0.0211,-0.3755,-0.0126,rough,14.0,2,5.713
3910,125.12,3.4524,8.4876,1.3504,0.0210,-0.3755,-0.0126,rough,14.0,2,5.711
3920,125.44,3.4523,8.4856,1.3503,0.0210,-0.3755,-0.0126,rough,14.0,2,5.709
3930,125.76,3.4523,8.4835,1.3503,0.0209,-0.3755,-0.0125,rough,14.0,2,5.707
3940,126.08,3.4523,8.4815,1.3503,0.0209,-0.3755,-0.0125,rough,14.0,2,5.706
3950,126.40,3.4523,8.4795,1.3502,0.0209,-0.3755,-0.0125,rough,14.0,2,5.704
3960,126.72,3.4523,8.4775,1.3502,0.0208,-0.3755,-0.0125,rough,14.0,2,5.702
3970,127.04,3.4523,8.4755,1.3502,0.0208,-0.3755,-0.0125,rough,14.0,2,5.700
3980,127.36,3.4523,8.4735,1.3501,0.0207,-0.3755,-0.0125,rough,14.0,2,5.698
3990,127.68,3.4523,8.4715,1.3501,0.0207,-0.3755,-0.0125,rough,14.0,2,5.696
4000,128.00,3.5309,8.4665,1.3809,0.0242,-0.3758,-0.0230,rough,14.0,2,5.660
4010,128.32,3.7843,8.4553,1.4807,0.0250,-0.3772,-0.0299,rough,14.0,2,5.551
4020,128.64,4.0258,8.4456,1.5763,0.0217,-0.3782,-0.0254,rough,14.0,2,5.458
4030,128.96,4.2588,8.4376,1.6691,0.0198,-0.3803,-0.0231,rough,14.0,2,5.378
4040,129.28,4.4808,8.4324,1.7578,0.0154,-0.3812,-0.0148,rough,14.0,2,5.312
4050,129.60,4.6957,8.4287,1.8439,0.0134,-0.3826,-0.0135,rough,14.0,2,5.258
4060,129.92,4.9012,8.4258,1.9266,0.0111,-0.3837,-0.0091,rough,14.0,2,5.215
4070,130.24,5.0993,8.4241,2.0064,0.0090,-0.3844,-0.0085,rough,14.0,2,5.182
4080,130.56,5.2892,8.4223,2.0833,0.0077,-0.3855,-0.0063,rough,14.0,2,5.157
4090,130.88,5.4715,8.4213,2.1571,0.0057,-0.3856,-0.0046,rough,14.0,2,5.140
4100,131.20,5.6470,8.4205,2.2282,0.0044,-0.3865,-0.0053,rough,14.0,2,5.130
4110,131.52,5.8148,8.4195,2.2965,0.0034,-0.3871,-0.0034,rough,14.0,2,5.126
4120,131.84,5.9775,8.4191,2.3626,0.0017,-0.3870,-0.0024,rough,14.0,2,5.128
4130,132.16,6.1382,8.4188,2.4280,0.0003,-0.3879,-0.0027,rough,14.0,2,5.134
4140,132.48,6.2964,8.4183,2.4926,-0.0006,-0.3887,-0.0012,rough,14.0,2,5.146
4150,132.80,6.4529,8.4182,2.5566,-0.0019,-0.3887,-0.0004,rough,14.0,2,5.163
4160,133.12,6.6076,8.4183,2.6198,-0.0034,-0.3894,-0.0006,rough,14.0,2,5.184
4170,133.44,6.7599,8.4180,2.6824,-0.0043,-0.3910,0.0003,rough,14.0,2,5.208
4180,133.76,6.9105,8.4181,2.7444,-0.0054,-0.3919,0.0013,rough,14.0,2,5.238
4190,134.08,7.0595,8.4186,2.8057,-0.0073,-0.3921,0.0016,rough,14.0,2,5.271
4200,134.40,7.2066,8.4187,2.8667,-0.0084,-0.3943,0.0014,rough,14.0,2,5.307
4210,134.72,7.3511,8.4188,2.9271,-0.0091,-0.3976,0.0029,rough,14.0,2,5.347
4220,135.04,7.4946,8.4194,2.9871,-0.0107,-0.3986,0.0035,rough,14.0,2,5.390
4230,135.36,7.6368,8.4199,3.0469,-0.0119,-0.3995,0.0024,rough,14.0,2,5.436
4240,135.68,7.7578,8.4192,3.1107,-0.0093,-0.4804,-0.0026,rough,14.0,2,5.477
4250,136.00,7.8814,8.4166,3.1755,-0.0047,-0.5640,-0.0159,rough,14.0,2,5.519
4260,136.32,8.0873,8.3697,3.2281,0.1803,-0.2994,-0.0845,rough,14.0,2,5.556
4270,136.64,8.2577,8.2816,3.3028,0.3708,-0.3401,-0.2922,rough,14.0,2,5.549
4280,136.96,8.4153,8.1544,3.3159,0.6683,-0.4655,-0.5925,rough,14.0,2,5.507
4290,137.28,8.5351,7.9254,3.3104,0.7137,-0.2529,-0.6906,rough,14.0,2,5.365
4300,137.60,8.6634,7.7018,3.2825,0.7353,-0.1272,-0.7382,rough,14.0,2,5.242
4310,137.92,8.8345,7.3714,3.1976,0.8374,0.2180,-0.8444,rough,14.0,2,5.067
4320,138.24,8.9929,7.0638,3.0851,0.7088,0.2393,-1.1185,rough,14.0,2,4.923
4330,138.56,9.1207,6.6710,2.9213,0.6014,0.3037,-1.2716,rough,14.0,2,4.717
4340,138.88,9.1894,6.2713,2.7536,0.5224,0.4558,-1.3627,rough,14.0,2,4.491
4350,139.20,9.2012,5.8942,2.5784,0.2666,0.3783,-1.5404,rough,14.0,2,4.260
4360,139.52,9.1991,5.5474,2.5334,0.1145,-0.0431,-1.6835,rough,14.0,2,4.056
4370,139.84,9.2197,5.1674,2.5182,-0.3498,-0.2223,-1.6606,rough,14.0,2,3.875
4380,140.16,9.2130,4.8583,2.6033,-0.3724,-0.3893,-1.7295,rough,14.0,2,3.730
4390,140.48,9.2096,4.6010,2.7100,-0.3767,-0.5406,-1.6873,rough,14.0,2,3.626
4400,140.80,9.2033,4.3112,2.8535,-0.4049,-0.6171,-1.7902,rough,14.0,2,3.526
4410,141.12,9.1311,4.0436,3.0463,-0.3281,-0.6436,-1.8570,rough,14.0,2,3.388
4420,141.44,9.0539,3.7826,3.2386,-0.3087,-0.6228,-1.9270,rough,14.0,2,3.263
4430,141.76,8.9234,3.5358,3.4289,-0.1426,-0.6333,-2.0612,rough,14.0,2,3.106
4440,142.08,8.7305,3.3129,3.5873,0.0786,-0.4241,-2.1818,rough,14.0,2,2.903
4450,142.40,8.5340,3.0333,3.6605,0.1116,-0.1175,-2.2710,rough,14.0,2,2.719
4460,142.72,8.1507,2.6926,3.4833,0.4528,0.5779,-2.3349,rough,14.0,2,2.400
4470,143.04,7.7004,2.3664,3.0188,0.3657,0.3932,-2.4817,rough,14.0,2,2.090
4480,143.36,7.3051,2.1525,2.8219,0.1133,0.3138,-2.7320,rough,14.0,2,1.867
4490,143.68,6.9558,2.0164,2.7023,0.0325,0.3296,-3.0126,rough,14.0,2,1.705
4500,144.00,6.5471,1.9869,2.5624,0.0049,0.3311,-3.1016,rough,14.0,2,1.492
4510,144.32,6.1218,1.9734,2.4171,0.0146,0.3307,-3.0908,rough,14.0,2,1.353
4520,144.64,5.7011,1.9566,2.2713,0.0176,0.3307,-3.0944,rough,14.0,2,1.343
4530,144.96,5.2762,1.9450,2.1190,0.0115,0.3563,-3.0975,rough,14.0,2,1.457
4540,145.28,4.8591,1.9388,1.9720,0.0094,0.3495,-3.1265,rough,14.0,2,1.665
4550,145.60,4.4364,1.9346,1.8130,-0.0045,0.3653,-3.1386,rough,14.0,2,1.945
4560,145.92,4.0170,1.9335,1.6466,-0.0039,0.3689,-3.1407,rough,14.0,2,2.264
4570,146.24,3.5960,1.9319,1.4769,-0.0138,0.4047,3.1405,rough,14.0,2,2.614
4580,146.56,3.2289,1.9320,1.3211,-0.0355,0.4076,3.1291,rough,14.0,2,2.934
4590,146.88,2.9388,1.9353,1.1966,-0.0558,0.4107,3.1180,rough,14.0,2,3.192
4600,147.20,2.6488,1.9407,1.0698,-0.0609,0.4088,3.1173,rough,14.0,2,3.454
4610,147.52,2.3610,1.9464,0.9500,-0.0835,0.4071,3.1087,rough,14.0,2,3.719
4620,147.84,2.0768,1.9552,0.8334,-0.0898,0.3770,3.1069,rough,14.0,2,3.982
4630,148.16,1.7851,1.9666,0.7145,-0.0752,0.3801,3.1123,rough,14.0,2,4.254
4640,148.48,1.4960,1.9721,0.6173,-0.0892,0.3290,3.1233,rough,14.0,2,4.528
4650,148.80,1.2018,1.9788,0.5220,-0.0928,0.2936,3.1381,rough,14.0,2,4.809
4660,149.12,0.8929,1.9861,0.4356,-0.0460,0.2862,-3.0814,rough,14.0,2,5.105
4670,149.44,0.6087,1.9959,0.3624,-0.0422,0.2307,-3.1355,rough,14.0,2,5.377
4680,149.76,0.3086,1.9984,0.2972,-0.0381,0.2158,3.1319,rough,14.0,2,5.669
4690,150.08,0.0329,2.0025,0.2569,-0.0250,0.0979,3.0740,rough,14.0,2,5.936
4700,150.40,-0.2211,2.0147,0.2375,-0.0214,0.0659,2.7879,rough,14.0,2,6.182
4710,150.72,-0.4861,2.1483,0.2219,0.0079,0.0052,2.5030,rough,14.0,2,6.416
4720,151.04,-0.7584,2.3576,0.2198,0.0086,0.0175,2.1602,rough,14.0,2,6.652
4730,151.36,-0.9161,2.6174,0.2138,0.0037,0.0231,1.8517,rough,14.0,2,6.777
4740,151.68,-0.9920,2.9090,0.2050,-0.0052,0.0343,1.4967,rough,14.0,2,6.830
4750,152.00,-0.9630,3.2294,0.1936,-0.0178,0.0363,1.2071,rough,14.0,2,6.790
4760,152.32,-0.8213,3.5570,0.1791,-0.0271,0.0310,1.0045,rough,14.0,2,6.654
4770,152.64,-0.6040,3.8715,0.1646,-0.0333,0.0393,0.8330,rough,14.0,2,6.457
4780,152.96,-0.4003,4.0466,0.1638,-0.0080,-0.0424,0.9135,rough,14.0,2,6.273
4790,153.28,-0.3198,4.0451,0.1697,-0.0554,-0.0124,1.1998,rough,14.0,2,6.193
4800,153.60,-0.2889,4.0217,0.1733,-0.0693,0.0141,1.3567,rough,14.0,2,6.159
4810,153.92,-0.2604,4.0085,0.1757,-0.0836,0.0253,1.4241,rough,14.0,2,6.129
4820,154.24,-0.2329,3.9993,0.1778,-0.0970,0.0370,1.4953,rough,14.0,2,6.101
4830,154.56,-0.2195,3.9950,0.1786,-0.1035,0.0441,1.5409,rough,14.0,2,6.087
4840,154.88,-0.2141,3.9937,0.1789,-0.1063,0.0469,1.5582,rough,14.0,2,6.082
4850,155.20,-0.2117,3.9931,0.1790,-0.1074,0.0480,1.5655,rough,14.0,2,6.079
4860,155.52,-0.2107,3.9929,0.1790,-0.1079,0.0485,1.5686,rough,14.0,2,6.078
4870,155.84,-0.2102,3.9928,0.1791,-0.1082,0.0487,1.5700,rough,14.0,2,6.078
4880,156.16,-0.2100,3.9928,0.1791,-0.1083,0.0488,1.5706,rough,14.0,2,6.078
4890,156.48,-0.2099,3.9928,0.1791,-0.1083,0.0489,1.5708,rough,14.0,2,6.077
4900,156.80,-0.2098,3.9928,0.1791,-0.1083,0.0489,1.5709,rough,14.0,2,6.077
4910,157.12,-0.2097,3.9928,0.1791,-0.1083,0.0489,1.5709,rough,14.0,2,6.077
4920,157.44,-0.2097,3.9928,0.1791,-0.1084,0.0489,1.5709,rough,14.0,2,6.077
4930,157.76,-0.2096,3.9928,0.1791,-0.1084,0.0489,1.5710,rough,14.0,2,6.077
4940,158.08,-0.2096,3.9928,0.1791,-0.1084,0.0489,1.5710,rough,14.0,2,6.077
4950,158.40,-0.2095,3.9928,0.1791,-0.1084,0.0489,1.5710,rough,14.0,2,6.077
4960,158.72,-0.2094,3.9928,0.1791,-0.1085,0.0489,1.5710,rough,14.0,2,6.077
4970,159.04,-0.2094,3.9928,0.1791,-0.1085,0.0489,1.5710,rough,14.0,2,6.077
4980,159.36,-0.2093,3.9928,0.1791,-0.1085,0.0489,1.5710,rough,14.0,2,6.077
4990,159.68,-0.2093,3.9928,0.1791,-0.1085,0.0489,1.5710,rough,14.0,2,6.077
5000,160.00,-0.2092,3.9928,0.1791,-0.1085,0.0489,1.5710,rough,14.0,2,6.077
5010,160.32,-0.2092,3.9928,0.1791,-0.1086,0.0489,1.5710,rough,14.0,2,6.077
5020,160.64,-0.2091,3.9928,0.1791,-0.1086,0.0489,1.5710,rough,14.0,2,6.077
5030,160.96,-0.2091,3.9928,0.1791,-0.1086,0.0489,1.5710,rough,14.0,2,6.077
5040,161.28,-0.2090,3.9928,0.1791,-0.1086,0.0489,1.5710,rough,14.0,2,6.077
5050,161.60,-0.2090,3.9928,0.1792,-0.1087,0.0489,1.5710,rough,14.0,2,6.077
5060,161.92,-0.2089,3.9928,0.1792,-0.1087,0.0489,1.5710,rough,14.0,2,6.076
5070,162.24,-0.2089,3.9928,0.1792,-0.1087,0.0489,1.5710,rough,14.0,2,6.076
5080,162.56,-0.2088,3.9928,0.1792,-0.1087,0.0489,1.5710,rough,14.0,2,6.076
5090,162.88,-0.2088,3.9928,0.1792,-0.1088,0.0489,1.5710,rough,14.0,2,6.076
5100,163.20,-0.2087,3.9928,0.1792,-0.1088,0.0489,1.5710,rough,14.0,2,6.076
5110,163.52,-0.2087,3.9928,0.1792,-0.1088,0.0489,1.5710,rough,14.0,2,6.076
5120,163.84,-0.2086,3.9928,0.1792,-0.1088,0.0489,1.5710,rough,14.0,2,6.076
5130,164.16,-0.2085,3.9928,0.1792,-0.1088,0.0489,1.5710,rough,14.0,2,6.076
5140,164.48,-0.2085,3.9928,0.1792,-0.1089,0.0489,1.5710,rough,14.0,2,6.076
5150,164.80,-0.2084,3.9928,0.1792,-0.1089,0.0489,1.5710,rough,14.0,2,6.076
5160,165.12,-0.2084,3.9928,0.1792,-0.1089,0.0489,1.5710,rough,14.0,2,6.076
5170,165.44,-0.2083,3.9928,0.1792,-0.1089,0.0489,1.5710,rough,14.0,2,6.076
5180,165.76,-0.2083,3.9928,0.1792,-0.1090,0.0489,1.5710,rough,14.0,2,6.076
5190,166.08,-0.2082,3.9928,0.1792,-0.1090,0.0489,1.5710,rough,14.0,2,6.076
5200,166.40,-0.2082,3.9928,0.1792,-0.1090,0.0489,1.5710,rough,14.0,2,6.076
5210,166.72,-0.2081,3.9928,0.1792,-0.1090,0.0489,1.5710,rough,14.0,2,6.076
5220,167.04,-0.2081,3.9928,0.1792,-0.1090,0.0489,1.5710,rough,14.0,2,6.076
5230,167.36,-0.2080,3.9928,0.1792,-0.1091,0.0489,1.5710,rough,14.0,2,6.076
5240,167.68,-0.2080,3.9928,0.1792,-0.1091,0.0489,1.5710,rough,14.0,2,6.076
5250,168.00,-0.2079,3.9928,0.1792,-0.1091,0.0489,1.5710,rough,14.0,2,6.075
5260,168.32,-0.2079,3.9928,0.1792,-0.1091,0.0489,1.5710,rough,14.0,2,6.075
5270,168.64,-0.2078,3.9928,0.1792,-0.1092,0.0489,1.5710,rough,14.0,2,6.075
5280,168.96,-0.2078,3.9928,0.1793,-0.1092,0.0489,1.5710,rough,14.0,2,6.075
5290,169.28,-0.2077,3.9928,0.1793,-0.1092,0.0489,1.5710,rough,14.0,2,6.075
5300,169.60,-0.2077,3.9928,0.1793,-0.1092,0.0489,1.5710,rough,14.0,2,6.075
5310,169.92,-0.2076,3.9928,0.1793,-0.1092,0.0489,1.5710,rough,14.0,2,6.075
5320,170.24,-0.2076,3.9928,0.1793,-0.1093,0.0489,1.5710,rough,14.0,2,6.075
5330,170.56,-0.2075,3.9928,0.1793,-0.1093,0.0489,1.5710,rough,14.0,2,6.075
5340,170.88,-0.2074,3.9928,0.1793,-0.1093,0.0489,1.5710,rough,14.0,2,6.075
5350,171.20,-0.2074,3.9928,0.1793,-0.1093,0.0489,1.5710,rough,14.0,2,6.075
5360,171.52,-0.2073,3.9928,0.1793,-0.1094,0.0489,1.5710,rough,14.0,2,6.075
5370,171.84,-0.2073,3.9928,0.1793,-0.1094,0.0489,1.5710,rough,14.0,2,6.075
5380,172.16,-0.2072,3.9928,0.1793,-0.1094,0.0489,1.5710,rough,14.0,2,6.075
5390,172.48,-0.2072,3.9928,0.1793,-0.1094,0.0489,1.5710,rough,14.0,2,6.075
5400,172.80,-0.2071,3.9928,0.1793,-0.1094,0.0489,1.5710,rough,14.0,2,6.075
5410,173.12,-0.2071,3.9928,0.1793,-0.1095,0.0488,1.5710,rough,14.0,2,6.075
5420,173.44,-0.2070,3.9928,0.1793,-0.1095,0.0488,1.5710,rough,14.0,2,6.075
5430,173.76,-0.2070,3.9928,0.1793,-0.1095,0.0488,1.5710,rough,14.0,2,6.075
5440,174.08,-0.2069,3.9928,0.1793,-0.1095,0.0488,1.5710,rough,14.0,2,6.075
5450,174.40,-0.2069,3.9928,0.1793,-0.1096,0.0488,1.5710,rough,14.0,2,6.074
5460,174.72,-0.2068,3.9928,0.1793,-0.1096,0.0488,1.5710,rough,14.0,2,6.074
5470,175.04,-0.2068,3.9928,0.1793,-0.1096,0.0488,1.5710,rough,14.0,2,6.074
5480,175.36,-0.2067,3.9928,0.1793,-0.1096,0.0488,1.5710,rough,14.0,2,6.074
5490,175.68,-0.2067,3.9928,0.1793,-0.1096,0.0488,1.5710,rough,14.0,2,6.074
5500,176.00,-0.2066,3.9928,0.1793,-0.1097,0.0488,1.5710,rough,14.0,2,6.074
5510,176.32,-0.2066,3.9928,0.1793,-0.1097,0.0488,1.5710,rough,14.0,2,6.074
5520,176.64,-0.2065,3.9928,0.1794,-0.1097,0.0488,1.5710,rough,14.0,2,6.074
5530,176.96,-0.2065,3.9928,0.1794,-0.1097,0.0488,1.5710,rough,14.0,2,6.074
5540,177.28,-0.2064,3.9928,0.1794,-0.1098,0.0488,1.5710,rough,14.0,2,6.074
5550,177.60,-0.2064,3.9928,0.1794,-0.1098,0.0488,1.5710,rough,14.0,2,6.074
5560,177.92,-0.2063,3.9928,0.1794,-0.1098,0.0488,1.5710,rough,14.0,2,6.074
5570,178.24,-0.2063,3.9928,0.1794,-0.1098,0.0488,1.5710,rough,14.0,2,6.074
5580,178.56,-0.2062,3.9928,0.1794,-0.1098,0.0488,1.5710,rough,14.0,2,6.074
5590,178.88,-0.2062,3.9928,0.1794,-0.1099,0.0488,1.5710,rough,14.0,2,6.074
5600,179.20,-0.2061,3.9928,0.1794,-0.1099,0.0488,1.5710,rough,14.0,2,6.074
5610,179.52,-0.2061,3.9928,0.1794,-0.1099,0.0488,1.5710,rough,14.0,2,6.074
5620,179.84,-0.2060,3.9928,0.1794,-0.1099,0.0488,1.5710,rough,14.0,2,6.074
5630,180.16,-0.2060,3.9928,0.1794,-0.1099,0.0488,1.5710,rough,14.0,2,6.074
5640,180.48,-0.2059,3.9928,0.1794,-0.1100,0.0488,1.5710,rough,14.0,2,6.073
5650,180.80,-0.2059,3.9928,0.1794,-0.1100,0.0488,1.5710,rough,14.0,2,6.073
5660,181.12,-0.2058,3.9928,0.1794,-0.1100,0.0488,1.5710,rough,14.0,2,6.073
5670,181.44,-0.2058,3.9928,0.1794,-0.1100,0.0488,1.5710,rough,14.0,2,6.073
5680,181.76,-0.2057,3.9928,0.1794,-0.1101,0.0488,1.5710,rough,14.0,2,6.073
5690,182.08,-0.2057,3.9928,0.1794,-0.1101,0.0488,1.5710,rough,14.0,2,6.073
5700,182.40,-0.2056,3.9928,0.1794,-0.1101,0.0488,1.5710,rough,14.0,2,6.073
5710,182.72,-0.2056,3.9928,0.1794,-0.1101,0.0488,1.5710,rough,14.0,2,6.073
5720,183.04,-0.2055,3.9928,0.1794,-0.1101,0.0488,1.5710,rough,14.0,2,6.073
5730,183.36,-0.2055,3.9928,0.1794,-0.1102,0.0488,1.5710,rough,14.0,2,6.073
5740,183.68,-0.2054,3.9928,0.1794,-0.1102,0.0488,1.5710,rough,14.0,2,6.073
5750,184.00,-0.2054,3.9928,0.1794,-0.1102,0.0488,1.5710,rough,14.0,2,6.073
5760,184.32,-0.2053,3.9928,0.1795,-0.1102,0.0488,1.5710,rough,14.0,2,6.073
5770,184.64,-0.2053,3.9928,0.1795,-0.1103,0.0488,1.5710,rough,14.0,2,6.073
5780,184.96,-0.2052,3.9928,0.1795,-0.1103,0.0488,1.5710,rough,14.0,2,6.073
5790,185.28,-0.2052,3.9928,0.1795,-0.1103,0.0488,1.5710,rough,14.0,2,6.073
5800,185.60,-0.2051,3.9928,0.1795,-0.1103,0.0488,1.5710,rough,14.0,2,6.073
5810,185.92,-0.2051,3.9928,0.1795,-0.1103,0.0488,1.5710,rough,14.0,2,6.073
5820,186.24,-0.2050,3.9928,0.1795,-0.1104,0.0488,1.5710,rough,14.0,2,6.073
5830,186.56,-0.2050,3.9928,0.1795,-0.1104,0.0488,1.5710,rough,14.0,2,6.073
5840,186.88,-0.2049,3.9928,0.1795,-0.1104,0.0488,1.5710,rough,14.0,2,6.073
5850,187.20,-0.2049,3.9928,0.1795,-0.1104,0.0488,1.5710,rough,14.0,2,6.072
5860,187.52,-0.2048,3.9928,0.1795,-0.1104,0.0488,1.5710,rough,14.0,2,6.072
5870,187.84,-0.2048,3.9928,0.1795,-0.1105,0.0488,1.5710,rough,14.0,2,6.072
5880,188.16,-0.2047,3.9928,0.1795,-0.1105,0.0488,1.5710,rough,14.0,2,6.072
5890,188.48,-0.2047,3.9928,0.1795,-0.1105,0.0488,1.5710,rough,14.0,2,6.072
5900,188.80,-0.2046,3.9928,0.1795,-0.1105,0.0488,1.5710,rough,14.0,2,6.072
5910,189.12,-0.2046,3.9928,0.1795,-0.1105,0.0488,1.5710,rough,14.0,2,6.072
5920,189.44,-0.2045,3.9928,0.1795,-0.1106,0.0488,1.5710,rough,14.0,2,6.072
5930,189.76,-0.2045,3.9928,0.1795,-0.1106,0.0488,1.5710,rough,14.0,2,6.072
5940,190.08,-0.2044,3.9928,0.1795,-0.1106,0.0488,1.5710,rough,14.0,2,6.072
5950,190.40,-0.2044,3.9928,0.1795,-0.1106,0.0488,1.5710,rough,14.0,2,6.072
5960,190.72,-0.2043,3.9928,0.1795,-0.1107,0.0488,1.5710,rough,14.0,2,6.072
5970,191.04,-0.2043,3.9928,0.1795,-0.1107,0.0488,1.5710,rough,14.0,2,6.072
5980,191.36,-0.2042,3.9928,0.1795,-0.1107,0.0488,1.5710,rough,14.0,2,6.072
5990,191.68,-0.2042,3.9928,0.1795,-0.1107,0.0488,1.5710,rough,14.0,2,6.072
6000,192.00,-0.2041,3.9928,0.1795,-0.1107,0.0488,1.5710,rough,14.0,2,6.072
6010,192.32,-0.2041,3.9928,0.1796,-0.1108,0.0488,1.5710,rough,14.0,2,6.072
6020,192.64,-0.2040,3.9928,0.1796,-0.1108,0.0488,1.5710,rough,14.0,2,6.072
6030,192.96,-0.2040,3.9928,0.1796,-0.1108,0.0488,1.5710,rough,14.0,2,6.072
6040,193.28,-0.2039,3.9928,0.1796,-0.1108,0.0488,1.5710,rough,14.0,2,6.072
6050,193.60,-0.2039,3.9928,0.1796,-0.1108,0.0488,1.5710,rough,14.0,2,6.071
6060,193.92,-0.2038,3.9928,0.1796,-0.1109,0.0488,1.5710,rough,14.0,2,6.071
6070,194.24,-0.2038,3.9928,0.1796,-0.1109,0.0488,1.5710,rough,14.0,2,6.071
6080,194.56,-0.2037,3.9928,0.1796,-0.1109,0.0488,1.5710,rough,14.0,2,6.071
6090,194.88,-0.2037,3.9928,0.1796,-0.1109,0.0488,1.5710,rough,14.0,2,6.071
6100,195.20,-0.2036,3.9928,0.1796,-0.1109,0.0488,1.5710,rough,14.0,2,6.071
6110,195.52,-0.2036,3.9928,0.1796,-0.1110,0.0488,1.5710,rough,14.0,2,6.071
6120,195.84,-0.2035,3.9928,0.1796,-0.1110,0.0488,1.5710,rough,14.0,2,6.071
6130,196.16,-0.2035,3.9928,0.1796,-0.1110,0.0488,1.5710,rough,14.0,2,6.071
6140,196.48,-0.2035,3.9928,0.1796,-0.1110,0.0488,1.5710,rough,14.0,2,6.071
6150,196.80,-0.2034,3.9928,0.1796,-0.1110,0.0488,1.5710,rough,14.0,2,6.071
6160,197.12,-0.2034,3.9928,0.1796,-0.1111,0.0488,1.5710,rough,14.0,2,6.071
6170,197.44,-0.2033,3.9928,0.1796,-0.1111,0.0488,1.5710,rough,14.0,2,6.071
6180,197.76,-0.2033,3.9928,0.1796,-0.1111,0.0488,1.5710,rough,14.0,2,6.071
6190,198.08,-0.2032,3.9928,0.1796,-0.1111,0.0488,1.5710,rough,14.0,2,6.071
6200,198.40,-0.2032,3.9928,0.1796,-0.1112,0.0488,1.5710,rough,14.0,2,6.071
6210,198.72,-0.2031,3.9928,0.1796,-0.1112,0.0488,1.5710,rough,14.0,2,6.071
6220,199.04,-0.2031,3.9928,0.1796,-0.1112,0.0488,1.5710,rough,14.0,2,6.071
6230,199.36,-0.2030,3.9928,0.1796,-0.1112,0.0488,1.5710,rough,14.0,2,6.071
6240,199.68,-0.2030,3.9928,0.1796,-0.1112,0.0488,1.5710,rough,14.0,2,6.071
6250,200.00,-0.2029,3.9928,0.1796,-0.1113,0.0488,1.5710,rough,14.0,2,6.071
6260,200.32,-0.2029,3.9928,0.1797,-0.1113,0.0488,1.5710,rough,14.0,2,6.070
6270,200.64,-0.2028,3.9928,0.1797,-0.1113,0.0488,1.5710,rough,14.0,2,6.070
6280,200.96,-0.2028,3.9928,0.1797,-0.1113,0.0488,1.5710,rough,14.0,2,6.070
6290,201.28,-0.2027,3.9928,0.1797,-0.1113,0.0488,1.5710,rough,14.0,2,6.070
6300,201.60,-0.2027,3.9928,0.1797,-0.1114,0.0488,1.5710,rough,14.0,2,6.070
6310,201.92,-0.2026,3.9928,0.1797,-0.1114,0.0488,1.5710,rough,14.0,2,6.070
6320,202.24,-0.2026,3.9928,0.1797,-0.1114,0.0488,1.5710,rough,14.0,2,6.070
6330,202.56,-0.2025,3.9928,0.1797,-0.1114,0.0488,1.5710,rough,14.0,2,6.070
6340,202.88,-0.2025,3.9928,0.1797,-0.1114,0.0488,1.5710,rough,14.0,2,6.070
6350,203.20,-0.2024,3.9928,0.1797,-0.1115,0.0488,1.5710,rough,14.0,2,6.070
6360,203.52,-0.2024,3.9928,0.1797,-0.1115,0.0488,1.5710,rough,14.0,2,6.070
6370,203.84,-0.2024,3.9928,0.1797,-0.1115,0.0488,1.5710,rough,14.0,2,6.070
6380,204.16,-0.2023,3.9928,0.1797,-0.1115,0.0487,1.5710,rough,14.0,2,6.070
6390,204.48,-0.2023,3.9928,0.1797,-0.1115,0.0487,1.5710,rough,14.0,2,6.070
6400,204.80,-0.2022,3.9928,0.1797,-0.1116,0.0487,1.5710,rough,14.0,2,6.070
6410,205.12,-0.2022,3.9928,0.1797,-0.1116,0.0487,1.5710,rough,14.0,2,6.070
6420,205.44,-0.2021,3.9928,0.1797,-0.1116,0.0487,1.5710,rough,14.0,2,6.070
6430,205.76,-0.2021,3.9928,0.1797,-0.1116,0.0487,1.5710,rough,14.0,2,6.070
6440,206.08,-0.2020,3.9928,0.1797,-0.1116,0.0487,1.5710,rough,14.0,2,6.070
6450,206.40,-0.2020,3.9928,0.1797,-0.1117,0.0487,1.5710,rough,14.0,2,6.070
6460,206.72,-0.2019,3.9928,0.1797,-0.1117,0.0487,1.5710,rough,14.0,2,6.070
6470,207.04,-0.2019,3.9928,0.1797,-0.1117,0.0487,1.5710,rough,14.0,2,6.069
6480,207.36,-0.2018,3.9928,0.1797,-0.1117,0.0487,1.5710,rough,14.0,2,6.069
6490,207.68,-0.2018,3.9928,0.1797,-0.1117,0.0487,1.5710,rough,14.0,2,6.069
6500,208.00,-0.2017,3.9928,0.1797,-0.1118,0.0487,1.5710,rough,14.0,2,6.069
6510,208.32,-0.2017,3.9928,0.1797,-0.1118,0.0487,1.5710,rough,14.0,2,6.069
6520,208.64,-0.2016,3.9928,0.1798,-0.1118,0.0487,1.5710,rough,14.0,2,6.069
6530,208.96,-0.2016,3.9928,0.1798,-0.1118,0.0487,1.5710,rough,14.0,2,6.069
6540,209.28,-0.2016,3.9928,0.1798,-0.1118,0.0487,1.5710,rough,14.0,2,6.069
6550,209.60,-0.2015,3.9928,0.1798,-0.1119,0.0487,1.5710,rough,14.0,2,6.069
6560,209.92,-0.2015,3.9928,0.1798,-0.1119,0.0487,1.5710,rough,14.0,2,6.069
6570,210.24,-0.2014,3.9928,0.1798,-0.1119,0.0487,1.5710,rough,14.0,2,6.069
6580,210.56,-0.2014,3.9928,0.1798,-0.1119,0.0487,1.5710,rough,14.0,2,6.069
6590,210.88,-0.2013,3.9928,0.1798,-0.1119,0.0487,1.5710,rough,14.0,2,6.069
6600,211.20,-0.2013,3.9928,0.1798,-0.1120,0.0487,1.5710,rough,14.0,2,6.069
6610,211.52,-0.2012,3.9928,0.1798,-0.1120,0.0487,1.5710,rough,14.0,2,6.069
6620,211.84,-0.2012,3.9928,0.1798,-0.1120,0.0487,1.5710,rough,14.0,2,6.069
6630,212.16,-0.2011,3.9928,0.1798,-0.1120,0.0487,1.5710,rough,14.0,2,6.069
6640,212.48,-0.2011,3.9928,0.1798,-0.1120,0.0487,1.5710,rough,14.0,2,6.069
6650,212.80,-0.2010,3.9928,0.1798,-0.1121,0.0487,1.5710,rough,14.0,2,6.069
6660,213.12,-0.2010,3.9928,0.1798,-0.1121,0.0487,1.5710,rough,14.0,2,6.069
6670,213.44,-0.2010,3.9928,0.1798,-0.1121,0.0487,1.5710,rough,14.0,2,6.069
6680,213.76,-0.2009,3.9928,0.1798,-0.1121,0.0487,1.5710,rough,14.0,2,6.069
6690,214.08,-0.2009,3.9928,0.1798,-0.1121,0.0487,1.5710,rough,14.0,2,6.068
6700,214.40,-0.2008,3.9928,0.1798,-0.1122,0.0487,1.5710,rough,14.0,2,6.068
6710,214.72,-0.2008,3.9928,0.1798,-0.1122,0.0487,1.5710,rough,14.0,2,6.068
6720,215.04,-0.2007,3.9928,0.1798,-0.1122,0.0487,1.5710,rough,14.0,2,6.068
6730,215.36,-0.2007,3.9928,0.1798,-0.1122,0.0487,1.5710,rough,14.0,2,6.068
6740,215.68,-0.2006,3.9928,0.1798,-0.1122,0.0487,1.5710,rough,14.0,2,6.068
6750,216.00,-0.2006,3.9928,0.1798,-0.1123,0.0487,1.5710,rough,14.0,2,6.068
6760,216.32,-0.2005,3.9928,0.1798,-0.1123,0.0487,1.5710,rough,14.0,2,6.068
6770,216.64,-0.2005,3.9928,0.1798,-0.1123,0.0487,1.5710,rough,14.0,2,6.068
6780,216.96,-0.2004,3.9928,0.1799,-0.1123,0.0487,1.5710,rough,14.0,2,6.068
6790,217.28,-0.2004,3.9928,0.1799,-0.1123,0.0487,1.5710,rough,14.0,2,6.068
6800,217.60,-0.2004,3.9928,0.1799,-0.1124,0.0487,1.5710,rough,14.0,2,6.068
6810,217.92,-0.2003,3.9928,0.1799,-0.1124,0.0487,1.5710,rough,14.0,2,6.068
6820,218.24,-0.2003,3.9928,0.1799,-0.1124,0.0487,1.5710,rough,14.0,2,6.068
6830,218.56,-0.2002,3.9928,0.1799,-0.1124,0.0487,1.5710,rough,14.0,2,6.068
6840,218.88,-0.2002,3.9928,0.1799,-0.1124,0.0487,1.5710,rough,14.0,2,6.068
6850,219.20,-0.2001,3.9928,0.1799,-0.1125,0.0487,1.5710,rough,14.0,2,6.068
6860,219.52,-0.2001,3.9928,0.1799,-0.1125,0.0487,1.5710,rough,14.0,2,6.068
6870,219.84,-0.2000,3.9928,0.1799,-0.1125,0.0487,1.5710,rough,14.0,2,6.068
6880,220.16,-0.2000,3.9928,0.1799,-0.1125,0.0487,1.5710,rough,14.0,2,6.068
6890,220.48,-0.1999,3.9928,0.1799,-0.1125,0.0487,1.5710,rough,14.0,2,6.068
6900,220.80,-0.1999,3.9928,0.1799,-0.1125,0.0487,1.5710,rough,14.0,2,6.068
6910,221.12,-0.1999,3.9928,0.1799,-0.1126,0.0487,1.5710,rough,14.0,2,6.067
6920,221.44,-0.1998,3.9928,0.1799,-0.1126,0.0487,1.5710,rough,14.0,2,6.067
6930,221.76,-0.1998,3.9928,0.1799,-0.1126,0.0487,1.5710,rough,14.0,2,6.067
6940,222.08,-0.1997,3.9928,0.1799,-0.1126,0.0487,1.5710,rough,14.0,2,6.067
6950,222.40,-0.1997,3.9928,0.1799,-0.1126,0.0487,1.5710,rough,14.0,2,6.067
6960,222.72,-0.1996,3.9928,0.1799,-0.1127,0.0487,1.5710,rough,14.0,2,6.067
6970,223.04,-0.1996,3.9928,0.1799,-0.1127,0.0487,1.5710,rough,14.0,2,6.067
6980,223.36,-0.1995,3.9928,0.1799,-0.1127,0.0487,1.5710,rough,14.0,2,6.067
6990,223.68,-0.1995,3.9928,0.1799,-0.1127,0.0487,1.5710,rough,14.0,2,6.067
7000,224.00,-0.1994,3.9928,0.1799,-0.1127,0.0487,1.5710,rough,14.0,2,6.067
7010,224.32,-0.1994,3.9928,0.1799,-0.1128,0.0487,1.5710,rough,14.0,2,6.067
7020,224.64,-0.1994,3.9928,0.1799,-0.1128,0.0487,1.5710,rough,14.0,2,6.067
7030,224.96,-0.1993,3.9928,0.1799,-0.1128,0.0487,1.5710,rough,14.0,2,6.067
7040,225.28,-0.1993,3.9928,0.1799,-0.1128,0.0487,1.5710,rough,14.0,2,6.067
7050,225.60,-0.1992,3.9928,0.1799,-0.1128,0.0487,1.5710,rough,14.0,2,6.067
7060,225.92,-0.1992,3.9928,0.1800,-0.1129,0.0487,1.5710,rough,14.0,2,6.067
7070,226.24,-0.1991,3.9928,0.1800,-0.1129,0.0487,1.5710,rough,14.0,2,6.067
7080,226.56,-0.1991,3.9928,0.1800,-0.1129,0.0487,1.5710,rough,14.0,2,6.067
7090,226.88,-0.1990,3.9928,0.1800,-0.1129,0.0487,1.5710,rough,14.0,2,6.067
7100,227.20,-0.1990,3.9928,0.1800,-0.1129,0.0487,1.5710,rough,14.0,2,6.067
7110,227.52,-0.1990,3.9928,0.1800,-0.1130,0.0487,1.5710,rough,14.0,2,6.067
7120,227.84,-0.1989,3.9928,0.1800,-0.1130,0.0487,1.5710,rough,14.0,2,6.067
7130,228.16,-0.1989,3.9928,0.1800,-0.1130,0.0487,1.5710,rough,14.0,2,6.066
7140,228.48,-0.1988,3.9928,0.1800,-0.1130,0.0487,1.5710,rough,14.0,2,6.066
7150,228.80,-0.1988,3.9928,0.1800,-0.1130,0.0487,1.5710,rough,14.0,2,6.066
7160,229.12,-0.1987,3.9928,0.1800,-0.1130,0.0487,1.5710,rough,14.0,2,6.066
7170,229.44,-0.1987,3.9928,0.1800,-0.1131,0.0487,1.5710,rough,14.0,2,6.066
7180,229.76,-0.1986,3.9928,0.1800,-0.1131,0.0487,1.5710,rough,14.0,2,6.066
7190,230.08,-0.1986,3.9928,0.1800,-0.1131,0.0487,1.5710,rough,14.0,2,6.066
7200,230.40,-0.1986,3.9928,0.1800,-0.1131,0.0487,1.5711,rough,14.0,2,6.066
7210,230.72,-0.1985,3.9928,0.1800,-0.1131,0.0487,1.5711,rough,14.0,2,6.066
7220,231.04,-0.1985,3.9928,0.1800,-0.1132,0.0487,1.5711,rough,14.0,2,6.066
7230,231.36,-0.1984,3.9928,0.1800,-0.1132,0.0487,1.5711,rough,14.0,2,6.066
7240,231.68,-0.1984,3.9928,0.1800,-0.1132,0.0487,1.5711,rough,14.0,2,6.066
7250,232.00,-0.1983,3.9928,0.1800,-0.1132,0.0487,1.5711,rough,14.0,2,6.066
7260,232.32,-0.1983,3.9928,0.1800,-0.1132,0.0487,1.5711,rough,14.0,2,6.066
7270,232.64,-0.1983,3.9928,0.1800,-0.1133,0.0487,1.5711,rough,14.0,2,6.066
7280,232.96,-0.1982,3.9928,0.1800,-0.1133,0.0487,1.5711,rough,14.0,2,6.066
7290,233.28,-0.1982,3.9928,0.1800,-0.1133,0.0487,1.5711,rough,14.0,2,6.066
7300,233.60,-0.1981,3.9928,0.1800,-0.1133,0.0487,1.5711,rough,14.0,2,6.066
7310,233.92,-0.1981,3.9928,0.1800,-0.1133,0.0487,1.5711,rough,14.0,2,6.066
7320,234.24,-0.1980,3.9928,0.1800,-0.1133,0.0487,1.5711,rough,14.0,2,6.066
7330,234.56,-0.1980,3.9928,0.1800,-0.1134,0.0487,1.5711,rough,14.0,2,6.066
7340,234.88,-0.1979,3.9928,0.1801,-0.1134,0.0487,1.5711,rough,14.0,2,6.066
7350,235.20,-0.1979,3.9928,0.1801,-0.1134,0.0487,1.5711,rough,14.0,2,6.066
7360,235.52,-0.1979,3.9928,0.1801,-0.1134,0.0487,1.5711,rough,14.0,2,6.065
7370,235.84,-0.1978,3.9928,0.1801,-0.1134,0.0487,1.5711,rough,14.0,2,6.065
7380,236.16,-0.1978,3.9928,0.1801,-0.1135,0.0487,1.5711,rough,14.0,2,6.065
7390,236.48,-0.1977,3.9928,0.1801,-0.1135,0.0487,1.5711,rough,14.0,2,6.065
7400,236.80,-0.1977,3.9928,0.1801,-0.1135,0.0487,1.5711,rough,14.0,2,6.065
7410,237.12,-0.1976,3.9928,0.1801,-0.1135,0.0487,1.5711,rough,14.0,2,6.065
7420,237.44,-0.1976,3.9928,0.1801,-0.1135,0.0487,1.5711,rough,14.0,2,6.065
7430,237.76,-0.1976,3.9928,0.1801,-0.1136,0.0487,1.5711,rough,14.0,2,6.065
7440,238.08,-0.1975,3.9928,0.1801,-0.1136,0.0487,1.5711,rough,14.0,2,6.065
7450,238.40,-0.1975,3.9928,0.1801,-0.1136,0.0486,1.5711,rough,14.0,2,6.065
7460,238.72,-0.1974,3.9928,0.1801,-0.1136,0.0486,1.5711,rough,14.0,2,6.065
7470,239.04,-0.1974,3.9928,0.1801,-0.1136,0.0486,1.5711,rough,14.0,2,6.065
7480,239.36,-0.1973,3.9928,0.1801,-0.1136,0.0486,1.5711,rough,14.0,2,6.065
7490,239.68,-0.1973,3.9928,0.1801,-0.1137,0.0486,1.5711,rough,14.0,2,6.065
7500,240.00,-0.1973,3.9928,0.1801,-0.1137,0.0486,1.5711,rough,14.0,2,6.065
7510,240.32,-0.1972,3.9928,0.1801,-0.1137,0.0486,1.5711,rough,14.0,2,6.065
7520,240.64,-0.1972,3.9928,0.1801,-0.1137,0.0486,1.5711,rough,14.0,2,6.065
7530,240.96,-0.1971,3.9928,0.1801,-0.1137,0.0486,1.5711,rough,14.0,2,6.065
7540,241.28,-0.1971,3.9928,0.1801,-0.1138,0.0486,1.5711,rough,14.0,2,6.065
7550,241.60,-0.1970,3.9928,0.1801,-0.1138,0.0486,1.5711,rough,14.0,2,6.065
7560,241.92,-0.1970,3.9928,0.1801,-0.1138,0.0486,1.5711,rough,14.0,2,6.065
7570,242.24,-0.1970,3.9928,0.1801,-0.1138,0.0486,1.5711,rough,14.0,2,6.065
7580,242.56,-0.1969,3.9928,0.1801,-0.1138,0.0486,1.5711,rough,14.0,2,6.065
7590,242.88,-0.1969,3.9928,0.1801,-0.1138,0.0486,1.5711,rough,14.0,2,6.065
7600,243.20,-0.1968,3.9928,0.1801,-0.1139,0.0486,1.5711,rough,14.0,2,6.064
7610,243.52,-0.1968,3.9928,0.1801,-0.1139,0.0486,1.5711,rough,14.0,2,6.064
7620,243.84,-0.1967,3.9928,0.1802,-0.1139,0.0486,1.5711,rough,14.0,2,6.064
7630,244.16,-0.1967,3.9928,0.1802,-0.1139,0.0486,1.5711,rough,14.0,2,6.064
7640,244.48,-0.1967,3.9928,0.1802,-0.1139,0.0486,1.5711,rough,14.0,2,6.064
7650,244.80,-0.1966,3.9928,0.1802,-0.1140,0.0486,1.5711,rough,14.0,2,6.064
7660,245.12,-0.1966,3.9928,0.1802,-0.1140,0.0486,1.5711,rough,14.0,2,6.064
7670,245.44,-0.1965,3.9928,0.1802,-0.1140,0.0486,1.5711,rough,14.0,2,6.064
7680,245.76,-0.1965,3.9928,0.1802,-0.1140,0.0486,1.5711,rough,14.0,2,6.064
7690,246.08,-0.1964,3.9928,0.1802,-0.1140,0.0486,1.5711,rough,14.0,2,6.064
7700,246.40,-0.1964,3.9928,0.1802,-0.1140,0.0486,1.5711,rough,14.0,2,6.064
7710,246.72,-0.1964,3.9928,0.1802,-0.1141,0.0486,1.5711,rough,14.0,2,6.064
7720,247.04,-0.1963,3.9928,0.1802,-0.1141,0.0486,1.5711,rough,14.0,2,6.064
7730,247.36,-0.1963,3.9928,0.1802,-0.1141,0.0486,1.5711,rough,14.0,2,6.064
7740,247.68,-0.1962,3.9928,0.1802,-0.1141,0.0486,1.5711,rough,14.0,2,6.064
7750,248.00,-0.1962,3.9928,0.1802,-0.1141,0.0486,1.5711,rough,14.0,2,6.064
7760,248.32,-0.1962,3.9928,0.1802,-0.1142,0.0486,1.5711,rough,14.0,2,6.064
7770,248.64,-0.1961,3.9928,0.1802,-0.1142,0.0486,1.5711,rough,14.0,2,6.064
7780,248.96,-0.1961,3.9928,0.1802,-0.1142,0.0486,1.5711,rough,14.0,2,6.064
7790,249.28,-0.1960,3.9928,0.1802,-0.1142,0.0486,1.5711,rough,14.0,2,6.064
7800,249.60,-0.1960,3.9928,0.1802,-0.1142,0.0486,1.5711,rough,14.0,2,6.064
7810,249.92,-0.1959,3.9928,0.1802,-0.1142,0.0486,1.5711,rough,14.0,2,6.064
7820,250.24,-0.1959,3.9928,0.1802,-0.1143,0.0486,1.5711,rough,14.0,2,6.064
7830,250.56,-0.1959,3.9928,0.1802,-0.1143,0.0486,1.5711,rough,14.0,2,6.064
7840,250.88,-0.1958,3.9928,0.1802,-0.1143,0.0486,1.5711,rough,14.0,2,6.063
7850,251.20,-0.1958,3.9928,0.1802,-0.1143,0.0486,1.5711,rough,14.0,2,6.063
7860,251.52,-0.1957,3.9928,0.1802,-0.1143,0.0486,1.5711,rough,14.0,2,6.063
7870,251.84,-0.1957,3.9928,0.1802,-0.1144,0.0486,1.5711,rough,14.0,2,6.063
7880,252.16,-0.1957,3.9928,0.1802,-0.1144,0.0486,1.5711,rough,14.0,2,6.063
7890,252.48,-0.1956,3.9928,0.1802,-0.1144,0.0486,1.5711,rough,14.0,2,6.063
7900,252.80,-0.1956,3.9928,0.1802,-0.1144,0.0486,1.5711,rough,14.0,2,6.063
7910,253.12,-0.1955,3.9928,0.1803,-0.1144,0.0486,1.5711,rough,14.0,2,6.063
7920,253.44,-0.1955,3.9928,0.1803,-0.1144,0.0486,1.5711,rough,14.0,2,6.063
7930,253.76,-0.1954,3.9928,0.1803,-0.1145,0.0486,1.5711,rough,14.0,2,6.063
7940,254.08,-0.1954,3.9928,0.1803,-0.1145,0.0486,1.5711,rough,14.0,2,6.063
7950,254.40,-0.1954,3.9928,0.1803,-0.1145,0.0486,1.5711,rough,14.0,2,6.063
7960,254.72,-0.1953,3.9928,0.1803,-0.1145,0.0486,1.5711,rough,14.0,2,6.063
7970,255.04,-0.1953,3.9928,0.1803,-0.1145,0.0486,1.5711,rough,14.0,2,6.063
7980,255.36,-0.1952,3.9928,0.1803,-0.1145,0.0486,1.5711,rough,14.0,2,6.063
7990,255.68,-0.1952,3.9928,0.1803,-0.1146,0.0486,1.5711,rough,14.0,2,6.063
8000,256.00,-0.1952,3.9928,0.1803,-0.1146,0.0486,1.5711,rough,14.0,2,6.063
8010,256.32,-0.1951,3.9928,0.1803,-0.1146,0.0486,1.5711,rough,14.0,2,6.063
8020,256.64,-0.1951,3.9928,0.1803,-0.1146,0.0486,1.5711,rough,14.0,2,6.063
8030,256.96,-0.1950,3.9928,0.1803,-0.1146,0.0486,1.5711,rough,14.0,2,6.063
8040,257.28,-0.1950,3.9928,0.1803,-0.1147,0.0486,1.5711,rough,14.0,2,6.063
8050,257.60,-0.1949,3.9928,0.1803,-0.1147,0.0486,1.5711,rough,14.0,2,6.063
