step,time_s,x,y,z,roll,pitch,yaw,terrain,speed,target_idx,dist_to_target
10,0.32,-1.2981,0.8843,0.2276,0.0014,-0.0273,0.0049,rough,14.0,0,6.140
20,0.64,-1.0539,0.8850,0.2196,0.0129,0.0115,0.3517,rough,14.0,0,6.346
30,0.96,-0.7905,1.0020,0.2183,0.0201,-0.0043,0.6847,rough,14.0,0,6.515
40,1.28,-0.5426,1.2179,0.2189,0.0126,-0.0081,0.9804,rough,14.0,0,6.632
50,1.60,-0.3914,1.4753,0.2246,0.0076,-0.0327,1.2749,rough,14.0,0,6.659
60,1.92,-0.3161,1.7997,0.2298,-0.0432,-0.0169,1.5553,rough,14.0,0,6.603
70,2.24,-0.3192,2.1613,0.2328,-0.0348,0.0239,1.7946,rough,14.0,0,6.478
80,2.56,-0.4132,2.5291,0.2197,0.0025,0.0399,1.9943,rough,14.0,0,6.282
90,2.88,-0.5863,2.8778,0.2075,0.0183,0.0324,2.1484,rough,14.0,0,6.030
100,3.20,-0.8226,3.2086,0.1931,0.0266,0.0315,2.2744,rough,14.0,0,5.734
110,3.52,-1.1041,3.5103,0.1816,0.0314,0.0291,2.3882,rough,14.0,0,5.410
120,3.84,-1.4190,3.7910,0.1701,0.0372,0.0274,2.4878,rough,14.0,0,5.068
130,4.16,-1.7603,4.0439,0.1607,0.0387,0.0137,2.5874,rough,14.0,0,4.713
140,4.48,-2.1313,4.2632,0.1552,0.0336,0.0075,2.6734,rough,14.0,0,4.341
150,4.80,-2.5190,4.4438,0.1535,0.0303,-0.0022,2.7478,rough,14.0,0,3.960
160,5.12,-2.9187,4.6049,0.1560,0.0270,-0.0103,2.8320,rough,14.0,0,3.577
170,5.44,-3.3325,4.7314,0.1610,0.0203,-0.0165,2.9150,rough,14.0,0,3.185
180,5.76,-3.7546,4.8234,0.1684,0.0135,-0.0236,2.9981,rough,14.0,0,2.789
190,6.08,-4.1830,4.8800,0.1775,0.0055,-0.0268,3.0804,rough,14.0,0,2.390
200,6.40,-4.6137,4.8982,0.1850,-0.0127,-0.0299,-3.1231,rough,14.0,0,1.988
210,6.72,-5.0455,4.8866,0.1965,-0.0123,-0.0236,-3.0347,rough,14.0,0,1.587
220,7.04,-5.4618,4.8353,0.2046,-0.0195,-0.0163,-3.0101,rough,14.0,0,1.198
230,7.36,-5.8698,4.7744,0.2113,-0.0263,-0.0150,-2.9759,rough,14.0,0,0.838
240,7.68,-6.1226,4.7552,0.2150,-0.0309,0.0013,-2.5536,rough,14.0,1,6.930
250,8.00,-6.3328,4.5644,0.2111,-0.0265,0.0196,-2.1807,rough,14.0,1,7.151
260,8.32,-6.4703,4.2761,0.2054,-0.0188,0.0301,-1.9154,rough,14.0,1,7.315
270,8.64,-6.5461,3.9116,0.1929,-0.0112,0.0352,-1.7480,rough,14.0,1,7.439
280,8.96,-6.5858,3.5168,0.1785,-0.0003,0.0405,-1.6458,rough,14.0,1,7.550
290,9.28,-6.6158,3.1727,0.1651,0.0132,0.0381,-1.4085,rough,14.0,1,7.658
300,9.60,-6.5687,2.8854,0.1548,0.0250,0.0282,-1.0995,rough,14.0,1,7.689
310,9.92,-6.4156,2.6089,0.1469,0.0317,0.0162,-0.8706,rough,14.0,1,7.628
320,10.24,-6.1615,2.3367,0.1425,0.0324,0.0035,-0.6819,rough,14.0,1,7.483
330,10.56,-5.8539,2.1108,0.1432,0.0326,-0.0113,-0.5090,rough,14.0,1,7.287
340,10.88,-5.4956,1.9197,0.1478,0.0255,-0.0210,-0.3317,rough,14.0,1,7.045
350,11.20,-5.1004,1.7922,0.1566,0.0172,-0.0269,-0.1699,rough,14.0,1,6.756
360,11.52,-4.6823,1.7284,0.1685,0.0075,-0.0291,-0.0209,rough,14.0,1,6.427
370,11.84,-4.2573,1.7269,0.1801,-0.0044,-0.0304,0.0906,rough,14.0,1,6.069
380,12.16,-3.8299,1.7750,0.1922,-0.0085,-0.0275,0.1552,rough,14.0,1,5.690
390,12.48,-3.3949,1.8485,0.1977,-0.0143,0.0081,0.1877,rough,14.0,1,5.297
400,12.80,-2.9700,1.9334,0.2099,-0.0173,-0.0139,0.2225,rough,14.0,1,4.912
410,13.12,-2.5527,2.0386,0.2151,-0.0179,-0.0074,0.2999,rough,14.0,1,4.528
420,13.44,-2.1409,2.1726,0.2168,-0.0215,-0.0004,0.3535,rough,14.0,1,4.137
430,13.76,-1.7312,2.3273,0.2169,-0.0205,0.0012,0.3955,rough,14.0,1,3.742
440,14.08,-1.3315,2.5002,0.2152,-0.0228,0.0068,0.4523,rough,14.0,1,3.349
450,14.40,-0.9467,2.6969,0.2117,-0.0220,0.0095,0.5148,rough,14.0,1,2.957
460,14.72,-0.5682,2.9172,0.2061,-0.0306,0.0151,0.5696,rough,14.0,1,2.562
470,15.04,-0.2409,3.1456,0.2172,-0.0415,-0.0981,0.6321,rough,14.0,1,2.199
480,15.36,0.0613,3.4127,0.2451,-0.1301,-0.1380,0.6890,rough,14.0,1,1.826
490,15.68,0.3371,3.6910,0.3022,-0.2225,-0.1850,0.7699,rough,14.0,1,1.467
500,16.00,0.5982,3.9893,0.3693,-0.2766,-0.1911,0.8683,rough,14.0,1,1.112
510,16.32,0.8183,4.3118,0.4342,-0.3008,-0.1608,0.9940,rough,14.0,2,9.053
520,16.64,0.9896,4.5552,0.4848,-0.2616,-0.2267,0.7425,rough,14.0,2,9.044
530,16.96,1.2091,4.7563,0.5558,-0.2156,-0.2764,0.5643,rough,14.0,2,8.981
540,17.28,1.4838,4.9270,0.6491,-0.1668,-0.3130,0.3961,rough,14.0,2,8.866
550,17.60,1.7888,5.0472,0.7568,-0.1290,-0.3339,0.2766,rough,14.0,2,8.705
560,17.92,2.1017,5.1474,0.8694,-0.1012,-0.3452,0.1915,rough,14.0,2,8.535
570,18.24,2.2294,5.2218,0.9323,-0.0452,-0.4588,0.0041,rough,14.0,2,8.491
580,18.56,2.2342,5.2045,0.9190,-0.0183,-0.3725,-0.0452,rough,14.0,2,8.476
590,18.88,2.2440,5.1711,0.9219,-0.0056,-0.3611,-0.0831,rough,14.0,2,8.446
600,19.20,2.2635,5.1299,0.9309,0.0035,-0.3626,-0.1088,rough,14.0,2,8.404
610,19.52,2.2750,5.0772,0.9373,0.0134,-0.3636,-0.1370,rough,14.0,2,8.360
620,19.84,2.2693,5.0284,0.9332,0.0032,-0.3399,-0.1066,rough,14.0,2,8.331
630,20.16,2.2681,5.0034,0.9368,-0.0164,-0.3594,-0.0504,rough,14.0,2,8.315
640,20.48,2.2689,4.9920,0.9374,-0.0283,-0.3580,-0.0163,rough,14.0,2,8.307
650,20.80,2.2696,4.9871,0.9378,-0.0342,-0.3574,0.0005,rough,14.0,2,8.303
660,21.12,2.2701,4.9851,0.9373,-0.0372,-0.3524,0.0088,rough,14.0,2,8.301
670,21.44,2.2705,4.9845,0.9387,-0.0382,-0.3597,0.0118,rough,14.0,2,8.301
680,21.76,2.2704,4.9837,0.9387,-0.0380,-0.3603,0.0113,rough,14.0,2,8.300
690,22.08,2.2700,4.9827,0.9386,-0.0379,-0.3603,0.0108,rough,14.0,2,8.300
700,22.40,2.2698,4.9815,0.9386,-0.0377,-0.3604,0.0103,rough,14.0,2,8.299
710,22.72,2.2698,4.9809,0.9386,-0.0383,-0.3603,0.0121,rough,14.0,2,8.299
720,23.04,2.2698,4.9806,0.9386,-0.0386,-0.3602,0.0130,rough,14.0,2,8.299
730,23.36,2.2698,4.9805,0.9386,-0.0388,-0.3602,0.0135,rough,14.0,2,8.299
740,23.68,2.2699,4.9806,0.9387,-0.0390,-0.3602,0.0140,rough,14.0,2,8.298
750,24.00,2.2700,4.9808,0.9387,-0.0391,-0.3602,0.0145,rough,14.0,2,8.299
760,24.32,2.2703,4.9812,0.9388,-0.0393,-0.3602,0.0151,rough,14.0,2,8.299
770,24.64,2.2704,4.9819,0.9388,-0.0397,-0.3601,0.0160,rough,14.0,2,8.299
780,24.96,2.2708,4.9830,0.9389,-0.0400,-0.3601,0.0170,rough,14.0,2,8.299
790,25.28,2.2711,4.9845,0.9390,-0.0405,-0.3601,0.0184,rough,14.0,2,8.300
800,25.60,2.2716,4.9866,0.9391,-0.0410,-0.3600,0.0200,rough,14.0,2,8.301
810,25.92,2.2720,4.9893,0.9391,-0.0418,-0.3599,0.0220,rough,14.0,2,8.303
820,26.24,2.2721,4.9929,0.9391,-0.0428,-0.3598,0.0249,rough,14.0,2,8.305
830,26.56,2.2721,4.9977,0.9389,-0.0442,-0.3597,0.0288,rough,14.0,2,8.308
840,26.88,2.2721,5.0043,0.9386,-0.0460,-0.3594,0.0341,rough,14.0,2,8.313
850,27.20,2.2719,5.0131,0.9383,-0.0486,-0.3591,0.0413,rough,14.0,2,8.319
860,27.52,2.2715,5.0251,0.9377,-0.0522,-0.3586,0.0518,rough,14.0,2,8.327
870,27.84,2.2701,5.0404,0.9352,-0.0534,-0.3500,0.0549,rough,14.0,2,8.338
880,28.16,2.2690,5.0517,0.9357,-0.0475,-0.3589,0.0378,rough,14.0,2,8.347
890,28.48,2.2690,5.0563,0.9356,-0.0437,-0.3598,0.0267,rough,14.0,2,8.350
900,28.80,2.2693,5.0587,0.9356,-0.0415,-0.3601,0.0206,rough,14.0,2,8.351
910,29.12,2.2694,5.0600,0.9356,-0.0404,-0.3602,0.0174,rough,14.0,2,8.352
920,29.44,2.2695,5.0607,0.9356,-0.0398,-0.3603,0.0157,rough,14.0,2,8.352
930,29.76,2.2696,5.0611,0.9356,-0.0395,-0.3603,0.0147,rough,14.0,2,8.353
940,30.08,2.2696,5.0613,0.9356,-0.0393,-0.3603,0.0142,rough,14.0,2,8.353
950,30.40,2.2696,5.0614,0.9357,-0.0392,-0.3603,0.0139,rough,14.0,2,8.353
960,30.72,2.2697,5.0613,0.9357,-0.0390,-0.3604,0.0135,rough,14.0,2,8.353
970,31.04,2.2697,5.0611,0.9357,-0.0388,-0.3604,0.0129,rough,14.0,2,8.353
980,31.36,2.2698,5.0607,0.9357,-0.0386,-0.3604,0.0122,rough,14.0,2,8.352
990,31.68,2.2698,5.0599,0.9358,-0.0383,-0.3605,0.0112,rough,14.0,2,8.352
1000,32.00,2.2704,5.0587,0.9360,-0.0378,-0.3605,0.0100,rough,14.0,2,8.350
1010,32.32,2.2710,5.0571,0.9363,-0.0373,-0.3606,0.0085,rough,14.0,2,8.349
1020,32.64,2.2716,5.0548,0.9366,-0.0367,-0.3607,0.0065,rough,14.0,2,8.347
1030,32.96,2.2720,5.0516,0.9369,-0.0357,-0.3608,0.0040,rough,14.0,2,8.345
1040,33.28,2.2721,5.0474,0.9371,-0.0345,-0.3609,0.0005,rough,14.0,2,8.342
1050,33.60,2.2721,5.0416,0.9373,-0.0329,-0.3610,-0.0041,rough,14.0,2,8.338
1060,33.92,2.2720,5.0339,0.9376,-0.0308,-0.3612,-0.0101,rough,14.0,2,8.333
1070,34.24,2.2718,5.0236,0.9379,-0.0281,-0.3614,-0.0179,rough,14.0,2,8.326
1080,34.56,2.2712,5.0100,0.9381,-0.0245,-0.3617,-0.0280,rough,14.0,2,8.317
1090,34.88,2.2697,4.9971,0.9357,-0.0273,-0.3465,-0.0196,rough,14.0,2,8.310
1100,35.20,2.2696,4.9897,0.9358,-0.0323,-0.3457,-0.0051,rough,14.0,2,8.305
1110,35.52,2.2699,4.9861,0.9359,-0.0360,-0.3444,0.0055,rough,14.0,2,8.302
1120,35.84,2.2702,4.9847,0.9386,-0.0375,-0.3601,0.0097,rough,14.0,2,8.301
1130,36.16,2.2699,4.9831,0.9386,-0.0373,-0.3604,0.0091,rough,14.0,2,8.300
1140,36.48,2.2697,4.9816,0.9386,-0.0375,-0.3604,0.0097,rough,14.0,2,8.299
1150,36.80,2.2698,4.9809,0.9386,-0.0383,-0.3603,0.0120,rough,14.0,2,8.299
1160,37.12,2.2698,4.9806,0.9386,-0.0386,-0.3602,0.0130,rough,14.0,2,8.299
1170,37.44,2.2698,4.9805,0.9386,-0.0388,-0.3602,0.0134,rough,14.0,2,8.299
1180,37.76,2.2699,4.9805,0.9387,-0.0389,-0.3602,0.0139,rough,14.0,2,8.298
1190,38.08,2.2700,4.9808,0.9387,-0.0391,-0.3602,0.0144,rough,14.0,2,8.299
1200,38.40,2.2703,4.9812,0.9388,-0.0393,-0.3602,0.0150,rough,14.0,2,8.299
1210,38.72,2.2703,4.9819,0.9388,-0.0396,-0.3601,0.0159,rough,14.0,2,8.299
1220,39.04,2.2707,4.9829,0.9389,-0.0400,-0.3601,0.0169,rough,14.0,2,8.299
1230,39.36,2.2710,4.9843,0.9390,-0.0404,-0.3601,0.0182,rough,14.0,2,8.300
1240,39.68,2.2716,4.9863,0.9391,-0.0410,-0.3600,0.0198,rough,14.0,2,8.301
1250,40.00,2.2720,4.9890,0.9392,-0.0417,-0.3599,0.0218,rough,14.0,2,8.303
1260,40.32,2.2721,4.9925,0.9391,-0.0427,-0.3598,0.0246,rough,14.0,2,8.305
1270,40.64,2.2721,4.9972,0.9389,-0.0441,-0.3597,0.0285,rough,14.0,2,8.308
1280,40.96,2.2721,5.0036,0.9387,-0.0458,-0.3595,0.0335,rough,14.0,2,8.312
1290,41.28,2.2720,5.0122,0.9383,-0.0483,-0.3591,0.0405,rough,14.0,2,8.318
1300,41.60,2.2716,5.0238,0.9377,-0.0518,-0.3586,0.0506,rough,14.0,2,8.326
1310,41.92,2.2706,5.0386,0.9355,-0.0528,-0.3503,0.0532,rough,14.0,2,8.337
1320,42.24,2.2691,5.0501,0.9358,-0.0486,-0.3589,0.0408,rough,14.0,2,8.346
1330,42.56,2.2691,5.0555,0.9357,-0.0444,-0.3597,0.0287,rough,14.0,2,8.349
1340,42.88,2.2692,5.0583,0.9356,-0.0419,-0.3600,0.0216,rough,14.0,2,8.351
1350,43.20,2.2694,5.0598,0.9356,-0.0406,-0.3602,0.0180,rough,14.0,2,8.352
1360,43.52,2.2695,5.0606,0.9356,-0.0399,-0.3603,0.0160,rough,14.0,2,8.352
1370,43.84,2.2696,5.0610,0.9356,-0.0395,-0.3603,0.0149,rough,14.0,2,8.353
1380,44.16,2.2696,5.0613,0.9356,-0.0393,-0.3603,0.0143,rough,14.0,2,8.353
1390,44.48,2.2696,5.0614,0.9356,-0.0392,-0.3603,0.0140,rough,14.0,2,8.353
1400,44.80,2.2697,5.0614,0.9357,-0.0391,-0.3604,0.0136,rough,14.0,2,8.353
1410,45.12,2.2697,5.0612,0.9357,-0.0389,-0.3604,0.0130,rough,14.0,2,8.353
1420,45.44,2.2698,5.0608,0.9357,-0.0387,-0.3604,0.0123,rough,14.0,2,8.352
1430,45.76,2.2698,5.0601,0.9358,-0.0384,-0.3605,0.0114,rough,14.0,2,8.352
1440,46.08,2.2704,5.0590,0.9360,-0.0380,-0.3605,0.0103,rough,14.0,2,8.351
1450,46.40,2.2707,5.0575,0.9362,-0.0375,-0.3606,0.0089,rough,14.0,2,8.349
1460,46.72,2.2714,5.0554,0.9366,-0.0368,-0.3607,0.0070,rough,14.0,2,8.347
1470,47.04,2.2720,5.0525,0.9369,-0.0360,-0.3608,0.0047,rough,14.0,2,8.345
1480,47.36,2.2721,5.0485,0.9371,-0.0348,-0.3609,0.0014,rough,14.0,2,8.342
1490,47.68,2.2721,5.0432,0.9373,-0.0333,-0.3610,-0.0029,rough,14.0,2,8.339
1500,48.00,2.2721,5.0360,0.9375,-0.0315,-0.3613,-0.0085,rough,14.0,2,8.334
1510,48.32,2.2719,5.0264,0.9378,-0.0288,-0.3614,-0.0158,rough,14.0,2,8.328
1520,48.64,2.2714,5.0136,0.9381,-0.0254,-0.3616,-0.0253,rough,14.0,2,8.320
1530,48.96,2.2700,4.9999,0.9382,-0.0262,-0.3622,-0.0229,rough,14.0,2,8.311
1540,49.28,2.2694,4.9914,0.9382,-0.0307,-0.3618,-0.0099,rough,14.0,2,8.306
1550,49.60,2.2695,4.9867,0.9384,-0.0342,-0.3611,0.0004,rough,14.0,2,8.303
1560,49.92,2.2701,4.9850,0.9385,-0.0371,-0.3600,0.0086,rough,14.0,2,8.301
1570,50.24,2.2704,4.9842,0.9387,-0.0380,-0.3600,0.0111,rough,14.0,2,8.301
1580,50.56,2.2701,4.9831,0.9386,-0.0377,-0.3603,0.0104,rough,14.0,2,8.300
1590,50.88,2.2699,4.9819,0.9386,-0.0375,-0.3604,0.0099,rough,14.0,2,8.299
1600,51.20,2.2698,4.9810,0.9386,-0.0382,-0.3603,0.0117,rough,14.0,2,8.299
1610,51.52,2.2698,4.9807,0.9386,-0.0386,-0.3602,0.0128,rough,14.0,2,8.299
1620,51.84,2.2698,4.9805,0.9386,-0.0388,-0.3602,0.0134,rough,14.0,2,8.299
1630,52.16,2.2699,4.9805,0.9387,-0.0389,-0.3602,0.0138,rough,14.0,2,8.298
1640,52.48,2.2700,4.9807,0.9387,-0.0391,-0.3602,0.0143,rough,14.0,2,8.299
1650,52.80,2.2702,4.9811,0.9388,-0.0393,-0.3602,0.0149,rough,14.0,2,8.299
1660,53.12,2.2703,4.9817,0.9388,-0.0395,-0.3601,0.0157,rough,14.0,2,8.299
1670,53.44,2.2706,4.9827,0.9389,-0.0399,-0.3601,0.0167,rough,14.0,2,8.299
1680,53.76,2.2709,4.9840,0.9389,-0.0403,-0.3601,0.0179,rough,14.0,2,8.300
1690,54.08,2.2715,4.9859,0.9391,-0.0409,-0.3600,0.0195,rough,14.0,2,8.301
1700,54.40,2.2720,4.9884,0.9392,-0.0415,-0.3600,0.0214,rough,14.0,2,8.302
1710,54.72,2.2721,4.9917,0.9391,-0.0425,-0.3599,0.0240,rough,14.0,2,8.304
1720,55.04,2.2721,4.9962,0.9389,-0.0438,-0.3597,0.0276,rough,14.0,2,8.307
1730,55.36,2.2721,5.0022,0.9387,-0.0454,-0.3595,0.0324,rough,14.0,2,8.311
1740,55.68,2.2720,5.0103,0.9384,-0.0478,-0.3592,0.0390,rough,14.0,2,8.317
1750,56.00,2.2717,5.0213,0.9379,-0.0511,-0.3587,0.0484,rough,14.0,2,8.324
1760,56.32,2.2706,5.0360,0.9370,-0.0550,-0.3586,0.0596,rough,14.0,2,8.335
1770,56.64,2.2692,5.0487,0.9359,-0.0494,-0.3586,0.0433,rough,14.0,2,8.345
1780,56.96,2.2692,5.0548,0.9357,-0.0451,-0.3596,0.0309,rough,14.0,2,8.349
1790,57.28,2.2692,5.0579,0.9356,-0.0422,-0.3600,0.0225,rough,14.0,2,8.351
1800,57.60,2.2694,5.0596,0.9356,-0.0408,-0.3602,0.0185,rough,14.0,2,8.352
1810,57.92,2.2695,5.0605,0.9356,-0.0400,-0.3603,0.0163,rough,14.0,2,8.352
1820,58.24,2.2696,5.0610,0.9356,-0.0396,-0.3603,0.0151,rough,14.0,2,8.353
1830,58.56,2.2696,5.0612,0.9356,-0.0394,-0.3603,0.0144,rough,14.0,2,8.353
1840,58.88,2.2696,5.0614,0.9356,-0.0392,-0.3603,0.0140,rough,14.0,2,8.353
1850,59.20,2.2697,5.0614,0.9357,-0.0391,-0.3604,0.0136,rough,14.0,2,8.353
1860,59.52,2.2697,5.0612,0.9357,-0.0389,-0.3604,0.0131,rough,14.0,2,8.353
1870,59.84,2.2697,5.0609,0.9357,-0.0387,-0.3604,0.0125,rough,14.0,2,8.352
1880,60.16,2.2698,5.0603,0.9357,-0.0384,-0.3605,0.0116,rough,14.0,2,8.352
1890,60.48,2.2703,5.0593,0.9360,-0.0380,-0.3605,0.0106,rough,14.0,2,8.351
1900,60.80,2.2705,5.0578,0.9361,-0.0376,-0.3606,0.0091,rough,14.0,2,8.350
1910,61.12,2.2712,5.0558,0.9365,-0.0369,-0.3607,0.0074,rough,14.0,2,8.348
1920,61.44,2.2719,5.0531,0.9368,-0.0362,-0.3608,0.0051,rough,14.0,2,8.346
1930,61.76,2.2721,5.0493,0.9370,-0.0351,-0.3608,0.0021,rough,14.0,2,8.343
1940,62.08,2.2721,5.0442,0.9372,-0.0336,-0.3610,-0.0020,rough,14.0,2,8.339
1950,62.40,2.2721,5.0374,0.9375,-0.0317,-0.3611,-0.0074,rough,14.0,2,8.335
1960,62.72,2.2719,5.0283,0.9377,-0.0293,-0.3613,-0.0144,rough,14.0,2,8.329
1970,63.04,2.2715,5.0161,0.9380,-0.0261,-0.3616,-0.0233,rough,14.0,2,8.321
1980,63.36,2.2702,5.0013,0.9369,-0.0250,-0.3545,-0.0264,rough,14.0,2,8.312
1990,63.68,2.2695,4.9919,0.9370,-0.0304,-0.3538,-0.0105,rough,14.0,2,8.306
2000,64.00,2.2698,4.9870,0.9372,-0.0347,-0.3529,0.0018,rough,14.0,2,8.303
2010,64.32,2.2701,4.9850,0.9360,-0.0372,-0.3439,0.0090,rough,14.0,2,8.301
2020,64.64,2.2701,4.9838,0.9386,-0.0374,-0.3604,0.0095,rough,14.0,2,8.301
2030,64.96,2.2699,4.9823,0.9386,-0.0373,-0.3604,0.0092,rough,14.0,2,8.300
2040,65.28,2.2697,4.9812,0.9386,-0.0379,-0.3603,0.0110,rough,14.0,2,8.299
2050,65.60,2.2698,4.9808,0.9386,-0.0385,-0.3603,0.0125,rough,14.0,2,8.299
2060,65.92,2.2698,4.9806,0.9386,-0.0387,-0.3602,0.0132,rough,14.0,2,8.299
2070,66.24,2.2698,4.9805,0.9387,-0.0389,-0.3602,0.0137,rough,14.0,2,8.298
2080,66.56,2.2699,4.9806,0.9387,-0.0390,-0.3602,0.0142,rough,14.0,2,8.298
2090,66.88,2.2701,4.9809,0.9387,-0.0392,-0.3602,0.0147,rough,14.0,2,8.299
2100,67.20,2.2704,4.9815,0.9388,-0.0394,-0.3602,0.0153,rough,14.0,2,8.299
2110,67.52,2.2704,4.9823,0.9388,-0.0398,-0.3601,0.0164,rough,14.0,2,8.299
2120,67.84,2.2709,4.9835,0.9389,-0.0402,-0.3601,0.0175,rough,14.0,2,8.300
2130,68.16,2.2713,4.9852,0.9390,-0.0407,-0.3600,0.0189,rough,14.0,2,8.301
2140,68.48,2.2718,4.9875,0.9391,-0.0413,-0.3600,0.0207,rough,14.0,2,8.302
2150,68.80,2.2721,4.9905,0.9391,-0.0421,-0.3599,0.0230,rough,14.0,2,8.304
2160,69.12,2.2721,4.9945,0.9390,-0.0433,-0.3598,0.0263,rough,14.0,2,8.306
2170,69.44,2.2721,5.0000,0.9388,-0.0448,-0.3596,0.0306,rough,14.0,2,8.310
2180,69.76,2.2721,5.0074,0.9385,-0.0469,-0.3593,0.0366,rough,14.0,2,8.315
2190,70.08,2.2718,5.0173,0.9381,-0.0498,-0.3589,0.0449,rough,14.0,2,8.322
2200,70.40,2.2712,5.0308,0.9373,-0.0541,-0.3583,0.0570,rough,14.0,2,8.331
2210,70.72,2.2693,5.0455,0.9358,-0.0512,-0.3568,0.0485,rough,14.0,2,8.342
2220,71.04,2.2691,5.0537,0.9357,-0.0460,-0.3594,0.0333,rough,14.0,2,8.348
2230,71.36,2.2691,5.0574,0.9356,-0.0427,-0.3599,0.0239,rough,14.0,2,8.351
2240,71.68,2.2693,5.0593,0.9356,-0.0410,-0.3601,0.0192,rough,14.0,2,8.352
2250,72.00,2.2695,5.0603,0.9356,-0.0401,-0.3602,0.0166,rough,14.0,2,8.352
2260,72.32,2.2696,5.0609,0.9356,-0.0397,-0.3603,0.0152,rough,14.0,2,8.353
2270,72.64,2.2696,5.0612,0.9356,-0.0394,-0.3603,0.0145,rough,14.0,2,8.353
2280,72.96,2.2696,5.0613,0.9356,-0.0392,-0.3603,0.0141,rough,14.0,2,8.353
2290,73.28,2.2697,5.0614,0.9357,-0.0391,-0.3603,0.0137,rough,14.0,2,8.353
2300,73.60,2.2697,5.0613,0.9357,-0.0390,-0.3604,0.0133,rough,14.0,2,8.353
2310,73.92,2.2697,5.0610,0.9357,-0.0388,-0.3604,0.0126,rough,14.0,2,8.353
2320,74.24,2.2698,5.0604,0.9357,-0.0385,-0.3604,0.0118,rough,14.0,2,8.352
2330,74.56,2.2701,5.0595,0.9359,-0.0381,-0.3605,0.0108,rough,14.0,2,8.351
2340,74.88,2.2704,5.0582,0.9361,-0.0377,-0.3606,0.0095,rough,14.0,2,8.350
2350,75.20,2.2710,5.0563,0.9364,-0.0371,-0.3606,0.0078,rough,14.0,2,8.348
2360,75.52,2.2718,5.0537,0.9368,-0.0364,-0.3607,0.0057,rough,14.0,2,8.346
2370,75.84,2.2721,5.0502,0.9370,-0.0353,-0.3608,0.0028,rough,14.0,2,8.344
2380,76.16,2.2721,5.0454,0.9372,-0.0340,-0.3609,-0.0011,rough,14.0,2,8.340
2390,76.48,2.2721,5.0390,0.9374,-0.0322,-0.3611,-0.0061,rough,14.0,2,8.336
2400,76.80,2.2720,5.0304,0.9377,-0.0299,-0.3613,-0.0128,rough,14.0,2,8.330
2410,77.12,2.2716,5.0190,0.9380,-0.0269,-0.3615,-0.0213,rough,14.0,2,8.323
2420,77.44,2.2705,5.0039,0.9382,-0.0229,-0.3626,-0.0325,rough,14.0,2,8.314
2430,77.76,2.2692,4.9930,0.9381,-0.0288,-0.3620,-0.0152,rough,14.0,2,8.307
2440,78.08,2.2694,4.9873,0.9383,-0.0335,-0.3611,-0.0016,rough,14.0,2,8.303
2450,78.40,2.2699,4.9852,0.9385,-0.0366,-0.3602,0.0074,rough,14.0,2,8.302
2460,78.72,2.2703,4.9842,0.9387,-0.0376,-0.3602,0.0101,rough,14.0,2,8.301
2470,79.04,2.2699,4.9827,0.9386,-0.0373,-0.3604,0.0093,rough,14.0,2,8.300
2480,79.36,2.2697,4.9814,0.9386,-0.0377,-0.3603,0.0104,rough,14.0,2,8.299
2490,79.68,2.2698,4.9808,0.9386,-0.0384,-0.3603,0.0123,rough,14.0,2,8.299
2500,80.00,2.2698,4.9806,0.9386,-0.0387,-0.3602,0.0131,rough,14.0,2,8.299
2510,80.32,2.2698,4.9805,0.9386,-0.0388,-0.3602,0.0136,rough,14.0,2,8.298
2520,80.64,2.2699,4.9806,0.9387,-0.0390,-0.3602,0.0140,rough,14.0,2,8.298
2530,80.96,2.2701,4.9808,0.9387,-0.0392,-0.3602,0.0146,rough,14.0,2,8.299
2540,81.28,2.2703,4.9813,0.9388,-0.0394,-0.3602,0.0152,rough,14.0,2,8.299
2550,81.60,2.2704,4.9821,0.9388,-0.0397,-0.3601,0.0161,rough,14.0,2,8.299
2560,81.92,2.2709,4.9832,0.9389,-0.0400,-0.3601,0.0171,rough,14.0,2,8.300
2570,82.24,2.2712,4.9847,0.9390,-0.0405,-0.3601,0.0185,rough,14.0,2,8.300
2580,82.56,2.2717,4.9869,0.9391,-0.0411,-0.3600,0.0202,rough,14.0,2,8.301
2590,82.88,2.2720,4.9897,0.9391,-0.0419,-0.3599,0.0224,rough,14.0,2,8.303
2600,83.20,2.2721,4.9934,0.9390,-0.0430,-0.3598,0.0254,rough,14.0,2,8.305
2610,83.52,2.2721,4.9985,0.9389,-0.0444,-0.3596,0.0294,rough,14.0,2,8.309
2620,83.84,2.2721,5.0053,0.9386,-0.0463,-0.3594,0.0349,rough,14.0,2,8.313
2630,84.16,2.2719,5.0144,0.9382,-0.0490,-0.3590,0.0424,rough,14.0,2,8.320
2640,84.48,2.2714,5.0269,0.9376,-0.0528,-0.3585,0.0534,rough,14.0,2,8.328
2650,84.80,2.2697,5.0419,0.9359,-0.0522,-0.3558,0.0513,rough,14.0,2,8.340
2660,85.12,2.2690,5.0520,0.9357,-0.0473,-0.3591,0.0370,rough,14.0,2,8.347
2670,85.44,2.2690,5.0565,0.9356,-0.0435,-0.3598,0.0261,rough,14.0,2,8.350
2680,85.76,2.2693,5.0588,0.9356,-0.0414,-0.3601,0.0203,rough,14.0,2,8.351
2690,86.08,2.2694,5.0601,0.9356,-0.0404,-0.3602,0.0173,rough,14.0,2,8.352
2700,86.40,2.2695,5.0607,0.9356,-0.0398,-0.3603,0.0156,rough,14.0,2,8.352
2710,86.72,2.2696,5.0611,0.9356,-0.0395,-0.3603,0.0147,rough,14.0,2,8.353
2720,87.04,2.2696,5.0613,0.9356,-0.0393,-0.3603,0.0142,rough,14.0,2,8.353
2730,87.36,2.2696,5.0614,0.9357,-0.0392,-0.3603,0.0139,rough,14.0,2,8.353
2740,87.68,2.2697,5.0613,0.9357,-0.0390,-0.3604,0.0134,rough,14.0,2,8.353
2750,88.00,2.2697,5.0611,0.9357,-0.0388,-0.3604,0.0129,rough,14.0,2,8.353
2760,88.32,2.2698,5.0606,0.9357,-0.0386,-0.3604,0.0121,rough,14.0,2,8.352
2770,88.64,2.2698,5.0598,0.9358,-0.0383,-0.3605,0.0111,rough,14.0,2,8.352
2780,88.96,2.2704,5.0587,0.9360,-0.0378,-0.3605,0.0099,rough,14.0,2,8.350
2790,89.28,2.2710,5.0570,0.9363,-0.0373,-0.3606,0.0084,rough,14.0,2,8.349
2800,89.60,2.2716,5.0546,0.9366,-0.0366,-0.3607,0.0064,rough,14.0,2,8.347
2810,89.92,2.2720,5.0515,0.9369,-0.0357,-0.3608,0.0038,rough,14.0,2,8.344
2820,90.24,2.2721,5.0471,0.9371,-0.0344,-0.3609,0.0003,rough,14.0,2,8.341
2830,90.56,2.2721,5.0413,0.9373,-0.0328,-0.3610,-0.0043,rough,14.0,2,8.338
2840,90.88,2.2720,5.0335,0.9376,-0.0307,-0.3612,-0.0104,rough,14.0,2,8.332
2850,91.20,2.2718,5.0231,0.9379,-0.0279,-0.3614,-0.0183,rough,14.0,2,8.326
2860,91.52,2.2712,5.0093,0.9381,-0.0243,-0.3617,-0.0286,rough,14.0,2,8.317
2870,91.84,2.2698,4.9972,0.9377,-0.0280,-0.3590,-0.0175,rough,14.0,2,8.310
2880,92.16,2.2696,4.9900,0.9378,-0.0325,-0.3581,-0.0047,rough,14.0,2,8.305
2890,92.48,2.2698,4.9863,0.9380,-0.0355,-0.3574,0.0041,rough,14.0,2,8.302
2900,92.80,2.2703,4.9849,0.9373,-0.0377,-0.3520,0.0104,rough,14.0,2,8.301
2910,93.12,2.2703,4.9839,0.9387,-0.0377,-0.3603,0.0104,rough,14.0,2,8.300
2920,93.44,2.2700,4.9826,0.9386,-0.0375,-0.3604,0.0098,rough,14.0,2,8.300
2930,93.76,2.2697,4.9813,0.9386,-0.0378,-0.3603,0.0106,rough,14.0,2,8.299
2940,94.08,2.2698,4.9808,0.9386,-0.0384,-0.3603,0.0124,rough,14.0,2,8.299
2950,94.40,2.2698,4.9806,0.9386,-0.0387,-0.3602,0.0132,rough,14.0,2,8.299
2960,94.72,2.2698,4.9805,0.9387,-0.0388,-0.3602,0.0136,rough,14.0,2,8.298
2970,95.04,2.2699,4.9806,0.9387,-0.0390,-0.3602,0.0141,rough,14.0,2,8.298
2980,95.36,2.2701,4.9809,0.9387,-0.0392,-0.3602,0.0146,rough,14.0,2,8.299
2990,95.68,2.2704,4.9814,0.9388,-0.0394,-0.3602,0.0152,rough,14.0,2,8.299
3000,96.00,2.2704,4.9821,0.9388,-0.0397,-0.3601,0.0162,rough,14.0,2,8.299
3010,96.32,2.2709,4.9833,0.9389,-0.0401,-0.3601,0.0173,rough,14.0,2,8.300
3020,96.64,2.2713,4.9849,0.9390,-0.0406,-0.3601,0.0186,rough,14.0,2,8.300
3030,96.96,2.2718,4.9871,0.9391,-0.0412,-0.3600,0.0204,rough,14.0,2,8.301
3040,97.28,2.2720,4.9900,0.9391,-0.0420,-0.3599,0.0226,rough,14.0,2,8.303
3050,97.60,2.2721,4.9938,0.9390,-0.0431,-0.3598,0.0257,rough,14.0,2,8.306
3060,97.92,2.2721,4.9990,0.9388,-0.0445,-0.3596,0.0298,rough,14.0,2,8.309
3070,98.24,2.2721,5.0060,0.9386,-0.0465,-0.3594,0.0354,rough,14.0,2,8.314
3080,98.56,2.2719,5.0154,0.9381,-0.0493,-0.3590,0.0433,rough,14.0,2,8.320
3090,98.88,2.2714,5.0283,0.9375,-0.0532,-0.3584,0.0546,rough,14.0,2,8.329
3100,99.20,2.2699,5.0429,0.9361,-0.0515,-0.3570,0.0495,rough,14.0,2,8.340
3110,99.52,2.2690,5.0522,0.9357,-0.0471,-0.3592,0.0366,rough,14.0,2,8.347
3120,99.84,2.2691,5.0566,0.9356,-0.0434,-0.3598,0.0258,rough,14.0,2,8.350
3130,100.16,2.2693,5.0588,0.9356,-0.0414,-0.3601,0.0202,rough,14.0,2,8.351
3140,100.48,2.2694,5.0601,0.9356,-0.0403,-0.3602,0.0172,rough,14.0,2,8.352
3150,100.80,2.2695,5.0608,0.9356,-0.0398,-0.3603,0.0156,rough,14.0,2,8.352
3160,101.12,2.2696,5.0611,0.9356,-0.0395,-0.3603,0.0147,rough,14.0,2,8.353
3170,101.44,2.2696,5.0613,0.9356,-0.0393,-0.3603,0.0142,rough,14.0,2,8.353
3180,101.76,2.2696,5.0614,0.9357,-0.0392,-0.3603,0.0139,rough,14.0,2,8.353
3190,102.08,2.2697,5.0613,0.9357,-0.0390,-0.3604,0.0134,rough,14.0,2,8.353
3200,102.40,2.2697,5.0611,0.9357,-0.0388,-0.3604,0.0128,rough,14.0,2,8.353
3210,102.72,2.2698,5.0606,0.9357,-0.0386,-0.3604,0.0121,rough,14.0,2,8.352
3220,103.04,2.2698,5.0598,0.9358,-0.0382,-0.3605,0.0111,rough,14.0,2,8.352
3230,103.36,2.2704,5.0586,0.9360,-0.0378,-0.3605,0.0099,rough,14.0,2,8.350
3240,103.68,2.2710,5.0569,0.9363,-0.0373,-0.3606,0.0083,rough,14.0,2,8.349
3250,104.00,2.2716,5.0546,0.9366,-0.0366,-0.3607,0.0063,rough,14.0,2,8.347
3260,104.32,2.2720,5.0514,0.9369,-0.0357,-0.3608,0.0037,rough,14.0,2,8.344
3270,104.64,2.2721,5.0470,0.9371,-0.0344,-0.3609,0.0002,rough,14.0,2,8.341
3280,104.96,2.2721,5.0411,0.9373,-0.0327,-0.3610,-0.0045,rough,14.0,2,8.337
3290,105.28,2.2720,5.0332,0.9376,-0.0306,-0.3612,-0.0107,rough,14.0,2,8.332
3300,105.60,2.2718,5.0227,0.9379,-0.0278,-0.3614,-0.0186,rough,14.0,2,8.325
3310,105.92,2.2711,5.0087,0.9382,-0.0241,-0.3617,-0.0290,rough,14.0,2,8.316
3320,106.24,2.2696,4.9957,0.9369,-0.0276,-0.3540,-0.0189,rough,14.0,2,8.309
3330,106.56,2.2696,4.9887,0.9370,-0.0327,-0.3529,-0.0040,rough,14.0,2,8.304
3340,106.88,2.2700,4.9858,0.9373,-0.0364,-0.3525,0.0066,rough,14.0,2,8.302
3350,107.20,2.2703,4.9846,0.9386,-0.0377,-0.3601,0.0103,rough,14.0,2,8.301
3360,107.52,2.2700,4.9832,0.9386,-0.0375,-0.3604,0.0096,rough,14.0,2,8.300
3370,107.84,2.2697,4.9816,0.9386,-0.0374,-0.3604,0.0094,rough,14.0,2,8.299
3380,108.16,2.2698,4.9810,0.9386,-0.0382,-0.3603,0.0119,rough,14.0,2,8.299
3390,108.48,2.2698,4.9807,0.9386,-0.0386,-0.3602,0.0129,rough,14.0,2,8.299
3400,108.80,2.2698,4.9805,0.9386,-0.0388,-0.3602,0.0134,rough,14.0,2,8.299
3410,109.12,2.2699,4.9805,0.9387,-0.0389,-0.3602,0.0139,rough,14.0,2,8.298
3420,109.44,2.2700,4.9807,0.9387,-0.0391,-0.3602,0.0144,rough,14.0,2,8.299
3430,109.76,2.2703,4.9812,0.9388,-0.0393,-0.3602,0.0150,rough,14.0,2,8.299
3440,110.08,2.2703,4.9818,0.9388,-0.0396,-0.3601,0.0158,rough,14.0,2,8.299
3450,110.40,2.2707,4.9828,0.9389,-0.0399,-0.3601,0.0168,rough,14.0,2,8.299
3460,110.72,2.2710,4.9842,0.9390,-0.0404,-0.3601,0.0181,rough,14.0,2,8.300
3470,111.04,2.2715,4.9862,0.9391,-0.0409,-0.3600,0.0197,rough,14.0,2,8.301
3480,111.36,2.2720,4.9887,0.9392,-0.0416,-0.3600,0.0216,rough,14.0,2,8.302
3490,111.68,2.2721,4.9922,0.9391,-0.0426,-0.3599,0.0244,rough,14.0,2,8.305
3500,112.00,2.2721,4.9968,0.9389,-0.0439,-0.3597,0.0281,rough,14.0,2,8.308
3510,112.32,2.2721,5.0030,0.9387,-0.0457,-0.3595,0.0330,rough,14.0,2,8.312
3520,112.64,2.2720,5.0114,0.9383,-0.0481,-0.3592,0.0399,rough,14.0,2,8.318
3530,112.96,2.2716,5.0228,0.9378,-0.0515,-0.3587,0.0497,rough,14.0,2,8.325
3540,113.28,2.2705,5.0376,0.9342,-0.0534,-0.3417,0.0549,rough,14.0,2,8.336
3550,113.60,2.2690,5.0503,0.9357,-0.0485,-0.3586,0.0405,rough,14.0,2,8.346
3560,113.92,2.2691,5.0556,0.9356,-0.0443,-0.3597,0.0286,rough,14.0,2,8.349
3570,114.24,2.2692,5.0583,0.9356,-0.0418,-0.3600,0.0214,rough,14.0,2,8.351
3580,114.56,2.2694,5.0598,0.9356,-0.0406,-0.3602,0.0179,rough,14.0,2,8.352
3590,114.88,2.2695,5.0606,0.9356,-0.0399,-0.3603,0.0159,rough,14.0,2,8.352
3600,115.20,2.2696,5.0610,0.9356,-0.0395,-0.3603,0.0149,rough,14.0,2,8.353
3610,115.52,2.2696,5.0613,0.9356,-0.0393,-0.3603,0.0143,rough,14.0,2,8.353
3620,115.84,2.2696,5.0614,0.9356,-0.0392,-0.3603,0.0140,rough,14.0,2,8.353
3630,116.16,2.2697,5.0614,0.9357,-0.0391,-0.3604,0.0136,rough,14.0,2,8.353
3640,116.48,2.2697,5.0612,0.9357,-0.0389,-0.3604,0.0130,rough,14.0,2,8.353
3650,116.80,2.2698,5.0608,0.9357,-0.0386,-0.3604,0.0123,rough,14.0,2,8.352
3660,117.12,2.2698,5.0601,0.9358,-0.0383,-0.3605,0.0114,rough,14.0,2,8.352
3670,117.44,2.2704,5.0590,0.9360,-0.0379,-0.3605,0.0103,rough,14.0,2,8.351
3680,117.76,2.2707,5.0575,0.9362,-0.0374,-0.3606,0.0088,rough,14.0,2,8.349
3690,118.08,2.2715,5.0553,0.9366,-0.0368,-0.3607,0.0070,rough,14.0,2,8.347
3700,118.40,2.2720,5.0524,0.9369,-0.0360,-0.3608,0.0046,rough,14.0,2,8.345
3710,118.72,2.2721,5.0484,0.9371,-0.0348,-0.3609,0.0013,rough,14.0,2,8.342
3720,119.04,2.2721,5.0430,0.9373,-0.0333,-0.3610,-0.0030,rough,14.0,2,8.339
3730,119.36,2.2721,5.0357,0.9375,-0.0313,-0.3612,-0.0087,rough,14.0,2,8.334
3740,119.68,2.2719,5.0260,0.9378,-0.0287,-0.3614,-0.0161,rough,14.0,2,8.327
3750,120.00,2.2714,5.0132,0.9381,-0.0253,-0.3616,-0.0256,rough,14.0,2,8.319
3760,120.32,2.2697,4.9991,0.9380,-0.0258,-0.3615,-0.0240,rough,14.0,2,8.311
3770,120.64,2.2694,4.9909,0.9382,-0.0311,-0.3616,-0.0087,rough,14.0,2,8.306
3780,120.96,2.2695,4.9864,0.9384,-0.0345,-0.3609,0.0013,rough,14.0,2,8.303
3790,121.28,2.2701,4.9849,0.9384,-0.0373,-0.3592,0.0093,rough,14.0,2,8.301
3800,121.60,2.2705,4.9843,0.9387,-0.0382,-0.3599,0.0117,rough,14.0,2,8.301
3810,121.92,2.2703,4.9835,0.9387,-0.0380,-0.3603,0.0112,rough,14.0,2,8.300
3820,122.24,2.2701,4.9825,0.9387,-0.0378,-0.3603,0.0107,rough,14.0,2,8.300
3830,122.56,2.2698,4.9813,0.9386,-0.0377,-0.3603,0.0105,rough,14.0,2,8.299
3840,122.88,2.2698,4.9808,0.9386,-0.0384,-0.3603,0.0124,rough,14.0,2,8.299
3850,123.20,2.2698,4.9806,0.9386,-0.0387,-0.3602,0.0131,rough,14.0,2,8.299
3860,123.52,2.2698,4.9805,0.9386,-0.0388,-0.3602,0.0136,rough,14.0,2,8.298
3870,123.84,2.2699,4.9806,0.9387,-0.0390,-0.3602,0.0141,rough,14.0,2,8.298
3880,124.16,2.2701,4.9809,0.9387,-0.0392,-0.3602,0.0146,rough,14.0,2,8.299
3890,124.48,2.2704,4.9813,0.9388,-0.0394,-0.3602,0.0152,rough,14.0,2,8.299
3900,124.80,2.2704,4.9821,0.9388,-0.0397,-0.3601,0.0162,rough,14.0,2,8.299
3910,125.12,2.2708,4.9833,0.9389,-0.0401,-0.3601,0.0172,rough,14.0,2,8.300
3920,125.44,2.2713,4.9849,0.9390,-0.0406,-0.3601,0.0186,rough,14.0,2,8.300
3930,125.76,2.2718,4.9870,0.9391,-0.0412,-0.3600,0.0203,rough,14.0,2,8.301
3940,126.08,2.2720,4.9899,0.9391,-0.0419,-0.3599,0.0225,rough,14.0,2,8.303
3950,126.40,2.2721,4.9937,0.9390,-0.0430,-0.3598,0.0256,rough,14.0,2,8.306
3960,126.72,2.2721,4.9989,0.9388,-0.0445,-0.3596,0.0297,rough,14.0,2,8.309
3970,127.04,2.2721,5.0058,0.9386,-0.0465,-0.3594,0.0353,rough,14.0,2,8.314
3980,127.36,2.2719,5.0152,0.9382,-0.0492,-0.3590,0.0431,rough,14.0,2,8.320
3990,127.68,2.2714,5.0280,0.9375,-0.0531,-0.3584,0.0543,rough,14.0,2,8.329
4000,128.00,2.2696,5.0432,0.9358,-0.0522,-0.3555,0.0515,rough,14.0,2,8.341
4010,128.32,2.2690,5.0528,0.9357,-0.0467,-0.3592,0.0354,rough,14.0,2,8.348
4020,128.64,2.2691,5.0569,0.9356,-0.0431,-0.3599,0.0251,rough,14.0,2,8.350
4030,128.96,2.2693,5.0590,0.9356,-0.0413,-0.3601,0.0198,rough,14.0,2,8.352
4040,129.28,2.2695,5.0602,0.9356,-0.0403,-0.3602,0.0170,rough,14.0,2,8.352
4050,129.60,2.2696,5.0608,0.9356,-0.0397,-0.3603,0.0154,rough,14.0,2,8.353
4060,129.92,2.2696,5.0611,0.9356,-0.0394,-0.3603,0.0146,rough,14.0,2,8.353
4070,130.24,2.2696,5.0613,0.9356,-0.0393,-0.3603,0.0141,rough,14.0,2,8.353
4080,130.56,2.2696,5.0614,0.9357,-0.0391,-0.3603,0.0138,rough,14.0,2,8.353
4090,130.88,2.2697,5.0613,0.9357,-0.0390,-0.3604,0.0134,rough,14.0,2,8.353
4100,131.20,2.2697,5.0611,0.9357,-0.0388,-0.3604,0.0128,rough,14.0,2,8.353
4110,131.52,2.2698,5.0605,0.9357,-0.0385,-0.3604,0.0120,rough,14.0,2,8.352
4120,131.84,2.2699,5.0597,0.9358,-0.0382,-0.3605,0.0110,rough,14.0,2,8.352
4130,132.16,2.2704,5.0585,0.9361,-0.0378,-0.3605,0.0097,rough,14.0,2,8.350
4140,132.48,2.2710,5.0567,0.9363,-0.0372,-0.3606,0.0081,rough,14.0,2,8.349
4150,132.80,2.2717,5.0542,0.9367,-0.0365,-0.3607,0.0061,rough,14.0,2,8.347
4160,133.12,2.2721,5.0509,0.9370,-0.0355,-0.3608,0.0034,rough,14.0,2,8.344
4170,133.44,2.2721,5.0464,0.9371,-0.0342,-0.3609,-0.0003,rough,14.0,2,8.341
4180,133.76,2.2721,5.0403,0.9374,-0.0325,-0.3611,-0.0051,rough,14.0,2,8.337
4190,134.08,2.2720,5.0321,0.9376,-0.0303,-0.3613,-0.0114,rough,14.0,2,8.331
4200,134.40,2.2717,5.0213,0.9379,-0.0274,-0.3615,-0.0196,rough,14.0,2,8.324
4210,134.72,2.2710,5.0069,0.9382,-0.0236,-0.3617,-0.0304,rough,14.0,2,8.315
4220,135.04,2.2694,4.9950,0.9376,-0.0278,-0.3590,-0.0182,rough,14.0,2,8.308
4230,135.36,2.2695,4.9885,0.9378,-0.0328,-0.3582,-0.0038,rough,14.0,2,8.304
4240,135.68,2.2699,4.9857,0.9380,-0.0363,-0.3573,0.0065,rough,14.0,2,8.302
4250,136.00,2.2702,4.9844,0.9386,-0.0375,-0.3603,0.0099,rough,14.0,2,8.301
4260,136.32,2.2699,4.9829,0.9386,-0.0373,-0.3604,0.0093,rough,14.0,2,8.300
4270,136.64,2.2697,4.9815,0.9386,-0.0376,-0.3604,0.0100,rough,14.0,2,8.299
4280,136.96,2.2698,4.9809,0.9386,-0.0383,-0.3603,0.0121,rough,14.0,2,8.299
4290,137.28,2.2698,4.9806,0.9386,-0.0386,-0.3602,0.0130,rough,14.0,2,8.299
4300,137.60,2.2698,4.9805,0.9386,-0.0388,-0.3602,0.0135,rough,14.0,2,8.299
4310,137.92,2.2699,4.9806,0.9387,-0.0390,-0.3602,0.0140,rough,14.0,2,8.298
4320,138.24,2.2701,4.9808,0.9387,-0.0391,-0.3602,0.0145,rough,14.0,2,8.299
4330,138.56,2.2703,4.9812,0.9388,-0.0393,-0.3602,0.0151,rough,14.0,2,8.299
4340,138.88,2.2704,4.9819,0.9388,-0.0397,-0.3601,0.0160,rough,14.0,2,8.299
4350,139.20,2.2708,4.9830,0.9389,-0.0400,-0.3601,0.0170,rough,14.0,2,8.299
4360,139.52,2.2711,4.9845,0.9390,-0.0405,-0.3601,0.0184,rough,14.0,2,8.300
4370,139.84,2.2716,4.9866,0.9391,-0.0410,-0.3600,0.0200,rough,14.0,2,8.301
4380,140.16,2.2720,4.9893,0.9391,-0.0418,-0.3599,0.0221,rough,14.0,2,8.303
4390,140.48,2.2721,4.9929,0.9391,-0.0428,-0.3598,0.0249,rough,14.0,2,8.305
4400,140.80,2.2721,4.9978,0.9389,-0.0442,-0.3597,0.0289,rough,14.0,2,8.308
4410,141.12,2.2721,5.0043,0.9386,-0.0460,-0.3594,0.0341,rough,14.0,2,8.313
4420,141.44,2.2719,5.0132,0.9383,-0.0486,-0.3591,0.0414,rough,14.0,2,8.319
4430,141.76,2.2715,5.0252,0.9377,-0.0523,-0.3585,0.0518,rough,14.0,2,8.327
4440,142.08,2.2703,5.0399,0.9361,-0.0522,-0.3548,0.0515,rough,14.0,2,8.338
4450,142.40,2.2690,5.0508,0.9358,-0.0481,-0.3590,0.0394,rough,14.0,2,8.346
4460,142.72,2.2691,5.0559,0.9356,-0.0440,-0.3598,0.0278,rough,14.0,2,8.350
4470,143.04,2.2692,5.0585,0.9356,-0.0417,-0.3601,0.0211,rough,14.0,2,8.351
4480,143.36,2.2694,5.0599,0.9356,-0.0405,-0.3602,0.0177,rough,14.0,2,8.352
4490,143.68,2.2695,5.0606,0.9356,-0.0399,-0.3603,0.0158,rough,14.0,2,8.352
4500,144.00,2.2696,5.0611,0.9356,-0.0395,-0.3603,0.0148,rough,14.0,2,8.353
4510,144.32,2.2696,5.0613,0.9356,-0.0393,-0.3603,0.0143,rough,14.0,2,8.353
4520,144.64,2.2696,5.0614,0.9357,-0.0392,-0.3603,0.0139,rough,14.0,2,8.353
4530,144.96,2.2697,5.0614,0.9357,-0.0390,-0.3604,0.0135,rough,14.0,2,8.353
4540,145.28,2.2697,5.0612,0.9357,-0.0389,-0.3604,0.0130,rough,14.0,2,8.353
4550,145.60,2.2698,5.0607,0.9357,-0.0386,-0.3604,0.0123,rough,14.0,2,8.352
4560,145.92,2.2698,5.0600,0.9358,-0.0383,-0.3605,0.0113,rough,14.0,2,8.352
4570,146.24,2.2704,5.0589,0.9360,-0.0379,-0.3605,0.0102,rough,14.0,2,8.351
4580,146.56,2.2708,5.0573,0.9363,-0.0374,-0.3606,0.0087,rough,14.0,2,8.349
4590,146.88,2.2715,5.0551,0.9366,-0.0368,-0.3607,0.0068,rough,14.0,2,8.347
4600,147.20,2.2720,5.0521,0.9369,-0.0359,-0.3608,0.0044,rough,14.0,2,8.345
4610,147.52,2.2721,5.0481,0.9371,-0.0347,-0.3609,0.0010,rough,14.0,2,8.342
4620,147.84,2.2721,5.0425,0.9373,-0.0331,-0.3610,-0.0034,rough,14.0,2,8.338
4630,148.16,2.2721,5.0351,0.9375,-0.0312,-0.3613,-0.0092,rough,14.0,2,8.333
4640,148.48,2.2718,5.0252,0.9378,-0.0285,-0.3614,-0.0167,rough,14.0,2,8.327
4650,148.80,2.2713,5.0121,0.9381,-0.0250,-0.3617,-0.0265,rough,14.0,2,8.319
4660,149.12,2.2700,4.9991,0.9359,-0.0274,-0.3477,-0.0194,rough,14.0,2,8.311
4670,149.44,2.2697,4.9908,0.9357,-0.0316,-0.3449,-0.0072,rough,14.0,2,8.306
4680,149.76,2.2699,4.9866,0.9359,-0.0354,-0.3443,0.0038,rough,14.0,2,8.303
4690,150.08,2.2701,4.9848,0.9386,-0.0371,-0.3603,0.0087,rough,14.0,2,8.301
4700,150.40,2.2698,4.9829,0.9386,-0.0369,-0.3604,0.0081,rough,14.0,2,8.300
4710,150.72,2.2697,4.9815,0.9386,-0.0376,-0.3603,0.0102,rough,14.0,2,8.299
4720,151.04,2.2698,4.9809,0.9386,-0.0383,-0.3603,0.0121,rough,14.0,2,8.299
4730,151.36,2.2698,4.9806,0.9386,-0.0386,-0.3602,0.0130,rough,14.0,2,8.299
4740,151.68,2.2698,4.9805,0.9386,-0.0388,-0.3602,0.0135,rough,14.0,2,8.299
4750,152.00,2.2699,4.9806,0.9387,-0.0390,-0.3602,0.0140,rough,14.0,2,8.298
4760,152.32,2.2701,4.9808,0.9387,-0.0391,-0.3602,0.0145,rough,14.0,2,8.299
4770,152.64,2.2703,4.9812,0.9388,-0.0393,-0.3602,0.0151,rough,14.0,2,8.299
4780,152.96,2.2704,4.9820,0.9388,-0.0397,-0.3601,0.0160,rough,14.0,2,8.299
4790,153.28,2.2708,4.9830,0.9389,-0.0400,-0.3601,0.0170,rough,14.0,2,8.299
4800,153.60,2.2711,4.9845,0.9390,-0.0405,-0.3601,0.0184,rough,14.0,2,8.300
4810,153.92,2.2716,4.9866,0.9391,-0.0410,-0.3600,0.0200,rough,14.0,2,8.301
4820,154.24,2.2720,4.9893,0.9391,-0.0418,-0.3599,0.0221,rough,14.0,2,8.303
4830,154.56,2.2721,4.9929,0.9391,-0.0428,-0.3598,0.0250,rough,14.0,2,8.305
4840,154.88,2.2721,4.9978,0.9389,-0.0442,-0.3597,0.0289,rough,14.0,2,8.308
4850,155.20,2.2721,5.0044,0.9386,-0.0461,-0.3594,0.0342,rough,14.0,2,8.313
4860,155.52,2.2719,5.0133,0.9382,-0.0486,-0.3591,0.0414,rough,14.0,2,8.319
4870,155.84,2.2715,5.0253,0.9376,-0.0523,-0.3585,0.0519,rough,14.0,2,8.327
4880,156.16,2.2703,5.0400,0.9361,-0.0522,-0.3548,0.0516,rough,14.0,2,8.338
4890,156.48,2.2690,5.0509,0.9358,-0.0480,-0.3590,0.0393,rough,14.0,2,8.346
4900,156.80,2.2691,5.0559,0.9356,-0.0440,-0.3598,0.0277,rough,14.0,2,8.350
4910,157.12,2.2692,5.0585,0.9356,-0.0417,-0.3601,0.0211,rough,14.0,2,8.351
4920,157.44,2.2694,5.0599,0.9356,-0.0405,-0.3602,0.0177,rough,14.0,2,8.352
4930,157.76,2.2695,5.0606,0.9356,-0.0399,-0.3603,0.0158,rough,14.0,2,8.352
4940,158.08,2.2696,5.0611,0.9356,-0.0395,-0.3603,0.0148,rough,14.0,2,8.353
4950,158.40,2.2696,5.0613,0.9356,-0.0393,-0.3603,0.0143,rough,14.0,2,8.353
4960,158.72,2.2696,5.0614,0.9357,-0.0392,-0.3603,0.0139,rough,14.0,2,8.353
4970,159.04,2.2697,5.0614,0.9357,-0.0390,-0.3604,0.0135,rough,14.0,2,8.353
4980,159.36,2.2697,5.0612,0.9357,-0.0389,-0.3604,0.0130,rough,14.0,2,8.353
4990,159.68,2.2698,5.0607,0.9357,-0.0386,-0.3604,0.0123,rough,14.0,2,8.352
5000,160.00,2.2698,5.0600,0.9358,-0.0383,-0.3605,0.0113,rough,14.0,2,8.352
5010,160.32,2.2704,5.0589,0.9360,-0.0379,-0.3605,0.0102,rough,14.0,2,8.351
5020,160.64,2.2708,5.0573,0.9363,-0.0374,-0.3606,0.0087,rough,14.0,2,8.349
5030,160.96,2.2715,5.0551,0.9366,-0.0367,-0.3607,0.0068,rough,14.0,2,8.347
5040,161.28,2.2720,5.0521,0.9369,-0.0359,-0.3608,0.0043,rough,14.0,2,8.345
5050,161.60,2.2721,5.0480,0.9371,-0.0347,-0.3609,0.0010,rough,14.0,2,8.342
5060,161.92,2.2721,5.0425,0.9373,-0.0331,-0.3610,-0.0035,rough,14.0,2,8.338
5070,162.24,2.2721,5.0350,0.9375,-0.0311,-0.3612,-0.0093,rough,14.0,2,8.333
5080,162.56,2.2718,5.0251,0.9378,-0.0284,-0.3614,-0.0168,rough,14.0,2,8.327
5090,162.88,2.2713,5.0120,0.9381,-0.0250,-0.3617,-0.0266,rough,14.0,2,8.318
5100,163.20,2.2695,4.9977,0.9381,-0.0256,-0.3625,-0.0246,rough,14.0,2,8.310
5110,163.52,2.2692,4.9895,0.9382,-0.0309,-0.3615,-0.0091,rough,14.0,2,8.305
5120,163.84,2.2696,4.9859,0.9384,-0.0352,-0.3608,0.0031,rough,14.0,2,8.302
5130,164.16,2.2702,4.9848,0.9384,-0.0377,-0.3589,0.0102,rough,14.0,2,8.301
5140,164.48,2.2700,4.9834,0.9386,-0.0374,-0.3604,0.0095,rough,14.0,2,8.300
5150,164.80,2.2697,4.9819,0.9386,-0.0372,-0.3604,0.0089,rough,14.0,2,8.299
5160,165.12,2.2698,4.9811,0.9386,-0.0381,-0.3603,0.0116,rough,14.0,2,8.299
5170,165.44,2.2698,4.9807,0.9386,-0.0385,-0.3602,0.0128,rough,14.0,2,8.299
5180,165.76,2.2698,4.9805,0.9386,-0.0387,-0.3602,0.0133,rough,14.0,2,8.299
5190,166.08,2.2699,4.9805,0.9387,-0.0389,-0.3602,0.0138,rough,14.0,2,8.298
5200,166.40,2.2700,4.9807,0.9387,-0.0391,-0.3602,0.0143,rough,14.0,2,8.299
5210,166.72,2.2702,4.9811,0.9388,-0.0393,-0.3602,0.0149,rough,14.0,2,8.299
5220,167.04,2.2704,4.9816,0.9388,-0.0395,-0.3602,0.0156,rough,14.0,2,8.299
5230,167.36,2.2706,4.9826,0.9388,-0.0399,-0.3601,0.0166,rough,14.0,2,8.299
5240,167.68,2.2709,4.9839,0.9389,-0.0403,-0.3601,0.0178,rough,14.0,2,8.300
5250,168.00,2.2714,4.9857,0.9391,-0.0408,-0.3600,0.0193,rough,14.0,2,8.301
5260,168.32,2.2719,4.9882,0.9392,-0.0415,-0.3600,0.0212,rough,14.0,2,8.302
5270,168.64,2.2721,4.9914,0.9391,-0.0424,-0.3599,0.0237,rough,14.0,2,8.304
5280,168.96,2.2721,4.9958,0.9390,-0.0436,-0.3597,0.0273,rough,14.0,2,8.307
5290,169.28,2.2721,5.0016,0.9387,-0.0453,-0.3595,0.0319,rough,14.0,2,8.311
5300,169.60,2.2720,5.0095,0.9384,-0.0475,-0.3592,0.0383,rough,14.0,2,8.316
5310,169.92,2.2717,5.0202,0.9379,-0.0507,-0.3588,0.0474,rough,14.0,2,8.324
5320,170.24,2.2710,5.0349,0.9371,-0.0555,-0.3580,0.0610,rough,14.0,2,8.334
5330,170.56,2.2691,5.0483,0.9358,-0.0497,-0.3580,0.0442,rough,14.0,2,8.344
5340,170.88,2.2692,5.0548,0.9357,-0.0451,-0.3596,0.0308,rough,14.0,2,8.349
5350,171.20,2.2692,5.0579,0.9356,-0.0422,-0.3600,0.0224,rough,14.0,2,8.351
5360,171.52,2.2694,5.0596,0.9356,-0.0408,-0.3602,0.0185,rough,14.0,2,8.352
5370,171.84,2.2695,5.0605,0.9356,-0.0400,-0.3603,0.0162,rough,14.0,2,8.352
5380,172.16,2.2696,5.0610,0.9356,-0.0396,-0.3603,0.0150,rough,14.0,2,8.353
5390,172.48,2.2696,5.0612,0.9356,-0.0394,-0.3603,0.0144,rough,14.0,2,8.353
5400,172.80,2.2696,5.0614,0.9356,-0.0392,-0.3603,0.0140,rough,14.0,2,8.353
5410,173.12,2.2697,5.0614,0.9357,-0.0391,-0.3604,0.0136,rough,14.0,2,8.353
5420,173.44,2.2697,5.0612,0.9357,-0.0389,-0.3604,0.0131,rough,14.0,2,8.353
5430,173.76,2.2697,5.0609,0.9357,-0.0387,-0.3604,0.0125,rough,14.0,2,8.352
5440,174.08,2.2698,5.0603,0.9357,-0.0384,-0.3605,0.0116,rough,14.0,2,8.352
5450,174.40,2.2703,5.0593,0.9360,-0.0380,-0.3605,0.0105,rough,14.0,2,8.351
5460,174.72,2.2705,5.0578,0.9361,-0.0376,-0.3606,0.0091,rough,14.0,2,8.350
5470,175.04,2.2712,5.0558,0.9365,-0.0369,-0.3607,0.0074,rough,14.0,2,8.348
5480,175.36,2.2719,5.0531,0.9368,-0.0362,-0.3608,0.0051,rough,14.0,2,8.346
5490,175.68,2.2721,5.0493,0.9370,-0.0351,-0.3608,0.0020,rough,14.0,2,8.343
5500,176.00,2.2721,5.0442,0.9372,-0.0336,-0.3610,-0.0021,rough,14.0,2,8.339
5510,176.32,2.2721,5.0374,0.9375,-0.0317,-0.3611,-0.0074,rough,14.0,2,8.335
5520,176.64,2.2719,5.0282,0.9377,-0.0292,-0.3613,-0.0144,rough,14.0,2,8.329
5530,176.96,2.2715,5.0160,0.9380,-0.0261,-0.3616,-0.0234,rough,14.0,2,8.321
5540,177.28,2.2703,5.0016,0.9369,-0.0256,-0.3542,-0.0247,rough,14.0,2,8.312
5550,177.60,2.2695,4.9919,0.9370,-0.0304,-0.3538,-0.0107,rough,14.0,2,8.306
5560,177.92,2.2698,4.9871,0.9372,-0.0347,-0.3529,0.0017,rough,14.0,2,8.303
5570,178.24,2.2701,4.9851,0.9359,-0.0372,-0.3437,0.0090,rough,14.0,2,8.301
5580,178.56,2.2701,4.9838,0.9386,-0.0374,-0.3604,0.0095,rough,14.0,2,8.301
5590,178.88,2.2698,4.9823,0.9386,-0.0372,-0.3604,0.0089,rough,14.0,2,8.300
5600,179.20,2.2697,4.9812,0.9386,-0.0380,-0.3603,0.0111,rough,14.0,2,8.299
5610,179.52,2.2698,4.9808,0.9386,-0.0385,-0.3602,0.0126,rough,14.0,2,8.299
5620,179.84,2.2698,4.9806,0.9386,-0.0387,-0.3602,0.0132,rough,14.0,2,8.299
5630,180.16,2.2699,4.9805,0.9387,-0.0389,-0.3602,0.0137,rough,14.0,2,8.298
5640,180.48,2.2700,4.9806,0.9387,-0.0390,-0.3602,0.0142,rough,14.0,2,8.298
5650,180.80,2.2701,4.9809,0.9387,-0.0392,-0.3602,0.0147,rough,14.0,2,8.299
5660,181.12,2.2704,4.9815,0.9388,-0.0394,-0.3602,0.0154,rough,14.0,2,8.299
5670,181.44,2.2705,4.9823,0.9388,-0.0398,-0.3601,0.0164,rough,14.0,2,8.299
5680,181.76,2.2709,4.9836,0.9389,-0.0402,-0.3601,0.0175,rough,14.0,2,8.300
5690,182.08,2.2713,4.9853,0.9390,-0.0407,-0.3600,0.0190,rough,14.0,2,8.301
5700,182.40,2.2719,4.9876,0.9392,-0.0413,-0.3600,0.0207,rough,14.0,2,8.302
5710,182.72,2.2721,4.9906,0.9391,-0.0421,-0.3599,0.0231,rough,14.0,2,8.304
5720,183.04,2.2721,4.9947,0.9390,-0.0433,-0.3598,0.0264,rough,14.0,2,8.306
5730,183.36,2.2721,5.0002,0.9388,-0.0449,-0.3596,0.0308,rough,14.0,2,8.310
5740,183.68,2.2721,5.0076,0.9385,-0.0470,-0.3593,0.0368,rough,14.0,2,8.315
5750,184.00,2.2718,5.0176,0.9380,-0.0499,-0.3589,0.0452,rough,14.0,2,8.322
5760,184.32,2.2712,5.0313,0.9373,-0.0542,-0.3582,0.0575,rough,14.0,2,8.331
5770,184.64,2.2696,5.0454,0.9360,-0.0508,-0.3578,0.0473,rough,14.0,2,8.342
5780,184.96,2.2691,5.0533,0.9357,-0.0463,-0.3594,0.0343,rough,14.0,2,8.348
5790,185.28,2.2691,5.0571,0.9356,-0.0429,-0.3599,0.0245,rough,14.0,2,8.350
5800,185.60,2.2693,5.0591,0.9356,-0.0412,-0.3601,0.0195,rough,14.0,2,8.352
5810,185.92,2.2695,5.0602,0.9356,-0.0402,-0.3602,0.0168,rough,14.0,2,8.352
5820,186.24,2.2696,5.0608,0.9356,-0.0397,-0.3603,0.0154,rough,14.0,2,8.353
5830,186.56,2.2696,5.0612,0.9356,-0.0394,-0.3603,0.0146,rough,14.0,2,8.353
5840,186.88,2.2696,5.0613,0.9356,-0.0393,-0.3603,0.0141,rough,14.0,2,8.353
5850,187.20,2.2697,5.0614,0.9357,-0.0391,-0.3603,0.0138,rough,14.0,2,8.353
5860,187.52,2.2697,5.0613,0.9357,-0.0390,-0.3604,0.0133,rough,14.0,2,8.353
5870,187.84,2.2697,5.0610,0.9357,-0.0388,-0.3604,0.0127,rough,14.0,2,8.353
5880,188.16,2.2698,5.0605,0.9357,-0.0385,-0.3604,0.0119,rough,14.0,2,8.352
5890,188.48,2.2700,5.0596,0.9359,-0.0382,-0.3605,0.0109,rough,14.0,2,8.351
5900,188.80,2.2704,5.0583,0.9361,-0.0377,-0.3605,0.0096,rough,14.0,2,8.350
5910,189.12,2.2710,5.0565,0.9364,-0.0372,-0.3606,0.0080,rough,14.0,2,8.349
5920,189.44,2.2718,5.0540,0.9367,-0.0364,-0.3607,0.0059,rough,14.0,2,8.346
5930,189.76,2.2721,5.0506,0.9370,-0.0354,-0.3608,0.0031,rough,14.0,2,8.344
5940,190.08,2.2721,5.0460,0.9372,-0.0341,-0.3609,-0.0006,rough,14.0,2,8.341
5950,190.40,2.2721,5.0398,0.9374,-0.0324,-0.3611,-0.0056,rough,14.0,2,8.336
5960,190.72,2.2720,5.0314,0.9376,-0.0301,-0.3613,-0.0120,rough,14.0,2,8.331
5970,191.04,2.2717,5.0203,0.9379,-0.0272,-0.3615,-0.0203,rough,14.0,2,8.324
5980,191.36,2.2710,5.0057,0.9382,-0.0233,-0.3618,-0.0313,rough,14.0,2,8.314
5990,191.68,2.2693,4.9947,0.9381,-0.0278,-0.3619,-0.0180,rough,14.0,2,8.308
6000,192.00,2.2693,4.9882,0.9383,-0.0325,-0.3612,-0.0046,rough,14.0,2,8.304
6010,192.32,2.2698,4.9855,0.9385,-0.0360,-0.3605,0.0055,rough,14.0,2,8.302
6020,192.64,2.2700,4.9841,0.9386,-0.0370,-0.3604,0.0084,rough,14.0,2,8.301
6030,192.96,2.2697,4.9822,0.9386,-0.0369,-0.3604,0.0080,rough,14.0,2,8.300
6040,193.28,2.2697,4.9812,0.9386,-0.0380,-0.3603,0.0111,rough,14.0,2,8.299
6050,193.60,2.2698,4.9808,0.9386,-0.0385,-0.3603,0.0126,rough,14.0,2,8.299
6060,193.92,2.2698,4.9806,0.9386,-0.0387,-0.3602,0.0132,rough,14.0,2,8.299
6070,194.24,2.2698,4.9805,0.9387,-0.0389,-0.3602,0.0137,rough,14.0,2,8.298
6080,194.56,2.2699,4.9806,0.9387,-0.0390,-0.3602,0.0142,rough,14.0,2,8.298
6090,194.88,2.2701,4.9809,0.9387,-0.0392,-0.3602,0.0147,rough,14.0,2,8.299
6100,195.20,2.2704,4.9815,0.9388,-0.0394,-0.3602,0.0154,rough,14.0,2,8.299
6110,195.52,2.2704,4.9823,0.9388,-0.0398,-0.3601,0.0164,rough,14.0,2,8.299
6120,195.84,2.2709,4.9835,0.9389,-0.0402,-0.3601,0.0175,rough,14.0,2,8.300
6130,196.16,2.2713,4.9852,0.9390,-0.0407,-0.3600,0.0189,rough,14.0,2,8.301
6140,196.48,2.2718,4.9875,0.9391,-0.0413,-0.3600,0.0207,rough,14.0,2,8.302
6150,196.80,2.2721,4.9905,0.9391,-0.0421,-0.3599,0.0231,rough,14.0,2,8.304
6160,197.12,2.2721,4.9946,0.9390,-0.0433,-0.3598,0.0263,rough,14.0,2,8.306
6170,197.44,2.2721,5.0000,0.9388,-0.0448,-0.3596,0.0307,rough,14.0,2,8.310
6180,197.76,2.2721,5.0074,0.9385,-0.0469,-0.3593,0.0366,rough,14.0,2,8.315
6190,198.08,2.2718,5.0173,0.9381,-0.0498,-0.3589,0.0449,rough,14.0,2,8.322
6200,198.40,2.2712,5.0309,0.9373,-0.0541,-0.3583,0.0571,rough,14.0,2,8.331
6210,198.72,2.2693,5.0456,0.9358,-0.0512,-0.3568,0.0485,rough,14.0,2,8.342
6220,199.04,2.2691,5.0538,0.9357,-0.0459,-0.3594,0.0332,rough,14.0,2,8.348
6230,199.36,2.2691,5.0574,0.9356,-0.0427,-0.3599,0.0238,rough,14.0,2,8.351
6240,199.68,2.2693,5.0593,0.9356,-0.0410,-0.3601,0.0191,rough,14.0,2,8.352
6250,200.00,2.2695,5.0603,0.9356,-0.0401,-0.3602,0.0166,rough,14.0,2,8.352
6260,200.32,2.2696,5.0609,0.9356,-0.0396,-0.3603,0.0152,rough,14.0,2,8.353
6270,200.64,2.2696,5.0612,0.9356,-0.0394,-0.3603,0.0145,rough,14.0,2,8.353
6280,200.96,2.2696,5.0613,0.9356,-0.0392,-0.3603,0.0141,rough,14.0,2,8.353
6290,201.28,2.2697,5.0614,0.9357,-0.0391,-0.3604,0.0137,rough,14.0,2,8.353
6300,201.60,2.2697,5.0613,0.9357,-0.0390,-0.3604,0.0133,rough,14.0,2,8.353
6310,201.92,2.2697,5.0610,0.9357,-0.0387,-0.3604,0.0126,rough,14.0,2,8.353
6320,202.24,2.2698,5.0604,0.9357,-0.0385,-0.3604,0.0118,rough,14.0,2,8.352
6330,202.56,2.2701,5.0595,0.9359,-0.0381,-0.3605,0.0108,rough,14.0,2,8.351
6340,202.88,2.2704,5.0582,0.9361,-0.0377,-0.3606,0.0094,rough,14.0,2,8.350
6350,203.20,2.2710,5.0563,0.9364,-0.0371,-0.3606,0.0078,rough,14.0,2,8.348
6360,203.52,2.2718,5.0537,0.9368,-0.0363,-0.3607,0.0056,rough,14.0,2,8.346
6370,203.84,2.2721,5.0502,0.9370,-0.0353,-0.3608,0.0027,rough,14.0,2,8.343
6380,204.16,2.2721,5.0454,0.9372,-0.0339,-0.3609,-0.0011,rough,14.0,2,8.340
6390,204.48,2.2721,5.0389,0.9374,-0.0321,-0.3611,-0.0062,rough,14.0,2,8.336
6400,204.80,2.2720,5.0303,0.9377,-0.0298,-0.3613,-0.0129,rough,14.0,2,8.330
6410,205.12,2.2716,5.0188,0.9380,-0.0268,-0.3615,-0.0214,rough,14.0,2,8.323
6420,205.44,2.2705,5.0039,0.9382,-0.0233,-0.3626,-0.0312,rough,14.0,2,8.314
6430,205.76,2.2693,4.9932,0.9381,-0.0287,-0.3622,-0.0157,rough,14.0,2,8.307
6440,206.08,2.2694,4.9875,0.9383,-0.0332,-0.3614,-0.0025,rough,14.0,2,8.304
6450,206.40,2.2699,4.9852,0.9385,-0.0365,-0.3605,0.0068,rough,14.0,2,8.302
6460,206.72,2.2702,4.9841,0.9386,-0.0375,-0.3603,0.0097,rough,14.0,2,8.301
6470,207.04,2.2699,4.9826,0.9386,-0.0373,-0.3604,0.0091,rough,14.0,2,8.300
6480,207.36,2.2697,4.9813,0.9386,-0.0378,-0.3603,0.0106,rough,14.0,2,8.299
6490,207.68,2.2698,4.9808,0.9386,-0.0384,-0.3603,0.0124,rough,14.0,2,8.299
6500,208.00,2.2698,4.9806,0.9386,-0.0387,-0.3602,0.0131,rough,14.0,2,8.299
6510,208.32,2.2698,4.9805,0.9387,-0.0388,-0.3602,0.0136,rough,14.0,2,8.298
6520,208.64,2.2699,4.9806,0.9387,-0.0390,-0.3602,0.0141,rough,14.0,2,8.298
6530,208.96,2.2701,4.9809,0.9387,-0.0392,-0.3602,0.0146,rough,14.0,2,8.299
6540,209.28,2.2704,4.9814,0.9388,-0.0394,-0.3602,0.0152,rough,14.0,2,8.299
6550,209.60,2.2704,4.9821,0.9388,-0.0397,-0.3601,0.0162,rough,14.0,2,8.299
6560,209.92,2.2709,4.9833,0.9389,-0.0401,-0.3601,0.0172,rough,14.0,2,8.300
6570,210.24,2.2713,4.9849,0.9390,-0.0406,-0.3601,0.0186,rough,14.0,2,8.300
6580,210.56,2.2718,4.9870,0.9391,-0.0412,-0.3600,0.0203,rough,14.0,2,8.301
6590,210.88,2.2720,4.9899,0.9391,-0.0419,-0.3599,0.0226,rough,14.0,2,8.303
6600,211.20,2.2721,4.9937,0.9390,-0.0431,-0.3598,0.0256,rough,14.0,2,8.306
6610,211.52,2.2721,4.9989,0.9388,-0.0445,-0.3596,0.0298,rough,14.0,2,8.309
6620,211.84,2.2721,5.0059,0.9386,-0.0465,-0.3594,0.0354,rough,14.0,2,8.314
6630,212.16,2.2719,5.0153,0.9382,-0.0492,-0.3590,0.0432,rough,14.0,2,8.320
6640,212.48,2.2714,5.0281,0.9375,-0.0532,-0.3584,0.0544,rough,14.0,2,8.329
6650,212.80,2.2699,5.0427,0.9362,-0.0515,-0.3570,0.0494,rough,14.0,2,8.340
6660,213.12,2.2690,5.0521,0.9357,-0.0472,-0.3592,0.0368,rough,14.0,2,8.347
6670,213.44,2.2690,5.0565,0.9356,-0.0434,-0.3598,0.0260,rough,14.0,2,8.350
6680,213.76,2.2693,5.0588,0.9356,-0.0414,-0.3601,0.0203,rough,14.0,2,8.351
6690,214.08,2.2694,5.0601,0.9356,-0.0404,-0.3602,0.0173,rough,14.0,2,8.352
6700,214.40,2.2695,5.0607,0.9356,-0.0398,-0.3603,0.0156,rough,14.0,2,8.352
6710,214.72,2.2696,5.0611,0.9356,-0.0395,-0.3603,0.0147,rough,14.0,2,8.353
6720,215.04,2.2696,5.0613,0.9356,-0.0393,-0.3603,0.0142,rough,14.0,2,8.353
6730,215.36,2.2696,5.0614,0.9357,-0.0392,-0.3603,0.0139,rough,14.0,2,8.353
6740,215.68,2.2697,5.0613,0.9357,-0.0390,-0.3604,0.0134,rough,14.0,2,8.353
6750,216.00,2.2697,5.0611,0.9357,-0.0388,-0.3604,0.0129,rough,14.0,2,8.353
6760,216.32,2.2698,5.0606,0.9357,-0.0386,-0.3604,0.0121,rough,14.0,2,8.352
6770,216.64,2.2698,5.0598,0.9358,-0.0383,-0.3605,0.0111,rough,14.0,2,8.352
6780,216.96,2.2704,5.0587,0.9360,-0.0378,-0.3605,0.0099,rough,14.0,2,8.350
6790,217.28,2.2710,5.0570,0.9363,-0.0373,-0.3606,0.0084,rough,14.0,2,8.349
6800,217.60,2.2716,5.0546,0.9366,-0.0366,-0.3607,0.0064,rough,14.0,2,8.347
6810,217.92,2.2720,5.0514,0.9369,-0.0357,-0.3608,0.0038,rough,14.0,2,8.344
6820,218.24,2.2721,5.0471,0.9371,-0.0344,-0.3609,0.0003,rough,14.0,2,8.341
6830,218.56,2.2721,5.0412,0.9373,-0.0328,-0.3610,-0.0044,rough,14.0,2,8.337
6840,218.88,2.2720,5.0334,0.9376,-0.0307,-0.3613,-0.0105,rough,14.0,2,8.332
6850,219.20,2.2718,5.0229,0.9379,-0.0279,-0.3614,-0.0184,rough,14.0,2,8.325
6860,219.52,2.2712,5.0091,0.9381,-0.0242,-0.3617,-0.0287,rough,14.0,2,8.317
6870,219.84,2.2698,4.9970,0.9377,-0.0279,-0.3589,-0.0179,rough,14.0,2,8.310
6880,220.16,2.2695,4.9896,0.9377,-0.0320,-0.3579,-0.0059,rough,14.0,2,8.305
6890,220.48,2.2698,4.9861,0.9379,-0.0357,-0.3573,0.0048,rough,14.0,2,8.302
6900,220.80,2.2701,4.9844,0.9386,-0.0370,-0.3604,0.0084,rough,14.0,2,8.301
6910,221.12,2.2698,4.9825,0.9385,-0.0368,-0.3604,0.0078,rough,14.0,2,8.300
6920,221.44,2.2697,4.9813,0.9386,-0.0378,-0.3603,0.0107,rough,14.0,2,8.299
6930,221.76,2.2698,4.9808,0.9386,-0.0384,-0.3603,0.0124,rough,14.0,2,8.299
6940,222.08,2.2698,4.9806,0.9386,-0.0387,-0.3602,0.0131,rough,14.0,2,8.299
6950,222.40,2.2698,4.9805,0.9387,-0.0388,-0.3602,0.0136,rough,14.0,2,8.298
6960,222.72,2.2699,4.9806,0.9387,-0.0390,-0.3602,0.0141,rough,14.0,2,8.298
6970,223.04,2.2701,4.9809,0.9387,-0.0392,-0.3602,0.0146,rough,14.0,2,8.299
6980,223.36,2.2704,4.9814,0.9388,-0.0394,-0.3602,0.0152,rough,14.0,2,8.299
6990,223.68,2.2704,4.9821,0.9388,-0.0397,-0.3601,0.0162,rough,14.0,2,8.299
7000,224.00,2.2709,4.9833,0.9389,-0.0401,-0.3601,0.0173,rough,14.0,2,8.300
7010,224.32,2.2713,4.9849,0.9390,-0.0406,-0.3601,0.0186,rough,14.0,2,8.300
7020,224.64,2.2717,4.9871,0.9391,-0.0412,-0.3600,0.0204,rough,14.0,2,8.301
7030,224.96,2.2720,4.9899,0.9391,-0.0420,-0.3599,0.0226,rough,14.0,2,8.303
7040,225.28,2.2721,4.9938,0.9390,-0.0431,-0.3598,0.0257,rough,14.0,2,8.306
7050,225.60,2.2721,4.9990,0.9388,-0.0445,-0.3596,0.0298,rough,14.0,2,8.309
7060,225.92,2.2721,5.0060,0.9386,-0.0465,-0.3594,0.0354,rough,14.0,2,8.314
7070,226.24,2.2719,5.0154,0.9382,-0.0492,-0.3590,0.0432,rough,14.0,2,8.320
7080,226.56,2.2714,5.0282,0.9375,-0.0532,-0.3584,0.0545,rough,14.0,2,8.329
7090,226.88,2.2699,5.0428,0.9361,-0.0515,-0.3570,0.0494,rough,14.0,2,8.340
7100,227.20,2.2690,5.0522,0.9357,-0.0471,-0.3592,0.0367,rough,14.0,2,8.347
7110,227.52,2.2691,5.0565,0.9356,-0.0434,-0.3598,0.0259,rough,14.0,2,8.350
7120,227.84,2.2693,5.0588,0.9356,-0.0414,-0.3601,0.0202,rough,14.0,2,8.351
7130,228.16,2.2694,5.0601,0.9356,-0.0404,-0.3602,0.0172,rough,14.0,2,8.352
7140,228.48,2.2695,5.0608,0.9356,-0.0398,-0.3603,0.0156,rough,14.0,2,8.352
7150,228.80,2.2696,5.0611,0.9356,-0.0395,-0.3603,0.0147,rough,14.0,2,8.353
7160,229.12,2.2696,5.0613,0.9356,-0.0393,-0.3603,0.0142,rough,14.0,2,8.353
7170,229.44,2.2696,5.0614,0.9357,-0.0392,-0.3603,0.0139,rough,14.0,2,8.353
7180,229.76,2.2697,5.0613,0.9357,-0.0390,-0.3604,0.0134,rough,14.0,2,8.353
7190,230.08,2.2697,5.0611,0.9357,-0.0388,-0.3604,0.0128,rough,14.0,2,8.353
7200,230.40,2.2698,5.0606,0.9357,-0.0386,-0.3604,0.0121,rough,14.0,2,8.352
7210,230.72,2.2698,5.0598,0.9358,-0.0382,-0.3605,0.0111,rough,14.0,2,8.352
7220,231.04,2.2704,5.0586,0.9360,-0.0378,-0.3605,0.0099,rough,14.0,2,8.350
7230,231.36,2.2710,5.0569,0.9363,-0.0373,-0.3606,0.0084,rough,14.0,2,8.349
7240,231.68,2.2716,5.0546,0.9366,-0.0366,-0.3607,0.0064,rough,14.0,2,8.347
7250,232.00,2.2720,5.0514,0.9369,-0.0357,-0.3608,0.0037,rough,14.0,2,8.344
7260,232.32,2.2721,5.0470,0.9371,-0.0344,-0.3609,0.0002,rough,14.0,2,8.341
7270,232.64,2.2721,5.0412,0.9373,-0.0328,-0.3610,-0.0045,rough,14.0,2,8.337
7280,232.96,2.2720,5.0333,0.9376,-0.0307,-0.3613,-0.0106,rough,14.0,2,8.332
7290,233.28,2.2718,5.0228,0.9379,-0.0278,-0.3614,-0.0185,rough,14.0,2,8.325
7300,233.60,2.2712,5.0089,0.9381,-0.0242,-0.3617,-0.0289,rough,14.0,2,8.317
7310,233.92,2.2697,4.9967,0.9376,-0.0279,-0.3585,-0.0180,rough,14.0,2,8.309
7320,234.24,2.2695,4.9894,0.9377,-0.0321,-0.3578,-0.0056,rough,14.0,2,8.305
7330,234.56,2.2698,4.9860,0.9379,-0.0359,-0.3572,0.0051,rough,14.0,2,8.302
7340,234.88,2.2701,4.9844,0.9386,-0.0371,-0.3603,0.0086,rough,14.0,2,8.301
7350,235.20,2.2698,4.9826,0.9386,-0.0369,-0.3604,0.0082,rough,14.0,2,8.300
7360,235.52,2.2697,4.9813,0.9386,-0.0378,-0.3603,0.0106,rough,14.0,2,8.299
7370,235.84,2.2698,4.9808,0.9386,-0.0384,-0.3603,0.0123,rough,14.0,2,8.299
7380,236.16,2.2698,4.9806,0.9386,-0.0387,-0.3602,0.0131,rough,14.0,2,8.299
7390,236.48,2.2698,4.9805,0.9386,-0.0388,-0.3602,0.0136,rough,14.0,2,8.298
7400,236.80,2.2699,4.9806,0.9387,-0.0390,-0.3602,0.0141,rough,14.0,2,8.298
7410,237.12,2.2701,4.9809,0.9387,-0.0392,-0.3602,0.0146,rough,14.0,2,8.299
7420,237.44,2.2704,4.9813,0.9388,-0.0394,-0.3602,0.0152,rough,14.0,2,8.299
7430,237.76,2.2704,4.9821,0.9388,-0.0397,-0.3601,0.0162,rough,14.0,2,8.299
7440,238.08,2.2708,4.9832,0.9389,-0.0401,-0.3601,0.0172,rough,14.0,2,8.300
7450,238.40,2.2713,4.9848,0.9390,-0.0406,-0.3601,0.0186,rough,14.0,2,8.300
7460,238.72,2.2717,4.9870,0.9391,-0.0412,-0.3600,0.0203,rough,14.0,2,8.301
7470,239.04,2.2720,4.9898,0.9391,-0.0419,-0.3599,0.0225,rough,14.0,2,8.303
7480,239.36,2.2721,4.9937,0.9390,-0.0430,-0.3598,0.0256,rough,14.0,2,8.306
7490,239.68,2.2721,4.9988,0.9388,-0.0445,-0.3596,0.0297,rough,14.0,2,8.309
7500,240.00,2.2721,5.0057,0.9386,-0.0464,-0.3594,0.0353,rough,14.0,2,8.314
7510,240.32,2.2719,5.0151,0.9382,-0.0492,-0.3590,0.0430,rough,14.0,2,8.320
7520,240.64,2.2714,5.0278,0.9375,-0.0531,-0.3584,0.0542,rough,14.0,2,8.329
7530,240.96,2.2696,5.0430,0.9358,-0.0522,-0.3555,0.0514,rough,14.0,2,8.341
7540,241.28,2.2690,5.0527,0.9357,-0.0467,-0.3592,0.0355,rough,14.0,2,8.347
7550,241.60,2.2691,5.0569,0.9356,-0.0431,-0.3599,0.0252,rough,14.0,2,8.350
7560,241.92,2.2693,5.0590,0.9356,-0.0413,-0.3601,0.0198,rough,14.0,2,8.352
7570,242.24,2.2695,5.0602,0.9356,-0.0403,-0.3602,0.0170,rough,14.0,2,8.352
7580,242.56,2.2696,5.0608,0.9356,-0.0397,-0.3603,0.0154,rough,14.0,2,8.353
7590,242.88,2.2696,5.0611,0.9356,-0.0394,-0.3603,0.0146,rough,14.0,2,8.353
7600,243.20,2.2696,5.0613,0.9356,-0.0393,-0.3603,0.0142,rough,14.0,2,8.353
7610,243.52,2.2696,5.0614,0.9357,-0.0391,-0.3603,0.0138,rough,14.0,2,8.353
7620,243.84,2.2697,5.0613,0.9357,-0.0390,-0.3604,0.0134,rough,14.0,2,8.353
7630,244.16,2.2697,5.0611,0.9357,-0.0388,-0.3604,0.0128,rough,14.0,2,8.353
7640,244.48,2.2698,5.0605,0.9357,-0.0385,-0.3604,0.0120,rough,14.0,2,8.352
7650,244.80,2.2699,5.0597,0.9358,-0.0382,-0.3605,0.0110,rough,14.0,2,8.352
7660,245.12,2.2704,5.0585,0.9361,-0.0378,-0.3605,0.0097,rough,14.0,2,8.350
7670,245.44,2.2710,5.0567,0.9363,-0.0372,-0.3606,0.0081,rough,14.0,2,8.349
7680,245.76,2.2717,5.0543,0.9367,-0.0365,-0.3607,0.0061,rough,14.0,2,8.347
7690,246.08,2.2721,5.0510,0.9370,-0.0355,-0.3608,0.0034,rough,14.0,2,8.344
7700,246.40,2.2721,5.0464,0.9371,-0.0342,-0.3609,-0.0003,rough,14.0,2,8.341
7710,246.72,2.2721,5.0404,0.9374,-0.0325,-0.3611,-0.0051,rough,14.0,2,8.337
7720,247.04,2.2720,5.0322,0.9376,-0.0303,-0.3612,-0.0114,rough,14.0,2,8.331
7730,247.36,2.2717,5.0214,0.9379,-0.0275,-0.3615,-0.0195,rough,14.0,2,8.324
7740,247.68,2.2710,5.0071,0.9382,-0.0237,-0.3617,-0.0303,rough,14.0,2,8.315
7750,248.00,2.2694,4.9950,0.9376,-0.0278,-0.3589,-0.0180,rough,14.0,2,8.308
7760,248.32,2.2695,4.9885,0.9378,-0.0328,-0.3582,-0.0037,rough,14.0,2,8.304
7770,248.64,2.2699,4.9857,0.9380,-0.0363,-0.3573,0.0065,rough,14.0,2,8.302
7780,248.96,2.2702,4.9844,0.9386,-0.0376,-0.3603,0.0099,rough,14.0,2,8.301
7790,249.28,2.2699,4.9829,0.9386,-0.0374,-0.3604,0.0093,rough,14.0,2,8.300
7800,249.60,2.2697,4.9815,0.9386,-0.0376,-0.3604,0.0100,rough,14.0,2,8.299
7810,249.92,2.2698,4.9809,0.9386,-0.0383,-0.3603,0.0121,rough,14.0,2,8.299
7820,250.24,2.2698,4.9806,0.9386,-0.0386,-0.3602,0.0130,rough,14.0,2,8.299
7830,250.56,2.2698,4.9805,0.9386,-0.0388,-0.3602,0.0135,rough,14.0,2,8.299
7840,250.88,2.2699,4.9806,0.9387,-0.0390,-0.3602,0.0140,rough,14.0,2,8.298
7850,251.20,2.2700,4.9808,0.9387,-0.0391,-0.3602,0.0145,rough,14.0,2,8.299
7860,251.52,2.2703,4.9812,0.9388,-0.0393,-0.3602,0.0151,rough,14.0,2,8.299
7870,251.84,2.2704,4.9819,0.9388,-0.0397,-0.3601,0.0160,rough,14.0,2,8.299
7880,252.16,2.2708,4.9830,0.9389,-0.0400,-0.3601,0.0170,rough,14.0,2,8.299
7890,252.48,2.2711,4.9845,0.9390,-0.0405,-0.3601,0.0184,rough,14.0,2,8.300
7900,252.80,2.2716,4.9866,0.9391,-0.0410,-0.3600,0.0200,rough,14.0,2,8.301
7910,253.12,2.2720,4.9893,0.9391,-0.0418,-0.3599,0.0221,rough,14.0,2,8.303
7920,253.44,2.2721,4.9929,0.9391,-0.0428,-0.3598,0.0249,rough,14.0,2,8.305
7930,253.76,2.2721,4.9978,0.9389,-0.0442,-0.3597,0.0289,rough,14.0,2,8.308
7940,254.08,2.2721,5.0043,0.9386,-0.0460,-0.3594,0.0341,rough,14.0,2,8.313
7950,254.40,2.2719,5.0132,0.9383,-0.0486,-0.3591,0.0414,rough,14.0,2,8.319
7960,254.72,2.2715,5.0252,0.9377,-0.0523,-0.3586,0.0518,rough,14.0,2,8.327
7970,255.04,2.2703,5.0399,0.9361,-0.0522,-0.3548,0.0515,rough,14.0,2,8.338
7980,255.36,2.2690,5.0508,0.9358,-0.0481,-0.3590,0.0394,rough,14.0,2,8.346
7990,255.68,2.2691,5.0558,0.9356,-0.0440,-0.3598,0.0278,rough,14.0,2,8.350
8000,256.00,2.2692,5.0584,0.9356,-0.0417,-0.3601,0.0211,rough,14.0,2,8.351
8010,256.32,2.2694,5.0599,0.9356,-0.0405,-0.3602,0.0177,rough,14.0,2,8.352
8020,256.64,2.2695,5.0606,0.9356,-0.0399,-0.3603,0.0158,rough,14.0,2,8.352
8030,256.96,2.2696,5.0611,0.9356,-0.0395,-0.3603,0.0148,rough,14.0,2,8.353
