step,time_s,x,y,z,roll,pitch,yaw,terrain,speed,target_idx,dist_to_target
10,0.32,-0.1275,1.4415,0.2272,0.0399,-0.0609,-0.0014,rough,14.0,0,4.156
20,0.64,0.1242,1.4428,0.2540,-0.0003,-0.1115,0.3206,rough,14.0,0,4.226
30,0.96,0.3182,1.5531,0.2855,-0.0254,-0.1715,0.5066,rough,14.0,0,4.187
40,1.28,0.5271,1.7267,0.3287,-0.1010,-0.1903,0.7528,rough,14.0,0,4.107
50,1.60,0.7000,1.9662,0.3885,-0.1421,-0.2141,0.9830,rough,14.0,0,3.970
60,1.92,0.8218,2.2848,0.4335,-0.2316,-0.1326,1.2036,rough,14.0,0,3.756
70,2.24,0.8750,2.6464,0.4675,-0.2864,-0.0804,1.4301,rough,14.0,0,3.486
80,2.56,0.8614,3.0413,0.4698,-0.3166,-0.0031,1.6316,rough,14.0,0,3.167
90,2.88,0.7705,3.4481,0.4427,-0.3035,0.0996,1.8237,rough,14.0,0,2.804
100,3.20,0.6214,3.8424,0.3828,-0.2838,0.1655,1.9628,rough,14.0,0,2.423
110,3.52,0.4360,4.2182,0.3055,-0.2761,0.1965,2.0346,rough,14.0,0,2.039
120,3.84,0.2280,4.5715,0.2349,-0.2153,0.1557,2.1479,rough,14.0,0,1.666
130,4.16,-0.0103,4.9091,0.1560,-0.1083,0.1480,2.2531,rough,14.0,0,1.294
140,4.48,-0.2837,5.2090,0.1154,-0.0092,0.0960,2.3828,rough,14.0,0,0.931
150,4.80,-0.5848,5.4822,0.0870,0.0448,0.0175,2.3996,rough,14.0,1,1.937
160,5.12,-0.8852,5.7774,0.0820,0.0351,0.0121,2.3156,rough,14.0,1,1.598
170,5.44,-1.1555,6.0983,0.0779,0.0328,0.0071,2.2140,rough,14.0,1,1.279
180,5.76,-1.3836,6.4423,0.0758,0.0319,0.0027,2.0902,rough,14.0,1,0.997
190,6.08,-1.5571,6.7957,0.0753,0.0305,0.0032,1.8988,rough,14.0,2,0.787
200,6.40,-1.6230,7.1160,0.0741,0.0295,0.0093,1.5064,rough,14.0,2,8.374
210,6.72,-1.5918,7.4092,0.0724,0.0257,0.0114,1.1484,rough,14.0,2,8.484
220,7.04,-1.4448,7.6827,0.0681,0.0249,0.0155,0.9000,rough,14.0,2,8.494
230,7.36,-1.2304,7.9136,0.0635,0.0226,0.0164,0.6602,rough,14.0,2,8.435
240,7.68,-0.9465,8.1220,0.0584,0.0210,0.0171,0.4113,rough,14.0,2,8.318
250,8.00,-0.6015,8.2453,0.0530,0.0188,0.0135,0.2308,rough,14.0,2,8.115
260,8.32,-0.2526,8.3207,0.0617,0.0197,-0.0926,0.0006,rough,14.0,2,7.889
270,8.64,0.1123,8.2932,0.1154,0.0538,-0.1801,-0.1704,rough,14.0,2,7.593
280,8.96,0.4235,8.2204,0.2049,0.0931,-0.3286,-0.2278,rough,14.0,2,7.312
290,9.28,0.7534,8.1259,0.3218,0.1136,-0.3329,-0.2996,rough,14.0,2,7.007
300,9.60,1.0980,8.0008,0.4463,0.1515,-0.3197,-0.4174,rough,14.0,2,6.672
310,9.92,1.4448,7.8368,0.5731,0.1933,-0.3067,-0.5530,rough,14.0,2,6.312
320,10.24,1.7664,7.6214,0.6903,0.2168,-0.2812,-0.6540,rough,14.0,2,5.935
330,10.56,2.0693,7.3674,0.8061,0.2433,-0.2756,-0.7465,rough,14.0,2,5.542
340,10.88,2.3515,7.0891,0.9149,0.2612,-0.2605,-0.8296,rough,14.0,2,5.146
350,11.20,2.6119,6.7754,1.0185,0.2813,-0.2437,-0.9100,rough,14.0,2,4.739
360,11.52,2.8460,6.4397,1.1116,0.2961,-0.2065,-0.9850,rough,14.0,2,4.334
370,11.84,3.0568,6.0928,1.2036,0.3080,-0.2090,-1.0575,rough,14.0,2,3.938
380,12.16,3.2467,5.7321,1.2867,0.3202,-0.1915,-1.1208,rough,14.0,2,3.550
390,12.48,3.4339,5.3602,1.3689,0.3040,-0.2120,-1.0535,rough,14.0,2,3.162
400,12.80,3.6475,4.9920,1.4624,0.2956,-0.2232,-1.0169,rough,14.0,2,2.763
410,13.12,3.8612,4.6324,1.5533,0.2861,-0.2247,-1.0094,rough,14.0,2,2.379
420,13.44,4.0881,4.2840,1.6502,0.2795,-0.2454,-0.9381,rough,14.0,2,2.001
430,13.76,4.3421,3.9532,1.7542,0.2620,-0.2528,-0.8788,rough,14.0,2,1.625
440,14.08,4.6123,3.6443,1.8618,0.2426,-0.2662,-0.8036,rough,14.0,2,1.265
450,14.40,4.8939,3.3665,1.9710,0.2160,-0.2825,-0.7056,rough,14.0,2,0.936
460,14.72,5.2017,3.1186,2.0859,0.1974,-0.2870,-0.6578,rough,14.0,3,3.017
470,15.04,5.5374,2.8609,2.2107,0.1970,-0.2830,-0.6381,rough,14.0,3,2.605
480,15.36,5.8794,2.6114,2.3335,0.1927,-0.2826,-0.6155,rough,14.0,3,2.193
490,15.68,6.2199,2.3694,2.4520,0.1869,-0.2791,-0.5912,rough,14.0,3,1.790
500,16.00,6.5703,2.1376,2.5692,0.1651,-0.2810,-0.5542,rough,14.0,3,1.389
510,16.32,6.9160,1.9219,2.6873,0.1692,-0.2826,-0.5167,rough,14.0,3,1.011
520,16.64,7.2206,1.7340,2.7860,0.1712,-0.2681,-0.5558,rough,14.0,0,9.191
530,16.96,7.2915,1.5520,2.8061,0.2938,-0.1120,-1.1875,rough,14.0,0,9.330
540,17.28,7.2995,1.2488,2.8078,0.3204,0.0138,-1.5708,rough,14.0,0,9.469
550,17.60,7.2021,0.9588,2.7720,0.2952,0.1185,-1.9084,rough,14.0,0,9.515
560,17.92,7.0543,0.6687,2.7213,0.2653,0.1751,-2.1191,rough,14.0,0,9.528
570,18.24,6.8485,0.3946,2.6525,0.2255,0.2218,-2.3220,rough,14.0,0,9.494
580,18.56,6.5846,0.1348,2.5661,0.1822,0.2596,-2.5139,rough,14.0,0,9.416
590,18.88,6.2686,-0.0845,2.4627,0.1330,0.2898,-2.7038,rough,14.0,0,9.287
600,19.20,5.9098,-0.2417,2.3445,0.0801,0.3101,-2.8868,rough,14.0,0,9.099
610,19.52,5.5063,-0.3234,2.2076,0.0545,0.3262,-2.9684,rough,14.0,0,8.842
620,19.84,5.0894,-0.3870,2.0621,0.0547,0.3474,-2.9958,rough,14.0,0,8.574
630,20.16,4.6712,-0.4404,1.9051,0.0475,0.3775,-3.0180,rough,14.0,0,8.311
640,20.48,4.2521,-0.4838,1.7408,0.0590,0.3866,-3.0160,rough,14.0,0,8.054
650,20.80,3.8289,-0.5319,1.5610,0.0911,0.4085,-2.9685,rough,14.0,0,7.811
660,21.12,3.4152,-0.5914,1.3727,0.1112,0.4289,-2.9406,rough,14.0,0,7.600
670,21.44,3.0115,-0.6487,1.1824,0.1312,0.4459,-2.9314,rough,14.0,0,7.410
680,21.76,2.6078,-0.7113,0.9880,0.1441,0.4297,-2.9238,rough,14.0,0,7.243
690,22.08,2.2096,-0.7705,0.8042,0.1611,0.4102,-2.9143,rough,14.0,0,7.095
700,22.40,1.8144,-0.8310,0.6371,0.1352,0.3909,-2.9573,rough,14.0,0,6.970
710,22.72,1.4307,-0.8723,0.4988,0.1255,0.3206,-3.0279,rough,14.0,0,6.852
720,23.04,1.0341,-0.9057,0.3841,0.0961,0.2251,-3.0686,rough,14.0,0,6.742
730,23.36,0.6374,-0.9175,0.3028,0.0603,0.1758,3.1290,rough,14.0,0,6.634
740,23.68,0.2898,-0.8812,0.2450,0.0396,0.0989,2.9169,rough,14.0,0,6.512
750,24.00,-0.0652,-0.7712,0.2196,-0.0014,0.0490,2.7255,rough,14.0,0,6.333
760,24.32,-0.4318,-0.5947,0.2117,0.0159,0.0020,2.6102,rough,14.0,0,6.103
770,24.64,-0.7620,-0.3744,0.2114,0.0242,-0.0049,2.4644,rough,14.0,0,5.852
780,24.96,-1.0625,-0.1049,0.2160,0.0173,-0.0111,2.3305,rough,14.0,0,5.569
790,25.28,-1.3302,0.2085,0.2210,0.0118,-0.0091,2.2175,rough,14.0,0,5.256
800,25.60,-1.5637,0.5553,0.2252,0.0109,-0.0086,2.1215,rough,14.0,0,4.922
810,25.92,-1.7717,0.9218,0.2280,0.0041,-0.0014,2.0503,rough,14.0,0,4.579
820,26.24,-1.9524,1.3052,0.2236,0.0010,-0.0222,1.9789,rough,14.0,0,4.229
830,26.56,-2.1030,1.7109,0.2236,-0.0025,0.0123,1.8843,rough,14.0,0,3.864
840,26.88,-2.2226,2.1310,0.2171,-0.0051,0.0179,1.8192,rough,14.0,0,3.491
850,27.20,-2.3191,2.5480,0.2077,-0.0068,0.0229,1.6908,rough,14.0,0,3.129
860,27.52,-2.3645,2.9747,0.1969,-0.0076,0.0289,1.5746,rough,14.0,0,2.756
870,27.84,-2.3607,3.4056,0.1840,-0.0034,0.0299,1.4911,rough,14.0,0,2.372
880,28.16,-2.3174,3.8381,0.1708,-0.0025,0.0313,1.4283,rough,14.0,0,1.983
890,28.48,-2.2522,4.2705,0.1564,0.0022,0.0316,1.3935,rough,14.0,0,1.604
900,28.80,-2.1721,4.6983,0.1416,0.0065,0.0328,1.3346,rough,14.0,0,1.253
910,29.12,-2.0680,5.1120,0.1269,0.0075,0.0348,1.2207,rough,14.0,0,0.955
920,29.44,-1.9239,5.4955,0.1124,0.0003,0.0255,1.1157,rough,14.0,1,2.081
930,29.76,-1.7286,5.8963,0.0970,0.0131,0.0343,1.1267,rough,14.0,1,1.635
940,30.08,-1.5409,6.2985,0.0829,0.0172,0.0311,1.1406,rough,14.0,1,1.192
950,30.40,-1.3672,6.6977,0.0713,0.0193,0.0255,1.1355,rough,14.0,2,7.959
960,30.72,-1.2192,7.0059,0.0637,0.0145,0.0245,0.9151,rough,14.0,2,7.964
970,31.04,-1.0093,7.2287,0.0568,0.0099,0.0210,0.6742,rough,14.0,2,7.888
980,31.36,-0.7230,7.4389,0.0494,0.0089,0.0200,0.4346,rough,14.0,2,7.752
990,31.68,-0.3838,7.5882,0.0445,-0.0059,0.0207,0.2344,rough,14.0,2,7.551
1000,32.00,-0.0863,7.6618,0.0696,-0.0262,-0.1690,0.1087,rough,14.0,2,7.352
1010,32.32,0.2430,7.6891,0.1452,0.0210,-0.2854,-0.0954,rough,14.0,2,7.107
1020,32.64,0.5308,7.6480,0.2365,0.0448,-0.3439,-0.1327,rough,14.0,2,6.856
1030,32.96,0.8265,7.5907,0.3439,0.0683,-0.3434,-0.1956,rough,14.0,2,6.593
1040,33.28,1.1324,7.5097,0.4557,0.1018,-0.3379,-0.2944,rough,14.0,2,6.310
1050,33.60,1.4548,7.3931,0.5739,0.1425,-0.3303,-0.4499,rough,14.0,2,5.994
1060,33.92,1.7510,7.2115,0.6863,0.1859,-0.3092,-0.5764,rough,14.0,2,5.654
1070,34.24,2.0343,6.9851,0.7942,0.2289,-0.2771,-0.7209,rough,14.0,2,5.293
1080,34.56,2.3046,6.7179,0.9015,0.2666,-0.2529,-0.8699,rough,14.0,2,4.913
1090,34.88,2.5221,6.3975,0.9901,0.3026,-0.2172,-1.0123,rough,14.0,2,4.534
1100,35.20,2.6994,6.0496,1.0669,0.3048,-0.2064,-1.0614,rough,14.0,2,4.169
1110,35.52,2.9109,5.6825,1.1586,0.2989,-0.2203,-1.0322,rough,14.0,2,3.770
1120,35.84,3.1332,5.3205,1.2549,0.2891,-0.2312,-0.9968,rough,14.0,2,3.371
1130,36.16,3.3637,4.9692,1.3541,0.2792,-0.2419,-0.9543,rough,14.0,2,2.979
1140,36.48,3.6131,4.6290,1.4596,0.2695,-0.2519,-0.9144,rough,14.0,2,2.586
1150,36.80,3.8698,4.3018,1.5668,0.2574,-0.2608,-0.8637,rough,14.0,2,2.202
1160,37.12,4.1381,3.9903,1.6759,0.2406,-0.2716,-0.8102,rough,14.0,2,1.827
1170,37.44,4.4274,3.6980,1.7917,0.2273,-0.2814,-0.7469,rough,14.0,2,1.457
1180,37.76,4.7203,3.4317,1.9058,0.2067,-0.2930,-0.6717,rough,14.0,2,1.115
1190,38.08,5.0270,3.1985,2.0169,0.1706,-0.3387,-0.5487,rough,14.0,2,0.806
1200,38.40,5.3749,2.9807,2.1511,0.1729,-0.3065,-0.5533,rough,14.0,3,2.802
1210,38.72,5.7367,2.7578,2.2820,0.1711,-0.2966,-0.5443,rough,14.0,3,2.381
1220,39.04,6.1013,2.5398,2.4103,0.1620,-0.2944,-0.5310,rough,14.0,3,1.960
1230,39.36,6.4676,2.3235,2.5377,0.1683,-0.2885,-0.5206,rough,14.0,3,1.541
1240,39.68,6.8330,2.1104,2.6563,0.1951,-0.2858,-0.5072,rough,14.0,3,1.128
1250,40.00,7.1905,1.9176,2.7810,0.1647,-0.2804,-0.4822,rough,14.0,0,9.090
1260,40.32,7.3234,1.8320,2.8239,0.2862,-0.1641,-1.0129,rough,14.0,0,9.246
1270,40.64,7.4438,1.6324,2.8613,0.3148,-0.0858,-1.2658,rough,14.0,0,9.436
1280,40.96,7.4849,1.4039,2.8714,0.3243,-0.0066,-1.5067,rough,14.0,0,9.568
1290,41.28,7.4040,1.1172,2.8403,0.3033,0.1029,-1.8565,rough,14.0,0,9.621
1300,41.60,7.2387,0.8295,2.7828,0.2643,0.1784,-2.1191,rough,14.0,0,9.609
1310,41.92,7.0399,0.5318,2.7154,0.2292,0.2177,-2.3005,rough,14.0,0,9.585
1320,42.24,6.7792,0.2779,2.6297,0.1872,0.2557,-2.4896,rough,14.0,0,9.499
1330,42.56,6.4676,0.0538,2.5278,0.1386,0.2838,-2.6766,rough,14.0,0,9.367
1340,42.88,6.1121,-0.1156,2.4112,0.0882,0.3073,-2.8578,rough,14.0,0,9.181
1350,43.20,5.7228,-0.2147,2.2796,0.0340,0.3243,-3.0043,rough,14.0,0,8.937
1360,43.52,5.3018,-0.2599,2.1373,0.0465,0.3429,-3.0290,rough,14.0,0,8.646
1370,43.84,4.8801,-0.3044,1.9856,0.0468,0.3472,-3.0170,rough,14.0,0,8.365
1380,44.16,4.4597,-0.3443,1.8226,0.0441,0.3730,-3.0400,rough,14.0,0,8.095
1390,44.48,4.0367,-0.3806,1.6475,0.0638,0.3935,-3.0177,rough,14.0,0,7.833
1400,44.80,3.6183,-0.4225,1.4636,0.0697,0.4390,-3.0169,rough,14.0,0,7.593
1410,45.12,3.2029,-0.4695,1.2678,0.1057,0.4454,-2.9669,rough,14.0,0,7.375
1420,45.44,2.7856,-0.5366,1.0648,0.1681,0.4459,-2.8602,rough,14.0,0,7.191
1430,45.76,2.4118,-0.6066,0.8866,0.1323,0.4358,-2.9489,rough,14.0,0,7.052
1440,46.08,2.0242,-0.6515,0.7126,0.1258,0.3946,-2.9812,rough,14.0,0,6.903
1450,46.40,1.6328,-0.6947,0.5562,0.1114,0.3405,-3.0159,rough,14.0,0,6.769
1460,46.72,1.2418,-0.7202,0.4279,0.0856,0.2908,-3.0906,rough,14.0,0,6.640
1470,47.04,0.8540,-0.7136,0.3293,0.0495,0.2282,3.0933,rough,14.0,0,6.502
1480,47.36,0.4757,-0.6700,0.2626,0.0113,0.1412,2.9451,rough,14.0,0,6.352
1490,47.68,0.1254,-0.5731,0.2254,0.0022,0.0530,2.7881,rough,14.0,0,6.175
1500,48.00,-0.2315,-0.4212,0.2110,-0.0006,0.0079,2.6560,rough,14.0,0,5.960
1510,48.32,-0.5773,-0.2197,0.2086,0.0108,-0.0035,2.5244,rough,14.0,0,5.714
1520,48.64,-0.8914,0.0294,0.2125,0.0131,-0.0134,2.3914,rough,14.0,0,5.441
1530,48.96,-1.1773,0.3206,0.2179,0.0132,-0.0129,2.2742,rough,14.0,0,5.142
1540,49.28,-1.4311,0.6517,0.2238,0.0088,-0.0094,2.1602,rough,14.0,0,4.818
1550,49.60,-1.6498,1.0060,0.2258,0.0061,-0.0001,2.0660,rough,14.0,0,4.481
1560,49.92,-1.8334,1.3907,0.2272,0.0018,0.0045,1.9854,rough,14.0,0,4.124
1570,50.24,-1.9875,1.7914,0.2237,-0.0010,0.0125,1.9123,rough,14.0,0,3.759
1580,50.56,-2.1095,2.1965,0.2171,0.0006,0.0222,1.8028,rough,14.0,0,3.396
1590,50.88,-2.1838,2.6077,0.2074,-0.0061,0.0226,1.6849,rough,14.0,0,3.026
1600,51.20,-2.2207,3.0375,0.1953,-0.0062,0.0323,1.5788,rough,14.0,0,2.639
1610,51.52,-2.2168,3.4702,0.1828,-0.0058,0.0323,1.4891,rough,14.0,0,2.246
1620,51.84,-2.1761,3.9087,0.1681,-0.0001,0.0341,1.4526,rough,14.0,0,1.846
1630,52.16,-2.1217,4.3462,0.1526,0.0050,0.0336,1.4211,rough,14.0,0,1.461
1640,52.48,-2.0538,4.7776,0.1371,0.0084,0.0355,1.3655,rough,14.0,0,1.111
1650,52.80,-1.9636,5.1930,0.1223,0.0080,0.0347,1.2452,rough,14.0,0,0.829
1660,53.12,-1.8287,5.6026,0.1071,0.0146,0.0352,1.2357,rough,14.0,1,1.944
1670,53.44,-1.6811,6.0245,0.0925,0.0172,0.0310,1.2354,rough,14.0,1,1.499
1680,53.76,-1.5334,6.4461,0.0798,0.0203,0.0254,1.2349,rough,14.0,1,1.057
1690,54.08,-1.4028,6.8396,0.0704,0.0211,0.0227,1.1488,rough,14.0,2,8.053
1700,54.40,-1.2633,7.1193,0.0639,0.0156,0.0236,0.8914,rough,14.0,2,8.057
1710,54.72,-1.0457,7.3464,0.0574,0.0110,0.0195,0.6521,rough,14.0,2,7.979
1720,55.04,-0.7563,7.5523,0.0458,0.0110,-0.0079,0.4195,rough,14.0,2,7.841
1730,55.36,-0.4149,7.6857,0.0476,-0.0095,0.0092,0.2196,rough,14.0,2,7.632
1740,55.68,-0.0954,7.7532,0.0688,-0.0233,-0.1580,0.0593,rough,14.0,2,7.414
1750,56.00,0.2424,7.7599,0.1446,0.0225,-0.2870,-0.0793,rough,14.0,2,7.151
1760,56.32,0.5551,7.7262,0.2453,0.0480,-0.3479,-0.1295,rough,14.0,2,6.888
1770,56.64,0.8735,7.6719,0.3612,0.0631,-0.3453,-0.1757,rough,14.0,2,6.611
1780,56.96,1.1909,7.5983,0.4773,0.0834,-0.3434,-0.2369,rough,14.0,2,6.327
1790,57.28,1.5192,7.5001,0.5990,0.1212,-0.3384,-0.3479,rough,14.0,2,6.021
1800,57.60,1.8624,7.3611,0.7275,0.1774,-0.3237,-0.5115,rough,14.0,2,5.680
1810,57.92,2.2053,7.1872,0.8584,0.1595,-0.3286,-0.4813,rough,14.0,2,5.318
1820,58.24,2.5471,6.9904,0.9873,0.1818,-0.3032,-0.5521,rough,14.0,2,4.942
1830,58.56,2.8798,6.7720,1.1223,0.2006,-0.3137,-0.6170,rough,14.0,2,4.559
1840,58.88,3.2013,6.5300,1.2507,0.2156,-0.3032,-0.6735,rough,14.0,2,4.168
1850,59.20,3.5137,6.2719,1.3785,0.2333,-0.2986,-0.7285,rough,14.0,2,3.771
1860,59.52,3.8091,5.9930,1.4997,0.2452,-0.2877,-0.7774,rough,14.0,2,3.370
1870,59.84,4.0972,5.7025,1.6189,0.2576,-0.2749,-0.8255,rough,14.0,2,2.966
1880,60.16,4.3673,5.3879,1.7284,0.2710,-0.2425,-0.8728,rough,14.0,2,2.553
1890,60.48,4.6137,5.0694,1.8332,0.2722,-0.2516,-0.8996,rough,14.0,2,2.151
1900,60.80,4.8753,4.7334,1.9414,0.2799,-0.2431,-0.9175,rough,14.0,2,1.726
1910,61.12,5.1344,4.3953,2.0418,0.2584,-0.2336,-0.9365,rough,14.0,2,1.301
1920,61.44,5.3751,4.0442,2.1406,0.2894,-0.2207,-0.9682,rough,14.0,2,0.876
1930,61.76,5.6132,3.6990,2.2314,0.2684,-0.2267,-0.9169,rough,14.0,3,2.982
1940,62.08,5.8734,3.3584,2.3284,0.2769,-0.2273,-0.8947,rough,14.0,3,2.567
1950,62.40,6.1433,3.0255,2.4263,0.2588,-0.2243,-0.8691,rough,14.0,3,2.153
1960,62.72,6.4224,2.7014,2.5248,0.2554,-0.2261,-0.8420,rough,14.0,3,1.743
1970,63.04,6.7068,2.3872,2.6210,0.2440,-0.2307,-0.8031,rough,14.0,3,1.344
1980,63.36,7.0047,2.0852,2.7195,0.2350,-0.2387,-0.7532,rough,14.0,3,0.956
1990,63.68,7.2367,1.8344,2.7948,0.2693,-0.2085,-0.8941,rough,14.0,0,9.165
2000,64.00,7.3727,1.5830,2.8349,0.2985,-0.1011,-1.2252,rough,14.0,0,9.391
2010,64.32,7.3606,1.2969,2.8286,0.3249,0.0252,-1.6242,rough,14.0,0,9.502
2020,64.64,7.2518,1.0063,2.7890,0.2898,0.1314,-1.9448,rough,14.0,0,9.537
2030,64.96,7.0838,0.7147,2.7313,0.2578,0.1875,-2.1620,rough,14.0,0,9.530
2040,65.28,6.8565,0.4308,2.6553,0.2191,0.2284,-2.3515,rough,14.0,0,9.481
2050,65.60,6.5835,0.1778,2.5658,0.1751,0.2644,-2.5408,rough,14.0,0,9.391
2060,65.92,6.2599,-0.0314,2.4599,0.1264,0.2928,-2.7263,rough,14.0,0,9.248
2070,66.24,5.8957,-0.1820,2.3397,0.0747,0.3133,-2.9079,rough,14.0,0,9.051
2080,66.56,5.5023,-0.2627,2.2053,0.0289,0.3205,-3.0572,rough,14.0,0,8.799
2090,66.88,5.0788,-0.2882,2.0572,0.0231,0.3547,-3.0824,rough,14.0,0,8.499
2100,67.20,4.6547,-0.3070,1.9000,0.0264,0.3711,-3.0871,rough,14.0,0,8.205
2110,67.52,4.2334,-0.3287,1.7320,0.0360,0.3958,-3.0781,rough,14.0,0,7.927
2120,67.84,3.8169,-0.3495,1.5482,0.0695,0.4125,-3.0714,rough,14.0,0,7.665
2130,68.16,3.4014,-0.3779,1.3614,0.0620,0.4437,-3.0529,rough,14.0,0,7.423
2140,68.48,2.9878,-0.4130,1.1604,0.0925,0.4528,-3.0136,rough,14.0,0,7.203
2150,68.80,2.5848,-0.4547,0.9630,0.0933,0.4493,-3.0181,rough,14.0,0,7.013
2160,69.12,2.1799,-0.5044,0.7708,0.1024,0.4178,-2.9839,rough,14.0,0,6.848
2170,69.44,1.7855,-0.5392,0.6030,0.1037,0.3869,-3.0246,rough,14.0,0,6.694
2180,69.76,1.3938,-0.5646,0.4615,0.0752,0.3242,-3.0857,rough,14.0,0,6.554
2190,70.08,1.0006,-0.5746,0.3527,0.0583,0.2198,-3.1330,rough,14.0,0,6.419
2200,70.40,0.6142,-0.5620,0.2773,0.0303,0.1444,3.0549,rough,14.0,0,6.286
2210,70.72,0.2492,-0.5112,0.2311,0.0120,0.0814,2.8896,rough,14.0,0,6.142
2220,71.04,-0.1233,-0.4070,0.2110,0.0022,0.0359,2.7376,rough,14.0,0,5.964
2230,71.36,-0.4711,-0.2381,0.2076,0.0095,-0.0032,2.6078,rough,14.0,0,5.745
2240,71.68,-0.7957,-0.0267,0.2110,0.0098,-0.0148,2.4600,rough,14.0,0,5.503
2250,72.00,-1.0993,0.2441,0.2171,0.0085,-0.0121,2.3304,rough,14.0,0,5.219
2260,72.32,-1.3669,0.5543,0.2203,0.0161,-0.0087,2.2119,rough,14.0,0,4.912
2270,72.64,-1.6028,0.9018,0.2265,0.0058,-0.0051,2.1166,rough,14.0,0,4.580
2280,72.96,-1.8051,1.2759,0.2277,0.0014,0.0032,2.0345,rough,14.0,0,4.233
2290,73.28,-1.9777,1.6653,0.2252,-0.0005,0.0105,1.9512,rough,14.0,0,3.880
2300,73.60,-2.1201,2.0641,0.2193,-0.0042,0.0190,1.8505,rough,14.0,0,3.526
2310,73.92,-2.2240,2.4764,0.2098,-0.0047,0.0215,1.7252,rough,14.0,0,3.164
2320,74.24,-2.2822,2.8985,0.1994,-0.0076,0.0278,1.5926,rough,14.0,0,2.791
2330,74.56,-2.2821,3.3183,0.1872,-0.0064,0.0289,1.5057,rough,14.0,0,2.411
2340,74.88,-2.2444,3.7515,0.1730,-0.0025,0.0284,1.4444,rough,14.0,0,2.015
2350,75.20,-2.1863,4.1903,0.1584,0.0025,0.0324,1.4165,rough,14.0,0,1.622
2360,75.52,-2.1162,4.6229,0.1433,0.0059,0.0342,1.3680,rough,14.0,0,1.258
2370,75.84,-2.0265,5.0421,0.1283,0.0078,0.0348,1.2733,rough,14.0,0,0.945
2380,76.16,-1.8986,5.4416,0.1134,0.0104,0.0358,1.2015,rough,14.0,1,2.119
2390,76.48,-1.7375,5.8580,0.0982,0.0152,0.0333,1.2048,rough,14.0,1,1.674
2400,76.80,-1.5781,6.2748,0.0843,0.0188,0.0297,1.2081,rough,14.0,1,1.229
2410,77.12,-1.4208,6.6910,0.0728,0.0214,0.0239,1.2157,rough,14.0,2,0.789
2420,77.44,-1.2930,7.0078,0.0656,0.0176,0.0224,0.9854,rough,14.0,2,8.031
2430,77.76,-1.1057,7.2377,0.0592,0.0120,0.0207,0.7320,rough,14.0,2,7.976
2440,78.08,-0.8360,7.4532,0.0519,0.0101,0.0214,0.4972,rough,14.0,2,7.855
2450,78.40,-0.5188,7.6032,0.0444,0.0065,0.0173,0.2970,rough,14.0,2,7.671
2460,78.72,-0.1941,7.7020,0.0610,0.0053,-0.1315,0.0988,rough,14.0,2,7.462
2470,79.04,0.1583,7.7286,0.1212,0.0243,-0.2246,-0.0714,rough,14.0,2,7.198
2480,79.36,0.4651,7.6959,0.2123,0.0534,-0.3398,-0.1250,rough,14.0,2,6.938
2490,79.68,0.7844,7.6444,0.3287,0.0616,-0.3437,-0.1722,rough,14.0,2,6.660
2500,80.00,1.1057,7.5714,0.4459,0.0818,-0.3421,-0.2326,rough,14.0,2,6.371
2510,80.32,1.4375,7.4762,0.5686,0.1185,-0.3397,-0.3414,rough,14.0,2,6.063
2520,80.64,1.7766,7.3344,0.6953,0.1573,-0.3235,-0.4723,rough,14.0,2,5.721
2530,80.96,2.1063,7.1537,0.8211,0.1973,-0.3073,-0.6077,rough,14.0,2,5.361
2540,81.28,2.4093,6.9155,0.9392,0.2330,-0.2901,-0.7232,rough,14.0,2,4.980
2550,81.60,2.6956,6.6552,1.0524,0.2565,-0.2684,-0.8236,rough,14.0,2,4.594
2560,81.92,2.9453,6.3514,1.1553,0.2815,-0.2505,-0.9170,rough,14.0,2,4.202
2570,82.24,3.1720,6.0312,1.2502,0.2972,-0.2249,-1.0068,rough,14.0,2,3.814
2580,82.56,3.3669,5.6888,1.3345,0.2963,-0.2070,-1.0382,rough,14.0,2,3.434
2590,82.88,3.5752,5.3261,1.4249,0.2985,-0.2241,-1.0179,rough,14.0,2,3.034
2600,83.20,3.8009,4.9659,1.5221,0.2897,-0.2313,-0.9868,rough,14.0,2,2.627
2610,83.52,4.0238,4.6101,1.6130,0.2849,-0.2147,-0.9566,rough,14.0,2,2.233
2620,83.84,4.2639,4.2713,1.7172,0.2728,-0.2439,-0.9190,rough,14.0,2,1.844
2630,84.16,4.5215,3.9425,1.8214,0.2556,-0.2527,-0.8688,rough,14.0,2,1.458
2640,84.48,4.7954,3.6269,1.9306,0.2442,-0.2660,-0.8030,rough,14.0,2,1.084
2650,84.80,5.0757,3.3458,2.0381,0.2284,-0.2674,-0.7489,rough,14.0,3,3.233
2660,85.12,5.3744,3.0652,2.1501,0.2198,-0.2728,-0.7232,rough,14.0,3,2.839
2670,85.44,5.6950,2.7862,2.2654,0.2124,-0.2592,-0.6903,rough,14.0,3,2.430
2680,85.76,6.0174,2.5215,2.3807,0.2001,-0.2706,-0.6657,rough,14.0,3,2.032
2690,86.08,6.3476,2.2645,2.4959,0.1969,-0.2698,-0.6288,rough,14.0,3,1.637
2700,86.40,6.6869,2.0221,2.6091,0.1773,-0.2694,-0.5769,rough,14.0,3,1.252
2710,86.72,7.0289,1.8012,2.7243,0.1659,-0.2825,-0.5033,rough,14.0,3,0.892
2720,87.04,7.2019,1.6624,2.7804,0.2583,-0.1935,-0.8996,rough,14.0,0,9.203
2730,87.36,7.2744,1.4055,2.8008,0.3136,-0.0668,-1.3322,rough,14.0,0,9.377
2740,87.68,7.2463,1.1094,2.7881,0.3145,0.0512,-1.6991,rough,14.0,0,9.484
2750,88.00,7.1249,0.8237,2.7455,0.2848,0.1431,-1.9945,rough,14.0,0,9.512
2760,88.32,6.9602,0.5448,2.6884,0.2429,0.1959,-2.2072,rough,14.0,0,9.510
2770,88.64,6.7130,0.2838,2.6082,0.2073,0.2399,-2.4072,rough,14.0,0,9.440
2780,88.96,6.4245,0.0365,2.5138,0.1604,0.2734,-2.6000,rough,14.0,0,9.342
2790,89.28,6.0883,-0.1562,2.4034,0.1094,0.3007,-2.7869,rough,14.0,0,9.187
2800,89.60,5.7110,-0.2775,2.2747,0.0587,0.3279,-2.9368,rough,14.0,0,8.968
2810,89.92,5.2980,-0.3454,2.1361,0.0571,0.3344,-2.9793,rough,14.0,0,8.700
2820,90.24,4.8848,-0.4061,1.9876,0.0488,0.3465,-3.0116,rough,14.0,0,8.439
2830,90.56,4.4645,-0.4455,1.8250,0.0482,0.3714,-3.0305,rough,14.0,0,8.171
2840,90.88,4.0423,-0.4857,1.6506,0.0673,0.3900,-3.0068,rough,14.0,0,7.915
2850,91.20,3.6240,-0.5346,1.4680,0.0737,0.4321,-3.0011,rough,14.0,0,7.684
2860,91.52,3.2138,-0.5817,1.2726,0.0696,0.4454,-2.9976,rough,14.0,0,7.472
2870,91.84,2.8084,-0.6213,1.0794,0.1002,0.4450,-3.0015,rough,14.0,0,7.274
2880,92.16,2.3939,-0.6733,0.8839,0.1483,0.4378,-2.9308,rough,14.0,0,7.101
2890,92.48,1.9950,-0.7354,0.7066,0.1661,0.3846,-2.9019,rough,14.0,0,6.964
2900,92.80,1.6154,-0.7920,0.5561,0.1294,0.3252,-2.9787,rough,14.0,0,6.851
2910,93.12,1.2279,-0.8242,0.4305,0.1103,0.2814,-3.0684,rough,14.0,0,6.732
2920,93.44,0.8316,-0.8371,0.3345,0.0693,0.2133,3.1404,rough,14.0,0,6.613
2930,93.76,0.4299,-0.8249,0.2595,0.0560,0.1398,3.0624,rough,14.0,0,6.490
2940,94.08,0.0707,-0.7736,0.2235,0.0381,0.0596,2.8738,rough,14.0,0,6.360
2950,94.40,-0.2997,-0.6501,0.2139,0.0076,0.0068,2.7344,rough,14.0,0,6.176
2960,94.72,-0.6623,-0.4723,0.2111,0.0236,-0.0030,2.5869,rough,14.0,0,5.957
2970,95.04,-0.9882,-0.2489,0.2155,0.0162,-0.0090,2.4299,rough,14.0,0,5.715
2980,95.36,-1.2781,0.0322,0.2198,0.0155,-0.0105,2.2950,rough,14.0,0,5.431
2990,95.68,-1.5330,0.3553,0.2247,0.0109,-0.0104,2.1819,rough,14.0,0,5.119
3000,96.00,-1.7537,0.7122,0.2279,0.0038,-0.0015,2.0835,rough,14.0,0,4.785
3010,96.32,-1.9453,1.0888,0.2231,0.0301,0.0074,2.0196,rough,14.0,0,4.440
3020,96.64,-2.1150,1.4778,0.2260,-0.0018,0.0104,1.9362,rough,14.0,0,4.093
3030,96.96,-2.2494,1.8866,0.2188,-0.0055,0.0232,1.8516,rough,14.0,0,3.733
3040,97.28,-2.3595,2.3006,0.2124,-0.0076,0.0212,1.7495,rough,14.0,0,3.375
3050,97.60,-2.4282,2.7222,0.2027,-0.0090,0.0227,1.6279,rough,14.0,0,3.011
3060,97.92,-2.4422,3.1491,0.1900,-0.0019,0.0190,1.5274,rough,14.0,0,2.636
3070,98.24,-2.4207,3.5809,0.1792,-0.0065,0.0260,1.4405,rough,14.0,0,2.254
3080,98.56,-2.3542,4.0113,0.1651,-0.0025,0.0353,1.3810,rough,14.0,0,1.867
3090,98.88,-2.2681,4.4407,0.1510,0.0034,0.0350,1.3328,rough,14.0,0,1.493
3100,99.20,-2.1629,4.8588,0.1364,0.0059,0.0331,1.2507,rough,14.0,0,1.154
3110,99.52,-2.0255,5.2556,0.1215,0.0052,0.0366,1.0999,rough,14.0,0,0.871
3120,99.84,-1.8331,5.6220,0.1067,0.0089,0.0380,1.0488,rough,14.0,1,1.928
3130,100.16,-1.6188,6.0087,0.0913,0.0110,0.0333,1.0720,rough,14.0,1,1.487
3140,100.48,-1.4162,6.3988,0.0776,0.0156,0.0296,1.1044,rough,14.0,1,1.049
3150,100.80,-1.2494,6.7644,0.0673,0.0168,0.0260,1.0565,rough,14.0,2,7.882
3160,101.12,-1.0778,7.0461,0.0596,0.0125,0.0229,0.8319,rough,14.0,2,7.859
3170,101.44,-0.8386,7.2651,0.0525,0.0074,0.0207,0.5938,rough,14.0,2,7.759
3180,101.76,-0.5316,7.4543,0.0457,0.0048,0.0169,0.3546,rough,14.0,2,7.599
3190,102.08,-0.2294,7.5685,0.0595,-0.0163,-0.0899,0.2240,rough,14.0,2,7.413
3200,102.40,0.0694,7.6419,0.0972,-0.0221,-0.1698,0.1261,rough,14.0,2,7.215
3210,102.72,0.3509,7.6749,0.1721,0.0059,-0.3516,-0.0148,rough,14.0,2,7.013
3220,103.04,0.6261,7.6666,0.2712,0.0197,-0.3451,-0.0424,rough,14.0,2,6.795
3230,103.36,0.8907,7.6488,0.3674,0.0258,-0.3494,-0.0667,rough,14.0,2,6.583
3240,103.68,1.1530,7.6205,0.4634,0.0402,-0.3498,-0.1097,rough,14.0,2,6.369
3250,104.00,1.4158,7.5747,0.5602,0.0632,-0.3510,-0.1751,rough,14.0,2,6.147
3260,104.32,1.6869,7.5040,0.6614,0.0957,-0.3470,-0.2716,rough,14.0,2,5.905
3270,104.64,1.9912,7.4044,0.7756,0.1696,-0.3258,-0.4807,rough,14.0,2,5.623
3280,104.96,2.2916,7.2340,0.8911,0.2282,-0.2975,-0.6843,rough,14.0,2,5.294
3290,105.28,2.5617,6.9898,0.9968,0.2681,-0.2556,-0.8537,rough,14.0,2,4.932
3300,105.60,2.7923,6.6984,1.0893,0.3018,-0.2230,-0.9951,rough,14.0,2,4.561
3310,105.92,2.9712,6.3500,1.1649,0.3277,-0.1796,-1.1370,rough,14.0,2,4.183
3320,106.24,3.1079,5.9886,1.2262,0.3307,-0.1648,-1.2148,rough,14.0,2,3.828
3330,106.56,3.2600,5.5944,1.2958,0.3236,-0.1839,-1.1412,rough,14.0,2,3.447
3340,106.88,3.4373,5.2114,1.3750,0.3129,-0.2024,-1.0972,rough,14.0,2,3.064
3350,107.20,3.6351,4.8377,1.4621,0.2997,-0.2156,-1.0431,rough,14.0,2,2.681
3360,107.52,3.8492,4.4789,1.5541,0.2866,-0.2305,-0.9833,rough,14.0,2,2.306
3370,107.84,4.0883,4.1357,1.6539,0.2718,-0.2441,-0.9209,rough,14.0,2,1.932
3380,108.16,4.3401,3.8146,1.7564,0.2534,-0.2593,-0.8454,rough,14.0,2,1.576
3390,108.48,4.6087,3.5183,1.8612,0.2357,-0.2740,-0.7665,rough,14.0,2,1.239
3400,108.80,4.9010,3.2561,1.9753,0.2003,-0.2933,-0.6487,rough,14.0,2,0.927
3410,109.12,5.2040,3.0313,2.0882,0.1828,-0.2975,-0.6006,rough,14.0,3,2.978
3420,109.44,5.5542,2.7930,2.2173,0.1829,-0.2934,-0.5847,rough,14.0,3,2.562
3430,109.76,5.9086,2.5631,2.3373,0.1596,-0.2736,-0.5640,rough,14.0,3,2.148
3440,110.08,6.2593,2.3368,2.4656,0.1742,-0.2878,-0.5476,rough,14.0,3,1.743
3450,110.40,6.6184,2.1203,2.5873,0.1667,-0.2809,-0.5181,rough,14.0,3,1.339
3460,110.72,6.9749,1.9169,2.7063,0.1649,-0.2910,-0.4857,rough,14.0,3,0.952
3470,111.04,7.2249,1.7960,2.7883,0.2291,-0.2354,-0.7230,rough,14.0,0,9.170
3480,111.36,7.2917,1.6072,2.8048,0.2818,-0.0921,-1.2542,rough,14.0,0,9.307
3490,111.68,7.2605,1.3184,2.7955,0.3190,0.0456,-1.6700,rough,14.0,0,9.403
3500,112.00,7.1415,1.0324,2.7526,0.2876,0.1378,-1.9795,rough,14.0,0,9.427
3510,112.32,6.9704,0.7420,2.6943,0.2536,0.1939,-2.1893,rough,14.0,0,9.418
3520,112.64,6.7319,0.4646,2.6148,0.2134,0.2345,-2.3782,rough,14.0,0,9.358
3530,112.96,6.4508,0.2188,2.5227,0.1684,0.2697,-2.5687,rough,14.0,0,9.259
3540,113.28,6.1205,0.0160,2.4139,0.1190,0.2971,-2.7529,rough,14.0,0,9.108
3550,113.60,5.7477,-0.1198,2.2874,0.0611,0.3190,-2.9067,rough,14.0,0,8.897
3560,113.92,5.3369,-0.1962,2.1496,0.0646,0.3318,-2.9588,rough,14.0,0,8.631
3570,114.24,4.9212,-0.2668,2.0003,0.0562,0.3455,-2.9871,rough,14.0,0,8.369
3580,114.56,4.5049,-0.3153,1.8398,0.0477,0.3703,-3.0258,rough,14.0,0,8.105
3590,114.88,4.0810,-0.3564,1.6694,0.0664,0.4111,-3.0076,rough,14.0,0,7.844
3600,115.20,3.6672,-0.4030,1.4863,0.0771,0.4319,-3.0068,rough,14.0,0,7.609
3610,115.52,3.2498,-0.4596,1.2866,0.0924,0.4371,-2.9529,rough,14.0,0,7.395
3620,115.84,2.8394,-0.5188,1.0899,0.1395,0.4390,-2.9055,rough,14.0,0,7.206
3630,116.16,2.4535,-0.5799,0.9063,0.1265,0.4424,-2.9589,rough,14.0,0,7.051
3640,116.48,2.0665,-0.6301,0.7285,0.1149,0.3923,-3.0021,rough,14.0,0,6.904
3650,116.80,1.6730,-0.6598,0.5674,0.0890,0.3530,-3.0548,rough,14.0,0,6.754
3660,117.12,1.2706,-0.6777,0.4278,0.1007,0.3073,-3.0895,rough,14.0,0,6.611
3670,117.44,0.8607,-0.6942,0.3283,0.0622,0.2195,-3.1209,rough,14.0,0,6.486
3680,117.76,0.4718,-0.6924,0.2613,0.0193,0.1339,3.0550,rough,14.0,0,6.373
3690,118.08,0.1026,-0.6414,0.2256,0.0086,0.0476,2.9072,rough,14.0,0,6.237
3700,118.40,-0.2754,-0.5279,0.2118,0.0071,0.0067,2.7641,rough,14.0,0,6.058
3710,118.72,-0.6391,-0.3709,0.2107,0.0158,-0.0060,2.6115,rough,14.0,0,5.858
3720,119.04,-0.9628,-0.1606,0.2145,0.0148,-0.0113,2.4459,rough,14.0,0,5.627
3730,119.36,-1.2569,0.1148,0.2197,0.0128,-0.0105,2.3089,rough,14.0,0,5.348
3740,119.68,-1.5157,0.4339,0.2243,0.0104,-0.0109,2.1941,rough,14.0,0,5.040
3750,120.00,-1.7407,0.7835,0.2278,0.0042,-0.0017,2.0944,rough,14.0,0,4.713
3760,120.32,-1.9311,1.1607,0.2256,0.0151,0.0059,2.0043,rough,14.0,0,4.367
3770,120.64,-2.0916,1.5517,0.2256,-0.0011,0.0101,1.9166,rough,14.0,0,4.016
3780,120.96,-2.2149,1.9595,0.2194,-0.0067,0.0165,1.8236,rough,14.0,0,3.653
3790,121.28,-2.3116,2.3730,0.2115,-0.0081,0.0220,1.6885,rough,14.0,0,3.290
3800,121.60,-2.3476,2.7931,0.1999,-0.0112,0.0330,1.5777,rough,14.0,0,2.914
3810,121.92,-2.3424,3.2230,0.1897,-0.0083,0.0274,1.4879,rough,14.0,0,2.523
3820,122.24,-2.3014,3.6565,0.1756,-0.0009,0.0236,1.4517,rough,14.0,0,2.126
3830,122.56,-2.2458,4.0955,0.1621,0.0026,0.0332,1.4228,rough,14.0,0,1.734
3840,122.88,-2.1786,4.5291,0.1473,0.0047,0.0340,1.3783,rough,14.0,0,1.367
3850,123.20,-2.0928,4.9513,0.1323,0.0077,0.0333,1.2949,rough,14.0,0,1.047
3860,123.52,-1.9746,5.3527,0.1175,0.0072,0.0365,1.1280,rough,14.0,0,0.802
3870,123.84,-1.7993,5.7449,0.1027,0.0134,0.0363,1.1415,rough,14.0,1,1.803
3880,124.16,-1.6165,6.1503,0.0879,0.0150,0.0321,1.1507,rough,14.0,1,1.358
3890,124.48,-1.4383,6.5559,0.0752,0.0188,0.0252,1.1671,rough,14.0,1,0.915
3900,124.80,-1.2953,6.9077,0.0666,0.0168,0.0227,1.0246,rough,14.0,2,7.987
3910,125.12,-1.1178,7.1474,0.0599,0.0127,0.0232,0.7713,rough,14.0,2,7.943
3920,125.44,-0.8599,7.3615,0.0528,0.0087,0.0209,0.5362,rough,14.0,2,7.827
3930,125.76,-0.5414,7.5362,0.0449,0.0093,0.0196,0.3129,rough,14.0,2,7.652
3940,126.08,-0.2206,7.6407,0.0604,-0.0099,-0.1051,0.1526,rough,14.0,2,7.448
3950,126.40,0.1301,7.6872,0.1135,0.0133,-0.1957,-0.0304,rough,14.0,2,7.194
3960,126.72,0.4331,7.6694,0.2026,0.0321,-0.3432,-0.0837,rough,14.0,2,6.946
3970,127.04,0.7407,7.6381,0.3130,0.0391,-0.3458,-0.1079,rough,14.0,2,6.689
3980,127.36,1.0507,7.5917,0.4257,0.0550,-0.3460,-0.1541,rough,14.0,2,6.426
3990,127.68,1.3607,7.5264,0.5399,0.0772,-0.3490,-0.2180,rough,14.0,2,6.153
4000,128.00,1.6946,7.4287,0.6635,0.1177,-0.3340,-0.3422,rough,14.0,2,5.846
4010,128.32,2.0514,7.3148,0.7993,0.1202,-0.3425,-0.3543,rough,14.0,2,5.516
4020,128.64,2.4082,7.1707,0.9360,0.1438,-0.3386,-0.4308,rough,14.0,2,5.169
4030,128.96,2.7475,6.9961,1.0683,0.1626,-0.3346,-0.4879,rough,14.0,2,4.816
4040,129.28,3.0918,6.8044,1.2047,0.1912,-0.3243,-0.5771,rough,14.0,2,4.451
4050,129.60,3.4135,6.5759,1.3329,0.2102,-0.3096,-0.6454,rough,14.0,2,4.074
4060,129.92,3.7281,6.3265,1.4614,0.2308,-0.2995,-0.7163,rough,14.0,2,3.688
4070,130.24,4.0254,6.0514,1.5836,0.2488,-0.2847,-0.7811,rough,14.0,2,3.294
4080,130.56,4.3091,5.7584,1.7011,0.2653,-0.2695,-0.8425,rough,14.0,2,2.895
4090,130.88,4.5701,5.4426,1.8099,0.2804,-0.2516,-0.9042,rough,14.0,2,2.490
4100,131.20,4.8118,5.1175,1.9072,0.2846,-0.2230,-0.9245,rough,14.0,2,2.087
4110,131.52,5.0557,4.7787,2.0102,0.2955,-0.2379,-0.9603,rough,14.0,2,1.673
4120,131.84,5.2776,4.4309,2.1127,0.3268,-0.2590,-1.0081,rough,14.0,2,1.263
4130,132.16,5.4204,4.0656,2.1571,0.3239,-0.1838,-1.1141,rough,14.0,2,0.873
4140,132.48,5.6164,3.6874,2.2340,0.3030,-0.1908,-1.0504,rough,14.0,3,2.972
4150,132.80,5.8288,3.3209,2.3121,0.2894,-0.1989,-1.0092,rough,14.0,3,2.580
4160,133.12,6.0614,2.9602,2.3963,0.2795,-0.1938,-0.9586,rough,14.0,3,2.186
4170,133.44,6.3064,2.6170,2.4833,0.2678,-0.2073,-0.9090,rough,14.0,3,1.805
4180,133.76,6.5664,2.2856,2.5713,0.2501,-0.2219,-0.8453,rough,14.0,3,1.435
4190,134.08,6.8363,1.9868,2.6609,0.2318,-0.2339,-0.7597,rough,14.0,3,1.099
4200,134.40,7.1316,1.7167,2.7552,0.1878,-0.2598,-0.6275,rough,14.0,0,0.794
4210,134.72,7.2750,1.5559,2.8035,0.2844,-0.1555,-1.0352,rough,14.0,0,9.314
4220,135.04,7.3183,1.2867,2.8138,0.3167,-0.0407,-1.4147,rough,14.0,0,9.469
4230,135.36,7.2576,0.9835,2.7906,0.3070,0.0828,-1.7901,rough,14.0,0,9.553
4240,135.68,7.1241,0.6938,2.7441,0.2765,0.1558,-2.0473,rough,14.0,0,9.576
4250,136.00,6.9404,0.4103,2.6824,0.2389,0.2069,-2.2576,rough,14.0,0,9.564
4260,136.32,6.6979,0.1396,2.6028,0.1980,0.2468,-2.4470,rough,14.0,0,9.507
4270,136.64,6.3992,-0.0844,2.5054,0.1502,0.2790,-2.6379,rough,14.0,0,9.392
4280,136.96,6.0546,-0.2626,2.3923,0.0994,0.3042,-2.8214,rough,14.0,0,9.226
4290,137.28,5.6701,-0.3718,2.2624,0.0485,0.3239,-2.9687,rough,14.0,0,8.998
4300,137.60,5.2537,-0.4302,2.1206,0.0528,0.3457,-3.0108,rough,14.0,0,8.724
4310,137.92,4.8365,-0.4777,1.9704,0.0493,0.3529,-3.0254,rough,14.0,0,8.455
4320,138.24,4.4128,-0.5160,1.8058,0.0506,0.3696,-3.0241,rough,14.0,0,8.187
4330,138.56,3.9898,-0.5552,1.6301,0.0601,0.4010,-3.0197,rough,14.0,0,7.933
4340,138.88,3.5723,-0.5953,1.4473,0.0832,0.4366,-2.9986,rough,14.0,0,7.699
4350,139.20,3.1632,-0.6401,1.2508,0.0769,0.4438,-2.9981,rough,14.0,0,7.490
4360,139.52,2.7507,-0.6820,1.0561,0.1210,0.4452,-2.9682,rough,14.0,0,7.294
4370,139.84,2.3395,-0.7392,0.8622,0.1694,0.4395,-2.9033,rough,14.0,0,7.131
4380,140.16,1.9618,-0.7939,0.6966,0.1445,0.3921,-2.9640,rough,14.0,0,7.001
4390,140.48,1.5811,-0.8343,0.5466,0.1169,0.3228,-3.0288,rough,14.0,0,6.876
4400,140.80,1.1888,-0.8582,0.4222,0.1069,0.2727,-3.0810,rough,14.0,0,6.750
4410,141.12,0.8081,-0.8604,0.3309,0.0611,0.2184,3.1074,rough,14.0,0,6.628
4420,141.44,0.4522,-0.8204,0.2680,0.0133,0.1519,2.9064,rough,14.0,0,6.492
4430,141.76,0.0767,-0.7195,0.2263,0.0095,0.0616,2.7984,rough,14.0,0,6.308
4440,142.08,-0.2851,-0.5594,0.2076,0.0299,0.0080,2.6518,rough,14.0,0,6.088
4450,142.40,-0.6209,-0.3586,0.2103,0.0160,-0.0039,2.5094,rough,14.0,0,5.848
4460,142.72,-0.9303,-0.1055,0.2135,0.0156,-0.0116,2.3696,rough,14.0,0,5.574
4470,143.04,-1.2092,0.1976,0.2174,0.0169,-0.0057,2.2534,rough,14.0,0,5.265
4480,143.36,-1.4551,0.5310,0.2235,0.0104,-0.0106,2.1524,rough,14.0,0,4.939
4490,143.68,-1.6716,0.8927,0.2244,0.0145,0.0076,2.0672,rough,14.0,0,4.596
4500,144.00,-1.8587,1.2738,0.2277,0.0014,0.0041,1.9801,rough,14.0,0,4.243
4510,144.32,-2.0133,1.6766,0.2249,-0.0005,0.0108,1.9170,rough,14.0,0,3.877
4520,144.64,-2.1401,2.0876,0.2187,-0.0044,0.0186,1.8241,rough,14.0,0,3.509
4530,144.96,-2.2318,2.5047,0.2093,-0.0042,0.0246,1.7247,rough,14.0,0,3.139
4540,145.28,-2.2914,2.9266,0.1986,-0.0075,0.0285,1.5863,rough,14.0,0,2.769
4550,145.60,-2.2873,3.3513,0.1856,-0.0031,0.0305,1.5029,rough,14.0,0,2.384
4560,145.92,-2.2508,3.7864,0.1723,-0.0026,0.0304,1.4484,rough,14.0,0,1.989
4570,146.24,-2.1946,4.2246,0.1573,0.0021,0.0305,1.4193,rough,14.0,0,1.601
4580,146.56,-2.1252,4.6574,0.1423,0.0077,0.0352,1.3690,rough,14.0,0,1.242
4590,146.88,-2.0362,5.0759,0.1274,0.0081,0.0345,1.2689,rough,14.0,0,0.940
4600,147.20,-1.9104,5.4686,0.1128,-0.0012,0.0211,1.1710,rough,14.0,1,2.100
4610,147.52,-1.7347,5.8813,0.0975,0.0144,0.0334,1.1766,rough,14.0,1,1.652
4620,147.84,-1.5647,6.2928,0.0836,0.0185,0.0302,1.1829,rough,14.0,1,1.207
4630,148.16,-1.3988,6.7043,0.0720,0.0211,0.0241,1.1963,rough,14.0,2,0.766
4640,148.48,-1.2674,7.0103,0.0648,0.0166,0.0225,0.9557,rough,14.0,2,8.009
4650,148.80,-1.0726,7.2401,0.0584,0.0110,0.0208,0.7048,rough,14.0,2,7.949
4660,149.12,-0.7949,7.4600,0.0509,0.0101,0.0213,0.4652,rough,14.0,2,7.824
4670,149.44,-0.4604,7.6047,0.0442,0.0070,0.0177,0.2465,rough,14.0,2,7.624
4680,149.76,-0.1375,7.6885,0.0646,0.0052,-0.1680,0.0451,rough,14.0,2,7.409
4690,150.08,0.2061,7.6916,0.1346,0.0220,-0.2608,-0.0735,rough,14.0,2,7.137
4700,150.40,0.5107,7.6621,0.2296,0.0423,-0.3433,-0.1090,rough,14.0,2,6.881
4710,150.72,0.8222,7.6199,0.3424,0.0511,-0.3462,-0.1430,rough,14.0,2,6.616
4720,151.04,1.1360,7.5596,0.4570,0.0691,-0.3454,-0.1947,rough,14.0,2,6.341
4730,151.36,1.4586,7.4794,0.5764,0.1007,-0.3445,-0.2887,rough,14.0,2,6.050
4740,151.68,1.7904,7.3562,0.7003,0.1358,-0.3325,-0.4037,rough,14.0,2,5.727
4750,152.00,2.1263,7.1996,0.8282,0.1836,-0.3144,-0.5587,rough,14.0,2,5.381
4760,152.32,2.4293,6.9783,0.9459,0.2206,-0.2979,-0.6782,rough,14.0,2,5.012
4770,152.64,2.7219,6.7313,1.0617,0.2514,-0.2769,-0.7928,rough,14.0,2,4.632
4780,152.96,2.9773,6.4394,1.1658,0.2770,-0.2538,-0.8965,rough,14.0,2,4.245
4790,153.28,3.2094,6.1221,1.2612,0.2961,-0.2189,-0.9932,rough,14.0,2,3.854
4800,153.60,3.4092,5.7825,1.3485,0.3176,-0.2047,-1.0847,rough,14.0,2,3.470
4810,153.92,3.6046,5.4130,1.4335,0.3007,-0.2173,-1.0404,rough,14.0,2,3.071
4820,154.24,3.8262,5.0423,1.5256,0.2745,-0.2190,-1.0298,rough,14.0,2,2.657
4830,154.56,4.0344,4.6755,1.6204,0.3009,-0.2477,-0.9933,rough,14.0,2,2.264
4840,154.88,4.2625,4.3253,1.7152,0.2790,-0.2369,-0.9469,rough,14.0,2,1.874
4850,155.20,4.5144,3.9873,1.8184,0.2669,-0.2458,-0.8978,rough,14.0,2,1.485
4860,155.52,4.7784,3.6707,1.9235,0.2502,-0.2581,-0.8312,rough,14.0,2,1.115
4870,155.84,5.0548,3.3821,2.0303,0.2248,-0.2734,-0.7365,rough,14.0,3,0.778
4880,156.16,5.3375,3.0982,2.1363,0.2259,-0.2687,-0.7468,rough,14.0,3,2.886
4890,156.48,5.6510,2.8132,2.2515,0.2191,-0.2670,-0.7147,rough,14.0,3,2.481
4900,156.80,5.9694,2.5410,2.3637,0.2036,-0.2689,-0.6848,rough,14.0,3,2.084
4910,157.12,6.2924,2.2793,2.4743,0.1889,-0.2660,-0.6461,rough,14.0,3,1.694
4920,157.44,6.6253,2.0320,2.5886,0.1856,-0.2668,-0.5882,rough,14.0,3,1.314
4930,157.76,6.9600,1.8126,2.7010,0.1703,-0.2799,-0.5219,rough,14.0,3,0.960
4940,158.08,7.2249,1.6350,2.7864,0.1947,-0.2515,-0.6412,rough,14.0,0,9.235
4950,158.40,7.2915,1.4392,2.8059,0.3039,-0.0947,-1.2050,rough,14.0,0,9.378
4960,158.72,7.3231,1.1362,2.8137,0.3199,-0.0043,-1.5246,rough,14.0,0,9.540
4970,159.04,7.2356,0.8446,2.7819,0.2994,0.1090,-1.8767,rough,14.0,0,9.599
4980,159.36,7.0874,0.5593,2.7310,0.2651,0.1719,-2.1142,rough,14.0,0,9.612
4990,159.68,6.8741,0.2863,2.6605,0.2261,0.2219,-2.3228,rough,14.0,0,9.574
5000,160.00,6.6121,0.0206,2.5746,0.1808,0.2584,-2.5169,rough,14.0,0,9.504
5010,160.32,6.2950,-0.1850,2.4715,0.1356,0.2886,-2.6963,rough,14.0,0,9.368
5020,160.64,5.9375,-0.3428,2.3537,0.0834,0.3085,-2.8753,rough,14.0,0,9.185
5030,160.96,5.5342,-0.4319,2.2177,0.0584,0.3251,-2.9639,rough,14.0,0,8.934
5040,161.28,5.1172,-0.4893,2.0714,0.0459,0.3459,-2.9973,rough,14.0,0,8.665
5050,161.60,4.7012,-0.5357,1.9179,0.0357,0.3666,-3.0415,rough,14.0,0,8.400
5060,161.92,4.2817,-0.5690,1.7503,0.0213,0.3827,-3.0581,rough,14.0,0,8.137
5070,162.24,3.8609,-0.5924,1.5759,0.0503,0.4064,-3.0547,rough,14.0,0,7.879
5080,162.56,3.4430,-0.6182,1.3859,0.0597,0.4354,-3.0581,rough,14.0,0,7.638
5090,162.88,3.0267,-0.6486,1.1897,0.1025,0.4649,-3.0161,rough,14.0,0,7.419
5100,163.20,2.6170,-0.6938,0.9925,0.1304,0.4357,-2.9690,rough,14.0,0,7.233
5110,163.52,2.2139,-0.7400,0.8038,0.1345,0.4181,-2.9677,rough,14.0,0,7.070
5120,163.84,1.8147,-0.7871,0.6329,0.1328,0.3773,-2.9722,rough,14.0,0,6.930
5130,164.16,1.4341,-0.8258,0.4957,0.1099,0.3204,-3.0522,rough,14.0,0,6.810
5140,164.48,1.0538,-0.8380,0.3833,0.0776,0.2298,-3.1307,rough,14.0,0,6.685
5150,164.80,0.6679,-0.8220,0.3012,0.0413,0.1870,3.0419,rough,14.0,0,6.551
5160,165.12,0.3406,-0.7621,0.2509,0.0015,0.1195,2.8096,rough,14.0,0,6.408
5170,165.44,-0.0203,-0.6272,0.2189,0.0033,0.0503,2.6847,rough,14.0,0,6.199
5180,165.76,-0.3392,-0.4442,0.2104,0.0033,0.0018,2.5318,rough,14.0,0,5.966
5190,166.08,-0.6455,-0.2017,0.2085,0.0182,-0.0036,2.3629,rough,14.0,0,5.689
5200,166.40,-0.9155,0.0938,0.2131,0.0140,-0.0099,2.2018,rough,14.0,0,5.375
5210,166.72,-1.1520,0.4107,0.2173,0.0105,-0.0147,2.1479,rough,14.0,0,5.052
5220,167.04,-1.3724,0.7777,0.2224,0.0150,-0.0060,2.0681,rough,14.0,0,4.689
5230,167.36,-1.5657,1.1631,0.2268,0.0055,-0.0020,1.9992,rough,14.0,0,4.317
5240,167.68,-1.7307,1.5585,0.2266,0.0008,0.0055,1.9411,rough,14.0,0,3.943
5250,168.00,-1.8747,1.9697,0.2222,-0.0010,0.0152,1.8922,rough,14.0,0,3.561
5260,168.32,-2.0008,2.3809,0.2127,-0.0120,0.0242,1.8034,rough,14.0,0,3.189
5270,168.64,-2.0912,2.8005,0.2032,-0.0035,0.0277,1.6996,rough,14.0,0,2.814
5280,168.96,-2.1381,3.2312,0.1865,-0.0033,0.0558,1.5952,rough,14.0,0,2.429
5290,169.28,-2.1406,3.6573,0.1764,-0.0028,0.0326,1.4949,rough,14.0,0,2.045
5300,169.60,-2.1008,4.0955,0.1613,0.0012,0.0343,1.4531,rough,14.0,0,1.648
5310,169.92,-2.0463,4.5324,0.1455,0.0063,0.0355,1.4163,rough,14.0,0,1.271
5320,170.24,-1.9766,4.9601,0.1299,0.0099,0.0359,1.3452,rough,14.0,0,0.942
5330,170.56,-1.8789,5.3704,0.1150,0.0073,0.0295,1.2860,rough,14.0,1,2.176
5340,170.88,-1.7513,5.7984,0.1001,0.0170,0.0322,1.2833,rough,14.0,1,1.734
5350,171.20,-1.6235,6.2256,0.0865,0.0200,0.0283,1.2780,rough,14.0,1,1.294
5360,171.52,-1.4937,6.6507,0.0753,0.0224,0.0234,1.2701,rough,14.0,1,0.862
5370,171.84,-1.3821,6.9789,0.0671,0.0187,0.0183,1.0042,rough,14.0,2,8.097
5380,172.16,-1.1998,7.2152,0.0616,0.0137,0.0230,0.7431,rough,14.0,2,8.047
5390,172.48,-0.9324,7.4392,0.0544,0.0104,0.0212,0.5088,rough,14.0,2,7.930
5400,172.80,-0.5967,7.5952,0.0468,0.0087,0.0175,0.3427,rough,14.0,2,7.731
5410,173.12,-0.2744,7.7022,0.0559,-0.0140,-0.0587,0.1103,rough,14.0,2,7.528
5420,173.44,0.0619,7.7228,0.0973,0.0171,-0.1680,-0.0748,rough,14.0,2,7.270
5430,173.76,0.3628,7.6821,0.1776,0.0529,-0.3400,-0.1571,rough,14.0,2,7.008
5440,174.08,0.6633,7.6221,0.2849,0.0718,-0.3394,-0.2032,rough,14.0,2,6.738
5450,174.40,0.9718,7.5372,0.3969,0.1023,-0.3364,-0.2961,rough,14.0,2,6.448
5460,174.72,1.3114,7.4135,0.5202,0.1615,-0.3079,-0.4840,rough,14.0,2,6.113
5470,175.04,1.6321,7.2341,0.6416,0.2071,-0.2929,-0.6442,rough,14.0,2,5.756
5480,175.36,1.9124,6.9843,0.7492,0.2425,-0.2726,-0.7715,rough,14.0,2,5.380
5490,175.68,2.1760,6.7059,0.8530,0.2687,-0.2486,-0.8903,rough,14.0,2,4.997
5500,176.00,2.3948,6.3798,0.9427,0.2998,-0.2225,-1.0098,rough,14.0,2,4.616
5510,176.32,2.5908,6.0380,1.0249,0.2965,-0.2203,-1.0058,rough,14.0,2,4.243
5520,176.64,2.8219,5.6850,1.1243,0.2862,-0.2339,-0.9804,rough,14.0,2,3.841
5530,176.96,3.0616,5.3358,1.2271,0.2780,-0.2449,-0.9495,rough,14.0,2,3.438
5540,177.28,3.3066,4.9955,1.3305,0.2641,-0.2521,-0.9150,rough,14.0,2,3.041
5550,177.60,3.5664,4.6638,1.4408,0.2595,-0.2611,-0.8782,rough,14.0,2,2.644
5560,177.92,3.8334,4.3448,1.5518,0.2499,-0.2684,-0.8360,rough,14.0,2,2.254
5570,178.24,4.1165,4.0401,1.6670,0.2378,-0.2767,-0.7893,rough,14.0,2,1.866
5580,178.56,4.4055,3.7522,1.7812,0.2199,-0.2810,-0.7344,rough,14.0,2,1.494
5590,178.88,4.7051,3.4860,1.8993,0.2051,-0.2940,-0.6686,rough,14.0,2,1.138
5600,179.20,5.0137,3.2496,2.0169,0.1785,-0.3050,-0.5739,rough,14.0,2,0.815
5610,179.52,5.3424,3.0253,2.1388,0.1852,-0.3018,-0.5875,rough,14.0,3,2.850
5620,179.84,5.6980,2.7915,2.2686,0.1803,-0.2959,-0.5765,rough,14.0,3,2.430
5630,180.16,6.0541,2.5612,2.3945,0.1771,-0.2879,-0.5626,rough,14.0,3,2.012
5640,180.48,6.4117,2.3357,2.5169,0.1725,-0.2868,-0.5439,rough,14.0,3,1.598
5650,180.80,6.7741,2.1178,2.6415,0.1690,-0.2839,-0.5236,rough,14.0,3,1.187
5660,181.12,7.1322,1.9108,2.7601,0.1685,-0.2849,-0.4920,rough,14.0,0,0.795
5670,181.44,7.2410,1.7656,2.7955,0.2967,-0.1767,-1.0268,rough,14.0,0,9.196
5680,181.76,7.2949,1.4942,2.8092,0.3221,-0.0286,-1.4424,rough,14.0,0,9.358
5690,182.08,7.2275,1.2023,2.7830,0.3076,0.0877,-1.8063,rough,14.0,0,9.425
5700,182.40,7.0774,0.9177,2.7305,0.2704,0.1677,-2.0849,rough,14.0,0,9.425
5710,182.72,6.8914,0.6225,2.6677,0.2372,0.2108,-2.2677,rough,14.0,0,9.411
5720,183.04,6.6347,0.3675,2.5829,0.1959,0.2490,-2.4545,rough,14.0,0,9.329
5730,183.36,6.3319,0.1346,2.4838,0.1505,0.2826,-2.6424,rough,14.0,0,9.209
5740,183.68,5.9844,-0.0431,2.3690,0.0989,0.3047,-2.8236,rough,14.0,0,9.035
5750,184.00,5.5929,-0.1474,2.2361,0.0607,0.3291,-2.9395,rough,14.0,0,8.794
5760,184.32,5.1818,-0.2177,2.0947,0.0559,0.3435,-2.9885,rough,14.0,0,8.528
5770,184.64,4.7652,-0.2720,1.9385,0.0381,0.3744,-3.0332,rough,14.0,0,8.260
5780,184.96,4.3481,-0.3096,1.7787,0.0406,0.3750,-3.0507,rough,14.0,0,7.992
5790,185.28,3.9278,-0.3428,1.6012,0.0514,0.4063,-3.0487,rough,14.0,0,7.732
5800,185.60,3.5139,-0.3691,1.4127,0.0572,0.4363,-3.0582,rough,14.0,0,7.486
5810,185.92,3.1027,-0.3978,1.2180,0.0758,0.4596,-3.0394,rough,14.0,0,7.258
5820,186.24,2.6914,-0.4369,1.0153,0.1093,0.4529,-2.9874,rough,14.0,0,7.056
5830,186.56,2.2842,-0.4997,0.8185,0.1365,0.4317,-2.9261,rough,14.0,0,6.895
5840,186.88,1.9067,-0.5506,0.6530,0.1056,0.3954,-3.0136,rough,14.0,0,6.759
5850,187.20,1.5181,-0.5779,0.5048,0.0786,0.3245,-3.0753,rough,14.0,0,6.616
5860,187.52,1.1149,-0.5964,0.3826,0.0700,0.2431,-3.1027,rough,14.0,0,6.479
5870,187.84,0.7009,-0.6058,0.2934,0.0575,0.1818,-3.1305,rough,14.0,0,6.353
5880,188.16,0.3129,-0.5907,0.2415,0.0238,0.1084,3.0405,rough,14.0,0,6.235
5890,188.48,-0.0720,-0.5416,0.2155,0.0100,0.0448,2.9034,rough,14.0,0,6.106
5900,188.80,-0.4473,-0.4366,0.2088,0.0173,-0.0038,2.7646,rough,14.0,0,5.944
5910,189.12,-0.7883,-0.2729,0.2116,0.0174,-0.0079,2.5649,rough,14.0,0,5.749
5920,189.44,-1.1036,-0.0435,0.2166,0.0152,-0.0131,2.4063,rough,14.0,0,5.507
5930,189.76,-1.3888,0.2452,0.2207,0.0181,-0.0094,2.2738,rough,14.0,0,5.222
5940,190.08,-1.6383,0.5694,0.2263,0.0081,-0.0043,2.1543,rough,14.0,0,4.915
5950,190.40,-1.8495,0.9303,0.2284,0.0036,-0.0017,2.0602,rough,14.0,0,4.582
5960,190.72,-2.0290,1.3120,0.2274,-0.0006,0.0063,1.9685,rough,14.0,0,4.237
5970,191.04,-2.1775,1.7064,0.2227,-0.0015,0.0152,1.8693,rough,14.0,0,3.886
5980,191.36,-2.2851,2.1200,0.2151,-0.0067,0.0079,1.7809,rough,14.0,0,3.521
5990,191.68,-2.3576,2.5352,0.2071,-0.0091,0.0257,1.6162,rough,14.0,0,3.155
6000,192.00,-2.3670,2.9614,0.1971,-0.0089,0.0286,1.5215,rough,14.0,0,2.769
6010,192.32,-2.3380,3.3984,0.1845,-0.0058,0.0319,1.4726,rough,14.0,0,2.367
6020,192.64,-2.2902,3.8354,0.1709,-0.0027,0.0310,1.4377,rough,14.0,0,1.970
6030,192.96,-2.2289,4.2722,0.1562,0.0036,0.0330,1.4047,rough,14.0,0,1.587
6040,193.28,-2.1534,4.7025,0.1412,0.0086,0.0353,1.3478,rough,14.0,0,1.235
6050,193.60,-2.0557,5.1172,0.1265,0.0077,0.0346,1.2365,rough,14.0,0,0.942
6060,193.92,-1.9174,5.5030,0.1120,0.0011,0.0256,1.1309,rough,14.0,1,2.072
6070,194.24,-1.7277,5.9070,0.0967,0.0137,0.0339,1.1403,rough,14.0,1,1.625
6080,194.56,-1.5448,6.3120,0.0827,0.0173,0.0302,1.1513,rough,14.0,1,1.181
6090,194.88,-1.3740,6.7133,0.0713,0.0199,0.0254,1.1447,rough,14.0,2,7.972
6100,195.20,-1.2288,7.0143,0.0638,0.0153,0.0234,0.9200,rough,14.0,2,7.977
6110,195.52,-1.0190,7.2419,0.0570,0.0100,0.0209,0.6781,rough,14.0,2,7.903
6120,195.84,-0.7330,7.4570,0.0496,0.0094,0.0202,0.4376,rough,14.0,2,7.770
6130,196.16,-0.4015,7.6041,0.0475,-0.0145,0.0141,0.2354,rough,14.0,2,7.575
6140,196.48,-0.0990,7.6728,0.0679,-0.0091,-0.1793,0.0843,rough,14.0,2,7.369
6150,196.80,0.2216,7.6966,0.1382,0.0049,-0.2654,-0.0098,rough,14.0,2,7.128
6160,197.12,0.5087,7.6926,0.2294,0.0079,-0.3453,-0.0142,rough,14.0,2,6.902
6170,197.44,0.7961,7.6871,0.3333,0.0100,-0.3492,-0.0193,rough,14.0,2,6.679
6180,197.76,1.0762,7.6795,0.4353,0.0129,-0.3499,-0.0281,rough,14.0,2,6.466
6190,198.08,1.3484,7.6680,0.5355,0.0178,-0.3557,-0.0431,rough,14.0,2,6.261
6200,198.40,1.6167,7.6499,0.6353,0.0268,-0.3561,-0.0692,rough,14.0,2,6.058
6210,198.72,1.9305,7.6273,0.7532,0.0272,-0.3612,-0.0706,rough,14.0,2,5.828
6220,199.04,2.2534,7.5971,0.8758,0.0368,-0.3636,-0.0971,rough,14.0,2,5.594
6230,199.36,2.5662,7.5560,0.9957,0.0501,-0.3644,-0.1341,rough,14.0,2,5.367
6240,199.68,2.8754,7.4990,1.1156,0.0709,-0.3666,-0.1936,rough,14.0,2,5.138
6250,200.00,3.2198,7.4107,1.2469,0.1201,-0.3364,-0.3316,rough,14.0,2,4.873
6260,200.32,3.5573,7.2790,1.3838,0.1650,-0.3396,-0.4718,rough,14.0,2,4.586
6270,200.64,3.8730,7.0889,1.5102,0.1994,-0.3260,-0.5797,rough,14.0,2,4.269
6280,200.96,4.1845,6.8590,1.6360,0.2354,-0.3014,-0.6960,rough,14.0,2,3.925
6290,201.28,4.4606,6.5906,1.7491,0.2609,-0.2824,-0.7900,rough,14.0,2,3.569
6300,201.60,4.7299,6.2981,1.8602,0.2832,-0.2585,-0.8782,rough,14.0,2,3.199
6310,201.92,4.9702,5.9772,1.9593,0.3047,-0.2282,-0.9654,rough,14.0,2,2.817
6320,202.24,5.1868,5.6318,2.0499,0.3183,-0.2058,-1.0444,rough,14.0,2,2.424
6330,202.56,5.3713,5.2739,2.1257,0.3395,-0.1774,-1.1260,rough,14.0,2,2.032
6340,202.88,5.5444,4.8986,2.1974,0.3331,-0.1664,-1.1447,rough,14.0,2,1.630
6350,203.20,5.6090,4.8001,2.2228,0.3436,-0.1473,-1.2365,rough,14.0,2,1.522
6360,203.52,5.6615,4.8185,2.2416,0.3619,-0.0639,-1.3988,rough,14.0,2,1.534
6370,203.84,5.7003,4.8239,2.2575,0.3680,-0.0382,-1.4804,rough,14.0,2,1.535
6380,204.16,5.7304,4.8249,2.2702,0.3701,-0.0348,-1.5043,rough,14.0,2,1.534
6390,204.48,5.7477,4.8251,2.2770,0.3713,-0.0217,-1.5400,rough,14.0,2,1.533
6400,204.80,5.7560,4.8245,2.2802,0.3716,-0.0141,-1.5589,rough,14.0,2,1.532
6410,205.12,5.7589,4.8241,2.2813,0.3717,-0.0107,-1.5672,rough,14.0,2,1.532
6420,205.44,5.7596,4.8245,2.2816,0.3716,-0.0082,-1.5742,rough,14.0,2,1.532
6430,205.76,5.7568,4.8242,2.2804,0.3716,-0.0052,-1.5805,rough,14.0,2,1.532
6440,206.08,5.7515,4.8237,2.2785,0.3716,-0.0038,-1.5857,rough,14.0,2,1.532
6450,206.40,5.7441,4.8237,2.2756,0.3715,-0.0016,-1.5914,rough,14.0,2,1.532
6460,206.72,5.7336,4.8256,2.2715,0.3714,-0.0021,-1.5900,rough,14.0,2,1.535
6470,207.04,5.7291,4.8253,2.2697,0.3710,-0.0078,-1.5749,rough,14.0,2,1.535
6480,207.36,5.7274,4.8251,2.2691,0.3715,-0.0113,-1.5658,rough,14.0,2,1.535
6490,207.68,5.7289,4.8249,2.2697,0.3715,-0.0101,-1.5696,rough,14.0,2,1.534
6500,208.00,5.7288,4.8252,2.2697,0.3715,-0.0089,-1.5730,rough,14.0,2,1.535
6510,208.32,5.7262,4.8260,2.2686,0.3713,-0.0110,-1.5675,rough,14.0,2,1.536
6520,208.64,5.7276,4.8251,2.2692,0.3714,-0.0105,-1.5686,rough,14.0,2,1.535
6530,208.96,5.7279,4.8252,2.2693,0.3714,-0.0093,-1.5718,rough,14.0,2,1.535
6540,209.28,5.7258,4.8259,2.2685,0.3713,-0.0115,-1.5661,rough,14.0,2,1.536
6550,209.60,5.7278,4.8249,2.2693,0.3715,-0.0109,-1.5674,rough,14.0,2,1.534
6560,209.92,5.7287,4.8250,2.2696,0.3715,-0.0096,-1.5709,rough,14.0,2,1.534
6570,210.24,5.7280,4.8254,2.2694,0.3714,-0.0083,-1.5743,rough,14.0,2,1.535
6580,210.56,5.7262,4.8254,2.2685,0.3714,-0.0105,-1.5665,rough,14.0,2,1.535
6590,210.88,5.7273,4.8252,2.2690,0.3714,-0.0097,-1.5703,rough,14.0,2,1.535
6600,211.20,5.7269,4.8256,2.2689,0.3714,-0.0085,-1.5737,rough,14.0,2,1.535
6610,211.52,5.7259,4.8253,2.2683,0.3715,-0.0122,-1.5604,rough,14.0,2,1.535
6620,211.84,5.7295,4.8244,2.2699,0.3716,-0.0119,-1.5648,rough,14.0,2,1.534
6630,212.16,5.7313,4.8245,2.2706,0.3716,-0.0106,-1.5684,rough,14.0,2,1.534
6640,212.48,5.7317,4.8249,2.2708,0.3715,-0.0083,-1.5749,rough,14.0,2,1.534
6650,212.80,5.7280,4.8260,2.2694,0.3714,-0.0096,-1.5716,rough,14.0,2,1.536
6660,213.12,5.7279,4.8253,2.2693,0.3715,-0.0093,-1.5720,rough,14.0,2,1.535
6670,213.44,5.7258,4.8256,2.2685,0.3713,-0.0125,-1.5635,rough,14.0,2,1.535
6680,213.76,5.7281,4.8248,2.2694,0.3715,-0.0111,-1.5671,rough,14.0,2,1.534
6690,214.08,5.7290,4.8249,2.2698,0.3715,-0.0097,-1.5707,rough,14.0,2,1.534
6700,214.40,5.7285,4.8253,2.2695,0.3715,-0.0085,-1.5741,rough,14.0,2,1.535
6710,214.72,5.7264,4.8254,2.2687,0.3714,-0.0114,-1.5661,rough,14.0,2,1.535
6720,215.04,5.7277,4.8251,2.2692,0.3714,-0.0100,-1.5698,rough,14.0,2,1.535
6730,215.36,5.7277,4.8254,2.2692,0.3714,-0.0089,-1.5729,rough,14.0,2,1.535
6740,215.68,5.7268,4.8251,2.2688,0.3714,-0.0120,-1.5645,rough,14.0,2,1.535
6750,216.00,5.7288,4.8248,2.2696,0.3715,-0.0106,-1.5683,rough,14.0,2,1.534
6760,216.32,5.7292,4.8250,2.2698,0.3715,-0.0094,-1.5718,rough,14.0,2,1.534
6770,216.64,5.7282,4.8255,2.2694,0.3714,-0.0080,-1.5752,rough,14.0,2,1.535
6780,216.96,5.7270,4.8250,2.2690,0.3715,-0.0114,-1.5659,rough,14.0,2,1.535
6790,217.28,5.7284,4.8250,2.2695,0.3715,-0.0101,-1.5697,rough,14.0,2,1.534
6800,217.60,5.7283,4.8253,2.2695,0.3715,-0.0089,-1.5731,rough,14.0,2,1.535
6810,217.92,5.7259,4.8255,2.2684,0.3713,-0.0116,-1.5641,rough,14.0,2,1.535
6820,218.24,5.7279,4.8249,2.2693,0.3715,-0.0106,-1.5681,rough,14.0,2,1.534
6830,218.56,5.7285,4.8251,2.2695,0.3715,-0.0095,-1.5714,rough,14.0,2,1.535
6840,218.88,5.7276,4.8255,2.2692,0.3714,-0.0082,-1.5747,rough,14.0,2,1.535
6850,219.20,5.7273,4.8250,2.2691,0.3715,-0.0111,-1.5667,rough,14.0,2,1.535
6860,219.52,5.7284,4.8250,2.2695,0.3715,-0.0098,-1.5703,rough,14.0,2,1.534
6870,219.84,5.7281,4.8254,2.2694,0.3714,-0.0086,-1.5737,rough,14.0,2,1.535
6880,220.16,5.7264,4.8252,2.2687,0.3714,-0.0121,-1.5645,rough,14.0,2,1.535
6890,220.48,5.7285,4.8248,2.2695,0.3715,-0.0106,-1.5683,rough,14.0,2,1.534
6900,220.80,5.7289,4.8250,2.2697,0.3715,-0.0094,-1.5718,rough,14.0,2,1.534
6910,221.12,5.7279,4.8255,2.2693,0.3714,-0.0080,-1.5751,rough,14.0,2,1.535
6920,221.44,5.7275,4.8250,2.2691,0.3715,-0.0111,-1.5668,rough,14.0,2,1.535
6930,221.76,5.7286,4.8249,2.2696,0.3714,-0.0098,-1.5702,rough,14.0,2,1.534
6940,222.08,5.7282,4.8253,2.2694,0.3714,-0.0086,-1.5736,rough,14.0,2,1.535
6950,222.40,5.7264,4.8253,2.2687,0.3714,-0.0116,-1.5655,rough,14.0,2,1.535
6960,222.72,5.7280,4.8250,2.2693,0.3715,-0.0102,-1.5693,rough,14.0,2,1.535
6970,223.04,5.7280,4.8253,2.2694,0.3714,-0.0090,-1.5727,rough,14.0,2,1.535
6980,223.36,5.7259,4.8254,2.2685,0.3713,-0.0121,-1.5643,rough,14.0,2,1.535
6990,223.68,5.7283,4.8248,2.2695,0.3715,-0.0110,-1.5672,rough,14.0,2,1.534
7000,224.00,5.7292,4.8249,2.2698,0.3715,-0.0097,-1.5708,rough,14.0,2,1.534
7010,224.32,5.7287,4.8253,2.2696,0.3715,-0.0085,-1.5739,rough,14.0,2,1.535
7020,224.64,5.7269,4.8253,2.2689,0.3714,-0.0118,-1.5651,rough,14.0,2,1.535
7030,224.96,5.7286,4.8249,2.2696,0.3715,-0.0104,-1.5689,rough,14.0,2,1.534
7040,225.28,5.7288,4.8251,2.2697,0.3715,-0.0092,-1.5721,rough,14.0,2,1.535
7050,225.60,5.7277,4.8256,2.2692,0.3714,-0.0079,-1.5754,rough,14.0,2,1.535
7060,225.92,5.7275,4.8250,2.2691,0.3715,-0.0108,-1.5675,rough,14.0,2,1.535
7070,226.24,5.7283,4.8251,2.2695,0.3715,-0.0096,-1.5710,rough,14.0,2,1.535
7080,226.56,5.7276,4.8255,2.2692,0.3714,-0.0083,-1.5744,rough,14.0,2,1.535
7090,226.88,5.7280,4.8255,2.2692,0.3714,-0.0086,-1.5708,rough,14.0,2,1.535
7100,227.20,5.7271,4.8256,2.2690,0.3714,-0.0081,-1.5746,rough,14.0,2,1.535
7110,227.52,5.7278,4.8249,2.2693,0.3715,-0.0112,-1.5667,rough,14.0,2,1.534
7120,227.84,5.7289,4.8249,2.2697,0.3715,-0.0098,-1.5704,rough,14.0,2,1.534
7130,228.16,5.7285,4.8253,2.2695,0.3715,-0.0086,-1.5738,rough,14.0,2,1.535
7140,228.48,5.7264,4.8254,2.2686,0.3714,-0.0111,-1.5645,rough,14.0,2,1.535
7150,228.80,5.7282,4.8249,2.2694,0.3715,-0.0104,-1.5686,rough,14.0,2,1.534
7160,229.12,5.7286,4.8251,2.2696,0.3715,-0.0092,-1.5721,rough,14.0,2,1.535
7170,229.44,5.7274,4.8256,2.2691,0.3714,-0.0079,-1.5754,rough,14.0,2,1.535
7180,229.76,5.7279,4.8249,2.2693,0.3715,-0.0110,-1.5672,rough,14.0,2,1.534
7190,230.08,5.7288,4.8249,2.2697,0.3715,-0.0098,-1.5706,rough,14.0,2,1.534
7200,230.40,5.7283,4.8253,2.2695,0.3714,-0.0085,-1.5739,rough,14.0,2,1.535
7210,230.72,5.7269,4.8252,2.2689,0.3715,-0.0118,-1.5647,rough,14.0,2,1.535
7220,231.04,5.7288,4.8248,2.2697,0.3715,-0.0105,-1.5686,rough,14.0,2,1.534
7230,231.36,5.7292,4.8250,2.2698,0.3715,-0.0093,-1.5721,rough,14.0,2,1.534
7240,231.68,5.7281,4.8257,2.2692,0.3714,-0.0065,-1.5753,rough,14.0,2,1.535
7250,232.00,5.7271,4.8251,2.2690,0.3715,-0.0111,-1.5666,rough,14.0,2,1.535
7260,232.32,5.7283,4.8250,2.2694,0.3715,-0.0098,-1.5703,rough,14.0,2,1.534
7270,232.64,5.7279,4.8254,2.2693,0.3714,-0.0086,-1.5736,rough,14.0,2,1.535
7280,232.96,5.7265,4.8252,2.2688,0.3714,-0.0115,-1.5657,rough,14.0,2,1.535
7290,233.28,5.7279,4.8250,2.2693,0.3715,-0.0103,-1.5692,rough,14.0,2,1.534
7300,233.60,5.7280,4.8253,2.2694,0.3714,-0.0090,-1.5726,rough,14.0,2,1.535
7310,233.92,5.7262,4.8254,2.2686,0.3713,-0.0122,-1.5642,rough,14.0,2,1.535
7320,234.24,5.7283,4.8249,2.2695,0.3715,-0.0107,-1.5681,rough,14.0,2,1.534
7330,234.56,5.7289,4.8250,2.2697,0.3715,-0.0094,-1.5716,rough,14.0,2,1.534
7340,234.88,5.7282,4.8257,2.2689,0.3715,-0.0047,-1.5740,rough,14.0,2,1.535
7350,235.20,5.7275,4.8250,2.2691,0.3715,-0.0113,-1.5659,rough,14.0,2,1.534
7360,235.52,5.7289,4.8249,2.2697,0.3715,-0.0100,-1.5697,rough,14.0,2,1.534
7370,235.84,5.7288,4.8252,2.2697,0.3715,-0.0089,-1.5731,rough,14.0,2,1.535
7380,236.16,5.7262,4.8256,2.2686,0.3713,-0.0122,-1.5643,rough,14.0,2,1.535
7390,236.48,5.7282,4.8249,2.2694,0.3715,-0.0108,-1.5679,rough,14.0,2,1.534
7400,236.80,5.7288,4.8250,2.2697,0.3715,-0.0095,-1.5714,rough,14.0,2,1.534
7410,237.12,5.7281,4.8254,2.2694,0.3714,-0.0083,-1.5745,rough,14.0,2,1.535
7420,237.44,5.7268,4.8252,2.2688,0.3714,-0.0111,-1.5667,rough,14.0,2,1.535
7430,237.76,5.7279,4.8251,2.2693,0.3714,-0.0098,-1.5703,rough,14.0,2,1.535
7440,238.08,5.7276,4.8254,2.2692,0.3714,-0.0086,-1.5733,rough,14.0,2,1.535
7450,238.40,5.7270,4.8251,2.2689,0.3715,-0.0115,-1.5653,rough,14.0,2,1.535
7460,238.72,5.7286,4.8249,2.2696,0.3715,-0.0103,-1.5691,rough,14.0,2,1.534
7470,239.04,5.7288,4.8251,2.2697,0.3715,-0.0091,-1.5726,rough,14.0,2,1.535
7480,239.36,5.7274,4.8257,2.2691,0.3714,-0.0077,-1.5758,rough,14.0,2,1.535
7490,239.68,5.7274,4.8251,2.2691,0.3714,-0.0105,-1.5683,rough,14.0,2,1.535
7500,240.00,5.7279,4.8252,2.2693,0.3714,-0.0095,-1.5714,rough,14.0,2,1.535
7510,240.32,5.7271,4.8256,2.2690,0.3714,-0.0081,-1.5747,rough,14.0,2,1.535
7520,240.64,5.7276,4.8249,2.2692,0.3715,-0.0111,-1.5670,rough,14.0,2,1.534
7530,240.96,5.7287,4.8250,2.2696,0.3715,-0.0098,-1.5706,rough,14.0,2,1.534
7540,241.28,5.7282,4.8254,2.2694,0.3714,-0.0085,-1.5739,rough,14.0,2,1.535
7550,241.60,5.7266,4.8253,2.2688,0.3715,-0.0115,-1.5651,rough,14.0,2,1.535
7560,241.92,5.7283,4.8249,2.2695,0.3715,-0.0103,-1.5689,rough,14.0,2,1.534
7570,242.24,5.7285,4.8252,2.2696,0.3715,-0.0091,-1.5724,rough,14.0,2,1.535
7580,242.56,5.7262,4.8259,2.2687,0.3713,-0.0115,-1.5662,rough,14.0,2,1.536
7590,242.88,5.7282,4.8249,2.2694,0.3715,-0.0109,-1.5675,rough,14.0,2,1.534
7600,243.20,5.7289,4.8250,2.2697,0.3715,-0.0097,-1.5708,rough,14.0,2,1.534
7610,243.52,5.7284,4.8253,2.2695,0.3715,-0.0085,-1.5739,rough,14.0,2,1.535
7620,243.84,5.7265,4.8253,2.2687,0.3714,-0.0115,-1.5658,rough,14.0,2,1.535
7630,244.16,5.7279,4.8250,2.2693,0.3715,-0.0101,-1.5695,rough,14.0,2,1.535
7640,244.48,5.7279,4.8253,2.2693,0.3714,-0.0089,-1.5729,rough,14.0,2,1.535
7650,244.80,5.7262,4.8254,2.2685,0.3714,-0.0112,-1.5642,rough,14.0,2,1.535
7660,245.12,5.7281,4.8249,2.2694,0.3715,-0.0105,-1.5683,rough,14.0,2,1.534
7670,245.44,5.7286,4.8251,2.2696,0.3715,-0.0093,-1.5718,rough,14.0,2,1.535
7680,245.76,5.7276,4.8256,2.2692,0.3714,-0.0080,-1.5751,rough,14.0,2,1.535
7690,246.08,5.7276,4.8250,2.2692,0.3715,-0.0110,-1.5670,rough,14.0,2,1.534
7700,246.40,5.7286,4.8250,2.2696,0.3715,-0.0099,-1.5704,rough,14.0,2,1.534
7710,246.72,5.7282,4.8253,2.2694,0.3714,-0.0086,-1.5738,rough,14.0,2,1.535
7720,247.04,5.7268,4.8252,2.2689,0.3714,-0.0116,-1.5654,rough,14.0,2,1.535
7730,247.36,5.7285,4.8249,2.2695,0.3715,-0.0103,-1.5692,rough,14.0,2,1.534
7740,247.68,5.7286,4.8252,2.2696,0.3715,-0.0090,-1.5726,rough,14.0,2,1.535
7750,248.00,5.7260,4.8262,2.2685,0.3713,-0.0107,-1.5664,rough,14.0,2,1.536
7760,248.32,5.7278,4.8249,2.2693,0.3715,-0.0109,-1.5674,rough,14.0,2,1.534
7770,248.64,5.7287,4.8250,2.2696,0.3715,-0.0096,-1.5710,rough,14.0,2,1.534
7780,248.96,5.7280,4.8254,2.2693,0.3714,-0.0083,-1.5744,rough,14.0,2,1.535
7790,249.28,5.7268,4.8252,2.2688,0.3714,-0.0112,-1.5665,rough,14.0,2,1.535
7800,249.60,5.7279,4.8251,2.2693,0.3715,-0.0100,-1.5700,rough,14.0,2,1.535
7810,249.92,5.7277,4.8254,2.2692,0.3714,-0.0088,-1.5730,rough,14.0,2,1.535
7820,250.24,5.7267,4.8252,2.2688,0.3714,-0.0119,-1.5648,rough,14.0,2,1.535
7830,250.56,5.7286,4.8248,2.2696,0.3715,-0.0105,-1.5686,rough,14.0,2,1.534
7840,250.88,5.7289,4.8251,2.2697,0.3715,-0.0093,-1.5721,rough,14.0,2,1.534
7850,251.20,5.7280,4.8258,2.2688,0.3715,-0.0044,-1.5744,rough,14.0,2,1.535
7860,251.52,5.7278,4.8249,2.2693,0.3715,-0.0112,-1.5664,rough,14.0,2,1.534
7870,251.84,5.7291,4.8249,2.2698,0.3715,-0.0099,-1.5701,rough,14.0,2,1.534
7880,252.16,5.7288,4.8252,2.2697,0.3715,-0.0087,-1.5735,rough,14.0,2,1.535
7890,252.48,5.7259,4.8257,2.2685,0.3713,-0.0117,-1.5654,rough,14.0,2,1.535
7900,252.80,5.7275,4.8251,2.2691,0.3715,-0.0104,-1.5689,rough,14.0,2,1.535
7910,253.12,5.7277,4.8253,2.2692,0.3714,-0.0091,-1.5723,rough,14.0,2,1.535
7920,253.44,5.7260,4.8254,2.2686,0.3713,-0.0122,-1.5641,rough,14.0,2,1.535
7930,253.76,5.7282,4.8249,2.2694,0.3715,-0.0107,-1.5680,rough,14.0,2,1.534
7940,254.08,5.7288,4.8250,2.2697,0.3715,-0.0095,-1.5715,rough,14.0,2,1.534
7950,254.40,5.7280,4.8254,2.2694,0.3714,-0.0082,-1.5744,rough,14.0,2,1.535
7960,254.72,5.7270,4.8251,2.2689,0.3715,-0.0111,-1.5662,rough,14.0,2,1.535
7970,255.04,5.7283,4.8250,2.2694,0.3715,-0.0099,-1.5699,rough,14.0,2,1.534
7980,255.36,5.7280,4.8253,2.2694,0.3714,-0.0088,-1.5733,rough,14.0,2,1.535
7990,255.68,5.7264,4.8253,2.2687,0.3714,-0.0117,-1.5652,rough,14.0,2,1.535
8000,256.00,5.7280,4.8250,2.2694,0.3714,-0.0103,-1.5691,rough,14.0,2,1.534
8010,256.32,5.7282,4.8252,2.2694,0.3715,-0.0092,-1.5722,rough,14.0,2,1.535
8020,256.64,5.7260,4.8260,2.2685,0.3713,-0.0113,-1.5666,rough,14.0,2,1.536
8030,256.96,5.7277,4.8250,2.2692,0.3715,-0.0108,-1.5678,rough,14.0,2,1.534
8040,257.28,5.7284,4.8251,2.2695,0.3715,-0.0095,-1.5713,rough,14.0,2,1.535
8050,257.60,5.7276,4.8255,2.2692,0.3714,-0.0082,-1.5747,rough,14.0,2,1.535
8060,257.92,5.7282,4.8254,2.2693,0.3714,-0.0086,-1.5711,rough,14.0,2,1.535
