step,time_s,x,y,z,roll,pitch,yaw,terrain,speed,target_idx,dist_to_target
10,0.32,2.0145,0.4859,0.7090,0.0994,-0.3082,-0.1021,rough,14.0,0,6.409
20,0.64,2.1892,0.4483,0.7656,0.0948,-0.4065,-0.1530,rough,14.0,0,6.249
30,0.96,2.5236,0.3843,0.9270,0.1131,-0.4506,-0.1959,rough,14.0,0,5.944
40,1.28,2.8449,0.3052,1.0844,0.1284,-0.4514,-0.2553,rough,14.0,0,5.659
50,1.60,3.1601,0.2138,1.2398,0.1311,-0.4467,-0.2858,rough,14.0,0,5.390
60,1.92,3.4890,0.1182,1.3962,0.0964,-0.4364,-0.2442,rough,14.0,0,5.117
70,2.24,3.8246,0.0312,1.5523,0.0845,-0.4088,-0.2094,rough,14.0,0,4.843
80,2.56,4.1585,-0.0433,1.6952,0.0640,-0.3831,-0.1759,rough,14.0,0,4.574
90,2.88,4.5017,-0.1053,1.8389,0.0433,-0.3768,-0.1302,rough,14.0,0,4.302
100,3.20,4.8443,-0.1488,1.9708,0.0307,-0.3495,-0.0948,rough,14.0,0,4.031
110,3.52,5.1803,-0.1827,2.0904,0.0249,-0.3234,-0.0790,rough,14.0,0,3.773
120,3.84,5.5087,-0.2075,2.2087,0.0165,-0.3296,-0.0557,rough,14.0,0,3.529
130,4.16,5.8311,-0.2256,2.3180,0.0120,-0.3222,-0.0399,rough,14.0,0,3.298
140,4.48,6.1427,-0.2378,2.4213,0.0077,-0.3194,-0.0261,rough,14.0,0,3.088
150,4.80,6.4422,-0.2456,2.5194,0.0050,-0.3141,-0.0162,rough,14.0,0,2.900
160,5.12,6.7265,-0.2504,2.6116,0.0036,-0.3136,-0.0096,rough,14.0,0,2.737
170,5.44,6.9952,-0.2530,2.6985,0.0023,-0.3126,-0.0051,rough,14.0,0,2.601
180,5.76,7.2470,-0.2543,2.7799,0.0018,-0.3130,-0.0025,rough,14.0,0,2.492
190,6.08,7.4816,-0.2549,2.8558,0.0013,-0.3136,-0.0008,rough,14.0,0,2.410
200,6.40,7.7088,-0.2551,2.9176,0.0013,-0.2394,-0.0002,rough,14.0,0,2.349
210,6.72,8.1063,-0.2601,2.8069,0.0655,0.9777,0.0266,rough,14.0,0,2.298
220,7.04,8.5680,-0.3457,2.3491,2.3275,0.8211,2.5326,rough,14.0,0,2.403
230,7.36,8.8790,-0.7263,2.3401,1.6510,-0.0110,2.9416,rough,14.0,0,2.835
240,7.68,8.8470,-1.1083,2.2932,0.5998,0.1727,3.0772,rough,14.0,0,3.202
250,8.00,8.8323,-1.2885,2.2881,-0.3104,-0.6393,2.7494,rough,14.0,0,3.376
260,8.32,8.7092,-1.0413,2.2177,0.0298,-0.1422,2.4069,rough,14.0,0,3.112
270,8.64,8.5210,-0.8284,2.3001,0.1795,-0.4521,2.2042,rough,14.0,0,2.877
280,8.96,8.4104,-0.5724,2.4304,0.2968,-0.6859,2.0239,rough,14.0,0,2.613
290,9.28,8.3570,-0.2396,2.4748,0.9395,-0.6368,1.7217,rough,14.0,0,2.277
300,9.60,8.4053,-0.0856,2.4631,1.0787,-0.4561,1.6486,rough,14.0,0,2.127
310,9.92,8.3772,0.0112,2.4825,0.9983,-0.4194,1.5135,rough,14.0,0,2.028
320,10.24,8.4508,0.1195,2.5819,1.4896,-0.7262,0.6545,rough,14.0,0,1.927
330,10.56,8.4825,0.0796,2.5479,2.1877,-0.5434,-0.0326,rough,14.0,0,1.971
340,10.88,8.4366,-0.0458,2.3665,-3.0543,0.1059,-0.4595,rough,14.0,0,2.090
350,11.20,8.3756,-0.1206,2.4336,-2.0406,0.9150,0.2367,rough,14.0,0,2.160
360,11.52,8.2062,-0.2876,2.3989,-2.1304,0.6370,1.1056,rough,14.0,0,2.322
370,11.84,8.2112,-0.5666,2.3030,-2.2066,0.2408,1.3526,rough,14.0,0,2.601
380,12.16,8.2722,-0.9659,2.2475,-2.1790,0.1407,1.6968,rough,14.0,0,3.000
390,12.48,8.3247,-1.3969,2.3072,-2.2937,0.2435,1.8188,rough,14.0,0,3.432
400,12.80,8.4794,-1.7352,2.3336,-2.4041,0.1285,1.9730,rough,14.0,0,3.778
410,13.12,8.6806,-1.9680,2.2573,-2.4754,0.2755,2.0261,rough,14.0,0,4.027
420,13.44,8.8051,-2.1728,2.3153,-2.5276,0.3661,1.8968,rough,14.0,0,4.246
430,13.76,8.9240,-2.4401,2.4258,-2.5328,0.5277,2.0024,rough,14.0,0,4.527
440,14.08,9.1028,-2.7066,2.5148,-2.5802,0.2517,2.2039,rough,14.0,0,4.820
450,14.40,9.2976,-2.8189,2.5622,-2.4828,0.3103,2.6014,rough,14.0,0,4.968
460,14.72,9.4522,-2.9006,2.6067,-2.4185,0.2630,3.0090,rough,14.0,0,5.083
470,15.04,9.5795,-2.8744,2.5886,-2.5585,0.1834,-2.8735,rough,14.0,0,5.090
480,15.36,9.6036,-2.6901,2.5168,-2.6045,0.0778,-2.5002,rough,14.0,0,4.919
490,15.68,9.5617,-2.5492,2.4232,-2.6675,-0.0033,-2.4453,rough,14.0,0,4.772
500,16.00,9.5350,-2.3802,2.3736,-2.6451,0.1789,-2.5434,rough,14.0,0,4.602
510,16.32,9.3708,-2.3082,2.2933,-2.6666,-0.1170,-2.5129,rough,14.0,0,4.489
520,16.64,9.2513,-2.2510,2.2559,-2.8158,-0.2259,-2.4992,rough,14.0,0,4.405
530,16.96,9.1836,-2.1805,2.2253,-2.8595,-0.2364,-2.3882,slope,18.0,0,4.321
540,17.28,9.1768,-2.0813,2.1834,-2.8324,-0.1531,-2.5671,rough,14.0,0,4.222
550,17.60,9.1067,-2.0003,2.1392,-2.8848,-0.2213,-2.5067,rough,14.0,0,4.128
560,17.92,9.1985,-1.8506,2.1351,-2.8143,0.0510,-2.6216,rough,14.0,0,4.003
570,18.24,9.2517,-1.7365,2.1218,-2.8975,0.1213,-2.5420,rough,14.0,0,3.906
580,18.56,9.2412,-1.7075,2.1228,-2.9175,0.1191,-2.6967,rough,14.0,0,3.875
590,18.88,9.1399,-1.7038,2.1117,-3.0149,-0.0001,-2.6743,rough,14.0,0,3.846
600,19.20,9.1298,-1.6392,2.0941,-2.9204,0.1918,-2.6820,rough,14.0,0,3.781
610,19.52,9.1150,-1.5145,2.0516,-2.9921,0.1702,-2.5496,rough,14.0,0,3.657
620,19.84,9.0622,-1.4991,2.0448,-3.0400,0.1237,-2.6870,rough,14.0,0,3.629
630,20.16,9.0618,-1.4941,2.0472,-3.0307,0.1331,-2.6791,rough,14.0,0,3.624
640,20.48,9.0583,-1.4994,2.0502,-3.0431,0.1207,-2.6166,rough,14.0,0,3.629
650,20.80,9.0851,-1.5055,2.0485,-3.0193,0.1629,-2.6760,rough,14.0,0,3.641
660,21.12,9.0509,-1.5109,2.0481,-3.0476,0.0670,-2.6007,rough,14.0,0,3.638
670,21.44,9.0732,-1.4979,2.0495,-3.0282,0.1329,-2.6432,rough,14.0,0,3.631
680,21.76,9.0754,-1.5132,2.0495,-3.0261,0.1493,-2.6599,rough,14.0,0,3.646
690,22.08,9.0643,-1.5145,2.0455,-3.0416,0.0981,-2.6301,rough,14.0,0,3.645
700,22.40,9.0659,-1.5123,2.0449,-3.0385,0.0933,-2.6032,rough,14.0,0,3.643
710,22.72,9.0771,-1.5170,2.0501,-3.0112,0.1079,-2.5733,rough,14.0,0,3.650
720,23.04,9.0660,-1.5307,2.0493,-3.0377,0.1146,-2.6235,rough,14.0,0,3.661
730,23.36,9.0755,-1.5139,2.0471,-3.0171,0.1246,-2.6351,rough,14.0,0,3.647
740,23.68,9.0873,-1.5129,2.0454,-3.0148,0.1380,-2.6107,rough,14.0,0,3.649
750,24.00,9.0705,-1.5099,2.0464,-3.0300,0.1101,-2.6280,rough,14.0,0,3.642
760,24.32,9.0699,-1.5191,2.0470,-3.0289,0.1307,-2.6576,rough,14.0,0,3.651
770,24.64,9.0731,-1.5264,2.0491,-3.0421,0.1268,-2.5997,rough,14.0,0,3.658
780,24.96,9.0787,-1.5097,2.0502,-3.0110,0.1540,-2.6893,rough,14.0,0,3.643
790,25.28,9.0606,-1.5248,2.0503,-3.0529,0.1156,-2.6102,rough,14.0,0,3.654
800,25.60,9.1028,-1.5258,2.0539,-2.9695,0.2070,-2.6470,rough,14.0,0,3.665
810,25.92,9.0360,-1.5043,2.0562,-3.0352,0.0633,-2.6331,rough,14.0,0,3.629
820,26.24,9.0538,-1.5048,2.0508,-3.0699,0.1207,-2.6226,rough,14.0,0,3.633
830,26.56,9.0721,-1.5020,2.0509,-3.0459,0.1423,-2.6949,rough,14.0,0,3.634
840,26.88,9.0323,-1.5013,2.0583,-3.0274,0.0431,-2.6080,rough,14.0,0,3.625
850,27.20,9.0903,-1.4966,2.0522,-3.0286,0.1502,-2.6468,rough,14.0,0,3.633
860,27.52,9.0529,-1.5231,2.0512,-3.0388,0.0907,-2.6597,rough,14.0,0,3.651
870,27.84,9.0877,-1.5204,2.0477,-3.0098,0.1238,-2.5754,rough,14.0,0,3.656
880,28.16,9.0542,-1.5244,2.0466,-3.0642,0.1022,-2.6760,rough,14.0,0,3.652
890,28.48,9.0835,-1.5104,2.0478,-3.0087,0.1501,-2.6360,rough,14.0,0,3.645
900,28.80,9.0861,-1.5327,2.0513,-3.0207,0.1604,-2.6574,rough,14.0,0,3.668
910,29.12,9.0659,-1.5278,2.0529,-3.0514,0.1153,-2.5780,rough,14.0,0,3.658
920,29.44,9.0674,-1.5039,2.0463,-3.0409,0.1004,-2.5995,rough,14.0,0,3.635
930,29.76,9.0550,-1.5017,2.0491,-3.0316,0.0939,-2.6381,rough,14.0,0,3.630
940,30.08,9.0690,-1.4976,2.0481,-3.0137,0.1395,-2.6506,rough,14.0,0,3.629
950,30.40,9.0779,-1.5216,2.0467,-3.0235,0.1491,-2.6410,rough,14.0,0,3.655
960,30.72,9.0811,-1.5025,2.0434,-3.0424,0.1586,-2.6467,rough,14.0,0,3.637
970,31.04,9.0517,-1.5090,2.0476,-3.0318,0.0841,-2.6664,rough,14.0,0,3.637
980,31.36,9.0765,-1.5058,2.0494,-3.0135,0.1456,-2.6579,rough,14.0,0,3.639
990,31.68,9.0608,-1.5094,2.0491,-3.0521,0.1179,-2.6250,rough,14.0,0,3.639
1000,32.00,9.0763,-1.5115,2.0487,-3.0147,0.1396,-2.6531,rough,14.0,0,3.645
1010,32.32,9.0703,-1.5113,2.0483,-3.0209,0.1438,-2.6912,rough,14.0,0,3.643
1020,32.64,9.0783,-1.5158,2.0452,-3.0153,0.1233,-2.6539,rough,14.0,0,3.649
1030,32.96,9.0709,-1.5213,2.0468,-3.0354,0.1238,-2.6524,rough,14.0,0,3.653
1040,33.28,9.0829,-1.5130,2.0502,-3.0351,0.1269,-2.6869,rough,14.0,0,3.648
1050,33.60,9.0598,-1.5216,2.0464,-3.0367,0.1226,-2.6865,rough,14.0,0,3.651
1060,33.92,9.0738,-1.5185,2.0477,-3.0267,0.1132,-2.6106,rough,14.0,0,3.651
1070,34.24,9.0586,-1.5383,2.0462,-3.0475,0.1024,-2.6484,rough,14.0,0,3.667
1080,34.56,9.0781,-1.5187,2.0469,-3.0233,0.1012,-2.5732,rough,14.0,0,3.652
1090,34.88,9.0767,-1.5102,2.0461,-3.0227,0.1144,-2.6159,rough,14.0,0,3.643
1100,35.20,9.0552,-1.5236,2.0430,-3.0338,0.1070,-2.6217,rough,14.0,0,3.652
1110,35.52,9.0742,-1.5311,2.0460,-2.9972,0.0870,-2.6506,rough,14.0,0,3.663
1120,35.84,9.0551,-1.5174,2.0514,-3.0562,0.1031,-2.6527,rough,14.0,0,3.646
1130,36.16,9.0718,-1.5451,2.0505,-3.0247,0.1054,-2.6293,rough,14.0,0,3.676
1140,36.48,9.0773,-1.5353,2.0446,-3.0172,0.1192,-2.6845,rough,14.0,0,3.668
1150,36.80,9.0672,-1.5058,2.0478,-3.0290,0.1191,-2.6460,rough,14.0,0,3.637
1160,37.12,9.0807,-1.4980,2.0481,-3.0267,0.1580,-2.6465,rough,14.0,0,3.633
1170,37.44,9.0479,-1.5305,2.0510,-3.0469,0.0742,-2.6578,rough,14.0,0,3.657
1180,37.76,9.0931,-1.5114,2.0526,-3.0286,0.1431,-2.6756,rough,14.0,0,3.648
1190,38.08,9.0597,-1.5214,2.0455,-3.0262,0.1226,-2.6616,rough,14.0,0,3.650
1200,38.40,9.0871,-1.5038,2.0435,-3.0421,0.1805,-2.6473,rough,14.0,0,3.640
1210,38.72,9.1081,-1.5138,2.0537,-2.9845,0.1860,-2.6224,rough,14.0,0,3.654
1220,39.04,9.0777,-1.5187,2.0484,-3.0322,0.1339,-2.6771,rough,14.0,0,3.652
1230,39.36,9.0931,-1.5064,2.0517,-3.0122,0.1408,-2.5843,rough,14.0,0,3.644
1240,39.68,9.0838,-1.5142,2.0488,-3.0089,0.1518,-2.6488,rough,14.0,0,3.649
1250,40.00,9.0746,-1.5090,2.0466,-3.0221,0.1340,-2.6330,rough,14.0,0,3.642
1260,40.32,9.0844,-1.5130,2.0420,-2.9987,0.1238,-2.6689,rough,14.0,0,3.648
1270,40.64,9.0412,-1.5147,2.0545,-3.0701,0.0980,-2.6261,rough,14.0,0,3.640
1280,40.96,9.0675,-1.5112,2.0466,-3.0143,0.1142,-2.6805,rough,14.0,0,3.642
1290,41.28,9.0889,-1.5148,2.0489,-3.0217,0.1212,-2.5801,rough,14.0,0,3.651
1300,41.60,9.0267,-1.5165,2.0564,-3.0474,0.0499,-2.6699,rough,14.0,0,3.638
1310,41.92,9.0850,-1.5172,2.0482,-3.0075,0.1530,-2.6347,rough,14.0,0,3.652
1320,42.24,9.0788,-1.5306,2.0423,-3.0263,0.1362,-2.7065,rough,14.0,0,3.664
1330,42.56,9.0759,-1.5117,2.0472,-3.0202,0.1406,-2.6593,rough,14.0,0,3.645
1340,42.88,9.0760,-1.5052,2.0494,-3.0122,0.1364,-2.6170,rough,14.0,0,3.638
1350,43.20,9.0695,-1.5145,2.0469,-3.0328,0.1241,-2.6561,rough,14.0,0,3.646
1360,43.52,9.0801,-1.5136,2.0506,-3.0365,0.1304,-2.6883,rough,14.0,0,3.648
1370,43.84,9.0780,-1.5131,2.0441,-3.0351,0.1554,-2.6792,rough,14.0,0,3.647
1380,44.16,9.0582,-1.5048,2.0458,-3.0154,0.1252,-2.6472,rough,14.0,0,3.634
1390,44.48,9.0816,-1.5013,2.0495,-3.0172,0.1378,-2.6483,rough,14.0,0,3.636
1400,44.80,9.0615,-1.5127,2.0444,-3.0455,0.1352,-2.7132,rough,14.0,0,3.642
1410,45.12,9.0859,-1.4941,2.0498,-3.0164,0.1631,-2.6125,rough,14.0,0,3.630
1420,45.44,9.0741,-1.5186,2.0433,-3.0066,0.1179,-2.6919,rough,14.0,0,3.651
1430,45.76,9.0713,-1.5116,2.0466,-3.0234,0.1174,-2.6222,rough,14.0,0,3.644
1440,46.08,9.0698,-1.5131,2.0451,-3.0387,0.1318,-2.6643,rough,14.0,0,3.645
1450,46.40,9.0710,-1.5113,2.0467,-3.0294,0.1358,-2.6717,rough,14.0,0,3.643
1460,46.72,9.0660,-1.5151,2.0438,-3.0479,0.0957,-2.6297,rough,14.0,0,3.646
1470,47.04,9.0983,-1.5095,2.0469,-2.9894,0.1734,-2.6516,rough,14.0,0,3.648
1480,47.36,9.0680,-1.5156,2.0463,-3.0349,0.1124,-2.6483,rough,14.0,0,3.647
1490,47.68,9.0548,-1.5065,2.0498,-3.0200,0.0941,-2.6615,rough,14.0,0,3.635
1500,48.00,9.0582,-1.5169,2.0459,-3.0574,0.1181,-2.6659,rough,14.0,0,3.646
1510,48.32,9.0705,-1.5261,2.0478,-3.0400,0.1293,-2.6777,rough,14.0,0,3.657
1520,48.64,9.0573,-1.5177,2.0532,-3.0291,0.0896,-2.5984,rough,14.0,0,3.646
1530,48.96,9.0721,-1.5260,2.0490,-3.0259,0.1252,-2.6388,rough,14.0,0,3.658
1540,49.28,9.0811,-1.5178,2.0458,-3.0119,0.1248,-2.6360,rough,14.0,0,3.652
1550,49.60,9.0726,-1.5240,2.0458,-3.0450,0.0986,-2.5855,rough,14.0,0,3.656
1560,49.92,9.0802,-1.5099,2.0448,-3.0296,0.1501,-2.6517,rough,14.0,0,3.644
1570,50.24,9.0710,-1.5082,2.0462,-3.0322,0.1324,-2.6603,rough,14.0,0,3.640
1580,50.56,9.0772,-1.5124,2.0497,-3.0320,0.1378,-2.6790,rough,14.0,0,3.646
1590,50.88,9.0668,-1.4978,2.0481,-3.0281,0.1188,-2.6283,rough,14.0,0,3.629
1600,51.20,9.0352,-1.5011,2.0546,-3.0381,0.0697,-2.6203,rough,14.0,0,3.625
1610,51.52,9.0781,-1.5076,2.0490,-3.0217,0.1431,-2.6903,rough,14.0,0,3.641
1620,51.84,9.0723,-1.5250,2.0470,-3.0366,0.1063,-2.6014,rough,14.0,0,3.657
1630,52.16,9.0739,-1.5064,2.0461,-3.0321,0.1349,-2.6456,rough,14.0,0,3.639
1640,52.48,9.0693,-1.5131,2.0479,-3.0259,0.0993,-2.6106,rough,14.0,0,3.645
1650,52.80,9.0755,-1.5218,2.0469,-3.0366,0.1169,-2.6636,rough,14.0,0,3.654
1660,53.12,9.0953,-1.5126,2.0413,-2.9820,0.1499,-2.6166,rough,14.0,0,3.650
1670,53.44,9.0664,-1.5083,2.0462,-3.0308,0.1180,-2.6521,rough,14.0,0,3.639
1680,53.76,9.0791,-1.5058,2.0479,-3.0218,0.1497,-2.6496,rough,14.0,0,3.640
1690,54.08,9.0606,-1.5195,2.0451,-3.0479,0.1080,-2.6739,rough,14.0,0,3.649
1700,54.40,9.0806,-1.5245,2.0461,-3.0200,0.1268,-2.6350,rough,14.0,0,3.658
1710,54.72,9.0689,-1.5119,2.0472,-3.0239,0.1310,-2.6793,rough,14.0,0,3.643
1720,55.04,9.1055,-1.5130,2.0539,-2.9552,0.2211,-2.6672,rough,14.0,0,3.653
1730,55.36,9.0268,-1.5323,2.0559,-3.0933,0.0657,-2.6235,rough,14.0,0,3.654
1740,55.68,9.0865,-1.5161,2.0504,-3.0380,0.1574,-2.6634,rough,14.0,0,3.651
1750,56.00,9.1345,-1.4711,2.0677,-3.0240,0.1914,-2.6100,rough,14.0,0,3.619
1760,56.32,9.0646,-1.5456,2.0505,-3.0384,0.0943,-2.6492,rough,14.0,0,3.675
1770,56.64,9.0703,-1.5256,2.0448,-3.0600,0.1752,-2.7666,rough,14.0,0,3.657
1780,56.96,9.0660,-1.5249,2.0500,-3.0437,0.1106,-2.6147,rough,14.0,0,3.655
1790,57.28,9.0736,-1.5041,2.0508,-3.0178,0.1590,-2.7500,rough,14.0,0,3.637
1800,57.60,9.0527,-1.5091,2.0525,-3.0359,0.0905,-2.6206,rough,14.0,0,3.637
1810,57.92,9.0784,-1.5108,2.0488,-3.0162,0.1405,-2.6708,rough,14.0,0,3.644
1820,58.24,9.0861,-1.5088,2.0511,-2.9952,0.1827,-2.6962,rough,14.0,0,3.644
1830,58.56,9.0673,-1.4953,2.0498,-3.0292,0.1507,-2.7134,rough,14.0,0,3.627
1840,58.88,9.0522,-1.5189,2.0520,-3.0642,0.1096,-2.6364,rough,14.0,0,3.646
1850,59.20,9.0606,-1.5255,2.0445,-3.0547,0.1067,-2.6749,rough,14.0,0,3.655
1860,59.52,9.0700,-1.5388,2.0466,-3.0391,0.1253,-2.6808,rough,14.0,0,3.670
1870,59.84,9.1063,-1.5092,2.0515,-2.9658,0.1970,-2.6451,rough,14.0,0,3.649
1880,60.16,9.0275,-1.5143,2.0576,-3.0802,0.0888,-2.6281,rough,14.0,0,3.636
1890,60.48,9.0624,-1.5181,2.0493,-3.0449,0.1185,-2.6452,rough,14.0,0,3.648
1900,60.80,9.0908,-1.5159,2.0509,-2.9858,0.1741,-2.6297,rough,14.0,0,3.652
1910,61.12,9.0661,-1.5022,2.0469,-3.0286,0.1190,-2.6567,rough,14.0,0,3.633
1920,61.44,9.0724,-1.5080,2.0501,-3.0353,0.1276,-2.5912,rough,14.0,0,3.640
1930,61.76,9.0730,-1.5116,2.0465,-3.0270,0.1164,-2.6268,rough,14.0,0,3.644
1940,62.08,9.0837,-1.5186,2.0430,-2.9929,0.1230,-2.6820,rough,14.0,0,3.653
1950,62.40,9.0660,-1.5116,2.0485,-3.0185,0.1009,-2.6318,rough,14.0,0,3.642
1960,62.72,9.0997,-1.5141,2.0499,-2.9733,0.1844,-2.6256,rough,14.0,0,3.653
1970,63.04,9.0417,-1.5222,2.0427,-3.0780,0.0665,-2.6828,rough,14.0,0,3.647
1980,63.36,9.0644,-1.5293,2.0481,-3.0419,0.1187,-2.6709,rough,14.0,0,3.659
1990,63.68,9.0899,-1.5126,2.0517,-2.9873,0.1825,-2.6630,rough,14.0,0,3.649
2000,64.00,9.0629,-1.5124,2.0505,-3.0433,0.1187,-2.6303,rough,14.0,0,3.642
2010,64.32,9.0842,-1.5245,2.0501,-3.0178,0.1484,-2.6403,rough,14.0,0,3.659
2020,64.64,9.0300,-1.5330,2.0591,-3.0540,0.0479,-2.6025,rough,14.0,0,3.655
2030,64.96,9.0621,-1.5442,2.0504,-3.0530,0.1146,-2.6524,rough,14.0,0,3.673
2040,65.28,9.0726,-1.5232,2.0440,-3.0495,0.1369,-2.6673,rough,14.0,0,3.655
2050,65.60,9.0757,-1.5109,2.0483,-3.0163,0.1361,-2.6424,rough,14.0,0,3.644
2060,65.92,9.0680,-1.5072,2.0460,-3.0336,0.1235,-2.6543,rough,14.0,0,3.639
2070,66.24,9.0614,-1.5150,2.0456,-3.0415,0.1114,-2.6813,rough,14.0,0,3.645
2080,66.56,9.0780,-1.5124,2.0478,-3.0164,0.1298,-2.6304,rough,14.0,0,3.646
2090,66.88,9.0546,-1.5105,2.0511,-3.0565,0.1217,-2.6516,rough,14.0,0,3.639
2100,67.20,9.0903,-1.5149,2.0511,-2.9824,0.1876,-2.7237,rough,14.0,0,3.651
2110,67.52,9.0595,-1.5176,2.0444,-3.0000,0.1502,-2.6503,rough,14.0,0,3.647
2120,67.84,9.0873,-1.5133,2.0507,-2.9905,0.1820,-2.6827,rough,14.0,0,3.649
2130,68.16,9.0587,-1.5226,2.0524,-3.0673,0.1191,-2.6001,rough,14.0,0,3.651
2140,68.48,9.0852,-1.5094,2.0495,-2.9990,0.1645,-2.6524,rough,14.0,0,3.645
2150,68.80,9.0346,-1.5224,2.0582,-3.0388,0.0453,-2.6056,rough,14.0,0,3.646
2160,69.12,9.0895,-1.5172,2.0474,-3.0105,0.1559,-2.6219,rough,14.0,0,3.653
2170,69.44,9.0452,-1.5169,2.0533,-3.0130,0.0655,-2.6603,rough,14.0,0,3.643
2180,69.76,9.0863,-1.5206,2.0467,-3.0188,0.1419,-2.6146,rough,14.0,0,3.656
2190,70.08,9.0907,-1.5158,2.0516,-2.9966,0.1765,-2.7007,rough,14.0,0,3.652
2200,70.40,9.0747,-1.5050,2.0513,-3.0015,0.1768,-2.7504,rough,14.0,0,3.638
2210,70.72,9.0708,-1.5100,2.0477,-3.0519,0.1470,-2.6347,rough,14.0,0,3.642
2220,71.04,9.0691,-1.5080,2.0500,-3.0158,0.1123,-2.6041,rough,14.0,0,3.640
2230,71.36,9.0658,-1.5256,2.0461,-3.0239,0.1258,-2.6322,rough,14.0,0,3.656
2240,71.68,9.0788,-1.5042,2.0498,-3.0100,0.1458,-2.6391,rough,14.0,0,3.638
2250,72.00,9.0503,-1.5227,2.0505,-3.0329,0.0849,-2.6738,rough,14.0,0,3.650
2260,72.32,9.0951,-1.5158,2.0515,-3.0012,0.1632,-2.6518,rough,14.0,0,3.653
2270,72.64,9.0794,-1.5181,2.0433,-3.0012,0.1202,-2.6754,rough,14.0,0,3.652
2280,72.96,9.0570,-1.5164,2.0497,-3.0136,0.0716,-2.6394,rough,14.0,0,3.645
2290,73.28,9.0966,-1.5049,2.0541,-3.0275,0.1567,-2.7086,rough,14.0,0,3.643
2300,73.60,9.0583,-1.5317,2.0519,-3.0371,0.0872,-2.5991,rough,14.0,0,3.660
2310,73.92,9.0796,-1.5108,2.0483,-3.0003,0.1467,-2.6065,rough,14.0,0,3.645
2320,74.24,9.0688,-1.5165,2.0458,-3.0380,0.1298,-2.6769,rough,14.0,0,3.648
2330,74.56,9.0986,-1.5078,2.0505,-3.0004,0.1484,-2.6404,rough,14.0,0,3.646
2340,74.88,9.0882,-1.5096,2.0511,-3.0370,0.1213,-2.6553,rough,14.0,0,3.645
2350,75.20,9.0810,-1.5219,2.0501,-3.0107,0.1166,-2.5832,rough,14.0,0,3.656
2360,75.52,9.0852,-1.4989,2.0508,-3.0054,0.1465,-2.5964,rough,14.0,0,3.634
2370,75.84,9.0270,-1.5253,2.0550,-3.1138,0.1142,-2.6818,rough,14.0,0,3.647
2380,76.16,9.1320,-1.5280,2.0620,-2.9868,0.2275,-2.7122,rough,14.0,0,3.674
2390,76.48,9.0745,-1.4969,2.0494,-3.0388,0.1202,-2.6980,rough,14.0,0,3.630
2400,76.80,9.0327,-1.5095,2.0514,-3.0669,0.0839,-2.6935,rough,14.0,0,3.633
2410,77.12,9.0935,-1.4975,2.0535,-3.0174,0.1611,-2.6431,rough,14.0,0,3.635
2420,77.44,9.0569,-1.5185,2.0479,-3.0635,0.1135,-2.6451,rough,14.0,0,3.647
2430,77.76,9.0773,-1.5113,2.0462,-3.0358,0.1083,-2.6084,rough,14.0,0,3.645
2440,78.08,9.0558,-1.5242,2.0529,-3.0641,0.1171,-2.6233,rough,14.0,0,3.652
2450,78.40,9.1010,-1.5131,2.0503,-3.0138,0.1307,-2.6255,rough,14.0,0,3.652
2460,78.72,9.0761,-1.5185,2.0452,-3.0321,0.1310,-2.6211,rough,14.0,0,3.651
2470,79.04,9.0737,-1.5095,2.0482,-3.0200,0.1396,-2.6751,rough,14.0,0,3.642
2480,79.36,9.0748,-1.5038,2.0476,-3.0299,0.1337,-2.6200,rough,14.0,0,3.637
2490,79.68,9.0602,-1.5210,2.0510,-3.0437,0.0955,-2.6086,rough,14.0,0,3.650
2500,80.00,9.0719,-1.5182,2.0475,-3.0093,0.1424,-2.6525,rough,14.0,0,3.650
2510,80.32,9.0723,-1.5110,2.0473,-3.0197,0.1307,-2.6554,rough,14.0,0,3.643
2520,80.64,9.0707,-1.5048,2.0473,-3.0227,0.1339,-2.6503,rough,14.0,0,3.637
2530,80.96,9.0713,-1.5147,2.0483,-3.0212,0.1145,-2.6291,rough,14.0,0,3.647
2540,81.28,9.0864,-1.5245,2.0505,-3.0117,0.1578,-2.6544,rough,14.0,0,3.660
2550,81.60,9.0774,-1.5274,2.0476,-3.0327,0.1255,-2.6219,rough,14.0,0,3.660
2560,81.92,9.0721,-1.5114,2.0478,-3.0211,0.1240,-2.6389,rough,14.0,0,3.644
2570,82.24,9.0750,-1.5182,2.0472,-3.0582,0.1331,-2.5811,rough,14.0,0,3.651
2580,82.56,9.0733,-1.5240,2.0465,-3.0264,0.1219,-2.6402,rough,14.0,0,3.656
2590,82.88,9.0834,-1.5173,2.0482,-3.0104,0.1518,-2.6481,rough,14.0,0,3.652
2600,83.20,9.0690,-1.5302,2.0475,-3.0297,0.1167,-2.6431,rough,14.0,0,3.661
2610,83.52,9.0705,-1.5078,2.0460,-3.0352,0.1437,-2.6781,rough,14.0,0,3.640
2620,83.84,9.0765,-1.5120,2.0476,-3.0195,0.1285,-2.6427,rough,14.0,0,3.645
2630,84.16,9.0838,-1.5138,2.0499,-3.0206,0.1449,-2.6725,rough,14.0,0,3.649
2640,84.48,9.0633,-1.5104,2.0457,-3.0277,0.1154,-2.6637,rough,14.0,0,3.641
2650,84.80,9.0862,-1.5024,2.0501,-3.0046,0.1443,-2.6223,rough,14.0,0,3.638
2660,85.12,9.0728,-1.5150,2.0466,-3.0274,0.1323,-2.6630,rough,14.0,0,3.647
2670,85.44,9.0614,-1.5109,2.0467,-3.0309,0.1126,-2.6704,rough,14.0,0,3.641
2680,85.76,9.0882,-1.5094,2.0508,-2.9902,0.1672,-2.6456,rough,14.0,0,3.645
2690,86.08,9.0735,-1.5146,2.0475,-3.0190,0.1353,-2.6623,rough,14.0,0,3.647
2700,86.40,9.0704,-1.5147,2.0484,-3.0151,0.1588,-2.7229,rough,14.0,0,3.646
2710,86.72,9.0659,-1.5123,2.0456,-3.0406,0.0971,-2.6254,rough,14.0,0,3.643
2720,87.04,9.0813,-1.5182,2.0437,-3.0410,0.1595,-2.6711,rough,14.0,0,3.652
2730,87.36,9.0756,-1.5040,2.0496,-3.0179,0.1315,-2.6119,rough,14.0,0,3.637
2740,87.68,9.0699,-1.5088,2.0455,-3.0257,0.1104,-2.6425,rough,14.0,0,3.641
2750,88.00,9.0499,-1.5096,2.0543,-3.0042,0.0556,-2.5933,rough,14.0,0,3.637
2760,88.32,9.0571,-1.4883,2.0475,-3.0671,0.1492,-2.6815,rough,14.0,0,3.618
2770,88.64,9.0581,-1.5200,2.0525,-3.0317,0.1170,-2.6755,rough,14.0,0,3.649
2780,88.96,9.0871,-1.5072,2.0483,-3.0144,0.1311,-2.6343,rough,14.0,0,3.643
2790,89.28,9.0696,-1.5234,2.0460,-3.0356,0.1311,-2.6863,rough,14.0,0,3.655
2800,89.60,9.0636,-1.5096,2.0512,-3.0088,0.0936,-2.6189,rough,14.0,0,3.640
2810,89.92,9.0607,-1.4976,2.0458,-3.0493,0.0933,-2.6093,rough,14.0,0,3.628
2820,90.24,9.0584,-1.5065,2.0482,-3.0176,0.0984,-2.6853,rough,14.0,0,3.636
2830,90.56,9.1037,-1.5123,2.0527,-2.9630,0.2144,-2.6338,rough,14.0,0,3.652
2840,90.88,9.0660,-1.5306,2.0509,-3.0403,0.1065,-2.6003,rough,14.0,0,3.661
2850,91.20,9.0691,-1.5021,2.0455,-3.0440,0.1509,-2.6884,rough,14.0,0,3.634
2860,91.52,9.0605,-1.5091,2.0444,-3.0416,0.0920,-2.6172,rough,14.0,0,3.639
2870,91.84,9.0759,-1.5059,2.0478,-3.0206,0.1370,-2.6331,rough,14.0,0,3.639
2880,92.16,9.0850,-1.5196,2.0501,-3.0206,0.1452,-2.6727,rough,14.0,0,3.655
2890,92.48,9.0836,-1.5129,2.0491,-2.9758,0.1730,-2.6205,rough,14.0,0,3.648
2900,92.80,9.0435,-1.5420,2.0465,-3.0504,0.1450,-2.7922,rough,14.0,0,3.667
2910,93.12,9.0250,-1.5321,2.0619,-3.0281,0.0019,-2.5913,rough,14.0,0,3.653
2920,93.44,9.0858,-1.5208,2.0481,-3.0127,0.1351,-2.6194,rough,14.0,0,3.656
2930,93.76,9.0295,-1.5106,2.0510,-3.0497,0.0712,-2.6597,rough,14.0,0,3.633
2940,94.08,9.0905,-1.5143,2.0417,-2.9896,0.1343,-2.6643,rough,14.0,0,3.651
2950,94.40,9.1223,-1.5114,2.0589,-3.0353,0.1592,-2.6923,rough,14.0,0,3.655
2960,94.72,9.0382,-1.5219,2.0567,-3.0825,0.0982,-2.6044,rough,14.0,0,3.646
2970,95.04,9.0873,-1.5146,2.0438,-3.0310,0.1645,-2.6516,rough,14.0,0,3.650
2980,95.36,9.0789,-1.5110,2.0486,-3.0006,0.1501,-2.6360,rough,14.0,0,3.645
2990,95.68,9.0694,-1.5140,2.0476,-3.0351,0.1217,-2.6906,rough,14.0,0,3.645
3000,96.00,9.0844,-1.5194,2.0488,-3.0070,0.1448,-2.6316,rough,14.0,0,3.654
3010,96.32,9.0342,-1.5311,2.0536,-3.0818,0.0808,-2.6638,rough,14.0,0,3.654
3020,96.64,9.0769,-1.5424,2.0513,-3.0254,0.1253,-2.6410,rough,14.0,0,3.675
3030,96.96,9.0861,-1.4996,2.0475,-3.0334,0.1558,-2.6543,rough,14.0,0,3.635
3040,97.28,9.0689,-1.5080,2.0502,-3.0376,0.1270,-2.6103,rough,14.0,0,3.639
3050,97.60,9.0691,-1.5085,2.0483,-3.0185,0.1112,-2.6430,rough,14.0,0,3.640
3060,97.92,9.0595,-1.5014,2.0479,-3.0224,0.1038,-2.5847,rough,14.0,0,3.631
3070,98.24,9.0775,-1.5086,2.0469,-3.0155,0.1359,-2.6450,rough,14.0,0,3.642
3080,98.56,9.0811,-1.5076,2.0418,-2.9969,0.1281,-2.7002,rough,14.0,0,3.642
3090,98.88,9.0836,-1.5131,2.0495,-3.0086,0.1480,-2.6458,rough,14.0,0,3.648
3100,99.20,9.0668,-1.5004,2.0486,-3.0441,0.1382,-2.6372,rough,14.0,0,3.632
3110,99.52,9.0631,-1.5002,2.0453,-3.0437,0.1345,-2.6889,rough,14.0,0,3.631
3120,99.84,9.0573,-1.4991,2.0456,-3.0538,0.0907,-2.6231,rough,14.0,0,3.628
3130,100.16,9.0692,-1.5040,2.0469,-3.0335,0.1042,-2.5873,rough,14.0,0,3.636
3140,100.48,9.0709,-1.5169,2.0460,-3.0344,0.1066,-2.6285,rough,14.0,0,3.649
3150,100.80,9.0756,-1.5042,2.0482,-3.0210,0.1279,-2.6337,rough,14.0,0,3.637
3160,101.12,9.0487,-1.5049,2.0550,-3.0765,0.1191,-2.5834,rough,14.0,0,3.632
3170,101.44,9.0629,-1.5131,2.0454,-3.0413,0.1018,-2.6327,rough,14.0,0,3.643
3180,101.76,9.0675,-1.5169,2.0473,-3.0195,0.1410,-2.6651,rough,14.0,0,3.648
3190,102.08,9.0690,-1.5079,2.0497,-3.0263,0.1134,-2.6094,rough,14.0,0,3.639
3200,102.40,9.0849,-1.5198,2.0434,-3.0218,0.1538,-2.6632,rough,14.0,0,3.655
3210,102.72,9.0664,-1.5098,2.0438,-3.0339,0.0877,-2.6006,rough,14.0,0,3.641
3220,103.04,9.0618,-1.5144,2.0504,-3.0331,0.0917,-2.6058,rough,14.0,0,3.644
3230,103.36,9.0771,-1.5126,2.0484,-3.0004,0.1554,-2.6663,rough,14.0,0,3.646
3240,103.68,9.0724,-1.5009,2.0466,-3.0244,0.1531,-2.6615,rough,14.0,0,3.633
3250,104.00,9.0751,-1.4967,2.0476,-3.0248,0.1358,-2.6200,rough,14.0,0,3.630
3260,104.32,9.0714,-1.5194,2.0477,-3.0194,0.1197,-2.6291,rough,14.0,0,3.651
3270,104.64,9.0728,-1.5258,2.0480,-3.0347,0.1270,-2.6518,rough,14.0,0,3.658
3280,104.96,9.0687,-1.5125,2.0476,-3.0270,0.1039,-2.6208,rough,14.0,0,3.644
3290,105.28,9.0741,-1.5177,2.0451,-2.9989,0.1020,-2.6643,rough,14.0,0,3.650
3300,105.60,9.0663,-1.5105,2.0479,-3.0253,0.1072,-2.6405,rough,14.0,0,3.641
3310,105.92,9.0740,-1.5089,2.0467,-3.0181,0.1361,-2.6281,rough,14.0,0,3.642
3320,106.24,9.0697,-1.5229,2.0488,-3.0355,0.1274,-2.6445,rough,14.0,0,3.654
3330,106.56,9.0777,-1.5091,2.0502,-3.0030,0.1699,-2.7180,rough,14.0,0,3.643
3340,106.88,9.1127,-1.4918,2.0568,-2.9708,0.2158,-2.5950,rough,14.0,0,3.634
3350,107.20,9.0782,-1.5240,2.0504,-3.0223,0.1517,-2.6955,rough,14.0,0,3.657
3360,107.52,9.1015,-1.5123,2.0474,-3.0249,0.1812,-2.6463,rough,14.0,0,3.651
3370,107.84,9.0437,-1.5163,2.0523,-3.0502,0.0954,-2.6756,rough,14.0,0,3.642
3380,108.16,9.0879,-1.5054,2.0517,-3.0313,0.1460,-2.7178,rough,14.0,0,3.641
3390,108.48,9.0671,-1.5367,2.0511,-3.0738,0.1303,-2.7886,rough,14.0,0,3.667
3400,108.80,9.0662,-1.5143,2.0491,-3.0401,0.1125,-2.6053,rough,14.0,0,3.645
3410,109.12,9.0759,-1.5139,2.0494,-3.0474,0.1203,-2.7028,rough,14.0,0,3.647
3420,109.44,9.0701,-1.5145,2.0482,-3.0208,0.1411,-2.6747,rough,14.0,0,3.646
3430,109.76,9.0392,-1.5198,2.0576,-3.0928,0.1093,-2.5852,rough,14.0,0,3.644
3440,110.08,9.0831,-1.5114,2.0478,-3.0208,0.1234,-2.6067,rough,14.0,0,3.646
3450,110.40,9.0716,-1.5238,2.0458,-3.0389,0.1336,-2.6760,rough,14.0,0,3.656
3460,110.72,9.0753,-1.5267,2.0446,-3.0584,0.1608,-2.6752,rough,14.0,0,3.659
3470,111.04,9.0929,-1.5120,2.0520,-2.9505,0.2137,-2.6268,rough,14.0,0,3.649
3480,111.36,9.0856,-1.5117,2.0494,-3.0046,0.1452,-2.6094,rough,14.0,0,3.647
3490,111.68,9.0255,-1.5189,2.0595,-3.1175,0.1093,-2.6269,rough,14.0,0,3.640
3500,112.00,9.0775,-1.5181,2.0466,-3.0285,0.1584,-2.6911,rough,14.0,0,3.651
3510,112.32,9.0601,-1.5250,2.0503,-3.0455,0.1139,-2.6506,rough,14.0,0,3.654
3520,112.64,9.0907,-1.5059,2.0515,-3.0189,0.1491,-2.6755,rough,14.0,0,3.642
3530,112.96,9.0645,-1.5077,2.0454,-3.0182,0.1151,-2.6866,rough,14.0,0,3.638
3540,113.28,9.0800,-1.5105,2.0494,-3.0070,0.1519,-2.6614,rough,14.0,0,3.644
3550,113.60,9.0750,-1.5016,2.0479,-3.0107,0.1178,-2.6146,rough,14.0,0,3.635
3560,113.92,9.0280,-1.5363,2.0572,-3.0405,0.0367,-2.6551,rough,14.0,0,3.658
3570,114.24,9.0592,-1.5354,2.0453,-3.0456,0.0880,-2.6852,rough,14.0,0,3.664
3580,114.56,9.0842,-1.5205,2.0505,-2.9901,0.1935,-2.6887,rough,14.0,0,3.655
3590,114.88,9.0673,-1.5033,2.0456,-3.0384,0.1043,-2.5962,rough,14.0,0,3.635
3600,115.20,9.0678,-1.5047,2.0481,-3.0275,0.1253,-2.6568,rough,14.0,0,3.636
3610,115.52,9.0743,-1.5048,2.0473,-3.0232,0.1285,-2.6311,rough,14.0,0,3.638
3620,115.84,9.0696,-1.5247,2.0478,-3.0256,0.1324,-2.6553,rough,14.0,0,3.656
3630,116.16,9.0674,-1.5153,2.0489,-3.0254,0.0853,-2.5883,rough,14.0,0,3.646
3640,116.48,9.0636,-1.5064,2.0479,-3.0139,0.1033,-2.6665,rough,14.0,0,3.637
3650,116.80,9.0652,-1.5027,2.0471,-3.0245,0.1320,-2.6790,rough,14.0,0,3.634
3660,117.12,9.0640,-1.5077,2.0486,-3.0328,0.1225,-2.6567,rough,14.0,0,3.638
3670,117.44,9.0666,-1.5044,2.0453,-3.0406,0.1019,-2.5962,rough,14.0,0,3.636
3680,117.76,9.0538,-1.4984,2.0495,-3.0321,0.0940,-2.6338,rough,14.0,0,3.627
3690,118.08,9.0537,-1.4969,2.0463,-3.0193,0.1204,-2.6409,rough,14.0,0,3.625
3700,118.40,9.0824,-1.5160,2.0479,-3.0041,0.1409,-2.6148,rough,14.0,0,3.650
3710,118.72,9.0692,-1.5075,2.0477,-3.0086,0.1176,-2.6374,rough,14.0,0,3.639
3720,119.04,9.0625,-1.5021,2.0517,-3.0233,0.1004,-2.6005,rough,14.0,0,3.632
3730,119.36,9.0754,-1.5161,2.0503,-3.0551,0.1261,-2.7405,rough,14.0,0,3.649
3740,119.68,9.0840,-1.5167,2.0462,-3.0394,0.1685,-2.7133,rough,14.0,0,3.651
3750,120.00,9.0791,-1.5239,2.0482,-3.0364,0.1397,-2.6823,rough,14.0,0,3.657
3760,120.32,9.0765,-1.5153,2.0471,-3.0232,0.1182,-2.6198,rough,14.0,0,3.648
3770,120.64,9.0406,-1.5114,2.0499,-3.0577,0.0896,-2.6489,rough,14.0,0,3.636
3780,120.96,9.0838,-1.5003,2.0488,-3.0053,0.1515,-2.6421,rough,14.0,0,3.635
3790,121.28,9.0645,-1.5034,2.0486,-3.0389,0.1319,-2.6889,rough,14.0,0,3.634
3800,121.60,9.0676,-1.5108,2.0493,-3.0220,0.1023,-2.6160,rough,14.0,0,3.642
3810,121.92,9.0707,-1.5116,2.0473,-3.0252,0.1243,-2.6529,rough,14.0,0,3.643
3820,122.24,9.0491,-1.5134,2.0435,-3.0694,0.0705,-2.6765,rough,14.0,0,3.640
3830,122.56,9.0726,-1.5143,2.0450,-3.0339,0.1166,-2.6288,rough,14.0,0,3.647
3840,122.88,9.0597,-1.5145,2.0460,-3.0181,0.1138,-2.6366,rough,14.0,0,3.644
3850,123.20,9.0839,-1.5161,2.0495,-2.9946,0.1651,-2.6630,rough,14.0,0,3.651
3860,123.52,9.0796,-1.5066,2.0445,-3.0016,0.1276,-2.6646,rough,14.0,0,3.641
3870,123.84,9.0478,-1.5284,2.0453,-3.0651,0.0998,-2.7233,rough,14.0,0,3.655
3880,124.16,9.0833,-1.5335,2.0435,-3.0125,0.1319,-2.6805,rough,14.0,0,3.668
3890,124.48,9.0821,-1.5133,2.0454,-3.0056,0.1184,-2.6111,rough,14.0,0,3.648
3900,124.80,9.0650,-1.5185,2.0514,-3.0419,0.1171,-2.5955,rough,14.0,0,3.649
3910,125.12,9.0809,-1.5206,2.0508,-3.0160,0.1824,-2.7342,rough,14.0,0,3.655
3920,125.44,9.0813,-1.5328,2.0483,-3.0189,0.1113,-2.5954,rough,14.0,0,3.666
3930,125.76,9.0534,-1.4990,2.0489,-3.0257,0.1150,-2.6077,rough,14.0,0,3.627
3940,126.08,9.0888,-1.5151,2.0483,-3.0028,0.1660,-2.6388,rough,14.0,0,3.651
3950,126.40,9.0630,-1.5025,2.0511,-3.0460,0.1222,-2.5985,rough,14.0,0,3.633
3960,126.72,9.0713,-1.5109,2.0463,-3.0312,0.1114,-2.6216,rough,14.0,0,3.643
3970,127.04,9.1118,-1.5098,2.0534,-2.9744,0.2077,-2.6729,rough,14.0,0,3.651
3980,127.36,9.0496,-1.5121,2.0438,-3.0527,0.0914,-2.6812,rough,14.0,0,3.639
3990,127.68,9.0310,-1.5305,2.0499,-3.0921,0.0798,-2.6982,rough,14.0,0,3.653
4000,128.00,9.1077,-1.5067,2.0527,-3.0063,0.1564,-2.5902,rough,14.0,0,3.647
4010,128.32,9.0665,-1.5226,2.0458,-3.0408,0.1288,-2.6747,rough,14.0,0,3.653
4020,128.64,9.0796,-1.5151,2.0477,-3.0174,0.1388,-2.6382,rough,14.0,0,3.649
4030,128.96,9.0654,-1.5130,2.0501,-3.0416,0.1239,-2.6285,rough,14.0,0,3.644
4040,129.28,9.0806,-1.5122,2.0481,-3.0049,0.1428,-2.6190,rough,14.0,0,3.646
4050,129.60,9.0718,-1.5155,2.0486,-3.0375,0.1271,-2.6235,rough,14.0,0,3.647
4060,129.92,9.0706,-1.5052,2.0494,-3.0176,0.1245,-2.6325,rough,14.0,0,3.637
4070,130.24,9.0736,-1.5062,2.0452,-3.0276,0.1421,-2.6715,rough,14.0,0,3.639
4080,130.56,9.0817,-1.5064,2.0436,-3.0410,0.1666,-2.6688,rough,14.0,0,3.641
4090,130.88,9.0939,-1.5130,2.0506,-2.9899,0.1683,-2.6214,rough,14.0,0,3.650
4100,131.20,9.0584,-1.5437,2.0490,-3.0451,0.0845,-2.6342,rough,14.0,0,3.672
4110,131.52,9.0703,-1.5128,2.0446,-3.0304,0.1202,-2.6156,rough,14.0,0,3.645
4120,131.84,9.0759,-1.5218,2.0473,-3.0251,0.1230,-2.6345,rough,14.0,0,3.655
4130,132.16,9.0778,-1.5193,2.0466,-3.0231,0.1431,-2.6703,rough,14.0,0,3.653
4140,132.48,9.0791,-1.5133,2.0473,-3.0068,0.1311,-2.5881,rough,14.0,0,3.647
4150,132.80,9.0611,-1.5193,2.0516,-3.0499,0.1231,-2.5972,rough,14.0,0,3.649
4160,133.12,9.0684,-1.5183,2.0487,-3.0379,0.1298,-2.7045,rough,14.0,0,3.649
4170,133.44,9.0627,-1.5111,2.0484,-3.0316,0.1180,-2.6669,rough,14.0,0,3.641
4180,133.76,9.0672,-1.5177,2.0437,-3.0526,0.1154,-2.6488,rough,14.0,0,3.649
4190,134.08,9.0707,-1.5080,2.0492,-3.0327,0.1236,-2.6101,rough,14.0,0,3.640
4200,134.40,9.0602,-1.5177,2.0450,-3.0256,0.1163,-2.6443,rough,14.0,0,3.647
4210,134.72,9.0648,-1.5180,2.0510,-3.0152,0.0914,-2.6161,rough,14.0,0,3.648
4220,135.04,9.0793,-1.5124,2.0447,-3.0166,0.1100,-2.6111,rough,14.0,0,3.646
4230,135.36,9.0687,-1.5163,2.0469,-3.0253,0.1166,-2.6629,rough,14.0,0,3.648
4240,135.68,9.0935,-1.5207,2.0497,-3.0123,0.1771,-2.6667,rough,14.0,0,3.658
4250,136.00,9.0695,-1.5159,2.0478,-2.9948,0.1741,-2.6890,rough,14.0,0,3.647
4260,136.32,9.1001,-1.5066,2.0528,-3.0399,0.1334,-2.6710,rough,14.0,0,3.645
4270,136.64,9.0765,-1.5146,2.0468,-3.0162,0.1216,-2.6383,rough,14.0,0,3.648
4280,136.96,9.0661,-1.5037,2.0472,-3.0437,0.1019,-2.6475,rough,14.0,0,3.635
4290,137.28,9.0646,-1.5259,2.0458,-3.0539,0.0914,-2.6314,rough,14.0,0,3.656
4300,137.60,9.0403,-1.5293,2.0544,-3.0845,0.1091,-2.6559,rough,14.0,0,3.654
4310,137.92,9.0971,-1.5101,2.0521,-3.0284,0.1384,-2.6424,rough,14.0,0,3.648
4320,138.24,9.0371,-1.5161,2.0520,-3.0081,0.0409,-2.6643,rough,14.0,0,3.640
4330,138.56,9.0989,-1.5082,2.0512,-2.9908,0.1735,-2.6257,rough,14.0,0,3.647
4340,138.88,9.0912,-1.5151,2.0513,-2.9764,0.1910,-2.6985,rough,14.0,0,3.652
4350,139.20,9.0817,-1.5137,2.0488,-3.0240,0.1230,-2.6167,rough,14.0,0,3.648
4360,139.52,9.0312,-1.5397,2.0584,-3.0962,0.0799,-2.6143,rough,14.0,0,3.662
4370,139.84,9.1151,-1.4994,2.0601,-2.9625,0.2410,-2.6839,rough,14.0,0,3.642
4380,140.16,9.0710,-1.5274,2.0483,-3.0509,0.0917,-2.6274,rough,14.0,0,3.659
4390,140.48,9.0734,-1.5357,2.0515,-3.0290,0.1028,-2.5742,rough,14.0,0,3.668
4400,140.80,9.1012,-1.5087,2.0540,-2.9553,0.2271,-2.6912,rough,14.0,0,3.648
4410,141.12,9.0710,-1.5095,2.0483,-3.0198,0.1393,-2.6769,rough,14.0,0,3.641
4420,141.44,9.1082,-1.5140,2.0529,-2.9613,0.2070,-2.6426,rough,14.0,0,3.655
4430,141.76,9.0696,-1.5142,2.0479,-3.0022,0.0959,-2.6541,rough,14.0,0,3.646
4440,142.08,9.0751,-1.5133,2.0507,-3.0255,0.1217,-2.5864,rough,14.0,0,3.646
4450,142.40,9.0643,-1.5134,2.0468,-3.0219,0.1158,-2.6645,rough,14.0,0,3.644
4460,142.72,9.0797,-1.5044,2.0508,-3.0151,0.1692,-2.7541,rough,14.0,0,3.639
4470,143.04,9.0781,-1.5155,2.0475,-3.0141,0.1313,-2.6449,rough,14.0,0,3.649
4480,143.36,9.0352,-1.5200,2.0550,-3.0928,0.1105,-2.6121,rough,14.0,0,3.644
4490,143.68,9.0863,-1.4938,2.0534,-3.0257,0.1449,-2.6181,rough,14.0,0,3.630
4500,144.00,9.0725,-1.5301,2.0522,-3.0475,0.1548,-2.8047,rough,14.0,0,3.662
4510,144.32,9.0153,-1.5443,2.0591,-3.0825,0.0274,-2.6279,rough,14.0,0,3.663
4520,144.64,9.0878,-1.5235,2.0437,-2.9622,0.1300,-2.5355,rough,14.0,0,3.659
4530,144.96,9.1452,-1.5091,2.0616,-3.0115,0.1784,-2.5847,rough,14.0,0,3.659
4540,145.28,9.0459,-1.5158,2.0524,-3.0105,0.0456,-2.6256,rough,14.0,0,3.642
4550,145.60,9.0935,-1.5139,2.0491,-3.0131,0.1338,-2.6277,rough,14.0,0,3.651
4560,145.92,9.0504,-1.5281,2.0505,-3.0455,0.0763,-2.6351,rough,14.0,0,3.655
4570,146.24,9.0994,-1.5150,2.0412,-3.0416,0.1975,-2.6474,rough,14.0,0,3.653
4580,146.56,9.0409,-1.5352,2.0570,-3.0345,0.0371,-2.5839,rough,14.0,0,3.660
4590,146.88,9.0913,-1.5264,2.0476,-3.0073,0.1395,-2.5983,rough,14.0,0,3.663
4600,147.20,9.0674,-1.5093,2.0426,-3.0287,0.0961,-2.6580,rough,14.0,0,3.640
4610,147.52,9.0736,-1.5129,2.0429,-3.0054,0.1267,-2.6593,rough,14.0,0,3.645
4620,147.84,9.0681,-1.5081,2.0466,-3.0323,0.1338,-2.6768,rough,14.0,0,3.639
4630,148.16,9.0629,-1.5040,2.0498,-3.0317,0.0976,-2.6043,rough,14.0,0,3.634
4640,148.48,9.0704,-1.4975,2.0478,-3.0058,0.1370,-2.6266,rough,14.0,0,3.630
4650,148.80,9.0888,-1.5167,2.0497,-3.0008,0.1704,-2.6407,rough,14.0,0,3.653
4660,149.12,9.0623,-1.5244,2.0487,-3.0214,0.0869,-2.6487,rough,14.0,0,3.654
4670,149.44,9.0594,-1.5267,2.0453,-3.0515,0.1079,-2.6669,rough,14.0,0,3.656
4680,149.76,9.0834,-1.5186,2.0458,-3.0045,0.1219,-2.5583,rough,14.0,0,3.653
4690,150.08,9.0838,-1.5128,2.0516,-2.9995,0.1721,-2.6863,rough,14.0,0,3.648
4700,150.40,9.0792,-1.5091,2.0504,-3.0066,0.1388,-2.6263,rough,14.0,0,3.643
4710,150.72,9.0490,-1.5181,2.0544,-3.0249,0.0606,-2.6138,rough,14.0,0,3.645
4720,151.04,9.0917,-1.5200,2.0414,-3.0528,0.1972,-2.6856,rough,14.0,0,3.657
4730,151.36,9.0439,-1.5225,2.0559,-3.0783,0.1045,-2.6172,rough,14.0,0,3.648
4740,151.68,9.0861,-1.5111,2.0435,-3.0290,0.1497,-2.6438,rough,14.0,0,3.646
4750,152.00,9.0503,-1.5276,2.0469,-3.0407,0.0920,-2.6588,rough,14.0,0,3.654
4760,152.32,9.0827,-1.5237,2.0475,-3.0099,0.1150,-2.5522,rough,14.0,0,3.658
4770,152.64,9.0766,-1.5112,2.0473,-3.0214,0.1248,-2.6056,rough,14.0,0,3.644
4780,152.96,9.0929,-1.5105,2.0500,-2.9807,0.1698,-2.6174,rough,14.0,0,3.648
4790,153.28,9.1031,-1.5156,2.0532,-2.9665,0.1969,-2.6056,rough,14.0,0,3.655
4800,153.60,9.0292,-1.5282,2.0601,-3.0550,0.0356,-2.5905,rough,14.0,0,3.650
4810,153.92,9.0911,-1.5362,2.0443,-2.9886,0.1126,-2.6371,rough,14.0,0,3.672
4820,154.24,9.0557,-1.5295,2.0448,-3.0427,0.1162,-2.6877,rough,14.0,0,3.657
4830,154.56,9.0631,-1.5161,2.0511,-3.0375,0.1112,-2.6204,rough,14.0,0,3.646
4840,154.88,9.0761,-1.5106,2.0480,-2.9998,0.1421,-2.5906,rough,14.0,0,3.644
4850,155.20,9.0501,-1.5141,2.0492,-3.0345,0.0884,-2.6841,rough,14.0,0,3.641
4860,155.52,9.0831,-1.5167,2.0494,-3.0085,0.1490,-2.6431,rough,14.0,0,3.651
4870,155.84,9.0739,-1.5086,2.0470,-3.0197,0.1187,-2.6059,rough,14.0,0,3.641
4880,156.16,9.0552,-1.5114,2.0434,-3.0218,0.1061,-2.6132,rough,14.0,0,3.640
4890,156.48,9.0933,-1.5167,2.0509,-3.0292,0.1334,-2.6707,rough,14.0,0,3.654
4900,156.80,9.0556,-1.5263,2.0478,-3.0473,0.1057,-2.6744,rough,14.0,0,3.654
4910,157.12,9.0790,-1.5169,2.0483,-3.0253,0.1251,-2.6408,rough,14.0,0,3.650
4920,157.44,9.0590,-1.5206,2.0470,-3.0188,0.0735,-2.6696,rough,14.0,0,3.649
4930,157.76,9.0746,-1.5101,2.0452,-3.0331,0.1371,-2.6468,rough,14.0,0,3.643
4940,158.08,9.0653,-1.5161,2.0471,-3.0239,0.1138,-2.6560,rough,14.0,0,3.647
4950,158.40,9.0896,-1.5157,2.0502,-3.0111,0.1600,-2.6567,rough,14.0,0,3.652
4960,158.72,9.0594,-1.5053,2.0495,-3.0661,0.1366,-2.6399,rough,14.0,0,3.635
4970,159.04,9.0693,-1.5232,2.0480,-3.0389,0.1238,-2.6776,rough,14.0,0,3.654
4980,159.36,9.0947,-1.5112,2.0515,-2.9956,0.1651,-2.6048,rough,14.0,0,3.649
4990,159.68,9.0547,-1.5120,2.0429,-3.0251,0.1011,-2.6185,rough,14.0,0,3.640
5000,160.00,9.0726,-1.5188,2.0481,-3.0254,0.1325,-2.6554,rough,14.0,0,3.651
5010,160.32,9.0658,-1.5109,2.0475,-3.0217,0.1114,-2.6463,rough,14.0,0,3.642
5020,160.64,9.0719,-1.5243,2.0445,-3.0257,0.1364,-2.6470,rough,14.0,0,3.656
5030,160.96,9.0761,-1.5147,2.0472,-3.0227,0.1276,-2.6394,rough,14.0,0,3.648
5040,161.28,9.0549,-1.5067,2.0516,-3.0249,0.0927,-2.6409,rough,14.0,0,3.635
5050,161.60,9.0838,-1.5111,2.0479,-3.0095,0.1388,-2.5977,rough,14.0,0,3.646
5060,161.92,9.0698,-1.5208,2.0475,-3.0317,0.1335,-2.6788,rough,14.0,0,3.652
5070,162.24,9.0894,-1.5139,2.0486,-3.0239,0.1490,-2.6473,rough,14.0,0,3.650
5080,162.56,9.0273,-1.5359,2.0555,-3.0472,0.0322,-2.6757,rough,14.0,0,3.657
5090,162.88,9.0635,-1.5346,2.0504,-3.0263,0.0911,-2.6392,rough,14.0,0,3.664
5100,163.20,9.0784,-1.5024,2.0490,-3.0233,0.1486,-2.7216,rough,14.0,0,3.636
5110,163.52,9.0625,-1.5127,2.0474,-3.0400,0.1292,-2.6847,rough,14.0,0,3.643
5120,163.84,9.0767,-1.5070,2.0506,-3.0098,0.1776,-2.7559,rough,14.0,0,3.640
5130,164.16,9.0692,-1.4978,2.0447,-3.0071,0.1223,-2.6764,rough,14.0,0,3.630
5140,164.48,9.0722,-1.5083,2.0518,-3.0332,0.1216,-2.6062,rough,14.0,0,3.641
5150,164.80,9.0681,-1.5104,2.0462,-3.0115,0.1091,-2.6640,rough,14.0,0,3.642
5160,165.12,9.0775,-1.5095,2.0470,-3.0205,0.1449,-2.6579,rough,14.0,0,3.643
5170,165.44,9.0746,-1.5074,2.0472,-3.0210,0.1342,-2.6273,rough,14.0,0,3.640
5180,165.76,9.0671,-1.5156,2.0456,-3.0424,0.1240,-2.6826,rough,14.0,0,3.646
5190,166.08,9.0679,-1.5240,2.0519,-3.0398,0.1228,-2.6109,rough,14.0,0,3.655
5200,166.40,9.0676,-1.5128,2.0477,-3.0264,0.1018,-2.6250,rough,14.0,0,3.644
5210,166.72,9.0768,-1.5013,2.0514,-3.0318,0.1350,-2.6631,rough,14.0,0,3.635
5220,167.04,9.0798,-1.5211,2.0443,-3.0039,0.1239,-2.6668,rough,14.0,0,3.655
5230,167.36,9.0736,-1.5134,2.0474,-3.0224,0.1259,-2.6428,rough,14.0,0,3.646
5240,167.68,9.0713,-1.5141,2.0460,-3.0292,0.1078,-2.6295,rough,14.0,0,3.646
5250,168.00,9.1123,-1.5104,2.0534,-2.9744,0.2089,-2.6763,rough,14.0,0,3.652
5260,168.32,9.0663,-1.5088,2.0476,-3.0134,0.1450,-2.7008,rough,14.0,0,3.640
5270,168.64,9.0776,-1.5017,2.0477,-3.0183,0.1337,-2.7239,rough,14.0,0,3.635
5280,168.96,9.0548,-1.5045,2.0515,-3.0439,0.1207,-2.5953,rough,14.0,0,3.633
5290,169.28,9.0889,-1.5220,2.0509,-2.9987,0.1671,-2.6293,rough,14.0,0,3.658
5300,169.60,9.0378,-1.5476,2.0547,-3.0557,0.0588,-2.6633,rough,14.0,0,3.671
5310,169.92,9.0751,-1.5047,2.0477,-3.0194,0.1324,-2.6383,rough,14.0,0,3.638
5320,170.24,9.0573,-1.5200,2.0500,-3.0128,0.0775,-2.6629,rough,14.0,0,3.649
5330,170.56,9.0757,-1.5039,2.0517,-3.0220,0.1639,-2.7539,rough,14.0,0,3.637
5340,170.88,9.0693,-1.5086,2.0485,-3.0261,0.1362,-2.7036,rough,14.0,0,3.640
5350,171.20,9.0705,-1.5211,2.0476,-3.0126,0.1720,-2.7906,rough,14.0,0,3.653
5360,171.52,9.0923,-1.5176,2.0506,-2.9894,0.1774,-2.6539,rough,14.0,0,3.654
5370,171.84,9.0467,-1.5117,2.0518,-3.0651,0.1154,-2.6683,rough,14.0,0,3.638
5380,172.16,9.0922,-1.5122,2.0495,-2.9985,0.1432,-2.5731,rough,14.0,0,3.649
5390,172.48,9.0762,-1.5164,2.0489,-3.0309,0.1263,-2.6600,rough,14.0,0,3.649
5400,172.80,9.0683,-1.5071,2.0472,-3.0211,0.1303,-2.6746,rough,14.0,0,3.638
5410,173.12,9.0809,-1.5038,2.0501,-3.0159,0.1401,-2.6449,rough,14.0,0,3.638
5420,173.44,9.0402,-1.5163,2.0490,-3.0656,0.0822,-2.6122,rough,14.0,0,3.641
5430,173.76,9.0724,-1.5165,2.0448,-3.0303,0.1370,-2.6823,rough,14.0,0,3.649
5440,174.08,9.0694,-1.5134,2.0465,-3.0116,0.1487,-2.6843,rough,14.0,0,3.645
5450,174.40,9.0701,-1.5300,2.0467,-3.0381,0.1083,-2.6399,rough,14.0,0,3.661
5460,174.72,9.0658,-1.5177,2.0475,-3.0527,0.1096,-2.6899,rough,14.0,0,3.648
5470,175.04,9.0211,-1.4990,2.0555,-3.1224,0.1018,-2.6400,rough,14.0,0,3.620
5480,175.36,9.0778,-1.4995,2.0528,-2.9743,0.2055,-2.7111,rough,14.0,0,3.633
5490,175.68,9.0535,-1.5140,2.0506,-3.0589,0.1209,-2.6670,rough,14.0,0,3.642
5500,176.00,9.0970,-1.5120,2.0551,-3.0240,0.1662,-2.7185,rough,14.0,0,3.650
5510,176.32,9.0627,-1.5194,2.0441,-3.0303,0.0985,-2.6030,rough,14.0,0,3.649
5520,176.64,9.0806,-1.5138,2.0478,-3.0110,0.1433,-2.6394,rough,14.0,0,3.648
5530,176.96,9.0564,-1.5226,2.0439,-3.0122,0.1458,-2.6652,rough,14.0,0,3.651
5540,177.28,9.0806,-1.5054,2.0474,-3.0112,0.1523,-2.6462,rough,14.0,0,3.640
5550,177.60,9.0668,-1.5224,2.0495,-3.0515,0.1319,-2.6293,rough,14.0,0,3.653
5560,177.92,9.0670,-1.5133,2.0491,-3.0174,0.1214,-2.6508,rough,14.0,0,3.644
5570,178.24,9.0774,-1.5128,2.0448,-3.0287,0.1451,-2.6703,rough,14.0,0,3.646
5580,178.56,9.0745,-1.5095,2.0448,-3.0219,0.1368,-2.6669,rough,14.0,0,3.642
5590,178.88,9.0621,-1.5189,2.0488,-3.0261,0.0906,-2.6360,rough,14.0,0,3.649
5600,179.20,9.0719,-1.5148,2.0456,-2.9858,0.1444,-2.5947,rough,14.0,0,3.647
5610,179.52,9.1084,-1.5182,2.0510,-2.9819,0.1614,-2.5290,rough,14.0,0,3.659
5620,179.84,9.0555,-1.4977,2.0463,-3.0403,0.1009,-2.6180,rough,14.0,0,3.626
5630,180.16,9.0802,-1.5220,2.0484,-3.0048,0.1496,-2.6428,rough,14.0,0,3.656
5640,180.48,9.0838,-1.5116,2.0489,-3.0063,0.1471,-2.6220,rough,14.0,0,3.646
5650,180.80,9.0708,-1.5063,2.0468,-3.0205,0.1260,-2.6592,rough,14.0,0,3.638
5660,181.12,9.0684,-1.5165,2.0462,-3.0318,0.1212,-2.6870,rough,14.0,0,3.648
5670,181.44,9.0608,-1.5119,2.0442,-3.0185,0.1120,-2.6135,rough,14.0,0,3.641
5680,181.76,9.0815,-1.5184,2.0467,-3.0056,0.1356,-2.6041,rough,14.0,0,3.653
5690,182.08,9.0484,-1.5081,2.0490,-3.0346,0.0735,-2.6582,rough,14.0,0,3.635
5700,182.40,9.1060,-1.5101,2.0496,-2.9856,0.1682,-2.5958,rough,14.0,0,3.650
5710,182.72,9.0944,-1.5125,2.0528,-2.9723,0.1997,-2.6649,rough,14.0,0,3.650
5720,183.04,9.0512,-1.5191,2.0527,-3.0898,0.1400,-2.6436,rough,14.0,0,3.646
5730,183.36,9.0768,-1.5099,2.0491,-3.0120,0.1466,-2.6745,rough,14.0,0,3.643
5740,183.68,9.0323,-1.5172,2.0590,-3.0655,0.0679,-2.5967,rough,14.0,0,3.640
5750,184.00,9.1041,-1.5138,2.0509,-2.9978,0.1725,-2.6090,rough,14.0,0,3.653
5760,184.32,9.0824,-1.5109,2.0497,-3.0290,0.1279,-2.6589,rough,14.0,0,3.645
5770,184.64,9.0458,-1.5259,2.0504,-3.0424,0.0648,-2.5955,rough,14.0,0,3.652
5780,184.96,9.0972,-1.5187,2.0473,-2.9981,0.1645,-2.6131,rough,14.0,0,3.657
5790,185.28,9.0341,-1.5375,2.0588,-3.1042,0.0844,-2.5767,rough,14.0,0,3.660
5800,185.60,9.0987,-1.5097,2.0529,-2.9852,0.1954,-2.6447,rough,14.0,0,3.648
5810,185.92,9.0698,-1.5164,2.0479,-3.0326,0.1242,-2.6754,rough,14.0,0,3.648
5820,186.24,9.0663,-1.5176,2.0450,-3.0449,0.0925,-2.6203,rough,14.0,0,3.648
5830,186.56,9.0798,-1.5177,2.0435,-3.0525,0.1653,-2.6761,rough,14.0,0,3.651
5840,186.88,9.0655,-1.5131,2.0506,-3.0045,0.1055,-2.6188,rough,14.0,0,3.644
5850,187.20,9.0956,-1.5115,2.0514,-2.9677,0.1884,-2.6312,rough,14.0,0,3.649
5860,187.52,9.0597,-1.5111,2.0533,-3.0349,0.0951,-2.6076,rough,14.0,0,3.640
5870,187.84,9.0750,-1.5147,2.0488,-3.0157,0.1373,-2.6531,rough,14.0,0,3.647
5880,188.16,9.0942,-1.5113,2.0522,-2.9844,0.1819,-2.6450,rough,14.0,0,3.649
5890,188.48,9.0653,-1.5118,2.0461,-3.0369,0.1051,-2.6454,rough,14.0,0,3.642
5900,188.80,9.0854,-1.5119,2.0495,-3.0026,0.1520,-2.6369,rough,14.0,0,3.647
5910,189.12,9.0558,-1.5438,2.0488,-3.0484,0.0753,-2.6284,rough,14.0,0,3.671
5920,189.44,9.0618,-1.5062,2.0426,-3.0542,0.0940,-2.6035,rough,14.0,0,3.636
5930,189.76,9.0690,-1.4995,2.0481,-2.9968,0.1457,-2.5960,rough,14.0,0,3.631
5940,190.08,9.0610,-1.5117,2.0479,-3.0316,0.1205,-2.6738,rough,14.0,0,3.641
5950,190.40,9.0759,-1.5108,2.0495,-3.0420,0.1302,-2.7089,rough,14.0,0,3.644
5960,190.72,9.0457,-1.5166,2.0503,-3.0259,0.0773,-2.6747,rough,14.0,0,3.643
5970,191.04,9.0960,-1.4977,2.0500,-3.0081,0.1560,-2.6221,rough,14.0,0,3.636
5980,191.36,9.0632,-1.5275,2.0482,-3.0416,0.1337,-2.7206,rough,14.0,0,3.657
5990,191.68,9.0564,-1.5519,2.0538,-3.0465,0.0914,-2.6376,rough,14.0,0,3.679
6000,192.00,9.0799,-1.5281,2.0490,-3.0096,0.1554,-2.6355,rough,14.0,0,3.662
6010,192.32,9.0824,-1.4956,2.0501,-3.0051,0.1419,-2.5908,rough,14.0,0,3.631
6020,192.64,9.0183,-1.4994,2.0588,-3.0066,0.0030,-2.6389,rough,14.0,0,3.620
6030,192.96,9.0624,-1.5065,2.0514,-3.0375,0.1161,-2.6121,rough,14.0,0,3.637
6040,193.28,9.1049,-1.5239,2.0545,-2.9788,0.2019,-2.6428,rough,14.0,0,3.663
6050,193.60,9.0725,-1.5079,2.0493,-3.0043,0.1582,-2.6905,rough,14.0,0,3.640
6060,193.92,9.0642,-1.5094,2.0449,-3.0374,0.1024,-2.6335,rough,14.0,0,3.640
6070,194.24,9.0764,-1.5234,2.0473,-3.0336,0.1192,-2.6617,rough,14.0,0,3.656
6080,194.56,9.0702,-1.5069,2.0479,-2.9997,0.1219,-2.6566,rough,14.0,0,3.639
6090,194.88,9.0711,-1.5167,2.0519,-3.0158,0.1235,-2.6280,rough,14.0,0,3.648
6100,195.20,9.0820,-1.5156,2.0498,-2.9966,0.1718,-2.6702,rough,14.0,0,3.650
6110,195.52,9.0668,-1.4999,2.0492,-3.0066,0.1001,-2.6314,rough,14.0,0,3.631
6120,195.84,9.0648,-1.4925,2.0499,-3.0294,0.1319,-2.6608,rough,14.0,0,3.624
6130,196.16,9.0526,-1.5098,2.0536,-3.0640,0.1157,-2.5936,rough,14.0,0,3.638
6140,196.48,9.0851,-1.5119,2.0502,-2.9993,0.1698,-2.6536,rough,14.0,0,3.647
6150,196.80,9.0517,-1.5188,2.0494,-3.0349,0.0824,-2.6695,rough,14.0,0,3.646
6160,197.12,9.0804,-1.5130,2.0475,-3.0194,0.1429,-2.6380,rough,14.0,0,3.647
6170,197.44,9.0649,-1.5088,2.0503,-3.0365,0.1180,-2.6199,rough,14.0,0,3.639
6180,197.76,9.0742,-1.5194,2.0465,-3.0121,0.1268,-2.5936,rough,14.0,0,3.652
6190,198.08,9.0649,-1.5166,2.0434,-3.0433,0.0802,-2.5994,rough,14.0,0,3.647
6200,198.40,9.0453,-1.5221,2.0567,-3.0478,0.0638,-2.5781,rough,14.0,0,3.648
6210,198.72,9.0845,-1.5192,2.0468,-3.0047,0.1206,-2.6092,rough,14.0,0,3.654
6220,199.04,9.0574,-1.5115,2.0538,-3.0559,0.1123,-2.5864,rough,14.0,0,3.640
6230,199.36,9.0880,-1.5131,2.0519,-2.9894,0.1840,-2.7012,rough,14.0,0,3.649
6240,199.68,9.0214,-1.5110,2.0573,-3.1016,0.0942,-2.6628,rough,14.0,0,3.632
6250,200.00,9.1113,-1.5054,2.0505,-2.9753,0.1861,-2.5943,rough,14.0,0,3.647
6260,200.32,9.0728,-1.5150,2.0477,-3.0448,0.1079,-2.6544,rough,14.0,0,3.647
6270,200.64,9.0683,-1.5150,2.0464,-3.0198,0.1157,-2.6667,rough,14.0,0,3.646
6280,200.96,9.0675,-1.5132,2.0474,-3.0313,0.1272,-2.6839,rough,14.0,0,3.644
6290,201.28,9.0603,-1.5026,2.0508,-3.0156,0.0946,-2.6230,rough,14.0,0,3.632
6300,201.60,9.1064,-1.5150,2.0513,-2.9675,0.1725,-2.5232,rough,14.0,0,3.655
6310,201.92,9.0820,-1.5070,2.0478,-3.0318,0.1414,-2.6666,rough,14.0,0,3.642
6320,202.24,9.0711,-1.5262,2.0469,-2.9985,0.0972,-2.6317,rough,14.0,0,3.658
6330,202.56,9.0729,-1.5119,2.0482,-3.0200,0.1360,-2.6633,rough,14.0,0,3.644
6340,202.88,9.0725,-1.5113,2.0462,-3.0378,0.1633,-2.7428,rough,14.0,0,3.644
6350,203.20,9.0679,-1.5083,2.0453,-3.0191,0.1198,-2.6722,rough,14.0,0,3.640
6360,203.52,9.0724,-1.5203,2.0476,-3.0187,0.1062,-2.6322,rough,14.0,0,3.652
6370,203.84,9.1001,-1.5242,2.0517,-2.9818,0.1953,-2.6551,rough,14.0,0,3.663
6380,204.16,9.0814,-1.5040,2.0506,-3.0186,0.1382,-2.6368,rough,14.0,0,3.638
6390,204.48,9.0570,-1.5139,2.0492,-3.0665,0.1307,-2.6596,rough,14.0,0,3.643
6400,204.80,9.0787,-1.5103,2.0471,-3.0291,0.1251,-2.6350,rough,14.0,0,3.644
6410,205.12,9.0327,-1.5305,2.0561,-3.0782,0.0814,-2.6579,rough,14.0,0,3.653
6420,205.44,9.0976,-1.5119,2.0512,-2.9934,0.1670,-2.6404,rough,14.0,0,3.650
6430,205.76,9.0353,-1.5196,2.0504,-3.0414,0.0431,-2.6737,rough,14.0,0,3.643
6440,206.08,9.0881,-1.5119,2.0515,-2.9980,0.1714,-2.6779,rough,14.0,0,3.648
6450,206.40,9.0539,-1.5212,2.0471,-3.0188,0.0951,-2.6885,rough,14.0,0,3.649
6460,206.72,9.0759,-1.5146,2.0456,-3.0093,0.1295,-2.5908,rough,14.0,0,3.648
6470,207.04,9.0731,-1.5218,2.0470,-3.0207,0.1187,-2.6516,rough,14.0,0,3.654
6480,207.36,9.0708,-1.5165,2.0468,-3.0273,0.1230,-2.6440,rough,14.0,0,3.648
6490,207.68,9.0931,-1.5141,2.0507,-3.0413,0.1487,-2.7321,rough,14.0,0,3.651
6500,208.00,9.0750,-1.5183,2.0457,-3.0332,0.0999,-2.5924,rough,14.0,0,3.651
6510,208.32,9.0717,-1.5139,2.0441,-3.0504,0.1393,-2.6752,rough,14.0,0,3.646
6520,208.64,9.0804,-1.5086,2.0500,-3.0002,0.1749,-2.7034,rough,14.0,0,3.643
6530,208.96,9.0748,-1.5146,2.0453,-3.0342,0.1420,-2.6736,rough,14.0,0,3.647
6540,209.28,9.0706,-1.5081,2.0458,-3.0237,0.1374,-2.6737,rough,14.0,0,3.640
6550,209.60,9.0768,-1.5188,2.0458,-3.0342,0.1476,-2.6577,rough,14.0,0,3.652
6560,209.92,9.0698,-1.5071,2.0497,-3.0185,0.1095,-2.6124,rough,14.0,0,3.639
6570,210.24,9.0792,-1.5077,2.0482,-3.0200,0.1250,-2.5910,rough,14.0,0,3.642
6580,210.56,9.0634,-1.5291,2.0467,-2.9981,0.0786,-2.6176,rough,14.0,0,3.659
6590,210.88,9.0704,-1.5203,2.0483,-3.0348,0.1362,-2.6583,rough,14.0,0,3.652
6600,211.20,9.0555,-1.5065,2.0430,-3.0694,0.0752,-2.6561,rough,14.0,0,3.635
6610,211.52,9.0724,-1.5213,2.0497,-3.0288,0.1098,-2.5908,rough,14.0,0,3.653
6620,211.84,9.0869,-1.5110,2.0522,-3.0661,0.1206,-2.7373,rough,14.0,0,3.647
6630,212.16,9.0826,-1.5235,2.0485,-3.0152,0.1345,-2.5970,rough,14.0,0,3.658
6640,212.48,9.0561,-1.5122,2.0494,-3.0299,0.1047,-2.6634,rough,14.0,0,3.641
6650,212.80,9.0737,-1.5129,2.0499,-3.0411,0.1328,-2.7273,rough,14.0,0,3.645
6660,213.12,9.0715,-1.5226,2.0493,-3.0103,0.0961,-2.5873,rough,14.0,0,3.654
6670,213.44,9.0898,-1.5218,2.0444,-3.0009,0.1238,-2.6056,rough,14.0,0,3.658
6680,213.76,9.0661,-1.5278,2.0469,-3.0436,0.1153,-2.6626,rough,14.0,0,3.658
6690,214.08,9.0941,-1.5211,2.0490,-3.0122,0.1417,-2.5929,rough,14.0,0,3.658
6700,214.40,9.0573,-1.5117,2.0450,-3.0481,0.0971,-2.6701,rough,14.0,0,3.641
6710,214.72,9.0674,-1.5068,2.0452,-3.0414,0.1215,-2.6577,rough,14.0,0,3.638
6720,215.04,9.0714,-1.5109,2.0456,-3.0142,0.1234,-2.6848,rough,14.0,0,3.643
6730,215.36,9.0758,-1.5130,2.0486,-3.0184,0.1639,-2.7100,rough,14.0,0,3.646
6740,215.68,9.0643,-1.5151,2.0468,-3.0286,0.1189,-2.6843,rough,14.0,0,3.645
6750,216.00,9.0810,-1.5167,2.0436,-2.9875,0.1305,-2.6293,rough,14.0,0,3.651
6760,216.32,9.0762,-1.5159,2.0438,-3.0136,0.1329,-2.7239,rough,14.0,0,3.649
6770,216.64,9.0762,-1.5093,2.0469,-3.0042,0.1271,-2.5640,rough,14.0,0,3.642
6780,216.96,9.0451,-1.5252,2.0523,-3.0463,0.0554,-2.6190,rough,14.0,0,3.651
6790,217.28,9.0832,-1.5165,2.0441,-3.0424,0.1521,-2.6208,rough,14.0,0,3.651
6800,217.60,9.0714,-1.5175,2.0454,-3.0117,0.1237,-2.6104,rough,14.0,0,3.649
6810,217.92,9.0762,-1.5184,2.0478,-3.0200,0.1241,-2.6138,rough,14.0,0,3.651
6820,218.24,9.0800,-1.5029,2.0525,-3.0038,0.1756,-2.7342,rough,14.0,0,3.637
6830,218.56,9.0755,-1.5314,2.0483,-3.0066,0.1591,-2.6940,rough,14.0,0,3.664
6840,218.88,9.0726,-1.5214,2.0452,-3.0234,0.1236,-2.6759,rough,14.0,0,3.653
6850,219.20,9.0814,-1.5128,2.0504,-2.9989,0.1366,-2.6182,rough,14.0,0,3.647
6860,219.52,9.0781,-1.5029,2.0488,-3.0173,0.1334,-2.6288,rough,14.0,0,3.637
6870,219.84,9.0559,-1.5104,2.0478,-3.0540,0.1094,-2.6600,rough,14.0,0,3.639
6880,220.16,9.0829,-1.5072,2.0504,-3.0102,0.1585,-2.6839,rough,14.0,0,3.642
6890,220.48,9.0882,-1.4939,2.0511,-3.0251,0.1441,-2.6492,rough,14.0,0,3.630
6900,220.80,9.0705,-1.5267,2.0446,-3.0274,0.1288,-2.6660,rough,14.0,0,3.658
6910,221.12,9.0728,-1.5135,2.0455,-3.0149,0.1423,-2.6433,rough,14.0,0,3.646
6920,221.44,9.0743,-1.5051,2.0509,-3.0193,0.1388,-2.6847,rough,14.0,0,3.638
6930,221.76,9.0484,-1.5257,2.0538,-3.0630,0.0963,-2.6172,rough,14.0,0,3.652
6940,222.08,9.1045,-1.5172,2.0533,-3.0054,0.1778,-2.6541,rough,14.0,0,3.657
6950,222.40,9.0631,-1.5247,2.0459,-3.0256,0.0901,-2.6699,rough,14.0,0,3.654
6960,222.72,9.0698,-1.5094,2.0471,-3.0496,0.1122,-2.5837,rough,14.0,0,3.641
6970,223.04,9.1060,-1.5096,2.0548,-3.0125,0.1800,-2.7109,rough,14.0,0,3.650
6980,223.36,9.0352,-1.5086,2.0540,-3.0603,0.0857,-2.6730,rough,14.0,0,3.632
6990,223.68,9.0946,-1.5049,2.0529,-2.9977,0.1883,-2.6870,rough,14.0,0,3.642
7000,224.00,9.0851,-1.5116,2.0493,-3.0202,0.1256,-2.6104,rough,14.0,0,3.647
7010,224.32,9.0664,-1.5116,2.0482,-3.0389,0.1105,-2.6072,rough,14.0,0,3.642
7020,224.64,9.0782,-1.5137,2.0458,-3.0049,0.1151,-2.6485,rough,14.0,0,3.647
7030,224.96,9.0899,-1.5081,2.0516,-3.0083,0.1576,-2.6738,rough,14.0,0,3.644
7040,225.28,9.0822,-1.5138,2.0430,-3.0505,0.1768,-2.6926,rough,14.0,0,3.648
7050,225.60,9.1162,-1.5129,2.0562,-2.9690,0.2127,-2.6435,rough,14.0,0,3.655
7060,225.92,9.0519,-1.5159,2.0503,-3.0119,0.0678,-2.6550,rough,14.0,0,3.643
7070,226.24,9.0955,-1.5133,2.0493,-3.0086,0.1369,-2.6332,rough,14.0,0,3.651
7080,226.56,9.0618,-1.5229,2.0474,-3.0340,0.1166,-2.6765,rough,14.0,0,3.652
7090,226.88,9.0885,-1.5194,2.0475,-3.0132,0.1222,-2.5713,rough,14.0,0,3.655
7100,227.20,9.0536,-1.5225,2.0519,-3.0565,0.1002,-2.6203,rough,14.0,0,3.650
7110,227.52,9.0673,-1.5242,2.0485,-3.0401,0.1257,-2.6552,rough,14.0,0,3.655
7120,227.84,9.0946,-1.5038,2.0546,-2.9962,0.1846,-2.6872,rough,14.0,0,3.641
7130,228.16,9.0782,-1.5309,2.0487,-3.0297,0.1394,-2.6428,rough,14.0,0,3.664
7140,228.48,9.0777,-1.5079,2.0504,-3.0165,0.1604,-2.7551,rough,14.0,0,3.641
7150,228.80,9.0750,-1.5010,2.0509,-3.0266,0.1401,-2.6848,rough,14.0,0,3.634
7160,229.12,9.0490,-1.5108,2.0425,-3.0470,0.0872,-2.6749,rough,14.0,0,3.638
7170,229.44,9.0830,-1.5171,2.0453,-3.0326,0.1277,-2.5856,rough,14.0,0,3.652
7180,229.76,9.0872,-1.5144,2.0507,-3.0136,0.1748,-2.6877,rough,14.0,0,3.650
7190,230.08,9.0741,-1.5130,2.0475,-3.0220,0.1356,-2.6573,rough,14.0,0,3.646
7200,230.40,9.0651,-1.5111,2.0495,-3.0222,0.0900,-2.6067,rough,14.0,0,3.642
7210,230.72,9.0802,-1.5181,2.0440,-3.0263,0.1536,-2.6307,rough,14.0,0,3.652
7220,231.04,9.0703,-1.5159,2.0491,-3.0102,0.1690,-2.7219,rough,14.0,0,3.648
7230,231.36,9.0680,-1.5178,2.0473,-3.0218,0.1163,-2.6718,rough,14.0,0,3.649
7240,231.68,9.0704,-1.5112,2.0477,-3.0122,0.1435,-2.6853,rough,14.0,0,3.643
7250,232.00,9.1015,-1.5134,2.0525,-2.9685,0.2044,-2.6722,rough,14.0,0,3.652
7260,232.32,9.0459,-1.5045,2.0540,-3.0476,0.0963,-2.6238,rough,14.0,0,3.631
7270,232.64,9.0634,-1.5167,2.0501,-3.0453,0.1241,-2.6383,rough,14.0,0,3.647
7280,232.96,9.0769,-1.5117,2.0482,-3.0192,0.1308,-2.6467,rough,14.0,0,3.645
7290,233.28,9.0719,-1.5037,2.0450,-3.0392,0.1405,-2.6580,rough,14.0,0,3.636
7300,233.60,9.0651,-1.5043,2.0522,-3.0405,0.1188,-2.5869,rough,14.0,0,3.635
7310,233.92,9.0588,-1.5168,2.0487,-3.0341,0.1024,-2.6603,rough,14.0,0,3.646
7320,234.24,9.0939,-1.5193,2.0484,-3.0138,0.1266,-2.5695,rough,14.0,0,3.656
7330,234.56,9.0663,-1.5336,2.0507,-3.0463,0.1127,-2.6896,rough,14.0,0,3.664
7340,234.88,9.0356,-1.5255,2.0557,-3.0310,0.0484,-2.6537,rough,14.0,0,3.649
7350,235.20,9.0707,-1.5214,2.0488,-3.0355,0.1189,-2.6303,rough,14.0,0,3.653
7360,235.52,9.0813,-1.5213,2.0443,-3.0280,0.1459,-2.6583,rough,14.0,0,3.655
7370,235.84,9.0748,-1.5097,2.0471,-3.0236,0.1234,-2.6271,rough,14.0,0,3.643
7380,236.16,9.0708,-1.5127,2.0467,-3.0199,0.1274,-2.6565,rough,14.0,0,3.645
7390,236.48,9.0885,-1.5114,2.0523,-2.9982,0.1846,-2.7380,rough,14.0,0,3.647
7400,236.80,9.0853,-1.5174,2.0491,-3.0021,0.1535,-2.6740,rough,14.0,0,3.652
7410,237.12,9.0448,-1.5183,2.0530,-3.1022,0.1468,-2.6553,rough,14.0,0,3.644
7420,237.44,9.0937,-1.5200,2.0509,-2.9833,0.1798,-2.6443,rough,14.0,0,3.657
7430,237.76,9.0713,-1.5097,2.0469,-3.0259,0.1419,-2.7062,rough,14.0,0,3.642
7440,238.08,9.0687,-1.5077,2.0499,-3.0350,0.1393,-2.6810,rough,14.0,0,3.639
7450,238.40,9.0757,-1.5201,2.0468,-3.0200,0.1257,-2.6539,rough,14.0,0,3.653
7460,238.72,9.0748,-1.5222,2.0462,-3.0297,0.1312,-2.6533,rough,14.0,0,3.655
7470,239.04,9.0723,-1.5085,2.0485,-3.0172,0.1402,-2.6748,rough,14.0,0,3.641
7480,239.36,9.1040,-1.5112,2.0529,-2.9671,0.2053,-2.6619,rough,14.0,0,3.651
7490,239.68,9.0351,-1.5287,2.0512,-3.0769,0.0674,-2.6505,rough,14.0,0,3.652
7500,240.00,9.0741,-1.5322,2.0486,-3.0257,0.1107,-2.6209,rough,14.0,0,3.664
7510,240.32,9.1005,-1.4901,2.0563,-2.9502,0.2340,-2.6286,rough,14.0,0,3.629
7520,240.64,9.0672,-1.5293,2.0455,-3.0258,0.1192,-2.6794,rough,14.0,0,3.660
7530,240.96,9.0898,-1.5178,2.0512,-2.9820,0.2009,-2.6696,rough,14.0,0,3.654
7540,241.28,9.0397,-1.5145,2.0534,-3.0743,0.1093,-2.6745,rough,14.0,0,3.639
7550,241.60,9.1216,-1.5097,2.0535,-3.0110,0.1833,-2.6233,rough,14.0,0,3.654
7560,241.92,9.0735,-1.5273,2.0456,-3.0219,0.1150,-2.6708,rough,14.0,0,3.659
7570,242.24,9.0831,-1.5205,2.0484,-3.0114,0.1500,-2.6496,rough,14.0,0,3.655
7580,242.56,9.0524,-1.5194,2.0501,-3.0250,0.0741,-2.6558,rough,14.0,0,3.647
7590,242.88,9.0734,-1.5266,2.0483,-3.0369,0.1291,-2.6342,rough,14.0,0,3.659
7600,243.20,9.0826,-1.5097,2.0495,-3.0112,0.1386,-2.6127,rough,14.0,0,3.644
7610,243.52,9.0293,-1.4969,2.0565,-3.0577,0.0810,-2.6275,rough,14.0,0,3.620
7620,243.84,9.1044,-1.4997,2.0562,-2.9459,0.2426,-2.6859,rough,14.0,0,3.640
7630,244.16,9.0893,-1.5136,2.0510,-2.9882,0.1740,-2.6568,rough,14.0,0,3.650
7640,244.48,9.0532,-1.5033,2.0492,-3.0081,0.0717,-2.6738,rough,14.0,0,3.631
7650,244.80,9.0841,-1.5041,2.0494,-2.9899,0.1731,-2.6379,rough,14.0,0,3.639
7660,245.12,9.0687,-1.5065,2.0465,-3.0468,0.0936,-2.6086,rough,14.0,0,3.638
7670,245.44,9.0709,-1.5296,2.0464,-3.0199,0.1113,-2.6700,rough,14.0,0,3.661
7680,245.76,9.0683,-1.5207,2.0469,-3.0283,0.1264,-2.6551,rough,14.0,0,3.652
7690,246.08,9.0695,-1.5077,2.0478,-3.0110,0.1401,-2.6564,rough,14.0,0,3.639
7700,246.40,9.0628,-1.5092,2.0498,-3.0498,0.1312,-2.6390,rough,14.0,0,3.639
7710,246.72,9.0714,-1.5162,2.0460,-3.0388,0.1124,-2.6297,rough,14.0,0,3.648
7720,247.04,9.0860,-1.5136,2.0532,-3.0123,0.1749,-2.7252,rough,14.0,0,3.649
7730,247.36,9.0708,-1.5111,2.0454,-3.0301,0.1157,-2.6223,rough,14.0,0,3.643
7740,247.68,9.0732,-1.5129,2.0478,-3.0194,0.1675,-2.7252,rough,14.0,0,3.645
7750,248.00,9.0672,-1.5113,2.0456,-3.0421,0.0962,-2.6230,rough,14.0,0,3.642
7760,248.32,9.0748,-1.5225,2.0481,-3.0157,0.1404,-2.6445,rough,14.0,0,3.655
7770,248.64,9.0758,-1.5154,2.0483,-3.0136,0.1265,-2.6272,rough,14.0,0,3.648
7780,248.96,9.0754,-1.5124,2.0463,-3.0217,0.1186,-2.6233,rough,14.0,0,3.645
7790,249.28,9.0880,-1.5082,2.0470,-2.9893,0.1520,-2.6617,rough,14.0,0,3.644
7800,249.60,9.0777,-1.5136,2.0479,-3.0229,0.1248,-2.6276,rough,14.0,0,3.647
7810,249.92,9.0192,-1.5323,2.0590,-3.0582,0.0336,-2.6612,rough,14.0,0,3.652
7820,250.24,9.1112,-1.5073,2.0567,-2.9672,0.2269,-2.6985,rough,14.0,0,3.649
7830,250.56,9.0775,-1.5244,2.0479,-3.0230,0.1015,-2.5656,rough,14.0,0,3.657
7840,250.88,9.0252,-1.5458,2.0543,-3.0402,0.0285,-2.6735,rough,14.0,0,3.667
7850,251.20,9.0719,-1.5333,2.0489,-3.0279,0.1030,-2.5875,rough,14.0,0,3.665
7860,251.52,9.0885,-1.4929,2.0552,-3.0300,0.1488,-2.6726,rough,14.0,0,3.629
7870,251.84,9.0776,-1.5226,2.0481,-3.0272,0.1240,-2.6318,rough,14.0,0,3.656
7880,252.16,9.0447,-1.5037,2.0559,-3.0933,0.1344,-2.6087,rough,14.0,0,3.630
7890,252.48,9.0784,-1.5052,2.0498,-3.0209,0.1324,-2.5870,rough,14.0,0,3.639
7900,252.80,9.0779,-1.5256,2.0466,-3.0421,0.1323,-2.6397,rough,14.0,0,3.659
7910,253.12,9.0635,-1.5083,2.0477,-3.0078,0.1515,-2.7055,rough,14.0,0,3.639
7920,253.44,9.0441,-1.5187,2.0552,-3.0782,0.1115,-2.6269,rough,14.0,0,3.644
7930,253.76,9.1175,-1.5138,2.0543,-2.9736,0.2003,-2.5662,rough,14.0,0,3.657
7940,254.08,9.0213,-1.5224,2.0519,-3.0835,0.0476,-2.6595,rough,14.0,0,3.643
