step,time_s,x,y,z,roll,pitch,yaw,terrain,speed,target_idx,dist_to_target
10,0.32,0.0823,-0.0578,0.2075,0.0000,-0.0811,-0.0002,rough,14.0,0,5.334
20,0.64,0.4627,-0.0606,0.2447,0.0119,-0.1158,-0.1065,rough,14.0,0,5.042
30,0.96,0.8368,-0.1123,0.3023,0.0190,-0.2113,-0.1827,rough,14.0,0,4.732
40,1.28,1.2096,-0.1952,0.3918,0.0362,-0.2731,-0.2565,rough,14.0,0,4.412
50,1.60,1.5658,-0.3039,0.5082,0.0715,-0.3254,-0.3294,rough,14.0,0,4.093
60,1.92,1.8984,-0.4371,0.6438,0.1048,-0.3985,-0.3874,rough,14.0,0,3.778
70,2.24,2.2242,-0.5914,0.7991,0.1364,-0.4286,-0.4635,rough,14.0,0,3.459
80,2.56,2.5509,-0.7706,0.9647,0.1813,-0.4176,-0.5460,rough,14.0,0,3.128
90,2.88,2.8650,-0.9754,1.1259,0.2167,-0.4092,-0.6271,rough,14.0,0,2.790
100,3.20,3.1659,-1.2123,1.2786,0.2331,-0.3620,-0.6984,rough,14.0,0,2.441
110,3.52,3.4588,-1.4687,1.4237,0.2573,-0.3310,-0.7722,rough,14.0,0,2.087
120,3.84,3.7333,-1.7571,1.5493,0.2783,-0.2852,-0.8441,rough,14.0,0,1.724
130,4.16,3.9882,-2.0646,1.6565,0.2841,-0.2468,-0.9193,rough,14.0,0,1.364
140,4.48,4.2210,-2.4051,1.7487,0.3037,-0.1950,-1.0080,rough,14.0,0,1.001
150,4.80,4.3860,-2.7465,1.8094,0.3426,-0.1517,-1.1805,rough,14.0,1,7.578
160,5.12,4.4648,-3.0995,1.8350,0.3423,-0.0563,-1.3868,rough,14.0,1,7.376
170,5.44,4.4724,-3.4891,1.8325,0.3478,0.0196,-1.5760,rough,14.0,1,7.109
180,5.76,4.4121,-3.8946,1.8029,0.3407,0.0842,-1.7420,rough,14.0,1,6.792
190,6.08,4.2937,-4.3025,1.7498,0.3338,0.1344,-1.8702,rough,14.0,1,6.439
200,6.40,4.1565,-4.7148,1.6882,0.3249,0.1556,-1.9301,rough,14.0,1,6.078
210,6.72,4.0006,-5.1123,1.6146,0.3188,0.1564,-1.9867,rough,14.0,1,5.719
220,7.04,3.8071,-5.4955,1.5325,0.3055,0.2044,-2.0604,rough,14.0,1,5.347
230,7.36,3.6011,-5.8682,1.4421,0.2951,0.2234,-2.1195,rough,14.0,1,4.978
240,7.68,3.3708,-6.2201,1.3426,0.2837,0.2435,-2.1817,rough,14.0,1,4.606
250,8.00,3.1234,-6.5595,1.2370,0.2687,0.2569,-2.2422,rough,14.0,1,4.234
260,8.32,2.8552,-6.8836,1.1250,0.2559,0.2707,-2.3024,rough,14.0,1,3.858
270,8.64,2.5642,-7.1856,1.0060,0.2405,0.2806,-2.3627,rough,14.0,1,3.478
280,8.96,2.2628,-7.4764,0.8853,0.2245,0.2901,-2.4263,rough,14.0,1,3.101
290,9.28,1.9391,-7.7386,0.7593,0.2099,0.2985,-2.4857,rough,14.0,1,2.721
300,9.60,1.6072,-7.9880,0.6324,0.1905,0.3056,-2.5579,rough,14.0,1,2.348
310,9.92,1.2526,-8.2039,0.5000,0.1717,0.3103,-2.6211,rough,14.0,1,1.970
320,10.24,0.8924,-8.4006,0.3688,0.1513,0.3224,-2.7082,rough,14.0,1,1.605
330,10.56,0.5170,-8.5597,0.2335,0.1244,0.3224,-2.7895,rough,14.0,1,1.246
340,10.88,0.2415,-8.5534,0.1498,0.1903,0.1876,-2.5790,rough,14.0,1,0.974
350,11.20,0.0543,-8.5034,0.1031,0.1772,0.0929,-2.1011,rough,14.0,2,5.655
360,11.52,-0.1170,-8.6934,0.0755,0.0889,0.0977,-2.3027,rough,14.0,2,5.713
370,11.84,-0.3201,-8.8901,0.0624,0.0089,0.0804,-2.5547,rough,14.0,2,5.771
380,12.16,-0.5902,-9.0142,0.0530,0.0065,-0.0228,-2.7779,rough,14.0,2,5.746
390,12.48,-0.9033,-9.1094,0.0609,0.0149,-0.0248,-2.9447,rough,14.0,2,5.693
400,12.80,-1.2477,-9.1680,0.0704,0.0191,-0.0233,3.0587,rough,14.0,2,5.612
410,13.12,-1.6128,-9.1295,0.0798,0.0232,-0.0225,2.8270,rough,14.0,2,5.454
420,13.44,-1.9786,-8.9956,0.0895,0.0249,-0.0232,2.6554,rough,14.0,2,5.223
430,13.76,-2.3215,-8.7957,0.0992,0.0268,-0.0239,2.5012,rough,14.0,2,4.952
440,14.08,-2.6395,-8.5360,0.1098,0.0292,-0.0260,2.3834,rough,14.0,2,4.643
450,14.40,-2.9250,-8.2375,0.1207,0.0311,-0.0268,2.2750,rough,14.0,2,4.315
460,14.72,-3.1797,-7.9055,0.1318,0.0318,-0.0258,2.1807,rough,14.0,2,3.970
470,15.04,-3.4023,-7.5506,0.1423,0.0341,-0.0239,2.0869,rough,14.0,2,3.615
480,15.36,-3.5962,-7.1715,0.1521,0.0325,-0.0216,2.0163,rough,14.0,2,3.250
490,15.68,-3.7624,-6.7837,0.1545,0.0520,0.0010,1.9535,rough,14.0,2,2.887
500,16.00,-3.9052,-6.3854,0.1675,0.0298,-0.0114,1.8704,rough,14.0,2,2.527
510,16.32,-4.0188,-5.9746,0.1730,0.0246,-0.0065,1.8191,rough,14.0,2,2.167
520,16.64,-4.1084,-5.5525,0.1707,0.0373,0.0158,1.7698,rough,14.0,2,1.815
530,16.96,-4.1824,-5.1543,0.1787,0.0127,-0.0016,1.5888,rough,14.0,2,1.515
540,17.28,-4.1839,-4.7469,0.1797,0.0055,0.0025,1.3931,rough,14.0,2,1.213
550,17.60,-4.1040,-4.3581,0.1800,0.0014,-0.0022,1.2033,rough,14.0,2,0.924
560,17.92,-3.9413,-3.9769,0.1823,-0.0040,-0.0044,1.1384,rough,14.0,3,10.452
570,18.24,-3.7615,-3.5744,0.1873,-0.0062,-0.0161,1.1570,rough,14.0,3,10.015
580,18.56,-3.5889,-3.1664,0.1933,-0.0126,-0.0171,1.1740,rough,14.0,3,9.576
590,18.88,-3.4233,-2.7556,0.2011,-0.0168,-0.0194,1.1896,rough,14.0,3,9.135
600,19.20,-3.2626,-2.3416,0.2095,-0.0199,-0.0173,1.2035,rough,14.0,3,8.693
610,19.52,-3.1060,-1.9257,0.2171,-0.0211,-0.0168,1.2137,rough,14.0,3,8.251
620,19.84,-2.9535,-1.5068,0.2236,-0.0222,-0.0128,1.2233,rough,14.0,3,7.807
630,20.16,-2.8019,-1.0891,0.2279,-0.0168,-0.0058,1.2295,rough,14.0,3,7.364
640,20.48,-2.6530,-0.6716,0.2303,-0.0105,-0.0030,1.2355,rough,14.0,3,6.923
650,20.80,-2.5080,-0.2506,0.2309,-0.0087,-0.0002,1.2441,rough,14.0,3,6.479
660,21.12,-2.3664,0.1735,0.2306,-0.0042,0.0048,1.2517,rough,14.0,3,6.034
670,21.44,-2.2276,0.5973,0.2294,-0.0015,0.0022,1.2574,rough,14.0,3,5.589
680,21.76,-2.0917,1.0207,0.2285,-0.0016,0.0027,1.2684,rough,14.0,3,5.146
690,22.08,-1.9601,1.4471,0.2268,-0.0037,0.0053,1.2798,rough,14.0,3,4.702
700,22.40,-1.8339,1.8758,0.2236,-0.0083,0.0111,1.2909,rough,14.0,3,4.256
710,22.72,-1.7110,2.3066,0.2147,0.0015,0.0251,1.2999,rough,14.0,3,3.809
720,23.04,-1.5971,2.7375,0.2080,-0.0125,0.0253,1.3091,rough,14.0,3,3.364
730,23.36,-1.4840,3.1683,0.1936,-0.0112,0.0253,1.3182,rough,14.0,3,2.920
740,23.68,-1.3736,3.6041,0.1776,-0.0085,0.0436,1.3252,rough,14.0,3,2.472
750,24.00,-1.2661,4.0377,0.1589,-0.0059,0.0474,1.3327,rough,14.0,3,2.026
760,24.32,-1.1623,4.4706,0.1383,-0.0011,0.0452,1.3402,rough,14.0,3,1.583
770,24.64,-1.0622,4.9049,0.1182,0.0032,0.0442,1.3482,rough,14.0,3,1.140
780,24.96,-0.9756,5.3287,0.0997,0.0036,0.0402,1.3095,rough,14.0,0,10.171
790,25.28,-0.8716,5.6906,0.0848,-0.0017,0.0378,1.0813,rough,14.0,0,10.432
800,25.60,-0.7020,5.9903,0.0721,-0.0088,0.0337,0.8059,rough,14.0,0,10.615
810,25.92,-0.4734,6.1806,0.0628,-0.0168,0.0273,0.5245,rough,14.0,0,10.681
820,26.24,-0.2679,6.3166,0.0746,-0.0820,-0.0209,0.3511,rough,14.0,0,10.715
830,26.56,-0.0587,6.3971,0.0902,-0.0594,-0.1563,0.2381,rough,14.0,0,10.702
840,26.88,0.1707,6.4582,0.1378,-0.0488,-0.2370,0.1458,rough,14.0,0,10.669
850,27.20,0.4024,6.4989,0.2014,-0.0416,-0.3508,0.0736,rough,14.0,0,10.621
860,27.52,0.6457,6.5191,0.2888,-0.0325,-0.3428,0.0363,rough,14.0,0,10.555
870,27.84,0.8809,6.5279,0.3742,-0.0278,-0.3493,0.0235,rough,14.0,0,10.485
880,28.16,1.1128,6.5335,0.4588,-0.0251,-0.3504,0.0161,rough,14.0,0,10.419
890,28.48,1.3395,6.5372,0.5421,-0.0234,-0.3553,0.0123,rough,14.0,0,10.357
900,28.80,1.5626,6.5399,0.6248,-0.0223,-0.3553,0.0101,rough,14.0,0,10.299
910,29.12,1.7804,6.5421,0.7063,-0.0214,-0.3595,0.0090,rough,14.0,0,10.247
920,29.44,1.9944,6.5440,0.7867,-0.0208,-0.3610,0.0083,rough,14.0,0,10.200
930,29.76,2.2038,6.5457,0.8661,-0.0202,-0.3633,0.0079,rough,14.0,0,10.157
940,30.08,2.4088,6.5472,0.9442,-0.0198,-0.3664,0.0078,rough,14.0,0,10.120
950,30.40,2.6101,6.5487,1.0213,-0.0192,-0.3664,0.0075,rough,14.0,0,10.087
960,30.72,2.8065,6.5501,1.0971,-0.0185,-0.3700,0.0074,rough,14.0,0,10.059
970,31.04,2.9992,6.5515,1.1719,-0.0180,-0.3709,0.0075,rough,14.0,0,10.034
980,31.36,3.1879,6.5529,1.2454,-0.0174,-0.3724,0.0072,rough,14.0,0,10.014
990,31.68,3.3722,6.5542,1.3175,-0.0169,-0.3756,0.0074,rough,14.0,0,9.998
1000,32.00,3.5530,6.5556,1.3886,-0.0164,-0.3750,0.0082,rough,14.0,0,9.985
1010,32.32,3.7298,6.5571,1.4584,-0.0154,-0.3768,0.0077,rough,14.0,0,9.976
1020,32.64,3.9023,6.5587,1.5267,-0.0155,-0.3794,0.0090,rough,14.0,0,9.971
1030,32.96,4.0707,6.5608,1.5937,-0.0157,-0.3786,0.0124,rough,14.0,0,9.969
1040,33.28,4.2366,6.5633,1.6599,-0.0139,-0.3802,0.0100,rough,14.0,0,9.970
1050,33.60,4.4003,6.5656,1.7252,-0.0144,-0.3823,0.0125,rough,14.0,0,9.973
1060,33.92,4.5612,6.5692,1.7898,-0.0167,-0.3818,0.0212,rough,14.0,0,9.981
1070,34.24,4.7226,6.5750,1.8546,-0.0154,-0.3826,0.0202,rough,14.0,0,9.993
1080,34.56,4.8832,6.5794,1.9192,-0.0148,-0.3843,0.0205,rough,14.0,0,10.007
1090,34.88,5.0372,6.5867,1.9813,-0.0218,-0.3840,0.0411,rough,14.0,0,10.025
1100,35.20,5.1847,6.6007,2.0408,-0.0314,-0.3834,0.0690,rough,14.0,0,10.052
1110,35.52,5.3490,6.6141,2.1072,-0.0178,-0.3855,0.0356,rough,14.0,0,10.082
1120,35.84,5.4964,6.6268,2.1671,-0.0291,-0.3853,0.0660,rough,14.0,0,10.112
1130,36.16,5.6227,6.6520,2.2183,-0.0606,-0.3822,0.1526,rough,14.0,0,10.154
1140,36.48,5.7453,6.6854,2.2680,-0.0823,-0.3791,0.2140,rough,14.0,0,10.204
1150,36.80,5.9145,6.7275,2.3369,-0.0447,-0.3860,0.1148,rough,14.0,0,10.272
1160,37.12,6.0659,6.7610,2.3988,-0.0416,-0.3857,0.1081,rough,14.0,0,10.331
1170,37.44,6.1844,6.7931,2.4471,-0.0723,-0.3816,0.1923,rough,14.0,0,10.384
1180,37.76,6.3212,6.8296,2.5031,-0.0682,-0.3840,0.1838,rough,14.0,0,10.447
1190,38.08,6.4894,6.8681,2.5722,-0.0339,-0.3888,0.0937,rough,14.0,0,10.519
1200,38.40,6.6491,6.8879,2.6377,-0.0175,-0.3890,0.0524,rough,14.0,0,10.574
1210,38.72,6.7763,6.9090,2.6902,-0.0427,-0.3890,0.1200,rough,14.0,0,10.624
1220,39.04,6.9076,6.9414,2.7445,-0.0500,-0.3904,0.1408,rough,14.0,0,10.688
1230,39.36,7.0429,6.9937,2.8007,-0.0560,-0.3895,0.1572,rough,14.0,0,10.773
1240,39.68,7.1851,7.0370,2.8600,-0.0424,-0.3919,0.1210,rough,14.0,0,10.852
1250,40.00,7.3445,7.0602,2.9267,-0.0160,-0.3975,0.0551,rough,14.0,0,10.919
1260,40.32,7.4728,7.0812,2.9808,-0.0382,-0.3983,0.1116,rough,14.0,0,10.976
1270,40.64,7.5730,7.1150,3.0232,-0.0814,-0.3918,0.2259,rough,14.0,0,11.038
1280,40.96,7.6859,7.1521,3.0709,-0.0969,-0.3879,0.2683,rough,14.0,0,11.108
1290,41.28,7.9530,7.1866,3.0714,-0.0178,0.2230,0.0380,rough,14.0,0,11.227
1300,41.60,8.3081,7.1158,2.9625,0.1575,0.4962,-0.3007,rough,14.0,0,11.283
1310,41.92,8.5223,6.8970,2.8811,0.5092,0.4543,-0.4894,rough,14.0,0,11.160
1320,42.24,8.7046,6.7415,2.8051,0.3666,0.1580,-0.6586,rough,14.0,0,11.089
1330,42.56,8.9132,6.4827,2.7477,0.4259,0.1727,-0.8758,rough,14.0,0,10.940
1340,42.88,9.0802,6.1884,2.6680,0.5088,-0.0314,-1.0697,rough,14.0,0,10.749
1350,43.20,9.2451,5.8343,2.5874,0.2713,0.1467,-1.1926,rough,14.0,0,10.512
1360,43.52,9.3403,5.4476,2.5572,0.2933,0.1907,-1.2972,rough,14.0,0,10.221
1370,43.84,9.4192,5.1533,2.5477,0.2495,-0.0777,-1.4494,rough,14.0,0,10.008
1380,44.16,9.4817,4.8580,2.5847,0.1652,-0.1157,-1.4116,rough,14.0,0,9.790
1390,44.48,9.5399,4.5493,2.6504,0.1168,-0.3437,-1.4856,rough,14.0,0,9.563
1400,44.80,9.6350,4.2072,2.7265,-0.2276,-0.4365,-1.5026,rough,14.0,0,9.335
1410,45.12,9.7040,3.8621,2.8493,-0.4331,-0.3681,-1.5425,rough,14.0,0,9.097
1420,45.44,9.7484,3.5180,2.9821,-0.5076,-0.4831,-1.5480,rough,14.0,0,8.852
1430,45.76,9.7653,3.1286,3.1316,-0.5742,-0.5154,-1.6062,rough,14.0,0,8.561
1440,46.08,9.7722,2.7208,3.2848,-0.5906,-0.4508,-1.7293,rough,14.0,0,8.259
1450,46.40,9.8482,2.3728,3.3383,-0.5192,-0.5655,-1.9371,rough,14.0,0,8.057
1460,46.72,10.0478,2.0183,3.2492,-0.7122,-0.4423,-1.8316,rough,14.0,0,7.951
1470,47.04,10.3237,1.6545,3.0245,-0.7138,-0.4124,-1.8509,rough,14.0,0,7.918
1480,47.36,10.6666,1.3880,2.7211,-0.5872,-0.6675,-2.1138,rough,14.0,0,8.022
1490,47.68,11.1070,1.2325,2.3223,-0.3755,-0.6916,-2.2709,rough,14.0,0,8.292
1500,48.00,11.5280,1.0687,2.0854,0.0171,-0.7308,-2.4128,rough,14.0,0,8.557
1510,48.32,11.7154,0.9627,2.0169,-0.2256,-0.4990,-1.8811,rough,14.0,0,8.663
1520,48.64,11.6760,0.7184,2.1558,-0.2817,-0.6311,-1.7121,rough,14.0,0,8.508
1530,48.96,11.6369,0.4639,2.3393,-0.2687,-0.6401,-1.7010,rough,14.0,0,8.353
1540,49.28,11.5962,0.2001,2.5561,-0.2568,-0.7259,-1.7028,rough,14.0,0,8.198
1550,49.60,11.5404,-0.0443,2.7701,-0.1748,-0.7232,-1.7618,rough,14.0,0,8.042
1560,49.92,11.4700,-0.2770,2.9786,-0.1199,-0.7020,-1.8193,rough,14.0,0,7.883
1570,50.24,11.3642,-0.5016,3.1749,0.0979,-0.7373,-1.9556,rough,14.0,0,7.699
1580,50.56,11.2100,-0.7256,3.3430,0.2452,-0.5295,-2.0096,rough,14.0,0,7.473
1590,50.88,11.0421,-0.9850,3.4779,0.2976,-0.4188,-2.0918,rough,14.0,0,7.225
1600,51.20,10.7635,-1.3361,3.4899,0.6175,0.0833,-2.0434,rough,14.0,0,6.849
1610,51.52,10.3979,-1.6730,3.2261,0.6859,0.2994,-1.9522,rough,14.0,0,6.403
1620,51.84,9.9876,-2.0254,2.8180,0.6979,0.4307,-2.0410,rough,14.0,0,5.917
1630,52.16,9.6143,-2.3255,2.5597,0.5289,0.1549,-2.2561,rough,14.0,0,5.487
1640,52.48,9.4081,-2.5004,2.5809,0.5781,-0.3251,-2.6165,rough,14.0,0,5.252
1650,52.80,9.1515,-2.6357,2.6720,0.4284,-0.4952,-2.8574,rough,14.0,0,4.977
1660,53.12,8.8690,-2.6391,2.8040,0.6072,-0.7331,-3.0930,rough,14.0,0,4.698
1670,53.44,8.6427,-2.5399,2.8710,0.6620,-0.5208,2.8971,rough,14.0,0,4.492
1680,53.76,8.4578,-2.2859,2.8115,0.5667,-0.4584,3.0556,rough,14.0,0,4.369
1690,54.08,8.3098,-2.0776,2.7479,0.2457,-0.5980,-2.6518,rough,14.0,0,4.286
1700,54.40,8.3148,-2.0422,2.7623,0.1010,-0.8171,-2.3891,rough,14.0,0,4.302
1710,54.72,8.3266,-2.1030,2.7473,0.1091,-0.6078,-2.4319,rough,14.0,0,4.295
1720,55.04,8.1916,-2.1712,2.8467,0.1767,-0.5844,-2.3630,rough,14.0,0,4.145
1730,55.36,8.0213,-2.3955,2.9497,-0.0762,-0.3217,-2.2646,rough,14.0,0,3.919
1740,55.68,7.6443,-2.6817,2.9530,0.1841,0.0674,-2.4332,rough,14.0,0,3.486
1750,56.00,7.2409,-2.9962,2.8072,0.2461,0.2323,-2.3868,rough,14.0,0,3.034
1760,56.32,6.9206,-3.2628,2.7004,0.2193,0.2546,-2.4784,rough,14.0,0,2.690
1770,56.64,6.5832,-3.4988,2.5859,0.1930,0.2868,-2.5726,rough,14.0,0,2.350
1780,56.96,6.2211,-3.7005,2.4581,0.1655,0.3080,-2.6505,rough,14.0,0,2.008
1790,57.28,5.8475,-3.8715,2.3237,0.1329,0.3206,-2.7323,rough,14.0,0,1.679
1800,57.60,5.4603,-4.0097,2.1831,0.0986,0.3377,-2.8189,rough,14.0,0,1.366
1810,57.92,5.0666,-4.1106,2.0382,0.0643,0.3474,-2.9108,rough,14.0,0,1.090
1820,58.24,4.6655,-4.1736,1.8900,0.0274,0.3538,-3.0069,rough,14.0,0,0.880
1830,58.56,4.2574,-4.2025,1.7387,-0.0017,0.3539,-3.0744,rough,14.0,1,6.475
1840,58.88,3.8411,-4.2317,1.5845,0.0053,0.3553,-3.0532,rough,14.0,1,6.141
1850,59.20,3.4266,-4.2699,1.4295,0.0134,0.3571,-3.0254,rough,14.0,1,5.814
1860,59.52,3.0146,-4.3198,1.2748,0.0243,0.3571,-2.9898,rough,14.0,1,5.491
1870,59.84,2.6065,-4.3846,1.1211,0.0376,0.3550,-2.9455,rough,14.0,1,5.173
1880,60.16,2.2029,-4.4679,0.9693,0.0527,0.3514,-2.8917,rough,14.0,1,4.857
1890,60.48,1.8054,-4.5726,0.8194,0.0723,0.3461,-2.8291,rough,14.0,1,4.542
1900,60.80,1.4163,-4.7025,0.6728,0.0921,0.3399,-2.7568,rough,14.0,1,4.226
1910,61.12,1.0371,-4.8613,0.5290,0.1128,0.3314,-2.6730,rough,14.0,1,3.905
1920,61.44,0.6743,-5.0499,0.3894,0.1375,0.3199,-2.5869,rough,14.0,1,3.582
1930,61.76,0.3323,-5.2714,0.2641,0.1426,0.2828,-2.4988,rough,14.0,1,3.254
1940,62.08,0.0237,-5.5211,0.1681,0.1081,0.1517,-2.4077,rough,14.0,1,2.926
1950,62.40,-0.2657,-5.8053,0.1227,0.0635,0.0469,-2.3198,rough,14.0,1,2.587
1960,62.72,-0.5312,-6.1321,0.0906,-0.0220,0.0246,-2.2148,rough,14.0,1,2.228
1970,63.04,-0.7670,-6.4804,0.0809,-0.0319,0.0182,-2.1182,rough,14.0,1,1.874
1980,63.36,-0.9722,-6.8468,0.0739,-0.0285,0.0167,-2.0064,rough,14.0,1,1.529
1990,63.68,-1.1273,-7.2315,0.0684,-0.0275,0.0118,-1.8875,rough,14.0,1,1.196
2000,64.00,-1.2313,-7.6183,0.0652,-0.0284,0.0090,-1.7189,rough,14.0,1,0.900
2010,64.32,-1.2701,-7.9608,0.0635,-0.0281,-0.0008,-1.7295,rough,14.0,2,4.498
2020,64.64,-1.3207,-8.2290,0.0641,-0.0242,-0.0147,-2.1691,rough,14.0,2,4.718
2030,64.96,-1.5178,-8.4804,0.0706,-0.0162,-0.0264,-2.4699,rough,14.0,2,4.873
2040,65.28,-1.7627,-8.6509,0.0791,-0.0074,-0.0314,-2.7243,rough,14.0,2,4.952
2050,65.60,-2.0476,-8.7551,0.0891,0.0021,-0.0354,-3.0007,rough,14.0,2,4.973
2060,65.92,-2.3707,-8.7975,0.1011,0.0126,-0.0345,2.9762,rough,14.0,2,4.945
2070,66.24,-2.7152,-8.7332,0.1135,0.0206,-0.0334,2.7295,rough,14.0,2,4.829
2080,66.56,-3.0546,-8.5661,0.1265,0.0248,-0.0328,2.5579,rough,14.0,2,4.634
2090,66.88,-3.3641,-8.3351,0.1392,0.0296,-0.0309,2.3916,rough,14.0,2,4.399
2100,67.20,-3.6388,-8.0428,0.1512,0.0334,-0.0281,2.2502,rough,14.0,2,4.121
2110,67.52,-3.8772,-7.7078,0.1611,0.0407,-0.0251,2.1253,rough,14.0,2,3.818
2120,67.84,-4.0769,-7.3377,0.1712,0.0369,-0.0198,2.0285,rough,14.0,2,3.492
2130,68.16,-4.2414,-6.9531,0.1783,0.0351,-0.0136,1.9289,rough,14.0,2,3.165
2140,68.48,-4.3723,-6.5489,0.1807,0.0187,-0.0077,1.8424,rough,14.0,2,2.831
2150,68.80,-4.4641,-6.1322,0.1852,0.0288,-0.0039,1.7597,rough,14.0,2,2.494
2160,69.12,-4.5315,-5.7059,0.1860,0.0250,-0.0015,1.7128,rough,14.0,2,2.166
2170,69.44,-4.5779,-5.2703,0.1853,0.0170,0.0027,1.6614,rough,14.0,2,1.860
2180,69.76,-4.6094,-4.8376,0.1824,0.0035,0.0083,1.5793,rough,14.0,2,1.605
2190,70.08,-4.6074,-4.4537,0.1811,0.0001,0.0074,1.2999,rough,14.0,2,1.423
2200,70.40,-4.4945,-4.0950,0.1773,-0.0035,-0.0064,1.0572,rough,14.0,2,1.224
2210,70.72,-4.2871,-3.7820,0.1798,-0.0067,-0.0062,0.8229,rough,14.0,2,1.018
2220,71.04,-4.0094,-3.5360,0.1827,0.0017,-0.0164,0.5716,rough,14.0,2,0.832
2230,71.36,-3.6811,-3.3387,0.1902,-0.0004,-0.0188,0.5808,rough,14.0,3,9.767
2240,71.68,-3.3457,-3.1033,0.1923,0.0120,-0.0219,0.6896,rough,14.0,3,9.450
2250,72.00,-3.0322,-2.8228,0.2082,-0.0035,-0.0248,0.7802,rough,14.0,3,9.103
2260,72.32,-2.7421,-2.5137,0.2189,-0.0042,-0.0231,0.8582,rough,14.0,3,8.738
2270,72.64,-2.4746,-2.1811,0.2280,-0.0060,-0.0209,0.9326,rough,14.0,3,8.360
2280,72.96,-2.2293,-1.8293,0.2326,-0.0052,-0.0201,0.9991,rough,14.0,3,7.972
2290,73.28,-2.0008,-1.4561,0.2366,-0.0043,-0.0018,1.0484,rough,14.0,3,7.569
2300,73.60,-1.7907,-1.0777,0.2349,0.0043,0.0147,1.0914,rough,14.0,3,7.167
2310,73.92,-1.5975,-0.6846,0.2272,0.0105,0.0251,1.1382,rough,14.0,3,6.756
2320,74.24,-1.4228,-0.2874,0.2238,0.0145,0.0152,1.1739,rough,14.0,3,6.345
2330,74.56,-1.2605,0.1201,0.2193,0.0175,0.0089,1.2064,rough,14.0,3,5.928
2340,74.88,-1.1128,0.5307,0.2170,0.0111,-0.0029,1.2431,rough,14.0,3,5.512
2350,75.20,-0.9752,0.9442,0.2195,0.0149,-0.0054,1.2868,rough,14.0,3,5.096
2360,75.52,-0.8557,1.3657,0.2226,0.0105,-0.0091,1.3321,rough,14.0,3,4.676
2370,75.84,-0.7548,1.7965,0.2215,0.0132,0.0093,1.3719,rough,14.0,3,4.249
2380,76.16,-0.6761,2.2290,0.2217,-0.0017,0.0097,1.4107,rough,14.0,3,3.822
2390,76.48,-0.6106,2.6660,0.2126,-0.0106,0.0209,1.4548,rough,14.0,3,3.392
2400,76.80,-0.5622,3.1054,0.1978,-0.0047,0.0282,1.4910,rough,14.0,3,2.962
2410,77.12,-0.5342,3.5503,0.1795,-0.0018,0.0504,1.5185,rough,14.0,3,2.526
2420,77.44,-0.5130,3.9898,0.1585,0.0029,0.0536,1.5606,rough,14.0,3,2.099
2430,77.76,-0.5691,4.1451,0.1505,-0.0272,0.0430,0.9538,rough,14.0,3,1.935
2440,78.08,-0.5799,4.2369,0.1411,-0.0671,0.0207,0.5519,rough,14.0,3,1.843
2450,78.40,-0.5859,4.3108,0.1420,-0.0500,0.0145,0.2058,rough,14.0,3,1.769
2460,78.72,-0.5893,4.3384,0.1409,-0.0481,0.0131,0.1725,rough,14.0,3,1.742
2470,79.04,-0.5896,4.3622,0.1393,-0.0483,0.0144,0.1373,rough,14.0,3,1.718
2480,79.36,-0.5852,4.3773,0.1389,-0.0489,0.0092,0.0884,rough,14.0,3,1.705
2490,79.68,-0.5821,4.3845,0.1385,-0.0492,0.0075,0.0575,rough,14.0,3,1.698
2500,80.00,-0.5800,4.3890,0.1383,-0.0493,0.0063,0.0367,rough,14.0,3,1.694
2510,80.32,-0.5786,4.3919,0.1382,-0.0494,0.0056,0.0234,rough,14.0,3,1.692
2520,80.64,-0.5777,4.3938,0.1381,-0.0495,0.0051,0.0146,rough,14.0,3,1.690
2530,80.96,-0.5771,4.3950,0.1380,-0.0495,0.0048,0.0091,rough,14.0,3,1.689
2540,81.28,-0.5767,4.3958,0.1380,-0.0495,0.0046,0.0056,rough,14.0,3,1.688
2550,81.60,-0.5764,4.3963,0.1379,-0.0495,0.0045,0.0033,rough,14.0,3,1.688
2560,81.92,-0.5762,4.3966,0.1379,-0.0495,0.0045,0.0019,rough,14.0,3,1.688
2570,82.24,-0.5761,4.3968,0.1379,-0.0495,0.0044,0.0010,rough,14.0,3,1.688
2580,82.56,-0.5761,4.3969,0.1379,-0.0495,0.0044,0.0005,rough,14.0,3,1.687
2590,82.88,-0.5760,4.3970,0.1379,-0.0495,0.0044,0.0001,rough,14.0,3,1.687
2600,83.20,-0.5760,4.3971,0.1379,-0.0496,0.0044,-0.0001,rough,14.0,3,1.687
2610,83.52,-0.5760,4.3971,0.1379,-0.0497,0.0044,-0.0004,rough,14.0,3,1.687
2620,83.84,-0.5759,4.3970,0.1379,-0.0498,0.0044,-0.0011,rough,14.0,3,1.687
2630,84.16,-0.5757,4.3966,0.1379,-0.0499,0.0045,-0.0026,rough,14.0,3,1.688
2640,84.48,-0.5753,4.3955,0.1379,-0.0499,0.0045,-0.0061,rough,14.0,3,1.689
2650,84.80,-0.5745,4.3929,0.1380,-0.0500,0.0041,-0.0141,rough,14.0,3,1.692
2660,85.12,-0.5726,4.3867,0.1383,-0.0502,0.0032,-0.0333,rough,14.0,3,1.698
2670,85.44,-0.5690,4.3716,0.1390,-0.0506,0.0007,-0.0846,rough,14.0,3,1.714
2680,85.76,-0.5706,4.3520,0.1397,-0.0504,0.0015,-0.1093,rough,14.0,3,1.732
2690,86.08,-0.5739,4.3353,0.1408,-0.0505,-0.0003,-0.1063,rough,14.0,3,1.748
2700,86.40,-0.5757,4.3210,0.1416,-0.0506,0.0001,-0.0933,rough,14.0,3,1.762
2710,86.72,-0.5768,4.3092,0.1422,-0.0506,0.0008,-0.0781,rough,14.0,3,1.773
2720,87.04,-0.5775,4.2996,0.1427,-0.0506,0.0015,-0.0643,rough,14.0,3,1.782
2730,87.36,-0.5779,4.2917,0.1431,-0.0507,0.0021,-0.0524,rough,14.0,3,1.790
2740,87.68,-0.5782,4.2854,0.1434,-0.0507,0.0025,-0.0425,rough,14.0,3,1.796
2750,88.00,-0.5783,4.2803,0.1437,-0.0506,0.0029,-0.0342,rough,14.0,3,1.801
2760,88.32,-0.5783,4.2762,0.1439,-0.0506,0.0032,-0.0275,rough,14.0,3,1.805
2770,88.64,-0.5783,4.2729,0.1440,-0.0506,0.0034,-0.0220,rough,14.0,3,1.808
2780,88.96,-0.5782,4.2703,0.1442,-0.0506,0.0036,-0.0176,rough,14.0,3,1.811
2790,89.28,-0.5782,4.2682,0.1443,-0.0506,0.0038,-0.0141,rough,14.0,3,1.813
2800,89.60,-0.5782,4.2665,0.1444,-0.0506,0.0039,-0.0112,rough,14.0,3,1.814
2810,89.92,-0.5781,4.2652,0.1444,-0.0506,0.0040,-0.0089,rough,14.0,3,1.816
2820,90.24,-0.5781,4.2641,0.1445,-0.0506,0.0041,-0.0071,rough,14.0,3,1.817
2830,90.56,-0.5781,4.2634,0.1445,-0.0506,0.0041,-0.0055,rough,14.0,3,1.817
2840,90.88,-0.5780,4.2627,0.1446,-0.0506,0.0042,-0.0044,rough,14.0,3,1.818
2850,91.20,-0.5780,4.2622,0.1446,-0.0506,0.0042,-0.0035,rough,14.0,3,1.819
2860,91.52,-0.5780,4.2618,0.1446,-0.0506,0.0042,-0.0028,rough,14.0,3,1.819
2870,91.84,-0.5780,4.2614,0.1446,-0.0506,0.0042,-0.0023,rough,14.0,3,1.819
2880,92.16,-0.5780,4.2611,0.1446,-0.0506,0.0042,-0.0018,rough,14.0,3,1.820
2890,92.48,-0.5780,4.2609,0.1447,-0.0505,0.0042,-0.0015,rough,14.0,3,1.820
2900,92.80,-0.5780,4.2607,0.1447,-0.0505,0.0042,-0.0012,rough,14.0,3,1.820
2910,93.12,-0.5780,4.2606,0.1447,-0.0505,0.0042,-0.0010,rough,14.0,3,1.820
2920,93.44,-0.5780,4.2605,0.1447,-0.0505,0.0042,-0.0008,rough,14.0,3,1.820
2930,93.76,-0.5780,4.2604,0.1447,-0.0505,0.0042,-0.0007,rough,14.0,3,1.820
2940,94.08,-0.5780,4.2603,0.1447,-0.0505,0.0042,-0.0005,rough,14.0,3,1.820
2950,94.40,-0.5780,4.2602,0.1447,-0.0504,0.0042,-0.0003,rough,14.0,3,1.820
2960,94.72,-0.5780,4.2602,0.1447,-0.0503,0.0041,-0.0002,rough,14.0,3,1.820
2970,95.04,-0.5780,4.2602,0.1447,-0.0503,0.0041,0.0001,rough,14.0,3,1.820
2980,95.36,-0.5779,4.2603,0.1447,-0.0502,0.0041,0.0006,rough,14.0,3,1.820
2990,95.68,-0.5777,4.2607,0.1447,-0.0501,0.0040,0.0020,rough,14.0,3,1.820
3000,96.00,-0.5774,4.2617,0.1447,-0.0500,0.0040,0.0049,rough,14.0,3,1.819
3010,96.32,-0.5766,4.2638,0.1447,-0.0497,0.0038,0.0109,rough,14.0,3,1.817
3020,96.64,-0.5762,4.2679,0.1445,-0.0495,0.0042,0.0203,rough,14.0,3,1.813
3030,96.96,-0.5767,4.2745,0.1441,-0.0494,0.0050,0.0320,rough,14.0,3,1.807
3040,97.28,-0.5775,4.2837,0.1437,-0.0493,0.0053,0.0431,rough,14.0,3,1.798
3050,97.60,-0.5775,4.2965,0.1431,-0.0491,0.0061,0.0627,rough,14.0,3,1.785
3060,97.92,-0.5798,4.3117,0.1422,-0.0491,0.0074,0.0676,rough,14.0,3,1.770
3070,98.24,-0.5820,4.3311,0.1413,-0.0489,0.0084,0.0853,rough,14.0,3,1.750
3080,98.56,-0.5851,4.3539,0.1401,-0.0486,0.0097,0.1006,rough,14.0,3,1.727
3090,98.88,-0.5846,4.3721,0.1392,-0.0488,0.0085,0.0856,rough,14.0,3,1.710
3100,99.20,-0.5835,4.3833,0.1387,-0.0489,0.0076,0.0697,rough,14.0,3,1.699
3110,99.52,-0.5808,4.3885,0.1384,-0.0492,0.0064,0.0437,rough,14.0,3,1.695
3120,99.84,-0.5790,4.3917,0.1382,-0.0493,0.0055,0.0271,rough,14.0,3,1.692
3130,100.16,-0.5779,4.3938,0.1381,-0.0494,0.0050,0.0166,rough,14.0,3,1.690
3140,100.48,-0.5772,4.3951,0.1380,-0.0494,0.0047,0.0101,rough,14.0,3,1.689
3150,100.80,-0.5767,4.3959,0.1380,-0.0495,0.0046,0.0060,rough,14.0,3,1.688
3160,101.12,-0.5764,4.3964,0.1380,-0.0495,0.0045,0.0035,rough,14.0,3,1.688
3170,101.44,-0.5763,4.3967,0.1379,-0.0495,0.0044,0.0020,rough,14.0,3,1.688
3180,101.76,-0.5762,4.3969,0.1379,-0.0495,0.0044,0.0010,rough,14.0,3,1.687
3190,102.08,-0.5761,4.3971,0.1379,-0.0495,0.0043,0.0004,rough,14.0,3,1.687
3200,102.40,-0.5760,4.3972,0.1379,-0.0495,0.0043,0.0001,rough,14.0,3,1.687
3210,102.72,-0.5760,4.3972,0.1379,-0.0496,0.0043,-0.0002,rough,14.0,3,1.687
3220,103.04,-0.5760,4.3972,0.1379,-0.0497,0.0044,-0.0005,rough,14.0,3,1.687
3230,103.36,-0.5759,4.3971,0.1379,-0.0498,0.0044,-0.0012,rough,14.0,3,1.687
3240,103.68,-0.5757,4.3966,0.1379,-0.0499,0.0045,-0.0029,rough,14.0,3,1.688
3250,104.00,-0.5752,4.3954,0.1379,-0.0499,0.0045,-0.0068,rough,14.0,3,1.689
3260,104.32,-0.5743,4.3925,0.1380,-0.0500,0.0041,-0.0157,rough,14.0,3,1.692
3270,104.64,-0.5723,4.3856,0.1384,-0.0502,0.0030,-0.0373,rough,14.0,3,1.699
3280,104.96,-0.5684,4.3685,0.1392,-0.0507,0.0001,-0.0965,rough,14.0,3,1.717
3290,105.28,-0.5710,4.3494,0.1400,-0.0505,0.0005,-0.1112,rough,14.0,3,1.735
3300,105.60,-0.5742,4.3328,0.1410,-0.0505,-0.0004,-0.1055,rough,14.0,3,1.750
3310,105.92,-0.5759,4.3189,0.1417,-0.0506,0.0002,-0.0911,rough,14.0,3,1.764
3320,106.24,-0.5770,4.3075,0.1423,-0.0506,0.0009,-0.0758,rough,14.0,3,1.774
3330,106.56,-0.5776,4.2982,0.1427,-0.0506,0.0016,-0.0622,rough,14.0,3,1.783
3340,106.88,-0.5780,4.2906,0.1431,-0.0507,0.0022,-0.0506,rough,14.0,3,1.791
3350,107.20,-0.5782,4.2845,0.1434,-0.0507,0.0026,-0.0410,rough,14.0,3,1.797
3360,107.52,-0.5783,4.2795,0.1437,-0.0506,0.0029,-0.0331,rough,14.0,3,1.801
3370,107.84,-0.5783,4.2756,0.1439,-0.0506,0.0032,-0.0265,rough,14.0,3,1.805
3380,108.16,-0.5783,4.2724,0.1441,-0.0506,0.0034,-0.0213,rough,14.0,3,1.808
3390,108.48,-0.5782,4.2699,0.1442,-0.0506,0.0036,-0.0170,rough,14.0,3,1.811
3400,108.80,-0.5782,4.2679,0.1443,-0.0506,0.0038,-0.0136,rough,14.0,3,1.813
3410,109.12,-0.5782,4.2663,0.1444,-0.0506,0.0039,-0.0108,rough,14.0,3,1.814
3420,109.44,-0.5781,4.2650,0.1444,-0.0506,0.0040,-0.0086,rough,14.0,3,1.816
3430,109.76,-0.5781,4.2640,0.1445,-0.0506,0.0041,-0.0068,rough,14.0,3,1.817
3440,110.08,-0.5781,4.2632,0.1445,-0.0506,0.0041,-0.0053,rough,14.0,3,1.817
3450,110.40,-0.5780,4.2626,0.1446,-0.0506,0.0042,-0.0042,rough,14.0,3,1.818
3460,110.72,-0.5780,4.2621,0.1446,-0.0506,0.0042,-0.0034,rough,14.0,3,1.819
3470,111.04,-0.5780,4.2617,0.1446,-0.0506,0.0042,-0.0027,rough,14.0,3,1.819
3480,111.36,-0.5780,4.2614,0.1446,-0.0506,0.0042,-0.0022,rough,14.0,3,1.819
3490,111.68,-0.5780,4.2611,0.1446,-0.0506,0.0042,-0.0018,rough,14.0,3,1.820
3500,112.00,-0.5780,4.2609,0.1447,-0.0505,0.0042,-0.0014,rough,14.0,3,1.820
3510,112.32,-0.5780,4.2607,0.1447,-0.0505,0.0042,-0.0012,rough,14.0,3,1.820
3520,112.64,-0.5780,4.2606,0.1447,-0.0505,0.0042,-0.0010,rough,14.0,3,1.820
3530,112.96,-0.5780,4.2604,0.1447,-0.0505,0.0042,-0.0008,rough,14.0,3,1.820
3540,113.28,-0.5780,4.2603,0.1447,-0.0505,0.0042,-0.0007,rough,14.0,3,1.820
3550,113.60,-0.5780,4.2603,0.1447,-0.0505,0.0042,-0.0005,rough,14.0,3,1.820
3560,113.92,-0.5780,4.2602,0.1447,-0.0504,0.0042,-0.0003,rough,14.0,3,1.820
3570,114.24,-0.5780,4.2602,0.1447,-0.0503,0.0041,-0.0002,rough,14.0,3,1.820
3580,114.56,-0.5779,4.2602,0.1447,-0.0502,0.0041,0.0001,rough,14.0,3,1.820
3590,114.88,-0.5779,4.2604,0.1447,-0.0502,0.0041,0.0008,rough,14.0,3,1.820
3600,115.20,-0.5777,4.2608,0.1447,-0.0501,0.0040,0.0023,rough,14.0,3,1.820
3610,115.52,-0.5773,4.2619,0.1447,-0.0500,0.0039,0.0055,rough,14.0,3,1.819
3620,115.84,-0.5765,4.2643,0.1446,-0.0497,0.0038,0.0123,rough,14.0,3,1.817
3630,116.16,-0.5761,4.2688,0.1444,-0.0495,0.0041,0.0229,rough,14.0,3,1.812
3640,116.48,-0.5765,4.2760,0.1441,-0.0494,0.0048,0.0360,rough,14.0,3,1.805
3650,116.80,-0.5773,4.2857,0.1436,-0.0493,0.0055,0.0484,rough,14.0,3,1.796
3660,117.12,-0.5776,4.2971,0.1429,-0.0493,0.0070,0.0524,rough,14.0,3,1.784
3670,117.44,-0.5797,4.3140,0.1422,-0.0489,0.0072,0.0759,rough,14.0,3,1.768
3680,117.76,-0.5822,4.3328,0.1410,-0.0489,0.0092,0.0813,rough,14.0,3,1.749
3690,118.08,-0.5857,4.3566,0.1401,-0.0485,0.0091,0.1073,rough,14.0,3,1.725
3700,118.40,-0.5849,4.3731,0.1392,-0.0487,0.0085,0.0886,rough,14.0,3,1.709
3710,118.72,-0.5833,4.3836,0.1387,-0.0489,0.0075,0.0679,rough,14.0,3,1.699
3720,119.04,-0.5807,4.3887,0.1384,-0.0492,0.0063,0.0425,rough,14.0,3,1.694
3730,119.36,-0.5790,4.3919,0.1382,-0.0493,0.0055,0.0263,rough,14.0,3,1.692
3740,119.68,-0.5779,4.3939,0.1381,-0.0494,0.0050,0.0162,rough,14.0,3,1.690
3750,120.00,-0.5771,4.3951,0.1380,-0.0494,0.0047,0.0098,rough,14.0,3,1.689
3760,120.32,-0.5767,4.3959,0.1380,-0.0495,0.0045,0.0059,rough,14.0,3,1.688
3770,120.64,-0.5764,4.3964,0.1380,-0.0495,0.0044,0.0034,rough,14.0,3,1.688
3780,120.96,-0.5763,4.3967,0.1379,-0.0495,0.0044,0.0019,rough,14.0,3,1.688
3790,121.28,-0.5761,4.3969,0.1379,-0.0495,0.0043,0.0010,rough,14.0,3,1.687
3800,121.60,-0.5761,4.3971,0.1379,-0.0495,0.0043,0.0004,rough,14.0,3,1.687
3810,121.92,-0.5760,4.3971,0.1379,-0.0495,0.0043,0.0000,rough,14.0,3,1.687
3820,122.24,-0.5760,4.3972,0.1379,-0.0496,0.0043,-0.0002,rough,14.0,3,1.687
3830,122.56,-0.5760,4.3972,0.1379,-0.0497,0.0044,-0.0005,rough,14.0,3,1.687
3840,122.88,-0.5759,4.3971,0.1379,-0.0498,0.0044,-0.0013,rough,14.0,3,1.687
3850,123.20,-0.5757,4.3966,0.1379,-0.0499,0.0045,-0.0031,rough,14.0,3,1.688
3860,123.52,-0.5752,4.3953,0.1379,-0.0499,0.0044,-0.0071,rough,14.0,3,1.689
3870,123.84,-0.5742,4.3922,0.1381,-0.0500,0.0040,-0.0165,rough,14.0,3,1.692
3880,124.16,-0.5721,4.3850,0.1384,-0.0502,0.0029,-0.0393,rough,14.0,3,1.700
3890,124.48,-0.5681,4.3668,0.1392,-0.0507,-0.0002,-0.1027,rough,14.0,3,1.719
3900,124.80,-0.5711,4.3493,0.1399,-0.0505,0.0009,-0.1081,rough,14.0,3,1.735
3910,125.12,-0.5742,4.3329,0.1410,-0.0505,-0.0003,-0.1043,rough,14.0,3,1.750
3920,125.44,-0.5759,4.3190,0.1417,-0.0506,0.0002,-0.0909,rough,14.0,3,1.763
3930,125.76,-0.5770,4.3076,0.1423,-0.0506,0.0009,-0.0758,rough,14.0,3,1.774
3940,126.08,-0.5776,4.2982,0.1427,-0.0506,0.0016,-0.0623,rough,14.0,3,1.783
3950,126.40,-0.5780,4.2906,0.1431,-0.0507,0.0021,-0.0507,rough,14.0,3,1.791
3960,126.72,-0.5782,4.2845,0.1434,-0.0507,0.0026,-0.0411,rough,14.0,3,1.797
3970,127.04,-0.5783,4.2796,0.1437,-0.0506,0.0029,-0.0331,rough,14.0,3,1.801
3980,127.36,-0.5783,4.2756,0.1439,-0.0506,0.0032,-0.0266,rough,14.0,3,1.805
3990,127.68,-0.5783,4.2724,0.1441,-0.0506,0.0034,-0.0213,rough,14.0,3,1.808
4000,128.00,-0.5782,4.2699,0.1442,-0.0506,0.0036,-0.0170,rough,14.0,3,1.811
4010,128.32,-0.5782,4.2679,0.1443,-0.0506,0.0038,-0.0136,rough,14.0,3,1.813
4020,128.64,-0.5782,4.2663,0.1444,-0.0506,0.0039,-0.0108,rough,14.0,3,1.814
4030,128.96,-0.5781,4.2650,0.1444,-0.0506,0.0040,-0.0086,rough,14.0,3,1.816
4040,129.28,-0.5781,4.2640,0.1445,-0.0506,0.0041,-0.0068,rough,14.0,3,1.817
4050,129.60,-0.5781,4.2632,0.1445,-0.0506,0.0041,-0.0053,rough,14.0,3,1.817
4060,129.92,-0.5780,4.2626,0.1446,-0.0506,0.0042,-0.0042,rough,14.0,3,1.818
4070,130.24,-0.5780,4.2621,0.1446,-0.0506,0.0042,-0.0034,rough,14.0,3,1.819
4080,130.56,-0.5780,4.2617,0.1446,-0.0506,0.0042,-0.0027,rough,14.0,3,1.819
4090,130.88,-0.5780,4.2614,0.1446,-0.0506,0.0042,-0.0022,rough,14.0,3,1.819
4100,131.20,-0.5780,4.2611,0.1446,-0.0506,0.0042,-0.0018,rough,14.0,3,1.820
4110,131.52,-0.5780,4.2609,0.1447,-0.0505,0.0042,-0.0014,rough,14.0,3,1.820
4120,131.84,-0.5780,4.2607,0.1447,-0.0505,0.0042,-0.0012,rough,14.0,3,1.820
4130,132.16,-0.5780,4.2606,0.1447,-0.0505,0.0042,-0.0010,rough,14.0,3,1.820
4140,132.48,-0.5780,4.2604,0.1447,-0.0505,0.0042,-0.0008,rough,14.0,3,1.820
4150,132.80,-0.5780,4.2603,0.1447,-0.0505,0.0042,-0.0007,rough,14.0,3,1.820
4160,133.12,-0.5780,4.2603,0.1447,-0.0505,0.0042,-0.0005,rough,14.0,3,1.820
4170,133.44,-0.5780,4.2602,0.1447,-0.0504,0.0042,-0.0003,rough,14.0,3,1.820
4180,133.76,-0.5780,4.2602,0.1447,-0.0503,0.0041,-0.0002,rough,14.0,3,1.820
4190,134.08,-0.5779,4.2602,0.1447,-0.0502,0.0041,0.0001,rough,14.0,3,1.820
4200,134.40,-0.5779,4.2604,0.1447,-0.0502,0.0041,0.0008,rough,14.0,3,1.820
4210,134.72,-0.5777,4.2608,0.1447,-0.0501,0.0040,0.0023,rough,14.0,3,1.820
4220,135.04,-0.5773,4.2619,0.1447,-0.0500,0.0039,0.0055,rough,14.0,3,1.819
4230,135.36,-0.5765,4.2643,0.1446,-0.0497,0.0038,0.0123,rough,14.0,3,1.817
4240,135.68,-0.5761,4.2688,0.1444,-0.0495,0.0041,0.0228,rough,14.0,3,1.812
4250,136.00,-0.5765,4.2759,0.1441,-0.0494,0.0048,0.0359,rough,14.0,3,1.805
4260,136.32,-0.5773,4.2856,0.1436,-0.0493,0.0055,0.0482,rough,14.0,3,1.796
4270,136.64,-0.5776,4.2970,0.1429,-0.0493,0.0069,0.0523,rough,14.0,3,1.785
4280,136.96,-0.5796,4.3138,0.1422,-0.0489,0.0072,0.0757,rough,14.0,3,1.768
4290,137.28,-0.5821,4.3326,0.1410,-0.0489,0.0091,0.0811,rough,14.0,3,1.749
4300,137.60,-0.5857,4.3564,0.1401,-0.0485,0.0091,0.1074,rough,14.0,3,1.725
4310,137.92,-0.5849,4.3729,0.1392,-0.0487,0.0085,0.0890,rough,14.0,3,1.709
4320,138.24,-0.5834,4.3836,0.1387,-0.0489,0.0075,0.0685,rough,14.0,3,1.699
4330,138.56,-0.5807,4.3887,0.1384,-0.0492,0.0063,0.0429,rough,14.0,3,1.694
4340,138.88,-0.5790,4.3919,0.1382,-0.0493,0.0055,0.0266,rough,14.0,3,1.692
4350,139.20,-0.5779,4.3939,0.1381,-0.0494,0.0050,0.0163,rough,14.0,3,1.690
4360,139.52,-0.5772,4.3952,0.1380,-0.0494,0.0047,0.0099,rough,14.0,3,1.689
4370,139.84,-0.5767,4.3960,0.1380,-0.0495,0.0045,0.0059,rough,14.0,3,1.688
4380,140.16,-0.5764,4.3965,0.1380,-0.0495,0.0044,0.0035,rough,14.0,3,1.688
4390,140.48,-0.5763,4.3968,0.1379,-0.0495,0.0044,0.0019,rough,14.0,3,1.688
4400,140.80,-0.5762,4.3970,0.1379,-0.0495,0.0043,0.0010,rough,14.0,3,1.687
4410,141.12,-0.5761,4.3971,0.1379,-0.0495,0.0043,0.0004,rough,14.0,3,1.687
4420,141.44,-0.5760,4.3972,0.1379,-0.0495,0.0043,0.0001,rough,14.0,3,1.687
4430,141.76,-0.5760,4.3973,0.1379,-0.0496,0.0043,-0.0002,rough,14.0,3,1.687
4440,142.08,-0.5760,4.3973,0.1379,-0.0497,0.0044,-0.0005,rough,14.0,3,1.687
4450,142.40,-0.5759,4.3971,0.1379,-0.0498,0.0044,-0.0013,rough,14.0,3,1.687
4460,142.72,-0.5757,4.3967,0.1379,-0.0499,0.0045,-0.0030,rough,14.0,3,1.688
4470,143.04,-0.5752,4.3954,0.1379,-0.0499,0.0044,-0.0071,rough,14.0,3,1.689
4480,143.36,-0.5742,4.3924,0.1381,-0.0500,0.0040,-0.0163,rough,14.0,3,1.692
4490,143.68,-0.5721,4.3852,0.1384,-0.0502,0.0029,-0.0388,rough,14.0,3,1.700
4500,144.00,-0.5682,4.3673,0.1392,-0.0507,-0.0001,-0.1012,rough,14.0,3,1.718
4510,144.32,-0.5711,4.3498,0.1399,-0.0505,0.0011,-0.1076,rough,14.0,3,1.734
4520,144.64,-0.5742,4.3335,0.1409,-0.0505,-0.0003,-0.1043,rough,14.0,3,1.750
4530,144.96,-0.5759,4.3195,0.1417,-0.0506,0.0002,-0.0913,rough,14.0,3,1.763
4540,145.28,-0.5769,4.3079,0.1422,-0.0506,0.0009,-0.0763,rough,14.0,3,1.774
4550,145.60,-0.5776,4.2985,0.1427,-0.0506,0.0016,-0.0627,rough,14.0,3,1.783
4560,145.92,-0.5780,4.2909,0.1431,-0.0507,0.0021,-0.0511,rough,14.0,3,1.790
4570,146.24,-0.5782,4.2847,0.1434,-0.0507,0.0026,-0.0414,rough,14.0,3,1.796
4580,146.56,-0.5783,4.2797,0.1437,-0.0506,0.0029,-0.0334,rough,14.0,3,1.801
4590,146.88,-0.5783,4.2757,0.1439,-0.0506,0.0032,-0.0268,rough,14.0,3,1.805
4600,147.20,-0.5783,4.2725,0.1441,-0.0506,0.0034,-0.0215,rough,14.0,3,1.808
4610,147.52,-0.5782,4.2700,0.1442,-0.0506,0.0036,-0.0171,rough,14.0,3,1.811
4620,147.84,-0.5782,4.2680,0.1443,-0.0506,0.0038,-0.0137,rough,14.0,3,1.813
4630,148.16,-0.5782,4.2663,0.1444,-0.0506,0.0039,-0.0109,rough,14.0,3,1.814
4640,148.48,-0.5781,4.2651,0.1444,-0.0506,0.0040,-0.0087,rough,14.0,3,1.816
4650,148.80,-0.5781,4.2640,0.1445,-0.0506,0.0041,-0.0069,rough,14.0,3,1.817
4660,149.12,-0.5781,4.2633,0.1445,-0.0506,0.0041,-0.0053,rough,14.0,3,1.817
4670,149.44,-0.5780,4.2626,0.1446,-0.0506,0.0042,-0.0042,rough,14.0,3,1.818
4680,149.76,-0.5780,4.2621,0.1446,-0.0506,0.0042,-0.0034,rough,14.0,3,1.819
4690,150.08,-0.5780,4.2617,0.1446,-0.0506,0.0042,-0.0027,rough,14.0,3,1.819
4700,150.40,-0.5780,4.2614,0.1446,-0.0506,0.0042,-0.0022,rough,14.0,3,1.819
4710,150.72,-0.5780,4.2611,0.1446,-0.0506,0.0042,-0.0018,rough,14.0,3,1.820
4720,151.04,-0.5780,4.2609,0.1447,-0.0505,0.0042,-0.0015,rough,14.0,3,1.820
4730,151.36,-0.5780,4.2607,0.1447,-0.0505,0.0042,-0.0012,rough,14.0,3,1.820
4740,151.68,-0.5780,4.2606,0.1447,-0.0505,0.0042,-0.0010,rough,14.0,3,1.820
4750,152.00,-0.5780,4.2604,0.1447,-0.0505,0.0042,-0.0008,rough,14.0,3,1.820
4760,152.32,-0.5780,4.2603,0.1447,-0.0505,0.0042,-0.0007,rough,14.0,3,1.820
4770,152.64,-0.5780,4.2603,0.1447,-0.0505,0.0042,-0.0005,rough,14.0,3,1.820
4780,152.96,-0.5780,4.2602,0.1447,-0.0504,0.0042,-0.0003,rough,14.0,3,1.820
4790,153.28,-0.5780,4.2602,0.1447,-0.0503,0.0041,-0.0002,rough,14.0,3,1.820
4800,153.60,-0.5779,4.2602,0.1447,-0.0503,0.0041,0.0001,rough,14.0,3,1.820
4810,153.92,-0.5779,4.2604,0.1447,-0.0502,0.0041,0.0008,rough,14.0,3,1.820
4820,154.24,-0.5777,4.2608,0.1447,-0.0501,0.0040,0.0022,rough,14.0,3,1.820
4830,154.56,-0.5773,4.2619,0.1447,-0.0500,0.0040,0.0054,rough,14.0,3,1.819
4840,154.88,-0.5765,4.2642,0.1446,-0.0497,0.0038,0.0120,rough,14.0,3,1.817
4850,155.20,-0.5761,4.2686,0.1445,-0.0495,0.0041,0.0223,rough,14.0,3,1.813
4860,155.52,-0.5765,4.2756,0.1441,-0.0494,0.0048,0.0352,rough,14.0,3,1.806
4870,155.84,-0.5778,4.2849,0.1430,-0.0494,0.0093,0.0389,rough,14.0,3,1.796
4880,156.16,-0.5781,4.2981,0.1430,-0.0491,0.0063,0.0576,rough,14.0,3,1.783
4890,156.48,-0.5794,4.3142,0.1421,-0.0490,0.0076,0.0676,rough,14.0,3,1.767
4900,156.80,-0.5820,4.3332,0.1412,-0.0489,0.0083,0.0843,rough,14.0,3,1.748
4910,157.12,-0.5851,4.3557,0.1400,-0.0487,0.0098,0.0989,rough,14.0,3,1.726
4920,157.44,-0.5844,4.3734,0.1391,-0.0488,0.0085,0.0831,rough,14.0,3,1.709
4930,157.76,-0.5832,4.3838,0.1387,-0.0489,0.0074,0.0660,rough,14.0,3,1.699
4940,158.08,-0.5806,4.3887,0.1384,-0.0492,0.0062,0.0413,rough,14.0,3,1.694
4950,158.40,-0.5789,4.3919,0.1382,-0.0493,0.0054,0.0256,rough,14.0,3,1.692
4960,158.72,-0.5778,4.3938,0.1381,-0.0494,0.0050,0.0157,rough,14.0,3,1.690
4970,159.04,-0.5771,4.3950,0.1380,-0.0494,0.0047,0.0095,rough,14.0,3,1.689
4980,159.36,-0.5767,4.3958,0.1380,-0.0495,0.0045,0.0057,rough,14.0,3,1.688
4990,159.68,-0.5764,4.3963,0.1380,-0.0495,0.0044,0.0033,rough,14.0,3,1.688
5000,160.00,-0.5762,4.3966,0.1379,-0.0495,0.0044,0.0018,rough,14.0,3,1.688
5010,160.32,-0.5761,4.3968,0.1379,-0.0495,0.0043,0.0009,rough,14.0,3,1.688
5020,160.64,-0.5761,4.3969,0.1379,-0.0495,0.0043,0.0004,rough,14.0,3,1.687
5030,160.96,-0.5760,4.3970,0.1379,-0.0495,0.0043,0.0000,rough,14.0,3,1.687
5040,161.28,-0.5760,4.3970,0.1379,-0.0496,0.0043,-0.0002,rough,14.0,3,1.687
5050,161.60,-0.5760,4.3970,0.1379,-0.0497,0.0044,-0.0005,rough,14.0,3,1.687
5060,161.92,-0.5759,4.3969,0.1379,-0.0498,0.0044,-0.0013,rough,14.0,3,1.687
5070,162.24,-0.5757,4.3964,0.1379,-0.0499,0.0045,-0.0032,rough,14.0,3,1.688
5080,162.56,-0.5752,4.3950,0.1379,-0.0500,0.0044,-0.0074,rough,14.0,3,1.689
5090,162.88,-0.5741,4.3918,0.1381,-0.0501,0.0040,-0.0172,rough,14.0,3,1.693
5100,163.20,-0.5719,4.3842,0.1384,-0.0503,0.0028,-0.0411,rough,14.0,3,1.701
5110,163.52,-0.5679,4.3652,0.1393,-0.0507,-0.0004,-0.1083,rough,14.0,3,1.720
5120,163.84,-0.5715,4.3471,0.1401,-0.0505,0.0001,-0.1117,rough,14.0,3,1.737
5130,164.16,-0.5745,4.3309,0.1411,-0.0505,-0.0004,-0.1041,rough,14.0,3,1.752
5140,164.48,-0.5761,4.3173,0.1418,-0.0506,0.0003,-0.0891,rough,14.0,3,1.765
5150,164.80,-0.5771,4.3062,0.1423,-0.0506,0.0010,-0.0739,rough,14.0,3,1.776
5160,165.12,-0.5777,4.2971,0.1428,-0.0507,0.0017,-0.0606,rough,14.0,3,1.784
5170,165.44,-0.5780,4.2897,0.1432,-0.0507,0.0022,-0.0493,rough,14.0,3,1.792
5180,165.76,-0.5782,4.2838,0.1435,-0.0507,0.0026,-0.0399,rough,14.0,3,1.797
5190,166.08,-0.5783,4.2790,0.1437,-0.0506,0.0030,-0.0321,rough,14.0,3,1.802
5200,166.40,-0.5783,4.2751,0.1439,-0.0506,0.0032,-0.0258,rough,14.0,3,1.806
5210,166.72,-0.5783,4.2721,0.1441,-0.0506,0.0035,-0.0207,rough,14.0,3,1.809
5220,167.04,-0.5782,4.2696,0.1442,-0.0506,0.0037,-0.0165,rough,14.0,3,1.811
5230,167.36,-0.5782,4.2677,0.1443,-0.0506,0.0038,-0.0132,rough,14.0,3,1.813
5240,167.68,-0.5782,4.2661,0.1444,-0.0506,0.0039,-0.0105,rough,14.0,3,1.815
5250,168.00,-0.5781,4.2649,0.1444,-0.0506,0.0040,-0.0083,rough,14.0,3,1.816
5260,168.32,-0.5781,4.2639,0.1445,-0.0506,0.0041,-0.0066,rough,14.0,3,1.817
5270,168.64,-0.5780,4.2632,0.1445,-0.0506,0.0042,-0.0051,rough,14.0,3,1.818
5280,168.96,-0.5780,4.2625,0.1446,-0.0506,0.0042,-0.0041,rough,14.0,3,1.818
5290,169.28,-0.5780,4.2621,0.1446,-0.0506,0.0042,-0.0033,rough,14.0,3,1.819
5300,169.60,-0.5780,4.2617,0.1446,-0.0506,0.0042,-0.0026,rough,14.0,3,1.819
5310,169.92,-0.5780,4.2613,0.1446,-0.0506,0.0042,-0.0021,rough,14.0,3,1.819
5320,170.24,-0.5780,4.2611,0.1446,-0.0505,0.0042,-0.0017,rough,14.0,3,1.820
5330,170.56,-0.5780,4.2609,0.1447,-0.0505,0.0042,-0.0014,rough,14.0,3,1.820
5340,170.88,-0.5780,4.2607,0.1447,-0.0505,0.0042,-0.0011,rough,14.0,3,1.820
5350,171.20,-0.5780,4.2605,0.1447,-0.0505,0.0042,-0.0009,rough,14.0,3,1.820
5360,171.52,-0.5780,4.2604,0.1447,-0.0505,0.0042,-0.0008,rough,14.0,3,1.820
5370,171.84,-0.5780,4.2603,0.1447,-0.0505,0.0042,-0.0006,rough,14.0,3,1.820
5380,172.16,-0.5780,4.2603,0.1447,-0.0505,0.0042,-0.0005,rough,14.0,3,1.820
5390,172.48,-0.5780,4.2602,0.1447,-0.0504,0.0041,-0.0003,rough,14.0,3,1.820
5400,172.80,-0.5780,4.2602,0.1447,-0.0503,0.0041,-0.0001,rough,14.0,3,1.820
5410,173.12,-0.5779,4.2602,0.1447,-0.0502,0.0041,0.0002,rough,14.0,3,1.820
5420,173.44,-0.5779,4.2604,0.1447,-0.0502,0.0041,0.0009,rough,14.0,3,1.820
5430,173.76,-0.5777,4.2609,0.1447,-0.0501,0.0040,0.0026,rough,14.0,3,1.820
5440,174.08,-0.5772,4.2621,0.1447,-0.0499,0.0039,0.0062,rough,14.0,3,1.819
5450,174.40,-0.5763,4.2648,0.1446,-0.0496,0.0038,0.0137,rough,14.0,3,1.816
5460,174.72,-0.5760,4.2698,0.1444,-0.0495,0.0041,0.0254,rough,14.0,3,1.812
5470,175.04,-0.5771,4.2769,0.1440,-0.0494,0.0050,0.0343,rough,14.0,3,1.804
5480,175.36,-0.5769,4.2868,0.1434,-0.0494,0.0065,0.0437,rough,14.0,3,1.795
5490,175.68,-0.5784,4.3011,0.1428,-0.0491,0.0066,0.0647,rough,14.0,3,1.780
5500,176.00,-0.5803,4.3180,0.1420,-0.0489,0.0072,0.0826,rough,14.0,3,1.763
5510,176.32,-0.5828,4.3373,0.1409,-0.0488,0.0088,0.0890,rough,14.0,3,1.744
5520,176.64,-0.5858,4.3605,0.1394,-0.0486,0.0116,0.0982,rough,14.0,3,1.721
5530,176.96,-0.5847,4.3760,0.1391,-0.0487,0.0083,0.0844,rough,14.0,3,1.706
5540,177.28,-0.5826,4.3849,0.1386,-0.0490,0.0072,0.0607,rough,14.0,3,1.698
5550,177.60,-0.5802,4.3894,0.1383,-0.0492,0.0061,0.0379,rough,14.0,3,1.694
5560,177.92,-0.5786,4.3923,0.1382,-0.0494,0.0054,0.0234,rough,14.0,3,1.691
5570,178.24,-0.5776,4.3941,0.1381,-0.0494,0.0049,0.0143,rough,14.0,3,1.690
5580,178.56,-0.5770,4.3952,0.1380,-0.0494,0.0047,0.0087,rough,14.0,3,1.689
5590,178.88,-0.5766,4.3959,0.1380,-0.0495,0.0045,0.0052,rough,14.0,3,1.688
5600,179.20,-0.5764,4.3963,0.1380,-0.0495,0.0044,0.0030,rough,14.0,3,1.688
5610,179.52,-0.5762,4.3966,0.1379,-0.0495,0.0044,0.0016,rough,14.0,3,1.688
5620,179.84,-0.5761,4.3968,0.1379,-0.0495,0.0043,0.0008,rough,14.0,3,1.688
5630,180.16,-0.5761,4.3969,0.1379,-0.0495,0.0043,0.0003,rough,14.0,3,1.687
5640,180.48,-0.5760,4.3970,0.1379,-0.0495,0.0043,-0.0000,rough,14.0,3,1.687
5650,180.80,-0.5760,4.3970,0.1379,-0.0496,0.0044,-0.0002,rough,14.0,3,1.687
5660,181.12,-0.5760,4.3970,0.1379,-0.0498,0.0044,-0.0006,rough,14.0,3,1.687
5670,181.44,-0.5758,4.3968,0.1379,-0.0498,0.0044,-0.0016,rough,14.0,3,1.688
5680,181.76,-0.5756,4.3962,0.1379,-0.0499,0.0045,-0.0037,rough,14.0,3,1.688
5690,182.08,-0.5750,4.3946,0.1380,-0.0500,0.0044,-0.0086,rough,14.0,3,1.690
5700,182.40,-0.5739,4.3909,0.1381,-0.0501,0.0039,-0.0200,rough,14.0,3,1.694
5710,182.72,-0.5714,4.3820,0.1385,-0.0503,0.0025,-0.0482,rough,14.0,3,1.703
5720,183.04,-0.5688,4.3617,0.1404,-0.0503,-0.0072,-0.1132,rough,14.0,3,1.723
5730,183.36,-0.5722,4.3446,0.1403,-0.0505,0.0001,-0.1101,rough,14.0,3,1.739
5740,183.68,-0.5748,4.3287,0.1412,-0.0505,-0.0002,-0.1015,rough,14.0,3,1.754
5750,184.00,-0.5762,4.3156,0.1419,-0.0506,0.0004,-0.0867,rough,14.0,3,1.767
5760,184.32,-0.5772,4.3048,0.1424,-0.0506,0.0011,-0.0718,rough,14.0,3,1.777
5770,184.64,-0.5777,4.2959,0.1429,-0.0507,0.0018,-0.0588,rough,14.0,3,1.786
5780,184.96,-0.5780,4.2888,0.1432,-0.0507,0.0023,-0.0478,rough,14.0,3,1.793
5790,185.28,-0.5782,4.2830,0.1435,-0.0507,0.0027,-0.0387,rough,14.0,3,1.798
5800,185.60,-0.5783,4.2784,0.1438,-0.0506,0.0030,-0.0311,rough,14.0,3,1.803
5810,185.92,-0.5783,4.2746,0.1439,-0.0506,0.0033,-0.0250,rough,14.0,3,1.806
5820,186.24,-0.5783,4.2717,0.1441,-0.0506,0.0035,-0.0200,rough,14.0,3,1.809
5830,186.56,-0.5782,4.2693,0.1442,-0.0506,0.0037,-0.0160,rough,14.0,3,1.812
5840,186.88,-0.5782,4.2674,0.1443,-0.0506,0.0038,-0.0127,rough,14.0,3,1.813
5850,187.20,-0.5782,4.2659,0.1444,-0.0506,0.0039,-0.0101,rough,14.0,3,1.815
5860,187.52,-0.5781,4.2647,0.1445,-0.0506,0.0040,-0.0081,rough,14.0,3,1.816
5870,187.84,-0.5781,4.2638,0.1445,-0.0506,0.0041,-0.0063,rough,14.0,3,1.817
5880,188.16,-0.5780,4.2631,0.1445,-0.0506,0.0042,-0.0050,rough,14.0,3,1.818
5890,188.48,-0.5780,4.2625,0.1446,-0.0506,0.0042,-0.0040,rough,14.0,3,1.818
5900,188.80,-0.5780,4.2620,0.1446,-0.0506,0.0042,-0.0032,rough,14.0,3,1.819
5910,189.12,-0.5780,4.2616,0.1446,-0.0506,0.0042,-0.0026,rough,14.0,3,1.819
5920,189.44,-0.5780,4.2613,0.1446,-0.0506,0.0042,-0.0021,rough,14.0,3,1.819
5930,189.76,-0.5780,4.2610,0.1447,-0.0505,0.0042,-0.0017,rough,14.0,3,1.820
5940,190.08,-0.5780,4.2608,0.1447,-0.0505,0.0042,-0.0014,rough,14.0,3,1.820
5950,190.40,-0.5780,4.2607,0.1447,-0.0505,0.0042,-0.0011,rough,14.0,3,1.820
5960,190.72,-0.5780,4.2605,0.1447,-0.0505,0.0042,-0.0009,rough,14.0,3,1.820
5970,191.04,-0.5780,4.2604,0.1447,-0.0505,0.0042,-0.0007,rough,14.0,3,1.820
5980,191.36,-0.5780,4.2603,0.1447,-0.0505,0.0042,-0.0006,rough,14.0,3,1.820
5990,191.68,-0.5780,4.2602,0.1447,-0.0505,0.0042,-0.0005,rough,14.0,3,1.820
6000,192.00,-0.5780,4.2602,0.1447,-0.0504,0.0041,-0.0003,rough,14.0,3,1.820
6010,192.32,-0.5780,4.2602,0.1447,-0.0503,0.0041,-0.0001,rough,14.0,3,1.820
6020,192.64,-0.5779,4.2602,0.1447,-0.0502,0.0041,0.0003,rough,14.0,3,1.820
6030,192.96,-0.5778,4.2605,0.1447,-0.0502,0.0041,0.0011,rough,14.0,3,1.820
6040,193.28,-0.5776,4.2610,0.1447,-0.0501,0.0040,0.0030,rough,14.0,3,1.820
6050,193.60,-0.5771,4.2624,0.1447,-0.0499,0.0039,0.0070,rough,14.0,3,1.818
6060,193.92,-0.5762,4.2654,0.1446,-0.0496,0.0037,0.0153,rough,14.0,3,1.816
6070,194.24,-0.5766,4.2703,0.1443,-0.0495,0.0047,0.0243,rough,14.0,3,1.811
6080,194.56,-0.5768,4.2782,0.1440,-0.0494,0.0051,0.0383,rough,14.0,3,1.803
6090,194.88,-0.5776,4.2886,0.1435,-0.0492,0.0057,0.0513,rough,14.0,3,1.793
6100,195.20,-0.5779,4.3015,0.1428,-0.0491,0.0065,0.0641,rough,14.0,3,1.780
6110,195.52,-0.5803,4.3187,0.1419,-0.0489,0.0077,0.0796,rough,14.0,3,1.763
6120,195.84,-0.5833,4.3397,0.1410,-0.0486,0.0083,0.0988,rough,14.0,3,1.742
6130,196.16,-0.5846,4.3618,0.1396,-0.0488,0.0093,0.0888,rough,14.0,3,1.720
6140,196.48,-0.5851,4.3769,0.1390,-0.0486,0.0084,0.0880,rough,14.0,3,1.705
6150,196.80,-0.5826,4.3852,0.1386,-0.0490,0.0071,0.0604,rough,14.0,3,1.697
6160,197.12,-0.5802,4.3897,0.1383,-0.0492,0.0060,0.0377,rough,14.0,3,1.694
6170,197.44,-0.5786,4.3925,0.1382,-0.0494,0.0053,0.0233,rough,14.0,3,1.691
6180,197.76,-0.5776,4.3943,0.1381,-0.0494,0.0049,0.0143,rough,14.0,3,1.690
6190,198.08,-0.5770,4.3954,0.1380,-0.0494,0.0047,0.0086,rough,14.0,3,1.689
6200,198.40,-0.5766,4.3961,0.1380,-0.0495,0.0045,0.0051,rough,14.0,3,1.688
6210,198.72,-0.5764,4.3966,0.1379,-0.0495,0.0044,0.0030,rough,14.0,3,1.688
6220,199.04,-0.5762,4.3968,0.1379,-0.0495,0.0044,0.0016,rough,14.0,3,1.687
6230,199.36,-0.5761,4.3970,0.1379,-0.0495,0.0043,0.0008,rough,14.0,3,1.687
6240,199.68,-0.5761,4.3971,0.1379,-0.0495,0.0043,0.0003,rough,14.0,3,1.687
6250,200.00,-0.5760,4.3972,0.1379,-0.0495,0.0043,-0.0000,rough,14.0,3,1.687
6260,200.32,-0.5760,4.3973,0.1379,-0.0496,0.0044,-0.0003,rough,14.0,3,1.687
6270,200.64,-0.5760,4.3973,0.1379,-0.0498,0.0044,-0.0006,rough,14.0,3,1.687
6280,200.96,-0.5758,4.3971,0.1379,-0.0498,0.0044,-0.0016,rough,14.0,3,1.687
6290,201.28,-0.5756,4.3964,0.1379,-0.0499,0.0045,-0.0038,rough,14.0,3,1.688
6300,201.60,-0.5750,4.3948,0.1379,-0.0500,0.0044,-0.0088,rough,14.0,3,1.690
6310,201.92,-0.5738,4.3910,0.1381,-0.0501,0.0038,-0.0206,rough,14.0,3,1.694
6320,202.24,-0.5712,4.3819,0.1385,-0.0503,0.0024,-0.0496,rough,14.0,3,1.703
6330,202.56,-0.5687,4.3610,0.1406,-0.0505,-0.0085,-0.1168,rough,14.0,3,1.724
6340,202.88,-0.5724,4.3436,0.1404,-0.0505,-0.0003,-0.1120,rough,14.0,3,1.740
6350,203.20,-0.5749,4.3279,0.1412,-0.0505,-0.0003,-0.1014,rough,14.0,3,1.755
6360,203.52,-0.5763,4.3149,0.1419,-0.0506,0.0004,-0.0859,rough,14.0,3,1.767
6370,203.84,-0.5772,4.3042,0.1424,-0.0506,0.0012,-0.0710,rough,14.0,3,1.778
6380,204.16,-0.5778,4.2955,0.1429,-0.0507,0.0018,-0.0581,rough,14.0,3,1.786
6390,204.48,-0.5781,4.2884,0.1432,-0.0507,0.0023,-0.0473,rough,14.0,3,1.793
6400,204.80,-0.5782,4.2827,0.1435,-0.0507,0.0027,-0.0382,rough,14.0,3,1.798
6410,205.12,-0.5783,4.2781,0.1438,-0.0506,0.0030,-0.0307,rough,14.0,3,1.803
6420,205.44,-0.5783,4.2745,0.1440,-0.0506,0.0033,-0.0247,rough,14.0,3,1.806
6430,205.76,-0.5783,4.2715,0.1441,-0.0506,0.0035,-0.0197,rough,14.0,3,1.809
6440,206.08,-0.5782,4.2692,0.1442,-0.0506,0.0037,-0.0158,rough,14.0,3,1.812
6450,206.40,-0.5782,4.2673,0.1443,-0.0506,0.0038,-0.0126,rough,14.0,3,1.813
6460,206.72,-0.5782,4.2658,0.1444,-0.0506,0.0039,-0.0100,rough,14.0,3,1.815
6470,207.04,-0.5781,4.2647,0.1445,-0.0506,0.0040,-0.0080,rough,14.0,3,1.816
6480,207.36,-0.5781,4.2637,0.1445,-0.0506,0.0041,-0.0062,rough,14.0,3,1.817
6490,207.68,-0.5780,4.2630,0.1445,-0.0506,0.0042,-0.0049,rough,14.0,3,1.818
6500,208.00,-0.5780,4.2624,0.1446,-0.0506,0.0042,-0.0039,rough,14.0,3,1.818
6510,208.32,-0.5780,4.2620,0.1446,-0.0506,0.0042,-0.0031,rough,14.0,3,1.819
6520,208.64,-0.5780,4.2616,0.1446,-0.0506,0.0042,-0.0025,rough,14.0,3,1.819
6530,208.96,-0.5780,4.2613,0.1446,-0.0506,0.0042,-0.0020,rough,14.0,3,1.819
6540,209.28,-0.5780,4.2610,0.1447,-0.0505,0.0042,-0.0017,rough,14.0,3,1.820
6550,209.60,-0.5780,4.2608,0.1447,-0.0505,0.0042,-0.0014,rough,14.0,3,1.820
6560,209.92,-0.5780,4.2607,0.1447,-0.0505,0.0042,-0.0011,rough,14.0,3,1.820
6570,210.24,-0.5780,4.2605,0.1447,-0.0505,0.0042,-0.0009,rough,14.0,3,1.820
6580,210.56,-0.5780,4.2604,0.1447,-0.0505,0.0042,-0.0007,rough,14.0,3,1.820
6590,210.88,-0.5780,4.2603,0.1447,-0.0505,0.0042,-0.0006,rough,14.0,3,1.820
6600,211.20,-0.5780,4.2602,0.1447,-0.0505,0.0042,-0.0004,rough,14.0,3,1.820
6610,211.52,-0.5780,4.2602,0.1447,-0.0504,0.0041,-0.0003,rough,14.0,3,1.820
6620,211.84,-0.5780,4.2602,0.1447,-0.0503,0.0041,-0.0001,rough,14.0,3,1.820
6630,212.16,-0.5779,4.2602,0.1447,-0.0502,0.0041,0.0003,rough,14.0,3,1.820
6640,212.48,-0.5778,4.2605,0.1447,-0.0502,0.0041,0.0012,rough,14.0,3,1.820
6650,212.80,-0.5776,4.2611,0.1447,-0.0501,0.0040,0.0031,rough,14.0,3,1.820
6660,213.12,-0.5771,4.2625,0.1447,-0.0499,0.0039,0.0073,rough,14.0,3,1.818
6670,213.44,-0.5761,4.2657,0.1446,-0.0496,0.0037,0.0160,rough,14.0,3,1.815
6680,213.76,-0.5766,4.2708,0.1443,-0.0495,0.0047,0.0254,rough,14.0,3,1.810
6690,214.08,-0.5769,4.2790,0.1439,-0.0494,0.0051,0.0400,rough,14.0,3,1.802
6700,214.40,-0.5771,4.2890,0.1432,-0.0494,0.0067,0.0436,rough,14.0,3,1.792
6710,214.72,-0.5788,4.3037,0.1426,-0.0491,0.0070,0.0645,rough,14.0,3,1.778
6720,215.04,-0.5808,4.3215,0.1418,-0.0489,0.0076,0.0817,rough,14.0,3,1.760
6730,215.36,-0.5833,4.3416,0.1405,-0.0488,0.0100,0.0868,rough,14.0,3,1.740
6740,215.68,-0.5847,4.3649,0.1395,-0.0488,0.0095,0.0870,rough,14.0,3,1.717
6750,216.00,-0.5846,4.3786,0.1389,-0.0487,0.0082,0.0823,rough,14.0,3,1.703
6760,216.32,-0.5820,4.3861,0.1385,-0.0491,0.0069,0.0553,rough,14.0,3,1.697
6770,216.64,-0.5798,4.3902,0.1383,-0.0493,0.0059,0.0345,rough,14.0,3,1.693
6780,216.96,-0.5784,4.3928,0.1382,-0.0494,0.0053,0.0213,rough,14.0,3,1.691
6790,217.28,-0.5775,4.3944,0.1381,-0.0494,0.0049,0.0130,rough,14.0,3,1.690
6800,217.60,-0.5769,4.3954,0.1380,-0.0495,0.0046,0.0079,rough,14.0,3,1.689
6810,217.92,-0.5766,4.3961,0.1380,-0.0495,0.0045,0.0047,rough,14.0,3,1.688
6820,218.24,-0.5763,4.3965,0.1379,-0.0495,0.0044,0.0027,rough,14.0,3,1.688
6830,218.56,-0.5762,4.3967,0.1379,-0.0495,0.0044,0.0014,rough,14.0,3,1.688
6840,218.88,-0.5761,4.3969,0.1379,-0.0495,0.0043,0.0007,rough,14.0,3,1.687
6850,219.20,-0.5761,4.3970,0.1379,-0.0495,0.0043,0.0002,rough,14.0,3,1.687
6860,219.52,-0.5760,4.3971,0.1379,-0.0495,0.0043,-0.0001,rough,14.0,3,1.687
6870,219.84,-0.5760,4.3971,0.1379,-0.0497,0.0044,-0.0003,rough,14.0,3,1.687
6880,220.16,-0.5759,4.3971,0.1379,-0.0498,0.0044,-0.0008,rough,14.0,3,1.687
6890,220.48,-0.5758,4.3968,0.1379,-0.0498,0.0044,-0.0019,rough,14.0,3,1.688
6900,220.80,-0.5755,4.3961,0.1379,-0.0499,0.0045,-0.0044,rough,14.0,3,1.688
6910,221.12,-0.5749,4.3942,0.1380,-0.0500,0.0043,-0.0102,rough,14.0,3,1.690
6920,221.44,-0.5735,4.3898,0.1382,-0.0501,0.0037,-0.0239,rough,14.0,3,1.695
6930,221.76,-0.5706,4.3791,0.1387,-0.0504,0.0020,-0.0583,rough,14.0,3,1.706
6940,222.08,-0.5682,4.3584,0.1390,-0.0503,0.0039,-0.1092,rough,14.0,3,1.727
6950,222.40,-0.5729,4.3411,0.1405,-0.0505,-0.0002,-0.1098,rough,14.0,3,1.743
6960,222.72,-0.5751,4.3258,0.1413,-0.0505,-0.0002,-0.0988,rough,14.0,3,1.757
6970,223.04,-0.5765,4.3132,0.1420,-0.0506,0.0005,-0.0836,rough,14.0,3,1.769
6980,223.36,-0.5773,4.3028,0.1425,-0.0506,0.0013,-0.0690,rough,14.0,3,1.779
6990,223.68,-0.5778,4.2943,0.1429,-0.0507,0.0019,-0.0564,rough,14.0,3,1.787
7000,224.00,-0.5781,4.2875,0.1433,-0.0507,0.0024,-0.0458,rough,14.0,3,1.794
7010,224.32,-0.5782,4.2820,0.1436,-0.0507,0.0028,-0.0370,rough,14.0,3,1.799
7020,224.64,-0.5783,4.2775,0.1438,-0.0506,0.0031,-0.0298,rough,14.0,3,1.803
7030,224.96,-0.5783,4.2740,0.1440,-0.0506,0.0033,-0.0239,rough,14.0,3,1.807
7040,225.28,-0.5783,4.2711,0.1441,-0.0506,0.0035,-0.0191,rough,14.0,3,1.810
7050,225.60,-0.5782,4.2689,0.1442,-0.0506,0.0037,-0.0152,rough,14.0,3,1.812
7060,225.92,-0.5782,4.2671,0.1443,-0.0506,0.0038,-0.0122,rough,14.0,3,1.814
7070,226.24,-0.5781,4.2656,0.1444,-0.0506,0.0040,-0.0097,rough,14.0,3,1.815
7080,226.56,-0.5781,4.2645,0.1445,-0.0506,0.0040,-0.0077,rough,14.0,3,1.816
7090,226.88,-0.5781,4.2636,0.1445,-0.0506,0.0041,-0.0060,rough,14.0,3,1.817
7100,227.20,-0.5780,4.2629,0.1445,-0.0506,0.0042,-0.0047,rough,14.0,3,1.818
7110,227.52,-0.5780,4.2624,0.1446,-0.0506,0.0042,-0.0038,rough,14.0,3,1.818
7120,227.84,-0.5780,4.2619,0.1446,-0.0506,0.0042,-0.0030,rough,14.0,3,1.819
7130,228.16,-0.5780,4.2615,0.1446,-0.0506,0.0042,-0.0025,rough,14.0,3,1.819
7140,228.48,-0.5780,4.2612,0.1446,-0.0506,0.0042,-0.0020,rough,14.0,3,1.819
7150,228.80,-0.5780,4.2610,0.1447,-0.0505,0.0042,-0.0016,rough,14.0,3,1.820
7160,229.12,-0.5780,4.2608,0.1447,-0.0505,0.0042,-0.0013,rough,14.0,3,1.820
7170,229.44,-0.5780,4.2606,0.1447,-0.0505,0.0042,-0.0011,rough,14.0,3,1.820
7180,229.76,-0.5780,4.2605,0.1447,-0.0505,0.0042,-0.0009,rough,14.0,3,1.820
7190,230.08,-0.5780,4.2604,0.1447,-0.0505,0.0042,-0.0007,rough,14.0,3,1.820
7200,230.40,-0.5780,4.2603,0.1447,-0.0505,0.0042,-0.0006,rough,14.0,3,1.820
7210,230.72,-0.5780,4.2602,0.1447,-0.0505,0.0042,-0.0004,rough,14.0,3,1.820
7220,231.04,-0.5780,4.2602,0.1447,-0.0504,0.0041,-0.0002,rough,14.0,3,1.820
7230,231.36,-0.5780,4.2602,0.1447,-0.0503,0.0041,-0.0001,rough,14.0,3,1.820
7240,231.68,-0.5779,4.2603,0.1447,-0.0502,0.0041,0.0004,rough,14.0,3,1.820
7250,232.00,-0.5778,4.2605,0.1447,-0.0502,0.0041,0.0014,rough,14.0,3,1.820
7260,232.32,-0.5776,4.2612,0.1447,-0.0501,0.0040,0.0035,rough,14.0,3,1.820
7270,232.64,-0.5770,4.2628,0.1447,-0.0499,0.0039,0.0082,rough,14.0,3,1.818
7280,232.96,-0.5766,4.2660,0.1445,-0.0496,0.0043,0.0154,rough,14.0,3,1.815
7290,233.28,-0.5763,4.2718,0.1443,-0.0495,0.0046,0.0283,rough,14.0,3,1.809
7300,233.60,-0.5772,4.2799,0.1439,-0.0494,0.0052,0.0383,rough,14.0,3,1.801
7310,233.92,-0.5783,4.2904,0.1427,-0.0494,0.0096,0.0422,rough,14.0,3,1.791
7320,234.24,-0.5786,4.3047,0.1426,-0.0491,0.0067,0.0619,rough,14.0,3,1.777
7330,234.56,-0.5809,4.3226,0.1417,-0.0489,0.0082,0.0777,rough,14.0,3,1.759
7340,234.88,-0.5837,4.3439,0.1406,-0.0487,0.0090,0.0959,rough,14.0,3,1.737
7350,235.20,-0.5845,4.3648,0.1396,-0.0488,0.0089,0.0882,rough,14.0,3,1.717
7360,235.52,-0.5849,4.3793,0.1389,-0.0487,0.0082,0.0844,rough,14.0,3,1.703
7370,235.84,-0.5820,4.3863,0.1385,-0.0491,0.0069,0.0548,rough,14.0,3,1.696
7380,236.16,-0.5798,4.3904,0.1383,-0.0493,0.0059,0.0341,rough,14.0,3,1.693
7390,236.48,-0.5784,4.3930,0.1382,-0.0494,0.0052,0.0211,rough,14.0,3,1.691
7400,236.80,-0.5775,4.3946,0.1381,-0.0494,0.0049,0.0129,rough,14.0,3,1.689
7410,237.12,-0.5769,4.3956,0.1380,-0.0495,0.0046,0.0078,rough,14.0,3,1.689
7420,237.44,-0.5766,4.3962,0.1380,-0.0495,0.0045,0.0046,rough,14.0,3,1.688
7430,237.76,-0.5763,4.3966,0.1379,-0.0495,0.0044,0.0026,rough,14.0,3,1.688
7440,238.08,-0.5762,4.3969,0.1379,-0.0495,0.0044,0.0014,rough,14.0,3,1.687
7450,238.40,-0.5761,4.3970,0.1379,-0.0495,0.0043,0.0007,rough,14.0,3,1.687
7460,238.72,-0.5761,4.3971,0.1379,-0.0495,0.0043,0.0002,rough,14.0,3,1.687
7470,239.04,-0.5760,4.3972,0.1379,-0.0495,0.0043,-0.0001,rough,14.0,3,1.687
7480,239.36,-0.5760,4.3973,0.1379,-0.0497,0.0044,-0.0003,rough,14.0,3,1.687
7490,239.68,-0.5759,4.3972,0.1379,-0.0498,0.0044,-0.0008,rough,14.0,3,1.687
7500,240.00,-0.5758,4.3969,0.1379,-0.0498,0.0044,-0.0019,rough,14.0,3,1.687
7510,240.32,-0.5755,4.3962,0.1379,-0.0499,0.0045,-0.0045,rough,14.0,3,1.688
7520,240.64,-0.5748,4.3942,0.1380,-0.0500,0.0043,-0.0105,rough,14.0,3,1.690
7530,240.96,-0.5734,4.3897,0.1382,-0.0501,0.0036,-0.0245,rough,14.0,3,1.695
7540,241.28,-0.5705,4.3787,0.1387,-0.0504,0.0019,-0.0600,rough,14.0,3,1.706
7550,241.60,-0.5676,4.3581,0.1388,-0.0504,0.0051,-0.1111,rough,14.0,3,1.727
7560,241.92,-0.5729,4.3409,0.1405,-0.0505,-0.0001,-0.1105,rough,14.0,3,1.743
7570,242.24,-0.5751,4.3257,0.1413,-0.0505,-0.0002,-0.0989,rough,14.0,3,1.757
7580,242.56,-0.5765,4.3131,0.1420,-0.0506,0.0005,-0.0834,rough,14.0,3,1.769
7590,242.88,-0.5773,4.3027,0.1425,-0.0506,0.0013,-0.0689,rough,14.0,3,1.779
7600,243.20,-0.5778,4.2943,0.1429,-0.0507,0.0019,-0.0563,rough,14.0,3,1.787
7610,243.52,-0.5781,4.2874,0.1433,-0.0507,0.0024,-0.0457,rough,14.0,3,1.794
7620,243.84,-0.5782,4.2819,0.1436,-0.0506,0.0028,-0.0369,rough,14.0,3,1.799
7630,244.16,-0.5783,4.2775,0.1438,-0.0506,0.0031,-0.0297,rough,14.0,3,1.803
7640,244.48,-0.5783,4.2739,0.1440,-0.0506,0.0033,-0.0238,rough,14.0,3,1.807
7650,244.80,-0.5783,4.2711,0.1441,-0.0506,0.0035,-0.0191,rough,14.0,3,1.810
7660,245.12,-0.5782,4.2689,0.1442,-0.0506,0.0037,-0.0152,rough,14.0,3,1.812
7670,245.44,-0.5782,4.2671,0.1443,-0.0506,0.0038,-0.0121,rough,14.0,3,1.814
7680,245.76,-0.5781,4.2656,0.1444,-0.0506,0.0040,-0.0097,rough,14.0,3,1.815
7690,246.08,-0.5781,4.2645,0.1445,-0.0506,0.0040,-0.0077,rough,14.0,3,1.816
7700,246.40,-0.5781,4.2636,0.1445,-0.0506,0.0041,-0.0060,rough,14.0,3,1.817
7710,246.72,-0.5780,4.2629,0.1445,-0.0506,0.0042,-0.0047,rough,14.0,3,1.818
7720,247.04,-0.5780,4.2624,0.1446,-0.0506,0.0042,-0.0038,rough,14.0,3,1.818
7730,247.36,-0.5780,4.2619,0.1446,-0.0506,0.0042,-0.0030,rough,14.0,3,1.819
7740,247.68,-0.5780,4.2615,0.1446,-0.0506,0.0042,-0.0024,rough,14.0,3,1.819
7750,248.00,-0.5780,4.2612,0.1446,-0.0506,0.0042,-0.0020,rough,14.0,3,1.819
7760,248.32,-0.5780,4.2610,0.1447,-0.0505,0.0042,-0.0016,rough,14.0,3,1.820
7770,248.64,-0.5780,4.2608,0.1447,-0.0505,0.0042,-0.0013,rough,14.0,3,1.820
7780,248.96,-0.5780,4.2606,0.1447,-0.0505,0.0042,-0.0011,rough,14.0,3,1.820
7790,249.28,-0.5780,4.2605,0.1447,-0.0505,0.0042,-0.0009,rough,14.0,3,1.820
7800,249.60,-0.5780,4.2604,0.1447,-0.0505,0.0042,-0.0007,rough,14.0,3,1.820
7810,249.92,-0.5780,4.2603,0.1447,-0.0505,0.0042,-0.0006,rough,14.0,3,1.820
7820,250.24,-0.5780,4.2602,0.1447,-0.0505,0.0042,-0.0004,rough,14.0,3,1.820
7830,250.56,-0.5780,4.2602,0.1447,-0.0504,0.0041,-0.0002,rough,14.0,3,1.820
7840,250.88,-0.5780,4.2602,0.1447,-0.0503,0.0041,-0.0001,rough,14.0,3,1.820
7850,251.20,-0.5779,4.2603,0.1447,-0.0502,0.0041,0.0004,rough,14.0,3,1.820
7860,251.52,-0.5778,4.2605,0.1447,-0.0502,0.0041,0.0014,rough,14.0,3,1.820
7870,251.84,-0.5776,4.2613,0.1447,-0.0501,0.0040,0.0036,rough,14.0,3,1.820
7880,252.16,-0.5770,4.2629,0.1447,-0.0498,0.0039,0.0083,rough,14.0,3,1.818
7890,252.48,-0.5766,4.2661,0.1445,-0.0496,0.0043,0.0155,rough,14.0,3,1.815
7900,252.80,-0.5763,4.2719,0.1443,-0.0495,0.0046,0.0285,rough,14.0,3,1.809
7910,253.12,-0.5772,4.2800,0.1439,-0.0494,0.0052,0.0385,rough,14.0,3,1.801
7920,253.44,-0.5783,4.2906,0.1427,-0.0494,0.0096,0.0425,rough,14.0,3,1.791
7930,253.76,-0.5785,4.3047,0.1426,-0.0491,0.0070,0.0627,rough,14.0,3,1.777
7940,254.08,-0.5809,4.3227,0.1417,-0.0489,0.0081,0.0777,rough,14.0,3,1.759
7950,254.40,-0.5838,4.3441,0.1406,-0.0487,0.0090,0.0960,rough,14.0,3,1.737
7960,254.72,-0.5845,4.3649,0.1395,-0.0488,0.0089,0.0880,rough,14.0,3,1.717
7970,255.04,-0.5849,4.3794,0.1389,-0.0487,0.0082,0.0841,rough,14.0,3,1.703
