step,time_s,x,y,z,roll,pitch,yaw,terrain,speed,target_idx,dist_to_target
10,0.32,0.0824,-0.0578,0.2075,0.0000,-0.0819,-0.0002,rough,14.0,0,5.334
20,0.64,0.4643,-0.0608,0.2448,0.0117,-0.1163,-0.1002,rough,14.0,0,5.041
30,0.96,0.8405,-0.1101,0.3028,0.0181,-0.2122,-0.1733,rough,14.0,0,4.731
40,1.28,1.2167,-0.1891,0.3944,0.0390,-0.2738,-0.2450,rough,14.0,0,4.411
50,1.60,1.5765,-0.2937,0.5124,0.0741,-0.3297,-0.3241,rough,14.0,0,4.093
60,1.92,1.9126,-0.4261,0.6504,0.1121,-0.4053,-0.3894,rough,14.0,0,3.778
70,2.24,2.2384,-0.5793,0.8045,0.1278,-0.4304,-0.4548,rough,14.0,0,3.461
80,2.56,2.5656,-0.7518,0.9634,0.1356,-0.4263,-0.5064,rough,14.0,0,3.136
90,2.88,2.8800,-0.9507,1.1308,0.2051,-0.4103,-0.5921,rough,14.0,0,2.805
100,3.20,3.1874,-1.1758,1.2878,0.2235,-0.3806,-0.6682,rough,14.0,0,2.464
110,3.52,3.4895,-1.4220,1.4354,0.2495,-0.3377,-0.7433,rough,14.0,0,2.120
120,3.84,3.7703,-1.7005,1.5632,0.2663,-0.2965,-0.8172,rough,14.0,0,1.768
130,4.16,4.0296,-1.9988,1.6721,0.2780,-0.2505,-0.9000,rough,14.0,0,1.423
140,4.48,4.2639,-2.3294,1.7645,0.3018,-0.1982,-1.0004,rough,14.0,0,1.078
150,4.80,4.4422,-2.6785,1.8303,0.3088,-0.1222,-1.1694,rough,14.0,1,7.666
160,5.12,4.5344,-3.0210,1.8613,0.3414,-0.0712,-1.3456,rough,14.0,1,7.480
170,5.44,4.5525,-3.4007,1.8619,0.3433,0.0085,-1.5486,rough,14.0,1,7.228
180,5.76,4.4993,-3.8061,1.8365,0.3419,0.0747,-1.7230,rough,14.0,1,6.916
190,6.08,4.3858,-4.2128,1.7864,0.3292,0.1311,-1.8708,rough,14.0,1,6.567
200,6.40,4.2439,-4.6222,1.7236,0.3246,0.1580,-1.9358,rough,14.0,1,6.203
210,6.72,4.0859,-5.0245,1.6531,0.3182,0.1804,-1.9888,rough,14.0,1,5.839
220,7.04,3.9001,-5.4071,1.5708,0.3048,0.2052,-2.0629,rough,14.0,1,5.473
230,7.36,3.6937,-5.7801,1.4804,0.2947,0.2233,-2.1204,rough,14.0,1,5.102
240,7.68,3.4664,-6.1374,1.3819,0.2829,0.2421,-2.1804,rough,14.0,1,4.729
250,8.00,3.2198,-6.4793,1.2765,0.2687,0.2574,-2.2422,rough,14.0,1,4.355
260,8.32,2.9492,-6.7998,1.1634,0.2544,0.2724,-2.3064,rough,14.0,1,3.977
270,8.64,2.6624,-7.1044,1.0435,0.2368,0.2729,-2.3727,rough,14.0,1,3.598
280,8.96,2.3572,-7.3938,0.9228,0.2226,0.2941,-2.4353,rough,14.0,1,3.215
290,9.28,2.0305,-7.6526,0.7946,0.2059,0.3007,-2.4944,rough,14.0,1,2.830
300,9.60,1.6976,-7.8980,0.6667,0.1868,0.3089,-2.5653,rough,14.0,1,2.452
310,9.92,1.3483,-8.1168,0.5351,0.1650,0.3153,-2.6410,rough,14.0,1,2.074
320,10.24,0.9837,-8.3048,0.4017,0.1444,0.3212,-2.7153,rough,14.0,1,1.696
330,10.56,0.6116,-8.4679,0.2671,0.1136,0.3281,-2.8200,rough,14.0,1,1.328
340,10.88,0.2275,-8.5918,0.1440,0.0354,0.3023,-2.9346,rough,14.0,1,0.969
350,11.20,-0.1547,-8.6480,0.0666,0.0265,0.1298,-3.0143,rough,14.0,2,5.654
360,11.52,-0.5396,-8.6744,0.0472,0.0050,-0.0158,-3.1340,rough,14.0,2,5.473
370,11.84,-0.9363,-8.6613,0.0561,0.0125,-0.0221,2.9428,rough,14.0,2,5.274
380,12.16,-1.3400,-8.5668,0.0658,0.0150,-0.0251,2.8221,rough,14.0,2,5.020
390,12.48,-1.7206,-8.4282,0.0767,0.0171,-0.0263,2.6727,rough,14.0,2,4.754
400,12.80,-2.0804,-8.2320,0.0884,0.0188,-0.0284,2.5470,rough,14.0,2,4.460
410,13.12,-2.4039,-7.9841,0.1006,0.0223,-0.0303,2.4285,rough,14.0,2,4.141
420,13.44,-2.7036,-7.7008,0.1134,0.0237,-0.0312,2.3198,rough,14.0,2,3.808
430,13.76,-2.9711,-7.3827,0.1241,0.0376,-0.0264,2.2236,rough,14.0,2,3.459
440,14.08,-3.2115,-7.0402,0.1380,0.0273,-0.0279,2.1265,rough,14.0,2,3.104
450,14.40,-3.4190,-6.6755,0.1488,0.0269,-0.0240,2.0531,rough,14.0,2,2.742
460,14.72,-3.6015,-6.3038,0.1585,0.0236,-0.0199,1.9843,rough,14.0,2,2.388
470,15.04,-3.7541,-5.9203,0.1658,0.0221,-0.0137,1.9018,rough,14.0,2,2.039
480,15.36,-3.8792,-5.5310,0.1716,0.0179,-0.0100,1.8365,rough,14.0,2,1.702
490,15.68,-3.9762,-5.1282,0.1757,0.0133,-0.0090,1.7801,rough,14.0,2,1.379
500,16.00,-4.0525,-4.7331,0.1777,0.0102,-0.0027,1.6549,rough,14.0,2,1.108
510,16.32,-4.0795,-4.3316,0.1801,-0.0002,-0.0017,1.4017,rough,14.0,2,0.891
520,16.64,-3.9919,-3.9303,0.1802,-0.0106,-0.0116,1.2594,rough,14.0,3,10.422
530,16.96,-3.8546,-3.5041,0.1864,-0.0096,-0.0117,1.2596,rough,14.0,3,9.975
540,17.28,-3.7188,-3.0783,0.1921,-0.0149,-0.0167,1.2600,rough,14.0,3,9.528
550,17.60,-3.5829,-2.6513,0.1984,-0.0212,-0.0155,1.2602,rough,14.0,3,9.080
560,17.92,-3.4466,-2.2248,0.2056,-0.0240,-0.0164,1.2605,rough,14.0,3,8.632
570,18.24,-3.3100,-1.7980,0.2124,-0.0250,-0.0147,1.2607,rough,14.0,3,8.184
580,18.56,-3.1731,-1.3711,0.2185,-0.0238,-0.0125,1.2609,rough,14.0,3,7.736
590,18.88,-3.0362,-0.9440,0.2232,-0.0229,-0.0091,1.2611,rough,14.0,3,7.287
600,19.20,-2.8990,-0.5166,0.2263,-0.0204,-0.0037,1.2612,rough,14.0,3,6.838
610,19.52,-2.7615,-0.0901,0.2275,-0.0151,-0.0029,1.2615,rough,14.0,3,6.391
620,19.84,-2.6241,0.3367,0.2280,-0.0096,-0.0001,1.2617,rough,14.0,3,5.942
630,20.16,-2.4879,0.7637,0.2277,-0.0099,0.0014,1.2620,rough,14.0,3,5.494
640,20.48,-2.3517,1.1909,0.2264,-0.0102,0.0041,1.2621,rough,14.0,3,5.046
650,20.80,-2.2155,1.6181,0.2241,-0.0102,0.0062,1.2624,rough,14.0,3,4.598
660,21.12,-2.0795,2.0460,0.2197,-0.0118,0.0123,1.2625,rough,14.0,3,4.149
670,21.44,-1.9437,2.4743,0.2127,-0.0143,0.0205,1.2626,rough,14.0,3,3.700
680,21.76,-1.8068,2.9037,0.2008,-0.0133,0.0367,1.2627,rough,14.0,3,3.250
690,22.08,-1.6712,3.3294,0.1877,-0.0126,0.0312,1.2630,rough,14.0,3,2.803
700,22.40,-1.5350,3.7572,0.1717,-0.0110,0.0387,1.2632,rough,14.0,3,2.355
710,22.72,-1.3984,4.1844,0.1531,-0.0064,0.0445,1.2636,rough,14.0,3,1.908
720,23.04,-1.2625,4.6107,0.1332,-0.0025,0.0447,1.2641,rough,14.0,3,1.462
730,23.36,-1.1269,5.0369,0.1136,0.0013,0.0443,1.2647,rough,14.0,3,1.018
740,23.68,-1.0369,5.3850,0.0983,-0.0022,0.0400,1.0992,rough,14.0,0,10.251
750,24.00,-0.8768,5.6247,0.0870,-0.0152,0.0362,0.7374,rough,14.0,0,10.377
760,24.32,-0.6338,5.8025,0.0770,-0.0265,0.0265,0.3771,rough,14.0,0,10.417
770,24.64,-0.3544,5.9087,0.0745,-0.0290,-0.0042,0.0162,rough,14.0,0,10.384
780,24.96,-0.0897,5.9122,0.0988,0.0118,-0.1680,-0.2733,rough,14.0,0,10.273
790,25.28,0.1762,5.8042,0.1640,0.0441,-0.2796,-0.4597,rough,14.0,0,10.065
800,25.60,0.4132,5.6235,0.2344,0.1610,-0.3029,-0.6146,rough,14.0,0,9.805
810,25.92,0.6117,5.4304,0.3125,0.2546,-0.2396,-0.9463,rough,14.0,0,9.551
820,26.24,0.7383,5.1816,0.3685,0.3072,-0.1641,-1.2156,rough,14.0,0,9.273
830,26.56,0.7517,4.8776,0.3869,0.3422,-0.0565,-1.5406,rough,14.0,0,8.987
840,26.88,0.6764,4.5286,0.3732,0.3420,0.0260,-1.7289,rough,14.0,0,8.696
850,27.20,0.6121,4.1092,0.3696,0.3287,-0.0280,-1.6205,rough,14.0,0,8.343
860,27.52,0.5969,3.6776,0.3812,0.3229,-0.0561,-1.5197,rough,14.0,0,7.964
870,27.84,0.6231,3.2459,0.3980,0.3041,-0.0623,-1.4358,rough,14.0,0,7.570
880,28.16,0.6877,2.8144,0.4166,0.2849,-0.0536,-1.3632,rough,14.0,0,7.161
890,28.48,0.7801,2.3839,0.4269,0.2878,-0.0289,-1.3104,rough,14.0,0,6.743
900,28.80,0.8989,1.9556,0.4305,0.2778,0.0134,-1.2596,rough,14.0,0,6.315
910,29.12,1.0326,1.5348,0.4288,0.2944,0.0114,-1.2357,rough,14.0,0,5.888
920,29.44,1.1738,1.1259,0.4389,0.2901,-0.0151,-1.1990,rough,14.0,0,5.469
930,29.76,1.3287,0.7219,0.4451,0.2919,-0.0366,-1.1705,rough,14.0,0,5.049
940,30.08,1.4859,0.3286,0.4793,0.3186,-0.1093,-1.1615,rough,14.0,0,4.637
950,30.40,1.6515,-0.0684,0.5372,0.3329,-0.1449,-1.1418,rough,14.0,0,4.221
960,30.72,1.8193,-0.4497,0.6122,0.3440,-0.2206,-1.1309,rough,14.0,0,3.818
970,31.04,1.9938,-0.8235,0.7122,0.3284,-0.2709,-1.1087,rough,14.0,0,3.420
980,31.36,2.1837,-1.1962,0.8279,0.3157,-0.2845,-1.0735,rough,14.0,0,3.015
990,31.68,2.3789,-1.5615,0.9464,0.3066,-0.2957,-1.0360,rough,14.0,0,2.617
1000,32.00,2.5851,-1.9177,1.0646,0.3004,-0.2843,-0.9906,rough,14.0,0,2.222
1010,32.32,2.8119,-2.2635,1.1828,0.2805,-0.2755,-0.9384,rough,14.0,0,1.825
1020,32.64,3.0587,-2.5953,1.2973,0.2714,-0.2708,-0.8767,rough,14.0,0,1.429
1030,32.96,3.3196,-2.9061,1.4073,0.2576,-0.2660,-0.8008,rough,14.0,0,1.043
1040,33.28,3.5731,-3.1683,1.5048,0.2632,-0.2493,-0.8115,rough,14.0,1,6.726
1050,33.60,3.7224,-3.4098,1.5539,0.2892,-0.1751,-1.0414,rough,14.0,1,6.641
1060,33.92,3.8475,-3.7173,1.5992,0.3406,-0.1012,-1.2434,rough,14.0,1,6.502
1070,34.24,3.8988,-4.0773,1.6100,0.3536,-0.0197,-1.4504,rough,14.0,1,6.288
1080,34.56,3.8796,-4.4700,1.5922,0.3521,0.0585,-1.6440,rough,14.0,1,6.013
1090,34.88,3.7933,-4.8752,1.5471,0.3417,0.1177,-1.8058,rough,14.0,1,5.691
1100,35.20,3.6536,-5.2777,1.4815,0.3260,0.1630,-1.9318,rough,14.0,1,5.340
1110,35.52,3.4970,-5.6784,1.4084,0.3187,0.1859,-1.9914,rough,14.0,1,4.987
1120,35.84,3.3175,-6.0633,1.3268,0.3075,0.2054,-2.0569,rough,14.0,1,4.635
1130,36.16,3.1143,-6.4369,1.2371,0.2964,0.2255,-2.1244,rough,14.0,1,4.279
1140,36.48,2.8860,-6.7887,1.1393,0.2808,0.2440,-2.1992,rough,14.0,1,3.923
1150,36.80,2.6301,-7.1211,1.0326,0.2627,0.2604,-2.2765,rough,14.0,1,3.562
1160,37.12,2.3540,-7.4342,0.9210,0.2455,0.2762,-2.3553,rough,14.0,1,3.201
1170,37.44,2.0477,-7.7143,0.8006,0.2247,0.2880,-2.4335,rough,14.0,1,2.832
1180,37.76,1.7298,-7.9775,0.6782,0.2035,0.3018,-2.5198,rough,14.0,1,2.470
1190,38.08,1.3891,-8.2038,0.5506,0.1793,0.3100,-2.6036,rough,14.0,1,2.106
1200,38.40,1.0348,-8.4057,0.4208,0.1515,0.3222,-2.7076,rough,14.0,1,1.747
1210,38.72,0.6616,-8.5660,0.2858,0.1199,0.3264,-2.8053,rough,14.0,1,1.390
1220,39.04,0.3381,-8.6095,0.1760,0.1564,0.2683,-2.6842,rough,14.0,1,1.081
1230,39.36,0.1698,-8.5299,0.1356,0.2486,0.0796,-2.3061,rough,14.0,1,0.899
1240,39.68,0.0469,-8.5501,0.1010,0.1937,0.0447,-1.8730,rough,14.0,2,5.688
1250,40.00,0.0027,-8.5965,0.0878,0.1682,-0.0007,-1.6196,rough,14.0,2,5.700
1260,40.32,0.0101,-8.6351,0.0895,0.1674,-0.0207,-1.5030,rough,14.0,2,5.736
1270,40.64,0.0307,-8.6406,0.0959,0.1650,-0.0558,-1.4116,rough,14.0,2,5.752
1280,40.96,0.0524,-8.6368,0.1018,0.1664,-0.0717,-1.3934,rough,14.0,2,5.762
1290,41.28,0.0644,-8.6347,0.1046,0.1776,-0.0564,-1.4381,rough,14.0,2,5.767
1300,41.60,0.0735,-8.6336,0.1066,0.1856,-0.0450,-1.4702,rough,14.0,2,5.771
1310,41.92,0.0804,-8.6331,0.1082,0.1915,-0.0364,-1.4939,rough,14.0,2,5.775
1320,42.24,0.0858,-8.6328,0.1094,0.1959,-0.0300,-1.5118,rough,14.0,2,5.778
1330,42.56,0.0898,-8.6328,0.1103,0.1992,-0.0250,-1.5254,rough,14.0,2,5.780
1340,42.88,0.0930,-8.6327,0.1110,0.2017,-0.0213,-1.5357,rough,14.0,2,5.782
1350,43.20,0.0955,-8.6328,0.1116,0.2036,-0.0184,-1.5436,rough,14.0,2,5.784
1360,43.52,0.0974,-8.6328,0.1120,0.2051,-0.0162,-1.5496,rough,14.0,2,5.785
1370,43.84,0.0989,-8.6329,0.1123,0.2062,-0.0146,-1.5543,rough,14.0,2,5.786
1380,44.16,0.1006,-8.6324,0.1128,0.2072,-0.0141,-1.5554,rough,14.0,2,5.786
1390,44.48,0.1021,-8.6325,0.1131,0.2080,-0.0136,-1.5570,rough,14.0,2,5.787
1400,44.80,0.1035,-8.6315,0.1135,0.2088,-0.0131,-1.5582,rough,14.0,2,5.787
1410,45.12,0.1045,-8.6306,0.1137,0.2093,-0.0124,-1.5607,rough,14.0,2,5.787
1420,45.44,0.1054,-8.6304,0.1140,0.2098,-0.0119,-1.5625,rough,14.0,2,5.787
1430,45.76,0.1061,-8.6299,0.1142,0.2102,-0.0115,-1.5640,rough,14.0,2,5.787
1440,46.08,0.1068,-8.6295,0.1143,0.2105,-0.0112,-1.5651,rough,14.0,2,5.788
1450,46.40,0.1073,-8.6297,0.1145,0.2108,-0.0109,-1.5661,rough,14.0,2,5.788
1460,46.72,0.1078,-8.6291,0.1146,0.2110,-0.0108,-1.5669,rough,14.0,2,5.788
1470,47.04,0.1081,-8.6290,0.1147,0.2112,-0.0106,-1.5677,rough,14.0,2,5.788
1480,47.36,0.1084,-8.6290,0.1148,0.2113,-0.0104,-1.5684,rough,14.0,2,5.788
1490,47.68,0.1087,-8.6290,0.1148,0.2114,-0.0103,-1.5689,rough,14.0,2,5.788
1500,48.00,0.1089,-8.6293,0.1149,0.2115,-0.0102,-1.5693,rough,14.0,2,5.789
1510,48.32,0.1090,-8.6288,0.1149,0.2116,-0.0101,-1.5697,rough,14.0,2,5.788
1520,48.64,0.1092,-8.6283,0.1150,0.2117,-0.0101,-1.5701,rough,14.0,2,5.788
1530,48.96,0.1093,-8.6291,0.1150,0.2117,-0.0100,-1.5704,rough,14.0,2,5.789
1540,49.28,0.1093,-8.6288,0.1150,0.2117,-0.0099,-1.5706,rough,14.0,2,5.788
1550,49.60,0.1094,-8.6287,0.1150,0.2117,-0.0099,-1.5708,rough,14.0,2,5.788
1560,49.92,0.1094,-8.6287,0.1150,0.2117,-0.0099,-1.5708,rough,14.0,2,5.788
1570,50.24,0.1094,-8.6286,0.1150,0.2117,-0.0099,-1.5709,rough,14.0,2,5.788
1580,50.56,0.1094,-8.6287,0.1150,0.2116,-0.0099,-1.5709,rough,14.0,2,5.788
1590,50.88,0.1094,-8.6287,0.1150,0.2116,-0.0099,-1.5710,rough,14.0,2,5.788
1600,51.20,0.1094,-8.6287,0.1150,0.2116,-0.0099,-1.5710,rough,14.0,2,5.788
1610,51.52,0.1094,-8.6287,0.1150,0.2115,-0.0098,-1.5710,rough,14.0,2,5.788
1620,51.84,0.1094,-8.6287,0.1150,0.2115,-0.0098,-1.5710,rough,14.0,2,5.788
1630,52.16,0.1094,-8.6287,0.1150,0.2115,-0.0098,-1.5710,rough,14.0,2,5.788
1640,52.48,0.1093,-8.6287,0.1150,0.2115,-0.0098,-1.5710,rough,14.0,2,5.788
1650,52.80,0.1093,-8.6287,0.1150,0.2115,-0.0098,-1.5710,rough,14.0,2,5.788
1660,53.12,0.1093,-8.6287,0.1150,0.2115,-0.0098,-1.5710,rough,14.0,2,5.788
1670,53.44,0.1093,-8.6287,0.1150,0.2115,-0.0098,-1.5710,rough,14.0,2,5.788
1680,53.76,0.1092,-8.6287,0.1150,0.2114,-0.0098,-1.5710,rough,14.0,2,5.788
1690,54.08,0.1092,-8.6287,0.1150,0.2114,-0.0098,-1.5710,rough,14.0,2,5.788
1700,54.40,0.1092,-8.6287,0.1149,0.2114,-0.0098,-1.5710,rough,14.0,2,5.788
1710,54.72,0.1091,-8.6287,0.1149,0.2114,-0.0098,-1.5710,rough,14.0,2,5.788
1720,55.04,0.1091,-8.6287,0.1149,0.2114,-0.0098,-1.5710,rough,14.0,2,5.788
1730,55.36,0.1091,-8.6287,0.1149,0.2114,-0.0098,-1.5710,rough,14.0,2,5.788
1740,55.68,0.1091,-8.6287,0.1149,0.2114,-0.0098,-1.5710,rough,14.0,2,5.788
1750,56.00,0.1090,-8.6287,0.1149,0.2114,-0.0098,-1.5710,rough,14.0,2,5.788
1760,56.32,0.1090,-8.6287,0.1149,0.2113,-0.0098,-1.5710,rough,14.0,2,5.788
1770,56.64,0.1090,-8.6287,0.1149,0.2113,-0.0098,-1.5710,rough,14.0,2,5.788
1780,56.96,0.1090,-8.6287,0.1149,0.2113,-0.0098,-1.5710,rough,14.0,2,5.788
1790,57.28,0.1089,-8.6287,0.1149,0.2113,-0.0098,-1.5710,rough,14.0,2,5.788
1800,57.60,0.1089,-8.6287,0.1149,0.2113,-0.0098,-1.5710,rough,14.0,2,5.788
1810,57.92,0.1089,-8.6287,0.1149,0.2113,-0.0098,-1.5710,rough,14.0,2,5.788
1820,58.24,0.1089,-8.6287,0.1149,0.2113,-0.0098,-1.5710,rough,14.0,2,5.788
1830,58.56,0.1088,-8.6287,0.1149,0.2113,-0.0098,-1.5710,rough,14.0,2,5.788
1840,58.88,0.1088,-8.6287,0.1148,0.2112,-0.0098,-1.5710,rough,14.0,2,5.788
1850,59.20,0.1088,-8.6287,0.1148,0.2112,-0.0098,-1.5710,rough,14.0,2,5.788
1860,59.52,0.1087,-8.6287,0.1148,0.2112,-0.0098,-1.5710,rough,14.0,2,5.788
1870,59.84,0.1087,-8.6287,0.1148,0.2112,-0.0098,-1.5710,rough,14.0,2,5.788
1880,60.16,0.1087,-8.6287,0.1148,0.2112,-0.0098,-1.5710,rough,14.0,2,5.788
1890,60.48,0.1087,-8.6287,0.1148,0.2112,-0.0098,-1.5710,rough,14.0,2,5.788
1900,60.80,0.1086,-8.6287,0.1148,0.2112,-0.0098,-1.5710,rough,14.0,2,5.788
1910,61.12,0.1086,-8.6287,0.1148,0.2112,-0.0098,-1.5710,rough,14.0,2,5.788
1920,61.44,0.1086,-8.6287,0.1148,0.2111,-0.0098,-1.5710,rough,14.0,2,5.788
1930,61.76,0.1086,-8.6287,0.1148,0.2111,-0.0098,-1.5710,rough,14.0,2,5.788
1940,62.08,0.1085,-8.6287,0.1148,0.2111,-0.0098,-1.5710,rough,14.0,2,5.788
1950,62.40,0.1085,-8.6287,0.1148,0.2111,-0.0098,-1.5710,rough,14.0,2,5.788
1960,62.72,0.1085,-8.6287,0.1148,0.2111,-0.0098,-1.5710,rough,14.0,2,5.788
1970,63.04,0.1085,-8.6287,0.1148,0.2111,-0.0098,-1.5710,rough,14.0,2,5.788
1980,63.36,0.1084,-8.6287,0.1147,0.2111,-0.0098,-1.5710,rough,14.0,2,5.788
1990,63.68,0.1084,-8.6287,0.1147,0.2111,-0.0098,-1.5710,rough,14.0,2,5.788
2000,64.00,0.1084,-8.6287,0.1147,0.2110,-0.0098,-1.5710,rough,14.0,2,5.788
2010,64.32,0.1084,-8.6287,0.1147,0.2110,-0.0098,-1.5710,rough,14.0,2,5.788
2020,64.64,0.1083,-8.6287,0.1147,0.2110,-0.0098,-1.5710,rough,14.0,2,5.788
2030,64.96,0.1083,-8.6287,0.1147,0.2110,-0.0098,-1.5710,rough,14.0,2,5.788
2040,65.28,0.1083,-8.6287,0.1147,0.2110,-0.0098,-1.5710,rough,14.0,2,5.788
2050,65.60,0.1083,-8.6287,0.1147,0.2110,-0.0098,-1.5710,rough,14.0,2,5.788
2060,65.92,0.1082,-8.6287,0.1147,0.2110,-0.0098,-1.5710,rough,14.0,2,5.788
2070,66.24,0.1082,-8.6287,0.1147,0.2110,-0.0098,-1.5710,rough,14.0,2,5.788
2080,66.56,0.1082,-8.6287,0.1147,0.2109,-0.0098,-1.5710,rough,14.0,2,5.788
2090,66.88,0.1082,-8.6287,0.1147,0.2109,-0.0098,-1.5710,rough,14.0,2,5.788
2100,67.20,0.1081,-8.6287,0.1147,0.2109,-0.0098,-1.5710,rough,14.0,2,5.788
2110,67.52,0.1081,-8.6287,0.1147,0.2109,-0.0098,-1.5710,rough,14.0,2,5.788
2120,67.84,0.1081,-8.6287,0.1147,0.2109,-0.0098,-1.5710,rough,14.0,2,5.788
2130,68.16,0.1081,-8.6287,0.1146,0.2109,-0.0098,-1.5710,rough,14.0,2,5.788
2140,68.48,0.1080,-8.6287,0.1146,0.2109,-0.0098,-1.5710,rough,14.0,2,5.788
2150,68.80,0.1080,-8.6287,0.1146,0.2109,-0.0098,-1.5710,rough,14.0,2,5.788
2160,69.12,0.1080,-8.6287,0.1146,0.2108,-0.0098,-1.5710,rough,14.0,2,5.788
2170,69.44,0.1080,-8.6287,0.1146,0.2108,-0.0098,-1.5710,rough,14.0,2,5.788
2180,69.76,0.1079,-8.6287,0.1146,0.2108,-0.0098,-1.5710,rough,14.0,2,5.788
2190,70.08,0.1079,-8.6287,0.1146,0.2108,-0.0098,-1.5710,rough,14.0,2,5.788
2200,70.40,0.1079,-8.6287,0.1146,0.2108,-0.0098,-1.5710,rough,14.0,2,5.787
2210,70.72,0.1079,-8.6287,0.1146,0.2108,-0.0098,-1.5710,rough,14.0,2,5.787
2220,71.04,0.1078,-8.6287,0.1146,0.2108,-0.0098,-1.5710,rough,14.0,2,5.787
2230,71.36,0.1078,-8.6287,0.1146,0.2108,-0.0098,-1.5710,rough,14.0,2,5.787
2240,71.68,0.1078,-8.6287,0.1146,0.2107,-0.0098,-1.5710,rough,14.0,2,5.787
2250,72.00,0.1078,-8.6287,0.1146,0.2107,-0.0098,-1.5710,rough,14.0,2,5.787
2260,72.32,0.1077,-8.6287,0.1146,0.2107,-0.0098,-1.5710,rough,14.0,2,5.787
2270,72.64,0.1077,-8.6287,0.1146,0.2107,-0.0098,-1.5710,rough,14.0,2,5.787
2280,72.96,0.1077,-8.6287,0.1145,0.2107,-0.0098,-1.5710,rough,14.0,2,5.787
2290,73.28,0.1077,-8.6287,0.1145,0.2107,-0.0098,-1.5710,rough,14.0,2,5.787
2300,73.60,0.1076,-8.6287,0.1145,0.2107,-0.0098,-1.5710,rough,14.0,2,5.787
2310,73.92,0.1076,-8.6287,0.1145,0.2107,-0.0098,-1.5710,rough,14.0,2,5.787
2320,74.24,0.1076,-8.6287,0.1145,0.2107,-0.0098,-1.5710,rough,14.0,2,5.787
2330,74.56,0.1076,-8.6287,0.1145,0.2106,-0.0098,-1.5710,rough,14.0,2,5.787
2340,74.88,0.1075,-8.6287,0.1145,0.2106,-0.0098,-1.5710,rough,14.0,2,5.787
2350,75.20,0.1075,-8.6287,0.1145,0.2106,-0.0098,-1.5710,rough,14.0,2,5.787
2360,75.52,0.1075,-8.6287,0.1145,0.2106,-0.0098,-1.5710,rough,14.0,2,5.787
2370,75.84,0.1075,-8.6287,0.1145,0.2106,-0.0098,-1.5710,rough,14.0,2,5.787
2380,76.16,0.1074,-8.6287,0.1145,0.2106,-0.0098,-1.5710,rough,14.0,2,5.787
2390,76.48,0.1074,-8.6287,0.1145,0.2106,-0.0098,-1.5710,rough,14.0,2,5.787
2400,76.80,0.1074,-8.6287,0.1145,0.2106,-0.0098,-1.5710,rough,14.0,2,5.787
2410,77.12,0.1074,-8.6287,0.1145,0.2106,-0.0098,-1.5710,rough,14.0,2,5.787
2420,77.44,0.1073,-8.6287,0.1145,0.2105,-0.0098,-1.5710,rough,14.0,2,5.787
2430,77.76,0.1073,-8.6287,0.1144,0.2105,-0.0098,-1.5710,rough,14.0,2,5.787
2440,78.08,0.1073,-8.6287,0.1144,0.2105,-0.0098,-1.5710,rough,14.0,2,5.787
2450,78.40,0.1073,-8.6287,0.1144,0.2105,-0.0098,-1.5710,rough,14.0,2,5.787
2460,78.72,0.1072,-8.6287,0.1144,0.2105,-0.0098,-1.5710,rough,14.0,2,5.787
2470,79.04,0.1072,-8.6287,0.1144,0.2105,-0.0098,-1.5710,rough,14.0,2,5.787
2480,79.36,0.1072,-8.6287,0.1144,0.2105,-0.0098,-1.5710,rough,14.0,2,5.787
2490,79.68,0.1072,-8.6287,0.1144,0.2105,-0.0098,-1.5710,rough,14.0,2,5.787
2500,80.00,0.1072,-8.6287,0.1144,0.2105,-0.0098,-1.5710,rough,14.0,2,5.787
2510,80.32,0.1071,-8.6287,0.1144,0.2104,-0.0098,-1.5710,rough,14.0,2,5.787
2520,80.64,0.1071,-8.6287,0.1144,0.2104,-0.0098,-1.5710,rough,14.0,2,5.787
2530,80.96,0.1071,-8.6287,0.1144,0.2104,-0.0098,-1.5710,rough,14.0,2,5.787
2540,81.28,0.1071,-8.6287,0.1144,0.2104,-0.0098,-1.5710,rough,14.0,2,5.787
2550,81.60,0.1070,-8.6287,0.1144,0.2104,-0.0098,-1.5710,rough,14.0,2,5.787
2560,81.92,0.1070,-8.6287,0.1144,0.2104,-0.0098,-1.5710,rough,14.0,2,5.787
2570,82.24,0.1070,-8.6287,0.1144,0.2104,-0.0098,-1.5710,rough,14.0,2,5.787
2580,82.56,0.1070,-8.6287,0.1144,0.2104,-0.0098,-1.5710,rough,14.0,2,5.787
2590,82.88,0.1069,-8.6287,0.1143,0.2104,-0.0098,-1.5710,rough,14.0,2,5.787
2600,83.20,0.1069,-8.6287,0.1143,0.2103,-0.0098,-1.5710,rough,14.0,2,5.787
2610,83.52,0.1069,-8.6287,0.1143,0.2103,-0.0098,-1.5710,rough,14.0,2,5.787
2620,83.84,0.1069,-8.6287,0.1143,0.2103,-0.0098,-1.5710,rough,14.0,2,5.787
2630,84.16,0.1069,-8.6287,0.1143,0.2103,-0.0098,-1.5710,rough,14.0,2,5.787
2640,84.48,0.1068,-8.6287,0.1143,0.2103,-0.0098,-1.5710,rough,14.0,2,5.787
2650,84.80,0.1068,-8.6287,0.1143,0.2103,-0.0098,-1.5710,rough,14.0,2,5.787
2660,85.12,0.1068,-8.6287,0.1143,0.2103,-0.0098,-1.5710,rough,14.0,2,5.787
2670,85.44,0.1068,-8.6287,0.1143,0.2103,-0.0098,-1.5710,rough,14.0,2,5.787
2680,85.76,0.1067,-8.6287,0.1143,0.2103,-0.0098,-1.5710,rough,14.0,2,5.787
2690,86.08,0.1067,-8.6287,0.1143,0.2102,-0.0098,-1.5710,rough,14.0,2,5.787
2700,86.40,0.1067,-8.6287,0.1143,0.2102,-0.0098,-1.5710,rough,14.0,2,5.787
2710,86.72,0.1067,-8.6287,0.1143,0.2102,-0.0098,-1.5710,rough,14.0,2,5.787
2720,87.04,0.1066,-8.6287,0.1143,0.2102,-0.0098,-1.5710,rough,14.0,2,5.787
2730,87.36,0.1066,-8.6287,0.1143,0.2102,-0.0098,-1.5710,rough,14.0,2,5.787
2740,87.68,0.1066,-8.6287,0.1143,0.2102,-0.0098,-1.5710,rough,14.0,2,5.787
2750,88.00,0.1066,-8.6287,0.1143,0.2102,-0.0098,-1.5710,rough,14.0,2,5.787
2760,88.32,0.1066,-8.6287,0.1142,0.2102,-0.0098,-1.5710,rough,14.0,2,5.787
2770,88.64,0.1065,-8.6287,0.1142,0.2102,-0.0098,-1.5710,rough,14.0,2,5.787
2780,88.96,0.1065,-8.6287,0.1142,0.2101,-0.0098,-1.5710,rough,14.0,2,5.787
2790,89.28,0.1065,-8.6287,0.1142,0.2101,-0.0098,-1.5710,rough,14.0,2,5.787
2800,89.60,0.1065,-8.6287,0.1142,0.2101,-0.0098,-1.5710,rough,14.0,2,5.787
2810,89.92,0.1064,-8.6287,0.1142,0.2101,-0.0098,-1.5710,rough,14.0,2,5.787
2820,90.24,0.1064,-8.6287,0.1142,0.2101,-0.0098,-1.5710,rough,14.0,2,5.787
2830,90.56,0.1064,-8.6287,0.1142,0.2101,-0.0098,-1.5710,rough,14.0,2,5.787
2840,90.88,0.1064,-8.6287,0.1142,0.2101,-0.0098,-1.5710,rough,14.0,2,5.787
2850,91.20,0.1063,-8.6287,0.1142,0.2101,-0.0098,-1.5710,rough,14.0,2,5.787
2860,91.52,0.1063,-8.6287,0.1142,0.2101,-0.0098,-1.5710,rough,14.0,2,5.787
2870,91.84,0.1063,-8.6287,0.1142,0.2100,-0.0098,-1.5710,rough,14.0,2,5.787
2880,92.16,0.1063,-8.6287,0.1142,0.2100,-0.0098,-1.5710,rough,14.0,2,5.787
2890,92.48,0.1063,-8.6287,0.1142,0.2100,-0.0098,-1.5710,rough,14.0,2,5.787
2900,92.80,0.1062,-8.6287,0.1142,0.2100,-0.0098,-1.5710,rough,14.0,2,5.787
2910,93.12,0.1062,-8.6287,0.1142,0.2100,-0.0098,-1.5710,rough,14.0,2,5.787
2920,93.44,0.1062,-8.6287,0.1141,0.2100,-0.0098,-1.5710,rough,14.0,2,5.787
2930,93.76,0.1062,-8.6287,0.1141,0.2100,-0.0098,-1.5710,rough,14.0,2,5.787
2940,94.08,0.1061,-8.6287,0.1141,0.2100,-0.0098,-1.5710,rough,14.0,2,5.786
2950,94.40,0.1061,-8.6287,0.1141,0.2100,-0.0098,-1.5710,rough,14.0,2,5.786
2960,94.72,0.1061,-8.6287,0.1141,0.2099,-0.0098,-1.5710,rough,14.0,2,5.786
2970,95.04,0.1061,-8.6287,0.1141,0.2099,-0.0098,-1.5710,rough,14.0,2,5.786
2980,95.36,0.1061,-8.6287,0.1141,0.2099,-0.0098,-1.5710,rough,14.0,2,5.786
2990,95.68,0.1060,-8.6287,0.1141,0.2099,-0.0098,-1.5710,rough,14.0,2,5.786
3000,96.00,0.1060,-8.6287,0.1141,0.2099,-0.0098,-1.5710,rough,14.0,2,5.786
3010,96.32,0.1060,-8.6287,0.1141,0.2099,-0.0098,-1.5710,rough,14.0,2,5.786
3020,96.64,0.1060,-8.6287,0.1141,0.2099,-0.0098,-1.5710,rough,14.0,2,5.786
3030,96.96,0.1059,-8.6287,0.1141,0.2099,-0.0098,-1.5710,rough,14.0,2,5.786
3040,97.28,0.1059,-8.6287,0.1141,0.2099,-0.0098,-1.5710,rough,14.0,2,5.786
3050,97.60,0.1059,-8.6287,0.1141,0.2099,-0.0098,-1.5710,rough,14.0,2,5.786
3060,97.92,0.1059,-8.6287,0.1141,0.2098,-0.0098,-1.5710,rough,14.0,2,5.786
3070,98.24,0.1059,-8.6287,0.1141,0.2098,-0.0098,-1.5710,rough,14.0,2,5.786
3080,98.56,0.1058,-8.6287,0.1141,0.2098,-0.0098,-1.5710,rough,14.0,2,5.786
3090,98.88,0.1058,-8.6287,0.1140,0.2098,-0.0098,-1.5710,rough,14.0,2,5.786
3100,99.20,0.1058,-8.6287,0.1140,0.2098,-0.0098,-1.5710,rough,14.0,2,5.786
3110,99.52,0.1058,-8.6287,0.1140,0.2098,-0.0098,-1.5710,rough,14.0,2,5.786
3120,99.84,0.1058,-8.6287,0.1140,0.2098,-0.0098,-1.5710,rough,14.0,2,5.786
3130,100.16,0.1057,-8.6287,0.1140,0.2098,-0.0098,-1.5710,rough,14.0,2,5.786
3140,100.48,0.1057,-8.6287,0.1140,0.2098,-0.0098,-1.5710,rough,14.0,2,5.786
3150,100.80,0.1057,-8.6287,0.1140,0.2097,-0.0098,-1.5710,rough,14.0,2,5.786
3160,101.12,0.1057,-8.6287,0.1140,0.2097,-0.0098,-1.5710,rough,14.0,2,5.786
3170,101.44,0.1056,-8.6287,0.1140,0.2097,-0.0098,-1.5710,rough,14.0,2,5.786
3180,101.76,0.1056,-8.6287,0.1140,0.2097,-0.0098,-1.5710,rough,14.0,2,5.786
3190,102.08,0.1056,-8.6287,0.1140,0.2097,-0.0098,-1.5710,rough,14.0,2,5.786
3200,102.40,0.1056,-8.6287,0.1140,0.2097,-0.0098,-1.5710,rough,14.0,2,5.786
3210,102.72,0.1056,-8.6287,0.1140,0.2097,-0.0098,-1.5710,rough,14.0,2,5.786
3220,103.04,0.1055,-8.6287,0.1140,0.2097,-0.0098,-1.5710,rough,14.0,2,5.786
3230,103.36,0.1055,-8.6287,0.1140,0.2097,-0.0098,-1.5710,rough,14.0,2,5.786
3240,103.68,0.1055,-8.6287,0.1140,0.2097,-0.0098,-1.5710,rough,14.0,2,5.786
3250,104.00,0.1055,-8.6287,0.1140,0.2096,-0.0098,-1.5710,rough,14.0,2,5.786
3260,104.32,0.1054,-8.6287,0.1140,0.2096,-0.0098,-1.5710,rough,14.0,2,5.786
3270,104.64,0.1054,-8.6287,0.1139,0.2096,-0.0098,-1.5710,rough,14.0,2,5.786
3280,104.96,0.1054,-8.6287,0.1139,0.2096,-0.0098,-1.5710,rough,14.0,2,5.786
3290,105.28,0.1054,-8.6287,0.1139,0.2096,-0.0098,-1.5710,rough,14.0,2,5.786
3300,105.60,0.1054,-8.6287,0.1139,0.2096,-0.0098,-1.5710,rough,14.0,2,5.786
3310,105.92,0.1053,-8.6287,0.1139,0.2096,-0.0098,-1.5710,rough,14.0,2,5.786
3320,106.24,0.1053,-8.6287,0.1139,0.2096,-0.0098,-1.5710,rough,14.0,2,5.786
3330,106.56,0.1053,-8.6287,0.1139,0.2096,-0.0098,-1.5710,rough,14.0,2,5.786
3340,106.88,0.1053,-8.6287,0.1139,0.2096,-0.0098,-1.5710,rough,14.0,2,5.786
3350,107.20,0.1053,-8.6287,0.1139,0.2095,-0.0098,-1.5710,rough,14.0,2,5.786
3360,107.52,0.1052,-8.6287,0.1139,0.2095,-0.0098,-1.5710,rough,14.0,2,5.786
3370,107.84,0.1052,-8.6287,0.1139,0.2095,-0.0098,-1.5710,rough,14.0,2,5.786
3380,108.16,0.1052,-8.6287,0.1139,0.2095,-0.0098,-1.5710,rough,14.0,2,5.786
3390,108.48,0.1052,-8.6287,0.1139,0.2095,-0.0098,-1.5710,rough,14.0,2,5.786
3400,108.80,0.1052,-8.6287,0.1139,0.2095,-0.0098,-1.5710,rough,14.0,2,5.786
3410,109.12,0.1051,-8.6287,0.1139,0.2095,-0.0098,-1.5710,rough,14.0,2,5.786
3420,109.44,0.1051,-8.6287,0.1139,0.2095,-0.0098,-1.5710,rough,14.0,2,5.786
3430,109.76,0.1051,-8.6287,0.1139,0.2095,-0.0098,-1.5710,rough,14.0,2,5.786
3440,110.08,0.1051,-8.6287,0.1139,0.2095,-0.0098,-1.5710,rough,14.0,2,5.786
3450,110.40,0.1050,-8.6287,0.1138,0.2094,-0.0098,-1.5710,rough,14.0,2,5.786
3460,110.72,0.1050,-8.6287,0.1138,0.2094,-0.0098,-1.5710,rough,14.0,2,5.786
3470,111.04,0.1050,-8.6287,0.1138,0.2094,-0.0098,-1.5710,rough,14.0,2,5.786
3480,111.36,0.1050,-8.6287,0.1138,0.2094,-0.0098,-1.5710,rough,14.0,2,5.786
3490,111.68,0.1050,-8.6287,0.1138,0.2094,-0.0098,-1.5710,rough,14.0,2,5.786
3500,112.00,0.1049,-8.6287,0.1138,0.2094,-0.0098,-1.5710,rough,14.0,2,5.786
3510,112.32,0.1049,-8.6287,0.1138,0.2094,-0.0098,-1.5710,rough,14.0,2,5.786
3520,112.64,0.1049,-8.6287,0.1138,0.2094,-0.0098,-1.5710,rough,14.0,2,5.786
3530,112.96,0.1049,-8.6287,0.1138,0.2094,-0.0098,-1.5710,rough,14.0,2,5.786
3540,113.28,0.1049,-8.6287,0.1138,0.2094,-0.0098,-1.5710,rough,14.0,2,5.786
3550,113.60,0.1048,-8.6287,0.1138,0.2093,-0.0098,-1.5710,rough,14.0,2,5.786
3560,113.92,0.1048,-8.6287,0.1138,0.2093,-0.0098,-1.5710,rough,14.0,2,5.786
3570,114.24,0.1048,-8.6287,0.1138,0.2093,-0.0098,-1.5710,rough,14.0,2,5.786
3580,114.56,0.1048,-8.6287,0.1138,0.2093,-0.0098,-1.5710,rough,14.0,2,5.786
3590,114.88,0.1048,-8.6287,0.1138,0.2093,-0.0098,-1.5710,rough,14.0,2,5.786
3600,115.20,0.1047,-8.6287,0.1138,0.2093,-0.0098,-1.5710,rough,14.0,2,5.786
3610,115.52,0.1047,-8.6287,0.1138,0.2093,-0.0098,-1.5710,rough,14.0,2,5.786
3620,115.84,0.1047,-8.6287,0.1138,0.2093,-0.0098,-1.5710,rough,14.0,2,5.786
3630,116.16,0.1047,-8.6287,0.1137,0.2093,-0.0098,-1.5710,rough,14.0,2,5.786
3640,116.48,0.1047,-8.6287,0.1137,0.2093,-0.0098,-1.5710,rough,14.0,2,5.786
3650,116.80,0.1046,-8.6287,0.1137,0.2092,-0.0098,-1.5710,rough,14.0,2,5.786
3660,117.12,0.1046,-8.6287,0.1137,0.2092,-0.0098,-1.5710,rough,14.0,2,5.786
3670,117.44,0.1046,-8.6287,0.1137,0.2092,-0.0098,-1.5710,rough,14.0,2,5.786
3680,117.76,0.1046,-8.6287,0.1137,0.2092,-0.0098,-1.5710,rough,14.0,2,5.786
3690,118.08,0.1046,-8.6287,0.1137,0.2092,-0.0098,-1.5710,rough,14.0,2,5.786
3700,118.40,0.1045,-8.6287,0.1137,0.2092,-0.0098,-1.5710,rough,14.0,2,5.786
3710,118.72,0.1045,-8.6287,0.1137,0.2092,-0.0098,-1.5710,rough,14.0,2,5.786
3720,119.04,0.1045,-8.6287,0.1137,0.2092,-0.0098,-1.5710,rough,14.0,2,5.786
3730,119.36,0.1045,-8.6287,0.1137,0.2092,-0.0098,-1.5710,rough,14.0,2,5.786
3740,119.68,0.1044,-8.6287,0.1137,0.2092,-0.0098,-1.5710,rough,14.0,2,5.785
3750,120.00,0.1044,-8.6287,0.1137,0.2091,-0.0098,-1.5710,rough,14.0,2,5.785
3760,120.32,0.1044,-8.6287,0.1137,0.2091,-0.0098,-1.5710,rough,14.0,2,5.785
3770,120.64,0.1044,-8.6287,0.1137,0.2091,-0.0098,-1.5710,rough,14.0,2,5.785
3780,120.96,0.1044,-8.6287,0.1137,0.2091,-0.0098,-1.5710,rough,14.0,2,5.785
3790,121.28,0.1043,-8.6287,0.1137,0.2091,-0.0098,-1.5710,rough,14.0,2,5.785
3800,121.60,0.1043,-8.6287,0.1137,0.2091,-0.0098,-1.5710,rough,14.0,2,5.785
3810,121.92,0.1043,-8.6287,0.1136,0.2091,-0.0098,-1.5710,rough,14.0,2,5.785
3820,122.24,0.1043,-8.6287,0.1136,0.2091,-0.0098,-1.5710,rough,14.0,2,5.785
3830,122.56,0.1043,-8.6287,0.1136,0.2091,-0.0098,-1.5710,rough,14.0,2,5.785
3840,122.88,0.1042,-8.6287,0.1136,0.2091,-0.0098,-1.5710,rough,14.0,2,5.785
3850,123.20,0.1042,-8.6287,0.1136,0.2090,-0.0098,-1.5710,rough,14.0,2,5.785
3860,123.52,0.1042,-8.6287,0.1136,0.2090,-0.0098,-1.5710,rough,14.0,2,5.785
3870,123.84,0.1042,-8.6287,0.1136,0.2090,-0.0098,-1.5710,rough,14.0,2,5.785
3880,124.16,0.1042,-8.6287,0.1136,0.2090,-0.0098,-1.5710,rough,14.0,2,5.785
3890,124.48,0.1041,-8.6287,0.1136,0.2090,-0.0098,-1.5710,rough,14.0,2,5.785
3900,124.80,0.1041,-8.6287,0.1136,0.2090,-0.0098,-1.5710,rough,14.0,2,5.785
3910,125.12,0.1041,-8.6287,0.1136,0.2090,-0.0098,-1.5710,rough,14.0,2,5.785
3920,125.44,0.1041,-8.6287,0.1136,0.2090,-0.0098,-1.5710,rough,14.0,2,5.785
3930,125.76,0.1041,-8.6287,0.1136,0.2090,-0.0098,-1.5710,rough,14.0,2,5.785
3940,126.08,0.1040,-8.6287,0.1136,0.2090,-0.0098,-1.5710,rough,14.0,2,5.785
3950,126.40,0.1040,-8.6287,0.1136,0.2090,-0.0098,-1.5710,rough,14.0,2,5.785
3960,126.72,0.1040,-8.6287,0.1136,0.2089,-0.0098,-1.5710,rough,14.0,2,5.785
3970,127.04,0.1040,-8.6287,0.1136,0.2089,-0.0098,-1.5710,rough,14.0,2,5.785
3980,127.36,0.1040,-8.6287,0.1136,0.2089,-0.0098,-1.5710,rough,14.0,2,5.785
3990,127.68,0.1040,-8.6287,0.1136,0.2089,-0.0098,-1.5710,rough,14.0,2,5.785
4000,128.00,0.1039,-8.6287,0.1135,0.2089,-0.0098,-1.5710,rough,14.0,2,5.785
4010,128.32,0.1039,-8.6287,0.1135,0.2089,-0.0098,-1.5710,rough,14.0,2,5.785
4020,128.64,0.1039,-8.6287,0.1135,0.2089,-0.0098,-1.5710,rough,14.0,2,5.785
4030,128.96,0.1039,-8.6287,0.1135,0.2089,-0.0098,-1.5710,rough,14.0,2,5.785
4040,129.28,0.1039,-8.6287,0.1135,0.2089,-0.0098,-1.5710,rough,14.0,2,5.785
4050,129.60,0.1038,-8.6287,0.1135,0.2089,-0.0098,-1.5710,rough,14.0,2,5.785
4060,129.92,0.1038,-8.6287,0.1135,0.2089,-0.0098,-1.5710,rough,14.0,2,5.785
4070,130.24,0.1038,-8.6287,0.1135,0.2088,-0.0098,-1.5710,rough,14.0,2,5.785
4080,130.56,0.1038,-8.6287,0.1135,0.2088,-0.0098,-1.5710,rough,14.0,2,5.785
4090,130.88,0.1038,-8.6287,0.1135,0.2088,-0.0098,-1.5710,rough,14.0,2,5.785
4100,131.20,0.1037,-8.6287,0.1135,0.2088,-0.0098,-1.5710,rough,14.0,2,5.785
4110,131.52,0.1037,-8.6287,0.1135,0.2088,-0.0098,-1.5710,rough,14.0,2,5.785
4120,131.84,0.1037,-8.6287,0.1135,0.2088,-0.0098,-1.5710,rough,14.0,2,5.785
4130,132.16,0.1037,-8.6287,0.1135,0.2088,-0.0098,-1.5710,rough,14.0,2,5.785
4140,132.48,0.1037,-8.6287,0.1135,0.2088,-0.0098,-1.5710,rough,14.0,2,5.785
4150,132.80,0.1036,-8.6287,0.1135,0.2088,-0.0098,-1.5710,rough,14.0,2,5.785
4160,133.12,0.1036,-8.6287,0.1135,0.2088,-0.0098,-1.5710,rough,14.0,2,5.785
4170,133.44,0.1036,-8.6287,0.1135,0.2087,-0.0098,-1.5710,rough,14.0,2,5.785
4180,133.76,0.1036,-8.6287,0.1135,0.2087,-0.0098,-1.5710,rough,14.0,2,5.785
4190,134.08,0.1036,-8.6287,0.1135,0.2087,-0.0098,-1.5710,rough,14.0,2,5.785
4200,134.40,0.1035,-8.6287,0.1134,0.2087,-0.0098,-1.5710,rough,14.0,2,5.785
4210,134.72,0.1035,-8.6287,0.1134,0.2087,-0.0098,-1.5710,rough,14.0,2,5.785
4220,135.04,0.1035,-8.6287,0.1134,0.2087,-0.0098,-1.5710,rough,14.0,2,5.785
4230,135.36,0.1035,-8.6287,0.1134,0.2087,-0.0098,-1.5710,rough,14.0,2,5.785
4240,135.68,0.1035,-8.6287,0.1134,0.2087,-0.0098,-1.5710,rough,14.0,2,5.785
4250,136.00,0.1034,-8.6287,0.1134,0.2087,-0.0098,-1.5710,rough,14.0,2,5.785
4260,136.32,0.1034,-8.6287,0.1134,0.2087,-0.0098,-1.5710,rough,14.0,2,5.785
4270,136.64,0.1034,-8.6287,0.1134,0.2087,-0.0098,-1.5710,rough,14.0,2,5.785
4280,136.96,0.1034,-8.6287,0.1134,0.2086,-0.0098,-1.5710,rough,14.0,2,5.785
4290,137.28,0.1034,-8.6287,0.1134,0.2086,-0.0098,-1.5710,rough,14.0,2,5.785
4300,137.60,0.1034,-8.6287,0.1134,0.2086,-0.0098,-1.5710,rough,14.0,2,5.785
4310,137.92,0.1033,-8.6287,0.1134,0.2086,-0.0098,-1.5710,rough,14.0,2,5.785
4320,138.24,0.1033,-8.6287,0.1134,0.2086,-0.0098,-1.5710,rough,14.0,2,5.785
4330,138.56,0.1033,-8.6287,0.1134,0.2086,-0.0098,-1.5710,rough,14.0,2,5.785
4340,138.88,0.1033,-8.6287,0.1134,0.2086,-0.0098,-1.5710,rough,14.0,2,5.785
4350,139.20,0.1033,-8.6287,0.1134,0.2086,-0.0098,-1.5710,rough,14.0,2,5.785
4360,139.52,0.1032,-8.6287,0.1134,0.2086,-0.0098,-1.5710,rough,14.0,2,5.785
4370,139.84,0.1032,-8.6287,0.1134,0.2086,-0.0098,-1.5710,rough,14.0,2,5.785
4380,140.16,0.1032,-8.6287,0.1134,0.2086,-0.0098,-1.5710,rough,14.0,2,5.785
4390,140.48,0.1032,-8.6287,0.1133,0.2085,-0.0098,-1.5710,rough,14.0,2,5.785
4400,140.80,0.1032,-8.6287,0.1133,0.2085,-0.0098,-1.5710,rough,14.0,2,5.785
4410,141.12,0.1031,-8.6287,0.1133,0.2085,-0.0098,-1.5710,rough,14.0,2,5.785
4420,141.44,0.1031,-8.6287,0.1133,0.2085,-0.0098,-1.5710,rough,14.0,2,5.785
4430,141.76,0.1031,-8.6287,0.1133,0.2085,-0.0098,-1.5710,rough,14.0,2,5.785
4440,142.08,0.1031,-8.6287,0.1133,0.2085,-0.0098,-1.5710,rough,14.0,2,5.785
4450,142.40,0.1031,-8.6287,0.1133,0.2085,-0.0098,-1.5710,rough,14.0,2,5.785
4460,142.72,0.1031,-8.6287,0.1133,0.2085,-0.0098,-1.5710,rough,14.0,2,5.785
4470,143.04,0.1030,-8.6287,0.1133,0.2085,-0.0098,-1.5710,rough,14.0,2,5.785
4480,143.36,0.1030,-8.6287,0.1133,0.2085,-0.0098,-1.5710,rough,14.0,2,5.785
4490,143.68,0.1030,-8.6287,0.1133,0.2085,-0.0098,-1.5710,rough,14.0,2,5.785
4500,144.00,0.1030,-8.6287,0.1133,0.2085,-0.0098,-1.5710,rough,14.0,2,5.785
4510,144.32,0.1030,-8.6287,0.1133,0.2084,-0.0098,-1.5710,rough,14.0,2,5.785
4520,144.64,0.1029,-8.6287,0.1133,0.2084,-0.0098,-1.5710,rough,14.0,2,5.785
4530,144.96,0.1029,-8.6287,0.1133,0.2084,-0.0098,-1.5710,rough,14.0,2,5.785
4540,145.28,0.1029,-8.6287,0.1133,0.2084,-0.0098,-1.5710,rough,14.0,2,5.785
4550,145.60,0.1029,-8.6287,0.1133,0.2084,-0.0098,-1.5710,rough,14.0,2,5.785
4560,145.92,0.1029,-8.6287,0.1133,0.2084,-0.0098,-1.5710,rough,14.0,2,5.785
4570,146.24,0.1029,-8.6287,0.1133,0.2084,-0.0098,-1.5710,rough,14.0,2,5.785
4580,146.56,0.1028,-8.6287,0.1133,0.2084,-0.0098,-1.5710,rough,14.0,2,5.785
4590,146.88,0.1028,-8.6287,0.1133,0.2084,-0.0098,-1.5710,rough,14.0,2,5.785
4600,147.20,0.1028,-8.6287,0.1132,0.2084,-0.0098,-1.5710,rough,14.0,2,5.785
4610,147.52,0.1028,-8.6287,0.1132,0.2084,-0.0098,-1.5710,rough,14.0,2,5.785
4620,147.84,0.1028,-8.6287,0.1132,0.2083,-0.0098,-1.5710,rough,14.0,2,5.785
4630,148.16,0.1027,-8.6287,0.1132,0.2083,-0.0098,-1.5710,rough,14.0,2,5.785
4640,148.48,0.1027,-8.6287,0.1132,0.2083,-0.0098,-1.5710,rough,14.0,2,5.784
4650,148.80,0.1027,-8.6287,0.1132,0.2083,-0.0098,-1.5710,rough,14.0,2,5.784
4660,149.12,0.1027,-8.6287,0.1132,0.2083,-0.0098,-1.5710,rough,14.0,2,5.784
4670,149.44,0.1027,-8.6287,0.1132,0.2083,-0.0098,-1.5710,rough,14.0,2,5.784
4680,149.76,0.1027,-8.6287,0.1132,0.2083,-0.0098,-1.5710,rough,14.0,2,5.784
4690,150.08,0.1026,-8.6287,0.1132,0.2083,-0.0098,-1.5710,rough,14.0,2,5.784
4700,150.40,0.1026,-8.6287,0.1132,0.2083,-0.0098,-1.5710,rough,14.0,2,5.784
4710,150.72,0.1026,-8.6287,0.1132,0.2083,-0.0098,-1.5710,rough,14.0,2,5.784
4720,151.04,0.1026,-8.6287,0.1132,0.2083,-0.0098,-1.5710,rough,14.0,2,5.784
4730,151.36,0.1026,-8.6287,0.1132,0.2083,-0.0098,-1.5710,rough,14.0,2,5.784
4740,151.68,0.1025,-8.6287,0.1132,0.2082,-0.0098,-1.5710,rough,14.0,2,5.784
4750,152.00,0.1025,-8.6287,0.1132,0.2082,-0.0098,-1.5710,rough,14.0,2,5.784
4760,152.32,0.1025,-8.6287,0.1132,0.2082,-0.0098,-1.5710,rough,14.0,2,5.784
4770,152.64,0.1025,-8.6287,0.1132,0.2082,-0.0098,-1.5710,rough,14.0,2,5.784
4780,152.96,0.1025,-8.6287,0.1132,0.2082,-0.0098,-1.5710,rough,14.0,2,5.784
4790,153.28,0.1025,-8.6287,0.1132,0.2082,-0.0098,-1.5710,rough,14.0,2,5.784
4800,153.60,0.1024,-8.6287,0.1132,0.2082,-0.0098,-1.5710,rough,14.0,2,5.784
4810,153.92,0.1024,-8.6287,0.1131,0.2082,-0.0098,-1.5710,rough,14.0,2,5.784
4820,154.24,0.1024,-8.6287,0.1131,0.2082,-0.0098,-1.5710,rough,14.0,2,5.784
4830,154.56,0.1024,-8.6287,0.1131,0.2082,-0.0098,-1.5710,rough,14.0,2,5.784
4840,154.88,0.1024,-8.6287,0.1131,0.2082,-0.0098,-1.5710,rough,14.0,2,5.784
4850,155.20,0.1023,-8.6287,0.1131,0.2081,-0.0098,-1.5710,rough,14.0,2,5.784
4860,155.52,0.1023,-8.6287,0.1131,0.2081,-0.0098,-1.5710,rough,14.0,2,5.784
4870,155.84,0.1023,-8.6287,0.1131,0.2081,-0.0098,-1.5710,rough,14.0,2,5.784
4880,156.16,0.1023,-8.6287,0.1131,0.2081,-0.0098,-1.5710,rough,14.0,2,5.784
4890,156.48,0.1023,-8.6287,0.1131,0.2081,-0.0098,-1.5710,rough,14.0,2,5.784
4900,156.80,0.1023,-8.6287,0.1131,0.2081,-0.0098,-1.5710,rough,14.0,2,5.784
4910,157.12,0.1022,-8.6287,0.1131,0.2081,-0.0098,-1.5710,rough,14.0,2,5.784
4920,157.44,0.1022,-8.6287,0.1131,0.2081,-0.0098,-1.5710,rough,14.0,2,5.784
4930,157.76,0.1022,-8.6287,0.1131,0.2081,-0.0098,-1.5710,rough,14.0,2,5.784
4940,158.08,0.1022,-8.6287,0.1131,0.2081,-0.0098,-1.5710,rough,14.0,2,5.784
4950,158.40,0.1022,-8.6287,0.1131,0.2081,-0.0098,-1.5710,rough,14.0,2,5.784
4960,158.72,0.1022,-8.6287,0.1131,0.2081,-0.0098,-1.5710,rough,14.0,2,5.784
4970,159.04,0.1021,-8.6287,0.1131,0.2080,-0.0098,-1.5710,rough,14.0,2,5.784
4980,159.36,0.1021,-8.6287,0.1131,0.2080,-0.0098,-1.5710,rough,14.0,2,5.784
4990,159.68,0.1021,-8.6287,0.1131,0.2080,-0.0098,-1.5710,rough,14.0,2,5.784
5000,160.00,0.1021,-8.6287,0.1131,0.2080,-0.0098,-1.5710,rough,14.0,2,5.784
5010,160.32,0.1021,-8.6287,0.1131,0.2080,-0.0098,-1.5710,rough,14.0,2,5.784
5020,160.64,0.1021,-8.6287,0.1130,0.2080,-0.0098,-1.5710,rough,14.0,2,5.784
5030,160.96,0.1020,-8.6287,0.1130,0.2080,-0.0098,-1.5710,rough,14.0,2,5.784
5040,161.28,0.1020,-8.6287,0.1130,0.2080,-0.0098,-1.5710,rough,14.0,2,5.784
5050,161.60,0.1020,-8.6287,0.1130,0.2080,-0.0098,-1.5710,rough,14.0,2,5.784
5060,161.92,0.1020,-8.6287,0.1130,0.2080,-0.0098,-1.5710,rough,14.0,2,5.784
5070,162.24,0.1020,-8.6287,0.1130,0.2080,-0.0098,-1.5710,rough,14.0,2,5.784
5080,162.56,0.1019,-8.6287,0.1130,0.2080,-0.0098,-1.5710,rough,14.0,2,5.784
5090,162.88,0.1019,-8.6287,0.1130,0.2079,-0.0098,-1.5710,rough,14.0,2,5.784
5100,163.20,0.1019,-8.6287,0.1130,0.2079,-0.0098,-1.5710,rough,14.0,2,5.784
5110,163.52,0.1019,-8.6287,0.1130,0.2079,-0.0098,-1.5710,rough,14.0,2,5.784
5120,163.84,0.1019,-8.6287,0.1130,0.2079,-0.0098,-1.5710,rough,14.0,2,5.784
5130,164.16,0.1019,-8.6287,0.1130,0.2079,-0.0098,-1.5710,rough,14.0,2,5.784
5140,164.48,0.1018,-8.6287,0.1130,0.2079,-0.0098,-1.5710,rough,14.0,2,5.784
5150,164.80,0.1018,-8.6287,0.1130,0.2079,-0.0098,-1.5710,rough,14.0,2,5.784
5160,165.12,0.1018,-8.6287,0.1130,0.2079,-0.0098,-1.5710,rough,14.0,2,5.784
5170,165.44,0.1018,-8.6287,0.1130,0.2079,-0.0098,-1.5710,rough,14.0,2,5.784
5180,165.76,0.1018,-8.6287,0.1130,0.2079,-0.0098,-1.5710,rough,14.0,2,5.784
5190,166.08,0.1018,-8.6287,0.1130,0.2079,-0.0098,-1.5710,rough,14.0,2,5.784
5200,166.40,0.1017,-8.6287,0.1130,0.2079,-0.0098,-1.5710,rough,14.0,2,5.784
5210,166.72,0.1017,-8.6287,0.1130,0.2078,-0.0098,-1.5710,rough,14.0,2,5.784
5220,167.04,0.1017,-8.6287,0.1130,0.2078,-0.0098,-1.5710,rough,14.0,2,5.784
5230,167.36,0.1017,-8.6287,0.1130,0.2078,-0.0098,-1.5710,rough,14.0,2,5.784
5240,167.68,0.1017,-8.6287,0.1129,0.2078,-0.0098,-1.5710,rough,14.0,2,5.784
5250,168.00,0.1017,-8.6287,0.1129,0.2078,-0.0098,-1.5710,rough,14.0,2,5.784
5260,168.32,0.1016,-8.6287,0.1129,0.2078,-0.0098,-1.5710,rough,14.0,2,5.784
5270,168.64,0.1016,-8.6287,0.1129,0.2078,-0.0098,-1.5710,rough,14.0,2,5.784
5280,168.96,0.1016,-8.6287,0.1129,0.2078,-0.0098,-1.5710,rough,14.0,2,5.784
5290,169.28,0.1016,-8.6287,0.1129,0.2078,-0.0098,-1.5710,rough,14.0,2,5.784
5300,169.60,0.1016,-8.6287,0.1129,0.2078,-0.0098,-1.5710,rough,14.0,2,5.784
5310,169.92,0.1016,-8.6287,0.1129,0.2078,-0.0098,-1.5710,rough,14.0,2,5.784
5320,170.24,0.1015,-8.6287,0.1129,0.2078,-0.0098,-1.5710,rough,14.0,2,5.784
5330,170.56,0.1015,-8.6287,0.1129,0.2078,-0.0098,-1.5710,rough,14.0,2,5.784
5340,170.88,0.1015,-8.6287,0.1129,0.2077,-0.0098,-1.5710,rough,14.0,2,5.784
5350,171.20,0.1015,-8.6287,0.1129,0.2077,-0.0098,-1.5710,rough,14.0,2,5.784
5360,171.52,0.1015,-8.6287,0.1129,0.2077,-0.0098,-1.5710,rough,14.0,2,5.784
5370,171.84,0.1015,-8.6287,0.1129,0.2077,-0.0098,-1.5710,rough,14.0,2,5.784
5380,172.16,0.1014,-8.6287,0.1129,0.2077,-0.0098,-1.5710,rough,14.0,2,5.784
5390,172.48,0.1014,-8.6287,0.1129,0.2077,-0.0098,-1.5710,rough,14.0,2,5.784
5400,172.80,0.1014,-8.6287,0.1129,0.2077,-0.0098,-1.5710,rough,14.0,2,5.784
5410,173.12,0.1014,-8.6287,0.1129,0.2077,-0.0098,-1.5710,rough,14.0,2,5.784
5420,173.44,0.1014,-8.6287,0.1129,0.2077,-0.0098,-1.5710,rough,14.0,2,5.784
5430,173.76,0.1014,-8.6287,0.1129,0.2077,-0.0098,-1.5710,rough,14.0,2,5.784
5440,174.08,0.1013,-8.6287,0.1129,0.2077,-0.0098,-1.5710,rough,14.0,2,5.784
5450,174.40,0.1013,-8.6287,0.1129,0.2077,-0.0098,-1.5710,rough,14.0,2,5.784
5460,174.72,0.1013,-8.6287,0.1129,0.2076,-0.0098,-1.5710,rough,14.0,2,5.784
5470,175.04,0.1013,-8.6287,0.1128,0.2076,-0.0098,-1.5710,rough,14.0,2,5.784
5480,175.36,0.1013,-8.6287,0.1128,0.2076,-0.0098,-1.5710,rough,14.0,2,5.784
5490,175.68,0.1013,-8.6287,0.1128,0.2076,-0.0098,-1.5710,rough,14.0,2,5.784
5500,176.00,0.1012,-8.6287,0.1128,0.2076,-0.0098,-1.5710,rough,14.0,2,5.784
5510,176.32,0.1012,-8.6287,0.1128,0.2076,-0.0098,-1.5710,rough,14.0,2,5.784
5520,176.64,0.1012,-8.6287,0.1128,0.2076,-0.0098,-1.5710,rough,14.0,2,5.784
5530,176.96,0.1012,-8.6287,0.1128,0.2076,-0.0098,-1.5710,rough,14.0,2,5.784
5540,177.28,0.1012,-8.6287,0.1128,0.2076,-0.0098,-1.5710,rough,14.0,2,5.784
5550,177.60,0.1012,-8.6287,0.1128,0.2076,-0.0098,-1.5710,rough,14.0,2,5.784
5560,177.92,0.1011,-8.6287,0.1128,0.2076,-0.0098,-1.5710,rough,14.0,2,5.784
5570,178.24,0.1011,-8.6287,0.1128,0.2076,-0.0098,-1.5710,rough,14.0,2,5.784
5580,178.56,0.1011,-8.6287,0.1128,0.2076,-0.0098,-1.5710,rough,14.0,2,5.784
5590,178.88,0.1011,-8.6287,0.1128,0.2075,-0.0098,-1.5710,rough,14.0,2,5.784
5600,179.20,0.1011,-8.6287,0.1128,0.2075,-0.0098,-1.5710,rough,14.0,2,5.784
5610,179.52,0.1011,-8.6287,0.1128,0.2075,-0.0098,-1.5710,rough,14.0,2,5.784
5620,179.84,0.1011,-8.6287,0.1128,0.2075,-0.0098,-1.5710,rough,14.0,2,5.784
5630,180.16,0.1010,-8.6287,0.1128,0.2075,-0.0098,-1.5710,rough,14.0,2,5.784
5640,180.48,0.1010,-8.6287,0.1128,0.2075,-0.0098,-1.5710,rough,14.0,2,5.783
5650,180.80,0.1010,-8.6287,0.1128,0.2075,-0.0098,-1.5710,rough,14.0,2,5.783
5660,181.12,0.1010,-8.6287,0.1128,0.2075,-0.0098,-1.5710,rough,14.0,2,5.783
5670,181.44,0.1010,-8.6287,0.1128,0.2075,-0.0098,-1.5710,rough,14.0,2,5.783
5680,181.76,0.1010,-8.6287,0.1128,0.2075,-0.0098,-1.5710,rough,14.0,2,5.783
5690,182.08,0.1009,-8.6287,0.1128,0.2075,-0.0098,-1.5710,rough,14.0,2,5.783
5700,182.40,0.1009,-8.6287,0.1127,0.2075,-0.0098,-1.5710,rough,14.0,2,5.783
5710,182.72,0.1009,-8.6287,0.1127,0.2075,-0.0098,-1.5710,rough,14.0,2,5.783
5720,183.04,0.1009,-8.6287,0.1127,0.2074,-0.0098,-1.5710,rough,14.0,2,5.783
5730,183.36,0.1009,-8.6287,0.1127,0.2074,-0.0098,-1.5710,rough,14.0,2,5.783
5740,183.68,0.1009,-8.6287,0.1127,0.2074,-0.0098,-1.5710,rough,14.0,2,5.783
5750,184.00,0.1008,-8.6287,0.1127,0.2074,-0.0098,-1.5710,rough,14.0,2,5.783
5760,184.32,0.1008,-8.6287,0.1127,0.2074,-0.0098,-1.5709,rough,14.0,2,5.783
5770,184.64,0.1008,-8.6287,0.1127,0.2074,-0.0098,-1.5709,rough,14.0,2,5.783
5780,184.96,0.1008,-8.6287,0.1127,0.2074,-0.0098,-1.5709,rough,14.0,2,5.783
5790,185.28,0.1008,-8.6287,0.1127,0.2074,-0.0098,-1.5709,rough,14.0,2,5.783
5800,185.60,0.1008,-8.6287,0.1127,0.2074,-0.0098,-1.5709,rough,14.0,2,5.783
5810,185.92,0.1007,-8.6287,0.1127,0.2074,-0.0098,-1.5709,rough,14.0,2,5.783
5820,186.24,0.1007,-8.6287,0.1127,0.2074,-0.0098,-1.5709,rough,14.0,2,5.783
5830,186.56,0.1007,-8.6287,0.1127,0.2074,-0.0098,-1.5709,rough,14.0,2,5.783
5840,186.88,0.1007,-8.6287,0.1127,0.2074,-0.0098,-1.5709,rough,14.0,2,5.783
5850,187.20,0.1007,-8.6287,0.1127,0.2073,-0.0098,-1.5709,rough,14.0,2,5.783
5860,187.52,0.1007,-8.6287,0.1127,0.2073,-0.0098,-1.5709,rough,14.0,2,5.783
5870,187.84,0.1007,-8.6287,0.1127,0.2073,-0.0098,-1.5709,rough,14.0,2,5.783
5880,188.16,0.1006,-8.6287,0.1127,0.2073,-0.0098,-1.5709,rough,14.0,2,5.783
5890,188.48,0.1006,-8.6287,0.1127,0.2073,-0.0098,-1.5709,rough,14.0,2,5.783
5900,188.80,0.1006,-8.6287,0.1127,0.2073,-0.0098,-1.5709,rough,14.0,2,5.783
5910,189.12,0.1006,-8.6287,0.1127,0.2073,-0.0098,-1.5709,rough,14.0,2,5.783
5920,189.44,0.1006,-8.6287,0.1127,0.2073,-0.0098,-1.5709,rough,14.0,2,5.783
5930,189.76,0.1006,-8.6287,0.1127,0.2073,-0.0098,-1.5709,rough,14.0,2,5.783
5940,190.08,0.1005,-8.6287,0.1126,0.2073,-0.0098,-1.5709,rough,14.0,2,5.783
5950,190.40,0.1005,-8.6287,0.1126,0.2073,-0.0098,-1.5709,rough,14.0,2,5.783
5960,190.72,0.1005,-8.6287,0.1126,0.2073,-0.0098,-1.5709,rough,14.0,2,5.783
5970,191.04,0.1005,-8.6287,0.1126,0.2073,-0.0098,-1.5709,rough,14.0,2,5.783
5980,191.36,0.1005,-8.6287,0.1126,0.2073,-0.0098,-1.5709,rough,14.0,2,5.783
5990,191.68,0.1005,-8.6287,0.1126,0.2072,-0.0098,-1.5709,rough,14.0,2,5.783
6000,192.00,0.1005,-8.6287,0.1126,0.2072,-0.0098,-1.5709,rough,14.0,2,5.783
6010,192.32,0.1004,-8.6287,0.1126,0.2072,-0.0098,-1.5709,rough,14.0,2,5.783
6020,192.64,0.1004,-8.6287,0.1126,0.2072,-0.0098,-1.5709,rough,14.0,2,5.783
6030,192.96,0.1004,-8.6287,0.1126,0.2072,-0.0098,-1.5709,rough,14.0,2,5.783
6040,193.28,0.1004,-8.6287,0.1126,0.2072,-0.0098,-1.5709,rough,14.0,2,5.783
6050,193.60,0.1004,-8.6287,0.1126,0.2072,-0.0098,-1.5709,rough,14.0,2,5.783
6060,193.92,0.1004,-8.6287,0.1126,0.2072,-0.0098,-1.5709,rough,14.0,2,5.783
6070,194.24,0.1003,-8.6287,0.1126,0.2072,-0.0098,-1.5709,rough,14.0,2,5.783
6080,194.56,0.1003,-8.6287,0.1126,0.2072,-0.0098,-1.5709,rough,14.0,2,5.783
6090,194.88,0.1003,-8.6287,0.1126,0.2072,-0.0098,-1.5709,rough,14.0,2,5.783
6100,195.20,0.1003,-8.6287,0.1126,0.2072,-0.0098,-1.5709,rough,14.0,2,5.783
6110,195.52,0.1003,-8.6287,0.1126,0.2072,-0.0098,-1.5709,rough,14.0,2,5.783
6120,195.84,0.1003,-8.6287,0.1126,0.2071,-0.0098,-1.5709,rough,14.0,2,5.783
6130,196.16,0.1003,-8.6287,0.1126,0.2071,-0.0098,-1.5709,rough,14.0,2,5.783
6140,196.48,0.1002,-8.6287,0.1126,0.2071,-0.0098,-1.5709,rough,14.0,2,5.783
6150,196.80,0.1002,-8.6287,0.1126,0.2071,-0.0098,-1.5709,rough,14.0,2,5.783
6160,197.12,0.1002,-8.6287,0.1126,0.2071,-0.0098,-1.5709,rough,14.0,2,5.783
6170,197.44,0.1002,-8.6287,0.1126,0.2071,-0.0098,-1.5709,rough,14.0,2,5.783
6180,197.76,0.1002,-8.6287,0.1125,0.2071,-0.0098,-1.5709,rough,14.0,2,5.783
6190,198.08,0.1002,-8.6287,0.1125,0.2071,-0.0098,-1.5709,rough,14.0,2,5.783
6200,198.40,0.1001,-8.6287,0.1125,0.2071,-0.0098,-1.5709,rough,14.0,2,5.783
6210,198.72,0.1001,-8.6287,0.1125,0.2071,-0.0098,-1.5709,rough,14.0,2,5.783
6220,199.04,0.1001,-8.6287,0.1125,0.2071,-0.0098,-1.5709,rough,14.0,2,5.783
6230,199.36,0.1001,-8.6287,0.1125,0.2071,-0.0098,-1.5709,rough,14.0,2,5.783
6240,199.68,0.1001,-8.6287,0.1125,0.2071,-0.0098,-1.5709,rough,14.0,2,5.783
6250,200.00,0.1001,-8.6287,0.1125,0.2071,-0.0098,-1.5709,rough,14.0,2,5.783
6260,200.32,0.1001,-8.6287,0.1125,0.2070,-0.0098,-1.5709,rough,14.0,2,5.783
6270,200.64,0.1000,-8.6287,0.1125,0.2070,-0.0098,-1.5709,rough,14.0,2,5.783
6280,200.96,0.1000,-8.6287,0.1125,0.2070,-0.0098,-1.5709,rough,14.0,2,5.783
6290,201.28,0.1000,-8.6287,0.1125,0.2070,-0.0098,-1.5709,rough,14.0,2,5.783
6300,201.60,0.1000,-8.6287,0.1125,0.2070,-0.0098,-1.5709,rough,14.0,2,5.783
6310,201.92,0.1000,-8.6287,0.1125,0.2070,-0.0098,-1.5709,rough,14.0,2,5.783
6320,202.24,0.1000,-8.6287,0.1125,0.2070,-0.0098,-1.5709,rough,14.0,2,5.783
6330,202.56,0.1000,-8.6287,0.1125,0.2070,-0.0098,-1.5709,rough,14.0,2,5.783
6340,202.88,0.0999,-8.6287,0.1125,0.2070,-0.0098,-1.5709,rough,14.0,2,5.783
6350,203.20,0.0999,-8.6287,0.1125,0.2070,-0.0098,-1.5709,rough,14.0,2,5.783
6360,203.52,0.0999,-8.6287,0.1125,0.2070,-0.0098,-1.5709,rough,14.0,2,5.783
6370,203.84,0.0999,-8.6287,0.1125,0.2070,-0.0098,-1.5709,rough,14.0,2,5.783
6380,204.16,0.0999,-8.6287,0.1125,0.2070,-0.0098,-1.5709,rough,14.0,2,5.783
6390,204.48,0.0999,-8.6287,0.1125,0.2070,-0.0098,-1.5709,rough,14.0,2,5.783
6400,204.80,0.0999,-8.6287,0.1125,0.2069,-0.0098,-1.5709,rough,14.0,2,5.783
6410,205.12,0.0998,-8.6287,0.1125,0.2069,-0.0098,-1.5709,rough,14.0,2,5.783
6420,205.44,0.0998,-8.6287,0.1125,0.2069,-0.0098,-1.5709,rough,14.0,2,5.783
6430,205.76,0.0998,-8.6287,0.1125,0.2069,-0.0098,-1.5709,rough,14.0,2,5.783
6440,206.08,0.0998,-8.6287,0.1124,0.2069,-0.0098,-1.5709,rough,14.0,2,5.783
6450,206.40,0.0998,-8.6287,0.1124,0.2069,-0.0098,-1.5709,rough,14.0,2,5.783
6460,206.72,0.0998,-8.6287,0.1124,0.2069,-0.0098,-1.5709,rough,14.0,2,5.783
6470,207.04,0.0997,-8.6287,0.1124,0.2069,-0.0098,-1.5709,rough,14.0,2,5.783
6480,207.36,0.0997,-8.6287,0.1124,0.2069,-0.0098,-1.5709,rough,14.0,2,5.783
6490,207.68,0.0997,-8.6287,0.1124,0.2069,-0.0098,-1.5709,rough,14.0,2,5.783
6500,208.00,0.0997,-8.6287,0.1124,0.2069,-0.0098,-1.5709,rough,14.0,2,5.783
6510,208.32,0.0997,-8.6287,0.1124,0.2069,-0.0098,-1.5709,rough,14.0,2,5.783
6520,208.64,0.0997,-8.6287,0.1124,0.2069,-0.0098,-1.5709,rough,14.0,2,5.783
6530,208.96,0.0997,-8.6287,0.1124,0.2069,-0.0098,-1.5709,rough,14.0,2,5.783
6540,209.28,0.0996,-8.6287,0.1124,0.2069,-0.0098,-1.5709,rough,14.0,2,5.783
6550,209.60,0.0996,-8.6287,0.1124,0.2068,-0.0098,-1.5709,rough,14.0,2,5.783
6560,209.92,0.0996,-8.6287,0.1124,0.2068,-0.0098,-1.5709,rough,14.0,2,5.783
6570,210.24,0.0996,-8.6287,0.1124,0.2068,-0.0098,-1.5709,rough,14.0,2,5.783
6580,210.56,0.0996,-8.6287,0.1124,0.2068,-0.0098,-1.5709,rough,14.0,2,5.783
6590,210.88,0.0996,-8.6287,0.1124,0.2068,-0.0098,-1.5709,rough,14.0,2,5.783
6600,211.20,0.0996,-8.6287,0.1124,0.2068,-0.0098,-1.5709,rough,14.0,2,5.783
6610,211.52,0.0995,-8.6287,0.1124,0.2068,-0.0098,-1.5709,rough,14.0,2,5.783
6620,211.84,0.0995,-8.6287,0.1124,0.2068,-0.0098,-1.5709,rough,14.0,2,5.783
6630,212.16,0.0995,-8.6287,0.1124,0.2068,-0.0098,-1.5709,rough,14.0,2,5.783
6640,212.48,0.0995,-8.6287,0.1124,0.2068,-0.0098,-1.5709,rough,14.0,2,5.783
6650,212.80,0.0995,-8.6287,0.1124,0.2068,-0.0098,-1.5709,rough,14.0,2,5.783
6660,213.12,0.0995,-8.6287,0.1124,0.2068,-0.0098,-1.5709,rough,14.0,2,5.783
6670,213.44,0.0995,-8.6287,0.1124,0.2068,-0.0098,-1.5709,rough,14.0,2,5.783
6680,213.76,0.0994,-8.6287,0.1124,0.2068,-0.0098,-1.5709,rough,14.0,2,5.783
6690,214.08,0.0994,-8.6287,0.1124,0.2067,-0.0098,-1.5709,rough,14.0,2,5.783
6700,214.40,0.0994,-8.6287,0.1123,0.2067,-0.0098,-1.5709,rough,14.0,2,5.783
6710,214.72,0.0994,-8.6287,0.1123,0.2067,-0.0098,-1.5709,rough,14.0,2,5.783
6720,215.04,0.0994,-8.6287,0.1123,0.2067,-0.0098,-1.5709,rough,14.0,2,5.783
6730,215.36,0.0994,-8.6287,0.1123,0.2067,-0.0098,-1.5709,rough,14.0,2,5.783
6740,215.68,0.0994,-8.6287,0.1123,0.2067,-0.0098,-1.5709,rough,14.0,2,5.783
6750,216.00,0.0993,-8.6287,0.1123,0.2067,-0.0098,-1.5709,rough,14.0,2,5.783
6760,216.32,0.0993,-8.6287,0.1123,0.2067,-0.0098,-1.5709,rough,14.0,2,5.783
6770,216.64,0.0993,-8.6287,0.1123,0.2067,-0.0098,-1.5709,rough,14.0,2,5.783
6780,216.96,0.0993,-8.6287,0.1123,0.2067,-0.0098,-1.5709,rough,14.0,2,5.782
6790,217.28,0.0993,-8.6287,0.1123,0.2067,-0.0098,-1.5709,rough,14.0,2,5.782
6800,217.60,0.0993,-8.6287,0.1123,0.2067,-0.0098,-1.5709,rough,14.0,2,5.782
6810,217.92,0.0993,-8.6287,0.1123,0.2067,-0.0098,-1.5709,rough,14.0,2,5.782
6820,218.24,0.0992,-8.6287,0.1123,0.2067,-0.0098,-1.5709,rough,14.0,2,5.782
6830,218.56,0.0992,-8.6287,0.1123,0.2067,-0.0098,-1.5709,rough,14.0,2,5.782
6840,218.88,0.0992,-8.6287,0.1123,0.2066,-0.0098,-1.5709,rough,14.0,2,5.782
6850,219.20,0.0992,-8.6287,0.1123,0.2066,-0.0098,-1.5709,rough,14.0,2,5.782
6860,219.52,0.0992,-8.6287,0.1123,0.2066,-0.0098,-1.5709,rough,14.0,2,5.782
6870,219.84,0.0992,-8.6287,0.1123,0.2066,-0.0098,-1.5709,rough,14.0,2,5.782
6880,220.16,0.0992,-8.6287,0.1123,0.2066,-0.0098,-1.5709,rough,14.0,2,5.782
6890,220.48,0.0992,-8.6287,0.1123,0.2066,-0.0098,-1.5709,rough,14.0,2,5.782
6900,220.80,0.0991,-8.6287,0.1123,0.2066,-0.0098,-1.5709,rough,14.0,2,5.782
6910,221.12,0.0991,-8.6287,0.1123,0.2066,-0.0098,-1.5709,rough,14.0,2,5.782
6920,221.44,0.0991,-8.6287,0.1123,0.2066,-0.0098,-1.5709,rough,14.0,2,5.782
6930,221.76,0.0991,-8.6287,0.1123,0.2066,-0.0098,-1.5709,rough,14.0,2,5.782
6940,222.08,0.0991,-8.6287,0.1123,0.2066,-0.0098,-1.5709,rough,14.0,2,5.782
6950,222.40,0.0991,-8.6287,0.1123,0.2066,-0.0098,-1.5709,rough,14.0,2,5.782
6960,222.72,0.0991,-8.6287,0.1122,0.2066,-0.0098,-1.5709,rough,14.0,2,5.782
6970,223.04,0.0990,-8.6287,0.1122,0.2066,-0.0098,-1.5709,rough,14.0,2,5.782
6980,223.36,0.0990,-8.6287,0.1122,0.2066,-0.0098,-1.5709,rough,14.0,2,5.782
6990,223.68,0.0990,-8.6287,0.1122,0.2065,-0.0098,-1.5709,rough,14.0,2,5.782
7000,224.00,0.0990,-8.6287,0.1122,0.2065,-0.0098,-1.5709,rough,14.0,2,5.782
7010,224.32,0.0990,-8.6287,0.1122,0.2065,-0.0098,-1.5709,rough,14.0,2,5.782
7020,224.64,0.0990,-8.6287,0.1122,0.2065,-0.0098,-1.5709,rough,14.0,2,5.782
7030,224.96,0.0990,-8.6287,0.1122,0.2065,-0.0098,-1.5709,rough,14.0,2,5.782
7040,225.28,0.0989,-8.6287,0.1122,0.2065,-0.0098,-1.5709,rough,14.0,2,5.782
7050,225.60,0.0989,-8.6287,0.1122,0.2065,-0.0098,-1.5709,rough,14.0,2,5.782
7060,225.92,0.0989,-8.6287,0.1122,0.2065,-0.0098,-1.5709,rough,14.0,2,5.782
7070,226.24,0.0989,-8.6287,0.1122,0.2065,-0.0098,-1.5709,rough,14.0,2,5.782
7080,226.56,0.0989,-8.6287,0.1122,0.2065,-0.0098,-1.5709,rough,14.0,2,5.782
7090,226.88,0.0989,-8.6287,0.1122,0.2065,-0.0098,-1.5709,rough,14.0,2,5.782
7100,227.20,0.0989,-8.6287,0.1122,0.2065,-0.0098,-1.5709,rough,14.0,2,5.782
7110,227.52,0.0988,-8.6287,0.1122,0.2065,-0.0098,-1.5709,rough,14.0,2,5.782
7120,227.84,0.0988,-8.6287,0.1122,0.2065,-0.0098,-1.5709,rough,14.0,2,5.782
7130,228.16,0.0988,-8.6287,0.1122,0.2065,-0.0098,-1.5709,rough,14.0,2,5.782
7140,228.48,0.0988,-8.6287,0.1122,0.2064,-0.0098,-1.5709,rough,14.0,2,5.782
7150,228.80,0.0988,-8.6287,0.1122,0.2064,-0.0098,-1.5709,rough,14.0,2,5.782
7160,229.12,0.0988,-8.6287,0.1122,0.2064,-0.0098,-1.5709,rough,14.0,2,5.782
7170,229.44,0.0988,-8.6287,0.1122,0.2064,-0.0098,-1.5709,rough,14.0,2,5.782
7180,229.76,0.0988,-8.6287,0.1122,0.2064,-0.0098,-1.5709,rough,14.0,2,5.782
7190,230.08,0.0987,-8.6287,0.1122,0.2064,-0.0098,-1.5709,rough,14.0,2,5.782
7200,230.40,0.0987,-8.6287,0.1122,0.2064,-0.0098,-1.5709,rough,14.0,2,5.782
7210,230.72,0.0987,-8.6287,0.1122,0.2064,-0.0098,-1.5709,rough,14.0,2,5.782
7220,231.04,0.0987,-8.6287,0.1122,0.2064,-0.0098,-1.5709,rough,14.0,2,5.782
7230,231.36,0.0987,-8.6287,0.1122,0.2064,-0.0098,-1.5709,rough,14.0,2,5.782
7240,231.68,0.0987,-8.6287,0.1121,0.2064,-0.0098,-1.5709,rough,14.0,2,5.782
7250,232.00,0.0987,-8.6287,0.1121,0.2064,-0.0098,-1.5709,rough,14.0,2,5.782
7260,232.32,0.0986,-8.6287,0.1121,0.2064,-0.0098,-1.5709,rough,14.0,2,5.782
7270,232.64,0.0986,-8.6287,0.1121,0.2064,-0.0098,-1.5709,rough,14.0,2,5.782
7280,232.96,0.0986,-8.6287,0.1121,0.2064,-0.0098,-1.5709,rough,14.0,2,5.782
7290,233.28,0.0986,-8.6287,0.1121,0.2064,-0.0098,-1.5709,rough,14.0,2,5.782
7300,233.60,0.0986,-8.6287,0.1121,0.2063,-0.0098,-1.5709,rough,14.0,2,5.782
7310,233.92,0.0986,-8.6287,0.1121,0.2063,-0.0098,-1.5709,rough,14.0,2,5.782
7320,234.24,0.0986,-8.6287,0.1121,0.2063,-0.0098,-1.5709,rough,14.0,2,5.782
7330,234.56,0.0986,-8.6287,0.1121,0.2063,-0.0098,-1.5709,rough,14.0,2,5.782
7340,234.88,0.0985,-8.6287,0.1121,0.2063,-0.0098,-1.5709,rough,14.0,2,5.782
7350,235.20,0.0985,-8.6287,0.1121,0.2063,-0.0098,-1.5709,rough,14.0,2,5.782
7360,235.52,0.0985,-8.6287,0.1121,0.2063,-0.0098,-1.5709,rough,14.0,2,5.782
7370,235.84,0.0985,-8.6287,0.1121,0.2063,-0.0098,-1.5709,rough,14.0,2,5.782
7380,236.16,0.0985,-8.6287,0.1121,0.2063,-0.0098,-1.5709,rough,14.0,2,5.782
7390,236.48,0.0985,-8.6287,0.1121,0.2063,-0.0098,-1.5709,rough,14.0,2,5.782
7400,236.80,0.0985,-8.6287,0.1121,0.2063,-0.0098,-1.5709,rough,14.0,2,5.782
7410,237.12,0.0984,-8.6287,0.1121,0.2063,-0.0098,-1.5709,rough,14.0,2,5.782
7420,237.44,0.0984,-8.6287,0.1121,0.2063,-0.0098,-1.5709,rough,14.0,2,5.782
7430,237.76,0.0984,-8.6287,0.1121,0.2063,-0.0098,-1.5709,rough,14.0,2,5.782
7440,238.08,0.0984,-8.6287,0.1121,0.2063,-0.0098,-1.5709,rough,14.0,2,5.782
7450,238.40,0.0984,-8.6287,0.1121,0.2062,-0.0098,-1.5709,rough,14.0,2,5.782
7460,238.72,0.0984,-8.6287,0.1121,0.2062,-0.0098,-1.5709,rough,14.0,2,5.782
7470,239.04,0.0984,-8.6287,0.1121,0.2062,-0.0098,-1.5709,rough,14.0,2,5.782
7480,239.36,0.0984,-8.6287,0.1121,0.2062,-0.0098,-1.5709,rough,14.0,2,5.782
7490,239.68,0.0983,-8.6287,0.1121,0.2062,-0.0098,-1.5709,rough,14.0,2,5.782
7500,240.00,0.0983,-8.6287,0.1121,0.2062,-0.0098,-1.5709,rough,14.0,2,5.782
7510,240.32,0.0983,-8.6287,0.1121,0.2062,-0.0098,-1.5709,rough,14.0,2,5.782
7520,240.64,0.0983,-8.6287,0.1120,0.2062,-0.0098,-1.5709,rough,14.0,2,5.782
7530,240.96,0.0983,-8.6287,0.1120,0.2062,-0.0098,-1.5709,rough,14.0,2,5.782
7540,241.28,0.0983,-8.6287,0.1120,0.2062,-0.0098,-1.5709,rough,14.0,2,5.782
7550,241.60,0.0983,-8.6287,0.1120,0.2062,-0.0098,-1.5709,rough,14.0,2,5.782
7560,241.92,0.0982,-8.6287,0.1120,0.2062,-0.0098,-1.5709,rough,14.0,2,5.782
7570,242.24,0.0982,-8.6287,0.1120,0.2062,-0.0098,-1.5709,rough,14.0,2,5.782
7580,242.56,0.0982,-8.6287,0.1120,0.2062,-0.0098,-1.5709,rough,14.0,2,5.782
7590,242.88,0.0982,-8.6287,0.1120,0.2062,-0.0098,-1.5709,rough,14.0,2,5.782
7600,243.20,0.0982,-8.6287,0.1120,0.2062,-0.0098,-1.5709,rough,14.0,2,5.782
7610,243.52,0.0982,-8.6287,0.1120,0.2061,-0.0098,-1.5709,rough,14.0,2,5.782
7620,243.84,0.0982,-8.6287,0.1120,0.2061,-0.0098,-1.5709,rough,14.0,2,5.782
7630,244.16,0.0982,-8.6287,0.1120,0.2061,-0.0098,-1.5709,rough,14.0,2,5.782
7640,244.48,0.0981,-8.6287,0.1120,0.2061,-0.0098,-1.5709,rough,14.0,2,5.782
7650,244.80,0.0981,-8.6287,0.1120,0.2061,-0.0098,-1.5709,rough,14.0,2,5.782
7660,245.12,0.0981,-8.6287,0.1120,0.2061,-0.0098,-1.5709,rough,14.0,2,5.782
7670,245.44,0.0981,-8.6287,0.1120,0.2061,-0.0098,-1.5709,rough,14.0,2,5.782
7680,245.76,0.0981,-8.6287,0.1120,0.2061,-0.0098,-1.5709,rough,14.0,2,5.782
7690,246.08,0.0981,-8.6287,0.1120,0.2061,-0.0098,-1.5709,rough,14.0,2,5.782
7700,246.40,0.0981,-8.6287,0.1120,0.2061,-0.0098,-1.5709,rough,14.0,2,5.782
7710,246.72,0.0981,-8.6287,0.1120,0.2061,-0.0098,-1.5709,rough,14.0,2,5.782
7720,247.04,0.0980,-8.6287,0.1120,0.2061,-0.0098,-1.5709,rough,14.0,2,5.782
7730,247.36,0.0980,-8.6287,0.1120,0.2061,-0.0098,-1.5709,rough,14.0,2,5.782
7740,247.68,0.0980,-8.6287,0.1120,0.2061,-0.0098,-1.5709,rough,14.0,2,5.782
7750,248.00,0.0980,-8.6287,0.1120,0.2061,-0.0098,-1.5709,rough,14.0,2,5.782
7760,248.32,0.0980,-8.6287,0.1120,0.2061,-0.0098,-1.5709,rough,14.0,2,5.782
7770,248.64,0.0980,-8.6287,0.1120,0.2061,-0.0098,-1.5709,rough,14.0,2,5.782
7780,248.96,0.0980,-8.6287,0.1120,0.2060,-0.0098,-1.5709,rough,14.0,2,5.782
7790,249.28,0.0980,-8.6287,0.1120,0.2060,-0.0098,-1.5709,rough,14.0,2,5.782
7800,249.60,0.0979,-8.6287,0.1120,0.2060,-0.0098,-1.5709,rough,14.0,2,5.782
7810,249.92,0.0979,-8.6287,0.1120,0.2060,-0.0098,-1.5709,rough,14.0,2,5.782
7820,250.24,0.0979,-8.6287,0.1119,0.2060,-0.0098,-1.5709,rough,14.0,2,5.782
7830,250.56,0.0979,-8.6287,0.1119,0.2060,-0.0098,-1.5709,rough,14.0,2,5.782
7840,250.88,0.0979,-8.6287,0.1119,0.2060,-0.0098,-1.5709,rough,14.0,2,5.782
7850,251.20,0.0979,-8.6287,0.1119,0.2060,-0.0098,-1.5709,rough,14.0,2,5.782
7860,251.52,0.0979,-8.6287,0.1119,0.2060,-0.0098,-1.5709,rough,14.0,2,5.782
7870,251.84,0.0979,-8.6287,0.1119,0.2060,-0.0098,-1.5709,rough,14.0,2,5.782
7880,252.16,0.0978,-8.6287,0.1119,0.2060,-0.0098,-1.5709,rough,14.0,2,5.782
7890,252.48,0.0978,-8.6287,0.1119,0.2060,-0.0098,-1.5709,rough,14.0,2,5.782
7900,252.80,0.0978,-8.6287,0.1119,0.2060,-0.0098,-1.5709,rough,14.0,2,5.782
7910,253.12,0.0978,-8.6287,0.1119,0.2060,-0.0098,-1.5709,rough,14.0,2,5.782
7920,253.44,0.0978,-8.6287,0.1119,0.2060,-0.0098,-1.5709,rough,14.0,2,5.782
7930,253.76,0.0978,-8.6287,0.1119,0.2060,-0.0098,-1.5709,rough,14.0,2,5.782
7940,254.08,0.0978,-8.6287,0.1119,0.2059,-0.0098,-1.5709,rough,14.0,2,5.782
7950,254.40,0.0978,-8.6287,0.1119,0.2059,-0.0098,-1.5709,rough,14.0,2,5.782
