step,time_s,x,y,z,roll,pitch,yaw,terrain,speed,target_idx,dist_to_target
10,0.32,2.0145,0.4859,0.7090,0.0994,-0.3092,-0.1023,rough,14.0,0,6.409
20,0.64,2.1912,0.4468,0.7702,0.1047,-0.4220,-0.1641,rough,14.0,0,6.247
30,0.96,2.5369,0.3802,0.9336,0.1094,-0.4539,-0.1842,rough,14.0,0,5.932
40,1.28,2.8731,0.3077,1.0983,0.1155,-0.4553,-0.2255,rough,14.0,0,5.632
50,1.60,3.1904,0.2197,1.2546,0.1284,-0.4450,-0.2802,rough,14.0,0,5.360
60,1.92,3.5196,0.1204,1.4098,0.1131,-0.4367,-0.2553,rough,14.0,0,5.088
70,2.24,3.8585,0.0264,1.5685,0.0930,-0.4083,-0.2273,rough,14.0,0,4.814
80,2.56,4.1997,-0.0525,1.7141,0.0637,-0.3885,-0.1737,rough,14.0,0,4.542
90,2.88,4.5490,-0.1149,1.8566,0.0359,-0.3758,-0.1251,rough,14.0,0,4.266
100,3.20,4.8973,-0.1600,1.9910,0.0298,-0.3458,-0.0932,rough,14.0,0,3.993
110,3.52,5.2357,-0.1932,2.1128,0.0259,-0.3429,-0.0806,rough,14.0,0,3.735
120,3.84,5.5715,-0.2214,2.2289,0.0254,-0.3299,-0.0577,rough,14.0,0,3.489
130,4.16,5.8972,-0.2394,2.3401,0.0139,-0.3197,-0.0430,rough,14.0,0,3.260
140,4.48,6.2128,-0.2535,2.4436,0.0073,-0.3131,-0.0238,rough,14.0,0,3.052
150,4.80,6.5142,-0.2607,2.5426,0.0049,-0.3134,-0.0150,rough,14.0,0,2.868
160,5.12,6.8003,-0.2651,2.6354,0.0033,-0.3133,-0.0088,rough,14.0,0,2.709
170,5.44,7.0696,-0.2674,2.7225,0.0022,-0.3125,-0.0048,rough,14.0,0,2.579
180,5.76,7.3205,-0.2687,2.8036,0.0016,-0.3134,-0.0021,rough,14.0,0,2.477
190,6.08,7.5530,-0.2692,2.8789,0.0012,-0.3135,-0.0007,rough,14.0,0,2.402
200,6.40,7.8164,-0.2694,2.8995,0.0012,0.0673,-0.0003,rough,14.0,0,2.341
210,6.72,8.2531,-0.2831,2.6766,0.3289,1.3906,0.2567,rough,14.0,0,2.317
220,7.04,8.7038,-0.4281,2.3053,2.2314,-0.1435,3.0030,rough,14.0,0,2.507
230,7.36,8.9877,-0.7392,2.1689,2.6372,0.4626,2.7316,rough,14.0,0,2.874
240,7.68,9.1272,-0.8777,2.1784,2.7440,0.2463,2.7473,rough,14.0,0,3.046
250,8.00,9.2606,-0.9912,2.1986,2.7474,0.3440,2.7863,rough,14.0,0,3.195
260,8.32,9.4256,-1.0770,2.2622,2.7703,0.6192,3.0748,rough,14.0,0,3.332
270,8.64,9.5425,-1.0549,2.3411,3.0269,0.7076,-2.9133,rough,14.0,0,3.355
280,8.96,9.6235,-0.9499,2.4384,-2.9267,0.6751,-2.3998,rough,14.0,0,3.292
290,9.28,9.5722,-0.9793,2.3902,-2.5572,0.4390,-1.7372,rough,14.0,0,3.298
300,9.60,9.4944,-1.2082,2.2713,-2.5459,0.3390,-1.7351,rough,14.0,0,3.479
310,9.92,9.4019,-1.4348,2.1985,-2.6013,0.0962,-1.8654,rough,14.0,0,3.661
320,10.24,9.3083,-1.6592,2.1416,-2.8119,0.1686,-1.8147,rough,14.0,0,3.847
330,10.56,9.1966,-1.8029,2.1210,-2.9540,-0.0820,-1.9200,rough,14.0,0,3.956
340,10.88,9.1487,-1.7072,2.0827,-2.9625,-0.0645,-1.8268,rough,14.0,0,3.852
350,11.20,9.1292,-1.5639,2.0693,-2.9344,-0.0286,-1.8237,rough,14.0,0,3.708
360,11.52,9.0717,-1.4797,2.0538,-2.8120,-0.0803,-1.7879,rough,14.0,0,3.613
370,11.84,9.0864,-1.3384,2.0519,-2.8559,0.0971,-1.7666,rough,14.0,0,3.479
380,12.16,9.0813,-1.3727,2.0435,-2.8965,0.0442,-1.7852,rough,14.0,0,3.511
390,12.48,9.0818,-1.3821,2.0461,-2.8993,0.0511,-1.7854,rough,14.0,0,3.520
400,12.80,9.0865,-1.3730,2.0502,-2.8967,0.0697,-1.8078,rough,14.0,0,3.512
410,13.12,9.0840,-1.3959,2.0485,-2.8779,0.0269,-1.7991,rough,14.0,0,3.534
420,13.44,9.0765,-1.3479,2.0481,-2.8845,0.0635,-1.7861,rough,14.0,0,3.486
430,13.76,9.0605,-1.3713,2.0458,-2.9192,0.0279,-1.8144,rough,14.0,0,3.505
440,14.08,9.0769,-1.3875,2.0458,-2.8968,0.0258,-1.7665,rough,14.0,0,3.524
450,14.40,9.0770,-1.3813,2.0467,-2.8986,0.0432,-1.7840,rough,14.0,0,3.518
460,14.72,9.0747,-1.4002,2.0459,-2.8756,0.0152,-1.7854,rough,14.0,0,3.536
470,15.04,9.0819,-1.3752,2.0475,-2.9042,0.0598,-1.7946,rough,14.0,0,3.514
480,15.36,9.0831,-1.3779,2.0459,-2.9072,0.0743,-1.8138,rough,14.0,0,3.516
490,15.68,9.0620,-1.3730,2.0457,-2.9189,0.0293,-1.8234,rough,14.0,0,3.507
500,16.00,9.0848,-1.3746,2.0440,-2.9143,0.0661,-1.8015,rough,14.0,0,3.514
510,16.32,9.0809,-1.3713,2.0489,-2.8893,0.0704,-1.7887,rough,14.0,0,3.510
520,16.64,9.0697,-1.4335,2.0457,-2.8299,-0.0600,-1.7468,rough,14.0,0,3.567
530,16.96,9.0826,-1.3707,2.0481,-2.8938,0.0710,-1.7915,rough,14.0,0,3.509
540,17.28,9.0679,-1.4274,2.0467,-2.8425,-0.0548,-1.7382,rough,14.0,0,3.561
550,17.60,9.0881,-1.3144,2.0563,-2.8671,0.1127,-1.7669,rough,14.0,0,3.456
560,17.92,9.0726,-1.2540,2.0645,-2.8176,0.1850,-1.8043,rough,14.0,0,3.394
570,18.24,9.0445,-1.3844,2.0502,-2.9089,-0.0435,-1.8114,rough,14.0,0,3.514
580,18.56,9.0820,-1.4199,2.0518,-2.8869,0.0314,-1.8252,rough,14.0,0,3.557
590,18.88,9.0782,-1.3783,2.0492,-2.9060,0.0636,-1.8376,rough,14.0,0,3.516
600,19.20,9.0754,-1.3971,2.0458,-2.8768,0.0036,-1.7555,rough,14.0,0,3.533
610,19.52,9.0803,-1.3429,2.0539,-2.8850,0.0929,-1.8299,rough,14.0,0,3.482
620,19.84,9.0700,-1.3520,2.0509,-2.8926,0.0722,-1.8070,rough,14.0,0,3.488
630,20.16,9.0819,-1.3946,2.0467,-2.8886,0.0383,-1.8114,rough,14.0,0,3.532
640,20.48,9.0704,-1.4106,2.0393,-2.8475,-0.0095,-1.7399,rough,14.0,0,3.545
650,20.80,9.0789,-1.3562,2.0533,-2.8963,0.0858,-1.8209,rough,14.0,0,3.494
660,21.12,9.0854,-1.3519,2.0455,-2.8806,0.0473,-1.7974,rough,14.0,0,3.492
670,21.44,9.0839,-1.3999,2.0485,-2.8881,0.0461,-1.8214,rough,14.0,0,3.538
680,21.76,9.0789,-1.3683,2.0460,-2.8760,0.0575,-1.7874,rough,14.0,0,3.506
690,22.08,9.0888,-1.4011,2.0475,-2.9098,0.0578,-1.8248,rough,14.0,0,3.540
700,22.40,9.0782,-1.3911,2.0453,-2.9154,0.0301,-1.8070,rough,14.0,0,3.528
710,22.72,9.0832,-1.3788,2.0469,-2.9181,0.0751,-1.8371,rough,14.0,0,3.517
720,23.04,9.0644,-1.3282,2.0520,-2.8963,0.0697,-1.8186,rough,14.0,0,3.464
730,23.36,9.0763,-1.3580,2.0493,-2.8821,0.0530,-1.7374,rough,14.0,0,3.495
740,23.68,9.0780,-1.3857,2.0453,-2.9136,0.0324,-1.8007,rough,14.0,0,3.523
750,24.00,9.0894,-1.3748,2.0454,-2.9264,0.0597,-1.7833,rough,14.0,0,3.515
760,24.32,9.0727,-1.4316,2.0464,-2.8332,-0.0522,-1.7273,rough,14.0,0,3.566
770,24.64,9.0851,-1.3515,2.0512,-2.8788,0.0851,-1.8145,rough,14.0,0,3.491
780,24.96,9.0784,-1.4022,2.0431,-2.9120,0.0183,-1.8089,rough,14.0,0,3.539
790,25.28,9.0831,-1.3865,2.0486,-2.8973,0.0573,-1.8192,rough,14.0,0,3.525
800,25.60,9.0787,-1.3747,2.0477,-2.8851,0.0713,-1.8278,rough,14.0,0,3.512
810,25.92,9.0848,-1.3808,2.0468,-2.8975,0.0529,-1.7988,rough,14.0,0,3.520
820,26.24,9.0852,-1.3880,2.0481,-2.8934,0.0483,-1.7940,rough,14.0,0,3.527
830,26.56,9.0825,-1.3789,2.0464,-2.9026,0.0615,-1.8071,rough,14.0,0,3.517
840,26.88,9.0740,-1.4035,2.0467,-2.9006,0.0128,-1.7866,rough,14.0,0,3.539
850,27.20,9.0731,-1.3786,2.0481,-2.9175,0.0467,-1.8340,rough,14.0,0,3.515
860,27.52,9.0689,-1.3844,2.0492,-2.9108,0.0304,-1.8107,rough,14.0,0,3.519
870,27.84,9.0745,-1.3758,2.0475,-2.9142,0.0525,-1.8162,rough,14.0,0,3.512
880,28.16,9.0775,-1.3614,2.0468,-2.8879,0.0590,-1.7919,rough,14.0,0,3.499
890,28.48,9.0741,-1.3493,2.0515,-2.8932,0.0734,-1.8164,rough,14.0,0,3.487
900,28.80,9.0806,-1.3841,2.0475,-2.9020,0.0488,-1.8141,rough,14.0,0,3.522
910,29.12,9.0757,-1.3891,2.0416,-2.8926,0.0125,-1.7302,rough,14.0,0,3.526
920,29.44,9.0809,-1.3867,2.0463,-2.8991,0.0395,-1.7836,rough,14.0,0,3.524
930,29.76,9.0867,-1.3705,2.0492,-2.8965,0.0666,-1.8210,rough,14.0,0,3.510
940,30.08,9.0880,-1.3929,2.0435,-2.8957,0.0317,-1.8313,rough,14.0,0,3.532
950,30.40,9.0808,-1.3865,2.0478,-2.8981,0.0569,-1.8236,rough,14.0,0,3.524
960,30.72,9.0695,-1.3928,2.0435,-2.8829,0.0073,-1.7442,rough,14.0,0,3.528
970,31.04,9.0658,-1.3967,2.0434,-2.8807,-0.0030,-1.7424,rough,14.0,0,3.531
980,31.36,9.0754,-1.3685,2.0488,-2.9046,0.0595,-1.7995,rough,14.0,0,3.505
990,31.68,9.0787,-1.3969,2.0460,-2.8872,0.0207,-1.7681,rough,14.0,0,3.534
1000,32.00,9.0780,-1.3947,2.0478,-2.8905,0.0247,-1.7807,rough,14.0,0,3.531
1010,32.32,9.0831,-1.3663,2.0499,-2.9014,0.0722,-1.8075,rough,14.0,0,3.505
1020,32.64,9.0640,-1.3967,2.0464,-2.9252,0.0010,-1.7700,rough,14.0,0,3.530
1030,32.96,9.0822,-1.3607,2.0481,-2.8846,0.0780,-1.8605,rough,14.0,0,3.499
1040,33.28,9.0848,-1.3928,2.0473,-2.8982,0.0587,-1.8353,rough,14.0,0,3.531
1050,33.60,9.0723,-1.3811,2.0461,-2.9323,0.0379,-1.8360,rough,14.0,0,3.517
1060,33.92,9.0738,-1.3526,2.0483,-2.8878,0.0600,-1.7911,rough,14.0,0,3.490
1070,34.24,9.0652,-1.3192,2.0523,-2.8856,0.0697,-1.7772,rough,14.0,0,3.455
1080,34.56,9.0733,-1.3565,2.0478,-2.9031,0.0643,-1.7743,rough,14.0,0,3.493
1090,34.88,9.0768,-1.3762,2.0466,-2.8968,0.0459,-1.7989,rough,14.0,0,3.513
1100,35.20,9.0782,-1.3759,2.0470,-2.9144,0.0493,-1.7995,rough,14.0,0,3.513
1110,35.52,9.0866,-1.3787,2.0501,-2.8815,0.0665,-1.8009,rough,14.0,0,3.518
1120,35.84,9.0740,-1.3653,2.0457,-2.8947,0.0434,-1.8214,rough,14.0,0,3.502
1130,36.16,9.0886,-1.3830,2.0491,-2.8964,0.0665,-1.8140,rough,14.0,0,3.523
1140,36.48,9.0809,-1.3680,2.0484,-2.9040,0.0761,-1.8128,rough,14.0,0,3.506
1150,36.80,9.0709,-1.3784,2.0465,-2.8984,0.0273,-1.7690,rough,14.0,0,3.514
1160,37.12,9.0702,-1.3779,2.0452,-2.9104,0.0341,-1.8038,rough,14.0,0,3.513
1170,37.44,9.0812,-1.3792,2.0465,-2.8906,0.0599,-1.7773,rough,14.0,0,3.517
1180,37.76,9.0736,-1.3912,2.0447,-2.8950,0.0116,-1.7486,rough,14.0,0,3.527
1190,38.08,9.0780,-1.3885,2.0465,-2.9083,0.0386,-1.8106,rough,14.0,0,3.525
1200,38.40,9.0721,-1.3873,2.0402,-2.8896,0.0516,-1.7604,rough,14.0,0,3.523
1210,38.72,9.0724,-1.3758,2.0451,-2.9285,0.0433,-1.8070,rough,14.0,0,3.512
1220,39.04,9.0781,-1.3866,2.0486,-2.8810,0.0457,-1.7880,rough,14.0,0,3.524
1230,39.36,9.0800,-1.3815,2.0467,-2.8984,0.0444,-1.7913,rough,14.0,0,3.519
1240,39.68,9.0753,-1.4073,2.0465,-2.8977,0.0177,-1.7888,rough,14.0,0,3.543
1250,40.00,9.0796,-1.3822,2.0460,-2.8909,0.0349,-1.7523,rough,14.0,0,3.520
1260,40.32,9.0799,-1.3636,2.0458,-2.8747,0.0627,-1.8334,rough,14.0,0,3.502
1270,40.64,9.0797,-1.3786,2.0476,-2.9134,0.0641,-1.8301,rough,14.0,0,3.516
1280,40.96,9.0765,-1.3605,2.0427,-2.8872,0.0309,-1.7808,rough,14.0,0,3.498
1290,41.28,9.0767,-1.3622,2.0409,-2.8569,0.0579,-1.7664,rough,14.0,0,3.500
1300,41.60,9.0818,-1.3940,2.0487,-2.8949,0.0416,-1.8046,rough,14.0,0,3.532
1310,41.92,9.0662,-1.3927,2.0474,-2.9270,0.0163,-1.7875,rough,14.0,0,3.527
1320,42.24,9.0746,-1.3692,2.0459,-2.8879,0.0445,-1.7501,rough,14.0,0,3.506
1330,42.56,9.0645,-1.3496,2.0474,-2.8973,0.0507,-1.7996,rough,14.0,0,3.484
1340,42.88,9.0759,-1.3855,2.0453,-2.8923,0.0270,-1.8054,rough,14.0,0,3.522
1350,43.20,9.0525,-1.4251,2.0458,-2.8546,-0.0926,-1.7249,rough,14.0,0,3.555
1360,43.52,9.0745,-1.3636,2.0440,-2.8760,0.0621,-1.7809,rough,14.0,0,3.500
1370,43.84,9.0778,-1.3576,2.0476,-2.8864,0.0530,-1.7982,rough,14.0,0,3.495
1380,44.16,9.0811,-1.3908,2.0471,-2.8958,0.0489,-1.8044,rough,14.0,0,3.528
1390,44.48,9.0836,-1.3871,2.0478,-2.9042,0.0507,-1.8150,rough,14.0,0,3.525
1400,44.80,9.0787,-1.3773,2.0465,-2.9064,0.0568,-1.7940,rough,14.0,0,3.515
1410,45.12,9.0782,-1.3566,2.0481,-2.8833,0.0586,-1.7939,rough,14.0,0,3.495
1420,45.44,9.0740,-1.3281,2.0541,-2.8666,0.1007,-1.7893,rough,14.0,0,3.466
1430,45.76,9.0603,-1.3686,2.0461,-2.9358,0.0074,-1.8032,rough,14.0,0,3.502
1440,46.08,9.0884,-1.4004,2.0429,-2.8984,0.0008,-1.8036,rough,14.0,0,3.540
1450,46.40,9.0781,-1.3761,2.0495,-2.9091,0.0544,-1.8218,rough,14.0,0,3.513
1460,46.72,9.0832,-1.3753,2.0465,-2.9124,0.0781,-1.8169,rough,14.0,0,3.514
1470,47.04,9.0712,-1.3538,2.0515,-2.8903,0.0595,-1.8028,rough,14.0,0,3.490
1480,47.36,9.0761,-1.3785,2.0456,-2.8839,0.0289,-1.7898,rough,14.0,0,3.515
1490,47.68,9.0789,-1.3929,2.0475,-2.8895,0.0328,-1.7996,rough,14.0,0,3.530
1500,48.00,9.0735,-1.4056,2.0451,-2.8715,-0.0070,-1.7608,rough,14.0,0,3.541
1510,48.32,9.0744,-1.3482,2.0521,-2.9070,0.0856,-1.8293,rough,14.0,0,3.486
1520,48.64,9.0751,-1.3830,2.0452,-2.8975,0.0302,-1.7659,rough,14.0,0,3.519
1530,48.96,9.0731,-1.4019,2.0420,-2.8636,-0.0040,-1.7384,rough,14.0,0,3.537
1540,49.28,9.0793,-1.3665,2.0503,-2.9012,0.0656,-1.8041,rough,14.0,0,3.504
1550,49.60,9.0787,-1.4248,2.0462,-2.8333,-0.0297,-1.7661,rough,14.0,0,3.561
1560,49.92,9.0906,-1.3548,2.0542,-2.8871,0.0890,-1.7775,rough,14.0,0,3.496
1570,50.24,9.0836,-1.3878,2.0463,-2.8986,0.0529,-1.8015,rough,14.0,0,3.526
1580,50.56,9.0840,-1.3701,2.0486,-2.8838,0.0843,-1.7949,rough,14.0,0,3.509
1590,50.88,9.0809,-1.3916,2.0467,-2.8890,0.0506,-1.8155,rough,14.0,0,3.529
1600,51.20,9.0724,-1.3737,2.0488,-2.9219,0.0492,-1.8337,rough,14.0,0,3.510
1610,51.52,9.0801,-1.3782,2.0459,-2.8988,0.0477,-1.7763,rough,14.0,0,3.516
1620,51.84,9.0700,-1.4020,2.0435,-2.8647,-0.0150,-1.7407,rough,14.0,0,3.537
1630,52.16,9.0668,-1.3863,2.0472,-2.8949,0.0065,-1.7610,rough,14.0,0,3.521
1640,52.48,9.0745,-1.3576,2.0472,-2.8890,0.0518,-1.8064,rough,14.0,0,3.495
1650,52.80,9.0746,-1.3690,2.0456,-2.9021,0.0568,-1.8269,rough,14.0,0,3.506
1660,53.12,9.0712,-1.3860,2.0477,-2.9317,0.0409,-1.8281,rough,14.0,0,3.521
1670,53.44,9.0854,-1.3792,2.0476,-2.8960,0.0511,-1.7953,rough,14.0,0,3.518
1680,53.76,9.0696,-1.3898,2.0386,-2.8638,0.0098,-1.7501,rough,14.0,0,3.525
1690,54.08,9.0761,-1.3762,2.0480,-2.9095,0.0470,-1.8086,rough,14.0,0,3.513
1700,54.40,9.0724,-1.3940,2.0415,-2.8813,0.0120,-1.7429,rough,14.0,0,3.530
1710,54.72,9.0724,-1.3791,2.0471,-2.9161,0.0380,-1.8121,rough,14.0,0,3.515
1720,55.04,9.0677,-1.3824,2.0420,-2.8926,0.0348,-1.7908,rough,14.0,0,3.517
1730,55.36,9.0714,-1.3707,2.0481,-2.9059,0.0498,-1.7986,rough,14.0,0,3.507
1740,55.68,9.0803,-1.3719,2.0473,-2.9024,0.0517,-1.8213,rough,14.0,0,3.510
1750,56.00,9.0804,-1.3827,2.0455,-2.8980,0.0435,-1.7804,rough,14.0,0,3.520
1760,56.32,9.0680,-1.3969,2.0435,-2.8691,-0.0038,-1.7639,rough,14.0,0,3.531
1770,56.64,9.0677,-1.3892,2.0466,-2.8892,-0.0014,-1.7635,rough,14.0,0,3.524
1780,56.96,9.0768,-1.3933,2.0451,-2.8929,0.0501,-1.8107,rough,14.0,0,3.530
1790,57.28,9.0862,-1.3710,2.0502,-2.8888,0.0677,-1.7831,rough,14.0,0,3.510
1800,57.60,9.0836,-1.4070,2.0451,-2.9086,0.0141,-1.8280,rough,14.0,0,3.545
1810,57.92,9.0824,-1.3864,2.0483,-2.8960,0.0652,-1.8330,rough,14.0,0,3.524
1820,58.24,9.0821,-1.3973,2.0425,-2.8993,0.0660,-1.8193,rough,14.0,0,3.535
1830,58.56,9.0870,-1.3451,2.0477,-2.8622,0.0754,-1.7719,rough,14.0,0,3.486
1840,58.88,9.0708,-1.3963,2.0445,-2.8787,-0.0151,-1.7517,rough,14.0,0,3.531
1850,59.20,9.0662,-1.3960,2.0470,-2.8849,-0.0249,-1.7808,rough,14.0,0,3.530
1860,59.52,9.0740,-1.3794,2.0468,-2.9091,0.0428,-1.8003,rough,14.0,0,3.516
1870,59.84,9.0852,-1.3649,2.0504,-2.8928,0.0913,-1.8031,rough,14.0,0,3.504
1880,60.16,9.0826,-1.3674,2.0497,-2.8842,0.0743,-1.8048,rough,14.0,0,3.506
1890,60.48,9.0836,-1.4179,2.0489,-2.8785,0.0299,-1.8355,rough,14.0,0,3.555
1900,60.80,9.0762,-1.3740,2.0482,-2.8935,0.0461,-1.7899,rough,14.0,0,3.511
1910,61.12,9.0587,-1.3678,2.0492,-2.9146,0.0148,-1.8062,rough,14.0,0,3.501
1920,61.44,9.0849,-1.3699,2.0492,-2.9003,0.0688,-1.8134,rough,14.0,0,3.509
1930,61.76,9.0837,-1.3930,2.0461,-2.8961,0.0480,-1.8046,rough,14.0,0,3.531
1940,62.08,9.0796,-1.3677,2.0476,-2.8911,0.0550,-1.8103,rough,14.0,0,3.506
1950,62.40,9.0760,-1.3917,2.0455,-2.8885,0.0175,-1.7577,rough,14.0,0,3.528
1960,62.72,9.0878,-1.3823,2.0473,-2.8908,0.0487,-1.7889,rough,14.0,0,3.522
1970,63.04,9.0804,-1.4104,2.0461,-2.8936,0.0167,-1.7798,rough,14.0,0,3.547
1980,63.36,9.0816,-1.3617,2.0508,-2.8742,0.0823,-1.7706,rough,14.0,0,3.500
1990,63.68,9.0773,-1.3851,2.0465,-2.8904,0.0605,-1.8316,rough,14.0,0,3.522
2000,64.00,9.0738,-1.3707,2.0456,-2.9096,0.0743,-1.8087,rough,14.0,0,3.507
2010,64.32,9.0721,-1.3342,2.0531,-2.8924,0.0879,-1.8114,rough,14.0,0,3.471
2020,64.64,9.0759,-1.3909,2.0445,-2.8868,0.0181,-1.7474,rough,14.0,0,3.527
2030,64.96,9.0738,-1.3865,2.0484,-2.9043,0.0410,-1.8149,rough,14.0,0,3.523
2040,65.28,9.0774,-1.3817,2.0453,-2.9022,0.0439,-1.7836,rough,14.0,0,3.519
2050,65.60,9.0732,-1.3908,2.0459,-2.9047,0.0193,-1.7761,rough,14.0,0,3.527
2060,65.92,9.0731,-1.3740,2.0481,-2.9155,0.0481,-1.8241,rough,14.0,0,3.510
2070,66.24,9.0791,-1.3606,2.0504,-2.8980,0.0687,-1.8143,rough,14.0,0,3.499
2080,66.56,9.0830,-1.3935,2.0482,-2.8911,0.0481,-1.8129,rough,14.0,0,3.531
2090,66.88,9.0659,-1.3887,2.0471,-2.8924,-0.0023,-1.7582,rough,14.0,0,3.523
2100,67.20,9.0905,-1.3859,2.0488,-2.8866,0.0776,-1.8254,rough,14.0,0,3.526
2110,67.52,9.0874,-1.3745,2.0472,-2.9039,0.0702,-1.8118,rough,14.0,0,3.514
2120,67.84,9.0686,-1.3560,2.0492,-2.9057,0.0527,-1.8150,rough,14.0,0,3.492
2130,68.16,9.0843,-1.3632,2.0505,-2.8953,0.0831,-1.8312,rough,14.0,0,3.502
2140,68.48,9.0865,-1.3908,2.0470,-2.8862,0.0630,-1.8068,rough,14.0,0,3.530
2150,68.80,9.0845,-1.3793,2.0441,-2.9067,0.0594,-1.8297,rough,14.0,0,3.518
2160,69.12,9.0809,-1.2966,2.0595,-2.8362,0.1483,-1.7867,rough,14.0,0,3.437
2170,69.44,9.0609,-1.2427,2.0604,-2.8362,0.1530,-1.7775,rough,14.0,0,3.380
2180,69.76,9.0640,-1.2403,2.0581,-2.8445,0.1657,-1.7759,rough,14.0,0,3.378
2190,70.08,9.0794,-1.2397,2.0620,-2.8302,0.2093,-1.7782,rough,14.0,0,3.382
2200,70.40,9.0767,-1.2512,2.0611,-2.8498,0.1754,-1.7828,rough,14.0,0,3.392
2210,70.72,9.0741,-1.3476,2.0507,-2.8829,0.0738,-1.7661,rough,14.0,0,3.485
2220,71.04,9.0816,-1.3932,2.0463,-2.9169,0.0290,-1.8147,rough,14.0,0,3.531
2230,71.36,9.0828,-1.3807,2.0484,-2.8982,0.0620,-1.8063,rough,14.0,0,3.519
2240,71.68,9.0848,-1.3809,2.0463,-2.9055,0.0723,-1.8164,rough,14.0,0,3.520
2250,72.00,9.0789,-1.3629,2.0476,-2.8981,0.0575,-1.8199,rough,14.0,0,3.501
2260,72.32,9.0803,-1.3852,2.0476,-2.9014,0.0579,-1.8260,rough,14.0,0,3.523
2270,72.64,9.0751,-1.3870,2.0450,-2.8927,0.0400,-1.7794,rough,14.0,0,3.523
2280,72.96,9.0793,-1.3831,2.0463,-2.9023,0.0547,-1.8054,rough,14.0,0,3.521
2290,73.28,9.0718,-1.3982,2.0436,-2.8703,0.0009,-1.7629,rough,14.0,0,3.533
2300,73.60,9.0847,-1.3531,2.0487,-2.8776,0.0636,-1.7897,rough,14.0,0,3.493
2310,73.92,9.0816,-1.3956,2.0469,-2.8933,0.0641,-1.8464,rough,14.0,0,3.533
2320,74.24,9.0767,-1.3956,2.0412,-2.8825,0.0420,-1.7942,rough,14.0,0,3.532
2330,74.56,9.0742,-1.4138,2.0458,-2.8492,-0.0274,-1.7665,rough,14.0,0,3.549
2340,74.88,9.0811,-1.3806,2.0488,-2.9138,0.0506,-1.8223,rough,14.0,0,3.519
2350,75.20,9.0785,-1.4046,2.0435,-2.8871,0.0292,-1.7843,rough,14.0,0,3.541
2360,75.52,9.0670,-1.4103,2.0472,-2.8781,-0.0090,-1.7707,rough,14.0,0,3.544
2370,75.84,9.0883,-1.3471,2.0568,-2.8817,0.1157,-1.8187,rough,14.0,0,3.488
2380,76.16,9.0742,-1.4027,2.0461,-2.8944,0.0079,-1.7697,rough,14.0,0,3.538
2390,76.48,9.0855,-1.3732,2.0507,-2.8961,0.0708,-1.8112,rough,14.0,0,3.512
2400,76.80,9.0906,-1.3983,2.0374,-2.8887,0.0851,-1.7799,rough,14.0,0,3.538
2410,77.12,9.0765,-1.3963,2.0430,-2.8685,0.0322,-1.7903,rough,14.0,0,3.533
2420,77.44,9.0793,-1.3783,2.0474,-2.8918,0.0793,-1.8201,rough,14.0,0,3.516
2430,77.76,9.0859,-1.3846,2.0509,-2.8877,0.0661,-1.8294,rough,14.0,0,3.524
2440,78.08,9.0786,-1.3813,2.0474,-2.8856,0.0366,-1.7983,rough,14.0,0,3.519
2450,78.40,9.0787,-1.3905,2.0481,-2.8944,0.0362,-1.7984,rough,14.0,0,3.528
2460,78.72,9.0826,-1.3710,2.0506,-2.8932,0.0780,-1.8203,rough,14.0,0,3.510
2470,79.04,9.0825,-1.3952,2.0479,-2.8932,0.0535,-1.8138,rough,14.0,0,3.533
2480,79.36,9.0760,-1.3632,2.0421,-2.8708,0.0476,-1.7993,rough,14.0,0,3.500
2490,79.68,9.0642,-1.4096,2.0460,-2.8814,-0.0090,-1.8153,rough,14.0,0,3.543
2500,80.00,9.0886,-1.3900,2.0460,-2.9049,0.0594,-1.8486,rough,14.0,0,3.529
2510,80.32,9.0884,-1.3869,2.0485,-2.9007,0.0541,-1.8097,rough,14.0,0,3.526
2520,80.64,9.0787,-1.3845,2.0480,-2.9124,0.0455,-1.8300,rough,14.0,0,3.522
2530,80.96,9.0774,-1.3741,2.0482,-2.9071,0.0468,-1.7978,rough,14.0,0,3.511
2540,81.28,9.0819,-1.3918,2.0460,-2.8960,0.0570,-1.8239,rough,14.0,0,3.530
2550,81.60,9.0753,-1.3768,2.0479,-2.9214,0.0526,-1.8310,rough,14.0,0,3.513
2560,81.92,9.0688,-1.3822,2.0441,-2.8853,0.0018,-1.7412,rough,14.0,0,3.517
2570,82.24,9.0726,-1.3860,2.0435,-2.8839,0.0202,-1.7731,rough,14.0,0,3.522
2580,82.56,9.0740,-1.3814,2.0455,-2.9286,0.0302,-1.8241,rough,14.0,0,3.518
2590,82.88,9.0731,-1.3843,2.0450,-2.9278,0.0246,-1.8225,rough,14.0,0,3.520
2600,83.20,9.0719,-1.3786,2.0482,-2.9187,0.0420,-1.8344,rough,14.0,0,3.514
2610,83.52,9.0781,-1.3758,2.0454,-2.8953,0.0537,-1.7584,rough,14.0,0,3.513
2620,83.84,9.0759,-1.3473,2.0498,-2.8829,0.0667,-1.8038,rough,14.0,0,3.485
2630,84.16,9.0742,-1.3040,2.0565,-2.8494,0.1185,-1.7675,rough,14.0,0,3.443
2640,84.48,9.0829,-1.3764,2.0457,-2.9166,0.0662,-1.8299,rough,14.0,0,3.515
2650,84.80,9.0794,-1.3889,2.0484,-2.8962,0.0427,-1.8138,rough,14.0,0,3.526
2660,85.12,9.0738,-1.3623,2.0503,-2.9103,0.0692,-1.8335,rough,14.0,0,3.499
2670,85.44,9.0644,-1.3625,2.0475,-2.8933,0.0371,-1.7729,rough,14.0,0,3.497
2680,85.76,9.0768,-1.4025,2.0485,-2.8740,0.0105,-1.8117,rough,14.0,0,3.539
2690,86.08,9.0828,-1.3873,2.0467,-2.8970,0.0452,-1.7898,rough,14.0,0,3.525
2700,86.40,9.0742,-1.3769,2.0462,-2.9069,0.0307,-1.7682,rough,14.0,0,3.513
2710,86.72,9.0665,-1.4035,2.0410,-2.9280,-0.0089,-1.8037,rough,14.0,0,3.537
2720,87.04,9.0765,-1.4107,2.0492,-2.8861,0.0148,-1.8170,rough,14.0,0,3.547
2730,87.36,9.0753,-1.3650,2.0500,-2.9037,0.0563,-1.7946,rough,14.0,0,3.502
2740,87.68,9.0790,-1.3894,2.0453,-2.8984,0.0550,-1.7796,rough,14.0,0,3.527
2750,88.00,9.0784,-1.3475,2.0491,-2.8837,0.0703,-1.7948,rough,14.0,0,3.486
2760,88.32,9.0745,-1.3502,2.0498,-2.8943,0.0652,-1.7711,rough,14.0,0,3.487
2770,88.64,9.0676,-1.4014,2.0464,-2.9146,0.0094,-1.7939,rough,14.0,0,3.536
2780,88.96,9.0774,-1.3797,2.0465,-2.9015,0.0510,-1.8195,rough,14.0,0,3.517
2790,89.28,9.0845,-1.3863,2.0458,-2.8899,0.0526,-1.7930,rough,14.0,0,3.525
2800,89.60,9.0821,-1.3840,2.0461,-2.8881,0.0516,-1.7836,rough,14.0,0,3.522
2810,89.92,9.0742,-1.3819,2.0446,-2.9017,0.0481,-1.7865,rough,14.0,0,3.518
2820,90.24,9.0750,-1.3800,2.0462,-2.9051,0.0443,-1.8216,rough,14.0,0,3.517
2830,90.56,9.0698,-1.4023,2.0423,-2.8596,-0.0176,-1.7342,rough,14.0,0,3.537
2840,90.88,9.0634,-1.3912,2.0474,-2.8841,-0.0260,-1.7776,rough,14.0,0,3.525
2850,91.20,9.0705,-1.3558,2.0490,-2.9058,0.0530,-1.8127,rough,14.0,0,3.492
2860,91.52,9.0790,-1.3906,2.0451,-2.8944,0.0545,-1.8074,rough,14.0,0,3.528
2870,91.84,9.0781,-1.3805,2.0475,-2.8987,0.0584,-1.8128,rough,14.0,0,3.518
2880,92.16,9.0851,-1.3746,2.0488,-2.9013,0.0598,-1.7878,rough,14.0,0,3.514
2890,92.48,9.0825,-1.4046,2.0484,-2.8753,0.0293,-1.7988,rough,14.0,0,3.542
2900,92.80,9.0820,-1.3810,2.0470,-2.8998,0.0418,-1.7858,rough,14.0,0,3.519
2910,93.12,9.0839,-1.3791,2.0479,-2.8800,0.0636,-1.7789,rough,14.0,0,3.518
2920,93.44,9.0886,-1.3926,2.0477,-2.8874,0.0611,-1.8197,rough,14.0,0,3.532
2930,93.76,9.0815,-1.3464,2.0520,-2.8869,0.0732,-1.7819,rough,14.0,0,3.485
2940,94.08,9.0850,-1.3884,2.0457,-2.9031,0.0297,-1.7839,rough,14.0,0,3.527
2950,94.40,9.0800,-1.3847,2.0478,-2.9078,0.0534,-1.8250,rough,14.0,0,3.522
2960,94.72,9.0707,-1.3807,2.0448,-2.9026,0.0275,-1.7764,rough,14.0,0,3.516
2970,95.04,9.0705,-1.4039,2.0464,-2.8913,-0.0049,-1.7806,rough,14.0,0,3.539
2980,95.36,9.0817,-1.3862,2.0476,-2.8935,0.0588,-1.8115,rough,14.0,0,3.524
2990,95.68,9.0894,-1.3945,2.0461,-2.9086,0.0401,-1.8164,rough,14.0,0,3.534
3000,96.00,9.0796,-1.3887,2.0433,-2.8860,0.0355,-1.7828,rough,14.0,0,3.526
3010,96.32,9.0813,-1.3821,2.0490,-2.8883,0.0516,-1.8150,rough,14.0,0,3.520
3020,96.64,9.0697,-1.4043,2.0477,-2.8918,0.0087,-1.7682,rough,14.0,0,3.539
3030,96.96,9.0685,-1.3812,2.0486,-2.8981,0.0180,-1.7826,rough,14.0,0,3.516
3040,97.28,9.0803,-1.3953,2.0441,-2.8834,0.0221,-1.7436,rough,14.0,0,3.533
3050,97.60,9.0730,-1.3828,2.0489,-2.9087,0.0414,-1.8219,rough,14.0,0,3.519
3060,97.92,9.0735,-1.3732,2.0494,-2.9119,0.0555,-1.8311,rough,14.0,0,3.510
3070,98.24,9.0709,-1.3571,2.0473,-2.9182,0.0397,-1.8300,rough,14.0,0,3.493
3080,98.56,9.0609,-1.3429,2.0489,-2.9174,0.0323,-1.7976,rough,14.0,0,3.477
3090,98.88,9.0767,-1.3745,2.0446,-2.8842,0.0457,-1.7645,rough,14.0,0,3.512
3100,99.20,9.0760,-1.3778,2.0490,-2.9050,0.0575,-1.8316,rough,14.0,0,3.515
3110,99.52,9.0728,-1.3966,2.0437,-2.8806,0.0046,-1.7313,rough,14.0,0,3.532
3120,99.84,9.0832,-1.3839,2.0431,-2.8951,0.0250,-1.7912,rough,14.0,0,3.522
3130,100.16,9.0787,-1.3841,2.0421,-2.9117,0.0433,-1.7925,rough,14.0,0,3.521
3140,100.48,9.0788,-1.3546,2.0520,-2.8869,0.0887,-1.8143,rough,14.0,0,3.493
3150,100.80,9.0764,-1.2561,2.0629,-2.8023,0.1767,-1.7460,rough,14.0,0,3.397
3160,101.12,9.0610,-1.2317,2.0587,-2.8254,0.1618,-1.7363,rough,14.0,0,3.369
3170,101.44,9.0699,-1.1163,2.0762,-2.7924,0.2772,-1.6935,rough,14.0,0,3.260
3180,101.76,9.0610,-1.1166,2.0710,-2.7636,0.2611,-1.7281,rough,14.0,0,3.258
3190,102.08,9.0696,-1.1620,2.0636,-2.7938,0.2539,-1.7336,rough,14.0,0,3.304
3200,102.40,9.0694,-1.1772,2.0642,-2.7902,0.2413,-1.7287,rough,14.0,0,3.319
3210,102.72,9.0774,-1.1543,2.0671,-2.8068,0.2758,-1.7499,rough,14.0,0,3.298
3220,103.04,9.0683,-1.1520,2.0650,-2.8216,0.2446,-1.7506,rough,14.0,0,3.294
3230,103.36,9.0792,-1.1686,2.0665,-2.7911,0.2542,-1.7113,rough,14.0,0,3.313
3240,103.68,9.0668,-1.2555,2.0523,-2.8223,0.1750,-1.7158,rough,14.0,0,3.394
3250,104.00,9.0575,-1.3086,2.0532,-2.8927,0.0781,-1.8200,rough,14.0,0,3.443
3260,104.32,9.0831,-1.3993,2.0452,-2.8834,0.0501,-1.7954,rough,14.0,0,3.537
3270,104.64,9.0812,-1.3724,2.0491,-2.9001,0.0690,-1.8059,rough,14.0,0,3.511
3280,104.96,9.0726,-1.3834,2.0479,-2.9039,0.0332,-1.8152,rough,14.0,0,3.519
3290,105.28,9.0733,-1.3746,2.0471,-2.9154,0.0384,-1.7954,rough,14.0,0,3.511
3300,105.60,9.0828,-1.3840,2.0445,-2.9026,0.0546,-1.7697,rough,14.0,0,3.522
3310,105.92,9.0752,-1.4024,2.0447,-2.8729,-0.0051,-1.7189,rough,14.0,0,3.538
3320,106.24,9.0803,-1.3734,2.0481,-2.9070,0.0566,-1.7963,rough,14.0,0,3.511
3330,106.56,9.0790,-1.3800,2.0489,-2.9156,0.0494,-1.8388,rough,14.0,0,3.517
3340,106.88,9.0729,-1.3918,2.0425,-2.8772,0.0097,-1.7444,rough,14.0,0,3.527
3350,107.20,9.0624,-1.3992,2.0481,-2.9063,-0.0027,-1.7693,rough,14.0,0,3.532
3360,107.52,9.0906,-1.3570,2.0526,-2.9019,0.0813,-1.8221,rough,14.0,0,3.498
3370,107.84,9.0901,-1.3948,2.0474,-2.8943,0.0562,-1.8068,rough,14.0,0,3.534
3380,108.16,9.0815,-1.3805,2.0446,-2.9026,0.0540,-1.7848,rough,14.0,0,3.519
3390,108.48,9.0704,-1.3755,2.0439,-2.9425,0.0275,-1.8423,rough,14.0,0,3.511
3400,108.80,9.0810,-1.3843,2.0484,-2.8931,0.0694,-1.8357,rough,14.0,0,3.522
3410,109.12,9.0906,-1.3780,2.0475,-2.8828,0.0362,-1.8087,rough,14.0,0,3.518
3420,109.44,9.0734,-1.3443,2.0508,-2.8797,0.0780,-1.7865,rough,14.0,0,3.481
3430,109.76,9.0833,-1.4255,2.0516,-2.8572,-0.0063,-1.8187,rough,14.0,0,3.563
3440,110.08,9.0804,-1.4178,2.0418,-2.8664,-0.0028,-1.7989,rough,14.0,0,3.555
3450,110.40,9.0791,-1.3914,2.0478,-2.8954,0.0280,-1.7929,rough,14.0,0,3.529
3460,110.72,9.0750,-1.3799,2.0459,-2.9044,0.0443,-1.8016,rough,14.0,0,3.516
3470,111.04,9.0838,-1.3909,2.0465,-2.8949,0.0638,-1.8178,rough,14.0,0,3.529
3480,111.36,9.0735,-1.3889,2.0458,-2.9273,0.0260,-1.8310,rough,14.0,0,3.525
3490,111.68,9.0770,-1.3819,2.0463,-2.9050,0.0550,-1.8107,rough,14.0,0,3.519
3500,112.00,9.0830,-1.3914,2.0471,-2.8889,0.0550,-1.8213,rough,14.0,0,3.529
3510,112.32,9.0828,-1.3906,2.0479,-2.8915,0.0317,-1.7797,rough,14.0,0,3.529
3520,112.64,9.0870,-1.3797,2.0485,-2.8846,0.0661,-1.7797,rough,14.0,0,3.519
3530,112.96,9.0838,-1.3774,2.0490,-2.8888,0.0728,-1.8229,rough,14.0,0,3.516
3540,113.28,9.0761,-1.4148,2.0458,-2.8626,-0.0089,-1.7607,rough,14.0,0,3.551
3550,113.60,9.0822,-1.3568,2.0476,-2.8804,0.0699,-1.8367,rough,14.0,0,3.496
3560,113.92,9.0801,-1.4010,2.0471,-2.8727,0.0164,-1.7928,rough,14.0,0,3.538
3570,114.24,9.0807,-1.4002,2.0474,-2.8958,0.0331,-1.7919,rough,14.0,0,3.537
3580,114.56,9.0792,-1.4016,2.0445,-2.8872,0.0266,-1.7855,rough,14.0,0,3.538
3590,114.88,9.0707,-1.3756,2.0482,-2.9107,0.0354,-1.8011,rough,14.0,0,3.511
3600,115.20,9.0768,-1.3861,2.0449,-2.8894,0.0370,-1.7972,rough,14.0,0,3.523
3610,115.52,9.0772,-1.4183,2.0475,-2.8693,0.0028,-1.7858,rough,14.0,0,3.554
3620,115.84,9.0894,-1.3828,2.0492,-2.8993,0.0535,-1.7890,rough,14.0,0,3.523
3630,116.16,9.0828,-1.3829,2.0477,-2.9011,0.0531,-1.8025,rough,14.0,0,3.521
3640,116.48,9.0717,-1.3724,2.0479,-2.9167,0.0479,-1.8297,rough,14.0,0,3.508
3650,116.80,9.0833,-1.3653,2.0470,-2.8987,0.0817,-1.8206,rough,14.0,0,3.504
3660,117.12,9.0674,-1.4325,2.0469,-2.8533,-0.0489,-1.7131,rough,14.0,0,3.566
3670,117.44,9.0878,-1.3578,2.0513,-2.8871,0.0803,-1.7835,rough,14.0,0,3.498
3680,117.76,9.0853,-1.3872,2.0473,-2.8967,0.0415,-1.7751,rough,14.0,0,3.526
3690,118.08,9.0781,-1.3828,2.0469,-2.9009,0.0423,-1.7925,rough,14.0,0,3.520
3700,118.40,9.0785,-1.3786,2.0474,-2.9037,0.0476,-1.7992,rough,14.0,0,3.516
3710,118.72,9.0813,-1.3814,2.0484,-2.9020,0.0583,-1.8214,rough,14.0,0,3.519
3720,119.04,9.0835,-1.3939,2.0491,-2.8941,0.0524,-1.8333,rough,14.0,0,3.532
3730,119.36,9.0825,-1.3980,2.0470,-2.8862,0.0543,-1.8206,rough,14.0,0,3.536
3740,119.68,9.0768,-1.3601,2.0507,-2.8948,0.0791,-1.8236,rough,14.0,0,3.498
3750,120.00,9.0799,-1.3742,2.0462,-2.8842,0.0527,-1.7785,rough,14.0,0,3.512
3760,120.32,9.0879,-1.3737,2.0469,-2.8967,0.0574,-1.8184,rough,14.0,0,3.513
3770,120.64,9.0878,-1.3548,2.0545,-2.8899,0.0914,-1.8025,rough,14.0,0,3.495
3780,120.96,9.0803,-1.3925,2.0470,-2.8950,0.0391,-1.8228,rough,14.0,0,3.530
3790,121.28,9.0817,-1.3706,2.0491,-2.8952,0.0633,-1.7823,rough,14.0,0,3.509
3800,121.60,9.0852,-1.4358,2.0516,-2.8591,-0.0003,-1.8247,rough,14.0,0,3.573
3810,121.92,9.0771,-1.3827,2.0446,-2.9028,0.0455,-1.7774,rough,14.0,0,3.520
3820,122.24,9.0830,-1.3876,2.0470,-2.9042,0.0634,-1.8202,rough,14.0,0,3.526
3830,122.56,9.0720,-1.4151,2.0439,-2.8590,-0.0267,-1.7113,rough,14.0,0,3.550
3840,122.88,9.0839,-1.3165,2.0569,-2.8518,0.1306,-1.7921,rough,14.0,0,3.457
3850,123.20,9.0719,-1.3548,2.0511,-2.9076,0.0590,-1.8089,rough,14.0,0,3.491
3860,123.52,9.0829,-1.4108,2.0507,-2.8827,0.0320,-1.7934,rough,14.0,0,3.548
3870,123.84,9.0825,-1.3173,2.0563,-2.8537,0.1258,-1.7913,rough,14.0,0,3.458
3880,124.16,9.0752,-1.3611,2.0498,-2.8905,0.0635,-1.7760,rough,14.0,0,3.498
3890,124.48,9.0820,-1.3848,2.0462,-2.9031,0.0554,-1.8039,rough,14.0,0,3.523
3900,124.80,9.0786,-1.3865,2.0422,-2.8749,0.0128,-1.7337,rough,14.0,0,3.524
3910,125.12,9.0780,-1.3785,2.0482,-2.9053,0.0475,-1.8049,rough,14.0,0,3.516
3920,125.44,9.0768,-1.3702,2.0489,-2.9012,0.0598,-1.8219,rough,14.0,0,3.507
3930,125.76,9.0820,-1.3885,2.0430,-2.8944,0.0795,-1.8080,rough,14.0,0,3.526
3940,126.08,9.0741,-1.3893,2.0476,-2.8875,0.0143,-1.7993,rough,14.0,0,3.525
3950,126.40,9.0717,-1.3886,2.0442,-2.8942,0.0082,-1.7543,rough,14.0,0,3.524
3960,126.72,9.0797,-1.3824,2.0488,-2.9053,0.0573,-1.8303,rough,14.0,0,3.520
3970,127.04,9.0747,-1.3731,2.0449,-2.9082,0.0333,-1.8399,rough,14.0,0,3.510
3980,127.36,9.0870,-1.3904,2.0473,-2.9007,0.0463,-1.8008,rough,14.0,0,3.529
3990,127.68,9.0792,-1.3828,2.0467,-2.8981,0.0385,-1.7868,rough,14.0,0,3.520
4000,128.00,9.0810,-1.3842,2.0472,-2.8987,0.0512,-1.7991,rough,14.0,0,3.522
4010,128.32,9.0798,-1.3833,2.0468,-2.9143,0.0503,-1.8244,rough,14.0,0,3.521
4020,128.64,9.0838,-1.3920,2.0481,-2.8918,0.0542,-1.8212,rough,14.0,0,3.530
4030,128.96,9.0828,-1.4028,2.0478,-2.8668,0.0171,-1.8032,rough,14.0,0,3.540
4040,129.28,9.0804,-1.3778,2.0469,-2.9134,0.0544,-1.8092,rough,14.0,0,3.516
4050,129.60,9.0815,-1.3780,2.0458,-2.8882,0.0446,-1.7788,rough,14.0,0,3.516
4060,129.92,9.0710,-1.3938,2.0443,-2.8917,0.0280,-1.7658,rough,14.0,0,3.529
4070,130.24,9.0826,-1.3825,2.0476,-2.9093,0.0526,-1.8180,rough,14.0,0,3.521
4080,130.56,9.0840,-1.3855,2.0492,-2.8922,0.0676,-1.8253,rough,14.0,0,3.524
4090,130.88,9.0854,-1.3855,2.0468,-2.8898,0.0563,-1.7817,rough,14.0,0,3.524
4100,131.20,9.0786,-1.3939,2.0451,-2.8875,0.0263,-1.7710,rough,14.0,0,3.531
4110,131.52,9.0805,-1.3529,2.0476,-2.8710,0.0617,-1.7777,rough,14.0,0,3.492
4120,131.84,9.0634,-1.3678,2.0467,-2.9323,0.0141,-1.8108,rough,14.0,0,3.502
4130,132.16,9.0747,-1.3992,2.0444,-2.8735,-0.0089,-1.7396,rough,14.0,0,3.535
4140,132.48,9.0814,-1.2975,2.0585,-2.8255,0.1593,-1.7730,rough,14.0,0,3.438
4150,132.80,9.0731,-1.2855,2.0585,-2.8458,0.1269,-1.7606,rough,14.0,0,3.424
4160,133.12,9.0794,-1.3984,2.0410,-2.9131,0.0074,-1.7777,rough,14.0,0,3.535
4170,133.44,9.0831,-1.3706,2.0483,-2.8994,0.0606,-1.7888,rough,14.0,0,3.509
4180,133.76,9.0751,-1.4019,2.0439,-2.8617,0.0176,-1.7976,rough,14.0,0,3.538
4190,134.08,9.0615,-1.3959,2.0488,-2.9115,-0.0090,-1.7865,rough,14.0,0,3.529
4200,134.40,9.0723,-1.3641,2.0445,-2.9184,0.0212,-1.8343,rough,14.0,0,3.500
4210,134.72,9.0748,-1.3312,2.0531,-2.8722,0.0886,-1.7745,rough,14.0,0,3.469
4220,135.04,9.0691,-1.3795,2.0468,-2.9193,0.0320,-1.8296,rough,14.0,0,3.515
4230,135.36,9.0938,-1.3706,2.0482,-2.8979,0.0665,-1.8353,rough,14.0,0,3.512
4240,135.68,9.0976,-1.3641,2.0547,-2.8855,0.0923,-1.8015,rough,14.0,0,3.507
4250,136.00,9.0867,-1.3841,2.0481,-2.9015,0.0622,-1.8099,rough,14.0,0,3.523
4260,136.32,9.0799,-1.3951,2.0460,-2.8871,0.0350,-1.7875,rough,14.0,0,3.532
4270,136.64,9.0878,-1.3875,2.0491,-2.8992,0.0640,-1.8345,rough,14.0,0,3.527
4280,136.96,9.0694,-1.3761,2.0471,-2.9155,0.0348,-1.8126,rough,14.0,0,3.511
4290,137.28,9.0789,-1.3075,2.0553,-2.8491,0.1182,-1.7808,rough,14.0,0,3.447
4300,137.60,9.0569,-1.3632,2.0504,-2.9178,0.0186,-1.8193,rough,14.0,0,3.496
4310,137.92,9.0835,-1.4173,2.0459,-2.9051,0.0518,-1.8173,rough,14.0,0,3.555
4320,138.24,9.0823,-1.3607,2.0513,-2.8780,0.0894,-1.7838,rough,14.0,0,3.499
4330,138.56,9.0725,-1.3757,2.0442,-2.9162,0.0136,-1.8160,rough,14.0,0,3.512
4340,138.88,9.0748,-1.3697,2.0491,-2.8884,0.0676,-1.7998,rough,14.0,0,3.506
4350,139.20,9.0832,-1.3809,2.0440,-2.8916,0.0463,-1.7741,rough,14.0,0,3.519
4360,139.52,9.0676,-1.3931,2.0426,-2.8852,0.0066,-1.7341,rough,14.0,0,3.527
4370,139.84,9.0862,-1.3517,2.0510,-2.8817,0.0809,-1.8031,rough,14.0,0,3.492
4380,140.16,9.0818,-1.3989,2.0477,-2.8813,0.0465,-1.8179,rough,14.0,0,3.536
4390,140.48,9.0902,-1.3844,2.0492,-2.8955,0.0602,-1.8108,rough,14.0,0,3.524
4400,140.80,9.0829,-1.3850,2.0463,-2.8901,0.0435,-1.8027,rough,14.0,0,3.523
4410,141.12,9.0765,-1.3922,2.0485,-2.8936,0.0386,-1.8016,rough,14.0,0,3.529
4420,141.44,9.0845,-1.3822,2.0464,-2.9032,0.0644,-1.8010,rough,14.0,0,3.521
4430,141.76,9.0747,-1.3900,2.0433,-2.8960,0.0221,-1.7571,rough,14.0,0,3.526
4440,142.08,9.0753,-1.3704,2.0488,-2.8971,0.0704,-1.8111,rough,14.0,0,3.507
4450,142.40,9.0835,-1.3951,2.0474,-2.8975,0.0519,-1.8016,rough,14.0,0,3.533
4460,142.72,9.0856,-1.3830,2.0484,-2.8926,0.0687,-1.8102,rough,14.0,0,3.522
4470,143.04,9.0797,-1.3556,2.0451,-2.8870,0.0428,-1.7944,rough,14.0,0,3.494
4480,143.36,9.0802,-1.3791,2.0465,-2.8970,0.0453,-1.8007,rough,14.0,0,3.517
4490,143.68,9.0770,-1.3896,2.0493,-2.8989,0.0381,-1.8285,rough,14.0,0,3.526
4500,144.00,9.0685,-1.3769,2.0483,-2.9118,0.0173,-1.8315,rough,14.0,0,3.512
4510,144.32,9.0855,-1.3725,2.0502,-2.8899,0.0790,-1.8064,rough,14.0,0,3.512
4520,144.64,9.0768,-1.4152,2.0454,-2.8631,0.0007,-1.7804,rough,14.0,0,3.551
4530,144.96,9.0803,-1.3853,2.0474,-2.9072,0.0548,-1.8270,rough,14.0,0,3.523
4540,145.28,9.0760,-1.3742,2.0482,-2.9119,0.0449,-1.8134,rough,14.0,0,3.511
4550,145.60,9.0684,-1.4127,2.0440,-2.8538,-0.0443,-1.7054,rough,14.0,0,3.547
4560,145.92,9.0826,-1.3522,2.0458,-2.8623,0.0728,-1.8226,rough,14.0,0,3.491
4570,146.24,9.0799,-1.3946,2.0471,-2.8845,0.0455,-1.8209,rough,14.0,0,3.532
4580,146.56,9.0764,-1.4006,2.0466,-2.8916,0.0145,-1.7731,rough,14.0,0,3.537
4590,146.88,9.0844,-1.3586,2.0524,-2.8926,0.0965,-1.8145,rough,14.0,0,3.498
4600,147.20,9.0789,-1.3843,2.0418,-2.9194,0.0438,-1.7861,rough,14.0,0,3.522
4610,147.52,9.0853,-1.3870,2.0473,-2.8959,0.0496,-1.7898,rough,14.0,0,3.526
4620,147.84,9.0791,-1.3798,2.0481,-2.9001,0.0557,-1.8082,rough,14.0,0,3.517
4630,148.16,9.0752,-1.3883,2.0454,-2.8905,0.0577,-1.8224,rough,14.0,0,3.525
4640,148.48,9.0833,-1.4020,2.0459,-2.9137,0.0341,-1.7684,rough,14.0,0,3.540
4650,148.80,9.0772,-1.3681,2.0492,-2.8915,0.0624,-1.7888,rough,14.0,0,3.506
4660,149.12,9.0775,-1.3789,2.0475,-2.9152,0.0501,-1.8186,rough,14.0,0,3.516
4670,149.44,9.0811,-1.3924,2.0445,-2.8984,0.0399,-1.7611,rough,14.0,0,3.530
4680,149.76,9.0744,-1.3848,2.0459,-2.9037,0.0420,-1.7858,rough,14.0,0,3.521
4690,150.08,9.0692,-1.3906,2.0444,-2.8936,0.0510,-1.8226,rough,14.0,0,3.525
4700,150.40,9.0919,-1.3683,2.0524,-2.8915,0.0871,-1.8266,rough,14.0,0,3.509
4710,150.72,9.0830,-1.4054,2.0494,-2.8669,0.0068,-1.7914,rough,14.0,0,3.543
4720,151.04,9.0673,-1.3982,2.0416,-2.8939,0.0425,-1.8115,rough,14.0,0,3.532
4730,151.36,9.0808,-1.3541,2.0501,-2.9037,0.0997,-1.8241,rough,14.0,0,3.493
4740,151.68,9.0731,-1.2809,2.0598,-2.8550,0.1299,-1.7899,rough,14.0,0,3.420
4750,152.00,9.0693,-1.2829,2.0597,-2.8345,0.1532,-1.8020,rough,14.0,0,3.421
4760,152.32,9.0601,-1.4335,2.0516,-2.8375,-0.0932,-1.7684,rough,14.0,0,3.565
4770,152.64,9.0778,-1.3725,2.0476,-2.9053,0.0703,-1.8145,rough,14.0,0,3.510
4780,152.96,9.0800,-1.3659,2.0456,-2.8798,0.0569,-1.7675,rough,14.0,0,3.504
4790,153.28,9.0728,-1.3828,2.0475,-2.8938,0.0154,-1.7967,rough,14.0,0,3.519
4800,153.60,9.0839,-1.3785,2.0460,-2.9108,0.0680,-1.8175,rough,14.0,0,3.517
4810,153.92,9.0787,-1.2871,2.0590,-2.8260,0.1451,-1.7520,rough,14.0,0,3.427
4820,154.24,9.0649,-1.1905,2.0608,-2.8126,0.2302,-1.7569,rough,14.0,0,3.330
4830,154.56,9.0572,-1.1826,2.0602,-2.7882,0.2057,-1.7441,rough,14.0,0,3.321
4840,154.88,9.0631,-1.1366,2.0674,-2.7859,0.2706,-1.7092,rough,14.0,0,3.278
4850,155.20,9.0512,-1.1701,2.0650,-2.7986,0.2028,-1.7467,rough,14.0,0,3.307
4860,155.52,9.0431,-1.2449,2.0642,-2.8633,0.1037,-1.7754,rough,14.0,0,3.378
4870,155.84,9.0510,-1.4019,2.0520,-2.8920,-0.0506,-1.7977,rough,14.0,0,3.532
4880,156.16,9.0886,-1.4288,2.0520,-2.8788,0.0293,-1.8502,rough,14.0,0,3.567
4890,156.48,9.0773,-1.3297,2.0534,-2.8786,0.0961,-1.8218,rough,14.0,0,3.468
4900,156.80,9.0689,-1.3417,2.0519,-2.8995,0.0670,-1.8096,rough,14.0,0,3.478
4910,157.12,9.0674,-1.3986,2.0459,-2.8769,-0.0205,-1.7383,rough,14.0,0,3.533
4920,157.44,9.0745,-1.3603,2.0478,-2.9027,0.0477,-1.8304,rough,14.0,0,3.497
4930,157.76,9.0741,-1.3936,2.0438,-2.9202,0.0205,-1.8199,rough,14.0,0,3.530
4940,158.08,9.0708,-1.3662,2.0492,-2.9110,0.0589,-1.7928,rough,14.0,0,3.502
4950,158.40,9.0711,-1.3323,2.0522,-2.8730,0.0837,-1.7697,rough,14.0,0,3.469
4960,158.72,9.0628,-1.3589,2.0485,-2.8980,0.0385,-1.7981,rough,14.0,0,3.493
4970,159.04,9.0786,-1.3947,2.0436,-2.8849,0.0194,-1.7373,rough,14.0,0,3.532
4980,159.36,9.0817,-1.3795,2.0461,-2.8978,0.0368,-1.7926,rough,14.0,0,3.518
4990,159.68,9.0803,-1.4104,2.0450,-2.8836,0.0077,-1.8155,rough,14.0,0,3.547
5000,160.00,9.0653,-1.3684,2.0436,-2.8759,0.0368,-1.7862,rough,14.0,0,3.503
5010,160.32,9.0720,-1.3759,2.0460,-2.8562,0.0028,-1.7313,rough,14.0,0,3.512
5020,160.64,9.0719,-1.3890,2.0416,-2.8978,0.0221,-1.7971,rough,14.0,0,3.524
5030,160.96,9.0711,-1.3912,2.0458,-2.8910,0.0121,-1.7373,rough,14.0,0,3.526
5040,161.28,9.0764,-1.3380,2.0520,-2.8616,0.1057,-1.8049,rough,14.0,0,3.476
5050,161.60,9.0806,-1.3936,2.0471,-2.8921,0.0450,-1.8048,rough,14.0,0,3.531
5060,161.92,9.0856,-1.3530,2.0542,-2.8773,0.1032,-1.7990,rough,14.0,0,3.493
5070,162.24,9.0846,-1.4279,2.0465,-2.8923,0.0159,-1.8395,rough,14.0,0,3.565
5080,162.56,9.0801,-1.4167,2.0487,-2.8716,0.0027,-1.7894,rough,14.0,0,3.553
5090,162.88,9.0792,-1.3497,2.0528,-2.8802,0.0975,-1.8311,rough,14.0,0,3.488
5100,163.20,9.0823,-1.3774,2.0491,-2.8970,0.0652,-1.8130,rough,14.0,0,3.516
5110,163.52,9.0821,-1.4043,2.0479,-2.8915,0.0447,-1.8013,rough,14.0,0,3.542
5120,163.84,9.0845,-1.3857,2.0462,-2.9079,0.0609,-1.8116,rough,14.0,0,3.524
5130,164.16,9.0767,-1.3415,2.0520,-2.8815,0.0778,-1.7875,rough,14.0,0,3.480
5140,164.48,9.0674,-1.4216,2.0470,-2.8525,-0.0451,-1.7381,rough,14.0,0,3.555
5150,164.80,9.0832,-1.3637,2.0500,-2.8904,0.0757,-1.7800,rough,14.0,0,3.503
5160,165.12,9.0801,-1.4333,2.0505,-2.8467,-0.0267,-1.7968,rough,14.0,0,3.569
5170,165.44,9.0791,-1.3698,2.0466,-2.8907,0.0453,-1.7473,rough,14.0,0,3.508
5180,165.76,9.0737,-1.3972,2.0427,-2.9168,0.0108,-1.8045,rough,14.0,0,3.533
5190,166.08,9.0844,-1.3756,2.0499,-2.8971,0.0804,-1.8233,rough,14.0,0,3.515
5200,166.40,9.0757,-1.3817,2.0466,-2.8960,0.0486,-1.7963,rough,14.0,0,3.518
5210,166.72,9.0763,-1.3939,2.0450,-2.8817,0.0212,-1.7712,rough,14.0,0,3.530
5220,167.04,9.0771,-1.3708,2.0506,-2.8977,0.0631,-1.8101,rough,14.0,0,3.508
5230,167.36,9.0731,-1.3725,2.0466,-2.9029,0.0373,-1.7917,rough,14.0,0,3.509
5240,167.68,9.0744,-1.3771,2.0479,-2.9099,0.0428,-1.8084,rough,14.0,0,3.514
5250,168.00,9.0833,-1.3741,2.0453,-2.9089,0.0714,-1.7875,rough,14.0,0,3.513
5260,168.32,9.0756,-1.3919,2.0454,-2.8840,0.0278,-1.7867,rough,14.0,0,3.528
5270,168.64,9.0818,-1.3833,2.0464,-2.9010,0.0457,-1.7766,rough,14.0,0,3.521
5280,168.96,9.0799,-1.4192,2.0477,-2.8649,-0.0050,-1.7761,rough,14.0,0,3.556
5290,169.28,9.0835,-1.3824,2.0478,-2.8932,0.0595,-1.8159,rough,14.0,0,3.521
5300,169.60,9.0890,-1.3866,2.0462,-2.9078,0.0325,-1.7787,rough,14.0,0,3.526
5310,169.92,9.0746,-1.3710,2.0483,-2.9075,0.0478,-1.8233,rough,14.0,0,3.508
5320,170.24,9.0954,-1.3740,2.0503,-2.8958,0.0580,-1.7767,rough,14.0,0,3.516
5330,170.56,9.0817,-1.3830,2.0444,-2.8819,0.0361,-1.7900,rough,14.0,0,3.521
5340,170.88,9.0801,-1.4305,2.0446,-2.8613,-0.0106,-1.7786,rough,14.0,0,3.567
5350,171.20,9.0852,-1.4020,2.0469,-2.8959,0.0425,-1.8360,rough,14.0,0,3.540
5360,171.52,9.0766,-1.3057,2.0560,-2.8689,0.1007,-1.7779,rough,14.0,0,3.445
5370,171.84,9.0716,-1.3069,2.0574,-2.8734,0.1120,-1.8114,rough,14.0,0,3.445
5380,172.16,9.0710,-1.3729,2.0451,-2.8968,0.0307,-1.7770,rough,14.0,0,3.509
5390,172.48,9.0879,-1.3749,2.0494,-2.8947,0.0875,-1.8232,rough,14.0,0,3.515
5400,172.80,9.0845,-1.3843,2.0477,-2.9023,0.0650,-1.8153,rough,14.0,0,3.523
5410,173.12,9.0868,-1.3584,2.0531,-2.8785,0.0897,-1.7840,rough,14.0,0,3.498
5420,173.44,9.0833,-1.4211,2.0457,-2.8918,0.0226,-1.7714,rough,14.0,0,3.558
5430,173.76,9.0818,-1.3788,2.0490,-2.9027,0.0675,-1.8285,rough,14.0,0,3.517
5440,174.08,9.0816,-1.3907,2.0467,-2.8901,0.0477,-1.8095,rough,14.0,0,3.529
5450,174.40,9.0684,-1.3888,2.0433,-2.9373,0.0054,-1.8028,rough,14.0,0,3.523
5460,174.72,9.0804,-1.4339,2.0479,-2.8507,-0.0268,-1.7643,rough,14.0,0,3.570
5470,175.04,9.0862,-1.3798,2.0476,-2.9039,0.0495,-1.7774,rough,14.0,0,3.519
5480,175.36,9.0841,-1.3806,2.0471,-2.8899,0.0572,-1.7961,rough,14.0,0,3.519
5490,175.68,9.0769,-1.3825,2.0454,-2.9029,0.0456,-1.7958,rough,14.0,0,3.519
5500,176.00,9.0752,-1.3707,2.0497,-2.9057,0.0598,-1.8176,rough,14.0,0,3.508
5510,176.32,9.0711,-1.4198,2.0451,-2.8543,-0.0323,-1.7326,rough,14.0,0,3.554
5520,176.64,9.0798,-1.3315,2.0548,-2.8584,0.1136,-1.7877,rough,14.0,0,3.471
5530,176.96,9.0655,-1.3389,2.0514,-2.9127,0.0508,-1.8078,rough,14.0,0,3.474
5540,177.28,9.0794,-1.3807,2.0465,-2.9060,0.0363,-1.7919,rough,14.0,0,3.518
5550,177.60,9.0811,-1.3758,2.0447,-2.8922,0.0557,-1.8164,rough,14.0,0,3.514
5560,177.92,9.0790,-1.3925,2.0428,-2.8904,0.0621,-1.7940,rough,14.0,0,3.530
5570,178.24,9.0855,-1.3765,2.0487,-2.8873,0.0600,-1.7759,rough,14.0,0,3.516
5580,178.56,9.0810,-1.3879,2.0459,-2.8961,0.0485,-1.7873,rough,14.0,0,3.526
5590,178.88,9.0763,-1.3779,2.0482,-2.8996,0.0566,-1.8179,rough,14.0,0,3.515
5600,179.20,9.0840,-1.3857,2.0427,-2.9568,0.0570,-1.8590,rough,14.0,0,3.524
5610,179.52,9.0799,-1.3635,2.0478,-2.8927,0.0589,-1.8307,rough,14.0,0,3.502
5620,179.84,9.0864,-1.3984,2.0474,-2.8764,0.0389,-1.8157,rough,14.0,0,3.537
5630,180.16,9.0794,-1.3514,2.0481,-2.8782,0.0627,-1.7925,rough,14.0,0,3.490
5640,180.48,9.0635,-1.3637,2.0469,-2.9079,0.0385,-1.8019,rough,14.0,0,3.498
5650,180.80,9.0774,-1.3877,2.0463,-2.8874,0.0275,-1.7583,rough,14.0,0,3.525
5660,181.12,9.0732,-1.3698,2.0477,-2.9184,0.0643,-1.8311,rough,14.0,0,3.506
5670,181.44,9.0789,-1.3810,2.0464,-2.8964,0.0447,-1.8114,rough,14.0,0,3.518
5680,181.76,9.0799,-1.3977,2.0481,-2.8845,0.0312,-1.8029,rough,14.0,0,3.535
5690,182.08,9.0774,-1.4034,2.0428,-2.8754,0.0369,-1.7949,rough,14.0,0,3.540
5700,182.40,9.0766,-1.3912,2.0483,-2.8970,0.0351,-1.7997,rough,14.0,0,3.528
5710,182.72,9.0810,-1.3789,2.0484,-2.9031,0.0496,-1.8082,rough,14.0,0,3.517
5720,183.04,9.0854,-1.3783,2.0499,-2.8980,0.0701,-1.8185,rough,14.0,0,3.517
5730,183.36,9.0756,-1.3949,2.0416,-2.8866,0.0425,-1.7826,rough,14.0,0,3.531
5740,183.68,9.0718,-1.4031,2.0440,-2.8668,-0.0213,-1.7271,rough,14.0,0,3.538
5750,184.00,9.0726,-1.3656,2.0496,-2.9216,0.0533,-1.8234,rough,14.0,0,3.502
5760,184.32,9.0691,-1.3236,2.0524,-2.8802,0.0863,-1.7939,rough,14.0,0,3.460
5770,184.64,9.0707,-1.3284,2.0524,-2.8863,0.0917,-1.8095,rough,14.0,0,3.465
5780,184.96,9.0677,-1.3828,2.0484,-2.8974,0.0096,-1.7828,rough,14.0,0,3.517
5790,185.28,9.0788,-1.3738,2.0481,-2.8962,0.0585,-1.7909,rough,14.0,0,3.511
5800,185.60,9.0713,-1.4104,2.0432,-2.8643,-0.0213,-1.7199,rough,14.0,0,3.545
5810,185.92,9.0880,-1.3620,2.0514,-2.8798,0.0795,-1.7751,rough,14.0,0,3.502
5820,186.24,9.0791,-1.3823,2.0483,-2.9098,0.0556,-1.8320,rough,14.0,0,3.520
5830,186.56,9.0751,-1.3815,2.0436,-2.9267,0.0623,-1.8384,rough,14.0,0,3.518
5840,186.88,9.0711,-1.3730,2.0490,-2.9208,0.0429,-1.8353,rough,14.0,0,3.509
5850,187.20,9.0857,-1.3924,2.0475,-2.8929,0.0382,-1.7839,rough,14.0,0,3.531
5860,187.52,9.0715,-1.3906,2.0465,-2.8925,0.0102,-1.7681,rough,14.0,0,3.526
5870,187.84,9.0815,-1.3846,2.0392,-2.8805,0.0124,-1.7824,rough,14.0,0,3.523
5880,188.16,9.0744,-1.3847,2.0466,-2.9019,0.0442,-1.8099,rough,14.0,0,3.521
5890,188.48,9.0765,-1.3699,2.0455,-2.9272,0.0625,-1.8092,rough,14.0,0,3.507
5900,188.80,9.0766,-1.3886,2.0457,-2.9162,0.0285,-1.8033,rough,14.0,0,3.525
5910,189.12,9.0922,-1.3677,2.0483,-2.8777,0.0548,-1.8393,rough,14.0,0,3.509
5920,189.44,9.0801,-1.3103,2.0587,-2.8556,0.1384,-1.8132,rough,14.0,0,3.450
5930,189.76,9.0647,-1.3765,2.0468,-2.9237,0.0298,-1.8172,rough,14.0,0,3.511
5940,190.08,9.0805,-1.4518,2.0499,-2.8756,-0.0058,-1.7625,rough,14.0,0,3.588
5950,190.40,9.0751,-1.4755,2.0530,-2.8128,-0.0777,-1.7629,rough,14.0,0,3.609
5960,190.72,9.0823,-1.3510,2.0489,-2.8993,0.0432,-1.7408,rough,14.0,0,3.490
5970,191.04,9.0748,-1.2165,2.0653,-2.8138,0.1995,-1.7560,rough,14.0,0,3.358
5980,191.36,9.0624,-1.2398,2.0580,-2.8465,0.1578,-1.7870,rough,14.0,0,3.377
5990,191.68,9.0729,-1.2479,2.0567,-2.8505,0.1767,-1.7588,rough,14.0,0,3.388
6000,192.00,9.0714,-1.3034,2.0558,-2.8766,0.1063,-1.7925,rough,14.0,0,3.441
6010,192.32,9.0674,-1.4163,2.0445,-2.8875,-0.0112,-1.6974,rough,14.0,0,3.550
6020,192.64,9.0828,-1.3152,2.0563,-2.8525,0.1234,-1.7743,rough,14.0,0,3.456
6030,192.96,9.0730,-1.3522,2.0502,-2.9052,0.0464,-1.7710,rough,14.0,0,3.489
6040,193.28,9.0845,-1.3936,2.0475,-2.8940,0.0556,-1.8061,rough,14.0,0,3.532
6050,193.60,9.0864,-1.3759,2.0442,-2.8969,0.0632,-1.7857,rough,14.0,0,3.515
6060,193.92,9.0774,-1.4098,2.0481,-2.8722,0.0065,-1.7863,rough,14.0,0,3.546
6070,194.24,9.0711,-1.3359,2.0507,-2.8812,0.0740,-1.7762,rough,14.0,0,3.473
6080,194.56,9.0702,-1.3449,2.0508,-2.8968,0.0586,-1.7818,rough,14.0,0,3.481
6090,194.88,9.0775,-1.4092,2.0499,-2.8724,0.0050,-1.7965,rough,14.0,0,3.545
6100,195.20,9.0848,-1.3876,2.0473,-2.8953,0.0612,-1.8131,rough,14.0,0,3.526
6110,195.52,9.0786,-1.4159,2.0415,-2.9173,0.0040,-1.8311,rough,14.0,0,3.552
6120,195.84,9.0911,-1.3627,2.0512,-2.8925,0.0682,-1.7624,rough,14.0,0,3.504
6130,196.16,9.0547,-1.4043,2.0471,-2.8654,-0.0714,-1.7509,rough,14.0,0,3.535
6140,196.48,9.0768,-1.3799,2.0468,-2.9073,0.0558,-1.8125,rough,14.0,0,3.517
6150,196.80,9.0770,-1.3934,2.0424,-2.8761,0.0249,-1.7538,rough,14.0,0,3.530
6160,197.12,9.0807,-1.3821,2.0467,-2.8933,0.0469,-1.7760,rough,14.0,0,3.520
6170,197.44,9.0833,-1.3743,2.0496,-2.8905,0.0714,-1.8029,rough,14.0,0,3.513
6180,197.76,9.0702,-1.4047,2.0436,-2.8648,-0.0133,-1.7365,rough,14.0,0,3.539
6190,198.08,9.0749,-1.3442,2.0523,-2.8920,0.0790,-1.8310,rough,14.0,0,3.482
6200,198.40,9.0685,-1.3324,2.0516,-2.8805,0.0741,-1.7766,rough,14.0,0,3.469
6210,198.72,9.0708,-1.3354,2.0532,-2.8890,0.0799,-1.8010,rough,14.0,0,3.472
6220,199.04,9.0665,-1.3817,2.0446,-2.8886,0.0175,-1.7847,rough,14.0,0,3.516
6230,199.36,9.0780,-1.3815,2.0483,-2.9061,0.0540,-1.8274,rough,14.0,0,3.519
6240,199.68,9.0776,-1.3825,2.0462,-2.9015,0.0453,-1.7886,rough,14.0,0,3.520
6250,200.00,9.0805,-1.3804,2.0469,-2.8892,0.0530,-1.7860,rough,14.0,0,3.518
6260,200.32,9.0817,-1.3848,2.0475,-2.9083,0.0477,-1.8107,rough,14.0,0,3.523
6270,200.64,9.0836,-1.3855,2.0476,-2.8884,0.0394,-1.7767,rough,14.0,0,3.524
6280,200.96,9.0567,-1.4055,2.0458,-2.9081,-0.0097,-1.7803,rough,14.0,0,3.537
6290,201.28,9.0833,-1.3586,2.0524,-2.8960,0.0910,-1.8164,rough,14.0,0,3.498
6300,201.60,9.0810,-1.3578,2.0421,-2.8477,0.0479,-1.7643,rough,14.0,0,3.496
6310,201.92,9.0843,-1.3824,2.0476,-2.9013,0.0651,-1.8172,rough,14.0,0,3.521
6320,202.24,9.0826,-1.4005,2.0486,-2.8823,0.0270,-1.7899,rough,14.0,0,3.538
6330,202.56,9.0775,-1.3907,2.0457,-2.9190,0.0302,-1.8283,rough,14.0,0,3.528
6340,202.88,9.0635,-1.4089,2.0424,-2.8617,-0.0407,-1.7439,rough,14.0,0,3.542
6350,203.20,9.0737,-1.3838,2.0458,-2.9030,0.0363,-1.7902,rough,14.0,0,3.520
6360,203.52,9.0795,-1.3509,2.0486,-2.8765,0.0653,-1.7815,rough,14.0,0,3.489
6370,203.84,9.0777,-1.4096,2.0423,-2.8530,0.0222,-1.7862,rough,14.0,0,3.546
6380,204.16,9.0788,-1.3691,2.0495,-2.9028,0.0561,-1.8021,rough,14.0,0,3.507
6390,204.48,9.0784,-1.4172,2.0476,-2.8433,-0.0140,-1.7929,rough,14.0,0,3.553
6400,204.80,9.0744,-1.3856,2.0453,-2.9015,0.0417,-1.7949,rough,14.0,0,3.522
6410,205.12,9.0749,-1.3561,2.0482,-2.9087,0.0475,-1.8322,rough,14.0,0,3.493
6420,205.44,9.0679,-1.3027,2.0557,-2.8743,0.0962,-1.7879,rough,14.0,0,3.440
6430,205.76,9.0653,-1.3101,2.0533,-2.8660,0.0885,-1.7661,rough,14.0,0,3.446
6440,206.08,9.0582,-1.3370,2.0508,-2.8893,0.0472,-1.8071,rough,14.0,0,3.471
6450,206.40,9.0808,-1.3688,2.0477,-2.8770,0.0686,-1.7867,rough,14.0,0,3.507
6460,206.72,9.0758,-1.3836,2.0441,-2.8998,0.0411,-1.7768,rough,14.0,0,3.520
6470,207.04,9.0678,-1.3887,2.0430,-2.8848,0.0270,-1.7956,rough,14.0,0,3.523
6480,207.36,9.0794,-1.3760,2.0494,-2.9047,0.0659,-1.8254,rough,14.0,0,3.514
6490,207.68,9.0713,-1.3979,2.0442,-2.8671,-0.0215,-1.7324,rough,14.0,0,3.533
6500,208.00,9.0683,-1.3737,2.0485,-2.9207,0.0421,-1.8323,rough,14.0,0,3.509
6510,208.32,9.0811,-1.3646,2.0489,-2.8953,0.0628,-1.7861,rough,14.0,0,3.503
6520,208.64,9.0768,-1.4430,2.0497,-2.8380,-0.0487,-1.7660,rough,14.0,0,3.578
6530,208.96,9.0798,-1.3794,2.0477,-2.9042,0.0572,-1.8140,rough,14.0,0,3.517
6540,209.28,9.0873,-1.3905,2.0483,-2.8804,0.0501,-1.8310,rough,14.0,0,3.530
6550,209.60,9.0787,-1.3926,2.0472,-2.8979,0.0267,-1.7957,rough,14.0,0,3.530
6560,209.92,9.0761,-1.3711,2.0470,-2.9047,0.0542,-1.7885,rough,14.0,0,3.508
6570,210.24,9.0785,-1.4023,2.0462,-2.8747,0.0061,-1.7635,rough,14.0,0,3.539
6580,210.56,9.0876,-1.3433,2.0546,-2.9008,0.0762,-1.8261,rough,14.0,0,3.484
6590,210.88,9.0796,-1.3485,2.0528,-2.9014,0.0656,-1.7929,rough,14.0,0,3.487
6600,211.20,9.0802,-1.3889,2.0463,-2.8928,0.0328,-1.7691,rough,14.0,0,3.526
6610,211.52,9.0646,-1.3992,2.0443,-2.8920,0.0007,-1.7638,rough,14.0,0,3.533
6620,211.84,9.0864,-1.3650,2.0522,-2.8831,0.0854,-1.8015,rough,14.0,0,3.505
6630,212.16,9.0789,-1.4180,2.0440,-2.9138,-0.0006,-1.8289,rough,14.0,0,3.554
6640,212.48,9.0875,-1.3795,2.0483,-2.9000,0.0551,-1.7802,rough,14.0,0,3.519
6650,212.80,9.0833,-1.3781,2.0480,-2.8959,0.0518,-1.7790,rough,14.0,0,3.517
6660,213.12,9.0799,-1.3847,2.0472,-2.8974,0.0477,-1.8130,rough,14.0,0,3.522
6670,213.44,9.0754,-1.3847,2.0444,-2.8982,0.0394,-1.7670,rough,14.0,0,3.521
6680,213.76,9.0706,-1.4006,2.0467,-2.8605,-0.0229,-1.7773,rough,14.0,0,3.535
6690,214.08,9.0881,-1.3623,2.0528,-2.8641,0.1066,-1.7938,rough,14.0,0,3.502
6700,214.40,9.0874,-1.4299,2.0485,-2.8933,0.0014,-1.7879,rough,14.0,0,3.568
6710,214.72,9.0753,-1.4852,2.0573,-2.8186,-0.0830,-1.8464,rough,14.0,0,3.619
6720,215.04,9.0799,-1.5259,2.0579,-2.9325,0.0243,-1.7914,rough,14.0,0,3.659
6730,215.36,9.0825,-1.5054,2.0584,-2.9536,0.0676,-1.8002,rough,14.0,0,3.640
6740,215.68,9.0747,-1.4548,2.0526,-2.8293,-0.0558,-1.8266,rough,14.0,0,3.589
6750,216.00,9.0837,-1.3987,2.0467,-2.8715,0.0188,-1.8256,rough,14.0,0,3.537
6760,216.32,9.0781,-1.3798,2.0490,-2.9071,0.0550,-1.8264,rough,14.0,0,3.517
6770,216.64,9.0805,-1.3904,2.0450,-2.8908,0.0446,-1.7886,rough,14.0,0,3.528
6780,216.96,9.0726,-1.3978,2.0435,-2.8932,0.0498,-1.8222,rough,14.0,0,3.533
6790,217.28,9.0930,-1.3661,2.0521,-2.8918,0.0713,-1.7713,rough,14.0,0,3.507
6800,217.60,9.0796,-1.3956,2.0421,-2.9057,-0.0164,-1.7096,rough,14.0,0,3.533
6810,217.92,9.0801,-1.3713,2.0497,-2.8902,0.0696,-1.7984,rough,14.0,0,3.509
6820,218.24,9.0840,-1.3817,2.0466,-2.8983,0.0659,-1.8009,rough,14.0,0,3.520
6830,218.56,9.0761,-1.3690,2.0448,-2.9237,0.0630,-1.8056,rough,14.0,0,3.506
6840,218.88,9.0737,-1.3202,2.0546,-2.8624,0.1129,-1.8114,rough,14.0,0,3.458
6850,219.20,9.0665,-1.4078,2.0437,-2.9087,0.0011,-1.7088,rough,14.0,0,3.541
6860,219.52,9.0828,-1.3035,2.0584,-2.8478,0.1406,-1.7975,rough,14.0,0,3.444
6870,219.84,9.0726,-1.2742,2.0611,-2.8428,0.1466,-1.7923,rough,14.0,0,3.413
6880,220.16,9.0712,-1.3142,2.0545,-2.8689,0.0937,-1.7647,rough,14.0,0,3.452
6890,220.48,9.0769,-1.4280,2.0504,-2.8460,-0.0259,-1.7994,rough,14.0,0,3.564
6900,220.80,9.0855,-1.4060,2.0449,-2.8898,0.0310,-1.7941,rough,14.0,0,3.544
6910,221.12,9.0880,-1.3354,2.0541,-2.8546,0.1093,-1.7868,rough,14.0,0,3.476
6920,221.44,9.0850,-1.3667,2.0454,-2.8966,0.0765,-1.7950,rough,14.0,0,3.506
6930,221.76,9.0759,-1.3921,2.0450,-2.8926,0.0469,-1.8044,rough,14.0,0,3.529
6940,222.08,9.0774,-1.3855,2.0476,-2.9062,0.0513,-1.8209,rough,14.0,0,3.522
6950,222.40,9.0825,-1.3930,2.0494,-2.8904,0.0487,-1.8302,rough,14.0,0,3.531
6960,222.72,9.0881,-1.3985,2.0495,-2.9087,0.0664,-1.8133,rough,14.0,0,3.538
6970,223.04,9.0870,-1.3759,2.0465,-2.9047,0.0781,-1.8220,rough,14.0,0,3.515
6980,223.36,9.0730,-1.4061,2.0481,-2.8645,-0.0092,-1.8106,rough,14.0,0,3.541
6990,223.68,9.0821,-1.3736,2.0484,-2.8930,0.0573,-1.7763,rough,14.0,0,3.512
7000,224.00,9.0827,-1.3724,2.0502,-2.8887,0.0760,-1.8174,rough,14.0,0,3.511
7010,224.32,9.0776,-1.4065,2.0465,-2.8872,0.0300,-1.7965,rough,14.0,0,3.543
7020,224.64,9.0878,-1.3727,2.0506,-2.9002,0.0688,-1.8019,rough,14.0,0,3.513
7030,224.96,9.0934,-1.3835,2.0496,-2.9009,0.0559,-1.8081,rough,14.0,0,3.524
7040,225.28,9.0762,-1.3899,2.0465,-2.8921,0.0212,-1.7764,rough,14.0,0,3.526
7050,225.60,9.0761,-1.3753,2.0473,-2.8966,0.0591,-1.8011,rough,14.0,0,3.512
7060,225.92,9.0844,-1.4053,2.0419,-2.9306,0.0260,-1.8463,rough,14.0,0,3.543
7070,226.24,9.0778,-1.3752,2.0466,-2.9048,0.0526,-1.7891,rough,14.0,0,3.512
7080,226.56,9.0861,-1.3728,2.0487,-2.8913,0.0715,-1.7778,rough,14.0,0,3.512
7090,226.88,9.0833,-1.3847,2.0467,-2.9007,0.0607,-1.8052,rough,14.0,0,3.523
7100,227.20,9.0769,-1.3805,2.0477,-2.9061,0.0501,-1.8262,rough,14.0,0,3.517
7110,227.52,9.0836,-1.3707,2.0496,-2.9036,0.0756,-1.8170,rough,14.0,0,3.510
7120,227.84,9.0869,-1.3929,2.0486,-2.8757,0.0400,-1.8392,rough,14.0,0,3.532
7130,228.16,9.0717,-1.3739,2.0484,-2.9170,0.0447,-1.8227,rough,14.0,0,3.510
7140,228.48,9.0768,-1.3801,2.0456,-2.8974,0.0420,-1.7681,rough,14.0,0,3.517
7150,228.80,9.0791,-1.3885,2.0461,-2.8938,0.0425,-1.7854,rough,14.0,0,3.526
7160,229.12,9.0717,-1.3837,2.0430,-2.9100,0.0279,-1.7646,rough,14.0,0,3.519
7170,229.44,9.0642,-1.3821,2.0476,-2.9362,0.0217,-1.8142,rough,14.0,0,3.516
7180,229.76,9.0775,-1.3774,2.0473,-2.9048,0.0480,-1.8056,rough,14.0,0,3.515
7190,230.08,9.0883,-1.3798,2.0478,-2.9064,0.0821,-1.8345,rough,14.0,0,3.520
7200,230.40,9.0890,-1.3568,2.0537,-2.8688,0.1009,-1.7776,rough,14.0,0,3.497
7210,230.72,9.0817,-1.3927,2.0483,-2.8935,0.0382,-1.7875,rough,14.0,0,3.530
7220,231.04,9.0805,-1.3678,2.0499,-2.9033,0.0554,-1.7931,rough,14.0,0,3.506
7230,231.36,9.0782,-1.3945,2.0446,-2.9282,0.0353,-1.8355,rough,14.0,0,3.531
7240,231.68,9.0750,-1.3767,2.0474,-2.9059,0.0530,-1.8108,rough,14.0,0,3.513
7250,232.00,9.0708,-1.4274,2.0442,-2.8701,-0.0238,-1.7263,rough,14.0,0,3.562
7260,232.32,9.0789,-1.3036,2.0566,-2.8525,0.1346,-1.8005,rough,14.0,0,3.443
7270,232.64,9.0534,-1.3790,2.0505,-2.8947,-0.0238,-1.7861,rough,14.0,0,3.510
7280,232.96,9.0835,-1.3996,2.0435,-2.9315,0.0449,-1.7866,rough,14.0,0,3.538
7290,233.28,9.0756,-1.3661,2.0487,-2.8987,0.0608,-1.7834,rough,14.0,0,3.503
7300,233.60,9.0797,-1.3789,2.0467,-2.8944,0.0445,-1.7835,rough,14.0,0,3.517
7310,233.92,9.0840,-1.3817,2.0492,-2.8902,0.0577,-1.7986,rough,14.0,0,3.520
7320,234.24,9.0731,-1.4195,2.0439,-2.8588,-0.0216,-1.7454,rough,14.0,0,3.554
7330,234.56,9.0790,-1.3694,2.0479,-2.9069,0.0386,-1.7694,rough,14.0,0,3.507
7340,234.88,9.0885,-1.3767,2.0513,-2.8938,0.0752,-1.8314,rough,14.0,0,3.517
7350,235.20,9.0828,-1.3747,2.0489,-2.8895,0.0633,-1.7837,rough,14.0,0,3.513
7360,235.52,9.0873,-1.4441,2.0532,-2.8452,-0.0064,-1.8408,rough,14.0,0,3.582
7370,235.84,9.0814,-1.3883,2.0454,-2.8988,0.0362,-1.8158,rough,14.0,0,3.526
7380,236.16,9.0740,-1.3827,2.0469,-2.9168,0.0335,-1.8139,rough,14.0,0,3.519
7390,236.48,9.0708,-1.4051,2.0448,-2.8629,-0.0385,-1.7486,rough,14.0,0,3.540
7400,236.80,9.0859,-1.3564,2.0527,-2.8660,0.1007,-1.7806,rough,14.0,0,3.496
7410,237.12,9.0827,-1.4325,2.0450,-2.8820,-0.0044,-1.7691,rough,14.0,0,3.569
7420,237.44,9.0781,-1.4237,2.0508,-2.8558,-0.0070,-1.7955,rough,14.0,0,3.560
7430,237.76,9.0910,-1.3561,2.0536,-2.8785,0.0915,-1.7934,rough,14.0,0,3.497
7440,238.08,9.0823,-1.3949,2.0455,-2.8952,0.0378,-1.8072,rough,14.0,0,3.533
7450,238.40,9.0816,-1.3882,2.0471,-2.8966,0.0387,-1.7880,rough,14.0,0,3.526
7460,238.72,9.0728,-1.3881,2.0470,-2.9054,0.0247,-1.7881,rough,14.0,0,3.524
7470,239.04,9.0816,-1.3921,2.0455,-2.8937,0.0442,-1.7893,rough,14.0,0,3.530
7480,239.36,9.0650,-1.3897,2.0473,-2.9230,0.0108,-1.7816,rough,14.0,0,3.524
7490,239.68,9.0904,-1.3502,2.0549,-2.8804,0.1069,-1.8140,rough,14.0,0,3.491
7500,240.00,9.0826,-1.3751,2.0480,-2.8929,0.0585,-1.8190,rough,14.0,0,3.514
7510,240.32,9.0806,-1.3896,2.0453,-2.8973,0.0351,-1.7916,rough,14.0,0,3.527
7520,240.64,9.0749,-1.3337,2.0538,-2.8886,0.0863,-1.7991,rough,14.0,0,3.472
7530,240.96,9.0610,-1.4076,2.0430,-2.8989,-0.0137,-1.7926,rough,14.0,0,3.540
7540,241.28,9.1016,-1.3852,2.0522,-2.9055,0.0606,-1.8140,rough,14.0,0,3.528
7550,241.60,9.0755,-1.3898,2.0447,-2.8930,0.0319,-1.7702,rough,14.0,0,3.526
7560,241.92,9.0770,-1.3641,2.0455,-2.8784,0.0468,-1.7701,rough,14.0,0,3.502
7570,242.24,9.0737,-1.3411,2.0524,-2.8792,0.0905,-1.8239,rough,14.0,0,3.478
7580,242.56,9.0750,-1.3385,2.0526,-2.8798,0.0792,-1.7714,rough,14.0,0,3.476
7590,242.88,9.0816,-1.3615,2.0488,-2.8938,0.0657,-1.7918,rough,14.0,0,3.500
7600,243.20,9.0896,-1.3857,2.0480,-2.8955,0.0621,-1.8003,rough,14.0,0,3.526
7610,243.52,9.0761,-1.3783,2.0485,-2.9126,0.0497,-1.8280,rough,14.0,0,3.515
7620,243.84,9.0904,-1.4000,2.0481,-2.8987,0.0361,-1.8386,rough,14.0,0,3.540
7630,244.16,9.0756,-1.3954,2.0446,-2.8815,0.0627,-1.8208,rough,14.0,0,3.532
7640,244.48,9.0884,-1.4136,2.0520,-2.8670,0.0134,-1.7938,rough,14.0,0,3.552
7650,244.80,9.0674,-1.3785,2.0462,-2.9059,0.0110,-1.7760,rough,14.0,0,3.513
7660,245.12,9.0814,-1.3059,2.0588,-2.8452,0.1478,-1.8243,rough,14.0,0,3.446
7670,245.44,9.0732,-1.3433,2.0528,-2.8976,0.0722,-1.8035,rough,14.0,0,3.480
7680,245.76,9.0692,-1.3983,2.0458,-2.9008,-0.0008,-1.7689,rough,14.0,0,3.533
7690,246.08,9.0841,-1.3575,2.0531,-2.8693,0.1010,-1.7925,rough,14.0,0,3.497
7700,246.40,9.0729,-1.3548,2.0505,-2.9049,0.0542,-1.7983,rough,14.0,0,3.492
7710,246.72,9.0860,-1.4239,2.0509,-2.9140,0.0527,-1.8130,rough,14.0,0,3.562
7720,247.04,9.0850,-1.3563,2.0533,-2.9021,0.0743,-1.7933,rough,14.0,0,3.496
7730,247.36,9.0716,-1.3974,2.0462,-2.8767,-0.0116,-1.7309,rough,14.0,0,3.533
7740,247.68,9.0833,-1.3741,2.0483,-2.8945,0.0767,-1.8201,rough,14.0,0,3.513
7750,248.00,9.0699,-1.3922,2.0428,-2.8858,0.0126,-1.7389,rough,14.0,0,3.527
7760,248.32,9.0794,-1.3800,2.0451,-2.8996,0.0656,-1.8138,rough,14.0,0,3.518
7770,248.64,9.0710,-1.3887,2.0459,-2.8921,0.0144,-1.7410,rough,14.0,0,3.524
7780,248.96,9.0778,-1.3173,2.0551,-2.8562,0.1187,-1.7818,rough,14.0,0,3.456
7790,249.28,9.0726,-1.2428,2.0603,-2.8340,0.1771,-1.7636,rough,14.0,0,3.383
7800,249.60,9.0648,-1.2806,2.0542,-2.8464,0.1122,-1.7478,rough,14.0,0,3.418
7810,249.92,9.0707,-1.3399,2.0538,-2.8916,0.0796,-1.8135,rough,14.0,0,3.477
7820,250.24,9.0872,-1.3989,2.0500,-2.8724,0.0453,-1.8565,rough,14.0,0,3.538
7830,250.56,9.0708,-1.3716,2.0481,-2.9256,0.0347,-1.8129,rough,14.0,0,3.507
7840,250.88,9.0712,-1.3812,2.0461,-2.9216,0.0279,-1.8167,rough,14.0,0,3.517
7850,251.20,9.0882,-1.3636,2.0520,-2.8904,0.0777,-1.7831,rough,14.0,0,3.504
7860,251.52,9.0787,-1.3811,2.0477,-2.9060,0.0507,-1.8396,rough,14.0,0,3.518
7870,251.84,9.0748,-1.3795,2.0461,-2.9089,0.0382,-1.7870,rough,14.0,0,3.516
7880,252.16,9.0760,-1.3828,2.0458,-2.8989,0.0376,-1.7812,rough,14.0,0,3.519
7890,252.48,9.0626,-1.4317,2.0452,-2.8443,-0.0726,-1.7171,rough,14.0,0,3.564
7900,252.80,9.0890,-1.3637,2.0502,-2.8822,0.0737,-1.7935,rough,14.0,0,3.504
7910,253.12,9.0892,-1.3943,2.0481,-2.8925,0.0655,-1.8257,rough,14.0,0,3.534
7920,253.44,9.0725,-1.3952,2.0426,-2.8884,0.0154,-1.7489,rough,14.0,0,3.531
7930,253.76,9.0729,-1.3808,2.0471,-2.9041,0.0515,-1.8191,rough,14.0,0,3.517
