step,time_s,x,y,z,roll,pitch,yaw,terrain,speed,target_idx,dist_to_target
10,0.32,-1.2971,0.8843,0.2276,0.0014,-0.0270,0.0049,rough,14.0,0,6.141
20,0.64,-1.0514,0.8836,0.2194,0.0128,0.0111,0.3457,rough,14.0,0,6.349
30,0.96,-0.7893,1.0008,0.2182,0.0166,0.0004,0.6727,rough,14.0,0,6.516
40,1.28,-0.5399,1.2137,0.2189,0.0130,-0.0086,0.9675,rough,14.0,0,6.637
50,1.60,-0.3627,1.4712,0.2272,-0.0004,-0.0405,1.2561,rough,14.0,0,6.687
60,1.92,-0.2659,1.7954,0.2347,-0.0414,-0.0194,1.5341,rough,14.0,0,6.652
70,2.24,-0.2665,2.1544,0.2354,-0.0607,0.0105,1.7774,rough,14.0,0,6.531
80,2.56,-0.3441,2.5290,0.2279,-0.0112,0.0697,1.9679,rough,14.0,0,6.349
90,2.88,-0.5023,2.8800,0.2054,0.0116,0.0320,2.1303,rough,14.0,0,6.111
100,3.20,-0.7315,3.2241,0.1941,0.0255,0.0326,2.2554,rough,14.0,0,5.821
110,3.52,-1.0035,3.5335,0.1792,0.0346,0.0325,2.3667,rough,14.0,0,5.507
120,3.84,-1.3158,3.8130,0.1687,0.0359,0.0262,2.4627,rough,14.0,0,5.169
130,4.16,-1.6537,4.0690,0.1594,0.0388,0.0161,2.5568,rough,14.0,0,4.819
140,4.48,-2.0158,4.3009,0.1529,0.0373,0.0088,2.6502,rough,14.0,0,4.457
150,4.80,-2.3968,4.4943,0.1504,0.0302,-0.0007,2.7365,rough,14.0,0,4.086
160,5.12,-2.7950,4.6597,0.1526,0.0280,-0.0101,2.8249,rough,14.0,0,3.706
170,5.44,-3.2049,4.7856,0.1514,-0.0004,-0.0366,2.9148,rough,14.0,0,3.320
180,5.76,-3.6290,4.8814,0.1648,0.0130,-0.0231,2.9905,rough,14.0,0,2.925
190,6.08,-4.0556,4.9418,0.1743,0.0074,-0.0258,3.0755,rough,14.0,0,2.530
200,6.40,-4.4860,4.9649,0.1845,-0.0019,-0.0235,-3.1217,rough,14.0,0,2.131
210,6.72,-4.9154,4.9501,0.1944,-0.0104,-0.0210,-3.0325,rough,14.0,0,1.731
220,7.04,-5.3306,4.8963,0.2029,-0.0171,-0.0194,-2.9926,rough,14.0,0,1.341
230,7.36,-5.7306,4.8280,0.2084,-0.0297,-0.0221,-2.9228,rough,14.0,0,0.977
240,7.68,-6.0595,4.7756,0.2156,-0.0256,0.0160,-2.6352,rough,14.0,1,6.866
250,8.00,-6.2364,4.6442,0.2138,-0.0301,0.0194,-2.1598,rough,14.0,1,7.050
260,8.32,-6.3673,4.3969,0.2082,-0.0212,0.0258,-1.9071,rough,14.0,1,7.200
270,8.64,-6.4414,4.0781,0.1985,-0.0109,0.0375,-1.7414,rough,14.0,1,7.311
280,8.96,-6.4806,3.7146,0.1856,-0.0017,0.0378,-1.6184,rough,14.0,1,7.408
290,9.28,-6.5059,3.3692,0.1727,0.0111,0.0357,-1.3891,rough,14.0,1,7.504
300,9.60,-6.4529,3.0834,0.1626,0.0233,0.0297,-1.0825,rough,14.0,1,7.523
310,9.92,-6.2775,2.8005,0.1548,0.0282,0.0172,-0.8762,rough,14.0,1,7.436
320,10.24,-6.0321,2.5461,0.1506,0.0317,0.0044,-0.6843,rough,14.0,1,7.288
330,10.56,-5.7207,2.3092,0.1502,0.0290,-0.0076,-0.4979,rough,14.0,1,7.086
340,10.88,-5.3617,2.1289,0.1538,0.0210,-0.0211,-0.3344,rough,14.0,1,6.833
350,11.20,-4.9696,2.0010,0.1626,0.0161,-0.0268,-0.1792,rough,14.0,1,6.541
360,11.52,-4.5544,1.9339,0.1732,0.0054,-0.0287,-0.0217,rough,14.0,1,6.212
370,11.84,-4.1295,1.9320,0.1844,-0.0022,-0.0277,0.1052,rough,14.0,1,5.850
380,12.16,-3.6988,1.9849,0.1943,-0.0110,-0.0220,0.1646,rough,14.0,1,5.462
390,12.48,-3.2699,2.0616,0.2013,-0.0154,-0.0070,0.2170,rough,14.0,1,5.069
400,12.80,-2.8556,2.1635,0.2076,-0.0242,-0.0115,0.2795,rough,14.0,1,4.678
410,13.12,-2.4429,2.2908,0.2118,-0.0224,-0.0056,0.3556,rough,14.0,1,4.279
420,13.44,-2.0383,2.4467,0.2125,-0.0237,0.0021,0.4178,rough,14.0,1,3.874
430,13.76,-1.6573,2.6288,0.2105,-0.0242,0.0081,0.5178,rough,14.0,1,3.473
440,14.08,-1.2852,2.8482,0.2063,-0.0272,0.0114,0.5974,rough,14.0,1,3.056
450,14.40,-0.9474,3.1008,0.1977,-0.0270,0.0245,0.6958,rough,14.0,1,2.642
460,14.72,-0.6282,3.3775,0.1880,-0.0404,0.0362,0.7472,rough,14.0,1,2.224
470,15.04,-0.3249,3.6704,0.1883,-0.0477,-0.0580,0.7782,rough,14.0,1,1.806
480,15.36,-0.0383,3.9884,0.1965,-0.1415,-0.0914,0.8124,rough,14.0,1,1.379
490,15.68,0.2295,4.3002,0.2479,-0.1915,-0.1882,0.8636,rough,14.0,1,0.968
500,16.00,0.4555,4.5878,0.2922,-0.2398,-0.2293,0.6995,rough,14.0,2,9.507
510,16.32,0.7201,4.7870,0.3789,-0.1990,-0.2854,0.5017,rough,14.0,2,9.398
520,16.64,1.0251,4.9493,0.4815,-0.1458,-0.3173,0.3237,rough,14.0,2,9.244
530,16.96,1.3411,5.0509,0.5920,-0.1127,-0.3359,0.2217,rough,14.0,2,9.055
540,17.28,1.6584,5.1337,0.7052,-0.0916,-0.3438,0.1610,rough,14.0,2,8.861
550,17.60,1.9711,5.1872,0.8193,-0.0809,-0.3504,0.1318,rough,14.0,2,8.659
560,17.92,2.2212,5.2530,0.9316,-0.0814,-0.4493,0.0459,rough,14.0,2,8.518
570,18.24,2.2457,5.2550,0.9213,-0.0014,-0.3711,-0.0924,rough,14.0,2,8.502
580,18.56,2.2519,5.2018,0.9240,0.0140,-0.3624,-0.1382,rough,14.0,2,8.461
590,18.88,2.2743,5.1387,0.9347,0.0250,-0.3621,-0.1701,rough,14.0,2,8.402
600,19.20,2.2751,5.0763,0.9366,0.0245,-0.3583,-0.1682,rough,14.0,2,8.359
610,19.52,2.2680,5.0255,0.9365,0.0046,-0.3627,-0.1103,rough,14.0,2,8.330
620,19.84,2.2679,5.0023,0.9373,-0.0167,-0.3627,-0.0494,rough,14.0,2,8.314
630,20.16,2.2689,4.9916,0.9380,-0.0286,-0.3614,-0.0156,rough,14.0,2,8.307
640,20.48,2.2695,4.9869,0.9383,-0.0340,-0.3609,-0.0001,rough,14.0,2,8.303
650,20.80,2.2700,4.9851,0.9385,-0.0369,-0.3600,0.0082,rough,14.0,2,8.301
660,21.12,2.2703,4.9842,0.9387,-0.0378,-0.3601,0.0107,rough,14.0,2,8.301
670,21.44,2.2700,4.9830,0.9386,-0.0376,-0.3604,0.0101,rough,14.0,2,8.300
680,21.76,2.2697,4.9816,0.9386,-0.0374,-0.3604,0.0096,rough,14.0,2,8.299
690,22.08,2.2698,4.9810,0.9386,-0.0383,-0.3603,0.0119,rough,14.0,2,8.299
700,22.40,2.2698,4.9807,0.9386,-0.0386,-0.3602,0.0129,rough,14.0,2,8.299
710,22.72,2.2698,4.9805,0.9386,-0.0388,-0.3602,0.0134,rough,14.0,2,8.299
720,23.04,2.2699,4.9805,0.9387,-0.0389,-0.3602,0.0139,rough,14.0,2,8.298
730,23.36,2.2700,4.9807,0.9387,-0.0391,-0.3602,0.0144,rough,14.0,2,8.299
740,23.68,2.2703,4.9811,0.9388,-0.0393,-0.3602,0.0150,rough,14.0,2,8.299
750,24.00,2.2704,4.9818,0.9388,-0.0396,-0.3601,0.0159,rough,14.0,2,8.299
760,24.32,2.2707,4.9828,0.9389,-0.0400,-0.3601,0.0170,rough,14.0,2,8.299
770,24.64,2.2710,4.9843,0.9390,-0.0405,-0.3601,0.0184,rough,14.0,2,8.300
780,24.96,2.2716,4.9864,0.9391,-0.0411,-0.3600,0.0201,rough,14.0,2,8.301
790,25.28,2.2720,4.9891,0.9392,-0.0419,-0.3599,0.0224,rough,14.0,2,8.303
800,25.60,2.2721,4.9929,0.9391,-0.0431,-0.3598,0.0257,rough,14.0,2,8.305
810,25.92,2.2722,4.9981,0.9389,-0.0447,-0.3596,0.0303,rough,14.0,2,8.309
820,26.24,2.2721,5.0053,0.9386,-0.0469,-0.3593,0.0365,rough,14.0,2,8.313
830,26.56,2.2719,5.0152,0.9381,-0.0500,-0.3589,0.0455,rough,14.0,2,8.320
840,26.88,2.2713,5.0291,0.9374,-0.0547,-0.3582,0.0589,rough,14.0,2,8.330
850,27.20,2.2694,5.0445,0.9359,-0.0519,-0.3569,0.0505,rough,14.0,2,8.342
860,27.52,2.2691,5.0532,0.9357,-0.0464,-0.3593,0.0346,rough,14.0,2,8.348
870,27.84,2.2691,5.0570,0.9356,-0.0430,-0.3599,0.0248,rough,14.0,2,8.350
880,28.16,2.2693,5.0591,0.9356,-0.0412,-0.3601,0.0197,rough,14.0,2,8.352
890,28.48,2.2695,5.0602,0.9356,-0.0402,-0.3602,0.0169,rough,14.0,2,8.352
900,28.80,2.2696,5.0608,0.9356,-0.0397,-0.3603,0.0154,rough,14.0,2,8.353
910,29.12,2.2696,5.0612,0.9356,-0.0394,-0.3603,0.0146,rough,14.0,2,8.353
920,29.44,2.2696,5.0613,0.9356,-0.0393,-0.3603,0.0142,rough,14.0,2,8.353
930,29.76,2.2696,5.0614,0.9357,-0.0392,-0.3603,0.0138,rough,14.0,2,8.353
940,30.08,2.2697,5.0613,0.9357,-0.0390,-0.3604,0.0134,rough,14.0,2,8.353
950,30.40,2.2697,5.0611,0.9357,-0.0388,-0.3604,0.0128,rough,14.0,2,8.353
960,30.72,2.2698,5.0605,0.9357,-0.0385,-0.3604,0.0120,rough,14.0,2,8.352
970,31.04,2.2700,5.0597,0.9359,-0.0382,-0.3605,0.0109,rough,14.0,2,8.351
980,31.36,2.2704,5.0584,0.9361,-0.0377,-0.3606,0.0095,rough,14.0,2,8.350
990,31.68,2.2711,5.0566,0.9364,-0.0371,-0.3606,0.0078,rough,14.0,2,8.349
1000,32.00,2.2718,5.0540,0.9367,-0.0363,-0.3607,0.0055,rough,14.0,2,8.346
1010,32.32,2.2721,5.0504,0.9370,-0.0352,-0.3608,0.0023,rough,14.0,2,8.344
1020,32.64,2.2722,5.0454,0.9372,-0.0336,-0.3610,-0.0020,rough,14.0,2,8.340
1030,32.96,2.2721,5.0386,0.9374,-0.0316,-0.3611,-0.0077,rough,14.0,2,8.336
1040,33.28,2.2720,5.0293,0.9377,-0.0290,-0.3614,-0.0153,rough,14.0,2,8.330
1050,33.60,2.2715,5.0168,0.9380,-0.0255,-0.3616,-0.0252,rough,14.0,2,8.322
1060,33.92,2.2703,5.0017,0.9369,-0.0249,-0.3545,-0.0266,rough,14.0,2,8.312
1070,34.24,2.2695,4.9923,0.9377,-0.0301,-0.3583,-0.0114,rough,14.0,2,8.307
1080,34.56,2.2696,4.9873,0.9378,-0.0341,-0.3575,0.0001,rough,14.0,2,8.303
1090,34.88,2.2701,4.9853,0.9380,-0.0371,-0.3568,0.0086,rough,14.0,2,8.301
1100,35.20,2.2699,4.9836,0.9386,-0.0371,-0.3604,0.0085,rough,14.0,2,8.300
1110,35.52,2.2697,4.9818,0.9385,-0.0372,-0.3604,0.0088,rough,14.0,2,8.299
1120,35.84,2.2698,4.9811,0.9386,-0.0381,-0.3603,0.0116,rough,14.0,2,8.299
1130,36.16,2.2698,4.9807,0.9386,-0.0385,-0.3602,0.0128,rough,14.0,2,8.299
1140,36.48,2.2698,4.9805,0.9386,-0.0387,-0.3602,0.0133,rough,14.0,2,8.299
1150,36.80,2.2699,4.9805,0.9387,-0.0389,-0.3602,0.0138,rough,14.0,2,8.298
1160,37.12,2.2700,4.9807,0.9387,-0.0391,-0.3602,0.0143,rough,14.0,2,8.299
1170,37.44,2.2702,4.9810,0.9388,-0.0393,-0.3602,0.0149,rough,14.0,2,8.299
1180,37.76,2.2703,4.9816,0.9388,-0.0395,-0.3601,0.0156,rough,14.0,2,8.299
1190,38.08,2.2706,4.9826,0.9388,-0.0399,-0.3601,0.0167,rough,14.0,2,8.299
1200,38.40,2.2710,4.9839,0.9389,-0.0404,-0.3601,0.0180,rough,14.0,2,8.300
1210,38.72,2.2715,4.9858,0.9391,-0.0409,-0.3600,0.0197,rough,14.0,2,8.301
1220,39.04,2.2720,4.9884,0.9392,-0.0417,-0.3599,0.0218,rough,14.0,2,8.302
1230,39.36,2.2721,4.9920,0.9391,-0.0428,-0.3598,0.0248,rough,14.0,2,8.304
1240,39.68,2.2722,4.9968,0.9389,-0.0443,-0.3597,0.0291,rough,14.0,2,8.308
1250,40.00,2.2721,5.0035,0.9387,-0.0463,-0.3594,0.0349,rough,14.0,2,8.312
1260,40.32,2.2720,5.0127,0.9383,-0.0492,-0.3590,0.0432,rough,14.0,2,8.318
1270,40.64,2.2715,5.0255,0.9376,-0.0535,-0.3584,0.0553,rough,14.0,2,8.327
1280,40.96,2.2700,5.0410,0.9362,-0.0526,-0.3568,0.0525,rough,14.0,2,8.339
1290,41.28,2.2689,5.0511,0.9357,-0.0480,-0.3591,0.0392,rough,14.0,2,8.346
1300,41.60,2.2691,5.0560,0.9356,-0.0440,-0.3598,0.0275,rough,14.0,2,8.350
1310,41.92,2.2692,5.0585,0.9356,-0.0417,-0.3601,0.0211,rough,14.0,2,8.351
1320,42.24,2.2694,5.0599,0.9356,-0.0405,-0.3602,0.0177,rough,14.0,2,8.352
1330,42.56,2.2695,5.0606,0.9356,-0.0399,-0.3603,0.0159,rough,14.0,2,8.352
1340,42.88,2.2696,5.0611,0.9356,-0.0395,-0.3603,0.0148,rough,14.0,2,8.353
1350,43.20,2.2696,5.0613,0.9356,-0.0393,-0.3603,0.0143,rough,14.0,2,8.353
1360,43.52,2.2696,5.0614,0.9356,-0.0392,-0.3603,0.0139,rough,14.0,2,8.353
1370,43.84,2.2697,5.0614,0.9357,-0.0391,-0.3604,0.0135,rough,14.0,2,8.353
1380,44.16,2.2697,5.0612,0.9357,-0.0389,-0.3604,0.0130,rough,14.0,2,8.353
1390,44.48,2.2698,5.0608,0.9357,-0.0386,-0.3604,0.0123,rough,14.0,2,8.352
1400,44.80,2.2698,5.0600,0.9358,-0.0383,-0.3605,0.0113,rough,14.0,2,8.352
1410,45.12,2.2704,5.0589,0.9360,-0.0379,-0.3605,0.0101,rough,14.0,2,8.351
1420,45.44,2.2709,5.0573,0.9363,-0.0373,-0.3606,0.0085,rough,14.0,2,8.349
1430,45.76,2.2716,5.0550,0.9366,-0.0366,-0.3607,0.0064,rough,14.0,2,8.347
1440,46.08,2.2720,5.0518,0.9369,-0.0356,-0.3608,0.0036,rough,14.0,2,8.345
1450,46.40,2.2721,5.0474,0.9371,-0.0342,-0.3609,-0.0003,rough,14.0,2,8.342
1460,46.72,2.2721,5.0413,0.9373,-0.0324,-0.3611,-0.0055,rough,14.0,2,8.337
1470,47.04,2.2720,5.0329,0.9376,-0.0300,-0.3613,-0.0124,rough,14.0,2,8.332
1480,47.36,2.2717,5.0217,0.9379,-0.0268,-0.3615,-0.0214,rough,14.0,2,8.325
1490,47.68,2.2710,5.0065,0.9382,-0.0226,-0.3618,-0.0333,rough,14.0,2,8.315
1500,48.00,2.2694,4.9954,0.9382,-0.0278,-0.3623,-0.0180,rough,14.0,2,8.309
1510,48.32,2.2693,4.9886,0.9383,-0.0321,-0.3615,-0.0059,rough,14.0,2,8.304
1520,48.64,2.2697,4.9856,0.9385,-0.0356,-0.3608,0.0045,rough,14.0,2,8.302
1530,48.96,2.2703,4.9847,0.9384,-0.0379,-0.3587,0.0109,rough,14.0,2,8.301
1540,49.28,2.2702,4.9837,0.9387,-0.0377,-0.3603,0.0103,rough,14.0,2,8.300
1550,49.60,2.2699,4.9823,0.9386,-0.0374,-0.3604,0.0095,rough,14.0,2,8.300
1560,49.92,2.2697,4.9812,0.9386,-0.0379,-0.3603,0.0110,rough,14.0,2,8.299
1570,50.24,2.2698,4.9808,0.9386,-0.0385,-0.3603,0.0125,rough,14.0,2,8.299
1580,50.56,2.2698,4.9806,0.9386,-0.0387,-0.3602,0.0132,rough,14.0,2,8.299
1590,50.88,2.2698,4.9805,0.9387,-0.0388,-0.3602,0.0136,rough,14.0,2,8.298
1600,51.20,2.2699,4.9806,0.9387,-0.0390,-0.3602,0.0141,rough,14.0,2,8.298
1610,51.52,2.2701,4.9809,0.9387,-0.0392,-0.3602,0.0147,rough,14.0,2,8.299
1620,51.84,2.2704,4.9814,0.9388,-0.0394,-0.3602,0.0154,rough,14.0,2,8.299
1630,52.16,2.2705,4.9823,0.9388,-0.0398,-0.3601,0.0164,rough,14.0,2,8.299
1640,52.48,2.2709,4.9835,0.9389,-0.0402,-0.3601,0.0176,rough,14.0,2,8.300
1650,52.80,2.2714,4.9853,0.9391,-0.0408,-0.3600,0.0192,rough,14.0,2,8.301
1660,53.12,2.2719,4.9877,0.9392,-0.0415,-0.3600,0.0212,rough,14.0,2,8.302
1670,53.44,2.2721,4.9910,0.9391,-0.0425,-0.3599,0.0240,rough,14.0,2,8.304
1680,53.76,2.2722,4.9954,0.9390,-0.0438,-0.3597,0.0279,rough,14.0,2,8.307
1690,54.08,2.2721,5.0016,0.9387,-0.0457,-0.3595,0.0332,rough,14.0,2,8.311
1700,54.40,2.2720,5.0100,0.9384,-0.0484,-0.3591,0.0407,rough,14.0,2,8.317
1710,54.72,2.2716,5.0218,0.9378,-0.0522,-0.3586,0.0517,rough,14.0,2,8.325
1720,55.04,2.2704,5.0374,0.9342,-0.0543,-0.3421,0.0574,rough,14.0,2,8.336
1730,55.36,2.2690,5.0501,0.9358,-0.0488,-0.3587,0.0413,rough,14.0,2,8.346
1740,55.68,2.2691,5.0554,0.9357,-0.0445,-0.3597,0.0291,rough,14.0,2,8.349
1750,56.00,2.2692,5.0582,0.9356,-0.0420,-0.3600,0.0218,rough,14.0,2,8.351
1760,56.32,2.2694,5.0597,0.9356,-0.0407,-0.3602,0.0181,rough,14.0,2,8.352
1770,56.64,2.2695,5.0606,0.9356,-0.0399,-0.3603,0.0161,rough,14.0,2,8.352
1780,56.96,2.2696,5.0610,0.9356,-0.0396,-0.3603,0.0150,rough,14.0,2,8.353
1790,57.28,2.2696,5.0613,0.9356,-0.0393,-0.3603,0.0143,rough,14.0,2,8.353
1800,57.60,2.2696,5.0614,0.9356,-0.0392,-0.3603,0.0140,rough,14.0,2,8.353
1810,57.92,2.2697,5.0614,0.9357,-0.0391,-0.3604,0.0136,rough,14.0,2,8.353
1820,58.24,2.2697,5.0612,0.9357,-0.0389,-0.3604,0.0131,rough,14.0,2,8.353
1830,58.56,2.2698,5.0608,0.9357,-0.0387,-0.3604,0.0124,rough,14.0,2,8.352
1840,58.88,2.2698,5.0602,0.9358,-0.0384,-0.3605,0.0115,rough,14.0,2,8.352
1850,59.20,2.2703,5.0591,0.9360,-0.0379,-0.3605,0.0103,rough,14.0,2,8.351
1860,59.52,2.2707,5.0576,0.9362,-0.0374,-0.3606,0.0087,rough,14.0,2,8.349
1870,59.84,2.2715,5.0554,0.9366,-0.0367,-0.3607,0.0067,rough,14.0,2,8.347
1880,60.16,2.2720,5.0523,0.9369,-0.0358,-0.3608,0.0040,rough,14.0,2,8.345
1890,60.48,2.2721,5.0481,0.9371,-0.0345,-0.3609,0.0003,rough,14.0,2,8.342
1900,60.80,2.2721,5.0423,0.9373,-0.0327,-0.3610,-0.0046,rough,14.0,2,8.338
1910,61.12,2.2721,5.0343,0.9376,-0.0304,-0.3612,-0.0112,rough,14.0,2,8.333
1920,61.44,2.2718,5.0235,0.9379,-0.0273,-0.3615,-0.0199,rough,14.0,2,8.326
1930,61.76,2.2711,5.0090,0.9381,-0.0233,-0.3618,-0.0314,rough,14.0,2,8.317
1940,62.08,2.2696,4.9964,0.9376,-0.0276,-0.3584,-0.0187,rough,14.0,2,8.309
1950,62.40,2.2695,4.9894,0.9377,-0.0322,-0.3578,-0.0054,rough,14.0,2,8.305
1960,62.72,2.2698,4.9860,0.9379,-0.0358,-0.3572,0.0051,rough,14.0,2,8.302
1970,63.04,2.2701,4.9845,0.9386,-0.0371,-0.3603,0.0085,rough,14.0,2,8.301
1980,63.36,2.2698,4.9826,0.9386,-0.0369,-0.3604,0.0080,rough,14.0,2,8.300
1990,63.68,2.2697,4.9814,0.9386,-0.0378,-0.3603,0.0106,rough,14.0,2,8.299
2000,64.00,2.2698,4.9808,0.9386,-0.0384,-0.3603,0.0123,rough,14.0,2,8.299
2010,64.32,2.2698,4.9806,0.9386,-0.0387,-0.3602,0.0131,rough,14.0,2,8.299
2020,64.64,2.2698,4.9805,0.9386,-0.0388,-0.3602,0.0135,rough,14.0,2,8.299
2030,64.96,2.2699,4.9806,0.9387,-0.0390,-0.3602,0.0140,rough,14.0,2,8.298
2040,65.28,2.2701,4.9808,0.9387,-0.0392,-0.3602,0.0146,rough,14.0,2,8.299
2050,65.60,2.2703,4.9813,0.9388,-0.0394,-0.3602,0.0152,rough,14.0,2,8.299
2060,65.92,2.2704,4.9821,0.9388,-0.0397,-0.3601,0.0162,rough,14.0,2,8.299
2070,66.24,2.2708,4.9832,0.9389,-0.0401,-0.3601,0.0173,rough,14.0,2,8.300
2080,66.56,2.2713,4.9848,0.9390,-0.0406,-0.3600,0.0188,rough,14.0,2,8.300
2090,66.88,2.2718,4.9871,0.9391,-0.0413,-0.3600,0.0207,rough,14.0,2,8.301
2100,67.20,2.2721,4.9901,0.9391,-0.0422,-0.3599,0.0233,rough,14.0,2,8.303
2110,67.52,2.2721,4.9943,0.9390,-0.0435,-0.3598,0.0269,rough,14.0,2,8.306
2120,67.84,2.2722,5.0000,0.9388,-0.0452,-0.3595,0.0318,rough,14.0,2,8.310
2130,68.16,2.2721,5.0079,0.9385,-0.0477,-0.3592,0.0387,rough,14.0,2,8.315
2140,68.48,2.2718,5.0188,0.9380,-0.0512,-0.3587,0.0488,rough,14.0,2,8.323
2150,68.80,2.2709,5.0340,0.9371,-0.0565,-0.3579,0.0639,rough,14.0,2,8.334
2160,69.12,2.2691,5.0480,0.9358,-0.0501,-0.3582,0.0454,rough,14.0,2,8.344
2170,69.44,2.2692,5.0544,0.9357,-0.0454,-0.3596,0.0318,rough,14.0,2,8.349
2180,69.76,2.2691,5.0577,0.9356,-0.0424,-0.3600,0.0232,rough,14.0,2,8.351
2190,70.08,2.2694,5.0594,0.9356,-0.0409,-0.3602,0.0188,rough,14.0,2,8.352
2200,70.40,2.2695,5.0604,0.9356,-0.0401,-0.3602,0.0165,rough,14.0,2,8.352
2210,70.72,2.2696,5.0609,0.9356,-0.0396,-0.3603,0.0152,rough,14.0,2,8.353
2220,71.04,2.2696,5.0612,0.9356,-0.0394,-0.3603,0.0145,rough,14.0,2,8.353
2230,71.36,2.2696,5.0614,0.9356,-0.0392,-0.3603,0.0141,rough,14.0,2,8.353
2240,71.68,2.2697,5.0614,0.9357,-0.0391,-0.3604,0.0137,rough,14.0,2,8.353
2250,72.00,2.2697,5.0613,0.9357,-0.0390,-0.3604,0.0132,rough,14.0,2,8.353
2260,72.32,2.2697,5.0610,0.9357,-0.0387,-0.3604,0.0126,rough,14.0,2,8.352
2270,72.64,2.2698,5.0604,0.9357,-0.0384,-0.3604,0.0117,rough,14.0,2,8.352
2280,72.96,2.2702,5.0594,0.9359,-0.0381,-0.3605,0.0106,rough,14.0,2,8.351
2290,73.28,2.2705,5.0580,0.9361,-0.0376,-0.3606,0.0091,rough,14.0,2,8.350
2300,73.60,2.2713,5.0560,0.9365,-0.0369,-0.3607,0.0073,rough,14.0,2,8.348
2310,73.92,2.2719,5.0532,0.9368,-0.0361,-0.3608,0.0048,rough,14.0,2,8.346
2320,74.24,2.2721,5.0493,0.9370,-0.0348,-0.3609,0.0014,rough,14.0,2,8.343
2330,74.56,2.2722,5.0439,0.9372,-0.0332,-0.3610,-0.0032,rough,14.0,2,8.339
2340,74.88,2.2721,5.0365,0.9375,-0.0310,-0.3612,-0.0094,rough,14.0,2,8.334
2350,75.20,2.2719,5.0265,0.9378,-0.0282,-0.3614,-0.0175,rough,14.0,2,8.328
2360,75.52,2.2713,5.0130,0.9381,-0.0244,-0.3617,-0.0282,rough,14.0,2,8.319
2370,75.84,2.2699,4.9994,0.9357,-0.0267,-0.3470,-0.0212,rough,14.0,2,8.311
2380,76.16,2.2696,4.9909,0.9357,-0.0313,-0.3450,-0.0079,rough,14.0,2,8.306
2390,76.48,2.2698,4.9866,0.9359,-0.0353,-0.3443,0.0036,rough,14.0,2,8.303
2400,76.80,2.2701,4.9849,0.9386,-0.0370,-0.3603,0.0085,rough,14.0,2,8.301
2410,77.12,2.2699,4.9829,0.9386,-0.0369,-0.3604,0.0079,rough,14.0,2,8.300
2420,77.44,2.2697,4.9815,0.9386,-0.0376,-0.3603,0.0101,rough,14.0,2,8.299
2430,77.76,2.2698,4.9809,0.9386,-0.0383,-0.3603,0.0121,rough,14.0,2,8.299
2440,78.08,2.2698,4.9806,0.9386,-0.0386,-0.3602,0.0130,rough,14.0,2,8.299
2450,78.40,2.2698,4.9805,0.9386,-0.0388,-0.3602,0.0135,rough,14.0,2,8.299
2460,78.72,2.2699,4.9805,0.9387,-0.0389,-0.3602,0.0139,rough,14.0,2,8.298
2470,79.04,2.2700,4.9808,0.9387,-0.0391,-0.3602,0.0145,rough,14.0,2,8.299
2480,79.36,2.2703,4.9812,0.9388,-0.0393,-0.3602,0.0151,rough,14.0,2,8.299
2490,79.68,2.2704,4.9819,0.9388,-0.0397,-0.3601,0.0160,rough,14.0,2,8.299
2500,80.00,2.2708,4.9830,0.9389,-0.0400,-0.3601,0.0171,rough,14.0,2,8.299
2510,80.32,2.2711,4.9845,0.9390,-0.0405,-0.3601,0.0186,rough,14.0,2,8.300
2520,80.64,2.2717,4.9867,0.9391,-0.0412,-0.3600,0.0204,rough,14.0,2,8.301
2530,80.96,2.2720,4.9895,0.9391,-0.0420,-0.3599,0.0228,rough,14.0,2,8.303
2540,81.28,2.2721,4.9935,0.9390,-0.0432,-0.3598,0.0262,rough,14.0,2,8.305
2550,81.60,2.2722,4.9989,0.9389,-0.0449,-0.3596,0.0309,rough,14.0,2,8.309
2560,81.92,2.2721,5.0064,0.9386,-0.0472,-0.3593,0.0374,rough,14.0,2,8.314
2570,82.24,2.2718,5.0167,0.9381,-0.0505,-0.3588,0.0468,rough,14.0,2,8.321
2580,82.56,2.2711,5.0311,0.9373,-0.0554,-0.3580,0.0609,rough,14.0,2,8.331
2590,82.88,2.2693,5.0461,0.9359,-0.0512,-0.3575,0.0485,rough,14.0,2,8.343
2600,83.20,2.2691,5.0537,0.9357,-0.0460,-0.3594,0.0335,rough,14.0,2,8.348
2610,83.52,2.2691,5.0573,0.9356,-0.0427,-0.3599,0.0240,rough,14.0,2,8.351
2620,83.84,2.2693,5.0592,0.9356,-0.0411,-0.3601,0.0193,rough,14.0,2,8.352
2630,84.16,2.2695,5.0603,0.9356,-0.0402,-0.3602,0.0167,rough,14.0,2,8.352
2640,84.48,2.2696,5.0609,0.9356,-0.0397,-0.3603,0.0153,rough,14.0,2,8.353
2650,84.80,2.2696,5.0612,0.9356,-0.0394,-0.3603,0.0145,rough,14.0,2,8.353
2660,85.12,2.2696,5.0613,0.9356,-0.0393,-0.3603,0.0141,rough,14.0,2,8.353
2670,85.44,2.2697,5.0614,0.9357,-0.0391,-0.3603,0.0138,rough,14.0,2,8.353
2680,85.76,2.2697,5.0613,0.9357,-0.0390,-0.3604,0.0133,rough,14.0,2,8.353
2690,86.08,2.2697,5.0610,0.9357,-0.0388,-0.3604,0.0127,rough,14.0,2,8.353
2700,86.40,2.2698,5.0605,0.9357,-0.0385,-0.3604,0.0119,rough,14.0,2,8.352
2710,86.72,2.2701,5.0596,0.9359,-0.0381,-0.3605,0.0108,rough,14.0,2,8.351
2720,87.04,2.2704,5.0582,0.9361,-0.0376,-0.3606,0.0094,rough,14.0,2,8.350
2730,87.36,2.2710,5.0563,0.9364,-0.0370,-0.3606,0.0075,rough,14.0,2,8.348
2740,87.68,2.2718,5.0536,0.9368,-0.0362,-0.3608,0.0052,rough,14.0,2,8.346
2750,88.00,2.2721,5.0499,0.9370,-0.0350,-0.3609,0.0019,rough,14.0,2,8.343
2760,88.32,2.2722,5.0448,0.9372,-0.0335,-0.3610,-0.0025,rough,14.0,2,8.340
2770,88.64,2.2721,5.0377,0.9375,-0.0314,-0.3612,-0.0084,rough,14.0,2,8.335
2780,88.96,2.2719,5.0281,0.9377,-0.0286,-0.3614,-0.0162,rough,14.0,2,8.329
2790,89.28,2.2714,5.0152,0.9380,-0.0251,-0.3616,-0.0264,rough,14.0,2,8.321
2800,89.60,2.2699,5.0004,0.9376,-0.0252,-0.3592,-0.0258,rough,14.0,2,8.312
2810,89.92,2.2694,4.9916,0.9380,-0.0306,-0.3606,-0.0101,rough,14.0,2,8.306
2820,90.24,2.2696,4.9868,0.9382,-0.0343,-0.3599,0.0005,rough,14.0,2,8.303
2830,90.56,2.2701,4.9851,0.9380,-0.0372,-0.3569,0.0089,rough,14.0,2,8.301
2840,90.88,2.2705,4.9844,0.9387,-0.0381,-0.3598,0.0116,rough,14.0,2,8.301
2850,91.20,2.2703,4.9835,0.9387,-0.0379,-0.3603,0.0109,rough,14.0,2,8.300
2860,91.52,2.2700,4.9824,0.9386,-0.0377,-0.3604,0.0103,rough,14.0,2,8.300
2870,91.84,2.2697,4.9813,0.9386,-0.0378,-0.3603,0.0107,rough,14.0,2,8.299
2880,92.16,2.2698,4.9808,0.9386,-0.0384,-0.3603,0.0124,rough,14.0,2,8.299
2890,92.48,2.2698,4.9806,0.9386,-0.0387,-0.3602,0.0132,rough,14.0,2,8.299
2900,92.80,2.2698,4.9805,0.9387,-0.0388,-0.3602,0.0136,rough,14.0,2,8.298
2910,93.12,2.2699,4.9806,0.9387,-0.0390,-0.3602,0.0141,rough,14.0,2,8.298
2920,93.44,2.2701,4.9809,0.9387,-0.0392,-0.3602,0.0146,rough,14.0,2,8.299
2930,93.76,2.2704,4.9814,0.9388,-0.0394,-0.3602,0.0153,rough,14.0,2,8.299
2940,94.08,2.2704,4.9822,0.9388,-0.0398,-0.3601,0.0163,rough,14.0,2,8.299
2950,94.40,2.2709,4.9834,0.9389,-0.0402,-0.3601,0.0175,rough,14.0,2,8.300
2960,94.72,2.2713,4.9851,0.9390,-0.0407,-0.3600,0.0190,rough,14.0,2,8.300
2970,95.04,2.2718,4.9874,0.9392,-0.0414,-0.3600,0.0209,rough,14.0,2,8.302
2980,95.36,2.2721,4.9905,0.9391,-0.0423,-0.3599,0.0236,rough,14.0,2,8.304
2990,95.68,2.2722,4.9948,0.9390,-0.0436,-0.3597,0.0273,rough,14.0,2,8.306
3000,96.00,2.2722,5.0007,0.9388,-0.0455,-0.3595,0.0325,rough,14.0,2,8.310
3010,96.32,2.2720,5.0089,0.9384,-0.0480,-0.3592,0.0397,rough,14.0,2,8.316
3020,96.64,2.2717,5.0202,0.9379,-0.0517,-0.3586,0.0501,rough,14.0,2,8.324
3030,96.96,2.2705,5.0356,0.9370,-0.0561,-0.3587,0.0628,rough,14.0,2,8.335
3040,97.28,2.2691,5.0491,0.9358,-0.0494,-0.3584,0.0432,rough,14.0,2,8.345
3050,97.60,2.2691,5.0549,0.9357,-0.0450,-0.3596,0.0305,rough,14.0,2,8.349
3060,97.92,2.2692,5.0579,0.9356,-0.0422,-0.3600,0.0225,rough,14.0,2,8.351
3070,98.24,2.2694,5.0596,0.9356,-0.0408,-0.3602,0.0185,rough,14.0,2,8.352
3080,98.56,2.2695,5.0605,0.9356,-0.0400,-0.3603,0.0163,rough,14.0,2,8.352
3090,98.88,2.2696,5.0610,0.9356,-0.0396,-0.3603,0.0151,rough,14.0,2,8.353
3100,99.20,2.2696,5.0612,0.9356,-0.0394,-0.3603,0.0144,rough,14.0,2,8.353
3110,99.52,2.2696,5.0614,0.9356,-0.0392,-0.3603,0.0140,rough,14.0,2,8.353
3120,99.84,2.2697,5.0614,0.9357,-0.0391,-0.3604,0.0137,rough,14.0,2,8.353
3130,100.16,2.2697,5.0613,0.9357,-0.0389,-0.3604,0.0132,rough,14.0,2,8.353
3140,100.48,2.2697,5.0609,0.9357,-0.0387,-0.3604,0.0125,rough,14.0,2,8.352
3150,100.80,2.2698,5.0603,0.9357,-0.0384,-0.3605,0.0116,rough,14.0,2,8.352
3160,101.12,2.2703,5.0593,0.9360,-0.0380,-0.3605,0.0105,rough,14.0,2,8.351
3170,101.44,2.2706,5.0578,0.9362,-0.0375,-0.3606,0.0089,rough,14.0,2,8.350
3180,101.76,2.2714,5.0557,0.9365,-0.0368,-0.3607,0.0070,rough,14.0,2,8.348
3190,102.08,2.2720,5.0528,0.9368,-0.0359,-0.3608,0.0045,rough,14.0,2,8.345
3200,102.40,2.2721,5.0487,0.9371,-0.0347,-0.3609,0.0009,rough,14.0,2,8.343
3210,102.72,2.2722,5.0432,0.9373,-0.0330,-0.3610,-0.0039,rough,14.0,2,8.339
3220,103.04,2.2721,5.0355,0.9375,-0.0307,-0.3612,-0.0102,rough,14.0,2,8.334
3230,103.36,2.2718,5.0252,0.9378,-0.0278,-0.3615,-0.0186,rough,14.0,2,8.327
3240,103.68,2.2712,5.0113,0.9381,-0.0239,-0.3617,-0.0296,rough,14.0,2,8.318
3250,104.00,2.2696,4.9970,0.9355,-0.0264,-0.3459,-0.0221,rough,14.0,2,8.310
3260,104.32,2.2695,4.9894,0.9356,-0.0321,-0.3446,-0.0056,rough,14.0,2,8.305
3270,104.64,2.2699,4.9861,0.9359,-0.0360,-0.3443,0.0057,rough,14.0,2,8.302
3280,104.96,2.2702,4.9847,0.9386,-0.0376,-0.3599,0.0101,rough,14.0,2,8.301
3290,105.28,2.2700,4.9833,0.9386,-0.0374,-0.3604,0.0094,rough,14.0,2,8.300
3300,105.60,2.2697,4.9817,0.9386,-0.0373,-0.3604,0.0093,rough,14.0,2,8.299
3310,105.92,2.2698,4.9810,0.9386,-0.0382,-0.3603,0.0118,rough,14.0,2,8.299
3320,106.24,2.2698,4.9807,0.9386,-0.0386,-0.3602,0.0129,rough,14.0,2,8.299
3330,106.56,2.2698,4.9805,0.9386,-0.0388,-0.3602,0.0134,rough,14.0,2,8.299
3340,106.88,2.2699,4.9805,0.9387,-0.0389,-0.3602,0.0138,rough,14.0,2,8.298
3350,107.20,2.2700,4.9807,0.9387,-0.0391,-0.3602,0.0144,rough,14.0,2,8.299
3360,107.52,2.2702,4.9811,0.9388,-0.0393,-0.3602,0.0149,rough,14.0,2,8.299
3370,107.84,2.2703,4.9817,0.9388,-0.0396,-0.3601,0.0158,rough,14.0,2,8.299
3380,108.16,2.2706,4.9827,0.9389,-0.0400,-0.3601,0.0169,rough,14.0,2,8.299
3390,108.48,2.2710,4.9842,0.9389,-0.0404,-0.3601,0.0183,rough,14.0,2,8.300
3400,108.80,2.2715,4.9862,0.9391,-0.0410,-0.3600,0.0200,rough,14.0,2,8.301
3410,109.12,2.2720,4.9889,0.9392,-0.0418,-0.3599,0.0222,rough,14.0,2,8.302
3420,109.44,2.2721,4.9926,0.9391,-0.0430,-0.3598,0.0254,rough,14.0,2,8.305
3430,109.76,2.2722,4.9976,0.9389,-0.0445,-0.3596,0.0298,rough,14.0,2,8.308
3440,110.08,2.2721,5.0046,0.9386,-0.0467,-0.3593,0.0359,rough,14.0,2,8.313
3450,110.40,2.2719,5.0143,0.9382,-0.0497,-0.3589,0.0446,rough,14.0,2,8.320
3460,110.72,2.2713,5.0278,0.9375,-0.0542,-0.3582,0.0575,rough,14.0,2,8.329
3470,111.04,2.2695,5.0434,0.9359,-0.0524,-0.3565,0.0519,rough,14.0,2,8.341
3480,111.36,2.2690,5.0526,0.9357,-0.0469,-0.3592,0.0359,rough,14.0,2,8.347
3490,111.68,2.2690,5.0567,0.9356,-0.0433,-0.3599,0.0256,rough,14.0,2,8.350
3500,112.00,2.2693,5.0589,0.9356,-0.0414,-0.3601,0.0201,rough,14.0,2,8.351
3510,112.32,2.2695,5.0601,0.9356,-0.0403,-0.3602,0.0171,rough,14.0,2,8.352
3520,112.64,2.2695,5.0608,0.9356,-0.0398,-0.3603,0.0155,rough,14.0,2,8.353
3530,112.96,2.2696,5.0611,0.9356,-0.0395,-0.3603,0.0147,rough,14.0,2,8.353
3540,113.28,2.2696,5.0613,0.9356,-0.0393,-0.3603,0.0142,rough,14.0,2,8.353
3550,113.60,2.2696,5.0614,0.9357,-0.0392,-0.3603,0.0139,rough,14.0,2,8.353
3560,113.92,2.2697,5.0613,0.9357,-0.0390,-0.3604,0.0134,rough,14.0,2,8.353
3570,114.24,2.2697,5.0611,0.9357,-0.0388,-0.3604,0.0128,rough,14.0,2,8.353
3580,114.56,2.2698,5.0606,0.9357,-0.0386,-0.3604,0.0121,rough,14.0,2,8.352
3590,114.88,2.2698,5.0598,0.9358,-0.0382,-0.3605,0.0110,rough,14.0,2,8.352
3600,115.20,2.2704,5.0586,0.9361,-0.0377,-0.3605,0.0097,rough,14.0,2,8.350
3610,115.52,2.2710,5.0568,0.9363,-0.0372,-0.3606,0.0080,rough,14.0,2,8.349
3620,115.84,2.2717,5.0543,0.9367,-0.0364,-0.3607,0.0057,rough,14.0,2,8.347
3630,116.16,2.2721,5.0508,0.9370,-0.0353,-0.3608,0.0027,rough,14.0,2,8.344
3640,116.48,2.2722,5.0460,0.9372,-0.0338,-0.3610,-0.0015,rough,14.0,2,8.341
3650,116.80,2.2721,5.0394,0.9374,-0.0319,-0.3611,-0.0070,rough,14.0,2,8.336
3660,117.12,2.2720,5.0304,0.9377,-0.0293,-0.3613,-0.0144,rough,14.0,2,8.330
3670,117.44,2.2716,5.0182,0.9380,-0.0259,-0.3616,-0.0241,rough,14.0,2,8.322
3680,117.76,2.2705,5.0031,0.9356,-0.0243,-0.3462,-0.0283,rough,14.0,2,8.313
3690,118.08,2.2696,4.9930,0.9370,-0.0297,-0.3538,-0.0127,rough,14.0,2,8.307
3700,118.40,2.2697,4.9877,0.9371,-0.0340,-0.3527,-0.0002,rough,14.0,2,8.303
3710,118.72,2.2701,4.9854,0.9373,-0.0370,-0.3523,0.0084,rough,14.0,2,8.302
3720,119.04,2.2699,4.9837,0.9386,-0.0370,-0.3604,0.0083,rough,14.0,2,8.301
3730,119.36,2.2697,4.9819,0.9385,-0.0370,-0.3604,0.0084,rough,14.0,2,8.300
3740,119.68,2.2698,4.9811,0.9386,-0.0381,-0.3603,0.0114,rough,14.0,2,8.299
3750,120.00,2.2698,4.9807,0.9386,-0.0385,-0.3602,0.0127,rough,14.0,2,8.299
3760,120.32,2.2698,4.9805,0.9386,-0.0387,-0.3602,0.0133,rough,14.0,2,8.299
3770,120.64,2.2699,4.9805,0.9387,-0.0389,-0.3602,0.0137,rough,14.0,2,8.298
3780,120.96,2.2700,4.9807,0.9387,-0.0390,-0.3602,0.0142,rough,14.0,2,8.299
3790,121.28,2.2702,4.9810,0.9388,-0.0392,-0.3602,0.0148,rough,14.0,2,8.299
3800,121.60,2.2704,4.9816,0.9388,-0.0395,-0.3602,0.0155,rough,14.0,2,8.299
3810,121.92,2.2705,4.9825,0.9388,-0.0399,-0.3601,0.0166,rough,14.0,2,8.299
3820,122.24,2.2709,4.9838,0.9389,-0.0403,-0.3601,0.0179,rough,14.0,2,8.300
3830,122.56,2.2714,4.9856,0.9391,-0.0409,-0.3600,0.0195,rough,14.0,2,8.301
3840,122.88,2.2719,4.9881,0.9392,-0.0416,-0.3600,0.0216,rough,14.0,2,8.302
3850,123.20,2.2721,4.9916,0.9391,-0.0426,-0.3599,0.0245,rough,14.0,2,8.304
3860,123.52,2.2722,4.9962,0.9389,-0.0441,-0.3597,0.0286,rough,14.0,2,8.307
3870,123.84,2.2721,5.0027,0.9387,-0.0461,-0.3594,0.0342,rough,14.0,2,8.312
3880,124.16,2.2720,5.0116,0.9383,-0.0489,-0.3590,0.0422,rough,14.0,2,8.318
3890,124.48,2.2715,5.0240,0.9377,-0.0530,-0.3585,0.0538,rough,14.0,2,8.326
3900,124.80,2.2702,5.0395,0.9361,-0.0530,-0.3551,0.0537,rough,14.0,2,8.338
3910,125.12,2.2690,5.0504,0.9358,-0.0485,-0.3590,0.0406,rough,14.0,2,8.346
3920,125.44,2.2691,5.0556,0.9357,-0.0443,-0.3597,0.0285,rough,14.0,2,8.349
3930,125.76,2.2692,5.0583,0.9356,-0.0419,-0.3600,0.0216,rough,14.0,2,8.351
3940,126.08,2.2694,5.0598,0.9356,-0.0406,-0.3602,0.0180,rough,14.0,2,8.352
3950,126.40,2.2695,5.0606,0.9356,-0.0399,-0.3603,0.0160,rough,14.0,2,8.352
3960,126.72,2.2696,5.0610,0.9356,-0.0395,-0.3603,0.0149,rough,14.0,2,8.353
3970,127.04,2.2696,5.0613,0.9356,-0.0393,-0.3603,0.0143,rough,14.0,2,8.353
3980,127.36,2.2696,5.0614,0.9356,-0.0392,-0.3603,0.0140,rough,14.0,2,8.353
3990,127.68,2.2697,5.0614,0.9357,-0.0391,-0.3604,0.0136,rough,14.0,2,8.353
4000,128.00,2.2697,5.0612,0.9357,-0.0389,-0.3604,0.0131,rough,14.0,2,8.353
4010,128.32,2.2698,5.0608,0.9357,-0.0387,-0.3604,0.0124,rough,14.0,2,8.352
4020,128.64,2.2698,5.0601,0.9358,-0.0383,-0.3605,0.0114,rough,14.0,2,8.352
4030,128.96,2.2704,5.0591,0.9360,-0.0379,-0.3605,0.0102,rough,14.0,2,8.351
4040,129.28,2.2708,5.0575,0.9362,-0.0374,-0.3606,0.0086,rough,14.0,2,8.349
4050,129.60,2.2715,5.0553,0.9366,-0.0367,-0.3607,0.0066,rough,14.0,2,8.347
4060,129.92,2.2720,5.0522,0.9369,-0.0357,-0.3608,0.0039,rough,14.0,2,8.345
4070,130.24,2.2721,5.0479,0.9371,-0.0344,-0.3609,0.0002,rough,14.0,2,8.342
4080,130.56,2.2721,5.0420,0.9373,-0.0326,-0.3611,-0.0049,rough,14.0,2,8.338
4090,130.88,2.2721,5.0339,0.9376,-0.0303,-0.3612,-0.0116,rough,14.0,2,8.333
4100,131.20,2.2718,5.0229,0.9379,-0.0272,-0.3615,-0.0204,rough,14.0,2,8.325
4110,131.52,2.2711,5.0083,0.9381,-0.0231,-0.3618,-0.0320,rough,14.0,2,8.316
4120,131.84,2.2696,4.9963,0.9380,-0.0275,-0.3612,-0.0189,rough,14.0,2,8.309
4130,132.16,2.2694,4.9892,0.9381,-0.0318,-0.3605,-0.0065,rough,14.0,2,8.305
4140,132.48,2.2698,4.9859,0.9383,-0.0357,-0.3597,0.0045,rough,14.0,2,8.302
4150,132.80,2.2703,4.9848,0.9381,-0.0378,-0.3565,0.0108,rough,14.0,2,8.301
4160,133.12,2.2703,4.9838,0.9387,-0.0377,-0.3603,0.0103,rough,14.0,2,8.300
4170,133.44,2.2700,4.9825,0.9386,-0.0374,-0.3604,0.0096,rough,14.0,2,8.300
4180,133.76,2.2697,4.9813,0.9386,-0.0378,-0.3603,0.0108,rough,14.0,2,8.299
4190,134.08,2.2698,4.9808,0.9386,-0.0384,-0.3603,0.0124,rough,14.0,2,8.299
4200,134.40,2.2698,4.9806,0.9386,-0.0387,-0.3602,0.0132,rough,14.0,2,8.299
4210,134.72,2.2698,4.9805,0.9387,-0.0388,-0.3602,0.0136,rough,14.0,2,8.298
4220,135.04,2.2699,4.9806,0.9387,-0.0390,-0.3602,0.0141,rough,14.0,2,8.298
4230,135.36,2.2701,4.9809,0.9387,-0.0392,-0.3602,0.0146,rough,14.0,2,8.299
4240,135.68,2.2704,4.9814,0.9388,-0.0394,-0.3602,0.0153,rough,14.0,2,8.299
4250,136.00,2.2704,4.9822,0.9388,-0.0398,-0.3601,0.0163,rough,14.0,2,8.299
4260,136.32,2.2709,4.9834,0.9389,-0.0402,-0.3601,0.0175,rough,14.0,2,8.300
4270,136.64,2.2713,4.9851,0.9390,-0.0407,-0.3600,0.0190,rough,14.0,2,8.300
4280,136.96,2.2719,4.9874,0.9392,-0.0414,-0.3600,0.0210,rough,14.0,2,8.302
4290,137.28,2.2721,4.9906,0.9391,-0.0423,-0.3599,0.0236,rough,14.0,2,8.304
4300,137.60,2.2722,4.9949,0.9390,-0.0437,-0.3597,0.0274,rough,14.0,2,8.306
4310,137.92,2.2721,5.0008,0.9388,-0.0455,-0.3595,0.0326,rough,14.0,2,8.310
4320,138.24,2.2720,5.0090,0.9384,-0.0480,-0.3592,0.0398,rough,14.0,2,8.316
4330,138.56,2.2717,5.0204,0.9379,-0.0517,-0.3586,0.0503,rough,14.0,2,8.324
4340,138.88,2.2705,5.0359,0.9370,-0.0562,-0.3587,0.0631,rough,14.0,2,8.335
4350,139.20,2.2691,5.0493,0.9358,-0.0493,-0.3584,0.0429,rough,14.0,2,8.345
4360,139.52,2.2691,5.0550,0.9357,-0.0449,-0.3596,0.0303,rough,14.0,2,8.349
4370,139.84,2.2692,5.0580,0.9356,-0.0422,-0.3600,0.0224,rough,14.0,2,8.351
4380,140.16,2.2694,5.0596,0.9356,-0.0408,-0.3602,0.0184,rough,14.0,2,8.352
4390,140.48,2.2695,5.0605,0.9356,-0.0400,-0.3603,0.0162,rough,14.0,2,8.352
4400,140.80,2.2696,5.0610,0.9356,-0.0396,-0.3603,0.0150,rough,14.0,2,8.353
4410,141.12,2.2696,5.0612,0.9356,-0.0394,-0.3603,0.0144,rough,14.0,2,8.353
4420,141.44,2.2696,5.0614,0.9356,-0.0392,-0.3603,0.0140,rough,14.0,2,8.353
4430,141.76,2.2697,5.0614,0.9357,-0.0391,-0.3604,0.0137,rough,14.0,2,8.353
4440,142.08,2.2697,5.0612,0.9357,-0.0389,-0.3604,0.0131,rough,14.0,2,8.353
4450,142.40,2.2697,5.0609,0.9357,-0.0387,-0.3604,0.0125,rough,14.0,2,8.352
4460,142.72,2.2698,5.0603,0.9358,-0.0384,-0.3605,0.0116,rough,14.0,2,8.352
4470,143.04,2.2703,5.0593,0.9360,-0.0380,-0.3605,0.0104,rough,14.0,2,8.351
4480,143.36,2.2706,5.0578,0.9362,-0.0375,-0.3606,0.0089,rough,14.0,2,8.350
4490,143.68,2.2714,5.0556,0.9365,-0.0368,-0.3607,0.0070,rough,14.0,2,8.348
4500,144.00,2.2720,5.0527,0.9369,-0.0359,-0.3608,0.0044,rough,14.0,2,8.345
4510,144.32,2.2721,5.0486,0.9371,-0.0346,-0.3609,0.0008,rough,14.0,2,8.342
4520,144.64,2.2722,5.0430,0.9373,-0.0329,-0.3610,-0.0040,rough,14.0,2,8.339
4530,144.96,2.2721,5.0353,0.9375,-0.0307,-0.3612,-0.0104,rough,14.0,2,8.334
4540,145.28,2.2718,5.0248,0.9378,-0.0277,-0.3615,-0.0189,rough,14.0,2,8.327
4550,145.60,2.2712,5.0108,0.9381,-0.0238,-0.3617,-0.0300,rough,14.0,2,8.318
4560,145.92,2.2698,4.9974,0.9369,-0.0272,-0.3540,-0.0200,rough,14.0,2,8.310
4570,146.24,2.2696,4.9900,0.9370,-0.0321,-0.3532,-0.0058,rough,14.0,2,8.305
4580,146.56,2.2699,4.9863,0.9372,-0.0357,-0.3525,0.0047,rough,14.0,2,8.302
4590,146.88,2.2701,4.9847,0.9386,-0.0371,-0.3603,0.0086,rough,14.0,2,8.301
4600,147.20,2.2699,4.9828,0.9386,-0.0370,-0.3604,0.0082,rough,14.0,2,8.300
4610,147.52,2.2697,4.9814,0.9386,-0.0377,-0.3603,0.0103,rough,14.0,2,8.299
4620,147.84,2.2698,4.9809,0.9386,-0.0383,-0.3603,0.0122,rough,14.0,2,8.299
4630,148.16,2.2698,4.9806,0.9386,-0.0386,-0.3602,0.0130,rough,14.0,2,8.299
4640,148.48,2.2698,4.9805,0.9386,-0.0388,-0.3602,0.0135,rough,14.0,2,8.299
4650,148.80,2.2699,4.9806,0.9387,-0.0390,-0.3602,0.0140,rough,14.0,2,8.298
4660,149.12,2.2701,4.9808,0.9387,-0.0391,-0.3602,0.0145,rough,14.0,2,8.299
4670,149.44,2.2703,4.9812,0.9388,-0.0393,-0.3602,0.0151,rough,14.0,2,8.299
4680,149.76,2.2704,4.9820,0.9388,-0.0397,-0.3601,0.0161,rough,14.0,2,8.299
4690,150.08,2.2708,4.9831,0.9389,-0.0401,-0.3601,0.0172,rough,14.0,2,8.299
4700,150.40,2.2712,4.9846,0.9390,-0.0406,-0.3600,0.0187,rough,14.0,2,8.300
4710,150.72,2.2717,4.9868,0.9391,-0.0412,-0.3600,0.0205,rough,14.0,2,8.301
4720,151.04,2.2721,4.9898,0.9391,-0.0421,-0.3599,0.0230,rough,14.0,2,8.303
4730,151.36,2.2721,4.9938,0.9390,-0.0433,-0.3598,0.0264,rough,14.0,2,8.306
4740,151.68,2.2722,4.9993,0.9388,-0.0450,-0.3596,0.0313,rough,14.0,2,8.309
4750,152.00,2.2721,5.0070,0.9385,-0.0474,-0.3593,0.0380,rough,14.0,2,8.315
4760,152.32,2.2718,5.0175,0.9380,-0.0508,-0.3588,0.0477,rough,14.0,2,8.322
4770,152.64,2.2710,5.0323,0.9372,-0.0559,-0.3580,0.0622,rough,14.0,2,8.332
4780,152.96,2.2692,5.0469,0.9358,-0.0507,-0.3578,0.0472,rough,14.0,2,8.343
4790,153.28,2.2691,5.0540,0.9357,-0.0458,-0.3595,0.0328,rough,14.0,2,8.348
4800,153.60,2.2691,5.0574,0.9356,-0.0426,-0.3600,0.0237,rough,14.0,2,8.351
4810,153.92,2.2693,5.0593,0.9356,-0.0410,-0.3601,0.0191,rough,14.0,2,8.352
4820,154.24,2.2695,5.0603,0.9356,-0.0401,-0.3602,0.0166,rough,14.0,2,8.352
4830,154.56,2.2696,5.0609,0.9356,-0.0397,-0.3603,0.0153,rough,14.0,2,8.353
4840,154.88,2.2696,5.0612,0.9356,-0.0394,-0.3603,0.0145,rough,14.0,2,8.353
4850,155.20,2.2696,5.0613,0.9356,-0.0392,-0.3603,0.0141,rough,14.0,2,8.353
4860,155.52,2.2697,5.0614,0.9357,-0.0391,-0.3603,0.0138,rough,14.0,2,8.353
4870,155.84,2.2697,5.0613,0.9357,-0.0390,-0.3604,0.0133,rough,14.0,2,8.353
4880,156.16,2.2697,5.0610,0.9357,-0.0388,-0.3604,0.0126,rough,14.0,2,8.353
4890,156.48,2.2698,5.0604,0.9357,-0.0385,-0.3604,0.0118,rough,14.0,2,8.352
4900,156.80,2.2701,5.0595,0.9359,-0.0381,-0.3605,0.0107,rough,14.0,2,8.351
4910,157.12,2.2704,5.0581,0.9361,-0.0376,-0.3606,0.0093,rough,14.0,2,8.350
4920,157.44,2.2712,5.0562,0.9364,-0.0370,-0.3606,0.0074,rough,14.0,2,8.348
4930,157.76,2.2719,5.0535,0.9368,-0.0361,-0.3608,0.0050,rough,14.0,2,8.346
4940,158.08,2.2721,5.0497,0.9370,-0.0349,-0.3609,0.0017,rough,14.0,2,8.343
4950,158.40,2.2722,5.0444,0.9372,-0.0334,-0.3610,-0.0028,rough,14.0,2,8.340
4960,158.72,2.2721,5.0373,0.9375,-0.0312,-0.3612,-0.0088,rough,14.0,2,8.335
4970,159.04,2.2719,5.0275,0.9378,-0.0284,-0.3614,-0.0167,rough,14.0,2,8.328
4980,159.36,2.2714,5.0144,0.9380,-0.0248,-0.3617,-0.0271,rough,14.0,2,8.320
4990,159.68,2.2695,4.9990,0.9379,-0.0244,-0.3615,-0.0280,rough,14.0,2,8.311
5000,160.00,2.2692,4.9903,0.9380,-0.0304,-0.3605,-0.0107,rough,14.0,2,8.306
5010,160.32,2.2696,4.9864,0.9382,-0.0349,-0.3598,0.0025,rough,14.0,2,8.303
5020,160.64,2.2702,4.9849,0.9381,-0.0375,-0.3568,0.0098,rough,14.0,2,8.301
5030,160.96,2.2700,4.9836,0.9386,-0.0373,-0.3604,0.0093,rough,14.0,2,8.300
5040,161.28,2.2697,4.9819,0.9386,-0.0371,-0.3604,0.0087,rough,14.0,2,8.300
5050,161.60,2.2698,4.9811,0.9386,-0.0381,-0.3603,0.0115,rough,14.0,2,8.299
5060,161.92,2.2698,4.9807,0.9386,-0.0385,-0.3602,0.0127,rough,14.0,2,8.299
5070,162.24,2.2698,4.9805,0.9386,-0.0387,-0.3602,0.0133,rough,14.0,2,8.299
5080,162.56,2.2699,4.9805,0.9387,-0.0389,-0.3602,0.0137,rough,14.0,2,8.298
5090,162.88,2.2700,4.9807,0.9387,-0.0390,-0.3602,0.0142,rough,14.0,2,8.299
5100,163.20,2.2702,4.9810,0.9388,-0.0392,-0.3602,0.0148,rough,14.0,2,8.299
5110,163.52,2.2704,4.9816,0.9388,-0.0395,-0.3602,0.0155,rough,14.0,2,8.299
5120,163.84,2.2705,4.9825,0.9388,-0.0399,-0.3601,0.0166,rough,14.0,2,8.299
5130,164.16,2.2709,4.9838,0.9389,-0.0403,-0.3601,0.0179,rough,14.0,2,8.300
5140,164.48,2.2714,4.9857,0.9391,-0.0409,-0.3600,0.0196,rough,14.0,2,8.301
5150,164.80,2.2720,4.9882,0.9392,-0.0416,-0.3600,0.0216,rough,14.0,2,8.302
5160,165.12,2.2721,4.9917,0.9391,-0.0427,-0.3598,0.0246,rough,14.0,2,8.304
5170,165.44,2.2722,4.9964,0.9389,-0.0441,-0.3597,0.0287,rough,14.0,2,8.307
5180,165.76,2.2721,5.0029,0.9387,-0.0461,-0.3594,0.0344,rough,14.0,2,8.312
5190,166.08,2.2720,5.0120,0.9383,-0.0490,-0.3590,0.0425,rough,14.0,2,8.318
5200,166.40,2.2715,5.0245,0.9377,-0.0531,-0.3584,0.0543,rough,14.0,2,8.327
5210,166.72,2.2698,5.0402,0.9358,-0.0533,-0.3544,0.0547,rough,14.0,2,8.338
5220,167.04,2.2690,5.0513,0.9357,-0.0479,-0.3590,0.0388,rough,14.0,2,8.347
5230,167.36,2.2690,5.0561,0.9356,-0.0439,-0.3598,0.0273,rough,14.0,2,8.350
5240,167.68,2.2692,5.0586,0.9356,-0.0417,-0.3601,0.0210,rough,14.0,2,8.351
5250,168.00,2.2694,5.0599,0.9356,-0.0405,-0.3602,0.0176,rough,14.0,2,8.352
5260,168.32,2.2695,5.0607,0.9356,-0.0399,-0.3603,0.0158,rough,14.0,2,8.352
5270,168.64,2.2696,5.0611,0.9356,-0.0395,-0.3603,0.0148,rough,14.0,2,8.353
5280,168.96,2.2696,5.0613,0.9356,-0.0393,-0.3603,0.0143,rough,14.0,2,8.353
5290,169.28,2.2696,5.0614,0.9357,-0.0392,-0.3603,0.0139,rough,14.0,2,8.353
5300,169.60,2.2697,5.0614,0.9357,-0.0391,-0.3604,0.0135,rough,14.0,2,8.353
5310,169.92,2.2697,5.0612,0.9357,-0.0389,-0.3604,0.0130,rough,14.0,2,8.353
5320,170.24,2.2698,5.0607,0.9357,-0.0386,-0.3604,0.0122,rough,14.0,2,8.352
5330,170.56,2.2698,5.0600,0.9358,-0.0383,-0.3605,0.0113,rough,14.0,2,8.352
5340,170.88,2.2704,5.0589,0.9360,-0.0379,-0.3605,0.0100,rough,14.0,2,8.351
5350,171.20,2.2709,5.0572,0.9363,-0.0373,-0.3606,0.0084,rough,14.0,2,8.349
5360,171.52,2.2716,5.0549,0.9366,-0.0366,-0.3607,0.0063,rough,14.0,2,8.347
5370,171.84,2.2720,5.0517,0.9369,-0.0356,-0.3608,0.0034,rough,14.0,2,8.345
5380,172.16,2.2721,5.0472,0.9371,-0.0342,-0.3609,-0.0004,rough,14.0,2,8.341
5390,172.48,2.2721,5.0410,0.9373,-0.0323,-0.3611,-0.0057,rough,14.0,2,8.337
5400,172.80,2.2720,5.0326,0.9376,-0.0299,-0.3613,-0.0126,rough,14.0,2,8.332
5410,173.12,2.2717,5.0212,0.9379,-0.0267,-0.3615,-0.0217,rough,14.0,2,8.324
5420,173.44,2.2709,5.0059,0.9382,-0.0224,-0.3618,-0.0339,rough,14.0,2,8.315
5430,173.76,2.2693,4.9946,0.9381,-0.0278,-0.3620,-0.0182,rough,14.0,2,8.308
5440,174.08,2.2693,4.9883,0.9383,-0.0324,-0.3612,-0.0048,rough,14.0,2,8.304
5450,174.40,2.2698,4.9855,0.9385,-0.0359,-0.3606,0.0053,rough,14.0,2,8.302
5460,174.72,2.2700,4.9841,0.9386,-0.0369,-0.3604,0.0081,rough,14.0,2,8.301
5470,175.04,2.2697,4.9822,0.9385,-0.0368,-0.3604,0.0079,rough,14.0,2,8.300
5480,175.36,2.2697,4.9812,0.9386,-0.0379,-0.3603,0.0110,rough,14.0,2,8.299
5490,175.68,2.2698,4.9808,0.9386,-0.0384,-0.3603,0.0125,rough,14.0,2,8.299
5500,176.00,2.2698,4.9806,0.9386,-0.0387,-0.3602,0.0132,rough,14.0,2,8.299
5510,176.32,2.2698,4.9805,0.9387,-0.0388,-0.3602,0.0136,rough,14.0,2,8.298
5520,176.64,2.2699,4.9806,0.9387,-0.0390,-0.3602,0.0141,rough,14.0,2,8.298
5530,176.96,2.2701,4.9809,0.9387,-0.0392,-0.3602,0.0147,rough,14.0,2,8.299
5540,177.28,2.2704,4.9814,0.9388,-0.0394,-0.3602,0.0153,rough,14.0,2,8.299
5550,177.60,2.2704,4.9823,0.9388,-0.0398,-0.3601,0.0164,rough,14.0,2,8.299
5560,177.92,2.2709,4.9835,0.9389,-0.0402,-0.3601,0.0176,rough,14.0,2,8.300
5570,178.24,2.2713,4.9852,0.9390,-0.0408,-0.3600,0.0192,rough,14.0,2,8.301
5580,178.56,2.2719,4.9876,0.9392,-0.0414,-0.3600,0.0211,rough,14.0,2,8.302
5590,178.88,2.2721,4.9908,0.9391,-0.0424,-0.3599,0.0239,rough,14.0,2,8.304
5600,179.20,2.2722,4.9953,0.9390,-0.0438,-0.3597,0.0277,rough,14.0,2,8.307
5610,179.52,2.2721,5.0014,0.9388,-0.0457,-0.3595,0.0330,rough,14.0,2,8.311
5620,179.84,2.2720,5.0098,0.9384,-0.0483,-0.3591,0.0405,rough,14.0,2,8.316
5630,180.16,2.2716,5.0214,0.9378,-0.0521,-0.3586,0.0513,rough,14.0,2,8.325
5640,180.48,2.2704,5.0369,0.9343,-0.0542,-0.3424,0.0573,rough,14.0,2,8.336
5650,180.80,2.2690,5.0498,0.9358,-0.0490,-0.3587,0.0419,rough,14.0,2,8.346
5660,181.12,2.2691,5.0553,0.9357,-0.0446,-0.3597,0.0295,rough,14.0,2,8.349
5670,181.44,2.2692,5.0581,0.9356,-0.0421,-0.3600,0.0221,rough,14.0,2,8.351
5680,181.76,2.2694,5.0597,0.9356,-0.0407,-0.3602,0.0182,rough,14.0,2,8.352
5690,182.08,2.2695,5.0605,0.9356,-0.0400,-0.3603,0.0161,rough,14.0,2,8.352
5700,182.40,2.2696,5.0610,0.9356,-0.0396,-0.3603,0.0150,rough,14.0,2,8.353
5710,182.72,2.2696,5.0612,0.9356,-0.0393,-0.3603,0.0144,rough,14.0,2,8.353
5720,183.04,2.2696,5.0614,0.9356,-0.0392,-0.3603,0.0140,rough,14.0,2,8.353
5730,183.36,2.2697,5.0614,0.9357,-0.0391,-0.3604,0.0136,rough,14.0,2,8.353
5740,183.68,2.2697,5.0612,0.9357,-0.0389,-0.3604,0.0131,rough,14.0,2,8.353
5750,184.00,2.2697,5.0609,0.9357,-0.0387,-0.3604,0.0124,rough,14.0,2,8.352
5760,184.32,2.2698,5.0602,0.9358,-0.0384,-0.3605,0.0115,rough,14.0,2,8.352
5770,184.64,2.2703,5.0592,0.9360,-0.0380,-0.3605,0.0103,rough,14.0,2,8.351
5780,184.96,2.2707,5.0577,0.9362,-0.0374,-0.3606,0.0088,rough,14.0,2,8.350
5790,185.28,2.2714,5.0555,0.9366,-0.0368,-0.3607,0.0068,rough,14.0,2,8.348
5800,185.60,2.2720,5.0525,0.9369,-0.0358,-0.3608,0.0042,rough,14.0,2,8.345
5810,185.92,2.2721,5.0483,0.9371,-0.0345,-0.3609,0.0006,rough,14.0,2,8.342
5820,186.24,2.2722,5.0426,0.9373,-0.0328,-0.3610,-0.0043,rough,14.0,2,8.338
5830,186.56,2.2721,5.0348,0.9375,-0.0305,-0.3612,-0.0109,rough,14.0,2,8.333
5840,186.88,2.2718,5.0241,0.9378,-0.0275,-0.3615,-0.0194,rough,14.0,2,8.326
5850,187.20,2.2711,5.0099,0.9381,-0.0235,-0.3617,-0.0308,rough,14.0,2,8.317
5860,187.52,2.2697,4.9973,0.9376,-0.0274,-0.3585,-0.0194,rough,14.0,2,8.310
5870,187.84,2.2694,4.9896,0.9377,-0.0318,-0.3579,-0.0066,rough,14.0,2,8.305
5880,188.16,2.2698,4.9861,0.9379,-0.0357,-0.3573,0.0046,rough,14.0,2,8.302
5890,188.48,2.2700,4.9845,0.9386,-0.0369,-0.3604,0.0081,rough,14.0,2,8.301
5900,188.80,2.2698,4.9825,0.9385,-0.0368,-0.3604,0.0076,rough,14.0,2,8.300
5910,189.12,2.2697,4.9813,0.9386,-0.0378,-0.3603,0.0107,rough,14.0,2,8.299
5920,189.44,2.2698,4.9808,0.9386,-0.0384,-0.3603,0.0123,rough,14.0,2,8.299
5930,189.76,2.2698,4.9806,0.9386,-0.0387,-0.3602,0.0131,rough,14.0,2,8.299
5940,190.08,2.2698,4.9805,0.9386,-0.0388,-0.3602,0.0136,rough,14.0,2,8.298
5950,190.40,2.2699,4.9806,0.9387,-0.0390,-0.3602,0.0140,rough,14.0,2,8.298
5960,190.72,2.2701,4.9808,0.9387,-0.0392,-0.3602,0.0146,rough,14.0,2,8.299
5970,191.04,2.2704,4.9813,0.9388,-0.0394,-0.3602,0.0152,rough,14.0,2,8.299
5980,191.36,2.2704,4.9821,0.9388,-0.0397,-0.3601,0.0162,rough,14.0,2,8.299
5990,191.68,2.2709,4.9833,0.9389,-0.0401,-0.3601,0.0174,rough,14.0,2,8.300
6000,192.00,2.2713,4.9849,0.9391,-0.0406,-0.3600,0.0189,rough,14.0,2,8.300
6010,192.32,2.2718,4.9872,0.9391,-0.0413,-0.3600,0.0208,rough,14.0,2,8.301
6020,192.64,2.2721,4.9902,0.9391,-0.0422,-0.3599,0.0234,rough,14.0,2,8.303
6030,192.96,2.2721,4.9944,0.9390,-0.0435,-0.3597,0.0270,rough,14.0,2,8.306
6040,193.28,2.2722,5.0002,0.9388,-0.0453,-0.3595,0.0320,rough,14.0,2,8.310
6050,193.60,2.2721,5.0082,0.9385,-0.0478,-0.3592,0.0390,rough,14.0,2,8.315
6060,193.92,2.2717,5.0192,0.9380,-0.0513,-0.3587,0.0492,rough,14.0,2,8.323
6070,194.24,2.2709,5.0347,0.9371,-0.0567,-0.3578,0.0647,rough,14.0,2,8.334
6080,194.56,2.2691,5.0484,0.9358,-0.0499,-0.3582,0.0447,rough,14.0,2,8.345
6090,194.88,2.2692,5.0547,0.9357,-0.0452,-0.3596,0.0313,rough,14.0,2,8.349
6100,195.20,2.2691,5.0578,0.9356,-0.0423,-0.3600,0.0228,rough,14.0,2,8.351
6110,195.52,2.2694,5.0595,0.9356,-0.0409,-0.3602,0.0186,rough,14.0,2,8.352
6120,195.84,2.2695,5.0604,0.9356,-0.0400,-0.3602,0.0164,rough,14.0,2,8.352
6130,196.16,2.2696,5.0609,0.9356,-0.0396,-0.3603,0.0151,rough,14.0,2,8.353
6140,196.48,2.2696,5.0612,0.9356,-0.0394,-0.3603,0.0144,rough,14.0,2,8.353
6150,196.80,2.2696,5.0614,0.9356,-0.0392,-0.3603,0.0141,rough,14.0,2,8.353
6160,197.12,2.2697,5.0614,0.9357,-0.0391,-0.3604,0.0137,rough,14.0,2,8.353
6170,197.44,2.2697,5.0613,0.9357,-0.0389,-0.3604,0.0132,rough,14.0,2,8.353
6180,197.76,2.2697,5.0609,0.9357,-0.0387,-0.3604,0.0125,rough,14.0,2,8.352
6190,198.08,2.2698,5.0603,0.9357,-0.0384,-0.3605,0.0117,rough,14.0,2,8.352
6200,198.40,2.2703,5.0594,0.9360,-0.0380,-0.3605,0.0105,rough,14.0,2,8.351
6210,198.72,2.2706,5.0579,0.9361,-0.0375,-0.3606,0.0090,rough,14.0,2,8.350
6220,199.04,2.2713,5.0558,0.9365,-0.0369,-0.3607,0.0071,rough,14.0,2,8.348
6230,199.36,2.2719,5.0530,0.9368,-0.0360,-0.3608,0.0046,rough,14.0,2,8.345
6240,199.68,2.2721,5.0490,0.9370,-0.0347,-0.3609,0.0011,rough,14.0,2,8.343
6250,200.00,2.2722,5.0435,0.9373,-0.0331,-0.3610,-0.0036,rough,14.0,2,8.339
6260,200.32,2.2721,5.0360,0.9375,-0.0310,-0.3613,-0.0098,rough,14.0,2,8.334
6270,200.64,2.2719,5.0258,0.9378,-0.0280,-0.3614,-0.0181,rough,14.0,2,8.327
6280,200.96,2.2713,5.0121,0.9381,-0.0242,-0.3617,-0.0289,rough,14.0,2,8.319
6290,201.28,2.2698,4.9984,0.9357,-0.0268,-0.3466,-0.0211,rough,14.0,2,8.310
6300,201.60,2.2697,4.9905,0.9357,-0.0318,-0.3449,-0.0066,rough,14.0,2,8.305
6310,201.92,2.2699,4.9865,0.9359,-0.0355,-0.3443,0.0041,rough,14.0,2,8.302
6320,202.24,2.2701,4.9848,0.9386,-0.0373,-0.3601,0.0092,rough,14.0,2,8.301
6330,202.56,2.2705,4.9843,0.9387,-0.0381,-0.3600,0.0115,rough,14.0,2,8.300
6340,202.88,2.2702,4.9833,0.9387,-0.0379,-0.3603,0.0108,rough,14.0,2,8.300
6350,203.20,2.2700,4.9822,0.9386,-0.0376,-0.3604,0.0102,rough,14.0,2,8.300
6360,203.52,2.2698,4.9811,0.9386,-0.0380,-0.3603,0.0112,rough,14.0,2,8.299
6370,203.84,2.2698,4.9808,0.9386,-0.0385,-0.3602,0.0126,rough,14.0,2,8.299
6380,204.16,2.2698,4.9806,0.9386,-0.0387,-0.3602,0.0132,rough,14.0,2,8.299
6390,204.48,2.2699,4.9805,0.9387,-0.0389,-0.3602,0.0137,rough,14.0,2,8.298
6400,204.80,2.2700,4.9806,0.9387,-0.0390,-0.3602,0.0142,rough,14.0,2,8.299
6410,205.12,2.2701,4.9810,0.9387,-0.0392,-0.3602,0.0147,rough,14.0,2,8.299
6420,205.44,2.2704,4.9815,0.9388,-0.0395,-0.3602,0.0154,rough,14.0,2,8.299
6430,205.76,2.2705,4.9824,0.9388,-0.0398,-0.3601,0.0165,rough,14.0,2,8.299
6440,206.08,2.2709,4.9836,0.9389,-0.0403,-0.3601,0.0177,rough,14.0,2,8.300
6450,206.40,2.2714,4.9855,0.9390,-0.0408,-0.3600,0.0193,rough,14.0,2,8.301
6460,206.72,2.2719,4.9879,0.9392,-0.0415,-0.3600,0.0214,rough,14.0,2,8.302
6470,207.04,2.2721,4.9912,0.9391,-0.0425,-0.3599,0.0242,rough,14.0,2,8.304
6480,207.36,2.2722,4.9958,0.9390,-0.0440,-0.3597,0.0282,rough,14.0,2,8.307
6490,207.68,2.2721,5.0021,0.9387,-0.0459,-0.3595,0.0337,rough,14.0,2,8.311
6500,208.00,2.2720,5.0108,0.9384,-0.0486,-0.3591,0.0415,rough,14.0,2,8.317
6510,208.32,2.2716,5.0229,0.9378,-0.0526,-0.3585,0.0528,rough,14.0,2,8.326
6520,208.64,2.2701,5.0386,0.9354,-0.0539,-0.3507,0.0564,rough,14.0,2,8.337
6530,208.96,2.2689,5.0506,0.9357,-0.0484,-0.3588,0.0403,rough,14.0,2,8.346
6540,209.28,2.2690,5.0557,0.9356,-0.0442,-0.3597,0.0283,rough,14.0,2,8.349
6550,209.60,2.2692,5.0583,0.9356,-0.0419,-0.3600,0.0215,rough,14.0,2,8.351
6560,209.92,2.2694,5.0598,0.9356,-0.0406,-0.3602,0.0179,rough,14.0,2,8.352
6570,210.24,2.2695,5.0606,0.9356,-0.0399,-0.3603,0.0160,rough,14.0,2,8.352
6580,210.56,2.2696,5.0610,0.9356,-0.0395,-0.3603,0.0149,rough,14.0,2,8.353
6590,210.88,2.2696,5.0613,0.9356,-0.0393,-0.3603,0.0143,rough,14.0,2,8.353
6600,211.20,2.2696,5.0614,0.9356,-0.0392,-0.3603,0.0140,rough,14.0,2,8.353
6610,211.52,2.2697,5.0614,0.9357,-0.0391,-0.3604,0.0136,rough,14.0,2,8.353
6620,211.84,2.2697,5.0612,0.9357,-0.0389,-0.3604,0.0130,rough,14.0,2,8.353
6630,212.16,2.2698,5.0608,0.9357,-0.0387,-0.3604,0.0123,rough,14.0,2,8.352
6640,212.48,2.2698,5.0601,0.9358,-0.0383,-0.3605,0.0114,rough,14.0,2,8.352
6650,212.80,2.2704,5.0590,0.9360,-0.0379,-0.3605,0.0102,rough,14.0,2,8.351
6660,213.12,2.2708,5.0574,0.9362,-0.0374,-0.3606,0.0086,rough,14.0,2,8.349
6670,213.44,2.2715,5.0552,0.9366,-0.0367,-0.3607,0.0066,rough,14.0,2,8.347
6680,213.76,2.2720,5.0521,0.9369,-0.0357,-0.3608,0.0038,rough,14.0,2,8.345
6690,214.08,2.2721,5.0478,0.9371,-0.0344,-0.3609,0.0001,rough,14.0,2,8.342
6700,214.40,2.2722,5.0418,0.9373,-0.0326,-0.3611,-0.0050,rough,14.0,2,8.338
6710,214.72,2.2721,5.0337,0.9376,-0.0302,-0.3613,-0.0117,rough,14.0,2,8.332
6720,215.04,2.2717,5.0227,0.9379,-0.0271,-0.3615,-0.0206,rough,14.0,2,8.325
6730,215.36,2.2710,5.0079,0.9381,-0.0230,-0.3618,-0.0323,rough,14.0,2,8.316
6740,215.68,2.2693,4.9951,0.9379,-0.0272,-0.3607,-0.0198,rough,14.0,2,8.309
6750,216.00,2.2694,4.9885,0.9381,-0.0323,-0.3603,-0.0050,rough,14.0,2,8.304
6760,216.32,2.2698,4.9857,0.9383,-0.0361,-0.3595,0.0057,rough,14.0,2,8.302
6770,216.64,2.2701,4.9843,0.9386,-0.0371,-0.3603,0.0087,rough,14.0,2,8.301
6780,216.96,2.2698,4.9824,0.9386,-0.0369,-0.3604,0.0079,rough,14.0,2,8.300
6790,217.28,2.2697,4.9813,0.9386,-0.0378,-0.3603,0.0108,rough,14.0,2,8.299
6800,217.60,2.2698,4.9808,0.9386,-0.0384,-0.3603,0.0124,rough,14.0,2,8.299
6810,217.92,2.2698,4.9806,0.9386,-0.0387,-0.3602,0.0131,rough,14.0,2,8.299
6820,218.24,2.2698,4.9805,0.9387,-0.0388,-0.3602,0.0136,rough,14.0,2,8.298
6830,218.56,2.2699,4.9806,0.9387,-0.0390,-0.3602,0.0141,rough,14.0,2,8.298
6840,218.88,2.2701,4.9809,0.9387,-0.0392,-0.3602,0.0146,rough,14.0,2,8.299
6850,219.20,2.2704,4.9814,0.9388,-0.0394,-0.3602,0.0152,rough,14.0,2,8.299
6860,219.52,2.2704,4.9821,0.9388,-0.0398,-0.3601,0.0163,rough,14.0,2,8.299
6870,219.84,2.2709,4.9833,0.9389,-0.0401,-0.3601,0.0174,rough,14.0,2,8.300
6880,220.16,2.2713,4.9850,0.9390,-0.0407,-0.3600,0.0189,rough,14.0,2,8.300
6890,220.48,2.2718,4.9873,0.9391,-0.0414,-0.3600,0.0209,rough,14.0,2,8.302
6900,220.80,2.2721,4.9904,0.9391,-0.0423,-0.3599,0.0235,rough,14.0,2,8.303
6910,221.12,2.2721,4.9947,0.9390,-0.0436,-0.3597,0.0272,rough,14.0,2,8.306
6920,221.44,2.2722,5.0005,0.9388,-0.0454,-0.3595,0.0323,rough,14.0,2,8.310
6930,221.76,2.2721,5.0086,0.9385,-0.0479,-0.3592,0.0394,rough,14.0,2,8.316
6940,222.08,2.2717,5.0198,0.9379,-0.0515,-0.3587,0.0498,rough,14.0,2,8.323
6950,222.40,2.2705,5.0351,0.9370,-0.0559,-0.3587,0.0623,rough,14.0,2,8.335
6960,222.72,2.2692,5.0481,0.9359,-0.0500,-0.3586,0.0450,rough,14.0,2,8.344
6970,223.04,2.2692,5.0544,0.9357,-0.0454,-0.3596,0.0319,rough,14.0,2,8.348
6980,223.36,2.2691,5.0576,0.9356,-0.0425,-0.3600,0.0232,rough,14.0,2,8.351
6990,223.68,2.2694,5.0594,0.9356,-0.0409,-0.3601,0.0189,rough,14.0,2,8.352
7000,224.00,2.2695,5.0604,0.9356,-0.0401,-0.3602,0.0165,rough,14.0,2,8.352
7010,224.32,2.2696,5.0609,0.9356,-0.0396,-0.3603,0.0152,rough,14.0,2,8.353
7020,224.64,2.2696,5.0612,0.9356,-0.0394,-0.3603,0.0145,rough,14.0,2,8.353
7030,224.96,2.2696,5.0614,0.9356,-0.0392,-0.3603,0.0141,rough,14.0,2,8.353
7040,225.28,2.2697,5.0614,0.9357,-0.0391,-0.3604,0.0137,rough,14.0,2,8.353
7050,225.60,2.2697,5.0613,0.9357,-0.0390,-0.3604,0.0132,rough,14.0,2,8.353
7060,225.92,2.2697,5.0610,0.9357,-0.0387,-0.3604,0.0126,rough,14.0,2,8.352
7070,226.24,2.2698,5.0604,0.9357,-0.0384,-0.3604,0.0117,rough,14.0,2,8.352
7080,226.56,2.2702,5.0594,0.9359,-0.0381,-0.3605,0.0106,rough,14.0,2,8.351
7090,226.88,2.2704,5.0580,0.9361,-0.0376,-0.3606,0.0091,rough,14.0,2,8.350
7100,227.20,2.2712,5.0560,0.9365,-0.0369,-0.3607,0.0073,rough,14.0,2,8.348
7110,227.52,2.2719,5.0532,0.9368,-0.0361,-0.3608,0.0048,rough,14.0,2,8.346
7120,227.84,2.2721,5.0493,0.9370,-0.0348,-0.3609,0.0014,rough,14.0,2,8.343
7130,228.16,2.2722,5.0440,0.9372,-0.0332,-0.3610,-0.0032,rough,14.0,2,8.339
7140,228.48,2.2721,5.0366,0.9375,-0.0310,-0.3612,-0.0093,rough,14.0,2,8.334
7150,228.80,2.2719,5.0266,0.9378,-0.0282,-0.3614,-0.0174,rough,14.0,2,8.328
7160,229.12,2.2713,5.0132,0.9381,-0.0245,-0.3617,-0.0280,rough,14.0,2,8.319
7170,229.44,2.2700,4.9997,0.9359,-0.0267,-0.3479,-0.0212,rough,14.0,2,8.311
7180,229.76,2.2696,4.9912,0.9357,-0.0312,-0.3450,-0.0083,rough,14.0,2,8.306
7190,230.08,2.2698,4.9868,0.9359,-0.0351,-0.3444,0.0030,rough,14.0,2,8.303
7200,230.40,2.2700,4.9849,0.9386,-0.0369,-0.3605,0.0080,rough,14.0,2,8.301
7210,230.72,2.2704,4.9841,0.9387,-0.0377,-0.3602,0.0105,rough,14.0,2,8.301
7220,231.04,2.2700,4.9828,0.9386,-0.0375,-0.3604,0.0097,rough,14.0,2,8.300
7230,231.36,2.2697,4.9814,0.9386,-0.0376,-0.3604,0.0101,rough,14.0,2,8.299
7240,231.68,2.2698,4.9809,0.9386,-0.0383,-0.3603,0.0122,rough,14.0,2,8.299
7250,232.00,2.2698,4.9806,0.9386,-0.0386,-0.3602,0.0130,rough,14.0,2,8.299
7260,232.32,2.2698,4.9805,0.9386,-0.0388,-0.3602,0.0135,rough,14.0,2,8.299
7270,232.64,2.2699,4.9806,0.9387,-0.0390,-0.3602,0.0140,rough,14.0,2,8.298
7280,232.96,2.2700,4.9808,0.9387,-0.0391,-0.3602,0.0145,rough,14.0,2,8.299
7290,233.28,2.2703,4.9812,0.9388,-0.0393,-0.3602,0.0151,rough,14.0,2,8.299
7300,233.60,2.2704,4.9820,0.9388,-0.0397,-0.3601,0.0160,rough,14.0,2,8.299
7310,233.92,2.2708,4.9831,0.9389,-0.0401,-0.3601,0.0171,rough,14.0,2,8.299
7320,234.24,2.2712,4.9846,0.9390,-0.0406,-0.3601,0.0186,rough,14.0,2,8.300
7330,234.56,2.2717,4.9868,0.9391,-0.0412,-0.3600,0.0204,rough,14.0,2,8.301
7340,234.88,2.2721,4.9897,0.9391,-0.0421,-0.3599,0.0229,rough,14.0,2,8.303
7350,235.20,2.2721,4.9937,0.9390,-0.0433,-0.3598,0.0263,rough,14.0,2,8.306
7360,235.52,2.2722,4.9992,0.9388,-0.0450,-0.3596,0.0311,rough,14.0,2,8.309
7370,235.84,2.2721,5.0067,0.9385,-0.0473,-0.3593,0.0378,rough,14.0,2,8.314
7380,236.16,2.2718,5.0172,0.9381,-0.0507,-0.3588,0.0473,rough,14.0,2,8.322
7390,236.48,2.2711,5.0319,0.9372,-0.0557,-0.3580,0.0617,rough,14.0,2,8.332
7400,236.80,2.2694,5.0462,0.9360,-0.0508,-0.3582,0.0473,rough,14.0,2,8.343
7410,237.12,2.2691,5.0534,0.9357,-0.0463,-0.3595,0.0343,rough,14.0,2,8.348
7420,237.44,2.2691,5.0571,0.9356,-0.0429,-0.3599,0.0245,rough,14.0,2,8.350
7430,237.76,2.2693,5.0591,0.9356,-0.0412,-0.3601,0.0196,rough,14.0,2,8.352
7440,238.08,2.2695,5.0602,0.9356,-0.0402,-0.3602,0.0169,rough,14.0,2,8.352
7450,238.40,2.2696,5.0608,0.9356,-0.0397,-0.3603,0.0154,rough,14.0,2,8.353
7460,238.72,2.2696,5.0612,0.9356,-0.0394,-0.3603,0.0146,rough,14.0,2,8.353
7470,239.04,2.2696,5.0613,0.9356,-0.0393,-0.3603,0.0141,rough,14.0,2,8.353
7480,239.36,2.2697,5.0614,0.9357,-0.0391,-0.3603,0.0138,rough,14.0,2,8.353
7490,239.68,2.2697,5.0613,0.9357,-0.0390,-0.3604,0.0133,rough,14.0,2,8.353
7500,240.00,2.2697,5.0611,0.9357,-0.0388,-0.3604,0.0127,rough,14.0,2,8.353
7510,240.32,2.2698,5.0605,0.9357,-0.0385,-0.3604,0.0119,rough,14.0,2,8.352
7520,240.64,2.2700,5.0597,0.9359,-0.0382,-0.3605,0.0109,rough,14.0,2,8.351
7530,240.96,2.2704,5.0584,0.9361,-0.0377,-0.3606,0.0095,rough,14.0,2,8.350
7540,241.28,2.2710,5.0565,0.9364,-0.0371,-0.3606,0.0077,rough,14.0,2,8.349
7550,241.60,2.2718,5.0539,0.9368,-0.0363,-0.3607,0.0054,rough,14.0,2,8.346
7560,241.92,2.2721,5.0503,0.9370,-0.0351,-0.3608,0.0022,rough,14.0,2,8.344
7570,242.24,2.2722,5.0452,0.9372,-0.0336,-0.3610,-0.0021,rough,14.0,2,8.340
7580,242.56,2.2721,5.0384,0.9374,-0.0316,-0.3611,-0.0079,rough,14.0,2,8.336
7590,242.88,2.2719,5.0290,0.9377,-0.0289,-0.3614,-0.0155,rough,14.0,2,8.329
7600,243.20,2.2715,5.0164,0.9380,-0.0254,-0.3616,-0.0255,rough,14.0,2,8.321
7610,243.52,2.2703,5.0020,0.9378,-0.0256,-0.3596,-0.0247,rough,14.0,2,8.313
7620,243.84,2.2694,4.9926,0.9380,-0.0298,-0.3609,-0.0122,rough,14.0,2,8.307
7630,244.16,2.2696,4.9875,0.9382,-0.0338,-0.3602,-0.0009,rough,14.0,2,8.303
7640,244.48,2.2700,4.9853,0.9384,-0.0367,-0.3593,0.0076,rough,14.0,2,8.302
7650,244.80,2.2703,4.9843,0.9387,-0.0377,-0.3601,0.0104,rough,14.0,2,8.301
7660,245.12,2.2699,4.9830,0.9386,-0.0375,-0.3604,0.0097,rough,14.0,2,8.300
7670,245.44,2.2697,4.9815,0.9386,-0.0375,-0.3604,0.0098,rough,14.0,2,8.299
7680,245.76,2.2698,4.9809,0.9386,-0.0383,-0.3603,0.0120,rough,14.0,2,8.299
7690,246.08,2.2698,4.9806,0.9386,-0.0386,-0.3602,0.0130,rough,14.0,2,8.299
7700,246.40,2.2698,4.9805,0.9386,-0.0388,-0.3602,0.0134,rough,14.0,2,8.299
7710,246.72,2.2699,4.9805,0.9387,-0.0389,-0.3602,0.0139,rough,14.0,2,8.298
7720,247.04,2.2700,4.9808,0.9387,-0.0391,-0.3602,0.0144,rough,14.0,2,8.299
7730,247.36,2.2703,4.9812,0.9388,-0.0393,-0.3602,0.0150,rough,14.0,2,8.299
7740,247.68,2.2703,4.9819,0.9388,-0.0396,-0.3601,0.0159,rough,14.0,2,8.299
7750,248.00,2.2707,4.9829,0.9389,-0.0400,-0.3601,0.0170,rough,14.0,2,8.299
7760,248.32,2.2711,4.9844,0.9390,-0.0405,-0.3601,0.0185,rough,14.0,2,8.300
7770,248.64,2.2716,4.9865,0.9391,-0.0411,-0.3600,0.0202,rough,14.0,2,8.301
7780,248.96,2.2720,4.9893,0.9392,-0.0420,-0.3599,0.0226,rough,14.0,2,8.303
7790,249.28,2.2721,4.9932,0.9391,-0.0431,-0.3598,0.0259,rough,14.0,2,8.305
7800,249.60,2.2722,4.9985,0.9389,-0.0448,-0.3596,0.0306,rough,14.0,2,8.309
7810,249.92,2.2721,5.0058,0.9386,-0.0470,-0.3593,0.0370,rough,14.0,2,8.314
7820,250.24,2.2719,5.0160,0.9381,-0.0503,-0.3589,0.0462,rough,14.0,2,8.321
7830,250.56,2.2712,5.0301,0.9373,-0.0551,-0.3581,0.0599,rough,14.0,2,8.331
7840,250.88,2.2695,5.0449,0.9361,-0.0513,-0.3579,0.0487,rough,14.0,2,8.342
7850,251.20,2.2690,5.0528,0.9357,-0.0467,-0.3594,0.0355,rough,14.0,2,8.348
7860,251.52,2.2691,5.0568,0.9356,-0.0432,-0.3599,0.0253,rough,14.0,2,8.350
7870,251.84,2.2693,5.0590,0.9356,-0.0413,-0.3601,0.0200,rough,14.0,2,8.351
7880,252.16,2.2695,5.0601,0.9356,-0.0403,-0.3602,0.0171,rough,14.0,2,8.352
7890,252.48,2.2695,5.0608,0.9356,-0.0397,-0.3603,0.0155,rough,14.0,2,8.353
7900,252.80,2.2696,5.0611,0.9356,-0.0394,-0.3603,0.0147,rough,14.0,2,8.353
7910,253.12,2.2696,5.0613,0.9356,-0.0393,-0.3603,0.0142,rough,14.0,2,8.353
7920,253.44,2.2696,5.0614,0.9357,-0.0392,-0.3603,0.0138,rough,14.0,2,8.353
7930,253.76,2.2697,5.0613,0.9357,-0.0390,-0.3604,0.0134,rough,14.0,2,8.353
7940,254.08,2.2697,5.0611,0.9357,-0.0388,-0.3604,0.0128,rough,14.0,2,8.353
7950,254.40,2.2698,5.0606,0.9357,-0.0385,-0.3604,0.0120,rough,14.0,2,8.352
7960,254.72,2.2699,5.0598,0.9358,-0.0382,-0.3605,0.0110,rough,14.0,2,8.352
7970,255.04,2.2704,5.0585,0.9361,-0.0377,-0.3605,0.0097,rough,14.0,2,8.350
7980,255.36,2.2710,5.0567,0.9364,-0.0371,-0.3606,0.0079,rough,14.0,2,8.349
7990,255.68,2.2718,5.0542,0.9367,-0.0364,-0.3607,0.0057,rough,14.0,2,8.346
8000,256.00,2.2721,5.0507,0.9370,-0.0353,-0.3608,0.0026,rough,14.0,2,8.344
8010,256.32,2.2722,5.0459,0.9372,-0.0338,-0.3610,-0.0016,rough,14.0,2,8.341
8020,256.64,2.2721,5.0392,0.9374,-0.0318,-0.3611,-0.0072,rough,14.0,2,8.336
8030,256.96,2.2720,5.0302,0.9377,-0.0292,-0.3614,-0.0146,rough,14.0,2,8.330
