step,time_s,x,y,z,roll,pitch,yaw,terrain,speed,target_idx,dist_to_target
10,0.32,2.0613,0.4848,0.3119,0.1221,-0.0331,0.0327,rough,14.0,0,6.364
20,0.64,2.3518,0.5047,0.2735,0.0588,0.1440,0.0300,slope,18.0,0,6.077
30,0.96,2.8366,0.5541,0.1582,-0.0908,0.3080,0.0631,slope,18.0,0,5.596
40,1.28,3.3539,0.6249,-0.0041,-0.1768,0.2813,0.1482,slope,18.0,0,5.079
50,1.60,3.7779,0.6965,-0.0862,-0.0731,0.1612,0.2053,rough,14.0,0,4.652
60,1.92,4.1580,0.8033,-0.1395,-0.1521,0.1079,0.2680,rough,14.0,0,4.257
70,2.24,4.6554,0.9457,-0.3355,-0.0020,0.7555,0.3384,rough,14.0,0,3.740
80,2.56,5.0460,1.0641,-0.5790,0.0753,0.3807,0.5925,rough,14.0,0,3.332
90,2.88,5.2458,1.1586,-0.6339,0.2674,0.0311,1.0477,rough,14.0,0,3.113
100,3.20,5.3622,1.3727,-0.6511,0.2211,0.0141,1.4661,rough,14.0,0,2.947
110,3.52,5.4009,1.5499,-0.6593,0.0631,-0.1799,1.8959,rough,14.0,0,2.874
120,3.84,5.3222,1.7864,-0.6201,0.0704,-0.1108,2.2280,rough,14.0,0,2.922
130,4.16,5.1292,2.0078,-0.6298,-0.0418,0.0340,2.2812,rough,14.0,0,3.104
140,4.48,4.9350,2.2602,-0.6860,0.0068,0.2977,2.0549,rough,14.0,0,3.306
150,4.80,4.8058,2.4858,-0.7241,-0.1097,0.0105,1.6571,rough,14.0,0,3.457
160,5.12,4.8199,2.8862,-0.7636,0.0309,0.0716,1.4877,rough,14.0,0,3.518
170,5.44,4.9357,3.3001,-0.8365,0.4385,0.2004,1.4921,rough,14.0,0,3.532
180,5.76,5.0195,3.7055,-0.9275,0.5798,0.2329,1.4467,rough,14.0,0,3.622
190,6.08,5.1380,4.0578,-1.0355,0.5253,0.2426,1.2104,rough,14.0,0,3.698
200,6.40,5.2684,4.3528,-1.0988,0.3310,0.0428,0.9385,rough,14.0,0,3.764
210,6.72,5.4970,4.5670,-1.0950,0.3173,-0.1758,0.6268,slope,18.0,0,3.729
220,7.04,5.7833,4.7231,-1.0437,0.2457,-0.1750,0.4301,rough,14.0,0,3.638
230,7.36,6.1875,4.8779,-1.0913,0.2853,0.2127,0.4527,rough,14.0,0,3.503
240,7.68,6.4767,5.0109,-1.1390,0.2720,0.0583,0.3963,rough,14.0,0,3.456
250,8.00,6.7078,5.0798,-1.1387,0.2920,-0.0885,0.2498,rough,14.0,0,3.406
260,8.32,6.8469,5.0700,-1.1012,0.4797,-0.6394,-0.0458,rough,14.0,0,3.337
270,8.64,6.9902,5.0309,-1.0074,0.5423,-0.5966,-0.3720,rough,14.0,0,3.244
280,8.96,7.1927,4.8768,-0.9785,0.7559,-0.2724,-0.4417,rough,14.0,0,3.027
290,9.28,7.4167,4.6924,-0.9479,0.7631,-0.1686,-0.6932,rough,14.0,0,2.781
300,9.60,7.3541,4.6952,-0.9991,0.8662,-0.1692,-0.7783,rough,14.0,0,2.802
310,9.92,7.2678,4.5820,-1.0822,0.6629,0.0659,-0.7444,rough,14.0,0,2.725
320,10.24,7.1844,4.4796,-1.2170,0.6694,-0.0747,-0.7354,rough,14.0,0,2.661
330,10.56,7.1321,4.4329,-1.2336,0.7123,-0.0839,-0.6772,rough,14.0,0,2.639
340,10.88,7.1668,4.3809,-1.2272,0.5089,-0.1205,-0.3869,rough,14.0,0,2.578
350,11.20,7.1610,4.3466,-1.2325,0.3930,-0.0905,-0.3262,rough,14.0,0,2.549
360,11.52,7.1577,4.3270,-1.2376,0.2992,-0.0865,-0.2822,rough,14.0,0,2.533
370,11.84,7.1511,4.3631,-1.2305,0.1256,-0.3922,-0.2636,rough,14.0,0,2.568
380,12.16,7.1470,4.3514,-1.2300,0.0833,-0.3999,-0.1583,rough,14.0,0,2.559
390,12.48,7.1452,4.3412,-1.2392,0.0432,-0.3531,-0.1106,rough,14.0,0,2.551
400,12.80,7.1440,4.2961,-1.2282,0.1416,-0.2604,-0.0392,rough,14.0,0,2.510
410,13.12,7.1569,4.2801,-1.2428,0.1863,-0.0801,-0.0098,rough,14.0,0,2.491
420,13.44,7.1580,4.2790,-1.2420,0.1898,-0.0813,-0.0085,rough,14.0,0,2.489
430,13.76,7.1574,4.2800,-1.2417,0.1926,-0.0811,-0.0062,rough,14.0,0,2.490
440,14.08,7.1588,4.2797,-1.2456,0.1939,-0.0529,-0.0119,rough,14.0,0,2.489
450,14.40,7.1584,4.2803,-1.2429,0.1953,-0.0707,-0.0111,rough,14.0,0,2.490
460,14.72,7.1582,4.2797,-1.2436,0.1949,-0.0660,-0.0140,rough,14.0,0,2.490
470,15.04,7.1590,4.2804,-1.2456,0.1955,-0.0517,-0.0116,rough,14.0,0,2.490
480,15.36,7.1580,4.2801,-1.2423,0.1961,-0.0746,-0.0138,rough,14.0,0,2.490
490,15.68,7.1582,4.2806,-1.2433,0.1967,-0.0668,-0.0125,rough,14.0,0,2.490
500,16.00,7.1584,4.2816,-1.2424,0.1964,-0.0739,-0.0033,rough,14.0,0,2.491
510,16.32,7.1580,4.2805,-1.2422,0.1972,-0.0746,-0.0133,rough,14.0,0,2.490
520,16.64,7.1581,4.2811,-1.2432,0.1969,-0.0674,-0.0108,rough,14.0,0,2.491
530,16.96,7.1581,4.2802,-1.2421,0.1972,-0.0754,-0.0149,rough,14.0,0,2.490
540,17.28,7.1581,4.2807,-1.2424,0.1973,-0.0732,-0.0130,rough,14.0,0,2.491
550,17.60,7.1588,4.2802,-1.2454,0.1960,-0.0528,-0.0144,rough,14.0,0,2.490
560,17.92,7.1582,4.2805,-1.2422,0.1974,-0.0745,-0.0134,rough,14.0,0,2.490
570,18.24,7.1577,4.2810,-1.2417,0.1971,-0.0778,-0.0105,rough,14.0,0,2.491
580,18.56,7.1588,4.2805,-1.2453,0.1966,-0.0533,-0.0133,rough,14.0,0,2.490
590,18.88,7.1582,4.2807,-1.2424,0.1974,-0.0732,-0.0131,rough,14.0,0,2.490
600,19.20,7.1581,4.2802,-1.2433,0.1966,-0.0674,-0.0147,rough,14.0,0,2.490
610,19.52,7.1589,4.2807,-1.2453,0.1968,-0.0531,-0.0128,rough,14.0,0,2.490
620,19.84,7.1584,4.2809,-1.2438,0.1964,-0.0638,-0.0093,rough,14.0,1,3.018
630,20.16,7.1326,4.2613,-1.2623,0.1985,0.0610,-0.1801,rough,14.0,1,3.005
640,20.48,7.0148,4.2935,-1.2616,0.1294,-0.0568,-0.6161,rough,14.0,1,2.887
650,20.80,6.9603,4.3462,-1.2755,0.0541,0.0150,-1.2821,rough,14.0,1,2.814
660,21.12,6.9076,4.4296,-1.2422,0.2229,0.0566,-1.4360,rough,14.0,1,2.727
670,21.44,6.8967,4.3848,-1.2331,0.3309,0.0115,-1.5005,rough,14.0,1,2.739
680,21.76,7.0169,4.1583,-1.2898,-0.1295,0.0460,-1.7032,rough,14.0,1,2.959
690,22.08,7.0442,3.8993,-1.3118,-0.3387,0.0080,-2.1068,rough,14.0,1,3.128
700,22.40,6.9190,3.7325,-1.2842,-0.2837,-0.2822,-2.3711,rough,14.0,1,3.133
710,22.72,6.6178,3.5276,-1.2273,-0.1053,-0.0709,-2.5388,rough,14.0,1,3.054
720,23.04,6.3520,3.3450,-1.2006,-0.1169,-0.1056,-2.6161,rough,14.0,1,3.021
730,23.36,6.1083,3.2306,-1.1662,0.0476,-0.2873,-2.6325,rough,14.0,1,2.976
740,23.68,5.8876,3.1501,-1.1322,0.3266,-0.3813,-2.7132,rough,14.0,1,2.936
750,24.00,5.7103,3.1179,-1.0985,0.3365,-0.4998,-3.0170,rough,14.0,1,2.887
760,24.32,5.4690,3.1114,-0.9701,0.3840,-0.4708,-3.0871,rough,14.0,1,2.802
770,24.64,5.2088,3.1001,-0.8605,0.4482,-0.4295,-3.0874,rough,14.0,1,2.736
780,24.96,4.9453,3.0543,-0.7850,0.2626,-0.3588,3.1089,rough,14.0,1,2.727
790,25.28,4.5251,3.0160,-0.7539,-0.0771,0.0061,2.9725,rough,14.0,1,2.732
800,25.60,4.3276,3.0588,-0.7130,-0.0714,-0.4148,2.7360,rough,14.0,1,2.696
810,25.92,4.0951,3.2466,-0.6631,0.2012,-0.2149,2.5973,rough,14.0,1,2.537
820,26.24,3.8070,3.4756,-0.6615,0.2144,0.1276,2.4197,slope,18.0,1,2.382
830,26.56,3.5269,3.7878,-0.7461,0.2947,0.2345,2.3547,slope,18.0,1,2.198
840,26.88,3.2309,4.0965,-0.8548,0.1831,0.2117,2.2843,slope,18.0,1,2.095
850,27.20,3.0384,4.3359,-0.8891,0.1974,0.0542,2.2123,rough,14.0,1,2.047
860,27.52,2.9171,4.5164,-0.8906,0.1948,-0.0194,2.1401,rough,14.0,1,2.022
870,27.84,2.7912,4.7133,-0.8945,0.1465,-0.0196,2.0987,rough,14.0,1,2.015
880,28.16,2.5860,4.9738,-0.9596,-0.0829,0.2622,2.1214,rough,14.0,1,2.084
890,28.48,2.4308,5.2130,-1.0536,-0.1533,0.2980,2.0094,rough,14.0,1,2.157
900,28.80,2.3042,5.4265,-1.1326,-0.2886,0.1838,1.5192,rough,14.0,1,2.240
910,29.12,2.2706,5.6885,-1.1881,-0.3188,-0.0920,1.2412,rough,14.0,1,2.251
920,29.44,2.4623,6.0337,-1.2116,-0.0846,0.1016,1.0533,rough,14.0,1,2.078
930,29.76,2.6587,6.3434,-1.2734,0.0242,0.1036,0.8752,rough,14.0,1,1.955
940,30.08,2.8012,6.5550,-1.2436,-0.0644,-0.1838,0.7310,rough,14.0,1,1.899
950,30.40,2.9647,6.7248,-1.1865,-0.1773,-0.5652,0.6421,rough,14.0,1,1.837
960,30.72,3.1760,6.8491,-1.0692,-0.0668,-0.5462,0.6044,rough,14.0,1,1.738
970,31.04,3.4206,6.9752,-0.9564,0.1055,-0.3641,0.4476,rough,14.0,1,1.648
980,31.36,3.6529,7.0990,-0.8906,0.0422,-0.2468,0.3591,rough,14.0,1,1.606
990,31.68,3.9126,7.2093,-0.8600,-0.0166,-0.1121,0.2339,rough,14.0,1,1.583
1000,32.00,4.1731,7.2268,-0.8142,0.0569,-0.1548,0.0119,rough,14.0,1,1.519
1010,32.32,4.3450,7.2102,-0.7841,0.0996,-0.4191,-0.1033,rough,14.0,1,1.473
1020,32.64,4.5556,7.1376,-0.7188,0.1990,-0.2541,-0.1954,rough,14.0,1,1.390
1030,32.96,4.7459,7.0646,-0.6987,0.3259,-0.1302,-0.2605,rough,14.0,1,1.336
1040,33.28,4.9449,6.9556,-0.7110,0.4591,0.0442,-0.3344,rough,14.0,1,1.280
1050,33.60,5.1295,6.8309,-0.7358,0.4109,0.0839,-0.5678,rough,14.0,1,1.242
1060,33.92,5.2866,6.6737,-0.7676,0.3516,0.0639,-0.7906,rough,14.0,1,1.202
1070,34.24,5.4201,6.4847,-0.7989,0.2598,0.1173,-0.9790,rough,14.0,1,1.163
1080,34.56,5.5220,6.2250,-0.8250,0.2226,0.0081,-1.2547,rough,14.0,1,1.109
1090,34.88,5.5692,5.8543,-0.8522,0.1524,0.0639,-1.5637,rough,14.0,1,1.054
1100,35.20,5.4725,5.4791,-0.8973,0.1171,0.1317,-1.8810,rough,14.0,2,13.068
1110,35.52,5.3634,5.1225,-0.9598,0.0737,0.1882,-1.7770,rough,14.0,2,12.876
1120,35.84,5.3420,4.7524,-1.0181,-0.1089,0.2072,-1.6329,rough,14.0,2,12.775
1130,36.16,5.3744,4.4009,-1.1011,-0.1939,0.2471,-1.4727,rough,14.0,2,12.741
1140,36.48,5.4505,4.0919,-1.1686,-0.2557,0.1212,-1.2746,rough,14.0,2,12.765
1150,36.80,5.6121,3.7805,-1.2000,-0.2785,0.0471,-1.0953,rough,14.0,2,12.883
1160,37.12,5.7490,3.5465,-1.2043,-0.3682,-0.1507,-0.9575,rough,14.0,2,12.992
1170,37.44,5.9087,3.2715,-1.1751,-0.2224,-0.0810,-0.8674,rough,14.0,2,13.125
1180,37.76,6.0599,3.1109,-1.1791,-0.2184,-0.0481,-0.8129,rough,14.0,2,13.263
1190,38.08,6.1529,3.0337,-1.1614,-0.2638,0.0946,-1.0496,rough,14.0,2,13.350
1200,38.40,6.2075,2.9928,-1.1818,-0.3068,-0.1124,-1.2360,rough,14.0,2,13.402
1210,38.72,6.3382,2.7437,-1.1698,-0.4930,0.0486,-1.2832,rough,14.0,2,13.520
1220,39.04,6.4649,2.4384,-1.1942,-0.3679,0.0108,-1.2092,rough,14.0,2,13.637
1230,39.36,6.6031,2.1635,-1.1871,-0.3127,-0.1487,-1.0197,rough,14.0,2,13.773
1240,39.68,6.7532,1.9697,-1.1463,-0.3446,-0.2350,-0.9044,slope,18.0,2,13.924
1250,40.00,6.8896,1.8494,-1.0950,-0.2679,-0.4761,-1.1666,slope,18.0,2,14.063
1260,40.32,6.9665,1.7418,-1.0457,-0.0240,-0.5358,-1.5595,rough,14.0,2,14.143
1270,40.64,6.9666,1.5452,-0.9356,0.0096,-0.5371,-1.5622,rough,14.0,2,14.150
1280,40.96,6.9706,1.2824,-0.7852,0.0017,-0.4974,-1.5635,rough,14.0,2,14.168
1290,41.28,6.9724,1.1285,-0.7039,0.0164,-0.4874,-1.5878,rough,14.0,2,14.181
1300,41.60,6.9709,1.1601,-0.7198,0.0111,-0.4842,-1.5764,rough,14.0,2,14.177
1310,41.92,6.9723,1.3431,-0.8202,0.0240,-0.5089,-1.5966,rough,14.0,2,14.166
1320,42.24,6.9699,1.4255,-0.8657,0.0219,-0.5231,-1.5992,rough,14.0,2,14.159
1330,42.56,6.9672,1.4540,-0.8812,0.0124,-0.5300,-1.5830,rough,14.0,2,14.155
1340,42.88,6.9663,1.4778,-0.8941,0.0076,-0.5370,-1.5739,rough,14.0,2,14.153
1350,43.20,6.9660,1.4794,-0.8961,0.0077,-0.5359,-1.5804,rough,14.0,2,14.153
1360,43.52,6.9670,1.3255,-0.8023,-0.0044,-0.5450,-1.5556,rough,14.0,2,14.162
1370,43.84,6.9795,1.0946,-0.6865,-0.0032,-0.4871,-1.5461,rough,14.0,2,14.190
1380,44.16,6.9882,0.8014,-0.5523,-0.0047,-0.3729,-1.5613,rough,14.0,2,14.224
1390,44.48,6.9885,0.5054,-0.4411,0.0076,-0.3491,-1.5995,rough,14.0,2,14.256
1400,44.80,6.9664,0.1519,-0.3441,0.0614,-0.2133,-1.6156,rough,14.0,2,14.280
1410,45.12,6.9359,-0.1956,-0.2674,0.1145,-0.2415,-1.6355,rough,14.0,2,14.303
1420,45.44,6.8972,-0.5012,-0.1947,0.1911,-0.2813,-1.6030,rough,14.0,2,14.319
1430,45.76,6.8832,-0.7410,-0.1153,0.1802,-0.3844,-1.5473,rough,14.0,2,14.352
1440,46.08,6.8669,-0.8732,-0.0770,0.2623,-0.3775,-1.6044,rough,14.0,2,14.363
1450,46.40,6.8418,-0.8357,-0.1269,0.4130,-0.4222,-1.8610,rough,14.0,2,14.331
1460,46.72,6.7835,-0.8347,-0.1074,0.3958,-0.1815,-2.2297,rough,14.0,2,14.273
1470,47.04,6.6163,-0.9571,-0.1144,0.4337,-0.0271,-2.4137,rough,14.0,2,14.137
1480,47.36,6.3815,-1.1772,-0.1113,0.4084,0.0250,-2.3491,rough,14.0,2,13.959
1490,47.68,6.1569,-1.4609,-0.1557,0.2929,0.1347,-2.2674,rough,14.0,2,13.813
1500,48.00,5.9298,-1.7326,-0.1956,0.2413,0.1161,-2.3185,rough,14.0,2,13.669
1510,48.32,5.6688,-1.9861,-0.2267,0.0523,0.0931,-2.4949,rough,14.0,2,13.495
1520,48.64,5.3626,-2.1568,-0.2532,-0.0054,0.0408,-2.6968,rough,14.0,2,13.259
1530,48.96,5.0083,-2.2885,-0.2828,-0.0696,0.0391,-2.8708,rough,14.0,2,12.969
1540,49.28,4.7695,-2.3814,-0.2639,-0.0747,-0.2055,-3.1095,rough,14.0,2,12.778
1550,49.60,4.4872,-2.3931,-0.2108,-0.0865,-0.2612,2.9734,rough,14.0,2,12.519
1560,49.92,4.1264,-2.3240,-0.1695,-0.0863,-0.0637,2.7549,rough,14.0,2,12.158
1570,50.24,3.8327,-2.1904,-0.1279,-0.0554,-0.1299,2.6317,rough,14.0,2,11.836
1580,50.56,3.4423,-2.0710,-0.1785,-0.3832,0.0648,2.4470,rough,14.0,2,11.429
1590,50.88,3.1701,-1.8489,-0.1548,-0.3250,-0.2345,2.3392,slope,18.0,2,11.094
1600,51.20,2.8591,-1.5767,-0.0424,-0.3589,-0.3989,2.5525,slope,18.0,2,10.706
1610,51.52,2.4252,-1.3034,0.0729,-0.1771,-0.0675,2.7239,slope,18.0,2,10.205
1620,51.84,1.9449,-1.0981,0.1294,-0.1055,-0.0928,2.7837,slope,18.0,2,9.683
1630,52.16,1.4126,-0.9285,0.1525,-0.1491,-0.0588,2.8333,slope,18.0,2,9.125
1640,52.48,0.8647,-0.7568,0.1785,-0.1355,-0.0387,2.8403,slope,18.0,2,8.551
1650,52.80,0.3114,-0.5709,0.1884,-0.0567,0.0190,2.8321,slope,18.0,2,7.968
1660,53.12,-0.2322,-0.3970,0.1795,-0.0663,0.0107,2.8214,slope,18.0,2,7.398
1670,53.44,-0.7769,-0.2285,0.1469,-0.1197,0.0242,2.8055,slope,18.0,2,6.828
1680,53.76,-1.3134,-0.0443,0.1127,-0.1514,0.0168,2.7956,slope,18.0,2,6.262
1690,54.08,-1.8629,0.1942,0.0687,-0.0184,0.1514,2.7554,slope,18.0,2,5.663
1700,54.40,-2.3972,0.4105,-0.0209,-0.0475,0.1830,2.7558,slope,18.0,2,5.087
1710,54.72,-2.8264,0.5752,-0.0701,-0.0800,0.0267,2.7747,rough,14.0,2,4.627
1720,55.04,-3.2160,0.7254,-0.0499,-0.0422,-0.0845,2.7946,rough,14.0,2,4.210
1730,55.36,-3.5977,0.8970,-0.0142,0.1218,-0.0558,2.8010,rough,14.0,2,3.793
1740,55.68,-3.9870,1.0438,0.0225,0.1240,-0.1493,2.8248,rough,14.0,2,3.377
1750,56.00,-4.3992,1.1770,0.0943,0.0734,-0.1412,2.8127,rough,14.0,2,2.944
1760,56.32,-4.7406,1.2467,0.1559,-0.0927,-0.4254,2.8066,rough,14.0,2,2.599
1770,56.64,-5.0784,1.3684,0.3073,-0.1058,-0.3146,2.8464,rough,14.0,2,2.240
1780,56.96,-5.2210,1.4013,0.3776,-0.2583,-0.6637,2.9650,rough,14.0,2,2.095
1790,57.28,-5.4286,1.4347,0.4849,-0.1704,-0.6958,-3.1402,rough,14.0,2,1.891
1800,57.60,-5.6205,1.4558,0.6167,-0.0476,-0.6696,-3.1182,rough,14.0,2,1.707
1810,57.92,-5.8381,1.4822,0.7166,0.1336,-0.5006,-3.0822,rough,14.0,2,1.499
1820,58.24,-5.9885,1.4726,0.8013,0.1644,-0.5374,-3.1116,rough,14.0,2,1.373
1830,58.56,-6.1489,1.4656,0.8710,0.1819,-0.3967,3.1169,rough,14.0,2,1.241
1840,58.88,-6.3543,1.4716,0.9487,0.1655,-0.1987,3.1292,rough,14.0,2,1.075
1850,59.20,-6.5129,1.4522,0.9692,0.0067,-0.2074,3.1390,rough,14.0,3,9.625
1860,59.52,-6.7547,1.4865,1.0207,-0.0105,-0.2385,3.0299,rough,14.0,3,9.718
1870,59.84,-7.0278,1.4163,1.0489,-0.2586,-0.1778,-2.9295,rough,14.0,3,9.725
1880,60.16,-7.4028,1.2687,1.0796,-0.4004,0.0169,-2.8567,rough,14.0,3,9.700
1890,60.48,-7.7788,1.1183,1.0782,-0.4009,0.0059,-2.7920,rough,14.0,3,9.689
1900,60.80,-8.1811,0.9849,0.9881,-0.2146,0.3061,-2.8408,rough,14.0,3,9.721
1910,61.12,-8.4462,0.8786,0.9273,-0.2274,0.1329,-2.7355,rough,14.0,3,9.736
1920,61.44,-8.6721,0.7396,0.9065,-0.1730,0.1121,-2.5739,rough,14.0,3,9.712
1930,61.76,-8.8445,0.5846,0.8784,-0.1226,0.0817,-2.3988,rough,14.0,3,9.655
1940,62.08,-9.0276,0.4136,0.8255,0.0752,0.2804,-2.2489,rough,14.0,3,9.595
1950,62.40,-9.1221,0.2549,0.7781,0.1063,0.2401,-2.0896,rough,14.0,3,9.506
1960,62.72,-9.1868,0.0976,0.7448,0.0759,0.2675,-1.9119,rough,14.0,3,9.405
1970,63.04,-9.2234,-0.0438,0.7201,0.0258,0.2666,-1.7155,rough,14.0,3,9.305
1980,63.36,-9.2265,-0.1711,0.7159,-0.0549,0.2353,-1.5994,rough,14.0,3,9.199
1990,63.68,-9.2041,-0.2933,0.6841,0.0232,0.1623,-1.4358,rough,14.0,3,9.085
2000,64.00,-9.1876,-0.4299,0.6621,0.0701,-0.0196,-1.3871,rough,14.0,3,8.962
2010,64.32,-9.1155,-0.6071,0.6538,-0.0998,0.1494,-1.3115,rough,14.0,3,8.774
2020,64.64,-9.0592,-0.7299,0.6606,-0.1617,0.0871,-1.2536,rough,14.0,3,8.641
2030,64.96,-9.0064,-0.8471,0.6571,-0.1598,-0.0347,-1.1867,rough,14.0,3,8.514
2040,65.28,-8.9422,-0.9746,0.6647,-0.1973,-0.1717,-1.0946,rough,14.0,3,8.372
2050,65.60,-8.8476,-1.1451,0.6913,-0.1829,-0.1500,-1.0136,rough,14.0,3,8.178
2060,65.92,-8.7359,-1.3040,0.7220,-0.1597,-0.1717,-0.9448,rough,14.0,3,7.984
2070,66.24,-8.5894,-1.4737,0.7561,-0.1836,-0.1741,-0.8801,rough,14.0,3,7.761
2080,66.56,-8.3930,-1.6792,0.7812,-0.2481,-0.0217,-0.8565,rough,14.0,3,7.481
2090,66.88,-8.1489,-1.9198,0.7396,-0.3805,0.2111,-0.8871,rough,14.0,3,7.146
2100,67.20,-7.9124,-2.1779,0.6669,-0.3691,0.1420,-0.8710,rough,14.0,3,6.801
2110,67.52,-7.6726,-2.4307,0.6293,-0.4310,-0.0641,-0.7857,rough,14.0,3,6.459
2120,67.84,-7.4230,-2.6564,0.6796,-0.4680,-0.3160,-0.6429,rough,14.0,3,6.136
2130,68.16,-7.1909,-2.8703,0.7571,-0.2799,-0.3165,-0.5831,rough,14.0,3,5.833
2140,68.48,-6.8983,-3.0806,0.8422,-0.2407,-0.3028,-0.6415,rough,14.0,3,5.505
2150,68.80,-6.6804,-3.3484,0.8733,0.0395,-0.2675,-0.6738,rough,14.0,3,5.166
2160,69.12,-6.4309,-3.6002,0.8841,0.0812,-0.1566,-0.8144,rough,14.0,3,4.827
2170,69.44,-6.2287,-3.8779,0.9567,0.2880,-0.4678,-0.9558,rough,14.0,3,4.488
2180,69.76,-6.0433,-4.1603,1.1195,0.3060,-0.4754,-1.0299,rough,14.0,3,4.153
2190,70.08,-5.8587,-4.4861,1.2531,0.2203,-0.2376,-1.0891,rough,14.0,3,3.779
2200,70.40,-5.6669,-4.8812,1.2973,0.1321,0.0047,-1.0032,rough,14.0,3,3.340
2210,70.72,-5.3922,-5.3111,1.2596,0.0610,0.1199,-0.9467,slope,18.0,3,2.835
2220,71.04,-5.1210,-5.7039,1.2404,0.1034,-0.0324,-0.9412,rough,14.0,3,2.367
2230,71.36,-4.9022,-6.0340,1.2590,0.1294,-0.0337,-1.0120,rough,14.0,3,1.981
2240,71.68,-4.6897,-6.3955,1.2281,0.0353,0.2454,-1.0780,rough,14.0,3,1.571
2250,72.00,-4.5133,-6.6999,1.0790,-0.1147,0.4235,-1.1242,rough,14.0,3,1.232
2260,72.32,-4.4036,-7.0065,0.9189,0.0394,0.6569,-1.1718,rough,14.0,0,15.538
2270,72.64,-4.2307,-7.3380,0.7106,-0.0205,0.4753,-1.1072,slope,18.0,0,15.595
2280,72.96,-3.9901,-7.8027,0.5119,0.1506,0.4009,-0.9709,slope,18.0,0,15.690
2290,73.28,-3.6787,-8.2412,0.3062,-0.1149,0.4093,-1.1849,slope,18.0,0,15.732
2300,73.60,-3.5250,-8.6875,0.0357,0.0321,0.6016,-1.0365,rough,14.0,0,15.913
2310,73.92,-3.4609,-9.0078,-0.1572,-0.0023,0.6080,-1.2596,rough,14.0,0,16.084
2320,74.24,-3.4288,-9.2126,-0.2727,0.0104,0.5425,-1.3470,rough,14.0,0,16.202
2330,74.56,-3.4058,-9.3689,-0.3524,0.0086,0.3997,-1.3774,rough,14.0,0,16.294
2340,74.88,-3.3963,-9.4651,-0.3883,0.1325,0.3299,-1.1159,rough,14.0,0,16.355
2350,75.20,-3.3682,-9.5573,-0.4158,0.1572,0.2137,-0.9192,rough,14.0,0,16.400
2360,75.52,-3.3306,-9.6431,-0.4395,0.1935,0.0959,-0.7569,rough,14.0,0,16.434
2370,75.84,-3.2840,-9.7002,-0.4470,0.1814,0.0585,-0.5706,rough,14.0,0,16.442
2380,76.16,-3.2569,-9.7531,-0.4490,0.2055,-0.0592,-0.3722,rough,14.0,0,16.461
2390,76.48,-3.2059,-9.7939,-0.4506,0.1611,-0.0624,-0.1516,rough,14.0,0,16.455
2400,76.80,-3.1519,-9.8196,-0.4531,0.1029,-0.0407,0.0692,rough,14.0,0,16.436
2410,77.12,-3.1033,-9.8364,-0.4516,0.0860,-0.0313,0.2458,rough,14.0,0,16.415
2420,77.44,-3.0543,-9.8441,-0.4488,0.0942,-0.0094,0.3780,rough,14.0,0,16.386
2430,77.76,-3.0063,-9.8436,-0.4463,0.1093,0.0161,0.4860,rough,14.0,0,16.353
2440,78.08,-2.9738,-9.8350,-0.4436,0.0826,-0.0182,0.5704,rough,14.0,0,16.324
2450,78.40,-2.9514,-9.8249,-0.4439,0.0399,-0.0923,0.6400,rough,14.0,0,16.302
2460,78.72,-2.9280,-9.8043,-0.4414,0.0020,-0.1513,0.6957,rough,14.0,0,16.271
2470,79.04,-2.9086,-9.7867,-0.4300,0.0184,-0.2179,0.7505,rough,14.0,0,16.245
2480,79.36,-2.8906,-9.7624,-0.4212,0.0211,-0.2630,0.8061,rough,14.0,0,16.214
2490,79.68,-2.8724,-9.7447,-0.4126,0.0427,-0.3428,0.8541,rough,14.0,0,16.189
2500,80.00,-2.8569,-9.7202,-0.4025,0.0494,-0.4066,0.9007,rough,14.0,0,16.161
2510,80.32,-2.8377,-9.6808,-0.3898,0.0220,-0.4188,0.9482,rough,14.0,0,16.119
2520,80.64,-2.8154,-9.6252,-0.3736,-0.0303,-0.3972,0.9912,rough,14.0,0,16.063
2530,80.96,-2.7890,-9.5580,-0.3552,-0.0877,-0.3686,1.0286,rough,14.0,0,15.996
2540,81.28,-2.7581,-9.4816,-0.3348,-0.1387,-0.3521,1.0623,rough,14.0,0,15.920
2550,81.60,-2.7240,-9.3964,-0.3099,-0.1904,-0.3584,1.0970,rough,14.0,0,15.834
2560,81.92,-2.6896,-9.3078,-0.2743,-0.2275,-0.4125,1.1398,rough,14.0,0,15.747
2570,82.24,-2.6508,-9.2044,-0.2325,-0.2632,-0.4696,1.1882,rough,14.0,0,15.645
2580,82.56,-2.6110,-9.0782,-0.1734,-0.3115,-0.4728,1.2207,rough,14.0,0,15.527
2590,82.88,-2.5693,-8.9490,-0.0970,-0.3408,-0.5336,1.2647,rough,14.0,0,15.406
2600,83.20,-2.5151,-8.7961,-0.0024,-0.3274,-0.5799,1.2943,rough,14.0,0,15.259
2610,83.52,-2.4680,-8.6281,0.1065,-0.3111,-0.5888,1.3200,rough,14.0,0,15.107
2620,83.84,-2.4248,-8.4438,0.2447,-0.3342,-0.6780,1.3719,rough,14.0,0,14.946
2630,84.16,-2.3656,-8.2293,0.4142,-0.2716,-0.7051,1.3961,rough,14.0,0,14.754
2640,84.48,-2.3141,-7.9981,0.6118,-0.2048,-0.7437,1.3768,rough,14.0,0,14.557
2650,84.80,-2.2554,-7.7856,0.8130,-0.1828,-0.7563,1.3887,rough,14.0,0,14.368
2660,85.12,-2.1764,-7.5747,1.0026,-0.0776,-0.7389,1.3903,rough,14.0,0,14.167
2670,85.44,-2.1209,-7.3786,1.1601,-0.0597,-0.6317,1.4478,rough,14.0,0,13.993
2680,85.76,-2.0810,-7.2057,1.2863,-0.0531,-0.6038,1.4335,rough,14.0,0,13.848
2690,86.08,-2.0174,-6.9190,1.4540,0.0023,-0.4815,1.4310,rough,14.0,0,13.610
2700,86.40,-1.9741,-6.5411,1.6104,-0.0331,-0.3552,1.4277,rough,14.0,0,13.332
2710,86.72,-1.9228,-6.1158,1.6919,-0.1068,-0.0955,1.3860,rough,14.0,0,13.022
2720,87.04,-1.8153,-5.6681,1.6957,-0.0690,0.1764,1.2811,rough,14.0,0,12.661
2730,87.36,-1.6395,-5.2667,1.6079,0.1285,0.2842,1.2161,rough,14.0,0,12.279
2740,87.68,-1.4173,-4.8285,1.3337,0.2078,0.7468,1.1366,slope,18.0,0,11.842
2750,88.00,-1.1403,-4.3508,0.8255,0.4378,0.7297,1.4866,rough,14.0,0,11.342
2760,88.32,-0.9089,-3.7706,0.2950,0.3657,0.5504,1.5343,rough,14.0,0,10.830
2770,88.64,-0.7904,-3.2958,0.0965,0.3773,0.3366,1.3573,rough,14.0,0,10.480
2780,88.96,-0.6657,-2.9581,-0.0143,0.3289,0.2665,1.1346,rough,14.0,0,10.204
2790,89.28,-0.4869,-2.6503,-0.0949,0.3332,0.2061,0.9418,rough,14.0,0,9.899
2800,89.60,-0.2316,-2.3866,-0.1420,0.2467,0.0421,0.6828,slope,18.0,0,9.550
2810,89.92,0.1942,-2.1296,-0.1242,0.3017,-0.1097,0.5171,slope,18.0,0,9.054
