step,time_s,x,y,z,roll,pitch,yaw,terrain,speed,target_idx,dist_to_target
10,0.32,-0.1704,1.4447,0.2232,0.0431,-0.0881,-0.0218,slope,18.0,0,4.143
20,0.64,0.1050,1.4413,0.2472,0.0243,-0.0719,-0.0223,slope,18.0,0,4.222
30,0.96,0.4659,1.4277,0.3025,0.0446,-0.2016,0.0309,slope,18.0,0,4.358
40,1.28,0.8025,1.4601,0.3722,0.0222,-0.2580,0.3183,slope,18.0,0,4.466
50,1.60,1.2052,1.6345,0.4945,-0.0373,-0.3047,0.4560,slope,18.0,0,4.510
60,1.92,1.5806,1.8640,0.6348,-0.1024,-0.3350,0.5925,slope,18.0,0,4.535
70,2.24,1.9034,2.1512,0.7820,-0.1846,-0.3287,0.7580,slope,18.0,0,4.525
80,2.56,2.1678,2.5069,0.9024,-0.2601,-0.2476,0.9917,slope,18.0,0,4.466
90,2.88,2.3425,2.9454,0.9935,-0.3432,-0.1474,1.2468,slope,18.0,0,4.329
100,3.20,2.4019,3.4402,1.0236,-0.3612,-0.0116,1.5228,slope,18.0,0,4.113
110,3.52,2.3092,3.9433,0.9784,-0.3181,0.1047,1.8276,slope,18.0,0,3.805
120,3.84,2.1151,4.4274,0.8998,-0.3103,0.1789,1.9882,slope,18.0,0,3.454
130,4.16,1.8550,4.8780,0.7878,-0.2784,0.2255,2.1351,slope,18.0,0,3.090
140,4.48,1.5424,5.2970,0.6528,-0.2475,0.2347,2.2575,slope,18.0,0,2.727
150,4.80,1.1826,5.6778,0.5100,-0.2116,0.2840,2.3817,slope,18.0,0,2.372
160,5.12,0.7938,5.9978,0.3570,-0.1689,0.3070,2.5332,slope,18.0,0,2.045
170,5.44,0.3850,6.2390,0.2030,-0.1153,0.3269,2.7157,slope,18.0,0,1.747
180,5.76,0.0188,6.3804,0.1028,-0.0291,0.1696,2.8400,slope,18.0,0,1.510
190,6.08,-0.3188,6.4679,0.0626,0.0231,0.0570,3.0651,slope,18.0,0,1.324
200,6.40,-0.6352,6.4872,0.0580,0.0155,-0.0229,-2.9281,flat,18.0,0,1.160
210,6.72,-0.9190,6.4231,0.0652,0.0100,-0.0286,-2.7022,flat,18.0,1,0.995
220,7.04,-1.2138,6.2775,0.0751,0.0039,-0.0326,-2.4922,flat,18.0,2,7.647
230,7.36,-1.5996,5.9426,0.0926,0.0007,-0.0353,-2.3586,flat,18.0,2,7.885
240,7.68,-1.9715,5.5462,0.1121,-0.0001,-0.0364,-2.2796,flat,18.0,2,8.117
250,8.00,-2.3129,5.1207,0.1316,0.0004,-0.0332,-2.2103,flat,18.0,2,8.343
260,8.32,-2.6272,4.6766,0.1492,0.0008,-0.0306,-2.1456,flat,18.0,2,8.567
270,8.64,-2.9150,4.2067,0.1648,0.0039,-0.0249,-2.0950,flat,18.0,2,8.790
280,8.96,-3.1800,3.7242,0.1760,0.0082,-0.0131,-2.0405,flat,18.0,2,9.018
290,9.28,-3.4205,3.2256,0.1848,0.0128,-0.0111,-2.0003,flat,18.0,2,9.248
300,9.60,-3.6427,2.7176,0.1886,0.0165,-0.0041,-1.9428,flat,18.0,2,9.487
310,9.92,-3.8356,2.1963,0.1892,0.0242,0.0001,-1.8978,flat,18.0,2,9.725
320,10.24,-4.0085,1.6680,0.1870,0.0278,0.0088,-1.8586,flat,18.0,2,9.969
330,10.56,-4.1596,1.1309,0.1844,0.0352,0.0105,-1.8180,flat,18.0,2,10.218
340,10.88,-4.2896,0.5826,0.1798,0.0384,0.0096,-1.7950,flat,18.0,2,10.474
350,11.20,-4.4083,0.0305,0.1749,0.0416,0.0090,-1.7738,flat,18.0,2,10.743
360,11.52,-4.4962,-0.4170,0.1712,0.0428,0.0073,-1.7438,flat,18.0,2,10.970
370,11.84,-4.5676,-0.7398,0.1681,0.0426,-0.0108,-1.3556,flat,18.0,2,11.150
380,12.16,-4.4850,-0.9915,0.1719,0.0302,-0.0286,-0.8491,flat,18.0,2,11.167
390,12.48,-4.1449,-1.2760,0.1858,0.0207,-0.0328,-0.5426,flat,18.0,2,10.969
400,12.80,-3.7406,-1.4857,0.2003,0.0143,-0.0312,-0.3199,flat,18.0,2,10.695
410,13.12,-3.2937,-1.6045,0.2121,0.0069,-0.0425,-0.0472,flat,18.0,2,10.353
420,13.44,-2.7926,-1.5993,0.2265,-0.0002,-0.0206,0.2507,flat,18.0,2,9.912
430,13.76,-2.3004,-1.4453,0.2329,-0.0004,-0.0020,0.3954,flat,18.0,2,9.408
440,14.08,-1.8173,-1.2222,0.2358,-0.0026,0.0036,0.4890,flat,18.0,2,8.879
450,14.40,-1.3399,-0.9498,0.2274,-0.0035,0.0283,0.5643,flat,18.0,2,8.329
460,14.72,-0.8754,-0.6436,0.2176,-0.0021,0.0216,0.6034,flat,18.0,2,7.774
470,15.04,-0.4080,-0.3172,0.2076,-0.0081,0.0076,0.6118,flat,18.0,2,7.205
480,15.36,0.0117,-0.0194,0.2109,-0.0235,-0.0268,0.6050,slope,18.0,2,6.693
490,15.68,0.4397,0.2793,0.2474,-0.0409,-0.1076,0.5607,slope,18.0,2,6.173
500,16.00,0.8774,0.5570,0.3226,-0.0642,-0.2105,0.5347,slope,18.0,2,5.656
510,16.32,1.3219,0.8171,0.4540,-0.0627,-0.3072,0.5080,slope,18.0,2,5.141
520,16.64,1.7715,1.0694,0.6335,-0.0783,-0.3961,0.4963,slope,18.0,2,4.626
530,16.96,2.2265,1.3252,0.8422,-0.1188,-0.4103,0.4978,slope,18.0,2,4.104
540,17.28,2.6901,1.5802,1.0670,-0.1383,-0.4002,0.4928,slope,18.0,2,3.575
550,17.60,3.1266,1.8325,1.2717,-0.1792,-0.3873,0.5430,slope,18.0,2,3.071
560,17.92,3.5480,2.1060,1.4591,-0.2129,-0.3422,0.5914,slope,18.0,2,2.570
570,18.24,3.9544,2.3887,1.6270,-0.2116,-0.3088,0.6214,slope,18.0,2,2.080
580,18.56,4.3308,2.6627,1.7661,-0.2074,-0.2848,0.6661,slope,18.0,2,1.624
590,18.88,4.6364,2.9304,1.8808,-0.2511,-0.2620,0.7380,slope,18.0,2,1.245
600,19.20,4.8914,3.1888,1.9726,-0.2656,-0.2369,0.8223,slope,18.0,3,3.328
610,19.52,5.1368,3.4436,2.0596,-0.2436,-0.2576,0.7399,slope,18.0,3,3.228
620,19.84,5.3686,3.6498,2.1432,-0.1699,-0.3336,0.4453,slope,18.0,3,3.146
630,20.16,5.6740,3.7974,2.2544,-0.0841,-0.3448,0.2218,slope,18.0,3,2.999
640,20.48,6.0159,3.8825,2.3810,-0.0071,-0.3567,0.0163,slope,18.0,3,2.815
650,20.80,6.3511,3.8806,2.5057,0.0136,-0.3594,-0.0328,slope,18.0,3,2.598
660,21.12,6.7616,3.8644,2.6575,0.0226,-0.3575,-0.0359,slope,18.0,3,2.359
670,21.44,7.1339,3.8477,2.7945,0.0377,-0.3506,-0.0558,rough,14.0,3,2.184
680,21.76,7.4118,3.8297,2.8979,0.0420,-0.3594,-0.0644,rough,14.0,3,2.083
690,22.08,7.6902,3.8120,3.0157,0.0632,-0.4499,-0.1110,rough,14.0,3,2.015
700,22.40,7.9362,3.7886,3.1811,0.0444,-0.7561,-0.1620,rough,14.0,3,1.979
710,22.72,8.0763,3.7794,3.3351,0.0466,-0.8461,-0.2042,rough,14.0,3,1.976
720,23.04,8.1072,3.7677,3.3686,0.1623,-0.8361,-0.3718,rough,14.0,3,1.967
730,23.36,8.0347,3.7313,3.2984,0.2352,-0.8073,-0.4465,rough,14.0,3,1.925
740,23.68,7.9096,3.7211,3.1681,0.0656,-0.8006,-0.1688,rough,14.0,3,1.911
750,24.00,7.7913,3.7033,3.0791,0.0662,-0.6674,-0.0959,rough,14.0,3,1.898
760,24.32,7.8704,3.6854,3.1428,0.0578,-0.8463,-0.0902,rough,14.0,3,1.876
770,24.64,7.9336,3.7023,3.1981,0.1205,-0.8171,-0.2328,rough,14.0,3,1.892
780,24.96,7.9061,3.7105,3.1675,0.0651,-0.8076,-0.1554,rough,14.0,3,1.901
790,25.28,7.8521,3.7110,3.1216,-0.0002,-0.7947,0.0120,rough,14.0,3,1.902
800,25.60,7.8648,3.7395,3.1316,-0.0457,-0.7847,0.0748,rough,14.0,3,1.930
810,25.92,7.9280,3.7885,3.1856,-0.1430,-0.7828,0.1414,rough,14.0,3,1.979
820,26.24,8.0099,3.8488,3.2535,-0.2514,-0.7790,0.2036,rough,14.0,3,2.041
830,26.56,8.0868,3.9211,3.3151,-0.2936,-0.7809,0.1685,rough,14.0,3,2.118
840,26.88,8.1358,3.9806,3.3489,-0.3713,-0.7336,0.2365,rough,14.0,3,2.181
850,27.20,8.2255,4.0531,3.2959,-0.3134,-0.1522,0.1116,rough,14.0,3,2.264
860,27.52,8.4958,4.1267,3.3563,-0.4369,0.4713,-0.1577,rough,14.0,3,2.387
870,27.84,8.7420,4.1291,3.2415,-0.6515,0.4141,-0.4348,rough,14.0,3,2.460
880,28.16,8.9026,4.0741,3.1634,-0.6598,0.2158,-0.4993,rough,14.0,3,2.468
890,28.48,9.0655,3.9983,3.1096,-0.6916,0.0986,-0.6918,rough,14.0,3,2.470
900,28.80,9.2084,3.9002,3.0805,-0.7101,0.0021,-0.8450,rough,14.0,3,2.455
910,29.12,9.3101,3.8182,3.0685,-0.7030,-0.1028,-0.9119,rough,14.0,3,2.442
920,29.44,9.3901,3.7346,3.0729,-0.6818,-0.2105,-0.9901,rough,14.0,3,2.422
930,29.76,9.4622,3.6630,3.0709,-0.6452,-0.2745,-1.0636,rough,14.0,3,2.410
940,30.08,9.5181,3.5964,3.0753,-0.6295,-0.2614,-1.1910,rough,14.0,3,2.397
950,30.40,9.5601,3.5423,3.0876,-0.6462,-0.2508,-1.3010,rough,14.0,3,2.385
960,30.72,9.5933,3.4973,3.0929,-0.6308,-0.2436,-1.3927,rough,14.0,3,2.376
970,31.04,9.6159,3.4523,3.0973,-0.6059,-0.3200,-1.4761,rough,14.0,3,2.360
980,31.36,9.6418,3.3909,3.1040,-0.5264,-0.4622,-1.6501,rough,14.0,3,2.337
990,31.68,9.6506,3.3393,3.1183,-0.4579,-0.5595,-1.7731,rough,14.0,3,2.309
1000,32.00,9.6590,3.3001,3.1341,-0.4496,-0.5988,-1.8530,rough,14.0,3,2.290
1010,32.32,9.6440,3.2683,3.1600,-0.4252,-0.5995,-1.8890,rough,14.0,3,2.258
1020,32.64,9.6282,3.2323,3.1862,-0.3763,-0.6172,-1.9530,rough,14.0,3,2.222
1030,32.96,9.6132,3.1954,3.2140,-0.3442,-0.6341,-2.0075,rough,14.0,3,2.187
1040,33.28,9.5851,3.1559,3.2522,-0.3051,-0.6421,-2.0560,rough,14.0,3,2.141
1050,33.60,9.5620,3.1106,3.2890,-0.2438,-0.6643,-2.1465,rough,14.0,3,2.094
1060,33.92,9.5300,3.0670,3.3346,-0.2143,-0.6811,-2.2070,rough,14.0,3,2.042
1070,34.24,9.4906,3.0239,3.3772,-0.1584,-0.6847,-2.2597,rough,14.0,3,1.985
1080,34.56,9.4412,2.9767,3.4343,-0.1279,-0.6867,-2.3016,rough,14.0,3,1.917
1090,34.88,9.3804,2.9251,3.4841,-0.0857,-0.6273,-2.3133,rough,14.0,3,1.837
1100,35.20,9.3127,2.8600,3.5452,-0.0311,-0.5810,-2.3487,rough,14.0,3,1.744
1110,35.52,9.2430,2.7918,3.6131,0.0168,-0.5688,-2.3841,rough,14.0,3,1.647
1120,35.84,9.1648,2.6988,3.6610,-0.0645,-0.4639,-2.3479,rough,14.0,3,1.529
1130,36.16,9.0639,2.5873,3.7138,-0.0955,-0.3428,-2.4146,rough,14.0,3,1.383
1140,36.48,8.9360,2.4733,3.7609,-0.0993,-0.2409,-2.4672,rough,14.0,3,1.213
1150,36.80,8.6749,2.3183,3.6937,0.1721,0.3023,-2.4036,rough,14.0,0,10.344
1160,37.12,8.4655,2.1083,3.5609,0.1529,0.5639,-2.3020,rough,14.0,0,10.212
1170,37.44,8.2678,1.9238,3.3747,0.1451,0.6445,-2.3306,rough,14.0,0,10.088
1180,37.76,8.0418,1.7498,3.1967,0.3161,0.6461,-2.3370,rough,14.0,0,9.941
1190,38.08,7.8156,1.5639,3.0205,0.2753,0.3864,-2.4511,slope,18.0,0,9.804
1200,38.40,7.4469,1.2658,2.8549,0.1667,0.2810,-2.5076,slope,18.0,0,9.593
1210,38.72,7.0227,0.9949,2.7132,0.1399,0.2874,-2.6550,slope,18.0,0,9.340
1220,39.04,6.5853,0.7859,2.5684,0.0612,0.3125,-2.9316,slope,18.0,0,9.065
1230,39.36,6.1157,0.7127,2.4131,-0.0333,0.3206,3.0382,slope,18.0,0,8.705
1240,39.68,5.6085,0.7770,2.2405,-0.0630,0.3280,2.9543,slope,18.0,0,8.248
1250,40.00,5.1141,0.8795,2.0672,-0.0836,0.3413,2.8710,slope,18.0,0,7.786
1260,40.32,4.6537,1.0116,1.8978,-0.1715,0.3477,2.6773,slope,18.0,0,7.338
1270,40.64,4.2393,1.2420,1.7344,-0.2490,0.3216,2.4702,slope,18.0,0,6.869
1280,40.96,3.8827,1.5541,1.5843,-0.3225,0.2532,2.1943,slope,18.0,0,6.396
1290,41.28,3.6112,1.9532,1.4738,-0.4180,0.1186,1.9012,slope,18.0,0,5.939
1300,41.60,3.4753,2.4248,1.4356,-0.3824,-0.0387,1.5024,slope,18.0,0,5.558
1310,41.92,3.5340,2.8754,1.4618,-0.3262,-0.1759,1.0787,slope,18.0,0,5.377
1320,42.24,3.7634,3.2429,1.5478,-0.2553,-0.2587,0.7440,slope,18.0,0,5.419
1330,42.56,4.0655,3.4929,1.6589,-0.1925,-0.3120,0.5171,slope,18.0,0,5.603
1340,42.88,4.3475,3.6667,1.7622,-0.2083,-0.2964,0.5738,slope,18.0,0,5.812
1350,43.20,4.5084,3.8162,1.8196,-0.2861,-0.2206,0.8799,slope,18.0,0,5.922
1360,43.52,4.6352,4.0651,1.8625,-0.3327,-0.1417,1.1324,slope,18.0,0,5.980
1370,43.84,4.7608,4.5100,1.9016,-0.3551,-0.0794,1.3231,slope,18.0,0,6.016
1380,44.16,4.8719,5.0282,1.9350,-0.3672,-0.0665,1.3512,slope,18.0,0,6.067
1390,44.48,4.9866,5.5422,1.9719,-0.3695,-0.0762,1.3384,slope,18.0,0,6.167
1400,44.80,5.1082,6.0554,2.0144,-0.3714,-0.0875,1.3226,slope,18.0,0,6.316
1410,45.12,5.2025,6.5790,2.0482,-0.3840,-0.0490,1.4224,slope,18.0,0,6.479
1420,45.44,5.2327,7.1143,2.0583,-0.3863,-0.0063,1.5491,slope,18.0,0,6.622
1430,45.76,5.2123,7.6538,2.0496,-0.3867,0.0116,1.6016,slope,18.0,0,6.757
1440,46.08,5.1752,8.1416,2.0357,-0.3837,0.0375,1.6727,slope,18.0,0,6.896
1450,46.40,5.0935,8.5256,2.0048,-0.3735,0.0883,1.8099,slope,18.0,0,6.981
1460,46.72,4.9741,8.8197,1.9592,-0.3530,0.1471,1.9738,slope,18.0,0,7.010
1470,47.04,4.8356,9.0391,1.9065,-0.3234,0.2011,2.1406,slope,18.0,0,6.998
1480,47.36,4.7185,9.2208,1.8626,-0.2939,0.2402,2.2749,slope,18.0,0,6.994
1490,47.68,4.6040,9.3422,1.8195,-0.2532,0.2803,2.4336,slope,18.0,0,6.964
1500,48.00,4.4810,9.4261,1.7727,-0.2091,0.3138,2.5891,slope,18.0,0,6.910
1510,48.32,4.3707,9.4892,1.7311,-0.1471,0.3464,2.7867,slope,18.0,0,6.857
1520,48.64,4.2644,9.5383,1.6906,-0.0843,0.3648,2.9687,slope,18.0,0,6.801
1530,48.96,4.1406,9.5593,1.6428,-0.0683,0.3668,3.0172,slope,18.0,0,6.715
1540,49.28,4.0059,9.5694,1.5909,-0.0773,0.3653,2.9979,slope,18.0,0,6.615
1550,49.60,3.8722,9.5808,1.5393,-0.0864,0.3624,2.9753,slope,18.0,0,6.518
1560,49.92,3.7446,9.5896,1.4901,-0.0864,0.3611,2.9767,slope,18.0,0,6.425
1570,50.24,3.6180,9.5978,1.4414,-0.0879,0.3602,2.9773,slope,18.0,0,6.334
1580,50.56,3.4920,9.6060,1.3932,-0.0900,0.3601,2.9758,slope,18.0,0,6.244
1590,50.88,3.3675,9.6141,1.3456,-0.0907,0.3583,2.9745,slope,18.0,0,6.157
1600,51.20,3.2448,9.6214,1.2987,-0.0906,0.3568,2.9763,slope,18.0,0,6.072
1610,51.52,3.1224,9.6286,1.2522,-0.0921,0.3560,2.9761,slope,18.0,0,5.989
1620,51.84,3.0008,9.6357,1.2061,-0.0937,0.3558,2.9748,slope,18.0,0,5.907
1630,52.16,2.8803,9.6426,1.1604,-0.0941,0.3542,2.9738,slope,18.0,0,5.827
1640,52.48,2.7621,9.6484,1.1156,-0.0928,0.3532,2.9793,slope,18.0,0,5.750
1650,52.80,2.6434,9.6544,1.0709,-0.0939,0.3523,2.9794,slope,18.0,0,5.673
1660,53.12,2.5252,9.6603,1.0265,-0.0951,0.3522,2.9789,slope,18.0,0,5.599
1670,53.44,2.4080,9.6660,0.9825,-0.0952,0.3510,2.9788,slope,18.0,0,5.526
1680,53.76,2.2938,9.6723,0.9398,-0.0915,0.3504,2.9902,slope,18.0,0,5.458
1690,54.08,2.1856,9.6821,0.8996,-0.0804,0.3518,3.0246,slope,18.0,0,5.397
1700,54.40,2.0727,9.6866,0.8576,-0.0800,0.3515,3.0273,slope,18.0,0,5.331
1710,54.72,1.9595,9.6905,0.8155,-0.0804,0.3510,3.0268,slope,18.0,0,5.266
1720,55.04,1.8496,9.6963,0.7747,-0.0759,0.3514,3.0407,slope,18.0,0,5.206
1730,55.36,1.7427,9.7026,0.7353,-0.0686,0.3515,3.0633,slope,18.0,0,5.150
1740,55.68,1.6358,9.7077,0.6960,-0.0631,0.3515,3.0800,slope,18.0,0,5.094
1750,56.00,1.5290,9.7118,0.6566,-0.0592,0.3516,3.0923,slope,18.0,0,5.039
1760,56.32,1.4221,9.7152,0.6174,-0.0563,0.3519,3.1015,slope,18.0,0,4.985
1770,56.64,1.3154,9.7181,0.5782,-0.0542,0.3517,3.1082,slope,18.0,0,4.933
1780,56.96,1.2087,9.7207,0.5392,-0.0527,0.3504,3.1131,slope,18.0,0,4.882
1790,57.28,1.1021,9.7231,0.5002,-0.0515,0.3492,3.1167,slope,18.0,0,4.833
1800,57.60,0.9953,9.7252,0.4613,-0.0508,0.3489,3.1193,slope,18.0,0,4.785
1810,57.92,0.8883,9.7273,0.4225,-0.0502,0.3490,3.1212,slope,18.0,0,4.740
1820,58.24,0.7815,9.7292,0.3837,-0.0497,0.3482,3.1226,slope,18.0,0,4.696
1830,58.56,0.6747,9.7311,0.3451,-0.0492,0.3468,3.1237,slope,18.0,0,4.654
1840,58.88,0.5679,9.7329,0.3066,-0.0489,0.3453,3.1245,slope,18.0,0,4.614
1850,59.20,0.4609,9.7347,0.2680,-0.0485,0.3453,3.1251,slope,18.0,0,4.576
1860,59.52,0.3537,9.7365,0.2295,-0.0482,0.3456,3.1255,slope,18.0,0,4.541
1870,59.84,0.2543,9.7376,0.2022,-0.0468,0.2920,3.1293,slope,18.0,0,4.509
1880,60.16,0.1558,9.7386,0.1762,-0.0453,0.2296,3.1337,slope,18.0,0,4.480
1890,60.48,0.0581,9.7394,0.1500,-0.0437,0.1679,3.1396,slope,18.0,0,4.452
1900,60.80,-0.0254,9.7175,0.1350,-0.0185,0.1770,-3.0024,slope,18.0,0,4.409
1910,61.12,-0.0906,9.6733,0.1217,0.0132,0.1730,-2.8090,slope,18.0,0,4.349
1920,61.44,-0.1878,9.6367,0.1146,-0.0293,0.1731,-2.7437,slope,18.0,0,4.290
1930,61.76,-0.2841,9.5984,0.1064,-0.0427,0.1376,-2.6702,slope,18.0,0,4.232
1940,62.08,-0.3809,9.5549,0.0976,-0.0403,0.0809,-2.5924,slope,18.0,0,4.170
1950,62.40,-0.4811,9.5011,0.0876,-0.0374,0.0205,-2.5153,flat,18.0,0,4.098
1960,62.72,-0.5792,9.4255,0.0842,-0.0373,0.0104,-2.4238,flat,18.0,0,4.008
1970,63.04,-0.6848,9.3146,0.0823,-0.0350,0.0141,-2.3447,flat,18.0,0,3.884
1980,63.36,-0.7976,9.1878,0.0800,-0.0340,0.0131,-2.2749,flat,18.0,0,3.745
1990,63.68,-0.9212,9.0279,0.0772,-0.0337,0.0125,-2.2127,flat,18.0,0,3.575
2000,64.00,-1.0628,8.8293,0.0750,-0.0322,0.0080,-2.1693,flat,18.0,0,3.369
2010,64.32,-1.2193,8.5875,0.0731,-0.0298,0.0026,-2.1287,flat,18.0,0,3.125
2020,64.64,-1.3993,8.2867,0.0724,-0.0318,-0.0017,-2.0996,flat,18.0,0,2.833
2030,64.96,-1.6115,7.9137,0.0733,-0.0330,-0.0035,-2.0790,flat,18.0,0,2.489
2040,65.28,-1.8662,7.4518,0.0777,-0.0299,0.0065,-2.0722,flat,18.0,0,2.104
2050,65.60,-2.0966,7.0209,0.0902,-0.0291,-0.0185,-1.9927,flat,18.0,0,1.808
2060,65.92,-2.2379,6.6105,0.0991,-0.0291,-0.0219,-1.8576,flat,18.0,0,1.561
2070,66.24,-2.3257,6.2152,0.1078,-0.0273,-0.0211,-1.7694,flat,18.0,0,1.371
2080,66.56,-2.3777,5.8464,0.1160,-0.0257,-0.0230,-1.6988,flat,18.0,0,1.258
2090,66.88,-2.4064,5.4985,0.1242,-0.0237,-0.0235,-1.6336,flat,18.0,0,1.227
2100,67.20,-2.4121,5.2035,0.1314,-0.0259,-0.0148,-1.2883,flat,18.0,0,1.259
2110,67.52,-2.3178,4.9458,0.1363,-0.0304,-0.0127,-0.9899,flat,18.0,0,1.250
2120,67.84,-2.1409,4.7352,0.1393,-0.0340,-0.0103,-0.7141,flat,18.0,0,1.205
2130,68.16,-1.8895,4.5766,0.1418,-0.0355,-0.0047,-0.3399,flat,18.0,0,1.135
2140,68.48,-1.4609,4.4836,0.1410,-0.0372,0.0170,0.1773,flat,18.0,0,1.019
2150,68.80,-1.0269,4.5986,0.1305,-0.0341,0.0245,0.5413,slope,18.0,1,2.771
2160,69.12,-0.6814,4.8599,0.1161,-0.0247,0.0401,0.8154,slope,18.0,1,2.533
2170,69.44,-0.3946,5.1906,0.1064,-0.0314,-0.0003,0.8965,rough,14.0,1,2.267
2180,69.76,-0.1830,5.5013,0.1116,-0.1550,0.0257,1.0086,slope,18.0,1,2.047
2190,70.08,-0.0040,5.8328,0.1160,-0.1592,-0.0682,1.0862,slope,18.0,1,1.842
2200,70.40,0.1500,6.1999,0.1464,-0.2501,-0.0441,1.1310,slope,18.0,1,1.654
2210,70.72,0.2950,6.5603,0.1750,-0.3139,-0.0524,1.1503,slope,18.0,1,1.544
2220,71.04,0.3915,6.8972,0.1927,-0.3328,-0.0592,1.3489,slope,18.0,1,1.488
2230,71.36,0.3609,7.2340,0.1804,-0.3381,0.0322,1.6983,slope,18.0,1,1.387
2240,71.68,0.2426,7.5359,0.1515,-0.2856,0.0615,1.9918,slope,18.0,1,1.273
2250,72.00,0.0130,7.9157,0.0937,-0.1581,0.0926,2.1850,slope,18.0,1,1.168
2260,72.32,-0.2457,8.2801,0.0709,-0.0357,0.0951,2.2575,slope,18.0,1,1.195
2270,72.64,-0.4888,8.5395,0.0579,-0.0095,-0.0242,2.3586,slope,18.0,1,1.284
2280,72.96,-0.7265,8.7478,0.0653,-0.0052,-0.0312,2.4816,flat,18.0,1,1.409
2290,73.28,-0.9540,8.9166,0.0751,-0.0132,-0.0324,2.6438,flat,18.0,1,1.548
2300,73.60,-1.1762,9.0317,0.0827,-0.0186,-0.0273,2.7944,flat,18.0,1,1.669
2310,73.92,-1.4078,9.0972,0.0896,-0.0203,-0.0308,2.8733,flat,18.0,1,1.770
2320,74.24,-1.6334,9.1454,0.0962,-0.0199,-0.0280,2.9371,flat,18.0,1,1.879
2330,74.56,-1.8486,9.1799,0.1026,-0.0201,-0.0308,2.9883,flat,18.0,1,1.991
2340,74.88,-2.0381,9.2036,0.1081,-0.0200,-0.0295,3.0382,flat,18.0,1,2.098
2350,75.20,-2.2145,9.2073,0.1131,-0.0236,-0.0247,-3.0420,flat,18.0,1,2.192
2360,75.52,-2.3953,9.1857,0.1177,-0.0264,-0.0231,-2.8579,flat,18.0,1,2.278
2370,75.84,-2.5748,9.1382,0.1221,-0.0287,-0.0205,-2.7100,flat,18.0,1,2.355
2380,76.16,-2.7516,9.0467,0.1263,-0.0304,-0.0205,-2.6168,flat,18.0,1,2.411
2390,76.48,-2.9442,8.9277,0.1314,-0.0307,-0.0209,-2.5236,flat,18.0,1,2.476
2400,76.80,-3.1514,8.7793,0.1369,-0.0302,-0.0204,-2.4394,flat,18.0,1,2.556
2410,77.12,-3.3748,8.5794,0.1432,-0.0342,-0.0250,-2.3744,flat,18.0,1,2.648
2420,77.44,-3.6223,8.3323,0.1521,-0.0325,-0.0249,-2.3198,flat,18.0,1,2.775
2430,77.76,-3.8946,8.0240,0.1628,-0.0341,-0.0266,-2.2805,flat,18.0,1,2.949
2440,78.08,-4.2115,7.6482,0.1764,-0.0342,-0.0282,-2.2612,flat,18.0,1,3.204
2450,78.40,-4.5432,7.2450,0.1911,-0.0349,-0.0276,-2.2586,flat,18.0,1,3.526
2460,78.72,-4.7735,6.9387,0.2008,-0.0370,-0.0225,-2.1646,flat,18.0,1,3.779
2470,79.04,-4.8967,6.6920,0.2053,-0.0395,-0.0061,-1.8375,flat,18.0,1,3.936
2480,79.36,-4.9241,6.4260,0.2054,-0.0396,0.0015,-1.6282,flat,18.0,1,4.017
2490,79.68,-4.9154,6.1306,0.2034,-0.0367,0.0121,-1.3806,flat,18.0,1,4.088
2500,80.00,-4.8642,5.9339,0.2003,-0.0098,0.0320,-0.4117,flat,18.0,1,4.104
2510,80.32,-4.7042,5.8552,0.1942,0.0275,0.0226,0.7064,flat,18.0,1,3.984
2520,80.64,-4.5280,6.0531,0.1889,0.0367,0.0128,1.2071,flat,18.0,1,3.748
2530,80.96,-4.4170,6.3755,0.1849,0.0391,0.0091,1.3324,flat,18.0,1,3.540
2540,81.28,-4.2995,6.8015,0.1802,0.0406,0.0119,1.2700,flat,18.0,1,3.329
2550,81.60,-4.1367,7.2715,0.1730,0.0402,0.0192,1.1202,flat,18.0,1,3.119
2560,81.92,-3.8981,7.6515,0.1625,0.0324,0.0300,0.8139,flat,18.0,1,2.892
2570,82.24,-3.5461,7.9914,0.1472,0.0281,0.0295,0.7425,flat,18.0,1,2.602
2580,82.56,-3.2157,8.2780,0.1353,0.0293,0.0267,0.6881,flat,18.0,1,2.377
2590,82.88,-2.9197,8.5181,0.1256,0.0286,0.0247,0.6012,flat,18.0,1,2.220
2600,83.20,-2.6353,8.6926,0.1174,0.0288,0.0241,0.5142,flat,18.0,1,2.088
2610,83.52,-2.3798,8.8362,0.1110,0.0270,0.0241,0.3926,flat,18.0,1,2.000
2620,83.84,-2.1343,8.9404,0.1054,0.0257,0.0217,0.2405,flat,18.0,1,1.926
2630,84.16,-1.8987,9.0033,0.0996,0.0252,0.0272,0.0832,flat,18.0,1,1.855
2640,84.48,-1.6719,9.0283,0.0943,0.0227,0.0257,-0.0765,flat,18.0,1,1.782
2650,84.80,-1.4311,9.0077,0.0876,0.0229,0.0280,-0.1367,flat,18.0,1,1.689
2660,85.12,-1.1793,8.9714,0.0811,0.0232,0.0243,-0.1683,transition,15.0,1,1.609
2670,85.44,-0.9640,8.9273,0.0746,0.0213,0.0215,-0.2564,slope,18.0,1,1.558
2680,85.76,-0.7134,8.8531,0.0685,0.0195,0.0251,-0.3241,slope,18.0,1,1.514
2690,86.08,-0.4563,8.7538,0.0614,0.0181,0.0248,-0.4066,slope,18.0,1,1.494
2700,86.40,-0.2187,8.6362,0.0789,0.0451,-0.1045,-0.4475,slope,18.0,1,1.498
2710,86.72,0.0461,8.4821,0.1096,0.1187,-0.1499,-0.4784,slope,18.0,1,1.540
2720,87.04,0.3241,8.3202,0.1797,0.1481,-0.2868,-0.5272,slope,18.0,1,1.646
2730,87.36,0.6486,8.1137,0.2837,0.1925,-0.2943,-0.5629,slope,18.0,1,1.826
2740,87.68,1.0140,7.8768,0.4146,0.2015,-0.2934,-0.5898,slope,18.0,1,2.096
2750,88.00,1.4208,7.6000,0.5612,0.2016,-0.2893,-0.6045,slope,18.0,1,2.451
2760,88.32,1.8319,7.3143,0.7164,0.2008,-0.3022,-0.6088,slope,18.0,1,2.852
2770,88.64,2.1105,7.0948,0.8230,0.2317,-0.2818,-0.7252,slope,18.0,1,3.142
2780,88.96,2.2444,6.9080,0.8759,0.3096,-0.1960,-1.0570,slope,18.0,1,3.296
2790,89.28,2.2836,6.7190,0.8935,0.3631,-0.0426,-1.5058,slope,18.0,1,3.367
2800,89.60,2.1014,6.5053,0.8282,0.2860,0.2267,-2.2765,slope,18.0,1,3.238
2810,89.92,1.8280,6.2851,0.7302,0.1642,0.3244,-2.7278,slope,18.0,1,3.047
