step,time_s,x,y,z,roll,pitch,yaw,terrain,speed,target_idx,dist_to_target
10,0.32,0.1047,-0.0580,0.1847,-0.0000,-0.0340,-0.0000,rough,14.0,0,6.883
20,0.64,0.5461,-0.0719,0.1794,-0.0001,0.0021,-0.1120,flat,18.0,0,6.543
30,0.96,1.0794,-0.1533,0.1799,-0.0001,0.0000,-0.2818,flat,18.0,0,6.104
40,1.28,1.5971,-0.3219,0.1799,-0.0003,-0.0000,-0.4072,flat,18.0,0,5.628
50,1.60,2.0944,-0.5543,0.1798,-0.0004,-0.0000,-0.5057,flat,18.0,0,5.128
60,1.92,2.5709,-0.8357,0.1798,-0.0003,-0.0000,-0.5841,flat,18.0,0,4.612
70,2.24,3.0287,-1.1539,0.1797,-0.0002,-0.0000,-0.6462,flat,18.0,0,4.086
80,2.56,3.4655,-1.5003,0.1797,-0.0002,-0.0000,-0.7074,flat,18.0,0,3.557
90,2.88,3.8790,-1.8734,0.1797,-0.0002,-0.0000,-0.7696,flat,18.0,0,3.026
100,3.20,4.2683,-2.2722,0.1797,-0.0002,-0.0000,-0.8319,flat,18.0,0,2.493
110,3.52,4.6322,-2.6946,0.1797,-0.0002,-0.0000,-0.9005,flat,18.0,0,1.960
120,3.84,4.9650,-3.1409,0.1798,-0.0003,0.0000,-0.9825,flat,18.0,0,1.431
130,4.16,5.2565,-3.6107,0.1798,-0.0004,0.0000,-1.0955,flat,18.0,0,0.914
140,4.48,5.4067,-3.9583,0.1790,0.0001,-0.0047,-0.8932,flat,18.0,1,12.279
150,4.80,5.6063,-4.1034,0.1758,0.0006,0.0053,-0.2473,flat,18.0,1,12.486
160,5.12,5.9854,-4.1709,0.1798,-0.0002,-0.0000,0.2867,flat,18.0,1,12.693
170,5.44,6.3342,-4.0317,0.1799,-0.0000,-0.0001,0.6575,flat,18.0,1,12.707
180,5.76,6.6498,-3.7206,0.1799,0.0000,-0.0000,0.9327,flat,18.0,1,12.563
190,6.08,6.9116,-3.3000,0.1799,0.0000,-0.0000,1.1818,flat,18.0,1,12.312
200,6.40,7.0849,-2.8038,0.1799,0.0001,0.0000,1.4025,flat,18.0,1,11.965
210,6.72,7.1547,-2.2656,0.1799,0.0001,-0.0000,1.5893,flat,18.0,1,11.542
220,7.04,7.1277,-1.7155,0.1799,0.0002,-0.0000,1.7283,flat,18.0,1,11.065
230,7.36,7.0282,-1.1698,0.1798,0.0004,-0.0000,1.8271,flat,18.0,1,10.557
240,7.68,6.8765,-0.6328,0.1798,0.0003,-0.0000,1.9025,flat,18.0,1,10.031
250,8.00,6.6853,-0.1057,0.1797,0.0002,-0.0000,1.9622,flat,18.0,1,9.492
260,8.32,6.4631,0.4116,0.1797,0.0002,-0.0000,2.0109,flat,18.0,1,8.946
270,8.64,6.2160,0.9187,0.1797,0.0001,-0.0000,2.0496,flat,18.0,1,8.394
280,8.96,5.9495,1.4175,0.1797,0.0001,-0.0000,2.0827,flat,18.0,1,7.838
290,9.28,5.6666,1.9084,0.1797,0.0001,-0.0000,2.1117,flat,18.0,1,7.279
300,9.60,5.3694,2.3920,0.1797,0.0001,-0.0000,2.1375,flat,18.0,1,6.717
310,9.92,5.0598,2.8687,0.1797,0.0001,-0.0000,2.1608,flat,18.0,1,6.154
320,10.24,4.7391,3.3387,0.1797,0.0001,-0.0000,2.1821,flat,18.0,1,5.589
330,10.56,4.4083,3.8023,0.1797,0.0001,-0.0000,2.2019,flat,18.0,1,5.023
340,10.88,4.0684,4.2597,0.1797,0.0001,-0.0000,2.2206,flat,18.0,1,4.457
350,11.20,3.7200,4.7108,0.1797,0.0001,-0.0000,2.2385,flat,18.0,1,3.890
360,11.52,3.3634,5.1557,0.1797,0.0001,-0.0000,2.2563,flat,18.0,1,3.322
370,11.84,2.9990,5.5940,0.1797,0.0001,0.0000,2.2744,flat,18.0,1,2.755
380,12.16,2.6268,6.0252,0.1797,0.0001,0.0000,2.2939,flat,18.0,1,2.189
390,12.48,2.2463,6.4480,0.1797,0.0001,0.0000,2.3168,flat,18.0,1,1.623
400,12.80,1.8564,6.8595,0.1797,0.0001,0.0000,2.3467,flat,18.0,1,1.060
410,13.12,1.4959,7.2081,0.1798,-0.0001,0.0003,2.5146,flat,18.0,2,15.334
420,13.44,1.1267,7.4241,0.1799,0.0000,-0.0000,2.8584,flat,18.0,2,15.284
430,13.76,0.6619,7.5303,0.1799,0.0002,-0.0000,-3.1173,flat,18.0,2,15.102
440,14.08,0.1549,7.4929,0.1799,0.0001,0.0000,-2.8806,flat,18.0,2,14.789
450,14.40,-0.3489,7.3329,0.1799,0.0001,-0.0000,-2.7052,flat,18.0,2,14.385
460,14.72,-0.8292,7.0844,0.1799,0.0003,-0.0000,-2.5806,flat,18.0,2,13.924
470,15.04,-1.2843,6.7759,0.1798,0.0004,-0.0000,-2.4924,flat,18.0,2,13.430
480,15.36,-1.7178,6.4279,0.1797,0.0002,-0.0000,-2.4261,flat,18.0,2,12.915
490,15.68,-2.1286,6.0509,0.1797,0.0002,-0.0000,-2.3657,flat,18.0,2,12.389
500,16.00,-2.5190,5.6489,0.1797,0.0002,-0.0000,-2.3146,flat,18.0,2,11.852
510,16.32,-2.8906,5.2273,0.1797,0.0002,-0.0000,-2.2702,flat,18.0,2,11.309
520,16.64,-3.2458,4.7898,0.1797,0.0001,-0.0000,-2.2318,flat,18.0,2,10.760
530,16.96,-3.5862,4.3383,0.1797,0.0001,-0.0000,-2.1974,flat,18.0,2,10.206
540,17.28,-3.9127,3.8748,0.1797,0.0001,-0.0000,-2.1665,flat,18.0,2,9.649
550,17.60,-4.2262,3.4009,0.1797,0.0001,-0.0000,-2.1386,flat,18.0,2,9.088
560,17.92,-4.5276,2.9181,0.1797,0.0001,-0.0000,-2.1135,flat,18.0,2,8.525
570,18.24,-4.8177,2.4276,0.1797,0.0001,-0.0000,-2.0907,flat,18.0,2,7.960
580,18.56,-5.0974,1.9302,0.1797,0.0001,-0.0000,-2.0700,flat,18.0,2,7.394
590,18.88,-5.3674,1.4269,0.1797,0.0001,-0.0000,-2.0510,flat,18.0,2,6.826
600,19.20,-5.6284,0.9183,0.1797,0.0001,-0.0000,-2.0334,flat,18.0,2,6.257
610,19.52,-5.8809,0.4050,0.1797,0.0001,-0.0000,-2.0172,flat,18.0,2,5.688
620,19.84,-6.1253,-0.1125,0.1797,0.0001,-0.0000,-2.0019,flat,18.0,2,5.117
630,20.16,-6.3622,-0.6338,0.1797,0.0001,-0.0000,-1.9875,flat,18.0,2,4.547
640,20.48,-6.5916,-1.1585,0.1797,0.0000,-0.0000,-1.9735,flat,18.0,2,3.975
650,20.80,-6.8139,-1.6864,0.1797,0.0000,-0.0000,-1.9598,flat,18.0,2,3.404
660,21.12,-7.0289,-2.2173,0.1797,0.0000,-0.0000,-1.9459,flat,18.0,2,2.832
670,21.44,-7.2365,-2.7510,0.1797,0.0001,0.0000,-1.9312,flat,18.0,2,2.261
680,21.76,-7.4359,-3.2874,0.1797,0.0001,0.0000,-1.9147,flat,18.0,2,1.690
690,22.08,-7.6256,-3.8263,0.1797,0.0001,0.0000,-1.8935,flat,18.0,2,1.121
700,22.40,-7.7949,-4.3527,0.1798,0.0001,0.0001,-1.9468,flat,18.0,3,0.823
710,22.72,-7.9304,-4.7719,0.1798,-0.0004,0.0000,-1.6133,flat,18.0,0,13.278
720,23.04,-7.9231,-5.1686,0.1799,0.0002,-0.0000,-1.2161,flat,18.0,0,13.284
730,23.36,-7.7317,-5.5742,0.1799,0.0001,-0.0000,-0.9333,flat,18.0,0,13.119
740,23.68,-7.4013,-5.9425,0.1799,0.0001,-0.0000,-0.7230,flat,18.0,0,12.825
750,24.00,-6.9814,-6.2627,0.1799,0.0001,-0.0000,-0.5412,flat,18.0,0,12.449
760,24.32,-6.5002,-6.5206,0.1799,0.0001,-0.0000,-0.3848,flat,18.0,0,12.013
770,24.64,-5.9795,-6.7114,0.1799,0.0003,-0.0000,-0.2563,flat,18.0,0,11.534
780,24.96,-5.4351,-6.8401,0.1798,0.0004,-0.0000,-0.1515,flat,18.0,0,11.027
790,25.28,-4.8774,-6.9148,0.1798,0.0004,-0.0000,-0.0659,flat,18.0,0,10.499
800,25.60,-4.3131,-6.9437,0.1798,0.0003,-0.0000,0.0042,flat,18.0,0,9.957
810,25.92,-3.7471,-6.9346,0.1797,0.0002,-0.0000,0.0582,flat,18.0,0,9.407
820,26.24,-3.1814,-6.8963,0.1797,0.0002,-0.0000,0.1010,flat,18.0,0,8.851
830,26.56,-2.6170,-6.8346,0.1797,0.0001,-0.0000,0.1355,flat,18.0,0,8.291
840,26.88,-2.0540,-6.7540,0.1797,0.0001,-0.0000,0.1648,flat,18.0,0,7.729
850,27.20,-1.4928,-6.6571,0.1797,0.0001,-0.0000,0.1900,flat,18.0,0,7.164
860,27.52,-0.9334,-6.5464,0.1797,0.0001,-0.0000,0.2120,flat,18.0,0,6.597
870,27.84,-0.3759,-6.4236,0.1797,0.0001,-0.0000,0.2315,flat,18.0,0,6.029
880,28.16,0.1795,-6.2901,0.1797,0.0001,-0.0000,0.2490,flat,18.0,0,5.460
890,28.48,0.7329,-6.1469,0.1797,0.0001,-0.0000,0.2649,flat,18.0,0,4.890
900,28.80,1.2842,-5.9950,0.1797,0.0001,-0.0000,0.2797,flat,18.0,0,4.320
910,29.12,1.8334,-5.8350,0.1797,0.0000,-0.0000,0.2937,flat,18.0,0,3.749
920,29.44,2.3804,-5.6673,0.1797,0.0000,-0.0000,0.3074,flat,18.0,0,3.178
930,29.76,2.9250,-5.4923,0.1797,0.0000,0.0000,0.3211,flat,18.0,0,2.608
940,30.08,3.4669,-5.3097,0.1797,0.0001,0.0000,0.3356,flat,18.0,0,2.037
950,30.40,4.0052,-5.1192,0.1797,0.0001,0.0000,0.3524,flat,18.0,0,1.467
960,30.72,4.5383,-4.9196,0.1797,0.0001,0.0000,0.3751,flat,18.0,0,0.900
970,31.04,4.9827,-4.7294,0.1799,-0.0003,0.0000,0.5773,flat,18.0,1,12.865
980,31.36,5.3291,-4.4448,0.1799,-0.0000,-0.0000,0.8429,flat,18.0,1,12.708
990,31.68,5.6254,-4.0466,0.1799,0.0000,-0.0000,1.0763,flat,18.0,1,12.441
1000,32.00,5.8486,-3.5683,0.1799,0.0000,-0.0000,1.2859,flat,18.0,1,12.085
1010,32.32,5.9807,-3.0394,0.1799,0.0001,-0.0000,1.4649,flat,18.0,1,11.658
1020,32.64,6.0225,-2.4875,0.1799,0.0002,-0.0000,1.6081,flat,18.0,1,11.180
1030,32.96,5.9892,-1.9313,0.1798,0.0004,-0.0000,1.7119,flat,18.0,1,10.670
1040,33.28,5.9008,-1.3785,0.1798,0.0003,-0.0000,1.7894,flat,18.0,1,10.141
1050,33.60,5.7708,-0.8315,0.1797,0.0002,-0.0000,1.8501,flat,18.0,1,9.600
1060,33.92,5.6085,-0.2912,0.1797,0.0002,-0.0000,1.8990,flat,18.0,1,9.051
1070,34.24,5.4203,0.2417,0.1797,0.0001,-0.0000,1.9375,flat,18.0,1,8.497
1080,34.56,5.2120,0.7681,0.1797,0.0001,-0.0000,1.9700,flat,18.0,1,7.939
1090,34.88,4.9867,1.2888,0.1797,0.0001,-0.0000,1.9983,flat,18.0,1,7.379
1100,35.20,4.7468,1.8039,0.1797,0.0001,-0.0000,2.0232,flat,18.0,1,6.816
1110,35.52,4.4942,2.3137,0.1797,0.0001,-0.0000,2.0456,flat,18.0,1,6.251
1120,35.84,4.2302,2.8184,0.1797,0.0001,-0.0000,2.0658,flat,18.0,1,5.685
1130,36.16,3.9560,3.3182,0.1797,0.0001,-0.0000,2.0845,flat,18.0,1,5.118
1140,36.48,3.6726,3.8132,0.1797,0.0001,-0.0000,2.1019,flat,18.0,1,4.551
1150,36.80,3.3805,4.3034,0.1797,0.0001,-0.0000,2.1185,flat,18.0,1,3.982
1160,37.12,3.0803,4.7887,0.1797,0.0001,-0.0000,2.1348,flat,18.0,1,3.414
1170,37.44,2.7721,5.2691,0.1797,0.0001,0.0000,2.1511,flat,18.0,1,2.845
1180,37.76,2.4562,5.7440,0.1797,0.0001,0.0000,2.1683,flat,18.0,1,2.277
1190,38.08,2.1322,6.2125,0.1797,0.0001,0.0000,2.1876,flat,18.0,1,1.710
1200,38.40,1.7992,6.6727,0.1797,0.0001,0.0000,2.2118,flat,18.0,1,1.144
1210,38.72,1.4737,7.1004,0.1798,0.0000,0.0004,2.3188,flat,18.0,2,15.235
1220,39.04,1.1683,7.3542,0.1799,-0.0001,-0.0000,2.6750,flat,18.0,2,15.253
1230,39.36,0.7511,7.5276,0.1799,0.0000,-0.0000,3.0083,flat,18.0,2,15.151
1240,39.68,0.2620,7.5668,0.1799,0.0000,-0.0000,-2.9906,flat,18.0,2,14.910
1250,40.00,-0.2451,7.4653,0.1799,0.0001,-0.0000,-2.7832,flat,18.0,2,14.552
1260,40.32,-0.7372,7.2556,0.1799,0.0001,-0.0000,-2.6341,flat,18.0,2,14.119
1270,40.64,-1.2025,6.9727,0.1798,0.0004,-0.0000,-2.5265,flat,18.0,2,13.641
1280,40.96,-1.6448,6.6398,0.1798,0.0003,-0.0000,-2.4521,flat,18.0,2,13.136
1290,41.28,-2.0643,6.2742,0.1797,0.0002,-0.0000,-2.3878,flat,18.0,2,12.616
1300,41.60,-2.4616,5.8812,0.1797,0.0002,-0.0000,-2.3318,flat,18.0,2,12.085
1310,41.92,-2.8389,5.4660,0.1797,0.0002,-0.0000,-2.2832,flat,18.0,2,11.546
1320,42.24,-3.1983,5.0334,0.1797,0.0001,-0.0000,-2.2417,flat,18.0,2,11.000
1330,42.56,-3.5420,4.5856,0.1797,0.0001,-0.0000,-2.2047,flat,18.0,2,10.449
1340,42.88,-3.8709,4.1247,0.1797,0.0001,-0.0000,-2.1715,flat,18.0,2,9.894
1350,43.20,-4.1860,3.6527,0.1797,0.0001,-0.0000,-2.1417,flat,18.0,2,9.335
1360,43.52,-4.4883,3.1710,0.1797,0.0001,-0.0000,-2.1149,flat,18.0,2,8.773
1370,43.84,-4.7787,2.6810,0.1797,0.0001,-0.0000,-2.0906,flat,18.0,2,8.210
1380,44.16,-5.0579,2.1837,0.1797,0.0001,-0.0000,-2.0686,flat,18.0,2,7.644
1390,44.48,-5.3269,1.6802,0.1797,0.0001,-0.0000,-2.0485,flat,18.0,2,7.077
1400,44.80,-5.5864,1.1711,0.1797,0.0001,-0.0000,-2.0301,flat,18.0,2,6.508
1410,45.12,-5.8370,0.6570,0.1797,0.0001,-0.0000,-2.0130,flat,18.0,2,5.939
1420,45.44,-6.0791,0.1386,0.1797,0.0001,-0.0000,-1.9971,flat,18.0,2,5.369
1430,45.76,-6.3133,-0.3837,0.1797,0.0001,-0.0000,-1.9821,flat,18.0,2,4.799
1440,46.08,-6.5399,-0.9096,0.1797,0.0001,-0.0000,-1.9678,flat,18.0,2,4.228
1450,46.40,-6.7591,-1.4388,0.1797,0.0000,-0.0000,-1.9539,flat,18.0,2,3.656
1460,46.72,-6.9710,-1.9709,0.1797,0.0000,-0.0000,-1.9400,flat,18.0,2,3.085
1470,47.04,-7.1755,-2.5059,0.1797,0.0001,0.0000,-1.9256,flat,18.0,2,2.513
1480,47.36,-7.3721,-3.0436,0.1797,0.0001,0.0000,-1.9100,flat,18.0,2,1.942
1490,47.68,-7.5597,-3.5838,0.1797,0.0001,0.0000,-1.8912,flat,18.0,2,1.372
1500,48.00,-7.7360,-4.1259,0.1797,0.0001,0.0000,-1.8641,flat,18.0,2,0.804
1510,48.32,-7.8756,-4.6028,0.1798,-0.0003,0.0002,-1.7732,flat,18.0,0,13.221
1520,48.64,-7.9343,-4.9953,0.1799,-0.0001,-0.0000,-1.3377,flat,18.0,0,13.287
1530,48.96,-7.8044,-5.4056,0.1799,-0.0001,-0.0001,-1.0224,flat,18.0,0,13.179
1540,49.28,-7.5179,-5.7900,0.1799,0.0000,-0.0000,-0.7925,flat,18.0,0,12.925
1550,49.60,-7.1260,-6.1288,0.1799,0.0000,-0.0000,-0.6046,flat,18.0,0,12.574
1560,49.92,-6.6643,-6.4109,0.1799,0.0001,-0.0000,-0.4388,flat,18.0,0,12.157
1570,50.24,-6.1559,-6.6261,0.1799,0.0002,-0.0000,-0.3009,flat,18.0,0,11.692
1580,50.56,-5.6188,-6.7771,0.1799,0.0004,-0.0000,-0.1884,flat,18.0,0,11.193
1590,50.88,-5.0651,-6.8711,0.1798,0.0004,-0.0000,-0.0964,flat,18.0,0,10.672
1600,51.20,-4.5026,-6.9165,0.1798,0.0003,-0.0000,-0.0212,flat,18.0,0,10.135
1610,51.52,-3.9366,-6.9210,0.1797,0.0002,-0.0000,0.0389,flat,18.0,0,9.587
1620,51.84,-3.3707,-6.8934,0.1797,0.0002,-0.0000,0.0851,flat,18.0,0,9.033
1630,52.16,-2.8058,-6.8405,0.1797,0.0001,-0.0000,0.1221,flat,18.0,0,8.474
1640,52.48,-2.2421,-6.7672,0.1797,0.0001,-0.0000,0.1532,flat,18.0,0,7.913
1650,52.80,-1.6801,-6.6769,0.1797,0.0001,-0.0000,0.1798,flat,18.0,0,7.348
1660,53.12,-1.1198,-6.5718,0.1797,0.0001,-0.0000,0.2029,flat,18.0,0,6.782
1670,53.44,-0.5615,-6.4540,0.1797,0.0001,-0.0000,0.2232,flat,18.0,0,6.215
1680,53.76,-0.0051,-6.3251,0.1797,0.0001,-0.0000,0.2414,flat,18.0,0,5.646
1690,54.08,0.5492,-6.1861,0.1797,0.0001,-0.0000,0.2578,flat,18.0,0,5.077
1700,54.40,1.1015,-6.0381,0.1797,0.0001,-0.0000,0.2730,flat,18.0,0,4.506
1710,54.72,1.6517,-5.8818,0.1797,0.0001,-0.0000,0.2873,flat,18.0,0,3.936
1720,55.04,2.1998,-5.7176,0.1797,0.0000,-0.0000,0.3011,flat,18.0,0,3.365
1730,55.36,2.7455,-5.5460,0.1797,0.0000,0.0000,0.3147,flat,18.0,0,2.794
1740,55.68,3.2886,-5.3669,0.1797,0.0001,0.0000,0.3289,flat,18.0,0,2.224
1750,56.00,3.8286,-5.1800,0.1797,0.0001,0.0000,0.3448,flat,18.0,0,1.653
1760,56.32,4.3640,-4.9845,0.1797,0.0001,0.0000,0.3649,flat,18.0,0,1.085
1770,56.64,4.8607,-4.7945,0.1798,-0.0000,0.0002,0.4757,flat,18.0,1,12.890
1780,56.96,5.2341,-4.5587,0.1799,0.0000,-0.0000,0.7455,flat,18.0,1,12.783
1790,57.28,5.5502,-4.2000,0.1799,0.0000,-0.0000,0.9874,flat,18.0,1,12.556
1800,57.60,5.8049,-3.7500,0.1799,0.0000,-0.0000,1.2078,flat,18.0,1,12.235
1810,57.92,5.9731,-3.2374,0.1799,0.0001,-0.0000,1.4006,flat,18.0,1,11.834
1820,58.24,6.0482,-2.6917,0.1799,0.0001,-0.0000,1.5587,flat,18.0,1,11.374
1830,58.56,6.0406,-2.1358,0.1799,0.0003,-0.0000,1.6774,flat,18.0,1,10.875
1840,58.88,5.9706,-1.5815,0.1798,0.0004,-0.0000,1.7639,flat,18.0,1,10.352
1850,59.20,5.8543,-1.0324,0.1797,0.0003,-0.0000,1.8305,flat,18.0,1,9.816
1860,59.52,5.7024,-0.4898,0.1797,0.0002,-0.0000,1.8836,flat,18.0,1,9.270
1870,59.84,5.5221,0.0455,0.1797,0.0002,-0.0000,1.9261,flat,18.0,1,8.718
1880,60.16,5.3198,0.5737,0.1797,0.0001,-0.0000,1.9606,flat,18.0,1,8.161
1890,60.48,5.0994,1.0960,0.1797,0.0001,-0.0000,1.9905,flat,18.0,1,7.602
1900,60.80,4.8635,1.6126,0.1797,0.0001,-0.0000,2.0167,flat,18.0,1,7.040
1910,61.12,4.6142,2.1237,0.1797,0.0001,-0.0000,2.0400,flat,18.0,1,6.476
1920,61.44,4.3530,2.6296,0.1797,0.0001,-0.0000,2.0610,flat,18.0,1,5.910
1930,61.76,4.0812,3.1304,0.1797,0.0001,-0.0000,2.0803,flat,18.0,1,5.344
1940,62.08,3.7998,3.6264,0.1797,0.0001,-0.0000,2.0982,flat,18.0,1,4.776
1950,62.40,3.5095,4.1175,0.1797,0.0001,-0.0000,2.1152,flat,18.0,1,4.208
1960,62.72,3.2109,4.6039,0.1797,0.0001,-0.0000,2.1315,flat,18.0,1,3.640
1970,63.04,2.9044,5.0853,0.1797,0.0001,-0.0000,2.1478,flat,18.0,1,3.071
1980,63.36,2.5900,5.5613,0.1797,0.0001,0.0000,2.1646,flat,18.0,1,2.503
1990,63.68,2.2677,6.0315,0.1797,0.0001,0.0000,2.1828,flat,18.0,1,1.935
2000,64.00,1.9369,6.4942,0.1797,0.0001,0.0000,2.2046,flat,18.0,1,1.369
2010,64.32,1.5964,6.9460,0.1797,0.0001,0.0000,2.2357,flat,18.0,1,0.807
2020,64.64,1.3042,7.2629,0.1799,-0.0003,0.0000,2.5376,flat,18.0,2,15.261
2030,64.96,0.9292,7.4731,0.1799,-0.0000,-0.0000,2.8820,flat,18.0,2,15.209
2040,65.28,0.4614,7.5695,0.1799,0.0000,-0.0000,-3.0917,flat,18.0,2,15.022
2050,65.60,-0.0441,7.5199,0.1799,0.0000,-0.0000,-2.8561,flat,18.0,2,14.705
2060,65.92,-0.5446,7.3480,0.1799,0.0001,-0.0000,-2.6867,flat,18.0,2,14.296
2070,66.24,-1.0206,7.0904,0.1799,0.0003,-0.0000,-2.5648,flat,18.0,2,13.833
2080,66.56,-1.4715,6.7744,0.1798,0.0003,-0.0000,-2.4796,flat,18.0,2,13.337
2090,66.88,-1.9001,6.4207,0.1797,0.0002,-0.0000,-2.4128,flat,18.0,2,12.822
2100,67.20,-2.3058,6.0381,0.1797,0.0002,-0.0000,-2.3528,flat,18.0,2,12.296
2110,67.52,-2.6908,5.6310,0.1797,0.0002,-0.0000,-2.3015,flat,18.0,2,11.759
2120,67.84,-3.0569,5.2049,0.1797,0.0002,-0.0000,-2.2575,flat,18.0,2,11.216
2130,68.16,-3.4067,4.7628,0.1797,0.0001,-0.0000,-2.2189,flat,18.0,2,10.667
2140,68.48,-3.7414,4.3069,0.1797,0.0001,-0.0000,-2.1843,flat,18.0,2,10.113
2150,68.80,-4.0619,3.8391,0.1797,0.0001,-0.0000,-2.1532,flat,18.0,2,9.556
2160,69.12,-4.3692,3.3611,0.1797,0.0001,-0.0000,-2.1252,flat,18.0,2,8.995
2170,69.44,-4.6642,2.8742,0.1797,0.0001,-0.0000,-2.1000,flat,18.0,2,8.432
2180,69.76,-4.9478,2.3798,0.1797,0.0001,-0.0000,-2.0772,flat,18.0,2,7.867
2190,70.08,-5.2209,1.8786,0.1797,0.0001,-0.0000,-2.0564,flat,18.0,2,7.300
2200,70.40,-5.4841,1.3717,0.1797,0.0001,-0.0000,-2.0373,flat,18.0,2,6.732
2210,70.72,-5.7382,0.8596,0.1797,0.0001,-0.0000,-2.0198,flat,18.0,2,6.163
2220,71.04,-5.9837,0.3429,0.1797,0.0001,-0.0000,-2.0035,flat,18.0,2,5.594
2230,71.36,-6.2210,-0.1779,0.1797,0.0001,-0.0000,-1.9881,flat,18.0,2,5.023
2240,71.68,-6.4507,-0.7024,0.1797,0.0001,-0.0000,-1.9736,flat,18.0,2,4.452
2250,72.00,-6.6729,-1.2303,0.1797,0.0000,-0.0000,-1.9595,flat,18.0,2,3.881
2260,72.32,-6.8878,-1.7612,0.1797,0.0000,-0.0000,-1.9457,flat,18.0,2,3.310
2270,72.64,-7.0954,-2.2951,0.1797,0.0000,0.0000,-1.9316,flat,18.0,2,2.738
2280,72.96,-7.2952,-2.8317,0.1797,0.0001,0.0000,-1.9166,flat,18.0,2,2.167
2290,73.28,-7.4867,-3.3709,0.1797,0.0001,0.0000,-1.8994,flat,18.0,2,1.596
2300,73.60,-7.6680,-3.9123,0.1797,0.0001,0.0000,-1.8767,flat,18.0,2,1.027
2310,73.92,-7.8270,-4.4341,0.1798,-0.0000,0.0003,-1.9068,flat,18.0,0,13.172
2320,74.24,-7.9331,-4.8404,0.1799,-0.0003,0.0000,-1.5010,flat,18.0,0,13.282
2330,74.56,-7.8788,-5.2456,0.1799,-0.0001,-0.0001,-1.1360,flat,18.0,0,13.243
2340,74.88,-7.6490,-5.6448,0.1799,-0.0000,-0.0000,-0.8762,flat,18.0,0,13.042
2350,75.20,-7.2932,-6.0022,0.1799,0.0000,-0.0000,-0.6777,flat,18.0,0,12.725
2360,75.52,-6.8565,-6.3091,0.1799,0.0000,-0.0000,-0.5016,flat,18.0,0,12.332
2370,75.84,-6.3643,-6.5512,0.1799,0.0001,-0.0000,-0.3525,flat,18.0,0,11.884
2380,76.16,-5.8369,-6.7270,0.1799,0.0003,-0.0000,-0.2304,flat,18.0,0,11.397
2390,76.48,-5.2886,-6.8427,0.1798,0.0004,-0.0000,-0.1308,flat,18.0,0,10.884
2400,76.80,-4.7289,-6.9064,0.1798,0.0004,-0.0000,-0.0492,flat,18.0,0,10.352
2410,77.12,-4.1637,-6.9263,0.1797,0.0003,-0.0000,0.0174,flat,18.0,0,9.808
2420,77.44,-3.5978,-6.9102,0.1797,0.0002,-0.0000,0.0679,flat,18.0,0,9.256
2430,77.76,-3.0323,-6.8666,0.1797,0.0001,-0.0000,0.1084,flat,18.0,0,8.699
2440,78.08,-2.4681,-6.8009,0.1797,0.0001,-0.0000,0.1416,flat,18.0,0,8.139
2450,78.40,-1.9054,-6.7169,0.1797,0.0001,-0.0000,0.1699,flat,18.0,0,7.575
2460,78.72,-1.3444,-6.6173,0.1797,0.0001,-0.0000,0.1942,flat,18.0,0,7.010
2470,79.04,-0.7853,-6.5043,0.1797,0.0001,-0.0000,0.2156,flat,18.0,0,6.443
2480,79.36,-0.2282,-6.3795,0.1797,0.0001,-0.0000,0.2346,flat,18.0,0,5.875
2490,79.68,0.3269,-6.2443,0.1797,0.0001,-0.0000,0.2517,flat,18.0,0,5.306
2500,80.00,0.8800,-6.0997,0.1797,0.0001,-0.0000,0.2673,flat,18.0,0,4.736
2510,80.32,1.4310,-5.9465,0.1797,0.0001,-0.0000,0.2819,flat,18.0,0,4.165
2520,80.64,1.9799,-5.7853,0.1797,0.0000,-0.0000,0.2958,flat,18.0,0,3.595
2530,80.96,2.5266,-5.6165,0.1797,0.0000,-0.0000,0.3094,flat,18.0,0,3.024
2540,81.28,3.0707,-5.4403,0.1797,0.0000,0.0000,0.3233,flat,18.0,0,2.453
2550,81.60,3.6120,-5.2565,0.1797,0.0001,0.0000,0.3383,flat,18.0,0,1.883
2560,81.92,4.1495,-5.0645,0.1797,0.0001,0.0000,0.3562,flat,18.0,0,1.313
2570,82.24,4.6807,-4.8630,0.1797,0.0001,0.0000,0.3823,flat,18.0,1,12.903
2580,82.56,5.0935,-4.6671,0.1799,-0.0001,0.0000,0.6347,flat,18.0,1,12.841
2590,82.88,5.4281,-4.3564,0.1799,0.0000,-0.0000,0.8930,flat,18.0,1,12.659
2600,83.20,5.7113,-3.9396,0.1799,0.0000,-0.0000,1.1227,flat,18.0,1,12.374
2610,83.52,5.9159,-3.4484,0.1799,0.0000,-0.0000,1.3273,flat,18.0,1,12.003
2620,83.84,6.0278,-2.9126,0.1799,0.0001,-0.0000,1.4996,flat,18.0,1,11.564
2630,84.16,6.0512,-2.3587,0.1799,0.0002,-0.0000,1.6348,flat,18.0,1,11.078
2640,84.48,6.0038,-1.8030,0.1798,0.0004,-0.0000,1.7321,flat,18.0,1,10.563
2650,84.80,5.9045,-1.2516,0.1798,0.0003,-0.0000,1.8057,flat,18.0,1,10.032
2660,85.12,5.7658,-0.7064,0.1797,0.0002,-0.0000,1.8636,flat,18.0,1,9.489
2670,85.44,5.5963,-0.1679,0.1797,0.0002,-0.0000,1.9106,flat,18.0,1,8.939
2680,85.76,5.4021,0.3628,0.1797,0.0001,-0.0000,1.9474,flat,18.0,1,8.384
2690,86.08,5.1886,0.8875,0.1797,0.0001,-0.0000,1.9789,flat,18.0,1,7.826
2700,86.40,4.9587,1.4063,0.1797,0.0001,-0.0000,2.0065,flat,18.0,1,7.265
2710,86.72,4.7146,1.9196,0.1797,0.0001,-0.0000,2.0309,flat,18.0,1,6.701
2720,87.04,4.4581,2.4276,0.1797,0.0001,-0.0000,2.0528,flat,18.0,1,6.137
2730,87.36,4.1904,2.9305,0.1797,0.0001,-0.0000,2.0727,flat,18.0,1,5.570
2740,87.68,3.9128,3.4284,0.1797,0.0001,-0.0000,2.0911,flat,18.0,1,5.003
2750,88.00,3.6261,3.9215,0.1797,0.0001,-0.0000,2.1084,flat,18.0,1,4.435
2760,88.32,3.3308,4.4099,0.1797,0.0001,-0.0000,2.1249,flat,18.0,1,3.867
2770,88.64,3.0275,4.8933,0.1797,0.0001,-0.0000,2.1412,flat,18.0,1,3.299
2780,88.96,2.7163,5.3716,0.1797,0.0001,0.0000,2.1576,flat,18.0,1,2.730
2790,89.28,2.3972,5.8442,0.1797,0.0001,0.0000,2.1751,flat,18.0,1,2.162
2800,89.60,2.0700,6.3102,0.1797,0.0001,0.0000,2.1952,flat,18.0,1,1.595
2810,89.92,1.7336,6.7671,0.1797,0.0001,0.0000,2.2212,flat,18.0,1,1.031
2820,90.24,1.4213,7.1616,0.1798,-0.0001,0.0003,2.3943,flat,18.0,2,15.252
2830,90.56,1.0929,7.3991,0.1799,-0.0000,-0.0001,2.7472,flat,18.0,2,15.244
2840,90.88,0.6561,7.5483,0.1799,0.0000,-0.0000,3.0734,flat,18.0,2,15.114
2850,91.20,0.1591,7.5565,0.1799,0.0000,-0.0000,-2.9415,flat,18.0,2,14.845
2860,91.52,-0.3468,7.4293,0.1799,0.0001,-0.0000,-2.7482,flat,18.0,2,14.468
2870,91.84,-0.8336,7.2019,0.1799,0.0002,-0.0000,-2.6089,flat,18.0,2,14.023
2880,92.16,-1.2937,6.9069,0.1798,0.0004,-0.0000,-2.5088,flat,18.0,2,13.539
2890,92.48,-1.7316,6.5662,0.1798,0.0003,-0.0000,-2.4385,flat,18.0,2,13.030
2900,92.80,-2.1462,6.1947,0.1797,0.0002,-0.0000,-2.3754,flat,18.0,2,12.508
2910,93.12,-2.5394,5.7967,0.1797,0.0002,-0.0000,-2.3213,flat,18.0,2,11.975
2920,93.44,-2.9127,5.3776,0.1797,0.0002,-0.0000,-2.2742,flat,18.0,2,11.434
2930,93.76,-3.2688,4.9417,0.1797,0.0001,-0.0000,-2.2338,flat,18.0,2,10.887
2940,94.08,-3.6094,4.4910,0.1797,0.0001,-0.0000,-2.1976,flat,18.0,2,10.335
2950,94.40,-3.9354,4.0277,0.1797,0.0001,-0.0000,-2.1652,flat,18.0,2,9.779
2960,94.72,-4.2479,3.5536,0.1797,0.0001,-0.0000,-2.1361,flat,18.0,2,9.220
2970,95.04,-4.5477,3.0702,0.1797,0.0001,-0.0000,-2.1098,flat,18.0,2,8.658
2980,95.36,-4.8357,2.5786,0.1797,0.0001,-0.0000,-2.0860,flat,18.0,2,8.093
2990,95.68,-5.1129,2.0801,0.1797,0.0001,-0.0000,-2.0644,flat,18.0,2,7.527
3000,96.00,-5.3800,1.5753,0.1797,0.0001,-0.0000,-2.0447,flat,18.0,2,6.960
3010,96.32,-5.6376,1.0652,0.1797,0.0001,-0.0000,-2.0266,flat,18.0,2,6.391
3020,96.64,-5.8865,0.5502,0.1797,0.0001,-0.0000,-2.0098,flat,18.0,2,5.822
3030,96.96,-6.1270,0.0310,0.1797,0.0001,-0.0000,-1.9941,flat,18.0,2,5.252
3040,97.28,-6.3597,-0.4920,0.1797,0.0001,-0.0000,-1.9793,flat,18.0,2,4.681
3050,97.60,-6.5849,-1.0186,0.1797,0.0001,-0.0000,-1.9651,flat,18.0,2,4.110
3060,97.92,-6.8027,-1.5483,0.1797,0.0000,-0.0000,-1.9512,flat,18.0,2,3.539
3070,98.24,-7.0132,-2.0810,0.1797,0.0000,-0.0000,-1.9373,flat,18.0,2,2.967
3080,98.56,-7.2162,-2.6166,0.1797,0.0001,0.0000,-1.9227,flat,18.0,2,2.396
3090,98.88,-7.4112,-3.1547,0.1797,0.0001,0.0000,-1.9067,flat,18.0,2,1.825
3100,99.20,-7.5968,-3.6954,0.1797,0.0001,0.0000,-1.8869,flat,18.0,2,1.255
3110,99.52,-7.7669,-4.2348,0.1797,0.0001,0.0002,-1.8762,flat,18.0,3,0.924
3120,99.84,-7.8998,-4.6873,0.1798,-0.0004,0.0001,-1.6886,flat,18.0,0,13.246
3130,100.16,-7.9242,-5.0802,0.1799,-0.0001,-0.0000,-1.2647,flat,18.0,0,13.281
3140,100.48,-7.7589,-5.4889,0.1799,-0.0001,-0.0001,-0.9705,flat,18.0,0,13.139
3150,100.80,-7.4470,-5.8645,0.1799,0.0000,-0.0000,-0.7535,flat,18.0,0,12.862
3160,101.12,-7.0392,-6.1934,0.1799,0.0000,-0.0000,-0.5691,flat,18.0,0,12.496
3170,101.44,-6.5664,-6.4624,0.1799,0.0001,-0.0000,-0.4088,flat,18.0,0,12.068
3180,101.76,-6.0510,-6.6642,0.1799,0.0002,-0.0000,-0.2763,flat,18.0,0,11.596
3190,102.08,-5.5097,-6.8030,0.1798,0.0004,-0.0000,-0.1682,flat,18.0,0,11.092
3200,102.40,-4.9537,-6.8865,0.1798,0.0004,-0.0000,-0.0799,flat,18.0,0,10.567
3210,102.72,-4.3901,-6.9230,0.1798,0.0003,-0.0000,-0.0076,flat,18.0,0,10.027
3220,103.04,-3.8241,-6.9202,0.1797,0.0002,-0.0000,0.0491,flat,18.0,0,9.478
3230,103.36,-3.2582,-6.8870,0.1797,0.0002,-0.0000,0.0935,flat,18.0,0,8.922
3240,103.68,-2.6936,-6.8295,0.1797,0.0001,-0.0000,0.1290,flat,18.0,0,8.363
3250,104.00,-2.1302,-6.7524,0.1797,0.0001,-0.0000,0.1591,flat,18.0,0,7.801
3260,104.32,-1.5685,-6.6588,0.1797,0.0001,-0.0000,0.1849,flat,18.0,0,7.236
3270,104.64,-1.0087,-6.5509,0.1797,0.0001,-0.0000,0.2074,flat,18.0,0,6.670
3280,104.96,-0.4507,-6.4306,0.1797,0.0001,-0.0000,0.2272,flat,18.0,0,6.102
3290,105.28,0.1052,-6.2995,0.1797,0.0001,-0.0000,0.2450,flat,18.0,0,5.533
3300,105.60,0.6591,-6.1585,0.1797,0.0001,-0.0000,0.2612,flat,18.0,0,4.964
3310,105.92,1.2109,-6.0087,0.1797,0.0001,-0.0000,0.2762,flat,18.0,0,4.394
3320,106.24,1.7607,-5.8506,0.1797,0.0001,-0.0000,0.2903,flat,18.0,0,3.823
3330,106.56,2.3083,-5.6849,0.1797,0.0000,-0.0000,0.3040,flat,18.0,0,3.252
3340,106.88,2.8535,-5.5116,0.1797,0.0000,0.0000,0.3177,flat,18.0,0,2.681
3350,107.20,3.3960,-5.3309,0.1797,0.0001,0.0000,0.3321,flat,18.0,0,2.111
3360,107.52,3.9351,-5.1423,0.1797,0.0001,0.0000,0.3485,flat,18.0,0,1.541
3370,107.84,4.4694,-4.9448,0.1797,0.0001,0.0000,0.3701,flat,18.0,0,0.973
3380,108.16,4.9408,-4.7562,0.1798,-0.0003,0.0000,0.5259,flat,18.0,1,12.878
3390,108.48,5.2998,-4.4963,0.1799,0.0000,-0.0000,0.7961,flat,18.0,1,12.746
3400,108.80,5.6061,-4.1168,0.1799,0.0000,-0.0000,1.0335,flat,18.0,1,12.499
3410,109.12,5.8449,-3.6519,0.1799,0.0000,-0.0000,1.2488,flat,18.0,1,12.160
3420,109.44,5.9944,-3.1303,0.1799,0.0001,-0.0000,1.4349,flat,18.0,1,11.746
3430,109.76,6.0518,-2.5810,0.1799,0.0001,-0.0000,1.5860,flat,18.0,1,11.276
3440,110.08,6.0300,-2.0250,0.1798,0.0004,-0.0000,1.6966,flat,18.0,1,10.771
3450,110.40,5.9496,-1.4715,0.1798,0.0004,-0.0000,1.7785,flat,18.0,1,10.246
3460,110.72,5.8255,-0.9236,0.1797,0.0002,-0.0000,1.8420,flat,18.0,1,9.707
3470,111.04,5.6675,-0.3824,0.1797,0.0002,-0.0000,1.8929,flat,18.0,1,9.160
3480,111.36,5.4824,0.1513,0.1797,0.0001,-0.0000,1.9334,flat,18.0,1,8.606
3490,111.68,5.2762,0.6784,0.1797,0.0001,-0.0000,1.9668,flat,18.0,1,8.049
3500,112.00,5.0526,1.1995,0.1797,0.0001,-0.0000,1.9959,flat,18.0,1,7.489
3510,112.32,4.8139,1.7150,0.1797,0.0001,-0.0000,2.0215,flat,18.0,1,6.927
3520,112.64,4.5622,2.2251,0.1797,0.0001,-0.0000,2.0443,flat,18.0,1,6.363
3530,112.96,4.2988,2.7300,0.1797,0.0001,-0.0000,2.0649,flat,18.0,1,5.797
3540,113.28,4.0251,3.2299,0.1797,0.0001,-0.0000,2.0839,flat,18.0,1,5.230
3550,113.60,3.7419,3.7249,0.1797,0.0001,-0.0000,2.1016,flat,18.0,1,4.663
3560,113.92,3.4500,4.2151,0.1797,0.0001,-0.0000,2.1184,flat,18.0,1,4.095
3570,114.24,3.1498,4.7005,0.1797,0.0001,-0.0000,2.1347,flat,18.0,1,3.526
3580,114.56,2.8417,5.1809,0.1797,0.0001,0.0000,2.1510,flat,18.0,1,2.957
3590,114.88,2.5258,5.6559,0.1797,0.0001,0.0000,2.1680,flat,18.0,1,2.389
3600,115.20,2.2019,6.1247,0.1797,0.0001,0.0000,2.1867,flat,18.0,1,1.822
3610,115.52,1.8694,6.5857,0.1797,0.0001,0.0000,2.2097,flat,18.0,1,1.256
3620,115.84,1.5301,7.0319,0.1797,0.0001,0.0002,2.2598,flat,18.0,2,15.216
3630,116.16,1.2387,7.3108,0.1799,-0.0002,-0.0000,2.6082,flat,18.0,2,15.260
3640,116.48,0.8413,7.5036,0.1799,-0.0000,-0.0000,2.9473,flat,18.0,2,15.183
3650,116.80,0.3614,7.5711,0.1799,0.0000,-0.0000,-3.0384,flat,18.0,2,14.968
3660,117.12,-0.1457,7.4943,0.1799,0.0000,-0.0000,-2.8176,flat,18.0,2,14.629
3670,117.44,-0.6422,7.3025,0.1799,0.0001,-0.0000,-2.6590,flat,18.0,2,14.207
3680,117.76,-1.1127,7.0315,0.1799,0.0003,-0.0000,-2.5446,flat,18.0,2,13.737
3690,118.08,-1.5593,6.7065,0.1798,0.0003,-0.0000,-2.4658,flat,18.0,2,13.235
3700,118.40,-1.9831,6.3467,0.1797,0.0002,-0.0000,-2.3999,flat,18.0,2,12.718
3710,118.72,-2.3845,5.9587,0.1797,0.0002,-0.0000,-2.3420,flat,18.0,2,12.189
3720,119.04,-2.7656,5.5474,0.1797,0.0002,-0.0000,-2.2921,flat,18.0,2,11.651
3730,119.36,-3.1283,5.1179,0.1797,0.0001,-0.0000,-2.2494,flat,18.0,2,11.107
3740,119.68,-3.4749,4.6729,0.1797,0.0001,-0.0000,-2.2116,flat,18.0,2,10.557
3750,120.00,-3.8067,4.2144,0.1797,0.0001,-0.0000,-2.1778,flat,18.0,2,10.002
3760,120.32,-4.1245,3.7445,0.1797,0.0001,-0.0000,-2.1474,flat,18.0,2,9.444
3770,120.64,-4.4292,3.2646,0.1797,0.0001,-0.0000,-2.1200,flat,18.0,2,8.883
3780,120.96,-4.7219,2.7761,0.1797,0.0001,-0.0000,-2.0953,flat,18.0,2,8.319
3790,121.28,-5.0033,2.2803,0.1797,0.0001,-0.0000,-2.0728,flat,18.0,2,7.754
3800,121.60,-5.2743,1.7779,0.1797,0.0001,-0.0000,-2.0524,flat,18.0,2,7.187
3810,121.92,-5.5357,1.2698,0.1797,0.0001,-0.0000,-2.0337,flat,18.0,2,6.619
3820,122.24,-5.7880,0.7568,0.1797,0.0001,-0.0000,-2.0164,flat,18.0,2,6.050
3830,122.56,-6.0318,0.2392,0.1797,0.0001,-0.0000,-2.0003,flat,18.0,2,5.480
3840,122.88,-6.2676,-0.2824,0.1797,0.0001,-0.0000,-1.9852,flat,18.0,2,4.909
3850,123.20,-6.4957,-0.8076,0.1797,0.0001,-0.0000,-1.9707,flat,18.0,2,4.338
3860,123.52,-6.7165,-1.3361,0.1797,0.0000,-0.0000,-1.9568,flat,18.0,2,3.767
3870,123.84,-6.9299,-1.8676,0.1797,0.0000,-0.0000,-1.9429,flat,18.0,2,3.196
3880,124.16,-7.1359,-2.4020,0.1797,0.0001,0.0000,-1.9287,flat,18.0,2,2.624
3890,124.48,-7.3342,-2.9392,0.1797,0.0001,0.0000,-1.9134,flat,18.0,2,2.053
3900,124.80,-7.5238,-3.4788,0.1797,0.0001,0.0000,-1.8955,flat,18.0,2,1.483
3910,125.12,-7.7027,-4.0207,0.1797,0.0001,0.0000,-1.8708,flat,18.0,2,0.914
3920,125.44,-7.8517,-4.5215,0.1799,-0.0005,0.0003,-1.8466,flat,18.0,0,13.196
3930,125.76,-7.9379,-4.9183,0.1799,-0.0002,-0.0000,-1.4162,flat,18.0,0,13.289
3940,126.08,-7.8454,-5.3275,0.1799,-0.0001,-0.0001,-1.0773,flat,18.0,0,13.215
3950,126.40,-7.5862,-5.7199,0.1799,-0.0000,-0.0000,-0.8331,flat,18.0,0,12.986
3960,126.72,-7.2115,-6.0680,0.1799,0.0000,-0.0000,-0.6407,flat,18.0,0,12.651
3970,127.04,-6.7617,-6.3628,0.1799,0.0001,-0.0000,-0.4695,flat,18.0,0,12.246
3980,127.36,-6.2610,-6.5914,0.1799,0.0001,-0.0000,-0.3261,flat,18.0,0,11.789
3990,127.68,-5.7285,-6.7545,0.1799,0.0003,-0.0000,-0.2089,flat,18.0,0,11.296
4000,128.00,-5.1774,-6.8592,0.1798,0.0004,-0.0000,-0.1131,flat,18.0,0,10.779
4010,128.32,-4.6162,-6.9135,0.1798,0.0004,-0.0000,-0.0348,flat,18.0,0,10.244
4020,128.64,-4.0503,-6.9255,0.1797,0.0002,-0.0000,0.0289,flat,18.0,0,9.698
4030,128.96,-3.4845,-6.9034,0.1797,0.0002,-0.0000,0.0768,flat,18.0,0,9.145
4040,129.28,-2.9193,-6.8550,0.1797,0.0001,-0.0000,0.1156,flat,18.0,0,8.587
4050,129.60,-2.3554,-6.7854,0.1797,0.0001,-0.0000,0.1476,flat,18.0,0,8.026
4060,129.92,-1.7930,-6.6980,0.1797,0.0001,-0.0000,0.1750,flat,18.0,0,7.462
4070,130.24,-1.2324,-6.5956,0.1797,0.0001,-0.0000,0.1987,flat,18.0,0,6.897
4080,130.56,-0.6737,-6.4801,0.1797,0.0001,-0.0000,0.2195,flat,18.0,0,6.329
4090,130.88,-0.1170,-6.3532,0.1797,0.0001,-0.0000,0.2381,flat,18.0,0,5.761
4100,131.20,0.4378,-6.2160,0.1797,0.0001,-0.0000,0.2549,flat,18.0,0,5.192
4110,131.52,0.9904,-6.0696,0.1797,0.0001,-0.0000,0.2703,flat,18.0,0,4.622
4120,131.84,1.5410,-5.9148,0.1797,0.0001,-0.0000,0.2847,flat,18.0,0,4.051
4130,132.16,2.0895,-5.7521,0.1797,0.0000,-0.0000,0.2985,flat,18.0,0,3.480
4140,132.48,2.6357,-5.5818,0.1797,0.0000,-0.0000,0.3122,flat,18.0,0,2.910
4150,132.80,3.1793,-5.4041,0.1797,0.0000,0.0000,0.3262,flat,18.0,0,2.339
4160,133.12,3.7199,-5.2187,0.1797,0.0001,0.0000,0.3416,flat,18.0,0,1.768
4170,133.44,4.2564,-5.0250,0.1797,0.0001,0.0000,0.3604,flat,18.0,0,1.200
4180,133.76,4.7761,-4.8295,0.1797,0.0001,0.0003,0.4267,flat,18.0,1,12.899
4190,134.08,5.1644,-4.6161,0.1799,-0.0000,-0.0000,0.6919,flat,18.0,1,12.815
4200,134.40,5.4898,-4.2803,0.1799,0.0000,-0.0000,0.9406,flat,18.0,1,12.609
4210,134.72,5.7593,-3.8463,0.1799,0.0000,-0.0000,1.1658,flat,18.0,1,12.306
4220,135.04,5.9460,-3.3437,0.1799,0.0000,-0.0000,1.3648,flat,18.0,1,11.920
4230,135.36,6.0393,-2.8025,0.1799,0.0001,-0.0000,1.5298,flat,18.0,1,11.470
4240,135.68,6.0468,-2.2474,0.1799,0.0003,-0.0000,1.6568,flat,18.0,1,10.976
4250,136.00,5.9877,-1.6923,0.1798,0.0004,-0.0000,1.7484,flat,18.0,1,10.458
4260,136.32,5.8797,-1.1420,0.1798,0.0003,-0.0000,1.8183,flat,18.0,1,9.924
4270,136.64,5.7343,-0.5981,0.1797,0.0002,-0.0000,1.8738,flat,18.0,1,9.379
4280,136.96,5.5593,-0.0612,0.1797,0.0002,-0.0000,1.9185,flat,18.0,1,8.828
4290,137.28,5.3609,0.4683,0.1797,0.0001,-0.0000,1.9540,flat,18.0,1,8.273
4300,137.60,5.1440,0.9917,0.1797,0.0001,-0.0000,1.9847,flat,18.0,1,7.714
4310,137.92,4.9111,1.5094,0.1797,0.0001,-0.0000,2.0116,flat,18.0,1,7.152
4320,138.24,4.6644,2.0217,0.1797,0.0001,-0.0000,2.0354,flat,18.0,1,6.589
4330,138.56,4.4055,2.5286,0.1797,0.0001,-0.0000,2.0569,flat,18.0,1,6.023
4340,138.88,4.1358,3.0305,0.1797,0.0001,-0.0000,2.0765,flat,18.0,1,5.457
4350,139.20,3.8563,3.5274,0.1797,0.0001,-0.0000,2.0946,flat,18.0,1,4.890
4360,139.52,3.5678,4.0196,0.1797,0.0001,-0.0000,2.1117,flat,18.0,1,4.322
4370,139.84,3.2709,4.5069,0.1797,0.0001,-0.0000,2.1282,flat,18.0,1,3.754
4380,140.16,2.9659,4.9893,0.1797,0.0001,-0.0000,2.1444,flat,18.0,1,3.185
4390,140.48,2.6532,5.4666,0.1797,0.0001,0.0000,2.1610,flat,18.0,1,2.616
4400,140.80,2.3325,5.9380,0.1797,0.0001,0.0000,2.1789,flat,18.0,1,2.049
4410,141.12,2.0035,6.4024,0.1797,0.0001,0.0000,2.1997,flat,18.0,1,1.482
4420,141.44,1.6652,6.8570,0.1797,0.0001,0.0000,2.2280,flat,18.0,1,0.919
4430,141.76,1.3644,7.2136,0.1798,-0.0003,0.0001,2.4663,flat,18.0,2,15.258
4440,142.08,1.0131,7.4382,0.1799,-0.0000,-0.0001,2.8152,flat,18.0,2,15.229
4450,142.40,0.5596,7.5621,0.1799,0.0000,-0.0000,3.1340,flat,18.0,2,15.071
4460,142.72,0.0575,7.5409,0.1799,-0.0000,-0.0000,-2.8974,flat,18.0,2,14.777
4470,143.04,-0.4463,7.3905,0.1799,0.0001,-0.0000,-2.7164,flat,18.0,2,14.383
4480,143.36,-0.9277,7.1475,0.1799,0.0003,-0.0000,-2.5862,flat,18.0,2,13.929
4490,143.68,-1.3830,6.8416,0.1798,0.0004,-0.0000,-2.4935,flat,18.0,2,13.439
4500,144.00,-1.8164,6.4941,0.1797,0.0003,-0.0000,-2.4257,flat,18.0,2,12.926
4510,144.32,-2.2265,6.1170,0.1797,0.0002,-0.0000,-2.3639,flat,18.0,2,12.402
4520,144.64,-2.6155,5.7144,0.1797,0.0002,-0.0000,-2.3113,flat,18.0,2,11.867
4530,144.96,-2.9852,5.2917,0.1797,0.0002,-0.0000,-2.2658,flat,18.0,2,11.325
4540,145.28,-3.3381,4.8526,0.1797,0.0001,-0.0000,-2.2263,flat,18.0,2,10.777
4550,145.60,-3.6758,4.3993,0.1797,0.0001,-0.0000,-2.1909,flat,18.0,2,10.224
4560,145.92,-3.9990,3.9337,0.1797,0.0001,-0.0000,-2.1591,flat,18.0,2,9.668
4570,146.24,-4.3088,3.4576,0.1797,0.0001,-0.0000,-2.1306,flat,18.0,2,9.107
4580,146.56,-4.6062,2.9725,0.1797,0.0001,-0.0000,-2.1049,flat,18.0,2,8.545
4590,146.88,-4.8920,2.4794,0.1797,0.0001,-0.0000,-2.0816,flat,18.0,2,7.980
4600,147.20,-5.1671,1.9796,0.1797,0.0001,-0.0000,-2.0604,flat,18.0,2,7.414
4610,147.52,-5.4323,1.4737,0.1797,0.0001,-0.0000,-2.0410,flat,18.0,2,6.846
4620,147.84,-5.6881,0.9626,0.1797,0.0001,-0.0000,-2.0231,flat,18.0,2,6.277
4630,148.16,-5.9353,0.4467,0.1797,0.0001,-0.0000,-2.0066,flat,18.0,2,5.708
4640,148.48,-6.1742,-0.0733,0.1797,0.0001,-0.0000,-1.9911,flat,18.0,2,5.138
4650,148.80,-6.4054,-0.5971,0.1797,0.0001,-0.0000,-1.9764,flat,18.0,2,4.567
4660,149.12,-6.6291,-1.1243,0.1797,0.0000,-0.0000,-1.9623,flat,18.0,2,3.996
4670,149.44,-6.8454,-1.6546,0.1797,0.0000,-0.0000,-1.9484,flat,18.0,2,3.424
4680,149.76,-7.0544,-2.1879,0.1797,0.0000,-0.0000,-1.9344,flat,18.0,2,2.853
4690,150.08,-7.2559,-2.7240,0.1797,0.0001,0.0000,-1.9197,flat,18.0,2,2.281
4700,150.40,-7.4491,-3.2627,0.1797,0.0001,0.0000,-1.9031,flat,18.0,2,1.711
4710,150.72,-7.6327,-3.8037,0.1797,0.0001,0.0000,-1.8820,flat,18.0,2,1.141
4720,151.04,-7.7963,-4.3363,0.1797,0.0001,0.0001,-1.9130,flat,18.0,3,0.833
4730,151.36,-7.9202,-4.7643,0.1798,-0.0004,0.0001,-1.5927,flat,18.0,0,13.267
4740,151.68,-7.9052,-5.1628,0.1799,-0.0002,-0.0000,-1.1981,flat,18.0,0,13.265
4750,152.00,-7.7067,-5.5676,0.1799,-0.0001,-0.0001,-0.9219,flat,18.0,0,13.093
4760,152.32,-7.3718,-5.9342,0.1799,0.0000,-0.0000,-0.7153,flat,18.0,0,12.795
4770,152.64,-6.9491,-6.2525,0.1799,0.0000,-0.0000,-0.5348,flat,18.0,0,12.415
4780,152.96,-6.4661,-6.5081,0.1799,0.0001,-0.0000,-0.3801,flat,18.0,0,11.977
4790,153.28,-5.9444,-6.6968,0.1799,0.0003,-0.0000,-0.2529,flat,18.0,0,11.497
4800,153.60,-5.3994,-6.8239,0.1798,0.0004,-0.0000,-0.1491,flat,18.0,0,10.988
4810,153.92,-4.8414,-6.8973,0.1798,0.0004,-0.0000,-0.0643,flat,18.0,0,10.460
4820,154.24,-4.2769,-6.9254,0.1798,0.0003,-0.0000,0.0052,flat,18.0,0,9.918
4830,154.56,-3.7109,-6.9158,0.1797,0.0002,-0.0000,0.0587,flat,18.0,0,9.367
4840,154.88,-3.1452,-6.8772,0.1797,0.0002,-0.0000,0.1011,flat,18.0,0,8.811
4850,155.20,-2.5808,-6.8156,0.1797,0.0001,-0.0000,0.1354,flat,18.0,0,8.251
4860,155.52,-2.0178,-6.7350,0.1797,0.0001,-0.0000,0.1645,flat,18.0,0,7.688
4870,155.84,-1.4564,-6.6383,0.1797,0.0001,-0.0000,0.1896,flat,18.0,0,7.123
4880,156.16,-0.8969,-6.5279,0.1797,0.0001,-0.0000,0.2115,flat,18.0,0,6.557
4890,156.48,-0.3394,-6.4053,0.1797,0.0001,-0.0000,0.2309,flat,18.0,0,5.989
4900,156.80,0.2161,-6.2721,0.1797,0.0001,-0.0000,0.2484,flat,18.0,0,5.420
4910,157.12,0.7696,-6.1293,0.1797,0.0001,-0.0000,0.2643,flat,18.0,0,4.850
4920,157.44,1.3210,-5.9778,0.1797,0.0001,-0.0000,0.2790,flat,18.0,0,4.279
4930,157.76,1.8704,-5.8182,0.1797,0.0000,-0.0000,0.2931,flat,18.0,0,3.709
4940,158.08,2.4175,-5.6509,0.1797,0.0000,-0.0000,0.3067,flat,18.0,0,3.138
4950,158.40,2.9621,-5.4761,0.1797,0.0000,0.0000,0.3205,flat,18.0,0,2.567
4960,158.72,3.5040,-5.2939,0.1797,0.0001,0.0000,0.3352,flat,18.0,0,1.997
4970,159.04,4.0424,-5.1036,0.1797,0.0001,0.0000,0.3522,flat,18.0,0,1.427
4980,159.36,4.5753,-4.9041,0.1797,0.0001,0.0000,0.3758,flat,18.0,0,0.860
4990,159.68,5.0190,-4.7136,0.1799,-0.0003,0.0000,0.5789,flat,18.0,1,12.861
5000,160.00,5.3647,-4.4285,0.1799,-0.0000,-0.0000,0.8448,flat,18.0,1,12.705
5010,160.32,5.6602,-4.0298,0.1799,0.0000,-0.0000,1.0786,flat,18.0,1,12.438
5020,160.64,5.8822,-3.5511,0.1799,0.0000,-0.0000,1.2886,flat,18.0,1,12.083
5030,160.96,6.0129,-3.0219,0.1799,0.0001,-0.0000,1.4680,flat,18.0,1,11.656
5040,161.28,6.0530,-2.4699,0.1799,0.0002,-0.0000,1.6113,flat,18.0,1,11.178
5050,161.60,6.0180,-1.9139,0.1798,0.0004,-0.0000,1.7149,flat,18.0,1,10.668
5060,161.92,5.9279,-1.3614,0.1798,0.0003,-0.0000,1.7924,flat,18.0,1,10.139
5070,162.24,5.7963,-0.8149,0.1797,0.0002,-0.0000,1.8530,flat,18.0,1,9.598
5080,162.56,5.6324,-0.2751,0.1797,0.0002,-0.0000,1.9019,flat,18.0,1,9.049
5090,162.88,5.4426,0.2572,0.1797,0.0001,-0.0000,1.9405,flat,18.0,1,8.495
5100,163.20,5.2328,0.7830,0.1797,0.0001,-0.0000,1.9729,flat,18.0,1,7.938
5110,163.52,5.0060,1.3030,0.1797,0.0001,-0.0000,2.0012,flat,18.0,1,7.377
5120,163.84,4.7646,1.8174,0.1797,0.0001,-0.0000,2.0262,flat,18.0,1,6.814
5130,164.16,4.5104,2.3264,0.1797,0.0001,-0.0000,2.0486,flat,18.0,1,6.250
5140,164.48,4.2449,2.8303,0.1797,0.0001,-0.0000,2.0688,flat,18.0,1,5.684
5150,164.80,3.9692,3.3292,0.1797,0.0001,-0.0000,2.0875,flat,18.0,1,5.117
5160,165.12,3.6842,3.8233,0.1797,0.0001,-0.0000,2.1050,flat,18.0,1,4.549
5170,165.44,3.3906,4.3126,0.1797,0.0001,-0.0000,2.1216,flat,18.0,1,3.981
5180,165.76,3.0888,4.7970,0.1797,0.0001,-0.0000,2.1379,flat,18.0,1,3.412
5190,166.08,2.7792,5.2763,0.1797,0.0001,0.0000,2.1543,flat,18.0,1,2.844
5200,166.40,2.4618,5.7502,0.1797,0.0001,0.0000,2.1715,flat,18.0,1,2.276
5210,166.72,2.1362,6.2176,0.1797,0.0001,0.0000,2.1909,flat,18.0,1,1.708
5220,167.04,1.8017,6.6767,0.1797,0.0001,0.0000,2.2152,flat,18.0,1,1.143
5230,167.36,1.4747,7.1031,0.1798,0.0000,0.0004,2.3221,flat,18.0,2,15.238
5240,167.68,1.1683,7.3563,0.1799,-0.0001,-0.0000,2.6782,flat,18.0,2,15.254
5250,168.00,0.7501,7.5287,0.1799,0.0000,-0.0000,3.0111,flat,18.0,2,15.151
5260,168.32,0.2606,7.5666,0.1799,0.0000,-0.0000,-2.9883,flat,18.0,2,14.909
5270,168.64,-0.2465,7.4639,0.1799,0.0001,-0.0000,-2.7819,flat,18.0,2,14.550
5280,168.96,-0.7384,7.2536,0.1799,0.0001,-0.0000,-2.6332,flat,18.0,2,14.116
5290,169.28,-1.2036,6.9702,0.1798,0.0004,-0.0000,-2.5259,flat,18.0,2,13.638
5300,169.60,-1.6458,6.6370,0.1798,0.0003,-0.0000,-2.4517,flat,18.0,2,13.133
5310,169.92,-2.0651,6.2713,0.1797,0.0002,-0.0000,-2.3874,flat,18.0,2,12.613
5320,170.24,-2.4623,5.8781,0.1797,0.0002,-0.0000,-2.3315,flat,18.0,2,12.082
5330,170.56,-2.8395,5.4628,0.1797,0.0002,-0.0000,-2.2830,flat,18.0,2,11.543
5340,170.88,-3.1988,5.0301,0.1797,0.0001,-0.0000,-2.2415,flat,18.0,2,10.997
5350,171.20,-3.5425,4.5822,0.1797,0.0001,-0.0000,-2.2046,flat,18.0,2,10.446
5360,171.52,-3.8713,4.1213,0.1797,0.0001,-0.0000,-2.1714,flat,18.0,2,9.891
5370,171.84,-4.1864,3.6492,0.1797,0.0001,-0.0000,-2.1416,flat,18.0,2,9.332
5380,172.16,-4.4887,3.1675,0.1797,0.0001,-0.0000,-2.1148,flat,18.0,2,8.770
5390,172.48,-4.7790,2.6775,0.1797,0.0001,-0.0000,-2.0906,flat,18.0,2,8.206
5400,172.80,-5.0583,2.1803,0.1797,0.0001,-0.0000,-2.0686,flat,18.0,2,7.640
5410,173.12,-5.3273,1.6767,0.1797,0.0001,-0.0000,-2.0485,flat,18.0,2,7.073
5420,173.44,-5.5868,1.1676,0.1797,0.0001,-0.0000,-2.0301,flat,18.0,2,6.505
5430,173.76,-5.8374,0.6536,0.1797,0.0001,-0.0000,-2.0131,flat,18.0,2,5.936
5440,174.08,-6.0796,0.1352,0.1797,0.0001,-0.0000,-1.9972,flat,18.0,2,5.366
5450,174.40,-6.3138,-0.3871,0.1797,0.0001,-0.0000,-1.9822,flat,18.0,2,4.795
5460,174.72,-6.5405,-0.9130,0.1797,0.0001,-0.0000,-1.9679,flat,18.0,2,4.224
5470,175.04,-6.7598,-1.4421,0.1797,0.0000,-0.0000,-1.9540,flat,18.0,2,3.653
5480,175.36,-6.9717,-1.9743,0.1797,0.0000,-0.0000,-1.9401,flat,18.0,2,3.081
5490,175.68,-7.1762,-2.5093,0.1797,0.0001,0.0000,-1.9257,flat,18.0,2,2.510
5500,176.00,-7.3729,-3.0469,0.1797,0.0001,0.0000,-1.9101,flat,18.0,2,1.939
5510,176.32,-7.5606,-3.5871,0.1797,0.0001,0.0000,-1.8913,flat,18.0,2,1.369
5520,176.64,-7.7368,-4.1292,0.1797,0.0001,0.0000,-1.8641,flat,18.0,2,0.801
5530,176.96,-7.8765,-4.6061,0.1798,-0.0003,0.0002,-1.7731,flat,18.0,0,13.221
5540,177.28,-7.9351,-4.9986,0.1799,-0.0001,-0.0000,-1.3376,flat,18.0,0,13.288
5550,177.60,-7.8052,-5.4088,0.1799,-0.0001,-0.0001,-1.0223,flat,18.0,0,13.180
5560,177.92,-7.5187,-5.7932,0.1799,0.0000,-0.0000,-0.7924,flat,18.0,0,12.926
5570,178.24,-7.1268,-6.1319,0.1799,0.0000,-0.0000,-0.6045,flat,18.0,0,12.575
5580,178.56,-6.6650,-6.4140,0.1799,0.0001,-0.0000,-0.4386,flat,18.0,0,12.158
5590,178.88,-6.1566,-6.6291,0.1799,0.0002,-0.0000,-0.3007,flat,18.0,0,11.693
5600,179.20,-5.6194,-6.7799,0.1799,0.0004,-0.0000,-0.1881,flat,18.0,0,11.195
5610,179.52,-5.0657,-6.8738,0.1798,0.0004,-0.0000,-0.0962,flat,18.0,0,10.673
5620,179.84,-4.5032,-6.9191,0.1798,0.0003,-0.0000,-0.0209,flat,18.0,0,10.136
5630,180.16,-3.9372,-6.9235,0.1797,0.0002,-0.0000,0.0392,flat,18.0,0,9.588
5640,180.48,-3.3714,-6.8958,0.1797,0.0002,-0.0000,0.0853,flat,18.0,0,9.034
5650,180.80,-2.8064,-6.8427,0.1797,0.0001,-0.0000,0.1224,flat,18.0,0,8.476
5660,181.12,-2.2428,-6.7693,0.1797,0.0001,-0.0000,0.1534,flat,18.0,0,7.914
5670,181.44,-1.6807,-6.6788,0.1797,0.0001,-0.0000,0.1800,flat,18.0,0,7.350
5680,181.76,-1.1205,-6.5736,0.1797,0.0001,-0.0000,0.2031,flat,18.0,0,6.783
5690,182.08,-0.5622,-6.4557,0.1797,0.0001,-0.0000,0.2234,flat,18.0,0,6.216
5700,182.40,-0.0059,-6.3267,0.1797,0.0001,-0.0000,0.2416,flat,18.0,0,5.647
5710,182.72,0.5484,-6.1876,0.1797,0.0001,-0.0000,0.2581,flat,18.0,0,5.078
5720,183.04,1.1007,-6.0395,0.1797,0.0001,-0.0000,0.2733,flat,18.0,0,4.508
5730,183.36,1.6509,-5.8830,0.1797,0.0001,-0.0000,0.2875,flat,18.0,0,3.937
5740,183.68,2.1989,-5.7187,0.1797,0.0000,-0.0000,0.3013,flat,18.0,0,3.366
5750,184.00,2.7446,-5.5470,0.1797,0.0000,0.0000,0.3149,flat,18.0,0,2.795
5760,184.32,3.2876,-5.3677,0.1797,0.0000,0.0000,0.3291,flat,18.0,0,2.225
5770,184.64,3.8275,-5.1808,0.1797,0.0001,0.0000,0.3450,flat,18.0,0,1.655
5780,184.96,4.3630,-4.9852,0.1797,0.0001,0.0000,0.3651,flat,18.0,0,1.086
5790,185.28,4.8596,-4.7951,0.1798,-0.0000,0.0002,0.4759,flat,18.0,1,12.890
5800,185.60,5.2330,-4.5591,0.1799,0.0000,-0.0000,0.7457,flat,18.0,1,12.784
5810,185.92,5.5491,-4.2004,0.1799,0.0000,-0.0000,0.9875,flat,18.0,1,12.556
5820,186.24,5.8038,-3.7504,0.1799,0.0000,-0.0000,1.2079,flat,18.0,1,12.235
5830,186.56,5.9720,-3.2377,0.1799,0.0001,-0.0000,1.4006,flat,18.0,1,11.834
5840,186.88,6.0471,-2.6920,0.1799,0.0001,-0.0000,1.5587,flat,18.0,1,11.374
5850,187.20,6.0395,-2.1361,0.1799,0.0003,-0.0000,1.6773,flat,18.0,1,10.874
5860,187.52,5.9695,-1.5818,0.1798,0.0004,-0.0000,1.7638,flat,18.0,1,10.352
5870,187.84,5.8532,-1.0327,0.1797,0.0003,-0.0000,1.8304,flat,18.0,1,9.816
5880,188.16,5.7013,-0.4902,0.1797,0.0002,-0.0000,1.8835,flat,18.0,1,9.270
5890,188.48,5.5211,0.0452,0.1797,0.0002,-0.0000,1.9260,flat,18.0,1,8.717
5900,188.80,5.3188,0.5734,0.1797,0.0001,-0.0000,1.9605,flat,18.0,1,8.161
5910,189.12,5.0985,1.0957,0.1797,0.0001,-0.0000,1.9904,flat,18.0,1,7.602
5920,189.44,4.8627,1.6123,0.1797,0.0001,-0.0000,2.0166,flat,18.0,1,7.040
5930,189.76,4.6134,2.1235,0.1797,0.0001,-0.0000,2.0399,flat,18.0,1,6.476
5940,190.08,4.3523,2.6294,0.1797,0.0001,-0.0000,2.0609,flat,18.0,1,5.910
5950,190.40,4.0806,3.1303,0.1797,0.0001,-0.0000,2.0802,flat,18.0,1,5.344
5960,190.72,3.7992,3.6263,0.1797,0.0001,-0.0000,2.0981,flat,18.0,1,4.776
5970,191.04,3.5090,4.1175,0.1797,0.0001,-0.0000,2.1150,flat,18.0,1,4.208
5980,191.36,3.2105,4.6038,0.1797,0.0001,-0.0000,2.1314,flat,18.0,1,3.640
5990,191.68,2.9040,5.0852,0.1797,0.0001,-0.0000,2.1477,flat,18.0,1,3.071
6000,192.00,2.5897,5.5614,0.1797,0.0001,0.0000,2.1645,flat,18.0,1,2.503
6010,192.32,2.2674,6.0315,0.1797,0.0001,0.0000,2.1827,flat,18.0,1,1.935
6020,192.64,1.9366,6.4943,0.1797,0.0001,0.0000,2.2045,flat,18.0,1,1.369
6030,192.96,1.5962,6.9461,0.1797,0.0001,0.0000,2.2356,flat,18.0,1,0.807
6040,193.28,1.3040,7.2631,0.1799,-0.0003,0.0000,2.5376,flat,18.0,2,15.261
6050,193.60,0.9291,7.4733,0.1799,-0.0000,-0.0000,2.8820,flat,18.0,2,15.209
6060,193.92,0.4612,7.5697,0.1799,0.0000,-0.0000,-3.0918,flat,18.0,2,15.022
6070,194.24,-0.0442,7.5201,0.1799,0.0000,-0.0000,-2.8561,flat,18.0,2,14.705
6080,194.56,-0.5448,7.3482,0.1799,0.0001,-0.0000,-2.6868,flat,18.0,2,14.296
6090,194.88,-1.0208,7.0907,0.1799,0.0003,-0.0000,-2.5648,flat,18.0,2,13.833
6100,195.20,-1.4717,6.7746,0.1798,0.0003,-0.0000,-2.4796,flat,18.0,2,13.337
6110,195.52,-1.9003,6.4210,0.1797,0.0002,-0.0000,-2.4128,flat,18.0,2,12.823
6120,195.84,-2.3059,6.0383,0.1797,0.0002,-0.0000,-2.3528,flat,18.0,2,12.296
6130,196.16,-2.6910,5.6313,0.1797,0.0002,-0.0000,-2.3015,flat,18.0,2,11.759
6140,196.48,-3.0571,5.2051,0.1797,0.0002,-0.0000,-2.2575,flat,18.0,2,11.216
6150,196.80,-3.4069,4.7631,0.1797,0.0001,-0.0000,-2.2189,flat,18.0,2,10.667
6160,197.12,-3.7416,4.3071,0.1797,0.0001,-0.0000,-2.1842,flat,18.0,2,10.113
6170,197.44,-4.0620,3.8393,0.1797,0.0001,-0.0000,-2.1532,flat,18.0,2,9.556
6180,197.76,-4.3693,3.3613,0.1797,0.0001,-0.0000,-2.1252,flat,18.0,2,8.995
6190,198.08,-4.6643,2.8745,0.1797,0.0001,-0.0000,-2.1000,flat,18.0,2,8.432
6200,198.40,-4.9479,2.3800,0.1797,0.0001,-0.0000,-2.0772,flat,18.0,2,7.867
6210,198.72,-5.2210,1.8789,0.1797,0.0001,-0.0000,-2.0563,flat,18.0,2,7.300
6220,199.04,-5.4842,1.3719,0.1797,0.0001,-0.0000,-2.0373,flat,18.0,2,6.732
6230,199.36,-5.7382,0.8598,0.1797,0.0001,-0.0000,-2.0197,flat,18.0,2,6.164
6240,199.68,-5.9837,0.3431,0.1797,0.0001,-0.0000,-2.0034,flat,18.0,2,5.594
6250,200.00,-6.2211,-0.1777,0.1797,0.0001,-0.0000,-1.9881,flat,18.0,2,5.023
6260,200.32,-6.4507,-0.7022,0.1797,0.0001,-0.0000,-1.9736,flat,18.0,2,4.453
6270,200.64,-6.6729,-1.2301,0.1797,0.0000,-0.0000,-1.9595,flat,18.0,2,3.881
6280,200.96,-6.8878,-1.7611,0.1797,0.0000,-0.0000,-1.9457,flat,18.0,2,3.310
6290,201.28,-7.0954,-2.2949,0.1797,0.0000,0.0000,-1.9316,flat,18.0,2,2.739
6300,201.60,-7.2952,-2.8315,0.1797,0.0001,0.0000,-1.9166,flat,18.0,2,2.167
6310,201.92,-7.4867,-3.3707,0.1797,0.0001,0.0000,-1.8994,flat,18.0,2,1.597
6320,202.24,-7.6680,-3.9122,0.1797,0.0001,0.0000,-1.8767,flat,18.0,2,1.027
6330,202.56,-7.8269,-4.4339,0.1798,-0.0000,0.0003,-1.9068,flat,18.0,0,13.172
6340,202.88,-7.9331,-4.8402,0.1799,-0.0003,0.0000,-1.5010,flat,18.0,0,13.282
6350,203.20,-7.8788,-5.2454,0.1799,-0.0001,-0.0001,-1.1359,flat,18.0,0,13.243
6360,203.52,-7.6489,-5.6446,0.1799,-0.0000,-0.0000,-0.8762,flat,18.0,0,13.042
6370,203.84,-7.2932,-6.0021,0.1799,0.0000,-0.0000,-0.6777,flat,18.0,0,12.724
6380,204.16,-6.8565,-6.3089,0.1799,0.0000,-0.0000,-0.5016,flat,18.0,0,12.332
6390,204.48,-6.3642,-6.5510,0.1799,0.0001,-0.0000,-0.3526,flat,18.0,0,11.884
6400,204.80,-5.8368,-6.7268,0.1799,0.0003,-0.0000,-0.2304,flat,18.0,0,11.397
6410,205.12,-5.2886,-6.8425,0.1798,0.0004,-0.0000,-0.1308,flat,18.0,0,10.884
6420,205.44,-4.7289,-6.9062,0.1798,0.0004,-0.0000,-0.0492,flat,18.0,0,10.352
6430,205.76,-4.1636,-6.9261,0.1797,0.0003,-0.0000,0.0174,flat,18.0,0,9.808
6440,206.08,-3.5978,-6.9101,0.1797,0.0002,-0.0000,0.0679,flat,18.0,0,9.256
6450,206.40,-3.0323,-6.8666,0.1797,0.0001,-0.0000,0.1084,flat,18.0,0,8.699
6460,206.72,-2.4681,-6.8009,0.1797,0.0001,-0.0000,0.1416,flat,18.0,0,8.139
6470,207.04,-1.9053,-6.7169,0.1797,0.0001,-0.0000,0.1698,flat,18.0,0,7.575
6480,207.36,-1.3444,-6.6173,0.1797,0.0001,-0.0000,0.1942,flat,18.0,0,7.010
6490,207.68,-0.7853,-6.5043,0.1797,0.0001,-0.0000,0.2156,flat,18.0,0,6.443
6500,208.00,-0.2282,-6.3796,0.1797,0.0001,-0.0000,0.2345,flat,18.0,0,5.875
6510,208.32,0.3270,-6.2444,0.1797,0.0001,-0.0000,0.2516,flat,18.0,0,5.306
6520,208.64,0.8800,-6.0998,0.1797,0.0001,-0.0000,0.2673,flat,18.0,0,4.736
6530,208.96,1.4311,-5.9466,0.1797,0.0001,-0.0000,0.2819,flat,18.0,0,4.165
6540,209.28,1.9800,-5.7854,0.1797,0.0000,-0.0000,0.2958,flat,18.0,0,3.595
6550,209.60,2.5266,-5.6166,0.1797,0.0000,-0.0000,0.3094,flat,18.0,0,3.024
6560,209.92,3.0708,-5.4404,0.1797,0.0000,0.0000,0.3233,flat,18.0,0,2.453
6570,210.24,3.6120,-5.2565,0.1797,0.0001,0.0000,0.3383,flat,18.0,0,1.883
6580,210.56,4.1495,-5.0646,0.1797,0.0001,0.0000,0.3562,flat,18.0,0,1.313
6590,210.88,4.6807,-4.8630,0.1797,0.0001,0.0000,0.3823,flat,18.0,1,12.903
6600,211.20,5.0935,-4.6672,0.1799,-0.0001,0.0000,0.6347,flat,18.0,1,12.841
6610,211.52,5.4281,-4.3565,0.1799,0.0000,-0.0000,0.8930,flat,18.0,1,12.659
6620,211.84,5.7113,-3.9396,0.1799,0.0000,-0.0000,1.1228,flat,18.0,1,12.374
6630,212.16,5.9159,-3.4483,0.1799,0.0000,-0.0000,1.3273,flat,18.0,1,12.003
6640,212.48,6.0278,-2.9126,0.1799,0.0001,-0.0000,1.4996,flat,18.0,1,11.564
6650,212.80,6.0512,-2.3587,0.1799,0.0002,-0.0000,1.6348,flat,18.0,1,11.078
6660,213.12,6.0038,-1.8030,0.1798,0.0004,-0.0000,1.7321,flat,18.0,1,10.563
6670,213.44,5.9045,-1.2516,0.1798,0.0003,-0.0000,1.8057,flat,18.0,1,10.032
6680,213.76,5.7658,-0.7064,0.1797,0.0002,-0.0000,1.8636,flat,18.0,1,9.489
6690,214.08,5.5963,-0.1679,0.1797,0.0002,-0.0000,1.9106,flat,18.0,1,8.939
6700,214.40,5.4021,0.3628,0.1797,0.0001,-0.0000,1.9474,flat,18.0,1,8.384
6710,214.72,5.1886,0.8875,0.1797,0.0001,-0.0000,1.9789,flat,18.0,1,7.826
6720,215.04,4.9587,1.4063,0.1797,0.0001,-0.0000,2.0065,flat,18.0,1,7.265
6730,215.36,4.7146,1.9196,0.1797,0.0001,-0.0000,2.0309,flat,18.0,1,6.701
6740,215.68,4.4581,2.4276,0.1797,0.0001,-0.0000,2.0528,flat,18.0,1,6.137
6750,216.00,4.1904,2.9305,0.1797,0.0001,-0.0000,2.0727,flat,18.0,1,5.570
6760,216.32,3.9128,3.4284,0.1797,0.0001,-0.0000,2.0911,flat,18.0,1,5.003
6770,216.64,3.6261,3.9216,0.1797,0.0001,-0.0000,2.1084,flat,18.0,1,4.435
6780,216.96,3.3308,4.4099,0.1797,0.0001,-0.0000,2.1249,flat,18.0,1,3.867
6790,217.28,3.0275,4.8933,0.1797,0.0001,-0.0000,2.1412,flat,18.0,1,3.299
6800,217.60,2.7163,5.3716,0.1797,0.0001,0.0000,2.1576,flat,18.0,1,2.730
6810,217.92,2.3972,5.8442,0.1797,0.0001,0.0000,2.1752,flat,18.0,1,2.162
6820,218.24,2.0700,6.3102,0.1797,0.0001,0.0000,2.1952,flat,18.0,1,1.595
6830,218.56,1.7336,6.7671,0.1797,0.0001,0.0000,2.2213,flat,18.0,1,1.031
6840,218.88,1.4213,7.1616,0.1798,-0.0001,0.0003,2.3944,flat,18.0,2,15.252
6850,219.20,1.0929,7.3991,0.1799,-0.0000,-0.0001,2.7472,flat,18.0,2,15.244
6860,219.52,0.6561,7.5483,0.1799,0.0000,-0.0000,3.0734,flat,18.0,2,15.114
6870,219.84,0.1591,7.5565,0.1799,-0.0000,-0.0000,-2.9414,flat,18.0,2,14.845
6880,220.16,-0.3468,7.4293,0.1799,0.0001,-0.0000,-2.7482,flat,18.0,2,14.468
6890,220.48,-0.8337,7.2019,0.1799,0.0002,-0.0000,-2.6089,flat,18.0,2,14.023
6900,220.80,-1.2937,6.9069,0.1798,0.0004,-0.0000,-2.5088,flat,18.0,2,13.539
6910,221.12,-1.7316,6.5662,0.1798,0.0003,-0.0000,-2.4385,flat,18.0,2,13.030
6920,221.44,-2.1462,6.1947,0.1797,0.0002,-0.0000,-2.3754,flat,18.0,2,12.508
6930,221.76,-2.5394,5.7967,0.1797,0.0002,-0.0000,-2.3213,flat,18.0,2,11.975
6940,222.08,-2.9128,5.3776,0.1797,0.0002,-0.0000,-2.2742,flat,18.0,2,11.434
6950,222.40,-3.2688,4.9417,0.1797,0.0001,-0.0000,-2.2338,flat,18.0,2,10.887
6960,222.72,-3.6095,4.4910,0.1797,0.0001,-0.0000,-2.1976,flat,18.0,2,10.335
6970,223.04,-3.9355,4.0278,0.1797,0.0001,-0.0000,-2.1652,flat,18.0,2,9.779
6980,223.36,-4.2479,3.5537,0.1797,0.0001,-0.0000,-2.1361,flat,18.0,2,9.220
6990,223.68,-4.5477,3.0702,0.1797,0.0001,-0.0000,-2.1098,flat,18.0,2,8.658
7000,224.00,-4.8358,2.5787,0.1797,0.0001,-0.0000,-2.0860,flat,18.0,2,8.093
7010,224.32,-5.1130,2.0801,0.1797,0.0001,-0.0000,-2.0644,flat,18.0,2,7.527
7020,224.64,-5.3800,1.5754,0.1797,0.0001,-0.0000,-2.0447,flat,18.0,2,6.960
7030,224.96,-5.6377,1.0652,0.1797,0.0001,-0.0000,-2.0266,flat,18.0,2,6.391
7040,225.28,-5.8865,0.5503,0.1797,0.0001,-0.0000,-2.0098,flat,18.0,2,5.822
7050,225.60,-6.1271,0.0311,0.1797,0.0001,-0.0000,-1.9941,flat,18.0,2,5.252
7060,225.92,-6.3598,-0.4920,0.1797,0.0001,-0.0000,-1.9793,flat,18.0,2,4.681
7070,226.24,-6.5850,-1.0185,0.1797,0.0001,-0.0000,-1.9651,flat,18.0,2,4.110
7080,226.56,-6.8028,-1.5483,0.1797,0.0000,-0.0000,-1.9512,flat,18.0,2,3.539
7090,226.88,-7.0132,-2.0810,0.1797,0.0000,-0.0000,-1.9373,flat,18.0,2,2.967
7100,227.20,-7.2162,-2.6165,0.1797,0.0001,0.0000,-1.9227,flat,18.0,2,2.396
7110,227.52,-7.4112,-3.1547,0.1797,0.0001,0.0000,-1.9066,flat,18.0,2,1.825
7120,227.84,-7.5969,-3.6953,0.1797,0.0001,0.0000,-1.8868,flat,18.0,2,1.255
7130,228.16,-7.7669,-4.2348,0.1797,0.0001,0.0002,-1.8761,flat,18.0,3,0.924
7140,228.48,-7.8998,-4.6873,0.1798,-0.0004,0.0001,-1.6885,flat,18.0,0,13.246
7150,228.80,-7.9242,-5.0801,0.1799,-0.0001,-0.0000,-1.2646,flat,18.0,0,13.281
7160,229.12,-7.7589,-5.4888,0.1799,-0.0001,-0.0001,-0.9705,flat,18.0,0,13.139
7170,229.44,-7.4470,-5.8645,0.1799,0.0000,-0.0000,-0.7535,flat,18.0,0,12.862
7180,229.76,-7.0392,-6.1934,0.1799,0.0000,-0.0000,-0.5691,flat,18.0,0,12.496
7190,230.08,-6.5663,-6.4623,0.1799,0.0001,-0.0000,-0.4088,flat,18.0,0,12.068
7200,230.40,-6.0510,-6.6642,0.1799,0.0002,-0.0000,-0.2763,flat,18.0,0,11.596
7210,230.72,-5.5097,-6.8030,0.1798,0.0004,-0.0000,-0.1682,flat,18.0,0,11.092
7220,231.04,-4.9537,-6.8865,0.1798,0.0004,-0.0000,-0.0799,flat,18.0,0,10.567
7230,231.36,-4.3901,-6.9230,0.1798,0.0003,-0.0000,-0.0076,flat,18.0,0,10.027
7240,231.68,-3.8241,-6.9202,0.1797,0.0002,-0.0000,0.0491,flat,18.0,0,9.478
7250,232.00,-3.2582,-6.8870,0.1797,0.0002,-0.0000,0.0934,flat,18.0,0,8.922
7260,232.32,-2.6936,-6.8295,0.1797,0.0001,-0.0000,0.1290,flat,18.0,0,8.363
7270,232.64,-2.1302,-6.7525,0.1797,0.0001,-0.0000,0.1590,flat,18.0,0,7.801
7280,232.96,-1.5685,-6.6589,0.1797,0.0001,-0.0000,0.1849,flat,18.0,0,7.236
7290,233.28,-1.0087,-6.5510,0.1797,0.0001,-0.0000,0.2073,flat,18.0,0,6.670
7300,233.60,-0.4508,-6.4308,0.1797,0.0001,-0.0000,0.2272,flat,18.0,0,6.102
7310,233.92,0.1052,-6.2996,0.1797,0.0001,-0.0000,0.2450,flat,18.0,0,5.533
7320,234.24,0.6591,-6.1586,0.1797,0.0001,-0.0000,0.2612,flat,18.0,0,4.964
7330,234.56,1.2109,-6.0088,0.1797,0.0001,-0.0000,0.2762,flat,18.0,0,4.394
7340,234.88,1.7607,-5.8508,0.1797,0.0001,-0.0000,0.2903,flat,18.0,0,3.823
7350,235.20,2.3082,-5.6850,0.1797,0.0000,-0.0000,0.3040,flat,18.0,0,3.252
7360,235.52,2.8534,-5.5117,0.1797,0.0000,0.0000,0.3177,flat,18.0,0,2.681
7370,235.84,3.3959,-5.3310,0.1797,0.0001,0.0000,0.3321,flat,18.0,0,2.111
7380,236.16,3.9351,-5.1424,0.1797,0.0001,0.0000,0.3485,flat,18.0,0,1.541
7390,236.48,4.4693,-4.9449,0.1797,0.0001,0.0000,0.3701,flat,18.0,0,0.973
7400,236.80,4.9408,-4.7562,0.1798,-0.0003,0.0000,0.5259,flat,18.0,1,12.878
7410,237.12,5.2998,-4.4963,0.1799,0.0000,-0.0000,0.7961,flat,18.0,1,12.747
7420,237.44,5.6060,-4.1169,0.1799,0.0000,-0.0000,1.0335,flat,18.0,1,12.499
7430,237.76,5.8448,-3.6519,0.1799,0.0000,-0.0000,1.2488,flat,18.0,1,12.160
7440,238.08,5.9943,-3.1303,0.1799,0.0001,-0.0000,1.4349,flat,18.0,1,11.746
7450,238.40,6.0517,-2.5811,0.1799,0.0001,-0.0000,1.5860,flat,18.0,1,11.276
7460,238.72,6.0299,-2.0250,0.1798,0.0004,-0.0000,1.6967,flat,18.0,1,10.771
7470,239.04,5.9495,-1.4715,0.1798,0.0004,-0.0000,1.7785,flat,18.0,1,10.246
7480,239.36,5.8254,-0.9237,0.1797,0.0002,-0.0000,1.8420,flat,18.0,1,9.707
7490,239.68,5.6674,-0.3825,0.1797,0.0002,-0.0000,1.8929,flat,18.0,1,9.160
7500,240.00,5.4823,0.1513,0.1797,0.0001,-0.0000,1.9334,flat,18.0,1,8.606
7510,240.32,5.2761,0.6783,0.1797,0.0001,-0.0000,1.9668,flat,18.0,1,8.049
7520,240.64,5.0525,1.1995,0.1797,0.0001,-0.0000,1.9959,flat,18.0,1,7.489
7530,240.96,4.8138,1.7150,0.1797,0.0001,-0.0000,2.0214,flat,18.0,1,6.927
7540,241.28,4.5621,2.2251,0.1797,0.0001,-0.0000,2.0443,flat,18.0,1,6.363
7550,241.60,4.2988,2.7300,0.1797,0.0001,-0.0000,2.0649,flat,18.0,1,5.797
7560,241.92,4.0250,3.2299,0.1797,0.0001,-0.0000,2.0839,flat,18.0,1,5.230
7570,242.24,3.7418,3.7249,0.1797,0.0001,-0.0000,2.1016,flat,18.0,1,4.663
7580,242.56,3.4499,4.2151,0.1797,0.0001,-0.0000,2.1184,flat,18.0,1,4.095
7590,242.88,3.1498,4.7005,0.1797,0.0001,-0.0000,2.1347,flat,18.0,1,3.526
7600,243.20,2.8417,5.1809,0.1797,0.0001,0.0000,2.1510,flat,18.0,1,2.957
7610,243.52,2.5258,5.6559,0.1797,0.0001,0.0000,2.1680,flat,18.0,1,2.389
7620,243.84,2.2019,6.1247,0.1797,0.0001,0.0000,2.1867,flat,18.0,1,1.822
7630,244.16,1.8693,6.5857,0.1797,0.0001,0.0000,2.2096,flat,18.0,1,1.256
7640,244.48,1.5300,7.0319,0.1797,0.0001,0.0002,2.2598,flat,18.0,2,15.216
7650,244.80,1.2386,7.3108,0.1799,-0.0002,-0.0000,2.6082,flat,18.0,2,15.260
7660,245.12,0.8413,7.5036,0.1799,-0.0000,-0.0000,2.9473,flat,18.0,2,15.183
7670,245.44,0.3614,7.5711,0.1799,0.0000,-0.0000,-3.0384,flat,18.0,2,14.968
7680,245.76,-0.1457,7.4944,0.1799,0.0000,-0.0000,-2.8176,flat,18.0,2,14.629
7690,246.08,-0.6422,7.3025,0.1799,0.0001,-0.0000,-2.6590,flat,18.0,2,14.207
7700,246.40,-1.1127,7.0316,0.1799,0.0003,-0.0000,-2.5446,flat,18.0,2,13.737
7710,246.72,-1.5593,6.7065,0.1798,0.0003,-0.0000,-2.4658,flat,18.0,2,13.235
7720,247.04,-1.9832,6.3468,0.1797,0.0002,-0.0000,-2.3999,flat,18.0,2,12.718
7730,247.36,-2.3845,5.9587,0.1797,0.0002,-0.0000,-2.3420,flat,18.0,2,12.189
7740,247.68,-2.7656,5.5474,0.1797,0.0002,-0.0000,-2.2921,flat,18.0,2,11.651
7750,248.00,-3.1283,5.1179,0.1797,0.0001,-0.0000,-2.2494,flat,18.0,2,11.107
7760,248.32,-3.4750,4.6729,0.1797,0.0001,-0.0000,-2.2116,flat,18.0,2,10.557
7770,248.64,-3.8067,4.2145,0.1797,0.0001,-0.0000,-2.1778,flat,18.0,2,10.002
7780,248.96,-4.1245,3.7445,0.1797,0.0001,-0.0000,-2.1473,flat,18.0,2,9.444
7790,249.28,-4.4292,3.2646,0.1797,0.0001,-0.0000,-2.1200,flat,18.0,2,8.883
7800,249.60,-4.7219,2.7762,0.1797,0.0001,-0.0000,-2.0953,flat,18.0,2,8.319
7810,249.92,-5.0033,2.2803,0.1797,0.0001,-0.0000,-2.0728,flat,18.0,2,7.754
7820,250.24,-5.2743,1.7779,0.1797,0.0001,-0.0000,-2.0524,flat,18.0,2,7.187
7830,250.56,-5.5357,1.2699,0.1797,0.0001,-0.0000,-2.0337,flat,18.0,2,6.619
7840,250.88,-5.7880,0.7568,0.1797,0.0001,-0.0000,-2.0164,flat,18.0,2,6.050
7850,251.20,-6.0318,0.2392,0.1797,0.0001,-0.0000,-2.0003,flat,18.0,2,5.480
7860,251.52,-6.2676,-0.2824,0.1797,0.0001,-0.0000,-1.9852,flat,18.0,2,4.909
7870,251.84,-6.4957,-0.8075,0.1797,0.0001,-0.0000,-1.9707,flat,18.0,2,4.338
7880,252.16,-6.7165,-1.3360,0.1797,0.0000,-0.0000,-1.9568,flat,18.0,2,3.767
7890,252.48,-6.9299,-1.8676,0.1797,0.0000,-0.0000,-1.9429,flat,18.0,2,3.196
7900,252.80,-7.1359,-2.4020,0.1797,0.0001,0.0000,-1.9287,flat,18.0,2,2.624
7910,253.12,-7.3342,-2.9392,0.1797,0.0001,0.0000,-1.9134,flat,18.0,2,2.053
7920,253.44,-7.5238,-3.4788,0.1797,0.0001,0.0000,-1.8955,flat,18.0,2,1.483
7930,253.76,-7.7027,-4.0207,0.1797,0.0001,0.0000,-1.8708,flat,18.0,2,0.914
7940,254.08,-7.8517,-4.5215,0.1799,-0.0005,0.0003,-1.8466,flat,18.0,0,13.196
7950,254.40,-7.9379,-4.9183,0.1799,-0.0002,-0.0000,-1.4162,flat,18.0,0,13.289
7960,254.72,-7.8454,-5.3275,0.1799,-0.0001,-0.0001,-1.0773,flat,18.0,0,13.215
7970,255.04,-7.5862,-5.7199,0.1799,-0.0000,-0.0000,-0.8331,flat,18.0,0,12.986
7980,255.36,-7.2115,-6.0680,0.1799,0.0000,-0.0000,-0.6407,flat,18.0,0,12.651
7990,255.68,-6.7617,-6.3628,0.1799,0.0001,-0.0000,-0.4695,flat,18.0,0,12.246
8000,256.00,-6.2610,-6.5914,0.1799,0.0001,-0.0000,-0.3261,flat,18.0,0,11.789
8010,256.32,-5.7285,-6.7546,0.1799,0.0003,-0.0000,-0.2089,flat,18.0,0,11.296
8020,256.64,-5.1773,-6.8592,0.1798,0.0004,-0.0000,-0.1131,flat,18.0,0,10.779
8030,256.96,-4.6161,-6.9135,0.1798,0.0004,-0.0000,-0.0348,flat,18.0,0,10.244
8040,257.28,-4.0503,-6.9255,0.1797,0.0002,-0.0000,0.0289,flat,18.0,0,9.698
8050,257.60,-3.4845,-6.9035,0.1797,0.0002,-0.0000,0.0768,flat,18.0,0,9.145
8060,257.92,-2.9193,-6.8550,0.1797,0.0001,-0.0000,0.1155,flat,18.0,0,8.587
