step,time_s,x,y,z,roll,pitch,yaw,terrain,speed,target_idx,dist_to_target
10,0.32,-0.0500,1.4500,0.1830,-0.0000,-0.0361,-0.0000,rough,14.0,0,8.047
20,0.64,0.3926,1.4369,0.1798,-0.0000,-0.0010,-0.1550,flat,18.0,0,7.747
30,0.96,0.9126,1.3320,0.1799,-0.0001,-0.0000,-0.3434,flat,18.0,0,7.341
40,1.28,1.4129,1.1303,0.1799,-0.0002,-0.0000,-0.4805,flat,18.0,0,6.884
50,1.60,1.8879,0.8608,0.1798,-0.0004,-0.0000,-0.5845,flat,18.0,0,6.396
60,1.92,2.3405,0.5419,0.1798,-0.0003,-0.0000,-0.6593,flat,18.0,0,5.887
70,2.24,2.7703,0.1897,0.1797,-0.0002,-0.0000,-0.7263,flat,18.0,0,5.368
80,2.56,3.1758,-0.1916,0.1797,-0.0002,-0.0000,-0.7896,flat,18.0,0,4.842
90,2.88,3.5573,-0.5985,0.1797,-0.0002,-0.0000,-0.8495,flat,18.0,0,4.310
100,3.20,3.9155,-1.0283,0.1797,-0.0002,-0.0000,-0.9080,flat,18.0,0,3.773
110,3.52,4.2500,-1.4790,0.1797,-0.0002,-0.0000,-0.9659,flat,18.0,0,3.232
120,3.84,4.5592,-1.9488,0.1797,-0.0002,-0.0000,-1.0247,flat,18.0,0,2.689
130,4.16,4.8423,-2.4360,0.1797,-0.0002,-0.0000,-1.0870,flat,18.0,0,2.144
140,4.48,5.0942,-2.9394,0.1797,-0.0003,0.0000,-1.1576,flat,18.0,0,1.601
150,4.80,5.3084,-3.4573,0.1798,-0.0004,0.0000,-1.2481,flat,18.0,0,1.064
160,5.12,5.4428,-3.9301,0.1796,-0.0004,-0.0007,-1.4126,flat,18.0,1,12.266
170,5.44,5.4395,-4.2549,0.1799,-0.0001,-0.0002,-1.8723,flat,18.0,1,12.568
180,5.76,5.2827,-4.5731,0.1798,0.0001,-0.0000,-2.3881,flat,18.0,1,12.813
190,6.08,4.9629,-4.8016,0.1799,0.0001,-0.0000,-2.8130,flat,18.0,1,12.928
200,6.40,4.5600,-4.9117,0.1799,-0.0001,-0.0001,3.0736,flat,18.0,1,12.916
210,6.72,4.1016,-4.8528,0.1799,-0.0002,-0.0000,2.7750,flat,18.0,1,12.741
220,7.04,3.6504,-4.6433,0.1799,-0.0001,-0.0000,2.5543,flat,18.0,1,12.435
230,7.36,3.2343,-4.3234,0.1799,-0.0001,-0.0000,2.3907,flat,18.0,1,12.039
240,7.68,2.8605,-3.9338,0.1799,-0.0003,-0.0000,2.2684,flat,18.0,1,11.591
250,8.00,2.5252,-3.4975,0.1798,-0.0004,-0.0000,2.1618,flat,18.0,1,11.110
260,8.32,2.2299,-3.0254,0.1798,-0.0004,-0.0000,2.0700,flat,18.0,1,10.605
270,8.64,1.9734,-2.5262,0.1798,-0.0004,-0.0000,1.9914,flat,18.0,1,10.081
280,8.96,1.7528,-2.0068,0.1797,-0.0003,-0.0000,1.9242,flat,18.0,1,9.545
290,9.28,1.5649,-1.4725,0.1797,-0.0002,-0.0000,1.8667,flat,18.0,1,8.999
300,9.60,1.4065,-0.9273,0.1797,-0.0002,-0.0000,1.8174,flat,18.0,1,8.446
310,9.92,1.2736,-0.3750,0.1797,-0.0001,-0.0000,1.7769,flat,18.0,1,7.889
320,10.24,1.1619,0.1827,0.1797,-0.0001,-0.0000,1.7421,flat,18.0,1,7.329
330,10.56,1.0687,0.7446,0.1797,-0.0001,-0.0000,1.7113,flat,18.0,1,6.765
340,10.88,0.9923,1.3098,0.1797,-0.0001,-0.0000,1.6839,flat,18.0,1,6.200
350,11.20,0.9309,1.8774,0.1797,-0.0001,-0.0000,1.6593,flat,18.0,1,5.633
360,11.52,0.8831,2.4469,0.1797,-0.0001,-0.0000,1.6370,flat,18.0,1,5.065
370,11.84,0.8477,3.0176,0.1797,-0.0001,-0.0000,1.6165,flat,18.0,1,4.495
380,12.16,0.8238,3.5892,0.1797,-0.0001,-0.0000,1.5975,flat,18.0,1,3.925
390,12.48,0.8106,4.1613,0.1797,-0.0001,-0.0000,1.5794,flat,18.0,1,3.355
400,12.80,0.8077,4.7336,0.1797,-0.0001,-0.0000,1.5617,flat,18.0,1,2.784
410,13.12,0.8150,5.3058,0.1797,-0.0001,0.0000,1.5438,flat,18.0,1,2.213
420,13.44,0.8325,5.8774,0.1797,-0.0001,0.0000,1.5245,flat,18.0,1,1.643
430,13.76,0.8613,6.4474,0.1797,-0.0001,0.0000,1.5006,flat,18.0,1,1.074
440,14.08,0.8883,6.9980,0.1798,-0.0003,0.0000,1.5979,flat,18.0,2,14.800
450,14.40,0.8547,7.4729,0.1798,-0.0003,0.0001,1.9691,flat,18.0,2,15.165
460,14.72,0.6654,7.7949,0.1799,-0.0001,-0.0000,2.3905,flat,18.0,2,15.323
470,15.04,0.3427,8.0291,0.1799,-0.0001,-0.0001,2.7572,flat,18.0,2,15.342
480,15.36,-0.0872,8.1712,0.1799,0.0000,-0.0000,3.0974,flat,18.0,2,15.238
490,15.68,-0.5773,8.1670,0.1799,-0.0000,-0.0000,-2.9091,flat,18.0,2,14.989
500,16.00,-1.0742,8.0235,0.1799,0.0001,-0.0000,-2.7114,flat,18.0,2,14.625
510,16.32,-1.5492,7.7776,0.1799,0.0002,-0.0000,-2.5675,flat,18.0,2,14.190
520,16.64,-1.9952,7.4628,0.1798,0.0004,-0.0000,-2.4670,flat,18.0,2,13.711
530,16.96,-2.4159,7.1037,0.1798,0.0003,-0.0000,-2.3919,flat,18.0,2,13.208
540,17.28,-2.8109,6.7127,0.1797,0.0002,-0.0000,-2.3254,flat,18.0,2,12.690
550,17.60,-3.1827,6.2953,0.1797,0.0002,-0.0000,-2.2668,flat,18.0,2,12.160
560,17.92,-3.5327,5.8560,0.1797,0.0002,-0.0000,-2.2161,flat,18.0,2,11.620
570,18.24,-3.8631,5.4000,0.1797,0.0002,-0.0000,-2.1730,flat,18.0,2,11.074
580,18.56,-4.1760,4.9293,0.1797,0.0001,-0.0000,-2.1347,flat,18.0,2,10.523
590,18.88,-4.4726,4.4463,0.1797,0.0001,-0.0000,-2.1007,flat,18.0,2,9.966
600,19.20,-4.7542,3.9529,0.1797,0.0001,-0.0000,-2.0703,flat,18.0,2,9.407
610,19.52,-5.0220,3.4507,0.1797,0.0001,-0.0000,-2.0432,flat,18.0,2,8.844
620,19.84,-5.2771,2.9410,0.1797,0.0001,-0.0000,-2.0188,flat,18.0,2,8.280
630,20.16,-5.5206,2.4248,0.1797,0.0001,-0.0000,-1.9969,flat,18.0,2,7.713
640,20.48,-5.7534,1.9031,0.1797,0.0001,-0.0000,-1.9770,flat,18.0,2,7.146
650,20.80,-5.9763,1.3765,0.1797,0.0001,-0.0000,-1.9588,flat,18.0,2,6.577
660,21.12,-6.1901,0.8458,0.1797,0.0001,-0.0000,-1.9422,flat,18.0,2,6.007
670,21.44,-6.3954,0.3114,0.1797,0.0001,-0.0000,-1.9267,flat,18.0,2,5.436
680,21.76,-6.5927,-0.2263,0.1797,0.0001,-0.0000,-1.9123,flat,18.0,2,4.865
690,22.08,-6.7824,-0.7669,0.1797,0.0000,-0.0000,-1.8986,flat,18.0,2,4.294
700,22.40,-6.9649,-1.3101,0.1797,0.0000,-0.0000,-1.8853,flat,18.0,2,3.722
710,22.72,-7.1402,-1.8558,0.1797,0.0000,-0.0000,-1.8722,flat,18.0,2,3.150
720,23.04,-7.3084,-2.4036,0.1797,0.0000,0.0000,-1.8588,flat,18.0,2,2.578
730,23.36,-7.4692,-2.9535,0.1797,0.0001,0.0000,-1.8444,flat,18.0,2,2.006
740,23.68,-7.6216,-3.5052,0.1797,0.0001,0.0000,-1.8275,flat,18.0,2,1.435
750,24.00,-7.7638,-4.0581,0.1797,0.0001,0.0000,-1.8037,flat,18.0,2,0.866
760,24.32,-7.8780,-4.5600,0.1798,-0.0003,0.0002,-1.7588,flat,18.0,0,13.223
770,24.64,-7.9343,-4.9643,0.1799,-0.0002,-0.0000,-1.3483,flat,18.0,0,13.286
780,24.96,-7.8097,-5.3750,0.1799,-0.0001,-0.0001,-1.0306,flat,18.0,0,13.182
790,25.28,-7.5272,-5.7610,0.1799,0.0000,-0.0000,-0.7988,flat,18.0,0,12.932
800,25.60,-7.1378,-6.1014,0.1799,0.0000,-0.0000,-0.6107,flat,18.0,0,12.582
810,25.92,-6.6780,-6.3858,0.1799,0.0001,-0.0000,-0.4442,flat,18.0,0,12.167
820,26.24,-6.1709,-6.6035,0.1799,0.0002,-0.0000,-0.3057,flat,18.0,0,11.702
830,26.56,-5.6346,-6.7569,0.1799,0.0004,-0.0000,-0.1927,flat,18.0,0,11.205
840,26.88,-5.0814,-6.8532,0.1798,0.0004,-0.0000,-0.1003,flat,18.0,0,10.684
850,27.20,-4.5191,-6.9007,0.1798,0.0003,-0.0000,-0.0246,flat,18.0,0,10.147
860,27.52,-3.9531,-6.9072,0.1797,0.0002,-0.0000,0.0360,flat,18.0,0,9.599
870,27.84,-3.3872,-6.8812,0.1797,0.0002,-0.0000,0.0825,flat,18.0,0,9.045
880,28.16,-2.8221,-6.8297,0.1797,0.0001,-0.0000,0.1198,flat,18.0,0,8.487
890,28.48,-2.2583,-6.7578,0.1797,0.0001,-0.0000,0.1510,flat,18.0,0,7.925
900,28.80,-1.6961,-6.6687,0.1797,0.0001,-0.0000,0.1777,flat,18.0,0,7.361
910,29.12,-1.1356,-6.5648,0.1797,0.0001,-0.0000,0.2009,flat,18.0,0,6.795
920,29.44,-0.5771,-6.4481,0.1797,0.0001,-0.0000,0.2213,flat,18.0,0,6.228
930,29.76,-0.0205,-6.3202,0.1797,0.0001,-0.0000,0.2395,flat,18.0,0,5.659
940,30.08,0.5341,-6.1823,0.1797,0.0001,-0.0000,0.2560,flat,18.0,0,5.090
950,30.40,1.0867,-6.0353,0.1797,0.0001,-0.0000,0.2712,flat,18.0,0,4.519
960,30.72,1.6372,-5.8800,0.1797,0.0001,-0.0000,0.2855,flat,18.0,0,3.949
970,31.04,2.1855,-5.7168,0.1797,0.0000,-0.0000,0.2993,flat,18.0,0,3.378
980,31.36,2.7316,-5.5461,0.1797,0.0000,0.0000,0.3130,flat,18.0,0,2.807
990,31.68,3.2750,-5.3679,0.1797,0.0000,0.0000,0.3271,flat,18.0,0,2.237
1000,32.00,3.8153,-5.1820,0.1797,0.0001,0.0000,0.3429,flat,18.0,0,1.666
1010,32.32,4.3512,-4.9876,0.1797,0.0001,0.0000,0.3629,flat,18.0,0,1.098
1020,32.64,4.8484,-4.7986,0.1798,-0.0000,0.0002,0.4733,flat,18.0,1,12.890
1030,32.96,5.2225,-4.5639,0.1799,0.0000,-0.0000,0.7431,flat,18.0,1,12.785
1040,33.28,5.5391,-4.2062,0.1799,0.0000,-0.0000,0.9850,flat,18.0,1,12.558
1050,33.60,5.7947,-3.7569,0.1799,0.0000,-0.0000,1.2056,flat,18.0,1,12.237
1060,33.92,5.9639,-3.2447,0.1799,0.0001,-0.0000,1.3984,flat,18.0,1,11.837
1070,34.24,6.0402,-2.6992,0.1799,0.0001,-0.0000,1.5568,flat,18.0,1,11.377
1080,34.56,6.0336,-2.1434,0.1799,0.0003,-0.0000,1.6758,flat,18.0,1,10.878
1090,34.88,5.9644,-1.5889,0.1798,0.0004,-0.0000,1.7625,flat,18.0,1,10.356
1100,35.20,5.8488,-1.0397,0.1797,0.0003,-0.0000,1.8293,flat,18.0,1,9.819
1110,35.52,5.6975,-0.4970,0.1797,0.0002,-0.0000,1.8825,flat,18.0,1,9.274
1120,35.84,5.5178,0.0385,0.1797,0.0002,-0.0000,1.9252,flat,18.0,1,8.721
1130,36.16,5.3160,0.5669,0.1797,0.0001,-0.0000,1.9597,flat,18.0,1,8.165
1140,36.48,5.0961,1.0894,0.1797,0.0001,-0.0000,1.9896,flat,18.0,1,7.606
1150,36.80,4.8607,1.6062,0.1797,0.0001,-0.0000,2.0158,flat,18.0,1,7.044
1160,37.12,4.6118,2.1175,0.1797,0.0001,-0.0000,2.0391,flat,18.0,1,6.480
1170,37.44,4.3511,2.6236,0.1797,0.0001,-0.0000,2.0602,flat,18.0,1,5.914
1180,37.76,4.0797,3.1247,0.1797,0.0001,-0.0000,2.0795,flat,18.0,1,5.348
1190,38.08,3.7987,3.6209,0.1797,0.0001,-0.0000,2.0974,flat,18.0,1,4.780
1200,38.40,3.5089,4.1123,0.1797,0.0001,-0.0000,2.1143,flat,18.0,1,4.212
1210,38.72,3.2107,4.5989,0.1797,0.0001,-0.0000,2.1307,flat,18.0,1,3.644
1220,39.04,2.9046,5.0806,0.1797,0.0001,-0.0000,2.1470,flat,18.0,1,3.075
1230,39.36,2.5906,5.5569,0.1797,0.0001,0.0000,2.1637,flat,18.0,1,2.507
1240,39.68,2.2687,6.0273,0.1797,0.0001,0.0000,2.1820,flat,18.0,1,1.939
1250,40.00,1.9383,6.4904,0.1797,0.0001,0.0000,2.2037,flat,18.0,1,1.373
1260,40.32,1.5982,6.9425,0.1797,0.0001,0.0000,2.2346,flat,18.0,1,0.811
1270,40.64,1.3063,7.2598,0.1799,-0.0003,0.0000,2.5366,flat,18.0,2,15.260
1280,40.96,0.9317,7.4702,0.1799,-0.0000,-0.0000,2.8810,flat,18.0,2,15.208
1290,41.28,0.4640,7.5670,0.1799,0.0000,-0.0000,-3.0927,flat,18.0,2,15.021
1300,41.60,-0.0414,7.5178,0.1799,0.0000,-0.0000,-2.8569,flat,18.0,2,14.705
1310,41.92,-0.5420,7.3463,0.1799,0.0001,-0.0000,-2.6872,flat,18.0,2,14.296
1320,42.24,-0.9700,7.1183,0.1798,0.0001,0.0001,-2.5840,rough,14.0,2,13.883
1330,42.56,-1.3433,6.8714,0.1798,0.0002,-0.0004,-2.5076,flat,18.0,2,13.484
1340,42.88,-1.7800,6.5299,0.1798,0.0003,-0.0001,-2.4355,flat,18.0,2,12.975
1350,43.20,-2.1936,6.1571,0.1797,0.0002,-0.0000,-2.3729,flat,18.0,2,12.453
1360,43.52,-2.5858,5.7581,0.1797,0.0002,-0.0000,-2.3188,flat,18.0,2,11.920
1370,43.84,-2.9581,5.3381,0.1797,0.0002,-0.0000,-2.2719,flat,18.0,2,11.379
1380,44.16,-3.3132,4.9013,0.1797,0.0001,-0.0000,-2.2315,flat,18.0,2,10.832
1390,44.48,-3.6528,4.4499,0.1797,0.0001,-0.0000,-2.1953,flat,18.0,2,10.280
1400,44.80,-3.9778,3.9858,0.1797,0.0001,-0.0000,-2.1628,flat,18.0,2,9.724
1410,45.12,-4.2891,3.5110,0.1797,0.0001,-0.0000,-2.1336,flat,18.0,2,9.164
1420,45.44,-4.5878,3.0268,0.1797,0.0001,-0.0000,-2.1073,flat,18.0,2,8.602
1430,45.76,-4.8746,2.5345,0.1797,0.0001,-0.0000,-2.0836,flat,18.0,2,8.038
1440,46.08,-5.1506,2.0353,0.1797,0.0001,-0.0000,-2.0619,flat,18.0,2,7.472
1450,46.40,-5.4164,1.5299,0.1797,0.0001,-0.0000,-2.0422,flat,18.0,2,6.904
1460,46.72,-5.6727,1.0191,0.1797,0.0001,-0.0000,-2.0240,flat,18.0,2,6.336
1470,47.04,-5.9202,0.5035,0.1797,0.0001,-0.0000,-2.0072,flat,18.0,2,5.766
1480,47.36,-6.1594,-0.0163,0.1797,0.0001,-0.0000,-1.9914,flat,18.0,2,5.196
1490,47.68,-6.3907,-0.5400,0.1797,0.0001,-0.0000,-1.9765,flat,18.0,2,4.626
1500,48.00,-6.6144,-1.0672,0.1797,0.0001,-0.0000,-1.9622,flat,18.0,2,4.054
1510,48.32,-6.8307,-1.5975,0.1797,0.0000,-0.0000,-1.9482,flat,18.0,2,3.483
1520,48.64,-7.0396,-2.1309,0.1797,0.0000,-0.0000,-1.9341,flat,18.0,2,2.912
1530,48.96,-7.2408,-2.6670,0.1797,0.0001,0.0000,-1.9194,flat,18.0,2,2.340
1540,49.28,-7.4339,-3.2058,0.1797,0.0001,0.0000,-1.9029,flat,18.0,2,1.770
1550,49.60,-7.6175,-3.7470,0.1797,0.0001,0.0000,-1.8823,flat,18.0,2,1.200
1560,49.92,-7.7829,-4.2833,0.1797,0.0001,0.0001,-1.8917,flat,18.0,3,0.879
1570,50.24,-7.9112,-4.7246,0.1798,-0.0004,0.0001,-1.6409,flat,18.0,0,13.257
1580,50.56,-7.9150,-5.1196,0.1799,0.0002,-0.0000,-1.2353,flat,18.0,0,13.273
1590,50.88,-7.7331,-5.5268,0.1799,0.0001,-0.0000,-0.9478,flat,18.0,0,13.116
1600,51.20,-7.4093,-5.8980,0.1799,0.0001,-0.0000,-0.7345,flat,18.0,0,12.828
1610,51.52,-6.9938,-6.2217,0.1799,0.0001,-0.0000,-0.5520,flat,18.0,0,12.455
1620,51.84,-6.5157,-6.4839,0.1799,0.0001,-0.0000,-0.3942,flat,18.0,0,12.022
1630,52.16,-5.9970,-6.6791,0.1799,0.0002,-0.0000,-0.2644,flat,18.0,0,11.545
1640,52.48,-5.4539,-6.8120,0.1798,0.0004,-0.0000,-0.1586,flat,18.0,0,11.039
1650,52.80,-4.8968,-6.8904,0.1798,0.0004,-0.0000,-0.0720,flat,18.0,0,10.512
1660,53.12,-4.3328,-6.9227,0.1798,0.0003,-0.0000,-0.0012,flat,18.0,0,9.971
1670,53.44,-3.7667,-6.9165,0.1797,0.0002,-0.0000,0.0539,flat,18.0,0,9.421
1680,53.76,-3.2009,-6.8806,0.1797,0.0002,-0.0000,0.0972,flat,18.0,0,8.866
1690,54.08,-2.6364,-6.8211,0.1797,0.0001,-0.0000,0.1321,flat,18.0,0,8.306
1700,54.40,-2.0732,-6.7423,0.1797,0.0001,-0.0000,0.1617,flat,18.0,0,7.743
1710,54.72,-1.5116,-6.6472,0.1797,0.0001,-0.0000,0.1871,flat,18.0,0,7.179
1720,55.04,-0.9519,-6.5381,0.1797,0.0001,-0.0000,0.2093,flat,18.0,0,6.612
1730,55.36,-0.3942,-6.4167,0.1797,0.0001,-0.0000,0.2289,flat,18.0,0,6.044
1740,55.68,0.1615,-6.2846,0.1797,0.0001,-0.0000,0.2466,flat,18.0,0,5.475
1750,56.00,0.7152,-6.1428,0.1797,0.0001,-0.0000,0.2626,flat,18.0,0,4.906
1760,56.32,1.2669,-5.9922,0.1797,0.0001,-0.0000,0.2775,flat,18.0,0,4.335
1770,56.64,1.8165,-5.8334,0.1797,0.0001,-0.0000,0.2915,flat,18.0,0,3.765
1780,56.96,2.3638,-5.6670,0.1797,0.0000,-0.0000,0.3052,flat,18.0,0,3.194
1790,57.28,2.9088,-5.4931,0.1797,0.0000,0.0000,0.3189,flat,18.0,0,2.623
1800,57.60,3.4510,-5.3116,0.1797,0.0001,0.0000,0.3335,flat,18.0,0,2.052
1810,57.92,3.9898,-5.1223,0.1797,0.0001,0.0000,0.3502,flat,18.0,0,1.483
1820,58.24,4.5234,-4.9239,0.1797,0.0001,0.0000,0.3727,flat,18.0,0,0.915
1830,58.56,4.9815,-4.7348,0.1799,-0.0003,0.0000,0.5519,flat,18.0,1,12.870
1840,58.88,5.3335,-4.4624,0.1799,0.0000,-0.0000,0.8202,flat,18.0,1,12.726
1850,59.20,5.6346,-4.0733,0.1799,0.0000,-0.0000,1.0560,flat,18.0,1,12.469
1860,59.52,5.8651,-3.6014,0.1799,0.0001,-0.0000,1.2685,flat,18.0,1,12.122
1870,59.84,6.0052,-3.0758,0.1799,0.0001,-0.0000,1.4513,flat,18.0,1,11.701
1880,60.16,6.0539,-2.5251,0.1799,0.0001,-0.0000,1.5989,flat,18.0,1,11.227
1890,60.48,6.0253,-1.9690,0.1798,0.0004,-0.0000,1.7059,flat,18.0,1,10.720
1900,60.80,5.9400,-1.4160,0.1798,0.0004,-0.0000,1.7856,flat,18.0,1,10.193
1910,61.12,5.8121,-0.8688,0.1797,0.0002,-0.0000,1.8476,flat,18.0,1,9.653
1920,61.44,5.6510,-0.3284,0.1797,0.0002,-0.0000,1.8976,flat,18.0,1,9.105
1930,61.76,5.4635,0.2046,0.1797,0.0001,-0.0000,1.9370,flat,18.0,1,8.551
1940,62.08,5.2554,0.7311,0.1797,0.0001,-0.0000,1.9700,flat,18.0,1,7.994
1950,62.40,5.0302,1.2516,0.1797,0.0001,-0.0000,1.9987,flat,18.0,1,7.433
1960,62.72,4.7901,1.7665,0.1797,0.0001,-0.0000,2.0239,flat,18.0,1,6.871
1970,63.04,4.5370,2.2760,0.1797,0.0001,-0.0000,2.0465,flat,18.0,1,6.306
1980,63.36,4.2726,2.7804,0.1797,0.0001,-0.0000,2.0670,flat,18.0,1,5.741
1990,63.68,3.9978,3.2798,0.1797,0.0001,-0.0000,2.0858,flat,18.0,1,5.174
2000,64.00,3.7136,3.7743,0.1797,0.0001,-0.0000,2.1034,flat,18.0,1,4.606
2010,64.32,3.4208,4.2640,0.1797,0.0001,-0.0000,2.1201,flat,18.0,1,4.038
2020,64.64,3.1198,4.7489,0.1797,0.0001,-0.0000,2.1364,flat,18.0,1,3.469
2030,64.96,2.8109,5.2287,0.1797,0.0001,0.0000,2.1528,flat,18.0,1,2.901
2040,65.28,2.4942,5.7031,0.1797,0.0001,0.0000,2.1698,flat,18.0,1,2.333
2050,65.60,2.1694,6.1712,0.1797,0.0001,0.0000,2.1889,flat,18.0,1,1.765
2060,65.92,1.8358,6.6312,0.1797,0.0001,0.0000,2.2125,flat,18.0,1,1.200
2070,66.24,1.5014,7.0692,0.1797,0.0001,0.0003,2.2856,flat,18.0,2,15.228
2080,66.56,1.2043,7.3337,0.1799,-0.0002,-0.0000,2.6433,flat,18.0,2,15.258
2090,66.88,0.7962,7.5167,0.1799,0.0000,-0.0000,2.9794,flat,18.0,2,15.168
2100,67.20,0.3112,7.5693,0.1799,0.0001,-0.0000,-3.0135,flat,18.0,2,14.939
2110,67.52,-0.1960,7.4792,0.1799,0.0001,-0.0000,-2.8012,flat,18.0,2,14.590
2120,67.84,-0.6903,7.2782,0.1799,0.0001,-0.0000,-2.6458,flat,18.0,2,14.162
2130,68.16,-1.0909,7.0448,0.1798,0.0001,0.0001,-2.5582,rough,14.0,2,13.759
2140,68.48,-1.4886,6.7657,0.1798,0.0003,-0.0002,-2.4819,flat,18.0,2,13.321
2150,68.80,-1.9179,6.4131,0.1797,0.0002,-0.0000,-2.4145,flat,18.0,2,12.807
2160,69.12,-2.3243,6.0312,0.1797,0.0002,-0.0000,-2.3544,flat,18.0,2,12.281
2170,69.44,-2.7099,5.6249,0.1797,0.0002,-0.0000,-2.3026,flat,18.0,2,11.745
2180,69.76,-3.0763,5.1991,0.1797,0.0002,-0.0000,-2.2582,flat,18.0,2,11.202
2190,70.08,-3.4262,4.7573,0.1797,0.0001,-0.0000,-2.2192,flat,18.0,2,10.654
2200,70.40,-3.7609,4.3015,0.1797,0.0001,-0.0000,-2.1843,flat,18.0,2,10.100
2210,70.72,-4.0813,3.8338,0.1797,0.0001,-0.0000,-2.1529,flat,18.0,2,9.543
2220,71.04,-4.3884,3.3557,0.1797,0.0001,-0.0000,-2.1247,flat,18.0,2,8.982
2230,71.36,-4.6830,2.8687,0.1797,0.0001,-0.0000,-2.0993,flat,18.0,2,8.420
2240,71.68,-4.9662,2.3741,0.1797,0.0001,-0.0000,-2.0762,flat,18.0,2,7.855
2250,72.00,-5.2387,1.8727,0.1797,0.0001,-0.0000,-2.0552,flat,18.0,2,7.288
2260,72.32,-5.5013,1.3654,0.1797,0.0001,-0.0000,-2.0360,flat,18.0,2,6.720
2270,72.64,-5.7547,0.8530,0.1797,0.0001,-0.0000,-2.0183,flat,18.0,2,6.151
2280,72.96,-5.9994,0.3359,0.1797,0.0001,-0.0000,-2.0018,flat,18.0,2,5.582
2290,73.28,-6.2359,-0.1852,0.1797,0.0001,-0.0000,-1.9864,flat,18.0,2,5.011
2300,73.60,-6.4646,-0.7101,0.1797,0.0001,-0.0000,-1.9717,flat,18.0,2,4.441
2310,73.92,-6.6858,-1.2384,0.1797,0.0001,-0.0000,-1.9575,flat,18.0,2,3.870
2320,74.24,-6.8996,-1.7697,0.1797,0.0000,-0.0000,-1.9435,flat,18.0,2,3.298
2330,74.56,-7.1060,-2.3040,0.1797,0.0001,0.0000,-1.9293,flat,18.0,2,2.727
2340,74.88,-7.3046,-2.8410,0.1797,0.0001,0.0000,-1.9141,flat,18.0,2,2.156
2350,75.20,-7.4947,-3.3807,0.1797,0.0001,0.0000,-1.8967,flat,18.0,2,1.585
2360,75.52,-7.6745,-3.9225,0.1797,0.0001,0.0000,-1.8737,flat,18.0,2,1.016
2370,75.84,-7.8338,-4.4399,0.1799,-0.0000,0.0003,-1.9268,flat,18.0,0,13.179
2380,76.16,-7.9454,-4.8414,0.1799,-0.0002,0.0000,-1.5122,flat,18.0,0,13.294
2390,76.48,-7.8957,-5.2449,0.1799,0.0001,-0.0001,-1.1451,flat,18.0,0,13.260
2400,76.80,-7.6691,-5.6445,0.1799,0.0001,-0.0000,-0.8814,flat,18.0,0,13.062
2410,77.12,-7.3150,-6.0027,0.1799,0.0001,-0.0000,-0.6813,flat,18.0,0,12.746
2420,77.44,-6.8794,-6.3106,0.1799,0.0001,-0.0000,-0.5044,flat,18.0,0,12.355
2430,77.76,-6.3879,-6.5538,0.1799,0.0001,-0.0000,-0.3547,flat,18.0,0,11.908
2440,78.08,-5.8609,-6.7306,0.1799,0.0003,-0.0000,-0.2321,flat,18.0,0,11.422
2450,78.40,-5.3130,-6.8471,0.1798,0.0004,-0.0000,-0.1321,flat,18.0,0,10.909
2460,78.72,-4.7534,-6.9115,0.1798,0.0004,-0.0000,-0.0503,flat,18.0,0,10.377
2470,79.04,-4.1882,-6.9320,0.1797,0.0003,-0.0000,0.0166,flat,18.0,0,9.833
2480,79.36,-3.6222,-6.9164,0.1797,0.0002,-0.0000,0.0674,flat,18.0,0,9.282
2490,79.68,-3.0567,-6.8731,0.1797,0.0001,-0.0000,0.1080,flat,18.0,0,8.725
2500,80.00,-2.4925,-6.8076,0.1797,0.0001,-0.0000,0.1413,flat,18.0,0,8.164
2510,80.32,-1.9298,-6.7237,0.1797,0.0001,-0.0000,0.1696,flat,18.0,0,7.601
2520,80.64,-1.3688,-6.6243,0.1797,0.0001,-0.0000,0.1940,flat,18.0,0,7.035
2530,80.96,-0.8097,-6.5115,0.1797,0.0001,-0.0000,0.2154,flat,18.0,0,6.468
2540,81.28,-0.2525,-6.3868,0.1797,0.0001,-0.0000,0.2343,flat,18.0,0,5.900
2550,81.60,0.3026,-6.2517,0.1797,0.0001,-0.0000,0.2514,flat,18.0,0,5.331
2560,81.92,0.8557,-6.1072,0.1797,0.0001,-0.0000,0.2671,flat,18.0,0,4.761
2570,82.24,1.4068,-5.9541,0.1797,0.0001,-0.0000,0.2817,flat,18.0,0,4.191
2580,82.56,1.9557,-5.7931,0.1797,0.0000,-0.0000,0.2955,flat,18.0,0,3.620
2590,82.88,2.5024,-5.6245,0.1797,0.0000,-0.0000,0.3091,flat,18.0,0,3.049
2600,83.20,3.0467,-5.4484,0.1797,0.0000,0.0000,0.3229,flat,18.0,0,2.478
2610,83.52,3.5881,-5.2648,0.1797,0.0001,0.0000,0.3378,flat,18.0,0,1.908
2620,83.84,4.1257,-5.0731,0.1797,0.0001,0.0000,0.3554,flat,18.0,0,1.338
2630,84.16,4.6574,-4.8719,0.1797,0.0001,0.0000,0.3808,flat,18.0,1,12.905
2640,84.48,5.0708,-4.6767,0.1799,-0.0001,0.0000,0.6326,flat,18.0,1,12.843
2650,84.80,5.4059,-4.3668,0.1799,0.0000,-0.0000,0.8910,flat,18.0,1,12.661
2660,85.12,5.6898,-3.9505,0.1799,0.0000,-0.0000,1.1206,flat,18.0,1,12.376
2670,85.44,5.8955,-3.4597,0.1799,0.0000,-0.0000,1.3251,flat,18.0,1,12.005
2680,85.76,6.0086,-2.9242,0.1799,0.0001,-0.0000,1.4972,flat,18.0,1,11.566
2690,86.08,6.0333,-2.3704,0.1799,0.0002,-0.0000,1.6326,flat,18.0,1,11.080
2700,86.40,5.9872,-1.8146,0.1798,0.0004,-0.0000,1.7300,flat,18.0,1,10.565
2710,86.72,5.8890,-1.2630,0.1798,0.0003,-0.0000,1.8037,flat,18.0,1,10.034
2720,87.04,5.7514,-0.7174,0.1797,0.0002,-0.0000,1.8617,flat,18.0,1,9.491
2730,87.36,5.5829,-0.1787,0.1797,0.0002,-0.0000,1.9087,flat,18.0,1,8.941
2740,87.68,5.3897,0.3525,0.1797,0.0001,-0.0000,1.9455,flat,18.0,1,8.386
2750,88.00,5.1772,0.8775,0.1797,0.0001,-0.0000,1.9771,flat,18.0,1,7.828
2760,88.32,4.9482,1.3968,0.1797,0.0001,-0.0000,2.0046,flat,18.0,1,7.267
2770,88.64,4.7051,1.9106,0.1797,0.0001,-0.0000,2.0290,flat,18.0,1,6.704
2780,88.96,4.4495,2.4190,0.1797,0.0001,-0.0000,2.0509,flat,18.0,1,6.139
2790,89.28,4.1828,2.9224,0.1797,0.0001,-0.0000,2.0708,flat,18.0,1,5.573
2800,89.60,3.9061,3.4209,0.1797,0.0001,-0.0000,2.0892,flat,18.0,1,5.006
2810,89.92,3.6203,3.9145,0.1797,0.0001,-0.0000,2.1065,flat,18.0,1,4.438
2820,90.24,3.3259,4.4034,0.1797,0.0001,-0.0000,2.1230,flat,18.0,1,3.869
2830,90.56,3.0235,4.8874,0.1797,0.0001,-0.0000,2.1393,flat,18.0,1,3.301
2840,90.88,2.7132,5.3663,0.1797,0.0001,0.0000,2.1557,flat,18.0,1,2.732
2850,91.20,2.3951,5.8396,0.1797,0.0001,0.0000,2.1732,flat,18.0,1,2.164
2860,91.52,2.0687,6.3062,0.1797,0.0001,0.0000,2.1932,flat,18.0,1,1.597
2870,91.84,1.7332,6.7638,0.1797,0.0001,0.0000,2.2192,flat,18.0,1,1.033
2880,92.16,1.4217,7.1591,0.1798,-0.0001,0.0003,2.3923,flat,18.0,2,15.250
2890,92.48,1.0941,7.3969,0.1799,-0.0000,-0.0001,2.7453,flat,18.0,2,15.243
2900,92.80,0.6577,7.5468,0.1799,0.0000,-0.0000,3.0716,flat,18.0,2,15.113
2910,93.12,0.1610,7.5558,0.1799,0.0000,-0.0000,-2.9429,flat,18.0,2,14.846
2920,93.44,-0.3450,7.4293,0.1799,0.0001,-0.0000,-2.7490,flat,18.0,2,14.469
2930,93.76,-0.8320,7.2023,0.1799,0.0002,-0.0000,-2.6095,flat,18.0,2,14.025
2940,94.08,-1.2069,6.9703,0.1798,0.0001,0.0001,-2.5401,rough,14.0,2,13.637
2950,94.40,-1.6299,6.6606,0.1798,0.0003,-0.0001,-2.4642,flat,18.0,2,13.161
2960,94.72,-2.0531,6.3001,0.1797,0.0002,-0.0000,-2.3982,flat,18.0,2,12.645
2970,95.04,-2.4536,5.9114,0.1797,0.0002,-0.0000,-2.3400,flat,18.0,2,12.116
2980,95.36,-2.8337,5.4994,0.1797,0.0002,-0.0000,-2.2897,flat,18.0,2,11.578
2990,95.68,-3.1953,5.0691,0.1797,0.0001,-0.0000,-2.2469,flat,18.0,2,11.034
3000,96.00,-3.5408,4.6232,0.1797,0.0001,-0.0000,-2.2088,flat,18.0,2,10.484
3010,96.32,-3.8712,4.1638,0.1797,0.0001,-0.0000,-2.1747,flat,18.0,2,9.930
3020,96.64,-4.1875,3.6929,0.1797,0.0001,-0.0000,-2.1441,flat,18.0,2,9.371
3030,96.96,-4.4907,3.2120,0.1797,0.0001,-0.0000,-2.1165,flat,18.0,2,8.810
3040,97.28,-4.7816,2.7226,0.1797,0.0001,-0.0000,-2.0916,flat,18.0,2,8.247
3050,97.60,-5.0612,2.2257,0.1797,0.0001,-0.0000,-2.0690,flat,18.0,2,7.682
3060,97.92,-5.3303,1.7223,0.1797,0.0001,-0.0000,-2.0484,flat,18.0,2,7.115
3070,98.24,-5.5896,1.2132,0.1797,0.0001,-0.0000,-2.0295,flat,18.0,2,6.547
3080,98.56,-5.8397,0.6991,0.1797,0.0001,-0.0000,-2.0121,flat,18.0,2,5.978
3090,98.88,-6.0813,0.1805,0.1797,0.0001,-0.0000,-1.9958,flat,18.0,2,5.408
3100,99.20,-6.3148,-0.3421,0.1797,0.0001,-0.0000,-1.9805,flat,18.0,2,4.837
3110,99.52,-6.5405,-0.8683,0.1797,0.0001,-0.0000,-1.9659,flat,18.0,2,4.267
3120,99.84,-6.7586,-1.3978,0.1797,0.0001,-0.0000,-1.9518,flat,18.0,2,3.695
3130,100.16,-6.9694,-1.9304,0.1797,0.0000,-0.0000,-1.9376,flat,18.0,2,3.124
3140,100.48,-7.1725,-2.4659,0.1797,0.0001,0.0000,-1.9231,flat,18.0,2,2.553
3150,100.80,-7.3677,-3.0040,0.1797,0.0001,0.0000,-1.9073,flat,18.0,2,1.982
3160,101.12,-7.5540,-3.5447,0.1797,0.0001,0.0000,-1.8886,flat,18.0,2,1.411
3170,101.44,-7.7289,-4.0874,0.1797,0.0001,0.0000,-1.8620,flat,18.0,2,0.843
3180,101.76,-7.8747,-4.5708,0.1798,-0.0004,0.0002,-1.8253,flat,18.0,0,13.219
3190,102.08,-7.9525,-4.9616,0.1799,-0.0001,-0.0000,-1.3850,flat,18.0,0,13.305
3200,102.40,-7.8451,-5.3705,0.1799,-0.0001,-0.0000,-1.0537,flat,18.0,0,13.217
3210,102.72,-7.5740,-5.7595,0.1799,-0.0000,-0.0000,-0.8152,flat,18.0,0,12.978
3220,103.04,-7.1917,-6.1036,0.1799,0.0000,-0.0000,-0.6249,flat,18.0,0,12.636
3230,103.36,-6.7367,-6.3929,0.1799,0.0001,-0.0000,-0.4559,flat,18.0,0,12.226
3240,103.68,-6.2325,-6.6155,0.1799,0.0002,-0.0000,-0.3148,flat,18.0,0,11.765
3250,104.00,-5.6979,-6.7732,0.1799,0.0004,-0.0000,-0.1996,flat,18.0,0,11.270
3260,104.32,-5.1456,-6.8730,0.1798,0.0004,-0.0000,-0.1055,flat,18.0,0,10.751
3270,104.64,-4.5838,-6.9233,0.1798,0.0004,-0.0000,-0.0284,flat,18.0,0,10.215
3280,104.96,-4.0178,-6.9318,0.1797,0.0002,-0.0000,0.0336,flat,18.0,0,9.668
3290,105.28,-3.4521,-6.9071,0.1797,0.0002,-0.0000,0.0808,flat,18.0,0,9.115
3300,105.60,-2.8869,-6.8564,0.1797,0.0001,-0.0000,0.1188,flat,18.0,0,8.557
3310,105.92,-2.3232,-6.7850,0.1797,0.0001,-0.0000,0.1504,flat,18.0,0,7.995
3320,106.24,-1.7609,-6.6962,0.1797,0.0001,-0.0000,0.1774,flat,18.0,0,7.431
3330,106.56,-1.2005,-6.5924,0.1797,0.0001,-0.0000,0.2008,flat,18.0,0,6.865
3340,106.88,-0.6420,-6.4758,0.1797,0.0001,-0.0000,0.2214,flat,18.0,0,6.298
3350,107.20,-0.0855,-6.3478,0.1797,0.0001,-0.0000,0.2398,flat,18.0,0,5.729
3360,107.52,0.4691,-6.2097,0.1797,0.0001,-0.0000,0.2564,flat,18.0,0,5.160
3370,107.84,1.0216,-6.0625,0.1797,0.0001,-0.0000,0.2717,flat,18.0,0,4.590
3380,108.16,1.5720,-5.9069,0.1797,0.0001,-0.0000,0.2860,flat,18.0,0,4.019
3390,108.48,2.1202,-5.7435,0.1797,0.0000,-0.0000,0.2997,flat,18.0,0,3.449
3400,108.80,2.6662,-5.5726,0.1797,0.0000,-0.0000,0.3133,flat,18.0,0,2.878
3410,109.12,3.2096,-5.3942,0.1797,0.0000,0.0000,0.3273,flat,18.0,0,2.307
3420,109.44,3.7500,-5.2082,0.1797,0.0001,0.0000,0.3428,flat,18.0,0,1.737
3430,109.76,4.2862,-5.0139,0.1797,0.0001,0.0000,0.3619,flat,18.0,0,1.168
3440,110.08,4.7951,-4.8220,0.1798,0.0001,0.0003,0.4495,flat,18.0,1,12.897
3450,110.40,5.1765,-4.5982,0.1799,0.0000,-0.0000,0.7172,flat,18.0,1,12.802
3460,110.72,5.4978,-4.2513,0.1799,0.0000,-0.0000,0.9620,flat,18.0,1,12.585
3470,111.04,5.7608,-3.8097,0.1799,0.0001,-0.0000,1.1846,flat,18.0,1,12.273
3480,111.36,5.9392,-3.3023,0.1799,0.0001,0.0000,1.3795,flat,18.0,1,11.879
3490,111.68,6.0248,-2.7589,0.1799,0.0001,-0.0000,1.5421,flat,18.0,1,11.424
3500,112.00,6.0259,-2.2033,0.1799,0.0003,-0.0000,1.6651,flat,18.0,1,10.928
3510,112.32,5.9625,-1.6484,0.1798,0.0004,-0.0000,1.7542,flat,18.0,1,10.407
3520,112.64,5.8514,-1.0985,0.1798,0.0003,-0.0000,1.8225,flat,18.0,1,9.872
3530,112.96,5.7037,-0.5549,0.1797,0.0002,-0.0000,1.8768,flat,18.0,1,9.327
3540,113.28,5.5271,-0.0185,0.1797,0.0002,-0.0000,1.9205,flat,18.0,1,8.775
3550,113.60,5.3278,0.5108,0.1797,0.0001,-0.0000,1.9555,flat,18.0,1,8.219
3560,113.92,5.1101,1.0341,0.1797,0.0001,-0.0000,1.9857,flat,18.0,1,7.660
3570,114.24,4.8766,1.5517,0.1797,0.0001,-0.0000,2.0123,flat,18.0,1,7.098
3580,114.56,4.6296,2.0638,0.1797,0.0001,-0.0000,2.0359,flat,18.0,1,6.534
3590,114.88,4.3705,2.5707,0.1797,0.0001,-0.0000,2.0571,flat,18.0,1,5.969
3600,115.20,4.1007,3.0726,0.1797,0.0001,-0.0000,2.0765,flat,18.0,1,5.402
3610,115.52,3.8212,3.5696,0.1797,0.0001,-0.0000,2.0945,flat,18.0,1,4.835
3620,115.84,3.5327,4.0618,0.1797,0.0001,-0.0000,2.1115,flat,18.0,1,4.267
3630,116.16,3.2359,4.5492,0.1797,0.0001,-0.0000,2.1279,flat,18.0,1,3.699
3640,116.48,2.9311,5.0317,0.1797,0.0001,-0.0000,2.1442,flat,18.0,1,3.130
3650,116.80,2.6185,5.5090,0.1797,0.0001,0.0000,2.1608,flat,18.0,1,2.562
3660,117.12,2.2979,5.9805,0.1797,0.0001,0.0000,2.1789,flat,18.0,1,1.994
3670,117.44,1.9690,6.4447,0.1797,0.0001,0.0000,2.2001,flat,18.0,1,1.427
3680,117.76,1.6305,6.8987,0.1797,0.0001,0.0000,2.2295,flat,18.0,1,0.865
3690,118.08,1.3352,7.2363,0.1798,-0.0003,0.0000,2.4999,flat,18.0,2,15.258
3700,118.40,0.9728,7.4544,0.1799,-0.0000,-0.0000,2.8468,flat,18.0,2,15.219
3710,118.72,0.5122,7.5655,0.1799,0.0001,-0.0000,-3.1217,flat,18.0,2,15.047
3720,119.04,0.0084,7.5305,0.1799,0.0001,-0.0000,-2.8797,flat,18.0,2,14.742
3730,119.36,-0.4940,7.3701,0.1799,0.0001,-0.0000,-2.7021,flat,18.0,2,14.341
3740,119.68,-0.9554,7.1306,0.1798,0.0002,0.0004,-2.5881,rough,14.0,2,13.901
3750,120.00,-1.3204,6.8925,0.1798,0.0002,-0.0004,-2.5192,flat,18.0,2,13.514
3760,120.32,-1.7594,6.5559,0.1798,0.0003,-0.0001,-2.4434,flat,18.0,2,13.008
3770,120.64,-2.1755,6.1864,0.1797,0.0002,-0.0000,-2.3795,flat,18.0,2,12.487
3780,120.96,-2.5699,5.7901,0.1797,0.0002,-0.0000,-2.3242,flat,18.0,2,11.955
3790,121.28,-2.9441,5.3721,0.1797,0.0002,-0.0000,-2.2762,flat,18.0,2,11.416
3800,121.60,-3.3007,4.9369,0.1797,0.0001,-0.0000,-2.2350,flat,18.0,2,10.870
3810,121.92,-3.6416,4.4867,0.1797,0.0001,-0.0000,-2.1982,flat,18.0,2,10.318
3820,122.24,-3.9676,4.0237,0.1797,0.0001,-0.0000,-2.1652,flat,18.0,2,9.763
3830,122.56,-4.2799,3.5496,0.1797,0.0001,-0.0000,-2.1355,flat,18.0,2,9.203
3840,122.88,-4.5793,3.0661,0.1797,0.0001,-0.0000,-2.1088,flat,18.0,2,8.642
3850,123.20,-4.8667,2.5743,0.1797,0.0001,-0.0000,-2.0846,flat,18.0,2,8.077
3860,123.52,-5.1430,2.0753,0.1797,0.0001,-0.0000,-2.0626,flat,18.0,2,7.512
3870,123.84,-5.4091,1.5701,0.1797,0.0001,-0.0000,-2.0426,flat,18.0,2,6.944
3880,124.16,-5.6656,1.0595,0.1797,0.0001,-0.0000,-2.0242,flat,18.0,2,6.376
3890,124.48,-5.9131,0.5440,0.1797,0.0001,-0.0000,-2.0071,flat,18.0,2,5.807
3900,124.80,-6.1522,0.0241,0.1797,0.0001,-0.0000,-1.9912,flat,18.0,2,5.237
3910,125.12,-6.3833,-0.4996,0.1797,0.0001,-0.0000,-1.9761,flat,18.0,2,4.666
3920,125.44,-6.6067,-1.0268,0.1797,0.0001,-0.0000,-1.9616,flat,18.0,2,4.095
3930,125.76,-6.8227,-1.5573,0.1797,0.0000,-0.0000,-1.9475,flat,18.0,2,3.524
3940,126.08,-7.0311,-2.0908,0.1797,0.0001,-0.0000,-1.9333,flat,18.0,2,2.953
3950,126.40,-7.2320,-2.6270,0.1797,0.0001,0.0000,-1.9185,flat,18.0,2,2.381
3960,126.72,-7.4246,-3.1660,0.1797,0.0001,0.0000,-1.9021,flat,18.0,2,1.810
3970,127.04,-7.6078,-3.7074,0.1797,0.0001,0.0000,-1.8819,flat,18.0,2,1.241
3980,127.36,-7.7732,-4.2440,0.1797,0.0001,0.0001,-1.8920,flat,18.0,3,0.913
3990,127.68,-7.9123,-4.6919,0.1798,-0.0004,0.0001,-1.6987,flat,18.0,0,13.258
4000,128.00,-7.9402,-5.0831,0.1799,0.0001,-0.0001,-1.2749,flat,18.0,0,13.297
4010,128.32,-7.7785,-5.4911,0.1799,0.0001,-0.0000,-0.9765,flat,18.0,0,13.159
4020,128.64,-7.4685,-5.8673,0.1799,0.0001,-0.0000,-0.7567,flat,18.0,0,12.884
4030,128.96,-7.0618,-6.1969,0.1799,0.0001,-0.0000,-0.5719,flat,18.0,0,12.519
4040,129.28,-6.5896,-6.4667,0.1799,0.0001,-0.0000,-0.4107,flat,18.0,0,12.092
4050,129.60,-6.0746,-6.6694,0.1799,0.0002,-0.0000,-0.2777,flat,18.0,0,11.620
4060,129.92,-5.5336,-6.8088,0.1798,0.0004,-0.0000,-0.1693,flat,18.0,0,11.116
4070,130.24,-4.9778,-6.8929,0.1798,0.0004,-0.0000,-0.0807,flat,18.0,0,10.592
4080,130.56,-4.4142,-6.9298,0.1798,0.0003,-0.0000,-0.0082,flat,18.0,0,10.052
4090,130.88,-3.8482,-6.9273,0.1797,0.0002,-0.0000,0.0487,flat,18.0,0,9.503
4100,131.20,-3.2823,-6.8943,0.1797,0.0002,-0.0000,0.0932,flat,18.0,0,8.948
4110,131.52,-2.7177,-6.8370,0.1797,0.0001,-0.0000,0.1288,flat,18.0,0,8.389
4120,131.84,-2.1543,-6.7600,0.1797,0.0001,-0.0000,0.1589,flat,18.0,0,7.826
4130,132.16,-1.5926,-6.6665,0.1797,0.0001,-0.0000,0.1848,flat,18.0,0,7.262
4140,132.48,-1.0327,-6.5587,0.1797,0.0001,-0.0000,0.2073,flat,18.0,0,6.695
4150,132.80,-0.4748,-6.4385,0.1797,0.0001,-0.0000,0.2271,flat,18.0,0,6.127
4160,133.12,0.0811,-6.3074,0.1797,0.0001,-0.0000,0.2449,flat,18.0,0,5.559
4170,133.44,0.6350,-6.1665,0.1797,0.0001,-0.0000,0.2611,flat,18.0,0,4.989
4180,133.76,1.1869,-6.0167,0.1797,0.0001,-0.0000,0.2761,flat,18.0,0,4.419
4190,134.08,1.7367,-5.8587,0.1797,0.0001,-0.0000,0.2902,flat,18.0,0,3.848
4200,134.40,2.2843,-5.6930,0.1797,0.0000,-0.0000,0.3038,flat,18.0,0,3.277
4210,134.72,2.8295,-5.5199,0.1797,0.0000,0.0000,0.3174,flat,18.0,0,2.706
4220,135.04,3.3721,-5.3393,0.1797,0.0001,0.0000,0.3317,flat,18.0,0,2.136
4230,135.36,3.9114,-5.1509,0.1797,0.0001,0.0000,0.3479,flat,18.0,0,1.566
4240,135.68,4.4459,-4.9537,0.1797,0.0001,0.0000,0.3691,flat,18.0,0,0.998
4250,136.00,4.9179,-4.7655,0.1798,-0.0003,0.0000,0.5242,flat,18.0,1,12.880
4260,136.32,5.2775,-4.5063,0.1799,0.0000,-0.0000,0.7943,flat,18.0,1,12.748
4270,136.64,5.5844,-4.1275,0.1799,0.0000,-0.0000,1.0314,flat,18.0,1,12.501
4280,136.96,5.8240,-3.6630,0.1799,0.0000,-0.0000,1.2466,flat,18.0,1,12.162
4290,137.28,5.9746,-3.1418,0.1799,0.0001,-0.0000,1.4326,flat,18.0,1,11.748
4300,137.60,6.0333,-2.5926,0.1799,0.0001,-0.0000,1.5837,flat,18.0,1,11.278
4310,137.92,6.0128,-2.0365,0.1798,0.0004,-0.0000,1.6946,flat,18.0,1,10.774
4320,138.24,5.9336,-1.4828,0.1798,0.0004,-0.0000,1.7765,flat,18.0,1,10.248
4330,138.56,5.8105,-0.9347,0.1797,0.0002,-0.0000,1.8401,flat,18.0,1,9.709
4340,138.88,5.6535,-0.3932,0.1797,0.0002,-0.0000,1.8911,flat,18.0,1,9.162
4350,139.20,5.4694,0.1409,0.1797,0.0001,-0.0000,1.9315,flat,18.0,1,8.609
4360,139.52,5.2643,0.6684,0.1797,0.0001,-0.0000,1.9650,flat,18.0,1,8.052
4370,139.84,5.0416,1.1899,0.1797,0.0001,-0.0000,1.9941,flat,18.0,1,7.492
4380,140.16,4.8039,1.7059,0.1797,0.0001,-0.0000,2.0196,flat,18.0,1,6.929
4390,140.48,4.5531,2.2164,0.1797,0.0001,-0.0000,2.0424,flat,18.0,1,6.365
4400,140.80,4.2907,2.7218,0.1797,0.0001,-0.0000,2.0631,flat,18.0,1,5.799
4410,141.12,4.0179,3.2222,0.1797,0.0001,-0.0000,2.0820,flat,18.0,1,5.232
4420,141.44,3.7356,3.7178,0.1797,0.0001,-0.0000,2.0997,flat,18.0,1,4.665
4430,141.76,3.4446,4.2085,0.1797,0.0001,-0.0000,2.1165,flat,18.0,1,4.097
4440,142.08,3.1453,4.6945,0.1797,0.0001,-0.0000,2.1328,flat,18.0,1,3.528
4450,142.40,2.8382,5.1755,0.1797,0.0001,0.0000,2.1491,flat,18.0,1,2.960
4460,142.72,2.5232,5.6511,0.1797,0.0001,0.0000,2.1660,flat,18.0,1,2.391
4470,143.04,2.2002,6.1206,0.1797,0.0001,0.0000,2.1848,flat,18.0,1,1.824
4480,143.36,1.8685,6.5822,0.1797,0.0001,0.0000,2.2076,flat,18.0,1,1.258
4490,143.68,1.5301,7.0292,0.1797,0.0001,0.0002,2.2577,flat,18.0,2,15.214
4500,144.00,1.2394,7.3085,0.1799,-0.0002,-0.0000,2.6062,flat,18.0,2,15.259
4510,144.32,0.8426,7.5018,0.1799,-0.0000,-0.0000,2.9455,flat,18.0,2,15.182
4520,144.64,0.3631,7.5701,0.1799,0.0000,-0.0000,-3.0398,flat,18.0,2,14.968
4530,144.96,-0.1439,7.4942,0.1799,0.0000,-0.0000,-2.8187,flat,18.0,2,14.630
4540,145.28,-0.6406,7.3028,0.1799,0.0001,-0.0000,-2.6597,flat,18.0,2,14.208
4550,145.60,-1.0647,7.0634,0.1798,0.0002,0.0002,-2.5683,rough,14.0,2,13.788
4560,145.92,-1.4541,6.7960,0.1798,0.0003,-0.0003,-2.4926,flat,18.0,2,13.364
4570,146.24,-1.8866,6.4481,0.1797,0.0003,-0.0000,-2.4233,flat,18.0,2,12.853
4580,146.56,-2.2960,6.0701,0.1797,0.0002,-0.0000,-2.3619,flat,18.0,2,12.329
4590,146.88,-2.6842,5.6667,0.1797,0.0002,-0.0000,-2.3090,flat,18.0,2,11.794
4600,147.20,-3.0528,5.2432,0.1797,0.0002,-0.0000,-2.2633,flat,18.0,2,11.252
4610,147.52,-3.4046,4.8033,0.1797,0.0001,-0.0000,-2.2235,flat,18.0,2,10.705
4620,147.84,-3.7409,4.3491,0.1797,0.0001,-0.0000,-2.1879,flat,18.0,2,10.152
4630,148.16,-4.0627,3.8826,0.1797,0.0001,-0.0000,-2.1559,flat,18.0,2,9.595
4640,148.48,-4.3710,3.4055,0.1797,0.0001,-0.0000,-2.1272,flat,18.0,2,9.035
4650,148.80,-4.6667,2.9193,0.1797,0.0001,-0.0000,-2.1013,flat,18.0,2,8.473
4660,149.12,-4.9507,2.4253,0.1797,0.0001,-0.0000,-2.0778,flat,18.0,2,7.908
4670,149.44,-5.2239,1.9244,0.1797,0.0001,-0.0000,-2.0564,flat,18.0,2,7.342
4680,149.76,-5.4871,1.4175,0.1797,0.0001,-0.0000,-2.0369,flat,18.0,2,6.774
4690,150.08,-5.7408,0.9053,0.1797,0.0001,-0.0000,-2.0189,flat,18.0,2,6.205
4700,150.40,-5.9857,0.3885,0.1797,0.0001,-0.0000,-2.0022,flat,18.0,2,5.636
4710,150.72,-6.2224,-0.1326,0.1797,0.0001,-0.0000,-1.9866,flat,18.0,2,5.066
4720,151.04,-6.4512,-0.6574,0.1797,0.0001,-0.0000,-1.9717,flat,18.0,2,4.495
4730,151.36,-6.6723,-1.1856,0.1797,0.0001,-0.0000,-1.9574,flat,18.0,2,3.924
4740,151.68,-6.8860,-1.7170,0.1797,0.0000,-0.0000,-1.9433,flat,18.0,2,3.353
4750,152.00,-7.0922,-2.2513,0.1797,0.0001,-0.0000,-1.9290,flat,18.0,2,2.781
4760,152.32,-7.2907,-2.7884,0.1797,0.0001,0.0000,-1.9138,flat,18.0,2,2.210
4770,152.64,-7.4807,-3.3281,0.1797,0.0001,0.0000,-1.8966,flat,18.0,2,1.639
4780,152.96,-7.6605,-3.8702,0.1797,0.0001,0.0000,-1.8743,flat,18.0,2,1.070
4790,153.28,-7.8200,-4.3950,0.1798,0.0002,0.0000,-1.9505,flat,18.0,0,13.165
4800,153.60,-7.9413,-4.8061,0.1798,-0.0003,0.0000,-1.5553,flat,18.0,0,13.289
4810,153.92,-7.9105,-5.2066,0.1799,-0.0000,-0.0000,-1.1728,flat,18.0,0,13.273
4820,154.24,-7.6988,-5.6088,0.1799,-0.0000,-0.0001,-0.9020,flat,18.0,0,13.089
4830,154.56,-7.3547,-5.9715,0.1799,0.0000,-0.0000,-0.6989,flat,18.0,0,12.782
4840,154.88,-6.9258,-6.2849,0.1799,0.0000,-0.0000,-0.5202,flat,18.0,0,12.397
4850,155.20,-6.4387,-6.5346,0.1799,0.0001,-0.0000,-0.3679,flat,18.0,0,11.954
4860,155.52,-5.9145,-6.7176,0.1799,0.0003,-0.0000,-0.2428,flat,18.0,0,11.472
4870,155.84,-5.3680,-6.8395,0.1798,0.0004,-0.0000,-0.1408,flat,18.0,0,10.961
4880,156.16,-4.8092,-6.9086,0.1798,0.0004,-0.0000,-0.0574,flat,18.0,0,10.431
4890,156.48,-4.2444,-6.9329,0.1797,0.0003,-0.0000,0.0108,flat,18.0,0,9.888
4900,156.80,-3.6784,-6.9203,0.1797,0.0002,-0.0000,0.0630,flat,18.0,0,9.337
4910,157.12,-3.1128,-6.8794,0.1797,0.0002,-0.0000,0.1046,flat,18.0,0,8.780
4920,157.44,-2.5485,-6.8159,0.1797,0.0001,-0.0000,0.1384,flat,18.0,0,8.220
4930,157.76,-1.9856,-6.7336,0.1797,0.0001,-0.0000,0.1671,flat,18.0,0,7.657
4940,158.08,-1.4244,-6.6356,0.1797,0.0001,-0.0000,0.1918,flat,18.0,0,7.092
4950,158.40,-0.8652,-6.5239,0.1797,0.0001,-0.0000,0.2135,flat,18.0,0,6.525
4960,158.72,-0.3078,-6.4003,0.1797,0.0001,-0.0000,0.2327,flat,18.0,0,5.957
4970,159.04,0.2475,-6.2661,0.1797,0.0001,-0.0000,0.2499,flat,18.0,0,5.388
4980,159.36,0.8008,-6.1225,0.1797,0.0001,-0.0000,0.2657,flat,18.0,0,4.818
4990,159.68,1.3521,-5.9702,0.1797,0.0001,-0.0000,0.2804,flat,18.0,0,4.248
5000,160.00,1.9012,-5.8098,0.1797,0.0000,-0.0000,0.2943,flat,18.0,0,3.677
5010,160.32,2.4481,-5.6419,0.1797,0.0000,-0.0000,0.3079,flat,18.0,0,3.106
5020,160.64,2.9926,-5.4665,0.1797,0.0000,0.0000,0.3216,flat,18.0,0,2.535
5030,160.96,3.5343,-5.2836,0.1797,0.0001,0.0000,0.3363,flat,18.0,0,1.965
5040,161.28,4.0724,-5.0927,0.1797,0.0001,0.0000,0.3535,flat,18.0,0,1.395
5050,161.60,4.6048,-4.8926,0.1797,0.0001,0.0000,0.3777,flat,18.0,0,0.828
5060,161.92,5.0341,-4.7004,0.1799,-0.0002,0.0000,0.6045,flat,18.0,1,12.853
5070,162.24,5.3745,-4.4032,0.1799,0.0000,-0.0000,0.8669,flat,18.0,1,12.684
5080,162.56,5.6647,-3.9959,0.1799,0.0000,-0.0000,1.0986,flat,18.0,1,12.408
5090,162.88,5.8789,-3.5112,0.1799,0.0001,-0.0000,1.3052,flat,18.0,1,12.045
5100,163.20,6.0015,-2.9788,0.1799,0.0001,-0.0000,1.4815,flat,18.0,1,11.612
5110,163.52,6.0344,-2.4259,0.1799,0.0002,-0.0000,1.6210,flat,18.0,1,11.130
5120,163.84,5.9943,-1.8699,0.1798,0.0004,-0.0000,1.7215,flat,18.0,1,10.618
5130,164.16,5.9007,-1.3177,0.1798,0.0003,-0.0000,1.7972,flat,18.0,1,10.087
5140,164.48,5.7666,-0.7715,0.1797,0.0002,-0.0000,1.8565,flat,18.0,1,9.546
5150,164.80,5.6009,-0.2321,0.1797,0.0002,-0.0000,1.9045,flat,18.0,1,8.996
5160,165.12,5.4099,0.2998,0.1797,0.0001,-0.0000,1.9421,flat,18.0,1,8.442
5170,165.44,5.1991,0.8254,0.1797,0.0001,-0.0000,1.9741,flat,18.0,1,7.884
5180,165.76,4.9717,1.3453,0.1797,0.0001,-0.0000,2.0020,flat,18.0,1,7.323
5190,166.08,4.7299,1.8596,0.1797,0.0001,-0.0000,2.0267,flat,18.0,1,6.760
5200,166.40,4.4755,2.3686,0.1797,0.0001,-0.0000,2.0488,flat,18.0,1,6.195
5210,166.72,4.2098,2.8724,0.1797,0.0001,-0.0000,2.0689,flat,18.0,1,5.629
5220,167.04,3.9341,3.3714,0.1797,0.0001,-0.0000,2.0875,flat,18.0,1,5.062
5230,167.36,3.6491,3.8655,0.1797,0.0001,-0.0000,2.1048,flat,18.0,1,4.494
5240,167.68,3.3556,4.3549,0.1797,0.0001,-0.0000,2.1214,flat,18.0,1,3.926
5250,168.00,3.0540,4.8393,0.1797,0.0001,-0.0000,2.1377,flat,18.0,1,3.358
5260,168.32,2.7445,5.3188,0.1797,0.0001,0.0000,2.1541,flat,18.0,1,2.789
5270,168.64,2.4271,5.7926,0.1797,0.0001,0.0000,2.1714,flat,18.0,1,2.221
5280,168.96,2.1016,6.2600,0.1797,0.0001,0.0000,2.1910,flat,18.0,1,1.654
5290,169.28,1.7671,6.7187,0.1797,0.0001,0.0000,2.2161,flat,18.0,1,1.089
5300,169.60,1.4487,7.1314,0.1798,-0.0000,0.0004,2.3559,flat,18.0,2,15.244
5310,169.92,1.1321,7.3760,0.1799,-0.0001,-0.0001,2.7108,flat,18.0,2,15.249
5320,170.24,0.7049,7.5377,0.1799,0.0000,-0.0000,3.0406,flat,18.0,2,15.133
5330,170.56,0.2117,7.5615,0.1799,0.0001,-0.0000,-2.9668,flat,18.0,2,14.878
5340,170.88,-0.2951,7.4470,0.1799,0.0001,-0.0000,-2.7666,flat,18.0,2,14.510
5350,171.20,-0.7846,7.2286,0.1799,0.0002,-0.0000,-2.6215,flat,18.0,2,14.071
5360,171.52,-1.1717,6.9941,0.1798,0.0001,0.0001,-2.5470,rough,14.0,2,13.675
5370,171.84,-1.5863,6.6951,0.1798,0.0003,-0.0002,-2.4711,flat,18.0,2,13.212
5380,172.16,-2.0119,6.3376,0.1797,0.0002,-0.0000,-2.4046,flat,18.0,2,12.697
5390,172.48,-2.4146,5.9515,0.1797,0.0002,-0.0000,-2.3453,flat,18.0,2,12.169
5400,172.80,-2.7967,5.5415,0.1797,0.0002,-0.0000,-2.2944,flat,18.0,2,11.632
5410,173.12,-3.1600,5.1129,0.1797,0.0002,-0.0000,-2.2509,flat,18.0,2,11.089
5420,173.44,-3.5071,4.6685,0.1797,0.0001,-0.0000,-2.2124,flat,18.0,2,10.539
5430,173.76,-3.8390,4.2104,0.1797,0.0001,-0.0000,-2.1779,flat,18.0,2,9.985
5440,174.08,-4.1566,3.7405,0.1797,0.0001,-0.0000,-2.1470,flat,18.0,2,9.427
5450,174.40,-4.4610,3.2606,0.1797,0.0001,-0.0000,-2.1191,flat,18.0,2,8.867
5460,174.72,-4.7531,2.7719,0.1797,0.0001,-0.0000,-2.0940,flat,18.0,2,8.303
5470,175.04,-5.0338,2.2757,0.1797,0.0001,-0.0000,-2.0712,flat,18.0,2,7.738
5480,175.36,-5.3039,1.7730,0.1797,0.0001,-0.0000,-2.0504,flat,18.0,2,7.171
5490,175.68,-5.5642,1.2644,0.1797,0.0001,-0.0000,-2.0313,flat,18.0,2,6.604
5500,176.00,-5.8152,0.7508,0.1797,0.0001,-0.0000,-2.0138,flat,18.0,2,6.035
5510,176.32,-6.0576,0.2326,0.1797,0.0001,-0.0000,-1.9974,flat,18.0,2,5.465
5520,176.64,-6.2918,-0.2896,0.1797,0.0001,-0.0000,-1.9820,flat,18.0,2,4.894
5530,176.96,-6.5183,-0.8155,0.1797,0.0001,-0.0000,-1.9674,flat,18.0,2,4.324
5540,177.28,-6.7372,-1.3447,0.1797,0.0001,-0.0000,-1.9531,flat,18.0,2,3.753
5550,177.60,-6.9487,-1.8770,0.1797,0.0000,-0.0000,-1.9390,flat,18.0,2,3.181
5560,177.92,-7.1526,-2.4122,0.1797,0.0001,0.0000,-1.9246,flat,18.0,2,2.610
5570,178.24,-7.3486,-2.9501,0.1797,0.0001,0.0000,-1.9090,flat,18.0,2,2.039
5580,178.56,-7.5358,-3.4905,0.1797,0.0001,0.0000,-1.8907,flat,18.0,2,1.468
5590,178.88,-7.7120,-4.0331,0.1797,0.0001,0.0000,-1.8654,flat,18.0,2,0.900
5600,179.20,-7.8617,-4.5287,0.1799,-0.0006,0.0003,-1.8623,flat,18.0,0,13.206
5610,179.52,-7.9524,-4.9218,0.1799,-0.0001,-0.0000,-1.4261,flat,18.0,0,13.303
5620,179.84,-7.8638,-5.3296,0.1799,0.0001,-0.0000,-1.0845,flat,18.0,0,13.233
5630,180.16,-7.6071,-5.7224,0.1799,0.0001,-0.0000,-0.8369,flat,18.0,0,13.007
5640,180.48,-7.2336,-6.0712,0.1799,0.0001,-0.0000,-0.6436,flat,18.0,0,12.674
5650,180.80,-6.7847,-6.3668,0.1799,0.0001,-0.0000,-0.4717,flat,18.0,0,12.269
5660,181.12,-6.2845,-6.5963,0.1799,0.0001,-0.0000,-0.3276,flat,18.0,0,11.813
5670,181.44,-5.7523,-6.7602,0.1799,0.0003,-0.0000,-0.2100,flat,18.0,0,11.321
5680,181.76,-5.2013,-6.8654,0.1798,0.0004,-0.0000,-0.1140,flat,18.0,0,10.804
5690,182.08,-4.6402,-6.9202,0.1798,0.0004,-0.0000,-0.0355,flat,18.0,0,10.269
5700,182.40,-4.0744,-6.9326,0.1797,0.0002,-0.0000,0.0284,flat,18.0,0,9.723
5710,182.72,-3.5086,-6.9107,0.1797,0.0002,-0.0000,0.0765,flat,18.0,0,9.170
5720,183.04,-2.9434,-6.8625,0.1797,0.0001,-0.0000,0.1153,flat,18.0,0,8.613
5730,183.36,-2.3795,-6.7930,0.1797,0.0001,-0.0000,0.1474,flat,18.0,0,8.052
5740,183.68,-1.8171,-6.7058,0.1797,0.0001,-0.0000,0.1749,flat,18.0,0,7.488
5750,184.00,-1.2564,-6.6034,0.1797,0.0001,-0.0000,0.1986,flat,18.0,0,6.922
5760,184.32,-0.6977,-6.4880,0.1797,0.0001,-0.0000,0.2195,flat,18.0,0,6.355
5770,184.64,-0.1410,-6.3611,0.1797,0.0001,-0.0000,0.2380,flat,18.0,0,5.786
5780,184.96,0.4137,-6.2240,0.1797,0.0001,-0.0000,0.2548,flat,18.0,0,5.217
5790,185.28,0.9664,-6.0776,0.1797,0.0001,-0.0000,0.2702,flat,18.0,0,4.647
5800,185.60,1.5170,-5.9229,0.1797,0.0001,-0.0000,0.2846,flat,18.0,0,4.077
5810,185.92,2.0655,-5.7602,0.1797,0.0000,-0.0000,0.2984,flat,18.0,0,3.506
5820,186.24,2.6117,-5.5900,0.1797,0.0000,-0.0000,0.3119,flat,18.0,0,2.935
5830,186.56,3.1554,-5.4124,0.1797,0.0000,0.0000,0.3259,flat,18.0,0,2.364
5840,186.88,3.6962,-5.2272,0.1797,0.0001,0.0000,0.3411,flat,18.0,0,1.794
5850,187.20,4.2329,-5.0337,0.1797,0.0001,0.0000,0.3597,flat,18.0,0,1.225
5860,187.52,4.7529,-4.8386,0.1797,0.0000,0.0003,0.4252,flat,18.0,1,12.901
5870,187.84,5.1419,-4.6258,0.1799,-0.0000,-0.0000,0.6900,flat,18.0,1,12.817
5880,188.16,5.4678,-4.2907,0.1799,0.0000,-0.0000,0.9386,flat,18.0,1,12.611
5890,188.48,5.7381,-3.8572,0.1799,0.0000,-0.0000,1.1637,flat,18.0,1,12.308
5900,188.80,5.9257,-3.3551,0.1799,0.0000,-0.0000,1.3626,flat,18.0,1,11.922
5910,189.12,6.0203,-2.8141,0.1799,0.0001,-0.0000,1.5275,flat,18.0,1,11.472
5920,189.44,6.0290,-2.2589,0.1799,0.0003,-0.0000,1.6546,flat,18.0,1,10.979
5930,189.76,5.9712,-1.7037,0.1798,0.0004,-0.0000,1.7464,flat,18.0,1,10.460
5940,190.08,5.8642,-1.1532,0.1798,0.0003,-0.0000,1.8164,flat,18.0,1,9.926
5950,190.40,5.7199,-0.6090,0.1797,0.0002,-0.0000,1.8719,flat,18.0,1,9.382
5960,190.72,5.5459,-0.0717,0.1797,0.0002,-0.0000,1.9166,flat,18.0,1,8.830
5970,191.04,5.3485,0.4581,0.1797,0.0001,-0.0000,1.9522,flat,18.0,1,8.275
5980,191.36,5.1325,0.9820,0.1797,0.0001,-0.0000,1.9829,flat,18.0,1,7.716
5990,191.68,4.9006,1.5002,0.1797,0.0001,-0.0000,2.0098,flat,18.0,1,7.154
6000,192.00,4.6548,2.0128,0.1797,0.0001,-0.0000,2.0336,flat,18.0,1,6.591
6010,192.32,4.3969,2.5203,0.1797,0.0001,-0.0000,2.0551,flat,18.0,1,6.026
6020,192.64,4.1281,3.0226,0.1797,0.0001,-0.0000,2.0746,flat,18.0,1,5.459
6030,192.96,3.8495,3.5201,0.1797,0.0001,-0.0000,2.0928,flat,18.0,1,4.892
6040,193.28,3.5619,4.0128,0.1797,0.0001,-0.0000,2.1099,flat,18.0,1,4.324
6050,193.60,3.2659,4.5007,0.1797,0.0001,-0.0000,2.1263,flat,18.0,1,3.756
6060,193.92,2.9619,4.9837,0.1797,0.0001,-0.0000,2.1425,flat,18.0,1,3.187
6070,194.24,2.6501,5.4616,0.1797,0.0001,0.0000,2.1591,flat,18.0,1,2.618
6080,194.56,2.3303,5.9336,0.1797,0.0001,0.0000,2.1769,flat,18.0,1,2.050
6090,194.88,2.0023,6.3987,0.1797,0.0001,0.0000,2.1977,flat,18.0,1,1.484
6100,195.20,1.6648,6.8540,0.1797,0.0001,0.0000,2.2259,flat,18.0,1,0.921
6110,195.52,1.3648,7.2113,0.1798,-0.0003,0.0001,2.4643,flat,18.0,2,15.257
6120,195.84,1.0142,7.4363,0.1799,-0.0000,-0.0001,2.8133,flat,18.0,2,15.228
6130,196.16,0.5612,7.5609,0.1799,0.0000,-0.0000,3.1323,flat,18.0,2,15.071
6140,196.48,0.0591,7.5405,0.1799,-0.0000,-0.0000,-2.8987,flat,18.0,2,14.778
6150,196.80,-0.4447,7.3908,0.1799,0.0001,-0.0000,-2.7172,flat,18.0,2,14.384
6160,197.12,-0.9185,7.1526,0.1799,0.0002,0.0004,-2.5946,rough,14.0,2,13.938
6170,197.44,-1.2777,6.9224,0.1798,0.0002,0.0000,-2.5260,flat,18.0,2,13.561
6180,197.76,-1.7165,6.5912,0.1798,0.0003,-0.0001,-2.4503,flat,18.0,2,13.059
6190,198.08,-2.1350,6.2247,0.1797,0.0002,-0.0000,-2.3856,flat,18.0,2,12.540
6200,198.40,-2.5314,5.8308,0.1797,0.0002,-0.0000,-2.3294,flat,18.0,2,12.009
6210,198.72,-2.9075,5.4147,0.1797,0.0002,-0.0000,-2.2806,flat,18.0,2,11.470
6220,199.04,-3.2658,4.9812,0.1797,0.0001,-0.0000,-2.2389,flat,18.0,2,10.924
6230,199.36,-3.6082,4.5324,0.1797,0.0001,-0.0000,-2.2017,flat,18.0,2,10.374
6240,199.68,-3.9357,4.0706,0.1797,0.0001,-0.0000,-2.1683,flat,18.0,2,9.818
6250,200.00,-4.2493,3.5975,0.1797,0.0001,-0.0000,-2.1383,flat,18.0,2,9.259
6260,200.32,-4.5499,3.1148,0.1797,0.0001,-0.0000,-2.1113,flat,18.0,2,8.698
6270,200.64,-4.8385,2.6238,0.1797,0.0001,-0.0000,-2.0869,flat,18.0,2,8.134
6280,200.96,-5.1159,2.1256,0.1797,0.0001,-0.0000,-2.0647,flat,18.0,2,7.568
6290,201.28,-5.3830,1.6210,0.1797,0.0001,-0.0000,-2.0445,flat,18.0,2,7.001
6300,201.60,-5.6404,1.1108,0.1797,0.0001,-0.0000,-2.0259,flat,18.0,2,6.433
6310,201.92,-5.8888,0.5958,0.1797,0.0001,-0.0000,-2.0087,flat,18.0,2,5.864
6320,202.24,-6.1287,0.0763,0.1797,0.0001,-0.0000,-1.9927,flat,18.0,2,5.294
6330,202.56,-6.3606,-0.4470,0.1797,0.0001,-0.0000,-1.9776,flat,18.0,2,4.723
6340,202.88,-6.5847,-0.9739,0.1797,0.0001,-0.0000,-1.9631,flat,18.0,2,4.152
6350,203.20,-6.8014,-1.5041,0.1797,0.0000,-0.0000,-1.9489,flat,18.0,2,3.581
6360,203.52,-7.0106,-2.0373,0.1797,0.0000,-0.0000,-1.9348,flat,18.0,2,3.010
6370,203.84,-7.2123,-2.5733,0.1797,0.0001,0.0000,-1.9201,flat,18.0,2,2.438
6380,204.16,-7.4058,-3.1119,0.1797,0.0001,0.0000,-1.9039,flat,18.0,2,1.867
6390,204.48,-7.5900,-3.6531,0.1797,0.0001,0.0000,-1.8842,flat,18.0,2,1.297
6400,204.80,-7.7587,-4.1932,0.1797,0.0001,0.0002,-1.8744,flat,18.0,3,0.960
6410,205.12,-7.9003,-4.6524,0.1798,-0.0003,0.0001,-1.7439,flat,18.0,0,13.246
6420,205.44,-7.9465,-5.0423,0.1799,-0.0000,-0.0000,-1.3091,flat,18.0,0,13.301
6430,205.76,-7.8023,-5.4512,0.1799,-0.0001,-0.0001,-0.9998,flat,18.0,0,13.180
6440,206.08,-7.5047,-5.8319,0.1799,0.0000,-0.0000,-0.7754,flat,18.0,0,12.916
6450,206.40,-7.1058,-6.1664,0.1799,0.0000,-0.0000,-0.5890,flat,18.0,0,12.559
6460,206.72,-6.6391,-6.4427,0.1799,0.0001,-0.0000,-0.4254,flat,18.0,0,12.137
6470,207.04,-6.1275,-6.6520,0.1799,0.0002,-0.0000,-0.2898,flat,18.0,0,11.669
6480,207.36,-5.5885,-6.7975,0.1798,0.0004,-0.0000,-0.1792,flat,18.0,0,11.168
6490,207.68,-5.0338,-6.8867,0.1798,0.0004,-0.0000,-0.0888,flat,18.0,0,10.645
6500,208.00,-4.4708,-6.9280,0.1798,0.0003,-0.0000,-0.0148,flat,18.0,0,10.106
6510,208.32,-3.9047,-6.9291,0.1797,0.0002,-0.0000,0.0438,flat,18.0,0,9.558
6520,208.64,-3.3389,-6.8988,0.1797,0.0002,-0.0000,0.0892,flat,18.0,0,9.003
6530,208.96,-2.7741,-6.8437,0.1797,0.0001,-0.0000,0.1255,flat,18.0,0,8.445
6540,209.28,-2.2106,-6.7685,0.1797,0.0001,-0.0000,0.1561,flat,18.0,0,7.883
6550,209.60,-1.6487,-6.6765,0.1797,0.0001,-0.0000,0.1823,flat,18.0,0,7.318
6560,209.92,-1.0886,-6.5701,0.1797,0.0001,-0.0000,0.2051,flat,18.0,0,6.752
6570,210.24,-0.5305,-6.4510,0.1797,0.0001,-0.0000,0.2252,flat,18.0,0,6.184
6580,210.56,0.0256,-6.3209,0.1797,0.0001,-0.0000,0.2432,flat,18.0,0,5.616
6590,210.88,0.5797,-6.1810,0.1797,0.0001,-0.0000,0.2595,flat,18.0,0,5.046
6600,211.20,1.1318,-6.0320,0.1797,0.0001,-0.0000,0.2746,flat,18.0,0,4.476
6610,211.52,1.6818,-5.8749,0.1797,0.0001,-0.0000,0.2888,flat,18.0,0,3.905
6620,211.84,2.2296,-5.7099,0.1797,0.0000,-0.0000,0.3024,flat,18.0,0,3.334
6630,212.16,2.7751,-5.5375,0.1797,0.0000,0.0000,0.3161,flat,18.0,0,2.764
6640,212.48,3.3180,-5.3577,0.1797,0.0000,0.0000,0.3303,flat,18.0,0,2.193
6650,212.80,3.8577,-5.1701,0.1797,0.0001,0.0000,0.3462,flat,18.0,0,1.623
6660,213.12,4.3928,-4.9739,0.1797,0.0001,0.0000,0.3666,flat,18.0,0,1.054
6670,213.44,4.8775,-4.7854,0.1798,-0.0002,0.0001,0.4991,flat,18.0,1,12.886
6680,213.76,5.2444,-4.5384,0.1799,0.0000,-0.0000,0.7694,flat,18.0,1,12.768
6690,214.08,5.5562,-4.1696,0.1799,0.0000,-0.0000,1.0084,flat,18.0,1,12.530
6700,214.40,5.8038,-3.7125,0.1799,0.0001,-0.0000,1.2260,flat,18.0,1,12.200
6710,214.72,5.9637,-3.1956,0.1799,0.0001,-0.0000,1.4149,flat,18.0,1,11.792
6720,215.04,6.0313,-2.6481,0.1799,0.0001,-0.0000,1.5703,flat,18.0,1,11.327
6730,215.36,6.0177,-2.0920,0.1799,0.0004,-0.0000,1.6850,flat,18.0,1,10.825
6740,215.68,5.9436,-1.5379,0.1798,0.0004,-0.0000,1.7692,flat,18.0,1,10.301
6750,216.00,5.8245,-0.9892,0.1797,0.0003,-0.0000,1.8343,flat,18.0,1,9.764
6760,216.32,5.6705,-0.4470,0.1797,0.0002,-0.0000,1.8864,flat,18.0,1,9.217
6770,216.64,5.4889,0.0879,0.1797,0.0001,-0.0000,1.9279,flat,18.0,1,8.664
6780,216.96,5.2856,0.6159,0.1797,0.0001,-0.0000,1.9619,flat,18.0,1,8.107
6790,217.28,5.0645,1.1380,0.1797,0.0001,-0.0000,1.9913,flat,18.0,1,7.548
6800,217.60,4.8282,1.6545,0.1797,0.0001,-0.0000,2.0172,flat,18.0,1,6.985
6810,217.92,4.5787,2.1656,0.1797,0.0001,-0.0000,2.0403,flat,18.0,1,6.421
6820,218.24,4.3173,2.6715,0.1797,0.0001,-0.0000,2.0611,flat,18.0,1,5.856
6830,218.56,4.0455,3.1724,0.1797,0.0001,-0.0000,2.0802,flat,18.0,1,5.289
6840,218.88,3.7641,3.6684,0.1797,0.0001,-0.0000,2.0980,flat,18.0,1,4.722
6850,219.20,3.4740,4.1597,0.1797,0.0001,-0.0000,2.1148,flat,18.0,1,4.153
6860,219.52,3.1755,4.6461,0.1797,0.0001,-0.0000,2.1312,flat,18.0,1,3.585
6870,219.84,2.8692,5.1276,0.1797,0.0001,0.0000,2.1474,flat,18.0,1,3.016
6880,220.16,2.5550,5.6038,0.1797,0.0001,0.0000,2.1643,flat,18.0,1,2.448
6890,220.48,2.2328,6.0740,0.1797,0.0001,0.0000,2.1827,flat,18.0,1,1.880
6900,220.80,1.9021,6.5365,0.1797,0.0001,0.0000,2.2050,flat,18.0,1,1.314
6910,221.12,1.5615,6.9876,0.1797,0.0001,0.0000,2.2376,flat,18.0,2,15.201
6920,221.44,1.2726,7.2849,0.1799,-0.0003,-0.0000,2.5709,flat,18.0,2,15.260
6930,221.76,0.8869,7.4873,0.1799,-0.0000,-0.0000,2.9129,flat,18.0,2,15.196
6940,222.08,0.4131,7.5701,0.1799,0.0001,-0.0000,-3.0664,flat,18.0,2,14.996
6950,222.40,-0.0932,7.5073,0.1799,0.0001,-0.0000,-2.8398,flat,18.0,2,14.668
6960,222.72,-0.5920,7.3261,0.1799,0.0001,-0.0000,-2.6733,flat,18.0,2,14.253
6970,223.04,-1.0287,7.0860,0.1798,0.0002,0.0002,-2.5750,rough,14.0,2,13.826
6980,223.36,-1.4096,6.8288,0.1798,0.0002,-0.0004,-2.5006,flat,18.0,2,13.415
6990,223.68,-1.8444,6.4844,0.1798,0.0003,-0.0000,-2.4297,flat,18.0,2,12.905
7000,224.00,-2.2561,6.1092,0.1797,0.0002,-0.0000,-2.3677,flat,18.0,2,12.382
7010,224.32,-2.6463,5.7081,0.1797,0.0002,-0.0000,-2.3140,flat,18.0,2,11.848
7020,224.64,-3.0168,5.2864,0.1797,0.0002,-0.0000,-2.2676,flat,18.0,2,11.307
7030,224.96,-3.3701,4.8480,0.1797,0.0001,-0.0000,-2.2273,flat,18.0,2,10.760
7040,225.28,-3.7080,4.3951,0.1797,0.0001,-0.0000,-2.1913,flat,18.0,2,10.207
7050,225.60,-4.0312,3.9298,0.1797,0.0001,-0.0000,-2.1590,flat,18.0,2,9.651
7060,225.92,-4.3408,3.4537,0.1797,0.0001,-0.0000,-2.1299,flat,18.0,2,9.091
7070,226.24,-4.6377,2.9684,0.1797,0.0001,-0.0000,-2.1037,flat,18.0,2,8.529
7080,226.56,-4.9229,2.4750,0.1797,0.0001,-0.0000,-2.0800,flat,18.0,2,7.964
7090,226.88,-5.1971,1.9748,0.1797,0.0001,-0.0000,-2.0585,flat,18.0,2,7.398
7100,227.20,-5.4612,1.4685,0.1797,0.0001,-0.0000,-2.0388,flat,18.0,2,6.831
7110,227.52,-5.7158,0.9568,0.1797,0.0001,-0.0000,-2.0206,flat,18.0,2,6.262
7120,227.84,-5.9616,0.4404,0.1797,0.0001,-0.0000,-2.0038,flat,18.0,2,5.693
7130,228.16,-6.1991,-0.0803,0.1797,0.0001,-0.0000,-1.9881,flat,18.0,2,5.123
7140,228.48,-6.4286,-0.6047,0.1797,0.0001,-0.0000,-1.9732,flat,18.0,2,4.552
7150,228.80,-6.6505,-1.1326,0.1797,0.0001,-0.0000,-1.9588,flat,18.0,2,3.981
7160,229.12,-6.8650,-1.6637,0.1797,0.0000,-0.0000,-1.9447,flat,18.0,2,3.410
7170,229.44,-7.0719,-2.1978,0.1797,0.0001,-0.0000,-1.9304,flat,18.0,2,2.838
7180,229.76,-7.2712,-2.7346,0.1797,0.0001,0.0000,-1.9154,flat,18.0,2,2.267
7190,230.08,-7.4621,-3.2740,0.1797,0.0001,0.0000,-1.8985,flat,18.0,2,1.696
7200,230.40,-7.6431,-3.8159,0.1797,0.0001,0.0000,-1.8769,flat,18.0,2,1.127
7210,230.72,-7.8035,-4.3451,0.1798,0.0001,0.0001,-1.9304,flat,18.0,3,0.822
7220,231.04,-7.9334,-4.7681,0.1798,-0.0004,0.0001,-1.6027,flat,18.0,0,13.280
7230,231.36,-7.9221,-5.1653,0.1799,0.0001,-0.0001,-1.2071,flat,18.0,0,13.283
7240,231.68,-7.7267,-5.5699,0.1799,0.0001,-0.0000,-0.9272,flat,18.0,0,13.114
7250,232.00,-7.3935,-5.9371,0.1799,0.0001,-0.0000,-0.7184,flat,18.0,0,12.817
7260,232.32,-6.9718,-6.2561,0.1799,0.0001,-0.0000,-0.5373,flat,18.0,0,12.438
7270,232.64,-6.4894,-6.5126,0.1799,0.0001,-0.0000,-0.3819,flat,18.0,0,12.001
7280,232.96,-5.9681,-6.7021,0.1799,0.0003,-0.0000,-0.2542,flat,18.0,0,11.521
7290,233.28,-5.4233,-6.8298,0.1798,0.0004,-0.0000,-0.1501,flat,18.0,0,11.013
7300,233.60,-4.8655,-6.9038,0.1798,0.0004,-0.0000,-0.0650,flat,18.0,0,10.485
7310,233.92,-4.3010,-6.9323,0.1798,0.0003,-0.0000,0.0047,flat,18.0,0,9.943
7320,234.24,-3.7350,-6.9229,0.1797,0.0002,-0.0000,0.0583,flat,18.0,0,9.392
7330,234.56,-3.1693,-6.8846,0.1797,0.0002,-0.0000,0.1008,flat,18.0,0,8.836
7340,234.88,-2.6049,-6.8231,0.1797,0.0001,-0.0000,0.1352,flat,18.0,0,8.276
7350,235.20,-2.0418,-6.7426,0.1797,0.0001,-0.0000,0.1644,flat,18.0,0,7.714
7360,235.52,-1.4805,-6.6460,0.1797,0.0001,-0.0000,0.1895,flat,18.0,0,7.149
7370,235.84,-0.9210,-6.5356,0.1797,0.0001,-0.0000,0.2114,flat,18.0,0,6.582
7380,236.16,-0.3635,-6.4131,0.1797,0.0001,-0.0000,0.2308,flat,18.0,0,6.014
7390,236.48,0.1921,-6.2800,0.1797,0.0001,-0.0000,0.2483,flat,18.0,0,5.445
7400,236.80,0.7456,-6.1372,0.1797,0.0001,-0.0000,0.2642,flat,18.0,0,4.875
7410,237.12,1.2970,-5.9857,0.1797,0.0001,-0.0000,0.2789,flat,18.0,0,4.305
7420,237.44,1.8464,-5.8262,0.1797,0.0000,-0.0000,0.2929,flat,18.0,0,3.734
7430,237.76,2.3935,-5.6590,0.1797,0.0000,-0.0000,0.3065,flat,18.0,0,3.163
7440,238.08,2.9383,-5.4843,0.1797,0.0000,0.0000,0.3202,flat,18.0,0,2.592
7450,238.40,3.4803,-5.3022,0.1797,0.0001,0.0000,0.3348,flat,18.0,0,2.022
7460,238.72,4.0188,-5.1122,0.1797,0.0001,0.0000,0.3516,flat,18.0,0,1.452
7470,239.04,4.5519,-4.9130,0.1797,0.0001,0.0000,0.3746,flat,18.0,0,0.885
7480,239.36,4.9963,-4.7231,0.1799,-0.0003,0.0000,0.5770,flat,18.0,1,12.863
7490,239.68,5.3425,-4.4386,0.1799,-0.0000,-0.0000,0.8429,flat,18.0,1,12.707
7500,240.00,5.6387,-4.0405,0.1799,0.0000,-0.0000,1.0765,flat,18.0,1,12.440
7510,240.32,5.8616,-3.5623,0.1799,0.0000,-0.0000,1.2864,flat,18.0,1,12.085
7520,240.64,5.9935,-3.0334,0.1799,0.0001,-0.0000,1.4656,flat,18.0,1,11.658
7530,240.96,6.0348,-2.4815,0.1799,0.0002,-0.0000,1.6090,flat,18.0,1,11.180
7540,241.28,6.0010,-1.9254,0.1798,0.0004,-0.0000,1.7128,flat,18.0,1,10.670
7550,241.60,5.9121,-1.3727,0.1798,0.0003,-0.0000,1.7904,flat,18.0,1,10.141
7560,241.92,5.7816,-0.8258,0.1797,0.0002,-0.0000,1.8511,flat,18.0,1,9.600
7570,242.24,5.6187,-0.2857,0.1797,0.0002,-0.0000,1.9001,flat,18.0,1,9.051
7580,242.56,5.4299,0.2469,0.1797,0.0001,-0.0000,1.9387,flat,18.0,1,8.497
7590,242.88,5.2210,0.7731,0.1797,0.0001,-0.0000,1.9712,flat,18.0,1,7.940
7600,243.20,4.9951,1.2936,0.1797,0.0001,-0.0000,1.9994,flat,18.0,1,7.379
7610,243.52,4.7547,1.8084,0.1797,0.0001,-0.0000,2.0244,flat,18.0,1,6.816
7620,243.84,4.5014,2.3179,0.1797,0.0001,-0.0000,2.0467,flat,18.0,1,6.252
7630,244.16,4.2368,2.8223,0.1797,0.0001,-0.0000,2.0670,flat,18.0,1,5.686
7640,244.48,3.9621,3.3217,0.1797,0.0001,-0.0000,2.0857,flat,18.0,1,5.119
7650,244.80,3.6780,3.8163,0.1797,0.0001,-0.0000,2.1031,flat,18.0,1,4.551
7660,245.12,3.3853,4.3061,0.1797,0.0001,-0.0000,2.1198,flat,18.0,1,3.983
7670,245.44,3.0845,4.7911,0.1797,0.0001,-0.0000,2.1360,flat,18.0,1,3.414
7680,245.76,2.7757,5.2711,0.1797,0.0001,0.0000,2.1524,flat,18.0,1,2.846
7690,246.08,2.4592,5.7455,0.1797,0.0001,0.0000,2.1696,flat,18.0,1,2.278
7700,246.40,2.1345,6.2136,0.1797,0.0001,0.0000,2.1889,flat,18.0,1,1.710
7710,246.72,1.8010,6.6734,0.1797,0.0001,0.0000,2.2132,flat,18.0,1,1.145
7720,247.04,1.4748,7.1006,0.1798,0.0000,0.0004,2.3200,flat,18.0,2,15.236
7730,247.36,1.1691,7.3542,0.1799,-0.0001,-0.0000,2.6762,flat,18.0,2,15.253
7740,247.68,0.7515,7.5272,0.1799,0.0000,-0.0000,3.0093,flat,18.0,2,15.151
7750,248.00,0.2622,7.5659,0.1799,0.0000,-0.0000,-2.9898,flat,18.0,2,14.909
7760,248.32,-0.2449,7.4640,0.1799,0.0001,-0.0000,-2.7827,flat,18.0,2,14.551
7770,248.64,-0.7369,7.2541,0.1799,0.0001,-0.0000,-2.6338,flat,18.0,2,14.117
7780,248.96,-1.1362,7.0175,0.1798,0.0001,0.0001,-2.5540,rough,14.0,2,13.713
7790,249.28,-1.5424,6.7291,0.1798,0.0003,-0.0002,-2.4780,flat,18.0,2,13.263
7800,249.60,-1.9704,6.3747,0.1797,0.0002,-0.0000,-2.4108,flat,18.0,2,12.749
7810,249.92,-2.3753,5.9913,0.1797,0.0002,-0.0000,-2.3508,flat,18.0,2,12.223
7820,250.24,-2.7594,5.5835,0.1797,0.0002,-0.0000,-2.2992,flat,18.0,2,11.686
7830,250.56,-3.1245,5.1566,0.1797,0.0002,-0.0000,-2.2550,flat,18.0,2,11.143
7840,250.88,-3.4731,4.7136,0.1797,0.0001,-0.0000,-2.2161,flat,18.0,2,10.595
7850,251.20,-3.8064,4.2568,0.1797,0.0001,-0.0000,-2.1812,flat,18.0,2,10.041
7860,251.52,-4.1255,3.7880,0.1797,0.0001,-0.0000,-2.1499,flat,18.0,2,9.483
7870,251.84,-4.4312,3.3090,0.1797,0.0001,-0.0000,-2.1218,flat,18.0,2,8.923
7880,252.16,-4.7245,2.8212,0.1797,0.0001,-0.0000,-2.0964,flat,18.0,2,8.360
7890,252.48,-5.0063,2.3257,0.1797,0.0001,-0.0000,-2.0734,flat,18.0,2,7.795
7900,252.80,-5.2774,1.8235,0.1797,0.0001,-0.0000,-2.0524,flat,18.0,2,7.228
7910,253.12,-5.5386,1.3155,0.1797,0.0001,-0.0000,-2.0332,flat,18.0,2,6.660
7920,253.44,-5.7905,0.8024,0.1797,0.0001,-0.0000,-2.0155,flat,18.0,2,6.092
7930,253.76,-6.0337,0.2846,0.1797,0.0001,-0.0000,-1.9990,flat,18.0,2,5.522
7940,254.08,-6.2688,-0.2372,0.1797,0.0001,-0.0000,-1.9835,flat,18.0,2,4.952
7950,254.40,-6.4960,-0.7627,0.1797,0.0001,-0.0000,-1.9688,flat,18.0,2,4.381
7960,254.72,-6.7157,-1.2916,0.1797,0.0001,-0.0000,-1.9546,flat,18.0,2,3.810
7970,255.04,-6.9279,-1.8236,0.1797,0.0000,-0.0000,-1.9405,flat,18.0,2,3.238
7980,255.36,-7.1326,-2.3585,0.1797,0.0001,0.0000,-1.9261,flat,18.0,2,2.667
7990,255.68,-7.3294,-2.8961,0.1797,0.0001,0.0000,-1.9106,flat,18.0,2,2.096
8000,256.00,-7.5175,-3.4363,0.1797,0.0001,0.0000,-1.8927,flat,18.0,2,1.525
8010,256.32,-7.6950,-3.9787,0.1797,0.0001,0.0000,-1.8685,flat,18.0,2,0.957
8020,256.64,-7.8488,-4.4860,0.1799,-0.0006,0.0003,-1.8951,flat,18.0,0,13.194
8030,256.96,-7.9508,-4.8826,0.1799,-0.0002,-0.0000,-1.4668,flat,18.0,0,13.300
8040,257.28,-7.8813,-5.2888,0.1799,-0.0001,-0.0000,-1.1113,flat,18.0,0,13.248
8050,257.60,-7.6388,-5.6851,0.1799,-0.0000,-0.0000,-0.8573,flat,18.0,0,13.036
8060,257.92,-7.2747,-6.0385,0.1799,0.0000,-0.0000,-0.6616,flat,18.0,0,12.710
