step,time_s,x,y,z,roll,pitch,yaw,terrain,speed,target_idx,dist_to_target
10,0.32,-1.2123,0.8840,0.1847,-0.0000,-0.0345,-0.0000,rough,14.0,0,8.497
20,0.64,-0.7680,0.8705,0.1794,-0.0001,0.0020,-0.1082,flat,18.0,0,8.150
30,0.96,-0.2315,0.7921,0.1799,-0.0002,0.0000,-0.2671,flat,18.0,0,7.702
40,1.28,0.2918,0.6318,0.1799,-0.0004,-0.0000,-0.3835,flat,18.0,0,7.216
50,1.60,0.7978,0.4118,0.1798,-0.0004,-0.0000,-0.4735,flat,18.0,0,6.708
60,1.92,1.2857,0.1467,0.1798,-0.0003,-0.0000,-0.5466,flat,18.0,0,6.185
70,2.24,1.7559,-0.1538,0.1797,-0.0002,-0.0000,-0.6079,flat,18.0,0,5.652
80,2.56,2.2090,-0.4831,0.1797,-0.0002,-0.0000,-0.6609,flat,18.0,0,5.112
90,2.88,2.6455,-0.8366,0.1797,-0.0002,-0.0000,-0.7077,flat,18.0,0,4.567
100,3.20,3.0661,-1.2103,0.1797,-0.0001,-0.0000,-0.7501,flat,18.0,0,4.019
110,3.52,3.4712,-1.6020,0.1797,-0.0001,-0.0000,-0.7909,flat,18.0,0,3.468
120,3.84,3.8599,-2.0100,0.1797,-0.0001,0.0000,-0.8317,flat,18.0,0,2.917
130,4.16,4.2307,-2.4332,0.1797,-0.0001,0.0000,-0.8738,flat,18.0,0,2.366
140,4.48,4.5823,-2.8706,0.1797,-0.0002,0.0000,-0.9201,flat,18.0,0,1.817
150,4.80,4.9118,-3.3240,0.1797,-0.0002,0.0000,-0.9802,flat,18.0,0,1.272
160,5.12,5.2038,-3.7869,0.1814,-0.0004,0.0114,-1.0672,flat,18.0,1,12.047
170,5.44,5.3108,-3.9855,0.1800,0.0006,-0.0011,-0.4502,flat,18.0,1,12.270
180,5.76,5.6302,-4.1150,0.1793,-0.0003,-0.0037,0.0284,flat,18.0,1,12.506
190,6.08,5.9974,-4.0819,0.1799,-0.0001,-0.0001,0.4825,flat,18.0,1,12.616
200,6.40,6.3342,-3.8512,0.1799,-0.0001,-0.0001,0.7950,flat,18.0,1,12.543
210,6.72,6.6292,-3.4817,0.1799,-0.0000,-0.0000,1.0523,flat,18.0,1,12.341
220,7.04,6.8539,-3.0206,0.1799,0.0000,-0.0000,1.2879,flat,18.0,1,12.039
230,7.36,6.9807,-2.5000,0.1799,0.0000,-0.0000,1.4921,flat,18.0,1,11.651
240,7.68,7.0051,-1.9528,0.1799,0.0001,-0.0000,1.6559,flat,18.0,1,11.197
250,8.00,6.9439,-1.4032,0.1799,0.0003,-0.0000,1.7725,flat,18.0,1,10.703
260,8.32,6.8212,-0.8604,0.1798,0.0004,-0.0000,1.8587,flat,18.0,1,10.185
270,8.64,6.6530,-0.3267,0.1797,0.0003,-0.0000,1.9258,flat,18.0,1,9.652
280,8.96,6.4497,0.1972,0.1797,0.0002,-0.0000,1.9797,flat,18.0,1,9.109
290,9.28,6.2185,0.7113,0.1797,0.0002,-0.0000,2.0235,flat,18.0,1,8.559
300,9.60,5.9652,1.2161,0.1797,0.0001,-0.0000,2.0591,flat,18.0,1,8.005
310,9.92,5.6940,1.7130,0.1797,0.0001,-0.0000,2.0901,flat,18.0,1,7.447
320,10.24,5.4075,2.2024,0.1797,0.0001,-0.0000,2.1175,flat,18.0,1,6.887
330,10.56,5.1075,2.6848,0.1797,0.0001,-0.0000,2.1421,flat,18.0,1,6.324
340,10.88,4.7958,3.1604,0.1797,0.0001,-0.0000,2.1645,flat,18.0,1,5.760
350,11.20,4.4733,3.6295,0.1797,0.0001,-0.0000,2.1851,flat,18.0,1,5.195
360,11.52,4.1412,4.0923,0.1797,0.0001,-0.0000,2.2044,flat,18.0,1,4.629
370,11.84,3.8002,4.5488,0.1797,0.0001,-0.0000,2.2229,flat,18.0,1,4.062
380,12.16,3.4507,4.9991,0.1797,0.0001,-0.0000,2.2410,flat,18.0,1,3.495
390,12.48,3.0930,5.4430,0.1797,0.0001,0.0000,2.2592,flat,18.0,1,2.928
400,12.80,2.7274,5.8798,0.1797,0.0001,0.0000,2.2782,flat,18.0,1,2.361
410,13.12,2.3536,6.3087,0.1797,0.0001,0.0000,2.2999,flat,18.0,1,1.796
420,13.44,1.9707,6.7276,0.1797,0.0001,0.0000,2.3274,flat,18.0,1,1.232
430,13.76,1.5870,7.1219,0.1797,0.0001,0.0003,2.4008,flat,18.0,2,15.322
440,14.08,1.2524,7.3634,0.1799,-0.0002,-0.0000,2.7509,flat,18.0,2,15.310
450,14.40,0.8131,7.5122,0.1799,-0.0001,-0.0000,3.0751,flat,18.0,2,15.174
460,14.72,0.3138,7.5207,0.1799,-0.0000,-0.0000,-2.9457,flat,18.0,2,14.900
470,15.04,-0.1940,7.3962,0.1799,0.0001,-0.0000,-2.7550,flat,18.0,2,14.520
480,15.36,-0.6828,7.1723,0.1799,0.0002,-0.0000,-2.6163,flat,18.0,2,14.075
490,15.68,-1.1452,6.8808,0.1798,0.0004,-0.0000,-2.5162,flat,18.0,2,13.590
500,16.00,-1.5858,6.5435,0.1798,0.0003,-0.0000,-2.4461,flat,18.0,2,13.080
510,16.32,-2.0037,6.1753,0.1797,0.0002,-0.0000,-2.3837,flat,18.0,2,12.557
520,16.64,-2.4004,5.7806,0.1797,0.0002,-0.0000,-2.3301,flat,18.0,2,12.024
530,16.96,-2.7777,5.3647,0.1797,0.0002,-0.0000,-2.2834,flat,18.0,2,11.482
540,17.28,-3.1378,4.9320,0.1797,0.0001,-0.0000,-2.2434,flat,18.0,2,10.935
550,17.60,-3.4827,4.4846,0.1797,0.0001,-0.0000,-2.2078,flat,18.0,2,10.383
560,17.92,-3.8134,4.0247,0.1797,0.0001,-0.0000,-2.1757,flat,18.0,2,9.826
570,18.24,-4.1308,3.5539,0.1797,0.0001,-0.0000,-2.1469,flat,18.0,2,9.267
580,18.56,-4.4358,3.0737,0.1797,0.0001,-0.0000,-2.1210,flat,18.0,2,8.705
590,18.88,-4.7293,2.5854,0.1797,0.0001,-0.0000,-2.0974,flat,18.0,2,8.140
600,19.20,-5.0121,2.0901,0.1797,0.0001,-0.0000,-2.0760,flat,18.0,2,7.574
610,19.52,-5.2850,1.5885,0.1797,0.0001,-0.0000,-2.0565,flat,18.0,2,7.007
620,19.84,-5.5486,1.0814,0.1797,0.0001,-0.0000,-2.0385,flat,18.0,2,6.438
630,20.16,-5.8036,0.5695,0.1797,0.0001,-0.0000,-2.0219,flat,18.0,2,5.869
640,20.48,-6.0503,0.0532,0.1797,0.0001,-0.0000,-2.0063,flat,18.0,2,5.299
650,20.80,-6.2894,-0.4670,0.1797,0.0001,-0.0000,-1.9916,flat,18.0,2,4.728
660,21.12,-6.5210,-0.9907,0.1797,0.0001,-0.0000,-1.9775,flat,18.0,2,4.157
670,21.44,-6.7453,-1.5177,0.1797,0.0000,-0.0000,-1.9638,flat,18.0,2,3.586
680,21.76,-6.9625,-2.0478,0.1797,0.0000,-0.0000,-1.9500,flat,18.0,2,3.014
690,22.08,-7.1723,-2.5807,0.1797,0.0001,0.0000,-1.9356,flat,18.0,2,2.443
700,22.40,-7.3742,-3.1164,0.1797,0.0001,0.0000,-1.9198,flat,18.0,2,1.872
710,22.72,-7.5670,-3.6546,0.1797,0.0001,0.0000,-1.9006,flat,18.0,2,1.302
720,23.04,-7.7446,-4.1919,0.1797,0.0001,0.0002,-1.8916,flat,18.0,3,0.970
730,23.36,-7.8933,-4.6474,0.1798,-0.0003,0.0001,-1.7558,flat,18.0,0,13.239
740,23.68,-7.9441,-5.0359,0.1799,-0.0001,-0.0000,-1.3151,flat,18.0,0,13.299
750,24.00,-7.8036,-5.4458,0.1799,-0.0001,-0.0001,-1.0066,flat,18.0,0,13.181
760,24.32,-7.5094,-5.8276,0.1799,0.0000,-0.0000,-0.7805,flat,18.0,0,12.920
770,24.64,-7.1126,-6.1633,0.1799,0.0000,-0.0000,-0.5936,flat,18.0,0,12.565
780,24.96,-6.6474,-6.4413,0.1799,0.0001,-0.0000,-0.4292,flat,18.0,0,12.145
790,25.28,-6.1367,-6.6523,0.1799,0.0002,-0.0000,-0.2927,flat,18.0,0,11.678
800,25.60,-5.5982,-6.7992,0.1798,0.0004,-0.0000,-0.1815,flat,18.0,0,11.178
810,25.92,-5.0438,-6.8896,0.1798,0.0004,-0.0000,-0.0905,flat,18.0,0,10.655
820,26.24,-4.4809,-6.9317,0.1798,0.0003,-0.0000,-0.0161,flat,18.0,0,10.117
830,26.56,-3.9149,-6.9335,0.1797,0.0002,-0.0000,0.0429,flat,18.0,0,9.569
840,26.88,-3.3490,-6.9037,0.1797,0.0002,-0.0000,0.0886,flat,18.0,0,9.015
850,27.20,-2.7842,-6.8489,0.1797,0.0001,-0.0000,0.1251,flat,18.0,0,8.456
860,27.52,-2.2207,-6.7739,0.1797,0.0001,-0.0000,0.1559,flat,18.0,0,7.894
870,27.84,-1.6589,-6.6821,0.1797,0.0001,-0.0000,0.1822,flat,18.0,0,7.330
880,28.16,-1.0988,-6.5757,0.1797,0.0001,-0.0000,0.2051,flat,18.0,0,6.763
890,28.48,-0.5407,-6.4567,0.1797,0.0001,-0.0000,0.2253,flat,18.0,0,6.196
900,28.80,0.0154,-6.3266,0.1797,0.0001,-0.0000,0.2433,flat,18.0,0,5.627
910,29.12,0.5695,-6.1866,0.1797,0.0001,-0.0000,0.2597,flat,18.0,0,5.058
920,29.44,1.1215,-6.0376,0.1797,0.0001,-0.0000,0.2748,flat,18.0,0,4.487
930,29.76,1.6715,-5.8803,0.1797,0.0001,-0.0000,0.2890,flat,18.0,0,3.917
940,30.08,2.2193,-5.7152,0.1797,0.0000,-0.0000,0.3027,flat,18.0,0,3.346
950,30.40,2.7647,-5.5427,0.1797,0.0000,0.0000,0.3163,flat,18.0,0,2.775
960,30.72,3.3075,-5.3627,0.1797,0.0000,0.0000,0.3305,flat,18.0,0,2.204
970,31.04,3.8472,-5.1750,0.1797,0.0001,0.0000,0.3464,flat,18.0,0,1.634
980,31.36,4.3823,-4.9786,0.1797,0.0001,0.0000,0.3667,flat,18.0,0,1.066
990,31.68,4.8671,-4.7901,0.1798,-0.0002,0.0001,0.4989,flat,18.0,1,12.888
1000,32.00,5.2341,-4.5431,0.1799,0.0000,-0.0000,0.7691,flat,18.0,1,12.769
1010,32.32,5.5461,-4.1744,0.1799,0.0000,-0.0000,1.0080,flat,18.0,1,12.531
1020,32.64,5.7940,-3.7174,0.1799,0.0001,-0.0000,1.2254,flat,18.0,1,12.200
1030,32.96,5.9542,-3.2005,0.1799,0.0001,-0.0000,1.4142,flat,18.0,1,11.793
1040,33.28,6.0222,-2.6531,0.1799,0.0001,-0.0000,1.5694,flat,18.0,1,11.328
1050,33.60,6.0091,-2.0970,0.1799,0.0004,-0.0000,1.6842,flat,18.0,1,10.826
1060,33.92,5.9354,-1.5428,0.1798,0.0004,-0.0000,1.7684,flat,18.0,1,10.302
1070,34.24,5.8167,-0.9939,0.1797,0.0003,-0.0000,1.8335,flat,18.0,1,9.764
1080,34.56,5.6632,-0.4516,0.1797,0.0002,-0.0000,1.8856,flat,18.0,1,9.217
1090,34.88,5.4820,0.0834,0.1797,0.0001,-0.0000,1.9271,flat,18.0,1,8.664
1100,35.20,5.2792,0.6117,0.1797,0.0001,-0.0000,1.9610,flat,18.0,1,8.108
1110,35.52,5.0586,1.1340,0.1797,0.0001,-0.0000,1.9905,flat,18.0,1,7.548
1120,35.84,4.8227,1.6507,0.1797,0.0001,-0.0000,2.0163,flat,18.0,1,6.986
1130,36.16,4.5736,2.1620,0.1797,0.0001,-0.0000,2.0394,flat,18.0,1,6.421
1140,36.48,4.3127,2.6681,0.1797,0.0001,-0.0000,2.0602,flat,18.0,1,5.856
1150,36.80,4.0414,3.1693,0.1797,0.0001,-0.0000,2.0793,flat,18.0,1,5.289
1160,37.12,3.7605,3.6656,0.1797,0.0001,-0.0000,2.0971,flat,18.0,1,4.722
1170,37.44,3.4707,4.1571,0.1797,0.0001,-0.0000,2.1139,flat,18.0,1,4.154
1180,37.76,3.1728,4.6438,0.1797,0.0001,-0.0000,2.1302,flat,18.0,1,3.585
1190,38.08,2.8668,5.1256,0.1797,0.0001,0.0000,2.1465,flat,18.0,1,3.017
1200,38.40,2.5531,5.6021,0.1797,0.0001,0.0000,2.1633,flat,18.0,1,2.448
1210,38.72,2.2314,6.0725,0.1797,0.0001,0.0000,2.1818,flat,18.0,1,1.880
1220,39.04,1.9011,6.5354,0.1797,0.0001,0.0000,2.2040,flat,18.0,1,1.314
1230,39.36,1.5609,6.9869,0.1797,0.0001,0.0000,2.2366,flat,18.0,2,15.200
1240,39.68,1.2724,7.2844,0.1799,-0.0003,-0.0000,2.5699,flat,18.0,2,15.259
1250,40.00,0.8870,7.4870,0.1799,-0.0000,-0.0000,2.9120,flat,18.0,2,15.196
1260,40.32,0.4133,7.5702,0.1799,0.0000,-0.0000,-3.0671,flat,18.0,2,14.996
1270,40.64,-0.0929,7.5078,0.1799,0.0001,-0.0000,-2.8402,flat,18.0,2,14.669
1280,40.96,-0.5918,7.3268,0.1799,0.0001,-0.0000,-2.6736,flat,18.0,2,14.254
1290,41.28,-1.0652,7.0629,0.1799,0.0003,-0.0000,-2.5552,flat,18.0,2,13.787
1300,41.60,-1.5141,6.7425,0.1798,0.0003,-0.0000,-2.4732,flat,18.0,2,13.289
1310,41.92,-1.9405,6.3860,0.1797,0.0002,-0.0000,-2.4067,flat,18.0,2,12.773
1320,42.24,-2.3441,6.0008,0.1797,0.0002,-0.0000,-2.3477,flat,18.0,2,12.245
1330,42.56,-2.7272,5.5918,0.1797,0.0002,-0.0000,-2.2970,flat,18.0,2,11.708
1340,42.88,-3.0917,5.1640,0.1797,0.0002,-0.0000,-2.2537,flat,18.0,2,11.164
1350,43.20,-3.4400,4.7205,0.1797,0.0001,-0.0000,-2.2154,flat,18.0,2,10.615
1360,43.52,-3.7733,4.2634,0.1797,0.0001,-0.0000,-2.1811,flat,18.0,2,10.060
1370,43.84,-4.0925,3.7946,0.1797,0.0001,-0.0000,-2.1504,flat,18.0,2,9.503
1380,44.16,-4.3985,3.3156,0.1797,0.0001,-0.0000,-2.1227,flat,18.0,2,8.942
1390,44.48,-4.6924,2.8280,0.1797,0.0001,-0.0000,-2.0977,flat,18.0,2,8.378
1400,44.80,-4.9749,2.3329,0.1797,0.0001,-0.0000,-2.0750,flat,18.0,2,7.813
1410,45.12,-5.2470,1.8311,0.1797,0.0001,-0.0000,-2.0544,flat,18.0,2,7.246
1420,45.44,-5.5093,1.3236,0.1797,0.0001,-0.0000,-2.0355,flat,18.0,2,6.678
1430,45.76,-5.7625,0.8110,0.1797,0.0001,-0.0000,-2.0181,flat,18.0,2,6.109
1440,46.08,-6.0071,0.2939,0.1797,0.0001,-0.0000,-2.0019,flat,18.0,2,5.540
1450,46.40,-6.2437,-0.2273,0.1797,0.0001,-0.0000,-1.9866,flat,18.0,2,4.969
1460,46.72,-6.4726,-0.7521,0.1797,0.0001,-0.0000,-1.9721,flat,18.0,2,4.398
1470,47.04,-6.6941,-1.2803,0.1797,0.0000,-0.0000,-1.9581,flat,18.0,2,3.827
1480,47.36,-6.9082,-1.8116,0.1797,0.0000,-0.0000,-1.9443,flat,18.0,2,3.256
1490,47.68,-7.1150,-2.3457,0.1797,0.0000,0.0000,-1.9301,flat,18.0,2,2.684
1500,48.00,-7.3140,-2.8826,0.1797,0.0001,0.0000,-1.9150,flat,18.0,2,2.113
1510,48.32,-7.5046,-3.4220,0.1797,0.0001,0.0000,-1.8974,flat,18.0,2,1.542
1520,48.64,-7.6847,-3.9637,0.1797,0.0001,0.0000,-1.8739,flat,18.0,2,0.973
1530,48.96,-7.8386,-4.4755,0.1799,-0.0006,0.0003,-1.8786,flat,18.0,0,13.183
1540,49.28,-7.9354,-4.8762,0.1799,-0.0001,-0.0000,-1.4604,flat,18.0,0,13.285
1550,49.60,-7.8619,-5.2836,0.1799,0.0002,-0.0000,-1.1101,flat,18.0,0,13.229
1560,49.92,-7.6176,-5.6797,0.1799,0.0001,-0.0000,-0.8556,flat,18.0,0,13.014
1570,50.24,-7.2522,-6.0326,0.1799,0.0001,-0.0000,-0.6597,flat,18.0,0,12.687
1580,50.56,-6.8088,-6.3336,0.1799,0.0001,-0.0000,-0.4857,flat,18.0,0,12.288
1590,50.88,-6.3122,-6.5691,0.1799,0.0001,-0.0000,-0.3394,flat,18.0,0,11.836
1600,51.20,-5.7822,-6.7386,0.1799,0.0003,-0.0000,-0.2197,flat,18.0,0,11.346
1610,51.52,-5.2325,-6.8488,0.1798,0.0004,-0.0000,-0.1221,flat,18.0,0,10.830
1620,51.84,-4.6721,-6.9079,0.1798,0.0004,-0.0000,-0.0422,flat,18.0,0,10.297
1630,52.16,-4.1065,-6.9240,0.1797,0.0003,-0.0000,0.0230,flat,18.0,0,9.752
1640,52.48,-3.5407,-6.9050,0.1797,0.0002,-0.0000,0.0722,flat,18.0,0,9.200
1650,52.80,-2.9753,-6.8591,0.1797,0.0001,-0.0000,0.1118,flat,18.0,0,8.642
1660,53.12,-2.4112,-6.7915,0.1797,0.0001,-0.0000,0.1444,flat,18.0,0,8.082
1670,53.44,-1.8486,-6.7060,0.1797,0.0001,-0.0000,0.1722,flat,18.0,0,7.518
1680,53.76,-1.2878,-6.6051,0.1797,0.0001,-0.0000,0.1963,flat,18.0,0,6.952
1690,54.08,-0.7289,-6.4909,0.1797,0.0001,-0.0000,0.2174,flat,18.0,0,6.385
1700,54.40,-0.1720,-6.3652,0.1797,0.0001,-0.0000,0.2362,flat,18.0,0,5.817
1710,54.72,0.3830,-6.2291,0.1797,0.0001,-0.0000,0.2531,flat,18.0,0,5.248
1720,55.04,0.9359,-6.0837,0.1797,0.0001,-0.0000,0.2686,flat,18.0,0,4.678
1730,55.36,1.4867,-5.9298,0.1797,0.0001,-0.0000,0.2831,flat,18.0,0,4.107
1740,55.68,2.0354,-5.7679,0.1797,0.0000,-0.0000,0.2970,flat,18.0,0,3.537
1750,56.00,2.5819,-5.5985,0.1797,0.0000,-0.0000,0.3106,flat,18.0,0,2.966
1760,56.32,3.1258,-5.4216,0.1797,0.0000,0.0000,0.3246,flat,18.0,0,2.395
1770,56.64,3.6668,-5.2371,0.1797,0.0001,0.0000,0.3398,flat,18.0,0,1.825
1780,56.96,4.2038,-5.0443,0.1797,0.0001,0.0000,0.3581,flat,18.0,0,1.255
1790,57.28,4.7315,-4.8449,0.1797,0.0000,0.0002,0.4020,flat,18.0,1,12.900
1800,57.60,5.1302,-4.6419,0.1799,-0.0001,0.0000,0.6635,flat,18.0,1,12.828
1810,57.92,5.4600,-4.3186,0.1799,0.0000,-0.0000,0.9167,flat,18.0,1,12.635
1820,58.24,5.7365,-3.8930,0.1799,0.0000,-0.0000,1.1443,flat,18.0,1,12.340
1830,58.56,5.9321,-3.3960,0.1799,0.0001,0.0000,1.3453,flat,18.0,1,11.961
1840,58.88,6.0348,-2.8574,0.1799,0.0001,-0.0000,1.5148,flat,18.0,1,11.517
1850,59.20,6.0502,-2.3027,0.1799,0.0003,-0.0000,1.6460,flat,18.0,1,11.027
1860,59.52,5.9968,-1.7474,0.1798,0.0004,-0.0000,1.7404,flat,18.0,1,10.511
1870,59.84,5.8931,-1.1965,0.1798,0.0003,-0.0000,1.8121,flat,18.0,1,9.978
1880,60.16,5.7509,-0.6519,0.1797,0.0002,-0.0000,1.8688,flat,18.0,1,9.434
1890,60.48,5.5786,-0.1143,0.1797,0.0002,-0.0000,1.9147,flat,18.0,1,8.884
1900,60.80,5.3823,0.4158,0.1797,0.0001,-0.0000,1.9508,flat,18.0,1,8.329
1910,61.12,5.1670,0.9398,0.1797,0.0001,-0.0000,1.9819,flat,18.0,1,7.770
1920,61.44,4.9356,1.4581,0.1797,0.0001,-0.0000,2.0091,flat,18.0,1,7.209
1930,61.76,4.6901,1.9708,0.1797,0.0001,-0.0000,2.0332,flat,18.0,1,6.645
1940,62.08,4.4324,2.4783,0.1797,0.0001,-0.0000,2.0549,flat,18.0,1,6.080
1950,62.40,4.1637,2.9806,0.1797,0.0001,-0.0000,2.0747,flat,18.0,1,5.514
1960,62.72,3.8851,3.4781,0.1797,0.0001,-0.0000,2.0929,flat,18.0,1,4.947
1970,63.04,3.5974,3.9707,0.1797,0.0001,-0.0000,2.1101,flat,18.0,1,4.379
1980,63.36,3.3013,4.4585,0.1797,0.0001,-0.0000,2.1266,flat,18.0,1,3.811
1990,63.68,2.9971,4.9414,0.1797,0.0001,-0.0000,2.1429,flat,18.0,1,3.242
2000,64.00,2.6851,5.4191,0.1797,0.0001,0.0000,2.1594,flat,18.0,1,2.673
2010,64.32,2.3652,5.8911,0.1797,0.0001,0.0000,2.1771,flat,18.0,1,2.105
2020,64.64,2.0370,6.3563,0.1797,0.0001,0.0000,2.1975,flat,18.0,1,1.539
2030,64.96,1.6996,6.8121,0.1797,0.0001,0.0000,2.2246,flat,18.0,1,0.975
2040,65.28,1.3934,7.1879,0.1798,-0.0002,0.0002,2.4304,flat,18.0,2,15.255
2050,65.60,1.0537,7.4190,0.1799,-0.0000,-0.0001,2.7814,flat,18.0,2,15.237
2060,65.92,0.6082,7.5558,0.1799,0.0000,-0.0000,3.1037,flat,18.0,2,15.093
2070,66.24,0.1085,7.5489,0.1799,0.0001,-0.0000,-2.9207,flat,18.0,2,14.811
2080,66.56,-0.3966,7.4102,0.1799,0.0001,-0.0000,-2.7322,flat,18.0,2,14.426
2090,66.88,-0.8807,7.1748,0.1799,0.0002,-0.0000,-2.5974,flat,18.0,2,13.976
2100,67.20,-1.3384,6.8742,0.1798,0.0004,-0.0000,-2.5009,flat,18.0,2,13.489
2110,67.52,-1.7740,6.5301,0.1798,0.0003,-0.0000,-2.4321,flat,18.0,2,12.978
2120,67.84,-2.1863,6.1558,0.1797,0.0002,-0.0000,-2.3696,flat,18.0,2,12.455
2130,68.16,-2.5775,5.7555,0.1797,0.0002,-0.0000,-2.3163,flat,18.0,2,11.921
2140,68.48,-2.9490,5.3345,0.1797,0.0002,-0.0000,-2.2700,flat,18.0,2,11.380
2150,68.80,-3.3035,4.8970,0.1797,0.0001,-0.0000,-2.2300,flat,18.0,2,10.832
2160,69.12,-3.6426,4.4450,0.1797,0.0001,-0.0000,-2.1943,flat,18.0,2,10.280
2170,69.44,-3.9672,3.9806,0.1797,0.0001,-0.0000,-2.1622,flat,18.0,2,9.723
2180,69.76,-4.2784,3.5055,0.1797,0.0001,-0.0000,-2.1333,flat,18.0,2,9.163
2190,70.08,-4.5770,3.0212,0.1797,0.0001,-0.0000,-2.1073,flat,18.0,2,8.601
2200,70.40,-4.8639,2.5289,0.1797,0.0001,-0.0000,-2.0838,flat,18.0,2,8.036
2210,70.72,-5.1400,2.0297,0.1797,0.0001,-0.0000,-2.0624,flat,18.0,2,7.470
2220,71.04,-5.4061,1.5244,0.1797,0.0001,-0.0000,-2.0429,flat,18.0,2,6.903
2230,71.36,-5.6629,1.0137,0.1797,0.0001,-0.0000,-2.0249,flat,18.0,2,6.334
2240,71.68,-5.9109,0.4984,0.1797,0.0001,-0.0000,-2.0082,flat,18.0,2,5.765
2250,72.00,-6.1507,-0.0213,0.1797,0.0001,-0.0000,-1.9926,flat,18.0,2,5.194
2260,72.32,-6.3826,-0.5447,0.1797,0.0001,-0.0000,-1.9779,flat,18.0,2,4.624
2270,72.64,-6.6070,-1.0715,0.1797,0.0001,-0.0000,-1.9637,flat,18.0,2,4.053
2280,72.96,-6.8241,-1.6016,0.1797,0.0000,-0.0000,-1.9498,flat,18.0,2,3.481
2290,73.28,-7.0339,-2.1346,0.1797,0.0000,-0.0000,-1.9359,flat,18.0,2,2.910
2300,73.60,-7.2361,-2.6704,0.1797,0.0001,0.0000,-1.9212,flat,18.0,2,2.338
2310,73.92,-7.4302,-3.2088,0.1797,0.0001,0.0000,-1.9049,flat,18.0,2,1.768
2320,74.24,-7.6149,-3.7497,0.1797,0.0001,0.0000,-1.8845,flat,18.0,2,1.198
2330,74.56,-7.7815,-4.2856,0.1797,0.0001,0.0001,-1.8940,flat,18.0,3,0.878
2340,74.88,-7.9106,-4.7265,0.1798,-0.0004,0.0001,-1.6422,flat,18.0,0,13.257
2350,75.20,-7.9151,-5.1211,0.1799,0.0002,-0.0001,-1.2359,flat,18.0,0,13.273
2360,75.52,-7.7334,-5.5284,0.1799,0.0001,-0.0000,-0.9482,flat,18.0,0,13.117
2370,75.84,-7.4099,-5.8996,0.1799,0.0001,-0.0000,-0.7348,flat,18.0,0,12.829
2380,76.16,-6.9945,-6.2233,0.1799,0.0001,-0.0000,-0.5522,flat,18.0,0,12.456
2390,76.48,-6.5164,-6.4856,0.1799,0.0001,-0.0000,-0.3943,flat,18.0,0,12.023
2400,76.80,-5.9978,-6.6809,0.1799,0.0002,-0.0000,-0.2644,flat,18.0,0,11.546
2410,77.12,-5.4546,-6.8138,0.1798,0.0004,-0.0000,-0.1586,flat,18.0,0,11.040
2420,77.44,-4.8976,-6.8922,0.1798,0.0004,-0.0000,-0.0720,flat,18.0,0,10.513
2430,77.76,-4.3336,-6.9244,0.1798,0.0003,-0.0000,-0.0011,flat,18.0,0,9.972
2440,78.08,-3.7675,-6.9182,0.1797,0.0002,-0.0000,0.0539,flat,18.0,0,9.422
2450,78.40,-3.2017,-6.8823,0.1797,0.0002,-0.0000,0.0973,flat,18.0,0,8.867
2460,78.72,-2.6372,-6.8227,0.1797,0.0001,-0.0000,0.1322,flat,18.0,0,8.307
2470,79.04,-2.0740,-6.7439,0.1797,0.0001,-0.0000,0.1618,flat,18.0,0,7.745
2480,79.36,-1.5125,-6.6488,0.1797,0.0001,-0.0000,0.1872,flat,18.0,0,7.180
2490,79.68,-0.9528,-6.5396,0.1797,0.0001,-0.0000,0.2094,flat,18.0,0,6.613
2500,80.00,-0.3951,-6.4182,0.1797,0.0001,-0.0000,0.2291,flat,18.0,0,6.045
2510,80.32,0.1606,-6.2860,0.1797,0.0001,-0.0000,0.2467,flat,18.0,0,5.477
2520,80.64,0.7143,-6.1441,0.1797,0.0001,-0.0000,0.2627,flat,18.0,0,4.907
2530,80.96,1.2659,-5.9934,0.1797,0.0001,-0.0000,0.2776,flat,18.0,0,4.337
2540,81.28,1.8155,-5.8346,0.1797,0.0001,-0.0000,0.2917,flat,18.0,0,3.766
2550,81.60,2.3628,-5.6680,0.1797,0.0000,-0.0000,0.3054,flat,18.0,0,3.195
2560,81.92,2.9078,-5.4940,0.1797,0.0000,0.0000,0.3191,flat,18.0,0,2.624
2570,82.24,3.4500,-5.3125,0.1797,0.0001,0.0000,0.3336,flat,18.0,0,2.054
2580,82.56,3.9887,-5.1231,0.1797,0.0001,0.0000,0.3504,flat,18.0,0,1.484
2590,82.88,4.5223,-4.9246,0.1797,0.0001,0.0000,0.3729,flat,18.0,0,0.916
2600,83.20,4.9803,-4.7354,0.1799,-0.0003,0.0000,0.5521,flat,18.0,1,12.870
2610,83.52,5.3323,-4.4630,0.1799,0.0000,-0.0000,0.8203,flat,18.0,1,12.726
2620,83.84,5.6334,-4.0738,0.1799,0.0000,-0.0000,1.0561,flat,18.0,1,12.469
2630,84.16,5.8639,-3.6018,0.1799,0.0001,-0.0000,1.2685,flat,18.0,1,12.122
2640,84.48,6.0040,-3.0762,0.1799,0.0001,-0.0000,1.4513,flat,18.0,1,11.701
2650,84.80,6.0527,-2.5255,0.1799,0.0001,-0.0000,1.5989,flat,18.0,1,11.227
2660,85.12,6.0241,-1.9695,0.1798,0.0004,-0.0000,1.7059,flat,18.0,1,10.720
2670,85.44,5.9388,-1.4164,0.1798,0.0004,-0.0000,1.7855,flat,18.0,1,10.192
2680,85.76,5.8109,-0.8692,0.1797,0.0002,-0.0000,1.8476,flat,18.0,1,9.653
2690,86.08,5.6500,-0.3287,0.1797,0.0002,-0.0000,1.8975,flat,18.0,1,9.104
2700,86.40,5.4625,0.2043,0.1797,0.0001,-0.0000,1.9370,flat,18.0,1,8.551
2710,86.72,5.2545,0.7307,0.1797,0.0001,-0.0000,1.9699,flat,18.0,1,7.994
2720,87.04,5.0292,1.2513,0.1797,0.0001,-0.0000,1.9986,flat,18.0,1,7.433
2730,87.36,4.7892,1.7662,0.1797,0.0001,-0.0000,2.0238,flat,18.0,1,6.871
2740,87.68,4.5362,2.2758,0.1797,0.0001,-0.0000,2.0464,flat,18.0,1,6.306
2750,88.00,4.2718,2.7802,0.1797,0.0001,-0.0000,2.0669,flat,18.0,1,5.740
2760,88.32,3.9971,3.2796,0.1797,0.0001,-0.0000,2.0857,flat,18.0,1,5.173
2770,88.64,3.7130,3.7741,0.1797,0.0001,-0.0000,2.1033,flat,18.0,1,4.606
2780,88.96,3.4202,4.2639,0.1797,0.0001,-0.0000,2.1200,flat,18.0,1,4.038
2790,89.28,3.1193,4.7488,0.1797,0.0001,-0.0000,2.1363,flat,18.0,1,3.469
2800,89.60,2.8104,5.2286,0.1797,0.0001,0.0000,2.1526,flat,18.0,1,2.901
2810,89.92,2.4938,5.7031,0.1797,0.0001,0.0000,2.1697,flat,18.0,1,2.332
2820,90.24,2.1690,6.1712,0.1797,0.0001,0.0000,2.1887,flat,18.0,1,1.765
2830,90.56,1.8355,6.6313,0.1797,0.0001,0.0000,2.2124,flat,18.0,1,1.200
2840,90.88,1.5012,7.0693,0.1797,0.0001,0.0003,2.2855,flat,18.0,2,15.228
2850,91.20,1.2041,7.3339,0.1799,-0.0002,-0.0000,2.6432,flat,18.0,2,15.258
2860,91.52,0.7961,7.5168,0.1799,0.0000,-0.0000,2.9793,flat,18.0,2,15.168
2870,91.84,0.3111,7.5695,0.1799,0.0001,-0.0000,-3.0135,flat,18.0,2,14.939
2880,92.16,-0.1961,7.4795,0.1799,0.0001,-0.0000,-2.8013,flat,18.0,2,14.590
2890,92.48,-0.6905,7.2784,0.1799,0.0001,-0.0000,-2.6459,flat,18.0,2,14.162
2900,92.80,-1.1583,7.0012,0.1798,0.0004,-0.0000,-2.5351,flat,18.0,2,13.688
2910,93.12,-1.6027,6.6719,0.1798,0.0003,-0.0000,-2.4587,flat,18.0,2,13.184
2920,93.44,-2.0243,6.3092,0.1797,0.0002,-0.0000,-2.3936,flat,18.0,2,12.666
2930,93.76,-2.4236,5.9186,0.1797,0.0002,-0.0000,-2.3367,flat,18.0,2,12.136
2940,94.08,-2.8027,5.5052,0.1797,0.0002,-0.0000,-2.2875,flat,18.0,2,11.597
2950,94.40,-3.1637,5.0741,0.1797,0.0001,-0.0000,-2.2455,flat,18.0,2,11.052
2960,94.72,-3.5088,4.6277,0.1797,0.0001,-0.0000,-2.2081,flat,18.0,2,10.502
2970,95.04,-3.8391,4.1680,0.1797,0.0001,-0.0000,-2.1746,flat,18.0,2,9.946
2980,95.36,-4.1556,3.6969,0.1797,0.0001,-0.0000,-2.1445,flat,18.0,2,9.388
2990,95.68,-4.4590,3.2161,0.1797,0.0001,-0.0000,-2.1174,flat,18.0,2,8.826
3000,96.00,-4.7505,2.7269,0.1797,0.0001,-0.0000,-2.0929,flat,18.0,2,8.263
3010,96.32,-5.0309,2.2303,0.1797,0.0001,-0.0000,-2.0707,flat,18.0,2,7.697
3020,96.64,-5.3009,1.7274,0.1797,0.0001,-0.0000,-2.0505,flat,18.0,2,7.130
3030,96.96,-5.5613,1.2188,0.1797,0.0001,-0.0000,-2.0319,flat,18.0,2,6.562
3040,97.28,-5.8127,0.7052,0.1797,0.0001,-0.0000,-2.0147,flat,18.0,2,5.993
3050,97.60,-6.0557,0.1872,0.1797,0.0001,-0.0000,-1.9987,flat,18.0,2,5.423
3060,97.92,-6.2908,-0.3347,0.1797,0.0001,-0.0000,-1.9837,flat,18.0,2,4.852
3070,98.24,-6.5182,-0.8602,0.1797,0.0001,-0.0000,-1.9693,flat,18.0,2,4.281
3080,98.56,-6.7382,-1.3891,0.1797,0.0000,-0.0000,-1.9554,flat,18.0,2,3.710
3090,98.88,-6.9509,-1.9209,0.1797,0.0000,-0.0000,-1.9415,flat,18.0,2,3.139
3100,99.20,-7.1561,-2.4556,0.1797,0.0001,0.0000,-1.9272,flat,18.0,2,2.567
3110,99.52,-7.3536,-2.9930,0.1797,0.0001,0.0000,-1.9117,flat,18.0,2,1.996
3120,99.84,-7.5422,-3.5329,0.1797,0.0001,0.0000,-1.8934,flat,18.0,2,1.426
3130,100.16,-7.7199,-4.0749,0.1797,0.0001,0.0000,-1.8676,flat,18.0,2,0.857
3140,100.48,-7.8641,-4.5642,0.1798,-0.0003,0.0002,-1.8107,flat,18.0,0,13.209
3150,100.80,-7.9369,-4.9581,0.1799,-0.0000,-0.0000,-1.3799,flat,18.0,0,13.289
3160,101.12,-7.8259,-5.3680,0.1799,0.0001,-0.0000,-1.0528,flat,18.0,0,13.198
3170,101.44,-7.5531,-5.7567,0.1799,0.0001,-0.0000,-0.8132,flat,18.0,0,12.957
3180,101.76,-7.1695,-6.1002,0.1799,0.0001,-0.0000,-0.6230,flat,18.0,0,12.614
3190,102.08,-6.7136,-6.3887,0.1799,0.0001,-0.0000,-0.4540,flat,18.0,0,12.202
3200,102.40,-6.2089,-6.6106,0.1799,0.0002,-0.0000,-0.3132,flat,18.0,0,11.741
3210,102.72,-5.6740,-6.7675,0.1799,0.0004,-0.0000,-0.1984,flat,18.0,0,11.246
3220,103.04,-5.1216,-6.8667,0.1798,0.0004,-0.0000,-0.1046,flat,18.0,0,10.726
3230,103.36,-4.5597,-6.9165,0.1798,0.0004,-0.0000,-0.0278,flat,18.0,0,10.190
3240,103.68,-3.9937,-6.9246,0.1797,0.0002,-0.0000,0.0340,flat,18.0,0,9.643
3250,104.00,-3.4279,-6.8997,0.1797,0.0002,-0.0000,0.0811,flat,18.0,0,9.090
3260,104.32,-2.8628,-6.8489,0.1797,0.0001,-0.0000,0.1190,flat,18.0,0,8.531
3270,104.64,-2.2990,-6.7774,0.1797,0.0001,-0.0000,0.1506,flat,18.0,0,7.970
3280,104.96,-1.7368,-6.6885,0.1797,0.0001,-0.0000,0.1775,flat,18.0,0,7.406
3290,105.28,-1.1764,-6.5847,0.1797,0.0001,-0.0000,0.2009,flat,18.0,0,6.840
3300,105.60,-0.6179,-6.4680,0.1797,0.0001,-0.0000,0.2215,flat,18.0,0,6.273
3310,105.92,-0.0614,-6.3399,0.1797,0.0001,-0.0000,0.2399,flat,18.0,0,5.704
3320,106.24,0.4931,-6.2018,0.1797,0.0001,-0.0000,0.2565,flat,18.0,0,5.135
3330,106.56,1.0456,-6.0545,0.1797,0.0001,-0.0000,0.2718,flat,18.0,0,4.565
3340,106.88,1.5960,-5.8989,0.1797,0.0001,-0.0000,0.2861,flat,18.0,0,3.994
3350,107.20,2.1442,-5.7354,0.1797,0.0000,-0.0000,0.2999,flat,18.0,0,3.423
3360,107.52,2.6902,-5.5644,0.1797,0.0000,-0.0000,0.3135,flat,18.0,0,2.852
3370,107.84,3.2335,-5.3859,0.1797,0.0000,0.0000,0.3276,flat,18.0,0,2.282
3380,108.16,3.7738,-5.1998,0.1797,0.0001,0.0000,0.3432,flat,18.0,0,1.712
3390,108.48,4.3098,-5.0051,0.1797,0.0001,0.0000,0.3627,flat,18.0,0,1.143
3400,108.80,4.8182,-4.8128,0.1798,0.0001,0.0003,0.4510,flat,18.0,1,12.895
3410,109.12,5.1989,-4.5884,0.1799,-0.0000,-0.0000,0.7191,flat,18.0,1,12.800
3420,109.44,5.5197,-4.2409,0.1799,0.0000,-0.0000,0.9640,flat,18.0,1,12.583
3430,109.76,5.7820,-3.7987,0.1799,0.0001,-0.0000,1.1868,flat,18.0,1,12.271
3440,110.08,5.9593,-3.2909,0.1799,0.0001,0.0000,1.3818,flat,18.0,1,11.877
3450,110.40,6.0437,-2.7473,0.1799,0.0001,-0.0000,1.5444,flat,18.0,1,11.422
3460,110.72,6.0435,-2.1917,0.1799,0.0003,-0.0000,1.6672,flat,18.0,1,10.926
3470,111.04,5.9789,-1.6370,0.1798,0.0004,-0.0000,1.7562,flat,18.0,1,10.405
3480,111.36,5.8666,-1.0873,0.1798,0.0003,-0.0000,1.8244,flat,18.0,1,9.870
3490,111.68,5.7180,-0.5441,0.1797,0.0002,-0.0000,1.8787,flat,18.0,1,9.325
3500,112.00,5.5403,-0.0080,0.1797,0.0002,-0.0000,1.9223,flat,18.0,1,8.773
3510,112.32,5.3400,0.5209,0.1797,0.0001,-0.0000,1.9573,flat,18.0,1,8.217
3520,112.64,5.1213,1.0438,0.1797,0.0001,-0.0000,1.9876,flat,18.0,1,7.658
3530,112.96,4.8869,1.5609,0.1797,0.0001,-0.0000,2.0141,flat,18.0,1,7.096
3540,113.28,4.6389,2.0726,0.1797,0.0001,-0.0000,2.0377,flat,18.0,1,6.532
3550,113.60,4.3789,2.5790,0.1797,0.0001,-0.0000,2.0589,flat,18.0,1,5.967
3560,113.92,4.1082,3.0804,0.1797,0.0001,-0.0000,2.0783,flat,18.0,1,5.400
3570,114.24,3.8278,3.5769,0.1797,0.0001,-0.0000,2.0964,flat,18.0,1,4.833
3580,114.56,3.5384,4.0686,0.1797,0.0001,-0.0000,2.1134,flat,18.0,1,4.265
3590,114.88,3.2407,4.5554,0.1797,0.0001,-0.0000,2.1298,flat,18.0,1,3.697
3600,115.20,2.9349,5.0373,0.1797,0.0001,-0.0000,2.1461,flat,18.0,1,3.128
3610,115.52,2.6214,5.5140,0.1797,0.0001,0.0000,2.1627,flat,18.0,1,2.560
3620,115.84,2.3000,5.9848,0.1797,0.0001,0.0000,2.1808,flat,18.0,1,1.992
3630,116.16,1.9701,6.4484,0.1797,0.0001,0.0000,2.2021,flat,18.0,1,1.425
3640,116.48,1.6307,6.9016,0.1797,0.0001,0.0000,2.2316,flat,18.0,1,0.863
3650,116.80,1.3346,7.2386,0.1798,-0.0003,0.0000,2.5019,flat,18.0,2,15.260
3660,117.12,0.9716,7.4563,0.1799,-0.0000,-0.0000,2.8487,flat,18.0,2,15.220
3670,117.44,0.5106,7.5667,0.1799,0.0001,-0.0000,-3.1202,flat,18.0,2,15.047
3680,117.76,0.0067,7.5308,0.1799,0.0001,-0.0000,-2.8786,flat,18.0,2,14.741
3690,118.08,-0.4957,7.3699,0.1799,0.0001,-0.0000,-2.7013,flat,18.0,2,14.340
3700,118.40,-0.9744,7.1194,0.1799,0.0003,-0.0000,-2.5753,flat,18.0,2,13.881
3710,118.72,-1.4275,6.8083,0.1798,0.0004,-0.0000,-2.4866,flat,18.0,2,13.388
3720,119.04,-1.8585,6.4577,0.1797,0.0002,-0.0000,-2.4194,flat,18.0,2,12.875
3730,119.36,-2.2663,6.0778,0.1797,0.0002,-0.0000,-2.3582,flat,18.0,2,12.349
3740,119.68,-2.6533,5.6730,0.1797,0.0002,-0.0000,-2.3063,flat,18.0,2,11.813
3750,120.00,-3.0212,5.2485,0.1797,0.0002,-0.0000,-2.2616,flat,18.0,2,11.271
3760,120.32,-3.3726,4.8079,0.1797,0.0001,-0.0000,-2.2225,flat,18.0,2,10.722
3770,120.64,-3.7087,4.3533,0.1797,0.0001,-0.0000,-2.1875,flat,18.0,2,10.169
3780,120.96,-4.0306,3.8866,0.1797,0.0001,-0.0000,-2.1561,flat,18.0,2,9.612
3790,121.28,-4.3391,3.4095,0.1797,0.0001,-0.0000,-2.1279,flat,18.0,2,9.051
3800,121.60,-4.6353,2.9235,0.1797,0.0001,-0.0000,-2.1024,flat,18.0,2,8.488
3810,121.92,-4.9200,2.4298,0.1797,0.0001,-0.0000,-2.0793,flat,18.0,2,7.924
3820,122.24,-5.1940,1.9292,0.1797,0.0001,-0.0000,-2.0583,flat,18.0,2,7.357
3830,122.56,-5.4582,1.4228,0.1797,0.0001,-0.0000,-2.0391,flat,18.0,2,6.789
3840,122.88,-5.7132,0.9112,0.1797,0.0001,-0.0000,-2.0214,flat,18.0,2,6.220
3850,123.20,-5.9595,0.3949,0.1797,0.0001,-0.0000,-2.0050,flat,18.0,2,5.651
3860,123.52,-6.1977,-0.1255,0.1797,0.0001,-0.0000,-1.9896,flat,18.0,2,5.081
3870,123.84,-6.4281,-0.6496,0.1797,0.0001,-0.0000,-1.9750,flat,18.0,2,4.510
3880,124.16,-6.6510,-1.1772,0.1797,0.0000,-0.0000,-1.9609,flat,18.0,2,3.939
3890,124.48,-6.8666,-1.7078,0.1797,0.0000,-0.0000,-1.9471,flat,18.0,2,3.367
3900,124.80,-7.0749,-2.2414,0.1797,0.0000,-0.0000,-1.9330,flat,18.0,2,2.796
3910,125.12,-7.2756,-2.7777,0.1797,0.0001,0.0000,-1.9181,flat,18.0,2,2.224
3920,125.44,-7.4679,-3.3167,0.1797,0.0001,0.0000,-1.9013,flat,18.0,2,1.654
3930,125.76,-7.6504,-3.8579,0.1797,0.0001,0.0000,-1.8794,flat,18.0,2,1.084
3940,126.08,-7.8119,-4.3865,0.1798,0.0001,0.0001,-1.9328,flat,18.0,0,13.157
3950,126.40,-7.9274,-4.8022,0.1798,-0.0003,0.0000,-1.5475,flat,18.0,0,13.275
3960,126.72,-7.8925,-5.2037,0.1799,0.0002,-0.0000,-1.1710,flat,18.0,0,13.255
3970,127.04,-7.6784,-5.6062,0.1799,0.0001,-0.0000,-0.9005,flat,18.0,0,13.068
3980,127.36,-7.3329,-5.9683,0.1799,0.0001,-0.0000,-0.6969,flat,18.0,0,12.760
3990,127.68,-6.9031,-6.2810,0.1799,0.0001,-0.0000,-0.5183,flat,18.0,0,12.374
4000,128.00,-6.4153,-6.5299,0.1799,0.0001,-0.0000,-0.3662,flat,18.0,0,11.930
4010,128.32,-5.8907,-6.7121,0.1799,0.0003,-0.0000,-0.2415,flat,18.0,0,11.447
4020,128.64,-5.3441,-6.8334,0.1798,0.0004,-0.0000,-0.1399,flat,18.0,0,10.936
4030,128.96,-4.7852,-6.9020,0.1798,0.0004,-0.0000,-0.0567,flat,18.0,0,10.406
4040,129.28,-4.2203,-6.9259,0.1797,0.0003,-0.0000,0.0114,flat,18.0,0,9.863
4050,129.60,-3.6543,-6.9131,0.1797,0.0002,-0.0000,0.0634,flat,18.0,0,9.312
4060,129.92,-3.0887,-6.8720,0.1797,0.0002,-0.0000,0.1048,flat,18.0,0,8.755
4070,130.24,-2.5244,-6.8082,0.1797,0.0001,-0.0000,0.1386,flat,18.0,0,8.195
4080,130.56,-1.9615,-6.7259,0.1797,0.0001,-0.0000,0.1672,flat,18.0,0,7.632
4090,130.88,-1.4003,-6.6278,0.1797,0.0001,-0.0000,0.1919,flat,18.0,0,7.067
4100,131.20,-0.8411,-6.5160,0.1797,0.0001,-0.0000,0.2136,flat,18.0,0,6.500
4110,131.52,-0.2838,-6.3924,0.1797,0.0001,-0.0000,0.2327,flat,18.0,0,5.932
4120,131.84,0.2716,-6.2581,0.1797,0.0001,-0.0000,0.2500,flat,18.0,0,5.363
4130,132.16,0.8249,-6.1144,0.1797,0.0001,-0.0000,0.2658,flat,18.0,0,4.793
4140,132.48,1.3761,-5.9621,0.1797,0.0001,-0.0000,0.2805,flat,18.0,0,4.222
4150,132.80,1.9252,-5.8017,0.1797,0.0000,-0.0000,0.2944,flat,18.0,0,3.652
4160,133.12,2.4721,-5.6337,0.1797,0.0000,-0.0000,0.3081,flat,18.0,0,3.081
4170,133.44,3.0165,-5.4582,0.1797,0.0000,0.0000,0.3219,flat,18.0,0,2.510
4180,133.76,3.5581,-5.2751,0.1797,0.0001,0.0000,0.3367,flat,18.0,0,1.939
4190,134.08,4.0960,-5.0840,0.1797,0.0001,0.0000,0.3542,flat,18.0,0,1.370
4200,134.40,4.6281,-4.8835,0.1797,0.0001,0.0000,0.3789,flat,18.0,0,0.803
4210,134.72,5.0568,-4.6908,0.1799,-0.0002,0.0000,0.6064,flat,18.0,1,12.851
4220,135.04,5.3967,-4.3929,0.1799,0.0000,-0.0000,0.8688,flat,18.0,1,12.682
4230,135.36,5.6862,-3.9851,0.1799,0.0000,-0.0000,1.1007,flat,18.0,1,12.406
4240,135.68,5.8995,-3.5000,0.1799,0.0001,-0.0000,1.3075,flat,18.0,1,12.043
4250,136.00,6.0209,-2.9673,0.1799,0.0001,-0.0000,1.4838,flat,18.0,1,11.610
4260,136.32,6.0525,-2.4143,0.1799,0.0002,-0.0000,1.6233,flat,18.0,1,11.128
4270,136.64,6.0112,-1.8584,0.1798,0.0004,-0.0000,1.7236,flat,18.0,1,10.615
4280,136.96,5.9165,-1.3065,0.1798,0.0003,-0.0000,1.7991,flat,18.0,1,10.085
4290,137.28,5.7813,-0.7606,0.1797,0.0002,-0.0000,1.8584,flat,18.0,1,9.544
4300,137.60,5.6146,-0.2214,0.1797,0.0002,-0.0000,1.9063,flat,18.0,1,8.994
4310,137.92,5.4225,0.3101,0.1797,0.0001,-0.0000,1.9440,flat,18.0,1,8.440
4320,138.24,5.2108,0.8353,0.1797,0.0001,-0.0000,1.9760,flat,18.0,1,7.882
4330,138.56,4.9825,1.3547,0.1797,0.0001,-0.0000,2.0039,flat,18.0,1,7.321
4340,138.88,4.7397,1.8686,0.1797,0.0001,-0.0000,2.0286,flat,18.0,1,6.758
4350,139.20,4.4843,2.3771,0.1797,0.0001,-0.0000,2.0507,flat,18.0,1,6.193
4360,139.52,4.2177,2.8804,0.1797,0.0001,-0.0000,2.0708,flat,18.0,1,5.627
4370,139.84,3.9411,3.3789,0.1797,0.0001,-0.0000,2.0893,flat,18.0,1,5.060
4380,140.16,3.6552,3.8725,0.1797,0.0001,-0.0000,2.1067,flat,18.0,1,4.492
4390,140.48,3.3607,4.3612,0.1797,0.0001,-0.0000,2.1233,flat,18.0,1,3.924
4400,140.80,3.0582,4.8452,0.1797,0.0001,-0.0000,2.1395,flat,18.0,1,3.355
4410,141.12,2.7478,5.3240,0.1797,0.0001,0.0000,2.1560,flat,18.0,1,2.787
4420,141.44,2.4295,5.7972,0.1797,0.0001,0.0000,2.1733,flat,18.0,1,2.219
4430,141.76,2.1031,6.2640,0.1797,0.0001,0.0000,2.1930,flat,18.0,1,1.652
4440,142.08,1.7677,6.7220,0.1797,0.0001,0.0000,2.2182,flat,18.0,1,1.087
4450,142.40,1.4484,7.1339,0.1798,-0.0000,0.0004,2.3579,flat,18.0,2,15.246
4460,142.72,1.1312,7.3781,0.1799,-0.0001,-0.0001,2.7127,flat,18.0,2,15.250
4470,143.04,0.7034,7.5392,0.1799,0.0000,-0.0000,3.0423,flat,18.0,2,15.133
4480,143.36,0.2100,7.5621,0.1799,0.0001,-0.0000,-2.9656,flat,18.0,2,14.878
4490,143.68,-0.2968,7.4470,0.1799,0.0001,-0.0000,-2.7657,flat,18.0,2,14.509
4500,144.00,-0.7862,7.2281,0.1799,0.0002,-0.0000,-2.6208,flat,18.0,2,14.070
4510,144.32,-1.2488,6.9388,0.1798,0.0004,-0.0000,-2.5171,flat,18.0,2,13.589
4520,144.64,-1.6888,6.6018,0.1798,0.0003,-0.0000,-2.4450,flat,18.0,2,13.082
4530,144.96,-2.1058,6.2331,0.1797,0.0002,-0.0000,-2.3813,flat,18.0,2,12.561
4540,145.28,-2.5010,5.8375,0.1797,0.0002,-0.0000,-2.3264,flat,18.0,2,12.029
4550,145.60,-2.8762,5.4203,0.1797,0.0002,-0.0000,-2.2786,flat,18.0,2,11.489
4560,145.92,-3.2339,4.9860,0.1797,0.0001,-0.0000,-2.2377,flat,18.0,2,10.942
4570,146.24,-3.5760,4.5367,0.1797,0.0001,-0.0000,-2.2011,flat,18.0,2,10.391
4580,146.56,-3.9035,4.0746,0.1797,0.0001,-0.0000,-2.1683,flat,18.0,2,9.835
4590,146.88,-4.2172,3.6015,0.1797,0.0001,-0.0000,-2.1388,flat,18.0,2,9.276
4600,147.20,-4.5183,3.1189,0.1797,0.0001,-0.0000,-2.1123,flat,18.0,2,8.714
4610,147.52,-4.8074,2.6281,0.1797,0.0001,-0.0000,-2.0883,flat,18.0,2,8.150
4620,147.84,-5.0857,2.1302,0.1797,0.0001,-0.0000,-2.0665,flat,18.0,2,7.584
4630,148.16,-5.3537,1.6261,0.1797,0.0001,-0.0000,-2.0466,flat,18.0,2,7.017
4640,148.48,-5.6123,1.1164,0.1797,0.0001,-0.0000,-2.0284,flat,18.0,2,6.448
4650,148.80,-5.8620,0.6019,0.1797,0.0001,-0.0000,-2.0114,flat,18.0,2,5.879
4660,149.12,-6.1034,0.0831,0.1797,0.0001,-0.0000,-1.9957,flat,18.0,2,5.309
4670,149.44,-6.3368,-0.4395,0.1797,0.0001,-0.0000,-1.9808,flat,18.0,2,4.738
4680,149.76,-6.5627,-0.9658,0.1797,0.0001,-0.0000,-1.9665,flat,18.0,2,4.167
4690,150.08,-6.7813,-1.4952,0.1797,0.0000,-0.0000,-1.9526,flat,18.0,2,3.596
4700,150.40,-6.9925,-2.0276,0.1797,0.0000,-0.0000,-1.9387,flat,18.0,2,3.024
4710,150.72,-7.1963,-2.5629,0.1797,0.0001,0.0000,-1.9242,flat,18.0,2,2.453
4720,151.04,-7.3921,-3.1008,0.1797,0.0001,0.0000,-1.9084,flat,18.0,2,1.882
4730,151.36,-7.5788,-3.6412,0.1797,0.0001,0.0000,-1.8891,flat,18.0,2,1.312
4740,151.68,-7.7536,-4.1834,0.1797,0.0001,0.0000,-1.8603,flat,18.0,3,0.970
4750,152.00,-7.8885,-4.6472,0.1798,-0.0003,0.0001,-1.7322,flat,18.0,0,13.234
4760,152.32,-7.9300,-5.0390,0.1799,0.0001,-0.0001,-1.3053,flat,18.0,0,13.285
4770,152.64,-7.7827,-5.4488,0.1799,0.0001,-0.0000,-0.9989,flat,18.0,0,13.160
4780,152.96,-7.4834,-5.8290,0.1799,0.0001,-0.0000,-0.7733,flat,18.0,0,12.895
4790,153.28,-7.0834,-6.1629,0.1799,0.0001,-0.0000,-0.5872,flat,18.0,0,12.536
4800,153.60,-6.6159,-6.4385,0.1799,0.0001,-0.0000,-0.4236,flat,18.0,0,12.113
4810,153.92,-6.1039,-6.6469,0.1799,0.0002,-0.0000,-0.2884,flat,18.0,0,11.644
4820,154.24,-5.5646,-6.7917,0.1798,0.0004,-0.0000,-0.1781,flat,18.0,0,11.143
4830,154.56,-5.0098,-6.8804,0.1798,0.0004,-0.0000,-0.0880,flat,18.0,0,10.620
4840,154.88,-4.4467,-6.9212,0.1798,0.0003,-0.0000,-0.0142,flat,18.0,0,10.081
4850,155.20,-3.8806,-6.9220,0.1797,0.0002,-0.0000,0.0442,flat,18.0,0,9.533
4860,155.52,-3.3148,-6.8915,0.1797,0.0002,-0.0000,0.0895,flat,18.0,0,8.978
4870,155.84,-2.7500,-6.8362,0.1797,0.0001,-0.0000,0.1257,flat,18.0,0,8.419
4880,156.16,-2.1865,-6.7609,0.1797,0.0001,-0.0000,0.1563,flat,18.0,0,7.857
4890,156.48,-1.6246,-6.6688,0.1797,0.0001,-0.0000,0.1825,flat,18.0,0,7.293
4900,156.80,-1.0646,-6.5623,0.1797,0.0001,-0.0000,0.2052,flat,18.0,0,6.727
4910,157.12,-0.5065,-6.4432,0.1797,0.0001,-0.0000,0.2253,flat,18.0,0,6.159
4920,157.44,0.0497,-6.3131,0.1797,0.0001,-0.0000,0.2433,flat,18.0,0,5.590
4930,157.76,0.6038,-6.1730,0.1797,0.0001,-0.0000,0.2596,flat,18.0,0,5.021
4940,158.08,1.1558,-6.0240,0.1797,0.0001,-0.0000,0.2747,flat,18.0,0,4.451
4950,158.40,1.7058,-5.8668,0.1797,0.0001,-0.0000,0.2889,flat,18.0,0,3.880
4960,158.72,2.2536,-5.7018,0.1797,0.0000,-0.0000,0.3026,flat,18.0,0,3.309
4970,159.04,2.7990,-5.5293,0.1797,0.0000,0.0000,0.3163,flat,18.0,0,2.738
4980,159.36,3.3418,-5.3493,0.1797,0.0001,0.0000,0.3306,flat,18.0,0,2.168
4990,159.68,3.8814,-5.1615,0.1797,0.0001,0.0000,0.3467,flat,18.0,0,1.598
5000,160.00,4.4163,-4.9650,0.1797,0.0001,0.0000,0.3675,flat,18.0,0,1.029
5010,160.32,4.9005,-4.7761,0.1798,-0.0002,0.0001,0.5007,flat,18.0,1,12.885
5020,160.64,5.2667,-4.5284,0.1799,0.0000,-0.0000,0.7712,flat,18.0,1,12.766
5030,160.96,5.5779,-4.1591,0.1799,0.0000,-0.0000,1.0105,flat,18.0,1,12.528
5040,161.28,5.8248,-3.7014,0.1799,0.0001,-0.0000,1.2282,flat,18.0,1,12.198
5050,161.60,5.9836,-3.1842,0.1799,0.0001,-0.0000,1.4172,flat,18.0,1,11.790
5060,161.92,6.0499,-2.6366,0.1799,0.0001,-0.0000,1.5726,flat,18.0,1,11.325
5070,162.24,6.0351,-2.0805,0.1799,0.0004,-0.0000,1.6871,flat,18.0,1,10.823
5080,162.56,5.9598,-1.5266,0.1798,0.0004,-0.0000,1.7712,flat,18.0,1,10.299
5090,162.88,5.8396,-0.9781,0.1797,0.0003,-0.0000,1.8363,flat,18.0,1,9.761
5100,163.20,5.6846,-0.4363,0.1797,0.0002,-0.0000,1.8883,flat,18.0,1,9.215
5110,163.52,5.5019,0.0983,0.1797,0.0001,-0.0000,1.9297,flat,18.0,1,8.662
5120,163.84,5.2977,0.6259,0.1797,0.0001,-0.0000,1.9637,flat,18.0,1,8.105
5130,164.16,5.0757,1.1476,0.1797,0.0001,-0.0000,1.9931,flat,18.0,1,7.546
5140,164.48,4.8384,1.6637,0.1797,0.0001,-0.0000,2.0190,flat,18.0,1,6.983
5150,164.80,4.5879,2.1743,0.1797,0.0001,-0.0000,2.0421,flat,18.0,1,6.419
5160,165.12,4.3257,2.6797,0.1797,0.0001,-0.0000,2.0629,flat,18.0,1,5.854
5170,165.44,4.0529,3.1801,0.1797,0.0001,-0.0000,2.0821,flat,18.0,1,5.287
5180,165.76,3.7706,3.6756,0.1797,0.0001,-0.0000,2.0998,flat,18.0,1,4.720
5190,166.08,3.4796,4.1663,0.1797,0.0001,-0.0000,2.1167,flat,18.0,1,4.151
5200,166.40,3.1802,4.6522,0.1797,0.0001,-0.0000,2.1331,flat,18.0,1,3.583
5210,166.72,2.8729,5.1331,0.1797,0.0001,0.0000,2.1493,flat,18.0,1,3.014
5220,167.04,2.5578,5.6086,0.1797,0.0001,0.0000,2.1662,flat,18.0,1,2.446
5230,167.36,2.2347,6.0781,0.1797,0.0001,0.0000,2.1847,flat,18.0,1,1.878
5240,167.68,1.9031,6.5400,0.1797,0.0001,0.0000,2.2070,flat,18.0,1,1.312
5250,168.00,1.5616,6.9904,0.1797,0.0001,0.0000,2.2398,flat,18.0,2,15.203
5260,168.32,1.2720,7.2871,0.1799,-0.0003,-0.0000,2.5729,flat,18.0,2,15.261
5270,168.64,0.8857,7.4890,0.1799,-0.0000,-0.0000,2.9147,flat,18.0,2,15.196
5280,168.96,0.4115,7.5710,0.1799,0.0001,-0.0000,-3.0649,flat,18.0,2,14.996
5290,169.28,-0.0948,7.5075,0.1799,0.0001,-0.0000,-2.8388,flat,18.0,2,14.667
5300,169.60,-0.5936,7.3257,0.1799,0.0001,-0.0000,-2.6726,flat,18.0,2,14.252
5310,169.92,-1.0668,7.0613,0.1799,0.0003,-0.0000,-2.5545,flat,18.0,2,13.785
5320,170.24,-1.5156,6.7407,0.1798,0.0003,-0.0000,-2.4728,flat,18.0,2,13.286
5330,170.56,-1.9418,6.3840,0.1797,0.0002,-0.0000,-2.4063,flat,18.0,2,12.770
5340,170.88,-2.3453,5.9986,0.1797,0.0002,-0.0000,-2.3473,flat,18.0,2,12.243
5350,171.20,-2.7283,5.5894,0.1797,0.0002,-0.0000,-2.2967,flat,18.0,2,11.705
5360,171.52,-3.0927,5.1616,0.1797,0.0002,-0.0000,-2.2535,flat,18.0,2,11.162
5370,171.84,-3.4410,4.7180,0.1797,0.0001,-0.0000,-2.2152,flat,18.0,2,10.612
5380,172.16,-3.7742,4.2608,0.1797,0.0001,-0.0000,-2.1810,flat,18.0,2,10.058
5390,172.48,-4.0933,3.7919,0.1797,0.0001,-0.0000,-2.1503,flat,18.0,2,9.500
5400,172.80,-4.3993,3.3130,0.1797,0.0001,-0.0000,-2.1226,flat,18.0,2,8.939
5410,173.12,-4.6931,2.8253,0.1797,0.0001,-0.0000,-2.0976,flat,18.0,2,8.376
5420,173.44,-4.9756,2.3301,0.1797,0.0001,-0.0000,-2.0750,flat,18.0,2,7.810
5430,173.76,-5.2476,1.8284,0.1797,0.0001,-0.0000,-2.0544,flat,18.0,2,7.244
5440,174.08,-5.5099,1.3209,0.1797,0.0001,-0.0000,-2.0355,flat,18.0,2,6.676
5450,174.40,-5.7631,0.8083,0.1797,0.0001,-0.0000,-2.0181,flat,18.0,2,6.107
5460,174.72,-6.0078,0.2911,0.1797,0.0001,-0.0000,-2.0019,flat,18.0,2,5.537
5470,175.04,-6.2444,-0.2301,0.1797,0.0001,-0.0000,-1.9866,flat,18.0,2,4.966
5480,175.36,-6.4733,-0.7549,0.1797,0.0001,-0.0000,-1.9722,flat,18.0,2,4.395
5490,175.68,-6.6947,-1.2831,0.1797,0.0000,-0.0000,-1.9581,flat,18.0,2,3.824
5500,176.00,-6.9089,-1.8143,0.1797,0.0000,-0.0000,-1.9443,flat,18.0,2,3.253
5510,176.32,-7.1157,-2.3485,0.1797,0.0000,0.0000,-1.9301,flat,18.0,2,2.681
5520,176.64,-7.3147,-2.8853,0.1797,0.0001,0.0000,-1.9150,flat,18.0,2,2.110
5530,176.96,-7.5053,-3.4248,0.1797,0.0001,0.0000,-1.8975,flat,18.0,2,1.540
5540,177.28,-7.6854,-3.9664,0.1797,0.0001,0.0000,-1.8739,flat,18.0,2,0.971
5550,177.60,-7.8393,-4.4782,0.1799,-0.0006,0.0003,-1.8785,flat,18.0,0,13.184
5560,177.92,-7.9360,-4.8789,0.1799,-0.0001,-0.0000,-1.4604,flat,18.0,0,13.286
5570,178.24,-7.8626,-5.2863,0.1799,0.0002,-0.0000,-1.1101,flat,18.0,0,13.229
5580,178.56,-7.6182,-5.6824,0.1799,0.0001,-0.0000,-0.8555,flat,18.0,0,13.015
5590,178.88,-7.2528,-6.0353,0.1799,0.0001,-0.0000,-0.6596,flat,18.0,0,12.688
5600,179.20,-6.8094,-6.3362,0.1799,0.0001,-0.0000,-0.4856,flat,18.0,0,12.289
5610,179.52,-6.3128,-6.5716,0.1799,0.0001,-0.0000,-0.3392,flat,18.0,0,11.837
5620,179.84,-5.7828,-6.7410,0.1799,0.0003,-0.0000,-0.2195,flat,18.0,0,11.347
5630,180.16,-5.2330,-6.8512,0.1798,0.0004,-0.0000,-0.1219,flat,18.0,0,10.831
5640,180.48,-4.6726,-6.9102,0.1798,0.0004,-0.0000,-0.0420,flat,18.0,0,10.298
5650,180.80,-4.1070,-6.9261,0.1797,0.0003,-0.0000,0.0232,flat,18.0,0,9.753
5660,181.12,-3.5412,-6.9070,0.1797,0.0002,-0.0000,0.0724,flat,18.0,0,9.201
5670,181.44,-2.9758,-6.8609,0.1797,0.0001,-0.0000,0.1120,flat,18.0,0,8.643
5680,181.76,-2.4117,-6.7933,0.1797,0.0001,-0.0000,0.1446,flat,18.0,0,8.083
5690,182.08,-1.8492,-6.7076,0.1797,0.0001,-0.0000,0.1724,flat,18.0,0,7.519
5700,182.40,-1.2884,-6.6066,0.1797,0.0001,-0.0000,0.1965,flat,18.0,0,6.953
5710,182.72,-0.7295,-6.4923,0.1797,0.0001,-0.0000,0.2176,flat,18.0,0,6.386
5720,183.04,-0.1726,-6.3664,0.1797,0.0001,-0.0000,0.2363,flat,18.0,0,5.818
5730,183.36,0.3824,-6.2302,0.1797,0.0001,-0.0000,0.2533,flat,18.0,0,5.249
5740,183.68,0.9352,-6.0847,0.1797,0.0001,-0.0000,0.2688,flat,18.0,0,4.679
5750,184.00,1.4860,-5.9307,0.1797,0.0001,-0.0000,0.2833,flat,18.0,0,4.108
5760,184.32,2.0347,-5.7688,0.1797,0.0000,-0.0000,0.2972,flat,18.0,0,3.538
5770,184.64,2.5811,-5.5992,0.1797,0.0000,-0.0000,0.3108,flat,18.0,0,2.967
5780,184.96,3.1250,-5.4222,0.1797,0.0000,0.0000,0.3247,flat,18.0,0,2.396
5790,185.28,3.6660,-5.2377,0.1797,0.0001,0.0000,0.3399,flat,18.0,0,1.826
5800,185.60,4.2030,-5.0448,0.1797,0.0001,0.0000,0.3583,flat,18.0,0,1.256
5810,185.92,4.7307,-4.8453,0.1797,0.0000,0.0002,0.4021,flat,18.0,1,12.901
5820,186.24,5.1293,-4.6423,0.1799,-0.0001,0.0000,0.6636,flat,18.0,1,12.828
5830,186.56,5.4592,-4.3189,0.1799,0.0000,-0.0000,0.9167,flat,18.0,1,12.635
5840,186.88,5.7357,-3.8933,0.1799,0.0000,-0.0000,1.1443,flat,18.0,1,12.340
5850,187.20,5.9312,-3.3963,0.1799,0.0001,0.0000,1.3453,flat,18.0,1,11.961
5860,187.52,6.0340,-2.8576,0.1799,0.0001,-0.0000,1.5148,flat,18.0,1,11.517
5870,187.84,6.0493,-2.3030,0.1799,0.0003,-0.0000,1.6460,flat,18.0,1,11.027
5880,188.16,5.9960,-1.7476,0.1798,0.0004,-0.0000,1.7403,flat,18.0,1,10.511
5890,188.48,5.8923,-1.1968,0.1798,0.0003,-0.0000,1.8121,flat,18.0,1,9.978
5900,188.80,5.7502,-0.6522,0.1797,0.0002,-0.0000,1.8688,flat,18.0,1,9.434
5910,189.12,5.5779,-0.1145,0.1797,0.0002,-0.0000,1.9146,flat,18.0,1,8.883
5920,189.44,5.3816,0.4156,0.1797,0.0001,-0.0000,1.9507,flat,18.0,1,8.328
5930,189.76,5.1664,0.9396,0.1797,0.0001,-0.0000,1.9818,flat,18.0,1,7.770
5940,190.08,4.9350,1.4579,0.1797,0.0001,-0.0000,2.0090,flat,18.0,1,7.208
5950,190.40,4.6896,1.9707,0.1797,0.0001,-0.0000,2.0332,flat,18.0,1,6.645
5960,190.72,4.4319,2.4781,0.1797,0.0001,-0.0000,2.0548,flat,18.0,1,6.080
5970,191.04,4.1632,2.9805,0.1797,0.0001,-0.0000,2.0746,flat,18.0,1,5.514
5980,191.36,3.8846,3.4780,0.1797,0.0001,-0.0000,2.0929,flat,18.0,1,4.947
5990,191.68,3.5970,3.9706,0.1797,0.0001,-0.0000,2.1100,flat,18.0,1,4.379
6000,192.00,3.3009,4.4584,0.1797,0.0001,-0.0000,2.1265,flat,18.0,1,3.810
6010,192.32,2.9968,4.9413,0.1797,0.0001,-0.0000,2.1428,flat,18.0,1,3.242
6020,192.64,2.6848,5.4191,0.1797,0.0001,0.0000,2.1593,flat,18.0,1,2.673
6030,192.96,2.3649,5.8911,0.1797,0.0001,0.0000,2.1770,flat,18.0,1,2.105
6040,193.28,2.0368,6.3564,0.1797,0.0001,0.0000,2.1974,flat,18.0,1,1.538
6050,193.60,1.6995,6.8121,0.1797,0.0001,0.0000,2.2245,flat,18.0,1,0.975
6060,193.92,1.3933,7.1880,0.1798,-0.0002,0.0002,2.4303,flat,18.0,2,15.255
6070,194.24,1.0536,7.4191,0.1799,-0.0000,-0.0001,2.7813,flat,18.0,2,15.237
6080,194.56,0.6081,7.5559,0.1799,0.0000,-0.0000,3.1037,flat,18.0,2,15.093
6090,194.88,0.1084,7.5491,0.1799,0.0001,-0.0000,-2.9208,flat,18.0,2,14.812
6100,195.20,-0.3967,7.4103,0.1799,0.0001,-0.0000,-2.7322,flat,18.0,2,14.426
6110,195.52,-0.8808,7.1750,0.1799,0.0002,-0.0000,-2.5974,flat,18.0,2,13.976
6120,195.84,-1.3385,6.8744,0.1798,0.0004,-0.0000,-2.5010,flat,18.0,2,13.489
6130,196.16,-1.7741,6.5303,0.1798,0.0003,-0.0000,-2.4321,flat,18.0,2,12.978
6140,196.48,-2.1864,6.1560,0.1797,0.0002,-0.0000,-2.3696,flat,18.0,2,12.455
6150,196.80,-2.5775,5.7556,0.1797,0.0002,-0.0000,-2.3162,flat,18.0,2,11.921
6160,197.12,-2.9491,5.3347,0.1797,0.0002,-0.0000,-2.2700,flat,18.0,2,11.380
6170,197.44,-3.3035,4.8972,0.1797,0.0001,-0.0000,-2.2300,flat,18.0,2,10.832
6180,197.76,-3.6426,4.4452,0.1797,0.0001,-0.0000,-2.1942,flat,18.0,2,10.280
6190,198.08,-3.9673,3.9808,0.1797,0.0001,-0.0000,-2.1622,flat,18.0,2,9.723
6200,198.40,-4.2784,3.5057,0.1797,0.0001,-0.0000,-2.1333,flat,18.0,2,9.164
6210,198.72,-4.5770,3.0214,0.1797,0.0001,-0.0000,-2.1073,flat,18.0,2,8.601
6220,199.04,-4.8639,2.5291,0.1797,0.0001,-0.0000,-2.0838,flat,18.0,2,8.037
6230,199.36,-5.1401,2.0298,0.1797,0.0001,-0.0000,-2.0624,flat,18.0,2,7.470
6240,199.68,-5.4062,1.5245,0.1797,0.0001,-0.0000,-2.0428,flat,18.0,2,6.903
6250,200.00,-5.6629,1.0139,0.1797,0.0001,-0.0000,-2.0249,flat,18.0,2,6.334
6260,200.32,-5.9109,0.4985,0.1797,0.0001,-0.0000,-2.0082,flat,18.0,2,5.765
6270,200.64,-6.1507,-0.0211,0.1797,0.0001,-0.0000,-1.9926,flat,18.0,2,5.195
6280,200.96,-6.3826,-0.5445,0.1797,0.0001,-0.0000,-1.9779,flat,18.0,2,4.624
6290,201.28,-6.6070,-1.0714,0.1797,0.0001,-0.0000,-1.9637,flat,18.0,2,4.053
6300,201.60,-6.8241,-1.6015,0.1797,0.0000,-0.0000,-1.9498,flat,18.0,2,3.481
6310,201.92,-7.0339,-2.1345,0.1797,0.0000,-0.0000,-1.9359,flat,18.0,2,2.910
6320,202.24,-7.2361,-2.6703,0.1797,0.0001,0.0000,-1.9212,flat,18.0,2,2.339
6330,202.56,-7.4302,-3.2087,0.1797,0.0001,0.0000,-1.9049,flat,18.0,2,1.768
6340,202.88,-7.6148,-3.7495,0.1797,0.0001,0.0000,-1.8845,flat,18.0,2,1.198
6350,203.20,-7.7815,-4.2855,0.1797,0.0001,0.0001,-1.8940,flat,18.0,3,0.878
6360,203.52,-7.9106,-4.7264,0.1798,-0.0004,0.0001,-1.6422,flat,18.0,0,13.257
6370,203.84,-7.9151,-5.1210,0.1799,0.0002,-0.0001,-1.2359,flat,18.0,0,13.273
6380,204.16,-7.7334,-5.5283,0.1799,0.0001,-0.0000,-0.9482,flat,18.0,0,13.117
6390,204.48,-7.4099,-5.8995,0.1799,0.0001,-0.0000,-0.7348,flat,18.0,0,12.829
6400,204.80,-6.9945,-6.2232,0.1799,0.0001,-0.0000,-0.5522,flat,18.0,0,12.456
6410,205.12,-6.5164,-6.4855,0.1799,0.0001,-0.0000,-0.3943,flat,18.0,0,12.023
6420,205.44,-5.9978,-6.6808,0.1799,0.0002,-0.0000,-0.2645,flat,18.0,0,11.546
6430,205.76,-5.4546,-6.8137,0.1798,0.0004,-0.0000,-0.1586,flat,18.0,0,11.040
6440,206.08,-4.8976,-6.8921,0.1798,0.0004,-0.0000,-0.0720,flat,18.0,0,10.513
6450,206.40,-4.3335,-6.9244,0.1798,0.0003,-0.0000,-0.0011,flat,18.0,0,9.972
6460,206.72,-3.7675,-6.9181,0.1797,0.0002,-0.0000,0.0539,flat,18.0,0,9.422
6470,207.04,-3.2017,-6.8822,0.1797,0.0002,-0.0000,0.0973,flat,18.0,0,8.867
6480,207.36,-2.6372,-6.8227,0.1797,0.0001,-0.0000,0.1322,flat,18.0,0,8.307
6490,207.68,-2.0740,-6.7438,0.1797,0.0001,-0.0000,0.1618,flat,18.0,0,7.745
6500,208.00,-1.5125,-6.6487,0.1797,0.0001,-0.0000,0.1872,flat,18.0,0,7.180
6510,208.32,-0.9528,-6.5395,0.1797,0.0001,-0.0000,0.2094,flat,18.0,0,6.613
6520,208.64,-0.3951,-6.4181,0.1797,0.0001,-0.0000,0.2291,flat,18.0,0,6.045
6530,208.96,0.1606,-6.2859,0.1797,0.0001,-0.0000,0.2467,flat,18.0,0,5.476
6540,209.28,0.7143,-6.1440,0.1797,0.0001,-0.0000,0.2627,flat,18.0,0,4.907
6550,209.60,1.2660,-5.9933,0.1797,0.0001,-0.0000,0.2776,flat,18.0,0,4.337
6560,209.92,1.8155,-5.8345,0.1797,0.0001,-0.0000,0.2917,flat,18.0,0,3.766
6570,210.24,2.3629,-5.6680,0.1797,0.0000,-0.0000,0.3054,flat,18.0,0,3.195
6580,210.56,2.9078,-5.4940,0.1797,0.0000,0.0000,0.3191,flat,18.0,0,2.624
6590,210.88,3.4500,-5.3125,0.1797,0.0001,0.0000,0.3336,flat,18.0,0,2.054
6600,211.20,3.9888,-5.1230,0.1797,0.0001,0.0000,0.3503,flat,18.0,0,1.484
6610,211.52,4.5223,-4.9246,0.1797,0.0001,0.0000,0.3729,flat,18.0,0,0.916
6620,211.84,4.9803,-4.7354,0.1799,-0.0003,0.0000,0.5521,flat,18.0,1,12.870
6630,212.16,5.3324,-4.4629,0.1799,0.0000,-0.0000,0.8203,flat,18.0,1,12.726
6640,212.48,5.6334,-4.0738,0.1799,0.0000,-0.0000,1.0561,flat,18.0,1,12.469
6650,212.80,5.8639,-3.6018,0.1799,0.0001,-0.0000,1.2685,flat,18.0,1,12.122
6660,213.12,6.0040,-3.0762,0.1799,0.0001,-0.0000,1.4513,flat,18.0,1,11.701
6670,213.44,6.0527,-2.5255,0.1799,0.0001,-0.0000,1.5989,flat,18.0,1,11.227
6680,213.76,6.0242,-1.9694,0.1798,0.0004,-0.0000,1.7059,flat,18.0,1,10.720
6690,214.08,5.9389,-1.4164,0.1798,0.0004,-0.0000,1.7855,flat,18.0,1,10.192
6700,214.40,5.8110,-0.8692,0.1797,0.0002,-0.0000,1.8476,flat,18.0,1,9.653
6710,214.72,5.6500,-0.3287,0.1797,0.0002,-0.0000,1.8975,flat,18.0,1,9.104
6720,215.04,5.4625,0.2043,0.1797,0.0001,-0.0000,1.9369,flat,18.0,1,8.551
6730,215.36,5.2545,0.7307,0.1797,0.0001,-0.0000,1.9699,flat,18.0,1,7.994
6740,215.68,5.0293,1.2513,0.1797,0.0001,-0.0000,1.9986,flat,18.0,1,7.433
6750,216.00,4.7893,1.7662,0.1797,0.0001,-0.0000,2.0238,flat,18.0,1,6.871
6760,216.32,4.5363,2.2758,0.1797,0.0001,-0.0000,2.0464,flat,18.0,1,6.306
6770,216.64,4.2719,2.7802,0.1797,0.0001,-0.0000,2.0669,flat,18.0,1,5.740
6780,216.96,3.9971,3.2796,0.1797,0.0001,-0.0000,2.0857,flat,18.0,1,5.174
6790,217.28,3.7131,3.7741,0.1797,0.0001,-0.0000,2.1033,flat,18.0,1,4.606
6800,217.60,3.4203,4.2639,0.1797,0.0001,-0.0000,2.1200,flat,18.0,1,4.038
6810,217.92,3.1193,4.7488,0.1797,0.0001,-0.0000,2.1363,flat,18.0,1,3.469
6820,218.24,2.8105,5.2287,0.1797,0.0001,0.0000,2.1526,flat,18.0,1,2.901
6830,218.56,2.4938,5.7031,0.1797,0.0001,0.0000,2.1697,flat,18.0,1,2.332
6840,218.88,2.1691,6.1712,0.1797,0.0001,0.0000,2.1888,flat,18.0,1,1.765
6850,219.20,1.8356,6.6313,0.1797,0.0001,0.0000,2.2124,flat,18.0,1,1.200
6860,219.52,1.5012,7.0693,0.1797,0.0001,0.0003,2.2855,flat,18.0,2,15.228
6870,219.84,1.2041,7.3339,0.1799,-0.0002,-0.0000,2.6432,flat,18.0,2,15.258
6880,220.16,0.7961,7.5168,0.1799,0.0000,-0.0000,2.9793,flat,18.0,2,15.168
6890,220.48,0.3111,7.5694,0.1799,0.0001,-0.0000,-3.0135,flat,18.0,2,14.939
6900,220.80,-0.1961,7.4794,0.1799,0.0001,-0.0000,-2.8013,flat,18.0,2,14.590
6910,221.12,-0.6905,7.2784,0.1799,0.0001,-0.0000,-2.6459,flat,18.0,2,14.162
6920,221.44,-1.1583,7.0011,0.1798,0.0004,-0.0000,-2.5351,flat,18.0,2,13.688
6930,221.76,-1.6027,6.6719,0.1798,0.0003,-0.0000,-2.4587,flat,18.0,2,13.184
6940,222.08,-2.0243,6.3092,0.1797,0.0002,-0.0000,-2.3936,flat,18.0,2,12.666
6950,222.40,-2.4236,5.9185,0.1797,0.0002,-0.0000,-2.3368,flat,18.0,2,12.136
6960,222.72,-2.8027,5.5052,0.1797,0.0002,-0.0000,-2.2875,flat,18.0,2,11.597
6970,223.04,-3.1637,5.0741,0.1797,0.0001,-0.0000,-2.2455,flat,18.0,2,11.052
6980,223.36,-3.5088,4.6276,0.1797,0.0001,-0.0000,-2.2081,flat,18.0,2,10.502
6990,223.68,-3.8392,4.1680,0.1797,0.0001,-0.0000,-2.1746,flat,18.0,2,9.946
7000,224.00,-4.1556,3.6969,0.1797,0.0001,-0.0000,-2.1445,flat,18.0,2,9.388
7010,224.32,-4.4591,3.2161,0.1797,0.0001,-0.0000,-2.1174,flat,18.0,2,8.826
7020,224.64,-4.7506,2.7269,0.1797,0.0001,-0.0000,-2.0929,flat,18.0,2,8.263
7030,224.96,-5.0309,2.2303,0.1797,0.0001,-0.0000,-2.0707,flat,18.0,2,7.697
7040,225.28,-5.3009,1.7274,0.1797,0.0001,-0.0000,-2.0505,flat,18.0,2,7.130
7050,225.60,-5.5613,1.2188,0.1797,0.0001,-0.0000,-2.0319,flat,18.0,2,6.562
7060,225.92,-5.8128,0.7052,0.1797,0.0001,-0.0000,-2.0147,flat,18.0,2,5.993
7070,226.24,-6.0558,0.1872,0.1797,0.0001,-0.0000,-1.9987,flat,18.0,2,5.423
7080,226.56,-6.2908,-0.3347,0.1797,0.0001,-0.0000,-1.9837,flat,18.0,2,4.852
7090,226.88,-6.5182,-0.8602,0.1797,0.0001,-0.0000,-1.9693,flat,18.0,2,4.281
7100,227.20,-6.7382,-1.3891,0.1797,0.0000,-0.0000,-1.9554,flat,18.0,2,3.710
7110,227.52,-6.9509,-1.9209,0.1797,0.0000,-0.0000,-1.9415,flat,18.0,2,3.139
7120,227.84,-7.1562,-2.4556,0.1797,0.0001,0.0000,-1.9272,flat,18.0,2,2.567
7130,228.16,-7.3536,-2.9930,0.1797,0.0001,0.0000,-1.9117,flat,18.0,2,1.996
7140,228.48,-7.5423,-3.5329,0.1797,0.0001,0.0000,-1.8934,flat,18.0,2,1.426
7150,228.80,-7.7199,-4.0749,0.1797,0.0001,0.0000,-1.8675,flat,18.0,2,0.857
7160,229.12,-7.8641,-4.5642,0.1798,-0.0003,0.0002,-1.8107,flat,18.0,0,13.209
7170,229.44,-7.9369,-4.9581,0.1799,-0.0000,-0.0000,-1.3799,flat,18.0,0,13.289
7180,229.76,-7.8259,-5.3680,0.1799,0.0001,-0.0000,-1.0528,flat,18.0,0,13.198
7190,230.08,-7.5531,-5.7567,0.1799,0.0001,-0.0000,-0.8132,flat,18.0,0,12.957
7200,230.40,-7.1695,-6.1001,0.1799,0.0001,-0.0000,-0.6230,flat,18.0,0,12.614
7210,230.72,-6.7136,-6.3887,0.1799,0.0001,-0.0000,-0.4540,flat,18.0,0,12.202
7220,231.04,-6.2089,-6.6105,0.1799,0.0002,-0.0000,-0.3132,flat,18.0,0,11.741
7230,231.36,-5.6740,-6.7675,0.1799,0.0004,-0.0000,-0.1984,flat,18.0,0,11.246
7240,231.68,-5.1216,-6.8667,0.1798,0.0004,-0.0000,-0.1046,flat,18.0,0,10.726
7250,232.00,-4.5597,-6.9165,0.1798,0.0004,-0.0000,-0.0278,flat,18.0,0,10.190
7260,232.32,-3.9938,-6.9246,0.1797,0.0002,-0.0000,0.0339,flat,18.0,0,9.643
7270,232.64,-3.4280,-6.8997,0.1797,0.0002,-0.0000,0.0811,flat,18.0,0,9.090
7280,232.96,-2.8629,-6.8490,0.1797,0.0001,-0.0000,0.1189,flat,18.0,0,8.532
7290,233.28,-2.2991,-6.7775,0.1797,0.0001,-0.0000,0.1505,flat,18.0,0,7.970
7300,233.60,-1.7369,-6.6886,0.1797,0.0001,-0.0000,0.1775,flat,18.0,0,7.406
7310,233.92,-1.1764,-6.5848,0.1797,0.0001,-0.0000,0.2009,flat,18.0,0,6.840
7320,234.24,-0.6179,-6.4681,0.1797,0.0001,-0.0000,0.2215,flat,18.0,0,6.273
7330,234.56,-0.0614,-6.3401,0.1797,0.0001,-0.0000,0.2398,flat,18.0,0,5.704
7340,234.88,0.4931,-6.2019,0.1797,0.0001,-0.0000,0.2565,flat,18.0,0,5.135
7350,235.20,1.0456,-6.0547,0.1797,0.0001,-0.0000,0.2718,flat,18.0,0,4.565
7360,235.52,1.5960,-5.8990,0.1797,0.0001,-0.0000,0.2861,flat,18.0,0,3.994
7370,235.84,2.1442,-5.7355,0.1797,0.0000,-0.0000,0.2999,flat,18.0,0,3.423
7380,236.16,2.6901,-5.5645,0.1797,0.0000,-0.0000,0.3136,flat,18.0,0,2.853
7390,236.48,3.2335,-5.3860,0.1797,0.0000,0.0000,0.3277,flat,18.0,0,2.282
7400,236.80,3.7737,-5.1999,0.1797,0.0001,0.0000,0.3433,flat,18.0,0,1.712
7410,237.12,4.3097,-5.0052,0.1797,0.0001,0.0000,0.3627,flat,18.0,0,1.143
7420,237.44,4.8181,-4.8129,0.1798,0.0001,0.0003,0.4511,flat,18.0,1,12.895
7430,237.76,5.1989,-4.5884,0.1799,-0.0000,-0.0000,0.7191,flat,18.0,1,12.800
7440,238.08,5.5197,-4.2409,0.1799,0.0000,-0.0000,0.9640,flat,18.0,1,12.583
7450,238.40,5.7819,-3.7987,0.1799,0.0001,-0.0000,1.1869,flat,18.0,1,12.271
7460,238.72,5.9592,-3.2909,0.1799,0.0001,0.0000,1.3818,flat,18.0,1,11.877
7470,239.04,6.0436,-2.7473,0.1799,0.0001,-0.0000,1.5444,flat,18.0,1,11.422
7480,239.36,6.0434,-2.1918,0.1799,0.0003,-0.0000,1.6672,flat,18.0,1,10.925
7490,239.68,5.9788,-1.6370,0.1798,0.0004,-0.0000,1.7562,flat,18.0,1,10.405
7500,240.00,5.8665,-1.0873,0.1798,0.0003,-0.0000,1.8244,flat,18.0,1,9.870
7510,240.32,5.7179,-0.5441,0.1797,0.0002,-0.0000,1.8787,flat,18.0,1,9.325
7520,240.64,5.5402,-0.0080,0.1797,0.0002,-0.0000,1.9223,flat,18.0,1,8.773
7530,240.96,5.3399,0.5209,0.1797,0.0001,-0.0000,1.9573,flat,18.0,1,8.217
7540,241.28,5.1213,1.0437,0.1797,0.0001,-0.0000,1.9876,flat,18.0,1,7.658
7550,241.60,4.8869,1.5609,0.1797,0.0001,-0.0000,2.0141,flat,18.0,1,7.096
7560,241.92,4.6389,2.0726,0.1797,0.0001,-0.0000,2.0377,flat,18.0,1,6.532
7570,242.24,4.3789,2.5790,0.1797,0.0001,-0.0000,2.0589,flat,18.0,1,5.967
7580,242.56,4.1082,3.0804,0.1797,0.0001,-0.0000,2.0783,flat,18.0,1,5.400
7590,242.88,3.8277,3.5769,0.1797,0.0001,-0.0000,2.0964,flat,18.0,1,4.833
7600,243.20,3.5384,4.0686,0.1797,0.0001,-0.0000,2.1134,flat,18.0,1,4.265
7610,243.52,3.2407,4.5554,0.1797,0.0001,-0.0000,2.1298,flat,18.0,1,3.697
7620,243.84,2.9350,5.0373,0.1797,0.0001,-0.0000,2.1461,flat,18.0,1,3.128
7630,244.16,2.6214,5.5140,0.1797,0.0001,0.0000,2.1627,flat,18.0,1,2.560
7640,244.48,2.3000,5.9848,0.1797,0.0001,0.0000,2.1808,flat,18.0,1,1.992
7650,244.80,1.9701,6.4484,0.1797,0.0001,0.0000,2.2021,flat,18.0,1,1.425
7660,245.12,1.6307,6.9017,0.1797,0.0001,0.0000,2.2316,flat,18.0,1,0.863
7670,245.44,1.3347,7.2386,0.1798,-0.0003,0.0000,2.5019,flat,18.0,2,15.260
7680,245.76,0.9716,7.4563,0.1799,-0.0000,-0.0000,2.8487,flat,18.0,2,15.220
7690,246.08,0.5106,7.5667,0.1799,0.0001,-0.0000,-3.1201,flat,18.0,2,15.047
7700,246.40,0.0067,7.5308,0.1799,0.0001,-0.0000,-2.8786,flat,18.0,2,14.741
7710,246.72,-0.4957,7.3698,0.1799,0.0001,-0.0000,-2.7013,flat,18.0,2,14.340
7720,247.04,-0.9744,7.1194,0.1799,0.0003,-0.0000,-2.5753,flat,18.0,2,13.881
7730,247.36,-1.4275,6.8083,0.1798,0.0004,-0.0000,-2.4866,flat,18.0,2,13.388
7740,247.68,-1.8585,6.4577,0.1797,0.0002,-0.0000,-2.4194,flat,18.0,2,12.875
7750,248.00,-2.2663,6.0778,0.1797,0.0002,-0.0000,-2.3583,flat,18.0,2,12.349
7760,248.32,-2.6534,5.6730,0.1797,0.0002,-0.0000,-2.3063,flat,18.0,2,11.813
7770,248.64,-3.0212,5.2485,0.1797,0.0002,-0.0000,-2.2616,flat,18.0,2,11.271
7780,248.96,-3.3726,4.8079,0.1797,0.0001,-0.0000,-2.2225,flat,18.0,2,10.722
7790,249.28,-3.7087,4.3533,0.1797,0.0001,-0.0000,-2.1875,flat,18.0,2,10.169
7800,249.60,-4.0306,3.8866,0.1797,0.0001,-0.0000,-2.1561,flat,18.0,2,9.612
7810,249.92,-4.3391,3.4095,0.1797,0.0001,-0.0000,-2.1279,flat,18.0,2,9.051
7820,250.24,-4.6353,2.9235,0.1797,0.0001,-0.0000,-2.1024,flat,18.0,2,8.488
7830,250.56,-4.9200,2.4298,0.1797,0.0001,-0.0000,-2.0793,flat,18.0,2,7.924
7840,250.88,-5.1941,1.9293,0.1797,0.0001,-0.0000,-2.0583,flat,18.0,2,7.357
7850,251.20,-5.4583,1.4228,0.1797,0.0001,-0.0000,-2.0391,flat,18.0,2,6.789
7860,251.52,-5.7132,0.9112,0.1797,0.0001,-0.0000,-2.0214,flat,18.0,2,6.220
7870,251.84,-5.9595,0.3949,0.1797,0.0001,-0.0000,-2.0050,flat,18.0,2,5.651
7880,252.16,-6.1977,-0.1255,0.1797,0.0001,-0.0000,-1.9896,flat,18.0,2,5.081
7890,252.48,-6.4281,-0.6496,0.1797,0.0001,-0.0000,-1.9750,flat,18.0,2,4.510
7900,252.80,-6.6510,-1.1772,0.1797,0.0000,-0.0000,-1.9609,flat,18.0,2,3.939
7910,253.12,-6.8667,-1.7078,0.1797,0.0000,-0.0000,-1.9471,flat,18.0,2,3.367
7920,253.44,-7.0749,-2.2414,0.1797,0.0000,-0.0000,-1.9330,flat,18.0,2,2.796
7930,253.76,-7.2756,-2.7777,0.1797,0.0001,0.0000,-1.9181,flat,18.0,2,2.224
7940,254.08,-7.4679,-3.3167,0.1797,0.0001,0.0000,-1.9013,flat,18.0,2,1.654
7950,254.40,-7.6504,-3.8579,0.1797,0.0001,0.0000,-1.8794,flat,18.0,2,1.084
7960,254.72,-7.8119,-4.3865,0.1798,0.0001,0.0001,-1.9327,flat,18.0,0,13.157
7970,255.04,-7.9274,-4.8022,0.1798,-0.0003,0.0000,-1.5475,flat,18.0,0,13.275
7980,255.36,-7.8924,-5.2038,0.1799,0.0002,-0.0000,-1.1710,flat,18.0,0,13.255
7990,255.68,-7.6784,-5.6062,0.1799,0.0001,-0.0000,-0.9005,flat,18.0,0,13.068
8000,256.00,-7.3329,-5.9683,0.1799,0.0001,-0.0000,-0.6969,flat,18.0,0,12.760
8010,256.32,-6.9031,-6.2810,0.1799,0.0001,-0.0000,-0.5183,flat,18.0,0,12.374
8020,256.64,-6.4153,-6.5299,0.1799,0.0001,-0.0000,-0.3662,flat,18.0,0,11.930
8030,256.96,-5.8907,-6.7121,0.1799,0.0003,-0.0000,-0.2415,flat,18.0,0,11.447
8040,257.28,-5.3441,-6.8335,0.1798,0.0004,-0.0000,-0.1399,flat,18.0,0,10.936
8050,257.60,-4.7852,-6.9020,0.1798,0.0004,-0.0000,-0.0567,flat,18.0,0,10.406
8060,257.92,-4.2203,-6.9259,0.1797,0.0003,-0.0000,0.0114,flat,18.0,0,9.863
