step,time_s,x,y,z,roll,pitch,yaw,terrain,speed,target_idx,dist_to_target
10,0.32,-0.0089,-0.0618,0.1916,-0.0015,-0.0149,-0.0002,slope,18.0,0,5.403
20,0.64,0.2426,-0.0671,0.2053,0.0224,-0.0474,-0.0188,slope,18.0,0,5.205
30,0.96,0.5535,-0.0785,0.2173,0.0489,-0.0459,-0.0818,slope,18.0,0,4.962
40,1.28,0.9673,-0.1556,0.2432,0.0880,-0.0559,-0.3098,slope,18.0,0,4.609
50,1.60,1.4083,-0.3757,0.2306,0.1010,0.0814,-0.5792,slope,18.0,0,4.144
60,1.92,1.7988,-0.6883,0.1838,0.0816,0.1010,-0.7670,slope,18.0,0,3.650
70,2.24,2.1566,-1.0967,0.1267,0.1103,0.1570,-0.8699,slope,18.0,0,3.107
80,2.56,2.5141,-1.5609,-0.0142,0.1093,0.2838,-0.8923,slope,18.0,0,2.523
90,2.88,2.8171,-1.9860,-0.2018,0.2858,0.4654,-0.8219,rough,14.0,0,2.007
100,3.20,3.0224,-2.2442,-0.3162,0.3110,0.1716,-0.8072,slope,18.0,0,1.679
110,3.52,3.2765,-2.5974,-0.3700,0.5111,0.2361,-0.7449,slope,18.0,0,1.254
120,3.84,3.4584,-2.8280,-0.3923,0.4552,-0.1622,-0.7797,slope,18.0,1,6.922
130,4.16,3.7785,-3.1825,-0.4266,0.3417,0.2904,-0.8429,rough,14.0,1,6.848
140,4.48,3.9987,-3.4921,-0.5110,0.4125,0.1577,-0.9704,rough,14.0,1,6.769
150,4.80,4.0744,-3.7484,-0.5646,0.3352,0.1827,-1.3855,rough,14.0,1,6.642
160,5.12,3.9582,-4.1010,-0.6491,0.3461,0.2113,-1.8902,slope,18.0,1,6.316
170,5.44,3.7968,-4.4573,-0.6934,0.3182,0.0678,-2.1056,rough,14.0,1,5.959
180,5.76,3.5705,-4.7548,-0.7229,0.2283,0.0277,-2.2892,rough,14.0,1,5.593
190,6.08,3.2746,-5.0296,-0.7490,0.2739,0.1396,-2.3817,rough,14.0,1,5.190
200,6.40,2.9331,-5.2413,-0.7829,0.4975,0.1651,-2.4535,rough,14.0,1,4.793
210,6.72,2.7226,-5.3592,-0.7454,0.5917,-0.5088,-2.8460,rough,14.0,1,4.556
220,7.04,2.4908,-5.4105,-0.6639,0.4181,-0.5021,-2.8950,rough,14.0,1,4.349
230,7.36,2.3166,-5.4050,-0.5453,0.4800,-0.7522,-2.9116,rough,14.0,1,4.226
240,7.68,2.1328,-5.4764,-0.3920,0.0976,-0.7802,-2.5552,rough,14.0,1,4.046
250,8.00,1.9458,-5.6004,-0.1846,-0.1184,-0.7394,-2.2920,rough,14.0,1,3.826
260,8.32,1.7571,-5.7698,-0.0005,-0.0261,-0.6555,-2.2213,rough,14.0,1,3.573
270,8.64,1.5580,-5.9812,0.1978,0.0141,-0.6113,-2.0888,rough,14.0,1,3.283
280,8.96,1.4370,-6.2218,0.4151,-0.0909,-0.7772,-2.0147,rough,14.0,1,3.027
290,9.28,1.3535,-6.4253,0.6574,-0.1313,-0.9125,-2.0002,rough,14.0,1,2.825
300,9.60,1.3058,-6.5834,0.8218,-0.4532,-0.7933,-1.6899,rough,14.0,1,2.684
310,9.92,1.3373,-6.6712,0.8769,-0.6266,-0.6921,-1.4316,rough,14.0,1,2.651
320,10.24,1.4794,-6.6574,0.7543,-0.6805,-0.4485,-1.1058,rough,14.0,1,2.771
330,10.56,1.6271,-6.5377,0.5700,-0.6266,-0.4249,-1.1114,rough,14.0,1,2.961
340,10.88,1.6987,-6.4009,0.4307,-0.5432,-0.5437,-1.2244,rough,14.0,1,3.102
350,11.20,1.7562,-6.2958,0.3223,-0.4954,-0.5719,-1.2758,rough,14.0,1,3.213
360,11.52,1.8594,-6.3104,0.2875,-0.6366,-0.4384,-0.9619,slope,18.0,1,3.284
370,11.84,2.0680,-6.3587,0.2726,-0.6396,-0.3735,-0.7142,slope,18.0,1,3.421
380,12.16,2.2751,-6.3805,0.2376,-0.6447,-0.4514,-0.9132,rough,14.0,1,3.580
390,12.48,2.4150,-6.3472,0.1508,-0.4903,-0.6952,-1.2748,rough,14.0,1,3.715
400,12.80,2.5403,-6.2543,0.0092,-0.3986,-0.7340,-1.4692,rough,14.0,1,3.871
410,13.12,2.7002,-6.1079,-0.1940,-0.4060,-0.6928,-1.4105,rough,14.0,1,4.084
420,13.44,2.7727,-5.9366,-0.3494,-0.4391,-0.7261,-1.2502,rough,14.0,1,4.240
430,13.76,2.8192,-5.7923,-0.4855,-0.1999,-0.6986,-1.4544,rough,14.0,1,4.362
440,14.08,2.8486,-5.7873,-0.4927,-0.1935,-0.6766,-1.3763,rough,14.0,1,4.389
450,14.40,2.9139,-5.9227,-0.4024,-0.1889,-0.6747,-1.3271,rough,14.0,1,4.365
460,14.72,2.9700,-6.0186,-0.3194,-0.1038,-0.7131,-1.3495,rough,14.0,1,4.360
470,15.04,3.0254,-6.1257,-0.2576,-0.1315,-0.6854,-1.4464,rough,14.0,1,4.351
480,15.36,3.0698,-6.2794,-0.1545,-0.2479,-0.6898,-1.4900,rough,14.0,1,4.313
490,15.68,3.0813,-6.3976,-0.0529,-0.2208,-0.7570,-1.5036,rough,14.0,1,4.268
500,16.00,3.1046,-6.4813,0.0017,-0.2960,-0.7536,-1.5157,rough,14.0,1,4.251
510,16.32,3.1213,-6.5756,0.0553,-0.3625,-0.6684,-1.5127,rough,14.0,1,4.225
520,16.64,3.1452,-6.7206,0.1398,-0.4659,-0.5959,-1.5441,rough,14.0,1,4.188
530,16.96,3.1552,-6.8872,0.2520,-0.4812,-0.6411,-1.5437,rough,14.0,1,4.136
540,17.28,3.1696,-7.0738,0.3636,-0.5429,-0.6258,-1.5351,slope,18.0,1,4.087
550,17.60,3.2062,-7.3275,0.4827,-0.6212,-0.5301,-1.5104,slope,18.0,1,4.050
560,17.92,3.2476,-7.6306,0.6544,-0.6075,-0.5848,-1.5568,slope,18.0,1,4.025
570,18.24,3.2500,-7.9423,0.8780,-0.4356,-0.7085,-1.7372,slope,18.0,1,3.983
580,18.56,3.2118,-8.1745,1.0819,-0.4212,-0.7364,-1.7395,rough,14.0,1,3.928
590,18.88,3.2192,-8.3262,1.1957,-0.4976,-0.7206,-1.6028,rough,14.0,1,3.931
600,19.20,3.2941,-8.3861,1.2000,-0.4822,-0.7247,-1.5853,rough,14.0,1,4.006
610,19.52,3.4180,-8.3637,1.0975,-0.3142,-0.7757,-1.7814,rough,14.0,1,4.130
620,19.84,3.5564,-8.2479,0.9110,-0.3505,-0.7290,-1.7396,rough,14.0,1,4.270
630,20.16,3.6531,-8.1201,0.7715,-0.5605,-0.4544,-1.2247,rough,14.0,1,4.371
640,20.48,3.7737,-8.0504,0.6650,-0.5838,-0.4334,-1.1944,rough,14.0,1,4.496
650,20.80,3.8636,-8.0574,0.6260,-0.5003,-0.4180,-1.2618,rough,14.0,1,4.585
660,21.12,3.9489,-8.1597,0.6570,-0.4788,-0.4123,-1.2687,rough,14.0,1,4.665
670,21.44,4.0472,-8.3708,0.7126,-0.4739,-0.3177,-1.2673,rough,14.0,1,4.759
680,21.76,4.1473,-8.5998,0.7656,-0.5191,-0.2392,-1.3884,rough,14.0,1,4.865
690,22.08,4.2559,-8.8089,0.7481,-0.6307,-0.2605,-1.6578,rough,14.0,1,4.988
700,22.40,4.2961,-8.9707,0.7649,-0.6605,-0.3641,-1.8420,rough,14.0,1,5.046
710,22.72,4.2875,-9.0968,0.8011,-0.6464,-0.4759,-1.9830,rough,14.0,1,5.054
720,23.04,4.2747,-9.1865,0.8266,-0.5742,-0.6175,-2.0853,rough,14.0,1,5.056
730,23.36,4.3131,-9.2557,0.8041,-0.4426,-0.6583,-2.2636,rough,14.0,1,5.105
740,23.68,4.3022,-9.3219,0.8389,-0.3354,-0.7328,-2.4118,rough,14.0,1,5.107
750,24.00,4.2866,-9.3759,0.8678,-0.4150,-0.7285,-2.2946,rough,14.0,1,5.102
760,24.32,4.2902,-9.4192,0.8725,-0.5148,-0.6355,-2.1011,rough,14.0,1,5.114
770,24.64,4.2858,-9.4697,0.8923,-0.4361,-0.6944,-2.1939,rough,14.0,2,9.374
780,24.96,4.2704,-9.5204,0.9205,-0.3123,-0.7858,-2.3762,rough,14.0,2,9.391
790,25.28,4.2556,-9.5548,0.9380,-0.2165,-0.8370,-2.4874,rough,14.0,2,9.400
800,25.60,4.2689,-9.5767,0.9390,-0.1083,-0.8544,-2.6735,rough,14.0,2,9.424
810,25.92,4.2749,-9.5874,0.9377,-0.0760,-0.8457,-2.7085,rough,14.0,2,9.435
820,26.24,4.2759,-9.5982,0.9412,-0.0628,-0.8474,-2.7309,rough,14.0,2,9.442
830,26.56,4.2776,-9.6076,0.9434,-0.0480,-0.8479,-2.7539,rough,14.0,2,9.449
840,26.88,4.2794,-9.6155,0.9448,-0.0305,-0.8481,-2.7800,rough,14.0,2,9.455
850,27.20,4.2850,-9.6246,0.9415,0.0502,-0.8474,-2.8838,rough,14.0,2,9.465
860,27.52,4.2924,-9.6301,0.9347,0.1640,-0.8425,-3.0363,rough,14.0,2,9.475
870,27.84,4.3150,-9.6208,0.9083,0.3207,-0.8055,3.0509,rough,14.0,2,9.487
880,28.16,4.3362,-9.6032,0.8827,0.4633,-0.7097,2.7956,rough,14.0,2,9.493
890,28.48,4.3068,-9.5779,0.9004,0.5366,-0.7277,2.7005,rough,14.0,2,9.455
900,28.80,4.2951,-9.5457,0.9025,0.6056,-0.6740,2.5945,rough,14.0,2,9.426
910,29.12,4.2837,-9.5055,0.9001,0.6614,-0.5991,2.4967,rough,14.0,2,9.393
920,29.44,4.2739,-9.4482,0.8963,0.7438,-0.5332,2.3550,rough,14.0,2,9.351
930,29.76,4.2720,-9.3704,0.8828,0.8122,-0.4558,2.1955,rough,14.0,2,9.304
940,30.08,4.2907,-9.2798,0.8433,0.8202,-0.3596,2.0776,rough,14.0,2,9.267
950,30.40,4.3200,-9.1794,0.7838,0.7435,-0.2499,2.0302,rough,14.0,2,9.233
960,30.72,4.3331,-9.0567,0.7445,0.7286,-0.1722,2.0456,rough,14.0,2,9.175
970,31.04,4.2852,-8.9085,0.7546,0.7064,-0.1731,2.0562,rough,14.0,2,9.053
980,31.36,4.2026,-8.7273,0.7707,0.6699,-0.1556,2.0470,rough,14.0,2,8.885
990,31.68,4.0512,-8.4900,0.7672,0.5986,0.0564,2.1989,rough,14.0,2,8.631
1000,32.00,3.9015,-8.1873,0.6911,0.6560,0.1772,2.3066,slope,18.0,2,8.346
1010,32.32,3.6315,-7.8237,0.5787,0.6986,0.2146,2.3213,slope,18.0,2,7.930
1020,32.64,3.4006,-7.4009,0.4167,0.7979,0.1021,2.3914,rough,14.0,2,7.526
1030,32.96,3.1757,-7.0541,0.3506,0.7375,-0.3358,2.6205,rough,14.0,2,7.170
1040,33.28,2.8688,-6.7475,0.3202,0.7306,-0.2351,2.8603,rough,14.0,2,6.762
1050,33.60,2.6627,-6.4451,0.1291,0.7839,-0.3032,2.9510,rough,14.0,2,6.451
1060,33.92,2.5445,-6.0782,-0.1548,0.7403,-0.3894,3.0432,rough,14.0,2,6.207
1070,34.24,2.4888,-5.6457,-0.4857,0.4701,-0.5692,-3.0225,rough,14.0,2,6.017
1080,34.56,2.4262,-5.2706,-0.6491,0.3116,-0.5231,-2.8584,rough,14.0,2,5.861
1090,34.88,2.3879,-5.1601,-0.7212,0.0962,-0.7088,-2.4848,rough,14.0,2,5.799
1100,35.20,2.2496,-5.2755,-0.5883,0.2185,-0.7112,-2.7657,rough,14.0,2,5.690
1110,35.52,2.0076,-5.3752,-0.3629,0.1980,-0.7287,-2.8286,rough,14.0,2,5.481
1120,35.84,1.7138,-5.4534,-0.1595,0.2994,-0.5214,-2.8398,rough,14.0,2,5.220
1130,36.16,1.3691,-5.5297,0.0085,0.4116,-0.5147,-2.9120,rough,14.0,2,4.915
1140,36.48,1.0379,-5.5791,0.1817,0.4486,-0.5270,-3.1023,rough,14.0,2,4.620
1150,36.80,0.7141,-5.4721,0.2532,0.8056,-0.5639,2.9725,rough,14.0,2,4.280
1160,37.12,0.5135,-5.2723,0.2079,0.6731,-0.5779,3.0443,rough,14.0,2,4.023
1170,37.44,0.4074,-5.0730,0.1304,0.4108,-0.7765,-3.0139,rough,14.0,2,3.859
1180,37.76,0.3960,-4.8704,0.0162,-0.0063,-0.8115,-2.3792,rough,14.0,2,3.794
1190,38.08,0.5083,-4.8074,-0.1071,-0.4493,-0.6405,-1.7701,rough,14.0,2,3.888
1200,38.40,0.5674,-4.9009,-0.1004,-0.5861,-0.4860,-1.3905,rough,14.0,2,3.967
1210,38.72,0.6191,-5.0996,-0.0127,-0.5995,-0.4849,-1.4771,rough,14.0,2,4.070
1220,39.04,0.6979,-5.2467,0.0547,-0.5930,-0.7559,-1.5544,rough,14.0,2,4.189
1230,39.36,0.6832,-5.3749,0.1661,-0.5280,-0.7662,-1.5141,rough,14.0,2,4.217
1240,39.68,0.7122,-5.4502,0.2226,-0.5694,-0.7195,-1.4286,rough,14.0,2,4.270
1250,40.00,0.7652,-5.4786,0.2254,-0.5632,-0.6722,-1.3641,rough,14.0,2,4.330
1260,40.32,0.8544,-5.4771,0.1774,-0.5372,-0.5749,-1.2656,rough,14.0,3,11.659
1270,40.64,0.8980,-5.3713,0.0677,-0.4289,-0.6433,-1.3048,rough,14.0,3,11.562
1280,40.96,0.9285,-5.1752,-0.0902,-0.3932,-0.5255,-1.2605,rough,14.0,3,11.373
1290,41.28,0.9897,-4.9529,-0.2500,-0.3947,-0.4326,-1.1019,rough,14.0,3,11.165
1300,41.60,1.0300,-4.7880,-0.3587,-0.2387,-0.4494,-1.2693,rough,14.0,3,11.009
1310,41.92,1.0902,-4.6199,-0.4328,-0.2460,-0.4341,-1.4849,rough,14.0,3,10.855
1320,42.24,1.1304,-4.3929,-0.5266,-0.3891,-0.3941,-1.4174,rough,14.0,3,10.640
1330,42.56,1.1756,-4.2174,-0.5932,-0.3768,-0.2814,-1.5539,rough,14.0,3,10.477
1340,42.88,1.2387,-4.0938,-0.6426,-0.3208,-0.3633,-1.9506,rough,14.0,3,10.370
1350,43.20,1.1594,-4.1109,-0.6162,-0.1456,-0.3990,-2.4308,rough,14.0,3,10.370
1360,43.52,1.0039,-4.2303,-0.5302,0.0044,-0.4473,-2.7487,rough,14.0,3,10.457
1370,43.84,0.8318,-4.3134,-0.4407,0.0828,-0.4719,-2.9568,rough,14.0,3,10.508
1380,44.16,0.6647,-4.3214,-0.3548,0.1833,-0.5131,3.0699,rough,14.0,3,10.488
1390,44.48,0.4746,-4.2616,-0.2634,0.2890,-0.4135,2.8999,rough,14.0,3,10.401
1400,44.80,0.3194,-4.1541,-0.2025,0.3727,-0.3891,2.5650,rough,14.0,3,10.274
1410,45.12,0.1735,-3.9698,-0.1543,0.5335,-0.2828,2.3519,rough,14.0,3,10.074
1420,45.44,0.0162,-3.7336,-0.1218,0.6030,-0.1555,2.1666,rough,14.0,3,9.823
1430,45.76,-0.1812,-3.4114,-0.1416,0.3913,0.1282,1.9853,rough,14.0,3,9.484
1440,46.08,-0.2746,-3.0795,-0.1627,0.3985,0.0200,1.7779,rough,14.0,3,9.146
1450,46.40,-0.2930,-2.7591,-0.1619,0.3666,-0.0686,1.5681,rough,14.0,3,8.825
1460,46.72,-0.2407,-2.4052,-0.1276,0.3152,-0.1541,1.3558,rough,14.0,3,8.476
1470,47.04,-0.1498,-2.0213,-0.0645,0.1785,-0.2641,1.2763,slope,18.0,3,8.102
1480,47.36,-0.0525,-1.5575,0.0413,0.0090,-0.2635,1.4900,slope,18.0,3,7.652
1490,47.68,-0.0449,-1.0504,0.1302,-0.0485,-0.1382,1.6011,slope,18.0,3,7.150
1500,48.00,-0.0806,-0.5106,0.1782,-0.0393,-0.0492,1.7108,slope,18.0,3,6.610
1510,48.32,-0.1721,0.0433,0.1965,-0.0275,-0.0248,1.7622,slope,18.0,3,6.048
1520,48.64,-0.2763,0.5951,0.2286,-0.0049,-0.0720,1.7647,slope,18.0,3,5.488
1530,48.96,-0.3767,1.1388,0.2839,-0.0065,-0.1345,1.7355,slope,18.0,3,4.936
1540,49.28,-0.4772,1.6909,0.3511,-0.0620,-0.0701,1.7258,slope,18.0,3,4.376
1550,49.60,-0.5664,2.1638,0.3829,-0.1266,-0.0306,1.7317,rough,14.0,3,3.896
1560,49.92,-0.6248,2.5422,0.4045,-0.1140,-0.0877,1.7401,rough,14.0,3,3.514
1570,50.24,-0.6752,2.9240,0.4355,-0.0355,-0.1142,1.7376,rough,14.0,3,3.129
1580,50.56,-0.6899,3.3616,0.4227,0.2307,0.0661,1.7316,rough,14.0,3,2.692
1590,50.88,-0.7032,3.8083,0.3503,0.4477,0.2180,1.8215,rough,14.0,3,2.247
1600,51.20,-0.7736,4.2229,0.2210,0.3967,0.2895,1.8278,rough,14.0,3,1.827
1610,51.52,-0.8569,4.5942,0.0413,0.4403,0.5047,1.9071,rough,14.0,3,1.450
1620,51.84,-0.9294,4.9654,-0.1760,0.6061,0.4047,2.0832,slope,18.0,3,1.076
1630,52.16,-1.0400,5.3042,-0.3388,0.6834,-0.0241,2.2901,slope,18.0,0,10.183
1640,52.48,-1.1664,5.5390,-0.3512,0.5889,-0.4630,2.6366,rough,14.0,0,10.450
1650,52.80,-1.2455,5.6467,-0.3390,0.1337,-0.6816,-2.9030,rough,14.0,0,10.583
1660,53.12,-1.3457,5.6322,-0.2708,-0.1690,-0.6639,-2.3261,rough,14.0,0,10.623
1670,53.44,-1.4211,5.4338,-0.1274,-0.4654,-0.5622,-1.8353,rough,14.0,0,10.495
1680,53.76,-1.4432,5.1632,0.0147,-0.5217,-0.5660,-1.7240,rough,14.0,0,10.280
1690,54.08,-1.4851,4.8311,0.1859,-0.5116,-0.4087,-1.6501,rough,14.0,0,10.029
1700,54.40,-1.4923,4.5252,0.3462,-0.5186,-0.5145,-1.5467,rough,14.0,0,9.783
1710,54.72,-1.4873,4.1402,0.4813,-0.3745,-0.2647,-1.5451,rough,14.0,0,9.471
1720,55.04,-1.4634,3.7605,0.5369,-0.2508,-0.1120,-1.4353,rough,14.0,0,9.156
1730,55.36,-1.4019,3.3221,0.5551,-0.1848,0.0225,-1.4428,rough,14.0,0,8.777
1740,55.68,-1.3421,2.8763,0.5072,-0.1405,0.1339,-1.4231,slope,18.0,0,8.401
1750,56.00,-1.2206,2.4243,0.4175,-0.0225,0.1578,-1.1704,slope,18.0,0,7.985
1760,56.32,-1.0005,1.9998,0.3562,-0.0030,0.0990,-0.9684,slope,18.0,0,7.526
1770,56.64,-0.7245,1.6098,0.3355,0.0950,0.0109,-0.8027,slope,18.0,0,7.054
1780,56.96,-0.3187,1.2314,0.2943,0.0910,0.1027,-0.7030,slope,18.0,0,6.499
1790,57.28,0.0983,0.8855,0.2539,0.0887,0.0646,-0.6691,slope,18.0,0,5.961
1800,57.60,0.5286,0.5373,0.2536,0.1188,-0.0271,-0.6703,slope,18.0,0,5.412
1810,57.92,0.9644,0.1860,0.2697,0.1217,-0.0583,-0.6934,slope,18.0,0,4.858
1820,58.24,1.4138,-0.1944,0.2542,0.0948,0.0931,-0.7155,slope,18.0,0,4.275
1830,58.56,1.8265,-0.5699,0.1987,0.0836,0.1020,-0.7569,slope,18.0,0,3.721
1840,58.88,2.2175,-0.9736,0.1486,0.1261,0.1196,-0.7956,slope,18.0,0,3.160
1850,59.20,2.6049,-1.4104,0.0325,0.1744,0.1807,-0.7864,slope,18.0,0,2.577
1860,59.52,2.9476,-1.8647,-0.1447,0.3698,0.4475,-0.7150,rough,14.0,0,2.008
1870,59.84,3.1935,-2.2004,-0.2908,0.3212,0.1432,-0.7752,slope,18.0,0,1.593
1880,60.16,3.4258,-2.5206,-0.3207,0.4522,-0.0008,-0.8067,slope,18.0,0,1.200
1890,60.48,3.6667,-2.8061,-0.3147,0.4828,-0.0773,-0.8112,slope,18.0,1,7.067
1900,60.80,3.9482,-3.1898,-0.4112,0.3553,0.2631,-1.0120,rough,14.0,1,6.955
1910,61.12,4.0484,-3.4730,-0.4937,0.3603,0.2726,-1.3720,rough,14.0,1,6.817
1920,61.44,4.0168,-3.8237,-0.5882,0.3406,0.2722,-1.6777,slope,18.0,1,6.548
1930,61.76,3.8965,-4.2110,-0.6721,0.3237,0.1297,-1.9412,rough,14.0,1,6.196
1940,62.08,3.7315,-4.5372,-0.7019,0.2963,0.0488,-2.1386,rough,14.0,1,5.857
1950,62.40,3.5018,-4.8373,-0.7327,0.1899,0.0265,-2.3101,rough,14.0,1,5.488
1960,62.72,3.1881,-5.0911,-0.7562,0.3367,0.1396,-2.3925,rough,14.0,1,5.084
1970,63.04,2.9012,-5.2924,-0.7801,0.4368,-0.0030,-2.5413,rough,14.0,1,4.735
1980,63.36,2.6938,-5.3972,-0.7068,0.4863,-0.4914,-2.8423,rough,14.0,1,4.509
1990,63.68,2.4527,-5.4309,-0.6181,0.4655,-0.5919,-2.9240,rough,14.0,1,4.307
2000,64.00,2.2563,-5.4383,-0.4939,0.2045,-0.7744,-2.5921,rough,14.0,1,4.160
2010,64.32,2.0838,-5.5164,-0.3337,-0.1355,-0.7673,-2.2524,rough,14.0,1,3.983
2020,64.64,1.9160,-5.6473,-0.1389,-0.1880,-0.7130,-2.1737,rough,14.0,1,3.772
2030,64.96,1.7067,-5.8507,0.0665,-0.0264,-0.6480,-2.1571,rough,14.0,1,3.480
2040,65.28,1.5154,-6.1216,0.3075,0.0414,-0.6955,-2.1805,rough,14.0,1,3.153
2050,65.60,1.3791,-6.3355,0.5548,-0.0357,-0.8777,-2.1274,rough,14.0,1,2.906
2060,65.92,1.2946,-6.5045,0.7632,-0.3761,-0.8529,-1.7866,rough,14.0,1,2.728
2070,66.24,1.2935,-6.6196,0.8559,-0.5884,-0.7132,-1.5452,rough,14.0,1,2.651
2080,66.56,1.4093,-6.6469,0.8003,-0.7315,-0.4971,-1.1500,rough,14.0,1,2.722
2090,66.88,1.5916,-6.5564,0.5957,-0.6830,-0.3716,-0.9809,rough,14.0,1,2.921
2100,67.20,1.7005,-6.3795,0.4110,-0.5857,-0.4976,-1.1142,rough,14.0,1,3.117
2110,67.52,1.7696,-6.2563,0.2949,-0.5150,-0.5421,-1.2157,rough,14.0,1,3.249
2120,67.84,1.8903,-6.2633,0.2509,-0.6514,-0.4252,-0.8956,slope,18.0,1,3.337
2130,68.16,2.1206,-6.3211,0.2210,-0.6432,-0.3680,-0.7578,slope,18.0,1,3.486
2140,68.48,2.3133,-6.3446,0.1888,-0.6041,-0.5265,-1.0166,rough,14.0,1,3.631
2150,68.80,2.4434,-6.2983,0.0947,-0.4084,-0.7675,-1.4739,rough,14.0,1,3.765
2160,69.12,2.5854,-6.1729,-0.0860,-0.3348,-0.7633,-1.5828,rough,14.0,1,3.953
2170,69.44,2.7142,-5.9708,-0.3107,-0.4517,-0.7463,-1.3257,rough,14.0,1,4.173
2180,69.76,2.7531,-5.7707,-0.4840,-0.3880,-0.7176,-1.3305,rough,14.0,1,4.321
2190,70.08,2.7857,-5.6287,-0.5876,-0.3715,-0.5593,-1.2760,rough,14.0,1,4.433
2200,70.40,2.7978,-5.5633,-0.6375,-0.1738,-0.4693,-1.4550,rough,14.0,1,4.483
2210,70.72,2.8286,-5.6363,-0.5895,-0.1155,-0.5126,-1.4322,rough,14.0,1,4.463
2220,71.04,2.8757,-5.8274,-0.4733,-0.1573,-0.7274,-1.4011,rough,14.0,1,4.387
2230,71.36,2.9137,-5.9829,-0.3419,-0.0901,-0.7094,-1.4418,rough,14.0,1,4.332
2240,71.68,2.9493,-6.0591,-0.2922,-0.1162,-0.7095,-1.4345,rough,14.0,1,4.321
2250,72.00,2.9889,-6.1667,-0.2177,-0.1351,-0.7264,-1.4689,rough,14.0,1,4.298
2260,72.32,3.0267,-6.3225,-0.1154,-0.2446,-0.7202,-1.5045,rough,14.0,1,4.254
2270,72.64,3.0360,-6.3938,-0.0450,-0.2035,-0.7582,-1.5253,rough,14.0,1,4.229
2280,72.96,3.0431,-6.3984,-0.0423,-0.1874,-0.7622,-1.5498,rough,14.0,1,4.233
2290,73.28,3.0476,-6.3391,-0.0999,-0.1910,-0.7512,-1.5589,rough,14.0,1,4.265
2300,73.60,3.0482,-6.2687,-0.1565,-0.2110,-0.7287,-1.5118,rough,14.0,1,4.299
2310,73.92,3.0549,-6.2400,-0.1808,-0.1986,-0.6884,-1.5147,rough,14.0,1,4.319
2320,74.24,3.0516,-6.2023,-0.2072,-0.1679,-0.6805,-1.5293,rough,14.0,1,4.335
2330,74.56,3.0234,-6.0084,-0.3377,0.0297,-0.7468,-1.5589,rough,14.0,1,4.410
2340,74.88,2.9901,-5.7766,-0.5198,0.1327,-0.7514,-1.5177,rough,14.0,1,4.510
2350,75.20,2.9778,-5.6207,-0.6208,0.2265,-0.5134,-1.6148,rough,14.0,1,4.591
2360,75.52,2.9618,-5.6165,-0.6253,0.2505,-0.5158,-1.6523,rough,14.0,1,4.581
2370,75.84,2.9594,-5.7457,-0.5419,0.1887,-0.6692,-1.6695,rough,14.0,1,4.503
2380,76.16,2.9562,-5.8478,-0.4737,0.1337,-0.7645,-1.6416,rough,14.0,1,4.442
2390,76.48,2.9633,-5.8807,-0.4455,0.0488,-0.7392,-1.5258,rough,14.0,2,6.540
2400,76.80,2.9738,-5.8704,-0.4553,0.0717,-0.7520,-1.5359,rough,14.0,2,6.547
2410,77.12,2.9790,-5.8299,-0.4895,0.1060,-0.7511,-1.5720,rough,14.0,2,6.540
2420,77.44,2.9803,-5.8589,-0.4651,0.1043,-0.7502,-1.5848,rough,14.0,2,6.550
2430,77.76,2.9781,-5.8511,-0.4725,0.0998,-0.7507,-1.5770,rough,14.0,2,6.545
2440,78.08,2.9785,-5.8385,-0.4840,0.1154,-0.7488,-1.5990,rough,14.0,2,6.542
2450,78.40,2.9749,-5.8384,-0.4851,0.1007,-0.7505,-1.5803,rough,14.0,2,6.538
2460,78.72,2.9765,-5.8348,-0.4879,0.1223,-0.7481,-1.6101,rough,14.0,2,6.539
2470,79.04,2.9736,-5.8357,-0.4874,0.1172,-0.7487,-1.6025,rough,14.0,2,6.536
2480,79.36,2.9736,-5.8368,-0.4864,0.1119,-0.7494,-1.5946,rough,14.0,2,6.537
2490,79.68,2.9746,-5.8363,-0.4867,0.1116,-0.7494,-1.5941,rough,14.0,2,6.538
2500,80.00,2.9736,-5.8366,-0.4866,0.1128,-0.7492,-1.5960,rough,14.0,2,6.537
2510,80.32,2.9747,-5.8363,-0.4867,0.1129,-0.7493,-1.5961,rough,14.0,2,6.538
2520,80.64,2.9731,-5.8361,-0.4871,0.1104,-0.7495,-1.5925,rough,14.0,2,6.536
2530,80.96,2.9747,-5.8369,-0.4861,0.1144,-0.7491,-1.5984,rough,14.0,2,6.538
2540,81.28,2.9731,-5.8358,-0.4874,0.1115,-0.7494,-1.5941,rough,14.0,2,6.536
2550,81.60,2.9749,-5.8368,-0.4862,0.1157,-0.7489,-1.6003,rough,14.0,2,6.538
2560,81.92,2.9733,-5.8360,-0.4872,0.1136,-0.7492,-1.5971,rough,14.0,2,6.536
2570,82.24,2.9741,-5.8371,-0.4860,0.1130,-0.7492,-1.5963,rough,14.0,2,6.537
2580,82.56,2.9733,-5.8357,-0.4875,0.1146,-0.7491,-1.5986,rough,14.0,2,6.536
2590,82.88,2.9742,-5.8369,-0.4862,0.1142,-0.7491,-1.5981,rough,14.0,2,6.537
2600,83.20,2.9734,-5.8357,-0.4874,0.1165,-0.7488,-1.6015,rough,14.0,2,6.536
2610,83.52,2.9736,-5.8368,-0.4864,0.1116,-0.7494,-1.5943,rough,14.0,2,6.537
2620,83.84,2.9746,-5.8363,-0.4867,0.1116,-0.7494,-1.5941,rough,14.0,2,6.538
2630,84.16,2.9736,-5.8366,-0.4866,0.1128,-0.7492,-1.5960,rough,14.0,2,6.537
2640,84.48,2.9741,-5.8357,-0.4873,0.1160,-0.7489,-1.6007,rough,14.0,3,12.510
2650,84.80,2.9748,-5.7804,-0.5262,0.1177,-0.6826,-1.6032,rough,14.0,3,12.458
2660,85.12,2.9576,-5.6122,-0.6267,0.2327,-0.5326,-1.5987,rough,14.0,3,12.293
2670,85.44,2.9453,-5.4063,-0.7439,0.2636,-0.5218,-1.5687,rough,14.0,3,12.094
2680,85.76,2.9378,-5.2441,-0.7973,0.2886,-0.2690,-1.6200,rough,14.0,3,11.938
2690,86.08,2.9391,-5.0869,-0.8321,0.2644,-0.0518,-1.7633,rough,14.0,3,11.790
2700,86.40,2.9613,-4.9396,-0.8316,0.2112,0.0503,-2.0549,rough,14.0,3,11.659
2710,86.72,2.9660,-4.9692,-0.8305,0.1532,0.2120,-2.6579,rough,14.0,3,11.688
2720,87.04,2.9263,-5.0282,-0.8352,0.1183,0.2044,-2.9581,rough,14.0,3,11.730
2730,87.36,2.7635,-5.0564,-0.8478,0.0730,-0.0248,-3.0970,rough,14.0,3,11.704
2740,87.68,2.4788,-5.0606,-0.7955,0.1276,-0.3411,-3.1107,rough,14.0,3,11.621
2750,88.00,2.2072,-4.9922,-0.7113,0.4306,-0.5750,3.0525,rough,14.0,3,11.478
2760,88.32,1.9466,-4.9326,-0.5736,0.5500,-0.4827,2.9552,rough,14.0,3,11.351
2770,88.64,1.5738,-4.8279,-0.4790,0.5661,-0.2323,2.9365,rough,14.0,3,11.159
2780,88.96,1.1501,-4.7147,-0.4065,0.5229,-0.0598,2.9433,rough,14.0,3,10.960
2790,89.28,0.8365,-4.6089,-0.3512,0.5311,-0.3833,2.6908,rough,14.0,3,10.800
2800,89.60,0.5606,-4.4263,-0.2849,0.4499,-0.3728,2.5956,rough,14.0,3,10.576
2810,89.92,0.2680,-4.2161,-0.1405,0.4719,-0.4320,2.5234,rough,14.0,3,10.330
