step,time_s,x,y,z,roll,pitch,yaw,terrain,speed,target_idx,dist_to_target
10,0.32,-0.0060,-0.0582,0.1767,0.0019,-0.0137,0.0009,flat,18.0,0,5.403
20,0.64,0.2599,-0.0577,0.1810,-0.0003,0.0086,-0.0280,flat,18.0,0,5.197
30,0.96,0.6297,-0.0785,0.1797,-0.0001,0.0002,-0.2958,flat,18.0,0,4.906
40,1.28,1.0598,-0.2544,0.1799,-0.0019,-0.0020,-0.5703,flat,18.0,0,4.474
50,1.60,1.4618,-0.5515,0.1798,-0.0033,-0.0042,-0.7474,flat,18.0,0,3.980
60,1.92,1.8336,-0.9322,0.1799,0.0000,-0.0001,-0.8516,flat,18.0,0,3.448
70,2.24,2.1911,-1.3617,0.1799,-0.0001,-0.0000,-0.8939,flat,18.0,0,2.891
80,2.56,2.5483,-1.8026,0.1799,0.0001,0.0000,-0.8763,flat,18.0,0,2.327
90,2.88,2.8940,-2.2026,0.1799,0.0002,0.0001,-0.8271,flat,18.0,0,1.802
100,3.20,3.2067,-2.5273,0.1799,0.0002,0.0001,-0.7731,flat,18.0,0,1.353
110,3.52,3.4794,-2.7797,0.1799,0.0001,-0.0000,-0.7124,flat,18.0,1,0.981
120,3.84,3.7571,-3.0541,0.1798,0.0008,-0.0001,-0.9421,flat,18.0,1,6.932
130,4.16,3.9785,-3.4330,0.1798,0.0012,-0.0000,-1.3651,flat,18.0,1,6.798
140,4.48,4.0384,-3.8741,0.1800,0.0004,0.0001,-1.8272,flat,18.0,1,6.529
150,4.80,3.8882,-4.2948,0.1799,-0.0001,-0.0001,-2.1564,flat,18.0,1,6.134
160,5.12,3.5874,-4.6664,0.1799,-0.0002,0.0000,-2.3770,flat,18.0,1,5.664
170,5.44,3.1974,-4.9888,0.1799,-0.0001,-0.0000,-2.5528,flat,18.0,1,5.158
180,5.76,2.7410,-5.2611,0.1799,-0.0001,-0.0001,-2.6817,flat,18.0,1,4.635
190,6.08,2.2408,-5.4988,0.1824,-0.0120,-0.0028,-2.7269,flat,18.0,1,4.107
200,6.40,1.7241,-5.7329,0.1867,-0.0367,0.0064,-2.7136,flat,18.0,1,3.578
210,6.72,1.2384,-5.9790,0.1879,-0.0273,0.0078,-2.6288,flat,18.0,1,3.072
220,7.04,0.7890,-6.2559,0.1812,-0.0076,0.0014,-2.5127,flat,18.0,1,2.579
230,7.36,0.3954,-6.5641,0.1861,-0.0107,-0.0314,-2.3905,flat,18.0,1,2.104
240,7.68,0.0633,-6.9222,0.2002,-0.0541,-0.0290,-2.2779,slope,18.0,1,1.627
250,8.00,-0.2181,-7.2801,0.2042,-0.0652,0.0230,-2.1664,slope,18.0,1,1.181
260,8.32,-0.4491,-7.6417,0.1899,-0.0261,0.0380,-2.0690,flat,18.0,2,4.663
270,8.64,-0.6834,-8.0696,0.1799,-0.0039,-0.0032,-2.0851,flat,18.0,2,4.881
280,8.96,-0.8955,-8.4271,0.1798,0.0001,0.0001,-2.1605,flat,18.0,2,5.084
290,9.28,-1.0942,-8.7024,0.1787,0.0049,0.0000,-2.2794,flat,18.0,2,5.243
300,9.60,-1.2802,-8.9027,0.1842,-0.0123,-0.0085,-2.4265,flat,18.0,2,5.354
310,9.92,-1.4597,-9.0490,0.1866,-0.0207,-0.0002,-2.5607,flat,18.0,2,5.427
320,10.24,-1.6331,-9.1539,0.1865,-0.0241,0.0044,-2.6811,flat,18.0,2,5.471
330,10.56,-1.8124,-9.2287,0.1858,-0.0257,0.0055,-2.7952,flat,18.0,2,5.492
340,10.88,-1.9674,-9.2812,0.1866,-0.0345,-0.0016,-2.8861,flat,18.0,2,5.503
350,11.20,-2.1051,-9.3157,0.1821,-0.0116,-0.0014,-2.9599,flat,18.0,2,5.506
360,11.52,-2.2537,-9.3562,0.1877,-0.0407,-0.0010,3.1054,flat,18.0,2,5.516
370,11.84,-2.4001,-9.3679,0.1886,-0.0448,-0.0018,2.8936,flat,18.0,2,5.502
380,12.16,-2.5409,-9.3467,0.1895,-0.0493,-0.0018,2.7266,flat,18.0,2,5.460
390,12.48,-2.6798,-9.2980,0.1908,-0.0555,-0.0021,2.5916,slope,18.0,2,5.394
400,12.80,-2.8148,-9.2230,0.1929,-0.0458,-0.0290,2.4826,slope,18.0,2,5.306
410,13.12,-2.9606,-9.1116,0.1932,-0.0446,-0.0198,2.3920,flat,18.0,2,5.184
420,13.44,-3.1248,-8.9542,0.1965,-0.0445,0.0201,2.3196,flat,18.0,2,5.020
430,13.76,-3.2961,-8.7581,0.1920,-0.0434,0.0099,2.2445,flat,18.0,2,4.821
440,14.08,-3.4879,-8.5073,0.1860,-0.0221,0.0083,2.1877,flat,18.0,2,4.575
450,14.40,-3.7000,-8.1955,0.1805,-0.0035,0.0011,2.1410,flat,18.0,2,4.279
460,14.72,-3.9383,-7.8154,0.1844,-0.0115,-0.0173,2.1165,flat,18.0,2,3.934
470,15.04,-4.2144,-7.3539,0.1985,0.0037,-0.0253,2.1128,flat,18.0,2,3.542
480,15.36,-4.4600,-6.9367,0.2250,-0.0268,-0.0025,1.9737,flat,18.0,2,3.223
490,15.68,-4.6255,-6.4939,0.2144,-0.0272,0.0262,1.5905,flat,18.0,2,2.889
500,16.00,-4.6042,-6.0157,0.1916,-0.0307,0.0479,1.2151,flat,18.0,2,2.464
510,16.32,-4.4069,-5.5404,0.1798,0.0009,0.0008,1.1201,flat,18.0,2,1.959
520,16.64,-4.1897,-5.1234,0.1799,-0.0001,0.0001,1.0456,flat,18.0,2,1.494
530,16.96,-3.9781,-4.7769,0.1756,0.0274,-0.0002,1.0235,flat,18.0,2,1.091
540,17.28,-3.7720,-4.4390,0.1826,0.0026,-0.0184,1.0095,flat,18.0,3,10.851
550,17.60,-3.5095,-4.0257,0.1901,0.0527,-0.0034,1.1042,flat,18.0,3,10.385
560,17.92,-3.2923,-3.5450,0.1855,0.0314,0.0030,1.2425,flat,18.0,3,9.866
570,18.24,-3.1388,-3.0330,0.1821,0.0140,0.0011,1.4377,flat,18.0,3,9.332
580,18.56,-3.0881,-2.5475,0.1878,-0.0228,-0.0707,1.6250,flat,18.0,3,8.848
590,18.88,-3.1224,-2.0439,0.1992,-0.0572,-0.0318,1.5249,slope,18.0,3,8.369
600,19.20,-3.0829,-1.5014,0.1944,-0.0511,0.0118,1.4642,slope,18.0,3,7.836
610,19.52,-3.0205,-0.9709,0.1866,-0.0243,0.0231,1.4695,flat,18.0,3,7.309
620,19.84,-2.9675,-0.4434,0.1799,0.0001,0.0001,1.4799,flat,18.0,3,6.788
630,20.16,-2.9061,0.0879,0.1798,-0.0000,0.0002,1.3513,flat,18.0,3,6.263
640,20.48,-2.7761,0.6224,0.1810,0.0117,-0.0047,1.2918,flat,18.0,3,5.715
650,20.80,-2.6186,1.1301,0.2083,0.0143,-0.0502,1.2593,slope,18.0,3,5.184
660,21.12,-2.4447,1.6838,0.2168,-0.0075,0.0311,1.2635,flat,18.0,3,4.604
670,21.44,-2.2731,2.2337,0.1890,-0.0153,0.0580,1.2582,slope,18.0,3,4.028
680,21.76,-2.0958,2.7609,0.1790,0.0048,-0.0002,1.2388,flat,18.0,3,3.472
690,22.08,-1.9095,3.2959,0.1799,0.0001,-0.0008,1.2156,flat,18.0,3,2.905
700,22.40,-1.7189,3.8008,0.1786,0.0028,-0.0049,1.2060,transition,15.0,3,2.366
710,22.72,-1.5503,4.2368,0.1852,0.0114,-0.0246,1.2034,slope,18.0,3,1.899
720,23.04,-1.3597,4.6829,0.2000,0.1109,0.0056,1.2143,slope,18.0,3,1.416
730,23.36,-1.2243,5.0327,0.2242,0.1180,-0.1159,1.1976,slope,18.0,3,1.042
740,23.68,-1.1077,5.2760,0.2717,0.1684,-0.2129,1.1168,slope,18.0,0,10.194
750,24.00,-1.0315,5.3479,0.2912,0.2102,-0.2404,0.8988,slope,18.0,0,10.216
760,24.32,-0.9575,5.3226,0.2856,0.2678,-0.1465,0.4800,rough,14.0,0,10.156
770,24.64,-0.7557,5.3424,0.2805,0.3480,-0.0157,0.2582,rough,14.0,0,10.072
780,24.96,-0.5260,5.3807,0.2881,0.3803,-0.0124,0.2065,rough,14.0,0,9.994
790,25.28,-0.3003,5.4109,0.2928,0.3853,-0.0274,0.1430,rough,14.0,0,9.915
800,25.60,-0.0151,5.4253,0.2993,0.3779,-0.0448,0.0273,slope,18.0,0,9.801
810,25.92,0.3109,5.3421,0.2924,0.3418,-0.0468,-0.2536,rough,14.0,0,9.588
820,26.24,0.3518,5.3127,0.2863,0.2830,-0.0474,-0.0466,rough,14.0,0,9.545
830,26.56,0.3513,5.3046,0.2845,0.2773,-0.0498,-0.0408,rough,14.0,0,9.537
840,26.88,0.3502,5.2988,0.2827,0.2722,-0.0506,-0.0310,rough,14.0,0,9.533
850,27.20,0.3504,5.2956,0.2820,0.2697,-0.0520,-0.0267,rough,14.0,0,9.530
860,27.52,0.3499,5.2934,0.2814,0.2670,-0.0544,-0.0162,rough,14.0,0,9.528
870,27.84,0.3501,5.2926,0.2810,0.2665,-0.0530,-0.0169,rough,14.0,0,9.527
880,28.16,0.3500,5.2919,0.2807,0.2658,-0.0533,-0.0144,rough,14.0,0,9.526
890,28.48,0.3501,5.2913,0.2807,0.2654,-0.0538,-0.0150,rough,14.0,0,9.526
900,28.80,0.3502,5.2910,0.2806,0.2651,-0.0538,-0.0140,rough,14.0,0,9.526
910,29.12,0.3502,5.2908,0.2806,0.2651,-0.0540,-0.0152,rough,14.0,0,9.525
920,29.44,0.3502,5.2907,0.2805,0.2649,-0.0536,-0.0147,rough,14.0,0,9.525
930,29.76,0.3502,5.2907,0.2804,0.2648,-0.0536,-0.0141,rough,14.0,0,9.525
940,30.08,0.3499,5.2905,0.2806,0.2643,-0.0566,-0.0090,rough,14.0,0,9.525
950,30.40,0.3500,5.2908,0.2804,0.2648,-0.0530,-0.0131,rough,14.0,0,9.525
960,30.72,0.3502,5.2906,0.2805,0.2649,-0.0539,-0.0141,rough,14.0,0,9.525
970,31.04,0.3498,5.2905,0.2804,0.2641,-0.0552,-0.0080,rough,14.0,0,9.525
980,31.36,0.3499,5.2907,0.2803,0.2649,-0.0530,-0.0131,rough,14.0,0,9.525
990,31.68,0.3501,5.2907,0.2805,0.2649,-0.0541,-0.0137,rough,14.0,0,9.525
1000,32.00,0.3502,5.2907,0.2804,0.2648,-0.0537,-0.0134,rough,14.0,0,9.525
1010,32.32,0.3501,5.2906,0.2804,0.2646,-0.0538,-0.0127,rough,14.0,0,9.525
1020,32.64,0.3500,5.2906,0.2803,0.2647,-0.0527,-0.0131,rough,14.0,0,9.525
1030,32.96,0.3497,5.2907,0.2800,0.2645,-0.0513,-0.0104,rough,14.0,1,13.685
1040,33.28,0.3502,5.2909,0.2805,0.2651,-0.0529,-0.0155,rough,14.0,1,13.685
1050,33.60,0.3502,5.2907,0.2805,0.2649,-0.0533,-0.0152,rough,14.0,1,13.685
1060,33.92,0.3499,5.2906,0.2803,0.2645,-0.0537,-0.0109,rough,14.0,1,13.685
1070,34.24,0.3499,5.2906,0.2805,0.2642,-0.0557,-0.0092,rough,14.0,1,13.685
1080,34.56,0.3501,5.2908,0.2804,0.2649,-0.0529,-0.0138,rough,14.0,1,13.685
1090,34.88,0.3501,5.2908,0.2805,0.2647,-0.0543,-0.0126,rough,14.0,1,13.685
1100,35.20,0.3500,5.2906,0.2804,0.2647,-0.0540,-0.0127,rough,14.0,1,13.685
1110,35.52,0.3499,5.2904,0.2805,0.2643,-0.0558,-0.0097,rough,14.0,1,13.685
1120,35.84,0.3502,5.2907,0.2804,0.2649,-0.0529,-0.0142,rough,14.0,1,13.685
1130,36.16,0.3500,5.2905,0.2803,0.2648,-0.0525,-0.0142,rough,14.0,1,13.685
1140,36.48,0.3502,5.2906,0.2803,0.2648,-0.0527,-0.0148,rough,14.0,1,13.685
1150,36.80,0.3501,5.2907,0.2804,0.2649,-0.0535,-0.0137,rough,14.0,1,13.685
1160,37.12,0.3499,5.2908,0.2803,0.2646,-0.0532,-0.0112,rough,14.0,1,13.685
1170,37.44,0.3501,5.2906,0.2804,0.2647,-0.0538,-0.0136,rough,14.0,1,13.685
1180,37.76,0.3501,5.2907,0.2804,0.2648,-0.0534,-0.0137,rough,14.0,1,13.685
1190,38.08,0.3499,5.2907,0.2802,0.2646,-0.0523,-0.0119,rough,14.0,1,13.685
1200,38.40,0.3498,5.2906,0.2800,0.2645,-0.0518,-0.0106,rough,14.0,1,13.685
1210,38.72,0.3499,5.2905,0.2803,0.2644,-0.0536,-0.0112,rough,14.0,1,13.685
1220,39.04,0.3499,5.2905,0.2801,0.2646,-0.0523,-0.0123,rough,14.0,1,13.685
1230,39.36,0.3498,5.2906,0.2801,0.2646,-0.0519,-0.0107,rough,14.0,1,13.685
1240,39.68,0.3498,5.2906,0.2800,0.2646,-0.0513,-0.0108,rough,14.0,1,13.685
1250,40.00,0.3499,5.2906,0.2803,0.2646,-0.0531,-0.0112,rough,14.0,1,13.685
1260,40.32,0.3499,5.2906,0.2804,0.2643,-0.0543,-0.0106,rough,14.0,1,13.685
1270,40.64,0.3499,5.2904,0.2801,0.2644,-0.0524,-0.0105,rough,14.0,2,9.916
1280,40.96,0.3495,5.2904,0.2803,0.2644,-0.0528,-0.0146,rough,14.0,2,9.916
1290,41.28,0.2924,5.2608,0.2712,0.2498,-0.0173,-0.1350,rough,14.0,2,9.868
1300,41.60,0.3141,5.2287,0.2628,0.2219,-0.0429,-0.0246,rough,14.0,2,9.846
1310,41.92,0.2876,5.2113,0.2578,0.2143,-0.0219,-0.1012,rough,14.0,2,9.820
1320,42.24,0.2751,5.1506,0.2416,0.1773,-0.0117,-0.1440,slope,18.0,2,9.759
1330,42.56,0.2898,5.1137,0.2309,0.1491,-0.0216,-0.0920,slope,18.0,2,9.730
1340,42.88,0.3162,5.0516,0.2230,0.1313,0.0034,-0.4023,slope,18.0,2,9.682
1350,43.20,0.5387,4.8575,0.2107,0.1309,0.0409,-0.8447,slope,18.0,2,9.588
1360,43.52,0.8061,4.5614,0.1724,0.0375,-0.0122,-1.1152,slope,18.0,2,9.430
1370,43.84,0.9995,4.1493,0.1797,0.0008,0.0020,-1.2006,flat,18.0,2,9.149
1380,44.16,1.1549,3.7188,0.1798,-0.0001,0.0000,-1.3294,flat,18.0,2,8.848
1390,44.48,1.2510,3.2842,0.1797,0.0015,-0.0000,-1.7362,flat,18.0,2,8.526
1400,44.80,1.1400,2.8486,0.1792,-0.0022,0.0000,-2.0908,flat,18.0,2,8.099
1410,45.12,0.8610,2.4405,0.1785,-0.0071,0.0001,-2.2806,flat,18.0,2,7.605
1420,45.44,0.4937,2.0616,0.1798,-0.0005,0.0001,-2.3933,flat,18.0,2,7.088
1430,45.76,0.0742,1.6901,0.1799,-0.0002,-0.0000,-2.4303,flat,18.0,2,6.552
1440,46.08,-0.3502,1.3186,0.1799,0.0001,0.0000,-2.4030,flat,18.0,2,6.018
1450,46.40,-0.7434,0.9406,0.1805,0.0032,-0.0003,-2.3340,flat,18.0,2,5.498
1460,46.72,-1.0990,0.5536,0.1818,0.0108,-0.0012,-2.2497,flat,18.0,2,4.993
1470,47.04,-1.4210,0.1321,0.1817,0.0109,-0.0009,-2.1580,flat,18.0,2,4.474
1480,47.36,-1.7054,-0.3265,0.1815,0.0097,0.0003,-2.0718,flat,18.0,2,3.940
1490,47.68,-1.9591,-0.8134,0.1829,0.0031,-0.0175,-2.0088,flat,18.0,2,3.392
1500,48.00,-2.1780,-1.3214,0.2037,-0.0043,-0.0541,-1.9673,flat,18.0,2,2.839
1510,48.32,-2.4049,-1.8506,0.2259,0.0111,0.0023,-1.9730,flat,18.0,2,2.263
1520,48.64,-2.6164,-2.3590,0.2066,-0.0183,0.0564,-1.9776,flat,18.0,2,1.712
1530,48.96,-2.7973,-2.7708,0.1863,-0.0072,0.0379,-1.9846,flat,18.0,2,1.263
1540,49.28,-2.9674,-3.1339,0.1777,0.0044,0.0085,-2.0245,flat,18.0,3,9.392
1550,49.60,-3.1221,-3.4259,0.1819,-0.0126,-0.0001,-2.2544,flat,18.0,3,9.711
1560,49.92,-3.2482,-3.5723,0.1851,-0.0304,-0.0015,-2.7076,flat,18.0,3,9.882
1570,50.24,-3.3553,-3.6081,0.1873,-0.0060,-0.0445,-3.0778,flat,18.0,3,9.942
1580,50.56,-3.4789,-3.6108,0.1926,0.0204,-0.0624,2.6550,slope,18.0,3,9.975
1590,50.88,-3.6120,-3.4561,0.2010,0.0772,-0.0145,1.6735,slope,18.0,3,9.861
1600,51.20,-3.6347,-3.2286,0.2040,0.0593,0.0332,1.0482,slope,18.0,3,9.648
1610,51.52,-3.4554,-2.9386,0.1870,0.0175,0.0413,0.9255,flat,18.0,3,9.320
1620,51.84,-3.2554,-2.5985,0.1878,0.0006,-0.0216,1.1293,flat,18.0,3,8.939
1630,52.16,-3.0814,-2.1716,0.1927,-0.0550,-0.0507,1.2458,flat,18.0,3,8.482
1640,52.48,-2.9477,-1.6387,0.2082,-0.0577,0.0379,1.3417,slope,18.0,3,7.933
1650,52.80,-2.8106,-1.1132,0.1924,-0.0318,0.0455,1.3043,flat,18.0,3,7.390
1660,53.12,-2.6547,-0.5776,0.1802,0.0018,0.0046,1.2923,flat,18.0,3,6.832
1670,53.44,-2.4937,-0.0317,0.1792,-0.0002,0.0035,1.2754,flat,18.0,3,6.264
1680,53.76,-2.3253,0.5162,0.1810,0.0033,-0.0046,1.2727,flat,18.0,3,5.691
1690,54.08,-2.1514,1.0476,0.2025,0.0541,-0.0641,1.2748,slope,18.0,3,5.134
1700,54.40,-1.9832,1.5965,0.1990,0.0635,-0.0047,1.2927,slope,18.0,3,4.561
1710,54.72,-1.8351,2.1529,0.1906,0.0336,0.0253,1.3137,flat,18.0,3,3.985
1720,55.04,-1.6933,2.6997,0.1794,0.0006,0.0027,1.3014,flat,18.0,3,3.421
1730,55.36,-1.5414,3.2524,0.1820,-0.0106,-0.0012,1.2961,flat,18.0,3,2.849
1740,55.68,-1.3849,3.8044,0.1804,-0.0001,0.0069,1.2971,transition,15.0,3,2.277
1750,56.00,-1.2579,4.2553,0.1806,0.0025,-0.0030,1.2946,slope,18.0,3,1.810
1760,56.32,-1.1281,4.6976,0.1877,0.0271,-0.0257,1.3039,slope,18.0,3,1.354
1770,56.64,-1.0188,5.0523,0.2184,0.0662,-0.1154,1.4180,slope,18.0,0,0.990
1780,56.96,-0.9716,5.3195,0.2755,0.0769,-0.3093,1.4136,slope,18.0,0,10.161
1790,57.28,-0.9247,5.4457,0.3146,0.1683,-0.3645,1.2642,slope,18.0,0,10.246
1800,57.60,-0.8404,5.5100,0.3364,0.3197,-0.2558,0.7116,slope,18.0,0,10.260
1810,57.92,-0.7099,5.5543,0.3511,0.3896,-0.0911,0.2511,slope,18.0,0,10.234
1820,58.24,-0.5040,5.4527,0.3077,0.3810,0.1059,-0.3336,rough,14.0,0,10.047
1830,58.56,-0.2450,5.2832,0.2661,0.2834,0.0668,-0.6489,rough,14.0,0,9.776
1840,58.88,0.0456,5.0317,0.2071,0.0836,0.0810,-0.8552,slope,18.0,0,9.421
1850,59.20,0.3322,4.6807,0.1874,-0.0001,0.0531,-1.0899,slope,18.0,0,8.979
1860,59.52,0.4968,4.2657,0.1798,0.0002,-0.0010,-1.2394,flat,18.0,0,8.534
1870,59.84,0.6680,3.7675,0.1799,0.0000,-0.0001,-1.2352,flat,18.0,0,8.012
1880,60.16,0.8424,3.2517,0.1799,0.0001,0.0001,-1.2787,flat,18.0,0,7.473
1890,60.48,1.0034,2.7041,0.1799,-0.0000,0.0000,-1.2854,flat,18.0,0,6.912
1900,60.80,1.1665,2.1661,0.1799,0.0002,0.0000,-1.2473,flat,18.0,0,6.361
1910,61.12,1.3494,1.6393,0.1799,0.0002,0.0000,-1.2047,flat,18.0,0,5.812
1920,61.44,1.5537,1.1238,0.1799,0.0002,0.0000,-1.1591,flat,18.0,0,5.264
1930,61.76,1.7818,0.6217,0.1799,0.0002,0.0000,-1.1063,flat,18.0,0,4.716
1940,62.08,2.0371,0.1324,0.1799,0.0002,-0.0000,-1.0538,flat,18.0,0,4.166
1950,62.40,2.3193,-0.3463,0.1799,0.0002,-0.0000,-1.0093,flat,18.0,0,3.610
1960,62.72,2.6241,-0.8179,0.1799,0.0001,-0.0000,-0.9766,flat,18.0,0,3.049
1970,63.04,2.9466,-1.2862,0.1799,0.0001,-0.0000,-0.9590,flat,18.0,0,2.481
1980,63.36,3.2689,-1.7453,0.1799,0.0000,0.0000,-0.9607,flat,18.0,0,1.922
1990,63.68,3.5473,-2.1470,0.1799,-0.0000,0.0001,-0.9720,flat,18.0,0,1.435
2000,64.00,3.7719,-2.4807,0.1799,-0.0000,0.0000,-0.9975,flat,18.0,0,1.035
2010,64.32,3.9838,-2.8494,0.1798,0.0010,-0.0000,-1.3059,flat,18.0,1,7.235
2020,64.64,4.0682,-3.2696,0.1797,-0.0002,-0.0001,-1.8275,flat,18.0,1,6.978
2030,64.96,3.9195,-3.6823,0.1798,-0.0001,0.0005,-2.1774,flat,18.0,1,6.578
2040,65.28,3.6119,-4.0576,0.1799,0.0001,-0.0001,-2.3767,flat,18.0,1,6.095
2050,65.60,3.2131,-4.3969,0.1799,-0.0002,0.0000,-2.5001,flat,18.0,1,5.573
2060,65.92,2.7596,-4.7141,0.1799,-0.0002,0.0001,-2.5647,flat,18.0,1,5.029
2070,66.24,2.2846,-5.0218,0.1815,0.0044,-0.0174,-2.5588,flat,18.0,1,4.481
2080,66.56,1.8321,-5.3396,0.1967,-0.0428,-0.0328,-2.5155,flat,18.0,1,3.944
2090,66.88,1.3945,-5.6770,0.1966,-0.0581,0.0065,-2.4485,slope,18.0,1,3.406
2100,67.20,0.9805,-6.0386,0.1835,-0.0076,0.0095,-2.3769,flat,18.0,1,2.867
2110,67.52,0.5993,-6.4266,0.1813,-0.0083,-0.0022,-2.3095,flat,18.0,1,2.330
2120,67.84,0.2566,-6.8315,0.1951,-0.0592,-0.0021,-2.2570,flat,18.0,1,1.804
2130,68.16,-0.0350,-7.2147,0.1982,-0.0584,-0.0011,-2.1728,slope,18.0,1,1.325
2140,68.48,-0.2730,-7.5935,0.1899,-0.0322,0.0238,-2.0828,flat,18.0,2,4.735
2150,68.80,-0.5133,-8.0226,0.1807,-0.0040,0.0024,-2.0810,flat,18.0,2,4.935
2160,69.12,-0.7292,-8.3882,0.1795,0.0026,0.0000,-2.1539,flat,18.0,2,5.131
2170,69.44,-0.9297,-8.6762,0.1801,0.0013,-0.0005,-2.2586,flat,18.0,2,5.290
2180,69.76,-1.1192,-8.9044,0.1819,-0.0005,-0.0072,-2.3947,flat,18.0,2,5.417
2190,70.08,-1.2958,-9.0536,0.1837,-0.0012,-0.0069,-2.5345,flat,18.0,2,5.488
2200,70.40,-1.4537,-9.1634,0.1855,-0.0101,0.0030,-2.6592,flat,18.0,2,5.537
2210,70.72,-1.5958,-9.2437,0.1838,-0.0093,0.0132,-2.7715,flat,18.0,2,5.568
2220,71.04,-1.7321,-9.2986,0.1843,-0.0167,0.0077,-2.8598,flat,18.0,2,5.581
2230,71.36,-1.8790,-9.3394,0.1838,-0.0181,0.0026,-2.9919,flat,18.0,2,5.581
2240,71.68,-2.0251,-9.3751,0.1844,-0.0217,-0.0043,3.0527,flat,18.0,2,5.581
2250,72.00,-2.1671,-9.3825,0.1876,-0.0397,-0.0020,2.8544,flat,18.0,2,5.558
2260,72.32,-2.3036,-9.3578,0.1896,-0.0496,-0.0019,2.6965,flat,18.0,2,5.508
2270,72.64,-2.4387,-9.3067,0.1917,-0.0590,-0.0036,2.5684,slope,18.0,2,5.435
2280,72.96,-2.5709,-9.2292,0.1938,-0.0527,-0.0262,2.4635,slope,18.0,2,5.339
2290,73.28,-2.7113,-9.1233,0.1978,-0.0570,-0.0465,2.3770,flat,18.0,2,5.217
2300,73.60,-2.8648,-8.9667,0.2036,-0.0497,-0.0217,2.2998,flat,18.0,2,5.047
2310,73.92,-3.0376,-8.7745,0.1993,-0.0518,0.0177,2.2375,flat,18.0,2,4.843
2320,74.24,-3.2296,-8.5307,0.1988,-0.0646,0.0095,2.1821,slope,18.0,2,4.594
2330,74.56,-3.4315,-8.2185,0.1855,-0.0038,-0.0013,2.1345,flat,18.0,2,4.284
2340,74.88,-3.6616,-7.8368,0.1818,-0.0055,-0.0070,2.1057,flat,18.0,2,3.918
2350,75.20,-3.9286,-7.3802,0.1977,0.0003,-0.0405,2.0992,flat,18.0,2,3.503
2360,75.52,-4.1560,-6.9523,0.2249,0.0157,-0.0581,1.9135,slope,18.0,2,3.140
2370,75.84,-4.2855,-6.4911,0.2217,0.0011,0.0440,1.7646,flat,18.0,2,2.744
2380,76.16,-4.3570,-6.0076,0.1928,-0.0052,0.0726,1.6376,slope,18.0,2,2.333
2390,76.48,-4.3592,-5.5530,0.1802,-0.0038,-0.0045,1.3083,flat,18.0,2,1.943
2400,76.80,-4.2263,-5.1257,0.1798,-0.0014,-0.0009,1.1513,flat,18.0,2,1.519
2410,77.12,-4.0586,-4.7606,0.1798,-0.0002,0.0001,1.1055,flat,18.0,2,1.133
2420,77.44,-3.8929,-4.4442,0.1826,0.0003,-0.0180,1.0502,flat,18.0,3,10.888
2430,77.76,-3.6455,-4.0345,0.1883,0.0203,-0.0323,1.0790,flat,18.0,3,10.427
2440,78.08,-3.4045,-3.5772,0.1896,0.0510,0.0016,1.2325,slope,18.0,3,9.924
2450,78.40,-3.2490,-3.0712,0.1863,0.0345,0.0017,1.4107,flat,18.0,3,9.395
2460,78.72,-3.1932,-2.6000,0.1897,-0.0045,-0.0609,1.5610,flat,18.0,3,8.925
2470,79.04,-3.2045,-2.1175,0.1937,-0.0600,-0.0254,1.4394,flat,18.0,3,8.462
2480,79.36,-3.1185,-1.5797,0.1982,-0.0633,0.0182,1.3789,slope,18.0,3,7.921
2490,79.68,-3.0114,-1.0498,0.1888,-0.0346,0.0243,1.3866,flat,18.0,3,7.382
2500,80.00,-2.9083,-0.5163,0.1796,-0.0023,-0.0032,1.3959,flat,18.0,3,6.841
2510,80.32,-2.8084,0.0375,0.1798,-0.0002,-0.0002,1.3650,flat,18.0,3,6.282
2520,80.64,-2.6888,0.5869,0.1822,0.0041,-0.0073,1.3393,flat,18.0,3,5.722
2530,80.96,-2.5502,1.1066,0.2110,0.0185,-0.0773,1.2849,slope,18.0,3,5.185
2540,81.28,-2.3877,1.6619,0.2178,-0.0111,0.0219,1.2619,flat,18.0,3,4.606
2550,81.60,-2.2015,2.1853,0.1855,-0.0040,0.0717,1.1965,slope,18.0,3,4.051
2560,81.92,-2.0044,2.6986,0.1789,0.0007,-0.0034,1.2187,flat,18.0,3,3.502
2570,82.24,-1.8119,3.2348,0.1805,-0.0035,-0.0020,1.2404,flat,18.0,3,2.933
2580,82.56,-1.6294,3.7653,0.1809,0.0068,0.0016,1.2447,transition,15.0,3,2.372
2590,82.88,-1.4812,4.2090,0.1791,0.0010,0.0091,1.2476,slope,18.0,3,1.905
2600,83.20,-1.3204,4.6517,0.1951,0.0560,-0.0301,1.2329,slope,18.0,3,1.435
2610,83.52,-1.1809,5.0104,0.2180,0.1120,-0.1156,1.2213,slope,18.0,3,1.054
2620,83.84,-1.0752,5.2691,0.2684,0.1334,-0.2433,1.1769,slope,18.0,0,10.171
2630,84.16,-0.9972,5.3682,0.2938,0.1866,-0.2848,0.9932,slope,18.0,0,10.216
2640,84.48,-0.9399,5.3329,0.2878,0.2591,-0.1810,0.5520,rough,14.0,0,10.156
2650,84.80,-0.8172,5.3237,0.2765,0.3089,-0.0457,0.2469,rough,14.0,0,10.086
2660,85.12,-0.5899,5.3518,0.2814,0.3547,-0.0083,0.1871,rough,14.0,0,9.999
2670,85.44,-0.3614,5.3770,0.2846,0.3607,-0.0152,0.1227,rough,14.0,0,9.913
2680,85.76,-0.1293,5.3783,0.2878,0.3578,-0.0367,-0.0138,rough,14.0,0,9.809
2690,86.08,0.1771,5.2893,0.2738,0.2609,0.0617,-0.3535,rough,14.0,0,9.596
2700,86.40,0.2434,5.1768,0.2463,0.2026,0.0679,-0.4363,slope,18.0,0,9.466
2710,86.72,0.3741,5.0201,0.2187,0.1488,0.0616,-0.6059,slope,18.0,0,9.269
2720,87.04,0.6865,4.7515,0.1988,0.0658,0.0490,-0.8735,slope,18.0,0,8.896
2730,87.36,0.9673,4.3879,0.1803,0.0005,0.0024,-1.0186,flat,18.0,0,8.451
2740,87.68,1.2199,3.9608,0.1799,-0.0000,-0.0002,-1.0556,flat,18.0,0,7.960
2750,88.00,1.4611,3.5189,0.1798,-0.0000,-0.0006,-1.1722,flat,18.0,0,7.460
2760,88.32,1.6369,3.0273,0.1790,-0.0042,-0.0002,-1.3496,flat,18.0,0,6.938
2770,88.64,1.7455,2.4791,0.1798,-0.0005,-0.0000,-1.4208,flat,18.0,0,6.390
2780,88.96,1.8311,1.9174,0.1799,0.0001,0.0000,-1.3967,flat,18.0,0,5.841
2790,89.28,1.9329,1.3735,0.1799,-0.0000,0.0000,-1.3246,flat,18.0,0,5.305
2800,89.60,2.0769,0.8498,0.1798,0.0000,0.0000,-1.2281,flat,18.0,0,4.772
2810,89.92,2.2737,0.3372,0.1799,0.0001,0.0001,-1.1547,flat,18.0,0,4.226
