step,time_s,x,y,z,roll,pitch,yaw,terrain,speed,target_idx,dist_to_target
10,0.32,-1.2109,0.8834,0.1844,0.0024,-0.0335,-0.0004,rough,14.0,0,8.496
20,0.64,-0.8028,0.8778,0.1805,-0.0054,0.0017,-0.1184,rough,14.0,0,8.181
30,0.96,-0.3869,0.8189,0.1784,0.0096,0.0048,-0.2269,rough,14.0,0,7.833
40,1.28,0.0324,0.7162,0.1784,0.0050,-0.0057,-0.2838,rough,14.0,0,7.459
50,1.60,0.4485,0.5910,0.1797,0.0003,-0.0004,-0.3382,rough,14.0,0,7.078
60,1.92,0.8487,0.4421,0.1799,-0.0001,-0.0001,-0.4198,rough,14.0,0,6.696
70,2.24,1.2383,0.2600,0.1799,-0.0002,-0.0000,-0.4856,rough,14.0,0,6.302
80,2.56,1.6199,0.0517,0.1799,-0.0001,-0.0000,-0.5323,rough,14.0,0,5.897
90,2.88,1.9927,-0.1745,0.1799,-0.0001,-0.0000,-0.5735,rough,14.0,0,5.488
100,3.20,2.3558,-0.4160,0.1799,-0.0001,-0.0000,-0.6140,rough,14.0,0,5.077
110,3.52,2.7084,-0.6723,0.1799,-0.0001,-0.0000,-0.6546,rough,14.0,0,4.665
120,3.84,3.0497,-0.9430,0.1799,-0.0001,-0.0000,-0.6955,rough,14.0,0,4.250
130,4.16,3.3793,-1.2277,0.1799,-0.0001,-0.0000,-0.7367,rough,14.0,0,3.835
140,4.48,3.6964,-1.5261,0.1799,-0.0001,-0.0000,-0.7776,rough,14.0,0,3.418
150,4.80,4.0012,-1.8374,0.1799,-0.0001,0.0000,-0.8181,rough,14.0,0,3.001
160,5.12,4.2922,-2.1610,0.1799,-0.0001,-0.0000,-0.8607,rough,14.0,0,2.584
170,5.44,4.5697,-2.4967,0.1799,-0.0001,-0.0000,-0.9066,rough,14.0,0,2.167
180,5.76,4.8318,-2.8445,0.1799,-0.0002,0.0000,-0.9590,rough,14.0,0,1.753
190,6.08,5.0743,-3.2048,0.1799,-0.0002,0.0000,-1.0219,rough,14.0,0,1.343
200,6.40,5.2812,-3.5748,0.1862,0.0219,-0.0138,-1.0981,rough,14.0,0,0.948
210,6.72,5.3994,-3.8699,0.2058,0.0982,-0.0377,-0.9330,rough,14.0,1,12.194
220,7.04,5.4966,-3.9455,0.2120,0.0193,-0.1548,-0.4266,rough,14.0,1,12.299
230,7.36,5.7359,-4.0011,0.2619,-0.0505,-0.2164,-0.0244,rough,14.0,1,12.440
240,7.68,5.9456,-3.9780,0.3126,-0.1286,-0.2820,0.2157,rough,14.0,1,12.500
250,8.00,6.1685,-3.8828,0.3710,-0.1576,-0.2438,0.4393,rough,14.0,1,12.502
260,8.32,6.3726,-3.7322,0.4276,-0.2063,-0.2291,0.6501,rough,14.0,1,12.452
270,8.64,6.5730,-3.5039,0.4747,-0.2838,-0.1443,0.8383,rough,14.0,1,12.335
280,8.96,6.7593,-3.2024,0.5003,-0.3366,-0.0171,1.0023,rough,14.0,1,12.153
290,9.28,6.9107,-2.8608,0.4786,-0.3723,0.0676,1.1610,rough,14.0,1,11.927
300,9.60,7.0121,-2.4757,0.4262,-0.4230,0.1535,1.2892,rough,14.0,1,11.646
310,9.92,7.0720,-2.0786,0.3539,-0.4054,0.1304,1.4295,rough,14.0,1,11.339
320,10.24,7.0791,-1.6701,0.2834,-0.3806,0.1478,1.5798,rough,14.0,1,11.000
330,10.56,7.0490,-1.2652,0.2474,-0.2718,0.0759,1.7093,rough,14.0,1,10.647
340,10.88,6.9789,-0.8538,0.2132,-0.1827,0.0125,1.7916,rough,14.0,1,10.270
350,11.20,6.8906,-0.4287,0.1933,-0.0489,0.0271,1.8503,rough,14.0,1,9.874
360,11.52,6.7622,-0.0188,0.1787,-0.0035,-0.0124,1.9037,rough,14.0,1,9.469
370,11.84,6.6132,0.3937,0.1798,-0.0000,-0.0003,1.9503,rough,14.0,1,9.052
380,12.16,6.4474,0.7977,0.1799,0.0001,-0.0000,1.9934,rough,14.0,1,8.633
390,12.48,6.2640,1.1954,0.1799,0.0001,-0.0000,2.0306,rough,14.0,1,8.209
400,12.80,6.0656,1.5867,0.1799,0.0001,-0.0000,2.0628,rough,14.0,1,7.782
410,13.12,5.8545,1.9719,0.1799,0.0001,-0.0000,2.0902,rough,14.0,1,7.352
420,13.44,5.6328,2.3519,0.1799,0.0001,-0.0000,2.1152,rough,14.0,1,6.920
430,13.76,5.4014,2.7268,0.1799,0.0001,-0.0000,2.1382,rough,14.0,1,6.487
440,14.08,5.1610,3.0954,0.1820,-0.0060,-0.0063,2.1588,rough,14.0,1,6.053
450,14.40,4.9084,3.4544,0.1859,-0.0290,-0.0021,2.1765,rough,14.0,1,5.619
460,14.72,4.6515,3.7475,0.2267,-0.1487,-0.1347,2.1921,rough,14.0,1,5.230
470,15.04,4.3640,4.0608,0.2531,-0.2877,-0.0224,2.1373,rough,14.0,1,4.805
480,15.36,4.0766,4.3040,0.2916,-0.4278,-0.1490,2.2146,rough,14.0,1,4.430
490,15.68,3.8099,4.5998,0.3562,-0.4280,-0.1085,2.2538,rough,14.0,1,4.032
500,16.00,3.5225,4.8806,0.3929,-0.5921,-0.1982,2.3563,rough,14.0,1,3.631
510,16.32,3.2248,5.0982,0.4513,-0.6127,-0.3063,2.4411,rough,14.0,1,3.268
520,16.64,2.8964,5.3475,0.5457,-0.6237,-0.2633,2.4326,rough,14.0,1,2.864
530,16.96,2.5884,5.5124,0.5950,-0.5643,-0.3082,2.4044,rough,14.0,1,2.540
540,17.28,2.2742,5.7019,0.6523,-0.5560,-0.2888,2.3912,rough,14.0,1,2.201
550,17.60,1.9572,5.9718,0.7494,-0.5739,-0.2442,2.3624,rough,14.0,1,1.802
560,17.92,1.6588,6.2468,0.8488,-0.5445,-0.2698,2.3218,rough,14.0,1,1.416
570,18.24,1.3804,6.5209,0.9719,-0.5558,-0.3713,2.3223,rough,14.0,1,1.053
580,18.56,1.1178,6.7942,1.1128,-0.5168,-0.3868,2.3258,rough,14.0,2,14.775
590,18.88,0.9033,6.9247,1.1713,-0.6050,-0.2556,2.5665,rough,14.0,2,14.750
600,19.20,0.6313,7.0029,1.1950,-0.6371,-0.1232,2.8741,rough,14.0,2,14.653
610,19.52,0.2778,7.0392,1.1683,-0.5571,0.0880,3.0896,rough,14.0,2,14.480
620,19.84,-0.0991,7.0004,1.1032,-0.4878,0.1647,-2.9931,rough,14.0,2,14.238
630,20.16,-0.4910,6.9040,1.0184,-0.4116,0.2120,-2.8493,rough,14.0,2,13.946
640,20.48,-0.8731,6.7477,0.9085,-0.3533,0.2624,-2.7244,rough,14.0,2,13.613
650,20.80,-1.2414,6.5532,0.7824,-0.3241,0.3089,-2.6326,rough,14.0,2,13.258
660,21.12,-1.5900,6.3313,0.6506,-0.2543,0.3271,-2.5528,rough,14.0,2,12.892
670,21.44,-1.9127,6.0925,0.5274,-0.2250,0.2437,-2.4840,rough,14.0,2,12.527
680,21.76,-2.2374,5.8318,0.4479,-0.1544,0.1737,-2.4181,rough,14.0,2,12.144
690,22.08,-2.5431,5.5421,0.3882,-0.1259,0.0877,-2.3670,rough,14.0,2,11.746
700,22.40,-2.8517,5.2262,0.3392,-0.1001,0.1040,-2.3300,rough,14.0,2,11.325
710,22.72,-3.1564,4.9073,0.2870,-0.0415,0.1381,-2.2974,rough,14.0,2,10.905
720,23.04,-3.4385,4.5795,0.2217,-0.0255,0.1072,-2.2624,rough,14.0,2,10.487
730,23.36,-3.7132,4.2543,0.1943,0.0300,0.0374,-2.2340,rough,14.0,2,10.077
740,23.68,-3.9726,3.9116,0.1938,0.0157,-0.0256,-2.2082,rough,14.0,2,9.658
750,24.00,-4.2283,3.5682,0.2143,0.0315,-0.0643,-2.1860,rough,14.0,2,9.241
760,24.32,-4.4857,3.1987,0.2232,0.0299,0.0111,-2.1587,rough,14.0,2,8.800
770,24.64,-4.7303,2.8225,0.2107,0.0202,0.0414,-2.1349,rough,14.0,2,8.359
780,24.96,-4.9616,2.4451,0.1902,-0.0109,0.0308,-2.1128,rough,14.0,2,7.922
790,25.28,-5.1821,2.0732,0.1851,-0.0119,-0.0216,-2.0963,rough,14.0,2,7.495
800,25.60,-5.3919,1.6852,0.1984,-0.0500,-0.0222,-2.0769,rough,14.0,2,7.058
810,25.92,-5.5969,1.2970,0.2100,-0.0641,-0.0360,-2.0576,rough,14.0,2,6.623
820,26.24,-5.8141,0.8913,0.2001,-0.0407,0.0475,-2.0496,rough,14.0,2,6.167
830,26.56,-6.0207,0.5047,0.1835,-0.0055,0.0175,-2.0379,rough,14.0,2,5.734
840,26.88,-6.2173,0.1094,0.1804,-0.0023,0.0019,-2.0258,rough,14.0,2,5.296
850,27.20,-6.4090,-0.2903,0.1794,0.0001,0.0031,-2.0081,rough,14.0,2,4.857
860,27.52,-6.5943,-0.6907,0.1813,0.0029,-0.0066,-1.9932,rough,14.0,2,4.419
870,27.84,-6.7762,-1.0851,0.1871,0.0320,-0.0407,-1.9839,rough,14.0,2,3.989
880,28.16,-6.9556,-1.4973,0.1934,0.0414,0.0020,-1.9678,rough,14.0,2,3.544
890,28.48,-7.1255,-1.9039,0.1838,0.0260,-0.0051,-1.9529,rough,14.0,2,3.107
900,28.80,-7.2881,-2.3156,0.1854,0.0215,-0.0112,-1.9322,rough,14.0,2,2.669
910,29.12,-7.4378,-2.7329,0.1912,-0.0024,-0.0094,-1.9108,rough,14.0,2,2.229
920,29.44,-7.5741,-3.1445,0.2079,-0.0102,-0.0493,-1.8864,rough,14.0,2,1.799
930,29.76,-7.7042,-3.5751,0.2189,-0.0364,-0.0098,-1.8738,rough,14.0,2,1.353
940,30.08,-7.8283,-4.0117,0.2040,-0.0653,0.0693,-1.8487,rough,14.0,2,0.905
950,30.40,-7.9378,-4.3984,0.1845,-0.0007,0.0323,-1.8100,rough,14.0,0,13.283
960,30.72,-7.9886,-4.7002,0.1794,0.0020,0.0014,-1.5066,rough,14.0,0,13.334
970,31.04,-7.9627,-5.0142,0.1798,0.0002,0.0001,-1.2192,rough,14.0,0,13.317
980,31.36,-7.8285,-5.3322,0.1798,0.0001,-0.0000,-1.0012,rough,14.0,0,13.198
990,31.68,-7.6070,-5.6334,0.1753,0.0118,0.0175,-0.8339,rough,14.0,0,12.999
1000,32.00,-7.3254,-5.9037,0.1882,-0.0197,-0.0085,-0.7021,rough,14.0,0,12.745
1010,32.32,-7.0049,-6.1497,0.1868,-0.0121,0.0209,-0.5873,rough,14.0,0,12.457
1020,32.64,-6.6609,-6.3649,0.1818,0.0031,0.0069,-0.4988,rough,14.0,0,12.147
1030,32.96,-6.2845,-6.5538,0.1798,0.0008,0.0009,-0.3931,rough,14.0,0,11.806
1040,33.28,-5.8799,-6.7080,0.1799,0.0001,0.0000,-0.3243,rough,14.0,0,11.436
1050,33.60,-5.4687,-6.8393,0.1813,0.0069,-0.0006,-0.2328,rough,14.0,0,11.059
1060,33.92,-5.0629,-6.9259,0.1972,0.0154,-0.0570,-0.1784,rough,14.0,0,10.682
1070,34.24,-4.6554,-7.0046,0.2173,0.0498,-0.0322,-0.1579,rough,14.0,0,10.304
1080,34.56,-4.2317,-7.0744,0.2213,0.0573,0.0229,-0.1159,rough,14.0,0,9.911
1090,34.88,-3.7955,-7.1164,0.2053,0.0394,0.0437,-0.0536,rough,14.0,0,9.502
1100,35.20,-3.3611,-7.1301,0.1854,0.0071,0.0336,0.0031,rough,14.0,0,9.089
1110,35.52,-2.9298,-7.1234,0.1796,0.0007,-0.0011,0.0493,rough,14.0,0,8.674
1120,35.84,-2.4903,-7.0989,0.1798,0.0002,-0.0001,0.0938,rough,14.0,0,8.248
1130,36.16,-2.0520,-7.0553,0.1799,0.0001,-0.0000,0.1307,rough,14.0,0,7.819
1140,36.48,-1.6240,-6.9966,0.1867,0.0001,-0.0459,0.1494,rough,14.0,0,7.396
1150,36.80,-1.1949,-6.9273,0.2060,0.0041,-0.0591,0.1696,rough,14.0,0,6.968
1160,37.12,-0.7580,-6.8476,0.2232,-0.0094,-0.0227,0.1982,rough,14.0,0,6.531
1170,37.44,-0.3113,-6.7578,0.2219,0.0085,0.0403,0.2159,rough,14.0,0,6.082
1180,37.76,0.1240,-6.6572,0.1954,0.0021,0.0682,0.2413,rough,14.0,0,5.641
1190,38.08,0.5431,-6.5508,0.1822,-0.0070,0.0022,0.2545,rough,14.0,0,5.213
1200,38.40,0.9706,-6.4381,0.1806,0.0045,-0.0011,0.2756,rough,14.0,0,4.776
1210,38.72,1.3960,-6.3146,0.1791,-0.0045,0.0013,0.2917,rough,14.0,0,4.337
1220,39.04,1.8186,-6.1860,0.1807,-0.0018,-0.0010,0.3031,rough,14.0,0,3.900
1230,39.36,2.2386,-6.0511,0.1822,-0.0091,-0.0029,0.3130,rough,14.0,0,3.463
1240,39.68,2.6548,-5.9098,0.1820,-0.0203,0.0113,0.3254,rough,14.0,0,3.028
1250,40.00,3.0732,-5.7611,0.1847,-0.0133,0.0171,0.3487,rough,14.0,0,2.588
1260,40.32,3.4841,-5.6045,0.1805,-0.0042,0.0002,0.3731,rough,14.0,0,2.153
1270,40.64,3.8933,-5.4403,0.1798,0.0000,-0.0001,0.3983,rough,14.0,0,1.718
1280,40.96,4.2899,-5.2631,0.1792,-0.0290,-0.0254,0.4241,rough,14.0,0,1.290
1290,41.28,4.6797,-5.0740,0.1947,-0.0629,-0.0219,0.4484,rough,14.0,0,0.865
1300,41.60,4.9878,-4.9061,0.2029,-0.0962,-0.0208,0.6858,rough,14.0,1,13.035
1310,41.92,5.2205,-4.6607,0.2162,-0.1230,-0.0562,0.8735,rough,14.0,1,12.875
1320,42.24,5.4222,-4.3425,0.2245,-0.1759,-0.0134,1.0328,rough,14.0,1,12.644
1330,42.56,5.5873,-3.9901,0.2317,-0.1776,-0.0310,1.1671,rough,14.0,1,12.374
1340,42.88,5.7056,-3.5959,0.2273,-0.2296,0.0419,1.2876,rough,14.0,1,12.054
1350,43.20,5.8007,-3.2079,0.2194,-0.1889,0.0169,1.3628,rough,14.0,1,11.736
1360,43.52,5.8942,-2.7880,0.2016,-0.1054,0.0103,1.4005,rough,14.0,1,11.394
1370,43.84,5.9650,-2.3627,0.1854,-0.0065,0.0283,1.4687,rough,14.0,1,11.042
1380,44.16,5.9880,-1.9415,0.1785,-0.0000,0.0071,1.5694,rough,14.0,1,10.678
1390,44.48,5.9821,-1.5110,0.1798,0.0001,0.0006,1.6664,rough,14.0,1,10.296
1400,44.80,5.9361,-1.0801,0.1799,0.0001,0.0000,1.7413,rough,14.0,1,9.898
1410,45.12,5.8582,-0.6520,0.1799,0.0002,-0.0000,1.8014,rough,14.0,1,9.489
1420,45.44,5.7546,-0.2278,0.1799,0.0002,-0.0000,1.8512,rough,14.0,1,9.072
1430,45.76,5.6301,0.1920,0.1799,0.0001,-0.0000,1.8932,rough,14.0,1,8.649
1440,46.08,5.4879,0.6073,0.1799,0.0001,-0.0000,1.9294,rough,14.0,1,8.223
1450,46.40,5.3305,1.0178,0.1799,0.0001,-0.0000,1.9602,rough,14.0,1,7.793
1460,46.72,5.1605,1.4236,0.1799,0.0001,-0.0000,1.9864,rough,14.0,1,7.362
1470,47.04,4.9798,1.8255,0.1799,0.0001,-0.0000,2.0103,rough,14.0,1,6.928
1480,47.36,4.7895,2.2235,0.1799,0.0001,-0.0000,2.0322,rough,14.0,1,6.493
1490,47.68,4.5903,2.6177,0.1799,0.0001,-0.0000,2.0525,rough,14.0,1,6.057
1500,48.00,4.3831,3.0081,0.1799,0.0001,-0.0000,2.0714,rough,14.0,1,5.620
1510,48.32,4.1685,3.3948,0.1799,0.0000,-0.0000,2.0893,rough,14.0,1,5.182
1520,48.64,3.9510,3.7682,0.1881,-0.0038,-0.0515,2.1036,rough,14.0,1,4.754
1530,48.96,3.7101,4.1389,0.1866,-0.0727,-0.0434,2.1147,rough,14.0,1,4.313
1540,49.28,3.4882,4.4592,0.2473,-0.1612,-0.2831,2.1560,rough,14.0,1,3.925
1550,49.60,3.1903,4.7701,0.2763,-0.3688,-0.1315,2.2085,rough,14.0,1,3.496
1560,49.92,2.9399,5.0195,0.3439,-0.4219,-0.3017,2.3078,rough,14.0,1,3.145
1570,50.24,2.6588,5.2999,0.4713,-0.4375,-0.3480,2.3461,rough,14.0,1,2.752
1580,50.56,2.3531,5.5660,0.5919,-0.5409,-0.3256,2.3455,rough,14.0,1,2.358
1590,50.88,2.0543,5.8429,0.6995,-0.5427,-0.2865,2.3172,rough,14.0,1,1.962
1600,51.20,1.7667,6.1373,0.8084,-0.5629,-0.3020,2.3081,rough,14.0,1,1.563
1610,51.52,1.4957,6.4247,0.9198,-0.5330,-0.3437,2.3160,rough,14.0,1,1.185
1620,51.84,1.2259,6.6933,1.0593,-0.5071,-0.4105,2.2532,rough,14.0,1,0.842
1630,52.16,1.0151,6.8719,1.1544,-0.5685,-0.3554,2.4550,rough,14.0,2,14.775
1640,52.48,0.7733,6.9765,1.1943,-0.6268,-0.1722,2.7473,rough,14.0,2,14.715
1650,52.80,0.4510,7.0216,1.1824,-0.6162,0.0167,3.0087,rough,14.0,2,14.564
1660,53.12,0.0911,7.0112,1.1292,-0.5286,0.0959,-3.0542,rough,14.0,2,14.352
1670,53.44,-0.3061,6.9361,1.0490,-0.4257,0.1984,-2.9031,rough,14.0,2,14.072
1680,53.76,-0.6896,6.7977,0.9493,-0.3802,0.2355,-2.7722,rough,14.0,2,13.751
1690,54.08,-1.0646,6.6165,0.8297,-0.3349,0.2936,-2.6658,rough,14.0,2,13.402
1700,54.40,-1.4239,6.4054,0.6989,-0.2845,0.3257,-2.5874,rough,14.0,2,13.039
1710,54.72,-1.7586,6.1757,0.5704,-0.2322,0.2896,-2.5133,rough,14.0,2,12.674
1720,55.04,-2.0832,5.9251,0.4720,-0.1859,0.1918,-2.4399,rough,14.0,2,12.299
1730,55.36,-2.3995,5.6465,0.4088,-0.1277,0.1302,-2.3866,rough,14.0,2,11.905
1740,55.68,-2.7045,5.3431,0.3635,-0.1106,0.0935,-2.3448,rough,14.0,2,11.496
1750,56.00,-3.0140,5.0215,0.3097,-0.0571,0.1373,-2.3101,rough,14.0,2,11.070
1760,56.32,-3.3055,4.6934,0.2485,-0.0152,0.1283,-2.2778,rough,14.0,2,10.647
1770,56.64,-3.5899,4.3654,0.2058,0.0448,0.1055,-2.2461,rough,14.0,2,10.229
1780,56.96,-3.8451,4.0348,0.1915,0.0220,-0.0173,-2.2221,rough,14.0,2,9.823
1790,57.28,-4.1022,3.6908,0.2060,0.0134,-0.0648,-2.1975,rough,14.0,2,9.404
1800,57.60,-4.3632,3.3329,0.2238,0.0437,-0.0291,-2.1736,rough,14.0,2,8.971
1810,57.92,-4.6124,2.9548,0.2181,0.0192,0.0333,-2.1449,rough,14.0,2,8.526
1820,58.24,-4.8496,2.5791,0.2000,0.0010,0.0354,-2.1213,rough,14.0,2,8.088
1830,58.56,-5.0735,2.2027,0.1855,-0.0056,0.0120,-2.1015,rough,14.0,2,7.656
1840,58.88,-5.2863,1.8286,0.1928,-0.0162,-0.0430,-2.0853,rough,14.0,2,7.230
1850,59.20,-5.4921,1.4373,0.2036,-0.0537,-0.0379,-2.0668,rough,14.0,2,6.791
1860,59.52,-5.6993,1.0323,0.2043,-0.0797,0.0339,-2.0569,rough,14.0,2,6.339
1870,59.84,-5.9130,0.6439,0.1899,-0.0189,0.0249,-2.0478,rough,14.0,2,5.901
1880,60.16,-6.1165,0.2524,0.1807,-0.0055,0.0111,-2.0352,rough,14.0,2,5.464
1890,60.48,-6.3124,-0.1433,0.1798,-0.0002,-0.0000,-2.0206,rough,14.0,2,5.026
1900,60.80,-6.5034,-0.5439,0.1798,0.0000,-0.0000,-2.0034,rough,14.0,2,4.586
1910,61.12,-6.6879,-0.9375,0.1861,0.0100,-0.0323,-1.9950,rough,14.0,2,4.156
1920,61.44,-6.8751,-1.3431,0.1919,0.0412,-0.0036,-1.9804,rough,14.0,2,3.714
1930,61.76,-7.0505,-1.7472,0.1902,0.0388,0.0046,-1.9673,rough,14.0,2,3.278
1940,62.08,-7.2181,-2.1600,0.1864,0.0225,0.0153,-1.9455,rough,14.0,2,2.836
1950,62.40,-7.3738,-2.5672,0.1892,0.0159,-0.0233,-1.9248,rough,14.0,2,2.404
1960,62.72,-7.5167,-2.9751,0.2019,-0.0079,-0.0804,-1.9004,rough,14.0,2,1.976
1970,63.04,-7.6487,-3.4089,0.2212,-0.0452,-0.0070,-1.8761,rough,14.0,2,1.525
1980,63.36,-7.7792,-3.8432,0.2134,-0.0475,0.0570,-1.8589,rough,14.0,2,1.077
1990,63.68,-7.9042,-4.2649,0.1912,0.0056,0.0867,-1.8710,rough,14.0,3,0.809
2000,64.00,-7.9711,-4.6112,0.1775,0.0130,-0.0016,-1.7276,rough,14.0,0,13.316
2010,64.32,-8.0149,-4.9417,0.1797,0.0001,0.0000,-1.4565,rough,14.0,0,13.366
2020,64.64,-7.9719,-5.2552,0.1798,-0.0000,-0.0001,-1.1765,rough,14.0,0,13.337
2030,64.96,-7.8210,-5.5767,0.1798,0.0001,-0.0000,-0.9874,rough,14.0,0,13.208
2040,65.28,-7.6003,-5.8655,0.1907,-0.0135,-0.0558,-0.8446,rough,14.0,0,13.015
2050,65.60,-7.3204,-6.1409,0.1970,-0.0376,-0.0149,-0.7080,rough,14.0,0,12.768
2060,65.92,-7.0060,-6.3861,0.1874,-0.0405,0.0202,-0.5901,rough,14.0,0,12.491
2070,66.24,-6.6837,-6.6020,0.1813,-0.0012,0.0111,-0.5015,rough,14.0,0,12.207
2080,66.56,-6.3174,-6.7908,0.1793,-0.0002,-0.0039,-0.4069,rough,14.0,0,11.881
2090,66.88,-5.9187,-6.9516,0.1799,0.0000,-0.0003,-0.3014,rough,14.0,0,11.523
2100,67.20,-5.5033,-7.0731,0.1799,0.0000,0.0001,-0.2105,rough,14.0,0,11.144
2110,67.52,-5.1079,-7.1564,0.1961,0.0067,-0.0730,-0.1722,rough,14.0,0,10.780
2120,67.84,-4.6854,-7.2316,0.2033,0.0281,-0.0083,-0.1255,rough,14.0,0,10.390
2130,68.16,-4.2513,-7.2820,0.2088,0.0539,0.0215,-0.0620,rough,14.0,0,9.986
2140,68.48,-3.8131,-7.3001,0.1984,0.0345,0.0366,-0.0040,rough,14.0,0,9.570
2150,68.80,-3.3797,-7.2919,0.1848,0.0080,0.0152,0.0456,rough,14.0,0,9.154
2160,69.12,-2.9466,-7.2629,0.1804,-0.0101,-0.0132,0.0866,rough,14.0,0,8.733
2170,69.44,-2.5065,-7.2130,0.1798,0.0001,-0.0003,0.1252,rough,14.0,0,8.300
2180,69.76,-2.0697,-7.1469,0.1801,-0.0018,0.0006,0.1557,rough,14.0,0,7.866
2190,70.08,-1.6420,-7.0743,0.1853,0.0039,-0.0404,0.1804,rough,14.0,0,7.439
2200,70.40,-1.2105,-6.9917,0.2041,0.0120,-0.0497,0.2013,rough,14.0,0,7.006
2210,70.72,-0.7728,-6.9013,0.2202,0.0221,-0.0090,0.2199,rough,14.0,0,6.564
2220,71.04,-0.3391,-6.8002,0.2215,0.0100,0.0208,0.2292,rough,14.0,0,6.124
2230,71.36,0.1033,-6.6922,0.1942,0.0153,0.0942,0.2516,rough,14.0,0,5.674
2240,71.68,0.5145,-6.5815,0.1824,-0.0019,0.0057,0.2646,rough,14.0,0,5.252
2250,72.00,0.9400,-6.4639,0.1805,0.0030,-0.0014,0.2848,rough,14.0,0,4.814
2260,72.32,1.3645,-6.3376,0.1808,0.0035,0.0024,0.3016,rough,14.0,0,4.375
2270,72.64,1.7882,-6.2039,0.1807,-0.0012,-0.0005,0.3104,rough,14.0,0,3.935
2280,72.96,2.2089,-6.0664,0.1811,-0.0046,-0.0013,0.3198,rough,14.0,0,3.496
2290,73.28,2.6231,-5.9196,0.1872,-0.0380,-0.0005,0.3298,rough,14.0,0,3.060
2300,73.60,3.0409,-5.7733,0.1838,-0.0169,0.0073,0.3483,rough,14.0,0,2.622
2310,73.92,3.4544,-5.6169,0.1808,-0.0037,0.0031,0.3723,rough,14.0,0,2.185
2320,74.24,3.8618,-5.4537,0.1792,0.0038,0.0001,0.3954,rough,14.0,0,1.752
2330,74.56,4.2586,-5.2821,0.1845,-0.0018,-0.0300,0.4215,rough,14.0,0,1.327
2340,74.88,4.6427,-5.0924,0.1938,-0.0481,-0.0313,0.4450,rough,14.0,0,0.905
2350,75.20,4.9682,-4.9191,0.2028,-0.0878,-0.0257,0.6769,rough,14.0,1,13.041
2360,75.52,5.2109,-4.6765,0.2171,-0.1119,-0.0615,0.8653,rough,14.0,1,12.887
2370,75.84,5.4004,-4.3617,0.2231,-0.1731,-0.0096,1.0209,rough,14.0,1,12.654
2380,76.16,5.5715,-4.0257,0.2297,-0.1793,-0.0324,1.1469,rough,14.0,1,12.401
2390,76.48,5.6954,-3.6331,0.2254,-0.2470,0.0473,1.2676,rough,14.0,1,12.085
2400,76.80,5.7954,-3.2574,0.2223,-0.2032,0.0118,1.3525,rough,14.0,1,11.779
2410,77.12,5.8899,-2.8503,0.2022,-0.1157,0.0020,1.4016,rough,14.0,1,11.448
2420,77.44,5.9587,-2.4277,0.1895,-0.0382,0.0139,1.4642,rough,14.0,1,11.098
2430,77.76,5.9901,-2.0076,0.1790,0.0043,-0.0024,1.5676,rough,14.0,1,10.738
2440,78.08,5.9847,-1.5756,0.1798,0.0005,-0.0001,1.6651,rough,14.0,1,10.354
2450,78.40,5.9391,-1.1446,0.1799,0.0002,-0.0000,1.7403,rough,14.0,1,9.955
2460,78.72,5.8616,-0.7163,0.1799,0.0002,-0.0000,1.8001,rough,14.0,1,9.546
2470,79.04,5.7587,-0.2918,0.1799,0.0002,-0.0000,1.8495,rough,14.0,1,9.129
2480,79.36,5.6348,0.1283,0.1799,0.0001,-0.0000,1.8912,rough,14.0,1,8.706
2490,79.68,5.4934,0.5439,0.1799,0.0001,-0.0000,1.9272,rough,14.0,1,8.279
2500,80.00,5.3370,0.9548,0.1799,0.0001,-0.0000,1.9576,rough,14.0,1,7.849
2510,80.32,5.1680,1.3611,0.1799,0.0001,-0.0000,1.9837,rough,14.0,1,7.418
2520,80.64,4.9884,1.7636,0.1799,0.0001,-0.0000,2.0074,rough,14.0,1,6.984
2530,80.96,4.7992,2.1622,0.1799,0.0001,-0.0000,2.0292,rough,14.0,1,6.549
2540,81.28,4.6013,2.5570,0.1799,0.0001,-0.0000,2.0493,rough,14.0,1,6.113
2550,81.60,4.3954,2.9482,0.1799,0.0001,-0.0000,2.0680,rough,14.0,1,5.675
2560,81.92,4.1821,3.3357,0.1799,0.0000,-0.0000,2.0857,rough,14.0,1,5.237
2570,82.24,3.9640,3.7135,0.1838,0.0010,-0.0287,2.1015,rough,14.0,1,4.805
2580,82.56,3.7294,4.0980,0.1839,-0.0120,0.0150,2.1147,rough,14.0,1,4.357
2590,82.88,3.5090,4.4035,0.2413,-0.1185,-0.2958,2.1537,rough,14.0,1,3.981
2600,83.20,3.1816,4.7481,0.2787,-0.4136,-0.0324,2.1635,rough,14.0,1,3.508
2610,83.52,2.9603,4.9908,0.3221,-0.4557,-0.2969,2.2823,rough,14.0,1,3.180
2620,83.84,2.6882,5.2759,0.4614,-0.4618,-0.3398,2.3158,rough,14.0,1,2.789
2630,84.16,2.3917,5.5693,0.5992,-0.5101,-0.3109,2.3027,rough,14.0,1,2.377
2640,84.48,2.1014,5.8687,0.7193,-0.5410,-0.3332,2.3115,rough,14.0,1,1.966
2650,84.80,1.8078,6.1709,0.8394,-0.5717,-0.3167,2.2811,rough,14.0,1,1.554
2660,85.12,1.5350,6.4601,0.9605,-0.5558,-0.3508,2.2959,rough,14.0,1,1.170
2670,85.44,1.2730,6.7492,1.1098,-0.5309,-0.4183,2.2665,rough,14.0,1,0.802
2680,85.76,1.0361,6.9211,1.1911,-0.6098,-0.2699,2.5524,rough,14.0,2,14.827
2690,86.08,0.7640,7.0024,1.2131,-0.6441,-0.0882,2.8500,rough,14.0,2,14.730
2700,86.40,0.4216,7.0431,1.1877,-0.5985,0.0653,3.0653,rough,14.0,2,14.565
2710,86.72,0.0559,7.0165,1.1309,-0.5287,0.1284,-3.0108,rough,14.0,2,14.337
2720,87.04,-0.3411,6.9281,1.0406,-0.4067,0.2207,-2.8617,rough,14.0,2,14.046
2730,87.36,-0.7219,6.7750,0.9355,-0.3652,0.2513,-2.7364,rough,14.0,2,13.714
2740,87.68,-1.0915,6.5824,0.8112,-0.3281,0.3043,-2.6396,rough,14.0,2,13.359
2750,88.00,-1.4442,6.3640,0.6803,-0.2660,0.3327,-2.5632,rough,14.0,2,12.992
2760,88.32,-1.7744,6.1278,0.5497,-0.2153,0.2927,-2.4936,rough,14.0,2,12.625
2770,88.64,-2.0986,5.8698,0.4595,-0.1589,0.2069,-2.4292,rough,14.0,2,12.243
2780,88.96,-2.4039,5.5883,0.3965,-0.1319,0.1058,-2.3753,rough,14.0,2,11.851
2790,89.28,-2.7085,5.2788,0.3541,-0.1117,0.0895,-2.3335,rough,14.0,2,11.436
2800,89.60,-3.0177,4.9550,0.2996,-0.0462,0.1348,-2.3048,rough,14.0,2,11.008
2810,89.92,-3.3052,4.6277,0.2422,-0.0179,0.1242,-2.2748,rough,14.0,2,10.588
2820,90.24,-3.5917,4.3001,0.2041,0.0585,0.1036,-2.2426,rough,14.0,2,10.169
2830,90.56,-3.8425,3.9635,0.1943,0.0112,0.0015,-2.2194,rough,14.0,2,9.759
2840,90.88,-4.0972,3.6248,0.2080,0.0239,-0.0624,-2.1991,rough,14.0,2,9.345
2850,91.20,-4.3570,3.2626,0.2237,0.0502,-0.0135,-2.1731,rough,14.0,2,8.909
2860,91.52,-4.6030,2.8841,0.2175,0.0180,0.0367,-2.1486,rough,14.0,2,8.465
2870,91.84,-4.8385,2.5046,0.1954,-0.0183,0.0564,-2.1276,rough,14.0,2,8.024
2880,92.16,-5.0626,2.1377,0.1834,-0.0183,-0.0131,-2.1087,rough,14.0,2,7.599
2890,92.48,-5.2815,1.7621,0.1934,-0.0164,-0.0450,-2.0900,rough,14.0,2,7.169
2900,92.80,-5.4893,1.3698,0.2036,-0.0597,-0.0303,-2.0718,rough,14.0,2,6.729
2910,93.12,-5.7030,0.9701,0.1976,-0.0547,0.0186,-2.0657,rough,14.0,2,6.279
2920,93.44,-5.9171,0.5809,0.1871,-0.0160,0.0167,-2.0543,rough,14.0,2,5.840
2930,93.76,-6.1216,0.1909,0.1811,-0.0023,0.0062,-2.0421,rough,14.0,2,5.404
2940,94.08,-6.3201,-0.2039,0.1798,0.0000,0.0001,-2.0282,rough,14.0,2,4.967
2950,94.40,-6.5135,-0.6022,0.1805,0.0012,-0.0030,-2.0111,rough,14.0,2,4.528
2960,94.72,-6.7003,-0.9931,0.1883,0.0171,-0.0360,-2.0007,rough,14.0,2,4.099
2970,95.04,-6.8899,-1.3967,0.1927,0.0408,-0.0005,-1.9867,rough,14.0,2,3.658
2980,95.36,-7.0690,-1.7995,0.1909,0.0419,0.0081,-1.9721,rough,14.0,2,3.222
2990,95.68,-7.2363,-2.2099,0.1858,0.0238,0.0092,-1.9494,rough,14.0,2,2.783
3000,96.00,-7.3927,-2.6187,0.1898,0.0099,-0.0182,-1.9277,rough,14.0,2,2.350
3010,96.32,-7.5380,-3.0240,0.2049,-0.0065,-0.0777,-1.9044,rough,14.0,2,1.924
3020,96.64,-7.6660,-3.4569,0.2165,-0.0724,-0.0131,-1.8779,rough,14.0,2,1.475
3030,96.96,-7.8014,-3.8877,0.2125,-0.0496,0.0687,-1.8554,rough,14.0,2,1.031
3040,97.28,-7.9231,-4.2989,0.1867,-0.0034,0.0461,-1.8814,rough,14.0,0,13.270
3050,97.60,-7.9858,-4.6449,0.1797,0.0000,-0.0008,-1.7028,rough,14.0,0,13.331
3060,97.92,-8.0271,-4.9616,0.1797,0.0001,0.0000,-1.4170,rough,14.0,0,13.379
3070,98.24,-7.9698,-5.2768,0.1798,-0.0000,-0.0003,-1.1496,rough,14.0,0,13.336
3080,98.56,-7.8066,-5.5956,0.1798,-0.0001,0.0003,-0.9622,rough,14.0,0,13.195
3090,98.88,-7.5771,-5.8895,0.1917,-0.0188,-0.0555,-0.8263,rough,14.0,0,12.994
3100,99.20,-7.2883,-6.1711,0.1903,-0.0391,0.0194,-0.6918,rough,14.0,0,12.740
3110,99.52,-6.9686,-6.4126,0.1864,-0.0128,0.0398,-0.5741,rough,14.0,0,12.458
3120,99.84,-6.6372,-6.6185,0.1803,-0.0021,0.0025,-0.4894,rough,14.0,0,12.164
3130,100.16,-6.2667,-6.8044,0.1792,0.0033,0.0001,-0.3837,rough,14.0,0,11.834
3140,100.48,-5.8644,-6.9560,0.1798,0.0000,0.0000,-0.2761,rough,14.0,0,11.471
3150,100.80,-5.4479,-7.0682,0.1822,0.0060,-0.0078,-0.1890,rough,14.0,0,11.089
3160,101.12,-5.0472,-7.1460,0.1907,0.0234,-0.0510,-0.1553,rough,14.0,0,10.718
3170,101.44,-4.6279,-7.2168,0.2102,0.0518,-0.0297,-0.1056,rough,14.0,0,10.331
3180,101.76,-4.1863,-7.2583,0.2092,0.0631,0.0272,-0.0450,rough,14.0,0,9.916
3190,102.08,-3.7492,-7.2700,0.1989,0.0429,0.0253,0.0124,rough,14.0,0,9.501
3200,102.40,-3.3122,-7.2504,0.1815,0.0055,0.0256,0.0530,rough,14.0,0,9.077
3210,102.72,-2.8771,-7.2176,0.1776,-0.0047,0.0119,0.0945,rough,14.0,0,8.653
3220,103.04,-2.4409,-7.1666,0.1793,0.0027,0.0004,0.1263,rough,14.0,0,8.223
3230,103.36,-2.0037,-7.1032,0.1798,0.0003,0.0001,0.1583,rough,14.0,0,7.789
3240,103.68,-1.5730,-7.0323,0.1858,-0.0003,-0.0393,0.1756,rough,14.0,0,7.360
3250,104.00,-1.1435,-6.9527,0.2078,0.0173,-0.0594,0.1953,rough,14.0,0,6.929
3260,104.32,-0.7035,-6.8563,0.2235,-0.0046,-0.0084,0.2176,rough,14.0,0,6.484
3270,104.64,-0.2622,-6.7568,0.2164,-0.0048,0.0402,0.2317,rough,14.0,0,6.036
3280,104.96,0.1734,-6.6514,0.1915,0.0025,0.0738,0.2548,rough,14.0,0,5.593
3290,105.28,0.5889,-6.5399,0.1816,-0.0020,0.0047,0.2678,rough,14.0,0,5.167
3300,105.60,1.0146,-6.4215,0.1807,0.0049,-0.0019,0.2870,rough,14.0,0,4.729
3310,105.92,1.4392,-6.2938,0.1796,-0.0004,-0.0005,0.3007,rough,14.0,0,4.289
3320,106.24,1.8614,-6.1606,0.1808,-0.0023,-0.0010,0.3103,rough,14.0,0,3.850
3330,106.56,2.2827,-6.0226,0.1820,-0.0094,-0.0016,0.3197,rough,14.0,0,3.411
3340,106.88,2.6973,-5.8795,0.1829,-0.0211,-0.0005,0.3344,rough,14.0,0,2.976
3350,107.20,3.1147,-5.7271,0.1827,-0.0144,0.0017,0.3562,rough,14.0,0,2.536
3360,107.52,3.5279,-5.5686,0.1799,-0.0005,0.0004,0.3791,rough,14.0,0,2.097
3370,107.84,3.9363,-5.4031,0.1799,0.0000,-0.0000,0.4036,rough,14.0,0,1.662
3380,108.16,4.3309,-5.2271,0.1867,-0.0132,-0.0296,0.4254,rough,14.0,0,1.236
3390,108.48,4.7177,-5.0294,0.1959,-0.0830,0.0001,0.4470,rough,14.0,0,0.808
3400,108.80,5.0111,-4.8613,0.2049,-0.1095,-0.0248,0.6662,rough,14.0,1,12.999
3410,109.12,5.2636,-4.6231,0.2200,-0.1251,-0.0570,0.8509,rough,14.0,1,12.854
3420,109.44,5.4647,-4.3170,0.2272,-0.1701,-0.0284,1.0125,rough,14.0,1,12.635
3430,109.76,5.6338,-3.9823,0.2412,-0.1906,-0.0422,1.1536,rough,14.0,1,12.384
3440,110.08,5.7506,-3.5891,0.2362,-0.2444,0.0369,1.2776,rough,14.0,1,12.065
3450,110.40,5.8481,-3.1907,0.2268,-0.2326,0.0206,1.3625,rough,14.0,1,11.740
3460,110.72,5.9407,-2.7830,0.2040,-0.1255,0.0021,1.4165,rough,14.0,1,11.409
3470,111.04,6.0043,-2.3575,0.1886,-0.0181,0.0338,1.4940,rough,14.0,1,11.055
3480,111.36,6.0232,-1.9376,0.1793,0.0025,-0.0003,1.5947,rough,14.0,1,10.691
3490,111.68,6.0068,-1.5058,0.1799,0.0003,-0.0000,1.6862,rough,14.0,1,10.303
3500,112.00,5.9524,-1.0752,0.1799,0.0002,0.0000,1.7563,rough,14.0,1,9.902
3510,112.32,5.8681,-0.6478,0.1799,0.0002,-0.0000,1.8133,rough,14.0,1,9.490
3520,112.64,5.7596,-0.2245,0.1799,0.0001,-0.0000,1.8607,rough,14.0,1,9.072
3530,112.96,5.6310,0.1945,0.1799,0.0001,-0.0000,1.9009,rough,14.0,1,8.648
3540,113.28,5.4856,0.6090,0.1799,0.0001,-0.0000,1.9356,rough,14.0,1,8.220
3550,113.60,5.3256,1.0185,0.1799,0.0001,-0.0000,1.9647,rough,14.0,1,7.790
3560,113.92,5.1538,1.4239,0.1799,0.0001,-0.0000,1.9901,rough,14.0,1,7.358
3570,114.24,4.9716,1.8253,0.1799,0.0001,-0.0000,2.0133,rough,14.0,1,6.924
3580,114.56,4.7800,2.2229,0.1799,0.0001,-0.0000,2.0346,rough,14.0,1,6.488
3590,114.88,4.5800,2.6168,0.1799,0.0001,-0.0000,2.0543,rough,14.0,1,6.052
3600,115.20,4.3720,3.0070,0.1799,0.0001,-0.0000,2.0727,rough,14.0,1,5.614
3610,115.52,4.1569,3.3935,0.1799,0.0000,-0.0000,2.0902,rough,14.0,1,5.176
3620,115.84,3.9390,3.7669,0.1880,-0.0038,-0.0513,2.1042,rough,14.0,1,4.747
3630,116.16,3.6980,4.1378,0.1864,-0.0717,-0.0428,2.1148,rough,14.0,1,4.307
3640,116.48,3.4745,4.4602,0.2468,-0.1679,-0.2695,2.1542,rough,14.0,1,3.915
3650,116.80,3.1849,4.7757,0.2708,-0.3322,-0.1136,2.1694,rough,14.0,1,3.488
3660,117.12,2.9477,5.0311,0.3513,-0.4103,-0.3091,2.2749,rough,14.0,1,3.141
3670,117.44,2.6727,5.3189,0.4877,-0.4551,-0.3736,2.3127,rough,14.0,1,2.745
3680,117.76,2.3697,5.5875,0.6026,-0.5476,-0.3088,2.2985,rough,14.0,1,2.350
3690,118.08,2.0917,5.8529,0.7129,-0.5340,-0.3232,2.2852,rough,14.0,1,1.974
3700,118.40,1.8072,6.1488,0.8269,-0.5774,-0.3014,2.2857,rough,14.0,1,1.573
3710,118.72,1.5380,6.4267,0.9379,-0.5634,-0.3622,2.3024,rough,14.0,1,1.201
3720,119.04,1.2713,6.7151,1.0830,-0.5226,-0.4029,2.2542,rough,14.0,1,0.834
3730,119.36,1.0420,6.8941,1.1737,-0.6008,-0.2966,2.5228,rough,14.0,2,14.809
3740,119.68,0.7800,7.0001,1.2139,-0.6405,-0.1400,2.7818,rough,14.0,2,14.738
3750,120.00,0.4514,7.0528,1.1991,-0.6072,0.0323,3.0190,rough,14.0,2,14.590
3760,120.32,0.0913,7.0468,1.1504,-0.5211,0.1053,-3.0539,rough,14.0,2,14.382
3770,120.64,-0.3080,6.9694,1.0649,-0.4219,0.2071,-2.8982,rough,14.0,2,14.099
3780,120.96,-0.6904,6.8265,0.9622,-0.3691,0.2444,-2.7573,rough,14.0,2,13.775
3790,121.28,-1.0632,6.6435,0.8402,-0.3221,0.2929,-2.6609,rough,14.0,2,13.426
3800,121.60,-1.4182,6.4288,0.7089,-0.2880,0.3279,-2.5823,rough,14.0,2,13.062
3810,121.92,-1.7556,6.1976,0.5793,-0.2191,0.3145,-2.5095,rough,14.0,2,12.695
3820,122.24,-2.0750,5.9400,0.4724,-0.1973,0.2374,-2.4397,rough,14.0,2,12.316
3830,122.56,-2.3857,5.6621,0.4100,-0.1255,0.1264,-2.3806,rough,14.0,2,11.925
3840,122.88,-2.6916,5.3569,0.3654,-0.1073,0.0987,-2.3408,rough,14.0,2,11.514
3850,123.20,-2.9986,5.0343,0.3102,-0.0573,0.1332,-2.3084,rough,14.0,2,11.088
3860,123.52,-3.2931,4.7106,0.2488,0.0102,0.1368,-2.2741,rough,14.0,2,10.668
3870,123.84,-3.5696,4.3796,0.2070,0.0286,0.0965,-2.2451,rough,14.0,2,10.251
3880,124.16,-3.8286,4.0519,0.1922,0.0364,-0.0292,-2.2203,rough,14.0,2,9.845
3890,124.48,-4.0828,3.7019,0.2046,0.0078,-0.0654,-2.1949,rough,14.0,2,9.422
3900,124.80,-4.3438,3.3443,0.2248,0.0353,-0.0315,-2.1719,rough,14.0,2,8.990
3910,125.12,-4.5909,2.9648,0.2177,0.0107,0.0339,-2.1452,rough,14.0,2,8.544
3920,125.44,-4.8296,2.5898,0.2013,0.0004,0.0366,-2.1216,rough,14.0,2,8.106
3930,125.76,-5.0534,2.2130,0.1856,-0.0086,0.0152,-2.1011,rough,14.0,2,7.673
3940,126.08,-5.2644,1.8321,0.1924,-0.0341,-0.0164,-2.0840,rough,14.0,2,7.241
3950,126.40,-5.4714,1.4467,0.2027,-0.0493,-0.0397,-2.0654,rough,14.0,2,6.807
3960,126.72,-5.6842,1.0397,0.2046,-0.0604,0.0493,-2.0558,rough,14.0,2,6.351
3970,127.04,-5.8906,0.6524,0.1894,-0.0291,0.0106,-2.0446,rough,14.0,2,5.916
3980,127.36,-6.0950,0.2586,0.1813,-0.0016,0.0079,-2.0318,rough,14.0,2,5.477
3990,127.68,-6.2902,-0.1385,0.1798,0.0001,-0.0003,-2.0186,rough,14.0,2,5.038
4000,128.00,-6.4805,-0.5397,0.1798,0.0000,-0.0000,-2.0023,rough,14.0,2,4.597
4010,128.32,-6.6659,-0.9338,0.1858,0.0173,-0.0290,-1.9933,rough,14.0,2,4.166
4020,128.64,-6.8511,-1.3390,0.1931,0.0387,-0.0045,-1.9822,rough,14.0,2,3.724
4030,128.96,-7.0293,-1.7422,0.1907,0.0463,0.0070,-1.9716,rough,14.0,2,3.288
4040,129.28,-7.1974,-2.1545,0.1864,0.0237,0.0136,-1.9525,rough,14.0,2,2.846
4050,129.60,-7.3560,-2.5609,0.1893,0.0172,-0.0227,-1.9321,rough,14.0,2,2.414
4060,129.92,-7.5015,-2.9687,0.2010,-0.0134,-0.0748,-1.9092,rough,14.0,2,1.985
4070,130.24,-7.6376,-3.3995,0.2205,-0.0443,-0.0092,-1.8845,rough,14.0,2,1.536
4080,130.56,-7.7710,-3.8309,0.2128,-0.0566,0.0531,-1.8642,rough,14.0,2,1.090
4090,130.88,-7.8939,-4.2493,0.1915,-0.0193,0.0534,-1.8783,rough,14.0,3,0.828
4100,131.20,-7.9557,-4.5679,0.1781,-0.0107,-0.0029,-1.6526,rough,14.0,0,13.300
4110,131.52,-7.9721,-4.8722,0.1798,-0.0004,-0.0001,-1.3330,rough,14.0,0,13.321
4120,131.84,-7.8805,-5.1941,0.1799,-0.0001,-0.0000,-1.1045,rough,14.0,0,13.242
4130,132.16,-7.7009,-5.5105,0.1798,0.0001,-0.0000,-0.9219,rough,14.0,0,13.083
4140,132.48,-7.4531,-5.7993,0.1840,-0.0000,-0.0282,-0.7731,rough,14.0,0,12.862
4150,132.80,-7.1477,-6.0640,0.1872,-0.0204,-0.0054,-0.6507,rough,14.0,0,12.587
4160,133.12,-6.8160,-6.3021,0.1853,0.0020,0.0197,-0.5461,rough,14.0,0,12.291
4170,133.44,-6.4608,-6.5028,0.1803,0.0021,0.0017,-0.4471,rough,14.0,0,11.971
4180,133.76,-6.0713,-6.6770,0.1799,0.0002,-0.0000,-0.3458,rough,14.0,0,11.618
4190,134.08,-5.6614,-6.8155,0.1799,0.0000,0.0001,-0.2543,rough,14.0,0,11.243
4200,134.40,-5.2585,-6.9145,0.1868,-0.0021,-0.0505,-0.2015,rough,14.0,0,10.870
4210,134.72,-4.8582,-7.0015,0.2082,0.0278,-0.0387,-0.1804,rough,14.0,0,10.500
4220,135.04,-4.4450,-7.0769,0.2198,0.0425,-0.0131,-0.1448,rough,14.0,0,10.118
4230,135.36,-4.0079,-7.1346,0.2128,0.0441,0.0289,-0.0743,rough,14.0,0,9.711
4240,135.68,-3.5691,-7.1584,0.1948,0.0179,0.0496,-0.0136,rough,14.0,0,9.296
4250,136.00,-3.1398,-7.1537,0.1779,-0.0103,-0.0002,0.0381,rough,14.0,0,8.884
4260,136.32,-2.7016,-7.1335,0.1793,0.0018,0.0002,0.0811,rough,14.0,0,8.460
4270,136.64,-2.2635,-7.0946,0.1793,0.0019,-0.0012,0.1183,rough,14.0,0,8.032
4280,136.96,-1.8285,-7.0397,0.1824,-0.0006,-0.0170,0.1470,rough,14.0,0,7.603
4290,137.28,-1.3973,-6.9735,0.1959,0.0003,-0.0490,0.1682,rough,14.0,0,7.174
4300,137.60,-0.9680,-6.8976,0.2174,0.0011,-0.0580,0.1893,rough,14.0,0,6.745
4310,137.92,-0.5258,-6.8031,0.2226,-0.0126,0.0083,0.2085,rough,14.0,0,6.299
4320,138.24,-0.0826,-6.7096,0.2115,0.0048,0.0686,0.2294,rough,14.0,0,5.852
4330,138.56,0.3407,-6.6059,0.1874,0.0001,0.0377,0.2468,rough,14.0,0,5.421
4340,138.88,0.7623,-6.4965,0.1808,0.0028,0.0023,0.2670,rough,14.0,0,4.990
4350,139.20,1.1879,-6.3792,0.1810,0.0065,-0.0016,0.2872,rough,14.0,0,4.553
4360,139.52,1.6132,-6.2516,0.1801,0.0011,-0.0005,0.2987,rough,14.0,0,4.114
4370,139.84,2.0318,-6.1193,0.1813,-0.0023,-0.0033,0.3082,rough,14.0,0,3.679
4380,140.16,2.4501,-5.9793,0.1856,-0.0260,-0.0052,0.3184,rough,14.0,0,3.241
4390,140.48,2.8660,-5.8350,0.1866,-0.0358,0.0008,0.3389,rough,14.0,0,2.806
4400,140.80,3.2828,-5.6826,0.1823,-0.0120,0.0024,0.3628,rough,14.0,0,2.367
4410,141.12,3.6928,-5.5223,0.1783,-0.0004,-0.0101,0.3884,rough,14.0,0,1.932
4420,141.44,4.0998,-5.3523,0.1797,0.0000,-0.0011,0.4168,rough,14.0,0,1.497
4430,141.76,4.4838,-5.1720,0.1904,-0.0199,-0.0457,0.4368,rough,14.0,0,1.080
4440,142.08,4.8481,-4.9896,0.1990,-0.0664,-0.0420,0.5230,rough,14.0,1,13.073
4450,142.40,5.1279,-4.7948,0.2103,-0.1013,-0.0552,0.7200,rough,14.0,1,12.973
4460,142.72,5.3513,-4.5260,0.2269,-0.1591,-0.0410,0.9004,rough,14.0,1,12.792
4470,143.04,5.5504,-4.2071,0.2362,-0.1858,-0.0381,1.0409,rough,14.0,1,12.563
4480,143.36,5.7014,-3.8517,0.2508,-0.2122,-0.0224,1.1834,rough,14.0,1,12.289
4490,143.68,5.8139,-3.4583,0.2372,-0.2567,0.0230,1.3092,rough,14.0,1,11.970
4500,144.00,5.9061,-3.0684,0.2288,-0.2470,0.0209,1.3679,rough,14.0,1,11.653
4510,144.32,5.9982,-2.6588,0.2036,-0.1242,0.0010,1.4182,rough,14.0,1,11.322
4520,144.64,6.0612,-2.2349,0.1833,0.0091,0.0349,1.5047,rough,14.0,1,10.972
4530,144.96,6.0761,-1.8141,0.1799,-0.0000,0.0001,1.6058,rough,14.0,1,10.607
4540,145.28,6.0558,-1.3828,0.1799,0.0000,0.0001,1.6950,rough,14.0,1,10.220
4550,145.60,5.9975,-0.9530,0.1799,0.0002,0.0000,1.7653,rough,14.0,1,9.819
4560,145.92,5.9093,-0.5265,0.1799,0.0002,-0.0000,1.8224,rough,14.0,1,9.407
4570,146.24,5.7969,-0.1043,0.1799,0.0001,-0.0000,1.8698,rough,14.0,1,8.989
4580,146.56,5.6645,0.3133,0.1799,0.0001,-0.0000,1.9101,rough,14.0,1,8.566
4590,146.88,5.5152,0.7263,0.1799,0.0001,-0.0000,1.9450,rough,14.0,1,8.138
4600,147.20,5.3514,1.1343,0.1799,0.0001,-0.0000,1.9742,rough,14.0,1,7.708
4610,147.52,5.1757,1.5379,0.1799,0.0001,-0.0000,1.9998,rough,14.0,1,7.276
4620,147.84,4.9896,1.9374,0.1799,0.0001,-0.0000,2.0232,rough,14.0,1,6.842
4630,148.16,4.7941,2.3330,0.1799,0.0001,-0.0000,2.0446,rough,14.0,1,6.407
4640,148.48,4.5900,2.7247,0.1799,0.0001,-0.0000,2.0645,rough,14.0,1,5.971
4650,148.80,4.3781,3.1127,0.1799,0.0001,-0.0000,2.0831,rough,14.0,1,5.533
4660,149.12,4.1589,3.4969,0.1799,0.0000,-0.0000,2.1008,rough,14.0,1,5.095
4670,149.44,3.9346,3.8664,0.1886,-0.0119,-0.0438,2.1144,rough,14.0,1,4.667
4680,149.76,3.6848,4.2069,0.2021,-0.1101,-0.0181,2.1202,rough,14.0,1,4.245
4690,150.08,3.4520,4.5434,0.2439,-0.1873,-0.0727,2.1122,rough,14.0,1,3.837
4700,150.40,3.2038,4.8167,0.2888,-0.3804,-0.2503,2.1715,rough,14.0,1,3.468
4710,150.72,2.9444,5.0687,0.3794,-0.4671,-0.2510,2.2716,rough,14.0,1,3.109
4720,151.04,2.6694,5.3514,0.4988,-0.5071,-0.3587,2.2948,rough,14.0,1,2.717
4730,151.36,2.3828,5.5859,0.6042,-0.5063,-0.3458,2.3054,rough,14.0,1,2.358
4740,151.68,2.0872,5.8518,0.7116,-0.5438,-0.3113,2.2986,rough,14.0,1,1.972
4750,152.00,1.7994,6.1610,0.8299,-0.5604,-0.3075,2.2774,rough,14.0,1,1.558
4760,152.32,1.5311,6.4600,0.9596,-0.5490,-0.3519,2.2937,rough,14.0,1,1.168
4770,152.64,1.2638,6.7470,1.1078,-0.5377,-0.4079,2.2885,rough,14.0,1,0.801
4780,152.96,1.0382,6.9153,1.1887,-0.6170,-0.2622,2.5766,rough,14.0,2,14.823
4790,153.28,0.7498,6.9973,1.2074,-0.6452,-0.0812,2.8686,rough,14.0,2,14.718
4800,153.60,0.4029,7.0340,1.1786,-0.5807,0.0867,3.0864,rough,14.0,2,14.547
4810,153.92,0.0383,6.9971,1.1152,-0.5185,0.1198,-2.9840,rough,14.0,2,14.311
4820,154.24,-0.3618,6.9069,1.0278,-0.4048,0.2206,-2.8514,rough,14.0,2,14.017
4830,154.56,-0.7438,6.7511,0.9240,-0.3764,0.2516,-2.7330,rough,14.0,2,13.683
4840,154.88,-1.1137,6.5591,0.7984,-0.3283,0.3070,-2.6368,rough,14.0,2,13.327
4850,155.20,-1.4623,6.3360,0.6653,-0.2837,0.3064,-2.5594,rough,14.0,2,12.959
4860,155.52,-1.7915,6.0978,0.5381,-0.2499,0.2667,-2.4958,rough,14.0,2,12.590
4870,155.84,-2.1165,5.8448,0.4537,-0.1780,0.1736,-2.4249,rough,14.0,2,12.212
4880,156.16,-2.4270,5.5685,0.3878,-0.1338,0.0841,-2.3735,rough,14.0,2,11.823
4890,156.48,-2.7366,5.2589,0.3521,-0.1074,0.0886,-2.3433,rough,14.0,2,11.406
4900,156.80,-3.0454,4.9426,0.2945,-0.0458,0.1213,-2.3084,rough,14.0,2,10.985
4910,157.12,-3.3358,4.6161,0.2382,-0.0151,0.1216,-2.2784,rough,14.0,2,10.565
4920,157.44,-3.6187,4.2899,0.2021,0.0481,0.0855,-2.2465,rough,14.0,2,10.149
4930,157.76,-3.8732,3.9570,0.1915,0.0119,-0.0178,-2.2206,rough,14.0,2,9.740
4940,158.08,-4.1313,3.6157,0.2097,0.0229,-0.0634,-2.1969,rough,14.0,2,9.323
4950,158.40,-4.3939,3.2502,0.2251,0.0415,-0.0015,-2.1702,rough,14.0,2,8.883
4960,158.72,-4.6386,2.8733,0.2154,0.0131,0.0421,-2.1455,rough,14.0,2,8.441
4970,159.04,-4.8745,2.4928,0.1933,-0.0188,0.0699,-2.1216,rough,14.0,2,7.999
4980,159.36,-5.0968,2.1255,0.1830,-0.0044,-0.0069,-2.1029,rough,14.0,2,7.575
4990,159.68,-5.3089,1.7479,0.1947,-0.0181,-0.0504,-2.0837,rough,14.0,2,7.146
5000,160.00,-5.5147,1.3532,0.2048,-0.0637,-0.0301,-2.0661,rough,14.0,2,6.704
5010,160.32,-5.7275,0.9514,0.2010,-0.0611,0.0252,-2.0564,rough,14.0,2,6.253
5020,160.64,-5.9386,0.5631,0.1862,-0.0167,0.0114,-2.0452,rough,14.0,2,5.816
5030,160.96,-6.1406,0.1692,0.1802,-0.0013,0.0017,-2.0351,rough,14.0,2,5.378
5040,161.28,-6.3378,-0.2275,0.1798,0.0003,-0.0002,-2.0187,rough,14.0,2,4.939
5050,161.60,-6.5268,-0.6315,0.1747,-0.0162,0.0178,-2.0048,rough,14.0,2,4.496
5060,161.92,-6.7138,-1.0207,0.1884,0.0211,-0.0317,-1.9938,rough,14.0,2,4.069
5070,162.24,-6.8992,-1.4275,0.1937,0.0413,0.0010,-1.9819,rough,14.0,2,3.626
5080,162.56,-7.0757,-1.8378,0.1902,0.0460,0.0220,-1.9622,rough,14.0,2,3.184
5090,162.88,-7.2386,-2.2470,0.1848,0.0250,0.0031,-1.9426,rough,14.0,2,2.747
5100,163.20,-7.3925,-2.6589,0.1903,0.0078,-0.0157,-1.9221,rough,14.0,2,2.311
5110,163.52,-7.5333,-3.0661,0.2083,-0.0184,-0.0782,-1.8987,rough,14.0,2,1.883
5120,163.84,-7.6635,-3.4993,0.2217,-0.0698,-0.0164,-1.8756,rough,14.0,2,1.434
5130,164.16,-7.7998,-3.9365,0.2099,-0.0468,0.0798,-1.8463,rough,14.0,2,0.982
5140,164.48,-7.9159,-4.3410,0.1856,0.0044,0.0445,-1.8477,rough,14.0,0,13.262
5150,164.80,-7.9717,-4.6596,0.1794,-0.0004,-0.0029,-1.6313,rough,14.0,0,13.317
5160,165.12,-7.9885,-4.9687,0.1797,0.0000,-0.0004,-1.3205,rough,14.0,0,13.341
5170,165.44,-7.8880,-5.2921,0.1799,-0.0002,-0.0001,-1.0983,rough,14.0,0,13.255
5180,165.76,-7.7028,-5.6088,0.1817,-0.0038,-0.0071,-0.9275,rough,14.0,0,13.093
5190,166.08,-7.4507,-5.8965,0.1871,-0.0252,-0.0149,-0.7800,rough,14.0,0,12.869
5200,166.40,-7.1498,-6.1617,0.1886,-0.0235,0.0049,-0.6483,rough,14.0,0,12.602
5210,166.72,-6.8216,-6.3966,0.1850,-0.0065,0.0215,-0.5388,rough,14.0,0,12.310
5220,167.04,-6.4672,-6.5914,0.1797,0.0011,-0.0002,-0.4503,rough,14.0,0,11.992
5230,167.36,-6.0753,-6.7637,0.1799,0.0001,0.0001,-0.3505,rough,14.0,0,11.638
5240,167.68,-5.6663,-6.9036,0.1799,-0.0000,-0.0001,-0.2584,rough,14.0,0,11.266
5250,168.00,-5.2629,-7.0059,0.1878,0.0063,-0.0470,-0.1978,rough,14.0,0,10.895
5260,168.32,-4.8516,-7.0935,0.2049,0.0386,-0.0315,-0.1786,rough,14.0,0,10.516
5270,168.64,-4.4385,-7.1658,0.2165,0.0632,-0.0115,-0.1434,rough,14.0,0,10.135
5280,168.96,-3.9994,-7.2165,0.2050,0.0424,0.0412,-0.0708,rough,14.0,0,9.725
5290,169.28,-3.5654,-7.2381,0.1894,0.0126,0.0319,-0.0075,rough,14.0,0,9.315
5300,169.60,-3.1332,-7.2296,0.1796,-0.0026,0.0057,0.0447,rough,14.0,0,8.900
5310,169.92,-2.6971,-7.2029,0.1795,0.0015,-0.0002,0.0874,rough,14.0,0,8.477
5320,170.24,-2.2596,-7.1511,0.1801,-0.0016,0.0009,0.1236,rough,14.0,0,8.046
5330,170.56,-1.8240,-7.0921,0.1801,0.0050,-0.0088,0.1508,rough,14.0,0,7.616
5340,170.88,-1.3959,-7.0205,0.1952,0.0107,-0.0456,0.1810,rough,14.0,0,7.189
5350,171.20,-0.9666,-6.9386,0.2185,0.0080,-0.0535,0.2038,rough,14.0,0,6.759
5360,171.52,-0.5215,-6.8415,0.2271,0.0116,0.0192,0.2283,rough,14.0,0,6.309
5370,171.84,-0.0815,-6.7387,0.2067,0.0355,0.0635,0.2501,rough,14.0,0,5.862
5380,172.16,0.3399,-6.6241,0.1885,0.0058,0.0306,0.2574,rough,14.0,0,5.429
5390,172.48,0.7637,-6.5072,0.1808,0.0020,0.0033,0.2768,rough,14.0,0,4.993
5400,172.80,1.1884,-6.3859,0.1810,0.0063,-0.0011,0.2957,rough,14.0,0,4.556
5410,173.12,1.6123,-6.2544,0.1806,0.0031,0.0005,0.3063,rough,14.0,0,4.116
5420,173.44,2.0346,-6.1185,0.1813,-0.0022,-0.0033,0.3153,rough,14.0,0,3.676
5430,173.76,2.4527,-5.9755,0.1855,-0.0258,-0.0049,0.3251,rough,14.0,0,3.237
5440,174.08,2.8680,-5.8309,0.1850,-0.0248,0.0015,0.3367,rough,14.0,0,2.802
5450,174.40,3.2869,-5.6804,0.1827,-0.0034,0.0161,0.3609,rough,14.0,0,2.362
5460,174.72,3.6957,-5.5202,0.1782,0.0094,-0.0003,0.3837,rough,14.0,0,1.928
5470,175.04,4.1006,-5.3501,0.1797,0.0010,-0.0000,0.4124,rough,14.0,0,1.495
5480,175.36,4.4855,-5.1705,0.1904,-0.0238,-0.0405,0.4326,rough,14.0,0,1.077
5490,175.68,4.8536,-4.9961,0.1955,-0.1078,-0.0431,0.5945,rough,14.0,1,13.081
5500,176.00,5.1199,-4.7781,0.2113,-0.1200,-0.0311,0.7875,rough,14.0,1,12.954
5510,176.32,5.3315,-4.4980,0.2215,-0.1476,-0.0416,0.9596,rough,14.0,1,12.759
5520,176.64,5.5035,-4.1670,0.2250,-0.1749,-0.0438,1.1025,rough,14.0,1,12.508
5530,176.96,5.6594,-3.8044,0.2315,-0.1530,-0.0152,1.2199,rough,14.0,1,12.229
5540,177.28,5.7591,-3.4022,0.2247,-0.2138,0.0101,1.3245,rough,14.0,1,11.897
5550,177.60,5.8548,-2.9901,0.2100,-0.1432,0.0220,1.3898,rough,14.0,1,11.560
5560,177.92,5.9275,-2.5645,0.2009,-0.1110,-0.0004,1.4296,rough,14.0,1,11.207
5570,178.24,5.9733,-2.1433,0.1796,0.0018,0.0002,1.5369,rough,14.0,1,10.850
5580,178.56,5.9798,-1.7134,0.1799,-0.0000,0.0002,1.6421,rough,14.0,1,10.473
5590,178.88,5.9444,-1.2819,0.1799,0.0001,0.0000,1.7202,rough,14.0,1,10.077
5600,179.20,5.8755,-0.8525,0.1799,0.0002,-0.0000,1.7834,rough,14.0,1,9.670
5610,179.52,5.7796,-0.4268,0.1799,0.0002,-0.0000,1.8353,rough,14.0,1,9.255
5620,179.84,5.6618,-0.0053,0.1799,0.0001,-0.0000,1.8788,rough,14.0,1,8.834
5630,180.16,5.5256,0.4118,0.1799,0.0001,-0.0000,1.9162,rough,14.0,1,8.408
5640,180.48,5.3737,0.8244,0.1799,0.0001,-0.0000,1.9482,rough,14.0,1,7.979
5650,180.80,5.2087,1.2321,0.1799,0.0001,-0.0000,1.9751,rough,14.0,1,7.547
5660,181.12,5.0326,1.6359,0.1799,0.0001,-0.0000,1.9994,rough,14.0,1,7.114
5670,181.44,4.8466,2.0359,0.1799,0.0001,-0.0000,2.0216,rough,14.0,1,6.679
5680,181.76,4.6518,2.4322,0.1799,0.0001,-0.0000,2.0420,rough,14.0,1,6.243
5690,182.08,4.4487,2.8247,0.1799,0.0001,-0.0000,2.0611,rough,14.0,1,5.806
5700,182.40,4.2381,3.2137,0.1799,0.0000,-0.0000,2.0790,rough,14.0,1,5.368
5710,182.72,4.0200,3.5975,0.1821,-0.0064,-0.0065,2.0954,rough,14.0,1,4.931
5720,183.04,3.7886,3.9781,0.1829,-0.0307,0.0200,2.1096,rough,14.0,1,4.488
5730,183.36,3.5764,4.3081,0.2250,-0.0713,-0.2305,2.1336,rough,14.0,1,4.098
5740,183.68,3.2836,4.6425,0.2458,-0.3188,-0.0993,2.1404,rough,14.0,1,3.654
5750,184.00,3.0435,4.9071,0.3027,-0.3932,-0.3732,2.3160,rough,14.0,1,3.297
5760,184.32,2.7569,5.1714,0.3948,-0.4614,-0.3033,2.3189,rough,14.0,1,2.914
5770,184.64,2.4706,5.4497,0.5310,-0.5126,-0.3648,2.3547,rough,14.0,1,2.520
5780,184.96,2.1670,5.7091,0.6358,-0.5122,-0.2621,2.3259,rough,14.0,1,2.136
5790,185.28,1.8726,5.9895,0.7413,-0.5417,-0.2737,2.3294,rough,14.0,1,1.744
5800,185.60,1.5752,6.2442,0.8313,-0.5473,-0.2451,2.3146,rough,14.0,1,1.383
5810,185.92,1.3053,6.5105,0.9512,-0.5642,-0.3886,2.3382,rough,14.0,1,1.040
5820,186.24,1.0496,6.7588,1.0775,-0.5191,-0.3802,2.3328,rough,14.0,2,14.706
5830,186.56,0.8412,6.8840,1.1382,-0.6103,-0.2622,2.5992,rough,14.0,2,14.680
5840,186.88,0.5621,6.9511,1.1476,-0.6179,-0.0988,2.9102,rough,14.0,2,14.570
5850,187.20,0.2055,6.9627,1.1134,-0.5473,0.0819,3.1345,rough,14.0,2,14.376
5860,187.52,-0.1731,6.9112,1.0526,-0.4896,0.1423,-2.9684,rough,14.0,2,14.123
5870,187.84,-0.5674,6.8055,0.9640,-0.4031,0.2155,-2.8351,rough,14.0,2,13.822
5880,188.16,-0.9497,6.6435,0.8517,-0.3555,0.2723,-2.7137,rough,14.0,2,13.484
5890,188.48,-1.3141,6.4446,0.7266,-0.3088,0.3124,-2.6221,rough,14.0,2,13.127
5900,188.80,-1.6623,6.2248,0.6008,-0.2303,0.3200,-2.5455,rough,14.0,2,12.764
5910,189.12,-1.9856,5.9861,0.4897,-0.2184,0.2198,-2.4730,rough,14.0,2,12.399
5920,189.44,-2.3107,5.7183,0.4228,-0.1299,0.1590,-2.4107,rough,14.0,2,12.010
5930,189.76,-2.6160,5.4249,0.3724,-0.1127,0.0917,-2.3630,rough,14.0,2,11.609
5940,190.08,-2.9274,5.1086,0.3228,-0.0702,0.1224,-2.3244,rough,14.0,2,11.186
5950,190.40,-3.2262,4.7860,0.2679,-0.0264,0.1467,-2.2905,rough,14.0,2,10.765
5960,190.72,-3.5052,4.4645,0.2116,0.0107,0.0915,-2.2567,rough,14.0,2,10.355
5970,191.04,-3.7709,4.1367,0.1924,0.0276,0.0019,-2.2321,rough,14.0,2,9.946
5980,191.36,-4.0268,3.7952,0.1992,0.0125,-0.0573,-2.2066,rough,14.0,2,9.530
5990,191.68,-4.2887,3.4440,0.2177,0.0383,-0.0404,-2.1848,rough,14.0,2,9.103
6000,192.00,-4.5431,3.0670,0.2230,0.0251,0.0376,-2.1571,rough,14.0,2,8.656
6010,192.32,-4.7856,2.6950,0.2059,0.0124,0.0392,-2.1342,rough,14.0,2,8.220
6020,192.64,-5.0167,2.3200,0.1854,0.0022,0.0251,-2.1130,rough,14.0,2,7.786
6030,192.96,-5.2335,1.9516,0.1891,-0.0090,-0.0442,-2.0945,rough,14.0,2,7.364
6040,193.28,-5.4428,1.5620,0.2010,-0.0477,-0.0363,-2.0752,rough,14.0,2,6.925
6050,193.60,-5.6525,1.1596,0.2062,-0.0765,0.0288,-2.0598,rough,14.0,2,6.474
6060,193.92,-5.8663,0.7701,0.1938,-0.0321,0.0295,-2.0513,rough,14.0,2,6.035
6070,194.24,-6.0717,0.3823,0.1819,-0.0041,0.0083,-2.0375,rough,14.0,2,5.601
6080,194.56,-6.2691,-0.0137,0.1798,0.0005,-0.0004,-2.0253,rough,14.0,2,5.163
6090,194.88,-6.4618,-0.4135,0.1798,0.0001,-0.0000,-2.0077,rough,14.0,2,4.723
6100,195.20,-6.6472,-0.8107,0.1839,0.0088,-0.0173,-1.9946,rough,14.0,2,4.289
6110,195.52,-6.8307,-1.2123,0.1893,0.0324,-0.0167,-1.9813,rough,14.0,2,3.852
6120,195.84,-7.0082,-1.6192,0.1925,0.0441,0.0039,-1.9677,rough,14.0,2,3.412
6130,196.16,-7.1758,-2.0331,0.1881,0.0220,0.0280,-1.9494,rough,14.0,2,2.969
6140,196.48,-7.3303,-2.4374,0.1806,-0.0053,-0.0336,-1.9292,rough,14.0,2,2.540
6150,196.80,-7.4820,-2.8503,0.1958,-0.0091,-0.0498,-1.9056,rough,14.0,2,2.105
6160,197.12,-7.6150,-3.2710,0.2179,-0.0349,-0.0424,-1.8804,rough,14.0,2,1.667
6170,197.44,-7.7440,-3.7063,0.2196,-0.0574,0.0202,-1.8644,rough,14.0,2,1.217
6180,197.76,-7.8663,-4.1375,0.1948,-0.0463,0.0739,-1.8340,rough,14.0,3,0.933
6190,198.08,-7.9567,-4.5007,0.1789,0.0104,0.0070,-1.7703,rough,14.0,0,13.301
6200,198.40,-8.0004,-4.8706,0.1798,0.0001,0.0002,-1.6508,rough,14.0,0,13.350
6210,198.72,-8.0286,-5.2176,0.1798,0.0001,0.0001,-1.4479,rough,14.0,0,13.391
6220,199.04,-7.9769,-5.5318,0.1799,-0.0001,0.0004,-1.1780,rough,14.0,0,13.360
6230,199.36,-7.8280,-5.8462,0.1889,-0.0008,-0.0615,-1.0157,rough,14.0,0,13.239
6240,199.68,-7.6031,-6.1496,0.1973,-0.0523,-0.0172,-0.8644,rough,14.0,0,13.050
6250,200.00,-7.3375,-6.4305,0.2006,-0.0441,0.0251,-0.7238,rough,14.0,0,12.825
6260,200.32,-7.0317,-6.6809,0.1915,-0.0212,0.0466,-0.6070,rough,14.0,0,12.564
6270,200.64,-6.6975,-6.8964,0.1801,-0.0004,0.0029,-0.4932,rough,14.0,0,12.274
6280,200.96,-6.3226,-7.0851,0.1793,-0.0013,-0.0027,-0.3794,rough,14.0,0,11.946
6290,201.28,-5.9276,-7.2222,0.1817,-0.0040,-0.0087,-0.2817,rough,14.0,0,11.592
6300,201.60,-5.5109,-7.3245,0.1838,-0.0125,0.0027,-0.1998,rough,14.0,0,11.212
6310,201.92,-5.0990,-7.4109,0.1895,0.0211,-0.0251,-0.1687,rough,14.0,0,10.836
6320,202.24,-4.6717,-7.4830,0.1948,0.0395,-0.0132,-0.1092,rough,14.0,0,10.445
6330,202.56,-4.2357,-7.5258,0.1948,0.0467,0.0121,-0.0366,rough,14.0,0,10.041
6340,202.88,-3.7981,-7.5373,0.1900,0.0417,0.0212,0.0233,rough,14.0,0,9.628
6350,203.20,-3.3633,-7.5176,0.1840,0.0038,0.0081,0.0733,rough,14.0,0,9.209
6360,203.52,-2.9334,-7.4754,0.1870,-0.0164,-0.0298,0.1180,rough,14.0,0,8.790
6370,203.84,-2.4912,-7.4102,0.1842,-0.0292,0.0022,0.1498,rough,14.0,0,8.352
6380,204.16,-2.0563,-7.3345,0.1851,-0.0270,0.0018,0.1795,rough,14.0,0,7.918
6390,204.48,-1.6281,-7.2554,0.1855,-0.0020,-0.0315,0.2047,rough,14.0,0,7.490
6400,204.80,-1.1994,-7.1667,0.2022,0.0163,-0.0503,0.2292,rough,14.0,0,7.059
6410,205.12,-0.7669,-7.0677,0.2189,0.0359,-0.0365,0.2529,rough,14.0,0,6.621
6420,205.44,-0.3288,-6.9557,0.2197,0.0519,0.0224,0.2671,rough,14.0,0,6.174
6430,205.76,0.1002,-6.8275,0.1941,0.0070,0.0481,0.2858,rough,14.0,0,5.730
6440,206.08,0.5187,-6.7022,0.1819,0.0025,0.0078,0.2939,rough,14.0,0,5.296
6450,206.40,0.9402,-6.5722,0.1799,0.0017,-0.0013,0.3034,rough,14.0,0,4.859
6460,206.72,1.3630,-6.4375,0.1801,0.0016,-0.0001,0.3199,rough,14.0,0,4.419
6470,207.04,1.7835,-6.2958,0.1796,-0.0039,-0.0054,0.3309,rough,14.0,0,3.979
6480,207.36,2.2038,-6.1495,0.1811,-0.0054,-0.0035,0.3428,rough,14.0,0,3.538
6490,207.68,2.6143,-5.9937,0.1863,-0.0314,-0.0014,0.3548,rough,14.0,0,3.103
6500,208.00,3.0303,-5.8330,0.1875,-0.0302,0.0128,0.3743,rough,14.0,0,2.661
6510,208.32,3.4409,-5.6677,0.1829,-0.0087,0.0105,0.3966,rough,14.0,0,2.223
6520,208.64,3.8452,-5.4932,0.1783,0.0087,-0.0007,0.4186,rough,14.0,0,1.787
6530,208.96,4.2391,-5.3097,0.1842,-0.0092,-0.0176,0.4371,rough,14.0,0,1.358
6540,209.28,4.6269,-5.1074,0.1931,-0.0718,0.0045,0.4621,rough,14.0,0,0.927
6550,209.60,4.9505,-4.9342,0.1995,-0.0894,-0.0144,0.6425,rough,14.0,1,13.050
6560,209.92,5.1973,-4.7021,0.2158,-0.1242,-0.0385,0.8311,rough,14.0,1,12.907
6570,210.24,5.3916,-4.4021,0.2248,-0.1740,-0.0208,0.9921,rough,14.0,1,12.689
6580,210.56,5.5633,-4.0671,0.2307,-0.1821,-0.0300,1.1337,rough,14.0,1,12.437
6590,210.88,5.6957,-3.6921,0.2378,-0.1746,-0.0061,1.2689,rough,14.0,1,12.139
6600,211.20,5.7957,-3.2889,0.2225,-0.2160,0.0147,1.3336,rough,14.0,1,11.808
6610,211.52,5.8957,-2.8896,0.2071,-0.1410,0.0068,1.3835,rough,14.0,1,11.486
6620,211.84,5.9726,-2.4700,0.1927,-0.0601,0.0076,1.4378,rough,14.0,1,11.142
6630,212.16,6.0154,-2.0508,0.1790,0.0015,0.0034,1.5412,rough,14.0,1,10.787
6640,212.48,6.0210,-1.6204,0.1799,0.0002,0.0002,1.6458,rough,14.0,1,10.411
6650,212.80,5.9836,-1.1890,0.1799,0.0001,0.0001,1.7252,rough,14.0,1,10.016
6660,213.12,5.9125,-0.7602,0.1799,0.0002,0.0000,1.7889,rough,14.0,1,9.609
6670,213.44,5.8143,-0.3352,0.1799,0.0002,-0.0000,1.8411,rough,14.0,1,9.195
6680,213.76,5.6940,0.0855,0.1799,0.0001,-0.0000,1.8851,rough,14.0,1,8.774
6690,214.08,5.5552,0.5016,0.1799,0.0001,-0.0000,1.9227,rough,14.0,1,8.348
6700,214.40,5.4006,0.9131,0.1799,0.0001,-0.0000,1.9552,rough,14.0,1,7.919
6710,214.72,5.2327,1.3195,0.1799,0.0001,-0.0000,1.9823,rough,14.0,1,7.488
6720,215.04,5.0537,1.7219,0.1799,0.0001,-0.0000,2.0068,rough,14.0,1,7.055
6730,215.36,4.8647,2.1204,0.1799,0.0001,-0.0000,2.0292,rough,14.0,1,6.621
6740,215.68,4.6668,2.5151,0.1799,0.0001,-0.0000,2.0499,rough,14.0,1,6.185
6750,216.00,4.4606,2.9059,0.1799,0.0001,-0.0000,2.0692,rough,14.0,1,5.748
6760,216.32,4.2469,3.2930,0.1799,0.0000,-0.0000,2.0873,rough,14.0,1,5.311
6770,216.64,4.0272,3.6727,0.1817,0.0017,-0.0159,2.1041,rough,14.0,1,4.876
6780,216.96,3.7934,4.0519,0.1839,-0.0247,0.0083,2.1175,rough,14.0,1,4.433
6790,217.28,3.5746,4.3465,0.2307,-0.0817,-0.2692,2.1527,rough,14.0,1,4.067
6800,217.60,3.2565,4.6734,0.2555,-0.3650,-0.0280,2.1780,rough,14.0,1,3.613
6810,217.92,3.0450,4.8914,0.2961,-0.3297,-0.4098,2.2874,rough,14.0,1,3.311
6820,218.24,2.8177,5.1245,0.3930,-0.4158,-0.3872,2.1317,rough,14.0,1,2.988
6830,218.56,2.5968,5.4138,0.5338,-0.4731,-0.4537,2.2078,rough,14.0,1,2.624
6840,218.88,2.3401,5.7115,0.6818,-0.5398,-0.3786,2.2319,rough,14.0,1,2.232
6850,219.20,2.0788,6.0088,0.8097,-0.5376,-0.3468,2.2276,rough,14.0,1,1.838
6860,219.52,1.8182,6.3130,0.9315,-0.5938,-0.3520,2.2534,rough,14.0,1,1.439
6870,219.84,1.5629,6.6233,1.0857,-0.5476,-0.3678,2.2581,rough,14.0,1,1.040
6880,220.16,1.3132,6.8944,1.2286,-0.5959,-0.3760,2.3850,rough,14.0,2,14.974
6890,220.48,1.0594,7.0138,1.2663,-0.6537,-0.1505,2.7243,rough,14.0,2,14.915
6900,220.80,0.7458,7.0523,1.2426,-0.6433,0.0426,3.0154,rough,14.0,2,14.760
6910,221.12,0.3703,7.0451,1.1817,-0.5584,0.1675,-3.0794,rough,14.0,2,14.537
6920,221.44,-0.0092,6.9625,1.0957,-0.5074,0.1810,-2.9103,rough,14.0,2,14.256
6930,221.76,-0.4018,6.8343,0.9889,-0.4021,0.2466,-2.7734,rough,14.0,2,13.934
6940,222.08,-0.7776,6.6567,0.8709,-0.3413,0.2706,-2.6715,rough,14.0,2,13.584
6950,222.40,-1.1391,6.4453,0.7422,-0.3172,0.3193,-2.5976,rough,14.0,2,13.216
6960,222.72,-1.4714,6.2181,0.6155,-0.2808,0.2680,-2.5145,rough,14.0,2,12.852
6970,223.04,-1.8006,5.9655,0.4966,-0.2297,0.2592,-2.4505,rough,14.0,2,12.470
6980,223.36,-2.1099,5.6985,0.4214,-0.1597,0.1443,-2.3867,rough,14.0,2,12.087
6990,223.68,-2.4162,5.4055,0.3671,-0.1147,0.0959,-2.3434,rough,14.0,2,11.684
7000,224.00,-2.7148,5.0870,0.3279,-0.0990,0.0807,-2.3117,rough,14.0,2,11.263
7010,224.32,-3.0180,4.7577,0.2737,-0.0316,0.1277,-2.2842,rough,14.0,2,10.832
7020,224.64,-3.3004,4.4265,0.2235,-0.0192,0.1100,-2.2539,rough,14.0,2,10.409
7030,224.96,-3.5679,4.0941,0.1933,0.0106,0.0266,-2.2287,rough,14.0,2,9.994
7040,225.28,-3.8235,3.7524,0.1964,0.0101,-0.0406,-2.2047,rough,14.0,2,9.575
7050,225.60,-4.0758,3.3995,0.2216,0.0051,-0.0677,-2.1818,rough,14.0,2,9.149
7060,225.92,-4.3340,3.0196,0.2278,0.0003,0.0272,-2.1619,rough,14.0,2,8.696
7070,226.24,-4.5792,2.6438,0.2062,0.0003,0.0685,-2.1404,rough,14.0,2,8.253
7080,226.56,-4.8066,2.2760,0.1834,-0.0098,0.0147,-2.1227,rough,14.0,2,7.825
7090,226.88,-5.0334,1.9006,0.1828,-0.0085,-0.0106,-2.1056,rough,14.0,2,7.391
7100,227.20,-5.2492,1.5169,0.1926,-0.0325,-0.0205,-2.0884,rough,14.0,2,6.954
7110,227.52,-5.4593,1.1242,0.1940,-0.0616,-0.0057,-2.0748,rough,14.0,2,6.511
7120,227.84,-5.6749,0.7323,0.1901,-0.0416,0.0094,-2.0632,rough,14.0,2,6.067
7130,228.16,-5.8895,0.3410,0.1805,0.0009,0.0070,-2.0548,rough,14.0,2,5.625
7140,228.48,-6.0938,-0.0536,0.1782,0.0008,0.0098,-2.0415,rough,14.0,2,5.184
7150,228.80,-6.2918,-0.4491,0.1797,0.0001,0.0010,-2.0267,rough,14.0,2,4.744
7160,229.12,-6.4826,-0.8381,0.1877,0.0066,-0.0461,-2.0162,rough,14.0,2,4.314
7170,229.44,-6.6814,-1.2405,0.1951,0.0361,-0.0139,-2.0028,rough,14.0,2,3.869
7180,229.76,-6.8680,-1.6425,0.1946,0.0462,-0.0037,-1.9916,rough,14.0,2,3.429
7190,230.08,-7.0470,-2.0537,0.1919,0.0338,0.0178,-1.9720,rough,14.0,2,2.984
7200,230.40,-7.2116,-2.4629,0.1865,0.0056,0.0032,-1.9586,rough,14.0,2,2.545
7210,230.72,-7.3693,-2.8669,0.1923,-0.0090,-0.0443,-1.9408,rough,14.0,2,2.114
7220,231.04,-7.5208,-3.2861,0.2122,-0.0390,-0.0249,-1.9204,rough,14.0,2,1.670
7230,231.36,-7.6671,-3.7064,0.2181,-0.0512,-0.0019,-1.9015,rough,14.0,2,1.229
7240,231.68,-7.8159,-4.1412,0.1957,-0.0189,0.0964,-1.8766,rough,14.0,3,0.961
7250,232.00,-7.9194,-4.5002,0.1792,-0.0012,0.0039,-1.8129,rough,14.0,0,13.264
7260,232.32,-7.9796,-4.8020,0.1796,0.0008,0.0003,-1.5051,rough,14.0,0,13.327
7270,232.64,-7.9526,-5.1149,0.1798,0.0000,-0.0003,-1.2121,rough,14.0,0,13.311
7280,232.96,-7.8090,-5.4402,0.1799,-0.0000,0.0001,-1.0233,rough,14.0,0,13.186
7290,233.28,-7.5995,-5.7495,0.1863,-0.0015,-0.0422,-0.8704,rough,14.0,0,13.002
7300,233.60,-7.3288,-6.0359,0.1925,-0.0287,-0.0111,-0.7317,rough,14.0,0,12.764
7310,233.92,-7.0200,-6.2921,0.1902,-0.0212,0.0324,-0.5996,rough,14.0,0,12.491
7320,234.24,-6.6809,-6.5086,0.1815,-0.0034,0.0075,-0.5089,rough,14.0,0,12.189
7330,234.56,-6.3103,-6.6984,0.1799,0.0000,-0.0001,-0.4097,rough,14.0,0,11.857
7340,234.88,-5.9125,-6.8601,0.1799,0.0001,0.0001,-0.3076,rough,14.0,0,11.498
7350,235.20,-5.4974,-6.9847,0.1799,-0.0001,-0.0000,-0.2184,rough,14.0,0,11.119
7360,235.52,-5.1040,-7.0714,0.1963,0.0084,-0.0720,-0.1826,rough,14.0,0,10.756
7370,235.84,-4.6888,-7.1552,0.2107,0.0586,-0.0205,-0.1532,rough,14.0,0,10.374
7380,236.16,-4.2618,-7.2165,0.2124,0.0572,0.0229,-0.0963,rough,14.0,0,9.978
7390,236.48,-3.8271,-7.2518,0.1991,0.0512,0.0287,-0.0310,rough,14.0,0,9.570
7400,236.80,-3.3886,-7.2510,0.1846,-0.0017,0.0329,0.0252,rough,14.0,0,9.150
7410,237.12,-2.9570,-7.2340,0.1794,0.0018,-0.0002,0.0711,rough,14.0,0,8.734
7420,237.44,-2.5189,-7.1874,0.1811,-0.0057,0.0016,0.1115,rough,14.0,0,8.304
7430,237.76,-2.0819,-7.1281,0.1799,-0.0004,0.0007,0.1440,rough,14.0,0,7.871
7440,238.08,-1.6538,-7.0606,0.1850,0.0025,-0.0376,0.1715,rough,14.0,0,7.445
7450,238.40,-1.2219,-6.9817,0.2037,0.0095,-0.0522,0.2018,rough,14.0,0,7.013
7460,238.72,-0.7884,-6.8909,0.2234,0.0144,-0.0327,0.2173,rough,14.0,0,6.575
7470,239.04,-0.3460,-6.7897,0.2187,0.0273,0.0244,0.2362,rough,14.0,0,6.126
7480,239.36,0.0922,-6.6790,0.1984,0.0146,0.0761,0.2575,rough,14.0,0,5.679
7490,239.68,0.5096,-6.5638,0.1821,-0.0029,0.0157,0.2672,rough,14.0,0,5.249
7500,240.00,0.9340,-6.4468,0.1803,0.0037,-0.0028,0.2848,rough,14.0,0,4.813
7510,240.32,1.3590,-6.3186,0.1785,-0.0098,0.0041,0.3002,rough,14.0,0,4.373
7520,240.64,1.7823,-6.1877,0.1805,-0.0012,-0.0018,0.3098,rough,14.0,0,3.933
7530,240.96,2.2028,-6.0504,0.1811,-0.0046,-0.0008,0.3189,rough,14.0,0,3.495
7540,241.28,2.6178,-5.9076,0.1802,-0.0041,0.0014,0.3340,rough,14.0,0,3.059
7550,241.60,3.0355,-5.7536,0.1832,-0.0123,0.0088,0.3534,rough,14.0,0,2.618
7560,241.92,3.4481,-5.5956,0.1801,-0.0014,0.0006,0.3753,rough,14.0,0,2.180
7570,242.24,3.8571,-5.4313,0.1798,0.0001,0.0001,0.3998,rough,14.0,0,1.744
7580,242.56,4.2543,-5.2585,0.1846,-0.0028,-0.0291,0.4227,rough,14.0,0,1.317
7590,242.88,4.6452,-5.0638,0.1929,-0.0559,-0.0144,0.4472,rough,14.0,0,0.886
7600,243.20,4.9614,-4.8965,0.2006,-0.0794,-0.0393,0.6251,rough,14.0,1,13.018
7610,243.52,5.2199,-4.6648,0.2175,-0.1315,-0.0464,0.8005,rough,14.0,1,12.879
7620,243.84,5.4212,-4.3795,0.2273,-0.1622,-0.0475,0.9720,rough,14.0,1,12.678
7630,244.16,5.6002,-4.0524,0.2383,-0.1808,-0.0450,1.1171,rough,14.0,1,12.437
7640,244.48,5.7254,-3.6630,0.2351,-0.2702,0.0440,1.2432,rough,14.0,1,12.124
7650,244.80,5.8257,-3.2780,0.2283,-0.2397,0.0090,1.3559,rough,14.0,1,11.810
7660,245.12,5.9204,-2.8751,0.2096,-0.1504,0.0118,1.4050,rough,14.0,1,11.484
7670,245.44,5.9904,-2.4518,0.1940,-0.0708,0.0025,1.4595,rough,14.0,1,11.133
7680,245.76,6.0238,-2.0307,0.1796,0.0017,0.0002,1.5651,rough,14.0,1,10.774
7690,246.08,6.0197,-1.5994,0.1799,0.0002,0.0000,1.6644,rough,14.0,1,10.392
7700,246.40,5.9745,-1.1683,0.1799,0.0001,0.0000,1.7392,rough,14.0,1,9.993
7710,246.72,5.8975,-0.7400,0.1799,0.0002,-0.0000,1.7996,rough,14.0,1,9.584
7720,247.04,5.7947,-0.3156,0.1799,0.0002,-0.0000,1.8495,rough,14.0,1,9.168
7730,247.36,5.6709,0.1044,0.1799,0.0001,-0.0000,1.8916,rough,14.0,1,8.745
7740,247.68,5.5293,0.5199,0.1799,0.0001,-0.0000,1.9278,rough,14.0,1,8.319
7750,248.00,5.3726,0.9307,0.1799,0.0001,-0.0000,1.9586,rough,14.0,1,7.889
7760,248.32,5.2033,1.3368,0.1799,0.0001,-0.0000,1.9849,rough,14.0,1,7.458
7770,248.64,5.0232,1.7390,0.1799,0.0001,-0.0000,2.0087,rough,14.0,1,7.024
7780,248.96,4.8335,2.1373,0.1799,0.0001,-0.0000,2.0305,rough,14.0,1,6.589
7790,249.28,4.6351,2.5319,0.1799,0.0001,-0.0000,2.0507,rough,14.0,1,6.153
7800,249.60,4.4286,2.9227,0.1799,0.0001,-0.0000,2.0695,rough,14.0,1,5.716
7810,249.92,4.2147,3.3099,0.1799,0.0000,-0.0000,2.0872,rough,14.0,1,5.278
7820,250.24,3.9932,3.6889,0.1850,-0.0138,-0.0170,2.1024,rough,14.0,1,4.842
7830,250.56,3.7577,4.0708,0.1886,-0.0272,0.0280,2.1147,rough,14.0,1,4.396
7840,250.88,3.5505,4.3815,0.2359,-0.0728,-0.3173,2.1444,rough,14.0,1,4.024
7850,251.20,3.2145,4.7215,0.2669,-0.4677,-0.0021,2.1431,rough,14.0,1,3.549
7860,251.52,3.0088,4.9647,0.3186,-0.3988,-0.3442,2.2873,rough,14.0,1,3.231
7870,251.84,2.7174,5.2404,0.4421,-0.4887,-0.3083,2.3094,rough,14.0,1,2.835
7880,252.16,2.4270,5.5192,0.5678,-0.5163,-0.3181,2.3145,rough,14.0,1,2.438
7890,252.48,2.1218,5.7921,0.6873,-0.5348,-0.2503,2.2898,rough,14.0,1,2.041
7900,252.80,1.8393,6.0840,0.7951,-0.5463,-0.3208,2.2849,rough,14.0,1,1.645
7910,253.12,1.5700,6.3731,0.9113,-0.5361,-0.3546,2.2731,rough,14.0,1,1.263
7920,253.44,1.3130,6.6679,1.0577,-0.5317,-0.4132,2.2735,rough,14.0,1,0.892
7930,253.76,1.0711,6.8748,1.1660,-0.5943,-0.3092,2.5083,rough,14.0,2,14.811
7940,254.08,0.8144,6.9712,1.1977,-0.6622,-0.1215,2.7951,rough,14.0,2,14.735
