step,time_s,x,y,z,roll,pitch,yaw,terrain,speed,target_idx,dist_to_target
10,0.32,-0.0107,-0.0578,0.2045,0.0000,-0.0141,-0.0000,slope,18.0,0,5.407
20,0.64,0.2386,-0.0581,0.2244,-0.0003,-0.0788,-0.0170,slope,18.0,0,5.213
30,0.96,0.5588,-0.0730,0.2560,0.0154,-0.1166,-0.1406,slope,18.0,0,4.962
40,1.28,0.9117,-0.1660,0.3170,0.0629,-0.2027,-0.3490,slope,18.0,0,4.641
50,1.60,1.2707,-0.3517,0.4156,0.1064,-0.2728,-0.5697,slope,18.0,0,4.256
60,1.92,1.5930,-0.6331,0.5382,0.1849,-0.3101,-0.7566,slope,18.0,0,3.830
70,2.24,1.8950,-0.9927,0.6826,0.2431,-0.3143,-0.8916,slope,18.0,0,3.362
80,2.56,2.1975,-1.4067,0.8532,0.2720,-0.3264,-0.9520,slope,18.0,0,2.855
90,2.88,2.5104,-1.8424,1.0274,0.2664,-0.3286,-0.9167,slope,18.0,0,2.328
100,3.20,2.8139,-2.2350,1.1812,0.2547,-0.3089,-0.8384,slope,18.0,0,1.841
110,3.52,3.1087,-2.5570,1.3174,0.2402,-0.2955,-0.7701,slope,18.0,0,1.410
120,3.84,3.3608,-2.8007,1.4216,0.2295,-0.2966,-0.7035,slope,18.0,0,1.063
130,4.16,3.6187,-3.0459,1.5214,0.2682,-0.2429,-0.8396,slope,18.0,1,6.850
140,4.48,3.7846,-3.3882,1.5816,0.3416,-0.1063,-1.2410,slope,18.0,1,6.698
150,4.80,3.7754,-3.8029,1.5707,0.3494,0.0686,-1.7026,slope,18.0,1,6.391
160,5.12,3.5890,-4.2409,1.4905,0.2973,0.1949,-2.0517,slope,18.0,1,5.950
170,5.44,3.3001,-4.6288,1.3711,0.2453,0.2632,-2.2841,slope,18.0,1,5.474
180,5.76,2.9266,-4.9675,1.2162,0.2169,0.3009,-2.4297,slope,18.0,1,4.970
190,6.08,2.5209,-5.2787,1.0550,0.1605,0.3265,-2.5524,slope,18.0,1,4.461
200,6.40,2.0686,-5.5552,0.8747,0.1435,0.3294,-2.6030,slope,18.0,1,3.945
210,6.72,1.6038,-5.8299,0.6903,0.1430,0.3275,-2.6015,slope,18.0,1,3.425
220,7.04,1.1530,-6.1115,0.5123,0.1572,0.3179,-2.5530,slope,18.0,1,2.916
230,7.36,0.7445,-6.4134,0.3513,0.1977,0.2911,-2.4264,slope,18.0,1,2.426
240,7.68,0.3684,-6.7607,0.2069,0.2034,0.2526,-2.3259,rough,14.0,1,1.924
250,8.00,0.1002,-7.0673,0.1299,0.1392,0.1806,-2.2132,slope,18.0,1,1.521
260,8.32,-0.1398,-7.4218,0.0775,0.0991,0.0900,-2.0884,slope,18.0,1,1.093
270,8.64,-0.3432,-7.8182,0.0578,0.0478,0.0213,-2.0168,slope,18.0,2,4.868
280,8.96,-0.5306,-8.2051,0.0454,-0.0182,-0.0086,-2.0730,transition,15.0,2,5.077
290,9.28,-0.7198,-8.5165,0.0448,0.0163,-0.0219,-2.1602,flat,18.0,2,5.247
300,9.60,-0.9055,-8.7803,0.0566,-0.0097,-0.0242,-2.2954,flat,18.0,2,5.394
310,9.92,-1.0908,-8.9919,0.0638,-0.0042,-0.0283,-2.4518,flat,18.0,2,5.509
320,10.24,-1.2796,-9.1228,0.0705,0.0004,-0.0302,-2.6002,flat,18.0,2,5.558
330,10.56,-1.4596,-9.2152,0.0768,0.0051,-0.0326,-2.7600,flat,18.0,2,5.584
340,10.88,-1.6260,-9.2857,0.0828,0.0118,-0.0310,-2.9694,flat,18.0,2,5.599
350,11.20,-1.7906,-9.3106,0.0880,0.0134,-0.0308,-3.0360,flat,18.0,2,5.576
360,11.52,-1.9418,-9.3158,0.0926,0.0186,-0.0299,3.0648,flat,18.0,2,5.543
370,11.84,-2.0988,-9.3028,0.0974,0.0223,-0.0260,2.8664,flat,18.0,2,5.494
380,12.16,-2.2521,-9.2657,0.1018,0.0262,-0.0243,2.7127,flat,18.0,2,5.427
390,12.48,-2.4072,-9.1915,0.1060,0.0279,-0.0238,2.5977,flat,18.0,2,5.326
400,12.80,-2.5706,-9.0859,0.1108,0.0303,-0.0232,2.4901,flat,18.0,2,5.198
410,13.12,-2.7441,-8.9462,0.1160,0.0314,-0.0230,2.4005,flat,18.0,2,5.038
420,13.44,-2.9308,-8.7644,0.1222,0.0323,-0.0243,2.3291,flat,18.0,2,4.840
430,13.76,-3.1355,-8.5341,0.1298,0.0333,-0.0251,2.2705,flat,18.0,2,4.599
440,14.08,-3.3651,-8.2484,0.1392,0.0340,-0.0265,2.2275,flat,18.0,2,4.312
450,14.40,-3.6265,-7.8983,0.1509,0.0343,-0.0275,2.1980,flat,18.0,2,3.976
460,14.72,-3.9322,-7.4709,0.1648,0.0339,-0.0262,2.1878,flat,18.0,2,3.593
470,15.04,-4.2252,-7.0214,0.1777,0.0334,-0.0210,2.0950,flat,18.0,2,3.226
480,15.36,-4.4646,-6.5531,0.1864,0.0316,-0.0120,1.9981,flat,18.0,2,2.871
490,15.68,-4.6548,-6.0685,0.1903,0.0275,-0.0038,1.8952,flat,18.0,2,2.536
500,16.00,-4.7890,-5.5659,0.1912,0.0233,0.0022,1.7923,flat,18.0,2,2.220
510,16.32,-4.8857,-5.0726,0.1875,0.0186,0.0143,1.6566,flat,18.0,2,1.966
520,16.64,-4.9088,-4.6316,0.1831,-0.0007,0.0089,1.3357,flat,18.0,2,1.770
530,16.96,-4.8047,-4.2471,0.1797,-0.0061,0.0076,1.0772,flat,18.0,2,1.555
540,17.28,-4.6352,-3.9427,0.1783,-0.0102,0.0001,0.8658,flat,18.0,2,1.354
550,17.60,-4.3957,-3.6832,0.1792,-0.0079,-0.0060,0.7273,flat,18.0,2,1.143
560,17.92,-4.1639,-3.5001,0.1821,-0.0056,-0.0115,0.5618,flat,18.0,3,10.065
570,18.24,-3.8854,-3.3408,0.1867,-0.0040,-0.0170,0.5886,flat,18.0,3,9.828
580,18.56,-3.5659,-3.0798,0.1945,-0.0078,-0.0219,0.8744,flat,18.0,3,9.486
590,18.88,-3.2981,-2.6872,0.2046,-0.0132,-0.0238,1.1521,flat,18.0,3,9.036
600,19.20,-3.1097,-2.2055,0.2147,-0.0218,-0.0143,1.3788,flat,18.0,3,8.522
610,19.52,-3.0232,-1.6666,0.2210,-0.0247,-0.0068,1.5031,flat,18.0,3,7.979
620,19.84,-2.9898,-1.0961,0.2231,-0.0243,0.0040,1.5139,flat,18.0,3,7.420
630,20.16,-2.9546,-0.5379,0.2250,-0.0246,-0.0029,1.4565,flat,18.0,3,6.875
640,20.48,-2.8858,0.0089,0.2252,-0.0196,0.0005,1.4350,flat,18.0,3,6.332
650,20.80,-2.8065,0.5466,0.2246,-0.0164,0.0016,1.4037,flat,18.0,3,5.797
660,21.12,-2.7095,1.0876,0.2232,-0.0166,0.0006,1.3473,flat,18.0,3,5.254
670,21.44,-2.5814,1.6147,0.2205,-0.0153,0.0059,1.2518,flat,18.0,3,4.714
680,21.76,-2.3931,2.1338,0.2150,-0.0195,0.0087,1.1810,flat,18.0,3,4.162
690,22.08,-2.1704,2.6549,0.2063,-0.0155,0.0181,1.1476,flat,18.0,3,3.596
700,22.40,-1.9330,3.1569,0.1884,-0.0316,0.0247,1.0993,flat,18.0,3,3.044
710,22.72,-1.6777,3.6412,0.1764,-0.0179,0.0342,1.0713,flat,18.0,3,2.505
720,23.04,-1.4317,4.0591,0.1588,-0.0215,0.0379,0.9940,flat,18.0,3,2.037
730,23.36,-1.1964,4.4627,0.1392,-0.0122,0.0451,1.0834,flat,18.0,3,1.596
740,23.68,-1.0186,4.8378,0.1205,-0.0083,0.0441,1.1245,flat,18.0,3,1.204
750,24.00,-0.8478,5.1785,0.1039,-0.0110,0.0422,1.0230,transition,15.0,0,9.977
760,24.32,-0.5912,5.5312,0.0861,-0.0170,0.0371,0.7866,slope,18.0,0,10.157
770,24.64,-0.2627,5.8550,0.0909,-0.1309,0.0282,0.6062,slope,18.0,0,10.296
780,24.96,0.0791,6.0857,0.1245,-0.1164,-0.1420,0.4646,slope,18.0,0,10.362
790,25.28,0.4603,6.2875,0.2258,-0.1499,-0.2941,0.3846,slope,18.0,0,10.403
800,25.60,0.8653,6.4442,0.3707,-0.1140,-0.3319,0.2708,slope,18.0,0,10.411
810,25.92,1.2741,6.5447,0.5170,-0.0743,-0.3476,0.1511,slope,18.0,0,10.382
820,26.24,1.6549,6.6017,0.6580,-0.0609,-0.3528,0.1203,slope,18.0,0,10.335
830,26.56,2.0824,6.6545,0.8179,-0.0589,-0.3581,0.1165,slope,18.0,0,10.289
840,26.88,2.4459,6.7006,0.9558,-0.0103,-0.3665,-0.0171,slope,18.0,0,10.264
850,27.20,2.7087,6.6796,1.0573,0.0345,-0.3671,-0.1403,slope,18.0,0,10.201
860,27.52,2.9212,6.6251,1.1403,0.0762,-0.3642,-0.2543,slope,18.0,0,10.117
870,27.84,3.0031,6.5557,1.1733,0.1693,-0.3321,-0.5272,slope,18.0,0,10.038
880,28.16,3.2082,6.3908,1.2563,0.2623,-0.2705,-0.8375,slope,18.0,0,9.851
890,28.48,3.4531,6.0782,1.3568,0.3211,-0.1888,-1.0961,slope,18.0,0,9.517
900,28.80,3.5823,5.6632,1.4186,0.3581,-0.1051,-1.3698,slope,18.0,0,9.093
910,29.12,3.5368,5.2197,1.4131,0.3664,0.0467,-1.7703,slope,18.0,0,8.654
920,29.44,3.3308,4.7506,1.3476,0.3381,0.1343,-2.0156,slope,18.0,0,8.207
930,29.76,3.0746,4.2635,1.2655,0.3360,0.1439,-2.0407,slope,18.0,0,7.757
940,30.08,2.8229,3.7573,1.1767,0.3369,0.1679,-1.9987,slope,18.0,0,7.302
950,30.40,2.5925,3.2530,1.0918,0.3430,0.1704,-1.9576,slope,18.0,0,6.859
960,30.72,2.3904,2.7417,1.0055,0.3478,0.1466,-1.8618,slope,18.0,0,6.419
970,31.04,2.2368,2.2211,0.9169,0.3761,0.1111,-1.6738,slope,18.0,0,5.972
980,31.36,2.1976,1.7042,0.8629,0.4084,0.0428,-1.4475,slope,18.0,0,5.502
990,31.68,2.2632,1.2114,0.8488,0.4177,-0.0549,-1.2513,slope,18.0,0,5.021
1000,32.00,2.3736,0.8580,0.8746,0.4091,-0.1708,-1.0635,slope,18.0,0,4.653
1010,32.32,2.5119,0.6040,0.9280,0.3007,-0.3480,-0.6543,slope,18.0,0,4.365
1020,32.64,2.6629,0.4426,0.9956,0.0457,-0.4567,-0.0384,slope,18.0,0,4.158
1030,32.96,2.8857,0.4487,1.1060,-0.0196,-0.4630,0.1004,slope,18.0,0,4.084
1040,33.28,3.1953,0.5055,1.2585,-0.0575,-0.4486,0.1710,slope,18.0,0,4.048
1050,33.60,3.5982,0.5770,1.4506,-0.0501,-0.4469,0.1420,slope,18.0,0,4.034
1060,33.92,4.0135,0.6390,1.6364,-0.0389,-0.4096,0.1147,slope,18.0,0,4.052
1070,34.24,4.4328,0.6898,1.8050,-0.0355,-0.4038,0.0940,slope,18.0,0,4.101
1080,34.56,4.8657,0.7324,1.9764,-0.0291,-0.3498,0.0755,slope,18.0,0,4.187
1090,34.88,5.2897,0.7673,2.1306,-0.0143,-0.3398,0.0367,slope,18.0,0,4.305
1100,35.20,5.6034,0.7651,2.2391,0.0517,-0.3293,-0.1439,slope,18.0,0,4.391
1110,35.52,5.9143,0.6932,2.3455,0.0808,-0.3132,-0.2562,slope,18.0,0,4.431
1120,35.84,6.1388,0.5944,2.4203,0.1348,-0.2917,-0.4392,slope,18.0,0,4.431
1130,36.16,6.3116,0.4863,2.4773,0.2596,-0.1872,-0.9566,slope,18.0,0,4.412
1140,36.48,6.4801,0.2020,2.5310,0.2939,-0.1041,-1.2439,slope,18.0,0,4.250
1150,36.80,6.5097,-0.2400,2.5412,0.3141,0.0130,-1.6109,slope,18.0,0,3.899
1160,37.12,6.3725,-0.7076,2.4971,0.2974,0.1101,-1.9150,slope,18.0,0,3.443
1170,37.44,6.1734,-1.1800,2.4321,0.2826,0.1472,-2.0419,slope,18.0,0,2.952
1180,37.76,5.9037,-1.6166,2.3384,0.2330,0.1879,-2.1910,slope,18.0,0,2.447
1190,38.08,5.5823,-2.0295,2.2351,0.2470,0.2195,-2.2765,slope,18.0,0,1.927
1200,38.40,5.2664,-2.3831,2.1260,0.2434,0.2366,-2.3125,slope,18.0,0,1.453
1210,38.72,4.9965,-2.6624,2.0295,0.2364,0.2464,-2.3414,slope,18.0,0,1.065
1220,39.04,4.6779,-2.9936,1.9134,0.2442,0.2488,-2.3219,slope,18.0,1,7.601
1230,39.36,4.2953,-3.3816,1.7694,0.2357,0.2669,-2.3613,slope,18.0,1,7.056
1240,39.68,3.8987,-3.7617,1.6170,0.2249,0.2741,-2.3835,slope,18.0,1,6.507
1250,40.00,3.4957,-4.1406,1.4583,0.2263,0.2825,-2.3874,slope,18.0,1,5.954
1260,40.32,3.0930,-4.5204,1.2977,0.2178,0.2873,-2.3868,slope,18.0,1,5.401
1270,40.64,2.6908,-4.8992,1.1341,0.2137,0.2881,-2.3814,slope,18.0,1,4.848
1280,40.96,2.2925,-5.2792,0.9693,0.2146,0.2847,-2.3738,slope,18.0,1,4.298
1290,41.28,1.8981,-5.6631,0.8066,0.2155,0.2876,-2.3653,slope,18.0,1,3.748
1300,41.60,1.5065,-6.0491,0.6448,0.2170,0.2842,-2.3596,slope,18.0,1,3.198
1310,41.92,1.1192,-6.4373,0.4868,0.2231,0.2759,-2.3430,slope,18.0,1,2.650
1320,42.24,0.7524,-6.8291,0.3396,0.2389,0.2596,-2.2975,slope,18.0,1,2.113
1330,42.56,0.4276,-7.2066,0.2124,0.2538,0.2399,-2.2462,rough,14.0,1,1.616
1340,42.88,0.2100,-7.5059,0.1490,0.1697,0.2139,-2.1752,rough,14.0,1,1.252
1350,43.20,-0.0041,-7.8185,0.0873,0.1410,0.1014,-2.1119,slope,18.0,2,5.080
1360,43.52,-0.2426,-8.2130,0.0647,0.0351,0.0949,-2.1702,slope,18.0,2,5.245
1370,43.84,-0.4699,-8.5070,0.0485,-0.0090,0.0055,-2.2738,slope,18.0,2,5.365
1380,44.16,-0.6944,-8.7362,0.0510,-0.0096,-0.0227,-2.4009,flat,18.0,2,5.452
1390,44.48,-0.9084,-8.9225,0.0586,-0.0016,-0.0269,-2.5555,flat,18.0,2,5.521
1400,44.80,-1.1186,-9.0564,0.0654,0.0050,-0.0281,-2.7287,flat,18.0,2,5.557
1410,45.12,-1.3402,-9.1323,0.0723,0.0071,-0.0306,-2.8207,flat,18.0,2,5.546
1420,45.44,-1.5459,-9.1871,0.0788,0.0098,-0.0312,-2.9355,flat,18.0,2,5.529
1430,45.76,-1.7404,-9.2203,0.0849,0.0113,-0.0310,-3.0125,flat,18.0,2,5.503
1440,46.08,-1.9151,-9.2352,0.0904,0.0171,-0.0301,3.0621,flat,18.0,2,5.471
1450,46.40,-2.0894,-9.2291,0.0960,0.0210,-0.0262,2.8724,flat,18.0,2,5.424
1460,46.72,-2.2595,-9.1856,0.1009,0.0254,-0.0258,2.7234,flat,18.0,2,5.347
1470,47.04,-2.4342,-9.1036,0.1060,0.0273,-0.0250,2.6088,flat,18.0,2,5.235
1480,47.36,-2.6170,-8.9915,0.1116,0.0293,-0.0250,2.5010,flat,18.0,2,5.098
1490,47.68,-2.8100,-8.8402,0.1179,0.0305,-0.0251,2.4148,flat,18.0,2,4.926
1500,48.00,-3.0182,-8.6424,0.1252,0.0315,-0.0263,2.3499,flat,18.0,2,4.713
1510,48.32,-3.2493,-8.3956,0.1343,0.0324,-0.0275,2.2977,flat,18.0,2,4.459
1520,48.64,-3.5085,-8.0910,0.1454,0.0332,-0.0282,2.2573,flat,18.0,2,4.160
1530,48.96,-3.8063,-7.7218,0.1590,0.0326,-0.0284,2.2371,flat,18.0,2,3.821
1540,49.28,-4.1401,-7.2919,0.1740,0.0301,-0.0247,2.2235,flat,18.0,2,3.463
1550,49.60,-4.4092,-6.8999,0.1805,0.0362,-0.0396,1.9652,flat,18.0,2,3.170
1560,49.92,-4.5473,-6.4514,0.1866,0.0484,-0.0005,1.7365,flat,18.0,2,2.815
1570,50.24,-4.6048,-5.9734,0.1889,0.0257,0.0108,1.4150,flat,18.0,2,2.429
1580,50.56,-4.5081,-5.4974,0.1823,0.0087,0.0070,1.1853,flat,18.0,2,1.985
1590,50.88,-4.3189,-5.0711,0.1808,0.0099,0.0073,1.0741,flat,18.0,2,1.537
1600,51.20,-4.1189,-4.7233,0.1788,0.0077,0.0014,1.0105,flat,18.0,2,1.149
1610,51.52,-3.9158,-4.4211,0.1793,0.0058,-0.0038,0.9623,flat,18.0,3,10.872
1620,51.84,-3.6847,-4.0210,0.1836,0.0015,-0.0146,1.1366,flat,18.0,3,10.425
1630,52.16,-3.4925,-3.5395,0.1899,-0.0104,-0.0180,1.3091,flat,18.0,3,9.910
1640,52.48,-3.3650,-3.0065,0.1996,-0.0143,-0.0180,1.4140,flat,18.0,3,9.362
1650,52.80,-3.2847,-2.4427,0.2079,-0.0228,-0.0137,1.4424,flat,18.0,3,8.797
1660,53.12,-3.2108,-1.8793,0.2147,-0.0251,-0.0118,1.4149,flat,18.0,3,8.234
1670,53.44,-3.1193,-1.3218,0.2202,-0.0240,-0.0088,1.3789,flat,18.0,3,7.673
1680,53.76,-3.0024,-0.7721,0.2232,-0.0197,-0.0044,1.3333,flat,18.0,3,7.113
1690,54.08,-2.8671,-0.2262,0.2262,-0.0203,-0.0036,1.3145,flat,18.0,3,6.551
1700,54.40,-2.7196,0.3197,0.2268,-0.0128,-0.0008,1.2941,flat,18.0,3,5.986
1710,54.72,-2.5627,0.8610,0.2265,-0.0110,0.0022,1.2601,flat,18.0,3,5.422
1720,55.04,-2.3847,1.3966,0.2247,-0.0124,0.0054,1.2300,flat,18.0,3,4.858
1730,55.36,-2.1917,1.9348,0.2204,-0.0129,0.0109,1.2203,flat,18.0,3,4.287
1740,55.68,-1.9928,2.4758,0.2111,-0.0086,0.0201,1.2217,flat,18.0,3,3.712
1750,56.00,-1.7989,3.0183,0.1979,-0.0135,0.0369,1.2287,flat,18.0,3,3.137
1760,56.32,-1.6143,3.5522,0.1797,-0.0104,0.0361,1.2539,flat,18.0,3,2.574
1770,56.64,-1.4516,4.0816,0.1566,-0.0051,0.0357,1.2973,flat,18.0,3,2.020
1780,56.96,-1.3182,4.5832,0.1349,0.0002,0.0440,1.3203,flat,18.0,3,1.501
1790,57.28,-1.2162,5.0263,0.1152,0.0054,0.0436,1.3557,flat,18.0,3,1.047
1800,57.60,-1.1412,5.3925,0.1000,0.0090,0.0399,1.3442,flat,18.0,0,10.311
1810,57.92,-1.0692,5.7152,0.0874,0.0040,0.0371,1.1754,flat,18.0,0,10.552
1820,58.24,-0.9555,5.9725,0.0771,-0.0130,0.0336,0.6151,transition,15.0,0,10.719
1830,58.56,-0.6831,6.1140,0.0680,-0.0291,0.0172,-0.0108,slope,18.0,0,10.716
1840,58.88,-0.2872,6.0660,0.0812,-0.0370,-0.1292,-0.4571,slope,18.0,0,10.496
1850,59.20,0.1289,5.8273,0.1509,0.0504,-0.2522,-0.4816,slope,18.0,0,10.105
1860,59.52,0.5534,5.5961,0.2827,0.1167,-0.3285,-0.4385,slope,18.0,0,9.726
1870,59.84,1.0062,5.3947,0.4563,0.0975,-0.3385,-0.3920,slope,18.0,0,9.375
1880,60.16,1.4309,5.2275,0.6179,0.0726,-0.3471,-0.3158,slope,18.0,0,9.078
1890,60.48,1.8901,5.0776,0.7931,0.0745,-0.3544,-0.3238,slope,18.0,0,8.802
1900,60.80,2.2521,4.9013,0.9322,-0.0090,-0.3464,-0.0727,slope,18.0,0,8.541
1910,61.12,2.2875,4.9060,0.9518,-0.1185,-0.3788,0.2921,slope,18.0,0,8.538
1920,61.44,2.2678,4.9945,0.9382,-0.0958,-0.3557,0.1826,slope,18.0,0,8.628
1930,61.76,2.2680,5.0362,0.9352,-0.0613,-0.3522,0.0771,slope,18.0,0,8.669
1940,62.08,2.2689,5.0517,0.9357,-0.0472,-0.3593,0.0366,slope,18.0,0,8.684
1950,62.40,2.2691,5.0571,0.9356,-0.0422,-0.3600,0.0222,slope,18.0,0,8.689
1960,62.72,2.2693,5.0593,0.9356,-0.0405,-0.3602,0.0175,slope,18.0,0,8.691
1970,63.04,2.2695,5.0604,0.9356,-0.0398,-0.3603,0.0156,slope,18.0,0,8.692
1980,63.36,2.2696,5.0609,0.9356,-0.0394,-0.3603,0.0146,slope,18.0,0,8.692
1990,63.68,2.2696,5.0612,0.9356,-0.0393,-0.3603,0.0141,slope,18.0,0,8.693
2000,64.00,2.2697,5.0613,0.9357,-0.0392,-0.3603,0.0139,slope,18.0,0,8.693
2010,64.32,2.2697,5.0612,0.9357,-0.0390,-0.3604,0.0134,slope,18.0,0,8.693
2020,64.64,2.2698,5.0609,0.9357,-0.0387,-0.3604,0.0124,slope,18.0,0,8.692
2030,64.96,2.2700,5.0601,0.9359,-0.0379,-0.3605,0.0101,slope,18.0,0,8.692
2040,65.28,2.2711,5.0580,0.9363,-0.0360,-0.3607,0.0048,slope,18.0,0,8.689
2050,65.60,2.2723,5.0531,0.9370,-0.0318,-0.3612,-0.0073,slope,18.0,0,8.684
2060,65.92,2.2724,5.0416,0.9374,-0.0221,-0.3619,-0.0352,slope,18.0,0,8.673
2070,66.24,2.2700,5.0198,0.9370,-0.0101,-0.3600,-0.0691,slope,18.0,0,8.652
2080,66.56,2.2698,5.0033,0.9374,-0.0229,-0.3589,-0.0319,slope,18.0,0,8.636
2090,66.88,2.2697,4.9953,0.9357,-0.0289,-0.3464,-0.0150,slope,18.0,0,8.629
2100,67.20,2.2698,4.9904,0.9359,-0.0327,-0.3456,-0.0039,slope,18.0,0,8.624
2110,67.52,2.2700,4.9874,0.9361,-0.0350,-0.3456,0.0027,slope,18.0,0,8.621
2120,67.84,2.2703,4.9854,0.9361,-0.0370,-0.3444,0.0084,slope,18.0,0,8.619
2130,68.16,2.2700,4.9838,0.9386,-0.0369,-0.3604,0.0079,slope,18.0,0,8.617
2140,68.48,2.2696,4.9820,0.9385,-0.0369,-0.3604,0.0080,slope,18.0,0,8.616
2150,68.80,2.2697,4.9812,0.9386,-0.0379,-0.3603,0.0110,slope,18.0,0,8.615
2160,69.12,2.2698,4.9808,0.9386,-0.0384,-0.3603,0.0124,slope,18.0,0,8.614
2170,69.44,2.2698,4.9806,0.9386,-0.0387,-0.3602,0.0131,slope,18.0,0,8.614
2180,69.76,2.2698,4.9805,0.9386,-0.0388,-0.3602,0.0135,slope,18.0,0,8.614
2190,70.08,2.2699,4.9805,0.9387,-0.0389,-0.3602,0.0139,slope,18.0,0,8.614
2200,70.40,2.2701,4.9807,0.9387,-0.0391,-0.3602,0.0145,slope,18.0,0,8.614
2210,70.72,2.2704,4.9813,0.9388,-0.0395,-0.3601,0.0157,slope,18.0,0,8.615
2220,71.04,2.2707,4.9825,0.9389,-0.0404,-0.3600,0.0180,slope,18.0,0,8.616
2230,71.36,2.2716,4.9849,0.9392,-0.0419,-0.3599,0.0223,slope,18.0,0,8.618
2240,71.68,2.2722,4.9897,0.9392,-0.0444,-0.3596,0.0297,slope,18.0,1,13.673
2250,72.00,2.2723,4.9987,0.9389,-0.0492,-0.3589,0.0432,slope,18.0,1,13.681
2260,72.32,2.2717,5.0153,0.9381,-0.0580,-0.3575,0.0686,slope,18.0,1,13.697
2270,72.64,2.2692,5.0392,0.9338,-0.0561,-0.3423,0.0624,slope,18.0,1,13.720
2280,72.96,2.2690,5.0526,0.9357,-0.0469,-0.3589,0.0358,slope,18.0,1,13.733
2290,73.28,2.2690,5.0568,0.9356,-0.0432,-0.3599,0.0254,slope,18.0,1,13.737
2300,73.60,2.2693,5.0590,0.9356,-0.0413,-0.3601,0.0198,slope,18.0,1,13.739
2310,73.92,2.2695,5.0601,0.9356,-0.0403,-0.3602,0.0170,slope,18.0,1,13.741
2320,74.24,2.2695,5.0608,0.9356,-0.0397,-0.3603,0.0155,slope,18.0,1,13.741
2330,74.56,2.2696,5.0611,0.9356,-0.0394,-0.3603,0.0146,slope,18.0,1,13.742
2340,74.88,2.2696,5.0613,0.9356,-0.0393,-0.3603,0.0142,slope,18.0,1,13.742
2350,75.20,2.2696,5.0614,0.9357,-0.0392,-0.3603,0.0139,slope,18.0,1,13.742
2360,75.52,2.2697,5.0614,0.9357,-0.0390,-0.3603,0.0134,slope,18.0,1,13.742
2370,75.84,2.2698,5.0612,0.9357,-0.0386,-0.3604,0.0122,slope,18.0,1,13.742
2380,76.16,2.1801,5.0595,0.9021,-0.0359,-0.3583,0.0045,slope,18.0,1,13.721
2390,76.48,2.1773,5.0546,0.9012,-0.0248,-0.3594,-0.0273,slope,18.0,1,13.716
2400,76.80,2.2689,5.0392,0.9356,-0.0112,-0.3584,-0.0653,slope,18.0,1,13.720
2410,77.12,2.2688,5.0267,0.9354,0.0026,-0.3547,-0.1050,slope,18.0,1,13.708
2420,77.44,2.2654,5.0239,0.9351,0.0066,-0.3598,-0.1165,slope,18.0,1,13.704
2430,77.76,2.2628,5.0203,0.9345,0.0063,-0.3614,-0.1154,slope,18.0,1,13.700
2440,78.08,2.2622,5.0186,0.9340,0.0058,-0.3597,-0.1141,slope,18.0,1,13.699
2450,78.40,2.2617,5.0173,0.9340,0.0046,-0.3601,-0.1104,slope,18.0,1,13.697
2460,78.72,2.2650,5.0169,0.9356,0.0023,-0.3623,-0.1040,slope,18.0,1,13.698
2470,79.04,2.2689,5.0171,0.9339,-0.0042,-0.3426,-0.0852,slope,18.0,1,13.699
2480,79.36,2.2596,5.0137,0.9335,0.0050,-0.3614,-0.1116,slope,18.0,1,13.693
2490,79.68,2.2566,5.0119,0.9321,0.0056,-0.3589,-0.1134,slope,18.0,1,13.691
2500,80.00,2.2632,5.0128,0.9350,0.0007,-0.3621,-0.0990,slope,18.0,1,13.693
2510,80.32,2.2672,5.0132,0.9333,-0.0061,-0.3419,-0.0799,slope,18.0,1,13.694
2520,80.64,2.2585,5.0103,0.9332,0.0025,-0.3612,-0.1046,slope,18.0,1,13.690
2530,80.96,2.2545,5.0089,0.9314,0.0060,-0.3589,-0.1144,slope,18.0,1,13.687
2540,81.28,2.2538,5.0085,0.9309,0.0053,-0.3570,-0.1127,slope,18.0,1,13.687
2550,81.60,2.2614,5.0097,0.9344,-0.0001,-0.3617,-0.0967,slope,18.0,1,13.690
2560,81.92,2.2679,5.0109,0.9369,-0.0077,-0.3624,-0.0752,slope,18.0,1,13.692
2570,82.24,2.2524,5.0062,0.9310,0.0059,-0.3607,-0.1140,slope,18.0,1,13.684
2580,82.56,2.2549,5.0062,0.9322,0.0046,-0.3619,-0.1106,slope,18.0,1,13.685
2590,82.88,2.2607,5.0073,0.9343,-0.0010,-0.3619,-0.0941,slope,18.0,1,13.687
2600,83.20,2.2619,5.0072,0.9347,-0.0033,-0.3619,-0.0879,slope,18.0,2,10.523
2610,83.52,2.1959,4.9894,0.9106,0.0707,-0.3539,-0.3016,slope,18.0,2,10.473
2620,83.84,2.1621,4.9042,0.9009,0.2253,-0.2823,-0.7924,slope,18.0,2,10.383
2630,84.16,2.2189,4.6374,0.9313,0.3422,-0.1096,-1.3635,slope,18.0,2,10.187
2640,84.48,2.1846,4.2362,0.9309,0.3613,0.0150,-1.6937,slope,18.0,2,9.832
2650,84.80,2.0932,3.7693,0.9037,0.3470,0.0780,-1.7824,slope,18.0,2,9.395
2660,85.12,1.9511,3.3059,0.8483,0.3324,0.1580,-1.9159,slope,18.0,2,8.935
2670,85.44,1.6913,2.8825,0.7481,0.2556,0.2327,-2.1733,slope,18.0,2,8.440
2680,85.76,1.3753,2.4863,0.6158,0.1947,0.2679,-2.3242,slope,18.0,2,7.934
2690,86.08,0.9983,2.1280,0.4736,0.1302,0.2537,-2.4185,slope,18.0,2,7.423
2700,86.40,0.5865,1.7779,0.3469,0.0871,0.2041,-2.4588,slope,18.0,2,6.901
2710,86.72,0.1690,1.4225,0.2630,0.0223,0.1394,-2.4440,slope,18.0,2,6.374
2720,87.04,-0.2327,1.0653,0.2234,-0.0010,0.0531,-2.3845,slope,18.0,2,5.858
2730,87.36,-0.6075,0.6952,0.2119,-0.0157,-0.0001,-2.2746,flat,18.0,2,5.348
2740,87.68,-0.9366,0.2790,0.2139,-0.0165,-0.0044,-2.1485,flat,18.0,2,4.824
2750,88.00,-1.2147,-0.1752,0.2196,-0.0123,-0.0111,-2.0811,flat,18.0,2,4.292
2760,88.32,-1.4762,-0.6620,0.2276,-0.0078,-0.0143,-2.0443,flat,18.0,2,3.739
2770,88.64,-1.7317,-1.1686,0.2352,-0.0047,-0.0119,-2.0318,flat,18.0,2,3.173
2780,88.96,-1.9903,-1.6813,0.2338,0.0076,0.0003,-2.0396,flat,18.0,2,2.599
2790,89.28,-2.2500,-2.1813,0.2313,0.0073,0.0160,-2.0642,flat,18.0,2,2.036
2800,89.60,-2.4945,-2.6220,0.2213,0.0056,0.0215,-2.0933,flat,18.0,2,1.532
2810,89.92,-2.7095,-2.9771,0.2117,0.0031,0.0255,-2.1159,flat,18.0,2,1.117
